country,state,city,station,last_update,latitude,longitude,pollutant_id,pollutant_min,pollutant_max,pollutant_avg
India,Andhra_Pradesh,Anantapur,"Gulzarpet, Anantapur - APPCB",11-07-2024 02:00:00,14.675886,77.593027,CO,17,30,19
India,Andhra_Pradesh,Chittoor,"Gangineni Cheruvu, Chittoor - APPCB",11-07-2024 02:00:00,13.204880,79.097889,SO2,5,6,6
India,Andhra_Pradesh,Kadapa,"Yerramukkapalli, Kadapa - APPCB",11-07-2024 02:00:00,14.465052,78.824187,SO2,2,3,2
India,Andhra_Pradesh,Rajamahendravaram,"Anand Kala Kshetram, Rajamahendravaram - APPCB",11-07-2024 02:00:00,16.9872867,81.7363176,PM10,23,62,40
India,Andhra_Pradesh,Rajamahendravaram,"Anand Kala Kshetram, Rajamahendravaram - APPCB",11-07-2024 02:00:00,16.9872867,81.7363176,CO,14,68,40
India,Andhra_Pradesh,Tirupati,"Tirumala, Tirupati - APPCB",11-07-2024 02:00:00,13.67,79.35,OZONE,NA,NA,NA
India,Andhra_Pradesh,Tirupati,"Vaikuntapuram, Tirupati - APPCB",11-07-2024 02:00:00,13.615387,79.409230,NO2,15,24,18
India,Andhra_Pradesh,Vijayawada,"HB Colony, Vijayawada - APPCB",11-07-2024 02:00:00,16.536107,80.594233,NO2,7,21,12
India,Andhra_Pradesh,Vijayawada,"HB Colony, Vijayawada - APPCB",11-07-2024 02:00:00,16.536107,80.594233,SO2,6,7,7
India,Andhra_Pradesh,Vijayawada,"HB Colony, Vijayawada - APPCB",11-07-2024 02:00:00,16.536107,80.594233,CO,29,38,29
India,Andhra_Pradesh,Vijayawada,"HB Colony, Vijayawada - APPCB",11-07-2024 02:00:00,16.536107,80.594233,OZONE,13,29,20
India,Andhra_Pradesh,Vijayawada,"Rajiv Gandhi Park, Vijayawada - APPCB",11-07-2024 02:00:00,16.509717,80.612222,NH3,2,7,5
India,Andhra_Pradesh,Vijayawada,"Rajiv Nagar, Vijayawada - APPCB",11-07-2024 02:00:00,16.554731,80.649110,PM2.5,47,50,49
India,Andhra_Pradesh,Visakhapatnam,"GVM Corporation, Visakhapatnam - APPCB",11-07-2024 02:00:00,17.72,83.3,PM2.5,6,114,52
India,Andhra_Pradesh,Visakhapatnam,"GVM Corporation, Visakhapatnam - APPCB",11-07-2024 02:00:00,17.72,83.3,PM10,52,158,98
India,Andhra_Pradesh,Visakhapatnam,"GVM Corporation, Visakhapatnam - APPCB",11-07-2024 02:00:00,17.72,83.3,SO2,3,12,8
India,Arunachal_Pradesh,Naharlagun,"Naharlagun, Naharlagun - APSPCB",11-07-2024 02:00:00,27.103358,93.679645,PM10,4,26,14
India,Assam,Byrnihat,"Central Academy for SFS, Byrnihat - PCBA",11-07-2024 02:00:00,26.071318,91.87488,NO2,13,27,18
India,Assam,Guwahati,"IITG, Guwahati - PCBA",11-07-2024 02:00:00,26.2028636,91.70046436,NH3,NA,NA,NA
India,Assam,Guwahati,"LGBI Airport, Guwahati - PCBA",11-07-2024 02:00:00,26.10887,91.589544,NO2,5,42,18
India,Assam,Guwahati,"LGBI Airport, Guwahati - PCBA",11-07-2024 02:00:00,26.10887,91.589544,NH3,1,8,3
India,Assam,Guwahati,"LGBI Airport, Guwahati - PCBA",11-07-2024 02:00:00,26.10887,91.589544,CO,26,50,45
India,Assam,Guwahati,"LGBI Airport, Guwahati - PCBA",11-07-2024 02:00:00,26.10887,91.589544,OZONE,24,31,27
India,Assam,Guwahati,"Railway Colony, Guwahati - PCBA",11-07-2024 02:00:00,26.181742,91.78063,PM10,NA,NA,NA
India,Assam,Nagaon,"Christianpatty, Nagaon - PCBA",11-07-2024 02:00:00,26.349082,92.68449,PM10,14,32,17
India,Assam,Nagaon,"Christianpatty, Nagaon - PCBA",11-07-2024 02:00:00,26.349082,92.68449,NO2,NA,NA,NA
India,Assam,Silchar,"Tarapur, Silchar - PCBA",11-07-2024 02:00:00,24.82827,92.79525,PM10,43,53,46
India,Assam,Silchar,"Tarapur, Silchar - PCBA",11-07-2024 02:00:00,24.82827,92.79525,NO2,7,7,7
India,Assam,Sivasagar,"Girls College, Sivasagar - PCBA",11-07-2024 02:00:00,26.987634,94.636574,PM2.5,27,63,38
India,Assam,Sivasagar,"Girls College, Sivasagar - PCBA",11-07-2024 02:00:00,26.987634,94.636574,NH3,1,3,1
India,Assam,Sivasagar,"Girls College, Sivasagar - PCBA",11-07-2024 02:00:00,26.987634,94.636574,CO,12,17,15
India,Assam,Sivasagar,"Girls College, Sivasagar - PCBA",11-07-2024 02:00:00,26.987634,94.636574,OZONE,1,3,1
India,Bihar,Araria,"Kharahiya Basti, Araria - BSPCB",11-07-2024 02:00:00,26.146529,87.454184,PM10,NA,NA,NA
India,Bihar,Araria,"Kharahiya Basti, Araria - BSPCB",11-07-2024 02:00:00,26.146529,87.454184,NH3,NA,NA,NA
India,Bihar,Arrah,"New DM Office, Arrah - BSPCB",11-07-2024 02:00:00,25.5626095,84.663264,NO2,7,13,10
India,Bihar,Arrah,"New DM Office, Arrah - BSPCB",11-07-2024 02:00:00,25.5626095,84.663264,NH3,2,3,2
India,Bihar,Arrah,"New DM Office, Arrah - BSPCB",11-07-2024 02:00:00,25.5626095,84.663264,SO2,7,10,9
India,Bihar,Aurangabad,"Gurdeo Nagar, Aurangabad - BSPCB",11-07-2024 02:00:00,24.75746,84.366208,PM2.5,25,75,46
India,Bihar,Aurangabad,"Gurdeo Nagar, Aurangabad - BSPCB",11-07-2024 02:00:00,24.75746,84.366208,SO2,10,17,15
India,Bihar,Bettiah,"Kamalnath Nagar, Bettiah - BSPCB",11-07-2024 02:00:00,26.80365,84.51954,SO2,9,20,15
India,Bihar,Bhagalpur,"Mayaganj, Bhagalpur - BSPCB",11-07-2024 02:00:00,25.265194,87.012947,CO,16,31,25
India,Bihar,Bihar Sharif,"D M Colony, Bihar Sharif - BSPCB",11-07-2024 02:00:00,25.204762,85.514960,NO2,9,9,9
India,Bihar,Chhapra,"Darshan Nagar, Chhapra - BSPCB",11-07-2024 02:00:00,25.7808257,84.7446768,PM10,NA,NA,NA
India,Bihar,Gaya,"Collectorate, Gaya - BSPCB",11-07-2024 02:00:00,24.7955,84.9994,CO,24,105,78
India,Bihar,Gaya,"Collectorate, Gaya - BSPCB",11-07-2024 02:00:00,24.7955,84.9994,OZONE,63,65,64
India,Bihar,Gaya,"Kareemganj, Gaya - BSPCB",11-07-2024 02:00:00,24.792403,84.992416,PM2.5,NA,NA,NA
India,Bihar,Hajipur,"Industrial Area, Hajipur - BSPCB",11-07-2024 02:00:00,25.697189,85.245900,PM2.5,60,178,94
India,Bihar,Kishanganj,"SDM Office_Khagra, Kishanganj - BSPCB",11-07-2024 02:00:00,26.0881305,87.93840336,SO2,5,42,20
India,Bihar,Motihari,"Gandak Colony, Motihari - BSPCB",11-07-2024 02:00:00,26.63086,84.90051,PM2.5,10,217,39
India,Bihar,Motihari,"Gandak Colony, Motihari - BSPCB",11-07-2024 02:00:00,26.63086,84.90051,PM10,13,159,40
India,Bihar,Motihari,"Gandak Colony, Motihari - BSPCB",11-07-2024 02:00:00,26.63086,84.90051,OZONE,7,26,16
India,Bihar,Munger,"Town Hall, Munger - BSPCB",11-07-2024 02:00:00,25.376776,86.471523,OZONE,1,13,3
India,Bihar,Muzaffarpur,"MIT-Daudpur Kothi, Muzaffarpur - BSPCB",11-07-2024 02:00:00,26.1403345,85.3650192,PM10,2,200,60
India,Bihar,Muzaffarpur,"MIT-Daudpur Kothi, Muzaffarpur - BSPCB",11-07-2024 02:00:00,26.1403345,85.3650192,NO2,4,6,5
India,Bihar,Muzaffarpur,"MIT-Daudpur Kothi, Muzaffarpur - BSPCB",11-07-2024 02:00:00,26.1403345,85.3650192,NH3,7,9,7
India,Bihar,Patna,"DRM Office Danapur, Patna - BSPCB",11-07-2024 02:00:00,25.586562,85.043586,PM2.5,37,76,57
India,Bihar,Patna,"DRM Office Danapur, Patna - BSPCB",11-07-2024 02:00:00,25.586562,85.043586,PM10,60,114,82
India,Bihar,Patna,"DRM Office Danapur, Patna - BSPCB",11-07-2024 02:00:00,25.586562,85.043586,NH3,2,3,3
India,Bihar,Patna,"Govt. High School Shikarpur, Patna - BSPCB",11-07-2024 02:00:00,25.592539,85.227158,OZONE,1,59,8
India,Bihar,Patna,"Muradpur, Patna - BSPCB",11-07-2024 02:00:00,25.619651,85.147382,PM2.5,52,93,72
India,Bihar,Patna,"Muradpur, Patna - BSPCB",11-07-2024 02:00:00,25.619651,85.147382,PM10,96,131,117
India,Bihar,Patna,"Samanpura, Patna - BSPCB",11-07-2024 02:00:00,25.596727,85.085624,NH3,9,17,13
India,Bihar,Purnia,"Mariam Nagar, Purnia - BSPCB",11-07-2024 02:00:00,25.366336,87.117468,NH3,1,1,1
India,Bihar,Rajgir,"Dangi Tola, Rajgir - BSPCB",11-07-2024 02:00:00,25.03280,85.41948,PM10,NA,NA,NA
India,Bihar,Samastipur,"DM Office_Kasipur, Samastipur - BSPCB",11-07-2024 02:00:00,25.859655,85.77944,PM2.5,40,187,97
India,Bihar,Samastipur,"DM Office_Kasipur, Samastipur - BSPCB",11-07-2024 02:00:00,25.859655,85.77944,NO2,NA,NA,NA
India,Bihar,Samastipur,"DM Office_Kasipur, Samastipur - BSPCB",11-07-2024 02:00:00,25.859655,85.77944,NH3,2,2,2
India,Bihar,Sasaram,"Dada Peer, Sasaram - BSPCB",11-07-2024 02:00:00,24.952822,84.002396,CO,24,51,36
India,Chandigarh,Chandigarh,"Sector 22, Chandigarh - CPCC",11-07-2024 02:00:00,30.735567,76.775714,NH3,3,51,17
India,Chandigarh,Chandigarh,"Sector 22, Chandigarh - CPCC",11-07-2024 02:00:00,30.735567,76.775714,OZONE,13,116,48
India,Chandigarh,Chandigarh,"Sector-25, Chandigarh - CPCC",11-07-2024 02:00:00,30.751462,76.762879,PM10,48,131,85
India,Chandigarh,Chandigarh,"Sector-25, Chandigarh - CPCC",11-07-2024 02:00:00,30.751462,76.762879,NO2,11,71,30
India,Chandigarh,Chandigarh,"Sector-25, Chandigarh - CPCC",11-07-2024 02:00:00,30.751462,76.762879,SO2,3,33,8
India,Chandigarh,Chandigarh,"Sector-53, Chandigarh - CPCC",11-07-2024 02:00:00,30.719859,76.738637,NO2,12,121,41
India,Chandigarh,Chandigarh,"Sector-53, Chandigarh - CPCC",11-07-2024 02:00:00,30.719859,76.738637,CO,28,101,68
India,Chandigarh,Chandigarh,"Sector-53, Chandigarh - CPCC",11-07-2024 02:00:00,30.719859,76.738637,OZONE,6,63,29
India,Chhattisgarh,Bhilai,"32Bungalows, Bhilai - CECB",11-07-2024 02:00:00,21.194815,81.314770,PM2.5,10,30,20
India,Chhattisgarh,Bhilai,"32Bungalows, Bhilai - CECB",11-07-2024 02:00:00,21.194815,81.314770,PM10,8,35,21
India,Chhattisgarh,Bhilai,"Hathkhoj, Bhilai - CECB",11-07-2024 02:00:00,21.224231,81.408350,SO2,9,21,15
India,Chhattisgarh,Bilaspur,"Mangala, Bilaspur - NTPC",11-07-2024 02:00:00,22.08815,82.13737,NO2,5,8,6
India,Chhattisgarh,Chhal,"Nawapara SECL Colony, Chhal - CECB",11-07-2024 02:00:00,22.118125,83.140608,PM10,27,93,45
India,Chhattisgarh,Chhal,"Nawapara SECL Colony, Chhal - CECB",11-07-2024 02:00:00,22.118125,83.140608,NH3,2,2,2
India,Chhattisgarh,Korba,"Rampur, Korba - CECB",11-07-2024 02:00:00,22.368195,82.746431,SO2,6,15,9
India,Chhattisgarh,Korba,"Urja Nagar, Korba - CECB",11-07-2024 02:00:00,22.348441,82.549611,PM2.5,NA,NA,NA
India,Chhattisgarh,Korba,"Urja Nagar, Korba - CECB",11-07-2024 02:00:00,22.348441,82.549611,NH3,3,6,4
India,Chhattisgarh,Kunjemura,"OP Jindal School, Kunjemura - CECB",11-07-2024 02:00:00,22.126650,83.483212,PM2.5,NA,NA,NA
India,Chhattisgarh,Kunjemura,"OP Jindal School, Kunjemura - CECB",11-07-2024 02:00:00,22.126650,83.483212,NO2,NA,NA,NA
India,Chhattisgarh,Milupara,"Govt. Higher Secondary School, Milupara - CECB",11-07-2024 02:00:00,22.1910172,83.5197009,OZONE,25,89,40
India,Chhattisgarh,Raipur,"AIIMS, Raipur - CECB",11-07-2024 02:00:00,21.258815,81.578979,PM10,8,45,27
India,Chhattisgarh,Raipur,"AIIMS, Raipur - CECB",11-07-2024 02:00:00,21.258815,81.578979,NO2,9,18,12
India,Chhattisgarh,Raipur,"AIIMS, Raipur - CECB",11-07-2024 02:00:00,21.258815,81.578979,NH3,6,6,6
India,Chhattisgarh,Raipur,"Bhatagaon New ISBT, Raipur - CECB",11-07-2024 02:00:00,21.219665,81.630094,SO2,NA,NA,NA
India,Chhattisgarh,Raipur,"Bhatagaon New ISBT, Raipur - CECB",11-07-2024 02:00:00,21.219665,81.630094,CO,18,38,29
India,Chhattisgarh,Raipur,"Krishak Nagar, Raipur - CECB",11-07-2024 02:00:00,21.237755,81.705301,CO,12,32,22
India,Delhi,Delhi,"Alipur, Delhi - DPCC",11-07-2024 02:00:00,28.815329,77.153010,PM10,79,177,121
India,Delhi,Delhi,"Anand Vihar, Delhi - DPCC",11-07-2024 02:00:00,28.647622,77.3158090,NO2,3,56,15
India,Delhi,Delhi,"Ashok Vihar, Delhi - DPCC",11-07-2024 02:00:00,28.695381,77.181665,SO2,8,15,10
India,Delhi,Delhi,"Ashok Vihar, Delhi - DPCC",11-07-2024 02:00:00,28.695381,77.181665,CO,26,79,58
India,Delhi,Delhi,"Ashok Vihar, Delhi - DPCC",11-07-2024 02:00:00,28.695381,77.181665,OZONE,10,60,17
India,Delhi,Delhi,"Bawana, Delhi - DPCC",11-07-2024 02:00:00,28.776200,77.051074,CO,35,104,58
India,Delhi,Delhi,"Burari Crossing, Delhi - IMD",11-07-2024 02:00:00,28.7256504,77.2011573,PM2.5,41,310,115
India,Delhi,Delhi,"CRRI Mathura Road, Delhi - IMD",11-07-2024 02:00:00,28.5512005,77.2735737,PM10,51,159,110
India,Delhi,Delhi,"CRRI Mathura Road, Delhi - IMD",11-07-2024 02:00:00,28.5512005,77.2735737,CO,44,72,56
India,Delhi,Delhi,"DTU, Delhi - CPCB",11-07-2024 02:00:00,28.7500499,77.1112615,NH3,17,24,19
India,Delhi,Delhi,"DTU, Delhi - CPCB",11-07-2024 02:00:00,28.7500499,77.1112615,CO,44,114,71
India,Delhi,Delhi,"Dr. Karni Singh Shooting Range, Delhi - DPCC",11-07-2024 02:00:00,28.498571,77.264840,PM10,55,117,93
India,Delhi,Delhi,"IGI Airport (T3), Delhi - IMD",11-07-2024 02:00:00,28.5627763,77.1180053,NO2,NA,NA,NA
India,Delhi,Delhi,"IGI Airport (T3), Delhi - IMD",11-07-2024 02:00:00,28.5627763,77.1180053,CO,20,60,43
India,Delhi,Delhi,"IHBAS, Dilshad Garden, Delhi - CPCB",11-07-2024 02:00:00,28.6811736,77.3025234,NO2,14,38,28
India,Delhi,Delhi,"ITO, Delhi - CPCB",11-07-2024 02:00:00,28.628624,77.241060,NH3,4,5,4
India,Delhi,Delhi,"ITO, Delhi - CPCB",11-07-2024 02:00:00,28.628624,77.241060,SO2,1,14,8
India,Delhi,Delhi,"ITO, Delhi - CPCB",11-07-2024 02:00:00,28.628624,77.241060,CO,8,85,65
India,Delhi,Delhi,"Jawaharlal Nehru Stadium, Delhi - DPCC",11-07-2024 02:00:00,28.580280,77.233829,PM10,50,131,93
India,Delhi,Delhi,"Jawaharlal Nehru Stadium, Delhi - DPCC",11-07-2024 02:00:00,28.580280,77.233829,SO2,1,17,8
India,Delhi,Delhi,"Lodhi Road, Delhi - IMD",11-07-2024 02:00:00,28.5918245,77.2273074,OZONE,9,70,10
India,Delhi,Delhi,"Major Dhyan Chand National Stadium, Delhi - DPCC",11-07-2024 02:00:00,28.611281,77.237738,PM10,61,175,110
India,Delhi,Delhi,"Mandir Marg, Delhi - DPCC",11-07-2024 02:00:00,28.636429,77.201067,NH3,4,9,7
India,Delhi,Delhi,"Mundka, Delhi - DPCC",11-07-2024 02:00:00,28.684678,77.076574,NH3,1,8,4
India,Delhi,Delhi,"NSIT Dwarka, Delhi - CPCB",11-07-2024 02:00:00,28.60909,77.0325413,PM10,57,120,96
India,Delhi,Delhi,"Najafgarh, Delhi - DPCC",11-07-2024 02:00:00,28.570173,76.933762,PM10,42,107,77
India,Delhi,Delhi,"Narela, Delhi - DPCC",11-07-2024 02:00:00,28.822836,77.101981,NH3,8,10,8
India,Delhi,Delhi,"Nehru Nagar, Delhi - DPCC",11-07-2024 02:00:00,28.567890,77.250515,PM10,60,171,117
India,Delhi,Delhi,"Okhla Phase-2, Delhi - DPCC",11-07-2024 02:00:00,28.530785,77.271255,PM10,63,179,118
India,Delhi,Delhi,"Okhla Phase-2, Delhi - DPCC",11-07-2024 02:00:00,28.530785,77.271255,SO2,6,17,11
India,Delhi,Delhi,"Okhla Phase-2, Delhi - DPCC",11-07-2024 02:00:00,28.530785,77.271255,OZONE,6,48,9
India,Delhi,Delhi,"Patparganj, Delhi - DPCC",11-07-2024 02:00:00,28.623763,77.287209,NH3,4,8,6
India,Delhi,Delhi,"Punjabi Bagh, Delhi - DPCC",11-07-2024 02:00:00,28.674045,77.131023,PM2.5,48,260,131
India,Delhi,Delhi,"Punjabi Bagh, Delhi - DPCC",11-07-2024 02:00:00,28.674045,77.131023,PM10,79,193,129
India,Delhi,Delhi,"Punjabi Bagh, Delhi - DPCC",11-07-2024 02:00:00,28.674045,77.131023,NH3,3,10,5
India,Delhi,Delhi,"Punjabi Bagh, Delhi - DPCC",11-07-2024 02:00:00,28.674045,77.131023,SO2,11,28,21
India,Delhi,Delhi,"Punjabi Bagh, Delhi - DPCC",11-07-2024 02:00:00,28.674045,77.131023,CO,8,58,33
India,Delhi,Delhi,"Punjabi Bagh, Delhi - DPCC",11-07-2024 02:00:00,28.674045,77.131023,OZONE,2,61,13
India,Delhi,Delhi,"Pusa, Delhi - DPCC",11-07-2024 02:00:00,28.639652,77.146275,OZONE,8,37,21
India,Delhi,Delhi,"Pusa, Delhi - IMD",11-07-2024 02:00:00,28.636110,77.173332,PM10,16,142,93
India,Delhi,Delhi,"Shadipur, Delhi - CPCB",11-07-2024 02:00:00,28.6514781,77.1473105,PM2.5,57,157,88
India,Delhi,Delhi,"Shadipur, Delhi - CPCB",11-07-2024 02:00:00,28.6514781,77.1473105,NO2,35,102,66
India,Delhi,Delhi,"Sonia Vihar, Delhi - DPCC",11-07-2024 02:00:00,28.710508,77.249485,OZONE,4,97,38
India,Delhi,Delhi,"Sri Aurobindo Marg, Delhi - DPCC",11-07-2024 02:00:00,28.531346,77.190156,SO2,7,15,11
India,Delhi,Delhi,"Vivek Vihar, Delhi - DPCC",11-07-2024 02:00:00,28.672342,77.315260,NH3,16,17,17
India,Delhi,Delhi,"Vivek Vihar, Delhi - DPCC",11-07-2024 02:00:00,28.672342,77.315260,SO2,4,11,7
India,Delhi,Delhi,"Vivek Vihar, Delhi - DPCC",11-07-2024 02:00:00,28.672342,77.315260,CO,52,94,80
India,Gujarat,Ahmedabad,"Chandkheda, Ahmedabad - IITM",11-07-2024 02:00:00,23.107969,72.574648,NH3,NA,NA,NA
India,Gujarat,Ahmedabad,"Chandkheda, Ahmedabad - IITM",11-07-2024 02:00:00,23.107969,72.574648,CO,26,38,32
India,Gujarat,Ahmedabad,"Chandkheda, Ahmedabad - IITM",11-07-2024 02:00:00,23.107969,72.574648,OZONE,10,42,32
India,Gujarat,Ahmedabad,"Maninagar, Ahmedabad - GPCB",11-07-2024 02:00:00,23.002657,72.591912,PM2.5,29,69,43
India,Gujarat,Ahmedabad,"Maninagar, Ahmedabad - GPCB",11-07-2024 02:00:00,23.002657,72.591912,PM10,35,97,63
India,Gujarat,Ahmedabad,"Raikhad, Ahmedabad - IITM",11-07-2024 02:00:00,23.020509,72.579261,CO,2,23,15
India,Gujarat,Ahmedabad,"Rakhial, Ahmedabad - IITM",11-07-2024 02:00:00,23.016834,72.625775,NH3,4,15,7
India,Gujarat,Ahmedabad,"SVPI Airport Hansol, Ahmedabad - IITM",11-07-2024 02:00:00,23.076793,72.627874,NO2,30,65,49
India,Gujarat,Ahmedabad,"SVPI Airport Hansol, Ahmedabad - IITM",11-07-2024 02:00:00,23.076793,72.627874,NH3,11,16,14
India,Gujarat,Ahmedabad,"Sardar Vallabhbhai Patel Stadium, Ahmedabad - IITM",11-07-2024 02:00:00,23.043070,72.562968,PM2.5,18,158,56
India,Gujarat,Ahmedabad,"Sardar Vallabhbhai Patel Stadium, Ahmedabad - IITM",11-07-2024 02:00:00,23.043070,72.562968,SO2,12,16,15
India,Gujarat,Ahmedabad,"Sardar Vallabhbhai Patel Stadium, Ahmedabad - IITM",11-07-2024 02:00:00,23.043070,72.562968,CO,14,36,25
India,Gujarat,Ahmedabad,"Sardar Vallabhbhai Patel Stadium, Ahmedabad - IITM",11-07-2024 02:00:00,23.043070,72.562968,OZONE,10,31,24
India,Gujarat,Gandhinagar,"Sector-10, Gandhinagar - GPCB",11-07-2024 02:00:00,23.221714,72.654328,SO2,5,6,6
India,Gujarat,Gandhinagar,"Sector-10, Gandhinagar - GPCB",11-07-2024 02:00:00,23.221714,72.654328,OZONE,9,9,9
India,Gujarat,Nandesari,"GIDC, Nandesari - Nandesari Ind. Association",11-07-2024 02:00:00,22.410802,73.097923,PM2.5,64,323,190
India,Gujarat,Nandesari,"GIDC, Nandesari - Nandesari Ind. Association",11-07-2024 02:00:00,22.410802,73.097923,PM10,93,252,159
India,Gujarat,Nandesari,"GIDC, Nandesari - Nandesari Ind. Association",11-07-2024 02:00:00,22.410802,73.097923,NO2,NA,NA,NA
India,Gujarat,Surat,"Science Center, Surat - SMC",11-07-2024 02:00:00,21.170046,72.795405,PM2.5,NA,NA,NA
India,Gujarat,Surat,"Science Center, Surat - SMC",11-07-2024 02:00:00,21.170046,72.795405,CO,63,78,73
India,Gujarat,Vapi,"Phase-1 GIDC, Vapi - GPCB",11-07-2024 02:00:00,20.362421,72.918013,NH3,10,10,10
India,Gujarat,Vatva,"Phase-4 GIDC, Vatva - GPCB",11-07-2024 02:00:00,22.969611,72.643500,PM2.5,19,49,31
India,Haryana,Ambala,"Patti Mehar, Ambala - HSPCB",11-07-2024 02:00:00,30.379589,76.778328,PM2.5,NA,NA,NA
India,Haryana,Ambala,"Patti Mehar, Ambala - HSPCB",11-07-2024 02:00:00,30.379589,76.778328,PM10,NA,NA,NA
India,Haryana,Ambala,"Patti Mehar, Ambala - HSPCB",11-07-2024 02:00:00,30.379589,76.778328,NO2,NA,NA,NA
India,Haryana,Bahadurgarh,"Arya Nagar, Bahadurgarh - HSPCB",11-07-2024 02:00:00,28.6701,76.9254,PM2.5,6,103,68
India,Haryana,Ballabgarh,"Nathu Colony, Ballabgarh - HSPCB",11-07-2024 02:00:00,28.3419248,77.319699,PM2.5,62,127,84
India,Haryana,Ballabgarh,"Nathu Colony, Ballabgarh - HSPCB",11-07-2024 02:00:00,28.3419248,77.319699,NO2,8,15,14
India,Haryana,Ballabgarh,"Nathu Colony, Ballabgarh - HSPCB",11-07-2024 02:00:00,28.3419248,77.319699,NH3,1,2,2
India,Haryana,Ballabgarh,"Nathu Colony, Ballabgarh - HSPCB",11-07-2024 02:00:00,28.3419248,77.319699,CO,38,42,40
India,Haryana,Ballabgarh,"Nathu Colony, Ballabgarh - HSPCB",11-07-2024 02:00:00,28.3419248,77.319699,OZONE,7,38,16
India,Haryana,Bhiwani,"H.B. Colony, Bhiwani - HSPCB",11-07-2024 02:00:00,28.806223,76.141105,PM10,45,276,80
India,Haryana,Faridabad,"New Industrial Town, Faridabad - HSPCB",11-07-2024 02:00:00,28.39072,77.30059,PM10,96,207,128
India,Haryana,Faridabad,"New Industrial Town, Faridabad - HSPCB",11-07-2024 02:00:00,28.39072,77.30059,NO2,8,31,12
India,Haryana,Faridabad,"New Industrial Town, Faridabad - HSPCB",11-07-2024 02:00:00,28.39072,77.30059,OZONE,8,17,10
India,Haryana,Faridabad,"Sector 11, Faridabad - HSPCB",11-07-2024 02:00:00,28.376058,77.315741,PM10,NA,NA,NA
India,Haryana,Faridabad,"Sector 11, Faridabad - HSPCB",11-07-2024 02:00:00,28.376058,77.315741,NO2,NA,NA,NA
India,Haryana,Faridabad,"Sector 30, Faridabad - HSPCB",11-07-2024 02:00:00,28.4417,77.3217,NO2,16,16,16
India,Haryana,Faridabad,"Sector- 16A, Faridabad - HSPCB",11-07-2024 02:00:00,28.4088421,77.3099081,CO,34,90,68
India,Haryana,Fatehabad,"Huda Sector, Fatehabad - HSPCB",11-07-2024 02:00:00,29.503664,75.467934,NH3,9,10,10
India,Haryana,Gurugram,"Sector-51, Gurugram - HSPCB",11-07-2024 02:00:00,28.4227,77.0667,PM2.5,47,330,120
India,Haryana,Gurugram,"Teri Gram, Gurugram - HSPCB",11-07-2024 02:00:00,28.4275,77.1465,PM10,NA,NA,NA
India,Haryana,Hisar,"Urban Estate-II, Hisar - HSPCB",11-07-2024 02:00:00,29.140560,75.744941,NH3,4,6,4
India,Haryana,Hisar,"Urban Estate-II, Hisar - HSPCB",11-07-2024 02:00:00,29.140560,75.744941,CO,25,50,33
India,Haryana,Jind,"Police Lines, Jind - HSPCB",11-07-2024 02:00:00,29.307814,76.337619,PM2.5,36,73,50
India,Haryana,Kaithal,"Rishi Nagar, Kaithal - HSPCB",11-07-2024 02:00:00,29.8006,76.4155,PM2.5,53,97,70
India,Haryana,Kaithal,"Rishi Nagar, Kaithal - HSPCB",11-07-2024 02:00:00,29.8006,76.4155,PM10,54,100,75
India,Haryana,Kaithal,"Rishi Nagar, Kaithal - HSPCB",11-07-2024 02:00:00,29.8006,76.4155,CO,16,41,22
India,Haryana,Karnal,"Sector-12, Karnal - HSPCB",11-07-2024 02:00:00,29.695300,77.002700,OZONE,23,32,25
India,Haryana,Kurukshetra,"Sector-7, Kurukshetra - HSPCB",11-07-2024 02:00:00,29.966942,76.875879,SO2,1,36,9
India,Haryana,Mandikhera,"General Hospital, Mandikhera - HSPCB",11-07-2024 02:00:00,27.9002,76.9938,NO2,NA,NA,NA
India,Haryana,Manesar,"Sector-2 IMT, Manesar - HSPCB",11-07-2024 02:00:00,28.360699,76.936090,NH3,1,3,2
India,Haryana,Narnaul,"Shastri Nagar, Narnaul - HSPCB",11-07-2024 02:00:00,28.060249,76.113115,NH3,NA,NA,NA
India,Haryana,Narnaul,"Shastri Nagar, Narnaul - HSPCB",11-07-2024 02:00:00,28.060249,76.113115,SO2,NA,NA,NA
India,Haryana,Narnaul,"Shastri Nagar, Narnaul - HSPCB",11-07-2024 02:00:00,28.060249,76.113115,CO,13,20,15
India,Haryana,Narnaul,"Shastri Nagar, Narnaul - HSPCB",11-07-2024 02:00:00,28.060249,76.113115,OZONE,36,49,44
India,Haryana,Palwal,"Shyam Nagar, Palwal - HSPCB",11-07-2024 02:00:00,28.1485564,77.3320667,OZONE,6,12,7
India,Haryana,Panipat,"Sector-18, Panipat - HSPCB",11-07-2024 02:00:00,29.432304,76.972765,PM2.5,42,51,48
India,Haryana,Panipat,"Sector-18, Panipat - HSPCB",11-07-2024 02:00:00,29.432304,76.972765,PM10,45,50,48
India,Haryana,Panipat,"Sector-18, Panipat - HSPCB",11-07-2024 02:00:00,29.432304,76.972765,SO2,18,19,19
India,Haryana,Panipat,"Sector-18, Panipat - HSPCB",11-07-2024 02:00:00,29.432304,76.972765,CO,24,26,25
India,Haryana,Rohtak,"MD University, Rohtak - HSPCB",11-07-2024 02:00:00,28.52123,76.37138,PM2.5,39,408,172
India,Haryana,Rohtak,"MD University, Rohtak - HSPCB",11-07-2024 02:00:00,28.52123,76.37138,NO2,33,39,36
India,Haryana,Rohtak,"MD University, Rohtak - HSPCB",11-07-2024 02:00:00,28.52123,76.37138,OZONE,43,52,49
India,Haryana,Sirsa,"F-Block, Sirsa - HSPCB",11-07-2024 02:00:00,29.536400,75.015800,NH3,12,13,13
India,Haryana,Yamuna Nagar,"Gobind Pura, Yamuna Nagar - HSPCB",11-07-2024 02:00:00,30.1480566,77.2893471,SO2,1,22,7
India,Himachal Pradesh,Baddi,"HIMUDA Complex Phase-1, Baddi - HPPCB",11-07-2024 02:00:00,30.943887,76.801991,SO2,NA,NA,NA
India,Jammu_and_Kashmir,Srinagar,"Rajbagh, Srinagar - JKSPCB",11-07-2024 02:00:00,34.066206,74.819820,NH3,1,1,1
India,Jammu_and_Kashmir,Srinagar,"Rajbagh, Srinagar - JKSPCB",11-07-2024 02:00:00,34.066206,74.819820,CO,12,18,13
India,Jammu_and_Kashmir,Srinagar,"Rajbagh, Srinagar - JKSPCB",11-07-2024 02:00:00,34.066206,74.819820,OZONE,12,30,14
India,Jharkhand,Dhanbad,"Kalakusuma, Dhanbad - DMC",11-07-2024 02:00:00,23.811548,86.481238,PM10,NA,NA,NA
India,Jharkhand,Dhanbad,"Sardar Patel Nagar, Dhanbad - JSPCB",11-07-2024 02:00:00,23.80569,86.44268,CO,NA,NA,NA
India,Jharkhand,Pathardih,"Mohalbani Ghat, Pathardih - DMC",11-07-2024 02:00:00,23.669880,86.411725,SO2,NA,NA,NA
India,Karnataka,Bagalkot,"Vidayagiri, Bagalkot - KSPCB",11-07-2024 02:00:00,16.172806,75.659694,SO2,4,4,4
India,Karnataka,Bagalkot,"Vidayagiri, Bagalkot - KSPCB",11-07-2024 02:00:00,16.172806,75.659694,OZONE,NA,NA,NA
India,Karnataka,Belgaum,"Ramteerth Nagar, Belgaum - KSPCB",11-07-2024 02:00:00,15.888653,74.541751,PM2.5,14,71,34
India,Karnataka,Bengaluru,"BTM Layout, Bengaluru - CPCB",11-07-2024 02:00:00,12.9135218,77.5950804,SO2,14,15,14
India,Karnataka,Bengaluru,"Bapuji Nagar, Bengaluru - KSPCB",11-07-2024 02:00:00,12.951913,77.539784,PM2.5,9,58,32
India,Karnataka,Bengaluru,"Bapuji Nagar, Bengaluru - KSPCB",11-07-2024 02:00:00,12.951913,77.539784,NH3,1,1,1
India,Karnataka,Bengaluru,"Hombegowda Nagar, Bengaluru - KSPCB",11-07-2024 02:00:00,12.938539,77.590100,NO2,8,26,16
India,Karnataka,Bengaluru,"Peenya, Bengaluru - CPCB",11-07-2024 02:00:00,13.0270199,77.494094,NH3,8,8,8
India,Karnataka,Bengaluru,"Peenya, Bengaluru - CPCB",11-07-2024 02:00:00,13.0270199,77.494094,SO2,10,17,14
India,Karnataka,Bengaluru,"RVCE-Mailasandra, Bengaluru - KSPCB",11-07-2024 02:00:00,12.921418,77.502466,PM2.5,NA,NA,NA
India,Karnataka,Bengaluru,"RVCE-Mailasandra, Bengaluru - KSPCB",11-07-2024 02:00:00,12.921418,77.502466,CO,NA,NA,NA
India,Karnataka,Bengaluru,"Shivapura_Peenya, Bengaluru - KSPCB",11-07-2024 02:00:00,13.0246342,77.5080115,SO2,3,8,5
India,Karnataka,Bengaluru,"Silk Board, Bengaluru - KSPCB",11-07-2024 02:00:00,12.917348,77.622813,PM10,44,143,93
India,Karnataka,Bengaluru,"Silk Board, Bengaluru - KSPCB",11-07-2024 02:00:00,12.917348,77.622813,NH3,1,1,1
India,Karnataka,Bidar,"Naubad, Bidar - KSPCB",11-07-2024 02:00:00,17.930306,77.482194,CO,38,69,60
India,Karnataka,Chamarajanagar,"Urban, Chamarajanagar - KSPCB",11-07-2024 02:00:00,11.55358,76.55521,CO,16,30,21
India,Karnataka,Chikkamagaluru,"Kalyana Nagara, Chikkamagaluru - KSPCB",11-07-2024 02:00:00,13.328028,75.797056,CO,11,156,28
India,Karnataka,Davanagere,"Devaraj Urs Badavane, Davanagere - KSPCB",11-07-2024 02:00:00,14.475800,75.905200,NH3,1,2,1
India,Karnataka,Davanagere,"Devaraj Urs Badavane, Davanagere - KSPCB",11-07-2024 02:00:00,14.475800,75.905200,SO2,3,13,6
India,Karnataka,Gadag,"Panchal Nagar, Gadag - KSPCB",11-07-2024 02:00:00,15.411456,75.638133,PM10,25,242,42
India,Karnataka,Gadag,"Panchal Nagar, Gadag - KSPCB",11-07-2024 02:00:00,15.411456,75.638133,NO2,7,26,16
India,Karnataka,Gadag,"Panchal Nagar, Gadag - KSPCB",11-07-2024 02:00:00,15.411456,75.638133,CO,42,52,49
India,Karnataka,Hassan,"B.Katihalli, Hassan - KSPCB",11-07-2024 02:00:00,13.008556,76.125258,NH3,1,3,2
India,Karnataka,Hassan,"B.Katihalli, Hassan - KSPCB",11-07-2024 02:00:00,13.008556,76.125258,SO2,1,2,1
India,Karnataka,Haveri,"Ashwini Nagar, Haveri - KSPCB",11-07-2024 02:00:00,14.791800,75.389600,CO,36,38,36
India,Karnataka,Kalaburagi,"Lal Bahadur Shastri Nagar, Kalaburagi - KSPCB",11-07-2024 02:00:00,17.321993,76.822628,CO,48,50,50
India,Karnataka,Kalaburagi,"Mahatma Basaveswar Colony, Kalaburgi - KSPCB",11-07-2024 02:00:00,17.336318,76.847397,NO2,8,16,12
India,Karnataka,Karwar,"KHB Colony, Karwar - KSPCB",11-07-2024 02:00:00,14.816666,74.141003,SO2,20,21,20
India,Karnataka,Karwar,"KHB Colony, Karwar - KSPCB",11-07-2024 02:00:00,14.816666,74.141003,CO,8,8,8
India,Karnataka,Karwar,"KHB Colony, Karwar - KSPCB",11-07-2024 02:00:00,14.816666,74.141003,OZONE,21,22,22
India,Karnataka,Kolar,"Tamaka Ind. Area, Kolar - KSPCB",11-07-2024 02:00:00,13.1276288,78.1570122,PM10,NA,NA,NA
India,Karnataka,Kolar,"Tamaka Ind. Area, Kolar - KSPCB",11-07-2024 02:00:00,13.1276288,78.1570122,OZONE,20,59,32
India,Karnataka,Madikeri,"Stuart Hill, Madikeri - KSPCB",11-07-2024 02:00:00,12.415911,75.735050,NO2,1,2,1
India,Karnataka,Madikeri,"Stuart Hill, Madikeri - KSPCB",11-07-2024 02:00:00,12.415911,75.735050,SO2,4,4,4
India,Karnataka,Madikeri,"Stuart Hill, Madikeri - KSPCB",11-07-2024 02:00:00,12.415911,75.735050,CO,2,33,15
India,Karnataka,Mangalore,"Kadri, Mangalore - KSPCB",11-07-2024 02:00:00,12.889250,74.853000,NO2,5,6,6
India,Karnataka,Mangalore,"Kadri, Mangalore - KSPCB",11-07-2024 02:00:00,12.889250,74.853000,SO2,15,16,15
India,Karnataka,Raichur,"Haji Colony, Raichur - KSPCB",11-07-2024 02:00:00,16.208139,77.348417,PM2.5,1,24,9
India,Karnataka,Raichur,"Haji Colony, Raichur - KSPCB",11-07-2024 02:00:00,16.208139,77.348417,NH3,1,4,3
India,Karnataka,Ramanagara,"Vijay Nagar, Ramanagara - KSPCB",11-07-2024 02:00:00,12.733409,77.298051,SO2,13,24,20
India,Karnataka,Shivamogga,"Vinoba Nagara, Shivamogga - KSPCB",11-07-2024 02:00:00,13.940000,75.555917,PM10,31,63,42
India,Karnataka,Tumakuru,"Thimmalapura, Tumakuru - KSPCB",11-07-2024 02:00:00,13.377516,77.099072,SO2,6,17,7
India,Karnataka,Udupi,"Brahmagiri, Udupi - KSPCB",11-07-2024 02:00:00,13.34194444,74.74694444,PM2.5,NA,NA,NA
India,Karnataka,Udupi,"Brahmagiri, Udupi - KSPCB",11-07-2024 02:00:00,13.34194444,74.74694444,PM10,NA,NA,NA
India,Karnataka,Udupi,"Brahmagiri, Udupi - KSPCB",11-07-2024 02:00:00,13.34194444,74.74694444,CO,51,55,52
India,Karnataka,Udupi,"Brahmagiri, Udupi - KSPCB",11-07-2024 02:00:00,13.34194444,74.74694444,OZONE,23,24,23
India,Karnataka,Vijayapura,"Ibrahimpur, Vijayapura - KSPCB",11-07-2024 02:00:00,16.802639,75.722694,PM2.5,25,32,30
India,Karnataka,Vijayapura,"Ibrahimpur, Vijayapura - KSPCB",11-07-2024 02:00:00,16.802639,75.722694,PM10,41,44,42
India,Kerala,Kollam,"Polayathode, Kollam - Kerala PCB",11-07-2024 02:00:00,8.8787,76.6073,NO2,NA,NA,NA
India,Kerala,Kollam,"Polayathode, Kollam - Kerala PCB",11-07-2024 02:00:00,8.8787,76.6073,CO,15,16,16
India,Kerala,Thiruvananthapuram,"Kariavattom, Thiruvananthapuram - Kerala PCB",11-07-2024 02:00:00,8.563700,76.886500,SO2,1,10,6
India,Kerala,Thiruvananthapuram,"Plammoodu, Thiruvananthapuram - Kerala PCB",11-07-2024 02:00:00,8.5149093,76.9435879,OZONE,5,42,13
India,Madhya Pradesh,Bhopal,"Idgah Hills, Bhopal - MPPCB",11-07-2024 02:00:00,23.264759,77.381568,CO,6,32,31
India,Madhya Pradesh,Bhopal,"Paryavaran Parisar, Bhopal - MPPCB",11-07-2024 02:00:00,23.210494,77.425409,PM10,15,48,33
India,Madhya Pradesh,Bhopal,"T T Nagar, Bhopal - MPPCB",11-07-2024 02:00:00,23.233584,77.400574,SO2,7,30,17
India,Madhya Pradesh,Dewas,"Bhopal Chauraha, Dewas - MPPCB",11-07-2024 02:00:00,22.9682591,76.064118,OZONE,16,36,25
India,Madhya Pradesh,Gwalior,"City Center, Gwalior - MPPCB",11-07-2024 02:00:00,26.203442,78.193251,PM10,31,88,53
India,Madhya Pradesh,Gwalior,"Deen Dayal Nagar, Gwalior - MPPCB",11-07-2024 02:00:00,26.259242,78.216432,SO2,9,18,15
India,Madhya Pradesh,Gwalior,"Maharaj Bada, Gwalior - MPPCB",11-07-2024 02:00:00,26.200388,78.147714,SO2,10,16,13
India,Madhya Pradesh,Indore,"Maguda Nagar, Indore - IMC",11-07-2024 02:00:00,22.7524,75.8872,PM2.5,20,64,37
India,Madhya Pradesh,Indore,"Maguda Nagar, Indore - IMC",11-07-2024 02:00:00,22.7524,75.8872,NH3,NA,NA,NA
India,Madhya Pradesh,Indore,"Residency Area, Indore - IMC",11-07-2024 02:00:00,22.7084,75.8815,PM10,24,55,38
India,Madhya Pradesh,Jabalpur,"Gupteshwar, Jabalpur - JMC",11-07-2024 02:00:00,23.142888,79.916147,PM2.5,36,81,54
India,Madhya Pradesh,Jabalpur,"Gupteshwar, Jabalpur - JMC",11-07-2024 02:00:00,23.142888,79.916147,SO2,1,3,2
India,Madhya Pradesh,Jabalpur,"Gupteshwar, Jabalpur - JMC",11-07-2024 02:00:00,23.142888,79.916147,CO,8,37,20
India,Madhya Pradesh,Jabalpur,"Marhatal, Jabalpur - MPPCB",11-07-2024 02:00:00,23.168606,79.932247,OZONE,7,41,24
India,Madhya Pradesh,Jabalpur,"Suhagi, Jabalpur - JMC",11-07-2024 02:00:00,23.218135,79.957770,NO2,9,12,11
India,Madhya Pradesh,Jabalpur,"Suhagi, Jabalpur - JMC",11-07-2024 02:00:00,23.218135,79.957770,OZONE,10,50,32
India,Madhya Pradesh,Katni,"Gole Bazar, Katni - MPPCB",11-07-2024 02:00:00,23.50016,80.23284,NO2,17,28,23
India,Madhya Pradesh,Katni,"Gole Bazar, Katni - MPPCB",11-07-2024 02:00:00,23.50016,80.23284,OZONE,11,56,21
India,Madhya Pradesh,Pithampur,"Sector-2 Industrial Area, Pithampur - MPPCB",11-07-2024 02:00:00,22.624758,75.675238,CO,40,52,49
India,Madhya Pradesh,Sagar,"Civil Lines, Sagar - MPPCB",11-07-2024 02:00:00,23.838586,78.759431,CO,36,110,43
India,Madhya Pradesh,Sagar,"Civil Lines, Sagar - MPPCB",11-07-2024 02:00:00,23.838586,78.759431,OZONE,38,85,52
India,Madhya Pradesh,Singrauli,"Suryakiran Bhawan NCL, Singrauli - MPPCB",11-07-2024 02:00:00,24.108970,82.645580,PM2.5,55,178,81
India,Madhya Pradesh,Singrauli,"Suryakiran Bhawan NCL, Singrauli - MPPCB",11-07-2024 02:00:00,24.108970,82.645580,PM10,100,165,120
India,Madhya Pradesh,Singrauli,"Suryakiran Bhawan NCL, Singrauli - MPPCB",11-07-2024 02:00:00,24.108970,82.645580,OZONE,44,58,48
India,Madhya Pradesh,Ujjain,"Mahakaleshwar Temple, Ujjain - MPPCB",11-07-2024 02:00:00,23.182719 ,75.768218 ,PM2.5,NA,NA,NA
India,Madhya Pradesh,Ujjain,"Mahakaleshwar Temple, Ujjain - MPPCB",11-07-2024 02:00:00,23.182719 ,75.768218 ,PM10,NA,NA,NA
India,Madhya Pradesh,Ujjain,"Mahakaleshwar Temple, Ujjain - MPPCB",11-07-2024 02:00:00,23.182719 ,75.768218 ,SO2,4,8,6
India,Madhya Pradesh,Ujjain,"Mahakaleshwar Temple, Ujjain - MPPCB",11-07-2024 02:00:00,23.182719 ,75.768218 ,CO,12,20,16
India,Madhya Pradesh,Ujjain,"Mahakaleshwar Temple, Ujjain - MPPCB",11-07-2024 02:00:00,23.182719 ,75.768218 ,OZONE,51,65,58
India,Maharashtra,Ahmednagar,"Tarakpur, Ahmednagar - MPCB",11-07-2024 02:00:00,19.10122,74.73339,CO,8,107,12
India,Maharashtra,Akola,"Ramdaspeth, Akola - MPCB",11-07-2024 02:00:00,20.719516,77.000253,PM2.5,8,75,34
India,Maharashtra,Akola,"Ramdaspeth, Akola - MPCB",11-07-2024 02:00:00,20.719516,77.000253,NH3,3,14,6
India,Maharashtra,Akola,"Ramdaspeth, Akola - MPCB",11-07-2024 02:00:00,20.719516,77.000253,SO2,13,35,22
India,Maharashtra,Amravati,"Shivneri Colony, Amravati - MPCB",11-07-2024 02:00:00,20.9402359,77.7895248,NH3,4,5,4
India,Maharashtra,Amravati,"Shri Shivaji Science College, Amaravati - MPCB",11-07-2024 02:00:00,20.939198,77.765701,OZONE,1,16,3
India,Maharashtra,Aurangabad,"More Chowk Waluj, Aurangabad - MPCB",11-07-2024 02:00:00,19.8389439,75.244448,SO2,11,16,14
India,Maharashtra,Aurangabad,"More Chowk Waluj, Aurangabad - MPCB",11-07-2024 02:00:00,19.8389439,75.244448,CO,8,46,28
India,Maharashtra,Aurangabad,"More Chowk Waluj, Aurangabad - MPCB",11-07-2024 02:00:00,19.8389439,75.244448,OZONE,7,44,24
India,Maharashtra,Badlapur,"Katrap, Badlapur - MPCB",11-07-2024 02:00:00,19.16485,73.23409,PM10,39,74,61
India,Maharashtra,Badlapur,"Katrap, Badlapur - MPCB",11-07-2024 02:00:00,19.16485,73.23409,NO2,4,124,32
India,Maharashtra,Belapur,"CBD Belapur, Belapur - MPCB",11-07-2024 02:00:00,19.0243902,73.0406721,PM10,24,78,45
India,Maharashtra,Belapur,"CBD Belapur, Belapur - MPCB",11-07-2024 02:00:00,19.0243902,73.0406721,NH3,1,3,2
India,Maharashtra,Belapur,"CBD Belapur, Belapur - MPCB",11-07-2024 02:00:00,19.0243902,73.0406721,SO2,3,9,6
India,Maharashtra,Bhiwandi,"Gokul Nagar, Bhiwandi - MPCB",11-07-2024 02:00:00,19.309073,73.057223,PM2.5,20,74,50
India,Maharashtra,Bhiwandi,"Gokul Nagar, Bhiwandi - MPCB",11-07-2024 02:00:00,19.309073,73.057223,NH3,3,4,3
India,Maharashtra,Bhiwandi,"Gokul Nagar, Bhiwandi - MPCB",11-07-2024 02:00:00,19.309073,73.057223,CO,18,67,36
India,Maharashtra,Boisar,"Khaira, Boisar - MPCB",11-07-2024 02:00:00,19.786089,72.757971,NO2,5,26,13
India,Maharashtra,Chandrapur,"Chauhan Colony, Chandrapur - MPCB",11-07-2024 02:00:00,19.962900,79.298714,PM2.5,15,68,35
India,Maharashtra,Chandrapur,"MIDC Khutala, Chandrapur - MPCB",11-07-2024 02:00:00,19.9775302,79.2337086,CO,10,37,29
India,Maharashtra,Dhule,"Deopur, Dhule - MPCB",11-07-2024 02:00:00,20.918946,74.776388,OZONE,7,28,13
India,Maharashtra,Jalgaon,"Prabhat Colony, Jalgaon - MPCB",11-07-2024 02:00:00,21.001264,75.565602,CO,17,44,28
India,Maharashtra,Jalna,"Old MIDC, Jalna - MPCB",11-07-2024 02:00:00,19.854616,75.905894,PM10,26,90,56
India,Maharashtra,Latur,"Sawe Wadi, Latur - MPCB",11-07-2024 02:00:00,18.39963,76.57452,NO2,1,74,15
India,Maharashtra,Mira-Bhayandar,"Bhayandar West, Mira-Bhayandar - MPCB",11-07-2024 02:00:00,19.296481,72.840923,PM2.5,17,51,32
India,Maharashtra,Mumbai,"Bandra Kurla Complex, Mumbai - MPCB",11-07-2024 02:00:00,19.065931,72.862131,PM2.5,21,51,34
India,Maharashtra,Mumbai,"Bandra Kurla Complex, Mumbai - MPCB",11-07-2024 02:00:00,19.065931,72.862131,NO2,14,22,17
India,Maharashtra,Mumbai,"Borivali East, Mumbai - IITM",11-07-2024 02:00:00,19.23241,72.86895,PM10,26,47,34
India,Maharashtra,Mumbai,"Borivali East, Mumbai - IITM",11-07-2024 02:00:00,19.23241,72.86895,OZONE,4,17,10
India,Maharashtra,Mumbai,"Borivali East, Mumbai - MPCB",11-07-2024 02:00:00,19.2243333,72.8658113,CO,14,22,21
India,Maharashtra,Mumbai,"Byculla, Mumbai - BMC",11-07-2024 02:00:00,18.9767,72.8380,PM10,15,33,23
India,Maharashtra,Mumbai,"Chhatrapati Shivaji Intl. Airport (T2), Mumbai - MPCB",11-07-2024 02:00:00,19.10078,72.87462,NO2,17,35,22
India,Maharashtra,Mumbai,"Colaba, Mumbai - MPCB",11-07-2024 02:00:00,18.910000,72.820000,PM10,1,31,19
India,Maharashtra,Mumbai,"Deonar, Mumbai - IITM",11-07-2024 02:00:00,19.04946,72.9230,PM10,20,63,42
India,Maharashtra,Mumbai,"Deonar, Mumbai - IITM",11-07-2024 02:00:00,19.04946,72.9230,NO2,8,35,13
India,Maharashtra,Mumbai,"Ghatkopar, Mumbai - BMC",11-07-2024 02:00:00,19.083694,72.920967,PM10,13,36,25
India,Maharashtra,Mumbai,"Kandivali East, Mumbai - MPCB",11-07-2024 02:00:00,19.205800,72.868200,NH3,1,25,4
India,Maharashtra,Mumbai,"Kandivali East, Mumbai - MPCB",11-07-2024 02:00:00,19.205800,72.868200,SO2,5,6,6
India,Maharashtra,Mumbai,"Kherwadi_Bandra East, Mumbai - MPCB",11-07-2024 02:00:00,19.0632143,72.8456324,PM2.5,21,39,29
India,Maharashtra,Mumbai,"Kherwadi_Bandra East, Mumbai - MPCB",11-07-2024 02:00:00,19.0632143,72.8456324,PM10,27,66,47
India,Maharashtra,Mumbai,"Kherwadi_Bandra East, Mumbai - MPCB",11-07-2024 02:00:00,19.0632143,72.8456324,NH3,1,2,2
India,Maharashtra,Mumbai,"Kherwadi_Bandra East, Mumbai - MPCB",11-07-2024 02:00:00,19.0632143,72.8456324,CO,14,60,28
India,Maharashtra,Mumbai,"Khindipada-Bhandup West, Mumbai - IITM",11-07-2024 02:00:00,19.1653323,72.922099,NH3,5,12,7
India,Maharashtra,Mumbai,"Mazgaon, Mumbai - IITM",11-07-2024 02:00:00,18.96702,72.84214,NH3,NA,NA,NA
India,Maharashtra,Mumbai,"Mindspace-Malad West, Mumbai - MPCB",11-07-2024 02:00:00,19.1878657,72.8304069,PM10,29,44,38
India,Maharashtra,Mumbai,"Mindspace-Malad West, Mumbai - MPCB",11-07-2024 02:00:00,19.1878657,72.8304069,NO2,12,51,32
India,Maharashtra,Mumbai,"Mindspace-Malad West, Mumbai - MPCB",11-07-2024 02:00:00,19.1878657,72.8304069,SO2,1,4,3
India,Maharashtra,Mumbai,"Mulund West, Mumbai - MPCB",11-07-2024 02:00:00,19.1750,72.9419,OZONE,7,8,7
India,Maharashtra,Mumbai,"Powai, Mumbai - MPCB",11-07-2024 02:00:00,19.137500,72.915056,OZONE,5,7,6
India,Maharashtra,Mumbai,"Sewri, Mumbai - BMC",11-07-2024 02:00:00,19.000084,72.856730,NH3,NA,NA,NA
India,Maharashtra,Mumbai,"Sewri, Mumbai - BMC",11-07-2024 02:00:00,19.000084,72.856730,SO2,2,47,23
India,Maharashtra,Mumbai,"Shivaji Nagar, Mumbai - BMC",11-07-2024 02:00:00,19.060498,72.923356,OZONE,1,11,2
India,Maharashtra,Mumbai,"Siddharth Nagar-Worli, Mumbai - IITM",11-07-2024 02:00:00,19.000083,72.813993,PM2.5,2,6,4
India,Maharashtra,Mumbai,"Vasai West, Mumbai - MPCB",11-07-2024 02:00:00,19.383200,72.820400,PM2.5,23,71,41
India,Maharashtra,Mumbai,"Vasai West, Mumbai - MPCB",11-07-2024 02:00:00,19.383200,72.820400,OZONE,7,8,7
India,Maharashtra,Mumbai,"Vile Parle West, Mumbai - MPCB",11-07-2024 02:00:00,19.10861,72.83622,NO2,42,46,44
India,Maharashtra,Mumbai,"Vile Parle West, Mumbai - MPCB",11-07-2024 02:00:00,19.10861,72.83622,NH3,10,11,11
India,Maharashtra,Mumbai,"Worli, Mumbai - MPCB",11-07-2024 02:00:00,18.9936162,72.8128113,CO,40,44,41
India,Maharashtra,Nagpur,"Ambazari, Nagpur - MPCB",11-07-2024 02:00:00,21.121801,79.04952,SO2,1,12,6
India,Maharashtra,Nagpur,"Mahal, Nagpur - MPCB",11-07-2024 02:00:00,21.14472,79.107595,OZONE,4,45,16
India,Maharashtra,Nagpur,"Opp GPO Civil Lines, Nagpur - MPCB",11-07-2024 02:00:00,21.152875,79.0517531,PM10,14,61,35
India,Maharashtra,Nagpur,"Opp GPO Civil Lines, Nagpur - MPCB",11-07-2024 02:00:00,21.152875,79.0517531,NO2,13,27,20
India,Maharashtra,Nagpur,"Ram Nagar, Nagpur - MPCB",11-07-2024 02:00:00,21.143383,79.048912,OZONE,4,30,13
India,Maharashtra,Nanded,"Sneh Nagar, Nanded - MPCB",11-07-2024 02:00:00,19.173852,77.296291,SO2,10,14,12
India,Maharashtra,Nashik,"Gangapur Road, Nashik - MPCB",11-07-2024 02:00:00,20.0073285,73.7762427,PM2.5,7,50,30
India,Maharashtra,Nashik,"Gangapur Road, Nashik - MPCB",11-07-2024 02:00:00,20.0073285,73.7762427,PM10,6,46,27
India,Maharashtra,Nashik,"Hirawadi, Nashik - MPCB",11-07-2024 02:00:00,20.021503,73.813844,OZONE,9,43,27
India,Maharashtra,Nashik,"MIDC Ambad, Nashik - MPCB",11-07-2024 02:00:00,19.950220,73.731480,PM2.5,24,91,53
India,Maharashtra,Nashik,"MIDC Ambad, Nashik - MPCB",11-07-2024 02:00:00,19.950220,73.731480,OZONE,16,37,20
India,Maharashtra,Nashik,"Pandav Nagari, Nashik - MPCB",11-07-2024 02:00:00,19.9591346,73.7788008,SO2,5,10,7
India,Maharashtra,Navi Mumbai,"Kopripada-Vashi, Navi Mumbai - MPCB",11-07-2024 02:00:00,19.090337,73.014232,PM10,24,53,38
India,Maharashtra,Navi Mumbai,"Mahape, Navi Mumbai - MPCB",11-07-2024 02:00:00,19.1135051,73.008978,PM2.5,NA,NA,NA
India,Maharashtra,Navi Mumbai,"Mahape, Navi Mumbai - MPCB",11-07-2024 02:00:00,19.1135051,73.008978,SO2,15,15,15
India,Maharashtra,Navi Mumbai,"Nerul, Navi Mumbai - MPCB",11-07-2024 02:00:00,19.008751,73.016620,PM2.5,7,39,21
India,Maharashtra,Navi Mumbai,"Nerul, Navi Mumbai - MPCB",11-07-2024 02:00:00,19.008751,73.016620,NH3,1,47,6
India,Maharashtra,Navi Mumbai,"Nerul, Navi Mumbai - MPCB",11-07-2024 02:00:00,19.008751,73.016620,SO2,7,9,8
India,Maharashtra,Navi Mumbai,"Sanpada, Navi Mumbai - MPCB",11-07-2024 02:00:00,19.0575752,73.0151367,PM10,NA,NA,NA
India,Maharashtra,Navi Mumbai,"Sanpada, Navi Mumbai - MPCB",11-07-2024 02:00:00,19.0575752,73.0151367,NO2,NA,NA,NA
India,Maharashtra,Navi Mumbai,"Sanpada, Navi Mumbai - MPCB",11-07-2024 02:00:00,19.0575752,73.0151367,OZONE,8,25,16
India,Maharashtra,Navi Mumbai,"Sector-2E Kalamboli, Navi Mumbai - MPCB",11-07-2024 02:00:00,19.02579,73.10297,OZONE,NA,NA,NA
India,Maharashtra,Pimpri-Chinchwad,"Thergaon, Pimpri Chinchwad - MPCB",11-07-2024 02:00:00,18.616318,73.765797,PM2.5,11,45,31
India,Maharashtra,Pimpri-Chinchwad,"Thergaon, Pimpri Chinchwad - MPCB",11-07-2024 02:00:00,18.616318,73.765797,NH3,1,7,4
India,Maharashtra,Pune,"Alandi, Pune - IITM",11-07-2024 02:00:00,18.675076,73.892743,PM10,21,67,45
India,Maharashtra,Pune,"Alandi, Pune - IITM",11-07-2024 02:00:00,18.675076,73.892743,OZONE,16,53,34
India,Maharashtra,Pune,"Bhumkar Nagar, Pune - IITM",11-07-2024 02:00:00,18.605770,73.749976,OZONE,1,27,18
India,Maharashtra,Pune,"Hadapsar, Pune - IITM",11-07-2024 02:00:00,18.501793,73.927532,CO,8,110,38
India,Maharashtra,Pune,"Hadapsar, Pune - IITM",11-07-2024 02:00:00,18.501793,73.927532,OZONE,11,13,12
India,Maharashtra,Pune,"Karve Road, Pune - MPCB",11-07-2024 02:00:00,18.5011743,73.8165527,PM2.5,1,36,14
India,Maharashtra,Pune,"Karve Road, Pune - MPCB",11-07-2024 02:00:00,18.5011743,73.8165527,OZONE,1,33,4
India,Maharashtra,Pune,"Katraj Dairy, Pune - MPCB",11-07-2024 02:00:00,18.454450,73.854155,SO2,1,3,2
India,Maharashtra,Pune,"Mhada Colony, Pune - IITM",11-07-2024 02:00:00,18.573040,73.927715,PM10,36,56,42
India,Maharashtra,Pune,"Mhada Colony, Pune - IITM",11-07-2024 02:00:00,18.573040,73.927715,CO,22,66,53
India,Maharashtra,Pune,"Revenue Colony-Shivajinagar, Pune - IITM",11-07-2024 02:00:00,18.530085,73.849598,PM2.5,20,56,40
India,Maharashtra,Pune,"Revenue Colony-Shivajinagar, Pune - IITM",11-07-2024 02:00:00,18.530085,73.849598,NO2,21,41,31
India,Maharashtra,Pune,"Revenue Colony-Shivajinagar, Pune - IITM",11-07-2024 02:00:00,18.530085,73.849598,OZONE,9,30,22
India,Maharashtra,Pune,"Savitribai Phule Pune University, Pune - MPCB",11-07-2024 02:00:00,18.547056,73.826908,PM2.5,14,47,30
India,Maharashtra,Pune,"Savitribai Phule Pune University, Pune - MPCB",11-07-2024 02:00:00,18.547056,73.826908,OZONE,3,35,23
India,Maharashtra,Pune,"Transport Nagar-Nigdi, Pune - IITM",11-07-2024 02:00:00,18.664282,73.763966,PM2.5,NA,NA,NA
India,Maharashtra,Pune,"Transport Nagar-Nigdi, Pune - IITM",11-07-2024 02:00:00,18.664282,73.763966,PM10,NA,NA,NA
India,Maharashtra,Sangli,"Vijay Nagar, Sangli - MPCB",11-07-2024 02:00:00, 16.5038,74.3623,PM2.5,8,39,20
India,Maharashtra,Sangli,"Vijay Nagar, Sangli - MPCB",11-07-2024 02:00:00, 16.5038,74.3623,SO2,3,10,7
India,Maharashtra,Solapur,"Dnyaneshwar Nagar, Solapur - MPCB",11-07-2024 02:00:00,17.6336264,75.9132495,SO2,1,4,3
India,Maharashtra,Solapur,"Solapur, Solapur - MPCB",11-07-2024 02:00:00,17.6599188,75.9063906,PM10,NA,NA,NA
India,Maharashtra,Thane,"Kasarvadavali, Thane - MPCB",11-07-2024 02:00:00,19.26777,72.97182,PM2.5,30,66,42
India,Maharashtra,Thane,"Kasarvadavali, Thane - MPCB",11-07-2024 02:00:00,19.26777,72.97182,NO2,8,28,19
India,Maharashtra,Thane,"Kasarvadavali, Thane - MPCB",11-07-2024 02:00:00,19.26777,72.97182,NH3,2,6,4
India,Maharashtra,Thane,"Pimpleshwar Mandir, Thane - MPCB",11-07-2024 02:00:00,19.192056,72.9585188,SO2,1,8,3
India,Maharashtra,Thane,"Upvan Fort, Thane - MPCB",11-07-2024 02:00:00,19.222279,72.957979,CO,6,72,23
India,Maharashtra,Ulhasnagar,"Sidhi Vinayak Nagar, Ulhasnagar - MPCB",11-07-2024 02:00:00,19.235581,73.159121,NO2,9,62,27
India,Maharashtra,Ulhasnagar,"Sidhi Vinayak Nagar, Ulhasnagar - MPCB",11-07-2024 02:00:00,19.235581,73.159121,NH3,2,4,3
India,Maharashtra,Virar,"Bolinj, Virar - MPCB",11-07-2024 02:00:00,19.4458210,72.7988231,NH3,1,4,3
India,Meghalaya,Shillong,"Lumpyngngad, Shillong - Meghalaya PCB",11-07-2024 02:00:00,25.5586,91.8985,NO2,1,2,1
India,Mizoram,Aizawl,"Sikulpuikawn, Aizawl - Mizoram PCB",11-07-2024 02:00:00,23.7176342,92.7192841,PM10,2,43,13
India,Nagaland,Kohima,"PWD Juction, Kohima - NPCB",11-07-2024 02:00:00,25.6635413,94.0989878,SO2,39,43,40
India,Odisha,Angul,"Hakimapada, Angul - OSPCB",11-07-2024 02:00:00,20.832874,85.104082,NH3,1,1,1
India,Odisha,Balasore,"Kalidaspur, Balasore - OSPCB",11-07-2024 02:00:00,21.51161,86.89088,PM10,31,71,49
India,Odisha,Balasore,"Kalidaspur, Balasore - OSPCB",11-07-2024 02:00:00,21.51161,86.89088,SO2,12,17,14
India,Odisha,Barbil,"Forest Office, Barbil - OSPCB",11-07-2024 02:00:00,22.1166054,85.3945546,PM10,32,153,73
India,Odisha,Barbil,"Forest Office, Barbil - OSPCB",11-07-2024 02:00:00,22.1166054,85.3945546,CO,14,139,59
India,Odisha,Baripada,"Meher Colony, Baripada - OSPCB",11-07-2024 02:00:00,21.941841,86.728318,NH3,2,3,3
India,Odisha,Bhubaneswar,"Lingraj Mandir, Bhubaneswar - OSPCB",11-07-2024 02:00:00,20.240790,85.836784,PM2.5,5,50,29
India,Odisha,Bhubaneswar,"Patia, Bhubaneswar - OSPCB",11-07-2024 02:00:00,20.34652,85.81630,SO2,3,6,5
India,Odisha,Bhubaneswar,"Patia, Bhubaneswar - OSPCB",11-07-2024 02:00:00,20.34652,85.81630,OZONE,35,74,58
India,Odisha,Bileipada,"Tata Township, Bileipada - OSPCB",11-07-2024 02:00:00,22.06156703,85.47409613,OZONE,23,33,27
India,Odisha,Brajrajnagar,"GM Office, Brajrajnagar - OSPCB",11-07-2024 02:00:00,21.8004996,83.8396977,PM2.5,3,57,24
India,Odisha,Byasanagar,"Ferro Chrome Colony, Byasanagar - OSPCB",11-07-2024 02:00:00,20.94185,86.11510,NO2,4,10,7
India,Odisha,Cuttack,"CDA Area, Cuttack - OSPCB",11-07-2024 02:00:00,20.48891     ,85.84768     ,PM10,32,105,67
India,Odisha,Cuttack,"CDA Area, Cuttack - OSPCB",11-07-2024 02:00:00,20.48891     ,85.84768     ,NH3,2,2,2
India,Odisha,Nayagarh,"Dabuna, Nayagarh - OSPCB",11-07-2024 02:00:00,21.847279,85.416905,NH3,NA,NA,NA
India,Odisha,Nayagarh,"Dabuna, Nayagarh - OSPCB",11-07-2024 02:00:00,21.847279,85.416905,OZONE,4,8,6
India,Odisha,Rourkela,"Fertilizer Township, Rourkela - OSPCB",11-07-2024 02:00:00,22.18972222,84.86277778,SO2,1,15,13
India,Odisha,Rourkela,"Raghunathpali, Rourkela - OSPCB",11-07-2024 02:00:00,22.220833,84.809444,PM10,34,83,53
India,Odisha,Rourkela,"Sector-2, Rourkela - OSPCB",11-07-2024 02:00:00,22.24500000,84.88111111,CO,12,54,32
India,Odisha,Suakati,"OMC Colony, Suakati - OSPCB",11-07-2024 02:00:00,21.606865,85.510538,PM2.5,27,69,43
India,Odisha,Suakati,"OMC Colony, Suakati - OSPCB",11-07-2024 02:00:00,21.606865,85.510538,PM10,46,69,57
India,Odisha,Talcher,"Talcher Coalfields,Talcher - OSPCB",11-07-2024 02:00:00,20.9360711,85.1707021,NO2,21,51,26
India,Odisha,Tensa,"Barsua Iron Ore Mines, Tensa - OSPCB",11-07-2024 02:00:00,21.869985,85.167016,SO2,6,11,7
India,Puducherry,Puducherry,"Jawahar Nagar, Puducherry - PPCC",11-07-2024 02:00:00,11.9309,79.8027,OZONE,25,102,50
India,Punjab,Amritsar,"Golden Temple, Amritsar - PPCB",11-07-2024 02:00:00,31.620000,74.876512,NH3,3,13,7
India,Punjab,Amritsar,"Golden Temple, Amritsar - PPCB",11-07-2024 02:00:00,31.620000,74.876512,SO2,3,17,10
India,Punjab,Jalandhar,"Civil Line, Jalandhar - PPCB",11-07-2024 02:00:00,31.321907,75.578914,PM2.5,18,77,61
India,Punjab,Jalandhar,"Civil Line, Jalandhar - PPCB",11-07-2024 02:00:00,31.321907,75.578914,NH3,1,4,3
India,Punjab,Jalandhar,"Civil Line, Jalandhar - PPCB",11-07-2024 02:00:00,31.321907,75.578914,SO2,13,17,15
India,Punjab,Khanna,"Kalal Majra, Khanna - PPCB",11-07-2024 02:00:00,30.736056 ,76.209694,OZONE,26,68,58
India,Punjab,Ludhiana,"Punjab Agricultural University, Ludhiana - PPCB",11-07-2024 02:00:00,30.9028,75.8086,PM10,84,121,101
India,Punjab,Ludhiana,"Punjab Agricultural University, Ludhiana - PPCB",11-07-2024 02:00:00,30.9028,75.8086,OZONE,19,31,24
India,Punjab,Mandi Gobindgarh,"RIMT University, Mandi Gobindgarh - PPCB",11-07-2024 02:00:00,30.649961,76.331442,NH3,7,7,7
India,Punjab,Mandi Gobindgarh,"RIMT University, Mandi Gobindgarh - PPCB",11-07-2024 02:00:00,30.649961,76.331442,OZONE,47,51,50
India,Punjab,Rupnagar,"Ratanpura, Rupnagar - Ambuja Cements",11-07-2024 02:00:00,31.0325454,76.5623046,PM10,87,137,109
India,Rajasthan,Ajmer,"Civil Lines,  Ajmer - RSPCB",11-07-2024 02:00:00,26.470859,74.646594,CO,12,53,32
India,Rajasthan,Banswara,"Rati Talai, Banswara - RSPCB",11-07-2024 02:00:00,23.555190,74.440010,OZONE,31,77,53
India,Rajasthan,Baran,"Bamboliya, Baran - RSPCB",11-07-2024 02:00:00,25.106006,76.469948,PM2.5,2,53,23
India,Rajasthan,Baran,"Bamboliya, Baran - RSPCB",11-07-2024 02:00:00,25.106006,76.469948,NO2,5,16,10
India,Rajasthan,Baran,"Bamboliya, Baran - RSPCB",11-07-2024 02:00:00,25.106006,76.469948,SO2,5,5,5
India,Rajasthan,Barmer,"Railway Colony, Barmer - RSPCB",11-07-2024 02:00:00,25.747299,71.393989,PM10,38,113,67
India,Rajasthan,Barmer,"Railway Colony, Barmer - RSPCB",11-07-2024 02:00:00,25.747299,71.393989,SO2,5,12,8
India,Rajasthan,Barmer,"Railway Colony, Barmer - RSPCB",11-07-2024 02:00:00,25.747299,71.393989,OZONE,10,56,39
India,Rajasthan,Bharatpur,"Krishna Nagar, Bharatpur - RSPCB",11-07-2024 02:00:00,27.215415,77.50873,OZONE,8,142,27
India,Rajasthan,Bhiwadi,"RIICO Ind. Area III, Bhiwadi - RSPCB",11-07-2024 02:00:00,28.194909,76.862296,PM2.5,49,152,90
India,Rajasthan,Bhiwadi,"RIICO Ind. Area III, Bhiwadi - RSPCB",11-07-2024 02:00:00,28.194909,76.862296,PM10,88,147,124
India,Rajasthan,Bhiwadi,"Vasundhara Nagar_UIT, Bhiwadi - RSPCB",11-07-2024 02:00:00,28.207266,76.829265,NH3,19,87,51
India,Rajasthan,Bikaner,"MM Ground, Bikaner - RSPCB",11-07-2024 02:00:00,28.018792,73.292658,PM2.5,23,118,50
India,Rajasthan,Bikaner,"MM Ground, Bikaner - RSPCB",11-07-2024 02:00:00,28.018792,73.292658,OZONE,18,75,37
India,Rajasthan,Bundi,"New Colony, Bundi - RSPCB",11-07-2024 02:00:00,25.435774,75.644272,OZONE,7,55,16
India,Rajasthan,Churu,"Subash Chowk, Churu - RSPCB",11-07-2024 02:00:00,28.296139,74.961696,NO2,1,19,7
India,Rajasthan,Churu,"Subash Chowk, Churu - RSPCB",11-07-2024 02:00:00,28.296139,74.961696,SO2,1,5,2
India,Rajasthan,Dausa,"Khatikan Mohalla, Dausa - RSPCB",11-07-2024 02:00:00,26.895552,76.334753,PM10,18,218,112
India,Rajasthan,Dausa,"Khatikan Mohalla, Dausa - RSPCB",11-07-2024 02:00:00,26.895552,76.334753,NO2,5,29,16
India,Rajasthan,Dausa,"Khatikan Mohalla, Dausa - RSPCB",11-07-2024 02:00:00,26.895552,76.334753,SO2,3,5,4
India,Rajasthan,Dholpur,"Raja Ganj, Dholpur - RSPCB",11-07-2024 02:00:00,26.699557,77.898881,NO2,3,20,9
India,Rajasthan,Dholpur,"Raja Ganj, Dholpur - RSPCB",11-07-2024 02:00:00,26.699557,77.898881,SO2,3,10,6
India,Rajasthan,Dholpur,"Raja Ganj, Dholpur - RSPCB",11-07-2024 02:00:00,26.699557,77.898881,CO,10,40,28
India,Rajasthan,Dungarpur,"Bhoiwada, Dungarpur - RSPCB",11-07-2024 02:00:00,23.837789,73.714926,OZONE,16,63,46
India,Rajasthan,Jaipur,"Police Commissionerate, Jaipur - RSPCB",11-07-2024 02:00:00,26.9164092,75.7994901,SO2,3,48,27
India,Rajasthan,Jaipur,"RIICO Sitapura, Jaipur - RSPCB",11-07-2024 02:00:00,26.786682,75.827928,NO2,13,56,25
India,Rajasthan,Jaipur,"RIICO Sitapura, Jaipur - RSPCB",11-07-2024 02:00:00,26.786682,75.827928,NH3,1,30,5
India,Rajasthan,Jaipur,"Sector-2 Murlipura, Jaipur - RSPCB",11-07-2024 02:00:00,26.960669,75.771817,PM10,32,79,54
India,Rajasthan,Jaipur,"Sector-2 Murlipura, Jaipur - RSPCB",11-07-2024 02:00:00,26.960669,75.771817,SO2,5,8,7
India,Rajasthan,Jaipur,"Sector-2 Murlipura, Jaipur - RSPCB",11-07-2024 02:00:00,26.960669,75.771817,OZONE,15,70,23
India,Rajasthan,Jaipur,"Shastri Nagar, Jaipur - RSPCB",11-07-2024 02:00:00,26.9502929,75.730943,SO2,7,64,20
India,Rajasthan,Jaipur,"Shastri Nagar, Jaipur - RSPCB",11-07-2024 02:00:00,26.9502929,75.730943,CO,29,76,57
India,Rajasthan,Jaisalmer,"Sadar Bazar, Jaisalmer - RSPCB",11-07-2024 02:00:00,26.912329,70.909168,OZONE,20,68,60
India,Rajasthan,Jalore,"Mudtra Sili, Jalore - RSPCB",11-07-2024 02:00:00,25.344694,72.626208,PM10,22,72,55
India,Rajasthan,Jalore,"Mudtra Sili, Jalore - RSPCB",11-07-2024 02:00:00,25.344694,72.626208,NH3,4,13,7
India,Rajasthan,Jalore,"Mudtra Sili, Jalore - RSPCB",11-07-2024 02:00:00,25.344694,72.626208,SO2,1,3,3
India,Rajasthan,Jhunjhunu,"Indra Nagar, Jhunjhunu - RSPCB",11-07-2024 02:00:00,28.108988,75.386577,PM2.5,23,76,37
India,Rajasthan,Jhunjhunu,"Indra Nagar, Jhunjhunu - RSPCB",11-07-2024 02:00:00,28.108988,75.386577,PM10,44,138,67
India,Rajasthan,Jodhpur,"Digari Kalan, Jodhpur - RSPCB",11-07-2024 02:00:00,26.295810,73.082283,PM2.5,22,47,34
India,Rajasthan,Jodhpur,"Digari Kalan, Jodhpur - RSPCB",11-07-2024 02:00:00,26.295810,73.082283,PM10,38,92,64
India,Rajasthan,Jodhpur,"Mandor, Jodhpur - RSPCB",11-07-2024 02:00:00,26.358805,73.047444,CO,14,26,23
India,Rajasthan,Jodhpur,"Samrat Ashok Udhyan, Jodhpur - RSPCB",11-07-2024 02:00:00,26.253384,72.976571,CO,12,19,15
India,Rajasthan,Karauli,"Satyawati Vihar, Karauli - RSPCB",11-07-2024 02:00:00,26.506177,77.025989,NO2,6,26,11
India,Rajasthan,Karauli,"Satyawati Vihar, Karauli - RSPCB",11-07-2024 02:00:00,26.506177,77.025989,SO2,NA,NA,NA
India,Rajasthan,Kota,"Dhanmandi, Kota - RSPCB",11-07-2024 02:00:00,25.164090,75.858137,NO2,13,59,25
India,Rajasthan,Kota,"Nayapura, Kota - RSPCB",11-07-2024 02:00:00,25.196024,75.855668,SO2,1,6,3
India,Rajasthan,Kota,"Nayapura, Kota - RSPCB",11-07-2024 02:00:00,25.196024,75.855668,OZONE,29,86,46
India,Rajasthan,Nagaur,"Karni Colony, Nagaur - RSPCB",11-07-2024 02:00:00,27.213494,73.734444,CO,3,40,25
India,Rajasthan,Pali,"Indira Colony Vistar, Pali - RSPCB",11-07-2024 02:00:00,25.771061, 73.340227,PM2.5,23,162,68
India,Rajasthan,Pali,"Indira Colony Vistar, Pali - RSPCB",11-07-2024 02:00:00,25.771061, 73.340227,NO2,19,57,38
India,Rajasthan,Pali,"Indira Colony Vistar, Pali - RSPCB",11-07-2024 02:00:00,25.771061, 73.340227,OZONE,9,61,17
India,Rajasthan,Pratapgarh,"Pragati Nagar, Pratapgarh - RSPCB",11-07-2024 02:00:00,24.041198,74.780702,PM10,21,85,56
India,Rajasthan,Pratapgarh,"Pragati Nagar, Pratapgarh - RSPCB",11-07-2024 02:00:00,24.041198,74.780702,NH3,4,7,5
India,Rajasthan,Pratapgarh,"Pragati Nagar, Pratapgarh - RSPCB",11-07-2024 02:00:00,24.041198,74.780702,SO2,1,4,2
India,Rajasthan,Rajsamand,"Dhoinda, Rajsamand - RSPCB",11-07-2024 02:00:00,25.036360,73.883502,SO2,3,10,7
India,Rajasthan,Sawai Madhopur,"Sahu Nagar, Sawai Madhopur - RSPCB",11-07-2024 02:00:00,26.031443,76.359327,PM2.5,9,33,22
India,Rajasthan,Sawai Madhopur,"Sahu Nagar, Sawai Madhopur - RSPCB",11-07-2024 02:00:00,26.031443,76.359327,PM10,9,67,40
India,Rajasthan,Sawai Madhopur,"Sahu Nagar, Sawai Madhopur - RSPCB",11-07-2024 02:00:00,26.031443,76.359327,NO2,NA,NA,NA
India,Rajasthan,Sikar,"Radhakishan Pura, Sikar - RSPCB",11-07-2024 02:00:00,27.608912,75.153302,CO,32,47,36
India,Rajasthan,Sirohi,"Vedhaynath Colony, Sirohi - RSPCB",11-07-2024 02:00:00,24.885261,72.857549,NH3,NA,NA,NA
India,Rajasthan,Sirohi,"Vedhaynath Colony, Sirohi - RSPCB",11-07-2024 02:00:00,24.885261,72.857549,CO,12,28,23
India,Rajasthan,Tonk,"Shastri Nagar, Tonk - RSPCB",11-07-2024 02:00:00,26.159933,75.780517,NH3,1,7,3
India,Sikkim,Gangtok,"Zero Point GICI, Gangtok - SSPCB",11-07-2024 02:00:00,27.338530,88.614099,PM10,6,15,10
India,Sikkim,Gangtok,"Zero Point GICI, Gangtok - SSPCB",11-07-2024 02:00:00,27.338530,88.614099,NH3,1,1,1
India,Sikkim,Gangtok,"Zero Point GICI, Gangtok - SSPCB",11-07-2024 02:00:00,27.338530,88.614099,CO,2,11,8
India,TamilNadu,Ariyalur,"Keelapalur, Ariyalur - TNPCB",11-07-2024 02:00:00,11.06825,79.07033,PM2.5,8,33,20
India,TamilNadu,Ariyalur,"Keelapalur, Ariyalur - TNPCB",11-07-2024 02:00:00,11.06825,79.07033,PM10,12,52,27
India,TamilNadu,Ariyalur,"Keelapalur, Ariyalur - TNPCB",11-07-2024 02:00:00,11.06825,79.07033,NO2,8,12,10
India,TamilNadu,Chennai,"Alandur Bus Depot, Chennai - CPCB",11-07-2024 02:00:00,12.9099161,80.1076538,PM10,23,226,60
India,TamilNadu,Chennai,"Alandur Bus Depot, Chennai - CPCB",11-07-2024 02:00:00,12.9099161,80.1076538,SO2,1,2,1
India,TamilNadu,Chennai,"Alandur Bus Depot, Chennai - CPCB",11-07-2024 02:00:00,12.9099161,80.1076538,OZONE,3,8,6
India,TamilNadu,Chennai,"Manali, Chennai - CPCB",11-07-2024 02:00:00,13.164544,80.26285,NO2,6,8,7
India,TamilNadu,Chennai,"Manali, Chennai - CPCB",11-07-2024 02:00:00,13.164544,80.26285,NH3,4,6,5
India,TamilNadu,Chennai,"Royapuram, Chennai - TNPCB",11-07-2024 02:00:00,13.1036,80.2909,NO2,16,46,30
India,TamilNadu,Cuddalore,"Kudikadu, Cuddalore - TNPCB",11-07-2024 02:00:00,11.6829898,79.7532099,PM2.5,10,103,37
India,TamilNadu,Cuddalore,"Kudikadu, Cuddalore - TNPCB",11-07-2024 02:00:00,11.6829898,79.7532099,PM10,3,115,44
India,TamilNadu,Gummidipoondi,"Anthoni Pillai Nagar, Gummidipoondi - TNPCB",11-07-2024 02:00:00,13.4127,80.1081,NO2,10,16,13
India,TamilNadu,Palkalaiperur,"Bharathidasan University, Palkalaiperur - TNPCB",11-07-2024 02:00:00,10.681158,78.741746,PM2.5,NA,NA,NA
India,TamilNadu,Palkalaiperur,"Bharathidasan University, Palkalaiperur - TNPCB",11-07-2024 02:00:00,10.681158,78.741746,OZONE,NA,NA,NA
India,TamilNadu,Tirupur,"Kumaran College, Tirupur - TNPCB",11-07-2024 02:00:00,11.0973603,77.3228673,SO2,NA,NA,NA
India,TamilNadu,Vellore,"Vasanthapuram, Vellore - TNPCB",11-07-2024 02:00:00,12.909494,79.131861,NO2,NA,NA,NA
India,Telangana,Hyderabad,"Central University, Hyderabad - TSPCB",11-07-2024 02:00:00,17.460103,78.334361,PM2.5,10,27,19
India,Telangana,Hyderabad,"Central University, Hyderabad - TSPCB",11-07-2024 02:00:00,17.460103,78.334361,NO2,9,36,19
India,Telangana,Hyderabad,"Central University, Hyderabad - TSPCB",11-07-2024 02:00:00,17.460103,78.334361,SO2,3,10,5
India,Telangana,Hyderabad,"ECIL Kapra, Hyderabad - TSPCB",11-07-2024 02:00:00,17.470431,78.566959,PM2.5,41,93,52
India,Telangana,Hyderabad,"ECIL Kapra, Hyderabad - TSPCB",11-07-2024 02:00:00,17.470431,78.566959,SO2,7,30,18
India,Telangana,Hyderabad,"ICRISAT Patancheru, Hyderabad - TSPCB",11-07-2024 02:00:00,17.518400,78.278777,OZONE,2,31,21
India,Telangana,Hyderabad,"IITH Kandi, Hyderabad - TSPCB",11-07-2024 02:00:00,17.585705,78.126199,PM2.5,NA,NA,NA
India,Telangana,Hyderabad,"IITH Kandi, Hyderabad - TSPCB",11-07-2024 02:00:00,17.585705,78.126199,SO2,NA,NA,NA
India,Telangana,Hyderabad,"Kokapet, Hyderabad - TSPCB",11-07-2024 02:00:00,17.393559,78.339194,NO2,8,12,11
India,Telangana,Hyderabad,"Kokapet, Hyderabad - TSPCB",11-07-2024 02:00:00,17.393559,78.339194,SO2,8,12,11
India,Telangana,Hyderabad,"Kompally Municipal Office, Hyderabad - TSPCB",11-07-2024 02:00:00,17.544899,78.486949,NH3,NA,NA,NA
India,Telangana,Hyderabad,"Kompally Municipal Office, Hyderabad - TSPCB",11-07-2024 02:00:00,17.544899,78.486949,CO,6,8,8
India,Telangana,Hyderabad,"Nacharam_TSIIC IALA, Hyderabad - TSPCB",11-07-2024 02:00:00,17.429398,78.569354,CO,NA,NA,NA
India,Telangana,Hyderabad,"New Malakpet, Hyderabad - TSPCB",11-07-2024 02:00:00,17.37206,78.50864,PM10,60,72,64
India,Telangana,Hyderabad,"New Malakpet, Hyderabad - TSPCB",11-07-2024 02:00:00,17.37206,78.50864,SO2,7,25,13
India,Telangana,Hyderabad,"Ramachandrapuram, Hyderabad - TSPCB",11-07-2024 02:00:00,17.528544,78.286195,PM10,72,86,80
India,Telangana,Hyderabad,"Sanathnagar, Hyderabad - TSPCB",11-07-2024 02:00:00,17.4559458,78.4332152,PM2.5,21,39,29
India,Telangana,Hyderabad,"Somajiguda, Hyderabad - TSPCB",11-07-2024 02:00:00,17.417094,78.457437,PM10,61,78,68
India,Telangana,Hyderabad,"Somajiguda, Hyderabad - TSPCB",11-07-2024 02:00:00,17.417094,78.457437,NO2,15,29,25
India,Telangana,Hyderabad,"Somajiguda, Hyderabad - TSPCB",11-07-2024 02:00:00,17.417094,78.457437,NH3,4,5,4
India,Telangana,Hyderabad,"Somajiguda, Hyderabad - TSPCB",11-07-2024 02:00:00,17.417094,78.457437,OZONE,8,15,11
India,Telangana,Hyderabad,"Zoo Park, Hyderabad - TSPCB",11-07-2024 02:00:00,17.349694,78.451437,PM10,NA,NA,NA
India,Telangana,Hyderabad,"Zoo Park, Hyderabad - TSPCB",11-07-2024 02:00:00,17.349694,78.451437,NO2,5,14,12
India,Telangana,Hyderabad,"Zoo Park, Hyderabad - TSPCB",11-07-2024 02:00:00,17.349694,78.451437,SO2,1,12,4
India,Telangana,Hyderabad,"Zoo Park, Hyderabad - TSPCB",11-07-2024 02:00:00,17.349694,78.451437,OZONE,16,26,18
India,Tripura,Agartala,"Bardowali, Agartala - Tripura SPCB",11-07-2024 02:00:00,23.8175497,91.2726974,PM10,32,63,49
India,Tripura,Agartala,"Bardowali, Agartala - Tripura SPCB",11-07-2024 02:00:00,23.8175497,91.2726974,CO,8,19,13
India,Tripura,Agartala,"Bardowali, Agartala - Tripura SPCB",11-07-2024 02:00:00,23.8175497,91.2726974,OZONE,3,14,5
India,Uttar_Pradesh,Agra,"Manoharpur, Agra - UPPCB",11-07-2024 02:00:00,27.23711,78.01936,NH3,2,2,2
India,Uttar_Pradesh,Agra,"Manoharpur, Agra - UPPCB",11-07-2024 02:00:00,27.23711,78.01936,OZONE,3,7,4
India,Uttar_Pradesh,Agra,"Rohta, Agra - UPPCB",11-07-2024 02:00:00,27.106972,78.000111,SO2,4,6,5
India,Uttar_Pradesh,Agra,"Sanjay Palace, Agra - UPPCB",11-07-2024 02:00:00,27.19865833,78.00598056,PM10,40,160,81
India,Uttar_Pradesh,Agra,"Sector-3B Avas Vikas Colony, Agra - UPPCB",11-07-2024 02:00:00,27.19412,77.96237,NO2,30,38,33
India,Uttar_Pradesh,Agra,"Sector-3B Avas Vikas Colony, Agra - UPPCB",11-07-2024 02:00:00,27.19412,77.96237,CO,11,30,16
India,Uttar_Pradesh,Agra,"Shahjahan Garden, Agra - UPPCB",11-07-2024 02:00:00,27.169338,78.03582,NH3,NA,NA,NA
India,Uttar_Pradesh,Agra,"Shahjahan Garden, Agra - UPPCB",11-07-2024 02:00:00,27.169338,78.03582,SO2,NA,NA,NA
India,Uttar_Pradesh,Agra,"Shastripuram, Agra - UPPCB",11-07-2024 02:00:00,27.19862,77.92066,PM2.5,NA,NA,NA
India,Uttar_Pradesh,Bareilly,"Civil Lines, Bareilly - UPPCB",11-07-2024 02:00:00,28.359581,79.414455,NH3,1,1,1
India,Uttar_Pradesh,Bulandshahr,"Yamunapuram, Bulandshahr - UPPCB",11-07-2024 02:00:00,28.406963,77.849831,SO2,8,18,13
India,Uttar_Pradesh,Firozabad,"Nagla Bhau, Firozabad - UPPCB",11-07-2024 02:00:00,27.168897,78.376960,NH3,2,2,2
India,Uttar_Pradesh,Firozabad,"Vibhab Nagar, Firozabad - UPPCB",11-07-2024 02:00:00,27.1594,78.3953,SO2,5,14,8
India,Uttar_Pradesh,Ghaziabad,"Indirapuram, Ghaziabad - UPPCB",11-07-2024 02:00:00,28.646233,77.358075,NO2,38,86,57
India,Uttar_Pradesh,Ghaziabad,"Indirapuram, Ghaziabad - UPPCB",11-07-2024 02:00:00,28.646233,77.358075,SO2,16,23,19
India,Uttar_Pradesh,Ghaziabad,"Loni, Ghaziabad - UPPCB",11-07-2024 02:00:00,28.757294,77.278792,NH3,2,9,5
India,Uttar_Pradesh,Ghaziabad,"Vasundhara, Ghaziabad - UPPCB",11-07-2024 02:00:00,28.6603346,77.3572563,NH3,2,6,5
India,Uttar_Pradesh,Ghaziabad,"Vasundhara, Ghaziabad - UPPCB",11-07-2024 02:00:00,28.6603346,77.3572563,SO2,3,11,6
India,Uttar_Pradesh,Ghaziabad,"Vasundhara, Ghaziabad - UPPCB",11-07-2024 02:00:00,28.6603346,77.3572563,CO,5,74,45
India,Uttar_Pradesh,Gorakhpur,"Madan Mohan Malaviya University of Technology, Gorakhpur - UPPCB",11-07-2024 02:00:00,26.730136,83.433859,SO2,21,29,22
India,Uttar_Pradesh,Gorakhpur,"Madan Mohan Malaviya University of Technology, Gorakhpur - UPPCB",11-07-2024 02:00:00,26.730136,83.433859,OZONE,12,12,12
India,Uttar_Pradesh,Greater Noida,"Knowledge Park - III, Greater Noida - UPPCB",11-07-2024 02:00:00,28.47272,77.482000,PM10,NA,NA,NA
India,Uttar_Pradesh,Greater Noida,"Knowledge Park - III, Greater Noida - UPPCB",11-07-2024 02:00:00,28.47272,77.482000,SO2,5,12,8
India,Uttar_Pradesh,Jhansi,"Shivaji Nagar, Jhansi - UPPCB",11-07-2024 02:00:00,25.4547,78.6039,SO2,19,29,21
India,Uttar_Pradesh,Kanpur,"FTI Kidwai Nagar, Kanpur - UPPCB",11-07-2024 02:00:00,26.428282,80.327067,PM10,NA,NA,NA
India,Uttar_Pradesh,Kanpur,"NSI Kalyanpur, Kanpur - UPPCB",11-07-2024 02:00:00,26.509954,80.249612,PM2.5,5,94,64
India,Uttar_Pradesh,Kanpur,"NSI Kalyanpur, Kanpur - UPPCB",11-07-2024 02:00:00,26.509954,80.249612,SO2,17,23,19
India,Uttar_Pradesh,Kanpur,"Nehru Nagar, Kanpur - UPPCB",11-07-2024 02:00:00,26.4703136,80.3229863,PM2.5,24,171,95
India,Uttar_Pradesh,Kanpur,"Nehru Nagar, Kanpur - UPPCB",11-07-2024 02:00:00,26.4703136,80.3229863,NO2,19,57,34
India,Uttar_Pradesh,Khurja,"Kalindi Kunj, Khurja - UPPCB",11-07-2024 02:00:00,28.2348927,77.8683002,NH3,1,2,1
India,Uttar_Pradesh,Khurja,"Kalindi Kunj, Khurja - UPPCB",11-07-2024 02:00:00,28.2348927,77.8683002,OZONE,8,18,14
India,Uttar_Pradesh,Lucknow,"B R Ambedkar University, Lucknow - UPPCB",11-07-2024 02:00:00,26.766433,80.927299,PM2.5,33,122,67
India,Uttar_Pradesh,Lucknow,"B R Ambedkar University, Lucknow - UPPCB",11-07-2024 02:00:00,26.766433,80.927299,SO2,13,13,13
India,Uttar_Pradesh,Lucknow,"B R Ambedkar University, Lucknow - UPPCB",11-07-2024 02:00:00,26.766433,80.927299,CO,22,26,23
India,Uttar_Pradesh,Lucknow,"B R Ambedkar University, Lucknow - UPPCB",11-07-2024 02:00:00,26.766433,80.927299,OZONE,23,65,29
India,Uttar_Pradesh,Lucknow,"Kendriya Vidyalaya, Lucknow - CPCB",11-07-2024 02:00:00,26.906111,80.948222,PM10,48,85,66
India,Uttar_Pradesh,Lucknow,"Kendriya Vidyalaya, Lucknow - CPCB",11-07-2024 02:00:00,26.906111,80.948222,OZONE,1,41,5
India,Uttar_Pradesh,Lucknow,"Kukrail Picnic Spot-1, Lucknow - UPPCB",11-07-2024 02:00:00,26.90723,80.98579,PM10,31,73,50
India,Uttar_Pradesh,Lucknow,"Talkatora District Industries Center, Lucknow - CPCB",11-07-2024 02:00:00,26.83399722,80.8917361,PM2.5,44,173,76
India,Uttar_Pradesh,Meerut,"Ganga Nagar, Meerut - UPPCB",11-07-2024 02:00:00,28.999264,77.7590354,NO2,21,54,32
India,Uttar_Pradesh,Meerut,"Ganga Nagar, Meerut - UPPCB",11-07-2024 02:00:00,28.999264,77.7590354,NH3,26,59,35
India,Uttar_Pradesh,Meerut,"Pallavpuram Phase 2, Meerut - UPPCB",11-07-2024 02:00:00,29.063510,77.709723,PM10,31,116,88
India,Uttar_Pradesh,Moradabad,"Buddhi Vihar, Moradabad - UPPCB",11-07-2024 02:00:00,28.83526,78.74460,SO2,22,27,24
India,Uttar_Pradesh,Moradabad,"Buddhi Vihar, Moradabad - UPPCB",11-07-2024 02:00:00,28.83526,78.74460,CO,22,44,33
India,Uttar_Pradesh,Moradabad,"Eco Herbal Park, Moradabad - UPPCB",11-07-2024 02:00:00,28.840739,78.697531,PM10,9,129,71
India,Uttar_Pradesh,Moradabad,"Employment Office, Moradabad - UPPCB",11-07-2024 02:00:00,28.88528,78.73880,PM10,29,67,44
India,Uttar_Pradesh,Moradabad,"Employment Office, Moradabad - UPPCB",11-07-2024 02:00:00,28.88528,78.73880,OZONE,20,34,27
India,Uttar_Pradesh,Moradabad,"Jigar Colony, Moradabad - UPPCB",11-07-2024 02:00:00,28.856664,78.772638,NH3,3,3,3
India,Uttar_Pradesh,Moradabad,"Jigar Colony, Moradabad - UPPCB",11-07-2024 02:00:00,28.856664,78.772638,CO,32,66,58
India,Uttar_Pradesh,Moradabad,"Transport Nagar, Moradabad - UPPCB",11-07-2024 02:00:00,28.802625,78.753728,NO2,4,5,4
India,Uttar_Pradesh,Moradabad,"Transport Nagar, Moradabad - UPPCB",11-07-2024 02:00:00,28.802625,78.753728,CO,26,42,41
India,Uttar_Pradesh,Muzaffarnagar,"New Mandi, Muzaffarnagar - UPPCB",11-07-2024 02:00:00,29.4723508,77.7194031,OZONE,3,73,35
India,Uttar_Pradesh,Noida,"Sector - 62, Noida - IMD",11-07-2024 02:00:00,28.6245479,77.3577104,PM2.5,31,122,73
India,Uttar_Pradesh,Noida,"Sector-1, Noida - UPPCB",11-07-2024 02:00:00,28.5898,77.3101,CO,2,74,37
India,Uttar_Pradesh,Noida,"Sector-116, Noida - UPPCB",11-07-2024 02:00:00,28.569230,77.393848,OZONE,3,138,17
India,Uttar_Pradesh,Prayagraj,"Motilal Nehru NIT, Prayagraj - UPPCB",11-07-2024 02:00:00,25.494,81.863,NO2,11,12,12
India,Uttar_Pradesh,Prayagraj,"Motilal Nehru NIT, Prayagraj - UPPCB",11-07-2024 02:00:00,25.494,81.863,SO2,12,39,24
India,Uttar_Pradesh,Prayagraj,"Nagar Nigam, Prayagraj - UPPCB",11-07-2024 02:00:00,25.44919916 ,81.82735986 ,PM2.5,30,301,71
India,Uttar_Pradesh,Prayagraj,"Nagar Nigam, Prayagraj - UPPCB",11-07-2024 02:00:00,25.44919916 ,81.82735986 ,PM10,26,148,54
India,Uttar_Pradesh,Varanasi,"Ardhali Bazar, Varanasi - UPPCB",11-07-2024 02:00:00,25.3505986,82.9083074,OZONE,8,29,13
India,Uttar_Pradesh,Varanasi,"IESD Banaras Hindu University, Varanasi - UPPCB",11-07-2024 02:00:00,25.262326,82.995408,NH3,1,2,1
India,Uttar_Pradesh,Varanasi,"Maldahiya, Varanasi - UPPCB",11-07-2024 02:00:00,25.32393,82.99687,PM10,8,32,16
India,Uttar_Pradesh,Varanasi,"Maldahiya, Varanasi - UPPCB",11-07-2024 02:00:00,25.32393,82.99687,NH3,NA,NA,NA
India,Uttar_Pradesh,Varanasi,"Maldahiya, Varanasi - UPPCB",11-07-2024 02:00:00,25.32393,82.99687,CO,3,34,25
India,Uttar_Pradesh,Vrindavan,"Omex Eternity, Vrindavan - UPPCB",11-07-2024 02:00:00,27.5714090,77.6557570,NO2,12,12,12
India,Uttar_Pradesh,Vrindavan,"Omex Eternity, Vrindavan - UPPCB",11-07-2024 02:00:00,27.5714090,77.6557570,OZONE,25,27,25
India,Uttarakhand,Kashipur,"Govt. Girls Inter College, Kashipur - UKPCB",11-07-2024 02:00:00,29.2124114,78.9611753,NO2,4,17,8
India,Uttarakhand,Rishikesh,"Shivaji Nagar, Rishikesh - UKPCB",11-07-2024 02:00:00,30.075911,78.2859547,NO2,7,22,11
India,Uttarakhand,Rishikesh,"Shivaji Nagar, Rishikesh - UKPCB",11-07-2024 02:00:00,30.075911,78.2859547,CO,13,39,31
India,West_Bengal,Asansol,"Asansol Court Area, Asansol - WBPCB",11-07-2024 02:00:00,23.685297,86.945968,OZONE,11,41,20
India,West_Bengal,Barrackpore,"SVSPA Campus, Barrackpore - WBPCB",11-07-2024 02:00:00,22.7605581,88.3617589,CO,NA,NA,NA
India,West_Bengal,Durgapur,"PCBL Residential Complex, Durgapur - WBPCB",11-07-2024 02:00:00,23.5087640,87.3544400,PM2.5,43,337,104
India,West_Bengal,Durgapur,"Sidhu Kanhu Indoor Stadium, Durgapur - WBPCB",11-07-2024 02:00:00,23.5404352,87.2892225,PM2.5,34,151,70
India,West_Bengal,Durgapur,"Sidhu Kanhu Indoor Stadium, Durgapur - WBPCB",11-07-2024 02:00:00,23.5404352,87.2892225,PM10,40,133,82
India,West_Bengal,Durgapur,"Sidhu Kanhu Indoor Stadium, Durgapur - WBPCB",11-07-2024 02:00:00,23.5404352,87.2892225,NH3,4,5,5
India,West_Bengal,Haldia,"Priyambada Housing Estate, Haldia - WBPCB",11-07-2024 02:00:00,22.06047,88.109737,NO2,9,13,11
India,West_Bengal,Haldia,"Priyambada Housing Estate, Haldia - WBPCB",11-07-2024 02:00:00,22.06047,88.109737,NH3,8,11,9
India,West_Bengal,Haldia,"Priyambada Housing Estate, Haldia - WBPCB",11-07-2024 02:00:00,22.06047,88.109737,CO,22,34,24
India,West_Bengal,Howrah,"Belur Math, Howrah - WBPCB",11-07-2024 02:00:00,22.629801,88.352017,OZONE,11,18,14
India,West_Bengal,Howrah,"Botanical Garden, Howrah - WBPCB",11-07-2024 02:00:00,22.554954,88.292568,PM10,36,115,75
India,West_Bengal,Howrah,"Botanical Garden, Howrah - WBPCB",11-07-2024 02:00:00,22.554954,88.292568,SO2,5,7,6
India,West_Bengal,Howrah,"Ghusuri, Howrah - WBPCB",11-07-2024 02:00:00,22.611968,88.347422,PM2.5,23,58,37
India,West_Bengal,Howrah,"Ghusuri, Howrah - WBPCB",11-07-2024 02:00:00,22.611968,88.347422,CO,12,16,15
India,West_Bengal,Howrah,"Ghusuri, Howrah - WBPCB",11-07-2024 02:00:00,22.611968,88.347422,OZONE,12,21,14
India,West_Bengal,Howrah,"Padmapukur, Howrah - WBPCB",11-07-2024 02:00:00,22.5687319,88.2797276,NH3,6,9,8
India,West_Bengal,Kolkata,"Ballygunge, Kolkata - WBPCB",11-07-2024 02:00:00,22.5367507,88.3638022,PM2.5,27,45,33
India,West_Bengal,Kolkata,"Bidhannagar, Kolkata - WBPCB",11-07-2024 02:00:00,22.58157048,88.41002457,NO2,21,29,24
India,West_Bengal,Kolkata,"Bidhannagar, Kolkata - WBPCB",11-07-2024 02:00:00,22.58157048,88.41002457,CO,38,42,41
India,West_Bengal,Kolkata,"Fort William, Kolkata - WBPCB",11-07-2024 02:00:00,22.556640,88.342674,PM10,39,56,47
India,West_Bengal,Kolkata,"Fort William, Kolkata - WBPCB",11-07-2024 02:00:00,22.556640,88.342674,NO2,15,31,24
India,West_Bengal,Kolkata,"Fort William, Kolkata - WBPCB",11-07-2024 02:00:00,22.556640,88.342674,SO2,7,9,8
India,West_Bengal,Kolkata,"Rabindra Bharati University, Kolkata - WBPCB",11-07-2024 02:00:00,22.627847,88.380669,NO2,50,57,54
India,West_Bengal,Kolkata,"Rabindra Sarobar, Kolkata - WBPCB",11-07-2024 02:00:00,22.51106,88.35142,PM10,27,43,34
India,West_Bengal,Kolkata,"Victoria, Kolkata - WBPCB",11-07-2024 02:00:00,22.5448082,88.3403691,SO2,5,8,6
India,West_Bengal,Siliguri,"Ward-32 Bapupara, Siliguri - WBPCB",11-07-2024 02:00:00,26.6879226,88.4152495,PM2.5,26,50,36
India,West_Bengal,Siliguri,"Ward-32 Bapupara, Siliguri - WBPCB",11-07-2024 02:00:00,26.6879226,88.4152495,NH3,10,11,10
India,Andhra_Pradesh,Amaravati,"Secretariat, Amaravati - APPCB",11-07-2024 02:00:00,16.5150833,80.5181667,SO2,14,42,21
India,Andhra_Pradesh,Amaravati,"Secretariat, Amaravati - APPCB",11-07-2024 02:00:00,16.5150833,80.5181667,CO,16,122,54
India,Andhra_Pradesh,Anantapur,"Gulzarpet, Anantapur - APPCB",11-07-2024 02:00:00,14.675886,77.593027,SO2,4,5,4
India,Andhra_Pradesh,Anantapur,"Gulzarpet, Anantapur - APPCB",11-07-2024 02:00:00,14.675886,77.593027,OZONE,5,21,13
India,Andhra_Pradesh,Chittoor,"Gangineni Cheruvu, Chittoor - APPCB",11-07-2024 02:00:00,13.204880,79.097889,PM2.5,33,241,89
India,Andhra_Pradesh,Chittoor,"Gangineni Cheruvu, Chittoor - APPCB",11-07-2024 02:00:00,13.204880,79.097889,NO2,8,9,9
India,Andhra_Pradesh,Chittoor,"Gangineni Cheruvu, Chittoor - APPCB",11-07-2024 02:00:00,13.204880,79.097889,NH3,3,4,3
India,Andhra_Pradesh,Kadapa,"Yerramukkapalli, Kadapa - APPCB",11-07-2024 02:00:00,14.465052,78.824187,NO2,8,8,8
India,Andhra_Pradesh,Kadapa,"Yerramukkapalli, Kadapa - APPCB",11-07-2024 02:00:00,14.465052,78.824187,CO,32,62,45
India,Andhra_Pradesh,Rajamahendravaram,"Anand Kala Kshetram, Rajamahendravaram - APPCB",11-07-2024 02:00:00,16.9872867,81.7363176,PM2.5,15,51,30
India,Andhra_Pradesh,Rajamahendravaram,"Anand Kala Kshetram, Rajamahendravaram - APPCB",11-07-2024 02:00:00,16.9872867,81.7363176,NH3,1,16,4
India,Andhra_Pradesh,Rajamahendravaram,"Anand Kala Kshetram, Rajamahendravaram - APPCB",11-07-2024 02:00:00,16.9872867,81.7363176,SO2,10,13,11
India,Andhra_Pradesh,Tirupati,"Vaikuntapuram, Tirupati - APPCB",11-07-2024 02:00:00,13.615387,79.409230,PM10,NA,NA,NA
India,Andhra_Pradesh,Vijayawada,"HB Colony, Vijayawada - APPCB",11-07-2024 02:00:00,16.536107,80.594233,PM2.5,33,54,43
India,Andhra_Pradesh,Vijayawada,"HB Colony, Vijayawada - APPCB",11-07-2024 02:00:00,16.536107,80.594233,NH3,4,5,4
India,Andhra_Pradesh,Vijayawada,"Rajiv Gandhi Park, Vijayawada - APPCB",11-07-2024 02:00:00,16.509717,80.612222,PM10,38,87,55
India,Andhra_Pradesh,Vijayawada,"Rajiv Nagar, Vijayawada - APPCB",11-07-2024 02:00:00,16.554731,80.649110,NO2,10,10,10
India,Andhra_Pradesh,Vijayawada,"Rajiv Nagar, Vijayawada - APPCB",11-07-2024 02:00:00,16.554731,80.649110,NH3,1,2,2
India,Andhra_Pradesh,Vijayawada,"Rajiv Nagar, Vijayawada - APPCB",11-07-2024 02:00:00,16.554731,80.649110,OZONE,15,27,20
India,Arunachal_Pradesh,Naharlagun,"Naharlagun, Naharlagun - APSPCB",11-07-2024 02:00:00,27.103358,93.679645,PM2.5,1,27,14
India,Assam,Byrnihat,"Central Academy for SFS, Byrnihat - PCBA",11-07-2024 02:00:00,26.071318,91.87488,PM2.5,NA,NA,NA
India,Assam,Byrnihat,"Central Academy for SFS, Byrnihat - PCBA",11-07-2024 02:00:00,26.071318,91.87488,NH3,12,20,16
India,Assam,Byrnihat,"Central Academy for SFS, Byrnihat - PCBA",11-07-2024 02:00:00,26.071318,91.87488,OZONE,23,135,24
India,Assam,Guwahati,"IITG, Guwahati - PCBA",11-07-2024 02:00:00,26.2028636,91.70046436,NO2,NA,NA,NA
India,Assam,Guwahati,"IITG, Guwahati - PCBA",11-07-2024 02:00:00,26.2028636,91.70046436,CO,NA,NA,NA
India,Assam,Guwahati,"IITG, Guwahati - PCBA",11-07-2024 02:00:00,26.2028636,91.70046436,OZONE,NA,NA,NA
India,Assam,Guwahati,"Railway Colony, Guwahati - PCBA",11-07-2024 02:00:00,26.181742,91.78063,NO2,3,3,3
India,Assam,Nagaon,"Christianpatty, Nagaon - PCBA",11-07-2024 02:00:00,26.349082,92.68449,OZONE,1,16,2
India,Assam,Nalbari,"Bata Chowk, Nalbari - PCBA",11-07-2024 02:00:00,26.446912,91.439057,PM2.5,10,58,33
India,Assam,Nalbari,"Bata Chowk, Nalbari - PCBA",11-07-2024 02:00:00,26.446912,91.439057,NO2,25,36,31
India,Assam,Nalbari,"Bata Chowk, Nalbari - PCBA",11-07-2024 02:00:00,26.446912,91.439057,NH3,1,1,1
India,Assam,Nalbari,"Bata Chowk, Nalbari - PCBA",11-07-2024 02:00:00,26.446912,91.439057,SO2,2,11,9
India,Assam,Nalbari,"Bata Chowk, Nalbari - PCBA",11-07-2024 02:00:00,26.446912,91.439057,CO,12,57,47
India,Assam,Silchar,"Tarapur, Silchar - PCBA",11-07-2024 02:00:00,24.82827,92.79525,NH3,1,1,1
India,Assam,Silchar,"Tarapur, Silchar - PCBA",11-07-2024 02:00:00,24.82827,92.79525,CO,22,38,33
India,Assam,Sivasagar,"Girls College, Sivasagar - PCBA",11-07-2024 02:00:00,26.987634,94.636574,NO2,5,11,7
India,Bihar,Arrah,"New DM Office, Arrah - BSPCB",11-07-2024 02:00:00,25.5626095,84.663264,PM10,NA,NA,NA
India,Bihar,Aurangabad,"Gurdeo Nagar, Aurangabad - BSPCB",11-07-2024 02:00:00,24.75746,84.366208,OZONE,8,47,16
India,Bihar,Bhagalpur,"DM Office_Kachari Chowk, Bhagalpur - BSPCB",11-07-2024 02:00:00,25.251013,86.989001,PM10,30,111,53
India,Bihar,Bhagalpur,"DM Office_Kachari Chowk, Bhagalpur - BSPCB",11-07-2024 02:00:00,25.251013,86.989001,NO2,25,41,34
India,Bihar,Bhagalpur,"Mayaganj, Bhagalpur - BSPCB",11-07-2024 02:00:00,25.265194,87.012947,PM2.5,13,92,46
India,Bihar,Bhagalpur,"Mayaganj, Bhagalpur - BSPCB",11-07-2024 02:00:00,25.265194,87.012947,PM10,14,95,48
India,Bihar,Bhagalpur,"Mayaganj, Bhagalpur - BSPCB",11-07-2024 02:00:00,25.265194,87.012947,SO2,19,40,31
India,Bihar,Buxar,"Charitra Van, Buxar - BSPCB (Formerly known as Central Jail)",11-07-2024 02:00:00,25.567520,83.966379,PM10,45,408,229
India,Bihar,Buxar,"Charitra Van, Buxar - BSPCB (Formerly known as Central Jail)",11-07-2024 02:00:00,25.567520,83.966379,SO2,2,5,3
India,Bihar,Chhapra,"Darshan Nagar, Chhapra - BSPCB",11-07-2024 02:00:00,25.7808257,84.7446768,PM2.5,NA,NA,NA
India,Bihar,Chhapra,"Darshan Nagar, Chhapra - BSPCB",11-07-2024 02:00:00,25.7808257,84.7446768,NO2,NA,NA,NA
India,Bihar,Chhapra,"Darshan Nagar, Chhapra - BSPCB",11-07-2024 02:00:00,25.7808257,84.7446768,SO2,NA,NA,NA
India,Bihar,Chhapra,"Darshan Nagar, Chhapra - BSPCB",11-07-2024 02:00:00,25.7808257,84.7446768,OZONE,NA,NA,NA
India,Bihar,Gaya,"Kareemganj, Gaya - BSPCB",11-07-2024 02:00:00,24.792403,84.992416,PM10,NA,NA,NA
India,Bihar,Gaya,"SFTI Kusdihra, Gaya - BSPCB",11-07-2024 02:00:00,24.762518,84.982348,PM2.5,NA,NA,NA
India,Bihar,Gaya,"SFTI Kusdihra, Gaya - BSPCB",11-07-2024 02:00:00,24.762518,84.982348,PM10,NA,NA,NA
India,Bihar,Hajipur,"Industrial Area, Hajipur - BSPCB",11-07-2024 02:00:00,25.697189,85.245900,NH3,14,15,14
India,Bihar,Katihar,"Mirchaibari, Katihar - BSPCB",11-07-2024 02:00:00,25.560083,87.553265,CO,25,39,36
India,Bihar,Kishanganj,"SDM Office_Khagra, Kishanganj - BSPCB",11-07-2024 02:00:00,26.0881305,87.93840336,PM10,NA,NA,NA
India,Bihar,Kishanganj,"SDM Office_Khagra, Kishanganj - BSPCB",11-07-2024 02:00:00,26.0881305,87.93840336,NO2,21,34,28
India,Bihar,Kishanganj,"SDM Office_Khagra, Kishanganj - BSPCB",11-07-2024 02:00:00,26.0881305,87.93840336,CO,4,5,5
India,Bihar,Munger,"Town Hall, Munger - BSPCB",11-07-2024 02:00:00,25.376776,86.471523,PM2.5,NA,NA,NA
India,Bihar,Munger,"Town Hall, Munger - BSPCB",11-07-2024 02:00:00,25.376776,86.471523,PM10,NA,NA,NA
India,Bihar,Munger,"Town Hall, Munger - BSPCB",11-07-2024 02:00:00,25.376776,86.471523,CO,8,36,28
India,Bihar,Muzaffarpur,"Buddha Colony, Muzaffarpur - BSPCB",11-07-2024 02:00:00,26.11442,85.39813,SO2,5,8,7
India,Bihar,Muzaffarpur,"Buddha Colony, Muzaffarpur - BSPCB",11-07-2024 02:00:00,26.11442,85.39813,OZONE,4,10,6
India,Bihar,Muzaffarpur,"MIT-Daudpur Kothi, Muzaffarpur - BSPCB",11-07-2024 02:00:00,26.1403345,85.3650192,PM2.5,2,500,104
India,Bihar,Muzaffarpur,"MIT-Daudpur Kothi, Muzaffarpur - BSPCB",11-07-2024 02:00:00,26.1403345,85.3650192,OZONE,32,69,32
India,Bihar,Muzaffarpur,"Muzaffarpur Collectorate, Muzaffarpur - BSPCB",11-07-2024 02:00:00,26.1209,85.3647,PM2.5,23,75,43
India,Bihar,Muzaffarpur,"Muzaffarpur Collectorate, Muzaffarpur - BSPCB",11-07-2024 02:00:00,26.1209,85.3647,NO2,33,34,34
India,Bihar,Patna,"DRM Office Danapur, Patna - BSPCB",11-07-2024 02:00:00,25.586562,85.043586,OZONE,4,23,9
India,Bihar,Patna,"Govt. High School Shikarpur, Patna - BSPCB",11-07-2024 02:00:00,25.592539,85.227158,SO2,8,11,10
India,Bihar,Patna,"IGSC Planetarium Complex, Patna - BSPCB",11-07-2024 02:00:00,25.610369,85.132568,PM2.5,65,103,84
India,Bihar,Patna,"IGSC Planetarium Complex, Patna - BSPCB",11-07-2024 02:00:00,25.610369,85.132568,CO,14,19,15
India,Bihar,Patna,"Muradpur, Patna - BSPCB",11-07-2024 02:00:00,25.619651,85.147382,NH3,2,7,3
India,Bihar,Patna,"Muradpur, Patna - BSPCB",11-07-2024 02:00:00,25.619651,85.147382,OZONE,5,62,14
India,Bihar,Patna,"Rajbansi Nagar, Patna - BSPCB",11-07-2024 02:00:00,25.599486,85.113666,PM2.5,55,98,68
India,Bihar,Patna,"Rajbansi Nagar, Patna - BSPCB",11-07-2024 02:00:00,25.599486,85.113666,PM10,68,101,86
India,Bihar,Patna,"Samanpura, Patna - BSPCB",11-07-2024 02:00:00,25.596727,85.085624,OZONE,26,74,50
India,Bihar,Saharsa,"Police Line, Saharsa - BSPCB",11-07-2024 02:00:00,25.892357,86.590325,PM2.5,7,65,28
India,Bihar,Saharsa,"Police Line, Saharsa - BSPCB",11-07-2024 02:00:00,25.892357,86.590325,NH3,9,9,9
India,Bihar,Saharsa,"Police Line, Saharsa - BSPCB",11-07-2024 02:00:00,25.892357,86.590325,SO2,16,17,17
India,Bihar,Samastipur,"DM Office_Kasipur, Samastipur - BSPCB",11-07-2024 02:00:00,25.859655,85.77944,SO2,15,18,16
India,Bihar,Sasaram,"Dada Peer, Sasaram - BSPCB",11-07-2024 02:00:00,24.952822,84.002396,PM2.5,NA,NA,NA
India,Bihar,Sasaram,"Dada Peer, Sasaram - BSPCB",11-07-2024 02:00:00,24.952822,84.002396,NO2,9,10,9
India,Bihar,Sasaram,"Dada Peer, Sasaram - BSPCB",11-07-2024 02:00:00,24.952822,84.002396,OZONE,2,57,8
India,Bihar,Siwan,"Chitragupta Nagar, Siwan - BSPCB",11-07-2024 02:00:00,26.2271665,84.3570427,PM2.5,28,173,81
India,Bihar,Siwan,"Chitragupta Nagar, Siwan - BSPCB",11-07-2024 02:00:00,26.2271665,84.3570427,SO2,15,34,30
India,Chandigarh,Chandigarh,"Sector 22, Chandigarh - CPCC",11-07-2024 02:00:00,30.735567,76.775714,PM10,24,500,173
India,Chandigarh,Chandigarh,"Sector 22, Chandigarh - CPCC",11-07-2024 02:00:00,30.735567,76.775714,SO2,2,8,5
India,Chandigarh,Chandigarh,"Sector-53, Chandigarh - CPCC",11-07-2024 02:00:00,30.719859,76.738637,PM2.5,13,277,107
India,Chhattisgarh,Bhilai,"32Bungalows, Bhilai - CECB",11-07-2024 02:00:00,21.194815,81.314770,CO,8,17,15
India,Chhattisgarh,Bhilai,"Civic Center, Bhilai - Bhilai Steel Plant",11-07-2024 02:00:00,21.185571,81.343175,SO2,9,11,10
India,Chhattisgarh,Bhilai,"Hathkhoj, Bhilai - CECB",11-07-2024 02:00:00,21.224231,81.408350,PM10,8,53,30
India,Chhattisgarh,Bhilai,"Hathkhoj, Bhilai - CECB",11-07-2024 02:00:00,21.224231,81.408350,NO2,7,40,16
India,Chhattisgarh,Bhilai,"Hathkhoj, Bhilai - CECB",11-07-2024 02:00:00,21.224231,81.408350,OZONE,18,33,22
India,Chhattisgarh,Bilaspur,"Mangala, Bilaspur - NTPC",11-07-2024 02:00:00,22.08815,82.13737,SO2,13,18,16
India,Chhattisgarh,Chhal,"Nawapara SECL Colony, Chhal - CECB",11-07-2024 02:00:00,22.118125,83.140608,NO2,15,39,24
India,Chhattisgarh,Chhal,"Nawapara SECL Colony, Chhal - CECB",11-07-2024 02:00:00,22.118125,83.140608,CO,16,32,25
India,Chhattisgarh,Korba,"Rampur, Korba - CECB",11-07-2024 02:00:00,22.368195,82.746431,PM10,15,55,30
India,Chhattisgarh,Korba,"Rampur, Korba - CECB",11-07-2024 02:00:00,22.368195,82.746431,CO,6,19,16
India,Chhattisgarh,Korba,"Rampur, Korba - CECB",11-07-2024 02:00:00,22.368195,82.746431,OZONE,4,17,6
India,Chhattisgarh,Korba,"Urja Nagar, Korba - CECB",11-07-2024 02:00:00,22.348441,82.549611,CO,16,34,25
India,Chhattisgarh,Kunjemura,"OP Jindal School, Kunjemura - CECB",11-07-2024 02:00:00,22.126650,83.483212,CO,24,34,29
India,Chhattisgarh,Kunjemura,"OP Jindal School, Kunjemura - CECB",11-07-2024 02:00:00,22.126650,83.483212,OZONE,8,15,11
India,Chhattisgarh,Raipur,"AIIMS, Raipur - CECB",11-07-2024 02:00:00,21.258815,81.578979,PM2.5,5,25,15
India,Chhattisgarh,Raipur,"Bhatagaon New ISBT, Raipur - CECB",11-07-2024 02:00:00,21.219665,81.630094,OZONE,3,5,4
India,Chhattisgarh,Raipur,"Krishak Nagar, Raipur - CECB",11-07-2024 02:00:00,21.237755,81.705301,OZONE,3,19,11
India,Chhattisgarh,Raipur,"Siltara Phase-II, Raipur - CECB",11-07-2024 02:00:00,21.371751,81.664929,CO,21,53,39
India,Chhattisgarh,Raipur,"Siltara Phase-II, Raipur - CECB",11-07-2024 02:00:00,21.371751,81.664929,OZONE,3,10,3
India,Delhi,Delhi,"Alipur, Delhi - DPCC",11-07-2024 02:00:00,28.815329,77.153010,SO2,6,11,9
India,Delhi,Delhi,"Alipur, Delhi - DPCC",11-07-2024 02:00:00,28.815329,77.153010,OZONE,1,73,15
India,Delhi,Delhi,"Anand Vihar, Delhi - DPCC",11-07-2024 02:00:00,28.647622,77.3158090,PM10,42,240,147
India,Delhi,Delhi,"Anand Vihar, Delhi - DPCC",11-07-2024 02:00:00,28.647622,77.3158090,NH3,1,8,3
India,Delhi,Delhi,"Anand Vihar, Delhi - DPCC",11-07-2024 02:00:00,28.647622,77.3158090,CO,23,62,50
India,Delhi,Delhi,"Ashok Vihar, Delhi - DPCC",11-07-2024 02:00:00,28.695381,77.181665,NH3,5,9,7
India,Delhi,Delhi,"Aya Nagar, Delhi - IMD",11-07-2024 02:00:00,28.4706914,77.1099364,PM10,NA,NA,NA
India,Delhi,Delhi,"Bawana, Delhi - DPCC",11-07-2024 02:00:00,28.776200,77.051074,NH3,4,13,8
India,Delhi,Delhi,"Burari Crossing, Delhi - IMD",11-07-2024 02:00:00,28.7256504,77.2011573,OZONE,31,78,50
India,Delhi,Delhi,"Dr. Karni Singh Shooting Range, Delhi - DPCC",11-07-2024 02:00:00,28.498571,77.264840,PM2.5,27,140,85
India,Delhi,Delhi,"Dr. Karni Singh Shooting Range, Delhi - DPCC",11-07-2024 02:00:00,28.498571,77.264840,NH3,3,4,3
India,Delhi,Delhi,"Dr. Karni Singh Shooting Range, Delhi - DPCC",11-07-2024 02:00:00,28.498571,77.264840,SO2,3,7,5
India,Delhi,Delhi,"Dwarka-Sector 8, Delhi - DPCC ",11-07-2024 02:00:00,28.5710274,77.0719006,PM2.5,47,230,117
India,Delhi,Delhi,"Dwarka-Sector 8, Delhi - DPCC ",11-07-2024 02:00:00,28.5710274,77.0719006,NO2,11,52,32
India,Delhi,Delhi,"Dwarka-Sector 8, Delhi - DPCC ",11-07-2024 02:00:00,28.5710274,77.0719006,NH3,3,9,6
India,Delhi,Delhi,"IGI Airport (T3), Delhi - IMD",11-07-2024 02:00:00,28.5627763,77.1180053,OZONE,2,20,4
India,Delhi,Delhi,"IHBAS, Dilshad Garden, Delhi - CPCB",11-07-2024 02:00:00,28.6811736,77.3025234,PM10,90,120,106
India,Delhi,Delhi,"Jawaharlal Nehru Stadium, Delhi - DPCC",11-07-2024 02:00:00,28.580280,77.233829,NH3,5,7,6
India,Delhi,Delhi,"Jawaharlal Nehru Stadium, Delhi - DPCC",11-07-2024 02:00:00,28.580280,77.233829,CO,20,81,59
India,Delhi,Delhi,"Lodhi Road, Delhi - IMD",11-07-2024 02:00:00,28.5918245,77.2273074,PM2.5,38,233,89
India,Delhi,Delhi,"Major Dhyan Chand National Stadium, Delhi - DPCC",11-07-2024 02:00:00,28.611281,77.237738,OZONE,1,21,9
India,Delhi,Delhi,"Mandir Marg, Delhi - DPCC",11-07-2024 02:00:00,28.636429,77.201067,SO2,1,17,9
India,Delhi,Delhi,"Mundka, Delhi - DPCC",11-07-2024 02:00:00,28.684678,77.076574,CO,36,78,55
India,Delhi,Delhi,"NSIT Dwarka, Delhi - CPCB",11-07-2024 02:00:00,28.60909,77.0325413,NH3,10,10,10
India,Delhi,Delhi,"Narela, Delhi - DPCC",11-07-2024 02:00:00,28.822836,77.101981,PM2.5,63,296,137
India,Delhi,Delhi,"Narela, Delhi - DPCC",11-07-2024 02:00:00,28.822836,77.101981,SO2,5,22,10
India,Delhi,Delhi,"Nehru Nagar, Delhi - DPCC",11-07-2024 02:00:00,28.567890,77.250515,NH3,4,6,5
India,Delhi,Delhi,"Nehru Nagar, Delhi - DPCC",11-07-2024 02:00:00,28.567890,77.250515,CO,50,101,71
India,Delhi,Delhi,"North Campus, DU, Delhi - IMD",11-07-2024 02:00:00,28.6573814,77.1585447,CO,42,90,55
India,Delhi,Delhi,"Okhla Phase-2, Delhi - DPCC",11-07-2024 02:00:00,28.530785,77.271255,PM2.5,42,120,79
India,Delhi,Delhi,"Okhla Phase-2, Delhi - DPCC",11-07-2024 02:00:00,28.530785,77.271255,NO2,32,87,62
India,Delhi,Delhi,"Patparganj, Delhi - DPCC",11-07-2024 02:00:00,28.623763,77.287209,PM10,63,153,124
India,Delhi,Delhi,"Patparganj, Delhi - DPCC",11-07-2024 02:00:00,28.623763,77.287209,SO2,9,18,14
India,Delhi,Delhi,"Punjabi Bagh, Delhi - DPCC",11-07-2024 02:00:00,28.674045,77.131023,NO2,8,47,31
India,Delhi,Delhi,"Pusa, Delhi - DPCC",11-07-2024 02:00:00,28.639652,77.146275,PM10,86,177,132
India,Delhi,Delhi,"Pusa, Delhi - DPCC",11-07-2024 02:00:00,28.639652,77.146275,NH3,3,7,4
India,Delhi,Delhi,"Pusa, Delhi - IMD",11-07-2024 02:00:00,28.636110,77.173332,PM2.5,21,201,90
India,Delhi,Delhi,"Pusa, Delhi - IMD",11-07-2024 02:00:00,28.636110,77.173332,OZONE,24,43,41
India,Delhi,Delhi,"R K Puram, Delhi - DPCC",11-07-2024 02:00:00,28.563262,77.186937,PM2.5,73,213,140
India,Delhi,Delhi,"R K Puram, Delhi - DPCC",11-07-2024 02:00:00,28.563262,77.186937,PM10,57,152,107
India,Delhi,Delhi,"R K Puram, Delhi - DPCC",11-07-2024 02:00:00,28.563262,77.186937,CO,22,87,58
India,Delhi,Delhi,"Rohini, Delhi - DPCC",11-07-2024 02:00:00,28.732528,77.119920,OZONE,13,24,17
India,Delhi,Delhi,"Sirifort, Delhi - CPCB",11-07-2024 02:00:00,28.5504249,77.2159377,NH3,19,23,21
India,Delhi,Delhi,"Sonia Vihar, Delhi - DPCC",11-07-2024 02:00:00,28.710508,77.249485,PM2.5,65,423,217
India,Delhi,Delhi,"Sonia Vihar, Delhi - DPCC",11-07-2024 02:00:00,28.710508,77.249485,SO2,5,12,7
India,Delhi,Delhi,"Sonia Vihar, Delhi - DPCC",11-07-2024 02:00:00,28.710508,77.249485,CO,8,66,47
India,Delhi,Delhi,"Vivek Vihar, Delhi - DPCC",11-07-2024 02:00:00,28.672342,77.315260,OZONE,6,28,8
India,Delhi,Delhi,"Wazirpur, Delhi - DPCC",11-07-2024 02:00:00,28.699793,77.165453,NH3,11,16,13
India,Delhi,Delhi,"Wazirpur, Delhi - DPCC",11-07-2024 02:00:00,28.699793,77.165453,SO2,4,8,6
India,Delhi,Delhi,"Wazirpur, Delhi - DPCC",11-07-2024 02:00:00,28.699793,77.165453,CO,2,68,54
India,Gujarat,Ahmedabad,"Maninagar, Ahmedabad - GPCB",11-07-2024 02:00:00,23.002657,72.591912,NO2,19,64,27
India,Gujarat,Ahmedabad,"Raikhad, Ahmedabad - IITM",11-07-2024 02:00:00,23.020509,72.579261,PM10,37,102,69
India,Gujarat,Ahmedabad,"Raikhad, Ahmedabad - IITM",11-07-2024 02:00:00,23.020509,72.579261,SO2,9,15,12
India,Gujarat,Ahmedabad,"Raikhad, Ahmedabad - IITM",11-07-2024 02:00:00,23.020509,72.579261,OZONE,9,38,34
India,Gujarat,Ahmedabad,"Rakhial, Ahmedabad - IITM",11-07-2024 02:00:00,23.016834,72.625775,PM10,23,273,59
India,Gujarat,Ahmedabad,"SVPI Airport Hansol, Ahmedabad - IITM",11-07-2024 02:00:00,23.076793,72.627874,PM2.5,26,48,38
India,Gujarat,Ahmedabad,"SVPI Airport Hansol, Ahmedabad - IITM",11-07-2024 02:00:00,23.076793,72.627874,SO2,6,15,11
India,Gujarat,Ahmedabad,"SVPI Airport Hansol, Ahmedabad - IITM",11-07-2024 02:00:00,23.076793,72.627874,CO,15,30,20
India,Gujarat,Ankleshwar,"GIDC, Ankleshwar - GPCB",11-07-2024 02:00:00,21.613267,73.010555,NH3,NA,NA,NA
India,Gujarat,Gandhinagar,"GIFT City, Gandhinagar - IITM",11-07-2024 02:00:00,23.163798,72.677768,NO2,22,31,25
India,Gujarat,Gandhinagar,"GIFT City, Gandhinagar - IITM",11-07-2024 02:00:00,23.163798,72.677768,SO2,12,17,14
India,Gujarat,Gandhinagar,"GIFT City, Gandhinagar - IITM",11-07-2024 02:00:00,23.163798,72.677768,CO,8,27,23
India,Gujarat,Gandhinagar,"Sector-10, Gandhinagar - GPCB",11-07-2024 02:00:00,23.221714,72.654328,PM10,27,45,33
India,Gujarat,Gandhinagar,"Sector-10, Gandhinagar - GPCB",11-07-2024 02:00:00,23.221714,72.654328,NO2,18,20,18
India,Gujarat,Vapi,"Phase-1 GIDC, Vapi - GPCB",11-07-2024 02:00:00,20.362421,72.918013,PM2.5,10,36,21
India,Gujarat,Vatva,"Phase-4 GIDC, Vatva - GPCB",11-07-2024 02:00:00,22.969611,72.643500,CO,22,22,22
India,Haryana,Charkhi Dadri,"Mini Secretariat, Charkhi Dadri - HSPCB",11-07-2024 02:00:00,28.593883,76.270653,NO2,15,23,18
India,Haryana,Dharuhera,"Municipal Corporation Office, Dharuhera -  HSPCB",11-07-2024 02:00:00,28.206800,76.799700,NH3,9,26,18
India,Haryana,Dharuhera,"Municipal Corporation Office, Dharuhera -  HSPCB",11-07-2024 02:00:00,28.206800,76.799700,CO,20,31,22
India,Haryana,Faridabad,"New Industrial Town, Faridabad - HSPCB",11-07-2024 02:00:00,28.39072,77.30059,CO,8,45,29
India,Haryana,Faridabad,"Sector 11, Faridabad - HSPCB",11-07-2024 02:00:00,28.376058,77.315741,NH3,NA,NA,NA
India,Haryana,Faridabad,"Sector 11, Faridabad - HSPCB",11-07-2024 02:00:00,28.376058,77.315741,CO,28,51,47
India,Haryana,Faridabad,"Sector 11, Faridabad - HSPCB",11-07-2024 02:00:00,28.376058,77.315741,OZONE,7,17,13
India,Haryana,Faridabad,"Sector 30, Faridabad - HSPCB",11-07-2024 02:00:00,28.4417,77.3217,PM2.5,77,164,110
India,Haryana,Faridabad,"Sector 30, Faridabad - HSPCB",11-07-2024 02:00:00,28.4417,77.3217,OZONE,7,8,7
India,Haryana,Fatehabad,"Huda Sector, Fatehabad - HSPCB",11-07-2024 02:00:00,29.503664,75.467934,PM2.5,17,18,18
India,Haryana,Fatehabad,"Huda Sector, Fatehabad - HSPCB",11-07-2024 02:00:00,29.503664,75.467934,SO2,11,34,20
India,Haryana,Fatehabad,"Huda Sector, Fatehabad - HSPCB",11-07-2024 02:00:00,29.503664,75.467934,OZONE,11,47,34
India,Haryana,Gurugram,"Teri Gram, Gurugram - HSPCB",11-07-2024 02:00:00,28.4275,77.1465,NH3,NA,NA,NA
India,Haryana,Gurugram,"Teri Gram, Gurugram - HSPCB",11-07-2024 02:00:00,28.4275,77.1465,CO,3,92,71
India,Haryana,Gurugram,"Teri Gram, Gurugram - HSPCB",11-07-2024 02:00:00,28.4275,77.1465,OZONE,11,48,11
India,Haryana,Gurugram,"Vikas Sadan, Gurugram - HSPCB",11-07-2024 02:00:00,28.4501238,77.0263051,OZONE,8,69,17
India,Haryana,Jind,"Police Lines, Jind - HSPCB",11-07-2024 02:00:00,29.307814,76.337619,PM10,53,112,74
India,Haryana,Jind,"Police Lines, Jind - HSPCB",11-07-2024 02:00:00,29.307814,76.337619,NO2,1,120,16
India,Haryana,Jind,"Police Lines, Jind - HSPCB",11-07-2024 02:00:00,29.307814,76.337619,CO,1,100,49
India,Haryana,Kurukshetra,"Sector-7, Kurukshetra - HSPCB",11-07-2024 02:00:00,29.966942,76.875879,NO2,16,22,19
India,Haryana,Kurukshetra,"Sector-7, Kurukshetra - HSPCB",11-07-2024 02:00:00,29.966942,76.875879,NH3,6,6,6
India,Haryana,Kurukshetra,"Sector-7, Kurukshetra - HSPCB",11-07-2024 02:00:00,29.966942,76.875879,OZONE,11,90,56
India,Haryana,Manesar,"Sector-2 IMT, Manesar - HSPCB",11-07-2024 02:00:00,28.360699,76.936090,SO2,1,56,9
India,Haryana,Manesar,"Sector-2 IMT, Manesar - HSPCB",11-07-2024 02:00:00,28.360699,76.936090,CO,4,103,52
India,Haryana,Narnaul,"Shastri Nagar, Narnaul - HSPCB",11-07-2024 02:00:00,28.060249,76.113115,PM10,NA,NA,NA
India,Haryana,Palwal,"Shyam Nagar, Palwal - HSPCB",11-07-2024 02:00:00,28.1485564,77.3320667,PM2.5,38,104,70
India,Haryana,Palwal,"Shyam Nagar, Palwal - HSPCB",11-07-2024 02:00:00,28.1485564,77.3320667,PM10,59,117,87
India,Haryana,Palwal,"Shyam Nagar, Palwal - HSPCB",11-07-2024 02:00:00,28.1485564,77.3320667,NH3,8,9,9
India,Haryana,Panchkula,"Sector-6, Panchkula - HSPCB ",11-07-2024 02:00:00,30.7057778,76.8531805555555,SO2,2,10,3
India,Haryana,Panchkula,"Sector-6, Panchkula - HSPCB ",11-07-2024 02:00:00,30.7057778,76.8531805555555,CO,6,14,8
India,Haryana,Rohtak,"MD University, Rohtak - HSPCB",11-07-2024 02:00:00,28.52123,76.37138,CO,32,55,40
India,Haryana,Sirsa,"F-Block, Sirsa - HSPCB",11-07-2024 02:00:00,29.536400,75.015800,NO2,9,10,10
India,Haryana,Sirsa,"F-Block, Sirsa - HSPCB",11-07-2024 02:00:00,29.536400,75.015800,CO,102,111,104
India,Haryana,Sonipat,"Murthal, Sonipat - HSPCB",11-07-2024 02:00:00,29.027200,77.062100,PM10,58,110,86
India,Haryana,Sonipat,"Murthal, Sonipat - HSPCB",11-07-2024 02:00:00,29.027200,77.062100,NH3,7,10,9
India,Haryana,Sonipat,"Murthal, Sonipat - HSPCB",11-07-2024 02:00:00,29.027200,77.062100,SO2,11,29,20
India,Haryana,Sonipat,"Murthal, Sonipat - HSPCB",11-07-2024 02:00:00,29.027200,77.062100,OZONE,16,36,22
India,Himachal Pradesh,Baddi,"HIMUDA Complex Phase-1, Baddi - HPPCB",11-07-2024 02:00:00,30.943887,76.801991,PM2.5,NA,NA,NA
India,Himachal Pradesh,Baddi,"HIMUDA Complex Phase-1, Baddi - HPPCB",11-07-2024 02:00:00,30.943887,76.801991,NO2,NA,NA,NA
India,Jammu_and_Kashmir,Srinagar,"Rajbagh, Srinagar - JKSPCB",11-07-2024 02:00:00,34.066206,74.819820,PM10,30,81,59
India,Jammu_and_Kashmir,Srinagar,"Rajbagh, Srinagar - JKSPCB",11-07-2024 02:00:00,34.066206,74.819820,NO2,6,6,6
India,Jharkhand,Dhanbad,"Kalakusuma, Dhanbad - DMC",11-07-2024 02:00:00,23.811548,86.481238,PM2.5,NA,NA,NA
India,Jharkhand,Dhanbad,"Kalakusuma, Dhanbad - DMC",11-07-2024 02:00:00,23.811548,86.481238,SO2,NA,NA,NA
India,Jharkhand,Dhanbad,"Kalakusuma, Dhanbad - DMC",11-07-2024 02:00:00,23.811548,86.481238,OZONE,NA,NA,NA
India,Jharkhand,Pathardih,"Mohalbani Ghat, Pathardih - DMC",11-07-2024 02:00:00,23.669880,86.411725,NO2,NA,NA,NA
India,Jharkhand,Pathardih,"Mohalbani Ghat, Pathardih - DMC",11-07-2024 02:00:00,23.669880,86.411725,OZONE,NA,NA,NA
India,Karnataka,Bagalkot,"Vidayagiri, Bagalkot - KSPCB",11-07-2024 02:00:00,16.172806,75.659694,CO,23,57,37
India,Karnataka,Belgaum,"Ramteerth Nagar, Belgaum - KSPCB",11-07-2024 02:00:00,15.888653,74.541751,NH3,1,7,5
India,Karnataka,Belgaum,"Ramteerth Nagar, Belgaum - KSPCB",11-07-2024 02:00:00,15.888653,74.541751,SO2,9,9,9
India,Karnataka,Belgaum,"Ramteerth Nagar, Belgaum - KSPCB",11-07-2024 02:00:00,15.888653,74.541751,OZONE,19,20,20
India,Karnataka,Bengaluru,"BTM Layout, Bengaluru - CPCB",11-07-2024 02:00:00,12.9135218,77.5950804,PM2.5,18,25,20
India,Karnataka,Bengaluru,"BTM Layout, Bengaluru - CPCB",11-07-2024 02:00:00,12.9135218,77.5950804,NO2,38,68,56
India,Karnataka,Bengaluru,"Bapuji Nagar, Bengaluru - KSPCB",11-07-2024 02:00:00,12.951913,77.539784,SO2,7,9,8
India,Karnataka,Bengaluru,"Hebbal, Bengaluru - KSPCB",11-07-2024 02:00:00,13.029152,77.585901,PM2.5,18,58,33
India,Karnataka,Bengaluru,"Hebbal, Bengaluru - KSPCB",11-07-2024 02:00:00,13.029152,77.585901,PM10,26,55,38
India,Karnataka,Bengaluru,"Hombegowda Nagar, Bengaluru - KSPCB",11-07-2024 02:00:00,12.938539,77.590100,PM2.5,8,25,19
India,Karnataka,Bengaluru,"Jayanagar 5th Block, Bengaluru - KSPCB",11-07-2024 02:00:00,12.920984,77.584908,OZONE,13,19,18
India,Karnataka,Bengaluru,"Kasturi Nagar, Bengaluru - KSPCB",11-07-2024 02:00:00,13.003872,77.664217,NH3,3,4,4
India,Karnataka,Bengaluru,"Kasturi Nagar, Bengaluru - KSPCB",11-07-2024 02:00:00,13.003872,77.664217,CO,24,25,25
India,Karnataka,Bengaluru,"RVCE-Mailasandra, Bengaluru - KSPCB",11-07-2024 02:00:00,12.921418,77.502466,NO2,NA,NA,NA
India,Karnataka,Bengaluru,"RVCE-Mailasandra, Bengaluru - KSPCB",11-07-2024 02:00:00,12.921418,77.502466,SO2,NA,NA,NA
India,Karnataka,Bengaluru,"Silk Board, Bengaluru - KSPCB",11-07-2024 02:00:00,12.917348,77.622813,NO2,9,39,22
India,Karnataka,Bengaluru,"Silk Board, Bengaluru - KSPCB",11-07-2024 02:00:00,12.917348,77.622813,CO,10,59,35
India,Karnataka,Bengaluru,"Silk Board, Bengaluru - KSPCB",11-07-2024 02:00:00,12.917348,77.622813,OZONE,9,33,12
India,Karnataka,Chamarajanagar,"Urban, Chamarajanagar - KSPCB",11-07-2024 02:00:00,11.55358,76.55521,OZONE,15,39,21
India,Karnataka,Chikkaballapur,"Chikkaballapur Rural, Chikkaballapur - KSPCB",11-07-2024 02:00:00,13.428828,77.731418,PM10,8,46,27
India,Karnataka,Chikkaballapur,"Chikkaballapur Rural, Chikkaballapur - KSPCB",11-07-2024 02:00:00,13.428828,77.731418,SO2,8,21,16
India,Karnataka,Chikkamagaluru,"Kalyana Nagara, Chikkamagaluru - KSPCB",11-07-2024 02:00:00,13.328028,75.797056,PM10,22,110,40
India,Karnataka,Chikkamagaluru,"Kalyana Nagara, Chikkamagaluru - KSPCB",11-07-2024 02:00:00,13.328028,75.797056,SO2,2,6,4
India,Karnataka,Dharwad,"Kalabhavan, Dharwad - KSPCB",11-07-2024 02:00:00,15.459706,75.008381,NO2,16,22,18
India,Karnataka,Dharwad,"Kalabhavan, Dharwad - KSPCB",11-07-2024 02:00:00,15.459706,75.008381,NH3,2,4,2
India,Karnataka,Dharwad,"Kalabhavan, Dharwad - KSPCB",11-07-2024 02:00:00,15.459706,75.008381,SO2,1,4,3
India,Karnataka,Dharwad,"Kalabhavan, Dharwad - KSPCB",11-07-2024 02:00:00,15.459706,75.008381,CO,14,66,40
India,Karnataka,Gadag,"Panchal Nagar, Gadag - KSPCB",11-07-2024 02:00:00,15.411456,75.638133,PM2.5,5,18,11
India,Karnataka,Gadag,"Panchal Nagar, Gadag - KSPCB",11-07-2024 02:00:00,15.411456,75.638133,SO2,13,20,15
India,Karnataka,Hassan,"B.Katihalli, Hassan - KSPCB",11-07-2024 02:00:00,13.008556,76.125258,PM2.5,13,45,31
India,Karnataka,Hassan,"B.Katihalli, Hassan - KSPCB",11-07-2024 02:00:00,13.008556,76.125258,OZONE,1,2,2
India,Karnataka,Haveri,"Ashwini Nagar, Haveri - KSPCB",11-07-2024 02:00:00,14.791800,75.389600,NO2,NA,NA,NA
India,Karnataka,Haveri,"Ashwini Nagar, Haveri - KSPCB",11-07-2024 02:00:00,14.791800,75.389600,NH3,NA,NA,NA
India,Karnataka,Haveri,"Ashwini Nagar, Haveri - KSPCB",11-07-2024 02:00:00,14.791800,75.389600,SO2,11,12,12
India,Karnataka,Hubballi,"Lingaraj Nagar, Hubballi - KSPCB",11-07-2024 02:00:00,15.3714823,75.1160168,SO2,1,17,2
India,Karnataka,Kalaburagi,"Lal Bahadur Shastri Nagar, Kalaburagi - KSPCB",11-07-2024 02:00:00,17.321993,76.822628,PM10,22,79,40
India,Karnataka,Kalaburagi,"Mahatma Basaveswar Colony, Kalaburgi - KSPCB",11-07-2024 02:00:00,17.336318,76.847397,OZONE,1,12,6
India,Karnataka,Karwar,"KHB Colony, Karwar - KSPCB",11-07-2024 02:00:00,14.816666,74.141003,PM2.5,3,23,13
