country,state,city,station,last_update,latitude,longitude,pollutant_id,pollutant_min,pollutant_max,pollutant_avg
India,Andhra_Pradesh,Amaravati,"Secretariat, Amaravati - APPCB",24-03-2024 10:00:00,16.5150833,80.5181667,NH3,4,5,4
India,Andhra_Pradesh,Amaravati,"Secretariat, Amaravati - APPCB",24-03-2024 10:00:00,16.5150833,80.5181667,SO2,9,24,18
India,Andhra_Pradesh,Anantapur,"Gulzarpet, Anantapur - APPCB",24-03-2024 10:00:00,14.675886,77.593027,PM2.5,19,36,29
India,Andhra_Pradesh,Anantapur,"Gulzarpet, Anantapur - APPCB",24-03-2024 10:00:00,14.675886,77.593027,PM10,55,90,72
India,Andhra_Pradesh,Chittoor,"Gangineni Cheruvu, Chittoor - APPCB",24-03-2024 10:00:00,13.204880,79.097889,NO2,3,14,6
India,Andhra_Pradesh,Kadapa,"Yerramukkapalli, Kadapa - APPCB",24-03-2024 10:00:00,14.465052,78.824187,CO,12,28,16
India,Andhra_Pradesh,Rajamahendravaram,"Anand Kala Kshetram, Rajamahendravaram - APPCB",24-03-2024 10:00:00,16.9872867,81.7363176,PM2.5,27,68,42
India,Andhra_Pradesh,Rajamahendravaram,"Anand Kala Kshetram, Rajamahendravaram - APPCB",24-03-2024 10:00:00,16.9872867,81.7363176,CO,8,61,22
India,Andhra_Pradesh,Tirupati,"Tirumala, Tirupati - APPCB",24-03-2024 10:00:00,13.67,79.35,NH3,1,1,1
India,Andhra_Pradesh,Tirupati,"Vaikuntapuram, Tirupati - APPCB",24-03-2024 10:00:00,13.615387,79.409230,PM2.5,19,88,55
India,Andhra_Pradesh,Tirupati,"Vaikuntapuram, Tirupati - APPCB",24-03-2024 10:00:00,13.615387,79.409230,PM10,20,90,56
India,Andhra_Pradesh,Tirupati,"Vaikuntapuram, Tirupati - APPCB",24-03-2024 10:00:00,13.615387,79.409230,CO,9,16,13
India,Andhra_Pradesh,Vijayawada,"HB Colony, Vijayawada - APPCB",24-03-2024 10:00:00,16.536107,80.594233,SO2,3,5,4
India,Andhra_Pradesh,Vijayawada,"Rajiv Nagar, Vijayawada - APPCB",24-03-2024 10:00:00,16.554731,80.649110,NH3,1,1,1
India,Andhra_Pradesh,Vijayawada,"Rajiv Nagar, Vijayawada - APPCB",24-03-2024 10:00:00,16.554731,80.649110,SO2,14,22,17
India,Andhra_Pradesh,Vijayawada,"Rajiv Nagar, Vijayawada - APPCB",24-03-2024 10:00:00,16.554731,80.649110,CO,37,37,37
India,Andhra_Pradesh,Visakhapatnam,"GVM Corporation, Visakhapatnam - APPCB",24-03-2024 10:00:00,17.72,83.3,PM2.5,35,81,54
India,Andhra_Pradesh,Visakhapatnam,"GVM Corporation, Visakhapatnam - APPCB",24-03-2024 10:00:00,17.72,83.3,NH3,3,5,4
India,Arunachal_Pradesh,Naharlagun,"Naharlagun, Naharlagun - APSPCB",24-03-2024 10:00:00,27.103358,93.679645,CO,10,17,13
India,Assam,Byrnihat,"Central Academy for SFS, Byrnihat - PCBA",24-03-2024 10:00:00,26.071318,91.87488,NH3,NA,NA,NA
India,Assam,Byrnihat,"Central Academy for SFS, Byrnihat - PCBA",24-03-2024 10:00:00,26.071318,91.87488,SO2,NA,NA,NA
India,Assam,Guwahati,"IITG, Guwahati - PCBA",24-03-2024 10:00:00,26.2028636,91.70046436,PM2.5,21,190,92
India,Assam,Guwahati,"IITG, Guwahati - PCBA",24-03-2024 10:00:00,26.2028636,91.70046436,PM10,40,133,81
India,Assam,Guwahati,"IITG, Guwahati - PCBA",24-03-2024 10:00:00,26.2028636,91.70046436,NO2,1,5,2
India,Assam,Guwahati,"LGBI Airport, Guwahati - PCBA",24-03-2024 10:00:00,26.10887,91.589544,NH3,1,16,2
India,Assam,Guwahati,"Railway Colony, Guwahati - PCBA",24-03-2024 10:00:00,26.181742,91.78063,PM2.5,NA,NA,NA
India,Assam,Guwahati,"Railway Colony, Guwahati - PCBA",24-03-2024 10:00:00,26.181742,91.78063,OZONE,1,53,26
India,Assam,Nagaon,"Christianpatty, Nagaon - PCBA",24-03-2024 10:00:00,26.349082,92.68449,NO2,11,32,18
India,Assam,Nalbari,"Bata Chowk, Nalbari - PCBA",24-03-2024 10:00:00,26.446912,91.439057,NH3,1,2,1
India,Assam,Silchar,"Tarapur, Silchar - PCBA",24-03-2024 10:00:00,24.82827,92.79525,PM2.5,21,48,30
India,Assam,Silchar,"Tarapur, Silchar - PCBA",24-03-2024 10:00:00,24.82827,92.79525,PM10,33,98,53
India,Assam,Silchar,"Tarapur, Silchar - PCBA",24-03-2024 10:00:00,24.82827,92.79525,NH3,1,1,1
India,Assam,Silchar,"Tarapur, Silchar - PCBA",24-03-2024 10:00:00,24.82827,92.79525,SO2,1,10,4
India,Assam,Sivasagar,"Girls College, Sivasagar - PCBA",24-03-2024 10:00:00,26.987634,94.636574,PM10,47,75,57
India,Bihar,Araria,"Kharahiya Basti, Araria - BSPCB",24-03-2024 10:00:00,26.146529,87.454184,PM2.5,NA,NA,NA
India,Bihar,Araria,"Kharahiya Basti, Araria - BSPCB",24-03-2024 10:00:00,26.146529,87.454184,NO2,NA,NA,NA
India,Bihar,Araria,"Kharahiya Basti, Araria - BSPCB",24-03-2024 10:00:00,26.146529,87.454184,CO,20,29,20
India,Bihar,Aurangabad,"Gurdeo Nagar, Aurangabad - BSPCB",24-03-2024 10:00:00,24.75746,84.366208,SO2,NA,NA,NA
India,Bihar,Aurangabad,"Gurdeo Nagar, Aurangabad - BSPCB",24-03-2024 10:00:00,24.75746,84.366208,CO,24,72,55
India,Bihar,Bettiah,"Kamalnath Nagar, Bettiah - BSPCB",24-03-2024 10:00:00,26.80365,84.51954,NH3,3,5,3
India,Bihar,Bettiah,"Kamalnath Nagar, Bettiah - BSPCB",24-03-2024 10:00:00,26.80365,84.51954,SO2,10,21,14
India,Bihar,Bettiah,"Kamalnath Nagar, Bettiah - BSPCB",24-03-2024 10:00:00,26.80365,84.51954,CO,62,74,65
India,Bihar,Bhagalpur,"DM Office_Kachari Chowk, Bhagalpur - BSPCB",24-03-2024 10:00:00,25.251013,86.989001,NH3,9,15,11
India,Bihar,Bhagalpur,"DM Office_Kachari Chowk, Bhagalpur - BSPCB",24-03-2024 10:00:00,25.251013,86.989001,OZONE,40,63,46
India,Bihar,Bhagalpur,"Mayaganj, Bhagalpur - BSPCB",24-03-2024 10:00:00,25.265194,87.012947,NH3,5,8,7
India,Bihar,Bhagalpur,"Mayaganj, Bhagalpur - BSPCB",24-03-2024 10:00:00,25.265194,87.012947,SO2,11,12,12
India,Bihar,Buxar,"Charitra Van, Buxar - BSPCB (Formerly known as Central Jail)",24-03-2024 10:00:00,25.567520,83.966379,PM2.5,NA,NA,NA
India,Bihar,Buxar,"Charitra Van, Buxar - BSPCB (Formerly known as Central Jail)",24-03-2024 10:00:00,25.567520,83.966379,NH3,NA,NA,NA
India,Bihar,Buxar,"Charitra Van, Buxar - BSPCB (Formerly known as Central Jail)",24-03-2024 10:00:00,25.567520,83.966379,CO,48,116,69
India,Bihar,Gaya,"Collectorate, Gaya - BSPCB",24-03-2024 10:00:00,24.7955,84.9994,NO2,1,3,2
India,Bihar,Gaya,"Kareemganj, Gaya - BSPCB",24-03-2024 10:00:00,24.792403,84.992416,NH3,1,5,3
India,Bihar,Gaya,"SFTI Kusdihra, Gaya - BSPCB",24-03-2024 10:00:00,24.762518,84.982348,PM10,59,89,74
India,Bihar,Gaya,"SFTI Kusdihra, Gaya - BSPCB",24-03-2024 10:00:00,24.762518,84.982348,CO,20,46,37
India,Bihar,Hajipur,"Industrial Area, Hajipur - BSPCB",24-03-2024 10:00:00,25.697189,85.245900,PM2.5,41,95,69
India,Bihar,Katihar,"Mirchaibari, Katihar - BSPCB",24-03-2024 10:00:00,25.560083,87.553265,NH3,5,7,7
India,Bihar,Kishanganj,"SDM Office_Khagra, Kishanganj - BSPCB",24-03-2024 10:00:00,26.0881305,87.93840336,PM10,NA,NA,NA
India,Bihar,Kishanganj,"SDM Office_Khagra, Kishanganj - BSPCB",24-03-2024 10:00:00,26.0881305,87.93840336,SO2,36,46,40
India,Bihar,Munger,"Town Hall, Munger - BSPCB",24-03-2024 10:00:00,25.376776,86.471523,PM2.5,68,183,105
India,Bihar,Munger,"Town Hall, Munger - BSPCB",24-03-2024 10:00:00,25.376776,86.471523,NO2,8,10,9
India,Bihar,Munger,"Town Hall, Munger - BSPCB",24-03-2024 10:00:00,25.376776,86.471523,OZONE,28,31,29
India,Bihar,Muzaffarpur,"Buddha Colony, Muzaffarpur - BSPCB",24-03-2024 10:00:00,26.11442,85.39813,PM2.5,87,216,128
India,Bihar,Muzaffarpur,"MIT-Daudpur Kothi, Muzaffarpur - BSPCB",24-03-2024 10:00:00,26.1403345,85.3650192,PM2.5,60,213,127
India,Bihar,Muzaffarpur,"MIT-Daudpur Kothi, Muzaffarpur - BSPCB",24-03-2024 10:00:00,26.1403345,85.3650192,PM10,60,190,136
India,Bihar,Muzaffarpur,"MIT-Daudpur Kothi, Muzaffarpur - BSPCB",24-03-2024 10:00:00,26.1403345,85.3650192,OZONE,7,40,9
India,Bihar,Muzaffarpur,"Muzaffarpur Collectorate, Muzaffarpur - BSPCB",24-03-2024 10:00:00,26.1209,85.3647,CO,42,90,50
India,Bihar,Patna,"Govt. High School Shikarpur, Patna - BSPCB",24-03-2024 10:00:00,25.592539,85.227158,NO2,20,23,21
India,Bihar,Patna,"Govt. High School Shikarpur, Patna - BSPCB",24-03-2024 10:00:00,25.592539,85.227158,CO,28,76,50
India,Bihar,Patna,"IGSC Planetarium Complex, Patna - BSPCB",24-03-2024 10:00:00,25.610369,85.132568,NO2,14,14,14
India,Bihar,Patna,"IGSC Planetarium Complex, Patna - BSPCB",24-03-2024 10:00:00,25.610369,85.132568,SO2,5,5,5
India,Bihar,Patna,"IGSC Planetarium Complex, Patna - BSPCB",24-03-2024 10:00:00,25.610369,85.132568,CO,12,13,12
India,Bihar,Patna,"IGSC Planetarium Complex, Patna - BSPCB",24-03-2024 10:00:00,25.610369,85.132568,OZONE,21,95,68
India,Bihar,Patna,"Muradpur, Patna - BSPCB",24-03-2024 10:00:00,25.619651,85.147382,NO2,9,18,14
India,Bihar,Patna,"Muradpur, Patna - BSPCB",24-03-2024 10:00:00,25.619651,85.147382,NH3,2,4,3
India,Bihar,Patna,"Muradpur, Patna - BSPCB",24-03-2024 10:00:00,25.619651,85.147382,SO2,8,10,9
India,Bihar,Patna,"Muradpur, Patna - BSPCB",24-03-2024 10:00:00,25.619651,85.147382,CO,2,102,37
India,Bihar,Patna,"Muradpur, Patna - BSPCB",24-03-2024 10:00:00,25.619651,85.147382,OZONE,1,32,3
India,Bihar,Patna,"Rajbansi Nagar, Patna - BSPCB",24-03-2024 10:00:00,25.599486,85.113666,CO,15,108,27
India,Bihar,Purnia,"Mariam Nagar, Purnia - BSPCB",24-03-2024 10:00:00,25.366336,87.117468,PM10,62,145,100
India,Bihar,Purnia,"Mariam Nagar, Purnia - BSPCB",24-03-2024 10:00:00,25.366336,87.117468,NO2,5,6,6
India,Bihar,Rajgir,"Dangi Tola, Rajgir - BSPCB",24-03-2024 10:00:00,25.03280,85.41948,NH3,1,2,1
India,Bihar,Saharsa,"Police Line, Saharsa - BSPCB",24-03-2024 10:00:00,25.892357,86.590325,SO2,16,16,16
India,Bihar,Saharsa,"Police Line, Saharsa - BSPCB",24-03-2024 10:00:00,25.892357,86.590325,CO,22,43,30
India,Bihar,Samastipur,"DM Office_Kasipur, Samastipur - BSPCB",24-03-2024 10:00:00,25.859655,85.77944,PM2.5,NA,NA,NA
India,Bihar,Samastipur,"DM Office_Kasipur, Samastipur - BSPCB",24-03-2024 10:00:00,25.859655,85.77944,PM10,NA,NA,NA
India,Bihar,Sasaram,"Dada Peer, Sasaram - BSPCB",24-03-2024 10:00:00,24.952822,84.002396,SO2,21,24,22
India,Bihar,Sasaram,"Dada Peer, Sasaram - BSPCB",24-03-2024 10:00:00,24.952822,84.002396,OZONE,7,108,25
India,Bihar,Siwan,"Chitragupta Nagar, Siwan - BSPCB",24-03-2024 10:00:00,26.2271665,84.3570427,PM10,96,443,149
India,Chandigarh,Chandigarh,"Sector 22, Chandigarh - CPCC",24-03-2024 10:00:00,30.735567,76.775714,NH3,6,10,8
India,Chandigarh,Chandigarh,"Sector-25, Chandigarh - CPCC",24-03-2024 10:00:00,30.751462,76.762879,PM10,107,131,120
India,Chandigarh,Chandigarh,"Sector-25, Chandigarh - CPCC",24-03-2024 10:00:00,30.751462,76.762879,OZONE,4,37,11
India,Chandigarh,Chandigarh,"Sector-53, Chandigarh - CPCC",24-03-2024 10:00:00,30.719859,76.738637,SO2,6,13,10
India,Chhattisgarh,Bhilai,"Civic Center, Bhilai - Bhilai Steel Plant",24-03-2024 10:00:00,21.185571,81.343175,NH3,5,5,5
India,Chhattisgarh,Bhilai,"Civic Center, Bhilai - Bhilai Steel Plant",24-03-2024 10:00:00,21.185571,81.343175,SO2,7,13,10
India,Chhattisgarh,Bhilai,"Civic Center, Bhilai - Bhilai Steel Plant",24-03-2024 10:00:00,21.185571,81.343175,CO,27,68,37
India,Chhattisgarh,Bhilai,"Hathkhoj, Bhilai - CECB",24-03-2024 10:00:00,21.224231,81.408350,SO2,12,24,16
India,Chhattisgarh,Bhilai,"Hathkhoj, Bhilai - CECB",24-03-2024 10:00:00,21.224231,81.408350,CO,14,102,49
India,Chhattisgarh,Bhilai,"Hathkhoj, Bhilai - CECB",24-03-2024 10:00:00,21.224231,81.408350,OZONE,3,19,8
India,Chhattisgarh,Bilaspur,"Mangala, Bilaspur - NTPC",24-03-2024 10:00:00,22.08815,82.13737,PM2.5,42,129,74
India,Chhattisgarh,Chhal,"Nawapara SECL Colony, Chhal - CECB",24-03-2024 10:00:00,22.118125,83.140608,NO2,16,64,29
India,Chhattisgarh,Chhal,"Nawapara SECL Colony, Chhal - CECB",24-03-2024 10:00:00,22.118125,83.140608,SO2,16,56,32
India,Chhattisgarh,Korba,"Rampur, Korba - CECB",24-03-2024 10:00:00,22.368195,82.746431,NO2,17,59,33
India,Chhattisgarh,Korba,"Urja Nagar, Korba - CECB",24-03-2024 10:00:00,22.348441,82.549611,PM10,14,276,93
India,Chhattisgarh,Korba,"Urja Nagar, Korba - CECB",24-03-2024 10:00:00,22.348441,82.549611,NO2,28,82,60
India,Chhattisgarh,Korba,"Urja Nagar, Korba - CECB",24-03-2024 10:00:00,22.348441,82.549611,OZONE,NA,NA,NA
India,Chhattisgarh,Kunjemura,"OP Jindal School, Kunjemura - CECB",24-03-2024 10:00:00,22.126650,83.483212,PM10,75,282,142
India,Chhattisgarh,Milupara,"Govt. Higher Secondary School, Milupara - CECB",24-03-2024 10:00:00,22.1910172,83.5197009,OZONE,1,38,1
India,Chhattisgarh,Raipur,"AIIMS, Raipur - CECB",24-03-2024 10:00:00,21.258815,81.578979,SO2,4,13,7
India,Chhattisgarh,Raipur,"AIIMS, Raipur - CECB",24-03-2024 10:00:00,21.258815,81.578979,CO,26,51,37
India,Chhattisgarh,Raipur,"AIIMS, Raipur - CECB",24-03-2024 10:00:00,21.258815,81.578979,OZONE,1,26,1
India,Chhattisgarh,Raipur,"Bhatagaon New ISBT, Raipur - CECB",24-03-2024 10:00:00,21.219665,81.630094,PM2.5,24,102,56
India,Chhattisgarh,Raipur,"Bhatagaon New ISBT, Raipur - CECB",24-03-2024 10:00:00,21.219665,81.630094,NH3,2,3,3
India,Chhattisgarh,Raipur,"Bhatagaon New ISBT, Raipur - CECB",24-03-2024 10:00:00,21.219665,81.630094,SO2,2,4,3
India,Chhattisgarh,Raipur,"Krishak Nagar, Raipur - CECB",24-03-2024 10:00:00,21.237755,81.705301,NO2,22,33,27
India,Chhattisgarh,Raipur,"Krishak Nagar, Raipur - CECB",24-03-2024 10:00:00,21.237755,81.705301,OZONE,3,10,3
India,Chhattisgarh,Raipur,"Siltara Phase-II, Raipur - CECB",24-03-2024 10:00:00,21.371751,81.664929,PM10,52,178,110
India,Chhattisgarh,Tumidih,"OP Jindal Industrial Park, Tumidih - CECB",24-03-2024 10:00:00,22.06631475,83.33820077,NO2,8,71,24
India,Delhi,Delhi,"Alipur, Delhi - DPCC",24-03-2024 10:00:00,28.815329,77.153010,PM2.5,41,370,178
India,Delhi,Delhi,"Alipur, Delhi - DPCC",24-03-2024 10:00:00,28.815329,77.153010,OZONE,4,90,8
India,Delhi,Delhi,"Anand Vihar, Delhi - DPCC",24-03-2024 10:00:00,28.647622,77.3158090,PM2.5,8,359,164
India,Delhi,Delhi,"Anand Vihar, Delhi - DPCC",24-03-2024 10:00:00,28.647622,77.3158090,SO2,NA,NA,NA
India,Delhi,Delhi,"Ashok Vihar, Delhi - DPCC",24-03-2024 10:00:00,28.695381,77.181665,SO2,20,57,31
India,Delhi,Delhi,"Ashok Vihar, Delhi - DPCC",24-03-2024 10:00:00,28.695381,77.181665,OZONE,2,7,2
India,Delhi,Delhi,"Aya Nagar, Delhi - IMD",24-03-2024 10:00:00,28.4706914,77.1099364,PM2.5,86,302,174
India,Delhi,Delhi,"Aya Nagar, Delhi - IMD",24-03-2024 10:00:00,28.4706914,77.1099364,OZONE,2,24,4
India,Delhi,Delhi,"Chandni Chowk, Delhi - IITM",24-03-2024 10:00:00,28.656756,77.227234,PM2.5,127,344,242
India,Delhi,Delhi,"Chandni Chowk, Delhi - IITM",24-03-2024 10:00:00,28.656756,77.227234,SO2,12,62,34
India,Delhi,Delhi,"Chandni Chowk, Delhi - IITM",24-03-2024 10:00:00,28.656756,77.227234,CO,72,114,95
India,Delhi,Delhi,"DTU, Delhi - CPCB",24-03-2024 10:00:00,28.7500499,77.1112615,CO,18,58,42
India,Delhi,Delhi,"Dr. Karni Singh Shooting Range, Delhi - DPCC",24-03-2024 10:00:00,28.498571,77.264840,SO2,14,34,19
India,Delhi,Delhi,"Dr. Karni Singh Shooting Range, Delhi - DPCC",24-03-2024 10:00:00,28.498571,77.264840,CO,20,116,56
India,Delhi,Delhi,"Dwarka-Sector 8, Delhi - DPCC ",24-03-2024 10:00:00,28.5710274,77.0719006,PM2.5,50,387,193
India,Delhi,Delhi,"Dwarka-Sector 8, Delhi - DPCC ",24-03-2024 10:00:00,28.5710274,77.0719006,CO,38,112,81
India,Delhi,Delhi,"IGI Airport (T3), Delhi - IMD",24-03-2024 10:00:00,28.5627763,77.1180053,OZONE,1,33,2
India,Delhi,Delhi,"IHBAS, Dilshad Garden, Delhi - CPCB",24-03-2024 10:00:00,28.6811736,77.3025234,PM10,100,142,122
India,Delhi,Delhi,"IHBAS, Dilshad Garden, Delhi - CPCB",24-03-2024 10:00:00,28.6811736,77.3025234,SO2,4,38,17
India,Delhi,Delhi,"IHBAS, Dilshad Garden, Delhi - CPCB",24-03-2024 10:00:00,28.6811736,77.3025234,CO,26,82,52
India,Delhi,Delhi,"ITO, Delhi - CPCB",24-03-2024 10:00:00,28.628624,77.241060,PM2.5,13,340,207
India,Delhi,Delhi,"ITO, Delhi - CPCB",24-03-2024 10:00:00,28.628624,77.241060,SO2,8,29,16
India,Delhi,Delhi,"Jahangirpuri, Delhi - DPCC",24-03-2024 10:00:00,28.732820,77.170633,SO2,4,59,25
India,Delhi,Delhi,"Jawaharlal Nehru Stadium, Delhi - DPCC",24-03-2024 10:00:00,28.580280,77.233829,NH3,6,10,8
India,Delhi,Delhi,"Jawaharlal Nehru Stadium, Delhi - DPCC",24-03-2024 10:00:00,28.580280,77.233829,CO,5,106,75
India,Delhi,Delhi,"Major Dhyan Chand National Stadium, Delhi - DPCC",24-03-2024 10:00:00,28.611281,77.237738,NO2,21,162,85
India,Delhi,Delhi,"Major Dhyan Chand National Stadium, Delhi - DPCC",24-03-2024 10:00:00,28.611281,77.237738,NH3,5,10,7
India,Delhi,Delhi,"Mundka, Delhi - DPCC",24-03-2024 10:00:00,28.684678,77.076574,PM2.5,57,465,258
India,Delhi,Delhi,"NSIT Dwarka, Delhi - CPCB",24-03-2024 10:00:00,28.60909,77.0325413,PM10,123,295,188
India,Delhi,Delhi,"Najafgarh, Delhi - DPCC",24-03-2024 10:00:00,28.570173,76.933762,OZONE,9,129,19
India,Delhi,Delhi,"Narela, Delhi - DPCC",24-03-2024 10:00:00,28.822836,77.101981,PM2.5,42,446,204
India,Delhi,Delhi,"Narela, Delhi - DPCC",24-03-2024 10:00:00,28.822836,77.101981,PM10,88,420,191
India,Delhi,Delhi,"Narela, Delhi - DPCC",24-03-2024 10:00:00,28.822836,77.101981,SO2,9,106,33
India,Delhi,Delhi,"Nehru Nagar, Delhi - DPCC",24-03-2024 10:00:00,28.567890,77.250515,NH3,5,11,8
India,Delhi,Delhi,"Okhla Phase-2, Delhi - DPCC",24-03-2024 10:00:00,28.530785,77.271255,PM2.5,30,267,119
India,Delhi,Delhi,"Okhla Phase-2, Delhi - DPCC",24-03-2024 10:00:00,28.530785,77.271255,NO2,52,197,120
India,Delhi,Delhi,"Okhla Phase-2, Delhi - DPCC",24-03-2024 10:00:00,28.530785,77.271255,OZONE,3,83,13
India,Delhi,Delhi,"Patparganj, Delhi - DPCC",24-03-2024 10:00:00,28.623763,77.287209,SO2,17,22,19
India,Delhi,Delhi,"Patparganj, Delhi - DPCC",24-03-2024 10:00:00,28.623763,77.287209,OZONE,3,74,8
India,Delhi,Delhi,"Punjabi Bagh, Delhi - DPCC",24-03-2024 10:00:00,28.674045,77.131023,SO2,17,33,24
India,Delhi,Delhi,"Punjabi Bagh, Delhi - DPCC",24-03-2024 10:00:00,28.674045,77.131023,CO,22,88,51
India,Delhi,Delhi,"Pusa, Delhi - DPCC",24-03-2024 10:00:00,28.639652,77.146275,SO2,4,84,21
India,Delhi,Delhi,"Pusa, Delhi - IMD",24-03-2024 10:00:00,28.636110,77.173332,CO,63,90,86
India,Delhi,Delhi,"R K Puram, Delhi - DPCC",24-03-2024 10:00:00,28.563262,77.186937,CO,19,120,69
India,Delhi,Delhi,"Rohini, Delhi - DPCC",24-03-2024 10:00:00,28.732528,77.119920,SO2,6,84,20
India,Delhi,Delhi,"Rohini, Delhi - DPCC",24-03-2024 10:00:00,28.732528,77.119920,OZONE,3,71,4
India,Delhi,Delhi,"Sonia Vihar, Delhi - DPCC",24-03-2024 10:00:00,28.710508,77.249485,NO2,17,87,47
India,Delhi,Delhi,"Sonia Vihar, Delhi - DPCC",24-03-2024 10:00:00,28.710508,77.249485,SO2,10,38,17
India,Delhi,Delhi,"Sri Aurobindo Marg, Delhi - DPCC",24-03-2024 10:00:00,28.531346,77.190156,NO2,14,74,42
India,Delhi,Delhi,"Vivek Vihar, Delhi - DPCC",24-03-2024 10:00:00,28.672342,77.315260,OZONE,2,59,8
India,Delhi,Delhi,"Wazirpur, Delhi - DPCC",24-03-2024 10:00:00,28.699793,77.165453,PM2.5,42,381,204
India,Delhi,Delhi,"Wazirpur, Delhi - DPCC",24-03-2024 10:00:00,28.699793,77.165453,PM10,112,298,207
India,Gujarat,Ahmedabad,"Chandkheda, Ahmedabad - IITM",24-03-2024 10:00:00,23.107969,72.574648,PM10,62,152,91
India,Gujarat,Ahmedabad,"Chandkheda, Ahmedabad - IITM",24-03-2024 10:00:00,23.107969,72.574648,CO,23,106,97
India,Gujarat,Ahmedabad,"Gyaspur, Ahmedabad - IITM",24-03-2024 10:00:00,22.977134,72.553024,PM2.5,66,362,132
India,Gujarat,Ahmedabad,"Maninagar, Ahmedabad - GPCB",24-03-2024 10:00:00,23.002657,72.591912,CO,NA,NA,NA
India,Gujarat,Ahmedabad,"Raikhad, Ahmedabad - IITM",24-03-2024 10:00:00,23.020509,72.579261,PM2.5,80,224,143
India,Gujarat,Ahmedabad,"Raikhad, Ahmedabad - IITM",24-03-2024 10:00:00,23.020509,72.579261,PM10,80,139,112
India,Gujarat,Ahmedabad,"Rakhial, Ahmedabad - IITM",24-03-2024 10:00:00,23.016834,72.625775,NH3,8,28,23
India,Gujarat,Ahmedabad,"Rakhial, Ahmedabad - IITM",24-03-2024 10:00:00,23.016834,72.625775,OZONE,3,42,5
India,Gujarat,Ahmedabad,"SAC ISRO Satellite, Ahmedabad - IITM",24-03-2024 10:00:00,23.023389,72.515201,PM2.5,139,142,141
India,Gujarat,Ahmedabad,"SAC ISRO Satellite, Ahmedabad - IITM",24-03-2024 10:00:00,23.023389,72.515201,NH3,3,4,3
India,Gujarat,Ahmedabad,"SAC ISRO Satellite, Ahmedabad - IITM",24-03-2024 10:00:00,23.023389,72.515201,CO,26,28,28
India,Gujarat,Ahmedabad,"SVPI Airport Hansol, Ahmedabad - IITM",24-03-2024 10:00:00,23.076793,72.627874,PM10,62,103,86
India,Gujarat,Ahmedabad,"SVPI Airport Hansol, Ahmedabad - IITM",24-03-2024 10:00:00,23.076793,72.627874,NO2,15,19,17
India,Gujarat,Ahmedabad,"SVPI Airport Hansol, Ahmedabad - IITM",24-03-2024 10:00:00,23.076793,72.627874,SO2,11,11,11
India,Gujarat,Ahmedabad,"SVPI Airport Hansol, Ahmedabad - IITM",24-03-2024 10:00:00,23.076793,72.627874,OZONE,8,32,12
India,Gujarat,Ahmedabad,"Sardar Vallabhbhai Patel Stadium, Ahmedabad - IITM",24-03-2024 10:00:00,23.043070,72.562968,PM2.5,63,101,82
India,Gujarat,Gandhinagar,"IIPHG Lekawada, Gandhinagar - IITM",24-03-2024 10:00:00,23.243639,72.68994,NO2,37,45,40
India,Gujarat,Gandhinagar,"Sector-10, Gandhinagar - GPCB",24-03-2024 10:00:00,23.221714,72.654328,CO,30,68,36
India,Gujarat,Nandesari,"GIDC, Nandesari - Nandesari Ind. Association",24-03-2024 10:00:00,22.410802,73.097923,PM10,135,437,243
India,Gujarat,Nandesari,"GIDC, Nandesari - Nandesari Ind. Association",24-03-2024 10:00:00,22.410802,73.097923,SO2,4,15,10
India,Gujarat,Surat,"Science Center, Surat - SMC",24-03-2024 10:00:00,21.170046,72.795405,PM2.5,7,53,28
India,Gujarat,Vapi,"Phase-1 GIDC, Vapi - GPCB",24-03-2024 10:00:00,20.362421,72.918013,PM2.5,41,116,65
India,Gujarat,Vapi,"Phase-1 GIDC, Vapi - GPCB",24-03-2024 10:00:00,20.362421,72.918013,NO2,6,7,6
India,Gujarat,Vatva,"Phase-4 GIDC, Vatva - GPCB",24-03-2024 10:00:00,22.969611,72.643500,NH3,4,13,9
India,Haryana,Ambala,"Patti Mehar, Ambala - HSPCB",24-03-2024 10:00:00,30.379589,76.778328,PM2.5,30,76,45
India,Haryana,Ambala,"Patti Mehar, Ambala - HSPCB",24-03-2024 10:00:00,30.379589,76.778328,SO2,13,44,31
India,Haryana,Ambala,"Patti Mehar, Ambala - HSPCB",24-03-2024 10:00:00,30.379589,76.778328,OZONE,7,33,25
India,Haryana,Bahadurgarh,"Arya Nagar, Bahadurgarh - HSPCB",24-03-2024 10:00:00,28.6701,76.9254,PM2.5,NA,NA,NA
India,Haryana,Bahadurgarh,"Arya Nagar, Bahadurgarh - HSPCB",24-03-2024 10:00:00,28.6701,76.9254,PM10,NA,NA,NA
India,Haryana,Bahadurgarh,"Arya Nagar, Bahadurgarh - HSPCB",24-03-2024 10:00:00,28.6701,76.9254,OZONE,NA,NA,NA
India,Haryana,Ballabgarh,"Nathu Colony, Ballabgarh - HSPCB",24-03-2024 10:00:00,28.3419248,77.319699,NH3,1,2,1
India,Haryana,Ballabgarh,"Nathu Colony, Ballabgarh - HSPCB",24-03-2024 10:00:00,28.3419248,77.319699,CO,42,112,88
India,Haryana,Bhiwani,"H.B. Colony, Bhiwani - HSPCB",24-03-2024 10:00:00,28.806223,76.141105,NH3,6,6,6
India,Haryana,Charkhi Dadri,"Mini Secretariat, Charkhi Dadri - HSPCB",24-03-2024 10:00:00,28.593883,76.270653,PM10,8,173,101
India,Haryana,Dharuhera,"Municipal Corporation Office, Dharuhera -  HSPCB",24-03-2024 10:00:00,28.206800,76.799700,NO2,44,108,65
India,Haryana,Dharuhera,"Municipal Corporation Office, Dharuhera -  HSPCB",24-03-2024 10:00:00,28.206800,76.799700,NH3,9,27,20
India,Haryana,Dharuhera,"Municipal Corporation Office, Dharuhera -  HSPCB",24-03-2024 10:00:00,28.206800,76.799700,SO2,2,5,3
India,Haryana,Faridabad,"New Industrial Town, Faridabad - HSPCB",24-03-2024 10:00:00,28.39072,77.30059,PM2.5,NA,NA,NA
India,Haryana,Faridabad,"Sector 11, Faridabad - HSPCB",24-03-2024 10:00:00,28.376058,77.315741,NH3,6,6,6
India,Haryana,Faridabad,"Sector 30, Faridabad - HSPCB",24-03-2024 10:00:00,28.4417,77.3217,NO2,30,33,31
India,Haryana,Faridabad,"Sector 30, Faridabad - HSPCB",24-03-2024 10:00:00,28.4417,77.3217,SO2,3,73,9
India,Haryana,Faridabad,"Sector- 16A, Faridabad - HSPCB",24-03-2024 10:00:00,28.4088421,77.3099081,PM2.5,42,261,144
India,Haryana,Faridabad,"Sector- 16A, Faridabad - HSPCB",24-03-2024 10:00:00,28.4088421,77.3099081,NO2,2,21,10
India,Haryana,Faridabad,"Sector- 16A, Faridabad - HSPCB",24-03-2024 10:00:00,28.4088421,77.3099081,SO2,4,27,20
India,Haryana,Gurugram,"Teri Gram, Gurugram - HSPCB",24-03-2024 10:00:00,28.4275,77.1465,PM2.5,85,359,225
India,Haryana,Gurugram,"Teri Gram, Gurugram - HSPCB",24-03-2024 10:00:00,28.4275,77.1465,PM10,167,426,283
India,Haryana,Gurugram,"Teri Gram, Gurugram - HSPCB",24-03-2024 10:00:00,28.4275,77.1465,CO,16,44,38
India,Haryana,Hisar,"Urban Estate-II, Hisar - HSPCB",24-03-2024 10:00:00,29.140560,75.744941,PM2.5,49,196,98
India,Haryana,Hisar,"Urban Estate-II, Hisar - HSPCB",24-03-2024 10:00:00,29.140560,75.744941,CO,40,66,54
India,Haryana,Jind,"Police Lines, Jind - HSPCB",24-03-2024 10:00:00,29.307814,76.337619,NO2,5,16,11
India,Haryana,Jind,"Police Lines, Jind - HSPCB",24-03-2024 10:00:00,29.307814,76.337619,CO,2,106,22
India,Haryana,Karnal,"Sector-12, Karnal - HSPCB",24-03-2024 10:00:00,29.695300,77.002700,PM2.5,67,94,80
India,Haryana,Karnal,"Sector-12, Karnal - HSPCB",24-03-2024 10:00:00,29.695300,77.002700,PM10,54,94,73
India,Haryana,Karnal,"Sector-12, Karnal - HSPCB",24-03-2024 10:00:00,29.695300,77.002700,CO,25,36,28
India,Haryana,Manesar,"Sector-2 IMT, Manesar - HSPCB",24-03-2024 10:00:00,28.360699,76.936090,PM2.5,NA,NA,NA
India,Haryana,Manesar,"Sector-2 IMT, Manesar - HSPCB",24-03-2024 10:00:00,28.360699,76.936090,OZONE,NA,NA,NA
India,Haryana,Narnaul,"Shastri Nagar, Narnaul - HSPCB",24-03-2024 10:00:00,28.060249,76.113115,NH3,4,24,11
India,Haryana,Panipat,"Sector-18, Panipat - HSPCB",24-03-2024 10:00:00,29.497973,76.993331,NO2,31,32,31
India,Haryana,Panipat,"Sector-18, Panipat - HSPCB",24-03-2024 10:00:00,29.497973,76.993331,CO,24,26,25
India,Haryana,Rohtak,"MD University, Rohtak - HSPCB",24-03-2024 10:00:00,28.52123,76.37138,CO,29,60,46
India,Haryana,Sirsa,"F-Block, Sirsa - HSPCB",24-03-2024 10:00:00,29.536400,75.015800,NH3,2,13,12
India,Haryana,Sirsa,"F-Block, Sirsa - HSPCB",24-03-2024 10:00:00,29.536400,75.015800,SO2,1,6,3
India,Haryana,Sirsa,"F-Block, Sirsa - HSPCB",24-03-2024 10:00:00,29.536400,75.015800,CO,38,66,46
India,Haryana,Sirsa,"F-Block, Sirsa - HSPCB",24-03-2024 10:00:00,29.536400,75.015800,OZONE,25,135,53
India,Haryana,Sonipat,"Murthal, Sonipat - HSPCB",24-03-2024 10:00:00,29.027200,77.062100,CO,18,60,27
India,Haryana,Yamuna Nagar,"Gobind Pura, Yamuna Nagar - HSPCB",24-03-2024 10:00:00,30.1480566,77.2893471,NH3,1,6,4
India,Haryana,Yamuna Nagar,"Gobind Pura, Yamuna Nagar - HSPCB",24-03-2024 10:00:00,30.1480566,77.2893471,CO,3,48,44
India,Jharkhand,Dhanbad,"Kalakusuma, Dhanbad - DMC",24-03-2024 10:00:00,23.811548,86.481238,SO2,12,18,15
India,Jharkhand,Dhanbad,"Sardar Patel Nagar, Dhanbad - JSPCB",24-03-2024 10:00:00,23.80569,86.44268,PM10,NA,NA,NA
India,Karnataka,Bengaluru,"BTM Layout, Bengaluru - CPCB",24-03-2024 10:00:00,12.9135218,77.5950804,SO2,NA,NA,NA
India,Karnataka,Bengaluru,"Hebbal, Bengaluru - KSPCB",24-03-2024 10:00:00,13.029152,77.585901,SO2,10,18,14
India,Karnataka,Bengaluru,"Hebbal, Bengaluru - KSPCB",24-03-2024 10:00:00,13.029152,77.585901,OZONE,8,75,8
India,Karnataka,Bengaluru,"Hombegowda Nagar, Bengaluru - KSPCB",24-03-2024 10:00:00,12.938539,77.590100,PM2.5,48,122,69
India,Karnataka,Bengaluru,"Hombegowda Nagar, Bengaluru - KSPCB",24-03-2024 10:00:00,12.938539,77.590100,NH3,1,2,1
India,Karnataka,Bengaluru,"Hombegowda Nagar, Bengaluru - KSPCB",24-03-2024 10:00:00,12.938539,77.590100,CO,10,16,12
India,Karnataka,Bengaluru,"Jayanagar 5th Block, Bengaluru - KSPCB",24-03-2024 10:00:00,12.920984,77.584908,NO2,6,25,10
India,Karnataka,Bengaluru,"Jayanagar 5th Block, Bengaluru - KSPCB",24-03-2024 10:00:00,12.920984,77.584908,OZONE,18,19,18
India,Karnataka,Bengaluru,"Jigani, Bengaluru - KSPCB",24-03-2024 10:00:00,12.7816279,77.6299145,PM10,30,114,77
India,Karnataka,Bengaluru,"Kasturi Nagar, Bengaluru - KSPCB",24-03-2024 10:00:00,13.003872,77.664217,NH3,3,4,4
India,Karnataka,Bengaluru,"Kasturi Nagar, Bengaluru - KSPCB",24-03-2024 10:00:00,13.003872,77.664217,OZONE,25,108,41
India,Karnataka,Bengaluru,"Shivapura_Peenya, Bengaluru - KSPCB",24-03-2024 10:00:00,13.0246342,77.5080115,PM10,57,96,71
India,Karnataka,Bidar,"Naubad, Bidar - KSPCB",24-03-2024 10:00:00,17.930306,77.482194,NH3,2,3,3
India,Karnataka,Chamarajanagar,"Urban, Chamarajanagar - KSPCB",24-03-2024 10:00:00,11.55358,76.55521,NO2,23,29,29
India,Karnataka,Chamarajanagar,"Urban, Chamarajanagar - KSPCB",24-03-2024 10:00:00,11.55358,76.55521,NH3,1,2,1
India,Karnataka,Chikkaballapur,"Chikkaballapur Rural, Chikkaballapur - KSPCB",24-03-2024 10:00:00,13.428828,77.731418,PM10,64,114,79
India,Karnataka,Chikkaballapur,"Chikkaballapur Rural, Chikkaballapur - KSPCB",24-03-2024 10:00:00,13.428828,77.731418,NH3,1,1,1
India,Karnataka,Chikkamagaluru,"Kalyana Nagara, Chikkamagaluru - KSPCB",24-03-2024 10:00:00,13.328028,75.797056,PM2.5,3,42,28
India,Karnataka,Chikkamagaluru,"Kalyana Nagara, Chikkamagaluru - KSPCB",24-03-2024 10:00:00,13.328028,75.797056,SO2,NA,NA,NA
India,Karnataka,Davanagere,"Devaraj Urs Badavane, Davanagere - KSPCB",24-03-2024 10:00:00,14.475800,75.905200,NO2,7,16,12
India,Karnataka,Davanagere,"Devaraj Urs Badavane, Davanagere - KSPCB",24-03-2024 10:00:00,14.475800,75.905200,SO2,1,6,4
India,Karnataka,Dharwad,"Kalabhavan, Dharwad - KSPCB",24-03-2024 10:00:00,15.459706,75.008381,NO2,2,29,17
India,Karnataka,Dharwad,"Kalabhavan, Dharwad - KSPCB",24-03-2024 10:00:00,15.459706,75.008381,NH3,3,3,3
India,Karnataka,Gadag,"Panchal Nagar, Gadag - KSPCB",24-03-2024 10:00:00,15.411456,75.638133,PM2.5,31,167,70
India,Karnataka,Gadag,"Panchal Nagar, Gadag - KSPCB",24-03-2024 10:00:00,15.411456,75.638133,PM10,45,129,61
India,Karnataka,Hassan,"B.Katihalli, Hassan - KSPCB",24-03-2024 10:00:00,13.008556,76.125258,SO2,15,36,23
India,Karnataka,Haveri,"Ashwini Nagar, Haveri - KSPCB",24-03-2024 10:00:00,14.791800,75.389600,SO2,NA,NA,NA
India,Karnataka,Haveri,"Ashwini Nagar, Haveri - KSPCB",24-03-2024 10:00:00,14.791800,75.389600,CO,NA,NA,NA
India,Karnataka,Hubballi,"Deshpande Nagar, Hubballi - KSPCB",24-03-2024 10:00:00,15.351773,75.140726,NH3,4,6,5
India,Karnataka,Hubballi,"Lingaraj Nagar, Hubballi - KSPCB",24-03-2024 10:00:00,15.3714823,75.1160168,NH3,2,2,2
India,Karnataka,Kalaburagi,"Mahatma Basaveswar Colony, Kalaburgi - KSPCB",24-03-2024 10:00:00,17.336318,76.847397,PM10,NA,NA,NA
India,Karnataka,Kalaburagi,"Mahatma Basaveswar Colony, Kalaburgi - KSPCB",24-03-2024 10:00:00,17.336318,76.847397,SO2,NA,NA,NA
India,Karnataka,Kalaburagi,"Mahatma Basaveswar Colony, Kalaburgi - KSPCB",24-03-2024 10:00:00,17.336318,76.847397,CO,NA,NA,NA
India,Karnataka,Kolar,"Tamaka Ind. Area, Kolar - KSPCB",24-03-2024 10:00:00,13.1276288,78.1570122,NH3,8,26,16
India,Karnataka,Kolar,"Tamaka Ind. Area, Kolar - KSPCB",24-03-2024 10:00:00,13.1276288,78.1570122,SO2,9,25,15
India,Karnataka,Madikeri,"Stuart Hill, Madikeri - KSPCB",24-03-2024 10:00:00,12.415911,75.735050,OZONE,23,50,28
India,Karnataka,Mangalore,"Kadri, Mangalore - KSPCB",24-03-2024 10:00:00,12.889250,74.853000,PM10,48,63,55
India,Karnataka,Mangalore,"Kadri, Mangalore - KSPCB",24-03-2024 10:00:00,12.889250,74.853000,NO2,5,6,6
India,Karnataka,Mysuru,"Hebbal 1st Stage, Mysuru - KSPCB",24-03-2024 10:00:00,12.21041,76.37376,SO2,2,13,4
India,Karnataka,Raichur,"Haji Colony, Raichur - KSPCB",24-03-2024 10:00:00,16.208139,77.348417,PM10,67,140,104
India,Karnataka,Raichur,"Haji Colony, Raichur - KSPCB",24-03-2024 10:00:00,16.208139,77.348417,SO2,67,84,74
India,Karnataka,Ramanagara,"Vijay Nagar, Ramanagara - KSPCB",24-03-2024 10:00:00,12.733409,77.298051,OZONE,28,30,29
India,Karnataka,Tumakuru,"Thimmalapura, Tumakuru - KSPCB",24-03-2024 10:00:00,13.377516,77.099072,PM2.5,NA,NA,NA
India,Karnataka,Tumakuru,"Thimmalapura, Tumakuru - KSPCB",24-03-2024 10:00:00,13.377516,77.099072,PM10,NA,NA,NA
India,Karnataka,Tumakuru,"Thimmalapura, Tumakuru - KSPCB",24-03-2024 10:00:00,13.377516,77.099072,OZONE,22,51,27
India,Karnataka,Yadgir,"Collector Office, Yadgir - KSPCB",24-03-2024 10:00:00,16.7602,77.1428,OZONE,18,20,19
India,Kerala,Eloor,"Udyogamandal, Eloor - Kerala PCB",24-03-2024 10:00:00,10.073232,76.302765,SO2,1,6,2
India,Kerala,Eloor,"Udyogamandal, Eloor - Kerala PCB",24-03-2024 10:00:00,10.073232,76.302765,OZONE,11,20,16
India,Kerala,Kollam,"Polayathode, Kollam - Kerala PCB",24-03-2024 10:00:00,8.8787,76.6073,PM2.5,52,171,99
India,Kerala,Thiruvananthapuram,"Kariavattom, Thiruvananthapuram - Kerala PCB",24-03-2024 10:00:00,8.563700,76.886500,OZONE,28,31,30
India,Kerala,Thiruvananthapuram,"Plammoodu, Thiruvananthapuram - Kerala PCB",24-03-2024 10:00:00,8.5149093,76.9435879,OZONE,9,59,22
India,Madhya Pradesh,Bhopal,"Idgah Hills, Bhopal - MPPCB",24-03-2024 10:00:00,23.264759,77.381568,SO2,18,21,20
India,Madhya Pradesh,Bhopal,"Paryavaran Parisar, Bhopal - MPPCB",24-03-2024 10:00:00,23.210494,77.425409,NO2,1,59,26
India,Madhya Pradesh,Bhopal,"T T Nagar, Bhopal - MPPCB",24-03-2024 10:00:00,23.233584,77.400574,NH3,1,6,4
India,Madhya Pradesh,Dewas,"Bhopal Chauraha, Dewas - MPPCB",24-03-2024 10:00:00,22.9682591,76.064118,PM10,96,191,124
India,Madhya Pradesh,Dewas,"Bhopal Chauraha, Dewas - MPPCB",24-03-2024 10:00:00,22.9682591,76.064118,NH3,3,3,3
India,Madhya Pradesh,Dewas,"Bhopal Chauraha, Dewas - MPPCB",24-03-2024 10:00:00,22.9682591,76.064118,CO,13,38,25
India,Madhya Pradesh,Gwalior,"Maharaj Bada, Gwalior - MPPCB",24-03-2024 10:00:00,26.200388,78.147714,NO2,17,117,46
India,Madhya Pradesh,Gwalior,"Maharaj Bada, Gwalior - MPPCB",24-03-2024 10:00:00,26.200388,78.147714,CO,2,132,10
India,Madhya Pradesh,Indore,"Residency Area, Indore - IMC",24-03-2024 10:00:00,22.7084,75.8815,NO2,13,16,14
India,Madhya Pradesh,Indore,"Residency Area, Indore - IMC",24-03-2024 10:00:00,22.7084,75.8815,SO2,26,29,28
India,Madhya Pradesh,Jabalpur,"Gupteshwar, Jabalpur - JMC",24-03-2024 10:00:00,23.142888,79.916147,CO,8,107,28
India,Madhya Pradesh,Jabalpur,"Marhatal, Jabalpur - MPPCB",24-03-2024 10:00:00,23.168606,79.932247,CO,57,150,70
India,Madhya Pradesh,Jabalpur,"Marhatal, Jabalpur - MPPCB",24-03-2024 10:00:00,23.168606,79.932247,OZONE,2,97,33
India,Madhya Pradesh,Jabalpur,"Suhagi, Jabalpur - JMC",24-03-2024 10:00:00,23.218135,79.957770,PM2.5,52,325,151
India,Madhya Pradesh,Jabalpur,"Suhagi, Jabalpur - JMC",24-03-2024 10:00:00,23.218135,79.957770,NH3,3,4,4
India,Madhya Pradesh,Jabalpur,"Suhagi, Jabalpur - JMC",24-03-2024 10:00:00,23.218135,79.957770,CO,20,135,65
India,Madhya Pradesh,Katni,"Gole Bazar, Katni - MPPCB",24-03-2024 10:00:00,23.50016,80.23284,NO2,34,100,63
India,Madhya Pradesh,Katni,"Gole Bazar, Katni - MPPCB",24-03-2024 10:00:00,23.50016,80.23284,NH3,1,7,3
India,Madhya Pradesh,Katni,"Gole Bazar, Katni - MPPCB",24-03-2024 10:00:00,23.50016,80.23284,OZONE,5,100,20
India,Madhya Pradesh,Mandideep,"Sector-D Industrial Area, Mandideep - MPPCB",24-03-2024 10:00:00,23.108440,77.511428,NO2,25,123,67
India,Madhya Pradesh,Mandideep,"Sector-D Industrial Area, Mandideep - MPPCB",24-03-2024 10:00:00,23.108440,77.511428,NH3,2,4,4
India,Madhya Pradesh,Ratlam,"Shasthri Nagar, Ratlam - IPCA Lab",24-03-2024 10:00:00,23.331731,75.045981,NO2,14,51,24
India,Madhya Pradesh,Sagar,"Deen Dayal Nagar, Sagar - MPPCB",24-03-2024 10:00:00,23.8640158,78.80289321,SO2,9,13,12
India,Madhya Pradesh,Satna,"Bandhavgar Colony, Satna - Birla Cement",24-03-2024 10:00:00,24.58434363,80.8549414,SO2,2,3,2
India,Madhya Pradesh,Satna,"Bandhavgar Colony, Satna - Birla Cement",24-03-2024 10:00:00,24.58434363,80.8549414,CO,28,88,53
India,Madhya Pradesh,Singrauli,"Suryakiran Bhawan NCL, Singrauli - MPPCB",24-03-2024 10:00:00,24.108970,82.645580,PM10,80,286,155
India,Madhya Pradesh,Singrauli,"Suryakiran Bhawan NCL, Singrauli - MPPCB",24-03-2024 10:00:00,24.108970,82.645580,NH3,3,4,4
India,Madhya Pradesh,Singrauli,"Suryakiran Bhawan NCL, Singrauli - MPPCB",24-03-2024 10:00:00,24.108970,82.645580,OZONE,7,83,14
India,Madhya Pradesh,Ujjain,"Mahakaleshwar Temple, Ujjain - MPPCB",24-03-2024 10:00:00,23.182719 ,75.768218 ,NO2,NA,NA,NA
India,Maharashtra,Ahmednagar,"Tarakpur, Ahmednagar - MPCB",24-03-2024 10:00:00,19.10122,74.73339,SO2,7,14,9
India,Maharashtra,Ahmednagar,"Tarakpur, Ahmednagar - MPCB",24-03-2024 10:00:00,19.10122,74.73339,OZONE,19,207,73
India,Maharashtra,Akola,"Ramdaspeth, Akola - MPCB",24-03-2024 10:00:00,20.719516,77.000253,PM2.5,44,161,85
India,Maharashtra,Akola,"Ramdaspeth, Akola - MPCB",24-03-2024 10:00:00,20.719516,77.000253,NH3,5,12,8
India,Maharashtra,Akola,"Ramdaspeth, Akola - MPCB",24-03-2024 10:00:00,20.719516,77.000253,OZONE,4,100,44
India,Maharashtra,Amravati,"Shivneri Colony, Amravati - MPCB",24-03-2024 10:00:00,20.9402359,77.7895248,CO,16,72,25
India,Maharashtra,Aurangabad,"MIDC Chilkalthana, Aurangabad - MPCB",24-03-2024 10:00:00,19.875620,75.387310,PM2.5,69,205,130
India,Maharashtra,Aurangabad,"MIDC Chilkalthana, Aurangabad - MPCB",24-03-2024 10:00:00,19.875620,75.387310,PM10,48,122,84
India,Maharashtra,Aurangabad,"MIDC Chilkalthana, Aurangabad - MPCB",24-03-2024 10:00:00,19.875620,75.387310,NO2,5,98,33
India,Maharashtra,Aurangabad,"MIDC Chilkalthana, Aurangabad - MPCB",24-03-2024 10:00:00,19.875620,75.387310,SO2,11,36,18
India,Maharashtra,Aurangabad,"MIDC Chilkalthana, Aurangabad - MPCB",24-03-2024 10:00:00,19.875620,75.387310,CO,24,97,43
India,Maharashtra,Aurangabad,"MIDC Chilkalthana, Aurangabad - MPCB",24-03-2024 10:00:00,19.875620,75.387310,OZONE,18,202,70
India,Maharashtra,Aurangabad,"Rachnakar Colony, Aurangabad - MPCB",24-03-2024 10:00:00,19.863756,75.321188,PM2.5,69,202,159
India,Maharashtra,Aurangabad,"Rachnakar Colony, Aurangabad - MPCB",24-03-2024 10:00:00,19.863756,75.321188,PM10,75,500,176
India,Maharashtra,Aurangabad,"Rachnakar Colony, Aurangabad - MPCB",24-03-2024 10:00:00,19.863756,75.321188,SO2,10,105,40
India,Maharashtra,Badlapur,"Katrap, Badlapur - MPCB",24-03-2024 10:00:00,19.16485,73.23409,PM10,71,175,111
India,Maharashtra,Belapur,"CBD Belapur, Belapur - MPCB",24-03-2024 10:00:00,19.0243902,73.0406721,PM2.5,58,194,98
India,Maharashtra,Belapur,"CBD Belapur, Belapur - MPCB",24-03-2024 10:00:00,19.0243902,73.0406721,NH3,10,22,14
India,Maharashtra,Belapur,"CBD Belapur, Belapur - MPCB",24-03-2024 10:00:00,19.0243902,73.0406721,CO,13,58,21
India,Maharashtra,Bhiwandi,"Gokul Nagar, Bhiwandi - MPCB",24-03-2024 10:00:00,19.309073,73.057223,NO2,15,64,30
India,Maharashtra,Boisar,"Khaira, Boisar - MPCB",24-03-2024 10:00:00,19.786089,72.757971,PM10,102,123,112
India,Maharashtra,Boisar,"Khaira, Boisar - MPCB",24-03-2024 10:00:00,19.786089,72.757971,SO2,7,101,37
India,Maharashtra,Boisar,"Khaira, Boisar - MPCB",24-03-2024 10:00:00,19.786089,72.757971,OZONE,13,13,13
India,Maharashtra,Chandrapur,"Chauhan Colony, Chandrapur - MPCB",24-03-2024 10:00:00,19.962900,79.298714,PM10,34,83,67
India,Maharashtra,Chandrapur,"Chauhan Colony, Chandrapur - MPCB",24-03-2024 10:00:00,19.962900,79.298714,NH3,1,16,4
India,Maharashtra,Chandrapur,"Chauhan Colony, Chandrapur - MPCB",24-03-2024 10:00:00,19.962900,79.298714,OZONE,9,19,9
India,Maharashtra,Chandrapur,"MIDC Khutala, Chandrapur - MPCB",24-03-2024 10:00:00,19.9775302,79.2337086,PM2.5,64,260,118
India,Maharashtra,Chandrapur,"MIDC Khutala, Chandrapur - MPCB",24-03-2024 10:00:00,19.9775302,79.2337086,NO2,17,57,35
India,Maharashtra,Chandrapur,"MIDC Khutala, Chandrapur - MPCB",24-03-2024 10:00:00,19.9775302,79.2337086,SO2,20,22,21
India,Maharashtra,Chandrapur,"MIDC Khutala, Chandrapur - MPCB",24-03-2024 10:00:00,19.9775302,79.2337086,OZONE,1,85,9
India,Maharashtra,Dhule,"Deopur, Dhule - MPCB",24-03-2024 10:00:00,20.918946,74.776388,PM10,69,183,106
India,Maharashtra,Jalgaon,"Prabhat Colony, Jalgaon - MPCB",24-03-2024 10:00:00,21.001264,75.565602,CO,10,96,11
India,Maharashtra,Jalgaon,"Prabhat Colony, Jalgaon - MPCB",24-03-2024 10:00:00,21.001264,75.565602,OZONE,6,93,32
India,Maharashtra,Jalna,"Old MIDC, Jalna - MPCB",24-03-2024 10:00:00,19.854616,75.905894,PM2.5,200,340,276
India,Maharashtra,Kolhapur,"Shivaji University, Kolhapur - MPCB",24-03-2024 10:00:00,16.6870449,74.2505872,PM10,62,211,119
India,Maharashtra,Kolhapur,"Shivaji University, Kolhapur - MPCB",24-03-2024 10:00:00,16.6870449,74.2505872,NO2,10,42,23
India,Maharashtra,Kolhapur,"Shivaji University, Kolhapur - MPCB",24-03-2024 10:00:00,16.6870449,74.2505872,OZONE,8,79,23
India,Maharashtra,Latur,"Sawe Wadi, Latur - MPCB",24-03-2024 10:00:00,18.39963,76.57452,PM2.5,60,224,114
India,Maharashtra,Latur,"Sawe Wadi, Latur - MPCB",24-03-2024 10:00:00,18.39963,76.57452,CO,7,74,25
India,Maharashtra,Mahad,"Kamble Tarf Birwadi, Mahad - MPCB",24-03-2024 10:00:00,18.1023399,73.4783687,SO2,11,14,13
India,Maharashtra,Malegaon,"Mahesh Nagar, Malegaon - MPCB",24-03-2024 10:00:00,20.555712,74.529236,PM10,97,160,119
India,Maharashtra,Malegaon,"Mahesh Nagar, Malegaon - MPCB",24-03-2024 10:00:00,20.555712,74.529236,NO2,8,30,16
India,Maharashtra,Mumbai,"Bandra Kurla Complex, Mumbai - MPCB",24-03-2024 10:00:00,19.065931,72.862131,PM2.5,38,146,69
India,Maharashtra,Mumbai,"Borivali East, Mumbai - IITM",24-03-2024 10:00:00,19.23241,72.86895,PM10,58,125,89
India,Maharashtra,Mumbai,"Borivali East, Mumbai - MPCB",24-03-2024 10:00:00,19.2243333,72.8658113,PM10,33,120,63
India,Maharashtra,Mumbai,"Borivali East, Mumbai - MPCB",24-03-2024 10:00:00,19.2243333,72.8658113,CO,1,74,15
India,Maharashtra,Mumbai,"Byculla, Mumbai - BMC",24-03-2024 10:00:00,18.9767,72.8380,PM10,31,94,56
India,Maharashtra,Mumbai,"Chakala-Andheri East, Mumbai - IITM",24-03-2024 10:00:00,19.11074,72.86084,CO,19,53,34
India,Maharashtra,Mumbai,"Chembur, Mumbai - MPCB",24-03-2024 10:00:00,19.0364585,72.8954371,NO2,25,74,42
India,Maharashtra,Mumbai,"Chhatrapati Shivaji Intl. Airport (T2), Mumbai - MPCB",24-03-2024 10:00:00,19.10078,72.87462,PM2.5,18,50,26
India,Maharashtra,Mumbai,"Chhatrapati Shivaji Intl. Airport (T2), Mumbai - MPCB",24-03-2024 10:00:00,19.10078,72.87462,NH3,1,3,2
India,Maharashtra,Mumbai,"Chhatrapati Shivaji Intl. Airport (T2), Mumbai - MPCB",24-03-2024 10:00:00,19.10078,72.87462,CO,44,86,56
India,Maharashtra,Mumbai,"Ghatkopar, Mumbai - BMC",24-03-2024 10:00:00,19.083694,72.920967,PM10,54,118,93
India,Maharashtra,Mumbai,"Kandivali East, Mumbai - MPCB",24-03-2024 10:00:00,19.205800,72.868200,NO2,17,85,47
India,Maharashtra,Mumbai,"Kandivali West, Mumbai - BMC",24-03-2024 10:00:00,19.215859,72.831718,PM10,33,75,50
India,Maharashtra,Mumbai,"Khindipada-Bhandup West, Mumbai - IITM",24-03-2024 10:00:00,19.1653323,72.922099,PM10,29,131,77
India,Maharashtra,Mumbai,"Khindipada-Bhandup West, Mumbai - IITM",24-03-2024 10:00:00,19.1653323,72.922099,NH3,6,10,8
India,Maharashtra,Mumbai,"Khindipada-Bhandup West, Mumbai - IITM",24-03-2024 10:00:00,19.1653323,72.922099,CO,39,84,53
India,Maharashtra,Mumbai,"Mazgaon, Mumbai - IITM",24-03-2024 10:00:00,18.96702,72.84214,PM2.5,50,292,125
India,Maharashtra,Mumbai,"Mazgaon, Mumbai - IITM",24-03-2024 10:00:00,18.96702,72.84214,NH3,NA,NA,NA
India,Maharashtra,Mumbai,"Mindspace-Malad West, Mumbai - MPCB",24-03-2024 10:00:00,19.1878657,72.8304069,NO2,NA,NA,NA
India,Maharashtra,Mumbai,"Mulund West, Mumbai - MPCB",24-03-2024 10:00:00,19.1750,72.9419,NO2,19,26,22
India,Maharashtra,Mumbai,"Mulund West, Mumbai - MPCB",24-03-2024 10:00:00,19.1750,72.9419,SO2,13,13,13
India,Maharashtra,Mumbai,"Mulund West, Mumbai - MPCB",24-03-2024 10:00:00,19.1750,72.9419,CO,34,34,34
India,Maharashtra,Mumbai,"Mulund West, Mumbai - MPCB",24-03-2024 10:00:00,19.1750,72.9419,OZONE,7,7,7
India,Maharashtra,Mumbai,"Navy Nagar-Colaba, Mumbai - IITM",24-03-2024 10:00:00,18.897756,72.813320,PM2.5,30,119,62
India,Maharashtra,Mumbai,"Navy Nagar-Colaba, Mumbai - IITM",24-03-2024 10:00:00,18.897756,72.813320,OZONE,26,153,53
India,Maharashtra,Mumbai,"Powai, Mumbai - MPCB",24-03-2024 10:00:00,19.137500,72.915056,PM2.5,21,91,40
India,Maharashtra,Mumbai,"Powai, Mumbai - MPCB",24-03-2024 10:00:00,19.137500,72.915056,NH3,1,2,1
India,Maharashtra,Mumbai,"Powai, Mumbai - MPCB",24-03-2024 10:00:00,19.137500,72.915056,CO,30,47,33
India,Maharashtra,Mumbai,"Powai, Mumbai - MPCB",24-03-2024 10:00:00,19.137500,72.915056,OZONE,23,130,28
India,Maharashtra,Mumbai,"Sewri, Mumbai - BMC",24-03-2024 10:00:00,19.000084,72.856730,OZONE,3,57,13
India,Maharashtra,Mumbai,"Shivaji Nagar, Mumbai - BMC",24-03-2024 10:00:00,19.060498,72.923356,PM10,51,121,94
India,Maharashtra,Mumbai,"Shivaji Nagar, Mumbai - BMC",24-03-2024 10:00:00,19.060498,72.923356,CO,2,80,18
India,Maharashtra,Mumbai,"Siddharth Nagar-Worli, Mumbai - IITM",24-03-2024 10:00:00,19.000083,72.813993,OZONE,NA,NA,NA
India,Maharashtra,Mumbai,"Sion, Mumbai - MPCB",24-03-2024 10:00:00,19.047000,72.874600,PM2.5,42,100,61
India,Maharashtra,Mumbai,"Sion, Mumbai - MPCB",24-03-2024 10:00:00,19.047000,72.874600,PM10,66,126,95
India,Maharashtra,Mumbai,"Vasai West, Mumbai - MPCB",24-03-2024 10:00:00,19.383200,72.820400,SO2,16,16,16
India,Maharashtra,Mumbai,"Vile Parle West, Mumbai - MPCB",24-03-2024 10:00:00,19.10861,72.83622,PM2.5,31,86,41
India,Maharashtra,Mumbai,"Vile Parle West, Mumbai - MPCB",24-03-2024 10:00:00,19.10861,72.83622,CO,42,46,43
India,Maharashtra,Mumbai,"Vile Parle West, Mumbai - MPCB",24-03-2024 10:00:00,19.10861,72.83622,OZONE,4,4,4
India,Maharashtra,Nagpur,"Mahal, Nagpur - MPCB",24-03-2024 10:00:00,21.14472,79.107595,NO2,16,72,35
India,Maharashtra,Nagpur,"Mahal, Nagpur - MPCB",24-03-2024 10:00:00,21.14472,79.107595,NH3,3,30,11
India,Maharashtra,Nagpur,"Mahal, Nagpur - MPCB",24-03-2024 10:00:00,21.14472,79.107595,SO2,34,114,77
India,Maharashtra,Nagpur,"Mahal, Nagpur - MPCB",24-03-2024 10:00:00,21.14472,79.107595,CO,40,176,77
India,Maharashtra,Nagpur,"Ram Nagar, Nagpur - MPCB",24-03-2024 10:00:00,21.143383,79.048912,CO,13,104,45
India,Maharashtra,Nashik,"Gangapur Road, Nashik - MPCB",24-03-2024 10:00:00,20.0073285,73.7762427,PM2.5,57,98,71
India,Maharashtra,Nashik,"Gangapur Road, Nashik - MPCB",24-03-2024 10:00:00,20.0073285,73.7762427,PM10,66,116,88
India,Maharashtra,Nashik,"Gangapur Road, Nashik - MPCB",24-03-2024 10:00:00,20.0073285,73.7762427,NO2,11,17,14
India,Maharashtra,Nashik,"Gangapur Road, Nashik - MPCB",24-03-2024 10:00:00,20.0073285,73.7762427,SO2,1,37,8
India,Maharashtra,Nashik,"Gangapur Road, Nashik - MPCB",24-03-2024 10:00:00,20.0073285,73.7762427,CO,22,23,23
India,Maharashtra,Nashik,"Hirawadi, Nashik - MPCB",24-03-2024 10:00:00,20.021503,73.813844,PM2.5,58,88,72
India,Maharashtra,Nashik,"Hirawadi, Nashik - MPCB",24-03-2024 10:00:00,20.021503,73.813844,SO2,2,30,10
India,Maharashtra,Nashik,"MIDC Ambad, Nashik - MPCB",24-03-2024 10:00:00,19.950220,73.731480,NO2,8,26,17
India,Maharashtra,Nashik,"Pandav Nagari, Nashik - MPCB",24-03-2024 10:00:00,19.9591346,73.7788008,SO2,8,28,18
India,Maharashtra,Nashik,"Pandav Nagari, Nashik - MPCB",24-03-2024 10:00:00,19.9591346,73.7788008,CO,14,32,19
India,Maharashtra,Navi Mumbai,"Kopripada-Vashi, Navi Mumbai - MPCB",24-03-2024 10:00:00,19.090337,73.014232,CO,13,59,24
India,Maharashtra,Navi Mumbai,"Nerul, Navi Mumbai - MPCB",24-03-2024 10:00:00,19.008751,73.016620,PM2.5,55,304,126
India,Maharashtra,Navi Mumbai,"Sanpada, Navi Mumbai - MPCB",24-03-2024 10:00:00,19.0575752,73.0151367,CO,8,48,16
India,Maharashtra,Navi Mumbai,"Sector-19A Nerul, Navi Mumbai - IITM",24-03-2024 10:00:00,19.044,73.0325,PM2.5,36,203,105
India,Maharashtra,Navi Mumbai,"Sector-19A Nerul, Navi Mumbai - IITM",24-03-2024 10:00:00,19.044,73.0325,NO2,17,82,52
India,Maharashtra,Navi Mumbai,"Sector-19A Nerul, Navi Mumbai - IITM",24-03-2024 10:00:00,19.044,73.0325,CO,41,98,53
India,Maharashtra,Navi Mumbai,"Tondare-Taloja, Navi Mumbai - MPCB",24-03-2024 10:00:00,19.0630,73.1209,PM2.5,71,161,102
India,Maharashtra,Parbhani,"Masoom Colony, Parbhani - MPCB",24-03-2024 10:00:00,19.265594,76.761463,NH3,3,8,6
India,Maharashtra,Parbhani,"Masoom Colony, Parbhani - MPCB",24-03-2024 10:00:00,19.265594,76.761463,SO2,16,75,41
India,Maharashtra,Pimpri-Chinchwad,"Gavalinagar, Pimpri Chinchwad - MPCB",24-03-2024 10:00:00,18.63673,73.82487,PM2.5,63,329,94
India,Maharashtra,Pimpri-Chinchwad,"Gavalinagar, Pimpri Chinchwad - MPCB",24-03-2024 10:00:00,18.63673,73.82487,NH3,1,6,3
India,Maharashtra,Pimpri-Chinchwad,"Gavalinagar, Pimpri Chinchwad - MPCB",24-03-2024 10:00:00,18.63673,73.82487,SO2,9,26,15
India,Maharashtra,Pimpri-Chinchwad,"Thergaon, Pimpri Chinchwad - MPCB",24-03-2024 10:00:00,18.616318,73.765797,PM10,95,142,116
India,Maharashtra,Pune,"Karve Road, Pune - MPCB",24-03-2024 10:00:00,18.5011743,73.8165527,NO2,2,2,2
India,Maharashtra,Pune,"Karve Road, Pune - MPCB",24-03-2024 10:00:00,18.5011743,73.8165527,SO2,19,22,21
India,Maharashtra,Pune,"Katraj Dairy, Pune - MPCB",24-03-2024 10:00:00,18.454450,73.854155,PM10,NA,NA,NA
India,Maharashtra,Pune,"Mhada Colony, Pune - IITM",24-03-2024 10:00:00,18.573040,73.927715,PM10,57,110,85
India,Maharashtra,Pune,"Mhada Colony, Pune - IITM",24-03-2024 10:00:00,18.573040,73.927715,NO2,1,21,13
India,Maharashtra,Pune,"Revenue Colony-Shivajinagar, Pune - IITM",24-03-2024 10:00:00,18.530085,73.849598,NO2,78,147,112
India,Maharashtra,Pune,"Revenue Colony-Shivajinagar, Pune - IITM",24-03-2024 10:00:00,18.530085,73.849598,SO2,66,110,90
India,Maharashtra,Pune,"Revenue Colony-Shivajinagar, Pune - IITM",24-03-2024 10:00:00,18.530085,73.849598,CO,98,116,109
India,Maharashtra,Pune,"Savitribai Phule Pune University, Pune - MPCB",24-03-2024 10:00:00,18.547056,73.826908,SO2,12,22,18
India,Maharashtra,Pune,"Transport Nagar-Nigdi, Pune - IITM",24-03-2024 10:00:00,18.664282,73.763966,PM10,58,124,84
India,Maharashtra,Pune,"Transport Nagar-Nigdi, Pune - IITM",24-03-2024 10:00:00,18.664282,73.763966,NO2,15,18,17
India,Maharashtra,Solapur,"Dnyaneshwar Nagar, Solapur - MPCB",24-03-2024 10:00:00,17.6336264,75.9132495,PM2.5,136,267,193
India,Maharashtra,Solapur,"Dnyaneshwar Nagar, Solapur - MPCB",24-03-2024 10:00:00,17.6336264,75.9132495,PM10,100,181,130
India,Maharashtra,Solapur,"Dnyaneshwar Nagar, Solapur - MPCB",24-03-2024 10:00:00,17.6336264,75.9132495,NH3,14,29,19
India,Maharashtra,Solapur,"Solapur, Solapur - MPCB",24-03-2024 10:00:00,17.6599188,75.9063906,NO2,54,54,54
India,Maharashtra,Thane,"Kasarvadavali, Thane - MPCB",24-03-2024 10:00:00,19.26777,72.97182,PM10,65,125,92
India,Maharashtra,Thane,"Kasarvadavali, Thane - MPCB",24-03-2024 10:00:00,19.26777,72.97182,NO2,28,61,42
India,Maharashtra,Thane,"Kasarvadavali, Thane - MPCB",24-03-2024 10:00:00,19.26777,72.97182,CO,12,46,26
India,Maharashtra,Thane,"Upvan Fort, Thane - MPCB",24-03-2024 10:00:00,19.222279,72.957979,PM10,50,128,82
India,Maharashtra,Thane,"Upvan Fort, Thane - MPCB",24-03-2024 10:00:00,19.222279,72.957979,OZONE,12,115,25
India,Maharashtra,Ulhasnagar,"Sidhi Vinayak Nagar, Ulhasnagar - MPCB",24-03-2024 10:00:00,19.235581,73.159121,NO2,8,20,13
India,Maharashtra,Ulhasnagar,"Sidhi Vinayak Nagar, Ulhasnagar - MPCB",24-03-2024 10:00:00,19.235581,73.159121,OZONE,16,89,26
India,Maharashtra,Virar,"Bolinj, Virar - MPCB",24-03-2024 10:00:00,19.4458210,72.7988231,SO2,3,6,5
India,Maharashtra,Virar,"Bolinj, Virar - MPCB",24-03-2024 10:00:00,19.4458210,72.7988231,CO,12,103,52
India,Maharashtra,Virar,"Bolinj, Virar - MPCB",24-03-2024 10:00:00,19.4458210,72.7988231,OZONE,2,90,16
India,Manipur,Imphal,"DM College of Science, Imphal - Manipur PCB",24-03-2024 10:00:00,24.8207389,93.9423085,NH3,2,2,2
India,Meghalaya,Shillong,"Lumpyngngad, Shillong - Meghalaya PCB",24-03-2024 10:00:00,25.5586,91.8985,PM2.5,25,85,67
India,Meghalaya,Shillong,"Lumpyngngad, Shillong - Meghalaya PCB",24-03-2024 10:00:00,25.5586,91.8985,PM10,25,57,46
India,Mizoram,Aizawl,"Sikulpuikawn, Aizawl - Mizoram PCB",24-03-2024 10:00:00,23.7176342,92.7192841,NO2,1,2,1
India,Mizoram,Aizawl,"Sikulpuikawn, Aizawl - Mizoram PCB",24-03-2024 10:00:00,23.7176342,92.7192841,CO,9,14,10
India,Nagaland,Kohima,"PWD Juction, Kohima - NPCB",24-03-2024 10:00:00,25.6635413,94.0989878,CO,9,34,12
India,Odisha,Balasore,"Kalidaspur, Balasore - OSPCB",24-03-2024 10:00:00,21.51161,86.89088,PM10,40,139,93
India,Odisha,Balasore,"Kalidaspur, Balasore - OSPCB",24-03-2024 10:00:00,21.51161,86.89088,SO2,13,30,19
India,Odisha,Barbil,"Forest Office, Barbil - OSPCB",24-03-2024 10:00:00,22.1166054,85.3945546,NO2,4,12,7
India,Odisha,Baripada,"Meher Colony, Baripada - OSPCB",24-03-2024 10:00:00,21.941841,86.728318,PM2.5,7,177,114
India,Odisha,Baripada,"Meher Colony, Baripada - OSPCB",24-03-2024 10:00:00,21.941841,86.728318,OZONE,13,100,27
India,Odisha,Bhubaneswar,"Lingraj Mandir, Bhubaneswar - OSPCB",24-03-2024 10:00:00,20.240790,85.836784,PM2.5,27,130,70
India,Odisha,Bhubaneswar,"Lingraj Mandir, Bhubaneswar - OSPCB",24-03-2024 10:00:00,20.240790,85.836784,NH3,1,2,2
India,Odisha,Byasanagar,"Ferro Chrome Colony, Byasanagar - OSPCB",24-03-2024 10:00:00,20.94185,86.11510,PM10,34,120,70
India,Odisha,Keonjhar,"Jagamohanpur, Keonjhar - OSPCB",24-03-2024 10:00:00,21.643900,85.599355,NO2,20,89,39
India,Odisha,Keonjhar,"Jagamohanpur, Keonjhar - OSPCB",24-03-2024 10:00:00,21.643900,85.599355,CO,12,67,15
India,Odisha,Nayagarh,"Dabuna, Nayagarh - OSPCB",24-03-2024 10:00:00,21.847279,85.416905,SO2,4,8,5
India,Odisha,Nayagarh,"Dabuna, Nayagarh - OSPCB",24-03-2024 10:00:00,21.847279,85.416905,OZONE,2,12,3
India,Odisha,Rairangpur,"Divisional Forest Office, Rairangpur - OSPCB",24-03-2024 10:00:00,22.265816,86.174829,SO2,2,6,3
India,Odisha,Rourkela,"Raghunathpali, Rourkela - OSPCB",24-03-2024 10:00:00,22.220833,84.809444,NO2,16,153,61
India,Odisha,Rourkela,"Sector-2, Rourkela - OSPCB",24-03-2024 10:00:00,22.24500000,84.88111111,PM2.5,84,268,194
India,Odisha,Talcher,"Talcher Coalfields,Talcher - OSPCB",24-03-2024 10:00:00,20.9360711,85.1707021,NH3,4,5,5
India,Odisha,Talcher,"Talcher Coalfields,Talcher - OSPCB",24-03-2024 10:00:00,20.9360711,85.1707021,CO,20,76,45
India,Odisha,Tensa,"Barsua Iron Ore Mines, Tensa - OSPCB",24-03-2024 10:00:00,21.869985,85.167016,PM2.5,51,68,59
India,Odisha,Tensa,"Barsua Iron Ore Mines, Tensa - OSPCB",24-03-2024 10:00:00,21.869985,85.167016,NH3,7,12,9
India,Punjab,Amritsar,"Golden Temple, Amritsar - PPCB",24-03-2024 10:00:00,31.620000,74.876512,OZONE,46,64,56
India,Punjab,Jalandhar,"Civil Line, Jalandhar - PPCB",24-03-2024 10:00:00,31.321907,75.578914,PM10,47,96,76
India,Punjab,Ludhiana,"Punjab Agricultural University, Ludhiana - PPCB",24-03-2024 10:00:00,30.9028,75.8086,OZONE,10,38,17
India,Punjab,Mandi Gobindgarh,"RIMT University, Mandi Gobindgarh - PPCB",24-03-2024 10:00:00,30.649961,76.331442,PM2.5,63,294,129
India,Punjab,Patiala,"Model Town, Patiala - PPCB",24-03-2024 10:00:00,30.349388,76.366642,PM2.5,44,239,99
India,Punjab,Rupnagar,"Ratanpura, Rupnagar - Ambuja Cements",24-03-2024 10:00:00,31.0325454,76.5623046,CO,22,70,47
India,Rajasthan,Ajmer,"Civil Lines,  Ajmer - RSPCB",24-03-2024 10:00:00,26.470859,74.646594,NH3,5,5,5
India,Rajasthan,Ajmer,"Civil Lines,  Ajmer - RSPCB",24-03-2024 10:00:00,26.470859,74.646594,SO2,11,17,14
India,Rajasthan,Ajmer,"Civil Lines,  Ajmer - RSPCB",24-03-2024 10:00:00,26.470859,74.646594,OZONE,14,83,27
India,Rajasthan,Alwar,"Moti Doongri, Alwar - RSPCB",24-03-2024 10:00:00,27.554793,76.611536,PM10,57,113,86
India,Rajasthan,Alwar,"Moti Doongri, Alwar - RSPCB",24-03-2024 10:00:00,27.554793,76.611536,CO,6,76,45
India,Rajasthan,Alwar,"Moti Doongri, Alwar - RSPCB",24-03-2024 10:00:00,27.554793,76.611536,OZONE,7,40,10
India,Rajasthan,Baran,"Bamboliya, Baran - RSPCB",24-03-2024 10:00:00,25.106006,76.469948,NH3,2,18,5
India,Rajasthan,Barmer,"Railway Colony, Barmer - RSPCB",24-03-2024 10:00:00,25.747299,71.393989,PM2.5,17,60,34
India,Rajasthan,Bharatpur,"Krishna Nagar, Bharatpur - RSPCB",24-03-2024 10:00:00,27.215415,77.50873,NH3,9,25,18
India,Rajasthan,Bharatpur,"Krishna Nagar, Bharatpur - RSPCB",24-03-2024 10:00:00,27.215415,77.50873,SO2,5,17,10
India,Rajasthan,Bhilwara,"Pratap Nagar, Bhilwara - RSPCB",24-03-2024 10:00:00,25.339605,74.618883,PM10,32,118,63
India,Rajasthan,Bhilwara,"Pratap Nagar, Bhilwara - RSPCB",24-03-2024 10:00:00,25.339605,74.618883,NH3,2,13,5
India,Rajasthan,Bhilwara,"Pratap Nagar, Bhilwara - RSPCB",24-03-2024 10:00:00,25.339605,74.618883,SO2,2,24,9
India,Rajasthan,Bhiwadi,"RIICO Ind. Area III, Bhiwadi - RSPCB",24-03-2024 10:00:00,28.194909,76.862296,NH3,1,14,6
India,Rajasthan,Bhiwadi,"RIICO Ind. Area III, Bhiwadi - RSPCB",24-03-2024 10:00:00,28.194909,76.862296,CO,69,88,73
India,Rajasthan,Bhiwadi,"Vasundhara Nagar_UIT, Bhiwadi - RSPCB",24-03-2024 10:00:00,28.207266,76.829265,OZONE,6,75,9
India,Rajasthan,Bikaner,"MM Ground, Bikaner - RSPCB",24-03-2024 10:00:00,28.018792,73.292658,PM2.5,36,179,76
India,Rajasthan,Bikaner,"MM Ground, Bikaner - RSPCB",24-03-2024 10:00:00,28.018792,73.292658,NH3,8,16,11
India,Rajasthan,Bikaner,"MM Ground, Bikaner - RSPCB",24-03-2024 10:00:00,28.018792,73.292658,CO,16,92,28
India,Rajasthan,Bundi,"New Colony, Bundi - RSPCB",24-03-2024 10:00:00,25.435774,75.644272,NH3,2,4,3
India,Rajasthan,Bundi,"New Colony, Bundi - RSPCB",24-03-2024 10:00:00,25.435774,75.644272,SO2,6,16,10
India,Rajasthan,Bundi,"New Colony, Bundi - RSPCB",24-03-2024 10:00:00,25.435774,75.644272,OZONE,6,121,43
India,Rajasthan,Chittorgarh,"Shastri Nagar, Chittorgarh - RSPCB",24-03-2024 10:00:00,24.892047,74.623527,PM10,51,417,120
India,Rajasthan,Chittorgarh,"Shastri Nagar, Chittorgarh - RSPCB",24-03-2024 10:00:00,24.892047,74.623527,NH3,2,15,10
India,Rajasthan,Chittorgarh,"Shastri Nagar, Chittorgarh - RSPCB",24-03-2024 10:00:00,24.892047,74.623527,CO,2,90,19
India,Rajasthan,Churu,"Subash Chowk, Churu - RSPCB",24-03-2024 10:00:00,28.296139,74.961696,PM10,80,160,110
India,Rajasthan,Churu,"Subash Chowk, Churu - RSPCB",24-03-2024 10:00:00,28.296139,74.961696,SO2,4,29,13
India,Rajasthan,Dungarpur,"Bhoiwada, Dungarpur - RSPCB",24-03-2024 10:00:00,23.837789,73.714926,NH3,5,5,5
India,Rajasthan,Hanumangarh,"Housing Board, Hanumangarh - RSPCB",24-03-2024 10:00:00,29.610750,74.283608,CO,47,104,60
India,Rajasthan,Jaipur,"Adarsh Nagar, Jaipur - RSPCB",24-03-2024 10:00:00,26.902909,75.836858,PM2.5,49,112,73
India,Rajasthan,Jaipur,"Adarsh Nagar, Jaipur - RSPCB",24-03-2024 10:00:00,26.902909,75.836858,SO2,8,25,17
India,Rajasthan,Jaipur,"Police Commissionerate, Jaipur - RSPCB",24-03-2024 10:00:00,26.9164092,75.7994901,SO2,12,25,18
India,Rajasthan,Jaipur,"Police Commissionerate, Jaipur - RSPCB",24-03-2024 10:00:00,26.9164092,75.7994901,OZONE,11,117,56
India,Rajasthan,Jaipur,"Sector-2 Murlipura, Jaipur - RSPCB",24-03-2024 10:00:00,26.960669,75.771817,NH3,1,31,12
India,Rajasthan,Jaisalmer,"Sadar Bazar, Jaisalmer - RSPCB",24-03-2024 10:00:00,26.912329,70.909168,PM10,72,158,104
India,Rajasthan,Jalore,"Mudtra Sili, Jalore - RSPCB",24-03-2024 10:00:00,25.344694,72.626208,PM10,59,164,109
India,Rajasthan,Jhalawar,"Rajlaxmi Nagar, Jhalawar - RSPCB",24-03-2024 10:00:00,24.588397,76.172782,OZONE,5,91,26
India,Rajasthan,Jodhpur,"Collectorate, Jodhpur - RSPCB",24-03-2024 10:00:00,26.268249,73.0193853,CO,24,93,66
India,Rajasthan,Jodhpur,"Digari Kalan, Jodhpur - RSPCB",24-03-2024 10:00:00,26.295810,73.082283,NH3,5,8,6
India,Rajasthan,Jodhpur,"Jhalamand, Jodhpur - RSPCB",24-03-2024 10:00:00,26.215415,73.070156,NH3,3,10,5
India,Rajasthan,Jodhpur,"Mandor, Jodhpur - RSPCB",24-03-2024 10:00:00,26.358805,73.047444,PM2.5,18,80,40
India,Rajasthan,Jodhpur,"Samrat Ashok Udhyan, Jodhpur - RSPCB",24-03-2024 10:00:00,26.253384,72.976571,PM2.5,17,64,38
India,Rajasthan,Jodhpur,"Samrat Ashok Udhyan, Jodhpur - RSPCB",24-03-2024 10:00:00,26.253384,72.976571,PM10,75,187,119
India,Rajasthan,Jodhpur,"Samrat Ashok Udhyan, Jodhpur - RSPCB",24-03-2024 10:00:00,26.253384,72.976571,NH3,4,9,6
India,Rajasthan,Kota,"Dhanmandi, Kota - RSPCB",24-03-2024 10:00:00,25.164090,75.858137,PM2.5,13,322,103
India,Rajasthan,Kota,"Shrinath Puram, Kota - RSPCB",24-03-2024 10:00:00,25.14389,75.821256,NO2,7,107,34
India,Rajasthan,Nagaur,"Karni Colony, Nagaur - RSPCB",24-03-2024 10:00:00,27.213494,73.734444,NO2,9,36,21
India,Rajasthan,Nagaur,"Karni Colony, Nagaur - RSPCB",24-03-2024 10:00:00,27.213494,73.734444,NH3,11,18,13
India,Rajasthan,Nagaur,"Karni Colony, Nagaur - RSPCB",24-03-2024 10:00:00,27.213494,73.734444,CO,15,39,25
India,Rajasthan,Pali,"Indira Colony Vistar, Pali - RSPCB",24-03-2024 10:00:00,25.771061, 73.340227,PM2.5,73,323,156
India,Rajasthan,Pali,"Indira Colony Vistar, Pali - RSPCB",24-03-2024 10:00:00,25.771061, 73.340227,NO2,24,48,31
India,Rajasthan,Pali,"Indira Colony Vistar, Pali - RSPCB",24-03-2024 10:00:00,25.771061, 73.340227,NH3,1,7,3
India,Rajasthan,Pali,"Indira Colony Vistar, Pali - RSPCB",24-03-2024 10:00:00,25.771061, 73.340227,CO,56,104,70
India,Rajasthan,Pratapgarh,"Pragati Nagar, Pratapgarh - RSPCB",24-03-2024 10:00:00,24.041198,74.780702,PM2.5,23,104,47
India,Rajasthan,Pratapgarh,"Pragati Nagar, Pratapgarh - RSPCB",24-03-2024 10:00:00,24.041198,74.780702,PM10,60,141,92
India,Rajasthan,Sawai Madhopur,"Sahu Nagar, Sawai Madhopur - RSPCB",24-03-2024 10:00:00,26.031443,76.359327,NO2,5,72,20
India,Rajasthan,Sikar,"Radhakishan Pura, Sikar - RSPCB",24-03-2024 10:00:00,27.608912,75.153302,SO2,1,90,10
India,Rajasthan,Sirohi,"Vedhaynath Colony, Sirohi - RSPCB",24-03-2024 10:00:00,24.885261,72.857549,PM2.5,36,75,53
India,Rajasthan,Sri Ganganagar,"Old City, Sri Ganganagar - RSPCB",24-03-2024 10:00:00,29.931624,73.864511,PM10,108,448,210
India,Rajasthan,Sri Ganganagar,"Old City, Sri Ganganagar - RSPCB",24-03-2024 10:00:00,29.931624,73.864511,NO2,30,161,75
India,Rajasthan,Tonk,"Shastri Nagar, Tonk - RSPCB",24-03-2024 10:00:00,26.159933,75.780517,PM2.5,40,203,85
India,Rajasthan,Tonk,"Shastri Nagar, Tonk - RSPCB",24-03-2024 10:00:00,26.159933,75.780517,NH3,4,34,10
India,Rajasthan,Udaipur,"Ashok Nagar, Udaipur - RSPCB",24-03-2024 10:00:00,24.5886166,73.6321397,PM10,70,189,112
India,Rajasthan,Udaipur,"Ashok Nagar, Udaipur - RSPCB",24-03-2024 10:00:00,24.5886166,73.6321397,NO2,68,114,96
India,TamilNadu,Chengalpattu,"Crescent University, Chengalpattu - TNPCB",24-03-2024 10:00:00,12.8777316,80.0834807,OZONE,NA,NA,NA
India,TamilNadu,Chennai,"Arumbakkam, Chennai - TNPCB",24-03-2024 10:00:00,13.0664,80.2112 ,NH3,2,10,5
India,TamilNadu,Chennai,"Perungudi, Chennai - TNPCB",24-03-2024 10:00:00,12.9533,80.2357,SO2,1,7,5
India,TamilNadu,Chennai,"Royapuram, Chennai - TNPCB",24-03-2024 10:00:00,13.1036,80.2909,PM2.5,20,80,35
India,TamilNadu,Chennai,"Velachery Res. Area, Chennai - CPCB",24-03-2024 10:00:00,13.0052189,80.2398125,PM2.5,49,67,58
India,TamilNadu,Cuddalore,"Semmandalam, Cuddalore - TNPCB",24-03-2024 10:00:00,11.7637683,79.7499835,PM10,NA,NA,NA
India,TamilNadu,Kanchipuram,"Kilambi, Kanchipuram - TNPCB",24-03-2024 10:00:00,12.864618,79.659968,SO2,5,7,6
India,TamilNadu,Kanchipuram,"Kilambi, Kanchipuram - TNPCB",24-03-2024 10:00:00,12.864618,79.659968,OZONE,6,99,8
India,TamilNadu,Ooty,"Bombay Castel, Ooty - TNPCB",24-03-2024 10:00:00,11.4068288,76.7138973,SO2,13,13,13
India,TamilNadu,Palkalaiperur,"Bharathidasan University, Palkalaiperur - TNPCB",24-03-2024 10:00:00,10.681158,78.741746,OZONE,1,1,1
India,TamilNadu,Ramanathapuram,"Chalai Bazaar, Ramanathapuram - TNPCB",24-03-2024 10:00:00,9.36399,78.831977,NH3,1,1,1
India,TamilNadu,Vellore,"Vasanthapuram, Vellore - TNPCB",24-03-2024 10:00:00,12.909494,79.131861,PM2.5,31,127,53
India,TamilNadu,Vellore,"Vasanthapuram, Vellore - TNPCB",24-03-2024 10:00:00,12.909494,79.131861,NO2,3,11,7
India,Telangana,Hyderabad,"Bollaram Industrial Area, Hyderabad - TSPCB",24-03-2024 10:00:00,17.540891,78.358528,NH3,2,4,2
India,Telangana,Hyderabad,"Bollaram Industrial Area, Hyderabad - TSPCB",24-03-2024 10:00:00,17.540891,78.358528,CO,14,68,37
India,Telangana,Hyderabad,"ECIL Kapra, Hyderabad - TSPCB",24-03-2024 10:00:00,17.470431,78.566959,PM10,NA,NA,NA
India,Telangana,Hyderabad,"ECIL Kapra, Hyderabad - TSPCB",24-03-2024 10:00:00,17.470431,78.566959,NH3,NA,NA,NA
India,Telangana,Hyderabad,"ICRISAT Patancheru, Hyderabad - TSPCB",24-03-2024 10:00:00,17.518400,78.278777,NO2,16,17,17
India,Telangana,Hyderabad,"ICRISAT Patancheru, Hyderabad - TSPCB",24-03-2024 10:00:00,17.518400,78.278777,NH3,2,2,2
India,Telangana,Hyderabad,"Kokapet, Hyderabad - TSPCB",24-03-2024 10:00:00,17.393559,78.339194,PM2.5,NA,NA,NA
India,Telangana,Hyderabad,"Kokapet, Hyderabad - TSPCB",24-03-2024 10:00:00,17.393559,78.339194,PM10,NA,NA,NA
India,Telangana,Hyderabad,"Kokapet, Hyderabad - TSPCB",24-03-2024 10:00:00,17.393559,78.339194,NH3,NA,NA,NA
India,Telangana,Hyderabad,"Kokapet, Hyderabad - TSPCB",24-03-2024 10:00:00,17.393559,78.339194,CO,NA,NA,NA
India,Telangana,Hyderabad,"Kompally Municipal Office, Hyderabad - TSPCB",24-03-2024 10:00:00,17.544899,78.486949,OZONE,12,138,31
India,Telangana,Hyderabad,"Nacharam_TSIIC IALA, Hyderabad - TSPCB",24-03-2024 10:00:00,17.429398,78.569354,SO2,6,60,20
India,Telangana,Hyderabad,"Nacharam_TSIIC IALA, Hyderabad - TSPCB",24-03-2024 10:00:00,17.429398,78.569354,CO,25,34,28
India,Telangana,Hyderabad,"Nacharam_TSIIC IALA, Hyderabad - TSPCB",24-03-2024 10:00:00,17.429398,78.569354,OZONE,10,37,10
India,Telangana,Hyderabad,"New Malakpet, Hyderabad - TSPCB",24-03-2024 10:00:00,17.37206,78.50864,PM10,60,80,68
India,Telangana,Hyderabad,"New Malakpet, Hyderabad - TSPCB",24-03-2024 10:00:00,17.37206,78.50864,OZONE,7,67,24
India,Telangana,Hyderabad,"Ramachandrapuram, Hyderabad - TSPCB",24-03-2024 10:00:00,17.528544,78.286195,SO2,5,17,12
India,Telangana,Hyderabad,"Sanathnagar, Hyderabad - TSPCB",24-03-2024 10:00:00,17.4559458,78.4332152,CO,28,42,32
India,Telangana,Hyderabad,"Somajiguda, Hyderabad - TSPCB",24-03-2024 10:00:00,17.417094,78.457437,PM2.5,38,80,58
India,Telangana,Hyderabad,"Somajiguda, Hyderabad - TSPCB",24-03-2024 10:00:00,17.417094,78.457437,NO2,19,27,23
India,Tripura,Agartala,"Bardowali, Agartala - Tripura SPCB",24-03-2024 10:00:00,23.8175497,91.2726974,PM2.5,NA,NA,NA
India,Tripura,Agartala,"Bardowali, Agartala - Tripura SPCB",24-03-2024 10:00:00,23.8175497,91.2726974,PM10,NA,NA,NA
India,Tripura,Agartala,"Bardowali, Agartala - Tripura SPCB",24-03-2024 10:00:00,23.8175497,91.2726974,NH3,NA,NA,NA
India,Uttar_Pradesh,Agra,"Manoharpur, Agra - UPPCB",24-03-2024 10:00:00,27.23711,78.01936,SO2,10,17,13
India,Uttar_Pradesh,Agra,"Sanjay Palace, Agra - UPPCB",24-03-2024 10:00:00,27.19865833,78.00598056,PM2.5,10,66,38
India,Uttar_Pradesh,Agra,"Sector-3B Avas Vikas Colony, Agra - UPPCB",24-03-2024 10:00:00,27.19412,77.96237,CO,12,45,30
India,Uttar_Pradesh,Agra,"Shahjahan Garden, Agra - UPPCB",24-03-2024 10:00:00,27.169338,78.03582,SO2,35,67,58
India,Uttar_Pradesh,Agra,"Shastripuram, Agra - UPPCB",24-03-2024 10:00:00,27.19862,77.92066,NO2,37,96,43
India,Uttar_Pradesh,Baghpat,"Sardar Patel Inter College, Baghpat - UPPCB",24-03-2024 10:00:00,28.964949,77.278761,PM10,72,201,114
India,Uttar_Pradesh,Bareilly,"Civil Lines, Bareilly - UPPCB",24-03-2024 10:00:00,28.359581,79.414455,NO2,2,25,8
India,Uttar_Pradesh,Bareilly,"Civil Lines, Bareilly - UPPCB",24-03-2024 10:00:00,28.359581,79.414455,OZONE,NA,NA,NA
India,Uttar_Pradesh,Bareilly,"Rajendra Nagar, Bareilly - UPPCB",24-03-2024 10:00:00,28.38910936,79.42963708,PM2.5,26,42,32
India,Uttar_Pradesh,Bareilly,"Rajendra Nagar, Bareilly - UPPCB",24-03-2024 10:00:00,28.38910936,79.42963708,CO,8,33,22
India,Uttar_Pradesh,Bulandshahr,"Yamunapuram, Bulandshahr - UPPCB",24-03-2024 10:00:00,28.406963,77.849831,NO2,19,102,57
India,Uttar_Pradesh,Firozabad,"Nagla Bhau, Firozabad - UPPCB",24-03-2024 10:00:00,27.168897,78.376960,PM2.5,21,189,67
India,Uttar_Pradesh,Firozabad,"Nagla Bhau, Firozabad - UPPCB",24-03-2024 10:00:00,27.168897,78.376960,CO,22,40,36
India,Uttar_Pradesh,Firozabad,"Vibhab Nagar, Firozabad - UPPCB",24-03-2024 10:00:00,27.1594,78.3953,PM2.5,51,211,85
India,Uttar_Pradesh,Firozabad,"Vibhab Nagar, Firozabad - UPPCB",24-03-2024 10:00:00,27.1594,78.3953,PM10,38,111,59
India,Uttar_Pradesh,Firozabad,"Vibhab Nagar, Firozabad - UPPCB",24-03-2024 10:00:00,27.1594,78.3953,NO2,14,14,14
India,Uttar_Pradesh,Firozabad,"Vibhab Nagar, Firozabad - UPPCB",24-03-2024 10:00:00,27.1594,78.3953,CO,20,34,31
India,Uttar_Pradesh,Ghaziabad,"Indirapuram, Ghaziabad - UPPCB",24-03-2024 10:00:00,28.646233,77.358075,SO2,4,11,7
India,Uttar_Pradesh,Ghaziabad,"Vasundhara, Ghaziabad - UPPCB",24-03-2024 10:00:00,28.6603346,77.3572563,NO2,4,141,80
India,Uttar_Pradesh,Gorakhpur,"Madan Mohan Malaviya University of Technology, Gorakhpur - UPPCB",24-03-2024 10:00:00,26.730136,83.433859,PM2.5,61,297,167
India,Uttar_Pradesh,Gorakhpur,"Madan Mohan Malaviya University of Technology, Gorakhpur - UPPCB",24-03-2024 10:00:00,26.730136,83.433859,PM10,100,154,125
India,Uttar_Pradesh,Gorakhpur,"Madan Mohan Malaviya University of Technology, Gorakhpur - UPPCB",24-03-2024 10:00:00,26.730136,83.433859,NO2,2,2,2
India,Uttar_Pradesh,Gorakhpur,"Madan Mohan Malaviya University of Technology, Gorakhpur - UPPCB",24-03-2024 10:00:00,26.730136,83.433859,SO2,33,40,36
India,Uttar_Pradesh,Greater Noida,"Knowledge Park - III, Greater Noida - UPPCB",24-03-2024 10:00:00,28.47272,77.482000,PM2.5,NA,NA,NA
India,Uttar_Pradesh,Greater Noida,"Knowledge Park - III, Greater Noida - UPPCB",24-03-2024 10:00:00,28.47272,77.482000,NO2,NA,NA,NA
India,Uttar_Pradesh,Hapur,"Anand Vihar, Hapur - UPPCB",24-03-2024 10:00:00,28.725645,77.749675,PM10,59,186,115
India,Uttar_Pradesh,Hapur,"Anand Vihar, Hapur - UPPCB",24-03-2024 10:00:00,28.725645,77.749675,NO2,3,111,56
India,Uttar_Pradesh,Kanpur,"FTI Kidwai Nagar, Kanpur - UPPCB",24-03-2024 10:00:00,26.428282,80.327067,PM10,74,192,123
India,Uttar_Pradesh,Kanpur,"NSI Kalyanpur, Kanpur - UPPCB",24-03-2024 10:00:00,26.509954,80.249612,NH3,1,2,1
India,Uttar_Pradesh,Khurja,"Kalindi Kunj, Khurja - UPPCB",24-03-2024 10:00:00,28.2348927,77.8683002,PM10,38,500,99
India,Uttar_Pradesh,Khurja,"Kalindi Kunj, Khurja - UPPCB",24-03-2024 10:00:00,28.2348927,77.8683002,NH3,1,2,1
India,Uttar_Pradesh,Khurja,"Kalindi Kunj, Khurja - UPPCB",24-03-2024 10:00:00,28.2348927,77.8683002,SO2,40,52,43
India,Uttar_Pradesh,Khurja,"Kalindi Kunj, Khurja - UPPCB",24-03-2024 10:00:00,28.2348927,77.8683002,CO,36,72,57
India,Uttar_Pradesh,Lucknow,"B R Ambedkar University, Lucknow - UPPCB",24-03-2024 10:00:00,26.766433,80.927299,SO2,30,35,32
India,Uttar_Pradesh,Lucknow,"Gomti Nagar, Lucknow - UPPCB",24-03-2024 10:00:00,26.868120,81.005119,NO2,21,27,24
India,Uttar_Pradesh,Lucknow,"Kendriya Vidyalaya, Lucknow - CPCB",24-03-2024 10:00:00,26.906111,80.948222,PM2.5,53,127,84
India,Uttar_Pradesh,Lucknow,"Kendriya Vidyalaya, Lucknow - CPCB",24-03-2024 10:00:00,26.906111,80.948222,NO2,13,69,30
India,Uttar_Pradesh,Lucknow,"Kendriya Vidyalaya, Lucknow - CPCB",24-03-2024 10:00:00,26.906111,80.948222,NH3,4,23,15
India,Uttar_Pradesh,Lucknow,"Kendriya Vidyalaya, Lucknow - CPCB",24-03-2024 10:00:00,26.906111,80.948222,SO2,3,7,6
India,Uttar_Pradesh,Lucknow,"Kendriya Vidyalaya, Lucknow - CPCB",24-03-2024 10:00:00,26.906111,80.948222,OZONE,11,58,21
India,Uttar_Pradesh,Lucknow,"Kukrail Picnic Spot-1, Lucknow - UPPCB",24-03-2024 10:00:00,26.90723,80.98579,OZONE,5,82,14
India,Uttar_Pradesh,Lucknow,"Lalbagh, Lucknow - CPCB",24-03-2024 10:00:00,26.8458805,80.9365541,OZONE,22,76,31
India,Uttar_Pradesh,Lucknow,"Talkatora District Industries Center, Lucknow - CPCB",24-03-2024 10:00:00,26.83399722,80.8917361,PM10,103,161,130
India,Uttar_Pradesh,Lucknow,"Talkatora District Industries Center, Lucknow - CPCB",24-03-2024 10:00:00,26.83399722,80.8917361,SO2,1,17,6
India,Uttar_Pradesh,Lucknow,"Talkatora District Industries Center, Lucknow - CPCB",24-03-2024 10:00:00,26.83399722,80.8917361,CO,11,63,19
India,Uttar_Pradesh,Meerut,"Ganga Nagar, Meerut - UPPCB",24-03-2024 10:00:00,28.999264,77.7590354,PM2.5,17,132,64
India,Uttar_Pradesh,Meerut,"Jai Bhim Nagar, Meerut - UPPCB",24-03-2024 10:00:00,28.9535882,77.7622941,PM10,63,132,95
India,Uttar_Pradesh,Meerut,"Jai Bhim Nagar, Meerut - UPPCB",24-03-2024 10:00:00,28.9535882,77.7622941,OZONE,13,89,26
India,Uttar_Pradesh,Meerut,"Pallavpuram Phase 2, Meerut - UPPCB",24-03-2024 10:00:00,29.063510,77.709723,PM2.5,27,210,88
India,Uttar_Pradesh,Meerut,"Pallavpuram Phase 2, Meerut - UPPCB",24-03-2024 10:00:00,29.063510,77.709723,PM10,85,162,124
India,Uttar_Pradesh,Moradabad,"Buddhi Vihar, Moradabad - UPPCB",24-03-2024 10:00:00,28.83526,78.74460,OZONE,12,40,15
India,Uttar_Pradesh,Moradabad,"Employment Office, Moradabad - UPPCB",24-03-2024 10:00:00,28.88528,78.73880,NH3,3,4,4
India,Uttar_Pradesh,Moradabad,"Employment Office, Moradabad - UPPCB",24-03-2024 10:00:00,28.88528,78.73880,OZONE,13,302,14
India,Uttar_Pradesh,Moradabad,"Jigar Colony, Moradabad - UPPCB",24-03-2024 10:00:00,28.856664,78.772638,PM2.5,35,144,66
India,Uttar_Pradesh,Moradabad,"Jigar Colony, Moradabad - UPPCB",24-03-2024 10:00:00,28.856664,78.772638,NH3,5,6,5
India,Uttar_Pradesh,Moradabad,"Jigar Colony, Moradabad - UPPCB",24-03-2024 10:00:00,28.856664,78.772638,SO2,18,25,20
India,Uttar_Pradesh,Moradabad,"Jigar Colony, Moradabad - UPPCB",24-03-2024 10:00:00,28.856664,78.772638,OZONE,20,31,21
India,Uttar_Pradesh,Moradabad,"Transport Nagar, Moradabad - UPPCB",24-03-2024 10:00:00,28.802625,78.753728,PM10,74,126,95
India,Uttar_Pradesh,Muzaffarnagar,"New Mandi, Muzaffarnagar - UPPCB",24-03-2024 10:00:00,29.4723508,77.7194031,PM10,116,409,160
India,Uttar_Pradesh,Noida,"Sector - 125, Noida - UPPCB",24-03-2024 10:00:00,28.5447608,77.3231257,NO2,18,237,112
India,Uttar_Pradesh,Noida,"Sector-1, Noida - UPPCB",24-03-2024 10:00:00,28.5898,77.3101,NH3,2,5,3
India,Uttar_Pradesh,Noida,"Sector-116, Noida - UPPCB",24-03-2024 10:00:00,28.569230,77.393848,NO2,18,115,60
India,Uttar_Pradesh,Noida,"Sector-116, Noida - UPPCB",24-03-2024 10:00:00,28.569230,77.393848,NH3,8,17,12
India,Uttar_Pradesh,Prayagraj,"Jhunsi, Prayagraj - UPPCB",24-03-2024 10:00:00,25.425602,81.917152,PM10,50,159,96
India,Uttar_Pradesh,Prayagraj,"Jhunsi, Prayagraj - UPPCB",24-03-2024 10:00:00,25.425602,81.917152,CO,8,46,23
India,Uttar_Pradesh,Prayagraj,"Motilal Nehru NIT, Prayagraj - UPPCB",24-03-2024 10:00:00,25.494,81.863,PM10,49,292,108
India,Uttar_Pradesh,Prayagraj,"Nagar Nigam, Prayagraj - UPPCB",24-03-2024 10:00:00,25.44919916 ,81.82735986 ,PM10,50,169,102
India,Uttar_Pradesh,Prayagraj,"Nagar Nigam, Prayagraj - UPPCB",24-03-2024 10:00:00,25.44919916 ,81.82735986 ,NO2,5,5,5
India,Uttar_Pradesh,Prayagraj,"Nagar Nigam, Prayagraj - UPPCB",24-03-2024 10:00:00,25.44919916 ,81.82735986 ,SO2,36,103,63
India,Uttar_Pradesh,Varanasi,"Ardhali Bazar, Varanasi - UPPCB",24-03-2024 10:00:00,25.3505986,82.9083074,CO,4,18,11
India,Uttar_Pradesh,Varanasi,"Bhelupur, Varanasi - UPPCB",24-03-2024 10:00:00,25.301778,82.996789,NO2,8,8,8
India,Uttar_Pradesh,Varanasi,"Bhelupur, Varanasi - UPPCB",24-03-2024 10:00:00,25.301778,82.996789,CO,18,118,33
India,Uttar_Pradesh,Varanasi,"Maldahiya, Varanasi - UPPCB",24-03-2024 10:00:00,25.32393,82.99687,CO,8,104,30
India,Uttarakhand,Dehradun,"Doon University, Dehradun - UKPCB",24-03-2024 10:00:00,30.269444,78.044167,PM2.5,36,89,64
India,Uttarakhand,Dehradun,"Doon University, Dehradun - UKPCB",24-03-2024 10:00:00,30.269444,78.044167,PM10,61,131,92
India,Uttarakhand,Dehradun,"Doon University, Dehradun - UKPCB",24-03-2024 10:00:00,30.269444,78.044167,CO,36,49,42
India,Uttarakhand,Kashipur,"Govt. Girls Inter College, Kashipur - UKPCB",24-03-2024 10:00:00,29.2124114,78.9611753,SO2,8,9,8
India,Uttarakhand,Kashipur,"Govt. Girls Inter College, Kashipur - UKPCB",24-03-2024 10:00:00,29.2124114,78.9611753,CO,24,62,36
India,Uttarakhand,Rishikesh,"Shivaji Nagar, Rishikesh - UKPCB",24-03-2024 10:00:00,30.075911,78.2859547,PM10,51,98,75
India,Uttarakhand,Rishikesh,"Shivaji Nagar, Rishikesh - UKPCB",24-03-2024 10:00:00,30.075911,78.2859547,CO,14,49,22
India,West_Bengal,Asansol,"Asansol Court Area, Asansol - WBPCB",24-03-2024 10:00:00,23.685297,86.945968,OZONE,10,34,12
India,West_Bengal,Durgapur,"Sidhu Kanhu Indoor Stadium, Durgapur - WBPCB",24-03-2024 10:00:00,23.5404352,87.2892225,SO2,19,51,28
India,West_Bengal,Haldia,"Priyambada Housing Estate, Haldia - WBPCB",24-03-2024 10:00:00,22.06047,88.109737,PM10,19,76,46
India,West_Bengal,Haldia,"Priyambada Housing Estate, Haldia - WBPCB",24-03-2024 10:00:00,22.06047,88.109737,NO2,10,25,13
India,West_Bengal,Howrah,"Belur Math, Howrah - WBPCB",24-03-2024 10:00:00,22.629801,88.352017,PM2.5,30,80,59
India,West_Bengal,Howrah,"Padmapukur, Howrah - WBPCB",24-03-2024 10:00:00,22.5687319,88.2797276,PM2.5,35,82,60
India,West_Bengal,Howrah,"Padmapukur, Howrah - WBPCB",24-03-2024 10:00:00,22.5687319,88.2797276,PM10,41,92,71
India,West_Bengal,Kolkata,"Ballygunge, Kolkata - WBPCB",24-03-2024 10:00:00,22.5367507,88.3638022,NH3,4,5,5
India,West_Bengal,Kolkata,"Ballygunge, Kolkata - WBPCB",24-03-2024 10:00:00,22.5367507,88.3638022,OZONE,12,43,13
India,West_Bengal,Kolkata,"Bidhannagar, Kolkata - WBPCB",24-03-2024 10:00:00,22.58157048,88.41002457,PM2.5,35,73,55
India,West_Bengal,Kolkata,"Bidhannagar, Kolkata - WBPCB",24-03-2024 10:00:00,22.58157048,88.41002457,OZONE,19,129,23
India,West_Bengal,Kolkata,"Fort William, Kolkata - WBPCB",24-03-2024 10:00:00,22.556640,88.342674,NO2,13,42,24
India,West_Bengal,Kolkata,"Rabindra Sarobar, Kolkata - WBPCB",24-03-2024 10:00:00,22.51106,88.35142,NH3,3,6,4
India,West_Bengal,Kolkata,"Victoria, Kolkata - WBPCB",24-03-2024 10:00:00,22.5448082,88.3403691,PM2.5,28,77,50
India,West_Bengal,Siliguri,"Ward-32 Bapupara, Siliguri - WBPCB",24-03-2024 10:00:00,26.6879226,88.4152495,OZONE,14,36,17
India,Andhra_Pradesh,Amaravati,"Secretariat, Amaravati - APPCB",24-03-2024 10:00:00,16.5150833,80.5181667,PM2.5,22,35,29
India,Andhra_Pradesh,Amaravati,"Secretariat, Amaravati - APPCB",24-03-2024 10:00:00,16.5150833,80.5181667,CO,4,123,43
India,Andhra_Pradesh,Amaravati,"Secretariat, Amaravati - APPCB",24-03-2024 10:00:00,16.5150833,80.5181667,OZONE,5,59,11
India,Andhra_Pradesh,Chittoor,"Gangineni Cheruvu, Chittoor - APPCB",24-03-2024 10:00:00,13.204880,79.097889,PM10,11,67,41
India,Andhra_Pradesh,Chittoor,"Gangineni Cheruvu, Chittoor - APPCB",24-03-2024 10:00:00,13.204880,79.097889,NH3,1,2,1
India,Andhra_Pradesh,Chittoor,"Gangineni Cheruvu, Chittoor - APPCB",24-03-2024 10:00:00,13.204880,79.097889,SO2,4,18,9
India,Andhra_Pradesh,Kadapa,"Yerramukkapalli, Kadapa - APPCB",24-03-2024 10:00:00,14.465052,78.824187,PM10,12,207,59
India,Andhra_Pradesh,Tirupati,"Tirumala, Tirupati - APPCB",24-03-2024 10:00:00,13.67,79.35,SO2,1,11,6
India,Andhra_Pradesh,Tirupati,"Vaikuntapuram, Tirupati - APPCB",24-03-2024 10:00:00,13.615387,79.409230,NO2,15,27,19
India,Andhra_Pradesh,Vijayawada,"HB Colony, Vijayawada - APPCB",24-03-2024 10:00:00,16.536107,80.594233,NH3,4,4,4
India,Andhra_Pradesh,Vijayawada,"Kanuru, Vijayawada - APPCB",24-03-2024 10:00:00,16.486692,80.699436,NO2,14,17,15
India,Andhra_Pradesh,Vijayawada,"Kanuru, Vijayawada - APPCB",24-03-2024 10:00:00,16.486692,80.699436,CO,22,22,22
India,Andhra_Pradesh,Vijayawada,"Rajiv Gandhi Park, Vijayawada - APPCB",24-03-2024 10:00:00,16.509717,80.612222,SO2,3,7,5
India,Andhra_Pradesh,Visakhapatnam,"GVM Corporation, Visakhapatnam - APPCB",24-03-2024 10:00:00,17.72,83.3,NO2,33,47,42
India,Andhra_Pradesh,Visakhapatnam,"GVM Corporation, Visakhapatnam - APPCB",24-03-2024 10:00:00,17.72,83.3,CO,8,92,20
India,Arunachal_Pradesh,Naharlagun,"Naharlagun, Naharlagun - APSPCB",24-03-2024 10:00:00,27.103358,93.679645,PM2.5,14,60,35
India,Arunachal_Pradesh,Naharlagun,"Naharlagun, Naharlagun - APSPCB",24-03-2024 10:00:00,27.103358,93.679645,PM10,15,58,35
India,Arunachal_Pradesh,Naharlagun,"Naharlagun, Naharlagun - APSPCB",24-03-2024 10:00:00,27.103358,93.679645,OZONE,2,2,2
India,Assam,Byrnihat,"Central Academy for SFS, Byrnihat - PCBA",24-03-2024 10:00:00,26.071318,91.87488,OZONE,7,22,18
India,Assam,Guwahati,"IITG, Guwahati - PCBA",24-03-2024 10:00:00,26.2028636,91.70046436,OZONE,4,28,9
India,Assam,Guwahati,"LGBI Airport, Guwahati - PCBA",24-03-2024 10:00:00,26.10887,91.589544,CO,5,151,138
India,Assam,Nagaon,"Christianpatty, Nagaon - PCBA",24-03-2024 10:00:00,26.349082,92.68449,PM10,2,23,12
India,Assam,Nagaon,"Christianpatty, Nagaon - PCBA",24-03-2024 10:00:00,26.349082,92.68449,CO,18,46,29
India,Assam,Nalbari,"Bata Chowk, Nalbari - PCBA",24-03-2024 10:00:00,26.446912,91.439057,CO,84,102,95
India,Assam,Silchar,"Tarapur, Silchar - PCBA",24-03-2024 10:00:00,24.82827,92.79525,OZONE,3,3,3
India,Assam,Sivasagar,"Girls College, Sivasagar - PCBA",24-03-2024 10:00:00,26.987634,94.636574,NO2,11,17,13
India,Assam,Sivasagar,"Girls College, Sivasagar - PCBA",24-03-2024 10:00:00,26.987634,94.636574,NH3,2,2,2
India,Bihar,Araria,"Kharahiya Basti, Araria - BSPCB",24-03-2024 10:00:00,26.146529,87.454184,PM10,NA,NA,NA
India,Bihar,Aurangabad,"Gurdeo Nagar, Aurangabad - BSPCB",24-03-2024 10:00:00,24.75746,84.366208,PM2.5,NA,NA,NA
India,Bihar,Aurangabad,"Gurdeo Nagar, Aurangabad - BSPCB",24-03-2024 10:00:00,24.75746,84.366208,PM10,NA,NA,NA
India,Bihar,Bettiah,"Kamalnath Nagar, Bettiah - BSPCB",24-03-2024 10:00:00,26.80365,84.51954,PM10,107,139,122
India,Bihar,Buxar,"Charitra Van, Buxar - BSPCB (Formerly known as Central Jail)",24-03-2024 10:00:00,25.567520,83.966379,NO2,28,153,76
India,Bihar,Buxar,"Charitra Van, Buxar - BSPCB (Formerly known as Central Jail)",24-03-2024 10:00:00,25.567520,83.966379,OZONE,7,233,49
India,Bihar,Chhapra,"Darshan Nagar, Chhapra - BSPCB",24-03-2024 10:00:00,25.7808257,84.7446768,PM10,69,281,147
India,Bihar,Chhapra,"Darshan Nagar, Chhapra - BSPCB",24-03-2024 10:00:00,25.7808257,84.7446768,NO2,15,29,22
India,Bihar,Chhapra,"Darshan Nagar, Chhapra - BSPCB",24-03-2024 10:00:00,25.7808257,84.7446768,NH3,7,18,12
India,Bihar,Gaya,"Collectorate, Gaya - BSPCB",24-03-2024 10:00:00,24.7955,84.9994,OZONE,50,83,59
India,Bihar,Gaya,"Kareemganj, Gaya - BSPCB",24-03-2024 10:00:00,24.792403,84.992416,CO,8,112,38
India,Bihar,Gaya,"Kareemganj, Gaya - BSPCB",24-03-2024 10:00:00,24.792403,84.992416,OZONE,2,39,19
India,Bihar,Gaya,"SFTI Kusdihra, Gaya - BSPCB",24-03-2024 10:00:00,24.762518,84.982348,NH3,1,4,2
India,Bihar,Hajipur,"Industrial Area, Hajipur - BSPCB",24-03-2024 10:00:00,25.697189,85.245900,NH3,4,8,6
India,Bihar,Hajipur,"Industrial Area, Hajipur - BSPCB",24-03-2024 10:00:00,25.697189,85.245900,CO,24,49,44
India,Bihar,Katihar,"Mirchaibari, Katihar - BSPCB",24-03-2024 10:00:00,25.560083,87.553265,PM2.5,32,72,44
India,Bihar,Katihar,"Mirchaibari, Katihar - BSPCB",24-03-2024 10:00:00,25.560083,87.553265,OZONE,10,15,12
India,Bihar,Kishanganj,"SDM Office_Khagra, Kishanganj - BSPCB",24-03-2024 10:00:00,26.0881305,87.93840336,PM2.5,NA,NA,NA
India,Bihar,Kishanganj,"SDM Office_Khagra, Kishanganj - BSPCB",24-03-2024 10:00:00,26.0881305,87.93840336,NH3,12,13,13
India,Bihar,Manguraha,"Forest Rest House, Manguraha - BSPCB",24-03-2024 10:00:00,27.308328,84.531742,PM10,45,92,62
India,Bihar,Manguraha,"Forest Rest House, Manguraha - BSPCB",24-03-2024 10:00:00,27.308328,84.531742,OZONE,13,43,18
India,Bihar,Motihari,"Gandak Colony, Motihari - BSPCB",24-03-2024 10:00:00,26.63086,84.90051,SO2,NA,NA,NA
India,Bihar,Muzaffarpur,"Buddha Colony, Muzaffarpur - BSPCB",24-03-2024 10:00:00,26.11442,85.39813,NH3,16,38,20
India,Bihar,Muzaffarpur,"MIT-Daudpur Kothi, Muzaffarpur - BSPCB",24-03-2024 10:00:00,26.1403345,85.3650192,SO2,7,12,10
India,Bihar,Patna,"DRM Office Danapur, Patna - BSPCB",24-03-2024 10:00:00,25.586562,85.043586,SO2,6,8,7
India,Bihar,Patna,"Govt. High School Shikarpur, Patna - BSPCB",24-03-2024 10:00:00,25.592539,85.227158,NH3,5,5,5
India,Bihar,Patna,"Govt. High School Shikarpur, Patna - BSPCB",24-03-2024 10:00:00,25.592539,85.227158,SO2,9,17,10
India,Bihar,Patna,"Govt. High School Shikarpur, Patna - BSPCB",24-03-2024 10:00:00,25.592539,85.227158,OZONE,1,59,5
India,Bihar,Patna,"Samanpura, Patna - BSPCB",24-03-2024 10:00:00,25.596727,85.085624,CO,36,106,70
India,Bihar,Saharsa,"Police Line, Saharsa - BSPCB",24-03-2024 10:00:00,25.892357,86.590325,OZONE,8,55,20
India,Bihar,Samastipur,"DM Office_Kasipur, Samastipur - BSPCB",24-03-2024 10:00:00,25.859655,85.77944,SO2,11,14,12
India,Bihar,Siwan,"Chitragupta Nagar, Siwan - BSPCB",24-03-2024 10:00:00,26.2271665,84.3570427,OZONE,4,105,21
India,Chandigarh,Chandigarh,"Sector 22, Chandigarh - CPCC",24-03-2024 10:00:00,30.735567,76.775714,OZONE,36,127,48
India,Chandigarh,Chandigarh,"Sector-25, Chandigarh - CPCC",24-03-2024 10:00:00,30.751462,76.762879,PM2.5,96,162,120
India,Chandigarh,Chandigarh,"Sector-25, Chandigarh - CPCC",24-03-2024 10:00:00,30.751462,76.762879,NH3,14,22,16
India,Chandigarh,Chandigarh,"Sector-25, Chandigarh - CPCC",24-03-2024 10:00:00,30.751462,76.762879,SO2,5,13,10
India,Chandigarh,Chandigarh,"Sector-53, Chandigarh - CPCC",24-03-2024 10:00:00,30.719859,76.738637,NO2,8,68,26
India,Chandigarh,Chandigarh,"Sector-53, Chandigarh - CPCC",24-03-2024 10:00:00,30.719859,76.738637,OZONE,12,50,26
India,Chhattisgarh,Bhilai,"Civic Center, Bhilai - Bhilai Steel Plant",24-03-2024 10:00:00,21.185571,81.343175,PM10,34,85,56
India,Chhattisgarh,Bilaspur,"Mangala, Bilaspur - NTPC",24-03-2024 10:00:00,22.08815,82.13737,PM10,44,121,74
India,Chhattisgarh,Chhal,"Nawapara SECL Colony, Chhal - CECB",24-03-2024 10:00:00,22.118125,83.140608,NH3,2,2,2
India,Chhattisgarh,Chhal,"Nawapara SECL Colony, Chhal - CECB",24-03-2024 10:00:00,22.118125,83.140608,CO,28,99,38
India,Chhattisgarh,Korba,"Rampur, Korba - CECB",24-03-2024 10:00:00,22.368195,82.746431,PM10,48,177,83
India,Chhattisgarh,Korba,"Rampur, Korba - CECB",24-03-2024 10:00:00,22.368195,82.746431,CO,15,34,30
India,Chhattisgarh,Korba,"Rampur, Korba - CECB",24-03-2024 10:00:00,22.368195,82.746431,OZONE,1,55,3
India,Chhattisgarh,Korba,"Urja Nagar, Korba - CECB",24-03-2024 10:00:00,22.348441,82.549611,CO,17,84,64
India,Chhattisgarh,Kunjemura,"OP Jindal School, Kunjemura - CECB",24-03-2024 10:00:00,22.126650,83.483212,NO2,20,112,55
India,Chhattisgarh,Kunjemura,"OP Jindal School, Kunjemura - CECB",24-03-2024 10:00:00,22.126650,83.483212,CO,24,85,53
India,Chhattisgarh,Kunjemura,"OP Jindal School, Kunjemura - CECB",24-03-2024 10:00:00,22.126650,83.483212,OZONE,4,88,7
India,Chhattisgarh,Milupara,"Govt. Higher Secondary School, Milupara - CECB",24-03-2024 10:00:00,22.1910172,83.5197009,PM10,36,174,75
India,Chhattisgarh,Milupara,"Govt. Higher Secondary School, Milupara - CECB",24-03-2024 10:00:00,22.1910172,83.5197009,NO2,20,80,36
India,Chhattisgarh,Milupara,"Govt. Higher Secondary School, Milupara - CECB",24-03-2024 10:00:00,22.1910172,83.5197009,CO,16,92,29
India,Chhattisgarh,Raipur,"AIIMS, Raipur - CECB",24-03-2024 10:00:00,21.258815,81.578979,PM10,29,154,68
India,Chhattisgarh,Raipur,"AIIMS, Raipur - CECB",24-03-2024 10:00:00,21.258815,81.578979,NO2,40,84,68
India,Chhattisgarh,Raipur,"Bhatagaon New ISBT, Raipur - CECB",24-03-2024 10:00:00,21.219665,81.630094,OZONE,3,13,3
India,Chhattisgarh,Raipur,"Krishak Nagar, Raipur - CECB",24-03-2024 10:00:00,21.237755,81.705301,PM2.5,40,67,50
India,Chhattisgarh,Raipur,"Krishak Nagar, Raipur - CECB",24-03-2024 10:00:00,21.237755,81.705301,CO,30,49,41
India,Chhattisgarh,Raipur,"Siltara Phase-II, Raipur - CECB",24-03-2024 10:00:00,21.371751,81.664929,NH3,3,3,3
India,Chhattisgarh,Raipur,"Siltara Phase-II, Raipur - CECB",24-03-2024 10:00:00,21.371751,81.664929,SO2,10,56,20
India,Chhattisgarh,Raipur,"Siltara Phase-II, Raipur - CECB",24-03-2024 10:00:00,21.371751,81.664929,CO,18,84,66
India,Chhattisgarh,Raipur,"Siltara Phase-II, Raipur - CECB",24-03-2024 10:00:00,21.371751,81.664929,OZONE,3,28,3
India,Chhattisgarh,Tumidih,"OP Jindal Industrial Park, Tumidih - CECB",24-03-2024 10:00:00,22.06631475,83.33820077,PM10,45,439,145
India,Delhi,Delhi,"Alipur, Delhi - DPCC",24-03-2024 10:00:00,28.815329,77.153010,PM10,77,329,171
India,Delhi,Delhi,"Alipur, Delhi - DPCC",24-03-2024 10:00:00,28.815329,77.153010,NO2,4,91,37
India,Delhi,Delhi,"Alipur, Delhi - DPCC",24-03-2024 10:00:00,28.815329,77.153010,SO2,10,56,20
India,Delhi,Delhi,"Anand Vihar, Delhi - DPCC",24-03-2024 10:00:00,28.647622,77.3158090,CO,80,114,89
India,Delhi,Delhi,"Ashok Vihar, Delhi - DPCC",24-03-2024 10:00:00,28.695381,77.181665,PM2.5,40,342,163
India,Delhi,Delhi,"Ashok Vihar, Delhi - DPCC",24-03-2024 10:00:00,28.695381,77.181665,NH3,14,16,15
India,Delhi,Delhi,"Aya Nagar, Delhi - IMD",24-03-2024 10:00:00,28.4706914,77.1099364,NO2,17,23,20
India,Delhi,Delhi,"Burari Crossing, Delhi - IMD",24-03-2024 10:00:00,28.7256504,77.2011573,NO2,4,10,6
India,Delhi,Delhi,"CRRI Mathura Road, Delhi - IMD",24-03-2024 10:00:00,28.5512005,77.2735737,PM2.5,42,257,150
India,Delhi,Delhi,"CRRI Mathura Road, Delhi - IMD",24-03-2024 10:00:00,28.5512005,77.2735737,PM10,67,176,123
India,Delhi,Delhi,"DTU, Delhi - CPCB",24-03-2024 10:00:00,28.7500499,77.1112615,PM2.5,62,346,196
India,Delhi,Delhi,"Dr. Karni Singh Shooting Range, Delhi - DPCC",24-03-2024 10:00:00,28.498571,77.264840,PM10,94,189,144
India,Delhi,Delhi,"Dr. Karni Singh Shooting Range, Delhi - DPCC",24-03-2024 10:00:00,28.498571,77.264840,NH3,7,10,8
India,Delhi,Delhi,"Dwarka-Sector 8, Delhi - DPCC ",24-03-2024 10:00:00,28.5710274,77.0719006,NO2,6,54,27
India,Delhi,Delhi,"IGI Airport (T3), Delhi - IMD",24-03-2024 10:00:00,28.5627763,77.1180053,PM10,76,190,131
India,Delhi,Delhi,"IGI Airport (T3), Delhi - IMD",24-03-2024 10:00:00,28.5627763,77.1180053,NO2,19,58,41
India,Delhi,Delhi,"IGI Airport (T3), Delhi - IMD",24-03-2024 10:00:00,28.5627763,77.1180053,CO,12,62,49
India,Delhi,Delhi,"IHBAS, Dilshad Garden, Delhi - CPCB",24-03-2024 10:00:00,28.6811736,77.3025234,NH3,1,7,4
India,Delhi,Delhi,"IHBAS, Dilshad Garden, Delhi - CPCB",24-03-2024 10:00:00,28.6811736,77.3025234,OZONE,9,52,11
India,Delhi,Delhi,"ITO, Delhi - CPCB",24-03-2024 10:00:00,28.628624,77.241060,CO,24,108,53
India,Delhi,Delhi,"ITO, Delhi - CPCB",24-03-2024 10:00:00,28.628624,77.241060,OZONE,17,68,18
India,Delhi,Delhi,"Jahangirpuri, Delhi - DPCC",24-03-2024 10:00:00,28.732820,77.170633,CO,31,146,78
India,Delhi,Delhi,"Jawaharlal Nehru Stadium, Delhi - DPCC",24-03-2024 10:00:00,28.580280,77.233829,PM2.5,22,277,105
India,Delhi,Delhi,"Jawaharlal Nehru Stadium, Delhi - DPCC",24-03-2024 10:00:00,28.580280,77.233829,NO2,26,133,84
India,Delhi,Delhi,"Jawaharlal Nehru Stadium, Delhi - DPCC",24-03-2024 10:00:00,28.580280,77.233829,SO2,13,62,30
India,Delhi,Delhi,"Lodhi Road, Delhi - IITM",24-03-2024 10:00:00,28.588333,77.221667,NO2,66,122,92
India,Delhi,Delhi,"Lodhi Road, Delhi - IMD",24-03-2024 10:00:00,28.5918245,77.2273074,CO,16,40,29
India,Delhi,Delhi,"Lodhi Road, Delhi - IMD",24-03-2024 10:00:00,28.5918245,77.2273074,OZONE,8,37,9
India,Delhi,Delhi,"Major Dhyan Chand National Stadium, Delhi - DPCC",24-03-2024 10:00:00,28.611281,77.237738,PM2.5,45,315,154
India,Delhi,Delhi,"Major Dhyan Chand National Stadium, Delhi - DPCC",24-03-2024 10:00:00,28.611281,77.237738,PM10,71,197,136
India,Delhi,Delhi,"Major Dhyan Chand National Stadium, Delhi - DPCC",24-03-2024 10:00:00,28.611281,77.237738,SO2,6,22,12
India,Delhi,Delhi,"Major Dhyan Chand National Stadium, Delhi - DPCC",24-03-2024 10:00:00,28.611281,77.237738,CO,24,114,76
India,Delhi,Delhi,"Mundka, Delhi - DPCC",24-03-2024 10:00:00,28.684678,77.076574,PM10,149,436,273
India,Delhi,Delhi,"Mundka, Delhi - DPCC",24-03-2024 10:00:00,28.684678,77.076574,SO2,6,104,34
India,Delhi,Delhi,"NSIT Dwarka, Delhi - CPCB",24-03-2024 10:00:00,28.60909,77.0325413,OZONE,4,46,7
India,Delhi,Delhi,"Najafgarh, Delhi - DPCC",24-03-2024 10:00:00,28.570173,76.933762,NH3,12,13,13
India,Delhi,Delhi,"Narela, Delhi - DPCC",24-03-2024 10:00:00,28.822836,77.101981,NH3,7,12,10
India,Delhi,Delhi,"Narela, Delhi - DPCC",24-03-2024 10:00:00,28.822836,77.101981,CO,35,97,78
India,Delhi,Delhi,"Nehru Nagar, Delhi - DPCC",24-03-2024 10:00:00,28.567890,77.250515,PM2.5,47,340,162
India,Delhi,Delhi,"Nehru Nagar, Delhi - DPCC",24-03-2024 10:00:00,28.567890,77.250515,CO,16,112,68
India,Delhi,Delhi,"New Moti Bagh, Delhi - MHUA",24-03-2024 10:00:00,28.57834,77.18400,NO2,1,18,4
India,Delhi,Delhi,"North Campus, DU, Delhi - IMD",24-03-2024 10:00:00,28.6573814,77.1585447,NO2,13,37,27
India,Delhi,Delhi,"North Campus, DU, Delhi - IMD",24-03-2024 10:00:00,28.6573814,77.1585447,CO,1,108,43
India,Delhi,Delhi,"North Campus, DU, Delhi - IMD",24-03-2024 10:00:00,28.6573814,77.1585447,OZONE,1,26,2
India,Delhi,Delhi,"Patparganj, Delhi - DPCC",24-03-2024 10:00:00,28.623763,77.287209,NH3,6,10,8
India,Delhi,Delhi,"Punjabi Bagh, Delhi - DPCC",24-03-2024 10:00:00,28.674045,77.131023,PM2.5,38,376,191
India,Delhi,Delhi,"Pusa, Delhi - DPCC",24-03-2024 10:00:00,28.639652,77.146275,PM2.5,43,308,138
India,Delhi,Delhi,"Pusa, Delhi - IMD",24-03-2024 10:00:00,28.636110,77.173332,OZONE,1,17,1
India,Delhi,Delhi,"R K Puram, Delhi - DPCC",24-03-2024 10:00:00,28.563262,77.186937,PM10,87,247,161
India,Delhi,Delhi,"R K Puram, Delhi - DPCC",24-03-2024 10:00:00,28.563262,77.186937,SO2,2,39,20
India,Delhi,Delhi,"Shadipur, Delhi - CPCB",24-03-2024 10:00:00,28.6514781,77.1473105,NO2,37,52,45
India,Delhi,Delhi,"Shadipur, Delhi - CPCB",24-03-2024 10:00:00,28.6514781,77.1473105,SO2,7,16,13
India,Delhi,Delhi,"Sirifort, Delhi - CPCB",24-03-2024 10:00:00,28.5504249,77.2159377,SO2,39,48,42
India,Delhi,Delhi,"Sirifort, Delhi - CPCB",24-03-2024 10:00:00,28.5504249,77.2159377,CO,5,92,62
India,Delhi,Delhi,"Sonia Vihar, Delhi - DPCC",24-03-2024 10:00:00,28.710508,77.249485,OZONE,11,45,14
India,Delhi,Delhi,"Vivek Vihar, Delhi - DPCC",24-03-2024 10:00:00,28.672342,77.315260,PM2.5,50,341,187
India,Delhi,Delhi,"Vivek Vihar, Delhi - DPCC",24-03-2024 10:00:00,28.672342,77.315260,CO,30,98,39
India,Delhi,Delhi,"Wazirpur, Delhi - DPCC",24-03-2024 10:00:00,28.699793,77.165453,NO2,48,195,117
India,Gujarat,Ahmedabad,"Gyaspur, Ahmedabad - IITM",24-03-2024 10:00:00,22.977134,72.553024,SO2,4,5,4
India,Gujarat,Ahmedabad,"Raikhad, Ahmedabad - IITM",24-03-2024 10:00:00,23.020509,72.579261,NH3,1,6,4
India,Gujarat,Ahmedabad,"Raikhad, Ahmedabad - IITM",24-03-2024 10:00:00,23.020509,72.579261,OZONE,7,37,10
India,Gujarat,Ahmedabad,"SVPI Airport Hansol, Ahmedabad - IITM",24-03-2024 10:00:00,23.076793,72.627874,PM2.5,38,65,55
India,Gujarat,Ankleshwar,"GIDC, Ankleshwar - GPCB",24-03-2024 10:00:00,21.613267,73.010555,PM2.5,50,111,66
India,Gujarat,Gandhinagar,"GIFT City, Gandhinagar - IITM",24-03-2024 10:00:00,23.163798,72.677768,CO,8,19,11
India,Gujarat,Gandhinagar,"IIPHG Lekawada, Gandhinagar - IITM",24-03-2024 10:00:00,23.243639,72.68994,PM10,47,94,75
India,Gujarat,Gandhinagar,"Sector-10, Gandhinagar - GPCB",24-03-2024 10:00:00,23.221714,72.654328,NH3,1,2,2
India,Gujarat,Gandhinagar,"Sector-10, Gandhinagar - GPCB",24-03-2024 10:00:00,23.221714,72.654328,OZONE,2,14,2
India,Gujarat,Surat,"Science Center, Surat - SMC",24-03-2024 10:00:00,21.170046,72.795405,PM10,13,62,35
India,Haryana,Ambala,"Patti Mehar, Ambala - HSPCB",24-03-2024 10:00:00,30.379589,76.778328,NH3,5,12,8
India,Haryana,Bahadurgarh,"Arya Nagar, Bahadurgarh - HSPCB",24-03-2024 10:00:00,28.6701,76.9254,NH3,NA,NA,NA
India,Haryana,Ballabgarh,"Nathu Colony, Ballabgarh - HSPCB",24-03-2024 10:00:00,28.3419248,77.319699,OZONE,2,27,5
India,Haryana,Bhiwani,"H.B. Colony, Bhiwani - HSPCB",24-03-2024 10:00:00,28.806223,76.141105,NO2,5,12,9
India,Haryana,Bhiwani,"H.B. Colony, Bhiwani - HSPCB",24-03-2024 10:00:00,28.806223,76.141105,SO2,1,11,4
India,Haryana,Charkhi Dadri,"Mini Secretariat, Charkhi Dadri - HSPCB",24-03-2024 10:00:00,28.593883,76.270653,NO2,14,23,18
India,Haryana,Charkhi Dadri,"Mini Secretariat, Charkhi Dadri - HSPCB",24-03-2024 10:00:00,28.593883,76.270653,NH3,6,8,7
India,Haryana,Charkhi Dadri,"Mini Secretariat, Charkhi Dadri - HSPCB",24-03-2024 10:00:00,28.593883,76.270653,SO2,10,41,20
India,Haryana,Charkhi Dadri,"Mini Secretariat, Charkhi Dadri - HSPCB",24-03-2024 10:00:00,28.593883,76.270653,OZONE,13,17,15
India,Haryana,Faridabad,"Sector 11, Faridabad - HSPCB",24-03-2024 10:00:00,28.376058,77.315741,CO,30,66,55
India,Haryana,Faridabad,"Sector 30, Faridabad - HSPCB",24-03-2024 10:00:00,28.4417,77.3217,PM10,139,149,143
India,Haryana,Faridabad,"Sector 30, Faridabad - HSPCB",24-03-2024 10:00:00,28.4417,77.3217,NH3,9,9,9
India,Haryana,Fatehabad,"Huda Sector, Fatehabad - HSPCB",24-03-2024 10:00:00,29.503664,75.467934,NO2,37,38,38
India,Haryana,Fatehabad,"Huda Sector, Fatehabad - HSPCB",24-03-2024 10:00:00,29.503664,75.467934,CO,5,12,8
India,Haryana,Gurugram,"Sector-51, Gurugram - HSPCB",24-03-2024 10:00:00,28.4227,77.0667,PM2.5,102,312,210
India,Haryana,Gurugram,"Sector-51, Gurugram - HSPCB",24-03-2024 10:00:00,28.4227,77.0667,NO2,13,29,23
India,Haryana,Gurugram,"Sector-51, Gurugram - HSPCB",24-03-2024 10:00:00,28.4227,77.0667,NH3,6,14,9
India,Haryana,Gurugram,"Teri Gram, Gurugram - HSPCB",24-03-2024 10:00:00,28.4275,77.1465,NO2,24,49,39
India,Haryana,Kaithal,"Rishi Nagar, Kaithal - HSPCB",24-03-2024 10:00:00,29.8006,76.4155,NO2,24,26,25
India,Haryana,Kaithal,"Rishi Nagar, Kaithal - HSPCB",24-03-2024 10:00:00,29.8006,76.4155,SO2,1,103,30
India,Haryana,Karnal,"Sector-12, Karnal - HSPCB",24-03-2024 10:00:00,29.695300,77.002700,NO2,8,12,12
India,Haryana,Karnal,"Sector-12, Karnal - HSPCB",24-03-2024 10:00:00,29.695300,77.002700,OZONE,19,21,21
India,Haryana,Kurukshetra,"Sector-7, Kurukshetra - HSPCB",24-03-2024 10:00:00,29.966942,76.875879,PM2.5,48,77,58
India,Haryana,Narnaul,"Shastri Nagar, Narnaul - HSPCB",24-03-2024 10:00:00,28.060249,76.113115,PM10,34,118,61
India,Haryana,Narnaul,"Shastri Nagar, Narnaul - HSPCB",24-03-2024 10:00:00,28.060249,76.113115,NO2,12,75,35
India,Haryana,Narnaul,"Shastri Nagar, Narnaul - HSPCB",24-03-2024 10:00:00,28.060249,76.113115,CO,8,24,11
India,Haryana,Palwal,"Shyam Nagar, Palwal - HSPCB",24-03-2024 10:00:00,28.1485564,77.3320667,PM10,64,136,96
India,Haryana,Palwal,"Shyam Nagar, Palwal - HSPCB",24-03-2024 10:00:00,28.1485564,77.3320667,NO2,23,24,24
India,Haryana,Palwal,"Shyam Nagar, Palwal - HSPCB",24-03-2024 10:00:00,28.1485564,77.3320667,SO2,7,63,14
India,Haryana,Palwal,"Shyam Nagar, Palwal - HSPCB",24-03-2024 10:00:00,28.1485564,77.3320667,OZONE,8,55,12
India,Haryana,Panipat,"Sector-18, Panipat - HSPCB",24-03-2024 10:00:00,29.497973,76.993331,NH3,2,3,3
India,Haryana,Rohtak,"MD University, Rohtak - HSPCB",24-03-2024 10:00:00,28.52123,76.37138,PM2.5,1,28,11
India,Haryana,Rohtak,"MD University, Rohtak - HSPCB",24-03-2024 10:00:00,28.52123,76.37138,SO2,6,8,7
India,Haryana,Rohtak,"MD University, Rohtak - HSPCB",24-03-2024 10:00:00,28.52123,76.37138,OZONE,45,52,49
India,Haryana,Sirsa,"F-Block, Sirsa - HSPCB",24-03-2024 10:00:00,29.536400,75.015800,PM2.5,41,113,75
India,Haryana,Yamuna Nagar,"Gobind Pura, Yamuna Nagar - HSPCB",24-03-2024 10:00:00,30.1480566,77.2893471,PM2.5,NA,NA,NA
India,Haryana,Yamuna Nagar,"Gobind Pura, Yamuna Nagar - HSPCB",24-03-2024 10:00:00,30.1480566,77.2893471,SO2,NA,NA,NA
India,Himachal Pradesh,Baddi,"HIMUDA Complex Phase-1, Baddi - HPPCB",24-03-2024 10:00:00,30.943887,76.801991,NH3,3,5,4
India,Jharkhand,Dhanbad,"Kalakusuma, Dhanbad - DMC",24-03-2024 10:00:00,23.811548,86.481238,PM2.5,13,85,40
India,Jharkhand,Dhanbad,"Kalakusuma, Dhanbad - DMC",24-03-2024 10:00:00,23.811548,86.481238,OZONE,13,55,47
India,Jharkhand,Dhanbad,"Sardar Patel Nagar, Dhanbad - JSPCB",24-03-2024 10:00:00,23.80569,86.44268,SO2,NA,NA,NA
India,Karnataka,Bagalkot,"Vidayagiri, Bagalkot - KSPCB",24-03-2024 10:00:00,16.172806,75.659694,PM10,46,46,46
India,Karnataka,Bengaluru,"BTM Layout, Bengaluru - CPCB",24-03-2024 10:00:00,12.9135218,77.5950804,NH3,NA,NA,NA
India,Karnataka,Bengaluru,"BTM Layout, Bengaluru - CPCB",24-03-2024 10:00:00,12.9135218,77.5950804,CO,NA,NA,NA
India,Karnataka,Bengaluru,"Hebbal, Bengaluru - KSPCB",24-03-2024 10:00:00,13.029152,77.585901,PM10,66,114,93
India,Karnataka,Bengaluru,"Jayanagar 5th Block, Bengaluru - KSPCB",24-03-2024 10:00:00,12.920984,77.584908,PM10,56,131,104
India,Karnataka,Bengaluru,"Kasturi Nagar, Bengaluru - KSPCB",24-03-2024 10:00:00,13.003872,77.664217,PM2.5,67,118,95
India,Karnataka,Bengaluru,"Kasturi Nagar, Bengaluru - KSPCB",24-03-2024 10:00:00,13.003872,77.664217,PM10,92,144,125
India,Karnataka,Bengaluru,"Shivapura_Peenya, Bengaluru - KSPCB",24-03-2024 10:00:00,13.0246342,77.5080115,SO2,3,32,9
India,Karnataka,Bengaluru,"Silk Board, Bengaluru - KSPCB",24-03-2024 10:00:00,12.917348,77.622813,PM2.5,41,72,53
India,Karnataka,Bengaluru,"Silk Board, Bengaluru - KSPCB",24-03-2024 10:00:00,12.917348,77.622813,PM10,54,96,71
India,Karnataka,Bengaluru,"Silk Board, Bengaluru - KSPCB",24-03-2024 10:00:00,12.917348,77.622813,NO2,17,27,21
India,Karnataka,Chamarajanagar,"Urban, Chamarajanagar - KSPCB",24-03-2024 10:00:00,11.55358,76.55521,PM2.5,25,32,30
India,Karnataka,Chikkaballapur,"Chikkaballapur Rural, Chikkaballapur - KSPCB",24-03-2024 10:00:00,13.428828,77.731418,OZONE,25,27,26
India,Karnataka,Davanagere,"Devaraj Urs Badavane, Davanagere - KSPCB",24-03-2024 10:00:00,14.475800,75.905200,OZONE,16,28,22
India,Karnataka,Dharwad,"Kalabhavan, Dharwad - KSPCB",24-03-2024 10:00:00,15.459706,75.008381,PM2.5,16,29,21
India,Karnataka,Dharwad,"Kalabhavan, Dharwad - KSPCB",24-03-2024 10:00:00,15.459706,75.008381,PM10,21,38,27
India,Karnataka,Dharwad,"Kalabhavan, Dharwad - KSPCB",24-03-2024 10:00:00,15.459706,75.008381,CO,NA,NA,NA
India,Karnataka,Gadag,"Panchal Nagar, Gadag - KSPCB",24-03-2024 10:00:00,15.411456,75.638133,CO,45,111,51
India,Karnataka,Hassan,"B.Katihalli, Hassan - KSPCB",24-03-2024 10:00:00,13.008556,76.125258,NO2,6,36,18
India,Karnataka,Hassan,"B.Katihalli, Hassan - KSPCB",24-03-2024 10:00:00,13.008556,76.125258,NH3,3,7,5
India,Karnataka,Hubballi,"Deshpande Nagar, Hubballi - KSPCB",24-03-2024 10:00:00,15.351773,75.140726,PM10,79,115,94
India,Karnataka,Hubballi,"Deshpande Nagar, Hubballi - KSPCB",24-03-2024 10:00:00,15.351773,75.140726,NO2,26,27,26
India,Karnataka,Hubballi,"Deshpande Nagar, Hubballi - KSPCB",24-03-2024 10:00:00,15.351773,75.140726,SO2,1,3,2
