country,state,city,station,last_update,latitude,longitude,pollutant_id,pollutant_min,pollutant_max,pollutant_avg
India,Andhra_Pradesh,Amaravati,"Secretariat, Amaravati - APPCB",07-06-2024 13:00:00,16.5150833,80.5181667,PM2.5,15,91,30
India,Andhra_Pradesh,Amaravati,"Secretariat, Amaravati - APPCB",07-06-2024 13:00:00,16.5150833,80.5181667,NH3,1,4,4
India,Andhra_Pradesh,Amaravati,"Secretariat, Amaravati - APPCB",07-06-2024 13:00:00,16.5150833,80.5181667,CO,2,14,7
India,Andhra_Pradesh,Anantapur,"Gulzarpet, Anantapur - APPCB",07-06-2024 13:00:00,14.675886,77.593027,PM2.5,22,41,27
India,Andhra_Pradesh,Anantapur,"Gulzarpet, Anantapur - APPCB",07-06-2024 13:00:00,14.675886,77.593027,NO2,12,13,12
India,Andhra_Pradesh,Rajamahendravaram,"Anand Kala Kshetram, Rajamahendravaram - APPCB",07-06-2024 13:00:00,16.9872867,81.7363176,OZONE,27,47,37
India,Andhra_Pradesh,Tirupati,"Tirumala, Tirupati - APPCB",07-06-2024 13:00:00,13.67,79.35,PM10,9,32,18
India,Andhra_Pradesh,Tirupati,"Tirumala, Tirupati - APPCB",07-06-2024 13:00:00,13.67,79.35,CO,32,50,39
India,Andhra_Pradesh,Tirupati,"Vaikuntapuram, Tirupati - APPCB",07-06-2024 13:00:00,13.615387,79.409230,NH3,NA,NA,NA
India,Andhra_Pradesh,Vijayawada,"HB Colony, Vijayawada - APPCB",07-06-2024 13:00:00,16.536107,80.594233,NH3,4,4,4
India,Andhra_Pradesh,Vijayawada,"HB Colony, Vijayawada - APPCB",07-06-2024 13:00:00,16.536107,80.594233,CO,32,38,33
India,Andhra_Pradesh,Vijayawada,"Kanuru, Vijayawada - APPCB",07-06-2024 13:00:00,16.486692,80.699436,OZONE,40,40,40
India,Andhra_Pradesh,Vijayawada,"Rajiv Gandhi Park, Vijayawada - APPCB",07-06-2024 13:00:00,16.509717,80.612222,SO2,7,15,8
India,Andhra_Pradesh,Vijayawada,"Rajiv Nagar, Vijayawada - APPCB",07-06-2024 13:00:00,16.554731,80.649110,PM2.5,47,91,53
India,Andhra_Pradesh,Vijayawada,"Rajiv Nagar, Vijayawada - APPCB",07-06-2024 13:00:00,16.554731,80.649110,CO,38,38,38
India,Andhra_Pradesh,Visakhapatnam,"GVM Corporation, Visakhapatnam - APPCB",07-06-2024 13:00:00,17.72,83.3,NO2,1,31,6
India,Assam,Byrnihat,"Central Academy for SFS, Byrnihat - PCBA",07-06-2024 13:00:00,26.071318,91.87488,NH3,15,20,17
India,Assam,Guwahati,"IITG, Guwahati - PCBA",07-06-2024 13:00:00,26.2028636,91.70046436,NO2,1,6,2
India,Assam,Guwahati,"IITG, Guwahati - PCBA",07-06-2024 13:00:00,26.2028636,91.70046436,CO,9,17,11
India,Assam,Guwahati,"LGBI Airport, Guwahati - PCBA",07-06-2024 13:00:00,26.10887,91.589544,NH3,1,5,2
India,Assam,Guwahati,"LGBI Airport, Guwahati - PCBA",07-06-2024 13:00:00,26.10887,91.589544,OZONE,15,31,20
India,Assam,Guwahati,"Pan Bazaar, Guwahati - PCBA",07-06-2024 13:00:00,26.187500,91.744194,NO2,1,2,1
India,Assam,Guwahati,"Railway Colony, Guwahati - PCBA",07-06-2024 13:00:00,26.181742,91.78063,PM2.5,49,332,107
India,Assam,Guwahati,"Railway Colony, Guwahati - PCBA",07-06-2024 13:00:00,26.181742,91.78063,OZONE,1,18,6
India,Assam,Nagaon,"Christianpatty, Nagaon - PCBA",07-06-2024 13:00:00,26.349082,92.68449,PM10,NA,NA,NA
India,Assam,Nalbari,"Bata Chowk, Nalbari - PCBA",07-06-2024 13:00:00,26.446912,91.439057,NH3,1,1,1
India,Assam,Nalbari,"Bata Chowk, Nalbari - PCBA",07-06-2024 13:00:00,26.446912,91.439057,CO,12,38,25
India,Assam,Nalbari,"Bata Chowk, Nalbari - PCBA",07-06-2024 13:00:00,26.446912,91.439057,OZONE,25,53,36
India,Assam,Sivasagar,"Girls College, Sivasagar - PCBA",07-06-2024 13:00:00,26.987634,94.636574,NH3,2,2,2
India,Assam,Sivasagar,"Girls College, Sivasagar - PCBA",07-06-2024 13:00:00,26.987634,94.636574,OZONE,1,9,5
India,Bihar,Arrah,"New DM Office, Arrah - BSPCB",07-06-2024 13:00:00,25.5626095,84.663264,NO2,8,17,12
India,Bihar,Arrah,"New DM Office, Arrah - BSPCB",07-06-2024 13:00:00,25.5626095,84.663264,CO,14,28,19
India,Bihar,Aurangabad,"Gurdeo Nagar, Aurangabad - BSPCB",07-06-2024 13:00:00,24.75746,84.366208,NO2,3,7,5
India,Bihar,Aurangabad,"Gurdeo Nagar, Aurangabad - BSPCB",07-06-2024 13:00:00,24.75746,84.366208,NH3,NA,NA,NA
India,Bihar,Aurangabad,"Gurdeo Nagar, Aurangabad - BSPCB",07-06-2024 13:00:00,24.75746,84.366208,CO,NA,NA,NA
India,Bihar,Aurangabad,"Gurdeo Nagar, Aurangabad - BSPCB",07-06-2024 13:00:00,24.75746,84.366208,OZONE,56,109,80
India,Bihar,Bettiah,"Kamalnath Nagar, Bettiah - BSPCB",07-06-2024 13:00:00,26.80365,84.51954,NO2,24,30,28
India,Bihar,Bettiah,"Kamalnath Nagar, Bettiah - BSPCB",07-06-2024 13:00:00,26.80365,84.51954,NH3,62,85,75
India,Bihar,Bhagalpur,"DM Office_Kachari Chowk, Bhagalpur - BSPCB",07-06-2024 13:00:00,25.251013,86.989001,PM10,65,147,87
India,Bihar,Bhagalpur,"DM Office_Kachari Chowk, Bhagalpur - BSPCB",07-06-2024 13:00:00,25.251013,86.989001,NO2,19,42,33
India,Bihar,Bhagalpur,"DM Office_Kachari Chowk, Bhagalpur - BSPCB",07-06-2024 13:00:00,25.251013,86.989001,SO2,23,34,31
India,Bihar,Bihar Sharif,"D M Colony, Bihar Sharif - BSPCB",07-06-2024 13:00:00,25.204762,85.514960,NH3,2,2,2
India,Bihar,Bihar Sharif,"D M Colony, Bihar Sharif - BSPCB",07-06-2024 13:00:00,25.204762,85.514960,CO,14,29,24
India,Bihar,Buxar,"Charitra Van, Buxar - BSPCB (Formerly known as Central Jail)",07-06-2024 13:00:00,25.567520,83.966379,PM10,101,500,208
India,Bihar,Buxar,"Charitra Van, Buxar - BSPCB (Formerly known as Central Jail)",07-06-2024 13:00:00,25.567520,83.966379,NO2,1,1,1
India,Bihar,Gaya,"Collectorate, Gaya - BSPCB",07-06-2024 13:00:00,24.7955,84.9994,OZONE,52,85,72
India,Bihar,Gaya,"Kareemganj, Gaya - BSPCB",07-06-2024 13:00:00,24.792403,84.992416,PM2.5,33,113,60
India,Bihar,Gaya,"Kareemganj, Gaya - BSPCB",07-06-2024 13:00:00,24.792403,84.992416,SO2,9,10,10
India,Bihar,Gaya,"SFTI Kusdihra, Gaya - BSPCB",07-06-2024 13:00:00,24.762518,84.982348,PM10,53,115,76
India,Bihar,Katihar,"Mirchaibari, Katihar - BSPCB",07-06-2024 13:00:00,25.560083,87.553265,SO2,4,13,9
India,Bihar,Manguraha,"Forest Rest House, Manguraha - BSPCB",07-06-2024 13:00:00,27.308328,84.531742,PM10,NA,NA,NA
India,Bihar,Manguraha,"Forest Rest House, Manguraha - BSPCB",07-06-2024 13:00:00,27.308328,84.531742,SO2,NA,NA,NA
India,Bihar,Motihari,"Gandak Colony, Motihari - BSPCB",07-06-2024 13:00:00,26.63086,84.90051,NH3,4,6,5
India,Bihar,Motihari,"Gandak Colony, Motihari - BSPCB",07-06-2024 13:00:00,26.63086,84.90051,CO,4,70,7
India,Bihar,Munger,"Town Hall, Munger - BSPCB",07-06-2024 13:00:00,25.376776,86.471523,CO,44,62,54
India,Bihar,Muzaffarpur,"Buddha Colony, Muzaffarpur - BSPCB",07-06-2024 13:00:00,26.11442,85.39813,NO2,12,27,20
India,Bihar,Muzaffarpur,"Buddha Colony, Muzaffarpur - BSPCB",07-06-2024 13:00:00,26.11442,85.39813,NH3,4,11,8
India,Bihar,Muzaffarpur,"Buddha Colony, Muzaffarpur - BSPCB",07-06-2024 13:00:00,26.11442,85.39813,SO2,1,8,4
India,Bihar,Muzaffarpur,"MIT-Daudpur Kothi, Muzaffarpur - BSPCB",07-06-2024 13:00:00,26.1403345,85.3650192,NO2,4,6,5
India,Bihar,Muzaffarpur,"MIT-Daudpur Kothi, Muzaffarpur - BSPCB",07-06-2024 13:00:00,26.1403345,85.3650192,OZONE,21,81,46
India,Bihar,Patna,"DRM Office Danapur, Patna - BSPCB",07-06-2024 13:00:00,25.586562,85.043586,NH3,2,3,3
India,Bihar,Patna,"DRM Office Danapur, Patna - BSPCB",07-06-2024 13:00:00,25.586562,85.043586,OZONE,26,116,63
India,Bihar,Patna,"Govt. High School Shikarpur, Patna - BSPCB",07-06-2024 13:00:00,25.592539,85.227158,NO2,1,38,32
India,Bihar,Patna,"Govt. High School Shikarpur, Patna - BSPCB",07-06-2024 13:00:00,25.592539,85.227158,CO,18,58,41
India,Bihar,Patna,"Muradpur, Patna - BSPCB",07-06-2024 13:00:00,25.619651,85.147382,PM2.5,53,497,237
India,Bihar,Patna,"Samanpura, Patna - BSPCB",07-06-2024 13:00:00,25.596727,85.085624,PM10,46,205,126
India,Bihar,Rajgir,"Dangi Tola, Rajgir - BSPCB",07-06-2024 13:00:00,25.03280,85.41948,NO2,14,15,15
India,Bihar,Rajgir,"Dangi Tola, Rajgir - BSPCB",07-06-2024 13:00:00,25.03280,85.41948,NH3,1,2,2
India,Bihar,Saharsa,"Police Line, Saharsa - BSPCB",07-06-2024 13:00:00,25.892357,86.590325,PM10,6,95,64
India,Bihar,Saharsa,"Police Line, Saharsa - BSPCB",07-06-2024 13:00:00,25.892357,86.590325,NO2,5,9,7
India,Bihar,Siwan,"Chitragupta Nagar, Siwan - BSPCB",07-06-2024 13:00:00,26.2271665,84.3570427,NO2,NA,NA,NA
India,Bihar,Siwan,"Chitragupta Nagar, Siwan - BSPCB",07-06-2024 13:00:00,26.2271665,84.3570427,SO2,NA,NA,NA
India,Chandigarh,Chandigarh,"Sector 22, Chandigarh - CPCC",07-06-2024 13:00:00,30.735567,76.775714,PM2.5,25,80,48
India,Chandigarh,Chandigarh,"Sector-25, Chandigarh - CPCC",07-06-2024 13:00:00,30.751462,76.762879,OZONE,20,52,31
India,Chandigarh,Chandigarh,"Sector-53, Chandigarh - CPCC",07-06-2024 13:00:00,30.719859,76.738637,OZONE,27,60,37
India,Chhattisgarh,Bhilai,"32Bungalows, Bhilai - CECB",07-06-2024 13:00:00,21.194815,81.314770,PM2.5,28,65,45
India,Chhattisgarh,Bhilai,"32Bungalows, Bhilai - CECB",07-06-2024 13:00:00,21.194815,81.314770,OZONE,8,61,16
India,Chhattisgarh,Bhilai,"Civic Center, Bhilai - Bhilai Steel Plant",07-06-2024 13:00:00,21.185571,81.343175,CO,32,67,38
India,Chhattisgarh,Bhilai,"Civic Center, Bhilai - Bhilai Steel Plant",07-06-2024 13:00:00,21.185571,81.343175,OZONE,13,65,46
India,Chhattisgarh,Bhilai,"Hathkhoj, Bhilai - CECB",07-06-2024 13:00:00,21.224231,81.408350,NH3,NA,NA,NA
India,Chhattisgarh,Chhal,"Nawapara SECL Colony, Chhal - CECB",07-06-2024 13:00:00,22.118125,83.140608,SO2,6,43,19
India,Chhattisgarh,Chhal,"Nawapara SECL Colony, Chhal - CECB",07-06-2024 13:00:00,22.118125,83.140608,CO,22,64,33
India,Chhattisgarh,Kunjemura,"OP Jindal School, Kunjemura - CECB",07-06-2024 13:00:00,22.126650,83.483212,NH3,1,5,2
India,Chhattisgarh,Kunjemura,"OP Jindal School, Kunjemura - CECB",07-06-2024 13:00:00,22.126650,83.483212,SO2,1,6,4
India,Chhattisgarh,Kunjemura,"OP Jindal School, Kunjemura - CECB",07-06-2024 13:00:00,22.126650,83.483212,CO,26,57,46
India,Chhattisgarh,Milupara,"Govt. Higher Secondary School, Milupara - CECB",07-06-2024 13:00:00,22.1910172,83.5197009,NH3,NA,NA,NA
India,Chhattisgarh,Milupara,"Govt. Higher Secondary School, Milupara - CECB",07-06-2024 13:00:00,22.1910172,83.5197009,CO,NA,NA,NA
India,Chhattisgarh,Raipur,"Krishak Nagar, Raipur - CECB",07-06-2024 13:00:00,21.237755,81.705301,NO2,8,8,8
India,Delhi,Delhi,"Anand Vihar, Delhi - DPCC",07-06-2024 13:00:00,28.647622,77.3158090,PM10,146,500,265
India,Delhi,Delhi,"Anand Vihar, Delhi - DPCC",07-06-2024 13:00:00,28.647622,77.3158090,NO2,82,149,111
India,Delhi,Delhi,"Anand Vihar, Delhi - DPCC",07-06-2024 13:00:00,28.647622,77.3158090,SO2,16,36,24
India,Delhi,Delhi,"Ashok Vihar, Delhi - DPCC",07-06-2024 13:00:00,28.695381,77.181665,SO2,17,42,27
India,Delhi,Delhi,"Ashok Vihar, Delhi - DPCC",07-06-2024 13:00:00,28.695381,77.181665,CO,12,61,37
India,Delhi,Delhi,"Aya Nagar, Delhi - IMD",07-06-2024 13:00:00,28.4706914,77.1099364,PM10,45,500,252
India,Delhi,Delhi,"Aya Nagar, Delhi - IMD",07-06-2024 13:00:00,28.4706914,77.1099364,OZONE,16,82,32
India,Delhi,Delhi,"Bawana, Delhi - DPCC",07-06-2024 13:00:00,28.776200,77.051074,PM10,102,467,202
India,Delhi,Delhi,"CRRI Mathura Road, Delhi - IMD",07-06-2024 13:00:00,28.5512005,77.2735737,CO,22,42,30
India,Delhi,Delhi,"Chandni Chowk, Delhi - IITM",07-06-2024 13:00:00,28.656756,77.227234,PM2.5,301,497,338
India,Delhi,Delhi,"Chandni Chowk, Delhi - IITM",07-06-2024 13:00:00,28.656756,77.227234,OZONE,1,10,3
India,Delhi,Delhi,"DTU, Delhi - CPCB",07-06-2024 13:00:00,28.7500499,77.1112615,PM2.5,70,500,195
India,Delhi,Delhi,"DTU, Delhi - CPCB",07-06-2024 13:00:00,28.7500499,77.1112615,NO2,32,38,35
India,Delhi,Delhi,"DTU, Delhi - CPCB",07-06-2024 13:00:00,28.7500499,77.1112615,CO,26,48,39
India,Delhi,Delhi,"Dr. Karni Singh Shooting Range, Delhi - DPCC",07-06-2024 13:00:00,28.498571,77.264840,OZONE,46,254,239
India,Delhi,Delhi,"Dwarka-Sector 8, Delhi - DPCC ",07-06-2024 13:00:00,28.5710274,77.0719006,PM2.5,42,332,102
India,Delhi,Delhi,"IGI Airport (T3), Delhi - IMD",07-06-2024 13:00:00,28.5627763,77.1180053,CO,34,57,44
India,Delhi,Delhi,"IHBAS, Dilshad Garden, Delhi - CPCB",07-06-2024 13:00:00,28.6811736,77.3025234,PM10,104,500,176
India,Delhi,Delhi,"IHBAS, Dilshad Garden, Delhi - CPCB",07-06-2024 13:00:00,28.6811736,77.3025234,OZONE,16,38,35
India,Delhi,Delhi,"ITO, Delhi - CPCB",07-06-2024 13:00:00,28.628624,77.241060,PM10,62,498,140
India,Delhi,Delhi,"Jahangirpuri, Delhi - DPCC",07-06-2024 13:00:00,28.732820,77.170633,NH3,5,15,10
India,Delhi,Delhi,"Jahangirpuri, Delhi - DPCC",07-06-2024 13:00:00,28.732820,77.170633,SO2,21,47,28
India,Delhi,Delhi,"Jahangirpuri, Delhi - DPCC",07-06-2024 13:00:00,28.732820,77.170633,OZONE,7,186,42
India,Delhi,Delhi,"Jawaharlal Nehru Stadium, Delhi - DPCC",07-06-2024 13:00:00,28.580280,77.233829,NO2,12,126,46
India,Delhi,Delhi,"Lodhi Road, Delhi - IITM",07-06-2024 13:00:00,28.588333,77.221667,PM10,25,500,147
India,Delhi,Delhi,"Lodhi Road, Delhi - IITM",07-06-2024 13:00:00,28.588333,77.221667,NO2,3,118,35
India,Delhi,Delhi,"Major Dhyan Chand National Stadium, Delhi - DPCC",07-06-2024 13:00:00,28.611281,77.237738,PM10,91,495,211
India,Delhi,Delhi,"Major Dhyan Chand National Stadium, Delhi - DPCC",07-06-2024 13:00:00,28.611281,77.237738,NO2,15,138,51
India,Delhi,Delhi,"Major Dhyan Chand National Stadium, Delhi - DPCC",07-06-2024 13:00:00,28.611281,77.237738,NH3,8,11,9
India,Delhi,Delhi,"Mandir Marg, Delhi - DPCC",07-06-2024 13:00:00,28.636429,77.201067,CO,20,62,32
India,Delhi,Delhi,"Mundka, Delhi - DPCC",07-06-2024 13:00:00,28.684678,77.076574,PM2.5,42,419,156
India,Delhi,Delhi,"Najafgarh, Delhi - DPCC",07-06-2024 13:00:00,28.570173,76.933762,SO2,16,28,22
India,Delhi,Delhi,"Najafgarh, Delhi - DPCC",07-06-2024 13:00:00,28.570173,76.933762,CO,38,48,45
India,Delhi,Delhi,"Najafgarh, Delhi - DPCC",07-06-2024 13:00:00,28.570173,76.933762,OZONE,37,137,62
India,Delhi,Delhi,"Nehru Nagar, Delhi - DPCC",07-06-2024 13:00:00,28.567890,77.250515,NO2,7,92,29
India,Delhi,Delhi,"Nehru Nagar, Delhi - DPCC",07-06-2024 13:00:00,28.567890,77.250515,CO,4,108,62
India,Delhi,Delhi,"Nehru Nagar, Delhi - DPCC",07-06-2024 13:00:00,28.567890,77.250515,OZONE,5,274,271
India,Delhi,Delhi,"North Campus, DU, Delhi - IMD",07-06-2024 13:00:00,28.6573814,77.1585447,PM2.5,NA,NA,NA
India,Delhi,Delhi,"North Campus, DU, Delhi - IMD",07-06-2024 13:00:00,28.6573814,77.1585447,PM10,NA,NA,NA
India,Delhi,Delhi,"North Campus, DU, Delhi - IMD",07-06-2024 13:00:00,28.6573814,77.1585447,CO,46,46,46
India,Delhi,Delhi,"Patparganj, Delhi - DPCC",07-06-2024 13:00:00,28.623763,77.287209,PM2.5,55,350,143
India,Delhi,Delhi,"Patparganj, Delhi - DPCC",07-06-2024 13:00:00,28.623763,77.287209,PM10,129,464,239
India,Delhi,Delhi,"Patparganj, Delhi - DPCC",07-06-2024 13:00:00,28.623763,77.287209,SO2,6,23,15
India,Delhi,Delhi,"Punjabi Bagh, Delhi - DPCC",07-06-2024 13:00:00,28.674045,77.131023,PM10,108,500,221
India,Delhi,Delhi,"Punjabi Bagh, Delhi - DPCC",07-06-2024 13:00:00,28.674045,77.131023,NO2,7,82,33
India,Delhi,Delhi,"Pusa, Delhi - DPCC",07-06-2024 13:00:00,28.639652,77.146275,PM10,127,500,233
India,Delhi,Delhi,"Pusa, Delhi - DPCC",07-06-2024 13:00:00,28.639652,77.146275,SO2,4,33,15
India,Delhi,Delhi,"R K Puram, Delhi - DPCC",07-06-2024 13:00:00,28.563262,77.186937,NH3,4,10,7
India,Delhi,Delhi,"Rohini, Delhi - DPCC",07-06-2024 13:00:00,28.732528,77.119920,PM10,107,500,217
India,Delhi,Delhi,"Rohini, Delhi - DPCC",07-06-2024 13:00:00,28.732528,77.119920,OZONE,24,265,90
India,Delhi,Delhi,"Shadipur, Delhi - CPCB",07-06-2024 13:00:00,28.6514781,77.1473105,PM2.5,130,500,334
India,Delhi,Delhi,"Sonia Vihar, Delhi - DPCC",07-06-2024 13:00:00,28.710508,77.249485,PM10,104,500,198
India,Delhi,Delhi,"Vivek Vihar, Delhi - DPCC",07-06-2024 13:00:00,28.672342,77.315260,NH3,16,17,16
India,Delhi,Delhi,"Wazirpur, Delhi - DPCC",07-06-2024 13:00:00,28.699793,77.165453,OZONE,6,70,25
India,Gujarat,Ahmedabad,"Chandkheda, Ahmedabad - IITM",07-06-2024 13:00:00,23.107969,72.574648,NH3,2,3,2
India,Gujarat,Ahmedabad,"Chandkheda, Ahmedabad - IITM",07-06-2024 13:00:00,23.107969,72.574648,OZONE,1,45,21
India,Gujarat,Ahmedabad,"Gyaspur, Ahmedabad - IITM",07-06-2024 13:00:00,22.977134,72.553024,CO,73,97,82
India,Gujarat,Ahmedabad,"Raikhad, Ahmedabad - IITM",07-06-2024 13:00:00,23.020509,72.579261,NO2,60,61,61
India,Gujarat,Ahmedabad,"Sardar Vallabhbhai Patel Stadium, Ahmedabad - IITM",07-06-2024 13:00:00,23.043070,72.562968,NH3,6,6,6
India,Gujarat,Gandhinagar,"Sector-10, Gandhinagar - GPCB",07-06-2024 13:00:00,23.221714,72.654328,NO2,17,22,18
India,Gujarat,Gandhinagar,"Sector-10, Gandhinagar - GPCB",07-06-2024 13:00:00,23.221714,72.654328,SO2,2,4,3
India,Gujarat,Surat,"Science Center, Surat - SMC",07-06-2024 13:00:00,21.170046,72.795405,PM2.5,1,28,14
India,Gujarat,Vatva,"Phase-4 GIDC, Vatva - GPCB",07-06-2024 13:00:00,22.969611,72.643500,PM2.5,15,34,23
India,Gujarat,Vatva,"Phase-4 GIDC, Vatva - GPCB",07-06-2024 13:00:00,22.969611,72.643500,PM10,47,80,63
India,Gujarat,Vatva,"Phase-4 GIDC, Vatva - GPCB",07-06-2024 13:00:00,22.969611,72.643500,NO2,26,112,54
India,Haryana,Bahadurgarh,"Arya Nagar, Bahadurgarh - HSPCB",07-06-2024 13:00:00,28.6701,76.9254,SO2,2,89,20
India,Haryana,Ballabgarh,"Nathu Colony, Ballabgarh - HSPCB",07-06-2024 13:00:00,28.3419248,77.319699,SO2,2,10,5
India,Haryana,Bhiwani,"H.B. Colony, Bhiwani - HSPCB",07-06-2024 13:00:00,28.806223,76.141105,NH3,2,6,6
India,Haryana,Bhiwani,"H.B. Colony, Bhiwani - HSPCB",07-06-2024 13:00:00,28.806223,76.141105,SO2,2,60,12
India,Haryana,Bhiwani,"H.B. Colony, Bhiwani - HSPCB",07-06-2024 13:00:00,28.806223,76.141105,CO,26,174,45
India,Haryana,Bhiwani,"H.B. Colony, Bhiwani - HSPCB",07-06-2024 13:00:00,28.806223,76.141105,OZONE,9,70,17
India,Haryana,Dharuhera,"Municipal Corporation Office, Dharuhera -  HSPCB",07-06-2024 13:00:00,28.206800,76.799700,OZONE,10,46,26
India,Haryana,Faridabad,"Sector 11, Faridabad - HSPCB",07-06-2024 13:00:00,28.376058,77.315741,PM2.5,207,465,319
India,Haryana,Faridabad,"Sector 11, Faridabad - HSPCB",07-06-2024 13:00:00,28.376058,77.315741,PM10,120,500,231
India,Haryana,Faridabad,"Sector 30, Faridabad - HSPCB",07-06-2024 13:00:00,28.4417,77.3217,PM10,49,243,107
India,Haryana,Faridabad,"Sector- 16A, Faridabad - HSPCB",07-06-2024 13:00:00,28.4088421,77.3099081,SO2,NA,NA,NA
India,Haryana,Gurugram,"NISE Gwal Pahari, Gurugram - IMD",07-06-2024 13:00:00,28.422681,77.148944,CO,2,62,26
India,Haryana,Gurugram,"Sector-51, Gurugram - HSPCB",07-06-2024 13:00:00,28.4227,77.0667,CO,24,42,26
India,Haryana,Gurugram,"Teri Gram, Gurugram - HSPCB",07-06-2024 13:00:00,28.4275,77.1465,NO2,13,51,34
India,Haryana,Gurugram,"Teri Gram, Gurugram - HSPCB",07-06-2024 13:00:00,28.4275,77.1465,SO2,4,7,6
India,Haryana,Gurugram,"Teri Gram, Gurugram - HSPCB",07-06-2024 13:00:00,28.4275,77.1465,OZONE,12,27,14
India,Haryana,Gurugram,"Vikas Sadan, Gurugram - HSPCB",07-06-2024 13:00:00,28.4501238,77.0263051,PM2.5,30,375,270
India,Haryana,Gurugram,"Vikas Sadan, Gurugram - HSPCB",07-06-2024 13:00:00,28.4501238,77.0263051,NO2,5,27,14
India,Haryana,Jind,"Police Lines, Jind - HSPCB",07-06-2024 13:00:00,29.307814,76.337619,PM10,NA,NA,NA
India,Haryana,Jind,"Police Lines, Jind - HSPCB",07-06-2024 13:00:00,29.307814,76.337619,NH3,NA,NA,NA
India,Haryana,Jind,"Police Lines, Jind - HSPCB",07-06-2024 13:00:00,29.307814,76.337619,CO,2,48,9
India,Haryana,Kurukshetra,"Sector-7, Kurukshetra - HSPCB",07-06-2024 13:00:00,29.966942,76.875879,PM2.5,57,158,99
India,Haryana,Kurukshetra,"Sector-7, Kurukshetra - HSPCB",07-06-2024 13:00:00,29.966942,76.875879,NO2,10,10,10
India,Haryana,Kurukshetra,"Sector-7, Kurukshetra - HSPCB",07-06-2024 13:00:00,29.966942,76.875879,CO,6,24,15
India,Haryana,Mandikhera,"General Hospital, Mandikhera - HSPCB",07-06-2024 13:00:00,27.9002,76.9938,CO,20,57,31
India,Haryana,Manesar,"Sector-2 IMT, Manesar - HSPCB",07-06-2024 13:00:00,28.360699,76.936090,OZONE,14,96,48
India,Haryana,Narnaul,"Shastri Nagar, Narnaul - HSPCB",07-06-2024 13:00:00,28.060249,76.113115,NH3,5,34,13
India,Haryana,Narnaul,"Shastri Nagar, Narnaul - HSPCB",07-06-2024 13:00:00,28.060249,76.113115,CO,8,48,12
India,Haryana,Palwal,"Shyam Nagar, Palwal - HSPCB",07-06-2024 13:00:00,28.1485564,77.3320667,PM2.5,52,136,75
India,Haryana,Palwal,"Shyam Nagar, Palwal - HSPCB",07-06-2024 13:00:00,28.1485564,77.3320667,NH3,8,9,9
India,Haryana,Palwal,"Shyam Nagar, Palwal - HSPCB",07-06-2024 13:00:00,28.1485564,77.3320667,OZONE,16,100,55
India,Haryana,Panchkula,"Sector-6, Panchkula - HSPCB ",07-06-2024 13:00:00,30.7057778,76.8531805555555,PM2.5,82,209,131
India,Haryana,Panchkula,"Sector-6, Panchkula - HSPCB ",07-06-2024 13:00:00,30.7057778,76.8531805555555,NO2,9,11,10
India,Haryana,Panchkula,"Sector-6, Panchkula - HSPCB ",07-06-2024 13:00:00,30.7057778,76.8531805555555,SO2,2,114,26
India,Haryana,Rohtak,"MD University, Rohtak - HSPCB",07-06-2024 13:00:00,28.52123,76.37138,NO2,47,56,51
India,Haryana,Rohtak,"MD University, Rohtak - HSPCB",07-06-2024 13:00:00,28.52123,76.37138,OZONE,45,55,51
India,Haryana,Sirsa,"F-Block, Sirsa - HSPCB",07-06-2024 13:00:00,29.536400,75.015800,PM2.5,NA,NA,NA
India,Haryana,Sirsa,"F-Block, Sirsa - HSPCB",07-06-2024 13:00:00,29.536400,75.015800,NO2,NA,NA,NA
India,Haryana,Yamuna Nagar,"Gobind Pura, Yamuna Nagar - HSPCB",07-06-2024 13:00:00,30.1480566,77.2893471,PM10,NA,NA,NA
India,Haryana,Yamuna Nagar,"Gobind Pura, Yamuna Nagar - HSPCB",07-06-2024 13:00:00,30.1480566,77.2893471,NO2,NA,NA,NA
India,Himachal Pradesh,Baddi,"HIMUDA Complex Phase-1, Baddi - HPPCB",07-06-2024 13:00:00,30.943887,76.801991,PM2.5,17,97,56
India,Himachal Pradesh,Baddi,"HIMUDA Complex Phase-1, Baddi - HPPCB",07-06-2024 13:00:00,30.943887,76.801991,PM10,67,189,122
India,Himachal Pradesh,Baddi,"HIMUDA Complex Phase-1, Baddi - HPPCB",07-06-2024 13:00:00,30.943887,76.801991,NO2,8,60,23
India,Himachal Pradesh,Baddi,"HIMUDA Complex Phase-1, Baddi - HPPCB",07-06-2024 13:00:00,30.943887,76.801991,NH3,3,6,5
India,Himachal Pradesh,Baddi,"HIMUDA Complex Phase-1, Baddi - HPPCB",07-06-2024 13:00:00,30.943887,76.801991,OZONE,3,242,214
India,Jammu_and_Kashmir,Srinagar,"Rajbagh, Srinagar - JKSPCB",07-06-2024 13:00:00,34.066206,74.819820,PM10,NA,NA,NA
India,Jammu_and_Kashmir,Srinagar,"Rajbagh, Srinagar - JKSPCB",07-06-2024 13:00:00,34.066206,74.819820,CO,20,29,21
India,Karnataka,Bagalkot,"Vidayagiri, Bagalkot - KSPCB",07-06-2024 13:00:00,16.172806,75.659694,PM10,NA,NA,NA
India,Karnataka,Bagalkot,"Vidayagiri, Bagalkot - KSPCB",07-06-2024 13:00:00,16.172806,75.659694,SO2,NA,NA,NA
India,Karnataka,Bengaluru,"Bapuji Nagar, Bengaluru - KSPCB",07-06-2024 13:00:00,12.951913,77.539784,PM2.5,3,26,16
India,Karnataka,Bengaluru,"Bapuji Nagar, Bengaluru - KSPCB",07-06-2024 13:00:00,12.951913,77.539784,SO2,6,7,6
India,Karnataka,Bengaluru,"Hebbal, Bengaluru - KSPCB",07-06-2024 13:00:00,13.029152,77.585901,PM10,5,36,16
India,Karnataka,Bengaluru,"Hombegowda Nagar, Bengaluru - KSPCB",07-06-2024 13:00:00,12.938539,77.590100,OZONE,9,33,14
India,Karnataka,Bengaluru,"Jayanagar 5th Block, Bengaluru - KSPCB",07-06-2024 13:00:00,12.920984,77.584908,NH3,1,2,2
India,Karnataka,Bengaluru,"Jayanagar 5th Block, Bengaluru - KSPCB",07-06-2024 13:00:00,12.920984,77.584908,CO,16,23,21
India,Karnataka,Bengaluru,"Kasturi Nagar, Bengaluru - KSPCB",07-06-2024 13:00:00,13.003872,77.664217,SO2,10,10,10
India,Karnataka,Bengaluru,"Peenya, Bengaluru - CPCB",07-06-2024 13:00:00,13.0270199,77.494094,PM10,44,55,49
India,Karnataka,Bengaluru,"Peenya, Bengaluru - CPCB",07-06-2024 13:00:00,13.0270199,77.494094,CO,75,82,78
India,Karnataka,Bengaluru,"Shivapura_Peenya, Bengaluru - KSPCB",07-06-2024 13:00:00,13.0246342,77.5080115,NH3,4,4,4
India,Karnataka,Bengaluru,"Silk Board, Bengaluru - KSPCB",07-06-2024 13:00:00,12.917348,77.622813,CO,6,16,9
India,Karnataka,Bidar,"Naubad, Bidar - KSPCB",07-06-2024 13:00:00,17.930306,77.482194,PM2.5,19,45,31
India,Karnataka,Chamarajanagar,"Urban, Chamarajanagar - KSPCB",07-06-2024 13:00:00,11.55358,76.55521,NO2,16,28,19
India,Karnataka,Chamarajanagar,"Urban, Chamarajanagar - KSPCB",07-06-2024 13:00:00,11.55358,76.55521,CO,21,122,30
India,Karnataka,Chikkaballapur,"Chikkaballapur Rural, Chikkaballapur - KSPCB",07-06-2024 13:00:00,13.428828,77.731418,PM2.5,3,25,11
India,Karnataka,Chikkaballapur,"Chikkaballapur Rural, Chikkaballapur - KSPCB",07-06-2024 13:00:00,13.428828,77.731418,CO,8,24,20
India,Karnataka,Chikkaballapur,"Chikkaballapur Rural, Chikkaballapur - KSPCB",07-06-2024 13:00:00,13.428828,77.731418,OZONE,25,27,26
India,Karnataka,Chikkamagaluru,"Kalyana Nagara, Chikkamagaluru - KSPCB",07-06-2024 13:00:00,13.328028,75.797056,NO2,17,25,22
India,Karnataka,Davanagere,"Devaraj Urs Badavane, Davanagere - KSPCB",07-06-2024 13:00:00,14.475800,75.905200,NH3,1,1,1
India,Karnataka,Dharwad,"Kalabhavan, Dharwad - KSPCB",07-06-2024 13:00:00,15.459706,75.008381,SO2,1,32,4
India,Karnataka,Dharwad,"Kalabhavan, Dharwad - KSPCB",07-06-2024 13:00:00,15.459706,75.008381,OZONE,27,29,27
India,Karnataka,Gadag,"Panchal Nagar, Gadag - KSPCB",07-06-2024 13:00:00,15.411456,75.638133,PM2.5,2,13,7
India,Karnataka,Gadag,"Panchal Nagar, Gadag - KSPCB",07-06-2024 13:00:00,15.411456,75.638133,SO2,4,22,13
India,Karnataka,Hassan,"B.Katihalli, Hassan - KSPCB",07-06-2024 13:00:00,13.008556,76.125258,NO2,9,15,12
India,Karnataka,Hassan,"B.Katihalli, Hassan - KSPCB",07-06-2024 13:00:00,13.008556,76.125258,NH3,3,4,3
India,Karnataka,Hassan,"B.Katihalli, Hassan - KSPCB",07-06-2024 13:00:00,13.008556,76.125258,SO2,1,2,2
India,Karnataka,Hassan,"B.Katihalli, Hassan - KSPCB",07-06-2024 13:00:00,13.008556,76.125258,OZONE,1,2,2
India,Karnataka,Haveri,"Ashwini Nagar, Haveri - KSPCB",07-06-2024 13:00:00,14.791800,75.389600,NO2,29,45,33
India,Karnataka,Haveri,"Ashwini Nagar, Haveri - KSPCB",07-06-2024 13:00:00,14.791800,75.389600,SO2,14,14,14
India,Karnataka,Hubballi,"Lingaraj Nagar, Hubballi - KSPCB",07-06-2024 13:00:00,15.3714823,75.1160168,NH3,2,4,3
India,Karnataka,Kalaburagi,"Lal Bahadur Shastri Nagar, Kalaburagi - KSPCB",07-06-2024 13:00:00,17.321993,76.822628,PM10,NA,NA,NA
India,Karnataka,Kalaburagi,"Mahatma Basaveswar Colony, Kalaburgi - KSPCB",07-06-2024 13:00:00,17.336318,76.847397,PM10,NA,NA,NA
India,Karnataka,Kalaburagi,"Mahatma Basaveswar Colony, Kalaburgi - KSPCB",07-06-2024 13:00:00,17.336318,76.847397,NH3,NA,NA,NA
India,Karnataka,Karwar,"KHB Colony, Karwar - KSPCB",07-06-2024 13:00:00,14.816666,74.141003,NH3,1,6,1
India,Karnataka,Kolar,"Tamaka Ind. Area, Kolar - KSPCB",07-06-2024 13:00:00,13.1276288,78.1570122,SO2,NA,NA,NA
India,Karnataka,Kolar,"Tamaka Ind. Area, Kolar - KSPCB",07-06-2024 13:00:00,13.1276288,78.1570122,OZONE,15,35,15
India,Karnataka,Koppal,"Diwator Nagar, Koppal - KSPCB",07-06-2024 13:00:00,15.347630,76.181767,PM10,NA,NA,NA
India,Karnataka,Madikeri,"Stuart Hill, Madikeri - KSPCB",07-06-2024 13:00:00,12.415911,75.735050,PM2.5,9,25,16
India,Karnataka,Madikeri,"Stuart Hill, Madikeri - KSPCB",07-06-2024 13:00:00,12.415911,75.735050,NH3,NA,NA,NA
India,Karnataka,Madikeri,"Stuart Hill, Madikeri - KSPCB",07-06-2024 13:00:00,12.415911,75.735050,OZONE,6,18,14
India,Karnataka,Mangalore,"Kadri, Mangalore - KSPCB",07-06-2024 13:00:00,12.889250,74.853000,NO2,5,6,6
India,Karnataka,Mangalore,"Kadri, Mangalore - KSPCB",07-06-2024 13:00:00,12.889250,74.853000,SO2,9,10,10
India,Karnataka,Raichur,"Haji Colony, Raichur - KSPCB",07-06-2024 13:00:00,16.208139,77.348417,OZONE,3,5,4
India,Karnataka,Ramanagara,"Vijay Nagar, Ramanagara - KSPCB",07-06-2024 13:00:00,12.733409,77.298051,PM2.5,NA,NA,NA
India,Karnataka,Ramanagara,"Vijay Nagar, Ramanagara - KSPCB",07-06-2024 13:00:00,12.733409,77.298051,NH3,2,3,2
India,Karnataka,Ramanagara,"Vijay Nagar, Ramanagara - KSPCB",07-06-2024 13:00:00,12.733409,77.298051,SO2,20,31,26
India,Karnataka,Ramanagara,"Vijay Nagar, Ramanagara - KSPCB",07-06-2024 13:00:00,12.733409,77.298051,OZONE,27,30,29
India,Karnataka,Shivamogga,"Vinoba Nagara, Shivamogga - KSPCB",07-06-2024 13:00:00,13.940000,75.555917,PM10,30,69,44
India,Karnataka,Shivamogga,"Vinoba Nagara, Shivamogga - KSPCB",07-06-2024 13:00:00,13.940000,75.555917,SO2,3,10,7
India,Karnataka,Tumakuru,"Thimmalapura, Tumakuru - KSPCB",07-06-2024 13:00:00,13.377516,77.099072,SO2,NA,NA,NA
India,Karnataka,Tumakuru,"Thimmalapura, Tumakuru - KSPCB",07-06-2024 13:00:00,13.377516,77.099072,CO,NA,NA,NA
India,Karnataka,Udupi,"Brahmagiri, Udupi - KSPCB",07-06-2024 13:00:00,13.34194444,74.74694444,NO2,26,29,27
India,Karnataka,Udupi,"Brahmagiri, Udupi - KSPCB",07-06-2024 13:00:00,13.34194444,74.74694444,NH3,1,1,1
India,Karnataka,Vijayapura,"Ibrahimpur, Vijayapura - KSPCB",07-06-2024 13:00:00,16.802639,75.722694,NH3,2,2,2
India,Karnataka,Yadgir,"Collector Office, Yadgir - KSPCB",07-06-2024 13:00:00,16.7602,77.1428,NH3,NA,NA,NA
India,Kerala,Kannur,"Thavakkara, Kannur - Kerala PCB",07-06-2024 13:00:00,11.875000,75.373200,PM10,52,59,56
India,Kerala,Kollam,"Polayathode, Kollam - Kerala PCB",07-06-2024 13:00:00,8.8787,76.6073,CO,13,17,16
India,Kerala,Thiruvananthapuram,"Kariavattom, Thiruvananthapuram - Kerala PCB",07-06-2024 13:00:00,8.563700,76.886500,PM10,54,64,58
India,Kerala,Thiruvananthapuram,"Kariavattom, Thiruvananthapuram - Kerala PCB",07-06-2024 13:00:00,8.563700,76.886500,SO2,3,11,6
India,Kerala,Thiruvananthapuram,"Kariavattom, Thiruvananthapuram - Kerala PCB",07-06-2024 13:00:00,8.563700,76.886500,CO,18,30,21
India,Kerala,Thiruvananthapuram,"Plammoodu, Thiruvananthapuram - Kerala PCB",07-06-2024 13:00:00,8.5149093,76.9435879,NH3,1,1,1
India,Madhya Pradesh,Bhopal,"Paryavaran Parisar, Bhopal - MPPCB",07-06-2024 13:00:00,23.210494,77.425409,NO2,14,122,43
India,Madhya Pradesh,Dewas,"Bhopal Chauraha, Dewas - MPPCB",07-06-2024 13:00:00,22.9682591,76.064118,PM10,37,72,45
India,Madhya Pradesh,Gwalior,"City Center, Gwalior - MPPCB",07-06-2024 13:00:00,26.203442,78.193251,PM2.5,49,310,101
India,Madhya Pradesh,Gwalior,"City Center, Gwalior - MPPCB",07-06-2024 13:00:00,26.203442,78.193251,NO2,6,27,11
India,Madhya Pradesh,Gwalior,"City Center, Gwalior - MPPCB",07-06-2024 13:00:00,26.203442,78.193251,CO,32,64,39
India,Madhya Pradesh,Gwalior,"Deen Dayal Nagar, Gwalior - MPPCB",07-06-2024 13:00:00,26.259242,78.216432,NH3,5,7,6
India,Madhya Pradesh,Gwalior,"Maharaj Bada, Gwalior - MPPCB",07-06-2024 13:00:00,26.200388,78.147714,PM10,37,500,185
India,Madhya Pradesh,Gwalior,"Maharaj Bada, Gwalior - MPPCB",07-06-2024 13:00:00,26.200388,78.147714,NH3,2,14,5
India,Madhya Pradesh,Gwalior,"Phool Bagh, Gwalior - Mondelez Ind. Food",07-06-2024 13:00:00,26.210536,78.171,NO2,3,5,4
India,Madhya Pradesh,Indore,"Chhoti Gwaltoli, Indore - MPPCB",07-06-2024 13:00:00,22.4310,75.5213,PM2.5,35,149,54
India,Madhya Pradesh,Indore,"Chhoti Gwaltoli, Indore - MPPCB",07-06-2024 13:00:00,22.4310,75.5213,SO2,9,19,13
India,Madhya Pradesh,Indore,"Maguda Nagar, Indore - IMC",07-06-2024 13:00:00,22.7524,75.8872,PM10,31,64,47
India,Madhya Pradesh,Indore,"Maguda Nagar, Indore - IMC",07-06-2024 13:00:00,22.7524,75.8872,CO,22,30,25
India,Madhya Pradesh,Indore,"Regional Park, Indore - IMC",07-06-2024 13:00:00,22.6780,75.8559,SO2,46,57,49
India,Madhya Pradesh,Indore,"Residency Area, Indore - IMC",07-06-2024 13:00:00,22.7084,75.8815,NH3,NA,NA,NA
India,Madhya Pradesh,Jabalpur,"Gupteshwar, Jabalpur - JMC",07-06-2024 13:00:00,23.142888,79.916147,NO2,5,87,16
India,Madhya Pradesh,Jabalpur,"Marhatal, Jabalpur - MPPCB",07-06-2024 13:00:00,23.168606,79.932247,CO,44,100,50
India,Madhya Pradesh,Jabalpur,"Suhagi, Jabalpur - JMC",07-06-2024 13:00:00,23.218135,79.957770,PM2.5,NA,NA,NA
India,Madhya Pradesh,Jabalpur,"Suhagi, Jabalpur - JMC",07-06-2024 13:00:00,23.218135,79.957770,SO2,13,17,15
India,Madhya Pradesh,Mandideep,"Sector-D Industrial Area, Mandideep - MPPCB",07-06-2024 13:00:00,23.108440,77.511428,PM2.5,66,318,150
India,Madhya Pradesh,Mandideep,"Sector-D Industrial Area, Mandideep - MPPCB",07-06-2024 13:00:00,23.108440,77.511428,OZONE,11,48,31
India,Madhya Pradesh,Pithampur,"Sector-2 Industrial Area, Pithampur - MPPCB",07-06-2024 13:00:00,22.624758,75.675238,SO2,11,13,12
India,Madhya Pradesh,Sagar,"Deen Dayal Nagar, Sagar - MPPCB",07-06-2024 13:00:00,23.8640158,78.80289321,PM10,72,165,136
India,Madhya Pradesh,Sagar,"Deen Dayal Nagar, Sagar - MPPCB",07-06-2024 13:00:00,23.8640158,78.80289321,SO2,7,15,12
India,Madhya Pradesh,Satna,"Bandhavgar Colony, Satna - Birla Cement",07-06-2024 13:00:00,24.58434363,80.8549414,PM10,39,84,52
India,Madhya Pradesh,Satna,"Bandhavgar Colony, Satna - Birla Cement",07-06-2024 13:00:00,24.58434363,80.8549414,SO2,1,4,2
India,Madhya Pradesh,Singrauli,"Suryakiran Bhawan NCL, Singrauli - MPPCB",07-06-2024 13:00:00,24.108970,82.645580,PM2.5,58,272,144
India,Madhya Pradesh,Singrauli,"Suryakiran Bhawan NCL, Singrauli - MPPCB",07-06-2024 13:00:00,24.108970,82.645580,NO2,4,82,45
India,Madhya Pradesh,Ujjain,"Mahakaleshwar Temple, Ujjain - MPPCB",07-06-2024 13:00:00,23.182719 ,75.768218 ,SO2,10,17,12
India,Maharashtra,Ahmednagar,"Tarakpur, Ahmednagar - MPCB",07-06-2024 13:00:00,19.10122,74.73339,PM2.5,27,69,48
India,Maharashtra,Ahmednagar,"Tarakpur, Ahmednagar - MPCB",07-06-2024 13:00:00,19.10122,74.73339,OZONE,17,84,31
India,Maharashtra,Akola,"Ramdaspeth, Akola - MPCB",07-06-2024 13:00:00,20.719516,77.000253,PM2.5,22,86,46
India,Maharashtra,Akola,"Ramdaspeth, Akola - MPCB",07-06-2024 13:00:00,20.719516,77.000253,PM10,36,102,70
India,Maharashtra,Akola,"Ramdaspeth, Akola - MPCB",07-06-2024 13:00:00,20.719516,77.000253,NO2,9,39,17
India,Maharashtra,Akola,"Ramdaspeth, Akola - MPCB",07-06-2024 13:00:00,20.719516,77.000253,NH3,2,10,5
India,Maharashtra,Akola,"Ramdaspeth, Akola - MPCB",07-06-2024 13:00:00,20.719516,77.000253,CO,32,97,35
India,Maharashtra,Amravati,"Shri Shivaji Science College, Amaravati - MPCB",07-06-2024 13:00:00,20.939198,77.765701,SO2,2,6,3
India,Maharashtra,Aurangabad,"MIDC Chilkalthana, Aurangabad - MPCB",07-06-2024 13:00:00,19.875620,75.387310,PM2.5,44,89,62
India,Maharashtra,Aurangabad,"MIDC Chilkalthana, Aurangabad - MPCB",07-06-2024 13:00:00,19.875620,75.387310,NH3,5,6,5
India,Maharashtra,Aurangabad,"MIDC Chilkalthana, Aurangabad - MPCB",07-06-2024 13:00:00,19.875620,75.387310,OZONE,1,62,24
India,Maharashtra,Aurangabad,"Rachnakar Colony, Aurangabad - MPCB",07-06-2024 13:00:00,19.863756,75.321188,NH3,2,3,2
India,Maharashtra,Bhiwandi,"Gokul Nagar, Bhiwandi - MPCB",07-06-2024 13:00:00,19.309073,73.057223,PM10,64,111,77
India,Maharashtra,Boisar,"Khaira, Boisar - MPCB",07-06-2024 13:00:00,19.786089,72.757971,NH3,1,14,5
India,Maharashtra,Chandrapur,"Chauhan Colony, Chandrapur - MPCB",07-06-2024 13:00:00,19.962900,79.298714,NH3,2,5,3
India,Maharashtra,Chandrapur,"MIDC Khutala, Chandrapur - MPCB",07-06-2024 13:00:00,19.9775302,79.2337086,PM10,18,78,44
India,Maharashtra,Chandrapur,"MIDC Khutala, Chandrapur - MPCB",07-06-2024 13:00:00,19.9775302,79.2337086,CO,22,40,29
India,Maharashtra,Jalna,"Old MIDC, Jalna - MPCB",07-06-2024 13:00:00,19.854616,75.905894,PM10,26,64,43
India,Maharashtra,Jalna,"Old MIDC, Jalna - MPCB",07-06-2024 13:00:00,19.854616,75.905894,OZONE,1,61,11
India,Maharashtra,Kalyan,"Khadakpada, Kalyan - MPCB",07-06-2024 13:00:00,19.25292,73.142019,PM10,44,118,92
India,Maharashtra,Kalyan,"Khadakpada, Kalyan - MPCB",07-06-2024 13:00:00,19.25292,73.142019,OZONE,8,11,9
India,Maharashtra,Kolhapur,"Shivaji University, Kolhapur - MPCB",07-06-2024 13:00:00,16.6870449,74.2505872,CO,38,72,58
India,Maharashtra,Kolhapur,"Shivaji University, Kolhapur - MPCB",07-06-2024 13:00:00,16.6870449,74.2505872,OZONE,32,100,80
India,Maharashtra,Kolhapur,"Sinchan Bhavan, Kolhapur - MPCB",07-06-2024 13:00:00,16.7143745,74.2426398,NH3,7,8,8
India,Maharashtra,Latur,"Sawe Wadi, Latur - MPCB",07-06-2024 13:00:00,18.39963,76.57452,PM2.5,NA,NA,NA
India,Maharashtra,Mahad,"Kamble Tarf Birwadi, Mahad - MPCB",07-06-2024 13:00:00,18.1023399,73.4783687,PM10,18,151,74
India,Maharashtra,Mahad,"Kamble Tarf Birwadi, Mahad - MPCB",07-06-2024 13:00:00,18.1023399,73.4783687,CO,4,38,16
India,Maharashtra,Mira-Bhayandar,"Bhayandar West, Mira-Bhayandar - MPCB",07-06-2024 13:00:00,19.296481,72.840923,PM2.5,20,42,28
India,Maharashtra,Mira-Bhayandar,"Bhayandar West, Mira-Bhayandar - MPCB",07-06-2024 13:00:00,19.296481,72.840923,SO2,2,4,3
India,Maharashtra,Mumbai,"Borivali East, Mumbai - IITM",07-06-2024 13:00:00,19.23241,72.86895,NH3,6,9,8
India,Maharashtra,Mumbai,"Borivali East, Mumbai - IITM",07-06-2024 13:00:00,19.23241,72.86895,CO,2,58,36
India,Maharashtra,Mumbai,"Borivali East, Mumbai - MPCB",07-06-2024 13:00:00,19.2243333,72.8658113,NO2,2,7,4
India,Maharashtra,Mumbai,"Borivali East, Mumbai - MPCB",07-06-2024 13:00:00,19.2243333,72.8658113,OZONE,14,16,15
India,Maharashtra,Mumbai,"Byculla, Mumbai - BMC",07-06-2024 13:00:00,18.9767,72.8380,SO2,1,2,1
India,Maharashtra,Mumbai,"Chakala-Andheri East, Mumbai - IITM",07-06-2024 13:00:00,19.11074,72.86084,PM2.5,20,53,32
India,Maharashtra,Mumbai,"Chakala-Andheri East, Mumbai - IITM",07-06-2024 13:00:00,19.11074,72.86084,NH3,5,14,9
India,Maharashtra,Mumbai,"Chakala-Andheri East, Mumbai - IITM",07-06-2024 13:00:00,19.11074,72.86084,SO2,2,23,12
India,Maharashtra,Mumbai,"Chembur, Mumbai - MPCB",07-06-2024 13:00:00,19.0364585,72.8954371,NO2,16,57,27
India,Maharashtra,Mumbai,"Chhatrapati Shivaji Intl. Airport (T2), Mumbai - MPCB",07-06-2024 13:00:00,19.10078,72.87462,CO,33,48,36
India,Maharashtra,Mumbai,"Colaba, Mumbai - MPCB",07-06-2024 13:00:00,18.910000,72.820000,PM10,50,94,70
India,Maharashtra,Mumbai,"Colaba, Mumbai - MPCB",07-06-2024 13:00:00,18.910000,72.820000,NH3,1,1,1
India,Maharashtra,Mumbai,"Ghatkopar, Mumbai - BMC",07-06-2024 13:00:00,19.083694,72.920967,PM2.5,3,17,8
India,Maharashtra,Mumbai,"Ghatkopar, Mumbai - BMC",07-06-2024 13:00:00,19.083694,72.920967,PM10,17,42,32
India,Maharashtra,Mumbai,"Ghatkopar, Mumbai - BMC",07-06-2024 13:00:00,19.083694,72.920967,NO2,2,42,21
India,Maharashtra,Mumbai,"Ghatkopar, Mumbai - BMC",07-06-2024 13:00:00,19.083694,72.920967,SO2,1,2,1
India,Maharashtra,Mumbai,"Ghatkopar, Mumbai - BMC",07-06-2024 13:00:00,19.083694,72.920967,CO,6,16,9
India,Maharashtra,Mumbai,"Ghatkopar, Mumbai - BMC",07-06-2024 13:00:00,19.083694,72.920967,OZONE,5,17,10
India,Maharashtra,Mumbai,"Kandivali East, Mumbai - MPCB",07-06-2024 13:00:00,19.205800,72.868200,NO2,13,30,20
India,Maharashtra,Mumbai,"Kandivali West, Mumbai - BMC",07-06-2024 13:00:00,19.215859,72.831718,NH3,2,3,2
India,Maharashtra,Mumbai,"Kherwadi_Bandra East, Mumbai - MPCB",07-06-2024 13:00:00,19.0632143,72.8456324,PM2.5,20,48,38
India,Maharashtra,Mumbai,"Kherwadi_Bandra East, Mumbai - MPCB",07-06-2024 13:00:00,19.0632143,72.8456324,OZONE,24,68,41
India,Maharashtra,Mumbai,"Khindipada-Bhandup West, Mumbai - IITM",07-06-2024 13:00:00,19.1653323,72.922099,OZONE,8,20,14
India,Maharashtra,Mumbai,"Mazgaon, Mumbai - IITM",07-06-2024 13:00:00,18.96702,72.84214,NO2,41,60,50
India,Maharashtra,Mumbai,"Mazgaon, Mumbai - IITM",07-06-2024 13:00:00,18.96702,72.84214,NH3,7,15,10
India,Maharashtra,Mumbai,"Mindspace-Malad West, Mumbai - MPCB",07-06-2024 13:00:00,19.1878657,72.8304069,SO2,6,9,8
India,Maharashtra,Mumbai,"Mulund West, Mumbai - MPCB",07-06-2024 13:00:00,19.1750,72.9419,PM10,36,164,76
India,Maharashtra,Mumbai,"Mulund West, Mumbai - MPCB",07-06-2024 13:00:00,19.1750,72.9419,CO,34,36,35
India,Maharashtra,Mumbai,"Mulund West, Mumbai - MPCB",07-06-2024 13:00:00,19.1750,72.9419,OZONE,7,8,7
India,Maharashtra,Mumbai,"Navy Nagar-Colaba, Mumbai - IITM",07-06-2024 13:00:00,18.897756,72.813320,CO,14,38,21
India,Maharashtra,Mumbai,"Powai, Mumbai - MPCB",07-06-2024 13:00:00,19.137500,72.915056,PM10,48,85,63
India,Maharashtra,Mumbai,"Sewri, Mumbai - BMC",07-06-2024 13:00:00,19.000084,72.856730,CO,4,74,23
India,Maharashtra,Mumbai,"Sewri, Mumbai - BMC",07-06-2024 13:00:00,19.000084,72.856730,OZONE,16,33,26
India,Maharashtra,Mumbai,"Siddharth Nagar-Worli, Mumbai - IITM",07-06-2024 13:00:00,19.000083,72.813993,CO,64,92,75
India,Maharashtra,Mumbai,"Sion, Mumbai - MPCB",07-06-2024 13:00:00,19.047000,72.874600,CO,46,54,48
India,Maharashtra,Mumbai,"Vasai West, Mumbai - MPCB",07-06-2024 13:00:00,19.383200,72.820400,SO2,19,19,19
India,Maharashtra,Mumbai,"Vile Parle West, Mumbai - MPCB",07-06-2024 13:00:00,19.10861,72.83622,CO,NA,NA,NA
India,Maharashtra,Mumbai,"Worli, Mumbai - MPCB",07-06-2024 13:00:00,18.9936162,72.8128113,SO2,12,12,12
India,Maharashtra,Nagpur,"Mahal, Nagpur - MPCB",07-06-2024 13:00:00,21.14472,79.107595,NO2,14,43,26
India,Maharashtra,Nagpur,"Opp GPO Civil Lines, Nagpur - MPCB",07-06-2024 13:00:00,21.152875,79.0517531,PM10,30,94,59
India,Maharashtra,Nagpur,"Opp GPO Civil Lines, Nagpur - MPCB",07-06-2024 13:00:00,21.152875,79.0517531,NH3,4,6,5
India,Maharashtra,Nagpur,"Opp GPO Civil Lines, Nagpur - MPCB",07-06-2024 13:00:00,21.152875,79.0517531,CO,12,44,22
India,Maharashtra,Nagpur,"Opp GPO Civil Lines, Nagpur - MPCB",07-06-2024 13:00:00,21.152875,79.0517531,OZONE,18,48,28
India,Maharashtra,Nanded,"Sneh Nagar, Nanded - MPCB",07-06-2024 13:00:00,19.173852,77.296291,PM2.5,13,54,35
India,Maharashtra,Nanded,"Sneh Nagar, Nanded - MPCB",07-06-2024 13:00:00,19.173852,77.296291,NH3,1,2,2
India,Maharashtra,Nanded,"Sneh Nagar, Nanded - MPCB",07-06-2024 13:00:00,19.173852,77.296291,SO2,4,12,9
India,Maharashtra,Nashik,"Gangapur Road, Nashik - MPCB",07-06-2024 13:00:00,20.0073285,73.7762427,OZONE,16,55,26
India,Maharashtra,Nashik,"Hirawadi, Nashik - MPCB",07-06-2024 13:00:00,20.021503,73.813844,SO2,12,25,19
India,Maharashtra,Nashik,"MIDC Ambad, Nashik - MPCB",07-06-2024 13:00:00,19.950220,73.731480,PM10,39,63,52
India,Maharashtra,Nashik,"MIDC Ambad, Nashik - MPCB",07-06-2024 13:00:00,19.950220,73.731480,NH3,4,6,5
India,Maharashtra,Nashik,"MIDC Ambad, Nashik - MPCB",07-06-2024 13:00:00,19.950220,73.731480,SO2,3,17,9
India,Maharashtra,Navi Mumbai,"Kopripada-Vashi, Navi Mumbai - MPCB",07-06-2024 13:00:00,19.090337,73.014232,NO2,13,32,22
India,Maharashtra,Navi Mumbai,"Mahape, Navi Mumbai - MPCB",07-06-2024 13:00:00,19.1135051,73.008978,NO2,41,43,42
India,Maharashtra,Navi Mumbai,"Nerul, Navi Mumbai - MPCB",07-06-2024 13:00:00,19.008751,73.016620,NH3,3,4,3
India,Maharashtra,Navi Mumbai,"Nerul, Navi Mumbai - MPCB",07-06-2024 13:00:00,19.008751,73.016620,SO2,10,12,11
India,Maharashtra,Navi Mumbai,"Sanpada, Navi Mumbai - MPCB",07-06-2024 13:00:00,19.0575752,73.0151367,NH3,2,4,3
India,Maharashtra,Navi Mumbai,"Sector-19A Nerul, Navi Mumbai - IITM",07-06-2024 13:00:00,19.044,73.0325,SO2,NA,NA,NA
India,Maharashtra,Navi Mumbai,"Sector-2E Kalamboli, Navi Mumbai - MPCB",07-06-2024 13:00:00,19.02579,73.10297,NO2,9,28,17
India,Maharashtra,Navi Mumbai,"Tondare-Taloja, Navi Mumbai - MPCB",07-06-2024 13:00:00,19.0630,73.1209,PM10,48,84,66
India,Maharashtra,Pimpri-Chinchwad,"Gavalinagar, Pimpri Chinchwad - MPCB",07-06-2024 13:00:00,18.63673,73.82487,SO2,NA,NA,NA
India,Maharashtra,Pimpri-Chinchwad,"Gavalinagar, Pimpri Chinchwad - MPCB",07-06-2024 13:00:00,18.63673,73.82487,CO,7,32,19
India,Maharashtra,Pune,"Alandi, Pune - IITM",07-06-2024 13:00:00,18.675076,73.892743,NO2,12,35,20
India,Maharashtra,Pune,"Alandi, Pune - IITM",07-06-2024 13:00:00,18.675076,73.892743,CO,38,64,53
India,Maharashtra,Pune,"Bhosari, Pune - IITM",07-06-2024 13:00:00,18.640051,73.848956,PM2.5,4,13,4
India,Maharashtra,Pune,"Hadapsar, Pune - IITM",07-06-2024 13:00:00,18.501793,73.927532,NO2,20,55,33
India,Maharashtra,Pune,"Mhada Colony, Pune - IITM",07-06-2024 13:00:00,18.573040,73.927715,OZONE,2,69,18
India,Maharashtra,Pune,"Savitribai Phule Pune University, Pune - MPCB",07-06-2024 13:00:00,18.547056,73.826908,PM2.5,20,53,38
India,Maharashtra,Pune,"Savitribai Phule Pune University, Pune - MPCB",07-06-2024 13:00:00,18.547056,73.826908,PM10,40,91,68
India,Maharashtra,Pune,"Savitribai Phule Pune University, Pune - MPCB",07-06-2024 13:00:00,18.547056,73.826908,SO2,1,5,3
India,Maharashtra,Sangli,"Vijay Nagar, Sangli - MPCB",07-06-2024 13:00:00, 16.5038,74.3623,NO2,5,22,12
India,Maharashtra,Sangli,"Vijay Nagar, Sangli - MPCB",07-06-2024 13:00:00, 16.5038,74.3623,OZONE,12,60,43
India,Maharashtra,Solapur,"Ratandeep Housing Society, Solapur - MPCB",07-06-2024 13:00:00,17.65439,75.90649,NH3,14,14,14
India,Maharashtra,Solapur,"Ratandeep Housing Society, Solapur - MPCB",07-06-2024 13:00:00,17.65439,75.90649,OZONE,37,69,51
India,Maharashtra,Solapur,"Solapur, Solapur - MPCB",07-06-2024 13:00:00,17.6599188,75.9063906,PM2.5,67,77,69
India,Maharashtra,Thane,"Kasarvadavali, Thane - MPCB",07-06-2024 13:00:00,19.26777,72.97182,OZONE,10,35,19
India,Maharashtra,Thane,"Pimpleshwar Mandir, Thane - MPCB",07-06-2024 13:00:00,19.192056,72.9585188,NH3,1,7,2
India,Maharashtra,Thane,"Upvan Fort, Thane - MPCB",07-06-2024 13:00:00,19.222279,72.957979,SO2,1,7,3
India,Maharashtra,Ulhasnagar,"Sidhi Vinayak Nagar, Ulhasnagar - MPCB",07-06-2024 13:00:00,19.235581,73.159121,PM2.5,52,116,76
India,Maharashtra,Ulhasnagar,"Sidhi Vinayak Nagar, Ulhasnagar - MPCB",07-06-2024 13:00:00,19.235581,73.159121,PM10,63,111,87
India,Maharashtra,Ulhasnagar,"Sidhi Vinayak Nagar, Ulhasnagar - MPCB",07-06-2024 13:00:00,19.235581,73.159121,NH3,1,3,2
India,Maharashtra,Virar,"Bolinj, Virar - MPCB",07-06-2024 13:00:00,19.4458210,72.7988231,PM10,87,93,90
India,Maharashtra,Virar,"Bolinj, Virar - MPCB",07-06-2024 13:00:00,19.4458210,72.7988231,NO2,12,12,12
India,Maharashtra,Virar,"Bolinj, Virar - MPCB",07-06-2024 13:00:00,19.4458210,72.7988231,NH3,9,9,9
India,Manipur,Imphal,"Manipur University, Imphal - Manipur PCB",07-06-2024 13:00:00,24.7524239,93.9286218,SO2,97,103,101
India,Mizoram,Aizawl,"Sikulpuikawn, Aizawl - Mizoram PCB",07-06-2024 13:00:00,23.7176342,92.7192841,PM2.5,5,28,18
India,Odisha,Angul,"Hakimapada, Angul - OSPCB",07-06-2024 13:00:00,20.832874,85.104082,NO2,3,23,9
India,Odisha,Angul,"Hakimapada, Angul - OSPCB",07-06-2024 13:00:00,20.832874,85.104082,OZONE,23,103,67
India,Odisha,Barbil,"Forest Office, Barbil - OSPCB",07-06-2024 13:00:00,22.1166054,85.3945546,PM10,91,399,157
India,Odisha,Baripada,"Meher Colony, Baripada - OSPCB",07-06-2024 13:00:00,21.941841,86.728318,NH3,NA,NA,NA
India,Odisha,Baripada,"Meher Colony, Baripada - OSPCB",07-06-2024 13:00:00,21.941841,86.728318,OZONE,45,126,68
India,Odisha,Bhubaneswar,"Lingraj Mandir, Bhubaneswar - OSPCB",07-06-2024 13:00:00,20.240790,85.836784,SO2,2,22,12
India,Odisha,Bhubaneswar,"Lingraj Mandir, Bhubaneswar - OSPCB",07-06-2024 13:00:00,20.240790,85.836784,OZONE,40,86,51
India,Odisha,Bhubaneswar,"Patia, Bhubaneswar - OSPCB",07-06-2024 13:00:00,20.34652,85.81630,NO2,7,28,13
India,Odisha,Bileipada,"Tata Township, Bileipada - OSPCB",07-06-2024 13:00:00,22.06156703,85.47409613,PM10,104,252,164
India,Odisha,Brajrajnagar,"GM Office, Brajrajnagar - OSPCB",07-06-2024 13:00:00,21.8004996,83.8396977,PM10,36,159,88
India,Odisha,Brajrajnagar,"GM Office, Brajrajnagar - OSPCB",07-06-2024 13:00:00,21.8004996,83.8396977,NO2,19,24,21
India,Odisha,Brajrajnagar,"GM Office, Brajrajnagar - OSPCB",07-06-2024 13:00:00,21.8004996,83.8396977,OZONE,9,135,44
India,Odisha,Byasanagar,"Ferro Chrome Colony, Byasanagar - OSPCB",07-06-2024 13:00:00,20.94185,86.11510,PM2.5,27,93,44
India,Odisha,Cuttack,"CDA Area, Cuttack - OSPCB",07-06-2024 13:00:00,20.48891     ,85.84768     ,PM2.5,13,110,47
India,Odisha,Nayagarh,"Dabuna, Nayagarh - OSPCB",07-06-2024 13:00:00,21.847279,85.416905,CO,15,20,17
India,Odisha,Rairangpur,"Divisional Forest Office, Rairangpur - OSPCB",07-06-2024 13:00:00,22.265816,86.174829,PM10,NA,NA,NA
India,Odisha,Rairangpur,"Divisional Forest Office, Rairangpur - OSPCB",07-06-2024 13:00:00,22.265816,86.174829,OZONE,21,38,34
India,Odisha,Rourkela,"Fertilizer Township, Rourkela - OSPCB",07-06-2024 13:00:00,22.18972222,84.86277778,SO2,NA,NA,NA
India,Odisha,Rourkela,"Raghunathpali, Rourkela - OSPCB",07-06-2024 13:00:00,22.220833,84.809444,NH3,1,3,2
India,Odisha,Rourkela,"Sector-2, Rourkela - OSPCB",07-06-2024 13:00:00,22.24500000,84.88111111,PM2.5,84,245,162
India,Odisha,Talcher,"Talcher Coalfields,Talcher - OSPCB",07-06-2024 13:00:00,20.9360711,85.1707021,PM10,61,271,96
India,Odisha,Tensa,"Barsua Iron Ore Mines, Tensa - OSPCB",07-06-2024 13:00:00,21.869985,85.167016,PM2.5,66,201,95
India,Odisha,Tensa,"Barsua Iron Ore Mines, Tensa - OSPCB",07-06-2024 13:00:00,21.869985,85.167016,NH3,3,4,4
India,Punjab,Bathinda,"Hardev Nagar, Bathinda - PPCB",07-06-2024 13:00:00,30.233011,74.907758,NO2,32,33,33
India,Punjab,Khanna,"Kalal Majra, Khanna - PPCB",07-06-2024 13:00:00,30.736056 ,76.209694,NH3,12,13,13
India,Punjab,Rupnagar,"Ratanpura, Rupnagar - Ambuja Cements",07-06-2024 13:00:00,31.0325454,76.5623046,PM2.5,61,228,123
India,Punjab,Rupnagar,"Ratanpura, Rupnagar - Ambuja Cements",07-06-2024 13:00:00,31.0325454,76.5623046,PM10,57,217,121
India,Punjab,Rupnagar,"Ratanpura, Rupnagar - Ambuja Cements",07-06-2024 13:00:00,31.0325454,76.5623046,SO2,9,32,10
India,Rajasthan,Ajmer,"Civil Lines,  Ajmer - RSPCB",07-06-2024 13:00:00,26.470859,74.646594,CO,20,37,29
India,Rajasthan,Alwar,"Moti Doongri, Alwar - RSPCB",07-06-2024 13:00:00,27.554793,76.611536,NH3,2,5,4
India,Rajasthan,Alwar,"Moti Doongri, Alwar - RSPCB",07-06-2024 13:00:00,27.554793,76.611536,OZONE,10,48,34
India,Rajasthan,Banswara,"Rati Talai, Banswara - RSPCB",07-06-2024 13:00:00,23.555190,74.440010,CO,1,38,31
India,Rajasthan,Baran,"Bamboliya, Baran - RSPCB",07-06-2024 13:00:00,25.106006,76.469948,NO2,5,55,14
India,Rajasthan,Bharatpur,"Krishna Nagar, Bharatpur - RSPCB",07-06-2024 13:00:00,27.215415,77.50873,PM2.5,42,500,240
India,Rajasthan,Bhiwadi,"Vasundhara Nagar_UIT, Bhiwadi - RSPCB",07-06-2024 13:00:00,28.207266,76.829265,CO,13,13,13
India,Rajasthan,Bikaner,"MM Ground, Bikaner - RSPCB",07-06-2024 13:00:00,28.018792,73.292658,SO2,2,10,5
India,Rajasthan,Bundi,"New Colony, Bundi - RSPCB",07-06-2024 13:00:00,25.435774,75.644272,NO2,5,92,21
India,Rajasthan,Bundi,"New Colony, Bundi - RSPCB",07-06-2024 13:00:00,25.435774,75.644272,OZONE,10,80,68
India,Rajasthan,Dausa,"Khatikan Mohalla, Dausa - RSPCB",07-06-2024 13:00:00,26.895552,76.334753,NO2,6,77,28
India,Rajasthan,Dholpur,"Raja Ganj, Dholpur - RSPCB",07-06-2024 13:00:00,26.699557,77.898881,PM2.5,37,372,144
India,Rajasthan,Dholpur,"Raja Ganj, Dholpur - RSPCB",07-06-2024 13:00:00,26.699557,77.898881,PM10,NA,NA,NA
India,Rajasthan,Dholpur,"Raja Ganj, Dholpur - RSPCB",07-06-2024 13:00:00,26.699557,77.898881,SO2,3,19,8
India,Rajasthan,Dungarpur,"Bhoiwada, Dungarpur - RSPCB",07-06-2024 13:00:00,23.837789,73.714926,PM10,59,158,104
India,Rajasthan,Hanumangarh,"Housing Board, Hanumangarh - RSPCB",07-06-2024 13:00:00,29.610750,74.283608,NH3,7,14,9
India,Rajasthan,Hanumangarh,"Housing Board, Hanumangarh - RSPCB",07-06-2024 13:00:00,29.610750,74.283608,OZONE,8,56,26
India,Rajasthan,Jaipur,"Adarsh Nagar, Jaipur - RSPCB",07-06-2024 13:00:00,26.902909,75.836858,NH3,6,18,10
India,Rajasthan,Jaipur,"Mansarovar Sector-12, Jaipur - RSPCB",07-06-2024 13:00:00,26.843698,75.766894,PM10,NA,NA,NA
India,Rajasthan,Jaipur,"Mansarovar Sector-12, Jaipur - RSPCB",07-06-2024 13:00:00,26.843698,75.766894,OZONE,28,119,68
India,Rajasthan,Jaipur,"Police Commissionerate, Jaipur - RSPCB",07-06-2024 13:00:00,26.9164092,75.7994901,CO,3,78,36
India,Rajasthan,Jaipur,"Sector-2 Murlipura, Jaipur - RSPCB",07-06-2024 13:00:00,26.960669,75.771817,PM2.5,28,479,236
India,Rajasthan,Jaipur,"Sector-2 Murlipura, Jaipur - RSPCB",07-06-2024 13:00:00,26.960669,75.771817,SO2,6,78,16
India,Rajasthan,Jaisalmer,"Sadar Bazar, Jaisalmer - RSPCB",07-06-2024 13:00:00,26.912329,70.909168,PM2.5,29,401,129
India,Rajasthan,Jaisalmer,"Sadar Bazar, Jaisalmer - RSPCB",07-06-2024 13:00:00,26.912329,70.909168,NO2,6,20,12
India,Rajasthan,Jhalawar,"Rajlaxmi Nagar, Jhalawar - RSPCB",07-06-2024 13:00:00,24.588397,76.172782,PM2.5,16,470,115
India,Rajasthan,Jhunjhunu,"Indra Nagar, Jhunjhunu - RSPCB",07-06-2024 13:00:00,28.108988,75.386577,SO2,3,5,4
India,Rajasthan,Jodhpur,"Digari Kalan, Jodhpur - RSPCB",07-06-2024 13:00:00,26.295810,73.082283,PM10,71,500,165
India,Rajasthan,Jodhpur,"Jhalamand, Jodhpur - RSPCB",07-06-2024 13:00:00,26.215415,73.070156,NO2,2,19,6
India,Rajasthan,Jodhpur,"Jhalamand, Jodhpur - RSPCB",07-06-2024 13:00:00,26.215415,73.070156,NH3,2,32,7
India,Rajasthan,Jodhpur,"Mandor, Jodhpur - RSPCB",07-06-2024 13:00:00,26.358805,73.047444,PM10,63,500,155
India,Rajasthan,Karauli,"Satyawati Vihar, Karauli - RSPCB",07-06-2024 13:00:00,26.506177,77.025989,PM2.5,NA,NA,NA
India,Rajasthan,Kota,"Dhanmandi, Kota - RSPCB",07-06-2024 13:00:00,25.164090,75.858137,SO2,2,38,13
India,Rajasthan,Kota,"Nayapura, Kota - RSPCB",07-06-2024 13:00:00,25.196024,75.855668,SO2,2,7,4
India,Rajasthan,Kota,"Shrinath Puram, Kota - RSPCB",07-06-2024 13:00:00,25.14389,75.821256,PM2.5,82,500,156
India,Rajasthan,Kota,"Shrinath Puram, Kota - RSPCB",07-06-2024 13:00:00,25.14389,75.821256,NO2,16,74,38
India,Rajasthan,Nagaur,"Karni Colony, Nagaur - RSPCB",07-06-2024 13:00:00,27.213494,73.734444,NH3,4,10,7
India,Rajasthan,Rajsamand,"Dhoinda, Rajsamand - RSPCB",07-06-2024 13:00:00,25.036360,73.883502,PM10,44,101,61
India,Rajasthan,Sawai Madhopur,"Sahu Nagar, Sawai Madhopur - RSPCB",07-06-2024 13:00:00,26.031443,76.359327,PM2.5,62,500,282
India,Rajasthan,Sawai Madhopur,"Sahu Nagar, Sawai Madhopur - RSPCB",07-06-2024 13:00:00,26.031443,76.359327,NO2,14,21,18
India,Rajasthan,Sikar,"Radhakishan Pura, Sikar - RSPCB",07-06-2024 13:00:00,27.608912,75.153302,CO,16,61,40
India,Rajasthan,Sirohi,"Vedhaynath Colony, Sirohi - RSPCB",07-06-2024 13:00:00,24.885261,72.857549,NO2,3,26,10
India,Rajasthan,Sri Ganganagar,"Old City, Sri Ganganagar - RSPCB",07-06-2024 13:00:00,29.931624,73.864511,PM10,NA,NA,NA
India,Rajasthan,Sri Ganganagar,"Old City, Sri Ganganagar - RSPCB",07-06-2024 13:00:00,29.931624,73.864511,NH3,NA,NA,NA
India,Rajasthan,Sri Ganganagar,"Old City, Sri Ganganagar - RSPCB",07-06-2024 13:00:00,29.931624,73.864511,CO,14,58,35
India,Rajasthan,Tonk,"Shastri Nagar, Tonk - RSPCB",07-06-2024 13:00:00,26.159933,75.780517,NO2,5,40,13
India,Rajasthan,Tonk,"Shastri Nagar, Tonk - RSPCB",07-06-2024 13:00:00,26.159933,75.780517,NH3,1,11,4
India,Rajasthan,Tonk,"Shastri Nagar, Tonk - RSPCB",07-06-2024 13:00:00,26.159933,75.780517,SO2,1,9,4
India,Rajasthan,Tonk,"Shastri Nagar, Tonk - RSPCB",07-06-2024 13:00:00,26.159933,75.780517,CO,40,70,48
India,Sikkim,Gangtok,"Zero Point GICI, Gangtok - SSPCB",07-06-2024 13:00:00,27.338530,88.614099,OZONE,17,52,34
India,TamilNadu,Ariyalur,"Keelapalur, Ariyalur - TNPCB",07-06-2024 13:00:00,11.06825,79.07033,PM10,NA,NA,NA
India,TamilNadu,Ariyalur,"Keelapalur, Ariyalur - TNPCB",07-06-2024 13:00:00,11.06825,79.07033,SO2,30,55,33
India,TamilNadu,Chennai,"Alandur Bus Depot, Chennai - CPCB",07-06-2024 13:00:00,12.9099161,80.1076538,CO,60,66,62
India,TamilNadu,Chennai,"Arumbakkam, Chennai - TNPCB",07-06-2024 13:00:00,13.0664,80.2112 ,PM2.5,3,61,18
India,TamilNadu,Chennai,"Manali, Chennai - CPCB",07-06-2024 13:00:00,13.164544,80.26285,CO,60,115,93
India,TamilNadu,Chennai,"Royapuram, Chennai - TNPCB",07-06-2024 13:00:00,13.1036,80.2909,PM10,NA,NA,NA
India,TamilNadu,Chennai,"Royapuram, Chennai - TNPCB",07-06-2024 13:00:00,13.1036,80.2909,NH3,NA,NA,NA
India,TamilNadu,Coimbatore,"PSG College of Arts and Science, Coimbatore - TNPCB",07-06-2024 13:00:00,11.0328,77.0349,CO,2,13,10
India,TamilNadu,Cuddalore,"Kudikadu, Cuddalore - TNPCB",07-06-2024 13:00:00,11.6829898,79.7532099,PM10,6,55,25
India,TamilNadu,Cuddalore,"Semmandalam, Cuddalore - TNPCB",07-06-2024 13:00:00,11.7637683,79.7499835,PM2.5,NA,NA,NA
India,TamilNadu,Ooty,"Bombay Castel, Ooty - TNPCB",07-06-2024 13:00:00,11.4068288,76.7138973,NH3,NA,NA,NA
India,TamilNadu,Ooty,"Bombay Castel, Ooty - TNPCB",07-06-2024 13:00:00,11.4068288,76.7138973,SO2,15,16,16
India,TamilNadu,Ramanathapuram,"Chalai Bazaar, Ramanathapuram - TNPCB",07-06-2024 13:00:00,9.36399,78.831977,PM10,5,29,14
India,TamilNadu,Salem,"Sona College of Technology, Salem - TNPCB",07-06-2024 13:00:00,11.679111,78.125052,PM10,6,41,19
India,TamilNadu,Salem,"Sona College of Technology, Salem - TNPCB",07-06-2024 13:00:00,11.679111,78.125052,OZONE,3,3,3
India,TamilNadu,Thoothukudi,"Meelavittan, Thoothukudi - TNPCB",07-06-2024 13:00:00,8.816428 ,78.099039,NO2,25,32,28
India,TamilNadu,Tirupur,"Kumaran College, Tirupur - TNPCB",07-06-2024 13:00:00,11.0973603,77.3228673,PM2.5,1,12,6
India,TamilNadu,Tirupur,"Kumaran College, Tirupur - TNPCB",07-06-2024 13:00:00,11.0973603,77.3228673,OZONE,6,7,6
India,TamilNadu,Vellore,"Vasanthapuram, Vellore - TNPCB",07-06-2024 13:00:00,12.909494,79.131861,PM10,NA,NA,NA
India,Telangana,Hyderabad,"Central University, Hyderabad - TSPCB",07-06-2024 13:00:00,17.460103,78.334361,CO,14,42,19
India,Telangana,Hyderabad,"ICRISAT Patancheru, Hyderabad - TSPCB",07-06-2024 13:00:00,17.518400,78.278777,SO2,1,24,10
India,Telangana,Hyderabad,"IITH Kandi, Hyderabad - TSPCB",07-06-2024 13:00:00,17.585705,78.126199,PM2.5,NA,NA,NA
India,Telangana,Hyderabad,"IITH Kandi, Hyderabad - TSPCB",07-06-2024 13:00:00,17.585705,78.126199,NO2,NA,NA,NA
India,Telangana,Hyderabad,"IITH Kandi, Hyderabad - TSPCB",07-06-2024 13:00:00,17.585705,78.126199,CO,3,46,5
India,Telangana,Hyderabad,"Kokapet, Hyderabad - TSPCB",07-06-2024 13:00:00,17.393559,78.339194,PM10,74,93,82
India,Telangana,Hyderabad,"Nacharam_TSIIC IALA, Hyderabad - TSPCB",07-06-2024 13:00:00,17.429398,78.569354,PM10,73,91,88
India,Telangana,Hyderabad,"Nacharam_TSIIC IALA, Hyderabad - TSPCB",07-06-2024 13:00:00,17.429398,78.569354,OZONE,36,67,63
India,Telangana,Hyderabad,"New Malakpet, Hyderabad - TSPCB",07-06-2024 13:00:00,17.37206,78.50864,PM10,NA,NA,NA
India,Telangana,Hyderabad,"New Malakpet, Hyderabad - TSPCB",07-06-2024 13:00:00,17.37206,78.50864,NO2,NA,NA,NA
India,Telangana,Hyderabad,"New Malakpet, Hyderabad - TSPCB",07-06-2024 13:00:00,17.37206,78.50864,OZONE,NA,NA,NA
India,Telangana,Hyderabad,"Sanathnagar, Hyderabad - TSPCB",07-06-2024 13:00:00,17.4559458,78.4332152,SO2,6,9,8
India,Telangana,Hyderabad,"Sanathnagar, Hyderabad - TSPCB",07-06-2024 13:00:00,17.4559458,78.4332152,CO,26,47,33
India,Telangana,Hyderabad,"Zoo Park, Hyderabad - TSPCB",07-06-2024 13:00:00,17.349694,78.451437,PM2.5,NA,NA,NA
India,Tripura,Agartala,"Bardowali, Agartala - Tripura SPCB",07-06-2024 13:00:00,23.8175497,91.2726974,CO,14,42,16
India,Tripura,Agartala,"Bardowali, Agartala - Tripura SPCB",07-06-2024 13:00:00,23.8175497,91.2726974,OZONE,1,33,16
India,Uttar_Pradesh,Agra,"Rohta, Agra - UPPCB",07-06-2024 13:00:00,27.106972,78.000111,SO2,3,8,5
India,Uttar_Pradesh,Agra,"Sanjay Palace, Agra - UPPCB",07-06-2024 13:00:00,27.19865833,78.00598056,OZONE,20,88,35
India,Uttar_Pradesh,Agra,"Shahjahan Garden, Agra - UPPCB",07-06-2024 13:00:00,27.169338,78.03582,OZONE,1,11,4
India,Uttar_Pradesh,Baghpat,"Sardar Patel Inter College, Baghpat - UPPCB",07-06-2024 13:00:00,28.964949,77.278761,NO2,10,50,27
India,Uttar_Pradesh,Baghpat,"Sardar Patel Inter College, Baghpat - UPPCB",07-06-2024 13:00:00,28.964949,77.278761,CO,18,118,66
India,Uttar_Pradesh,Baghpat,"Sardar Patel Inter College, Baghpat - UPPCB",07-06-2024 13:00:00,28.964949,77.278761,OZONE,11,61,26
India,Uttar_Pradesh,Bareilly,"Civil Lines, Bareilly - UPPCB",07-06-2024 13:00:00,28.359581,79.414455,NO2,2,3,2
India,Uttar_Pradesh,Bulandshahr,"Yamunapuram, Bulandshahr - UPPCB",07-06-2024 13:00:00,28.406963,77.849831,OZONE,17,114,44
India,Uttar_Pradesh,Ghaziabad,"Indirapuram, Ghaziabad - UPPCB",07-06-2024 13:00:00,28.646233,77.358075,PM10,116,304,200
India,Uttar_Pradesh,Ghaziabad,"Indirapuram, Ghaziabad - UPPCB",07-06-2024 13:00:00,28.646233,77.358075,NH3,10,17,13
India,Uttar_Pradesh,Ghaziabad,"Loni, Ghaziabad - UPPCB",07-06-2024 13:00:00,28.757294,77.278792,NH3,2,6,4
India,Uttar_Pradesh,Ghaziabad,"Sanjay Nagar, Ghaziabad - UPPCB",07-06-2024 13:00:00,28.685382,77.453839,NH3,9,17,13
India,Uttar_Pradesh,Ghaziabad,"Sanjay Nagar, Ghaziabad - UPPCB",07-06-2024 13:00:00,28.685382,77.453839,OZONE,3,145,81
India,Uttar_Pradesh,Ghaziabad,"Vasundhara, Ghaziabad - UPPCB",07-06-2024 13:00:00,28.6603346,77.3572563,NH3,5,9,7
India,Uttar_Pradesh,Ghaziabad,"Vasundhara, Ghaziabad - UPPCB",07-06-2024 13:00:00,28.6603346,77.3572563,CO,2,107,42
India,Uttar_Pradesh,Greater Noida,"Knowledge Park - III, Greater Noida - UPPCB",07-06-2024 13:00:00,28.47272,77.482000,NH3,1,4,2
India,Uttar_Pradesh,Greater Noida,"Knowledge Park - III, Greater Noida - UPPCB",07-06-2024 13:00:00,28.47272,77.482000,SO2,10,44,18
India,Uttar_Pradesh,Greater Noida,"Knowledge Park - V, Greater Noida - UPPCB",07-06-2024 13:00:00,28.557054,77.453663,PM2.5,3,303,116
India,Uttar_Pradesh,Jhansi,"Shivaji Nagar, Jhansi - UPPCB",07-06-2024 13:00:00,25.4547,78.6039,PM10,NA,NA,NA
India,Uttar_Pradesh,Kanpur,"FTI Kidwai Nagar, Kanpur - UPPCB",07-06-2024 13:00:00,26.428282,80.327067,NH3,2,3,2
India,Uttar_Pradesh,Kanpur,"FTI Kidwai Nagar, Kanpur - UPPCB",07-06-2024 13:00:00,26.428282,80.327067,OZONE,19,71,37
India,Uttar_Pradesh,Kanpur,"NSI Kalyanpur, Kanpur - UPPCB",07-06-2024 13:00:00,26.509954,80.249612,SO2,17,45,22
India,Uttar_Pradesh,Kanpur,"Nehru Nagar, Kanpur - UPPCB",07-06-2024 13:00:00,26.4703136,80.3229863,PM2.5,37,211,80
India,Uttar_Pradesh,Kanpur,"Nehru Nagar, Kanpur - UPPCB",07-06-2024 13:00:00,26.4703136,80.3229863,PM10,34,126,65
India,Uttar_Pradesh,Kanpur,"Nehru Nagar, Kanpur - UPPCB",07-06-2024 13:00:00,26.4703136,80.3229863,CO,28,78,64
India,Uttar_Pradesh,Lucknow,"B R Ambedkar University, Lucknow - UPPCB",07-06-2024 13:00:00,26.766433,80.927299,PM2.5,29,233,118
India,Uttar_Pradesh,Lucknow,"Kendriya Vidyalaya, Lucknow - CPCB",07-06-2024 13:00:00,26.906111,80.948222,PM2.5,35,236,116
India,Uttar_Pradesh,Lucknow,"Kendriya Vidyalaya, Lucknow - CPCB",07-06-2024 13:00:00,26.906111,80.948222,PM10,24,118,90
India,Uttar_Pradesh,Lucknow,"Kendriya Vidyalaya, Lucknow - CPCB",07-06-2024 13:00:00,26.906111,80.948222,SO2,6,19,10
India,Uttar_Pradesh,Lucknow,"Kukrail Picnic Spot-1, Lucknow - UPPCB",07-06-2024 13:00:00,26.90723,80.98579,OZONE,2,53,28
India,Uttar_Pradesh,Lucknow,"Lalbagh, Lucknow - CPCB",07-06-2024 13:00:00,26.8458805,80.9365541,NH3,13,17,15
India,Uttar_Pradesh,Lucknow,"Lalbagh, Lucknow - CPCB",07-06-2024 13:00:00,26.8458805,80.9365541,OZONE,15,189,189
India,Uttar_Pradesh,Lucknow,"Talkatora District Industries Center, Lucknow - CPCB",07-06-2024 13:00:00,26.83399722,80.8917361,SO2,1,15,9
India,Uttar_Pradesh,Meerut,"Ganga Nagar, Meerut - UPPCB",07-06-2024 13:00:00,28.999264,77.7590354,NH3,7,13,9
India,Uttar_Pradesh,Meerut,"Ganga Nagar, Meerut - UPPCB",07-06-2024 13:00:00,28.999264,77.7590354,OZONE,28,136,59
India,Uttar_Pradesh,Meerut,"Jai Bhim Nagar, Meerut - UPPCB",07-06-2024 13:00:00,28.9535882,77.7622941,PM2.5,28,186,73
India,Uttar_Pradesh,Meerut,"Pallavpuram Phase 2, Meerut - UPPCB",07-06-2024 13:00:00,29.063510,77.709723,PM10,71,408,153
India,Uttar_Pradesh,Meerut,"Pallavpuram Phase 2, Meerut - UPPCB",07-06-2024 13:00:00,29.063510,77.709723,NO2,16,41,24
India,Uttar_Pradesh,Meerut,"Pallavpuram Phase 2, Meerut - UPPCB",07-06-2024 13:00:00,29.063510,77.709723,CO,18,72,33
India,Uttar_Pradesh,Moradabad,"Buddhi Vihar, Moradabad - UPPCB",07-06-2024 13:00:00,28.83526,78.74460,PM2.5,27,101,53
India,Uttar_Pradesh,Moradabad,"Buddhi Vihar, Moradabad - UPPCB",07-06-2024 13:00:00,28.83526,78.74460,NO2,23,23,23
India,Uttar_Pradesh,Moradabad,"Buddhi Vihar, Moradabad - UPPCB",07-06-2024 13:00:00,28.83526,78.74460,OZONE,29,93,55
India,Uttar_Pradesh,Moradabad,"Eco Herbal Park, Moradabad - UPPCB",07-06-2024 13:00:00,28.840739,78.697531,PM10,40,158,94
India,Uttar_Pradesh,Moradabad,"Eco Herbal Park, Moradabad - UPPCB",07-06-2024 13:00:00,28.840739,78.697531,NO2,10,40,21
India,Uttar_Pradesh,Moradabad,"Employment Office, Moradabad - UPPCB",07-06-2024 13:00:00,28.88528,78.73880,NH3,4,4,4
India,Uttar_Pradesh,Moradabad,"Jigar Colony, Moradabad - UPPCB",07-06-2024 13:00:00,28.856664,78.772638,SO2,17,21,19
India,Uttar_Pradesh,Moradabad,"Kashiram Nagar, Moradabad - UPPCB",07-06-2024 13:00:00,28.849399,78.742362,PM10,52,190,110
India,Uttar_Pradesh,Muzaffarnagar,"New Mandi, Muzaffarnagar - UPPCB",07-06-2024 13:00:00,29.4723508,77.7194031,OZONE,30,93,53
India,Uttar_Pradesh,Noida,"Sector - 125, Noida - UPPCB",07-06-2024 13:00:00,28.5447608,77.3231257,NH3,NA,NA,NA
India,Uttar_Pradesh,Noida,"Sector - 62, Noida - IMD",07-06-2024 13:00:00,28.6245479,77.3577104,PM10,113,479,223
India,Uttar_Pradesh,Noida,"Sector - 62, Noida - IMD",07-06-2024 13:00:00,28.6245479,77.3577104,OZONE,14,71,33
India,Uttar_Pradesh,Noida,"Sector-1, Noida - UPPCB",07-06-2024 13:00:00,28.5898,77.3101,OZONE,8,257,153
India,Uttar_Pradesh,Noida,"Sector-116, Noida - UPPCB",07-06-2024 13:00:00,28.569230,77.393848,NO2,30,129,58
India,Uttar_Pradesh,Noida,"Sector-116, Noida - UPPCB",07-06-2024 13:00:00,28.569230,77.393848,CO,33,110,64
India,Uttar_Pradesh,Prayagraj,"Jhunsi, Prayagraj - UPPCB",07-06-2024 13:00:00,25.425602,81.917152,NH3,5,5,5
India,Uttar_Pradesh,Prayagraj,"Jhunsi, Prayagraj - UPPCB",07-06-2024 13:00:00,25.425602,81.917152,CO,2,31,16
India,Uttar_Pradesh,Prayagraj,"Jhunsi, Prayagraj - UPPCB",07-06-2024 13:00:00,25.425602,81.917152,OZONE,1,111,52
India,Uttar_Pradesh,Prayagraj,"Motilal Nehru NIT, Prayagraj - UPPCB",07-06-2024 13:00:00,25.494,81.863,NH3,6,7,7
India,Uttar_Pradesh,Prayagraj,"Motilal Nehru NIT, Prayagraj - UPPCB",07-06-2024 13:00:00,25.494,81.863,SO2,12,32,19
India,Uttar_Pradesh,Prayagraj,"Nagar Nigam, Prayagraj - UPPCB",07-06-2024 13:00:00,25.44919916 ,81.82735986 ,PM2.5,49,263,132
India,Uttar_Pradesh,Prayagraj,"Nagar Nigam, Prayagraj - UPPCB",07-06-2024 13:00:00,25.44919916 ,81.82735986 ,NO2,5,5,5
India,Uttar_Pradesh,Varanasi,"Ardhali Bazar, Varanasi - UPPCB",07-06-2024 13:00:00,25.3505986,82.9083074,CO,32,54,39
India,Uttar_Pradesh,Varanasi,"Ardhali Bazar, Varanasi - UPPCB",07-06-2024 13:00:00,25.3505986,82.9083074,OZONE,27,35,28
India,Uttar_Pradesh,Varanasi,"Bhelupur, Varanasi - UPPCB",07-06-2024 13:00:00,25.301778,82.996789,SO2,31,32,31
India,Uttar_Pradesh,Varanasi,"IESD Banaras Hindu University, Varanasi - UPPCB",07-06-2024 13:00:00,25.262326,82.995408,PM10,13,58,34
India,Uttar_Pradesh,Varanasi,"IESD Banaras Hindu University, Varanasi - UPPCB",07-06-2024 13:00:00,25.262326,82.995408,NO2,2,2,2
India,Uttar_Pradesh,Vrindavan,"Omex Eternity, Vrindavan - UPPCB",07-06-2024 13:00:00,27.5714090,77.6557570,OZONE,17,24,22
India,Uttarakhand,Dehradun,"Doon University, Dehradun - UKPCB",07-06-2024 13:00:00,30.269444,78.044167,PM10,51,107,75
India,Uttarakhand,Dehradun,"Doon University, Dehradun - UKPCB",07-06-2024 13:00:00,30.269444,78.044167,CO,14,24,20
India,Uttarakhand,Kashipur,"Govt. Girls Inter College, Kashipur - UKPCB",07-06-2024 13:00:00,29.2124114,78.9611753,PM2.5,68,166,102
India,Uttarakhand,Kashipur,"Govt. Girls Inter College, Kashipur - UKPCB",07-06-2024 13:00:00,29.2124114,78.9611753,NO2,1,20,11
India,Uttarakhand,Kashipur,"Govt. Girls Inter College, Kashipur - UKPCB",07-06-2024 13:00:00,29.2124114,78.9611753,NH3,1,5,3
India,Uttarakhand,Kashipur,"Govt. Girls Inter College, Kashipur - UKPCB",07-06-2024 13:00:00,29.2124114,78.9611753,OZONE,28,99,55
India,West_Bengal,Asansol,"Asansol Court Area, Asansol - WBPCB",07-06-2024 13:00:00,23.685297,86.945968,PM2.5,154,317,222
India,West_Bengal,Asansol,"Asansol Court Area, Asansol - WBPCB",07-06-2024 13:00:00,23.685297,86.945968,NO2,22,34,29
India,West_Bengal,Asansol,"Evelyn Lodge, Asansol - WBPCB",07-06-2024 13:00:00,23.6979360,86.9443950,PM10,109,173,134
India,West_Bengal,Asansol,"Evelyn Lodge, Asansol - WBPCB",07-06-2024 13:00:00,23.6979360,86.9443950,OZONE,5,83,39
India,West_Bengal,Barrackpore,"SVSPA Campus, Barrackpore - WBPCB",07-06-2024 13:00:00,22.7605581,88.3617589,SO2,4,13,8
India,West_Bengal,Durgapur,"PCBL Residential Complex, Durgapur - WBPCB",07-06-2024 13:00:00,23.5087640,87.3544400,PM2.5,NA,NA,NA
India,West_Bengal,Durgapur,"PCBL Residential Complex, Durgapur - WBPCB",07-06-2024 13:00:00,23.5087640,87.3544400,PM10,NA,NA,NA
India,West_Bengal,Durgapur,"Sidhu Kanhu Indoor Stadium, Durgapur - WBPCB",07-06-2024 13:00:00,23.5404352,87.2892225,PM10,88,199,156
India,West_Bengal,Durgapur,"Sidhu Kanhu Indoor Stadium, Durgapur - WBPCB",07-06-2024 13:00:00,23.5404352,87.2892225,SO2,12,66,31
India,West_Bengal,Haldia,"Priyambada Housing Estate, Haldia - WBPCB",07-06-2024 13:00:00,22.06047,88.109737,NH3,3,4,4
India,West_Bengal,Haldia,"Priyambada Housing Estate, Haldia - WBPCB",07-06-2024 13:00:00,22.06047,88.109737,CO,28,38,31
India,West_Bengal,Howrah,"Belur Math, Howrah - WBPCB",07-06-2024 13:00:00,22.629801,88.352017,PM10,80,113,94
India,West_Bengal,Howrah,"Belur Math, Howrah - WBPCB",07-06-2024 13:00:00,22.629801,88.352017,NO2,12,25,19
India,West_Bengal,Howrah,"Ghusuri, Howrah - WBPCB",07-06-2024 13:00:00,22.611968,88.347422,NH3,NA,NA,NA
India,West_Bengal,Kolkata,"Ballygunge, Kolkata - WBPCB",07-06-2024 13:00:00,22.5367507,88.3638022,PM2.5,28,113,57
India,West_Bengal,Kolkata,"Ballygunge, Kolkata - WBPCB",07-06-2024 13:00:00,22.5367507,88.3638022,NO2,12,32,20
India,West_Bengal,Kolkata,"Bidhannagar, Kolkata - WBPCB",07-06-2024 13:00:00,22.58157048,88.41002457,PM2.5,36,85,58
India,West_Bengal,Kolkata,"Fort William, Kolkata - WBPCB",07-06-2024 13:00:00,22.556640,88.342674,PM2.5,70,149,95
India,West_Bengal,Kolkata,"Fort William, Kolkata - WBPCB",07-06-2024 13:00:00,22.556640,88.342674,CO,19,30,21
India,West_Bengal,Kolkata,"Jadavpur, Kolkata - WBPCB",07-06-2024 13:00:00,22.49929,88.36917,PM10,35,89,60
India,West_Bengal,Kolkata,"Victoria, Kolkata - WBPCB",07-06-2024 13:00:00,22.5448082,88.3403691,OZONE,10,53,27
India,West_Bengal,Siliguri,"Ward-32 Bapupara, Siliguri - WBPCB",07-06-2024 13:00:00,26.6879226,88.4152495,OZONE,14,31,16
India,Andhra_Pradesh,Anantapur,"Gulzarpet, Anantapur - APPCB",07-06-2024 13:00:00,14.675886,77.593027,PM10,35,60,50
India,Andhra_Pradesh,Anantapur,"Gulzarpet, Anantapur - APPCB",07-06-2024 13:00:00,14.675886,77.593027,NH3,4,4,4
India,Andhra_Pradesh,Anantapur,"Gulzarpet, Anantapur - APPCB",07-06-2024 13:00:00,14.675886,77.593027,OZONE,2,20,2
India,Andhra_Pradesh,Kadapa,"Yerramukkapalli, Kadapa - APPCB",07-06-2024 13:00:00,14.465052,78.824187,NO2,NA,NA,NA
India,Andhra_Pradesh,Kadapa,"Yerramukkapalli, Kadapa - APPCB",07-06-2024 13:00:00,14.465052,78.824187,SO2,NA,NA,NA
India,Andhra_Pradesh,Rajamahendravaram,"Anand Kala Kshetram, Rajamahendravaram - APPCB",07-06-2024 13:00:00,16.9872867,81.7363176,SO2,11,12,12
India,Andhra_Pradesh,Tirupati,"Vaikuntapuram, Tirupati - APPCB",07-06-2024 13:00:00,13.615387,79.409230,PM10,NA,NA,NA
India,Andhra_Pradesh,Vijayawada,"HB Colony, Vijayawada - APPCB",07-06-2024 13:00:00,16.536107,80.594233,PM10,45,141,60
India,Andhra_Pradesh,Vijayawada,"HB Colony, Vijayawada - APPCB",07-06-2024 13:00:00,16.536107,80.594233,SO2,6,9,7
India,Andhra_Pradesh,Vijayawada,"HB Colony, Vijayawada - APPCB",07-06-2024 13:00:00,16.536107,80.594233,OZONE,16,46,25
India,Andhra_Pradesh,Vijayawada,"Rajiv Gandhi Park, Vijayawada - APPCB",07-06-2024 13:00:00,16.509717,80.612222,NO2,21,32,26
India,Andhra_Pradesh,Vijayawada,"Rajiv Gandhi Park, Vijayawada - APPCB",07-06-2024 13:00:00,16.509717,80.612222,CO,38,40,38
India,Andhra_Pradesh,Vijayawada,"Rajiv Nagar, Vijayawada - APPCB",07-06-2024 13:00:00,16.554731,80.649110,NO2,10,10,10
India,Andhra_Pradesh,Visakhapatnam,"GVM Corporation, Visakhapatnam - APPCB",07-06-2024 13:00:00,17.72,83.3,OZONE,10,16,11
India,Arunachal_Pradesh,Naharlagun,"Naharlagun, Naharlagun - APSPCB",07-06-2024 13:00:00,27.103358,93.679645,PM2.5,NA,NA,NA
India,Arunachal_Pradesh,Naharlagun,"Naharlagun, Naharlagun - APSPCB",07-06-2024 13:00:00,27.103358,93.679645,SO2,NA,NA,NA
India,Assam,Byrnihat,"Central Academy for SFS, Byrnihat - PCBA",07-06-2024 13:00:00,26.071318,91.87488,NO2,3,27,9
India,Assam,Byrnihat,"Central Academy for SFS, Byrnihat - PCBA",07-06-2024 13:00:00,26.071318,91.87488,SO2,5,39,16
India,Assam,Byrnihat,"Central Academy for SFS, Byrnihat - PCBA",07-06-2024 13:00:00,26.071318,91.87488,OZONE,22,128,36
India,Assam,Guwahati,"IITG, Guwahati - PCBA",07-06-2024 13:00:00,26.2028636,91.70046436,NH3,5,5,5
India,Assam,Guwahati,"IITG, Guwahati - PCBA",07-06-2024 13:00:00,26.2028636,91.70046436,SO2,13,15,13
India,Assam,Guwahati,"LGBI Airport, Guwahati - PCBA",07-06-2024 13:00:00,26.10887,91.589544,CO,36,54,50
India,Assam,Nagaon,"Christianpatty, Nagaon - PCBA",07-06-2024 13:00:00,26.349082,92.68449,PM2.5,NA,NA,NA
India,Assam,Nagaon,"Christianpatty, Nagaon - PCBA",07-06-2024 13:00:00,26.349082,92.68449,NH3,1,24,3
India,Assam,Nagaon,"Christianpatty, Nagaon - PCBA",07-06-2024 13:00:00,26.349082,92.68449,SO2,1,69,17
India,Assam,Nagaon,"Christianpatty, Nagaon - PCBA",07-06-2024 13:00:00,26.349082,92.68449,OZONE,7,95,30
India,Assam,Silchar,"Tarapur, Silchar - PCBA",07-06-2024 13:00:00,24.82827,92.79525,PM10,40,68,53
India,Bihar,Aurangabad,"Gurdeo Nagar, Aurangabad - BSPCB",07-06-2024 13:00:00,24.75746,84.366208,PM10,NA,NA,NA
India,Bihar,Bettiah,"Kamalnath Nagar, Bettiah - BSPCB",07-06-2024 13:00:00,26.80365,84.51954,PM2.5,15,88,40
India,Bihar,Bettiah,"Kamalnath Nagar, Bettiah - BSPCB",07-06-2024 13:00:00,26.80365,84.51954,PM10,63,169,122
India,Bihar,Bettiah,"Kamalnath Nagar, Bettiah - BSPCB",07-06-2024 13:00:00,26.80365,84.51954,CO,32,52,36
India,Bihar,Bhagalpur,"Mayaganj, Bhagalpur - BSPCB",07-06-2024 13:00:00,25.265194,87.012947,NH3,8,10,9
India,Bihar,Bihar Sharif,"D M Colony, Bihar Sharif - BSPCB",07-06-2024 13:00:00,25.204762,85.514960,OZONE,8,49,21
India,Bihar,Buxar,"Charitra Van, Buxar - BSPCB (Formerly known as Central Jail)",07-06-2024 13:00:00,25.567520,83.966379,OZONE,4,17,10
India,Bihar,Gaya,"Collectorate, Gaya - BSPCB",07-06-2024 13:00:00,24.7955,84.9994,SO2,4,20,10
India,Bihar,Gaya,"Kareemganj, Gaya - BSPCB",07-06-2024 13:00:00,24.792403,84.992416,PM10,43,122,73
India,Bihar,Gaya,"SFTI Kusdihra, Gaya - BSPCB",07-06-2024 13:00:00,24.762518,84.982348,CO,16,47,36
India,Bihar,Gaya,"SFTI Kusdihra, Gaya - BSPCB",07-06-2024 13:00:00,24.762518,84.982348,OZONE,18,91,37
India,Bihar,Hajipur,"Industrial Area, Hajipur - BSPCB",07-06-2024 13:00:00,25.697189,85.245900,NO2,14,35,23
India,Bihar,Katihar,"Mirchaibari, Katihar - BSPCB",07-06-2024 13:00:00,25.560083,87.553265,PM10,20,149,71
India,Bihar,Kishanganj,"SDM Office_Khagra, Kishanganj - BSPCB",07-06-2024 13:00:00,26.0881305,87.93840336,NH3,6,8,6
India,Bihar,Kishanganj,"SDM Office_Khagra, Kishanganj - BSPCB",07-06-2024 13:00:00,26.0881305,87.93840336,SO2,7,14,10
India,Bihar,Manguraha,"Forest Rest House, Manguraha - BSPCB",07-06-2024 13:00:00,27.308328,84.531742,PM2.5,NA,NA,NA
India,Bihar,Manguraha,"Forest Rest House, Manguraha - BSPCB",07-06-2024 13:00:00,27.308328,84.531742,NH3,1,4,3
India,Bihar,Munger,"Town Hall, Munger - BSPCB",07-06-2024 13:00:00,25.376776,86.471523,PM2.5,35,127,77
India,Bihar,Munger,"Town Hall, Munger - BSPCB",07-06-2024 13:00:00,25.376776,86.471523,OZONE,28,29,28
India,Bihar,Patna,"DRM Office Danapur, Patna - BSPCB",07-06-2024 13:00:00,25.586562,85.043586,PM2.5,43,251,123
India,Bihar,Patna,"DRM Office Danapur, Patna - BSPCB",07-06-2024 13:00:00,25.586562,85.043586,PM10,87,164,121
India,Bihar,Patna,"Govt. High School Shikarpur, Patna - BSPCB",07-06-2024 13:00:00,25.592539,85.227158,OZONE,1,59,26
India,Bihar,Patna,"IGSC Planetarium Complex, Patna - BSPCB",07-06-2024 13:00:00,25.610369,85.132568,PM2.5,35,166,82
India,Bihar,Patna,"IGSC Planetarium Complex, Patna - BSPCB",07-06-2024 13:00:00,25.610369,85.132568,NO2,13,13,13
India,Bihar,Patna,"IGSC Planetarium Complex, Patna - BSPCB",07-06-2024 13:00:00,25.610369,85.132568,CO,10,15,12
India,Bihar,Patna,"Muradpur, Patna - BSPCB",07-06-2024 13:00:00,25.619651,85.147382,SO2,2,10,6
India,Bihar,Patna,"Muradpur, Patna - BSPCB",07-06-2024 13:00:00,25.619651,85.147382,CO,10,96,49
India,Bihar,Patna,"Rajbansi Nagar, Patna - BSPCB",07-06-2024 13:00:00,25.599486,85.113666,PM2.5,15,155,78
India,Bihar,Patna,"Rajbansi Nagar, Patna - BSPCB",07-06-2024 13:00:00,25.599486,85.113666,NH3,1,4,3
India,Bihar,Patna,"Samanpura, Patna - BSPCB",07-06-2024 13:00:00,25.596727,85.085624,CO,29,98,46
India,Bihar,Rajgir,"Dangi Tola, Rajgir - BSPCB",07-06-2024 13:00:00,25.03280,85.41948,SO2,4,5,4
India,Bihar,Saharsa,"Police Line, Saharsa - BSPCB",07-06-2024 13:00:00,25.892357,86.590325,SO2,16,17,16
India,Bihar,Saharsa,"Police Line, Saharsa - BSPCB",07-06-2024 13:00:00,25.892357,86.590325,OZONE,13,79,41
India,Bihar,Sasaram,"Dada Peer, Sasaram - BSPCB",07-06-2024 13:00:00,24.952822,84.002396,PM10,14,163,50
India,Bihar,Sasaram,"Dada Peer, Sasaram - BSPCB",07-06-2024 13:00:00,24.952822,84.002396,NH3,6,22,12
India,Bihar,Sasaram,"Dada Peer, Sasaram - BSPCB",07-06-2024 13:00:00,24.952822,84.002396,SO2,NA,NA,NA
India,Bihar,Siwan,"Chitragupta Nagar, Siwan - BSPCB",07-06-2024 13:00:00,26.2271665,84.3570427,PM10,NA,NA,NA
India,Chandigarh,Chandigarh,"Sector 22, Chandigarh - CPCC",07-06-2024 13:00:00,30.735567,76.775714,NO2,10,45,26
India,Chandigarh,Chandigarh,"Sector-25, Chandigarh - CPCC",07-06-2024 13:00:00,30.751462,76.762879,NH3,11,21,15
India,Chandigarh,Chandigarh,"Sector-53, Chandigarh - CPCC",07-06-2024 13:00:00,30.719859,76.738637,SO2,1,11,7
India,Chhattisgarh,Bhilai,"32Bungalows, Bhilai - CECB",07-06-2024 13:00:00,21.194815,81.314770,PM10,40,82,55
India,Chhattisgarh,Bhilai,"32Bungalows, Bhilai - CECB",07-06-2024 13:00:00,21.194815,81.314770,CO,10,24,14
India,Chhattisgarh,Bhilai,"Hathkhoj, Bhilai - CECB",07-06-2024 13:00:00,21.224231,81.408350,CO,14,82,16
India,Chhattisgarh,Bilaspur,"Mangala, Bilaspur - NTPC",07-06-2024 13:00:00,22.08815,82.13737,CO,42,49,46
India,Chhattisgarh,Chhal,"Nawapara SECL Colony, Chhal - CECB",07-06-2024 13:00:00,22.118125,83.140608,PM2.5,65,160,100
India,Chhattisgarh,Chhal,"Nawapara SECL Colony, Chhal - CECB",07-06-2024 13:00:00,22.118125,83.140608,NO2,26,58,41
India,Chhattisgarh,Chhal,"Nawapara SECL Colony, Chhal - CECB",07-06-2024 13:00:00,22.118125,83.140608,NH3,1,2,2
India,Chhattisgarh,Chhal,"Nawapara SECL Colony, Chhal - CECB",07-06-2024 13:00:00,22.118125,83.140608,OZONE,14,208,208
India,Chhattisgarh,Kunjemura,"OP Jindal School, Kunjemura - CECB",07-06-2024 13:00:00,22.126650,83.483212,PM2.5,40,314,126
India,Chhattisgarh,Kunjemura,"OP Jindal School, Kunjemura - CECB",07-06-2024 13:00:00,22.126650,83.483212,NO2,14,122,66
India,Chhattisgarh,Kunjemura,"OP Jindal School, Kunjemura - CECB",07-06-2024 13:00:00,22.126650,83.483212,OZONE,4,47,18
India,Chhattisgarh,Milupara,"Govt. Higher Secondary School, Milupara - CECB",07-06-2024 13:00:00,22.1910172,83.5197009,PM10,NA,NA,NA
India,Chhattisgarh,Raipur,"AIIMS, Raipur - CECB",07-06-2024 13:00:00,21.258815,81.578979,PM10,34,69,52
India,Chhattisgarh,Raipur,"AIIMS, Raipur - CECB",07-06-2024 13:00:00,21.258815,81.578979,SO2,3,17,6
India,Chhattisgarh,Raipur,"Bhatagaon New ISBT, Raipur - CECB",07-06-2024 13:00:00,21.219665,81.630094,NO2,1,1,1
India,Chhattisgarh,Raipur,"Bhatagaon New ISBT, Raipur - CECB",07-06-2024 13:00:00,21.219665,81.630094,NH3,2,2,2
India,Chhattisgarh,Raipur,"Krishak Nagar, Raipur - CECB",07-06-2024 13:00:00,21.237755,81.705301,PM2.5,20,34,26
India,Chhattisgarh,Raipur,"Siltara Phase-II, Raipur - CECB",07-06-2024 13:00:00,21.371751,81.664929,PM10,44,102,75
India,Chhattisgarh,Raipur,"Siltara Phase-II, Raipur - CECB",07-06-2024 13:00:00,21.371751,81.664929,NH3,3,3,3
India,Chhattisgarh,Raipur,"Siltara Phase-II, Raipur - CECB",07-06-2024 13:00:00,21.371751,81.664929,SO2,NA,NA,NA
India,Chhattisgarh,Raipur,"Siltara Phase-II, Raipur - CECB",07-06-2024 13:00:00,21.371751,81.664929,OZONE,4,53,11
India,Delhi,Delhi,"Alipur, Delhi - DPCC",07-06-2024 13:00:00,28.815329,77.153010,OZONE,20,280,36
India,Delhi,Delhi,"Ashok Vihar, Delhi - DPCC",07-06-2024 13:00:00,28.695381,77.181665,NO2,15,97,37
India,Delhi,Delhi,"Aya Nagar, Delhi - IMD",07-06-2024 13:00:00,28.4706914,77.1099364,PM2.5,9,339,130
India,Delhi,Delhi,"Bawana, Delhi - DPCC",07-06-2024 13:00:00,28.776200,77.051074,NO2,13,60,26
India,Delhi,Delhi,"DTU, Delhi - CPCB",07-06-2024 13:00:00,28.7500499,77.1112615,PM10,103,500,211
India,Delhi,Delhi,"DTU, Delhi - CPCB",07-06-2024 13:00:00,28.7500499,77.1112615,NH3,18,20,19
India,Delhi,Delhi,"DTU, Delhi - CPCB",07-06-2024 13:00:00,28.7500499,77.1112615,OZONE,39,182,64
India,Delhi,Delhi,"Dr. Karni Singh Shooting Range, Delhi - DPCC",07-06-2024 13:00:00,28.498571,77.264840,PM2.5,46,268,101
India,Delhi,Delhi,"Dwarka-Sector 8, Delhi - DPCC ",07-06-2024 13:00:00,28.5710274,77.0719006,NH3,6,10,8
India,Delhi,Delhi,"IGI Airport (T3), Delhi - IMD",07-06-2024 13:00:00,28.5627763,77.1180053,PM2.5,32,311,89
India,Delhi,Delhi,"IGI Airport (T3), Delhi - IMD",07-06-2024 13:00:00,28.5627763,77.1180053,OZONE,7,71,26
India,Delhi,Delhi,"IHBAS, Dilshad Garden, Delhi - CPCB",07-06-2024 13:00:00,28.6811736,77.3025234,SO2,3,29,17
India,Delhi,Delhi,"ITO, Delhi - CPCB",07-06-2024 13:00:00,28.628624,77.241060,NO2,51,69,61
India,Delhi,Delhi,"ITO, Delhi - CPCB",07-06-2024 13:00:00,28.628624,77.241060,CO,23,114,38
India,Delhi,Delhi,"ITO, Delhi - CPCB",07-06-2024 13:00:00,28.628624,77.241060,OZONE,2,2,2
India,Delhi,Delhi,"Jahangirpuri, Delhi - DPCC",07-06-2024 13:00:00,28.732820,77.170633,PM10,115,403,239
India,Delhi,Delhi,"Jahangirpuri, Delhi - DPCC",07-06-2024 13:00:00,28.732820,77.170633,NO2,11,51,23
India,Delhi,Delhi,"Jawaharlal Nehru Stadium, Delhi - DPCC",07-06-2024 13:00:00,28.580280,77.233829,NH3,NA,NA,NA
India,Delhi,Delhi,"Jawaharlal Nehru Stadium, Delhi - DPCC",07-06-2024 13:00:00,28.580280,77.233829,CO,NA,NA,NA
India,Delhi,Delhi,"Lodhi Road, Delhi - IMD",07-06-2024 13:00:00,28.5918245,77.2273074,CO,27,56,31
India,Delhi,Delhi,"Major Dhyan Chand National Stadium, Delhi - DPCC",07-06-2024 13:00:00,28.611281,77.237738,PM2.5,60,392,163
India,Delhi,Delhi,"Major Dhyan Chand National Stadium, Delhi - DPCC",07-06-2024 13:00:00,28.611281,77.237738,CO,44,112,54
India,Delhi,Delhi,"Mandir Marg, Delhi - DPCC",07-06-2024 13:00:00,28.636429,77.201067,PM10,100,500,181
India,Delhi,Delhi,"Mundka, Delhi - DPCC",07-06-2024 13:00:00,28.684678,77.076574,OZONE,23,158,68
India,Delhi,Delhi,"NSIT Dwarka, Delhi - CPCB",07-06-2024 13:00:00,28.60909,77.0325413,PM2.5,42,309,157
India,Delhi,Delhi,"NSIT Dwarka, Delhi - CPCB",07-06-2024 13:00:00,28.60909,77.0325413,PM10,106,500,262
India,Delhi,Delhi,"NSIT Dwarka, Delhi - CPCB",07-06-2024 13:00:00,28.60909,77.0325413,CO,40,66,52
India,Delhi,Delhi,"Najafgarh, Delhi - DPCC",07-06-2024 13:00:00,28.570173,76.933762,PM10,95,500,202
India,Delhi,Delhi,"Nehru Nagar, Delhi - DPCC",07-06-2024 13:00:00,28.567890,77.250515,NH3,2,6,4
India,Delhi,Delhi,"Nehru Nagar, Delhi - DPCC",07-06-2024 13:00:00,28.567890,77.250515,SO2,4,11,7
India,Delhi,Delhi,"New Moti Bagh, Delhi - MHUA",07-06-2024 13:00:00,28.57834,77.18400,NO2,7,32,14
India,Delhi,Delhi,"Okhla Phase-2, Delhi - DPCC",07-06-2024 13:00:00,28.530785,77.271255,CO,44,121,63
India,Delhi,Delhi,"Patparganj, Delhi - DPCC",07-06-2024 13:00:00,28.623763,77.287209,NH3,7,11,9
India,Delhi,Delhi,"Patparganj, Delhi - DPCC",07-06-2024 13:00:00,28.623763,77.287209,OZONE,4,278,177
India,Delhi,Delhi,"Punjabi Bagh, Delhi - DPCC",07-06-2024 13:00:00,28.674045,77.131023,PM2.5,47,308,129
India,Delhi,Delhi,"Pusa, Delhi - DPCC",07-06-2024 13:00:00,28.639652,77.146275,CO,15,96,42
India,Delhi,Delhi,"Pusa, Delhi - DPCC",07-06-2024 13:00:00,28.639652,77.146275,OZONE,14,172,47
India,Delhi,Delhi,"Pusa, Delhi - IMD",07-06-2024 13:00:00,28.636110,77.173332,PM2.5,10,500,132
India,Delhi,Delhi,"Pusa, Delhi - IMD",07-06-2024 13:00:00,28.636110,77.173332,CO,72,96,80
India,Delhi,Delhi,"R K Puram, Delhi - DPCC",07-06-2024 13:00:00,28.563262,77.186937,PM10,91,474,250
India,Delhi,Delhi,"R K Puram, Delhi - DPCC",07-06-2024 13:00:00,28.563262,77.186937,SO2,12,40,23
India,Delhi,Delhi,"Shadipur, Delhi - CPCB",07-06-2024 13:00:00,28.6514781,77.1473105,NO2,43,80,57
India,Delhi,Delhi,"Sirifort, Delhi - CPCB",07-06-2024 13:00:00,28.5504249,77.2159377,PM10,117,500,265
India,Delhi,Delhi,"Sonia Vihar, Delhi - DPCC",07-06-2024 13:00:00,28.710508,77.249485,PM2.5,57,230,91
India,Delhi,Delhi,"Sri Aurobindo Marg, Delhi - DPCC",07-06-2024 13:00:00,28.531346,77.190156,PM10,114,448,229
India,Delhi,Delhi,"Sri Aurobindo Marg, Delhi - DPCC",07-06-2024 13:00:00,28.531346,77.190156,SO2,9,34,18
India,Delhi,Delhi,"Sri Aurobindo Marg, Delhi - DPCC",07-06-2024 13:00:00,28.531346,77.190156,CO,20,84,39
India,Delhi,Delhi,"Vivek Vihar, Delhi - DPCC",07-06-2024 13:00:00,28.672342,77.315260,PM2.5,40,163,87
India,Delhi,Delhi,"Vivek Vihar, Delhi - DPCC",07-06-2024 13:00:00,28.672342,77.315260,SO2,8,30,20
India,Delhi,Delhi,"Wazirpur, Delhi - DPCC",07-06-2024 13:00:00,28.699793,77.165453,CO,88,117,99
India,Gujarat,Ahmedabad,"Chandkheda, Ahmedabad - IITM",07-06-2024 13:00:00,23.107969,72.574648,PM10,58,113,75
India,Gujarat,Ahmedabad,"Chandkheda, Ahmedabad - IITM",07-06-2024 13:00:00,23.107969,72.574648,CO,26,28,27
India,Gujarat,Ahmedabad,"Gyaspur, Ahmedabad - IITM",07-06-2024 13:00:00,22.977134,72.553024,PM2.5,24,56,41
India,Gujarat,Ahmedabad,"Gyaspur, Ahmedabad - IITM",07-06-2024 13:00:00,22.977134,72.553024,NO2,37,55,45
India,Gujarat,Ahmedabad,"Maninagar, Ahmedabad - GPCB",07-06-2024 13:00:00,23.002657,72.591912,PM10,51,276,106
India,Gujarat,Ahmedabad,"Raikhad, Ahmedabad - IITM",07-06-2024 13:00:00,23.020509,72.579261,PM10,12,196,118
India,Gujarat,Ahmedabad,"Raikhad, Ahmedabad - IITM",07-06-2024 13:00:00,23.020509,72.579261,NH3,3,3,3
India,Gujarat,Ahmedabad,"Raikhad, Ahmedabad - IITM",07-06-2024 13:00:00,23.020509,72.579261,CO,2,30,6
India,Gujarat,Ankleshwar,"GIDC, Ankleshwar - GPCB",07-06-2024 13:00:00,21.613267,73.010555,PM2.5,27,74,45
India,Gujarat,Ankleshwar,"GIDC, Ankleshwar - GPCB",07-06-2024 13:00:00,21.613267,73.010555,SO2,1,35,20
India,Gujarat,Ankleshwar,"GIDC, Ankleshwar - GPCB",07-06-2024 13:00:00,21.613267,73.010555,CO,24,64,56
India,Gujarat,Gandhinagar,"Sector-10, Gandhinagar - GPCB",07-06-2024 13:00:00,23.221714,72.654328,OZONE,6,54,25
India,Gujarat,Nandesari,"GIDC, Nandesari - Nandesari Ind. Association",07-06-2024 13:00:00,22.410802,73.097923,PM10,64,296,120
India,Gujarat,Surat,"Science Center, Surat - SMC",07-06-2024 13:00:00,21.170046,72.795405,PM10,NA,NA,NA
India,Gujarat,Vapi,"Phase-1 GIDC, Vapi - GPCB",07-06-2024 13:00:00,20.362421,72.918013,PM10,36,171,62
India,Gujarat,Vapi,"Phase-1 GIDC, Vapi - GPCB",07-06-2024 13:00:00,20.362421,72.918013,NH3,2,2,2
India,Gujarat,Vatva,"Phase-4 GIDC, Vatva - GPCB",07-06-2024 13:00:00,22.969611,72.643500,OZONE,29,30,30
India,Haryana,Bahadurgarh,"Arya Nagar, Bahadurgarh - HSPCB",07-06-2024 13:00:00,28.6701,76.9254,OZONE,29,43,36
India,Haryana,Ballabgarh,"Nathu Colony, Ballabgarh - HSPCB",07-06-2024 13:00:00,28.3419248,77.319699,PM2.5,20,404,228
India,Haryana,Ballabgarh,"Nathu Colony, Ballabgarh - HSPCB",07-06-2024 13:00:00,28.3419248,77.319699,NH3,1,2,2
India,Haryana,Charkhi Dadri,"Mini Secretariat, Charkhi Dadri - HSPCB",07-06-2024 13:00:00,28.593883,76.270653,PM2.5,NA,NA,NA
India,Haryana,Charkhi Dadri,"Mini Secretariat, Charkhi Dadri - HSPCB",07-06-2024 13:00:00,28.593883,76.270653,OZONE,NA,NA,NA
India,Haryana,Dharuhera,"Municipal Corporation Office, Dharuhera -  HSPCB",07-06-2024 13:00:00,28.206800,76.799700,PM10,NA,NA,NA
India,Haryana,Dharuhera,"Municipal Corporation Office, Dharuhera -  HSPCB",07-06-2024 13:00:00,28.206800,76.799700,SO2,6,16,10
India,Haryana,Faridabad,"New Industrial Town, Faridabad - HSPCB",07-06-2024 13:00:00,28.39072,77.30059,CO,2,58,8
India,Haryana,Faridabad,"Sector 11, Faridabad - HSPCB",07-06-2024 13:00:00,28.376058,77.315741,SO2,3,118,36
India,Haryana,Fatehabad,"Huda Sector, Fatehabad - HSPCB",07-06-2024 13:00:00,29.503664,75.467934,PM2.5,NA,NA,NA
India,Haryana,Fatehabad,"Huda Sector, Fatehabad - HSPCB",07-06-2024 13:00:00,29.503664,75.467934,OZONE,13,49,33
India,Haryana,Gurugram,"NISE Gwal Pahari, Gurugram - IMD",07-06-2024 13:00:00,28.422681,77.148944,PM2.5,3,337,167
India,Haryana,Gurugram,"Sector-51, Gurugram - HSPCB",07-06-2024 13:00:00,28.4227,77.0667,NO2,13,29,22
India,Haryana,Gurugram,"Sector-51, Gurugram - HSPCB",07-06-2024 13:00:00,28.4227,77.0667,SO2,2,4,3
India,Haryana,Gurugram,"Teri Gram, Gurugram - HSPCB",07-06-2024 13:00:00,28.4275,77.1465,PM2.5,66,394,213
India,Haryana,Gurugram,"Vikas Sadan, Gurugram - HSPCB",07-06-2024 13:00:00,28.4501238,77.0263051,SO2,8,79,28
India,Haryana,Jind,"Police Lines, Jind - HSPCB",07-06-2024 13:00:00,29.307814,76.337619,PM2.5,NA,NA,NA
India,Haryana,Jind,"Police Lines, Jind - HSPCB",07-06-2024 13:00:00,29.307814,76.337619,OZONE,29,58,40
India,Haryana,Kaithal,"Rishi Nagar, Kaithal - HSPCB",07-06-2024 13:00:00,29.8006,76.4155,PM10,100,500,196
India,Haryana,Karnal,"Sector-12, Karnal - HSPCB",07-06-2024 13:00:00,29.695300,77.002700,PM10,57,196,101
India,Haryana,Karnal,"Sector-12, Karnal - HSPCB",07-06-2024 13:00:00,29.695300,77.002700,NO2,7,12,10
India,Haryana,Karnal,"Sector-12, Karnal - HSPCB",07-06-2024 13:00:00,29.695300,77.002700,SO2,12,13,13
India,Haryana,Mandikhera,"General Hospital, Mandikhera - HSPCB",07-06-2024 13:00:00,27.9002,76.9938,PM10,65,500,222
India,Haryana,Manesar,"Sector-2 IMT, Manesar - HSPCB",07-06-2024 13:00:00,28.360699,76.936090,PM10,48,329,148
India,Haryana,Manesar,"Sector-2 IMT, Manesar - HSPCB",07-06-2024 13:00:00,28.360699,76.936090,CO,14,25,20
India,Haryana,Palwal,"Shyam Nagar, Palwal - HSPCB",07-06-2024 13:00:00,28.1485564,77.3320667,NO2,23,24,24
India,Haryana,Panchkula,"Sector-6, Panchkula - HSPCB ",07-06-2024 13:00:00,30.7057778,76.8531805555555,CO,1,12,10
India,Haryana,Panipat,"Sector-18, Panipat - HSPCB",07-06-2024 13:00:00,29.432304,76.972765,SO2,18,20,19
India,Haryana,Panipat,"Sector-18, Panipat - HSPCB",07-06-2024 13:00:00,29.432304,76.972765,CO,24,27,25
India,Haryana,Sirsa,"F-Block, Sirsa - HSPCB",07-06-2024 13:00:00,29.536400,75.015800,NH3,NA,NA,NA
India,Haryana,Sirsa,"F-Block, Sirsa - HSPCB",07-06-2024 13:00:00,29.536400,75.015800,SO2,NA,NA,NA
India,Haryana,Sonipat,"Murthal, Sonipat - HSPCB",07-06-2024 13:00:00,29.027200,77.062100,NH3,7,10,9
India,Haryana,Sonipat,"Murthal, Sonipat - HSPCB",07-06-2024 13:00:00,29.027200,77.062100,SO2,12,29,20
India,Himachal Pradesh,Baddi,"HIMUDA Complex Phase-1, Baddi - HPPCB",07-06-2024 13:00:00,30.943887,76.801991,CO,12,41,31
India,Jammu_and_Kashmir,Srinagar,"Rajbagh, Srinagar - JKSPCB",07-06-2024 13:00:00,34.066206,74.819820,SO2,NA,NA,NA
India,Karnataka,Bagalkot,"Vidayagiri, Bagalkot - KSPCB",07-06-2024 13:00:00,16.172806,75.659694,NO2,NA,NA,NA
India,Karnataka,Bagalkot,"Vidayagiri, Bagalkot - KSPCB",07-06-2024 13:00:00,16.172806,75.659694,CO,32,44,44
India,Karnataka,Belgaum,"Ramteerth Nagar, Belgaum - KSPCB",07-06-2024 13:00:00,15.888653,74.541751,PM2.5,NA,NA,NA
India,Karnataka,Belgaum,"Ramteerth Nagar, Belgaum - KSPCB",07-06-2024 13:00:00,15.888653,74.541751,NO2,NA,NA,NA
India,Karnataka,Belgaum,"Ramteerth Nagar, Belgaum - KSPCB",07-06-2024 13:00:00,15.888653,74.541751,OZONE,NA,NA,NA
India,Karnataka,Bengaluru,"Bapuji Nagar, Bengaluru - KSPCB",07-06-2024 13:00:00,12.951913,77.539784,NO2,14,16,15
India,Karnataka,Bengaluru,"Bapuji Nagar, Bengaluru - KSPCB",07-06-2024 13:00:00,12.951913,77.539784,NH3,1,1,1
India,Karnataka,Bengaluru,"Hebbal, Bengaluru - KSPCB",07-06-2024 13:00:00,13.029152,77.585901,SO2,16,27,21
India,Karnataka,Bengaluru,"Hombegowda Nagar, Bengaluru - KSPCB",07-06-2024 13:00:00,12.938539,77.590100,PM2.5,3,18,9
India,Karnataka,Bengaluru,"Hombegowda Nagar, Bengaluru - KSPCB",07-06-2024 13:00:00,12.938539,77.590100,NH3,1,2,1
India,Karnataka,Bengaluru,"Jayanagar 5th Block, Bengaluru - KSPCB",07-06-2024 13:00:00,12.920984,77.584908,PM2.5,8,24,14
India,Karnataka,Bengaluru,"Jayanagar 5th Block, Bengaluru - KSPCB",07-06-2024 13:00:00,12.920984,77.584908,NO2,9,28,11
India,Karnataka,Bengaluru,"Jigani, Bengaluru - KSPCB",07-06-2024 13:00:00,12.7816279,77.6299145,PM2.5,NA,NA,NA
India,Karnataka,Bengaluru,"Kasturi Nagar, Bengaluru - KSPCB",07-06-2024 13:00:00,13.003872,77.664217,PM2.5,32,42,36
India,Karnataka,Bengaluru,"Kasturi Nagar, Bengaluru - KSPCB",07-06-2024 13:00:00,13.003872,77.664217,NO2,16,17,17
India,Karnataka,Bengaluru,"Peenya, Bengaluru - CPCB",07-06-2024 13:00:00,13.0270199,77.494094,NO2,18,28,22
India,Karnataka,Bengaluru,"RVCE-Mailasandra, Bengaluru - KSPCB",07-06-2024 13:00:00,12.921418,77.502466,NO2,16,17,17
India,Karnataka,Bengaluru,"RVCE-Mailasandra, Bengaluru - KSPCB",07-06-2024 13:00:00,12.921418,77.502466,SO2,6,10,8
India,Karnataka,Bengaluru,"Sanegurava Halli, Bengaluru - KSPCB",07-06-2024 13:00:00,12.990328,77.5431385,NO2,20,25,23
India,Karnataka,Bengaluru,"Sanegurava Halli, Bengaluru - KSPCB",07-06-2024 13:00:00,12.990328,77.5431385,SO2,2,3,3
India,Karnataka,Bengaluru,"Sanegurava Halli, Bengaluru - KSPCB",07-06-2024 13:00:00,12.990328,77.5431385,CO,14,26,21
India,Karnataka,Bengaluru,"Shivapura_Peenya, Bengaluru - KSPCB",07-06-2024 13:00:00,13.0246342,77.5080115,PM10,1,51,16
India,Karnataka,Bengaluru,"Shivapura_Peenya, Bengaluru - KSPCB",07-06-2024 13:00:00,13.0246342,77.5080115,OZONE,53,56,54
India,Karnataka,Bengaluru,"Silk Board, Bengaluru - KSPCB",07-06-2024 13:00:00,12.917348,77.622813,PM2.5,NA,NA,NA
India,Karnataka,Bengaluru,"Silk Board, Bengaluru - KSPCB",07-06-2024 13:00:00,12.917348,77.622813,PM10,NA,NA,NA
India,Karnataka,Bengaluru,"Silk Board, Bengaluru - KSPCB",07-06-2024 13:00:00,12.917348,77.622813,SO2,NA,NA,NA
India,Karnataka,Bidar,"Naubad, Bidar - KSPCB",07-06-2024 13:00:00,17.930306,77.482194,NO2,7,8,8
India,Karnataka,Bidar,"Naubad, Bidar - KSPCB",07-06-2024 13:00:00,17.930306,77.482194,SO2,16,20,18
India,Karnataka,Chamarajanagar,"Urban, Chamarajanagar - KSPCB",07-06-2024 13:00:00,11.55358,76.55521,NH3,2,2,2
India,Karnataka,Chikkaballapur,"Chikkaballapur Rural, Chikkaballapur - KSPCB",07-06-2024 13:00:00,13.428828,77.731418,NO2,5,8,6
India,Karnataka,Chikkaballapur,"Chikkaballapur Rural, Chikkaballapur - KSPCB",07-06-2024 13:00:00,13.428828,77.731418,SO2,16,22,19
India,Karnataka,Davanagere,"Devaraj Urs Badavane, Davanagere - KSPCB",07-06-2024 13:00:00,14.475800,75.905200,PM2.5,2,43,17
India,Karnataka,Davanagere,"Devaraj Urs Badavane, Davanagere - KSPCB",07-06-2024 13:00:00,14.475800,75.905200,PM10,6,37,16
India,Karnataka,Dharwad,"Kalabhavan, Dharwad - KSPCB",07-06-2024 13:00:00,15.459706,75.008381,PM2.5,NA,NA,NA
India,Karnataka,Dharwad,"Kalabhavan, Dharwad - KSPCB",07-06-2024 13:00:00,15.459706,75.008381,PM10,NA,NA,NA
India,Karnataka,Dharwad,"Kalabhavan, Dharwad - KSPCB",07-06-2024 13:00:00,15.459706,75.008381,NH3,NA,NA,NA
India,Karnataka,Dharwad,"Kalabhavan, Dharwad - KSPCB",07-06-2024 13:00:00,15.459706,75.008381,CO,22,58,29
India,Karnataka,Gadag,"Panchal Nagar, Gadag - KSPCB",07-06-2024 13:00:00,15.411456,75.638133,OZONE,8,15,11
India,Karnataka,Hubballi,"Lingaraj Nagar, Hubballi - KSPCB",07-06-2024 13:00:00,15.3714823,75.1160168,CO,12,34,15
India,Karnataka,Kalaburagi,"Lal Bahadur Shastri Nagar, Kalaburagi - KSPCB",07-06-2024 13:00:00,17.321993,76.822628,NH3,NA,NA,NA
India,Karnataka,Kalaburagi,"Lal Bahadur Shastri Nagar, Kalaburagi - KSPCB",07-06-2024 13:00:00,17.321993,76.822628,CO,38,44,41
India,Karnataka,Kolar,"Tamaka Ind. Area, Kolar - KSPCB",07-06-2024 13:00:00,13.1276288,78.1570122,CO,6,14,6
India,Karnataka,Koppal,"Diwator Nagar, Koppal - KSPCB",07-06-2024 13:00:00,15.347630,76.181767,SO2,24,31,25
India,Karnataka,Koppal,"Diwator Nagar, Koppal - KSPCB",07-06-2024 13:00:00,15.347630,76.181767,CO,6,6,6
India,Karnataka,Madikeri,"Stuart Hill, Madikeri - KSPCB",07-06-2024 13:00:00,12.415911,75.735050,SO2,4,4,4
India,Karnataka,Mangalore,"Kadri, Mangalore - KSPCB",07-06-2024 13:00:00,12.889250,74.853000,PM2.5,8,35,23
India,Karnataka,Mangalore,"Kadri, Mangalore - KSPCB",07-06-2024 13:00:00,12.889250,74.853000,NH3,1,2,2
India,Karnataka,Mangalore,"Kadri, Mangalore - KSPCB",07-06-2024 13:00:00,12.889250,74.853000,CO,36,42,38
India,Karnataka,Mysuru,"Hebbal 1st Stage, Mysuru - KSPCB",07-06-2024 13:00:00,12.21041,76.37376,PM10,25,55,32
India,Karnataka,Mysuru,"Hebbal 1st Stage, Mysuru - KSPCB",07-06-2024 13:00:00,12.21041,76.37376,NO2,7,39,20
India,Karnataka,Mysuru,"Hebbal 1st Stage, Mysuru - KSPCB",07-06-2024 13:00:00,12.21041,76.37376,OZONE,8,52,19
India,Karnataka,Raichur,"Haji Colony, Raichur - KSPCB",07-06-2024 13:00:00,16.208139,77.348417,CO,86,102,87
India,Karnataka,Ramanagara,"Vijay Nagar, Ramanagara - KSPCB",07-06-2024 13:00:00,12.733409,77.298051,NO2,9,19,13
India,Karnataka,Udupi,"Brahmagiri, Udupi - KSPCB",07-06-2024 13:00:00,13.34194444,74.74694444,PM2.5,1,35,11
India,Karnataka,Yadgir,"Collector Office, Yadgir - KSPCB",07-06-2024 13:00:00,16.7602,77.1428,SO2,NA,NA,NA
India,Kerala,Kannur,"Thavakkara, Kannur - Kerala PCB",07-06-2024 13:00:00,11.875000,75.373200,NO2,5,5,5
India,Kerala,Kollam,"Polayathode, Kollam - Kerala PCB",07-06-2024 13:00:00,8.8787,76.6073,OZONE,30,35,32
India,Kerala,Thiruvananthapuram,"Kariavattom, Thiruvananthapuram - Kerala PCB",07-06-2024 13:00:00,8.563700,76.886500,PM2.5,35,42,39
India,Kerala,Thiruvananthapuram,"Plammoodu, Thiruvananthapuram - Kerala PCB",07-06-2024 13:00:00,8.5149093,76.9435879,NO2,7,11,9
India,Kerala,Thiruvananthapuram,"Plammoodu, Thiruvananthapuram - Kerala PCB",07-06-2024 13:00:00,8.5149093,76.9435879,SO2,6,13,9
India,Madhya Pradesh,Bhopal,"Idgah Hills, Bhopal - MPPCB",07-06-2024 13:00:00,23.264759,77.381568,SO2,2,12,6
India,Madhya Pradesh,Bhopal,"T T Nagar, Bhopal - MPPCB",07-06-2024 13:00:00,23.233584,77.400574,PM10,63,409,138
India,Madhya Pradesh,Bhopal,"T T Nagar, Bhopal - MPPCB",07-06-2024 13:00:00,23.233584,77.400574,NH3,1,9,7
India,Madhya Pradesh,Bhopal,"T T Nagar, Bhopal - MPPCB",07-06-2024 13:00:00,23.233584,77.400574,CO,15,128,26
India,Madhya Pradesh,Dewas,"Bhopal Chauraha, Dewas - MPPCB",07-06-2024 13:00:00,22.9682591,76.064118,NO2,12,15,13
India,Madhya Pradesh,Dewas,"Bhopal Chauraha, Dewas - MPPCB",07-06-2024 13:00:00,22.9682591,76.064118,NH3,3,3,3
India,Madhya Pradesh,Gwalior,"City Center, Gwalior - MPPCB",07-06-2024 13:00:00,26.203442,78.193251,NH3,2,3,2
India,Madhya Pradesh,Gwalior,"Deen Dayal Nagar, Gwalior - MPPCB",07-06-2024 13:00:00,26.259242,78.216432,PM10,76,500,183
India,Madhya Pradesh,Gwalior,"Deen Dayal Nagar, Gwalior - MPPCB",07-06-2024 13:00:00,26.259242,78.216432,SO2,7,18,13
India,Madhya Pradesh,Gwalior,"Maharaj Bada, Gwalior - MPPCB",07-06-2024 13:00:00,26.200388,78.147714,PM2.5,25,230,68
India,Madhya Pradesh,Gwalior,"Maharaj Bada, Gwalior - MPPCB",07-06-2024 13:00:00,26.200388,78.147714,OZONE,75,202,197
India,Madhya Pradesh,Gwalior,"Phool Bagh, Gwalior - Mondelez Ind. Food",07-06-2024 13:00:00,26.210536,78.171,SO2,25,31,28
India,Madhya Pradesh,Indore,"Chhoti Gwaltoli, Indore - MPPCB",07-06-2024 13:00:00,22.4310,75.5213,NH3,3,5,4
India,Madhya Pradesh,Indore,"Maguda Nagar, Indore - IMC",07-06-2024 13:00:00,22.7524,75.8872,PM2.5,49,92,64
India,Madhya Pradesh,Indore,"Maguda Nagar, Indore - IMC",07-06-2024 13:00:00,22.7524,75.8872,NH3,1,2,2
India,Madhya Pradesh,Indore,"Maguda Nagar, Indore - IMC",07-06-2024 13:00:00,22.7524,75.8872,SO2,33,37,35
India,Madhya Pradesh,Jabalpur,"Gupteshwar, Jabalpur - JMC",07-06-2024 13:00:00,23.142888,79.916147,PM10,46,108,64
India,Madhya Pradesh,Jabalpur,"Gupteshwar, Jabalpur - JMC",07-06-2024 13:00:00,23.142888,79.916147,NH3,5,5,5
India,Madhya Pradesh,Jabalpur,"Gupteshwar, Jabalpur - JMC",07-06-2024 13:00:00,23.142888,79.916147,OZONE,33,89,60
India,Madhya Pradesh,Jabalpur,"Marhatal, Jabalpur - MPPCB",07-06-2024 13:00:00,23.168606,79.932247,PM2.5,35,60,44
India,Madhya Pradesh,Jabalpur,"Marhatal, Jabalpur - MPPCB",07-06-2024 13:00:00,23.168606,79.932247,NO2,8,56,22
India,Madhya Pradesh,Jabalpur,"Suhagi, Jabalpur - JMC",07-06-2024 13:00:00,23.218135,79.957770,NH3,2,2,2
India,Madhya Pradesh,Katni,"Gole Bazar, Katni - MPPCB",07-06-2024 13:00:00,23.50016,80.23284,PM2.5,26,56,39
India,Madhya Pradesh,Katni,"Gole Bazar, Katni - MPPCB",07-06-2024 13:00:00,23.50016,80.23284,OZONE,36,129,79
India,Madhya Pradesh,Maihar,"Sahilara, Maihar - KJS Cements",07-06-2024 13:00:00,24.2613009,80.7231783,PM2.5,3,198,50
India,Madhya Pradesh,Sagar,"Deen Dayal Nagar, Sagar - MPPCB",07-06-2024 13:00:00,23.8640158,78.80289321,CO,54,73,60
India,Madhya Pradesh,Satna,"Bandhavgar Colony, Satna - Birla Cement",07-06-2024 13:00:00,24.58434363,80.8549414,NO2,28,73,46
India,Madhya Pradesh,Ujjain,"Mahakaleshwar Temple, Ujjain - MPPCB",07-06-2024 13:00:00,23.182719 ,75.768218 ,NO2,12,21,17
India,Maharashtra,Ahmednagar,"Tarakpur, Ahmednagar - MPCB",07-06-2024 13:00:00,19.10122,74.73339,NO2,11,34,20
India,Maharashtra,Amravati,"Shivneri Colony, Amravati - MPCB",07-06-2024 13:00:00,20.9402359,77.7895248,PM2.5,33,69,51
India,Maharashtra,Amravati,"Shivneri Colony, Amravati - MPCB",07-06-2024 13:00:00,20.9402359,77.7895248,NO2,4,20,11
India,Maharashtra,Amravati,"Shri Shivaji Science College, Amaravati - MPCB",07-06-2024 13:00:00,20.939198,77.765701,PM10,35,85,60
India,Maharashtra,Amravati,"Shri Shivaji Science College, Amaravati - MPCB",07-06-2024 13:00:00,20.939198,77.765701,NO2,5,23,14
India,Maharashtra,Amravati,"Shri Shivaji Science College, Amaravati - MPCB",07-06-2024 13:00:00,20.939198,77.765701,OZONE,17,67,30
India,Maharashtra,Aurangabad,"MIDC Chilkalthana, Aurangabad - MPCB",07-06-2024 13:00:00,19.875620,75.387310,PM10,37,97,62
India,Maharashtra,Aurangabad,"More Chowk Waluj, Aurangabad - MPCB",07-06-2024 13:00:00,19.8389439,75.244448,SO2,1,8,5
