country,state,city,station,last_update,latitude,longitude,pollutant_id,pollutant_min,pollutant_max,pollutant_avg
India,Andhra_Pradesh,Amaravati,"Secretariat, Amaravati - APPCB",11-02-2024 16:00:00,16.5150833,80.5181667,OZONE,17,58,50
India,Andhra_Pradesh,Anantapur,"Gulzarpet, Anantapur - APPCB",11-02-2024 16:00:00,14.675886,77.593027,CO,22,34,28
India,Andhra_Pradesh,Chittoor,"Gangineni Cheruvu, Chittoor - APPCB",11-02-2024 16:00:00,13.204880,79.097889,PM2.5,44,83,66
India,Andhra_Pradesh,Kadapa,"Yerramukkapalli, Kadapa - APPCB",11-02-2024 16:00:00,14.465052,78.824187,PM2.5,39,55,49
India,Andhra_Pradesh,Kadapa,"Yerramukkapalli, Kadapa - APPCB",11-02-2024 16:00:00,14.465052,78.824187,OZONE,6,66,42
India,Andhra_Pradesh,Tirupati,"Vaikuntapuram, Tirupati - APPCB",11-02-2024 16:00:00,13.615387,79.409230,PM10,17,146,37
India,Andhra_Pradesh,Vijayawada,"HB Colony, Vijayawada - APPCB",11-02-2024 16:00:00,16.536107,80.594233,PM10,49,93,73
India,Andhra_Pradesh,Vijayawada,"HB Colony, Vijayawada - APPCB",11-02-2024 16:00:00,16.536107,80.594233,SO2,4,6,5
India,Andhra_Pradesh,Vijayawada,"HB Colony, Vijayawada - APPCB",11-02-2024 16:00:00,16.536107,80.594233,OZONE,28,63,55
India,Andhra_Pradesh,Vijayawada,"Rajiv Gandhi Park, Vijayawada - APPCB",11-02-2024 16:00:00,16.509717,80.612222,OZONE,16,76,57
India,Andhra_Pradesh,Vijayawada,"Rajiv Nagar, Vijayawada - APPCB",11-02-2024 16:00:00,16.554731,80.649110,SO2,7,30,17
India,Andhra_Pradesh,Vijayawada,"Rajiv Nagar, Vijayawada - APPCB",11-02-2024 16:00:00,16.554731,80.649110,OZONE,11,54,45
India,Andhra_Pradesh,Visakhapatnam,"GVM Corporation, Visakhapatnam - APPCB",11-02-2024 16:00:00,17.72,83.3,PM2.5,77,118,94
India,Arunachal_Pradesh,Naharlagun,"Naharlagun, Naharlagun - APSPCB",11-02-2024 16:00:00,27.103358,93.679645,SO2,3,3,3
India,Assam,Byrnihat,"Central Academy for SFS, Byrnihat - PCBA",11-02-2024 16:00:00,26.071318,91.87488,CO,40,119,78
India,Assam,Guwahati,"IITG, Guwahati - PCBA",11-02-2024 16:00:00,26.2028636,91.70046436,NH3,5,6,5
India,Assam,Guwahati,"LGBI Airport, Guwahati - PCBA",11-02-2024 16:00:00,26.10887,91.589544,PM10,103,475,174
India,Assam,Guwahati,"LGBI Airport, Guwahati - PCBA",11-02-2024 16:00:00,26.10887,91.589544,SO2,13,14,13
India,Assam,Guwahati,"Pan Bazaar, Guwahati - PCBA",11-02-2024 16:00:00,26.187500,91.744194,CO,21,112,39
India,Assam,Guwahati,"Railway Colony, Guwahati - PCBA",11-02-2024 16:00:00,26.181742,91.78063,PM10,57,402,176
India,Assam,Nagaon,"Christianpatty, Nagaon - PCBA",11-02-2024 16:00:00,26.349082,92.68449,PM10,74,461,156
India,Assam,Nalbari,"Bata Chowk, Nalbari - PCBA",11-02-2024 16:00:00,26.446912,91.439057,PM10,64,489,167
India,Assam,Nalbari,"Bata Chowk, Nalbari - PCBA",11-02-2024 16:00:00,26.446912,91.439057,NH3,1,6,2
India,Assam,Nalbari,"Bata Chowk, Nalbari - PCBA",11-02-2024 16:00:00,26.446912,91.439057,SO2,4,9,6
India,Assam,Silchar,"Tarapur, Silchar - PCBA",11-02-2024 16:00:00,24.82827,92.79525,SO2,NA,NA,NA
India,Assam,Sivasagar,"Girls College, Sivasagar - PCBA",11-02-2024 16:00:00,26.987634,94.636574,OZONE,1,6,3
India,Bihar,Araria,"Kharahiya Basti, Araria - BSPCB",11-02-2024 16:00:00,26.146529,87.454184,PM2.5,96,389,300
India,Bihar,Aurangabad,"Gurdeo Nagar, Aurangabad - BSPCB",11-02-2024 16:00:00,24.75746,84.366208,OZONE,1,101,72
India,Bihar,Bettiah,"Kamalnath Nagar, Bettiah - BSPCB",11-02-2024 16:00:00,26.80365,84.51954,SO2,10,21,15
India,Bihar,Bhagalpur,"DM Office_Kachari Chowk, Bhagalpur - BSPCB",11-02-2024 16:00:00,25.251013,86.989001,CO,26,74,41
India,Bihar,Bhagalpur,"Mayaganj, Bhagalpur - BSPCB",11-02-2024 16:00:00,25.265194,87.012947,PM2.5,147,380,297
India,Bihar,Bhagalpur,"Mayaganj, Bhagalpur - BSPCB",11-02-2024 16:00:00,25.265194,87.012947,PM10,91,225,149
India,Bihar,Bihar Sharif,"D M Colony, Bihar Sharif - BSPCB",11-02-2024 16:00:00,25.204762,85.514960,OZONE,4,46,38
India,Bihar,Buxar,"Charitra Van, Buxar - BSPCB (Formerly known as Central Jail)",11-02-2024 16:00:00,25.567520,83.966379,OZONE,4,127,57
India,Bihar,Chhapra,"Darshan Nagar, Chhapra - BSPCB",11-02-2024 16:00:00,25.7808257,84.7446768,PM2.5,93,404,275
India,Bihar,Chhapra,"Darshan Nagar, Chhapra - BSPCB",11-02-2024 16:00:00,25.7808257,84.7446768,PM10,92,384,177
India,Bihar,Chhapra,"Darshan Nagar, Chhapra - BSPCB",11-02-2024 16:00:00,25.7808257,84.7446768,NO2,16,32,24
India,Bihar,Chhapra,"Darshan Nagar, Chhapra - BSPCB",11-02-2024 16:00:00,25.7808257,84.7446768,OZONE,1,24,15
India,Bihar,Gaya,"Kareemganj, Gaya - BSPCB",11-02-2024 16:00:00,24.792403,84.992416,PM2.5,25,297,108
India,Bihar,Gaya,"Kareemganj, Gaya - BSPCB",11-02-2024 16:00:00,24.792403,84.992416,CO,10,94,42
India,Bihar,Hajipur,"Industrial Area, Hajipur - BSPCB",11-02-2024 16:00:00,25.697189,85.245900,CO,16,70,29
India,Bihar,Katihar,"Mirchaibari, Katihar - BSPCB",11-02-2024 16:00:00,25.560083,87.553265,SO2,15,19,17
India,Bihar,Katihar,"Mirchaibari, Katihar - BSPCB",11-02-2024 16:00:00,25.560083,87.553265,CO,2,2,2
India,Bihar,Katihar,"Mirchaibari, Katihar - BSPCB",11-02-2024 16:00:00,25.560083,87.553265,OZONE,17,21,19
India,Bihar,Motihari,"Gandak Colony, Motihari - BSPCB",11-02-2024 16:00:00,26.63086,84.90051,NH3,6,11,9
India,Bihar,Motihari,"Gandak Colony, Motihari - BSPCB",11-02-2024 16:00:00,26.63086,84.90051,SO2,1,5,3
India,Bihar,Munger,"Town Hall, Munger - BSPCB",11-02-2024 16:00:00,25.376776,86.471523,CO,2,32,16
India,Bihar,Muzaffarpur,"Buddha Colony, Muzaffarpur - BSPCB",11-02-2024 16:00:00,26.11442,85.39813,PM10,152,307,206
India,Bihar,Muzaffarpur,"MIT-Daudpur Kothi, Muzaffarpur - BSPCB",11-02-2024 16:00:00,26.1403345,85.3650192,PM2.5,65,343,202
India,Bihar,Muzaffarpur,"MIT-Daudpur Kothi, Muzaffarpur - BSPCB",11-02-2024 16:00:00,26.1403345,85.3650192,NO2,6,8,7
India,Bihar,Muzaffarpur,"Muzaffarpur Collectorate, Muzaffarpur - BSPCB",11-02-2024 16:00:00,26.1209,85.3647,PM2.5,61,317,197
India,Bihar,Muzaffarpur,"Muzaffarpur Collectorate, Muzaffarpur - BSPCB",11-02-2024 16:00:00,26.1209,85.3647,CO,22,37,25
India,Bihar,Patna,"DRM Office Danapur, Patna - BSPCB",11-02-2024 16:00:00,25.586562,85.043586,PM10,94,410,203
India,Bihar,Patna,"DRM Office Danapur, Patna - BSPCB",11-02-2024 16:00:00,25.586562,85.043586,NH3,3,4,3
India,Bihar,Patna,"DRM Office Danapur, Patna - BSPCB",11-02-2024 16:00:00,25.586562,85.043586,OZONE,2,77,54
India,Bihar,Patna,"Govt. High School Shikarpur, Patna - BSPCB",11-02-2024 16:00:00,25.592539,85.227158,CO,36,121,71
India,Bihar,Patna,"IGSC Planetarium Complex, Patna - BSPCB",11-02-2024 16:00:00,25.610369,85.132568,PM2.5,50,385,202
India,Bihar,Patna,"Rajbansi Nagar, Patna - BSPCB",11-02-2024 16:00:00,25.599486,85.113666,NH3,1,3,3
India,Bihar,Patna,"Rajbansi Nagar, Patna - BSPCB",11-02-2024 16:00:00,25.599486,85.113666,OZONE,1,86,41
India,Bihar,Patna,"Samanpura, Patna - BSPCB",11-02-2024 16:00:00,25.596727,85.085624,SO2,15,18,16
India,Bihar,Patna,"Samanpura, Patna - BSPCB",11-02-2024 16:00:00,25.596727,85.085624,OZONE,1,56,43
India,Bihar,Purnia,"Mariam Nagar, Purnia - BSPCB",11-02-2024 16:00:00,25.366336,87.117468,CO,30,85,58
India,Bihar,Rajgir,"Dangi Tola, Rajgir - BSPCB",11-02-2024 16:00:00,25.03280,85.41948,NO2,1,1,1
India,Bihar,Rajgir,"Dangi Tola, Rajgir - BSPCB",11-02-2024 16:00:00,25.03280,85.41948,OZONE,21,24,23
India,Bihar,Saharsa,"Police Line, Saharsa - BSPCB",11-02-2024 16:00:00,25.892357,86.590325,PM10,75,233,133
India,Bihar,Saharsa,"Police Line, Saharsa - BSPCB",11-02-2024 16:00:00,25.892357,86.590325,CO,2,78,18
India,Bihar,Saharsa,"Police Line, Saharsa - BSPCB",11-02-2024 16:00:00,25.892357,86.590325,OZONE,15,81,66
India,Bihar,Samastipur,"DM Office_Kasipur, Samastipur - BSPCB",11-02-2024 16:00:00,25.859655,85.77944,PM2.5,62,260,165
India,Bihar,Samastipur,"DM Office_Kasipur, Samastipur - BSPCB",11-02-2024 16:00:00,25.859655,85.77944,NO2,3,9,5
India,Bihar,Samastipur,"DM Office_Kasipur, Samastipur - BSPCB",11-02-2024 16:00:00,25.859655,85.77944,OZONE,11,60,43
India,Bihar,Siwan,"Chitragupta Nagar, Siwan - BSPCB",11-02-2024 16:00:00,26.2271665,84.3570427,PM2.5,NA,NA,NA
India,Bihar,Siwan,"Chitragupta Nagar, Siwan - BSPCB",11-02-2024 16:00:00,26.2271665,84.3570427,NH3,1,8,3
India,Bihar,Siwan,"Chitragupta Nagar, Siwan - BSPCB",11-02-2024 16:00:00,26.2271665,84.3570427,OZONE,15,117,93
India,Chandigarh,Chandigarh,"Sector 22, Chandigarh - CPCC",11-02-2024 16:00:00,30.735567,76.775714,PM2.5,153,368,294
India,Chandigarh,Chandigarh,"Sector 22, Chandigarh - CPCC",11-02-2024 16:00:00,30.735567,76.775714,CO,34,101,41
India,Chandigarh,Chandigarh,"Sector-25, Chandigarh - CPCC",11-02-2024 16:00:00,30.751462,76.762879,PM10,136,210,156
India,Chandigarh,Chandigarh,"Sector-25, Chandigarh - CPCC",11-02-2024 16:00:00,30.751462,76.762879,NH3,10,46,19
India,Chandigarh,Chandigarh,"Sector-25, Chandigarh - CPCC",11-02-2024 16:00:00,30.751462,76.762879,SO2,4,20,10
India,Chandigarh,Chandigarh,"Sector-53, Chandigarh - CPCC",11-02-2024 16:00:00,30.719859,76.738637,NO2,42,122,78
India,Chandigarh,Chandigarh,"Sector-53, Chandigarh - CPCC",11-02-2024 16:00:00,30.719859,76.738637,NH3,6,10,8
India,Chandigarh,Chandigarh,"Sector-53, Chandigarh - CPCC",11-02-2024 16:00:00,30.719859,76.738637,CO,20,122,55
India,Chhattisgarh,Bhilai,"32Bungalows, Bhilai - CECB",11-02-2024 16:00:00,21.194815,81.314770,PM2.5,53,91,68
India,Chhattisgarh,Bhilai,"32Bungalows, Bhilai - CECB",11-02-2024 16:00:00,21.194815,81.314770,SO2,4,8,6
India,Chhattisgarh,Bhilai,"Civic Center, Bhilai - Bhilai Steel Plant",11-02-2024 16:00:00,21.185571,81.343175,PM2.5,34,100,49
India,Chhattisgarh,Bhilai,"Civic Center, Bhilai - Bhilai Steel Plant",11-02-2024 16:00:00,21.185571,81.343175,CO,22,50,38
India,Chhattisgarh,Bhilai,"Hathkhoj, Bhilai - CECB",11-02-2024 16:00:00,21.224231,81.408350,NH3,7,8,8
India,Chhattisgarh,Bhilai,"Hathkhoj, Bhilai - CECB",11-02-2024 16:00:00,21.224231,81.408350,CO,28,64,45
India,Chhattisgarh,Chhal,"Nawapara SECL Colony, Chhal - CECB",11-02-2024 16:00:00,22.118125,83.140608,SO2,9,15,12
India,Chhattisgarh,Chhal,"Nawapara SECL Colony, Chhal - CECB",11-02-2024 16:00:00,22.118125,83.140608,OZONE,2,73,46
India,Chhattisgarh,Kunjemura,"OP Jindal School, Kunjemura - CECB",11-02-2024 16:00:00,22.126650,83.483212,NH3,1,4,2
India,Chhattisgarh,Milupara,"Govt. Higher Secondary School, Milupara - CECB",11-02-2024 16:00:00,22.1910172,83.5197009,PM2.5,37,65,49
India,Chhattisgarh,Milupara,"Govt. Higher Secondary School, Milupara - CECB",11-02-2024 16:00:00,22.1910172,83.5197009,PM10,35,101,64
India,Chhattisgarh,Milupara,"Govt. Higher Secondary School, Milupara - CECB",11-02-2024 16:00:00,22.1910172,83.5197009,SO2,10,45,18
India,Chhattisgarh,Milupara,"Govt. Higher Secondary School, Milupara - CECB",11-02-2024 16:00:00,22.1910172,83.5197009,OZONE,11,59,41
India,Chhattisgarh,Raipur,"Bhatagaon New ISBT, Raipur - CECB",11-02-2024 16:00:00,21.219665,81.630094,CO,24,56,38
India,Chhattisgarh,Raipur,"Bhatagaon New ISBT, Raipur - CECB",11-02-2024 16:00:00,21.219665,81.630094,OZONE,3,5,4
India,Chhattisgarh,Raipur,"Krishak Nagar, Raipur - CECB",11-02-2024 16:00:00,21.237755,81.705301,PM2.5,40,90,65
India,Chhattisgarh,Raipur,"Krishak Nagar, Raipur - CECB",11-02-2024 16:00:00,21.237755,81.705301,NO2,23,40,31
India,Chhattisgarh,Raipur,"Siltara Phase-II, Raipur - CECB",11-02-2024 16:00:00,21.371751,81.664929,PM10,76,146,111
India,Chhattisgarh,Raipur,"Siltara Phase-II, Raipur - CECB",11-02-2024 16:00:00,21.371751,81.664929,NH3,2,3,3
India,Chhattisgarh,Raipur,"Siltara Phase-II, Raipur - CECB",11-02-2024 16:00:00,21.371751,81.664929,SO2,2,31,6
India,Chhattisgarh,Raipur,"Siltara Phase-II, Raipur - CECB",11-02-2024 16:00:00,21.371751,81.664929,OZONE,3,17,7
India,Chhattisgarh,Tumidih,"OP Jindal Industrial Park, Tumidih - CECB",11-02-2024 16:00:00,22.06631475,83.33820077,NO2,NA,NA,NA
India,Delhi,Delhi,"Alipur, Delhi - DPCC",11-02-2024 16:00:00,28.815329,77.153010,SO2,6,43,13
India,Delhi,Delhi,"Anand Vihar, Delhi - DPCC",11-02-2024 16:00:00,28.647622,77.3158090,NH3,7,11,9
India,Delhi,Delhi,"Ashok Vihar, Delhi - DPCC",11-02-2024 16:00:00,28.695381,77.181665,NO2,26,128,80
India,Delhi,Delhi,"Aya Nagar, Delhi - IMD",11-02-2024 16:00:00,28.4706914,77.1099364,PM2.5,91,355,288
India,Delhi,Delhi,"Aya Nagar, Delhi - IMD",11-02-2024 16:00:00,28.4706914,77.1099364,PM10,132,365,224
India,Delhi,Delhi,"Bawana, Delhi - DPCC",11-02-2024 16:00:00,28.776200,77.051074,PM10,112,372,217
India,Delhi,Delhi,"Bawana, Delhi - DPCC",11-02-2024 16:00:00,28.776200,77.051074,OZONE,4,107,48
India,Delhi,Delhi,"DTU, Delhi - CPCB",11-02-2024 16:00:00,28.7500499,77.1112615,PM10,139,380,247
India,Delhi,Delhi,"DTU, Delhi - CPCB",11-02-2024 16:00:00,28.7500499,77.1112615,SO2,26,28,27
India,Delhi,Delhi,"DTU, Delhi - CPCB",11-02-2024 16:00:00,28.7500499,77.1112615,CO,18,40,31
India,Delhi,Delhi,"Dr. Karni Singh Shooting Range, Delhi - DPCC",11-02-2024 16:00:00,28.498571,77.264840,PM2.5,284,395,354
India,Delhi,Delhi,"Dr. Karni Singh Shooting Range, Delhi - DPCC",11-02-2024 16:00:00,28.498571,77.264840,NH3,8,11,10
India,Delhi,Delhi,"IGI Airport (T3), Delhi - IMD",11-02-2024 16:00:00,28.5627763,77.1180053,PM2.5,179,371,311
India,Delhi,Delhi,"IGI Airport (T3), Delhi - IMD",11-02-2024 16:00:00,28.5627763,77.1180053,CO,93,127,102
India,Delhi,Delhi,"IHBAS, Dilshad Garden, Delhi - CPCB",11-02-2024 16:00:00,28.6811736,77.3025234,SO2,2,31,8
India,Delhi,Delhi,"IHBAS, Dilshad Garden, Delhi - CPCB",11-02-2024 16:00:00,28.6811736,77.3025234,OZONE,11,46,32
India,Delhi,Delhi,"ITO, Delhi - CPCB",11-02-2024 16:00:00,28.628624,77.241060,NO2,2,155,51
India,Delhi,Delhi,"ITO, Delhi - CPCB",11-02-2024 16:00:00,28.628624,77.241060,OZONE,21,225,217
India,Delhi,Delhi,"Jahangirpuri, Delhi - DPCC",11-02-2024 16:00:00,28.732820,77.170633,PM2.5,152,450,354
India,Delhi,Delhi,"Jawaharlal Nehru Stadium, Delhi - DPCC",11-02-2024 16:00:00,28.580280,77.233829,SO2,3,34,15
India,Delhi,Delhi,"Lodhi Road, Delhi - IITM",11-02-2024 16:00:00,28.588333,77.221667,NO2,83,140,92
India,Delhi,Delhi,"Lodhi Road, Delhi - IITM",11-02-2024 16:00:00,28.588333,77.221667,NH3,9,11,10
India,Delhi,Delhi,"Lodhi Road, Delhi - IITM",11-02-2024 16:00:00,28.588333,77.221667,OZONE,15,17,16
India,Delhi,Delhi,"Major Dhyan Chand National Stadium, Delhi - DPCC",11-02-2024 16:00:00,28.611281,77.237738,NH3,10,15,12
India,Delhi,Delhi,"Mundka, Delhi - DPCC",11-02-2024 16:00:00,28.684678,77.076574,PM2.5,167,416,348
India,Delhi,Delhi,"Mundka, Delhi - DPCC",11-02-2024 16:00:00,28.684678,77.076574,NO2,32,121,79
India,Delhi,Delhi,"Mundka, Delhi - DPCC",11-02-2024 16:00:00,28.684678,77.076574,NH3,8,13,10
India,Delhi,Delhi,"Mundka, Delhi - DPCC",11-02-2024 16:00:00,28.684678,77.076574,OZONE,1,13,3
India,Delhi,Delhi,"NSIT Dwarka, Delhi - CPCB",11-02-2024 16:00:00,28.60909,77.0325413,PM10,172,379,246
India,Delhi,Delhi,"NSIT Dwarka, Delhi - CPCB",11-02-2024 16:00:00,28.60909,77.0325413,NH3,8,11,9
India,Delhi,Delhi,"NSIT Dwarka, Delhi - CPCB",11-02-2024 16:00:00,28.60909,77.0325413,SO2,10,17,13
India,Delhi,Delhi,"NSIT Dwarka, Delhi - CPCB",11-02-2024 16:00:00,28.60909,77.0325413,CO,26,80,37
India,Delhi,Delhi,"Najafgarh, Delhi - DPCC",11-02-2024 16:00:00,28.570173,76.933762,PM10,99,185,138
India,Delhi,Delhi,"Najafgarh, Delhi - DPCC",11-02-2024 16:00:00,28.570173,76.933762,NO2,NA,NA,NA
India,Delhi,Delhi,"Najafgarh, Delhi - DPCC",11-02-2024 16:00:00,28.570173,76.933762,NH3,1,2,1
India,Delhi,Delhi,"Narela, Delhi - DPCC",11-02-2024 16:00:00,28.822836,77.101981,PM2.5,147,366,308
India,Delhi,Delhi,"Nehru Nagar, Delhi - DPCC",11-02-2024 16:00:00,28.567890,77.250515,OZONE,2,247,247
India,Delhi,Delhi,"Okhla Phase-2, Delhi - DPCC",11-02-2024 16:00:00,28.530785,77.271255,NO2,48,205,129
India,Delhi,Delhi,"Okhla Phase-2, Delhi - DPCC",11-02-2024 16:00:00,28.530785,77.271255,CO,58,127,82
India,Delhi,Delhi,"Punjabi Bagh, Delhi - DPCC",11-02-2024 16:00:00,28.674045,77.131023,SO2,3,27,5
India,Delhi,Delhi,"Punjabi Bagh, Delhi - DPCC",11-02-2024 16:00:00,28.674045,77.131023,CO,18,108,46
India,Delhi,Delhi,"Pusa, Delhi - DPCC",11-02-2024 16:00:00,28.639652,77.146275,PM2.5,254,412,345
India,Delhi,Delhi,"Pusa, Delhi - DPCC",11-02-2024 16:00:00,28.639652,77.146275,PM10,184,488,304
India,Delhi,Delhi,"Pusa, Delhi - DPCC",11-02-2024 16:00:00,28.639652,77.146275,NO2,70,406,223
India,Delhi,Delhi,"Pusa, Delhi - DPCC",11-02-2024 16:00:00,28.639652,77.146275,NH3,21,33,28
India,Delhi,Delhi,"Pusa, Delhi - DPCC",11-02-2024 16:00:00,28.639652,77.146275,OZONE,15,69,43
India,Delhi,Delhi,"Pusa, Delhi - IMD",11-02-2024 16:00:00,28.636110,77.173332,NO2,29,62,47
India,Delhi,Delhi,"Pusa, Delhi - IMD",11-02-2024 16:00:00,28.636110,77.173332,CO,79,100,90
India,Delhi,Delhi,"R K Puram, Delhi - DPCC",11-02-2024 16:00:00,28.563262,77.186937,PM10,138,424,242
India,Delhi,Delhi,"R K Puram, Delhi - DPCC",11-02-2024 16:00:00,28.563262,77.186937,NH3,3,18,8
India,Delhi,Delhi,"R K Puram, Delhi - DPCC",11-02-2024 16:00:00,28.563262,77.186937,OZONE,6,231,231
India,Delhi,Delhi,"Rohini, Delhi - DPCC",11-02-2024 16:00:00,28.732528,77.119920,PM10,129,432,256
India,Delhi,Delhi,"Shadipur, Delhi - CPCB",11-02-2024 16:00:00,28.6514781,77.1473105,PM2.5,110,341,265
India,Delhi,Delhi,"Shadipur, Delhi - CPCB",11-02-2024 16:00:00,28.6514781,77.1473105,PM10,202,378,302
India,Delhi,Delhi,"Sirifort, Delhi - CPCB",11-02-2024 16:00:00,28.5504249,77.2159377,NO2,187,237,210
India,Delhi,Delhi,"Sirifort, Delhi - CPCB",11-02-2024 16:00:00,28.5504249,77.2159377,OZONE,6,25,14
India,Delhi,Delhi,"Sonia Vihar, Delhi - DPCC",11-02-2024 16:00:00,28.710508,77.249485,PM2.5,242,428,347
India,Delhi,Delhi,"Sri Aurobindo Marg, Delhi - DPCC",11-02-2024 16:00:00,28.531346,77.190156,NO2,22,75,47
India,Delhi,Delhi,"Vivek Vihar, Delhi - DPCC",11-02-2024 16:00:00,28.672342,77.315260,PM10,137,345,234
India,Delhi,Delhi,"Vivek Vihar, Delhi - DPCC",11-02-2024 16:00:00,28.672342,77.315260,CO,14,104,34
India,Delhi,Delhi,"Wazirpur, Delhi - DPCC",11-02-2024 16:00:00,28.699793,77.165453,NH3,5,9,7
India,Delhi,Delhi,"Wazirpur, Delhi - DPCC",11-02-2024 16:00:00,28.699793,77.165453,SO2,22,49,31
India,Gujarat,Ahmedabad,"Chandkheda, Ahmedabad - IITM",11-02-2024 16:00:00,23.107969,72.574648,NH3,NA,NA,NA
India,Gujarat,Ahmedabad,"Chandkheda, Ahmedabad - IITM",11-02-2024 16:00:00,23.107969,72.574648,OZONE,11,49,33
India,Gujarat,Ahmedabad,"Gyaspur, Ahmedabad - IITM",11-02-2024 16:00:00,22.977134,72.553024,NH3,8,9,8
India,Gujarat,Ahmedabad,"Maninagar, Ahmedabad - GPCB",11-02-2024 16:00:00,23.002657,72.591912,PM2.5,21,73,42
India,Gujarat,Ahmedabad,"Rakhial, Ahmedabad - IITM",11-02-2024 16:00:00,23.016834,72.625775,PM2.5,60,165,92
India,Gujarat,Ahmedabad,"Rakhial, Ahmedabad - IITM",11-02-2024 16:00:00,23.016834,72.625775,NO2,64,80,71
India,Gujarat,Ahmedabad,"Rakhial, Ahmedabad - IITM",11-02-2024 16:00:00,23.016834,72.625775,NH3,4,13,9
India,Gujarat,Ahmedabad,"Rakhial, Ahmedabad - IITM",11-02-2024 16:00:00,23.016834,72.625775,CO,34,39,38
India,Gujarat,Ahmedabad,"SAC ISRO Bopal, Ahmedabad - IITM",11-02-2024 16:00:00,23.041137,72.456691,PM10,47,100,68
India,Gujarat,Ahmedabad,"SAC ISRO Bopal, Ahmedabad - IITM",11-02-2024 16:00:00,23.041137,72.456691,NH3,3,5,5
India,Gujarat,Ahmedabad,"SAC ISRO Bopal, Ahmedabad - IITM",11-02-2024 16:00:00,23.041137,72.456691,OZONE,9,13,10
India,Gujarat,Ahmedabad,"SAC ISRO Satellite, Ahmedabad - IITM",11-02-2024 16:00:00,23.023389,72.515201,PM2.5,123,200,151
India,Gujarat,Ahmedabad,"SAC ISRO Satellite, Ahmedabad - IITM",11-02-2024 16:00:00,23.023389,72.515201,CO,18,44,37
India,Gujarat,Ahmedabad,"SVPI Airport Hansol, Ahmedabad - IITM",11-02-2024 16:00:00,23.076793,72.627874,PM10,52,147,110
India,Gujarat,Ahmedabad,"SVPI Airport Hansol, Ahmedabad - IITM",11-02-2024 16:00:00,23.076793,72.627874,OZONE,10,30,20
India,Gujarat,Ahmedabad,"Sardar Vallabhbhai Patel Stadium, Ahmedabad - IITM",11-02-2024 16:00:00,23.043070,72.562968,PM2.5,48,95,69
India,Gujarat,Gandhinagar,"Sector-10, Gandhinagar - GPCB",11-02-2024 16:00:00,23.221714,72.654328,NH3,1,2,2
India,Gujarat,Gandhinagar,"Sector-10, Gandhinagar - GPCB",11-02-2024 16:00:00,23.221714,72.654328,CO,8,21,11
India,Gujarat,Vatva,"Phase-4 GIDC, Vatva - GPCB",11-02-2024 16:00:00,22.969611,72.643500,NO2,24,105,43
India,Haryana,Ambala,"Patti Mehar, Ambala - HSPCB",11-02-2024 16:00:00,30.379589,76.778328,NO2,2,3,3
India,Haryana,Bahadurgarh,"Arya Nagar, Bahadurgarh - HSPCB",11-02-2024 16:00:00,28.6701,76.9254,CO,38,58,49
India,Haryana,Ballabgarh,"Nathu Colony, Ballabgarh - HSPCB",11-02-2024 16:00:00,28.3419248,77.319699,PM2.5,139,356,279
India,Haryana,Bhiwani,"H.B. Colony, Bhiwani - HSPCB",11-02-2024 16:00:00,28.806223,76.141105,NO2,8,10,9
India,Haryana,Bhiwani,"H.B. Colony, Bhiwani - HSPCB",11-02-2024 16:00:00,28.806223,76.141105,CO,7,48,38
India,Haryana,Bhiwani,"H.B. Colony, Bhiwani - HSPCB",11-02-2024 16:00:00,28.806223,76.141105,OZONE,13,25,18
India,Haryana,Charkhi Dadri,"Mini Secretariat, Charkhi Dadri - HSPCB",11-02-2024 16:00:00,28.593883,76.270653,PM2.5,91,281,191
India,Haryana,Charkhi Dadri,"Mini Secretariat, Charkhi Dadri - HSPCB",11-02-2024 16:00:00,28.593883,76.270653,NO2,9,17,12
India,Haryana,Dharuhera,"Municipal Corporation Office, Dharuhera -  HSPCB",11-02-2024 16:00:00,28.206800,76.799700,PM10,123,358,257
India,Haryana,Faridabad,"New Industrial Town, Faridabad - HSPCB",11-02-2024 16:00:00,28.39072,77.30059,NH3,3,5,4
India,Haryana,Faridabad,"Sector 11, Faridabad - HSPCB",11-02-2024 16:00:00,28.376058,77.315741,NH3,6,6,6
India,Haryana,Faridabad,"Sector 30, Faridabad - HSPCB",11-02-2024 16:00:00,28.4417,77.3217,SO2,2,7,4
India,Haryana,Gurugram,"Sector-51, Gurugram - HSPCB",11-02-2024 16:00:00,28.4227,77.0667,NO2,13,29,23
India,Haryana,Gurugram,"Teri Gram, Gurugram - HSPCB",11-02-2024 16:00:00,28.4275,77.1465,PM10,NA,NA,NA
India,Haryana,Hisar,"Urban Estate-II, Hisar - HSPCB",11-02-2024 16:00:00,29.140560,75.744941,PM2.5,89,270,164
India,Haryana,Jind,"Police Lines, Jind - HSPCB",11-02-2024 16:00:00,29.307814,76.337619,PM10,86,134,114
India,Haryana,Kurukshetra,"Sector-7, Kurukshetra - HSPCB",11-02-2024 16:00:00,29.966942,76.875879,PM2.5,101,304,232
India,Haryana,Kurukshetra,"Sector-7, Kurukshetra - HSPCB",11-02-2024 16:00:00,29.966942,76.875879,CO,16,82,27
India,Haryana,Manesar,"Sector-2 IMT, Manesar - HSPCB",11-02-2024 16:00:00,28.360699,76.936090,PM2.5,117,328,261
India,Haryana,Narnaul,"Shastri Nagar, Narnaul - HSPCB",11-02-2024 16:00:00,28.060249,76.113115,NH3,5,18,11
India,Haryana,Sirsa,"F-Block, Sirsa - HSPCB",11-02-2024 16:00:00,29.536400,75.015800,PM10,43,119,78
India,Haryana,Sonipat,"Murthal, Sonipat - HSPCB",11-02-2024 16:00:00,29.027200,77.062100,SO2,13,29,20
India,Haryana,Yamuna Nagar,"Gobind Pura, Yamuna Nagar - HSPCB",11-02-2024 16:00:00,30.1480566,77.2893471,NO2,3,34,6
India,Himachal Pradesh,Baddi,"HIMUDA Complex Phase-1, Baddi - HPPCB",11-02-2024 16:00:00,30.943887,76.801991,NO2,11,51,25
India,Jharkhand,Dhanbad,"Kalakusuma, Dhanbad - DMC",11-02-2024 16:00:00,23.811548,86.481238,NO2,34,36,35
India,Jharkhand,Dhanbad,"Kalakusuma, Dhanbad - DMC",11-02-2024 16:00:00,23.811548,86.481238,CO,81,102,96
India,Jharkhand,Dhanbad,"Sardar Patel Nagar, Dhanbad - JSPCB",11-02-2024 16:00:00,23.80569,86.44268,PM2.5,15,191,75
India,Jharkhand,Dhanbad,"Sardar Patel Nagar, Dhanbad - JSPCB",11-02-2024 16:00:00,23.80569,86.44268,NO2,3,102,63
India,Jharkhand,Pathardih,"Mohalbani Ghat, Pathardih - DMC",11-02-2024 16:00:00,23.669880,86.411725,PM10,63,181,113
India,Jharkhand,Pathardih,"Mohalbani Ghat, Pathardih - DMC",11-02-2024 16:00:00,23.669880,86.411725,NO2,14,114,69
India,Karnataka,Bagalkot,"Vidayagiri, Bagalkot - KSPCB",11-02-2024 16:00:00,16.172806,75.659694,SO2,NA,NA,NA
India,Karnataka,Belgaum,"Ramteerth Nagar, Belgaum - KSPCB",11-02-2024 16:00:00,15.888653,74.541751,PM10,42,92,67
India,Karnataka,Belgaum,"Ramteerth Nagar, Belgaum - KSPCB",11-02-2024 16:00:00,15.888653,74.541751,CO,40,62,61
India,Karnataka,Bengaluru,"Bapuji Nagar, Bengaluru - KSPCB",11-02-2024 16:00:00,12.951913,77.539784,SO2,5,7,6
India,Karnataka,Bengaluru,"City Railway Station, Bengaluru - KSPCB",11-02-2024 16:00:00,12.9756843,77.5660749,CO,52,100,63
India,Karnataka,Bengaluru,"Hebbal, Bengaluru - KSPCB",11-02-2024 16:00:00,13.029152,77.585901,SO2,12,27,19
India,Karnataka,Bengaluru,"Hombegowda Nagar, Bengaluru - KSPCB",11-02-2024 16:00:00,12.938539,77.590100,SO2,3,4,4
India,Karnataka,Bengaluru,"Kasturi Nagar, Bengaluru - KSPCB",11-02-2024 16:00:00,13.003872,77.664217,SO2,10,10,10
India,Karnataka,Bengaluru,"Peenya, Bengaluru - CPCB",11-02-2024 16:00:00,13.0270199,77.494094,PM2.5,49,177,107
India,Karnataka,Bengaluru,"Peenya, Bengaluru - CPCB",11-02-2024 16:00:00,13.0270199,77.494094,OZONE,45,80,68
India,Karnataka,Bengaluru,"Shivapura_Peenya, Bengaluru - KSPCB",11-02-2024 16:00:00,13.0246342,77.5080115,PM2.5,3,181,45
India,Karnataka,Bengaluru,"Shivapura_Peenya, Bengaluru - KSPCB",11-02-2024 16:00:00,13.0246342,77.5080115,PM10,39,103,79
India,Karnataka,Bengaluru,"Shivapura_Peenya, Bengaluru - KSPCB",11-02-2024 16:00:00,13.0246342,77.5080115,NH3,4,4,4
India,Karnataka,Bengaluru,"Shivapura_Peenya, Bengaluru - KSPCB",11-02-2024 16:00:00,13.0246342,77.5080115,OZONE,53,56,54
India,Karnataka,Bidar,"Naubad, Bidar - KSPCB",11-02-2024 16:00:00,17.930306,77.482194,PM2.5,78,134,98
India,Karnataka,Bidar,"Naubad, Bidar - KSPCB",11-02-2024 16:00:00,17.930306,77.482194,PM10,80,134,106
India,Karnataka,Bidar,"Naubad, Bidar - KSPCB",11-02-2024 16:00:00,17.930306,77.482194,NO2,7,8,8
India,Karnataka,Chamarajanagar,"Urban, Chamarajanagar - KSPCB",11-02-2024 16:00:00,11.55358,76.55521,NO2,23,43,34
India,Karnataka,Chikkamagaluru,"Kalyana Nagara, Chikkamagaluru - KSPCB",11-02-2024 16:00:00,13.328028,75.797056,PM2.5,24,94,55
India,Karnataka,Chikkamagaluru,"Kalyana Nagara, Chikkamagaluru - KSPCB",11-02-2024 16:00:00,13.328028,75.797056,NH3,3,6,4
India,Karnataka,Davanagere,"Devaraj Urs Badavane, Davanagere - KSPCB",11-02-2024 16:00:00,14.475800,75.905200,NO2,8,15,12
India,Karnataka,Davanagere,"Devaraj Urs Badavane, Davanagere - KSPCB",11-02-2024 16:00:00,14.475800,75.905200,CO,16,20,18
India,Karnataka,Davanagere,"Devaraj Urs Badavane, Davanagere - KSPCB",11-02-2024 16:00:00,14.475800,75.905200,OZONE,23,35,25
India,Karnataka,Hassan,"B.Katihalli, Hassan - KSPCB",11-02-2024 16:00:00,13.008556,76.125258,NO2,NA,NA,NA
India,Karnataka,Hubballi,"Lingaraj Nagar, Hubballi - KSPCB",11-02-2024 16:00:00,15.3714823,75.1160168,PM10,48,79,59
India,Karnataka,Kalaburagi,"Lal Bahadur Shastri Nagar, Kalaburagi - KSPCB",11-02-2024 16:00:00,17.321993,76.822628,NO2,11,11,11
India,Karnataka,Kalaburagi,"Lal Bahadur Shastri Nagar, Kalaburagi - KSPCB",11-02-2024 16:00:00,17.321993,76.822628,SO2,15,17,15
India,Karnataka,Kalaburagi,"Mahatma Basaveswar Colony, Kalaburgi - KSPCB",11-02-2024 16:00:00,17.336318,76.847397,PM10,26,62,43
India,Karnataka,Karwar,"KHB Colony, Karwar - KSPCB",11-02-2024 16:00:00,14.816666,74.141003,NO2,NA,NA,NA
India,Karnataka,Koppal,"Diwator Nagar, Koppal - KSPCB",11-02-2024 16:00:00,15.347630,76.181767,PM10,35,92,59
India,Karnataka,Koppal,"Diwator Nagar, Koppal - KSPCB",11-02-2024 16:00:00,15.347630,76.181767,CO,24,38,25
India,Karnataka,Madikeri,"Stuart Hill, Madikeri - KSPCB",11-02-2024 16:00:00,12.415911,75.735050,NO2,6,14,8
India,Karnataka,Madikeri,"Stuart Hill, Madikeri - KSPCB",11-02-2024 16:00:00,12.415911,75.735050,CO,6,40,14
India,Karnataka,Mangalore,"Kadri, Mangalore - KSPCB",11-02-2024 16:00:00,12.889250,74.853000,OZONE,30,33,31
India,Karnataka,Raichur,"Haji Colony, Raichur - KSPCB",11-02-2024 16:00:00,16.208139,77.348417,PM10,64,197,101
India,Karnataka,Raichur,"Haji Colony, Raichur - KSPCB",11-02-2024 16:00:00,16.208139,77.348417,NO2,16,47,29
India,Karnataka,Raichur,"Haji Colony, Raichur - KSPCB",11-02-2024 16:00:00,16.208139,77.348417,SO2,61,72,65
India,Karnataka,Raichur,"Haji Colony, Raichur - KSPCB",11-02-2024 16:00:00,16.208139,77.348417,OZONE,2,29,13
India,Karnataka,Shivamogga,"Vinoba Nagara, Shivamogga - KSPCB",11-02-2024 16:00:00,13.940000,75.555917,NH3,2,4,3
India,Karnataka,Udupi,"Brahmagiri, Udupi - KSPCB",11-02-2024 16:00:00,13.34194444,74.74694444,NH3,1,2,2
India,Karnataka,Yadgir,"Collector Office, Yadgir - KSPCB",11-02-2024 16:00:00,16.7602,77.1428,PM2.5,47,102,76
India,Karnataka,Yadgir,"Collector Office, Yadgir - KSPCB",11-02-2024 16:00:00,16.7602,77.1428,NO2,NA,NA,NA
India,Kerala,Kannur,"Thavakkara, Kannur - Kerala PCB",11-02-2024 16:00:00,11.875000,75.373200,PM10,59,69,63
India,Kerala,Kannur,"Thavakkara, Kannur - Kerala PCB",11-02-2024 16:00:00,11.875000,75.373200,SO2,5,6,5
India,Kerala,Kochi,"Vyttila, Kochi - Kerala PCB",11-02-2024 16:00:00,9.969447,76.321186,PM2.5,62,173,104
India,Kerala,Kochi,"Vyttila, Kochi - Kerala PCB",11-02-2024 16:00:00,9.969447,76.321186,SO2,1,2,1
India,Kerala,Thiruvananthapuram,"Kariavattom, Thiruvananthapuram - Kerala PCB",11-02-2024 16:00:00,8.563700,76.886500,NO2,8,10,9
India,Kerala,Thiruvananthapuram,"Plammoodu, Thiruvananthapuram - Kerala PCB",11-02-2024 16:00:00,8.5149093,76.9435879,NH3,2,2,2
India,Kerala,Thiruvananthapuram,"Plammoodu, Thiruvananthapuram - Kerala PCB",11-02-2024 16:00:00,8.5149093,76.9435879,SO2,5,16,10
India,Madhya Pradesh,Bhopal,"Paryavaran Parisar, Bhopal - MPPCB",11-02-2024 16:00:00,23.210494,77.425409,NO2,20,64,34
India,Madhya Pradesh,Bhopal,"T T Nagar, Bhopal - MPPCB",11-02-2024 16:00:00,23.233584,77.400574,PM10,73,114,98
India,Madhya Pradesh,Bhopal,"T T Nagar, Bhopal - MPPCB",11-02-2024 16:00:00,23.233584,77.400574,SO2,23,44,34
India,Madhya Pradesh,Dewas,"Bhopal Chauraha, Dewas - MPPCB",11-02-2024 16:00:00,22.9682591,76.064118,SO2,15,53,33
India,Madhya Pradesh,Gwalior,"Deen Dayal Nagar, Gwalior - MPPCB",11-02-2024 16:00:00,26.259242,78.216432,NO2,25,154,80
India,Madhya Pradesh,Indore,"Chhoti Gwaltoli, Indore - MPPCB",11-02-2024 16:00:00,22.4310,75.5213,SO2,14,31,20
India,Madhya Pradesh,Indore,"Regional Park, Indore - IMC",11-02-2024 16:00:00,22.6780,75.8559,NO2,9,14,11
India,Madhya Pradesh,Indore,"Regional Park, Indore - IMC",11-02-2024 16:00:00,22.6780,75.8559,SO2,38,41,40
India,Madhya Pradesh,Indore,"Residency Area, Indore - IMC",11-02-2024 16:00:00,22.7084,75.8815,CO,8,14,10
India,Madhya Pradesh,Indore,"Residency Area, Indore - IMC",11-02-2024 16:00:00,22.7084,75.8815,OZONE,14,23,21
India,Madhya Pradesh,Jabalpur,"Govindh Bhavan Colony, Jabalpur - JMC",11-02-2024 16:00:00,23.163174,79.973061,PM2.5,47,113,66
India,Madhya Pradesh,Jabalpur,"Govindh Bhavan Colony, Jabalpur - JMC",11-02-2024 16:00:00,23.163174,79.973061,PM10,49,86,64
India,Madhya Pradesh,Jabalpur,"Govindh Bhavan Colony, Jabalpur - JMC",11-02-2024 16:00:00,23.163174,79.973061,NO2,14,27,19
India,Madhya Pradesh,Jabalpur,"Govindh Bhavan Colony, Jabalpur - JMC",11-02-2024 16:00:00,23.163174,79.973061,NH3,5,6,5
India,Madhya Pradesh,Jabalpur,"Gupteshwar, Jabalpur - JMC",11-02-2024 16:00:00,23.142888,79.916147,PM2.5,47,500,107
India,Madhya Pradesh,Jabalpur,"Gupteshwar, Jabalpur - JMC",11-02-2024 16:00:00,23.142888,79.916147,NH3,2,3,3
India,Madhya Pradesh,Jabalpur,"Gupteshwar, Jabalpur - JMC",11-02-2024 16:00:00,23.142888,79.916147,SO2,6,42,19
India,Madhya Pradesh,Jabalpur,"Gupteshwar, Jabalpur - JMC",11-02-2024 16:00:00,23.142888,79.916147,CO,26,68,51
India,Madhya Pradesh,Jabalpur,"Suhagi, Jabalpur - JMC",11-02-2024 16:00:00,23.218135,79.957770,PM2.5,58,213,108
India,Madhya Pradesh,Katni,"Gole Bazar, Katni - MPPCB",11-02-2024 16:00:00,23.50016,80.23284,PM2.5,NA,NA,NA
India,Madhya Pradesh,Maihar,"Sahilara, Maihar - KJS Cements",11-02-2024 16:00:00,24.2613009,80.7231783,SO2,13,16,14
India,Madhya Pradesh,Pithampur,"Sector-2 Industrial Area, Pithampur - MPPCB",11-02-2024 16:00:00,22.624758,75.675238,PM2.5,52,168,100
India,Madhya Pradesh,Sagar,"Civil Lines, Sagar - MPPCB",11-02-2024 16:00:00,23.838586,78.759431,PM10,59,96,78
India,Madhya Pradesh,Sagar,"Civil Lines, Sagar - MPPCB",11-02-2024 16:00:00,23.838586,78.759431,NO2,11,16,13
India,Madhya Pradesh,Sagar,"Civil Lines, Sagar - MPPCB",11-02-2024 16:00:00,23.838586,78.759431,NH3,2,5,3
India,Madhya Pradesh,Sagar,"Civil Lines, Sagar - MPPCB",11-02-2024 16:00:00,23.838586,78.759431,OZONE,44,53,52
India,Madhya Pradesh,Sagar,"Deen Dayal Nagar, Sagar - MPPCB",11-02-2024 16:00:00,23.8640158,78.80289321,PM2.5,13,38,25
India,Madhya Pradesh,Satna,"Bandhavgar Colony, Satna - Birla Cement",11-02-2024 16:00:00,24.58434363,80.8549414,OZONE,60,91,80
India,Madhya Pradesh,Singrauli,"Suryakiran Bhawan NCL, Singrauli - MPPCB",11-02-2024 16:00:00,24.108970,82.645580,CO,7,117,74
India,Madhya Pradesh,Ujjain,"Mahakaleshwar Temple, Ujjain - MPPCB",11-02-2024 16:00:00,23.182719 ,75.768218 ,NO2,8,40,14
India,Madhya Pradesh,Ujjain,"Mahakaleshwar Temple, Ujjain - MPPCB",11-02-2024 16:00:00,23.182719 ,75.768218 ,NH3,4,5,5
India,Maharashtra,Ahmednagar,"Tarakpur, Ahmednagar - MPCB",11-02-2024 16:00:00,19.10122,74.73339,PM2.5,NA,NA,NA
India,Maharashtra,Ahmednagar,"Tarakpur, Ahmednagar - MPCB",11-02-2024 16:00:00,19.10122,74.73339,NO2,NA,NA,NA
India,Maharashtra,Ahmednagar,"Tarakpur, Ahmednagar - MPCB",11-02-2024 16:00:00,19.10122,74.73339,OZONE,NA,NA,NA
India,Maharashtra,Amravati,"Shivneri Colony, Amravati - MPCB",11-02-2024 16:00:00,20.9402359,77.7895248,PM2.5,85,167,132
India,Maharashtra,Amravati,"Shivneri Colony, Amravati - MPCB",11-02-2024 16:00:00,20.9402359,77.7895248,OZONE,36,133,71
India,Maharashtra,Amravati,"Shri Shivaji Science College, Amaravati - MPCB",11-02-2024 16:00:00,20.939198,77.765701,PM10,NA,NA,NA
India,Maharashtra,Amravati,"Shri Shivaji Science College, Amaravati - MPCB",11-02-2024 16:00:00,20.939198,77.765701,CO,51,57,54
India,Maharashtra,Amravati,"Shri Shivaji Science College, Amaravati - MPCB",11-02-2024 16:00:00,20.939198,77.765701,OZONE,38,82,58
India,Maharashtra,Aurangabad,"MIDC Chilkalthana, Aurangabad - MPCB",11-02-2024 16:00:00,19.875620,75.387310,NH3,3,4,4
India,Maharashtra,Aurangabad,"MIDC Chilkalthana, Aurangabad - MPCB",11-02-2024 16:00:00,19.875620,75.387310,CO,2,50,17
India,Maharashtra,Aurangabad,"More Chowk Waluj, Aurangabad - MPCB",11-02-2024 16:00:00,19.8389439,75.244448,NH3,1,1,1
India,Maharashtra,Aurangabad,"Rachnakar Colony, Aurangabad - MPCB",11-02-2024 16:00:00,19.863756,75.321188,PM2.5,54,191,136
India,Maharashtra,Badlapur,"Katrap, Badlapur - MPCB",11-02-2024 16:00:00,19.16485,73.23409,CO,17,70,39
India,Maharashtra,Belapur,"CBD Belapur, Belapur - MPCB",11-02-2024 16:00:00,19.0243902,73.0406721,NO2,27,73,53
India,Maharashtra,Belapur,"CBD Belapur, Belapur - MPCB",11-02-2024 16:00:00,19.0243902,73.0406721,CO,17,58,45
India,Maharashtra,Bhiwandi,"Gokul Nagar, Bhiwandi - MPCB",11-02-2024 16:00:00,19.309073,73.057223,PM2.5,31,295,113
India,Maharashtra,Bhiwandi,"Gokul Nagar, Bhiwandi - MPCB",11-02-2024 16:00:00,19.309073,73.057223,OZONE,3,76,54
India,Maharashtra,Chandrapur,"Chauhan Colony, Chandrapur - MPCB",11-02-2024 16:00:00,19.962900,79.298714,NH3,2,2,2
India,Maharashtra,Chandrapur,"Chauhan Colony, Chandrapur - MPCB",11-02-2024 16:00:00,19.962900,79.298714,SO2,2,22,8
India,Maharashtra,Chandrapur,"Chauhan Colony, Chandrapur - MPCB",11-02-2024 16:00:00,19.962900,79.298714,CO,25,27,26
India,Maharashtra,Dhule,"Deopur, Dhule - MPCB",11-02-2024 16:00:00,20.918946,74.776388,PM2.5,30,325,137
India,Maharashtra,Dhule,"Deopur, Dhule - MPCB",11-02-2024 16:00:00,20.918946,74.776388,PM10,71,167,108
India,Maharashtra,Dhule,"Deopur, Dhule - MPCB",11-02-2024 16:00:00,20.918946,74.776388,NO2,8,48,18
India,Maharashtra,Dhule,"Deopur, Dhule - MPCB",11-02-2024 16:00:00,20.918946,74.776388,OZONE,16,82,45
India,Maharashtra,Kalyan,"Khadakpada, Kalyan - MPCB",11-02-2024 16:00:00,19.25292,73.142019,PM10,86,150,111
India,Maharashtra,Kalyan,"Khadakpada, Kalyan - MPCB",11-02-2024 16:00:00,19.25292,73.142019,OZONE,11,39,27
India,Maharashtra,Kolhapur,"Sinchan Bhavan, Kolhapur - MPCB",11-02-2024 16:00:00,16.7143745,74.2426398,PM10,98,166,122
India,Maharashtra,Kolhapur,"Sinchan Bhavan, Kolhapur - MPCB",11-02-2024 16:00:00,16.7143745,74.2426398,SO2,1,18,6
India,Maharashtra,Kolhapur,"Sinchan Bhavan, Kolhapur - MPCB",11-02-2024 16:00:00,16.7143745,74.2426398,OZONE,27,271,215
India,Maharashtra,Mahad,"Kamble Tarf Birwadi, Mahad - MPCB",11-02-2024 16:00:00,18.1023399,73.4783687,PM2.5,125,150,134
India,Maharashtra,Mahad,"Kamble Tarf Birwadi, Mahad - MPCB",11-02-2024 16:00:00,18.1023399,73.4783687,PM10,136,148,140
India,Maharashtra,Malegaon,"Mahesh Nagar, Malegaon - MPCB",11-02-2024 16:00:00,20.555712,74.529236,OZONE,21,98,43
India,Maharashtra,Mira-Bhayandar,"Bhayandar West, Mira-Bhayandar - MPCB",11-02-2024 16:00:00,19.296481,72.840923,NH3,NA,NA,NA
India,Maharashtra,Mumbai,"Borivali East, Mumbai - MPCB",11-02-2024 16:00:00,19.2243333,72.8658113,CO,2,105,21
India,Maharashtra,Mumbai,"Byculla, Mumbai - BMC",11-02-2024 16:00:00,18.9767,72.8380,CO,15,89,46
India,Maharashtra,Mumbai,"Chakala-Andheri East, Mumbai - IITM",11-02-2024 16:00:00,19.11074,72.86084,PM10,65,132,93
India,Maharashtra,Mumbai,"Chakala-Andheri East, Mumbai - IITM",11-02-2024 16:00:00,19.11074,72.86084,SO2,14,60,33
India,Maharashtra,Mumbai,"Chakala-Andheri East, Mumbai - IITM",11-02-2024 16:00:00,19.11074,72.86084,CO,23,112,78
India,Maharashtra,Mumbai,"Chhatrapati Shivaji Intl. Airport (T2), Mumbai - MPCB",11-02-2024 16:00:00,19.10078,72.87462,PM2.5,19,59,36
India,Maharashtra,Mumbai,"Chhatrapati Shivaji Intl. Airport (T2), Mumbai - MPCB",11-02-2024 16:00:00,19.10078,72.87462,PM10,64,148,99
India,Maharashtra,Mumbai,"Colaba, Mumbai - MPCB",11-02-2024 16:00:00,18.910000,72.820000,PM2.5,30,81,47
India,Maharashtra,Mumbai,"Ghatkopar, Mumbai - BMC",11-02-2024 16:00:00,19.083694,72.920967,OZONE,4,39,15
India,Maharashtra,Mumbai,"Kandivali East, Mumbai - MPCB",11-02-2024 16:00:00,19.205800,72.868200,PM2.5,12,69,36
India,Maharashtra,Mumbai,"Kherwadi_Bandra East, Mumbai - MPCB",11-02-2024 16:00:00,19.0632143,72.8456324,CO,14,91,33
India,Maharashtra,Mumbai,"Khindipada-Bhandup West, Mumbai - IITM",11-02-2024 16:00:00,19.1653323,72.922099,PM2.5,38,122,72
India,Maharashtra,Mumbai,"Kurla, Mumbai - MPCB",11-02-2024 16:00:00,19.0863,72.8888,SO2,32,32,32
India,Maharashtra,Mumbai,"Mindspace-Malad West, Mumbai - MPCB",11-02-2024 16:00:00,19.1878657,72.8304069,SO2,4,22,11
India,Maharashtra,Mumbai,"Mulund West, Mumbai - MPCB",11-02-2024 16:00:00,19.1750,72.9419,PM2.5,22,75,38
India,Maharashtra,Mumbai,"Mulund West, Mumbai - MPCB",11-02-2024 16:00:00,19.1750,72.9419,NO2,22,28,24
India,Maharashtra,Mumbai,"Mulund West, Mumbai - MPCB",11-02-2024 16:00:00,19.1750,72.9419,SO2,14,15,14
India,Maharashtra,Mumbai,"Navy Nagar-Colaba, Mumbai - IITM",11-02-2024 16:00:00,18.897756,72.813320,NO2,1,12,4
India,Maharashtra,Mumbai,"Navy Nagar-Colaba, Mumbai - IITM",11-02-2024 16:00:00,18.897756,72.813320,OZONE,5,135,74
India,Maharashtra,Mumbai,"Powai, Mumbai - MPCB",11-02-2024 16:00:00,19.137500,72.915056,PM10,45,149,91
India,Maharashtra,Mumbai,"Powai, Mumbai - MPCB",11-02-2024 16:00:00,19.137500,72.915056,NH3,1,1,1
India,Maharashtra,Mumbai,"Siddharth Nagar-Worli, Mumbai - IITM",11-02-2024 16:00:00,19.000083,72.813993,NO2,28,133,54
India,Maharashtra,Mumbai,"Sion, Mumbai - MPCB",11-02-2024 16:00:00,19.047000,72.874600,NO2,9,91,49
India,Maharashtra,Mumbai,"Vasai West, Mumbai - MPCB",11-02-2024 16:00:00,19.383200,72.820400,PM10,37,139,73
India,Maharashtra,Mumbai,"Vasai West, Mumbai - MPCB",11-02-2024 16:00:00,19.383200,72.820400,CO,22,105,48
India,Maharashtra,Mumbai,"Worli, Mumbai - MPCB",11-02-2024 16:00:00,18.9936162,72.8128113,PM2.5,26,70,41
India,Maharashtra,Mumbai,"Worli, Mumbai - MPCB",11-02-2024 16:00:00,18.9936162,72.8128113,SO2,10,11,10
India,Maharashtra,Mumbai,"Worli, Mumbai - MPCB",11-02-2024 16:00:00,18.9936162,72.8128113,CO,32,33,32
India,Maharashtra,Mumbai,"Worli, Mumbai - MPCB",11-02-2024 16:00:00,18.9936162,72.8128113,OZONE,5,11,8
India,Maharashtra,Nagpur,"Ambazari, Nagpur - MPCB",11-02-2024 16:00:00,21.121801,79.04952,PM2.5,136,256,209
India,Maharashtra,Nagpur,"Ambazari, Nagpur - MPCB",11-02-2024 16:00:00,21.121801,79.04952,NH3,1,4,2
India,Maharashtra,Nagpur,"Ambazari, Nagpur - MPCB",11-02-2024 16:00:00,21.121801,79.04952,OZONE,36,116,66
India,Maharashtra,Nagpur,"Mahal, Nagpur - MPCB",11-02-2024 16:00:00,21.14472,79.107595,PM2.5,132,246,179
India,Maharashtra,Nagpur,"Mahal, Nagpur - MPCB",11-02-2024 16:00:00,21.14472,79.107595,PM10,103,193,140
India,Maharashtra,Nagpur,"Mahal, Nagpur - MPCB",11-02-2024 16:00:00,21.14472,79.107595,NO2,10,43,21
India,Maharashtra,Nagpur,"Opp GPO Civil Lines, Nagpur - MPCB",11-02-2024 16:00:00,21.152875,79.0517531,SO2,14,75,38
India,Maharashtra,Nagpur,"Ram Nagar, Nagpur - MPCB",11-02-2024 16:00:00,21.143383,79.048912,SO2,12,41,27
India,Maharashtra,Nagpur,"Ram Nagar, Nagpur - MPCB",11-02-2024 16:00:00,21.143383,79.048912,CO,18,54,29
India,Maharashtra,Nagpur,"Ram Nagar, Nagpur - MPCB",11-02-2024 16:00:00,21.143383,79.048912,OZONE,22,70,39
India,Maharashtra,Nanded,"Sneh Nagar, Nanded - MPCB",11-02-2024 16:00:00,19.173852,77.296291,PM2.5,40,199,124
India,Maharashtra,Nanded,"Sneh Nagar, Nanded - MPCB",11-02-2024 16:00:00,19.173852,77.296291,NO2,16,40,26
India,Maharashtra,Nanded,"Sneh Nagar, Nanded - MPCB",11-02-2024 16:00:00,19.173852,77.296291,SO2,5,15,11
India,Maharashtra,Nanded,"Sneh Nagar, Nanded - MPCB",11-02-2024 16:00:00,19.173852,77.296291,CO,31,38,35
India,Maharashtra,Nashik,"Gangapur Road, Nashik - MPCB",11-02-2024 16:00:00,20.0073285,73.7762427,PM2.5,55,180,83
India,Maharashtra,Nashik,"Gangapur Road, Nashik - MPCB",11-02-2024 16:00:00,20.0073285,73.7762427,NO2,2,3,2
India,Maharashtra,Nashik,"Gangapur Road, Nashik - MPCB",11-02-2024 16:00:00,20.0073285,73.7762427,OZONE,1,77,44
India,Maharashtra,Nashik,"Hirawadi, Nashik - MPCB",11-02-2024 16:00:00,20.021503,73.813844,PM10,NA,NA,NA
India,Maharashtra,Nashik,"Hirawadi, Nashik - MPCB",11-02-2024 16:00:00,20.021503,73.813844,CO,3,15,9
India,Maharashtra,Nashik,"Pandav Nagari, Nashik - MPCB",11-02-2024 16:00:00,19.9591346,73.7788008,SO2,21,46,29
India,Maharashtra,Nashik,"Pandav Nagari, Nashik - MPCB",11-02-2024 16:00:00,19.9591346,73.7788008,CO,26,48,35
India,Maharashtra,Navi Mumbai,"Kopripada-Vashi, Navi Mumbai - MPCB",11-02-2024 16:00:00,19.090337,73.014232,PM2.5,50,226,118
India,Maharashtra,Navi Mumbai,"Kopripada-Vashi, Navi Mumbai - MPCB",11-02-2024 16:00:00,19.090337,73.014232,NH3,4,33,13
India,Maharashtra,Navi Mumbai,"Kopripada-Vashi, Navi Mumbai - MPCB",11-02-2024 16:00:00,19.090337,73.014232,OZONE,1,170,157
India,Maharashtra,Navi Mumbai,"Mahape, Navi Mumbai - MPCB",11-02-2024 16:00:00,19.1135051,73.008978,PM2.5,NA,NA,NA
India,Maharashtra,Navi Mumbai,"Mahape, Navi Mumbai - MPCB",11-02-2024 16:00:00,19.1135051,73.008978,PM10,NA,NA,NA
India,Maharashtra,Navi Mumbai,"Mahape, Navi Mumbai - MPCB",11-02-2024 16:00:00,19.1135051,73.008978,SO2,NA,NA,NA
India,Maharashtra,Navi Mumbai,"Nerul, Navi Mumbai - MPCB",11-02-2024 16:00:00,19.008751,73.016620,PM2.5,31,180,86
India,Maharashtra,Navi Mumbai,"Nerul, Navi Mumbai - MPCB",11-02-2024 16:00:00,19.008751,73.016620,PM10,88,312,138
India,Maharashtra,Navi Mumbai,"Sector-19A Nerul, Navi Mumbai - IITM",11-02-2024 16:00:00,19.044,73.0325,NH3,8,22,19
India,Maharashtra,Navi Mumbai,"Tondare-Taloja, Navi Mumbai - MPCB",11-02-2024 16:00:00,19.0630,73.1209,NH3,3,11,6
India,Maharashtra,Navi Mumbai,"Tondare-Taloja, Navi Mumbai - MPCB",11-02-2024 16:00:00,19.0630,73.1209,CO,1,66,32
India,Maharashtra,Parbhani,"Masoom Colony, Parbhani - MPCB",11-02-2024 16:00:00,19.265594,76.761463,NO2,9,54,19
India,Maharashtra,Pimpri-Chinchwad,"Gavalinagar, Pimpri Chinchwad - MPCB",11-02-2024 16:00:00,18.63673,73.82487,SO2,7,37,16
India,Maharashtra,Pimpri-Chinchwad,"Park Street Wakad, Pimpri Chinchwad - MPCB",11-02-2024 16:00:00,18.59051,73.77946,PM2.5,79,255,188
India,Maharashtra,Pimpri-Chinchwad,"Park Street Wakad, Pimpri Chinchwad - MPCB",11-02-2024 16:00:00,18.59051,73.77946,PM10,86,178,148
India,Maharashtra,Pune,"Bhosari, Pune - IITM",11-02-2024 16:00:00,18.640051,73.848956,OZONE,3,13,9
India,Maharashtra,Pune,"Karve Road, Pune - MPCB",11-02-2024 16:00:00,18.5011743,73.8165527,CO,NA,NA,NA
India,Maharashtra,Pune,"Karve Road, Pune - MPCB",11-02-2024 16:00:00,18.5011743,73.8165527,OZONE,NA,NA,NA
India,Maharashtra,Pune,"Katraj Dairy, Pune - MPCB",11-02-2024 16:00:00,18.454450,73.854155,PM10,34,145,105
India,Maharashtra,Pune,"Katraj Dairy, Pune - MPCB",11-02-2024 16:00:00,18.454450,73.854155,SO2,3,19,8
India,Maharashtra,Pune,"Revenue Colony-Shivajinagar, Pune - IITM",11-02-2024 16:00:00,18.530085,73.849598,CO,65,115,101
India,Maharashtra,Pune,"Revenue Colony-Shivajinagar, Pune - IITM",11-02-2024 16:00:00,18.530085,73.849598,OZONE,3,70,38
India,Maharashtra,Pune,"Savitribai Phule Pune University, Pune - MPCB",11-02-2024 16:00:00,18.547056,73.826908,PM10,52,148,119
India,Maharashtra,Pune,"Savitribai Phule Pune University, Pune - MPCB",11-02-2024 16:00:00,18.547056,73.826908,NO2,NA,NA,NA
India,Maharashtra,Solapur,"Dnyaneshwar Nagar, Solapur - MPCB",11-02-2024 16:00:00,17.6336264,75.9132495,OZONE,38,133,87
India,Maharashtra,Solapur,"Ratandeep Housing Society, Solapur - MPCB",11-02-2024 16:00:00,17.65439,75.90649,SO2,8,23,14
India,Maharashtra,Solapur,"Solapur, Solapur - MPCB",11-02-2024 16:00:00,17.6599188,75.9063906,PM2.5,49,119,72
India,Maharashtra,Solapur,"Solapur, Solapur - MPCB",11-02-2024 16:00:00,17.6599188,75.9063906,NO2,55,55,55
India,Maharashtra,Thane,"Pimpleshwar Mandir, Thane - MPCB",11-02-2024 16:00:00,19.192056,72.9585188,PM10,138,262,176
India,Maharashtra,Thane,"Pimpleshwar Mandir, Thane - MPCB",11-02-2024 16:00:00,19.192056,72.9585188,OZONE,1,68,38
India,Maharashtra,Thane,"Upvan Fort, Thane - MPCB",11-02-2024 16:00:00,19.222279,72.957979,OZONE,12,215,215
India,Maharashtra,Ulhasnagar,"Sidhi Vinayak Nagar, Ulhasnagar - MPCB",11-02-2024 16:00:00,19.235581,73.159121,NO2,15,71,29
India,Maharashtra,Ulhasnagar,"Sidhi Vinayak Nagar, Ulhasnagar - MPCB",11-02-2024 16:00:00,19.235581,73.159121,NH3,NA,NA,NA
India,Maharashtra,Ulhasnagar,"Sidhi Vinayak Nagar, Ulhasnagar - MPCB",11-02-2024 16:00:00,19.235581,73.159121,CO,12,65,22
India,Maharashtra,Virar,"Bolinj, Virar - MPCB",11-02-2024 16:00:00,19.4458210,72.7988231,PM2.5,69,121,93
India,Maharashtra,Virar,"Bolinj, Virar - MPCB",11-02-2024 16:00:00,19.4458210,72.7988231,NO2,10,64,29
India,Maharashtra,Virar,"Bolinj, Virar - MPCB",11-02-2024 16:00:00,19.4458210,72.7988231,NH3,5,6,6
India,Maharashtra,Virar,"Bolinj, Virar - MPCB",11-02-2024 16:00:00,19.4458210,72.7988231,CO,14,50,32
India,Manipur,Imphal,"DM College of Science, Imphal - Manipur PCB",11-02-2024 16:00:00,24.8207389,93.9423085,NO2,7,8,8
India,Manipur,Imphal,"Manipur University, Imphal - Manipur PCB",11-02-2024 16:00:00,24.7524239,93.9286218,CO,8,63,16
India,Nagaland,Kohima,"PWD Juction, Kohima - NPCB",11-02-2024 16:00:00,25.6635413,94.0989878,PM2.5,53,197,90
India,Odisha,Angul,"Hakimapada, Angul - OSPCB",11-02-2024 16:00:00,20.832874,85.104082,OZONE,2,278,256
India,Odisha,Balasore,"Kalidaspur, Balasore - OSPCB",11-02-2024 16:00:00,21.51161,86.89088,PM2.5,97,348,217
India,Odisha,Balasore,"Kalidaspur, Balasore - OSPCB",11-02-2024 16:00:00,21.51161,86.89088,PM10,99,309,151
India,Odisha,Barbil,"Forest Office, Barbil - OSPCB",11-02-2024 16:00:00,22.1166054,85.3945546,PM2.5,38,326,141
India,Odisha,Baripada,"Meher Colony, Baripada - OSPCB",11-02-2024 16:00:00,21.941841,86.728318,PM10,90,156,122
India,Odisha,Baripada,"Meher Colony, Baripada - OSPCB",11-02-2024 16:00:00,21.941841,86.728318,CO,17,42,32
India,Odisha,Bhubaneswar,"Lingraj Mandir, Bhubaneswar - OSPCB",11-02-2024 16:00:00,20.240790,85.836784,CO,4,68,34
India,Odisha,Bhubaneswar,"Patia, Bhubaneswar - OSPCB",11-02-2024 16:00:00,20.34652,85.81630,PM10,113,256,150
India,Odisha,Bhubaneswar,"Patia, Bhubaneswar - OSPCB",11-02-2024 16:00:00,20.34652,85.81630,NO2,15,73,34
India,Odisha,Brajrajnagar,"GM Office, Brajrajnagar - OSPCB",11-02-2024 16:00:00,21.8004996,83.8396977,NO2,7,140,56
India,Odisha,Byasanagar,"Ferro Chrome Colony, Byasanagar - OSPCB",11-02-2024 16:00:00,20.94185,86.11510,CO,22,113,72
India,Odisha,Byasanagar,"Ferro Chrome Colony, Byasanagar - OSPCB",11-02-2024 16:00:00,20.94185,86.11510,OZONE,36,219,201
India,Odisha,Cuttack,"CDA Area, Cuttack - OSPCB",11-02-2024 16:00:00,20.48891     ,85.84768     ,PM2.5,85,305,210
India,Odisha,Cuttack,"CDA Area, Cuttack - OSPCB",11-02-2024 16:00:00,20.48891     ,85.84768     ,OZONE,38,177,174
India,Odisha,Keonjhar,"Jagamohanpur, Keonjhar - OSPCB",11-02-2024 16:00:00,21.643900,85.599355,CO,12,47,16
India,Odisha,Rairangpur,"Divisional Forest Office, Rairangpur - OSPCB",11-02-2024 16:00:00,22.265816,86.174829,NO2,7,8,7
India,Odisha,Rourkela,"Raghunathpali, Rourkela - OSPCB",11-02-2024 16:00:00,22.220833,84.809444,NO2,16,163,63
India,Odisha,Rourkela,"Raghunathpali, Rourkela - OSPCB",11-02-2024 16:00:00,22.220833,84.809444,SO2,6,34,15
India,Odisha,Rourkela,"Raghunathpali, Rourkela - OSPCB",11-02-2024 16:00:00,22.220833,84.809444,CO,32,72,46
India,Odisha,Rourkela,"Sector-2, Rourkela - OSPCB",11-02-2024 16:00:00,22.24500000,84.88111111,PM10,15,176,112
India,Odisha,Suakati,"OMC Colony, Suakati - OSPCB",11-02-2024 16:00:00,21.606865,85.510538,NO2,NA,NA,NA
India,Odisha,Suakati,"OMC Colony, Suakati - OSPCB",11-02-2024 16:00:00,21.606865,85.510538,CO,9,58,14
India,Odisha,Tensa,"Barsua Iron Ore Mines, Tensa - OSPCB",11-02-2024 16:00:00,21.869985,85.167016,PM2.5,51,126,78
India,Puducherry,Puducherry,"Jawahar Nagar, Puducherry - PPCC",11-02-2024 16:00:00,11.9309,79.8027,NO2,6,36,19
India,Punjab,Amritsar,"Golden Temple, Amritsar - PPCB",11-02-2024 16:00:00,31.620000,74.876512,SO2,12,41,22
India,Punjab,Bathinda,"Hardev Nagar, Bathinda - PPCB",11-02-2024 16:00:00,30.233011,74.907758,CO,2,74,20
India,Punjab,Khanna,"Kalal Majra, Khanna - PPCB",11-02-2024 16:00:00,30.736056 ,76.209694,PM10,34,112,83
India,Punjab,Mandi Gobindgarh,"RIMT University, Mandi Gobindgarh - PPCB",11-02-2024 16:00:00,30.649961,76.331442,NO2,29,32,31
India,Punjab,Mandi Gobindgarh,"RIMT University, Mandi Gobindgarh - PPCB",11-02-2024 16:00:00,30.649961,76.331442,OZONE,31,35,33
India,Punjab,Rupnagar,"Ratanpura, Rupnagar - Ambuja Cements",11-02-2024 16:00:00,31.0325454,76.5623046,PM2.5,62,286,120
India,Rajasthan,Ajmer,"Civil Lines,  Ajmer - RSPCB",11-02-2024 16:00:00,26.470859,74.646594,PM2.5,12,165,58
India,Rajasthan,Ajmer,"Civil Lines,  Ajmer - RSPCB",11-02-2024 16:00:00,26.470859,74.646594,PM10,26,125,70
India,Rajasthan,Alwar,"Moti Doongri, Alwar - RSPCB",11-02-2024 16:00:00,27.554793,76.611536,NH3,5,11,7
India,Rajasthan,Banswara,"Rati Talai, Banswara - RSPCB",11-02-2024 16:00:00,23.555190,74.440010,OZONE,68,152,152
India,Rajasthan,Baran,"Bamboliya, Baran - RSPCB",11-02-2024 16:00:00,25.106006,76.469948,CO,20,33,27
India,Rajasthan,Barmer,"Railway Colony, Barmer - RSPCB",11-02-2024 16:00:00,25.747299,71.393989,NH3,4,7,5
India,Rajasthan,Bharatpur,"Krishna Nagar, Bharatpur - RSPCB",11-02-2024 16:00:00,27.215415,77.50873,NO2,60,189,108
India,Rajasthan,Bharatpur,"Krishna Nagar, Bharatpur - RSPCB",11-02-2024 16:00:00,27.215415,77.50873,SO2,1,56,19
India,Rajasthan,Bhilwara,"Pratap Nagar, Bhilwara - RSPCB",11-02-2024 16:00:00,25.339605,74.618883,PM10,50,157,95
India,Rajasthan,Bhilwara,"Pratap Nagar, Bhilwara - RSPCB",11-02-2024 16:00:00,25.339605,74.618883,SO2,9,21,13
India,Rajasthan,Bhilwara,"Pratap Nagar, Bhilwara - RSPCB",11-02-2024 16:00:00,25.339605,74.618883,CO,16,56,29
India,Rajasthan,Bhilwara,"Pratap Nagar, Bhilwara - RSPCB",11-02-2024 16:00:00,25.339605,74.618883,OZONE,15,87,67
India,Rajasthan,Bhiwadi,"RIICO Ind. Area III, Bhiwadi - RSPCB",11-02-2024 16:00:00,28.194909,76.862296,PM2.5,162,336,281
India,Rajasthan,Bhiwadi,"RIICO Ind. Area III, Bhiwadi - RSPCB",11-02-2024 16:00:00,28.194909,76.862296,NH3,8,27,18
India,Rajasthan,Bikaner,"MM Ground, Bikaner - RSPCB",11-02-2024 16:00:00,28.018792,73.292658,NO2,10,52,28
India,Rajasthan,Bikaner,"MM Ground, Bikaner - RSPCB",11-02-2024 16:00:00,28.018792,73.292658,OZONE,4,80,63
India,Rajasthan,Bundi,"New Colony, Bundi - RSPCB",11-02-2024 16:00:00,25.435774,75.644272,PM2.5,29,111,64
India,Rajasthan,Bundi,"New Colony, Bundi - RSPCB",11-02-2024 16:00:00,25.435774,75.644272,NH3,3,3,3
India,Rajasthan,Chittorgarh,"Shastri Nagar, Chittorgarh - RSPCB",11-02-2024 16:00:00,24.892047,74.623527,CO,15,80,35
India,Rajasthan,Churu,"Subash Chowk, Churu - RSPCB",11-02-2024 16:00:00,28.296139,74.961696,PM2.5,24,420,137
India,Rajasthan,Dausa,"Khatikan Mohalla, Dausa - RSPCB",11-02-2024 16:00:00,26.895552,76.334753,CO,2,106,40
India,Rajasthan,Dholpur,"Raja Ganj, Dholpur - RSPCB",11-02-2024 16:00:00,26.699557,77.898881,NO2,19,112,47
India,Rajasthan,Dungarpur,"Bhoiwada, Dungarpur - RSPCB",11-02-2024 16:00:00,23.837789,73.714926,NO2,19,63,33
India,Rajasthan,Dungarpur,"Bhoiwada, Dungarpur - RSPCB",11-02-2024 16:00:00,23.837789,73.714926,NH3,6,9,8
India,Rajasthan,Dungarpur,"Bhoiwada, Dungarpur - RSPCB",11-02-2024 16:00:00,23.837789,73.714926,OZONE,19,75,58
India,Rajasthan,Hanumangarh,"Housing Board, Hanumangarh - RSPCB",11-02-2024 16:00:00,29.610750,74.283608,PM2.5,88,446,306
India,Rajasthan,Hanumangarh,"Housing Board, Hanumangarh - RSPCB",11-02-2024 16:00:00,29.610750,74.283608,PM10,123,498,266
India,Rajasthan,Jaipur,"Adarsh Nagar, Jaipur - RSPCB",11-02-2024 16:00:00,26.902909,75.836858,SO2,6,27,17
India,Rajasthan,Jaipur,"Police Commissionerate, Jaipur - RSPCB",11-02-2024 16:00:00,26.9164092,75.7994901,SO2,12,23,17
India,Rajasthan,Jaipur,"Sector-2 Murlipura, Jaipur - RSPCB",11-02-2024 16:00:00,26.960669,75.771817,NO2,7,21,13
India,Rajasthan,Jaipur,"Sector-2 Murlipura, Jaipur - RSPCB",11-02-2024 16:00:00,26.960669,75.771817,NH3,3,9,6
India,Rajasthan,Jaipur,"Sector-2 Murlipura, Jaipur - RSPCB",11-02-2024 16:00:00,26.960669,75.771817,CO,10,74,28
India,Rajasthan,Jaipur,"Shastri Nagar, Jaipur - RSPCB",11-02-2024 16:00:00,26.9502929,75.730943,NH3,8,30,14
India,Rajasthan,Jaisalmer,"Sadar Bazar, Jaisalmer - RSPCB",11-02-2024 16:00:00,26.912329,70.909168,CO,6,78,17
India,Rajasthan,Jhalawar,"Rajlaxmi Nagar, Jhalawar - RSPCB",11-02-2024 16:00:00,24.588397,76.172782,NH3,4,5,4
India,Rajasthan,Jhunjhunu,"Indra Nagar, Jhunjhunu - RSPCB",11-02-2024 16:00:00,28.108988,75.386577,CO,24,84,44
India,Rajasthan,Jodhpur,"Digari Kalan, Jodhpur - RSPCB",11-02-2024 16:00:00,26.295810,73.082283,PM2.5,10,96,45
India,Rajasthan,Jodhpur,"Digari Kalan, Jodhpur - RSPCB",11-02-2024 16:00:00,26.295810,73.082283,NO2,12,77,36
India,Rajasthan,Jodhpur,"Digari Kalan, Jodhpur - RSPCB",11-02-2024 16:00:00,26.295810,73.082283,SO2,1,6,3
India,Rajasthan,Jodhpur,"Samrat Ashok Udhyan, Jodhpur - RSPCB",11-02-2024 16:00:00,26.253384,72.976571,SO2,6,21,8
India,Rajasthan,Jodhpur,"Samrat Ashok Udhyan, Jodhpur - RSPCB",11-02-2024 16:00:00,26.253384,72.976571,CO,24,102,32
India,Rajasthan,Kota,"Dhanmandi, Kota - RSPCB",11-02-2024 16:00:00,25.164090,75.858137,CO,20,129,28
India,Rajasthan,Kota,"Nayapura, Kota - RSPCB",11-02-2024 16:00:00,25.196024,75.855668,PM10,51,222,114
India,Rajasthan,Kota,"Nayapura, Kota - RSPCB",11-02-2024 16:00:00,25.196024,75.855668,NO2,19,106,58
India,Rajasthan,Kota,"Nayapura, Kota - RSPCB",11-02-2024 16:00:00,25.196024,75.855668,CO,16,105,26
India,Rajasthan,Kota,"Shrinath Puram, Kota - RSPCB",11-02-2024 16:00:00,25.14389,75.821256,NO2,30,231,90
India,Rajasthan,Pali,"Indira Colony Vistar, Pali - RSPCB",11-02-2024 16:00:00,25.771061, 73.340227,PM2.5,22,81,51
India,Rajasthan,Pali,"Indira Colony Vistar, Pali - RSPCB",11-02-2024 16:00:00,25.771061, 73.340227,PM10,48,106,78
India,Rajasthan,Pratapgarh,"Pragati Nagar, Pratapgarh - RSPCB",11-02-2024 16:00:00,24.041198,74.780702,PM10,37,106,70
India,Rajasthan,Pratapgarh,"Pragati Nagar, Pratapgarh - RSPCB",11-02-2024 16:00:00,24.041198,74.780702,CO,14,28,19
India,Rajasthan,Rajsamand,"Dhoinda, Rajsamand - RSPCB",11-02-2024 16:00:00,25.036360,73.883502,PM2.5,NA,NA,NA
India,Rajasthan,Rajsamand,"Dhoinda, Rajsamand - RSPCB",11-02-2024 16:00:00,25.036360,73.883502,NO2,NA,NA,NA
India,Rajasthan,Rajsamand,"Dhoinda, Rajsamand - RSPCB",11-02-2024 16:00:00,25.036360,73.883502,SO2,NA,NA,NA
India,Rajasthan,Rajsamand,"Dhoinda, Rajsamand - RSPCB",11-02-2024 16:00:00,25.036360,73.883502,CO,11,22,17
India,Rajasthan,Sawai Madhopur,"Sahu Nagar, Sawai Madhopur - RSPCB",11-02-2024 16:00:00,26.031443,76.359327,NH3,1,41,16
India,Rajasthan,Sawai Madhopur,"Sahu Nagar, Sawai Madhopur - RSPCB",11-02-2024 16:00:00,26.031443,76.359327,OZONE,2,136,94
India,Rajasthan,Sikar,"Radhakishan Pura, Sikar - RSPCB",11-02-2024 16:00:00,27.608912,75.153302,NH3,1,13,7
India,Rajasthan,Sikar,"Radhakishan Pura, Sikar - RSPCB",11-02-2024 16:00:00,27.608912,75.153302,OZONE,16,141,104
India,Rajasthan,Sirohi,"Vedhaynath Colony, Sirohi - RSPCB",11-02-2024 16:00:00,24.885261,72.857549,PM2.5,15,113,46
India,Rajasthan,Sirohi,"Vedhaynath Colony, Sirohi - RSPCB",11-02-2024 16:00:00,24.885261,72.857549,PM10,21,107,50
India,Rajasthan,Sri Ganganagar,"Old City, Sri Ganganagar - RSPCB",11-02-2024 16:00:00,29.931624,73.864511,PM10,137,500,305
India,Rajasthan,Sri Ganganagar,"Old City, Sri Ganganagar - RSPCB",11-02-2024 16:00:00,29.931624,73.864511,NH3,4,64,18
India,Rajasthan,Tonk,"Shastri Nagar, Tonk - RSPCB",11-02-2024 16:00:00,26.159933,75.780517,PM2.5,54,318,142
India,Rajasthan,Tonk,"Shastri Nagar, Tonk - RSPCB",11-02-2024 16:00:00,26.159933,75.780517,NO2,14,118,40
India,Rajasthan,Udaipur,"Ashok Nagar, Udaipur - RSPCB",11-02-2024 16:00:00,24.5886166,73.6321397,PM10,59,161,100
India,Sikkim,Gangtok,"Zero Point GICI, Gangtok - SSPCB",11-02-2024 16:00:00,27.338530,88.614099,NO2,1,9,2
India,TamilNadu,Chengalpattu,"Crescent University, Chengalpattu - TNPCB",11-02-2024 16:00:00,12.8777316,80.0834807,SO2,23,26,25
India,TamilNadu,Chennai,"Alandur Bus Depot, Chennai - CPCB",11-02-2024 16:00:00,12.9099161,80.1076538,PM10,116,190,142
India,TamilNadu,Chennai,"Kodungaiyur, Chennai - TNPCB",11-02-2024 16:00:00,13.1278,80.2642,PM10,71,111,91
India,TamilNadu,Chennai,"Kodungaiyur, Chennai - TNPCB",11-02-2024 16:00:00,13.1278,80.2642,NO2,7,14,10
India,TamilNadu,Chennai,"Kodungaiyur, Chennai - TNPCB",11-02-2024 16:00:00,13.1278,80.2642,SO2,1,9,5
India,TamilNadu,Chennai,"Manali, Chennai - CPCB",11-02-2024 16:00:00,13.164544,80.26285,NO2,8,23,13
India,TamilNadu,Chennai,"Perungudi, Chennai - TNPCB",11-02-2024 16:00:00,12.9533,80.2357,SO2,1,6,3
India,TamilNadu,Chennai,"Perungudi, Chennai - TNPCB",11-02-2024 16:00:00,12.9533,80.2357,OZONE,6,11,10
India,TamilNadu,Chennai,"Velachery Res. Area, Chennai - CPCB",11-02-2024 16:00:00,13.0052189,80.2398125,PM10,72,100,83
India,TamilNadu,Coimbatore,"PSG College of Arts and Science, Coimbatore - TNPCB",11-02-2024 16:00:00,11.0328,77.0349,NO2,1,6,2
India,TamilNadu,Coimbatore,"PSG College of Arts and Science, Coimbatore - TNPCB",11-02-2024 16:00:00,11.0328,77.0349,CO,76,78,77
India,TamilNadu,Coimbatore,"PSG College of Arts and Science, Coimbatore - TNPCB",11-02-2024 16:00:00,11.0328,77.0349,OZONE,3,5,4
India,TamilNadu,Cuddalore,"Kudikadu, Cuddalore - TNPCB",11-02-2024 16:00:00,11.6829898,79.7532099,SO2,14,16,15
India,TamilNadu,Cuddalore,"Semmandalam, Cuddalore - TNPCB",11-02-2024 16:00:00,11.7637683,79.7499835,PM10,40,87,60
India,TamilNadu,Ooty,"Bombay Castel, Ooty - TNPCB",11-02-2024 16:00:00,11.4068288,76.7138973,PM10,9,56,21
India,TamilNadu,Palkalaiperur,"Bharathidasan University, Palkalaiperur - TNPCB",11-02-2024 16:00:00,10.681158,78.741746,SO2,26,28,27
India,TamilNadu,Palkalaiperur,"Bharathidasan University, Palkalaiperur - TNPCB",11-02-2024 16:00:00,10.681158,78.741746,CO,4,44,8
India,TamilNadu,Ramanathapuram,"Chalai Bazaar, Ramanathapuram - TNPCB",11-02-2024 16:00:00,9.36399,78.831977,NH3,1,1,1
India,TamilNadu,Thoothukudi,"Meelavittan, Thoothukudi - TNPCB",11-02-2024 16:00:00,8.816428 ,78.099039,OZONE,3,18,9
India,TamilNadu,Tirupur,"Kumaran College, Tirupur - TNPCB",11-02-2024 16:00:00,11.0973603,77.3228673,NO2,9,46,21
India,TamilNadu,Tirupur,"Kumaran College, Tirupur - TNPCB",11-02-2024 16:00:00,11.0973603,77.3228673,OZONE,6,7,7
India,TamilNadu,Virudhunagar,"Collectorate Office, Virudhunagar - TNPCB",11-02-2024 16:00:00,9.559382,77.948828,CO,19,26,23
India,Telangana,Hyderabad,"Bollaram Industrial Area, Hyderabad - TSPCB",11-02-2024 16:00:00,17.540891,78.358528,NO2,16,30,21
India,Telangana,Hyderabad,"Bollaram Industrial Area, Hyderabad - TSPCB",11-02-2024 16:00:00,17.540891,78.358528,OZONE,36,39,36
India,Telangana,Hyderabad,"Central University, Hyderabad - TSPCB",11-02-2024 16:00:00,17.460103,78.334361,CO,24,62,31
India,Telangana,Hyderabad,"Central University, Hyderabad - TSPCB",11-02-2024 16:00:00,17.460103,78.334361,OZONE,3,4,4
India,Telangana,Hyderabad,"ECIL Kapra, Hyderabad - TSPCB",11-02-2024 16:00:00,17.470431,78.566959,PM10,63,93,72
India,Telangana,Hyderabad,"ECIL Kapra, Hyderabad - TSPCB",11-02-2024 16:00:00,17.470431,78.566959,NO2,8,10,10
India,Telangana,Hyderabad,"ICRISAT Patancheru, Hyderabad - TSPCB",11-02-2024 16:00:00,17.518400,78.278777,NH3,2,2,2
India,Telangana,Hyderabad,"ICRISAT Patancheru, Hyderabad - TSPCB",11-02-2024 16:00:00,17.518400,78.278777,CO,24,62,35
India,Telangana,Hyderabad,"Kompally Municipal Office, Hyderabad - TSPCB",11-02-2024 16:00:00,17.544899,78.486949,OZONE,14,72,51
India,Telangana,Hyderabad,"Nacharam_TSIIC IALA, Hyderabad - TSPCB",11-02-2024 16:00:00,17.429398,78.569354,PM2.5,58,86,65
India,Telangana,Hyderabad,"Nacharam_TSIIC IALA, Hyderabad - TSPCB",11-02-2024 16:00:00,17.429398,78.569354,PM10,84,98,92
India,Telangana,Hyderabad,"Nacharam_TSIIC IALA, Hyderabad - TSPCB",11-02-2024 16:00:00,17.429398,78.569354,SO2,1,10,4
India,Telangana,Hyderabad,"Sanathnagar, Hyderabad - TSPCB",11-02-2024 16:00:00,17.4559458,78.4332152,OZONE,28,225,154
India,Telangana,Hyderabad,"Somajiguda, Hyderabad - TSPCB",11-02-2024 16:00:00,17.417094,78.457437,PM10,NA,NA,NA
India,Telangana,Hyderabad,"Somajiguda, Hyderabad - TSPCB",11-02-2024 16:00:00,17.417094,78.457437,NH3,NA,NA,NA
India,Telangana,Hyderabad,"Zoo Park, Hyderabad - TSPCB",11-02-2024 16:00:00,17.349694,78.451437,SO2,1,10,4
India,Tripura,Agartala,"Bardowali, Agartala - Tripura SPCB",11-02-2024 16:00:00,23.8175497,91.2726974,PM10,NA,NA,NA
India,Uttar_Pradesh,Agra,"Manoharpur, Agra - UPPCB",11-02-2024 16:00:00,27.23711,78.01936,PM10,NA,NA,NA
India,Uttar_Pradesh,Agra,"Manoharpur, Agra - UPPCB",11-02-2024 16:00:00,27.23711,78.01936,NH3,NA,NA,NA
India,Uttar_Pradesh,Agra,"Manoharpur, Agra - UPPCB",11-02-2024 16:00:00,27.23711,78.01936,SO2,23,25,24
India,Uttar_Pradesh,Agra,"Manoharpur, Agra - UPPCB",11-02-2024 16:00:00,27.23711,78.01936,OZONE,3,29,16
India,Uttar_Pradesh,Agra,"Sanjay Palace, Agra - UPPCB",11-02-2024 16:00:00,27.19865833,78.00598056,CO,20,115,55
India,Uttar_Pradesh,Agra,"Sector-3B Avas Vikas Colony, Agra - UPPCB",11-02-2024 16:00:00,27.19412,77.96237,NH3,3,6,5
India,Uttar_Pradesh,Agra,"Sector-3B Avas Vikas Colony, Agra - UPPCB",11-02-2024 16:00:00,27.19412,77.96237,OZONE,13,16,15
India,Uttar_Pradesh,Agra,"Shahjahan Garden, Agra - UPPCB",11-02-2024 16:00:00,27.169338,78.03582,PM2.5,26,243,120
India,Uttar_Pradesh,Agra,"Shahjahan Garden, Agra - UPPCB",11-02-2024 16:00:00,27.169338,78.03582,SO2,37,46,41
India,Uttar_Pradesh,Agra,"Shahjahan Garden, Agra - UPPCB",11-02-2024 16:00:00,27.169338,78.03582,CO,3,93,25
India,Uttar_Pradesh,Agra,"Shahjahan Garden, Agra - UPPCB",11-02-2024 16:00:00,27.169338,78.03582,OZONE,2,14,14
India,Uttar_Pradesh,Agra,"Shastripuram, Agra - UPPCB",11-02-2024 16:00:00,27.19862,77.92066,PM2.5,46,259,105
India,Uttar_Pradesh,Agra,"Shastripuram, Agra - UPPCB",11-02-2024 16:00:00,27.19862,77.92066,PM10,57,184,112
India,Uttar_Pradesh,Agra,"Shastripuram, Agra - UPPCB",11-02-2024 16:00:00,27.19862,77.92066,NO2,24,66,29
India,Uttar_Pradesh,Agra,"Shastripuram, Agra - UPPCB",11-02-2024 16:00:00,27.19862,77.92066,SO2,18,22,19
India,Uttar_Pradesh,Baghpat,"Sardar Patel Inter College, Baghpat - UPPCB",11-02-2024 16:00:00,28.964949,77.278761,NO2,35,79,55
India,Uttar_Pradesh,Bareilly,"Rajendra Nagar, Bareilly - UPPCB",11-02-2024 16:00:00,28.38910936,79.42963708,PM2.5,37,109,65
India,Uttar_Pradesh,Bareilly,"Rajendra Nagar, Bareilly - UPPCB",11-02-2024 16:00:00,28.38910936,79.42963708,NO2,37,98,63
India,Uttar_Pradesh,Bareilly,"Rajendra Nagar, Bareilly - UPPCB",11-02-2024 16:00:00,28.38910936,79.42963708,OZONE,8,16,12
India,Uttar_Pradesh,Bulandshahr,"Yamunapuram, Bulandshahr - UPPCB",11-02-2024 16:00:00,28.406963,77.849831,PM2.5,65,317,203
India,Uttar_Pradesh,Bulandshahr,"Yamunapuram, Bulandshahr - UPPCB",11-02-2024 16:00:00,28.406963,77.849831,OZONE,2,195,195
India,Uttar_Pradesh,Firozabad,"Nagla Bhau, Firozabad - UPPCB",11-02-2024 16:00:00,27.168897,78.376960,PM10,26,129,70
India,Uttar_Pradesh,Firozabad,"Nagla Bhau, Firozabad - UPPCB",11-02-2024 16:00:00,27.168897,78.376960,OZONE,17,54,31
India,Uttar_Pradesh,Firozabad,"Vibhab Nagar, Firozabad - UPPCB",11-02-2024 16:00:00,27.1594,78.3953,CO,20,44,38
India,Uttar_Pradesh,Ghaziabad,"Loni, Ghaziabad - UPPCB",11-02-2024 16:00:00,28.757294,77.278792,SO2,11,35,18
India,Uttar_Pradesh,Ghaziabad,"Vasundhara, Ghaziabad - UPPCB",11-02-2024 16:00:00,28.6603346,77.3572563,NO2,23,157,87
India,Uttar_Pradesh,Ghaziabad,"Vasundhara, Ghaziabad - UPPCB",11-02-2024 16:00:00,28.6603346,77.3572563,CO,26,100,44
India,Uttar_Pradesh,Greater Noida,"Knowledge Park - III, Greater Noida - UPPCB",11-02-2024 16:00:00,28.47272,77.482000,SO2,10,24,17
India,Uttar_Pradesh,Greater Noida,"Knowledge Park - V, Greater Noida - UPPCB",11-02-2024 16:00:00,28.557054,77.453663,SO2,8,29,15
India,Uttar_Pradesh,Hapur,"Anand Vihar, Hapur - UPPCB",11-02-2024 16:00:00,28.725645,77.749675,NH3,7,18,9
India,Uttar_Pradesh,Hapur,"Anand Vihar, Hapur - UPPCB",11-02-2024 16:00:00,28.725645,77.749675,CO,16,101,45
India,Uttar_Pradesh,Jhansi,"Shivaji Nagar, Jhansi - UPPCB",11-02-2024 16:00:00,25.4547,78.6039,PM10,50,296,98
India,Uttar_Pradesh,Jhansi,"Shivaji Nagar, Jhansi - UPPCB",11-02-2024 16:00:00,25.4547,78.6039,NO2,18,85,42
India,Uttar_Pradesh,Jhansi,"Shivaji Nagar, Jhansi - UPPCB",11-02-2024 16:00:00,25.4547,78.6039,SO2,10,13,11
India,Uttar_Pradesh,Jhansi,"Shivaji Nagar, Jhansi - UPPCB",11-02-2024 16:00:00,25.4547,78.6039,CO,19,94,28
India,Uttar_Pradesh,Kanpur,"FTI Kidwai Nagar, Kanpur - UPPCB",11-02-2024 16:00:00,26.428282,80.327067,SO2,22,28,24
India,Uttar_Pradesh,Kanpur,"FTI Kidwai Nagar, Kanpur - UPPCB",11-02-2024 16:00:00,26.428282,80.327067,OZONE,3,39,13
India,Uttar_Pradesh,Kanpur,"Nehru Nagar, Kanpur - UPPCB",11-02-2024 16:00:00,26.4703136,80.3229863,PM2.5,58,338,197
India,Uttar_Pradesh,Kanpur,"Nehru Nagar, Kanpur - UPPCB",11-02-2024 16:00:00,26.4703136,80.3229863,SO2,4,27,11
India,Uttar_Pradesh,Lucknow,"B R Ambedkar University, Lucknow - UPPCB",11-02-2024 16:00:00,26.766433,80.927299,SO2,36,55,44
India,Uttar_Pradesh,Lucknow,"B R Ambedkar University, Lucknow - UPPCB",11-02-2024 16:00:00,26.766433,80.927299,CO,30,64,41
India,Uttar_Pradesh,Lucknow,"Gomti Nagar, Lucknow - UPPCB",11-02-2024 16:00:00,26.868120,81.005119,SO2,7,30,13
India,Uttar_Pradesh,Lucknow,"Kendriya Vidyalaya, Lucknow - CPCB",11-02-2024 16:00:00,26.906111,80.948222,SO2,2,9,6
India,Uttar_Pradesh,Lucknow,"Lalbagh, Lucknow - CPCB",11-02-2024 16:00:00,26.8458805,80.9365541,PM2.5,72,313,202
India,Uttar_Pradesh,Lucknow,"Lalbagh, Lucknow - CPCB",11-02-2024 16:00:00,26.8458805,80.9365541,CO,31,112,44
India,Uttar_Pradesh,Lucknow,"Talkatora District Industries Center, Lucknow - CPCB",11-02-2024 16:00:00,26.83399722,80.8917361,PM10,118,159,135
India,Uttar_Pradesh,Meerut,"Jai Bhim Nagar, Meerut - UPPCB",11-02-2024 16:00:00,28.9535882,77.7622941,PM2.5,58,325,173
India,Uttar_Pradesh,Meerut,"Pallavpuram Phase 2, Meerut - UPPCB",11-02-2024 16:00:00,29.063510,77.709723,NO2,NA,NA,NA
India,Uttar_Pradesh,Meerut,"Pallavpuram Phase 2, Meerut - UPPCB",11-02-2024 16:00:00,29.063510,77.709723,CO,37,100,50
India,Uttar_Pradesh,Moradabad,"Eco Herbal Park, Moradabad - UPPCB",11-02-2024 16:00:00,28.840739,78.697531,NH3,6,35,10
India,Uttar_Pradesh,Moradabad,"Jigar Colony, Moradabad - UPPCB",11-02-2024 16:00:00,28.856664,78.772638,CO,22,56,45
India,Uttar_Pradesh,Moradabad,"Kashiram Nagar, Moradabad - UPPCB",11-02-2024 16:00:00,28.849399,78.742362,NH3,4,4,4
India,Uttar_Pradesh,Moradabad,"Transport Nagar, Moradabad - UPPCB",11-02-2024 16:00:00,28.802625,78.753728,PM2.5,40,310,135
India,Uttar_Pradesh,Moradabad,"Transport Nagar, Moradabad - UPPCB",11-02-2024 16:00:00,28.802625,78.753728,NH3,6,6,6
India,Uttar_Pradesh,Noida,"Sector - 125, Noida - UPPCB",11-02-2024 16:00:00,28.5447608,77.3231257,NO2,34,222,145
India,Uttar_Pradesh,Noida,"Sector-116, Noida - UPPCB",11-02-2024 16:00:00,28.569230,77.393848,OZONE,1,97,42
India,Uttar_Pradesh,Prayagraj,"Jhunsi, Prayagraj - UPPCB",11-02-2024 16:00:00,25.425602,81.917152,CO,12,105,32
India,Uttar_Pradesh,Prayagraj,"Motilal Nehru NIT, Prayagraj - UPPCB",11-02-2024 16:00:00,25.494,81.863,NO2,10,27,12
India,Uttar_Pradesh,Prayagraj,"Motilal Nehru NIT, Prayagraj - UPPCB",11-02-2024 16:00:00,25.494,81.863,NH3,5,7,6
India,Uttar_Pradesh,Prayagraj,"Motilal Nehru NIT, Prayagraj - UPPCB",11-02-2024 16:00:00,25.494,81.863,OZONE,5,37,19
India,Uttar_Pradesh,Prayagraj,"Nagar Nigam, Prayagraj - UPPCB",11-02-2024 16:00:00,25.44919916 ,81.82735986 ,PM10,62,154,110
India,Uttar_Pradesh,Prayagraj,"Nagar Nigam, Prayagraj - UPPCB",11-02-2024 16:00:00,25.44919916 ,81.82735986 ,NO2,7,7,7
India,Uttar_Pradesh,Varanasi,"Bhelupur, Varanasi - UPPCB",11-02-2024 16:00:00,25.301778,82.996789,SO2,22,24,23
India,Uttar_Pradesh,Varanasi,"IESD Banaras Hindu University, Varanasi - UPPCB",11-02-2024 16:00:00,25.262326,82.995408,NH3,1,3,2
India,Uttar_Pradesh,Varanasi,"Maldahiya, Varanasi - UPPCB",11-02-2024 16:00:00,25.32393,82.99687,PM2.5,47,304,164
India,Uttar_Pradesh,Vrindavan,"Omex Eternity, Vrindavan - UPPCB",11-02-2024 16:00:00,27.5714090,77.6557570,NO2,2,3,3
India,Uttarakhand,Dehradun,"Doon University, Dehradun - UKPCB",11-02-2024 16:00:00,30.269444,78.044167,OZONE,3,5,4
India,Uttarakhand,Kashipur,"Govt. Girls Inter College, Kashipur - UKPCB",11-02-2024 16:00:00,29.2124114,78.9611753,SO2,2,9,7
India,West_Bengal,Asansol,"Asansol Court Area, Asansol - WBPCB",11-02-2024 16:00:00,23.685297,86.945968,NO2,29,87,55
India,West_Bengal,Barrackpore,"SVSPA Campus, Barrackpore - WBPCB",11-02-2024 16:00:00,22.7605581,88.3617589,NH3,2,4,3
India,West_Bengal,Barrackpore,"SVSPA Campus, Barrackpore - WBPCB",11-02-2024 16:00:00,22.7605581,88.3617589,OZONE,8,118,65
India,West_Bengal,Haldia,"Priyambada Housing Estate, Haldia - WBPCB",11-02-2024 16:00:00,22.06047,88.109737,PM2.5,43,120,90
India,West_Bengal,Haldia,"Priyambada Housing Estate, Haldia - WBPCB",11-02-2024 16:00:00,22.06047,88.109737,PM10,84,192,132
India,West_Bengal,Howrah,"Belur Math, Howrah - WBPCB",11-02-2024 16:00:00,22.629801,88.352017,SO2,12,16,14
India,West_Bengal,Howrah,"Ghusuri, Howrah - WBPCB",11-02-2024 16:00:00,22.611968,88.347422,NO2,24,101,44
India,West_Bengal,Howrah,"Ghusuri, Howrah - WBPCB",11-02-2024 16:00:00,22.611968,88.347422,CO,2,59,10
India,West_Bengal,Howrah,"Ghusuri, Howrah - WBPCB",11-02-2024 16:00:00,22.611968,88.347422,OZONE,10,30,23
India,West_Bengal,Kolkata,"Ballygunge, Kolkata - WBPCB",11-02-2024 16:00:00,22.5367507,88.3638022,NO2,45,171,110
India,West_Bengal,Kolkata,"Ballygunge, Kolkata - WBPCB",11-02-2024 16:00:00,22.5367507,88.3638022,SO2,10,44,24
India,West_Bengal,Kolkata,"Ballygunge, Kolkata - WBPCB",11-02-2024 16:00:00,22.5367507,88.3638022,OZONE,4,56,39
India,West_Bengal,Kolkata,"Bidhannagar, Kolkata - WBPCB",11-02-2024 16:00:00,22.58157048,88.41002457,NO2,14,43,30
India,West_Bengal,Kolkata,"Bidhannagar, Kolkata - WBPCB",11-02-2024 16:00:00,22.58157048,88.41002457,OZONE,6,18,11
India,West_Bengal,Kolkata,"Fort William, Kolkata - WBPCB",11-02-2024 16:00:00,22.556640,88.342674,PM10,102,242,171
India,West_Bengal,Kolkata,"Fort William, Kolkata - WBPCB",11-02-2024 16:00:00,22.556640,88.342674,NO2,24,154,87
India,West_Bengal,Kolkata,"Fort William, Kolkata - WBPCB",11-02-2024 16:00:00,22.556640,88.342674,NH3,7,17,11
India,West_Bengal,Kolkata,"Jadavpur, Kolkata - WBPCB",11-02-2024 16:00:00,22.49929,88.36917,PM10,93,200,158
India,West_Bengal,Kolkata,"Jadavpur, Kolkata - WBPCB",11-02-2024 16:00:00,22.49929,88.36917,NO2,3,11,6
India,West_Bengal,Kolkata,"Jadavpur, Kolkata - WBPCB",11-02-2024 16:00:00,22.49929,88.36917,CO,14,89,43
India,West_Bengal,Kolkata,"Rabindra Bharati University, Kolkata - WBPCB",11-02-2024 16:00:00,22.627847,88.380669,NO2,22,24,23
India,West_Bengal,Kolkata,"Rabindra Bharati University, Kolkata - WBPCB",11-02-2024 16:00:00,22.627847,88.380669,OZONE,1,65,47
India,West_Bengal,Kolkata,"Rabindra Sarobar, Kolkata - WBPCB",11-02-2024 16:00:00,22.51106,88.35142,PM2.5,75,257,169
India,West_Bengal,Kolkata,"Rabindra Sarobar, Kolkata - WBPCB",11-02-2024 16:00:00,22.51106,88.35142,PM10,83,153,125
India,West_Bengal,Siliguri,"Ward-32 Bapupara, Siliguri - WBPCB",11-02-2024 16:00:00,26.6879226,88.4152495,SO2,10,14,11
India,West_Bengal,Siliguri,"Ward-32 Bapupara, Siliguri - WBPCB",11-02-2024 16:00:00,26.6879226,88.4152495,OZONE,9,73,48
India,Andhra_Pradesh,Amaravati,"Secretariat, Amaravati - APPCB",11-02-2024 16:00:00,16.5150833,80.5181667,PM10,67,100,85
India,Andhra_Pradesh,Amaravati,"Secretariat, Amaravati - APPCB",11-02-2024 16:00:00,16.5150833,80.5181667,SO2,13,17,15
India,Andhra_Pradesh,Kadapa,"Yerramukkapalli, Kadapa - APPCB",11-02-2024 16:00:00,14.465052,78.824187,CO,5,33,26
India,Andhra_Pradesh,Rajamahendravaram,"Anand Kala Kshetram, Rajamahendravaram - APPCB",11-02-2024 16:00:00,16.9872867,81.7363176,PM2.5,81,167,109
India,Andhra_Pradesh,Rajamahendravaram,"Anand Kala Kshetram, Rajamahendravaram - APPCB",11-02-2024 16:00:00,16.9872867,81.7363176,NO2,12,41,23
India,Andhra_Pradesh,Rajamahendravaram,"Anand Kala Kshetram, Rajamahendravaram - APPCB",11-02-2024 16:00:00,16.9872867,81.7363176,OZONE,19,40,36
India,Andhra_Pradesh,Tirupati,"Tirumala, Tirupati - APPCB",11-02-2024 16:00:00,13.67,79.35,PM10,70,102,81
India,Andhra_Pradesh,Tirupati,"Vaikuntapuram, Tirupati - APPCB",11-02-2024 16:00:00,13.615387,79.409230,SO2,NA,NA,NA
India,Andhra_Pradesh,Vijayawada,"Kanuru, Vijayawada - APPCB",11-02-2024 16:00:00,16.486692,80.699436,PM10,73,95,87
India,Andhra_Pradesh,Vijayawada,"Rajiv Gandhi Park, Vijayawada - APPCB",11-02-2024 16:00:00,16.509717,80.612222,NH3,5,7,6
India,Andhra_Pradesh,Vijayawada,"Rajiv Nagar, Vijayawada - APPCB",11-02-2024 16:00:00,16.554731,80.649110,PM10,43,208,125
India,Andhra_Pradesh,Vijayawada,"Rajiv Nagar, Vijayawada - APPCB",11-02-2024 16:00:00,16.554731,80.649110,CO,23,61,32
India,Andhra_Pradesh,Visakhapatnam,"GVM Corporation, Visakhapatnam - APPCB",11-02-2024 16:00:00,17.72,83.3,NH3,2,5,4
India,Andhra_Pradesh,Visakhapatnam,"GVM Corporation, Visakhapatnam - APPCB",11-02-2024 16:00:00,17.72,83.3,OZONE,9,90,46
India,Assam,Byrnihat,"Central Academy for SFS, Byrnihat - PCBA",11-02-2024 16:00:00,26.071318,91.87488,NO2,43,145,78
India,Assam,Guwahati,"LGBI Airport, Guwahati - PCBA",11-02-2024 16:00:00,26.10887,91.589544,PM2.5,77,467,211
India,Assam,Guwahati,"LGBI Airport, Guwahati - PCBA",11-02-2024 16:00:00,26.10887,91.589544,NH3,1,8,4
India,Assam,Guwahati,"LGBI Airport, Guwahati - PCBA",11-02-2024 16:00:00,26.10887,91.589544,CO,10,100,18
India,Assam,Guwahati,"LGBI Airport, Guwahati - PCBA",11-02-2024 16:00:00,26.10887,91.589544,OZONE,1,92,59
India,Assam,Guwahati,"Pan Bazaar, Guwahati - PCBA",11-02-2024 16:00:00,26.187500,91.744194,PM2.5,55,327,207
India,Assam,Guwahati,"Railway Colony, Guwahati - PCBA",11-02-2024 16:00:00,26.181742,91.78063,PM2.5,55,400,232
India,Assam,Nagaon,"Christianpatty, Nagaon - PCBA",11-02-2024 16:00:00,26.349082,92.68449,NO2,12,27,18
India,Assam,Nagaon,"Christianpatty, Nagaon - PCBA",11-02-2024 16:00:00,26.349082,92.68449,NH3,2,7,3
India,Assam,Nagaon,"Christianpatty, Nagaon - PCBA",11-02-2024 16:00:00,26.349082,92.68449,OZONE,4,98,74
India,Assam,Silchar,"Tarapur, Silchar - PCBA",11-02-2024 16:00:00,24.82827,92.79525,PM2.5,NA,NA,NA
India,Assam,Sivasagar,"Girls College, Sivasagar - PCBA",11-02-2024 16:00:00,26.987634,94.636574,NO2,20,37,25
India,Bihar,Arrah,"New DM Office, Arrah - BSPCB",11-02-2024 16:00:00,25.5626095,84.663264,NH3,NA,NA,NA
India,Bihar,Arrah,"New DM Office, Arrah - BSPCB",11-02-2024 16:00:00,25.5626095,84.663264,CO,NA,NA,NA
India,Bihar,Aurangabad,"Gurdeo Nagar, Aurangabad - BSPCB",11-02-2024 16:00:00,24.75746,84.366208,PM2.5,110,410,218
India,Bihar,Bettiah,"Kamalnath Nagar, Bettiah - BSPCB",11-02-2024 16:00:00,26.80365,84.51954,PM2.5,32,67,49
India,Bihar,Bettiah,"Kamalnath Nagar, Bettiah - BSPCB",11-02-2024 16:00:00,26.80365,84.51954,PM10,47,99,73
India,Bihar,Bhagalpur,"DM Office_Kachari Chowk, Bhagalpur - BSPCB",11-02-2024 16:00:00,25.251013,86.989001,PM10,111,258,169
India,Bihar,Bhagalpur,"DM Office_Kachari Chowk, Bhagalpur - BSPCB",11-02-2024 16:00:00,25.251013,86.989001,NO2,24,79,49
India,Bihar,Bhagalpur,"DM Office_Kachari Chowk, Bhagalpur - BSPCB",11-02-2024 16:00:00,25.251013,86.989001,SO2,1,14,7
India,Bihar,Bihar Sharif,"D M Colony, Bihar Sharif - BSPCB",11-02-2024 16:00:00,25.204762,85.514960,CO,4,57,28
India,Bihar,Buxar,"Charitra Van, Buxar - BSPCB (Formerly known as Central Jail)",11-02-2024 16:00:00,25.567520,83.966379,CO,38,130,55
India,Bihar,Gaya,"Collectorate, Gaya - BSPCB",11-02-2024 16:00:00,24.7955,84.9994,NO2,15,19,17
India,Bihar,Gaya,"Collectorate, Gaya - BSPCB",11-02-2024 16:00:00,24.7955,84.9994,SO2,15,56,24
India,Bihar,Gaya,"Kareemganj, Gaya - BSPCB",11-02-2024 16:00:00,24.792403,84.992416,NO2,30,31,30
India,Bihar,Gaya,"Kareemganj, Gaya - BSPCB",11-02-2024 16:00:00,24.792403,84.992416,OZONE,1,26,8
India,Bihar,Gaya,"SFTI Kusdihra, Gaya - BSPCB",11-02-2024 16:00:00,24.762518,84.982348,PM2.5,50,170,97
India,Bihar,Gaya,"SFTI Kusdihra, Gaya - BSPCB",11-02-2024 16:00:00,24.762518,84.982348,NO2,19,28,24
India,Bihar,Gaya,"SFTI Kusdihra, Gaya - BSPCB",11-02-2024 16:00:00,24.762518,84.982348,SO2,7,9,8
India,Bihar,Hajipur,"Industrial Area, Hajipur - BSPCB",11-02-2024 16:00:00,25.697189,85.245900,SO2,6,9,7
India,Bihar,Katihar,"Mirchaibari, Katihar - BSPCB",11-02-2024 16:00:00,25.560083,87.553265,PM10,99,273,151
India,Bihar,Katihar,"Mirchaibari, Katihar - BSPCB",11-02-2024 16:00:00,25.560083,87.553265,NO2,11,42,21
India,Bihar,Katihar,"Mirchaibari, Katihar - BSPCB",11-02-2024 16:00:00,25.560083,87.553265,NH3,2,4,3
India,Bihar,Kishanganj,"SDM Office_Khagra, Kishanganj - BSPCB",11-02-2024 16:00:00,26.0881305,87.93840336,NO2,37,48,42
India,Bihar,Kishanganj,"SDM Office_Khagra, Kishanganj - BSPCB",11-02-2024 16:00:00,26.0881305,87.93840336,SO2,2,5,4
India,Bihar,Kishanganj,"SDM Office_Khagra, Kishanganj - BSPCB",11-02-2024 16:00:00,26.0881305,87.93840336,CO,4,10,8
India,Bihar,Manguraha,"Forest Rest House, Manguraha - BSPCB",11-02-2024 16:00:00,27.308328,84.531742,NO2,11,18,13
India,Bihar,Manguraha,"Forest Rest House, Manguraha - BSPCB",11-02-2024 16:00:00,27.308328,84.531742,NH3,2,2,2
India,Bihar,Manguraha,"Forest Rest House, Manguraha - BSPCB",11-02-2024 16:00:00,27.308328,84.531742,OZONE,38,91,72
India,Bihar,Motihari,"Gandak Colony, Motihari - BSPCB",11-02-2024 16:00:00,26.63086,84.90051,NO2,35,69,52
India,Bihar,Munger,"Town Hall, Munger - BSPCB",11-02-2024 16:00:00,25.376776,86.471523,PM10,65,260,118
India,Bihar,Munger,"Town Hall, Munger - BSPCB",11-02-2024 16:00:00,25.376776,86.471523,SO2,26,47,35
India,Bihar,Muzaffarpur,"MIT-Daudpur Kothi, Muzaffarpur - BSPCB",11-02-2024 16:00:00,26.1403345,85.3650192,NH3,2,4,2
India,Bihar,Muzaffarpur,"MIT-Daudpur Kothi, Muzaffarpur - BSPCB",11-02-2024 16:00:00,26.1403345,85.3650192,SO2,11,16,16
India,Bihar,Patna,"DRM Office Danapur, Patna - BSPCB",11-02-2024 16:00:00,25.586562,85.043586,NO2,8,104,43
India,Bihar,Patna,"Govt. High School Shikarpur, Patna - BSPCB",11-02-2024 16:00:00,25.592539,85.227158,OZONE,4,42,22
India,Bihar,Patna,"IGSC Planetarium Complex, Patna - BSPCB",11-02-2024 16:00:00,25.610369,85.132568,SO2,7,8,7
India,Bihar,Patna,"Muradpur, Patna - BSPCB",11-02-2024 16:00:00,25.619651,85.147382,CO,54,182,85
India,Bihar,Patna,"Muradpur, Patna - BSPCB",11-02-2024 16:00:00,25.619651,85.147382,OZONE,21,133,101
India,Bihar,Patna,"Samanpura, Patna - BSPCB",11-02-2024 16:00:00,25.596727,85.085624,NO2,26,121,61
India,Bihar,Patna,"Samanpura, Patna - BSPCB",11-02-2024 16:00:00,25.596727,85.085624,CO,32,178,76
India,Bihar,Purnia,"Mariam Nagar, Purnia - BSPCB",11-02-2024 16:00:00,25.366336,87.117468,PM2.5,72,355,217
India,Bihar,Rajgir,"Dangi Tola, Rajgir - BSPCB",11-02-2024 16:00:00,25.03280,85.41948,SO2,4,4,4
India,Bihar,Samastipur,"DM Office_Kasipur, Samastipur - BSPCB",11-02-2024 16:00:00,25.859655,85.77944,NH3,3,5,5
India,Bihar,Samastipur,"DM Office_Kasipur, Samastipur - BSPCB",11-02-2024 16:00:00,25.859655,85.77944,SO2,1,13,10
India,Bihar,Sasaram,"Dada Peer, Sasaram - BSPCB",11-02-2024 16:00:00,24.952822,84.002396,NO2,NA,NA,NA
India,Bihar,Sasaram,"Dada Peer, Sasaram - BSPCB",11-02-2024 16:00:00,24.952822,84.002396,OZONE,4,5,4
India,Chandigarh,Chandigarh,"Sector 22, Chandigarh - CPCC",11-02-2024 16:00:00,30.735567,76.775714,NO2,29,136,62
India,Chandigarh,Chandigarh,"Sector-25, Chandigarh - CPCC",11-02-2024 16:00:00,30.751462,76.762879,OZONE,1,69,35
India,Chandigarh,Chandigarh,"Sector-53, Chandigarh - CPCC",11-02-2024 16:00:00,30.719859,76.738637,PM10,139,346,228
India,Chandigarh,Chandigarh,"Sector-53, Chandigarh - CPCC",11-02-2024 16:00:00,30.719859,76.738637,OZONE,3,66,38
India,Chhattisgarh,Bhilai,"32Bungalows, Bhilai - CECB",11-02-2024 16:00:00,21.194815,81.314770,PM10,77,121,93
India,Chhattisgarh,Bhilai,"Civic Center, Bhilai - Bhilai Steel Plant",11-02-2024 16:00:00,21.185571,81.343175,PM10,68,109,87
India,Chhattisgarh,Bhilai,"Civic Center, Bhilai - Bhilai Steel Plant",11-02-2024 16:00:00,21.185571,81.343175,OZONE,10,83,47
India,Chhattisgarh,Bilaspur,"Mangala, Bilaspur - NTPC",11-02-2024 16:00:00,22.08815,82.13737,SO2,8,32,20
India,Chhattisgarh,Bilaspur,"Mangala, Bilaspur - NTPC",11-02-2024 16:00:00,22.08815,82.13737,CO,30,39,36
India,Chhattisgarh,Chhal,"Nawapara SECL Colony, Chhal - CECB",11-02-2024 16:00:00,22.118125,83.140608,PM2.5,52,109,76
India,Chhattisgarh,Chhal,"Nawapara SECL Colony, Chhal - CECB",11-02-2024 16:00:00,22.118125,83.140608,NO2,15,56,32
India,Chhattisgarh,Chhal,"Nawapara SECL Colony, Chhal - CECB",11-02-2024 16:00:00,22.118125,83.140608,NH3,2,2,2
India,Chhattisgarh,Korba,"Rampur, Korba - CECB",11-02-2024 16:00:00,22.368195,82.746431,PM2.5,28,38,34
India,Chhattisgarh,Korba,"Rampur, Korba - CECB",11-02-2024 16:00:00,22.368195,82.746431,OZONE,NA,NA,NA
India,Chhattisgarh,Korba,"Urja Nagar, Korba - CECB",11-02-2024 16:00:00,22.348441,82.549611,PM2.5,7,24,14
India,Chhattisgarh,Korba,"Urja Nagar, Korba - CECB",11-02-2024 16:00:00,22.348441,82.549611,SO2,6,15,8
India,Chhattisgarh,Kunjemura,"OP Jindal School, Kunjemura - CECB",11-02-2024 16:00:00,22.126650,83.483212,PM2.5,34,73,55
India,Chhattisgarh,Kunjemura,"OP Jindal School, Kunjemura - CECB",11-02-2024 16:00:00,22.126650,83.483212,CO,31,74,49
India,Chhattisgarh,Raipur,"AIIMS, Raipur - CECB",11-02-2024 16:00:00,21.258815,81.578979,NO2,41,63,53
India,Chhattisgarh,Raipur,"Bhatagaon New ISBT, Raipur - CECB",11-02-2024 16:00:00,21.219665,81.630094,NO2,70,100,82
India,Chhattisgarh,Raipur,"Krishak Nagar, Raipur - CECB",11-02-2024 16:00:00,21.237755,81.705301,PM10,54,114,91
India,Chhattisgarh,Raipur,"Krishak Nagar, Raipur - CECB",11-02-2024 16:00:00,21.237755,81.705301,SO2,10,16,12
India,Chhattisgarh,Raipur,"Krishak Nagar, Raipur - CECB",11-02-2024 16:00:00,21.237755,81.705301,CO,22,46,41
India,Chhattisgarh,Raipur,"Krishak Nagar, Raipur - CECB",11-02-2024 16:00:00,21.237755,81.705301,OZONE,3,9,6
India,Chhattisgarh,Tumidih,"OP Jindal Industrial Park, Tumidih - CECB",11-02-2024 16:00:00,22.06631475,83.33820077,PM2.5,NA,NA,NA
India,Chhattisgarh,Tumidih,"OP Jindal Industrial Park, Tumidih - CECB",11-02-2024 16:00:00,22.06631475,83.33820077,OZONE,61,100,85
India,Delhi,Delhi,"Alipur, Delhi - DPCC",11-02-2024 16:00:00,28.815329,77.153010,PM2.5,134,366,281
India,Delhi,Delhi,"Alipur, Delhi - DPCC",11-02-2024 16:00:00,28.815329,77.153010,PM10,110,292,190
India,Delhi,Delhi,"Alipur, Delhi - DPCC",11-02-2024 16:00:00,28.815329,77.153010,NH3,11,16,14
India,Delhi,Delhi,"Alipur, Delhi - DPCC",11-02-2024 16:00:00,28.815329,77.153010,OZONE,3,154,85
India,Delhi,Delhi,"Ashok Vihar, Delhi - DPCC",11-02-2024 16:00:00,28.695381,77.181665,PM2.5,172,387,320
India,Delhi,Delhi,"Ashok Vihar, Delhi - DPCC",11-02-2024 16:00:00,28.695381,77.181665,PM10,147,367,247
India,Delhi,Delhi,"Ashok Vihar, Delhi - DPCC",11-02-2024 16:00:00,28.695381,77.181665,NH3,8,10,9
India,Delhi,Delhi,"Ashok Vihar, Delhi - DPCC",11-02-2024 16:00:00,28.695381,77.181665,SO2,24,42,29
India,Delhi,Delhi,"Aya Nagar, Delhi - IMD",11-02-2024 16:00:00,28.4706914,77.1099364,NO2,33,83,49
India,Delhi,Delhi,"CRRI Mathura Road, Delhi - IMD",11-02-2024 16:00:00,28.5512005,77.2735737,PM2.5,135,360,303
India,Delhi,Delhi,"CRRI Mathura Road, Delhi - IMD",11-02-2024 16:00:00,28.5512005,77.2735737,CO,110,154,120
India,Delhi,Delhi,"DTU, Delhi - CPCB",11-02-2024 16:00:00,28.7500499,77.1112615,NO2,36,64,49
India,Delhi,Delhi,"Dr. Karni Singh Shooting Range, Delhi - DPCC",11-02-2024 16:00:00,28.498571,77.264840,SO2,6,27,11
India,Delhi,Delhi,"Dwarka-Sector 8, Delhi - DPCC ",11-02-2024 16:00:00,28.5710274,77.0719006,NH3,8,13,10
India,Delhi,Delhi,"Dwarka-Sector 8, Delhi - DPCC ",11-02-2024 16:00:00,28.5710274,77.0719006,SO2,5,18,10
India,Delhi,Delhi,"IGI Airport (T3), Delhi - IMD",11-02-2024 16:00:00,28.5627763,77.1180053,NO2,NA,NA,NA
India,Delhi,Delhi,"IHBAS, Dilshad Garden, Delhi - CPCB",11-02-2024 16:00:00,28.6811736,77.3025234,PM10,121,199,160
India,Delhi,Delhi,"ITO, Delhi - CPCB",11-02-2024 16:00:00,28.628624,77.241060,PM10,107,190,140
India,Delhi,Delhi,"Jahangirpuri, Delhi - DPCC",11-02-2024 16:00:00,28.732820,77.170633,PM10,131,473,339
India,Delhi,Delhi,"Jahangirpuri, Delhi - DPCC",11-02-2024 16:00:00,28.732820,77.170633,NH3,11,85,21
India,Delhi,Delhi,"Jahangirpuri, Delhi - DPCC",11-02-2024 16:00:00,28.732820,77.170633,OZONE,6,244,244
India,Delhi,Delhi,"Jawaharlal Nehru Stadium, Delhi - DPCC",11-02-2024 16:00:00,28.580280,77.233829,PM10,151,304,226
India,Delhi,Delhi,"Jawaharlal Nehru Stadium, Delhi - DPCC",11-02-2024 16:00:00,28.580280,77.233829,OZONE,1,226,226
India,Delhi,Delhi,"Lodhi Road, Delhi - IITM",11-02-2024 16:00:00,28.588333,77.221667,PM2.5,90,378,202
India,Delhi,Delhi,"Major Dhyan Chand National Stadium, Delhi - DPCC",11-02-2024 16:00:00,28.611281,77.237738,PM2.5,278,408,347
India,Delhi,Delhi,"Mandir Marg, Delhi - DPCC",11-02-2024 16:00:00,28.636429,77.201067,PM2.5,221,380,327
India,Delhi,Delhi,"Mundka, Delhi - DPCC",11-02-2024 16:00:00,28.684678,77.076574,PM10,128,435,259
India,Delhi,Delhi,"NSIT Dwarka, Delhi - CPCB",11-02-2024 16:00:00,28.60909,77.0325413,NO2,26,65,40
India,Delhi,Delhi,"Najafgarh, Delhi - DPCC",11-02-2024 16:00:00,28.570173,76.933762,CO,6,50,21
India,Delhi,Delhi,"Narela, Delhi - DPCC",11-02-2024 16:00:00,28.822836,77.101981,NO2,19,93,49
India,Delhi,Delhi,"Nehru Nagar, Delhi - DPCC",11-02-2024 16:00:00,28.567890,77.250515,NO2,14,42,28
India,Delhi,Delhi,"Nehru Nagar, Delhi - DPCC",11-02-2024 16:00:00,28.567890,77.250515,NH3,9,23,16
India,Delhi,Delhi,"New Moti Bagh, Delhi - MHUA",11-02-2024 16:00:00,28.57834,77.18400,CO,36,103,69
India,Delhi,Delhi,"North Campus, DU, Delhi - IMD",11-02-2024 16:00:00,28.6573814,77.1585447,OZONE,8,18,12
India,Delhi,Delhi,"Okhla Phase-2, Delhi - DPCC",11-02-2024 16:00:00,28.530785,77.271255,NH3,13,17,15
India,Delhi,Delhi,"Okhla Phase-2, Delhi - DPCC",11-02-2024 16:00:00,28.530785,77.271255,SO2,3,11,8
India,Delhi,Delhi,"Patparganj, Delhi - DPCC",11-02-2024 16:00:00,28.623763,77.287209,SO2,7,13,11
India,Delhi,Delhi,"Punjabi Bagh, Delhi - DPCC",11-02-2024 16:00:00,28.674045,77.131023,PM10,131,326,237
India,Delhi,Delhi,"Pusa, Delhi - IMD",11-02-2024 16:00:00,28.636110,77.173332,PM2.5,120,408,322
India,Delhi,Delhi,"R K Puram, Delhi - DPCC",11-02-2024 16:00:00,28.563262,77.186937,CO,31,122,50
India,Delhi,Delhi,"Rohini, Delhi - DPCC",11-02-2024 16:00:00,28.732528,77.119920,SO2,2,46,15
India,Delhi,Delhi,"Rohini, Delhi - DPCC",11-02-2024 16:00:00,28.732528,77.119920,CO,24,102,45
India,Delhi,Delhi,"Rohini, Delhi - DPCC",11-02-2024 16:00:00,28.732528,77.119920,OZONE,2,137,66
India,Delhi,Delhi,"Shadipur, Delhi - CPCB",11-02-2024 16:00:00,28.6514781,77.1473105,NO2,35,53,43
India,Delhi,Delhi,"Sri Aurobindo Marg, Delhi - DPCC",11-02-2024 16:00:00,28.531346,77.190156,PM10,149,254,201
India,Delhi,Delhi,"Sri Aurobindo Marg, Delhi - DPCC",11-02-2024 16:00:00,28.531346,77.190156,NH3,7,9,8
India,Delhi,Delhi,"Vivek Vihar, Delhi - DPCC",11-02-2024 16:00:00,28.672342,77.315260,NH3,4,9,7
India,Delhi,Delhi,"Vivek Vihar, Delhi - DPCC",11-02-2024 16:00:00,28.672342,77.315260,SO2,24,34,31
India,Delhi,Delhi,"Wazirpur, Delhi - DPCC",11-02-2024 16:00:00,28.699793,77.165453,PM2.5,153,426,353
India,Delhi,Delhi,"Wazirpur, Delhi - DPCC",11-02-2024 16:00:00,28.699793,77.165453,OZONE,4,170,170
India,Gujarat,Ahmedabad,"Gyaspur, Ahmedabad - IITM",11-02-2024 16:00:00,22.977134,72.553024,PM10,86,172,121
India,Gujarat,Ahmedabad,"Gyaspur, Ahmedabad - IITM",11-02-2024 16:00:00,22.977134,72.553024,CO,15,24,20
India,Gujarat,Ahmedabad,"Gyaspur, Ahmedabad - IITM",11-02-2024 16:00:00,22.977134,72.553024,OZONE,26,32,29
India,Gujarat,Ahmedabad,"Maninagar, Ahmedabad - GPCB",11-02-2024 16:00:00,23.002657,72.591912,SO2,17,30,23
India,Gujarat,Ahmedabad,"Maninagar, Ahmedabad - GPCB",11-02-2024 16:00:00,23.002657,72.591912,CO,14,50,25
India,Gujarat,Ahmedabad,"Rakhial, Ahmedabad - IITM",11-02-2024 16:00:00,23.016834,72.625775,OZONE,14,20,16
India,Gujarat,Ahmedabad,"SAC ISRO Bopal, Ahmedabad - IITM",11-02-2024 16:00:00,23.041137,72.456691,SO2,6,11,10
India,Gujarat,Ahmedabad,"SAC ISRO Bopal, Ahmedabad - IITM",11-02-2024 16:00:00,23.041137,72.456691,CO,26,50,39
India,Gujarat,Ahmedabad,"SAC ISRO Satellite, Ahmedabad - IITM",11-02-2024 16:00:00,23.023389,72.515201,NH3,3,3,3
India,Gujarat,Ahmedabad,"Sardar Vallabhbhai Patel Stadium, Ahmedabad - IITM",11-02-2024 16:00:00,23.043070,72.562968,PM10,63,110,83
India,Gujarat,Ankleshwar,"GIDC, Ankleshwar - GPCB",11-02-2024 16:00:00,21.613267,73.010555,PM10,59,100,80
India,Gujarat,Gandhinagar,"IIPHG Lekawada, Gandhinagar - IITM",11-02-2024 16:00:00,23.243639,72.68994,PM2.5,74,148,134
India,Gujarat,Gandhinagar,"Sector-10, Gandhinagar - GPCB",11-02-2024 16:00:00,23.221714,72.654328,SO2,9,12,10
India,Gujarat,Vapi,"Phase-1 GIDC, Vapi - GPCB",11-02-2024 16:00:00,20.362421,72.918013,PM10,112,416,181
India,Haryana,Ambala,"Patti Mehar, Ambala - HSPCB",11-02-2024 16:00:00,30.379589,76.778328,PM2.5,70,152,96
India,Haryana,Ambala,"Patti Mehar, Ambala - HSPCB",11-02-2024 16:00:00,30.379589,76.778328,SO2,3,12,7
India,Haryana,Ambala,"Patti Mehar, Ambala - HSPCB",11-02-2024 16:00:00,30.379589,76.778328,CO,30,60,48
India,Haryana,Ballabgarh,"Nathu Colony, Ballabgarh - HSPCB",11-02-2024 16:00:00,28.3419248,77.319699,CO,10,123,29
India,Haryana,Bhiwani,"H.B. Colony, Bhiwani - HSPCB",11-02-2024 16:00:00,28.806223,76.141105,PM10,88,141,114
India,Haryana,Bhiwani,"H.B. Colony, Bhiwani - HSPCB",11-02-2024 16:00:00,28.806223,76.141105,SO2,5,15,10
India,Haryana,Charkhi Dadri,"Mini Secretariat, Charkhi Dadri - HSPCB",11-02-2024 16:00:00,28.593883,76.270653,CO,22,64,34
India,Haryana,Dharuhera,"Municipal Corporation Office, Dharuhera -  HSPCB",11-02-2024 16:00:00,28.206800,76.799700,NH3,9,26,19
India,Haryana,Dharuhera,"Municipal Corporation Office, Dharuhera -  HSPCB",11-02-2024 16:00:00,28.206800,76.799700,CO,18,58,41
India,Haryana,Dharuhera,"Municipal Corporation Office, Dharuhera -  HSPCB",11-02-2024 16:00:00,28.206800,76.799700,OZONE,14,102,62
India,Haryana,Faridabad,"New Industrial Town, Faridabad - HSPCB",11-02-2024 16:00:00,28.39072,77.30059,PM10,142,500,281
India,Haryana,Faridabad,"New Industrial Town, Faridabad - HSPCB",11-02-2024 16:00:00,28.39072,77.30059,NO2,8,19,12
India,Haryana,Faridabad,"Sector 30, Faridabad - HSPCB",11-02-2024 16:00:00,28.4417,77.3217,NO2,30,32,31
India,Haryana,Faridabad,"Sector- 16A, Faridabad - HSPCB",11-02-2024 16:00:00,28.4088421,77.3099081,CO,3,110,12
India,Haryana,Fatehabad,"Huda Sector, Fatehabad - HSPCB",11-02-2024 16:00:00,29.503664,75.467934,PM2.5,70,348,158
India,Haryana,Gurugram,"Sector-51, Gurugram - HSPCB",11-02-2024 16:00:00,28.4227,77.0667,NH3,7,14,9
India,Haryana,Gurugram,"Sector-51, Gurugram - HSPCB",11-02-2024 16:00:00,28.4227,77.0667,OZONE,27,67,56
India,Haryana,Gurugram,"Teri Gram, Gurugram - HSPCB",11-02-2024 16:00:00,28.4275,77.1465,NO2,NA,NA,NA
India,Haryana,Hisar,"Urban Estate-II, Hisar - HSPCB",11-02-2024 16:00:00,29.140560,75.744941,CO,40,57,41
India,Haryana,Karnal,"Sector-12, Karnal - HSPCB",11-02-2024 16:00:00,29.695300,77.002700,PM10,77,121,110
India,Haryana,Karnal,"Sector-12, Karnal - HSPCB",11-02-2024 16:00:00,29.695300,77.002700,NH3,10,13,11
India,Haryana,Karnal,"Sector-12, Karnal - HSPCB",11-02-2024 16:00:00,29.695300,77.002700,CO,1,55,39
India,Haryana,Karnal,"Sector-12, Karnal - HSPCB",11-02-2024 16:00:00,29.695300,77.002700,OZONE,29,34,31
India,Haryana,Kurukshetra,"Sector-7, Kurukshetra - HSPCB",11-02-2024 16:00:00,29.966942,76.875879,PM10,119,170,147
India,Haryana,Kurukshetra,"Sector-7, Kurukshetra - HSPCB",11-02-2024 16:00:00,29.966942,76.875879,NO2,10,11,10
India,Haryana,Mandikhera,"General Hospital, Mandikhera - HSPCB",11-02-2024 16:00:00,27.9002,76.9938,SO2,30,39,34
India,Haryana,Mandikhera,"General Hospital, Mandikhera - HSPCB",11-02-2024 16:00:00,27.9002,76.9938,CO,16,54,44
India,Haryana,Mandikhera,"General Hospital, Mandikhera - HSPCB",11-02-2024 16:00:00,27.9002,76.9938,OZONE,22,33,26
India,Haryana,Narnaul,"Shastri Nagar, Narnaul - HSPCB",11-02-2024 16:00:00,28.060249,76.113115,PM2.5,21,145,73
India,Haryana,Narnaul,"Shastri Nagar, Narnaul - HSPCB",11-02-2024 16:00:00,28.060249,76.113115,NO2,16,58,34
India,Haryana,Narnaul,"Shastri Nagar, Narnaul - HSPCB",11-02-2024 16:00:00,28.060249,76.113115,SO2,13,58,22
India,Haryana,Sirsa,"F-Block, Sirsa - HSPCB",11-02-2024 16:00:00,29.536400,75.015800,PM2.5,25,98,69
India,Haryana,Sirsa,"F-Block, Sirsa - HSPCB",11-02-2024 16:00:00,29.536400,75.015800,NO2,10,10,10
India,Haryana,Sirsa,"F-Block, Sirsa - HSPCB",11-02-2024 16:00:00,29.536400,75.015800,NH3,12,13,13
India,Haryana,Sonipat,"Murthal, Sonipat - HSPCB",11-02-2024 16:00:00,29.027200,77.062100,PM2.5,130,303,225
India,Haryana,Sonipat,"Murthal, Sonipat - HSPCB",11-02-2024 16:00:00,29.027200,77.062100,PM10,102,145,124
India,Haryana,Sonipat,"Murthal, Sonipat - HSPCB",11-02-2024 16:00:00,29.027200,77.062100,NO2,37,44,40
India,Haryana,Sonipat,"Murthal, Sonipat - HSPCB",11-02-2024 16:00:00,29.027200,77.062100,NH3,7,10,9
India,Haryana,Sonipat,"Murthal, Sonipat - HSPCB",11-02-2024 16:00:00,29.027200,77.062100,CO,25,36,28
India,Haryana,Yamuna Nagar,"Gobind Pura, Yamuna Nagar - HSPCB",11-02-2024 16:00:00,30.1480566,77.2893471,PM2.5,124,303,172
India,Haryana,Yamuna Nagar,"Gobind Pura, Yamuna Nagar - HSPCB",11-02-2024 16:00:00,30.1480566,77.2893471,SO2,1,14,6
India,Himachal Pradesh,Baddi,"HIMUDA Complex Phase-1, Baddi - HPPCB",11-02-2024 16:00:00,30.943887,76.801991,OZONE,16,135,77
India,Jharkhand,Dhanbad,"Kalakusuma, Dhanbad - DMC",11-02-2024 16:00:00,23.811548,86.481238,SO2,35,36,35
India,Jharkhand,Pathardih,"Mohalbani Ghat, Pathardih - DMC",11-02-2024 16:00:00,23.669880,86.411725,PM2.5,20,214,86
India,Jharkhand,Pathardih,"Mohalbani Ghat, Pathardih - DMC",11-02-2024 16:00:00,23.669880,86.411725,OZONE,13,30,21
India,Karnataka,Belgaum,"Ramteerth Nagar, Belgaum - KSPCB",11-02-2024 16:00:00,15.888653,74.541751,PM2.5,40,88,63
India,Karnataka,Belgaum,"Ramteerth Nagar, Belgaum - KSPCB",11-02-2024 16:00:00,15.888653,74.541751,NO2,23,30,26
India,Karnataka,Belgaum,"Ramteerth Nagar, Belgaum - KSPCB",11-02-2024 16:00:00,15.888653,74.541751,SO2,8,9,8
India,Karnataka,Bengaluru,"BTM Layout, Bengaluru - CPCB",11-02-2024 16:00:00,12.9135218,77.5950804,PM2.5,NA,NA,NA
India,Karnataka,Bengaluru,"BTM Layout, Bengaluru - CPCB",11-02-2024 16:00:00,12.9135218,77.5950804,NH3,NA,NA,NA
India,Karnataka,Bengaluru,"Bapuji Nagar, Bengaluru - KSPCB",11-02-2024 16:00:00,12.951913,77.539784,NH3,1,1,1
India,Karnataka,Bengaluru,"Hebbal, Bengaluru - KSPCB",11-02-2024 16:00:00,13.029152,77.585901,NO2,5,5,5
India,Karnataka,Bengaluru,"Hebbal, Bengaluru - KSPCB",11-02-2024 16:00:00,13.029152,77.585901,NH3,1,1,1
India,Karnataka,Bengaluru,"Hombegowda Nagar, Bengaluru - KSPCB",11-02-2024 16:00:00,12.938539,77.590100,PM2.5,47,89,59
India,Karnataka,Bengaluru,"Hombegowda Nagar, Bengaluru - KSPCB",11-02-2024 16:00:00,12.938539,77.590100,OZONE,4,5,4
India,Karnataka,Bengaluru,"Jayanagar 5th Block, Bengaluru - KSPCB",11-02-2024 16:00:00,12.920984,77.584908,PM2.5,54,85,69
India,Karnataka,Bengaluru,"Jayanagar 5th Block, Bengaluru - KSPCB",11-02-2024 16:00:00,12.920984,77.584908,PM10,78,115,97
India,Karnataka,Bengaluru,"Jayanagar 5th Block, Bengaluru - KSPCB",11-02-2024 16:00:00,12.920984,77.584908,SO2,10,31,19
India,Karnataka,Bengaluru,"Jigani, Bengaluru - KSPCB",11-02-2024 16:00:00,12.7816279,77.6299145,PM2.5,NA,NA,NA
India,Karnataka,Bengaluru,"Jigani, Bengaluru - KSPCB",11-02-2024 16:00:00,12.7816279,77.6299145,PM10,NA,NA,NA
India,Karnataka,Bengaluru,"Jigani, Bengaluru - KSPCB",11-02-2024 16:00:00,12.7816279,77.6299145,NO2,29,30,29
India,Karnataka,Bengaluru,"Kasturi Nagar, Bengaluru - KSPCB",11-02-2024 16:00:00,13.003872,77.664217,NO2,16,17,17
India,Karnataka,Bengaluru,"Kasturi Nagar, Bengaluru - KSPCB",11-02-2024 16:00:00,13.003872,77.664217,CO,21,26,23
India,Karnataka,Bengaluru,"Peenya, Bengaluru - CPCB",11-02-2024 16:00:00,13.0270199,77.494094,PM10,118,137,127
India,Karnataka,Bengaluru,"Peenya, Bengaluru - CPCB",11-02-2024 16:00:00,13.0270199,77.494094,NO2,18,24,22
India,Karnataka,Bengaluru,"Peenya, Bengaluru - CPCB",11-02-2024 16:00:00,13.0270199,77.494094,CO,31,46,39
India,Karnataka,Bengaluru,"Silk Board, Bengaluru - KSPCB",11-02-2024 16:00:00,12.917348,77.622813,PM2.5,50,78,63
India,Karnataka,Bidar,"Naubad, Bidar - KSPCB",11-02-2024 16:00:00,17.930306,77.482194,OZONE,8,40,26
India,Karnataka,Chikkaballapur,"Chikkaballapur Rural, Chikkaballapur - KSPCB",11-02-2024 16:00:00,13.428828,77.731418,PM10,50,100,84
India,Karnataka,Chikkaballapur,"Chikkaballapur Rural, Chikkaballapur - KSPCB",11-02-2024 16:00:00,13.428828,77.731418,SO2,16,26,21
India,Karnataka,Dharwad,"Kalabhavan, Dharwad - KSPCB",11-02-2024 16:00:00,15.459706,75.008381,PM2.5,60,93,74
India,Karnataka,Dharwad,"Kalabhavan, Dharwad - KSPCB",11-02-2024 16:00:00,15.459706,75.008381,NH3,3,3,3
India,Karnataka,Dharwad,"Kalabhavan, Dharwad - KSPCB",11-02-2024 16:00:00,15.459706,75.008381,CO,44,114,74
India,Karnataka,Gadag,"Panchal Nagar, Gadag - KSPCB",11-02-2024 16:00:00,15.411456,75.638133,PM2.5,35,59,44
India,Karnataka,Gadag,"Panchal Nagar, Gadag - KSPCB",11-02-2024 16:00:00,15.411456,75.638133,NH3,2,3,2
India,Karnataka,Hassan,"B.Katihalli, Hassan - KSPCB",11-02-2024 16:00:00,13.008556,76.125258,SO2,NA,NA,NA
India,Karnataka,Hassan,"B.Katihalli, Hassan - KSPCB",11-02-2024 16:00:00,13.008556,76.125258,CO,NA,NA,NA
India,Karnataka,Hassan,"B.Katihalli, Hassan - KSPCB",11-02-2024 16:00:00,13.008556,76.125258,OZONE,NA,NA,NA
India,Karnataka,Haveri,"Ashwini Nagar, Haveri - KSPCB",11-02-2024 16:00:00,14.791800,75.389600,CO,32,36,33
India,Karnataka,Hubballi,"Lingaraj Nagar, Hubballi - KSPCB",11-02-2024 16:00:00,15.3714823,75.1160168,PM2.5,9,79,43
India,Karnataka,Hubballi,"Lingaraj Nagar, Hubballi - KSPCB",11-02-2024 16:00:00,15.3714823,75.1160168,NO2,18,18,18
India,Karnataka,Hubballi,"Lingaraj Nagar, Hubballi - KSPCB",11-02-2024 16:00:00,15.3714823,75.1160168,NH3,2,2,2
India,Karnataka,Kalaburagi,"Lal Bahadur Shastri Nagar, Kalaburagi - KSPCB",11-02-2024 16:00:00,17.321993,76.822628,PM10,6,44,21
India,Karnataka,Kalaburagi,"Mahatma Basaveswar Colony, Kalaburgi - KSPCB",11-02-2024 16:00:00,17.336318,76.847397,PM2.5,20,48,31
India,Karnataka,Kalaburagi,"Mahatma Basaveswar Colony, Kalaburgi - KSPCB",11-02-2024 16:00:00,17.336318,76.847397,NH3,2,4,3
India,Karnataka,Kalaburagi,"Mahatma Basaveswar Colony, Kalaburgi - KSPCB",11-02-2024 16:00:00,17.336318,76.847397,SO2,4,11,6
India,Karnataka,Karwar,"KHB Colony, Karwar - KSPCB",11-02-2024 16:00:00,14.816666,74.141003,OZONE,21,22,21
India,Karnataka,Kolar,"Tamaka Ind. Area, Kolar - KSPCB",11-02-2024 16:00:00,13.1276288,78.1570122,PM10,75,171,107
India,Karnataka,Kolar,"Tamaka Ind. Area, Kolar - KSPCB",11-02-2024 16:00:00,13.1276288,78.1570122,NO2,3,17,7
India,Karnataka,Madikeri,"Stuart Hill, Madikeri - KSPCB",11-02-2024 16:00:00,12.415911,75.735050,OZONE,28,43,35
India,Karnataka,Mangalore,"Kadri, Mangalore - KSPCB",11-02-2024 16:00:00,12.889250,74.853000,PM10,25,74,64
India,Karnataka,Mangalore,"Kadri, Mangalore - KSPCB",11-02-2024 16:00:00,12.889250,74.853000,NO2,3,9,7
