country,state,city,station,last_update,latitude,longitude,pollutant_id,pollutant_min,pollutant_max,pollutant_avg
India,Andhra_Pradesh,Anantapur,"Gulzarpet, Anantapur - APPCB",11-02-2024 02:00:00,14.675886,77.593027,SO2,4,11,7
India,Andhra_Pradesh,Chittoor,"Gangineni Cheruvu, Chittoor - APPCB",11-02-2024 02:00:00,13.204880,79.097889,CO,46,62,51
India,Andhra_Pradesh,Rajamahendravaram,"Anand Kala Kshetram, Rajamahendravaram - APPCB",11-02-2024 02:00:00,16.9872867,81.7363176,PM2.5,81,168,100
India,Andhra_Pradesh,Rajamahendravaram,"Anand Kala Kshetram, Rajamahendravaram - APPCB",11-02-2024 02:00:00,16.9872867,81.7363176,PM10,91,132,106
India,Andhra_Pradesh,Rajamahendravaram,"Anand Kala Kshetram, Rajamahendravaram - APPCB",11-02-2024 02:00:00,16.9872867,81.7363176,NO2,9,41,21
India,Andhra_Pradesh,Rajamahendravaram,"Anand Kala Kshetram, Rajamahendravaram - APPCB",11-02-2024 02:00:00,16.9872867,81.7363176,SO2,9,79,15
India,Andhra_Pradesh,Rajamahendravaram,"Anand Kala Kshetram, Rajamahendravaram - APPCB",11-02-2024 02:00:00,16.9872867,81.7363176,OZONE,5,31,27
India,Andhra_Pradesh,Tirupati,"Vaikuntapuram, Tirupati - APPCB",11-02-2024 02:00:00,13.615387,79.409230,PM10,17,146,46
India,Andhra_Pradesh,Tirupati,"Vaikuntapuram, Tirupati - APPCB",11-02-2024 02:00:00,13.615387,79.409230,NO2,17,23,20
India,Andhra_Pradesh,Tirupati,"Vaikuntapuram, Tirupati - APPCB",11-02-2024 02:00:00,13.615387,79.409230,NH3,2,3,3
India,Andhra_Pradesh,Vijayawada,"Kanuru, Vijayawada - APPCB",11-02-2024 02:00:00,16.486692,80.699436,OZONE,25,25,25
India,Andhra_Pradesh,Vijayawada,"Rajiv Gandhi Park, Vijayawada - APPCB",11-02-2024 02:00:00,16.509717,80.612222,CO,34,34,34
India,Andhra_Pradesh,Vijayawada,"Rajiv Nagar, Vijayawada - APPCB",11-02-2024 02:00:00,16.554731,80.649110,PM2.5,28,318,104
India,Andhra_Pradesh,Vijayawada,"Rajiv Nagar, Vijayawada - APPCB",11-02-2024 02:00:00,16.554731,80.649110,PM10,26,199,87
India,Andhra_Pradesh,Visakhapatnam,"GVM Corporation, Visakhapatnam - APPCB",11-02-2024 02:00:00,17.72,83.3,PM2.5,59,107,84
India,Andhra_Pradesh,Visakhapatnam,"GVM Corporation, Visakhapatnam - APPCB",11-02-2024 02:00:00,17.72,83.3,PM10,97,120,108
India,Arunachal_Pradesh,Naharlagun,"Naharlagun, Naharlagun - APSPCB",11-02-2024 02:00:00,27.103358,93.679645,PM2.5,15,322,88
India,Arunachal_Pradesh,Naharlagun,"Naharlagun, Naharlagun - APSPCB",11-02-2024 02:00:00,27.103358,93.679645,OZONE,2,2,2
India,Assam,Byrnihat,"Central Academy for SFS, Byrnihat - PCBA",11-02-2024 02:00:00,26.071318,91.87488,SO2,10,12,11
India,Assam,Guwahati,"IITG, Guwahati - PCBA",11-02-2024 02:00:00,26.2028636,91.70046436,NO2,1,15,7
India,Assam,Guwahati,"IITG, Guwahati - PCBA",11-02-2024 02:00:00,26.2028636,91.70046436,NH3,5,5,5
India,Assam,Guwahati,"LGBI Airport, Guwahati - PCBA",11-02-2024 02:00:00,26.10887,91.589544,PM2.5,73,467,210
India,Assam,Guwahati,"LGBI Airport, Guwahati - PCBA",11-02-2024 02:00:00,26.10887,91.589544,NH3,1,11,4
India,Assam,Guwahati,"LGBI Airport, Guwahati - PCBA",11-02-2024 02:00:00,26.10887,91.589544,OZONE,1,78,4
India,Assam,Guwahati,"Pan Bazaar, Guwahati - PCBA",11-02-2024 02:00:00,26.187500,91.744194,PM10,76,350,149
India,Assam,Guwahati,"Pan Bazaar, Guwahati - PCBA",11-02-2024 02:00:00,26.187500,91.744194,CO,22,112,83
India,Assam,Guwahati,"Railway Colony, Guwahati - PCBA",11-02-2024 02:00:00,26.181742,91.78063,PM10,57,402,188
India,Assam,Guwahati,"Railway Colony, Guwahati - PCBA",11-02-2024 02:00:00,26.181742,91.78063,CO,18,116,93
India,Assam,Guwahati,"Railway Colony, Guwahati - PCBA",11-02-2024 02:00:00,26.181742,91.78063,OZONE,6,44,26
India,Assam,Nagaon,"Christianpatty, Nagaon - PCBA",11-02-2024 02:00:00,26.349082,92.68449,PM2.5,85,500,242
India,Assam,Nagaon,"Christianpatty, Nagaon - PCBA",11-02-2024 02:00:00,26.349082,92.68449,PM10,73,461,161
India,Assam,Nagaon,"Christianpatty, Nagaon - PCBA",11-02-2024 02:00:00,26.349082,92.68449,SO2,NA,NA,NA
India,Assam,Nalbari,"Bata Chowk, Nalbari - PCBA",11-02-2024 02:00:00,26.446912,91.439057,NO2,8,57,29
India,Assam,Silchar,"Tarapur, Silchar - PCBA",11-02-2024 02:00:00,24.82827,92.79525,PM10,42,47,44
India,Assam,Sivasagar,"Girls College, Sivasagar - PCBA",11-02-2024 02:00:00,26.987634,94.636574,PM2.5,16,47,32
India,Assam,Sivasagar,"Girls College, Sivasagar - PCBA",11-02-2024 02:00:00,26.987634,94.636574,OZONE,NA,NA,NA
India,Bihar,Arrah,"New DM Office, Arrah - BSPCB",11-02-2024 02:00:00,25.5626095,84.663264,NH3,4,8,5
India,Bihar,Aurangabad,"Gurdeo Nagar, Aurangabad - BSPCB",11-02-2024 02:00:00,24.75746,84.366208,PM2.5,103,410,207
India,Bihar,Bhagalpur,"DM Office_Kachari Chowk, Bhagalpur - BSPCB",11-02-2024 02:00:00,25.251013,86.989001,PM10,138,193,161
India,Bihar,Bhagalpur,"Mayaganj, Bhagalpur - BSPCB",11-02-2024 02:00:00,25.265194,87.012947,NO2,6,17,8
India,Bihar,Bhagalpur,"Mayaganj, Bhagalpur - BSPCB",11-02-2024 02:00:00,25.265194,87.012947,NH3,9,10,9
India,Bihar,Buxar,"Charitra Van, Buxar - BSPCB (Formerly known as Central Jail)",11-02-2024 02:00:00,25.567520,83.966379,NH3,NA,NA,NA
India,Bihar,Buxar,"Charitra Van, Buxar - BSPCB (Formerly known as Central Jail)",11-02-2024 02:00:00,25.567520,83.966379,CO,50,130,106
India,Bihar,Buxar,"Charitra Van, Buxar - BSPCB (Formerly known as Central Jail)",11-02-2024 02:00:00,25.567520,83.966379,OZONE,4,147,42
India,Bihar,Chhapra,"Darshan Nagar, Chhapra - BSPCB",11-02-2024 02:00:00,25.7808257,84.7446768,PM2.5,93,404,258
India,Bihar,Chhapra,"Darshan Nagar, Chhapra - BSPCB",11-02-2024 02:00:00,25.7808257,84.7446768,SO2,NA,NA,NA
India,Bihar,Gaya,"Collectorate, Gaya - BSPCB",11-02-2024 02:00:00,24.7955,84.9994,CO,31,48,40
India,Bihar,Gaya,"Kareemganj, Gaya - BSPCB",11-02-2024 02:00:00,24.792403,84.992416,PM10,56,276,154
India,Bihar,Gaya,"Kareemganj, Gaya - BSPCB",11-02-2024 02:00:00,24.792403,84.992416,OZONE,1,28,17
India,Bihar,Hajipur,"Industrial Area, Hajipur - BSPCB",11-02-2024 02:00:00,25.697189,85.245900,PM2.5,73,354,186
India,Bihar,Hajipur,"Industrial Area, Hajipur - BSPCB",11-02-2024 02:00:00,25.697189,85.245900,SO2,6,9,7
India,Bihar,Katihar,"Mirchaibari, Katihar - BSPCB",11-02-2024 02:00:00,25.560083,87.553265,PM10,113,273,166
India,Bihar,Katihar,"Mirchaibari, Katihar - BSPCB",11-02-2024 02:00:00,25.560083,87.553265,NH3,2,4,3
India,Bihar,Katihar,"Mirchaibari, Katihar - BSPCB",11-02-2024 02:00:00,25.560083,87.553265,OZONE,15,21,19
India,Bihar,Kishanganj,"SDM Office_Khagra, Kishanganj - BSPCB",11-02-2024 02:00:00,26.0881305,87.93840336,PM10,131,366,211
India,Bihar,Kishanganj,"SDM Office_Khagra, Kishanganj - BSPCB",11-02-2024 02:00:00,26.0881305,87.93840336,NH3,15,17,16
India,Bihar,Kishanganj,"SDM Office_Khagra, Kishanganj - BSPCB",11-02-2024 02:00:00,26.0881305,87.93840336,CO,4,10,7
India,Bihar,Manguraha,"Forest Rest House, Manguraha - BSPCB",11-02-2024 02:00:00,27.308328,84.531742,CO,2,9,6
India,Bihar,Motihari,"Gandak Colony, Motihari - BSPCB",11-02-2024 02:00:00,26.63086,84.90051,PM2.5,75,323,217
India,Bihar,Motihari,"Gandak Colony, Motihari - BSPCB",11-02-2024 02:00:00,26.63086,84.90051,NH3,6,11,8
India,Bihar,Muzaffarpur,"Buddha Colony, Muzaffarpur - BSPCB",11-02-2024 02:00:00,26.11442,85.39813,CO,26,102,75
India,Bihar,Muzaffarpur,"Buddha Colony, Muzaffarpur - BSPCB",11-02-2024 02:00:00,26.11442,85.39813,OZONE,61,122,76
India,Bihar,Muzaffarpur,"Muzaffarpur Collectorate, Muzaffarpur - BSPCB",11-02-2024 02:00:00,26.1209,85.3647,SO2,5,13,10
India,Bihar,Muzaffarpur,"Muzaffarpur Collectorate, Muzaffarpur - BSPCB",11-02-2024 02:00:00,26.1209,85.3647,OZONE,15,120,27
India,Bihar,Patna,"DRM Office Danapur, Patna - BSPCB",11-02-2024 02:00:00,25.586562,85.043586,NH3,3,4,3
India,Bihar,Patna,"DRM Office Danapur, Patna - BSPCB",11-02-2024 02:00:00,25.586562,85.043586,OZONE,1,78,6
India,Bihar,Patna,"Govt. High School Shikarpur, Patna - BSPCB",11-02-2024 02:00:00,25.592539,85.227158,NO2,12,40,27
India,Bihar,Patna,"Govt. High School Shikarpur, Patna - BSPCB",11-02-2024 02:00:00,25.592539,85.227158,OZONE,5,43,10
India,Bihar,Patna,"IGSC Planetarium Complex, Patna - BSPCB",11-02-2024 02:00:00,25.610369,85.132568,OZONE,4,26,16
India,Bihar,Patna,"Muradpur, Patna - BSPCB",11-02-2024 02:00:00,25.619651,85.147382,SO2,9,28,15
India,Bihar,Patna,"Samanpura, Patna - BSPCB",11-02-2024 02:00:00,25.596727,85.085624,SO2,15,18,16
India,Bihar,Purnia,"Mariam Nagar, Purnia - BSPCB",11-02-2024 02:00:00,25.366336,87.117468,NO2,11,14,13
India,Bihar,Rajgir,"Dangi Tola, Rajgir - BSPCB",11-02-2024 02:00:00,25.03280,85.41948,OZONE,21,24,22
India,Bihar,Samastipur,"DM Office_Kasipur, Samastipur - BSPCB",11-02-2024 02:00:00,25.859655,85.77944,PM2.5,67,260,179
India,Bihar,Samastipur,"DM Office_Kasipur, Samastipur - BSPCB",11-02-2024 02:00:00,25.859655,85.77944,PM10,101,167,129
India,Bihar,Samastipur,"DM Office_Kasipur, Samastipur - BSPCB",11-02-2024 02:00:00,25.859655,85.77944,NO2,2,9,5
India,Bihar,Samastipur,"DM Office_Kasipur, Samastipur - BSPCB",11-02-2024 02:00:00,25.859655,85.77944,OZONE,9,47,22
India,Bihar,Sasaram,"Dada Peer, Sasaram - BSPCB",11-02-2024 02:00:00,24.952822,84.002396,NO2,NA,NA,NA
India,Bihar,Sasaram,"Dada Peer, Sasaram - BSPCB",11-02-2024 02:00:00,24.952822,84.002396,CO,NA,NA,NA
India,Chandigarh,Chandigarh,"Sector 22, Chandigarh - CPCC",11-02-2024 02:00:00,30.735567,76.775714,PM10,129,415,195
India,Chandigarh,Chandigarh,"Sector-53, Chandigarh - CPCC",11-02-2024 02:00:00,30.719859,76.738637,PM10,127,346,193
India,Chandigarh,Chandigarh,"Sector-53, Chandigarh - CPCC",11-02-2024 02:00:00,30.719859,76.738637,OZONE,3,86,13
India,Chhattisgarh,Bhilai,"32Bungalows, Bhilai - CECB",11-02-2024 02:00:00,21.194815,81.314770,PM10,56,121,86
India,Chhattisgarh,Bhilai,"32Bungalows, Bhilai - CECB",11-02-2024 02:00:00,21.194815,81.314770,OZONE,4,8,5
India,Chhattisgarh,Bhilai,"Civic Center, Bhilai - Bhilai Steel Plant",11-02-2024 02:00:00,21.185571,81.343175,NO2,NA,NA,NA
India,Chhattisgarh,Bhilai,"Hathkhoj, Bhilai - CECB",11-02-2024 02:00:00,21.224231,81.408350,SO2,12,106,37
India,Chhattisgarh,Bilaspur,"Mangala, Bilaspur - NTPC",11-02-2024 02:00:00,22.08815,82.13737,PM2.5,27,129,62
India,Chhattisgarh,Bilaspur,"Mangala, Bilaspur - NTPC",11-02-2024 02:00:00,22.08815,82.13737,SO2,2,32,14
India,Chhattisgarh,Chhal,"Nawapara SECL Colony, Chhal - CECB",11-02-2024 02:00:00,22.118125,83.140608,OZONE,1,66,15
India,Chhattisgarh,Korba,"Rampur, Korba - CECB",11-02-2024 02:00:00,22.368195,82.746431,CO,14,33,30
India,Chhattisgarh,Korba,"Urja Nagar, Korba - CECB",11-02-2024 02:00:00,22.348441,82.549611,PM10,9,188,65
India,Chhattisgarh,Kunjemura,"OP Jindal School, Kunjemura - CECB",11-02-2024 02:00:00,22.126650,83.483212,NO2,31,121,71
India,Chhattisgarh,Kunjemura,"OP Jindal School, Kunjemura - CECB",11-02-2024 02:00:00,22.126650,83.483212,NH3,1,5,2
India,Chhattisgarh,Milupara,"Govt. Higher Secondary School, Milupara - CECB",11-02-2024 02:00:00,22.1910172,83.5197009,NO2,15,47,27
India,Chhattisgarh,Milupara,"Govt. Higher Secondary School, Milupara - CECB",11-02-2024 02:00:00,22.1910172,83.5197009,SO2,9,62,22
India,Chhattisgarh,Milupara,"Govt. Higher Secondary School, Milupara - CECB",11-02-2024 02:00:00,22.1910172,83.5197009,CO,22,50,35
India,Chhattisgarh,Raipur,"AIIMS, Raipur - CECB",11-02-2024 02:00:00,21.258815,81.578979,PM2.5,45,99,68
India,Chhattisgarh,Raipur,"Bhatagaon New ISBT, Raipur - CECB",11-02-2024 02:00:00,21.219665,81.630094,OZONE,3,10,4
India,Chhattisgarh,Raipur,"Krishak Nagar, Raipur - CECB",11-02-2024 02:00:00,21.237755,81.705301,NO2,22,43,34
India,Chhattisgarh,Raipur,"Krishak Nagar, Raipur - CECB",11-02-2024 02:00:00,21.237755,81.705301,OZONE,3,16,4
India,Chhattisgarh,Raipur,"Siltara Phase-II, Raipur - CECB",11-02-2024 02:00:00,21.371751,81.664929,PM10,38,146,102
India,Chhattisgarh,Raipur,"Siltara Phase-II, Raipur - CECB",11-02-2024 02:00:00,21.371751,81.664929,NO2,51,65,58
India,Delhi,Delhi,"Alipur, Delhi - DPCC",11-02-2024 02:00:00,28.815329,77.153010,PM10,110,292,186
India,Delhi,Delhi,"Alipur, Delhi - DPCC",11-02-2024 02:00:00,28.815329,77.153010,SO2,6,12,9
India,Delhi,Delhi,"Alipur, Delhi - DPCC",11-02-2024 02:00:00,28.815329,77.153010,OZONE,4,158,30
India,Delhi,Delhi,"Anand Vihar, Delhi - DPCC",11-02-2024 02:00:00,28.647622,77.3158090,PM2.5,154,454,359
India,Delhi,Delhi,"Anand Vihar, Delhi - DPCC",11-02-2024 02:00:00,28.647622,77.3158090,PM10,161,462,354
India,Delhi,Delhi,"Anand Vihar, Delhi - DPCC",11-02-2024 02:00:00,28.647622,77.3158090,NH3,7,13,10
India,Delhi,Delhi,"Anand Vihar, Delhi - DPCC",11-02-2024 02:00:00,28.647622,77.3158090,OZONE,18,146,18
India,Delhi,Delhi,"Bawana, Delhi - DPCC",11-02-2024 02:00:00,28.776200,77.051074,CO,35,96,61
India,Delhi,Delhi,"CRRI Mathura Road, Delhi - IMD",11-02-2024 02:00:00,28.5512005,77.2735737,CO,135,181,151
India,Delhi,Delhi,"DTU, Delhi - CPCB",11-02-2024 02:00:00,28.7500499,77.1112615,NH3,12,38,22
India,Delhi,Delhi,"DTU, Delhi - CPCB",11-02-2024 02:00:00,28.7500499,77.1112615,SO2,27,28,28
India,Delhi,Delhi,"Dr. Karni Singh Shooting Range, Delhi - DPCC",11-02-2024 02:00:00,28.498571,77.264840,NH3,6,11,9
India,Delhi,Delhi,"ITO, Delhi - CPCB",11-02-2024 02:00:00,28.628624,77.241060,NO2,13,303,99
India,Delhi,Delhi,"ITO, Delhi - CPCB",11-02-2024 02:00:00,28.628624,77.241060,SO2,9,31,21
India,Delhi,Delhi,"ITO, Delhi - CPCB",11-02-2024 02:00:00,28.628624,77.241060,CO,30,128,90
India,Delhi,Delhi,"Jahangirpuri, Delhi - DPCC",11-02-2024 02:00:00,28.732820,77.170633,OZONE,5,192,23
India,Delhi,Delhi,"Jawaharlal Nehru Stadium, Delhi - DPCC",11-02-2024 02:00:00,28.580280,77.233829,CO,43,126,94
India,Delhi,Delhi,"Major Dhyan Chand National Stadium, Delhi - DPCC",11-02-2024 02:00:00,28.611281,77.237738,PM2.5,278,430,353
India,Delhi,Delhi,"Major Dhyan Chand National Stadium, Delhi - DPCC",11-02-2024 02:00:00,28.611281,77.237738,PM10,169,331,229
India,Delhi,Delhi,"Major Dhyan Chand National Stadium, Delhi - DPCC",11-02-2024 02:00:00,28.611281,77.237738,OZONE,1,275,15
India,Delhi,Delhi,"Mundka, Delhi - DPCC",11-02-2024 02:00:00,28.684678,77.076574,OZONE,1,7,2
India,Delhi,Delhi,"Najafgarh, Delhi - DPCC",11-02-2024 02:00:00,28.570173,76.933762,SO2,7,16,12
India,Delhi,Delhi,"Najafgarh, Delhi - DPCC",11-02-2024 02:00:00,28.570173,76.933762,OZONE,3,216,54
India,Delhi,Delhi,"Narela, Delhi - DPCC",11-02-2024 02:00:00,28.822836,77.101981,SO2,5,11,8
India,Delhi,Delhi,"Nehru Nagar, Delhi - DPCC",11-02-2024 02:00:00,28.567890,77.250515,PM10,200,422,307
India,Delhi,Delhi,"North Campus, DU, Delhi - IMD",11-02-2024 02:00:00,28.6573814,77.1585447,PM2.5,246,384,325
India,Delhi,Delhi,"North Campus, DU, Delhi - IMD",11-02-2024 02:00:00,28.6573814,77.1585447,CO,14,52,32
India,Delhi,Delhi,"Okhla Phase-2, Delhi - DPCC",11-02-2024 02:00:00,28.530785,77.271255,NH3,9,16,13
India,Delhi,Delhi,"Okhla Phase-2, Delhi - DPCC",11-02-2024 02:00:00,28.530785,77.271255,OZONE,10,190,21
India,Delhi,Delhi,"Patparganj, Delhi - DPCC",11-02-2024 02:00:00,28.623763,77.287209,PM2.5,198,428,353
India,Delhi,Delhi,"Patparganj, Delhi - DPCC",11-02-2024 02:00:00,28.623763,77.287209,NH3,8,14,11
India,Delhi,Delhi,"Patparganj, Delhi - DPCC",11-02-2024 02:00:00,28.623763,77.287209,OZONE,1,111,10
India,Delhi,Delhi,"Punjabi Bagh, Delhi - DPCC",11-02-2024 02:00:00,28.674045,77.131023,SO2,3,3,3
India,Delhi,Delhi,"Punjabi Bagh, Delhi - DPCC",11-02-2024 02:00:00,28.674045,77.131023,OZONE,6,38,10
India,Delhi,Delhi,"Pusa, Delhi - DPCC",11-02-2024 02:00:00,28.639652,77.146275,PM2.5,297,425,351
India,Delhi,Delhi,"Pusa, Delhi - DPCC",11-02-2024 02:00:00,28.639652,77.146275,PM10,194,488,315
India,Delhi,Delhi,"Pusa, Delhi - IMD",11-02-2024 02:00:00,28.636110,77.173332,PM2.5,120,426,329
India,Delhi,Delhi,"Pusa, Delhi - IMD",11-02-2024 02:00:00,28.636110,77.173332,PM10,104,230,179
India,Delhi,Delhi,"Pusa, Delhi - IMD",11-02-2024 02:00:00,28.636110,77.173332,CO,79,110,93
India,Delhi,Delhi,"Pusa, Delhi - IMD",11-02-2024 02:00:00,28.636110,77.173332,OZONE,12,30,15
India,Delhi,Delhi,"R K Puram, Delhi - DPCC",11-02-2024 02:00:00,28.563262,77.186937,SO2,5,52,29
India,Delhi,Delhi,"R K Puram, Delhi - DPCC",11-02-2024 02:00:00,28.563262,77.186937,OZONE,8,220,23
India,Delhi,Delhi,"Rohini, Delhi - DPCC",11-02-2024 02:00:00,28.732528,77.119920,PM2.5,225,480,377
India,Delhi,Delhi,"Rohini, Delhi - DPCC",11-02-2024 02:00:00,28.732528,77.119920,PM10,136,439,305
India,Delhi,Delhi,"Sirifort, Delhi - CPCB",11-02-2024 02:00:00,28.5504249,77.2159377,OZONE,9,36,16
India,Delhi,Delhi,"Vivek Vihar, Delhi - DPCC",11-02-2024 02:00:00,28.672342,77.315260,CO,13,104,74
India,Delhi,Delhi,"Wazirpur, Delhi - DPCC",11-02-2024 02:00:00,28.699793,77.165453,PM10,161,478,343
India,Delhi,Delhi,"Wazirpur, Delhi - DPCC",11-02-2024 02:00:00,28.699793,77.165453,CO,6,124,76
India,Gujarat,Ahmedabad,"Chandkheda, Ahmedabad - IITM",11-02-2024 02:00:00,23.107969,72.574648,SO2,3,18,11
India,Gujarat,Ahmedabad,"Gyaspur, Ahmedabad - IITM",11-02-2024 02:00:00,22.977134,72.553024,NO2,NA,NA,NA
India,Gujarat,Ahmedabad,"Gyaspur, Ahmedabad - IITM",11-02-2024 02:00:00,22.977134,72.553024,OZONE,5,29,27
India,Gujarat,Ahmedabad,"Maninagar, Ahmedabad - GPCB",11-02-2024 02:00:00,23.002657,72.591912,CO,14,50,28
India,Gujarat,Ahmedabad,"Raikhad, Ahmedabad - IITM",11-02-2024 02:00:00,23.020509,72.579261,PM2.5,54,306,159
India,Gujarat,Ahmedabad,"Raikhad, Ahmedabad - IITM",11-02-2024 02:00:00,23.020509,72.579261,PM10,53,158,110
India,Gujarat,Ahmedabad,"Raikhad, Ahmedabad - IITM",11-02-2024 02:00:00,23.020509,72.579261,NO2,16,40,23
India,Gujarat,Ahmedabad,"Raikhad, Ahmedabad - IITM",11-02-2024 02:00:00,23.020509,72.579261,NH3,1,2,2
India,Gujarat,Ahmedabad,"Rakhial, Ahmedabad - IITM",11-02-2024 02:00:00,23.016834,72.625775,PM2.5,59,165,95
India,Gujarat,Ahmedabad,"Rakhial, Ahmedabad - IITM",11-02-2024 02:00:00,23.016834,72.625775,NO2,62,80,69
India,Gujarat,Ahmedabad,"Rakhial, Ahmedabad - IITM",11-02-2024 02:00:00,23.016834,72.625775,SO2,2,6,4
India,Gujarat,Ahmedabad,"Rakhial, Ahmedabad - IITM",11-02-2024 02:00:00,23.016834,72.625775,OZONE,10,20,17
India,Gujarat,Ahmedabad,"SAC ISRO Bopal, Ahmedabad - IITM",11-02-2024 02:00:00,23.041137,72.456691,CO,12,28,27
India,Gujarat,Ahmedabad,"SAC ISRO Satellite, Ahmedabad - IITM",11-02-2024 02:00:00,23.023389,72.515201,NH3,3,3,3
India,Gujarat,Ahmedabad,"SVPI Airport Hansol, Ahmedabad - IITM",11-02-2024 02:00:00,23.076793,72.627874,PM10,46,271,99
India,Gujarat,Ahmedabad,"SVPI Airport Hansol, Ahmedabad - IITM",11-02-2024 02:00:00,23.076793,72.627874,NO2,NA,NA,NA
India,Gujarat,Ahmedabad,"SVPI Airport Hansol, Ahmedabad - IITM",11-02-2024 02:00:00,23.076793,72.627874,OZONE,11,32,16
India,Gujarat,Ahmedabad,"Sardar Vallabhbhai Patel Stadium, Ahmedabad - IITM",11-02-2024 02:00:00,23.043070,72.562968,PM2.5,59,109,76
India,Gujarat,Gandhinagar,"GIFT City, Gandhinagar - IITM",11-02-2024 02:00:00,23.163798,72.677768,OZONE,14,20,17
India,Gujarat,Gandhinagar,"Sector-10, Gandhinagar - GPCB",11-02-2024 02:00:00,23.221714,72.654328,NO2,5,14,9
India,Gujarat,Gandhinagar,"Sector-10, Gandhinagar - GPCB",11-02-2024 02:00:00,23.221714,72.654328,NH3,2,2,2
India,Gujarat,Surat,"Science Center, Surat - SMC",11-02-2024 02:00:00,21.170046,72.795405,NO2,7,39,21
India,Gujarat,Surat,"Science Center, Surat - SMC",11-02-2024 02:00:00,21.170046,72.795405,SO2,17,28,21
India,Gujarat,Vapi,"Phase-1 GIDC, Vapi - GPCB",11-02-2024 02:00:00,20.362421,72.918013,PM10,112,401,163
India,Gujarat,Vapi,"Phase-1 GIDC, Vapi - GPCB",11-02-2024 02:00:00,20.362421,72.918013,NH3,15,19,17
India,Gujarat,Vapi,"Phase-1 GIDC, Vapi - GPCB",11-02-2024 02:00:00,20.362421,72.918013,OZONE,33,47,42
India,Gujarat,Vatva,"Phase-4 GIDC, Vatva - GPCB",11-02-2024 02:00:00,22.969611,72.643500,CO,48,50,49
India,Haryana,Ambala,"Patti Mehar, Ambala - HSPCB",11-02-2024 02:00:00,30.379589,76.778328,PM10,57,104,82
India,Haryana,Ambala,"Patti Mehar, Ambala - HSPCB",11-02-2024 02:00:00,30.379589,76.778328,OZONE,20,36,26
India,Haryana,Bahadurgarh,"Arya Nagar, Bahadurgarh - HSPCB",11-02-2024 02:00:00,28.6701,76.9254,PM2.5,93,340,256
India,Haryana,Ballabgarh,"Nathu Colony, Ballabgarh - HSPCB",11-02-2024 02:00:00,28.3419248,77.319699,PM10,143,412,262
India,Haryana,Ballabgarh,"Nathu Colony, Ballabgarh - HSPCB",11-02-2024 02:00:00,28.3419248,77.319699,NO2,7,13,12
India,Haryana,Bhiwani,"H.B. Colony, Bhiwani - HSPCB",11-02-2024 02:00:00,28.806223,76.141105,NO2,7,10,9
India,Haryana,Bhiwani,"H.B. Colony, Bhiwani - HSPCB",11-02-2024 02:00:00,28.806223,76.141105,CO,7,50,21
India,Haryana,Charkhi Dadri,"Mini Secretariat, Charkhi Dadri - HSPCB",11-02-2024 02:00:00,28.593883,76.270653,PM2.5,90,300,160
India,Haryana,Charkhi Dadri,"Mini Secretariat, Charkhi Dadri - HSPCB",11-02-2024 02:00:00,28.593883,76.270653,NH3,5,7,6
India,Haryana,Charkhi Dadri,"Mini Secretariat, Charkhi Dadri - HSPCB",11-02-2024 02:00:00,28.593883,76.270653,SO2,6,15,10
India,Haryana,Charkhi Dadri,"Mini Secretariat, Charkhi Dadri - HSPCB",11-02-2024 02:00:00,28.593883,76.270653,OZONE,13,17,15
India,Haryana,Dharuhera,"Municipal Corporation Office, Dharuhera -  HSPCB",11-02-2024 02:00:00,28.206800,76.799700,NH3,9,26,19
India,Haryana,Dharuhera,"Municipal Corporation Office, Dharuhera -  HSPCB",11-02-2024 02:00:00,28.206800,76.799700,CO,14,81,44
India,Haryana,Faridabad,"Sector 11, Faridabad - HSPCB",11-02-2024 02:00:00,28.376058,77.315741,NH3,6,6,6
India,Haryana,Faridabad,"Sector 11, Faridabad - HSPCB",11-02-2024 02:00:00,28.376058,77.315741,CO,44,88,59
India,Haryana,Faridabad,"Sector 11, Faridabad - HSPCB",11-02-2024 02:00:00,28.376058,77.315741,OZONE,3,11,9
India,Haryana,Fatehabad,"Huda Sector, Fatehabad - HSPCB",11-02-2024 02:00:00,29.503664,75.467934,NH3,8,9,9
India,Haryana,Fatehabad,"Huda Sector, Fatehabad - HSPCB",11-02-2024 02:00:00,29.503664,75.467934,CO,5,12,8
India,Haryana,Gurugram,"Sector-51, Gurugram - HSPCB",11-02-2024 02:00:00,28.4227,77.0667,CO,47,152,83
India,Haryana,Gurugram,"Teri Gram, Gurugram - HSPCB",11-02-2024 02:00:00,28.4275,77.1465,PM10,155,431,290
India,Haryana,Gurugram,"Teri Gram, Gurugram - HSPCB",11-02-2024 02:00:00,28.4275,77.1465,CO,36,62,38
India,Haryana,Gurugram,"Vikas Sadan, Gurugram - HSPCB",11-02-2024 02:00:00,28.4501238,77.0263051,PM2.5,135,321,266
India,Haryana,Gurugram,"Vikas Sadan, Gurugram - HSPCB",11-02-2024 02:00:00,28.4501238,77.0263051,NO2,5,26,14
India,Haryana,Gurugram,"Vikas Sadan, Gurugram - HSPCB",11-02-2024 02:00:00,28.4501238,77.0263051,SO2,22,32,26
India,Haryana,Gurugram,"Vikas Sadan, Gurugram - HSPCB",11-02-2024 02:00:00,28.4501238,77.0263051,CO,54,138,102
India,Haryana,Hisar,"Urban Estate-II, Hisar - HSPCB",11-02-2024 02:00:00,29.140560,75.744941,PM10,52,128,99
India,Haryana,Jind,"Police Lines, Jind - HSPCB",11-02-2024 02:00:00,29.307814,76.337619,OZONE,1,23,14
India,Haryana,Kaithal,"Rishi Nagar, Kaithal - HSPCB",11-02-2024 02:00:00,29.8006,76.4155,SO2,4,18,11
India,Haryana,Kaithal,"Rishi Nagar, Kaithal - HSPCB",11-02-2024 02:00:00,29.8006,76.4155,CO,8,41,30
India,Haryana,Kaithal,"Rishi Nagar, Kaithal - HSPCB",11-02-2024 02:00:00,29.8006,76.4155,OZONE,2,13,8
India,Haryana,Karnal,"Sector-12, Karnal - HSPCB",11-02-2024 02:00:00,29.695300,77.002700,NO2,7,12,10
India,Haryana,Kurukshetra,"Sector-7, Kurukshetra - HSPCB",11-02-2024 02:00:00,29.966942,76.875879,SO2,2,63,23
India,Haryana,Mandikhera,"General Hospital, Mandikhera - HSPCB",11-02-2024 02:00:00,27.9002,76.9938,NO2,17,23,19
India,Haryana,Manesar,"Sector-2 IMT, Manesar - HSPCB",11-02-2024 02:00:00,28.360699,76.936090,PM2.5,117,403,273
India,Haryana,Manesar,"Sector-2 IMT, Manesar - HSPCB",11-02-2024 02:00:00,28.360699,76.936090,CO,24,103,50
India,Haryana,Narnaul,"Shastri Nagar, Narnaul - HSPCB",11-02-2024 02:00:00,28.060249,76.113115,PM10,25,318,80
India,Haryana,Narnaul,"Shastri Nagar, Narnaul - HSPCB",11-02-2024 02:00:00,28.060249,76.113115,OZONE,3,74,53
India,Haryana,Palwal,"Shyam Nagar, Palwal - HSPCB",11-02-2024 02:00:00,28.1485564,77.3320667,NH3,NA,NA,NA
India,Haryana,Panipat,"Sector-18, Panipat - HSPCB",11-02-2024 02:00:00,29.497973,76.993331,NO2,NA,NA,NA
India,Haryana,Panipat,"Sector-18, Panipat - HSPCB",11-02-2024 02:00:00,29.497973,76.993331,OZONE,NA,NA,NA
India,Haryana,Rohtak,"MD University, Rohtak - HSPCB",11-02-2024 02:00:00,28.52123,76.37138,OZONE,42,56,49
India,Haryana,Sirsa,"F-Block, Sirsa - HSPCB",11-02-2024 02:00:00,29.536400,75.015800,NH3,12,13,13
India,Haryana,Sonipat,"Murthal, Sonipat - HSPCB",11-02-2024 02:00:00,29.027200,77.062100,OZONE,16,36,21
India,Haryana,Yamuna Nagar,"Gobind Pura, Yamuna Nagar - HSPCB",11-02-2024 02:00:00,30.1480566,77.2893471,OZONE,6,24,14
India,Himachal Pradesh,Baddi,"HIMUDA Complex Phase-1, Baddi - HPPCB",11-02-2024 02:00:00,30.943887,76.801991,OZONE,16,140,55
India,Jharkhand,Dhanbad,"Sardar Patel Nagar, Dhanbad - JSPCB",11-02-2024 02:00:00,23.80569,86.44268,NO2,2,102,47
India,Karnataka,Bengaluru,"Bapuji Nagar, Bengaluru - KSPCB",11-02-2024 02:00:00,12.951913,77.539784,NH3,1,1,1
India,Karnataka,Bengaluru,"Bapuji Nagar, Bengaluru - KSPCB",11-02-2024 02:00:00,12.951913,77.539784,OZONE,10,12,11
India,Karnataka,Bengaluru,"City Railway Station, Bengaluru - KSPCB",11-02-2024 02:00:00,12.9756843,77.5660749,SO2,13,13,13
India,Karnataka,Bengaluru,"Hebbal, Bengaluru - KSPCB",11-02-2024 02:00:00,13.029152,77.585901,NO2,5,5,5
India,Karnataka,Bengaluru,"Hombegowda Nagar, Bengaluru - KSPCB",11-02-2024 02:00:00,12.938539,77.590100,PM10,64,122,83
India,Karnataka,Bengaluru,"Hombegowda Nagar, Bengaluru - KSPCB",11-02-2024 02:00:00,12.938539,77.590100,SO2,3,4,4
India,Karnataka,Bengaluru,"Jayanagar 5th Block, Bengaluru - KSPCB",11-02-2024 02:00:00,12.920984,77.584908,PM2.5,48,500,102
India,Karnataka,Bengaluru,"Jayanagar 5th Block, Bengaluru - KSPCB",11-02-2024 02:00:00,12.920984,77.584908,SO2,15,31,24
India,Karnataka,Bengaluru,"Jayanagar 5th Block, Bengaluru - KSPCB",11-02-2024 02:00:00,12.920984,77.584908,CO,1,38,27
India,Karnataka,Bengaluru,"Jigani, Bengaluru - KSPCB",11-02-2024 02:00:00,12.7816279,77.6299145,NH3,3,3,3
India,Karnataka,Bengaluru,"Kasturi Nagar, Bengaluru - KSPCB",11-02-2024 02:00:00,13.003872,77.664217,PM2.5,78,136,96
India,Karnataka,Bengaluru,"Peenya, Bengaluru - CPCB",11-02-2024 02:00:00,13.0270199,77.494094,OZONE,49,87,65
India,Karnataka,Bengaluru,"Shivapura_Peenya, Bengaluru - KSPCB",11-02-2024 02:00:00,13.0246342,77.5080115,PM10,68,101,79
India,Karnataka,Bengaluru,"Shivapura_Peenya, Bengaluru - KSPCB",11-02-2024 02:00:00,13.0246342,77.5080115,NO2,15,16,15
India,Karnataka,Bengaluru,"Silk Board, Bengaluru - KSPCB",11-02-2024 02:00:00,12.917348,77.622813,PM2.5,52,73,61
India,Karnataka,Bengaluru,"Silk Board, Bengaluru - KSPCB",11-02-2024 02:00:00,12.917348,77.622813,NO2,20,26,23
India,Karnataka,Bidar,"Naubad, Bidar - KSPCB",11-02-2024 02:00:00,17.930306,77.482194,PM2.5,68,140,95
India,Karnataka,Bidar,"Naubad, Bidar - KSPCB",11-02-2024 02:00:00,17.930306,77.482194,SO2,15,17,16
India,Karnataka,Bidar,"Naubad, Bidar - KSPCB",11-02-2024 02:00:00,17.930306,77.482194,CO,58,80,69
India,Karnataka,Chikkamagaluru,"Kalyana Nagara, Chikkamagaluru - KSPCB",11-02-2024 02:00:00,13.328028,75.797056,SO2,1,4,2
India,Karnataka,Chikkamagaluru,"Kalyana Nagara, Chikkamagaluru - KSPCB",11-02-2024 02:00:00,13.328028,75.797056,CO,11,107,26
India,Karnataka,Chikkamagaluru,"Kalyana Nagara, Chikkamagaluru - KSPCB",11-02-2024 02:00:00,13.328028,75.797056,OZONE,15,71,29
India,Karnataka,Davanagere,"Devaraj Urs Badavane, Davanagere - KSPCB",11-02-2024 02:00:00,14.475800,75.905200,PM2.5,30,121,62
India,Karnataka,Davanagere,"Devaraj Urs Badavane, Davanagere - KSPCB",11-02-2024 02:00:00,14.475800,75.905200,NH3,1,11,1
India,Karnataka,Davanagere,"Devaraj Urs Badavane, Davanagere - KSPCB",11-02-2024 02:00:00,14.475800,75.905200,OZONE,1,35,26
India,Karnataka,Dharwad,"Kalabhavan, Dharwad - KSPCB",11-02-2024 02:00:00,15.459706,75.008381,PM2.5,60,89,73
India,Karnataka,Dharwad,"Kalabhavan, Dharwad - KSPCB",11-02-2024 02:00:00,15.459706,75.008381,NH3,3,3,3
India,Karnataka,Gadag,"Panchal Nagar, Gadag - KSPCB",11-02-2024 02:00:00,15.411456,75.638133,NO2,4,20,14
India,Karnataka,Hassan,"B.Katihalli, Hassan - KSPCB",11-02-2024 02:00:00,13.008556,76.125258,PM10,NA,NA,NA
India,Karnataka,Hassan,"B.Katihalli, Hassan - KSPCB",11-02-2024 02:00:00,13.008556,76.125258,NO2,NA,NA,NA
India,Karnataka,Hassan,"B.Katihalli, Hassan - KSPCB",11-02-2024 02:00:00,13.008556,76.125258,SO2,NA,NA,NA
India,Karnataka,Hubballi,"Lingaraj Nagar, Hubballi - KSPCB",11-02-2024 02:00:00,15.3714823,75.1160168,PM10,53,79,65
India,Karnataka,Hubballi,"Lingaraj Nagar, Hubballi - KSPCB",11-02-2024 02:00:00,15.3714823,75.1160168,NH3,2,2,2
India,Karnataka,Hubballi,"Lingaraj Nagar, Hubballi - KSPCB",11-02-2024 02:00:00,15.3714823,75.1160168,CO,38,108,91
India,Karnataka,Kalaburagi,"Lal Bahadur Shastri Nagar, Kalaburagi - KSPCB",11-02-2024 02:00:00,17.321993,76.822628,OZONE,3,40,16
India,Karnataka,Kalaburagi,"Mahatma Basaveswar Colony, Kalaburgi - KSPCB",11-02-2024 02:00:00,17.336318,76.847397,NH3,3,4,3
India,Karnataka,Kolar,"Tamaka Ind. Area, Kolar - KSPCB",11-02-2024 02:00:00,13.1276288,78.1570122,PM10,95,171,115
India,Karnataka,Kolar,"Tamaka Ind. Area, Kolar - KSPCB",11-02-2024 02:00:00,13.1276288,78.1570122,OZONE,14,19,14
India,Karnataka,Madikeri,"Stuart Hill, Madikeri - KSPCB",11-02-2024 02:00:00,12.415911,75.735050,PM10,30,60,47
India,Karnataka,Mangalore,"Kadri, Mangalore - KSPCB",11-02-2024 02:00:00,12.889250,74.853000,PM10,57,74,66
India,Karnataka,Raichur,"Haji Colony, Raichur - KSPCB",11-02-2024 02:00:00,16.208139,77.348417,PM2.5,13,88,34
India,Karnataka,Raichur,"Haji Colony, Raichur - KSPCB",11-02-2024 02:00:00,16.208139,77.348417,NH3,1,4,2
India,Karnataka,Ramanagara,"Vijay Nagar, Ramanagara - KSPCB",11-02-2024 02:00:00,12.733409,77.298051,PM10,34,59,46
India,Karnataka,Ramanagara,"Vijay Nagar, Ramanagara - KSPCB",11-02-2024 02:00:00,12.733409,77.298051,NH3,1,1,1
India,Karnataka,Ramanagara,"Vijay Nagar, Ramanagara - KSPCB",11-02-2024 02:00:00,12.733409,77.298051,CO,9,19,14
India,Karnataka,Shivamogga,"Vinoba Nagara, Shivamogga - KSPCB",11-02-2024 02:00:00,13.940000,75.555917,NO2,9,17,13
India,Karnataka,Tumakuru,"Thimmalapura, Tumakuru - KSPCB",11-02-2024 02:00:00,13.377516,77.099072,OZONE,15,55,37
India,Karnataka,Udupi,"Brahmagiri, Udupi - KSPCB",11-02-2024 02:00:00,13.34194444,74.74694444,PM10,44,73,60
India,Karnataka,Udupi,"Brahmagiri, Udupi - KSPCB",11-02-2024 02:00:00,13.34194444,74.74694444,SO2,22,26,24
India,Karnataka,Vijayapura,"Ibrahimpur, Vijayapura - KSPCB",11-02-2024 02:00:00,16.802639,75.722694,PM10,38,40,39
India,Karnataka,Yadgir,"Collector Office, Yadgir - KSPCB",11-02-2024 02:00:00,16.7602,77.1428,NH3,NA,NA,NA
India,Karnataka,Yadgir,"Collector Office, Yadgir - KSPCB",11-02-2024 02:00:00,16.7602,77.1428,SO2,2,18,9
India,Kerala,Kannur,"Thavakkara, Kannur - Kerala PCB",11-02-2024 02:00:00,11.875000,75.373200,PM2.5,43,50,47
India,Kerala,Kannur,"Thavakkara, Kannur - Kerala PCB",11-02-2024 02:00:00,11.875000,75.373200,OZONE,31,36,31
India,Kerala,Kochi,"Vyttila, Kochi - Kerala PCB",11-02-2024 02:00:00,9.969447,76.321186,NH3,2,3,3
India,Kerala,Kochi,"Vyttila, Kochi - Kerala PCB",11-02-2024 02:00:00,9.969447,76.321186,CO,62,64,63
India,Kerala,Kollam,"Polayathode, Kollam - Kerala PCB",11-02-2024 02:00:00,8.8787,76.6073,PM10,51,120,81
India,Kerala,Thiruvananthapuram,"Kariavattom, Thiruvananthapuram - Kerala PCB",11-02-2024 02:00:00,8.563700,76.886500,SO2,5,13,9
India,Kerala,Thiruvananthapuram,"Kariavattom, Thiruvananthapuram - Kerala PCB",11-02-2024 02:00:00,8.563700,76.886500,OZONE,26,31,28
India,Kerala,Thiruvananthapuram,"Plammoodu, Thiruvananthapuram - Kerala PCB",11-02-2024 02:00:00,8.5149093,76.9435879,PM2.5,22,73,44
India,Kerala,Thiruvananthapuram,"Plammoodu, Thiruvananthapuram - Kerala PCB",11-02-2024 02:00:00,8.5149093,76.9435879,NH3,2,2,2
India,Madhya Pradesh,Bhopal,"Idgah Hills, Bhopal - MPPCB",11-02-2024 02:00:00,23.264759,77.381568,OZONE,53,105,64
India,Madhya Pradesh,Bhopal,"Paryavaran Parisar, Bhopal - MPPCB",11-02-2024 02:00:00,23.210494,77.425409,PM2.5,42,130,68
India,Madhya Pradesh,Bhopal,"Paryavaran Parisar, Bhopal - MPPCB",11-02-2024 02:00:00,23.210494,77.425409,PM10,76,121,93
India,Madhya Pradesh,Bhopal,"Paryavaran Parisar, Bhopal - MPPCB",11-02-2024 02:00:00,23.210494,77.425409,NO2,22,64,36
India,Madhya Pradesh,Bhopal,"T T Nagar, Bhopal - MPPCB",11-02-2024 02:00:00,23.233584,77.400574,PM2.5,47,86,65
India,Madhya Pradesh,Dewas,"Bhopal Chauraha, Dewas - MPPCB",11-02-2024 02:00:00,22.9682591,76.064118,PM10,51,180,93
India,Madhya Pradesh,Gwalior,"City Center, Gwalior - MPPCB",11-02-2024 02:00:00,26.203442,78.193251,SO2,9,56,24
India,Madhya Pradesh,Gwalior,"Deen Dayal Nagar, Gwalior - MPPCB",11-02-2024 02:00:00,26.259242,78.216432,PM2.5,27,397,186
India,Madhya Pradesh,Gwalior,"Deen Dayal Nagar, Gwalior - MPPCB",11-02-2024 02:00:00,26.259242,78.216432,OZONE,8,194,42
India,Madhya Pradesh,Indore,"Chhoti Gwaltoli, Indore - MPPCB",11-02-2024 02:00:00,22.4310,75.5213,NO2,51,121,73
India,Madhya Pradesh,Indore,"Chhoti Gwaltoli, Indore - MPPCB",11-02-2024 02:00:00,22.4310,75.5213,CO,26,102,84
India,Madhya Pradesh,Indore,"Chhoti Gwaltoli, Indore - MPPCB",11-02-2024 02:00:00,22.4310,75.5213,OZONE,40,95,59
India,Madhya Pradesh,Indore,"Residency Area, Indore - IMC",11-02-2024 02:00:00,22.7084,75.8815,CO,8,14,11
India,Madhya Pradesh,Jabalpur,"Marhatal, Jabalpur - MPPCB",11-02-2024 02:00:00,23.168606,79.932247,PM10,94,156,121
India,Madhya Pradesh,Jabalpur,"Suhagi, Jabalpur - JMC",11-02-2024 02:00:00,23.218135,79.957770,NO2,40,50,46
India,Madhya Pradesh,Jabalpur,"Suhagi, Jabalpur - JMC",11-02-2024 02:00:00,23.218135,79.957770,OZONE,12,103,25
India,Madhya Pradesh,Katni,"Gole Bazar, Katni - MPPCB",11-02-2024 02:00:00,23.50016,80.23284,SO2,21,38,26
India,Madhya Pradesh,Katni,"Gole Bazar, Katni - MPPCB",11-02-2024 02:00:00,23.50016,80.23284,CO,14,80,60
India,Madhya Pradesh,Maihar,"Sahilara, Maihar - KJS Cements",11-02-2024 02:00:00,24.2613009,80.7231783,PM10,21,57,36
India,Madhya Pradesh,Mandideep,"Sector-D Industrial Area, Mandideep - MPPCB",11-02-2024 02:00:00,23.108440,77.511428,SO2,NA,NA,NA
India,Madhya Pradesh,Mandideep,"Sector-D Industrial Area, Mandideep - MPPCB",11-02-2024 02:00:00,23.108440,77.511428,OZONE,31,42,36
India,Madhya Pradesh,Pithampur,"Sector-2 Industrial Area, Pithampur - MPPCB",11-02-2024 02:00:00,22.624758,75.675238,PM10,74,161,116
India,Madhya Pradesh,Pithampur,"Sector-2 Industrial Area, Pithampur - MPPCB",11-02-2024 02:00:00,22.624758,75.675238,OZONE,27,65,46
India,Madhya Pradesh,Ratlam,"Shasthri Nagar, Ratlam - IPCA Lab",11-02-2024 02:00:00,23.331731,75.045981,NO2,25,103,49
India,Madhya Pradesh,Sagar,"Deen Dayal Nagar, Sagar - MPPCB",11-02-2024 02:00:00,23.8640158,78.80289321,PM2.5,13,28,22
India,Madhya Pradesh,Sagar,"Deen Dayal Nagar, Sagar - MPPCB",11-02-2024 02:00:00,23.8640158,78.80289321,NO2,23,24,24
India,Madhya Pradesh,Sagar,"Deen Dayal Nagar, Sagar - MPPCB",11-02-2024 02:00:00,23.8640158,78.80289321,SO2,7,11,8
India,Madhya Pradesh,Satna,"Bandhavgar Colony, Satna - Birla Cement",11-02-2024 02:00:00,24.58434363,80.8549414,PM2.5,11,26,17
India,Madhya Pradesh,Satna,"Bandhavgar Colony, Satna - Birla Cement",11-02-2024 02:00:00,24.58434363,80.8549414,PM10,24,126,44
India,Madhya Pradesh,Satna,"Bandhavgar Colony, Satna - Birla Cement",11-02-2024 02:00:00,24.58434363,80.8549414,SO2,3,14,8
India,Madhya Pradesh,Satna,"Bandhavgar Colony, Satna - Birla Cement",11-02-2024 02:00:00,24.58434363,80.8549414,CO,14,40,24
India,Madhya Pradesh,Singrauli,"Suryakiran Bhawan NCL, Singrauli - MPPCB",11-02-2024 02:00:00,24.108970,82.645580,NH3,2,6,4
India,Madhya Pradesh,Ujjain,"Mahakaleshwar Temple, Ujjain - MPPCB",11-02-2024 02:00:00,23.182719 ,75.768218 ,SO2,6,13,10
India,Maharashtra,Ahmednagar,"Tarakpur, Ahmednagar - MPCB",11-02-2024 02:00:00,19.10122,74.73339,NO2,28,101,53
India,Maharashtra,Amravati,"Shivneri Colony, Amravati - MPCB",11-02-2024 02:00:00,20.9402359,77.7895248,PM2.5,54,153,84
India,Maharashtra,Amravati,"Shivneri Colony, Amravati - MPCB",11-02-2024 02:00:00,20.9402359,77.7895248,CO,20,30,28
India,Maharashtra,Amravati,"Shri Shivaji Science College, Amaravati - MPCB",11-02-2024 02:00:00,20.939198,77.765701,OZONE,42,62,62
India,Maharashtra,Aurangabad,"MIDC Chilkalthana, Aurangabad - MPCB",11-02-2024 02:00:00,19.875620,75.387310,NO2,9,122,42
India,Maharashtra,Aurangabad,"MIDC Chilkalthana, Aurangabad - MPCB",11-02-2024 02:00:00,19.875620,75.387310,CO,1,28,10
India,Maharashtra,Aurangabad,"Rachnakar Colony, Aurangabad - MPCB",11-02-2024 02:00:00,19.863756,75.321188,NO2,18,104,40
India,Maharashtra,Badlapur,"Katrap, Badlapur - MPCB",11-02-2024 02:00:00,19.16485,73.23409,NH3,2,4,3
India,Maharashtra,Bhiwandi,"Gokul Nagar, Bhiwandi - MPCB",11-02-2024 02:00:00,19.309073,73.057223,NH3,1,2,1
India,Maharashtra,Boisar,"Khaira, Boisar - MPCB",11-02-2024 02:00:00,19.786089,72.757971,NH3,6,12,9
India,Maharashtra,Chandrapur,"Chauhan Colony, Chandrapur - MPCB",11-02-2024 02:00:00,19.962900,79.298714,SO2,4,25,14
India,Maharashtra,Chandrapur,"Chauhan Colony, Chandrapur - MPCB",11-02-2024 02:00:00,19.962900,79.298714,OZONE,10,23,14
India,Maharashtra,Dhule,"Deopur, Dhule - MPCB",11-02-2024 02:00:00,20.918946,74.776388,CO,16,35,25
India,Maharashtra,Jalna,"Old MIDC, Jalna - MPCB",11-02-2024 02:00:00,19.854616,75.905894,PM2.5,85,196,130
India,Maharashtra,Kalyan,"Khadakpada, Kalyan - MPCB",11-02-2024 02:00:00,19.25292,73.142019,PM2.5,34,87,55
India,Maharashtra,Kalyan,"Khadakpada, Kalyan - MPCB",11-02-2024 02:00:00,19.25292,73.142019,SO2,19,80,34
India,Maharashtra,Kolhapur,"Sinchan Bhavan, Kolhapur - MPCB",11-02-2024 02:00:00,16.7143745,74.2426398,PM2.5,98,328,200
India,Maharashtra,Kolhapur,"Sinchan Bhavan, Kolhapur - MPCB",11-02-2024 02:00:00,16.7143745,74.2426398,SO2,3,13,7
India,Maharashtra,Latur,"Sawe Wadi, Latur - MPCB",11-02-2024 02:00:00,18.39963,76.57452,NO2,15,183,63
India,Maharashtra,Latur,"Sawe Wadi, Latur - MPCB",11-02-2024 02:00:00,18.39963,76.57452,NH3,8,8,8
India,Maharashtra,Mahad,"Kamble Tarf Birwadi, Mahad - MPCB",11-02-2024 02:00:00,18.1023399,73.4783687,CO,22,27,25
India,Maharashtra,Mahad,"Kamble Tarf Birwadi, Mahad - MPCB",11-02-2024 02:00:00,18.1023399,73.4783687,OZONE,19,59,34
India,Maharashtra,Malegaon,"Mahesh Nagar, Malegaon - MPCB",11-02-2024 02:00:00,20.555712,74.529236,SO2,3,18,11
India,Maharashtra,Mumbai,"Borivali East, Mumbai - MPCB",11-02-2024 02:00:00,19.2243333,72.8658113,PM10,45,171,82
India,Maharashtra,Mumbai,"Borivali East, Mumbai - MPCB",11-02-2024 02:00:00,19.2243333,72.8658113,NO2,6,49,17
India,Maharashtra,Mumbai,"Byculla, Mumbai - BMC",11-02-2024 02:00:00,18.9767,72.8380,NH3,2,6,4
India,Maharashtra,Mumbai,"Byculla, Mumbai - BMC",11-02-2024 02:00:00,18.9767,72.8380,OZONE,1,120,60
India,Maharashtra,Mumbai,"Chakala-Andheri East, Mumbai - IITM",11-02-2024 02:00:00,19.11074,72.86084,PM2.5,44,129,80
India,Maharashtra,Mumbai,"Chakala-Andheri East, Mumbai - IITM",11-02-2024 02:00:00,19.11074,72.86084,NO2,79,155,122
India,Maharashtra,Mumbai,"Chakala-Andheri East, Mumbai - IITM",11-02-2024 02:00:00,19.11074,72.86084,NH3,10,71,23
India,Maharashtra,Mumbai,"Chembur, Mumbai - MPCB",11-02-2024 02:00:00,19.0364585,72.8954371,PM10,102,159,127
India,Maharashtra,Mumbai,"Chhatrapati Shivaji Intl. Airport (T2), Mumbai - MPCB",11-02-2024 02:00:00,19.10078,72.87462,PM10,64,148,99
India,Maharashtra,Mumbai,"Chhatrapati Shivaji Intl. Airport (T2), Mumbai - MPCB",11-02-2024 02:00:00,19.10078,72.87462,NO2,4,69,33
India,Maharashtra,Mumbai,"Chhatrapati Shivaji Intl. Airport (T2), Mumbai - MPCB",11-02-2024 02:00:00,19.10078,72.87462,OZONE,1,26,6
India,Maharashtra,Mumbai,"Colaba, Mumbai - MPCB",11-02-2024 02:00:00,18.910000,72.820000,PM10,69,290,105
India,Maharashtra,Mumbai,"Colaba, Mumbai - MPCB",11-02-2024 02:00:00,18.910000,72.820000,NH3,1,1,1
India,Maharashtra,Mumbai,"Ghatkopar, Mumbai - BMC",11-02-2024 02:00:00,19.083694,72.920967,PM2.5,42,124,84
India,Maharashtra,Mumbai,"Ghatkopar, Mumbai - BMC",11-02-2024 02:00:00,19.083694,72.920967,NH3,NA,NA,NA
India,Maharashtra,Mumbai,"Kandivali East, Mumbai - MPCB",11-02-2024 02:00:00,19.205800,72.868200,NO2,41,106,67
India,Maharashtra,Mumbai,"Kandivali East, Mumbai - MPCB",11-02-2024 02:00:00,19.205800,72.868200,SO2,40,43,42
India,Maharashtra,Mumbai,"Kandivali East, Mumbai - MPCB",11-02-2024 02:00:00,19.205800,72.868200,CO,127,138,132
India,Maharashtra,Mumbai,"Kandivali West, Mumbai - BMC",11-02-2024 02:00:00,19.215859,72.831718,SO2,7,22,12
India,Maharashtra,Mumbai,"Kherwadi_Bandra East, Mumbai - MPCB",11-02-2024 02:00:00,19.0632143,72.8456324,NO2,17,110,64
India,Maharashtra,Mumbai,"Kherwadi_Bandra East, Mumbai - MPCB",11-02-2024 02:00:00,19.0632143,72.8456324,NH3,1,2,1
India,Maharashtra,Mumbai,"Kherwadi_Bandra East, Mumbai - MPCB",11-02-2024 02:00:00,19.0632143,72.8456324,CO,6,100,38
India,Maharashtra,Mumbai,"Kurla, Mumbai - MPCB",11-02-2024 02:00:00,19.0863,72.8888,PM2.5,63,236,115
India,Maharashtra,Mumbai,"Kurla, Mumbai - MPCB",11-02-2024 02:00:00,19.0863,72.8888,CO,12,41,25
India,Maharashtra,Mumbai,"Malad West, Mumbai - IITM",11-02-2024 02:00:00,19.19709,72.82204,NH3,1,1,1
India,Maharashtra,Mumbai,"Mazgaon, Mumbai - IITM",11-02-2024 02:00:00,18.96702,72.84214,NO2,62,187,125
India,Maharashtra,Mumbai,"Mulund West, Mumbai - MPCB",11-02-2024 02:00:00,19.1750,72.9419,CO,32,32,32
India,Maharashtra,Mumbai,"Navy Nagar-Colaba, Mumbai - IITM",11-02-2024 02:00:00,18.897756,72.813320,CO,1,24,5
India,Maharashtra,Mumbai,"Powai, Mumbai - MPCB",11-02-2024 02:00:00,19.137500,72.915056,PM2.5,22,69,42
India,Maharashtra,Mumbai,"Powai, Mumbai - MPCB",11-02-2024 02:00:00,19.137500,72.915056,PM10,60,135,91
India,Maharashtra,Mumbai,"Powai, Mumbai - MPCB",11-02-2024 02:00:00,19.137500,72.915056,SO2,28,31,30
India,Maharashtra,Mumbai,"Siddharth Nagar-Worli, Mumbai - IITM",11-02-2024 02:00:00,19.000083,72.813993,PM2.5,87,235,159
India,Maharashtra,Mumbai,"Siddharth Nagar-Worli, Mumbai - IITM",11-02-2024 02:00:00,19.000083,72.813993,NO2,28,127,54
India,Maharashtra,Mumbai,"Siddharth Nagar-Worli, Mumbai - IITM",11-02-2024 02:00:00,19.000083,72.813993,OZONE,5,159,82
India,Maharashtra,Mumbai,"Sion, Mumbai - MPCB",11-02-2024 02:00:00,19.047000,72.874600,NO2,9,79,40
India,Maharashtra,Mumbai,"Sion, Mumbai - MPCB",11-02-2024 02:00:00,19.047000,72.874600,NH3,1,2,1
India,Maharashtra,Mumbai,"Vasai West, Mumbai - MPCB",11-02-2024 02:00:00,19.383200,72.820400,NH3,4,4,4
India,Maharashtra,Mumbai,"Vile Parle West, Mumbai - MPCB",11-02-2024 02:00:00,19.10861,72.83622,NO2,7,36,14
India,Maharashtra,Mumbai,"Worli, Mumbai - MPCB",11-02-2024 02:00:00,18.9936162,72.8128113,NO2,17,18,17
India,Maharashtra,Mumbai,"Worli, Mumbai - MPCB",11-02-2024 02:00:00,18.9936162,72.8128113,CO,32,34,32
India,Maharashtra,Mumbai,"Worli, Mumbai - MPCB",11-02-2024 02:00:00,18.9936162,72.8128113,OZONE,5,9,7
India,Maharashtra,Nagpur,"Mahal, Nagpur - MPCB",11-02-2024 02:00:00,21.14472,79.107595,PM10,97,193,134
India,Maharashtra,Nagpur,"Opp GPO Civil Lines, Nagpur - MPCB",11-02-2024 02:00:00,21.152875,79.0517531,PM10,65,169,126
India,Maharashtra,Nagpur,"Ram Nagar, Nagpur - MPCB",11-02-2024 02:00:00,21.143383,79.048912,PM10,96,182,143
India,Maharashtra,Nagpur,"Ram Nagar, Nagpur - MPCB",11-02-2024 02:00:00,21.143383,79.048912,OZONE,23,70,41
India,Maharashtra,Nanded,"Sneh Nagar, Nanded - MPCB",11-02-2024 02:00:00,19.173852,77.296291,SO2,5,16,12
India,Maharashtra,Nashik,"Gangapur Road, Nashik - MPCB",11-02-2024 02:00:00,20.0073285,73.7762427,NO2,2,3,2
India,Maharashtra,Nashik,"Gangapur Road, Nashik - MPCB",11-02-2024 02:00:00,20.0073285,73.7762427,OZONE,1,81,39
India,Maharashtra,Nashik,"Pandav Nagari, Nashik - MPCB",11-02-2024 02:00:00,19.9591346,73.7788008,NO2,26,98,47
India,Maharashtra,Navi Mumbai,"Kopripada-Vashi, Navi Mumbai - MPCB",11-02-2024 02:00:00,19.090337,73.014232,SO2,11,48,27
India,Maharashtra,Navi Mumbai,"Mahape, Navi Mumbai - MPCB",11-02-2024 02:00:00,19.1135051,73.008978,CO,26,48,41
India,Maharashtra,Navi Mumbai,"Nerul, Navi Mumbai - MPCB",11-02-2024 02:00:00,19.008751,73.016620,NO2,18,30,26
India,Maharashtra,Navi Mumbai,"Nerul, Navi Mumbai - MPCB",11-02-2024 02:00:00,19.008751,73.016620,OZONE,33,43,36
India,Maharashtra,Navi Mumbai,"Sanpada, Navi Mumbai - MPCB",11-02-2024 02:00:00,19.0575752,73.0151367,PM2.5,75,76,75
India,Maharashtra,Navi Mumbai,"Sanpada, Navi Mumbai - MPCB",11-02-2024 02:00:00,19.0575752,73.0151367,PM10,77,127,103
India,Maharashtra,Navi Mumbai,"Sanpada, Navi Mumbai - MPCB",11-02-2024 02:00:00,19.0575752,73.0151367,NO2,12,13,12
India,Maharashtra,Navi Mumbai,"Sector-19A Nerul, Navi Mumbai - IITM",11-02-2024 02:00:00,19.044,73.0325,NO2,12,191,120
India,Maharashtra,Navi Mumbai,"Sector-19A Nerul, Navi Mumbai - IITM",11-02-2024 02:00:00,19.044,73.0325,CO,34,145,48
India,Maharashtra,Navi Mumbai,"Tondare-Taloja, Navi Mumbai - MPCB",11-02-2024 02:00:00,19.0630,73.1209,CO,1,54,29
India,Maharashtra,Pimpri-Chinchwad,"Gavalinagar, Pimpri Chinchwad - MPCB",11-02-2024 02:00:00,18.63673,73.82487,NH3,1,15,5
India,Maharashtra,Pimpri-Chinchwad,"Thergaon, Pimpri Chinchwad - MPCB",11-02-2024 02:00:00,18.616318,73.765797,PM2.5,168,322,277
India,Maharashtra,Pimpri-Chinchwad,"Thergaon, Pimpri Chinchwad - MPCB",11-02-2024 02:00:00,18.616318,73.765797,SO2,2,15,8
India,Maharashtra,Pune,"Alandi, Pune - IITM",11-02-2024 02:00:00,18.675076,73.892743,PM2.5,NA,NA,NA
India,Maharashtra,Pune,"Alandi, Pune - IITM",11-02-2024 02:00:00,18.675076,73.892743,NO2,NA,NA,NA
India,Maharashtra,Pune,"Mhada Colony, Pune - IITM",11-02-2024 02:00:00,18.573040,73.927715,CO,53,94,71
India,Maharashtra,Pune,"Revenue Colony-Shivajinagar, Pune - IITM",11-02-2024 02:00:00,18.530085,73.849598,CO,105,115,109
India,Maharashtra,Pune,"Savitribai Phule Pune University, Pune - MPCB",11-02-2024 02:00:00,18.547056,73.826908,OZONE,1,301,111
India,Maharashtra,Solapur,"Dnyaneshwar Nagar, Solapur - MPCB",11-02-2024 02:00:00,17.6336264,75.9132495,NH3,20,48,25
India,Maharashtra,Solapur,"Ratandeep Housing Society, Solapur - MPCB",11-02-2024 02:00:00,17.65439,75.90649,NO2,19,153,50
India,Maharashtra,Solapur,"Ratandeep Housing Society, Solapur - MPCB",11-02-2024 02:00:00,17.65439,75.90649,NH3,7,9,8
India,Maharashtra,Solapur,"Solapur, Solapur - MPCB",11-02-2024 02:00:00,17.6599188,75.9063906,SO2,31,40,35
India,Maharashtra,Solapur,"Solapur, Solapur - MPCB",11-02-2024 02:00:00,17.6599188,75.9063906,OZONE,30,78,45
India,Maharashtra,Thane,"Kasarvadavali, Thane - MPCB",11-02-2024 02:00:00,19.26777,72.97182,NH3,5,15,8
India,Maharashtra,Thane,"Kasarvadavali, Thane - MPCB",11-02-2024 02:00:00,19.26777,72.97182,SO2,7,32,15
India,Maharashtra,Thane,"Kasarvadavali, Thane - MPCB",11-02-2024 02:00:00,19.26777,72.97182,CO,15,74,27
India,Maharashtra,Thane,"Kasarvadavali, Thane - MPCB",11-02-2024 02:00:00,19.26777,72.97182,OZONE,2,134,50
India,Maharashtra,Thane,"Upvan Fort, Thane - MPCB",11-02-2024 02:00:00,19.222279,72.957979,CO,2,48,10
India,Maharashtra,Ulhasnagar,"Sidhi Vinayak Nagar, Ulhasnagar - MPCB",11-02-2024 02:00:00,19.235581,73.159121,NO2,14,71,28
India,Maharashtra,Virar,"Bolinj, Virar - MPCB",11-02-2024 02:00:00,19.4458210,72.7988231,PM10,92,141,116
India,Maharashtra,Virar,"Bolinj, Virar - MPCB",11-02-2024 02:00:00,19.4458210,72.7988231,NO2,10,46,24
India,Maharashtra,Virar,"Bolinj, Virar - MPCB",11-02-2024 02:00:00,19.4458210,72.7988231,NH3,5,8,6
India,Manipur,Imphal,"DM College of Science, Imphal - Manipur PCB",11-02-2024 02:00:00,24.8207389,93.9423085,SO2,79,85,82
India,Manipur,Imphal,"Manipur University, Imphal - Manipur PCB",11-02-2024 02:00:00,24.7524239,93.9286218,NO2,7,29,15
India,Meghalaya,Shillong,"Lumpyngngad, Shillong - Meghalaya PCB",11-02-2024 02:00:00,25.5586,91.8985,PM10,26,111,54
India,Meghalaya,Shillong,"Lumpyngngad, Shillong - Meghalaya PCB",11-02-2024 02:00:00,25.5586,91.8985,NO2,6,6,6
India,Mizoram,Aizawl,"Sikulpuikawn, Aizawl - Mizoram PCB",11-02-2024 02:00:00,23.7176342,92.7192841,NO2,1,2,1
India,Mizoram,Aizawl,"Sikulpuikawn, Aizawl - Mizoram PCB",11-02-2024 02:00:00,23.7176342,92.7192841,NH3,NA,NA,NA
India,Odisha,Balasore,"Kalidaspur, Balasore - OSPCB",11-02-2024 02:00:00,21.51161,86.89088,NH3,3,9,5
India,Odisha,Barbil,"Forest Office, Barbil - OSPCB",11-02-2024 02:00:00,22.1166054,85.3945546,NO2,9,25,14
India,Odisha,Baripada,"Meher Colony, Baripada - OSPCB",11-02-2024 02:00:00,21.941841,86.728318,PM10,96,156,122
India,Odisha,Bhubaneswar,"Lingraj Mandir, Bhubaneswar - OSPCB",11-02-2024 02:00:00,20.240790,85.836784,SO2,6,28,16
India,Odisha,Bhubaneswar,"Patia, Bhubaneswar - OSPCB",11-02-2024 02:00:00,20.34652,85.81630,PM10,105,256,145
India,Odisha,Bileipada,"Tata Township, Bileipada - OSPCB",11-02-2024 02:00:00,22.06156703,85.47409613,SO2,NA,NA,NA
India,Odisha,Brajrajnagar,"GM Office, Brajrajnagar - OSPCB",11-02-2024 02:00:00,21.8004996,83.8396977,PM10,NA,NA,NA
India,Odisha,Byasanagar,"Ferro Chrome Colony, Byasanagar - OSPCB",11-02-2024 02:00:00,20.94185,86.11510,NO2,16,34,22
India,Odisha,Byasanagar,"Ferro Chrome Colony, Byasanagar - OSPCB",11-02-2024 02:00:00,20.94185,86.11510,SO2,6,30,16
India,Odisha,Byasanagar,"Ferro Chrome Colony, Byasanagar - OSPCB",11-02-2024 02:00:00,20.94185,86.11510,OZONE,36,178,67
India,Odisha,Cuttack,"CDA Area, Cuttack - OSPCB",11-02-2024 02:00:00,20.48891     ,85.84768     ,OZONE,40,171,75
India,Odisha,Keonjhar,"Jagamohanpur, Keonjhar - OSPCB",11-02-2024 02:00:00,21.643900,85.599355,OZONE,1,35,1
India,Odisha,Nayagarh,"Dabuna, Nayagarh - OSPCB",11-02-2024 02:00:00,21.847279,85.416905,PM2.5,91,228,159
India,Odisha,Nayagarh,"Dabuna, Nayagarh - OSPCB",11-02-2024 02:00:00,21.847279,85.416905,NH3,4,5,5
India,Odisha,Rairangpur,"Divisional Forest Office, Rairangpur - OSPCB",11-02-2024 02:00:00,22.265816,86.174829,PM2.5,58,93,73
India,Odisha,Rourkela,"Raghunathpali, Rourkela - OSPCB",11-02-2024 02:00:00,22.220833,84.809444,CO,32,69,47
India,Odisha,Rourkela,"Raghunathpali, Rourkela - OSPCB",11-02-2024 02:00:00,22.220833,84.809444,OZONE,15,135,33
India,Odisha,Rourkela,"Sector-2, Rourkela - OSPCB",11-02-2024 02:00:00,22.24500000,84.88111111,PM2.5,17,278,96
India,Odisha,Suakati,"OMC Colony, Suakati - OSPCB",11-02-2024 02:00:00,21.606865,85.510538,PM2.5,37,161,100
India,Odisha,Suakati,"OMC Colony, Suakati - OSPCB",11-02-2024 02:00:00,21.606865,85.510538,PM10,70,326,127
India,Odisha,Suakati,"OMC Colony, Suakati - OSPCB",11-02-2024 02:00:00,21.606865,85.510538,NH3,NA,NA,NA
India,Odisha,Suakati,"OMC Colony, Suakati - OSPCB",11-02-2024 02:00:00,21.606865,85.510538,CO,13,46,24
India,Odisha,Suakati,"OMC Colony, Suakati - OSPCB",11-02-2024 02:00:00,21.606865,85.510538,OZONE,20,205,104
India,Odisha,Talcher,"Talcher Coalfields,Talcher - OSPCB",11-02-2024 02:00:00,20.9360711,85.1707021,NH3,7,8,7
India,Odisha,Talcher,"Talcher Coalfields,Talcher - OSPCB",11-02-2024 02:00:00,20.9360711,85.1707021,SO2,11,104,38
India,Odisha,Tensa,"Barsua Iron Ore Mines, Tensa - OSPCB",11-02-2024 02:00:00,21.869985,85.167016,PM10,88,138,105
India,Odisha,Tensa,"Barsua Iron Ore Mines, Tensa - OSPCB",11-02-2024 02:00:00,21.869985,85.167016,NH3,6,12,9
India,Puducherry,Puducherry,"Jawahar Nagar, Puducherry - PPCC",11-02-2024 02:00:00,11.9309,79.8027,PM2.5,30,112,71
India,Puducherry,Puducherry,"Jawahar Nagar, Puducherry - PPCC",11-02-2024 02:00:00,11.9309,79.8027,PM10,32,92,71
India,Punjab,Amritsar,"Golden Temple, Amritsar - PPCB",11-02-2024 02:00:00,31.620000,74.876512,PM2.5,57,302,120
India,Punjab,Amritsar,"Golden Temple, Amritsar - PPCB",11-02-2024 02:00:00,31.620000,74.876512,SO2,12,36,22
India,Punjab,Bathinda,"Hardev Nagar, Bathinda - PPCB",11-02-2024 02:00:00,30.233011,74.907758,PM2.5,25,304,107
India,Punjab,Jalandhar,"Civil Line, Jalandhar - PPCB",11-02-2024 02:00:00,31.321907,75.578914,OZONE,4,66,40
India,Punjab,Khanna,"Kalal Majra, Khanna - PPCB",11-02-2024 02:00:00,30.736056 ,76.209694,PM10,78,112,95
India,Punjab,Khanna,"Kalal Majra, Khanna - PPCB",11-02-2024 02:00:00,30.736056 ,76.209694,CO,30,38,32
India,Punjab,Ludhiana,"Punjab Agricultural University, Ludhiana - PPCB",11-02-2024 02:00:00,30.9028,75.8086,NO2,30,34,32
India,Punjab,Ludhiana,"Punjab Agricultural University, Ludhiana - PPCB",11-02-2024 02:00:00,30.9028,75.8086,SO2,9,21,13
India,Punjab,Mandi Gobindgarh,"RIMT University, Mandi Gobindgarh - PPCB",11-02-2024 02:00:00,30.649961,76.331442,SO2,1,23,8
India,Punjab,Rupnagar,"Ratanpura, Rupnagar - Ambuja Cements",11-02-2024 02:00:00,31.0325454,76.5623046,SO2,4,9,8
India,Punjab,Rupnagar,"Ratanpura, Rupnagar - Ambuja Cements",11-02-2024 02:00:00,31.0325454,76.5623046,CO,32,75,54
India,Rajasthan,Alwar,"Moti Doongri, Alwar - RSPCB",11-02-2024 02:00:00,27.554793,76.611536,SO2,2,59,30
India,Rajasthan,Banswara,"Rati Talai, Banswara - RSPCB",11-02-2024 02:00:00,23.555190,74.440010,NO2,5,48,15
India,Rajasthan,Barmer,"Railway Colony, Barmer - RSPCB",11-02-2024 02:00:00,25.747299,71.393989,PM10,22,118,50
India,Rajasthan,Barmer,"Railway Colony, Barmer - RSPCB",11-02-2024 02:00:00,25.747299,71.393989,OZONE,45,108,69
India,Rajasthan,Bharatpur,"Krishna Nagar, Bharatpur - RSPCB",11-02-2024 02:00:00,27.215415,77.50873,NH3,11,20,13
India,Rajasthan,Bharatpur,"Krishna Nagar, Bharatpur - RSPCB",11-02-2024 02:00:00,27.215415,77.50873,CO,16,146,98
India,Rajasthan,Bhilwara,"Pratap Nagar, Bhilwara - RSPCB",11-02-2024 02:00:00,25.339605,74.618883,NH3,1,2,2
India,Rajasthan,Bhilwara,"Pratap Nagar, Bhilwara - RSPCB",11-02-2024 02:00:00,25.339605,74.618883,CO,16,56,41
India,Rajasthan,Bhiwadi,"RIICO Ind. Area III, Bhiwadi - RSPCB",11-02-2024 02:00:00,28.194909,76.862296,OZONE,1,44,5
India,Rajasthan,Bundi,"New Colony, Bundi - RSPCB",11-02-2024 02:00:00,25.435774,75.644272,NO2,17,120,36
India,Rajasthan,Bundi,"New Colony, Bundi - RSPCB",11-02-2024 02:00:00,25.435774,75.644272,SO2,3,8,5
India,Rajasthan,Chittorgarh,"Shastri Nagar, Chittorgarh - RSPCB",11-02-2024 02:00:00,24.892047,74.623527,PM2.5,12,133,74
India,Rajasthan,Churu,"Subash Chowk, Churu - RSPCB",11-02-2024 02:00:00,28.296139,74.961696,NH3,8,22,11
India,Rajasthan,Churu,"Subash Chowk, Churu - RSPCB",11-02-2024 02:00:00,28.296139,74.961696,OZONE,15,122,87
India,Rajasthan,Dausa,"Khatikan Mohalla, Dausa - RSPCB",11-02-2024 02:00:00,26.895552,76.334753,PM10,90,421,160
India,Rajasthan,Dausa,"Khatikan Mohalla, Dausa - RSPCB",11-02-2024 02:00:00,26.895552,76.334753,OZONE,48,68,55
India,Rajasthan,Dholpur,"Raja Ganj, Dholpur - RSPCB",11-02-2024 02:00:00,26.699557,77.898881,PM2.5,182,384,289
India,Rajasthan,Dholpur,"Raja Ganj, Dholpur - RSPCB",11-02-2024 02:00:00,26.699557,77.898881,NH3,6,26,14
India,Rajasthan,Dungarpur,"Bhoiwada, Dungarpur - RSPCB",11-02-2024 02:00:00,23.837789,73.714926,NH3,6,9,7
India,Rajasthan,Hanumangarh,"Housing Board, Hanumangarh - RSPCB",11-02-2024 02:00:00,29.610750,74.283608,PM2.5,75,446,265
India,Rajasthan,Jaipur,"Mansarovar Sector-12, Jaipur - RSPCB",11-02-2024 02:00:00,26.843698,75.766894,NO2,18,139,65
India,Rajasthan,Jaipur,"Mansarovar Sector-12, Jaipur - RSPCB",11-02-2024 02:00:00,26.843698,75.766894,CO,55,125,108
India,Rajasthan,Jaipur,"Police Commissionerate, Jaipur - RSPCB",11-02-2024 02:00:00,26.9164092,75.7994901,NO2,25,110,56
India,Rajasthan,Jaipur,"Shastri Nagar, Jaipur - RSPCB",11-02-2024 02:00:00,26.9502929,75.730943,PM2.5,32,119,66
India,Rajasthan,Jaipur,"Shastri Nagar, Jaipur - RSPCB",11-02-2024 02:00:00,26.9502929,75.730943,PM10,66,146,101
India,Rajasthan,Jaipur,"Shastri Nagar, Jaipur - RSPCB",11-02-2024 02:00:00,26.9502929,75.730943,SO2,10,27,22
India,Rajasthan,Jaisalmer,"Sadar Bazar, Jaisalmer - RSPCB",11-02-2024 02:00:00,26.912329,70.909168,NO2,6,87,34
India,Rajasthan,Jaisalmer,"Sadar Bazar, Jaisalmer - RSPCB",11-02-2024 02:00:00,26.912329,70.909168,NH3,12,29,18
India,Rajasthan,Jalore,"Mudtra Sili, Jalore - RSPCB",11-02-2024 02:00:00,25.344694,72.626208,PM10,48,487,121
India,Rajasthan,Jalore,"Mudtra Sili, Jalore - RSPCB",11-02-2024 02:00:00,25.344694,72.626208,NO2,12,122,47
India,Rajasthan,Jalore,"Mudtra Sili, Jalore - RSPCB",11-02-2024 02:00:00,25.344694,72.626208,SO2,6,30,10
India,Rajasthan,Jhalawar,"Rajlaxmi Nagar, Jhalawar - RSPCB",11-02-2024 02:00:00,24.588397,76.172782,NH3,4,5,5
India,Rajasthan,Jhalawar,"Rajlaxmi Nagar, Jhalawar - RSPCB",11-02-2024 02:00:00,24.588397,76.172782,CO,13,40,24
India,Rajasthan,Jhunjhunu,"Indra Nagar, Jhunjhunu - RSPCB",11-02-2024 02:00:00,28.108988,75.386577,PM10,58,335,139
India,Rajasthan,Jodhpur,"Collectorate, Jodhpur - RSPCB",11-02-2024 02:00:00,26.268249,73.0193853,PM2.5,51,241,131
India,Rajasthan,Jodhpur,"Jhalamand, Jodhpur - RSPCB",11-02-2024 02:00:00,26.215415,73.070156,NH3,4,10,7
India,Rajasthan,Jodhpur,"Mandor, Jodhpur - RSPCB",11-02-2024 02:00:00,26.358805,73.047444,PM2.5,12,65,28
India,Rajasthan,Jodhpur,"Mandor, Jodhpur - RSPCB",11-02-2024 02:00:00,26.358805,73.047444,NO2,23,49,32
India,Rajasthan,Jodhpur,"Mandor, Jodhpur - RSPCB",11-02-2024 02:00:00,26.358805,73.047444,SO2,1,16,5
India,Rajasthan,Jodhpur,"Mandor, Jodhpur - RSPCB",11-02-2024 02:00:00,26.358805,73.047444,CO,22,32,27
India,Rajasthan,Karauli,"Satyawati Vihar, Karauli - RSPCB",11-02-2024 02:00:00,26.506177,77.025989,PM10,65,144,103
India,Rajasthan,Karauli,"Satyawati Vihar, Karauli - RSPCB",11-02-2024 02:00:00,26.506177,77.025989,OZONE,11,62,33
India,Rajasthan,Kota,"Dhanmandi, Kota - RSPCB",11-02-2024 02:00:00,25.164090,75.858137,SO2,3,40,12
India,Rajasthan,Kota,"Dhanmandi, Kota - RSPCB",11-02-2024 02:00:00,25.164090,75.858137,OZONE,4,118,64
India,Rajasthan,Kota,"Nayapura, Kota - RSPCB",11-02-2024 02:00:00,25.196024,75.855668,NO2,14,106,51
India,Rajasthan,Kota,"Nayapura, Kota - RSPCB",11-02-2024 02:00:00,25.196024,75.855668,SO2,2,11,4
India,Rajasthan,Kota,"Shrinath Puram, Kota - RSPCB",11-02-2024 02:00:00,25.14389,75.821256,CO,10,41,16
India,Rajasthan,Pratapgarh,"Pragati Nagar, Pratapgarh - RSPCB",11-02-2024 02:00:00,24.041198,74.780702,NH3,4,7,5
India,Rajasthan,Rajsamand,"Dhoinda, Rajsamand - RSPCB",11-02-2024 02:00:00,25.036360,73.883502,PM2.5,NA,NA,NA
India,Rajasthan,Rajsamand,"Dhoinda, Rajsamand - RSPCB",11-02-2024 02:00:00,25.036360,73.883502,NH3,NA,NA,NA
India,Rajasthan,Sawai Madhopur,"Sahu Nagar, Sawai Madhopur - RSPCB",11-02-2024 02:00:00,26.031443,76.359327,PM2.5,29,261,78
India,Rajasthan,Sikar,"Radhakishan Pura, Sikar - RSPCB",11-02-2024 02:00:00,27.608912,75.153302,NO2,5,44,16
India,Rajasthan,Sikar,"Radhakishan Pura, Sikar - RSPCB",11-02-2024 02:00:00,27.608912,75.153302,NH3,1,7,3
India,Rajasthan,Sikar,"Radhakishan Pura, Sikar - RSPCB",11-02-2024 02:00:00,27.608912,75.153302,CO,14,68,25
India,Rajasthan,Sri Ganganagar,"Old City, Sri Ganganagar - RSPCB",11-02-2024 02:00:00,29.931624,73.864511,PM2.5,52,500,266
India,Rajasthan,Sri Ganganagar,"Old City, Sri Ganganagar - RSPCB",11-02-2024 02:00:00,29.931624,73.864511,PM10,143,500,337
India,Rajasthan,Tonk,"Shastri Nagar, Tonk - RSPCB",11-02-2024 02:00:00,26.159933,75.780517,PM2.5,52,318,150
India,Rajasthan,Tonk,"Shastri Nagar, Tonk - RSPCB",11-02-2024 02:00:00,26.159933,75.780517,CO,14,72,48
India,Rajasthan,Udaipur,"Ashok Nagar, Udaipur - RSPCB",11-02-2024 02:00:00,24.5886166,73.6321397,SO2,7,63,21
India,Rajasthan,Udaipur,"Ashok Nagar, Udaipur - RSPCB",11-02-2024 02:00:00,24.5886166,73.6321397,CO,22,109,74
India,TamilNadu,Ariyalur,"Keelapalur, Ariyalur - TNPCB",11-02-2024 02:00:00,11.06825,79.07033,PM10,NA,NA,NA
India,TamilNadu,Chennai,"Alandur Bus Depot, Chennai - CPCB",11-02-2024 02:00:00,12.9099161,80.1076538,NH3,6,19,9
India,TamilNadu,Chennai,"Arumbakkam, Chennai - TNPCB",11-02-2024 02:00:00,13.0664,80.2112 ,SO2,2,5,3
India,TamilNadu,Chennai,"Kodungaiyur, Chennai - TNPCB",11-02-2024 02:00:00,13.1278,80.2642,PM2.5,15,56,35
India,TamilNadu,Chennai,"Manali, Chennai - CPCB",11-02-2024 02:00:00,13.164544,80.26285,PM2.5,NA,NA,NA
India,TamilNadu,Chennai,"Perungudi, Chennai - TNPCB",11-02-2024 02:00:00,12.9533,80.2357,NO2,2,13,5
India,TamilNadu,Chennai,"Perungudi, Chennai - TNPCB",11-02-2024 02:00:00,12.9533,80.2357,CO,6,35,16
India,TamilNadu,Chennai,"Perungudi, Chennai - TNPCB",11-02-2024 02:00:00,12.9533,80.2357,OZONE,3,10,8
India,TamilNadu,Chennai,"Velachery Res. Area, Chennai - CPCB",11-02-2024 02:00:00,13.0052189,80.2398125,NH3,9,15,11
India,TamilNadu,Cuddalore,"Semmandalam, Cuddalore - TNPCB",11-02-2024 02:00:00,11.7637683,79.7499835,PM2.5,30,88,68
India,TamilNadu,Cuddalore,"Semmandalam, Cuddalore - TNPCB",11-02-2024 02:00:00,11.7637683,79.7499835,NO2,3,30,14
India,TamilNadu,Gummidipoondi,"Anthoni Pillai Nagar, Gummidipoondi - TNPCB",11-02-2024 02:00:00,13.4127,80.1081,NH3,1,2,2
India,TamilNadu,Ooty,"Bombay Castel, Ooty - TNPCB",11-02-2024 02:00:00,11.4068288,76.7138973,OZONE,5,5,5
India,TamilNadu,Thoothukudi,"Meelavittan, Thoothukudi - TNPCB",11-02-2024 02:00:00,8.816428 ,78.099039,PM10,45,98,72
India,TamilNadu,Thoothukudi,"Meelavittan, Thoothukudi - TNPCB",11-02-2024 02:00:00,8.816428 ,78.099039,SO2,9,17,12
India,Telangana,Hyderabad,"Bollaram Industrial Area, Hyderabad - TSPCB",11-02-2024 02:00:00,17.540891,78.358528,PM2.5,49,96,74
India,Telangana,Hyderabad,"Bollaram Industrial Area, Hyderabad - TSPCB",11-02-2024 02:00:00,17.540891,78.358528,CO,16,32,27
India,Telangana,Hyderabad,"ECIL Kapra, Hyderabad - TSPCB",11-02-2024 02:00:00,17.470431,78.566959,PM2.5,33,47,40
India,Telangana,Hyderabad,"ECIL Kapra, Hyderabad - TSPCB",11-02-2024 02:00:00,17.470431,78.566959,PM10,48,93,69
India,Telangana,Hyderabad,"ECIL Kapra, Hyderabad - TSPCB",11-02-2024 02:00:00,17.470431,78.566959,NO2,9,11,10
India,Telangana,Hyderabad,"ICRISAT Patancheru, Hyderabad - TSPCB",11-02-2024 02:00:00,17.518400,78.278777,OZONE,35,94,43
India,Telangana,Hyderabad,"IITH Kandi, Hyderabad - TSPCB",11-02-2024 02:00:00,17.585705,78.126199,PM2.5,16,89,35
India,Telangana,Hyderabad,"IITH Kandi, Hyderabad - TSPCB",11-02-2024 02:00:00,17.585705,78.126199,SO2,10,15,11
India,Telangana,Hyderabad,"IITH Kandi, Hyderabad - TSPCB",11-02-2024 02:00:00,17.585705,78.126199,CO,12,32,26
India,Telangana,Hyderabad,"Kokapet, Hyderabad - TSPCB",11-02-2024 02:00:00,17.393559,78.339194,PM10,NA,NA,NA
India,Telangana,Hyderabad,"Kokapet, Hyderabad - TSPCB",11-02-2024 02:00:00,17.393559,78.339194,NO2,NA,NA,NA
India,Telangana,Hyderabad,"Kompally Municipal Office, Hyderabad - TSPCB",11-02-2024 02:00:00,17.544899,78.486949,PM10,39,52,45
India,Telangana,Hyderabad,"Kompally Municipal Office, Hyderabad - TSPCB",11-02-2024 02:00:00,17.544899,78.486949,SO2,7,14,13
India,Telangana,Hyderabad,"Nacharam_TSIIC IALA, Hyderabad - TSPCB",11-02-2024 02:00:00,17.429398,78.569354,PM2.5,57,149,69
India,Telangana,Hyderabad,"Nacharam_TSIIC IALA, Hyderabad - TSPCB",11-02-2024 02:00:00,17.429398,78.569354,NO2,7,10,9
India,Telangana,Hyderabad,"Nacharam_TSIIC IALA, Hyderabad - TSPCB",11-02-2024 02:00:00,17.429398,78.569354,OZONE,18,37,20
India,Telangana,Hyderabad,"New Malakpet, Hyderabad - TSPCB",11-02-2024 02:00:00,17.37206,78.50864,PM2.5,21,40,30
India,Telangana,Hyderabad,"Ramachandrapuram, Hyderabad - TSPCB",11-02-2024 02:00:00,17.528544,78.286195,NO2,NA,NA,NA
India,Telangana,Hyderabad,"Ramachandrapuram, Hyderabad - TSPCB",11-02-2024 02:00:00,17.528544,78.286195,NH3,NA,NA,NA
India,Telangana,Hyderabad,"Ramachandrapuram, Hyderabad - TSPCB",11-02-2024 02:00:00,17.528544,78.286195,OZONE,NA,NA,NA
India,Telangana,Hyderabad,"Sanathnagar, Hyderabad - TSPCB",11-02-2024 02:00:00,17.4559458,78.4332152,PM2.5,63,97,84
India,Telangana,Hyderabad,"Sanathnagar, Hyderabad - TSPCB",11-02-2024 02:00:00,17.4559458,78.4332152,NO2,25,331,99
India,Telangana,Hyderabad,"Somajiguda, Hyderabad - TSPCB",11-02-2024 02:00:00,17.417094,78.457437,PM2.5,42,72,55
India,Telangana,Hyderabad,"Zoo Park, Hyderabad - TSPCB",11-02-2024 02:00:00,17.349694,78.451437,NO2,23,38,29
India,Uttar_Pradesh,Agra,"Rohta, Agra - UPPCB",11-02-2024 02:00:00,27.106972,78.000111,PM2.5,32,270,100
India,Uttar_Pradesh,Agra,"Rohta, Agra - UPPCB",11-02-2024 02:00:00,27.106972,78.000111,SO2,3,23,12
India,Uttar_Pradesh,Agra,"Rohta, Agra - UPPCB",11-02-2024 02:00:00,27.106972,78.000111,OZONE,13,14,14
India,Uttar_Pradesh,Agra,"Sanjay Palace, Agra - UPPCB",11-02-2024 02:00:00,27.19865833,78.00598056,PM10,36,160,83
India,Uttar_Pradesh,Agra,"Shahjahan Garden, Agra - UPPCB",11-02-2024 02:00:00,27.169338,78.03582,OZONE,2,2,2
India,Uttar_Pradesh,Baghpat,"Sardar Patel Inter College, Baghpat - UPPCB",11-02-2024 02:00:00,28.964949,77.278761,PM10,87,185,137
India,Uttar_Pradesh,Baghpat,"Sardar Patel Inter College, Baghpat - UPPCB",11-02-2024 02:00:00,28.964949,77.278761,SO2,10,54,28
India,Uttar_Pradesh,Baghpat,"Sardar Patel Inter College, Baghpat - UPPCB",11-02-2024 02:00:00,28.964949,77.278761,OZONE,2,41,14
India,Uttar_Pradesh,Bareilly,"Rajendra Nagar, Bareilly - UPPCB",11-02-2024 02:00:00,28.38910936,79.42963708,OZONE,8,17,9
India,Uttar_Pradesh,Bulandshahr,"Yamunapuram, Bulandshahr - UPPCB",11-02-2024 02:00:00,28.406963,77.849831,NO2,1,101,44
India,Uttar_Pradesh,Firozabad,"Nagla Bhau, Firozabad - UPPCB",11-02-2024 02:00:00,27.168897,78.376960,NO2,16,17,17
India,Uttar_Pradesh,Firozabad,"Nagla Bhau, Firozabad - UPPCB",11-02-2024 02:00:00,27.168897,78.376960,SO2,11,18,14
India,Uttar_Pradesh,Firozabad,"Vibhab Nagar, Firozabad - UPPCB",11-02-2024 02:00:00,27.1594,78.3953,SO2,13,59,17
India,Uttar_Pradesh,Ghaziabad,"Indirapuram, Ghaziabad - UPPCB",11-02-2024 02:00:00,28.646233,77.358075,NH3,15,21,18
India,Uttar_Pradesh,Ghaziabad,"Loni, Ghaziabad - UPPCB",11-02-2024 02:00:00,28.757294,77.278792,SO2,8,21,13
India,Uttar_Pradesh,Ghaziabad,"Loni, Ghaziabad - UPPCB",11-02-2024 02:00:00,28.757294,77.278792,CO,24,78,62
India,Uttar_Pradesh,Ghaziabad,"Sanjay Nagar, Ghaziabad - UPPCB",11-02-2024 02:00:00,28.685382,77.453839,PM10,115,271,172
India,Uttar_Pradesh,Ghaziabad,"Sanjay Nagar, Ghaziabad - UPPCB",11-02-2024 02:00:00,28.685382,77.453839,SO2,18,29,22
India,Uttar_Pradesh,Gorakhpur,"Madan Mohan Malaviya University of Technology, Gorakhpur - UPPCB",11-02-2024 02:00:00,26.730136,83.433859,NH3,2,3,2
India,Uttar_Pradesh,Greater Noida,"Knowledge Park - III, Greater Noida - UPPCB",11-02-2024 02:00:00,28.47272,77.482000,PM10,141,500,330
India,Uttar_Pradesh,Greater Noida,"Knowledge Park - III, Greater Noida - UPPCB",11-02-2024 02:00:00,28.47272,77.482000,NH3,7,15,11
India,Uttar_Pradesh,Greater Noida,"Knowledge Park - III, Greater Noida - UPPCB",11-02-2024 02:00:00,28.47272,77.482000,SO2,12,27,19
India,Uttar_Pradesh,Greater Noida,"Knowledge Park - III, Greater Noida - UPPCB",11-02-2024 02:00:00,28.47272,77.482000,CO,41,112,89
India,Uttar_Pradesh,Hapur,"Anand Vihar, Hapur - UPPCB",11-02-2024 02:00:00,28.725645,77.749675,PM10,119,276,215
India,Uttar_Pradesh,Hapur,"Anand Vihar, Hapur - UPPCB",11-02-2024 02:00:00,28.725645,77.749675,SO2,2,36,20
India,Uttar_Pradesh,Jhansi,"Shivaji Nagar, Jhansi - UPPCB",11-02-2024 02:00:00,25.4547,78.6039,NO2,18,85,43
India,Uttar_Pradesh,Jhansi,"Shivaji Nagar, Jhansi - UPPCB",11-02-2024 02:00:00,25.4547,78.6039,NH3,6,6,6
India,Uttar_Pradesh,Kanpur,"FTI Kidwai Nagar, Kanpur - UPPCB",11-02-2024 02:00:00,26.428282,80.327067,SO2,22,28,24
India,Uttar_Pradesh,Kanpur,"NSI Kalyanpur, Kanpur - UPPCB",11-02-2024 02:00:00,26.509954,80.249612,PM10,75,179,126
India,Uttar_Pradesh,Kanpur,"Nehru Nagar, Kanpur - UPPCB",11-02-2024 02:00:00,26.4703136,80.3229863,SO2,4,27,11
India,Uttar_Pradesh,Kanpur,"Nehru Nagar, Kanpur - UPPCB",11-02-2024 02:00:00,26.4703136,80.3229863,CO,2,113,83
India,Uttar_Pradesh,Khurja,"Kalindi Kunj, Khurja - UPPCB",11-02-2024 02:00:00,28.2348927,77.8683002,SO2,34,41,37
India,Uttar_Pradesh,Lucknow,"B R Ambedkar University, Lucknow - UPPCB",11-02-2024 02:00:00,26.766433,80.927299,PM10,69,248,151
India,Uttar_Pradesh,Lucknow,"B R Ambedkar University, Lucknow - UPPCB",11-02-2024 02:00:00,26.766433,80.927299,NH3,6,14,8
India,Uttar_Pradesh,Lucknow,"Kendriya Vidyalaya, Lucknow - CPCB",11-02-2024 02:00:00,26.906111,80.948222,NH3,3,20,14
India,Uttar_Pradesh,Lucknow,"Kendriya Vidyalaya, Lucknow - CPCB",11-02-2024 02:00:00,26.906111,80.948222,OZONE,3,97,19
India,Uttar_Pradesh,Lucknow,"Kukrail Picnic Spot-1, Lucknow - UPPCB",11-02-2024 02:00:00,26.90723,80.98579,PM2.5,53,217,134
India,Uttar_Pradesh,Lucknow,"Kukrail Picnic Spot-1, Lucknow - UPPCB",11-02-2024 02:00:00,26.90723,80.98579,NH3,2,2,2
India,Uttar_Pradesh,Lucknow,"Kukrail Picnic Spot-1, Lucknow - UPPCB",11-02-2024 02:00:00,26.90723,80.98579,CO,26,48,36
India,Uttar_Pradesh,Lucknow,"Lalbagh, Lucknow - CPCB",11-02-2024 02:00:00,26.8458805,80.9365541,PM10,122,288,192
India,Uttar_Pradesh,Lucknow,"Talkatora District Industries Center, Lucknow - CPCB",11-02-2024 02:00:00,26.83399722,80.8917361,NH3,14,65,26
India,Uttar_Pradesh,Meerut,"Ganga Nagar, Meerut - UPPCB",11-02-2024 02:00:00,28.999264,77.7590354,NO2,24,165,59
India,Uttar_Pradesh,Meerut,"Jai Bhim Nagar, Meerut - UPPCB",11-02-2024 02:00:00,28.9535882,77.7622941,PM2.5,60,341,217
India,Uttar_Pradesh,Moradabad,"Buddhi Vihar, Moradabad - UPPCB",11-02-2024 02:00:00,28.83526,78.74460,PM2.5,38,252,93
India,Uttar_Pradesh,Moradabad,"Eco Herbal Park, Moradabad - UPPCB",11-02-2024 02:00:00,28.840739,78.697531,SO2,9,26,19
India,Uttar_Pradesh,Moradabad,"Employment Office, Moradabad - UPPCB",11-02-2024 02:00:00,28.88528,78.73880,NO2,17,20,20
India,Uttar_Pradesh,Moradabad,"Jigar Colony, Moradabad - UPPCB",11-02-2024 02:00:00,28.856664,78.772638,SO2,22,27,24
India,Uttar_Pradesh,Moradabad,"Kashiram Nagar, Moradabad - UPPCB",11-02-2024 02:00:00,28.849399,78.742362,NO2,26,51,35
India,Uttar_Pradesh,Moradabad,"Transport Nagar, Moradabad - UPPCB",11-02-2024 02:00:00,28.802625,78.753728,PM2.5,40,310,135
India,Uttar_Pradesh,Moradabad,"Transport Nagar, Moradabad - UPPCB",11-02-2024 02:00:00,28.802625,78.753728,NH3,6,6,6
India,Uttar_Pradesh,Moradabad,"Transport Nagar, Moradabad - UPPCB",11-02-2024 02:00:00,28.802625,78.753728,OZONE,14,23,16
India,Uttar_Pradesh,Muzaffarnagar,"New Mandi, Muzaffarnagar - UPPCB",11-02-2024 02:00:00,29.4723508,77.7194031,PM10,126,402,213
India,Uttar_Pradesh,Muzaffarnagar,"New Mandi, Muzaffarnagar - UPPCB",11-02-2024 02:00:00,29.4723508,77.7194031,SO2,15,52,27
India,Uttar_Pradesh,Muzaffarnagar,"New Mandi, Muzaffarnagar - UPPCB",11-02-2024 02:00:00,29.4723508,77.7194031,CO,16,111,68
India,Uttar_Pradesh,Muzaffarnagar,"New Mandi, Muzaffarnagar - UPPCB",11-02-2024 02:00:00,29.4723508,77.7194031,OZONE,16,104,53
India,Uttar_Pradesh,Noida,"Sector - 125, Noida - UPPCB",11-02-2024 02:00:00,28.5447608,77.3231257,NO2,51,298,182
India,Uttar_Pradesh,Noida,"Sector - 125, Noida - UPPCB",11-02-2024 02:00:00,28.5447608,77.3231257,SO2,1,131,21
India,Uttar_Pradesh,Noida,"Sector - 62, Noida - IMD",11-02-2024 02:00:00,28.6245479,77.3577104,NO2,8,38,19
India,Uttar_Pradesh,Prayagraj,"Jhunsi, Prayagraj - UPPCB",11-02-2024 02:00:00,25.425602,81.917152,PM10,49,234,118
India,Uttar_Pradesh,Prayagraj,"Jhunsi, Prayagraj - UPPCB",11-02-2024 02:00:00,25.425602,81.917152,SO2,30,32,31
India,Uttar_Pradesh,Prayagraj,"Motilal Nehru NIT, Prayagraj - UPPCB",11-02-2024 02:00:00,25.494,81.863,PM2.5,36,130,80
India,Uttar_Pradesh,Prayagraj,"Motilal Nehru NIT, Prayagraj - UPPCB",11-02-2024 02:00:00,25.494,81.863,CO,18,80,49
India,Uttar_Pradesh,Prayagraj,"Motilal Nehru NIT, Prayagraj - UPPCB",11-02-2024 02:00:00,25.494,81.863,OZONE,5,31,10
India,Uttar_Pradesh,Prayagraj,"Nagar Nigam, Prayagraj - UPPCB",11-02-2024 02:00:00,25.44919916 ,81.82735986 ,NO2,7,7,7
India,Uttar_Pradesh,Varanasi,"Ardhali Bazar, Varanasi - UPPCB",11-02-2024 02:00:00,25.3505986,82.9083074,SO2,15,28,20
India,Uttar_Pradesh,Varanasi,"Bhelupur, Varanasi - UPPCB",11-02-2024 02:00:00,25.301778,82.996789,OZONE,1,46,10
India,Uttar_Pradesh,Varanasi,"IESD Banaras Hindu University, Varanasi - UPPCB",11-02-2024 02:00:00,25.262326,82.995408,NH3,NA,NA,NA
India,Uttar_Pradesh,Varanasi,"Maldahiya, Varanasi - UPPCB",11-02-2024 02:00:00,25.32393,82.99687,PM2.5,47,304,171
India,Uttar_Pradesh,Vrindavan,"Omex Eternity, Vrindavan - UPPCB",11-02-2024 02:00:00,27.5714090,77.6557570,PM2.5,21,188,64
India,Uttar_Pradesh,Vrindavan,"Omex Eternity, Vrindavan - UPPCB",11-02-2024 02:00:00,27.5714090,77.6557570,CO,44,103,81
India,Uttar_Pradesh,Vrindavan,"Omex Eternity, Vrindavan - UPPCB",11-02-2024 02:00:00,27.5714090,77.6557570,OZONE,29,31,30
India,Uttarakhand,Rishikesh,"Shivaji Nagar, Rishikesh - UKPCB",11-02-2024 02:00:00,30.075911,78.2859547,PM2.5,67,91,79
India,West_Bengal,Asansol,"Asansol Court Area, Asansol - WBPCB",11-02-2024 02:00:00,23.685297,86.945968,PM2.5,87,303,189
India,West_Bengal,Asansol,"Asansol Court Area, Asansol - WBPCB",11-02-2024 02:00:00,23.685297,86.945968,CO,24,69,48
India,West_Bengal,Barrackpore,"SVSPA Campus, Barrackpore - WBPCB",11-02-2024 02:00:00,22.7605581,88.3617589,CO,24,82,61
India,West_Bengal,Durgapur,"Sidhu Kanhu Indoor Stadium, Durgapur - WBPCB",11-02-2024 02:00:00,23.5404352,87.2892225,NO2,23,40,32
India,West_Bengal,Haldia,"Priyambada Housing Estate, Haldia - WBPCB",11-02-2024 02:00:00,22.06047,88.109737,NH3,3,6,4
India,West_Bengal,Howrah,"Belur Math, Howrah - WBPCB",11-02-2024 02:00:00,22.629801,88.352017,NO2,22,48,33
India,West_Bengal,Howrah,"Belur Math, Howrah - WBPCB",11-02-2024 02:00:00,22.629801,88.352017,CO,6,65,42
India,West_Bengal,Howrah,"Ghusuri, Howrah - WBPCB",11-02-2024 02:00:00,22.611968,88.347422,PM2.5,138,328,255
India,West_Bengal,Howrah,"Padmapukur, Howrah - WBPCB",11-02-2024 02:00:00,22.5687319,88.2797276,PM10,97,179,139
India,West_Bengal,Howrah,"Padmapukur, Howrah - WBPCB",11-02-2024 02:00:00,22.5687319,88.2797276,NO2,24,74,44
India,West_Bengal,Howrah,"Padmapukur, Howrah - WBPCB",11-02-2024 02:00:00,22.5687319,88.2797276,SO2,7,33,14
India,West_Bengal,Howrah,"Padmapukur, Howrah - WBPCB",11-02-2024 02:00:00,22.5687319,88.2797276,CO,7,62,40
India,West_Bengal,Kolkata,"Bidhannagar, Kolkata - WBPCB",11-02-2024 02:00:00,22.58157048,88.41002457,CO,23,57,46
India,West_Bengal,Kolkata,"Bidhannagar, Kolkata - WBPCB",11-02-2024 02:00:00,22.58157048,88.41002457,OZONE,6,20,8
India,West_Bengal,Kolkata,"Fort William, Kolkata - WBPCB",11-02-2024 02:00:00,22.556640,88.342674,PM2.5,79,318,182
India,West_Bengal,Kolkata,"Fort William, Kolkata - WBPCB",11-02-2024 02:00:00,22.556640,88.342674,SO2,7,44,20
India,West_Bengal,Kolkata,"Jadavpur, Kolkata - WBPCB",11-02-2024 02:00:00,22.49929,88.36917,OZONE,5,35,10
India,West_Bengal,Kolkata,"Rabindra Bharati University, Kolkata - WBPCB",11-02-2024 02:00:00,22.627847,88.380669,NH3,7,8,8
India,West_Bengal,Kolkata,"Rabindra Sarobar, Kolkata - WBPCB",11-02-2024 02:00:00,22.51106,88.35142,NH3,5,31,14
India,West_Bengal,Kolkata,"Rabindra Sarobar, Kolkata - WBPCB",11-02-2024 02:00:00,22.51106,88.35142,OZONE,3,90,12
India,West_Bengal,Kolkata,"Victoria, Kolkata - WBPCB",11-02-2024 02:00:00,22.5448082,88.3403691,SO2,5,32,14
India,West_Bengal,Kolkata,"Victoria, Kolkata - WBPCB",11-02-2024 02:00:00,22.5448082,88.3403691,CO,39,109,94
India,West_Bengal,Siliguri,"Ward-32 Bapupara, Siliguri - WBPCB",11-02-2024 02:00:00,26.6879226,88.4152495,PM10,71,322,134
India,West_Bengal,Siliguri,"Ward-32 Bapupara, Siliguri - WBPCB",11-02-2024 02:00:00,26.6879226,88.4152495,OZONE,9,73,21
India,Andhra_Pradesh,Amaravati,"Secretariat, Amaravati - APPCB",11-02-2024 02:00:00,16.5150833,80.5181667,PM2.5,27,81,60
India,Andhra_Pradesh,Amaravati,"Secretariat, Amaravati - APPCB",11-02-2024 02:00:00,16.5150833,80.5181667,PM10,39,92,73
India,Andhra_Pradesh,Amaravati,"Secretariat, Amaravati - APPCB",11-02-2024 02:00:00,16.5150833,80.5181667,SO2,12,16,14
India,Andhra_Pradesh,Amaravati,"Secretariat, Amaravati - APPCB",11-02-2024 02:00:00,16.5150833,80.5181667,CO,28,44,36
India,Andhra_Pradesh,Anantapur,"Gulzarpet, Anantapur - APPCB",11-02-2024 02:00:00,14.675886,77.593027,PM2.5,23,57,41
India,Andhra_Pradesh,Chittoor,"Gangineni Cheruvu, Chittoor - APPCB",11-02-2024 02:00:00,13.204880,79.097889,OZONE,20,125,58
India,Andhra_Pradesh,Kadapa,"Yerramukkapalli, Kadapa - APPCB",11-02-2024 02:00:00,14.465052,78.824187,CO,5,21,10
India,Andhra_Pradesh,Kadapa,"Yerramukkapalli, Kadapa - APPCB",11-02-2024 02:00:00,14.465052,78.824187,OZONE,10,43,26
India,Andhra_Pradesh,Rajamahendravaram,"Anand Kala Kshetram, Rajamahendravaram - APPCB",11-02-2024 02:00:00,16.9872867,81.7363176,NH3,4,11,6
India,Andhra_Pradesh,Rajamahendravaram,"Anand Kala Kshetram, Rajamahendravaram - APPCB",11-02-2024 02:00:00,16.9872867,81.7363176,CO,4,104,34
India,Andhra_Pradesh,Tirupati,"Tirumala, Tirupati - APPCB",11-02-2024 02:00:00,13.67,79.35,SO2,3,10,7
India,Andhra_Pradesh,Tirupati,"Vaikuntapuram, Tirupati - APPCB",11-02-2024 02:00:00,13.615387,79.409230,PM2.5,20,285,60
India,Andhra_Pradesh,Vijayawada,"HB Colony, Vijayawada - APPCB",11-02-2024 02:00:00,16.536107,80.594233,CO,24,24,24
India,Andhra_Pradesh,Vijayawada,"Rajiv Gandhi Park, Vijayawada - APPCB",11-02-2024 02:00:00,16.509717,80.612222,PM10,51,80,67
India,Andhra_Pradesh,Vijayawada,"Rajiv Gandhi Park, Vijayawada - APPCB",11-02-2024 02:00:00,16.509717,80.612222,NH3,3,7,6
India,Andhra_Pradesh,Vijayawada,"Rajiv Nagar, Vijayawada - APPCB",11-02-2024 02:00:00,16.554731,80.649110,NO2,6,12,9
India,Andhra_Pradesh,Visakhapatnam,"GVM Corporation, Visakhapatnam - APPCB",11-02-2024 02:00:00,17.72,83.3,NH3,2,5,4
India,Arunachal_Pradesh,Naharlagun,"Naharlagun, Naharlagun - APSPCB",11-02-2024 02:00:00,27.103358,93.679645,PM10,15,201,68
India,Assam,Byrnihat,"Central Academy for SFS, Byrnihat - PCBA",11-02-2024 02:00:00,26.071318,91.87488,PM10,54,495,257
India,Assam,Guwahati,"IITG, Guwahati - PCBA",11-02-2024 02:00:00,26.2028636,91.70046436,CO,10,48,31
India,Assam,Guwahati,"LGBI Airport, Guwahati - PCBA",11-02-2024 02:00:00,26.10887,91.589544,PM10,96,475,175
India,Assam,Guwahati,"LGBI Airport, Guwahati - PCBA",11-02-2024 02:00:00,26.10887,91.589544,SO2,13,14,13
India,Assam,Guwahati,"Railway Colony, Guwahati - PCBA",11-02-2024 02:00:00,26.181742,91.78063,PM2.5,55,400,233
India,Assam,Nagaon,"Christianpatty, Nagaon - PCBA",11-02-2024 02:00:00,26.349082,92.68449,OZONE,4,96,15
India,Assam,Nalbari,"Bata Chowk, Nalbari - PCBA",11-02-2024 02:00:00,26.446912,91.439057,PM2.5,63,500,244
India,Assam,Nalbari,"Bata Chowk, Nalbari - PCBA",11-02-2024 02:00:00,26.446912,91.439057,OZONE,3,80,6
India,Assam,Silchar,"Tarapur, Silchar - PCBA",11-02-2024 02:00:00,24.82827,92.79525,NO2,33,56,40
India,Assam,Silchar,"Tarapur, Silchar - PCBA",11-02-2024 02:00:00,24.82827,92.79525,SO2,NA,NA,NA
India,Bihar,Araria,"Kharahiya Basti, Araria - BSPCB",11-02-2024 02:00:00,26.146529,87.454184,NH3,6,8,7
India,Bihar,Arrah,"New DM Office, Arrah - BSPCB",11-02-2024 02:00:00,25.5626095,84.663264,SO2,16,23,19
India,Bihar,Arrah,"New DM Office, Arrah - BSPCB",11-02-2024 02:00:00,25.5626095,84.663264,OZONE,14,32,14
India,Bihar,Aurangabad,"Gurdeo Nagar, Aurangabad - BSPCB",11-02-2024 02:00:00,24.75746,84.366208,NH3,4,38,8
India,Bihar,Bettiah,"Kamalnath Nagar, Bettiah - BSPCB",11-02-2024 02:00:00,26.80365,84.51954,SO2,10,21,17
India,Bihar,Bhagalpur,"DM Office_Kachari Chowk, Bhagalpur - BSPCB",11-02-2024 02:00:00,25.251013,86.989001,PM2.5,193,320,284
India,Bihar,Bhagalpur,"DM Office_Kachari Chowk, Bhagalpur - BSPCB",11-02-2024 02:00:00,25.251013,86.989001,NO2,26,70,45
India,Bihar,Bhagalpur,"DM Office_Kachari Chowk, Bhagalpur - BSPCB",11-02-2024 02:00:00,25.251013,86.989001,NH3,3,8,4
India,Bihar,Bhagalpur,"DM Office_Kachari Chowk, Bhagalpur - BSPCB",11-02-2024 02:00:00,25.251013,86.989001,CO,34,74,61
India,Bihar,Bhagalpur,"Mayaganj, Bhagalpur - BSPCB",11-02-2024 02:00:00,25.265194,87.012947,SO2,10,13,12
India,Bihar,Bhagalpur,"Mayaganj, Bhagalpur - BSPCB",11-02-2024 02:00:00,25.265194,87.012947,OZONE,47,92,55
India,Bihar,Bihar Sharif,"D M Colony, Bihar Sharif - BSPCB",11-02-2024 02:00:00,25.204762,85.514960,NH3,2,2,2
India,Bihar,Buxar,"Charitra Van, Buxar - BSPCB (Formerly known as Central Jail)",11-02-2024 02:00:00,25.567520,83.966379,NO2,13,141,35
India,Bihar,Buxar,"Charitra Van, Buxar - BSPCB (Formerly known as Central Jail)",11-02-2024 02:00:00,25.567520,83.966379,SO2,NA,NA,NA
India,Bihar,Chhapra,"Darshan Nagar, Chhapra - BSPCB",11-02-2024 02:00:00,25.7808257,84.7446768,NH3,9,15,12
India,Bihar,Chhapra,"Darshan Nagar, Chhapra - BSPCB",11-02-2024 02:00:00,25.7808257,84.7446768,OZONE,1,23,4
India,Bihar,Gaya,"Collectorate, Gaya - BSPCB",11-02-2024 02:00:00,24.7955,84.9994,OZONE,45,75,63
India,Bihar,Gaya,"Kareemganj, Gaya - BSPCB",11-02-2024 02:00:00,24.792403,84.992416,CO,13,94,50
India,Bihar,Gaya,"SFTI Kusdihra, Gaya - BSPCB",11-02-2024 02:00:00,24.762518,84.982348,PM10,58,102,77
India,Bihar,Gaya,"SFTI Kusdihra, Gaya - BSPCB",11-02-2024 02:00:00,24.762518,84.982348,NO2,19,35,28
India,Bihar,Gaya,"SFTI Kusdihra, Gaya - BSPCB",11-02-2024 02:00:00,24.762518,84.982348,CO,66,108,83
India,Bihar,Gaya,"SFTI Kusdihra, Gaya - BSPCB",11-02-2024 02:00:00,24.762518,84.982348,OZONE,1,48,14
India,Bihar,Hajipur,"Industrial Area, Hajipur - BSPCB",11-02-2024 02:00:00,25.697189,85.245900,CO,16,70,47
India,Bihar,Hajipur,"Industrial Area, Hajipur - BSPCB",11-02-2024 02:00:00,25.697189,85.245900,OZONE,39,205,159
India,Bihar,Katihar,"Mirchaibari, Katihar - BSPCB",11-02-2024 02:00:00,25.560083,87.553265,NO2,12,42,21
India,Bihar,Kishanganj,"SDM Office_Khagra, Kishanganj - BSPCB",11-02-2024 02:00:00,26.0881305,87.93840336,OZONE,29,39,30
India,Bihar,Manguraha,"Forest Rest House, Manguraha - BSPCB",11-02-2024 02:00:00,27.308328,84.531742,PM2.5,NA,NA,NA
India,Bihar,Manguraha,"Forest Rest House, Manguraha - BSPCB",11-02-2024 02:00:00,27.308328,84.531742,SO2,NA,NA,NA
India,Bihar,Munger,"Town Hall, Munger - BSPCB",11-02-2024 02:00:00,25.376776,86.471523,SO2,26,40,33
India,Bihar,Munger,"Town Hall, Munger - BSPCB",11-02-2024 02:00:00,25.376776,86.471523,CO,3,31,17
India,Bihar,Muzaffarpur,"MIT-Daudpur Kothi, Muzaffarpur - BSPCB",11-02-2024 02:00:00,26.1403345,85.3650192,CO,16,181,126
India,Bihar,Muzaffarpur,"MIT-Daudpur Kothi, Muzaffarpur - BSPCB",11-02-2024 02:00:00,26.1403345,85.3650192,OZONE,9,87,22
India,Bihar,Muzaffarpur,"Muzaffarpur Collectorate, Muzaffarpur - BSPCB",11-02-2024 02:00:00,26.1209,85.3647,NO2,6,13,12
India,Bihar,Patna,"DRM Office Danapur, Patna - BSPCB",11-02-2024 02:00:00,25.586562,85.043586,SO2,7,10,8
India,Bihar,Patna,"Govt. High School Shikarpur, Patna - BSPCB",11-02-2024 02:00:00,25.592539,85.227158,NH3,3,5,4
India,Bihar,Patna,"IGSC Planetarium Complex, Patna - BSPCB",11-02-2024 02:00:00,25.610369,85.132568,NO2,12,12,12
India,Bihar,Patna,"Muradpur, Patna - BSPCB",11-02-2024 02:00:00,25.619651,85.147382,PM10,155,500,292
India,Bihar,Patna,"Samanpura, Patna - BSPCB",11-02-2024 02:00:00,25.596727,85.085624,PM2.5,94,500,310
India,Bihar,Patna,"Samanpura, Patna - BSPCB",11-02-2024 02:00:00,25.596727,85.085624,NO2,24,121,59
India,Bihar,Patna,"Samanpura, Patna - BSPCB",11-02-2024 02:00:00,25.596727,85.085624,NH3,3,19,8
India,Bihar,Patna,"Samanpura, Patna - BSPCB",11-02-2024 02:00:00,25.596727,85.085624,OZONE,1,61,15
India,Bihar,Rajgir,"Dangi Tola, Rajgir - BSPCB",11-02-2024 02:00:00,25.03280,85.41948,PM10,84,305,136
India,Bihar,Rajgir,"Dangi Tola, Rajgir - BSPCB",11-02-2024 02:00:00,25.03280,85.41948,NH3,1,2,1
India,Bihar,Saharsa,"Police Line, Saharsa - BSPCB",11-02-2024 02:00:00,25.892357,86.590325,PM2.5,147,404,293
India,Bihar,Saharsa,"Police Line, Saharsa - BSPCB",11-02-2024 02:00:00,25.892357,86.590325,CO,1,78,52
India,Bihar,Samastipur,"DM Office_Kasipur, Samastipur - BSPCB",11-02-2024 02:00:00,25.859655,85.77944,NH3,2,5,5
India,Bihar,Samastipur,"DM Office_Kasipur, Samastipur - BSPCB",11-02-2024 02:00:00,25.859655,85.77944,SO2,1,13,9
India,Bihar,Samastipur,"DM Office_Kasipur, Samastipur - BSPCB",11-02-2024 02:00:00,25.859655,85.77944,CO,2,28,14
India,Bihar,Sasaram,"Dada Peer, Sasaram - BSPCB",11-02-2024 02:00:00,24.952822,84.002396,PM2.5,NA,NA,NA
India,Bihar,Sasaram,"Dada Peer, Sasaram - BSPCB",11-02-2024 02:00:00,24.952822,84.002396,PM10,NA,NA,NA
India,Bihar,Sasaram,"Dada Peer, Sasaram - BSPCB",11-02-2024 02:00:00,24.952822,84.002396,NH3,NA,NA,NA
India,Bihar,Siwan,"Chitragupta Nagar, Siwan - BSPCB",11-02-2024 02:00:00,26.2271665,84.3570427,PM2.5,NA,NA,NA
India,Bihar,Siwan,"Chitragupta Nagar, Siwan - BSPCB",11-02-2024 02:00:00,26.2271665,84.3570427,NO2,16,67,30
India,Bihar,Siwan,"Chitragupta Nagar, Siwan - BSPCB",11-02-2024 02:00:00,26.2271665,84.3570427,OZONE,15,105,25
India,Chandigarh,Chandigarh,"Sector 22, Chandigarh - CPCC",11-02-2024 02:00:00,30.735567,76.775714,PM2.5,193,368,293
India,Chandigarh,Chandigarh,"Sector 22, Chandigarh - CPCC",11-02-2024 02:00:00,30.735567,76.775714,OZONE,2,200,24
India,Chandigarh,Chandigarh,"Sector-25, Chandigarh - CPCC",11-02-2024 02:00:00,30.751462,76.762879,NO2,10,73,33
India,Chandigarh,Chandigarh,"Sector-53, Chandigarh - CPCC",11-02-2024 02:00:00,30.719859,76.738637,PM2.5,197,401,290
India,Chhattisgarh,Bhilai,"32Bungalows, Bhilai - CECB",11-02-2024 02:00:00,21.194815,81.314770,CO,32,54,43
India,Chhattisgarh,Bhilai,"Civic Center, Bhilai - Bhilai Steel Plant",11-02-2024 02:00:00,21.185571,81.343175,PM2.5,4,100,45
India,Chhattisgarh,Bhilai,"Civic Center, Bhilai - Bhilai Steel Plant",11-02-2024 02:00:00,21.185571,81.343175,CO,22,44,33
India,Chhattisgarh,Bhilai,"Hathkhoj, Bhilai - CECB",11-02-2024 02:00:00,21.224231,81.408350,PM2.5,41,138,76
India,Chhattisgarh,Bhilai,"Hathkhoj, Bhilai - CECB",11-02-2024 02:00:00,21.224231,81.408350,NO2,25,48,34
India,Chhattisgarh,Chhal,"Nawapara SECL Colony, Chhal - CECB",11-02-2024 02:00:00,22.118125,83.140608,SO2,10,25,14
India,Chhattisgarh,Korba,"Urja Nagar, Korba - CECB",11-02-2024 02:00:00,22.348441,82.549611,NO2,71,91,79
India,Chhattisgarh,Korba,"Urja Nagar, Korba - CECB",11-02-2024 02:00:00,22.348441,82.549611,CO,24,50,40
India,Chhattisgarh,Kunjemura,"OP Jindal School, Kunjemura - CECB",11-02-2024 02:00:00,22.126650,83.483212,CO,31,74,47
India,Chhattisgarh,Milupara,"Govt. Higher Secondary School, Milupara - CECB",11-02-2024 02:00:00,22.1910172,83.5197009,PM2.5,16,59,39
India,Chhattisgarh,Raipur,"AIIMS, Raipur - CECB",11-02-2024 02:00:00,21.258815,81.578979,NO2,44,63,53
India,Chhattisgarh,Raipur,"AIIMS, Raipur - CECB",11-02-2024 02:00:00,21.258815,81.578979,NH3,4,4,4
India,Chhattisgarh,Raipur,"AIIMS, Raipur - CECB",11-02-2024 02:00:00,21.258815,81.578979,CO,29,54,42
India,Chhattisgarh,Raipur,"AIIMS, Raipur - CECB",11-02-2024 02:00:00,21.258815,81.578979,OZONE,1,11,3
India,Chhattisgarh,Raipur,"Bhatagaon New ISBT, Raipur - CECB",11-02-2024 02:00:00,21.219665,81.630094,SO2,NA,NA,NA
India,Chhattisgarh,Raipur,"Krishak Nagar, Raipur - CECB",11-02-2024 02:00:00,21.237755,81.705301,SO2,7,27,12
India,Chhattisgarh,Raipur,"Siltara Phase-II, Raipur - CECB",11-02-2024 02:00:00,21.371751,81.664929,CO,34,56,47
India,Delhi,Delhi,"Anand Vihar, Delhi - DPCC",11-02-2024 02:00:00,28.647622,77.3158090,SO2,2,25,11
India,Delhi,Delhi,"Anand Vihar, Delhi - DPCC",11-02-2024 02:00:00,28.647622,77.3158090,CO,5,97,72
India,Delhi,Delhi,"Ashok Vihar, Delhi - DPCC",11-02-2024 02:00:00,28.695381,77.181665,NH3,6,10,8
India,Delhi,Delhi,"Ashok Vihar, Delhi - DPCC",11-02-2024 02:00:00,28.695381,77.181665,SO2,17,33,26
India,Delhi,Delhi,"Ashok Vihar, Delhi - DPCC",11-02-2024 02:00:00,28.695381,77.181665,OZONE,4,22,7
India,Delhi,Delhi,"Aya Nagar, Delhi - IMD",11-02-2024 02:00:00,28.4706914,77.1099364,OZONE,1,24,16
India,Delhi,Delhi,"Bawana, Delhi - DPCC",11-02-2024 02:00:00,28.776200,77.051074,PM2.5,304,434,370
India,Delhi,Delhi,"Bawana, Delhi - DPCC",11-02-2024 02:00:00,28.776200,77.051074,PM10,167,433,294
India,Delhi,Delhi,"Bawana, Delhi - DPCC",11-02-2024 02:00:00,28.776200,77.051074,OZONE,4,126,24
India,Delhi,Delhi,"Burari Crossing, Delhi - IMD",11-02-2024 02:00:00,28.7256504,77.2011573,PM10,NA,NA,NA
India,Delhi,Delhi,"CRRI Mathura Road, Delhi - IMD",11-02-2024 02:00:00,28.5512005,77.2735737,NO2,23,64,53
India,Delhi,Delhi,"CRRI Mathura Road, Delhi - IMD",11-02-2024 02:00:00,28.5512005,77.2735737,OZONE,4,129,13
India,Delhi,Delhi,"DTU, Delhi - CPCB",11-02-2024 02:00:00,28.7500499,77.1112615,CO,30,60,36
India,Delhi,Delhi,"DTU, Delhi - CPCB",11-02-2024 02:00:00,28.7500499,77.1112615,OZONE,24,36,27
India,Delhi,Delhi,"Dr. Karni Singh Shooting Range, Delhi - DPCC",11-02-2024 02:00:00,28.498571,77.264840,PM2.5,323,412,358
India,Delhi,Delhi,"Dr. Karni Singh Shooting Range, Delhi - DPCC",11-02-2024 02:00:00,28.498571,77.264840,PM10,189,416,286
India,Delhi,Delhi,"Dr. Karni Singh Shooting Range, Delhi - DPCC",11-02-2024 02:00:00,28.498571,77.264840,OZONE,1,259,27
India,Delhi,Delhi,"IHBAS, Dilshad Garden, Delhi - CPCB",11-02-2024 02:00:00,28.6811736,77.3025234,PM10,121,210,177
India,Delhi,Delhi,"IHBAS, Dilshad Garden, Delhi - CPCB",11-02-2024 02:00:00,28.6811736,77.3025234,NH3,9,18,14
India,Delhi,Delhi,"IHBAS, Dilshad Garden, Delhi - CPCB",11-02-2024 02:00:00,28.6811736,77.3025234,OZONE,8,47,22
India,Delhi,Delhi,"ITO, Delhi - CPCB",11-02-2024 02:00:00,28.628624,77.241060,PM10,110,250,167
India,Delhi,Delhi,"Jawaharlal Nehru Stadium, Delhi - DPCC",11-02-2024 02:00:00,28.580280,77.233829,NO2,64,188,108
India,Delhi,Delhi,"Jawaharlal Nehru Stadium, Delhi - DPCC",11-02-2024 02:00:00,28.580280,77.233829,NH3,8,16,12
India,Delhi,Delhi,"Lodhi Road, Delhi - IITM",11-02-2024 02:00:00,28.588333,77.221667,NO2,78,140,94
India,Delhi,Delhi,"Lodhi Road, Delhi - IITM",11-02-2024 02:00:00,28.588333,77.221667,SO2,21,45,32
India,Delhi,Delhi,"Lodhi Road, Delhi - IITM",11-02-2024 02:00:00,28.588333,77.221667,OZONE,15,17,16
India,Delhi,Delhi,"Lodhi Road, Delhi - IMD",11-02-2024 02:00:00,28.5918245,77.2273074,OZONE,16,110,24
India,Delhi,Delhi,"Major Dhyan Chand National Stadium, Delhi - DPCC",11-02-2024 02:00:00,28.611281,77.237738,NO2,57,177,112
India,Delhi,Delhi,"Mundka, Delhi - DPCC",11-02-2024 02:00:00,28.684678,77.076574,NH3,8,14,11
India,Delhi,Delhi,"NSIT Dwarka, Delhi - CPCB",11-02-2024 02:00:00,28.60909,77.0325413,PM2.5,281,379,337
India,Delhi,Delhi,"NSIT Dwarka, Delhi - CPCB",11-02-2024 02:00:00,28.60909,77.0325413,SO2,2,20,13
India,Delhi,Delhi,"NSIT Dwarka, Delhi - CPCB",11-02-2024 02:00:00,28.60909,77.0325413,CO,28,80,60
India,Delhi,Delhi,"NSIT Dwarka, Delhi - CPCB",11-02-2024 02:00:00,28.60909,77.0325413,OZONE,11,162,26
India,Delhi,Delhi,"Narela, Delhi - DPCC",11-02-2024 02:00:00,28.822836,77.101981,CO,42,106,91
India,Delhi,Delhi,"New Moti Bagh, Delhi - MHUA",11-02-2024 02:00:00,28.57834,77.18400,CO,36,123,71
India,Delhi,Delhi,"Okhla Phase-2, Delhi - DPCC",11-02-2024 02:00:00,28.530785,77.271255,NO2,64,205,126
India,Delhi,Delhi,"Patparganj, Delhi - DPCC",11-02-2024 02:00:00,28.623763,77.287209,PM10,168,434,344
India,Delhi,Delhi,"Punjabi Bagh, Delhi - DPCC",11-02-2024 02:00:00,28.674045,77.131023,NO2,54,142,82
India,Delhi,Delhi,"Punjabi Bagh, Delhi - DPCC",11-02-2024 02:00:00,28.674045,77.131023,NH3,6,10,8
India,Delhi,Delhi,"Pusa, Delhi - DPCC",11-02-2024 02:00:00,28.639652,77.146275,NO2,110,406,233
India,Delhi,Delhi,"Pusa, Delhi - DPCC",11-02-2024 02:00:00,28.639652,77.146275,NH3,20,33,26
India,Delhi,Delhi,"Pusa, Delhi - DPCC",11-02-2024 02:00:00,28.639652,77.146275,CO,25,122,96
India,Delhi,Delhi,"Pusa, Delhi - DPCC",11-02-2024 02:00:00,28.639652,77.146275,OZONE,16,102,18
India,Delhi,Delhi,"Pusa, Delhi - IMD",11-02-2024 02:00:00,28.636110,77.173332,NO2,29,198,75
India,Delhi,Delhi,"R K Puram, Delhi - DPCC",11-02-2024 02:00:00,28.563262,77.186937,PM2.5,227,437,357
India,Delhi,Delhi,"R K Puram, Delhi - DPCC",11-02-2024 02:00:00,28.563262,77.186937,PM10,138,424,258
India,Delhi,Delhi,"R K Puram, Delhi - DPCC",11-02-2024 02:00:00,28.563262,77.186937,CO,35,122,100
India,Delhi,Delhi,"Rohini, Delhi - DPCC",11-02-2024 02:00:00,28.732528,77.119920,NO2,27,104,65
India,Delhi,Delhi,"Rohini, Delhi - DPCC",11-02-2024 02:00:00,28.732528,77.119920,NH3,8,14,11
India,Delhi,Delhi,"Shadipur, Delhi - CPCB",11-02-2024 02:00:00,28.6514781,77.1473105,PM2.5,110,341,290
India,Delhi,Delhi,"Shadipur, Delhi - CPCB",11-02-2024 02:00:00,28.6514781,77.1473105,NO2,36,53,43
India,Delhi,Delhi,"Shadipur, Delhi - CPCB",11-02-2024 02:00:00,28.6514781,77.1473105,CO,22,73,52
India,Delhi,Delhi,"Sirifort, Delhi - CPCB",11-02-2024 02:00:00,28.5504249,77.2159377,NO2,184,237,210
India,Delhi,Delhi,"Sonia Vihar, Delhi - DPCC",11-02-2024 02:00:00,28.710508,77.249485,NO2,28,124,69
India,Delhi,Delhi,"Sonia Vihar, Delhi - DPCC",11-02-2024 02:00:00,28.710508,77.249485,NH3,5,10,7
India,Delhi,Delhi,"Sri Aurobindo Marg, Delhi - DPCC",11-02-2024 02:00:00,28.531346,77.190156,PM2.5,290,411,338
India,Delhi,Delhi,"Sri Aurobindo Marg, Delhi - DPCC",11-02-2024 02:00:00,28.531346,77.190156,NO2,23,171,61
India,Delhi,Delhi,"Vivek Vihar, Delhi - DPCC",11-02-2024 02:00:00,28.672342,77.315260,PM10,137,414,285
India,Gujarat,Ahmedabad,"Chandkheda, Ahmedabad - IITM",11-02-2024 02:00:00,23.107969,72.574648,OZONE,17,47,26
India,Gujarat,Ahmedabad,"Raikhad, Ahmedabad - IITM",11-02-2024 02:00:00,23.020509,72.579261,CO,62,108,93
India,Gujarat,Ahmedabad,"SAC ISRO Satellite, Ahmedabad - IITM",11-02-2024 02:00:00,23.023389,72.515201,NO2,17,17,17
India,Gujarat,Ahmedabad,"SVPI Airport Hansol, Ahmedabad - IITM",11-02-2024 02:00:00,23.076793,72.627874,PM2.5,25,283,79
India,Gujarat,Ahmedabad,"Sardar Vallabhbhai Patel Stadium, Ahmedabad - IITM",11-02-2024 02:00:00,23.043070,72.562968,SO2,3,8,7
India,Gujarat,Ankleshwar,"GIDC, Ankleshwar - GPCB",11-02-2024 02:00:00,21.613267,73.010555,NH3,7,7,7
India,Gujarat,Gandhinagar,"GIFT City, Gandhinagar - IITM",11-02-2024 02:00:00,23.163798,72.677768,PM2.5,42,89,65
India,Gujarat,Gandhinagar,"GIFT City, Gandhinagar - IITM",11-02-2024 02:00:00,23.163798,72.677768,PM10,54,107,79
India,Gujarat,Gandhinagar,"GIFT City, Gandhinagar - IITM",11-02-2024 02:00:00,23.163798,72.677768,NO2,19,21,20
India,Gujarat,Gandhinagar,"GIFT City, Gandhinagar - IITM",11-02-2024 02:00:00,23.163798,72.677768,CO,8,22,18
India,Gujarat,Gandhinagar,"Sector-10, Gandhinagar - GPCB",11-02-2024 02:00:00,23.221714,72.654328,OZONE,6,43,22
India,Gujarat,Surat,"Science Center, Surat - SMC",11-02-2024 02:00:00,21.170046,72.795405,PM10,28,164,71
India,Gujarat,Vatva,"Phase-4 GIDC, Vatva - GPCB",11-02-2024 02:00:00,22.969611,72.643500,PM10,44,101,64
India,Gujarat,Vatva,"Phase-4 GIDC, Vatva - GPCB",11-02-2024 02:00:00,22.969611,72.643500,SO2,4,18,13
India,Haryana,Ambala,"Patti Mehar, Ambala - HSPCB",11-02-2024 02:00:00,30.379589,76.778328,CO,30,60,41
India,Haryana,Bahadurgarh,"Arya Nagar, Bahadurgarh - HSPCB",11-02-2024 02:00:00,28.6701,76.9254,NO2,33,43,37
India,Haryana,Bahadurgarh,"Arya Nagar, Bahadurgarh - HSPCB",11-02-2024 02:00:00,28.6701,76.9254,CO,38,58,47
India,Haryana,Bhiwani,"H.B. Colony, Bhiwani - HSPCB",11-02-2024 02:00:00,28.806223,76.141105,PM2.5,94,225,144
India,Haryana,Bhiwani,"H.B. Colony, Bhiwani - HSPCB",11-02-2024 02:00:00,28.806223,76.141105,PM10,87,133,107
India,Haryana,Bhiwani,"H.B. Colony, Bhiwani - HSPCB",11-02-2024 02:00:00,28.806223,76.141105,SO2,8,14,11
India,Haryana,Dharuhera,"Municipal Corporation Office, Dharuhera -  HSPCB",11-02-2024 02:00:00,28.206800,76.799700,PM10,109,441,267
India,Haryana,Dharuhera,"Municipal Corporation Office, Dharuhera -  HSPCB",11-02-2024 02:00:00,28.206800,76.799700,NO2,46,109,72
India,Haryana,Dharuhera,"Municipal Corporation Office, Dharuhera -  HSPCB",11-02-2024 02:00:00,28.206800,76.799700,SO2,7,47,15
India,Haryana,Dharuhera,"Municipal Corporation Office, Dharuhera -  HSPCB",11-02-2024 02:00:00,28.206800,76.799700,OZONE,13,105,38
India,Haryana,Faridabad,"New Industrial Town, Faridabad - HSPCB",11-02-2024 02:00:00,28.39072,77.30059,SO2,18,22,21
India,Haryana,Faridabad,"Sector 11, Faridabad - HSPCB",11-02-2024 02:00:00,28.376058,77.315741,PM2.5,115,301,202
India,Haryana,Faridabad,"Sector 30, Faridabad - HSPCB",11-02-2024 02:00:00,28.4417,77.3217,PM10,115,131,123
India,Haryana,Faridabad,"Sector 30, Faridabad - HSPCB",11-02-2024 02:00:00,28.4417,77.3217,OZONE,8,54,10
India,Haryana,Faridabad,"Sector- 16A, Faridabad - HSPCB",11-02-2024 02:00:00,28.4088421,77.3099081,CO,2,110,93
India,Haryana,Fatehabad,"Huda Sector, Fatehabad - HSPCB",11-02-2024 02:00:00,29.503664,75.467934,PM2.5,70,152,112
India,Haryana,Fatehabad,"Huda Sector, Fatehabad - HSPCB",11-02-2024 02:00:00,29.503664,75.467934,SO2,5,11,8
India,Haryana,Fatehabad,"Huda Sector, Fatehabad - HSPCB",11-02-2024 02:00:00,29.503664,75.467934,OZONE,20,25,22
India,Haryana,Gurugram,"Sector-51, Gurugram - HSPCB",11-02-2024 02:00:00,28.4227,77.0667,PM10,156,500,331
India,Haryana,Gurugram,"Sector-51, Gurugram - HSPCB",11-02-2024 02:00:00,28.4227,77.0667,NO2,13,29,23
India,Haryana,Gurugram,"Sector-51, Gurugram - HSPCB",11-02-2024 02:00:00,28.4227,77.0667,NH3,6,14,9
India,Haryana,Gurugram,"Teri Gram, Gurugram - HSPCB",11-02-2024 02:00:00,28.4275,77.1465,NH3,26,38,32
India,Haryana,Gurugram,"Teri Gram, Gurugram - HSPCB",11-02-2024 02:00:00,28.4275,77.1465,OZONE,10,10,10
India,Haryana,Hisar,"Urban Estate-II, Hisar - HSPCB",11-02-2024 02:00:00,29.140560,75.744941,NO2,6,16,9
India,Haryana,Jind,"Police Lines, Jind - HSPCB",11-02-2024 02:00:00,29.307814,76.337619,PM2.5,144,252,186
India,Haryana,Jind,"Police Lines, Jind - HSPCB",11-02-2024 02:00:00,29.307814,76.337619,NO2,6,14,10
India,Haryana,Jind,"Police Lines, Jind - HSPCB",11-02-2024 02:00:00,29.307814,76.337619,CO,2,104,9
India,Haryana,Kaithal,"Rishi Nagar, Kaithal - HSPCB",11-02-2024 02:00:00,29.8006,76.4155,PM2.5,95,291,188
India,Haryana,Kurukshetra,"Sector-7, Kurukshetra - HSPCB",11-02-2024 02:00:00,29.966942,76.875879,PM10,119,183,156
India,Haryana,Kurukshetra,"Sector-7, Kurukshetra - HSPCB",11-02-2024 02:00:00,29.966942,76.875879,NO2,10,11,10
India,Haryana,Mandikhera,"General Hospital, Mandikhera - HSPCB",11-02-2024 02:00:00,27.9002,76.9938,PM10,55,158,96
India,Haryana,Mandikhera,"General Hospital, Mandikhera - HSPCB",11-02-2024 02:00:00,27.9002,76.9938,SO2,30,39,34
India,Haryana,Narnaul,"Shastri Nagar, Narnaul - HSPCB",11-02-2024 02:00:00,28.060249,76.113115,CO,2,47,8
India,Haryana,Panipat,"Sector-18, Panipat - HSPCB",11-02-2024 02:00:00,29.497973,76.993331,SO2,NA,NA,NA
India,Haryana,Sirsa,"F-Block, Sirsa - HSPCB",11-02-2024 02:00:00,29.536400,75.015800,PM2.5,25,98,54
India,Haryana,Sirsa,"F-Block, Sirsa - HSPCB",11-02-2024 02:00:00,29.536400,75.015800,NO2,10,10,10
India,Haryana,Sonipat,"Murthal, Sonipat - HSPCB",11-02-2024 02:00:00,29.027200,77.062100,PM2.5,185,327,268
India,Haryana,Sonipat,"Murthal, Sonipat - HSPCB",11-02-2024 02:00:00,29.027200,77.062100,PM10,116,179,141
India,Haryana,Sonipat,"Murthal, Sonipat - HSPCB",11-02-2024 02:00:00,29.027200,77.062100,NH3,7,10,9
India,Haryana,Sonipat,"Murthal, Sonipat - HSPCB",11-02-2024 02:00:00,29.027200,77.062100,SO2,13,29,20
India,Haryana,Yamuna Nagar,"Gobind Pura, Yamuna Nagar - HSPCB",11-02-2024 02:00:00,30.1480566,77.2893471,PM2.5,128,395,230
India,Haryana,Yamuna Nagar,"Gobind Pura, Yamuna Nagar - HSPCB",11-02-2024 02:00:00,30.1480566,77.2893471,NO2,3,11,5
India,Haryana,Yamuna Nagar,"Gobind Pura, Yamuna Nagar - HSPCB",11-02-2024 02:00:00,30.1480566,77.2893471,NH3,1,4,3
India,Haryana,Yamuna Nagar,"Gobind Pura, Yamuna Nagar - HSPCB",11-02-2024 02:00:00,30.1480566,77.2893471,SO2,1,75,10
India,Jharkhand,Dhanbad,"Kalakusuma, Dhanbad - DMC",11-02-2024 02:00:00,23.811548,86.481238,PM2.5,36,81,43
India,Jharkhand,Dhanbad,"Kalakusuma, Dhanbad - DMC",11-02-2024 02:00:00,23.811548,86.481238,PM10,76,81,79
India,Jharkhand,Dhanbad,"Sardar Patel Nagar, Dhanbad - JSPCB",11-02-2024 02:00:00,23.80569,86.44268,PM10,61,149,96
India,Jharkhand,Dhanbad,"Sardar Patel Nagar, Dhanbad - JSPCB",11-02-2024 02:00:00,23.80569,86.44268,SO2,9,104,34
India,Jharkhand,Pathardih,"Mohalbani Ghat, Pathardih - DMC",11-02-2024 02:00:00,23.669880,86.411725,SO2,19,107,43
India,Jharkhand,Pathardih,"Mohalbani Ghat, Pathardih - DMC",11-02-2024 02:00:00,23.669880,86.411725,OZONE,13,29,14
India,Karnataka,Bagalkot,"Vidayagiri, Bagalkot - KSPCB",11-02-2024 02:00:00,16.172806,75.659694,SO2,NA,NA,NA
India,Karnataka,Bagalkot,"Vidayagiri, Bagalkot - KSPCB",11-02-2024 02:00:00,16.172806,75.659694,CO,20,64,39
India,Karnataka,Bagalkot,"Vidayagiri, Bagalkot - KSPCB",11-02-2024 02:00:00,16.172806,75.659694,OZONE,11,33,33
India,Karnataka,Bengaluru,"Bapuji Nagar, Bengaluru - KSPCB",11-02-2024 02:00:00,12.951913,77.539784,SO2,5,7,6
India,Karnataka,Bengaluru,"Hebbal, Bengaluru - KSPCB",11-02-2024 02:00:00,13.029152,77.585901,PM10,71,119,94
India,Karnataka,Bengaluru,"Hebbal, Bengaluru - KSPCB",11-02-2024 02:00:00,13.029152,77.585901,CO,3,34,22
India,Karnataka,Bengaluru,"Hombegowda Nagar, Bengaluru - KSPCB",11-02-2024 02:00:00,12.938539,77.590100,NO2,31,41,36
India,Karnataka,Bengaluru,"Jayanagar 5th Block, Bengaluru - KSPCB",11-02-2024 02:00:00,12.920984,77.584908,NO2,11,28,18
India,Karnataka,Bengaluru,"Jayanagar 5th Block, Bengaluru - KSPCB",11-02-2024 02:00:00,12.920984,77.584908,NH3,2,5,4
India,Karnataka,Bengaluru,"Silk Board, Bengaluru - KSPCB",11-02-2024 02:00:00,12.917348,77.622813,CO,20,40,34
India,Karnataka,Bidar,"Naubad, Bidar - KSPCB",11-02-2024 02:00:00,17.930306,77.482194,OZONE,10,43,28
India,Karnataka,Chamarajanagar,"Urban, Chamarajanagar - KSPCB",11-02-2024 02:00:00,11.55358,76.55521,NO2,NA,NA,NA
