country,state,city,station,last_update,latitude,longitude,pollutant_id,pollutant_min,pollutant_max,pollutant_avg
India,Andhra_Pradesh,Amaravati,"Secretariat, Amaravati - APPCB",27-02-2024 22:00:00,16.5150833,80.5181667,NH3,4,5,4
India,Andhra_Pradesh,Anantapur,"Gulzarpet, Anantapur - APPCB",27-02-2024 22:00:00,14.675886,77.593027,PM2.5,16,62,33
India,Andhra_Pradesh,Anantapur,"Gulzarpet, Anantapur - APPCB",27-02-2024 22:00:00,14.675886,77.593027,SO2,2,27,7
India,Andhra_Pradesh,Kadapa,"Yerramukkapalli, Kadapa - APPCB",27-02-2024 22:00:00,14.465052,78.824187,NO2,8,8,8
India,Andhra_Pradesh,Rajamahendravaram,"Anand Kala Kshetram, Rajamahendravaram - APPCB",27-02-2024 22:00:00,16.9872867,81.7363176,SO2,11,13,12
India,Andhra_Pradesh,Rajamahendravaram,"Anand Kala Kshetram, Rajamahendravaram - APPCB",27-02-2024 22:00:00,16.9872867,81.7363176,CO,20,41,30
India,Andhra_Pradesh,Tirupati,"Vaikuntapuram, Tirupati - APPCB",27-02-2024 22:00:00,13.615387,79.409230,NH3,NA,NA,NA
India,Andhra_Pradesh,Tirupati,"Vaikuntapuram, Tirupati - APPCB",27-02-2024 22:00:00,13.615387,79.409230,CO,NA,NA,NA
India,Andhra_Pradesh,Vijayawada,"HB Colony, Vijayawada - APPCB",27-02-2024 22:00:00,16.536107,80.594233,PM2.5,49,70,59
India,Andhra_Pradesh,Vijayawada,"HB Colony, Vijayawada - APPCB",27-02-2024 22:00:00,16.536107,80.594233,PM10,48,76,62
India,Andhra_Pradesh,Vijayawada,"HB Colony, Vijayawada - APPCB",27-02-2024 22:00:00,16.536107,80.594233,SO2,4,6,5
India,Andhra_Pradesh,Vijayawada,"Kanuru, Vijayawada - APPCB",27-02-2024 22:00:00,16.486692,80.699436,SO2,NA,NA,NA
India,Andhra_Pradesh,Vijayawada,"Rajiv Gandhi Park, Vijayawada - APPCB",27-02-2024 22:00:00,16.509717,80.612222,SO2,7,12,10
India,Andhra_Pradesh,Vijayawada,"Rajiv Gandhi Park, Vijayawada - APPCB",27-02-2024 22:00:00,16.509717,80.612222,CO,30,32,31
India,Andhra_Pradesh,Vijayawada,"Rajiv Nagar, Vijayawada - APPCB",27-02-2024 22:00:00,16.554731,80.649110,PM10,34,447,116
India,Andhra_Pradesh,Visakhapatnam,"GVM Corporation, Visakhapatnam - APPCB",27-02-2024 22:00:00,17.72,83.3,SO2,8,16,12
India,Arunachal_Pradesh,Naharlagun,"Naharlagun, Naharlagun - APSPCB",27-02-2024 22:00:00,27.103358,93.679645,PM2.5,25,159,66
India,Arunachal_Pradesh,Naharlagun,"Naharlagun, Naharlagun - APSPCB",27-02-2024 22:00:00,27.103358,93.679645,OZONE,2,2,2
India,Assam,Byrnihat,"Central Academy for SFS, Byrnihat - PCBA",27-02-2024 22:00:00,26.071318,91.87488,PM10,35,492,255
India,Assam,Byrnihat,"Central Academy for SFS, Byrnihat - PCBA",27-02-2024 22:00:00,26.071318,91.87488,CO,26,193,55
India,Assam,Byrnihat,"Central Academy for SFS, Byrnihat - PCBA",27-02-2024 22:00:00,26.071318,91.87488,OZONE,12,17,14
India,Assam,Guwahati,"IITG, Guwahati - PCBA",27-02-2024 22:00:00,26.2028636,91.70046436,NH3,5,5,5
India,Assam,Guwahati,"LGBI Airport, Guwahati - PCBA",27-02-2024 22:00:00,26.10887,91.589544,PM10,80,428,166
India,Assam,Guwahati,"LGBI Airport, Guwahati - PCBA",27-02-2024 22:00:00,26.10887,91.589544,OZONE,2,84,45
India,Assam,Guwahati,"Pan Bazaar, Guwahati - PCBA",27-02-2024 22:00:00,26.187500,91.744194,PM10,80,431,176
India,Assam,Guwahati,"Railway Colony, Guwahati - PCBA",27-02-2024 22:00:00,26.181742,91.78063,PM2.5,38,363,223
India,Assam,Guwahati,"Railway Colony, Guwahati - PCBA",27-02-2024 22:00:00,26.181742,91.78063,NO2,3,4,3
India,Assam,Nagaon,"Christianpatty, Nagaon - PCBA",27-02-2024 22:00:00,26.349082,92.68449,PM2.5,37,380,154
India,Assam,Sivasagar,"Girls College, Sivasagar - PCBA",27-02-2024 22:00:00,26.987634,94.636574,SO2,5,5,5
India,Bihar,Araria,"Kharahiya Basti, Araria - BSPCB",27-02-2024 22:00:00,26.146529,87.454184,PM2.5,74,420,267
India,Bihar,Araria,"Kharahiya Basti, Araria - BSPCB",27-02-2024 22:00:00,26.146529,87.454184,OZONE,1,10,9
India,Bihar,Arrah,"New DM Office, Arrah - BSPCB",27-02-2024 22:00:00,25.5626095,84.663264,PM2.5,53,253,126
India,Bihar,Arrah,"New DM Office, Arrah - BSPCB",27-02-2024 22:00:00,25.5626095,84.663264,PM10,91,175,122
India,Bihar,Arrah,"New DM Office, Arrah - BSPCB",27-02-2024 22:00:00,25.5626095,84.663264,OZONE,14,35,15
India,Bihar,Bettiah,"Kamalnath Nagar, Bettiah - BSPCB",27-02-2024 22:00:00,26.80365,84.51954,PM2.5,72,398,288
India,Bihar,Bhagalpur,"DM Office_Kachari Chowk, Bhagalpur - BSPCB",27-02-2024 22:00:00,25.251013,86.989001,PM2.5,92,416,291
India,Bihar,Bhagalpur,"Mayaganj, Bhagalpur - BSPCB",27-02-2024 22:00:00,25.265194,87.012947,PM2.5,NA,NA,NA
India,Bihar,Bihar Sharif,"D M Colony, Bihar Sharif - BSPCB",27-02-2024 22:00:00,25.204762,85.514960,PM10,35,119,81
India,Bihar,Bihar Sharif,"D M Colony, Bihar Sharif - BSPCB",27-02-2024 22:00:00,25.204762,85.514960,NO2,8,10,9
India,Bihar,Buxar,"Charitra Van, Buxar - BSPCB (Formerly known as Central Jail)",27-02-2024 22:00:00,25.567520,83.966379,NH3,NA,NA,NA
India,Bihar,Buxar,"Charitra Van, Buxar - BSPCB (Formerly known as Central Jail)",27-02-2024 22:00:00,25.567520,83.966379,SO2,NA,NA,NA
India,Bihar,Chhapra,"Darshan Nagar, Chhapra - BSPCB",27-02-2024 22:00:00,25.7808257,84.7446768,OZONE,1,45,26
India,Bihar,Gaya,"Collectorate, Gaya - BSPCB",27-02-2024 22:00:00,24.7955,84.9994,PM2.5,35,352,188
India,Bihar,Gaya,"Collectorate, Gaya - BSPCB",27-02-2024 22:00:00,24.7955,84.9994,CO,34,100,62
India,Bihar,Gaya,"Collectorate, Gaya - BSPCB",27-02-2024 22:00:00,24.7955,84.9994,OZONE,49,77,62
India,Bihar,Gaya,"SFTI Kusdihra, Gaya - BSPCB",27-02-2024 22:00:00,24.762518,84.982348,PM2.5,76,148,110
India,Bihar,Hajipur,"Industrial Area, Hajipur - BSPCB",27-02-2024 22:00:00,25.697189,85.245900,PM2.5,61,235,151
India,Bihar,Katihar,"Mirchaibari, Katihar - BSPCB",27-02-2024 22:00:00,25.560083,87.553265,PM10,67,208,134
India,Bihar,Katihar,"Mirchaibari, Katihar - BSPCB",27-02-2024 22:00:00,25.560083,87.553265,CO,13,13,13
India,Bihar,Kishanganj,"SDM Office_Khagra, Kishanganj - BSPCB",27-02-2024 22:00:00,26.0881305,87.93840336,OZONE,26,52,35
India,Bihar,Manguraha,"Forest Rest House, Manguraha - BSPCB",27-02-2024 22:00:00,27.308328,84.531742,PM2.5,NA,NA,NA
India,Bihar,Manguraha,"Forest Rest House, Manguraha - BSPCB",27-02-2024 22:00:00,27.308328,84.531742,NO2,3,12,8
India,Bihar,Motihari,"Gandak Colony, Motihari - BSPCB",27-02-2024 22:00:00,26.63086,84.90051,NH3,4,13,11
India,Bihar,Munger,"Town Hall, Munger - BSPCB",27-02-2024 22:00:00,25.376776,86.471523,PM2.5,75,498,235
India,Bihar,Munger,"Town Hall, Munger - BSPCB",27-02-2024 22:00:00,25.376776,86.471523,SO2,21,38,29
India,Bihar,Muzaffarpur,"Buddha Colony, Muzaffarpur - BSPCB",27-02-2024 22:00:00,26.11442,85.39813,NO2,27,121,70
India,Bihar,Muzaffarpur,"Buddha Colony, Muzaffarpur - BSPCB",27-02-2024 22:00:00,26.11442,85.39813,NH3,6,21,12
India,Bihar,Muzaffarpur,"MIT-Daudpur Kothi, Muzaffarpur - BSPCB",27-02-2024 22:00:00,26.1403345,85.3650192,PM10,80,195,147
India,Bihar,Muzaffarpur,"MIT-Daudpur Kothi, Muzaffarpur - BSPCB",27-02-2024 22:00:00,26.1403345,85.3650192,NO2,7,10,8
India,Bihar,Muzaffarpur,"MIT-Daudpur Kothi, Muzaffarpur - BSPCB",27-02-2024 22:00:00,26.1403345,85.3650192,CO,1,160,52
India,Bihar,Patna,"Govt. High School Shikarpur, Patna - BSPCB",27-02-2024 22:00:00,25.592539,85.227158,PM2.5,108,265,201
India,Bihar,Patna,"IGSC Planetarium Complex, Patna - BSPCB",27-02-2024 22:00:00,25.610369,85.132568,CO,14,20,15
India,Bihar,Patna,"Muradpur, Patna - BSPCB",27-02-2024 22:00:00,25.619651,85.147382,PM2.5,67,374,239
India,Bihar,Patna,"Muradpur, Patna - BSPCB",27-02-2024 22:00:00,25.619651,85.147382,PM10,143,500,314
India,Bihar,Patna,"Muradpur, Patna - BSPCB",27-02-2024 22:00:00,25.619651,85.147382,NH3,2,5,3
India,Bihar,Patna,"Rajbansi Nagar, Patna - BSPCB",27-02-2024 22:00:00,25.599486,85.113666,PM2.5,42,189,120
India,Bihar,Purnia,"Mariam Nagar, Purnia - BSPCB",27-02-2024 22:00:00,25.366336,87.117468,PM10,109,262,161
India,Bihar,Rajgir,"Dangi Tola, Rajgir - BSPCB",27-02-2024 22:00:00,25.03280,85.41948,NO2,1,1,1
India,Bihar,Saharsa,"Police Line, Saharsa - BSPCB",27-02-2024 22:00:00,25.892357,86.590325,NO2,6,8,7
India,Bihar,Saharsa,"Police Line, Saharsa - BSPCB",27-02-2024 22:00:00,25.892357,86.590325,SO2,11,17,13
India,Bihar,Saharsa,"Police Line, Saharsa - BSPCB",27-02-2024 22:00:00,25.892357,86.590325,OZONE,21,82,55
India,Bihar,Samastipur,"DM Office_Kasipur, Samastipur - BSPCB",27-02-2024 22:00:00,25.859655,85.77944,PM10,NA,NA,NA
India,Bihar,Samastipur,"DM Office_Kasipur, Samastipur - BSPCB",27-02-2024 22:00:00,25.859655,85.77944,SO2,2,20,14
India,Bihar,Samastipur,"DM Office_Kasipur, Samastipur - BSPCB",27-02-2024 22:00:00,25.859655,85.77944,CO,4,44,27
India,Chandigarh,Chandigarh,"Sector 22, Chandigarh - CPCC",27-02-2024 22:00:00,30.735567,76.775714,NH3,6,9,7
India,Chandigarh,Chandigarh,"Sector 22, Chandigarh - CPCC",27-02-2024 22:00:00,30.735567,76.775714,OZONE,3,158,81
India,Chandigarh,Chandigarh,"Sector-25, Chandigarh - CPCC",27-02-2024 22:00:00,30.751462,76.762879,NH3,17,35,23
India,Chandigarh,Chandigarh,"Sector-25, Chandigarh - CPCC",27-02-2024 22:00:00,30.751462,76.762879,CO,23,63,40
India,Chandigarh,Chandigarh,"Sector-53, Chandigarh - CPCC",27-02-2024 22:00:00,30.719859,76.738637,CO,51,80,62
India,Chhattisgarh,Bhilai,"Civic Center, Bhilai - Bhilai Steel Plant",27-02-2024 22:00:00,21.185571,81.343175,PM10,35,92,65
India,Chhattisgarh,Bhilai,"Civic Center, Bhilai - Bhilai Steel Plant",27-02-2024 22:00:00,21.185571,81.343175,NO2,NA,NA,NA
India,Chhattisgarh,Bhilai,"Civic Center, Bhilai - Bhilai Steel Plant",27-02-2024 22:00:00,21.185571,81.343175,NH3,NA,NA,NA
India,Chhattisgarh,Bhilai,"Hathkhoj, Bhilai - CECB",27-02-2024 22:00:00,21.224231,81.408350,PM10,68,179,116
India,Chhattisgarh,Bhilai,"Hathkhoj, Bhilai - CECB",27-02-2024 22:00:00,21.224231,81.408350,CO,22,101,29
India,Chhattisgarh,Bhilai,"Hathkhoj, Bhilai - CECB",27-02-2024 22:00:00,21.224231,81.408350,OZONE,12,27,23
India,Chhattisgarh,Bilaspur,"Mangala, Bilaspur - NTPC",27-02-2024 22:00:00,22.08815,82.13737,NO2,19,23,21
India,Chhattisgarh,Chhal,"Nawapara SECL Colony, Chhal - CECB",27-02-2024 22:00:00,22.118125,83.140608,PM10,38,116,85
India,Chhattisgarh,Korba,"Urja Nagar, Korba - CECB",27-02-2024 22:00:00,22.348441,82.549611,NH3,1,8,5
India,Chhattisgarh,Kunjemura,"OP Jindal School, Kunjemura - CECB",27-02-2024 22:00:00,22.126650,83.483212,NO2,17,91,48
India,Chhattisgarh,Raipur,"AIIMS, Raipur - CECB",27-02-2024 22:00:00,21.258815,81.578979,PM2.5,24,76,46
India,Chhattisgarh,Raipur,"AIIMS, Raipur - CECB",27-02-2024 22:00:00,21.258815,81.578979,PM10,37,112,81
India,Chhattisgarh,Raipur,"Bhatagaon New ISBT, Raipur - CECB",27-02-2024 22:00:00,21.219665,81.630094,SO2,4,6,5
India,Chhattisgarh,Raipur,"Bhatagaon New ISBT, Raipur - CECB",27-02-2024 22:00:00,21.219665,81.630094,CO,20,49,30
India,Chhattisgarh,Raipur,"Krishak Nagar, Raipur - CECB",27-02-2024 22:00:00,21.237755,81.705301,NH3,1,1,1
India,Chhattisgarh,Raipur,"Krishak Nagar, Raipur - CECB",27-02-2024 22:00:00,21.237755,81.705301,SO2,4,15,11
India,Chhattisgarh,Raipur,"Krishak Nagar, Raipur - CECB",27-02-2024 22:00:00,21.237755,81.705301,OZONE,4,39,11
India,Chhattisgarh,Raipur,"Siltara Phase-II, Raipur - CECB",27-02-2024 22:00:00,21.371751,81.664929,CO,37,77,50
India,Chhattisgarh,Tumidih,"OP Jindal Industrial Park, Tumidih - CECB",27-02-2024 22:00:00,22.06631475,83.33820077,NH3,1,3,2
India,Chhattisgarh,Tumidih,"OP Jindal Industrial Park, Tumidih - CECB",27-02-2024 22:00:00,22.06631475,83.33820077,OZONE,5,61,54
India,Delhi,Delhi,"Anand Vihar, Delhi - DPCC",27-02-2024 22:00:00,28.647622,77.3158090,SO2,16,36,25
India,Delhi,Delhi,"Ashok Vihar, Delhi - DPCC",27-02-2024 22:00:00,28.695381,77.181665,NO2,15,123,57
India,Delhi,Delhi,"Ashok Vihar, Delhi - DPCC",27-02-2024 22:00:00,28.695381,77.181665,OZONE,4,13,10
India,Delhi,Delhi,"Aya Nagar, Delhi - IMD",27-02-2024 22:00:00,28.4706914,77.1099364,PM10,36,181,102
India,Delhi,Delhi,"Bawana, Delhi - DPCC",27-02-2024 22:00:00,28.776200,77.051074,PM2.5,31,367,160
India,Delhi,Delhi,"Burari Crossing, Delhi - IMD",27-02-2024 22:00:00,28.7256504,77.2011573,NO2,2,5,3
India,Delhi,Delhi,"CRRI Mathura Road, Delhi - IMD",27-02-2024 22:00:00,28.5512005,77.2735737,PM2.5,26,350,115
India,Delhi,Delhi,"Chandni Chowk, Delhi - IITM",27-02-2024 22:00:00,28.656756,77.227234,PM10,31,164,93
India,Delhi,Delhi,"Chandni Chowk, Delhi - IITM",27-02-2024 22:00:00,28.656756,77.227234,OZONE,14,29,28
India,Delhi,Delhi,"Dr. Karni Singh Shooting Range, Delhi - DPCC",27-02-2024 22:00:00,28.498571,77.264840,PM2.5,20,211,110
India,Delhi,Delhi,"Dr. Karni Singh Shooting Range, Delhi - DPCC",27-02-2024 22:00:00,28.498571,77.264840,OZONE,1,140,74
India,Delhi,Delhi,"Dwarka-Sector 8, Delhi - DPCC ",27-02-2024 22:00:00,28.5710274,77.0719006,NO2,3,91,16
India,Delhi,Delhi,"Dwarka-Sector 8, Delhi - DPCC ",27-02-2024 22:00:00,28.5710274,77.0719006,SO2,1,12,6
India,Delhi,Delhi,"IHBAS, Dilshad Garden, Delhi - CPCB",27-02-2024 22:00:00,28.6811736,77.3025234,NO2,17,45,28
India,Delhi,Delhi,"ITO, Delhi - CPCB",27-02-2024 22:00:00,28.628624,77.241060,PM10,40,214,115
India,Delhi,Delhi,"Jahangirpuri, Delhi - DPCC",27-02-2024 22:00:00,28.732820,77.170633,NO2,36,105,72
India,Delhi,Delhi,"Jawaharlal Nehru Stadium, Delhi - DPCC",27-02-2024 22:00:00,28.580280,77.233829,NH3,5,9,7
India,Delhi,Delhi,"Lodhi Road, Delhi - IITM",27-02-2024 22:00:00,28.588333,77.221667,PM10,33,471,132
India,Delhi,Delhi,"Lodhi Road, Delhi - IMD",27-02-2024 22:00:00,28.5918245,77.2273074,PM2.5,16,276,105
India,Delhi,Delhi,"Lodhi Road, Delhi - IMD",27-02-2024 22:00:00,28.5918245,77.2273074,OZONE,5,78,47
India,Delhi,Delhi,"Major Dhyan Chand National Stadium, Delhi - DPCC",27-02-2024 22:00:00,28.611281,77.237738,NH3,6,9,8
India,Delhi,Delhi,"Mandir Marg, Delhi - DPCC",27-02-2024 22:00:00,28.636429,77.201067,PM10,55,500,160
India,Delhi,Delhi,"Mandir Marg, Delhi - DPCC",27-02-2024 22:00:00,28.636429,77.201067,NO2,118,134,126
India,Delhi,Delhi,"Mandir Marg, Delhi - DPCC",27-02-2024 22:00:00,28.636429,77.201067,OZONE,7,22,19
India,Delhi,Delhi,"Mundka, Delhi - DPCC",27-02-2024 22:00:00,28.684678,77.076574,SO2,6,43,13
India,Delhi,Delhi,"NSIT Dwarka, Delhi - CPCB",27-02-2024 22:00:00,28.60909,77.0325413,PM10,44,260,132
India,Delhi,Delhi,"Najafgarh, Delhi - DPCC",27-02-2024 22:00:00,28.570173,76.933762,NO2,7,8,7
India,Delhi,Delhi,"Nehru Nagar, Delhi - DPCC",27-02-2024 22:00:00,28.567890,77.250515,OZONE,2,143,85
India,Delhi,Delhi,"North Campus, DU, Delhi - IMD",27-02-2024 22:00:00,28.6573814,77.1585447,CO,2,32,14
India,Delhi,Delhi,"Okhla Phase-2, Delhi - DPCC",27-02-2024 22:00:00,28.530785,77.271255,NO2,43,266,106
India,Delhi,Delhi,"Patparganj, Delhi - DPCC",27-02-2024 22:00:00,28.623763,77.287209,PM10,74,304,144
India,Delhi,Delhi,"Patparganj, Delhi - DPCC",27-02-2024 22:00:00,28.623763,77.287209,NO2,32,70,48
India,Delhi,Delhi,"Patparganj, Delhi - DPCC",27-02-2024 22:00:00,28.623763,77.287209,OZONE,6,103,57
India,Delhi,Delhi,"Punjabi Bagh, Delhi - DPCC",27-02-2024 22:00:00,28.674045,77.131023,NO2,19,34,25
India,Delhi,Delhi,"Punjabi Bagh, Delhi - DPCC",27-02-2024 22:00:00,28.674045,77.131023,NH3,1,2,2
India,Delhi,Delhi,"Pusa, Delhi - DPCC",27-02-2024 22:00:00,28.639652,77.146275,NO2,39,123,85
India,Delhi,Delhi,"Pusa, Delhi - DPCC",27-02-2024 22:00:00,28.639652,77.146275,NH3,7,10,9
India,Delhi,Delhi,"Pusa, Delhi - DPCC",27-02-2024 22:00:00,28.639652,77.146275,CO,104,127,114
India,Delhi,Delhi,"R K Puram, Delhi - DPCC",27-02-2024 22:00:00,28.563262,77.186937,NH3,1,2,1
India,Delhi,Delhi,"R K Puram, Delhi - DPCC",27-02-2024 22:00:00,28.563262,77.186937,CO,18,136,36
India,Delhi,Delhi,"Rohini, Delhi - DPCC",27-02-2024 22:00:00,28.732528,77.119920,CO,15,88,27
India,Delhi,Delhi,"Shadipur, Delhi - CPCB",27-02-2024 22:00:00,28.6514781,77.1473105,PM2.5,64,334,163
India,Delhi,Delhi,"Shadipur, Delhi - CPCB",27-02-2024 22:00:00,28.6514781,77.1473105,PM10,84,398,170
India,Delhi,Delhi,"Sonia Vihar, Delhi - DPCC",27-02-2024 22:00:00,28.710508,77.249485,NO2,25,104,52
India,Delhi,Delhi,"Sri Aurobindo Marg, Delhi - DPCC",27-02-2024 22:00:00,28.531346,77.190156,PM2.5,23,217,100
India,Delhi,Delhi,"Vivek Vihar, Delhi - DPCC",27-02-2024 22:00:00,28.672342,77.315260,NH3,3,7,5
India,Delhi,Delhi,"Vivek Vihar, Delhi - DPCC",27-02-2024 22:00:00,28.672342,77.315260,OZONE,5,39,27
India,Delhi,Delhi,"Wazirpur, Delhi - DPCC",27-02-2024 22:00:00,28.699793,77.165453,PM2.5,38,342,177
India,Gujarat,Ahmedabad,"Chandkheda, Ahmedabad - IITM",27-02-2024 22:00:00,23.107969,72.574648,SO2,6,12,8
India,Gujarat,Ahmedabad,"Chandkheda, Ahmedabad - IITM",27-02-2024 22:00:00,23.107969,72.574648,CO,42,103,61
India,Gujarat,Ahmedabad,"Chandkheda, Ahmedabad - IITM",27-02-2024 22:00:00,23.107969,72.574648,OZONE,4,67,51
India,Gujarat,Ahmedabad,"Maninagar, Ahmedabad - GPCB",27-02-2024 22:00:00,23.002657,72.591912,OZONE,10,131,85
India,Gujarat,Ahmedabad,"Raikhad, Ahmedabad - IITM",27-02-2024 22:00:00,23.020509,72.579261,SO2,6,16,10
India,Gujarat,Ahmedabad,"Rakhial, Ahmedabad - IITM",27-02-2024 22:00:00,23.016834,72.625775,CO,10,60,25
India,Gujarat,Ahmedabad,"SAC ISRO Bopal, Ahmedabad - IITM",27-02-2024 22:00:00,23.041137,72.456691,PM2.5,NA,NA,NA
India,Gujarat,Ahmedabad,"SAC ISRO Satellite, Ahmedabad - IITM",27-02-2024 22:00:00,23.023389,72.515201,NO2,17,18,17
India,Gujarat,Ahmedabad,"SAC ISRO Satellite, Ahmedabad - IITM",27-02-2024 22:00:00,23.023389,72.515201,NH3,3,3,3
India,Gujarat,Ahmedabad,"SVPI Airport Hansol, Ahmedabad - IITM",27-02-2024 22:00:00,23.076793,72.627874,PM2.5,56,289,105
India,Gujarat,Ankleshwar,"GIDC, Ankleshwar - GPCB",27-02-2024 22:00:00,21.613267,73.010555,NO2,NA,NA,NA
India,Gujarat,Ankleshwar,"GIDC, Ankleshwar - GPCB",27-02-2024 22:00:00,21.613267,73.010555,CO,31,104,52
India,Gujarat,Gandhinagar,"IIPHG Lekawada, Gandhinagar - IITM",27-02-2024 22:00:00,23.243639,72.68994,PM2.5,68,160,93
India,Gujarat,Gandhinagar,"IIPHG Lekawada, Gandhinagar - IITM",27-02-2024 22:00:00,23.243639,72.68994,PM10,82,135,106
India,Gujarat,Gandhinagar,"IIPHG Lekawada, Gandhinagar - IITM",27-02-2024 22:00:00,23.243639,72.68994,NH3,3,4,3
India,Gujarat,Gandhinagar,"IIPHG Lekawada, Gandhinagar - IITM",27-02-2024 22:00:00,23.243639,72.68994,OZONE,18,36,31
India,Gujarat,Vapi,"Phase-1 GIDC, Vapi - GPCB",27-02-2024 22:00:00,20.362421,72.918013,PM2.5,110,414,267
India,Gujarat,Vapi,"Phase-1 GIDC, Vapi - GPCB",27-02-2024 22:00:00,20.362421,72.918013,OZONE,52,72,65
India,Haryana,Ambala,"Patti Mehar, Ambala - HSPCB",27-02-2024 22:00:00,30.379589,76.778328,NO2,8,9,8
India,Haryana,Ambala,"Patti Mehar, Ambala - HSPCB",27-02-2024 22:00:00,30.379589,76.778328,SO2,1,25,14
India,Haryana,Ballabgarh,"Nathu Colony, Ballabgarh - HSPCB",27-02-2024 22:00:00,28.3419248,77.319699,CO,1,98,34
India,Haryana,Charkhi Dadri,"Mini Secretariat, Charkhi Dadri - HSPCB",27-02-2024 22:00:00,28.593883,76.270653,PM10,33,132,67
India,Haryana,Charkhi Dadri,"Mini Secretariat, Charkhi Dadri - HSPCB",27-02-2024 22:00:00,28.593883,76.270653,CO,8,19,10
India,Haryana,Dharuhera,"Municipal Corporation Office, Dharuhera -  HSPCB",27-02-2024 22:00:00,28.206800,76.799700,NH3,9,26,18
India,Haryana,Faridabad,"New Industrial Town, Faridabad - HSPCB",27-02-2024 22:00:00,28.39072,77.30059,PM2.5,61,341,181
India,Haryana,Faridabad,"New Industrial Town, Faridabad - HSPCB",27-02-2024 22:00:00,28.39072,77.30059,NO2,19,30,22
India,Haryana,Faridabad,"New Industrial Town, Faridabad - HSPCB",27-02-2024 22:00:00,28.39072,77.30059,SO2,4,13,8
India,Haryana,Faridabad,"Sector 30, Faridabad - HSPCB",27-02-2024 22:00:00,28.4417,77.3217,PM10,102,140,122
India,Haryana,Faridabad,"Sector 30, Faridabad - HSPCB",27-02-2024 22:00:00,28.4417,77.3217,SO2,12,13,13
India,Haryana,Fatehabad,"Huda Sector, Fatehabad - HSPCB",27-02-2024 22:00:00,29.503664,75.467934,PM2.5,53,141,82
India,Haryana,Fatehabad,"Huda Sector, Fatehabad - HSPCB",27-02-2024 22:00:00,29.503664,75.467934,SO2,5,20,9
India,Haryana,Gurugram,"Sector-51, Gurugram - HSPCB",27-02-2024 22:00:00,28.4227,77.0667,NO2,13,29,23
India,Haryana,Gurugram,"Vikas Sadan, Gurugram - HSPCB",27-02-2024 22:00:00,28.4501238,77.0263051,PM2.5,14,135,57
India,Haryana,Gurugram,"Vikas Sadan, Gurugram - HSPCB",27-02-2024 22:00:00,28.4501238,77.0263051,SO2,33,67,43
India,Haryana,Hisar,"Urban Estate-II, Hisar - HSPCB",27-02-2024 22:00:00,29.140560,75.744941,PM2.5,38,95,67
India,Haryana,Hisar,"Urban Estate-II, Hisar - HSPCB",27-02-2024 22:00:00,29.140560,75.744941,CO,40,143,75
India,Haryana,Kurukshetra,"Sector-7, Kurukshetra - HSPCB",27-02-2024 22:00:00,29.966942,76.875879,PM2.5,49,88,66
India,Haryana,Kurukshetra,"Sector-7, Kurukshetra - HSPCB",27-02-2024 22:00:00,29.966942,76.875879,OZONE,18,58,41
India,Haryana,Manesar,"Sector-2 IMT, Manesar - HSPCB",27-02-2024 22:00:00,28.360699,76.936090,NH3,7,17,11
India,Haryana,Narnaul,"Shastri Nagar, Narnaul - HSPCB",27-02-2024 22:00:00,28.060249,76.113115,PM2.5,15,60,38
India,Haryana,Narnaul,"Shastri Nagar, Narnaul - HSPCB",27-02-2024 22:00:00,28.060249,76.113115,PM10,18,72,46
India,Haryana,Palwal,"Shyam Nagar, Palwal - HSPCB",27-02-2024 22:00:00,28.1485564,77.3320667,PM10,66,201,132
India,Haryana,Panchkula,"Sector-6, Panchkula - HSPCB ",27-02-2024 22:00:00,30.7057778,76.8531805555555,NO2,28,31,29
India,Haryana,Panchkula,"Sector-6, Panchkula - HSPCB ",27-02-2024 22:00:00,30.7057778,76.8531805555555,SO2,11,12,12
India,Haryana,Panipat,"Sector-18, Panipat - HSPCB",27-02-2024 22:00:00,29.497973,76.993331,PM2.5,81,86,83
India,Haryana,Panipat,"Sector-18, Panipat - HSPCB",27-02-2024 22:00:00,29.497973,76.993331,NH3,2,3,2
India,Haryana,Panipat,"Sector-18, Panipat - HSPCB",27-02-2024 22:00:00,29.497973,76.993331,SO2,18,19,19
India,Haryana,Rohtak,"MD University, Rohtak - HSPCB",27-02-2024 22:00:00,28.52123,76.37138,SO2,5,9,7
India,Haryana,Sirsa,"F-Block, Sirsa - HSPCB",27-02-2024 22:00:00,29.536400,75.015800,SO2,1,14,7
India,Haryana,Yamuna Nagar,"Gobind Pura, Yamuna Nagar - HSPCB",27-02-2024 22:00:00,30.1480566,77.2893471,PM10,89,127,108
India,Haryana,Yamuna Nagar,"Gobind Pura, Yamuna Nagar - HSPCB",27-02-2024 22:00:00,30.1480566,77.2893471,NH3,1,6,3
India,Haryana,Yamuna Nagar,"Gobind Pura, Yamuna Nagar - HSPCB",27-02-2024 22:00:00,30.1480566,77.2893471,SO2,1,22,6
India,Haryana,Yamuna Nagar,"Gobind Pura, Yamuna Nagar - HSPCB",27-02-2024 22:00:00,30.1480566,77.2893471,CO,40,71,52
India,Haryana,Yamuna Nagar,"Gobind Pura, Yamuna Nagar - HSPCB",27-02-2024 22:00:00,30.1480566,77.2893471,OZONE,20,30,28
India,Himachal Pradesh,Baddi,"HIMUDA Complex Phase-1, Baddi - HPPCB",27-02-2024 22:00:00,30.943887,76.801991,NO2,23,101,40
India,Himachal Pradesh,Baddi,"HIMUDA Complex Phase-1, Baddi - HPPCB",27-02-2024 22:00:00,30.943887,76.801991,OZONE,18,107,74
India,Jharkhand,Dhanbad,"Sardar Patel Nagar, Dhanbad - JSPCB",27-02-2024 22:00:00,23.80569,86.44268,SO2,8,115,32
India,Jharkhand,Dhanbad,"Sardar Patel Nagar, Dhanbad - JSPCB",27-02-2024 22:00:00,23.80569,86.44268,OZONE,9,38,25
India,Jharkhand,Pathardih,"Mohalbani Ghat, Pathardih - DMC",27-02-2024 22:00:00,23.669880,86.411725,NO2,14,186,87
India,Karnataka,Bagalkot,"Vidayagiri, Bagalkot - KSPCB",27-02-2024 22:00:00,16.172806,75.659694,NO2,9,11,9
India,Karnataka,Bagalkot,"Vidayagiri, Bagalkot - KSPCB",27-02-2024 22:00:00,16.172806,75.659694,NH3,1,2,1
India,Karnataka,Bagalkot,"Vidayagiri, Bagalkot - KSPCB",27-02-2024 22:00:00,16.172806,75.659694,CO,12,54,35
India,Karnataka,Belgaum,"Ramteerth Nagar, Belgaum - KSPCB",27-02-2024 22:00:00,15.888653,74.541751,PM10,32,94,53
India,Karnataka,Belgaum,"Ramteerth Nagar, Belgaum - KSPCB",27-02-2024 22:00:00,15.888653,74.541751,NO2,26,29,27
India,Karnataka,Belgaum,"Ramteerth Nagar, Belgaum - KSPCB",27-02-2024 22:00:00,15.888653,74.541751,SO2,8,9,8
India,Karnataka,Bengaluru,"BTM Layout, Bengaluru - CPCB",27-02-2024 22:00:00,12.9135218,77.5950804,PM10,40,58,48
India,Karnataka,Bengaluru,"Bapuji Nagar, Bengaluru - KSPCB",27-02-2024 22:00:00,12.951913,77.539784,PM2.5,45,70,55
India,Karnataka,Bengaluru,"City Railway Station, Bengaluru - KSPCB",27-02-2024 22:00:00,12.9756843,77.5660749,PM10,59,80,69
India,Karnataka,Bengaluru,"City Railway Station, Bengaluru - KSPCB",27-02-2024 22:00:00,12.9756843,77.5660749,NO2,23,37,30
India,Karnataka,Bengaluru,"Jayanagar 5th Block, Bengaluru - KSPCB",27-02-2024 22:00:00,12.920984,77.584908,NO2,10,12,11
India,Karnataka,Bengaluru,"Jigani, Bengaluru - KSPCB",27-02-2024 22:00:00,12.7816279,77.6299145,NH3,4,4,4
India,Karnataka,Bengaluru,"Jigani, Bengaluru - KSPCB",27-02-2024 22:00:00,12.7816279,77.6299145,SO2,16,16,16
India,Karnataka,Bengaluru,"Jigani, Bengaluru - KSPCB",27-02-2024 22:00:00,12.7816279,77.6299145,OZONE,15,52,40
India,Karnataka,Bengaluru,"Kasturi Nagar, Bengaluru - KSPCB",27-02-2024 22:00:00,13.003872,77.664217,SO2,10,10,10
India,Karnataka,Bengaluru,"Kasturi Nagar, Bengaluru - KSPCB",27-02-2024 22:00:00,13.003872,77.664217,CO,22,25,24
India,Karnataka,Bengaluru,"Peenya, Bengaluru - CPCB",27-02-2024 22:00:00,13.0270199,77.494094,PM10,34,74,52
India,Karnataka,Bengaluru,"RVCE-Mailasandra, Bengaluru - KSPCB",27-02-2024 22:00:00,12.921418,77.502466,PM2.5,11,214,56
India,Karnataka,Bengaluru,"RVCE-Mailasandra, Bengaluru - KSPCB",27-02-2024 22:00:00,12.921418,77.502466,NO2,20,70,56
India,Karnataka,Bengaluru,"RVCE-Mailasandra, Bengaluru - KSPCB",27-02-2024 22:00:00,12.921418,77.502466,OZONE,16,43,28
India,Karnataka,Bengaluru,"Shivapura_Peenya, Bengaluru - KSPCB",27-02-2024 22:00:00,13.0246342,77.5080115,NH3,4,4,4
India,Karnataka,Bengaluru,"Silk Board, Bengaluru - KSPCB",27-02-2024 22:00:00,12.917348,77.622813,PM10,59,106,79
India,Karnataka,Bengaluru,"Silk Board, Bengaluru - KSPCB",27-02-2024 22:00:00,12.917348,77.622813,NO2,NA,NA,NA
India,Karnataka,Bidar,"Naubad, Bidar - KSPCB",27-02-2024 22:00:00,17.930306,77.482194,NO2,7,8,8
India,Karnataka,Chamarajanagar,"Urban, Chamarajanagar - KSPCB",27-02-2024 22:00:00,11.55358,76.55521,NH3,1,2,2
India,Karnataka,Chikkaballapur,"Chikkaballapur Rural, Chikkaballapur - KSPCB",27-02-2024 22:00:00,13.428828,77.731418,PM2.5,44,88,62
India,Karnataka,Chikkaballapur,"Chikkaballapur Rural, Chikkaballapur - KSPCB",27-02-2024 22:00:00,13.428828,77.731418,SO2,10,18,15
India,Karnataka,Davanagere,"Devaraj Urs Badavane, Davanagere - KSPCB",27-02-2024 22:00:00,14.475800,75.905200,PM10,26,201,63
India,Karnataka,Gadag,"Panchal Nagar, Gadag - KSPCB",27-02-2024 22:00:00,15.411456,75.638133,PM10,21,123,38
India,Karnataka,Hassan,"B.Katihalli, Hassan - KSPCB",27-02-2024 22:00:00,13.008556,76.125258,NO2,1,2,1
India,Karnataka,Hassan,"B.Katihalli, Hassan - KSPCB",27-02-2024 22:00:00,13.008556,76.125258,NH3,1,3,2
India,Karnataka,Hubballi,"Deshpande Nagar, Hubballi - KSPCB",27-02-2024 22:00:00,15.351773,75.140726,NH3,7,9,8
India,Karnataka,Kalaburagi,"Mahatma Basaveswar Colony, Kalaburgi - KSPCB",27-02-2024 22:00:00,17.336318,76.847397,SO2,3,4,3
India,Karnataka,Karwar,"KHB Colony, Karwar - KSPCB",27-02-2024 22:00:00,14.816666,74.141003,OZONE,21,22,22
India,Karnataka,Kolar,"Tamaka Ind. Area, Kolar - KSPCB",27-02-2024 22:00:00,13.1276288,78.1570122,PM10,NA,NA,NA
India,Karnataka,Kolar,"Tamaka Ind. Area, Kolar - KSPCB",27-02-2024 22:00:00,13.1276288,78.1570122,NH3,NA,NA,NA
India,Karnataka,Kolar,"Tamaka Ind. Area, Kolar - KSPCB",27-02-2024 22:00:00,13.1276288,78.1570122,CO,9,9,9
India,Karnataka,Koppal,"Diwator Nagar, Koppal - KSPCB",27-02-2024 22:00:00,15.347630,76.181767,CO,34,64,37
India,Karnataka,Koppal,"Diwator Nagar, Koppal - KSPCB",27-02-2024 22:00:00,15.347630,76.181767,OZONE,1,52,32
India,Karnataka,Madikeri,"Stuart Hill, Madikeri - KSPCB",27-02-2024 22:00:00,12.415911,75.735050,OZONE,18,24,22
India,Karnataka,Mangalore,"Kadri, Mangalore - KSPCB",27-02-2024 22:00:00,12.889250,74.853000,PM2.5,37,232,65
India,Karnataka,Mangalore,"Kadri, Mangalore - KSPCB",27-02-2024 22:00:00,12.889250,74.853000,SO2,18,21,20
India,Karnataka,Mangalore,"Kadri, Mangalore - KSPCB",27-02-2024 22:00:00,12.889250,74.853000,CO,34,51,38
India,Karnataka,Mysuru,"Hebbal 1st Stage, Mysuru - KSPCB",27-02-2024 22:00:00,12.21041,76.37376,PM2.5,24,52,36
India,Karnataka,Mysuru,"Hebbal 1st Stage, Mysuru - KSPCB",27-02-2024 22:00:00,12.21041,76.37376,CO,2,25,14
India,Karnataka,Raichur,"Haji Colony, Raichur - KSPCB",27-02-2024 22:00:00,16.208139,77.348417,CO,80,105,102
India,Karnataka,Ramanagara,"Vijay Nagar, Ramanagara - KSPCB",27-02-2024 22:00:00,12.733409,77.298051,NO2,1,9,4
India,Karnataka,Ramanagara,"Vijay Nagar, Ramanagara - KSPCB",27-02-2024 22:00:00,12.733409,77.298051,CO,4,24,14
India,Karnataka,Ramanagara,"Vijay Nagar, Ramanagara - KSPCB",27-02-2024 22:00:00,12.733409,77.298051,OZONE,27,30,28
India,Karnataka,Shivamogga,"Vinoba Nagara, Shivamogga - KSPCB",27-02-2024 22:00:00,13.940000,75.555917,SO2,1,14,7
India,Karnataka,Udupi,"Brahmagiri, Udupi - KSPCB",27-02-2024 22:00:00,13.34194444,74.74694444,NH3,1,2,2
India,Karnataka,Vijayapura,"Ibrahimpur, Vijayapura - KSPCB",27-02-2024 22:00:00,16.802639,75.722694,PM10,38,39,39
India,Kerala,Kannur,"Thavakkara, Kannur - Kerala PCB",27-02-2024 22:00:00,11.875000,75.373200,SO2,5,6,6
India,Kerala,Kollam,"Polayathode, Kollam - Kerala PCB",27-02-2024 22:00:00,8.8787,76.6073,SO2,1,6,3
India,Kerala,Thiruvananthapuram,"Kariavattom, Thiruvananthapuram - Kerala PCB",27-02-2024 22:00:00,8.563700,76.886500,NO2,8,9,9
India,Kerala,Thrissur,"Corporation Ground, Thrissur - Kerala PCB",27-02-2024 22:00:00,10.532400,76.215900,PM2.5,43,51,47
India,Kerala,Thrissur,"Corporation Ground, Thrissur - Kerala PCB",27-02-2024 22:00:00,10.532400,76.215900,NH3,NA,NA,NA
India,Kerala,Thrissur,"Corporation Ground, Thrissur - Kerala PCB",27-02-2024 22:00:00,10.532400,76.215900,SO2,NA,NA,NA
India,Madhya Pradesh,Bhopal,"Idgah Hills, Bhopal - MPPCB",27-02-2024 22:00:00,23.264759,77.381568,PM2.5,43,107,68
India,Madhya Pradesh,Bhopal,"Paryavaran Parisar, Bhopal - MPPCB",27-02-2024 22:00:00,23.210494,77.425409,PM2.5,28,133,75
India,Madhya Pradesh,Bhopal,"Paryavaran Parisar, Bhopal - MPPCB",27-02-2024 22:00:00,23.210494,77.425409,PM10,64,142,98
India,Madhya Pradesh,Bhopal,"Paryavaran Parisar, Bhopal - MPPCB",27-02-2024 22:00:00,23.210494,77.425409,NO2,12,40,27
India,Madhya Pradesh,Gwalior,"City Center, Gwalior - MPPCB",27-02-2024 22:00:00,26.203442,78.193251,CO,43,109,66
India,Madhya Pradesh,Gwalior,"Deen Dayal Nagar, Gwalior - MPPCB",27-02-2024 22:00:00,26.259242,78.216432,CO,76,101,88
India,Madhya Pradesh,Gwalior,"Maharaj Bada, Gwalior - MPPCB",27-02-2024 22:00:00,26.200388,78.147714,SO2,13,30,20
India,Madhya Pradesh,Gwalior,"Maharaj Bada, Gwalior - MPPCB",27-02-2024 22:00:00,26.200388,78.147714,OZONE,10,151,101
India,Madhya Pradesh,Gwalior,"Phool Bagh, Gwalior - Mondelez Ind. Food",27-02-2024 22:00:00,26.210536,78.171,PM10,19,147,118
India,Madhya Pradesh,Gwalior,"Phool Bagh, Gwalior - Mondelez Ind. Food",27-02-2024 22:00:00,26.210536,78.171,CO,32,36,33
India,Madhya Pradesh,Indore,"Chhoti Gwaltoli, Indore - MPPCB",27-02-2024 22:00:00,22.4310,75.5213,SO2,14,31,18
India,Madhya Pradesh,Indore,"Chhoti Gwaltoli, Indore - MPPCB",27-02-2024 22:00:00,22.4310,75.5213,CO,43,94,70
India,Madhya Pradesh,Indore,"Residency Area, Indore - IMC",27-02-2024 22:00:00,22.7084,75.8815,NO2,38,52,44
India,Madhya Pradesh,Indore,"Residency Area, Indore - IMC",27-02-2024 22:00:00,22.7084,75.8815,SO2,22,25,23
India,Madhya Pradesh,Jabalpur,"Govindh Bhavan Colony, Jabalpur - JMC",27-02-2024 22:00:00,23.163174,79.973061,PM2.5,43,85,60
India,Madhya Pradesh,Jabalpur,"Gupteshwar, Jabalpur - JMC",27-02-2024 22:00:00,23.142888,79.916147,PM10,60,115,88
India,Madhya Pradesh,Jabalpur,"Gupteshwar, Jabalpur - JMC",27-02-2024 22:00:00,23.142888,79.916147,OZONE,19,112,80
India,Madhya Pradesh,Jabalpur,"Marhatal, Jabalpur - MPPCB",27-02-2024 22:00:00,23.168606,79.932247,NO2,19,43,28
India,Madhya Pradesh,Jabalpur,"Marhatal, Jabalpur - MPPCB",27-02-2024 22:00:00,23.168606,79.932247,SO2,4,13,9
India,Madhya Pradesh,Jabalpur,"Suhagi, Jabalpur - JMC",27-02-2024 22:00:00,23.218135,79.957770,OZONE,10,61,41
India,Madhya Pradesh,Maihar,"Sahilara, Maihar - KJS Cements",27-02-2024 22:00:00,24.2613009,80.7231783,NO2,14,14,14
India,Madhya Pradesh,Maihar,"Sahilara, Maihar - KJS Cements",27-02-2024 22:00:00,24.2613009,80.7231783,SO2,14,38,18
India,Madhya Pradesh,Mandideep,"Sector-D Industrial Area, Mandideep - MPPCB",27-02-2024 22:00:00,23.108440,77.511428,PM2.5,40,334,142
India,Madhya Pradesh,Mandideep,"Sector-D Industrial Area, Mandideep - MPPCB",27-02-2024 22:00:00,23.108440,77.511428,OZONE,27,48,44
India,Madhya Pradesh,Pithampur,"Sector-2 Industrial Area, Pithampur - MPPCB",27-02-2024 22:00:00,22.624758,75.675238,SO2,9,15,12
India,Madhya Pradesh,Pithampur,"Sector-2 Industrial Area, Pithampur - MPPCB",27-02-2024 22:00:00,22.624758,75.675238,OZONE,36,63,54
India,Madhya Pradesh,Sagar,"Civil Lines, Sagar - MPPCB",27-02-2024 22:00:00,23.838586,78.759431,PM10,63,127,90
India,Madhya Pradesh,Sagar,"Civil Lines, Sagar - MPPCB",27-02-2024 22:00:00,23.838586,78.759431,NH3,7,12,9
India,Madhya Pradesh,Sagar,"Civil Lines, Sagar - MPPCB",27-02-2024 22:00:00,23.838586,78.759431,SO2,4,6,5
India,Madhya Pradesh,Sagar,"Civil Lines, Sagar - MPPCB",27-02-2024 22:00:00,23.838586,78.759431,CO,16,32,29
India,Madhya Pradesh,Sagar,"Deen Dayal Nagar, Sagar - MPPCB",27-02-2024 22:00:00,23.8640158,78.80289321,PM10,22,103,53
India,Madhya Pradesh,Sagar,"Deen Dayal Nagar, Sagar - MPPCB",27-02-2024 22:00:00,23.8640158,78.80289321,CO,16,100,39
India,Madhya Pradesh,Satna,"Bandhavgar Colony, Satna - Birla Cement",27-02-2024 22:00:00,24.58434363,80.8549414,NO2,7,28,11
India,Madhya Pradesh,Satna,"Bandhavgar Colony, Satna - Birla Cement",27-02-2024 22:00:00,24.58434363,80.8549414,OZONE,60,85,63
India,Madhya Pradesh,Singrauli,"Suryakiran Bhawan NCL, Singrauli - MPPCB",27-02-2024 22:00:00,24.108970,82.645580,PM2.5,80,271,185
India,Madhya Pradesh,Singrauli,"Suryakiran Bhawan NCL, Singrauli - MPPCB",27-02-2024 22:00:00,24.108970,82.645580,PM10,87,214,145
India,Maharashtra,Akola,"Ramdaspeth, Akola - MPCB",27-02-2024 22:00:00,20.719516,77.000253,SO2,4,13,6
India,Maharashtra,Akola,"Ramdaspeth, Akola - MPCB",27-02-2024 22:00:00,20.719516,77.000253,OZONE,12,78,58
India,Maharashtra,Amravati,"Shivneri Colony, Amravati - MPCB",27-02-2024 22:00:00,20.9402359,77.7895248,PM10,65,107,90
India,Maharashtra,Aurangabad,"MIDC Chilkalthana, Aurangabad - MPCB",27-02-2024 22:00:00,19.875620,75.387310,NO2,18,22,20
India,Maharashtra,Aurangabad,"MIDC Chilkalthana, Aurangabad - MPCB",27-02-2024 22:00:00,19.875620,75.387310,SO2,1,7,4
India,Maharashtra,Aurangabad,"More Chowk Waluj, Aurangabad - MPCB",27-02-2024 22:00:00,19.8389439,75.244448,CO,16,38,23
India,Maharashtra,Badlapur,"Katrap, Badlapur - MPCB",27-02-2024 22:00:00,19.16485,73.23409,PM10,55,283,139
India,Maharashtra,Belapur,"CBD Belapur, Belapur - MPCB",27-02-2024 22:00:00,19.0243902,73.0406721,PM10,91,427,164
India,Maharashtra,Belapur,"CBD Belapur, Belapur - MPCB",27-02-2024 22:00:00,19.0243902,73.0406721,OZONE,1,85,44
India,Maharashtra,Chandrapur,"MIDC Khutala, Chandrapur - MPCB",27-02-2024 22:00:00,19.9775302,79.2337086,CO,16,75,41
India,Maharashtra,Chandrapur,"MIDC Khutala, Chandrapur - MPCB",27-02-2024 22:00:00,19.9775302,79.2337086,OZONE,1,1,1
India,Maharashtra,Dhule,"Deopur, Dhule - MPCB",27-02-2024 22:00:00,20.918946,74.776388,PM2.5,130,399,195
India,Maharashtra,Jalgaon,"Prabhat Colony, Jalgaon - MPCB",27-02-2024 22:00:00,21.001264,75.565602,PM2.5,48,140,86
India,Maharashtra,Jalgaon,"Prabhat Colony, Jalgaon - MPCB",27-02-2024 22:00:00,21.001264,75.565602,NH3,1,2,1
India,Maharashtra,Jalgaon,"Prabhat Colony, Jalgaon - MPCB",27-02-2024 22:00:00,21.001264,75.565602,CO,4,29,18
India,Maharashtra,Jalna,"Old MIDC, Jalna - MPCB",27-02-2024 22:00:00,19.854616,75.905894,CO,24,31,29
India,Maharashtra,Jalna,"Old MIDC, Jalna - MPCB",27-02-2024 22:00:00,19.854616,75.905894,OZONE,37,266,132
India,Maharashtra,Kalyan,"Khadakpada, Kalyan - MPCB",27-02-2024 22:00:00,19.25292,73.142019,NH3,NA,NA,NA
India,Maharashtra,Kolhapur,"Sinchan Bhavan, Kolhapur - MPCB",27-02-2024 22:00:00,16.7143745,74.2426398,NH3,7,8,8
India,Maharashtra,Kolhapur,"Sinchan Bhavan, Kolhapur - MPCB",27-02-2024 22:00:00,16.7143745,74.2426398,SO2,2,15,4
India,Maharashtra,Malegaon,"Mahesh Nagar, Malegaon - MPCB",27-02-2024 22:00:00,20.555712,74.529236,SO2,7,13,10
India,Maharashtra,Mira-Bhayandar,"Bhayandar West, Mira-Bhayandar - MPCB",27-02-2024 22:00:00,19.296481,72.840923,PM2.5,91,274,175
India,Maharashtra,Mumbai,"Bandra Kurla Complex, Mumbai - MPCB",27-02-2024 22:00:00,19.065931,72.862131,PM10,75,420,187
India,Maharashtra,Mumbai,"Bandra Kurla Complex, Mumbai - MPCB",27-02-2024 22:00:00,19.065931,72.862131,SO2,1,9,4
India,Maharashtra,Mumbai,"Borivali East, Mumbai - IITM",27-02-2024 22:00:00,19.23241,72.86895,NH3,2,3,2
India,Maharashtra,Mumbai,"Borivali East, Mumbai - MPCB",27-02-2024 22:00:00,19.2243333,72.8658113,PM2.5,NA,NA,NA
India,Maharashtra,Mumbai,"Borivali East, Mumbai - MPCB",27-02-2024 22:00:00,19.2243333,72.8658113,SO2,NA,NA,NA
India,Maharashtra,Mumbai,"Borivali East, Mumbai - MPCB",27-02-2024 22:00:00,19.2243333,72.8658113,CO,2,37,22
India,Maharashtra,Mumbai,"Byculla, Mumbai - BMC",27-02-2024 22:00:00,18.9767,72.8380,PM10,59,124,100
India,Maharashtra,Mumbai,"Byculla, Mumbai - BMC",27-02-2024 22:00:00,18.9767,72.8380,OZONE,1,130,99
India,Maharashtra,Mumbai,"Chakala-Andheri East, Mumbai - IITM",27-02-2024 22:00:00,19.11074,72.86084,CO,16,131,33
India,Maharashtra,Mumbai,"Chembur, Mumbai - MPCB",27-02-2024 22:00:00,19.0364585,72.8954371,CO,32,53,41
India,Maharashtra,Mumbai,"Chhatrapati Shivaji Intl. Airport (T2), Mumbai - MPCB",27-02-2024 22:00:00,19.10078,72.87462,NO2,6,87,47
India,Maharashtra,Mumbai,"Chhatrapati Shivaji Intl. Airport (T2), Mumbai - MPCB",27-02-2024 22:00:00,19.10078,72.87462,CO,63,113,77
India,Maharashtra,Mumbai,"Colaba, Mumbai - MPCB",27-02-2024 22:00:00,18.910000,72.820000,PM2.5,42,117,70
India,Maharashtra,Mumbai,"Colaba, Mumbai - MPCB",27-02-2024 22:00:00,18.910000,72.820000,PM10,59,159,94
India,Maharashtra,Mumbai,"Kandivali East, Mumbai - MPCB",27-02-2024 22:00:00,19.205800,72.868200,PM2.5,24,55,39
India,Maharashtra,Mumbai,"Kandivali West, Mumbai - BMC",27-02-2024 22:00:00,19.215859,72.831718,PM10,64,138,105
India,Maharashtra,Mumbai,"Khindipada-Bhandup West, Mumbai - IITM",27-02-2024 22:00:00,19.1653323,72.922099,PM2.5,83,270,137
India,Maharashtra,Mumbai,"Khindipada-Bhandup West, Mumbai - IITM",27-02-2024 22:00:00,19.1653323,72.922099,NH3,9,21,12
India,Maharashtra,Mumbai,"Khindipada-Bhandup West, Mumbai - IITM",27-02-2024 22:00:00,19.1653323,72.922099,OZONE,7,60,33
India,Maharashtra,Mumbai,"Mazgaon, Mumbai - IITM",27-02-2024 22:00:00,18.96702,72.84214,PM10,113,205,145
India,Maharashtra,Mumbai,"Mazgaon, Mumbai - IITM",27-02-2024 22:00:00,18.96702,72.84214,SO2,1,29,11
India,Maharashtra,Mumbai,"Mulund West, Mumbai - MPCB",27-02-2024 22:00:00,19.1750,72.9419,NO2,20,42,25
India,Maharashtra,Mumbai,"Mulund West, Mumbai - MPCB",27-02-2024 22:00:00,19.1750,72.9419,SO2,14,15,14
India,Maharashtra,Mumbai,"Navy Nagar-Colaba, Mumbai - IITM",27-02-2024 22:00:00,18.897756,72.813320,OZONE,4,126,98
India,Maharashtra,Mumbai,"Powai, Mumbai - MPCB",27-02-2024 22:00:00,19.137500,72.915056,OZONE,34,164,96
India,Maharashtra,Mumbai,"Sewri, Mumbai - BMC",27-02-2024 22:00:00,19.000084,72.856730,PM10,93,165,116
India,Maharashtra,Mumbai,"Shivaji Nagar, Mumbai - BMC",27-02-2024 22:00:00,19.060498,72.923356,PM2.5,NA,NA,NA
India,Maharashtra,Mumbai,"Siddharth Nagar-Worli, Mumbai - IITM",27-02-2024 22:00:00,19.000083,72.813993,PM2.5,108,332,267
India,Maharashtra,Mumbai,"Siddharth Nagar-Worli, Mumbai - IITM",27-02-2024 22:00:00,19.000083,72.813993,CO,26,69,35
India,Maharashtra,Mumbai,"Siddharth Nagar-Worli, Mumbai - IITM",27-02-2024 22:00:00,19.000083,72.813993,OZONE,3,121,106
India,Maharashtra,Mumbai,"Sion, Mumbai - MPCB",27-02-2024 22:00:00,19.047000,72.874600,NO2,19,118,70
India,Maharashtra,Mumbai,"Sion, Mumbai - MPCB",27-02-2024 22:00:00,19.047000,72.874600,SO2,35,41,38
India,Maharashtra,Mumbai,"Vasai West, Mumbai - MPCB",27-02-2024 22:00:00,19.383200,72.820400,PM10,52,225,134
India,Maharashtra,Mumbai,"Vasai West, Mumbai - MPCB",27-02-2024 22:00:00,19.383200,72.820400,CO,20,72,27
India,Maharashtra,Mumbai,"Worli, Mumbai - MPCB",27-02-2024 22:00:00,18.9936162,72.8128113,PM10,70,155,112
India,Maharashtra,Mumbai,"Worli, Mumbai - MPCB",27-02-2024 22:00:00,18.9936162,72.8128113,SO2,9,11,10
India,Maharashtra,Mumbai,"Worli, Mumbai - MPCB",27-02-2024 22:00:00,18.9936162,72.8128113,CO,38,42,41
India,Maharashtra,Nagpur,"Opp GPO Civil Lines, Nagpur - MPCB",27-02-2024 22:00:00,21.152875,79.0517531,PM2.5,56,192,122
India,Maharashtra,Nagpur,"Opp GPO Civil Lines, Nagpur - MPCB",27-02-2024 22:00:00,21.152875,79.0517531,CO,16,116,59
India,Maharashtra,Nagpur,"Ram Nagar, Nagpur - MPCB",27-02-2024 22:00:00,21.143383,79.048912,PM2.5,46,140,82
India,Maharashtra,Nagpur,"Ram Nagar, Nagpur - MPCB",27-02-2024 22:00:00,21.143383,79.048912,NO2,8,66,23
India,Maharashtra,Nagpur,"Ram Nagar, Nagpur - MPCB",27-02-2024 22:00:00,21.143383,79.048912,SO2,15,29,19
India,Maharashtra,Nanded,"Sneh Nagar, Nanded - MPCB",27-02-2024 22:00:00,19.173852,77.296291,PM10,53,87,63
India,Maharashtra,Nanded,"Sneh Nagar, Nanded - MPCB",27-02-2024 22:00:00,19.173852,77.296291,OZONE,21,93,67
India,Maharashtra,Nashik,"Gangapur Road, Nashik - MPCB",27-02-2024 22:00:00,20.0073285,73.7762427,PM2.5,50,203,87
India,Maharashtra,Nashik,"Gangapur Road, Nashik - MPCB",27-02-2024 22:00:00,20.0073285,73.7762427,SO2,1,6,3
India,Maharashtra,Nashik,"Hirawadi, Nashik - MPCB",27-02-2024 22:00:00,20.021503,73.813844,PM10,54,129,97
India,Maharashtra,Nashik,"Hirawadi, Nashik - MPCB",27-02-2024 22:00:00,20.021503,73.813844,NO2,4,84,46
India,Maharashtra,Nashik,"Hirawadi, Nashik - MPCB",27-02-2024 22:00:00,20.021503,73.813844,SO2,3,41,6
India,Maharashtra,Nashik,"MIDC Ambad, Nashik - MPCB",27-02-2024 22:00:00,19.950220,73.731480,NH3,NA,NA,NA
India,Maharashtra,Nashik,"MIDC Ambad, Nashik - MPCB",27-02-2024 22:00:00,19.950220,73.731480,OZONE,60,100,76
India,Maharashtra,Nashik,"Pandav Nagari, Nashik - MPCB",27-02-2024 22:00:00,19.9591346,73.7788008,SO2,4,15,9
India,Maharashtra,Navi Mumbai,"Mahape, Navi Mumbai - MPCB",27-02-2024 22:00:00,19.1135051,73.008978,PM2.5,57,213,128
India,Maharashtra,Navi Mumbai,"Mahape, Navi Mumbai - MPCB",27-02-2024 22:00:00,19.1135051,73.008978,PM10,101,431,207
India,Maharashtra,Navi Mumbai,"Mahape, Navi Mumbai - MPCB",27-02-2024 22:00:00,19.1135051,73.008978,NH3,3,4,3
India,Maharashtra,Navi Mumbai,"Mahape, Navi Mumbai - MPCB",27-02-2024 22:00:00,19.1135051,73.008978,SO2,26,27,26
India,Maharashtra,Navi Mumbai,"Nerul, Navi Mumbai - MPCB",27-02-2024 22:00:00,19.008751,73.016620,PM2.5,66,326,189
India,Maharashtra,Navi Mumbai,"Sanpada, Navi Mumbai - MPCB",27-02-2024 22:00:00,19.0575752,73.0151367,PM10,101,246,168
India,Maharashtra,Navi Mumbai,"Sanpada, Navi Mumbai - MPCB",27-02-2024 22:00:00,19.0575752,73.0151367,NH3,5,8,7
India,Maharashtra,Navi Mumbai,"Sanpada, Navi Mumbai - MPCB",27-02-2024 22:00:00,19.0575752,73.0151367,CO,8,88,25
India,Maharashtra,Navi Mumbai,"Sanpada, Navi Mumbai - MPCB",27-02-2024 22:00:00,19.0575752,73.0151367,OZONE,1,92,47
India,Maharashtra,Navi Mumbai,"Sector-19A Nerul, Navi Mumbai - IITM",27-02-2024 22:00:00,19.044,73.0325,PM10,120,299,197
India,Maharashtra,Navi Mumbai,"Sector-19A Nerul, Navi Mumbai - IITM",27-02-2024 22:00:00,19.044,73.0325,NH3,12,27,19
India,Maharashtra,Navi Mumbai,"Sector-2E Kalamboli, Navi Mumbai - MPCB",27-02-2024 22:00:00,19.02579,73.10297,PM2.5,75,185,108
India,Maharashtra,Navi Mumbai,"Sector-2E Kalamboli, Navi Mumbai - MPCB",27-02-2024 22:00:00,19.02579,73.10297,NO2,43,118,77
India,Maharashtra,Navi Mumbai,"Tondare-Taloja, Navi Mumbai - MPCB",27-02-2024 22:00:00,19.0630,73.1209,NO2,25,178,94
India,Maharashtra,Parbhani,"Masoom Colony, Parbhani - MPCB",27-02-2024 22:00:00,19.265594,76.761463,PM2.5,53,79,67
India,Maharashtra,Parbhani,"Masoom Colony, Parbhani - MPCB",27-02-2024 22:00:00,19.265594,76.761463,NH3,2,3,3
India,Maharashtra,Pimpri-Chinchwad,"Gavalinagar, Pimpri Chinchwad - MPCB",27-02-2024 22:00:00,18.63673,73.82487,PM2.5,77,167,123
India,Maharashtra,Pimpri-Chinchwad,"Park Street Wakad, Pimpri Chinchwad - MPCB",27-02-2024 22:00:00,18.59051,73.77946,NH3,6,14,10
India,Maharashtra,Pune,"Karve Road, Pune - MPCB",27-02-2024 22:00:00,18.5011743,73.8165527,OZONE,NA,NA,NA
India,Maharashtra,Pune,"Katraj Dairy, Pune - MPCB",27-02-2024 22:00:00,18.454450,73.854155,NO2,26,59,44
India,Maharashtra,Pune,"Mhada Colony, Pune - IITM",27-02-2024 22:00:00,18.573040,73.927715,PM10,60,133,96
India,Maharashtra,Pune,"Revenue Colony-Shivajinagar, Pune - IITM",27-02-2024 22:00:00,18.530085,73.849598,PM2.5,68,128,90
India,Maharashtra,Pune,"Revenue Colony-Shivajinagar, Pune - IITM",27-02-2024 22:00:00,18.530085,73.849598,PM10,79,125,102
India,Maharashtra,Pune,"Revenue Colony-Shivajinagar, Pune - IITM",27-02-2024 22:00:00,18.530085,73.849598,NO2,111,174,139
India,Maharashtra,Pune,"Savitribai Phule Pune University, Pune - MPCB",27-02-2024 22:00:00,18.547056,73.826908,PM2.5,70,157,105
India,Maharashtra,Pune,"Savitribai Phule Pune University, Pune - MPCB",27-02-2024 22:00:00,18.547056,73.826908,CO,26,87,33
India,Maharashtra,Pune,"Transport Nagar-Nigdi, Pune - IITM",27-02-2024 22:00:00,18.664282,73.763966,NO2,14,19,17
India,Maharashtra,Pune,"Transport Nagar-Nigdi, Pune - IITM",27-02-2024 22:00:00,18.664282,73.763966,CO,40,64,56
India,Maharashtra,Sangli,"Vijay Nagar, Sangli - MPCB",27-02-2024 22:00:00, 16.5038,74.3623,NH3,1,4,2
India,Maharashtra,Solapur,"Dnyaneshwar Nagar, Solapur - MPCB",27-02-2024 22:00:00,17.6336264,75.9132495,CO,8,121,47
India,Maharashtra,Solapur,"Ratandeep Housing Society, Solapur - MPCB",27-02-2024 22:00:00,17.65439,75.90649,NH3,7,23,11
India,Maharashtra,Thane,"Kasarvadavali, Thane - MPCB",27-02-2024 22:00:00,19.26777,72.97182,PM10,106,127,115
India,Maharashtra,Thane,"Pimpleshwar Mandir, Thane - MPCB",27-02-2024 22:00:00,19.192056,72.9585188,CO,12,116,78
India,Maharashtra,Thane,"Pimpleshwar Mandir, Thane - MPCB",27-02-2024 22:00:00,19.192056,72.9585188,OZONE,3,70,41
India,Maharashtra,Thane,"Upvan Fort, Thane - MPCB",27-02-2024 22:00:00,19.222279,72.957979,NH3,11,18,14
India,Maharashtra,Ulhasnagar,"Sidhi Vinayak Nagar, Ulhasnagar - MPCB",27-02-2024 22:00:00,19.235581,73.159121,PM2.5,74,254,174
India,Maharashtra,Virar,"Bolinj, Virar - MPCB",27-02-2024 22:00:00,19.4458210,72.7988231,PM10,64,285,162
India,Meghalaya,Shillong,"Lumpyngngad, Shillong - Meghalaya PCB",27-02-2024 22:00:00,25.5586,91.8985,PM2.5,28,153,62
India,Meghalaya,Shillong,"Lumpyngngad, Shillong - Meghalaya PCB",27-02-2024 22:00:00,25.5586,91.8985,NO2,5,7,6
India,Odisha,Balasore,"Kalidaspur, Balasore - OSPCB",27-02-2024 22:00:00,21.51161,86.89088,CO,69,105,81
India,Odisha,Barbil,"Forest Office, Barbil - OSPCB",27-02-2024 22:00:00,22.1166054,85.3945546,PM2.5,7,273,122
India,Odisha,Barbil,"Forest Office, Barbil - OSPCB",27-02-2024 22:00:00,22.1166054,85.3945546,SO2,1,33,10
India,Odisha,Barbil,"Forest Office, Barbil - OSPCB",27-02-2024 22:00:00,22.1166054,85.3945546,CO,21,102,54
India,Odisha,Baripada,"Meher Colony, Baripada - OSPCB",27-02-2024 22:00:00,21.941841,86.728318,SO2,5,7,6
India,Odisha,Baripada,"Meher Colony, Baripada - OSPCB",27-02-2024 22:00:00,21.941841,86.728318,OZONE,11,68,48
India,Odisha,Bhubaneswar,"Lingraj Mandir, Bhubaneswar - OSPCB",27-02-2024 22:00:00,20.240790,85.836784,SO2,7,22,13
India,Odisha,Bhubaneswar,"Patia, Bhubaneswar - OSPCB",27-02-2024 22:00:00,20.34652,85.81630,NO2,3,42,17
India,Odisha,Brajrajnagar,"GM Office, Brajrajnagar - OSPCB",27-02-2024 22:00:00,21.8004996,83.8396977,CO,50,102,60
India,Odisha,Brajrajnagar,"GM Office, Brajrajnagar - OSPCB",27-02-2024 22:00:00,21.8004996,83.8396977,OZONE,14,21,20
India,Odisha,Byasanagar,"Ferro Chrome Colony, Byasanagar - OSPCB",27-02-2024 22:00:00,20.94185,86.11510,NO2,14,27,18
India,Odisha,Cuttack,"CDA Area, Cuttack - OSPCB",27-02-2024 22:00:00,20.48891     ,85.84768     ,SO2,8,33,14
India,Odisha,Keonjhar,"Jagamohanpur, Keonjhar - OSPCB",27-02-2024 22:00:00,21.643900,85.599355,OZONE,1,55,19
India,Odisha,Rairangpur,"Divisional Forest Office, Rairangpur - OSPCB",27-02-2024 22:00:00,22.265816,86.174829,PM10,99,126,109
India,Odisha,Rairangpur,"Divisional Forest Office, Rairangpur - OSPCB",27-02-2024 22:00:00,22.265816,86.174829,CO,14,26,18
India,Odisha,Rourkela,"Fertilizer Township, Rourkela - OSPCB",27-02-2024 22:00:00,22.18972222,84.86277778,PM10,68,285,113
India,Odisha,Rourkela,"Fertilizer Township, Rourkela - OSPCB",27-02-2024 22:00:00,22.18972222,84.86277778,CO,10,30,20
India,Odisha,Rourkela,"Raghunathpali, Rourkela - OSPCB",27-02-2024 22:00:00,22.220833,84.809444,CO,26,58,32
India,Odisha,Rourkela,"Sector-2, Rourkela - OSPCB",27-02-2024 22:00:00,22.24500000,84.88111111,PM2.5,65,304,129
India,Odisha,Rourkela,"Sector-2, Rourkela - OSPCB",27-02-2024 22:00:00,22.24500000,84.88111111,PM10,93,144,115
India,Odisha,Rourkela,"Sector-2, Rourkela - OSPCB",27-02-2024 22:00:00,22.24500000,84.88111111,CO,17,53,40
India,Odisha,Suakati,"OMC Colony, Suakati - OSPCB",27-02-2024 22:00:00,21.606865,85.510538,SO2,1,16,6
India,Odisha,Talcher,"Talcher Coalfields,Talcher - OSPCB",27-02-2024 22:00:00,20.9360711,85.1707021,NO2,NA,NA,NA
India,Odisha,Tensa,"Barsua Iron Ore Mines, Tensa - OSPCB",27-02-2024 22:00:00,21.869985,85.167016,PM2.5,55,125,77
India,Odisha,Tensa,"Barsua Iron Ore Mines, Tensa - OSPCB",27-02-2024 22:00:00,21.869985,85.167016,OZONE,2,37,26
India,Puducherry,Puducherry,"Jawahar Nagar, Puducherry - PPCC",27-02-2024 22:00:00,11.9309,79.8027,PM10,31,88,46
India,Puducherry,Puducherry,"Jawahar Nagar, Puducherry - PPCC",27-02-2024 22:00:00,11.9309,79.8027,OZONE,12,38,23
India,Punjab,Amritsar,"Golden Temple, Amritsar - PPCB",27-02-2024 22:00:00,31.620000,74.876512,PM10,58,125,82
India,Punjab,Amritsar,"Golden Temple, Amritsar - PPCB",27-02-2024 22:00:00,31.620000,74.876512,OZONE,24,32,28
India,Punjab,Bathinda,"Hardev Nagar, Bathinda - PPCB",27-02-2024 22:00:00,30.233011,74.907758,PM2.5,17,77,46
India,Punjab,Khanna,"Kalal Majra, Khanna - PPCB",27-02-2024 22:00:00,30.736056 ,76.209694,NO2,34,38,35
India,Punjab,Khanna,"Kalal Majra, Khanna - PPCB",27-02-2024 22:00:00,30.736056 ,76.209694,OZONE,2,51,35
India,Punjab,Patiala,"Model Town, Patiala - PPCB",27-02-2024 22:00:00,30.349388,76.366642,PM10,56,95,72
India,Punjab,Rupnagar,"Ratanpura, Rupnagar - Ambuja Cements",27-02-2024 22:00:00,31.0325454,76.5623046,CO,37,55,46
India,Rajasthan,Alwar,"Moti Doongri, Alwar - RSPCB",27-02-2024 22:00:00,27.554793,76.611536,PM2.5,20,78,42
India,Rajasthan,Alwar,"Moti Doongri, Alwar - RSPCB",27-02-2024 22:00:00,27.554793,76.611536,NH3,5,9,6
India,Rajasthan,Alwar,"Moti Doongri, Alwar - RSPCB",27-02-2024 22:00:00,27.554793,76.611536,SO2,5,56,22
India,Rajasthan,Banswara,"Rati Talai, Banswara - RSPCB",27-02-2024 22:00:00,23.555190,74.440010,SO2,NA,NA,NA
India,Rajasthan,Baran,"Bamboliya, Baran - RSPCB",27-02-2024 22:00:00,25.106006,76.469948,PM2.5,36,95,57
India,Rajasthan,Bhilwara,"Pratap Nagar, Bhilwara - RSPCB",27-02-2024 22:00:00,25.339605,74.618883,PM2.5,37,129,64
India,Rajasthan,Bhilwara,"Pratap Nagar, Bhilwara - RSPCB",27-02-2024 22:00:00,25.339605,74.618883,SO2,9,25,14
India,Rajasthan,Bhiwadi,"RIICO Ind. Area III, Bhiwadi - RSPCB",27-02-2024 22:00:00,28.194909,76.862296,NO2,21,38,29
India,Rajasthan,Bhiwadi,"RIICO Ind. Area III, Bhiwadi - RSPCB",27-02-2024 22:00:00,28.194909,76.862296,CO,2,111,49
India,Rajasthan,Bhiwadi,"Vasundhara Nagar_UIT, Bhiwadi - RSPCB",27-02-2024 22:00:00,28.207266,76.829265,PM10,45,282,136
India,Rajasthan,Bhiwadi,"Vasundhara Nagar_UIT, Bhiwadi - RSPCB",27-02-2024 22:00:00,28.207266,76.829265,NH3,7,23,14
India,Rajasthan,Bhiwadi,"Vasundhara Nagar_UIT, Bhiwadi - RSPCB",27-02-2024 22:00:00,28.207266,76.829265,SO2,5,10,7
India,Rajasthan,Bikaner,"MM Ground, Bikaner - RSPCB",27-02-2024 22:00:00,28.018792,73.292658,NO2,24,66,41
India,Rajasthan,Bikaner,"MM Ground, Bikaner - RSPCB",27-02-2024 22:00:00,28.018792,73.292658,CO,18,76,43
India,Rajasthan,Bundi,"New Colony, Bundi - RSPCB",27-02-2024 22:00:00,25.435774,75.644272,PM10,55,127,79
India,Rajasthan,Chittorgarh,"Shastri Nagar, Chittorgarh - RSPCB",27-02-2024 22:00:00,24.892047,74.623527,PM10,76,146,114
India,Rajasthan,Chittorgarh,"Shastri Nagar, Chittorgarh - RSPCB",27-02-2024 22:00:00,24.892047,74.623527,NO2,12,83,38
India,Rajasthan,Chittorgarh,"Shastri Nagar, Chittorgarh - RSPCB",27-02-2024 22:00:00,24.892047,74.623527,OZONE,17,126,104
India,Rajasthan,Churu,"Subash Chowk, Churu - RSPCB",27-02-2024 22:00:00,28.296139,74.961696,PM2.5,18,104,51
India,Rajasthan,Churu,"Subash Chowk, Churu - RSPCB",27-02-2024 22:00:00,28.296139,74.961696,PM10,32,105,62
India,Rajasthan,Churu,"Subash Chowk, Churu - RSPCB",27-02-2024 22:00:00,28.296139,74.961696,NO2,2,23,10
India,Rajasthan,Dausa,"Khatikan Mohalla, Dausa - RSPCB",27-02-2024 22:00:00,26.895552,76.334753,NH3,4,7,6
India,Rajasthan,Dholpur,"Raja Ganj, Dholpur - RSPCB",27-02-2024 22:00:00,26.699557,77.898881,NO2,12,53,26
India,Rajasthan,Dungarpur,"Bhoiwada, Dungarpur - RSPCB",27-02-2024 22:00:00,23.837789,73.714926,PM2.5,NA,NA,NA
India,Rajasthan,Dungarpur,"Bhoiwada, Dungarpur - RSPCB",27-02-2024 22:00:00,23.837789,73.714926,CO,26,60,46
India,Rajasthan,Hanumangarh,"Housing Board, Hanumangarh - RSPCB",27-02-2024 22:00:00,29.610750,74.283608,PM2.5,37,373,168
India,Rajasthan,Hanumangarh,"Housing Board, Hanumangarh - RSPCB",27-02-2024 22:00:00,29.610750,74.283608,SO2,8,26,13
India,Rajasthan,Jaipur,"Adarsh Nagar, Jaipur - RSPCB",27-02-2024 22:00:00,26.902909,75.836858,NO2,24,63,40
India,Rajasthan,Jaipur,"Adarsh Nagar, Jaipur - RSPCB",27-02-2024 22:00:00,26.902909,75.836858,SO2,6,15,10
India,Rajasthan,Jaipur,"Mansarovar Sector-12, Jaipur - RSPCB",27-02-2024 22:00:00,26.843698,75.766894,PM2.5,28,141,61
India,Rajasthan,Jaipur,"Mansarovar Sector-12, Jaipur - RSPCB",27-02-2024 22:00:00,26.843698,75.766894,PM10,73,157,109
India,Rajasthan,Jaipur,"Mansarovar Sector-12, Jaipur - RSPCB",27-02-2024 22:00:00,26.843698,75.766894,NO2,27,71,36
India,Rajasthan,Jaipur,"Mansarovar Sector-12, Jaipur - RSPCB",27-02-2024 22:00:00,26.843698,75.766894,SO2,1,7,5
India,Rajasthan,Jaipur,"RIICO Sitapura, Jaipur - RSPCB",27-02-2024 22:00:00,26.786682,75.827928,PM10,84,156,122
India,Rajasthan,Jaipur,"RIICO Sitapura, Jaipur - RSPCB",27-02-2024 22:00:00,26.786682,75.827928,SO2,15,22,18
India,Rajasthan,Jaipur,"Sector-2 Murlipura, Jaipur - RSPCB",27-02-2024 22:00:00,26.960669,75.771817,NO2,4,26,12
India,Rajasthan,Jaipur,"Shastri Nagar, Jaipur - RSPCB",27-02-2024 22:00:00,26.9502929,75.730943,OZONE,28,77,50
India,Rajasthan,Jaisalmer,"Sadar Bazar, Jaisalmer - RSPCB",27-02-2024 22:00:00,26.912329,70.909168,PM2.5,NA,NA,NA
India,Rajasthan,Jhalawar,"Rajlaxmi Nagar, Jhalawar - RSPCB",27-02-2024 22:00:00,24.588397,76.172782,NO2,7,13,8
India,Rajasthan,Jhunjhunu,"Indra Nagar, Jhunjhunu - RSPCB",27-02-2024 22:00:00,28.108988,75.386577,PM10,47,187,103
India,Rajasthan,Jodhpur,"Digari Kalan, Jodhpur - RSPCB",27-02-2024 22:00:00,26.295810,73.082283,PM2.5,35,67,48
India,Rajasthan,Jodhpur,"Jhalamand, Jodhpur - RSPCB",27-02-2024 22:00:00,26.215415,73.070156,PM10,56,156,96
India,Rajasthan,Jodhpur,"Jhalamand, Jodhpur - RSPCB",27-02-2024 22:00:00,26.215415,73.070156,NH3,3,22,5
India,Rajasthan,Jodhpur,"Mandor, Jodhpur - RSPCB",27-02-2024 22:00:00,26.358805,73.047444,PM2.5,34,61,45
India,Rajasthan,Karauli,"Satyawati Vihar, Karauli - RSPCB",27-02-2024 22:00:00,26.506177,77.025989,PM2.5,85,248,130
India,Rajasthan,Kota,"Dhanmandi, Kota - RSPCB",27-02-2024 22:00:00,25.164090,75.858137,NO2,14,123,47
India,Rajasthan,Kota,"Nayapura, Kota - RSPCB",27-02-2024 22:00:00,25.196024,75.855668,SO2,4,10,7
India,Rajasthan,Kota,"Nayapura, Kota - RSPCB",27-02-2024 22:00:00,25.196024,75.855668,OZONE,36,140,90
India,Rajasthan,Kota,"Shrinath Puram, Kota - RSPCB",27-02-2024 22:00:00,25.14389,75.821256,PM2.5,69,225,137
India,Rajasthan,Kota,"Shrinath Puram, Kota - RSPCB",27-02-2024 22:00:00,25.14389,75.821256,SO2,4,76,15
India,Rajasthan,Pali,"Indira Colony Vistar, Pali - RSPCB",27-02-2024 22:00:00,25.771061, 73.340227,NH3,8,17,13
India,Rajasthan,Pratapgarh,"Pragati Nagar, Pratapgarh - RSPCB",27-02-2024 22:00:00,24.041198,74.780702,CO,14,30,24
India,Rajasthan,Rajsamand,"Dhoinda, Rajsamand - RSPCB",27-02-2024 22:00:00,25.036360,73.883502,PM2.5,37,100,60
India,Rajasthan,Rajsamand,"Dhoinda, Rajsamand - RSPCB",27-02-2024 22:00:00,25.036360,73.883502,NH3,1,11,4
India,Rajasthan,Sawai Madhopur,"Sahu Nagar, Sawai Madhopur - RSPCB",27-02-2024 22:00:00,26.031443,76.359327,SO2,3,21,9
India,Rajasthan,Sirohi,"Vedhaynath Colony, Sirohi - RSPCB",27-02-2024 22:00:00,24.885261,72.857549,PM10,54,114,78
India,Rajasthan,Sirohi,"Vedhaynath Colony, Sirohi - RSPCB",27-02-2024 22:00:00,24.885261,72.857549,NH3,4,7,5
India,Rajasthan,Udaipur,"Ashok Nagar, Udaipur - RSPCB",27-02-2024 22:00:00,24.5886166,73.6321397,PM10,81,140,109
India,Sikkim,Gangtok,"Zero Point GICI, Gangtok - SSPCB",27-02-2024 22:00:00,27.338530,88.614099,NO2,1,10,3
India,Sikkim,Gangtok,"Zero Point GICI, Gangtok - SSPCB",27-02-2024 22:00:00,27.338530,88.614099,OZONE,19,74,45
India,TamilNadu,Chengalpattu,"Crescent University, Chengalpattu - TNPCB",27-02-2024 22:00:00,12.8777316,80.0834807,PM2.5,23,131,53
India,TamilNadu,Chengalpattu,"Crescent University, Chengalpattu - TNPCB",27-02-2024 22:00:00,12.8777316,80.0834807,SO2,23,27,25
India,TamilNadu,Chennai,"Arumbakkam, Chennai - TNPCB",27-02-2024 22:00:00,13.0664,80.2112 ,NO2,8,24,13
India,TamilNadu,Chennai,"Gandhi Nagar_Ennore, Chennai - TNPCB",27-02-2024 22:00:00,13.218341,80.32027,PM2.5,42,61,51
India,TamilNadu,Chennai,"Kodungaiyur, Chennai - TNPCB",27-02-2024 22:00:00,13.1278,80.2642,CO,30,36,32
India,TamilNadu,Chennai,"Kodungaiyur, Chennai - TNPCB",27-02-2024 22:00:00,13.1278,80.2642,OZONE,5,6,6
India,TamilNadu,Chennai,"Perungudi, Chennai - TNPCB",27-02-2024 22:00:00,12.9533,80.2357,NH3,1,2,2
India,TamilNadu,Chennai,"Royapuram, Chennai - TNPCB",27-02-2024 22:00:00,13.1036,80.2909,PM10,38,83,54
India,TamilNadu,Chennai,"Royapuram, Chennai - TNPCB",27-02-2024 22:00:00,13.1036,80.2909,SO2,1,5,2
India,TamilNadu,Cuddalore,"Kudikadu, Cuddalore - TNPCB",27-02-2024 22:00:00,11.6829898,79.7532099,SO2,11,11,11
India,TamilNadu,Cuddalore,"Semmandalam, Cuddalore - TNPCB",27-02-2024 22:00:00,11.7637683,79.7499835,OZONE,2,2,2
India,TamilNadu,Kanchipuram,"Kilambi, Kanchipuram - TNPCB",27-02-2024 22:00:00,12.864618,79.659968,PM2.5,NA,NA,NA
India,TamilNadu,Palkalaiperur,"Bharathidasan University, Palkalaiperur - TNPCB",27-02-2024 22:00:00,10.681158,78.741746,CO,2,10,5
India,TamilNadu,Ramanathapuram,"Chalai Bazaar, Ramanathapuram - TNPCB",27-02-2024 22:00:00,9.36399,78.831977,NH3,1,1,1
India,TamilNadu,Salem,"Sona College of Technology, Salem - TNPCB",27-02-2024 22:00:00,11.679111,78.125052,PM10,33,77,51
India,TamilNadu,Thoothukudi,"Meelavittan, Thoothukudi - TNPCB",27-02-2024 22:00:00,8.816428 ,78.099039,CO,6,52,24
India,TamilNadu,Tirupur,"Kumaran College, Tirupur - TNPCB",27-02-2024 22:00:00,11.0973603,77.3228673,SO2,18,18,18
India,TamilNadu,Virudhunagar,"Collectorate Office, Virudhunagar - TNPCB",27-02-2024 22:00:00,9.559382,77.948828,PM10,31,57,44
India,TamilNadu,Virudhunagar,"Collectorate Office, Virudhunagar - TNPCB",27-02-2024 22:00:00,9.559382,77.948828,NH3,2,2,2
India,TamilNadu,Virudhunagar,"Collectorate Office, Virudhunagar - TNPCB",27-02-2024 22:00:00,9.559382,77.948828,SO2,15,16,15
India,TamilNadu,Virudhunagar,"Collectorate Office, Virudhunagar - TNPCB",27-02-2024 22:00:00,9.559382,77.948828,OZONE,3,3,3
India,Telangana,Hyderabad,"Bollaram Industrial Area, Hyderabad - TSPCB",27-02-2024 22:00:00,17.540891,78.358528,NH3,2,4,3
India,Telangana,Hyderabad,"Central University, Hyderabad - TSPCB",27-02-2024 22:00:00,17.460103,78.334361,PM2.5,12,33,19
India,Telangana,Hyderabad,"ECIL Kapra, Hyderabad - TSPCB",27-02-2024 22:00:00,17.470431,78.566959,NO2,6,7,7
India,Telangana,Hyderabad,"ECIL Kapra, Hyderabad - TSPCB",27-02-2024 22:00:00,17.470431,78.566959,CO,4,25,9
India,Telangana,Hyderabad,"ICRISAT Patancheru, Hyderabad - TSPCB",27-02-2024 22:00:00,17.518400,78.278777,PM2.5,16,45,27
India,Telangana,Hyderabad,"ICRISAT Patancheru, Hyderabad - TSPCB",27-02-2024 22:00:00,17.518400,78.278777,PM10,19,92,42
India,Telangana,Hyderabad,"ICRISAT Patancheru, Hyderabad - TSPCB",27-02-2024 22:00:00,17.518400,78.278777,OZONE,27,96,69
India,Telangana,Hyderabad,"IITH Kandi, Hyderabad - TSPCB",27-02-2024 22:00:00,17.585705,78.126199,NH3,2,3,2
India,Telangana,Hyderabad,"Kokapet, Hyderabad - TSPCB",27-02-2024 22:00:00,17.393559,78.339194,OZONE,2,5,3
India,Telangana,Hyderabad,"Nacharam_TSIIC IALA, Hyderabad - TSPCB",27-02-2024 22:00:00,17.429398,78.569354,SO2,NA,NA,NA
India,Telangana,Hyderabad,"New Malakpet, Hyderabad - TSPCB",27-02-2024 22:00:00,17.37206,78.50864,PM2.5,16,40,25
India,Telangana,Hyderabad,"New Malakpet, Hyderabad - TSPCB",27-02-2024 22:00:00,17.37206,78.50864,NH3,2,3,2
India,Telangana,Hyderabad,"New Malakpet, Hyderabad - TSPCB",27-02-2024 22:00:00,17.37206,78.50864,CO,8,32,23
India,Telangana,Hyderabad,"Ramachandrapuram, Hyderabad - TSPCB",27-02-2024 22:00:00,17.528544,78.286195,OZONE,8,41,28
India,Telangana,Hyderabad,"Sanathnagar, Hyderabad - TSPCB",27-02-2024 22:00:00,17.4559458,78.4332152,PM2.5,32,74,47
India,Telangana,Hyderabad,"Sanathnagar, Hyderabad - TSPCB",27-02-2024 22:00:00,17.4559458,78.4332152,NO2,3,161,49
India,Telangana,Hyderabad,"Sanathnagar, Hyderabad - TSPCB",27-02-2024 22:00:00,17.4559458,78.4332152,OZONE,13,156,23
India,Telangana,Hyderabad,"Zoo Park, Hyderabad - TSPCB",27-02-2024 22:00:00,17.349694,78.451437,PM10,50,151,102
India,Telangana,Hyderabad,"Zoo Park, Hyderabad - TSPCB",27-02-2024 22:00:00,17.349694,78.451437,OZONE,17,24,20
India,Tripura,Agartala,"Bardowali, Agartala - Tripura SPCB",27-02-2024 22:00:00,23.8175497,91.2726974,NO2,5,27,14
India,Tripura,Agartala,"Bardowali, Agartala - Tripura SPCB",27-02-2024 22:00:00,23.8175497,91.2726974,CO,30,91,52
India,Uttar_Pradesh,Agra,"Manoharpur, Agra - UPPCB",27-02-2024 22:00:00,27.23711,78.01936,PM10,14,68,40
India,Uttar_Pradesh,Agra,"Manoharpur, Agra - UPPCB",27-02-2024 22:00:00,27.23711,78.01936,NH3,1,2,1
India,Uttar_Pradesh,Agra,"Rohta, Agra - UPPCB",27-02-2024 22:00:00,27.106972,78.000111,NO2,NA,NA,NA
India,Uttar_Pradesh,Agra,"Rohta, Agra - UPPCB",27-02-2024 22:00:00,27.106972,78.000111,OZONE,18,22,19
India,Uttar_Pradesh,Agra,"Sector-3B Avas Vikas Colony, Agra - UPPCB",27-02-2024 22:00:00,27.19412,77.96237,PM10,33,138,83
India,Uttar_Pradesh,Agra,"Sector-3B Avas Vikas Colony, Agra - UPPCB",27-02-2024 22:00:00,27.19412,77.96237,NO2,10,59,36
India,Uttar_Pradesh,Agra,"Sector-3B Avas Vikas Colony, Agra - UPPCB",27-02-2024 22:00:00,27.19412,77.96237,NH3,2,6,4
India,Uttar_Pradesh,Agra,"Sector-3B Avas Vikas Colony, Agra - UPPCB",27-02-2024 22:00:00,27.19412,77.96237,OZONE,11,19,7
India,Uttar_Pradesh,Agra,"Shahjahan Garden, Agra - UPPCB",27-02-2024 22:00:00,27.169338,78.03582,PM2.5,11,105,48
India,Uttar_Pradesh,Agra,"Shahjahan Garden, Agra - UPPCB",27-02-2024 22:00:00,27.169338,78.03582,NH3,8,10,9
India,Uttar_Pradesh,Agra,"Shastripuram, Agra - UPPCB",27-02-2024 22:00:00,27.19862,77.92066,NO2,14,144,40
India,Uttar_Pradesh,Agra,"Shastripuram, Agra - UPPCB",27-02-2024 22:00:00,27.19862,77.92066,CO,2,28,15
India,Uttar_Pradesh,Agra,"Shastripuram, Agra - UPPCB",27-02-2024 22:00:00,27.19862,77.92066,OZONE,1,10,2
India,Uttar_Pradesh,Bareilly,"Civil Lines, Bareilly - UPPCB",27-02-2024 22:00:00,28.359581,79.414455,PM2.5,5,79,42
India,Uttar_Pradesh,Bulandshahr,"Yamunapuram, Bulandshahr - UPPCB",27-02-2024 22:00:00,28.406963,77.849831,CO,28,65,46
India,Uttar_Pradesh,Firozabad,"Nagla Bhau, Firozabad - UPPCB",27-02-2024 22:00:00,27.168897,78.376960,PM10,15,71,42
India,Uttar_Pradesh,Ghaziabad,"Indirapuram, Ghaziabad - UPPCB",27-02-2024 22:00:00,28.646233,77.358075,PM10,60,328,126
India,Uttar_Pradesh,Ghaziabad,"Loni, Ghaziabad - UPPCB",27-02-2024 22:00:00,28.757294,77.278792,PM2.5,20,332,110
India,Uttar_Pradesh,Ghaziabad,"Sanjay Nagar, Ghaziabad - UPPCB",27-02-2024 22:00:00,28.685382,77.453839,PM2.5,25,149,85
India,Uttar_Pradesh,Ghaziabad,"Vasundhara, Ghaziabad - UPPCB",27-02-2024 22:00:00,28.6603346,77.3572563,CO,4,74,24
India,Uttar_Pradesh,Ghaziabad,"Vasundhara, Ghaziabad - UPPCB",27-02-2024 22:00:00,28.6603346,77.3572563,OZONE,10,70,63
India,Uttar_Pradesh,Gorakhpur,"Madan Mohan Malaviya University of Technology, Gorakhpur - UPPCB",27-02-2024 22:00:00,26.730136,83.433859,PM2.5,45,197,100
India,Uttar_Pradesh,Greater Noida,"Knowledge Park - III, Greater Noida - UPPCB",27-02-2024 22:00:00,28.47272,77.482000,PM2.5,22,357,151
India,Uttar_Pradesh,Greater Noida,"Knowledge Park - III, Greater Noida - UPPCB",27-02-2024 22:00:00,28.47272,77.482000,PM10,78,407,186
India,Uttar_Pradesh,Greater Noida,"Knowledge Park - III, Greater Noida - UPPCB",27-02-2024 22:00:00,28.47272,77.482000,SO2,3,20,10
India,Uttar_Pradesh,Greater Noida,"Knowledge Park - V, Greater Noida - UPPCB",27-02-2024 22:00:00,28.557054,77.453663,NH3,3,6,4
India,Uttar_Pradesh,Greater Noida,"Knowledge Park - V, Greater Noida - UPPCB",27-02-2024 22:00:00,28.557054,77.453663,SO2,13,40,22
India,Uttar_Pradesh,Hapur,"Anand Vihar, Hapur - UPPCB",27-02-2024 22:00:00,28.725645,77.749675,OZONE,4,26,16
India,Uttar_Pradesh,Kanpur,"FTI Kidwai Nagar, Kanpur - UPPCB",27-02-2024 22:00:00,26.428282,80.327067,SO2,22,24,23
India,Uttar_Pradesh,Kanpur,"NSI Kalyanpur, Kanpur - UPPCB",27-02-2024 22:00:00,26.509954,80.249612,NO2,NA,NA,NA
India,Uttar_Pradesh,Kanpur,"Nehru Nagar, Kanpur - UPPCB",27-02-2024 22:00:00,26.4703136,80.3229863,CO,5,84,49
India,Uttar_Pradesh,Kanpur,"Nehru Nagar, Kanpur - UPPCB",27-02-2024 22:00:00,26.4703136,80.3229863,OZONE,34,51,43
India,Uttar_Pradesh,Khurja,"Kalindi Kunj, Khurja - UPPCB",27-02-2024 22:00:00,28.2348927,77.8683002,PM10,1,84,47
India,Uttar_Pradesh,Lucknow,"B R Ambedkar University, Lucknow - UPPCB",27-02-2024 22:00:00,26.766433,80.927299,PM10,58,137,107
India,Uttar_Pradesh,Lucknow,"B R Ambedkar University, Lucknow - UPPCB",27-02-2024 22:00:00,26.766433,80.927299,CO,28,54,32
India,Uttar_Pradesh,Lucknow,"Kendriya Vidyalaya, Lucknow - CPCB",27-02-2024 22:00:00,26.906111,80.948222,NO2,11,75,38
India,Uttar_Pradesh,Lucknow,"Kendriya Vidyalaya, Lucknow - CPCB",27-02-2024 22:00:00,26.906111,80.948222,OZONE,13,72,56
India,Uttar_Pradesh,Lucknow,"Kukrail Picnic Spot-1, Lucknow - UPPCB",27-02-2024 22:00:00,26.90723,80.98579,SO2,25,34,31
India,Uttar_Pradesh,Lucknow,"Lalbagh, Lucknow - CPCB",27-02-2024 22:00:00,26.8458805,80.9365541,NO2,20,103,53
India,Uttar_Pradesh,Lucknow,"Talkatora District Industries Center, Lucknow - CPCB",27-02-2024 22:00:00,26.83399722,80.8917361,NO2,42,87,67
India,Uttar_Pradesh,Lucknow,"Talkatora District Industries Center, Lucknow - CPCB",27-02-2024 22:00:00,26.83399722,80.8917361,SO2,2,11,5
India,Uttar_Pradesh,Meerut,"Jai Bhim Nagar, Meerut - UPPCB",27-02-2024 22:00:00,28.9535882,77.7622941,PM2.5,18,123,53
India,Uttar_Pradesh,Meerut,"Jai Bhim Nagar, Meerut - UPPCB",27-02-2024 22:00:00,28.9535882,77.7622941,NO2,13,55,30
India,Uttar_Pradesh,Meerut,"Jai Bhim Nagar, Meerut - UPPCB",27-02-2024 22:00:00,28.9535882,77.7622941,OZONE,19,80,66
India,Uttar_Pradesh,Meerut,"Pallavpuram Phase 2, Meerut - UPPCB",27-02-2024 22:00:00,29.063510,77.709723,NH3,9,12,11
India,Uttar_Pradesh,Moradabad,"Buddhi Vihar, Moradabad - UPPCB",27-02-2024 22:00:00,28.83526,78.74460,NO2,19,24,23
India,Uttar_Pradesh,Moradabad,"Buddhi Vihar, Moradabad - UPPCB",27-02-2024 22:00:00,28.83526,78.74460,SO2,23,71,55
India,Uttar_Pradesh,Moradabad,"Eco Herbal Park, Moradabad - UPPCB",27-02-2024 22:00:00,28.840739,78.697531,NO2,9,43,19
India,Uttar_Pradesh,Moradabad,"Eco Herbal Park, Moradabad - UPPCB",27-02-2024 22:00:00,28.840739,78.697531,NH3,2,20,5
India,Uttar_Pradesh,Moradabad,"Eco Herbal Park, Moradabad - UPPCB",27-02-2024 22:00:00,28.840739,78.697531,SO2,8,37,20
India,Uttar_Pradesh,Moradabad,"Eco Herbal Park, Moradabad - UPPCB",27-02-2024 22:00:00,28.840739,78.697531,CO,17,70,29
India,Uttar_Pradesh,Moradabad,"Employment Office, Moradabad - UPPCB",27-02-2024 22:00:00,28.88528,78.73880,PM2.5,28,97,71
India,Uttar_Pradesh,Moradabad,"Jigar Colony, Moradabad - UPPCB",27-02-2024 22:00:00,28.856664,78.772638,PM10,44,143,98
India,Uttar_Pradesh,Moradabad,"Jigar Colony, Moradabad - UPPCB",27-02-2024 22:00:00,28.856664,78.772638,OZONE,17,39,27
India,Uttar_Pradesh,Moradabad,"Kashiram Nagar, Moradabad - UPPCB",27-02-2024 22:00:00,28.849399,78.742362,PM10,43,132,89
India,Uttar_Pradesh,Moradabad,"Kashiram Nagar, Moradabad - UPPCB",27-02-2024 22:00:00,28.849399,78.742362,SO2,26,39,30
India,Uttar_Pradesh,Moradabad,"Transport Nagar, Moradabad - UPPCB",27-02-2024 22:00:00,28.802625,78.753728,OZONE,14,50,18
India,Uttar_Pradesh,Noida,"Sector - 125, Noida - UPPCB",27-02-2024 22:00:00,28.5447608,77.3231257,NH3,NA,NA,NA
India,Uttar_Pradesh,Noida,"Sector - 62, Noida - IMD",27-02-2024 22:00:00,28.6245479,77.3577104,NO2,7,15,10
India,Uttar_Pradesh,Noida,"Sector-1, Noida - UPPCB",27-02-2024 22:00:00,28.5898,77.3101,SO2,4,18,8
India,Uttar_Pradesh,Noida,"Sector-1, Noida - UPPCB",27-02-2024 22:00:00,28.5898,77.3101,OZONE,1,104,67
India,Uttar_Pradesh,Noida,"Sector-116, Noida - UPPCB",27-02-2024 22:00:00,28.569230,77.393848,PM10,60,323,116
India,Uttar_Pradesh,Prayagraj,"Jhunsi, Prayagraj - UPPCB",27-02-2024 22:00:00,25.425602,81.917152,CO,10,51,14
India,Uttar_Pradesh,Prayagraj,"Motilal Nehru NIT, Prayagraj - UPPCB",27-02-2024 22:00:00,25.494,81.863,NH3,6,7,6
India,Uttar_Pradesh,Prayagraj,"Motilal Nehru NIT, Prayagraj - UPPCB",27-02-2024 22:00:00,25.494,81.863,OZONE,5,34,18
India,Uttar_Pradesh,Prayagraj,"Nagar Nigam, Prayagraj - UPPCB",27-02-2024 22:00:00,25.44919916 ,81.82735986 ,SO2,28,102,64
India,Uttar_Pradesh,Varanasi,"Bhelupur, Varanasi - UPPCB",27-02-2024 22:00:00,25.301778,82.996789,PM10,16,85,50
India,Uttar_Pradesh,Varanasi,"Bhelupur, Varanasi - UPPCB",27-02-2024 22:00:00,25.301778,82.996789,NO2,8,8,8
India,Uttar_Pradesh,Varanasi,"Maldahiya, Varanasi - UPPCB",27-02-2024 22:00:00,25.32393,82.99687,PM2.5,15,71,39
India,Uttar_Pradesh,Vrindavan,"Omex Eternity, Vrindavan - UPPCB",27-02-2024 22:00:00,27.5714090,77.6557570,NO2,2,3,3
India,Uttarakhand,Dehradun,"Doon University, Dehradun - UKPCB",27-02-2024 22:00:00,30.269444,78.044167,PM2.5,49,158,87
India,Uttarakhand,Kashipur,"Govt. Girls Inter College, Kashipur - UKPCB",27-02-2024 22:00:00,29.2124114,78.9611753,NH3,4,8,6
India,Uttarakhand,Kashipur,"Govt. Girls Inter College, Kashipur - UKPCB",27-02-2024 22:00:00,29.2124114,78.9611753,CO,24,78,48
India,Uttarakhand,Rishikesh,"Shivaji Nagar, Rishikesh - UKPCB",27-02-2024 22:00:00,30.075911,78.2859547,NH3,2,4,3
India,West_Bengal,Asansol,"Asansol Court Area, Asansol - WBPCB",27-02-2024 22:00:00,23.685297,86.945968,SO2,11,38,21
India,West_Bengal,Asansol,"Asansol Court Area, Asansol - WBPCB",27-02-2024 22:00:00,23.685297,86.945968,CO,12,66,19
India,West_Bengal,Barrackpore,"SVSPA Campus, Barrackpore - WBPCB",27-02-2024 22:00:00,22.7605581,88.3617589,NH3,3,5,4
India,West_Bengal,Barrackpore,"SVSPA Campus, Barrackpore - WBPCB",27-02-2024 22:00:00,22.7605581,88.3617589,SO2,11,19,14
India,West_Bengal,Durgapur,"Sidhu Kanhu Indoor Stadium, Durgapur - WBPCB",27-02-2024 22:00:00,23.5404352,87.2892225,PM10,123,184,143
India,West_Bengal,Durgapur,"Sidhu Kanhu Indoor Stadium, Durgapur - WBPCB",27-02-2024 22:00:00,23.5404352,87.2892225,OZONE,5,48,28
India,West_Bengal,Haldia,"Priyambada Housing Estate, Haldia - WBPCB",27-02-2024 22:00:00,22.06047,88.109737,NO2,21,74,36
India,West_Bengal,Howrah,"Belur Math, Howrah - WBPCB",27-02-2024 22:00:00,22.629801,88.352017,NO2,8,33,20
India,West_Bengal,Howrah,"Belur Math, Howrah - WBPCB",27-02-2024 22:00:00,22.629801,88.352017,CO,2,32,17
India,West_Bengal,Howrah,"Ghusuri, Howrah - WBPCB",27-02-2024 22:00:00,22.611968,88.347422,PM2.5,139,230,180
India,West_Bengal,Howrah,"Ghusuri, Howrah - WBPCB",27-02-2024 22:00:00,22.611968,88.347422,CO,4,28,15
India,West_Bengal,Howrah,"Padmapukur, Howrah - WBPCB",27-02-2024 22:00:00,22.5687319,88.2797276,PM10,123,153,134
India,West_Bengal,Kolkata,"Ballygunge, Kolkata - WBPCB",27-02-2024 22:00:00,22.5367507,88.3638022,NO2,41,178,76
India,West_Bengal,Kolkata,"Ballygunge, Kolkata - WBPCB",27-02-2024 22:00:00,22.5367507,88.3638022,OZONE,6,64,39
India,West_Bengal,Kolkata,"Fort William, Kolkata - WBPCB",27-02-2024 22:00:00,22.556640,88.342674,PM2.5,92,160,125
India,West_Bengal,Kolkata,"Fort William, Kolkata - WBPCB",27-02-2024 22:00:00,22.556640,88.342674,NH3,6,8,7
India,West_Bengal,Kolkata,"Fort William, Kolkata - WBPCB",27-02-2024 22:00:00,22.556640,88.342674,CO,28,50,34
India,West_Bengal,Kolkata,"Jadavpur, Kolkata - WBPCB",27-02-2024 22:00:00,22.49929,88.36917,PM2.5,102,220,144
India,West_Bengal,Kolkata,"Jadavpur, Kolkata - WBPCB",27-02-2024 22:00:00,22.49929,88.36917,PM10,109,144,118
India,West_Bengal,Kolkata,"Victoria, Kolkata - WBPCB",27-02-2024 22:00:00,22.5448082,88.3403691,PM10,110,130,117
India,West_Bengal,Kolkata,"Victoria, Kolkata - WBPCB",27-02-2024 22:00:00,22.5448082,88.3403691,NO2,9,32,16
India,West_Bengal,Siliguri,"Ward-32 Bapupara, Siliguri - WBPCB",27-02-2024 22:00:00,26.6879226,88.4152495,CO,6,54,32
India,Andhra_Pradesh,Amaravati,"Secretariat, Amaravati - APPCB",27-02-2024 22:00:00,16.5150833,80.5181667,PM10,49,67,59
India,Andhra_Pradesh,Amaravati,"Secretariat, Amaravati - APPCB",27-02-2024 22:00:00,16.5150833,80.5181667,SO2,11,17,13
India,Andhra_Pradesh,Amaravati,"Secretariat, Amaravati - APPCB",27-02-2024 22:00:00,16.5150833,80.5181667,OZONE,4,45,36
India,Andhra_Pradesh,Anantapur,"Gulzarpet, Anantapur - APPCB",27-02-2024 22:00:00,14.675886,77.593027,OZONE,5,30,23
India,Andhra_Pradesh,Chittoor,"Gangineni Cheruvu, Chittoor - APPCB",27-02-2024 22:00:00,13.204880,79.097889,NO2,5,17,9
India,Andhra_Pradesh,Kadapa,"Yerramukkapalli, Kadapa - APPCB",27-02-2024 22:00:00,14.465052,78.824187,PM2.5,33,63,46
India,Andhra_Pradesh,Rajamahendravaram,"Anand Kala Kshetram, Rajamahendravaram - APPCB",27-02-2024 22:00:00,16.9872867,81.7363176,OZONE,19,48,41
India,Andhra_Pradesh,Tirupati,"Tirumala, Tirupati - APPCB",27-02-2024 22:00:00,13.67,79.35,PM2.5,36,63,48
India,Andhra_Pradesh,Tirupati,"Tirumala, Tirupati - APPCB",27-02-2024 22:00:00,13.67,79.35,PM10,43,60,49
India,Andhra_Pradesh,Tirupati,"Tirumala, Tirupati - APPCB",27-02-2024 22:00:00,13.67,79.35,NO2,22,28,26
India,Andhra_Pradesh,Tirupati,"Vaikuntapuram, Tirupati - APPCB",27-02-2024 22:00:00,13.615387,79.409230,OZONE,NA,NA,NA
India,Andhra_Pradesh,Vijayawada,"HB Colony, Vijayawada - APPCB",27-02-2024 22:00:00,16.536107,80.594233,NH3,4,5,4
India,Andhra_Pradesh,Vijayawada,"Rajiv Gandhi Park, Vijayawada - APPCB",27-02-2024 22:00:00,16.509717,80.612222,PM10,46,81,59
India,Andhra_Pradesh,Visakhapatnam,"GVM Corporation, Visakhapatnam - APPCB",27-02-2024 22:00:00,17.72,83.3,OZONE,9,53,33
India,Arunachal_Pradesh,Naharlagun,"Naharlagun, Naharlagun - APSPCB",27-02-2024 22:00:00,27.103358,93.679645,PM10,24,114,60
India,Assam,Byrnihat,"Central Academy for SFS, Byrnihat - PCBA",27-02-2024 22:00:00,26.071318,91.87488,PM2.5,57,500,276
India,Assam,Byrnihat,"Central Academy for SFS, Byrnihat - PCBA",27-02-2024 22:00:00,26.071318,91.87488,NH3,3,8,6
India,Assam,Guwahati,"LGBI Airport, Guwahati - PCBA",27-02-2024 22:00:00,26.10887,91.589544,NO2,12,79,32
India,Assam,Guwahati,"LGBI Airport, Guwahati - PCBA",27-02-2024 22:00:00,26.10887,91.589544,NH3,1,7,3
India,Assam,Guwahati,"LGBI Airport, Guwahati - PCBA",27-02-2024 22:00:00,26.10887,91.589544,SO2,12,13,13
India,Assam,Nagaon,"Christianpatty, Nagaon - PCBA",27-02-2024 22:00:00,26.349082,92.68449,NH3,2,18,5
India,Assam,Nagaon,"Christianpatty, Nagaon - PCBA",27-02-2024 22:00:00,26.349082,92.68449,SO2,2,34,16
India,Assam,Nagaon,"Christianpatty, Nagaon - PCBA",27-02-2024 22:00:00,26.349082,92.68449,CO,2,104,45
India,Assam,Nalbari,"Bata Chowk, Nalbari - PCBA",27-02-2024 22:00:00,26.446912,91.439057,NO2,16,47,26
India,Assam,Sivasagar,"Girls College, Sivasagar - PCBA",27-02-2024 22:00:00,26.987634,94.636574,OZONE,1,16,6
India,Bihar,Araria,"Kharahiya Basti, Araria - BSPCB",27-02-2024 22:00:00,26.146529,87.454184,PM10,132,500,258
India,Bihar,Araria,"Kharahiya Basti, Araria - BSPCB",27-02-2024 22:00:00,26.146529,87.454184,CO,18,30,24
India,Bihar,Aurangabad,"Gurdeo Nagar, Aurangabad - BSPCB",27-02-2024 22:00:00,24.75746,84.366208,SO2,2,11,9
India,Bihar,Bettiah,"Kamalnath Nagar, Bettiah - BSPCB",27-02-2024 22:00:00,26.80365,84.51954,PM10,145,482,267
India,Bihar,Bettiah,"Kamalnath Nagar, Bettiah - BSPCB",27-02-2024 22:00:00,26.80365,84.51954,NO2,26,45,33
India,Bihar,Bettiah,"Kamalnath Nagar, Bettiah - BSPCB",27-02-2024 22:00:00,26.80365,84.51954,CO,62,66,64
India,Bihar,Bhagalpur,"DM Office_Kachari Chowk, Bhagalpur - BSPCB",27-02-2024 22:00:00,25.251013,86.989001,PM10,112,412,212
India,Bihar,Bhagalpur,"DM Office_Kachari Chowk, Bhagalpur - BSPCB",27-02-2024 22:00:00,25.251013,86.989001,NH3,9,12,10
India,Bihar,Bhagalpur,"Mayaganj, Bhagalpur - BSPCB",27-02-2024 22:00:00,25.265194,87.012947,CO,8,10,9
India,Bihar,Bhagalpur,"Mayaganj, Bhagalpur - BSPCB",27-02-2024 22:00:00,25.265194,87.012947,OZONE,20,81,43
India,Bihar,Buxar,"Charitra Van, Buxar - BSPCB (Formerly known as Central Jail)",27-02-2024 22:00:00,25.567520,83.966379,PM10,NA,NA,NA
India,Bihar,Buxar,"Charitra Van, Buxar - BSPCB (Formerly known as Central Jail)",27-02-2024 22:00:00,25.567520,83.966379,CO,60,122,67
India,Bihar,Chhapra,"Darshan Nagar, Chhapra - BSPCB",27-02-2024 22:00:00,25.7808257,84.7446768,PM10,88,408,179
India,Bihar,Gaya,"Kareemganj, Gaya - BSPCB",27-02-2024 22:00:00,24.792403,84.992416,NH3,1,6,3
India,Bihar,Gaya,"Kareemganj, Gaya - BSPCB",27-02-2024 22:00:00,24.792403,84.992416,SO2,4,10,7
India,Bihar,Gaya,"SFTI Kusdihra, Gaya - BSPCB",27-02-2024 22:00:00,24.762518,84.982348,PM10,66,102,85
India,Bihar,Gaya,"SFTI Kusdihra, Gaya - BSPCB",27-02-2024 22:00:00,24.762518,84.982348,CO,26,76,31
India,Bihar,Hajipur,"Industrial Area, Hajipur - BSPCB",27-02-2024 22:00:00,25.697189,85.245900,NH3,4,11,8
India,Bihar,Katihar,"Mirchaibari, Katihar - BSPCB",27-02-2024 22:00:00,25.560083,87.553265,PM2.5,73,344,231
India,Bihar,Katihar,"Mirchaibari, Katihar - BSPCB",27-02-2024 22:00:00,25.560083,87.553265,NH3,2,4,3
India,Bihar,Kishanganj,"SDM Office_Khagra, Kishanganj - BSPCB",27-02-2024 22:00:00,26.0881305,87.93840336,PM2.5,25,434,159
India,Bihar,Kishanganj,"SDM Office_Khagra, Kishanganj - BSPCB",27-02-2024 22:00:00,26.0881305,87.93840336,PM10,119,451,227
India,Bihar,Kishanganj,"SDM Office_Khagra, Kishanganj - BSPCB",27-02-2024 22:00:00,26.0881305,87.93840336,SO2,34,49,42
India,Bihar,Kishanganj,"SDM Office_Khagra, Kishanganj - BSPCB",27-02-2024 22:00:00,26.0881305,87.93840336,CO,1,26,6
India,Bihar,Manguraha,"Forest Rest House, Manguraha - BSPCB",27-02-2024 22:00:00,27.308328,84.531742,PM10,NA,NA,NA
India,Bihar,Manguraha,"Forest Rest House, Manguraha - BSPCB",27-02-2024 22:00:00,27.308328,84.531742,NH3,1,1,1
India,Bihar,Motihari,"Gandak Colony, Motihari - BSPCB",27-02-2024 22:00:00,26.63086,84.90051,PM10,51,141,97
India,Bihar,Motihari,"Gandak Colony, Motihari - BSPCB",27-02-2024 22:00:00,26.63086,84.90051,NO2,19,81,66
India,Bihar,Muzaffarpur,"MIT-Daudpur Kothi, Muzaffarpur - BSPCB",27-02-2024 22:00:00,26.1403345,85.3650192,NH3,1,8,3
India,Bihar,Muzaffarpur,"Muzaffarpur Collectorate, Muzaffarpur - BSPCB",27-02-2024 22:00:00,26.1209,85.3647,PM2.5,82,324,219
India,Bihar,Patna,"DRM Office Danapur, Patna - BSPCB",27-02-2024 22:00:00,25.586562,85.043586,NH3,3,4,3
India,Bihar,Patna,"DRM Office Danapur, Patna - BSPCB",27-02-2024 22:00:00,25.586562,85.043586,OZONE,2,73,33
India,Bihar,Patna,"IGSC Planetarium Complex, Patna - BSPCB",27-02-2024 22:00:00,25.610369,85.132568,PM2.5,48,315,162
India,Bihar,Patna,"IGSC Planetarium Complex, Patna - BSPCB",27-02-2024 22:00:00,25.610369,85.132568,OZONE,3,32,21
India,Bihar,Patna,"Samanpura, Patna - BSPCB",27-02-2024 22:00:00,25.596727,85.085624,PM10,153,485,317
India,Bihar,Patna,"Samanpura, Patna - BSPCB",27-02-2024 22:00:00,25.596727,85.085624,NH3,1,11,6
India,Bihar,Patna,"Samanpura, Patna - BSPCB",27-02-2024 22:00:00,25.596727,85.085624,CO,50,120,72
India,Bihar,Patna,"Samanpura, Patna - BSPCB",27-02-2024 22:00:00,25.596727,85.085624,OZONE,12,56,47
India,Bihar,Rajgir,"Dangi Tola, Rajgir - BSPCB",27-02-2024 22:00:00,25.03280,85.41948,NH3,1,1,1
India,Bihar,Samastipur,"DM Office_Kasipur, Samastipur - BSPCB",27-02-2024 22:00:00,25.859655,85.77944,NO2,3,64,28
India,Bihar,Sasaram,"Dada Peer, Sasaram - BSPCB",27-02-2024 22:00:00,24.952822,84.002396,NH3,9,14,11
India,Bihar,Sasaram,"Dada Peer, Sasaram - BSPCB",27-02-2024 22:00:00,24.952822,84.002396,CO,88,112,102
India,Bihar,Siwan,"Chitragupta Nagar, Siwan - BSPCB",27-02-2024 22:00:00,26.2271665,84.3570427,NO2,17,75,34
India,Bihar,Siwan,"Chitragupta Nagar, Siwan - BSPCB",27-02-2024 22:00:00,26.2271665,84.3570427,CO,14,185,126
India,Chandigarh,Chandigarh,"Sector 22, Chandigarh - CPCC",27-02-2024 22:00:00,30.735567,76.775714,PM10,93,171,134
India,Chandigarh,Chandigarh,"Sector-25, Chandigarh - CPCC",27-02-2024 22:00:00,30.751462,76.762879,OZONE,3,80,26
India,Chandigarh,Chandigarh,"Sector-53, Chandigarh - CPCC",27-02-2024 22:00:00,30.719859,76.738637,PM2.5,113,314,200
India,Chandigarh,Chandigarh,"Sector-53, Chandigarh - CPCC",27-02-2024 22:00:00,30.719859,76.738637,PM10,99,173,136
India,Chandigarh,Chandigarh,"Sector-53, Chandigarh - CPCC",27-02-2024 22:00:00,30.719859,76.738637,NH3,4,7,6
India,Chhattisgarh,Bhilai,"32Bungalows, Bhilai - CECB",27-02-2024 22:00:00,21.194815,81.314770,PM10,48,107,74
India,Chhattisgarh,Bhilai,"32Bungalows, Bhilai - CECB",27-02-2024 22:00:00,21.194815,81.314770,CO,21,39,26
India,Chhattisgarh,Bhilai,"Hathkhoj, Bhilai - CECB",27-02-2024 22:00:00,21.224231,81.408350,SO2,10,17,12
India,Chhattisgarh,Bilaspur,"Mangala, Bilaspur - NTPC",27-02-2024 22:00:00,22.08815,82.13737,PM2.5,26,102,59
India,Chhattisgarh,Chhal,"Nawapara SECL Colony, Chhal - CECB",27-02-2024 22:00:00,22.118125,83.140608,NH3,1,2,1
India,Chhattisgarh,Chhal,"Nawapara SECL Colony, Chhal - CECB",27-02-2024 22:00:00,22.118125,83.140608,CO,24,44,31
India,Chhattisgarh,Korba,"Rampur, Korba - CECB",27-02-2024 22:00:00,22.368195,82.746431,PM10,35,96,49
India,Chhattisgarh,Korba,"Rampur, Korba - CECB",27-02-2024 22:00:00,22.368195,82.746431,NO2,27,34,31
India,Chhattisgarh,Korba,"Rampur, Korba - CECB",27-02-2024 22:00:00,22.368195,82.746431,NH3,2,4,3
India,Chhattisgarh,Korba,"Rampur, Korba - CECB",27-02-2024 22:00:00,22.368195,82.746431,CO,22,26,22
India,Chhattisgarh,Korba,"Rampur, Korba - CECB",27-02-2024 22:00:00,22.368195,82.746431,OZONE,2,8,6
India,Chhattisgarh,Korba,"Urja Nagar, Korba - CECB",27-02-2024 22:00:00,22.348441,82.549611,SO2,3,19,7
India,Chhattisgarh,Kunjemura,"OP Jindal School, Kunjemura - CECB",27-02-2024 22:00:00,22.126650,83.483212,NH3,1,4,2
India,Chhattisgarh,Kunjemura,"OP Jindal School, Kunjemura - CECB",27-02-2024 22:00:00,22.126650,83.483212,SO2,2,8,5
India,Chhattisgarh,Milupara,"Govt. Higher Secondary School, Milupara - CECB",27-02-2024 22:00:00,22.1910172,83.5197009,NH3,NA,NA,NA
India,Chhattisgarh,Milupara,"Govt. Higher Secondary School, Milupara - CECB",27-02-2024 22:00:00,22.1910172,83.5197009,OZONE,7,45,45
India,Chhattisgarh,Raipur,"AIIMS, Raipur - CECB",27-02-2024 22:00:00,21.258815,81.578979,NH3,4,6,5
India,Chhattisgarh,Raipur,"Krishak Nagar, Raipur - CECB",27-02-2024 22:00:00,21.237755,81.705301,PM10,39,95,71
India,Chhattisgarh,Raipur,"Siltara Phase-II, Raipur - CECB",27-02-2024 22:00:00,21.371751,81.664929,OZONE,3,21,12
India,Chhattisgarh,Tumidih,"OP Jindal Industrial Park, Tumidih - CECB",27-02-2024 22:00:00,22.06631475,83.33820077,PM2.5,40,61,51
India,Delhi,Delhi,"Alipur, Delhi - DPCC",27-02-2024 22:00:00,28.815329,77.153010,PM10,40,260,128
India,Delhi,Delhi,"Alipur, Delhi - DPCC",27-02-2024 22:00:00,28.815329,77.153010,NO2,14,92,46
India,Delhi,Delhi,"Alipur, Delhi - DPCC",27-02-2024 22:00:00,28.815329,77.153010,SO2,9,27,15
India,Delhi,Delhi,"Alipur, Delhi - DPCC",27-02-2024 22:00:00,28.815329,77.153010,CO,32,76,41
India,Delhi,Delhi,"Anand Vihar, Delhi - DPCC",27-02-2024 22:00:00,28.647622,77.3158090,NO2,68,222,102
India,Delhi,Delhi,"Ashok Vihar, Delhi - DPCC",27-02-2024 22:00:00,28.695381,77.181665,SO2,14,33,26
India,Delhi,Delhi,"Aya Nagar, Delhi - IMD",27-02-2024 22:00:00,28.4706914,77.1099364,OZONE,10,42,31
India,Delhi,Delhi,"Bawana, Delhi - DPCC",27-02-2024 22:00:00,28.776200,77.051074,PM10,75,324,140
India,Delhi,Delhi,"Bawana, Delhi - DPCC",27-02-2024 22:00:00,28.776200,77.051074,SO2,4,11,7
India,Delhi,Delhi,"Bawana, Delhi - DPCC",27-02-2024 22:00:00,28.776200,77.051074,CO,12,62,28
India,Delhi,Delhi,"Burari Crossing, Delhi - IMD",27-02-2024 22:00:00,28.7256504,77.2011573,PM10,54,407,156
India,Delhi,Delhi,"CRRI Mathura Road, Delhi - IMD",27-02-2024 22:00:00,28.5512005,77.2735737,OZONE,8,64,58
India,Delhi,Delhi,"DTU, Delhi - CPCB",27-02-2024 22:00:00,28.7500499,77.1112615,PM10,NA,NA,NA
India,Delhi,Delhi,"Dr. Karni Singh Shooting Range, Delhi - DPCC",27-02-2024 22:00:00,28.498571,77.264840,PM10,NA,NA,NA
India,Delhi,Delhi,"Dr. Karni Singh Shooting Range, Delhi - DPCC",27-02-2024 22:00:00,28.498571,77.264840,NH3,6,9,7
India,Delhi,Delhi,"Dwarka-Sector 8, Delhi - DPCC ",27-02-2024 22:00:00,28.5710274,77.0719006,CO,8,123,24
India,Delhi,Delhi,"Dwarka-Sector 8, Delhi - DPCC ",27-02-2024 22:00:00,28.5710274,77.0719006,OZONE,1,67,46
India,Delhi,Delhi,"ITO, Delhi - CPCB",27-02-2024 22:00:00,28.628624,77.241060,PM2.5,20,307,154
India,Delhi,Delhi,"ITO, Delhi - CPCB",27-02-2024 22:00:00,28.628624,77.241060,NH3,4,12,6
India,Delhi,Delhi,"ITO, Delhi - CPCB",27-02-2024 22:00:00,28.628624,77.241060,OZONE,12,56,38
India,Delhi,Delhi,"Jahangirpuri, Delhi - DPCC",27-02-2024 22:00:00,28.732820,77.170633,NH3,17,39,27
India,Delhi,Delhi,"Lodhi Road, Delhi - IITM",27-02-2024 22:00:00,28.588333,77.221667,NO2,66,110,86
India,Delhi,Delhi,"Lodhi Road, Delhi - IITM",27-02-2024 22:00:00,28.588333,77.221667,NH3,7,12,9
India,Delhi,Delhi,"Lodhi Road, Delhi - IMD",27-02-2024 22:00:00,28.5918245,77.2273074,PM10,41,156,98
India,Delhi,Delhi,"Lodhi Road, Delhi - IMD",27-02-2024 22:00:00,28.5918245,77.2273074,NO2,2,11,5
India,Delhi,Delhi,"Lodhi Road, Delhi - IMD",27-02-2024 22:00:00,28.5918245,77.2273074,CO,21,57,24
India,Delhi,Delhi,"Major Dhyan Chand National Stadium, Delhi - DPCC",27-02-2024 22:00:00,28.611281,77.237738,CO,73,134,86
India,Delhi,Delhi,"Mundka, Delhi - DPCC",27-02-2024 22:00:00,28.684678,77.076574,OZONE,4,22,14
India,Delhi,Delhi,"NSIT Dwarka, Delhi - CPCB",27-02-2024 22:00:00,28.60909,77.0325413,PM2.5,73,313,182
India,Delhi,Delhi,"NSIT Dwarka, Delhi - CPCB",27-02-2024 22:00:00,28.60909,77.0325413,SO2,10,20,16
India,Delhi,Delhi,"Najafgarh, Delhi - DPCC",27-02-2024 22:00:00,28.570173,76.933762,PM10,29,163,94
India,Delhi,Delhi,"Narela, Delhi - DPCC",27-02-2024 22:00:00,28.822836,77.101981,NO2,14,93,39
India,Delhi,Delhi,"New Moti Bagh, Delhi - MHUA",27-02-2024 22:00:00,28.57834,77.18400,PM2.5,35,273,148
India,Delhi,Delhi,"North Campus, DU, Delhi - IMD",27-02-2024 22:00:00,28.6573814,77.1585447,NO2,NA,NA,NA
India,Delhi,Delhi,"Okhla Phase-2, Delhi - DPCC",27-02-2024 22:00:00,28.530785,77.271255,PM2.5,33,305,118
India,Delhi,Delhi,"Okhla Phase-2, Delhi - DPCC",27-02-2024 22:00:00,28.530785,77.271255,PM10,72,275,134
India,Delhi,Delhi,"Okhla Phase-2, Delhi - DPCC",27-02-2024 22:00:00,28.530785,77.271255,OZONE,9,103,61
India,Delhi,Delhi,"Patparganj, Delhi - DPCC",27-02-2024 22:00:00,28.623763,77.287209,NH3,7,13,10
India,Delhi,Delhi,"Punjabi Bagh, Delhi - DPCC",27-02-2024 22:00:00,28.674045,77.131023,PM2.5,46,298,146
India,Delhi,Delhi,"R K Puram, Delhi - DPCC",27-02-2024 22:00:00,28.563262,77.186937,NO2,14,40,27
India,Delhi,Delhi,"Rohini, Delhi - DPCC",27-02-2024 22:00:00,28.732528,77.119920,PM2.5,28,341,137
India,Delhi,Delhi,"Rohini, Delhi - DPCC",27-02-2024 22:00:00,28.732528,77.119920,NO2,18,90,45
India,Delhi,Delhi,"Shadipur, Delhi - CPCB",27-02-2024 22:00:00,28.6514781,77.1473105,NO2,44,63,53
India,Delhi,Delhi,"Shadipur, Delhi - CPCB",27-02-2024 22:00:00,28.6514781,77.1473105,NH3,12,35,26
India,Delhi,Delhi,"Shadipur, Delhi - CPCB",27-02-2024 22:00:00,28.6514781,77.1473105,OZONE,5,27,14
India,Delhi,Delhi,"Sonia Vihar, Delhi - DPCC",27-02-2024 22:00:00,28.710508,77.249485,CO,32,86,58
India,Delhi,Delhi,"Sri Aurobindo Marg, Delhi - DPCC",27-02-2024 22:00:00,28.531346,77.190156,NH3,6,9,7
India,Delhi,Delhi,"Sri Aurobindo Marg, Delhi - DPCC",27-02-2024 22:00:00,28.531346,77.190156,OZONE,1,38,20
India,Delhi,Delhi,"Vivek Vihar, Delhi - DPCC",27-02-2024 22:00:00,28.672342,77.315260,PM2.5,23,433,158
India,Delhi,Delhi,"Wazirpur, Delhi - DPCC",27-02-2024 22:00:00,28.699793,77.165453,NO2,44,181,115
India,Delhi,Delhi,"Wazirpur, Delhi - DPCC",27-02-2024 22:00:00,28.699793,77.165453,SO2,11,57,32
India,Gujarat,Ahmedabad,"Raikhad, Ahmedabad - IITM",27-02-2024 22:00:00,23.020509,72.579261,NH3,1,2,1
India,Gujarat,Ahmedabad,"Rakhial, Ahmedabad - IITM",27-02-2024 22:00:00,23.016834,72.625775,NH3,1,12,7
India,Gujarat,Ahmedabad,"Rakhial, Ahmedabad - IITM",27-02-2024 22:00:00,23.016834,72.625775,OZONE,4,57,34
India,Gujarat,Ahmedabad,"SAC ISRO Satellite, Ahmedabad - IITM",27-02-2024 22:00:00,23.023389,72.515201,PM2.5,85,89,87
India,Gujarat,Ahmedabad,"SAC ISRO Satellite, Ahmedabad - IITM",27-02-2024 22:00:00,23.023389,72.515201,SO2,13,24,15
India,Gujarat,Ahmedabad,"SVPI Airport Hansol, Ahmedabad - IITM",27-02-2024 22:00:00,23.076793,72.627874,SO2,3,4,3
India,Gujarat,Ahmedabad,"SVPI Airport Hansol, Ahmedabad - IITM",27-02-2024 22:00:00,23.076793,72.627874,OZONE,2,27,20
India,Gujarat,Ahmedabad,"Sardar Vallabhbhai Patel Stadium, Ahmedabad - IITM",27-02-2024 22:00:00,23.043070,72.562968,PM2.5,75,318,133
India,Gujarat,Ankleshwar,"GIDC, Ankleshwar - GPCB",27-02-2024 22:00:00,21.613267,73.010555,OZONE,20,49,36
India,Gujarat,Gandhinagar,"Sector-10, Gandhinagar - GPCB",27-02-2024 22:00:00,23.221714,72.654328,OZONE,2,36,29
India,Gujarat,Surat,"Science Center, Surat - SMC",27-02-2024 22:00:00,21.170046,72.795405,CO,71,108,82
India,Gujarat,Vapi,"Phase-1 GIDC, Vapi - GPCB",27-02-2024 22:00:00,20.362421,72.918013,PM10,120,391,195
India,Gujarat,Vatva,"Phase-4 GIDC, Vatva - GPCB",27-02-2024 22:00:00,22.969611,72.643500,PM2.5,48,170,72
India,Gujarat,Vatva,"Phase-4 GIDC, Vatva - GPCB",27-02-2024 22:00:00,22.969611,72.643500,NH3,1,2,2
India,Haryana,Ambala,"Patti Mehar, Ambala - HSPCB",27-02-2024 22:00:00,30.379589,76.778328,NH3,8,8,8
India,Haryana,Ambala,"Patti Mehar, Ambala - HSPCB",27-02-2024 22:00:00,30.379589,76.778328,CO,30,60,40
India,Haryana,Ambala,"Patti Mehar, Ambala - HSPCB",27-02-2024 22:00:00,30.379589,76.778328,OZONE,6,17,11
India,Haryana,Bahadurgarh,"Arya Nagar, Bahadurgarh - HSPCB",27-02-2024 22:00:00,28.6701,76.9254,NO2,32,40,36
India,Haryana,Ballabgarh,"Nathu Colony, Ballabgarh - HSPCB",27-02-2024 22:00:00,28.3419248,77.319699,PM10,96,289,160
India,Haryana,Ballabgarh,"Nathu Colony, Ballabgarh - HSPCB",27-02-2024 22:00:00,28.3419248,77.319699,NO2,12,13,12
India,Haryana,Ballabgarh,"Nathu Colony, Ballabgarh - HSPCB",27-02-2024 22:00:00,28.3419248,77.319699,NH3,1,2,2
India,Haryana,Ballabgarh,"Nathu Colony, Ballabgarh - HSPCB",27-02-2024 22:00:00,28.3419248,77.319699,SO2,1,17,8
India,Haryana,Ballabgarh,"Nathu Colony, Ballabgarh - HSPCB",27-02-2024 22:00:00,28.3419248,77.319699,OZONE,1,24,14
India,Haryana,Charkhi Dadri,"Mini Secretariat, Charkhi Dadri - HSPCB",27-02-2024 22:00:00,28.593883,76.270653,PM2.5,33,195,72
India,Haryana,Dharuhera,"Municipal Corporation Office, Dharuhera -  HSPCB",27-02-2024 22:00:00,28.206800,76.799700,PM2.5,18,149,91
India,Haryana,Dharuhera,"Municipal Corporation Office, Dharuhera -  HSPCB",27-02-2024 22:00:00,28.206800,76.799700,SO2,4,23,8
India,Haryana,Faridabad,"Sector 11, Faridabad - HSPCB",27-02-2024 22:00:00,28.376058,77.315741,CO,16,64,20
India,Haryana,Faridabad,"Sector 30, Faridabad - HSPCB",27-02-2024 22:00:00,28.4417,77.3217,PM2.5,99,208,156
India,Haryana,Faridabad,"Sector 30, Faridabad - HSPCB",27-02-2024 22:00:00,28.4417,77.3217,NH3,8,9,9
India,Haryana,Fatehabad,"Huda Sector, Fatehabad - HSPCB",27-02-2024 22:00:00,29.503664,75.467934,NO2,29,32,30
India,Haryana,Fatehabad,"Huda Sector, Fatehabad - HSPCB",27-02-2024 22:00:00,29.503664,75.467934,NH3,9,10,10
India,Haryana,Gurugram,"Sector-51, Gurugram - HSPCB",27-02-2024 22:00:00,28.4227,77.0667,PM2.5,37,318,144
India,Haryana,Gurugram,"Teri Gram, Gurugram - HSPCB",27-02-2024 22:00:00,28.4275,77.1465,PM2.5,103,309,200
India,Haryana,Gurugram,"Teri Gram, Gurugram - HSPCB",27-02-2024 22:00:00,28.4275,77.1465,PM10,81,262,156
India,Haryana,Gurugram,"Teri Gram, Gurugram - HSPCB",27-02-2024 22:00:00,28.4275,77.1465,SO2,3,6,4
India,Haryana,Gurugram,"Teri Gram, Gurugram - HSPCB",27-02-2024 22:00:00,28.4275,77.1465,CO,14,56,17
India,Haryana,Gurugram,"Teri Gram, Gurugram - HSPCB",27-02-2024 22:00:00,28.4275,77.1465,OZONE,10,24,10
India,Haryana,Gurugram,"Vikas Sadan, Gurugram - HSPCB",27-02-2024 22:00:00,28.4501238,77.0263051,OZONE,7,70,40
India,Haryana,Hisar,"Urban Estate-II, Hisar - HSPCB",27-02-2024 22:00:00,29.140560,75.744941,NO2,6,9,8
India,Haryana,Hisar,"Urban Estate-II, Hisar - HSPCB",27-02-2024 22:00:00,29.140560,75.744941,SO2,1,78,16
India,Haryana,Jind,"Police Lines, Jind - HSPCB",27-02-2024 22:00:00,29.307814,76.337619,PM10,56,95,72
India,Haryana,Jind,"Police Lines, Jind - HSPCB",27-02-2024 22:00:00,29.307814,76.337619,SO2,4,30,10
India,Haryana,Kaithal,"Rishi Nagar, Kaithal - HSPCB",27-02-2024 22:00:00,29.8006,76.4155,NH3,7,8,8
India,Haryana,Kaithal,"Rishi Nagar, Kaithal - HSPCB",27-02-2024 22:00:00,29.8006,76.4155,SO2,2,109,17
India,Haryana,Karnal,"Sector-12, Karnal - HSPCB",27-02-2024 22:00:00,29.695300,77.002700,NO2,7,12,10
India,Haryana,Karnal,"Sector-12, Karnal - HSPCB",27-02-2024 22:00:00,29.695300,77.002700,OZONE,29,33,30
India,Haryana,Mandikhera,"General Hospital, Mandikhera - HSPCB",27-02-2024 22:00:00,27.9002,76.9938,SO2,30,38,33
India,Haryana,Manesar,"Sector-2 IMT, Manesar - HSPCB",27-02-2024 22:00:00,28.360699,76.936090,SO2,29,70,55
India,Haryana,Narnaul,"Shastri Nagar, Narnaul - HSPCB",27-02-2024 22:00:00,28.060249,76.113115,NH3,5,18,11
India,Haryana,Palwal,"Shyam Nagar, Palwal - HSPCB",27-02-2024 22:00:00,28.1485564,77.3320667,NH3,8,9,9
India,Haryana,Rohtak,"MD University, Rohtak - HSPCB",27-02-2024 22:00:00,28.52123,76.37138,PM2.5,14,240,68
India,Haryana,Rohtak,"MD University, Rohtak - HSPCB",27-02-2024 22:00:00,28.52123,76.37138,NO2,45,55,50
India,Haryana,Rohtak,"MD University, Rohtak - HSPCB",27-02-2024 22:00:00,28.52123,76.37138,CO,22,128,54
India,Haryana,Sirsa,"F-Block, Sirsa - HSPCB",27-02-2024 22:00:00,29.536400,75.015800,NO2,9,11,10
India,Haryana,Sirsa,"F-Block, Sirsa - HSPCB",27-02-2024 22:00:00,29.536400,75.015800,OZONE,24,88,70
India,Haryana,Sonipat,"Murthal, Sonipat - HSPCB",27-02-2024 22:00:00,29.027200,77.062100,PM2.5,NA,NA,NA
India,Haryana,Sonipat,"Murthal, Sonipat - HSPCB",27-02-2024 22:00:00,29.027200,77.062100,PM10,NA,NA,NA
India,Haryana,Sonipat,"Murthal, Sonipat - HSPCB",27-02-2024 22:00:00,29.027200,77.062100,NH3,NA,NA,NA
India,Himachal Pradesh,Baddi,"HIMUDA Complex Phase-1, Baddi - HPPCB",27-02-2024 22:00:00,30.943887,76.801991,PM2.5,110,399,189
India,Himachal Pradesh,Baddi,"HIMUDA Complex Phase-1, Baddi - HPPCB",27-02-2024 22:00:00,30.943887,76.801991,NH3,4,10,6
India,Jharkhand,Dhanbad,"Kalakusuma, Dhanbad - DMC",27-02-2024 22:00:00,23.811548,86.481238,PM2.5,28,283,105
India,Jharkhand,Dhanbad,"Kalakusuma, Dhanbad - DMC",27-02-2024 22:00:00,23.811548,86.481238,NO2,14,180,79
India,Jharkhand,Dhanbad,"Kalakusuma, Dhanbad - DMC",27-02-2024 22:00:00,23.811548,86.481238,SO2,14,117,36
India,Jharkhand,Pathardih,"Mohalbani Ghat, Pathardih - DMC",27-02-2024 22:00:00,23.669880,86.411725,SO2,19,118,41
India,Karnataka,Bagalkot,"Vidayagiri, Bagalkot - KSPCB",27-02-2024 22:00:00,16.172806,75.659694,OZONE,9,29,24
India,Karnataka,Bengaluru,"BTM Layout, Bengaluru - CPCB",27-02-2024 22:00:00,12.9135218,77.5950804,CO,38,44,43
India,Karnataka,Bengaluru,"Bapuji Nagar, Bengaluru - KSPCB",27-02-2024 22:00:00,12.951913,77.539784,NO2,8,12,10
India,Karnataka,Bengaluru,"Bapuji Nagar, Bengaluru - KSPCB",27-02-2024 22:00:00,12.951913,77.539784,SO2,4,6,5
India,Karnataka,Bengaluru,"Bapuji Nagar, Bengaluru - KSPCB",27-02-2024 22:00:00,12.951913,77.539784,CO,26,32,28
India,Karnataka,Bengaluru,"City Railway Station, Bengaluru - KSPCB",27-02-2024 22:00:00,12.9756843,77.5660749,CO,52,101,64
India,Karnataka,Bengaluru,"Hebbal, Bengaluru - KSPCB",27-02-2024 22:00:00,13.029152,77.585901,SO2,22,35,27
India,Karnataka,Bengaluru,"Jayanagar 5th Block, Bengaluru - KSPCB",27-02-2024 22:00:00,12.920984,77.584908,PM10,43,109,79
India,Karnataka,Bengaluru,"Kasturi Nagar, Bengaluru - KSPCB",27-02-2024 22:00:00,13.003872,77.664217,PM2.5,66,89,74
India,Karnataka,Bengaluru,"Kasturi Nagar, Bengaluru - KSPCB",27-02-2024 22:00:00,13.003872,77.664217,PM10,91,120,103
India,Karnataka,Bengaluru,"Peenya, Bengaluru - CPCB",27-02-2024 22:00:00,13.0270199,77.494094,NO2,17,28,22
India,Karnataka,Bengaluru,"Sanegurava Halli, Bengaluru - KSPCB",27-02-2024 22:00:00,12.990328,77.5431385,CO,6,44,14
India,Karnataka,Bengaluru,"Shivapura_Peenya, Bengaluru - KSPCB",27-02-2024 22:00:00,13.0246342,77.5080115,PM10,48,75,58
India,Karnataka,Bengaluru,"Shivapura_Peenya, Bengaluru - KSPCB",27-02-2024 22:00:00,13.0246342,77.5080115,SO2,4,15,7
India,Karnataka,Bengaluru,"Silk Board, Bengaluru - KSPCB",27-02-2024 22:00:00,12.917348,77.622813,CO,28,42,37
India,Karnataka,Bidar,"Naubad, Bidar - KSPCB",27-02-2024 22:00:00,17.930306,77.482194,PM10,NA,NA,NA
India,Karnataka,Bidar,"Naubad, Bidar - KSPCB",27-02-2024 22:00:00,17.930306,77.482194,NH3,3,3,3
India,Karnataka,Bidar,"Naubad, Bidar - KSPCB",27-02-2024 22:00:00,17.930306,77.482194,SO2,15,16,16
India,Karnataka,Bidar,"Naubad, Bidar - KSPCB",27-02-2024 22:00:00,17.930306,77.482194,CO,38,64,50
India,Karnataka,Chamarajanagar,"Urban, Chamarajanagar - KSPCB",27-02-2024 22:00:00,11.55358,76.55521,PM2.5,17,50,31
India,Karnataka,Chamarajanagar,"Urban, Chamarajanagar - KSPCB",27-02-2024 22:00:00,11.55358,76.55521,SO2,2,9,5
India,Karnataka,Chikkaballapur,"Chikkaballapur Rural, Chikkaballapur - KSPCB",27-02-2024 22:00:00,13.428828,77.731418,NO2,2,4,3
India,Karnataka,Chikkamagaluru,"Kalyana Nagara, Chikkamagaluru - KSPCB",27-02-2024 22:00:00,13.328028,75.797056,PM2.5,11,55,33
India,Karnataka,Chikkamagaluru,"Kalyana Nagara, Chikkamagaluru - KSPCB",27-02-2024 22:00:00,13.328028,75.797056,OZONE,12,65,50
India,Karnataka,Davanagere,"Devaraj Urs Badavane, Davanagere - KSPCB",27-02-2024 22:00:00,14.475800,75.905200,OZONE,22,27,24
India,Karnataka,Dharwad,"Kalabhavan, Dharwad - KSPCB",27-02-2024 22:00:00,15.459706,75.008381,PM2.5,48,76,61
India,Karnataka,Dharwad,"Kalabhavan, Dharwad - KSPCB",27-02-2024 22:00:00,15.459706,75.008381,PM10,47,113,91
India,Karnataka,Dharwad,"Kalabhavan, Dharwad - KSPCB",27-02-2024 22:00:00,15.459706,75.008381,NH3,3,3,3
India,Karnataka,Gadag,"Panchal Nagar, Gadag - KSPCB",27-02-2024 22:00:00,15.411456,75.638133,NO2,5,19,12
India,Karnataka,Gadag,"Panchal Nagar, Gadag - KSPCB",27-02-2024 22:00:00,15.411456,75.638133,CO,40,50,43
India,Karnataka,Gadag,"Panchal Nagar, Gadag - KSPCB",27-02-2024 22:00:00,15.411456,75.638133,OZONE,24,74,61
India,Karnataka,Hassan,"B.Katihalli, Hassan - KSPCB",27-02-2024 22:00:00,13.008556,76.125258,PM10,25,103,58
India,Karnataka,Haveri,"Ashwini Nagar, Haveri - KSPCB",27-02-2024 22:00:00,14.791800,75.389600,PM2.5,24,109,56
India,Karnataka,Haveri,"Ashwini Nagar, Haveri - KSPCB",27-02-2024 22:00:00,14.791800,75.389600,SO2,14,14,14
India,Karnataka,Haveri,"Ashwini Nagar, Haveri - KSPCB",27-02-2024 22:00:00,14.791800,75.389600,CO,33,36,34
India,Karnataka,Hubballi,"Deshpande Nagar, Hubballi - KSPCB",27-02-2024 22:00:00,15.351773,75.140726,SO2,17,22,19
India,Karnataka,Hubballi,"Lingaraj Nagar, Hubballi - KSPCB",27-02-2024 22:00:00,15.3714823,75.1160168,OZONE,10,36,32
India,Karnataka,Kalaburagi,"Lal Bahadur Shastri Nagar, Kalaburagi - KSPCB",27-02-2024 22:00:00,17.321993,76.822628,NH3,2,2,2
India,Karnataka,Kalaburagi,"Mahatma Basaveswar Colony, Kalaburgi - KSPCB",27-02-2024 22:00:00,17.336318,76.847397,PM10,40,85,54
India,Karnataka,Kalaburagi,"Mahatma Basaveswar Colony, Kalaburgi - KSPCB",27-02-2024 22:00:00,17.336318,76.847397,NO2,17,36,22
India,Karnataka,Kalaburagi,"Mahatma Basaveswar Colony, Kalaburgi - KSPCB",27-02-2024 22:00:00,17.336318,76.847397,NH3,3,4,3
India,Karnataka,Karwar,"KHB Colony, Karwar - KSPCB",27-02-2024 22:00:00,14.816666,74.141003,SO2,18,18,18
India,Karnataka,Koppal,"Diwator Nagar, Koppal - KSPCB",27-02-2024 22:00:00,15.347630,76.181767,PM10,37,61,44
India,Karnataka,Madikeri,"Stuart Hill, Madikeri - KSPCB",27-02-2024 22:00:00,12.415911,75.735050,PM2.5,17,61,36
