country,state,city,station,last_update,latitude,longitude,pollutant_id,pollutant_min,pollutant_max,pollutant_avg
India,Andhra_Pradesh,Amaravati,"Secretariat, Amaravati - APPCB",16-04-2024 09:00:00,16.5150833,80.5181667,SO2,11,14,12
India,Andhra_Pradesh,Amaravati,"Secretariat, Amaravati - APPCB",16-04-2024 09:00:00,16.5150833,80.5181667,OZONE,4,56,10
India,Andhra_Pradesh,Chittoor,"Gangineni Cheruvu, Chittoor - APPCB",16-04-2024 09:00:00,13.204880,79.097889,NO2,1,20,8
India,Andhra_Pradesh,Chittoor,"Gangineni Cheruvu, Chittoor - APPCB",16-04-2024 09:00:00,13.204880,79.097889,NH3,1,3,1
India,Andhra_Pradesh,Kadapa,"Yerramukkapalli, Kadapa - APPCB",16-04-2024 09:00:00,14.465052,78.824187,SO2,1,3,2
India,Andhra_Pradesh,Kadapa,"Yerramukkapalli, Kadapa - APPCB",16-04-2024 09:00:00,14.465052,78.824187,OZONE,30,80,40
India,Andhra_Pradesh,Rajamahendravaram,"Anand Kala Kshetram, Rajamahendravaram - APPCB",16-04-2024 09:00:00,16.9872867,81.7363176,NO2,10,26,17
India,Andhra_Pradesh,Rajamahendravaram,"Anand Kala Kshetram, Rajamahendravaram - APPCB",16-04-2024 09:00:00,16.9872867,81.7363176,SO2,11,12,12
India,Andhra_Pradesh,Tirupati,"Tirumala, Tirupati - APPCB",16-04-2024 09:00:00,13.67,79.35,PM2.5,28,63,45
India,Andhra_Pradesh,Tirupati,"Vaikuntapuram, Tirupati - APPCB",16-04-2024 09:00:00,13.615387,79.409230,PM10,13,89,52
India,Andhra_Pradesh,Tirupati,"Vaikuntapuram, Tirupati - APPCB",16-04-2024 09:00:00,13.615387,79.409230,NH3,2,3,3
India,Andhra_Pradesh,Tirupati,"Vaikuntapuram, Tirupati - APPCB",16-04-2024 09:00:00,13.615387,79.409230,CO,10,16,13
India,Andhra_Pradesh,Vijayawada,"Rajiv Gandhi Park, Vijayawada - APPCB",16-04-2024 09:00:00,16.509717,80.612222,PM2.5,46,74,59
India,Andhra_Pradesh,Vijayawada,"Rajiv Gandhi Park, Vijayawada - APPCB",16-04-2024 09:00:00,16.509717,80.612222,PM10,48,85,66
India,Andhra_Pradesh,Vijayawada,"Rajiv Gandhi Park, Vijayawada - APPCB",16-04-2024 09:00:00,16.509717,80.612222,CO,38,46,46
India,Arunachal_Pradesh,Naharlagun,"Naharlagun, Naharlagun - APSPCB",16-04-2024 09:00:00,27.103358,93.679645,PM10,NA,NA,NA
India,Arunachal_Pradesh,Naharlagun,"Naharlagun, Naharlagun - APSPCB",16-04-2024 09:00:00,27.103358,93.679645,OZONE,2,3,2
India,Assam,Byrnihat,"Central Academy for SFS, Byrnihat - PCBA",16-04-2024 09:00:00,26.071318,91.87488,PM10,77,475,208
India,Assam,Byrnihat,"Central Academy for SFS, Byrnihat - PCBA",16-04-2024 09:00:00,26.071318,91.87488,OZONE,26,36,28
India,Assam,Guwahati,"LGBI Airport, Guwahati - PCBA",16-04-2024 09:00:00,26.10887,91.589544,OZONE,4,33,11
India,Assam,Guwahati,"Railway Colony, Guwahati - PCBA",16-04-2024 09:00:00,26.181742,91.78063,PM10,82,287,170
India,Assam,Guwahati,"Railway Colony, Guwahati - PCBA",16-04-2024 09:00:00,26.181742,91.78063,NO2,3,4,3
India,Assam,Nagaon,"Christianpatty, Nagaon - PCBA",16-04-2024 09:00:00,26.349082,92.68449,NO2,3,49,14
India,Assam,Nalbari,"Bata Chowk, Nalbari - PCBA",16-04-2024 09:00:00,26.446912,91.439057,NO2,8,43,18
India,Assam,Nalbari,"Bata Chowk, Nalbari - PCBA",16-04-2024 09:00:00,26.446912,91.439057,CO,27,57,52
India,Assam,Nalbari,"Bata Chowk, Nalbari - PCBA",16-04-2024 09:00:00,26.446912,91.439057,OZONE,5,205,85
India,Assam,Silchar,"Tarapur, Silchar - PCBA",16-04-2024 09:00:00,24.82827,92.79525,PM2.5,33,54,46
India,Bihar,Araria,"Kharahiya Basti, Araria - BSPCB",16-04-2024 09:00:00,26.146529,87.454184,PM2.5,60,345,128
India,Bihar,Araria,"Kharahiya Basti, Araria - BSPCB",16-04-2024 09:00:00,26.146529,87.454184,SO2,2,18,13
India,Bihar,Aurangabad,"Gurdeo Nagar, Aurangabad - BSPCB",16-04-2024 09:00:00,24.75746,84.366208,PM2.5,NA,NA,NA
India,Bihar,Bettiah,"Kamalnath Nagar, Bettiah - BSPCB",16-04-2024 09:00:00,26.80365,84.51954,SO2,10,28,17
India,Bihar,Bhagalpur,"DM Office_Kachari Chowk, Bhagalpur - BSPCB",16-04-2024 09:00:00,25.251013,86.989001,NO2,57,128,89
India,Bihar,Bhagalpur,"Mayaganj, Bhagalpur - BSPCB",16-04-2024 09:00:00,25.265194,87.012947,NO2,2,11,7
India,Bihar,Bihar Sharif,"D M Colony, Bihar Sharif - BSPCB",16-04-2024 09:00:00,25.204762,85.514960,PM2.5,33,90,56
India,Bihar,Bihar Sharif,"D M Colony, Bihar Sharif - BSPCB",16-04-2024 09:00:00,25.204762,85.514960,OZONE,20,63,52
India,Bihar,Gaya,"SFTI Kusdihra, Gaya - BSPCB",16-04-2024 09:00:00,24.762518,84.982348,PM10,48,102,72
India,Bihar,Gaya,"SFTI Kusdihra, Gaya - BSPCB",16-04-2024 09:00:00,24.762518,84.982348,NO2,22,116,41
India,Bihar,Hajipur,"Industrial Area, Hajipur - BSPCB",16-04-2024 09:00:00,25.697189,85.245900,PM2.5,37,298,111
India,Bihar,Hajipur,"Industrial Area, Hajipur - BSPCB",16-04-2024 09:00:00,25.697189,85.245900,PM10,111,458,226
India,Bihar,Manguraha,"Forest Rest House, Manguraha - BSPCB",16-04-2024 09:00:00,27.308328,84.531742,NH3,2,3,2
India,Bihar,Motihari,"Gandak Colony, Motihari - BSPCB",16-04-2024 09:00:00,26.63086,84.90051,OZONE,19,72,33
India,Bihar,Munger,"Town Hall, Munger - BSPCB",16-04-2024 09:00:00,25.376776,86.471523,CO,10,117,10
India,Bihar,Munger,"Town Hall, Munger - BSPCB",16-04-2024 09:00:00,25.376776,86.471523,OZONE,26,33,29
India,Bihar,Muzaffarpur,"Buddha Colony, Muzaffarpur - BSPCB",16-04-2024 09:00:00,26.11442,85.39813,PM10,126,414,311
India,Bihar,Muzaffarpur,"Buddha Colony, Muzaffarpur - BSPCB",16-04-2024 09:00:00,26.11442,85.39813,NO2,15,109,44
India,Bihar,Muzaffarpur,"MIT-Daudpur Kothi, Muzaffarpur - BSPCB",16-04-2024 09:00:00,26.1403345,85.3650192,PM10,69,296,148
India,Bihar,Muzaffarpur,"MIT-Daudpur Kothi, Muzaffarpur - BSPCB",16-04-2024 09:00:00,26.1403345,85.3650192,NO2,5,9,7
India,Bihar,Muzaffarpur,"MIT-Daudpur Kothi, Muzaffarpur - BSPCB",16-04-2024 09:00:00,26.1403345,85.3650192,CO,22,119,42
India,Bihar,Muzaffarpur,"Muzaffarpur Collectorate, Muzaffarpur - BSPCB",16-04-2024 09:00:00,26.1209,85.3647,SO2,8,14,10
India,Bihar,Patna,"DRM Office Danapur, Patna - BSPCB",16-04-2024 09:00:00,25.586562,85.043586,PM2.5,77,244,128
India,Bihar,Patna,"Govt. High School Shikarpur, Patna - BSPCB",16-04-2024 09:00:00,25.592539,85.227158,PM10,125,189,153
India,Bihar,Patna,"Muradpur, Patna - BSPCB",16-04-2024 09:00:00,25.619651,85.147382,PM2.5,60,377,254
India,Bihar,Patna,"Rajbansi Nagar, Patna - BSPCB",16-04-2024 09:00:00,25.599486,85.113666,NO2,15,52,28
India,Bihar,Patna,"Rajbansi Nagar, Patna - BSPCB",16-04-2024 09:00:00,25.599486,85.113666,NH3,5,14,8
India,Bihar,Purnia,"Mariam Nagar, Purnia - BSPCB",16-04-2024 09:00:00,25.366336,87.117468,NO2,2,11,7
India,Bihar,Saharsa,"Police Line, Saharsa - BSPCB",16-04-2024 09:00:00,25.892357,86.590325,PM10,86,187,137
India,Bihar,Sasaram,"Dada Peer, Sasaram - BSPCB",16-04-2024 09:00:00,24.952822,84.002396,PM2.5,14,197,49
India,Bihar,Sasaram,"Dada Peer, Sasaram - BSPCB",16-04-2024 09:00:00,24.952822,84.002396,NH3,7,11,9
India,Bihar,Sasaram,"Dada Peer, Sasaram - BSPCB",16-04-2024 09:00:00,24.952822,84.002396,CO,112,117,114
India,Chandigarh,Chandigarh,"Sector 22, Chandigarh - CPCC",16-04-2024 09:00:00,30.735567,76.775714,NO2,26,169,70
India,Chandigarh,Chandigarh,"Sector 22, Chandigarh - CPCC",16-04-2024 09:00:00,30.735567,76.775714,OZONE,3,187,48
India,Chandigarh,Chandigarh,"Sector-25, Chandigarh - CPCC",16-04-2024 09:00:00,30.751462,76.762879,PM2.5,146,301,199
India,Chandigarh,Chandigarh,"Sector-25, Chandigarh - CPCC",16-04-2024 09:00:00,30.751462,76.762879,CO,23,104,40
India,Chandigarh,Chandigarh,"Sector-25, Chandigarh - CPCC",16-04-2024 09:00:00,30.751462,76.762879,OZONE,1,31,6
India,Chandigarh,Chandigarh,"Sector-53, Chandigarh - CPCC",16-04-2024 09:00:00,30.719859,76.738637,OZONE,3,54,17
India,Chhattisgarh,Bhilai,"Civic Center, Bhilai - Bhilai Steel Plant",16-04-2024 09:00:00,21.185571,81.343175,PM10,32,73,50
India,Chhattisgarh,Bhilai,"Civic Center, Bhilai - Bhilai Steel Plant",16-04-2024 09:00:00,21.185571,81.343175,SO2,8,15,10
India,Chhattisgarh,Bhilai,"Hathkhoj, Bhilai - CECB",16-04-2024 09:00:00,21.224231,81.408350,NH3,6,8,7
India,Chhattisgarh,Bhilai,"Hathkhoj, Bhilai - CECB",16-04-2024 09:00:00,21.224231,81.408350,SO2,9,11,10
India,Chhattisgarh,Bhilai,"Hathkhoj, Bhilai - CECB",16-04-2024 09:00:00,21.224231,81.408350,OZONE,3,25,6
India,Chhattisgarh,Bilaspur,"Mangala, Bilaspur - NTPC",16-04-2024 09:00:00,22.08815,82.13737,PM10,49,146,79
India,Chhattisgarh,Korba,"Rampur, Korba - CECB",16-04-2024 09:00:00,22.368195,82.746431,NO2,NA,NA,NA
India,Chhattisgarh,Kunjemura,"OP Jindal School, Kunjemura - CECB",16-04-2024 09:00:00,22.126650,83.483212,PM2.5,38,128,85
India,Chhattisgarh,Milupara,"Govt. Higher Secondary School, Milupara - CECB",16-04-2024 09:00:00,22.1910172,83.5197009,PM10,NA,NA,NA
India,Chhattisgarh,Milupara,"Govt. Higher Secondary School, Milupara - CECB",16-04-2024 09:00:00,22.1910172,83.5197009,CO,NA,NA,NA
India,Chhattisgarh,Raipur,"AIIMS, Raipur - CECB",16-04-2024 09:00:00,21.258815,81.578979,SO2,5,19,8
India,Chhattisgarh,Raipur,"Bhatagaon New ISBT, Raipur - CECB",16-04-2024 09:00:00,21.219665,81.630094,PM10,30,98,59
India,Chhattisgarh,Raipur,"Bhatagaon New ISBT, Raipur - CECB",16-04-2024 09:00:00,21.219665,81.630094,NH3,2,2,2
India,Chhattisgarh,Raipur,"Bhatagaon New ISBT, Raipur - CECB",16-04-2024 09:00:00,21.219665,81.630094,CO,16,68,47
India,Chhattisgarh,Tumidih,"OP Jindal Industrial Park, Tumidih - CECB",16-04-2024 09:00:00,22.06631475,83.33820077,OZONE,20,73,24
India,Delhi,Delhi,"Alipur, Delhi - DPCC",16-04-2024 09:00:00,28.815329,77.153010,NO2,13,118,57
India,Delhi,Delhi,"Ashok Vihar, Delhi - DPCC",16-04-2024 09:00:00,28.695381,77.181665,NO2,17,126,75
India,Delhi,Delhi,"Bawana, Delhi - DPCC",16-04-2024 09:00:00,28.776200,77.051074,OZONE,3,97,6
India,Delhi,Delhi,"Burari Crossing, Delhi - IMD",16-04-2024 09:00:00,28.7256504,77.2011573,OZONE,NA,NA,NA
India,Delhi,Delhi,"Chandni Chowk, Delhi - IITM",16-04-2024 09:00:00,28.656756,77.227234,PM2.5,180,361,290
India,Delhi,Delhi,"Chandni Chowk, Delhi - IITM",16-04-2024 09:00:00,28.656756,77.227234,PM10,117,316,185
India,Delhi,Delhi,"Dr. Karni Singh Shooting Range, Delhi - DPCC",16-04-2024 09:00:00,28.498571,77.264840,PM2.5,70,309,191
India,Delhi,Delhi,"Dr. Karni Singh Shooting Range, Delhi - DPCC",16-04-2024 09:00:00,28.498571,77.264840,NO2,47,143,91
India,Delhi,Delhi,"Dwarka-Sector 8, Delhi - DPCC ",16-04-2024 09:00:00,28.5710274,77.0719006,PM2.5,215,500,289
India,Delhi,Delhi,"Dwarka-Sector 8, Delhi - DPCC ",16-04-2024 09:00:00,28.5710274,77.0719006,PM10,208,500,343
India,Delhi,Delhi,"IGI Airport (T3), Delhi - IMD",16-04-2024 09:00:00,28.5627763,77.1180053,PM2.5,NA,NA,NA
India,Delhi,Delhi,"IHBAS, Dilshad Garden, Delhi - CPCB",16-04-2024 09:00:00,28.6811736,77.3025234,NH3,1,10,7
India,Delhi,Delhi,"Major Dhyan Chand National Stadium, Delhi - DPCC",16-04-2024 09:00:00,28.611281,77.237738,NO2,43,178,108
India,Delhi,Delhi,"Mandir Marg, Delhi - DPCC",16-04-2024 09:00:00,28.636429,77.201067,OZONE,1,25,2
India,Delhi,Delhi,"Mundka, Delhi - DPCC",16-04-2024 09:00:00,28.684678,77.076574,PM10,100,500,319
India,Delhi,Delhi,"Mundka, Delhi - DPCC",16-04-2024 09:00:00,28.684678,77.076574,CO,22,120,71
India,Delhi,Delhi,"Najafgarh, Delhi - DPCC",16-04-2024 09:00:00,28.570173,76.933762,PM2.5,67,500,224
India,Delhi,Delhi,"Najafgarh, Delhi - DPCC",16-04-2024 09:00:00,28.570173,76.933762,PM10,89,480,194
India,Delhi,Delhi,"Najafgarh, Delhi - DPCC",16-04-2024 09:00:00,28.570173,76.933762,NO2,11,73,35
India,Delhi,Delhi,"Najafgarh, Delhi - DPCC",16-04-2024 09:00:00,28.570173,76.933762,CO,30,78,43
India,Delhi,Delhi,"Narela, Delhi - DPCC",16-04-2024 09:00:00,28.822836,77.101981,PM2.5,63,493,257
India,Delhi,Delhi,"Narela, Delhi - DPCC",16-04-2024 09:00:00,28.822836,77.101981,SO2,20,97,40
India,Delhi,Delhi,"Nehru Nagar, Delhi - DPCC",16-04-2024 09:00:00,28.567890,77.250515,PM2.5,69,338,206
India,Delhi,Delhi,"Nehru Nagar, Delhi - DPCC",16-04-2024 09:00:00,28.567890,77.250515,PM10,113,278,186
India,Delhi,Delhi,"Nehru Nagar, Delhi - DPCC",16-04-2024 09:00:00,28.567890,77.250515,CO,46,76,57
India,Delhi,Delhi,"Okhla Phase-2, Delhi - DPCC",16-04-2024 09:00:00,28.530785,77.271255,NH3,10,16,13
India,Delhi,Delhi,"Okhla Phase-2, Delhi - DPCC",16-04-2024 09:00:00,28.530785,77.271255,CO,22,136,67
India,Delhi,Delhi,"Okhla Phase-2, Delhi - DPCC",16-04-2024 09:00:00,28.530785,77.271255,OZONE,9,183,14
India,Delhi,Delhi,"Patparganj, Delhi - DPCC",16-04-2024 09:00:00,28.623763,77.287209,NO2,32,91,61
India,Delhi,Delhi,"Patparganj, Delhi - DPCC",16-04-2024 09:00:00,28.623763,77.287209,CO,46,118,90
India,Delhi,Delhi,"Punjabi Bagh, Delhi - DPCC",16-04-2024 09:00:00,28.674045,77.131023,CO,6,127,39
India,Delhi,Delhi,"Pusa, Delhi - DPCC",16-04-2024 09:00:00,28.639652,77.146275,NO2,49,148,105
India,Delhi,Delhi,"Pusa, Delhi - DPCC",16-04-2024 09:00:00,28.639652,77.146275,OZONE,10,110,12
India,Delhi,Delhi,"Pusa, Delhi - IMD",16-04-2024 09:00:00,28.636110,77.173332,PM2.5,NA,NA,NA
India,Delhi,Delhi,"Pusa, Delhi - IMD",16-04-2024 09:00:00,28.636110,77.173332,PM10,NA,NA,NA
India,Delhi,Delhi,"R K Puram, Delhi - DPCC",16-04-2024 09:00:00,28.563262,77.186937,PM10,134,365,217
India,Delhi,Delhi,"R K Puram, Delhi - DPCC",16-04-2024 09:00:00,28.563262,77.186937,NO2,50,159,102
India,Delhi,Delhi,"R K Puram, Delhi - DPCC",16-04-2024 09:00:00,28.563262,77.186937,NH3,10,16,13
India,Delhi,Delhi,"R K Puram, Delhi - DPCC",16-04-2024 09:00:00,28.563262,77.186937,SO2,2,68,28
India,Delhi,Delhi,"Rohini, Delhi - DPCC",16-04-2024 09:00:00,28.732528,77.119920,CO,24,146,85
India,Delhi,Delhi,"Shadipur, Delhi - CPCB",16-04-2024 09:00:00,28.6514781,77.1473105,SO2,NA,NA,NA
India,Delhi,Delhi,"Sonia Vihar, Delhi - DPCC",16-04-2024 09:00:00,28.710508,77.249485,CO,48,132,98
India,Delhi,Delhi,"Sri Aurobindo Marg, Delhi - DPCC",16-04-2024 09:00:00,28.531346,77.190156,NO2,30,104,73
India,Delhi,Delhi,"Vivek Vihar, Delhi - DPCC",16-04-2024 09:00:00,28.672342,77.315260,PM2.5,85,401,237
India,Delhi,Delhi,"Vivek Vihar, Delhi - DPCC",16-04-2024 09:00:00,28.672342,77.315260,NO2,39,119,77
India,Delhi,Delhi,"Wazirpur, Delhi - DPCC",16-04-2024 09:00:00,28.699793,77.165453,NO2,34,105,71
India,Delhi,Delhi,"Wazirpur, Delhi - DPCC",16-04-2024 09:00:00,28.699793,77.165453,SO2,14,56,23
India,Gujarat,Ahmedabad,"Chandkheda, Ahmedabad - IITM",16-04-2024 09:00:00,23.107969,72.574648,PM2.5,54,109,78
India,Gujarat,Ahmedabad,"Chandkheda, Ahmedabad - IITM",16-04-2024 09:00:00,23.107969,72.574648,PM10,58,109,85
India,Gujarat,Ahmedabad,"Chandkheda, Ahmedabad - IITM",16-04-2024 09:00:00,23.107969,72.574648,NH3,4,5,5
India,Gujarat,Ahmedabad,"Gyaspur, Ahmedabad - IITM",16-04-2024 09:00:00,22.977134,72.553024,PM2.5,50,95,75
India,Gujarat,Ahmedabad,"Gyaspur, Ahmedabad - IITM",16-04-2024 09:00:00,22.977134,72.553024,SO2,3,5,4
India,Gujarat,Ahmedabad,"Gyaspur, Ahmedabad - IITM",16-04-2024 09:00:00,22.977134,72.553024,CO,2,13,6
India,Gujarat,Ahmedabad,"Maninagar, Ahmedabad - GPCB",16-04-2024 09:00:00,23.002657,72.591912,PM2.5,18,67,43
India,Gujarat,Ahmedabad,"Maninagar, Ahmedabad - GPCB",16-04-2024 09:00:00,23.002657,72.591912,PM10,54,103,79
India,Gujarat,Ahmedabad,"Maninagar, Ahmedabad - GPCB",16-04-2024 09:00:00,23.002657,72.591912,OZONE,24,132,34
India,Gujarat,Ahmedabad,"Raikhad, Ahmedabad - IITM",16-04-2024 09:00:00,23.020509,72.579261,PM10,70,130,96
India,Gujarat,Ahmedabad,"Raikhad, Ahmedabad - IITM",16-04-2024 09:00:00,23.020509,72.579261,SO2,NA,NA,NA
India,Gujarat,Ahmedabad,"Rakhial, Ahmedabad - IITM",16-04-2024 09:00:00,23.016834,72.625775,PM10,46,101,78
India,Gujarat,Ahmedabad,"SAC ISRO Satellite, Ahmedabad - IITM",16-04-2024 09:00:00,23.023389,72.515201,OZONE,13,30,15
India,Gujarat,Ahmedabad,"SVPI Airport Hansol, Ahmedabad - IITM",16-04-2024 09:00:00,23.076793,72.627874,NO2,NA,NA,NA
India,Gujarat,Ahmedabad,"Sardar Vallabhbhai Patel Stadium, Ahmedabad - IITM",16-04-2024 09:00:00,23.043070,72.562968,PM2.5,42,90,71
India,Gujarat,Ahmedabad,"Sardar Vallabhbhai Patel Stadium, Ahmedabad - IITM",16-04-2024 09:00:00,23.043070,72.562968,CO,26,49,41
India,Gujarat,Ahmedabad,"Sardar Vallabhbhai Patel Stadium, Ahmedabad - IITM",16-04-2024 09:00:00,23.043070,72.562968,OZONE,12,29,13
India,Gujarat,Ankleshwar,"GIDC, Ankleshwar - GPCB",16-04-2024 09:00:00,21.613267,73.010555,SO2,9,67,39
India,Gujarat,Gandhinagar,"IIPHG Lekawada, Gandhinagar - IITM",16-04-2024 09:00:00,23.243639,72.68994,CO,9,21,12
India,Gujarat,Gandhinagar,"Sector-10, Gandhinagar - GPCB",16-04-2024 09:00:00,23.221714,72.654328,SO2,3,4,4
India,Gujarat,Vatva,"Phase-4 GIDC, Vatva - GPCB",16-04-2024 09:00:00,22.969611,72.643500,PM2.5,25,44,36
India,Gujarat,Vatva,"Phase-4 GIDC, Vatva - GPCB",16-04-2024 09:00:00,22.969611,72.643500,SO2,9,23,15
India,Haryana,Ambala,"Patti Mehar, Ambala - HSPCB",16-04-2024 09:00:00,30.379589,76.778328,NO2,3,4,4
India,Haryana,Ambala,"Patti Mehar, Ambala - HSPCB",16-04-2024 09:00:00,30.379589,76.778328,NH3,8,8,8
India,Haryana,Ballabgarh,"Nathu Colony, Ballabgarh - HSPCB",16-04-2024 09:00:00,28.3419248,77.319699,CO,10,84,39
India,Haryana,Ballabgarh,"Nathu Colony, Ballabgarh - HSPCB",16-04-2024 09:00:00,28.3419248,77.319699,OZONE,5,36,8
India,Haryana,Charkhi Dadri,"Mini Secretariat, Charkhi Dadri - HSPCB",16-04-2024 09:00:00,28.593883,76.270653,PM10,55,181,115
India,Haryana,Faridabad,"New Industrial Town, Faridabad - HSPCB",16-04-2024 09:00:00,28.39072,77.30059,SO2,2,14,5
India,Haryana,Faridabad,"Sector 11, Faridabad - HSPCB",16-04-2024 09:00:00,28.376058,77.315741,PM2.5,235,360,311
India,Haryana,Faridabad,"Sector 11, Faridabad - HSPCB",16-04-2024 09:00:00,28.376058,77.315741,SO2,4,109,9
India,Haryana,Faridabad,"Sector 11, Faridabad - HSPCB",16-04-2024 09:00:00,28.376058,77.315741,OZONE,5,78,6
India,Haryana,Faridabad,"Sector 30, Faridabad - HSPCB",16-04-2024 09:00:00,28.4417,77.3217,NO2,31,33,32
India,Haryana,Faridabad,"Sector 30, Faridabad - HSPCB",16-04-2024 09:00:00,28.4417,77.3217,OZONE,6,178,12
India,Haryana,Faridabad,"Sector- 16A, Faridabad - HSPCB",16-04-2024 09:00:00,28.4088421,77.3099081,NO2,NA,NA,NA
India,Haryana,Fatehabad,"Huda Sector, Fatehabad - HSPCB",16-04-2024 09:00:00,29.503664,75.467934,NO2,29,31,30
India,Haryana,Gurugram,"Sector-51, Gurugram - HSPCB",16-04-2024 09:00:00,28.4227,77.0667,PM2.5,176,445,334
India,Haryana,Gurugram,"Sector-51, Gurugram - HSPCB",16-04-2024 09:00:00,28.4227,77.0667,CO,42,97,79
India,Haryana,Gurugram,"Sector-51, Gurugram - HSPCB",16-04-2024 09:00:00,28.4227,77.0667,OZONE,27,67,38
India,Haryana,Gurugram,"Vikas Sadan, Gurugram - HSPCB",16-04-2024 09:00:00,28.4501238,77.0263051,OZONE,8,69,11
India,Haryana,Hisar,"Urban Estate-II, Hisar - HSPCB",16-04-2024 09:00:00,29.140560,75.744941,PM2.5,36,215,77
India,Haryana,Hisar,"Urban Estate-II, Hisar - HSPCB",16-04-2024 09:00:00,29.140560,75.744941,CO,25,43,32
India,Haryana,Kaithal,"Rishi Nagar, Kaithal - HSPCB",16-04-2024 09:00:00,29.8006,76.4155,SO2,3,99,17
India,Haryana,Kaithal,"Rishi Nagar, Kaithal - HSPCB",16-04-2024 09:00:00,29.8006,76.4155,OZONE,14,53,22
India,Haryana,Kurukshetra,"Sector-7, Kurukshetra - HSPCB",16-04-2024 09:00:00,29.966942,76.875879,PM2.5,14,235,105
India,Haryana,Kurukshetra,"Sector-7, Kurukshetra - HSPCB",16-04-2024 09:00:00,29.966942,76.875879,NH3,2,5,5
India,Haryana,Kurukshetra,"Sector-7, Kurukshetra - HSPCB",16-04-2024 09:00:00,29.966942,76.875879,SO2,1,103,35
India,Haryana,Mandikhera,"General Hospital, Mandikhera - HSPCB",16-04-2024 09:00:00,27.9002,76.9938,PM2.5,14,61,41
India,Haryana,Mandikhera,"General Hospital, Mandikhera - HSPCB",16-04-2024 09:00:00,27.9002,76.9938,NO2,19,24,21
India,Haryana,Manesar,"Sector-2 IMT, Manesar - HSPCB",16-04-2024 09:00:00,28.360699,76.936090,PM2.5,68,290,140
India,Haryana,Manesar,"Sector-2 IMT, Manesar - HSPCB",16-04-2024 09:00:00,28.360699,76.936090,CO,24,62,44
India,Haryana,Narnaul,"Shastri Nagar, Narnaul - HSPCB",16-04-2024 09:00:00,28.060249,76.113115,PM2.5,NA,NA,NA
India,Haryana,Palwal,"Shyam Nagar, Palwal - HSPCB",16-04-2024 09:00:00,28.1485564,77.3320667,NO2,23,24,24
India,Haryana,Palwal,"Shyam Nagar, Palwal - HSPCB",16-04-2024 09:00:00,28.1485564,77.3320667,SO2,2,16,10
India,Haryana,Palwal,"Shyam Nagar, Palwal - HSPCB",16-04-2024 09:00:00,28.1485564,77.3320667,CO,22,36,32
India,Haryana,Panchkula,"Sector-6, Panchkula - HSPCB ",16-04-2024 09:00:00,30.7057778,76.8531805555555,PM2.5,79,286,146
India,Haryana,Panipat,"Sector-18, Panipat - HSPCB",16-04-2024 09:00:00,29.497973,76.993331,PM10,87,87,87
India,Haryana,Panipat,"Sector-18, Panipat - HSPCB",16-04-2024 09:00:00,29.497973,76.993331,SO2,18,19,19
India,Haryana,Yamuna Nagar,"Gobind Pura, Yamuna Nagar - HSPCB",16-04-2024 09:00:00,30.1480566,77.2893471,PM2.5,1,317,158
India,Haryana,Yamuna Nagar,"Gobind Pura, Yamuna Nagar - HSPCB",16-04-2024 09:00:00,30.1480566,77.2893471,NH3,5,6,5
India,Haryana,Yamuna Nagar,"Gobind Pura, Yamuna Nagar - HSPCB",16-04-2024 09:00:00,30.1480566,77.2893471,SO2,1,13,7
India,Haryana,Yamuna Nagar,"Gobind Pura, Yamuna Nagar - HSPCB",16-04-2024 09:00:00,30.1480566,77.2893471,OZONE,4,34,21
India,Himachal Pradesh,Baddi,"HIMUDA Complex Phase-1, Baddi - HPPCB",16-04-2024 09:00:00,30.943887,76.801991,PM10,56,302,118
India,Jharkhand,Dhanbad,"Kalakusuma, Dhanbad - DMC",16-04-2024 09:00:00,23.811548,86.481238,SO2,NA,NA,NA
India,Jharkhand,Dhanbad,"Sardar Patel Nagar, Dhanbad - JSPCB",16-04-2024 09:00:00,23.80569,86.44268,PM2.5,2,244,70
India,Jharkhand,Dhanbad,"Sardar Patel Nagar, Dhanbad - JSPCB",16-04-2024 09:00:00,23.80569,86.44268,PM10,43,377,132
India,Jharkhand,Dhanbad,"Sardar Patel Nagar, Dhanbad - JSPCB",16-04-2024 09:00:00,23.80569,86.44268,OZONE,12,44,13
India,Karnataka,Bagalkot,"Vidayagiri, Bagalkot - KSPCB",16-04-2024 09:00:00,16.172806,75.659694,PM2.5,25,40,37
India,Karnataka,Belgaum,"Ramteerth Nagar, Belgaum - KSPCB",16-04-2024 09:00:00,15.888653,74.541751,OZONE,19,20,19
India,Karnataka,Bengaluru,"BTM Layout, Bengaluru - CPCB",16-04-2024 09:00:00,12.9135218,77.5950804,PM2.5,NA,NA,NA
India,Karnataka,Bengaluru,"BTM Layout, Bengaluru - CPCB",16-04-2024 09:00:00,12.9135218,77.5950804,CO,NA,NA,NA
India,Karnataka,Bengaluru,"Bapuji Nagar, Bengaluru - KSPCB",16-04-2024 09:00:00,12.951913,77.539784,PM10,NA,NA,NA
India,Karnataka,Bengaluru,"Jayanagar 5th Block, Bengaluru - KSPCB",16-04-2024 09:00:00,12.920984,77.584908,CO,5,8,6
India,Karnataka,Bengaluru,"Kasturi Nagar, Bengaluru - KSPCB",16-04-2024 09:00:00,13.003872,77.664217,PM2.5,39,343,102
India,Karnataka,Bengaluru,"Kasturi Nagar, Bengaluru - KSPCB",16-04-2024 09:00:00,13.003872,77.664217,NO2,16,17,17
India,Karnataka,Bengaluru,"Kasturi Nagar, Bengaluru - KSPCB",16-04-2024 09:00:00,13.003872,77.664217,NH3,3,4,4
India,Karnataka,Bengaluru,"Peenya, Bengaluru - CPCB",16-04-2024 09:00:00,13.0270199,77.494094,PM2.5,19,47,33
India,Karnataka,Bengaluru,"Peenya, Bengaluru - CPCB",16-04-2024 09:00:00,13.0270199,77.494094,OZONE,16,56,30
India,Karnataka,Bengaluru,"RVCE-Mailasandra, Bengaluru - KSPCB",16-04-2024 09:00:00,12.921418,77.502466,OZONE,39,39,39
India,Karnataka,Bengaluru,"Sanegurava Halli, Bengaluru - KSPCB",16-04-2024 09:00:00,12.990328,77.5431385,SO2,2,4,3
India,Karnataka,Bengaluru,"Shivapura_Peenya, Bengaluru - KSPCB",16-04-2024 09:00:00,13.0246342,77.5080115,PM2.5,11,81,35
India,Karnataka,Bidar,"Naubad, Bidar - KSPCB",16-04-2024 09:00:00,17.930306,77.482194,NH3,2,3,3
India,Karnataka,Bidar,"Naubad, Bidar - KSPCB",16-04-2024 09:00:00,17.930306,77.482194,SO2,13,23,17
India,Karnataka,Chamarajanagar,"Urban, Chamarajanagar - KSPCB",16-04-2024 09:00:00,11.55358,76.55521,SO2,2,8,4
India,Karnataka,Chamarajanagar,"Urban, Chamarajanagar - KSPCB",16-04-2024 09:00:00,11.55358,76.55521,CO,19,26,19
India,Karnataka,Chikkaballapur,"Chikkaballapur Rural, Chikkaballapur - KSPCB",16-04-2024 09:00:00,13.428828,77.731418,OZONE,25,26,26
India,Karnataka,Chikkamagaluru,"Kalyana Nagara, Chikkamagaluru - KSPCB",16-04-2024 09:00:00,13.328028,75.797056,PM10,15,268,46
India,Karnataka,Chikkamagaluru,"Kalyana Nagara, Chikkamagaluru - KSPCB",16-04-2024 09:00:00,13.328028,75.797056,CO,11,115,23
India,Karnataka,Davanagere,"Devaraj Urs Badavane, Davanagere - KSPCB",16-04-2024 09:00:00,14.475800,75.905200,PM2.5,15,68,40
India,Karnataka,Dharwad,"Kalabhavan, Dharwad - KSPCB",16-04-2024 09:00:00,15.459706,75.008381,SO2,2,7,4
India,Karnataka,Gadag,"Panchal Nagar, Gadag - KSPCB",16-04-2024 09:00:00,15.411456,75.638133,PM2.5,26,396,62
India,Karnataka,Hassan,"B.Katihalli, Hassan - KSPCB",16-04-2024 09:00:00,13.008556,76.125258,PM10,NA,NA,NA
India,Karnataka,Haveri,"Ashwini Nagar, Haveri - KSPCB",16-04-2024 09:00:00,14.791800,75.389600,NO2,27,40,32
India,Karnataka,Haveri,"Ashwini Nagar, Haveri - KSPCB",16-04-2024 09:00:00,14.791800,75.389600,CO,36,38,38
India,Karnataka,Kalaburagi,"Lal Bahadur Shastri Nagar, Kalaburagi - KSPCB",16-04-2024 09:00:00,17.321993,76.822628,PM10,15,124,47
India,Karnataka,Kalaburagi,"Lal Bahadur Shastri Nagar, Kalaburagi - KSPCB",16-04-2024 09:00:00,17.321993,76.822628,CO,43,64,44
India,Karnataka,Kalaburagi,"Mahatma Basaveswar Colony, Kalaburgi - KSPCB",16-04-2024 09:00:00,17.336318,76.847397,NO2,11,16,13
India,Karnataka,Karwar,"KHB Colony, Karwar - KSPCB",16-04-2024 09:00:00,14.816666,74.141003,PM10,29,77,52
India,Karnataka,Karwar,"KHB Colony, Karwar - KSPCB",16-04-2024 09:00:00,14.816666,74.141003,NH3,1,17,3
India,Karnataka,Madikeri,"Stuart Hill, Madikeri - KSPCB",16-04-2024 09:00:00,12.415911,75.735050,PM2.5,11,52,32
India,Karnataka,Mysuru,"Hebbal 1st Stage, Mysuru - KSPCB",16-04-2024 09:00:00,12.21041,76.37376,NO2,14,28,20
India,Karnataka,Ramanagara,"Vijay Nagar, Ramanagara - KSPCB",16-04-2024 09:00:00,12.733409,77.298051,NO2,2,11,4
India,Karnataka,Shivamogga,"Vinoba Nagara, Shivamogga - KSPCB",16-04-2024 09:00:00,13.940000,75.555917,PM2.5,37,42,40
India,Karnataka,Shivamogga,"Vinoba Nagara, Shivamogga - KSPCB",16-04-2024 09:00:00,13.940000,75.555917,PM10,52,56,55
India,Karnataka,Shivamogga,"Vinoba Nagara, Shivamogga - KSPCB",16-04-2024 09:00:00,13.940000,75.555917,NO2,10,27,14
India,Karnataka,Shivamogga,"Vinoba Nagara, Shivamogga - KSPCB",16-04-2024 09:00:00,13.940000,75.555917,NH3,2,5,3
India,Karnataka,Tumakuru,"Thimmalapura, Tumakuru - KSPCB",16-04-2024 09:00:00,13.377516,77.099072,CO,28,34,32
India,Karnataka,Vijayapura,"Ibrahimpur, Vijayapura - KSPCB",16-04-2024 09:00:00,16.802639,75.722694,PM10,41,43,42
India,Karnataka,Vijayapura,"Ibrahimpur, Vijayapura - KSPCB",16-04-2024 09:00:00,16.802639,75.722694,NO2,17,19,19
India,Karnataka,Vijayapura,"Ibrahimpur, Vijayapura - KSPCB",16-04-2024 09:00:00,16.802639,75.722694,SO2,NA,NA,NA
India,Kerala,Eloor,"Udyogamandal, Eloor - Kerala PCB",16-04-2024 09:00:00,10.073232,76.302765,SO2,1,18,4
India,Kerala,Eloor,"Udyogamandal, Eloor - Kerala PCB",16-04-2024 09:00:00,10.073232,76.302765,OZONE,12,24,13
India,Kerala,Kollam,"Polayathode, Kollam - Kerala PCB",16-04-2024 09:00:00,8.8787,76.6073,OZONE,32,40,34
India,Kerala,Thiruvananthapuram,"Kariavattom, Thiruvananthapuram - Kerala PCB",16-04-2024 09:00:00,8.563700,76.886500,PM10,81,91,86
India,Kerala,Thiruvananthapuram,"Kariavattom, Thiruvananthapuram - Kerala PCB",16-04-2024 09:00:00,8.563700,76.886500,CO,18,42,23
India,Kerala,Thiruvananthapuram,"Kariavattom, Thiruvananthapuram - Kerala PCB",16-04-2024 09:00:00,8.563700,76.886500,OZONE,28,32,30
India,Kerala,Thiruvananthapuram,"Plammoodu, Thiruvananthapuram - Kerala PCB",16-04-2024 09:00:00,8.5149093,76.9435879,PM2.5,18,67,35
India,Kerala,Thiruvananthapuram,"Plammoodu, Thiruvananthapuram - Kerala PCB",16-04-2024 09:00:00,8.5149093,76.9435879,NO2,8,10,9
India,Kerala,Thrissur,"Corporation Ground, Thrissur - Kerala PCB",16-04-2024 09:00:00,10.532400,76.215900,NH3,1,1,1
India,Kerala,Thrissur,"Corporation Ground, Thrissur - Kerala PCB",16-04-2024 09:00:00,10.532400,76.215900,CO,14,32,14
India,Madhya Pradesh,Bhopal,"Idgah Hills, Bhopal - MPPCB",16-04-2024 09:00:00,23.264759,77.381568,OZONE,16,129,45
India,Madhya Pradesh,Bhopal,"Paryavaran Parisar, Bhopal - MPPCB",16-04-2024 09:00:00,23.210494,77.425409,PM2.5,43,113,64
India,Madhya Pradesh,Bhopal,"Paryavaran Parisar, Bhopal - MPPCB",16-04-2024 09:00:00,23.210494,77.425409,SO2,8,24,10
India,Madhya Pradesh,Bhopal,"T T Nagar, Bhopal - MPPCB",16-04-2024 09:00:00,23.233584,77.400574,OZONE,23,110,36
India,Madhya Pradesh,Dewas,"Bhopal Chauraha, Dewas - MPPCB",16-04-2024 09:00:00,22.9682591,76.064118,PM2.5,35,102,67
India,Madhya Pradesh,Gwalior,"City Center, Gwalior - MPPCB",16-04-2024 09:00:00,26.203442,78.193251,PM2.5,NA,NA,NA
India,Madhya Pradesh,Gwalior,"City Center, Gwalior - MPPCB",16-04-2024 09:00:00,26.203442,78.193251,PM10,NA,NA,NA
India,Madhya Pradesh,Gwalior,"City Center, Gwalior - MPPCB",16-04-2024 09:00:00,26.203442,78.193251,SO2,NA,NA,NA
India,Madhya Pradesh,Gwalior,"City Center, Gwalior - MPPCB",16-04-2024 09:00:00,26.203442,78.193251,OZONE,NA,NA,NA
India,Madhya Pradesh,Gwalior,"Deen Dayal Nagar, Gwalior - MPPCB",16-04-2024 09:00:00,26.259242,78.216432,CO,20,109,32
India,Madhya Pradesh,Gwalior,"Maharaj Bada, Gwalior - MPPCB",16-04-2024 09:00:00,26.200388,78.147714,NH3,4,17,11
India,Madhya Pradesh,Gwalior,"Maharaj Bada, Gwalior - MPPCB",16-04-2024 09:00:00,26.200388,78.147714,CO,2,42,19
India,Madhya Pradesh,Indore,"Chhoti Gwaltoli, Indore - MPPCB",16-04-2024 09:00:00,22.4310,75.5213,NO2,36,121,78
India,Madhya Pradesh,Indore,"Regional Park, Indore - IMC",16-04-2024 09:00:00,22.6780,75.8559,PM2.5,43,168,84
India,Madhya Pradesh,Indore,"Regional Park, Indore - IMC",16-04-2024 09:00:00,22.6780,75.8559,SO2,37,42,40
India,Madhya Pradesh,Indore,"Regional Park, Indore - IMC",16-04-2024 09:00:00,22.6780,75.8559,CO,26,62,59
India,Madhya Pradesh,Indore,"Regional Park, Indore - IMC",16-04-2024 09:00:00,22.6780,75.8559,OZONE,10,24,16
India,Madhya Pradesh,Indore,"Residency Area, Indore - IMC",16-04-2024 09:00:00,22.7084,75.8815,NO2,31,55,41
India,Madhya Pradesh,Indore,"Residency Area, Indore - IMC",16-04-2024 09:00:00,22.7084,75.8815,SO2,24,32,27
India,Madhya Pradesh,Indore,"Residency Area, Indore - IMC",16-04-2024 09:00:00,22.7084,75.8815,OZONE,10,18,11
India,Madhya Pradesh,Jabalpur,"Govindh Bhavan Colony, Jabalpur - JMC",16-04-2024 09:00:00,23.163174,79.973061,PM2.5,23,80,41
India,Madhya Pradesh,Jabalpur,"Govindh Bhavan Colony, Jabalpur - JMC",16-04-2024 09:00:00,23.163174,79.973061,NH3,17,44,30
India,Madhya Pradesh,Jabalpur,"Gupteshwar, Jabalpur - JMC",16-04-2024 09:00:00,23.142888,79.916147,PM2.5,8,100,46
India,Madhya Pradesh,Jabalpur,"Gupteshwar, Jabalpur - JMC",16-04-2024 09:00:00,23.142888,79.916147,SO2,4,11,7
India,Madhya Pradesh,Jabalpur,"Marhatal, Jabalpur - MPPCB",16-04-2024 09:00:00,23.168606,79.932247,NH3,3,4,3
India,Madhya Pradesh,Jabalpur,"Marhatal, Jabalpur - MPPCB",16-04-2024 09:00:00,23.168606,79.932247,SO2,8,14,11
India,Madhya Pradesh,Jabalpur,"Suhagi, Jabalpur - JMC",16-04-2024 09:00:00,23.218135,79.957770,PM10,NA,NA,NA
India,Madhya Pradesh,Katni,"Gole Bazar, Katni - MPPCB",16-04-2024 09:00:00,23.50016,80.23284,NH3,2,6,5
India,Madhya Pradesh,Katni,"Gole Bazar, Katni - MPPCB",16-04-2024 09:00:00,23.50016,80.23284,SO2,14,103,41
India,Madhya Pradesh,Katni,"Gole Bazar, Katni - MPPCB",16-04-2024 09:00:00,23.50016,80.23284,OZONE,23,104,36
India,Madhya Pradesh,Mandideep,"Sector-D Industrial Area, Mandideep - MPPCB",16-04-2024 09:00:00,23.108440,77.511428,PM2.5,38,203,81
India,Madhya Pradesh,Ratlam,"Shasthri Nagar, Ratlam - IPCA Lab",16-04-2024 09:00:00,23.331731,75.045981,PM10,57,388,135
India,Madhya Pradesh,Sagar,"Civil Lines, Sagar - MPPCB",16-04-2024 09:00:00,23.838586,78.759431,NH3,5,6,5
India,Madhya Pradesh,Sagar,"Civil Lines, Sagar - MPPCB",16-04-2024 09:00:00,23.838586,78.759431,SO2,1,31,6
India,Madhya Pradesh,Sagar,"Civil Lines, Sagar - MPPCB",16-04-2024 09:00:00,23.838586,78.759431,CO,15,42,25
India,Madhya Pradesh,Sagar,"Deen Dayal Nagar, Sagar - MPPCB",16-04-2024 09:00:00,23.8640158,78.80289321,PM10,16,94,51
India,Madhya Pradesh,Satna,"Bandhavgar Colony, Satna - Birla Cement",16-04-2024 09:00:00,24.58434363,80.8549414,PM10,5,93,50
India,Madhya Pradesh,Satna,"Bandhavgar Colony, Satna - Birla Cement",16-04-2024 09:00:00,24.58434363,80.8549414,NO2,24,69,36
India,Madhya Pradesh,Ujjain,"Mahakaleshwar Temple, Ujjain - MPPCB",16-04-2024 09:00:00,23.182719 ,75.768218 ,PM2.5,41,500,116
India,Madhya Pradesh,Ujjain,"Mahakaleshwar Temple, Ujjain - MPPCB",16-04-2024 09:00:00,23.182719 ,75.768218 ,NO2,12,74,35
India,Madhya Pradesh,Ujjain,"Mahakaleshwar Temple, Ujjain - MPPCB",16-04-2024 09:00:00,23.182719 ,75.768218 ,OZONE,72,126,108
India,Maharashtra,Ahmednagar,"Tarakpur, Ahmednagar - MPCB",16-04-2024 09:00:00,19.10122,74.73339,PM2.5,33,129,72
India,Maharashtra,Ahmednagar,"Tarakpur, Ahmednagar - MPCB",16-04-2024 09:00:00,19.10122,74.73339,SO2,5,17,12
India,Maharashtra,Ahmednagar,"Tarakpur, Ahmednagar - MPCB",16-04-2024 09:00:00,19.10122,74.73339,OZONE,16,138,61
India,Maharashtra,Akola,"Ramdaspeth, Akola - MPCB",16-04-2024 09:00:00,20.719516,77.000253,NO2,10,50,19
India,Maharashtra,Akola,"Ramdaspeth, Akola - MPCB",16-04-2024 09:00:00,20.719516,77.000253,OZONE,9,65,14
India,Maharashtra,Aurangabad,"MIDC Chilkalthana, Aurangabad - MPCB",16-04-2024 09:00:00,19.875620,75.387310,SO2,4,8,6
India,Maharashtra,Aurangabad,"Rachnakar Colony, Aurangabad - MPCB",16-04-2024 09:00:00,19.863756,75.321188,OZONE,24,139,34
India,Maharashtra,Badlapur,"Katrap, Badlapur - MPCB",16-04-2024 09:00:00,19.16485,73.23409,PM2.5,NA,NA,NA
India,Maharashtra,Belapur,"CBD Belapur, Belapur - MPCB",16-04-2024 09:00:00,19.0243902,73.0406721,NH3,2,3,3
India,Maharashtra,Belapur,"CBD Belapur, Belapur - MPCB",16-04-2024 09:00:00,19.0243902,73.0406721,CO,24,55,41
India,Maharashtra,Bhiwandi,"Gokul Nagar, Bhiwandi - MPCB",16-04-2024 09:00:00,19.309073,73.057223,PM2.5,81,208,128
India,Maharashtra,Boisar,"Khaira, Boisar - MPCB",16-04-2024 09:00:00,19.786089,72.757971,NH3,6,14,9
India,Maharashtra,Jalgaon,"Prabhat Colony, Jalgaon - MPCB",16-04-2024 09:00:00,21.001264,75.565602,NO2,15,140,39
India,Maharashtra,Jalgaon,"Prabhat Colony, Jalgaon - MPCB",16-04-2024 09:00:00,21.001264,75.565602,OZONE,4,131,19
India,Maharashtra,Jalna,"Old MIDC, Jalna - MPCB",16-04-2024 09:00:00,19.854616,75.905894,SO2,1,4,2
India,Maharashtra,Jalna,"Old MIDC, Jalna - MPCB",16-04-2024 09:00:00,19.854616,75.905894,CO,22,28,26
India,Maharashtra,Kalyan,"Khadakpada, Kalyan - MPCB",16-04-2024 09:00:00,19.25292,73.142019,PM2.5,88,324,177
India,Maharashtra,Kalyan,"Khadakpada, Kalyan - MPCB",16-04-2024 09:00:00,19.25292,73.142019,PM10,92,214,131
India,Maharashtra,Kolhapur,"Shivaji University, Kolhapur - MPCB",16-04-2024 09:00:00,16.6870449,74.2505872,PM2.5,51,184,107
India,Maharashtra,Kolhapur,"Shivaji University, Kolhapur - MPCB",16-04-2024 09:00:00,16.6870449,74.2505872,OZONE,16,127,29
India,Maharashtra,Kolhapur,"Sinchan Bhavan, Kolhapur - MPCB",16-04-2024 09:00:00,16.7143745,74.2426398,PM10,62,107,83
India,Maharashtra,Kolhapur,"Sinchan Bhavan, Kolhapur - MPCB",16-04-2024 09:00:00,16.7143745,74.2426398,NH3,7,8,8
India,Maharashtra,Latur,"Sawe Wadi, Latur - MPCB",16-04-2024 09:00:00,18.39963,76.57452,NO2,17,166,54
India,Maharashtra,Latur,"Sawe Wadi, Latur - MPCB",16-04-2024 09:00:00,18.39963,76.57452,NH3,1,9,3
India,Maharashtra,Mahad,"Kamble Tarf Birwadi, Mahad - MPCB",16-04-2024 09:00:00,18.1023399,73.4783687,PM2.5,67,181,91
India,Maharashtra,Mahad,"Kamble Tarf Birwadi, Mahad - MPCB",16-04-2024 09:00:00,18.1023399,73.4783687,PM10,61,128,91
India,Maharashtra,Malegaon,"Mahesh Nagar, Malegaon - MPCB",16-04-2024 09:00:00,20.555712,74.529236,NO2,1,18,7
India,Maharashtra,Mira-Bhayandar,"Bhayandar West, Mira-Bhayandar - MPCB",16-04-2024 09:00:00,19.296481,72.840923,CO,8,60,14
India,Maharashtra,Mumbai,"Bandra Kurla Complex, Mumbai - MPCB",16-04-2024 09:00:00,19.065931,72.862131,SO2,1,3,2
India,Maharashtra,Mumbai,"Borivali East, Mumbai - MPCB",16-04-2024 09:00:00,19.2243333,72.8658113,NH3,1,3,1
India,Maharashtra,Mumbai,"Borivali East, Mumbai - MPCB",16-04-2024 09:00:00,19.2243333,72.8658113,CO,2,38,21
India,Maharashtra,Mumbai,"Byculla, Mumbai - BMC",16-04-2024 09:00:00,18.9767,72.8380,PM10,47,100,73
India,Maharashtra,Mumbai,"Byculla, Mumbai - BMC",16-04-2024 09:00:00,18.9767,72.8380,NO2,8,35,17
India,Maharashtra,Mumbai,"Chakala-Andheri East, Mumbai - IITM",16-04-2024 09:00:00,19.11074,72.86084,CO,10,111,50
India,Maharashtra,Mumbai,"Chembur, Mumbai - MPCB",16-04-2024 09:00:00,19.0364585,72.8954371,OZONE,6,148,37
India,Maharashtra,Mumbai,"Chhatrapati Shivaji Intl. Airport (T2), Mumbai - MPCB",16-04-2024 09:00:00,19.10078,72.87462,SO2,21,58,35
India,Maharashtra,Mumbai,"Kandivali East, Mumbai - MPCB",16-04-2024 09:00:00,19.205800,72.868200,PM10,66,426,152
India,Maharashtra,Mumbai,"Kandivali East, Mumbai - MPCB",16-04-2024 09:00:00,19.205800,72.868200,NH3,4,35,8
India,Maharashtra,Mumbai,"Kandivali East, Mumbai - MPCB",16-04-2024 09:00:00,19.205800,72.868200,OZONE,30,31,30
India,Maharashtra,Mumbai,"Kandivali West, Mumbai - BMC",16-04-2024 09:00:00,19.215859,72.831718,CO,7,104,11
India,Maharashtra,Mumbai,"Khindipada-Bhandup West, Mumbai - IITM",16-04-2024 09:00:00,19.1653323,72.922099,NO2,7,29,15
India,Maharashtra,Mumbai,"Khindipada-Bhandup West, Mumbai - IITM",16-04-2024 09:00:00,19.1653323,72.922099,SO2,3,13,5
India,Maharashtra,Mumbai,"Kurla, Mumbai - MPCB",16-04-2024 09:00:00,19.0863,72.8888,NH3,2,2,2
India,Maharashtra,Mumbai,"Mulund West, Mumbai - MPCB",16-04-2024 09:00:00,19.1750,72.9419,PM10,98,230,142
India,Maharashtra,Mumbai,"Mulund West, Mumbai - MPCB",16-04-2024 09:00:00,19.1750,72.9419,NH3,10,11,10
India,Maharashtra,Mumbai,"Mulund West, Mumbai - MPCB",16-04-2024 09:00:00,19.1750,72.9419,CO,35,36,36
India,Maharashtra,Mumbai,"Mulund West, Mumbai - MPCB",16-04-2024 09:00:00,19.1750,72.9419,OZONE,7,7,7
India,Maharashtra,Mumbai,"Navy Nagar-Colaba, Mumbai - IITM",16-04-2024 09:00:00,18.897756,72.813320,PM10,66,142,104
India,Maharashtra,Mumbai,"Navy Nagar-Colaba, Mumbai - IITM",16-04-2024 09:00:00,18.897756,72.813320,NO2,14,52,22
India,Maharashtra,Mumbai,"Powai, Mumbai - MPCB",16-04-2024 09:00:00,19.137500,72.915056,PM2.5,47,101,71
India,Maharashtra,Mumbai,"Powai, Mumbai - MPCB",16-04-2024 09:00:00,19.137500,72.915056,NO2,19,47,29
India,Maharashtra,Mumbai,"Shivaji Nagar, Mumbai - BMC",16-04-2024 09:00:00,19.060498,72.923356,NO2,26,145,73
India,Maharashtra,Mumbai,"Shivaji Nagar, Mumbai - BMC",16-04-2024 09:00:00,19.060498,72.923356,OZONE,2,92,27
India,Maharashtra,Mumbai,"Sion, Mumbai - MPCB",16-04-2024 09:00:00,19.047000,72.874600,PM2.5,57,249,101
India,Maharashtra,Mumbai,"Sion, Mumbai - MPCB",16-04-2024 09:00:00,19.047000,72.874600,NO2,21,73,40
India,Maharashtra,Mumbai,"Vasai West, Mumbai - MPCB",16-04-2024 09:00:00,19.383200,72.820400,NO2,25,28,27
India,Maharashtra,Mumbai,"Vasai West, Mumbai - MPCB",16-04-2024 09:00:00,19.383200,72.820400,SO2,16,17,17
India,Maharashtra,Nagpur,"Opp GPO Civil Lines, Nagpur - MPCB",16-04-2024 09:00:00,21.152875,79.0517531,SO2,1,121,15
India,Maharashtra,Nashik,"Gangapur Road, Nashik - MPCB",16-04-2024 09:00:00,20.0073285,73.7762427,NH3,1,2,1
India,Maharashtra,Nashik,"Hirawadi, Nashik - MPCB",16-04-2024 09:00:00,20.021503,73.813844,OZONE,15,125,24
India,Maharashtra,Nashik,"MIDC Ambad, Nashik - MPCB",16-04-2024 09:00:00,19.950220,73.731480,NO2,13,45,21
India,Maharashtra,Navi Mumbai,"Kopripada-Vashi, Navi Mumbai - MPCB",16-04-2024 09:00:00,19.090337,73.014232,SO2,1,9,6
India,Maharashtra,Navi Mumbai,"Mahape, Navi Mumbai - MPCB",16-04-2024 09:00:00,19.1135051,73.008978,PM2.5,73,206,122
India,Maharashtra,Navi Mumbai,"Mahape, Navi Mumbai - MPCB",16-04-2024 09:00:00,19.1135051,73.008978,PM10,118,212,156
India,Maharashtra,Navi Mumbai,"Sanpada, Navi Mumbai - MPCB",16-04-2024 09:00:00,19.0575752,73.0151367,PM2.5,NA,NA,NA
India,Maharashtra,Navi Mumbai,"Sanpada, Navi Mumbai - MPCB",16-04-2024 09:00:00,19.0575752,73.0151367,OZONE,64,64,64
India,Maharashtra,Navi Mumbai,"Sector-19A Nerul, Navi Mumbai - IITM",16-04-2024 09:00:00,19.044,73.0325,PM2.5,85,215,122
India,Maharashtra,Navi Mumbai,"Sector-19A Nerul, Navi Mumbai - IITM",16-04-2024 09:00:00,19.044,73.0325,NH3,8,10,9
India,Maharashtra,Navi Mumbai,"Sector-2E Kalamboli, Navi Mumbai - MPCB",16-04-2024 09:00:00,19.02579,73.10297,PM10,76,193,125
India,Maharashtra,Navi Mumbai,"Tondare-Taloja, Navi Mumbai - MPCB",16-04-2024 09:00:00,19.0630,73.1209,PM10,90,156,128
India,Maharashtra,Navi Mumbai,"Tondare-Taloja, Navi Mumbai - MPCB",16-04-2024 09:00:00,19.0630,73.1209,NH3,3,6,4
India,Maharashtra,Navi Mumbai,"Tondare-Taloja, Navi Mumbai - MPCB",16-04-2024 09:00:00,19.0630,73.1209,CO,8,66,39
India,Maharashtra,Parbhani,"Masoom Colony, Parbhani - MPCB",16-04-2024 09:00:00,19.265594,76.761463,NO2,19,109,39
India,Maharashtra,Parbhani,"Masoom Colony, Parbhani - MPCB",16-04-2024 09:00:00,19.265594,76.761463,CO,23,106,33
India,Maharashtra,Pimpri-Chinchwad,"Gavalinagar, Pimpri Chinchwad - MPCB",16-04-2024 09:00:00,18.63673,73.82487,OZONE,6,135,28
India,Maharashtra,Pimpri-Chinchwad,"Park Street Wakad, Pimpri Chinchwad - MPCB",16-04-2024 09:00:00,18.59051,73.77946,PM2.5,45,86,60
India,Maharashtra,Pimpri-Chinchwad,"Park Street Wakad, Pimpri Chinchwad - MPCB",16-04-2024 09:00:00,18.59051,73.77946,NO2,62,109,78
India,Maharashtra,Pimpri-Chinchwad,"Park Street Wakad, Pimpri Chinchwad - MPCB",16-04-2024 09:00:00,18.59051,73.77946,CO,14,60,38
India,Maharashtra,Pimpri-Chinchwad,"Park Street Wakad, Pimpri Chinchwad - MPCB",16-04-2024 09:00:00,18.59051,73.77946,OZONE,2,71,17
India,Maharashtra,Pimpri-Chinchwad,"Thergaon, Pimpri Chinchwad - MPCB",16-04-2024 09:00:00,18.616318,73.765797,PM2.5,NA,NA,NA
India,Maharashtra,Pimpri-Chinchwad,"Thergaon, Pimpri Chinchwad - MPCB",16-04-2024 09:00:00,18.616318,73.765797,PM10,NA,NA,NA
India,Maharashtra,Pune,"Karve Road, Pune - MPCB",16-04-2024 09:00:00,18.5011743,73.8165527,NO2,NA,NA,NA
India,Maharashtra,Pune,"Karve Road, Pune - MPCB",16-04-2024 09:00:00,18.5011743,73.8165527,OZONE,7,7,5
India,Maharashtra,Pune,"Mhada Colony, Pune - IITM",16-04-2024 09:00:00,18.573040,73.927715,PM10,51,94,75
India,Maharashtra,Pune,"Mhada Colony, Pune - IITM",16-04-2024 09:00:00,18.573040,73.927715,CO,1,15,4
India,Maharashtra,Pune,"Revenue Colony-Shivajinagar, Pune - IITM",16-04-2024 09:00:00,18.530085,73.849598,SO2,NA,NA,NA
India,Maharashtra,Pune,"Revenue Colony-Shivajinagar, Pune - IITM",16-04-2024 09:00:00,18.530085,73.849598,CO,104,113,110
India,Maharashtra,Pune,"Savitribai Phule Pune University, Pune - MPCB",16-04-2024 09:00:00,18.547056,73.826908,NO2,11,27,19
India,Maharashtra,Pune,"Savitribai Phule Pune University, Pune - MPCB",16-04-2024 09:00:00,18.547056,73.826908,CO,16,57,38
India,Maharashtra,Pune,"Transport Nagar-Nigdi, Pune - IITM",16-04-2024 09:00:00,18.664282,73.763966,OZONE,7,66,18
India,Maharashtra,Sangli,"Vijay Nagar, Sangli - MPCB",16-04-2024 09:00:00, 16.5038,74.3623,OZONE,13,132,46
India,Maharashtra,Solapur,"Ratandeep Housing Society, Solapur - MPCB",16-04-2024 09:00:00,17.65439,75.90649,PM2.5,36,90,56
India,Maharashtra,Solapur,"Ratandeep Housing Society, Solapur - MPCB",16-04-2024 09:00:00,17.65439,75.90649,NO2,15,60,30
India,Maharashtra,Solapur,"Ratandeep Housing Society, Solapur - MPCB",16-04-2024 09:00:00,17.65439,75.90649,SO2,1,16,6
India,Maharashtra,Solapur,"Ratandeep Housing Society, Solapur - MPCB",16-04-2024 09:00:00,17.65439,75.90649,CO,16,50,23
India,Maharashtra,Solapur,"Solapur, Solapur - MPCB",16-04-2024 09:00:00,17.6599188,75.9063906,PM2.5,56,79,76
India,Maharashtra,Solapur,"Solapur, Solapur - MPCB",16-04-2024 09:00:00,17.6599188,75.9063906,SO2,98,105,104
India,Maharashtra,Thane,"Kasarvadavali, Thane - MPCB",16-04-2024 09:00:00,19.26777,72.97182,SO2,1,19,8
India,Maharashtra,Thane,"Kasarvadavali, Thane - MPCB",16-04-2024 09:00:00,19.26777,72.97182,CO,6,48,16
India,Maharashtra,Thane,"Pimpleshwar Mandir, Thane - MPCB",16-04-2024 09:00:00,19.192056,72.9585188,PM10,3,323,137
India,Maharashtra,Ulhasnagar,"Sidhi Vinayak Nagar, Ulhasnagar - MPCB",16-04-2024 09:00:00,19.235581,73.159121,PM2.5,68,214,127
India,Maharashtra,Ulhasnagar,"Sidhi Vinayak Nagar, Ulhasnagar - MPCB",16-04-2024 09:00:00,19.235581,73.159121,OZONE,20,228,37
India,Manipur,Imphal,"Manipur University, Imphal - Manipur PCB",16-04-2024 09:00:00,24.7524239,93.9286218,PM2.5,NA,NA,NA
India,Manipur,Imphal,"Manipur University, Imphal - Manipur PCB",16-04-2024 09:00:00,24.7524239,93.9286218,NO2,8,18,13
India,Manipur,Imphal,"Manipur University, Imphal - Manipur PCB",16-04-2024 09:00:00,24.7524239,93.9286218,NH3,NA,NA,NA
India,Manipur,Imphal,"Manipur University, Imphal - Manipur PCB",16-04-2024 09:00:00,24.7524239,93.9286218,SO2,86,92,88
India,Mizoram,Aizawl,"Sikulpuikawn, Aizawl - Mizoram PCB",16-04-2024 09:00:00,23.7176342,92.7192841,CO,20,28,24
India,Nagaland,Kohima,"PWD Juction, Kohima - NPCB",16-04-2024 09:00:00,25.6635413,94.0989878,PM10,74,156,120
India,Nagaland,Kohima,"PWD Juction, Kohima - NPCB",16-04-2024 09:00:00,25.6635413,94.0989878,NO2,3,4,3
India,Odisha,Angul,"Hakimapada, Angul - OSPCB",16-04-2024 09:00:00,20.832874,85.104082,PM2.5,55,440,162
India,Odisha,Angul,"Hakimapada, Angul - OSPCB",16-04-2024 09:00:00,20.832874,85.104082,CO,4,78,48
India,Odisha,Balasore,"Kalidaspur, Balasore - OSPCB",16-04-2024 09:00:00,21.51161,86.89088,SO2,14,56,28
India,Odisha,Barbil,"Forest Office, Barbil - OSPCB",16-04-2024 09:00:00,22.1166054,85.3945546,PM2.5,72,322,193
India,Odisha,Barbil,"Forest Office, Barbil - OSPCB",16-04-2024 09:00:00,22.1166054,85.3945546,CO,26,89,62
India,Odisha,Baripada,"Meher Colony, Baripada - OSPCB",16-04-2024 09:00:00,21.941841,86.728318,NO2,3,14,9
India,Odisha,Bhubaneswar,"Patia, Bhubaneswar - OSPCB",16-04-2024 09:00:00,20.34652,85.81630,SO2,2,20,7
India,Odisha,Bileipada,"Tata Township, Bileipada - OSPCB",16-04-2024 09:00:00,22.06156703,85.47409613,CO,27,101,75
India,Odisha,Brajrajnagar,"GM Office, Brajrajnagar - OSPCB",16-04-2024 09:00:00,21.8004996,83.8396977,NO2,15,19,16
India,Odisha,Brajrajnagar,"GM Office, Brajrajnagar - OSPCB",16-04-2024 09:00:00,21.8004996,83.8396977,OZONE,14,25,19
India,Odisha,Byasanagar,"Ferro Chrome Colony, Byasanagar - OSPCB",16-04-2024 09:00:00,20.94185,86.11510,PM10,56,177,100
India,Odisha,Cuttack,"CDA Area, Cuttack - OSPCB",16-04-2024 09:00:00,20.48891     ,85.84768     ,SO2,1,10,4
India,Odisha,Keonjhar,"Jagamohanpur, Keonjhar - OSPCB",16-04-2024 09:00:00,21.643900,85.599355,CO,8,77,34
India,Odisha,Nayagarh,"Dabuna, Nayagarh - OSPCB",16-04-2024 09:00:00,21.847279,85.416905,NO2,3,3,3
India,Odisha,Nayagarh,"Dabuna, Nayagarh - OSPCB",16-04-2024 09:00:00,21.847279,85.416905,OZONE,7,52,17
India,Odisha,Rairangpur,"Divisional Forest Office, Rairangpur - OSPCB",16-04-2024 09:00:00,22.265816,86.174829,CO,22,64,28
India,Odisha,Rourkela,"Fertilizer Township, Rourkela - OSPCB",16-04-2024 09:00:00,22.18972222,84.86277778,PM10,113,180,145
India,Odisha,Rourkela,"Raghunathpali, Rourkela - OSPCB",16-04-2024 09:00:00,22.220833,84.809444,NH3,1,3,2
India,Odisha,Rourkela,"Sector-2, Rourkela - OSPCB",16-04-2024 09:00:00,22.24500000,84.88111111,PM2.5,47,354,141
India,Odisha,Rourkela,"Sector-2, Rourkela - OSPCB",16-04-2024 09:00:00,22.24500000,84.88111111,NO2,33,34,33
India,Odisha,Suakati,"OMC Colony, Suakati - OSPCB",16-04-2024 09:00:00,21.606865,85.510538,PM10,93,118,104
India,Odisha,Suakati,"OMC Colony, Suakati - OSPCB",16-04-2024 09:00:00,21.606865,85.510538,NH3,3,5,4
India,Odisha,Suakati,"OMC Colony, Suakati - OSPCB",16-04-2024 09:00:00,21.606865,85.510538,CO,18,24,20
India,Puducherry,Puducherry,"Jawahar Nagar, Puducherry - PPCC",16-04-2024 09:00:00,11.9309,79.8027,PM2.5,5,78,34
India,Puducherry,Puducherry,"Jawahar Nagar, Puducherry - PPCC",16-04-2024 09:00:00,11.9309,79.8027,OZONE,5,35,14
India,Punjab,Amritsar,"Golden Temple, Amritsar - PPCB",16-04-2024 09:00:00,31.620000,74.876512,PM2.5,70,125,88
India,Punjab,Amritsar,"Golden Temple, Amritsar - PPCB",16-04-2024 09:00:00,31.620000,74.876512,NO2,12,35,28
India,Punjab,Bathinda,"Hardev Nagar, Bathinda - PPCB",16-04-2024 09:00:00,30.233011,74.907758,PM2.5,23,321,123
India,Punjab,Jalandhar,"Civil Line, Jalandhar - PPCB",16-04-2024 09:00:00,31.321907,75.578914,PM2.5,22,71,53
India,Punjab,Jalandhar,"Civil Line, Jalandhar - PPCB",16-04-2024 09:00:00,31.321907,75.578914,NH3,2,5,2
India,Punjab,Jalandhar,"Civil Line, Jalandhar - PPCB",16-04-2024 09:00:00,31.321907,75.578914,SO2,9,11,10
India,Punjab,Khanna,"Kalal Majra, Khanna - PPCB",16-04-2024 09:00:00,30.736056 ,76.209694,OZONE,23,90,33
India,Punjab,Ludhiana,"Punjab Agricultural University, Ludhiana - PPCB",16-04-2024 09:00:00,30.9028,75.8086,PM2.5,37,238,83
India,Punjab,Ludhiana,"Punjab Agricultural University, Ludhiana - PPCB",16-04-2024 09:00:00,30.9028,75.8086,PM10,40,155,81
India,Punjab,Patiala,"Model Town, Patiala - PPCB",16-04-2024 09:00:00,30.349388,76.366642,NO2,21,27,24
India,Punjab,Patiala,"Model Town, Patiala - PPCB",16-04-2024 09:00:00,30.349388,76.366642,SO2,3,58,14
India,Punjab,Patiala,"Model Town, Patiala - PPCB",16-04-2024 09:00:00,30.349388,76.366642,OZONE,13,86,19
India,Punjab,Rupnagar,"Ratanpura, Rupnagar - Ambuja Cements",16-04-2024 09:00:00,31.0325454,76.5623046,CO,26,60,41
India,Rajasthan,Ajmer,"Civil Lines,  Ajmer - RSPCB",16-04-2024 09:00:00,26.470859,74.646594,NH3,8,13,10
India,Rajasthan,Alwar,"Moti Doongri, Alwar - RSPCB",16-04-2024 09:00:00,27.554793,76.611536,NO2,30,58,46
India,Rajasthan,Alwar,"Moti Doongri, Alwar - RSPCB",16-04-2024 09:00:00,27.554793,76.611536,CO,15,54,31
India,Rajasthan,Banswara,"Rati Talai, Banswara - RSPCB",16-04-2024 09:00:00,23.555190,74.440010,PM2.5,65,328,195
India,Rajasthan,Banswara,"Rati Talai, Banswara - RSPCB",16-04-2024 09:00:00,23.555190,74.440010,PM10,47,164,106
India,Rajasthan,Banswara,"Rati Talai, Banswara - RSPCB",16-04-2024 09:00:00,23.555190,74.440010,NO2,9,90,40
India,Rajasthan,Baran,"Bamboliya, Baran - RSPCB",16-04-2024 09:00:00,25.106006,76.469948,CO,16,41,29
India,Rajasthan,Bharatpur,"Krishna Nagar, Bharatpur - RSPCB",16-04-2024 09:00:00,27.215415,77.50873,PM2.5,69,336,181
India,Rajasthan,Bharatpur,"Krishna Nagar, Bharatpur - RSPCB",16-04-2024 09:00:00,27.215415,77.50873,PM10,90,332,164
India,Rajasthan,Bhiwadi,"RIICO Ind. Area III, Bhiwadi - RSPCB",16-04-2024 09:00:00,28.194909,76.862296,NO2,6,37,17
India,Rajasthan,Bhiwadi,"Vasundhara Nagar_UIT, Bhiwadi - RSPCB",16-04-2024 09:00:00,28.207266,76.829265,OZONE,8,66,12
India,Rajasthan,Bikaner,"MM Ground, Bikaner - RSPCB",16-04-2024 09:00:00,28.018792,73.292658,NH3,12,19,15
India,Rajasthan,Chittorgarh,"Shastri Nagar, Chittorgarh - RSPCB",16-04-2024 09:00:00,24.892047,74.623527,NH3,4,15,9
India,Rajasthan,Churu,"Subash Chowk, Churu - RSPCB",16-04-2024 09:00:00,28.296139,74.961696,NH3,NA,NA,NA
India,Rajasthan,Dausa,"Khatikan Mohalla, Dausa - RSPCB",16-04-2024 09:00:00,26.895552,76.334753,NO2,26,76,47
India,Rajasthan,Dausa,"Khatikan Mohalla, Dausa - RSPCB",16-04-2024 09:00:00,26.895552,76.334753,CO,14,196,22
India,Rajasthan,Dholpur,"Raja Ganj, Dholpur - RSPCB",16-04-2024 09:00:00,26.699557,77.898881,OZONE,1,18,4
India,Rajasthan,Dungarpur,"Bhoiwada, Dungarpur - RSPCB",16-04-2024 09:00:00,23.837789,73.714926,PM10,50,105,68
India,Rajasthan,Dungarpur,"Bhoiwada, Dungarpur - RSPCB",16-04-2024 09:00:00,23.837789,73.714926,SO2,1,2,2
India,Rajasthan,Jaipur,"Adarsh Nagar, Jaipur - RSPCB",16-04-2024 09:00:00,26.902909,75.836858,PM2.5,17,78,40
India,Rajasthan,Jaipur,"Adarsh Nagar, Jaipur - RSPCB",16-04-2024 09:00:00,26.902909,75.836858,NO2,19,93,43
India,Rajasthan,Jaipur,"Adarsh Nagar, Jaipur - RSPCB",16-04-2024 09:00:00,26.902909,75.836858,SO2,8,31,21
India,Rajasthan,Jaipur,"Police Commissionerate, Jaipur - RSPCB",16-04-2024 09:00:00,26.9164092,75.7994901,SO2,5,39,21
India,Rajasthan,Jaipur,"Police Commissionerate, Jaipur - RSPCB",16-04-2024 09:00:00,26.9164092,75.7994901,OZONE,14,94,42
India,Rajasthan,Jaipur,"RIICO Sitapura, Jaipur - RSPCB",16-04-2024 09:00:00,26.786682,75.827928,PM10,32,152,80
India,Rajasthan,Jaipur,"RIICO Sitapura, Jaipur - RSPCB",16-04-2024 09:00:00,26.786682,75.827928,CO,17,70,22
India,Rajasthan,Jaipur,"Sector-2 Murlipura, Jaipur - RSPCB",16-04-2024 09:00:00,26.960669,75.771817,PM10,23,138,78
India,Rajasthan,Jaipur,"Shastri Nagar, Jaipur - RSPCB",16-04-2024 09:00:00,26.9502929,75.730943,PM2.5,39,126,66
India,Rajasthan,Jaipur,"Shastri Nagar, Jaipur - RSPCB",16-04-2024 09:00:00,26.9502929,75.730943,NO2,NA,NA,NA
India,Rajasthan,Jaipur,"Shastri Nagar, Jaipur - RSPCB",16-04-2024 09:00:00,26.9502929,75.730943,OZONE,18,55,22
India,Rajasthan,Jalore,"Mudtra Sili, Jalore - RSPCB",16-04-2024 09:00:00,25.344694,72.626208,PM10,58,278,91
India,Rajasthan,Jalore,"Mudtra Sili, Jalore - RSPCB",16-04-2024 09:00:00,25.344694,72.626208,NH3,3,10,6
India,Rajasthan,Jhalawar,"Rajlaxmi Nagar, Jhalawar - RSPCB",16-04-2024 09:00:00,24.588397,76.172782,PM2.5,16,84,36
India,Rajasthan,Jhunjhunu,"Indra Nagar, Jhunjhunu - RSPCB",16-04-2024 09:00:00,28.108988,75.386577,NH3,6,8,7
India,Rajasthan,Jodhpur,"Digari Kalan, Jodhpur - RSPCB",16-04-2024 09:00:00,26.295810,73.082283,PM2.5,2,69,15
India,Rajasthan,Jodhpur,"Digari Kalan, Jodhpur - RSPCB",16-04-2024 09:00:00,26.295810,73.082283,PM10,23,137,58
India,Rajasthan,Jodhpur,"Digari Kalan, Jodhpur - RSPCB",16-04-2024 09:00:00,26.295810,73.082283,CO,9,30,12
India,Rajasthan,Jodhpur,"Mandor, Jodhpur - RSPCB",16-04-2024 09:00:00,26.358805,73.047444,NO2,26,52,36
India,Rajasthan,Jodhpur,"Mandor, Jodhpur - RSPCB",16-04-2024 09:00:00,26.358805,73.047444,OZONE,27,71,37
India,Rajasthan,Jodhpur,"Samrat Ashok Udhyan, Jodhpur - RSPCB",16-04-2024 09:00:00,26.253384,72.976571,NO2,5,37,13
India,Rajasthan,Jodhpur,"Samrat Ashok Udhyan, Jodhpur - RSPCB",16-04-2024 09:00:00,26.253384,72.976571,OZONE,42,83,51
India,Rajasthan,Karauli,"Satyawati Vihar, Karauli - RSPCB",16-04-2024 09:00:00,26.506177,77.025989,SO2,3,25,19
India,Rajasthan,Karauli,"Satyawati Vihar, Karauli - RSPCB",16-04-2024 09:00:00,26.506177,77.025989,CO,10,32,16
India,Rajasthan,Karauli,"Satyawati Vihar, Karauli - RSPCB",16-04-2024 09:00:00,26.506177,77.025989,OZONE,19,115,44
India,Rajasthan,Kota,"Nayapura, Kota - RSPCB",16-04-2024 09:00:00,25.196024,75.855668,OZONE,1,105,40
India,Rajasthan,Kota,"Shrinath Puram, Kota - RSPCB",16-04-2024 09:00:00,25.14389,75.821256,PM2.5,41,181,84
India,Rajasthan,Kota,"Shrinath Puram, Kota - RSPCB",16-04-2024 09:00:00,25.14389,75.821256,SO2,6,15,8
India,Rajasthan,Nagaur,"Karni Colony, Nagaur - RSPCB",16-04-2024 09:00:00,27.213494,73.734444,NH3,5,29,11
India,Rajasthan,Pratapgarh,"Pragati Nagar, Pratapgarh - RSPCB",16-04-2024 09:00:00,24.041198,74.780702,PM2.5,13,36,23
India,Rajasthan,Pratapgarh,"Pragati Nagar, Pratapgarh - RSPCB",16-04-2024 09:00:00,24.041198,74.780702,CO,13,158,18
India,Rajasthan,Rajsamand,"Dhoinda, Rajsamand - RSPCB",16-04-2024 09:00:00,25.036360,73.883502,SO2,NA,NA,NA
India,Rajasthan,Rajsamand,"Dhoinda, Rajsamand - RSPCB",16-04-2024 09:00:00,25.036360,73.883502,OZONE,13,55,41
India,Rajasthan,Sawai Madhopur,"Sahu Nagar, Sawai Madhopur - RSPCB",16-04-2024 09:00:00,26.031443,76.359327,SO2,4,50,13
India,Rajasthan,Sawai Madhopur,"Sahu Nagar, Sawai Madhopur - RSPCB",16-04-2024 09:00:00,26.031443,76.359327,CO,12,93,45
India,Rajasthan,Sikar,"Radhakishan Pura, Sikar - RSPCB",16-04-2024 09:00:00,27.608912,75.153302,OZONE,31,99,48
India,Rajasthan,Sirohi,"Vedhaynath Colony, Sirohi - RSPCB",16-04-2024 09:00:00,24.885261,72.857549,PM2.5,11,63,29
India,Rajasthan,Sirohi,"Vedhaynath Colony, Sirohi - RSPCB",16-04-2024 09:00:00,24.885261,72.857549,OZONE,7,77,26
India,Rajasthan,Sri Ganganagar,"Old City, Sri Ganganagar - RSPCB",16-04-2024 09:00:00,29.931624,73.864511,PM2.5,58,346,153
India,Rajasthan,Sri Ganganagar,"Old City, Sri Ganganagar - RSPCB",16-04-2024 09:00:00,29.931624,73.864511,NH3,14,26,20
India,Rajasthan,Sri Ganganagar,"Old City, Sri Ganganagar - RSPCB",16-04-2024 09:00:00,29.931624,73.864511,OZONE,10,60,24
India,Rajasthan,Tonk,"Shastri Nagar, Tonk - RSPCB",16-04-2024 09:00:00,26.159933,75.780517,NO2,10,74,22
India,Rajasthan,Udaipur,"Ashok Nagar, Udaipur - RSPCB",16-04-2024 09:00:00,24.5886166,73.6321397,PM10,44,99,75
India,Rajasthan,Udaipur,"Ashok Nagar, Udaipur - RSPCB",16-04-2024 09:00:00,24.5886166,73.6321397,SO2,5,16,10
India,Rajasthan,Udaipur,"Ashok Nagar, Udaipur - RSPCB",16-04-2024 09:00:00,24.5886166,73.6321397,OZONE,13,48,20
India,Sikkim,Gangtok,"Zero Point GICI, Gangtok - SSPCB",16-04-2024 09:00:00,27.338530,88.614099,PM2.5,17,40,29
India,Sikkim,Gangtok,"Zero Point GICI, Gangtok - SSPCB",16-04-2024 09:00:00,27.338530,88.614099,NH3,1,1,1
India,Sikkim,Gangtok,"Zero Point GICI, Gangtok - SSPCB",16-04-2024 09:00:00,27.338530,88.614099,OZONE,30,114,40
India,TamilNadu,Chengalpattu,"Crescent University, Chengalpattu - TNPCB",16-04-2024 09:00:00,12.8777316,80.0834807,NO2,NA,NA,NA
India,TamilNadu,Chennai,"Kodungaiyur, Chennai - TNPCB",16-04-2024 09:00:00,13.1278,80.2642,PM10,31,93,45
India,TamilNadu,Chennai,"Kodungaiyur, Chennai - TNPCB",16-04-2024 09:00:00,13.1278,80.2642,NH3,3,4,4
India,TamilNadu,Chennai,"Manali, Chennai - CPCB",16-04-2024 09:00:00,13.164544,80.26285,NH3,4,4,4
India,TamilNadu,Chennai,"Perungudi, Chennai - TNPCB",16-04-2024 09:00:00,12.9533,80.2357,NH3,2,3,2
India,TamilNadu,Chennai,"Royapuram, Chennai - TNPCB",16-04-2024 09:00:00,13.1036,80.2909,OZONE,9,11,9
India,TamilNadu,Chennai,"Velachery Res. Area, Chennai - CPCB",16-04-2024 09:00:00,13.0052189,80.2398125,PM10,30,55,42
India,TamilNadu,Chennai,"Velachery Res. Area, Chennai - CPCB",16-04-2024 09:00:00,13.0052189,80.2398125,NH3,8,15,12
India,TamilNadu,Cuddalore,"Kudikadu, Cuddalore - TNPCB",16-04-2024 09:00:00,11.6829898,79.7532099,SO2,NA,NA,NA
India,TamilNadu,Gummidipoondi,"Anthoni Pillai Nagar, Gummidipoondi - TNPCB",16-04-2024 09:00:00,13.4127,80.1081,SO2,3,103,42
India,TamilNadu,Palkalaiperur,"Bharathidasan University, Palkalaiperur - TNPCB",16-04-2024 09:00:00,10.681158,78.741746,SO2,27,29,28
India,TamilNadu,Salem,"Sona College of Technology, Salem - TNPCB",16-04-2024 09:00:00,11.679111,78.125052,PM10,27,95,55
India,TamilNadu,Tirupur,"Kumaran College, Tirupur - TNPCB",16-04-2024 09:00:00,11.0973603,77.3228673,PM2.5,8,48,21
India,TamilNadu,Vellore,"Vasanthapuram, Vellore - TNPCB",16-04-2024 09:00:00,12.909494,79.131861,PM2.5,10,63,34
India,TamilNadu,Vellore,"Vasanthapuram, Vellore - TNPCB",16-04-2024 09:00:00,12.909494,79.131861,SO2,NA,NA,NA
India,TamilNadu,Vellore,"Vasanthapuram, Vellore - TNPCB",16-04-2024 09:00:00,12.909494,79.131861,CO,NA,NA,NA
India,TamilNadu,Virudhunagar,"Collectorate Office, Virudhunagar - TNPCB",16-04-2024 09:00:00,9.559382,77.948828,PM2.5,27,61,39
India,TamilNadu,Virudhunagar,"Collectorate Office, Virudhunagar - TNPCB",16-04-2024 09:00:00,9.559382,77.948828,NO2,2,14,7
India,TamilNadu,Virudhunagar,"Collectorate Office, Virudhunagar - TNPCB",16-04-2024 09:00:00,9.559382,77.948828,SO2,7,10,8
India,TamilNadu,Virudhunagar,"Collectorate Office, Virudhunagar - TNPCB",16-04-2024 09:00:00,9.559382,77.948828,CO,26,29,27
India,Telangana,Hyderabad,"Central University, Hyderabad - TSPCB",16-04-2024 09:00:00,17.460103,78.334361,OZONE,3,4,3
India,Telangana,Hyderabad,"ECIL Kapra, Hyderabad - TSPCB",16-04-2024 09:00:00,17.470431,78.566959,SO2,1,34,14
India,Telangana,Hyderabad,"IITH Kandi, Hyderabad - TSPCB",16-04-2024 09:00:00,17.585705,78.126199,OZONE,29,38,38
India,Telangana,Hyderabad,"Kokapet, Hyderabad - TSPCB",16-04-2024 09:00:00,17.393559,78.339194,NO2,9,10,10
India,Telangana,Hyderabad,"Kokapet, Hyderabad - TSPCB",16-04-2024 09:00:00,17.393559,78.339194,OZONE,3,11,4
India,Telangana,Hyderabad,"Kompally Municipal Office, Hyderabad - TSPCB",16-04-2024 09:00:00,17.544899,78.486949,NO2,4,10,9
India,Telangana,Hyderabad,"Kompally Municipal Office, Hyderabad - TSPCB",16-04-2024 09:00:00,17.544899,78.486949,NH3,5,7,7
India,Telangana,Hyderabad,"Kompally Municipal Office, Hyderabad - TSPCB",16-04-2024 09:00:00,17.544899,78.486949,OZONE,29,77,35
India,Telangana,Hyderabad,"Nacharam_TSIIC IALA, Hyderabad - TSPCB",16-04-2024 09:00:00,17.429398,78.569354,OZONE,NA,NA,NA
India,Telangana,Hyderabad,"New Malakpet, Hyderabad - TSPCB",16-04-2024 09:00:00,17.37206,78.50864,CO,14,62,17
India,Telangana,Hyderabad,"Ramachandrapuram, Hyderabad - TSPCB",16-04-2024 09:00:00,17.528544,78.286195,PM10,NA,NA,NA
India,Telangana,Hyderabad,"Ramachandrapuram, Hyderabad - TSPCB",16-04-2024 09:00:00,17.528544,78.286195,NH3,NA,NA,NA
India,Telangana,Hyderabad,"Ramachandrapuram, Hyderabad - TSPCB",16-04-2024 09:00:00,17.528544,78.286195,CO,NA,NA,NA
India,Telangana,Hyderabad,"Sanathnagar, Hyderabad - TSPCB",16-04-2024 09:00:00,17.4559458,78.4332152,NO2,25,31,30
India,Telangana,Hyderabad,"Somajiguda, Hyderabad - TSPCB",16-04-2024 09:00:00,17.417094,78.457437,OZONE,10,52,13
India,Tripura,Agartala,"Bardowali, Agartala - Tripura SPCB",16-04-2024 09:00:00,23.8175497,91.2726974,CO,26,96,35
India,Uttar_Pradesh,Agra,"Manoharpur, Agra - UPPCB",16-04-2024 09:00:00,27.23711,78.01936,NH3,3,3,3
India,Uttar_Pradesh,Agra,"Sanjay Palace, Agra - UPPCB",16-04-2024 09:00:00,27.19865833,78.00598056,SO2,7,10,8
India,Uttar_Pradesh,Agra,"Sanjay Palace, Agra - UPPCB",16-04-2024 09:00:00,27.19865833,78.00598056,OZONE,44,108,86
India,Uttar_Pradesh,Agra,"Sector-3B Avas Vikas Colony, Agra - UPPCB",16-04-2024 09:00:00,27.19412,77.96237,NO2,18,59,28
India,Uttar_Pradesh,Agra,"Shahjahan Garden, Agra - UPPCB",16-04-2024 09:00:00,27.169338,78.03582,NO2,24,25,25
India,Uttar_Pradesh,Agra,"Shahjahan Garden, Agra - UPPCB",16-04-2024 09:00:00,27.169338,78.03582,OZONE,1,15,1
India,Uttar_Pradesh,Baghpat,"Sardar Patel Inter College, Baghpat - UPPCB",16-04-2024 09:00:00,28.964949,77.278761,SO2,18,109,49
India,Uttar_Pradesh,Bareilly,"Rajendra Nagar, Bareilly - UPPCB",16-04-2024 09:00:00,28.38910936,79.42963708,NO2,2,2,2
India,Uttar_Pradesh,Bulandshahr,"Yamunapuram, Bulandshahr - UPPCB",16-04-2024 09:00:00,28.406963,77.849831,PM10,85,246,140
India,Uttar_Pradesh,Bulandshahr,"Yamunapuram, Bulandshahr - UPPCB",16-04-2024 09:00:00,28.406963,77.849831,NO2,15,135,62
India,Uttar_Pradesh,Firozabad,"Nagla Bhau, Firozabad - UPPCB",16-04-2024 09:00:00,27.168897,78.376960,PM2.5,29,169,65
India,Uttar_Pradesh,Firozabad,"Nagla Bhau, Firozabad - UPPCB",16-04-2024 09:00:00,27.168897,78.376960,PM10,39,126,77
India,Uttar_Pradesh,Ghaziabad,"Indirapuram, Ghaziabad - UPPCB",16-04-2024 09:00:00,28.646233,77.358075,NO2,33,68,51
India,Uttar_Pradesh,Ghaziabad,"Indirapuram, Ghaziabad - UPPCB",16-04-2024 09:00:00,28.646233,77.358075,OZONE,1,69,1
India,Uttar_Pradesh,Ghaziabad,"Sanjay Nagar, Ghaziabad - UPPCB",16-04-2024 09:00:00,28.685382,77.453839,PM2.5,42,395,182
India,Uttar_Pradesh,Ghaziabad,"Vasundhara, Ghaziabad - UPPCB",16-04-2024 09:00:00,28.6603346,77.3572563,PM10,80,226,142
India,Uttar_Pradesh,Ghaziabad,"Vasundhara, Ghaziabad - UPPCB",16-04-2024 09:00:00,28.6603346,77.3572563,NO2,5,146,81
India,Uttar_Pradesh,Ghaziabad,"Vasundhara, Ghaziabad - UPPCB",16-04-2024 09:00:00,28.6603346,77.3572563,OZONE,14,52,17
India,Uttar_Pradesh,Gorakhpur,"Madan Mohan Malaviya University of Technology, Gorakhpur - UPPCB",16-04-2024 09:00:00,26.730136,83.433859,NO2,2,2,2
India,Uttar_Pradesh,Gorakhpur,"Madan Mohan Malaviya University of Technology, Gorakhpur - UPPCB",16-04-2024 09:00:00,26.730136,83.433859,SO2,33,42,38
India,Uttar_Pradesh,Greater Noida,"Knowledge Park - III, Greater Noida - UPPCB",16-04-2024 09:00:00,28.47272,77.482000,NO2,22,199,105
India,Uttar_Pradesh,Greater Noida,"Knowledge Park - III, Greater Noida - UPPCB",16-04-2024 09:00:00,28.47272,77.482000,SO2,3,53,29
India,Uttar_Pradesh,Greater Noida,"Knowledge Park - V, Greater Noida - UPPCB",16-04-2024 09:00:00,28.557054,77.453663,PM10,146,500,306
India,Uttar_Pradesh,Jhansi,"Shivaji Nagar, Jhansi - UPPCB",16-04-2024 09:00:00,25.4547,78.6039,NO2,8,36,18
India,Uttar_Pradesh,Jhansi,"Shivaji Nagar, Jhansi - UPPCB",16-04-2024 09:00:00,25.4547,78.6039,SO2,15,20,17
India,Uttar_Pradesh,Kanpur,"FTI Kidwai Nagar, Kanpur - UPPCB",16-04-2024 09:00:00,26.428282,80.327067,NO2,12,15,12
India,Uttar_Pradesh,Kanpur,"FTI Kidwai Nagar, Kanpur - UPPCB",16-04-2024 09:00:00,26.428282,80.327067,SO2,25,26,25
India,Uttar_Pradesh,Kanpur,"NSI Kalyanpur, Kanpur - UPPCB",16-04-2024 09:00:00,26.509954,80.249612,SO2,20,24,21
India,Uttar_Pradesh,Kanpur,"Nehru Nagar, Kanpur - UPPCB",16-04-2024 09:00:00,26.4703136,80.3229863,SO2,3,8,5
India,Uttar_Pradesh,Kanpur,"Nehru Nagar, Kanpur - UPPCB",16-04-2024 09:00:00,26.4703136,80.3229863,CO,20,56,45
India,Uttar_Pradesh,Khurja,"Kalindi Kunj, Khurja - UPPCB",16-04-2024 09:00:00,28.2348927,77.8683002,PM10,42,192,94
India,Uttar_Pradesh,Khurja,"Kalindi Kunj, Khurja - UPPCB",16-04-2024 09:00:00,28.2348927,77.8683002,NH3,1,2,1
India,Uttar_Pradesh,Khurja,"Kalindi Kunj, Khurja - UPPCB",16-04-2024 09:00:00,28.2348927,77.8683002,CO,35,72,59
India,Uttar_Pradesh,Lucknow,"B R Ambedkar University, Lucknow - UPPCB",16-04-2024 09:00:00,26.766433,80.927299,NH3,6,7,6
India,Uttar_Pradesh,Lucknow,"B R Ambedkar University, Lucknow - UPPCB",16-04-2024 09:00:00,26.766433,80.927299,OZONE,21,84,40
India,Uttar_Pradesh,Lucknow,"Gomti Nagar, Lucknow - UPPCB",16-04-2024 09:00:00,26.868120,81.005119,OZONE,33,42,35
India,Uttar_Pradesh,Lucknow,"Kendriya Vidyalaya, Lucknow - CPCB",16-04-2024 09:00:00,26.906111,80.948222,PM2.5,63,245,105
India,Uttar_Pradesh,Lucknow,"Kukrail Picnic Spot-1, Lucknow - UPPCB",16-04-2024 09:00:00,26.90723,80.98579,NH3,2,2,2
India,Uttar_Pradesh,Lucknow,"Talkatora District Industries Center, Lucknow - CPCB",16-04-2024 09:00:00,26.83399722,80.8917361,PM10,122,196,140
India,Uttar_Pradesh,Meerut,"Ganga Nagar, Meerut - UPPCB",16-04-2024 09:00:00,28.999264,77.7590354,CO,33,98,66
India,Uttar_Pradesh,Meerut,"Jai Bhim Nagar, Meerut - UPPCB",16-04-2024 09:00:00,28.9535882,77.7622941,NO2,2,65,28
India,Uttar_Pradesh,Meerut,"Jai Bhim Nagar, Meerut - UPPCB",16-04-2024 09:00:00,28.9535882,77.7622941,NH3,8,15,11
India,Uttar_Pradesh,Meerut,"Pallavpuram Phase 2, Meerut - UPPCB",16-04-2024 09:00:00,29.063510,77.709723,CO,25,112,77
India,Uttar_Pradesh,Meerut,"Pallavpuram Phase 2, Meerut - UPPCB",16-04-2024 09:00:00,29.063510,77.709723,OZONE,9,119,18
India,Uttar_Pradesh,Moradabad,"Eco Herbal Park, Moradabad - UPPCB",16-04-2024 09:00:00,28.840739,78.697531,NH3,9,44,20
India,Uttar_Pradesh,Moradabad,"Employment Office, Moradabad - UPPCB",16-04-2024 09:00:00,28.88528,78.73880,SO2,28,36,32
India,Uttar_Pradesh,Moradabad,"Jigar Colony, Moradabad - UPPCB",16-04-2024 09:00:00,28.856664,78.772638,NO2,12,20,18
India,Uttar_Pradesh,Moradabad,"Jigar Colony, Moradabad - UPPCB",16-04-2024 09:00:00,28.856664,78.772638,OZONE,19,29,21
India,Uttar_Pradesh,Moradabad,"Kashiram Nagar, Moradabad - UPPCB",16-04-2024 09:00:00,28.849399,78.742362,PM2.5,48,198,107
India,Uttar_Pradesh,Moradabad,"Kashiram Nagar, Moradabad - UPPCB",16-04-2024 09:00:00,28.849399,78.742362,PM10,58,143,106
India,Uttar_Pradesh,Moradabad,"Kashiram Nagar, Moradabad - UPPCB",16-04-2024 09:00:00,28.849399,78.742362,NH3,4,4,4
India,Uttar_Pradesh,Moradabad,"Transport Nagar, Moradabad - UPPCB",16-04-2024 09:00:00,28.802625,78.753728,NO2,5,36,15
India,Uttar_Pradesh,Muzaffarnagar,"New Mandi, Muzaffarnagar - UPPCB",16-04-2024 09:00:00,29.4723508,77.7194031,NH3,12,15,13
India,Uttar_Pradesh,Muzaffarnagar,"New Mandi, Muzaffarnagar - UPPCB",16-04-2024 09:00:00,29.4723508,77.7194031,CO,40,103,59
India,Uttar_Pradesh,Noida,"Sector - 62, Noida - IMD",16-04-2024 09:00:00,28.6245479,77.3577104,PM10,NA,NA,NA
India,Uttar_Pradesh,Noida,"Sector-1, Noida - UPPCB",16-04-2024 09:00:00,28.5898,77.3101,PM2.5,73,342,191
India,Uttar_Pradesh,Noida,"Sector-1, Noida - UPPCB",16-04-2024 09:00:00,28.5898,77.3101,CO,14,116,51
India,Uttar_Pradesh,Noida,"Sector-116, Noida - UPPCB",16-04-2024 09:00:00,28.569230,77.393848,PM10,128,373,228
India,Uttar_Pradesh,Prayagraj,"Motilal Nehru NIT, Prayagraj - UPPCB",16-04-2024 09:00:00,25.494,81.863,NH3,NA,NA,NA
India,Uttar_Pradesh,Prayagraj,"Motilal Nehru NIT, Prayagraj - UPPCB",16-04-2024 09:00:00,25.494,81.863,SO2,NA,NA,NA
India,Uttar_Pradesh,Prayagraj,"Nagar Nigam, Prayagraj - UPPCB",16-04-2024 09:00:00,25.44919916 ,81.82735986 ,PM2.5,22,60,41
India,Uttar_Pradesh,Prayagraj,"Nagar Nigam, Prayagraj - UPPCB",16-04-2024 09:00:00,25.44919916 ,81.82735986 ,NO2,5,5,5
India,Uttar_Pradesh,Prayagraj,"Nagar Nigam, Prayagraj - UPPCB",16-04-2024 09:00:00,25.44919916 ,81.82735986 ,CO,12,36,18
India,Uttar_Pradesh,Varanasi,"Bhelupur, Varanasi - UPPCB",16-04-2024 09:00:00,25.301778,82.996789,PM2.5,5,15,10
India,Uttar_Pradesh,Varanasi,"Bhelupur, Varanasi - UPPCB",16-04-2024 09:00:00,25.301778,82.996789,SO2,27,32,29
India,Uttar_Pradesh,Varanasi,"IESD Banaras Hindu University, Varanasi - UPPCB",16-04-2024 09:00:00,25.262326,82.995408,OZONE,NA,NA,NA
India,Uttar_Pradesh,Vrindavan,"Omex Eternity, Vrindavan - UPPCB",16-04-2024 09:00:00,27.5714090,77.6557570,NO2,2,3,2
India,Uttar_Pradesh,Vrindavan,"Omex Eternity, Vrindavan - UPPCB",16-04-2024 09:00:00,27.5714090,77.6557570,CO,31,72,59
India,Uttarakhand,Dehradun,"Doon University, Dehradun - UKPCB",16-04-2024 09:00:00,30.269444,78.044167,NO2,2,12,5
India,Uttarakhand,Dehradun,"Doon University, Dehradun - UKPCB",16-04-2024 09:00:00,30.269444,78.044167,CO,52,96,62
India,Uttarakhand,Rishikesh,"Shivaji Nagar, Rishikesh - UKPCB",16-04-2024 09:00:00,30.075911,78.2859547,NH3,3,4,3
India,West_Bengal,Asansol,"Asansol Court Area, Asansol - WBPCB",16-04-2024 09:00:00,23.685297,86.945968,PM2.5,174,308,223
India,West_Bengal,Asansol,"Asansol Court Area, Asansol - WBPCB",16-04-2024 09:00:00,23.685297,86.945968,PM10,122,197,156
India,West_Bengal,Barrackpore,"SVSPA Campus, Barrackpore - WBPCB",16-04-2024 09:00:00,22.7605581,88.3617589,SO2,8,16,11
India,West_Bengal,Durgapur,"Sidhu Kanhu Indoor Stadium, Durgapur - WBPCB",16-04-2024 09:00:00,23.5404352,87.2892225,PM2.5,98,303,229
India,West_Bengal,Durgapur,"Sidhu Kanhu Indoor Stadium, Durgapur - WBPCB",16-04-2024 09:00:00,23.5404352,87.2892225,CO,38,105,75
India,West_Bengal,Haldia,"Priyambada Housing Estate, Haldia - WBPCB",16-04-2024 09:00:00,22.06047,88.109737,OZONE,11,58,19
India,West_Bengal,Howrah,"Belur Math, Howrah - WBPCB",16-04-2024 09:00:00,22.629801,88.352017,SO2,2,10,6
India,West_Bengal,Howrah,"Belur Math, Howrah - WBPCB",16-04-2024 09:00:00,22.629801,88.352017,CO,6,21,10
India,West_Bengal,Howrah,"Ghusuri, Howrah - WBPCB",16-04-2024 09:00:00,22.611968,88.347422,PM10,68,163,119
India,West_Bengal,Howrah,"Ghusuri, Howrah - WBPCB",16-04-2024 09:00:00,22.611968,88.347422,NO2,8,22,16
India,West_Bengal,Howrah,"Ghusuri, Howrah - WBPCB",16-04-2024 09:00:00,22.611968,88.347422,CO,1,30,3
India,West_Bengal,Howrah,"Padmapukur, Howrah - WBPCB",16-04-2024 09:00:00,22.5687319,88.2797276,PM10,82,82,82
India,West_Bengal,Kolkata,"Ballygunge, Kolkata - WBPCB",16-04-2024 09:00:00,22.5367507,88.3638022,PM10,35,127,77
India,West_Bengal,Kolkata,"Ballygunge, Kolkata - WBPCB",16-04-2024 09:00:00,22.5367507,88.3638022,NO2,15,36,23
India,West_Bengal,Kolkata,"Ballygunge, Kolkata - WBPCB",16-04-2024 09:00:00,22.5367507,88.3638022,CO,8,24,18
India,West_Bengal,Kolkata,"Ballygunge, Kolkata - WBPCB",16-04-2024 09:00:00,22.5367507,88.3638022,OZONE,18,131,22
India,West_Bengal,Kolkata,"Bidhannagar, Kolkata - WBPCB",16-04-2024 09:00:00,22.58157048,88.41002457,NO2,9,25,14
India,West_Bengal,Kolkata,"Bidhannagar, Kolkata - WBPCB",16-04-2024 09:00:00,22.58157048,88.41002457,SO2,3,15,7
India,West_Bengal,Kolkata,"Bidhannagar, Kolkata - WBPCB",16-04-2024 09:00:00,22.58157048,88.41002457,CO,17,34,19
India,West_Bengal,Kolkata,"Fort William, Kolkata - WBPCB",16-04-2024 09:00:00,22.556640,88.342674,SO2,10,60,23
India,West_Bengal,Kolkata,"Rabindra Sarobar, Kolkata - WBPCB",16-04-2024 09:00:00,22.51106,88.35142,PM10,53,96,74
India,West_Bengal,Kolkata,"Victoria, Kolkata - WBPCB",16-04-2024 09:00:00,22.5448082,88.3403691,NH3,2,2,2
India,West_Bengal,Kolkata,"Victoria, Kolkata - WBPCB",16-04-2024 09:00:00,22.5448082,88.3403691,SO2,9,37,18
India,Andhra_Pradesh,Amaravati,"Secretariat, Amaravati - APPCB",16-04-2024 09:00:00,16.5150833,80.5181667,PM10,35,69,49
India,Andhra_Pradesh,Tirupati,"Tirumala, Tirupati - APPCB",16-04-2024 09:00:00,13.67,79.35,PM10,33,112,53
India,Andhra_Pradesh,Tirupati,"Tirumala, Tirupati - APPCB",16-04-2024 09:00:00,13.67,79.35,CO,34,50,36
India,Andhra_Pradesh,Tirupati,"Vaikuntapuram, Tirupati - APPCB",16-04-2024 09:00:00,13.615387,79.409230,NO2,15,26,21
India,Andhra_Pradesh,Tirupati,"Vaikuntapuram, Tirupati - APPCB",16-04-2024 09:00:00,13.615387,79.409230,SO2,5,5,5
India,Andhra_Pradesh,Vijayawada,"HB Colony, Vijayawada - APPCB",16-04-2024 09:00:00,16.536107,80.594233,NH3,4,4,4
India,Andhra_Pradesh,Vijayawada,"HB Colony, Vijayawada - APPCB",16-04-2024 09:00:00,16.536107,80.594233,SO2,2,4,4
India,Andhra_Pradesh,Vijayawada,"Rajiv Nagar, Vijayawada - APPCB",16-04-2024 09:00:00,16.554731,80.649110,CO,40,40,40
India,Andhra_Pradesh,Visakhapatnam,"GVM Corporation, Visakhapatnam - APPCB",16-04-2024 09:00:00,17.72,83.3,PM2.5,30,143,75
India,Andhra_Pradesh,Visakhapatnam,"GVM Corporation, Visakhapatnam - APPCB",16-04-2024 09:00:00,17.72,83.3,SO2,9,17,13
India,Assam,Byrnihat,"Central Academy for SFS, Byrnihat - PCBA",16-04-2024 09:00:00,26.071318,91.87488,PM2.5,90,500,304
India,Assam,Byrnihat,"Central Academy for SFS, Byrnihat - PCBA",16-04-2024 09:00:00,26.071318,91.87488,CO,34,60,39
India,Assam,Guwahati,"LGBI Airport, Guwahati - PCBA",16-04-2024 09:00:00,26.10887,91.589544,NO2,25,118,64
India,Assam,Guwahati,"LGBI Airport, Guwahati - PCBA",16-04-2024 09:00:00,26.10887,91.589544,NH3,2,10,5
India,Assam,Guwahati,"LGBI Airport, Guwahati - PCBA",16-04-2024 09:00:00,26.10887,91.589544,SO2,1,20,6
India,Assam,Guwahati,"Railway Colony, Guwahati - PCBA",16-04-2024 09:00:00,26.181742,91.78063,PM2.5,82,345,228
India,Assam,Guwahati,"Railway Colony, Guwahati - PCBA",16-04-2024 09:00:00,26.181742,91.78063,OZONE,1,21,10
India,Assam,Nagaon,"Christianpatty, Nagaon - PCBA",16-04-2024 09:00:00,26.349082,92.68449,CO,14,48,39
India,Assam,Silchar,"Tarapur, Silchar - PCBA",16-04-2024 09:00:00,24.82827,92.79525,PM10,43,64,52
India,Assam,Sivasagar,"Girls College, Sivasagar - PCBA",16-04-2024 09:00:00,26.987634,94.636574,PM10,57,85,68
India,Assam,Sivasagar,"Girls College, Sivasagar - PCBA",16-04-2024 09:00:00,26.987634,94.636574,SO2,4,4,4
India,Bihar,Araria,"Kharahiya Basti, Araria - BSPCB",16-04-2024 09:00:00,26.146529,87.454184,OZONE,2,11,10
India,Bihar,Arrah,"New DM Office, Arrah - BSPCB",16-04-2024 09:00:00,25.5626095,84.663264,NH3,4,5,4
India,Bihar,Aurangabad,"Gurdeo Nagar, Aurangabad - BSPCB",16-04-2024 09:00:00,24.75746,84.366208,PM10,47,165,95
India,Bihar,Aurangabad,"Gurdeo Nagar, Aurangabad - BSPCB",16-04-2024 09:00:00,24.75746,84.366208,NO2,4,6,5
India,Bihar,Bhagalpur,"Mayaganj, Bhagalpur - BSPCB",16-04-2024 09:00:00,25.265194,87.012947,NH3,6,8,7
India,Bihar,Chhapra,"Darshan Nagar, Chhapra - BSPCB",16-04-2024 09:00:00,25.7808257,84.7446768,PM10,74,210,140
India,Bihar,Chhapra,"Darshan Nagar, Chhapra - BSPCB",16-04-2024 09:00:00,25.7808257,84.7446768,NO2,19,32,25
India,Bihar,Gaya,"Collectorate, Gaya - BSPCB",16-04-2024 09:00:00,24.7955,84.9994,PM2.5,66,338,169
India,Bihar,Gaya,"Collectorate, Gaya - BSPCB",16-04-2024 09:00:00,24.7955,84.9994,SO2,3,22,14
India,Bihar,Gaya,"Kareemganj, Gaya - BSPCB",16-04-2024 09:00:00,24.792403,84.992416,NH3,NA,NA,NA
India,Bihar,Gaya,"SFTI Kusdihra, Gaya - BSPCB",16-04-2024 09:00:00,24.762518,84.982348,CO,16,49,36
India,Bihar,Hajipur,"Industrial Area, Hajipur - BSPCB",16-04-2024 09:00:00,25.697189,85.245900,SO2,5,8,7
India,Bihar,Hajipur,"Industrial Area, Hajipur - BSPCB",16-04-2024 09:00:00,25.697189,85.245900,OZONE,3,86,32
India,Bihar,Katihar,"Mirchaibari, Katihar - BSPCB",16-04-2024 09:00:00,25.560083,87.553265,NH3,5,9,8
India,Bihar,Kishanganj,"SDM Office_Khagra, Kishanganj - BSPCB",16-04-2024 09:00:00,26.0881305,87.93840336,SO2,NA,NA,NA
India,Bihar,Kishanganj,"SDM Office_Khagra, Kishanganj - BSPCB",16-04-2024 09:00:00,26.0881305,87.93840336,OZONE,21,43,39
India,Bihar,Manguraha,"Forest Rest House, Manguraha - BSPCB",16-04-2024 09:00:00,27.308328,84.531742,NO2,17,21,19
India,Bihar,Manguraha,"Forest Rest House, Manguraha - BSPCB",16-04-2024 09:00:00,27.308328,84.531742,OZONE,15,73,18
India,Bihar,Munger,"Town Hall, Munger - BSPCB",16-04-2024 09:00:00,25.376776,86.471523,PM10,88,191,134
India,Bihar,Munger,"Town Hall, Munger - BSPCB",16-04-2024 09:00:00,25.376776,86.471523,NO2,7,9,8
India,Bihar,Muzaffarpur,"Buddha Colony, Muzaffarpur - BSPCB",16-04-2024 09:00:00,26.11442,85.39813,CO,12,109,43
India,Bihar,Muzaffarpur,"MIT-Daudpur Kothi, Muzaffarpur - BSPCB",16-04-2024 09:00:00,26.1403345,85.3650192,SO2,13,22,17
India,Bihar,Muzaffarpur,"MIT-Daudpur Kothi, Muzaffarpur - BSPCB",16-04-2024 09:00:00,26.1403345,85.3650192,OZONE,21,59,28
India,Bihar,Patna,"DRM Office Danapur, Patna - BSPCB",16-04-2024 09:00:00,25.586562,85.043586,NO2,8,108,47
India,Bihar,Patna,"DRM Office Danapur, Patna - BSPCB",16-04-2024 09:00:00,25.586562,85.043586,NH3,2,3,3
India,Bihar,Patna,"Govt. High School Shikarpur, Patna - BSPCB",16-04-2024 09:00:00,25.592539,85.227158,NO2,19,27,22
India,Bihar,Patna,"Govt. High School Shikarpur, Patna - BSPCB",16-04-2024 09:00:00,25.592539,85.227158,OZONE,1,60,5
India,Bihar,Patna,"IGSC Planetarium Complex, Patna - BSPCB",16-04-2024 09:00:00,25.610369,85.132568,SO2,NA,NA,NA
India,Bihar,Patna,"Samanpura, Patna - BSPCB",16-04-2024 09:00:00,25.596727,85.085624,PM2.5,67,454,225
India,Bihar,Patna,"Samanpura, Patna - BSPCB",16-04-2024 09:00:00,25.596727,85.085624,CO,31,144,80
India,Bihar,Purnia,"Mariam Nagar, Purnia - BSPCB",16-04-2024 09:00:00,25.366336,87.117468,PM10,110,338,183
India,Bihar,Rajgir,"Dangi Tola, Rajgir - BSPCB",16-04-2024 09:00:00,25.03280,85.41948,PM10,30,121,62
India,Bihar,Saharsa,"Police Line, Saharsa - BSPCB",16-04-2024 09:00:00,25.892357,86.590325,OZONE,3,116,23
India,Bihar,Samastipur,"DM Office_Kasipur, Samastipur - BSPCB",16-04-2024 09:00:00,25.859655,85.77944,PM2.5,40,335,165
India,Bihar,Samastipur,"DM Office_Kasipur, Samastipur - BSPCB",16-04-2024 09:00:00,25.859655,85.77944,PM10,58,197,129
India,Bihar,Samastipur,"DM Office_Kasipur, Samastipur - BSPCB",16-04-2024 09:00:00,25.859655,85.77944,NO2,2,9,5
India,Bihar,Samastipur,"DM Office_Kasipur, Samastipur - BSPCB",16-04-2024 09:00:00,25.859655,85.77944,NH3,1,5,4
India,Bihar,Sasaram,"Dada Peer, Sasaram - BSPCB",16-04-2024 09:00:00,24.952822,84.002396,NO2,10,24,15
India,Bihar,Siwan,"Chitragupta Nagar, Siwan - BSPCB",16-04-2024 09:00:00,26.2271665,84.3570427,PM10,68,139,105
India,Chandigarh,Chandigarh,"Sector-25, Chandigarh - CPCC",16-04-2024 09:00:00,30.751462,76.762879,NH3,10,42,21
India,Chandigarh,Chandigarh,"Sector-25, Chandigarh - CPCC",16-04-2024 09:00:00,30.751462,76.762879,SO2,8,24,14
India,Chandigarh,Chandigarh,"Sector-53, Chandigarh - CPCC",16-04-2024 09:00:00,30.719859,76.738637,NO2,22,137,69
India,Chhattisgarh,Bhilai,"32Bungalows, Bhilai - CECB",16-04-2024 09:00:00,21.194815,81.314770,SO2,4,7,5
India,Chhattisgarh,Bhilai,"32Bungalows, Bhilai - CECB",16-04-2024 09:00:00,21.194815,81.314770,CO,16,32,32
India,Chhattisgarh,Bhilai,"32Bungalows, Bhilai - CECB",16-04-2024 09:00:00,21.194815,81.314770,OZONE,5,24,5
India,Chhattisgarh,Bhilai,"Civic Center, Bhilai - Bhilai Steel Plant",16-04-2024 09:00:00,21.185571,81.343175,CO,24,101,37
India,Chhattisgarh,Bhilai,"Hathkhoj, Bhilai - CECB",16-04-2024 09:00:00,21.224231,81.408350,PM10,24,176,104
India,Chhattisgarh,Chhal,"Nawapara SECL Colony, Chhal - CECB",16-04-2024 09:00:00,22.118125,83.140608,NO2,14,55,26
India,Chhattisgarh,Chhal,"Nawapara SECL Colony, Chhal - CECB",16-04-2024 09:00:00,22.118125,83.140608,SO2,15,39,24
India,Chhattisgarh,Chhal,"Nawapara SECL Colony, Chhal - CECB",16-04-2024 09:00:00,22.118125,83.140608,OZONE,12,135,36
India,Chhattisgarh,Korba,"Rampur, Korba - CECB",16-04-2024 09:00:00,22.368195,82.746431,PM2.5,NA,NA,NA
India,Chhattisgarh,Korba,"Rampur, Korba - CECB",16-04-2024 09:00:00,22.368195,82.746431,PM10,NA,NA,NA
India,Chhattisgarh,Korba,"Rampur, Korba - CECB",16-04-2024 09:00:00,22.368195,82.746431,CO,NA,NA,NA
India,Chhattisgarh,Korba,"Urja Nagar, Korba - CECB",16-04-2024 09:00:00,22.348441,82.549611,PM2.5,2,32,12
India,Chhattisgarh,Kunjemura,"OP Jindal School, Kunjemura - CECB",16-04-2024 09:00:00,22.126650,83.483212,CO,26,83,63
India,Chhattisgarh,Milupara,"Govt. Higher Secondary School, Milupara - CECB",16-04-2024 09:00:00,22.1910172,83.5197009,PM2.5,NA,NA,NA
India,Chhattisgarh,Raipur,"AIIMS, Raipur - CECB",16-04-2024 09:00:00,21.258815,81.578979,PM2.5,30,57,44
India,Chhattisgarh,Raipur,"AIIMS, Raipur - CECB",16-04-2024 09:00:00,21.258815,81.578979,NO2,17,30,22
India,Chhattisgarh,Raipur,"Krishak Nagar, Raipur - CECB",16-04-2024 09:00:00,21.237755,81.705301,NH3,1,1,1
India,Delhi,Delhi,"Alipur, Delhi - DPCC",16-04-2024 09:00:00,28.815329,77.153010,PM10,75,424,203
India,Delhi,Delhi,"Alipur, Delhi - DPCC",16-04-2024 09:00:00,28.815329,77.153010,SO2,15,51,25
India,Delhi,Delhi,"Ashok Vihar, Delhi - DPCC",16-04-2024 09:00:00,28.695381,77.181665,NH3,10,19,14
India,Delhi,Delhi,"Burari Crossing, Delhi - IMD",16-04-2024 09:00:00,28.7256504,77.2011573,CO,NA,NA,NA
India,Delhi,Delhi,"CRRI Mathura Road, Delhi - IMD",16-04-2024 09:00:00,28.5512005,77.2735737,PM2.5,NA,NA,NA
India,Delhi,Delhi,"Chandni Chowk, Delhi - IITM",16-04-2024 09:00:00,28.656756,77.227234,SO2,16,58,36
India,Delhi,Delhi,"Chandni Chowk, Delhi - IITM",16-04-2024 09:00:00,28.656756,77.227234,CO,42,50,48
India,Delhi,Delhi,"Chandni Chowk, Delhi - IITM",16-04-2024 09:00:00,28.656756,77.227234,OZONE,4,7,6
India,Delhi,Delhi,"DTU, Delhi - CPCB",16-04-2024 09:00:00,28.7500499,77.1112615,PM10,75,456,278
India,Delhi,Delhi,"DTU, Delhi - CPCB",16-04-2024 09:00:00,28.7500499,77.1112615,NH3,1,19,14
India,Delhi,Delhi,"Dr. Karni Singh Shooting Range, Delhi - DPCC",16-04-2024 09:00:00,28.498571,77.264840,NH3,9,14,11
India,Delhi,Delhi,"Dwarka-Sector 8, Delhi - DPCC ",16-04-2024 09:00:00,28.5710274,77.0719006,NH3,7,12,9
India,Delhi,Delhi,"Dwarka-Sector 8, Delhi - DPCC ",16-04-2024 09:00:00,28.5710274,77.0719006,OZONE,2,88,4
India,Delhi,Delhi,"IHBAS, Dilshad Garden, Delhi - CPCB",16-04-2024 09:00:00,28.6811736,77.3025234,NO2,39,112,61
India,Delhi,Delhi,"IHBAS, Dilshad Garden, Delhi - CPCB",16-04-2024 09:00:00,28.6811736,77.3025234,OZONE,1,31,2
India,Delhi,Delhi,"ITO, Delhi - CPCB",16-04-2024 09:00:00,28.628624,77.241060,PM10,76,216,147
India,Delhi,Delhi,"ITO, Delhi - CPCB",16-04-2024 09:00:00,28.628624,77.241060,CO,30,140,52
India,Delhi,Delhi,"Jahangirpuri, Delhi - DPCC",16-04-2024 09:00:00,28.732820,77.170633,SO2,21,105,53
India,Delhi,Delhi,"Jahangirpuri, Delhi - DPCC",16-04-2024 09:00:00,28.732820,77.170633,OZONE,5,76,10
India,Delhi,Delhi,"Jawaharlal Nehru Stadium, Delhi - DPCC",16-04-2024 09:00:00,28.580280,77.233829,PM2.5,42,324,166
India,Delhi,Delhi,"Lodhi Road, Delhi - IITM",16-04-2024 09:00:00,28.588333,77.221667,CO,63,68,68
India,Delhi,Delhi,"Lodhi Road, Delhi - IMD",16-04-2024 09:00:00,28.5918245,77.2273074,PM10,NA,NA,NA
India,Delhi,Delhi,"Lodhi Road, Delhi - IMD",16-04-2024 09:00:00,28.5918245,77.2273074,CO,NA,NA,NA
India,Delhi,Delhi,"Mandir Marg, Delhi - DPCC",16-04-2024 09:00:00,28.636429,77.201067,PM10,82,208,138
India,Delhi,Delhi,"Mandir Marg, Delhi - DPCC",16-04-2024 09:00:00,28.636429,77.201067,NO2,109,138,119
India,Delhi,Delhi,"Mandir Marg, Delhi - DPCC",16-04-2024 09:00:00,28.636429,77.201067,SO2,7,15,10
India,Delhi,Delhi,"NSIT Dwarka, Delhi - CPCB",16-04-2024 09:00:00,28.60909,77.0325413,PM2.5,94,232,165
India,Delhi,Delhi,"Najafgarh, Delhi - DPCC",16-04-2024 09:00:00,28.570173,76.933762,NH3,5,10,8
India,Delhi,Delhi,"New Moti Bagh, Delhi - MHUA",16-04-2024 09:00:00,28.57834,77.18400,CO,38,130,94
India,Delhi,Delhi,"North Campus, DU, Delhi - IMD",16-04-2024 09:00:00,28.6573814,77.1585447,PM2.5,NA,NA,NA
India,Delhi,Delhi,"Punjabi Bagh, Delhi - DPCC",16-04-2024 09:00:00,28.674045,77.131023,PM2.5,47,417,279
India,Delhi,Delhi,"Punjabi Bagh, Delhi - DPCC",16-04-2024 09:00:00,28.674045,77.131023,NO2,35,71,50
India,Delhi,Delhi,"Punjabi Bagh, Delhi - DPCC",16-04-2024 09:00:00,28.674045,77.131023,NH3,4,6,5
India,Delhi,Delhi,"Punjabi Bagh, Delhi - DPCC",16-04-2024 09:00:00,28.674045,77.131023,SO2,18,28,23
India,Delhi,Delhi,"Pusa, Delhi - IMD",16-04-2024 09:00:00,28.636110,77.173332,CO,NA,NA,NA
India,Delhi,Delhi,"R K Puram, Delhi - DPCC",16-04-2024 09:00:00,28.563262,77.186937,CO,38,152,80
India,Delhi,Delhi,"Rohini, Delhi - DPCC",16-04-2024 09:00:00,28.732528,77.119920,PM2.5,57,464,265
India,Delhi,Delhi,"Shadipur, Delhi - CPCB",16-04-2024 09:00:00,28.6514781,77.1473105,PM2.5,NA,NA,NA
India,Delhi,Delhi,"Shadipur, Delhi - CPCB",16-04-2024 09:00:00,28.6514781,77.1473105,PM10,NA,NA,NA
India,Delhi,Delhi,"Shadipur, Delhi - CPCB",16-04-2024 09:00:00,28.6514781,77.1473105,NO2,NA,NA,NA
India,Delhi,Delhi,"Sirifort, Delhi - CPCB",16-04-2024 09:00:00,28.5504249,77.2159377,SO2,26,32,29
India,Delhi,Delhi,"Sirifort, Delhi - CPCB",16-04-2024 09:00:00,28.5504249,77.2159377,CO,25,120,90
India,Delhi,Delhi,"Sonia Vihar, Delhi - DPCC",16-04-2024 09:00:00,28.710508,77.249485,NH3,8,13,9
India,Delhi,Delhi,"Sonia Vihar, Delhi - DPCC",16-04-2024 09:00:00,28.710508,77.249485,SO2,12,50,20
India,Delhi,Delhi,"Sri Aurobindo Marg, Delhi - DPCC",16-04-2024 09:00:00,28.531346,77.190156,PM10,117,249,177
India,Delhi,Delhi,"Sri Aurobindo Marg, Delhi - DPCC",16-04-2024 09:00:00,28.531346,77.190156,SO2,10,51,21
India,Delhi,Delhi,"Vivek Vihar, Delhi - DPCC",16-04-2024 09:00:00,28.672342,77.315260,NH3,14,15,15
India,Delhi,Delhi,"Wazirpur, Delhi - DPCC",16-04-2024 09:00:00,28.699793,77.165453,PM10,124,500,324
India,Gujarat,Ahmedabad,"Gyaspur, Ahmedabad - IITM",16-04-2024 09:00:00,22.977134,72.553024,NO2,33,40,36
India,Gujarat,Ahmedabad,"Gyaspur, Ahmedabad - IITM",16-04-2024 09:00:00,22.977134,72.553024,OZONE,3,40,6
India,Gujarat,Ahmedabad,"Rakhial, Ahmedabad - IITM",16-04-2024 09:00:00,23.016834,72.625775,CO,22,98,34
India,Gujarat,Ahmedabad,"Rakhial, Ahmedabad - IITM",16-04-2024 09:00:00,23.016834,72.625775,OZONE,9,69,15
India,Gujarat,Ahmedabad,"SAC ISRO Satellite, Ahmedabad - IITM",16-04-2024 09:00:00,23.023389,72.515201,PM2.5,80,126,106
India,Gujarat,Ahmedabad,"Sardar Vallabhbhai Patel Stadium, Ahmedabad - IITM",16-04-2024 09:00:00,23.043070,72.562968,SO2,2,21,12
India,Gujarat,Gandhinagar,"IIPHG Lekawada, Gandhinagar - IITM",16-04-2024 09:00:00,23.243639,72.68994,NO2,33,35,34
India,Gujarat,Gandhinagar,"Sector-10, Gandhinagar - GPCB",16-04-2024 09:00:00,23.221714,72.654328,CO,14,29,23
India,Gujarat,Surat,"Science Center, Surat - SMC",16-04-2024 09:00:00,21.170046,72.795405,SO2,1,6,3
India,Gujarat,Vapi,"Phase-1 GIDC, Vapi - GPCB",16-04-2024 09:00:00,20.362421,72.918013,NH3,2,2,2
India,Gujarat,Vatva,"Phase-4 GIDC, Vatva - GPCB",16-04-2024 09:00:00,22.969611,72.643500,OZONE,9,55,11
India,Haryana,Bahadurgarh,"Arya Nagar, Bahadurgarh - HSPCB",16-04-2024 09:00:00,28.6701,76.9254,NO2,33,39,36
India,Haryana,Bahadurgarh,"Arya Nagar, Bahadurgarh - HSPCB",16-04-2024 09:00:00,28.6701,76.9254,NH3,11,12,11
India,Haryana,Bahadurgarh,"Arya Nagar, Bahadurgarh - HSPCB",16-04-2024 09:00:00,28.6701,76.9254,CO,40,55,48
India,Haryana,Ballabgarh,"Nathu Colony, Ballabgarh - HSPCB",16-04-2024 09:00:00,28.3419248,77.319699,SO2,9,54,28
India,Haryana,Bhiwani,"H.B. Colony, Bhiwani - HSPCB",16-04-2024 09:00:00,28.806223,76.141105,PM2.5,53,268,110
India,Haryana,Bhiwani,"H.B. Colony, Bhiwani - HSPCB",16-04-2024 09:00:00,28.806223,76.141105,SO2,1,13,6
India,Haryana,Charkhi Dadri,"Mini Secretariat, Charkhi Dadri - HSPCB",16-04-2024 09:00:00,28.593883,76.270653,NO2,14,25,18
India,Haryana,Dharuhera,"Municipal Corporation Office, Dharuhera -  HSPCB",16-04-2024 09:00:00,28.206800,76.799700,PM10,97,332,182
India,Haryana,Dharuhera,"Municipal Corporation Office, Dharuhera -  HSPCB",16-04-2024 09:00:00,28.206800,76.799700,NO2,46,114,72
India,Haryana,Dharuhera,"Municipal Corporation Office, Dharuhera -  HSPCB",16-04-2024 09:00:00,28.206800,76.799700,CO,13,69,46
India,Haryana,Faridabad,"New Industrial Town, Faridabad - HSPCB",16-04-2024 09:00:00,28.39072,77.30059,CO,12,64,32
India,Haryana,Faridabad,"Sector 11, Faridabad - HSPCB",16-04-2024 09:00:00,28.376058,77.315741,NH3,6,7,6
India,Haryana,Faridabad,"Sector 30, Faridabad - HSPCB",16-04-2024 09:00:00,28.4417,77.3217,PM2.5,92,105,97
India,Haryana,Faridabad,"Sector- 16A, Faridabad - HSPCB",16-04-2024 09:00:00,28.4088421,77.3099081,SO2,NA,NA,NA
India,Haryana,Fatehabad,"Huda Sector, Fatehabad - HSPCB",16-04-2024 09:00:00,29.503664,75.467934,SO2,10,11,11
India,Haryana,Gurugram,"Sector-51, Gurugram - HSPCB",16-04-2024 09:00:00,28.4227,77.0667,NH3,6,14,9
India,Haryana,Gurugram,"Sector-51, Gurugram - HSPCB",16-04-2024 09:00:00,28.4227,77.0667,SO2,1,6,3
India,Haryana,Hisar,"Urban Estate-II, Hisar - HSPCB",16-04-2024 09:00:00,29.140560,75.744941,PM10,67,137,90
India,Haryana,Hisar,"Urban Estate-II, Hisar - HSPCB",16-04-2024 09:00:00,29.140560,75.744941,OZONE,47,127,58
India,Haryana,Jind,"Police Lines, Jind - HSPCB",16-04-2024 09:00:00,29.307814,76.337619,PM2.5,36,96,67
India,Haryana,Jind,"Police Lines, Jind - HSPCB",16-04-2024 09:00:00,29.307814,76.337619,NO2,5,16,12
India,Haryana,Kaithal,"Rishi Nagar, Kaithal - HSPCB",16-04-2024 09:00:00,29.8006,76.4155,CO,2,64,9
India,Haryana,Kurukshetra,"Sector-7, Kurukshetra - HSPCB",16-04-2024 09:00:00,29.966942,76.875879,NO2,8,17,11
India,Haryana,Mandikhera,"General Hospital, Mandikhera - HSPCB",16-04-2024 09:00:00,27.9002,76.9938,PM10,50,134,97
India,Haryana,Mandikhera,"General Hospital, Mandikhera - HSPCB",16-04-2024 09:00:00,27.9002,76.9938,SO2,30,38,34
India,Haryana,Mandikhera,"General Hospital, Mandikhera - HSPCB",16-04-2024 09:00:00,27.9002,76.9938,CO,17,42,29
India,Haryana,Manesar,"Sector-2 IMT, Manesar - HSPCB",16-04-2024 09:00:00,28.360699,76.936090,PM10,68,162,107
India,Haryana,Manesar,"Sector-2 IMT, Manesar - HSPCB",16-04-2024 09:00:00,28.360699,76.936090,NO2,26,29,27
India,Haryana,Manesar,"Sector-2 IMT, Manesar - HSPCB",16-04-2024 09:00:00,28.360699,76.936090,SO2,1,11,5
India,Haryana,Narnaul,"Shastri Nagar, Narnaul - HSPCB",16-04-2024 09:00:00,28.060249,76.113115,OZONE,NA,NA,NA
India,Haryana,Panchkula,"Sector-6, Panchkula - HSPCB ",16-04-2024 09:00:00,30.7057778,76.8531805555555,NO2,8,11,10
India,Haryana,Panchkula,"Sector-6, Panchkula - HSPCB ",16-04-2024 09:00:00,30.7057778,76.8531805555555,CO,8,27,14
India,Haryana,Sirsa,"F-Block, Sirsa - HSPCB",16-04-2024 09:00:00,29.536400,75.015800,NO2,9,11,10
India,Haryana,Sirsa,"F-Block, Sirsa - HSPCB",16-04-2024 09:00:00,29.536400,75.015800,NH3,12,13,13
India,Haryana,Sonipat,"Murthal, Sonipat - HSPCB",16-04-2024 09:00:00,29.027200,77.062100,NO2,37,44,40
India,Haryana,Sonipat,"Murthal, Sonipat - HSPCB",16-04-2024 09:00:00,29.027200,77.062100,NH3,7,10,9
India,Haryana,Sonipat,"Murthal, Sonipat - HSPCB",16-04-2024 09:00:00,29.027200,77.062100,SO2,13,29,20
India,Haryana,Yamuna Nagar,"Gobind Pura, Yamuna Nagar - HSPCB",16-04-2024 09:00:00,30.1480566,77.2893471,CO,2,118,36
India,Himachal Pradesh,Baddi,"HIMUDA Complex Phase-1, Baddi - HPPCB",16-04-2024 09:00:00,30.943887,76.801991,NH3,3,7,6
India,Jharkhand,Dhanbad,"Kalakusuma, Dhanbad - DMC",16-04-2024 09:00:00,23.811548,86.481238,CO,129,134,131
India,Jharkhand,Dhanbad,"Kalakusuma, Dhanbad - DMC",16-04-2024 09:00:00,23.811548,86.481238,OZONE,21,50,22
India,Karnataka,Bengaluru,"BTM Layout, Bengaluru - CPCB",16-04-2024 09:00:00,12.9135218,77.5950804,SO2,NA,NA,NA
India,Karnataka,Bengaluru,"Bapuji Nagar, Bengaluru - KSPCB",16-04-2024 09:00:00,12.951913,77.539784,PM2.5,39,96,64
India,Karnataka,Bengaluru,"Bapuji Nagar, Bengaluru - KSPCB",16-04-2024 09:00:00,12.951913,77.539784,NO2,10,11,11
India,Karnataka,Bengaluru,"Bapuji Nagar, Bengaluru - KSPCB",16-04-2024 09:00:00,12.951913,77.539784,CO,37,50,42
India,Karnataka,Bengaluru,"Hebbal, Bengaluru - KSPCB",16-04-2024 09:00:00,13.029152,77.585901,CO,2,32,16
India,Karnataka,Bengaluru,"Hombegowda Nagar, Bengaluru - KSPCB",16-04-2024 09:00:00,12.938539,77.590100,NO2,11,21,16
India,Karnataka,Bengaluru,"Hombegowda Nagar, Bengaluru - KSPCB",16-04-2024 09:00:00,12.938539,77.590100,CO,10,18,13
India,Karnataka,Bengaluru,"Kasturi Nagar, Bengaluru - KSPCB",16-04-2024 09:00:00,13.003872,77.664217,CO,21,26,25
India,Karnataka,Bengaluru,"Peenya, Bengaluru - CPCB",16-04-2024 09:00:00,13.0270199,77.494094,NH3,3,4,3
India,Karnataka,Bengaluru,"Peenya, Bengaluru - CPCB",16-04-2024 09:00:00,13.0270199,77.494094,CO,20,38,28
India,Karnataka,Bengaluru,"Sanegurava Halli, Bengaluru - KSPCB",16-04-2024 09:00:00,12.990328,77.5431385,PM10,34,77,49
India,Karnataka,Bengaluru,"Shivapura_Peenya, Bengaluru - KSPCB",16-04-2024 09:00:00,13.0246342,77.5080115,NH3,4,4,4
India,Karnataka,Bengaluru,"Shivapura_Peenya, Bengaluru - KSPCB",16-04-2024 09:00:00,13.0246342,77.5080115,SO2,1,18,6
India,Karnataka,Bengaluru,"Shivapura_Peenya, Bengaluru - KSPCB",16-04-2024 09:00:00,13.0246342,77.5080115,OZONE,54,56,55
India,Karnataka,Bengaluru,"Silk Board, Bengaluru - KSPCB",16-04-2024 09:00:00,12.917348,77.622813,PM10,32,81,47
India,Karnataka,Bengaluru,"Silk Board, Bengaluru - KSPCB",16-04-2024 09:00:00,12.917348,77.622813,CO,5,28,17
India,Karnataka,Bengaluru,"Silk Board, Bengaluru - KSPCB",16-04-2024 09:00:00,12.917348,77.622813,OZONE,22,26,24
India,Karnataka,Chamarajanagar,"Urban, Chamarajanagar - KSPCB",16-04-2024 09:00:00,11.55358,76.55521,PM10,34,66,46
India,Karnataka,Chikkaballapur,"Chikkaballapur Rural, Chikkaballapur - KSPCB",16-04-2024 09:00:00,13.428828,77.731418,PM2.5,20,62,42
India,Karnataka,Chikkaballapur,"Chikkaballapur Rural, Chikkaballapur - KSPCB",16-04-2024 09:00:00,13.428828,77.731418,NH3,1,1,1
India,Karnataka,Chikkaballapur,"Chikkaballapur Rural, Chikkaballapur - KSPCB",16-04-2024 09:00:00,13.428828,77.731418,CO,12,27,16
India,Karnataka,Chikkamagaluru,"Kalyana Nagara, Chikkamagaluru - KSPCB",16-04-2024 09:00:00,13.328028,75.797056,NO2,16,32,22
India,Karnataka,Chikkamagaluru,"Kalyana Nagara, Chikkamagaluru - KSPCB",16-04-2024 09:00:00,13.328028,75.797056,NH3,2,4,3
India,Karnataka,Davanagere,"Devaraj Urs Badavane, Davanagere - KSPCB",16-04-2024 09:00:00,14.475800,75.905200,PM10,40,79,56
India,Karnataka,Davanagere,"Devaraj Urs Badavane, Davanagere - KSPCB",16-04-2024 09:00:00,14.475800,75.905200,NH3,1,2,1
India,Karnataka,Dharwad,"Kalabhavan, Dharwad - KSPCB",16-04-2024 09:00:00,15.459706,75.008381,NH3,2,3,3
India,Karnataka,Gadag,"Panchal Nagar, Gadag - KSPCB",16-04-2024 09:00:00,15.411456,75.638133,NH3,1,3,2
India,Karnataka,Gadag,"Panchal Nagar, Gadag - KSPCB",16-04-2024 09:00:00,15.411456,75.638133,OZONE,28,96,39
India,Karnataka,Hassan,"B.Katihalli, Hassan - KSPCB",16-04-2024 09:00:00,13.008556,76.125258,PM2.5,NA,NA,NA
India,Karnataka,Hassan,"B.Katihalli, Hassan - KSPCB",16-04-2024 09:00:00,13.008556,76.125258,NO2,NA,NA,NA
India,Karnataka,Hassan,"B.Katihalli, Hassan - KSPCB",16-04-2024 09:00:00,13.008556,76.125258,CO,NA,NA,NA
India,Karnataka,Haveri,"Ashwini Nagar, Haveri - KSPCB",16-04-2024 09:00:00,14.791800,75.389600,OZONE,18,23,19
India,Karnataka,Hubballi,"Deshpande Nagar, Hubballi - KSPCB",16-04-2024 09:00:00,15.351773,75.140726,NO2,NA,NA,NA
India,Karnataka,Kalaburagi,"Lal Bahadur Shastri Nagar, Kalaburagi - KSPCB",16-04-2024 09:00:00,17.321993,76.822628,PM2.5,5,152,39
India,Karnataka,Kalaburagi,"Mahatma Basaveswar Colony, Kalaburgi - KSPCB",16-04-2024 09:00:00,17.336318,76.847397,PM2.5,26,98,44
India,Karnataka,Kalaburagi,"Mahatma Basaveswar Colony, Kalaburgi - KSPCB",16-04-2024 09:00:00,17.336318,76.847397,PM10,35,119,58
India,Karnataka,Kalaburagi,"Mahatma Basaveswar Colony, Kalaburgi - KSPCB",16-04-2024 09:00:00,17.336318,76.847397,CO,30,101,36
India,Karnataka,Karwar,"KHB Colony, Karwar - KSPCB",16-04-2024 09:00:00,14.816666,74.141003,NO2,1,34,7
India,Karnataka,Kolar,"Tamaka Ind. Area, Kolar - KSPCB",16-04-2024 09:00:00,13.1276288,78.1570122,PM2.5,24,302,54
India,Karnataka,Kolar,"Tamaka Ind. Area, Kolar - KSPCB",16-04-2024 09:00:00,13.1276288,78.1570122,PM10,NA,NA,NA
India,Karnataka,Kolar,"Tamaka Ind. Area, Kolar - KSPCB",16-04-2024 09:00:00,13.1276288,78.1570122,NO2,20,51,28
India,Karnataka,Kolar,"Tamaka Ind. Area, Kolar - KSPCB",16-04-2024 09:00:00,13.1276288,78.1570122,NH3,15,27,20
India,Karnataka,Kolar,"Tamaka Ind. Area, Kolar - KSPCB",16-04-2024 09:00:00,13.1276288,78.1570122,OZONE,13,15,13
India,Karnataka,Koppal,"Diwator Nagar, Koppal - KSPCB",16-04-2024 09:00:00,15.347630,76.181767,NH3,5,10,8
India,Karnataka,Madikeri,"Stuart Hill, Madikeri - KSPCB",16-04-2024 09:00:00,12.415911,75.735050,CO,4,70,25
India,Karnataka,Madikeri,"Stuart Hill, Madikeri - KSPCB",16-04-2024 09:00:00,12.415911,75.735050,OZONE,27,52,30
India,Karnataka,Mangalore,"Kadri, Mangalore - KSPCB",16-04-2024 09:00:00,12.889250,74.853000,PM2.5,25,57,38
India,Karnataka,Mangalore,"Kadri, Mangalore - KSPCB",16-04-2024 09:00:00,12.889250,74.853000,PM10,59,96,79
India,Karnataka,Mangalore,"Kadri, Mangalore - KSPCB",16-04-2024 09:00:00,12.889250,74.853000,NO2,4,21,6
India,Karnataka,Mysuru,"Hebbal 1st Stage, Mysuru - KSPCB",16-04-2024 09:00:00,12.21041,76.37376,SO2,1,7,3
India,Karnataka,Mysuru,"Hebbal 1st Stage, Mysuru - KSPCB",16-04-2024 09:00:00,12.21041,76.37376,CO,2,36,22
India,Karnataka,Ramanagara,"Vijay Nagar, Ramanagara - KSPCB",16-04-2024 09:00:00,12.733409,77.298051,PM10,18,50,34
India,Karnataka,Tumakuru,"Thimmalapura, Tumakuru - KSPCB",16-04-2024 09:00:00,13.377516,77.099072,NO2,16,40,26
India,Karnataka,Vijayapura,"Ibrahimpur, Vijayapura - KSPCB",16-04-2024 09:00:00,16.802639,75.722694,PM2.5,26,31,30
India,Karnataka,Vijayapura,"Ibrahimpur, Vijayapura - KSPCB",16-04-2024 09:00:00,16.802639,75.722694,NH3,2,2,2
India,Karnataka,Yadgir,"Collector Office, Yadgir - KSPCB",16-04-2024 09:00:00,16.7602,77.1428,SO2,4,34,18
India,Kerala,Eloor,"Udyogamandal, Eloor - Kerala PCB",16-04-2024 09:00:00,10.073232,76.302765,PM2.5,32,54,44
India,Kerala,Eloor,"Udyogamandal, Eloor - Kerala PCB",16-04-2024 09:00:00,10.073232,76.302765,PM10,35,48,41
India,Kerala,Eloor,"Udyogamandal, Eloor - Kerala PCB",16-04-2024 09:00:00,10.073232,76.302765,NH3,1,1,1
India,Kerala,Kollam,"Polayathode, Kollam - Kerala PCB",16-04-2024 09:00:00,8.8787,76.6073,PM2.5,36,113,66
India,Kerala,Thiruvananthapuram,"Kariavattom, Thiruvananthapuram - Kerala PCB",16-04-2024 09:00:00,8.563700,76.886500,NH3,1,1,1
India,Kerala,Thiruvananthapuram,"Plammoodu, Thiruvananthapuram - Kerala PCB",16-04-2024 09:00:00,8.5149093,76.9435879,CO,6,24,19
India,Kerala,Thrissur,"Corporation Ground, Thrissur - Kerala PCB",16-04-2024 09:00:00,10.532400,76.215900,PM2.5,45,51,48
India,Kerala,Thrissur,"Corporation Ground, Thrissur - Kerala PCB",16-04-2024 09:00:00,10.532400,76.215900,NO2,7,8,7
India,Madhya Pradesh,Bhopal,"Idgah Hills, Bhopal - MPPCB",16-04-2024 09:00:00,23.264759,77.381568,PM10,67,131,86
India,Madhya Pradesh,Bhopal,"Paryavaran Parisar, Bhopal - MPPCB",16-04-2024 09:00:00,23.210494,77.425409,NO2,10,64,32
India,Madhya Pradesh,Bhopal,"Paryavaran Parisar, Bhopal - MPPCB",16-04-2024 09:00:00,23.210494,77.425409,CO,12,51,25
India,Madhya Pradesh,Bhopal,"T T Nagar, Bhopal - MPPCB",16-04-2024 09:00:00,23.233584,77.400574,PM10,74,154,97
India,Madhya Pradesh,Dewas,"Bhopal Chauraha, Dewas - MPPCB",16-04-2024 09:00:00,22.9682591,76.064118,NO2,13,14,13
India,Madhya Pradesh,Dewas,"Bhopal Chauraha, Dewas - MPPCB",16-04-2024 09:00:00,22.9682591,76.064118,NH3,3,3,3
India,Madhya Pradesh,Dewas,"Bhopal Chauraha, Dewas - MPPCB",16-04-2024 09:00:00,22.9682591,76.064118,CO,14,50,28
India,Madhya Pradesh,Gwalior,"City Center, Gwalior - MPPCB",16-04-2024 09:00:00,26.203442,78.193251,CO,NA,NA,NA
India,Madhya Pradesh,Gwalior,"Deen Dayal Nagar, Gwalior - MPPCB",16-04-2024 09:00:00,26.259242,78.216432,PM2.5,27,259,104
India,Madhya Pradesh,Gwalior,"Deen Dayal Nagar, Gwalior - MPPCB",16-04-2024 09:00:00,26.259242,78.216432,NH3,2,13,6
India,Madhya Pradesh,Gwalior,"Deen Dayal Nagar, Gwalior - MPPCB",16-04-2024 09:00:00,26.259242,78.216432,SO2,10,17,12
India,Madhya Pradesh,Gwalior,"Maharaj Bada, Gwalior - MPPCB",16-04-2024 09:00:00,26.200388,78.147714,PM2.5,33,133,72
India,Madhya Pradesh,Gwalior,"Maharaj Bada, Gwalior - MPPCB",16-04-2024 09:00:00,26.200388,78.147714,SO2,6,20,11
India,Madhya Pradesh,Indore,"Chhoti Gwaltoli, Indore - MPPCB",16-04-2024 09:00:00,22.4310,75.5213,PM2.5,50,296,152
India,Madhya Pradesh,Indore,"Chhoti Gwaltoli, Indore - MPPCB",16-04-2024 09:00:00,22.4310,75.5213,PM10,91,192,135
India,Madhya Pradesh,Indore,"Regional Park, Indore - IMC",16-04-2024 09:00:00,22.6780,75.8559,NH3,1,4,2
India,Madhya Pradesh,Jabalpur,"Govindh Bhavan Colony, Jabalpur - JMC",16-04-2024 09:00:00,23.163174,79.973061,PM10,31,73,45
India,Madhya Pradesh,Jabalpur,"Govindh Bhavan Colony, Jabalpur - JMC",16-04-2024 09:00:00,23.163174,79.973061,SO2,10,110,56
India,Madhya Pradesh,Jabalpur,"Gupteshwar, Jabalpur - JMC",16-04-2024 09:00:00,23.142888,79.916147,PM10,34,119,63
India,Madhya Pradesh,Jabalpur,"Gupteshwar, Jabalpur - JMC",16-04-2024 09:00:00,23.142888,79.916147,OZONE,16,98,37
India,Madhya Pradesh,Jabalpur,"Marhatal, Jabalpur - MPPCB",16-04-2024 09:00:00,23.168606,79.932247,OZONE,13,97,41
