country,state,city,station,last_update,latitude,longitude,pollutant_id,pollutant_min,pollutant_max,pollutant_avg
India,Andhra_Pradesh,Amaravati,"Secretariat, Amaravati - APPCB",08-06-2024 01:00:00,16.5150833,80.5181667,PM2.5,15,91,31
India,Andhra_Pradesh,Amaravati,"Secretariat, Amaravati - APPCB",08-06-2024 01:00:00,16.5150833,80.5181667,NO2,3,39,12
India,Andhra_Pradesh,Amaravati,"Secretariat, Amaravati - APPCB",08-06-2024 01:00:00,16.5150833,80.5181667,NH3,1,4,3
India,Andhra_Pradesh,Amaravati,"Secretariat, Amaravati - APPCB",08-06-2024 01:00:00,16.5150833,80.5181667,SO2,11,102,25
India,Andhra_Pradesh,Kadapa,"Yerramukkapalli, Kadapa - APPCB",08-06-2024 01:00:00,14.465052,78.824187,SO2,2,3,2
India,Andhra_Pradesh,Tirupati,"Tirumala, Tirupati - APPCB",08-06-2024 01:00:00,13.67,79.35,NH3,1,1,1
India,Andhra_Pradesh,Tirupati,"Tirumala, Tirupati - APPCB",08-06-2024 01:00:00,13.67,79.35,SO2,2,8,5
India,Andhra_Pradesh,Tirupati,"Tirumala, Tirupati - APPCB",08-06-2024 01:00:00,13.67,79.35,OZONE,14,30,23
India,Andhra_Pradesh,Tirupati,"Vaikuntapuram, Tirupati - APPCB",08-06-2024 01:00:00,13.615387,79.409230,PM2.5,NA,NA,NA
India,Andhra_Pradesh,Tirupati,"Vaikuntapuram, Tirupati - APPCB",08-06-2024 01:00:00,13.615387,79.409230,PM10,NA,NA,NA
India,Andhra_Pradesh,Tirupati,"Vaikuntapuram, Tirupati - APPCB",08-06-2024 01:00:00,13.615387,79.409230,NO2,NA,NA,NA
India,Andhra_Pradesh,Vijayawada,"HB Colony, Vijayawada - APPCB",08-06-2024 01:00:00,16.536107,80.594233,OZONE,15,46,19
India,Andhra_Pradesh,Vijayawada,"Kanuru, Vijayawada - APPCB",08-06-2024 01:00:00,16.486692,80.699436,NH3,2,3,2
India,Andhra_Pradesh,Vijayawada,"Rajiv Gandhi Park, Vijayawada - APPCB",08-06-2024 01:00:00,16.509717,80.612222,PM10,47,72,57
India,Andhra_Pradesh,Vijayawada,"Rajiv Gandhi Park, Vijayawada - APPCB",08-06-2024 01:00:00,16.509717,80.612222,CO,38,40,40
India,Andhra_Pradesh,Vijayawada,"Rajiv Nagar, Vijayawada - APPCB",08-06-2024 01:00:00,16.554731,80.649110,NO2,10,10,10
India,Andhra_Pradesh,Visakhapatnam,"GVM Corporation, Visakhapatnam - APPCB",08-06-2024 01:00:00,17.72,83.3,PM2.5,25,70,38
India,Andhra_Pradesh,Visakhapatnam,"GVM Corporation, Visakhapatnam - APPCB",08-06-2024 01:00:00,17.72,83.3,SO2,11,21,15
India,Arunachal_Pradesh,Naharlagun,"Naharlagun, Naharlagun - APSPCB",08-06-2024 01:00:00,27.103358,93.679645,PM10,NA,NA,NA
India,Assam,Byrnihat,"Central Academy for SFS, Byrnihat - PCBA",08-06-2024 01:00:00,26.071318,91.87488,PM2.5,50,492,185
India,Assam,Byrnihat,"Central Academy for SFS, Byrnihat - PCBA",08-06-2024 01:00:00,26.071318,91.87488,SO2,5,39,12
India,Assam,Byrnihat,"Central Academy for SFS, Byrnihat - PCBA",08-06-2024 01:00:00,26.071318,91.87488,CO,4,20,7
India,Assam,Guwahati,"IITG, Guwahati - PCBA",08-06-2024 01:00:00,26.2028636,91.70046436,CO,8,17,11
India,Assam,Guwahati,"LGBI Airport, Guwahati - PCBA",08-06-2024 01:00:00,26.10887,91.589544,CO,42,54,46
India,Assam,Guwahati,"Pan Bazaar, Guwahati - PCBA",08-06-2024 01:00:00,26.187500,91.744194,CO,18,53,31
India,Assam,Guwahati,"Pan Bazaar, Guwahati - PCBA",08-06-2024 01:00:00,26.187500,91.744194,OZONE,15,17,16
India,Assam,Guwahati,"Railway Colony, Guwahati - PCBA",08-06-2024 01:00:00,26.181742,91.78063,CO,26,62,32
India,Assam,Nagaon,"Christianpatty, Nagaon - PCBA",08-06-2024 01:00:00,26.349082,92.68449,PM2.5,NA,NA,NA
India,Assam,Silchar,"Tarapur, Silchar - PCBA",08-06-2024 01:00:00,24.82827,92.79525,PM10,40,73,56
India,Assam,Silchar,"Tarapur, Silchar - PCBA",08-06-2024 01:00:00,24.82827,92.79525,NO2,16,16,16
India,Assam,Silchar,"Tarapur, Silchar - PCBA",08-06-2024 01:00:00,24.82827,92.79525,NH3,1,1,1
India,Assam,Sivasagar,"Girls College, Sivasagar - PCBA",08-06-2024 01:00:00,26.987634,94.636574,NH3,2,2,2
India,Bihar,Arrah,"New DM Office, Arrah - BSPCB",08-06-2024 01:00:00,25.5626095,84.663264,NH3,4,7,5
India,Bihar,Arrah,"New DM Office, Arrah - BSPCB",08-06-2024 01:00:00,25.5626095,84.663264,SO2,1,9,5
India,Bihar,Arrah,"New DM Office, Arrah - BSPCB",08-06-2024 01:00:00,25.5626095,84.663264,OZONE,7,63,22
India,Bihar,Aurangabad,"Gurdeo Nagar, Aurangabad - BSPCB",08-06-2024 01:00:00,24.75746,84.366208,PM10,NA,NA,NA
India,Bihar,Aurangabad,"Gurdeo Nagar, Aurangabad - BSPCB",08-06-2024 01:00:00,24.75746,84.366208,NO2,1,17,6
India,Bihar,Bhagalpur,"DM Office_Kachari Chowk, Bhagalpur - BSPCB",08-06-2024 01:00:00,25.251013,86.989001,PM10,65,147,112
India,Bihar,Bhagalpur,"DM Office_Kachari Chowk, Bhagalpur - BSPCB",08-06-2024 01:00:00,25.251013,86.989001,NO2,19,52,36
India,Bihar,Bhagalpur,"Mayaganj, Bhagalpur - BSPCB",08-06-2024 01:00:00,25.265194,87.012947,NO2,4,11,7
India,Bihar,Bhagalpur,"Mayaganj, Bhagalpur - BSPCB",08-06-2024 01:00:00,25.265194,87.012947,NH3,8,10,9
India,Bihar,Bihar Sharif,"D M Colony, Bihar Sharif - BSPCB",08-06-2024 01:00:00,25.204762,85.514960,CO,13,29,18
India,Bihar,Buxar,"Charitra Van, Buxar - BSPCB (Formerly known as Central Jail)",08-06-2024 01:00:00,25.567520,83.966379,NH3,3,3,3
India,Bihar,Buxar,"Charitra Van, Buxar - BSPCB (Formerly known as Central Jail)",08-06-2024 01:00:00,25.567520,83.966379,OZONE,4,172,62
India,Bihar,Chhapra,"Darshan Nagar, Chhapra - BSPCB",08-06-2024 01:00:00,25.7808257,84.7446768,NO2,NA,NA,NA
India,Bihar,Chhapra,"Darshan Nagar, Chhapra - BSPCB",08-06-2024 01:00:00,25.7808257,84.7446768,NH3,NA,NA,NA
India,Bihar,Chhapra,"Darshan Nagar, Chhapra - BSPCB",08-06-2024 01:00:00,25.7808257,84.7446768,OZONE,1,9,3
India,Bihar,Gaya,"Collectorate, Gaya - BSPCB",08-06-2024 01:00:00,24.7955,84.9994,PM2.5,26,108,73
India,Bihar,Gaya,"Collectorate, Gaya - BSPCB",08-06-2024 01:00:00,24.7955,84.9994,CO,116,144,126
India,Bihar,Gaya,"Kareemganj, Gaya - BSPCB",08-06-2024 01:00:00,24.792403,84.992416,PM10,43,132,89
India,Bihar,Gaya,"Kareemganj, Gaya - BSPCB",08-06-2024 01:00:00,24.792403,84.992416,SO2,8,10,10
India,Bihar,Gaya,"Kareemganj, Gaya - BSPCB",08-06-2024 01:00:00,24.792403,84.992416,OZONE,7,37,19
India,Bihar,Gaya,"SFTI Kusdihra, Gaya - BSPCB",08-06-2024 01:00:00,24.762518,84.982348,PM2.5,42,198,99
India,Bihar,Hajipur,"Industrial Area, Hajipur - BSPCB",08-06-2024 01:00:00,25.697189,85.245900,OZONE,5,68,22
India,Bihar,Katihar,"Mirchaibari, Katihar - BSPCB",08-06-2024 01:00:00,25.560083,87.553265,NH3,1,2,1
India,Bihar,Katihar,"Mirchaibari, Katihar - BSPCB",08-06-2024 01:00:00,25.560083,87.553265,SO2,4,14,11
India,Bihar,Kishanganj,"SDM Office_Khagra, Kishanganj - BSPCB",08-06-2024 01:00:00,26.0881305,87.93840336,PM10,NA,NA,NA
India,Bihar,Manguraha,"Forest Rest House, Manguraha - BSPCB",08-06-2024 01:00:00,27.308328,84.531742,NO2,15,20,17
India,Bihar,Motihari,"Gandak Colony, Motihari - BSPCB",08-06-2024 01:00:00,26.63086,84.90051,PM2.5,23,150,60
India,Bihar,Motihari,"Gandak Colony, Motihari - BSPCB",08-06-2024 01:00:00,26.63086,84.90051,OZONE,18,80,43
India,Bihar,Munger,"Town Hall, Munger - BSPCB",08-06-2024 01:00:00,25.376776,86.471523,OZONE,25,29,28
India,Bihar,Muzaffarpur,"Buddha Colony, Muzaffarpur - BSPCB",08-06-2024 01:00:00,26.11442,85.39813,PM2.5,46,295,107
India,Bihar,Muzaffarpur,"MIT-Daudpur Kothi, Muzaffarpur - BSPCB",08-06-2024 01:00:00,26.1403345,85.3650192,PM2.5,35,313,154
India,Bihar,Muzaffarpur,"Muzaffarpur Collectorate, Muzaffarpur - BSPCB",08-06-2024 01:00:00,26.1209,85.3647,NO2,28,58,35
India,Bihar,Patna,"Govt. High School Shikarpur, Patna - BSPCB",08-06-2024 01:00:00,25.592539,85.227158,SO2,7,27,10
India,Bihar,Patna,"Muradpur, Patna - BSPCB",08-06-2024 01:00:00,25.619651,85.147382,NO2,13,101,30
India,Bihar,Patna,"Muradpur, Patna - BSPCB",08-06-2024 01:00:00,25.619651,85.147382,SO2,3,12,8
India,Bihar,Patna,"Muradpur, Patna - BSPCB",08-06-2024 01:00:00,25.619651,85.147382,OZONE,5,62,21
India,Bihar,Patna,"Samanpura, Patna - BSPCB",08-06-2024 01:00:00,25.596727,85.085624,PM2.5,56,104,82
India,Bihar,Patna,"Samanpura, Patna - BSPCB",08-06-2024 01:00:00,25.596727,85.085624,CO,29,70,55
India,Bihar,Patna,"Samanpura, Patna - BSPCB",08-06-2024 01:00:00,25.596727,85.085624,OZONE,74,260,112
India,Bihar,Rajgir,"Dangi Tola, Rajgir - BSPCB",08-06-2024 01:00:00,25.03280,85.41948,SO2,4,5,4
India,Bihar,Samastipur,"DM Office_Kasipur, Samastipur - BSPCB",08-06-2024 01:00:00,25.859655,85.77944,OZONE,1,33,5
India,Bihar,Sasaram,"Dada Peer, Sasaram - BSPCB",08-06-2024 01:00:00,24.952822,84.002396,NO2,8,50,24
India,Chandigarh,Chandigarh,"Sector 22, Chandigarh - CPCC",08-06-2024 01:00:00,30.735567,76.775714,NH3,6,17,9
India,Chandigarh,Chandigarh,"Sector 22, Chandigarh - CPCC",08-06-2024 01:00:00,30.735567,76.775714,SO2,5,30,13
India,Chandigarh,Chandigarh,"Sector-25, Chandigarh - CPCC",08-06-2024 01:00:00,30.751462,76.762879,PM10,112,161,132
India,Chandigarh,Chandigarh,"Sector-53, Chandigarh - CPCC",08-06-2024 01:00:00,30.719859,76.738637,NO2,13,67,25
India,Chandigarh,Chandigarh,"Sector-53, Chandigarh - CPCC",08-06-2024 01:00:00,30.719859,76.738637,SO2,4,12,8
India,Chhattisgarh,Bhilai,"32Bungalows, Bhilai - CECB",08-06-2024 01:00:00,21.194815,81.314770,NO2,11,17,14
India,Chhattisgarh,Bhilai,"Civic Center, Bhilai - Bhilai Steel Plant",08-06-2024 01:00:00,21.185571,81.343175,NH3,3,4,4
India,Chhattisgarh,Bhilai,"Hathkhoj, Bhilai - CECB",08-06-2024 01:00:00,21.224231,81.408350,PM2.5,NA,NA,NA
India,Chhattisgarh,Bhilai,"Hathkhoj, Bhilai - CECB",08-06-2024 01:00:00,21.224231,81.408350,SO2,NA,NA,NA
India,Chhattisgarh,Bilaspur,"Mangala, Bilaspur - NTPC",08-06-2024 01:00:00,22.08815,82.13737,PM10,33,102,64
India,Chhattisgarh,Korba,"Urja Nagar, Korba - CECB",08-06-2024 01:00:00,22.348441,82.549611,PM10,49,457,147
India,Chhattisgarh,Korba,"Urja Nagar, Korba - CECB",08-06-2024 01:00:00,22.348441,82.549611,OZONE,2,54,10
India,Chhattisgarh,Kunjemura,"OP Jindal School, Kunjemura - CECB",08-06-2024 01:00:00,22.126650,83.483212,NO2,16,114,57
India,Chhattisgarh,Milupara,"Govt. Higher Secondary School, Milupara - CECB",08-06-2024 01:00:00,22.1910172,83.5197009,PM2.5,NA,NA,NA
India,Chhattisgarh,Raipur,"AIIMS, Raipur - CECB",08-06-2024 01:00:00,21.258815,81.578979,PM10,26,67,49
India,Chhattisgarh,Raipur,"AIIMS, Raipur - CECB",08-06-2024 01:00:00,21.258815,81.578979,NO2,9,22,13
India,Chhattisgarh,Raipur,"Bhatagaon New ISBT, Raipur - CECB",08-06-2024 01:00:00,21.219665,81.630094,NH3,2,2,2
India,Chhattisgarh,Raipur,"Krishak Nagar, Raipur - CECB",08-06-2024 01:00:00,21.237755,81.705301,NH3,1,1,1
India,Chhattisgarh,Raipur,"Siltara Phase-II, Raipur - CECB",08-06-2024 01:00:00,21.371751,81.664929,PM10,26,147,79
India,Chhattisgarh,Raipur,"Siltara Phase-II, Raipur - CECB",08-06-2024 01:00:00,21.371751,81.664929,NH3,3,3,3
India,Chhattisgarh,Raipur,"Siltara Phase-II, Raipur - CECB",08-06-2024 01:00:00,21.371751,81.664929,CO,1,82,41
India,Delhi,Delhi,"Alipur, Delhi - DPCC",08-06-2024 01:00:00,28.815329,77.153010,NO2,3,45,21
India,Delhi,Delhi,"Anand Vihar, Delhi - DPCC",08-06-2024 01:00:00,28.647622,77.3158090,NO2,71,149,102
India,Delhi,Delhi,"Anand Vihar, Delhi - DPCC",08-06-2024 01:00:00,28.647622,77.3158090,CO,116,133,123
India,Delhi,Delhi,"Ashok Vihar, Delhi - DPCC",08-06-2024 01:00:00,28.695381,77.181665,PM2.5,42,183,80
India,Delhi,Delhi,"Ashok Vihar, Delhi - DPCC",08-06-2024 01:00:00,28.695381,77.181665,CO,17,55,41
India,Delhi,Delhi,"Ashok Vihar, Delhi - DPCC",08-06-2024 01:00:00,28.695381,77.181665,OZONE,32,129,69
India,Delhi,Delhi,"Bawana, Delhi - DPCC",08-06-2024 01:00:00,28.776200,77.051074,PM2.5,50,270,110
India,Delhi,Delhi,"Bawana, Delhi - DPCC",08-06-2024 01:00:00,28.776200,77.051074,CO,32,71,60
India,Delhi,Delhi,"Burari Crossing, Delhi - IMD",08-06-2024 01:00:00,28.7256504,77.2011573,NO2,8,16,13
India,Delhi,Delhi,"Burari Crossing, Delhi - IMD",08-06-2024 01:00:00,28.7256504,77.2011573,CO,54,70,63
India,Delhi,Delhi,"CRRI Mathura Road, Delhi - IMD",08-06-2024 01:00:00,28.5512005,77.2735737,PM2.5,NA,NA,NA
India,Delhi,Delhi,"Chandni Chowk, Delhi - IITM",08-06-2024 01:00:00,28.656756,77.227234,PM2.5,311,391,340
India,Delhi,Delhi,"Chandni Chowk, Delhi - IITM",08-06-2024 01:00:00,28.656756,77.227234,OZONE,1,8,3
India,Delhi,Delhi,"Dwarka-Sector 8, Delhi - DPCC ",08-06-2024 01:00:00,28.5710274,77.0719006,PM2.5,38,253,95
India,Delhi,Delhi,"IGI Airport (T3), Delhi - IMD",08-06-2024 01:00:00,28.5627763,77.1180053,PM2.5,31,161,84
India,Delhi,Delhi,"IGI Airport (T3), Delhi - IMD",08-06-2024 01:00:00,28.5627763,77.1180053,NO2,15,46,28
India,Delhi,Delhi,"IHBAS, Dilshad Garden, Delhi - CPCB",08-06-2024 01:00:00,28.6811736,77.3025234,PM2.5,58,302,122
India,Delhi,Delhi,"IHBAS, Dilshad Garden, Delhi - CPCB",08-06-2024 01:00:00,28.6811736,77.3025234,NO2,14,40,24
India,Delhi,Delhi,"IHBAS, Dilshad Garden, Delhi - CPCB",08-06-2024 01:00:00,28.6811736,77.3025234,CO,8,52,23
India,Delhi,Delhi,"ITO, Delhi - CPCB",08-06-2024 01:00:00,28.628624,77.241060,NH3,5,7,7
India,Delhi,Delhi,"Jahangirpuri, Delhi - DPCC",08-06-2024 01:00:00,28.732820,77.170633,NH3,5,31,12
India,Delhi,Delhi,"Jawaharlal Nehru Stadium, Delhi - DPCC",08-06-2024 01:00:00,28.580280,77.233829,PM2.5,20,88,39
India,Delhi,Delhi,"Lodhi Road, Delhi - IITM",08-06-2024 01:00:00,28.588333,77.221667,PM10,34,242,104
India,Delhi,Delhi,"Lodhi Road, Delhi - IITM",08-06-2024 01:00:00,28.588333,77.221667,NO2,1,70,20
India,Delhi,Delhi,"Lodhi Road, Delhi - IMD",08-06-2024 01:00:00,28.5918245,77.2273074,PM2.5,50,319,111
India,Delhi,Delhi,"Lodhi Road, Delhi - IMD",08-06-2024 01:00:00,28.5918245,77.2273074,NO2,3,14,7
India,Delhi,Delhi,"Lodhi Road, Delhi - IMD",08-06-2024 01:00:00,28.5918245,77.2273074,CO,27,35,31
India,Delhi,Delhi,"Mandir Marg, Delhi - DPCC",08-06-2024 01:00:00,28.636429,77.201067,PM2.5,10,200,81
India,Delhi,Delhi,"Mandir Marg, Delhi - DPCC",08-06-2024 01:00:00,28.636429,77.201067,SO2,7,24,13
India,Delhi,Delhi,"Mundka, Delhi - DPCC",08-06-2024 01:00:00,28.684678,77.076574,PM10,153,500,287
India,Delhi,Delhi,"Mundka, Delhi - DPCC",08-06-2024 01:00:00,28.684678,77.076574,OZONE,19,119,77
India,Delhi,Delhi,"NSIT Dwarka, Delhi - CPCB",08-06-2024 01:00:00,28.60909,77.0325413,NO2,15,39,28
India,Delhi,Delhi,"Najafgarh, Delhi - DPCC",08-06-2024 01:00:00,28.570173,76.933762,PM10,NA,NA,NA
India,Delhi,Delhi,"Najafgarh, Delhi - DPCC",08-06-2024 01:00:00,28.570173,76.933762,SO2,16,27,21
India,Delhi,Delhi,"Narela, Delhi - DPCC",08-06-2024 01:00:00,28.822836,77.101981,PM10,161,425,226
India,Delhi,Delhi,"Narela, Delhi - DPCC",08-06-2024 01:00:00,28.822836,77.101981,SO2,6,40,20
India,Delhi,Delhi,"Nehru Nagar, Delhi - DPCC",08-06-2024 01:00:00,28.567890,77.250515,PM10,121,439,234
India,Delhi,Delhi,"Nehru Nagar, Delhi - DPCC",08-06-2024 01:00:00,28.567890,77.250515,NH3,2,6,4
India,Delhi,Delhi,"Nehru Nagar, Delhi - DPCC",08-06-2024 01:00:00,28.567890,77.250515,SO2,4,11,7
India,Delhi,Delhi,"Nehru Nagar, Delhi - DPCC",08-06-2024 01:00:00,28.567890,77.250515,CO,42,86,61
India,Delhi,Delhi,"New Moti Bagh, Delhi - MHUA",08-06-2024 01:00:00,28.57834,77.18400,CO,16,49,33
India,Delhi,Delhi,"Okhla Phase-2, Delhi - DPCC",08-06-2024 01:00:00,28.530785,77.271255,OZONE,10,97,34
India,Delhi,Delhi,"Patparganj, Delhi - DPCC",08-06-2024 01:00:00,28.623763,77.287209,PM2.5,57,321,131
India,Delhi,Delhi,"Patparganj, Delhi - DPCC",08-06-2024 01:00:00,28.623763,77.287209,NO2,17,132,62
India,Delhi,Delhi,"Patparganj, Delhi - DPCC",08-06-2024 01:00:00,28.623763,77.287209,OZONE,4,200,65
India,Delhi,Delhi,"Punjabi Bagh, Delhi - DPCC",08-06-2024 01:00:00,28.674045,77.131023,CO,38,55,45
India,Delhi,Delhi,"R K Puram, Delhi - DPCC",08-06-2024 01:00:00,28.563262,77.186937,NH3,4,10,7
India,Delhi,Delhi,"R K Puram, Delhi - DPCC",08-06-2024 01:00:00,28.563262,77.186937,CO,10,62,38
India,Delhi,Delhi,"Shadipur, Delhi - CPCB",08-06-2024 01:00:00,28.6514781,77.1473105,NO2,43,65,54
India,Delhi,Delhi,"Shadipur, Delhi - CPCB",08-06-2024 01:00:00,28.6514781,77.1473105,NH3,6,8,7
India,Delhi,Delhi,"Sirifort, Delhi - CPCB",08-06-2024 01:00:00,28.5504249,77.2159377,OZONE,11,49,24
India,Delhi,Delhi,"Sonia Vihar, Delhi - DPCC",08-06-2024 01:00:00,28.710508,77.249485,PM2.5,50,140,81
India,Delhi,Delhi,"Sonia Vihar, Delhi - DPCC",08-06-2024 01:00:00,28.710508,77.249485,NH3,5,12,8
India,Delhi,Delhi,"Sri Aurobindo Marg, Delhi - DPCC",08-06-2024 01:00:00,28.531346,77.190156,PM2.5,36,187,85
India,Delhi,Delhi,"Sri Aurobindo Marg, Delhi - DPCC",08-06-2024 01:00:00,28.531346,77.190156,PM10,149,448,263
India,Delhi,Delhi,"Wazirpur, Delhi - DPCC",08-06-2024 01:00:00,28.699793,77.165453,NH3,10,13,12
India,Gujarat,Ahmedabad,"Chandkheda, Ahmedabad - IITM",08-06-2024 01:00:00,23.107969,72.574648,NO2,77,103,99
India,Gujarat,Ahmedabad,"Chandkheda, Ahmedabad - IITM",08-06-2024 01:00:00,23.107969,72.574648,NH3,2,3,3
India,Gujarat,Ahmedabad,"Chandkheda, Ahmedabad - IITM",08-06-2024 01:00:00,23.107969,72.574648,SO2,11,21,18
India,Gujarat,Ahmedabad,"Chandkheda, Ahmedabad - IITM",08-06-2024 01:00:00,23.107969,72.574648,OZONE,1,45,25
India,Gujarat,Ahmedabad,"Gyaspur, Ahmedabad - IITM",08-06-2024 01:00:00,22.977134,72.553024,PM10,32,217,119
India,Gujarat,Ahmedabad,"Raikhad, Ahmedabad - IITM",08-06-2024 01:00:00,23.020509,72.579261,PM10,NA,NA,NA
India,Gujarat,Ahmedabad,"Raikhad, Ahmedabad - IITM",08-06-2024 01:00:00,23.020509,72.579261,NO2,60,61,61
India,Gujarat,Ahmedabad,"Raikhad, Ahmedabad - IITM",08-06-2024 01:00:00,23.020509,72.579261,NH3,3,3,3
India,Gujarat,Ahmedabad,"Raikhad, Ahmedabad - IITM",08-06-2024 01:00:00,23.020509,72.579261,CO,2,30,18
India,Gujarat,Ahmedabad,"Rakhial, Ahmedabad - IITM",08-06-2024 01:00:00,23.016834,72.625775,PM2.5,40,78,55
India,Gujarat,Ahmedabad,"SVPI Airport Hansol, Ahmedabad - IITM",08-06-2024 01:00:00,23.076793,72.627874,CO,10,34,15
India,Gujarat,Ahmedabad,"Sardar Vallabhbhai Patel Stadium, Ahmedabad - IITM",08-06-2024 01:00:00,23.043070,72.562968,SO2,23,38,30
India,Gujarat,Ankleshwar,"GIDC, Ankleshwar - GPCB",08-06-2024 01:00:00,21.613267,73.010555,PM2.5,28,74,47
India,Gujarat,Ankleshwar,"GIDC, Ankleshwar - GPCB",08-06-2024 01:00:00,21.613267,73.010555,NO2,18,37,26
India,Gujarat,Gandhinagar,"GIFT City, Gandhinagar - IITM",08-06-2024 01:00:00,23.163798,72.677768,PM10,NA,NA,NA
India,Gujarat,Gandhinagar,"GIFT City, Gandhinagar - IITM",08-06-2024 01:00:00,23.163798,72.677768,NH3,NA,NA,NA
India,Gujarat,Nandesari,"GIDC, Nandesari - Nandesari Ind. Association",08-06-2024 01:00:00,22.410802,73.097923,SO2,2,27,14
India,Gujarat,Surat,"Science Center, Surat - SMC",08-06-2024 01:00:00,21.170046,72.795405,PM2.5,1,41,18
India,Gujarat,Vatva,"Phase-4 GIDC, Vatva - GPCB",08-06-2024 01:00:00,22.969611,72.643500,NH3,7,14,11
India,Haryana,Ambala,"Patti Mehar, Ambala - HSPCB",08-06-2024 01:00:00,30.379589,76.778328,NH3,NA,NA,NA
India,Haryana,Ambala,"Patti Mehar, Ambala - HSPCB",08-06-2024 01:00:00,30.379589,76.778328,CO,30,42,38
India,Haryana,Ambala,"Patti Mehar, Ambala - HSPCB",08-06-2024 01:00:00,30.379589,76.778328,OZONE,37,55,47
India,Haryana,Ballabgarh,"Nathu Colony, Ballabgarh - HSPCB",08-06-2024 01:00:00,28.3419248,77.319699,PM2.5,20,404,226
India,Haryana,Ballabgarh,"Nathu Colony, Ballabgarh - HSPCB",08-06-2024 01:00:00,28.3419248,77.319699,PM10,121,465,222
India,Haryana,Ballabgarh,"Nathu Colony, Ballabgarh - HSPCB",08-06-2024 01:00:00,28.3419248,77.319699,NH3,1,2,2
India,Haryana,Bhiwani,"H.B. Colony, Bhiwani - HSPCB",08-06-2024 01:00:00,28.806223,76.141105,NH3,4,6,6
India,Haryana,Bhiwani,"H.B. Colony, Bhiwani - HSPCB",08-06-2024 01:00:00,28.806223,76.141105,SO2,2,60,12
India,Haryana,Dharuhera,"Municipal Corporation Office, Dharuhera -  HSPCB",08-06-2024 01:00:00,28.206800,76.799700,NH3,9,27,19
India,Haryana,Dharuhera,"Municipal Corporation Office, Dharuhera -  HSPCB",08-06-2024 01:00:00,28.206800,76.799700,OZONE,10,43,23
India,Haryana,Faridabad,"New Industrial Town, Faridabad - HSPCB",08-06-2024 01:00:00,28.39072,77.30059,OZONE,NA,NA,NA
India,Haryana,Faridabad,"Sector 30, Faridabad - HSPCB",08-06-2024 01:00:00,28.4417,77.3217,PM2.5,72,302,109
India,Haryana,Faridabad,"Sector 30, Faridabad - HSPCB",08-06-2024 01:00:00,28.4417,77.3217,NO2,3,5,4
India,Haryana,Faridabad,"Sector 30, Faridabad - HSPCB",08-06-2024 01:00:00,28.4417,77.3217,NH3,3,4,3
India,Haryana,Faridabad,"Sector 30, Faridabad - HSPCB",08-06-2024 01:00:00,28.4417,77.3217,CO,8,54,32
India,Haryana,Faridabad,"Sector- 16A, Faridabad - HSPCB",08-06-2024 01:00:00,28.4088421,77.3099081,NO2,1,17,7
India,Haryana,Fatehabad,"Huda Sector, Fatehabad - HSPCB",08-06-2024 01:00:00,29.503664,75.467934,NO2,29,32,30
India,Haryana,Gurugram,"NISE Gwal Pahari, Gurugram - IMD",08-06-2024 01:00:00,28.422681,77.148944,NO2,NA,NA,NA
India,Haryana,Gurugram,"NISE Gwal Pahari, Gurugram - IMD",08-06-2024 01:00:00,28.422681,77.148944,CO,NA,NA,NA
India,Haryana,Gurugram,"NISE Gwal Pahari, Gurugram - IMD",08-06-2024 01:00:00,28.422681,77.148944,OZONE,NA,NA,NA
India,Haryana,Gurugram,"Sector-51, Gurugram - HSPCB",08-06-2024 01:00:00,28.4227,77.0667,PM10,112,500,208
India,Haryana,Gurugram,"Teri Gram, Gurugram - HSPCB",08-06-2024 01:00:00,28.4275,77.1465,PM10,108,437,247
India,Haryana,Gurugram,"Teri Gram, Gurugram - HSPCB",08-06-2024 01:00:00,28.4275,77.1465,OZONE,12,77,46
India,Haryana,Gurugram,"Vikas Sadan, Gurugram - HSPCB",08-06-2024 01:00:00,28.4501238,77.0263051,NO2,5,24,14
India,Haryana,Hisar,"Urban Estate-II, Hisar - HSPCB",08-06-2024 01:00:00,29.140560,75.744941,PM2.5,72,162,102
India,Haryana,Hisar,"Urban Estate-II, Hisar - HSPCB",08-06-2024 01:00:00,29.140560,75.744941,NO2,9,11,10
India,Haryana,Jind,"Police Lines, Jind - HSPCB",08-06-2024 01:00:00,29.307814,76.337619,NH3,NA,NA,NA
India,Haryana,Kaithal,"Rishi Nagar, Kaithal - HSPCB",08-06-2024 01:00:00,29.8006,76.4155,SO2,8,110,26
India,Haryana,Kaithal,"Rishi Nagar, Kaithal - HSPCB",08-06-2024 01:00:00,29.8006,76.4155,CO,1,54,27
India,Haryana,Karnal,"Sector-12, Karnal - HSPCB",08-06-2024 01:00:00,29.695300,77.002700,PM2.5,77,87,83
India,Haryana,Karnal,"Sector-12, Karnal - HSPCB",08-06-2024 01:00:00,29.695300,77.002700,NO2,7,12,10
India,Haryana,Kurukshetra,"Sector-7, Kurukshetra - HSPCB",08-06-2024 01:00:00,29.966942,76.875879,NO2,10,10,10
India,Haryana,Kurukshetra,"Sector-7, Kurukshetra - HSPCB",08-06-2024 01:00:00,29.966942,76.875879,OZONE,62,97,87
India,Haryana,Mandikhera,"General Hospital, Mandikhera - HSPCB",08-06-2024 01:00:00,27.9002,76.9938,PM2.5,49,145,91
India,Haryana,Mandikhera,"General Hospital, Mandikhera - HSPCB",08-06-2024 01:00:00,27.9002,76.9938,NO2,16,23,21
India,Haryana,Mandikhera,"General Hospital, Mandikhera - HSPCB",08-06-2024 01:00:00,27.9002,76.9938,CO,17,57,19
India,Haryana,Manesar,"Sector-2 IMT, Manesar - HSPCB",08-06-2024 01:00:00,28.360699,76.936090,PM10,49,329,163
India,Haryana,Manesar,"Sector-2 IMT, Manesar - HSPCB",08-06-2024 01:00:00,28.360699,76.936090,OZONE,14,78,39
India,Haryana,Panipat,"Sector-18, Panipat - HSPCB",08-06-2024 01:00:00,29.432304,76.972765,SO2,18,20,19
India,Haryana,Sirsa,"F-Block, Sirsa - HSPCB",08-06-2024 01:00:00,29.536400,75.015800,PM2.5,NA,NA,NA
India,Haryana,Sirsa,"F-Block, Sirsa - HSPCB",08-06-2024 01:00:00,29.536400,75.015800,NO2,NA,NA,NA
India,Haryana,Sirsa,"F-Block, Sirsa - HSPCB",08-06-2024 01:00:00,29.536400,75.015800,SO2,NA,NA,NA
India,Haryana,Sirsa,"F-Block, Sirsa - HSPCB",08-06-2024 01:00:00,29.536400,75.015800,CO,75,118,106
India,Haryana,Sonipat,"Murthal, Sonipat - HSPCB",08-06-2024 01:00:00,29.027200,77.062100,NO2,37,44,40
India,Haryana,Yamuna Nagar,"Gobind Pura, Yamuna Nagar - HSPCB",08-06-2024 01:00:00,30.1480566,77.2893471,OZONE,15,24,16
India,Jammu_and_Kashmir,Srinagar,"Rajbagh, Srinagar - JKSPCB",08-06-2024 01:00:00,34.066206,74.819820,PM10,NA,NA,NA
India,Jammu_and_Kashmir,Srinagar,"Rajbagh, Srinagar - JKSPCB",08-06-2024 01:00:00,34.066206,74.819820,SO2,NA,NA,NA
India,Jammu_and_Kashmir,Srinagar,"Rajbagh, Srinagar - JKSPCB",08-06-2024 01:00:00,34.066206,74.819820,CO,20,28,28
India,Karnataka,Bengaluru,"Bapuji Nagar, Bengaluru - KSPCB",08-06-2024 01:00:00,12.951913,77.539784,PM10,5,41,24
India,Karnataka,Bengaluru,"Bapuji Nagar, Bengaluru - KSPCB",08-06-2024 01:00:00,12.951913,77.539784,NH3,1,1,1
India,Karnataka,Bengaluru,"Hebbal, Bengaluru - KSPCB",08-06-2024 01:00:00,13.029152,77.585901,PM2.5,3,29,12
India,Karnataka,Bengaluru,"Hebbal, Bengaluru - KSPCB",08-06-2024 01:00:00,13.029152,77.585901,OZONE,7,50,8
India,Karnataka,Bengaluru,"Hombegowda Nagar, Bengaluru - KSPCB",08-06-2024 01:00:00,12.938539,77.590100,PM2.5,3,12,8
India,Karnataka,Bengaluru,"Hombegowda Nagar, Bengaluru - KSPCB",08-06-2024 01:00:00,12.938539,77.590100,NH3,1,2,1
India,Karnataka,Bengaluru,"Hombegowda Nagar, Bengaluru - KSPCB",08-06-2024 01:00:00,12.938539,77.590100,OZONE,9,31,21
India,Karnataka,Bengaluru,"Jayanagar 5th Block, Bengaluru - KSPCB",08-06-2024 01:00:00,12.920984,77.584908,PM2.5,8,24,16
India,Karnataka,Bengaluru,"Jayanagar 5th Block, Bengaluru - KSPCB",08-06-2024 01:00:00,12.920984,77.584908,PM10,8,23,14
India,Karnataka,Bengaluru,"Jayanagar 5th Block, Bengaluru - KSPCB",08-06-2024 01:00:00,12.920984,77.584908,OZONE,17,19,18
India,Karnataka,Bengaluru,"Kasturi Nagar, Bengaluru - KSPCB",08-06-2024 01:00:00,13.003872,77.664217,PM2.5,31,42,36
India,Karnataka,Bengaluru,"Peenya, Bengaluru - CPCB",08-06-2024 01:00:00,13.0270199,77.494094,PM10,43,52,48
India,Karnataka,Bengaluru,"Peenya, Bengaluru - CPCB",08-06-2024 01:00:00,13.0270199,77.494094,CO,75,82,80
India,Karnataka,Bengaluru,"RVCE-Mailasandra, Bengaluru - KSPCB",08-06-2024 01:00:00,12.921418,77.502466,CO,34,56,48
India,Karnataka,Bengaluru,"Shivapura_Peenya, Bengaluru - KSPCB",08-06-2024 01:00:00,13.0246342,77.5080115,SO2,3,5,4
India,Karnataka,Bengaluru,"Silk Board, Bengaluru - KSPCB",08-06-2024 01:00:00,12.917348,77.622813,PM10,23,97,62
India,Karnataka,Bengaluru,"Silk Board, Bengaluru - KSPCB",08-06-2024 01:00:00,12.917348,77.622813,SO2,9,15,11
India,Karnataka,Bengaluru,"Silk Board, Bengaluru - KSPCB",08-06-2024 01:00:00,12.917348,77.622813,CO,6,15,11
India,Karnataka,Bidar,"Naubad, Bidar - KSPCB",08-06-2024 01:00:00,17.930306,77.482194,PM2.5,19,75,38
India,Karnataka,Bidar,"Naubad, Bidar - KSPCB",08-06-2024 01:00:00,17.930306,77.482194,OZONE,15,33,21
India,Karnataka,Chikkaballapur,"Chikkaballapur Rural, Chikkaballapur - KSPCB",08-06-2024 01:00:00,13.428828,77.731418,CO,8,36,21
India,Karnataka,Chikkamagaluru,"Kalyana Nagara, Chikkamagaluru - KSPCB",08-06-2024 01:00:00,13.328028,75.797056,PM10,24,96,37
India,Karnataka,Chikkamagaluru,"Kalyana Nagara, Chikkamagaluru - KSPCB",08-06-2024 01:00:00,13.328028,75.797056,CO,1,153,36
India,Karnataka,Chikkamagaluru,"Kalyana Nagara, Chikkamagaluru - KSPCB",08-06-2024 01:00:00,13.328028,75.797056,OZONE,12,25,24
India,Karnataka,Davanagere,"Devaraj Urs Badavane, Davanagere - KSPCB",08-06-2024 01:00:00,14.475800,75.905200,NO2,9,13,10
India,Karnataka,Dharwad,"Kalabhavan, Dharwad - KSPCB",08-06-2024 01:00:00,15.459706,75.008381,SO2,1,32,5
India,Karnataka,Dharwad,"Kalabhavan, Dharwad - KSPCB",08-06-2024 01:00:00,15.459706,75.008381,CO,26,108,70
India,Karnataka,Gadag,"Panchal Nagar, Gadag - KSPCB",08-06-2024 01:00:00,15.411456,75.638133,PM10,NA,NA,NA
India,Karnataka,Hassan,"B.Katihalli, Hassan - KSPCB",08-06-2024 01:00:00,13.008556,76.125258,NH3,1,4,2
India,Karnataka,Hubballi,"Lingaraj Nagar, Hubballi - KSPCB",08-06-2024 01:00:00,15.3714823,75.1160168,PM10,48,54,50
India,Karnataka,Hubballi,"Lingaraj Nagar, Hubballi - KSPCB",08-06-2024 01:00:00,15.3714823,75.1160168,NO2,11,20,16
India,Karnataka,Hubballi,"Lingaraj Nagar, Hubballi - KSPCB",08-06-2024 01:00:00,15.3714823,75.1160168,CO,12,23,17
India,Karnataka,Kalaburagi,"Lal Bahadur Shastri Nagar, Kalaburagi - KSPCB",08-06-2024 01:00:00,17.321993,76.822628,OZONE,1,75,52
India,Karnataka,Kalaburagi,"Mahatma Basaveswar Colony, Kalaburgi - KSPCB",08-06-2024 01:00:00,17.336318,76.847397,PM2.5,NA,NA,NA
India,Karnataka,Kalaburagi,"Mahatma Basaveswar Colony, Kalaburgi - KSPCB",08-06-2024 01:00:00,17.336318,76.847397,NO2,NA,NA,NA
India,Karnataka,Kalaburagi,"Mahatma Basaveswar Colony, Kalaburgi - KSPCB",08-06-2024 01:00:00,17.336318,76.847397,NH3,NA,NA,NA
India,Karnataka,Kalaburagi,"Mahatma Basaveswar Colony, Kalaburgi - KSPCB",08-06-2024 01:00:00,17.336318,76.847397,CO,NA,NA,NA
India,Karnataka,Karwar,"KHB Colony, Karwar - KSPCB",08-06-2024 01:00:00,14.816666,74.141003,NO2,1,16,3
India,Karnataka,Kolar,"Tamaka Ind. Area, Kolar - KSPCB",08-06-2024 01:00:00,13.1276288,78.1570122,PM10,NA,NA,NA
India,Karnataka,Kolar,"Tamaka Ind. Area, Kolar - KSPCB",08-06-2024 01:00:00,13.1276288,78.1570122,SO2,NA,NA,NA
India,Karnataka,Koppal,"Diwator Nagar, Koppal - KSPCB",08-06-2024 01:00:00,15.347630,76.181767,PM10,2,16,7
India,Karnataka,Koppal,"Diwator Nagar, Koppal - KSPCB",08-06-2024 01:00:00,15.347630,76.181767,NO2,36,61,48
India,Karnataka,Koppal,"Diwator Nagar, Koppal - KSPCB",08-06-2024 01:00:00,15.347630,76.181767,SO2,24,25,24
India,Karnataka,Madikeri,"Stuart Hill, Madikeri - KSPCB",08-06-2024 01:00:00,12.415911,75.735050,NO2,1,7,2
India,Karnataka,Madikeri,"Stuart Hill, Madikeri - KSPCB",08-06-2024 01:00:00,12.415911,75.735050,SO2,4,4,4
India,Karnataka,Mangalore,"Kadri, Mangalore - KSPCB",08-06-2024 01:00:00,12.889250,74.853000,PM10,33,53,41
India,Karnataka,Mangalore,"Kadri, Mangalore - KSPCB",08-06-2024 01:00:00,12.889250,74.853000,OZONE,31,32,32
India,Karnataka,Mysuru,"Hebbal 1st Stage, Mysuru - KSPCB",08-06-2024 01:00:00,12.21041,76.37376,PM2.5,7,28,15
India,Karnataka,Mysuru,"Hebbal 1st Stage, Mysuru - KSPCB",08-06-2024 01:00:00,12.21041,76.37376,OZONE,8,52,37
India,Karnataka,Raichur,"Haji Colony, Raichur - KSPCB",08-06-2024 01:00:00,16.208139,77.348417,OZONE,3,9,6
India,Karnataka,Ramanagara,"Vijay Nagar, Ramanagara - KSPCB",08-06-2024 01:00:00,12.733409,77.298051,NO2,9,43,15
India,Karnataka,Shivamogga,"Vinoba Nagara, Shivamogga - KSPCB",08-06-2024 01:00:00,13.940000,75.555917,NH3,2,10,5
India,Karnataka,Tumakuru,"Thimmalapura, Tumakuru - KSPCB",08-06-2024 01:00:00,13.377516,77.099072,SO2,NA,NA,NA
India,Karnataka,Udupi,"Brahmagiri, Udupi - KSPCB",08-06-2024 01:00:00,13.34194444,74.74694444,PM10,1,37,13
India,Karnataka,Udupi,"Brahmagiri, Udupi - KSPCB",08-06-2024 01:00:00,13.34194444,74.74694444,NH3,1,1,1
India,Karnataka,Udupi,"Brahmagiri, Udupi - KSPCB",08-06-2024 01:00:00,13.34194444,74.74694444,SO2,20,22,21
India,Karnataka,Udupi,"Brahmagiri, Udupi - KSPCB",08-06-2024 01:00:00,13.34194444,74.74694444,OZONE,23,24,23
India,Kerala,Kannur,"Thavakkara, Kannur - Kerala PCB",08-06-2024 01:00:00,11.875000,75.373200,SO2,NA,NA,NA
India,Kerala,Kollam,"Polayathode, Kollam - Kerala PCB",08-06-2024 01:00:00,8.8787,76.6073,PM2.5,NA,NA,NA
India,Kerala,Kollam,"Polayathode, Kollam - Kerala PCB",08-06-2024 01:00:00,8.8787,76.6073,CO,14,17,16
India,Kerala,Thiruvananthapuram,"Kariavattom, Thiruvananthapuram - Kerala PCB",08-06-2024 01:00:00,8.563700,76.886500,SO2,2,11,6
India,Madhya Pradesh,Bhopal,"Idgah Hills, Bhopal - MPPCB",08-06-2024 01:00:00,23.264759,77.381568,NO2,11,50,26
India,Madhya Pradesh,Bhopal,"Idgah Hills, Bhopal - MPPCB",08-06-2024 01:00:00,23.264759,77.381568,CO,4,56,27
India,Madhya Pradesh,Bhopal,"Idgah Hills, Bhopal - MPPCB",08-06-2024 01:00:00,23.264759,77.381568,OZONE,23,113,78
India,Madhya Pradesh,Bhopal,"Paryavaran Parisar, Bhopal - MPPCB",08-06-2024 01:00:00,23.210494,77.425409,SO2,8,13,9
India,Madhya Pradesh,Bhopal,"Paryavaran Parisar, Bhopal - MPPCB",08-06-2024 01:00:00,23.210494,77.425409,OZONE,27,126,72
India,Madhya Pradesh,Dewas,"Bhopal Chauraha, Dewas - MPPCB",08-06-2024 01:00:00,22.9682591,76.064118,CO,23,40,35
India,Madhya Pradesh,Gwalior,"City Center, Gwalior - MPPCB",08-06-2024 01:00:00,26.203442,78.193251,NH3,2,3,2
India,Madhya Pradesh,Gwalior,"City Center, Gwalior - MPPCB",08-06-2024 01:00:00,26.203442,78.193251,SO2,31,70,52
India,Madhya Pradesh,Gwalior,"City Center, Gwalior - MPPCB",08-06-2024 01:00:00,26.203442,78.193251,CO,32,53,44
India,Madhya Pradesh,Gwalior,"Maharaj Bada, Gwalior - MPPCB",08-06-2024 01:00:00,26.200388,78.147714,PM10,86,500,216
India,Madhya Pradesh,Gwalior,"Maharaj Bada, Gwalior - MPPCB",08-06-2024 01:00:00,26.200388,78.147714,NH3,3,9,4
India,Madhya Pradesh,Gwalior,"Phool Bagh, Gwalior - Mondelez Ind. Food",08-06-2024 01:00:00,26.210536,78.171,SO2,25,30,27
India,Madhya Pradesh,Indore,"Chhoti Gwaltoli, Indore - MPPCB",08-06-2024 01:00:00,22.4310,75.5213,NO2,35,101,53
India,Madhya Pradesh,Indore,"Maguda Nagar, Indore - IMC",08-06-2024 01:00:00,22.7524,75.8872,PM2.5,55,92,65
India,Madhya Pradesh,Indore,"Maguda Nagar, Indore - IMC",08-06-2024 01:00:00,22.7524,75.8872,PM10,36,64,47
India,Madhya Pradesh,Indore,"Regional Park, Indore - IMC",08-06-2024 01:00:00,22.6780,75.8559,OZONE,5,19,10
India,Madhya Pradesh,Indore,"Residency Area, Indore - IMC",08-06-2024 01:00:00,22.7084,75.8815,PM2.5,38,70,47
India,Madhya Pradesh,Indore,"Residency Area, Indore - IMC",08-06-2024 01:00:00,22.7084,75.8815,PM10,14,104,59
India,Madhya Pradesh,Jabalpur,"Govindh Bhavan Colony, Jabalpur - JMC",08-06-2024 01:00:00,23.163174,79.973061,PM2.5,38,68,50
India,Madhya Pradesh,Jabalpur,"Govindh Bhavan Colony, Jabalpur - JMC",08-06-2024 01:00:00,23.163174,79.973061,SO2,13,31,17
India,Madhya Pradesh,Jabalpur,"Govindh Bhavan Colony, Jabalpur - JMC",08-06-2024 01:00:00,23.163174,79.973061,CO,14,18,16
India,Madhya Pradesh,Jabalpur,"Govindh Bhavan Colony, Jabalpur - JMC",08-06-2024 01:00:00,23.163174,79.973061,OZONE,49,109,79
India,Madhya Pradesh,Jabalpur,"Marhatal, Jabalpur - MPPCB",08-06-2024 01:00:00,23.168606,79.932247,PM2.5,34,57,43
India,Madhya Pradesh,Jabalpur,"Marhatal, Jabalpur - MPPCB",08-06-2024 01:00:00,23.168606,79.932247,PM10,46,123,75
India,Madhya Pradesh,Jabalpur,"Suhagi, Jabalpur - JMC",08-06-2024 01:00:00,23.218135,79.957770,PM2.5,NA,NA,NA
India,Madhya Pradesh,Katni,"Gole Bazar, Katni - MPPCB",08-06-2024 01:00:00,23.50016,80.23284,NO2,25,58,34
India,Madhya Pradesh,Katni,"Gole Bazar, Katni - MPPCB",08-06-2024 01:00:00,23.50016,80.23284,CO,22,40,29
India,Madhya Pradesh,Maihar,"Sahilara, Maihar - KJS Cements",08-06-2024 01:00:00,24.2613009,80.7231783,CO,40,56,42
India,Madhya Pradesh,Mandideep,"Sector-D Industrial Area, Mandideep - MPPCB",08-06-2024 01:00:00,23.108440,77.511428,PM10,90,236,154
India,Madhya Pradesh,Mandideep,"Sector-D Industrial Area, Mandideep - MPPCB",08-06-2024 01:00:00,23.108440,77.511428,SO2,14,59,20
India,Madhya Pradesh,Mandideep,"Sector-D Industrial Area, Mandideep - MPPCB",08-06-2024 01:00:00,23.108440,77.511428,OZONE,11,49,36
India,Madhya Pradesh,Pithampur,"Sector-2 Industrial Area, Pithampur - MPPCB",08-06-2024 01:00:00,22.624758,75.675238,PM10,61,278,107
India,Madhya Pradesh,Pithampur,"Sector-2 Industrial Area, Pithampur - MPPCB",08-06-2024 01:00:00,22.624758,75.675238,NO2,5,21,9
India,Madhya Pradesh,Pithampur,"Sector-2 Industrial Area, Pithampur - MPPCB",08-06-2024 01:00:00,22.624758,75.675238,NH3,1,2,2
India,Madhya Pradesh,Ratlam,"Shasthri Nagar, Ratlam - IPCA Lab",08-06-2024 01:00:00,23.331731,75.045981,PM10,59,201,119
India,Madhya Pradesh,Satna,"Bandhavgar Colony, Satna - Birla Cement",08-06-2024 01:00:00,24.58434363,80.8549414,NO2,31,68,44
India,Madhya Pradesh,Satna,"Bandhavgar Colony, Satna - Birla Cement",08-06-2024 01:00:00,24.58434363,80.8549414,SO2,1,2,2
India,Madhya Pradesh,Ujjain,"Mahakaleshwar Temple, Ujjain - MPPCB",08-06-2024 01:00:00,23.182719 ,75.768218 ,SO2,5,17,11
India,Maharashtra,Ahmednagar,"Tarakpur, Ahmednagar - MPCB",08-06-2024 01:00:00,19.10122,74.73339,SO2,1,23,14
India,Maharashtra,Ahmednagar,"Tarakpur, Ahmednagar - MPCB",08-06-2024 01:00:00,19.10122,74.73339,OZONE,17,85,58
India,Maharashtra,Akola,"Ramdaspeth, Akola - MPCB",08-06-2024 01:00:00,20.719516,77.000253,NO2,11,20,15
India,Maharashtra,Akola,"Ramdaspeth, Akola - MPCB",08-06-2024 01:00:00,20.719516,77.000253,NH3,2,15,7
India,Maharashtra,Amravati,"Shri Shivaji Science College, Amaravati - MPCB",08-06-2024 01:00:00,20.939198,77.765701,SO2,2,7,4
India,Maharashtra,Aurangabad,"MIDC Chilkalthana, Aurangabad - MPCB",08-06-2024 01:00:00,19.875620,75.387310,CO,NA,NA,NA
India,Maharashtra,Badlapur,"Katrap, Badlapur - MPCB",08-06-2024 01:00:00,19.16485,73.23409,OZONE,14,84,42
India,Maharashtra,Belapur,"CBD Belapur, Belapur - MPCB",08-06-2024 01:00:00,19.0243902,73.0406721,CO,8,20,14
India,Maharashtra,Bhiwandi,"Gokul Nagar, Bhiwandi - MPCB",08-06-2024 01:00:00,19.309073,73.057223,OZONE,20,96,42
India,Maharashtra,Boisar,"Khaira, Boisar - MPCB",08-06-2024 01:00:00,19.786089,72.757971,PM10,NA,NA,NA
India,Maharashtra,Boisar,"Khaira, Boisar - MPCB",08-06-2024 01:00:00,19.786089,72.757971,CO,6,34,20
India,Maharashtra,Chandrapur,"Chauhan Colony, Chandrapur - MPCB",08-06-2024 01:00:00,19.962900,79.298714,PM10,36,69,51
India,Maharashtra,Chandrapur,"MIDC Khutala, Chandrapur - MPCB",08-06-2024 01:00:00,19.9775302,79.2337086,NH3,7,14,10
India,Maharashtra,Dhule,"Deopur, Dhule - MPCB",08-06-2024 01:00:00,20.918946,74.776388,CO,19,48,33
India,Maharashtra,Jalgaon,"Prabhat Colony, Jalgaon - MPCB",08-06-2024 01:00:00,21.001264,75.565602,CO,8,31,18
India,Maharashtra,Jalna,"Old MIDC, Jalna - MPCB",08-06-2024 01:00:00,19.854616,75.905894,NO2,23,27,25
India,Maharashtra,Jalna,"Old MIDC, Jalna - MPCB",08-06-2024 01:00:00,19.854616,75.905894,SO2,6,8,6
India,Maharashtra,Kalyan,"Khadakpada, Kalyan - MPCB",08-06-2024 01:00:00,19.25292,73.142019,PM10,44,129,93
India,Maharashtra,Kalyan,"Khadakpada, Kalyan - MPCB",08-06-2024 01:00:00,19.25292,73.142019,SO2,19,25,21
India,Maharashtra,Kalyan,"Khadakpada, Kalyan - MPCB",08-06-2024 01:00:00,19.25292,73.142019,CO,12,16,14
India,Maharashtra,Kalyan,"Khadakpada, Kalyan - MPCB",08-06-2024 01:00:00,19.25292,73.142019,OZONE,8,13,9
India,Maharashtra,Kolhapur,"Shivaji University, Kolhapur - MPCB",08-06-2024 01:00:00,16.6870449,74.2505872,PM10,19,83,53
India,Maharashtra,Kolhapur,"Sinchan Bhavan, Kolhapur - MPCB",08-06-2024 01:00:00,16.7143745,74.2426398,CO,15,32,22
India,Maharashtra,Mahad,"Kamble Tarf Birwadi, Mahad - MPCB",08-06-2024 01:00:00,18.1023399,73.4783687,NO2,8,61,21
India,Maharashtra,Mahad,"Kamble Tarf Birwadi, Mahad - MPCB",08-06-2024 01:00:00,18.1023399,73.4783687,CO,6,29,9
India,Maharashtra,Malegaon,"Mahesh Nagar, Malegaon - MPCB",08-06-2024 01:00:00,20.555712,74.529236,CO,17,30,26
India,Maharashtra,Malegaon,"Mahesh Nagar, Malegaon - MPCB",08-06-2024 01:00:00,20.555712,74.529236,OZONE,18,132,57
India,Maharashtra,Mumbai,"Bandra Kurla Complex, Mumbai - MPCB",08-06-2024 01:00:00,19.065931,72.862131,NO2,4,18,9
India,Maharashtra,Mumbai,"Borivali East, Mumbai - MPCB",08-06-2024 01:00:00,19.2243333,72.8658113,PM2.5,3,22,11
India,Maharashtra,Mumbai,"Borivali East, Mumbai - MPCB",08-06-2024 01:00:00,19.2243333,72.8658113,PM10,37,59,48
India,Maharashtra,Mumbai,"Borivali East, Mumbai - MPCB",08-06-2024 01:00:00,19.2243333,72.8658113,NO2,2,7,5
India,Maharashtra,Mumbai,"Chakala-Andheri East, Mumbai - IITM",08-06-2024 01:00:00,19.11074,72.86084,NH3,5,12,8
India,Maharashtra,Mumbai,"Chembur, Mumbai - MPCB",08-06-2024 01:00:00,19.0364585,72.8954371,SO2,1,2,1
India,Maharashtra,Mumbai,"Chembur, Mumbai - MPCB",08-06-2024 01:00:00,19.0364585,72.8954371,OZONE,8,47,29
India,Maharashtra,Mumbai,"Chhatrapati Shivaji Intl. Airport (T2), Mumbai - MPCB",08-06-2024 01:00:00,19.10078,72.87462,PM10,55,102,75
India,Maharashtra,Mumbai,"Colaba, Mumbai - MPCB",08-06-2024 01:00:00,18.910000,72.820000,PM2.5,24,61,41
India,Maharashtra,Mumbai,"Deonar, Mumbai - IITM",08-06-2024 01:00:00,19.04946,72.9230,NH3,6,7,6
India,Maharashtra,Mumbai,"Ghatkopar, Mumbai - BMC",08-06-2024 01:00:00,19.083694,72.920967,PM2.5,3,24,9
India,Maharashtra,Mumbai,"Kandivali East, Mumbai - MPCB",08-06-2024 01:00:00,19.205800,72.868200,CO,29,33,32
India,Maharashtra,Mumbai,"Kandivali East, Mumbai - MPCB",08-06-2024 01:00:00,19.205800,72.868200,OZONE,24,92,30
India,Maharashtra,Mumbai,"Kandivali West, Mumbai - BMC",08-06-2024 01:00:00,19.215859,72.831718,PM2.5,8,27,15
India,Maharashtra,Mumbai,"Kandivali West, Mumbai - BMC",08-06-2024 01:00:00,19.215859,72.831718,CO,6,20,12
India,Maharashtra,Mumbai,"Kherwadi_Bandra East, Mumbai - MPCB",08-06-2024 01:00:00,19.0632143,72.8456324,NH3,7,10,8
India,Maharashtra,Mumbai,"Khindipada-Bhandup West, Mumbai - IITM",08-06-2024 01:00:00,19.1653323,72.922099,PM2.5,17,63,36
India,Maharashtra,Mumbai,"Khindipada-Bhandup West, Mumbai - IITM",08-06-2024 01:00:00,19.1653323,72.922099,OZONE,9,20,15
India,Maharashtra,Mumbai,"Kurla, Mumbai - MPCB",08-06-2024 01:00:00,19.0863,72.8888,PM10,87,101,94
India,Maharashtra,Mumbai,"Kurla, Mumbai - MPCB",08-06-2024 01:00:00,19.0863,72.8888,NO2,12,14,14
India,Maharashtra,Mumbai,"Kurla, Mumbai - MPCB",08-06-2024 01:00:00,19.0863,72.8888,NH3,2,2,2
India,Maharashtra,Mumbai,"Mulund West, Mumbai - MPCB",08-06-2024 01:00:00,19.1750,72.9419,NH3,10,11,10
India,Maharashtra,Mumbai,"Mulund West, Mumbai - MPCB",08-06-2024 01:00:00,19.1750,72.9419,CO,34,35,35
India,Maharashtra,Mumbai,"Navy Nagar-Colaba, Mumbai - IITM",08-06-2024 01:00:00,18.897756,72.813320,NH3,10,12,11
India,Maharashtra,Mumbai,"Powai, Mumbai - MPCB",08-06-2024 01:00:00,19.137500,72.915056,CO,32,40,36
India,Maharashtra,Mumbai,"Siddharth Nagar-Worli, Mumbai - IITM",08-06-2024 01:00:00,19.000083,72.813993,NH3,2,4,2
India,Maharashtra,Mumbai,"Siddharth Nagar-Worli, Mumbai - IITM",08-06-2024 01:00:00,19.000083,72.813993,CO,64,82,77
India,Maharashtra,Mumbai,"Sion, Mumbai - MPCB",08-06-2024 01:00:00,19.047000,72.874600,NO2,2,47,31
India,Maharashtra,Mumbai,"Sion, Mumbai - MPCB",08-06-2024 01:00:00,19.047000,72.874600,CO,46,52,51
India,Maharashtra,Mumbai,"Vasai West, Mumbai - MPCB",08-06-2024 01:00:00,19.383200,72.820400,SO2,16,67,21
India,Maharashtra,Mumbai,"Vile Parle West, Mumbai - MPCB",08-06-2024 01:00:00,19.10861,72.83622,NO2,NA,NA,NA
India,Maharashtra,Mumbai,"Vile Parle West, Mumbai - MPCB",08-06-2024 01:00:00,19.10861,72.83622,OZONE,14,17,15
India,Maharashtra,Mumbai,"Worli, Mumbai - MPCB",08-06-2024 01:00:00,18.9936162,72.8128113,SO2,12,12,12
India,Maharashtra,Mumbai,"Worli, Mumbai - MPCB",08-06-2024 01:00:00,18.9936162,72.8128113,CO,24,26,25
India,Maharashtra,Nagpur,"Mahal, Nagpur - MPCB",08-06-2024 01:00:00,21.14472,79.107595,PM10,52,125,82
India,Maharashtra,Nagpur,"Mahal, Nagpur - MPCB",08-06-2024 01:00:00,21.14472,79.107595,NH3,4,10,6
India,Maharashtra,Nagpur,"Opp GPO Civil Lines, Nagpur - MPCB",08-06-2024 01:00:00,21.152875,79.0517531,PM2.5,32,139,65
India,Maharashtra,Nagpur,"Opp GPO Civil Lines, Nagpur - MPCB",08-06-2024 01:00:00,21.152875,79.0517531,CO,15,84,39
India,Maharashtra,Nanded,"Sneh Nagar, Nanded - MPCB",08-06-2024 01:00:00,19.173852,77.296291,PM10,3,137,61
India,Maharashtra,Nanded,"Sneh Nagar, Nanded - MPCB",08-06-2024 01:00:00,19.173852,77.296291,NO2,22,39,27
India,Maharashtra,Nanded,"Sneh Nagar, Nanded - MPCB",08-06-2024 01:00:00,19.173852,77.296291,CO,12,36,20
India,Maharashtra,Nashik,"Gangapur Road, Nashik - MPCB",08-06-2024 01:00:00,20.0073285,73.7762427,PM2.5,34,108,65
India,Maharashtra,Nashik,"Gangapur Road, Nashik - MPCB",08-06-2024 01:00:00,20.0073285,73.7762427,SO2,8,15,12
India,Maharashtra,Nashik,"Pandav Nagari, Nashik - MPCB",08-06-2024 01:00:00,19.9591346,73.7788008,SO2,3,21,12
India,Maharashtra,Nashik,"Pandav Nagari, Nashik - MPCB",08-06-2024 01:00:00,19.9591346,73.7788008,OZONE,19,71,54
India,Maharashtra,Navi Mumbai,"Kopripada-Vashi, Navi Mumbai - MPCB",08-06-2024 01:00:00,19.090337,73.014232,CO,12,22,18
India,Maharashtra,Navi Mumbai,"Kopripada-Vashi, Navi Mumbai - MPCB",08-06-2024 01:00:00,19.090337,73.014232,OZONE,8,56,21
India,Maharashtra,Navi Mumbai,"Mahape, Navi Mumbai - MPCB",08-06-2024 01:00:00,19.1135051,73.008978,PM10,49,137,86
India,Maharashtra,Navi Mumbai,"Mahape, Navi Mumbai - MPCB",08-06-2024 01:00:00,19.1135051,73.008978,NH3,2,2,2
India,Maharashtra,Navi Mumbai,"Mahape, Navi Mumbai - MPCB",08-06-2024 01:00:00,19.1135051,73.008978,OZONE,8,16,12
India,Maharashtra,Navi Mumbai,"Nerul, Navi Mumbai - MPCB",08-06-2024 01:00:00,19.008751,73.016620,PM2.5,15,36,27
India,Maharashtra,Navi Mumbai,"Nerul, Navi Mumbai - MPCB",08-06-2024 01:00:00,19.008751,73.016620,CO,12,16,15
India,Maharashtra,Navi Mumbai,"Sanpada, Navi Mumbai - MPCB",08-06-2024 01:00:00,19.0575752,73.0151367,SO2,1,5,2
India,Maharashtra,Navi Mumbai,"Sector-19A Nerul, Navi Mumbai - IITM",08-06-2024 01:00:00,19.044,73.0325,PM2.5,NA,NA,NA
India,Maharashtra,Navi Mumbai,"Sector-19A Nerul, Navi Mumbai - IITM",08-06-2024 01:00:00,19.044,73.0325,PM10,NA,NA,NA
India,Maharashtra,Navi Mumbai,"Sector-19A Nerul, Navi Mumbai - IITM",08-06-2024 01:00:00,19.044,73.0325,SO2,NA,NA,NA
India,Maharashtra,Navi Mumbai,"Sector-2E Kalamboli, Navi Mumbai - MPCB",08-06-2024 01:00:00,19.02579,73.10297,NO2,9,29,18
India,Maharashtra,Navi Mumbai,"Sector-2E Kalamboli, Navi Mumbai - MPCB",08-06-2024 01:00:00,19.02579,73.10297,SO2,3,26,7
India,Maharashtra,Navi Mumbai,"Tondare-Taloja, Navi Mumbai - MPCB",08-06-2024 01:00:00,19.0630,73.1209,PM10,11,84,64
India,Maharashtra,Parbhani,"Masoom Colony, Parbhani - MPCB",08-06-2024 01:00:00,19.265594,76.761463,CO,30,43,37
India,Maharashtra,Pimpri-Chinchwad,"Gavalinagar, Pimpri Chinchwad - MPCB",08-06-2024 01:00:00,18.63673,73.82487,NH3,1,3,1
India,Maharashtra,Pimpri-Chinchwad,"Gavalinagar, Pimpri Chinchwad - MPCB",08-06-2024 01:00:00,18.63673,73.82487,SO2,1,2,1
India,Maharashtra,Pimpri-Chinchwad,"Gavalinagar, Pimpri Chinchwad - MPCB",08-06-2024 01:00:00,18.63673,73.82487,OZONE,1,48,26
India,Maharashtra,Pune,"Alandi, Pune - IITM",08-06-2024 01:00:00,18.675076,73.892743,PM2.5,16,28,21
India,Maharashtra,Pune,"Hadapsar, Pune - IITM",08-06-2024 01:00:00,18.501793,73.927532,OZONE,11,69,33
India,Maharashtra,Pune,"Karve Road, Pune - MPCB",08-06-2024 01:00:00,18.5011743,73.8165527,SO2,1,26,9
India,Maharashtra,Pune,"Mhada Colony, Pune - IITM",08-06-2024 01:00:00,18.573040,73.927715,PM2.5,12,61,37
India,Maharashtra,Pune,"Savitribai Phule Pune University, Pune - MPCB",08-06-2024 01:00:00,18.547056,73.826908,NO2,11,29,22
India,Maharashtra,Pune,"Savitribai Phule Pune University, Pune - MPCB",08-06-2024 01:00:00,18.547056,73.826908,NH3,1,4,3
India,Maharashtra,Pune,"Savitribai Phule Pune University, Pune - MPCB",08-06-2024 01:00:00,18.547056,73.826908,OZONE,1,78,38
India,Maharashtra,Sangli,"Vijay Nagar, Sangli - MPCB",08-06-2024 01:00:00, 16.5038,74.3623,SO2,1,8,4
India,Maharashtra,Solapur,"Dnyaneshwar Nagar, Solapur - MPCB",08-06-2024 01:00:00,17.6336264,75.9132495,PM10,9,44,26
India,Maharashtra,Solapur,"Dnyaneshwar Nagar, Solapur - MPCB",08-06-2024 01:00:00,17.6336264,75.9132495,NH3,18,25,20
India,Maharashtra,Solapur,"Dnyaneshwar Nagar, Solapur - MPCB",08-06-2024 01:00:00,17.6336264,75.9132495,OZONE,11,45,39
India,Maharashtra,Solapur,"Ratandeep Housing Society, Solapur - MPCB",08-06-2024 01:00:00,17.65439,75.90649,NH3,13,14,14
India,Maharashtra,Solapur,"Ratandeep Housing Society, Solapur - MPCB",08-06-2024 01:00:00,17.65439,75.90649,CO,12,69,33
India,Maharashtra,Solapur,"Solapur, Solapur - MPCB",08-06-2024 01:00:00,17.6599188,75.9063906,NO2,54,55,55
India,Maharashtra,Thane,"Kasarvadavali, Thane - MPCB",08-06-2024 01:00:00,19.26777,72.97182,OZONE,10,36,20
India,Maharashtra,Thane,"Pimpleshwar Mandir, Thane - MPCB",08-06-2024 01:00:00,19.192056,72.9585188,PM10,60,104,82
India,Maharashtra,Thane,"Pimpleshwar Mandir, Thane - MPCB",08-06-2024 01:00:00,19.192056,72.9585188,SO2,1,3,1
India,Maharashtra,Thane,"Upvan Fort, Thane - MPCB",08-06-2024 01:00:00,19.222279,72.957979,PM2.5,15,39,25
India,Maharashtra,Ulhasnagar,"Sidhi Vinayak Nagar, Ulhasnagar - MPCB",08-06-2024 01:00:00,19.235581,73.159121,PM10,63,127,91
India,Maharashtra,Ulhasnagar,"Sidhi Vinayak Nagar, Ulhasnagar - MPCB",08-06-2024 01:00:00,19.235581,73.159121,SO2,4,90,17
India,Maharashtra,Ulhasnagar,"Sidhi Vinayak Nagar, Ulhasnagar - MPCB",08-06-2024 01:00:00,19.235581,73.159121,OZONE,10,158,40
India,Maharashtra,Virar,"Bolinj, Virar - MPCB",08-06-2024 01:00:00,19.4458210,72.7988231,NO2,12,95,24
India,Maharashtra,Virar,"Bolinj, Virar - MPCB",08-06-2024 01:00:00,19.4458210,72.7988231,CO,14,44,21
India,Manipur,Imphal,"Manipur University, Imphal - Manipur PCB",08-06-2024 01:00:00,24.7524239,93.9286218,PM2.5,30,106,49
India,Manipur,Imphal,"Manipur University, Imphal - Manipur PCB",08-06-2024 01:00:00,24.7524239,93.9286218,NH3,1,2,1
India,Manipur,Imphal,"Manipur University, Imphal - Manipur PCB",08-06-2024 01:00:00,24.7524239,93.9286218,CO,10,26,17
India,Meghalaya,Shillong,"Lumpyngngad, Shillong - Meghalaya PCB",08-06-2024 01:00:00,25.5586,91.8985,NO2,1,1,1
India,Mizoram,Aizawl,"Sikulpuikawn, Aizawl - Mizoram PCB",08-06-2024 01:00:00,23.7176342,92.7192841,CO,10,18,16
India,Nagaland,Kohima,"PWD Juction, Kohima - NPCB",08-06-2024 01:00:00,25.6635413,94.0989878,NO2,3,9,4
India,Nagaland,Kohima,"PWD Juction, Kohima - NPCB",08-06-2024 01:00:00,25.6635413,94.0989878,NH3,1,1,1
India,Odisha,Angul,"Hakimapada, Angul - OSPCB",08-06-2024 01:00:00,20.832874,85.104082,PM2.5,30,445,121
India,Odisha,Angul,"Hakimapada, Angul - OSPCB",08-06-2024 01:00:00,20.832874,85.104082,NH3,1,2,1
India,Odisha,Angul,"Hakimapada, Angul - OSPCB",08-06-2024 01:00:00,20.832874,85.104082,SO2,9,125,43
India,Odisha,Balasore,"Kalidaspur, Balasore - OSPCB",08-06-2024 01:00:00,21.51161,86.89088,NO2,1,124,10
India,Odisha,Barbil,"Forest Office, Barbil - OSPCB",08-06-2024 01:00:00,22.1166054,85.3945546,PM2.5,62,183,89
India,Odisha,Barbil,"Forest Office, Barbil - OSPCB",08-06-2024 01:00:00,22.1166054,85.3945546,NO2,7,21,12
India,Odisha,Baripada,"Meher Colony, Baripada - OSPCB",08-06-2024 01:00:00,21.941841,86.728318,NO2,NA,NA,NA
India,Odisha,Baripada,"Meher Colony, Baripada - OSPCB",08-06-2024 01:00:00,21.941841,86.728318,SO2,NA,NA,NA
India,Odisha,Bhubaneswar,"Lingraj Mandir, Bhubaneswar - OSPCB",08-06-2024 01:00:00,20.240790,85.836784,NO2,6,24,13
India,Odisha,Bhubaneswar,"Patia, Bhubaneswar - OSPCB",08-06-2024 01:00:00,20.34652,85.81630,NO2,7,36,14
India,Odisha,Bhubaneswar,"Patia, Bhubaneswar - OSPCB",08-06-2024 01:00:00,20.34652,85.81630,NH3,1,2,1
India,Odisha,Brajrajnagar,"GM Office, Brajrajnagar - OSPCB",08-06-2024 01:00:00,21.8004996,83.8396977,PM10,11,159,73
India,Odisha,Cuttack,"CDA Area, Cuttack - OSPCB",08-06-2024 01:00:00,20.48891     ,85.84768     ,PM2.5,13,60,34
India,Odisha,Keonjhar,"Jagamohanpur, Keonjhar - OSPCB",08-06-2024 01:00:00,21.643900,85.599355,PM2.5,NA,NA,NA
India,Odisha,Keonjhar,"Jagamohanpur, Keonjhar - OSPCB",08-06-2024 01:00:00,21.643900,85.599355,OZONE,1,39,37
India,Odisha,Nayagarh,"Dabuna, Nayagarh - OSPCB",08-06-2024 01:00:00,21.847279,85.416905,CO,14,20,15
India,Odisha,Rairangpur,"Divisional Forest Office, Rairangpur - OSPCB",08-06-2024 01:00:00,22.265816,86.174829,SO2,NA,NA,NA
India,Odisha,Rourkela,"Raghunathpali, Rourkela - OSPCB",08-06-2024 01:00:00,22.220833,84.809444,PM10,91,132,108
India,Odisha,Rourkela,"Raghunathpali, Rourkela - OSPCB",08-06-2024 01:00:00,22.220833,84.809444,SO2,7,8,8
India,Odisha,Rourkela,"Sector-2, Rourkela - OSPCB",08-06-2024 01:00:00,22.24500000,84.88111111,PM10,99,156,133
India,Odisha,Rourkela,"Sector-2, Rourkela - OSPCB",08-06-2024 01:00:00,22.24500000,84.88111111,CO,22,81,52
India,Odisha,Suakati,"OMC Colony, Suakati - OSPCB",08-06-2024 01:00:00,21.606865,85.510538,PM2.5,47,92,68
India,Odisha,Suakati,"OMC Colony, Suakati - OSPCB",08-06-2024 01:00:00,21.606865,85.510538,CO,10,36,16
India,Odisha,Talcher,"Talcher Coalfields,Talcher - OSPCB",08-06-2024 01:00:00,20.9360711,85.1707021,PM2.5,15,329,69
India,Odisha,Talcher,"Talcher Coalfields,Talcher - OSPCB",08-06-2024 01:00:00,20.9360711,85.1707021,SO2,17,22,20
India,Odisha,Talcher,"Talcher Coalfields,Talcher - OSPCB",08-06-2024 01:00:00,20.9360711,85.1707021,CO,42,100,59
India,Odisha,Tensa,"Barsua Iron Ore Mines, Tensa - OSPCB",08-06-2024 01:00:00,21.869985,85.167016,PM2.5,61,95,75
India,Odisha,Tensa,"Barsua Iron Ore Mines, Tensa - OSPCB",08-06-2024 01:00:00,21.869985,85.167016,NH3,3,4,4
India,Odisha,Tensa,"Barsua Iron Ore Mines, Tensa - OSPCB",08-06-2024 01:00:00,21.869985,85.167016,OZONE,102,303,141
India,Punjab,Amritsar,"Golden Temple, Amritsar - PPCB",08-06-2024 01:00:00,31.620000,74.876512,PM2.5,64,163,99
India,Punjab,Bathinda,"Hardev Nagar, Bathinda - PPCB",08-06-2024 01:00:00,30.233011,74.907758,CO,2,118,71
India,Punjab,Jalandhar,"Civil Line, Jalandhar - PPCB",08-06-2024 01:00:00,31.321907,75.578914,SO2,NA,NA,NA
India,Punjab,Jalandhar,"Civil Line, Jalandhar - PPCB",08-06-2024 01:00:00,31.321907,75.578914,OZONE,15,76,32
India,Punjab,Khanna,"Kalal Majra, Khanna - PPCB",08-06-2024 01:00:00,30.736056 ,76.209694,NH3,12,13,13
India,Punjab,Ludhiana,"Punjab Agricultural University, Ludhiana - PPCB",08-06-2024 01:00:00,30.9028,75.8086,PM2.5,35,191,106
India,Punjab,Mandi Gobindgarh,"RIMT University, Mandi Gobindgarh - PPCB",08-06-2024 01:00:00,30.649961,76.331442,CO,43,72,63
India,Punjab,Mandi Gobindgarh,"RIMT University, Mandi Gobindgarh - PPCB",08-06-2024 01:00:00,30.649961,76.331442,OZONE,26,50,33
India,Punjab,Patiala,"Model Town, Patiala - PPCB",08-06-2024 01:00:00,30.349388,76.366642,NH3,3,5,5
India,Punjab,Patiala,"Model Town, Patiala - PPCB",08-06-2024 01:00:00,30.349388,76.366642,OZONE,37,97,76
India,Punjab,Rupnagar,"Ratanpura, Rupnagar - Ambuja Cements",08-06-2024 01:00:00,31.0325454,76.5623046,PM10,71,237,130
India,Rajasthan,Ajmer,"Civil Lines,  Ajmer - RSPCB",08-06-2024 01:00:00,26.470859,74.646594,PM10,NA,NA,NA
India,Rajasthan,Banswara,"Rati Talai, Banswara - RSPCB",08-06-2024 01:00:00,23.555190,74.440010,CO,2,41,22
India,Rajasthan,Baran,"Bamboliya, Baran - RSPCB",08-06-2024 01:00:00,25.106006,76.469948,OZONE,2,80,80
India,Rajasthan,Barmer,"Railway Colony, Barmer - RSPCB",08-06-2024 01:00:00,25.747299,71.393989,NH3,1,27,10
India,Rajasthan,Bharatpur,"Krishna Nagar, Bharatpur - RSPCB",08-06-2024 01:00:00,27.215415,77.50873,PM10,72,500,259
India,Rajasthan,Bharatpur,"Krishna Nagar, Bharatpur - RSPCB",08-06-2024 01:00:00,27.215415,77.50873,NO2,5,76,19
India,Rajasthan,Bhilwara,"Pratap Nagar, Bhilwara - RSPCB",08-06-2024 01:00:00,25.339605,74.618883,OZONE,26,75,54
India,Rajasthan,Bhiwadi,"RIICO Ind. Area III, Bhiwadi - RSPCB",08-06-2024 01:00:00,28.194909,76.862296,PM10,118,500,299
India,Rajasthan,Bhiwadi,"RIICO Ind. Area III, Bhiwadi - RSPCB",08-06-2024 01:00:00,28.194909,76.862296,NO2,13,25,18
India,Rajasthan,Bhiwadi,"Vasundhara Nagar_UIT, Bhiwadi - RSPCB",08-06-2024 01:00:00,28.207266,76.829265,SO2,NA,NA,NA
India,Rajasthan,Bhiwadi,"Vasundhara Nagar_UIT, Bhiwadi - RSPCB",08-06-2024 01:00:00,28.207266,76.829265,CO,11,20,14
India,Rajasthan,Bikaner,"MM Ground, Bikaner - RSPCB",08-06-2024 01:00:00,28.018792,73.292658,PM2.5,56,500,339
India,Rajasthan,Bikaner,"MM Ground, Bikaner - RSPCB",08-06-2024 01:00:00,28.018792,73.292658,CO,10,40,15
India,Rajasthan,Bundi,"New Colony, Bundi - RSPCB",08-06-2024 01:00:00,25.435774,75.644272,PM2.5,12,490,195
India,Rajasthan,Bundi,"New Colony, Bundi - RSPCB",08-06-2024 01:00:00,25.435774,75.644272,OZONE,51,97,72
India,Rajasthan,Chittorgarh,"Shastri Nagar, Chittorgarh - RSPCB",08-06-2024 01:00:00,24.892047,74.623527,CO,7,23,14
India,Rajasthan,Chittorgarh,"Shastri Nagar, Chittorgarh - RSPCB",08-06-2024 01:00:00,24.892047,74.623527,OZONE,16,95,62
India,Rajasthan,Dausa,"Khatikan Mohalla, Dausa - RSPCB",08-06-2024 01:00:00,26.895552,76.334753,NO2,6,54,26
India,Rajasthan,Dholpur,"Raja Ganj, Dholpur - RSPCB",08-06-2024 01:00:00,26.699557,77.898881,PM2.5,47,372,170
India,Rajasthan,Dungarpur,"Bhoiwada, Dungarpur - RSPCB",08-06-2024 01:00:00,23.837789,73.714926,NH3,1,2,2
India,Rajasthan,Dungarpur,"Bhoiwada, Dungarpur - RSPCB",08-06-2024 01:00:00,23.837789,73.714926,SO2,2,8,3
India,Rajasthan,Hanumangarh,"Housing Board, Hanumangarh - RSPCB",08-06-2024 01:00:00,29.610750,74.283608,PM10,37,368,194
India,Rajasthan,Hanumangarh,"Housing Board, Hanumangarh - RSPCB",08-06-2024 01:00:00,29.610750,74.283608,NO2,3,27,10
India,Rajasthan,Jaipur,"Adarsh Nagar, Jaipur - RSPCB",08-06-2024 01:00:00,26.902909,75.836858,PM10,NA,NA,NA
India,Rajasthan,Jaipur,"RIICO Sitapura, Jaipur - RSPCB",08-06-2024 01:00:00,26.786682,75.827928,NO2,17,121,52
India,Rajasthan,Jaipur,"Sector-2 Murlipura, Jaipur - RSPCB",08-06-2024 01:00:00,26.960669,75.771817,NH3,1,8,4
India,Rajasthan,Jaipur,"Sector-2 Murlipura, Jaipur - RSPCB",08-06-2024 01:00:00,26.960669,75.771817,CO,2,65,53
India,Rajasthan,Jaipur,"Sector-2 Murlipura, Jaipur - RSPCB",08-06-2024 01:00:00,26.960669,75.771817,OZONE,8,81,34
India,Rajasthan,Jaipur,"Shastri Nagar, Jaipur - RSPCB",08-06-2024 01:00:00,26.9502929,75.730943,PM2.5,110,500,317
India,Rajasthan,Jaipur,"Shastri Nagar, Jaipur - RSPCB",08-06-2024 01:00:00,26.9502929,75.730943,CO,10,46,36
India,Rajasthan,Jaisalmer,"Sadar Bazar, Jaisalmer - RSPCB",08-06-2024 01:00:00,26.912329,70.909168,SO2,3,4,3
India,Rajasthan,Jhunjhunu,"Indra Nagar, Jhunjhunu - RSPCB",08-06-2024 01:00:00,28.108988,75.386577,PM10,NA,NA,NA
India,Rajasthan,Jhunjhunu,"Indra Nagar, Jhunjhunu - RSPCB",08-06-2024 01:00:00,28.108988,75.386577,NH3,24,33,29
India,Rajasthan,Jhunjhunu,"Indra Nagar, Jhunjhunu - RSPCB",08-06-2024 01:00:00,28.108988,75.386577,SO2,3,4,3
India,Rajasthan,Jodhpur,"Collectorate, Jodhpur - RSPCB",08-06-2024 01:00:00,26.268249,73.0193853,OZONE,13,71,60
India,Rajasthan,Jodhpur,"Digari Kalan, Jodhpur - RSPCB",08-06-2024 01:00:00,26.295810,73.082283,PM2.5,24,319,107
India,Rajasthan,Jodhpur,"Digari Kalan, Jodhpur - RSPCB",08-06-2024 01:00:00,26.295810,73.082283,PM10,55,500,232
India,Rajasthan,Jodhpur,"Jhalamand, Jodhpur - RSPCB",08-06-2024 01:00:00,26.215415,73.070156,CO,4,11,8
India,Rajasthan,Jodhpur,"Samrat Ashok Udhyan, Jodhpur - RSPCB",08-06-2024 01:00:00,26.253384,72.976571,PM2.5,20,234,63
India,Rajasthan,Jodhpur,"Samrat Ashok Udhyan, Jodhpur - RSPCB",08-06-2024 01:00:00,26.253384,72.976571,NH3,2,3,2
India,Rajasthan,Jodhpur,"Samrat Ashok Udhyan, Jodhpur - RSPCB",08-06-2024 01:00:00,26.253384,72.976571,OZONE,32,81,70
India,Rajasthan,Kota,"Dhanmandi, Kota - RSPCB",08-06-2024 01:00:00,25.164090,75.858137,NO2,10,104,32
India,Rajasthan,Kota,"Nayapura, Kota - RSPCB",08-06-2024 01:00:00,25.196024,75.855668,PM10,64,500,282
India,Rajasthan,Nagaur,"Karni Colony, Nagaur - RSPCB",08-06-2024 01:00:00,27.213494,73.734444,NH3,6,12,8
India,Rajasthan,Nagaur,"Karni Colony, Nagaur - RSPCB",08-06-2024 01:00:00,27.213494,73.734444,CO,30,50,42
India,Rajasthan,Nagaur,"Karni Colony, Nagaur - RSPCB",08-06-2024 01:00:00,27.213494,73.734444,OZONE,46,77,64
India,Rajasthan,Pratapgarh,"Pragati Nagar, Pratapgarh - RSPCB",08-06-2024 01:00:00,24.041198,74.780702,PM2.5,11,44,28
India,Rajasthan,Pratapgarh,"Pragati Nagar, Pratapgarh - RSPCB",08-06-2024 01:00:00,24.041198,74.780702,SO2,1,9,5
India,Rajasthan,Pratapgarh,"Pragati Nagar, Pratapgarh - RSPCB",08-06-2024 01:00:00,24.041198,74.780702,CO,9,30,17
India,Rajasthan,Pratapgarh,"Pragati Nagar, Pratapgarh - RSPCB",08-06-2024 01:00:00,24.041198,74.780702,OZONE,37,106,79
India,Rajasthan,Rajsamand,"Dhoinda, Rajsamand - RSPCB",08-06-2024 01:00:00,25.036360,73.883502,PM2.5,5,37,15
India,Rajasthan,Sawai Madhopur,"Sahu Nagar, Sawai Madhopur - RSPCB",08-06-2024 01:00:00,26.031443,76.359327,NH3,5,28,11
India,Rajasthan,Sikar,"Radhakishan Pura, Sikar - RSPCB",08-06-2024 01:00:00,27.608912,75.153302,NO2,4,64,20
India,Rajasthan,Sikar,"Radhakishan Pura, Sikar - RSPCB",08-06-2024 01:00:00,27.608912,75.153302,NH3,5,8,6
India,Rajasthan,Sikar,"Radhakishan Pura, Sikar - RSPCB",08-06-2024 01:00:00,27.608912,75.153302,SO2,4,6,5
India,Rajasthan,Sri Ganganagar,"Old City, Sri Ganganagar - RSPCB",08-06-2024 01:00:00,29.931624,73.864511,SO2,5,10,7
India,Rajasthan,Udaipur,"Ashok Nagar, Udaipur - RSPCB",08-06-2024 01:00:00,24.5886166,73.6321397,PM2.5,43,190,89
India,Rajasthan,Udaipur,"Ashok Nagar, Udaipur - RSPCB",08-06-2024 01:00:00,24.5886166,73.6321397,NH3,4,9,6
India,Sikkim,Gangtok,"Zero Point GICI, Gangtok - SSPCB",08-06-2024 01:00:00,27.338530,88.614099,NO2,1,6,1
India,Sikkim,Gangtok,"Zero Point GICI, Gangtok - SSPCB",08-06-2024 01:00:00,27.338530,88.614099,SO2,12,13,12
India,TamilNadu,Ariyalur,"Keelapalur, Ariyalur - TNPCB",08-06-2024 01:00:00,11.06825,79.07033,SO2,20,106,35
India,TamilNadu,Chennai,"Alandur Bus Depot, Chennai - CPCB",08-06-2024 01:00:00,12.9099161,80.1076538,PM2.5,23,23,23
India,TamilNadu,Chennai,"Alandur Bus Depot, Chennai - CPCB",08-06-2024 01:00:00,12.9099161,80.1076538,PM10,23,23,23
India,TamilNadu,Chennai,"Alandur Bus Depot, Chennai - CPCB",08-06-2024 01:00:00,12.9099161,80.1076538,CO,60,66,63
India,TamilNadu,Chennai,"Alandur Bus Depot, Chennai - CPCB",08-06-2024 01:00:00,12.9099161,80.1076538,OZONE,1,8,4
India,TamilNadu,Chennai,"Arumbakkam, Chennai - TNPCB",08-06-2024 01:00:00,13.0664,80.2112 ,PM2.5,6,37,20
India,TamilNadu,Chennai,"Arumbakkam, Chennai - TNPCB",08-06-2024 01:00:00,13.0664,80.2112 ,PM10,10,52,32
India,TamilNadu,Chennai,"Kodungaiyur, Chennai - TNPCB",08-06-2024 01:00:00,13.1278,80.2642,PM10,2,46,27
India,TamilNadu,Chennai,"Kodungaiyur, Chennai - TNPCB",08-06-2024 01:00:00,13.1278,80.2642,CO,18,50,36
India,TamilNadu,Chennai,"Kodungaiyur, Chennai - TNPCB",08-06-2024 01:00:00,13.1278,80.2642,OZONE,10,62,40
India,TamilNadu,Chennai,"Perungudi, Chennai - TNPCB",08-06-2024 01:00:00,12.9533,80.2357,PM10,7,52,30
India,TamilNadu,Chennai,"Perungudi, Chennai - TNPCB",08-06-2024 01:00:00,12.9533,80.2357,NO2,2,14,7
India,TamilNadu,Chennai,"Royapuram, Chennai - TNPCB",08-06-2024 01:00:00,13.1036,80.2909,PM2.5,NA,NA,NA
India,TamilNadu,Chennai,"Royapuram, Chennai - TNPCB",08-06-2024 01:00:00,13.1036,80.2909,NH3,NA,NA,NA
India,TamilNadu,Chennai,"Velachery Res. Area, Chennai - CPCB",08-06-2024 01:00:00,13.0052189,80.2398125,NO2,17,31,23
India,TamilNadu,Chennai,"Velachery Res. Area, Chennai - CPCB",08-06-2024 01:00:00,13.0052189,80.2398125,NH3,14,23,18
India,TamilNadu,Chennai,"Velachery Res. Area, Chennai - CPCB",08-06-2024 01:00:00,13.0052189,80.2398125,SO2,4,90,30
India,TamilNadu,Coimbatore,"PSG College of Arts and Science, Coimbatore - TNPCB",08-06-2024 01:00:00,11.0328,77.0349,SO2,35,42,40
India,TamilNadu,Cuddalore,"Kudikadu, Cuddalore - TNPCB",08-06-2024 01:00:00,11.6829898,79.7532099,PM10,6,48,21
India,TamilNadu,Cuddalore,"Semmandalam, Cuddalore - TNPCB",08-06-2024 01:00:00,11.7637683,79.7499835,PM2.5,NA,NA,NA
India,TamilNadu,Ooty,"Bombay Castel, Ooty - TNPCB",08-06-2024 01:00:00,11.4068288,76.7138973,PM2.5,2,58,18
India,TamilNadu,Ramanathapuram,"Chalai Bazaar, Ramanathapuram - TNPCB",08-06-2024 01:00:00,9.36399,78.831977,OZONE,13,14,14
India,TamilNadu,Salem,"Sona College of Technology, Salem - TNPCB",08-06-2024 01:00:00,11.679111,78.125052,SO2,82,84,83
India,TamilNadu,Tirupur,"Kumaran College, Tirupur - TNPCB",08-06-2024 01:00:00,11.0973603,77.3228673,OZONE,6,7,7
India,TamilNadu,Vellore,"Vasanthapuram, Vellore - TNPCB",08-06-2024 01:00:00,12.909494,79.131861,PM10,NA,NA,NA
India,Telangana,Hyderabad,"Bollaram Industrial Area, Hyderabad - TSPCB",08-06-2024 01:00:00,17.540891,78.358528,NH3,NA,NA,NA
India,Telangana,Hyderabad,"Central University, Hyderabad - TSPCB",08-06-2024 01:00:00,17.460103,78.334361,PM10,21,57,35
India,Telangana,Hyderabad,"ICRISAT Patancheru, Hyderabad - TSPCB",08-06-2024 01:00:00,17.518400,78.278777,NO2,2,21,10
India,Telangana,Hyderabad,"IITH Kandi, Hyderabad - TSPCB",08-06-2024 01:00:00,17.585705,78.126199,OZONE,29,33,33
India,Telangana,Hyderabad,"Kokapet, Hyderabad - TSPCB",08-06-2024 01:00:00,17.393559,78.339194,PM10,74,90,81
India,Telangana,Hyderabad,"Kokapet, Hyderabad - TSPCB",08-06-2024 01:00:00,17.393559,78.339194,SO2,7,11,10
India,Telangana,Hyderabad,"Kompally Municipal Office, Hyderabad - TSPCB",08-06-2024 01:00:00,17.544899,78.486949,PM2.5,38,82,54
India,Telangana,Hyderabad,"New Malakpet, Hyderabad - TSPCB",08-06-2024 01:00:00,17.37206,78.50864,PM10,NA,NA,NA
India,Telangana,Hyderabad,"New Malakpet, Hyderabad - TSPCB",08-06-2024 01:00:00,17.37206,78.50864,OZONE,2,305,3
India,Telangana,Hyderabad,"Ramachandrapuram, Hyderabad - TSPCB",08-06-2024 01:00:00,17.528544,78.286195,PM2.5,NA,NA,NA
India,Telangana,Hyderabad,"Ramachandrapuram, Hyderabad - TSPCB",08-06-2024 01:00:00,17.528544,78.286195,SO2,NA,NA,NA
India,Telangana,Hyderabad,"Sanathnagar, Hyderabad - TSPCB",08-06-2024 01:00:00,17.4559458,78.4332152,PM2.5,31,61,43
India,Telangana,Hyderabad,"Somajiguda, Hyderabad - TSPCB",08-06-2024 01:00:00,17.417094,78.457437,PM2.5,39,78,54
India,Telangana,Hyderabad,"Zoo Park, Hyderabad - TSPCB",08-06-2024 01:00:00,17.349694,78.451437,NO2,11,21,14
India,Telangana,Hyderabad,"Zoo Park, Hyderabad - TSPCB",08-06-2024 01:00:00,17.349694,78.451437,SO2,1,10,2
India,Telangana,Hyderabad,"Zoo Park, Hyderabad - TSPCB",08-06-2024 01:00:00,17.349694,78.451437,CO,23,51,32
India,Tripura,Agartala,"Bardowali, Agartala - Tripura SPCB",08-06-2024 01:00:00,23.8175497,91.2726974,CO,12,22,17
India,Uttar_Pradesh,Agra,"Manoharpur, Agra - UPPCB",08-06-2024 01:00:00,27.23711,78.01936,OZONE,1,23,11
India,Uttar_Pradesh,Agra,"Sector-3B Avas Vikas Colony, Agra - UPPCB",08-06-2024 01:00:00,27.19412,77.96237,PM10,37,469,182
India,Uttar_Pradesh,Agra,"Sector-3B Avas Vikas Colony, Agra - UPPCB",08-06-2024 01:00:00,27.19412,77.96237,NH3,6,25,13
India,Uttar_Pradesh,Agra,"Sector-3B Avas Vikas Colony, Agra - UPPCB",08-06-2024 01:00:00,27.19412,77.96237,SO2,13,17,14
India,Uttar_Pradesh,Agra,"Sector-3B Avas Vikas Colony, Agra - UPPCB",08-06-2024 01:00:00,27.19412,77.96237,CO,6,12,8
India,Uttar_Pradesh,Agra,"Shahjahan Garden, Agra - UPPCB",08-06-2024 01:00:00,27.169338,78.03582,PM2.5,35,334,123
India,Uttar_Pradesh,Agra,"Shahjahan Garden, Agra - UPPCB",08-06-2024 01:00:00,27.169338,78.03582,SO2,27,34,31
India,Uttar_Pradesh,Agra,"Shastripuram, Agra - UPPCB",08-06-2024 01:00:00,27.19862,77.92066,NH3,NA,NA,NA
India,Uttar_Pradesh,Agra,"Shastripuram, Agra - UPPCB",08-06-2024 01:00:00,27.19862,77.92066,SO2,5,8,6
India,Uttar_Pradesh,Agra,"Shastripuram, Agra - UPPCB",08-06-2024 01:00:00,27.19862,77.92066,OZONE,1,15,5
India,Uttar_Pradesh,Baghpat,"Sardar Patel Inter College, Baghpat - UPPCB",08-06-2024 01:00:00,28.964949,77.278761,SO2,4,94,43
India,Uttar_Pradesh,Bareilly,"Civil Lines, Bareilly - UPPCB",08-06-2024 01:00:00,28.359581,79.414455,PM2.5,14,28,20
India,Uttar_Pradesh,Bareilly,"Rajendra Nagar, Bareilly - UPPCB",08-06-2024 01:00:00,28.38910936,79.42963708,PM2.5,22,35,27
India,Uttar_Pradesh,Bulandshahr,"Yamunapuram, Bulandshahr - UPPCB",08-06-2024 01:00:00,28.406963,77.849831,NO2,13,79,32
India,Uttar_Pradesh,Firozabad,"Vibhab Nagar, Firozabad - UPPCB",08-06-2024 01:00:00,27.1594,78.3953,PM10,NA,NA,NA
India,Uttar_Pradesh,Firozabad,"Vibhab Nagar, Firozabad - UPPCB",08-06-2024 01:00:00,27.1594,78.3953,NO2,13,16,14
India,Uttar_Pradesh,Firozabad,"Vibhab Nagar, Firozabad - UPPCB",08-06-2024 01:00:00,27.1594,78.3953,SO2,5,27,14
India,Uttar_Pradesh,Ghaziabad,"Indirapuram, Ghaziabad - UPPCB",08-06-2024 01:00:00,28.646233,77.358075,PM2.5,54,124,78
India,Uttar_Pradesh,Ghaziabad,"Indirapuram, Ghaziabad - UPPCB",08-06-2024 01:00:00,28.646233,77.358075,SO2,9,21,15
India,Uttar_Pradesh,Ghaziabad,"Indirapuram, Ghaziabad - UPPCB",08-06-2024 01:00:00,28.646233,77.358075,OZONE,7,103,38
India,Uttar_Pradesh,Ghaziabad,"Loni, Ghaziabad - UPPCB",08-06-2024 01:00:00,28.757294,77.278792,NO2,16,71,41
India,Uttar_Pradesh,Ghaziabad,"Loni, Ghaziabad - UPPCB",08-06-2024 01:00:00,28.757294,77.278792,NH3,2,6,4
India,Uttar_Pradesh,Ghaziabad,"Vasundhara, Ghaziabad - UPPCB",08-06-2024 01:00:00,28.6603346,77.3572563,NO2,29,79,47
India,Uttar_Pradesh,Ghaziabad,"Vasundhara, Ghaziabad - UPPCB",08-06-2024 01:00:00,28.6603346,77.3572563,NH3,4,11,7
India,Uttar_Pradesh,Ghaziabad,"Vasundhara, Ghaziabad - UPPCB",08-06-2024 01:00:00,28.6603346,77.3572563,OZONE,16,165,71
India,Uttar_Pradesh,Gorakhpur,"Madan Mohan Malaviya University of Technology, Gorakhpur - UPPCB",08-06-2024 01:00:00,26.730136,83.433859,PM2.5,54,143,90
India,Uttar_Pradesh,Gorakhpur,"Madan Mohan Malaviya University of Technology, Gorakhpur - UPPCB",08-06-2024 01:00:00,26.730136,83.433859,NH3,1,1,1
India,Uttar_Pradesh,Gorakhpur,"Madan Mohan Malaviya University of Technology, Gorakhpur - UPPCB",08-06-2024 01:00:00,26.730136,83.433859,SO2,20,21,21
India,Uttar_Pradesh,Greater Noida,"Knowledge Park - III, Greater Noida - UPPCB",08-06-2024 01:00:00,28.47272,77.482000,PM10,171,494,306
India,Uttar_Pradesh,Greater Noida,"Knowledge Park - V, Greater Noida - UPPCB",08-06-2024 01:00:00,28.557054,77.453663,CO,3,94,58
India,Uttar_Pradesh,Hapur,"Anand Vihar, Hapur - UPPCB",08-06-2024 01:00:00,28.725645,77.749675,NO2,19,99,51
India,Uttar_Pradesh,Jhansi,"Shivaji Nagar, Jhansi - UPPCB",08-06-2024 01:00:00,25.4547,78.6039,PM10,NA,NA,NA
India,Uttar_Pradesh,Jhansi,"Shivaji Nagar, Jhansi - UPPCB",08-06-2024 01:00:00,25.4547,78.6039,OZONE,8,73,43
India,Uttar_Pradesh,Kanpur,"FTI Kidwai Nagar, Kanpur - UPPCB",08-06-2024 01:00:00,26.428282,80.327067,PM2.5,67,214,102
India,Uttar_Pradesh,Kanpur,"NSI Kalyanpur, Kanpur - UPPCB",08-06-2024 01:00:00,26.509954,80.249612,PM2.5,55,256,101
India,Uttar_Pradesh,Kanpur,"NSI Kalyanpur, Kanpur - UPPCB",08-06-2024 01:00:00,26.509954,80.249612,CO,30,66,48
India,Uttar_Pradesh,Kanpur,"Nehru Nagar, Kanpur - UPPCB",08-06-2024 01:00:00,26.4703136,80.3229863,PM2.5,37,211,77
India,Uttar_Pradesh,Lucknow,"B R Ambedkar University, Lucknow - UPPCB",08-06-2024 01:00:00,26.766433,80.927299,CO,20,32,24
India,Uttar_Pradesh,Lucknow,"Gomti Nagar, Lucknow - UPPCB",08-06-2024 01:00:00,26.868120,81.005119,PM2.5,42,169,90
India,Uttar_Pradesh,Lucknow,"Gomti Nagar, Lucknow - UPPCB",08-06-2024 01:00:00,26.868120,81.005119,SO2,7,15,11
India,Uttar_Pradesh,Lucknow,"Kendriya Vidyalaya, Lucknow - CPCB",08-06-2024 01:00:00,26.906111,80.948222,PM10,93,154,123
India,Uttar_Pradesh,Lucknow,"Kendriya Vidyalaya, Lucknow - CPCB",08-06-2024 01:00:00,26.906111,80.948222,NH3,3,17,12
India,Uttar_Pradesh,Lucknow,"Kukrail Picnic Spot-1, Lucknow - UPPCB",08-06-2024 01:00:00,26.90723,80.98579,PM10,63,114,94
India,Uttar_Pradesh,Lucknow,"Lalbagh, Lucknow - CPCB",08-06-2024 01:00:00,26.8458805,80.9365541,PM2.5,70,230,116
India,Uttar_Pradesh,Lucknow,"Lalbagh, Lucknow - CPCB",08-06-2024 01:00:00,26.8458805,80.9365541,PM10,99,187,145
India,Uttar_Pradesh,Lucknow,"Talkatora District Industries Center, Lucknow - CPCB",08-06-2024 01:00:00,26.83399722,80.8917361,OZONE,3,62,55
India,Uttar_Pradesh,Meerut,"Jai Bhim Nagar, Meerut - UPPCB",08-06-2024 01:00:00,28.9535882,77.7622941,PM2.5,42,104,67
India,Uttar_Pradesh,Meerut,"Jai Bhim Nagar, Meerut - UPPCB",08-06-2024 01:00:00,28.9535882,77.7622941,SO2,7,17,11
India,Uttar_Pradesh,Meerut,"Pallavpuram Phase 2, Meerut - UPPCB",08-06-2024 01:00:00,29.063510,77.709723,NO2,14,34,24
India,Uttar_Pradesh,Meerut,"Pallavpuram Phase 2, Meerut - UPPCB",08-06-2024 01:00:00,29.063510,77.709723,SO2,11,88,32
India,Uttar_Pradesh,Moradabad,"Buddhi Vihar, Moradabad - UPPCB",08-06-2024 01:00:00,28.83526,78.74460,PM2.5,34,101,60
India,Uttar_Pradesh,Moradabad,"Buddhi Vihar, Moradabad - UPPCB",08-06-2024 01:00:00,28.83526,78.74460,PM10,87,171,127
India,Uttar_Pradesh,Moradabad,"Buddhi Vihar, Moradabad - UPPCB",08-06-2024 01:00:00,28.83526,78.74460,NO2,23,23,23
India,Uttar_Pradesh,Moradabad,"Eco Herbal Park, Moradabad - UPPCB",08-06-2024 01:00:00,28.840739,78.697531,OZONE,36,182,94
India,Uttar_Pradesh,Moradabad,"Kashiram Nagar, Moradabad - UPPCB",08-06-2024 01:00:00,28.849399,78.742362,PM2.5,41,109,67
India,Uttar_Pradesh,Moradabad,"Kashiram Nagar, Moradabad - UPPCB",08-06-2024 01:00:00,28.849399,78.742362,PM10,93,190,130
India,Uttar_Pradesh,Moradabad,"Kashiram Nagar, Moradabad - UPPCB",08-06-2024 01:00:00,28.849399,78.742362,NH3,4,4,4
India,Uttar_Pradesh,Moradabad,"Transport Nagar, Moradabad - UPPCB",08-06-2024 01:00:00,28.802625,78.753728,PM10,78,153,113
India,Uttar_Pradesh,Moradabad,"Transport Nagar, Moradabad - UPPCB",08-06-2024 01:00:00,28.802625,78.753728,NO2,4,4,4
India,Uttar_Pradesh,Moradabad,"Transport Nagar, Moradabad - UPPCB",08-06-2024 01:00:00,28.802625,78.753728,SO2,66,78,71
India,Uttar_Pradesh,Muzaffarnagar,"New Mandi, Muzaffarnagar - UPPCB",08-06-2024 01:00:00,29.4723508,77.7194031,PM2.5,69,138,95
India,Uttar_Pradesh,Muzaffarnagar,"New Mandi, Muzaffarnagar - UPPCB",08-06-2024 01:00:00,29.4723508,77.7194031,CO,28,60,49
India,Uttar_Pradesh,Noida,"Sector - 62, Noida - IMD",08-06-2024 01:00:00,28.6245479,77.3577104,PM2.5,61,255,101
India,Uttar_Pradesh,Noida,"Sector - 62, Noida - IMD",08-06-2024 01:00:00,28.6245479,77.3577104,PM10,152,442,234
India,Uttar_Pradesh,Noida,"Sector - 62, Noida - IMD",08-06-2024 01:00:00,28.6245479,77.3577104,NO2,7,20,11
India,Uttar_Pradesh,Noida,"Sector - 62, Noida - IMD",08-06-2024 01:00:00,28.6245479,77.3577104,CO,14,32,23
India,Uttar_Pradesh,Noida,"Sector-1, Noida - UPPCB",08-06-2024 01:00:00,28.5898,77.3101,PM2.5,44,180,78
India,Uttar_Pradesh,Noida,"Sector-1, Noida - UPPCB",08-06-2024 01:00:00,28.5898,77.3101,NH3,4,15,8
India,Uttar_Pradesh,Noida,"Sector-1, Noida - UPPCB",08-06-2024 01:00:00,28.5898,77.3101,OZONE,8,164,57
India,Uttar_Pradesh,Noida,"Sector-116, Noida - UPPCB",08-06-2024 01:00:00,28.569230,77.393848,PM2.5,46,128,70
India,Uttar_Pradesh,Prayagraj,"Jhunsi, Prayagraj - UPPCB",08-06-2024 01:00:00,25.425602,81.917152,PM2.5,34,119,61
India,Uttar_Pradesh,Prayagraj,"Jhunsi, Prayagraj - UPPCB",08-06-2024 01:00:00,25.425602,81.917152,NH3,5,5,5
India,Uttar_Pradesh,Prayagraj,"Motilal Nehru NIT, Prayagraj - UPPCB",08-06-2024 01:00:00,25.494,81.863,SO2,12,32,20
India,Uttar_Pradesh,Prayagraj,"Nagar Nigam, Prayagraj - UPPCB",08-06-2024 01:00:00,25.44919916 ,81.82735986 ,PM10,53,162,88
India,Uttar_Pradesh,Prayagraj,"Nagar Nigam, Prayagraj - UPPCB",08-06-2024 01:00:00,25.44919916 ,81.82735986 ,SO2,2,136,59
India,Uttar_Pradesh,Varanasi,"IESD Banaras Hindu University, Varanasi - UPPCB",08-06-2024 01:00:00,25.262326,82.995408,SO2,18,41,30
India,Uttar_Pradesh,Varanasi,"Maldahiya, Varanasi - UPPCB",08-06-2024 01:00:00,25.32393,82.99687,NO2,1,2,2
India,Uttar_Pradesh,Varanasi,"Maldahiya, Varanasi - UPPCB",08-06-2024 01:00:00,25.32393,82.99687,NH3,1,2,1
India,Uttar_Pradesh,Vrindavan,"Omex Eternity, Vrindavan - UPPCB",08-06-2024 01:00:00,27.5714090,77.6557570,NH3,2,4,3
India,Uttar_Pradesh,Vrindavan,"Omex Eternity, Vrindavan - UPPCB",08-06-2024 01:00:00,27.5714090,77.6557570,SO2,43,45,44
India,Uttarakhand,Dehradun,"Doon University, Dehradun - UKPCB",08-06-2024 01:00:00,30.269444,78.044167,PM2.5,36,118,57
India,Uttarakhand,Dehradun,"Doon University, Dehradun - UKPCB",08-06-2024 01:00:00,30.269444,78.044167,SO2,1,3,2
India,Uttarakhand,Rishikesh,"Shivaji Nagar, Rishikesh - UKPCB",08-06-2024 01:00:00,30.075911,78.2859547,PM2.5,NA,NA,NA
India,Uttarakhand,Rishikesh,"Shivaji Nagar, Rishikesh - UKPCB",08-06-2024 01:00:00,30.075911,78.2859547,PM10,NA,NA,NA
India,Uttarakhand,Rishikesh,"Shivaji Nagar, Rishikesh - UKPCB",08-06-2024 01:00:00,30.075911,78.2859547,SO2,NA,NA,NA
India,West_Bengal,Asansol,"Asansol Court Area, Asansol - WBPCB",08-06-2024 01:00:00,23.685297,86.945968,CO,20,50,30
India,West_Bengal,Barrackpore,"SVSPA Campus, Barrackpore - WBPCB",08-06-2024 01:00:00,22.7605581,88.3617589,PM2.5,29,111,74
India,West_Bengal,Durgapur,"PCBL Residential Complex, Durgapur - WBPCB",08-06-2024 01:00:00,23.5087640,87.3544400,CO,6,46,18
India,West_Bengal,Howrah,"Belur Math, Howrah - WBPCB",08-06-2024 01:00:00,22.629801,88.352017,PM10,76,106,89
India,West_Bengal,Howrah,"Belur Math, Howrah - WBPCB",08-06-2024 01:00:00,22.629801,88.352017,CO,5,22,11
India,West_Bengal,Howrah,"Belur Math, Howrah - WBPCB",08-06-2024 01:00:00,22.629801,88.352017,OZONE,17,60,38
India,West_Bengal,Howrah,"Ghusuri, Howrah - WBPCB",08-06-2024 01:00:00,22.611968,88.347422,PM10,NA,NA,NA
India,West_Bengal,Howrah,"Ghusuri, Howrah - WBPCB",08-06-2024 01:00:00,22.611968,88.347422,NO2,NA,NA,NA
India,West_Bengal,Howrah,"Ghusuri, Howrah - WBPCB",08-06-2024 01:00:00,22.611968,88.347422,NH3,NA,NA,NA
India,West_Bengal,Howrah,"Padmapukur, Howrah - WBPCB",08-06-2024 01:00:00,22.5687319,88.2797276,CO,9,72,24
India,West_Bengal,Howrah,"Padmapukur, Howrah - WBPCB",08-06-2024 01:00:00,22.5687319,88.2797276,OZONE,21,39,31
India,West_Bengal,Kolkata,"Ballygunge, Kolkata - WBPCB",08-06-2024 01:00:00,22.5367507,88.3638022,CO,19,26,21
India,West_Bengal,Kolkata,"Ballygunge, Kolkata - WBPCB",08-06-2024 01:00:00,22.5367507,88.3638022,OZONE,32,70,51
India,West_Bengal,Kolkata,"Bidhannagar, Kolkata - WBPCB",08-06-2024 01:00:00,22.58157048,88.41002457,NO2,22,43,28
India,West_Bengal,Kolkata,"Bidhannagar, Kolkata - WBPCB",08-06-2024 01:00:00,22.58157048,88.41002457,CO,31,36,33
India,West_Bengal,Kolkata,"Fort William, Kolkata - WBPCB",08-06-2024 01:00:00,22.556640,88.342674,OZONE,7,44,16
India,West_Bengal,Kolkata,"Jadavpur, Kolkata - WBPCB",08-06-2024 01:00:00,22.49929,88.36917,NO2,13,15,14
India,West_Bengal,Kolkata,"Jadavpur, Kolkata - WBPCB",08-06-2024 01:00:00,22.49929,88.36917,SO2,7,9,8
India,West_Bengal,Kolkata,"Jadavpur, Kolkata - WBPCB",08-06-2024 01:00:00,22.49929,88.36917,OZONE,41,80,52
India,West_Bengal,Kolkata,"Rabindra Bharati University, Kolkata - WBPCB",08-06-2024 01:00:00,22.627847,88.380669,CO,28,37,33
India,West_Bengal,Kolkata,"Rabindra Sarobar, Kolkata - WBPCB",08-06-2024 01:00:00,22.51106,88.35142,NH3,12,16,14
India,West_Bengal,Kolkata,"Victoria, Kolkata - WBPCB",08-06-2024 01:00:00,22.5448082,88.3403691,CO,30,44,32
India,West_Bengal,Siliguri,"Ward-32 Bapupara, Siliguri - WBPCB",08-06-2024 01:00:00,26.6879226,88.4152495,PM2.5,36,56,44
India,West_Bengal,Siliguri,"Ward-32 Bapupara, Siliguri - WBPCB",08-06-2024 01:00:00,26.6879226,88.4152495,NO2,22,32,25
India,West_Bengal,Siliguri,"Ward-32 Bapupara, Siliguri - WBPCB",08-06-2024 01:00:00,26.6879226,88.4152495,NH3,10,12,10
India,West_Bengal,Siliguri,"Ward-32 Bapupara, Siliguri - WBPCB",08-06-2024 01:00:00,26.6879226,88.4152495,SO2,7,8,7
India,West_Bengal,Siliguri,"Ward-32 Bapupara, Siliguri - WBPCB",08-06-2024 01:00:00,26.6879226,88.4152495,OZONE,15,26,19
India,Andhra_Pradesh,Amaravati,"Secretariat, Amaravati - APPCB",08-06-2024 01:00:00,16.5150833,80.5181667,CO,2,48,16
India,Andhra_Pradesh,Amaravati,"Secretariat, Amaravati - APPCB",08-06-2024 01:00:00,16.5150833,80.5181667,OZONE,8,41,12
India,Andhra_Pradesh,Anantapur,"Gulzarpet, Anantapur - APPCB",08-06-2024 01:00:00,14.675886,77.593027,NH3,4,4,4
India,Andhra_Pradesh,Anantapur,"Gulzarpet, Anantapur - APPCB",08-06-2024 01:00:00,14.675886,77.593027,SO2,1,3,2
India,Andhra_Pradesh,Anantapur,"Gulzarpet, Anantapur - APPCB",08-06-2024 01:00:00,14.675886,77.593027,CO,11,32,23
India,Andhra_Pradesh,Anantapur,"Gulzarpet, Anantapur - APPCB",08-06-2024 01:00:00,14.675886,77.593027,OZONE,2,18,9
India,Andhra_Pradesh,Rajamahendravaram,"Anand Kala Kshetram, Rajamahendravaram - APPCB",08-06-2024 01:00:00,16.9872867,81.7363176,PM2.5,9,57,27
India,Andhra_Pradesh,Rajamahendravaram,"Anand Kala Kshetram, Rajamahendravaram - APPCB",08-06-2024 01:00:00,16.9872867,81.7363176,NO2,8,47,15
India,Andhra_Pradesh,Rajamahendravaram,"Anand Kala Kshetram, Rajamahendravaram - APPCB",08-06-2024 01:00:00,16.9872867,81.7363176,NH3,2,7,4
India,Andhra_Pradesh,Rajamahendravaram,"Anand Kala Kshetram, Rajamahendravaram - APPCB",08-06-2024 01:00:00,16.9872867,81.7363176,OZONE,27,46,38
India,Andhra_Pradesh,Tirupati,"Tirumala, Tirupati - APPCB",08-06-2024 01:00:00,13.67,79.35,PM10,10,32,21
India,Andhra_Pradesh,Tirupati,"Tirumala, Tirupati - APPCB",08-06-2024 01:00:00,13.67,79.35,CO,32,47,43
India,Andhra_Pradesh,Tirupati,"Vaikuntapuram, Tirupati - APPCB",08-06-2024 01:00:00,13.615387,79.409230,SO2,NA,NA,NA
India,Andhra_Pradesh,Tirupati,"Vaikuntapuram, Tirupati - APPCB",08-06-2024 01:00:00,13.615387,79.409230,CO,8,14,13
India,Andhra_Pradesh,Tirupati,"Vaikuntapuram, Tirupati - APPCB",08-06-2024 01:00:00,13.615387,79.409230,OZONE,12,30,20
India,Andhra_Pradesh,Vijayawada,"HB Colony, Vijayawada - APPCB",08-06-2024 01:00:00,16.536107,80.594233,NH3,4,4,4
India,Andhra_Pradesh,Vijayawada,"HB Colony, Vijayawada - APPCB",08-06-2024 01:00:00,16.536107,80.594233,CO,32,34,32
India,Andhra_Pradesh,Vijayawada,"Kanuru, Vijayawada - APPCB",08-06-2024 01:00:00,16.486692,80.699436,NO2,14,20,16
India,Andhra_Pradesh,Vijayawada,"Rajiv Nagar, Vijayawada - APPCB",08-06-2024 01:00:00,16.554731,80.649110,PM2.5,47,91,54
India,Arunachal_Pradesh,Naharlagun,"Naharlagun, Naharlagun - APSPCB",08-06-2024 01:00:00,27.103358,93.679645,CO,2,22,17
India,Assam,Byrnihat,"Central Academy for SFS, Byrnihat - PCBA",08-06-2024 01:00:00,26.071318,91.87488,OZONE,23,128,23
India,Assam,Guwahati,"IITG, Guwahati - PCBA",08-06-2024 01:00:00,26.2028636,91.70046436,PM2.5,24,113,58
India,Assam,Guwahati,"IITG, Guwahati - PCBA",08-06-2024 01:00:00,26.2028636,91.70046436,OZONE,6,48,15
India,Assam,Guwahati,"LGBI Airport, Guwahati - PCBA",08-06-2024 01:00:00,26.10887,91.589544,NO2,8,47,19
India,Assam,Guwahati,"Pan Bazaar, Guwahati - PCBA",08-06-2024 01:00:00,26.187500,91.744194,NH3,NA,NA,NA
India,Assam,Guwahati,"Pan Bazaar, Guwahati - PCBA",08-06-2024 01:00:00,26.187500,91.744194,SO2,40,67,50
India,Assam,Guwahati,"Railway Colony, Guwahati - PCBA",08-06-2024 01:00:00,26.181742,91.78063,OZONE,1,18,6
India,Assam,Nagaon,"Christianpatty, Nagaon - PCBA",08-06-2024 01:00:00,26.349082,92.68449,NH3,1,26,4
India,Assam,Nalbari,"Bata Chowk, Nalbari - PCBA",08-06-2024 01:00:00,26.446912,91.439057,NH3,1,1,1
India,Assam,Silchar,"Tarapur, Silchar - PCBA",08-06-2024 01:00:00,24.82827,92.79525,SO2,1,9,4
India,Assam,Silchar,"Tarapur, Silchar - PCBA",08-06-2024 01:00:00,24.82827,92.79525,CO,24,44,30
India,Assam,Sivasagar,"Girls College, Sivasagar - PCBA",08-06-2024 01:00:00,26.987634,94.636574,PM10,52,84,64
India,Bihar,Arrah,"New DM Office, Arrah - BSPCB",08-06-2024 01:00:00,25.5626095,84.663264,CO,14,28,19
India,Bihar,Bhagalpur,"DM Office_Kachari Chowk, Bhagalpur - BSPCB",08-06-2024 01:00:00,25.251013,86.989001,SO2,29,34,32
India,Bihar,Bhagalpur,"Mayaganj, Bhagalpur - BSPCB",08-06-2024 01:00:00,25.265194,87.012947,PM2.5,57,304,131
India,Bihar,Bihar Sharif,"D M Colony, Bihar Sharif - BSPCB",08-06-2024 01:00:00,25.204762,85.514960,OZONE,8,83,35
India,Bihar,Buxar,"Charitra Van, Buxar - BSPCB (Formerly known as Central Jail)",08-06-2024 01:00:00,25.567520,83.966379,PM2.5,52,280,117
India,Bihar,Buxar,"Charitra Van, Buxar - BSPCB (Formerly known as Central Jail)",08-06-2024 01:00:00,25.567520,83.966379,NO2,1,1,1
India,Bihar,Chhapra,"Darshan Nagar, Chhapra - BSPCB",08-06-2024 01:00:00,25.7808257,84.7446768,SO2,NA,NA,NA
India,Bihar,Gaya,"Kareemganj, Gaya - BSPCB",08-06-2024 01:00:00,24.792403,84.992416,CO,18,23,22
India,Bihar,Gaya,"SFTI Kusdihra, Gaya - BSPCB",08-06-2024 01:00:00,24.762518,84.982348,SO2,6,11,8
India,Bihar,Gaya,"SFTI Kusdihra, Gaya - BSPCB",08-06-2024 01:00:00,24.762518,84.982348,CO,2,47,28
India,Bihar,Kishanganj,"SDM Office_Khagra, Kishanganj - BSPCB",08-06-2024 01:00:00,26.0881305,87.93840336,NO2,25,40,31
India,Bihar,Kishanganj,"SDM Office_Khagra, Kishanganj - BSPCB",08-06-2024 01:00:00,26.0881305,87.93840336,OZONE,18,74,71
India,Bihar,Manguraha,"Forest Rest House, Manguraha - BSPCB",08-06-2024 01:00:00,27.308328,84.531742,NH3,1,3,2
India,Bihar,Manguraha,"Forest Rest House, Manguraha - BSPCB",08-06-2024 01:00:00,27.308328,84.531742,SO2,3,6,4
India,Bihar,Munger,"Town Hall, Munger - BSPCB",08-06-2024 01:00:00,25.376776,86.471523,PM10,32,129,78
India,Bihar,Munger,"Town Hall, Munger - BSPCB",08-06-2024 01:00:00,25.376776,86.471523,SO2,16,31,24
India,Bihar,Muzaffarpur,"Buddha Colony, Muzaffarpur - BSPCB",08-06-2024 01:00:00,26.11442,85.39813,PM10,51,194,101
India,Bihar,Muzaffarpur,"Buddha Colony, Muzaffarpur - BSPCB",08-06-2024 01:00:00,26.11442,85.39813,SO2,3,7,4
India,Bihar,Muzaffarpur,"MIT-Daudpur Kothi, Muzaffarpur - BSPCB",08-06-2024 01:00:00,26.1403345,85.3650192,PM10,32,170,103
India,Bihar,Muzaffarpur,"Muzaffarpur Collectorate, Muzaffarpur - BSPCB",08-06-2024 01:00:00,26.1209,85.3647,PM2.5,22,122,63
India,Bihar,Muzaffarpur,"Muzaffarpur Collectorate, Muzaffarpur - BSPCB",08-06-2024 01:00:00,26.1209,85.3647,SO2,6,17,11
India,Bihar,Patna,"DRM Office Danapur, Patna - BSPCB",08-06-2024 01:00:00,25.586562,85.043586,NO2,8,21,12
India,Bihar,Patna,"DRM Office Danapur, Patna - BSPCB",08-06-2024 01:00:00,25.586562,85.043586,NH3,2,3,3
India,Bihar,Patna,"DRM Office Danapur, Patna - BSPCB",08-06-2024 01:00:00,25.586562,85.043586,OZONE,32,135,79
India,Bihar,Patna,"Govt. High School Shikarpur, Patna - BSPCB",08-06-2024 01:00:00,25.592539,85.227158,NH3,4,5,5
India,Bihar,Patna,"Govt. High School Shikarpur, Patna - BSPCB",08-06-2024 01:00:00,25.592539,85.227158,OZONE,1,59,14
India,Bihar,Patna,"IGSC Planetarium Complex, Patna - BSPCB",08-06-2024 01:00:00,25.610369,85.132568,SO2,4,6,5
India,Bihar,Patna,"IGSC Planetarium Complex, Patna - BSPCB",08-06-2024 01:00:00,25.610369,85.132568,CO,10,15,11
India,Bihar,Patna,"IGSC Planetarium Complex, Patna - BSPCB",08-06-2024 01:00:00,25.610369,85.132568,OZONE,17,92,56
India,Bihar,Patna,"Muradpur, Patna - BSPCB",08-06-2024 01:00:00,25.619651,85.147382,PM10,113,416,246
India,Bihar,Patna,"Muradpur, Patna - BSPCB",08-06-2024 01:00:00,25.619651,85.147382,NH3,4,6,5
India,Bihar,Patna,"Rajbansi Nagar, Patna - BSPCB",08-06-2024 01:00:00,25.599486,85.113666,NH3,2,5,4
India,Bihar,Patna,"Rajbansi Nagar, Patna - BSPCB",08-06-2024 01:00:00,25.599486,85.113666,SO2,2,15,8
India,Bihar,Patna,"Samanpura, Patna - BSPCB",08-06-2024 01:00:00,25.596727,85.085624,NO2,8,38,18
India,Bihar,Saharsa,"Police Line, Saharsa - BSPCB",08-06-2024 01:00:00,25.892357,86.590325,NH3,9,9,9
India,Bihar,Samastipur,"DM Office_Kasipur, Samastipur - BSPCB",08-06-2024 01:00:00,25.859655,85.77944,NH3,4,4,4
India,Bihar,Sasaram,"Dada Peer, Sasaram - BSPCB",08-06-2024 01:00:00,24.952822,84.002396,NH3,6,16,10
India,Bihar,Sasaram,"Dada Peer, Sasaram - BSPCB",08-06-2024 01:00:00,24.952822,84.002396,OZONE,5,68,24
India,Bihar,Siwan,"Chitragupta Nagar, Siwan - BSPCB",08-06-2024 01:00:00,26.2271665,84.3570427,PM2.5,NA,NA,NA
India,Bihar,Siwan,"Chitragupta Nagar, Siwan - BSPCB",08-06-2024 01:00:00,26.2271665,84.3570427,PM10,NA,NA,NA
India,Bihar,Siwan,"Chitragupta Nagar, Siwan - BSPCB",08-06-2024 01:00:00,26.2271665,84.3570427,SO2,10,33,27
India,Bihar,Siwan,"Chitragupta Nagar, Siwan - BSPCB",08-06-2024 01:00:00,26.2271665,84.3570427,OZONE,10,109,40
India,Chandigarh,Chandigarh,"Sector 22, Chandigarh - CPCC",08-06-2024 01:00:00,30.735567,76.775714,NO2,10,51,27
India,Chandigarh,Chandigarh,"Sector 22, Chandigarh - CPCC",08-06-2024 01:00:00,30.735567,76.775714,OZONE,98,293,161
India,Chandigarh,Chandigarh,"Sector-25, Chandigarh - CPCC",08-06-2024 01:00:00,30.751462,76.762879,PM2.5,92,167,117
India,Chandigarh,Chandigarh,"Sector-25, Chandigarh - CPCC",08-06-2024 01:00:00,30.751462,76.762879,NO2,9,26,15
India,Chandigarh,Chandigarh,"Sector-25, Chandigarh - CPCC",08-06-2024 01:00:00,30.751462,76.762879,OZONE,20,51,39
India,Chandigarh,Chandigarh,"Sector-53, Chandigarh - CPCC",08-06-2024 01:00:00,30.719859,76.738637,PM10,94,244,123
India,Chhattisgarh,Bhilai,"32Bungalows, Bhilai - CECB",08-06-2024 01:00:00,21.194815,81.314770,PM10,40,79,51
India,Chhattisgarh,Bhilai,"32Bungalows, Bhilai - CECB",08-06-2024 01:00:00,21.194815,81.314770,NH3,6,7,6
India,Chhattisgarh,Bhilai,"32Bungalows, Bhilai - CECB",08-06-2024 01:00:00,21.194815,81.314770,SO2,8,11,10
India,Chhattisgarh,Bhilai,"32Bungalows, Bhilai - CECB",08-06-2024 01:00:00,21.194815,81.314770,OZONE,8,46,23
India,Chhattisgarh,Bhilai,"Civic Center, Bhilai - Bhilai Steel Plant",08-06-2024 01:00:00,21.185571,81.343175,PM2.5,21,33,27
India,Chhattisgarh,Bhilai,"Civic Center, Bhilai - Bhilai Steel Plant",08-06-2024 01:00:00,21.185571,81.343175,PM10,23,58,34
India,Chhattisgarh,Bhilai,"Hathkhoj, Bhilai - CECB",08-06-2024 01:00:00,21.224231,81.408350,NO2,NA,NA,NA
India,Chhattisgarh,Bhilai,"Hathkhoj, Bhilai - CECB",08-06-2024 01:00:00,21.224231,81.408350,CO,NA,NA,NA
India,Chhattisgarh,Bhilai,"Hathkhoj, Bhilai - CECB",08-06-2024 01:00:00,21.224231,81.408350,OZONE,NA,NA,NA
India,Chhattisgarh,Bilaspur,"Mangala, Bilaspur - NTPC",08-06-2024 01:00:00,22.08815,82.13737,PM2.5,44,99,66
India,Chhattisgarh,Bilaspur,"Mangala, Bilaspur - NTPC",08-06-2024 01:00:00,22.08815,82.13737,SO2,10,21,16
India,Chhattisgarh,Chhal,"Nawapara SECL Colony, Chhal - CECB",08-06-2024 01:00:00,22.118125,83.140608,SO2,12,36,19
India,Chhattisgarh,Chhal,"Nawapara SECL Colony, Chhal - CECB",08-06-2024 01:00:00,22.118125,83.140608,OZONE,14,209,103
India,Chhattisgarh,Korba,"Urja Nagar, Korba - CECB",08-06-2024 01:00:00,22.348441,82.549611,SO2,7,14,9
India,Chhattisgarh,Korba,"Urja Nagar, Korba - CECB",08-06-2024 01:00:00,22.348441,82.549611,CO,10,102,39
India,Chhattisgarh,Kunjemura,"OP Jindal School, Kunjemura - CECB",08-06-2024 01:00:00,22.126650,83.483212,NH3,1,5,2
India,Chhattisgarh,Milupara,"Govt. Higher Secondary School, Milupara - CECB",08-06-2024 01:00:00,22.1910172,83.5197009,PM10,NA,NA,NA
India,Chhattisgarh,Raipur,"Krishak Nagar, Raipur - CECB",08-06-2024 01:00:00,21.237755,81.705301,NO2,8,8,8
India,Chhattisgarh,Raipur,"Krishak Nagar, Raipur - CECB",08-06-2024 01:00:00,21.237755,81.705301,SO2,10,30,15
India,Chhattisgarh,Raipur,"Krishak Nagar, Raipur - CECB",08-06-2024 01:00:00,21.237755,81.705301,OZONE,8,49,22
India,Delhi,Delhi,"Alipur, Delhi - DPCC",08-06-2024 01:00:00,28.815329,77.153010,NH3,4,6,5
India,Delhi,Delhi,"Alipur, Delhi - DPCC",08-06-2024 01:00:00,28.815329,77.153010,CO,44,56,50
India,Delhi,Delhi,"Anand Vihar, Delhi - DPCC",08-06-2024 01:00:00,28.647622,77.3158090,NH3,5,13,8
India,Delhi,Delhi,"Anand Vihar, Delhi - DPCC",08-06-2024 01:00:00,28.647622,77.3158090,SO2,19,36,26
India,Delhi,Delhi,"Aya Nagar, Delhi - IMD",08-06-2024 01:00:00,28.4706914,77.1099364,PM2.5,9,195,93
India,Delhi,Delhi,"Aya Nagar, Delhi - IMD",08-06-2024 01:00:00,28.4706914,77.1099364,CO,68,86,75
India,Delhi,Delhi,"Bawana, Delhi - DPCC",08-06-2024 01:00:00,28.776200,77.051074,SO2,10,64,24
India,Delhi,Delhi,"Bawana, Delhi - DPCC",08-06-2024 01:00:00,28.776200,77.051074,OZONE,23,122,70
India,Delhi,Delhi,"CRRI Mathura Road, Delhi - IMD",08-06-2024 01:00:00,28.5512005,77.2735737,PM10,NA,NA,NA
India,Delhi,Delhi,"CRRI Mathura Road, Delhi - IMD",08-06-2024 01:00:00,28.5512005,77.2735737,NO2,NA,NA,NA
India,Delhi,Delhi,"DTU, Delhi - CPCB",08-06-2024 01:00:00,28.7500499,77.1112615,SO2,40,47,43
India,Delhi,Delhi,"Dr. Karni Singh Shooting Range, Delhi - DPCC",08-06-2024 01:00:00,28.498571,77.264840,CO,22,60,34
India,Delhi,Delhi,"Dr. Karni Singh Shooting Range, Delhi - DPCC",08-06-2024 01:00:00,28.498571,77.264840,OZONE,52,240,105
India,Delhi,Delhi,"Dwarka-Sector 8, Delhi - DPCC ",08-06-2024 01:00:00,28.5710274,77.0719006,CO,8,46,28
India,Delhi,Delhi,"ITO, Delhi - CPCB",08-06-2024 01:00:00,28.628624,77.241060,NO2,46,92,62
India,Delhi,Delhi,"Jahangirpuri, Delhi - DPCC",08-06-2024 01:00:00,28.732820,77.170633,NO2,7,51,23
India,Delhi,Delhi,"Jahangirpuri, Delhi - DPCC",08-06-2024 01:00:00,28.732820,77.170633,CO,44,100,70
India,Delhi,Delhi,"Jahangirpuri, Delhi - DPCC",08-06-2024 01:00:00,28.732820,77.170633,OZONE,10,111,47
India,Delhi,Delhi,"Jawaharlal Nehru Stadium, Delhi - DPCC",08-06-2024 01:00:00,28.580280,77.233829,PM10,129,447,230
India,Delhi,Delhi,"Jawaharlal Nehru Stadium, Delhi - DPCC",08-06-2024 01:00:00,28.580280,77.233829,NH3,4,10,7
India,Delhi,Delhi,"Jawaharlal Nehru Stadium, Delhi - DPCC",08-06-2024 01:00:00,28.580280,77.233829,OZONE,1,195,87
India,Delhi,Delhi,"Major Dhyan Chand National Stadium, Delhi - DPCC",08-06-2024 01:00:00,28.611281,77.237738,PM10,115,469,211
India,Delhi,Delhi,"Major Dhyan Chand National Stadium, Delhi - DPCC",08-06-2024 01:00:00,28.611281,77.237738,NH3,7,11,9
India,Delhi,Delhi,"Major Dhyan Chand National Stadium, Delhi - DPCC",08-06-2024 01:00:00,28.611281,77.237738,SO2,7,26,15
India,Delhi,Delhi,"Mandir Marg, Delhi - DPCC",08-06-2024 01:00:00,28.636429,77.201067,CO,20,48,40
India,Delhi,Delhi,"Narela, Delhi - DPCC",08-06-2024 01:00:00,28.822836,77.101981,CO,26,50,41
India,Delhi,Delhi,"Nehru Nagar, Delhi - DPCC",08-06-2024 01:00:00,28.567890,77.250515,PM2.5,38,170,83
India,Delhi,Delhi,"Nehru Nagar, Delhi - DPCC",08-06-2024 01:00:00,28.567890,77.250515,NO2,6,58,24
India,Delhi,Delhi,"New Moti Bagh, Delhi - MHUA",08-06-2024 01:00:00,28.57834,77.18400,NO2,5,24,13
India,Delhi,Delhi,"North Campus, DU, Delhi - IMD",08-06-2024 01:00:00,28.6573814,77.1585447,PM2.5,NA,NA,NA
India,Delhi,Delhi,"North Campus, DU, Delhi - IMD",08-06-2024 01:00:00,28.6573814,77.1585447,NO2,NA,NA,NA
India,Delhi,Delhi,"North Campus, DU, Delhi - IMD",08-06-2024 01:00:00,28.6573814,77.1585447,OZONE,23,54,35
India,Delhi,Delhi,"Okhla Phase-2, Delhi - DPCC",08-06-2024 01:00:00,28.530785,77.271255,PM2.5,47,183,85
India,Delhi,Delhi,"Okhla Phase-2, Delhi - DPCC",08-06-2024 01:00:00,28.530785,77.271255,SO2,7,13,9
India,Delhi,Delhi,"Patparganj, Delhi - DPCC",08-06-2024 01:00:00,28.623763,77.287209,PM10,156,464,258
India,Delhi,Delhi,"Punjabi Bagh, Delhi - DPCC",08-06-2024 01:00:00,28.674045,77.131023,NO2,10,57,27
India,Delhi,Delhi,"Punjabi Bagh, Delhi - DPCC",08-06-2024 01:00:00,28.674045,77.131023,OZONE,22,160,85
India,Delhi,Delhi,"R K Puram, Delhi - DPCC",08-06-2024 01:00:00,28.563262,77.186937,OZONE,27,155,82
India,Delhi,Delhi,"Rohini, Delhi - DPCC",08-06-2024 01:00:00,28.732528,77.119920,PM2.5,33,273,83
India,Delhi,Delhi,"Rohini, Delhi - DPCC",08-06-2024 01:00:00,28.732528,77.119920,NO2,10,78,37
India,Delhi,Delhi,"Shadipur, Delhi - CPCB",08-06-2024 01:00:00,28.6514781,77.1473105,OZONE,8,99,19
India,Delhi,Delhi,"Sonia Vihar, Delhi - DPCC",08-06-2024 01:00:00,28.710508,77.249485,PM10,141,320,205
India,Delhi,Delhi,"Sonia Vihar, Delhi - DPCC",08-06-2024 01:00:00,28.710508,77.249485,NO2,17,98,47
India,Delhi,Delhi,"Sri Aurobindo Marg, Delhi - DPCC",08-06-2024 01:00:00,28.531346,77.190156,CO,28,54,45
India,Delhi,Delhi,"Vivek Vihar, Delhi - DPCC",08-06-2024 01:00:00,28.672342,77.315260,OZONE,9,97,45
India,Delhi,Delhi,"Wazirpur, Delhi - DPCC",08-06-2024 01:00:00,28.699793,77.165453,PM10,133,361,201
India,Delhi,Delhi,"Wazirpur, Delhi - DPCC",08-06-2024 01:00:00,28.699793,77.165453,NO2,28,60,39
India,Gujarat,Ahmedabad,"Chandkheda, Ahmedabad - IITM",08-06-2024 01:00:00,23.107969,72.574648,PM10,58,127,80
India,Gujarat,Ahmedabad,"Chandkheda, Ahmedabad - IITM",08-06-2024 01:00:00,23.107969,72.574648,CO,26,28,28
India,Gujarat,Ahmedabad,"Gyaspur, Ahmedabad - IITM",08-06-2024 01:00:00,22.977134,72.553024,PM2.5,24,322,101
India,Gujarat,Ahmedabad,"Gyaspur, Ahmedabad - IITM",08-06-2024 01:00:00,22.977134,72.553024,NH3,4,7,5
India,Gujarat,Ahmedabad,"Gyaspur, Ahmedabad - IITM",08-06-2024 01:00:00,22.977134,72.553024,CO,73,97,81
India,Gujarat,Ahmedabad,"Gyaspur, Ahmedabad - IITM",08-06-2024 01:00:00,22.977134,72.553024,OZONE,48,94,74
India,Gujarat,Ahmedabad,"Maninagar, Ahmedabad - GPCB",08-06-2024 01:00:00,23.002657,72.591912,OZONE,11,100,52
India,Gujarat,Ahmedabad,"Raikhad, Ahmedabad - IITM",08-06-2024 01:00:00,23.020509,72.579261,SO2,10,20,15
India,Gujarat,Ahmedabad,"Raikhad, Ahmedabad - IITM",08-06-2024 01:00:00,23.020509,72.579261,OZONE,NA,NA,NA
India,Gujarat,Ahmedabad,"SVPI Airport Hansol, Ahmedabad - IITM",08-06-2024 01:00:00,23.076793,72.627874,PM10,76,129,103
India,Gujarat,Ahmedabad,"Sardar Vallabhbhai Patel Stadium, Ahmedabad - IITM",08-06-2024 01:00:00,23.043070,72.562968,PM2.5,57,129,87
India,Gujarat,Ahmedabad,"Sardar Vallabhbhai Patel Stadium, Ahmedabad - IITM",08-06-2024 01:00:00,23.043070,72.562968,NH3,6,6,6
India,Gujarat,Ahmedabad,"Sardar Vallabhbhai Patel Stadium, Ahmedabad - IITM",08-06-2024 01:00:00,23.043070,72.562968,CO,46,51,50
India,Gujarat,Ankleshwar,"GIDC, Ankleshwar - GPCB",08-06-2024 01:00:00,21.613267,73.010555,PM10,54,88,68
India,Gujarat,Gandhinagar,"GIFT City, Gandhinagar - IITM",08-06-2024 01:00:00,23.163798,72.677768,PM2.5,NA,NA,NA
India,Gujarat,Gandhinagar,"Sector-10, Gandhinagar - GPCB",08-06-2024 01:00:00,23.221714,72.654328,PM2.5,23,52,37
India,Gujarat,Gandhinagar,"Sector-10, Gandhinagar - GPCB",08-06-2024 01:00:00,23.221714,72.654328,SO2,2,4,3
India,Gujarat,Surat,"Science Center, Surat - SMC",08-06-2024 01:00:00,21.170046,72.795405,PM10,NA,NA,NA
India,Gujarat,Vapi,"Phase-1 GIDC, Vapi - GPCB",08-06-2024 01:00:00,20.362421,72.918013,OZONE,NA,NA,NA
India,Gujarat,Vatva,"Phase-4 GIDC, Vatva - GPCB",08-06-2024 01:00:00,22.969611,72.643500,CO,20,22,22
India,Haryana,Ambala,"Patti Mehar, Ambala - HSPCB",08-06-2024 01:00:00,30.379589,76.778328,PM2.5,NA,NA,NA
India,Haryana,Ambala,"Patti Mehar, Ambala - HSPCB",08-06-2024 01:00:00,30.379589,76.778328,NO2,NA,NA,NA
India,Haryana,Bahadurgarh,"Arya Nagar, Bahadurgarh - HSPCB",08-06-2024 01:00:00,28.6701,76.9254,NH3,NA,NA,NA
India,Haryana,Bahadurgarh,"Arya Nagar, Bahadurgarh - HSPCB",08-06-2024 01:00:00,28.6701,76.9254,SO2,NA,NA,NA
India,Haryana,Ballabgarh,"Nathu Colony, Ballabgarh - HSPCB",08-06-2024 01:00:00,28.3419248,77.319699,SO2,4,10,7
India,Haryana,Dharuhera,"Municipal Corporation Office, Dharuhera -  HSPCB",08-06-2024 01:00:00,28.206800,76.799700,PM2.5,139,446,276
India,Haryana,Faridabad,"New Industrial Town, Faridabad - HSPCB",08-06-2024 01:00:00,28.39072,77.30059,CO,NA,NA,NA
India,Haryana,Faridabad,"Sector 11, Faridabad - HSPCB",08-06-2024 01:00:00,28.376058,77.315741,PM10,128,476,256
India,Haryana,Faridabad,"Sector 11, Faridabad - HSPCB",08-06-2024 01:00:00,28.376058,77.315741,NH3,6,6,6
India,Haryana,Faridabad,"Sector 11, Faridabad - HSPCB",08-06-2024 01:00:00,28.376058,77.315741,SO2,3,116,13
India,Haryana,Faridabad,"Sector- 16A, Faridabad - HSPCB",08-06-2024 01:00:00,28.4088421,77.3099081,PM2.5,20,93,51
India,Haryana,Fatehabad,"Huda Sector, Fatehabad - HSPCB",08-06-2024 01:00:00,29.503664,75.467934,NH3,10,11,10
India,Haryana,Fatehabad,"Huda Sector, Fatehabad - HSPCB",08-06-2024 01:00:00,29.503664,75.467934,SO2,1,24,9
India,Haryana,Gurugram,"Sector-51, Gurugram - HSPCB",08-06-2024 01:00:00,28.4227,77.0667,OZONE,28,72,39
India,Haryana,Gurugram,"Teri Gram, Gurugram - HSPCB",08-06-2024 01:00:00,28.4275,77.1465,PM2.5,111,357,236
India,Haryana,Gurugram,"Teri Gram, Gurugram - HSPCB",08-06-2024 01:00:00,28.4275,77.1465,SO2,5,7,6
India,Haryana,Gurugram,"Vikas Sadan, Gurugram - HSPCB",08-06-2024 01:00:00,28.4501238,77.0263051,SO2,8,100,30
India,Haryana,Hisar,"Urban Estate-II, Hisar - HSPCB",08-06-2024 01:00:00,29.140560,75.744941,NH3,4,4,4
India,Haryana,Hisar,"Urban Estate-II, Hisar - HSPCB",08-06-2024 01:00:00,29.140560,75.744941,OZONE,58,108,83
India,Haryana,Kaithal,"Rishi Nagar, Kaithal - HSPCB",08-06-2024 01:00:00,29.8006,76.4155,OZONE,15,41,22
India,Haryana,Kurukshetra,"Sector-7, Kurukshetra - HSPCB",08-06-2024 01:00:00,29.966942,76.875879,NH3,5,5,5
India,Haryana,Mandikhera,"General Hospital, Mandikhera - HSPCB",08-06-2024 01:00:00,27.9002,76.9938,PM10,106,500,284
India,Haryana,Narnaul,"Shastri Nagar, Narnaul - HSPCB",08-06-2024 01:00:00,28.060249,76.113115,NO2,15,86,39
India,Haryana,Narnaul,"Shastri Nagar, Narnaul - HSPCB",08-06-2024 01:00:00,28.060249,76.113115,SO2,NA,NA,NA
India,Haryana,Narnaul,"Shastri Nagar, Narnaul - HSPCB",08-06-2024 01:00:00,28.060249,76.113115,CO,11,31,21
India,Haryana,Palwal,"Shyam Nagar, Palwal - HSPCB",08-06-2024 01:00:00,28.1485564,77.3320667,NH3,8,9,9
India,Haryana,Palwal,"Shyam Nagar, Palwal - HSPCB",08-06-2024 01:00:00,28.1485564,77.3320667,OZONE,23,100,29
India,Haryana,Panipat,"Sector-18, Panipat - HSPCB",08-06-2024 01:00:00,29.432304,76.972765,NO2,31,32,31
India,Haryana,Rohtak,"MD University, Rohtak - HSPCB",08-06-2024 01:00:00,28.52123,76.37138,NO2,47,55,51
India,Haryana,Sirsa,"F-Block, Sirsa - HSPCB",08-06-2024 01:00:00,29.536400,75.015800,NH3,NA,NA,NA
India,Haryana,Sonipat,"Murthal, Sonipat - HSPCB",08-06-2024 01:00:00,29.027200,77.062100,OZONE,16,36,24
India,Haryana,Yamuna Nagar,"Gobind Pura, Yamuna Nagar - HSPCB",08-06-2024 01:00:00,30.1480566,77.2893471,NO2,NA,NA,NA
India,Himachal Pradesh,Baddi,"HIMUDA Complex Phase-1, Baddi - HPPCB",08-06-2024 01:00:00,30.943887,76.801991,PM10,92,189,134
India,Himachal Pradesh,Baddi,"HIMUDA Complex Phase-1, Baddi - HPPCB",08-06-2024 01:00:00,30.943887,76.801991,NO2,8,60,23
India,Himachal Pradesh,Baddi,"HIMUDA Complex Phase-1, Baddi - HPPCB",08-06-2024 01:00:00,30.943887,76.801991,SO2,10,78,29
India,Himachal Pradesh,Baddi,"HIMUDA Complex Phase-1, Baddi - HPPCB",08-06-2024 01:00:00,30.943887,76.801991,OZONE,79,235,148
India,Jharkhand,Dhanbad,"Kalakusuma, Dhanbad - DMC",08-06-2024 01:00:00,23.811548,86.481238,OZONE,24,58,33
India,Jharkhand,Dhanbad,"Sardar Patel Nagar, Dhanbad - JSPCB",08-06-2024 01:00:00,23.80569,86.44268,OZONE,14,49,24
India,Karnataka,Belgaum,"Ramteerth Nagar, Belgaum - KSPCB",08-06-2024 01:00:00,15.888653,74.541751,PM2.5,NA,NA,NA
India,Karnataka,Belgaum,"Ramteerth Nagar, Belgaum - KSPCB",08-06-2024 01:00:00,15.888653,74.541751,NO2,NA,NA,NA
India,Karnataka,Belgaum,"Ramteerth Nagar, Belgaum - KSPCB",08-06-2024 01:00:00,15.888653,74.541751,NH3,NA,NA,NA
India,Karnataka,Bengaluru,"Hombegowda Nagar, Bengaluru - KSPCB",08-06-2024 01:00:00,12.938539,77.590100,PM10,4,18,12
India,Karnataka,Bengaluru,"Hombegowda Nagar, Bengaluru - KSPCB",08-06-2024 01:00:00,12.938539,77.590100,NO2,8,20,14
India,Karnataka,Bengaluru,"Jayanagar 5th Block, Bengaluru - KSPCB",08-06-2024 01:00:00,12.920984,77.584908,CO,20,22,21
