country,state,city,station,last_update,latitude,longitude,pollutant_id,pollutant_min,pollutant_max,pollutant_avg
India,Andhra_Pradesh,Amaravati,"Secretariat, Amaravati - APPCB",06-06-2024 20:00:00,16.5150833,80.5181667,NH3,3,4,4
India,Andhra_Pradesh,Anantapur,"Gulzarpet, Anantapur - APPCB",06-06-2024 20:00:00,14.675886,77.593027,NH3,4,4,4
India,Andhra_Pradesh,Chittoor,"Gangineni Cheruvu, Chittoor - APPCB",06-06-2024 20:00:00,13.204880,79.097889,PM2.5,NA,NA,NA
India,Andhra_Pradesh,Kadapa,"Yerramukkapalli, Kadapa - APPCB",06-06-2024 20:00:00,14.465052,78.824187,CO,8,58,32
India,Andhra_Pradesh,Tirupati,"Tirumala, Tirupati - APPCB",06-06-2024 20:00:00,13.67,79.35,PM10,12,29,21
India,Andhra_Pradesh,Tirupati,"Tirumala, Tirupati - APPCB",06-06-2024 20:00:00,13.67,79.35,NO2,16,26,21
India,Andhra_Pradesh,Tirupati,"Tirumala, Tirupati - APPCB",06-06-2024 20:00:00,13.67,79.35,NH3,1,2,1
India,Andhra_Pradesh,Tirupati,"Tirumala, Tirupati - APPCB",06-06-2024 20:00:00,13.67,79.35,CO,35,50,44
India,Andhra_Pradesh,Tirupati,"Vaikuntapuram, Tirupati - APPCB",06-06-2024 20:00:00,13.615387,79.409230,PM10,NA,NA,NA
India,Andhra_Pradesh,Tirupati,"Vaikuntapuram, Tirupati - APPCB",06-06-2024 20:00:00,13.615387,79.409230,NH3,NA,NA,NA
India,Andhra_Pradesh,Tirupati,"Vaikuntapuram, Tirupati - APPCB",06-06-2024 20:00:00,13.615387,79.409230,SO2,NA,NA,NA
India,Andhra_Pradesh,Tirupati,"Vaikuntapuram, Tirupati - APPCB",06-06-2024 20:00:00,13.615387,79.409230,OZONE,10,57,24
India,Andhra_Pradesh,Vijayawada,"HB Colony, Vijayawada - APPCB",06-06-2024 20:00:00,16.536107,80.594233,PM2.5,38,63,47
India,Andhra_Pradesh,Vijayawada,"Kanuru, Vijayawada - APPCB",06-06-2024 20:00:00,16.486692,80.699436,PM2.5,40,74,50
India,Andhra_Pradesh,Vijayawada,"Kanuru, Vijayawada - APPCB",06-06-2024 20:00:00,16.486692,80.699436,NO2,14,17,14
India,Andhra_Pradesh,Vijayawada,"Rajiv Gandhi Park, Vijayawada - APPCB",06-06-2024 20:00:00,16.509717,80.612222,PM2.5,38,67,48
India,Andhra_Pradesh,Vijayawada,"Rajiv Gandhi Park, Vijayawada - APPCB",06-06-2024 20:00:00,16.509717,80.612222,NH3,3,6,5
India,Andhra_Pradesh,Vijayawada,"Rajiv Gandhi Park, Vijayawada - APPCB",06-06-2024 20:00:00,16.509717,80.612222,SO2,4,15,7
India,Andhra_Pradesh,Vijayawada,"Rajiv Nagar, Vijayawada - APPCB",06-06-2024 20:00:00,16.554731,80.649110,PM2.5,47,50,48
India,Andhra_Pradesh,Vijayawada,"Rajiv Nagar, Vijayawada - APPCB",06-06-2024 20:00:00,16.554731,80.649110,NO2,10,10,10
India,Andhra_Pradesh,Visakhapatnam,"GVM Corporation, Visakhapatnam - APPCB",06-06-2024 20:00:00,17.72,83.3,NO2,1,72,12
India,Arunachal_Pradesh,Naharlagun,"Naharlagun, Naharlagun - APSPCB",06-06-2024 20:00:00,27.103358,93.679645,PM10,29,61,42
India,Arunachal_Pradesh,Naharlagun,"Naharlagun, Naharlagun - APSPCB",06-06-2024 20:00:00,27.103358,93.679645,SO2,4,4,4
India,Arunachal_Pradesh,Naharlagun,"Naharlagun, Naharlagun - APSPCB",06-06-2024 20:00:00,27.103358,93.679645,CO,11,22,12
India,Assam,Byrnihat,"Central Academy for SFS, Byrnihat - PCBA",06-06-2024 20:00:00,26.071318,91.87488,OZONE,22,42,27
India,Assam,Guwahati,"LGBI Airport, Guwahati - PCBA",06-06-2024 20:00:00,26.10887,91.589544,NO2,NA,NA,NA
India,Assam,Guwahati,"Pan Bazaar, Guwahati - PCBA",06-06-2024 20:00:00,26.187500,91.744194,SO2,29,48,40
India,Assam,Nagaon,"Christianpatty, Nagaon - PCBA",06-06-2024 20:00:00,26.349082,92.68449,PM10,29,193,107
India,Assam,Nalbari,"Bata Chowk, Nalbari - PCBA",06-06-2024 20:00:00,26.446912,91.439057,PM2.5,40,233,77
India,Assam,Nalbari,"Bata Chowk, Nalbari - PCBA",06-06-2024 20:00:00,26.446912,91.439057,SO2,4,8,6
India,Assam,Nalbari,"Bata Chowk, Nalbari - PCBA",06-06-2024 20:00:00,26.446912,91.439057,CO,12,43,32
India,Assam,Silchar,"Tarapur, Silchar - PCBA",06-06-2024 20:00:00,24.82827,92.79525,SO2,4,11,7
India,Assam,Silchar,"Tarapur, Silchar - PCBA",06-06-2024 20:00:00,24.82827,92.79525,OZONE,1,4,2
India,Assam,Sivasagar,"Girls College, Sivasagar - PCBA",06-06-2024 20:00:00,26.987634,94.636574,OZONE,1,12,7
India,Bihar,Arrah,"New DM Office, Arrah - BSPCB",06-06-2024 20:00:00,25.5626095,84.663264,PM2.5,13,53,33
India,Bihar,Arrah,"New DM Office, Arrah - BSPCB",06-06-2024 20:00:00,25.5626095,84.663264,CO,12,28,19
India,Bihar,Arrah,"New DM Office, Arrah - BSPCB",06-06-2024 20:00:00,25.5626095,84.663264,OZONE,3,67,22
India,Bihar,Aurangabad,"Gurdeo Nagar, Aurangabad - BSPCB",06-06-2024 20:00:00,24.75746,84.366208,NO2,2,9,5
India,Bihar,Aurangabad,"Gurdeo Nagar, Aurangabad - BSPCB",06-06-2024 20:00:00,24.75746,84.366208,SO2,6,22,17
India,Bihar,Bettiah,"Kamalnath Nagar, Bettiah - BSPCB",06-06-2024 20:00:00,26.80365,84.51954,NO2,26,32,29
India,Bihar,Bhagalpur,"Mayaganj, Bhagalpur - BSPCB",06-06-2024 20:00:00,25.265194,87.012947,NH3,6,10,9
India,Bihar,Bihar Sharif,"D M Colony, Bihar Sharif - BSPCB",06-06-2024 20:00:00,25.204762,85.514960,SO2,1,3,2
India,Bihar,Bihar Sharif,"D M Colony, Bihar Sharif - BSPCB",06-06-2024 20:00:00,25.204762,85.514960,OZONE,5,49,37
India,Bihar,Buxar,"Charitra Van, Buxar - BSPCB (Formerly known as Central Jail)",06-06-2024 20:00:00,25.567520,83.966379,NH3,3,3,3
India,Bihar,Gaya,"Collectorate, Gaya - BSPCB",06-06-2024 20:00:00,24.7955,84.9994,PM2.5,29,167,87
India,Bihar,Gaya,"Kareemganj, Gaya - BSPCB",06-06-2024 20:00:00,24.792403,84.992416,SO2,9,10,10
India,Bihar,Gaya,"SFTI Kusdihra, Gaya - BSPCB",06-06-2024 20:00:00,24.762518,84.982348,NH3,4,9,6
India,Bihar,Hajipur,"Industrial Area, Hajipur - BSPCB",06-06-2024 20:00:00,25.697189,85.245900,PM10,68,500,132
India,Bihar,Hajipur,"Industrial Area, Hajipur - BSPCB",06-06-2024 20:00:00,25.697189,85.245900,NH3,11,14,13
India,Bihar,Katihar,"Mirchaibari, Katihar - BSPCB",06-06-2024 20:00:00,25.560083,87.553265,PM10,5,81,39
India,Bihar,Katihar,"Mirchaibari, Katihar - BSPCB",06-06-2024 20:00:00,25.560083,87.553265,OZONE,2,8,4
India,Bihar,Manguraha,"Forest Rest House, Manguraha - BSPCB",06-06-2024 20:00:00,27.308328,84.531742,NH3,NA,NA,NA
India,Bihar,Motihari,"Gandak Colony, Motihari - BSPCB",06-06-2024 20:00:00,26.63086,84.90051,CO,7,57,41
India,Bihar,Munger,"Town Hall, Munger - BSPCB",06-06-2024 20:00:00,25.376776,86.471523,NO2,4,6,5
India,Bihar,Muzaffarpur,"Buddha Colony, Muzaffarpur - BSPCB",06-06-2024 20:00:00,26.11442,85.39813,SO2,1,8,4
India,Bihar,Muzaffarpur,"Buddha Colony, Muzaffarpur - BSPCB",06-06-2024 20:00:00,26.11442,85.39813,OZONE,52,156,105
India,Bihar,Muzaffarpur,"MIT-Daudpur Kothi, Muzaffarpur - BSPCB",06-06-2024 20:00:00,26.1403345,85.3650192,PM2.5,NA,NA,NA
India,Bihar,Muzaffarpur,"MIT-Daudpur Kothi, Muzaffarpur - BSPCB",06-06-2024 20:00:00,26.1403345,85.3650192,NH3,NA,NA,NA
India,Bihar,Muzaffarpur,"MIT-Daudpur Kothi, Muzaffarpur - BSPCB",06-06-2024 20:00:00,26.1403345,85.3650192,SO2,NA,NA,NA
India,Bihar,Muzaffarpur,"MIT-Daudpur Kothi, Muzaffarpur - BSPCB",06-06-2024 20:00:00,26.1403345,85.3650192,CO,14,57,40
India,Bihar,Muzaffarpur,"Muzaffarpur Collectorate, Muzaffarpur - BSPCB",06-06-2024 20:00:00,26.1209,85.3647,OZONE,15,68,52
India,Bihar,Patna,"DRM Office Danapur, Patna - BSPCB",06-06-2024 20:00:00,25.586562,85.043586,SO2,1,4,2
India,Bihar,Patna,"Govt. High School Shikarpur, Patna - BSPCB",06-06-2024 20:00:00,25.592539,85.227158,NH3,4,5,5
India,Bihar,Patna,"Govt. High School Shikarpur, Patna - BSPCB",06-06-2024 20:00:00,25.592539,85.227158,CO,18,52,30
India,Bihar,Patna,"IGSC Planetarium Complex, Patna - BSPCB",06-06-2024 20:00:00,25.610369,85.132568,PM2.5,35,168,76
India,Bihar,Patna,"Rajbansi Nagar, Patna - BSPCB",06-06-2024 20:00:00,25.599486,85.113666,SO2,7,11,9
India,Bihar,Patna,"Samanpura, Patna - BSPCB",06-06-2024 20:00:00,25.596727,85.085624,PM10,66,500,153
India,Bihar,Rajgir,"Dangi Tola, Rajgir - BSPCB",06-06-2024 20:00:00,25.03280,85.41948,NH3,2,2,2
India,Bihar,Saharsa,"Police Line, Saharsa - BSPCB",06-06-2024 20:00:00,25.892357,86.590325,PM10,6,86,40
India,Bihar,Saharsa,"Police Line, Saharsa - BSPCB",06-06-2024 20:00:00,25.892357,86.590325,OZONE,13,79,55
India,Bihar,Samastipur,"DM Office_Kasipur, Samastipur - BSPCB",06-06-2024 20:00:00,25.859655,85.77944,PM2.5,5,20,12
India,Bihar,Samastipur,"DM Office_Kasipur, Samastipur - BSPCB",06-06-2024 20:00:00,25.859655,85.77944,OZONE,1,10,2
India,Bihar,Sasaram,"Dada Peer, Sasaram - BSPCB",06-06-2024 20:00:00,24.952822,84.002396,CO,60,100,75
India,Bihar,Siwan,"Chitragupta Nagar, Siwan - BSPCB",06-06-2024 20:00:00,26.2271665,84.3570427,PM2.5,NA,NA,NA
India,Chhattisgarh,Bhilai,"32Bungalows, Bhilai - CECB",06-06-2024 20:00:00,21.194815,81.314770,SO2,9,15,11
India,Chhattisgarh,Bhilai,"Civic Center, Bhilai - Bhilai Steel Plant",06-06-2024 20:00:00,21.185571,81.343175,PM10,26,49,34
India,Chhattisgarh,Bhilai,"Civic Center, Bhilai - Bhilai Steel Plant",06-06-2024 20:00:00,21.185571,81.343175,OZONE,13,65,51
India,Chhattisgarh,Bilaspur,"Mangala, Bilaspur - NTPC",06-06-2024 20:00:00,22.08815,82.13737,CO,40,49,44
India,Chhattisgarh,Chhal,"Nawapara SECL Colony, Chhal - CECB",06-06-2024 20:00:00,22.118125,83.140608,NH3,2,2,2
India,Chhattisgarh,Chhal,"Nawapara SECL Colony, Chhal - CECB",06-06-2024 20:00:00,22.118125,83.140608,CO,22,64,33
India,Chhattisgarh,Korba,"Urja Nagar, Korba - CECB",06-06-2024 20:00:00,22.348441,82.549611,PM10,NA,NA,NA
India,Chhattisgarh,Korba,"Urja Nagar, Korba - CECB",06-06-2024 20:00:00,22.348441,82.549611,NO2,40,56,49
India,Chhattisgarh,Korba,"Urja Nagar, Korba - CECB",06-06-2024 20:00:00,22.348441,82.549611,SO2,6,8,7
India,Chhattisgarh,Korba,"Urja Nagar, Korba - CECB",06-06-2024 20:00:00,22.348441,82.549611,CO,23,100,34
India,Chhattisgarh,Kunjemura,"OP Jindal School, Kunjemura - CECB",06-06-2024 20:00:00,22.126650,83.483212,NH3,1,4,2
India,Chhattisgarh,Kunjemura,"OP Jindal School, Kunjemura - CECB",06-06-2024 20:00:00,22.126650,83.483212,CO,24,66,35
India,Chhattisgarh,Milupara,"Govt. Higher Secondary School, Milupara - CECB",06-06-2024 20:00:00,22.1910172,83.5197009,SO2,NA,NA,NA
India,Chhattisgarh,Raipur,"AIIMS, Raipur - CECB",06-06-2024 20:00:00,21.258815,81.578979,PM2.5,21,46,31
India,Chhattisgarh,Raipur,"AIIMS, Raipur - CECB",06-06-2024 20:00:00,21.258815,81.578979,NO2,11,21,15
India,Chhattisgarh,Raipur,"Bhatagaon New ISBT, Raipur - CECB",06-06-2024 20:00:00,21.219665,81.630094,OZONE,4,10,7
India,Chhattisgarh,Raipur,"Krishak Nagar, Raipur - CECB",06-06-2024 20:00:00,21.237755,81.705301,PM10,25,58,39
India,Chhattisgarh,Raipur,"Krishak Nagar, Raipur - CECB",06-06-2024 20:00:00,21.237755,81.705301,NO2,8,8,8
India,Chhattisgarh,Raipur,"Krishak Nagar, Raipur - CECB",06-06-2024 20:00:00,21.237755,81.705301,CO,20,36,28
India,Chhattisgarh,Raipur,"Krishak Nagar, Raipur - CECB",06-06-2024 20:00:00,21.237755,81.705301,OZONE,7,51,35
India,Chhattisgarh,Raipur,"Siltara Phase-II, Raipur - CECB",06-06-2024 20:00:00,21.371751,81.664929,SO2,NA,NA,NA
India,Delhi,Delhi,"Alipur, Delhi - DPCC",06-06-2024 20:00:00,28.815329,77.153010,PM2.5,27,220,60
India,Delhi,Delhi,"Chandni Chowk, Delhi - IITM",06-06-2024 20:00:00,28.656756,77.227234,PM2.5,281,375,320
India,Delhi,Delhi,"Dr. Karni Singh Shooting Range, Delhi - DPCC",06-06-2024 20:00:00,28.498571,77.264840,OZONE,44,254,178
India,Delhi,Delhi,"Dwarka-Sector 8, Delhi - DPCC ",06-06-2024 20:00:00,28.5710274,77.0719006,CO,19,78,30
India,Delhi,Delhi,"Dwarka-Sector 8, Delhi - DPCC ",06-06-2024 20:00:00,28.5710274,77.0719006,OZONE,20,180,129
India,Delhi,Delhi,"IGI Airport (T3), Delhi - IMD",06-06-2024 20:00:00,28.5627763,77.1180053,NO2,11,37,22
India,Delhi,Delhi,"IHBAS, Dilshad Garden, Delhi - CPCB",06-06-2024 20:00:00,28.6811736,77.3025234,CO,12,90,45
India,Delhi,Delhi,"ITO, Delhi - CPCB",06-06-2024 20:00:00,28.628624,77.241060,PM10,36,238,83
India,Delhi,Delhi,"Jahangirpuri, Delhi - DPCC",06-06-2024 20:00:00,28.732820,77.170633,NO2,5,36,15
India,Delhi,Delhi,"Jahangirpuri, Delhi - DPCC",06-06-2024 20:00:00,28.732820,77.170633,NH3,8,15,11
India,Delhi,Delhi,"Jahangirpuri, Delhi - DPCC",06-06-2024 20:00:00,28.732820,77.170633,CO,36,82,50
India,Delhi,Delhi,"Jawaharlal Nehru Stadium, Delhi - DPCC",06-06-2024 20:00:00,28.580280,77.233829,PM10,88,398,138
India,Delhi,Delhi,"Jawaharlal Nehru Stadium, Delhi - DPCC",06-06-2024 20:00:00,28.580280,77.233829,OZONE,31,278,216
India,Delhi,Delhi,"Lodhi Road, Delhi - IITM",06-06-2024 20:00:00,28.588333,77.221667,PM2.5,39,171,73
India,Delhi,Delhi,"Lodhi Road, Delhi - IITM",06-06-2024 20:00:00,28.588333,77.221667,PM10,25,432,108
India,Delhi,Delhi,"Lodhi Road, Delhi - IITM",06-06-2024 20:00:00,28.588333,77.221667,NO2,5,77,20
India,Delhi,Delhi,"Lodhi Road, Delhi - IMD",06-06-2024 20:00:00,28.5918245,77.2273074,PM10,77,404,132
India,Delhi,Delhi,"Lodhi Road, Delhi - IMD",06-06-2024 20:00:00,28.5918245,77.2273074,NO2,5,17,8
India,Delhi,Delhi,"Lodhi Road, Delhi - IMD",06-06-2024 20:00:00,28.5918245,77.2273074,CO,27,38,30
India,Delhi,Delhi,"Major Dhyan Chand National Stadium, Delhi - DPCC",06-06-2024 20:00:00,28.611281,77.237738,CO,48,89,57
India,Delhi,Delhi,"Mandir Marg, Delhi - DPCC",06-06-2024 20:00:00,28.636429,77.201067,PM2.5,15,267,94
India,Delhi,Delhi,"Mandir Marg, Delhi - DPCC",06-06-2024 20:00:00,28.636429,77.201067,SO2,5,17,12
India,Delhi,Delhi,"Mandir Marg, Delhi - DPCC",06-06-2024 20:00:00,28.636429,77.201067,OZONE,12,141,107
India,Delhi,Delhi,"NSIT Dwarka, Delhi - CPCB",06-06-2024 20:00:00,28.60909,77.0325413,PM2.5,11,194,76
India,Delhi,Delhi,"NSIT Dwarka, Delhi - CPCB",06-06-2024 20:00:00,28.60909,77.0325413,PM10,73,414,174
India,Delhi,Delhi,"NSIT Dwarka, Delhi - CPCB",06-06-2024 20:00:00,28.60909,77.0325413,OZONE,9,76,57
India,Delhi,Delhi,"Narela, Delhi - DPCC",06-06-2024 20:00:00,28.822836,77.101981,PM10,94,436,196
India,Delhi,Delhi,"Nehru Nagar, Delhi - DPCC",06-06-2024 20:00:00,28.567890,77.250515,PM2.5,NA,NA,NA
India,Delhi,Delhi,"New Moti Bagh, Delhi - MHUA",06-06-2024 20:00:00,28.57834,77.18400,CO,22,78,31
India,Delhi,Delhi,"Okhla Phase-2, Delhi - DPCC",06-06-2024 20:00:00,28.530785,77.271255,PM2.5,40,200,75
India,Delhi,Delhi,"Okhla Phase-2, Delhi - DPCC",06-06-2024 20:00:00,28.530785,77.271255,PM10,105,461,179
India,Delhi,Delhi,"Okhla Phase-2, Delhi - DPCC",06-06-2024 20:00:00,28.530785,77.271255,NO2,25,93,46
India,Delhi,Delhi,"Okhla Phase-2, Delhi - DPCC",06-06-2024 20:00:00,28.530785,77.271255,OZONE,12,183,127
India,Delhi,Delhi,"Patparganj, Delhi - DPCC",06-06-2024 20:00:00,28.623763,77.287209,OZONE,2,278,219
India,Delhi,Delhi,"Pusa, Delhi - DPCC",06-06-2024 20:00:00,28.639652,77.146275,PM10,102,500,169
India,Delhi,Delhi,"Pusa, Delhi - DPCC",06-06-2024 20:00:00,28.639652,77.146275,NH3,6,10,7
India,Delhi,Delhi,"Pusa, Delhi - DPCC",06-06-2024 20:00:00,28.639652,77.146275,OZONE,10,172,105
India,Delhi,Delhi,"Pusa, Delhi - IMD",06-06-2024 20:00:00,28.636110,77.173332,PM2.5,1,281,106
India,Delhi,Delhi,"Pusa, Delhi - IMD",06-06-2024 20:00:00,28.636110,77.173332,PM10,79,439,142
India,Delhi,Delhi,"Pusa, Delhi - IMD",06-06-2024 20:00:00,28.636110,77.173332,NO2,13,24,18
India,Delhi,Delhi,"Pusa, Delhi - IMD",06-06-2024 20:00:00,28.636110,77.173332,CO,74,86,76
India,Delhi,Delhi,"R K Puram, Delhi - DPCC",06-06-2024 20:00:00,28.563262,77.186937,SO2,13,33,24
India,Delhi,Delhi,"Shadipur, Delhi - CPCB",06-06-2024 20:00:00,28.6514781,77.1473105,NO2,45,68,55
India,Delhi,Delhi,"Shadipur, Delhi - CPCB",06-06-2024 20:00:00,28.6514781,77.1473105,CO,14,66,43
India,Delhi,Delhi,"Shadipur, Delhi - CPCB",06-06-2024 20:00:00,28.6514781,77.1473105,OZONE,11,79,35
India,Delhi,Delhi,"Sirifort, Delhi - CPCB",06-06-2024 20:00:00,28.5504249,77.2159377,PM10,94,386,167
India,Delhi,Delhi,"Sonia Vihar, Delhi - DPCC",06-06-2024 20:00:00,28.710508,77.249485,NO2,17,80,32
India,Delhi,Delhi,"Sri Aurobindo Marg, Delhi - DPCC",06-06-2024 20:00:00,28.531346,77.190156,NO2,13,254,129
India,Delhi,Delhi,"Sri Aurobindo Marg, Delhi - DPCC",06-06-2024 20:00:00,28.531346,77.190156,NH3,NA,NA,NA
India,Delhi,Delhi,"Sri Aurobindo Marg, Delhi - DPCC",06-06-2024 20:00:00,28.531346,77.190156,CO,12,103,35
India,Delhi,Delhi,"Vivek Vihar, Delhi - DPCC",06-06-2024 20:00:00,28.672342,77.315260,PM2.5,46,184,81
India,Delhi,Delhi,"Wazirpur, Delhi - DPCC",06-06-2024 20:00:00,28.699793,77.165453,SO2,4,23,13
India,Gujarat,Ahmedabad,"Chandkheda, Ahmedabad - IITM",06-06-2024 20:00:00,23.107969,72.574648,CO,27,28,28
India,Gujarat,Ahmedabad,"Raikhad, Ahmedabad - IITM",06-06-2024 20:00:00,23.020509,72.579261,PM10,10,178,111
India,Gujarat,Ahmedabad,"Raikhad, Ahmedabad - IITM",06-06-2024 20:00:00,23.020509,72.579261,OZONE,66,91,78
India,Gujarat,Ahmedabad,"SVPI Airport Hansol, Ahmedabad - IITM",06-06-2024 20:00:00,23.076793,72.627874,PM2.5,50,82,68
India,Gujarat,Ahmedabad,"SVPI Airport Hansol, Ahmedabad - IITM",06-06-2024 20:00:00,23.076793,72.627874,NH3,3,6,5
India,Gujarat,Ahmedabad,"Sardar Vallabhbhai Patel Stadium, Ahmedabad - IITM",06-06-2024 20:00:00,23.043070,72.562968,PM10,70,142,95
India,Gujarat,Ankleshwar,"GIDC, Ankleshwar - GPCB",06-06-2024 20:00:00,21.613267,73.010555,PM2.5,20,73,39
India,Gujarat,Ankleshwar,"GIDC, Ankleshwar - GPCB",06-06-2024 20:00:00,21.613267,73.010555,NO2,15,26,20
India,Gujarat,Gandhinagar,"Sector-10, Gandhinagar - GPCB",06-06-2024 20:00:00,23.221714,72.654328,PM10,24,121,62
India,Gujarat,Gandhinagar,"Sector-10, Gandhinagar - GPCB",06-06-2024 20:00:00,23.221714,72.654328,CO,12,34,18
India,Gujarat,Nandesari,"GIDC, Nandesari - Nandesari Ind. Association",06-06-2024 20:00:00,22.410802,73.097923,PM2.5,44,353,121
India,Gujarat,Nandesari,"GIDC, Nandesari - Nandesari Ind. Association",06-06-2024 20:00:00,22.410802,73.097923,SO2,5,29,15
India,Gujarat,Surat,"Science Center, Surat - SMC",06-06-2024 20:00:00,21.170046,72.795405,PM10,NA,NA,NA
India,Gujarat,Vapi,"Phase-1 GIDC, Vapi - GPCB",06-06-2024 20:00:00,20.362421,72.918013,PM2.5,18,43,28
India,Gujarat,Vatva,"Phase-4 GIDC, Vatva - GPCB",06-06-2024 20:00:00,22.969611,72.643500,NO2,36,93,52
India,Haryana,Ambala,"Patti Mehar, Ambala - HSPCB",06-06-2024 20:00:00,30.379589,76.778328,OZONE,NA,NA,NA
India,Haryana,Ballabgarh,"Nathu Colony, Ballabgarh - HSPCB",06-06-2024 20:00:00,28.3419248,77.319699,SO2,2,117,8
India,Haryana,Ballabgarh,"Nathu Colony, Ballabgarh - HSPCB",06-06-2024 20:00:00,28.3419248,77.319699,OZONE,15,73,57
India,Haryana,Charkhi Dadri,"Mini Secretariat, Charkhi Dadri - HSPCB",06-06-2024 20:00:00,28.593883,76.270653,PM10,118,432,206
India,Haryana,Dharuhera,"Municipal Corporation Office, Dharuhera -  HSPCB",06-06-2024 20:00:00,28.206800,76.799700,PM10,94,406,155
India,Haryana,Dharuhera,"Municipal Corporation Office, Dharuhera -  HSPCB",06-06-2024 20:00:00,28.206800,76.799700,CO,15,34,20
India,Haryana,Dharuhera,"Municipal Corporation Office, Dharuhera -  HSPCB",06-06-2024 20:00:00,28.206800,76.799700,OZONE,5,46,40
India,Haryana,Faridabad,"New Industrial Town, Faridabad - HSPCB",06-06-2024 20:00:00,28.39072,77.30059,CO,4,46,15
India,Haryana,Faridabad,"Sector 11, Faridabad - HSPCB",06-06-2024 20:00:00,28.376058,77.315741,PM2.5,33,328,186
India,Haryana,Faridabad,"Sector 11, Faridabad - HSPCB",06-06-2024 20:00:00,28.376058,77.315741,PM10,72,451,157
India,Haryana,Faridabad,"Sector 11, Faridabad - HSPCB",06-06-2024 20:00:00,28.376058,77.315741,CO,31,46,35
India,Haryana,Faridabad,"Sector 30, Faridabad - HSPCB",06-06-2024 20:00:00,28.4417,77.3217,CO,18,49,32
India,Haryana,Fatehabad,"Huda Sector, Fatehabad - HSPCB",06-06-2024 20:00:00,29.503664,75.467934,OZONE,16,60,60
India,Haryana,Gurugram,"NISE Gwal Pahari, Gurugram - IMD",06-06-2024 20:00:00,28.422681,77.148944,PM10,NA,NA,NA
India,Haryana,Gurugram,"Sector-51, Gurugram - HSPCB",06-06-2024 20:00:00,28.4227,77.0667,PM2.5,NA,NA,NA
India,Haryana,Gurugram,"Sector-51, Gurugram - HSPCB",06-06-2024 20:00:00,28.4227,77.0667,PM10,NA,NA,NA
India,Haryana,Gurugram,"Sector-51, Gurugram - HSPCB",06-06-2024 20:00:00,28.4227,77.0667,NO2,15,29,26
India,Haryana,Gurugram,"Sector-51, Gurugram - HSPCB",06-06-2024 20:00:00,28.4227,77.0667,CO,24,42,30
India,Haryana,Gurugram,"Vikas Sadan, Gurugram - HSPCB",06-06-2024 20:00:00,28.4501238,77.0263051,PM2.5,83,313,176
India,Haryana,Hisar,"Urban Estate-II, Hisar - HSPCB",06-06-2024 20:00:00,29.140560,75.744941,SO2,NA,NA,NA
India,Haryana,Jind,"Police Lines, Jind - HSPCB",06-06-2024 20:00:00,29.307814,76.337619,NO2,NA,NA,NA
India,Haryana,Kaithal,"Rishi Nagar, Kaithal - HSPCB",06-06-2024 20:00:00,29.8006,76.4155,PM2.5,30,171,63
India,Haryana,Kaithal,"Rishi Nagar, Kaithal - HSPCB",06-06-2024 20:00:00,29.8006,76.4155,SO2,3,114,17
India,Haryana,Kaithal,"Rishi Nagar, Kaithal - HSPCB",06-06-2024 20:00:00,29.8006,76.4155,CO,1,42,4
India,Haryana,Karnal,"Sector-12, Karnal - HSPCB",06-06-2024 20:00:00,29.695300,77.002700,PM10,57,319,103
India,Haryana,Karnal,"Sector-12, Karnal - HSPCB",06-06-2024 20:00:00,29.695300,77.002700,NH3,10,13,11
India,Haryana,Karnal,"Sector-12, Karnal - HSPCB",06-06-2024 20:00:00,29.695300,77.002700,SO2,12,13,13
India,Haryana,Kurukshetra,"Sector-7, Kurukshetra - HSPCB",06-06-2024 20:00:00,29.966942,76.875879,PM2.5,55,252,99
India,Haryana,Kurukshetra,"Sector-7, Kurukshetra - HSPCB",06-06-2024 20:00:00,29.966942,76.875879,CO,6,22,12
India,Haryana,Mandikhera,"General Hospital, Mandikhera - HSPCB",06-06-2024 20:00:00,27.9002,76.9938,NO2,19,26,21
India,Haryana,Manesar,"Sector-2 IMT, Manesar - HSPCB",06-06-2024 20:00:00,28.360699,76.936090,NO2,17,27,22
India,Haryana,Narnaul,"Shastri Nagar, Narnaul - HSPCB",06-06-2024 20:00:00,28.060249,76.113115,OZONE,24,56,40
India,Haryana,Panchkula,"Sector-6, Panchkula - HSPCB ",06-06-2024 20:00:00,30.7057778,76.8531805555555,NO2,NA,NA,NA
India,Haryana,Panipat,"Sector-18, Panipat - HSPCB",06-06-2024 20:00:00,29.432304,76.972765,PM10,103,105,104
India,Haryana,Panipat,"Sector-18, Panipat - HSPCB",06-06-2024 20:00:00,29.432304,76.972765,CO,23,26,25
India,Haryana,Panipat,"Sector-18, Panipat - HSPCB",06-06-2024 20:00:00,29.432304,76.972765,OZONE,29,30,30
India,Haryana,Rohtak,"MD University, Rohtak - HSPCB",06-06-2024 20:00:00,28.52123,76.37138,NO2,46,56,51
India,Haryana,Rohtak,"MD University, Rohtak - HSPCB",06-06-2024 20:00:00,28.52123,76.37138,CO,4,52,36
India,Haryana,Sirsa,"F-Block, Sirsa - HSPCB",06-06-2024 20:00:00,29.536400,75.015800,PM2.5,4,304,81
India,Haryana,Sirsa,"F-Block, Sirsa - HSPCB",06-06-2024 20:00:00,29.536400,75.015800,NO2,10,100,14
India,Haryana,Sirsa,"F-Block, Sirsa - HSPCB",06-06-2024 20:00:00,29.536400,75.015800,CO,25,187,57
India,Haryana,Yamuna Nagar,"Gobind Pura, Yamuna Nagar - HSPCB",06-06-2024 20:00:00,30.1480566,77.2893471,PM2.5,47,396,91
India,Himachal Pradesh,Baddi,"HIMUDA Complex Phase-1, Baddi - HPPCB",06-06-2024 20:00:00,30.943887,76.801991,NO2,6,28,15
India,Himachal Pradesh,Baddi,"HIMUDA Complex Phase-1, Baddi - HPPCB",06-06-2024 20:00:00,30.943887,76.801991,NH3,3,6,5
India,Himachal Pradesh,Baddi,"HIMUDA Complex Phase-1, Baddi - HPPCB",06-06-2024 20:00:00,30.943887,76.801991,CO,11,29,20
India,Jammu_and_Kashmir,Srinagar,"Rajbagh, Srinagar - JKSPCB",06-06-2024 20:00:00,34.066206,74.819820,PM2.5,NA,NA,NA
India,Jammu_and_Kashmir,Srinagar,"Rajbagh, Srinagar - JKSPCB",06-06-2024 20:00:00,34.066206,74.819820,CO,22,29,26
India,Jharkhand,Dhanbad,"Kalakusuma, Dhanbad - DMC",06-06-2024 20:00:00,23.811548,86.481238,OZONE,37,82,70
India,Karnataka,Belgaum,"Ramteerth Nagar, Belgaum - KSPCB",06-06-2024 20:00:00,15.888653,74.541751,SO2,9,9,9
India,Karnataka,Bengaluru,"Bapuji Nagar, Bengaluru - KSPCB",06-06-2024 20:00:00,12.951913,77.539784,SO2,6,7,6
India,Karnataka,Bengaluru,"Hombegowda Nagar, Bengaluru - KSPCB",06-06-2024 20:00:00,12.938539,77.590100,PM2.5,5,18,13
India,Karnataka,Bengaluru,"Hombegowda Nagar, Bengaluru - KSPCB",06-06-2024 20:00:00,12.938539,77.590100,PM10,9,26,19
India,Karnataka,Bengaluru,"Hombegowda Nagar, Bengaluru - KSPCB",06-06-2024 20:00:00,12.938539,77.590100,NH3,1,2,1
India,Karnataka,Bengaluru,"Hombegowda Nagar, Bengaluru - KSPCB",06-06-2024 20:00:00,12.938539,77.590100,OZONE,6,33,27
India,Karnataka,Bengaluru,"Jigani, Bengaluru - KSPCB",06-06-2024 20:00:00,12.7816279,77.6299145,OZONE,11,36,33
India,Karnataka,Bengaluru,"Kasturi Nagar, Bengaluru - KSPCB",06-06-2024 20:00:00,13.003872,77.664217,OZONE,7,49,38
India,Karnataka,Bengaluru,"Peenya, Bengaluru - CPCB",06-06-2024 20:00:00,13.0270199,77.494094,PM2.5,34,51,39
India,Karnataka,Bengaluru,"Peenya, Bengaluru - CPCB",06-06-2024 20:00:00,13.0270199,77.494094,SO2,13,16,14
India,Karnataka,Bengaluru,"RVCE-Mailasandra, Bengaluru - KSPCB",06-06-2024 20:00:00,12.921418,77.502466,NO2,16,17,17
India,Karnataka,Bengaluru,"Shivapura_Peenya, Bengaluru - KSPCB",06-06-2024 20:00:00,13.0246342,77.5080115,PM10,2,60,29
India,Karnataka,Bengaluru,"Silk Board, Bengaluru - KSPCB",06-06-2024 20:00:00,12.917348,77.622813,NO2,13,27,20
India,Karnataka,Bengaluru,"Silk Board, Bengaluru - KSPCB",06-06-2024 20:00:00,12.917348,77.622813,CO,8,16,12
India,Karnataka,Chamarajanagar,"Urban, Chamarajanagar - KSPCB",06-06-2024 20:00:00,11.55358,76.55521,PM2.5,23,50,34
India,Karnataka,Chamarajanagar,"Urban, Chamarajanagar - KSPCB",06-06-2024 20:00:00,11.55358,76.55521,NH3,1,2,2
India,Karnataka,Chamarajanagar,"Urban, Chamarajanagar - KSPCB",06-06-2024 20:00:00,11.55358,76.55521,SO2,3,9,6
India,Karnataka,Chikkaballapur,"Chikkaballapur Rural, Chikkaballapur - KSPCB",06-06-2024 20:00:00,13.428828,77.731418,NH3,1,1,1
India,Karnataka,Chikkaballapur,"Chikkaballapur Rural, Chikkaballapur - KSPCB",06-06-2024 20:00:00,13.428828,77.731418,SO2,18,28,23
India,Karnataka,Chikkaballapur,"Chikkaballapur Rural, Chikkaballapur - KSPCB",06-06-2024 20:00:00,13.428828,77.731418,CO,17,28,21
India,Karnataka,Chikkamagaluru,"Kalyana Nagara, Chikkamagaluru - KSPCB",06-06-2024 20:00:00,13.328028,75.797056,PM10,24,54,34
India,Karnataka,Chikkamagaluru,"Kalyana Nagara, Chikkamagaluru - KSPCB",06-06-2024 20:00:00,13.328028,75.797056,CO,11,80,31
India,Karnataka,Chikkamagaluru,"Kalyana Nagara, Chikkamagaluru - KSPCB",06-06-2024 20:00:00,13.328028,75.797056,OZONE,18,58,37
India,Karnataka,Davanagere,"Devaraj Urs Badavane, Davanagere - KSPCB",06-06-2024 20:00:00,14.475800,75.905200,NH3,1,1,1
India,Karnataka,Dharwad,"Kalabhavan, Dharwad - KSPCB",06-06-2024 20:00:00,15.459706,75.008381,NO2,1,12,6
India,Karnataka,Gadag,"Panchal Nagar, Gadag - KSPCB",06-06-2024 20:00:00,15.411456,75.638133,PM10,NA,NA,NA
India,Karnataka,Hassan,"B.Katihalli, Hassan - KSPCB",06-06-2024 20:00:00,13.008556,76.125258,NO2,NA,NA,NA
India,Karnataka,Hassan,"B.Katihalli, Hassan - KSPCB",06-06-2024 20:00:00,13.008556,76.125258,SO2,NA,NA,NA
India,Karnataka,Haveri,"Ashwini Nagar, Haveri - KSPCB",06-06-2024 20:00:00,14.791800,75.389600,NH3,2,5,3
India,Karnataka,Hubballi,"Lingaraj Nagar, Hubballi - KSPCB",06-06-2024 20:00:00,15.3714823,75.1160168,NH3,2,4,3
India,Karnataka,Kalaburagi,"Lal Bahadur Shastri Nagar, Kalaburagi - KSPCB",06-06-2024 20:00:00,17.321993,76.822628,PM2.5,NA,NA,NA
India,Karnataka,Kalaburagi,"Lal Bahadur Shastri Nagar, Kalaburagi - KSPCB",06-06-2024 20:00:00,17.321993,76.822628,PM10,NA,NA,NA
India,Karnataka,Kalaburagi,"Mahatma Basaveswar Colony, Kalaburgi - KSPCB",06-06-2024 20:00:00,17.336318,76.847397,PM2.5,NA,NA,NA
India,Karnataka,Kalaburagi,"Mahatma Basaveswar Colony, Kalaburgi - KSPCB",06-06-2024 20:00:00,17.336318,76.847397,NO2,NA,NA,NA
India,Karnataka,Karwar,"KHB Colony, Karwar - KSPCB",06-06-2024 20:00:00,14.816666,74.141003,NO2,NA,NA,NA
India,Karnataka,Karwar,"KHB Colony, Karwar - KSPCB",06-06-2024 20:00:00,14.816666,74.141003,CO,9,10,9
India,Karnataka,Kolar,"Tamaka Ind. Area, Kolar - KSPCB",06-06-2024 20:00:00,13.1276288,78.1570122,PM10,NA,NA,NA
India,Karnataka,Madikeri,"Stuart Hill, Madikeri - KSPCB",06-06-2024 20:00:00,12.415911,75.735050,NH3,NA,NA,NA
India,Karnataka,Mangalore,"Kadri, Mangalore - KSPCB",06-06-2024 20:00:00,12.889250,74.853000,OZONE,31,32,32
India,Karnataka,Mysuru,"Hebbal 1st Stage, Mysuru - KSPCB",06-06-2024 20:00:00,12.21041,76.37376,CO,2,42,21
India,Karnataka,Raichur,"Haji Colony, Raichur - KSPCB",06-06-2024 20:00:00,16.208139,77.348417,PM2.5,3,25,11
India,Karnataka,Raichur,"Haji Colony, Raichur - KSPCB",06-06-2024 20:00:00,16.208139,77.348417,NO2,12,30,21
India,Karnataka,Raichur,"Haji Colony, Raichur - KSPCB",06-06-2024 20:00:00,16.208139,77.348417,OZONE,3,5,4
India,Karnataka,Shivamogga,"Vinoba Nagara, Shivamogga - KSPCB",06-06-2024 20:00:00,13.940000,75.555917,CO,10,26,20
India,Karnataka,Yadgir,"Collector Office, Yadgir - KSPCB",06-06-2024 20:00:00,16.7602,77.1428,PM10,23,50,34
India,Karnataka,Yadgir,"Collector Office, Yadgir - KSPCB",06-06-2024 20:00:00,16.7602,77.1428,NH3,2,4,2
India,Kerala,Kannur,"Thavakkara, Kannur - Kerala PCB",06-06-2024 20:00:00,11.875000,75.373200,PM2.5,47,52,50
India,Kerala,Kannur,"Thavakkara, Kannur - Kerala PCB",06-06-2024 20:00:00,11.875000,75.373200,PM10,53,59,56
India,Kerala,Kannur,"Thavakkara, Kannur - Kerala PCB",06-06-2024 20:00:00,11.875000,75.373200,CO,64,72,69
India,Kerala,Thiruvananthapuram,"Plammoodu, Thiruvananthapuram - Kerala PCB",06-06-2024 20:00:00,8.5149093,76.9435879,NH3,1,1,1
India,Kerala,Thrissur,"Corporation Ground, Thrissur - Kerala PCB",06-06-2024 20:00:00,10.532400,76.215900,PM2.5,46,50,47
India,Kerala,Thrissur,"Corporation Ground, Thrissur - Kerala PCB",06-06-2024 20:00:00,10.532400,76.215900,NO2,7,8,7
India,Madhya Pradesh,Bhopal,"T T Nagar, Bhopal - MPPCB",06-06-2024 20:00:00,23.233584,77.400574,PM2.5,30,61,44
India,Madhya Pradesh,Bhopal,"T T Nagar, Bhopal - MPPCB",06-06-2024 20:00:00,23.233584,77.400574,PM10,69,121,98
India,Madhya Pradesh,Dewas,"Bhopal Chauraha, Dewas - MPPCB",06-06-2024 20:00:00,22.9682591,76.064118,PM2.5,21,73,35
India,Madhya Pradesh,Dewas,"Bhopal Chauraha, Dewas - MPPCB",06-06-2024 20:00:00,22.9682591,76.064118,NO2,11,14,13
India,Madhya Pradesh,Gwalior,"City Center, Gwalior - MPPCB",06-06-2024 20:00:00,26.203442,78.193251,PM2.5,26,80,44
India,Madhya Pradesh,Gwalior,"City Center, Gwalior - MPPCB",06-06-2024 20:00:00,26.203442,78.193251,NH3,2,4,2
India,Madhya Pradesh,Gwalior,"Maharaj Bada, Gwalior - MPPCB",06-06-2024 20:00:00,26.200388,78.147714,CO,12,113,34
India,Madhya Pradesh,Gwalior,"Maharaj Bada, Gwalior - MPPCB",06-06-2024 20:00:00,26.200388,78.147714,OZONE,53,152,137
India,Madhya Pradesh,Indore,"Chhoti Gwaltoli, Indore - MPPCB",06-06-2024 20:00:00,22.4310,75.5213,SO2,7,17,12
India,Madhya Pradesh,Indore,"Chhoti Gwaltoli, Indore - MPPCB",06-06-2024 20:00:00,22.4310,75.5213,OZONE,17,64,56
India,Madhya Pradesh,Indore,"Maguda Nagar, Indore - IMC",06-06-2024 20:00:00,22.7524,75.8872,NH3,1,2,2
India,Madhya Pradesh,Indore,"Regional Park, Indore - IMC",06-06-2024 20:00:00,22.6780,75.8559,PM10,NA,NA,NA
India,Madhya Pradesh,Indore,"Regional Park, Indore - IMC",06-06-2024 20:00:00,22.6780,75.8559,OZONE,5,16,11
India,Madhya Pradesh,Indore,"Residency Area, Indore - IMC",06-06-2024 20:00:00,22.7084,75.8815,NO2,10,63,46
India,Madhya Pradesh,Indore,"Residency Area, Indore - IMC",06-06-2024 20:00:00,22.7084,75.8815,NH3,NA,NA,NA
India,Madhya Pradesh,Jabalpur,"Govindh Bhavan Colony, Jabalpur - JMC",06-06-2024 20:00:00,23.163174,79.973061,NO2,2,17,7
India,Madhya Pradesh,Jabalpur,"Gupteshwar, Jabalpur - JMC",06-06-2024 20:00:00,23.142888,79.916147,PM10,50,104,65
India,Madhya Pradesh,Jabalpur,"Gupteshwar, Jabalpur - JMC",06-06-2024 20:00:00,23.142888,79.916147,NH3,5,5,5
India,Madhya Pradesh,Jabalpur,"Gupteshwar, Jabalpur - JMC",06-06-2024 20:00:00,23.142888,79.916147,SO2,1,14,4
India,Madhya Pradesh,Jabalpur,"Marhatal, Jabalpur - MPPCB",06-06-2024 20:00:00,23.168606,79.932247,OZONE,36,73,65
India,Madhya Pradesh,Jabalpur,"Suhagi, Jabalpur - JMC",06-06-2024 20:00:00,23.218135,79.957770,PM2.5,NA,NA,NA
India,Madhya Pradesh,Jabalpur,"Suhagi, Jabalpur - JMC",06-06-2024 20:00:00,23.218135,79.957770,PM10,58,119,87
India,Madhya Pradesh,Jabalpur,"Suhagi, Jabalpur - JMC",06-06-2024 20:00:00,23.218135,79.957770,OZONE,13,100,80
India,Madhya Pradesh,Maihar,"Sahilara, Maihar - KJS Cements",06-06-2024 20:00:00,24.2613009,80.7231783,CO,18,50,48
India,Madhya Pradesh,Mandideep,"Sector-D Industrial Area, Mandideep - MPPCB",06-06-2024 20:00:00,23.108440,77.511428,PM2.5,65,172,103
India,Madhya Pradesh,Mandideep,"Sector-D Industrial Area, Mandideep - MPPCB",06-06-2024 20:00:00,23.108440,77.511428,NO2,8,37,21
India,Madhya Pradesh,Mandideep,"Sector-D Industrial Area, Mandideep - MPPCB",06-06-2024 20:00:00,23.108440,77.511428,NH3,7,9,7
India,Madhya Pradesh,Pithampur,"Sector-2 Industrial Area, Pithampur - MPPCB",06-06-2024 20:00:00,22.624758,75.675238,SO2,11,14,12
India,Madhya Pradesh,Pithampur,"Sector-2 Industrial Area, Pithampur - MPPCB",06-06-2024 20:00:00,22.624758,75.675238,CO,34,65,35
India,Madhya Pradesh,Satna,"Bandhavgar Colony, Satna - Birla Cement",06-06-2024 20:00:00,24.58434363,80.8549414,NO2,23,85,40
India,Madhya Pradesh,Singrauli,"Suryakiran Bhawan NCL, Singrauli - MPPCB",06-06-2024 20:00:00,24.108970,82.645580,SO2,9,107,49
India,Madhya Pradesh,Ujjain,"Mahakaleshwar Temple, Ujjain - MPPCB",06-06-2024 20:00:00,23.182719 ,75.768218 ,PM2.5,53,500,89
India,Madhya Pradesh,Ujjain,"Mahakaleshwar Temple, Ujjain - MPPCB",06-06-2024 20:00:00,23.182719 ,75.768218 ,PM10,75,120,96
India,Madhya Pradesh,Ujjain,"Mahakaleshwar Temple, Ujjain - MPPCB",06-06-2024 20:00:00,23.182719 ,75.768218 ,OZONE,74,83,79
India,Maharashtra,Ahmednagar,"Tarakpur, Ahmednagar - MPCB",06-06-2024 20:00:00,19.10122,74.73339,PM10,33,105,62
India,Maharashtra,Ahmednagar,"Tarakpur, Ahmednagar - MPCB",06-06-2024 20:00:00,19.10122,74.73339,OZONE,12,84,68
India,Maharashtra,Akola,"Ramdaspeth, Akola - MPCB",06-06-2024 20:00:00,20.719516,77.000253,PM10,37,143,80
India,Maharashtra,Akola,"Ramdaspeth, Akola - MPCB",06-06-2024 20:00:00,20.719516,77.000253,OZONE,7,86,64
India,Maharashtra,Amravati,"Shivneri Colony, Amravati - MPCB",06-06-2024 20:00:00,20.9402359,77.7895248,PM2.5,30,67,49
India,Maharashtra,Amravati,"Shri Shivaji Science College, Amaravati - MPCB",06-06-2024 20:00:00,20.939198,77.765701,SO2,3,5,3
India,Maharashtra,Aurangabad,"More Chowk Waluj, Aurangabad - MPCB",06-06-2024 20:00:00,19.8389439,75.244448,NO2,42,48,45
India,Maharashtra,Aurangabad,"More Chowk Waluj, Aurangabad - MPCB",06-06-2024 20:00:00,19.8389439,75.244448,SO2,1,6,3
India,Maharashtra,Aurangabad,"More Chowk Waluj, Aurangabad - MPCB",06-06-2024 20:00:00,19.8389439,75.244448,OZONE,7,56,47
India,Maharashtra,Aurangabad,"Rachnakar Colony, Aurangabad - MPCB",06-06-2024 20:00:00,19.863756,75.321188,NO2,15,41,23
India,Maharashtra,Badlapur,"Katrap, Badlapur - MPCB",06-06-2024 20:00:00,19.16485,73.23409,PM2.5,38,95,61
India,Maharashtra,Bhiwandi,"Gokul Nagar, Bhiwandi - MPCB",06-06-2024 20:00:00,19.309073,73.057223,SO2,4,23,15
India,Maharashtra,Boisar,"Khaira, Boisar - MPCB",06-06-2024 20:00:00,19.786089,72.757971,OZONE,1,58,34
India,Maharashtra,Chandrapur,"Chauhan Colony, Chandrapur - MPCB",06-06-2024 20:00:00,19.962900,79.298714,SO2,2,104,20
India,Maharashtra,Chandrapur,"MIDC Khutala, Chandrapur - MPCB",06-06-2024 20:00:00,19.9775302,79.2337086,PM10,NA,NA,NA
India,Maharashtra,Dhule,"Deopur, Dhule - MPCB",06-06-2024 20:00:00,20.918946,74.776388,PM2.5,24,152,52
India,Maharashtra,Dhule,"Deopur, Dhule - MPCB",06-06-2024 20:00:00,20.918946,74.776388,PM10,41,121,73
India,Maharashtra,Jalgaon,"Prabhat Colony, Jalgaon - MPCB",06-06-2024 20:00:00,21.001264,75.565602,PM2.5,22,105,49
India,Maharashtra,Jalgaon,"Prabhat Colony, Jalgaon - MPCB",06-06-2024 20:00:00,21.001264,75.565602,NH3,1,17,10
India,Maharashtra,Jalna,"Old MIDC, Jalna - MPCB",06-06-2024 20:00:00,19.854616,75.905894,PM2.5,14,34,24
India,Maharashtra,Jalna,"Old MIDC, Jalna - MPCB",06-06-2024 20:00:00,19.854616,75.905894,PM10,24,64,39
India,Maharashtra,Jalna,"Old MIDC, Jalna - MPCB",06-06-2024 20:00:00,19.854616,75.905894,NO2,20,27,25
India,Maharashtra,Jalna,"Old MIDC, Jalna - MPCB",06-06-2024 20:00:00,19.854616,75.905894,OZONE,1,61,34
India,Maharashtra,Kolhapur,"Shivaji University, Kolhapur - MPCB",06-06-2024 20:00:00,16.6870449,74.2505872,PM2.5,34,72,53
India,Maharashtra,Kolhapur,"Shivaji University, Kolhapur - MPCB",06-06-2024 20:00:00,16.6870449,74.2505872,PM10,32,73,56
India,Maharashtra,Kolhapur,"Shivaji University, Kolhapur - MPCB",06-06-2024 20:00:00,16.6870449,74.2505872,NH3,3,5,4
India,Maharashtra,Kolhapur,"Shivaji University, Kolhapur - MPCB",06-06-2024 20:00:00,16.6870449,74.2505872,OZONE,9,65,54
India,Maharashtra,Latur,"Sawe Wadi, Latur - MPCB",06-06-2024 20:00:00,18.39963,76.57452,SO2,3,5,4
India,Maharashtra,Malegaon,"Mahesh Nagar, Malegaon - MPCB",06-06-2024 20:00:00,20.555712,74.529236,NO2,20,94,47
India,Maharashtra,Mumbai,"Bandra Kurla Complex, Mumbai - MPCB",06-06-2024 20:00:00,19.065931,72.862131,PM10,41,83,62
India,Maharashtra,Mumbai,"Bandra Kurla Complex, Mumbai - MPCB",06-06-2024 20:00:00,19.065931,72.862131,NH3,6,12,8
India,Maharashtra,Mumbai,"Byculla, Mumbai - BMC",06-06-2024 20:00:00,18.9767,72.8380,CO,6,17,7
India,Maharashtra,Mumbai,"Byculla, Mumbai - BMC",06-06-2024 20:00:00,18.9767,72.8380,OZONE,4,22,19
India,Maharashtra,Mumbai,"Chakala-Andheri East, Mumbai - IITM",06-06-2024 20:00:00,19.11074,72.86084,NO2,27,33,30
India,Maharashtra,Mumbai,"Chembur, Mumbai - MPCB",06-06-2024 20:00:00,19.0364585,72.8954371,NH3,8,13,10
India,Maharashtra,Mumbai,"Chhatrapati Shivaji Intl. Airport (T2), Mumbai - MPCB",06-06-2024 20:00:00,19.10078,72.87462,PM10,40,100,65
India,Maharashtra,Mumbai,"Colaba, Mumbai - MPCB",06-06-2024 20:00:00,18.910000,72.820000,SO2,10,11,10
India,Maharashtra,Mumbai,"Colaba, Mumbai - MPCB",06-06-2024 20:00:00,18.910000,72.820000,OZONE,10,11,11
India,Maharashtra,Mumbai,"Ghatkopar, Mumbai - BMC",06-06-2024 20:00:00,19.083694,72.920967,PM2.5,3,18,7
India,Maharashtra,Mumbai,"Ghatkopar, Mumbai - BMC",06-06-2024 20:00:00,19.083694,72.920967,CO,5,18,10
India,Maharashtra,Mumbai,"Kherwadi_Bandra East, Mumbai - MPCB",06-06-2024 20:00:00,19.0632143,72.8456324,PM10,30,60,45
India,Maharashtra,Mumbai,"Kherwadi_Bandra East, Mumbai - MPCB",06-06-2024 20:00:00,19.0632143,72.8456324,NH3,3,13,7
India,Maharashtra,Mumbai,"Kherwadi_Bandra East, Mumbai - MPCB",06-06-2024 20:00:00,19.0632143,72.8456324,SO2,3,5,4
India,Maharashtra,Mumbai,"Kherwadi_Bandra East, Mumbai - MPCB",06-06-2024 20:00:00,19.0632143,72.8456324,CO,8,35,9
India,Maharashtra,Mumbai,"Khindipada-Bhandup West, Mumbai - IITM",06-06-2024 20:00:00,19.1653323,72.922099,SO2,1,25,11
India,Maharashtra,Mumbai,"Khindipada-Bhandup West, Mumbai - IITM",06-06-2024 20:00:00,19.1653323,72.922099,OZONE,4,14,12
India,Maharashtra,Mumbai,"Kurla, Mumbai - MPCB",06-06-2024 20:00:00,19.0863,72.8888,PM2.5,3,96,22
India,Maharashtra,Mumbai,"Mazgaon, Mumbai - IITM",06-06-2024 20:00:00,18.96702,72.84214,PM10,NA,NA,NA
India,Maharashtra,Mumbai,"Mazgaon, Mumbai - IITM",06-06-2024 20:00:00,18.96702,72.84214,SO2,1,6,1
India,Maharashtra,Mumbai,"Mindspace-Malad West, Mumbai - MPCB",06-06-2024 20:00:00,19.1878657,72.8304069,NO2,17,23,20
India,Maharashtra,Mumbai,"Mindspace-Malad West, Mumbai - MPCB",06-06-2024 20:00:00,19.1878657,72.8304069,OZONE,33,56,48
India,Maharashtra,Mumbai,"Mulund West, Mumbai - MPCB",06-06-2024 20:00:00,19.1750,72.9419,NO2,19,21,20
India,Maharashtra,Mumbai,"Navy Nagar-Colaba, Mumbai - IITM",06-06-2024 20:00:00,18.897756,72.813320,PM10,18,66,48
India,Maharashtra,Mumbai,"Navy Nagar-Colaba, Mumbai - IITM",06-06-2024 20:00:00,18.897756,72.813320,NH3,11,14,13
India,Maharashtra,Mumbai,"Navy Nagar-Colaba, Mumbai - IITM",06-06-2024 20:00:00,18.897756,72.813320,OZONE,10,31,24
India,Maharashtra,Mumbai,"Siddharth Nagar-Worli, Mumbai - IITM",06-06-2024 20:00:00,19.000083,72.813993,NH3,2,2,2
India,Maharashtra,Mumbai,"Sion, Mumbai - MPCB",06-06-2024 20:00:00,19.047000,72.874600,OZONE,63,73,69
India,Maharashtra,Mumbai,"Vile Parle West, Mumbai - MPCB",06-06-2024 20:00:00,19.10861,72.83622,PM10,14,136,73
India,Maharashtra,Mumbai,"Worli, Mumbai - MPCB",06-06-2024 20:00:00,18.9936162,72.8128113,SO2,12,12,12
India,Maharashtra,Nagpur,"Ambazari, Nagpur - MPCB",06-06-2024 20:00:00,21.121801,79.04952,NO2,10,94,30
India,Maharashtra,Nagpur,"Mahal, Nagpur - MPCB",06-06-2024 20:00:00,21.14472,79.107595,NO2,10,101,29
India,Maharashtra,Nagpur,"Mahal, Nagpur - MPCB",06-06-2024 20:00:00,21.14472,79.107595,OZONE,4,97,63
India,Maharashtra,Nagpur,"Opp GPO Civil Lines, Nagpur - MPCB",06-06-2024 20:00:00,21.152875,79.0517531,PM10,36,122,73
India,Maharashtra,Nanded,"Sneh Nagar, Nanded - MPCB",06-06-2024 20:00:00,19.173852,77.296291,NO2,NA,NA,NA
India,Maharashtra,Nanded,"Sneh Nagar, Nanded - MPCB",06-06-2024 20:00:00,19.173852,77.296291,NH3,NA,NA,NA
India,Maharashtra,Nashik,"Gangapur Road, Nashik - MPCB",06-06-2024 20:00:00,20.0073285,73.7762427,NH3,1,4,3
India,Maharashtra,Nashik,"Gangapur Road, Nashik - MPCB",06-06-2024 20:00:00,20.0073285,73.7762427,CO,11,57,36
India,Maharashtra,Nashik,"Hirawadi, Nashik - MPCB",06-06-2024 20:00:00,20.021503,73.813844,CO,8,32,14
India,Maharashtra,Nashik,"Pandav Nagari, Nashik - MPCB",06-06-2024 20:00:00,19.9591346,73.7788008,NO2,17,52,26
India,Maharashtra,Nashik,"Pandav Nagari, Nashik - MPCB",06-06-2024 20:00:00,19.9591346,73.7788008,NH3,3,5,4
India,Maharashtra,Nashik,"Pandav Nagari, Nashik - MPCB",06-06-2024 20:00:00,19.9591346,73.7788008,SO2,19,24,22
India,Maharashtra,Navi Mumbai,"Kopripada-Vashi, Navi Mumbai - MPCB",06-06-2024 20:00:00,19.090337,73.014232,PM10,97,109,99
India,Maharashtra,Navi Mumbai,"Mahape, Navi Mumbai - MPCB",06-06-2024 20:00:00,19.1135051,73.008978,NO2,41,44,42
India,Maharashtra,Navi Mumbai,"Mahape, Navi Mumbai - MPCB",06-06-2024 20:00:00,19.1135051,73.008978,NH3,2,3,2
India,Maharashtra,Navi Mumbai,"Nerul, Navi Mumbai - MPCB",06-06-2024 20:00:00,19.008751,73.016620,NH3,3,6,4
India,Maharashtra,Navi Mumbai,"Sanpada, Navi Mumbai - MPCB",06-06-2024 20:00:00,19.0575752,73.0151367,PM2.5,14,33,24
India,Maharashtra,Navi Mumbai,"Sanpada, Navi Mumbai - MPCB",06-06-2024 20:00:00,19.0575752,73.0151367,SO2,1,9,2
India,Maharashtra,Navi Mumbai,"Tondare-Taloja, Navi Mumbai - MPCB",06-06-2024 20:00:00,19.0630,73.1209,PM2.5,27,44,33
India,Maharashtra,Navi Mumbai,"Tondare-Taloja, Navi Mumbai - MPCB",06-06-2024 20:00:00,19.0630,73.1209,OZONE,15,51,31
India,Maharashtra,Parbhani,"Masoom Colony, Parbhani - MPCB",06-06-2024 20:00:00,19.265594,76.761463,PM10,21,93,50
India,Maharashtra,Pimpri-Chinchwad,"Gavalinagar, Pimpri Chinchwad - MPCB",06-06-2024 20:00:00,18.63673,73.82487,OZONE,1,52,41
India,Maharashtra,Pune,"Alandi, Pune - IITM",06-06-2024 20:00:00,18.675076,73.892743,PM10,24,51,37
India,Maharashtra,Pune,"Bhosari, Pune - IITM",06-06-2024 20:00:00,18.640051,73.848956,PM2.5,4,4,4
India,Maharashtra,Pune,"Bhosari, Pune - IITM",06-06-2024 20:00:00,18.640051,73.848956,PM10,9,57,33
India,Maharashtra,Pune,"Hadapsar, Pune - IITM",06-06-2024 20:00:00,18.501793,73.927532,PM10,25,145,54
India,Maharashtra,Pune,"Karve Road, Pune - MPCB",06-06-2024 20:00:00,18.5011743,73.8165527,PM10,5,500,66
India,Maharashtra,Pune,"Karve Road, Pune - MPCB",06-06-2024 20:00:00,18.5011743,73.8165527,SO2,1,115,12
India,Maharashtra,Pune,"Karve Road, Pune - MPCB",06-06-2024 20:00:00,18.5011743,73.8165527,CO,2,194,48
India,Maharashtra,Pune,"Revenue Colony-Shivajinagar, Pune - IITM",06-06-2024 20:00:00,18.530085,73.849598,PM2.5,29,115,56
India,Maharashtra,Pune,"Revenue Colony-Shivajinagar, Pune - IITM",06-06-2024 20:00:00,18.530085,73.849598,SO2,1,12,7
India,Maharashtra,Pune,"Savitribai Phule Pune University, Pune - MPCB",06-06-2024 20:00:00,18.547056,73.826908,OZONE,1,70,43
India,Maharashtra,Sangli,"Vijay Nagar, Sangli - MPCB",06-06-2024 20:00:00, 16.5038,74.3623,PM10,23,50,34
India,Maharashtra,Sangli,"Vijay Nagar, Sangli - MPCB",06-06-2024 20:00:00, 16.5038,74.3623,SO2,3,8,5
India,Maharashtra,Solapur,"Dnyaneshwar Nagar, Solapur - MPCB",06-06-2024 20:00:00,17.6336264,75.9132495,SO2,1,1,1
India,Maharashtra,Solapur,"Ratandeep Housing Society, Solapur - MPCB",06-06-2024 20:00:00,17.65439,75.90649,NO2,5,36,17
India,Maharashtra,Solapur,"Ratandeep Housing Society, Solapur - MPCB",06-06-2024 20:00:00,17.65439,75.90649,SO2,3,4,3
India,Maharashtra,Solapur,"Ratandeep Housing Society, Solapur - MPCB",06-06-2024 20:00:00,17.65439,75.90649,CO,19,51,32
India,Maharashtra,Solapur,"Solapur, Solapur - MPCB",06-06-2024 20:00:00,17.6599188,75.9063906,PM10,88,113,94
India,Maharashtra,Solapur,"Solapur, Solapur - MPCB",06-06-2024 20:00:00,17.6599188,75.9063906,SO2,104,109,106
India,Maharashtra,Thane,"Pimpleshwar Mandir, Thane - MPCB",06-06-2024 20:00:00,19.192056,72.9585188,NH3,1,7,3
India,Maharashtra,Virar,"Bolinj, Virar - MPCB",06-06-2024 20:00:00,19.4458210,72.7988231,PM10,40,92,60
India,Meghalaya,Shillong,"Lumpyngngad, Shillong - Meghalaya PCB",06-06-2024 20:00:00,25.5586,91.8985,NO2,1,2,1
India,Meghalaya,Shillong,"Lumpyngngad, Shillong - Meghalaya PCB",06-06-2024 20:00:00,25.5586,91.8985,SO2,37,37,37
India,Meghalaya,Shillong,"Lumpyngngad, Shillong - Meghalaya PCB",06-06-2024 20:00:00,25.5586,91.8985,CO,6,19,16
India,Mizoram,Aizawl,"Sikulpuikawn, Aizawl - Mizoram PCB",06-06-2024 20:00:00,23.7176342,92.7192841,NO2,1,2,1
India,Mizoram,Aizawl,"Sikulpuikawn, Aizawl - Mizoram PCB",06-06-2024 20:00:00,23.7176342,92.7192841,OZONE,1,11,2
India,Odisha,Angul,"Hakimapada, Angul - OSPCB",06-06-2024 20:00:00,20.832874,85.104082,PM2.5,45,428,124
India,Odisha,Angul,"Hakimapada, Angul - OSPCB",06-06-2024 20:00:00,20.832874,85.104082,NH3,1,2,1
India,Odisha,Angul,"Hakimapada, Angul - OSPCB",06-06-2024 20:00:00,20.832874,85.104082,CO,18,117,38
India,Odisha,Angul,"Hakimapada, Angul - OSPCB",06-06-2024 20:00:00,20.832874,85.104082,OZONE,16,103,90
India,Odisha,Balasore,"Kalidaspur, Balasore - OSPCB",06-06-2024 20:00:00,21.51161,86.89088,OZONE,16,75,59
India,Odisha,Barbil,"Forest Office, Barbil - OSPCB",06-06-2024 20:00:00,22.1166054,85.3945546,NO2,6,19,11
India,Odisha,Barbil,"Forest Office, Barbil - OSPCB",06-06-2024 20:00:00,22.1166054,85.3945546,CO,22,46,29
India,Odisha,Bhubaneswar,"Lingraj Mandir, Bhubaneswar - OSPCB",06-06-2024 20:00:00,20.240790,85.836784,NH3,1,3,2
India,Odisha,Bhubaneswar,"Patia, Bhubaneswar - OSPCB",06-06-2024 20:00:00,20.34652,85.81630,PM2.5,42,97,70
India,Odisha,Bhubaneswar,"Patia, Bhubaneswar - OSPCB",06-06-2024 20:00:00,20.34652,85.81630,NO2,9,22,16
India,Odisha,Bileipada,"Tata Township, Bileipada - OSPCB",06-06-2024 20:00:00,22.06156703,85.47409613,NH3,11,12,12
India,Odisha,Brajrajnagar,"GM Office, Brajrajnagar - OSPCB",06-06-2024 20:00:00,21.8004996,83.8396977,PM10,19,122,60
India,Odisha,Cuttack,"CDA Area, Cuttack - OSPCB",06-06-2024 20:00:00,20.48891     ,85.84768     ,NO2,10,55,20
India,Odisha,Keonjhar,"Jagamohanpur, Keonjhar - OSPCB",06-06-2024 20:00:00,21.643900,85.599355,PM2.5,54,78,64
India,Odisha,Keonjhar,"Jagamohanpur, Keonjhar - OSPCB",06-06-2024 20:00:00,21.643900,85.599355,SO2,10,14,11
India,Odisha,Nayagarh,"Dabuna, Nayagarh - OSPCB",06-06-2024 20:00:00,21.847279,85.416905,SO2,NA,NA,NA
India,Odisha,Nayagarh,"Dabuna, Nayagarh - OSPCB",06-06-2024 20:00:00,21.847279,85.416905,CO,NA,NA,NA
India,Odisha,Rairangpur,"Divisional Forest Office, Rairangpur - OSPCB",06-06-2024 20:00:00,22.265816,86.174829,PM2.5,60,92,75
India,Odisha,Rairangpur,"Divisional Forest Office, Rairangpur - OSPCB",06-06-2024 20:00:00,22.265816,86.174829,OZONE,5,38,31
India,Odisha,Rourkela,"Fertilizer Township, Rourkela - OSPCB",06-06-2024 20:00:00,22.18972222,84.86277778,PM2.5,57,311,112
India,Odisha,Rourkela,"Fertilizer Township, Rourkela - OSPCB",06-06-2024 20:00:00,22.18972222,84.86277778,CO,15,28,21
India,Odisha,Rourkela,"Raghunathpali, Rourkela - OSPCB",06-06-2024 20:00:00,22.220833,84.809444,PM10,74,137,105
India,Odisha,Talcher,"Talcher Coalfields,Talcher - OSPCB",06-06-2024 20:00:00,20.9360711,85.1707021,NH3,3,4,3
India,Odisha,Tensa,"Barsua Iron Ore Mines, Tensa - OSPCB",06-06-2024 20:00:00,21.869985,85.167016,OZONE,15,216,151
India,Punjab,Amritsar,"Golden Temple, Amritsar - PPCB",06-06-2024 20:00:00,31.620000,74.876512,NH3,5,6,6
India,Punjab,Bathinda,"Hardev Nagar, Bathinda - PPCB",06-06-2024 20:00:00,30.233011,74.907758,PM2.5,39,500,246
India,Punjab,Khanna,"Kalal Majra, Khanna - PPCB",06-06-2024 20:00:00,30.736056 ,76.209694,NO2,NA,NA,NA
India,Punjab,Khanna,"Kalal Majra, Khanna - PPCB",06-06-2024 20:00:00,30.736056 ,76.209694,OZONE,5,63,44
India,Punjab,Ludhiana,"Punjab Agricultural University, Ludhiana - PPCB",06-06-2024 20:00:00,30.9028,75.8086,PM10,52,137,85
India,Punjab,Ludhiana,"Punjab Agricultural University, Ludhiana - PPCB",06-06-2024 20:00:00,30.9028,75.8086,CO,20,111,51
India,Punjab,Mandi Gobindgarh,"RIMT University, Mandi Gobindgarh - PPCB",06-06-2024 20:00:00,30.649961,76.331442,NH3,NA,NA,NA
India,Punjab,Mandi Gobindgarh,"RIMT University, Mandi Gobindgarh - PPCB",06-06-2024 20:00:00,30.649961,76.331442,CO,51,64,58
India,Punjab,Patiala,"Model Town, Patiala - PPCB",06-06-2024 20:00:00,30.349388,76.366642,PM2.5,29,277,72
India,Punjab,Patiala,"Model Town, Patiala - PPCB",06-06-2024 20:00:00,30.349388,76.366642,OZONE,22,101,76
India,Punjab,Rupnagar,"Ratanpura, Rupnagar - Ambuja Cements",06-06-2024 20:00:00,31.0325454,76.5623046,PM10,NA,NA,NA
India,Rajasthan,Ajmer,"Civil Lines,  Ajmer - RSPCB",06-06-2024 20:00:00,26.470859,74.646594,PM10,NA,NA,NA
India,Rajasthan,Ajmer,"Civil Lines,  Ajmer - RSPCB",06-06-2024 20:00:00,26.470859,74.646594,SO2,NA,NA,NA
India,Rajasthan,Banswara,"Rati Talai, Banswara - RSPCB",06-06-2024 20:00:00,23.555190,74.440010,CO,1,33,5
India,Rajasthan,Baran,"Bamboliya, Baran - RSPCB",06-06-2024 20:00:00,25.106006,76.469948,NO2,5,49,12
India,Rajasthan,Baran,"Bamboliya, Baran - RSPCB",06-06-2024 20:00:00,25.106006,76.469948,NH3,2,7,3
India,Rajasthan,Bharatpur,"Krishna Nagar, Bharatpur - RSPCB",06-06-2024 20:00:00,27.215415,77.50873,PM10,30,142,64
India,Rajasthan,Bharatpur,"Krishna Nagar, Bharatpur - RSPCB",06-06-2024 20:00:00,27.215415,77.50873,NO2,8,51,19
India,Rajasthan,Bhilwara,"Pratap Nagar, Bhilwara - RSPCB",06-06-2024 20:00:00,25.339605,74.618883,PM2.5,21,62,41
India,Rajasthan,Bhilwara,"Pratap Nagar, Bhilwara - RSPCB",06-06-2024 20:00:00,25.339605,74.618883,NO2,8,38,15
India,Rajasthan,Bhilwara,"Pratap Nagar, Bhilwara - RSPCB",06-06-2024 20:00:00,25.339605,74.618883,CO,22,52,26
India,Rajasthan,Bhiwadi,"RIICO Ind. Area III, Bhiwadi - RSPCB",06-06-2024 20:00:00,28.194909,76.862296,SO2,9,17,13
India,Rajasthan,Bhiwadi,"RIICO Ind. Area III, Bhiwadi - RSPCB",06-06-2024 20:00:00,28.194909,76.862296,OZONE,30,88,59
India,Rajasthan,Bhiwadi,"Vasundhara Nagar_UIT, Bhiwadi - RSPCB",06-06-2024 20:00:00,28.207266,76.829265,PM10,NA,NA,NA
India,Rajasthan,Bundi,"New Colony, Bundi - RSPCB",06-06-2024 20:00:00,25.435774,75.644272,NO2,5,92,14
India,Rajasthan,Bundi,"New Colony, Bundi - RSPCB",06-06-2024 20:00:00,25.435774,75.644272,SO2,4,9,6
India,Rajasthan,Churu,"Subash Chowk, Churu - RSPCB",06-06-2024 20:00:00,28.296139,74.961696,CO,6,36,28
India,Rajasthan,Churu,"Subash Chowk, Churu - RSPCB",06-06-2024 20:00:00,28.296139,74.961696,OZONE,53,100,85
India,Rajasthan,Dausa,"Khatikan Mohalla, Dausa - RSPCB",06-06-2024 20:00:00,26.895552,76.334753,OZONE,10,114,68
India,Rajasthan,Dholpur,"Raja Ganj, Dholpur - RSPCB",06-06-2024 20:00:00,26.699557,77.898881,NO2,1,12,5
India,Rajasthan,Dungarpur,"Bhoiwada, Dungarpur - RSPCB",06-06-2024 20:00:00,23.837789,73.714926,PM10,59,194,104
India,Rajasthan,Dungarpur,"Bhoiwada, Dungarpur - RSPCB",06-06-2024 20:00:00,23.837789,73.714926,CO,2,42,24
India,Rajasthan,Hanumangarh,"Housing Board, Hanumangarh - RSPCB",06-06-2024 20:00:00,29.610750,74.283608,PM2.5,NA,NA,NA
India,Rajasthan,Jaipur,"Adarsh Nagar, Jaipur - RSPCB",06-06-2024 20:00:00,26.902909,75.836858,PM10,91,287,142
India,Rajasthan,Jaipur,"Mansarovar Sector-12, Jaipur - RSPCB",06-06-2024 20:00:00,26.843698,75.766894,PM10,101,421,165
India,Rajasthan,Jaipur,"Mansarovar Sector-12, Jaipur - RSPCB",06-06-2024 20:00:00,26.843698,75.766894,NO2,7,49,18
India,Rajasthan,Jaipur,"Mansarovar Sector-12, Jaipur - RSPCB",06-06-2024 20:00:00,26.843698,75.766894,SO2,2,10,7
India,Rajasthan,Jaipur,"Police Commissionerate, Jaipur - RSPCB",06-06-2024 20:00:00,26.9164092,75.7994901,OZONE,24,90,68
India,Rajasthan,Jaipur,"RIICO Sitapura, Jaipur - RSPCB",06-06-2024 20:00:00,26.786682,75.827928,NO2,21,103,38
India,Rajasthan,Jaipur,"Sector-2 Murlipura, Jaipur - RSPCB",06-06-2024 20:00:00,26.960669,75.771817,PM10,31,125,82
India,Rajasthan,Jaipur,"Sector-2 Murlipura, Jaipur - RSPCB",06-06-2024 20:00:00,26.960669,75.771817,NH3,1,7,3
India,Rajasthan,Jaipur,"Shastri Nagar, Jaipur - RSPCB",06-06-2024 20:00:00,26.9502929,75.730943,PM2.5,59,182,102
India,Rajasthan,Jaipur,"Shastri Nagar, Jaipur - RSPCB",06-06-2024 20:00:00,26.9502929,75.730943,NO2,14,38,24
India,Rajasthan,Jaipur,"Shastri Nagar, Jaipur - RSPCB",06-06-2024 20:00:00,26.9502929,75.730943,SO2,5,47,18
India,Rajasthan,Jaisalmer,"Sadar Bazar, Jaisalmer - RSPCB",06-06-2024 20:00:00,26.912329,70.909168,CO,18,56,32
India,Rajasthan,Jalore,"Mudtra Sili, Jalore - RSPCB",06-06-2024 20:00:00,25.344694,72.626208,PM10,84,151,109
India,Rajasthan,Jhalawar,"Rajlaxmi Nagar, Jhalawar - RSPCB",06-06-2024 20:00:00,24.588397,76.172782,PM2.5,25,67,42
India,Rajasthan,Jhalawar,"Rajlaxmi Nagar, Jhalawar - RSPCB",06-06-2024 20:00:00,24.588397,76.172782,NO2,18,43,27
India,Rajasthan,Jhalawar,"Rajlaxmi Nagar, Jhalawar - RSPCB",06-06-2024 20:00:00,24.588397,76.172782,CO,13,28,16
India,Rajasthan,Jodhpur,"Collectorate, Jodhpur - RSPCB",06-06-2024 20:00:00,26.268249,73.0193853,SO2,4,16,9
India,Rajasthan,Jodhpur,"Digari Kalan, Jodhpur - RSPCB",06-06-2024 20:00:00,26.295810,73.082283,PM2.5,27,114,42
India,Rajasthan,Jodhpur,"Digari Kalan, Jodhpur - RSPCB",06-06-2024 20:00:00,26.295810,73.082283,NH3,1,2,2
India,Rajasthan,Jodhpur,"Digari Kalan, Jodhpur - RSPCB",06-06-2024 20:00:00,26.295810,73.082283,SO2,1,4,2
India,Rajasthan,Jodhpur,"Jhalamand, Jodhpur - RSPCB",06-06-2024 20:00:00,26.215415,73.070156,SO2,2,7,4
India,Rajasthan,Jodhpur,"Jhalamand, Jodhpur - RSPCB",06-06-2024 20:00:00,26.215415,73.070156,CO,4,14,8
India,Rajasthan,Jodhpur,"Jhalamand, Jodhpur - RSPCB",06-06-2024 20:00:00,26.215415,73.070156,OZONE,31,100,88
India,Rajasthan,Jodhpur,"Mandor, Jodhpur - RSPCB",06-06-2024 20:00:00,26.358805,73.047444,PM10,64,142,90
India,Rajasthan,Jodhpur,"Mandor, Jodhpur - RSPCB",06-06-2024 20:00:00,26.358805,73.047444,NH3,4,6,5
India,Rajasthan,Jodhpur,"Mandor, Jodhpur - RSPCB",06-06-2024 20:00:00,26.358805,73.047444,OZONE,27,67,58
India,Rajasthan,Jodhpur,"Samrat Ashok Udhyan, Jodhpur - RSPCB",06-06-2024 20:00:00,26.253384,72.976571,PM2.5,12,38,28
India,Rajasthan,Jodhpur,"Samrat Ashok Udhyan, Jodhpur - RSPCB",06-06-2024 20:00:00,26.253384,72.976571,NO2,1,30,6
India,Rajasthan,Karauli,"Satyawati Vihar, Karauli - RSPCB",06-06-2024 20:00:00,26.506177,77.025989,PM2.5,23,207,83
India,Rajasthan,Kota,"Nayapura, Kota - RSPCB",06-06-2024 20:00:00,25.196024,75.855668,NH3,2,6,2
India,Rajasthan,Kota,"Nayapura, Kota - RSPCB",06-06-2024 20:00:00,25.196024,75.855668,OZONE,23,98,79
India,Rajasthan,Kota,"Shrinath Puram, Kota - RSPCB",06-06-2024 20:00:00,25.14389,75.821256,PM2.5,55,121,80
India,Rajasthan,Kota,"Shrinath Puram, Kota - RSPCB",06-06-2024 20:00:00,25.14389,75.821256,SO2,11,94,27
India,Rajasthan,Nagaur,"Karni Colony, Nagaur - RSPCB",06-06-2024 20:00:00,27.213494,73.734444,OZONE,27,70,60
India,Rajasthan,Pali,"Indira Colony Vistar, Pali - RSPCB",06-06-2024 20:00:00,25.771061, 73.340227,PM10,106,142,124
India,Rajasthan,Pali,"Indira Colony Vistar, Pali - RSPCB",06-06-2024 20:00:00,25.771061, 73.340227,CO,2,67,46
India,Rajasthan,Rajsamand,"Dhoinda, Rajsamand - RSPCB",06-06-2024 20:00:00,25.036360,73.883502,NO2,5,28,10
India,Rajasthan,Sirohi,"Vedhaynath Colony, Sirohi - RSPCB",06-06-2024 20:00:00,24.885261,72.857549,NO2,2,12,5
India,Rajasthan,Sri Ganganagar,"Old City, Sri Ganganagar - RSPCB",06-06-2024 20:00:00,29.931624,73.864511,PM2.5,NA,NA,NA
India,Rajasthan,Sri Ganganagar,"Old City, Sri Ganganagar - RSPCB",06-06-2024 20:00:00,29.931624,73.864511,PM10,NA,NA,NA
India,Rajasthan,Sri Ganganagar,"Old City, Sri Ganganagar - RSPCB",06-06-2024 20:00:00,29.931624,73.864511,NO2,9,58,33
India,Rajasthan,Tonk,"Shastri Nagar, Tonk - RSPCB",06-06-2024 20:00:00,26.159933,75.780517,PM2.5,32,58,44
India,Rajasthan,Tonk,"Shastri Nagar, Tonk - RSPCB",06-06-2024 20:00:00,26.159933,75.780517,NO2,5,38,14
India,Rajasthan,Udaipur,"Ashok Nagar, Udaipur - RSPCB",06-06-2024 20:00:00,24.5886166,73.6321397,NO2,20,78,41
India,Sikkim,Gangtok,"Zero Point GICI, Gangtok - SSPCB",06-06-2024 20:00:00,27.338530,88.614099,NO2,1,4,2
India,Sikkim,Gangtok,"Zero Point GICI, Gangtok - SSPCB",06-06-2024 20:00:00,27.338530,88.614099,NH3,1,1,1
India,Sikkim,Gangtok,"Zero Point GICI, Gangtok - SSPCB",06-06-2024 20:00:00,27.338530,88.614099,OZONE,15,50,39
India,TamilNadu,Ariyalur,"Keelapalur, Ariyalur - TNPCB",06-06-2024 20:00:00,11.06825,79.07033,NH3,NA,NA,NA
India,TamilNadu,Chennai,"Alandur Bus Depot, Chennai - CPCB",06-06-2024 20:00:00,12.9099161,80.1076538,PM10,23,23,23
India,TamilNadu,Chennai,"Perungudi, Chennai - TNPCB",06-06-2024 20:00:00,12.9533,80.2357,NH3,3,3,3
India,TamilNadu,Chennai,"Royapuram, Chennai - TNPCB",06-06-2024 20:00:00,13.1036,80.2909,OZONE,NA,NA,NA
India,TamilNadu,Chennai,"Velachery Res. Area, Chennai - CPCB",06-06-2024 20:00:00,13.0052189,80.2398125,NO2,18,36,26
India,TamilNadu,Coimbatore,"PSG College of Arts and Science, Coimbatore - TNPCB",06-06-2024 20:00:00,11.0328,77.0349,CO,2,12,8
India,TamilNadu,Cuddalore,"Kudikadu, Cuddalore - TNPCB",06-06-2024 20:00:00,11.6829898,79.7532099,NH3,NA,NA,NA
India,TamilNadu,Gummidipoondi,"Anthoni Pillai Nagar, Gummidipoondi - TNPCB",06-06-2024 20:00:00,13.4127,80.1081,PM2.5,19,168,83
India,TamilNadu,Gummidipoondi,"Anthoni Pillai Nagar, Gummidipoondi - TNPCB",06-06-2024 20:00:00,13.4127,80.1081,NH3,2,5,3
India,TamilNadu,Ooty,"Bombay Castel, Ooty - TNPCB",06-06-2024 20:00:00,11.4068288,76.7138973,SO2,NA,NA,NA
India,TamilNadu,Ooty,"Bombay Castel, Ooty - TNPCB",06-06-2024 20:00:00,11.4068288,76.7138973,OZONE,5,5,5
India,TamilNadu,Salem,"Sona College of Technology, Salem - TNPCB",06-06-2024 20:00:00,11.679111,78.125052,PM10,NA,NA,NA
India,TamilNadu,Salem,"Sona College of Technology, Salem - TNPCB",06-06-2024 20:00:00,11.679111,78.125052,OZONE,3,3,3
India,TamilNadu,Tirupur,"Kumaran College, Tirupur - TNPCB",06-06-2024 20:00:00,11.0973603,77.3228673,PM2.5,1,13,8
India,TamilNadu,Tirupur,"Kumaran College, Tirupur - TNPCB",06-06-2024 20:00:00,11.0973603,77.3228673,NO2,4,16,9
India,TamilNadu,Tirupur,"Kumaran College, Tirupur - TNPCB",06-06-2024 20:00:00,11.0973603,77.3228673,SO2,13,18,17
India,Telangana,Hyderabad,"Bollaram Industrial Area, Hyderabad - TSPCB",06-06-2024 20:00:00,17.540891,78.358528,PM10,20,83,42
India,Telangana,Hyderabad,"Central University, Hyderabad - TSPCB",06-06-2024 20:00:00,17.460103,78.334361,NH3,2,5,4
India,Telangana,Hyderabad,"Central University, Hyderabad - TSPCB",06-06-2024 20:00:00,17.460103,78.334361,CO,13,46,20
India,Telangana,Hyderabad,"ICRISAT Patancheru, Hyderabad - TSPCB",06-06-2024 20:00:00,17.518400,78.278777,PM2.5,8,40,22
India,Telangana,Hyderabad,"IITH Kandi, Hyderabad - TSPCB",06-06-2024 20:00:00,17.585705,78.126199,NH3,NA,NA,NA
India,Telangana,Hyderabad,"Kompally Municipal Office, Hyderabad - TSPCB",06-06-2024 20:00:00,17.544899,78.486949,NO2,10,13,11
India,Telangana,Hyderabad,"Kompally Municipal Office, Hyderabad - TSPCB",06-06-2024 20:00:00,17.544899,78.486949,NH3,5,8,7
India,Telangana,Hyderabad,"Kompally Municipal Office, Hyderabad - TSPCB",06-06-2024 20:00:00,17.544899,78.486949,SO2,8,14,10
India,Telangana,Hyderabad,"Kompally Municipal Office, Hyderabad - TSPCB",06-06-2024 20:00:00,17.544899,78.486949,CO,18,38,19
India,Telangana,Hyderabad,"Kompally Municipal Office, Hyderabad - TSPCB",06-06-2024 20:00:00,17.544899,78.486949,OZONE,37,43,42
India,Telangana,Hyderabad,"Nacharam_TSIIC IALA, Hyderabad - TSPCB",06-06-2024 20:00:00,17.429398,78.569354,PM2.5,35,56,43
India,Telangana,Hyderabad,"Nacharam_TSIIC IALA, Hyderabad - TSPCB",06-06-2024 20:00:00,17.429398,78.569354,PM10,78,91,83
India,Telangana,Hyderabad,"New Malakpet, Hyderabad - TSPCB",06-06-2024 20:00:00,17.37206,78.50864,PM10,NA,NA,NA
India,Telangana,Hyderabad,"New Malakpet, Hyderabad - TSPCB",06-06-2024 20:00:00,17.37206,78.50864,CO,18,39,29
India,Telangana,Hyderabad,"Ramachandrapuram, Hyderabad - TSPCB",06-06-2024 20:00:00,17.528544,78.286195,SO2,NA,NA,NA
India,Telangana,Hyderabad,"Sanathnagar, Hyderabad - TSPCB",06-06-2024 20:00:00,17.4559458,78.4332152,OZONE,15,280,39
India,Telangana,Hyderabad,"Somajiguda, Hyderabad - TSPCB",06-06-2024 20:00:00,17.417094,78.457437,SO2,NA,NA,NA
India,Telangana,Hyderabad,"Zoo Park, Hyderabad - TSPCB",06-06-2024 20:00:00,17.349694,78.451437,PM10,NA,NA,NA
India,Telangana,Hyderabad,"Zoo Park, Hyderabad - TSPCB",06-06-2024 20:00:00,17.349694,78.451437,OZONE,14,40,24
India,Tripura,Agartala,"Bardowali, Agartala - Tripura SPCB",06-06-2024 20:00:00,23.8175497,91.2726974,CO,11,46,24
India,Uttar_Pradesh,Agra,"Manoharpur, Agra - UPPCB",06-06-2024 20:00:00,27.23711,78.01936,CO,6,8,7
India,Uttar_Pradesh,Agra,"Sanjay Palace, Agra - UPPCB",06-06-2024 20:00:00,27.19865833,78.00598056,NO2,7,18,11
India,Uttar_Pradesh,Agra,"Sanjay Palace, Agra - UPPCB",06-06-2024 20:00:00,27.19865833,78.00598056,SO2,3,15,9
India,Uttar_Pradesh,Agra,"Sanjay Palace, Agra - UPPCB",06-06-2024 20:00:00,27.19865833,78.00598056,CO,2,57,19
India,Uttar_Pradesh,Agra,"Sector-3B Avas Vikas Colony, Agra - UPPCB",06-06-2024 20:00:00,27.19412,77.96237,PM2.5,5,42,19
India,Uttar_Pradesh,Agra,"Sector-3B Avas Vikas Colony, Agra - UPPCB",06-06-2024 20:00:00,27.19412,77.96237,CO,6,15,6
India,Uttar_Pradesh,Agra,"Shahjahan Garden, Agra - UPPCB",06-06-2024 20:00:00,27.169338,78.03582,NH3,3,14,8
India,Uttar_Pradesh,Agra,"Shastripuram, Agra - UPPCB",06-06-2024 20:00:00,27.19862,77.92066,NH3,3,5,4
India,Uttar_Pradesh,Bulandshahr,"Yamunapuram, Bulandshahr - UPPCB",06-06-2024 20:00:00,28.406963,77.849831,NO2,2,56,23
India,Uttar_Pradesh,Firozabad,"Vibhab Nagar, Firozabad - UPPCB",06-06-2024 20:00:00,27.1594,78.3953,OZONE,11,47,26
India,Uttar_Pradesh,Ghaziabad,"Loni, Ghaziabad - UPPCB",06-06-2024 20:00:00,28.757294,77.278792,PM10,72,379,135
India,Uttar_Pradesh,Ghaziabad,"Loni, Ghaziabad - UPPCB",06-06-2024 20:00:00,28.757294,77.278792,NH3,1,4,3
India,Uttar_Pradesh,Ghaziabad,"Sanjay Nagar, Ghaziabad - UPPCB",06-06-2024 20:00:00,28.685382,77.453839,SO2,14,24,20
India,Uttar_Pradesh,Ghaziabad,"Sanjay Nagar, Ghaziabad - UPPCB",06-06-2024 20:00:00,28.685382,77.453839,CO,20,100,45
India,Uttar_Pradesh,Ghaziabad,"Vasundhara, Ghaziabad - UPPCB",06-06-2024 20:00:00,28.6603346,77.3572563,PM10,55,423,109
India,Uttar_Pradesh,Ghaziabad,"Vasundhara, Ghaziabad - UPPCB",06-06-2024 20:00:00,28.6603346,77.3572563,NO2,25,49,36
India,Uttar_Pradesh,Ghaziabad,"Vasundhara, Ghaziabad - UPPCB",06-06-2024 20:00:00,28.6603346,77.3572563,SO2,2,14,7
India,Uttar_Pradesh,Gorakhpur,"Madan Mohan Malaviya University of Technology, Gorakhpur - UPPCB",06-06-2024 20:00:00,26.730136,83.433859,PM2.5,22,121,69
India,Uttar_Pradesh,Gorakhpur,"Madan Mohan Malaviya University of Technology, Gorakhpur - UPPCB",06-06-2024 20:00:00,26.730136,83.433859,OZONE,10,12,12
India,Uttar_Pradesh,Greater Noida,"Knowledge Park - III, Greater Noida - UPPCB",06-06-2024 20:00:00,28.47272,77.482000,NO2,21,83,39
India,Uttar_Pradesh,Greater Noida,"Knowledge Park - III, Greater Noida - UPPCB",06-06-2024 20:00:00,28.47272,77.482000,CO,50,98,70
India,Uttar_Pradesh,Greater Noida,"Knowledge Park - V, Greater Noida - UPPCB",06-06-2024 20:00:00,28.557054,77.453663,PM2.5,21,316,105
India,Uttar_Pradesh,Greater Noida,"Knowledge Park - V, Greater Noida - UPPCB",06-06-2024 20:00:00,28.557054,77.453663,PM10,109,464,222
India,Uttar_Pradesh,Hapur,"Anand Vihar, Hapur - UPPCB",06-06-2024 20:00:00,28.725645,77.749675,PM10,35,180,81
India,Uttar_Pradesh,Hapur,"Anand Vihar, Hapur - UPPCB",06-06-2024 20:00:00,28.725645,77.749675,NH3,10,31,18
India,Uttar_Pradesh,Jhansi,"Shivaji Nagar, Jhansi - UPPCB",06-06-2024 20:00:00,25.4547,78.6039,NO2,11,30,16
India,Uttar_Pradesh,Kanpur,"NSI Kalyanpur, Kanpur - UPPCB",06-06-2024 20:00:00,26.509954,80.249612,NH3,1,1,1
India,Uttar_Pradesh,Kanpur,"Nehru Nagar, Kanpur - UPPCB",06-06-2024 20:00:00,26.4703136,80.3229863,NO2,17,48,32
India,Uttar_Pradesh,Kanpur,"Nehru Nagar, Kanpur - UPPCB",06-06-2024 20:00:00,26.4703136,80.3229863,CO,28,80,37
India,Uttar_Pradesh,Kanpur,"Nehru Nagar, Kanpur - UPPCB",06-06-2024 20:00:00,26.4703136,80.3229863,OZONE,13,140,57
India,Uttar_Pradesh,Lucknow,"B R Ambedkar University, Lucknow - UPPCB",06-06-2024 20:00:00,26.766433,80.927299,PM10,24,134,70
India,Uttar_Pradesh,Lucknow,"B R Ambedkar University, Lucknow - UPPCB",06-06-2024 20:00:00,26.766433,80.927299,NO2,11,12,11
India,Uttar_Pradesh,Lucknow,"Kendriya Vidyalaya, Lucknow - CPCB",06-06-2024 20:00:00,26.906111,80.948222,PM10,24,428,130
India,Uttar_Pradesh,Lucknow,"Kendriya Vidyalaya, Lucknow - CPCB",06-06-2024 20:00:00,26.906111,80.948222,NO2,5,28,14
India,Uttar_Pradesh,Lucknow,"Kukrail Picnic Spot-1, Lucknow - UPPCB",06-06-2024 20:00:00,26.90723,80.98579,SO2,NA,NA,NA
India,Uttar_Pradesh,Lucknow,"Kukrail Picnic Spot-1, Lucknow - UPPCB",06-06-2024 20:00:00,26.90723,80.98579,CO,14,84,14
India,Uttar_Pradesh,Lucknow,"Lalbagh, Lucknow - CPCB",06-06-2024 20:00:00,26.8458805,80.9365541,NH3,13,17,15
India,Uttar_Pradesh,Lucknow,"Talkatora District Industries Center, Lucknow - CPCB",06-06-2024 20:00:00,26.83399722,80.8917361,OZONE,2,81,48
India,Uttar_Pradesh,Meerut,"Ganga Nagar, Meerut - UPPCB",06-06-2024 20:00:00,28.999264,77.7590354,PM10,56,500,132
India,Uttar_Pradesh,Meerut,"Jai Bhim Nagar, Meerut - UPPCB",06-06-2024 20:00:00,28.9535882,77.7622941,NH3,9,17,13
India,Uttar_Pradesh,Meerut,"Pallavpuram Phase 2, Meerut - UPPCB",06-06-2024 20:00:00,29.063510,77.709723,SO2,8,35,21
India,Uttar_Pradesh,Moradabad,"Buddhi Vihar, Moradabad - UPPCB",06-06-2024 20:00:00,28.83526,78.74460,NO2,23,23,23
India,Uttar_Pradesh,Moradabad,"Buddhi Vihar, Moradabad - UPPCB",06-06-2024 20:00:00,28.83526,78.74460,SO2,20,32,25
India,Uttar_Pradesh,Moradabad,"Buddhi Vihar, Moradabad - UPPCB",06-06-2024 20:00:00,28.83526,78.74460,OZONE,27,93,78
India,Uttar_Pradesh,Moradabad,"Eco Herbal Park, Moradabad - UPPCB",06-06-2024 20:00:00,28.840739,78.697531,PM2.5,17,57,31
India,Uttar_Pradesh,Moradabad,"Eco Herbal Park, Moradabad - UPPCB",06-06-2024 20:00:00,28.840739,78.697531,PM10,26,109,54
India,Uttar_Pradesh,Moradabad,"Employment Office, Moradabad - UPPCB",06-06-2024 20:00:00,28.88528,78.73880,NH3,3,4,4
India,Uttar_Pradesh,Moradabad,"Kashiram Nagar, Moradabad - UPPCB",06-06-2024 20:00:00,28.849399,78.742362,NO2,12,13,12
India,Uttar_Pradesh,Moradabad,"Transport Nagar, Moradabad - UPPCB",06-06-2024 20:00:00,28.802625,78.753728,NH3,5,5,5
India,Uttar_Pradesh,Moradabad,"Transport Nagar, Moradabad - UPPCB",06-06-2024 20:00:00,28.802625,78.753728,CO,20,42,40
India,Uttar_Pradesh,Muzaffarnagar,"New Mandi, Muzaffarnagar - UPPCB",06-06-2024 20:00:00,29.4723508,77.7194031,NO2,8,31,17
India,Uttar_Pradesh,Noida,"Sector - 125, Noida - UPPCB",06-06-2024 20:00:00,28.5447608,77.3231257,NH3,2,7,6
India,Uttar_Pradesh,Noida,"Sector - 125, Noida - UPPCB",06-06-2024 20:00:00,28.5447608,77.3231257,OZONE,25,46,35
India,Uttar_Pradesh,Noida,"Sector-1, Noida - UPPCB",06-06-2024 20:00:00,28.5898,77.3101,NO2,24,91,37
India,Uttar_Pradesh,Noida,"Sector-116, Noida - UPPCB",06-06-2024 20:00:00,28.569230,77.393848,CO,8,110,75
India,Uttar_Pradesh,Prayagraj,"Jhunsi, Prayagraj - UPPCB",06-06-2024 20:00:00,25.425602,81.917152,SO2,30,61,36
India,Uttar_Pradesh,Prayagraj,"Motilal Nehru NIT, Prayagraj - UPPCB",06-06-2024 20:00:00,25.494,81.863,SO2,13,32,20
India,Uttar_Pradesh,Prayagraj,"Nagar Nigam, Prayagraj - UPPCB",06-06-2024 20:00:00,25.44919916 ,81.82735986 ,PM2.5,44,195,82
India,Uttar_Pradesh,Varanasi,"Ardhali Bazar, Varanasi - UPPCB",06-06-2024 20:00:00,25.3505986,82.9083074,PM2.5,11,53,30
India,Uttar_Pradesh,Varanasi,"Ardhali Bazar, Varanasi - UPPCB",06-06-2024 20:00:00,25.3505986,82.9083074,PM10,15,73,41
India,Uttar_Pradesh,Varanasi,"Bhelupur, Varanasi - UPPCB",06-06-2024 20:00:00,25.301778,82.996789,PM10,15,175,41
India,Uttar_Pradesh,Varanasi,"IESD Banaras Hindu University, Varanasi - UPPCB",06-06-2024 20:00:00,25.262326,82.995408,OZONE,10,18,12
India,Uttar_Pradesh,Varanasi,"Maldahiya, Varanasi - UPPCB",06-06-2024 20:00:00,25.32393,82.99687,NO2,1,2,2
India,Uttar_Pradesh,Varanasi,"Maldahiya, Varanasi - UPPCB",06-06-2024 20:00:00,25.32393,82.99687,CO,4,90,13
India,Uttar_Pradesh,Varanasi,"Maldahiya, Varanasi - UPPCB",06-06-2024 20:00:00,25.32393,82.99687,OZONE,6,17,14
India,Uttarakhand,Dehradun,"Doon University, Dehradun - UKPCB",06-06-2024 20:00:00,30.269444,78.044167,PM10,19,103,55
India,Uttarakhand,Dehradun,"Doon University, Dehradun - UKPCB",06-06-2024 20:00:00,30.269444,78.044167,CO,14,20,16
India,Uttarakhand,Kashipur,"Govt. Girls Inter College, Kashipur - UKPCB",06-06-2024 20:00:00,29.2124114,78.9611753,PM2.5,37,151,72
India,Uttarakhand,Kashipur,"Govt. Girls Inter College, Kashipur - UKPCB",06-06-2024 20:00:00,29.2124114,78.9611753,PM10,50,146,105
India,Uttarakhand,Kashipur,"Govt. Girls Inter College, Kashipur - UKPCB",06-06-2024 20:00:00,29.2124114,78.9611753,NO2,1,58,22
India,Uttarakhand,Kashipur,"Govt. Girls Inter College, Kashipur - UKPCB",06-06-2024 20:00:00,29.2124114,78.9611753,NH3,1,5,3
India,West_Bengal,Asansol,"Asansol Court Area, Asansol - WBPCB",06-06-2024 20:00:00,23.685297,86.945968,NH3,11,13,12
India,West_Bengal,Asansol,"Evelyn Lodge, Asansol - WBPCB",06-06-2024 20:00:00,23.6979360,86.9443950,NH3,1,2,1
India,West_Bengal,Asansol,"Evelyn Lodge, Asansol - WBPCB",06-06-2024 20:00:00,23.6979360,86.9443950,CO,64,98,70
India,West_Bengal,Asansol,"Evelyn Lodge, Asansol - WBPCB",06-06-2024 20:00:00,23.6979360,86.9443950,OZONE,16,76,64
India,West_Bengal,Barrackpore,"SVSPA Campus, Barrackpore - WBPCB",06-06-2024 20:00:00,22.7605581,88.3617589,OZONE,13,82,66
India,West_Bengal,Durgapur,"Sidhu Kanhu Indoor Stadium, Durgapur - WBPCB",06-06-2024 20:00:00,23.5404352,87.2892225,SO2,12,63,32
India,West_Bengal,Howrah,"Belur Math, Howrah - WBPCB",06-06-2024 20:00:00,22.629801,88.352017,NH3,1,3,1
India,West_Bengal,Howrah,"Padmapukur, Howrah - WBPCB",06-06-2024 20:00:00,22.5687319,88.2797276,SO2,5,44,13
India,West_Bengal,Kolkata,"Ballygunge, Kolkata - WBPCB",06-06-2024 20:00:00,22.5367507,88.3638022,PM2.5,28,113,55
India,West_Bengal,Kolkata,"Ballygunge, Kolkata - WBPCB",06-06-2024 20:00:00,22.5367507,88.3638022,SO2,2,11,5
India,West_Bengal,Kolkata,"Ballygunge, Kolkata - WBPCB",06-06-2024 20:00:00,22.5367507,88.3638022,CO,8,28,20
India,West_Bengal,Kolkata,"Ballygunge, Kolkata - WBPCB",06-06-2024 20:00:00,22.5367507,88.3638022,OZONE,41,86,79
India,West_Bengal,Kolkata,"Bidhannagar, Kolkata - WBPCB",06-06-2024 20:00:00,22.58157048,88.41002457,PM10,55,107,72
India,West_Bengal,Kolkata,"Bidhannagar, Kolkata - WBPCB",06-06-2024 20:00:00,22.58157048,88.41002457,NO2,18,47,26
India,West_Bengal,Kolkata,"Bidhannagar, Kolkata - WBPCB",06-06-2024 20:00:00,22.58157048,88.41002457,OZONE,24,76,64
India,West_Bengal,Kolkata,"Fort William, Kolkata - WBPCB",06-06-2024 20:00:00,22.556640,88.342674,SO2,4,5,4
India,West_Bengal,Kolkata,"Rabindra Bharati University, Kolkata - WBPCB",06-06-2024 20:00:00,22.627847,88.380669,CO,27,39,36
India,West_Bengal,Kolkata,"Victoria, Kolkata - WBPCB",06-06-2024 20:00:00,22.5448082,88.3403691,NO2,24,30,26
India,West_Bengal,Kolkata,"Victoria, Kolkata - WBPCB",06-06-2024 20:00:00,22.5448082,88.3403691,SO2,6,9,7
India,West_Bengal,Siliguri,"Ward-32 Bapupara, Siliguri - WBPCB",06-06-2024 20:00:00,26.6879226,88.4152495,NO2,22,28,24
India,Andhra_Pradesh,Amaravati,"Secretariat, Amaravati - APPCB",06-06-2024 20:00:00,16.5150833,80.5181667,NO2,5,11,7
India,Andhra_Pradesh,Anantapur,"Gulzarpet, Anantapur - APPCB",06-06-2024 20:00:00,14.675886,77.593027,SO2,NA,NA,NA
India,Andhra_Pradesh,Chittoor,"Gangineni Cheruvu, Chittoor - APPCB",06-06-2024 20:00:00,13.204880,79.097889,PM10,NA,NA,NA
India,Andhra_Pradesh,Chittoor,"Gangineni Cheruvu, Chittoor - APPCB",06-06-2024 20:00:00,13.204880,79.097889,SO2,NA,NA,NA
India,Andhra_Pradesh,Kadapa,"Yerramukkapalli, Kadapa - APPCB",06-06-2024 20:00:00,14.465052,78.824187,NO2,12,13,13
India,Andhra_Pradesh,Rajamahendravaram,"Anand Kala Kshetram, Rajamahendravaram - APPCB",06-06-2024 20:00:00,16.9872867,81.7363176,PM10,10,32,23
India,Andhra_Pradesh,Rajamahendravaram,"Anand Kala Kshetram, Rajamahendravaram - APPCB",06-06-2024 20:00:00,16.9872867,81.7363176,SO2,11,12,12
India,Andhra_Pradesh,Tirupati,"Tirumala, Tirupati - APPCB",06-06-2024 20:00:00,13.67,79.35,SO2,1,13,6
India,Andhra_Pradesh,Vijayawada,"HB Colony, Vijayawada - APPCB",06-06-2024 20:00:00,16.536107,80.594233,CO,34,38,37
India,Andhra_Pradesh,Vijayawada,"Kanuru, Vijayawada - APPCB",06-06-2024 20:00:00,16.486692,80.699436,SO2,8,11,9
India,Andhra_Pradesh,Vijayawada,"Rajiv Nagar, Vijayawada - APPCB",06-06-2024 20:00:00,16.554731,80.649110,CO,38,38,38
India,Andhra_Pradesh,Visakhapatnam,"GVM Corporation, Visakhapatnam - APPCB",06-06-2024 20:00:00,17.72,83.3,NH3,1,3,2
India,Andhra_Pradesh,Visakhapatnam,"GVM Corporation, Visakhapatnam - APPCB",06-06-2024 20:00:00,17.72,83.3,SO2,8,22,14
India,Arunachal_Pradesh,Naharlagun,"Naharlagun, Naharlagun - APSPCB",06-06-2024 20:00:00,27.103358,93.679645,OZONE,2,3,3
India,Assam,Byrnihat,"Central Academy for SFS, Byrnihat - PCBA",06-06-2024 20:00:00,26.071318,91.87488,PM10,30,190,102
India,Assam,Byrnihat,"Central Academy for SFS, Byrnihat - PCBA",06-06-2024 20:00:00,26.071318,91.87488,NO2,3,37,11
India,Assam,Byrnihat,"Central Academy for SFS, Byrnihat - PCBA",06-06-2024 20:00:00,26.071318,91.87488,SO2,5,52,27
India,Assam,Guwahati,"IITG, Guwahati - PCBA",06-06-2024 20:00:00,26.2028636,91.70046436,PM2.5,19,74,39
India,Assam,Guwahati,"IITG, Guwahati - PCBA",06-06-2024 20:00:00,26.2028636,91.70046436,NO2,1,3,1
India,Assam,Guwahati,"LGBI Airport, Guwahati - PCBA",06-06-2024 20:00:00,26.10887,91.589544,PM2.5,NA,NA,NA
India,Assam,Guwahati,"LGBI Airport, Guwahati - PCBA",06-06-2024 20:00:00,26.10887,91.589544,PM10,NA,NA,NA
India,Assam,Guwahati,"Pan Bazaar, Guwahati - PCBA",06-06-2024 20:00:00,26.187500,91.744194,NO2,1,3,1
India,Assam,Guwahati,"Pan Bazaar, Guwahati - PCBA",06-06-2024 20:00:00,26.187500,91.744194,OZONE,15,17,16
India,Assam,Guwahati,"Railway Colony, Guwahati - PCBA",06-06-2024 20:00:00,26.181742,91.78063,CO,27,101,32
India,Assam,Nagaon,"Christianpatty, Nagaon - PCBA",06-06-2024 20:00:00,26.349082,92.68449,NO2,1,36,12
India,Assam,Nalbari,"Bata Chowk, Nalbari - PCBA",06-06-2024 20:00:00,26.446912,91.439057,PM10,45,173,81
India,Assam,Nalbari,"Bata Chowk, Nalbari - PCBA",06-06-2024 20:00:00,26.446912,91.439057,NO2,12,22,18
India,Assam,Silchar,"Tarapur, Silchar - PCBA",06-06-2024 20:00:00,24.82827,92.79525,NO2,16,16,16
India,Assam,Sivasagar,"Girls College, Sivasagar - PCBA",06-06-2024 20:00:00,26.987634,94.636574,SO2,6,8,7
India,Assam,Sivasagar,"Girls College, Sivasagar - PCBA",06-06-2024 20:00:00,26.987634,94.636574,CO,8,12,9
India,Bihar,Arrah,"New DM Office, Arrah - BSPCB",06-06-2024 20:00:00,25.5626095,84.663264,NO2,8,17,10
India,Bihar,Arrah,"New DM Office, Arrah - BSPCB",06-06-2024 20:00:00,25.5626095,84.663264,NH3,4,8,5
India,Bihar,Aurangabad,"Gurdeo Nagar, Aurangabad - BSPCB",06-06-2024 20:00:00,24.75746,84.366208,PM10,NA,NA,NA
India,Bihar,Aurangabad,"Gurdeo Nagar, Aurangabad - BSPCB",06-06-2024 20:00:00,24.75746,84.366208,CO,1,27,19
India,Bihar,Bettiah,"Kamalnath Nagar, Bettiah - BSPCB",06-06-2024 20:00:00,26.80365,84.51954,CO,37,70,46
India,Bihar,Bettiah,"Kamalnath Nagar, Bettiah - BSPCB",06-06-2024 20:00:00,26.80365,84.51954,OZONE,1,11,6
India,Bihar,Bhagalpur,"Mayaganj, Bhagalpur - BSPCB",06-06-2024 20:00:00,25.265194,87.012947,PM2.5,40,193,102
India,Bihar,Bhagalpur,"Mayaganj, Bhagalpur - BSPCB",06-06-2024 20:00:00,25.265194,87.012947,SO2,11,12,12
India,Bihar,Bihar Sharif,"D M Colony, Bihar Sharif - BSPCB",06-06-2024 20:00:00,25.204762,85.514960,PM2.5,15,157,65
India,Bihar,Bihar Sharif,"D M Colony, Bihar Sharif - BSPCB",06-06-2024 20:00:00,25.204762,85.514960,PM10,23,141,81
India,Bihar,Bihar Sharif,"D M Colony, Bihar Sharif - BSPCB",06-06-2024 20:00:00,25.204762,85.514960,NH3,1,2,2
India,Bihar,Bihar Sharif,"D M Colony, Bihar Sharif - BSPCB",06-06-2024 20:00:00,25.204762,85.514960,CO,9,29,25
India,Bihar,Chhapra,"Darshan Nagar, Chhapra - BSPCB",06-06-2024 20:00:00,25.7808257,84.7446768,NO2,NA,NA,NA
India,Bihar,Chhapra,"Darshan Nagar, Chhapra - BSPCB",06-06-2024 20:00:00,25.7808257,84.7446768,NH3,NA,NA,NA
India,Bihar,Chhapra,"Darshan Nagar, Chhapra - BSPCB",06-06-2024 20:00:00,25.7808257,84.7446768,SO2,NA,NA,NA
India,Bihar,Gaya,"Collectorate, Gaya - BSPCB",06-06-2024 20:00:00,24.7955,84.9994,CO,116,129,123
India,Bihar,Gaya,"Kareemganj, Gaya - BSPCB",06-06-2024 20:00:00,24.792403,84.992416,CO,20,23,22
India,Bihar,Gaya,"SFTI Kusdihra, Gaya - BSPCB",06-06-2024 20:00:00,24.762518,84.982348,PM2.5,56,234,113
India,Bihar,Gaya,"SFTI Kusdihra, Gaya - BSPCB",06-06-2024 20:00:00,24.762518,84.982348,OZONE,15,85,60
India,Bihar,Hajipur,"Industrial Area, Hajipur - BSPCB",06-06-2024 20:00:00,25.697189,85.245900,OZONE,14,40,29
India,Bihar,Manguraha,"Forest Rest House, Manguraha - BSPCB",06-06-2024 20:00:00,27.308328,84.531742,PM2.5,NA,NA,NA
India,Bihar,Manguraha,"Forest Rest House, Manguraha - BSPCB",06-06-2024 20:00:00,27.308328,84.531742,PM10,NA,NA,NA
India,Bihar,Motihari,"Gandak Colony, Motihari - BSPCB",06-06-2024 20:00:00,26.63086,84.90051,PM2.5,18,72,33
India,Bihar,Motihari,"Gandak Colony, Motihari - BSPCB",06-06-2024 20:00:00,26.63086,84.90051,NO2,17,49,32
India,Bihar,Munger,"Town Hall, Munger - BSPCB",06-06-2024 20:00:00,25.376776,86.471523,OZONE,27,30,29
India,Bihar,Muzaffarpur,"Muzaffarpur Collectorate, Muzaffarpur - BSPCB",06-06-2024 20:00:00,26.1209,85.3647,NO2,31,40,34
India,Bihar,Muzaffarpur,"Muzaffarpur Collectorate, Muzaffarpur - BSPCB",06-06-2024 20:00:00,26.1209,85.3647,SO2,6,17,10
India,Bihar,Muzaffarpur,"Muzaffarpur Collectorate, Muzaffarpur - BSPCB",06-06-2024 20:00:00,26.1209,85.3647,CO,30,50,36
India,Bihar,Patna,"Muradpur, Patna - BSPCB",06-06-2024 20:00:00,25.619651,85.147382,OZONE,5,62,51
India,Bihar,Patna,"Rajbansi Nagar, Patna - BSPCB",06-06-2024 20:00:00,25.599486,85.113666,PM10,64,446,139
India,Bihar,Patna,"Rajbansi Nagar, Patna - BSPCB",06-06-2024 20:00:00,25.599486,85.113666,NO2,7,116,27
India,Bihar,Patna,"Samanpura, Patna - BSPCB",06-06-2024 20:00:00,25.596727,85.085624,PM2.5,36,118,72
India,Bihar,Patna,"Samanpura, Patna - BSPCB",06-06-2024 20:00:00,25.596727,85.085624,OZONE,39,251,151
India,Bihar,Rajgir,"Dangi Tola, Rajgir - BSPCB",06-06-2024 20:00:00,25.03280,85.41948,PM2.5,43,113,64
India,Bihar,Rajgir,"Dangi Tola, Rajgir - BSPCB",06-06-2024 20:00:00,25.03280,85.41948,NO2,14,15,15
India,Bihar,Rajgir,"Dangi Tola, Rajgir - BSPCB",06-06-2024 20:00:00,25.03280,85.41948,SO2,3,5,4
India,Bihar,Saharsa,"Police Line, Saharsa - BSPCB",06-06-2024 20:00:00,25.892357,86.590325,PM2.5,NA,NA,NA
India,Bihar,Saharsa,"Police Line, Saharsa - BSPCB",06-06-2024 20:00:00,25.892357,86.590325,NH3,9,9,9
India,Bihar,Saharsa,"Police Line, Saharsa - BSPCB",06-06-2024 20:00:00,25.892357,86.590325,SO2,16,16,16
India,Bihar,Saharsa,"Police Line, Saharsa - BSPCB",06-06-2024 20:00:00,25.892357,86.590325,CO,54,54,54
India,Bihar,Samastipur,"DM Office_Kasipur, Samastipur - BSPCB",06-06-2024 20:00:00,25.859655,85.77944,NO2,4,5,4
India,Bihar,Siwan,"Chitragupta Nagar, Siwan - BSPCB",06-06-2024 20:00:00,26.2271665,84.3570427,NH3,1,18,2
India,Bihar,Siwan,"Chitragupta Nagar, Siwan - BSPCB",06-06-2024 20:00:00,26.2271665,84.3570427,SO2,19,36,30
India,Bihar,Siwan,"Chitragupta Nagar, Siwan - BSPCB",06-06-2024 20:00:00,26.2271665,84.3570427,OZONE,7,81,50
India,Chandigarh,Chandigarh,"Sector 22, Chandigarh - CPCC",06-06-2024 20:00:00,30.735567,76.775714,NH3,7,19,10
India,Chandigarh,Chandigarh,"Sector-53, Chandigarh - CPCC",06-06-2024 20:00:00,30.719859,76.738637,PM2.5,25,257,53
India,Chhattisgarh,Bhilai,"32Bungalows, Bhilai - CECB",06-06-2024 20:00:00,21.194815,81.314770,NO2,10,17,14
India,Chhattisgarh,Bhilai,"Civic Center, Bhilai - Bhilai Steel Plant",06-06-2024 20:00:00,21.185571,81.343175,PM2.5,22,41,29
India,Chhattisgarh,Bhilai,"Civic Center, Bhilai - Bhilai Steel Plant",06-06-2024 20:00:00,21.185571,81.343175,CO,32,62,42
India,Chhattisgarh,Bhilai,"Hathkhoj, Bhilai - CECB",06-06-2024 20:00:00,21.224231,81.408350,PM2.5,12,44,30
India,Chhattisgarh,Chhal,"Nawapara SECL Colony, Chhal - CECB",06-06-2024 20:00:00,22.118125,83.140608,SO2,6,43,18
India,Chhattisgarh,Kunjemura,"OP Jindal School, Kunjemura - CECB",06-06-2024 20:00:00,22.126650,83.483212,PM10,32,153,92
India,Chhattisgarh,Kunjemura,"OP Jindal School, Kunjemura - CECB",06-06-2024 20:00:00,22.126650,83.483212,SO2,1,8,4
India,Chhattisgarh,Milupara,"Govt. Higher Secondary School, Milupara - CECB",06-06-2024 20:00:00,22.1910172,83.5197009,PM10,NA,NA,NA
India,Chhattisgarh,Milupara,"Govt. Higher Secondary School, Milupara - CECB",06-06-2024 20:00:00,22.1910172,83.5197009,CO,5,14,9
India,Chhattisgarh,Milupara,"Govt. Higher Secondary School, Milupara - CECB",06-06-2024 20:00:00,22.1910172,83.5197009,OZONE,43,52,49
India,Chhattisgarh,Raipur,"AIIMS, Raipur - CECB",06-06-2024 20:00:00,21.258815,81.578979,PM10,39,71,51
India,Chhattisgarh,Raipur,"AIIMS, Raipur - CECB",06-06-2024 20:00:00,21.258815,81.578979,SO2,3,17,6
India,Delhi,Delhi,"Alipur, Delhi - DPCC",06-06-2024 20:00:00,28.815329,77.153010,CO,34,58,45
India,Delhi,Delhi,"Anand Vihar, Delhi - DPCC",06-06-2024 20:00:00,28.647622,77.3158090,PM2.5,13,305,133
India,Delhi,Delhi,"Anand Vihar, Delhi - DPCC",06-06-2024 20:00:00,28.647622,77.3158090,SO2,9,25,18
India,Delhi,Delhi,"Ashok Vihar, Delhi - DPCC",06-06-2024 20:00:00,28.695381,77.181665,PM2.5,38,213,74
India,Delhi,Delhi,"Ashok Vihar, Delhi - DPCC",06-06-2024 20:00:00,28.695381,77.181665,PM10,83,491,136
India,Delhi,Delhi,"Ashok Vihar, Delhi - DPCC",06-06-2024 20:00:00,28.695381,77.181665,NH3,13,18,16
India,Delhi,Delhi,"Ashok Vihar, Delhi - DPCC",06-06-2024 20:00:00,28.695381,77.181665,CO,14,54,38
India,Delhi,Delhi,"Aya Nagar, Delhi - IMD",06-06-2024 20:00:00,28.4706914,77.1099364,NO2,10,31,13
India,Delhi,Delhi,"Bawana, Delhi - DPCC",06-06-2024 20:00:00,28.776200,77.051074,PM2.5,50,326,89
India,Delhi,Delhi,"Bawana, Delhi - DPCC",06-06-2024 20:00:00,28.776200,77.051074,CO,31,80,36
India,Delhi,Delhi,"Bawana, Delhi - DPCC",06-06-2024 20:00:00,28.776200,77.051074,OZONE,10,159,124
India,Delhi,Delhi,"Burari Crossing, Delhi - IMD",06-06-2024 20:00:00,28.7256504,77.2011573,PM10,106,331,136
India,Delhi,Delhi,"Burari Crossing, Delhi - IMD",06-06-2024 20:00:00,28.7256504,77.2011573,NO2,12,17,16
India,Delhi,Delhi,"CRRI Mathura Road, Delhi - IMD",06-06-2024 20:00:00,28.5512005,77.2735737,PM10,65,406,142
India,Delhi,Delhi,"CRRI Mathura Road, Delhi - IMD",06-06-2024 20:00:00,28.5512005,77.2735737,OZONE,4,99,67
India,Delhi,Delhi,"Chandni Chowk, Delhi - IITM",06-06-2024 20:00:00,28.656756,77.227234,CO,52,80,62
India,Delhi,Delhi,"DTU, Delhi - CPCB",06-06-2024 20:00:00,28.7500499,77.1112615,NH3,13,20,16
India,Delhi,Delhi,"DTU, Delhi - CPCB",06-06-2024 20:00:00,28.7500499,77.1112615,CO,32,54,35
India,Delhi,Delhi,"Dr. Karni Singh Shooting Range, Delhi - DPCC",06-06-2024 20:00:00,28.498571,77.264840,PM10,88,470,149
India,Delhi,Delhi,"Dr. Karni Singh Shooting Range, Delhi - DPCC",06-06-2024 20:00:00,28.498571,77.264840,NO2,23,88,39
India,Delhi,Delhi,"Dwarka-Sector 8, Delhi - DPCC ",06-06-2024 20:00:00,28.5710274,77.0719006,NO2,8,68,27
India,Delhi,Delhi,"Dwarka-Sector 8, Delhi - DPCC ",06-06-2024 20:00:00,28.5710274,77.0719006,NH3,6,11,8
India,Delhi,Delhi,"IHBAS, Dilshad Garden, Delhi - CPCB",06-06-2024 20:00:00,28.6811736,77.3025234,PM2.5,68,241,126
India,Delhi,Delhi,"IHBAS, Dilshad Garden, Delhi - CPCB",06-06-2024 20:00:00,28.6811736,77.3025234,PM10,78,477,139
India,Delhi,Delhi,"IHBAS, Dilshad Garden, Delhi - CPCB",06-06-2024 20:00:00,28.6811736,77.3025234,OZONE,16,38,27
India,Delhi,Delhi,"Jawaharlal Nehru Stadium, Delhi - DPCC",06-06-2024 20:00:00,28.580280,77.233829,PM2.5,33,147,54
India,Delhi,Delhi,"Jawaharlal Nehru Stadium, Delhi - DPCC",06-06-2024 20:00:00,28.580280,77.233829,SO2,12,24,17
India,Delhi,Delhi,"Major Dhyan Chand National Stadium, Delhi - DPCC",06-06-2024 20:00:00,28.611281,77.237738,NO2,20,84,42
India,Delhi,Delhi,"Major Dhyan Chand National Stadium, Delhi - DPCC",06-06-2024 20:00:00,28.611281,77.237738,NH3,7,11,9
India,Delhi,Delhi,"Mandir Marg, Delhi - DPCC",06-06-2024 20:00:00,28.636429,77.201067,NO2,60,88,77
India,Delhi,Delhi,"NSIT Dwarka, Delhi - CPCB",06-06-2024 20:00:00,28.60909,77.0325413,NH3,1,7,3
India,Delhi,Delhi,"Narela, Delhi - DPCC",06-06-2024 20:00:00,28.822836,77.101981,CO,30,80,37
India,Delhi,Delhi,"Nehru Nagar, Delhi - DPCC",06-06-2024 20:00:00,28.567890,77.250515,OZONE,13,274,194
India,Delhi,Delhi,"New Moti Bagh, Delhi - MHUA",06-06-2024 20:00:00,28.57834,77.18400,PM2.5,38,337,115
India,Delhi,Delhi,"New Moti Bagh, Delhi - MHUA",06-06-2024 20:00:00,28.57834,77.18400,NO2,5,26,11
India,Delhi,Delhi,"Okhla Phase-2, Delhi - DPCC",06-06-2024 20:00:00,28.530785,77.271255,NH3,8,14,11
India,Delhi,Delhi,"Okhla Phase-2, Delhi - DPCC",06-06-2024 20:00:00,28.530785,77.271255,CO,34,111,74
India,Delhi,Delhi,"Patparganj, Delhi - DPCC",06-06-2024 20:00:00,28.623763,77.287209,PM2.5,47,302,97
India,Delhi,Delhi,"Patparganj, Delhi - DPCC",06-06-2024 20:00:00,28.623763,77.287209,NH3,8,11,10
India,Delhi,Delhi,"Patparganj, Delhi - DPCC",06-06-2024 20:00:00,28.623763,77.287209,SO2,10,25,17
India,Delhi,Delhi,"Punjabi Bagh, Delhi - DPCC",06-06-2024 20:00:00,28.674045,77.131023,PM2.5,47,297,99
India,Delhi,Delhi,"Punjabi Bagh, Delhi - DPCC",06-06-2024 20:00:00,28.674045,77.131023,NH3,4,8,6
India,Delhi,Delhi,"Pusa, Delhi - DPCC",06-06-2024 20:00:00,28.639652,77.146275,NO2,32,94,62
India,Delhi,Delhi,"R K Puram, Delhi - DPCC",06-06-2024 20:00:00,28.563262,77.186937,PM10,89,466,155
India,Delhi,Delhi,"Rohini, Delhi - DPCC",06-06-2024 20:00:00,28.732528,77.119920,NH3,11,16,13
India,Delhi,Delhi,"Rohini, Delhi - DPCC",06-06-2024 20:00:00,28.732528,77.119920,SO2,11,24,17
India,Delhi,Delhi,"Shadipur, Delhi - CPCB",06-06-2024 20:00:00,28.6514781,77.1473105,PM2.5,94,500,234
India,Delhi,Delhi,"Shadipur, Delhi - CPCB",06-06-2024 20:00:00,28.6514781,77.1473105,NH3,6,10,8
India,Delhi,Delhi,"Sirifort, Delhi - CPCB",06-06-2024 20:00:00,28.5504249,77.2159377,PM2.5,57,212,91
India,Delhi,Delhi,"Sirifort, Delhi - CPCB",06-06-2024 20:00:00,28.5504249,77.2159377,SO2,42,43,42
India,Delhi,Delhi,"Sonia Vihar, Delhi - DPCC",06-06-2024 20:00:00,28.710508,77.249485,PM10,81,360,136
India,Delhi,Delhi,"Sri Aurobindo Marg, Delhi - DPCC",06-06-2024 20:00:00,28.531346,77.190156,PM10,102,402,152
India,Delhi,Delhi,"Sri Aurobindo Marg, Delhi - DPCC",06-06-2024 20:00:00,28.531346,77.190156,OZONE,1,158,105
India,Delhi,Delhi,"Vivek Vihar, Delhi - DPCC",06-06-2024 20:00:00,28.672342,77.315260,NO2,11,58,31
India,Delhi,Delhi,"Vivek Vihar, Delhi - DPCC",06-06-2024 20:00:00,28.672342,77.315260,OZONE,7,142,121
India,Delhi,Delhi,"Wazirpur, Delhi - DPCC",06-06-2024 20:00:00,28.699793,77.165453,PM10,96,307,134
India,Delhi,Delhi,"Wazirpur, Delhi - DPCC",06-06-2024 20:00:00,28.699793,77.165453,NO2,27,48,34
India,Gujarat,Ahmedabad,"Gyaspur, Ahmedabad - IITM",06-06-2024 20:00:00,22.977134,72.553024,NH3,4,7,5
India,Gujarat,Ahmedabad,"Raikhad, Ahmedabad - IITM",06-06-2024 20:00:00,23.020509,72.579261,NO2,60,61,61
India,Gujarat,Ahmedabad,"Raikhad, Ahmedabad - IITM",06-06-2024 20:00:00,23.020509,72.579261,CO,2,35,9
India,Gujarat,Ahmedabad,"Rakhial, Ahmedabad - IITM",06-06-2024 20:00:00,23.016834,72.625775,PM2.5,31,64,46
India,Gujarat,Ahmedabad,"Rakhial, Ahmedabad - IITM",06-06-2024 20:00:00,23.016834,72.625775,SO2,13,63,29
India,Gujarat,Ahmedabad,"Rakhial, Ahmedabad - IITM",06-06-2024 20:00:00,23.016834,72.625775,OZONE,2,90,74
India,Gujarat,Ahmedabad,"Sardar Vallabhbhai Patel Stadium, Ahmedabad - IITM",06-06-2024 20:00:00,23.043070,72.562968,NO2,34,38,37
India,Gujarat,Ankleshwar,"GIDC, Ankleshwar - GPCB",06-06-2024 20:00:00,21.613267,73.010555,PM10,43,61,52
India,Gujarat,Ankleshwar,"GIDC, Ankleshwar - GPCB",06-06-2024 20:00:00,21.613267,73.010555,OZONE,21,30,26
India,Gujarat,Vapi,"Phase-1 GIDC, Vapi - GPCB",06-06-2024 20:00:00,20.362421,72.918013,NO2,6,7,7
India,Gujarat,Vatva,"Phase-4 GIDC, Vatva - GPCB",06-06-2024 20:00:00,22.969611,72.643500,PM2.5,15,42,24
India,Gujarat,Vatva,"Phase-4 GIDC, Vatva - GPCB",06-06-2024 20:00:00,22.969611,72.643500,OZONE,24,30,29
India,Haryana,Ambala,"Patti Mehar, Ambala - HSPCB",06-06-2024 20:00:00,30.379589,76.778328,PM10,NA,NA,NA
India,Haryana,Ambala,"Patti Mehar, Ambala - HSPCB",06-06-2024 20:00:00,30.379589,76.778328,NH3,NA,NA,NA
India,Haryana,Bahadurgarh,"Arya Nagar, Bahadurgarh - HSPCB",06-06-2024 20:00:00,28.6701,76.9254,PM10,90,485,144
India,Haryana,Bahadurgarh,"Arya Nagar, Bahadurgarh - HSPCB",06-06-2024 20:00:00,28.6701,76.9254,NH3,8,9,9
India,Haryana,Bahadurgarh,"Arya Nagar, Bahadurgarh - HSPCB",06-06-2024 20:00:00,28.6701,76.9254,SO2,3,10,6
India,Haryana,Ballabgarh,"Nathu Colony, Ballabgarh - HSPCB",06-06-2024 20:00:00,28.3419248,77.319699,PM10,57,216,125
India,Haryana,Bhiwani,"H.B. Colony, Bhiwani - HSPCB",06-06-2024 20:00:00,28.806223,76.141105,OZONE,9,39,11
India,Haryana,Dharuhera,"Municipal Corporation Office, Dharuhera -  HSPCB",06-06-2024 20:00:00,28.206800,76.799700,PM2.5,99,205,146
India,Haryana,Dharuhera,"Municipal Corporation Office, Dharuhera -  HSPCB",06-06-2024 20:00:00,28.206800,76.799700,NO2,45,111,72
India,Haryana,Dharuhera,"Municipal Corporation Office, Dharuhera -  HSPCB",06-06-2024 20:00:00,28.206800,76.799700,SO2,6,15,9
India,Haryana,Faridabad,"New Industrial Town, Faridabad - HSPCB",06-06-2024 20:00:00,28.39072,77.30059,NH3,2,3,3
India,Haryana,Faridabad,"Sector 11, Faridabad - HSPCB",06-06-2024 20:00:00,28.376058,77.315741,NO2,30,33,31
India,Haryana,Faridabad,"Sector 30, Faridabad - HSPCB",06-06-2024 20:00:00,28.4417,77.3217,NO2,3,4,4
India,Haryana,Faridabad,"Sector 30, Faridabad - HSPCB",06-06-2024 20:00:00,28.4417,77.3217,NH3,4,4,4
India,Haryana,Faridabad,"Sector 30, Faridabad - HSPCB",06-06-2024 20:00:00,28.4417,77.3217,OZONE,12,84,59
India,Haryana,Faridabad,"Sector- 16A, Faridabad - HSPCB",06-06-2024 20:00:00,28.4088421,77.3099081,NO2,4,16,8
India,Haryana,Faridabad,"Sector- 16A, Faridabad - HSPCB",06-06-2024 20:00:00,28.4088421,77.3099081,OZONE,14,14,14
India,Haryana,Fatehabad,"Huda Sector, Fatehabad - HSPCB",06-06-2024 20:00:00,29.503664,75.467934,PM10,NA,NA,NA
India,Haryana,Fatehabad,"Huda Sector, Fatehabad - HSPCB",06-06-2024 20:00:00,29.503664,75.467934,NH3,NA,NA,NA
India,Haryana,Gurugram,"NISE Gwal Pahari, Gurugram - IMD",06-06-2024 20:00:00,28.422681,77.148944,NO2,NA,NA,NA
India,Haryana,Gurugram,"Sector-51, Gurugram - HSPCB",06-06-2024 20:00:00,28.4227,77.0667,OZONE,29,38,35
India,Haryana,Gurugram,"Teri Gram, Gurugram - HSPCB",06-06-2024 20:00:00,28.4275,77.1465,PM10,83,180,123
India,Haryana,Gurugram,"Teri Gram, Gurugram - HSPCB",06-06-2024 20:00:00,28.4275,77.1465,CO,13,34,25
India,Haryana,Gurugram,"Vikas Sadan, Gurugram - HSPCB",06-06-2024 20:00:00,28.4501238,77.0263051,CO,54,148,112
India,Haryana,Hisar,"Urban Estate-II, Hisar - HSPCB",06-06-2024 20:00:00,29.140560,75.744941,NH3,NA,NA,NA
India,Haryana,Jind,"Police Lines, Jind - HSPCB",06-06-2024 20:00:00,29.307814,76.337619,OZONE,12,58,42
India,Haryana,Kaithal,"Rishi Nagar, Kaithal - HSPCB",06-06-2024 20:00:00,29.8006,76.4155,PM10,40,500,136
India,Haryana,Karnal,"Sector-12, Karnal - HSPCB",06-06-2024 20:00:00,29.695300,77.002700,PM2.5,55,158,85
India,Haryana,Karnal,"Sector-12, Karnal - HSPCB",06-06-2024 20:00:00,29.695300,77.002700,OZONE,28,33,31
India,Haryana,Kurukshetra,"Sector-7, Kurukshetra - HSPCB",06-06-2024 20:00:00,29.966942,76.875879,NO2,10,10,10
India,Haryana,Mandikhera,"General Hospital, Mandikhera - HSPCB",06-06-2024 20:00:00,27.9002,76.9938,OZONE,20,34,25
India,Haryana,Manesar,"Sector-2 IMT, Manesar - HSPCB",06-06-2024 20:00:00,28.360699,76.936090,PM2.5,49,123,70
India,Haryana,Manesar,"Sector-2 IMT, Manesar - HSPCB",06-06-2024 20:00:00,28.360699,76.936090,NH3,2,4,3
India,Haryana,Narnaul,"Shastri Nagar, Narnaul - HSPCB",06-06-2024 20:00:00,28.060249,76.113115,PM10,37,124,70
India,Haryana,Narnaul,"Shastri Nagar, Narnaul - HSPCB",06-06-2024 20:00:00,28.060249,76.113115,NH3,5,27,15
India,Haryana,Palwal,"Shyam Nagar, Palwal - HSPCB",06-06-2024 20:00:00,28.1485564,77.3320667,NH3,8,9,9
India,Haryana,Palwal,"Shyam Nagar, Palwal - HSPCB",06-06-2024 20:00:00,28.1485564,77.3320667,CO,18,34,24
India,Haryana,Palwal,"Shyam Nagar, Palwal - HSPCB",06-06-2024 20:00:00,28.1485564,77.3320667,OZONE,31,213,51
India,Haryana,Sirsa,"F-Block, Sirsa - HSPCB",06-06-2024 20:00:00,29.536400,75.015800,OZONE,10,147,124
India,Haryana,Sonipat,"Murthal, Sonipat - HSPCB",06-06-2024 20:00:00,29.027200,77.062100,NO2,37,44,40
India,Haryana,Sonipat,"Murthal, Sonipat - HSPCB",06-06-2024 20:00:00,29.027200,77.062100,OZONE,16,36,33
India,Haryana,Yamuna Nagar,"Gobind Pura, Yamuna Nagar - HSPCB",06-06-2024 20:00:00,30.1480566,77.2893471,NO2,11,21,16
India,Haryana,Yamuna Nagar,"Gobind Pura, Yamuna Nagar - HSPCB",06-06-2024 20:00:00,30.1480566,77.2893471,SO2,2,82,13
India,Haryana,Yamuna Nagar,"Gobind Pura, Yamuna Nagar - HSPCB",06-06-2024 20:00:00,30.1480566,77.2893471,CO,14,84,31
India,Haryana,Yamuna Nagar,"Gobind Pura, Yamuna Nagar - HSPCB",06-06-2024 20:00:00,30.1480566,77.2893471,OZONE,15,23,20
India,Jharkhand,Dhanbad,"Kalakusuma, Dhanbad - DMC",06-06-2024 20:00:00,23.811548,86.481238,SO2,NA,NA,NA
India,Karnataka,Bagalkot,"Vidayagiri, Bagalkot - KSPCB",06-06-2024 20:00:00,16.172806,75.659694,NH3,1,2,1
India,Karnataka,Belgaum,"Ramteerth Nagar, Belgaum - KSPCB",06-06-2024 20:00:00,15.888653,74.541751,PM2.5,10,46,15
India,Karnataka,Belgaum,"Ramteerth Nagar, Belgaum - KSPCB",06-06-2024 20:00:00,15.888653,74.541751,NH3,1,11,8
India,Karnataka,Belgaum,"Ramteerth Nagar, Belgaum - KSPCB",06-06-2024 20:00:00,15.888653,74.541751,CO,40,57,47
India,Karnataka,Bengaluru,"Bapuji Nagar, Bengaluru - KSPCB",06-06-2024 20:00:00,12.951913,77.539784,CO,12,64,26
India,Karnataka,Bengaluru,"Hebbal, Bengaluru - KSPCB",06-06-2024 20:00:00,13.029152,77.585901,PM10,9,37,21
India,Karnataka,Bengaluru,"Hebbal, Bengaluru - KSPCB",06-06-2024 20:00:00,13.029152,77.585901,NO2,4,5,5
India,Karnataka,Bengaluru,"Hebbal, Bengaluru - KSPCB",06-06-2024 20:00:00,13.029152,77.585901,SO2,10,27,18
India,Karnataka,Bengaluru,"Hebbal, Bengaluru - KSPCB",06-06-2024 20:00:00,13.029152,77.585901,CO,6,26,19
India,Karnataka,Bengaluru,"Hombegowda Nagar, Bengaluru - KSPCB",06-06-2024 20:00:00,12.938539,77.590100,NO2,10,25,16
India,Karnataka,Bengaluru,"Hombegowda Nagar, Bengaluru - KSPCB",06-06-2024 20:00:00,12.938539,77.590100,CO,14,44,17
India,Karnataka,Bengaluru,"Jayanagar 5th Block, Bengaluru - KSPCB",06-06-2024 20:00:00,12.920984,77.584908,PM10,10,32,21
India,Karnataka,Bengaluru,"Jayanagar 5th Block, Bengaluru - KSPCB",06-06-2024 20:00:00,12.920984,77.584908,SO2,12,36,22
India,Karnataka,Bengaluru,"Jayanagar 5th Block, Bengaluru - KSPCB",06-06-2024 20:00:00,12.920984,77.584908,OZONE,14,28,18
India,Karnataka,Bengaluru,"Jigani, Bengaluru - KSPCB",06-06-2024 20:00:00,12.7816279,77.6299145,PM2.5,38,41,40
India,Karnataka,Bengaluru,"Jigani, Bengaluru - KSPCB",06-06-2024 20:00:00,12.7816279,77.6299145,NH3,4,5,5
India,Karnataka,Bengaluru,"Kasturi Nagar, Bengaluru - KSPCB",06-06-2024 20:00:00,13.003872,77.664217,PM10,40,57,47
India,Karnataka,Bengaluru,"Peenya, Bengaluru - CPCB",06-06-2024 20:00:00,13.0270199,77.494094,NH3,3,4,3
India,Karnataka,Bengaluru,"Peenya, Bengaluru - CPCB",06-06-2024 20:00:00,13.0270199,77.494094,CO,78,85,80
India,Karnataka,Bengaluru,"Sanegurava Halli, Bengaluru - KSPCB",06-06-2024 20:00:00,12.990328,77.5431385,PM10,34,61,38
India,Karnataka,Bengaluru,"Shivapura_Peenya, Bengaluru - KSPCB",06-06-2024 20:00:00,13.0246342,77.5080115,NO2,15,16,15
India,Karnataka,Bengaluru,"Shivapura_Peenya, Bengaluru - KSPCB",06-06-2024 20:00:00,13.0246342,77.5080115,OZONE,53,55,54
India,Karnataka,Bengaluru,"Silk Board, Bengaluru - KSPCB",06-06-2024 20:00:00,12.917348,77.622813,NH3,1,1,1
India,Karnataka,Bengaluru,"Silk Board, Bengaluru - KSPCB",06-06-2024 20:00:00,12.917348,77.622813,SO2,7,13,10
India,Karnataka,Chikkaballapur,"Chikkaballapur Rural, Chikkaballapur - KSPCB",06-06-2024 20:00:00,13.428828,77.731418,PM2.5,4,27,12
India,Karnataka,Davanagere,"Devaraj Urs Badavane, Davanagere - KSPCB",06-06-2024 20:00:00,14.475800,75.905200,PM2.5,2,43,20
India,Karnataka,Dharwad,"Kalabhavan, Dharwad - KSPCB",06-06-2024 20:00:00,15.459706,75.008381,PM10,23,66,42
India,Karnataka,Dharwad,"Kalabhavan, Dharwad - KSPCB",06-06-2024 20:00:00,15.459706,75.008381,NH3,3,3,3
India,Karnataka,Dharwad,"Kalabhavan, Dharwad - KSPCB",06-06-2024 20:00:00,15.459706,75.008381,OZONE,27,32,27
India,Karnataka,Gadag,"Panchal Nagar, Gadag - KSPCB",06-06-2024 20:00:00,15.411456,75.638133,PM2.5,2,23,9
India,Karnataka,Gadag,"Panchal Nagar, Gadag - KSPCB",06-06-2024 20:00:00,15.411456,75.638133,OZONE,8,15,10
India,Karnataka,Haveri,"Ashwini Nagar, Haveri - KSPCB",06-06-2024 20:00:00,14.791800,75.389600,PM2.5,5,26,15
India,Karnataka,Haveri,"Ashwini Nagar, Haveri - KSPCB",06-06-2024 20:00:00,14.791800,75.389600,CO,38,40,38
India,Karnataka,Hubballi,"Lingaraj Nagar, Hubballi - KSPCB",06-06-2024 20:00:00,15.3714823,75.1160168,NO2,11,21,16
India,Karnataka,Kalaburagi,"Lal Bahadur Shastri Nagar, Kalaburagi - KSPCB",06-06-2024 20:00:00,17.321993,76.822628,NH3,NA,NA,NA
India,Karnataka,Kalaburagi,"Mahatma Basaveswar Colony, Kalaburgi - KSPCB",06-06-2024 20:00:00,17.336318,76.847397,SO2,NA,NA,NA
India,Karnataka,Karwar,"KHB Colony, Karwar - KSPCB",06-06-2024 20:00:00,14.816666,74.141003,PM10,5,36,16
India,Karnataka,Karwar,"KHB Colony, Karwar - KSPCB",06-06-2024 20:00:00,14.816666,74.141003,SO2,22,24,23
India,Karnataka,Kolar,"Tamaka Ind. Area, Kolar - KSPCB",06-06-2024 20:00:00,13.1276288,78.1570122,NH3,7,14,10
India,Karnataka,Kolar,"Tamaka Ind. Area, Kolar - KSPCB",06-06-2024 20:00:00,13.1276288,78.1570122,SO2,10,16,11
India,Karnataka,Koppal,"Diwator Nagar, Koppal - KSPCB",06-06-2024 20:00:00,15.347630,76.181767,PM2.5,NA,NA,NA
India,Karnataka,Koppal,"Diwator Nagar, Koppal - KSPCB",06-06-2024 20:00:00,15.347630,76.181767,CO,6,6,6
India,Karnataka,Madikeri,"Stuart Hill, Madikeri - KSPCB",06-06-2024 20:00:00,12.415911,75.735050,OZONE,11,18,16
India,Karnataka,Mysuru,"Hebbal 1st Stage, Mysuru - KSPCB",06-06-2024 20:00:00,12.21041,76.37376,OZONE,8,52,40
India,Karnataka,Ramanagara,"Vijay Nagar, Ramanagara - KSPCB",06-06-2024 20:00:00,12.733409,77.298051,PM10,NA,NA,NA
India,Karnataka,Ramanagara,"Vijay Nagar, Ramanagara - KSPCB",06-06-2024 20:00:00,12.733409,77.298051,SO2,NA,NA,NA
India,Karnataka,Tumakuru,"Thimmalapura, Tumakuru - KSPCB",06-06-2024 20:00:00,13.377516,77.099072,PM2.5,12,49,28
India,Karnataka,Tumakuru,"Thimmalapura, Tumakuru - KSPCB",06-06-2024 20:00:00,13.377516,77.099072,PM10,28,500,86
India,Karnataka,Tumakuru,"Thimmalapura, Tumakuru - KSPCB",06-06-2024 20:00:00,13.377516,77.099072,CO,30,34,31
India,Karnataka,Tumakuru,"Thimmalapura, Tumakuru - KSPCB",06-06-2024 20:00:00,13.377516,77.099072,OZONE,8,27,22
India,Karnataka,Udupi,"Brahmagiri, Udupi - KSPCB",06-06-2024 20:00:00,13.34194444,74.74694444,NH3,1,3,1
India,Karnataka,Udupi,"Brahmagiri, Udupi - KSPCB",06-06-2024 20:00:00,13.34194444,74.74694444,CO,50,56,51
India,Karnataka,Yadgir,"Collector Office, Yadgir - KSPCB",06-06-2024 20:00:00,16.7602,77.1428,PM2.5,7,40,19
India,Karnataka,Yadgir,"Collector Office, Yadgir - KSPCB",06-06-2024 20:00:00,16.7602,77.1428,CO,16,28,23
India,Kerala,Thiruvananthapuram,"Kariavattom, Thiruvananthapuram - Kerala PCB",06-06-2024 20:00:00,8.563700,76.886500,PM2.5,37,48,42
India,Kerala,Thiruvananthapuram,"Plammoodu, Thiruvananthapuram - Kerala PCB",06-06-2024 20:00:00,8.5149093,76.9435879,PM2.5,NA,NA,NA
India,Kerala,Thrissur,"Corporation Ground, Thrissur - Kerala PCB",06-06-2024 20:00:00,10.532400,76.215900,PM10,62,67,64
India,Kerala,Thrissur,"Corporation Ground, Thrissur - Kerala PCB",06-06-2024 20:00:00,10.532400,76.215900,SO2,NA,NA,NA
India,Kerala,Thrissur,"Corporation Ground, Thrissur - Kerala PCB",06-06-2024 20:00:00,10.532400,76.215900,CO,20,68,38
India,Madhya Pradesh,Bhopal,"Idgah Hills, Bhopal - MPPCB",06-06-2024 20:00:00,23.264759,77.381568,PM10,78,138,104
India,Madhya Pradesh,Bhopal,"Idgah Hills, Bhopal - MPPCB",06-06-2024 20:00:00,23.264759,77.381568,NH3,4,9,6
India,Madhya Pradesh,Bhopal,"Idgah Hills, Bhopal - MPPCB",06-06-2024 20:00:00,23.264759,77.381568,SO2,1,16,5
India,Madhya Pradesh,Bhopal,"Paryavaran Parisar, Bhopal - MPPCB",06-06-2024 20:00:00,23.210494,77.425409,OZONE,10,111,90
India,Madhya Pradesh,Dewas,"Bhopal Chauraha, Dewas - MPPCB",06-06-2024 20:00:00,22.9682591,76.064118,OZONE,5,26,22
India,Madhya Pradesh,Gwalior,"City Center, Gwalior - MPPCB",06-06-2024 20:00:00,26.203442,78.193251,PM10,19,170,64
