country,state,city,station,last_update,latitude,longitude,pollutant_id,pollutant_min,pollutant_max,pollutant_avg
India,Andhra_Pradesh,Amaravati,"Secretariat, Amaravati - APPCB",13-01-2024 03:00:00,16.5150833,80.5181667,PM10,126,158,141
India,Andhra_Pradesh,Amaravati,"Secretariat, Amaravati - APPCB",13-01-2024 03:00:00,16.5150833,80.5181667,NO2,15,36,22
India,Andhra_Pradesh,Anantapur,"Gulzarpet, Anantapur - APPCB",13-01-2024 03:00:00,14.675886,77.593027,SO2,NA,NA,NA
India,Andhra_Pradesh,Rajamahendravaram,"Anand Kala Kshetram, Rajamahendravaram - APPCB",13-01-2024 03:00:00,16.9872867,81.7363176,PM2.5,255,328,302
India,Andhra_Pradesh,Rajamahendravaram,"Anand Kala Kshetram, Rajamahendravaram - APPCB",13-01-2024 03:00:00,16.9872867,81.7363176,PM10,138,201,167
India,Andhra_Pradesh,Rajamahendravaram,"Anand Kala Kshetram, Rajamahendravaram - APPCB",13-01-2024 03:00:00,16.9872867,81.7363176,NH3,4,7,5
India,Andhra_Pradesh,Rajamahendravaram,"Anand Kala Kshetram, Rajamahendravaram - APPCB",13-01-2024 03:00:00,16.9872867,81.7363176,SO2,10,68,28
India,Andhra_Pradesh,Tirupati,"Vaikuntapuram, Tirupati - APPCB",13-01-2024 03:00:00,13.615387,79.409230,PM2.5,20,69,32
India,Andhra_Pradesh,Tirupati,"Vaikuntapuram, Tirupati - APPCB",13-01-2024 03:00:00,13.615387,79.409230,PM10,20,70,32
India,Andhra_Pradesh,Tirupati,"Vaikuntapuram, Tirupati - APPCB",13-01-2024 03:00:00,13.615387,79.409230,CO,8,16,13
India,Andhra_Pradesh,Vijayawada,"HB Colony, Vijayawada - APPCB",13-01-2024 03:00:00,16.536107,80.594233,PM2.5,49,155,69
India,Andhra_Pradesh,Vijayawada,"Kanuru, Vijayawada - APPCB",13-01-2024 03:00:00,16.486692,80.699436,PM10,63,285,117
India,Andhra_Pradesh,Vijayawada,"Rajiv Gandhi Park, Vijayawada - APPCB",13-01-2024 03:00:00,16.509717,80.612222,NO2,NA,NA,NA
India,Andhra_Pradesh,Vijayawada,"Rajiv Gandhi Park, Vijayawada - APPCB",13-01-2024 03:00:00,16.509717,80.612222,SO2,8,35,19
India,Andhra_Pradesh,Visakhapatnam,"GVM Corporation, Visakhapatnam - APPCB",13-01-2024 03:00:00,17.72,83.3,PM2.5,206,329,249
India,Assam,Byrnihat,"Central Academy for SFS, Byrnihat - PCBA",13-01-2024 03:00:00,26.071318,91.87488,NO2,49,107,79
India,Assam,Byrnihat,"Central Academy for SFS, Byrnihat - PCBA",13-01-2024 03:00:00,26.071318,91.87488,SO2,14,17,16
India,Assam,Guwahati,"IITG, Guwahati - PCBA",13-01-2024 03:00:00,26.2028636,91.70046436,NO2,NA,NA,NA
India,Assam,Guwahati,"IITG, Guwahati - PCBA",13-01-2024 03:00:00,26.2028636,91.70046436,SO2,NA,NA,NA
India,Assam,Guwahati,"LGBI Airport, Guwahati - PCBA",13-01-2024 03:00:00,26.10887,91.589544,NO2,12,63,29
India,Assam,Guwahati,"Pan Bazaar, Guwahati - PCBA",13-01-2024 03:00:00,26.187500,91.744194,PM10,152,313,187
India,Assam,Guwahati,"Pan Bazaar, Guwahati - PCBA",13-01-2024 03:00:00,26.187500,91.744194,CO,44,106,92
India,Assam,Guwahati,"Railway Colony, Guwahati - PCBA",13-01-2024 03:00:00,26.181742,91.78063,PM2.5,NA,NA,NA
India,Assam,Nagaon,"Christianpatty, Nagaon - PCBA",13-01-2024 03:00:00,26.349082,92.68449,OZONE,4,49,5
India,Assam,Nalbari,"Bata Chowk, Nalbari - PCBA",13-01-2024 03:00:00,26.446912,91.439057,SO2,4,7,6
India,Assam,Silchar,"Tarapur, Silchar - PCBA",13-01-2024 03:00:00,24.82827,92.79525,NH3,1,1,1
India,Assam,Sivasagar,"Girls College, Sivasagar - PCBA",13-01-2024 03:00:00,26.987634,94.636574,NO2,10,35,24
India,Assam,Sivasagar,"Girls College, Sivasagar - PCBA",13-01-2024 03:00:00,26.987634,94.636574,CO,8,40,30
India,Assam,Sivasagar,"Girls College, Sivasagar - PCBA",13-01-2024 03:00:00,26.987634,94.636574,OZONE,1,27,1
India,Bihar,Aurangabad,"Gurdeo Nagar, Aurangabad - BSPCB",13-01-2024 03:00:00,24.75746,84.366208,PM2.5,23,90,48
India,Bihar,Bettiah,"Kamalnath Nagar, Bettiah - BSPCB",13-01-2024 03:00:00,26.80365,84.51954,PM10,22,107,60
India,Bihar,Bettiah,"Kamalnath Nagar, Bettiah - BSPCB",13-01-2024 03:00:00,26.80365,84.51954,NH3,3,4,3
India,Bihar,Bhagalpur,"DM Office_Kachari Chowk, Bhagalpur - BSPCB",13-01-2024 03:00:00,25.251013,86.989001,NH3,3,6,4
India,Bihar,Bhagalpur,"Mayaganj, Bhagalpur - BSPCB",13-01-2024 03:00:00,25.265194,87.012947,NO2,2,28,10
India,Bihar,Bihar Sharif,"D M Colony, Bihar Sharif - BSPCB",13-01-2024 03:00:00,25.204762,85.514960,SO2,2,14,7
India,Bihar,Bihar Sharif,"D M Colony, Bihar Sharif - BSPCB",13-01-2024 03:00:00,25.204762,85.514960,OZONE,3,12,5
India,Bihar,Chhapra,"Darshan Nagar, Chhapra - BSPCB",13-01-2024 03:00:00,25.7808257,84.7446768,OZONE,1,2,1
India,Bihar,Gaya,"Kareemganj, Gaya - BSPCB",13-01-2024 03:00:00,24.792403,84.992416,NO2,30,31,30
India,Bihar,Gaya,"Kareemganj, Gaya - BSPCB",13-01-2024 03:00:00,24.792403,84.992416,CO,2,108,41
India,Bihar,Gaya,"SFTI Kusdihra, Gaya - BSPCB",13-01-2024 03:00:00,24.762518,84.982348,PM2.5,64,176,111
India,Bihar,Gaya,"SFTI Kusdihra, Gaya - BSPCB",13-01-2024 03:00:00,24.762518,84.982348,PM10,55,107,83
India,Bihar,Gaya,"SFTI Kusdihra, Gaya - BSPCB",13-01-2024 03:00:00,24.762518,84.982348,NH3,4,5,4
India,Bihar,Hajipur,"Industrial Area, Hajipur - BSPCB",13-01-2024 03:00:00,25.697189,85.245900,PM10,9,362,208
India,Bihar,Hajipur,"Industrial Area, Hajipur - BSPCB",13-01-2024 03:00:00,25.697189,85.245900,OZONE,1,29,11
India,Bihar,Katihar,"Mirchaibari, Katihar - BSPCB",13-01-2024 03:00:00,25.560083,87.553265,PM10,96,411,204
India,Bihar,Katihar,"Mirchaibari, Katihar - BSPCB",13-01-2024 03:00:00,25.560083,87.553265,SO2,21,27,24
India,Bihar,Kishanganj,"SDM Office_Khagra, Kishanganj - BSPCB",13-01-2024 03:00:00,26.0881305,87.93840336,NH3,11,15,12
India,Bihar,Kishanganj,"SDM Office_Khagra, Kishanganj - BSPCB",13-01-2024 03:00:00,26.0881305,87.93840336,CO,4,34,23
India,Bihar,Manguraha,"Forest Rest House, Manguraha - BSPCB",13-01-2024 03:00:00,27.308328,84.531742,PM2.5,NA,NA,NA
India,Bihar,Manguraha,"Forest Rest House, Manguraha - BSPCB",13-01-2024 03:00:00,27.308328,84.531742,NH3,2,3,3
India,Bihar,Manguraha,"Forest Rest House, Manguraha - BSPCB",13-01-2024 03:00:00,27.308328,84.531742,SO2,NA,NA,NA
India,Bihar,Manguraha,"Forest Rest House, Manguraha - BSPCB",13-01-2024 03:00:00,27.308328,84.531742,OZONE,13,55,18
India,Bihar,Motihari,"Gandak Colony, Motihari - BSPCB",13-01-2024 03:00:00,26.63086,84.90051,SO2,3,9,6
India,Bihar,Motihari,"Gandak Colony, Motihari - BSPCB",13-01-2024 03:00:00,26.63086,84.90051,CO,26,114,63
India,Bihar,Munger,"Town Hall, Munger - BSPCB",13-01-2024 03:00:00,25.376776,86.471523,PM2.5,43,267,129
India,Bihar,Munger,"Town Hall, Munger - BSPCB",13-01-2024 03:00:00,25.376776,86.471523,NO2,8,10,9
India,Bihar,Muzaffarpur,"Buddha Colony, Muzaffarpur - BSPCB",13-01-2024 03:00:00,26.11442,85.39813,PM2.5,305,369,330
India,Bihar,Muzaffarpur,"Buddha Colony, Muzaffarpur - BSPCB",13-01-2024 03:00:00,26.11442,85.39813,NO2,39,64,48
India,Bihar,Muzaffarpur,"Buddha Colony, Muzaffarpur - BSPCB",13-01-2024 03:00:00,26.11442,85.39813,CO,52,106,102
India,Bihar,Muzaffarpur,"Muzaffarpur Collectorate, Muzaffarpur - BSPCB",13-01-2024 03:00:00,26.1209,85.3647,PM2.5,148,310,226
India,Bihar,Patna,"DRM Office Danapur, Patna - BSPCB",13-01-2024 03:00:00,25.586562,85.043586,SO2,5,9,7
India,Bihar,Patna,"DRM Office Danapur, Patna - BSPCB",13-01-2024 03:00:00,25.586562,85.043586,CO,50,137,98
India,Bihar,Patna,"Govt. High School Shikarpur, Patna - BSPCB",13-01-2024 03:00:00,25.592539,85.227158,PM10,NA,NA,NA
India,Bihar,Patna,"IGSC Planetarium Complex, Patna - BSPCB",13-01-2024 03:00:00,25.610369,85.132568,CO,28,105,53
India,Bihar,Patna,"Muradpur, Patna - BSPCB",13-01-2024 03:00:00,25.619651,85.147382,PM2.5,153,359,290
India,Bihar,Patna,"Muradpur, Patna - BSPCB",13-01-2024 03:00:00,25.619651,85.147382,CO,72,120,101
India,Bihar,Patna,"Rajbansi Nagar, Patna - BSPCB",13-01-2024 03:00:00,25.599486,85.113666,NO2,59,81,68
India,Bihar,Patna,"Rajbansi Nagar, Patna - BSPCB",13-01-2024 03:00:00,25.599486,85.113666,OZONE,2,29,3
India,Bihar,Patna,"Samanpura, Patna - BSPCB",13-01-2024 03:00:00,25.596727,85.085624,PM2.5,305,500,357
India,Bihar,Purnia,"Mariam Nagar, Purnia - BSPCB",13-01-2024 03:00:00,25.366336,87.117468,PM2.5,72,407,230
India,Bihar,Purnia,"Mariam Nagar, Purnia - BSPCB",13-01-2024 03:00:00,25.366336,87.117468,SO2,17,24,20
India,Bihar,Purnia,"Mariam Nagar, Purnia - BSPCB",13-01-2024 03:00:00,25.366336,87.117468,CO,32,108,88
India,Bihar,Samastipur,"DM Office_Kasipur, Samastipur - BSPCB",13-01-2024 03:00:00,25.859655,85.77944,PM2.5,95,150,126
India,Bihar,Samastipur,"DM Office_Kasipur, Samastipur - BSPCB",13-01-2024 03:00:00,25.859655,85.77944,NH3,3,4,4
India,Bihar,Samastipur,"DM Office_Kasipur, Samastipur - BSPCB",13-01-2024 03:00:00,25.859655,85.77944,CO,20,38,30
India,Bihar,Sasaram,"Dada Peer, Sasaram - BSPCB",13-01-2024 03:00:00,24.952822,84.002396,CO,30,59,45
India,Bihar,Siwan,"Chitragupta Nagar, Siwan - BSPCB",13-01-2024 03:00:00,26.2271665,84.3570427,OZONE,6,55,12
India,Chandigarh,Chandigarh,"Sector 22, Chandigarh - CPCC",13-01-2024 03:00:00,30.735567,76.775714,OZONE,4,39,7
India,Chandigarh,Chandigarh,"Sector-25, Chandigarh - CPCC",13-01-2024 03:00:00,30.751462,76.762879,NO2,17,50,33
India,Chandigarh,Chandigarh,"Sector-25, Chandigarh - CPCC",13-01-2024 03:00:00,30.751462,76.762879,NH3,9,19,13
India,Chandigarh,Chandigarh,"Sector-53, Chandigarh - CPCC",13-01-2024 03:00:00,30.719859,76.738637,OZONE,7,26,11
India,Chhattisgarh,Bhilai,"Hathkhoj, Bhilai - CECB",13-01-2024 03:00:00,21.224231,81.408350,NO2,42,92,57
India,Chhattisgarh,Bilaspur,"Mangala, Bilaspur - NTPC",13-01-2024 03:00:00,22.08815,82.13737,PM2.5,29,191,70
India,Chhattisgarh,Chhal,"Nawapara SECL Colony, Chhal - CECB",13-01-2024 03:00:00,22.118125,83.140608,OZONE,7,58,18
India,Chhattisgarh,Korba,"Rampur, Korba - CECB",13-01-2024 03:00:00,22.368195,82.746431,CO,20,34,27
India,Chhattisgarh,Kunjemura,"OP Jindal School, Kunjemura - CECB",13-01-2024 03:00:00,22.126650,83.483212,NO2,11,86,46
India,Chhattisgarh,Milupara,"Govt. Higher Secondary School, Milupara - CECB",13-01-2024 03:00:00,22.1910172,83.5197009,NO2,9,45,17
India,Chhattisgarh,Milupara,"Govt. Higher Secondary School, Milupara - CECB",13-01-2024 03:00:00,22.1910172,83.5197009,CO,10,48,30
India,Chhattisgarh,Raipur,"Krishak Nagar, Raipur - CECB",13-01-2024 03:00:00,21.237755,81.705301,PM10,47,124,81
India,Chhattisgarh,Raipur,"Krishak Nagar, Raipur - CECB",13-01-2024 03:00:00,21.237755,81.705301,SO2,10,14,11
India,Chhattisgarh,Raipur,"Krishak Nagar, Raipur - CECB",13-01-2024 03:00:00,21.237755,81.705301,CO,26,61,49
India,Chhattisgarh,Tumidih,"OP Jindal Industrial Park, Tumidih - CECB",13-01-2024 03:00:00,22.06631475,83.33820077,SO2,5,8,6
India,Delhi,Delhi,"Alipur, Delhi - DPCC",13-01-2024 03:00:00,28.815329,77.153010,PM2.5,217,409,321
India,Delhi,Delhi,"Anand Vihar, Delhi - DPCC",13-01-2024 03:00:00,28.647622,77.3158090,NO2,45,152,105
India,Delhi,Delhi,"Anand Vihar, Delhi - DPCC",13-01-2024 03:00:00,28.647622,77.3158090,NH3,2,11,10
India,Delhi,Delhi,"Ashok Vihar, Delhi - DPCC",13-01-2024 03:00:00,28.695381,77.181665,PM2.5,195,423,336
India,Delhi,Delhi,"Ashok Vihar, Delhi - DPCC",13-01-2024 03:00:00,28.695381,77.181665,NO2,46,107,69
India,Delhi,Delhi,"Ashok Vihar, Delhi - DPCC",13-01-2024 03:00:00,28.695381,77.181665,OZONE,4,12,5
India,Delhi,Delhi,"Aya Nagar, Delhi - IMD",13-01-2024 03:00:00,28.4706914,77.1099364,PM10,NA,NA,NA
India,Delhi,Delhi,"Bawana, Delhi - DPCC",13-01-2024 03:00:00,28.776200,77.051074,PM10,125,477,247
India,Delhi,Delhi,"Bawana, Delhi - DPCC",13-01-2024 03:00:00,28.776200,77.051074,NO2,21,57,35
India,Delhi,Delhi,"Bawana, Delhi - DPCC",13-01-2024 03:00:00,28.776200,77.051074,CO,52,104,91
India,Delhi,Delhi,"Burari Crossing, Delhi - IMD",13-01-2024 03:00:00,28.7256504,77.2011573,PM10,NA,NA,NA
India,Delhi,Delhi,"CRRI Mathura Road, Delhi - IMD",13-01-2024 03:00:00,28.5512005,77.2735737,PM10,NA,NA,NA
India,Delhi,Delhi,"Dr. Karni Singh Shooting Range, Delhi - DPCC",13-01-2024 03:00:00,28.498571,77.264840,CO,46,126,112
India,Delhi,Delhi,"Dwarka-Sector 8, Delhi - DPCC ",13-01-2024 03:00:00,28.5710274,77.0719006,PM2.5,288,500,385
India,Delhi,Delhi,"IHBAS, Dilshad Garden, Delhi - CPCB",13-01-2024 03:00:00,28.6811736,77.3025234,PM2.5,95,334,233
India,Delhi,Delhi,"IHBAS, Dilshad Garden, Delhi - CPCB",13-01-2024 03:00:00,28.6811736,77.3025234,SO2,2,35,11
India,Delhi,Delhi,"ITO, Delhi - CPCB",13-01-2024 03:00:00,28.628624,77.241060,PM2.5,162,409,308
India,Delhi,Delhi,"ITO, Delhi - CPCB",13-01-2024 03:00:00,28.628624,77.241060,SO2,9,22,16
India,Delhi,Delhi,"Jahangirpuri, Delhi - DPCC",13-01-2024 03:00:00,28.732820,77.170633,NH3,9,13,11
India,Delhi,Delhi,"Jawaharlal Nehru Stadium, Delhi - DPCC",13-01-2024 03:00:00,28.580280,77.233829,PM2.5,248,438,336
India,Delhi,Delhi,"Jawaharlal Nehru Stadium, Delhi - DPCC",13-01-2024 03:00:00,28.580280,77.233829,CO,50,108,97
India,Delhi,Delhi,"Lodhi Road, Delhi - IITM",13-01-2024 03:00:00,28.588333,77.221667,PM10,35,357,116
India,Delhi,Delhi,"Lodhi Road, Delhi - IITM",13-01-2024 03:00:00,28.588333,77.221667,NH3,9,14,11
India,Delhi,Delhi,"Major Dhyan Chand National Stadium, Delhi - DPCC",13-01-2024 03:00:00,28.611281,77.237738,NO2,46,112,73
India,Delhi,Delhi,"Major Dhyan Chand National Stadium, Delhi - DPCC",13-01-2024 03:00:00,28.611281,77.237738,CO,24,109,96
India,Delhi,Delhi,"Mandir Marg, Delhi - DPCC",13-01-2024 03:00:00,28.636429,77.201067,OZONE,1,39,7
India,Delhi,Delhi,"Najafgarh, Delhi - DPCC",13-01-2024 03:00:00,28.570173,76.933762,NO2,17,52,27
India,Delhi,Delhi,"Najafgarh, Delhi - DPCC",13-01-2024 03:00:00,28.570173,76.933762,SO2,4,11,8
India,Delhi,Delhi,"Narela, Delhi - DPCC",13-01-2024 03:00:00,28.822836,77.101981,PM2.5,237,484,347
India,Delhi,Delhi,"Narela, Delhi - DPCC",13-01-2024 03:00:00,28.822836,77.101981,NO2,24,92,45
India,Delhi,Delhi,"North Campus, DU, Delhi - IMD",13-01-2024 03:00:00,28.6573814,77.1585447,CO,42,89,74
India,Delhi,Delhi,"North Campus, DU, Delhi - IMD",13-01-2024 03:00:00,28.6573814,77.1585447,OZONE,26,56,28
India,Delhi,Delhi,"Okhla Phase-2, Delhi - DPCC",13-01-2024 03:00:00,28.530785,77.271255,PM2.5,311,500,374
India,Delhi,Delhi,"Okhla Phase-2, Delhi - DPCC",13-01-2024 03:00:00,28.530785,77.271255,SO2,7,24,12
India,Delhi,Delhi,"Patparganj, Delhi - DPCC",13-01-2024 03:00:00,28.623763,77.287209,SO2,11,13,12
India,Delhi,Delhi,"Patparganj, Delhi - DPCC",13-01-2024 03:00:00,28.623763,77.287209,OZONE,9,43,25
India,Delhi,Delhi,"Punjabi Bagh, Delhi - DPCC",13-01-2024 03:00:00,28.674045,77.131023,NO2,77,103,92
India,Delhi,Delhi,"Pusa, Delhi - DPCC",13-01-2024 03:00:00,28.639652,77.146275,PM2.5,318,450,376
India,Delhi,Delhi,"Pusa, Delhi - DPCC",13-01-2024 03:00:00,28.639652,77.146275,CO,10,120,99
India,Delhi,Delhi,"Pusa, Delhi - IMD",13-01-2024 03:00:00,28.636110,77.173332,PM2.5,NA,NA,NA
India,Delhi,Delhi,"Pusa, Delhi - IMD",13-01-2024 03:00:00,28.636110,77.173332,CO,108,117,113
India,Delhi,Delhi,"R K Puram, Delhi - DPCC",13-01-2024 03:00:00,28.563262,77.186937,PM2.5,278,466,364
India,Delhi,Delhi,"Rohini, Delhi - DPCC",13-01-2024 03:00:00,28.732528,77.119920,OZONE,1,71,18
India,Delhi,Delhi,"Shadipur, Delhi - CPCB",13-01-2024 03:00:00,28.6514781,77.1473105,PM2.5,207,427,337
India,Delhi,Delhi,"Shadipur, Delhi - CPCB",13-01-2024 03:00:00,28.6514781,77.1473105,NO2,35,75,53
India,Delhi,Delhi,"Sirifort, Delhi - CPCB",13-01-2024 03:00:00,28.5504249,77.2159377,PM2.5,305,474,358
India,Delhi,Delhi,"Sirifort, Delhi - CPCB",13-01-2024 03:00:00,28.5504249,77.2159377,SO2,26,34,29
India,Delhi,Delhi,"Sri Aurobindo Marg, Delhi - DPCC",13-01-2024 03:00:00,28.531346,77.190156,PM10,135,402,212
India,Delhi,Delhi,"Sri Aurobindo Marg, Delhi - DPCC",13-01-2024 03:00:00,28.531346,77.190156,NO2,22,102,57
India,Delhi,Delhi,"Sri Aurobindo Marg, Delhi - DPCC",13-01-2024 03:00:00,28.531346,77.190156,CO,33,112,84
India,Delhi,Delhi,"Vivek Vihar, Delhi - DPCC",13-01-2024 03:00:00,28.672342,77.315260,PM2.5,320,500,390
India,Delhi,Delhi,"Vivek Vihar, Delhi - DPCC",13-01-2024 03:00:00,28.672342,77.315260,NH3,6,14,10
India,Delhi,Delhi,"Wazirpur, Delhi - DPCC",13-01-2024 03:00:00,28.699793,77.165453,PM2.5,303,476,382
India,Gujarat,Ahmedabad,"Chandkheda, Ahmedabad - IITM",13-01-2024 03:00:00,23.107969,72.574648,SO2,3,9,5
India,Gujarat,Ahmedabad,"Gyaspur, Ahmedabad - IITM",13-01-2024 03:00:00,22.977134,72.553024,PM10,80,228,125
India,Gujarat,Ahmedabad,"Maninagar, Ahmedabad - GPCB",13-01-2024 03:00:00,23.002657,72.591912,PM10,71,138,112
India,Gujarat,Ahmedabad,"Maninagar, Ahmedabad - GPCB",13-01-2024 03:00:00,23.002657,72.591912,CO,10,47,33
India,Gujarat,Ahmedabad,"Raikhad, Ahmedabad - IITM",13-01-2024 03:00:00,23.020509,72.579261,PM10,89,94,91
India,Gujarat,Ahmedabad,"Raikhad, Ahmedabad - IITM",13-01-2024 03:00:00,23.020509,72.579261,NO2,11,13,12
India,Gujarat,Ahmedabad,"Raikhad, Ahmedabad - IITM",13-01-2024 03:00:00,23.020509,72.579261,OZONE,18,19,19
India,Gujarat,Ahmedabad,"Rakhial, Ahmedabad - IITM",13-01-2024 03:00:00,23.016834,72.625775,PM10,95,167,128
India,Gujarat,Ahmedabad,"Rakhial, Ahmedabad - IITM",13-01-2024 03:00:00,23.016834,72.625775,CO,10,54,43
India,Gujarat,Ahmedabad,"SAC ISRO Bopal, Ahmedabad - IITM",13-01-2024 03:00:00,23.041137,72.456691,NH3,3,4,3
India,Gujarat,Ahmedabad,"SAC ISRO Bopal, Ahmedabad - IITM",13-01-2024 03:00:00,23.041137,72.456691,SO2,6,9,7
India,Gujarat,Ahmedabad,"SAC ISRO Satellite, Ahmedabad - IITM",13-01-2024 03:00:00,23.023389,72.515201,PM10,77,101,90
India,Gujarat,Ahmedabad,"SAC ISRO Satellite, Ahmedabad - IITM",13-01-2024 03:00:00,23.023389,72.515201,CO,25,33,32
India,Gujarat,Ahmedabad,"SVPI Airport Hansol, Ahmedabad - IITM",13-01-2024 03:00:00,23.076793,72.627874,OZONE,5,17,6
India,Gujarat,Ahmedabad,"Sardar Vallabhbhai Patel Stadium, Ahmedabad - IITM",13-01-2024 03:00:00,23.043070,72.562968,PM2.5,67,304,125
India,Gujarat,Ahmedabad,"Sardar Vallabhbhai Patel Stadium, Ahmedabad - IITM",13-01-2024 03:00:00,23.043070,72.562968,PM10,77,196,120
India,Gujarat,Gandhinagar,"GIFT City, Gandhinagar - IITM",13-01-2024 03:00:00,23.163798,72.677768,PM10,50,98,63
India,Gujarat,Gandhinagar,"GIFT City, Gandhinagar - IITM",13-01-2024 03:00:00,23.163798,72.677768,SO2,5,8,6
India,Gujarat,Gandhinagar,"Sector-10, Gandhinagar - GPCB",13-01-2024 03:00:00,23.221714,72.654328,NH3,1,2,2
India,Gujarat,Surat,"Science Center, Surat - SMC",13-01-2024 03:00:00,21.170046,72.795405,PM2.5,45,130,79
India,Gujarat,Surat,"Science Center, Surat - SMC",13-01-2024 03:00:00,21.170046,72.795405,CO,44,72,59
India,Gujarat,Vapi,"Phase-1 GIDC, Vapi - GPCB",13-01-2024 03:00:00,20.362421,72.918013,PM10,99,256,162
India,Gujarat,Vatva,"Phase-4 GIDC, Vatva - GPCB",13-01-2024 03:00:00,22.969611,72.643500,NO2,39,149,96
India,Gujarat,Vatva,"Phase-4 GIDC, Vatva - GPCB",13-01-2024 03:00:00,22.969611,72.643500,NH3,1,2,1
India,Gujarat,Vatva,"Phase-4 GIDC, Vatva - GPCB",13-01-2024 03:00:00,22.969611,72.643500,CO,38,40,39
India,Haryana,Ambala,"Patti Mehar, Ambala - HSPCB",13-01-2024 03:00:00,30.379589,76.778328,CO,NA,NA,NA
India,Haryana,Ambala,"Patti Mehar, Ambala - HSPCB",13-01-2024 03:00:00,30.379589,76.778328,OZONE,NA,NA,NA
India,Haryana,Bahadurgarh,"Arya Nagar, Bahadurgarh - HSPCB",13-01-2024 03:00:00,28.6701,76.9254,PM2.5,89,360,241
India,Haryana,Ballabgarh,"Nathu Colony, Ballabgarh - HSPCB",13-01-2024 03:00:00,28.3419248,77.319699,PM2.5,119,383,278
India,Haryana,Ballabgarh,"Nathu Colony, Ballabgarh - HSPCB",13-01-2024 03:00:00,28.3419248,77.319699,PM10,124,248,185
India,Haryana,Ballabgarh,"Nathu Colony, Ballabgarh - HSPCB",13-01-2024 03:00:00,28.3419248,77.319699,OZONE,3,21,5
India,Haryana,Bhiwani,"H.B. Colony, Bhiwani - HSPCB",13-01-2024 03:00:00,28.806223,76.141105,PM2.5,87,261,148
India,Haryana,Bhiwani,"H.B. Colony, Bhiwani - HSPCB",13-01-2024 03:00:00,28.806223,76.141105,SO2,1,50,20
India,Haryana,Bhiwani,"H.B. Colony, Bhiwani - HSPCB",13-01-2024 03:00:00,28.806223,76.141105,OZONE,10,34,16
India,Haryana,Charkhi Dadri,"Mini Secretariat, Charkhi Dadri - HSPCB",13-01-2024 03:00:00,28.593883,76.270653,PM2.5,84,202,136
India,Haryana,Charkhi Dadri,"Mini Secretariat, Charkhi Dadri - HSPCB",13-01-2024 03:00:00,28.593883,76.270653,SO2,6,14,9
India,Haryana,Dharuhera,"Municipal Corporation Office, Dharuhera -  HSPCB",13-01-2024 03:00:00,28.206800,76.799700,SO2,3,21,10
India,Haryana,Dharuhera,"Municipal Corporation Office, Dharuhera -  HSPCB",13-01-2024 03:00:00,28.206800,76.799700,CO,23,92,77
India,Haryana,Faridabad,"New Industrial Town, Faridabad - HSPCB",13-01-2024 03:00:00,28.39072,77.30059,NH3,3,10,4
India,Haryana,Faridabad,"New Industrial Town, Faridabad - HSPCB",13-01-2024 03:00:00,28.39072,77.30059,OZONE,30,196,50
India,Haryana,Faridabad,"Sector 30, Faridabad - HSPCB",13-01-2024 03:00:00,28.4417,77.3217,PM2.5,148,201,170
India,Haryana,Faridabad,"Sector 30, Faridabad - HSPCB",13-01-2024 03:00:00,28.4417,77.3217,NO2,30,32,31
India,Haryana,Fatehabad,"Huda Sector, Fatehabad - HSPCB",13-01-2024 03:00:00,29.503664,75.467934,PM10,57,122,92
India,Haryana,Gurugram,"Teri Gram, Gurugram - HSPCB",13-01-2024 03:00:00,28.4275,77.1465,PM10,121,414,205
India,Haryana,Gurugram,"Teri Gram, Gurugram - HSPCB",13-01-2024 03:00:00,28.4275,77.1465,SO2,2,7,4
India,Haryana,Gurugram,"Vikas Sadan, Gurugram - HSPCB",13-01-2024 03:00:00,28.4501238,77.0263051,PM2.5,53,310,143
India,Haryana,Hisar,"Urban Estate-II, Hisar - HSPCB",13-01-2024 03:00:00,29.140560,75.744941,NO2,8,38,11
India,Haryana,Hisar,"Urban Estate-II, Hisar - HSPCB",13-01-2024 03:00:00,29.140560,75.744941,OZONE,11,78,23
India,Haryana,Jind,"Police Lines, Jind - HSPCB",13-01-2024 03:00:00,29.307814,76.337619,SO2,4,12,7
India,Haryana,Jind,"Police Lines, Jind - HSPCB",13-01-2024 03:00:00,29.307814,76.337619,OZONE,1,15,4
India,Haryana,Kaithal,"Rishi Nagar, Kaithal - HSPCB",13-01-2024 03:00:00,29.8006,76.4155,PM2.5,134,343,259
India,Haryana,Kaithal,"Rishi Nagar, Kaithal - HSPCB",13-01-2024 03:00:00,29.8006,76.4155,PM10,112,189,148
India,Haryana,Karnal,"Sector-12, Karnal - HSPCB",13-01-2024 03:00:00,29.695300,77.002700,NH3,10,13,11
India,Haryana,Kurukshetra,"Sector-7, Kurukshetra - HSPCB",13-01-2024 03:00:00,29.966942,76.875879,PM10,123,171,144
India,Haryana,Kurukshetra,"Sector-7, Kurukshetra - HSPCB",13-01-2024 03:00:00,29.966942,76.875879,NO2,10,34,11
India,Haryana,Kurukshetra,"Sector-7, Kurukshetra - HSPCB",13-01-2024 03:00:00,29.966942,76.875879,OZONE,5,26,10
India,Haryana,Mandikhera,"General Hospital, Mandikhera - HSPCB",13-01-2024 03:00:00,27.9002,76.9938,PM2.5,8,43,19
India,Haryana,Mandikhera,"General Hospital, Mandikhera - HSPCB",13-01-2024 03:00:00,27.9002,76.9938,PM10,53,142,106
India,Haryana,Mandikhera,"General Hospital, Mandikhera - HSPCB",13-01-2024 03:00:00,27.9002,76.9938,NH3,18,21,19
India,Haryana,Manesar,"Sector-2 IMT, Manesar - HSPCB",13-01-2024 03:00:00,28.360699,76.936090,SO2,11,19,14
India,Haryana,Narnaul,"Shastri Nagar, Narnaul - HSPCB",13-01-2024 03:00:00,28.060249,76.113115,OZONE,27,74,69
India,Haryana,Palwal,"Shyam Nagar, Palwal - HSPCB",13-01-2024 03:00:00,28.1485564,77.3320667,PM2.5,41,89,52
India,Haryana,Palwal,"Shyam Nagar, Palwal - HSPCB",13-01-2024 03:00:00,28.1485564,77.3320667,CO,12,28,20
India,Haryana,Panchkula,"Sector-6, Panchkula - HSPCB ",13-01-2024 03:00:00,30.7057778,76.8531805555555,PM2.5,99,311,209
India,Haryana,Rohtak,"MD University, Rohtak - HSPCB",13-01-2024 03:00:00,28.52123,76.37138,OZONE,45,54,49
India,Haryana,Yamuna Nagar,"Gobind Pura, Yamuna Nagar - HSPCB",13-01-2024 03:00:00,30.1480566,77.2893471,PM10,92,185,149
India,Himachal Pradesh,Baddi,"HIMUDA Complex Phase-1, Baddi - HPPCB",13-01-2024 03:00:00,30.943887,76.801991,PM2.5,123,422,325
India,Himachal Pradesh,Baddi,"HIMUDA Complex Phase-1, Baddi - HPPCB",13-01-2024 03:00:00,30.943887,76.801991,PM10,111,416,258
India,Jharkhand,Dhanbad,"Kalakusuma, Dhanbad - DMC",13-01-2024 03:00:00,23.811548,86.481238,PM10,23,119,70
India,Jharkhand,Dhanbad,"Kalakusuma, Dhanbad - DMC",13-01-2024 03:00:00,23.811548,86.481238,CO,107,115,109
India,Jharkhand,Dhanbad,"Sardar Patel Nagar, Dhanbad - JSPCB",13-01-2024 03:00:00,23.80569,86.44268,PM2.5,28,99,63
India,Jharkhand,Pathardih,"Mohalbani Ghat, Pathardih - DMC",13-01-2024 03:00:00,23.669880,86.411725,SO2,16,53,36
India,Karnataka,Bagalkot,"Vidayagiri, Bagalkot - KSPCB",13-01-2024 03:00:00,16.172806,75.659694,NO2,10,11,10
India,Karnataka,Belgaum,"Ramteerth Nagar, Belgaum - KSPCB",13-01-2024 03:00:00,15.888653,74.541751,NH3,33,34,33
India,Karnataka,Bengaluru,"BTM Layout, Bengaluru - CPCB",13-01-2024 03:00:00,12.9135218,77.5950804,PM2.5,13,79,39
India,Karnataka,Bengaluru,"BTM Layout, Bengaluru - CPCB",13-01-2024 03:00:00,12.9135218,77.5950804,SO2,8,14,11
India,Karnataka,Bengaluru,"BTM Layout, Bengaluru - CPCB",13-01-2024 03:00:00,12.9135218,77.5950804,CO,9,29,20
India,Karnataka,Bengaluru,"BTM Layout, Bengaluru - CPCB",13-01-2024 03:00:00,12.9135218,77.5950804,OZONE,15,52,21
India,Karnataka,Bengaluru,"Bapuji Nagar, Bengaluru - KSPCB",13-01-2024 03:00:00,12.951913,77.539784,PM10,69,120,103
India,Karnataka,Bengaluru,"Bapuji Nagar, Bengaluru - KSPCB",13-01-2024 03:00:00,12.951913,77.539784,NO2,9,12,11
India,Karnataka,Bengaluru,"Bapuji Nagar, Bengaluru - KSPCB",13-01-2024 03:00:00,12.951913,77.539784,SO2,6,7,7
India,Karnataka,Bengaluru,"City Railway Station, Bengaluru - KSPCB",13-01-2024 03:00:00,12.9756843,77.5660749,NO2,18,24,21
India,Karnataka,Bengaluru,"Hebbal, Bengaluru - KSPCB",13-01-2024 03:00:00,13.029152,77.585901,PM10,53,111,88
India,Karnataka,Bengaluru,"Hebbal, Bengaluru - KSPCB",13-01-2024 03:00:00,13.029152,77.585901,SO2,5,15,10
India,Karnataka,Bengaluru,"Hebbal, Bengaluru - KSPCB",13-01-2024 03:00:00,13.029152,77.585901,CO,7,34,30
India,Karnataka,Bengaluru,"Hombegowda Nagar, Bengaluru - KSPCB",13-01-2024 03:00:00,12.938539,77.590100,PM10,50,108,83
India,Karnataka,Bengaluru,"Jayanagar 5th Block, Bengaluru - KSPCB",13-01-2024 03:00:00,12.920984,77.584908,PM2.5,67,176,111
India,Karnataka,Bengaluru,"Jayanagar 5th Block, Bengaluru - KSPCB",13-01-2024 03:00:00,12.920984,77.584908,PM10,63,172,119
India,Karnataka,Bengaluru,"Jayanagar 5th Block, Bengaluru - KSPCB",13-01-2024 03:00:00,12.920984,77.584908,SO2,15,20,18
India,Karnataka,Bengaluru,"Peenya, Bengaluru - CPCB",13-01-2024 03:00:00,13.0270199,77.494094,PM10,45,135,110
India,Karnataka,Bengaluru,"Peenya, Bengaluru - CPCB",13-01-2024 03:00:00,13.0270199,77.494094,NH3,1,5,4
India,Karnataka,Bengaluru,"RVCE-Mailasandra, Bengaluru - KSPCB",13-01-2024 03:00:00,12.921418,77.502466,PM2.5,56,97,77
India,Karnataka,Bengaluru,"RVCE-Mailasandra, Bengaluru - KSPCB",13-01-2024 03:00:00,12.921418,77.502466,CO,39,55,44
India,Karnataka,Bengaluru,"Shivapura_Peenya, Bengaluru - KSPCB",13-01-2024 03:00:00,13.0246342,77.5080115,NH3,4,4,4
India,Karnataka,Bengaluru,"Shivapura_Peenya, Bengaluru - KSPCB",13-01-2024 03:00:00,13.0246342,77.5080115,CO,28,52,40
India,Karnataka,Bengaluru,"Silk Board, Bengaluru - KSPCB",13-01-2024 03:00:00,12.917348,77.622813,NO2,16,27,20
India,Karnataka,Bengaluru,"Silk Board, Bengaluru - KSPCB",13-01-2024 03:00:00,12.917348,77.622813,NH3,2,4,3
India,Karnataka,Bengaluru,"Silk Board, Bengaluru - KSPCB",13-01-2024 03:00:00,12.917348,77.622813,OZONE,27,31,30
India,Karnataka,Chamarajanagar,"Urban, Chamarajanagar - KSPCB",13-01-2024 03:00:00,11.55358,76.55521,NO2,23,29,28
India,Karnataka,Chikkaballapur,"Chikkaballapur Rural, Chikkaballapur - KSPCB",13-01-2024 03:00:00,13.428828,77.731418,PM10,46,114,82
India,Karnataka,Chikkaballapur,"Chikkaballapur Rural, Chikkaballapur - KSPCB",13-01-2024 03:00:00,13.428828,77.731418,NO2,7,15,10
India,Karnataka,Davanagere,"Devaraj Urs Badavane, Davanagere - KSPCB",13-01-2024 03:00:00,14.475800,75.905200,NO2,10,12,11
India,Karnataka,Dharwad,"Kalabhavan, Dharwad - KSPCB",13-01-2024 03:00:00,15.459706,75.008381,PM2.5,47,74,61
India,Karnataka,Dharwad,"Kalabhavan, Dharwad - KSPCB",13-01-2024 03:00:00,15.459706,75.008381,CO,40,140,98
India,Karnataka,Gadag,"Panchal Nagar, Gadag - KSPCB",13-01-2024 03:00:00,15.411456,75.638133,PM10,38,93,58
India,Karnataka,Gadag,"Panchal Nagar, Gadag - KSPCB",13-01-2024 03:00:00,15.411456,75.638133,NH3,2,3,2
India,Karnataka,Gadag,"Panchal Nagar, Gadag - KSPCB",13-01-2024 03:00:00,15.411456,75.638133,OZONE,31,75,52
India,Karnataka,Hassan,"B.Katihalli, Hassan - KSPCB",13-01-2024 03:00:00,13.008556,76.125258,PM10,51,97,65
India,Karnataka,Haveri,"Ashwini Nagar, Haveri - KSPCB",13-01-2024 03:00:00,14.791800,75.389600,SO2,13,14,14
India,Karnataka,Haveri,"Ashwini Nagar, Haveri - KSPCB",13-01-2024 03:00:00,14.791800,75.389600,OZONE,18,22,19
India,Karnataka,Kalaburagi,"Lal Bahadur Shastri Nagar, Kalaburagi - KSPCB",13-01-2024 03:00:00,17.321993,76.822628,PM10,20,100,50
India,Karnataka,Kalaburagi,"Lal Bahadur Shastri Nagar, Kalaburagi - KSPCB",13-01-2024 03:00:00,17.321993,76.822628,CO,36,60,48
India,Karnataka,Kalaburagi,"Mahatma Basaveswar Colony, Kalaburgi - KSPCB",13-01-2024 03:00:00,17.336318,76.847397,OZONE,2,44,14
India,Karnataka,Kolar,"Tamaka Ind. Area, Kolar - KSPCB",13-01-2024 03:00:00,13.1276288,78.1570122,PM10,52,155,99
India,Karnataka,Madikeri,"Stuart Hill, Madikeri - KSPCB",13-01-2024 03:00:00,12.415911,75.735050,SO2,4,4,4
India,Karnataka,Mangalore,"Kadri, Mangalore - KSPCB",13-01-2024 03:00:00,12.889250,74.853000,NO2,8,11,9
India,Karnataka,Mysuru,"Hebbal 1st Stage, Mysuru - KSPCB",13-01-2024 03:00:00,12.21041,76.37376,CO,6,38,22
India,Karnataka,Mysuru,"Hebbal 1st Stage, Mysuru - KSPCB",13-01-2024 03:00:00,12.21041,76.37376,OZONE,9,83,42
India,Karnataka,Ramanagara,"Vijay Nagar, Ramanagara - KSPCB",13-01-2024 03:00:00,12.733409,77.298051,OZONE,11,26,11
India,Karnataka,Shivamogga,"Vinoba Nagara, Shivamogga - KSPCB",13-01-2024 03:00:00,13.940000,75.555917,PM10,50,87,71
India,Karnataka,Shivamogga,"Vinoba Nagara, Shivamogga - KSPCB",13-01-2024 03:00:00,13.940000,75.555917,OZONE,4,58,30
India,Karnataka,Vijayapura,"Ibrahimpur, Vijayapura - KSPCB",13-01-2024 03:00:00,16.802639,75.722694,PM10,NA,NA,NA
India,Karnataka,Yadgir,"Collector Office, Yadgir - KSPCB",13-01-2024 03:00:00,16.7602,77.1428,PM2.5,78,123,96
India,Karnataka,Yadgir,"Collector Office, Yadgir - KSPCB",13-01-2024 03:00:00,16.7602,77.1428,PM10,65,109,88
India,Karnataka,Yadgir,"Collector Office, Yadgir - KSPCB",13-01-2024 03:00:00,16.7602,77.1428,NO2,5,8,6
India,Karnataka,Yadgir,"Collector Office, Yadgir - KSPCB",13-01-2024 03:00:00,16.7602,77.1428,NH3,1,1,1
India,Kerala,Eloor,"Udyogamandal, Eloor - Kerala PCB",13-01-2024 03:00:00,10.073232,76.302765,CO,6,52,16
India,Kerala,Eloor,"Udyogamandal, Eloor - Kerala PCB",13-01-2024 03:00:00,10.073232,76.302765,OZONE,4,84,21
India,Kerala,Kannur,"Thavakkara, Kannur - Kerala PCB",13-01-2024 03:00:00,11.875000,75.373200,PM2.5,46,50,47
India,Kerala,Kannur,"Thavakkara, Kannur - Kerala PCB",13-01-2024 03:00:00,11.875000,75.373200,OZONE,31,36,31
India,Kerala,Kochi,"Vyttila, Kochi - Kerala PCB",13-01-2024 03:00:00,9.969447,76.321186,PM2.5,NA,NA,NA
India,Kerala,Thiruvananthapuram,"Plammoodu, Thiruvananthapuram - Kerala PCB",13-01-2024 03:00:00,8.5149093,76.9435879,NO2,12,14,13
India,Kerala,Thrissur,"Corporation Ground, Thrissur - Kerala PCB",13-01-2024 03:00:00,10.532400,76.215900,NO2,9,11,10
India,Madhya Pradesh,Bhopal,"Paryavaran Parisar, Bhopal - MPPCB",13-01-2024 03:00:00,23.210494,77.425409,PM2.5,42,316,129
India,Madhya Pradesh,Bhopal,"Paryavaran Parisar, Bhopal - MPPCB",13-01-2024 03:00:00,23.210494,77.425409,PM10,54,261,131
India,Madhya Pradesh,Bhopal,"Paryavaran Parisar, Bhopal - MPPCB",13-01-2024 03:00:00,23.210494,77.425409,NO2,28,91,54
India,Madhya Pradesh,Bhopal,"Paryavaran Parisar, Bhopal - MPPCB",13-01-2024 03:00:00,23.210494,77.425409,NH3,8,14,10
India,Madhya Pradesh,Bhopal,"Paryavaran Parisar, Bhopal - MPPCB",13-01-2024 03:00:00,23.210494,77.425409,CO,3,110,69
India,Madhya Pradesh,Bhopal,"Paryavaran Parisar, Bhopal - MPPCB",13-01-2024 03:00:00,23.210494,77.425409,OZONE,2,71,4
India,Madhya Pradesh,Bhopal,"T T Nagar, Bhopal - MPPCB",13-01-2024 03:00:00,23.233584,77.400574,PM2.5,48,188,112
India,Madhya Pradesh,Bhopal,"T T Nagar, Bhopal - MPPCB",13-01-2024 03:00:00,23.233584,77.400574,NO2,29,78,47
India,Madhya Pradesh,Dewas,"Bhopal Chauraha, Dewas - MPPCB",13-01-2024 03:00:00,22.9682591,76.064118,PM10,30,105,69
India,Madhya Pradesh,Gwalior,"City Center, Gwalior - MPPCB",13-01-2024 03:00:00,26.203442,78.193251,PM10,66,433,173
India,Madhya Pradesh,Gwalior,"City Center, Gwalior - MPPCB",13-01-2024 03:00:00,26.203442,78.193251,SO2,11,34,23
India,Madhya Pradesh,Gwalior,"Deen Dayal Nagar, Gwalior - MPPCB",13-01-2024 03:00:00,26.259242,78.216432,NH3,4,18,13
India,Madhya Pradesh,Gwalior,"Maharaj Bada, Gwalior - MPPCB",13-01-2024 03:00:00,26.200388,78.147714,SO2,10,25,18
India,Madhya Pradesh,Gwalior,"Phool Bagh, Gwalior - Mondelez Ind. Food",13-01-2024 03:00:00,26.210536,78.171,PM10,7,273,126
India,Madhya Pradesh,Gwalior,"Phool Bagh, Gwalior - Mondelez Ind. Food",13-01-2024 03:00:00,26.210536,78.171,CO,29,57,44
India,Madhya Pradesh,Indore,"Chhoti Gwaltoli, Indore - MPPCB",13-01-2024 03:00:00,22.4310,75.5213,NH3,4,5,5
India,Madhya Pradesh,Indore,"Maguda Nagar, Indore - IMC",13-01-2024 03:00:00,22.7524,75.8872,PM2.5,39,97,64
India,Madhya Pradesh,Indore,"Maguda Nagar, Indore - IMC",13-01-2024 03:00:00,22.7524,75.8872,PM10,33,81,54
India,Madhya Pradesh,Indore,"Maguda Nagar, Indore - IMC",13-01-2024 03:00:00,22.7524,75.8872,SO2,22,34,29
India,Madhya Pradesh,Indore,"Regional Park, Indore - IMC",13-01-2024 03:00:00,22.6780,75.8559,PM2.5,37,103,60
India,Madhya Pradesh,Indore,"Regional Park, Indore - IMC",13-01-2024 03:00:00,22.6780,75.8559,NO2,2,8,5
India,Madhya Pradesh,Indore,"Regional Park, Indore - IMC",13-01-2024 03:00:00,22.6780,75.8559,NH3,1,3,2
India,Madhya Pradesh,Indore,"Residency Area, Indore - IMC",13-01-2024 03:00:00,22.7084,75.8815,NO2,23,49,37
India,Madhya Pradesh,Indore,"Residency Area, Indore - IMC",13-01-2024 03:00:00,22.7084,75.8815,NH3,NA,NA,NA
India,Madhya Pradesh,Indore,"Residency Area, Indore - IMC",13-01-2024 03:00:00,22.7084,75.8815,SO2,23,55,29
India,Madhya Pradesh,Jabalpur,"Govindh Bhavan Colony, Jabalpur - JMC",13-01-2024 03:00:00,23.163174,79.973061,CO,21,34,28
India,Madhya Pradesh,Jabalpur,"Gupteshwar, Jabalpur - JMC",13-01-2024 03:00:00,23.142888,79.916147,PM2.5,25,247,104
India,Madhya Pradesh,Jabalpur,"Gupteshwar, Jabalpur - JMC",13-01-2024 03:00:00,23.142888,79.916147,CO,23,127,102
India,Madhya Pradesh,Jabalpur,"Marhatal, Jabalpur - MPPCB",13-01-2024 03:00:00,23.168606,79.932247,PM10,52,160,100
India,Madhya Pradesh,Jabalpur,"Marhatal, Jabalpur - MPPCB",13-01-2024 03:00:00,23.168606,79.932247,OZONE,2,59,11
India,Madhya Pradesh,Jabalpur,"Suhagi, Jabalpur - JMC",13-01-2024 03:00:00,23.218135,79.957770,NO2,53,58,57
India,Madhya Pradesh,Maihar,"Sahilara, Maihar - KJS Cements",13-01-2024 03:00:00,24.2613009,80.7231783,NO2,14,14,14
India,Madhya Pradesh,Maihar,"Sahilara, Maihar - KJS Cements",13-01-2024 03:00:00,24.2613009,80.7231783,SO2,12,17,13
India,Madhya Pradesh,Mandideep,"Sector-D Industrial Area, Mandideep - MPPCB",13-01-2024 03:00:00,23.108440,77.511428,PM2.5,42,159,81
India,Madhya Pradesh,Mandideep,"Sector-D Industrial Area, Mandideep - MPPCB",13-01-2024 03:00:00,23.108440,77.511428,NO2,37,108,70
India,Madhya Pradesh,Mandideep,"Sector-D Industrial Area, Mandideep - MPPCB",13-01-2024 03:00:00,23.108440,77.511428,OZONE,8,40,21
India,Madhya Pradesh,Pithampur,"Sector-2 Industrial Area, Pithampur - MPPCB",13-01-2024 03:00:00,22.624758,75.675238,SO2,12,14,13
India,Madhya Pradesh,Ratlam,"Shasthri Nagar, Ratlam - IPCA Lab",13-01-2024 03:00:00,23.331731,75.045981,NO2,1,63,21
India,Madhya Pradesh,Sagar,"Civil Lines, Sagar - MPPCB",13-01-2024 03:00:00,23.838586,78.759431,PM10,61,126,81
India,Madhya Pradesh,Sagar,"Deen Dayal Nagar, Sagar - MPPCB",13-01-2024 03:00:00,23.8640158,78.80289321,PM10,25,173,87
India,Madhya Pradesh,Satna,"Bandhavgar Colony, Satna - Birla Cement",13-01-2024 03:00:00,24.58434363,80.8549414,PM2.5,1,29,15
India,Madhya Pradesh,Satna,"Bandhavgar Colony, Satna - Birla Cement",13-01-2024 03:00:00,24.58434363,80.8549414,OZONE,58,86,63
India,Madhya Pradesh,Singrauli,"Suryakiran Bhawan NCL, Singrauli - MPPCB",13-01-2024 03:00:00,24.108970,82.645580,PM2.5,NA,NA,NA
India,Madhya Pradesh,Ujjain,"Mahakaleshwar Temple, Ujjain - MPPCB",13-01-2024 03:00:00,23.182719 ,75.768218 ,NO2,8,54,22
India,Maharashtra,Ahmednagar,"Tarakpur, Ahmednagar - MPCB",13-01-2024 03:00:00,19.10122,74.73339,PM10,88,444,191
India,Maharashtra,Ahmednagar,"Tarakpur, Ahmednagar - MPCB",13-01-2024 03:00:00,19.10122,74.73339,OZONE,3,100,11
India,Maharashtra,Amravati,"Shivneri Colony, Amravati - MPCB",13-01-2024 03:00:00,20.9402359,77.7895248,NH3,2,3,2
India,Maharashtra,Amravati,"Shri Shivaji Science College, Amaravati - MPCB",13-01-2024 03:00:00,20.939198,77.765701,PM2.5,76,222,126
India,Maharashtra,Amravati,"Shri Shivaji Science College, Amaravati - MPCB",13-01-2024 03:00:00,20.939198,77.765701,PM10,96,389,158
India,Maharashtra,Aurangabad,"MIDC Chilkalthana, Aurangabad - MPCB",13-01-2024 03:00:00,19.875620,75.387310,PM10,99,191,130
India,Maharashtra,Aurangabad,"MIDC Chilkalthana, Aurangabad - MPCB",13-01-2024 03:00:00,19.875620,75.387310,NH3,3,4,4
India,Maharashtra,Aurangabad,"MIDC Chilkalthana, Aurangabad - MPCB",13-01-2024 03:00:00,19.875620,75.387310,OZONE,9,37,18
India,Maharashtra,Aurangabad,"More Chowk Waluj, Aurangabad - MPCB",13-01-2024 03:00:00,19.8389439,75.244448,OZONE,5,10,9
India,Maharashtra,Aurangabad,"Rachnakar Colony, Aurangabad - MPCB",13-01-2024 03:00:00,19.863756,75.321188,SO2,2,20,7
India,Maharashtra,Badlapur,"Katrap, Badlapur - MPCB",13-01-2024 03:00:00,19.16485,73.23409,NH3,2,3,3
India,Maharashtra,Badlapur,"Katrap, Badlapur - MPCB",13-01-2024 03:00:00,19.16485,73.23409,OZONE,1,136,48
India,Maharashtra,Belapur,"CBD Belapur, Belapur - MPCB",13-01-2024 03:00:00,19.0243902,73.0406721,NO2,22,76,52
India,Maharashtra,Bhiwandi,"Gokul Nagar, Bhiwandi - MPCB",13-01-2024 03:00:00,19.309073,73.057223,NO2,37,106,69
India,Maharashtra,Boisar,"Khaira, Boisar - MPCB",13-01-2024 03:00:00,19.786089,72.757971,NO2,1,130,18
India,Maharashtra,Boisar,"Khaira, Boisar - MPCB",13-01-2024 03:00:00,19.786089,72.757971,SO2,13,110,36
India,Maharashtra,Boisar,"Khaira, Boisar - MPCB",13-01-2024 03:00:00,19.786089,72.757971,OZONE,2,33,12
India,Maharashtra,Chandrapur,"Chauhan Colony, Chandrapur - MPCB",13-01-2024 03:00:00,19.962900,79.298714,NH3,2,2,2
India,Maharashtra,Jalgaon,"Prabhat Colony, Jalgaon - MPCB",13-01-2024 03:00:00,21.001264,75.565602,PM2.5,72,188,107
India,Maharashtra,Jalgaon,"Prabhat Colony, Jalgaon - MPCB",13-01-2024 03:00:00,21.001264,75.565602,NH3,7,12,9
India,Maharashtra,Jalna,"Old MIDC, Jalna - MPCB",13-01-2024 03:00:00,19.854616,75.905894,SO2,7,10,9
India,Maharashtra,Kalyan,"Khadakpada, Kalyan - MPCB",13-01-2024 03:00:00,19.25292,73.142019,CO,10,61,34
India,Maharashtra,Kolhapur,"Shivaji University, Kolhapur - MPCB",13-01-2024 03:00:00,16.6870449,74.2505872,OZONE,2,61,12
India,Maharashtra,Kolhapur,"Sinchan Bhavan, Kolhapur - MPCB",13-01-2024 03:00:00,16.7143745,74.2426398,PM10,107,257,160
India,Maharashtra,Latur,"Sawe Wadi, Latur - MPCB",13-01-2024 03:00:00,18.39963,76.57452,NH3,8,8,8
India,Maharashtra,Latur,"Sawe Wadi, Latur - MPCB",13-01-2024 03:00:00,18.39963,76.57452,SO2,4,8,6
India,Maharashtra,Malegaon,"Mahesh Nagar, Malegaon - MPCB",13-01-2024 03:00:00,20.555712,74.529236,NH3,8,9,9
India,Maharashtra,Mira-Bhayandar,"Bhayandar West, Mira-Bhayandar - MPCB",13-01-2024 03:00:00,19.296481,72.840923,NH3,5,9,6
India,Maharashtra,Mira-Bhayandar,"Bhayandar West, Mira-Bhayandar - MPCB",13-01-2024 03:00:00,19.296481,72.840923,SO2,3,10,6
India,Maharashtra,Mira-Bhayandar,"Bhayandar West, Mira-Bhayandar - MPCB",13-01-2024 03:00:00,19.296481,72.840923,CO,16,61,44
India,Maharashtra,Mira-Bhayandar,"Bhayandar West, Mira-Bhayandar - MPCB",13-01-2024 03:00:00,19.296481,72.840923,OZONE,4,80,28
India,Maharashtra,Mumbai,"Bandra Kurla Complex, Mumbai - MPCB",13-01-2024 03:00:00,19.065931,72.862131,NH3,14,46,21
India,Maharashtra,Mumbai,"Borivali East, Mumbai - IITM",13-01-2024 03:00:00,19.23241,72.86895,PM10,39,73,54
India,Maharashtra,Mumbai,"Borivali East, Mumbai - IITM",13-01-2024 03:00:00,19.23241,72.86895,OZONE,4,123,31
India,Maharashtra,Mumbai,"Borivali East, Mumbai - MPCB",13-01-2024 03:00:00,19.2243333,72.8658113,PM10,67,118,89
India,Maharashtra,Mumbai,"Borivali East, Mumbai - MPCB",13-01-2024 03:00:00,19.2243333,72.8658113,NH3,1,2,1
India,Maharashtra,Mumbai,"Borivali East, Mumbai - MPCB",13-01-2024 03:00:00,19.2243333,72.8658113,SO2,8,9,9
India,Maharashtra,Mumbai,"Byculla, Mumbai - BMC",13-01-2024 03:00:00,18.9767,72.8380,PM10,88,115,105
India,Maharashtra,Mumbai,"Byculla, Mumbai - BMC",13-01-2024 03:00:00,18.9767,72.8380,OZONE,1,232,64
India,Maharashtra,Mumbai,"Chakala-Andheri East, Mumbai - IITM",13-01-2024 03:00:00,19.11074,72.86084,CO,19,112,81
India,Maharashtra,Mumbai,"Chembur, Mumbai - MPCB",13-01-2024 03:00:00,19.0364585,72.8954371,PM10,123,150,136
India,Maharashtra,Mumbai,"Chembur, Mumbai - MPCB",13-01-2024 03:00:00,19.0364585,72.8954371,CO,36,105,84
India,Maharashtra,Mumbai,"Colaba, Mumbai - MPCB",13-01-2024 03:00:00,18.910000,72.820000,PM10,74,117,96
India,Maharashtra,Mumbai,"Colaba, Mumbai - MPCB",13-01-2024 03:00:00,18.910000,72.820000,NH3,1,1,1
India,Maharashtra,Mumbai,"Colaba, Mumbai - MPCB",13-01-2024 03:00:00,18.910000,72.820000,SO2,18,20,19
India,Maharashtra,Mumbai,"Ghatkopar, Mumbai - BMC",13-01-2024 03:00:00,19.083694,72.920967,NH3,1,2,1
India,Maharashtra,Mumbai,"Kandivali East, Mumbai - MPCB",13-01-2024 03:00:00,19.205800,72.868200,PM10,73,441,158
India,Maharashtra,Mumbai,"Kherwadi_Bandra East, Mumbai - MPCB",13-01-2024 03:00:00,19.0632143,72.8456324,CO,19,108,57
India,Maharashtra,Mumbai,"Kherwadi_Bandra East, Mumbai - MPCB",13-01-2024 03:00:00,19.0632143,72.8456324,OZONE,1,90,24
India,Maharashtra,Mumbai,"Khindipada-Bhandup West, Mumbai - IITM",13-01-2024 03:00:00,19.1653323,72.922099,OZONE,5,98,34
India,Maharashtra,Mumbai,"Kurla, Mumbai - MPCB",13-01-2024 03:00:00,19.0863,72.8888,SO2,32,32,32
India,Maharashtra,Mumbai,"Malad West, Mumbai - IITM",13-01-2024 03:00:00,19.19709,72.82204,NO2,11,21,15
India,Maharashtra,Mumbai,"Malad West, Mumbai - IITM",13-01-2024 03:00:00,19.19709,72.82204,SO2,2,25,9
India,Maharashtra,Mumbai,"Mazgaon, Mumbai - IITM",13-01-2024 03:00:00,18.96702,72.84214,PM2.5,187,286,232
India,Maharashtra,Mumbai,"Mazgaon, Mumbai - IITM",13-01-2024 03:00:00,18.96702,72.84214,PM10,107,165,138
India,Maharashtra,Mumbai,"Mazgaon, Mumbai - IITM",13-01-2024 03:00:00,18.96702,72.84214,OZONE,11,231,67
India,Maharashtra,Mumbai,"Mindspace-Malad West, Mumbai - MPCB",13-01-2024 03:00:00,19.1878657,72.8304069,PM2.5,NA,NA,NA
India,Maharashtra,Mumbai,"Mindspace-Malad West, Mumbai - MPCB",13-01-2024 03:00:00,19.1878657,72.8304069,PM10,NA,NA,NA
India,Maharashtra,Mumbai,"Mulund West, Mumbai - MPCB",13-01-2024 03:00:00,19.1750,72.9419,PM10,58,171,96
India,Maharashtra,Mumbai,"Mulund West, Mumbai - MPCB",13-01-2024 03:00:00,19.1750,72.9419,NO2,22,25,23
India,Maharashtra,Mumbai,"Powai, Mumbai - MPCB",13-01-2024 03:00:00,19.137500,72.915056,SO2,15,47,25
India,Maharashtra,Mumbai,"Sion, Mumbai - MPCB",13-01-2024 03:00:00,19.047000,72.874600,NH3,NA,NA,NA
India,Maharashtra,Mumbai,"Sion, Mumbai - MPCB",13-01-2024 03:00:00,19.047000,72.874600,CO,28,100,48
India,Maharashtra,Mumbai,"Worli, Mumbai - MPCB",13-01-2024 03:00:00,18.9936162,72.8128113,PM2.5,47,95,68
India,Maharashtra,Mumbai,"Worli, Mumbai - MPCB",13-01-2024 03:00:00,18.9936162,72.8128113,NO2,16,17,17
India,Maharashtra,Nagpur,"Mahal, Nagpur - MPCB",13-01-2024 03:00:00,21.14472,79.107595,SO2,39,120,74
India,Maharashtra,Nagpur,"Ram Nagar, Nagpur - MPCB",13-01-2024 03:00:00,21.143383,79.048912,PM2.5,47,179,86
India,Maharashtra,Nanded,"Sneh Nagar, Nanded - MPCB",13-01-2024 03:00:00,19.173852,77.296291,NH3,1,3,2
India,Maharashtra,Nanded,"Sneh Nagar, Nanded - MPCB",13-01-2024 03:00:00,19.173852,77.296291,OZONE,19,171,56
India,Maharashtra,Nashik,"Hirawadi, Nashik - MPCB",13-01-2024 03:00:00,20.021503,73.813844,PM10,42,89,73
India,Maharashtra,Nashik,"Hirawadi, Nashik - MPCB",13-01-2024 03:00:00,20.021503,73.813844,NH3,1,13,2
India,Maharashtra,Nashik,"MIDC Ambad, Nashik - MPCB",13-01-2024 03:00:00,19.950220,73.731480,CO,16,106,51
India,Maharashtra,Nashik,"MIDC Ambad, Nashik - MPCB",13-01-2024 03:00:00,19.950220,73.731480,OZONE,5,62,18
India,Maharashtra,Navi Mumbai,"Kopripada-Vashi, Navi Mumbai - MPCB",13-01-2024 03:00:00,19.090337,73.014232,OZONE,4,296,27
India,Maharashtra,Navi Mumbai,"Nerul, Navi Mumbai - MPCB",13-01-2024 03:00:00,19.008751,73.016620,NO2,5,99,20
India,Maharashtra,Navi Mumbai,"Sanpada, Navi Mumbai - MPCB",13-01-2024 03:00:00,19.0575752,73.0151367,PM10,102,152,128
India,Maharashtra,Navi Mumbai,"Sector-19A Nerul, Navi Mumbai - IITM",13-01-2024 03:00:00,19.044,73.0325,NO2,28,174,95
India,Maharashtra,Navi Mumbai,"Sector-19A Nerul, Navi Mumbai - IITM",13-01-2024 03:00:00,19.044,73.0325,CO,8,106,101
India,Maharashtra,Navi Mumbai,"Sector-19A Nerul, Navi Mumbai - IITM",13-01-2024 03:00:00,19.044,73.0325,OZONE,1,194,25
India,Maharashtra,Navi Mumbai,"Sector-2E Kalamboli, Navi Mumbai - MPCB",13-01-2024 03:00:00,19.02579,73.10297,SO2,2,38,14
India,Maharashtra,Navi Mumbai,"Tondare-Taloja, Navi Mumbai - MPCB",13-01-2024 03:00:00,19.0630,73.1209,NO2,26,144,83
India,Maharashtra,Navi Mumbai,"Tondare-Taloja, Navi Mumbai - MPCB",13-01-2024 03:00:00,19.0630,73.1209,SO2,12,43,24
India,Maharashtra,Parbhani,"Masoom Colony, Parbhani - MPCB",13-01-2024 03:00:00,19.265594,76.761463,OZONE,40,162,81
India,Maharashtra,Pimpri-Chinchwad,"Gavalinagar, Pimpri Chinchwad - MPCB",13-01-2024 03:00:00,18.63673,73.82487,NO2,29,113,66
India,Maharashtra,Pimpri-Chinchwad,"Park Street Wakad, Pimpri Chinchwad - MPCB",13-01-2024 03:00:00,18.59051,73.77946,OZONE,1,124,16
India,Maharashtra,Pimpri-Chinchwad,"Thergaon, Pimpri Chinchwad - MPCB",13-01-2024 03:00:00,18.616318,73.765797,NH3,7,22,14
India,Maharashtra,Pimpri-Chinchwad,"Thergaon, Pimpri Chinchwad - MPCB",13-01-2024 03:00:00,18.616318,73.765797,SO2,3,6,4
India,Maharashtra,Pune,"Bhosari, Pune - IITM",13-01-2024 03:00:00,18.640051,73.848956,NO2,10,25,17
India,Maharashtra,Pune,"Bhosari, Pune - IITM",13-01-2024 03:00:00,18.640051,73.848956,CO,30,56,49
India,Maharashtra,Pune,"Karve Road, Pune - MPCB",13-01-2024 03:00:00,18.5011743,73.8165527,PM10,97,156,117
India,Maharashtra,Pune,"Karve Road, Pune - MPCB",13-01-2024 03:00:00,18.5011743,73.8165527,SO2,16,30,20
India,Maharashtra,Pune,"Katraj Dairy, Pune - MPCB",13-01-2024 03:00:00,18.454450,73.854155,NO2,26,51,37
India,Maharashtra,Pune,"Katraj Dairy, Pune - MPCB",13-01-2024 03:00:00,18.454450,73.854155,CO,38,104,79
India,Maharashtra,Pune,"Revenue Colony-Shivajinagar, Pune - IITM",13-01-2024 03:00:00,18.530085,73.849598,NH3,15,30,23
India,Maharashtra,Pune,"Savitribai Phule Pune University, Pune - MPCB",13-01-2024 03:00:00,18.547056,73.826908,NH3,2,7,4
India,Maharashtra,Pune,"Transport Nagar-Nigdi, Pune - IITM",13-01-2024 03:00:00,18.664282,73.763966,PM2.5,43,181,104
India,Maharashtra,Pune,"Transport Nagar-Nigdi, Pune - IITM",13-01-2024 03:00:00,18.664282,73.763966,CO,40,99,53
India,Maharashtra,Sangli,"Vijay Nagar, Sangli - MPCB",13-01-2024 03:00:00, 16.5038,74.3623,NH3,2,5,3
India,Maharashtra,Sangli,"Vijay Nagar, Sangli - MPCB",13-01-2024 03:00:00, 16.5038,74.3623,SO2,9,14,11
India,Maharashtra,Sangli,"Vijay Nagar, Sangli - MPCB",13-01-2024 03:00:00, 16.5038,74.3623,OZONE,1,63,9
India,Maharashtra,Solapur,"Dnyaneshwar Nagar, Solapur - MPCB",13-01-2024 03:00:00,17.6336264,75.9132495,NO2,15,59,35
India,Maharashtra,Solapur,"Ratandeep Housing Society, Solapur - MPCB",13-01-2024 03:00:00,17.65439,75.90649,PM10,60,136,94
India,Maharashtra,Solapur,"Ratandeep Housing Society, Solapur - MPCB",13-01-2024 03:00:00,17.65439,75.90649,SO2,6,95,21
India,Maharashtra,Thane,"Kasarvadavali, Thane - MPCB",13-01-2024 03:00:00,19.26777,72.97182,OZONE,2,102,18
India,Maharashtra,Thane,"Upvan Fort, Thane - MPCB",13-01-2024 03:00:00,19.222279,72.957979,NH3,8,12,10
India,Maharashtra,Ulhasnagar,"Sidhi Vinayak Nagar, Ulhasnagar - MPCB",13-01-2024 03:00:00,19.235581,73.159121,PM2.5,85,307,196
India,Maharashtra,Virar,"Bolinj, Virar - MPCB",13-01-2024 03:00:00,19.4458210,72.7988231,CO,26,107,49
India,Manipur,Imphal,"DM College of Science, Imphal - Manipur PCB",13-01-2024 03:00:00,24.8207389,93.9423085,PM2.5,16,108,38
India,Meghalaya,Shillong,"JN Stadium, Shillong - Meghalaya PCB",13-01-2024 03:00:00,25.5803419,91.8942571,NO2,16,51,33
India,Meghalaya,Shillong,"Lumpyngngad, Shillong - Meghalaya PCB",13-01-2024 03:00:00,25.5586,91.8985,PM2.5,13,217,69
India,Nagaland,Kohima,"PWD Juction, Kohima - NPCB",13-01-2024 03:00:00,25.6635413,94.0989878,NH3,NA,NA,NA
India,Nagaland,Kohima,"PWD Juction, Kohima - NPCB",13-01-2024 03:00:00,25.6635413,94.0989878,SO2,84,99,88
India,Odisha,Angul,"Hakimapada, Angul - OSPCB",13-01-2024 03:00:00,20.832874,85.104082,PM2.5,123,434,297
India,Odisha,Angul,"Hakimapada, Angul - OSPCB",13-01-2024 03:00:00,20.832874,85.104082,CO,26,126,53
India,Odisha,Balasore,"Kalidaspur, Balasore - OSPCB",13-01-2024 03:00:00,21.51161,86.89088,PM10,80,483,156
India,Odisha,Balasore,"Kalidaspur, Balasore - OSPCB",13-01-2024 03:00:00,21.51161,86.89088,OZONE,7,98,22
India,Odisha,Baripada,"Meher Colony, Baripada - OSPCB",13-01-2024 03:00:00,21.941841,86.728318,PM2.5,72,303,178
India,Odisha,Baripada,"Meher Colony, Baripada - OSPCB",13-01-2024 03:00:00,21.941841,86.728318,SO2,4,6,5
India,Odisha,Baripada,"Meher Colony, Baripada - OSPCB",13-01-2024 03:00:00,21.941841,86.728318,CO,38,68,57
India,Odisha,Bhubaneswar,"Lingraj Mandir, Bhubaneswar - OSPCB",13-01-2024 03:00:00,20.240790,85.836784,NO2,26,79,39
India,Odisha,Bhubaneswar,"Lingraj Mandir, Bhubaneswar - OSPCB",13-01-2024 03:00:00,20.240790,85.836784,SO2,6,25,14
India,Odisha,Bhubaneswar,"Patia, Bhubaneswar - OSPCB",13-01-2024 03:00:00,20.34652,85.81630,PM2.5,103,321,202
India,Odisha,Bhubaneswar,"Patia, Bhubaneswar - OSPCB",13-01-2024 03:00:00,20.34652,85.81630,PM10,96,414,155
India,Odisha,Bhubaneswar,"Patia, Bhubaneswar - OSPCB",13-01-2024 03:00:00,20.34652,85.81630,NO2,20,122,37
India,Odisha,Brajrajnagar,"GM Office, Brajrajnagar - OSPCB",13-01-2024 03:00:00,21.8004996,83.8396977,PM10,27,106,65
India,Odisha,Byasanagar,"Ferro Chrome Colony, Byasanagar - OSPCB",13-01-2024 03:00:00,20.94185,86.11510,SO2,5,89,21
India,Odisha,Cuttack,"CDA Area, Cuttack - OSPCB",13-01-2024 03:00:00,20.48891     ,85.84768     ,NH3,2,5,3
India,Odisha,Keonjhar,"Jagamohanpur, Keonjhar - OSPCB",13-01-2024 03:00:00,21.643900,85.599355,PM10,41,141,121
India,Odisha,Keonjhar,"Jagamohanpur, Keonjhar - OSPCB",13-01-2024 03:00:00,21.643900,85.599355,NO2,17,103,58
India,Odisha,Keonjhar,"Jagamohanpur, Keonjhar - OSPCB",13-01-2024 03:00:00,21.643900,85.599355,NH3,10,15,12
India,Odisha,Rairangpur,"Divisional Forest Office, Rairangpur - OSPCB",13-01-2024 03:00:00,22.265816,86.174829,PM10,76,136,108
India,Odisha,Rourkela,"Fertilizer Township, Rourkela - OSPCB",13-01-2024 03:00:00,22.18972222,84.86277778,NO2,4,77,26
India,Odisha,Rourkela,"Fertilizer Township, Rourkela - OSPCB",13-01-2024 03:00:00,22.18972222,84.86277778,SO2,12,14,13
India,Odisha,Rourkela,"Raghunathpali, Rourkela - OSPCB",13-01-2024 03:00:00,22.220833,84.809444,PM10,41,132,89
India,Odisha,Talcher,"Talcher Coalfields,Talcher - OSPCB",13-01-2024 03:00:00,20.9360711,85.1707021,PM10,87,326,154
India,Odisha,Talcher,"Talcher Coalfields,Talcher - OSPCB",13-01-2024 03:00:00,20.9360711,85.1707021,CO,3,65,44
India,Odisha,Tensa,"Barsua Iron Ore Mines, Tensa - OSPCB",13-01-2024 03:00:00,21.869985,85.167016,PM2.5,41,151,91
India,Punjab,Jalandhar,"Civil Line, Jalandhar - PPCB",13-01-2024 03:00:00,31.321907,75.578914,PM2.5,52,149,101
India,Punjab,Jalandhar,"Civil Line, Jalandhar - PPCB",13-01-2024 03:00:00,31.321907,75.578914,NO2,30,33,31
India,Punjab,Khanna,"Kalal Majra, Khanna - PPCB",13-01-2024 03:00:00,30.736056 ,76.209694,CO,26,38,36
India,Punjab,Khanna,"Kalal Majra, Khanna - PPCB",13-01-2024 03:00:00,30.736056 ,76.209694,OZONE,16,26,17
India,Punjab,Mandi Gobindgarh,"RIMT University, Mandi Gobindgarh - PPCB",13-01-2024 03:00:00,30.649961,76.331442,CO,NA,NA,NA
India,Punjab,Patiala,"Model Town, Patiala - PPCB",13-01-2024 03:00:00,30.349388,76.366642,PM2.5,96,307,183
India,Punjab,Patiala,"Model Town, Patiala - PPCB",13-01-2024 03:00:00,30.349388,76.366642,PM10,109,175,131
India,Punjab,Patiala,"Model Town, Patiala - PPCB",13-01-2024 03:00:00,30.349388,76.366642,SO2,4,28,11
India,Punjab,Rupnagar,"Ratanpura, Rupnagar - Ambuja Cements",13-01-2024 03:00:00,31.0325454,76.5623046,PM10,42,152,82
India,Rajasthan,Ajmer,"Civil Lines,  Ajmer - RSPCB",13-01-2024 03:00:00,26.470859,74.646594,OZONE,1,235,35
India,Rajasthan,Alwar,"Moti Doongri, Alwar - RSPCB",13-01-2024 03:00:00,27.554793,76.611536,NO2,36,60,45
India,Rajasthan,Alwar,"Moti Doongri, Alwar - RSPCB",13-01-2024 03:00:00,27.554793,76.611536,SO2,6,34,19
India,Rajasthan,Alwar,"Moti Doongri, Alwar - RSPCB",13-01-2024 03:00:00,27.554793,76.611536,CO,26,111,82
India,Rajasthan,Alwar,"Moti Doongri, Alwar - RSPCB",13-01-2024 03:00:00,27.554793,76.611536,OZONE,7,32,10
India,Rajasthan,Banswara,"Rati Talai, Banswara - RSPCB",13-01-2024 03:00:00,23.555190,74.440010,NO2,1,22,7
India,Rajasthan,Banswara,"Rati Talai, Banswara - RSPCB",13-01-2024 03:00:00,23.555190,74.440010,CO,40,106,71
India,Rajasthan,Baran,"Bamboliya, Baran - RSPCB",13-01-2024 03:00:00,25.106006,76.469948,NH3,4,21,9
India,Rajasthan,Barmer,"Railway Colony, Barmer - RSPCB",13-01-2024 03:00:00,25.747299,71.393989,PM2.5,14,354,82
India,Rajasthan,Barmer,"Railway Colony, Barmer - RSPCB",13-01-2024 03:00:00,25.747299,71.393989,OZONE,2,121,44
India,Rajasthan,Bharatpur,"Krishna Nagar, Bharatpur - RSPCB",13-01-2024 03:00:00,27.215415,77.50873,PM2.5,94,412,288
India,Rajasthan,Bharatpur,"Krishna Nagar, Bharatpur - RSPCB",13-01-2024 03:00:00,27.215415,77.50873,OZONE,6,140,36
India,Rajasthan,Bhilwara,"Pratap Nagar, Bhilwara - RSPCB",13-01-2024 03:00:00,25.339605,74.618883,SO2,1,37,17
India,Rajasthan,Bhilwara,"Pratap Nagar, Bhilwara - RSPCB",13-01-2024 03:00:00,25.339605,74.618883,CO,20,115,75
India,Rajasthan,Bhilwara,"Pratap Nagar, Bhilwara - RSPCB",13-01-2024 03:00:00,25.339605,74.618883,OZONE,3,132,30
India,Rajasthan,Bhiwadi,"RIICO Ind. Area III, Bhiwadi - RSPCB",13-01-2024 03:00:00,28.194909,76.862296,PM2.5,72,410,261
India,Rajasthan,Bhiwadi,"RIICO Ind. Area III, Bhiwadi - RSPCB",13-01-2024 03:00:00,28.194909,76.862296,NO2,23,34,30
India,Rajasthan,Bikaner,"MM Ground, Bikaner - RSPCB",13-01-2024 03:00:00,28.018792,73.292658,PM2.5,66,435,196
India,Rajasthan,Bikaner,"MM Ground, Bikaner - RSPCB",13-01-2024 03:00:00,28.018792,73.292658,PM10,90,500,228
India,Rajasthan,Bikaner,"MM Ground, Bikaner - RSPCB",13-01-2024 03:00:00,28.018792,73.292658,CO,26,147,91
India,Rajasthan,Chittorgarh,"Shastri Nagar, Chittorgarh - RSPCB",13-01-2024 03:00:00,24.892047,74.623527,CO,NA,NA,NA
India,Rajasthan,Churu,"Subash Chowk, Churu - RSPCB",13-01-2024 03:00:00,28.296139,74.961696,CO,30,114,84
India,Rajasthan,Dausa,"Khatikan Mohalla, Dausa - RSPCB",13-01-2024 03:00:00,26.895552,76.334753,PM10,91,427,164
India,Rajasthan,Dausa,"Khatikan Mohalla, Dausa - RSPCB",13-01-2024 03:00:00,26.895552,76.334753,NH3,2,61,12
India,Rajasthan,Dungarpur,"Bhoiwada, Dungarpur - RSPCB",13-01-2024 03:00:00,23.837789,73.714926,PM2.5,52,329,152
India,Rajasthan,Dungarpur,"Bhoiwada, Dungarpur - RSPCB",13-01-2024 03:00:00,23.837789,73.714926,PM10,52,230,119
India,Rajasthan,Dungarpur,"Bhoiwada, Dungarpur - RSPCB",13-01-2024 03:00:00,23.837789,73.714926,NH3,7,8,8
India,Rajasthan,Dungarpur,"Bhoiwada, Dungarpur - RSPCB",13-01-2024 03:00:00,23.837789,73.714926,CO,22,102,80
India,Rajasthan,Hanumangarh,"Housing Board, Hanumangarh - RSPCB",13-01-2024 03:00:00,29.610750,74.283608,PM2.5,233,500,338
India,Rajasthan,Hanumangarh,"Housing Board, Hanumangarh - RSPCB",13-01-2024 03:00:00,29.610750,74.283608,NO2,31,94,45
India,Rajasthan,Jaipur,"Adarsh Nagar, Jaipur - RSPCB",13-01-2024 03:00:00,26.902909,75.836858,NH3,4,26,11
India,Rajasthan,Jaipur,"Mansarovar Sector-12, Jaipur - RSPCB",13-01-2024 03:00:00,26.843698,75.766894,PM2.5,45,417,200
India,Rajasthan,Jaipur,"Mansarovar Sector-12, Jaipur - RSPCB",13-01-2024 03:00:00,26.843698,75.766894,NH3,10,17,13
India,Rajasthan,Jaipur,"Police Commissionerate, Jaipur - RSPCB",13-01-2024 03:00:00,26.9164092,75.7994901,PM2.5,126,340,255
India,Rajasthan,Jaipur,"Sector-2 Murlipura, Jaipur - RSPCB",13-01-2024 03:00:00,26.960669,75.771817,PM2.5,94,411,272
India,Rajasthan,Jaipur,"Sector-2 Murlipura, Jaipur - RSPCB",13-01-2024 03:00:00,26.960669,75.771817,PM10,121,480,245
India,Rajasthan,Jaipur,"Sector-2 Murlipura, Jaipur - RSPCB",13-01-2024 03:00:00,26.960669,75.771817,NO2,2,21,13
India,Rajasthan,Jalore,"Mudtra Sili, Jalore - RSPCB",13-01-2024 03:00:00,25.344694,72.626208,PM2.5,50,400,161
India,Rajasthan,Jhalawar,"Rajlaxmi Nagar, Jhalawar - RSPCB",13-01-2024 03:00:00,24.588397,76.172782,NO2,9,53,25
India,Rajasthan,Jhalawar,"Rajlaxmi Nagar, Jhalawar - RSPCB",13-01-2024 03:00:00,24.588397,76.172782,CO,30,103,81
India,Rajasthan,Jhalawar,"Rajlaxmi Nagar, Jhalawar - RSPCB",13-01-2024 03:00:00,24.588397,76.172782,OZONE,5,100,27
India,Rajasthan,Jodhpur,"Collectorate, Jodhpur - RSPCB",13-01-2024 03:00:00,26.268249,73.0193853,SO2,2,30,18
India,Rajasthan,Jodhpur,"Digari Kalan, Jodhpur - RSPCB",13-01-2024 03:00:00,26.295810,73.082283,PM10,52,315,137
India,Rajasthan,Jodhpur,"Jhalamand, Jodhpur - RSPCB",13-01-2024 03:00:00,26.215415,73.070156,PM2.5,23,341,140
India,Rajasthan,Jodhpur,"Jhalamand, Jodhpur - RSPCB",13-01-2024 03:00:00,26.215415,73.070156,NH3,5,12,8
India,Rajasthan,Jodhpur,"Mandor, Jodhpur - RSPCB",13-01-2024 03:00:00,26.358805,73.047444,CO,24,108,73
India,Rajasthan,Jodhpur,"Samrat Ashok Udhyan, Jodhpur - RSPCB",13-01-2024 03:00:00,26.253384,72.976571,PM10,41,500,208
India,Rajasthan,Kota,"Nayapura, Kota - RSPCB",13-01-2024 03:00:00,25.196024,75.855668,NO2,28,110,62
India,Rajasthan,Kota,"Nayapura, Kota - RSPCB",13-01-2024 03:00:00,25.196024,75.855668,SO2,6,18,11
India,Rajasthan,Nagaur,"Karni Colony, Nagaur - RSPCB",13-01-2024 03:00:00,27.213494,73.734444,PM2.5,24,392,129
India,Rajasthan,Nagaur,"Karni Colony, Nagaur - RSPCB",13-01-2024 03:00:00,27.213494,73.734444,NO2,24,106,45
India,Rajasthan,Pali,"Indira Colony Vistar, Pali - RSPCB",13-01-2024 03:00:00,25.771061, 73.340227,PM2.5,62,354,167
India,Rajasthan,Pali,"Indira Colony Vistar, Pali - RSPCB",13-01-2024 03:00:00,25.771061, 73.340227,CO,18,83,53
India,Rajasthan,Sawai Madhopur,"Sahu Nagar, Sawai Madhopur - RSPCB",13-01-2024 03:00:00,26.031443,76.359327,PM2.5,26,316,118
India,Rajasthan,Sikar,"Radhakishan Pura, Sikar - RSPCB",13-01-2024 03:00:00,27.608912,75.153302,PM2.5,52,391,210
India,Rajasthan,Sikar,"Radhakishan Pura, Sikar - RSPCB",13-01-2024 03:00:00,27.608912,75.153302,NO2,10,112,36
India,Rajasthan,Sikar,"Radhakishan Pura, Sikar - RSPCB",13-01-2024 03:00:00,27.608912,75.153302,CO,23,127,78
India,Rajasthan,Sri Ganganagar,"Old City, Sri Ganganagar - RSPCB",13-01-2024 03:00:00,29.931624,73.864511,PM10,105,413,210
India,Rajasthan,Sri Ganganagar,"Old City, Sri Ganganagar - RSPCB",13-01-2024 03:00:00,29.931624,73.864511,OZONE,3,22,6
India,Rajasthan,Tonk,"Shastri Nagar, Tonk - RSPCB",13-01-2024 03:00:00,26.159933,75.780517,PM2.5,NA,NA,NA
India,Rajasthan,Tonk,"Shastri Nagar, Tonk - RSPCB",13-01-2024 03:00:00,26.159933,75.780517,OZONE,1,83,24
India,Rajasthan,Udaipur,"Ashok Nagar, Udaipur - RSPCB",13-01-2024 03:00:00,24.5886166,73.6321397,PM2.5,69,311,168
India,Rajasthan,Udaipur,"Ashok Nagar, Udaipur - RSPCB",13-01-2024 03:00:00,24.5886166,73.6321397,OZONE,17,23,21
India,Sikkim,Gangtok,"Zero Point GICI, Gangtok - SSPCB",13-01-2024 03:00:00,27.338530,88.614099,NO2,1,14,5
India,Sikkim,Gangtok,"Zero Point GICI, Gangtok - SSPCB",13-01-2024 03:00:00,27.338530,88.614099,OZONE,22,62,31
India,TamilNadu,Ariyalur,"Keelapalur, Ariyalur - TNPCB",13-01-2024 03:00:00,11.06825,79.07033,PM10,25,56,40
India,TamilNadu,Chennai,"Alandur Bus Depot, Chennai - CPCB",13-01-2024 03:00:00,12.9099161,80.1076538,NH3,6,9,7
India,TamilNadu,Chennai,"Alandur Bus Depot, Chennai - CPCB",13-01-2024 03:00:00,12.9099161,80.1076538,SO2,26,32,29
India,TamilNadu,Chennai,"Arumbakkam, Chennai - TNPCB",13-01-2024 03:00:00,13.0664,80.2112 ,SO2,2,19,9
India,TamilNadu,Chennai,"Kodungaiyur, Chennai - TNPCB",13-01-2024 03:00:00,13.1278,80.2642,OZONE,5,7,6
India,TamilNadu,Chennai,"Manali, Chennai - CPCB",13-01-2024 03:00:00,13.164544,80.26285,OZONE,8,29,18
India,TamilNadu,Chennai,"Perungudi, Chennai - TNPCB",13-01-2024 03:00:00,12.9533,80.2357,OZONE,29,61,46
India,TamilNadu,Chennai,"Royapuram, Chennai - TNPCB",13-01-2024 03:00:00,13.1036,80.2909,PM2.5,64,295,97
India,TamilNadu,Chennai,"Velachery Res. Area, Chennai - CPCB",13-01-2024 03:00:00,13.0052189,80.2398125,PM2.5,28,62,45
India,TamilNadu,Chennai,"Velachery Res. Area, Chennai - CPCB",13-01-2024 03:00:00,13.0052189,80.2398125,NO2,12,38,20
India,TamilNadu,Kanchipuram,"Kilambi, Kanchipuram - TNPCB",13-01-2024 03:00:00,12.864618,79.659968,PM10,NA,NA,NA
India,TamilNadu,Kanchipuram,"Kilambi, Kanchipuram - TNPCB",13-01-2024 03:00:00,12.864618,79.659968,CO,NA,NA,NA
India,TamilNadu,Palkalaiperur,"Bharathidasan University, Palkalaiperur - TNPCB",13-01-2024 03:00:00,10.681158,78.741746,OZONE,1,1,1
India,TamilNadu,Ramanathapuram,"Chalai Bazaar, Ramanathapuram - TNPCB",13-01-2024 03:00:00,9.36399,78.831977,PM10,42,94,60
India,TamilNadu,Salem,"Sona College of Technology, Salem - TNPCB",13-01-2024 03:00:00,11.679111,78.125052,PM10,42,118,72
India,TamilNadu,Salem,"Sona College of Technology, Salem - TNPCB",13-01-2024 03:00:00,11.679111,78.125052,NH3,1,1,1
India,TamilNadu,Salem,"Sona College of Technology, Salem - TNPCB",13-01-2024 03:00:00,11.679111,78.125052,SO2,18,102,65
India,TamilNadu,Thoothukudi,"Meelavittan, Thoothukudi - TNPCB",13-01-2024 03:00:00,8.816428 ,78.099039,SO2,8,24,13
India,TamilNadu,Tiruchirappalli,"St Joseph College, Tiruchirappalli - TNPCB",13-01-2024 03:00:00,10.830158,78.691849,PM2.5,51,75,60
India,TamilNadu,Tiruchirappalli,"St Joseph College, Tiruchirappalli - TNPCB",13-01-2024 03:00:00,10.830158,78.691849,NH3,3,3,3
India,TamilNadu,Tirupur,"Kumaran College, Tirupur - TNPCB",13-01-2024 03:00:00,11.0973603,77.3228673,PM2.5,35,76,48
India,TamilNadu,Tirupur,"Kumaran College, Tirupur - TNPCB",13-01-2024 03:00:00,11.0973603,77.3228673,PM10,63,170,106
India,TamilNadu,Vellore,"Vasanthapuram, Vellore - TNPCB",13-01-2024 03:00:00,12.909494,79.131861,NO2,8,28,16
India,TamilNadu,Virudhunagar,"Collectorate Office, Virudhunagar - TNPCB",13-01-2024 03:00:00,9.559382,77.948828,PM2.5,44,83,58
India,TamilNadu,Virudhunagar,"Collectorate Office, Virudhunagar - TNPCB",13-01-2024 03:00:00,9.559382,77.948828,PM10,52,98,69
India,Telangana,Hyderabad,"Central University, Hyderabad - TSPCB",13-01-2024 03:00:00,17.460103,78.334361,PM10,66,122,95
India,Telangana,Hyderabad,"Central University, Hyderabad - TSPCB",13-01-2024 03:00:00,17.460103,78.334361,NO2,5,38,27
India,Telangana,Hyderabad,"ECIL Kapra, Hyderabad - TSPCB",13-01-2024 03:00:00,17.470431,78.566959,PM2.5,36,47,42
India,Telangana,Hyderabad,"ECIL Kapra, Hyderabad - TSPCB",13-01-2024 03:00:00,17.470431,78.566959,OZONE,1,53,20
India,Telangana,Hyderabad,"ICRISAT Patancheru, Hyderabad - TSPCB",13-01-2024 03:00:00,17.518400,78.278777,NO2,15,17,16
India,Telangana,Hyderabad,"ICRISAT Patancheru, Hyderabad - TSPCB",13-01-2024 03:00:00,17.518400,78.278777,NH3,2,2,2
India,Telangana,Hyderabad,"ICRISAT Patancheru, Hyderabad - TSPCB",13-01-2024 03:00:00,17.518400,78.278777,SO2,5,20,10
India,Telangana,Hyderabad,"IITH Kandi, Hyderabad - TSPCB",13-01-2024 03:00:00,17.585705,78.126199,SO2,NA,NA,NA
India,Telangana,Hyderabad,"IITH Kandi, Hyderabad - TSPCB",13-01-2024 03:00:00,17.585705,78.126199,OZONE,9,24,24
India,Telangana,Hyderabad,"Kokapet, Hyderabad - TSPCB",13-01-2024 03:00:00,17.393559,78.339194,PM2.5,37,123,58
India,Telangana,Hyderabad,"Kompally Municipal Office, Hyderabad - TSPCB",13-01-2024 03:00:00,17.544899,78.486949,PM10,45,111,58
India,Telangana,Hyderabad,"New Malakpet, Hyderabad - TSPCB",13-01-2024 03:00:00,17.37206,78.50864,NO2,17,33,26
India,Telangana,Hyderabad,"New Malakpet, Hyderabad - TSPCB",13-01-2024 03:00:00,17.37206,78.50864,CO,18,45,28
India,Telangana,Hyderabad,"New Malakpet, Hyderabad - TSPCB",13-01-2024 03:00:00,17.37206,78.50864,OZONE,1,33,17
India,Telangana,Hyderabad,"Ramachandrapuram, Hyderabad - TSPCB",13-01-2024 03:00:00,17.528544,78.286195,SO2,NA,NA,NA
India,Telangana,Hyderabad,"Sanathnagar, Hyderabad - TSPCB",13-01-2024 03:00:00,17.4559458,78.4332152,PM2.5,76,326,184
India,Telangana,Hyderabad,"Sanathnagar, Hyderabad - TSPCB",13-01-2024 03:00:00,17.4559458,78.4332152,NO2,15,152,79
India,Telangana,Hyderabad,"Sanathnagar, Hyderabad - TSPCB",13-01-2024 03:00:00,17.4559458,78.4332152,SO2,3,10,7
India,Telangana,Hyderabad,"Somajiguda, Hyderabad - TSPCB",13-01-2024 03:00:00,17.417094,78.457437,CO,17,62,35
India,Tripura,Agartala,"Bardowali, Agartala - Tripura SPCB",13-01-2024 03:00:00,23.8175497,91.2726974,PM2.5,205,330,297
India,Uttar_Pradesh,Agra,"Rohta, Agra - UPPCB",13-01-2024 03:00:00,27.106972,78.000111,NH3,2,2,2
India,Uttar_Pradesh,Agra,"Rohta, Agra - UPPCB",13-01-2024 03:00:00,27.106972,78.000111,OZONE,21,23,21
India,Uttar_Pradesh,Agra,"Sanjay Palace, Agra - UPPCB",13-01-2024 03:00:00,27.19865833,78.00598056,PM2.5,72,302,161
India,Uttar_Pradesh,Agra,"Sector-3B Avas Vikas Colony, Agra - UPPCB",13-01-2024 03:00:00,27.19412,77.96237,SO2,14,20,16
India,Uttar_Pradesh,Agra,"Shastripuram, Agra - UPPCB",13-01-2024 03:00:00,27.19862,77.92066,PM10,42,249,132
India,Uttar_Pradesh,Agra,"Shastripuram, Agra - UPPCB",13-01-2024 03:00:00,27.19862,77.92066,CO,2,40,23
India,Uttar_Pradesh,Agra,"Shastripuram, Agra - UPPCB",13-01-2024 03:00:00,27.19862,77.92066,OZONE,4,82,18
India,Uttar_Pradesh,Bareilly,"Civil Lines, Bareilly - UPPCB",13-01-2024 03:00:00,28.359581,79.414455,PM10,NA,NA,NA
India,Uttar_Pradesh,Bareilly,"Civil Lines, Bareilly - UPPCB",13-01-2024 03:00:00,28.359581,79.414455,NH3,1,5,1
India,Uttar_Pradesh,Bareilly,"Rajendra Nagar, Bareilly - UPPCB",13-01-2024 03:00:00,28.38910936,79.42963708,PM10,93,138,113
India,Uttar_Pradesh,Bareilly,"Rajendra Nagar, Bareilly - UPPCB",13-01-2024 03:00:00,28.38910936,79.42963708,OZONE,8,13,9
India,Uttar_Pradesh,Bulandshahr,"Yamunapuram, Bulandshahr - UPPCB",13-01-2024 03:00:00,28.406963,77.849831,SO2,4,21,10
India,Uttar_Pradesh,Firozabad,"Nagla Bhau, Firozabad - UPPCB",13-01-2024 03:00:00,27.168897,78.376960,NO2,23,29,23
India,Uttar_Pradesh,Firozabad,"Nagla Bhau, Firozabad - UPPCB",13-01-2024 03:00:00,27.168897,78.376960,CO,11,80,55
India,Uttar_Pradesh,Firozabad,"Vibhab Nagar, Firozabad - UPPCB",13-01-2024 03:00:00,27.1594,78.3953,PM10,58,170,104
India,Uttar_Pradesh,Firozabad,"Vibhab Nagar, Firozabad - UPPCB",13-01-2024 03:00:00,27.1594,78.3953,NO2,30,77,51
India,Uttar_Pradesh,Ghaziabad,"Loni, Ghaziabad - UPPCB",13-01-2024 03:00:00,28.757294,77.278792,NH3,2,5,3
India,Uttar_Pradesh,Ghaziabad,"Vasundhara, Ghaziabad - UPPCB",13-01-2024 03:00:00,28.6603346,77.3572563,OZONE,4,131,15
India,Uttar_Pradesh,Greater Noida,"Knowledge Park - III, Greater Noida - UPPCB",13-01-2024 03:00:00,28.47272,77.482000,PM2.5,137,388,295
India,Uttar_Pradesh,Greater Noida,"Knowledge Park - III, Greater Noida - UPPCB",13-01-2024 03:00:00,28.47272,77.482000,NO2,30,93,48
India,Uttar_Pradesh,Greater Noida,"Knowledge Park - V, Greater Noida - UPPCB",13-01-2024 03:00:00,28.557054,77.453663,SO2,5,19,11
India,Uttar_Pradesh,Greater Noida,"Knowledge Park - V, Greater Noida - UPPCB",13-01-2024 03:00:00,28.557054,77.453663,CO,43,117,89
India,Uttar_Pradesh,Hapur,"Anand Vihar, Hapur - UPPCB",13-01-2024 03:00:00,28.725645,77.749675,PM10,117,296,179
India,Uttar_Pradesh,Hapur,"Anand Vihar, Hapur - UPPCB",13-01-2024 03:00:00,28.725645,77.749675,OZONE,11,64,19
India,Uttar_Pradesh,Kanpur,"FTI Kidwai Nagar, Kanpur - UPPCB",13-01-2024 03:00:00,26.428282,80.327067,OZONE,2,4,3
India,Uttar_Pradesh,Kanpur,"NSI Kalyanpur, Kanpur - UPPCB",13-01-2024 03:00:00,26.509954,80.249612,PM2.5,55,311,156
India,Uttar_Pradesh,Kanpur,"NSI Kalyanpur, Kanpur - UPPCB",13-01-2024 03:00:00,26.509954,80.249612,NH3,2,4,3
India,Uttar_Pradesh,Kanpur,"Nehru Nagar, Kanpur - UPPCB",13-01-2024 03:00:00,26.4703136,80.3229863,PM10,113,255,167
India,Uttar_Pradesh,Khurja,"Kalindi Kunj, Khurja - UPPCB",13-01-2024 03:00:00,28.2348927,77.8683002,OZONE,23,37,25
India,Uttar_Pradesh,Lucknow,"B R Ambedkar University, Lucknow - UPPCB",13-01-2024 03:00:00,26.766433,80.927299,SO2,23,25,24
India,Uttar_Pradesh,Lucknow,"Gomti Nagar, Lucknow - UPPCB",13-01-2024 03:00:00,26.868120,81.005119,NO2,6,8,7
India,Uttar_Pradesh,Lucknow,"Gomti Nagar, Lucknow - UPPCB",13-01-2024 03:00:00,26.868120,81.005119,SO2,1,54,14
India,Uttar_Pradesh,Lucknow,"Kendriya Vidyalaya, Lucknow - CPCB",13-01-2024 03:00:00,26.906111,80.948222,PM2.5,221,366,300
India,Uttar_Pradesh,Lucknow,"Kendriya Vidyalaya, Lucknow - CPCB",13-01-2024 03:00:00,26.906111,80.948222,PM10,137,207,164
India,Uttar_Pradesh,Lucknow,"Kendriya Vidyalaya, Lucknow - CPCB",13-01-2024 03:00:00,26.906111,80.948222,NO2,13,71,32
India,Uttar_Pradesh,Lucknow,"Kukrail Picnic Spot-1, Lucknow - UPPCB",13-01-2024 03:00:00,26.90723,80.98579,PM10,104,176,120
India,Uttar_Pradesh,Lucknow,"Kukrail Picnic Spot-1, Lucknow - UPPCB",13-01-2024 03:00:00,26.90723,80.98579,CO,26,52,31
India,Uttar_Pradesh,Lucknow,"Lalbagh, Lucknow - CPCB",13-01-2024 03:00:00,26.8458805,80.9365541,CO,61,114,103
India,Uttar_Pradesh,Lucknow,"Talkatora District Industries Center, Lucknow - CPCB",13-01-2024 03:00:00,26.83399722,80.8917361,NH3,16,48,33
India,Uttar_Pradesh,Meerut,"Ganga Nagar, Meerut - UPPCB",13-01-2024 03:00:00,28.999264,77.7590354,NO2,36,56,46
India,Uttar_Pradesh,Meerut,"Jai Bhim Nagar, Meerut - UPPCB",13-01-2024 03:00:00,28.9535882,77.7622941,SO2,6,18,11
India,Uttar_Pradesh,Meerut,"Jai Bhim Nagar, Meerut - UPPCB",13-01-2024 03:00:00,28.9535882,77.7622941,OZONE,13,96,32
India,Uttar_Pradesh,Meerut,"Pallavpuram Phase 2, Meerut - UPPCB",13-01-2024 03:00:00,29.063510,77.709723,CO,35,56,52
India,Uttar_Pradesh,Moradabad,"Buddhi Vihar, Moradabad - UPPCB",13-01-2024 03:00:00,28.83526,78.74460,NO2,23,24,23
India,Uttar_Pradesh,Moradabad,"Buddhi Vihar, Moradabad - UPPCB",13-01-2024 03:00:00,28.83526,78.74460,NH3,8,10,8
India,Uttar_Pradesh,Moradabad,"Buddhi Vihar, Moradabad - UPPCB",13-01-2024 03:00:00,28.83526,78.74460,SO2,14,20,16
India,Uttar_Pradesh,Moradabad,"Eco Herbal Park, Moradabad - UPPCB",13-01-2024 03:00:00,28.840739,78.697531,PM2.5,90,322,218
India,Uttar_Pradesh,Moradabad,"Eco Herbal Park, Moradabad - UPPCB",13-01-2024 03:00:00,28.840739,78.697531,SO2,3,14,7
India,Uttar_Pradesh,Moradabad,"Employment Office, Moradabad - UPPCB",13-01-2024 03:00:00,28.88528,78.73880,CO,75,104,99
India,Uttar_Pradesh,Moradabad,"Jigar Colony, Moradabad - UPPCB",13-01-2024 03:00:00,28.856664,78.772638,PM2.5,56,276,148
India,Uttar_Pradesh,Moradabad,"Jigar Colony, Moradabad - UPPCB",13-01-2024 03:00:00,28.856664,78.772638,PM10,72,209,158
India,Uttar_Pradesh,Moradabad,"Jigar Colony, Moradabad - UPPCB",13-01-2024 03:00:00,28.856664,78.772638,CO,52,74,58
India,Uttar_Pradesh,Moradabad,"Kashiram Nagar, Moradabad - UPPCB",13-01-2024 03:00:00,28.849399,78.742362,SO2,18,26,22
India,Uttar_Pradesh,Moradabad,"Transport Nagar, Moradabad - UPPCB",13-01-2024 03:00:00,28.802625,78.753728,OZONE,15,18,16
India,Uttar_Pradesh,Noida,"Sector - 125, Noida - UPPCB",13-01-2024 03:00:00,28.5447608,77.3231257,PM10,118,296,172
India,Uttar_Pradesh,Noida,"Sector - 125, Noida - UPPCB",13-01-2024 03:00:00,28.5447608,77.3231257,SO2,5,13,8
India,Uttar_Pradesh,Noida,"Sector-116, Noida - UPPCB",13-01-2024 03:00:00,28.569230,77.393848,PM2.5,263,413,339
India,Uttar_Pradesh,Noida,"Sector-116, Noida - UPPCB",13-01-2024 03:00:00,28.569230,77.393848,SO2,17,38,31
India,Uttar_Pradesh,Prayagraj,"Jhunsi, Prayagraj - UPPCB",13-01-2024 03:00:00,25.425602,81.917152,NH3,5,5,5
India,Uttar_Pradesh,Prayagraj,"Motilal Nehru NIT, Prayagraj - UPPCB",13-01-2024 03:00:00,25.494,81.863,NO2,8,21,12
India,Uttar_Pradesh,Varanasi,"Ardhali Bazar, Varanasi - UPPCB",13-01-2024 03:00:00,25.3505986,82.9083074,SO2,14,29,21
India,Uttar_Pradesh,Varanasi,"Maldahiya, Varanasi - UPPCB",13-01-2024 03:00:00,25.32393,82.99687,SO2,34,35,34
India,Uttar_Pradesh,Vrindavan,"Omex Eternity, Vrindavan - UPPCB",13-01-2024 03:00:00,27.5714090,77.6557570,PM2.5,28,205,89
India,Uttar_Pradesh,Vrindavan,"Omex Eternity, Vrindavan - UPPCB",13-01-2024 03:00:00,27.5714090,77.6557570,PM10,34,157,96
India,Uttar_Pradesh,Vrindavan,"Omex Eternity, Vrindavan - UPPCB",13-01-2024 03:00:00,27.5714090,77.6557570,CO,62,118,104
India,Uttarakhand,Dehradun,"Doon University, Dehradun - UKPCB",13-01-2024 03:00:00,30.269444,78.044167,SO2,1,1,1
India,Uttarakhand,Dehradun,"Doon University, Dehradun - UKPCB",13-01-2024 03:00:00,30.269444,78.044167,CO,94,109,105
India,Uttarakhand,Kashipur,"Govt. Girls Inter College, Kashipur - UKPCB",13-01-2024 03:00:00,29.2124114,78.9611753,NO2,20,79,44
India,Uttarakhand,Kashipur,"Govt. Girls Inter College, Kashipur - UKPCB",13-01-2024 03:00:00,29.2124114,78.9611753,OZONE,1,6,2
India,Uttarakhand,Rishikesh,"Shivaji Nagar, Rishikesh - UKPCB",13-01-2024 03:00:00,30.075911,78.2859547,PM2.5,69,190,114
India,Uttarakhand,Rishikesh,"Shivaji Nagar, Rishikesh - UKPCB",13-01-2024 03:00:00,30.075911,78.2859547,NO2,13,17,15
India,West_Bengal,Asansol,"Asansol Court Area, Asansol - WBPCB",13-01-2024 03:00:00,23.685297,86.945968,NO2,22,81,47
India,West_Bengal,Asansol,"Asansol Court Area, Asansol - WBPCB",13-01-2024 03:00:00,23.685297,86.945968,NH3,6,9,7
India,West_Bengal,Asansol,"Asansol Court Area, Asansol - WBPCB",13-01-2024 03:00:00,23.685297,86.945968,SO2,7,21,12
India,West_Bengal,Durgapur,"Sidhu Kanhu Indoor Stadium, Durgapur - WBPCB",13-01-2024 03:00:00,23.5404352,87.2892225,NH3,3,4,3
India,West_Bengal,Haldia,"Priyambada Housing Estate, Haldia - WBPCB",13-01-2024 03:00:00,22.06047,88.109737,PM2.5,69,187,112
India,West_Bengal,Haldia,"Priyambada Housing Estate, Haldia - WBPCB",13-01-2024 03:00:00,22.06047,88.109737,NO2,25,64,37
India,West_Bengal,Haldia,"Priyambada Housing Estate, Haldia - WBPCB",13-01-2024 03:00:00,22.06047,88.109737,CO,32,60,53
India,West_Bengal,Howrah,"Ghusuri, Howrah - WBPCB",13-01-2024 03:00:00,22.611968,88.347422,NH3,7,13,10
India,West_Bengal,Howrah,"Padmapukur, Howrah - WBPCB",13-01-2024 03:00:00,22.5687319,88.2797276,SO2,10,24,15
India,West_Bengal,Kolkata,"Ballygunge, Kolkata - WBPCB",13-01-2024 03:00:00,22.5367507,88.3638022,PM10,120,184,158
India,West_Bengal,Kolkata,"Ballygunge, Kolkata - WBPCB",13-01-2024 03:00:00,22.5367507,88.3638022,SO2,9,29,19
India,West_Bengal,Kolkata,"Fort William, Kolkata - WBPCB",13-01-2024 03:00:00,22.556640,88.342674,NO2,31,85,58
India,West_Bengal,Kolkata,"Fort William, Kolkata - WBPCB",13-01-2024 03:00:00,22.556640,88.342674,NH3,9,10,9
India,West_Bengal,Kolkata,"Rabindra Bharati University, Kolkata - WBPCB",13-01-2024 03:00:00,22.627847,88.380669,OZONE,7,85,32
India,West_Bengal,Kolkata,"Victoria, Kolkata - WBPCB",13-01-2024 03:00:00,22.5448082,88.3403691,PM2.5,166,306,246
India,West_Bengal,Kolkata,"Victoria, Kolkata - WBPCB",13-01-2024 03:00:00,22.5448082,88.3403691,PM10,133,170,151
India,Andhra_Pradesh,Amaravati,"Secretariat, Amaravati - APPCB",13-01-2024 03:00:00,16.5150833,80.5181667,OZONE,1,70,27
India,Andhra_Pradesh,Anantapur,"Gulzarpet, Anantapur - APPCB",13-01-2024 03:00:00,14.675886,77.593027,NO2,NA,NA,NA
India,Andhra_Pradesh,Anantapur,"Gulzarpet, Anantapur - APPCB",13-01-2024 03:00:00,14.675886,77.593027,OZONE,27,45,37
India,Andhra_Pradesh,Chittoor,"Gangineni Cheruvu, Chittoor - APPCB",13-01-2024 03:00:00,13.204880,79.097889,PM10,43,87,67
India,Andhra_Pradesh,Chittoor,"Gangineni Cheruvu, Chittoor - APPCB",13-01-2024 03:00:00,13.204880,79.097889,CO,4,25,12
India,Andhra_Pradesh,Kadapa,"Yerramukkapalli, Kadapa - APPCB",13-01-2024 03:00:00,14.465052,78.824187,PM10,17,77,50
India,Andhra_Pradesh,Tirupati,"Tirumala, Tirupati - APPCB",13-01-2024 03:00:00,13.67,79.35,OZONE,26,58,34
India,Andhra_Pradesh,Tirupati,"Vaikuntapuram, Tirupati - APPCB",13-01-2024 03:00:00,13.615387,79.409230,SO2,4,5,5
India,Andhra_Pradesh,Vijayawada,"HB Colony, Vijayawada - APPCB",13-01-2024 03:00:00,16.536107,80.594233,PM10,43,132,68
India,Andhra_Pradesh,Vijayawada,"HB Colony, Vijayawada - APPCB",13-01-2024 03:00:00,16.536107,80.594233,NO2,10,38,18
India,Andhra_Pradesh,Vijayawada,"HB Colony, Vijayawada - APPCB",13-01-2024 03:00:00,16.536107,80.594233,OZONE,3,80,37
India,Andhra_Pradesh,Visakhapatnam,"GVM Corporation, Visakhapatnam - APPCB",13-01-2024 03:00:00,17.72,83.3,PM10,128,457,167
India,Andhra_Pradesh,Visakhapatnam,"GVM Corporation, Visakhapatnam - APPCB",13-01-2024 03:00:00,17.72,83.3,CO,15,77,48
India,Assam,Byrnihat,"Central Academy for SFS, Byrnihat - PCBA",13-01-2024 03:00:00,26.071318,91.87488,PM2.5,160,358,265
India,Assam,Byrnihat,"Central Academy for SFS, Byrnihat - PCBA",13-01-2024 03:00:00,26.071318,91.87488,PM10,115,256,159
India,Assam,Guwahati,"IITG, Guwahati - PCBA",13-01-2024 03:00:00,26.2028636,91.70046436,PM2.5,NA,NA,NA
India,Assam,Guwahati,"IITG, Guwahati - PCBA",13-01-2024 03:00:00,26.2028636,91.70046436,NH3,NA,NA,NA
India,Assam,Guwahati,"LGBI Airport, Guwahati - PCBA",13-01-2024 03:00:00,26.10887,91.589544,PM10,138,356,217
India,Assam,Guwahati,"LGBI Airport, Guwahati - PCBA",13-01-2024 03:00:00,26.10887,91.589544,SO2,12,16,14
India,Assam,Guwahati,"Pan Bazaar, Guwahati - PCBA",13-01-2024 03:00:00,26.187500,91.744194,SO2,56,84,64
India,Assam,Guwahati,"Railway Colony, Guwahati - PCBA",13-01-2024 03:00:00,26.181742,91.78063,PM10,NA,NA,NA
India,Assam,Guwahati,"Railway Colony, Guwahati - PCBA",13-01-2024 03:00:00,26.181742,91.78063,OZONE,NA,NA,NA
India,Assam,Nagaon,"Christianpatty, Nagaon - PCBA",13-01-2024 03:00:00,26.349082,92.68449,PM2.5,140,364,237
India,Assam,Nagaon,"Christianpatty, Nagaon - PCBA",13-01-2024 03:00:00,26.349082,92.68449,NO2,13,26,19
India,Assam,Nagaon,"Christianpatty, Nagaon - PCBA",13-01-2024 03:00:00,26.349082,92.68449,SO2,NA,NA,NA
India,Assam,Nagaon,"Christianpatty, Nagaon - PCBA",13-01-2024 03:00:00,26.349082,92.68449,CO,NA,NA,NA
India,Assam,Sivasagar,"Girls College, Sivasagar - PCBA",13-01-2024 03:00:00,26.987634,94.636574,PM10,32,87,59
India,Assam,Sivasagar,"Girls College, Sivasagar - PCBA",13-01-2024 03:00:00,26.987634,94.636574,NH3,2,3,2
India,Bihar,Araria,"Kharahiya Basti, Araria - BSPCB",13-01-2024 03:00:00,26.146529,87.454184,OZONE,10,50,13
India,Bihar,Arrah,"New DM Office, Arrah - BSPCB",13-01-2024 03:00:00,25.5626095,84.663264,NH3,6,8,7
India,Bihar,Arrah,"New DM Office, Arrah - BSPCB",13-01-2024 03:00:00,25.5626095,84.663264,SO2,14,21,19
India,Bihar,Aurangabad,"Gurdeo Nagar, Aurangabad - BSPCB",13-01-2024 03:00:00,24.75746,84.366208,NH3,4,9,6
India,Bihar,Bettiah,"Kamalnath Nagar, Bettiah - BSPCB",13-01-2024 03:00:00,26.80365,84.51954,SO2,12,21,18
India,Bihar,Bhagalpur,"Mayaganj, Bhagalpur - BSPCB",13-01-2024 03:00:00,25.265194,87.012947,NH3,9,10,9
India,Bihar,Bhagalpur,"Mayaganj, Bhagalpur - BSPCB",13-01-2024 03:00:00,25.265194,87.012947,OZONE,24,85,44
India,Bihar,Bihar Sharif,"D M Colony, Bihar Sharif - BSPCB",13-01-2024 03:00:00,25.204762,85.514960,NH3,2,2,2
India,Bihar,Gaya,"Collectorate, Gaya - BSPCB",13-01-2024 03:00:00,24.7955,84.9994,PM2.5,116,326,244
India,Bihar,Gaya,"Collectorate, Gaya - BSPCB",13-01-2024 03:00:00,24.7955,84.9994,NO2,17,23,20
India,Bihar,Gaya,"Kareemganj, Gaya - BSPCB",13-01-2024 03:00:00,24.792403,84.992416,PM2.5,8,80,42
India,Bihar,Katihar,"Mirchaibari, Katihar - BSPCB",13-01-2024 03:00:00,25.560083,87.553265,PM2.5,80,402,241
India,Bihar,Katihar,"Mirchaibari, Katihar - BSPCB",13-01-2024 03:00:00,25.560083,87.553265,NO2,15,35,23
India,Bihar,Kishanganj,"SDM Office_Khagra, Kishanganj - BSPCB",13-01-2024 03:00:00,26.0881305,87.93840336,PM10,170,500,268
India,Bihar,Motihari,"Gandak Colony, Motihari - BSPCB",13-01-2024 03:00:00,26.63086,84.90051,PM2.5,85,310,205
India,Bihar,Motihari,"Gandak Colony, Motihari - BSPCB",13-01-2024 03:00:00,26.63086,84.90051,NO2,61,98,78
India,Bihar,Muzaffarpur,"Buddha Colony, Muzaffarpur - BSPCB",13-01-2024 03:00:00,26.11442,85.39813,NH3,19,24,22
India,Bihar,Muzaffarpur,"MIT-Daudpur Kothi, Muzaffarpur - BSPCB",13-01-2024 03:00:00,26.1403345,85.3650192,NO2,6,8,7
India,Bihar,Patna,"Govt. High School Shikarpur, Patna - BSPCB",13-01-2024 03:00:00,25.592539,85.227158,NO2,NA,NA,NA
India,Bihar,Patna,"Govt. High School Shikarpur, Patna - BSPCB",13-01-2024 03:00:00,25.592539,85.227158,SO2,NA,NA,NA
India,Bihar,Patna,"Govt. High School Shikarpur, Patna - BSPCB",13-01-2024 03:00:00,25.592539,85.227158,CO,70,116,100
India,Bihar,Patna,"Muradpur, Patna - BSPCB",13-01-2024 03:00:00,25.619651,85.147382,SO2,2,6,4
India,Bihar,Patna,"Rajbansi Nagar, Patna - BSPCB",13-01-2024 03:00:00,25.599486,85.113666,CO,6,77,52
India,Bihar,Patna,"Samanpura, Patna - BSPCB",13-01-2024 03:00:00,25.596727,85.085624,CO,106,166,135
India,Bihar,Rajgir,"Dangi Tola, Rajgir - BSPCB",13-01-2024 03:00:00,25.03280,85.41948,PM2.5,113,371,284
India,Bihar,Rajgir,"Dangi Tola, Rajgir - BSPCB",13-01-2024 03:00:00,25.03280,85.41948,NH3,1,9,2
India,Bihar,Saharsa,"Police Line, Saharsa - BSPCB",13-01-2024 03:00:00,25.892357,86.590325,OZONE,2,8,4
India,Bihar,Samastipur,"DM Office_Kasipur, Samastipur - BSPCB",13-01-2024 03:00:00,25.859655,85.77944,SO2,9,17,14
India,Bihar,Samastipur,"DM Office_Kasipur, Samastipur - BSPCB",13-01-2024 03:00:00,25.859655,85.77944,OZONE,6,10,6
India,Bihar,Sasaram,"Dada Peer, Sasaram - BSPCB",13-01-2024 03:00:00,24.952822,84.002396,PM10,30,148,103
India,Bihar,Siwan,"Chitragupta Nagar, Siwan - BSPCB",13-01-2024 03:00:00,26.2271665,84.3570427,SO2,12,35,31
India,Chandigarh,Chandigarh,"Sector 22, Chandigarh - CPCC",13-01-2024 03:00:00,30.735567,76.775714,SO2,2,57,12
India,Chandigarh,Chandigarh,"Sector-25, Chandigarh - CPCC",13-01-2024 03:00:00,30.751462,76.762879,CO,42,66,63
India,Chandigarh,Chandigarh,"Sector-25, Chandigarh - CPCC",13-01-2024 03:00:00,30.751462,76.762879,OZONE,1,55,1
India,Chandigarh,Chandigarh,"Sector-53, Chandigarh - CPCC",13-01-2024 03:00:00,30.719859,76.738637,PM2.5,197,424,343
India,Chandigarh,Chandigarh,"Sector-53, Chandigarh - CPCC",13-01-2024 03:00:00,30.719859,76.738637,SO2,2,20,6
India,Chhattisgarh,Bhilai,"32Bungalows, Bhilai - CECB",13-01-2024 03:00:00,21.194815,81.314770,CO,44,70,58
India,Chhattisgarh,Bhilai,"32Bungalows, Bhilai - CECB",13-01-2024 03:00:00,21.194815,81.314770,OZONE,4,7,4
India,Chhattisgarh,Bhilai,"Civic Center, Bhilai - Bhilai Steel Plant",13-01-2024 03:00:00,21.185571,81.343175,PM2.5,34,88,58
India,Chhattisgarh,Bhilai,"Civic Center, Bhilai - Bhilai Steel Plant",13-01-2024 03:00:00,21.185571,81.343175,NH3,2,2,2
India,Chhattisgarh,Bhilai,"Hathkhoj, Bhilai - CECB",13-01-2024 03:00:00,21.224231,81.408350,PM10,73,175,102
India,Chhattisgarh,Bhilai,"Hathkhoj, Bhilai - CECB",13-01-2024 03:00:00,21.224231,81.408350,OZONE,11,31,19
India,Chhattisgarh,Bilaspur,"Mangala, Bilaspur - NTPC",13-01-2024 03:00:00,22.08815,82.13737,PM10,26,195,76
India,Chhattisgarh,Bilaspur,"Mangala, Bilaspur - NTPC",13-01-2024 03:00:00,22.08815,82.13737,NO2,10,11,10
India,Chhattisgarh,Korba,"Rampur, Korba - CECB",13-01-2024 03:00:00,22.368195,82.746431,OZONE,2,39,3
India,Chhattisgarh,Korba,"Urja Nagar, Korba - CECB",13-01-2024 03:00:00,22.348441,82.549611,PM2.5,13,49,24
India,Chhattisgarh,Korba,"Urja Nagar, Korba - CECB",13-01-2024 03:00:00,22.348441,82.549611,PM10,15,51,31
India,Chhattisgarh,Korba,"Urja Nagar, Korba - CECB",13-01-2024 03:00:00,22.348441,82.549611,NO2,26,65,52
India,Chhattisgarh,Korba,"Urja Nagar, Korba - CECB",13-01-2024 03:00:00,22.348441,82.549611,CO,14,37,26
India,Chhattisgarh,Korba,"Urja Nagar, Korba - CECB",13-01-2024 03:00:00,22.348441,82.549611,OZONE,47,82,47
India,Chhattisgarh,Kunjemura,"OP Jindal School, Kunjemura - CECB",13-01-2024 03:00:00,22.126650,83.483212,PM10,43,474,160
India,Chhattisgarh,Kunjemura,"OP Jindal School, Kunjemura - CECB",13-01-2024 03:00:00,22.126650,83.483212,SO2,1,46,15
India,Chhattisgarh,Kunjemura,"OP Jindal School, Kunjemura - CECB",13-01-2024 03:00:00,22.126650,83.483212,CO,20,84,34
India,Chhattisgarh,Milupara,"Govt. Higher Secondary School, Milupara - CECB",13-01-2024 03:00:00,22.1910172,83.5197009,PM2.5,12,45,25
India,Chhattisgarh,Raipur,"AIIMS, Raipur - CECB",13-01-2024 03:00:00,21.258815,81.578979,NO2,48,64,55
India,Chhattisgarh,Raipur,"AIIMS, Raipur - CECB",13-01-2024 03:00:00,21.258815,81.578979,NH3,4,4,4
India,Chhattisgarh,Raipur,"AIIMS, Raipur - CECB",13-01-2024 03:00:00,21.258815,81.578979,SO2,5,60,14
India,Chhattisgarh,Raipur,"AIIMS, Raipur - CECB",13-01-2024 03:00:00,21.258815,81.578979,CO,28,63,52
India,Chhattisgarh,Raipur,"AIIMS, Raipur - CECB",13-01-2024 03:00:00,21.258815,81.578979,OZONE,1,25,1
India,Chhattisgarh,Raipur,"Bhatagaon New ISBT, Raipur - CECB",13-01-2024 03:00:00,21.219665,81.630094,PM10,26,165,86
India,Chhattisgarh,Raipur,"Bhatagaon New ISBT, Raipur - CECB",13-01-2024 03:00:00,21.219665,81.630094,NH3,2,4,3
India,Chhattisgarh,Raipur,"Bhatagaon New ISBT, Raipur - CECB",13-01-2024 03:00:00,21.219665,81.630094,OZONE,3,5,3
India,Chhattisgarh,Raipur,"Krishak Nagar, Raipur - CECB",13-01-2024 03:00:00,21.237755,81.705301,NO2,20,43,33
India,Delhi,Delhi,"Anand Vihar, Delhi - DPCC",13-01-2024 03:00:00,28.647622,77.3158090,CO,114,136,127
India,Delhi,Delhi,"Anand Vihar, Delhi - DPCC",13-01-2024 03:00:00,28.647622,77.3158090,OZONE,15,33,16
India,Delhi,Delhi,"Bawana, Delhi - DPCC",13-01-2024 03:00:00,28.776200,77.051074,NH3,7,10,9
India,Delhi,Delhi,"Bawana, Delhi - DPCC",13-01-2024 03:00:00,28.776200,77.051074,OZONE,3,59,8
India,Delhi,Delhi,"CRRI Mathura Road, Delhi - IMD",13-01-2024 03:00:00,28.5512005,77.2735737,PM2.5,NA,NA,NA
India,Delhi,Delhi,"DTU, Delhi - CPCB",13-01-2024 03:00:00,28.7500499,77.1112615,PM2.5,83,337,177
India,Delhi,Delhi,"DTU, Delhi - CPCB",13-01-2024 03:00:00,28.7500499,77.1112615,NO2,27,49,36
India,Delhi,Delhi,"DTU, Delhi - CPCB",13-01-2024 03:00:00,28.7500499,77.1112615,SO2,25,27,26
India,Delhi,Delhi,"Dr. Karni Singh Shooting Range, Delhi - DPCC",13-01-2024 03:00:00,28.498571,77.264840,PM2.5,268,468,351
India,Delhi,Delhi,"Dr. Karni Singh Shooting Range, Delhi - DPCC",13-01-2024 03:00:00,28.498571,77.264840,NH3,9,23,12
India,Delhi,Delhi,"Dwarka-Sector 8, Delhi - DPCC ",13-01-2024 03:00:00,28.5710274,77.0719006,NO2,30,106,61
India,Delhi,Delhi,"ITO, Delhi - CPCB",13-01-2024 03:00:00,28.628624,77.241060,NH3,5,12,9
India,Delhi,Delhi,"ITO, Delhi - CPCB",13-01-2024 03:00:00,28.628624,77.241060,CO,55,117,106
India,Delhi,Delhi,"Jahangirpuri, Delhi - DPCC",13-01-2024 03:00:00,28.732820,77.170633,CO,46,109,88
India,Delhi,Delhi,"Jahangirpuri, Delhi - DPCC",13-01-2024 03:00:00,28.732820,77.170633,OZONE,6,35,8
India,Delhi,Delhi,"Jawaharlal Nehru Stadium, Delhi - DPCC",13-01-2024 03:00:00,28.580280,77.233829,NO2,57,126,85
India,Delhi,Delhi,"Jawaharlal Nehru Stadium, Delhi - DPCC",13-01-2024 03:00:00,28.580280,77.233829,SO2,13,37,20
India,Delhi,Delhi,"Lodhi Road, Delhi - IITM",13-01-2024 03:00:00,28.588333,77.221667,PM2.5,31,307,153
India,Delhi,Delhi,"Lodhi Road, Delhi - IITM",13-01-2024 03:00:00,28.588333,77.221667,OZONE,15,16,16
India,Delhi,Delhi,"Major Dhyan Chand National Stadium, Delhi - DPCC",13-01-2024 03:00:00,28.611281,77.237738,SO2,8,19,13
India,Delhi,Delhi,"Mundka, Delhi - DPCC",13-01-2024 03:00:00,28.684678,77.076574,PM2.5,313,500,380
India,Delhi,Delhi,"NSIT Dwarka, Delhi - CPCB",13-01-2024 03:00:00,28.60909,77.0325413,PM10,113,350,212
India,Delhi,Delhi,"NSIT Dwarka, Delhi - CPCB",13-01-2024 03:00:00,28.60909,77.0325413,SO2,8,16,11
India,Delhi,Delhi,"Najafgarh, Delhi - DPCC",13-01-2024 03:00:00,28.570173,76.933762,NH3,6,9,7
India,Delhi,Delhi,"Narela, Delhi - DPCC",13-01-2024 03:00:00,28.822836,77.101981,SO2,3,12,6
India,Delhi,Delhi,"Narela, Delhi - DPCC",13-01-2024 03:00:00,28.822836,77.101981,OZONE,6,86,16
India,Delhi,Delhi,"Nehru Nagar, Delhi - DPCC",13-01-2024 03:00:00,28.567890,77.250515,PM2.5,325,500,404
India,Delhi,Delhi,"New Moti Bagh, Delhi - MHUA",13-01-2024 03:00:00,28.57834,77.18400,CO,50,119,106
India,Delhi,Delhi,"North Campus, DU, Delhi - IMD",13-01-2024 03:00:00,28.6573814,77.1585447,PM2.5,NA,NA,NA
India,Delhi,Delhi,"North Campus, DU, Delhi - IMD",13-01-2024 03:00:00,28.6573814,77.1585447,PM10,NA,NA,NA
India,Delhi,Delhi,"North Campus, DU, Delhi - IMD",13-01-2024 03:00:00,28.6573814,77.1585447,NO2,NA,NA,NA
India,Delhi,Delhi,"Okhla Phase-2, Delhi - DPCC",13-01-2024 03:00:00,28.530785,77.271255,PM10,165,465,276
India,Delhi,Delhi,"Patparganj, Delhi - DPCC",13-01-2024 03:00:00,28.623763,77.287209,NO2,42,103,66
India,Delhi,Delhi,"Punjabi Bagh, Delhi - DPCC",13-01-2024 03:00:00,28.674045,77.131023,PM2.5,303,500,388
India,Delhi,Delhi,"Punjabi Bagh, Delhi - DPCC",13-01-2024 03:00:00,28.674045,77.131023,SO2,4,11,6
India,Delhi,Delhi,"Punjabi Bagh, Delhi - DPCC",13-01-2024 03:00:00,28.674045,77.131023,CO,46,110,91
India,Delhi,Delhi,"Pusa, Delhi - DPCC",13-01-2024 03:00:00,28.639652,77.146275,SO2,2,88,23
India,Delhi,Delhi,"Pusa, Delhi - IMD",13-01-2024 03:00:00,28.636110,77.173332,OZONE,12,13,13
India,Delhi,Delhi,"R K Puram, Delhi - DPCC",13-01-2024 03:00:00,28.563262,77.186937,PM10,130,430,255
India,Delhi,Delhi,"R K Puram, Delhi - DPCC",13-01-2024 03:00:00,28.563262,77.186937,NH3,6,12,8
India,Delhi,Delhi,"Rohini, Delhi - DPCC",13-01-2024 03:00:00,28.732528,77.119920,NO2,29,83,49
India,Delhi,Delhi,"Sirifort, Delhi - CPCB",13-01-2024 03:00:00,28.5504249,77.2159377,PM10,145,440,261
India,Delhi,Delhi,"Sirifort, Delhi - CPCB",13-01-2024 03:00:00,28.5504249,77.2159377,NO2,108,184,155
India,Delhi,Delhi,"Sirifort, Delhi - CPCB",13-01-2024 03:00:00,28.5504249,77.2159377,CO,32,105,86
India,Delhi,Delhi,"Sirifort, Delhi - CPCB",13-01-2024 03:00:00,28.5504249,77.2159377,OZONE,16,48,31
India,Delhi,Delhi,"Sonia Vihar, Delhi - DPCC",13-01-2024 03:00:00,28.710508,77.249485,PM10,153,442,282
India,Delhi,Delhi,"Sonia Vihar, Delhi - DPCC",13-01-2024 03:00:00,28.710508,77.249485,NO2,39,102,59
India,Delhi,Delhi,"Sonia Vihar, Delhi - DPCC",13-01-2024 03:00:00,28.710508,77.249485,SO2,3,9,5
India,Delhi,Delhi,"Sonia Vihar, Delhi - DPCC",13-01-2024 03:00:00,28.710508,77.249485,CO,54,107,94
India,Delhi,Delhi,"Sri Aurobindo Marg, Delhi - DPCC",13-01-2024 03:00:00,28.531346,77.190156,OZONE,3,26,7
India,Delhi,Delhi,"Vivek Vihar, Delhi - DPCC",13-01-2024 03:00:00,28.672342,77.315260,PM10,194,457,316
India,Delhi,Delhi,"Vivek Vihar, Delhi - DPCC",13-01-2024 03:00:00,28.672342,77.315260,OZONE,1,19,4
India,Delhi,Delhi,"Wazirpur, Delhi - DPCC",13-01-2024 03:00:00,28.699793,77.165453,NH3,4,7,5
India,Gujarat,Ahmedabad,"Chandkheda, Ahmedabad - IITM",13-01-2024 03:00:00,23.107969,72.574648,NH3,4,4,4
India,Gujarat,Ahmedabad,"Gyaspur, Ahmedabad - IITM",13-01-2024 03:00:00,22.977134,72.553024,PM2.5,75,332,148
India,Gujarat,Ahmedabad,"Maninagar, Ahmedabad - GPCB",13-01-2024 03:00:00,23.002657,72.591912,PM2.5,56,171,88
India,Gujarat,Ahmedabad,"Maninagar, Ahmedabad - GPCB",13-01-2024 03:00:00,23.002657,72.591912,NO2,20,100,51
India,Gujarat,Ahmedabad,"Rakhial, Ahmedabad - IITM",13-01-2024 03:00:00,23.016834,72.625775,PM2.5,76,242,136
India,Gujarat,Ahmedabad,"Rakhial, Ahmedabad - IITM",13-01-2024 03:00:00,23.016834,72.625775,NH3,1,7,5
India,Gujarat,Ahmedabad,"SAC ISRO Bopal, Ahmedabad - IITM",13-01-2024 03:00:00,23.041137,72.456691,OZONE,16,24,16
India,Gujarat,Ahmedabad,"SAC ISRO Satellite, Ahmedabad - IITM",13-01-2024 03:00:00,23.023389,72.515201,PM2.5,60,86,73
India,Gujarat,Ahmedabad,"SAC ISRO Satellite, Ahmedabad - IITM",13-01-2024 03:00:00,23.023389,72.515201,SO2,4,11,6
India,Gujarat,Ahmedabad,"SVPI Airport Hansol, Ahmedabad - IITM",13-01-2024 03:00:00,23.076793,72.627874,CO,45,90,73
India,Gujarat,Ahmedabad,"Sardar Vallabhbhai Patel Stadium, Ahmedabad - IITM",13-01-2024 03:00:00,23.043070,72.562968,NH3,3,3,3
India,Gujarat,Ahmedabad,"Sardar Vallabhbhai Patel Stadium, Ahmedabad - IITM",13-01-2024 03:00:00,23.043070,72.562968,CO,18,62,48
India,Gujarat,Ankleshwar,"GIDC, Ankleshwar - GPCB",13-01-2024 03:00:00,21.613267,73.010555,CO,40,103,77
India,Gujarat,Ankleshwar,"GIDC, Ankleshwar - GPCB",13-01-2024 03:00:00,21.613267,73.010555,OZONE,20,28,23
India,Gujarat,Gandhinagar,"GIFT City, Gandhinagar - IITM",13-01-2024 03:00:00,23.163798,72.677768,PM2.5,40,81,50
India,Gujarat,Gandhinagar,"GIFT City, Gandhinagar - IITM",13-01-2024 03:00:00,23.163798,72.677768,NH3,2,2,2
India,Gujarat,Gandhinagar,"GIFT City, Gandhinagar - IITM",13-01-2024 03:00:00,23.163798,72.677768,CO,12,28,21
India,Gujarat,Gandhinagar,"IIPHG Lekawada, Gandhinagar - IITM",13-01-2024 03:00:00,23.243639,72.68994,NH3,3,3,3
India,Gujarat,Gandhinagar,"IIPHG Lekawada, Gandhinagar - IITM",13-01-2024 03:00:00,23.243639,72.68994,SO2,8,9,9
India,Gujarat,Gandhinagar,"IIPHG Lekawada, Gandhinagar - IITM",13-01-2024 03:00:00,23.243639,72.68994,CO,26,60,52
India,Gujarat,Gandhinagar,"Sector-10, Gandhinagar - GPCB",13-01-2024 03:00:00,23.221714,72.654328,OZONE,15,15,15
India,Gujarat,Surat,"Science Center, Surat - SMC",13-01-2024 03:00:00,21.170046,72.795405,PM10,46,98,68
India,Gujarat,Surat,"Science Center, Surat - SMC",13-01-2024 03:00:00,21.170046,72.795405,SO2,14,20,16
India,Gujarat,Vapi,"Phase-1 GIDC, Vapi - GPCB",13-01-2024 03:00:00,20.362421,72.918013,PM2.5,76,322,207
India,Haryana,Ambala,"Patti Mehar, Ambala - HSPCB",13-01-2024 03:00:00,30.379589,76.778328,NH3,NA,NA,NA
India,Haryana,Bhiwani,"H.B. Colony, Bhiwani - HSPCB",13-01-2024 03:00:00,28.806223,76.141105,NO2,6,13,9
India,Haryana,Faridabad,"New Industrial Town, Faridabad - HSPCB",13-01-2024 03:00:00,28.39072,77.30059,SO2,6,13,9
India,Haryana,Faridabad,"New Industrial Town, Faridabad - HSPCB",13-01-2024 03:00:00,28.39072,77.30059,CO,17,88,58
India,Haryana,Faridabad,"Sector 11, Faridabad - HSPCB",13-01-2024 03:00:00,28.376058,77.315741,SO2,1,12,6
India,Haryana,Faridabad,"Sector 30, Faridabad - HSPCB",13-01-2024 03:00:00,28.4417,77.3217,PM10,127,147,135
India,Haryana,Faridabad,"Sector 30, Faridabad - HSPCB",13-01-2024 03:00:00,28.4417,77.3217,CO,50,150,106
India,Haryana,Faridabad,"Sector- 16A, Faridabad - HSPCB",13-01-2024 03:00:00,28.4088421,77.3099081,CO,10,125,95
India,Haryana,Faridabad,"Sector- 16A, Faridabad - HSPCB",13-01-2024 03:00:00,28.4088421,77.3099081,OZONE,14,14,14
India,Haryana,Fatehabad,"Huda Sector, Fatehabad - HSPCB",13-01-2024 03:00:00,29.503664,75.467934,OZONE,50,66,64
India,Haryana,Gurugram,"Sector-51, Gurugram - HSPCB",13-01-2024 03:00:00,28.4227,77.0667,PM2.5,157,500,329
India,Haryana,Gurugram,"Sector-51, Gurugram - HSPCB",13-01-2024 03:00:00,28.4227,77.0667,SO2,1,5,3
India,Haryana,Gurugram,"Teri Gram, Gurugram - HSPCB",13-01-2024 03:00:00,28.4275,77.1465,NO2,16,53,35
India,Haryana,Hisar,"Urban Estate-II, Hisar - HSPCB",13-01-2024 03:00:00,29.140560,75.744941,PM2.5,87,303,191
India,Haryana,Jind,"Police Lines, Jind - HSPCB",13-01-2024 03:00:00,29.307814,76.337619,NH3,2,5,4
India,Haryana,Jind,"Police Lines, Jind - HSPCB",13-01-2024 03:00:00,29.307814,76.337619,CO,2,126,34
India,Haryana,Kaithal,"Rishi Nagar, Kaithal - HSPCB",13-01-2024 03:00:00,29.8006,76.4155,CO,20,88,75
India,Haryana,Karnal,"Sector-12, Karnal - HSPCB",13-01-2024 03:00:00,29.695300,77.002700,PM2.5,119,234,180
India,Haryana,Kurukshetra,"Sector-7, Kurukshetra - HSPCB",13-01-2024 03:00:00,29.966942,76.875879,NH3,4,6,5
India,Haryana,Kurukshetra,"Sector-7, Kurukshetra - HSPCB",13-01-2024 03:00:00,29.966942,76.875879,SO2,2,44,14
India,Haryana,Mandikhera,"General Hospital, Mandikhera - HSPCB",13-01-2024 03:00:00,27.9002,76.9938,NO2,16,22,19
India,Haryana,Mandikhera,"General Hospital, Mandikhera - HSPCB",13-01-2024 03:00:00,27.9002,76.9938,CO,20,71,54
India,Haryana,Mandikhera,"General Hospital, Mandikhera - HSPCB",13-01-2024 03:00:00,27.9002,76.9938,OZONE,24,32,26
India,Haryana,Manesar,"Sector-2 IMT, Manesar - HSPCB",13-01-2024 03:00:00,28.360699,76.936090,NO2,17,28,22
India,Haryana,Manesar,"Sector-2 IMT, Manesar - HSPCB",13-01-2024 03:00:00,28.360699,76.936090,OZONE,5,29,7
India,Haryana,Narnaul,"Shastri Nagar, Narnaul - HSPCB",13-01-2024 03:00:00,28.060249,76.113115,PM10,6,145,92
India,Haryana,Narnaul,"Shastri Nagar, Narnaul - HSPCB",13-01-2024 03:00:00,28.060249,76.113115,NH3,5,15,11
India,Haryana,Narnaul,"Shastri Nagar, Narnaul - HSPCB",13-01-2024 03:00:00,28.060249,76.113115,SO2,10,103,24
India,Haryana,Narnaul,"Shastri Nagar, Narnaul - HSPCB",13-01-2024 03:00:00,28.060249,76.113115,CO,3,20,13
India,Haryana,Rohtak,"MD University, Rohtak - HSPCB",13-01-2024 03:00:00,28.52123,76.37138,NO2,47,55,51
India,Haryana,Rohtak,"MD University, Rohtak - HSPCB",13-01-2024 03:00:00,28.52123,76.37138,CO,29,34,31
India,Haryana,Sirsa,"F-Block, Sirsa - HSPCB",13-01-2024 03:00:00,29.536400,75.015800,PM10,56,114,88
India,Haryana,Sonipat,"Murthal, Sonipat - HSPCB",13-01-2024 03:00:00,29.027200,77.062100,PM2.5,108,344,225
India,Haryana,Sonipat,"Murthal, Sonipat - HSPCB",13-01-2024 03:00:00,29.027200,77.062100,PM10,108,324,171
India,Haryana,Sonipat,"Murthal, Sonipat - HSPCB",13-01-2024 03:00:00,29.027200,77.062100,CO,34,56,49
India,Haryana,Yamuna Nagar,"Gobind Pura, Yamuna Nagar - HSPCB",13-01-2024 03:00:00,30.1480566,77.2893471,PM2.5,73,262,179
India,Haryana,Yamuna Nagar,"Gobind Pura, Yamuna Nagar - HSPCB",13-01-2024 03:00:00,30.1480566,77.2893471,OZONE,5,9,7
India,Jharkhand,Dhanbad,"Kalakusuma, Dhanbad - DMC",13-01-2024 03:00:00,23.811548,86.481238,SO2,113,115,115
India,Jharkhand,Dhanbad,"Sardar Patel Nagar, Dhanbad - JSPCB",13-01-2024 03:00:00,23.80569,86.44268,NO2,117,189,148
India,Jharkhand,Dhanbad,"Sardar Patel Nagar, Dhanbad - JSPCB",13-01-2024 03:00:00,23.80569,86.44268,SO2,1,35,19
India,Karnataka,Bagalkot,"Vidayagiri, Bagalkot - KSPCB",13-01-2024 03:00:00,16.172806,75.659694,PM2.5,24,36,35
India,Karnataka,Belgaum,"Ramteerth Nagar, Belgaum - KSPCB",13-01-2024 03:00:00,15.888653,74.541751,CO,34,56,42
India,Karnataka,Bengaluru,"Hombegowda Nagar, Bengaluru - KSPCB",13-01-2024 03:00:00,12.938539,77.590100,NO2,27,39,35
India,Karnataka,Bengaluru,"Hombegowda Nagar, Bengaluru - KSPCB",13-01-2024 03:00:00,12.938539,77.590100,OZONE,4,6,5
India,Karnataka,Bengaluru,"Jayanagar 5th Block, Bengaluru - KSPCB",13-01-2024 03:00:00,12.920984,77.584908,NH3,2,3,3
India,Karnataka,Bengaluru,"Jayanagar 5th Block, Bengaluru - KSPCB",13-01-2024 03:00:00,12.920984,77.584908,OZONE,18,19,18
India,Karnataka,Bengaluru,"Jigani, Bengaluru - KSPCB",13-01-2024 03:00:00,12.7816279,77.6299145,PM10,63,178,105
India,Karnataka,Bengaluru,"Jigani, Bengaluru - KSPCB",13-01-2024 03:00:00,12.7816279,77.6299145,NH3,2,3,3
India,Karnataka,Bengaluru,"Jigani, Bengaluru - KSPCB",13-01-2024 03:00:00,12.7816279,77.6299145,SO2,8,16,12
India,Karnataka,Bengaluru,"Kasturi Nagar, Bengaluru - KSPCB",13-01-2024 03:00:00,13.003872,77.664217,NH3,3,4,4
India,Karnataka,Bengaluru,"Peenya, Bengaluru - CPCB",13-01-2024 03:00:00,13.0270199,77.494094,OZONE,36,38,37
India,Karnataka,Bengaluru,"Sanegurava Halli, Bengaluru - KSPCB",13-01-2024 03:00:00,12.990328,77.5431385,PM10,26,57,34
India,Karnataka,Bengaluru,"Sanegurava Halli, Bengaluru - KSPCB",13-01-2024 03:00:00,12.990328,77.5431385,SO2,2,8,3
India,Karnataka,Bidar,"Naubad, Bidar - KSPCB",13-01-2024 03:00:00,17.930306,77.482194,NO2,7,9,8
India,Karnataka,Chikkaballapur,"Chikkaballapur Rural, Chikkaballapur - KSPCB",13-01-2024 03:00:00,13.428828,77.731418,SO2,17,25,20
India,Karnataka,Chikkaballapur,"Chikkaballapur Rural, Chikkaballapur - KSPCB",13-01-2024 03:00:00,13.428828,77.731418,OZONE,24,26,25
India,Karnataka,Chikkamagaluru,"Kalyana Nagara, Chikkamagaluru - KSPCB",13-01-2024 03:00:00,13.328028,75.797056,PM2.5,39,58,47
India,Karnataka,Chikkamagaluru,"Kalyana Nagara, Chikkamagaluru - KSPCB",13-01-2024 03:00:00,13.328028,75.797056,PM10,28,71,50
India,Karnataka,Chikkamagaluru,"Kalyana Nagara, Chikkamagaluru - KSPCB",13-01-2024 03:00:00,13.328028,75.797056,NO2,21,36,27
India,Karnataka,Chikkamagaluru,"Kalyana Nagara, Chikkamagaluru - KSPCB",13-01-2024 03:00:00,13.328028,75.797056,SO2,1,6,3
India,Karnataka,Chikkamagaluru,"Kalyana Nagara, Chikkamagaluru - KSPCB",13-01-2024 03:00:00,13.328028,75.797056,OZONE,17,66,24
India,Karnataka,Davanagere,"Devaraj Urs Badavane, Davanagere - KSPCB",13-01-2024 03:00:00,14.475800,75.905200,PM2.5,33,96,63
India,Karnataka,Davanagere,"Devaraj Urs Badavane, Davanagere - KSPCB",13-01-2024 03:00:00,14.475800,75.905200,SO2,3,5,4
India,Karnataka,Haveri,"Ashwini Nagar, Haveri - KSPCB",13-01-2024 03:00:00,14.791800,75.389600,PM2.5,49,141,86
India,Karnataka,Hubballi,"Lingaraj Nagar, Hubballi - KSPCB",13-01-2024 03:00:00,15.3714823,75.1160168,PM2.5,17,59,38
India,Karnataka,Hubballi,"Lingaraj Nagar, Hubballi - KSPCB",13-01-2024 03:00:00,15.3714823,75.1160168,PM10,62,122,80
