country,state,city,station,last_update,latitude,longitude,pollutant_id,pollutant_min,pollutant_max,pollutant_avg
India,Andhra_Pradesh,Amaravati,"Secretariat, Amaravati - APPCB",22-03-2024 16:00:00,16.5150833,80.5181667,PM10,32,114,55
India,Andhra_Pradesh,Amaravati,"Secretariat, Amaravati - APPCB",22-03-2024 16:00:00,16.5150833,80.5181667,NO2,6,13,9
India,Andhra_Pradesh,Amaravati,"Secretariat, Amaravati - APPCB",22-03-2024 16:00:00,16.5150833,80.5181667,NH3,4,5,4
India,Andhra_Pradesh,Amaravati,"Secretariat, Amaravati - APPCB",22-03-2024 16:00:00,16.5150833,80.5181667,SO2,13,19,16
India,Andhra_Pradesh,Anantapur,"Gulzarpet, Anantapur - APPCB",22-03-2024 16:00:00,14.675886,77.593027,PM2.5,20,54,34
India,Andhra_Pradesh,Anantapur,"Gulzarpet, Anantapur - APPCB",22-03-2024 16:00:00,14.675886,77.593027,PM10,67,90,74
India,Andhra_Pradesh,Anantapur,"Gulzarpet, Anantapur - APPCB",22-03-2024 16:00:00,14.675886,77.593027,SO2,3,7,5
India,Andhra_Pradesh,Anantapur,"Gulzarpet, Anantapur - APPCB",22-03-2024 16:00:00,14.675886,77.593027,CO,24,50,38
India,Andhra_Pradesh,Chittoor,"Gangineni Cheruvu, Chittoor - APPCB",22-03-2024 16:00:00,13.204880,79.097889,PM2.5,36,73,48
India,Andhra_Pradesh,Kadapa,"Yerramukkapalli, Kadapa - APPCB",22-03-2024 16:00:00,14.465052,78.824187,CO,10,18,13
India,Andhra_Pradesh,Rajamahendravaram,"Anand Kala Kshetram, Rajamahendravaram - APPCB",22-03-2024 16:00:00,16.9872867,81.7363176,OZONE,7,32,23
India,Andhra_Pradesh,Tirupati,"Tirumala, Tirupati - APPCB",22-03-2024 16:00:00,13.67,79.35,CO,21,36,26
India,Andhra_Pradesh,Tirupati,"Vaikuntapuram, Tirupati - APPCB",22-03-2024 16:00:00,13.615387,79.409230,PM10,16,114,52
India,Andhra_Pradesh,Tirupati,"Vaikuntapuram, Tirupati - APPCB",22-03-2024 16:00:00,13.615387,79.409230,NO2,3,28,17
India,Andhra_Pradesh,Vijayawada,"HB Colony, Vijayawada - APPCB",22-03-2024 16:00:00,16.536107,80.594233,NH3,4,4,4
India,Andhra_Pradesh,Vijayawada,"HB Colony, Vijayawada - APPCB",22-03-2024 16:00:00,16.536107,80.594233,CO,34,48,40
India,Andhra_Pradesh,Vijayawada,"Kanuru, Vijayawada - APPCB",22-03-2024 16:00:00,16.486692,80.699436,OZONE,28,28,28
India,Andhra_Pradesh,Vijayawada,"Rajiv Gandhi Park, Vijayawada - APPCB",22-03-2024 16:00:00,16.509717,80.612222,OZONE,3,70,45
India,Andhra_Pradesh,Visakhapatnam,"GVM Corporation, Visakhapatnam - APPCB",22-03-2024 16:00:00,17.72,83.3,CO,7,86,29
India,Arunachal_Pradesh,Naharlagun,"Naharlagun, Naharlagun - APSPCB",22-03-2024 16:00:00,27.103358,93.679645,CO,11,30,12
India,Arunachal_Pradesh,Naharlagun,"Naharlagun, Naharlagun - APSPCB",22-03-2024 16:00:00,27.103358,93.679645,OZONE,2,2,2
India,Assam,Guwahati,"IITG, Guwahati - PCBA",22-03-2024 16:00:00,26.2028636,91.70046436,PM2.5,50,300,124
India,Assam,Guwahati,"IITG, Guwahati - PCBA",22-03-2024 16:00:00,26.2028636,91.70046436,NO2,1,3,2
India,Assam,Guwahati,"Pan Bazaar, Guwahati - PCBA",22-03-2024 16:00:00,26.187500,91.744194,NO2,1,3,1
India,Assam,Guwahati,"Pan Bazaar, Guwahati - PCBA",22-03-2024 16:00:00,26.187500,91.744194,OZONE,18,18,18
India,Assam,Guwahati,"Railway Colony, Guwahati - PCBA",22-03-2024 16:00:00,26.181742,91.78063,PM2.5,1,96,64
India,Assam,Guwahati,"Railway Colony, Guwahati - PCBA",22-03-2024 16:00:00,26.181742,91.78063,NO2,3,3,3
India,Assam,Guwahati,"Railway Colony, Guwahati - PCBA",22-03-2024 16:00:00,26.181742,91.78063,CO,8,29,21
India,Assam,Nagaon,"Christianpatty, Nagaon - PCBA",22-03-2024 16:00:00,26.349082,92.68449,PM2.5,2,43,12
India,Assam,Nagaon,"Christianpatty, Nagaon - PCBA",22-03-2024 16:00:00,26.349082,92.68449,NO2,6,32,16
India,Assam,Nagaon,"Christianpatty, Nagaon - PCBA",22-03-2024 16:00:00,26.349082,92.68449,CO,5,48,41
India,Assam,Nalbari,"Bata Chowk, Nalbari - PCBA",22-03-2024 16:00:00,26.446912,91.439057,NH3,1,2,1
India,Assam,Silchar,"Tarapur, Silchar - PCBA",22-03-2024 16:00:00,24.82827,92.79525,SO2,1,9,5
India,Assam,Silchar,"Tarapur, Silchar - PCBA",22-03-2024 16:00:00,24.82827,92.79525,CO,32,46,37
India,Assam,Sivasagar,"Girls College, Sivasagar - PCBA",22-03-2024 16:00:00,26.987634,94.636574,PM10,27,58,42
India,Assam,Sivasagar,"Girls College, Sivasagar - PCBA",22-03-2024 16:00:00,26.987634,94.636574,NH3,2,2,2
India,Bihar,Araria,"Kharahiya Basti, Araria - BSPCB",22-03-2024 16:00:00,26.146529,87.454184,NO2,5,9,7
India,Bihar,Araria,"Kharahiya Basti, Araria - BSPCB",22-03-2024 16:00:00,26.146529,87.454184,SO2,12,16,14
India,Bihar,Araria,"Kharahiya Basti, Araria - BSPCB",22-03-2024 16:00:00,26.146529,87.454184,CO,22,28,24
India,Bihar,Bhagalpur,"DM Office_Kachari Chowk, Bhagalpur - BSPCB",22-03-2024 16:00:00,25.251013,86.989001,OZONE,41,58,48
India,Bihar,Bhagalpur,"Mayaganj, Bhagalpur - BSPCB",22-03-2024 16:00:00,25.265194,87.012947,OZONE,9,25,18
India,Bihar,Bihar Sharif,"D M Colony, Bihar Sharif - BSPCB",22-03-2024 16:00:00,25.204762,85.514960,PM10,28,109,70
India,Bihar,Bihar Sharif,"D M Colony, Bihar Sharif - BSPCB",22-03-2024 16:00:00,25.204762,85.514960,SO2,1,20,8
India,Bihar,Gaya,"Collectorate, Gaya - BSPCB",22-03-2024 16:00:00,24.7955,84.9994,NO2,2,4,3
India,Bihar,Gaya,"SFTI Kusdihra, Gaya - BSPCB",22-03-2024 16:00:00,24.762518,84.982348,NO2,20,45,31
India,Bihar,Gaya,"SFTI Kusdihra, Gaya - BSPCB",22-03-2024 16:00:00,24.762518,84.982348,NH3,1,5,3
India,Bihar,Hajipur,"Industrial Area, Hajipur - BSPCB",22-03-2024 16:00:00,25.697189,85.245900,NH3,2,8,6
India,Bihar,Katihar,"Mirchaibari, Katihar - BSPCB",22-03-2024 16:00:00,25.560083,87.553265,PM10,NA,NA,NA
India,Bihar,Katihar,"Mirchaibari, Katihar - BSPCB",22-03-2024 16:00:00,25.560083,87.553265,CO,13,13,13
India,Bihar,Katihar,"Mirchaibari, Katihar - BSPCB",22-03-2024 16:00:00,25.560083,87.553265,OZONE,11,24,14
India,Bihar,Kishanganj,"SDM Office_Khagra, Kishanganj - BSPCB",22-03-2024 16:00:00,26.0881305,87.93840336,CO,4,4,4
India,Bihar,Manguraha,"Forest Rest House, Manguraha - BSPCB",22-03-2024 16:00:00,27.308328,84.531742,OZONE,17,35,27
India,Bihar,Motihari,"Gandak Colony, Motihari - BSPCB",22-03-2024 16:00:00,26.63086,84.90051,PM2.5,20,57,37
India,Bihar,Motihari,"Gandak Colony, Motihari - BSPCB",22-03-2024 16:00:00,26.63086,84.90051,NO2,6,37,24
India,Bihar,Munger,"Town Hall, Munger - BSPCB",22-03-2024 16:00:00,25.376776,86.471523,SO2,19,31,27
India,Bihar,Munger,"Town Hall, Munger - BSPCB",22-03-2024 16:00:00,25.376776,86.471523,OZONE,14,134,60
India,Bihar,Muzaffarpur,"Buddha Colony, Muzaffarpur - BSPCB",22-03-2024 16:00:00,26.11442,85.39813,PM10,57,185,120
India,Bihar,Muzaffarpur,"Buddha Colony, Muzaffarpur - BSPCB",22-03-2024 16:00:00,26.11442,85.39813,CO,18,88,29
India,Bihar,Muzaffarpur,"MIT-Daudpur Kothi, Muzaffarpur - BSPCB",22-03-2024 16:00:00,26.1403345,85.3650192,PM10,NA,NA,NA
India,Bihar,Patna,"DRM Office Danapur, Patna - BSPCB",22-03-2024 16:00:00,25.586562,85.043586,NO2,9,68,26
India,Bihar,Patna,"Govt. High School Shikarpur, Patna - BSPCB",22-03-2024 16:00:00,25.592539,85.227158,SO2,16,19,18
India,Bihar,Patna,"Govt. High School Shikarpur, Patna - BSPCB",22-03-2024 16:00:00,25.592539,85.227158,OZONE,1,59,39
India,Bihar,Patna,"IGSC Planetarium Complex, Patna - BSPCB",22-03-2024 16:00:00,25.610369,85.132568,CO,12,13,12
India,Bihar,Patna,"IGSC Planetarium Complex, Patna - BSPCB",22-03-2024 16:00:00,25.610369,85.132568,OZONE,4,68,30
India,Bihar,Patna,"Rajbansi Nagar, Patna - BSPCB",22-03-2024 16:00:00,25.599486,85.113666,CO,20,106,40
India,Bihar,Patna,"Rajbansi Nagar, Patna - BSPCB",22-03-2024 16:00:00,25.599486,85.113666,OZONE,2,65,40
India,Bihar,Purnia,"Mariam Nagar, Purnia - BSPCB",22-03-2024 16:00:00,25.366336,87.117468,PM10,20,103,49
India,Bihar,Purnia,"Mariam Nagar, Purnia - BSPCB",22-03-2024 16:00:00,25.366336,87.117468,NH3,2,2,2
India,Bihar,Rajgir,"Dangi Tola, Rajgir - BSPCB",22-03-2024 16:00:00,25.03280,85.41948,SO2,4,4,4
India,Bihar,Saharsa,"Police Line, Saharsa - BSPCB",22-03-2024 16:00:00,25.892357,86.590325,CO,10,50,25
India,Bihar,Saharsa,"Police Line, Saharsa - BSPCB",22-03-2024 16:00:00,25.892357,86.590325,OZONE,7,44,28
India,Bihar,Samastipur,"DM Office_Kasipur, Samastipur - BSPCB",22-03-2024 16:00:00,25.859655,85.77944,OZONE,8,11,9
India,Bihar,Sasaram,"Dada Peer, Sasaram - BSPCB",22-03-2024 16:00:00,24.952822,84.002396,SO2,19,23,21
India,Bihar,Siwan,"Chitragupta Nagar, Siwan - BSPCB",22-03-2024 16:00:00,26.2271665,84.3570427,PM10,NA,NA,NA
India,Bihar,Siwan,"Chitragupta Nagar, Siwan - BSPCB",22-03-2024 16:00:00,26.2271665,84.3570427,CO,1,135,79
India,Chandigarh,Chandigarh,"Sector 22, Chandigarh - CPCC",22-03-2024 16:00:00,30.735567,76.775714,NH3,7,10,8
India,Chandigarh,Chandigarh,"Sector-25, Chandigarh - CPCC",22-03-2024 16:00:00,30.751462,76.762879,PM2.5,107,172,142
India,Chandigarh,Chandigarh,"Sector-25, Chandigarh - CPCC",22-03-2024 16:00:00,30.751462,76.762879,NO2,9,51,27
India,Chandigarh,Chandigarh,"Sector-25, Chandigarh - CPCC",22-03-2024 16:00:00,30.751462,76.762879,OZONE,3,53,32
India,Chandigarh,Chandigarh,"Sector-53, Chandigarh - CPCC",22-03-2024 16:00:00,30.719859,76.738637,OZONE,16,68,46
India,Chhattisgarh,Bhilai,"32Bungalows, Bhilai - CECB",22-03-2024 16:00:00,21.194815,81.314770,CO,18,41,31
India,Chhattisgarh,Bhilai,"Civic Center, Bhilai - Bhilai Steel Plant",22-03-2024 16:00:00,21.185571,81.343175,PM10,NA,NA,NA
India,Chhattisgarh,Bhilai,"Hathkhoj, Bhilai - CECB",22-03-2024 16:00:00,21.224231,81.408350,OZONE,3,19,13
India,Chhattisgarh,Bilaspur,"Mangala, Bilaspur - NTPC",22-03-2024 16:00:00,22.08815,82.13737,PM10,25,95,48
India,Chhattisgarh,Chhal,"Nawapara SECL Colony, Chhal - CECB",22-03-2024 16:00:00,22.118125,83.140608,PM10,51,124,73
India,Chhattisgarh,Chhal,"Nawapara SECL Colony, Chhal - CECB",22-03-2024 16:00:00,22.118125,83.140608,OZONE,2,111,61
India,Chhattisgarh,Korba,"Rampur, Korba - CECB",22-03-2024 16:00:00,22.368195,82.746431,PM10,25,165,63
India,Chhattisgarh,Korba,"Rampur, Korba - CECB",22-03-2024 16:00:00,22.368195,82.746431,CO,21,34,25
India,Chhattisgarh,Korba,"Rampur, Korba - CECB",22-03-2024 16:00:00,22.368195,82.746431,OZONE,2,6,3
India,Chhattisgarh,Korba,"Urja Nagar, Korba - CECB",22-03-2024 16:00:00,22.348441,82.549611,PM10,15,103,42
India,Chhattisgarh,Kunjemura,"OP Jindal School, Kunjemura - CECB",22-03-2024 16:00:00,22.126650,83.483212,PM2.5,27,175,65
India,Chhattisgarh,Milupara,"Govt. Higher Secondary School, Milupara - CECB",22-03-2024 16:00:00,22.1910172,83.5197009,SO2,6,74,17
India,Chhattisgarh,Raipur,"AIIMS, Raipur - CECB",22-03-2024 16:00:00,21.258815,81.578979,NO2,31,63,44
India,Chhattisgarh,Raipur,"Krishak Nagar, Raipur - CECB",22-03-2024 16:00:00,21.237755,81.705301,PM2.5,8,53,42
India,Chhattisgarh,Raipur,"Krishak Nagar, Raipur - CECB",22-03-2024 16:00:00,21.237755,81.705301,CO,28,51,44
India,Chhattisgarh,Raipur,"Siltara Phase-II, Raipur - CECB",22-03-2024 16:00:00,21.371751,81.664929,NO2,NA,NA,NA
India,Chhattisgarh,Raipur,"Siltara Phase-II, Raipur - CECB",22-03-2024 16:00:00,21.371751,81.664929,SO2,NA,NA,NA
India,Chhattisgarh,Raipur,"Siltara Phase-II, Raipur - CECB",22-03-2024 16:00:00,21.371751,81.664929,CO,18,34,24
India,Chhattisgarh,Tumidih,"OP Jindal Industrial Park, Tumidih - CECB",22-03-2024 16:00:00,22.06631475,83.33820077,NH3,1,3,2
India,Delhi,Delhi,"Alipur, Delhi - DPCC",22-03-2024 16:00:00,28.815329,77.153010,PM2.5,85,341,214
India,Delhi,Delhi,"Alipur, Delhi - DPCC",22-03-2024 16:00:00,28.815329,77.153010,NO2,11,35,25
India,Delhi,Delhi,"Ashok Vihar, Delhi - DPCC",22-03-2024 16:00:00,28.695381,77.181665,NH3,14,18,15
India,Delhi,Delhi,"Aya Nagar, Delhi - IMD",22-03-2024 16:00:00,28.4706914,77.1099364,PM2.5,95,337,193
India,Delhi,Delhi,"Burari Crossing, Delhi - IMD",22-03-2024 16:00:00,28.7256504,77.2011573,PM2.5,NA,NA,NA
India,Delhi,Delhi,"Burari Crossing, Delhi - IMD",22-03-2024 16:00:00,28.7256504,77.2011573,PM10,NA,NA,NA
India,Delhi,Delhi,"Chandni Chowk, Delhi - IITM",22-03-2024 16:00:00,28.656756,77.227234,NO2,19,93,40
India,Delhi,Delhi,"DTU, Delhi - CPCB",22-03-2024 16:00:00,28.7500499,77.1112615,PM2.5,91,196,136
India,Delhi,Delhi,"DTU, Delhi - CPCB",22-03-2024 16:00:00,28.7500499,77.1112615,PM10,119,228,147
India,Delhi,Delhi,"Dr. Karni Singh Shooting Range, Delhi - DPCC",22-03-2024 16:00:00,28.498571,77.264840,PM2.5,88,228,125
India,Delhi,Delhi,"Dr. Karni Singh Shooting Range, Delhi - DPCC",22-03-2024 16:00:00,28.498571,77.264840,PM10,105,179,131
India,Delhi,Delhi,"Dr. Karni Singh Shooting Range, Delhi - DPCC",22-03-2024 16:00:00,28.498571,77.264840,SO2,16,24,20
India,Delhi,Delhi,"Dr. Karni Singh Shooting Range, Delhi - DPCC",22-03-2024 16:00:00,28.498571,77.264840,CO,36,58,44
India,Delhi,Delhi,"Dwarka-Sector 8, Delhi - DPCC ",22-03-2024 16:00:00,28.5710274,77.0719006,PM10,109,257,169
India,Delhi,Delhi,"Dwarka-Sector 8, Delhi - DPCC ",22-03-2024 16:00:00,28.5710274,77.0719006,OZONE,7,87,43
India,Delhi,Delhi,"IGI Airport (T3), Delhi - IMD",22-03-2024 16:00:00,28.5627763,77.1180053,PM10,86,149,119
India,Delhi,Delhi,"IHBAS, Dilshad Garden, Delhi - CPCB",22-03-2024 16:00:00,28.6811736,77.3025234,CO,34,72,60
India,Delhi,Delhi,"Jahangirpuri, Delhi - DPCC",22-03-2024 16:00:00,28.732820,77.170633,CO,50,96,80
India,Delhi,Delhi,"Lodhi Road, Delhi - IITM",22-03-2024 16:00:00,28.588333,77.221667,PM2.5,10,124,20
India,Delhi,Delhi,"Lodhi Road, Delhi - IITM",22-03-2024 16:00:00,28.588333,77.221667,PM10,13,202,35
India,Delhi,Delhi,"Lodhi Road, Delhi - IITM",22-03-2024 16:00:00,28.588333,77.221667,NH3,8,9,9
India,Delhi,Delhi,"Lodhi Road, Delhi - IITM",22-03-2024 16:00:00,28.588333,77.221667,SO2,15,25,21
India,Delhi,Delhi,"Lodhi Road, Delhi - IITM",22-03-2024 16:00:00,28.588333,77.221667,OZONE,15,19,17
India,Delhi,Delhi,"Major Dhyan Chand National Stadium, Delhi - DPCC",22-03-2024 16:00:00,28.611281,77.237738,SO2,9,20,13
India,Delhi,Delhi,"Mandir Marg, Delhi - DPCC",22-03-2024 16:00:00,28.636429,77.201067,NH3,6,8,7
India,Delhi,Delhi,"Mandir Marg, Delhi - DPCC",22-03-2024 16:00:00,28.636429,77.201067,SO2,5,12,8
India,Delhi,Delhi,"NSIT Dwarka, Delhi - CPCB",22-03-2024 16:00:00,28.60909,77.0325413,PM10,110,163,134
India,Delhi,Delhi,"Najafgarh, Delhi - DPCC",22-03-2024 16:00:00,28.570173,76.933762,NO2,4,13,9
India,Delhi,Delhi,"Nehru Nagar, Delhi - DPCC",22-03-2024 16:00:00,28.567890,77.250515,PM2.5,85,232,140
India,Delhi,Delhi,"Nehru Nagar, Delhi - DPCC",22-03-2024 16:00:00,28.567890,77.250515,NO2,15,37,26
India,Delhi,Delhi,"Nehru Nagar, Delhi - DPCC",22-03-2024 16:00:00,28.567890,77.250515,SO2,6,17,11
India,Delhi,Delhi,"New Moti Bagh, Delhi - MHUA",22-03-2024 16:00:00,28.57834,77.18400,CO,24,46,34
India,Delhi,Delhi,"North Campus, DU, Delhi - IMD",22-03-2024 16:00:00,28.6573814,77.1585447,PM10,NA,NA,NA
India,Delhi,Delhi,"Okhla Phase-2, Delhi - DPCC",22-03-2024 16:00:00,28.530785,77.271255,NH3,10,13,12
India,Delhi,Delhi,"Okhla Phase-2, Delhi - DPCC",22-03-2024 16:00:00,28.530785,77.271255,CO,40,86,75
India,Delhi,Delhi,"Okhla Phase-2, Delhi - DPCC",22-03-2024 16:00:00,28.530785,77.271255,OZONE,19,95,54
India,Delhi,Delhi,"Patparganj, Delhi - DPCC",22-03-2024 16:00:00,28.623763,77.287209,CO,17,38,24
India,Delhi,Delhi,"Patparganj, Delhi - DPCC",22-03-2024 16:00:00,28.623763,77.287209,OZONE,20,105,65
India,Delhi,Delhi,"Punjabi Bagh, Delhi - DPCC",22-03-2024 16:00:00,28.674045,77.131023,PM10,117,157,135
India,Delhi,Delhi,"Punjabi Bagh, Delhi - DPCC",22-03-2024 16:00:00,28.674045,77.131023,NH3,5,7,6
India,Delhi,Delhi,"Punjabi Bagh, Delhi - DPCC",22-03-2024 16:00:00,28.674045,77.131023,SO2,21,27,24
India,Delhi,Delhi,"Pusa, Delhi - DPCC",22-03-2024 16:00:00,28.639652,77.146275,NO2,37,118,65
India,Delhi,Delhi,"R K Puram, Delhi - DPCC",22-03-2024 16:00:00,28.563262,77.186937,NO2,4,48,27
India,Delhi,Delhi,"Rohini, Delhi - DPCC",22-03-2024 16:00:00,28.732528,77.119920,PM10,125,194,150
India,Delhi,Delhi,"Shadipur, Delhi - CPCB",22-03-2024 16:00:00,28.6514781,77.1473105,CO,28,132,76
India,Delhi,Delhi,"Sirifort, Delhi - CPCB",22-03-2024 16:00:00,28.5504249,77.2159377,NO2,12,88,33
India,Delhi,Delhi,"Sonia Vihar, Delhi - DPCC",22-03-2024 16:00:00,28.710508,77.249485,PM10,126,192,159
India,Delhi,Delhi,"Vivek Vihar, Delhi - DPCC",22-03-2024 16:00:00,28.672342,77.315260,NH3,NA,NA,NA
India,Delhi,Delhi,"Vivek Vihar, Delhi - DPCC",22-03-2024 16:00:00,28.672342,77.315260,CO,29,36,33
India,Delhi,Delhi,"Wazirpur, Delhi - DPCC",22-03-2024 16:00:00,28.699793,77.165453,NO2,59,143,89
India,Gujarat,Ahmedabad,"Chandkheda, Ahmedabad - IITM",22-03-2024 16:00:00,23.107969,72.574648,NO2,58,94,80
India,Gujarat,Ahmedabad,"Chandkheda, Ahmedabad - IITM",22-03-2024 16:00:00,23.107969,72.574648,CO,4,106,58
India,Gujarat,Ahmedabad,"Maninagar, Ahmedabad - GPCB",22-03-2024 16:00:00,23.002657,72.591912,PM2.5,34,211,99
India,Gujarat,Ahmedabad,"Maninagar, Ahmedabad - GPCB",22-03-2024 16:00:00,23.002657,72.591912,PM10,67,188,121
India,Gujarat,Ahmedabad,"Maninagar, Ahmedabad - GPCB",22-03-2024 16:00:00,23.002657,72.591912,OZONE,5,35,22
India,Gujarat,Ahmedabad,"Raikhad, Ahmedabad - IITM",22-03-2024 16:00:00,23.020509,72.579261,PM10,50,348,140
India,Gujarat,Ahmedabad,"Raikhad, Ahmedabad - IITM",22-03-2024 16:00:00,23.020509,72.579261,SO2,5,14,7
India,Gujarat,Ahmedabad,"Rakhial, Ahmedabad - IITM",22-03-2024 16:00:00,23.016834,72.625775,PM10,98,240,136
India,Gujarat,Ahmedabad,"Rakhial, Ahmedabad - IITM",22-03-2024 16:00:00,23.016834,72.625775,OZONE,3,73,28
India,Gujarat,Ahmedabad,"SAC ISRO Satellite, Ahmedabad - IITM",22-03-2024 16:00:00,23.023389,72.515201,PM10,114,124,122
India,Gujarat,Ahmedabad,"SAC ISRO Satellite, Ahmedabad - IITM",22-03-2024 16:00:00,23.023389,72.515201,NH3,3,3,3
India,Gujarat,Ahmedabad,"SAC ISRO Satellite, Ahmedabad - IITM",22-03-2024 16:00:00,23.023389,72.515201,SO2,2,15,6
India,Gujarat,Ahmedabad,"SVPI Airport Hansol, Ahmedabad - IITM",22-03-2024 16:00:00,23.076793,72.627874,NO2,15,19,17
India,Gujarat,Ahmedabad,"SVPI Airport Hansol, Ahmedabad - IITM",22-03-2024 16:00:00,23.076793,72.627874,NH3,4,5,4
India,Gujarat,Ahmedabad,"Sardar Vallabhbhai Patel Stadium, Ahmedabad - IITM",22-03-2024 16:00:00,23.043070,72.562968,NO2,4,17,14
India,Gujarat,Ankleshwar,"GIDC, Ankleshwar - GPCB",22-03-2024 16:00:00,21.613267,73.010555,NO2,36,37,37
India,Gujarat,Ankleshwar,"GIDC, Ankleshwar - GPCB",22-03-2024 16:00:00,21.613267,73.010555,CO,18,105,86
India,Gujarat,Gandhinagar,"IIPHG Lekawada, Gandhinagar - IITM",22-03-2024 16:00:00,23.243639,72.68994,PM10,63,152,114
India,Gujarat,Gandhinagar,"IIPHG Lekawada, Gandhinagar - IITM",22-03-2024 16:00:00,23.243639,72.68994,NO2,37,59,46
India,Gujarat,Surat,"Science Center, Surat - SMC",22-03-2024 16:00:00,21.170046,72.795405,PM2.5,20,96,46
India,Gujarat,Surat,"Science Center, Surat - SMC",22-03-2024 16:00:00,21.170046,72.795405,CO,46,106,78
India,Gujarat,Vapi,"Phase-1 GIDC, Vapi - GPCB",22-03-2024 16:00:00,20.362421,72.918013,CO,44,80,66
India,Gujarat,Vatva,"Phase-4 GIDC, Vatva - GPCB",22-03-2024 16:00:00,22.969611,72.643500,NO2,46,231,129
India,Haryana,Ambala,"Patti Mehar, Ambala - HSPCB",22-03-2024 16:00:00,30.379589,76.778328,NO2,NA,NA,NA
India,Haryana,Bahadurgarh,"Arya Nagar, Bahadurgarh - HSPCB",22-03-2024 16:00:00,28.6701,76.9254,SO2,12,17,14
India,Haryana,Ballabgarh,"Nathu Colony, Ballabgarh - HSPCB",22-03-2024 16:00:00,28.3419248,77.319699,PM2.5,5,100,58
India,Haryana,Charkhi Dadri,"Mini Secretariat, Charkhi Dadri - HSPCB",22-03-2024 16:00:00,28.593883,76.270653,CO,20,58,42
India,Haryana,Dharuhera,"Municipal Corporation Office, Dharuhera -  HSPCB",22-03-2024 16:00:00,28.206800,76.799700,PM10,76,202,138
India,Haryana,Dharuhera,"Municipal Corporation Office, Dharuhera -  HSPCB",22-03-2024 16:00:00,28.206800,76.799700,CO,84,104,98
India,Haryana,Faridabad,"Sector 11, Faridabad - HSPCB",22-03-2024 16:00:00,28.376058,77.315741,PM10,97,172,130
India,Haryana,Faridabad,"Sector 11, Faridabad - HSPCB",22-03-2024 16:00:00,28.376058,77.315741,NH3,6,6,6
India,Haryana,Faridabad,"Sector 11, Faridabad - HSPCB",22-03-2024 16:00:00,28.376058,77.315741,CO,39,50,46
India,Haryana,Faridabad,"Sector- 16A, Faridabad - HSPCB",22-03-2024 16:00:00,28.4088421,77.3099081,CO,6,70,24
India,Haryana,Fatehabad,"Huda Sector, Fatehabad - HSPCB",22-03-2024 16:00:00,29.503664,75.467934,NO2,37,38,38
India,Haryana,Gurugram,"Sector-51, Gurugram - HSPCB",22-03-2024 16:00:00,28.4227,77.0667,NH3,6,14,9
India,Haryana,Gurugram,"Sector-51, Gurugram - HSPCB",22-03-2024 16:00:00,28.4227,77.0667,CO,26,59,48
India,Haryana,Gurugram,"Teri Gram, Gurugram - HSPCB",22-03-2024 16:00:00,28.4275,77.1465,PM10,146,219,181
India,Haryana,Gurugram,"Teri Gram, Gurugram - HSPCB",22-03-2024 16:00:00,28.4275,77.1465,NO2,34,47,42
India,Haryana,Gurugram,"Teri Gram, Gurugram - HSPCB",22-03-2024 16:00:00,28.4275,77.1465,SO2,3,5,4
India,Haryana,Gurugram,"Vikas Sadan, Gurugram - HSPCB",22-03-2024 16:00:00,28.4501238,77.0263051,NO2,5,26,14
India,Haryana,Hisar,"Urban Estate-II, Hisar - HSPCB",22-03-2024 16:00:00,29.140560,75.744941,PM10,108,135,119
India,Haryana,Jind,"Police Lines, Jind - HSPCB",22-03-2024 16:00:00,29.307814,76.337619,SO2,9,29,18
India,Haryana,Jind,"Police Lines, Jind - HSPCB",22-03-2024 16:00:00,29.307814,76.337619,CO,2,90,29
India,Haryana,Jind,"Police Lines, Jind - HSPCB",22-03-2024 16:00:00,29.307814,76.337619,OZONE,13,46,28
India,Haryana,Kaithal,"Rishi Nagar, Kaithal - HSPCB",22-03-2024 16:00:00,29.8006,76.4155,PM10,102,119,113
India,Haryana,Kaithal,"Rishi Nagar, Kaithal - HSPCB",22-03-2024 16:00:00,29.8006,76.4155,NH3,8,8,8
India,Haryana,Karnal,"Sector-12, Karnal - HSPCB",22-03-2024 16:00:00,29.695300,77.002700,NH3,10,13,11
India,Haryana,Kurukshetra,"Sector-7, Kurukshetra - HSPCB",22-03-2024 16:00:00,29.966942,76.875879,NH3,5,5,5
India,Haryana,Mandikhera,"General Hospital, Mandikhera - HSPCB",22-03-2024 16:00:00,27.9002,76.9938,PM2.5,30,63,49
India,Haryana,Mandikhera,"General Hospital, Mandikhera - HSPCB",22-03-2024 16:00:00,27.9002,76.9938,NH3,16,19,18
India,Haryana,Manesar,"Sector-2 IMT, Manesar - HSPCB",22-03-2024 16:00:00,28.360699,76.936090,PM2.5,49,141,72
India,Haryana,Manesar,"Sector-2 IMT, Manesar - HSPCB",22-03-2024 16:00:00,28.360699,76.936090,SO2,1,15,7
India,Haryana,Manesar,"Sector-2 IMT, Manesar - HSPCB",22-03-2024 16:00:00,28.360699,76.936090,OZONE,17,52,31
India,Haryana,Panchkula,"Sector-6, Panchkula - HSPCB ",22-03-2024 16:00:00,30.7057778,76.8531805555555,PM2.5,11,63,31
India,Haryana,Panchkula,"Sector-6, Panchkula - HSPCB ",22-03-2024 16:00:00,30.7057778,76.8531805555555,SO2,11,13,12
India,Haryana,Panipat,"Sector-18, Panipat - HSPCB",22-03-2024 16:00:00,29.497973,76.993331,CO,24,26,25
India,Haryana,Rohtak,"MD University, Rohtak - HSPCB",22-03-2024 16:00:00,28.52123,76.37138,OZONE,45,55,49
India,Haryana,Sirsa,"F-Block, Sirsa - HSPCB",22-03-2024 16:00:00,29.536400,75.015800,NH3,12,13,12
India,Haryana,Yamuna Nagar,"Gobind Pura, Yamuna Nagar - HSPCB",22-03-2024 16:00:00,30.1480566,77.2893471,CO,36,102,57
India,Jharkhand,Dhanbad,"Kalakusuma, Dhanbad - DMC",22-03-2024 16:00:00,23.811548,86.481238,PM10,73,78,76
India,Jharkhand,Dhanbad,"Sardar Patel Nagar, Dhanbad - JSPCB",22-03-2024 16:00:00,23.80569,86.44268,PM2.5,NA,NA,NA
India,Jharkhand,Dhanbad,"Sardar Patel Nagar, Dhanbad - JSPCB",22-03-2024 16:00:00,23.80569,86.44268,NO2,NA,NA,NA
India,Jharkhand,Dhanbad,"Sardar Patel Nagar, Dhanbad - JSPCB",22-03-2024 16:00:00,23.80569,86.44268,CO,143,157,157
India,Jharkhand,Pathardih,"Mohalbani Ghat, Pathardih - DMC",22-03-2024 16:00:00,23.669880,86.411725,PM2.5,NA,NA,NA
India,Karnataka,Bagalkot,"Vidayagiri, Bagalkot - KSPCB",22-03-2024 16:00:00,16.172806,75.659694,PM2.5,25,37,36
India,Karnataka,Bengaluru,"BTM Layout, Bengaluru - CPCB",22-03-2024 16:00:00,12.9135218,77.5950804,PM10,NA,NA,NA
India,Karnataka,Bengaluru,"BTM Layout, Bengaluru - CPCB",22-03-2024 16:00:00,12.9135218,77.5950804,NO2,NA,NA,NA
India,Karnataka,Bengaluru,"Hebbal, Bengaluru - KSPCB",22-03-2024 16:00:00,13.029152,77.585901,SO2,NA,NA,NA
India,Karnataka,Bengaluru,"Jayanagar 5th Block, Bengaluru - KSPCB",22-03-2024 16:00:00,12.920984,77.584908,CO,9,103,36
India,Karnataka,Bengaluru,"Jigani, Bengaluru - KSPCB",22-03-2024 16:00:00,12.7816279,77.6299145,CO,26,66,57
India,Karnataka,Bengaluru,"Kasturi Nagar, Bengaluru - KSPCB",22-03-2024 16:00:00,13.003872,77.664217,NH3,4,4,4
India,Karnataka,Bengaluru,"Kasturi Nagar, Bengaluru - KSPCB",22-03-2024 16:00:00,13.003872,77.664217,CO,23,26,25
India,Karnataka,Bengaluru,"Sanegurava Halli, Bengaluru - KSPCB",22-03-2024 16:00:00,12.990328,77.5431385,CO,8,27,17
India,Karnataka,Bengaluru,"Silk Board, Bengaluru - KSPCB",22-03-2024 16:00:00,12.917348,77.622813,CO,12,32,22
India,Karnataka,Bidar,"Naubad, Bidar - KSPCB",22-03-2024 16:00:00,17.930306,77.482194,NH3,2,3,3
India,Karnataka,Chikkaballapur,"Chikkaballapur Rural, Chikkaballapur - KSPCB",22-03-2024 16:00:00,13.428828,77.731418,PM10,49,104,74
India,Karnataka,Chikkaballapur,"Chikkaballapur Rural, Chikkaballapur - KSPCB",22-03-2024 16:00:00,13.428828,77.731418,NO2,7,14,9
India,Karnataka,Chikkamagaluru,"Kalyana Nagara, Chikkamagaluru - KSPCB",22-03-2024 16:00:00,13.328028,75.797056,PM2.5,6,79,36
India,Karnataka,Davanagere,"Devaraj Urs Badavane, Davanagere - KSPCB",22-03-2024 16:00:00,14.475800,75.905200,NO2,12,17,14
India,Karnataka,Dharwad,"Kalabhavan, Dharwad - KSPCB",22-03-2024 16:00:00,15.459706,75.008381,NO2,2,33,18
India,Karnataka,Dharwad,"Kalabhavan, Dharwad - KSPCB",22-03-2024 16:00:00,15.459706,75.008381,SO2,2,8,4
India,Karnataka,Gadag,"Panchal Nagar, Gadag - KSPCB",22-03-2024 16:00:00,15.411456,75.638133,SO2,10,20,15
India,Karnataka,Gadag,"Panchal Nagar, Gadag - KSPCB",22-03-2024 16:00:00,15.411456,75.638133,CO,43,48,46
India,Karnataka,Hassan,"B.Katihalli, Hassan - KSPCB",22-03-2024 16:00:00,13.008556,76.125258,PM2.5,45,87,67
India,Karnataka,Hassan,"B.Katihalli, Hassan - KSPCB",22-03-2024 16:00:00,13.008556,76.125258,SO2,10,30,21
India,Karnataka,Haveri,"Ashwini Nagar, Haveri - KSPCB",22-03-2024 16:00:00,14.791800,75.389600,PM2.5,52,77,64
India,Karnataka,Haveri,"Ashwini Nagar, Haveri - KSPCB",22-03-2024 16:00:00,14.791800,75.389600,CO,36,37,36
India,Karnataka,Hubballi,"Deshpande Nagar, Hubballi - KSPCB",22-03-2024 16:00:00,15.351773,75.140726,SO2,NA,NA,NA
India,Karnataka,Hubballi,"Deshpande Nagar, Hubballi - KSPCB",22-03-2024 16:00:00,15.351773,75.140726,CO,NA,NA,NA
India,Karnataka,Hubballi,"Deshpande Nagar, Hubballi - KSPCB",22-03-2024 16:00:00,15.351773,75.140726,OZONE,NA,NA,NA
India,Karnataka,Kalaburagi,"Lal Bahadur Shastri Nagar, Kalaburagi - KSPCB",22-03-2024 16:00:00,17.321993,76.822628,PM2.5,24,113,50
India,Karnataka,Kalaburagi,"Lal Bahadur Shastri Nagar, Kalaburagi - KSPCB",22-03-2024 16:00:00,17.321993,76.822628,PM10,34,111,60
India,Karnataka,Kalaburagi,"Mahatma Basaveswar Colony, Kalaburgi - KSPCB",22-03-2024 16:00:00,17.336318,76.847397,PM2.5,20,84,42
India,Karnataka,Karwar,"KHB Colony, Karwar - KSPCB",22-03-2024 16:00:00,14.816666,74.141003,NH3,1,3,1
India,Karnataka,Karwar,"KHB Colony, Karwar - KSPCB",22-03-2024 16:00:00,14.816666,74.141003,CO,8,8,8
India,Karnataka,Mangalore,"Kadri, Mangalore - KSPCB",22-03-2024 16:00:00,12.889250,74.853000,SO2,20,23,22
India,Karnataka,Mysuru,"Hebbal 1st Stage, Mysuru - KSPCB",22-03-2024 16:00:00,12.21041,76.37376,PM10,39,85,52
India,Karnataka,Raichur,"Haji Colony, Raichur - KSPCB",22-03-2024 16:00:00,16.208139,77.348417,PM2.5,11,72,27
India,Karnataka,Raichur,"Haji Colony, Raichur - KSPCB",22-03-2024 16:00:00,16.208139,77.348417,SO2,66,81,72
India,Karnataka,Raichur,"Haji Colony, Raichur - KSPCB",22-03-2024 16:00:00,16.208139,77.348417,CO,92,121,98
India,Karnataka,Shivamogga,"Vinoba Nagara, Shivamogga - KSPCB",22-03-2024 16:00:00,13.940000,75.555917,NO2,11,18,13
India,Karnataka,Shivamogga,"Vinoba Nagara, Shivamogga - KSPCB",22-03-2024 16:00:00,13.940000,75.555917,OZONE,2,88,43
India,Karnataka,Tumakuru,"Thimmalapura, Tumakuru - KSPCB",22-03-2024 16:00:00,13.377516,77.099072,PM2.5,12,30,20
India,Karnataka,Tumakuru,"Thimmalapura, Tumakuru - KSPCB",22-03-2024 16:00:00,13.377516,77.099072,PM10,13,45,26
India,Karnataka,Tumakuru,"Thimmalapura, Tumakuru - KSPCB",22-03-2024 16:00:00,13.377516,77.099072,CO,28,31,30
India,Karnataka,Udupi,"Brahmagiri, Udupi - KSPCB",22-03-2024 16:00:00,13.34194444,74.74694444,PM2.5,34,88,54
India,Karnataka,Vijayapura,"Ibrahimpur, Vijayapura - KSPCB",22-03-2024 16:00:00,16.802639,75.722694,NO2,17,19,19
India,Karnataka,Vijayapura,"Ibrahimpur, Vijayapura - KSPCB",22-03-2024 16:00:00,16.802639,75.722694,CO,NA,NA,NA
India,Karnataka,Yadgir,"Collector Office, Yadgir - KSPCB",22-03-2024 16:00:00,16.7602,77.1428,PM10,46,115,67
India,Kerala,Kannur,"Thavakkara, Kannur - Kerala PCB",22-03-2024 16:00:00,11.875000,75.373200,PM2.5,52,60,56
India,Kerala,Kannur,"Thavakkara, Kannur - Kerala PCB",22-03-2024 16:00:00,11.875000,75.373200,NH3,1,1,1
India,Kerala,Kannur,"Thavakkara, Kannur - Kerala PCB",22-03-2024 16:00:00,11.875000,75.373200,SO2,6,7,6
India,Kerala,Kollam,"Polayathode, Kollam - Kerala PCB",22-03-2024 16:00:00,8.8787,76.6073,NH3,1,1,1
India,Kerala,Kollam,"Polayathode, Kollam - Kerala PCB",22-03-2024 16:00:00,8.8787,76.6073,SO2,1,7,2
India,Kerala,Thiruvananthapuram,"Plammoodu, Thiruvananthapuram - Kerala PCB",22-03-2024 16:00:00,8.5149093,76.9435879,PM10,27,76,51
India,Kerala,Thrissur,"Corporation Ground, Thrissur - Kerala PCB",22-03-2024 16:00:00,10.532400,76.215900,NO2,7,8,7
India,Kerala,Thrissur,"Corporation Ground, Thrissur - Kerala PCB",22-03-2024 16:00:00,10.532400,76.215900,NH3,NA,NA,NA
India,Madhya Pradesh,Bhopal,"Idgah Hills, Bhopal - MPPCB",22-03-2024 16:00:00,23.264759,77.381568,NH3,4,8,5
India,Madhya Pradesh,Bhopal,"Idgah Hills, Bhopal - MPPCB",22-03-2024 16:00:00,23.264759,77.381568,CO,25,47,37
India,Madhya Pradesh,Bhopal,"Paryavaran Parisar, Bhopal - MPPCB",22-03-2024 16:00:00,23.210494,77.425409,PM2.5,28,187,73
India,Madhya Pradesh,Bhopal,"Paryavaran Parisar, Bhopal - MPPCB",22-03-2024 16:00:00,23.210494,77.425409,NH3,10,18,14
India,Madhya Pradesh,Bhopal,"T T Nagar, Bhopal - MPPCB",22-03-2024 16:00:00,23.233584,77.400574,CO,15,108,29
India,Madhya Pradesh,Dewas,"Bhopal Chauraha, Dewas - MPPCB",22-03-2024 16:00:00,22.9682591,76.064118,PM2.5,30,124,65
India,Madhya Pradesh,Dewas,"Bhopal Chauraha, Dewas - MPPCB",22-03-2024 16:00:00,22.9682591,76.064118,NO2,11,14,13
India,Madhya Pradesh,Gwalior,"City Center, Gwalior - MPPCB",22-03-2024 16:00:00,26.203442,78.193251,PM2.5,7,108,62
India,Madhya Pradesh,Gwalior,"City Center, Gwalior - MPPCB",22-03-2024 16:00:00,26.203442,78.193251,NH3,6,13,10
India,Madhya Pradesh,Gwalior,"City Center, Gwalior - MPPCB",22-03-2024 16:00:00,26.203442,78.193251,SO2,14,38,30
India,Madhya Pradesh,Gwalior,"Deen Dayal Nagar, Gwalior - MPPCB",22-03-2024 16:00:00,26.259242,78.216432,NO2,23,103,47
India,Madhya Pradesh,Gwalior,"Maharaj Bada, Gwalior - MPPCB",22-03-2024 16:00:00,26.200388,78.147714,NO2,11,78,26
India,Madhya Pradesh,Gwalior,"Maharaj Bada, Gwalior - MPPCB",22-03-2024 16:00:00,26.200388,78.147714,NH3,2,12,4
India,Madhya Pradesh,Indore,"Chhoti Gwaltoli, Indore - MPPCB",22-03-2024 16:00:00,22.4310,75.5213,SO2,12,105,29
India,Madhya Pradesh,Indore,"Regional Park, Indore - IMC",22-03-2024 16:00:00,22.6780,75.8559,NO2,NA,NA,NA
India,Madhya Pradesh,Jabalpur,"Govindh Bhavan Colony, Jabalpur - JMC",22-03-2024 16:00:00,23.163174,79.973061,NH3,6,14,10
India,Madhya Pradesh,Jabalpur,"Govindh Bhavan Colony, Jabalpur - JMC",22-03-2024 16:00:00,23.163174,79.973061,OZONE,19,108,73
India,Madhya Pradesh,Jabalpur,"Gupteshwar, Jabalpur - JMC",22-03-2024 16:00:00,23.142888,79.916147,PM10,41,173,69
India,Madhya Pradesh,Jabalpur,"Marhatal, Jabalpur - MPPCB",22-03-2024 16:00:00,23.168606,79.932247,OZONE,11,100,75
India,Madhya Pradesh,Jabalpur,"Suhagi, Jabalpur - JMC",22-03-2024 16:00:00,23.218135,79.957770,SO2,11,11,11
India,Madhya Pradesh,Katni,"Gole Bazar, Katni - MPPCB",22-03-2024 16:00:00,23.50016,80.23284,PM2.5,30,68,47
India,Madhya Pradesh,Maihar,"Sahilara, Maihar - KJS Cements",22-03-2024 16:00:00,24.2613009,80.7231783,NO2,14,14,14
India,Madhya Pradesh,Mandideep,"Sector-D Industrial Area, Mandideep - MPPCB",22-03-2024 16:00:00,23.108440,77.511428,NO2,29,185,77
India,Madhya Pradesh,Mandideep,"Sector-D Industrial Area, Mandideep - MPPCB",22-03-2024 16:00:00,23.108440,77.511428,NH3,1,4,3
India,Madhya Pradesh,Pithampur,"Sector-2 Industrial Area, Pithampur - MPPCB",22-03-2024 16:00:00,22.624758,75.675238,NO2,7,31,16
India,Madhya Pradesh,Pithampur,"Sector-2 Industrial Area, Pithampur - MPPCB",22-03-2024 16:00:00,22.624758,75.675238,SO2,12,18,15
India,Madhya Pradesh,Ratlam,"Shasthri Nagar, Ratlam - IPCA Lab",22-03-2024 16:00:00,23.331731,75.045981,PM2.5,5,249,91
India,Madhya Pradesh,Ratlam,"Shasthri Nagar, Ratlam - IPCA Lab",22-03-2024 16:00:00,23.331731,75.045981,PM10,92,450,190
India,Madhya Pradesh,Sagar,"Civil Lines, Sagar - MPPCB",22-03-2024 16:00:00,23.838586,78.759431,PM10,51,118,76
India,Madhya Pradesh,Sagar,"Civil Lines, Sagar - MPPCB",22-03-2024 16:00:00,23.838586,78.759431,NH3,2,4,3
India,Madhya Pradesh,Sagar,"Deen Dayal Nagar, Sagar - MPPCB",22-03-2024 16:00:00,23.8640158,78.80289321,SO2,7,11,8
India,Maharashtra,Ahmednagar,"Tarakpur, Ahmednagar - MPCB",22-03-2024 16:00:00,19.10122,74.73339,PM2.5,48,192,104
India,Maharashtra,Ahmednagar,"Tarakpur, Ahmednagar - MPCB",22-03-2024 16:00:00,19.10122,74.73339,CO,13,128,36
India,Maharashtra,Akola,"Ramdaspeth, Akola - MPCB",22-03-2024 16:00:00,20.719516,77.000253,SO2,1,47,14
India,Maharashtra,Akola,"Ramdaspeth, Akola - MPCB",22-03-2024 16:00:00,20.719516,77.000253,OZONE,1,117,73
India,Maharashtra,Amravati,"Shivneri Colony, Amravati - MPCB",22-03-2024 16:00:00,20.9402359,77.7895248,PM2.5,58,162,86
India,Maharashtra,Amravati,"Shivneri Colony, Amravati - MPCB",22-03-2024 16:00:00,20.9402359,77.7895248,NO2,14,84,44
India,Maharashtra,Amravati,"Shri Shivaji Science College, Amaravati - MPCB",22-03-2024 16:00:00,20.939198,77.765701,NO2,4,76,30
India,Maharashtra,Amravati,"Shri Shivaji Science College, Amaravati - MPCB",22-03-2024 16:00:00,20.939198,77.765701,NH3,1,16,5
India,Maharashtra,Aurangabad,"MIDC Chilkalthana, Aurangabad - MPCB",22-03-2024 16:00:00,19.875620,75.387310,PM10,66,272,128
India,Maharashtra,Aurangabad,"MIDC Chilkalthana, Aurangabad - MPCB",22-03-2024 16:00:00,19.875620,75.387310,NO2,6,163,42
India,Maharashtra,Aurangabad,"MIDC Chilkalthana, Aurangabad - MPCB",22-03-2024 16:00:00,19.875620,75.387310,OZONE,6,214,214
India,Maharashtra,Badlapur,"Katrap, Badlapur - MPCB",22-03-2024 16:00:00,19.16485,73.23409,PM10,98,267,161
India,Maharashtra,Badlapur,"Katrap, Badlapur - MPCB",22-03-2024 16:00:00,19.16485,73.23409,NO2,4,15,9
India,Maharashtra,Belapur,"CBD Belapur, Belapur - MPCB",22-03-2024 16:00:00,19.0243902,73.0406721,PM10,103,239,147
India,Maharashtra,Bhiwandi,"Gokul Nagar, Bhiwandi - MPCB",22-03-2024 16:00:00,19.309073,73.057223,SO2,NA,NA,NA
India,Maharashtra,Boisar,"Khaira, Boisar - MPCB",22-03-2024 16:00:00,19.786089,72.757971,PM10,138,168,149
India,Maharashtra,Boisar,"Khaira, Boisar - MPCB",22-03-2024 16:00:00,19.786089,72.757971,NO2,53,150,85
India,Maharashtra,Chandrapur,"Chauhan Colony, Chandrapur - MPCB",22-03-2024 16:00:00,19.962900,79.298714,PM10,51,158,83
India,Maharashtra,Chandrapur,"Chauhan Colony, Chandrapur - MPCB",22-03-2024 16:00:00,19.962900,79.298714,CO,23,32,25
India,Maharashtra,Chandrapur,"MIDC Khutala, Chandrapur - MPCB",22-03-2024 16:00:00,19.9775302,79.2337086,SO2,20,23,21
India,Maharashtra,Dhule,"Deopur, Dhule - MPCB",22-03-2024 16:00:00,20.918946,74.776388,PM2.5,69,341,122
India,Maharashtra,Dhule,"Deopur, Dhule - MPCB",22-03-2024 16:00:00,20.918946,74.776388,NH3,3,6,4
India,Maharashtra,Jalna,"Old MIDC, Jalna - MPCB",22-03-2024 16:00:00,19.854616,75.905894,PM10,127,438,195
India,Maharashtra,Kalyan,"Khadakpada, Kalyan - MPCB",22-03-2024 16:00:00,19.25292,73.142019,PM2.5,45,250,122
India,Maharashtra,Kalyan,"Khadakpada, Kalyan - MPCB",22-03-2024 16:00:00,19.25292,73.142019,PM10,131,381,201
India,Maharashtra,Kalyan,"Khadakpada, Kalyan - MPCB",22-03-2024 16:00:00,19.25292,73.142019,CO,20,66,38
India,Maharashtra,Kolhapur,"Shivaji University, Kolhapur - MPCB",22-03-2024 16:00:00,16.6870449,74.2505872,CO,23,74,60
India,Maharashtra,Latur,"Sawe Wadi, Latur - MPCB",22-03-2024 16:00:00,18.39963,76.57452,SO2,1,13,6
India,Maharashtra,Mahad,"Kamble Tarf Birwadi, Mahad - MPCB",22-03-2024 16:00:00,18.1023399,73.4783687,PM10,91,140,114
India,Maharashtra,Mahad,"Kamble Tarf Birwadi, Mahad - MPCB",22-03-2024 16:00:00,18.1023399,73.4783687,NH3,10,10,10
India,Maharashtra,Mahad,"Kamble Tarf Birwadi, Mahad - MPCB",22-03-2024 16:00:00,18.1023399,73.4783687,OZONE,5,98,46
India,Maharashtra,Malegaon,"Mahesh Nagar, Malegaon - MPCB",22-03-2024 16:00:00,20.555712,74.529236,SO2,2,29,15
India,Maharashtra,Mira-Bhayandar,"Bhayandar West, Mira-Bhayandar - MPCB",22-03-2024 16:00:00,19.296481,72.840923,SO2,4,14,8
India,Maharashtra,Mira-Bhayandar,"Bhayandar West, Mira-Bhayandar - MPCB",22-03-2024 16:00:00,19.296481,72.840923,CO,10,84,31
India,Maharashtra,Mumbai,"Bandra Kurla Complex, Mumbai - MPCB",22-03-2024 16:00:00,19.065931,72.862131,NO2,12,56,29
India,Maharashtra,Mumbai,"Bandra Kurla Complex, Mumbai - MPCB",22-03-2024 16:00:00,19.065931,72.862131,NH3,1,9,4
India,Maharashtra,Mumbai,"Bandra Kurla Complex, Mumbai - MPCB",22-03-2024 16:00:00,19.065931,72.862131,SO2,1,11,4
India,Maharashtra,Mumbai,"Borivali East, Mumbai - IITM",22-03-2024 16:00:00,19.23241,72.86895,PM10,102,315,146
India,Maharashtra,Mumbai,"Byculla, Mumbai - BMC",22-03-2024 16:00:00,18.9767,72.8380,NO2,3,38,23
India,Maharashtra,Mumbai,"Byculla, Mumbai - BMC",22-03-2024 16:00:00,18.9767,72.8380,CO,14,100,22
India,Maharashtra,Mumbai,"Chakala-Andheri East, Mumbai - IITM",22-03-2024 16:00:00,19.11074,72.86084,NH3,6,44,21
India,Maharashtra,Mumbai,"Chakala-Andheri East, Mumbai - IITM",22-03-2024 16:00:00,19.11074,72.86084,SO2,17,90,46
India,Maharashtra,Mumbai,"Ghatkopar, Mumbai - BMC",22-03-2024 16:00:00,19.083694,72.920967,CO,7,48,24
India,Maharashtra,Mumbai,"Kandivali East, Mumbai - MPCB",22-03-2024 16:00:00,19.205800,72.868200,PM2.5,101,335,247
India,Maharashtra,Mumbai,"Kherwadi_Bandra East, Mumbai - MPCB",22-03-2024 16:00:00,19.0632143,72.8456324,OZONE,3,171,71
India,Maharashtra,Mumbai,"Khindipada-Bhandup West, Mumbai - IITM",22-03-2024 16:00:00,19.1653323,72.922099,NH3,NA,NA,NA
India,Maharashtra,Mumbai,"Kurla, Mumbai - MPCB",22-03-2024 16:00:00,19.0863,72.8888,NH3,2,8,5
India,Maharashtra,Mumbai,"Kurla, Mumbai - MPCB",22-03-2024 16:00:00,19.0863,72.8888,OZONE,27,29,28
India,Maharashtra,Mumbai,"Mazgaon, Mumbai - IITM",22-03-2024 16:00:00,18.96702,72.84214,CO,12,100,52
India,Maharashtra,Mumbai,"Mindspace-Malad West, Mumbai - MPCB",22-03-2024 16:00:00,19.1878657,72.8304069,PM2.5,51,275,147
India,Maharashtra,Mumbai,"Mindspace-Malad West, Mumbai - MPCB",22-03-2024 16:00:00,19.1878657,72.8304069,OZONE,3,125,22
India,Maharashtra,Mumbai,"Powai, Mumbai - MPCB",22-03-2024 16:00:00,19.137500,72.915056,NH3,1,2,1
India,Maharashtra,Mumbai,"Sewri, Mumbai - BMC",22-03-2024 16:00:00,19.000084,72.856730,NH3,1,12,7
India,Maharashtra,Mumbai,"Shivaji Nagar, Mumbai - BMC",22-03-2024 16:00:00,19.060498,72.923356,CO,22,108,35
India,Maharashtra,Mumbai,"Siddharth Nagar-Worli, Mumbai - IITM",22-03-2024 16:00:00,19.000083,72.813993,OZONE,7,148,91
India,Maharashtra,Mumbai,"Sion, Mumbai - MPCB",22-03-2024 16:00:00,19.047000,72.874600,NO2,20,106,59
India,Maharashtra,Mumbai,"Vasai West, Mumbai - MPCB",22-03-2024 16:00:00,19.383200,72.820400,NH3,4,5,4
India,Maharashtra,Mumbai,"Vile Parle West, Mumbai - MPCB",22-03-2024 16:00:00,19.10861,72.83622,PM2.5,NA,NA,NA
India,Maharashtra,Mumbai,"Vile Parle West, Mumbai - MPCB",22-03-2024 16:00:00,19.10861,72.83622,NO2,1,43,17
India,Maharashtra,Mumbai,"Worli, Mumbai - MPCB",22-03-2024 16:00:00,18.9936162,72.8128113,PM10,46,111,68
India,Maharashtra,Nagpur,"Mahal, Nagpur - MPCB",22-03-2024 16:00:00,21.14472,79.107595,PM10,98,178,136
India,Maharashtra,Nagpur,"Mahal, Nagpur - MPCB",22-03-2024 16:00:00,21.14472,79.107595,NH3,1,21,10
India,Maharashtra,Nagpur,"Mahal, Nagpur - MPCB",22-03-2024 16:00:00,21.14472,79.107595,CO,36,146,53
India,Maharashtra,Nagpur,"Opp GPO Civil Lines, Nagpur - MPCB",22-03-2024 16:00:00,21.152875,79.0517531,PM2.5,55,181,106
India,Maharashtra,Nagpur,"Opp GPO Civil Lines, Nagpur - MPCB",22-03-2024 16:00:00,21.152875,79.0517531,OZONE,2,97,53
India,Maharashtra,Nagpur,"Ram Nagar, Nagpur - MPCB",22-03-2024 16:00:00,21.143383,79.048912,OZONE,1,140,65
India,Maharashtra,Nashik,"Gangapur Road, Nashik - MPCB",22-03-2024 16:00:00,20.0073285,73.7762427,PM2.5,55,96,73
India,Maharashtra,Nashik,"Gangapur Road, Nashik - MPCB",22-03-2024 16:00:00,20.0073285,73.7762427,CO,22,23,23
India,Maharashtra,Nashik,"Hirawadi, Nashik - MPCB",22-03-2024 16:00:00,20.021503,73.813844,SO2,NA,NA,NA
India,Maharashtra,Nashik,"Hirawadi, Nashik - MPCB",22-03-2024 16:00:00,20.021503,73.813844,CO,12,100,40
India,Maharashtra,Nashik,"Hirawadi, Nashik - MPCB",22-03-2024 16:00:00,20.021503,73.813844,OZONE,2,98,49
India,Maharashtra,Nashik,"MIDC Ambad, Nashik - MPCB",22-03-2024 16:00:00,19.950220,73.731480,PM10,48,150,86
India,Maharashtra,Nashik,"Pandav Nagari, Nashik - MPCB",22-03-2024 16:00:00,19.9591346,73.7788008,PM2.5,44,105,74
India,Maharashtra,Nashik,"Pandav Nagari, Nashik - MPCB",22-03-2024 16:00:00,19.9591346,73.7788008,PM10,59,100,88
India,Maharashtra,Nashik,"Pandav Nagari, Nashik - MPCB",22-03-2024 16:00:00,19.9591346,73.7788008,CO,16,98,29
India,Maharashtra,Navi Mumbai,"Kopripada-Vashi, Navi Mumbai - MPCB",22-03-2024 16:00:00,19.090337,73.014232,PM2.5,53,500,237
India,Maharashtra,Navi Mumbai,"Sanpada, Navi Mumbai - MPCB",22-03-2024 16:00:00,19.0575752,73.0151367,PM2.5,3,401,160
India,Maharashtra,Navi Mumbai,"Sanpada, Navi Mumbai - MPCB",22-03-2024 16:00:00,19.0575752,73.0151367,PM10,85,427,196
India,Maharashtra,Navi Mumbai,"Sanpada, Navi Mumbai - MPCB",22-03-2024 16:00:00,19.0575752,73.0151367,OZONE,2,129,24
India,Maharashtra,Navi Mumbai,"Sector-19A Nerul, Navi Mumbai - IITM",22-03-2024 16:00:00,19.044,73.0325,SO2,13,28,22
India,Maharashtra,Navi Mumbai,"Sector-2E Kalamboli, Navi Mumbai - MPCB",22-03-2024 16:00:00,19.02579,73.10297,NO2,17,130,66
India,Maharashtra,Navi Mumbai,"Tondare-Taloja, Navi Mumbai - MPCB",22-03-2024 16:00:00,19.0630,73.1209,PM10,136,239,182
India,Maharashtra,Parbhani,"Masoom Colony, Parbhani - MPCB",22-03-2024 16:00:00,19.265594,76.761463,NO2,15,79,39
India,Maharashtra,Parbhani,"Masoom Colony, Parbhani - MPCB",22-03-2024 16:00:00,19.265594,76.761463,NH3,2,7,5
India,Maharashtra,Parbhani,"Masoom Colony, Parbhani - MPCB",22-03-2024 16:00:00,19.265594,76.761463,OZONE,28,126,97
India,Maharashtra,Pimpri-Chinchwad,"Gavalinagar, Pimpri Chinchwad - MPCB",22-03-2024 16:00:00,18.63673,73.82487,OZONE,3,257,238
India,Maharashtra,Pimpri-Chinchwad,"Park Street Wakad, Pimpri Chinchwad - MPCB",22-03-2024 16:00:00,18.59051,73.77946,NO2,49,126,82
India,Maharashtra,Pimpri-Chinchwad,"Park Street Wakad, Pimpri Chinchwad - MPCB",22-03-2024 16:00:00,18.59051,73.77946,CO,18,87,57
India,Maharashtra,Pimpri-Chinchwad,"Thergaon, Pimpri Chinchwad - MPCB",22-03-2024 16:00:00,18.616318,73.765797,PM2.5,147,351,266
India,Maharashtra,Pimpri-Chinchwad,"Thergaon, Pimpri Chinchwad - MPCB",22-03-2024 16:00:00,18.616318,73.765797,NO2,25,160,85
India,Maharashtra,Pimpri-Chinchwad,"Thergaon, Pimpri Chinchwad - MPCB",22-03-2024 16:00:00,18.616318,73.765797,CO,15,104,52
India,Maharashtra,Pune,"Bhosari, Pune - IITM",22-03-2024 16:00:00,18.640051,73.848956,PM2.5,18,166,76
India,Maharashtra,Pune,"Karve Road, Pune - MPCB",22-03-2024 16:00:00,18.5011743,73.8165527,OZONE,5,5,5
India,Maharashtra,Pune,"Katraj Dairy, Pune - MPCB",22-03-2024 16:00:00,18.454450,73.854155,NO2,14,41,27
India,Maharashtra,Pune,"Katraj Dairy, Pune - MPCB",22-03-2024 16:00:00,18.454450,73.854155,CO,30,73,48
India,Maharashtra,Pune,"Mhada Colony, Pune - IITM",22-03-2024 16:00:00,18.573040,73.927715,PM10,58,102,82
India,Maharashtra,Pune,"Mhada Colony, Pune - IITM",22-03-2024 16:00:00,18.573040,73.927715,CO,4,105,46
India,Maharashtra,Pune,"Revenue Colony-Shivajinagar, Pune - IITM",22-03-2024 16:00:00,18.530085,73.849598,PM2.5,14,114,63
India,Maharashtra,Pune,"Revenue Colony-Shivajinagar, Pune - IITM",22-03-2024 16:00:00,18.530085,73.849598,PM10,13,116,73
India,Maharashtra,Pune,"Revenue Colony-Shivajinagar, Pune - IITM",22-03-2024 16:00:00,18.530085,73.849598,SO2,67,119,96
India,Maharashtra,Pune,"Savitribai Phule Pune University, Pune - MPCB",22-03-2024 16:00:00,18.547056,73.826908,NO2,1,37,22
India,Maharashtra,Sangli,"Vijay Nagar, Sangli - MPCB",22-03-2024 16:00:00, 16.5038,74.3623,SO2,5,26,11
India,Maharashtra,Solapur,"Dnyaneshwar Nagar, Solapur - MPCB",22-03-2024 16:00:00,17.6336264,75.9132495,PM2.5,78,161,115
India,Maharashtra,Solapur,"Ratandeep Housing Society, Solapur - MPCB",22-03-2024 16:00:00,17.65439,75.90649,SO2,3,27,12
India,Maharashtra,Solapur,"Solapur, Solapur - MPCB",22-03-2024 16:00:00,17.6599188,75.9063906,PM2.5,57,101,90
India,Maharashtra,Solapur,"Solapur, Solapur - MPCB",22-03-2024 16:00:00,17.6599188,75.9063906,SO2,101,104,103
India,Maharashtra,Thane,"Kasarvadavali, Thane - MPCB",22-03-2024 16:00:00,19.26777,72.97182,OZONE,2,184,86
India,Maharashtra,Thane,"Pimpleshwar Mandir, Thane - MPCB",22-03-2024 16:00:00,19.192056,72.9585188,PM10,99,243,164
India,Maharashtra,Thane,"Upvan Fort, Thane - MPCB",22-03-2024 16:00:00,19.222279,72.957979,OZONE,17,216,95
India,Maharashtra,Virar,"Bolinj, Virar - MPCB",22-03-2024 16:00:00,19.4458210,72.7988231,PM10,106,422,220
India,Maharashtra,Virar,"Bolinj, Virar - MPCB",22-03-2024 16:00:00,19.4458210,72.7988231,SO2,1,30,13
India,Manipur,Imphal,"Manipur University, Imphal - Manipur PCB",22-03-2024 16:00:00,24.7524239,93.9286218,NH3,NA,NA,NA
India,Meghalaya,Shillong,"Lumpyngngad, Shillong - Meghalaya PCB",22-03-2024 16:00:00,25.5586,91.8985,CO,7,19,16
India,Meghalaya,Shillong,"Lumpyngngad, Shillong - Meghalaya PCB",22-03-2024 16:00:00,25.5586,91.8985,OZONE,51,108,68
India,Odisha,Angul,"Hakimapada, Angul - OSPCB",22-03-2024 16:00:00,20.832874,85.104082,OZONE,4,141,79
India,Odisha,Balasore,"Kalidaspur, Balasore - OSPCB",22-03-2024 16:00:00,21.51161,86.89088,SO2,12,25,18
India,Odisha,Barbil,"Forest Office, Barbil - OSPCB",22-03-2024 16:00:00,22.1166054,85.3945546,CO,3,108,56
India,Odisha,Baripada,"Meher Colony, Baripada - OSPCB",22-03-2024 16:00:00,21.941841,86.728318,NO2,1,2,1
India,Odisha,Bhubaneswar,"Lingraj Mandir, Bhubaneswar - OSPCB",22-03-2024 16:00:00,20.240790,85.836784,NH3,2,3,3
India,Odisha,Bhubaneswar,"Patia, Bhubaneswar - OSPCB",22-03-2024 16:00:00,20.34652,85.81630,PM10,34,184,73
India,Odisha,Bileipada,"Tata Township, Bileipada - OSPCB",22-03-2024 16:00:00,22.06156703,85.47409613,PM2.5,75,179,133
India,Odisha,Brajrajnagar,"GM Office, Brajrajnagar - OSPCB",22-03-2024 16:00:00,21.8004996,83.8396977,NH3,NA,NA,NA
India,Odisha,Brajrajnagar,"GM Office, Brajrajnagar - OSPCB",22-03-2024 16:00:00,21.8004996,83.8396977,SO2,20,20,20
India,Odisha,Brajrajnagar,"GM Office, Brajrajnagar - OSPCB",22-03-2024 16:00:00,21.8004996,83.8396977,OZONE,19,20,19
India,Odisha,Byasanagar,"Ferro Chrome Colony, Byasanagar - OSPCB",22-03-2024 16:00:00,20.94185,86.11510,PM10,33,81,52
India,Odisha,Byasanagar,"Ferro Chrome Colony, Byasanagar - OSPCB",22-03-2024 16:00:00,20.94185,86.11510,SO2,5,15,8
India,Odisha,Byasanagar,"Ferro Chrome Colony, Byasanagar - OSPCB",22-03-2024 16:00:00,20.94185,86.11510,OZONE,34,136,78
India,Odisha,Cuttack,"CDA Area, Cuttack - OSPCB",22-03-2024 16:00:00,20.48891     ,85.84768     ,PM2.5,23,180,62
India,Odisha,Cuttack,"CDA Area, Cuttack - OSPCB",22-03-2024 16:00:00,20.48891     ,85.84768     ,SO2,1,9,5
India,Odisha,Cuttack,"CDA Area, Cuttack - OSPCB",22-03-2024 16:00:00,20.48891     ,85.84768     ,OZONE,3,85,58
India,Odisha,Nayagarh,"Dabuna, Nayagarh - OSPCB",22-03-2024 16:00:00,21.847279,85.416905,PM10,53,102,69
India,Odisha,Rairangpur,"Divisional Forest Office, Rairangpur - OSPCB",22-03-2024 16:00:00,22.265816,86.174829,CO,12,24,14
India,Odisha,Rairangpur,"Divisional Forest Office, Rairangpur - OSPCB",22-03-2024 16:00:00,22.265816,86.174829,OZONE,1,45,28
India,Odisha,Rourkela,"Fertilizer Township, Rourkela - OSPCB",22-03-2024 16:00:00,22.18972222,84.86277778,SO2,NA,NA,NA
India,Odisha,Rourkela,"Sector-2, Rourkela - OSPCB",22-03-2024 16:00:00,22.24500000,84.88111111,PM2.5,45,127,73
India,Odisha,Suakati,"OMC Colony, Suakati - OSPCB",22-03-2024 16:00:00,21.606865,85.510538,CO,18,36,31
India,Odisha,Talcher,"Talcher Coalfields,Talcher - OSPCB",22-03-2024 16:00:00,20.9360711,85.1707021,PM2.5,15,355,138
India,Odisha,Talcher,"Talcher Coalfields,Talcher - OSPCB",22-03-2024 16:00:00,20.9360711,85.1707021,NH3,5,5,5
India,Odisha,Talcher,"Talcher Coalfields,Talcher - OSPCB",22-03-2024 16:00:00,20.9360711,85.1707021,CO,12,121,65
India,Puducherry,Puducherry,"Jawahar Nagar, Puducherry - PPCC",22-03-2024 16:00:00,11.9309,79.8027,NH3,2,4,3
India,Puducherry,Puducherry,"Jawahar Nagar, Puducherry - PPCC",22-03-2024 16:00:00,11.9309,79.8027,SO2,3,10,6
India,Punjab,Jalandhar,"Civil Line, Jalandhar - PPCB",22-03-2024 16:00:00,31.321907,75.578914,PM2.5,49,87,64
India,Punjab,Jalandhar,"Civil Line, Jalandhar - PPCB",22-03-2024 16:00:00,31.321907,75.578914,PM10,67,101,81
India,Punjab,Jalandhar,"Civil Line, Jalandhar - PPCB",22-03-2024 16:00:00,31.321907,75.578914,NH3,2,5,5
India,Punjab,Mandi Gobindgarh,"RIMT University, Mandi Gobindgarh - PPCB",22-03-2024 16:00:00,30.649961,76.331442,NH3,3,3,3
India,Punjab,Mandi Gobindgarh,"RIMT University, Mandi Gobindgarh - PPCB",22-03-2024 16:00:00,30.649961,76.331442,CO,20,33,24
India,Punjab,Patiala,"Model Town, Patiala - PPCB",22-03-2024 16:00:00,30.349388,76.366642,PM2.5,70,111,88
India,Punjab,Patiala,"Model Town, Patiala - PPCB",22-03-2024 16:00:00,30.349388,76.366642,PM10,95,121,108
India,Punjab,Patiala,"Model Town, Patiala - PPCB",22-03-2024 16:00:00,30.349388,76.366642,NO2,27,30,28
India,Punjab,Patiala,"Model Town, Patiala - PPCB",22-03-2024 16:00:00,30.349388,76.366642,SO2,8,41,23
India,Rajasthan,Ajmer,"Civil Lines,  Ajmer - RSPCB",22-03-2024 16:00:00,26.470859,74.646594,CO,12,108,35
India,Rajasthan,Alwar,"Moti Doongri, Alwar - RSPCB",22-03-2024 16:00:00,27.554793,76.611536,PM2.5,53,145,80
India,Rajasthan,Barmer,"Railway Colony, Barmer - RSPCB",22-03-2024 16:00:00,25.747299,71.393989,PM2.5,12,99,30
India,Rajasthan,Barmer,"Railway Colony, Barmer - RSPCB",22-03-2024 16:00:00,25.747299,71.393989,PM10,34,200,88
India,Rajasthan,Barmer,"Railway Colony, Barmer - RSPCB",22-03-2024 16:00:00,25.747299,71.393989,SO2,8,14,10
India,Rajasthan,Barmer,"Railway Colony, Barmer - RSPCB",22-03-2024 16:00:00,25.747299,71.393989,CO,8,33,22
India,Rajasthan,Bharatpur,"Krishna Nagar, Bharatpur - RSPCB",22-03-2024 16:00:00,27.215415,77.50873,PM2.5,14,176,121
India,Rajasthan,Bharatpur,"Krishna Nagar, Bharatpur - RSPCB",22-03-2024 16:00:00,27.215415,77.50873,NO2,8,60,22
India,Rajasthan,Bharatpur,"Krishna Nagar, Bharatpur - RSPCB",22-03-2024 16:00:00,27.215415,77.50873,NH3,8,66,19
India,Rajasthan,Bharatpur,"Krishna Nagar, Bharatpur - RSPCB",22-03-2024 16:00:00,27.215415,77.50873,CO,33,92,45
India,Rajasthan,Bhilwara,"Pratap Nagar, Bhilwara - RSPCB",22-03-2024 16:00:00,25.339605,74.618883,PM2.5,43,500,156
India,Rajasthan,Bhilwara,"Pratap Nagar, Bhilwara - RSPCB",22-03-2024 16:00:00,25.339605,74.618883,PM10,31,458,98
India,Rajasthan,Bhilwara,"Pratap Nagar, Bhilwara - RSPCB",22-03-2024 16:00:00,25.339605,74.618883,SO2,7,42,20
India,Rajasthan,Bhiwadi,"Vasundhara Nagar_UIT, Bhiwadi - RSPCB",22-03-2024 16:00:00,28.207266,76.829265,PM10,103,196,157
India,Rajasthan,Bundi,"New Colony, Bundi - RSPCB",22-03-2024 16:00:00,25.435774,75.644272,NO2,NA,NA,NA
India,Rajasthan,Bundi,"New Colony, Bundi - RSPCB",22-03-2024 16:00:00,25.435774,75.644272,OZONE,67,179,179
India,Rajasthan,Chittorgarh,"Shastri Nagar, Chittorgarh - RSPCB",22-03-2024 16:00:00,24.892047,74.623527,PM2.5,27,170,72
India,Rajasthan,Chittorgarh,"Shastri Nagar, Chittorgarh - RSPCB",22-03-2024 16:00:00,24.892047,74.623527,OZONE,4,175,79
India,Rajasthan,Churu,"Subash Chowk, Churu - RSPCB",22-03-2024 16:00:00,28.296139,74.961696,PM10,62,175,134
India,Rajasthan,Dausa,"Khatikan Mohalla, Dausa - RSPCB",22-03-2024 16:00:00,26.895552,76.334753,PM2.5,34,217,90
India,Rajasthan,Dausa,"Khatikan Mohalla, Dausa - RSPCB",22-03-2024 16:00:00,26.895552,76.334753,NH3,5,11,8
India,Rajasthan,Dausa,"Khatikan Mohalla, Dausa - RSPCB",22-03-2024 16:00:00,26.895552,76.334753,CO,14,100,45
India,Rajasthan,Dholpur,"Raja Ganj, Dholpur - RSPCB",22-03-2024 16:00:00,26.699557,77.898881,PM2.5,48,120,84
India,Rajasthan,Dholpur,"Raja Ganj, Dholpur - RSPCB",22-03-2024 16:00:00,26.699557,77.898881,NO2,8,17,13
India,Rajasthan,Dungarpur,"Bhoiwada, Dungarpur - RSPCB",22-03-2024 16:00:00,23.837789,73.714926,PM2.5,35,127,61
India,Rajasthan,Dungarpur,"Bhoiwada, Dungarpur - RSPCB",22-03-2024 16:00:00,23.837789,73.714926,OZONE,2,96,54
India,Rajasthan,Jaipur,"Police Commissionerate, Jaipur - RSPCB",22-03-2024 16:00:00,26.9164092,75.7994901,PM10,80,155,116
India,Rajasthan,Jaipur,"Police Commissionerate, Jaipur - RSPCB",22-03-2024 16:00:00,26.9164092,75.7994901,NH3,6,10,8
India,Rajasthan,Jaipur,"RIICO Sitapura, Jaipur - RSPCB",22-03-2024 16:00:00,26.786682,75.827928,NO2,18,179,56
India,Rajasthan,Jaipur,"RIICO Sitapura, Jaipur - RSPCB",22-03-2024 16:00:00,26.786682,75.827928,CO,32,105,51
India,Rajasthan,Jaipur,"Sector-2 Murlipura, Jaipur - RSPCB",22-03-2024 16:00:00,26.960669,75.771817,PM2.5,46,108,65
India,Rajasthan,Jaipur,"Shastri Nagar, Jaipur - RSPCB",22-03-2024 16:00:00,26.9502929,75.730943,PM2.5,59,147,102
India,Rajasthan,Jaipur,"Shastri Nagar, Jaipur - RSPCB",22-03-2024 16:00:00,26.9502929,75.730943,NH3,2,20,8
India,Rajasthan,Jaipur,"Shastri Nagar, Jaipur - RSPCB",22-03-2024 16:00:00,26.9502929,75.730943,SO2,1,91,35
India,Rajasthan,Jalore,"Mudtra Sili, Jalore - RSPCB",22-03-2024 16:00:00,25.344694,72.626208,PM10,58,466,108
India,Rajasthan,Jalore,"Mudtra Sili, Jalore - RSPCB",22-03-2024 16:00:00,25.344694,72.626208,CO,10,55,25
India,Rajasthan,Jhalawar,"Rajlaxmi Nagar, Jhalawar - RSPCB",22-03-2024 16:00:00,24.588397,76.172782,PM10,56,194,111
India,Rajasthan,Jhalawar,"Rajlaxmi Nagar, Jhalawar - RSPCB",22-03-2024 16:00:00,24.588397,76.172782,NO2,19,46,30
India,Rajasthan,Jhunjhunu,"Indra Nagar, Jhunjhunu - RSPCB",22-03-2024 16:00:00,28.108988,75.386577,NO2,19,64,42
India,Rajasthan,Jodhpur,"Collectorate, Jodhpur - RSPCB",22-03-2024 16:00:00,26.268249,73.0193853,NO2,34,39,37
India,Rajasthan,Jodhpur,"Jhalamand, Jodhpur - RSPCB",22-03-2024 16:00:00,26.215415,73.070156,PM2.5,8,254,71
India,Rajasthan,Jodhpur,"Jhalamand, Jodhpur - RSPCB",22-03-2024 16:00:00,26.215415,73.070156,PM10,44,345,134
India,Rajasthan,Jodhpur,"Jhalamand, Jodhpur - RSPCB",22-03-2024 16:00:00,26.215415,73.070156,SO2,3,23,8
India,Rajasthan,Jodhpur,"Jhalamand, Jodhpur - RSPCB",22-03-2024 16:00:00,26.215415,73.070156,OZONE,27,102,62
India,Rajasthan,Jodhpur,"Mandor, Jodhpur - RSPCB",22-03-2024 16:00:00,26.358805,73.047444,PM2.5,12,190,71
India,Rajasthan,Jodhpur,"Mandor, Jodhpur - RSPCB",22-03-2024 16:00:00,26.358805,73.047444,PM10,89,299,167
India,Rajasthan,Jodhpur,"Mandor, Jodhpur - RSPCB",22-03-2024 16:00:00,26.358805,73.047444,OZONE,4,146,72
India,Rajasthan,Kota,"Dhanmandi, Kota - RSPCB",22-03-2024 16:00:00,25.164090,75.858137,PM2.5,43,328,144
India,Rajasthan,Kota,"Dhanmandi, Kota - RSPCB",22-03-2024 16:00:00,25.164090,75.858137,OZONE,1,139,80
India,Rajasthan,Kota,"Nayapura, Kota - RSPCB",22-03-2024 16:00:00,25.196024,75.855668,PM2.5,42,259,114
India,Rajasthan,Kota,"Nayapura, Kota - RSPCB",22-03-2024 16:00:00,25.196024,75.855668,PM10,87,229,136
India,Rajasthan,Kota,"Nayapura, Kota - RSPCB",22-03-2024 16:00:00,25.196024,75.855668,SO2,5,20,8
India,Rajasthan,Kota,"Shrinath Puram, Kota - RSPCB",22-03-2024 16:00:00,25.14389,75.821256,NH3,2,5,5
India,Rajasthan,Kota,"Shrinath Puram, Kota - RSPCB",22-03-2024 16:00:00,25.14389,75.821256,OZONE,7,95,69
India,Rajasthan,Nagaur,"Karni Colony, Nagaur - RSPCB",22-03-2024 16:00:00,27.213494,73.734444,NH3,10,21,14
India,Rajasthan,Rajsamand,"Dhoinda, Rajsamand - RSPCB",22-03-2024 16:00:00,25.036360,73.883502,NO2,7,45,21
India,Rajasthan,Rajsamand,"Dhoinda, Rajsamand - RSPCB",22-03-2024 16:00:00,25.036360,73.883502,CO,50,85,69
India,Rajasthan,Sawai Madhopur,"Sahu Nagar, Sawai Madhopur - RSPCB",22-03-2024 16:00:00,26.031443,76.359327,PM2.5,62,297,114
India,Rajasthan,Sawai Madhopur,"Sahu Nagar, Sawai Madhopur - RSPCB",22-03-2024 16:00:00,26.031443,76.359327,NO2,2,48,12
India,Rajasthan,Sawai Madhopur,"Sahu Nagar, Sawai Madhopur - RSPCB",22-03-2024 16:00:00,26.031443,76.359327,NH3,4,16,12
India,Rajasthan,Sikar,"Radhakishan Pura, Sikar - RSPCB",22-03-2024 16:00:00,27.608912,75.153302,NH3,4,7,6
India,Rajasthan,Sikar,"Radhakishan Pura, Sikar - RSPCB",22-03-2024 16:00:00,27.608912,75.153302,CO,16,46,26
India,Rajasthan,Sri Ganganagar,"Old City, Sri Ganganagar - RSPCB",22-03-2024 16:00:00,29.931624,73.864511,PM10,150,407,269
India,Rajasthan,Sri Ganganagar,"Old City, Sri Ganganagar - RSPCB",22-03-2024 16:00:00,29.931624,73.864511,NO2,34,127,72
India,Rajasthan,Tonk,"Shastri Nagar, Tonk - RSPCB",22-03-2024 16:00:00,26.159933,75.780517,PM2.5,42,223,91
India,Rajasthan,Tonk,"Shastri Nagar, Tonk - RSPCB",22-03-2024 16:00:00,26.159933,75.780517,OZONE,21,113,74
India,Rajasthan,Udaipur,"Ashok Nagar, Udaipur - RSPCB",22-03-2024 16:00:00,24.5886166,73.6321397,PM2.5,55,239,152
India,Rajasthan,Udaipur,"Ashok Nagar, Udaipur - RSPCB",22-03-2024 16:00:00,24.5886166,73.6321397,OZONE,3,48,23
India,TamilNadu,Chennai,"Perungudi, Chennai - TNPCB",22-03-2024 16:00:00,12.9533,80.2357,OZONE,6,9,7
India,TamilNadu,Chennai,"Royapuram, Chennai - TNPCB",22-03-2024 16:00:00,13.1036,80.2909,SO2,NA,NA,NA
India,TamilNadu,Chennai,"Velachery Res. Area, Chennai - CPCB",22-03-2024 16:00:00,13.0052189,80.2398125,PM2.5,42,69,55
India,TamilNadu,Chennai,"Velachery Res. Area, Chennai - CPCB",22-03-2024 16:00:00,13.0052189,80.2398125,NO2,6,10,8
India,TamilNadu,Chennai,"Velachery Res. Area, Chennai - CPCB",22-03-2024 16:00:00,13.0052189,80.2398125,SO2,11,11,11
India,TamilNadu,Chennai,"Velachery Res. Area, Chennai - CPCB",22-03-2024 16:00:00,13.0052189,80.2398125,CO,4,120,87
India,TamilNadu,Coimbatore,"PSG College of Arts and Science, Coimbatore - TNPCB",22-03-2024 16:00:00,11.0328,77.0349,PM2.5,25,110,61
India,TamilNadu,Coimbatore,"PSG College of Arts and Science, Coimbatore - TNPCB",22-03-2024 16:00:00,11.0328,77.0349,CO,5,6,5
India,TamilNadu,Cuddalore,"Kudikadu, Cuddalore - TNPCB",22-03-2024 16:00:00,11.6829898,79.7532099,PM2.5,3,67,40
India,TamilNadu,Cuddalore,"Kudikadu, Cuddalore - TNPCB",22-03-2024 16:00:00,11.6829898,79.7532099,PM10,4,81,48
India,TamilNadu,Cuddalore,"Semmandalam, Cuddalore - TNPCB",22-03-2024 16:00:00,11.7637683,79.7499835,OZONE,1,16,1
India,TamilNadu,Kanchipuram,"Kilambi, Kanchipuram - TNPCB",22-03-2024 16:00:00,12.864618,79.659968,SO2,4,7,6
India,TamilNadu,Ooty,"Bombay Castel, Ooty - TNPCB",22-03-2024 16:00:00,11.4068288,76.7138973,PM2.5,32,150,91
India,TamilNadu,Ooty,"Bombay Castel, Ooty - TNPCB",22-03-2024 16:00:00,11.4068288,76.7138973,NO2,NA,NA,NA
India,TamilNadu,Ooty,"Bombay Castel, Ooty - TNPCB",22-03-2024 16:00:00,11.4068288,76.7138973,SO2,13,13,13
India,TamilNadu,Palkalaiperur,"Bharathidasan University, Palkalaiperur - TNPCB",22-03-2024 16:00:00,10.681158,78.741746,CO,1,12,6
India,TamilNadu,Ramanathapuram,"Chalai Bazaar, Ramanathapuram - TNPCB",22-03-2024 16:00:00,9.36399,78.831977,SO2,6,18,8
India,TamilNadu,Ramanathapuram,"Chalai Bazaar, Ramanathapuram - TNPCB",22-03-2024 16:00:00,9.36399,78.831977,OZONE,13,14,14
India,TamilNadu,Vellore,"Vasanthapuram, Vellore - TNPCB",22-03-2024 16:00:00,12.909494,79.131861,OZONE,1,22,9
India,TamilNadu,Virudhunagar,"Collectorate Office, Virudhunagar - TNPCB",22-03-2024 16:00:00,9.559382,77.948828,PM2.5,24,60,40
India,Telangana,Hyderabad,"Bollaram Industrial Area, Hyderabad - TSPCB",22-03-2024 16:00:00,17.540891,78.358528,PM2.5,37,79,55
India,Telangana,Hyderabad,"Bollaram Industrial Area, Hyderabad - TSPCB",22-03-2024 16:00:00,17.540891,78.358528,CO,19,56,39
India,Telangana,Hyderabad,"Central University, Hyderabad - TSPCB",22-03-2024 16:00:00,17.460103,78.334361,PM2.5,20,58,34
India,Telangana,Hyderabad,"Central University, Hyderabad - TSPCB",22-03-2024 16:00:00,17.460103,78.334361,NO2,21,44,31
India,Telangana,Hyderabad,"ECIL Kapra, Hyderabad - TSPCB",22-03-2024 16:00:00,17.470431,78.566959,SO2,1,23,8
India,Telangana,Hyderabad,"IITH Kandi, Hyderabad - TSPCB",22-03-2024 16:00:00,17.585705,78.126199,PM2.5,NA,NA,NA
India,Telangana,Hyderabad,"Kompally Municipal Office, Hyderabad - TSPCB",22-03-2024 16:00:00,17.544899,78.486949,PM10,NA,NA,NA
India,Telangana,Hyderabad,"Kompally Municipal Office, Hyderabad - TSPCB",22-03-2024 16:00:00,17.544899,78.486949,NH3,NA,NA,NA
India,Telangana,Hyderabad,"Nacharam_TSIIC IALA, Hyderabad - TSPCB",22-03-2024 16:00:00,17.429398,78.569354,OZONE,26,44,34
India,Telangana,Hyderabad,"Sanathnagar, Hyderabad - TSPCB",22-03-2024 16:00:00,17.4559458,78.4332152,SO2,1,8,5
India,Telangana,Hyderabad,"Sanathnagar, Hyderabad - TSPCB",22-03-2024 16:00:00,17.4559458,78.4332152,CO,32,50,42
India,Telangana,Hyderabad,"Sanathnagar, Hyderabad - TSPCB",22-03-2024 16:00:00,17.4559458,78.4332152,OZONE,14,17,15
India,Telangana,Hyderabad,"Somajiguda, Hyderabad - TSPCB",22-03-2024 16:00:00,17.417094,78.457437,PM2.5,NA,NA,NA
India,Telangana,Hyderabad,"Zoo Park, Hyderabad - TSPCB",22-03-2024 16:00:00,17.349694,78.451437,OZONE,17,58,25
India,Tripura,Agartala,"Bardowali, Agartala - Tripura SPCB",22-03-2024 16:00:00,23.8175497,91.2726974,NH3,2,3,2
India,Tripura,Agartala,"Bardowali, Agartala - Tripura SPCB",22-03-2024 16:00:00,23.8175497,91.2726974,OZONE,1,51,24
India,Uttar_Pradesh,Agra,"Manoharpur, Agra - UPPCB",22-03-2024 16:00:00,27.23711,78.01936,OZONE,1,41,19
India,Uttar_Pradesh,Agra,"Sector-3B Avas Vikas Colony, Agra - UPPCB",22-03-2024 16:00:00,27.19412,77.96237,PM2.5,17,42,25
India,Uttar_Pradesh,Agra,"Sector-3B Avas Vikas Colony, Agra - UPPCB",22-03-2024 16:00:00,27.19412,77.96237,NH3,3,9,5
India,Uttar_Pradesh,Agra,"Shahjahan Garden, Agra - UPPCB",22-03-2024 16:00:00,27.169338,78.03582,PM2.5,28,81,47
India,Uttar_Pradesh,Agra,"Shahjahan Garden, Agra - UPPCB",22-03-2024 16:00:00,27.169338,78.03582,NO2,16,17,16
India,Uttar_Pradesh,Agra,"Shastripuram, Agra - UPPCB",22-03-2024 16:00:00,27.19862,77.92066,PM10,16,129,79
India,Uttar_Pradesh,Agra,"Shastripuram, Agra - UPPCB",22-03-2024 16:00:00,27.19862,77.92066,SO2,13,14,13
India,Uttar_Pradesh,Agra,"Shastripuram, Agra - UPPCB",22-03-2024 16:00:00,27.19862,77.92066,OZONE,3,13,7
India,Uttar_Pradesh,Baghpat,"Sardar Patel Inter College, Baghpat - UPPCB",22-03-2024 16:00:00,28.964949,77.278761,CO,42,85,71
India,Uttar_Pradesh,Baghpat,"Sardar Patel Inter College, Baghpat - UPPCB",22-03-2024 16:00:00,28.964949,77.278761,OZONE,18,109,61
India,Uttar_Pradesh,Bareilly,"Civil Lines, Bareilly - UPPCB",22-03-2024 16:00:00,28.359581,79.414455,PM10,44,130,68
India,Uttar_Pradesh,Bareilly,"Rajendra Nagar, Bareilly - UPPCB",22-03-2024 16:00:00,28.38910936,79.42963708,PM2.5,21,57,36
India,Uttar_Pradesh,Bareilly,"Rajendra Nagar, Bareilly - UPPCB",22-03-2024 16:00:00,28.38910936,79.42963708,PM10,40,95,60
India,Uttar_Pradesh,Bulandshahr,"Yamunapuram, Bulandshahr - UPPCB",22-03-2024 16:00:00,28.406963,77.849831,PM10,59,116,85
India,Uttar_Pradesh,Bulandshahr,"Yamunapuram, Bulandshahr - UPPCB",22-03-2024 16:00:00,28.406963,77.849831,OZONE,25,70,41
India,Uttar_Pradesh,Firozabad,"Nagla Bhau, Firozabad - UPPCB",22-03-2024 16:00:00,27.168897,78.376960,NH3,2,2,2
India,Uttar_Pradesh,Firozabad,"Nagla Bhau, Firozabad - UPPCB",22-03-2024 16:00:00,27.168897,78.376960,CO,20,24,24
India,Uttar_Pradesh,Firozabad,"Vibhab Nagar, Firozabad - UPPCB",22-03-2024 16:00:00,27.1594,78.3953,PM2.5,32,86,59
India,Uttar_Pradesh,Firozabad,"Vibhab Nagar, Firozabad - UPPCB",22-03-2024 16:00:00,27.1594,78.3953,OZONE,20,55,24
India,Uttar_Pradesh,Ghaziabad,"Indirapuram, Ghaziabad - UPPCB",22-03-2024 16:00:00,28.646233,77.358075,PM10,93,153,117
India,Uttar_Pradesh,Ghaziabad,"Indirapuram, Ghaziabad - UPPCB",22-03-2024 16:00:00,28.646233,77.358075,NO2,55,104,85
India,Uttar_Pradesh,Ghaziabad,"Indirapuram, Ghaziabad - UPPCB",22-03-2024 16:00:00,28.646233,77.358075,NH3,6,22,10
India,Uttar_Pradesh,Ghaziabad,"Loni, Ghaziabad - UPPCB",22-03-2024 16:00:00,28.757294,77.278792,NO2,24,44,34
India,Uttar_Pradesh,Ghaziabad,"Loni, Ghaziabad - UPPCB",22-03-2024 16:00:00,28.757294,77.278792,SO2,12,34,19
India,Uttar_Pradesh,Ghaziabad,"Sanjay Nagar, Ghaziabad - UPPCB",22-03-2024 16:00:00,28.685382,77.453839,SO2,21,76,42
India,Uttar_Pradesh,Ghaziabad,"Vasundhara, Ghaziabad - UPPCB",22-03-2024 16:00:00,28.6603346,77.3572563,CO,28,86,50
India,Uttar_Pradesh,Greater Noida,"Knowledge Park - III, Greater Noida - UPPCB",22-03-2024 16:00:00,28.47272,77.482000,PM10,109,185,133
India,Uttar_Pradesh,Hapur,"Anand Vihar, Hapur - UPPCB",22-03-2024 16:00:00,28.725645,77.749675,PM10,58,106,83
India,Uttar_Pradesh,Hapur,"Anand Vihar, Hapur - UPPCB",22-03-2024 16:00:00,28.725645,77.749675,NH3,7,13,10
India,Uttar_Pradesh,Jhansi,"Shivaji Nagar, Jhansi - UPPCB",22-03-2024 16:00:00,25.4547,78.6039,PM2.5,13,418,69
India,Uttar_Pradesh,Jhansi,"Shivaji Nagar, Jhansi - UPPCB",22-03-2024 16:00:00,25.4547,78.6039,PM10,11,353,54
India,Uttar_Pradesh,Jhansi,"Shivaji Nagar, Jhansi - UPPCB",22-03-2024 16:00:00,25.4547,78.6039,NO2,3,13,9
India,Uttar_Pradesh,Jhansi,"Shivaji Nagar, Jhansi - UPPCB",22-03-2024 16:00:00,25.4547,78.6039,NH3,6,6,6
India,Uttar_Pradesh,Kanpur,"FTI Kidwai Nagar, Kanpur - UPPCB",22-03-2024 16:00:00,26.428282,80.327067,NH3,4,5,4
India,Uttar_Pradesh,Kanpur,"Nehru Nagar, Kanpur - UPPCB",22-03-2024 16:00:00,26.4703136,80.3229863,OZONE,21,67,35
India,Uttar_Pradesh,Lucknow,"Gomti Nagar, Lucknow - UPPCB",22-03-2024 16:00:00,26.868120,81.005119,NO2,17,25,20
India,Uttar_Pradesh,Lucknow,"Gomti Nagar, Lucknow - UPPCB",22-03-2024 16:00:00,26.868120,81.005119,SO2,1,18,12
India,Uttar_Pradesh,Lucknow,"Gomti Nagar, Lucknow - UPPCB",22-03-2024 16:00:00,26.868120,81.005119,CO,62,84,75
India,Uttar_Pradesh,Lucknow,"Kendriya Vidyalaya, Lucknow - CPCB",22-03-2024 16:00:00,26.906111,80.948222,OZONE,7,49,33
India,Uttar_Pradesh,Lucknow,"Kukrail Picnic Spot-1, Lucknow - UPPCB",22-03-2024 16:00:00,26.90723,80.98579,NO2,8,9,8
India,Uttar_Pradesh,Lucknow,"Kukrail Picnic Spot-1, Lucknow - UPPCB",22-03-2024 16:00:00,26.90723,80.98579,NH3,2,2,2
India,Uttar_Pradesh,Lucknow,"Lalbagh, Lucknow - CPCB",22-03-2024 16:00:00,26.8458805,80.9365541,OZONE,20,80,55
India,Uttar_Pradesh,Lucknow,"Talkatora District Industries Center, Lucknow - CPCB",22-03-2024 16:00:00,26.83399722,80.8917361,CO,10,46,28
India,Uttar_Pradesh,Meerut,"Ganga Nagar, Meerut - UPPCB",22-03-2024 16:00:00,28.999264,77.7590354,OZONE,19,80,45
India,Uttar_Pradesh,Meerut,"Pallavpuram Phase 2, Meerut - UPPCB",22-03-2024 16:00:00,29.063510,77.709723,PM10,78,156,120
India,Uttar_Pradesh,Moradabad,"Buddhi Vihar, Moradabad - UPPCB",22-03-2024 16:00:00,28.83526,78.74460,PM2.5,34,304,103
India,Uttar_Pradesh,Moradabad,"Buddhi Vihar, Moradabad - UPPCB",22-03-2024 16:00:00,28.83526,78.74460,PM10,68,170,101
India,Uttar_Pradesh,Moradabad,"Buddhi Vihar, Moradabad - UPPCB",22-03-2024 16:00:00,28.83526,78.74460,CO,24,36,33
India,Uttar_Pradesh,Moradabad,"Buddhi Vihar, Moradabad - UPPCB",22-03-2024 16:00:00,28.83526,78.74460,OZONE,12,31,20
India,Uttar_Pradesh,Moradabad,"Eco Herbal Park, Moradabad - UPPCB",22-03-2024 16:00:00,28.840739,78.697531,PM10,43,105,74
India,Uttar_Pradesh,Moradabad,"Transport Nagar, Moradabad - UPPCB",22-03-2024 16:00:00,28.802625,78.753728,PM2.5,29,106,67
India,Uttar_Pradesh,Moradabad,"Transport Nagar, Moradabad - UPPCB",22-03-2024 16:00:00,28.802625,78.753728,PM10,51,126,82
India,Uttar_Pradesh,Moradabad,"Transport Nagar, Moradabad - UPPCB",22-03-2024 16:00:00,28.802625,78.753728,SO2,43,53,47
India,Uttar_Pradesh,Muzaffarnagar,"New Mandi, Muzaffarnagar - UPPCB",22-03-2024 16:00:00,29.4723508,77.7194031,PM2.5,61,318,222
India,Uttar_Pradesh,Noida,"Sector - 125, Noida - UPPCB",22-03-2024 16:00:00,28.5447608,77.3231257,PM2.5,42,135,84
India,Uttar_Pradesh,Noida,"Sector - 125, Noida - UPPCB",22-03-2024 16:00:00,28.5447608,77.3231257,NH3,10,16,13
India,Uttar_Pradesh,Noida,"Sector - 125, Noida - UPPCB",22-03-2024 16:00:00,28.5447608,77.3231257,OZONE,13,108,50
India,Uttar_Pradesh,Noida,"Sector - 62, Noida - IMD",22-03-2024 16:00:00,28.6245479,77.3577104,NO2,14,36,27
India,Uttar_Pradesh,Noida,"Sector-1, Noida - UPPCB",22-03-2024 16:00:00,28.5898,77.3101,CO,14,44,38
India,Uttar_Pradesh,Prayagraj,"Motilal Nehru NIT, Prayagraj - UPPCB",22-03-2024 16:00:00,25.494,81.863,PM2.5,12,79,41
India,Uttar_Pradesh,Prayagraj,"Nagar Nigam, Prayagraj - UPPCB",22-03-2024 16:00:00,25.44919916 ,81.82735986 ,CO,14,34,23
India,Uttar_Pradesh,Varanasi,"Ardhali Bazar, Varanasi - UPPCB",22-03-2024 16:00:00,25.3505986,82.9083074,PM10,8,72,32
India,Uttar_Pradesh,Varanasi,"Ardhali Bazar, Varanasi - UPPCB",22-03-2024 16:00:00,25.3505986,82.9083074,NO2,1,26,13
India,Uttar_Pradesh,Varanasi,"Bhelupur, Varanasi - UPPCB",22-03-2024 16:00:00,25.301778,82.996789,SO2,25,26,25
India,Uttar_Pradesh,Varanasi,"IESD Banaras Hindu University, Varanasi - UPPCB",22-03-2024 16:00:00,25.262326,82.995408,PM2.5,NA,NA,NA
India,Uttar_Pradesh,Varanasi,"IESD Banaras Hindu University, Varanasi - UPPCB",22-03-2024 16:00:00,25.262326,82.995408,PM10,7,41,22
India,Uttar_Pradesh,Varanasi,"Maldahiya, Varanasi - UPPCB",22-03-2024 16:00:00,25.32393,82.99687,PM10,NA,NA,NA
India,Uttar_Pradesh,Varanasi,"Maldahiya, Varanasi - UPPCB",22-03-2024 16:00:00,25.32393,82.99687,NH3,1,2,1
India,Uttar_Pradesh,Varanasi,"Maldahiya, Varanasi - UPPCB",22-03-2024 16:00:00,25.32393,82.99687,CO,15,96,20
India,Uttarakhand,Dehradun,"Doon University, Dehradun - UKPCB",22-03-2024 16:00:00,30.269444,78.044167,SO2,1,2,1
India,Uttarakhand,Dehradun,"Doon University, Dehradun - UKPCB",22-03-2024 16:00:00,30.269444,78.044167,OZONE,22,119,73
India,Uttarakhand,Rishikesh,"Shivaji Nagar, Rishikesh - UKPCB",22-03-2024 16:00:00,30.075911,78.2859547,OZONE,12,102,55
India,West_Bengal,Asansol,"Asansol Court Area, Asansol - WBPCB",22-03-2024 16:00:00,23.685297,86.945968,NH3,2,13,6
India,West_Bengal,Asansol,"Asansol Court Area, Asansol - WBPCB",22-03-2024 16:00:00,23.685297,86.945968,CO,23,103,43
India,West_Bengal,Barrackpore,"SVSPA Campus, Barrackpore - WBPCB",22-03-2024 16:00:00,22.7605581,88.3617589,CO,8,38,13
India,West_Bengal,Durgapur,"Sidhu Kanhu Indoor Stadium, Durgapur - WBPCB",22-03-2024 16:00:00,23.5404352,87.2892225,OZONE,3,52,27
India,West_Bengal,Haldia,"Priyambada Housing Estate, Haldia - WBPCB",22-03-2024 16:00:00,22.06047,88.109737,PM2.5,14,50,33
India,West_Bengal,Howrah,"Belur Math, Howrah - WBPCB",22-03-2024 16:00:00,22.629801,88.352017,PM2.5,41,127,71
India,West_Bengal,Howrah,"Belur Math, Howrah - WBPCB",22-03-2024 16:00:00,22.629801,88.352017,PM10,56,150,86
India,West_Bengal,Howrah,"Ghusuri, Howrah - WBPCB",22-03-2024 16:00:00,22.611968,88.347422,PM2.5,68,177,108
India,West_Bengal,Howrah,"Ghusuri, Howrah - WBPCB",22-03-2024 16:00:00,22.611968,88.347422,PM10,65,134,97
India,West_Bengal,Howrah,"Ghusuri, Howrah - WBPCB",22-03-2024 16:00:00,22.611968,88.347422,NH3,NA,NA,NA
India,West_Bengal,Howrah,"Ghusuri, Howrah - WBPCB",22-03-2024 16:00:00,22.611968,88.347422,CO,2,46,5
India,West_Bengal,Kolkata,"Ballygunge, Kolkata - WBPCB",22-03-2024 16:00:00,22.5367507,88.3638022,NO2,4,75,44
India,West_Bengal,Kolkata,"Ballygunge, Kolkata - WBPCB",22-03-2024 16:00:00,22.5367507,88.3638022,SO2,4,22,13
India,West_Bengal,Kolkata,"Bidhannagar, Kolkata - WBPCB",22-03-2024 16:00:00,22.58157048,88.41002457,NH3,9,12,10
India,West_Bengal,Kolkata,"Jadavpur, Kolkata - WBPCB",22-03-2024 16:00:00,22.49929,88.36917,PM2.5,34,87,64
India,West_Bengal,Kolkata,"Jadavpur, Kolkata - WBPCB",22-03-2024 16:00:00,22.49929,88.36917,CO,22,44,32
India,West_Bengal,Kolkata,"Rabindra Bharati University, Kolkata - WBPCB",22-03-2024 16:00:00,22.627847,88.380669,PM10,43,115,69
India,West_Bengal,Kolkata,"Rabindra Bharati University, Kolkata - WBPCB",22-03-2024 16:00:00,22.627847,88.380669,NO2,9,22,18
India,West_Bengal,Kolkata,"Victoria, Kolkata - WBPCB",22-03-2024 16:00:00,22.5448082,88.3403691,NO2,6,12,10
India,West_Bengal,Kolkata,"Victoria, Kolkata - WBPCB",22-03-2024 16:00:00,22.5448082,88.3403691,NH3,1,3,2
India,West_Bengal,Siliguri,"Ward-32 Bapupara, Siliguri - WBPCB",22-03-2024 16:00:00,26.6879226,88.4152495,SO2,11,16,12
India,Andhra_Pradesh,Amaravati,"Secretariat, Amaravati - APPCB",22-03-2024 16:00:00,16.5150833,80.5181667,PM2.5,16,43,31
India,Andhra_Pradesh,Anantapur,"Gulzarpet, Anantapur - APPCB",22-03-2024 16:00:00,14.675886,77.593027,NH3,NA,NA,NA
India,Andhra_Pradesh,Anantapur,"Gulzarpet, Anantapur - APPCB",22-03-2024 16:00:00,14.675886,77.593027,OZONE,1,59,21
India,Andhra_Pradesh,Chittoor,"Gangineni Cheruvu, Chittoor - APPCB",22-03-2024 16:00:00,13.204880,79.097889,PM10,39,79,52
India,Andhra_Pradesh,Chittoor,"Gangineni Cheruvu, Chittoor - APPCB",22-03-2024 16:00:00,13.204880,79.097889,SO2,4,40,13
India,Andhra_Pradesh,Chittoor,"Gangineni Cheruvu, Chittoor - APPCB",22-03-2024 16:00:00,13.204880,79.097889,OZONE,8,83,26
India,Andhra_Pradesh,Kadapa,"Yerramukkapalli, Kadapa - APPCB",22-03-2024 16:00:00,14.465052,78.824187,PM10,20,60,38
India,Andhra_Pradesh,Kadapa,"Yerramukkapalli, Kadapa - APPCB",22-03-2024 16:00:00,14.465052,78.824187,OZONE,15,84,41
India,Andhra_Pradesh,Rajamahendravaram,"Anand Kala Kshetram, Rajamahendravaram - APPCB",22-03-2024 16:00:00,16.9872867,81.7363176,PM2.5,23,68,41
India,Andhra_Pradesh,Rajamahendravaram,"Anand Kala Kshetram, Rajamahendravaram - APPCB",22-03-2024 16:00:00,16.9872867,81.7363176,NO2,12,49,24
India,Andhra_Pradesh,Rajamahendravaram,"Anand Kala Kshetram, Rajamahendravaram - APPCB",22-03-2024 16:00:00,16.9872867,81.7363176,NH3,3,4,3
India,Andhra_Pradesh,Tirupati,"Tirumala, Tirupati - APPCB",22-03-2024 16:00:00,13.67,79.35,NO2,19,26,22
India,Andhra_Pradesh,Tirupati,"Tirumala, Tirupati - APPCB",22-03-2024 16:00:00,13.67,79.35,NH3,1,1,1
India,Andhra_Pradesh,Tirupati,"Tirumala, Tirupati - APPCB",22-03-2024 16:00:00,13.67,79.35,SO2,4,10,7
India,Andhra_Pradesh,Vijayawada,"HB Colony, Vijayawada - APPCB",22-03-2024 16:00:00,16.536107,80.594233,SO2,3,6,4
India,Andhra_Pradesh,Vijayawada,"HB Colony, Vijayawada - APPCB",22-03-2024 16:00:00,16.536107,80.594233,OZONE,7,56,30
India,Andhra_Pradesh,Vijayawada,"Kanuru, Vijayawada - APPCB",22-03-2024 16:00:00,16.486692,80.699436,CO,26,60,40
India,Andhra_Pradesh,Vijayawada,"Rajiv Gandhi Park, Vijayawada - APPCB",22-03-2024 16:00:00,16.509717,80.612222,PM2.5,42,67,55
India,Andhra_Pradesh,Vijayawada,"Rajiv Gandhi Park, Vijayawada - APPCB",22-03-2024 16:00:00,16.509717,80.612222,CO,38,52,44
India,Andhra_Pradesh,Vijayawada,"Rajiv Nagar, Vijayawada - APPCB",22-03-2024 16:00:00,16.554731,80.649110,PM10,59,108,65
India,Andhra_Pradesh,Vijayawada,"Rajiv Nagar, Vijayawada - APPCB",22-03-2024 16:00:00,16.554731,80.649110,SO2,14,26,21
India,Andhra_Pradesh,Vijayawada,"Rajiv Nagar, Vijayawada - APPCB",22-03-2024 16:00:00,16.554731,80.649110,CO,37,37,37
India,Andhra_Pradesh,Vijayawada,"Rajiv Nagar, Vijayawada - APPCB",22-03-2024 16:00:00,16.554731,80.649110,OZONE,8,43,28
India,Andhra_Pradesh,Visakhapatnam,"GVM Corporation, Visakhapatnam - APPCB",22-03-2024 16:00:00,17.72,83.3,OZONE,5,75,15
India,Arunachal_Pradesh,Naharlagun,"Naharlagun, Naharlagun - APSPCB",22-03-2024 16:00:00,27.103358,93.679645,PM2.5,11,96,39
India,Assam,Byrnihat,"Central Academy for SFS, Byrnihat - PCBA",22-03-2024 16:00:00,26.071318,91.87488,SO2,10,22,14
India,Assam,Byrnihat,"Central Academy for SFS, Byrnihat - PCBA",22-03-2024 16:00:00,26.071318,91.87488,OZONE,8,22,12
India,Assam,Guwahati,"IITG, Guwahati - PCBA",22-03-2024 16:00:00,26.2028636,91.70046436,CO,10,14,12
India,Assam,Guwahati,"LGBI Airport, Guwahati - PCBA",22-03-2024 16:00:00,26.10887,91.589544,PM10,50,129,74
India,Assam,Guwahati,"LGBI Airport, Guwahati - PCBA",22-03-2024 16:00:00,26.10887,91.589544,NH3,1,10,2
India,Assam,Guwahati,"LGBI Airport, Guwahati - PCBA",22-03-2024 16:00:00,26.10887,91.589544,CO,32,112,37
India,Assam,Guwahati,"Pan Bazaar, Guwahati - PCBA",22-03-2024 16:00:00,26.187500,91.744194,PM2.5,55,147,89
India,Assam,Guwahati,"Pan Bazaar, Guwahati - PCBA",22-03-2024 16:00:00,26.187500,91.744194,NH3,4,4,4
India,Assam,Guwahati,"Railway Colony, Guwahati - PCBA",22-03-2024 16:00:00,26.181742,91.78063,PM10,43,96,71
India,Assam,Guwahati,"Railway Colony, Guwahati - PCBA",22-03-2024 16:00:00,26.181742,91.78063,OZONE,1,56,24
India,Assam,Nagaon,"Christianpatty, Nagaon - PCBA",22-03-2024 16:00:00,26.349082,92.68449,PM10,2,39,10
India,Assam,Nagaon,"Christianpatty, Nagaon - PCBA",22-03-2024 16:00:00,26.349082,92.68449,OZONE,19,81,61
India,Assam,Nalbari,"Bata Chowk, Nalbari - PCBA",22-03-2024 16:00:00,26.446912,91.439057,CO,65,124,78
India,Assam,Nalbari,"Bata Chowk, Nalbari - PCBA",22-03-2024 16:00:00,26.446912,91.439057,OZONE,10,99,63
India,Assam,Silchar,"Tarapur, Silchar - PCBA",22-03-2024 16:00:00,24.82827,92.79525,PM10,30,58,45
India,Assam,Sivasagar,"Girls College, Sivasagar - PCBA",22-03-2024 16:00:00,26.987634,94.636574,PM2.5,13,40,27
India,Bihar,Arrah,"New DM Office, Arrah - BSPCB",22-03-2024 16:00:00,25.5626095,84.663264,SO2,14,21,18
India,Bihar,Aurangabad,"Gurdeo Nagar, Aurangabad - BSPCB",22-03-2024 16:00:00,24.75746,84.366208,PM10,37,125,60
India,Bihar,Aurangabad,"Gurdeo Nagar, Aurangabad - BSPCB",22-03-2024 16:00:00,24.75746,84.366208,SO2,6,9,7
India,Bihar,Bettiah,"Kamalnath Nagar, Bettiah - BSPCB",22-03-2024 16:00:00,26.80365,84.51954,PM2.5,37,210,89
India,Bihar,Bettiah,"Kamalnath Nagar, Bettiah - BSPCB",22-03-2024 16:00:00,26.80365,84.51954,OZONE,1,8,6
India,Bihar,Bhagalpur,"DM Office_Kachari Chowk, Bhagalpur - BSPCB",22-03-2024 16:00:00,25.251013,86.989001,PM2.5,12,160,63
India,Bihar,Bhagalpur,"DM Office_Kachari Chowk, Bhagalpur - BSPCB",22-03-2024 16:00:00,25.251013,86.989001,NO2,51,88,71
India,Bihar,Bhagalpur,"DM Office_Kachari Chowk, Bhagalpur - BSPCB",22-03-2024 16:00:00,25.251013,86.989001,SO2,15,53,25
India,Bihar,Bhagalpur,"Mayaganj, Bhagalpur - BSPCB",22-03-2024 16:00:00,25.265194,87.012947,PM2.5,38,287,113
India,Bihar,Bhagalpur,"Mayaganj, Bhagalpur - BSPCB",22-03-2024 16:00:00,25.265194,87.012947,CO,8,10,9
India,Bihar,Chhapra,"Darshan Nagar, Chhapra - BSPCB",22-03-2024 16:00:00,25.7808257,84.7446768,CO,30,52,36
India,Bihar,Kishanganj,"SDM Office_Khagra, Kishanganj - BSPCB",22-03-2024 16:00:00,26.0881305,87.93840336,SO2,NA,NA,NA
India,Bihar,Manguraha,"Forest Rest House, Manguraha - BSPCB",22-03-2024 16:00:00,27.308328,84.531742,CO,26,26,26
India,Bihar,Munger,"Town Hall, Munger - BSPCB",22-03-2024 16:00:00,25.376776,86.471523,CO,2,10,5
India,Bihar,Muzaffarpur,"Buddha Colony, Muzaffarpur - BSPCB",22-03-2024 16:00:00,26.11442,85.39813,PM2.5,52,273,136
India,Bihar,Muzaffarpur,"Buddha Colony, Muzaffarpur - BSPCB",22-03-2024 16:00:00,26.11442,85.39813,SO2,1,5,2
India,Bihar,Muzaffarpur,"MIT-Daudpur Kothi, Muzaffarpur - BSPCB",22-03-2024 16:00:00,26.1403345,85.3650192,NO2,5,8,7
India,Bihar,Patna,"DRM Office Danapur, Patna - BSPCB",22-03-2024 16:00:00,25.586562,85.043586,NH3,3,3,3
India,Bihar,Patna,"DRM Office Danapur, Patna - BSPCB",22-03-2024 16:00:00,25.586562,85.043586,SO2,6,9,7
India,Bihar,Patna,"DRM Office Danapur, Patna - BSPCB",22-03-2024 16:00:00,25.586562,85.043586,OZONE,1,44,28
India,Bihar,Patna,"Govt. High School Shikarpur, Patna - BSPCB",22-03-2024 16:00:00,25.592539,85.227158,NH3,3,5,5
India,Bihar,Patna,"IGSC Planetarium Complex, Patna - BSPCB",22-03-2024 16:00:00,25.610369,85.132568,PM2.5,66,306,176
India,Bihar,Patna,"Muradpur, Patna - BSPCB",22-03-2024 16:00:00,25.619651,85.147382,PM2.5,87,315,228
India,Bihar,Patna,"Muradpur, Patna - BSPCB",22-03-2024 16:00:00,25.619651,85.147382,CO,13,110,35
India,Bihar,Patna,"Muradpur, Patna - BSPCB",22-03-2024 16:00:00,25.619651,85.147382,OZONE,1,29,17
India,Bihar,Patna,"Rajbansi Nagar, Patna - BSPCB",22-03-2024 16:00:00,25.599486,85.113666,PM10,64,167,130
India,Bihar,Patna,"Samanpura, Patna - BSPCB",22-03-2024 16:00:00,25.596727,85.085624,CO,25,119,56
India,Bihar,Patna,"Samanpura, Patna - BSPCB",22-03-2024 16:00:00,25.596727,85.085624,OZONE,31,85,69
India,Bihar,Rajgir,"Dangi Tola, Rajgir - BSPCB",22-03-2024 16:00:00,25.03280,85.41948,PM2.5,NA,NA,NA
India,Bihar,Rajgir,"Dangi Tola, Rajgir - BSPCB",22-03-2024 16:00:00,25.03280,85.41948,OZONE,6,23,21
India,Bihar,Saharsa,"Police Line, Saharsa - BSPCB",22-03-2024 16:00:00,25.892357,86.590325,PM2.5,20,200,63
India,Bihar,Saharsa,"Police Line, Saharsa - BSPCB",22-03-2024 16:00:00,25.892357,86.590325,PM10,28,69,48
India,Bihar,Saharsa,"Police Line, Saharsa - BSPCB",22-03-2024 16:00:00,25.892357,86.590325,NH3,9,9,9
India,Bihar,Samastipur,"DM Office_Kasipur, Samastipur - BSPCB",22-03-2024 16:00:00,25.859655,85.77944,PM2.5,NA,NA,NA
India,Bihar,Sasaram,"Dada Peer, Sasaram - BSPCB",22-03-2024 16:00:00,24.952822,84.002396,PM2.5,14,98,41
India,Bihar,Sasaram,"Dada Peer, Sasaram - BSPCB",22-03-2024 16:00:00,24.952822,84.002396,PM10,14,143,62
India,Bihar,Sasaram,"Dada Peer, Sasaram - BSPCB",22-03-2024 16:00:00,24.952822,84.002396,NO2,11,23,17
India,Bihar,Sasaram,"Dada Peer, Sasaram - BSPCB",22-03-2024 16:00:00,24.952822,84.002396,OZONE,4,82,52
India,Bihar,Siwan,"Chitragupta Nagar, Siwan - BSPCB",22-03-2024 16:00:00,26.2271665,84.3570427,NO2,12,108,36
India,Bihar,Siwan,"Chitragupta Nagar, Siwan - BSPCB",22-03-2024 16:00:00,26.2271665,84.3570427,OZONE,1,80,54
India,Chandigarh,Chandigarh,"Sector-25, Chandigarh - CPCC",22-03-2024 16:00:00,30.751462,76.762879,PM10,124,148,138
India,Chhattisgarh,Bhilai,"32Bungalows, Bhilai - CECB",22-03-2024 16:00:00,21.194815,81.314770,PM10,29,81,55
India,Chhattisgarh,Bhilai,"32Bungalows, Bhilai - CECB",22-03-2024 16:00:00,21.194815,81.314770,SO2,6,8,7
India,Chhattisgarh,Bhilai,"Civic Center, Bhilai - Bhilai Steel Plant",22-03-2024 16:00:00,21.185571,81.343175,PM2.5,NA,NA,NA
India,Chhattisgarh,Bhilai,"Civic Center, Bhilai - Bhilai Steel Plant",22-03-2024 16:00:00,21.185571,81.343175,OZONE,19,74,52
India,Chhattisgarh,Bilaspur,"Mangala, Bilaspur - NTPC",22-03-2024 16:00:00,22.08815,82.13737,NO2,13,17,16
India,Chhattisgarh,Chhal,"Nawapara SECL Colony, Chhal - CECB",22-03-2024 16:00:00,22.118125,83.140608,NO2,17,57,30
India,Chhattisgarh,Chhal,"Nawapara SECL Colony, Chhal - CECB",22-03-2024 16:00:00,22.118125,83.140608,NH3,NA,NA,NA
India,Chhattisgarh,Chhal,"Nawapara SECL Colony, Chhal - CECB",22-03-2024 16:00:00,22.118125,83.140608,SO2,13,68,32
India,Chhattisgarh,Chhal,"Nawapara SECL Colony, Chhal - CECB",22-03-2024 16:00:00,22.118125,83.140608,CO,29,59,33
India,Chhattisgarh,Korba,"Rampur, Korba - CECB",22-03-2024 16:00:00,22.368195,82.746431,NH3,2,5,3
India,Chhattisgarh,Korba,"Rampur, Korba - CECB",22-03-2024 16:00:00,22.368195,82.746431,SO2,7,17,10
India,Chhattisgarh,Korba,"Urja Nagar, Korba - CECB",22-03-2024 16:00:00,22.348441,82.549611,PM2.5,4,12,8
India,Chhattisgarh,Korba,"Urja Nagar, Korba - CECB",22-03-2024 16:00:00,22.348441,82.549611,SO2,1,7,3
India,Chhattisgarh,Kunjemura,"OP Jindal School, Kunjemura - CECB",22-03-2024 16:00:00,22.126650,83.483212,NH3,1,4,2
India,Chhattisgarh,Raipur,"AIIMS, Raipur - CECB",22-03-2024 16:00:00,21.258815,81.578979,PM2.5,21,76,50
India,Chhattisgarh,Raipur,"AIIMS, Raipur - CECB",22-03-2024 16:00:00,21.258815,81.578979,SO2,2,16,6
India,Chhattisgarh,Raipur,"Bhatagaon New ISBT, Raipur - CECB",22-03-2024 16:00:00,21.219665,81.630094,PM10,36,124,79
India,Chhattisgarh,Raipur,"Krishak Nagar, Raipur - CECB",22-03-2024 16:00:00,21.237755,81.705301,SO2,10,28,16
India,Chhattisgarh,Tumidih,"OP Jindal Industrial Park, Tumidih - CECB",22-03-2024 16:00:00,22.06631475,83.33820077,PM2.5,12,66,40
India,Chhattisgarh,Tumidih,"OP Jindal Industrial Park, Tumidih - CECB",22-03-2024 16:00:00,22.06631475,83.33820077,NO2,9,31,19
India,Delhi,Delhi,"Anand Vihar, Delhi - DPCC",22-03-2024 16:00:00,28.647622,77.3158090,PM10,NA,NA,NA
India,Delhi,Delhi,"Anand Vihar, Delhi - DPCC",22-03-2024 16:00:00,28.647622,77.3158090,NO2,NA,NA,NA
India,Delhi,Delhi,"Anand Vihar, Delhi - DPCC",22-03-2024 16:00:00,28.647622,77.3158090,SO2,NA,NA,NA
India,Delhi,Delhi,"Anand Vihar, Delhi - DPCC",22-03-2024 16:00:00,28.647622,77.3158090,CO,20,106,46
India,Delhi,Delhi,"Ashok Vihar, Delhi - DPCC",22-03-2024 16:00:00,28.695381,77.181665,NO2,26,59,41
India,Delhi,Delhi,"Ashok Vihar, Delhi - DPCC",22-03-2024 16:00:00,28.695381,77.181665,OZONE,3,22,10
India,Delhi,Delhi,"Aya Nagar, Delhi - IMD",22-03-2024 16:00:00,28.4706914,77.1099364,NO2,11,29,18
India,Delhi,Delhi,"Aya Nagar, Delhi - IMD",22-03-2024 16:00:00,28.4706914,77.1099364,OZONE,10,75,31
India,Delhi,Delhi,"Bawana, Delhi - DPCC",22-03-2024 16:00:00,28.776200,77.051074,PM10,136,252,182
India,Delhi,Delhi,"CRRI Mathura Road, Delhi - IMD",22-03-2024 16:00:00,28.5512005,77.2735737,PM2.5,69,215,112
India,Delhi,Delhi,"Chandni Chowk, Delhi - IITM",22-03-2024 16:00:00,28.656756,77.227234,PM10,127,180,150
India,Delhi,Delhi,"Chandni Chowk, Delhi - IITM",22-03-2024 16:00:00,28.656756,77.227234,NH3,4,24,15
India,Delhi,Delhi,"DTU, Delhi - CPCB",22-03-2024 16:00:00,28.7500499,77.1112615,NO2,29,63,43
India,Delhi,Delhi,"DTU, Delhi - CPCB",22-03-2024 16:00:00,28.7500499,77.1112615,NH3,9,15,12
India,Delhi,Delhi,"DTU, Delhi - CPCB",22-03-2024 16:00:00,28.7500499,77.1112615,SO2,28,29,29
India,Delhi,Delhi,"Dwarka-Sector 8, Delhi - DPCC ",22-03-2024 16:00:00,28.5710274,77.0719006,SO2,6,13,9
India,Delhi,Delhi,"IGI Airport (T3), Delhi - IMD",22-03-2024 16:00:00,28.5627763,77.1180053,CO,20,50,23
India,Delhi,Delhi,"IHBAS, Dilshad Garden, Delhi - CPCB",22-03-2024 16:00:00,28.6811736,77.3025234,NO2,2,27,9
India,Delhi,Delhi,"Jahangirpuri, Delhi - DPCC",22-03-2024 16:00:00,28.732820,77.170633,PM2.5,82,209,134
India,Delhi,Delhi,"Jahangirpuri, Delhi - DPCC",22-03-2024 16:00:00,28.732820,77.170633,SO2,5,21,14
India,Delhi,Delhi,"Jawaharlal Nehru Stadium, Delhi - DPCC",22-03-2024 16:00:00,28.580280,77.233829,NH3,8,11,9
India,Delhi,Delhi,"Jawaharlal Nehru Stadium, Delhi - DPCC",22-03-2024 16:00:00,28.580280,77.233829,CO,46,80,60
India,Delhi,Delhi,"Lodhi Road, Delhi - IMD",22-03-2024 16:00:00,28.5918245,77.2273074,PM2.5,86,152,114
India,Delhi,Delhi,"Lodhi Road, Delhi - IMD",22-03-2024 16:00:00,28.5918245,77.2273074,PM10,100,140,119
India,Delhi,Delhi,"Lodhi Road, Delhi - IMD",22-03-2024 16:00:00,28.5918245,77.2273074,OZONE,10,44,26
India,Delhi,Delhi,"Mandir Marg, Delhi - DPCC",22-03-2024 16:00:00,28.636429,77.201067,NO2,117,144,128
India,Delhi,Delhi,"NSIT Dwarka, Delhi - CPCB",22-03-2024 16:00:00,28.60909,77.0325413,CO,33,96,49
India,Delhi,Delhi,"Najafgarh, Delhi - DPCC",22-03-2024 16:00:00,28.570173,76.933762,NH3,12,13,12
India,Delhi,Delhi,"Najafgarh, Delhi - DPCC",22-03-2024 16:00:00,28.570173,76.933762,CO,33,66,45
India,Delhi,Delhi,"Narela, Delhi - DPCC",22-03-2024 16:00:00,28.822836,77.101981,PM2.5,97,348,236
India,Delhi,Delhi,"North Campus, DU, Delhi - IMD",22-03-2024 16:00:00,28.6573814,77.1585447,NO2,NA,NA,NA
India,Delhi,Delhi,"North Campus, DU, Delhi - IMD",22-03-2024 16:00:00,28.6573814,77.1585447,CO,29,37,30
India,Delhi,Delhi,"Pusa, Delhi - DPCC",22-03-2024 16:00:00,28.639652,77.146275,NH3,7,25,12
India,Delhi,Delhi,"Pusa, Delhi - IMD",22-03-2024 16:00:00,28.636110,77.173332,PM10,NA,NA,NA
India,Delhi,Delhi,"Pusa, Delhi - IMD",22-03-2024 16:00:00,28.636110,77.173332,CO,78,90,83
India,Delhi,Delhi,"R K Puram, Delhi - DPCC",22-03-2024 16:00:00,28.563262,77.186937,PM2.5,83,236,154
India,Delhi,Delhi,"R K Puram, Delhi - DPCC",22-03-2024 16:00:00,28.563262,77.186937,OZONE,26,201,189
India,Delhi,Delhi,"Rohini, Delhi - DPCC",22-03-2024 16:00:00,28.732528,77.119920,PM2.5,90,228,131
India,Delhi,Delhi,"Rohini, Delhi - DPCC",22-03-2024 16:00:00,28.732528,77.119920,CO,30,66,41
India,Delhi,Delhi,"Sonia Vihar, Delhi - DPCC",22-03-2024 16:00:00,28.710508,77.249485,PM2.5,93,202,148
India,Delhi,Delhi,"Sri Aurobindo Marg, Delhi - DPCC",22-03-2024 16:00:00,28.531346,77.190156,OZONE,3,37,19
India,Gujarat,Ahmedabad,"Chandkheda, Ahmedabad - IITM",22-03-2024 16:00:00,23.107969,72.574648,PM10,75,164,124
India,Gujarat,Ahmedabad,"Chandkheda, Ahmedabad - IITM",22-03-2024 16:00:00,23.107969,72.574648,OZONE,5,63,34
India,Gujarat,Ahmedabad,"Gyaspur, Ahmedabad - IITM",22-03-2024 16:00:00,22.977134,72.553024,CO,20,82,34
India,Gujarat,Ahmedabad,"Raikhad, Ahmedabad - IITM",22-03-2024 16:00:00,23.020509,72.579261,PM2.5,59,377,205
India,Gujarat,Ahmedabad,"Raikhad, Ahmedabad - IITM",22-03-2024 16:00:00,23.020509,72.579261,OZONE,13,55,32
India,Gujarat,Ahmedabad,"Rakhial, Ahmedabad - IITM",22-03-2024 16:00:00,23.016834,72.625775,SO2,5,91,16
India,Gujarat,Ahmedabad,"Sardar Vallabhbhai Patel Stadium, Ahmedabad - IITM",22-03-2024 16:00:00,23.043070,72.562968,OZONE,15,22,20
India,Gujarat,Ankleshwar,"GIDC, Ankleshwar - GPCB",22-03-2024 16:00:00,21.613267,73.010555,PM2.5,6,140,85
India,Gujarat,Ankleshwar,"GIDC, Ankleshwar - GPCB",22-03-2024 16:00:00,21.613267,73.010555,PM10,35,113,89
India,Gujarat,Ankleshwar,"GIDC, Ankleshwar - GPCB",22-03-2024 16:00:00,21.613267,73.010555,OZONE,17,36,31
India,Gujarat,Nandesari,"GIDC, Nandesari - Nandesari Ind. Association",22-03-2024 16:00:00,22.410802,73.097923,PM10,106,423,242
India,Gujarat,Surat,"Science Center, Surat - SMC",22-03-2024 16:00:00,21.170046,72.795405,SO2,18,40,24
India,Gujarat,Vapi,"Phase-1 GIDC, Vapi - GPCB",22-03-2024 16:00:00,20.362421,72.918013,PM2.5,51,324,149
India,Gujarat,Vapi,"Phase-1 GIDC, Vapi - GPCB",22-03-2024 16:00:00,20.362421,72.918013,NH3,2,2,2
India,Gujarat,Vatva,"Phase-4 GIDC, Vatva - GPCB",22-03-2024 16:00:00,22.969611,72.643500,PM10,77,310,143
India,Haryana,Ambala,"Patti Mehar, Ambala - HSPCB",22-03-2024 16:00:00,30.379589,76.778328,PM10,NA,NA,NA
India,Haryana,Ballabgarh,"Nathu Colony, Ballabgarh - HSPCB",22-03-2024 16:00:00,28.3419248,77.319699,NH3,1,3,2
India,Haryana,Ballabgarh,"Nathu Colony, Ballabgarh - HSPCB",22-03-2024 16:00:00,28.3419248,77.319699,OZONE,12,49,21
India,Haryana,Bhiwani,"H.B. Colony, Bhiwani - HSPCB",22-03-2024 16:00:00,28.806223,76.141105,PM10,87,136,109
India,Haryana,Bhiwani,"H.B. Colony, Bhiwani - HSPCB",22-03-2024 16:00:00,28.806223,76.141105,CO,14,53,36
India,Haryana,Bhiwani,"H.B. Colony, Bhiwani - HSPCB",22-03-2024 16:00:00,28.806223,76.141105,OZONE,9,78,25
India,Haryana,Dharuhera,"Municipal Corporation Office, Dharuhera -  HSPCB",22-03-2024 16:00:00,28.206800,76.799700,SO2,16,24,19
India,Haryana,Dharuhera,"Municipal Corporation Office, Dharuhera -  HSPCB",22-03-2024 16:00:00,28.206800,76.799700,OZONE,31,52,41
India,Haryana,Faridabad,"Sector- 16A, Faridabad - HSPCB",22-03-2024 16:00:00,28.4088421,77.3099081,OZONE,14,14,14
India,Haryana,Fatehabad,"Huda Sector, Fatehabad - HSPCB",22-03-2024 16:00:00,29.503664,75.467934,PM10,78,123,103
India,Haryana,Fatehabad,"Huda Sector, Fatehabad - HSPCB",22-03-2024 16:00:00,29.503664,75.467934,NH3,13,14,13
India,Haryana,Fatehabad,"Huda Sector, Fatehabad - HSPCB",22-03-2024 16:00:00,29.503664,75.467934,SO2,3,13,8
India,Haryana,Gurugram,"Sector-51, Gurugram - HSPCB",22-03-2024 16:00:00,28.4227,77.0667,PM2.5,138,225,174
India,Haryana,Gurugram,"Sector-51, Gurugram - HSPCB",22-03-2024 16:00:00,28.4227,77.0667,SO2,3,5,4
India,Haryana,Gurugram,"Teri Gram, Gurugram - HSPCB",22-03-2024 16:00:00,28.4275,77.1465,NH3,45,56,50
India,Haryana,Gurugram,"Teri Gram, Gurugram - HSPCB",22-03-2024 16:00:00,28.4275,77.1465,CO,20,27,24
India,Haryana,Kaithal,"Rishi Nagar, Kaithal - HSPCB",22-03-2024 16:00:00,29.8006,76.4155,SO2,12,104,43
India,Haryana,Karnal,"Sector-12, Karnal - HSPCB",22-03-2024 16:00:00,29.695300,77.002700,PM2.5,74,127,95
India,Haryana,Karnal,"Sector-12, Karnal - HSPCB",22-03-2024 16:00:00,29.695300,77.002700,CO,38,50,44
India,Haryana,Karnal,"Sector-12, Karnal - HSPCB",22-03-2024 16:00:00,29.695300,77.002700,OZONE,19,23,21
India,Haryana,Kurukshetra,"Sector-7, Kurukshetra - HSPCB",22-03-2024 16:00:00,29.966942,76.875879,PM10,74,112,99
India,Haryana,Kurukshetra,"Sector-7, Kurukshetra - HSPCB",22-03-2024 16:00:00,29.966942,76.875879,OZONE,18,62,41
India,Haryana,Narnaul,"Shastri Nagar, Narnaul - HSPCB",22-03-2024 16:00:00,28.060249,76.113115,PM10,13,111,74
India,Haryana,Panchkula,"Sector-6, Panchkula - HSPCB ",22-03-2024 16:00:00,30.7057778,76.8531805555555,NO2,28,31,30
India,Haryana,Panipat,"Sector-18, Panipat - HSPCB",22-03-2024 16:00:00,29.497973,76.993331,PM2.5,112,123,117
India,Haryana,Panipat,"Sector-18, Panipat - HSPCB",22-03-2024 16:00:00,29.497973,76.993331,PM10,74,77,75
India,Haryana,Panipat,"Sector-18, Panipat - HSPCB",22-03-2024 16:00:00,29.497973,76.993331,NO2,31,32,31
India,Haryana,Panipat,"Sector-18, Panipat - HSPCB",22-03-2024 16:00:00,29.497973,76.993331,NH3,2,3,2
India,Haryana,Rohtak,"MD University, Rohtak - HSPCB",22-03-2024 16:00:00,28.52123,76.37138,NO2,46,56,51
India,Haryana,Rohtak,"MD University, Rohtak - HSPCB",22-03-2024 16:00:00,28.52123,76.37138,CO,26,60,45
India,Haryana,Sirsa,"F-Block, Sirsa - HSPCB",22-03-2024 16:00:00,29.536400,75.015800,OZONE,3,159,159
India,Haryana,Yamuna Nagar,"Gobind Pura, Yamuna Nagar - HSPCB",22-03-2024 16:00:00,30.1480566,77.2893471,NO2,11,20,16
India,Himachal Pradesh,Baddi,"HIMUDA Complex Phase-1, Baddi - HPPCB",22-03-2024 16:00:00,30.943887,76.801991,PM10,101,198,146
India,Jharkhand,Dhanbad,"Sardar Patel Nagar, Dhanbad - JSPCB",22-03-2024 16:00:00,23.80569,86.44268,PM10,NA,NA,NA
India,Jharkhand,Pathardih,"Mohalbani Ghat, Pathardih - DMC",22-03-2024 16:00:00,23.669880,86.411725,CO,NA,NA,NA
India,Karnataka,Bagalkot,"Vidayagiri, Bagalkot - KSPCB",22-03-2024 16:00:00,16.172806,75.659694,NO2,9,10,9
India,Karnataka,Bagalkot,"Vidayagiri, Bagalkot - KSPCB",22-03-2024 16:00:00,16.172806,75.659694,NH3,1,2,1
India,Karnataka,Bagalkot,"Vidayagiri, Bagalkot - KSPCB",22-03-2024 16:00:00,16.172806,75.659694,CO,23,53,37
India,Karnataka,Bengaluru,"BTM Layout, Bengaluru - CPCB",22-03-2024 16:00:00,12.9135218,77.5950804,NH3,NA,NA,NA
India,Karnataka,Bengaluru,"BTM Layout, Bengaluru - CPCB",22-03-2024 16:00:00,12.9135218,77.5950804,OZONE,31,92,61
India,Karnataka,Bengaluru,"Hombegowda Nagar, Bengaluru - KSPCB",22-03-2024 16:00:00,12.938539,77.590100,PM2.5,35,84,61
India,Karnataka,Bengaluru,"Hombegowda Nagar, Bengaluru - KSPCB",22-03-2024 16:00:00,12.938539,77.590100,CO,11,25,13
India,Karnataka,Bengaluru,"Jigani, Bengaluru - KSPCB",22-03-2024 16:00:00,12.7816279,77.6299145,NH3,4,4,4
India,Karnataka,Bengaluru,"Kasturi Nagar, Bengaluru - KSPCB",22-03-2024 16:00:00,13.003872,77.664217,PM10,83,137,114
India,Karnataka,Bengaluru,"Peenya, Bengaluru - CPCB",22-03-2024 16:00:00,13.0270199,77.494094,PM10,39,76,56
India,Karnataka,Bengaluru,"Peenya, Bengaluru - CPCB",22-03-2024 16:00:00,13.0270199,77.494094,SO2,3,9,6
India,Karnataka,Bengaluru,"Shivapura_Peenya, Bengaluru - KSPCB",22-03-2024 16:00:00,13.0246342,77.5080115,PM2.5,26,111,59
India,Karnataka,Bengaluru,"Shivapura_Peenya, Bengaluru - KSPCB",22-03-2024 16:00:00,13.0246342,77.5080115,CO,24,62,34
India,Karnataka,Bidar,"Naubad, Bidar - KSPCB",22-03-2024 16:00:00,17.930306,77.482194,PM2.5,25,76,50
India,Karnataka,Bidar,"Naubad, Bidar - KSPCB",22-03-2024 16:00:00,17.930306,77.482194,NO2,7,9,8
India,Karnataka,Bidar,"Naubad, Bidar - KSPCB",22-03-2024 16:00:00,17.930306,77.482194,CO,44,78,63
India,Karnataka,Chamarajanagar,"Urban, Chamarajanagar - KSPCB",22-03-2024 16:00:00,11.55358,76.55521,PM2.5,19,52,31
India,Karnataka,Chamarajanagar,"Urban, Chamarajanagar - KSPCB",22-03-2024 16:00:00,11.55358,76.55521,PM10,34,66,44
India,Karnataka,Chamarajanagar,"Urban, Chamarajanagar - KSPCB",22-03-2024 16:00:00,11.55358,76.55521,CO,19,30,28
India,Karnataka,Chikkamagaluru,"Kalyana Nagara, Chikkamagaluru - KSPCB",22-03-2024 16:00:00,13.328028,75.797056,NO2,18,27,25
India,Karnataka,Chikkamagaluru,"Kalyana Nagara, Chikkamagaluru - KSPCB",22-03-2024 16:00:00,13.328028,75.797056,SO2,1,11,8
India,Karnataka,Dharwad,"Kalabhavan, Dharwad - KSPCB",22-03-2024 16:00:00,15.459706,75.008381,CO,1,156,1
India,Karnataka,Gadag,"Panchal Nagar, Gadag - KSPCB",22-03-2024 16:00:00,15.411456,75.638133,OZONE,42,87,54
India,Karnataka,Hassan,"B.Katihalli, Hassan - KSPCB",22-03-2024 16:00:00,13.008556,76.125258,PM10,53,103,80
India,Karnataka,Hassan,"B.Katihalli, Hassan - KSPCB",22-03-2024 16:00:00,13.008556,76.125258,NO2,10,36,21
India,Karnataka,Hassan,"B.Katihalli, Hassan - KSPCB",22-03-2024 16:00:00,13.008556,76.125258,OZONE,6,30,12
India,Karnataka,Haveri,"Ashwini Nagar, Haveri - KSPCB",22-03-2024 16:00:00,14.791800,75.389600,NO2,27,40,33
India,Karnataka,Hubballi,"Lingaraj Nagar, Hubballi - KSPCB",22-03-2024 16:00:00,15.3714823,75.1160168,CO,41,190,113
India,Karnataka,Kalaburagi,"Lal Bahadur Shastri Nagar, Kalaburagi - KSPCB",22-03-2024 16:00:00,17.321993,76.822628,NO2,11,12,11
India,Karnataka,Kalaburagi,"Lal Bahadur Shastri Nagar, Kalaburagi - KSPCB",22-03-2024 16:00:00,17.321993,76.822628,CO,40,51,42
India,Karnataka,Kalaburagi,"Lal Bahadur Shastri Nagar, Kalaburagi - KSPCB",22-03-2024 16:00:00,17.321993,76.822628,OZONE,2,75,45
India,Karnataka,Kalaburagi,"Mahatma Basaveswar Colony, Kalaburgi - KSPCB",22-03-2024 16:00:00,17.336318,76.847397,PM10,26,126,57
India,Karnataka,Kalaburagi,"Mahatma Basaveswar Colony, Kalaburgi - KSPCB",22-03-2024 16:00:00,17.336318,76.847397,NO2,8,16,13
India,Karnataka,Kalaburagi,"Mahatma Basaveswar Colony, Kalaburgi - KSPCB",22-03-2024 16:00:00,17.336318,76.847397,SO2,5,12,6
India,Karnataka,Kalaburagi,"Mahatma Basaveswar Colony, Kalaburgi - KSPCB",22-03-2024 16:00:00,17.336318,76.847397,CO,37,70,43
India,Karnataka,Karwar,"KHB Colony, Karwar - KSPCB",22-03-2024 16:00:00,14.816666,74.141003,SO2,18,21,19
India,Karnataka,Koppal,"Diwator Nagar, Koppal - KSPCB",22-03-2024 16:00:00,15.347630,76.181767,PM2.5,29,66,44
India,Karnataka,Koppal,"Diwator Nagar, Koppal - KSPCB",22-03-2024 16:00:00,15.347630,76.181767,NO2,2,16,4
India,Karnataka,Mangalore,"Kadri, Mangalore - KSPCB",22-03-2024 16:00:00,12.889250,74.853000,NO2,5,6,6
India,Karnataka,Mangalore,"Kadri, Mangalore - KSPCB",22-03-2024 16:00:00,12.889250,74.853000,OZONE,30,32,31
India,Karnataka,Mysuru,"Hebbal 1st Stage, Mysuru - KSPCB",22-03-2024 16:00:00,12.21041,76.37376,PM2.5,25,66,38
India,Karnataka,Raichur,"Haji Colony, Raichur - KSPCB",22-03-2024 16:00:00,16.208139,77.348417,PM10,46,247,107
India,Karnataka,Raichur,"Haji Colony, Raichur - KSPCB",22-03-2024 16:00:00,16.208139,77.348417,NO2,14,52,29
India,Karnataka,Raichur,"Haji Colony, Raichur - KSPCB",22-03-2024 16:00:00,16.208139,77.348417,NH3,1,3,2
India,Karnataka,Ramanagara,"Vijay Nagar, Ramanagara - KSPCB",22-03-2024 16:00:00,12.733409,77.298051,SO2,8,28,21
India,Karnataka,Shivamogga,"Vinoba Nagara, Shivamogga - KSPCB",22-03-2024 16:00:00,13.940000,75.555917,CO,9,47,15
India,Karnataka,Vijayapura,"Ibrahimpur, Vijayapura - KSPCB",22-03-2024 16:00:00,16.802639,75.722694,NH3,2,2,2
India,Karnataka,Yadgir,"Collector Office, Yadgir - KSPCB",22-03-2024 16:00:00,16.7602,77.1428,PM2.5,40,70,48
India,Karnataka,Yadgir,"Collector Office, Yadgir - KSPCB",22-03-2024 16:00:00,16.7602,77.1428,NO2,5,9,6
India,Karnataka,Yadgir,"Collector Office, Yadgir - KSPCB",22-03-2024 16:00:00,16.7602,77.1428,SO2,6,34,19
India,Kerala,Kannur,"Thavakkara, Kannur - Kerala PCB",22-03-2024 16:00:00,11.875000,75.373200,PM10,64,73,70
India,Kerala,Thiruvananthapuram,"Kariavattom, Thiruvananthapuram - Kerala PCB",22-03-2024 16:00:00,8.563700,76.886500,PM10,88,102,99
India,Kerala,Thiruvananthapuram,"Plammoodu, Thiruvananthapuram - Kerala PCB",22-03-2024 16:00:00,8.5149093,76.9435879,PM2.5,27,82,51
India,Kerala,Thiruvananthapuram,"Plammoodu, Thiruvananthapuram - Kerala PCB",22-03-2024 16:00:00,8.5149093,76.9435879,OZONE,12,71,17
India,Kerala,Thrissur,"Corporation Ground, Thrissur - Kerala PCB",22-03-2024 16:00:00,10.532400,76.215900,PM10,60,70,64
India,Kerala,Thrissur,"Corporation Ground, Thrissur - Kerala PCB",22-03-2024 16:00:00,10.532400,76.215900,CO,14,36,19
India,Madhya Pradesh,Bhopal,"Idgah Hills, Bhopal - MPPCB",22-03-2024 16:00:00,23.264759,77.381568,SO2,20,22,21
India,Madhya Pradesh,Bhopal,"Paryavaran Parisar, Bhopal - MPPCB",22-03-2024 16:00:00,23.210494,77.425409,PM10,60,227,113
India,Madhya Pradesh,Gwalior,"City Center, Gwalior - MPPCB",22-03-2024 16:00:00,26.203442,78.193251,PM10,53,118,80
India,Madhya Pradesh,Gwalior,"Deen Dayal Nagar, Gwalior - MPPCB",22-03-2024 16:00:00,26.259242,78.216432,OZONE,65,169,102
India,Madhya Pradesh,Gwalior,"Maharaj Bada, Gwalior - MPPCB",22-03-2024 16:00:00,26.200388,78.147714,PM10,71,173,110
India,Madhya Pradesh,Gwalior,"Maharaj Bada, Gwalior - MPPCB",22-03-2024 16:00:00,26.200388,78.147714,OZONE,67,167,166
India,Madhya Pradesh,Indore,"Chhoti Gwaltoli, Indore - MPPCB",22-03-2024 16:00:00,22.4310,75.5213,NH3,4,11,7
