country,state,city,station,last_update,latitude,longitude,pollutant_id,pollutant_min,pollutant_max,pollutant_avg
India,Andhra_Pradesh,Amaravati,"Secretariat, Amaravati - APPCB",11-04-2024 17:00:00,16.5150833,80.5181667,PM10,35,100,58
India,Andhra_Pradesh,Amaravati,"Secretariat, Amaravati - APPCB",11-04-2024 17:00:00,16.5150833,80.5181667,NO2,3,11,7
India,Andhra_Pradesh,Amaravati,"Secretariat, Amaravati - APPCB",11-04-2024 17:00:00,16.5150833,80.5181667,NH3,3,4,4
India,Andhra_Pradesh,Amaravati,"Secretariat, Amaravati - APPCB",11-04-2024 17:00:00,16.5150833,80.5181667,SO2,12,18,15
India,Andhra_Pradesh,Amaravati,"Secretariat, Amaravati - APPCB",11-04-2024 17:00:00,16.5150833,80.5181667,CO,12,90,43
India,Andhra_Pradesh,Amaravati,"Secretariat, Amaravati - APPCB",11-04-2024 17:00:00,16.5150833,80.5181667,OZONE,16,72,58
India,Andhra_Pradesh,Anantapur,"Gulzarpet, Anantapur - APPCB",11-04-2024 17:00:00,14.675886,77.593027,PM2.5,28,50,36
India,Andhra_Pradesh,Anantapur,"Gulzarpet, Anantapur - APPCB",11-04-2024 17:00:00,14.675886,77.593027,SO2,3,21,8
India,Andhra_Pradesh,Chittoor,"Gangineni Cheruvu, Chittoor - APPCB",11-04-2024 17:00:00,13.204880,79.097889,NO2,3,10,5
India,Andhra_Pradesh,Rajamahendravaram,"Anand Kala Kshetram, Rajamahendravaram - APPCB",11-04-2024 17:00:00,16.9872867,81.7363176,NH3,3,8,5
India,Andhra_Pradesh,Rajamahendravaram,"Anand Kala Kshetram, Rajamahendravaram - APPCB",11-04-2024 17:00:00,16.9872867,81.7363176,OZONE,15,48,42
India,Andhra_Pradesh,Tirupati,"Tirumala, Tirupati - APPCB",11-04-2024 17:00:00,13.67,79.35,PM2.5,32,95,62
India,Andhra_Pradesh,Tirupati,"Tirumala, Tirupati - APPCB",11-04-2024 17:00:00,13.67,79.35,NO2,17,25,21
India,Andhra_Pradesh,Tirupati,"Vaikuntapuram, Tirupati - APPCB",11-04-2024 17:00:00,13.615387,79.409230,CO,10,16,14
India,Andhra_Pradesh,Tirupati,"Vaikuntapuram, Tirupati - APPCB",11-04-2024 17:00:00,13.615387,79.409230,OZONE,1,17,8
India,Andhra_Pradesh,Vijayawada,"HB Colony, Vijayawada - APPCB",11-04-2024 17:00:00,16.536107,80.594233,OZONE,8,59,31
India,Andhra_Pradesh,Vijayawada,"Kanuru, Vijayawada - APPCB",11-04-2024 17:00:00,16.486692,80.699436,NH3,NA,NA,NA
India,Andhra_Pradesh,Vijayawada,"Kanuru, Vijayawada - APPCB",11-04-2024 17:00:00,16.486692,80.699436,CO,NA,NA,NA
India,Andhra_Pradesh,Vijayawada,"Rajiv Gandhi Park, Vijayawada - APPCB",11-04-2024 17:00:00,16.509717,80.612222,PM2.5,45,73,58
India,Andhra_Pradesh,Vijayawada,"Rajiv Gandhi Park, Vijayawada - APPCB",11-04-2024 17:00:00,16.509717,80.612222,SO2,5,10,8
India,Andhra_Pradesh,Vijayawada,"Rajiv Gandhi Park, Vijayawada - APPCB",11-04-2024 17:00:00,16.509717,80.612222,CO,38,43,43
India,Andhra_Pradesh,Vijayawada,"Rajiv Nagar, Vijayawada - APPCB",11-04-2024 17:00:00,16.554731,80.649110,SO2,9,27,17
India,Assam,Guwahati,"LGBI Airport, Guwahati - PCBA",11-04-2024 17:00:00,26.10887,91.589544,SO2,1,20,10
India,Assam,Guwahati,"LGBI Airport, Guwahati - PCBA",11-04-2024 17:00:00,26.10887,91.589544,CO,42,62,48
India,Assam,Guwahati,"Pan Bazaar, Guwahati - PCBA",11-04-2024 17:00:00,26.187500,91.744194,SO2,39,67,50
India,Assam,Guwahati,"Pan Bazaar, Guwahati - PCBA",11-04-2024 17:00:00,26.187500,91.744194,OZONE,17,18,17
India,Assam,Guwahati,"Railway Colony, Guwahati - PCBA",11-04-2024 17:00:00,26.181742,91.78063,PM10,79,196,127
India,Assam,Nagaon,"Christianpatty, Nagaon - PCBA",11-04-2024 17:00:00,26.349082,92.68449,SO2,3,16,7
India,Assam,Nagaon,"Christianpatty, Nagaon - PCBA",11-04-2024 17:00:00,26.349082,92.68449,OZONE,29,120,103
India,Assam,Nalbari,"Bata Chowk, Nalbari - PCBA",11-04-2024 17:00:00,26.446912,91.439057,PM2.5,65,257,99
India,Assam,Nalbari,"Bata Chowk, Nalbari - PCBA",11-04-2024 17:00:00,26.446912,91.439057,NH3,1,1,1
India,Assam,Nalbari,"Bata Chowk, Nalbari - PCBA",11-04-2024 17:00:00,26.446912,91.439057,OZONE,45,150,123
India,Assam,Silchar,"Tarapur, Silchar - PCBA",11-04-2024 17:00:00,24.82827,92.79525,NO2,13,13,13
India,Bihar,Araria,"Kharahiya Basti, Araria - BSPCB",11-04-2024 17:00:00,26.146529,87.454184,PM10,42,192,99
India,Bihar,Araria,"Kharahiya Basti, Araria - BSPCB",11-04-2024 17:00:00,26.146529,87.454184,NH3,6,8,7
India,Bihar,Arrah,"New DM Office, Arrah - BSPCB",11-04-2024 17:00:00,25.5626095,84.663264,NO2,6,43,20
India,Bihar,Aurangabad,"Gurdeo Nagar, Aurangabad - BSPCB",11-04-2024 17:00:00,24.75746,84.366208,NO2,5,5,5
India,Bihar,Aurangabad,"Gurdeo Nagar, Aurangabad - BSPCB",11-04-2024 17:00:00,24.75746,84.366208,CO,38,78,68
India,Bihar,Aurangabad,"Gurdeo Nagar, Aurangabad - BSPCB",11-04-2024 17:00:00,24.75746,84.366208,OZONE,11,88,62
India,Bihar,Bhagalpur,"Mayaganj, Bhagalpur - BSPCB",11-04-2024 17:00:00,25.265194,87.012947,NH3,6,8,7
India,Bihar,Bhagalpur,"Mayaganj, Bhagalpur - BSPCB",11-04-2024 17:00:00,25.265194,87.012947,CO,8,10,9
India,Bihar,Bihar Sharif,"D M Colony, Bihar Sharif - BSPCB",11-04-2024 17:00:00,25.204762,85.514960,SO2,4,12,10
India,Bihar,Buxar,"Charitra Van, Buxar - BSPCB (Formerly known as Central Jail)",11-04-2024 17:00:00,25.567520,83.966379,SO2,18,20,19
India,Bihar,Buxar,"Charitra Van, Buxar - BSPCB (Formerly known as Central Jail)",11-04-2024 17:00:00,25.567520,83.966379,OZONE,7,198,163
India,Bihar,Chhapra,"Darshan Nagar, Chhapra - BSPCB",11-04-2024 17:00:00,25.7808257,84.7446768,PM2.5,90,394,262
India,Bihar,Chhapra,"Darshan Nagar, Chhapra - BSPCB",11-04-2024 17:00:00,25.7808257,84.7446768,NO2,21,34,28
India,Bihar,Gaya,"Collectorate, Gaya - BSPCB",11-04-2024 17:00:00,24.7955,84.9994,CO,4,136,95
India,Bihar,Gaya,"Collectorate, Gaya - BSPCB",11-04-2024 17:00:00,24.7955,84.9994,OZONE,45,77,59
India,Bihar,Gaya,"Kareemganj, Gaya - BSPCB",11-04-2024 17:00:00,24.792403,84.992416,OZONE,3,26,16
India,Bihar,Gaya,"SFTI Kusdihra, Gaya - BSPCB",11-04-2024 17:00:00,24.762518,84.982348,PM2.5,40,121,78
India,Bihar,Hajipur,"Industrial Area, Hajipur - BSPCB",11-04-2024 17:00:00,25.697189,85.245900,SO2,5,7,6
India,Bihar,Hajipur,"Industrial Area, Hajipur - BSPCB",11-04-2024 17:00:00,25.697189,85.245900,CO,20,86,48
India,Bihar,Hajipur,"Industrial Area, Hajipur - BSPCB",11-04-2024 17:00:00,25.697189,85.245900,OZONE,1,78,69
India,Bihar,Katihar,"Mirchaibari, Katihar - BSPCB",11-04-2024 17:00:00,25.560083,87.553265,NO2,29,42,34
India,Bihar,Kishanganj,"SDM Office_Khagra, Kishanganj - BSPCB",11-04-2024 17:00:00,26.0881305,87.93840336,NH3,9,12,10
India,Bihar,Manguraha,"Forest Rest House, Manguraha - BSPCB",11-04-2024 17:00:00,27.308328,84.531742,NH3,NA,NA,NA
India,Bihar,Motihari,"Gandak Colony, Motihari - BSPCB",11-04-2024 17:00:00,26.63086,84.90051,PM10,NA,NA,NA
India,Bihar,Munger,"Town Hall, Munger - BSPCB",11-04-2024 17:00:00,25.376776,86.471523,PM2.5,100,383,194
India,Bihar,Munger,"Town Hall, Munger - BSPCB",11-04-2024 17:00:00,25.376776,86.471523,NO2,7,10,8
India,Bihar,Munger,"Town Hall, Munger - BSPCB",11-04-2024 17:00:00,25.376776,86.471523,SO2,17,43,28
India,Bihar,Munger,"Town Hall, Munger - BSPCB",11-04-2024 17:00:00,25.376776,86.471523,CO,2,59,21
India,Bihar,Munger,"Town Hall, Munger - BSPCB",11-04-2024 17:00:00,25.376776,86.471523,OZONE,27,53,28
India,Bihar,Muzaffarpur,"Buddha Colony, Muzaffarpur - BSPCB",11-04-2024 17:00:00,26.11442,85.39813,CO,26,110,36
India,Bihar,Muzaffarpur,"Buddha Colony, Muzaffarpur - BSPCB",11-04-2024 17:00:00,26.11442,85.39813,OZONE,14,33,19
India,Bihar,Muzaffarpur,"MIT-Daudpur Kothi, Muzaffarpur - BSPCB",11-04-2024 17:00:00,26.1403345,85.3650192,PM2.5,93,392,224
India,Bihar,Muzaffarpur,"MIT-Daudpur Kothi, Muzaffarpur - BSPCB",11-04-2024 17:00:00,26.1403345,85.3650192,NO2,5,9,7
India,Bihar,Muzaffarpur,"MIT-Daudpur Kothi, Muzaffarpur - BSPCB",11-04-2024 17:00:00,26.1403345,85.3650192,NH3,3,4,4
India,Bihar,Muzaffarpur,"Muzaffarpur Collectorate, Muzaffarpur - BSPCB",11-04-2024 17:00:00,26.1209,85.3647,PM2.5,110,430,226
India,Bihar,Muzaffarpur,"Muzaffarpur Collectorate, Muzaffarpur - BSPCB",11-04-2024 17:00:00,26.1209,85.3647,OZONE,42,135,90
India,Bihar,Patna,"DRM Office Danapur, Patna - BSPCB",11-04-2024 17:00:00,25.586562,85.043586,PM2.5,90,292,193
India,Bihar,Patna,"DRM Office Danapur, Patna - BSPCB",11-04-2024 17:00:00,25.586562,85.043586,NO2,5,109,58
India,Bihar,Patna,"DRM Office Danapur, Patna - BSPCB",11-04-2024 17:00:00,25.586562,85.043586,NH3,3,3,3
India,Bihar,Patna,"IGSC Planetarium Complex, Patna - BSPCB",11-04-2024 17:00:00,25.610369,85.132568,CO,13,14,13
India,Bihar,Patna,"Samanpura, Patna - BSPCB",11-04-2024 17:00:00,25.596727,85.085624,NH3,10,46,25
India,Bihar,Patna,"Samanpura, Patna - BSPCB",11-04-2024 17:00:00,25.596727,85.085624,SO2,6,17,11
India,Bihar,Rajgir,"Dangi Tola, Rajgir - BSPCB",11-04-2024 17:00:00,25.03280,85.41948,CO,24,62,33
India,Bihar,Saharsa,"Police Line, Saharsa - BSPCB",11-04-2024 17:00:00,25.892357,86.590325,PM2.5,52,240,125
India,Bihar,Samastipur,"DM Office_Kasipur, Samastipur - BSPCB",11-04-2024 17:00:00,25.859655,85.77944,PM2.5,68,344,186
India,Bihar,Samastipur,"DM Office_Kasipur, Samastipur - BSPCB",11-04-2024 17:00:00,25.859655,85.77944,PM10,76,259,145
India,Bihar,Sasaram,"Dada Peer, Sasaram - BSPCB",11-04-2024 17:00:00,24.952822,84.002396,SO2,22,23,23
India,Bihar,Siwan,"Chitragupta Nagar, Siwan - BSPCB",11-04-2024 17:00:00,26.2271665,84.3570427,PM2.5,22,301,114
India,Chandigarh,Chandigarh,"Sector 22, Chandigarh - CPCC",11-04-2024 17:00:00,30.735567,76.775714,PM10,26,126,73
India,Chandigarh,Chandigarh,"Sector-53, Chandigarh - CPCC",11-04-2024 17:00:00,30.719859,76.738637,NO2,12,99,46
India,Chandigarh,Chandigarh,"Sector-53, Chandigarh - CPCC",11-04-2024 17:00:00,30.719859,76.738637,OZONE,13,72,58
India,Chhattisgarh,Bhilai,"32Bungalows, Bhilai - CECB",11-04-2024 17:00:00,21.194815,81.314770,SO2,4,6,5
India,Chhattisgarh,Bhilai,"32Bungalows, Bhilai - CECB",11-04-2024 17:00:00,21.194815,81.314770,OZONE,4,27,6
India,Chhattisgarh,Bhilai,"Hathkhoj, Bhilai - CECB",11-04-2024 17:00:00,21.224231,81.408350,PM10,24,108,46
India,Chhattisgarh,Bhilai,"Hathkhoj, Bhilai - CECB",11-04-2024 17:00:00,21.224231,81.408350,OZONE,9,18,13
India,Chhattisgarh,Bilaspur,"Mangala, Bilaspur - NTPC",11-04-2024 17:00:00,22.08815,82.13737,PM2.5,12,71,30
India,Chhattisgarh,Chhal,"Nawapara SECL Colony, Chhal - CECB",11-04-2024 17:00:00,22.118125,83.140608,SO2,NA,NA,NA
India,Chhattisgarh,Korba,"Rampur, Korba - CECB",11-04-2024 17:00:00,22.368195,82.746431,NO2,17,48,38
India,Chhattisgarh,Korba,"Urja Nagar, Korba - CECB",11-04-2024 17:00:00,22.348441,82.549611,SO2,2,55,7
India,Chhattisgarh,Kunjemura,"OP Jindal School, Kunjemura - CECB",11-04-2024 17:00:00,22.126650,83.483212,PM10,NA,NA,NA
India,Chhattisgarh,Milupara,"Govt. Higher Secondary School, Milupara - CECB",11-04-2024 17:00:00,22.1910172,83.5197009,SO2,8,84,33
India,Chhattisgarh,Milupara,"Govt. Higher Secondary School, Milupara - CECB",11-04-2024 17:00:00,22.1910172,83.5197009,CO,14,48,22
India,Chhattisgarh,Raipur,"AIIMS, Raipur - CECB",11-04-2024 17:00:00,21.258815,81.578979,PM10,7,95,30
India,Chhattisgarh,Raipur,"AIIMS, Raipur - CECB",11-04-2024 17:00:00,21.258815,81.578979,NO2,29,39,32
India,Chhattisgarh,Raipur,"Siltara Phase-II, Raipur - CECB",11-04-2024 17:00:00,21.371751,81.664929,PM2.5,NA,NA,NA
India,Delhi,Delhi,"Alipur, Delhi - DPCC",11-04-2024 17:00:00,28.815329,77.153010,PM10,98,252,177
India,Delhi,Delhi,"Alipur, Delhi - DPCC",11-04-2024 17:00:00,28.815329,77.153010,NO2,12,60,35
India,Delhi,Delhi,"Anand Vihar, Delhi - DPCC",11-04-2024 17:00:00,28.647622,77.3158090,NO2,59,190,109
India,Delhi,Delhi,"Aya Nagar, Delhi - IMD",11-04-2024 17:00:00,28.4706914,77.1099364,PM10,117,283,182
India,Delhi,Delhi,"Bawana, Delhi - DPCC",11-04-2024 17:00:00,28.776200,77.051074,NH3,5,9,7
India,Delhi,Delhi,"Burari Crossing, Delhi - IMD",11-04-2024 17:00:00,28.7256504,77.2011573,CO,40,73,62
India,Delhi,Delhi,"DTU, Delhi - CPCB",11-04-2024 17:00:00,28.7500499,77.1112615,NH3,14,60,33
India,Delhi,Delhi,"Dr. Karni Singh Shooting Range, Delhi - DPCC",11-04-2024 17:00:00,28.498571,77.264840,NO2,18,125,64
India,Delhi,Delhi,"Dwarka-Sector 8, Delhi - DPCC ",11-04-2024 17:00:00,28.5710274,77.0719006,PM10,125,369,215
India,Delhi,Delhi,"Dwarka-Sector 8, Delhi - DPCC ",11-04-2024 17:00:00,28.5710274,77.0719006,NO2,22,128,74
India,Delhi,Delhi,"Dwarka-Sector 8, Delhi - DPCC ",11-04-2024 17:00:00,28.5710274,77.0719006,CO,46,106,65
India,Delhi,Delhi,"Lodhi Road, Delhi - IITM",11-04-2024 17:00:00,28.588333,77.221667,OZONE,15,19,16
India,Delhi,Delhi,"Lodhi Road, Delhi - IMD",11-04-2024 17:00:00,28.5918245,77.2273074,PM2.5,68,311,114
India,Delhi,Delhi,"Mandir Marg, Delhi - DPCC",11-04-2024 17:00:00,28.636429,77.201067,CO,4,52,23
India,Delhi,Delhi,"Mundka, Delhi - DPCC",11-04-2024 17:00:00,28.684678,77.076574,PM10,107,455,291
India,Delhi,Delhi,"NSIT Dwarka, Delhi - CPCB",11-04-2024 17:00:00,28.60909,77.0325413,PM2.5,156,383,269
India,Delhi,Delhi,"NSIT Dwarka, Delhi - CPCB",11-04-2024 17:00:00,28.60909,77.0325413,CO,22,68,38
India,Delhi,Delhi,"Najafgarh, Delhi - DPCC",11-04-2024 17:00:00,28.570173,76.933762,PM10,90,361,188
India,Delhi,Delhi,"Najafgarh, Delhi - DPCC",11-04-2024 17:00:00,28.570173,76.933762,OZONE,4,246,192
India,Delhi,Delhi,"Narela, Delhi - DPCC",11-04-2024 17:00:00,28.822836,77.101981,NH3,6,12,8
India,Delhi,Delhi,"Narela, Delhi - DPCC",11-04-2024 17:00:00,28.822836,77.101981,OZONE,5,199,167
India,Delhi,Delhi,"Nehru Nagar, Delhi - DPCC",11-04-2024 17:00:00,28.567890,77.250515,NO2,8,22,12
India,Delhi,Delhi,"Nehru Nagar, Delhi - DPCC",11-04-2024 17:00:00,28.567890,77.250515,OZONE,1,184,179
India,Delhi,Delhi,"New Moti Bagh, Delhi - MHUA",11-04-2024 17:00:00,28.57834,77.18400,CO,24,110,54
India,Delhi,Delhi,"North Campus, DU, Delhi - IMD",11-04-2024 17:00:00,28.6573814,77.1585447,OZONE,2,50,11
India,Delhi,Delhi,"Okhla Phase-2, Delhi - DPCC",11-04-2024 17:00:00,28.530785,77.271255,PM10,117,424,268
India,Delhi,Delhi,"Patparganj, Delhi - DPCC",11-04-2024 17:00:00,28.623763,77.287209,NO2,30,99,63
India,Delhi,Delhi,"Patparganj, Delhi - DPCC",11-04-2024 17:00:00,28.623763,77.287209,CO,6,74,36
India,Delhi,Delhi,"Patparganj, Delhi - DPCC",11-04-2024 17:00:00,28.623763,77.287209,OZONE,5,198,151
India,Delhi,Delhi,"Punjabi Bagh, Delhi - DPCC",11-04-2024 17:00:00,28.674045,77.131023,OZONE,2,55,30
India,Delhi,Delhi,"Pusa, Delhi - DPCC",11-04-2024 17:00:00,28.639652,77.146275,PM10,NA,NA,NA
India,Delhi,Delhi,"Pusa, Delhi - DPCC",11-04-2024 17:00:00,28.639652,77.146275,SO2,NA,NA,NA
India,Delhi,Delhi,"Pusa, Delhi - IMD",11-04-2024 17:00:00,28.636110,77.173332,PM2.5,NA,NA,NA
India,Delhi,Delhi,"Pusa, Delhi - IMD",11-04-2024 17:00:00,28.636110,77.173332,PM10,NA,NA,NA
India,Delhi,Delhi,"R K Puram, Delhi - DPCC",11-04-2024 17:00:00,28.563262,77.186937,PM2.5,65,327,171
India,Delhi,Delhi,"Rohini, Delhi - DPCC",11-04-2024 17:00:00,28.732528,77.119920,PM2.5,51,377,218
India,Delhi,Delhi,"Shadipur, Delhi - CPCB",11-04-2024 17:00:00,28.6514781,77.1473105,NH3,6,7,6
India,Delhi,Delhi,"Shadipur, Delhi - CPCB",11-04-2024 17:00:00,28.6514781,77.1473105,SO2,3,36,21
India,Delhi,Delhi,"Sonia Vihar, Delhi - DPCC",11-04-2024 17:00:00,28.710508,77.249485,CO,45,114,65
India,Delhi,Delhi,"Sri Aurobindo Marg, Delhi - DPCC",11-04-2024 17:00:00,28.531346,77.190156,NO2,22,135,74
India,Delhi,Delhi,"Sri Aurobindo Marg, Delhi - DPCC",11-04-2024 17:00:00,28.531346,77.190156,OZONE,9,96,56
India,Delhi,Delhi,"Vivek Vihar, Delhi - DPCC",11-04-2024 17:00:00,28.672342,77.315260,CO,14,106,26
India,Delhi,Delhi,"Wazirpur, Delhi - DPCC",11-04-2024 17:00:00,28.699793,77.165453,NH3,8,11,9
India,Gujarat,Ahmedabad,"Chandkheda, Ahmedabad - IITM",11-04-2024 17:00:00,23.107969,72.574648,NO2,31,35,34
India,Gujarat,Ahmedabad,"Rakhial, Ahmedabad - IITM",11-04-2024 17:00:00,23.016834,72.625775,NO2,6,58,16
India,Gujarat,Ahmedabad,"SAC ISRO Satellite, Ahmedabad - IITM",11-04-2024 17:00:00,23.023389,72.515201,OZONE,11,28,24
India,Gujarat,Ahmedabad,"SVPI Airport Hansol, Ahmedabad - IITM",11-04-2024 17:00:00,23.076793,72.627874,PM10,96,252,135
India,Gujarat,Ahmedabad,"SVPI Airport Hansol, Ahmedabad - IITM",11-04-2024 17:00:00,23.076793,72.627874,SO2,1,106,11
India,Gujarat,Ahmedabad,"Sardar Vallabhbhai Patel Stadium, Ahmedabad - IITM",11-04-2024 17:00:00,23.043070,72.562968,PM10,97,170,126
India,Gujarat,Ahmedabad,"Sardar Vallabhbhai Patel Stadium, Ahmedabad - IITM",11-04-2024 17:00:00,23.043070,72.562968,SO2,5,33,11
India,Gujarat,Ahmedabad,"Sardar Vallabhbhai Patel Stadium, Ahmedabad - IITM",11-04-2024 17:00:00,23.043070,72.562968,CO,28,72,44
India,Gujarat,Ankleshwar,"GIDC, Ankleshwar - GPCB",11-04-2024 17:00:00,21.613267,73.010555,SO2,NA,NA,NA
India,Gujarat,Gandhinagar,"Sector-10, Gandhinagar - GPCB",11-04-2024 17:00:00,23.221714,72.654328,NH3,1,1,1
India,Gujarat,Gandhinagar,"Sector-10, Gandhinagar - GPCB",11-04-2024 17:00:00,23.221714,72.654328,SO2,5,8,6
India,Gujarat,Surat,"Science Center, Surat - SMC",11-04-2024 17:00:00,21.170046,72.795405,PM2.5,4,27,13
India,Gujarat,Surat,"Science Center, Surat - SMC",11-04-2024 17:00:00,21.170046,72.795405,NO2,26,45,33
India,Gujarat,Surat,"Science Center, Surat - SMC",11-04-2024 17:00:00,21.170046,72.795405,CO,24,44,37
India,Gujarat,Vapi,"Phase-1 GIDC, Vapi - GPCB",11-04-2024 17:00:00,20.362421,72.918013,NO2,6,7,6
India,Haryana,Bahadurgarh,"Arya Nagar, Bahadurgarh - HSPCB",11-04-2024 17:00:00,28.6701,76.9254,PM2.5,23,190,109
India,Haryana,Bhiwani,"H.B. Colony, Bhiwani - HSPCB",11-04-2024 17:00:00,28.806223,76.141105,CO,24,62,43
India,Haryana,Charkhi Dadri,"Mini Secretariat, Charkhi Dadri - HSPCB",11-04-2024 17:00:00,28.593883,76.270653,NO2,15,21,18
India,Haryana,Dharuhera,"Municipal Corporation Office, Dharuhera -  HSPCB",11-04-2024 17:00:00,28.206800,76.799700,PM10,NA,NA,NA
India,Haryana,Faridabad,"New Industrial Town, Faridabad - HSPCB",11-04-2024 17:00:00,28.39072,77.30059,PM2.5,90,456,301
India,Haryana,Faridabad,"New Industrial Town, Faridabad - HSPCB",11-04-2024 17:00:00,28.39072,77.30059,PM10,92,453,251
India,Haryana,Faridabad,"New Industrial Town, Faridabad - HSPCB",11-04-2024 17:00:00,28.39072,77.30059,NO2,6,23,13
India,Haryana,Faridabad,"New Industrial Town, Faridabad - HSPCB",11-04-2024 17:00:00,28.39072,77.30059,CO,14,69,23
India,Haryana,Faridabad,"Sector 11, Faridabad - HSPCB",11-04-2024 17:00:00,28.376058,77.315741,CO,24,48,35
India,Haryana,Faridabad,"Sector 30, Faridabad - HSPCB",11-04-2024 17:00:00,28.4417,77.3217,NO2,30,33,31
India,Haryana,Faridabad,"Sector 30, Faridabad - HSPCB",11-04-2024 17:00:00,28.4417,77.3217,SO2,12,13,12
India,Haryana,Faridabad,"Sector 30, Faridabad - HSPCB",11-04-2024 17:00:00,28.4417,77.3217,OZONE,10,10,10
India,Haryana,Faridabad,"Sector- 16A, Faridabad - HSPCB",11-04-2024 17:00:00,28.4088421,77.3099081,PM2.5,45,374,163
India,Haryana,Faridabad,"Sector- 16A, Faridabad - HSPCB",11-04-2024 17:00:00,28.4088421,77.3099081,CO,2,68,11
India,Haryana,Fatehabad,"Huda Sector, Fatehabad - HSPCB",11-04-2024 17:00:00,29.503664,75.467934,NH3,12,14,13
India,Haryana,Fatehabad,"Huda Sector, Fatehabad - HSPCB",11-04-2024 17:00:00,29.503664,75.467934,OZONE,64,93,78
India,Haryana,Gurugram,"Vikas Sadan, Gurugram - HSPCB",11-04-2024 17:00:00,28.4501238,77.0263051,OZONE,8,68,48
India,Haryana,Kaithal,"Rishi Nagar, Kaithal - HSPCB",11-04-2024 17:00:00,29.8006,76.4155,PM2.5,37,70,54
India,Haryana,Kaithal,"Rishi Nagar, Kaithal - HSPCB",11-04-2024 17:00:00,29.8006,76.4155,NH3,8,8,8
India,Haryana,Karnal,"Sector-12, Karnal - HSPCB",11-04-2024 17:00:00,29.695300,77.002700,NH3,10,13,11
India,Haryana,Kurukshetra,"Sector-7, Kurukshetra - HSPCB",11-04-2024 17:00:00,29.966942,76.875879,NH3,5,5,5
India,Haryana,Kurukshetra,"Sector-7, Kurukshetra - HSPCB",11-04-2024 17:00:00,29.966942,76.875879,SO2,4,77,24
India,Haryana,Mandikhera,"General Hospital, Mandikhera - HSPCB",11-04-2024 17:00:00,27.9002,76.9938,PM10,94,233,146
India,Haryana,Manesar,"Sector-2 IMT, Manesar - HSPCB",11-04-2024 17:00:00,28.360699,76.936090,PM10,105,128,113
India,Haryana,Manesar,"Sector-2 IMT, Manesar - HSPCB",11-04-2024 17:00:00,28.360699,76.936090,NH3,3,5,4
India,Haryana,Narnaul,"Shastri Nagar, Narnaul - HSPCB",11-04-2024 17:00:00,28.060249,76.113115,NH3,4,24,11
India,Haryana,Narnaul,"Shastri Nagar, Narnaul - HSPCB",11-04-2024 17:00:00,28.060249,76.113115,SO2,13,25,14
India,Haryana,Panchkula,"Sector-6, Panchkula - HSPCB ",11-04-2024 17:00:00,30.7057778,76.8531805555555,PM2.5,29,202,85
India,Haryana,Panipat,"Sector-18, Panipat - HSPCB",11-04-2024 17:00:00,29.497973,76.993331,CO,24,26,25
India,Haryana,Panipat,"Sector-18, Panipat - HSPCB",11-04-2024 17:00:00,29.497973,76.993331,OZONE,30,30,30
India,Haryana,Sirsa,"F-Block, Sirsa - HSPCB",11-04-2024 17:00:00,29.536400,75.015800,PM2.5,22,80,56
India,Haryana,Sirsa,"F-Block, Sirsa - HSPCB",11-04-2024 17:00:00,29.536400,75.015800,PM10,71,142,105
India,Haryana,Sirsa,"F-Block, Sirsa - HSPCB",11-04-2024 17:00:00,29.536400,75.015800,CO,42,68,60
India,Haryana,Sirsa,"F-Block, Sirsa - HSPCB",11-04-2024 17:00:00,29.536400,75.015800,OZONE,20,43,32
India,Haryana,Sonipat,"Murthal, Sonipat - HSPCB",11-04-2024 17:00:00,29.027200,77.062100,PM10,113,114,113
India,Haryana,Sonipat,"Murthal, Sonipat - HSPCB",11-04-2024 17:00:00,29.027200,77.062100,CO,16,48,30
India,Haryana,Yamuna Nagar,"Gobind Pura, Yamuna Nagar - HSPCB",11-04-2024 17:00:00,30.1480566,77.2893471,NH3,1,6,4
India,Himachal Pradesh,Baddi,"HIMUDA Complex Phase-1, Baddi - HPPCB",11-04-2024 17:00:00,30.943887,76.801991,PM10,21,173,80
India,Himachal Pradesh,Baddi,"HIMUDA Complex Phase-1, Baddi - HPPCB",11-04-2024 17:00:00,30.943887,76.801991,NO2,4,39,14
India,Jharkhand,Dhanbad,"Sardar Patel Nagar, Dhanbad - JSPCB",11-04-2024 17:00:00,23.80569,86.44268,NO2,1,59,27
India,Jharkhand,Pathardih,"Mohalbani Ghat, Pathardih - DMC",11-04-2024 17:00:00,23.669880,86.411725,PM2.5,11,321,152
India,Jharkhand,Pathardih,"Mohalbani Ghat, Pathardih - DMC",11-04-2024 17:00:00,23.669880,86.411725,SO2,10,130,54
India,Karnataka,Bagalkot,"Vidayagiri, Bagalkot - KSPCB",11-04-2024 17:00:00,16.172806,75.659694,PM10,49,50,50
India,Karnataka,Belgaum,"Ramteerth Nagar, Belgaum - KSPCB",11-04-2024 17:00:00,15.888653,74.541751,NH3,NA,NA,NA
India,Karnataka,Belgaum,"Ramteerth Nagar, Belgaum - KSPCB",11-04-2024 17:00:00,15.888653,74.541751,SO2,NA,NA,NA
India,Karnataka,Belgaum,"Ramteerth Nagar, Belgaum - KSPCB",11-04-2024 17:00:00,15.888653,74.541751,OZONE,19,20,20
India,Karnataka,Bengaluru,"BTM Layout, Bengaluru - CPCB",11-04-2024 17:00:00,12.9135218,77.5950804,NO2,28,35,33
India,Karnataka,Bengaluru,"BTM Layout, Bengaluru - CPCB",11-04-2024 17:00:00,12.9135218,77.5950804,SO2,8,10,10
India,Karnataka,Bengaluru,"BTM Layout, Bengaluru - CPCB",11-04-2024 17:00:00,12.9135218,77.5950804,CO,32,37,36
India,Karnataka,Bengaluru,"Bapuji Nagar, Bengaluru - KSPCB",11-04-2024 17:00:00,12.951913,77.539784,NO2,10,11,11
India,Karnataka,Bengaluru,"Bapuji Nagar, Bengaluru - KSPCB",11-04-2024 17:00:00,12.951913,77.539784,NH3,1,1,1
India,Karnataka,Bengaluru,"Bapuji Nagar, Bengaluru - KSPCB",11-04-2024 17:00:00,12.951913,77.539784,SO2,5,9,7
India,Karnataka,Bengaluru,"Hombegowda Nagar, Bengaluru - KSPCB",11-04-2024 17:00:00,12.938539,77.590100,CO,10,16,13
India,Karnataka,Bengaluru,"Kasturi Nagar, Bengaluru - KSPCB",11-04-2024 17:00:00,13.003872,77.664217,NO2,16,17,17
India,Karnataka,Bengaluru,"Kasturi Nagar, Bengaluru - KSPCB",11-04-2024 17:00:00,13.003872,77.664217,NH3,3,4,4
India,Karnataka,Bengaluru,"Kasturi Nagar, Bengaluru - KSPCB",11-04-2024 17:00:00,13.003872,77.664217,CO,21,28,23
India,Karnataka,Bengaluru,"RVCE-Mailasandra, Bengaluru - KSPCB",11-04-2024 17:00:00,12.921418,77.502466,PM2.5,NA,NA,NA
India,Karnataka,Bengaluru,"RVCE-Mailasandra, Bengaluru - KSPCB",11-04-2024 17:00:00,12.921418,77.502466,NO2,NA,NA,NA
India,Karnataka,Bengaluru,"RVCE-Mailasandra, Bengaluru - KSPCB",11-04-2024 17:00:00,12.921418,77.502466,CO,NA,NA,NA
India,Karnataka,Bengaluru,"Sanegurava Halli, Bengaluru - KSPCB",11-04-2024 17:00:00,12.990328,77.5431385,PM10,35,66,46
India,Karnataka,Bengaluru,"Sanegurava Halli, Bengaluru - KSPCB",11-04-2024 17:00:00,12.990328,77.5431385,SO2,2,3,3
India,Karnataka,Bengaluru,"Shivapura_Peenya, Bengaluru - KSPCB",11-04-2024 17:00:00,13.0246342,77.5080115,PM2.5,1,61,18
India,Karnataka,Chamarajanagar,"Urban, Chamarajanagar - KSPCB",11-04-2024 17:00:00,11.55358,76.55521,NO2,23,29,29
India,Karnataka,Chamarajanagar,"Urban, Chamarajanagar - KSPCB",11-04-2024 17:00:00,11.55358,76.55521,NH3,1,2,1
India,Karnataka,Chikkaballapur,"Chikkaballapur Rural, Chikkaballapur - KSPCB",11-04-2024 17:00:00,13.428828,77.731418,NO2,6,11,8
India,Karnataka,Chikkaballapur,"Chikkaballapur Rural, Chikkaballapur - KSPCB",11-04-2024 17:00:00,13.428828,77.731418,SO2,15,22,19
India,Karnataka,Davanagere,"Devaraj Urs Badavane, Davanagere - KSPCB",11-04-2024 17:00:00,14.475800,75.905200,PM2.5,43,75,56
India,Karnataka,Dharwad,"Kalabhavan, Dharwad - KSPCB",11-04-2024 17:00:00,15.459706,75.008381,PM2.5,15,208,70
India,Karnataka,Dharwad,"Kalabhavan, Dharwad - KSPCB",11-04-2024 17:00:00,15.459706,75.008381,NH3,2,3,3
India,Karnataka,Dharwad,"Kalabhavan, Dharwad - KSPCB",11-04-2024 17:00:00,15.459706,75.008381,OZONE,2,53,24
India,Karnataka,Gadag,"Panchal Nagar, Gadag - KSPCB",11-04-2024 17:00:00,15.411456,75.638133,NH3,1,3,2
India,Karnataka,Hassan,"B.Katihalli, Hassan - KSPCB",11-04-2024 17:00:00,13.008556,76.125258,PM2.5,NA,NA,NA
India,Karnataka,Haveri,"Ashwini Nagar, Haveri - KSPCB",11-04-2024 17:00:00,14.791800,75.389600,PM2.5,47,81,63
India,Karnataka,Haveri,"Ashwini Nagar, Haveri - KSPCB",11-04-2024 17:00:00,14.791800,75.389600,CO,36,38,37
India,Karnataka,Hubballi,"Deshpande Nagar, Hubballi - KSPCB",11-04-2024 17:00:00,15.351773,75.140726,CO,1,17,7
India,Karnataka,Hubballi,"Deshpande Nagar, Hubballi - KSPCB",11-04-2024 17:00:00,15.351773,75.140726,OZONE,1,7,3
India,Karnataka,Hubballi,"Lingaraj Nagar, Hubballi - KSPCB",11-04-2024 17:00:00,15.3714823,75.1160168,OZONE,14,44,32
India,Karnataka,Kalaburagi,"Lal Bahadur Shastri Nagar, Kalaburagi - KSPCB",11-04-2024 17:00:00,17.321993,76.822628,NH3,2,2,2
India,Karnataka,Kalaburagi,"Mahatma Basaveswar Colony, Kalaburgi - KSPCB",11-04-2024 17:00:00,17.336318,76.847397,OZONE,11,24,18
India,Karnataka,Karwar,"KHB Colony, Karwar - KSPCB",11-04-2024 17:00:00,14.816666,74.141003,PM10,44,148,64
India,Karnataka,Karwar,"KHB Colony, Karwar - KSPCB",11-04-2024 17:00:00,14.816666,74.141003,CO,8,8,8
India,Karnataka,Koppal,"Diwator Nagar, Koppal - KSPCB",11-04-2024 17:00:00,15.347630,76.181767,NO2,36,62,46
India,Karnataka,Koppal,"Diwator Nagar, Koppal - KSPCB",11-04-2024 17:00:00,15.347630,76.181767,SO2,28,28,28
India,Karnataka,Madikeri,"Stuart Hill, Madikeri - KSPCB",11-04-2024 17:00:00,12.415911,75.735050,PM2.5,28,68,43
India,Karnataka,Mangalore,"Kadri, Mangalore - KSPCB",11-04-2024 17:00:00,12.889250,74.853000,NO2,NA,NA,NA
India,Karnataka,Mysuru,"Hebbal 1st Stage, Mysuru - KSPCB",11-04-2024 17:00:00,12.21041,76.37376,NO2,8,28,20
India,Karnataka,Mysuru,"Hebbal 1st Stage, Mysuru - KSPCB",11-04-2024 17:00:00,12.21041,76.37376,NH3,1,2,2
India,Karnataka,Mysuru,"Hebbal 1st Stage, Mysuru - KSPCB",11-04-2024 17:00:00,12.21041,76.37376,SO2,1,2,1
India,Karnataka,Raichur,"Haji Colony, Raichur - KSPCB",11-04-2024 17:00:00,16.208139,77.348417,NH3,1,7,2
India,Karnataka,Ramanagara,"Vijay Nagar, Ramanagara - KSPCB",11-04-2024 17:00:00,12.733409,77.298051,PM2.5,NA,NA,NA
India,Karnataka,Shivamogga,"Vinoba Nagara, Shivamogga - KSPCB",11-04-2024 17:00:00,13.940000,75.555917,SO2,2,13,5
India,Karnataka,Tumakuru,"Thimmalapura, Tumakuru - KSPCB",11-04-2024 17:00:00,13.377516,77.099072,PM2.5,40,236,84
India,Karnataka,Vijayapura,"Ibrahimpur, Vijayapura - KSPCB",11-04-2024 17:00:00,16.802639,75.722694,PM2.5,26,31,30
India,Karnataka,Yadgir,"Collector Office, Yadgir - KSPCB",11-04-2024 17:00:00,16.7602,77.1428,PM2.5,NA,NA,NA
India,Karnataka,Yadgir,"Collector Office, Yadgir - KSPCB",11-04-2024 17:00:00,16.7602,77.1428,PM10,NA,NA,NA
India,Kerala,Eloor,"Udyogamandal, Eloor - Kerala PCB",11-04-2024 17:00:00,10.073232,76.302765,PM2.5,29,64,40
India,Kerala,Thiruvananthapuram,"Kariavattom, Thiruvananthapuram - Kerala PCB",11-04-2024 17:00:00,8.563700,76.886500,PM10,79,93,87
India,Kerala,Thiruvananthapuram,"Kariavattom, Thiruvananthapuram - Kerala PCB",11-04-2024 17:00:00,8.563700,76.886500,SO2,1,14,8
India,Kerala,Thiruvananthapuram,"Kariavattom, Thiruvananthapuram - Kerala PCB",11-04-2024 17:00:00,8.563700,76.886500,CO,12,36,23
India,Kerala,Thrissur,"Corporation Ground, Thrissur - Kerala PCB",11-04-2024 17:00:00,10.532400,76.215900,NO2,NA,NA,NA
India,Kerala,Thrissur,"Corporation Ground, Thrissur - Kerala PCB",11-04-2024 17:00:00,10.532400,76.215900,OZONE,NA,NA,NA
India,Madhya Pradesh,Bhopal,"Idgah Hills, Bhopal - MPPCB",11-04-2024 17:00:00,23.264759,77.381568,NH3,6,50,10
India,Madhya Pradesh,Bhopal,"Paryavaran Parisar, Bhopal - MPPCB",11-04-2024 17:00:00,23.210494,77.425409,SO2,7,12,9
India,Madhya Pradesh,Gwalior,"City Center, Gwalior - MPPCB",11-04-2024 17:00:00,26.203442,78.193251,PM2.5,18,86,45
India,Madhya Pradesh,Gwalior,"Maharaj Bada, Gwalior - MPPCB",11-04-2024 17:00:00,26.200388,78.147714,NH3,4,7,5
India,Madhya Pradesh,Indore,"Chhoti Gwaltoli, Indore - MPPCB",11-04-2024 17:00:00,22.4310,75.5213,PM2.5,27,103,62
India,Madhya Pradesh,Indore,"Chhoti Gwaltoli, Indore - MPPCB",11-04-2024 17:00:00,22.4310,75.5213,OZONE,46,109,95
India,Madhya Pradesh,Jabalpur,"Govindh Bhavan Colony, Jabalpur - JMC",11-04-2024 17:00:00,23.163174,79.973061,PM2.5,12,42,28
India,Madhya Pradesh,Jabalpur,"Govindh Bhavan Colony, Jabalpur - JMC",11-04-2024 17:00:00,23.163174,79.973061,CO,6,13,8
India,Madhya Pradesh,Jabalpur,"Govindh Bhavan Colony, Jabalpur - JMC",11-04-2024 17:00:00,23.163174,79.973061,OZONE,44,80,71
India,Madhya Pradesh,Jabalpur,"Marhatal, Jabalpur - MPPCB",11-04-2024 17:00:00,23.168606,79.932247,CO,48,88,55
India,Madhya Pradesh,Jabalpur,"Marhatal, Jabalpur - MPPCB",11-04-2024 17:00:00,23.168606,79.932247,OZONE,71,91,83
India,Madhya Pradesh,Jabalpur,"Suhagi, Jabalpur - JMC",11-04-2024 17:00:00,23.218135,79.957770,NH3,4,4,4
India,Madhya Pradesh,Katni,"Gole Bazar, Katni - MPPCB",11-04-2024 17:00:00,23.50016,80.23284,PM10,42,185,76
India,Madhya Pradesh,Katni,"Gole Bazar, Katni - MPPCB",11-04-2024 17:00:00,23.50016,80.23284,NH3,2,8,6
India,Madhya Pradesh,Maihar,"Sahilara, Maihar - KJS Cements",11-04-2024 17:00:00,24.2613009,80.7231783,PM10,2,68,36
India,Madhya Pradesh,Mandideep,"Sector-D Industrial Area, Mandideep - MPPCB",11-04-2024 17:00:00,23.108440,77.511428,PM2.5,NA,NA,NA
India,Madhya Pradesh,Pithampur,"Sector-2 Industrial Area, Pithampur - MPPCB",11-04-2024 17:00:00,22.624758,75.675238,SO2,8,14,12
India,Madhya Pradesh,Pithampur,"Sector-2 Industrial Area, Pithampur - MPPCB",11-04-2024 17:00:00,22.624758,75.675238,CO,14,46,33
India,Madhya Pradesh,Sagar,"Civil Lines, Sagar - MPPCB",11-04-2024 17:00:00,23.838586,78.759431,CO,10,14,12
India,Madhya Pradesh,Singrauli,"Suryakiran Bhawan NCL, Singrauli - MPPCB",11-04-2024 17:00:00,24.108970,82.645580,NH3,NA,NA,NA
India,Madhya Pradesh,Singrauli,"Suryakiran Bhawan NCL, Singrauli - MPPCB",11-04-2024 17:00:00,24.108970,82.645580,OZONE,NA,NA,NA
India,Madhya Pradesh,Ujjain,"Mahakaleshwar Temple, Ujjain - MPPCB",11-04-2024 17:00:00,23.182719 ,75.768218 ,OZONE,54,102,83
India,Maharashtra,Ahmednagar,"Tarakpur, Ahmednagar - MPCB",11-04-2024 17:00:00,19.10122,74.73339,NH3,3,6,4
India,Maharashtra,Akola,"Ramdaspeth, Akola - MPCB",11-04-2024 17:00:00,20.719516,77.000253,CO,14,110,18
India,Maharashtra,Amravati,"Shivneri Colony, Amravati - MPCB",11-04-2024 17:00:00,20.9402359,77.7895248,PM2.5,27,79,48
India,Maharashtra,Amravati,"Shivneri Colony, Amravati - MPCB",11-04-2024 17:00:00,20.9402359,77.7895248,PM10,29,112,53
India,Maharashtra,Amravati,"Shri Shivaji Science College, Amaravati - MPCB",11-04-2024 17:00:00,20.939198,77.765701,PM2.5,18,88,53
India,Maharashtra,Amravati,"Shri Shivaji Science College, Amaravati - MPCB",11-04-2024 17:00:00,20.939198,77.765701,PM10,16,102,59
India,Maharashtra,Aurangabad,"MIDC Chilkalthana, Aurangabad - MPCB",11-04-2024 17:00:00,19.875620,75.387310,SO2,4,26,9
India,Maharashtra,Aurangabad,"MIDC Chilkalthana, Aurangabad - MPCB",11-04-2024 17:00:00,19.875620,75.387310,OZONE,2,59,46
India,Maharashtra,Aurangabad,"More Chowk Waluj, Aurangabad - MPCB",11-04-2024 17:00:00,19.8389439,75.244448,NO2,40,48,43
India,Maharashtra,Badlapur,"Katrap, Badlapur - MPCB",11-04-2024 17:00:00,19.16485,73.23409,PM2.5,45,300,144
India,Maharashtra,Badlapur,"Katrap, Badlapur - MPCB",11-04-2024 17:00:00,19.16485,73.23409,PM10,29,150,97
India,Maharashtra,Badlapur,"Katrap, Badlapur - MPCB",11-04-2024 17:00:00,19.16485,73.23409,SO2,2,11,7
India,Maharashtra,Badlapur,"Katrap, Badlapur - MPCB",11-04-2024 17:00:00,19.16485,73.23409,CO,10,59,23
India,Maharashtra,Belapur,"CBD Belapur, Belapur - MPCB",11-04-2024 17:00:00,19.0243902,73.0406721,PM2.5,30,81,46
India,Maharashtra,Belapur,"CBD Belapur, Belapur - MPCB",11-04-2024 17:00:00,19.0243902,73.0406721,SO2,2,24,6
India,Maharashtra,Belapur,"CBD Belapur, Belapur - MPCB",11-04-2024 17:00:00,19.0243902,73.0406721,CO,21,42,33
India,Maharashtra,Belapur,"CBD Belapur, Belapur - MPCB",11-04-2024 17:00:00,19.0243902,73.0406721,OZONE,18,291,135
India,Maharashtra,Bhiwandi,"Gokul Nagar, Bhiwandi - MPCB",11-04-2024 17:00:00,19.309073,73.057223,NO2,11,49,23
India,Maharashtra,Boisar,"Khaira, Boisar - MPCB",11-04-2024 17:00:00,19.786089,72.757971,PM2.5,5,91,43
India,Maharashtra,Chandrapur,"MIDC Khutala, Chandrapur - MPCB",11-04-2024 17:00:00,19.9775302,79.2337086,SO2,20,23,21
India,Maharashtra,Dhule,"Deopur, Dhule - MPCB",11-04-2024 17:00:00,20.918946,74.776388,SO2,12,32,21
India,Maharashtra,Jalgaon,"Prabhat Colony, Jalgaon - MPCB",11-04-2024 17:00:00,21.001264,75.565602,NO2,9,53,20
India,Maharashtra,Jalgaon,"Prabhat Colony, Jalgaon - MPCB",11-04-2024 17:00:00,21.001264,75.565602,NH3,1,11,3
India,Maharashtra,Jalna,"Old MIDC, Jalna - MPCB",11-04-2024 17:00:00,19.854616,75.905894,PM2.5,23,155,57
India,Maharashtra,Jalna,"Old MIDC, Jalna - MPCB",11-04-2024 17:00:00,19.854616,75.905894,SO2,1,3,2
India,Maharashtra,Jalna,"Old MIDC, Jalna - MPCB",11-04-2024 17:00:00,19.854616,75.905894,CO,25,33,27
India,Maharashtra,Jalna,"Old MIDC, Jalna - MPCB",11-04-2024 17:00:00,19.854616,75.905894,OZONE,20,110,40
India,Maharashtra,Kalyan,"Khadakpada, Kalyan - MPCB",11-04-2024 17:00:00,19.25292,73.142019,NO2,30,39,34
India,Maharashtra,Kalyan,"Khadakpada, Kalyan - MPCB",11-04-2024 17:00:00,19.25292,73.142019,NH3,1,1,1
India,Maharashtra,Kalyan,"Khadakpada, Kalyan - MPCB",11-04-2024 17:00:00,19.25292,73.142019,CO,17,22,17
India,Maharashtra,Kolhapur,"Shivaji University, Kolhapur - MPCB",11-04-2024 17:00:00,16.6870449,74.2505872,NH3,3,4,4
India,Maharashtra,Kolhapur,"Sinchan Bhavan, Kolhapur - MPCB",11-04-2024 17:00:00,16.7143745,74.2426398,SO2,3,8,5
India,Maharashtra,Latur,"Sawe Wadi, Latur - MPCB",11-04-2024 17:00:00,18.39963,76.57452,NH3,NA,NA,NA
India,Maharashtra,Mahad,"Kamble Tarf Birwadi, Mahad - MPCB",11-04-2024 17:00:00,18.1023399,73.4783687,PM2.5,50,108,74
India,Maharashtra,Mahad,"Kamble Tarf Birwadi, Mahad - MPCB",11-04-2024 17:00:00,18.1023399,73.4783687,PM10,53,115,80
India,Maharashtra,Mahad,"Kamble Tarf Birwadi, Mahad - MPCB",11-04-2024 17:00:00,18.1023399,73.4783687,OZONE,4,83,51
India,Maharashtra,Malegaon,"Mahesh Nagar, Malegaon - MPCB",11-04-2024 17:00:00,20.555712,74.529236,OZONE,16,124,101
India,Maharashtra,Mira-Bhayandar,"Bhayandar West, Mira-Bhayandar - MPCB",11-04-2024 17:00:00,19.296481,72.840923,SO2,1,11,2
India,Maharashtra,Mumbai,"Bandra Kurla Complex, Mumbai - MPCB",11-04-2024 17:00:00,19.065931,72.862131,PM10,67,127,96
India,Maharashtra,Mumbai,"Borivali East, Mumbai - IITM",11-04-2024 17:00:00,19.23241,72.86895,NO2,72,198,135
India,Maharashtra,Mumbai,"Borivali East, Mumbai - IITM",11-04-2024 17:00:00,19.23241,72.86895,OZONE,30,120,93
India,Maharashtra,Mumbai,"Borivali East, Mumbai - MPCB",11-04-2024 17:00:00,19.2243333,72.8658113,NH3,1,2,1
India,Maharashtra,Mumbai,"Borivali East, Mumbai - MPCB",11-04-2024 17:00:00,19.2243333,72.8658113,CO,2,58,35
India,Maharashtra,Mumbai,"Byculla, Mumbai - BMC",11-04-2024 17:00:00,18.9767,72.8380,NO2,12,30,20
India,Maharashtra,Mumbai,"Chembur, Mumbai - MPCB",11-04-2024 17:00:00,19.0364585,72.8954371,OZONE,1,149,95
India,Maharashtra,Mumbai,"Chhatrapati Shivaji Intl. Airport (T2), Mumbai - MPCB",11-04-2024 17:00:00,19.10078,72.87462,PM2.5,32,72,50
India,Maharashtra,Mumbai,"Chhatrapati Shivaji Intl. Airport (T2), Mumbai - MPCB",11-04-2024 17:00:00,19.10078,72.87462,SO2,19,25,21
India,Maharashtra,Mumbai,"Colaba, Mumbai - MPCB",11-04-2024 17:00:00,18.910000,72.820000,NO2,19,24,21
India,Maharashtra,Mumbai,"Kandivali West, Mumbai - BMC",11-04-2024 17:00:00,19.215859,72.831718,OZONE,11,63,44
India,Maharashtra,Mumbai,"Kherwadi_Bandra East, Mumbai - MPCB",11-04-2024 17:00:00,19.0632143,72.8456324,SO2,4,22,7
India,Maharashtra,Mumbai,"Khindipada-Bhandup West, Mumbai - IITM",11-04-2024 17:00:00,19.1653323,72.922099,NO2,NA,NA,NA
India,Maharashtra,Mumbai,"Kurla, Mumbai - MPCB",11-04-2024 17:00:00,19.0863,72.8888,PM10,46,149,92
India,Maharashtra,Mumbai,"Kurla, Mumbai - MPCB",11-04-2024 17:00:00,19.0863,72.8888,CO,8,22,14
India,Maharashtra,Mumbai,"Mazgaon, Mumbai - IITM",11-04-2024 17:00:00,18.96702,72.84214,PM2.5,44,258,85
India,Maharashtra,Mumbai,"Mazgaon, Mumbai - IITM",11-04-2024 17:00:00,18.96702,72.84214,CO,8,92,23
India,Maharashtra,Mumbai,"Mindspace-Malad West, Mumbai - MPCB",11-04-2024 17:00:00,19.1878657,72.8304069,PM10,35,85,53
India,Maharashtra,Mumbai,"Mulund West, Mumbai - MPCB",11-04-2024 17:00:00,19.1750,72.9419,PM10,54,152,95
India,Maharashtra,Mumbai,"Mulund West, Mumbai - MPCB",11-04-2024 17:00:00,19.1750,72.9419,NO2,20,23,21
India,Maharashtra,Mumbai,"Mulund West, Mumbai - MPCB",11-04-2024 17:00:00,19.1750,72.9419,NH3,10,11,10
India,Maharashtra,Mumbai,"Mulund West, Mumbai - MPCB",11-04-2024 17:00:00,19.1750,72.9419,OZONE,7,7,7
India,Maharashtra,Mumbai,"Navy Nagar-Colaba, Mumbai - IITM",11-04-2024 17:00:00,18.897756,72.813320,PM10,43,130,78
India,Maharashtra,Mumbai,"Powai, Mumbai - MPCB",11-04-2024 17:00:00,19.137500,72.915056,PM2.5,25,72,39
India,Maharashtra,Mumbai,"Powai, Mumbai - MPCB",11-04-2024 17:00:00,19.137500,72.915056,PM10,49,143,87
India,Maharashtra,Mumbai,"Powai, Mumbai - MPCB",11-04-2024 17:00:00,19.137500,72.915056,NO2,17,32,23
India,Maharashtra,Mumbai,"Powai, Mumbai - MPCB",11-04-2024 17:00:00,19.137500,72.915056,SO2,32,46,36
India,Maharashtra,Mumbai,"Sewri, Mumbai - BMC",11-04-2024 17:00:00,19.000084,72.856730,PM2.5,10,58,31
India,Maharashtra,Mumbai,"Sewri, Mumbai - BMC",11-04-2024 17:00:00,19.000084,72.856730,NO2,27,57,41
India,Maharashtra,Mumbai,"Shivaji Nagar, Mumbai - BMC",11-04-2024 17:00:00,19.060498,72.923356,NO2,33,84,58
India,Maharashtra,Mumbai,"Siddharth Nagar-Worli, Mumbai - IITM",11-04-2024 17:00:00,19.000083,72.813993,OZONE,17,137,84
India,Maharashtra,Mumbai,"Sion, Mumbai - MPCB",11-04-2024 17:00:00,19.047000,72.874600,NH3,1,1,1
India,Maharashtra,Mumbai,"Vasai West, Mumbai - MPCB",11-04-2024 17:00:00,19.383200,72.820400,SO2,16,18,16
India,Maharashtra,Mumbai,"Vile Parle West, Mumbai - MPCB",11-04-2024 17:00:00,19.10861,72.83622,NH3,10,11,11
India,Maharashtra,Mumbai,"Vile Parle West, Mumbai - MPCB",11-04-2024 17:00:00,19.10861,72.83622,OZONE,3,3,3
India,Maharashtra,Nagpur,"Ambazari, Nagpur - MPCB",11-04-2024 17:00:00,21.121801,79.04952,PM2.5,NA,NA,NA
India,Maharashtra,Nagpur,"Ambazari, Nagpur - MPCB",11-04-2024 17:00:00,21.121801,79.04952,PM10,NA,NA,NA
India,Maharashtra,Nagpur,"Ambazari, Nagpur - MPCB",11-04-2024 17:00:00,21.121801,79.04952,NH3,NA,NA,NA
India,Maharashtra,Nagpur,"Ambazari, Nagpur - MPCB",11-04-2024 17:00:00,21.121801,79.04952,SO2,NA,NA,NA
India,Maharashtra,Nagpur,"Mahal, Nagpur - MPCB",11-04-2024 17:00:00,21.14472,79.107595,OZONE,18,95,28
India,Maharashtra,Nagpur,"Opp GPO Civil Lines, Nagpur - MPCB",11-04-2024 17:00:00,21.152875,79.0517531,NO2,11,80,29
India,Maharashtra,Nagpur,"Opp GPO Civil Lines, Nagpur - MPCB",11-04-2024 17:00:00,21.152875,79.0517531,CO,6,57,26
India,Maharashtra,Nanded,"Sneh Nagar, Nanded - MPCB",11-04-2024 17:00:00,19.173852,77.296291,PM2.5,25,147,67
India,Maharashtra,Nanded,"Sneh Nagar, Nanded - MPCB",11-04-2024 17:00:00,19.173852,77.296291,NO2,13,49,19
India,Maharashtra,Nanded,"Sneh Nagar, Nanded - MPCB",11-04-2024 17:00:00,19.173852,77.296291,NH3,1,2,1
India,Maharashtra,Nanded,"Sneh Nagar, Nanded - MPCB",11-04-2024 17:00:00,19.173852,77.296291,SO2,5,9,7
India,Maharashtra,Nanded,"Sneh Nagar, Nanded - MPCB",11-04-2024 17:00:00,19.173852,77.296291,CO,30,44,35
India,Maharashtra,Nashik,"Gangapur Road, Nashik - MPCB",11-04-2024 17:00:00,20.0073285,73.7762427,PM10,49,96,72
India,Maharashtra,Nashik,"Gangapur Road, Nashik - MPCB",11-04-2024 17:00:00,20.0073285,73.7762427,SO2,1,12,5
India,Maharashtra,Nashik,"Gangapur Road, Nashik - MPCB",11-04-2024 17:00:00,20.0073285,73.7762427,CO,54,105,77
India,Maharashtra,Nashik,"Gangapur Road, Nashik - MPCB",11-04-2024 17:00:00,20.0073285,73.7762427,OZONE,15,79,62
India,Maharashtra,Nashik,"Hirawadi, Nashik - MPCB",11-04-2024 17:00:00,20.021503,73.813844,NO2,6,39,15
India,Maharashtra,Nashik,"MIDC Ambad, Nashik - MPCB",11-04-2024 17:00:00,19.950220,73.731480,PM2.5,39,79,58
India,Maharashtra,Nashik,"MIDC Ambad, Nashik - MPCB",11-04-2024 17:00:00,19.950220,73.731480,NH3,2,2,2
India,Maharashtra,Nashik,"MIDC Ambad, Nashik - MPCB",11-04-2024 17:00:00,19.950220,73.731480,CO,17,118,103
India,Maharashtra,Nashik,"Pandav Nagari, Nashik - MPCB",11-04-2024 17:00:00,19.9591346,73.7788008,CO,14,28,18
India,Maharashtra,Navi Mumbai,"Kopripada-Vashi, Navi Mumbai - MPCB",11-04-2024 17:00:00,19.090337,73.014232,PM2.5,26,79,53
India,Maharashtra,Navi Mumbai,"Kopripada-Vashi, Navi Mumbai - MPCB",11-04-2024 17:00:00,19.090337,73.014232,NO2,30,71,42
India,Maharashtra,Navi Mumbai,"Kopripada-Vashi, Navi Mumbai - MPCB",11-04-2024 17:00:00,19.090337,73.014232,SO2,1,11,5
India,Maharashtra,Navi Mumbai,"Kopripada-Vashi, Navi Mumbai - MPCB",11-04-2024 17:00:00,19.090337,73.014232,CO,10,49,19
India,Maharashtra,Navi Mumbai,"Mahape, Navi Mumbai - MPCB",11-04-2024 17:00:00,19.1135051,73.008978,PM2.5,29,115,59
India,Maharashtra,Navi Mumbai,"Mahape, Navi Mumbai - MPCB",11-04-2024 17:00:00,19.1135051,73.008978,PM10,23,99,49
India,Maharashtra,Navi Mumbai,"Mahape, Navi Mumbai - MPCB",11-04-2024 17:00:00,19.1135051,73.008978,NH3,1,2,1
India,Maharashtra,Navi Mumbai,"Nerul, Navi Mumbai - MPCB",11-04-2024 17:00:00,19.008751,73.016620,NH3,1,3,2
India,Maharashtra,Navi Mumbai,"Sanpada, Navi Mumbai - MPCB",11-04-2024 17:00:00,19.0575752,73.0151367,CO,2,20,10
India,Maharashtra,Navi Mumbai,"Sector-2E Kalamboli, Navi Mumbai - MPCB",11-04-2024 17:00:00,19.02579,73.10297,NO2,20,64,43
India,Maharashtra,Navi Mumbai,"Sector-2E Kalamboli, Navi Mumbai - MPCB",11-04-2024 17:00:00,19.02579,73.10297,CO,9,39,18
India,Maharashtra,Parbhani,"Masoom Colony, Parbhani - MPCB",11-04-2024 17:00:00,19.265594,76.761463,NO2,20,45,29
India,Maharashtra,Pimpri-Chinchwad,"Gavalinagar, Pimpri Chinchwad - MPCB",11-04-2024 17:00:00,18.63673,73.82487,PM2.5,56,101,79
India,Maharashtra,Pimpri-Chinchwad,"Gavalinagar, Pimpri Chinchwad - MPCB",11-04-2024 17:00:00,18.63673,73.82487,PM10,62,126,98
India,Maharashtra,Pimpri-Chinchwad,"Gavalinagar, Pimpri Chinchwad - MPCB",11-04-2024 17:00:00,18.63673,73.82487,NH3,NA,NA,NA
India,Maharashtra,Pimpri-Chinchwad,"Gavalinagar, Pimpri Chinchwad - MPCB",11-04-2024 17:00:00,18.63673,73.82487,SO2,4,24,13
India,Maharashtra,Pimpri-Chinchwad,"Park Street Wakad, Pimpri Chinchwad - MPCB",11-04-2024 17:00:00,18.59051,73.77946,PM2.5,43,141,78
India,Maharashtra,Pimpri-Chinchwad,"Park Street Wakad, Pimpri Chinchwad - MPCB",11-04-2024 17:00:00,18.59051,73.77946,CO,16,55,28
India,Maharashtra,Pimpri-Chinchwad,"Thergaon, Pimpri Chinchwad - MPCB",11-04-2024 17:00:00,18.616318,73.765797,PM2.5,62,246,112
India,Maharashtra,Pune,"Bhosari, Pune - IITM",11-04-2024 17:00:00,18.640051,73.848956,OZONE,6,99,79
India,Maharashtra,Pune,"Katraj Dairy, Pune - MPCB",11-04-2024 17:00:00,18.454450,73.854155,NO2,NA,NA,NA
India,Maharashtra,Pune,"Mhada Colony, Pune - IITM",11-04-2024 17:00:00,18.573040,73.927715,CO,24,84,45
India,Maharashtra,Pune,"Mhada Colony, Pune - IITM",11-04-2024 17:00:00,18.573040,73.927715,OZONE,11,28,24
India,Maharashtra,Pune,"Revenue Colony-Shivajinagar, Pune - IITM",11-04-2024 17:00:00,18.530085,73.849598,PM2.5,46,194,97
India,Maharashtra,Pune,"Revenue Colony-Shivajinagar, Pune - IITM",11-04-2024 17:00:00,18.530085,73.849598,PM10,48,133,90
India,Maharashtra,Pune,"Revenue Colony-Shivajinagar, Pune - IITM",11-04-2024 17:00:00,18.530085,73.849598,NH3,8,18,14
India,Maharashtra,Pune,"Revenue Colony-Shivajinagar, Pune - IITM",11-04-2024 17:00:00,18.530085,73.849598,SO2,43,109,89
India,Maharashtra,Pune,"Revenue Colony-Shivajinagar, Pune - IITM",11-04-2024 17:00:00,18.530085,73.849598,OZONE,1,54,40
India,Maharashtra,Pune,"Savitribai Phule Pune University, Pune - MPCB",11-04-2024 17:00:00,18.547056,73.826908,OZONE,4,219,150
India,Maharashtra,Pune,"Transport Nagar-Nigdi, Pune - IITM",11-04-2024 17:00:00,18.664282,73.763966,PM2.5,13,80,48
India,Maharashtra,Pune,"Transport Nagar-Nigdi, Pune - IITM",11-04-2024 17:00:00,18.664282,73.763966,NO2,11,14,13
India,Maharashtra,Sangli,"Vijay Nagar, Sangli - MPCB",11-04-2024 17:00:00, 16.5038,74.3623,NO2,9,41,19
India,Maharashtra,Solapur,"Dnyaneshwar Nagar, Solapur - MPCB",11-04-2024 17:00:00,17.6336264,75.9132495,NO2,1,28,15
India,Maharashtra,Solapur,"Dnyaneshwar Nagar, Solapur - MPCB",11-04-2024 17:00:00,17.6336264,75.9132495,SO2,2,16,10
India,Maharashtra,Solapur,"Ratandeep Housing Society, Solapur - MPCB",11-04-2024 17:00:00,17.65439,75.90649,SO2,4,30,14
India,Maharashtra,Solapur,"Ratandeep Housing Society, Solapur - MPCB",11-04-2024 17:00:00,17.65439,75.90649,OZONE,18,107,78
India,Maharashtra,Thane,"Kasarvadavali, Thane - MPCB",11-04-2024 17:00:00,19.26777,72.97182,PM10,70,114,93
India,Maharashtra,Thane,"Upvan Fort, Thane - MPCB",11-04-2024 17:00:00,19.222279,72.957979,PM10,51,114,82
India,Maharashtra,Ulhasnagar,"Sidhi Vinayak Nagar, Ulhasnagar - MPCB",11-04-2024 17:00:00,19.235581,73.159121,PM10,71,113,92
India,Maharashtra,Ulhasnagar,"Sidhi Vinayak Nagar, Ulhasnagar - MPCB",11-04-2024 17:00:00,19.235581,73.159121,NH3,2,5,3
India,Maharashtra,Virar,"Bolinj, Virar - MPCB",11-04-2024 17:00:00,19.4458210,72.7988231,PM10,46,106,71
India,Manipur,Imphal,"Manipur University, Imphal - Manipur PCB",11-04-2024 17:00:00,24.7524239,93.9286218,CO,11,31,16
India,Meghalaya,Shillong,"Lumpyngngad, Shillong - Meghalaya PCB",11-04-2024 17:00:00,25.5586,91.8985,PM2.5,39,202,100
India,Meghalaya,Shillong,"Lumpyngngad, Shillong - Meghalaya PCB",11-04-2024 17:00:00,25.5586,91.8985,NO2,1,1,1
India,Nagaland,Kohima,"PWD Juction, Kohima - NPCB",11-04-2024 17:00:00,25.6635413,94.0989878,CO,12,45,16
India,Odisha,Angul,"Hakimapada, Angul - OSPCB",11-04-2024 17:00:00,20.832874,85.104082,SO2,10,113,41
India,Odisha,Angul,"Hakimapada, Angul - OSPCB",11-04-2024 17:00:00,20.832874,85.104082,OZONE,5,131,59
India,Odisha,Balasore,"Kalidaspur, Balasore - OSPCB",11-04-2024 17:00:00,21.51161,86.89088,CO,40,104,80
India,Odisha,Barbil,"Forest Office, Barbil - OSPCB",11-04-2024 17:00:00,22.1166054,85.3945546,PM2.5,35,207,113
India,Odisha,Barbil,"Forest Office, Barbil - OSPCB",11-04-2024 17:00:00,22.1166054,85.3945546,PM10,52,358,159
India,Odisha,Baripada,"Meher Colony, Baripada - OSPCB",11-04-2024 17:00:00,21.941841,86.728318,PM10,85,147,107
India,Odisha,Baripada,"Meher Colony, Baripada - OSPCB",11-04-2024 17:00:00,21.941841,86.728318,SO2,4,6,5
India,Odisha,Baripada,"Meher Colony, Baripada - OSPCB",11-04-2024 17:00:00,21.941841,86.728318,CO,22,50,41
India,Odisha,Bhubaneswar,"Lingraj Mandir, Bhubaneswar - OSPCB",11-04-2024 17:00:00,20.240790,85.836784,NO2,10,52,20
India,Odisha,Bhubaneswar,"Lingraj Mandir, Bhubaneswar - OSPCB",11-04-2024 17:00:00,20.240790,85.836784,NH3,2,4,3
India,Odisha,Bhubaneswar,"Lingraj Mandir, Bhubaneswar - OSPCB",11-04-2024 17:00:00,20.240790,85.836784,CO,42,83,56
India,Odisha,Bhubaneswar,"Lingraj Mandir, Bhubaneswar - OSPCB",11-04-2024 17:00:00,20.240790,85.836784,OZONE,3,5,4
India,Odisha,Bhubaneswar,"Patia, Bhubaneswar - OSPCB",11-04-2024 17:00:00,20.34652,85.81630,PM2.5,58,140,91
India,Odisha,Bileipada,"Tata Township, Bileipada - OSPCB",11-04-2024 17:00:00,22.06156703,85.47409613,NO2,NA,NA,NA
India,Odisha,Bileipada,"Tata Township, Bileipada - OSPCB",11-04-2024 17:00:00,22.06156703,85.47409613,NH3,NA,NA,NA
India,Odisha,Brajrajnagar,"GM Office, Brajrajnagar - OSPCB",11-04-2024 17:00:00,21.8004996,83.8396977,PM2.5,16,138,49
India,Odisha,Brajrajnagar,"GM Office, Brajrajnagar - OSPCB",11-04-2024 17:00:00,21.8004996,83.8396977,OZONE,18,20,19
India,Odisha,Byasanagar,"Ferro Chrome Colony, Byasanagar - OSPCB",11-04-2024 17:00:00,20.94185,86.11510,CO,73,108,89
India,Odisha,Byasanagar,"Ferro Chrome Colony, Byasanagar - OSPCB",11-04-2024 17:00:00,20.94185,86.11510,OZONE,13,103,77
India,Odisha,Cuttack,"CDA Area, Cuttack - OSPCB",11-04-2024 17:00:00,20.48891     ,85.84768     ,NH3,2,2,2
India,Odisha,Cuttack,"CDA Area, Cuttack - OSPCB",11-04-2024 17:00:00,20.48891     ,85.84768     ,CO,26,86,28
India,Odisha,Keonjhar,"Jagamohanpur, Keonjhar - OSPCB",11-04-2024 17:00:00,21.643900,85.599355,SO2,3,15,5
India,Odisha,Nayagarh,"Dabuna, Nayagarh - OSPCB",11-04-2024 17:00:00,21.847279,85.416905,NH3,5,5,5
India,Odisha,Nayagarh,"Dabuna, Nayagarh - OSPCB",11-04-2024 17:00:00,21.847279,85.416905,SO2,NA,NA,NA
India,Odisha,Nayagarh,"Dabuna, Nayagarh - OSPCB",11-04-2024 17:00:00,21.847279,85.416905,CO,21,30,24
India,Odisha,Rairangpur,"Divisional Forest Office, Rairangpur - OSPCB",11-04-2024 17:00:00,22.265816,86.174829,SO2,4,9,5
India,Odisha,Suakati,"OMC Colony, Suakati - OSPCB",11-04-2024 17:00:00,21.606865,85.510538,NO2,2,9,5
India,Odisha,Suakati,"OMC Colony, Suakati - OSPCB",11-04-2024 17:00:00,21.606865,85.510538,NH3,4,6,5
India,Odisha,Suakati,"OMC Colony, Suakati - OSPCB",11-04-2024 17:00:00,21.606865,85.510538,CO,18,18,18
India,Odisha,Talcher,"Talcher Coalfields,Talcher - OSPCB",11-04-2024 17:00:00,20.9360711,85.1707021,PM10,55,211,114
India,Odisha,Talcher,"Talcher Coalfields,Talcher - OSPCB",11-04-2024 17:00:00,20.9360711,85.1707021,CO,24,108,68
India,Odisha,Tensa,"Barsua Iron Ore Mines, Tensa - OSPCB",11-04-2024 17:00:00,21.869985,85.167016,PM2.5,49,69,61
India,Odisha,Tensa,"Barsua Iron Ore Mines, Tensa - OSPCB",11-04-2024 17:00:00,21.869985,85.167016,PM10,57,101,83
India,Odisha,Tensa,"Barsua Iron Ore Mines, Tensa - OSPCB",11-04-2024 17:00:00,21.869985,85.167016,CO,12,44,22
India,Puducherry,Puducherry,"Jawahar Nagar, Puducherry - PPCC",11-04-2024 17:00:00,11.9309,79.8027,PM10,36,73,50
India,Puducherry,Puducherry,"Jawahar Nagar, Puducherry - PPCC",11-04-2024 17:00:00,11.9309,79.8027,SO2,3,14,7
India,Punjab,Amritsar,"Golden Temple, Amritsar - PPCB",11-04-2024 17:00:00,31.620000,74.876512,NO2,NA,NA,NA
India,Punjab,Bathinda,"Hardev Nagar, Bathinda - PPCB",11-04-2024 17:00:00,30.233011,74.907758,NO2,26,32,28
India,Punjab,Jalandhar,"Civil Line, Jalandhar - PPCB",11-04-2024 17:00:00,31.321907,75.578914,PM2.5,13,84,33
India,Punjab,Mandi Gobindgarh,"RIMT University, Mandi Gobindgarh - PPCB",11-04-2024 17:00:00,30.649961,76.331442,PM2.5,NA,NA,NA
India,Punjab,Mandi Gobindgarh,"RIMT University, Mandi Gobindgarh - PPCB",11-04-2024 17:00:00,30.649961,76.331442,SO2,NA,NA,NA
India,Punjab,Patiala,"Model Town, Patiala - PPCB",11-04-2024 17:00:00,30.349388,76.366642,NH3,6,7,6
India,Punjab,Patiala,"Model Town, Patiala - PPCB",11-04-2024 17:00:00,30.349388,76.366642,SO2,3,90,36
India,Punjab,Rupnagar,"Ratanpura, Rupnagar - Ambuja Cements",11-04-2024 17:00:00,31.0325454,76.5623046,PM10,40,88,72
India,Rajasthan,Ajmer,"Civil Lines,  Ajmer - RSPCB",11-04-2024 17:00:00,26.470859,74.646594,PM10,79,156,105
India,Rajasthan,Alwar,"Moti Doongri, Alwar - RSPCB",11-04-2024 17:00:00,27.554793,76.611536,NO2,NA,NA,NA
India,Rajasthan,Alwar,"Moti Doongri, Alwar - RSPCB",11-04-2024 17:00:00,27.554793,76.611536,NH3,NA,NA,NA
India,Rajasthan,Baran,"Bamboliya, Baran - RSPCB",11-04-2024 17:00:00,25.106006,76.469948,CO,16,36,19
India,Rajasthan,Barmer,"Railway Colony, Barmer - RSPCB",11-04-2024 17:00:00,25.747299,71.393989,PM10,64,157,92
India,Rajasthan,Barmer,"Railway Colony, Barmer - RSPCB",11-04-2024 17:00:00,25.747299,71.393989,CO,8,50,17
India,Rajasthan,Bhiwadi,"Vasundhara Nagar_UIT, Bhiwadi - RSPCB",11-04-2024 17:00:00,28.207266,76.829265,PM2.5,17,227,51
India,Rajasthan,Bhiwadi,"Vasundhara Nagar_UIT, Bhiwadi - RSPCB",11-04-2024 17:00:00,28.207266,76.829265,OZONE,14,117,93
India,Rajasthan,Bikaner,"MM Ground, Bikaner - RSPCB",11-04-2024 17:00:00,28.018792,73.292658,OZONE,15,93,76
India,Rajasthan,Chittorgarh,"Shastri Nagar, Chittorgarh - RSPCB",11-04-2024 17:00:00,24.892047,74.623527,OZONE,4,124,94
India,Rajasthan,Churu,"Subash Chowk, Churu - RSPCB",11-04-2024 17:00:00,28.296139,74.961696,NO2,NA,NA,NA
India,Rajasthan,Churu,"Subash Chowk, Churu - RSPCB",11-04-2024 17:00:00,28.296139,74.961696,NH3,NA,NA,NA
India,Rajasthan,Dausa,"Khatikan Mohalla, Dausa - RSPCB",11-04-2024 17:00:00,26.895552,76.334753,NO2,14,85,46
India,Rajasthan,Dausa,"Khatikan Mohalla, Dausa - RSPCB",11-04-2024 17:00:00,26.895552,76.334753,SO2,2,17,7
India,Rajasthan,Dholpur,"Raja Ganj, Dholpur - RSPCB",11-04-2024 17:00:00,26.699557,77.898881,NO2,6,48,20
India,Rajasthan,Dholpur,"Raja Ganj, Dholpur - RSPCB",11-04-2024 17:00:00,26.699557,77.898881,NH3,10,17,12
India,Rajasthan,Dungarpur,"Bhoiwada, Dungarpur - RSPCB",11-04-2024 17:00:00,23.837789,73.714926,CO,24,46,27
India,Rajasthan,Hanumangarh,"Housing Board, Hanumangarh - RSPCB",11-04-2024 17:00:00,29.610750,74.283608,PM2.5,30,100,62
India,Rajasthan,Hanumangarh,"Housing Board, Hanumangarh - RSPCB",11-04-2024 17:00:00,29.610750,74.283608,PM10,101,446,171
India,Rajasthan,Hanumangarh,"Housing Board, Hanumangarh - RSPCB",11-04-2024 17:00:00,29.610750,74.283608,CO,36,70,52
India,Rajasthan,Jaipur,"Adarsh Nagar, Jaipur - RSPCB",11-04-2024 17:00:00,26.902909,75.836858,NH3,2,5,3
India,Rajasthan,Jaipur,"Adarsh Nagar, Jaipur - RSPCB",11-04-2024 17:00:00,26.902909,75.836858,OZONE,26,43,39
India,Rajasthan,Jaipur,"Police Commissionerate, Jaipur - RSPCB",11-04-2024 17:00:00,26.9164092,75.7994901,NH3,6,9,7
India,Rajasthan,Jaipur,"RIICO Sitapura, Jaipur - RSPCB",11-04-2024 17:00:00,26.786682,75.827928,NO2,17,83,34
India,Rajasthan,Jaipur,"Sector-2 Murlipura, Jaipur - RSPCB",11-04-2024 17:00:00,26.960669,75.771817,PM10,46,349,106
India,Rajasthan,Jaipur,"Sector-2 Murlipura, Jaipur - RSPCB",11-04-2024 17:00:00,26.960669,75.771817,NO2,26,58,39
India,Rajasthan,Jaipur,"Sector-2 Murlipura, Jaipur - RSPCB",11-04-2024 17:00:00,26.960669,75.771817,OZONE,39,87,73
India,Rajasthan,Jaipur,"Shastri Nagar, Jaipur - RSPCB",11-04-2024 17:00:00,26.9502929,75.730943,PM10,85,263,120
India,Rajasthan,Jaipur,"Shastri Nagar, Jaipur - RSPCB",11-04-2024 17:00:00,26.9502929,75.730943,NO2,2,32,16
India,Rajasthan,Jaisalmer,"Sadar Bazar, Jaisalmer - RSPCB",11-04-2024 17:00:00,26.912329,70.909168,PM2.5,20,148,49
India,Rajasthan,Jaisalmer,"Sadar Bazar, Jaisalmer - RSPCB",11-04-2024 17:00:00,26.912329,70.909168,NH3,4,11,8
India,Rajasthan,Jaisalmer,"Sadar Bazar, Jaisalmer - RSPCB",11-04-2024 17:00:00,26.912329,70.909168,SO2,3,10,6
India,Rajasthan,Jaisalmer,"Sadar Bazar, Jaisalmer - RSPCB",11-04-2024 17:00:00,26.912329,70.909168,CO,14,100,28
India,Rajasthan,Jalore,"Mudtra Sili, Jalore - RSPCB",11-04-2024 17:00:00,25.344694,72.626208,PM10,74,337,124
India,Rajasthan,Jalore,"Mudtra Sili, Jalore - RSPCB",11-04-2024 17:00:00,25.344694,72.626208,NO2,7,60,28
India,Rajasthan,Jalore,"Mudtra Sili, Jalore - RSPCB",11-04-2024 17:00:00,25.344694,72.626208,OZONE,22,140,102
India,Rajasthan,Jhalawar,"Rajlaxmi Nagar, Jhalawar - RSPCB",11-04-2024 17:00:00,24.588397,76.172782,PM2.5,18,66,37
India,Rajasthan,Jhalawar,"Rajlaxmi Nagar, Jhalawar - RSPCB",11-04-2024 17:00:00,24.588397,76.172782,OZONE,32,76,63
India,Rajasthan,Jhunjhunu,"Indra Nagar, Jhunjhunu - RSPCB",11-04-2024 17:00:00,28.108988,75.386577,SO2,3,13,7
India,Rajasthan,Jodhpur,"Collectorate, Jodhpur - RSPCB",11-04-2024 17:00:00,26.268249,73.0193853,NO2,7,108,44
India,Rajasthan,Jodhpur,"Digari Kalan, Jodhpur - RSPCB",11-04-2024 17:00:00,26.295810,73.082283,NO2,NA,NA,NA
India,Rajasthan,Jodhpur,"Digari Kalan, Jodhpur - RSPCB",11-04-2024 17:00:00,26.295810,73.082283,SO2,NA,NA,NA
India,Rajasthan,Jodhpur,"Digari Kalan, Jodhpur - RSPCB",11-04-2024 17:00:00,26.295810,73.082283,OZONE,48,134,103
India,Rajasthan,Jodhpur,"Jhalamand, Jodhpur - RSPCB",11-04-2024 17:00:00,26.215415,73.070156,NH3,6,15,9
India,Rajasthan,Jodhpur,"Samrat Ashok Udhyan, Jodhpur - RSPCB",11-04-2024 17:00:00,26.253384,72.976571,NH3,5,11,8
India,Rajasthan,Karauli,"Satyawati Vihar, Karauli - RSPCB",11-04-2024 17:00:00,26.506177,77.025989,PM10,69,500,140
India,Rajasthan,Karauli,"Satyawati Vihar, Karauli - RSPCB",11-04-2024 17:00:00,26.506177,77.025989,NO2,9,38,18
India,Rajasthan,Kota,"Dhanmandi, Kota - RSPCB",11-04-2024 17:00:00,25.164090,75.858137,PM2.5,42,290,81
India,Rajasthan,Kota,"Dhanmandi, Kota - RSPCB",11-04-2024 17:00:00,25.164090,75.858137,PM10,43,262,99
India,Rajasthan,Kota,"Dhanmandi, Kota - RSPCB",11-04-2024 17:00:00,25.164090,75.858137,SO2,11,104,29
India,Rajasthan,Kota,"Dhanmandi, Kota - RSPCB",11-04-2024 17:00:00,25.164090,75.858137,CO,18,118,22
India,Rajasthan,Kota,"Nayapura, Kota - RSPCB",11-04-2024 17:00:00,25.196024,75.855668,PM10,50,172,95
India,Rajasthan,Kota,"Nayapura, Kota - RSPCB",11-04-2024 17:00:00,25.196024,75.855668,NO2,10,120,40
India,Rajasthan,Kota,"Nayapura, Kota - RSPCB",11-04-2024 17:00:00,25.196024,75.855668,OZONE,9,151,130
India,Rajasthan,Kota,"Shrinath Puram, Kota - RSPCB",11-04-2024 17:00:00,25.14389,75.821256,PM2.5,61,275,114
India,Rajasthan,Kota,"Shrinath Puram, Kota - RSPCB",11-04-2024 17:00:00,25.14389,75.821256,PM10,67,152,93
India,Rajasthan,Kota,"Shrinath Puram, Kota - RSPCB",11-04-2024 17:00:00,25.14389,75.821256,SO2,10,18,13
India,Rajasthan,Nagaur,"Karni Colony, Nagaur - RSPCB",11-04-2024 17:00:00,27.213494,73.734444,PM2.5,26,233,75
India,Rajasthan,Nagaur,"Karni Colony, Nagaur - RSPCB",11-04-2024 17:00:00,27.213494,73.734444,PM10,93,500,175
India,Rajasthan,Nagaur,"Karni Colony, Nagaur - RSPCB",11-04-2024 17:00:00,27.213494,73.734444,NO2,8,51,19
India,Rajasthan,Nagaur,"Karni Colony, Nagaur - RSPCB",11-04-2024 17:00:00,27.213494,73.734444,SO2,2,9,5
India,Rajasthan,Pali,"Indira Colony Vistar, Pali - RSPCB",11-04-2024 17:00:00,25.771061, 73.340227,PM10,86,146,113
India,Rajasthan,Pali,"Indira Colony Vistar, Pali - RSPCB",11-04-2024 17:00:00,25.771061, 73.340227,SO2,7,11,9
India,Rajasthan,Pratapgarh,"Pragati Nagar, Pratapgarh - RSPCB",11-04-2024 17:00:00,24.041198,74.780702,NH3,6,23,8
India,Rajasthan,Pratapgarh,"Pragati Nagar, Pratapgarh - RSPCB",11-04-2024 17:00:00,24.041198,74.780702,CO,18,103,36
India,Rajasthan,Rajsamand,"Dhoinda, Rajsamand - RSPCB",11-04-2024 17:00:00,25.036360,73.883502,NH3,NA,NA,NA
India,Rajasthan,Sawai Madhopur,"Sahu Nagar, Sawai Madhopur - RSPCB",11-04-2024 17:00:00,26.031443,76.359327,PM10,36,169,62
India,Rajasthan,Sawai Madhopur,"Sahu Nagar, Sawai Madhopur - RSPCB",11-04-2024 17:00:00,26.031443,76.359327,OZONE,6,140,104
India,Rajasthan,Sikar,"Radhakishan Pura, Sikar - RSPCB",11-04-2024 17:00:00,27.608912,75.153302,NH3,3,7,5
India,Rajasthan,Sikar,"Radhakishan Pura, Sikar - RSPCB",11-04-2024 17:00:00,27.608912,75.153302,SO2,1,9,4
India,Rajasthan,Sikar,"Radhakishan Pura, Sikar - RSPCB",11-04-2024 17:00:00,27.608912,75.153302,OZONE,29,161,130
India,Rajasthan,Sirohi,"Vedhaynath Colony, Sirohi - RSPCB",11-04-2024 17:00:00,24.885261,72.857549,OZONE,41,179,144
India,Rajasthan,Sri Ganganagar,"Old City, Sri Ganganagar - RSPCB",11-04-2024 17:00:00,29.931624,73.864511,NO2,47,126,84
India,Rajasthan,Tonk,"Shastri Nagar, Tonk - RSPCB",11-04-2024 17:00:00,26.159933,75.780517,PM10,66,202,104
India,TamilNadu,Ariyalur,"Keelapalur, Ariyalur - TNPCB",11-04-2024 17:00:00,11.06825,79.07033,SO2,24,25,25
India,TamilNadu,Chengalpattu,"Crescent University, Chengalpattu - TNPCB",11-04-2024 17:00:00,12.8777316,80.0834807,PM2.5,22,57,46
India,TamilNadu,Chengalpattu,"Crescent University, Chengalpattu - TNPCB",11-04-2024 17:00:00,12.8777316,80.0834807,OZONE,NA,NA,NA
India,TamilNadu,Chennai,"Alandur Bus Depot, Chennai - CPCB",11-04-2024 17:00:00,12.9099161,80.1076538,NH3,1,17,5
India,TamilNadu,Chennai,"Alandur Bus Depot, Chennai - CPCB",11-04-2024 17:00:00,12.9099161,80.1076538,SO2,2,11,6
India,TamilNadu,Chennai,"Arumbakkam, Chennai - TNPCB",11-04-2024 17:00:00,13.0664,80.2112 ,PM2.5,NA,NA,NA
India,TamilNadu,Chennai,"Arumbakkam, Chennai - TNPCB",11-04-2024 17:00:00,13.0664,80.2112 ,SO2,NA,NA,NA
India,TamilNadu,Chennai,"Manali, Chennai - CPCB",11-04-2024 17:00:00,13.164544,80.26285,PM2.5,34,101,59
India,TamilNadu,Chennai,"Perungudi, Chennai - TNPCB",11-04-2024 17:00:00,12.9533,80.2357,NH3,2,3,2
India,TamilNadu,Chennai,"Royapuram, Chennai - TNPCB",11-04-2024 17:00:00,13.1036,80.2909,NH3,1,1,1
India,TamilNadu,Chennai,"Velachery Res. Area, Chennai - CPCB",11-04-2024 17:00:00,13.0052189,80.2398125,NH3,7,12,10
India,TamilNadu,Cuddalore,"Kudikadu, Cuddalore - TNPCB",11-04-2024 17:00:00,11.6829898,79.7532099,SO2,NA,NA,NA
India,TamilNadu,Cuddalore,"Semmandalam, Cuddalore - TNPCB",11-04-2024 17:00:00,11.7637683,79.7499835,NO2,3,16,8
India,TamilNadu,Gummidipoondi,"Anthoni Pillai Nagar, Gummidipoondi - TNPCB",11-04-2024 17:00:00,13.4127,80.1081,NO2,10,14,12
India,TamilNadu,Gummidipoondi,"Anthoni Pillai Nagar, Gummidipoondi - TNPCB",11-04-2024 17:00:00,13.4127,80.1081,SO2,1,41,15
India,TamilNadu,Ramanathapuram,"Chalai Bazaar, Ramanathapuram - TNPCB",11-04-2024 17:00:00,9.36399,78.831977,NH3,1,1,1
India,TamilNadu,Salem,"Sona College of Technology, Salem - TNPCB",11-04-2024 17:00:00,11.679111,78.125052,NO2,NA,NA,NA
India,TamilNadu,Salem,"Sona College of Technology, Salem - TNPCB",11-04-2024 17:00:00,11.679111,78.125052,NH3,NA,NA,NA
India,TamilNadu,Salem,"Sona College of Technology, Salem - TNPCB",11-04-2024 17:00:00,11.679111,78.125052,OZONE,NA,NA,NA
India,TamilNadu,Thoothukudi,"Meelavittan, Thoothukudi - TNPCB",11-04-2024 17:00:00,8.816428 ,78.099039,SO2,9,16,13
India,TamilNadu,Thoothukudi,"Meelavittan, Thoothukudi - TNPCB",11-04-2024 17:00:00,8.816428 ,78.099039,CO,1,88,21
India,TamilNadu,Thoothukudi,"Meelavittan, Thoothukudi - TNPCB",11-04-2024 17:00:00,8.816428 ,78.099039,OZONE,9,162,61
India,TamilNadu,Tirupur,"Kumaran College, Tirupur - TNPCB",11-04-2024 17:00:00,11.0973603,77.3228673,PM2.5,NA,NA,NA
India,TamilNadu,Tirupur,"Kumaran College, Tirupur - TNPCB",11-04-2024 17:00:00,11.0973603,77.3228673,NH3,NA,NA,NA
India,TamilNadu,Virudhunagar,"Collectorate Office, Virudhunagar - TNPCB",11-04-2024 17:00:00,9.559382,77.948828,PM10,36,72,55
India,TamilNadu,Virudhunagar,"Collectorate Office, Virudhunagar - TNPCB",11-04-2024 17:00:00,9.559382,77.948828,NH3,6,7,6
India,TamilNadu,Virudhunagar,"Collectorate Office, Virudhunagar - TNPCB",11-04-2024 17:00:00,9.559382,77.948828,SO2,6,21,8
India,TamilNadu,Virudhunagar,"Collectorate Office, Virudhunagar - TNPCB",11-04-2024 17:00:00,9.559382,77.948828,CO,27,28,28
India,Telangana,Hyderabad,"Bollaram Industrial Area, Hyderabad - TSPCB",11-04-2024 17:00:00,17.540891,78.358528,CO,3,98,54
India,Telangana,Hyderabad,"Bollaram Industrial Area, Hyderabad - TSPCB",11-04-2024 17:00:00,17.540891,78.358528,OZONE,34,36,35
India,Telangana,Hyderabad,"Central University, Hyderabad - TSPCB",11-04-2024 17:00:00,17.460103,78.334361,NH3,3,7,5
India,Telangana,Hyderabad,"ECIL Kapra, Hyderabad - TSPCB",11-04-2024 17:00:00,17.470431,78.566959,PM10,78,84,80
India,Telangana,Hyderabad,"ICRISAT Patancheru, Hyderabad - TSPCB",11-04-2024 17:00:00,17.518400,78.278777,OZONE,38,85,71
India,Telangana,Hyderabad,"Kokapet, Hyderabad - TSPCB",11-04-2024 17:00:00,17.393559,78.339194,PM10,NA,NA,NA
India,Telangana,Hyderabad,"Kokapet, Hyderabad - TSPCB",11-04-2024 17:00:00,17.393559,78.339194,SO2,NA,NA,NA
India,Telangana,Hyderabad,"Kompally Municipal Office, Hyderabad - TSPCB",11-04-2024 17:00:00,17.544899,78.486949,OZONE,34,60,50
India,Telangana,Hyderabad,"New Malakpet, Hyderabad - TSPCB",11-04-2024 17:00:00,17.37206,78.50864,OZONE,NA,NA,NA
India,Telangana,Hyderabad,"Ramachandrapuram, Hyderabad - TSPCB",11-04-2024 17:00:00,17.528544,78.286195,CO,28,30,29
India,Telangana,Hyderabad,"Sanathnagar, Hyderabad - TSPCB",11-04-2024 17:00:00,17.4559458,78.4332152,SO2,1,41,10
India,Telangana,Hyderabad,"Sanathnagar, Hyderabad - TSPCB",11-04-2024 17:00:00,17.4559458,78.4332152,OZONE,12,17,15
India,Telangana,Hyderabad,"Somajiguda, Hyderabad - TSPCB",11-04-2024 17:00:00,17.417094,78.457437,PM10,67,80,73
India,Telangana,Hyderabad,"Somajiguda, Hyderabad - TSPCB",11-04-2024 17:00:00,17.417094,78.457437,NH3,6,8,7
India,Telangana,Hyderabad,"Somajiguda, Hyderabad - TSPCB",11-04-2024 17:00:00,17.417094,78.457437,OZONE,26,55,42
India,Telangana,Hyderabad,"Zoo Park, Hyderabad - TSPCB",11-04-2024 17:00:00,17.349694,78.451437,PM10,71,156,117
India,Uttar_Pradesh,Agra,"Manoharpur, Agra - UPPCB",11-04-2024 17:00:00,27.23711,78.01936,PM10,18,69,34
India,Uttar_Pradesh,Agra,"Manoharpur, Agra - UPPCB",11-04-2024 17:00:00,27.23711,78.01936,NO2,29,29,29
India,Uttar_Pradesh,Agra,"Manoharpur, Agra - UPPCB",11-04-2024 17:00:00,27.23711,78.01936,NH3,2,3,3
India,Uttar_Pradesh,Agra,"Rohta, Agra - UPPCB",11-04-2024 17:00:00,27.106972,78.000111,NH3,1,1,1
India,Uttar_Pradesh,Agra,"Rohta, Agra - UPPCB",11-04-2024 17:00:00,27.106972,78.000111,CO,4,18,10
India,Uttar_Pradesh,Agra,"Sector-3B Avas Vikas Colony, Agra - UPPCB",11-04-2024 17:00:00,27.19412,77.96237,NH3,5,13,8
India,Uttar_Pradesh,Agra,"Sector-3B Avas Vikas Colony, Agra - UPPCB",11-04-2024 17:00:00,27.19412,77.96237,SO2,8,13,10
India,Uttar_Pradesh,Agra,"Shahjahan Garden, Agra - UPPCB",11-04-2024 17:00:00,27.169338,78.03582,NH3,NA,NA,NA
India,Uttar_Pradesh,Agra,"Shahjahan Garden, Agra - UPPCB",11-04-2024 17:00:00,27.169338,78.03582,CO,16,18,16
India,Uttar_Pradesh,Agra,"Shahjahan Garden, Agra - UPPCB",11-04-2024 17:00:00,27.169338,78.03582,OZONE,12,46,26
India,Uttar_Pradesh,Baghpat,"Sardar Patel Inter College, Baghpat - UPPCB",11-04-2024 17:00:00,28.964949,77.278761,OZONE,11,108,78
India,Uttar_Pradesh,Bareilly,"Civil Lines, Bareilly - UPPCB",11-04-2024 17:00:00,28.359581,79.414455,OZONE,1,13,7
India,Uttar_Pradesh,Bareilly,"Rajendra Nagar, Bareilly - UPPCB",11-04-2024 17:00:00,28.38910936,79.42963708,NH3,1,1,1
India,Uttar_Pradesh,Bareilly,"Rajendra Nagar, Bareilly - UPPCB",11-04-2024 17:00:00,28.38910936,79.42963708,CO,10,44,20
India,Uttar_Pradesh,Bareilly,"Rajendra Nagar, Bareilly - UPPCB",11-04-2024 17:00:00,28.38910936,79.42963708,OZONE,1,62,27
India,Uttar_Pradesh,Bulandshahr,"Yamunapuram, Bulandshahr - UPPCB",11-04-2024 17:00:00,28.406963,77.849831,SO2,2,26,11
India,Uttar_Pradesh,Bulandshahr,"Yamunapuram, Bulandshahr - UPPCB",11-04-2024 17:00:00,28.406963,77.849831,CO,20,71,31
India,Uttar_Pradesh,Bulandshahr,"Yamunapuram, Bulandshahr - UPPCB",11-04-2024 17:00:00,28.406963,77.849831,OZONE,8,84,71
India,Uttar_Pradesh,Firozabad,"Nagla Bhau, Firozabad - UPPCB",11-04-2024 17:00:00,27.168897,78.376960,NO2,16,17,17
India,Uttar_Pradesh,Firozabad,"Nagla Bhau, Firozabad - UPPCB",11-04-2024 17:00:00,27.168897,78.376960,SO2,14,20,16
India,Uttar_Pradesh,Firozabad,"Vibhab Nagar, Firozabad - UPPCB",11-04-2024 17:00:00,27.1594,78.3953,PM2.5,25,164,59
India,Uttar_Pradesh,Firozabad,"Vibhab Nagar, Firozabad - UPPCB",11-04-2024 17:00:00,27.1594,78.3953,PM10,19,99,42
India,Uttar_Pradesh,Ghaziabad,"Indirapuram, Ghaziabad - UPPCB",11-04-2024 17:00:00,28.646233,77.358075,PM10,119,414,254
India,Uttar_Pradesh,Ghaziabad,"Indirapuram, Ghaziabad - UPPCB",11-04-2024 17:00:00,28.646233,77.358075,OZONE,1,41,25
India,Uttar_Pradesh,Ghaziabad,"Loni, Ghaziabad - UPPCB",11-04-2024 17:00:00,28.757294,77.278792,PM2.5,44,332,176
India,Uttar_Pradesh,Ghaziabad,"Loni, Ghaziabad - UPPCB",11-04-2024 17:00:00,28.757294,77.278792,CO,52,120,69
India,Uttar_Pradesh,Ghaziabad,"Vasundhara, Ghaziabad - UPPCB",11-04-2024 17:00:00,28.6603346,77.3572563,PM2.5,33,214,91
India,Uttar_Pradesh,Ghaziabad,"Vasundhara, Ghaziabad - UPPCB",11-04-2024 17:00:00,28.6603346,77.3572563,NO2,22,129,83
India,Uttar_Pradesh,Ghaziabad,"Vasundhara, Ghaziabad - UPPCB",11-04-2024 17:00:00,28.6603346,77.3572563,NH3,5,12,8
India,Uttar_Pradesh,Gorakhpur,"Madan Mohan Malaviya University of Technology, Gorakhpur - UPPCB",11-04-2024 17:00:00,26.730136,83.433859,CO,8,34,11
India,Uttar_Pradesh,Greater Noida,"Knowledge Park - V, Greater Noida - UPPCB",11-04-2024 17:00:00,28.557054,77.453663,NH3,4,8,5
India,Uttar_Pradesh,Hapur,"Anand Vihar, Hapur - UPPCB",11-04-2024 17:00:00,28.725645,77.749675,CO,25,38,29
India,Uttar_Pradesh,Hapur,"Anand Vihar, Hapur - UPPCB",11-04-2024 17:00:00,28.725645,77.749675,OZONE,19,116,87
India,Uttar_Pradesh,Kanpur,"FTI Kidwai Nagar, Kanpur - UPPCB",11-04-2024 17:00:00,26.428282,80.327067,PM10,10,252,122
India,Uttar_Pradesh,Kanpur,"FTI Kidwai Nagar, Kanpur - UPPCB",11-04-2024 17:00:00,26.428282,80.327067,NH3,2,5,3
India,Uttar_Pradesh,Kanpur,"FTI Kidwai Nagar, Kanpur - UPPCB",11-04-2024 17:00:00,26.428282,80.327067,OZONE,2,61,14
India,Uttar_Pradesh,Kanpur,"Nehru Nagar, Kanpur - UPPCB",11-04-2024 17:00:00,26.4703136,80.3229863,SO2,4,9,7
India,Uttar_Pradesh,Khurja,"Kalindi Kunj, Khurja - UPPCB",11-04-2024 17:00:00,28.2348927,77.8683002,PM2.5,24,100,60
India,Uttar_Pradesh,Khurja,"Kalindi Kunj, Khurja - UPPCB",11-04-2024 17:00:00,28.2348927,77.8683002,PM10,23,96,58
India,Uttar_Pradesh,Khurja,"Kalindi Kunj, Khurja - UPPCB",11-04-2024 17:00:00,28.2348927,77.8683002,SO2,44,60,51
India,Uttar_Pradesh,Khurja,"Kalindi Kunj, Khurja - UPPCB",11-04-2024 17:00:00,28.2348927,77.8683002,CO,34,48,41
India,Uttar_Pradesh,Lucknow,"B R Ambedkar University, Lucknow - UPPCB",11-04-2024 17:00:00,26.766433,80.927299,NH3,4,6,5
India,Uttar_Pradesh,Lucknow,"B R Ambedkar University, Lucknow - UPPCB",11-04-2024 17:00:00,26.766433,80.927299,CO,22,32,25
India,Uttar_Pradesh,Lucknow,"Gomti Nagar, Lucknow - UPPCB",11-04-2024 17:00:00,26.868120,81.005119,PM10,50,124,84
India,Uttar_Pradesh,Lucknow,"Kendriya Vidyalaya, Lucknow - CPCB",11-04-2024 17:00:00,26.906111,80.948222,SO2,2,13,6
India,Uttar_Pradesh,Lucknow,"Lalbagh, Lucknow - CPCB",11-04-2024 17:00:00,26.8458805,80.9365541,PM2.5,37,197,93
India,Uttar_Pradesh,Lucknow,"Lalbagh, Lucknow - CPCB",11-04-2024 17:00:00,26.8458805,80.9365541,OZONE,8,31,29
India,Uttar_Pradesh,Lucknow,"Talkatora District Industries Center, Lucknow - CPCB",11-04-2024 17:00:00,26.83399722,80.8917361,NO2,40,97,62
India,Uttar_Pradesh,Lucknow,"Talkatora District Industries Center, Lucknow - CPCB",11-04-2024 17:00:00,26.83399722,80.8917361,SO2,1,80,12
India,Uttar_Pradesh,Meerut,"Ganga Nagar, Meerut - UPPCB",11-04-2024 17:00:00,28.999264,77.7590354,PM10,77,234,138
India,Uttar_Pradesh,Meerut,"Ganga Nagar, Meerut - UPPCB",11-04-2024 17:00:00,28.999264,77.7590354,NO2,15,135,39
India,Uttar_Pradesh,Meerut,"Pallavpuram Phase 2, Meerut - UPPCB",11-04-2024 17:00:00,29.063510,77.709723,NH3,8,13,10
India,Uttar_Pradesh,Moradabad,"Eco Herbal Park, Moradabad - UPPCB",11-04-2024 17:00:00,28.840739,78.697531,NH3,5,20,10
India,Uttar_Pradesh,Moradabad,"Eco Herbal Park, Moradabad - UPPCB",11-04-2024 17:00:00,28.840739,78.697531,CO,15,74,43
India,Uttar_Pradesh,Moradabad,"Employment Office, Moradabad - UPPCB",11-04-2024 17:00:00,28.88528,78.73880,PM10,55,161,105
India,Uttar_Pradesh,Moradabad,"Employment Office, Moradabad - UPPCB",11-04-2024 17:00:00,28.88528,78.73880,SO2,27,42,31
India,Uttar_Pradesh,Moradabad,"Jigar Colony, Moradabad - UPPCB",11-04-2024 17:00:00,28.856664,78.772638,NO2,16,19,18
India,Uttar_Pradesh,Moradabad,"Kashiram Nagar, Moradabad - UPPCB",11-04-2024 17:00:00,28.849399,78.742362,NO2,3,4,3
India,Uttar_Pradesh,Moradabad,"Kashiram Nagar, Moradabad - UPPCB",11-04-2024 17:00:00,28.849399,78.742362,OZONE,11,110,54
India,Uttar_Pradesh,Moradabad,"Transport Nagar, Moradabad - UPPCB",11-04-2024 17:00:00,28.802625,78.753728,PM2.5,31,152,86
India,Uttar_Pradesh,Moradabad,"Transport Nagar, Moradabad - UPPCB",11-04-2024 17:00:00,28.802625,78.753728,PM10,60,131,103
India,Uttar_Pradesh,Moradabad,"Transport Nagar, Moradabad - UPPCB",11-04-2024 17:00:00,28.802625,78.753728,OZONE,14,70,18
India,Uttar_Pradesh,Noida,"Sector - 125, Noida - UPPCB",11-04-2024 17:00:00,28.5447608,77.3231257,OZONE,5,247,234
India,Uttar_Pradesh,Noida,"Sector-1, Noida - UPPCB",11-04-2024 17:00:00,28.5898,77.3101,NO2,37,158,99
India,Uttar_Pradesh,Noida,"Sector-1, Noida - UPPCB",11-04-2024 17:00:00,28.5898,77.3101,CO,36,94,54
India,Uttar_Pradesh,Noida,"Sector-1, Noida - UPPCB",11-04-2024 17:00:00,28.5898,77.3101,OZONE,2,227,196
India,Uttar_Pradesh,Noida,"Sector-116, Noida - UPPCB",11-04-2024 17:00:00,28.569230,77.393848,NO2,10,109,62
India,Uttar_Pradesh,Noida,"Sector-116, Noida - UPPCB",11-04-2024 17:00:00,28.569230,77.393848,NH3,5,16,10
India,Uttar_Pradesh,Prayagraj,"Jhunsi, Prayagraj - UPPCB",11-04-2024 17:00:00,25.425602,81.917152,OZONE,1,104,40
India,Uttar_Pradesh,Prayagraj,"Motilal Nehru NIT, Prayagraj - UPPCB",11-04-2024 17:00:00,25.494,81.863,NO2,7,12,12
India,Uttar_Pradesh,Prayagraj,"Nagar Nigam, Prayagraj - UPPCB",11-04-2024 17:00:00,25.44919916 ,81.82735986 ,PM2.5,22,67,37
India,Uttar_Pradesh,Prayagraj,"Nagar Nigam, Prayagraj - UPPCB",11-04-2024 17:00:00,25.44919916 ,81.82735986 ,PM10,33,188,90
India,Uttar_Pradesh,Prayagraj,"Nagar Nigam, Prayagraj - UPPCB",11-04-2024 17:00:00,25.44919916 ,81.82735986 ,OZONE,10,12,11
India,Uttar_Pradesh,Varanasi,"Ardhali Bazar, Varanasi - UPPCB",11-04-2024 17:00:00,25.3505986,82.9083074,NO2,15,63,29
India,Uttar_Pradesh,Varanasi,"Bhelupur, Varanasi - UPPCB",11-04-2024 17:00:00,25.301778,82.996789,PM2.5,3,20,9
India,Uttar_Pradesh,Varanasi,"Bhelupur, Varanasi - UPPCB",11-04-2024 17:00:00,25.301778,82.996789,NO2,8,8,8
India,Uttar_Pradesh,Varanasi,"Bhelupur, Varanasi - UPPCB",11-04-2024 17:00:00,25.301778,82.996789,NH3,1,2,1
India,Uttar_Pradesh,Varanasi,"Maldahiya, Varanasi - UPPCB",11-04-2024 17:00:00,25.32393,82.99687,SO2,25,26,25
India,Uttarakhand,Dehradun,"Doon University, Dehradun - UKPCB",11-04-2024 17:00:00,30.269444,78.044167,PM2.5,27,84,44
India,Uttarakhand,Dehradun,"Doon University, Dehradun - UKPCB",11-04-2024 17:00:00,30.269444,78.044167,CO,39,52,43
India,Uttarakhand,Kashipur,"Govt. Girls Inter College, Kashipur - UKPCB",11-04-2024 17:00:00,29.2124114,78.9611753,PM2.5,63,176,96
India,Uttarakhand,Kashipur,"Govt. Girls Inter College, Kashipur - UKPCB",11-04-2024 17:00:00,29.2124114,78.9611753,CO,16,80,35
India,Uttarakhand,Kashipur,"Govt. Girls Inter College, Kashipur - UKPCB",11-04-2024 17:00:00,29.2124114,78.9611753,OZONE,28,105,71
India,West_Bengal,Asansol,"Asansol Court Area, Asansol - WBPCB",11-04-2024 17:00:00,23.685297,86.945968,PM2.5,86,279,184
India,West_Bengal,Asansol,"Asansol Court Area, Asansol - WBPCB",11-04-2024 17:00:00,23.685297,86.945968,NO2,36,64,47
India,West_Bengal,Barrackpore,"SVSPA Campus, Barrackpore - WBPCB",11-04-2024 17:00:00,22.7605581,88.3617589,NH3,NA,NA,NA
India,West_Bengal,Durgapur,"PCBL Residential Complex, Durgapur - WBPCB",11-04-2024 17:00:00,23.5087640,87.3544400,PM10,NA,NA,NA
India,West_Bengal,Durgapur,"Sidhu Kanhu Indoor Stadium, Durgapur - WBPCB",11-04-2024 17:00:00,23.5404352,87.2892225,PM2.5,100,320,228
India,West_Bengal,Durgapur,"Sidhu Kanhu Indoor Stadium, Durgapur - WBPCB",11-04-2024 17:00:00,23.5404352,87.2892225,PM10,115,248,168
India,West_Bengal,Durgapur,"Sidhu Kanhu Indoor Stadium, Durgapur - WBPCB",11-04-2024 17:00:00,23.5404352,87.2892225,SO2,8,37,27
India,West_Bengal,Durgapur,"Sidhu Kanhu Indoor Stadium, Durgapur - WBPCB",11-04-2024 17:00:00,23.5404352,87.2892225,OZONE,2,62,31
India,West_Bengal,Haldia,"Priyambada Housing Estate, Haldia - WBPCB",11-04-2024 17:00:00,22.06047,88.109737,SO2,12,27,17
India,West_Bengal,Howrah,"Belur Math, Howrah - WBPCB",11-04-2024 17:00:00,22.629801,88.352017,CO,2,88,10
India,West_Bengal,Kolkata,"Bidhannagar, Kolkata - WBPCB",11-04-2024 17:00:00,22.58157048,88.41002457,NO2,21,75,43
India,West_Bengal,Kolkata,"Bidhannagar, Kolkata - WBPCB",11-04-2024 17:00:00,22.58157048,88.41002457,OZONE,7,83,67
India,West_Bengal,Kolkata,"Fort William, Kolkata - WBPCB",11-04-2024 17:00:00,22.556640,88.342674,OZONE,28,64,41
India,West_Bengal,Kolkata,"Jadavpur, Kolkata - WBPCB",11-04-2024 17:00:00,22.49929,88.36917,NH3,1,2,1
India,West_Bengal,Kolkata,"Jadavpur, Kolkata - WBPCB",11-04-2024 17:00:00,22.49929,88.36917,OZONE,8,117,81
India,West_Bengal,Kolkata,"Rabindra Bharati University, Kolkata - WBPCB",11-04-2024 17:00:00,22.627847,88.380669,NH3,12,111,42
India,West_Bengal,Kolkata,"Rabindra Bharati University, Kolkata - WBPCB",11-04-2024 17:00:00,22.627847,88.380669,SO2,5,42,16
India,West_Bengal,Kolkata,"Rabindra Bharati University, Kolkata - WBPCB",11-04-2024 17:00:00,22.627847,88.380669,CO,28,103,45
India,West_Bengal,Kolkata,"Rabindra Bharati University, Kolkata - WBPCB",11-04-2024 17:00:00,22.627847,88.380669,OZONE,2,90,65
India,West_Bengal,Kolkata,"Rabindra Sarobar, Kolkata - WBPCB",11-04-2024 17:00:00,22.51106,88.35142,PM10,92,128,110
India,West_Bengal,Kolkata,"Rabindra Sarobar, Kolkata - WBPCB",11-04-2024 17:00:00,22.51106,88.35142,OZONE,5,92,59
India,West_Bengal,Kolkata,"Victoria, Kolkata - WBPCB",11-04-2024 17:00:00,22.5448082,88.3403691,PM10,122,165,148
India,West_Bengal,Kolkata,"Victoria, Kolkata - WBPCB",11-04-2024 17:00:00,22.5448082,88.3403691,SO2,17,38,26
India,West_Bengal,Siliguri,"Ward-32 Bapupara, Siliguri - WBPCB",11-04-2024 17:00:00,26.6879226,88.4152495,OZONE,35,70,59
India,Andhra_Pradesh,Anantapur,"Gulzarpet, Anantapur - APPCB",11-04-2024 17:00:00,14.675886,77.593027,CO,27,52,36
India,Andhra_Pradesh,Anantapur,"Gulzarpet, Anantapur - APPCB",11-04-2024 17:00:00,14.675886,77.593027,OZONE,2,38,22
India,Andhra_Pradesh,Chittoor,"Gangineni Cheruvu, Chittoor - APPCB",11-04-2024 17:00:00,13.204880,79.097889,NH3,1,2,1
India,Andhra_Pradesh,Chittoor,"Gangineni Cheruvu, Chittoor - APPCB",11-04-2024 17:00:00,13.204880,79.097889,CO,4,57,11
India,Andhra_Pradesh,Kadapa,"Yerramukkapalli, Kadapa - APPCB",11-04-2024 17:00:00,14.465052,78.824187,PM2.5,NA,NA,NA
India,Andhra_Pradesh,Kadapa,"Yerramukkapalli, Kadapa - APPCB",11-04-2024 17:00:00,14.465052,78.824187,PM10,NA,NA,NA
India,Andhra_Pradesh,Tirupati,"Tirumala, Tirupati - APPCB",11-04-2024 17:00:00,13.67,79.35,PM10,44,113,67
India,Andhra_Pradesh,Tirupati,"Tirumala, Tirupati - APPCB",11-04-2024 17:00:00,13.67,79.35,OZONE,11,50,35
India,Andhra_Pradesh,Tirupati,"Vaikuntapuram, Tirupati - APPCB",11-04-2024 17:00:00,13.615387,79.409230,NO2,16,24,20
India,Andhra_Pradesh,Vijayawada,"HB Colony, Vijayawada - APPCB",11-04-2024 17:00:00,16.536107,80.594233,NH3,4,4,4
India,Andhra_Pradesh,Vijayawada,"HB Colony, Vijayawada - APPCB",11-04-2024 17:00:00,16.536107,80.594233,SO2,3,6,4
India,Andhra_Pradesh,Vijayawada,"Kanuru, Vijayawada - APPCB",11-04-2024 17:00:00,16.486692,80.699436,PM10,NA,NA,NA
India,Andhra_Pradesh,Vijayawada,"Kanuru, Vijayawada - APPCB",11-04-2024 17:00:00,16.486692,80.699436,SO2,NA,NA,NA
India,Andhra_Pradesh,Vijayawada,"Kanuru, Vijayawada - APPCB",11-04-2024 17:00:00,16.486692,80.699436,OZONE,NA,NA,NA
India,Andhra_Pradesh,Vijayawada,"Rajiv Gandhi Park, Vijayawada - APPCB",11-04-2024 17:00:00,16.509717,80.612222,OZONE,15,86,86
India,Andhra_Pradesh,Vijayawada,"Rajiv Nagar, Vijayawada - APPCB",11-04-2024 17:00:00,16.554731,80.649110,OZONE,8,46,25
India,Andhra_Pradesh,Visakhapatnam,"GVM Corporation, Visakhapatnam - APPCB",11-04-2024 17:00:00,17.72,83.3,NO2,3,94,36
India,Arunachal_Pradesh,Naharlagun,"Naharlagun, Naharlagun - APSPCB",11-04-2024 17:00:00,27.103358,93.679645,PM2.5,46,144,90
India,Arunachal_Pradesh,Naharlagun,"Naharlagun, Naharlagun - APSPCB",11-04-2024 17:00:00,27.103358,93.679645,SO2,4,4,4
India,Arunachal_Pradesh,Naharlagun,"Naharlagun, Naharlagun - APSPCB",11-04-2024 17:00:00,27.103358,93.679645,CO,12,34,13
India,Arunachal_Pradesh,Naharlagun,"Naharlagun, Naharlagun - APSPCB",11-04-2024 17:00:00,27.103358,93.679645,OZONE,2,2,2
India,Assam,Byrnihat,"Central Academy for SFS, Byrnihat - PCBA",11-04-2024 17:00:00,26.071318,91.87488,NH3,4,9,7
India,Assam,Byrnihat,"Central Academy for SFS, Byrnihat - PCBA",11-04-2024 17:00:00,26.071318,91.87488,OZONE,24,39,31
India,Assam,Guwahati,"Railway Colony, Guwahati - PCBA",11-04-2024 17:00:00,26.181742,91.78063,PM2.5,76,317,175
India,Assam,Guwahati,"Railway Colony, Guwahati - PCBA",11-04-2024 17:00:00,26.181742,91.78063,SO2,58,94,70
India,Assam,Guwahati,"Railway Colony, Guwahati - PCBA",11-04-2024 17:00:00,26.181742,91.78063,CO,20,54,26
India,Assam,Guwahati,"Railway Colony, Guwahati - PCBA",11-04-2024 17:00:00,26.181742,91.78063,OZONE,2,30,14
India,Assam,Nalbari,"Bata Chowk, Nalbari - PCBA",11-04-2024 17:00:00,26.446912,91.439057,SO2,2,7,4
India,Assam,Sivasagar,"Girls College, Sivasagar - PCBA",11-04-2024 17:00:00,26.987634,94.636574,SO2,2,5,4
India,Assam,Sivasagar,"Girls College, Sivasagar - PCBA",11-04-2024 17:00:00,26.987634,94.636574,CO,3,12,5
India,Assam,Sivasagar,"Girls College, Sivasagar - PCBA",11-04-2024 17:00:00,26.987634,94.636574,OZONE,1,78,32
India,Bihar,Araria,"Kharahiya Basti, Araria - BSPCB",11-04-2024 17:00:00,26.146529,87.454184,SO2,13,20,17
India,Bihar,Arrah,"New DM Office, Arrah - BSPCB",11-04-2024 17:00:00,25.5626095,84.663264,PM10,51,223,107
India,Bihar,Aurangabad,"Gurdeo Nagar, Aurangabad - BSPCB",11-04-2024 17:00:00,24.75746,84.366208,PM2.5,NA,NA,NA
India,Bihar,Aurangabad,"Gurdeo Nagar, Aurangabad - BSPCB",11-04-2024 17:00:00,24.75746,84.366208,SO2,3,11,7
India,Bihar,Bettiah,"Kamalnath Nagar, Bettiah - BSPCB",11-04-2024 17:00:00,26.80365,84.51954,NO2,NA,NA,NA
India,Bihar,Bettiah,"Kamalnath Nagar, Bettiah - BSPCB",11-04-2024 17:00:00,26.80365,84.51954,SO2,6,22,15
India,Bihar,Bhagalpur,"DM Office_Kachari Chowk, Bhagalpur - BSPCB",11-04-2024 17:00:00,25.251013,86.989001,NH3,9,13,11
India,Bihar,Bhagalpur,"DM Office_Kachari Chowk, Bhagalpur - BSPCB",11-04-2024 17:00:00,25.251013,86.989001,SO2,11,17,16
India,Bihar,Bhagalpur,"DM Office_Kachari Chowk, Bhagalpur - BSPCB",11-04-2024 17:00:00,25.251013,86.989001,OZONE,44,67,49
India,Bihar,Bhagalpur,"Mayaganj, Bhagalpur - BSPCB",11-04-2024 17:00:00,25.265194,87.012947,PM10,103,272,202
India,Bihar,Bhagalpur,"Mayaganj, Bhagalpur - BSPCB",11-04-2024 17:00:00,25.265194,87.012947,SO2,3,12,12
India,Bihar,Bihar Sharif,"D M Colony, Bihar Sharif - BSPCB",11-04-2024 17:00:00,25.204762,85.514960,PM10,58,256,113
India,Bihar,Bihar Sharif,"D M Colony, Bihar Sharif - BSPCB",11-04-2024 17:00:00,25.204762,85.514960,NH3,2,2,2
India,Bihar,Bihar Sharif,"D M Colony, Bihar Sharif - BSPCB",11-04-2024 17:00:00,25.204762,85.514960,OZONE,2,60,13
India,Bihar,Buxar,"Charitra Van, Buxar - BSPCB (Formerly known as Central Jail)",11-04-2024 17:00:00,25.567520,83.966379,PM2.5,NA,NA,NA
India,Bihar,Chhapra,"Darshan Nagar, Chhapra - BSPCB",11-04-2024 17:00:00,25.7808257,84.7446768,CO,47,79,67
India,Bihar,Gaya,"Kareemganj, Gaya - BSPCB",11-04-2024 17:00:00,24.792403,84.992416,PM2.5,12,203,61
India,Bihar,Gaya,"Kareemganj, Gaya - BSPCB",11-04-2024 17:00:00,24.792403,84.992416,PM10,49,189,93
India,Bihar,Gaya,"Kareemganj, Gaya - BSPCB",11-04-2024 17:00:00,24.792403,84.992416,CO,8,104,45
India,Bihar,Gaya,"SFTI Kusdihra, Gaya - BSPCB",11-04-2024 17:00:00,24.762518,84.982348,SO2,7,12,9
India,Bihar,Gaya,"SFTI Kusdihra, Gaya - BSPCB",11-04-2024 17:00:00,24.762518,84.982348,OZONE,1,72,52
India,Bihar,Hajipur,"Industrial Area, Hajipur - BSPCB",11-04-2024 17:00:00,25.697189,85.245900,PM10,118,434,283
India,Bihar,Hajipur,"Industrial Area, Hajipur - BSPCB",11-04-2024 17:00:00,25.697189,85.245900,NO2,53,76,64
India,Bihar,Katihar,"Mirchaibari, Katihar - BSPCB",11-04-2024 17:00:00,25.560083,87.553265,SO2,17,25,20
India,Bihar,Katihar,"Mirchaibari, Katihar - BSPCB",11-04-2024 17:00:00,25.560083,87.553265,CO,46,64,56
India,Bihar,Kishanganj,"SDM Office_Khagra, Kishanganj - BSPCB",11-04-2024 17:00:00,26.0881305,87.93840336,PM10,80,448,176
India,Bihar,Manguraha,"Forest Rest House, Manguraha - BSPCB",11-04-2024 17:00:00,27.308328,84.531742,PM10,NA,NA,NA
India,Bihar,Munger,"Town Hall, Munger - BSPCB",11-04-2024 17:00:00,25.376776,86.471523,NH3,1,2,2
India,Bihar,Patna,"DRM Office Danapur, Patna - BSPCB",11-04-2024 17:00:00,25.586562,85.043586,SO2,8,14,10
India,Bihar,Patna,"Govt. High School Shikarpur, Patna - BSPCB",11-04-2024 17:00:00,25.592539,85.227158,PM2.5,58,365,239
India,Bihar,Patna,"Govt. High School Shikarpur, Patna - BSPCB",11-04-2024 17:00:00,25.592539,85.227158,OZONE,1,59,49
India,Bihar,Patna,"IGSC Planetarium Complex, Patna - BSPCB",11-04-2024 17:00:00,25.610369,85.132568,SO2,5,6,6
India,Bihar,Patna,"Muradpur, Patna - BSPCB",11-04-2024 17:00:00,25.619651,85.147382,NO2,9,20,15
India,Bihar,Patna,"Rajbansi Nagar, Patna - BSPCB",11-04-2024 17:00:00,25.599486,85.113666,NO2,14,56,32
India,Bihar,Patna,"Rajbansi Nagar, Patna - BSPCB",11-04-2024 17:00:00,25.599486,85.113666,OZONE,2,169,154
India,Bihar,Patna,"Samanpura, Patna - BSPCB",11-04-2024 17:00:00,25.596727,85.085624,PM10,129,489,294
India,Bihar,Saharsa,"Police Line, Saharsa - BSPCB",11-04-2024 17:00:00,25.892357,86.590325,PM10,86,204,136
India,Bihar,Saharsa,"Police Line, Saharsa - BSPCB",11-04-2024 17:00:00,25.892357,86.590325,SO2,16,16,16
India,Bihar,Samastipur,"DM Office_Kasipur, Samastipur - BSPCB",11-04-2024 17:00:00,25.859655,85.77944,NH3,3,5,4
India,Bihar,Samastipur,"DM Office_Kasipur, Samastipur - BSPCB",11-04-2024 17:00:00,25.859655,85.77944,CO,NA,NA,NA
India,Bihar,Sasaram,"Dada Peer, Sasaram - BSPCB",11-04-2024 17:00:00,24.952822,84.002396,CO,116,116,116
India,Bihar,Sasaram,"Dada Peer, Sasaram - BSPCB",11-04-2024 17:00:00,24.952822,84.002396,OZONE,6,102,88
India,Bihar,Siwan,"Chitragupta Nagar, Siwan - BSPCB",11-04-2024 17:00:00,26.2271665,84.3570427,NH3,1,41,7
India,Chandigarh,Chandigarh,"Sector 22, Chandigarh - CPCC",11-04-2024 17:00:00,30.735567,76.775714,NH3,4,12,8
India,Chandigarh,Chandigarh,"Sector 22, Chandigarh - CPCC",11-04-2024 17:00:00,30.735567,76.775714,SO2,6,56,18
India,Chandigarh,Chandigarh,"Sector 22, Chandigarh - CPCC",11-04-2024 17:00:00,30.735567,76.775714,OZONE,11,220,86
India,Chandigarh,Chandigarh,"Sector-25, Chandigarh - CPCC",11-04-2024 17:00:00,30.751462,76.762879,CO,10,55,19
India,Chandigarh,Chandigarh,"Sector-25, Chandigarh - CPCC",11-04-2024 17:00:00,30.751462,76.762879,OZONE,2,42,35
India,Chandigarh,Chandigarh,"Sector-53, Chandigarh - CPCC",11-04-2024 17:00:00,30.719859,76.738637,PM2.5,22,113,58
India,Chhattisgarh,Bhilai,"Hathkhoj, Bhilai - CECB",11-04-2024 17:00:00,21.224231,81.408350,PM2.5,6,61,24
India,Chhattisgarh,Bhilai,"Hathkhoj, Bhilai - CECB",11-04-2024 17:00:00,21.224231,81.408350,SO2,10,14,11
India,Chhattisgarh,Bhilai,"Hathkhoj, Bhilai - CECB",11-04-2024 17:00:00,21.224231,81.408350,CO,10,71,32
India,Chhattisgarh,Chhal,"Nawapara SECL Colony, Chhal - CECB",11-04-2024 17:00:00,22.118125,83.140608,PM2.5,NA,NA,NA
India,Chhattisgarh,Korba,"Rampur, Korba - CECB",11-04-2024 17:00:00,22.368195,82.746431,NH3,1,1,1
India,Chhattisgarh,Korba,"Rampur, Korba - CECB",11-04-2024 17:00:00,22.368195,82.746431,SO2,9,23,17
India,Chhattisgarh,Korba,"Urja Nagar, Korba - CECB",11-04-2024 17:00:00,22.348441,82.549611,NO2,27,63,55
India,Chhattisgarh,Kunjemura,"OP Jindal School, Kunjemura - CECB",11-04-2024 17:00:00,22.126650,83.483212,SO2,NA,NA,NA
India,Chhattisgarh,Raipur,"AIIMS, Raipur - CECB",11-04-2024 17:00:00,21.258815,81.578979,PM2.5,8,39,20
India,Chhattisgarh,Tumidih,"OP Jindal Industrial Park, Tumidih - CECB",11-04-2024 17:00:00,22.06631475,83.33820077,NH3,1,2,2
India,Delhi,Delhi,"Anand Vihar, Delhi - DPCC",11-04-2024 17:00:00,28.647622,77.3158090,CO,99,134,104
India,Delhi,Delhi,"Anand Vihar, Delhi - DPCC",11-04-2024 17:00:00,28.647622,77.3158090,OZONE,6,185,107
India,Delhi,Delhi,"Ashok Vihar, Delhi - DPCC",11-04-2024 17:00:00,28.695381,77.181665,PM10,102,440,263
India,Delhi,Delhi,"Ashok Vihar, Delhi - DPCC",11-04-2024 17:00:00,28.695381,77.181665,NO2,16,146,80
India,Delhi,Delhi,"Aya Nagar, Delhi - IMD",11-04-2024 17:00:00,28.4706914,77.1099364,NO2,68,92,77
India,Delhi,Delhi,"Aya Nagar, Delhi - IMD",11-04-2024 17:00:00,28.4706914,77.1099364,CO,10,98,77
India,Delhi,Delhi,"Burari Crossing, Delhi - IMD",11-04-2024 17:00:00,28.7256504,77.2011573,NO2,16,25,20
India,Delhi,Delhi,"Burari Crossing, Delhi - IMD",11-04-2024 17:00:00,28.7256504,77.2011573,OZONE,15,154,81
India,Delhi,Delhi,"Chandni Chowk, Delhi - IITM",11-04-2024 17:00:00,28.656756,77.227234,SO2,26,79,46
India,Delhi,Delhi,"DTU, Delhi - CPCB",11-04-2024 17:00:00,28.7500499,77.1112615,PM2.5,72,357,239
India,Delhi,Delhi,"Dwarka-Sector 8, Delhi - DPCC ",11-04-2024 17:00:00,28.5710274,77.0719006,PM2.5,67,337,136
India,Delhi,Delhi,"Dwarka-Sector 8, Delhi - DPCC ",11-04-2024 17:00:00,28.5710274,77.0719006,SO2,6,28,13
India,Delhi,Delhi,"Dwarka-Sector 8, Delhi - DPCC ",11-04-2024 17:00:00,28.5710274,77.0719006,OZONE,2,159,76
India,Delhi,Delhi,"IGI Airport (T3), Delhi - IMD",11-04-2024 17:00:00,28.5627763,77.1180053,OZONE,1,89,46
India,Delhi,Delhi,"IHBAS, Dilshad Garden, Delhi - CPCB",11-04-2024 17:00:00,28.6811736,77.3025234,PM10,110,226,171
India,Delhi,Delhi,"IHBAS, Dilshad Garden, Delhi - CPCB",11-04-2024 17:00:00,28.6811736,77.3025234,SO2,12,53,32
India,Delhi,Delhi,"ITO, Delhi - CPCB",11-04-2024 17:00:00,28.628624,77.241060,NH3,3,14,7
India,Delhi,Delhi,"ITO, Delhi - CPCB",11-04-2024 17:00:00,28.628624,77.241060,SO2,12,46,24
India,Delhi,Delhi,"Jawaharlal Nehru Stadium, Delhi - DPCC",11-04-2024 17:00:00,28.580280,77.233829,PM2.5,37,277,90
India,Delhi,Delhi,"Jawaharlal Nehru Stadium, Delhi - DPCC",11-04-2024 17:00:00,28.580280,77.233829,PM10,101,262,167
India,Delhi,Delhi,"Jawaharlal Nehru Stadium, Delhi - DPCC",11-04-2024 17:00:00,28.580280,77.233829,NH3,5,11,8
India,Delhi,Delhi,"Jawaharlal Nehru Stadium, Delhi - DPCC",11-04-2024 17:00:00,28.580280,77.233829,CO,24,109,39
India,Delhi,Delhi,"Lodhi Road, Delhi - IITM",11-04-2024 17:00:00,28.588333,77.221667,PM10,127,315,219
India,Delhi,Delhi,"Lodhi Road, Delhi - IITM",11-04-2024 17:00:00,28.588333,77.221667,SO2,21,45,30
India,Delhi,Delhi,"Lodhi Road, Delhi - IMD",11-04-2024 17:00:00,28.5918245,77.2273074,PM10,105,218,135
India,Delhi,Delhi,"Major Dhyan Chand National Stadium, Delhi - DPCC",11-04-2024 17:00:00,28.611281,77.237738,PM2.5,52,329,136
India,Delhi,Delhi,"Mandir Marg, Delhi - DPCC",11-04-2024 17:00:00,28.636429,77.201067,PM2.5,46,323,99
India,Delhi,Delhi,"Mandir Marg, Delhi - DPCC",11-04-2024 17:00:00,28.636429,77.201067,PM10,67,248,124
India,Delhi,Delhi,"Mandir Marg, Delhi - DPCC",11-04-2024 17:00:00,28.636429,77.201067,OZONE,1,39,18
India,Delhi,Delhi,"Mundka, Delhi - DPCC",11-04-2024 17:00:00,28.684678,77.076574,SO2,8,26,15
India,Delhi,Delhi,"Mundka, Delhi - DPCC",11-04-2024 17:00:00,28.684678,77.076574,CO,12,104,36
India,Delhi,Delhi,"NSIT Dwarka, Delhi - CPCB",11-04-2024 17:00:00,28.60909,77.0325413,SO2,2,49,27
India,Delhi,Delhi,"NSIT Dwarka, Delhi - CPCB",11-04-2024 17:00:00,28.60909,77.0325413,OZONE,3,176,66
India,Delhi,Delhi,"Najafgarh, Delhi - DPCC",11-04-2024 17:00:00,28.570173,76.933762,SO2,9,15,12
India,Delhi,Delhi,"Narela, Delhi - DPCC",11-04-2024 17:00:00,28.822836,77.101981,CO,15,84,31
India,Delhi,Delhi,"Nehru Nagar, Delhi - DPCC",11-04-2024 17:00:00,28.567890,77.250515,NH3,3,3,3
India,Delhi,Delhi,"Nehru Nagar, Delhi - DPCC",11-04-2024 17:00:00,28.567890,77.250515,SO2,4,8,6
India,Delhi,Delhi,"North Campus, DU, Delhi - IMD",11-04-2024 17:00:00,28.6573814,77.1585447,PM2.5,NA,NA,NA
India,Delhi,Delhi,"Okhla Phase-2, Delhi - DPCC",11-04-2024 17:00:00,28.530785,77.271255,PM2.5,49,317,157
India,Delhi,Delhi,"Okhla Phase-2, Delhi - DPCC",11-04-2024 17:00:00,28.530785,77.271255,NO2,39,182,105
India,Delhi,Delhi,"Okhla Phase-2, Delhi - DPCC",11-04-2024 17:00:00,28.530785,77.271255,CO,4,112,50
India,Delhi,Delhi,"Okhla Phase-2, Delhi - DPCC",11-04-2024 17:00:00,28.530785,77.271255,OZONE,10,166,95
India,Delhi,Delhi,"Punjabi Bagh, Delhi - DPCC",11-04-2024 17:00:00,28.674045,77.131023,PM2.5,49,379,163
India,Delhi,Delhi,"Punjabi Bagh, Delhi - DPCC",11-04-2024 17:00:00,28.674045,77.131023,CO,5,90,26
India,Delhi,Delhi,"Pusa, Delhi - DPCC",11-04-2024 17:00:00,28.639652,77.146275,NO2,NA,NA,NA
India,Delhi,Delhi,"Pusa, Delhi - DPCC",11-04-2024 17:00:00,28.639652,77.146275,OZONE,19,222,91
India,Delhi,Delhi,"Pusa, Delhi - IMD",11-04-2024 17:00:00,28.636110,77.173332,NO2,NA,NA,NA
India,Delhi,Delhi,"R K Puram, Delhi - DPCC",11-04-2024 17:00:00,28.563262,77.186937,SO2,4,38,17
India,Delhi,Delhi,"Rohini, Delhi - DPCC",11-04-2024 17:00:00,28.732528,77.119920,NH3,9,19,13
India,Delhi,Delhi,"Rohini, Delhi - DPCC",11-04-2024 17:00:00,28.732528,77.119920,SO2,10,60,23
India,Delhi,Delhi,"Rohini, Delhi - DPCC",11-04-2024 17:00:00,28.732528,77.119920,OZONE,5,205,162
India,Delhi,Delhi,"Shadipur, Delhi - CPCB",11-04-2024 17:00:00,28.6514781,77.1473105,PM10,111,490,267
India,Delhi,Delhi,"Shadipur, Delhi - CPCB",11-04-2024 17:00:00,28.6514781,77.1473105,CO,17,111,69
India,Delhi,Delhi,"Sirifort, Delhi - CPCB",11-04-2024 17:00:00,28.5504249,77.2159377,NO2,52,73,64
India,Delhi,Delhi,"Sirifort, Delhi - CPCB",11-04-2024 17:00:00,28.5504249,77.2159377,CO,14,102,42
India,Delhi,Delhi,"Sonia Vihar, Delhi - DPCC",11-04-2024 17:00:00,28.710508,77.249485,SO2,13,56,23
India,Delhi,Delhi,"Vivek Vihar, Delhi - DPCC",11-04-2024 17:00:00,28.672342,77.315260,PM2.5,67,354,182
India,Delhi,Delhi,"Vivek Vihar, Delhi - DPCC",11-04-2024 17:00:00,28.672342,77.315260,NO2,32,132,80
India,Gujarat,Ahmedabad,"Chandkheda, Ahmedabad - IITM",11-04-2024 17:00:00,23.107969,72.574648,PM2.5,60,228,134
India,Gujarat,Ahmedabad,"Chandkheda, Ahmedabad - IITM",11-04-2024 17:00:00,23.107969,72.574648,PM10,72,158,118
India,Gujarat,Ahmedabad,"Chandkheda, Ahmedabad - IITM",11-04-2024 17:00:00,23.107969,72.574648,NH3,2,5,4
India,Gujarat,Ahmedabad,"Chandkheda, Ahmedabad - IITM",11-04-2024 17:00:00,23.107969,72.574648,OZONE,5,70,46
India,Gujarat,Ahmedabad,"Gyaspur, Ahmedabad - IITM",11-04-2024 17:00:00,22.977134,72.553024,NO2,21,66,37
India,Gujarat,Ahmedabad,"Gyaspur, Ahmedabad - IITM",11-04-2024 17:00:00,22.977134,72.553024,NH3,11,15,13
India,Gujarat,Ahmedabad,"Raikhad, Ahmedabad - IITM",11-04-2024 17:00:00,23.020509,72.579261,NO2,40,220,91
India,Gujarat,Ahmedabad,"Raikhad, Ahmedabad - IITM",11-04-2024 17:00:00,23.020509,72.579261,SO2,1,29,12
India,Gujarat,Ahmedabad,"Rakhial, Ahmedabad - IITM",11-04-2024 17:00:00,23.016834,72.625775,CO,4,103,56
India,Gujarat,Ahmedabad,"SAC ISRO Satellite, Ahmedabad - IITM",11-04-2024 17:00:00,23.023389,72.515201,PM10,80,114,101
India,Gujarat,Ahmedabad,"SAC ISRO Satellite, Ahmedabad - IITM",11-04-2024 17:00:00,23.023389,72.515201,NH3,3,3,3
India,Gujarat,Ahmedabad,"SAC ISRO Satellite, Ahmedabad - IITM",11-04-2024 17:00:00,23.023389,72.515201,CO,28,38,32
India,Gujarat,Ahmedabad,"Sardar Vallabhbhai Patel Stadium, Ahmedabad - IITM",11-04-2024 17:00:00,23.043070,72.562968,NH3,7,7,7
India,Gujarat,Ahmedabad,"Sardar Vallabhbhai Patel Stadium, Ahmedabad - IITM",11-04-2024 17:00:00,23.043070,72.562968,OZONE,6,22,17
India,Gujarat,Gandhinagar,"IIPHG Lekawada, Gandhinagar - IITM",11-04-2024 17:00:00,23.243639,72.68994,NO2,NA,NA,NA
India,Gujarat,Gandhinagar,"IIPHG Lekawada, Gandhinagar - IITM",11-04-2024 17:00:00,23.243639,72.68994,SO2,NA,NA,NA
India,Gujarat,Gandhinagar,"Sector-10, Gandhinagar - GPCB",11-04-2024 17:00:00,23.221714,72.654328,PM10,47,111,82
India,Gujarat,Nandesari,"GIDC, Nandesari - Nandesari Ind. Association",11-04-2024 17:00:00,22.410802,73.097923,PM10,100,340,169
India,Gujarat,Vapi,"Phase-1 GIDC, Vapi - GPCB",11-04-2024 17:00:00,20.362421,72.918013,SO2,50,53,52
India,Gujarat,Vapi,"Phase-1 GIDC, Vapi - GPCB",11-04-2024 17:00:00,20.362421,72.918013,OZONE,1,3,2
India,Haryana,Ambala,"Patti Mehar, Ambala - HSPCB",11-04-2024 17:00:00,30.379589,76.778328,PM10,32,80,54
India,Haryana,Ambala,"Patti Mehar, Ambala - HSPCB",11-04-2024 17:00:00,30.379589,76.778328,OZONE,38,60,44
India,Haryana,Bahadurgarh,"Arya Nagar, Bahadurgarh - HSPCB",11-04-2024 17:00:00,28.6701,76.9254,OZONE,38,50,43
India,Haryana,Ballabgarh,"Nathu Colony, Ballabgarh - HSPCB",11-04-2024 17:00:00,28.3419248,77.319699,NO2,12,13,13
India,Haryana,Ballabgarh,"Nathu Colony, Ballabgarh - HSPCB",11-04-2024 17:00:00,28.3419248,77.319699,NH3,1,2,2
India,Haryana,Ballabgarh,"Nathu Colony, Ballabgarh - HSPCB",11-04-2024 17:00:00,28.3419248,77.319699,SO2,4,52,19
India,Haryana,Bhiwani,"H.B. Colony, Bhiwani - HSPCB",11-04-2024 17:00:00,28.806223,76.141105,PM2.5,68,314,210
India,Haryana,Bhiwani,"H.B. Colony, Bhiwani - HSPCB",11-04-2024 17:00:00,28.806223,76.141105,NH3,6,6,6
India,Haryana,Bhiwani,"H.B. Colony, Bhiwani - HSPCB",11-04-2024 17:00:00,28.806223,76.141105,OZONE,10,17,15
India,Haryana,Charkhi Dadri,"Mini Secretariat, Charkhi Dadri - HSPCB",11-04-2024 17:00:00,28.593883,76.270653,SO2,10,70,27
India,Haryana,Dharuhera,"Municipal Corporation Office, Dharuhera -  HSPCB",11-04-2024 17:00:00,28.206800,76.799700,CO,8,34,19
India,Haryana,Faridabad,"New Industrial Town, Faridabad - HSPCB",11-04-2024 17:00:00,28.39072,77.30059,SO2,9,11,10
India,Haryana,Faridabad,"Sector 11, Faridabad - HSPCB",11-04-2024 17:00:00,28.376058,77.315741,OZONE,16,50,23
India,Haryana,Fatehabad,"Huda Sector, Fatehabad - HSPCB",11-04-2024 17:00:00,29.503664,75.467934,PM10,60,85,75
India,Haryana,Fatehabad,"Huda Sector, Fatehabad - HSPCB",11-04-2024 17:00:00,29.503664,75.467934,SO2,10,11,11
India,Haryana,Gurugram,"Sector-51, Gurugram - HSPCB",11-04-2024 17:00:00,28.4227,77.0667,PM2.5,175,423,336
India,Haryana,Gurugram,"Sector-51, Gurugram - HSPCB",11-04-2024 17:00:00,28.4227,77.0667,NO2,13,29,23
India,Haryana,Gurugram,"Sector-51, Gurugram - HSPCB",11-04-2024 17:00:00,28.4227,77.0667,NH3,7,14,9
India,Haryana,Gurugram,"Teri Gram, Gurugram - HSPCB",11-04-2024 17:00:00,28.4275,77.1465,NO2,NA,NA,NA
India,Haryana,Gurugram,"Teri Gram, Gurugram - HSPCB",11-04-2024 17:00:00,28.4275,77.1465,OZONE,22,46,31
India,Haryana,Gurugram,"Vikas Sadan, Gurugram - HSPCB",11-04-2024 17:00:00,28.4501238,77.0263051,NO2,5,26,14
India,Haryana,Hisar,"Urban Estate-II, Hisar - HSPCB",11-04-2024 17:00:00,29.140560,75.744941,PM10,84,184,139
India,Haryana,Hisar,"Urban Estate-II, Hisar - HSPCB",11-04-2024 17:00:00,29.140560,75.744941,NH3,9,12,10
India,Haryana,Hisar,"Urban Estate-II, Hisar - HSPCB",11-04-2024 17:00:00,29.140560,75.744941,OZONE,48,226,218
India,Haryana,Kaithal,"Rishi Nagar, Kaithal - HSPCB",11-04-2024 17:00:00,29.8006,76.4155,SO2,18,111,41
India,Haryana,Kaithal,"Rishi Nagar, Kaithal - HSPCB",11-04-2024 17:00:00,29.8006,76.4155,CO,5,68,8
India,Haryana,Kaithal,"Rishi Nagar, Kaithal - HSPCB",11-04-2024 17:00:00,29.8006,76.4155,OZONE,5,14,11
India,Haryana,Narnaul,"Shastri Nagar, Narnaul - HSPCB",11-04-2024 17:00:00,28.060249,76.113115,PM2.5,43,97,66
India,Haryana,Palwal,"Shyam Nagar, Palwal - HSPCB",11-04-2024 17:00:00,28.1485564,77.3320667,PM2.5,50,103,67
India,Haryana,Palwal,"Shyam Nagar, Palwal - HSPCB",11-04-2024 17:00:00,28.1485564,77.3320667,PM10,60,232,131
India,Haryana,Palwal,"Shyam Nagar, Palwal - HSPCB",11-04-2024 17:00:00,28.1485564,77.3320667,NH3,8,9,9
India,Haryana,Palwal,"Shyam Nagar, Palwal - HSPCB",11-04-2024 17:00:00,28.1485564,77.3320667,SO2,5,18,12
India,Haryana,Panchkula,"Sector-6, Panchkula - HSPCB ",11-04-2024 17:00:00,30.7057778,76.8531805555555,NO2,9,11,10
India,Haryana,Panipat,"Sector-18, Panipat - HSPCB",11-04-2024 17:00:00,29.497973,76.993331,SO2,18,19,19
India,Haryana,Rohtak,"MD University, Rohtak - HSPCB",11-04-2024 17:00:00,28.52123,76.37138,OZONE,45,55,50
India,Haryana,Sirsa,"F-Block, Sirsa - HSPCB",11-04-2024 17:00:00,29.536400,75.015800,NO2,9,10,10
India,Haryana,Sirsa,"F-Block, Sirsa - HSPCB",11-04-2024 17:00:00,29.536400,75.015800,SO2,72,85,78
India,Haryana,Yamuna Nagar,"Gobind Pura, Yamuna Nagar - HSPCB",11-04-2024 17:00:00,30.1480566,77.2893471,SO2,1,74,15
India,Himachal Pradesh,Baddi,"HIMUDA Complex Phase-1, Baddi - HPPCB",11-04-2024 17:00:00,30.943887,76.801991,SO2,9,84,24
India,Jharkhand,Dhanbad,"Kalakusuma, Dhanbad - DMC",11-04-2024 17:00:00,23.811548,86.481238,PM10,NA,NA,NA
India,Jharkhand,Dhanbad,"Sardar Patel Nagar, Dhanbad - JSPCB",11-04-2024 17:00:00,23.80569,86.44268,CO,33,184,153
India,Jharkhand,Dhanbad,"Sardar Patel Nagar, Dhanbad - JSPCB",11-04-2024 17:00:00,23.80569,86.44268,OZONE,12,29,21
India,Jharkhand,Pathardih,"Mohalbani Ghat, Pathardih - DMC",11-04-2024 17:00:00,23.669880,86.411725,OZONE,11,26,21
India,Karnataka,Bengaluru,"BTM Layout, Bengaluru - CPCB",11-04-2024 17:00:00,12.9135218,77.5950804,NH3,4,5,5
India,Karnataka,Bengaluru,"Bapuji Nagar, Bengaluru - KSPCB",11-04-2024 17:00:00,12.951913,77.539784,CO,28,52,44
