country,state,city,station,last_update,latitude,longitude,pollutant_id,pollutant_min,pollutant_max,pollutant_avg
India,Andhra_Pradesh,Amaravati,"Secretariat, Amaravati - APPCB",04-06-2024 15:00:00,16.5150833,80.5181667,NH3,2,4,4
India,Andhra_Pradesh,Anantapur,"Gulzarpet, Anantapur - APPCB",04-06-2024 15:00:00,14.675886,77.593027,SO2,1,3,1
India,Andhra_Pradesh,Chittoor,"Gangineni Cheruvu, Chittoor - APPCB",04-06-2024 15:00:00,13.204880,79.097889,PM2.5,12,31,22
India,Andhra_Pradesh,Chittoor,"Gangineni Cheruvu, Chittoor - APPCB",04-06-2024 15:00:00,13.204880,79.097889,CO,16,45,22
India,Andhra_Pradesh,Kadapa,"Yerramukkapalli, Kadapa - APPCB",04-06-2024 15:00:00,14.465052,78.824187,PM2.5,NA,NA,NA
India,Andhra_Pradesh,Rajamahendravaram,"Anand Kala Kshetram, Rajamahendravaram - APPCB",04-06-2024 15:00:00,16.9872867,81.7363176,PM2.5,31,178,58
India,Andhra_Pradesh,Tirupati,"Tirumala, Tirupati - APPCB",04-06-2024 15:00:00,13.67,79.35,NO2,16,30,22
India,Andhra_Pradesh,Tirupati,"Tirumala, Tirupati - APPCB",04-06-2024 15:00:00,13.67,79.35,NH3,1,2,1
India,Andhra_Pradesh,Vijayawada,"HB Colony, Vijayawada - APPCB",04-06-2024 15:00:00,16.536107,80.594233,SO2,6,7,6
India,Andhra_Pradesh,Vijayawada,"Kanuru, Vijayawada - APPCB",04-06-2024 15:00:00,16.486692,80.699436,PM10,NA,NA,NA
India,Andhra_Pradesh,Vijayawada,"Kanuru, Vijayawada - APPCB",04-06-2024 15:00:00,16.486692,80.699436,NO2,NA,NA,NA
India,Andhra_Pradesh,Vijayawada,"Kanuru, Vijayawada - APPCB",04-06-2024 15:00:00,16.486692,80.699436,CO,36,36,36
India,Andhra_Pradesh,Vijayawada,"Rajiv Gandhi Park, Vijayawada - APPCB",04-06-2024 15:00:00,16.509717,80.612222,PM2.5,37,57,48
India,Andhra_Pradesh,Vijayawada,"Rajiv Gandhi Park, Vijayawada - APPCB",04-06-2024 15:00:00,16.509717,80.612222,NO2,28,39,35
India,Andhra_Pradesh,Vijayawada,"Rajiv Gandhi Park, Vijayawada - APPCB",04-06-2024 15:00:00,16.509717,80.612222,NH3,3,5,4
India,Andhra_Pradesh,Vijayawada,"Rajiv Nagar, Vijayawada - APPCB",04-06-2024 15:00:00,16.554731,80.649110,PM2.5,47,49,47
India,Andhra_Pradesh,Visakhapatnam,"GVM Corporation, Visakhapatnam - APPCB",04-06-2024 15:00:00,17.72,83.3,PM10,55,146,109
India,Andhra_Pradesh,Visakhapatnam,"GVM Corporation, Visakhapatnam - APPCB",04-06-2024 15:00:00,17.72,83.3,SO2,10,19,14
India,Arunachal_Pradesh,Naharlagun,"Naharlagun, Naharlagun - APSPCB",04-06-2024 15:00:00,27.103358,93.679645,PM2.5,NA,NA,NA
India,Assam,Byrnihat,"Central Academy for SFS, Byrnihat - PCBA",04-06-2024 15:00:00,26.071318,91.87488,SO2,6,65,25
India,Assam,Guwahati,"IITG, Guwahati - PCBA",04-06-2024 15:00:00,26.2028636,91.70046436,NH3,5,5,5
India,Assam,Guwahati,"LGBI Airport, Guwahati - PCBA",04-06-2024 15:00:00,26.10887,91.589544,PM2.5,NA,NA,NA
India,Assam,Guwahati,"LGBI Airport, Guwahati - PCBA",04-06-2024 15:00:00,26.10887,91.589544,NH3,NA,NA,NA
India,Assam,Guwahati,"LGBI Airport, Guwahati - PCBA",04-06-2024 15:00:00,26.10887,91.589544,CO,48,57,55
India,Assam,Guwahati,"Pan Bazaar, Guwahati - PCBA",04-06-2024 15:00:00,26.187500,91.744194,NO2,NA,NA,NA
India,Assam,Guwahati,"Railway Colony, Guwahati - PCBA",04-06-2024 15:00:00,26.181742,91.78063,PM2.5,6,52,21
India,Assam,Guwahati,"Railway Colony, Guwahati - PCBA",04-06-2024 15:00:00,26.181742,91.78063,NO2,3,4,3
India,Assam,Guwahati,"Railway Colony, Guwahati - PCBA",04-06-2024 15:00:00,26.181742,91.78063,SO2,7,13,10
India,Assam,Guwahati,"Railway Colony, Guwahati - PCBA",04-06-2024 15:00:00,26.181742,91.78063,CO,20,35,26
India,Assam,Nagaon,"Christianpatty, Nagaon - PCBA",04-06-2024 15:00:00,26.349082,92.68449,PM10,38,133,78
India,Assam,Nagaon,"Christianpatty, Nagaon - PCBA",04-06-2024 15:00:00,26.349082,92.68449,NH3,1,39,5
India,Assam,Nagaon,"Christianpatty, Nagaon - PCBA",04-06-2024 15:00:00,26.349082,92.68449,SO2,5,87,26
India,Assam,Nalbari,"Bata Chowk, Nalbari - PCBA",04-06-2024 15:00:00,26.446912,91.439057,NH3,2,2,2
India,Assam,Nalbari,"Bata Chowk, Nalbari - PCBA",04-06-2024 15:00:00,26.446912,91.439057,SO2,4,12,9
India,Assam,Nalbari,"Bata Chowk, Nalbari - PCBA",04-06-2024 15:00:00,26.446912,91.439057,CO,8,64,56
India,Assam,Nalbari,"Bata Chowk, Nalbari - PCBA",04-06-2024 15:00:00,26.446912,91.439057,OZONE,15,55,38
India,Assam,Silchar,"Tarapur, Silchar - PCBA",04-06-2024 15:00:00,24.82827,92.79525,NO2,14,14,14
India,Assam,Silchar,"Tarapur, Silchar - PCBA",04-06-2024 15:00:00,24.82827,92.79525,CO,19,27,22
India,Assam,Silchar,"Tarapur, Silchar - PCBA",04-06-2024 15:00:00,24.82827,92.79525,OZONE,1,7,3
India,Bihar,Araria,"Kharahiya Basti, Araria - BSPCB",04-06-2024 15:00:00,26.146529,87.454184,PM10,NA,NA,NA
India,Bihar,Arrah,"New DM Office, Arrah - BSPCB",04-06-2024 15:00:00,25.5626095,84.663264,PM2.5,25,147,54
India,Bihar,Arrah,"New DM Office, Arrah - BSPCB",04-06-2024 15:00:00,25.5626095,84.663264,PM10,38,244,94
India,Bihar,Arrah,"New DM Office, Arrah - BSPCB",04-06-2024 15:00:00,25.5626095,84.663264,NO2,8,15,12
India,Bihar,Arrah,"New DM Office, Arrah - BSPCB",04-06-2024 15:00:00,25.5626095,84.663264,NH3,5,8,6
India,Bihar,Aurangabad,"Gurdeo Nagar, Aurangabad - BSPCB",04-06-2024 15:00:00,24.75746,84.366208,PM2.5,NA,NA,NA
India,Bihar,Bhagalpur,"Mayaganj, Bhagalpur - BSPCB",04-06-2024 15:00:00,25.265194,87.012947,OZONE,13,48,34
India,Bihar,Bihar Sharif,"D M Colony, Bihar Sharif - BSPCB",04-06-2024 15:00:00,25.204762,85.514960,PM10,40,118,83
India,Bihar,Buxar,"Charitra Van, Buxar - BSPCB (Formerly known as Central Jail)",04-06-2024 15:00:00,25.567520,83.966379,SO2,NA,NA,NA
India,Bihar,Buxar,"Charitra Van, Buxar - BSPCB (Formerly known as Central Jail)",04-06-2024 15:00:00,25.567520,83.966379,CO,31,56,41
India,Bihar,Chhapra,"Darshan Nagar, Chhapra - BSPCB",04-06-2024 15:00:00,25.7808257,84.7446768,NO2,11,22,16
India,Bihar,Gaya,"Collectorate, Gaya - BSPCB",04-06-2024 15:00:00,24.7955,84.9994,CO,47,134,128
India,Bihar,Gaya,"Collectorate, Gaya - BSPCB",04-06-2024 15:00:00,24.7955,84.9994,OZONE,43,87,61
India,Bihar,Gaya,"Kareemganj, Gaya - BSPCB",04-06-2024 15:00:00,24.792403,84.992416,NO2,19,25,21
India,Bihar,Gaya,"SFTI Kusdihra, Gaya - BSPCB",04-06-2024 15:00:00,24.762518,84.982348,PM10,61,113,87
India,Bihar,Gaya,"SFTI Kusdihra, Gaya - BSPCB",04-06-2024 15:00:00,24.762518,84.982348,NO2,11,107,36
India,Bihar,Hajipur,"Industrial Area, Hajipur - BSPCB",04-06-2024 15:00:00,25.697189,85.245900,CO,23,50,28
India,Bihar,Hajipur,"Industrial Area, Hajipur - BSPCB",04-06-2024 15:00:00,25.697189,85.245900,OZONE,5,53,17
India,Bihar,Katihar,"Mirchaibari, Katihar - BSPCB",04-06-2024 15:00:00,25.560083,87.553265,NO2,3,4,4
India,Bihar,Kishanganj,"SDM Office_Khagra, Kishanganj - BSPCB",04-06-2024 15:00:00,26.0881305,87.93840336,PM10,NA,NA,NA
India,Bihar,Manguraha,"Forest Rest House, Manguraha - BSPCB",04-06-2024 15:00:00,27.308328,84.531742,PM10,NA,NA,NA
India,Bihar,Munger,"Town Hall, Munger - BSPCB",04-06-2024 15:00:00,25.376776,86.471523,NO2,2,6,5
India,Bihar,Munger,"Town Hall, Munger - BSPCB",04-06-2024 15:00:00,25.376776,86.471523,NH3,2,3,3
India,Bihar,Munger,"Town Hall, Munger - BSPCB",04-06-2024 15:00:00,25.376776,86.471523,CO,42,102,80
India,Bihar,Muzaffarpur,"Buddha Colony, Muzaffarpur - BSPCB",04-06-2024 15:00:00,26.11442,85.39813,PM2.5,58,161,92
India,Bihar,Muzaffarpur,"Buddha Colony, Muzaffarpur - BSPCB",04-06-2024 15:00:00,26.11442,85.39813,NO2,12,29,18
India,Bihar,Muzaffarpur,"MIT-Daudpur Kothi, Muzaffarpur - BSPCB",04-06-2024 15:00:00,26.1403345,85.3650192,PM2.5,NA,NA,NA
India,Bihar,Muzaffarpur,"MIT-Daudpur Kothi, Muzaffarpur - BSPCB",04-06-2024 15:00:00,26.1403345,85.3650192,NH3,1,1,1
India,Bihar,Muzaffarpur,"MIT-Daudpur Kothi, Muzaffarpur - BSPCB",04-06-2024 15:00:00,26.1403345,85.3650192,CO,10,104,41
India,Bihar,Muzaffarpur,"Muzaffarpur Collectorate, Muzaffarpur - BSPCB",04-06-2024 15:00:00,26.1209,85.3647,PM2.5,65,287,114
India,Bihar,Muzaffarpur,"Muzaffarpur Collectorate, Muzaffarpur - BSPCB",04-06-2024 15:00:00,26.1209,85.3647,CO,16,45,26
India,Bihar,Muzaffarpur,"Muzaffarpur Collectorate, Muzaffarpur - BSPCB",04-06-2024 15:00:00,26.1209,85.3647,OZONE,26,78,36
India,Bihar,Patna,"DRM Office Danapur, Patna - BSPCB",04-06-2024 15:00:00,25.586562,85.043586,PM10,113,173,131
India,Bihar,Patna,"DRM Office Danapur, Patna - BSPCB",04-06-2024 15:00:00,25.586562,85.043586,NH3,2,3,3
India,Bihar,Patna,"DRM Office Danapur, Patna - BSPCB",04-06-2024 15:00:00,25.586562,85.043586,OZONE,11,99,55
India,Bihar,Patna,"Govt. High School Shikarpur, Patna - BSPCB",04-06-2024 15:00:00,25.592539,85.227158,NO2,35,39,37
India,Bihar,Patna,"Govt. High School Shikarpur, Patna - BSPCB",04-06-2024 15:00:00,25.592539,85.227158,OZONE,1,59,39
India,Bihar,Patna,"IGSC Planetarium Complex, Patna - BSPCB",04-06-2024 15:00:00,25.610369,85.132568,NO2,13,13,13
India,Bihar,Patna,"IGSC Planetarium Complex, Patna - BSPCB",04-06-2024 15:00:00,25.610369,85.132568,SO2,4,7,6
India,Bihar,Patna,"IGSC Planetarium Complex, Patna - BSPCB",04-06-2024 15:00:00,25.610369,85.132568,CO,10,18,15
India,Bihar,Patna,"IGSC Planetarium Complex, Patna - BSPCB",04-06-2024 15:00:00,25.610369,85.132568,OZONE,26,87,40
India,Bihar,Patna,"Muradpur, Patna - BSPCB",04-06-2024 15:00:00,25.619651,85.147382,NH3,3,6,5
India,Bihar,Patna,"Rajbansi Nagar, Patna - BSPCB",04-06-2024 15:00:00,25.599486,85.113666,SO2,4,14,8
India,Bihar,Patna,"Rajbansi Nagar, Patna - BSPCB",04-06-2024 15:00:00,25.599486,85.113666,CO,24,56,26
India,Bihar,Saharsa,"Police Line, Saharsa - BSPCB",04-06-2024 15:00:00,25.892357,86.590325,OZONE,34,79,64
India,Bihar,Samastipur,"DM Office_Kasipur, Samastipur - BSPCB",04-06-2024 15:00:00,25.859655,85.77944,NO2,4,5,4
India,Bihar,Sasaram,"Dada Peer, Sasaram - BSPCB",04-06-2024 15:00:00,24.952822,84.002396,NH3,6,23,11
India,Bihar,Sasaram,"Dada Peer, Sasaram - BSPCB",04-06-2024 15:00:00,24.952822,84.002396,CO,50,106,71
India,Bihar,Siwan,"Chitragupta Nagar, Siwan - BSPCB",04-06-2024 15:00:00,26.2271665,84.3570427,PM2.5,62,197,117
India,Bihar,Siwan,"Chitragupta Nagar, Siwan - BSPCB",04-06-2024 15:00:00,26.2271665,84.3570427,NO2,9,49,18
India,Chandigarh,Chandigarh,"Sector 22, Chandigarh - CPCC",04-06-2024 15:00:00,30.735567,76.775714,PM2.5,33,267,69
India,Chandigarh,Chandigarh,"Sector 22, Chandigarh - CPCC",04-06-2024 15:00:00,30.735567,76.775714,CO,26,42,37
India,Chandigarh,Chandigarh,"Sector-25, Chandigarh - CPCC",04-06-2024 15:00:00,30.751462,76.762879,CO,NA,NA,NA
India,Chandigarh,Chandigarh,"Sector-53, Chandigarh - CPCC",04-06-2024 15:00:00,30.719859,76.738637,PM2.5,NA,NA,NA
India,Chandigarh,Chandigarh,"Sector-53, Chandigarh - CPCC",04-06-2024 15:00:00,30.719859,76.738637,CO,36,46,43
India,Chandigarh,Chandigarh,"Sector-53, Chandigarh - CPCC",04-06-2024 15:00:00,30.719859,76.738637,OZONE,49,72,72
India,Chhattisgarh,Bhilai,"32Bungalows, Bhilai - CECB",04-06-2024 15:00:00,21.194815,81.314770,OZONE,7,73,38
India,Chhattisgarh,Bhilai,"Civic Center, Bhilai - Bhilai Steel Plant",04-06-2024 15:00:00,21.185571,81.343175,PM10,25,66,36
India,Chhattisgarh,Bhilai,"Hathkhoj, Bhilai - CECB",04-06-2024 15:00:00,21.224231,81.408350,PM2.5,16,79,41
India,Chhattisgarh,Bhilai,"Hathkhoj, Bhilai - CECB",04-06-2024 15:00:00,21.224231,81.408350,PM10,30,119,72
India,Chhattisgarh,Bhilai,"Hathkhoj, Bhilai - CECB",04-06-2024 15:00:00,21.224231,81.408350,SO2,11,17,13
India,Chhattisgarh,Bhilai,"Hathkhoj, Bhilai - CECB",04-06-2024 15:00:00,21.224231,81.408350,CO,10,52,18
India,Chhattisgarh,Bilaspur,"Mangala, Bilaspur - NTPC",04-06-2024 15:00:00,22.08815,82.13737,PM2.5,25,49,39
India,Chhattisgarh,Bilaspur,"Mangala, Bilaspur - NTPC",04-06-2024 15:00:00,22.08815,82.13737,PM10,34,64,48
India,Chhattisgarh,Bilaspur,"Mangala, Bilaspur - NTPC",04-06-2024 15:00:00,22.08815,82.13737,CO,36,43,38
India,Chhattisgarh,Kunjemura,"OP Jindal School, Kunjemura - CECB",04-06-2024 15:00:00,22.126650,83.483212,PM2.5,24,67,38
India,Chhattisgarh,Raipur,"AIIMS, Raipur - CECB",04-06-2024 15:00:00,21.258815,81.578979,PM10,38,75,51
India,Chhattisgarh,Raipur,"AIIMS, Raipur - CECB",04-06-2024 15:00:00,21.258815,81.578979,NH3,6,6,6
India,Chhattisgarh,Raipur,"Siltara Phase-II, Raipur - CECB",04-06-2024 15:00:00,21.371751,81.664929,PM2.5,22,301,71
India,Chhattisgarh,Raipur,"Siltara Phase-II, Raipur - CECB",04-06-2024 15:00:00,21.371751,81.664929,SO2,1,93,27
India,Chhattisgarh,Tumidih,"OP Jindal Industrial Park, Tumidih - CECB",04-06-2024 15:00:00,22.06631475,83.33820077,PM2.5,NA,NA,NA
India,Delhi,Delhi,"Alipur, Delhi - DPCC",04-06-2024 15:00:00,28.815329,77.153010,PM10,120,474,185
India,Delhi,Delhi,"Alipur, Delhi - DPCC",04-06-2024 15:00:00,28.815329,77.153010,NH3,3,7,5
India,Delhi,Delhi,"Alipur, Delhi - DPCC",04-06-2024 15:00:00,28.815329,77.153010,SO2,8,44,18
India,Delhi,Delhi,"Anand Vihar, Delhi - DPCC",04-06-2024 15:00:00,28.647622,77.3158090,PM2.5,23,363,193
India,Delhi,Delhi,"Anand Vihar, Delhi - DPCC",04-06-2024 15:00:00,28.647622,77.3158090,PM10,151,500,260
India,Delhi,Delhi,"Anand Vihar, Delhi - DPCC",04-06-2024 15:00:00,28.647622,77.3158090,SO2,13,28,18
India,Delhi,Delhi,"Anand Vihar, Delhi - DPCC",04-06-2024 15:00:00,28.647622,77.3158090,CO,84,138,126
India,Delhi,Delhi,"Ashok Vihar, Delhi - DPCC",04-06-2024 15:00:00,28.695381,77.181665,NH3,6,18,14
India,Delhi,Delhi,"Ashok Vihar, Delhi - DPCC",04-06-2024 15:00:00,28.695381,77.181665,SO2,12,35,25
India,Delhi,Delhi,"Aya Nagar, Delhi - IMD",04-06-2024 15:00:00,28.4706914,77.1099364,PM2.5,20,320,109
India,Delhi,Delhi,"Aya Nagar, Delhi - IMD",04-06-2024 15:00:00,28.4706914,77.1099364,OZONE,3,67,46
India,Delhi,Delhi,"Bawana, Delhi - DPCC",04-06-2024 15:00:00,28.776200,77.051074,PM2.5,55,301,156
India,Delhi,Delhi,"Bawana, Delhi - DPCC",04-06-2024 15:00:00,28.776200,77.051074,NO2,9,96,34
India,Delhi,Delhi,"Bawana, Delhi - DPCC",04-06-2024 15:00:00,28.776200,77.051074,NH3,3,5,4
India,Delhi,Delhi,"Bawana, Delhi - DPCC",04-06-2024 15:00:00,28.776200,77.051074,SO2,10,61,25
India,Delhi,Delhi,"Burari Crossing, Delhi - IMD",04-06-2024 15:00:00,28.7256504,77.2011573,PM10,111,445,214
India,Delhi,Delhi,"CRRI Mathura Road, Delhi - IMD",04-06-2024 15:00:00,28.5512005,77.2735737,OZONE,5,128,57
India,Delhi,Delhi,"Chandni Chowk, Delhi - IITM",04-06-2024 15:00:00,28.656756,77.227234,SO2,NA,NA,NA
India,Delhi,Delhi,"DTU, Delhi - CPCB",04-06-2024 15:00:00,28.7500499,77.1112615,NH3,13,19,15
India,Delhi,Delhi,"Dwarka-Sector 8, Delhi - DPCC ",04-06-2024 15:00:00,28.5710274,77.0719006,PM10,151,500,255
India,Delhi,Delhi,"IGI Airport (T3), Delhi - IMD",04-06-2024 15:00:00,28.5627763,77.1180053,CO,36,72,51
India,Delhi,Delhi,"IHBAS, Dilshad Garden, Delhi - CPCB",04-06-2024 15:00:00,28.6811736,77.3025234,PM2.5,83,321,181
India,Delhi,Delhi,"IHBAS, Dilshad Garden, Delhi - CPCB",04-06-2024 15:00:00,28.6811736,77.3025234,OZONE,15,41,32
India,Delhi,Delhi,"ITO, Delhi - CPCB",04-06-2024 15:00:00,28.628624,77.241060,PM2.5,117,302,181
India,Delhi,Delhi,"ITO, Delhi - CPCB",04-06-2024 15:00:00,28.628624,77.241060,NH3,6,7,7
India,Delhi,Delhi,"Jahangirpuri, Delhi - DPCC",04-06-2024 15:00:00,28.732820,77.170633,NH3,2,14,9
India,Delhi,Delhi,"Jahangirpuri, Delhi - DPCC",04-06-2024 15:00:00,28.732820,77.170633,CO,40,126,64
India,Delhi,Delhi,"Jawaharlal Nehru Stadium, Delhi - DPCC",04-06-2024 15:00:00,28.580280,77.233829,PM2.5,23,163,69
India,Delhi,Delhi,"Lodhi Road, Delhi - IMD",04-06-2024 15:00:00,28.5918245,77.2273074,NO2,3,23,10
India,Delhi,Delhi,"Major Dhyan Chand National Stadium, Delhi - DPCC",04-06-2024 15:00:00,28.611281,77.237738,CO,46,118,70
India,Delhi,Delhi,"Mandir Marg, Delhi - DPCC",04-06-2024 15:00:00,28.636429,77.201067,PM2.5,28,315,106
India,Delhi,Delhi,"Mandir Marg, Delhi - DPCC",04-06-2024 15:00:00,28.636429,77.201067,PM10,68,298,149
India,Delhi,Delhi,"Mandir Marg, Delhi - DPCC",04-06-2024 15:00:00,28.636429,77.201067,NO2,75,114,89
India,Delhi,Delhi,"Mandir Marg, Delhi - DPCC",04-06-2024 15:00:00,28.636429,77.201067,SO2,8,23,14
India,Delhi,Delhi,"NSIT Dwarka, Delhi - CPCB",04-06-2024 15:00:00,28.60909,77.0325413,PM2.5,184,333,252
India,Delhi,Delhi,"NSIT Dwarka, Delhi - CPCB",04-06-2024 15:00:00,28.60909,77.0325413,PM10,132,367,212
India,Delhi,Delhi,"NSIT Dwarka, Delhi - CPCB",04-06-2024 15:00:00,28.60909,77.0325413,SO2,3,53,24
India,Delhi,Delhi,"Najafgarh, Delhi - DPCC",04-06-2024 15:00:00,28.570173,76.933762,PM2.5,22,213,74
India,Delhi,Delhi,"Najafgarh, Delhi - DPCC",04-06-2024 15:00:00,28.570173,76.933762,NH3,5,9,7
India,Delhi,Delhi,"Najafgarh, Delhi - DPCC",04-06-2024 15:00:00,28.570173,76.933762,SO2,16,34,23
India,Delhi,Delhi,"Narela, Delhi - DPCC",04-06-2024 15:00:00,28.822836,77.101981,SO2,7,44,17
India,Delhi,Delhi,"Nehru Nagar, Delhi - DPCC",04-06-2024 15:00:00,28.567890,77.250515,NO2,4,73,32
India,Delhi,Delhi,"North Campus, DU, Delhi - IMD",04-06-2024 15:00:00,28.6573814,77.1585447,OZONE,22,80,48
India,Delhi,Delhi,"Okhla Phase-2, Delhi - DPCC",04-06-2024 15:00:00,28.530785,77.271255,PM2.5,42,207,94
India,Delhi,Delhi,"Okhla Phase-2, Delhi - DPCC",04-06-2024 15:00:00,28.530785,77.271255,NH3,10,16,12
India,Delhi,Delhi,"Patparganj, Delhi - DPCC",04-06-2024 15:00:00,28.623763,77.287209,NO2,24,164,70
India,Delhi,Delhi,"Punjabi Bagh, Delhi - DPCC",04-06-2024 15:00:00,28.674045,77.131023,NH3,4,8,6
India,Delhi,Delhi,"Pusa, Delhi - DPCC",04-06-2024 15:00:00,28.639652,77.146275,PM2.5,48,143,78
India,Delhi,Delhi,"Pusa, Delhi - DPCC",04-06-2024 15:00:00,28.639652,77.146275,NO2,40,144,82
India,Delhi,Delhi,"Pusa, Delhi - DPCC",04-06-2024 15:00:00,28.639652,77.146275,OZONE,6,192,86
India,Delhi,Delhi,"Pusa, Delhi - IMD",04-06-2024 15:00:00,28.636110,77.173332,CO,66,107,88
India,Delhi,Delhi,"R K Puram, Delhi - DPCC",04-06-2024 15:00:00,28.563262,77.186937,PM10,129,411,205
India,Delhi,Delhi,"R K Puram, Delhi - DPCC",04-06-2024 15:00:00,28.563262,77.186937,NO2,17,159,66
India,Delhi,Delhi,"R K Puram, Delhi - DPCC",04-06-2024 15:00:00,28.563262,77.186937,OZONE,16,262,211
India,Delhi,Delhi,"Rohini, Delhi - DPCC",04-06-2024 15:00:00,28.732528,77.119920,SO2,13,53,24
India,Delhi,Delhi,"Rohini, Delhi - DPCC",04-06-2024 15:00:00,28.732528,77.119920,CO,12,122,33
India,Delhi,Delhi,"Sirifort, Delhi - CPCB",04-06-2024 15:00:00,28.5504249,77.2159377,PM2.5,56,286,138
India,Delhi,Delhi,"Sirifort, Delhi - CPCB",04-06-2024 15:00:00,28.5504249,77.2159377,NO2,3,54,39
India,Delhi,Delhi,"Sri Aurobindo Marg, Delhi - DPCC",04-06-2024 15:00:00,28.531346,77.190156,PM2.5,48,198,85
India,Delhi,Delhi,"Sri Aurobindo Marg, Delhi - DPCC",04-06-2024 15:00:00,28.531346,77.190156,PM10,127,401,184
India,Delhi,Delhi,"Sri Aurobindo Marg, Delhi - DPCC",04-06-2024 15:00:00,28.531346,77.190156,NH3,7,10,8
India,Delhi,Delhi,"Vivek Vihar, Delhi - DPCC",04-06-2024 15:00:00,28.672342,77.315260,PM2.5,51,218,102
India,Delhi,Delhi,"Vivek Vihar, Delhi - DPCC",04-06-2024 15:00:00,28.672342,77.315260,NO2,8,129,46
India,Delhi,Delhi,"Vivek Vihar, Delhi - DPCC",04-06-2024 15:00:00,28.672342,77.315260,NH3,16,17,16
India,Delhi,Delhi,"Wazirpur, Delhi - DPCC",04-06-2024 15:00:00,28.699793,77.165453,SO2,9,52,19
India,Delhi,Delhi,"Wazirpur, Delhi - DPCC",04-06-2024 15:00:00,28.699793,77.165453,CO,84,138,102
India,Delhi,Delhi,"Wazirpur, Delhi - DPCC",04-06-2024 15:00:00,28.699793,77.165453,OZONE,1,75,36
India,Gujarat,Ahmedabad,"Chandkheda, Ahmedabad - IITM",04-06-2024 15:00:00,23.107969,72.574648,NH3,1,2,1
India,Gujarat,Ahmedabad,"Chandkheda, Ahmedabad - IITM",04-06-2024 15:00:00,23.107969,72.574648,CO,26,28,28
India,Gujarat,Ahmedabad,"Gyaspur, Ahmedabad - IITM",04-06-2024 15:00:00,22.977134,72.553024,PM10,77,351,142
India,Gujarat,Ahmedabad,"Gyaspur, Ahmedabad - IITM",04-06-2024 15:00:00,22.977134,72.553024,SO2,12,62,23
India,Gujarat,Ahmedabad,"Gyaspur, Ahmedabad - IITM",04-06-2024 15:00:00,22.977134,72.553024,CO,69,84,81
India,Gujarat,Ahmedabad,"Maninagar, Ahmedabad - GPCB",04-06-2024 15:00:00,23.002657,72.591912,SO2,NA,NA,NA
India,Gujarat,Ahmedabad,"Raikhad, Ahmedabad - IITM",04-06-2024 15:00:00,23.020509,72.579261,CO,32,50,34
India,Gujarat,Ahmedabad,"Rakhial, Ahmedabad - IITM",04-06-2024 15:00:00,23.016834,72.625775,OZONE,16,69,51
India,Gujarat,Ahmedabad,"Sardar Vallabhbhai Patel Stadium, Ahmedabad - IITM",04-06-2024 15:00:00,23.043070,72.562968,PM10,97,139,113
India,Gujarat,Surat,"Science Center, Surat - SMC",04-06-2024 15:00:00,21.170046,72.795405,CO,65,74,70
India,Gujarat,Vapi,"Phase-1 GIDC, Vapi - GPCB",04-06-2024 15:00:00,20.362421,72.918013,OZONE,1,1,1
India,Gujarat,Vatva,"Phase-4 GIDC, Vatva - GPCB",04-06-2024 15:00:00,22.969611,72.643500,PM2.5,43,85,53
India,Gujarat,Vatva,"Phase-4 GIDC, Vatva - GPCB",04-06-2024 15:00:00,22.969611,72.643500,PM10,75,108,86
India,Haryana,Bahadurgarh,"Arya Nagar, Bahadurgarh - HSPCB",04-06-2024 15:00:00,28.6701,76.9254,PM10,119,416,171
India,Haryana,Bahadurgarh,"Arya Nagar, Bahadurgarh - HSPCB",04-06-2024 15:00:00,28.6701,76.9254,NO2,21,25,22
India,Haryana,Ballabgarh,"Nathu Colony, Ballabgarh - HSPCB",04-06-2024 15:00:00,28.3419248,77.319699,CO,10,134,27
India,Haryana,Dharuhera,"Municipal Corporation Office, Dharuhera -  HSPCB",04-06-2024 15:00:00,28.206800,76.799700,CO,3,60,25
India,Haryana,Faridabad,"New Industrial Town, Faridabad - HSPCB",04-06-2024 15:00:00,28.39072,77.30059,PM10,156,494,239
India,Haryana,Faridabad,"New Industrial Town, Faridabad - HSPCB",04-06-2024 15:00:00,28.39072,77.30059,NH3,NA,NA,NA
India,Haryana,Faridabad,"New Industrial Town, Faridabad - HSPCB",04-06-2024 15:00:00,28.39072,77.30059,OZONE,4,165,109
India,Haryana,Faridabad,"Sector 11, Faridabad - HSPCB",04-06-2024 15:00:00,28.376058,77.315741,PM10,120,438,187
India,Haryana,Faridabad,"Sector 11, Faridabad - HSPCB",04-06-2024 15:00:00,28.376058,77.315741,OZONE,6,28,18
India,Haryana,Fatehabad,"Huda Sector, Fatehabad - HSPCB",04-06-2024 15:00:00,29.503664,75.467934,SO2,1,16,7
India,Haryana,Fatehabad,"Huda Sector, Fatehabad - HSPCB",04-06-2024 15:00:00,29.503664,75.467934,CO,6,16,11
India,Haryana,Gurugram,"Sector-51, Gurugram - HSPCB",04-06-2024 15:00:00,28.4227,77.0667,NH3,7,14,8
India,Haryana,Gurugram,"Sector-51, Gurugram - HSPCB",04-06-2024 15:00:00,28.4227,77.0667,OZONE,27,79,33
India,Haryana,Gurugram,"Teri Gram, Gurugram - HSPCB",04-06-2024 15:00:00,28.4275,77.1465,PM2.5,NA,NA,NA
India,Haryana,Gurugram,"Teri Gram, Gurugram - HSPCB",04-06-2024 15:00:00,28.4275,77.1465,SO2,5,7,6
India,Haryana,Gurugram,"Vikas Sadan, Gurugram - HSPCB",04-06-2024 15:00:00,28.4501238,77.0263051,PM2.5,95,500,324
India,Haryana,Hisar,"Urban Estate-II, Hisar - HSPCB",04-06-2024 15:00:00,29.140560,75.744941,NO2,8,11,10
India,Haryana,Hisar,"Urban Estate-II, Hisar - HSPCB",04-06-2024 15:00:00,29.140560,75.744941,CO,25,58,26
India,Haryana,Jind,"Police Lines, Jind - HSPCB",04-06-2024 15:00:00,29.307814,76.337619,SO2,3,102,20
India,Haryana,Jind,"Police Lines, Jind - HSPCB",04-06-2024 15:00:00,29.307814,76.337619,CO,6,84,16
India,Haryana,Jind,"Police Lines, Jind - HSPCB",04-06-2024 15:00:00,29.307814,76.337619,OZONE,15,35,26
India,Haryana,Kaithal,"Rishi Nagar, Kaithal - HSPCB",04-06-2024 15:00:00,29.8006,76.4155,CO,4,50,45
India,Haryana,Karnal,"Sector-12, Karnal - HSPCB",04-06-2024 15:00:00,29.695300,77.002700,PM2.5,66,158,95
India,Haryana,Kurukshetra,"Sector-7, Kurukshetra - HSPCB",04-06-2024 15:00:00,29.966942,76.875879,PM10,109,198,139
India,Haryana,Kurukshetra,"Sector-7, Kurukshetra - HSPCB",04-06-2024 15:00:00,29.966942,76.875879,CO,7,33,13
India,Haryana,Mandikhera,"General Hospital, Mandikhera - HSPCB",04-06-2024 15:00:00,27.9002,76.9938,NH3,16,19,18
India,Haryana,Narnaul,"Shastri Nagar, Narnaul - HSPCB",04-06-2024 15:00:00,28.060249,76.113115,PM2.5,30,82,59
India,Haryana,Narnaul,"Shastri Nagar, Narnaul - HSPCB",04-06-2024 15:00:00,28.060249,76.113115,PM10,30,82,59
India,Haryana,Narnaul,"Shastri Nagar, Narnaul - HSPCB",04-06-2024 15:00:00,28.060249,76.113115,NH3,5,28,17
India,Haryana,Narnaul,"Shastri Nagar, Narnaul - HSPCB",04-06-2024 15:00:00,28.060249,76.113115,SO2,12,51,15
India,Haryana,Narnaul,"Shastri Nagar, Narnaul - HSPCB",04-06-2024 15:00:00,28.060249,76.113115,CO,7,98,15
India,Haryana,Panipat,"Sector-18, Panipat - HSPCB",04-06-2024 15:00:00,29.432304,76.972765,NO2,31,32,31
India,Haryana,Panipat,"Sector-18, Panipat - HSPCB",04-06-2024 15:00:00,29.432304,76.972765,NH3,2,3,2
India,Haryana,Panipat,"Sector-18, Panipat - HSPCB",04-06-2024 15:00:00,29.432304,76.972765,CO,24,26,25
India,Haryana,Rohtak,"MD University, Rohtak - HSPCB",04-06-2024 15:00:00,28.52123,76.37138,OZONE,45,55,49
India,Haryana,Sirsa,"F-Block, Sirsa - HSPCB",04-06-2024 15:00:00,29.536400,75.015800,NH3,12,14,13
India,Haryana,Sonipat,"Murthal, Sonipat - HSPCB",04-06-2024 15:00:00,29.027200,77.062100,PM10,73,408,127
India,Haryana,Sonipat,"Murthal, Sonipat - HSPCB",04-06-2024 15:00:00,29.027200,77.062100,CO,24,28,25
India,Haryana,Yamuna Nagar,"Gobind Pura, Yamuna Nagar - HSPCB",04-06-2024 15:00:00,30.1480566,77.2893471,PM10,93,261,136
India,Himachal Pradesh,Baddi,"HIMUDA Complex Phase-1, Baddi - HPPCB",04-06-2024 15:00:00,30.943887,76.801991,NH3,4,6,5
India,Himachal Pradesh,Baddi,"HIMUDA Complex Phase-1, Baddi - HPPCB",04-06-2024 15:00:00,30.943887,76.801991,SO2,12,118,38
India,Jharkhand,Dhanbad,"Sardar Patel Nagar, Dhanbad - JSPCB",04-06-2024 15:00:00,23.80569,86.44268,PM10,NA,NA,NA
India,Karnataka,Bagalkot,"Vidayagiri, Bagalkot - KSPCB",04-06-2024 15:00:00,16.172806,75.659694,NH3,1,2,1
India,Karnataka,Bagalkot,"Vidayagiri, Bagalkot - KSPCB",04-06-2024 15:00:00,16.172806,75.659694,SO2,1,1,1
India,Karnataka,Bagalkot,"Vidayagiri, Bagalkot - KSPCB",04-06-2024 15:00:00,16.172806,75.659694,OZONE,2,14,5
India,Karnataka,Belgaum,"Ramteerth Nagar, Belgaum - KSPCB",04-06-2024 15:00:00,15.888653,74.541751,NH3,7,13,9
India,Karnataka,Bengaluru,"Bapuji Nagar, Bengaluru - KSPCB",04-06-2024 15:00:00,12.951913,77.539784,NH3,1,1,1
India,Karnataka,Bengaluru,"Bapuji Nagar, Bengaluru - KSPCB",04-06-2024 15:00:00,12.951913,77.539784,SO2,6,7,6
India,Karnataka,Bengaluru,"Hombegowda Nagar, Bengaluru - KSPCB",04-06-2024 15:00:00,12.938539,77.590100,PM10,19,50,27
India,Karnataka,Bengaluru,"Hombegowda Nagar, Bengaluru - KSPCB",04-06-2024 15:00:00,12.938539,77.590100,CO,9,34,17
India,Karnataka,Bengaluru,"Hombegowda Nagar, Bengaluru - KSPCB",04-06-2024 15:00:00,12.938539,77.590100,OZONE,19,52,28
India,Karnataka,Bengaluru,"Kasturi Nagar, Bengaluru - KSPCB",04-06-2024 15:00:00,13.003872,77.664217,NO2,16,17,17
India,Karnataka,Bengaluru,"Kasturi Nagar, Bengaluru - KSPCB",04-06-2024 15:00:00,13.003872,77.664217,OZONE,5,73,43
India,Karnataka,Bengaluru,"Peenya, Bengaluru - CPCB",04-06-2024 15:00:00,13.0270199,77.494094,SO2,13,16,14
India,Karnataka,Bengaluru,"RVCE-Mailasandra, Bengaluru - KSPCB",04-06-2024 15:00:00,12.921418,77.502466,CO,28,50,34
India,Karnataka,Bengaluru,"Sanegurava Halli, Bengaluru - KSPCB",04-06-2024 15:00:00,12.990328,77.5431385,NO2,20,33,24
India,Karnataka,Chamarajanagar,"Urban, Chamarajanagar - KSPCB",04-06-2024 15:00:00,11.55358,76.55521,NH3,1,2,2
India,Karnataka,Chikkaballapur,"Chikkaballapur Rural, Chikkaballapur - KSPCB",04-06-2024 15:00:00,13.428828,77.731418,CO,16,26,22
India,Karnataka,Chikkamagaluru,"Kalyana Nagara, Chikkamagaluru - KSPCB",04-06-2024 15:00:00,13.328028,75.797056,CO,8,115,31
India,Karnataka,Chikkamagaluru,"Kalyana Nagara, Chikkamagaluru - KSPCB",04-06-2024 15:00:00,13.328028,75.797056,OZONE,11,43,32
India,Karnataka,Gadag,"Panchal Nagar, Gadag - KSPCB",04-06-2024 15:00:00,15.411456,75.638133,NO2,NA,NA,NA
India,Karnataka,Gadag,"Panchal Nagar, Gadag - KSPCB",04-06-2024 15:00:00,15.411456,75.638133,OZONE,4,30,27
India,Karnataka,Haveri,"Ashwini Nagar, Haveri - KSPCB",04-06-2024 15:00:00,14.791800,75.389600,PM2.5,10,33,21
India,Karnataka,Hubballi,"Lingaraj Nagar, Hubballi - KSPCB",04-06-2024 15:00:00,15.3714823,75.1160168,PM2.5,34,89,48
India,Karnataka,Kalaburagi,"Lal Bahadur Shastri Nagar, Kalaburagi - KSPCB",04-06-2024 15:00:00,17.321993,76.822628,PM2.5,NA,NA,NA
India,Karnataka,Kalaburagi,"Lal Bahadur Shastri Nagar, Kalaburagi - KSPCB",04-06-2024 15:00:00,17.321993,76.822628,OZONE,1,55,9
India,Karnataka,Kalaburagi,"Mahatma Basaveswar Colony, Kalaburgi - KSPCB",04-06-2024 15:00:00,17.336318,76.847397,CO,20,42,31
India,Karnataka,Kalaburagi,"Mahatma Basaveswar Colony, Kalaburgi - KSPCB",04-06-2024 15:00:00,17.336318,76.847397,OZONE,15,68,42
India,Karnataka,Karwar,"KHB Colony, Karwar - KSPCB",04-06-2024 15:00:00,14.816666,74.141003,PM10,5,42,19
India,Karnataka,Karwar,"KHB Colony, Karwar - KSPCB",04-06-2024 15:00:00,14.816666,74.141003,NO2,NA,NA,NA
India,Karnataka,Karwar,"KHB Colony, Karwar - KSPCB",04-06-2024 15:00:00,14.816666,74.141003,NH3,NA,NA,NA
India,Karnataka,Kolar,"Tamaka Ind. Area, Kolar - KSPCB",04-06-2024 15:00:00,13.1276288,78.1570122,OZONE,18,63,47
India,Karnataka,Madikeri,"Stuart Hill, Madikeri - KSPCB",04-06-2024 15:00:00,12.415911,75.735050,SO2,4,4,4
India,Karnataka,Mangalore,"Kadri, Mangalore - KSPCB",04-06-2024 15:00:00,12.889250,74.853000,PM2.5,2,22,12
India,Karnataka,Mangalore,"Kadri, Mangalore - KSPCB",04-06-2024 15:00:00,12.889250,74.853000,CO,36,41,38
India,Karnataka,Raichur,"Haji Colony, Raichur - KSPCB",04-06-2024 15:00:00,16.208139,77.348417,NO2,13,35,25
India,Karnataka,Raichur,"Haji Colony, Raichur - KSPCB",04-06-2024 15:00:00,16.208139,77.348417,NH3,1,3,2
India,Karnataka,Ramanagara,"Vijay Nagar, Ramanagara - KSPCB",04-06-2024 15:00:00,12.733409,77.298051,NH3,1,2,2
India,Karnataka,Ramanagara,"Vijay Nagar, Ramanagara - KSPCB",04-06-2024 15:00:00,12.733409,77.298051,SO2,16,49,30
India,Karnataka,Shivamogga,"Vinoba Nagara, Shivamogga - KSPCB",04-06-2024 15:00:00,13.940000,75.555917,NO2,8,107,28
India,Karnataka,Shivamogga,"Vinoba Nagara, Shivamogga - KSPCB",04-06-2024 15:00:00,13.940000,75.555917,SO2,2,9,7
India,Karnataka,Tumakuru,"Thimmalapura, Tumakuru - KSPCB",04-06-2024 15:00:00,13.377516,77.099072,CO,28,34,32
India,Karnataka,Udupi,"Brahmagiri, Udupi - KSPCB",04-06-2024 15:00:00,13.34194444,74.74694444,PM10,NA,NA,NA
India,Karnataka,Udupi,"Brahmagiri, Udupi - KSPCB",04-06-2024 15:00:00,13.34194444,74.74694444,SO2,16,18,17
India,Karnataka,Yadgir,"Collector Office, Yadgir - KSPCB",04-06-2024 15:00:00,16.7602,77.1428,PM2.5,5,37,15
India,Karnataka,Yadgir,"Collector Office, Yadgir - KSPCB",04-06-2024 15:00:00,16.7602,77.1428,CO,11,44,21
India,Karnataka,Yadgir,"Collector Office, Yadgir - KSPCB",04-06-2024 15:00:00,16.7602,77.1428,OZONE,NA,NA,NA
India,Kerala,Kannur,"Thavakkara, Kannur - Kerala PCB",04-06-2024 15:00:00,11.875000,75.373200,CO,62,72,69
India,Kerala,Kannur,"Thavakkara, Kannur - Kerala PCB",04-06-2024 15:00:00,11.875000,75.373200,OZONE,29,34,32
India,Kerala,Kollam,"Polayathode, Kollam - Kerala PCB",04-06-2024 15:00:00,8.8787,76.6073,PM2.5,57,216,100
India,Kerala,Kollam,"Polayathode, Kollam - Kerala PCB",04-06-2024 15:00:00,8.8787,76.6073,NO2,8,9,8
India,Kerala,Thiruvananthapuram,"Kariavattom, Thiruvananthapuram - Kerala PCB",04-06-2024 15:00:00,8.563700,76.886500,NH3,1,1,1
India,Kerala,Thiruvananthapuram,"Plammoodu, Thiruvananthapuram - Kerala PCB",04-06-2024 15:00:00,8.5149093,76.9435879,OZONE,5,50,15
India,Kerala,Thrissur,"Corporation Ground, Thrissur - Kerala PCB",04-06-2024 15:00:00,10.532400,76.215900,PM10,61,69,65
India,Kerala,Thrissur,"Corporation Ground, Thrissur - Kerala PCB",04-06-2024 15:00:00,10.532400,76.215900,NO2,7,8,7
India,Kerala,Thrissur,"Corporation Ground, Thrissur - Kerala PCB",04-06-2024 15:00:00,10.532400,76.215900,SO2,NA,NA,NA
India,Madhya Pradesh,Bhopal,"Idgah Hills, Bhopal - MPPCB",04-06-2024 15:00:00,23.264759,77.381568,NO2,12,45,20
India,Madhya Pradesh,Bhopal,"Idgah Hills, Bhopal - MPPCB",04-06-2024 15:00:00,23.264759,77.381568,CO,6,43,15
India,Madhya Pradesh,Bhopal,"Idgah Hills, Bhopal - MPPCB",04-06-2024 15:00:00,23.264759,77.381568,OZONE,33,75,56
India,Madhya Pradesh,Bhopal,"Paryavaran Parisar, Bhopal - MPPCB",04-06-2024 15:00:00,23.210494,77.425409,OZONE,44,89,68
India,Madhya Pradesh,Bhopal,"T T Nagar, Bhopal - MPPCB",04-06-2024 15:00:00,23.233584,77.400574,PM2.5,25,47,34
India,Madhya Pradesh,Bhopal,"T T Nagar, Bhopal - MPPCB",04-06-2024 15:00:00,23.233584,77.400574,OZONE,40,71,55
India,Madhya Pradesh,Dewas,"Bhopal Chauraha, Dewas - MPPCB",04-06-2024 15:00:00,22.9682591,76.064118,PM10,34,72,47
India,Madhya Pradesh,Gwalior,"City Center, Gwalior - MPPCB",04-06-2024 15:00:00,26.203442,78.193251,NO2,5,56,16
India,Madhya Pradesh,Gwalior,"Deen Dayal Nagar, Gwalior - MPPCB",04-06-2024 15:00:00,26.259242,78.216432,PM2.5,26,169,70
India,Madhya Pradesh,Gwalior,"Deen Dayal Nagar, Gwalior - MPPCB",04-06-2024 15:00:00,26.259242,78.216432,NH3,5,7,6
India,Madhya Pradesh,Gwalior,"Deen Dayal Nagar, Gwalior - MPPCB",04-06-2024 15:00:00,26.259242,78.216432,SO2,14,20,17
India,Madhya Pradesh,Gwalior,"Maharaj Bada, Gwalior - MPPCB",04-06-2024 15:00:00,26.200388,78.147714,NO2,12,98,31
India,Madhya Pradesh,Indore,"Chhoti Gwaltoli, Indore - MPPCB",04-06-2024 15:00:00,22.4310,75.5213,NH3,2,4,3
India,Madhya Pradesh,Indore,"Maguda Nagar, Indore - IMC",04-06-2024 15:00:00,22.7524,75.8872,PM2.5,30,116,62
India,Madhya Pradesh,Indore,"Residency Area, Indore - IMC",04-06-2024 15:00:00,22.7084,75.8815,PM2.5,20,81,44
India,Madhya Pradesh,Jabalpur,"Govindh Bhavan Colony, Jabalpur - JMC",04-06-2024 15:00:00,23.163174,79.973061,NO2,3,23,9
India,Madhya Pradesh,Jabalpur,"Govindh Bhavan Colony, Jabalpur - JMC",04-06-2024 15:00:00,23.163174,79.973061,SO2,14,29,19
India,Madhya Pradesh,Jabalpur,"Gupteshwar, Jabalpur - JMC",04-06-2024 15:00:00,23.142888,79.916147,PM10,46,101,64
India,Madhya Pradesh,Jabalpur,"Gupteshwar, Jabalpur - JMC",04-06-2024 15:00:00,23.142888,79.916147,NH3,4,5,5
India,Madhya Pradesh,Jabalpur,"Marhatal, Jabalpur - MPPCB",04-06-2024 15:00:00,23.168606,79.932247,PM2.5,35,72,49
India,Madhya Pradesh,Jabalpur,"Marhatal, Jabalpur - MPPCB",04-06-2024 15:00:00,23.168606,79.932247,CO,42,66,52
India,Madhya Pradesh,Jabalpur,"Marhatal, Jabalpur - MPPCB",04-06-2024 15:00:00,23.168606,79.932247,OZONE,39,61,53
India,Madhya Pradesh,Jabalpur,"Suhagi, Jabalpur - JMC",04-06-2024 15:00:00,23.218135,79.957770,PM2.5,27,77,44
India,Madhya Pradesh,Jabalpur,"Suhagi, Jabalpur - JMC",04-06-2024 15:00:00,23.218135,79.957770,PM10,49,102,76
India,Madhya Pradesh,Katni,"Gole Bazar, Katni - MPPCB",04-06-2024 15:00:00,23.50016,80.23284,PM2.5,31,65,47
India,Madhya Pradesh,Maihar,"Sahilara, Maihar - KJS Cements",04-06-2024 15:00:00,24.2613009,80.7231783,CO,39,54,48
India,Madhya Pradesh,Mandideep,"Sector-D Industrial Area, Mandideep - MPPCB",04-06-2024 15:00:00,23.108440,77.511428,NH3,6,9,7
India,Madhya Pradesh,Mandideep,"Sector-D Industrial Area, Mandideep - MPPCB",04-06-2024 15:00:00,23.108440,77.511428,CO,34,73,38
India,Madhya Pradesh,Pithampur,"Sector-2 Industrial Area, Pithampur - MPPCB",04-06-2024 15:00:00,22.624758,75.675238,OZONE,12,58,33
India,Madhya Pradesh,Ratlam,"Shasthri Nagar, Ratlam - IPCA Lab",04-06-2024 15:00:00,23.331731,75.045981,NO2,13,13,13
India,Madhya Pradesh,Sagar,"Civil Lines, Sagar - MPPCB",04-06-2024 15:00:00,23.838586,78.759431,SO2,1,13,5
India,Madhya Pradesh,Sagar,"Deen Dayal Nagar, Sagar - MPPCB",04-06-2024 15:00:00,23.8640158,78.80289321,PM2.5,17,46,27
India,Madhya Pradesh,Sagar,"Deen Dayal Nagar, Sagar - MPPCB",04-06-2024 15:00:00,23.8640158,78.80289321,CO,54,64,60
India,Madhya Pradesh,Singrauli,"Suryakiran Bhawan NCL, Singrauli - MPPCB",04-06-2024 15:00:00,24.108970,82.645580,NO2,6,43,19
India,Madhya Pradesh,Singrauli,"Suryakiran Bhawan NCL, Singrauli - MPPCB",04-06-2024 15:00:00,24.108970,82.645580,NH3,3,4,3
India,Madhya Pradesh,Singrauli,"Suryakiran Bhawan NCL, Singrauli - MPPCB",04-06-2024 15:00:00,24.108970,82.645580,CO,35,100,43
India,Maharashtra,Ahmednagar,"Tarakpur, Ahmednagar - MPCB",04-06-2024 15:00:00,19.10122,74.73339,PM10,NA,NA,NA
India,Maharashtra,Ahmednagar,"Tarakpur, Ahmednagar - MPCB",04-06-2024 15:00:00,19.10122,74.73339,NO2,NA,NA,NA
India,Maharashtra,Akola,"Ramdaspeth, Akola - MPCB",04-06-2024 15:00:00,20.719516,77.000253,PM2.5,20,80,45
India,Maharashtra,Akola,"Ramdaspeth, Akola - MPCB",04-06-2024 15:00:00,20.719516,77.000253,PM10,36,113,69
India,Maharashtra,Akola,"Ramdaspeth, Akola - MPCB",04-06-2024 15:00:00,20.719516,77.000253,NO2,6,21,12
India,Maharashtra,Akola,"Ramdaspeth, Akola - MPCB",04-06-2024 15:00:00,20.719516,77.000253,NH3,2,8,4
India,Maharashtra,Akola,"Ramdaspeth, Akola - MPCB",04-06-2024 15:00:00,20.719516,77.000253,SO2,15,24,18
India,Maharashtra,Amravati,"Shivneri Colony, Amravati - MPCB",04-06-2024 15:00:00,20.9402359,77.7895248,PM2.5,27,69,49
India,Maharashtra,Amravati,"Shri Shivaji Science College, Amaravati - MPCB",04-06-2024 15:00:00,20.939198,77.765701,PM2.5,21,138,53
India,Maharashtra,Aurangabad,"MIDC Chilkalthana, Aurangabad - MPCB",04-06-2024 15:00:00,19.875620,75.387310,CO,22,121,24
India,Maharashtra,Aurangabad,"More Chowk Waluj, Aurangabad - MPCB",04-06-2024 15:00:00,19.8389439,75.244448,CO,10,109,30
India,Maharashtra,Aurangabad,"Rachnakar Colony, Aurangabad - MPCB",04-06-2024 15:00:00,19.863756,75.321188,PM10,62,371,121
India,Maharashtra,Badlapur,"Katrap, Badlapur - MPCB",04-06-2024 15:00:00,19.16485,73.23409,NO2,9,25,14
India,Maharashtra,Belapur,"CBD Belapur, Belapur - MPCB",04-06-2024 15:00:00,19.0243902,73.0406721,NO2,23,68,43
India,Maharashtra,Belapur,"CBD Belapur, Belapur - MPCB",04-06-2024 15:00:00,19.0243902,73.0406721,NH3,1,2,2
India,Maharashtra,Belapur,"CBD Belapur, Belapur - MPCB",04-06-2024 15:00:00,19.0243902,73.0406721,CO,10,24,18
India,Maharashtra,Bhiwandi,"Gokul Nagar, Bhiwandi - MPCB",04-06-2024 15:00:00,19.309073,73.057223,PM10,67,115,88
India,Maharashtra,Bhiwandi,"Gokul Nagar, Bhiwandi - MPCB",04-06-2024 15:00:00,19.309073,73.057223,OZONE,12,95,40
India,Maharashtra,Chandrapur,"Chauhan Colony, Chandrapur - MPCB",04-06-2024 15:00:00,19.962900,79.298714,CO,24,27,27
India,Maharashtra,Chandrapur,"MIDC Khutala, Chandrapur - MPCB",04-06-2024 15:00:00,19.9775302,79.2337086,PM10,34,64,49
India,Maharashtra,Dhule,"Deopur, Dhule - MPCB",04-06-2024 15:00:00,20.918946,74.776388,OZONE,1,187,187
India,Maharashtra,Jalgaon,"Prabhat Colony, Jalgaon - MPCB",04-06-2024 15:00:00,21.001264,75.565602,SO2,NA,NA,NA
India,Maharashtra,Jalgaon,"Prabhat Colony, Jalgaon - MPCB",04-06-2024 15:00:00,21.001264,75.565602,CO,20,46,38
India,Maharashtra,Jalgaon,"Prabhat Colony, Jalgaon - MPCB",04-06-2024 15:00:00,21.001264,75.565602,OZONE,24,116,81
India,Maharashtra,Jalna,"Old MIDC, Jalna - MPCB",04-06-2024 15:00:00,19.854616,75.905894,OZONE,4,323,51
India,Maharashtra,Kalyan,"Khadakpada, Kalyan - MPCB",04-06-2024 15:00:00,19.25292,73.142019,OZONE,7,14,10
India,Maharashtra,Kolhapur,"Shivaji University, Kolhapur - MPCB",04-06-2024 15:00:00,16.6870449,74.2505872,OZONE,17,65,34
India,Maharashtra,Kolhapur,"Sinchan Bhavan, Kolhapur - MPCB",04-06-2024 15:00:00,16.7143745,74.2426398,SO2,1,6,1
India,Maharashtra,Latur,"Sawe Wadi, Latur - MPCB",04-06-2024 15:00:00,18.39963,76.57452,PM10,43,73,56
India,Maharashtra,Latur,"Sawe Wadi, Latur - MPCB",04-06-2024 15:00:00,18.39963,76.57452,NH3,16,17,17
India,Maharashtra,Mahad,"Kamble Tarf Birwadi, Mahad - MPCB",04-06-2024 15:00:00,18.1023399,73.4783687,SO2,1,106,20
India,Maharashtra,Malegaon,"Mahesh Nagar, Malegaon - MPCB",04-06-2024 15:00:00,20.555712,74.529236,PM2.5,51,97,65
India,Maharashtra,Mira-Bhayandar,"Bhayandar West, Mira-Bhayandar - MPCB",04-06-2024 15:00:00,19.296481,72.840923,NO2,17,35,22
India,Maharashtra,Mumbai,"Borivali East, Mumbai - IITM",04-06-2024 15:00:00,19.23241,72.86895,NH3,6,10,9
India,Maharashtra,Mumbai,"Borivali East, Mumbai - MPCB",04-06-2024 15:00:00,19.2243333,72.8658113,NH3,1,3,2
India,Maharashtra,Mumbai,"Borivali East, Mumbai - MPCB",04-06-2024 15:00:00,19.2243333,72.8658113,SO2,11,24,16
India,Maharashtra,Mumbai,"Byculla, Mumbai - BMC",04-06-2024 15:00:00,18.9767,72.8380,SO2,1,2,1
India,Maharashtra,Mumbai,"Chakala-Andheri East, Mumbai - IITM",04-06-2024 15:00:00,19.11074,72.86084,PM10,51,133,77
India,Maharashtra,Mumbai,"Chembur, Mumbai - MPCB",04-06-2024 15:00:00,19.0364585,72.8954371,PM10,53,96,71
India,Maharashtra,Mumbai,"Chembur, Mumbai - MPCB",04-06-2024 15:00:00,19.0364585,72.8954371,NO2,14,42,25
India,Maharashtra,Mumbai,"Chhatrapati Shivaji Intl. Airport (T2), Mumbai - MPCB",04-06-2024 15:00:00,19.10078,72.87462,PM2.5,33,55,45
India,Maharashtra,Mumbai,"Colaba, Mumbai - MPCB",04-06-2024 15:00:00,18.910000,72.820000,SO2,10,11,11
India,Maharashtra,Mumbai,"Colaba, Mumbai - MPCB",04-06-2024 15:00:00,18.910000,72.820000,CO,12,14,14
India,Maharashtra,Mumbai,"Ghatkopar, Mumbai - BMC",04-06-2024 15:00:00,19.083694,72.920967,PM10,33,53,46
India,Maharashtra,Mumbai,"Ghatkopar, Mumbai - BMC",04-06-2024 15:00:00,19.083694,72.920967,NH3,1,17,7
India,Maharashtra,Mumbai,"Ghatkopar, Mumbai - BMC",04-06-2024 15:00:00,19.083694,72.920967,SO2,1,2,1
India,Maharashtra,Mumbai,"Ghatkopar, Mumbai - BMC",04-06-2024 15:00:00,19.083694,72.920967,OZONE,4,19,8
India,Maharashtra,Mumbai,"Kandivali East, Mumbai - MPCB",04-06-2024 15:00:00,19.205800,72.868200,SO2,7,9,8
India,Maharashtra,Mumbai,"Kandivali East, Mumbai - MPCB",04-06-2024 15:00:00,19.205800,72.868200,CO,31,34,32
India,Maharashtra,Mumbai,"Kherwadi_Bandra East, Mumbai - MPCB",04-06-2024 15:00:00,19.0632143,72.8456324,NH3,7,16,10
India,Maharashtra,Mumbai,"Kherwadi_Bandra East, Mumbai - MPCB",04-06-2024 15:00:00,19.0632143,72.8456324,SO2,1,7,5
India,Maharashtra,Mumbai,"Mindspace-Malad West, Mumbai - MPCB",04-06-2024 15:00:00,19.1878657,72.8304069,NO2,16,26,21
India,Maharashtra,Mumbai,"Mulund West, Mumbai - MPCB",04-06-2024 15:00:00,19.1750,72.9419,NO2,18,21,19
India,Maharashtra,Mumbai,"Mulund West, Mumbai - MPCB",04-06-2024 15:00:00,19.1750,72.9419,SO2,12,13,12
India,Maharashtra,Mumbai,"Navy Nagar-Colaba, Mumbai - IITM",04-06-2024 15:00:00,18.897756,72.813320,SO2,1,10,3
India,Maharashtra,Mumbai,"Powai, Mumbai - MPCB",04-06-2024 15:00:00,19.137500,72.915056,NO2,9,25,17
India,Maharashtra,Mumbai,"Powai, Mumbai - MPCB",04-06-2024 15:00:00,19.137500,72.915056,CO,32,41,38
India,Maharashtra,Mumbai,"Vile Parle West, Mumbai - MPCB",04-06-2024 15:00:00,19.10861,72.83622,CO,32,32,32
India,Maharashtra,Mumbai,"Worli, Mumbai - MPCB",04-06-2024 15:00:00,18.9936162,72.8128113,PM10,NA,NA,NA
India,Maharashtra,Mumbai,"Worli, Mumbai - MPCB",04-06-2024 15:00:00,18.9936162,72.8128113,SO2,12,12,12
India,Maharashtra,Mumbai,"Worli, Mumbai - MPCB",04-06-2024 15:00:00,18.9936162,72.8128113,CO,24,25,24
India,Maharashtra,Nagpur,"Ambazari, Nagpur - MPCB",04-06-2024 15:00:00,21.121801,79.04952,PM10,35,102,62
India,Maharashtra,Nagpur,"Ambazari, Nagpur - MPCB",04-06-2024 15:00:00,21.121801,79.04952,CO,10,116,25
India,Maharashtra,Nagpur,"Mahal, Nagpur - MPCB",04-06-2024 15:00:00,21.14472,79.107595,PM2.5,31,69,45
India,Maharashtra,Nagpur,"Mahal, Nagpur - MPCB",04-06-2024 15:00:00,21.14472,79.107595,PM10,32,136,71
India,Maharashtra,Nagpur,"Mahal, Nagpur - MPCB",04-06-2024 15:00:00,21.14472,79.107595,NO2,15,76,29
India,Maharashtra,Nagpur,"Mahal, Nagpur - MPCB",04-06-2024 15:00:00,21.14472,79.107595,OZONE,14,129,55
India,Maharashtra,Nanded,"Sneh Nagar, Nanded - MPCB",04-06-2024 15:00:00,19.173852,77.296291,NH3,1,2,2
India,Maharashtra,Nashik,"Gangapur Road, Nashik - MPCB",04-06-2024 15:00:00,20.0073285,73.7762427,PM10,65,109,87
India,Maharashtra,Nashik,"Gangapur Road, Nashik - MPCB",04-06-2024 15:00:00,20.0073285,73.7762427,NH3,1,2,2
India,Maharashtra,Nashik,"Hirawadi, Nashik - MPCB",04-06-2024 15:00:00,20.021503,73.813844,SO2,10,34,24
India,Maharashtra,Nashik,"Hirawadi, Nashik - MPCB",04-06-2024 15:00:00,20.021503,73.813844,OZONE,10,83,42
India,Maharashtra,Nashik,"MIDC Ambad, Nashik - MPCB",04-06-2024 15:00:00,19.950220,73.731480,NH3,4,6,5
India,Maharashtra,Nashik,"Pandav Nagari, Nashik - MPCB",04-06-2024 15:00:00,19.9591346,73.7788008,NO2,18,53,32
India,Maharashtra,Nashik,"Pandav Nagari, Nashik - MPCB",04-06-2024 15:00:00,19.9591346,73.7788008,SO2,21,25,22
India,Maharashtra,Navi Mumbai,"Kopripada-Vashi, Navi Mumbai - MPCB",04-06-2024 15:00:00,19.090337,73.014232,SO2,1,4,2
India,Maharashtra,Navi Mumbai,"Kopripada-Vashi, Navi Mumbai - MPCB",04-06-2024 15:00:00,19.090337,73.014232,CO,8,22,15
India,Maharashtra,Navi Mumbai,"Nerul, Navi Mumbai - MPCB",04-06-2024 15:00:00,19.008751,73.016620,OZONE,15,25,22
India,Maharashtra,Navi Mumbai,"Sanpada, Navi Mumbai - MPCB",04-06-2024 15:00:00,19.0575752,73.0151367,PM10,55,149,83
India,Maharashtra,Navi Mumbai,"Sector-19A Nerul, Navi Mumbai - IITM",04-06-2024 15:00:00,19.044,73.0325,PM10,62,105,79
India,Maharashtra,Navi Mumbai,"Tondare-Taloja, Navi Mumbai - MPCB",04-06-2024 15:00:00,19.0630,73.1209,NO2,13,107,29
India,Maharashtra,Parbhani,"Masoom Colony, Parbhani - MPCB",04-06-2024 15:00:00,19.265594,76.761463,PM10,39,113,67
India,Maharashtra,Parbhani,"Masoom Colony, Parbhani - MPCB",04-06-2024 15:00:00,19.265594,76.761463,NO2,12,47,19
India,Maharashtra,Pimpri-Chinchwad,"Gavalinagar, Pimpri Chinchwad - MPCB",04-06-2024 15:00:00,18.63673,73.82487,SO2,1,5,2
India,Maharashtra,Pimpri-Chinchwad,"Gavalinagar, Pimpri Chinchwad - MPCB",04-06-2024 15:00:00,18.63673,73.82487,CO,10,26,14
India,Maharashtra,Pune,"Alandi, Pune - IITM",04-06-2024 15:00:00,18.675076,73.892743,CO,44,54,48
India,Maharashtra,Pune,"Hadapsar, Pune - IITM",04-06-2024 15:00:00,18.501793,73.927532,PM10,20,93,65
India,Maharashtra,Pune,"Hadapsar, Pune - IITM",04-06-2024 15:00:00,18.501793,73.927532,NO2,1,18,6
India,Maharashtra,Pune,"Karve Road, Pune - MPCB",04-06-2024 15:00:00,18.5011743,73.8165527,CO,14,94,44
India,Maharashtra,Pune,"Karve Road, Pune - MPCB",04-06-2024 15:00:00,18.5011743,73.8165527,OZONE,14,100,47
India,Maharashtra,Pune,"Revenue Colony-Shivajinagar, Pune - IITM",04-06-2024 15:00:00,18.530085,73.849598,PM2.5,44,84,65
India,Maharashtra,Pune,"Revenue Colony-Shivajinagar, Pune - IITM",04-06-2024 15:00:00,18.530085,73.849598,CO,4,91,46
India,Maharashtra,Pune,"Revenue Colony-Shivajinagar, Pune - IITM",04-06-2024 15:00:00,18.530085,73.849598,OZONE,7,41,22
India,Maharashtra,Pune,"Savitribai Phule Pune University, Pune - MPCB",04-06-2024 15:00:00,18.547056,73.826908,NH3,3,4,3
India,Maharashtra,Pune,"Savitribai Phule Pune University, Pune - MPCB",04-06-2024 15:00:00,18.547056,73.826908,CO,9,23,18
India,Maharashtra,Sangli,"Vijay Nagar, Sangli - MPCB",04-06-2024 15:00:00, 16.5038,74.3623,OZONE,12,73,39
India,Maharashtra,Solapur,"Dnyaneshwar Nagar, Solapur - MPCB",04-06-2024 15:00:00,17.6336264,75.9132495,PM10,16,53,32
India,Maharashtra,Solapur,"Dnyaneshwar Nagar, Solapur - MPCB",04-06-2024 15:00:00,17.6336264,75.9132495,NO2,4,25,13
India,Maharashtra,Solapur,"Dnyaneshwar Nagar, Solapur - MPCB",04-06-2024 15:00:00,17.6336264,75.9132495,OZONE,22,83,52
India,Maharashtra,Thane,"Kasarvadavali, Thane - MPCB",04-06-2024 15:00:00,19.26777,72.97182,PM10,35,82,55
India,Maharashtra,Thane,"Kasarvadavali, Thane - MPCB",04-06-2024 15:00:00,19.26777,72.97182,NO2,7,27,15
India,Maharashtra,Thane,"Pimpleshwar Mandir, Thane - MPCB",04-06-2024 15:00:00,19.192056,72.9585188,PM10,65,128,94
India,Maharashtra,Thane,"Upvan Fort, Thane - MPCB",04-06-2024 15:00:00,19.222279,72.957979,PM10,60,101,77
India,Maharashtra,Virar,"Bolinj, Virar - MPCB",04-06-2024 15:00:00,19.4458210,72.7988231,SO2,1,5,4
India,Manipur,Imphal,"Manipur University, Imphal - Manipur PCB",04-06-2024 15:00:00,24.7524239,93.9286218,CO,NA,NA,NA
India,Meghalaya,Shillong,"Lumpyngngad, Shillong - Meghalaya PCB",04-06-2024 15:00:00,25.5586,91.8985,OZONE,1,42,28
India,Mizoram,Aizawl,"Sikulpuikawn, Aizawl - Mizoram PCB",04-06-2024 15:00:00,23.7176342,92.7192841,PM2.5,3,18,10
India,Mizoram,Aizawl,"Sikulpuikawn, Aizawl - Mizoram PCB",04-06-2024 15:00:00,23.7176342,92.7192841,NH3,1,2,1
India,Nagaland,Kohima,"PWD Juction, Kohima - NPCB",04-06-2024 15:00:00,25.6635413,94.0989878,PM2.5,1,168,73
India,Nagaland,Kohima,"PWD Juction, Kohima - NPCB",04-06-2024 15:00:00,25.6635413,94.0989878,SO2,36,39,37
India,Odisha,Balasore,"Kalidaspur, Balasore - OSPCB",04-06-2024 15:00:00,21.51161,86.89088,PM2.5,8,63,26
India,Odisha,Balasore,"Kalidaspur, Balasore - OSPCB",04-06-2024 15:00:00,21.51161,86.89088,CO,27,90,79
India,Odisha,Barbil,"Forest Office, Barbil - OSPCB",04-06-2024 15:00:00,22.1166054,85.3945546,NO2,6,11,8
India,Odisha,Baripada,"Meher Colony, Baripada - OSPCB",04-06-2024 15:00:00,21.941841,86.728318,PM10,43,86,64
India,Odisha,Baripada,"Meher Colony, Baripada - OSPCB",04-06-2024 15:00:00,21.941841,86.728318,SO2,6,14,8
India,Odisha,Baripada,"Meher Colony, Baripada - OSPCB",04-06-2024 15:00:00,21.941841,86.728318,OZONE,45,141,91
India,Odisha,Byasanagar,"Ferro Chrome Colony, Byasanagar - OSPCB",04-06-2024 15:00:00,20.94185,86.11510,PM2.5,15,45,27
India,Odisha,Byasanagar,"Ferro Chrome Colony, Byasanagar - OSPCB",04-06-2024 15:00:00,20.94185,86.11510,CO,66,116,93
India,Odisha,Byasanagar,"Ferro Chrome Colony, Byasanagar - OSPCB",04-06-2024 15:00:00,20.94185,86.11510,OZONE,28,197,197
India,Odisha,Cuttack,"CDA Area, Cuttack - OSPCB",04-06-2024 15:00:00,20.48891     ,85.84768     ,CO,10,24,17
India,Odisha,Cuttack,"CDA Area, Cuttack - OSPCB",04-06-2024 15:00:00,20.48891     ,85.84768     ,OZONE,35,120,67
India,Odisha,Nayagarh,"Dabuna, Nayagarh - OSPCB",04-06-2024 15:00:00,21.847279,85.416905,PM2.5,30,84,71
India,Odisha,Nayagarh,"Dabuna, Nayagarh - OSPCB",04-06-2024 15:00:00,21.847279,85.416905,SO2,2,12,4
India,Odisha,Nayagarh,"Dabuna, Nayagarh - OSPCB",04-06-2024 15:00:00,21.847279,85.416905,OZONE,19,44,29
India,Odisha,Rairangpur,"Divisional Forest Office, Rairangpur - OSPCB",04-06-2024 15:00:00,22.265816,86.174829,PM10,57,103,78
India,Odisha,Rairangpur,"Divisional Forest Office, Rairangpur - OSPCB",04-06-2024 15:00:00,22.265816,86.174829,NO2,2,3,2
India,Odisha,Rourkela,"Fertilizer Township, Rourkela - OSPCB",04-06-2024 15:00:00,22.18972222,84.86277778,PM2.5,NA,NA,NA
India,Odisha,Rourkela,"Raghunathpali, Rourkela - OSPCB",04-06-2024 15:00:00,22.220833,84.809444,PM2.5,52,135,75
India,Odisha,Rourkela,"Raghunathpali, Rourkela - OSPCB",04-06-2024 15:00:00,22.220833,84.809444,CO,24,58,38
India,Odisha,Rourkela,"Raghunathpali, Rourkela - OSPCB",04-06-2024 15:00:00,22.220833,84.809444,OZONE,5,51,17
India,Odisha,Rourkela,"Sector-2, Rourkela - OSPCB",04-06-2024 15:00:00,22.24500000,84.88111111,PM10,64,105,85
India,Odisha,Talcher,"Talcher Coalfields,Talcher - OSPCB",04-06-2024 15:00:00,20.9360711,85.1707021,OZONE,22,37,24
India,Odisha,Tensa,"Barsua Iron Ore Mines, Tensa - OSPCB",04-06-2024 15:00:00,21.869985,85.167016,PM2.5,20,191,79
India,Odisha,Tensa,"Barsua Iron Ore Mines, Tensa - OSPCB",04-06-2024 15:00:00,21.869985,85.167016,NO2,2,15,6
India,Punjab,Bathinda,"Hardev Nagar, Bathinda - PPCB",04-06-2024 15:00:00,30.233011,74.907758,PM2.5,60,500,328
India,Punjab,Bathinda,"Hardev Nagar, Bathinda - PPCB",04-06-2024 15:00:00,30.233011,74.907758,PM10,NA,NA,NA
India,Punjab,Jalandhar,"Civil Line, Jalandhar - PPCB",04-06-2024 15:00:00,31.321907,75.578914,OZONE,20,93,62
India,Punjab,Khanna,"Kalal Majra, Khanna - PPCB",04-06-2024 15:00:00,30.736056 ,76.209694,CO,12,20,12
India,Punjab,Ludhiana,"Punjab Agricultural University, Ludhiana - PPCB",04-06-2024 15:00:00,30.9028,75.8086,PM2.5,143,386,226
India,Punjab,Ludhiana,"Punjab Agricultural University, Ludhiana - PPCB",04-06-2024 15:00:00,30.9028,75.8086,PM10,106,404,163
India,Punjab,Ludhiana,"Punjab Agricultural University, Ludhiana - PPCB",04-06-2024 15:00:00,30.9028,75.8086,NO2,22,28,27
India,Punjab,Ludhiana,"Punjab Agricultural University, Ludhiana - PPCB",04-06-2024 15:00:00,30.9028,75.8086,NH3,4,6,5
India,Punjab,Ludhiana,"Punjab Agricultural University, Ludhiana - PPCB",04-06-2024 15:00:00,30.9028,75.8086,SO2,5,17,10
India,Punjab,Mandi Gobindgarh,"RIMT University, Mandi Gobindgarh - PPCB",04-06-2024 15:00:00,30.649961,76.331442,PM2.5,95,368,245
India,Punjab,Mandi Gobindgarh,"RIMT University, Mandi Gobindgarh - PPCB",04-06-2024 15:00:00,30.649961,76.331442,NO2,17,24,23
India,Punjab,Patiala,"Model Town, Patiala - PPCB",04-06-2024 15:00:00,30.349388,76.366642,PM2.5,89,300,163
India,Punjab,Patiala,"Model Town, Patiala - PPCB",04-06-2024 15:00:00,30.349388,76.366642,PM10,118,491,170
India,Punjab,Patiala,"Model Town, Patiala - PPCB",04-06-2024 15:00:00,30.349388,76.366642,NO2,20,34,24
India,Punjab,Rupnagar,"Ratanpura, Rupnagar - Ambuja Cements",04-06-2024 15:00:00,31.0325454,76.5623046,PM2.5,49,475,150
India,Rajasthan,Ajmer,"Civil Lines,  Ajmer - RSPCB",04-06-2024 15:00:00,26.470859,74.646594,PM2.5,34,164,74
India,Rajasthan,Ajmer,"Civil Lines,  Ajmer - RSPCB",04-06-2024 15:00:00,26.470859,74.646594,CO,6,94,41
India,Rajasthan,Ajmer,"Civil Lines,  Ajmer - RSPCB",04-06-2024 15:00:00,26.470859,74.646594,OZONE,3,89,53
India,Rajasthan,Alwar,"Moti Doongri, Alwar - RSPCB",04-06-2024 15:00:00,27.554793,76.611536,NO2,24,45,31
India,Rajasthan,Barmer,"Railway Colony, Barmer - RSPCB",04-06-2024 15:00:00,25.747299,71.393989,PM10,102,194,129
India,Rajasthan,Barmer,"Railway Colony, Barmer - RSPCB",04-06-2024 15:00:00,25.747299,71.393989,OZONE,30,91,56
India,Rajasthan,Bharatpur,"Krishna Nagar, Bharatpur - RSPCB",04-06-2024 15:00:00,27.215415,77.50873,NH3,1,2,1
India,Rajasthan,Bhilwara,"Pratap Nagar, Bhilwara - RSPCB",04-06-2024 15:00:00,25.339605,74.618883,PM2.5,33,68,50
India,Rajasthan,Bhilwara,"Pratap Nagar, Bhilwara - RSPCB",04-06-2024 15:00:00,25.339605,74.618883,SO2,8,60,21
India,Rajasthan,Bhiwadi,"RIICO Ind. Area III, Bhiwadi - RSPCB",04-06-2024 15:00:00,28.194909,76.862296,PM10,NA,NA,NA
India,Rajasthan,Bhiwadi,"RIICO Ind. Area III, Bhiwadi - RSPCB",04-06-2024 15:00:00,28.194909,76.862296,SO2,NA,NA,NA
India,Rajasthan,Bhiwadi,"RIICO Ind. Area III, Bhiwadi - RSPCB",04-06-2024 15:00:00,28.194909,76.862296,CO,52,112,82
India,Rajasthan,Bhiwadi,"RIICO Ind. Area III, Bhiwadi - RSPCB",04-06-2024 15:00:00,28.194909,76.862296,OZONE,24,85,59
India,Rajasthan,Bikaner,"MM Ground, Bikaner - RSPCB",04-06-2024 15:00:00,28.018792,73.292658,NO2,10,49,26
India,Rajasthan,Chittorgarh,"Shastri Nagar, Chittorgarh - RSPCB",04-06-2024 15:00:00,24.892047,74.623527,NO2,14,14,14
India,Rajasthan,Churu,"Subash Chowk, Churu - RSPCB",04-06-2024 15:00:00,28.296139,74.961696,NH3,5,7,6
India,Rajasthan,Churu,"Subash Chowk, Churu - RSPCB",04-06-2024 15:00:00,28.296139,74.961696,SO2,4,8,5
India,Rajasthan,Dausa,"Khatikan Mohalla, Dausa - RSPCB",04-06-2024 15:00:00,26.895552,76.334753,PM2.5,47,93,71
India,Rajasthan,Dausa,"Khatikan Mohalla, Dausa - RSPCB",04-06-2024 15:00:00,26.895552,76.334753,OZONE,33,144,75
India,Rajasthan,Dholpur,"Raja Ganj, Dholpur - RSPCB",04-06-2024 15:00:00,26.699557,77.898881,NO2,4,12,8
India,Rajasthan,Dholpur,"Raja Ganj, Dholpur - RSPCB",04-06-2024 15:00:00,26.699557,77.898881,SO2,3,9,6
India,Rajasthan,Dungarpur,"Bhoiwada, Dungarpur - RSPCB",04-06-2024 15:00:00,23.837789,73.714926,SO2,2,22,8
India,Rajasthan,Dungarpur,"Bhoiwada, Dungarpur - RSPCB",04-06-2024 15:00:00,23.837789,73.714926,OZONE,17,93,39
India,Rajasthan,Hanumangarh,"Housing Board, Hanumangarh - RSPCB",04-06-2024 15:00:00,29.610750,74.283608,NO2,1,8,4
India,Rajasthan,Hanumangarh,"Housing Board, Hanumangarh - RSPCB",04-06-2024 15:00:00,29.610750,74.283608,SO2,5,23,12
India,Rajasthan,Jaipur,"Mansarovar Sector-12, Jaipur - RSPCB",04-06-2024 15:00:00,26.843698,75.766894,SO2,1,18,10
India,Rajasthan,Jaipur,"Mansarovar Sector-12, Jaipur - RSPCB",04-06-2024 15:00:00,26.843698,75.766894,OZONE,10,138,25
India,Rajasthan,Jaipur,"Police Commissionerate, Jaipur - RSPCB",04-06-2024 15:00:00,26.9164092,75.7994901,PM2.5,86,212,151
India,Rajasthan,Jaipur,"RIICO Sitapura, Jaipur - RSPCB",04-06-2024 15:00:00,26.786682,75.827928,CO,11,105,28
India,Rajasthan,Jaipur,"Sector-2 Murlipura, Jaipur - RSPCB",04-06-2024 15:00:00,26.960669,75.771817,NO2,10,42,20
India,Rajasthan,Jaipur,"Sector-2 Murlipura, Jaipur - RSPCB",04-06-2024 15:00:00,26.960669,75.771817,SO2,5,24,8
India,Rajasthan,Jaipur,"Shastri Nagar, Jaipur - RSPCB",04-06-2024 15:00:00,26.9502929,75.730943,OZONE,17,72,33
India,Rajasthan,Jalore,"Mudtra Sili, Jalore - RSPCB",04-06-2024 15:00:00,25.344694,72.626208,CO,7,18,14
India,Rajasthan,Jhalawar,"Rajlaxmi Nagar, Jhalawar - RSPCB",04-06-2024 15:00:00,24.588397,76.172782,PM10,96,166,115
India,Rajasthan,Jhalawar,"Rajlaxmi Nagar, Jhalawar - RSPCB",04-06-2024 15:00:00,24.588397,76.172782,SO2,5,14,7
India,Rajasthan,Jhunjhunu,"Indra Nagar, Jhunjhunu - RSPCB",04-06-2024 15:00:00,28.108988,75.386577,CO,10,30,14
India,Rajasthan,Jodhpur,"Collectorate, Jodhpur - RSPCB",04-06-2024 15:00:00,26.268249,73.0193853,PM10,86,182,133
India,Rajasthan,Jodhpur,"Collectorate, Jodhpur - RSPCB",04-06-2024 15:00:00,26.268249,73.0193853,CO,2,116,46
India,Rajasthan,Jodhpur,"Digari Kalan, Jodhpur - RSPCB",04-06-2024 15:00:00,26.295810,73.082283,PM2.5,28,95,52
India,Rajasthan,Jodhpur,"Jhalamand, Jodhpur - RSPCB",04-06-2024 15:00:00,26.215415,73.070156,PM2.5,27,46,36
India,Rajasthan,Jodhpur,"Jhalamand, Jodhpur - RSPCB",04-06-2024 15:00:00,26.215415,73.070156,SO2,4,11,6
India,Rajasthan,Jodhpur,"Mandor, Jodhpur - RSPCB",04-06-2024 15:00:00,26.358805,73.047444,PM10,83,116,100
India,Rajasthan,Jodhpur,"Samrat Ashok Udhyan, Jodhpur - RSPCB",04-06-2024 15:00:00,26.253384,72.976571,PM10,98,168,123
India,Rajasthan,Jodhpur,"Samrat Ashok Udhyan, Jodhpur - RSPCB",04-06-2024 15:00:00,26.253384,72.976571,NH3,3,8,4
India,Rajasthan,Jodhpur,"Samrat Ashok Udhyan, Jodhpur - RSPCB",04-06-2024 15:00:00,26.253384,72.976571,CO,4,15,10
India,Rajasthan,Karauli,"Satyawati Vihar, Karauli - RSPCB",04-06-2024 15:00:00,26.506177,77.025989,PM10,85,160,124
India,Rajasthan,Karauli,"Satyawati Vihar, Karauli - RSPCB",04-06-2024 15:00:00,26.506177,77.025989,NO2,9,30,15
India,Rajasthan,Karauli,"Satyawati Vihar, Karauli - RSPCB",04-06-2024 15:00:00,26.506177,77.025989,SO2,8,30,22
India,Rajasthan,Kota,"Nayapura, Kota - RSPCB",04-06-2024 15:00:00,25.196024,75.855668,PM10,79,173,115
India,Rajasthan,Kota,"Shrinath Puram, Kota - RSPCB",04-06-2024 15:00:00,25.14389,75.821256,PM10,66,156,92
India,Rajasthan,Nagaur,"Karni Colony, Nagaur - RSPCB",04-06-2024 15:00:00,27.213494,73.734444,PM10,91,167,133
India,Rajasthan,Nagaur,"Karni Colony, Nagaur - RSPCB",04-06-2024 15:00:00,27.213494,73.734444,CO,36,68,51
India,Rajasthan,Pali,"Indira Colony Vistar, Pali - RSPCB",04-06-2024 15:00:00,25.771061, 73.340227,PM2.5,79,159,121
India,Rajasthan,Pali,"Indira Colony Vistar, Pali - RSPCB",04-06-2024 15:00:00,25.771061, 73.340227,PM10,110,147,133
India,Rajasthan,Pali,"Indira Colony Vistar, Pali - RSPCB",04-06-2024 15:00:00,25.771061, 73.340227,NH3,4,9,7
India,Rajasthan,Pali,"Indira Colony Vistar, Pali - RSPCB",04-06-2024 15:00:00,25.771061, 73.340227,SO2,6,10,8
India,Rajasthan,Rajsamand,"Dhoinda, Rajsamand - RSPCB",04-06-2024 15:00:00,25.036360,73.883502,PM2.5,10,38,21
India,Rajasthan,Rajsamand,"Dhoinda, Rajsamand - RSPCB",04-06-2024 15:00:00,25.036360,73.883502,PM10,55,98,70
India,Rajasthan,Sikar,"Radhakishan Pura, Sikar - RSPCB",04-06-2024 15:00:00,27.608912,75.153302,PM2.5,36,54,46
India,Rajasthan,Sikar,"Radhakishan Pura, Sikar - RSPCB",04-06-2024 15:00:00,27.608912,75.153302,NH3,6,8,7
India,Rajasthan,Sirohi,"Vedhaynath Colony, Sirohi - RSPCB",04-06-2024 15:00:00,24.885261,72.857549,PM2.5,27,48,37
India,Rajasthan,Sirohi,"Vedhaynath Colony, Sirohi - RSPCB",04-06-2024 15:00:00,24.885261,72.857549,PM10,58,89,71
India,Rajasthan,Sirohi,"Vedhaynath Colony, Sirohi - RSPCB",04-06-2024 15:00:00,24.885261,72.857549,NO2,3,13,8
India,Rajasthan,Udaipur,"Ashok Nagar, Udaipur - RSPCB",04-06-2024 15:00:00,24.5886166,73.6321397,PM10,81,124,110
India,Rajasthan,Udaipur,"Ashok Nagar, Udaipur - RSPCB",04-06-2024 15:00:00,24.5886166,73.6321397,NH3,5,18,9
India,Rajasthan,Udaipur,"Ashok Nagar, Udaipur - RSPCB",04-06-2024 15:00:00,24.5886166,73.6321397,CO,1,107,26
India,TamilNadu,Ariyalur,"Keelapalur, Ariyalur - TNPCB",04-06-2024 15:00:00,11.06825,79.07033,SO2,30,32,31
India,TamilNadu,Chengalpattu,"Crescent University, Chengalpattu - TNPCB",04-06-2024 15:00:00,12.8777316,80.0834807,NO2,NA,NA,NA
India,TamilNadu,Chennai,"Kodungaiyur, Chennai - TNPCB",04-06-2024 15:00:00,13.1278,80.2642,PM2.5,11,37,23
India,TamilNadu,Chennai,"Kodungaiyur, Chennai - TNPCB",04-06-2024 15:00:00,13.1278,80.2642,NO2,10,35,17
India,TamilNadu,Chennai,"Kodungaiyur, Chennai - TNPCB",04-06-2024 15:00:00,13.1278,80.2642,NH3,3,6,4
India,TamilNadu,Chennai,"Manali, Chennai - CPCB",04-06-2024 15:00:00,13.164544,80.26285,NO2,5,8,7
India,TamilNadu,Chennai,"Manali, Chennai - CPCB",04-06-2024 15:00:00,13.164544,80.26285,NH3,4,5,5
India,TamilNadu,Chennai,"Manali, Chennai - CPCB",04-06-2024 15:00:00,13.164544,80.26285,OZONE,6,21,7
India,TamilNadu,Chennai,"Royapuram, Chennai - TNPCB",04-06-2024 15:00:00,13.1036,80.2909,NO2,20,86,43
India,TamilNadu,Chennai,"Royapuram, Chennai - TNPCB",04-06-2024 15:00:00,13.1036,80.2909,NH3,3,7,5
India,TamilNadu,Coimbatore,"PSG College of Arts and Science, Coimbatore - TNPCB",04-06-2024 15:00:00,11.0328,77.0349,PM2.5,17,42,32
India,TamilNadu,Coimbatore,"PSG College of Arts and Science, Coimbatore - TNPCB",04-06-2024 15:00:00,11.0328,77.0349,SO2,33,42,38
India,TamilNadu,Cuddalore,"Semmandalam, Cuddalore - TNPCB",04-06-2024 15:00:00,11.7637683,79.7499835,PM10,21,65,43
India,TamilNadu,Cuddalore,"Semmandalam, Cuddalore - TNPCB",04-06-2024 15:00:00,11.7637683,79.7499835,NH3,2,3,3
India,TamilNadu,Cuddalore,"Semmandalam, Cuddalore - TNPCB",04-06-2024 15:00:00,11.7637683,79.7499835,OZONE,1,2,2
India,TamilNadu,Gummidipoondi,"Anthoni Pillai Nagar, Gummidipoondi - TNPCB",04-06-2024 15:00:00,13.4127,80.1081,PM10,30,118,74
India,TamilNadu,Ooty,"Bombay Castel, Ooty - TNPCB",04-06-2024 15:00:00,11.4068288,76.7138973,PM2.5,17,83,44
India,TamilNadu,Ooty,"Bombay Castel, Ooty - TNPCB",04-06-2024 15:00:00,11.4068288,76.7138973,NO2,4,41,21
India,TamilNadu,Ooty,"Bombay Castel, Ooty - TNPCB",04-06-2024 15:00:00,11.4068288,76.7138973,OZONE,5,6,5
India,TamilNadu,Ramanathapuram,"Chalai Bazaar, Ramanathapuram - TNPCB",04-06-2024 15:00:00,9.36399,78.831977,SO2,8,11,9
India,TamilNadu,Salem,"Sona College of Technology, Salem - TNPCB",04-06-2024 15:00:00,11.679111,78.125052,PM10,NA,NA,NA
India,TamilNadu,Salem,"Sona College of Technology, Salem - TNPCB",04-06-2024 15:00:00,11.679111,78.125052,NH3,NA,NA,NA
India,TamilNadu,Thoothukudi,"Meelavittan, Thoothukudi - TNPCB",04-06-2024 15:00:00,8.816428 ,78.099039,PM10,35,211,80
India,TamilNadu,Thoothukudi,"Meelavittan, Thoothukudi - TNPCB",04-06-2024 15:00:00,8.816428 ,78.099039,CO,1,160,42
India,TamilNadu,Thoothukudi,"Meelavittan, Thoothukudi - TNPCB",04-06-2024 15:00:00,8.816428 ,78.099039,OZONE,1,21,7
India,TamilNadu,Tirupur,"Kumaran College, Tirupur - TNPCB",04-06-2024 15:00:00,11.0973603,77.3228673,NO2,4,34,11
India,TamilNadu,Vellore,"Vasanthapuram, Vellore - TNPCB",04-06-2024 15:00:00,12.909494,79.131861,NO2,NA,NA,NA
India,TamilNadu,Vellore,"Vasanthapuram, Vellore - TNPCB",04-06-2024 15:00:00,12.909494,79.131861,CO,NA,NA,NA
India,Telangana,Hyderabad,"Bollaram Industrial Area, Hyderabad - TSPCB",04-06-2024 15:00:00,17.540891,78.358528,NO2,13,28,21
India,Telangana,Hyderabad,"Bollaram Industrial Area, Hyderabad - TSPCB",04-06-2024 15:00:00,17.540891,78.358528,NH3,3,6,3
India,Telangana,Hyderabad,"Bollaram Industrial Area, Hyderabad - TSPCB",04-06-2024 15:00:00,17.540891,78.358528,CO,1,26,5
India,Telangana,Hyderabad,"ICRISAT Patancheru, Hyderabad - TSPCB",04-06-2024 15:00:00,17.518400,78.278777,PM2.5,2,173,42
India,Telangana,Hyderabad,"ICRISAT Patancheru, Hyderabad - TSPCB",04-06-2024 15:00:00,17.518400,78.278777,NH3,1,2,1
India,Telangana,Hyderabad,"ICRISAT Patancheru, Hyderabad - TSPCB",04-06-2024 15:00:00,17.518400,78.278777,SO2,3,31,12
India,Telangana,Hyderabad,"ICRISAT Patancheru, Hyderabad - TSPCB",04-06-2024 15:00:00,17.518400,78.278777,OZONE,6,59,18
India,Telangana,Hyderabad,"IITH Kandi, Hyderabad - TSPCB",04-06-2024 15:00:00,17.585705,78.126199,PM2.5,NA,NA,NA
India,Telangana,Hyderabad,"Kompally Municipal Office, Hyderabad - TSPCB",04-06-2024 15:00:00,17.544899,78.486949,SO2,4,18,9
India,Telangana,Hyderabad,"Kompally Municipal Office, Hyderabad - TSPCB",04-06-2024 15:00:00,17.544899,78.486949,OZONE,22,39,33
India,Telangana,Hyderabad,"Nacharam_TSIIC IALA, Hyderabad - TSPCB",04-06-2024 15:00:00,17.429398,78.569354,SO2,8,24,14
India,Telangana,Hyderabad,"Nacharam_TSIIC IALA, Hyderabad - TSPCB",04-06-2024 15:00:00,17.429398,78.569354,CO,20,35,28
India,Telangana,Hyderabad,"New Malakpet, Hyderabad - TSPCB",04-06-2024 15:00:00,17.37206,78.50864,NO2,12,24,14
India,Telangana,Hyderabad,"New Malakpet, Hyderabad - TSPCB",04-06-2024 15:00:00,17.37206,78.50864,NH3,3,5,5
India,Telangana,Hyderabad,"New Malakpet, Hyderabad - TSPCB",04-06-2024 15:00:00,17.37206,78.50864,CO,12,36,23
India,Telangana,Hyderabad,"Ramachandrapuram, Hyderabad - TSPCB",04-06-2024 15:00:00,17.528544,78.286195,NO2,10,12,12
India,Telangana,Hyderabad,"Somajiguda, Hyderabad - TSPCB",04-06-2024 15:00:00,17.417094,78.457437,PM2.5,NA,NA,NA
India,Telangana,Hyderabad,"Somajiguda, Hyderabad - TSPCB",04-06-2024 15:00:00,17.417094,78.457437,NO2,NA,NA,NA
India,Telangana,Hyderabad,"Zoo Park, Hyderabad - TSPCB",04-06-2024 15:00:00,17.349694,78.451437,PM10,10,148,44
India,Telangana,Hyderabad,"Zoo Park, Hyderabad - TSPCB",04-06-2024 15:00:00,17.349694,78.451437,SO2,1,8,3
India,Uttar_Pradesh,Agra,"Manoharpur, Agra - UPPCB",04-06-2024 15:00:00,27.23711,78.01936,PM10,18,50,34
India,Uttar_Pradesh,Agra,"Rohta, Agra - UPPCB",04-06-2024 15:00:00,27.106972,78.000111,CO,2,21,7
India,Uttar_Pradesh,Agra,"Sanjay Palace, Agra - UPPCB",04-06-2024 15:00:00,27.19865833,78.00598056,PM2.5,18,53,32
India,Uttar_Pradesh,Agra,"Sector-3B Avas Vikas Colony, Agra - UPPCB",04-06-2024 15:00:00,27.19412,77.96237,PM10,47,114,65
India,Uttar_Pradesh,Agra,"Sector-3B Avas Vikas Colony, Agra - UPPCB",04-06-2024 15:00:00,27.19412,77.96237,NO2,48,51,50
India,Uttar_Pradesh,Agra,"Sector-3B Avas Vikas Colony, Agra - UPPCB",04-06-2024 15:00:00,27.19412,77.96237,CO,7,35,11
India,Uttar_Pradesh,Agra,"Shastripuram, Agra - UPPCB",04-06-2024 15:00:00,27.19862,77.92066,PM10,NA,NA,NA
India,Uttar_Pradesh,Agra,"Shastripuram, Agra - UPPCB",04-06-2024 15:00:00,27.19862,77.92066,CO,8,24,10
India,Uttar_Pradesh,Baghpat,"Sardar Patel Inter College, Baghpat - UPPCB",04-06-2024 15:00:00,28.964949,77.278761,NO2,19,53,35
India,Uttar_Pradesh,Baghpat,"Sardar Patel Inter College, Baghpat - UPPCB",04-06-2024 15:00:00,28.964949,77.278761,NH3,2,4,3
India,Uttar_Pradesh,Bareilly,"Civil Lines, Bareilly - UPPCB",04-06-2024 15:00:00,28.359581,79.414455,SO2,15,22,17
India,Uttar_Pradesh,Bareilly,"Rajendra Nagar, Bareilly - UPPCB",04-06-2024 15:00:00,28.38910936,79.42963708,PM2.5,12,34,21
India,Uttar_Pradesh,Bareilly,"Rajendra Nagar, Bareilly - UPPCB",04-06-2024 15:00:00,28.38910936,79.42963708,PM10,24,114,57
India,Uttar_Pradesh,Bulandshahr,"Yamunapuram, Bulandshahr - UPPCB",04-06-2024 15:00:00,28.406963,77.849831,PM10,83,325,144
India,Uttar_Pradesh,Bulandshahr,"Yamunapuram, Bulandshahr - UPPCB",04-06-2024 15:00:00,28.406963,77.849831,CO,20,79,32
India,Uttar_Pradesh,Bulandshahr,"Yamunapuram, Bulandshahr - UPPCB",04-06-2024 15:00:00,28.406963,77.849831,OZONE,24,128,66
India,Uttar_Pradesh,Firozabad,"Nagla Bhau, Firozabad - UPPCB",04-06-2024 15:00:00,27.168897,78.376960,PM10,43,106,67
India,Uttar_Pradesh,Firozabad,"Nagla Bhau, Firozabad - UPPCB",04-06-2024 15:00:00,27.168897,78.376960,NO2,17,17,17
India,Uttar_Pradesh,Firozabad,"Vibhab Nagar, Firozabad - UPPCB",04-06-2024 15:00:00,27.1594,78.3953,NH3,1,2,2
India,Uttar_Pradesh,Firozabad,"Vibhab Nagar, Firozabad - UPPCB",04-06-2024 15:00:00,27.1594,78.3953,CO,13,48,16
India,Uttar_Pradesh,Ghaziabad,"Loni, Ghaziabad - UPPCB",04-06-2024 15:00:00,28.757294,77.278792,CO,22,108,55
India,Uttar_Pradesh,Ghaziabad,"Sanjay Nagar, Ghaziabad - UPPCB",04-06-2024 15:00:00,28.685382,77.453839,PM2.5,41,183,82
India,Uttar_Pradesh,Ghaziabad,"Sanjay Nagar, Ghaziabad - UPPCB",04-06-2024 15:00:00,28.685382,77.453839,PM10,101,301,168
India,Uttar_Pradesh,Ghaziabad,"Sanjay Nagar, Ghaziabad - UPPCB",04-06-2024 15:00:00,28.685382,77.453839,NO2,21,152,72
India,Uttar_Pradesh,Ghaziabad,"Sanjay Nagar, Ghaziabad - UPPCB",04-06-2024 15:00:00,28.685382,77.453839,NH3,6,17,11
India,Uttar_Pradesh,Ghaziabad,"Sanjay Nagar, Ghaziabad - UPPCB",04-06-2024 15:00:00,28.685382,77.453839,CO,5,119,37
India,Uttar_Pradesh,Ghaziabad,"Vasundhara, Ghaziabad - UPPCB",04-06-2024 15:00:00,28.6603346,77.3572563,PM10,85,331,154
India,Uttar_Pradesh,Ghaziabad,"Vasundhara, Ghaziabad - UPPCB",04-06-2024 15:00:00,28.6603346,77.3572563,NO2,24,98,47
India,Uttar_Pradesh,Ghaziabad,"Vasundhara, Ghaziabad - UPPCB",04-06-2024 15:00:00,28.6603346,77.3572563,NH3,2,14,9
India,Uttar_Pradesh,Greater Noida,"Knowledge Park - V, Greater Noida - UPPCB",04-06-2024 15:00:00,28.557054,77.453663,PM2.5,9,332,127
India,Uttar_Pradesh,Greater Noida,"Knowledge Park - V, Greater Noida - UPPCB",04-06-2024 15:00:00,28.557054,77.453663,NO2,12,73,28
India,Uttar_Pradesh,Hapur,"Anand Vihar, Hapur - UPPCB",04-06-2024 15:00:00,28.725645,77.749675,CO,35,74,47
India,Uttar_Pradesh,Jhansi,"Shivaji Nagar, Jhansi - UPPCB",04-06-2024 15:00:00,25.4547,78.6039,NH3,5,6,5
India,Uttar_Pradesh,Jhansi,"Shivaji Nagar, Jhansi - UPPCB",04-06-2024 15:00:00,25.4547,78.6039,CO,6,56,14
India,Uttar_Pradesh,Jhansi,"Shivaji Nagar, Jhansi - UPPCB",04-06-2024 15:00:00,25.4547,78.6039,OZONE,2,68,60
India,Uttar_Pradesh,Kanpur,"FTI Kidwai Nagar, Kanpur - UPPCB",04-06-2024 15:00:00,26.428282,80.327067,PM2.5,54,159,108
India,Uttar_Pradesh,Kanpur,"FTI Kidwai Nagar, Kanpur - UPPCB",04-06-2024 15:00:00,26.428282,80.327067,NH3,1,2,2
India,Uttar_Pradesh,Khurja,"Kalindi Kunj, Khurja - UPPCB",04-06-2024 15:00:00,28.2348927,77.8683002,OZONE,87,128,104
India,Uttar_Pradesh,Lucknow,"B R Ambedkar University, Lucknow - UPPCB",04-06-2024 15:00:00,26.766433,80.927299,PM2.5,49,164,79
India,Uttar_Pradesh,Lucknow,"B R Ambedkar University, Lucknow - UPPCB",04-06-2024 15:00:00,26.766433,80.927299,NH3,11,14,12
India,Uttar_Pradesh,Lucknow,"B R Ambedkar University, Lucknow - UPPCB",04-06-2024 15:00:00,26.766433,80.927299,CO,22,40,26
India,Uttar_Pradesh,Lucknow,"Kendriya Vidyalaya, Lucknow - CPCB",04-06-2024 15:00:00,26.906111,80.948222,NO2,6,71,21
India,Uttar_Pradesh,Lucknow,"Kukrail Picnic Spot-1, Lucknow - UPPCB",04-06-2024 15:00:00,26.90723,80.98579,PM10,60,234,114
India,Uttar_Pradesh,Lucknow,"Lalbagh, Lucknow - CPCB",04-06-2024 15:00:00,26.8458805,80.9365541,NO2,26,27,26
India,Uttar_Pradesh,Lucknow,"Lalbagh, Lucknow - CPCB",04-06-2024 15:00:00,26.8458805,80.9365541,CO,24,106,49
India,Uttar_Pradesh,Lucknow,"Lalbagh, Lucknow - CPCB",04-06-2024 15:00:00,26.8458805,80.9365541,OZONE,10,156,156
India,Uttar_Pradesh,Lucknow,"Talkatora District Industries Center, Lucknow - CPCB",04-06-2024 15:00:00,26.83399722,80.8917361,PM2.5,142,343,279
India,Uttar_Pradesh,Lucknow,"Talkatora District Industries Center, Lucknow - CPCB",04-06-2024 15:00:00,26.83399722,80.8917361,NH3,9,30,15
India,Uttar_Pradesh,Lucknow,"Talkatora District Industries Center, Lucknow - CPCB",04-06-2024 15:00:00,26.83399722,80.8917361,OZONE,2,80,34
India,Uttar_Pradesh,Meerut,"Jai Bhim Nagar, Meerut - UPPCB",04-06-2024 15:00:00,28.9535882,77.7622941,PM2.5,48,157,84
India,Uttar_Pradesh,Meerut,"Jai Bhim Nagar, Meerut - UPPCB",04-06-2024 15:00:00,28.9535882,77.7622941,OZONE,29,151,84
India,Uttar_Pradesh,Moradabad,"Buddhi Vihar, Moradabad - UPPCB",04-06-2024 15:00:00,28.83526,78.74460,PM2.5,21,96,50
India,Uttar_Pradesh,Moradabad,"Buddhi Vihar, Moradabad - UPPCB",04-06-2024 15:00:00,28.83526,78.74460,OZONE,53,148,97
India,Uttar_Pradesh,Moradabad,"Eco Herbal Park, Moradabad - UPPCB",04-06-2024 15:00:00,28.840739,78.697531,NH3,6,14,9
India,Uttar_Pradesh,Moradabad,"Eco Herbal Park, Moradabad - UPPCB",04-06-2024 15:00:00,28.840739,78.697531,OZONE,34,180,155
India,Uttar_Pradesh,Moradabad,"Kashiram Nagar, Moradabad - UPPCB",04-06-2024 15:00:00,28.849399,78.742362,NH3,4,4,4
India,Uttar_Pradesh,Moradabad,"Kashiram Nagar, Moradabad - UPPCB",04-06-2024 15:00:00,28.849399,78.742362,CO,22,39,32
India,Uttar_Pradesh,Moradabad,"Kashiram Nagar, Moradabad - UPPCB",04-06-2024 15:00:00,28.849399,78.742362,OZONE,40,98,50
India,Uttar_Pradesh,Moradabad,"Transport Nagar, Moradabad - UPPCB",04-06-2024 15:00:00,28.802625,78.753728,PM2.5,21,86,45
India,Uttar_Pradesh,Moradabad,"Transport Nagar, Moradabad - UPPCB",04-06-2024 15:00:00,28.802625,78.753728,PM10,54,181,105
India,Uttar_Pradesh,Moradabad,"Transport Nagar, Moradabad - UPPCB",04-06-2024 15:00:00,28.802625,78.753728,NH3,5,5,5
India,Uttar_Pradesh,Muzaffarnagar,"New Mandi, Muzaffarnagar - UPPCB",04-06-2024 15:00:00,29.4723508,77.7194031,NO2,11,43,25
India,Uttar_Pradesh,Noida,"Sector - 125, Noida - UPPCB",04-06-2024 15:00:00,28.5447608,77.3231257,PM10,NA,NA,NA
India,Uttar_Pradesh,Noida,"Sector - 62, Noida - IMD",04-06-2024 15:00:00,28.6245479,77.3577104,CO,14,50,25
India,Uttar_Pradesh,Noida,"Sector - 62, Noida - IMD",04-06-2024 15:00:00,28.6245479,77.3577104,OZONE,5,77,52
India,Uttar_Pradesh,Noida,"Sector-1, Noida - UPPCB",04-06-2024 15:00:00,28.5898,77.3101,PM2.5,45,212,94
India,Uttar_Pradesh,Noida,"Sector-1, Noida - UPPCB",04-06-2024 15:00:00,28.5898,77.3101,PM10,149,463,217
India,Uttar_Pradesh,Noida,"Sector-116, Noida - UPPCB",04-06-2024 15:00:00,28.569230,77.393848,SO2,8,37,20
India,Uttar_Pradesh,Noida,"Sector-116, Noida - UPPCB",04-06-2024 15:00:00,28.569230,77.393848,CO,6,133,64
India,Uttar_Pradesh,Prayagraj,"Jhunsi, Prayagraj - UPPCB",04-06-2024 15:00:00,25.425602,81.917152,CO,6,77,9
India,Uttar_Pradesh,Prayagraj,"Motilal Nehru NIT, Prayagraj - UPPCB",04-06-2024 15:00:00,25.494,81.863,CO,19,66,27
India,Uttar_Pradesh,Prayagraj,"Motilal Nehru NIT, Prayagraj - UPPCB",04-06-2024 15:00:00,25.494,81.863,OZONE,2,85,39
India,Uttar_Pradesh,Prayagraj,"Nagar Nigam, Prayagraj - UPPCB",04-06-2024 15:00:00,25.44919916 ,81.82735986 ,PM10,60,137,90
India,Uttar_Pradesh,Varanasi,"Ardhali Bazar, Varanasi - UPPCB",04-06-2024 15:00:00,25.3505986,82.9083074,PM2.5,19,59,33
India,Uttar_Pradesh,Varanasi,"Ardhali Bazar, Varanasi - UPPCB",04-06-2024 15:00:00,25.3505986,82.9083074,PM10,26,79,44
India,Uttar_Pradesh,Varanasi,"Ardhali Bazar, Varanasi - UPPCB",04-06-2024 15:00:00,25.3505986,82.9083074,NO2,38,61,43
India,Uttar_Pradesh,Varanasi,"Bhelupur, Varanasi - UPPCB",04-06-2024 15:00:00,25.301778,82.996789,OZONE,1,39,22
India,Uttar_Pradesh,Varanasi,"IESD Banaras Hindu University, Varanasi - UPPCB",04-06-2024 15:00:00,25.262326,82.995408,PM10,18,49,28
India,Uttar_Pradesh,Varanasi,"Maldahiya, Varanasi - UPPCB",04-06-2024 15:00:00,25.32393,82.99687,NH3,1,2,1
India,Uttar_Pradesh,Varanasi,"Maldahiya, Varanasi - UPPCB",04-06-2024 15:00:00,25.32393,82.99687,SO2,25,26,25
India,Uttar_Pradesh,Vrindavan,"Omex Eternity, Vrindavan - UPPCB",04-06-2024 15:00:00,27.5714090,77.6557570,PM2.5,27,124,46
India,Uttar_Pradesh,Vrindavan,"Omex Eternity, Vrindavan - UPPCB",04-06-2024 15:00:00,27.5714090,77.6557570,PM10,52,263,122
India,Uttar_Pradesh,Vrindavan,"Omex Eternity, Vrindavan - UPPCB",04-06-2024 15:00:00,27.5714090,77.6557570,NH3,1,4,1
India,Uttar_Pradesh,Vrindavan,"Omex Eternity, Vrindavan - UPPCB",04-06-2024 15:00:00,27.5714090,77.6557570,OZONE,16,23,19
India,Uttarakhand,Dehradun,"Doon University, Dehradun - UKPCB",04-06-2024 15:00:00,30.269444,78.044167,PM10,37,186,89
India,Uttarakhand,Dehradun,"Doon University, Dehradun - UKPCB",04-06-2024 15:00:00,30.269444,78.044167,CO,16,25,19
India,Uttarakhand,Dehradun,"Doon University, Dehradun - UKPCB",04-06-2024 15:00:00,30.269444,78.044167,OZONE,54,179,92
India,Uttarakhand,Kashipur,"Govt. Girls Inter College, Kashipur - UKPCB",04-06-2024 15:00:00,29.2124114,78.9611753,PM10,55,177,98
India,Uttarakhand,Kashipur,"Govt. Girls Inter College, Kashipur - UKPCB",04-06-2024 15:00:00,29.2124114,78.9611753,CO,1,42,6
India,West_Bengal,Asansol,"Asansol Court Area, Asansol - WBPCB",04-06-2024 15:00:00,23.685297,86.945968,NO2,14,53,28
India,West_Bengal,Asansol,"Asansol Court Area, Asansol - WBPCB",04-06-2024 15:00:00,23.685297,86.945968,OZONE,11,86,47
India,West_Bengal,Asansol,"Evelyn Lodge, Asansol - WBPCB",04-06-2024 15:00:00,23.6979360,86.9443950,PM2.5,NA,NA,NA
India,West_Bengal,Asansol,"Evelyn Lodge, Asansol - WBPCB",04-06-2024 15:00:00,23.6979360,86.9443950,NO2,NA,NA,NA
India,West_Bengal,Barrackpore,"SVSPA Campus, Barrackpore - WBPCB",04-06-2024 15:00:00,22.7605581,88.3617589,PM2.5,23,82,48
India,West_Bengal,Durgapur,"PCBL Residential Complex, Durgapur - WBPCB",04-06-2024 15:00:00,23.5087640,87.3544400,NH3,1,1,1
India,West_Bengal,Durgapur,"Sidhu Kanhu Indoor Stadium, Durgapur - WBPCB",04-06-2024 15:00:00,23.5404352,87.2892225,CO,10,62,34
India,West_Bengal,Howrah,"Belur Math, Howrah - WBPCB",04-06-2024 15:00:00,22.629801,88.352017,NO2,5,17,10
India,West_Bengal,Howrah,"Ghusuri, Howrah - WBPCB",04-06-2024 15:00:00,22.611968,88.347422,NO2,21,27,23
India,West_Bengal,Howrah,"Ghusuri, Howrah - WBPCB",04-06-2024 15:00:00,22.611968,88.347422,NH3,9,10,10
India,West_Bengal,Howrah,"Padmapukur, Howrah - WBPCB",04-06-2024 15:00:00,22.5687319,88.2797276,PM10,56,110,74
India,West_Bengal,Howrah,"Padmapukur, Howrah - WBPCB",04-06-2024 15:00:00,22.5687319,88.2797276,SO2,18,81,41
India,West_Bengal,Kolkata,"Ballygunge, Kolkata - WBPCB",04-06-2024 15:00:00,22.5367507,88.3638022,PM2.5,22,63,38
India,West_Bengal,Kolkata,"Ballygunge, Kolkata - WBPCB",04-06-2024 15:00:00,22.5367507,88.3638022,CO,8,14,12
India,West_Bengal,Kolkata,"Ballygunge, Kolkata - WBPCB",04-06-2024 15:00:00,22.5367507,88.3638022,OZONE,29,79,51
India,West_Bengal,Kolkata,"Bidhannagar, Kolkata - WBPCB",04-06-2024 15:00:00,22.58157048,88.41002457,NO2,18,31,23
India,West_Bengal,Kolkata,"Fort William, Kolkata - WBPCB",04-06-2024 15:00:00,22.556640,88.342674,PM2.5,45,70,58
India,West_Bengal,Kolkata,"Fort William, Kolkata - WBPCB",04-06-2024 15:00:00,22.556640,88.342674,SO2,4,20,8
India,West_Bengal,Kolkata,"Rabindra Bharati University, Kolkata - WBPCB",04-06-2024 15:00:00,22.627847,88.380669,PM10,44,69,58
India,West_Bengal,Kolkata,"Rabindra Sarobar, Kolkata - WBPCB",04-06-2024 15:00:00,22.51106,88.35142,NO2,43,59,51
India,West_Bengal,Kolkata,"Rabindra Sarobar, Kolkata - WBPCB",04-06-2024 15:00:00,22.51106,88.35142,NH3,8,9,8
India,West_Bengal,Kolkata,"Victoria, Kolkata - WBPCB",04-06-2024 15:00:00,22.5448082,88.3403691,PM10,32,64,48
India,West_Bengal,Kolkata,"Victoria, Kolkata - WBPCB",04-06-2024 15:00:00,22.5448082,88.3403691,SO2,5,8,7
India,West_Bengal,Kolkata,"Victoria, Kolkata - WBPCB",04-06-2024 15:00:00,22.5448082,88.3403691,OZONE,15,45,30
India,West_Bengal,Siliguri,"Ward-32 Bapupara, Siliguri - WBPCB",04-06-2024 15:00:00,26.6879226,88.4152495,OZONE,16,35,17
India,Andhra_Pradesh,Amaravati,"Secretariat, Amaravati - APPCB",04-06-2024 15:00:00,16.5150833,80.5181667,PM2.5,16,50,26
India,Andhra_Pradesh,Amaravati,"Secretariat, Amaravati - APPCB",04-06-2024 15:00:00,16.5150833,80.5181667,CO,11,48,32
India,Andhra_Pradesh,Amaravati,"Secretariat, Amaravati - APPCB",04-06-2024 15:00:00,16.5150833,80.5181667,OZONE,13,57,40
India,Andhra_Pradesh,Anantapur,"Gulzarpet, Anantapur - APPCB",04-06-2024 15:00:00,14.675886,77.593027,NO2,12,13,12
India,Andhra_Pradesh,Kadapa,"Yerramukkapalli, Kadapa - APPCB",04-06-2024 15:00:00,14.465052,78.824187,OZONE,NA,NA,NA
India,Andhra_Pradesh,Rajamahendravaram,"Anand Kala Kshetram, Rajamahendravaram - APPCB",04-06-2024 15:00:00,16.9872867,81.7363176,NO2,8,39,18
India,Andhra_Pradesh,Rajamahendravaram,"Anand Kala Kshetram, Rajamahendravaram - APPCB",04-06-2024 15:00:00,16.9872867,81.7363176,SO2,11,12,11
India,Andhra_Pradesh,Rajamahendravaram,"Anand Kala Kshetram, Rajamahendravaram - APPCB",04-06-2024 15:00:00,16.9872867,81.7363176,OZONE,20,155,97
India,Andhra_Pradesh,Tirupati,"Tirumala, Tirupati - APPCB",04-06-2024 15:00:00,13.67,79.35,OZONE,29,54,35
India,Andhra_Pradesh,Tirupati,"Vaikuntapuram, Tirupati - APPCB",04-06-2024 15:00:00,13.615387,79.409230,NO2,NA,NA,NA
India,Andhra_Pradesh,Vijayawada,"HB Colony, Vijayawada - APPCB",04-06-2024 15:00:00,16.536107,80.594233,NH3,4,4,4
India,Andhra_Pradesh,Vijayawada,"Kanuru, Vijayawada - APPCB",04-06-2024 15:00:00,16.486692,80.699436,SO2,NA,NA,NA
India,Andhra_Pradesh,Vijayawada,"Rajiv Nagar, Vijayawada - APPCB",04-06-2024 15:00:00,16.554731,80.649110,NO2,10,10,10
India,Andhra_Pradesh,Vijayawada,"Rajiv Nagar, Vijayawada - APPCB",04-06-2024 15:00:00,16.554731,80.649110,OZONE,20,35,31
India,Andhra_Pradesh,Visakhapatnam,"GVM Corporation, Visakhapatnam - APPCB",04-06-2024 15:00:00,17.72,83.3,NH3,3,5,3
India,Andhra_Pradesh,Visakhapatnam,"GVM Corporation, Visakhapatnam - APPCB",04-06-2024 15:00:00,17.72,83.3,CO,4,82,30
India,Assam,Byrnihat,"Central Academy for SFS, Byrnihat - PCBA",04-06-2024 15:00:00,26.071318,91.87488,PM2.5,13,365,78
India,Assam,Byrnihat,"Central Academy for SFS, Byrnihat - PCBA",04-06-2024 15:00:00,26.071318,91.87488,OZONE,23,28,25
India,Assam,Guwahati,"IITG, Guwahati - PCBA",04-06-2024 15:00:00,26.2028636,91.70046436,NO2,NA,NA,NA
India,Assam,Guwahati,"LGBI Airport, Guwahati - PCBA",04-06-2024 15:00:00,26.10887,91.589544,PM10,NA,NA,NA
India,Assam,Guwahati,"Pan Bazaar, Guwahati - PCBA",04-06-2024 15:00:00,26.187500,91.744194,PM2.5,2,25,12
India,Assam,Guwahati,"Pan Bazaar, Guwahati - PCBA",04-06-2024 15:00:00,26.187500,91.744194,CO,18,26,23
India,Assam,Silchar,"Tarapur, Silchar - PCBA",04-06-2024 15:00:00,24.82827,92.79525,NH3,1,1,1
India,Assam,Sivasagar,"Girls College, Sivasagar - PCBA",04-06-2024 15:00:00,26.987634,94.636574,PM10,41,56,48
India,Assam,Sivasagar,"Girls College, Sivasagar - PCBA",04-06-2024 15:00:00,26.987634,94.636574,CO,5,10,9
India,Bihar,Araria,"Kharahiya Basti, Araria - BSPCB",04-06-2024 15:00:00,26.146529,87.454184,NH3,6,8,6
India,Bihar,Araria,"Kharahiya Basti, Araria - BSPCB",04-06-2024 15:00:00,26.146529,87.454184,CO,18,30,24
India,Bihar,Aurangabad,"Gurdeo Nagar, Aurangabad - BSPCB",04-06-2024 15:00:00,24.75746,84.366208,NO2,3,20,7
India,Bihar,Aurangabad,"Gurdeo Nagar, Aurangabad - BSPCB",04-06-2024 15:00:00,24.75746,84.366208,OZONE,42,116,98
India,Bihar,Bettiah,"Kamalnath Nagar, Bettiah - BSPCB",04-06-2024 15:00:00,26.80365,84.51954,PM10,78,211,124
India,Bihar,Bettiah,"Kamalnath Nagar, Bettiah - BSPCB",04-06-2024 15:00:00,26.80365,84.51954,NO2,26,33,29
India,Bihar,Bhagalpur,"DM Office_Kachari Chowk, Bhagalpur - BSPCB",04-06-2024 15:00:00,25.251013,86.989001,PM10,63,140,91
India,Bihar,Bhagalpur,"DM Office_Kachari Chowk, Bhagalpur - BSPCB",04-06-2024 15:00:00,25.251013,86.989001,NO2,25,55,43
India,Bihar,Bhagalpur,"DM Office_Kachari Chowk, Bhagalpur - BSPCB",04-06-2024 15:00:00,25.251013,86.989001,NH3,4,8,6
India,Bihar,Bhagalpur,"Mayaganj, Bhagalpur - BSPCB",04-06-2024 15:00:00,25.265194,87.012947,PM2.5,57,163,87
India,Bihar,Bihar Sharif,"D M Colony, Bihar Sharif - BSPCB",04-06-2024 15:00:00,25.204762,85.514960,PM2.5,27,87,58
India,Bihar,Buxar,"Charitra Van, Buxar - BSPCB (Formerly known as Central Jail)",04-06-2024 15:00:00,25.567520,83.966379,PM2.5,NA,NA,NA
India,Bihar,Buxar,"Charitra Van, Buxar - BSPCB (Formerly known as Central Jail)",04-06-2024 15:00:00,25.567520,83.966379,PM10,NA,NA,NA
India,Bihar,Buxar,"Charitra Van, Buxar - BSPCB (Formerly known as Central Jail)",04-06-2024 15:00:00,25.567520,83.966379,NO2,NA,NA,NA
India,Bihar,Buxar,"Charitra Van, Buxar - BSPCB (Formerly known as Central Jail)",04-06-2024 15:00:00,25.567520,83.966379,OZONE,7,7,7
India,Bihar,Chhapra,"Darshan Nagar, Chhapra - BSPCB",04-06-2024 15:00:00,25.7808257,84.7446768,PM10,70,396,101
India,Bihar,Gaya,"SFTI Kusdihra, Gaya - BSPCB",04-06-2024 15:00:00,24.762518,84.982348,PM2.5,33,202,109
India,Bihar,Gaya,"SFTI Kusdihra, Gaya - BSPCB",04-06-2024 15:00:00,24.762518,84.982348,SO2,6,13,8
India,Bihar,Gaya,"SFTI Kusdihra, Gaya - BSPCB",04-06-2024 15:00:00,24.762518,84.982348,OZONE,26,103,65
India,Bihar,Hajipur,"Industrial Area, Hajipur - BSPCB",04-06-2024 15:00:00,25.697189,85.245900,PM10,86,212,132
India,Bihar,Katihar,"Mirchaibari, Katihar - BSPCB",04-06-2024 15:00:00,25.560083,87.553265,NH3,1,4,1
India,Bihar,Katihar,"Mirchaibari, Katihar - BSPCB",04-06-2024 15:00:00,25.560083,87.553265,OZONE,2,12,6
India,Bihar,Kishanganj,"SDM Office_Khagra, Kishanganj - BSPCB",04-06-2024 15:00:00,26.0881305,87.93840336,NH3,8,9,9
India,Bihar,Kishanganj,"SDM Office_Khagra, Kishanganj - BSPCB",04-06-2024 15:00:00,26.0881305,87.93840336,OZONE,17,77,19
India,Bihar,Manguraha,"Forest Rest House, Manguraha - BSPCB",04-06-2024 15:00:00,27.308328,84.531742,PM2.5,NA,NA,NA
India,Bihar,Manguraha,"Forest Rest House, Manguraha - BSPCB",04-06-2024 15:00:00,27.308328,84.531742,SO2,NA,NA,NA
India,Bihar,Manguraha,"Forest Rest House, Manguraha - BSPCB",04-06-2024 15:00:00,27.308328,84.531742,OZONE,2,26,10
India,Bihar,Motihari,"Gandak Colony, Motihari - BSPCB",04-06-2024 15:00:00,26.63086,84.90051,CO,3,34,7
India,Bihar,Munger,"Town Hall, Munger - BSPCB",04-06-2024 15:00:00,25.376776,86.471523,PM10,48,104,75
India,Bihar,Muzaffarpur,"Buddha Colony, Muzaffarpur - BSPCB",04-06-2024 15:00:00,26.11442,85.39813,PM10,66,138,96
India,Bihar,Muzaffarpur,"MIT-Daudpur Kothi, Muzaffarpur - BSPCB",04-06-2024 15:00:00,26.1403345,85.3650192,NO2,4,6,5
India,Bihar,Muzaffarpur,"MIT-Daudpur Kothi, Muzaffarpur - BSPCB",04-06-2024 15:00:00,26.1403345,85.3650192,OZONE,13,37,25
India,Bihar,Patna,"Govt. High School Shikarpur, Patna - BSPCB",04-06-2024 15:00:00,25.592539,85.227158,PM10,101,421,142
India,Bihar,Patna,"Muradpur, Patna - BSPCB",04-06-2024 15:00:00,25.619651,85.147382,PM2.5,112,444,294
India,Bihar,Patna,"Muradpur, Patna - BSPCB",04-06-2024 15:00:00,25.619651,85.147382,PM10,164,500,285
India,Bihar,Patna,"Muradpur, Patna - BSPCB",04-06-2024 15:00:00,25.619651,85.147382,CO,28,109,36
India,Bihar,Patna,"Samanpura, Patna - BSPCB",04-06-2024 15:00:00,25.596727,85.085624,PM2.5,93,172,124
India,Bihar,Saharsa,"Police Line, Saharsa - BSPCB",04-06-2024 15:00:00,25.892357,86.590325,NO2,6,8,7
India,Bihar,Samastipur,"DM Office_Kasipur, Samastipur - BSPCB",04-06-2024 15:00:00,25.859655,85.77944,PM10,3,124,48
India,Bihar,Samastipur,"DM Office_Kasipur, Samastipur - BSPCB",04-06-2024 15:00:00,25.859655,85.77944,NH3,4,4,4
India,Bihar,Sasaram,"Dada Peer, Sasaram - BSPCB",04-06-2024 15:00:00,24.952822,84.002396,PM10,23,68,44
India,Bihar,Siwan,"Chitragupta Nagar, Siwan - BSPCB",04-06-2024 15:00:00,26.2271665,84.3570427,PM10,61,180,110
India,Bihar,Siwan,"Chitragupta Nagar, Siwan - BSPCB",04-06-2024 15:00:00,26.2271665,84.3570427,SO2,22,37,30
India,Bihar,Siwan,"Chitragupta Nagar, Siwan - BSPCB",04-06-2024 15:00:00,26.2271665,84.3570427,OZONE,NA,NA,NA
India,Chandigarh,Chandigarh,"Sector 22, Chandigarh - CPCC",04-06-2024 15:00:00,30.735567,76.775714,NO2,11,59,33
India,Chandigarh,Chandigarh,"Sector-53, Chandigarh - CPCC",04-06-2024 15:00:00,30.719859,76.738637,PM10,NA,NA,NA
India,Chandigarh,Chandigarh,"Sector-53, Chandigarh - CPCC",04-06-2024 15:00:00,30.719859,76.738637,SO2,NA,NA,NA
India,Chhattisgarh,Bhilai,"Hathkhoj, Bhilai - CECB",04-06-2024 15:00:00,21.224231,81.408350,NH3,9,9,9
India,Chhattisgarh,Chhal,"Nawapara SECL Colony, Chhal - CECB",04-06-2024 15:00:00,22.118125,83.140608,SO2,NA,NA,NA
India,Chhattisgarh,Korba,"Urja Nagar, Korba - CECB",04-06-2024 15:00:00,22.348441,82.549611,SO2,8,13,10
India,Chhattisgarh,Korba,"Urja Nagar, Korba - CECB",04-06-2024 15:00:00,22.348441,82.549611,CO,13,88,61
India,Chhattisgarh,Kunjemura,"OP Jindal School, Kunjemura - CECB",04-06-2024 15:00:00,22.126650,83.483212,NO2,13,62,34
India,Chhattisgarh,Raipur,"AIIMS, Raipur - CECB",04-06-2024 15:00:00,21.258815,81.578979,NO2,10,23,14
India,Chhattisgarh,Raipur,"Bhatagaon New ISBT, Raipur - CECB",04-06-2024 15:00:00,21.219665,81.630094,PM2.5,15,32,24
India,Chhattisgarh,Raipur,"Siltara Phase-II, Raipur - CECB",04-06-2024 15:00:00,21.371751,81.664929,NH3,3,3,3
India,Chhattisgarh,Raipur,"Siltara Phase-II, Raipur - CECB",04-06-2024 15:00:00,21.371751,81.664929,CO,4,50,15
India,Chhattisgarh,Raipur,"Siltara Phase-II, Raipur - CECB",04-06-2024 15:00:00,21.371751,81.664929,OZONE,5,35,18
India,Chhattisgarh,Tumidih,"OP Jindal Industrial Park, Tumidih - CECB",04-06-2024 15:00:00,22.06631475,83.33820077,NH3,NA,NA,NA
India,Chhattisgarh,Tumidih,"OP Jindal Industrial Park, Tumidih - CECB",04-06-2024 15:00:00,22.06631475,83.33820077,OZONE,15,94,70
India,Delhi,Delhi,"Alipur, Delhi - DPCC",04-06-2024 15:00:00,28.815329,77.153010,PM2.5,28,133,74
India,Delhi,Delhi,"Ashok Vihar, Delhi - DPCC",04-06-2024 15:00:00,28.695381,77.181665,PM2.5,52,250,111
India,Delhi,Delhi,"Ashok Vihar, Delhi - DPCC",04-06-2024 15:00:00,28.695381,77.181665,PM10,107,460,175
India,Delhi,Delhi,"Burari Crossing, Delhi - IMD",04-06-2024 15:00:00,28.7256504,77.2011573,PM2.5,55,357,162
India,Delhi,Delhi,"Burari Crossing, Delhi - IMD",04-06-2024 15:00:00,28.7256504,77.2011573,CO,30,82,57
India,Delhi,Delhi,"CRRI Mathura Road, Delhi - IMD",04-06-2024 15:00:00,28.5512005,77.2735737,PM2.5,61,270,134
India,Delhi,Delhi,"CRRI Mathura Road, Delhi - IMD",04-06-2024 15:00:00,28.5512005,77.2735737,NO2,9,30,17
India,Delhi,Delhi,"Chandni Chowk, Delhi - IITM",04-06-2024 15:00:00,28.656756,77.227234,PM2.5,NA,NA,NA
India,Delhi,Delhi,"Dr. Karni Singh Shooting Range, Delhi - DPCC",04-06-2024 15:00:00,28.498571,77.264840,PM2.5,54,178,111
India,Delhi,Delhi,"Dr. Karni Singh Shooting Range, Delhi - DPCC",04-06-2024 15:00:00,28.498571,77.264840,PM10,95,416,179
India,Delhi,Delhi,"Dr. Karni Singh Shooting Range, Delhi - DPCC",04-06-2024 15:00:00,28.498571,77.264840,OZONE,29,245,130
India,Delhi,Delhi,"Dwarka-Sector 8, Delhi - DPCC ",04-06-2024 15:00:00,28.5710274,77.0719006,OZONE,6,220,152
India,Delhi,Delhi,"IHBAS, Dilshad Garden, Delhi - CPCB",04-06-2024 15:00:00,28.6811736,77.3025234,PM10,131,314,172
India,Delhi,Delhi,"IHBAS, Dilshad Garden, Delhi - CPCB",04-06-2024 15:00:00,28.6811736,77.3025234,NO2,17,40,28
India,Delhi,Delhi,"Jawaharlal Nehru Stadium, Delhi - DPCC",04-06-2024 15:00:00,28.580280,77.233829,NH3,5,9,6
India,Delhi,Delhi,"Lodhi Road, Delhi - IITM",04-06-2024 15:00:00,28.588333,77.221667,SO2,16,30,22
India,Delhi,Delhi,"Lodhi Road, Delhi - IMD",04-06-2024 15:00:00,28.5918245,77.2273074,PM2.5,53,203,92
India,Delhi,Delhi,"Lodhi Road, Delhi - IMD",04-06-2024 15:00:00,28.5918245,77.2273074,CO,24,84,40
India,Delhi,Delhi,"Lodhi Road, Delhi - IMD",04-06-2024 15:00:00,28.5918245,77.2273074,OZONE,11,70,43
India,Delhi,Delhi,"Major Dhyan Chand National Stadium, Delhi - DPCC",04-06-2024 15:00:00,28.611281,77.237738,PM2.5,63,270,122
India,Delhi,Delhi,"Major Dhyan Chand National Stadium, Delhi - DPCC",04-06-2024 15:00:00,28.611281,77.237738,NH3,6,9,7
India,Delhi,Delhi,"Mandir Marg, Delhi - DPCC",04-06-2024 15:00:00,28.636429,77.201067,OZONE,9,152,91
India,Delhi,Delhi,"Mundka, Delhi - DPCC",04-06-2024 15:00:00,28.684678,77.076574,OZONE,7,241,121
India,Delhi,Delhi,"NSIT Dwarka, Delhi - CPCB",04-06-2024 15:00:00,28.60909,77.0325413,NH3,12,15,13
India,Delhi,Delhi,"NSIT Dwarka, Delhi - CPCB",04-06-2024 15:00:00,28.60909,77.0325413,OZONE,10,85,39
India,Delhi,Delhi,"Narela, Delhi - DPCC",04-06-2024 15:00:00,28.822836,77.101981,PM10,138,500,208
India,Delhi,Delhi,"Nehru Nagar, Delhi - DPCC",04-06-2024 15:00:00,28.567890,77.250515,PM2.5,45,398,128
India,Delhi,Delhi,"Nehru Nagar, Delhi - DPCC",04-06-2024 15:00:00,28.567890,77.250515,SO2,4,13,8
India,Delhi,Delhi,"New Moti Bagh, Delhi - MHUA",04-06-2024 15:00:00,28.57834,77.18400,PM2.5,41,342,146
India,Delhi,Delhi,"New Moti Bagh, Delhi - MHUA",04-06-2024 15:00:00,28.57834,77.18400,CO,28,125,44
India,Delhi,Delhi,"North Campus, DU, Delhi - IMD",04-06-2024 15:00:00,28.6573814,77.1585447,PM2.5,64,494,202
India,Delhi,Delhi,"North Campus, DU, Delhi - IMD",04-06-2024 15:00:00,28.6573814,77.1585447,PM10,76,437,207
India,Delhi,Delhi,"Okhla Phase-2, Delhi - DPCC",04-06-2024 15:00:00,28.530785,77.271255,PM10,145,407,214
India,Delhi,Delhi,"Patparganj, Delhi - DPCC",04-06-2024 15:00:00,28.623763,77.287209,PM2.5,73,341,141
India,Delhi,Delhi,"Patparganj, Delhi - DPCC",04-06-2024 15:00:00,28.623763,77.287209,CO,3,118,53
India,Delhi,Delhi,"Punjabi Bagh, Delhi - DPCC",04-06-2024 15:00:00,28.674045,77.131023,PM2.5,45,290,134
India,Delhi,Delhi,"Punjabi Bagh, Delhi - DPCC",04-06-2024 15:00:00,28.674045,77.131023,CO,24,103,48
India,Delhi,Delhi,"Pusa, Delhi - DPCC",04-06-2024 15:00:00,28.639652,77.146275,CO,23,111,49
India,Delhi,Delhi,"Pusa, Delhi - IMD",04-06-2024 15:00:00,28.636110,77.173332,NO2,15,47,23
India,Delhi,Delhi,"R K Puram, Delhi - DPCC",04-06-2024 15:00:00,28.563262,77.186937,PM2.5,63,328,152
India,Delhi,Delhi,"Rohini, Delhi - DPCC",04-06-2024 15:00:00,28.732528,77.119920,NH3,2,9,4
India,Delhi,Delhi,"Shadipur, Delhi - CPCB",04-06-2024 15:00:00,28.6514781,77.1473105,CO,14,122,53
India,Delhi,Delhi,"Sonia Vihar, Delhi - DPCC",04-06-2024 15:00:00,28.710508,77.249485,PM10,125,433,186
India,Delhi,Delhi,"Sri Aurobindo Marg, Delhi - DPCC",04-06-2024 15:00:00,28.531346,77.190156,SO2,12,22,17
India,Delhi,Delhi,"Sri Aurobindo Marg, Delhi - DPCC",04-06-2024 15:00:00,28.531346,77.190156,OZONE,5,223,100
India,Delhi,Delhi,"Vivek Vihar, Delhi - DPCC",04-06-2024 15:00:00,28.672342,77.315260,SO2,12,30,18
India,Delhi,Delhi,"Wazirpur, Delhi - DPCC",04-06-2024 15:00:00,28.699793,77.165453,PM2.5,45,302,129
India,Delhi,Delhi,"Wazirpur, Delhi - DPCC",04-06-2024 15:00:00,28.699793,77.165453,NO2,30,85,46
India,Gujarat,Ahmedabad,"Chandkheda, Ahmedabad - IITM",04-06-2024 15:00:00,23.107969,72.574648,NO2,72,96,85
India,Gujarat,Ahmedabad,"Chandkheda, Ahmedabad - IITM",04-06-2024 15:00:00,23.107969,72.574648,OZONE,1,38,13
India,Gujarat,Ahmedabad,"Maninagar, Ahmedabad - GPCB",04-06-2024 15:00:00,23.002657,72.591912,NO2,30,51,38
India,Gujarat,Ahmedabad,"Rakhial, Ahmedabad - IITM",04-06-2024 15:00:00,23.016834,72.625775,PM2.5,NA,NA,NA
India,Gujarat,Ahmedabad,"Rakhial, Ahmedabad - IITM",04-06-2024 15:00:00,23.016834,72.625775,SO2,NA,NA,NA
India,Gujarat,Ahmedabad,"SVPI Airport Hansol, Ahmedabad - IITM",04-06-2024 15:00:00,23.076793,72.627874,NO2,34,43,38
India,Gujarat,Ahmedabad,"SVPI Airport Hansol, Ahmedabad - IITM",04-06-2024 15:00:00,23.076793,72.627874,SO2,3,8,5
India,Gujarat,Ahmedabad,"Sardar Vallabhbhai Patel Stadium, Ahmedabad - IITM",04-06-2024 15:00:00,23.043070,72.562968,NH3,6,6,6
India,Gujarat,Ahmedabad,"Sardar Vallabhbhai Patel Stadium, Ahmedabad - IITM",04-06-2024 15:00:00,23.043070,72.562968,SO2,12,41,32
India,Gujarat,Ankleshwar,"GIDC, Ankleshwar - GPCB",04-06-2024 15:00:00,21.613267,73.010555,CO,26,101,61
India,Gujarat,Gandhinagar,"Sector-10, Gandhinagar - GPCB",04-06-2024 15:00:00,23.221714,72.654328,SO2,3,4,4
India,Gujarat,Surat,"Science Center, Surat - SMC",04-06-2024 15:00:00,21.170046,72.795405,NO2,16,24,20
India,Gujarat,Vapi,"Phase-1 GIDC, Vapi - GPCB",04-06-2024 15:00:00,20.362421,72.918013,PM10,42,99,61
India,Gujarat,Vapi,"Phase-1 GIDC, Vapi - GPCB",04-06-2024 15:00:00,20.362421,72.918013,NH3,2,2,2
India,Gujarat,Vatva,"Phase-4 GIDC, Vatva - GPCB",04-06-2024 15:00:00,22.969611,72.643500,NH3,13,22,18
India,Haryana,Ambala,"Patti Mehar, Ambala - HSPCB",04-06-2024 15:00:00,30.379589,76.778328,CO,30,60,46
India,Haryana,Bahadurgarh,"Arya Nagar, Bahadurgarh - HSPCB",04-06-2024 15:00:00,28.6701,76.9254,NH3,8,10,9
India,Haryana,Bahadurgarh,"Arya Nagar, Bahadurgarh - HSPCB",04-06-2024 15:00:00,28.6701,76.9254,OZONE,34,41,38
India,Haryana,Ballabgarh,"Nathu Colony, Ballabgarh - HSPCB",04-06-2024 15:00:00,28.3419248,77.319699,NO2,11,13,12
India,Haryana,Bhiwani,"H.B. Colony, Bhiwani - HSPCB",04-06-2024 15:00:00,28.806223,76.141105,NO2,4,11,8
India,Haryana,Bhiwani,"H.B. Colony, Bhiwani - HSPCB",04-06-2024 15:00:00,28.806223,76.141105,NH3,6,6,6
India,Haryana,Dharuhera,"Municipal Corporation Office, Dharuhera -  HSPCB",04-06-2024 15:00:00,28.206800,76.799700,PM2.5,67,249,162
India,Haryana,Dharuhera,"Municipal Corporation Office, Dharuhera -  HSPCB",04-06-2024 15:00:00,28.206800,76.799700,PM10,60,137,107
India,Haryana,Dharuhera,"Municipal Corporation Office, Dharuhera -  HSPCB",04-06-2024 15:00:00,28.206800,76.799700,SO2,5,13,8
India,Haryana,Faridabad,"New Industrial Town, Faridabad - HSPCB",04-06-2024 15:00:00,28.39072,77.30059,SO2,1,14,2
India,Haryana,Faridabad,"Sector 11, Faridabad - HSPCB",04-06-2024 15:00:00,28.376058,77.315741,PM2.5,88,314,194
India,Haryana,Faridabad,"Sector 11, Faridabad - HSPCB",04-06-2024 15:00:00,28.376058,77.315741,NO2,30,34,31
India,Haryana,Faridabad,"Sector 11, Faridabad - HSPCB",04-06-2024 15:00:00,28.376058,77.315741,NH3,6,6,6
India,Haryana,Faridabad,"Sector 11, Faridabad - HSPCB",04-06-2024 15:00:00,28.376058,77.315741,SO2,2,124,18
India,Haryana,Faridabad,"Sector 30, Faridabad - HSPCB",04-06-2024 15:00:00,28.4417,77.3217,SO2,NA,NA,NA
India,Haryana,Faridabad,"Sector 30, Faridabad - HSPCB",04-06-2024 15:00:00,28.4417,77.3217,CO,16,38,18
India,Haryana,Gurugram,"Sector-51, Gurugram - HSPCB",04-06-2024 15:00:00,28.4227,77.0667,PM2.5,104,372,291
India,Haryana,Hisar,"Urban Estate-II, Hisar - HSPCB",04-06-2024 15:00:00,29.140560,75.744941,OZONE,36,101,85
India,Haryana,Jind,"Police Lines, Jind - HSPCB",04-06-2024 15:00:00,29.307814,76.337619,PM2.5,63,134,82
India,Haryana,Kurukshetra,"Sector-7, Kurukshetra - HSPCB",04-06-2024 15:00:00,29.966942,76.875879,OZONE,16,87,58
India,Haryana,Mandikhera,"General Hospital, Mandikhera - HSPCB",04-06-2024 15:00:00,27.9002,76.9938,PM2.5,23,71,44
India,Haryana,Mandikhera,"General Hospital, Mandikhera - HSPCB",04-06-2024 15:00:00,27.9002,76.9938,PM10,70,128,99
India,Haryana,Manesar,"Sector-2 IMT, Manesar - HSPCB",04-06-2024 15:00:00,28.360699,76.936090,CO,14,102,51
India,Haryana,Palwal,"Shyam Nagar, Palwal - HSPCB",04-06-2024 15:00:00,28.1485564,77.3320667,PM2.5,53,81,66
India,Haryana,Palwal,"Shyam Nagar, Palwal - HSPCB",04-06-2024 15:00:00,28.1485564,77.3320667,NO2,23,25,24
India,Haryana,Palwal,"Shyam Nagar, Palwal - HSPCB",04-06-2024 15:00:00,28.1485564,77.3320667,NH3,8,9,9
India,Haryana,Palwal,"Shyam Nagar, Palwal - HSPCB",04-06-2024 15:00:00,28.1485564,77.3320667,SO2,3,52,12
India,Haryana,Panchkula,"Sector-6, Panchkula - HSPCB ",04-06-2024 15:00:00,30.7057778,76.8531805555555,NO2,NA,NA,NA
India,Haryana,Panipat,"Sector-18, Panipat - HSPCB",04-06-2024 15:00:00,29.432304,76.972765,SO2,18,19,19
India,Haryana,Panipat,"Sector-18, Panipat - HSPCB",04-06-2024 15:00:00,29.432304,76.972765,OZONE,30,30,30
India,Haryana,Sirsa,"F-Block, Sirsa - HSPCB",04-06-2024 15:00:00,29.536400,75.015800,PM2.5,63,500,229
India,Haryana,Sirsa,"F-Block, Sirsa - HSPCB",04-06-2024 15:00:00,29.536400,75.015800,SO2,4,18,13
India,Himachal Pradesh,Baddi,"HIMUDA Complex Phase-1, Baddi - HPPCB",04-06-2024 15:00:00,30.943887,76.801991,PM10,69,230,149
India,Himachal Pradesh,Baddi,"HIMUDA Complex Phase-1, Baddi - HPPCB",04-06-2024 15:00:00,30.943887,76.801991,CO,11,74,64
India,Jharkhand,Dhanbad,"Kalakusuma, Dhanbad - DMC",04-06-2024 15:00:00,23.811548,86.481238,CO,129,135,131
India,Jharkhand,Dhanbad,"Sardar Patel Nagar, Dhanbad - JSPCB",04-06-2024 15:00:00,23.80569,86.44268,NO2,NA,NA,NA
India,Karnataka,Belgaum,"Ramteerth Nagar, Belgaum - KSPCB",04-06-2024 15:00:00,15.888653,74.541751,PM2.5,9,29,15
India,Karnataka,Bengaluru,"Bapuji Nagar, Bengaluru - KSPCB",04-06-2024 15:00:00,12.951913,77.539784,PM10,24,101,51
India,Karnataka,Bengaluru,"Bapuji Nagar, Bengaluru - KSPCB",04-06-2024 15:00:00,12.951913,77.539784,CO,16,44,30
India,Karnataka,Bengaluru,"Bapuji Nagar, Bengaluru - KSPCB",04-06-2024 15:00:00,12.951913,77.539784,OZONE,24,29,26
India,Karnataka,Bengaluru,"Hombegowda Nagar, Bengaluru - KSPCB",04-06-2024 15:00:00,12.938539,77.590100,NO2,10,25,16
India,Karnataka,Bengaluru,"Jayanagar 5th Block, Bengaluru - KSPCB",04-06-2024 15:00:00,12.920984,77.584908,NH3,NA,NA,NA
India,Karnataka,Bengaluru,"Jayanagar 5th Block, Bengaluru - KSPCB",04-06-2024 15:00:00,12.920984,77.584908,SO2,NA,NA,NA
India,Karnataka,Bengaluru,"Jayanagar 5th Block, Bengaluru - KSPCB",04-06-2024 15:00:00,12.920984,77.584908,CO,20,25,22
India,Karnataka,Bengaluru,"Jayanagar 5th Block, Bengaluru - KSPCB",04-06-2024 15:00:00,12.920984,77.584908,OZONE,20,26,22
India,Karnataka,Bengaluru,"Kasturi Nagar, Bengaluru - KSPCB",04-06-2024 15:00:00,13.003872,77.664217,SO2,10,10,10
India,Karnataka,Bengaluru,"Kasturi Nagar, Bengaluru - KSPCB",04-06-2024 15:00:00,13.003872,77.664217,CO,24,26,25
India,Karnataka,Bengaluru,"Peenya, Bengaluru - CPCB",04-06-2024 15:00:00,13.0270199,77.494094,PM2.5,32,43,37
India,Karnataka,Bengaluru,"Peenya, Bengaluru - CPCB",04-06-2024 15:00:00,13.0270199,77.494094,NO2,17,26,21
India,Karnataka,Bengaluru,"Peenya, Bengaluru - CPCB",04-06-2024 15:00:00,13.0270199,77.494094,OZONE,16,43,25
India,Karnataka,Bengaluru,"RVCE-Mailasandra, Bengaluru - KSPCB",04-06-2024 15:00:00,12.921418,77.502466,NO2,16,17,17
India,Karnataka,Bengaluru,"Sanegurava Halli, Bengaluru - KSPCB",04-06-2024 15:00:00,12.990328,77.5431385,CO,8,31,21
India,Karnataka,Bengaluru,"Shivapura_Peenya, Bengaluru - KSPCB",04-06-2024 15:00:00,13.0246342,77.5080115,PM2.5,18,79,48
India,Karnataka,Bengaluru,"Shivapura_Peenya, Bengaluru - KSPCB",04-06-2024 15:00:00,13.0246342,77.5080115,NO2,15,16,16
