country,state,city,station,last_update,latitude,longitude,pollutant_id,pollutant_min,pollutant_max,pollutant_avg
India,Andhra_Pradesh,Amaravati,"Secretariat, Amaravati - APPCB",09-01-2024 14:00:00,16.5150833,80.5181667,PM2.5,150,302,237
India,Andhra_Pradesh,Kadapa,"Yerramukkapalli, Kadapa - APPCB",09-01-2024 14:00:00,14.465052,78.824187,NO2,10,20,13
India,Andhra_Pradesh,Rajamahendravaram,"Anand Kala Kshetram, Rajamahendravaram - APPCB",09-01-2024 14:00:00,16.9872867,81.7363176,CO,23,78,48
India,Andhra_Pradesh,Tirupati,"Tirumala, Tirupati - APPCB",09-01-2024 14:00:00,13.67,79.35,PM10,19,73,52
India,Andhra_Pradesh,Tirupati,"Tirumala, Tirupati - APPCB",09-01-2024 14:00:00,13.67,79.35,NO2,24,43,33
India,Andhra_Pradesh,Tirupati,"Vaikuntapuram, Tirupati - APPCB",09-01-2024 14:00:00,13.615387,79.409230,PM2.5,13,17,13
India,Andhra_Pradesh,Tirupati,"Vaikuntapuram, Tirupati - APPCB",09-01-2024 14:00:00,13.615387,79.409230,PM10,13,17,13
India,Andhra_Pradesh,Tirupati,"Vaikuntapuram, Tirupati - APPCB",09-01-2024 14:00:00,13.615387,79.409230,NO2,16,33,21
India,Andhra_Pradesh,Vijayawada,"HB Colony, Vijayawada - APPCB",09-01-2024 14:00:00,16.536107,80.594233,NH3,4,4,4
India,Andhra_Pradesh,Vijayawada,"Kanuru, Vijayawada - APPCB",09-01-2024 14:00:00,16.486692,80.699436,SO2,NA,NA,NA
India,Andhra_Pradesh,Vijayawada,"Kanuru, Vijayawada - APPCB",09-01-2024 14:00:00,16.486692,80.699436,OZONE,30,30,30
India,Andhra_Pradesh,Vijayawada,"Rajiv Gandhi Park, Vijayawada - APPCB",09-01-2024 14:00:00,16.509717,80.612222,SO2,NA,NA,NA
India,Andhra_Pradesh,Visakhapatnam,"GVM Corporation, Visakhapatnam - APPCB",09-01-2024 14:00:00,17.72,83.3,NH3,NA,NA,NA
India,Andhra_Pradesh,Visakhapatnam,"GVM Corporation, Visakhapatnam - APPCB",09-01-2024 14:00:00,17.72,83.3,OZONE,14,50,22
India,Assam,Byrnihat,"Central Academy for SFS, Byrnihat - PCBA",09-01-2024 14:00:00,26.071318,91.87488,PM10,57,435,249
India,Assam,Byrnihat,"Central Academy for SFS, Byrnihat - PCBA",09-01-2024 14:00:00,26.071318,91.87488,CO,1,187,121
India,Assam,Guwahati,"IITG, Guwahati - PCBA",09-01-2024 14:00:00,26.2028636,91.70046436,OZONE,2,20,8
India,Assam,Guwahati,"LGBI Airport, Guwahati - PCBA",09-01-2024 14:00:00,26.10887,91.589544,PM10,107,294,160
India,Assam,Guwahati,"LGBI Airport, Guwahati - PCBA",09-01-2024 14:00:00,26.10887,91.589544,NO2,10,84,29
India,Assam,Guwahati,"Pan Bazaar, Guwahati - PCBA",09-01-2024 14:00:00,26.187500,91.744194,PM2.5,84,351,266
India,Assam,Guwahati,"Pan Bazaar, Guwahati - PCBA",09-01-2024 14:00:00,26.187500,91.744194,PM10,103,351,175
India,Assam,Guwahati,"Railway Colony, Guwahati - PCBA",09-01-2024 14:00:00,26.181742,91.78063,PM10,85,438,203
India,Assam,Nagaon,"Christianpatty, Nagaon - PCBA",09-01-2024 14:00:00,26.349082,92.68449,PM2.5,48,372,204
India,Assam,Nagaon,"Christianpatty, Nagaon - PCBA",09-01-2024 14:00:00,26.349082,92.68449,SO2,1,11,3
India,Assam,Nalbari,"Bata Chowk, Nalbari - PCBA",09-01-2024 14:00:00,26.446912,91.439057,NO2,45,73,53
India,Assam,Nalbari,"Bata Chowk, Nalbari - PCBA",09-01-2024 14:00:00,26.446912,91.439057,NH3,8,15,10
India,Assam,Silchar,"Tarapur, Silchar - PCBA",09-01-2024 14:00:00,24.82827,92.79525,PM2.5,31,45,34
India,Assam,Silchar,"Tarapur, Silchar - PCBA",09-01-2024 14:00:00,24.82827,92.79525,NH3,1,1,1
India,Assam,Silchar,"Tarapur, Silchar - PCBA",09-01-2024 14:00:00,24.82827,92.79525,OZONE,1,4,2
India,Bihar,Arrah,"New DM Office, Arrah - BSPCB",09-01-2024 14:00:00,25.5626095,84.663264,PM10,102,241,162
India,Bihar,Arrah,"New DM Office, Arrah - BSPCB",09-01-2024 14:00:00,25.5626095,84.663264,CO,2,40,10
India,Bihar,Aurangabad,"Gurdeo Nagar, Aurangabad - BSPCB",09-01-2024 14:00:00,24.75746,84.366208,NH3,5,29,10
India,Bihar,Bettiah,"Kamalnath Nagar, Bettiah - BSPCB",09-01-2024 14:00:00,26.80365,84.51954,NH3,3,3,3
India,Bihar,Bettiah,"Kamalnath Nagar, Bettiah - BSPCB",09-01-2024 14:00:00,26.80365,84.51954,CO,9,94,47
India,Bihar,Bhagalpur,"DM Office_Kachari Chowk, Bhagalpur - BSPCB",09-01-2024 14:00:00,25.251013,86.989001,PM2.5,207,368,336
India,Bihar,Bhagalpur,"DM Office_Kachari Chowk, Bhagalpur - BSPCB",09-01-2024 14:00:00,25.251013,86.989001,NH3,3,7,5
India,Bihar,Bhagalpur,"DM Office_Kachari Chowk, Bhagalpur - BSPCB",09-01-2024 14:00:00,25.251013,86.989001,SO2,26,32,29
India,Bihar,Bhagalpur,"Mayaganj, Bhagalpur - BSPCB",09-01-2024 14:00:00,25.265194,87.012947,NH3,8,9,9
India,Bihar,Bihar Sharif,"D M Colony, Bihar Sharif - BSPCB",09-01-2024 14:00:00,25.204762,85.514960,PM2.5,40,87,67
India,Bihar,Bihar Sharif,"D M Colony, Bihar Sharif - BSPCB",09-01-2024 14:00:00,25.204762,85.514960,NO2,9,10,9
India,Bihar,Bihar Sharif,"D M Colony, Bihar Sharif - BSPCB",09-01-2024 14:00:00,25.204762,85.514960,OZONE,3,22,10
India,Bihar,Chhapra,"Darshan Nagar, Chhapra - BSPCB",09-01-2024 14:00:00,25.7808257,84.7446768,NO2,NA,NA,NA
India,Bihar,Gaya,"Collectorate, Gaya - BSPCB",09-01-2024 14:00:00,24.7955,84.9994,OZONE,41,80,64
India,Bihar,Gaya,"Kareemganj, Gaya - BSPCB",09-01-2024 14:00:00,24.792403,84.992416,PM10,113,321,166
India,Bihar,Gaya,"Kareemganj, Gaya - BSPCB",09-01-2024 14:00:00,24.792403,84.992416,NO2,30,31,30
India,Bihar,Gaya,"SFTI Kusdihra, Gaya - BSPCB",09-01-2024 14:00:00,24.762518,84.982348,PM2.5,83,228,119
India,Bihar,Katihar,"Mirchaibari, Katihar - BSPCB",09-01-2024 14:00:00,25.560083,87.553265,NO2,22,38,28
India,Bihar,Kishanganj,"SDM Office_Khagra, Kishanganj - BSPCB",09-01-2024 14:00:00,26.0881305,87.93840336,PM2.5,5,83,37
India,Bihar,Kishanganj,"SDM Office_Khagra, Kishanganj - BSPCB",09-01-2024 14:00:00,26.0881305,87.93840336,OZONE,34,44,37
India,Bihar,Manguraha,"Forest Rest House, Manguraha - BSPCB",09-01-2024 14:00:00,27.308328,84.531742,SO2,1,2,1
India,Bihar,Motihari,"Gandak Colony, Motihari - BSPCB",09-01-2024 14:00:00,26.63086,84.90051,NO2,70,98,83
India,Bihar,Motihari,"Gandak Colony, Motihari - BSPCB",09-01-2024 14:00:00,26.63086,84.90051,SO2,1,8,4
India,Bihar,Motihari,"Gandak Colony, Motihari - BSPCB",09-01-2024 14:00:00,26.63086,84.90051,CO,29,107,73
India,Bihar,Munger,"Town Hall, Munger - BSPCB",09-01-2024 14:00:00,25.376776,86.471523,NO2,7,9,8
India,Bihar,Munger,"Town Hall, Munger - BSPCB",09-01-2024 14:00:00,25.376776,86.471523,CO,6,40,10
India,Bihar,Muzaffarpur,"Buddha Colony, Muzaffarpur - BSPCB",09-01-2024 14:00:00,26.11442,85.39813,PM2.5,NA,NA,NA
India,Bihar,Muzaffarpur,"MIT-Daudpur Kothi, Muzaffarpur - BSPCB",09-01-2024 14:00:00,26.1403345,85.3650192,PM10,114,240,158
India,Bihar,Muzaffarpur,"MIT-Daudpur Kothi, Muzaffarpur - BSPCB",09-01-2024 14:00:00,26.1403345,85.3650192,OZONE,3,60,22
India,Bihar,Muzaffarpur,"Muzaffarpur Collectorate, Muzaffarpur - BSPCB",09-01-2024 14:00:00,26.1209,85.3647,OZONE,24,95,46
India,Bihar,Patna,"DRM Office Danapur, Patna - BSPCB",09-01-2024 14:00:00,25.586562,85.043586,PM10,126,456,261
India,Bihar,Patna,"Govt. High School Shikarpur, Patna - BSPCB",09-01-2024 14:00:00,25.592539,85.227158,PM2.5,54,316,196
India,Bihar,Patna,"Govt. High School Shikarpur, Patna - BSPCB",09-01-2024 14:00:00,25.592539,85.227158,PM10,103,164,131
India,Bihar,Patna,"Govt. High School Shikarpur, Patna - BSPCB",09-01-2024 14:00:00,25.592539,85.227158,OZONE,4,45,21
India,Bihar,Patna,"IGSC Planetarium Complex, Patna - BSPCB",09-01-2024 14:00:00,25.610369,85.132568,SO2,3,9,6
India,Bihar,Patna,"Samanpura, Patna - BSPCB",09-01-2024 14:00:00,25.596727,85.085624,SO2,3,6,5
India,Bihar,Purnia,"Mariam Nagar, Purnia - BSPCB",09-01-2024 14:00:00,25.366336,87.117468,PM2.5,63,308,151
India,Bihar,Rajgir,"Dangi Tola, Rajgir - BSPCB",09-01-2024 14:00:00,25.03280,85.41948,NO2,4,28,11
India,Bihar,Rajgir,"Dangi Tola, Rajgir - BSPCB",09-01-2024 14:00:00,25.03280,85.41948,NH3,1,7,2
India,Bihar,Rajgir,"Dangi Tola, Rajgir - BSPCB",09-01-2024 14:00:00,25.03280,85.41948,CO,11,104,15
India,Bihar,Saharsa,"Police Line, Saharsa - BSPCB",09-01-2024 14:00:00,25.892357,86.590325,CO,NA,NA,NA
India,Bihar,Samastipur,"DM Office_Kasipur, Samastipur - BSPCB",09-01-2024 14:00:00,25.859655,85.77944,CO,20,35,31
India,Bihar,Sasaram,"Dada Peer, Sasaram - BSPCB",09-01-2024 14:00:00,24.952822,84.002396,OZONE,3,5,4
India,Bihar,Siwan,"Chitragupta Nagar, Siwan - BSPCB",09-01-2024 14:00:00,26.2271665,84.3570427,PM10,NA,NA,NA
India,Bihar,Siwan,"Chitragupta Nagar, Siwan - BSPCB",09-01-2024 14:00:00,26.2271665,84.3570427,CO,84,169,133
India,Chandigarh,Chandigarh,"Sector 22, Chandigarh - CPCC",09-01-2024 14:00:00,30.735567,76.775714,SO2,1,17,5
India,Chandigarh,Chandigarh,"Sector-25, Chandigarh - CPCC",09-01-2024 14:00:00,30.751462,76.762879,NH3,10,20,13
India,Chandigarh,Chandigarh,"Sector-25, Chandigarh - CPCC",09-01-2024 14:00:00,30.751462,76.762879,CO,35,58,38
India,Chandigarh,Chandigarh,"Sector-25, Chandigarh - CPCC",09-01-2024 14:00:00,30.751462,76.762879,OZONE,1,12,3
India,Chhattisgarh,Bhilai,"32Bungalows, Bhilai - CECB",09-01-2024 14:00:00,21.194815,81.314770,PM10,102,178,130
India,Chhattisgarh,Bhilai,"32Bungalows, Bhilai - CECB",09-01-2024 14:00:00,21.194815,81.314770,NH3,6,6,6
India,Chhattisgarh,Bhilai,"Civic Center, Bhilai - Bhilai Steel Plant",09-01-2024 14:00:00,21.185571,81.343175,PM2.5,NA,NA,NA
India,Chhattisgarh,Bhilai,"Civic Center, Bhilai - Bhilai Steel Plant",09-01-2024 14:00:00,21.185571,81.343175,CO,18,92,54
India,Chhattisgarh,Bhilai,"Civic Center, Bhilai - Bhilai Steel Plant",09-01-2024 14:00:00,21.185571,81.343175,OZONE,8,50,25
India,Chhattisgarh,Bhilai,"Hathkhoj, Bhilai - CECB",09-01-2024 14:00:00,21.224231,81.408350,PM10,100,176,137
India,Chhattisgarh,Bhilai,"Hathkhoj, Bhilai - CECB",09-01-2024 14:00:00,21.224231,81.408350,NH3,7,8,8
India,Chhattisgarh,Bhilai,"Hathkhoj, Bhilai - CECB",09-01-2024 14:00:00,21.224231,81.408350,SO2,18,102,36
India,Chhattisgarh,Chhal,"Nawapara SECL Colony, Chhal - CECB",09-01-2024 14:00:00,22.118125,83.140608,SO2,10,71,23
India,Chhattisgarh,Korba,"Rampur, Korba - CECB",09-01-2024 14:00:00,22.368195,82.746431,NH3,2,7,5
India,Chhattisgarh,Korba,"Rampur, Korba - CECB",09-01-2024 14:00:00,22.368195,82.746431,OZONE,2,38,12
India,Chhattisgarh,Korba,"Urja Nagar, Korba - CECB",09-01-2024 14:00:00,22.348441,82.549611,PM10,53,130,66
India,Chhattisgarh,Korba,"Urja Nagar, Korba - CECB",09-01-2024 14:00:00,22.348441,82.549611,SO2,3,31,6
India,Chhattisgarh,Korba,"Urja Nagar, Korba - CECB",09-01-2024 14:00:00,22.348441,82.549611,OZONE,47,70,51
India,Chhattisgarh,Kunjemura,"OP Jindal School, Kunjemura - CECB",09-01-2024 14:00:00,22.126650,83.483212,NO2,31,215,69
India,Chhattisgarh,Kunjemura,"OP Jindal School, Kunjemura - CECB",09-01-2024 14:00:00,22.126650,83.483212,OZONE,3,65,26
India,Chhattisgarh,Milupara,"Govt. Higher Secondary School, Milupara - CECB",09-01-2024 14:00:00,22.1910172,83.5197009,NH3,1,2,2
India,Chhattisgarh,Milupara,"Govt. Higher Secondary School, Milupara - CECB",09-01-2024 14:00:00,22.1910172,83.5197009,SO2,10,62,18
India,Chhattisgarh,Milupara,"Govt. Higher Secondary School, Milupara - CECB",09-01-2024 14:00:00,22.1910172,83.5197009,OZONE,11,109,46
India,Chhattisgarh,Raipur,"AIIMS, Raipur - CECB",09-01-2024 14:00:00,21.258815,81.578979,CO,36,77,58
India,Chhattisgarh,Raipur,"Bhatagaon New ISBT, Raipur - CECB",09-01-2024 14:00:00,21.219665,81.630094,NO2,63,100,77
India,Chhattisgarh,Raipur,"Krishak Nagar, Raipur - CECB",09-01-2024 14:00:00,21.237755,81.705301,PM2.5,61,101,81
India,Chhattisgarh,Raipur,"Krishak Nagar, Raipur - CECB",09-01-2024 14:00:00,21.237755,81.705301,SO2,4,12,9
India,Chhattisgarh,Raipur,"Siltara Phase-II, Raipur - CECB",09-01-2024 14:00:00,21.371751,81.664929,NH3,NA,NA,NA
India,Delhi,Delhi,"Alipur, Delhi - DPCC",09-01-2024 14:00:00,28.815329,77.153010,OZONE,4,45,14
India,Delhi,Delhi,"Anand Vihar, Delhi - DPCC",09-01-2024 14:00:00,28.647622,77.3158090,NH3,4,11,9
India,Delhi,Delhi,"Anand Vihar, Delhi - DPCC",09-01-2024 14:00:00,28.647622,77.3158090,OZONE,14,19,15
India,Delhi,Delhi,"Ashok Vihar, Delhi - DPCC",09-01-2024 14:00:00,28.695381,77.181665,PM2.5,233,424,334
India,Delhi,Delhi,"Ashok Vihar, Delhi - DPCC",09-01-2024 14:00:00,28.695381,77.181665,OZONE,4,8,5
India,Delhi,Delhi,"Aya Nagar, Delhi - IMD",09-01-2024 14:00:00,28.4706914,77.1099364,PM2.5,79,413,251
India,Delhi,Delhi,"Burari Crossing, Delhi - IMD",09-01-2024 14:00:00,28.7256504,77.2011573,CO,86,103,102
India,Delhi,Delhi,"CRRI Mathura Road, Delhi - IMD",09-01-2024 14:00:00,28.5512005,77.2735737,PM10,143,443,270
India,Delhi,Delhi,"CRRI Mathura Road, Delhi - IMD",09-01-2024 14:00:00,28.5512005,77.2735737,CO,1,48,2
India,Delhi,Delhi,"CRRI Mathura Road, Delhi - IMD",09-01-2024 14:00:00,28.5512005,77.2735737,OZONE,33,50,34
India,Delhi,Delhi,"Dr. Karni Singh Shooting Range, Delhi - DPCC",09-01-2024 14:00:00,28.498571,77.264840,SO2,6,14,9
India,Delhi,Delhi,"Dwarka-Sector 8, Delhi - DPCC ",09-01-2024 14:00:00,28.5710274,77.0719006,PM10,156,491,323
India,Delhi,Delhi,"IHBAS, Dilshad Garden, Delhi - CPCB",09-01-2024 14:00:00,28.6811736,77.3025234,NO2,28,46,39
India,Delhi,Delhi,"ITO, Delhi - CPCB",09-01-2024 14:00:00,28.628624,77.241060,PM10,136,366,205
India,Delhi,Delhi,"ITO, Delhi - CPCB",09-01-2024 14:00:00,28.628624,77.241060,CO,44,126,60
India,Delhi,Delhi,"Jawaharlal Nehru Stadium, Delhi - DPCC",09-01-2024 14:00:00,28.580280,77.233829,OZONE,4,34,12
India,Delhi,Delhi,"Lodhi Road, Delhi - IMD",09-01-2024 14:00:00,28.5918245,77.2273074,CO,71,112,72
India,Delhi,Delhi,"Lodhi Road, Delhi - IMD",09-01-2024 14:00:00,28.5918245,77.2273074,OZONE,14,48,19
India,Delhi,Delhi,"Major Dhyan Chand National Stadium, Delhi - DPCC",09-01-2024 14:00:00,28.611281,77.237738,OZONE,5,29,9
India,Delhi,Delhi,"Mundka, Delhi - DPCC",09-01-2024 14:00:00,28.684678,77.076574,SO2,12,26,16
India,Delhi,Delhi,"NSIT Dwarka, Delhi - CPCB",09-01-2024 14:00:00,28.60909,77.0325413,NO2,31,66,50
India,Delhi,Delhi,"NSIT Dwarka, Delhi - CPCB",09-01-2024 14:00:00,28.60909,77.0325413,CO,6,105,38
India,Delhi,Delhi,"Najafgarh, Delhi - DPCC",09-01-2024 14:00:00,28.570173,76.933762,PM10,90,382,244
India,Delhi,Delhi,"Najafgarh, Delhi - DPCC",09-01-2024 14:00:00,28.570173,76.933762,OZONE,8,56,36
India,Delhi,Delhi,"Narela, Delhi - DPCC",09-01-2024 14:00:00,28.822836,77.101981,NO2,19,53,34
India,Delhi,Delhi,"Narela, Delhi - DPCC",09-01-2024 14:00:00,28.822836,77.101981,NH3,7,11,8
India,Delhi,Delhi,"Okhla Phase-2, Delhi - DPCC",09-01-2024 14:00:00,28.530785,77.271255,OZONE,5,26,15
India,Delhi,Delhi,"Patparganj, Delhi - DPCC",09-01-2024 14:00:00,28.623763,77.287209,CO,6,112,40
India,Delhi,Delhi,"Punjabi Bagh, Delhi - DPCC",09-01-2024 14:00:00,28.674045,77.131023,PM10,135,454,298
India,Delhi,Delhi,"Punjabi Bagh, Delhi - DPCC",09-01-2024 14:00:00,28.674045,77.131023,NH3,6,9,7
India,Delhi,Delhi,"Pusa, Delhi - DPCC",09-01-2024 14:00:00,28.639652,77.146275,NO2,37,111,62
India,Delhi,Delhi,"Pusa, Delhi - DPCC",09-01-2024 14:00:00,28.639652,77.146275,NH3,2,12,2
India,Delhi,Delhi,"Pusa, Delhi - DPCC",09-01-2024 14:00:00,28.639652,77.146275,CO,30,119,63
India,Delhi,Delhi,"Pusa, Delhi - IMD",09-01-2024 14:00:00,28.636110,77.173332,PM10,123,411,226
India,Delhi,Delhi,"Rohini, Delhi - DPCC",09-01-2024 14:00:00,28.732528,77.119920,PM10,125,416,244
India,Delhi,Delhi,"Rohini, Delhi - DPCC",09-01-2024 14:00:00,28.732528,77.119920,NO2,25,67,43
India,Delhi,Delhi,"Rohini, Delhi - DPCC",09-01-2024 14:00:00,28.732528,77.119920,OZONE,2,63,15
India,Delhi,Delhi,"Sonia Vihar, Delhi - DPCC",09-01-2024 14:00:00,28.710508,77.249485,PM2.5,NA,NA,NA
India,Delhi,Delhi,"Sri Aurobindo Marg, Delhi - DPCC",09-01-2024 14:00:00,28.531346,77.190156,SO2,9,12,11
India,Delhi,Delhi,"Vivek Vihar, Delhi - DPCC",09-01-2024 14:00:00,28.672342,77.315260,OZONE,2,8,4
India,Delhi,Delhi,"Wazirpur, Delhi - DPCC",09-01-2024 14:00:00,28.699793,77.165453,NO2,109,265,167
India,Delhi,Delhi,"Wazirpur, Delhi - DPCC",09-01-2024 14:00:00,28.699793,77.165453,SO2,15,38,26
India,Delhi,Delhi,"Wazirpur, Delhi - DPCC",09-01-2024 14:00:00,28.699793,77.165453,CO,13,105,52
India,Delhi,Delhi,"Wazirpur, Delhi - DPCC",09-01-2024 14:00:00,28.699793,77.165453,OZONE,11,33,16
India,Gujarat,Ahmedabad,"Gyaspur, Ahmedabad - IITM",09-01-2024 14:00:00,22.977134,72.553024,PM2.5,87,302,150
India,Gujarat,Ahmedabad,"Gyaspur, Ahmedabad - IITM",09-01-2024 14:00:00,22.977134,72.553024,NO2,13,19,14
India,Gujarat,Ahmedabad,"Raikhad, Ahmedabad - IITM",09-01-2024 14:00:00,23.020509,72.579261,NH3,5,6,6
India,Gujarat,Ahmedabad,"Raikhad, Ahmedabad - IITM",09-01-2024 14:00:00,23.020509,72.579261,CO,30,80,53
India,Gujarat,Ahmedabad,"Rakhial, Ahmedabad - IITM",09-01-2024 14:00:00,23.016834,72.625775,CO,40,98,48
India,Gujarat,Ahmedabad,"Rakhial, Ahmedabad - IITM",09-01-2024 14:00:00,23.016834,72.625775,OZONE,1,31,11
India,Gujarat,Ahmedabad,"SAC ISRO Satellite, Ahmedabad - IITM",09-01-2024 14:00:00,23.023389,72.515201,NO2,12,14,13
India,Gujarat,Ahmedabad,"Sardar Vallabhbhai Patel Stadium, Ahmedabad - IITM",09-01-2024 14:00:00,23.043070,72.562968,NO2,11,14,13
India,Gujarat,Ahmedabad,"Sardar Vallabhbhai Patel Stadium, Ahmedabad - IITM",09-01-2024 14:00:00,23.043070,72.562968,OZONE,2,14,7
India,Gujarat,Gandhinagar,"GIFT City, Gandhinagar - IITM",09-01-2024 14:00:00,23.163798,72.677768,OZONE,2,21,9
India,Gujarat,Gandhinagar,"IIPHG Lekawada, Gandhinagar - IITM",09-01-2024 14:00:00,23.243639,72.68994,PM2.5,46,65,55
India,Gujarat,Surat,"Science Center, Surat - SMC",09-01-2024 14:00:00,21.170046,72.795405,SO2,12,16,15
India,Gujarat,Vapi,"Phase-1 GIDC, Vapi - GPCB",09-01-2024 14:00:00,20.362421,72.918013,SO2,41,51,49
India,Gujarat,Vapi,"Phase-1 GIDC, Vapi - GPCB",09-01-2024 14:00:00,20.362421,72.918013,CO,NA,NA,NA
India,Gujarat,Vatva,"Phase-4 GIDC, Vatva - GPCB",09-01-2024 14:00:00,22.969611,72.643500,OZONE,2,3,2
India,Haryana,Ambala,"Patti Mehar, Ambala - HSPCB",09-01-2024 14:00:00,30.379589,76.778328,NO2,7,21,13
India,Haryana,Ambala,"Patti Mehar, Ambala - HSPCB",09-01-2024 14:00:00,30.379589,76.778328,SO2,2,26,9
India,Haryana,Ambala,"Patti Mehar, Ambala - HSPCB",09-01-2024 14:00:00,30.379589,76.778328,OZONE,24,38,27
India,Haryana,Ballabgarh,"Nathu Colony, Ballabgarh - HSPCB",09-01-2024 14:00:00,28.3419248,77.319699,PM2.5,311,370,342
India,Haryana,Bhiwani,"H.B. Colony, Bhiwani - HSPCB",09-01-2024 14:00:00,28.806223,76.141105,NH3,6,6,6
India,Haryana,Bhiwani,"H.B. Colony, Bhiwani - HSPCB",09-01-2024 14:00:00,28.806223,76.141105,OZONE,14,21,18
India,Haryana,Charkhi Dadri,"Mini Secretariat, Charkhi Dadri - HSPCB",09-01-2024 14:00:00,28.593883,76.270653,PM10,47,168,114
India,Haryana,Faridabad,"New Industrial Town, Faridabad - HSPCB",09-01-2024 14:00:00,28.39072,77.30059,PM2.5,330,498,395
India,Haryana,Faridabad,"New Industrial Town, Faridabad - HSPCB",09-01-2024 14:00:00,28.39072,77.30059,CO,20,78,40
India,Haryana,Faridabad,"Sector 11, Faridabad - HSPCB",09-01-2024 14:00:00,28.376058,77.315741,NO2,30,33,31
India,Haryana,Faridabad,"Sector- 16A, Faridabad - HSPCB",09-01-2024 14:00:00,28.4088421,77.3099081,SO2,19,29,23
India,Haryana,Gurugram,"Sector-51, Gurugram - HSPCB",09-01-2024 14:00:00,28.4227,77.0667,PM2.5,161,421,280
India,Haryana,Gurugram,"Sector-51, Gurugram - HSPCB",09-01-2024 14:00:00,28.4227,77.0667,SO2,2,4,2
India,Haryana,Gurugram,"Vikas Sadan, Gurugram - HSPCB",09-01-2024 14:00:00,28.4501238,77.0263051,PM2.5,52,322,208
India,Haryana,Hisar,"Urban Estate-II, Hisar - HSPCB",09-01-2024 14:00:00,29.140560,75.744941,PM10,76,121,102
India,Haryana,Hisar,"Urban Estate-II, Hisar - HSPCB",09-01-2024 14:00:00,29.140560,75.744941,SO2,28,77,55
India,Haryana,Jind,"Police Lines, Jind - HSPCB",09-01-2024 14:00:00,29.307814,76.337619,NO2,6,17,12
India,Haryana,Jind,"Police Lines, Jind - HSPCB",09-01-2024 14:00:00,29.307814,76.337619,OZONE,2,12,10
India,Haryana,Kaithal,"Rishi Nagar, Kaithal - HSPCB",09-01-2024 14:00:00,29.8006,76.4155,NH3,7,8,8
India,Haryana,Kaithal,"Rishi Nagar, Kaithal - HSPCB",09-01-2024 14:00:00,29.8006,76.4155,SO2,5,106,14
India,Haryana,Karnal,"Sector-12, Karnal - HSPCB",09-01-2024 14:00:00,29.695300,77.002700,SO2,11,36,24
India,Haryana,Kurukshetra,"Sector-7, Kurukshetra - HSPCB",09-01-2024 14:00:00,29.966942,76.875879,PM2.5,62,105,86
India,Haryana,Mandikhera,"General Hospital, Mandikhera - HSPCB",09-01-2024 14:00:00,27.9002,76.9938,NH3,17,22,19
India,Haryana,Mandikhera,"General Hospital, Mandikhera - HSPCB",09-01-2024 14:00:00,27.9002,76.9938,CO,48,69,57
India,Haryana,Manesar,"Sector-2 IMT, Manesar - HSPCB",09-01-2024 14:00:00,28.360699,76.936090,PM2.5,67,332,224
India,Haryana,Manesar,"Sector-2 IMT, Manesar - HSPCB",09-01-2024 14:00:00,28.360699,76.936090,OZONE,8,20,10
India,Haryana,Narnaul,"Shastri Nagar, Narnaul - HSPCB",09-01-2024 14:00:00,28.060249,76.113115,PM10,NA,NA,NA
India,Haryana,Palwal,"Shyam Nagar, Palwal - HSPCB",09-01-2024 14:00:00,28.1485564,77.3320667,NH3,NA,NA,NA
India,Haryana,Palwal,"Shyam Nagar, Palwal - HSPCB",09-01-2024 14:00:00,28.1485564,77.3320667,SO2,NA,NA,NA
India,Haryana,Panchkula,"Sector-6, Panchkula - HSPCB ",09-01-2024 14:00:00,30.7057778,76.8531805555555,NO2,27,31,29
India,Haryana,Panipat,"Sector-18, Panipat - HSPCB",09-01-2024 14:00:00,29.497973,76.993331,PM2.5,134,273,187
India,Haryana,Rohtak,"MD University, Rohtak - HSPCB",09-01-2024 14:00:00,28.52123,76.37138,CO,6,31,15
India,Haryana,Rohtak,"MD University, Rohtak - HSPCB",09-01-2024 14:00:00,28.52123,76.37138,OZONE,35,42,39
India,Haryana,Sonipat,"Murthal, Sonipat - HSPCB",09-01-2024 14:00:00,29.027200,77.062100,SO2,13,29,20
India,Haryana,Sonipat,"Murthal, Sonipat - HSPCB",09-01-2024 14:00:00,29.027200,77.062100,CO,23,32,25
India,Haryana,Yamuna Nagar,"Gobind Pura, Yamuna Nagar - HSPCB",09-01-2024 14:00:00,30.1480566,77.2893471,PM2.5,20,334,121
India,Himachal Pradesh,Baddi,"HIMUDA Complex Phase-1, Baddi - HPPCB",09-01-2024 14:00:00,30.943887,76.801991,CO,44,86,51
India,Karnataka,Bagalkot,"Vidayagiri, Bagalkot - KSPCB",09-01-2024 14:00:00,16.172806,75.659694,PM10,53,58,57
India,Karnataka,Bagalkot,"Vidayagiri, Bagalkot - KSPCB",09-01-2024 14:00:00,16.172806,75.659694,CO,23,59,41
India,Karnataka,Belgaum,"Ramteerth Nagar, Belgaum - KSPCB",09-01-2024 14:00:00,15.888653,74.541751,SO2,8,9,8
India,Karnataka,Bengaluru,"BTM Layout, Bengaluru - CPCB",09-01-2024 14:00:00,12.9135218,77.5950804,NH3,NA,NA,NA
India,Karnataka,Bengaluru,"BTM Layout, Bengaluru - CPCB",09-01-2024 14:00:00,12.9135218,77.5950804,SO2,NA,NA,NA
India,Karnataka,Bengaluru,"BTM Layout, Bengaluru - CPCB",09-01-2024 14:00:00,12.9135218,77.5950804,OZONE,19,35,21
India,Karnataka,Bengaluru,"Bapuji Nagar, Bengaluru - KSPCB",09-01-2024 14:00:00,12.951913,77.539784,CO,26,72,50
India,Karnataka,Bengaluru,"Bapuji Nagar, Bengaluru - KSPCB",09-01-2024 14:00:00,12.951913,77.539784,OZONE,11,12,12
India,Karnataka,Bengaluru,"Hombegowda Nagar, Bengaluru - KSPCB",09-01-2024 14:00:00,12.938539,77.590100,SO2,4,5,4
India,Karnataka,Bengaluru,"Jayanagar 5th Block, Bengaluru - KSPCB",09-01-2024 14:00:00,12.920984,77.584908,NH3,2,3,3
India,Karnataka,Bengaluru,"Jigani, Bengaluru - KSPCB",09-01-2024 14:00:00,12.7816279,77.6299145,PM10,55,100,71
India,Karnataka,Bengaluru,"Kasturi Nagar, Bengaluru - KSPCB",09-01-2024 14:00:00,13.003872,77.664217,SO2,8,8,8
India,Karnataka,Bengaluru,"Peenya, Bengaluru - CPCB",09-01-2024 14:00:00,13.0270199,77.494094,SO2,12,18,16
India,Karnataka,Bengaluru,"Peenya, Bengaluru - CPCB",09-01-2024 14:00:00,13.0270199,77.494094,CO,36,63,48
India,Karnataka,Bengaluru,"RVCE-Mailasandra, Bengaluru - KSPCB",09-01-2024 14:00:00,12.921418,77.502466,PM2.5,37,60,47
India,Karnataka,Bengaluru,"RVCE-Mailasandra, Bengaluru - KSPCB",09-01-2024 14:00:00,12.921418,77.502466,PM10,41,102,67
India,Karnataka,Bengaluru,"Shivapura_Peenya, Bengaluru - KSPCB",09-01-2024 14:00:00,13.0246342,77.5080115,PM10,31,58,45
India,Karnataka,Bengaluru,"Silk Board, Bengaluru - KSPCB",09-01-2024 14:00:00,12.917348,77.622813,OZONE,5,18,11
India,Karnataka,Bidar,"Naubad, Bidar - KSPCB",09-01-2024 14:00:00,17.930306,77.482194,PM10,87,111,101
India,Karnataka,Bidar,"Naubad, Bidar - KSPCB",09-01-2024 14:00:00,17.930306,77.482194,SO2,15,17,16
India,Karnataka,Chamarajanagar,"Urban, Chamarajanagar - KSPCB",09-01-2024 14:00:00,11.55358,76.55521,PM10,34,55,43
India,Karnataka,Chamarajanagar,"Urban, Chamarajanagar - KSPCB",09-01-2024 14:00:00,11.55358,76.55521,NH3,1,2,2
India,Karnataka,Chikkaballapur,"Chikkaballapur Rural, Chikkaballapur - KSPCB",09-01-2024 14:00:00,13.428828,77.731418,NO2,7,11,8
India,Karnataka,Chikkaballapur,"Chikkaballapur Rural, Chikkaballapur - KSPCB",09-01-2024 14:00:00,13.428828,77.731418,OZONE,24,25,25
India,Karnataka,Chikkamagaluru,"Kalyana Nagara, Chikkamagaluru - KSPCB",09-01-2024 14:00:00,13.328028,75.797056,PM10,26,52,34
India,Karnataka,Davanagere,"Devaraj Urs Badavane, Davanagere - KSPCB",09-01-2024 14:00:00,14.475800,75.905200,OZONE,18,31,23
India,Karnataka,Dharwad,"Kalabhavan, Dharwad - KSPCB",09-01-2024 14:00:00,15.459706,75.008381,NH3,3,3,3
India,Karnataka,Dharwad,"Kalabhavan, Dharwad - KSPCB",09-01-2024 14:00:00,15.459706,75.008381,SO2,4,5,4
India,Karnataka,Dharwad,"Kalabhavan, Dharwad - KSPCB",09-01-2024 14:00:00,15.459706,75.008381,OZONE,2,25,7
India,Karnataka,Gadag,"Panchal Nagar, Gadag - KSPCB",09-01-2024 14:00:00,15.411456,75.638133,NO2,4,31,14
India,Karnataka,Hassan,"B.Katihalli, Hassan - KSPCB",09-01-2024 14:00:00,13.008556,76.125258,NO2,10,14,12
India,Karnataka,Hassan,"B.Katihalli, Hassan - KSPCB",09-01-2024 14:00:00,13.008556,76.125258,SO2,NA,NA,NA
India,Karnataka,Haveri,"Ashwini Nagar, Haveri - KSPCB",09-01-2024 14:00:00,14.791800,75.389600,CO,30,34,32
India,Karnataka,Hubballi,"Deshpande Nagar, Hubballi - KSPCB",09-01-2024 14:00:00,15.351773,75.140726,PM2.5,14,73,42
India,Karnataka,Hubballi,"Deshpande Nagar, Hubballi - KSPCB",09-01-2024 14:00:00,15.351773,75.140726,PM10,33,76,54
India,Karnataka,Hubballi,"Deshpande Nagar, Hubballi - KSPCB",09-01-2024 14:00:00,15.351773,75.140726,NO2,24,27,26
India,Karnataka,Hubballi,"Deshpande Nagar, Hubballi - KSPCB",09-01-2024 14:00:00,15.351773,75.140726,NH3,7,15,12
India,Karnataka,Hubballi,"Lingaraj Nagar, Hubballi - KSPCB",09-01-2024 14:00:00,15.3714823,75.1160168,CO,36,50,44
India,Karnataka,Kalaburagi,"Mahatma Basaveswar Colony, Kalaburgi - KSPCB",09-01-2024 14:00:00,17.336318,76.847397,SO2,3,13,5
India,Karnataka,Kalaburagi,"Mahatma Basaveswar Colony, Kalaburgi - KSPCB",09-01-2024 14:00:00,17.336318,76.847397,OZONE,16,36,27
India,Karnataka,Karwar,"KHB Colony, Karwar - KSPCB",09-01-2024 14:00:00,14.816666,74.141003,SO2,17,18,18
India,Karnataka,Madikeri,"Stuart Hill, Madikeri - KSPCB",09-01-2024 14:00:00,12.415911,75.735050,PM10,28,45,34
India,Karnataka,Mangalore,"Kadri, Mangalore - KSPCB",09-01-2024 14:00:00,12.889250,74.853000,NO2,2,6,3
India,Karnataka,Mysuru,"Hebbal 1st Stage, Mysuru - KSPCB",09-01-2024 14:00:00,12.21041,76.37376,PM10,19,65,31
India,Karnataka,Mysuru,"Hebbal 1st Stage, Mysuru - KSPCB",09-01-2024 14:00:00,12.21041,76.37376,OZONE,9,52,24
India,Karnataka,Raichur,"Haji Colony, Raichur - KSPCB",09-01-2024 14:00:00,16.208139,77.348417,NO2,17,40,26
India,Karnataka,Shivamogga,"Vinoba Nagara, Shivamogga - KSPCB",09-01-2024 14:00:00,13.940000,75.555917,PM10,41,81,59
India,Karnataka,Shivamogga,"Vinoba Nagara, Shivamogga - KSPCB",09-01-2024 14:00:00,13.940000,75.555917,CO,10,42,28
India,Karnataka,Tumakuru,"Thimmalapura, Tumakuru - KSPCB",09-01-2024 14:00:00,13.377516,77.099072,PM2.5,30,57,42
India,Karnataka,Udupi,"Brahmagiri, Udupi - KSPCB",09-01-2024 14:00:00,13.34194444,74.74694444,NH3,NA,NA,NA
India,Karnataka,Vijayapura,"Ibrahimpur, Vijayapura - KSPCB",09-01-2024 14:00:00,16.802639,75.722694,PM10,41,43,42
India,Karnataka,Vijayapura,"Ibrahimpur, Vijayapura - KSPCB",09-01-2024 14:00:00,16.802639,75.722694,NO2,17,19,19
India,Karnataka,Yadgir,"Collector Office, Yadgir - KSPCB",09-01-2024 14:00:00,16.7602,77.1428,NH3,NA,NA,NA
India,Kerala,Eloor,"Udyogamandal, Eloor - Kerala PCB",09-01-2024 14:00:00,10.073232,76.302765,CO,21,54,38
India,Kerala,Eloor,"Udyogamandal, Eloor - Kerala PCB",09-01-2024 14:00:00,10.073232,76.302765,OZONE,29,69,32
India,Kerala,Kollam,"Polayathode, Kollam - Kerala PCB",09-01-2024 14:00:00,8.8787,76.6073,PM10,32,123,72
India,Kerala,Kollam,"Polayathode, Kollam - Kerala PCB",09-01-2024 14:00:00,8.8787,76.6073,SO2,1,30,5
India,Kerala,Kollam,"Polayathode, Kollam - Kerala PCB",09-01-2024 14:00:00,8.8787,76.6073,OZONE,30,34,31
India,Kerala,Thiruvananthapuram,"Kariavattom, Thiruvananthapuram - Kerala PCB",09-01-2024 14:00:00,8.563700,76.886500,PM2.5,58,73,66
India,Kerala,Thiruvananthapuram,"Kariavattom, Thiruvananthapuram - Kerala PCB",09-01-2024 14:00:00,8.563700,76.886500,CO,6,42,27
India,Madhya Pradesh,Bhopal,"Idgah Hills, Bhopal - MPPCB",09-01-2024 14:00:00,23.264759,77.381568,PM2.5,107,338,231
India,Madhya Pradesh,Bhopal,"Idgah Hills, Bhopal - MPPCB",09-01-2024 14:00:00,23.264759,77.381568,NO2,17,42,29
India,Madhya Pradesh,Bhopal,"Idgah Hills, Bhopal - MPPCB",09-01-2024 14:00:00,23.264759,77.381568,NH3,4,6,5
India,Madhya Pradesh,Bhopal,"Paryavaran Parisar, Bhopal - MPPCB",09-01-2024 14:00:00,23.210494,77.425409,PM2.5,92,300,200
India,Madhya Pradesh,Bhopal,"Paryavaran Parisar, Bhopal - MPPCB",09-01-2024 14:00:00,23.210494,77.425409,NH3,8,11,9
India,Madhya Pradesh,Bhopal,"T T Nagar, Bhopal - MPPCB",09-01-2024 14:00:00,23.233584,77.400574,PM10,122,222,151
India,Madhya Pradesh,Bhopal,"T T Nagar, Bhopal - MPPCB",09-01-2024 14:00:00,23.233584,77.400574,NO2,14,50,22
India,Madhya Pradesh,Bhopal,"T T Nagar, Bhopal - MPPCB",09-01-2024 14:00:00,23.233584,77.400574,SO2,9,47,24
India,Madhya Pradesh,Bhopal,"T T Nagar, Bhopal - MPPCB",09-01-2024 14:00:00,23.233584,77.400574,CO,38,91,56
India,Madhya Pradesh,Damoh,"Shrivastav Colony, Damoh - MPPCB",09-01-2024 14:00:00,23.81748678,79.446246,CO,23,24,24
India,Madhya Pradesh,Dewas,"Bhopal Chauraha, Dewas - MPPCB",09-01-2024 14:00:00,22.9682591,76.064118,PM2.5,69,287,169
India,Madhya Pradesh,Dewas,"Bhopal Chauraha, Dewas - MPPCB",09-01-2024 14:00:00,22.9682591,76.064118,PM10,65,169,117
India,Madhya Pradesh,Gwalior,"Deen Dayal Nagar, Gwalior - MPPCB",09-01-2024 14:00:00,26.259242,78.216432,CO,28,99,59
India,Madhya Pradesh,Gwalior,"Maharaj Bada, Gwalior - MPPCB",09-01-2024 14:00:00,26.200388,78.147714,NH3,11,20,13
India,Madhya Pradesh,Indore,"Chhoti Gwaltoli, Indore - MPPCB",09-01-2024 14:00:00,22.4310,75.5213,PM2.5,89,324,248
India,Madhya Pradesh,Indore,"Chhoti Gwaltoli, Indore - MPPCB",09-01-2024 14:00:00,22.4310,75.5213,PM10,94,202,141
India,Madhya Pradesh,Indore,"Chhoti Gwaltoli, Indore - MPPCB",09-01-2024 14:00:00,22.4310,75.5213,SO2,13,35,20
India,Madhya Pradesh,Indore,"Regional Park, Indore - IMC",09-01-2024 14:00:00,22.6780,75.8559,NO2,3,7,5
India,Madhya Pradesh,Indore,"Residency Area, Indore - IMC",09-01-2024 14:00:00,22.7084,75.8815,PM2.5,54,198,112
India,Madhya Pradesh,Indore,"Residency Area, Indore - IMC",09-01-2024 14:00:00,22.7084,75.8815,PM10,49,117,80
India,Madhya Pradesh,Indore,"Residency Area, Indore - IMC",09-01-2024 14:00:00,22.7084,75.8815,SO2,15,51,24
India,Madhya Pradesh,Jabalpur,"Gupteshwar, Jabalpur - JMC",09-01-2024 14:00:00,23.142888,79.916147,NO2,16,56,32
India,Madhya Pradesh,Jabalpur,"Gupteshwar, Jabalpur - JMC",09-01-2024 14:00:00,23.142888,79.916147,SO2,5,33,9
India,Madhya Pradesh,Jabalpur,"Suhagi, Jabalpur - JMC",09-01-2024 14:00:00,23.218135,79.957770,NH3,2,4,4
India,Madhya Pradesh,Jabalpur,"Suhagi, Jabalpur - JMC",09-01-2024 14:00:00,23.218135,79.957770,CO,32,105,52
India,Madhya Pradesh,Katni,"Gole Bazar, Katni - MPPCB",09-01-2024 14:00:00,23.50016,80.23284,CO,36,72,48
India,Madhya Pradesh,Katni,"Gole Bazar, Katni - MPPCB",09-01-2024 14:00:00,23.50016,80.23284,OZONE,16,69,40
India,Madhya Pradesh,Mandideep,"Sector-D Industrial Area, Mandideep - MPPCB",09-01-2024 14:00:00,23.108440,77.511428,PM10,137,297,183
India,Madhya Pradesh,Ratlam,"Shasthri Nagar, Ratlam - IPCA Lab",09-01-2024 14:00:00,23.331731,75.045981,PM2.5,84,213,134
India,Madhya Pradesh,Sagar,"Civil Lines, Sagar - MPPCB",09-01-2024 14:00:00,23.838586,78.759431,NH3,8,13,11
India,Madhya Pradesh,Satna,"Bandhavgar Colony, Satna - Birla Cement",09-01-2024 14:00:00,24.58434363,80.8549414,NO2,16,38,28
India,Madhya Pradesh,Singrauli,"Suryakiran Bhawan NCL, Singrauli - MPPCB",09-01-2024 14:00:00,24.108970,82.645580,PM2.5,73,336,179
India,Madhya Pradesh,Singrauli,"Suryakiran Bhawan NCL, Singrauli - MPPCB",09-01-2024 14:00:00,24.108970,82.645580,NO2,7,24,17
India,Maharashtra,Ahmednagar,"Tarakpur, Ahmednagar - MPCB",09-01-2024 14:00:00,19.10122,74.73339,NO2,30,126,66
India,Maharashtra,Akola,"Ramdaspeth, Akola - MPCB",09-01-2024 14:00:00,20.719516,77.000253,PM2.5,83,185,118
India,Maharashtra,Akola,"Ramdaspeth, Akola - MPCB",09-01-2024 14:00:00,20.719516,77.000253,PM10,106,184,146
India,Maharashtra,Amravati,"Shri Shivaji Science College, Amaravati - MPCB",09-01-2024 14:00:00,20.939198,77.765701,NO2,17,135,42
India,Maharashtra,Aurangabad,"MIDC Chilkalthana, Aurangabad - MPCB",09-01-2024 14:00:00,19.875620,75.387310,PM10,76,132,105
India,Maharashtra,Aurangabad,"Rachnakar Colony, Aurangabad - MPCB",09-01-2024 14:00:00,19.863756,75.321188,PM2.5,15,194,154
India,Maharashtra,Aurangabad,"Rachnakar Colony, Aurangabad - MPCB",09-01-2024 14:00:00,19.863756,75.321188,SO2,10,20,16
India,Maharashtra,Belapur,"CBD Belapur, Belapur - MPCB",09-01-2024 14:00:00,19.0243902,73.0406721,CO,20,80,54
India,Maharashtra,Boisar,"Khaira, Boisar - MPCB",09-01-2024 14:00:00,19.786089,72.757971,SO2,NA,NA,NA
India,Maharashtra,Chandrapur,"Chauhan Colony, Chandrapur - MPCB",09-01-2024 14:00:00,19.962900,79.298714,NH3,2,2,2
India,Maharashtra,Chandrapur,"MIDC Khutala, Chandrapur - MPCB",09-01-2024 14:00:00,19.9775302,79.2337086,CO,24,106,38
India,Maharashtra,Dhule,"Deopur, Dhule - MPCB",09-01-2024 14:00:00,20.918946,74.776388,NO2,12,29,17
India,Maharashtra,Dhule,"Deopur, Dhule - MPCB",09-01-2024 14:00:00,20.918946,74.776388,CO,28,89,35
India,Maharashtra,Dhule,"Deopur, Dhule - MPCB",09-01-2024 14:00:00,20.918946,74.776388,OZONE,3,62,19
India,Maharashtra,Jalgaon,"Prabhat Colony, Jalgaon - MPCB",09-01-2024 14:00:00,21.001264,75.565602,NH3,3,12,10
India,Maharashtra,Kalyan,"Khadakpada, Kalyan - MPCB",09-01-2024 14:00:00,19.25292,73.142019,PM10,64,186,130
India,Maharashtra,Kalyan,"Khadakpada, Kalyan - MPCB",09-01-2024 14:00:00,19.25292,73.142019,SO2,15,103,41
India,Maharashtra,Kolhapur,"Shivaji University, Kolhapur - MPCB",09-01-2024 14:00:00,16.6870449,74.2505872,NO2,5,20,10
India,Maharashtra,Kolhapur,"Sinchan Bhavan, Kolhapur - MPCB",09-01-2024 14:00:00,16.7143745,74.2426398,PM2.5,59,198,113
India,Maharashtra,Kolhapur,"Sinchan Bhavan, Kolhapur - MPCB",09-01-2024 14:00:00,16.7143745,74.2426398,NO2,16,70,39
India,Maharashtra,Kolhapur,"Sinchan Bhavan, Kolhapur - MPCB",09-01-2024 14:00:00,16.7143745,74.2426398,OZONE,5,65,19
India,Maharashtra,Latur,"Sawe Wadi, Latur - MPCB",09-01-2024 14:00:00,18.39963,76.57452,OZONE,24,60,47
India,Maharashtra,Mahad,"Kamble Tarf Birwadi, Mahad - MPCB",09-01-2024 14:00:00,18.1023399,73.4783687,PM10,57,89,74
India,Maharashtra,Mahad,"Kamble Tarf Birwadi, Mahad - MPCB",09-01-2024 14:00:00,18.1023399,73.4783687,NH3,4,5,5
India,Maharashtra,Malegaon,"Mahesh Nagar, Malegaon - MPCB",09-01-2024 14:00:00,20.555712,74.529236,PM2.5,66,263,116
India,Maharashtra,Mumbai,"Bandra Kurla Complex, Mumbai - MPCB",09-01-2024 14:00:00,19.065931,72.862131,PM2.5,56,150,97
India,Maharashtra,Mumbai,"Borivali East, Mumbai - IITM",09-01-2024 14:00:00,19.23241,72.86895,PM10,33,98,71
India,Maharashtra,Mumbai,"Borivali East, Mumbai - IITM",09-01-2024 14:00:00,19.23241,72.86895,NH3,3,5,5
India,Maharashtra,Mumbai,"Borivali East, Mumbai - MPCB",09-01-2024 14:00:00,19.2243333,72.8658113,PM2.5,52,117,73
India,Maharashtra,Mumbai,"Byculla, Mumbai - BMC",09-01-2024 14:00:00,18.9767,72.8380,NH3,1,2,1
India,Maharashtra,Mumbai,"Byculla, Mumbai - BMC",09-01-2024 14:00:00,18.9767,72.8380,OZONE,1,114,14
India,Maharashtra,Mumbai,"Chakala-Andheri East, Mumbai - IITM",09-01-2024 14:00:00,19.11074,72.86084,SO2,7,107,39
India,Maharashtra,Mumbai,"Chakala-Andheri East, Mumbai - IITM",09-01-2024 14:00:00,19.11074,72.86084,OZONE,33,66,55
India,Maharashtra,Mumbai,"Chembur, Mumbai - MPCB",09-01-2024 14:00:00,19.0364585,72.8954371,OZONE,3,70,25
India,Maharashtra,Mumbai,"Chhatrapati Shivaji Intl. Airport (T2), Mumbai - MPCB",09-01-2024 14:00:00,19.10078,72.87462,NO2,5,58,27
India,Maharashtra,Mumbai,"Chhatrapati Shivaji Intl. Airport (T2), Mumbai - MPCB",09-01-2024 14:00:00,19.10078,72.87462,SO2,21,33,26
India,Maharashtra,Mumbai,"Colaba, Mumbai - MPCB",09-01-2024 14:00:00,18.910000,72.820000,OZONE,9,13,11
India,Maharashtra,Mumbai,"Ghatkopar, Mumbai - BMC",09-01-2024 14:00:00,19.083694,72.920967,CO,4,50,28
India,Maharashtra,Mumbai,"Ghatkopar, Mumbai - BMC",09-01-2024 14:00:00,19.083694,72.920967,OZONE,1,49,6
India,Maharashtra,Mumbai,"Kandivali East, Mumbai - MPCB",09-01-2024 14:00:00,19.205800,72.868200,PM2.5,33,300,89
India,Maharashtra,Mumbai,"Kandivali East, Mumbai - MPCB",09-01-2024 14:00:00,19.205800,72.868200,PM10,71,177,119
India,Maharashtra,Mumbai,"Kandivali East, Mumbai - MPCB",09-01-2024 14:00:00,19.205800,72.868200,CO,55,106,89
India,Maharashtra,Mumbai,"Kandivali East, Mumbai - MPCB",09-01-2024 14:00:00,19.205800,72.868200,OZONE,29,31,30
India,Maharashtra,Mumbai,"Khindipada-Bhandup West, Mumbai - IITM",09-01-2024 14:00:00,19.1653323,72.922099,NO2,3,5,4
India,Maharashtra,Mumbai,"Kurla, Mumbai - MPCB",09-01-2024 14:00:00,19.0863,72.8888,NO2,19,46,29
India,Maharashtra,Mumbai,"Malad West, Mumbai - IITM",09-01-2024 14:00:00,19.19709,72.82204,PM10,78,181,138
India,Maharashtra,Mumbai,"Malad West, Mumbai - IITM",09-01-2024 14:00:00,19.19709,72.82204,NO2,10,21,16
India,Maharashtra,Mumbai,"Mazgaon, Mumbai - IITM",09-01-2024 14:00:00,18.96702,72.84214,NH3,3,11,8
India,Maharashtra,Mumbai,"Mindspace-Malad West, Mumbai - MPCB",09-01-2024 14:00:00,19.1878657,72.8304069,PM2.5,50,134,87
India,Maharashtra,Mumbai,"Mulund West, Mumbai - MPCB",09-01-2024 14:00:00,19.1750,72.9419,NH3,10,13,10
India,Maharashtra,Mumbai,"Mulund West, Mumbai - MPCB",09-01-2024 14:00:00,19.1750,72.9419,CO,20,21,20
India,Maharashtra,Mumbai,"Navy Nagar-Colaba, Mumbai - IITM",09-01-2024 14:00:00,18.897756,72.813320,NO2,32,72,51
India,Maharashtra,Mumbai,"Navy Nagar-Colaba, Mumbai - IITM",09-01-2024 14:00:00,18.897756,72.813320,SO2,1,39,9
India,Maharashtra,Mumbai,"Powai, Mumbai - MPCB",09-01-2024 14:00:00,19.137500,72.915056,SO2,43,47,45
India,Maharashtra,Mumbai,"Vasai West, Mumbai - MPCB",09-01-2024 14:00:00,19.383200,72.820400,PM10,39,128,96
India,Maharashtra,Mumbai,"Vasai West, Mumbai - MPCB",09-01-2024 14:00:00,19.383200,72.820400,NO2,26,28,27
India,Maharashtra,Mumbai,"Vile Parle West, Mumbai - MPCB",09-01-2024 14:00:00,19.10861,72.83622,PM2.5,29,128,84
India,Maharashtra,Mumbai,"Vile Parle West, Mumbai - MPCB",09-01-2024 14:00:00,19.10861,72.83622,NO2,5,143,35
India,Maharashtra,Mumbai,"Worli, Mumbai - MPCB",09-01-2024 14:00:00,18.9936162,72.8128113,PM10,72,148,113
India,Maharashtra,Nagpur,"Mahal, Nagpur - MPCB",09-01-2024 14:00:00,21.14472,79.107595,PM10,101,236,167
India,Maharashtra,Nagpur,"Opp GPO Civil Lines, Nagpur - MPCB",09-01-2024 14:00:00,21.152875,79.0517531,PM10,87,146,116
India,Maharashtra,Nagpur,"Opp GPO Civil Lines, Nagpur - MPCB",09-01-2024 14:00:00,21.152875,79.0517531,NH3,3,11,6
India,Maharashtra,Nagpur,"Ram Nagar, Nagpur - MPCB",09-01-2024 14:00:00,21.143383,79.048912,PM2.5,54,158,116
India,Maharashtra,Nagpur,"Ram Nagar, Nagpur - MPCB",09-01-2024 14:00:00,21.143383,79.048912,PM10,86,149,126
India,Maharashtra,Nanded,"Sneh Nagar, Nanded - MPCB",09-01-2024 14:00:00,19.173852,77.296291,OZONE,22,95,66
India,Maharashtra,Nashik,"MIDC Ambad, Nashik - MPCB",09-01-2024 14:00:00,19.950220,73.731480,PM2.5,58,164,104
India,Maharashtra,Nashik,"MIDC Ambad, Nashik - MPCB",09-01-2024 14:00:00,19.950220,73.731480,PM10,84,141,115
India,Maharashtra,Nashik,"MIDC Ambad, Nashik - MPCB",09-01-2024 14:00:00,19.950220,73.731480,NO2,30,115,68
India,Maharashtra,Nashik,"Pandav Nagari, Nashik - MPCB",09-01-2024 14:00:00,19.9591346,73.7788008,NO2,20,108,51
India,Maharashtra,Nashik,"Pandav Nagari, Nashik - MPCB",09-01-2024 14:00:00,19.9591346,73.7788008,SO2,8,97,20
India,Maharashtra,Navi Mumbai,"Kopripada-Vashi, Navi Mumbai - MPCB",09-01-2024 14:00:00,19.090337,73.014232,SO2,13,100,30
India,Maharashtra,Navi Mumbai,"Kopripada-Vashi, Navi Mumbai - MPCB",09-01-2024 14:00:00,19.090337,73.014232,CO,14,99,49
India,Maharashtra,Navi Mumbai,"Kopripada-Vashi, Navi Mumbai - MPCB",09-01-2024 14:00:00,19.090337,73.014232,OZONE,2,42,19
India,Maharashtra,Navi Mumbai,"Mahape, Navi Mumbai - MPCB",09-01-2024 14:00:00,19.1135051,73.008978,SO2,25,26,26
India,Maharashtra,Navi Mumbai,"Mahape, Navi Mumbai - MPCB",09-01-2024 14:00:00,19.1135051,73.008978,CO,24,53,43
India,Maharashtra,Navi Mumbai,"Nerul, Navi Mumbai - MPCB",09-01-2024 14:00:00,19.008751,73.016620,PM2.5,26,156,86
India,Maharashtra,Navi Mumbai,"Nerul, Navi Mumbai - MPCB",09-01-2024 14:00:00,19.008751,73.016620,NH3,1,4,3
India,Maharashtra,Navi Mumbai,"Nerul, Navi Mumbai - MPCB",09-01-2024 14:00:00,19.008751,73.016620,OZONE,19,40,37
India,Maharashtra,Navi Mumbai,"Sanpada, Navi Mumbai - MPCB",09-01-2024 14:00:00,19.0575752,73.0151367,PM2.5,33,192,123
India,Maharashtra,Navi Mumbai,"Sector-19A Nerul, Navi Mumbai - IITM",09-01-2024 14:00:00,19.044,73.0325,NO2,27,170,86
India,Maharashtra,Navi Mumbai,"Sector-2E Kalamboli, Navi Mumbai - MPCB",09-01-2024 14:00:00,19.02579,73.10297,NO2,20,126,68
India,Maharashtra,Navi Mumbai,"Sector-2E Kalamboli, Navi Mumbai - MPCB",09-01-2024 14:00:00,19.02579,73.10297,NH3,9,16,12
India,Maharashtra,Navi Mumbai,"Sector-2E Kalamboli, Navi Mumbai - MPCB",09-01-2024 14:00:00,19.02579,73.10297,SO2,15,49,23
India,Maharashtra,Navi Mumbai,"Tondare-Taloja, Navi Mumbai - MPCB",09-01-2024 14:00:00,19.0630,73.1209,NO2,38,155,83
India,Maharashtra,Pimpri-Chinchwad,"Gavalinagar, Pimpri Chinchwad - MPCB",09-01-2024 14:00:00,18.63673,73.82487,PM2.5,68,328,204
India,Maharashtra,Pimpri-Chinchwad,"Gavalinagar, Pimpri Chinchwad - MPCB",09-01-2024 14:00:00,18.63673,73.82487,SO2,5,12,8
India,Maharashtra,Pimpri-Chinchwad,"Park Street Wakad, Pimpri Chinchwad - MPCB",09-01-2024 14:00:00,18.59051,73.77946,PM10,86,204,144
India,Maharashtra,Pimpri-Chinchwad,"Thergaon, Pimpri Chinchwad - MPCB",09-01-2024 14:00:00,18.616318,73.765797,PM10,95,146,123
India,Maharashtra,Pune,"Alandi, Pune - IITM",09-01-2024 14:00:00,18.675076,73.892743,NO2,16,34,22
India,Maharashtra,Pune,"Bhosari, Pune - IITM",09-01-2024 14:00:00,18.640051,73.848956,PM2.5,30,174,89
India,Maharashtra,Pune,"Karve Road, Pune - MPCB",09-01-2024 14:00:00,18.5011743,73.8165527,PM10,88,126,108
India,Maharashtra,Pune,"Mhada Colony, Pune - IITM",09-01-2024 14:00:00,18.573040,73.927715,CO,38,58,43
India,Maharashtra,Pune,"Revenue Colony-Shivajinagar, Pune - IITM",09-01-2024 14:00:00,18.530085,73.849598,PM10,57,171,133
India,Maharashtra,Pune,"Revenue Colony-Shivajinagar, Pune - IITM",09-01-2024 14:00:00,18.530085,73.849598,NH3,16,30,26
India,Maharashtra,Pune,"Savitribai Phule Pune University, Pune - MPCB",09-01-2024 14:00:00,18.547056,73.826908,PM10,57,155,120
India,Maharashtra,Pune,"Savitribai Phule Pune University, Pune - MPCB",09-01-2024 14:00:00,18.547056,73.826908,NH3,1,8,4
India,Maharashtra,Sangli,"Vijay Nagar, Sangli - MPCB",09-01-2024 14:00:00, 16.5038,74.3623,NO2,2,54,23
India,Maharashtra,Sangli,"Vijay Nagar, Sangli - MPCB",09-01-2024 14:00:00, 16.5038,74.3623,SO2,2,4,3
India,Maharashtra,Solapur,"Dnyaneshwar Nagar, Solapur - MPCB",09-01-2024 14:00:00,17.6336264,75.9132495,NH3,13,26,22
India,Maharashtra,Solapur,"Solapur, Solapur - MPCB",09-01-2024 14:00:00,17.6599188,75.9063906,PM10,82,131,107
India,Maharashtra,Solapur,"Solapur, Solapur - MPCB",09-01-2024 14:00:00,17.6599188,75.9063906,NO2,46,54,49
India,Maharashtra,Thane,"Kasarvadavali, Thane - MPCB",09-01-2024 14:00:00,19.26777,72.97182,NO2,NA,NA,NA
India,Maharashtra,Thane,"Kasarvadavali, Thane - MPCB",09-01-2024 14:00:00,19.26777,72.97182,OZONE,1,89,43
India,Maharashtra,Thane,"Upvan Fort, Thane - MPCB",09-01-2024 14:00:00,19.222279,72.957979,NH3,8,15,11
India,Maharashtra,Ulhasnagar,"Sidhi Vinayak Nagar, Ulhasnagar - MPCB",09-01-2024 14:00:00,19.235581,73.159121,PM2.5,46,272,164
India,Maharashtra,Ulhasnagar,"Sidhi Vinayak Nagar, Ulhasnagar - MPCB",09-01-2024 14:00:00,19.235581,73.159121,CO,10,104,29
India,Maharashtra,Ulhasnagar,"Sidhi Vinayak Nagar, Ulhasnagar - MPCB",09-01-2024 14:00:00,19.235581,73.159121,OZONE,3,99,40
India,Maharashtra,Virar,"Bolinj, Virar - MPCB",09-01-2024 14:00:00,19.4458210,72.7988231,PM2.5,47,136,77
India,Maharashtra,Virar,"Bolinj, Virar - MPCB",09-01-2024 14:00:00,19.4458210,72.7988231,SO2,7,38,14
India,Manipur,Imphal,"Manipur University, Imphal - Manipur PCB",09-01-2024 14:00:00,24.7524239,93.9286218,OZONE,1,19,11
India,Meghalaya,Shillong,"Lumpyngngad, Shillong - Meghalaya PCB",09-01-2024 14:00:00,25.5586,91.8985,NH3,1,1,1
India,Meghalaya,Shillong,"Lumpyngngad, Shillong - Meghalaya PCB",09-01-2024 14:00:00,25.5586,91.8985,SO2,14,15,15
India,Meghalaya,Shillong,"Lumpyngngad, Shillong - Meghalaya PCB",09-01-2024 14:00:00,25.5586,91.8985,OZONE,31,70,54
India,Mizoram,Aizawl,"Sikulpuikawn, Aizawl - Mizoram PCB",09-01-2024 14:00:00,23.7176342,92.7192841,PM2.5,25,54,36
India,Mizoram,Aizawl,"Sikulpuikawn, Aizawl - Mizoram PCB",09-01-2024 14:00:00,23.7176342,92.7192841,NO2,1,12,2
India,Mizoram,Aizawl,"Sikulpuikawn, Aizawl - Mizoram PCB",09-01-2024 14:00:00,23.7176342,92.7192841,CO,10,19,14
India,Nagaland,Kohima,"PWD Juction, Kohima - NPCB",09-01-2024 14:00:00,25.6635413,94.0989878,NO2,3,4,3
India,Odisha,Balasore,"Kalidaspur, Balasore - OSPCB",09-01-2024 14:00:00,21.51161,86.89088,OZONE,6,93,43
India,Odisha,Barbil,"Forest Office, Barbil - OSPCB",09-01-2024 14:00:00,22.1166054,85.3945546,NO2,10,34,18
India,Odisha,Baripada,"Meher Colony, Baripada - OSPCB",09-01-2024 14:00:00,21.941841,86.728318,SO2,3,5,4
India,Odisha,Baripada,"Meher Colony, Baripada - OSPCB",09-01-2024 14:00:00,21.941841,86.728318,OZONE,10,39,12
India,Odisha,Bhubaneswar,"Lingraj Mandir, Bhubaneswar - OSPCB",09-01-2024 14:00:00,20.240790,85.836784,PM10,172,352,218
India,Odisha,Bhubaneswar,"Lingraj Mandir, Bhubaneswar - OSPCB",09-01-2024 14:00:00,20.240790,85.836784,CO,60,98,73
India,Odisha,Bhubaneswar,"Patia, Bhubaneswar - OSPCB",09-01-2024 14:00:00,20.34652,85.81630,PM2.5,280,348,326
India,Odisha,Brajrajnagar,"GM Office, Brajrajnagar - OSPCB",09-01-2024 14:00:00,21.8004996,83.8396977,NH3,1,2,2
India,Odisha,Byasanagar,"Ferro Chrome Colony, Byasanagar - OSPCB",09-01-2024 14:00:00,20.94185,86.11510,PM2.5,237,352,298
India,Odisha,Cuttack,"CDA Area, Cuttack - OSPCB",09-01-2024 14:00:00,20.48891     ,85.84768     ,PM10,171,282,215
India,Odisha,Cuttack,"CDA Area, Cuttack - OSPCB",09-01-2024 14:00:00,20.48891     ,85.84768     ,OZONE,11,102,50
India,Odisha,Nayagarh,"Dabuna, Nayagarh - OSPCB",09-01-2024 14:00:00,21.847279,85.416905,NO2,30,33,31
India,Odisha,Rourkela,"Fertilizer Township, Rourkela - OSPCB",09-01-2024 14:00:00,22.18972222,84.86277778,PM10,70,253,157
India,Odisha,Rourkela,"Raghunathpali, Rourkela - OSPCB",09-01-2024 14:00:00,22.220833,84.809444,NH3,1,3,2
India,Odisha,Suakati,"OMC Colony, Suakati - OSPCB",09-01-2024 14:00:00,21.606865,85.510538,SO2,1,28,11
India,Odisha,Talcher,"Talcher Coalfields,Talcher - OSPCB",09-01-2024 14:00:00,20.9360711,85.1707021,NO2,43,54,48
India,Odisha,Tensa,"Barsua Iron Ore Mines, Tensa - OSPCB",09-01-2024 14:00:00,21.869985,85.167016,CO,24,71,33
India,Punjab,Amritsar,"Golden Temple, Amritsar - PPCB",09-01-2024 14:00:00,31.620000,74.876512,PM2.5,108,274,183
India,Punjab,Amritsar,"Golden Temple, Amritsar - PPCB",09-01-2024 14:00:00,31.620000,74.876512,NO2,11,40,22
India,Punjab,Amritsar,"Golden Temple, Amritsar - PPCB",09-01-2024 14:00:00,31.620000,74.876512,CO,22,28,25
India,Punjab,Khanna,"Kalal Majra, Khanna - PPCB",09-01-2024 14:00:00,30.736056 ,76.209694,NH3,15,16,16
India,Punjab,Khanna,"Kalal Majra, Khanna - PPCB",09-01-2024 14:00:00,30.736056 ,76.209694,OZONE,16,19,18
India,Punjab,Ludhiana,"Punjab Agricultural University, Ludhiana - PPCB",09-01-2024 14:00:00,30.9028,75.8086,OZONE,9,29,16
India,Punjab,Patiala,"Model Town, Patiala - PPCB",09-01-2024 14:00:00,30.349388,76.366642,NO2,19,30,24
India,Punjab,Patiala,"Model Town, Patiala - PPCB",09-01-2024 14:00:00,30.349388,76.366642,SO2,6,18,11
India,Punjab,Rupnagar,"Ratanpura, Rupnagar - Ambuja Cements",09-01-2024 14:00:00,31.0325454,76.5623046,PM2.5,71,241,127
India,Rajasthan,Ajmer,"Civil Lines,  Ajmer - RSPCB",09-01-2024 14:00:00,26.470859,74.646594,PM10,76,147,117
India,Rajasthan,Ajmer,"Civil Lines,  Ajmer - RSPCB",09-01-2024 14:00:00,26.470859,74.646594,NH3,29,42,37
India,Rajasthan,Alwar,"Moti Doongri, Alwar - RSPCB",09-01-2024 14:00:00,27.554793,76.611536,PM10,47,135,102
India,Rajasthan,Banswara,"Rati Talai, Banswara - RSPCB",09-01-2024 14:00:00,23.555190,74.440010,OZONE,23,106,46
India,Rajasthan,Baran,"Bamboliya, Baran - RSPCB",09-01-2024 14:00:00,25.106006,76.469948,NH3,3,12,5
India,Rajasthan,Barmer,"Railway Colony, Barmer - RSPCB",09-01-2024 14:00:00,25.747299,71.393989,CO,21,79,53
India,Rajasthan,Bharatpur,"Krishna Nagar, Bharatpur - RSPCB",09-01-2024 14:00:00,27.215415,77.50873,NH3,8,12,10
India,Rajasthan,Bharatpur,"Krishna Nagar, Bharatpur - RSPCB",09-01-2024 14:00:00,27.215415,77.50873,CO,46,78,53
India,Rajasthan,Bhiwadi,"RIICO Ind. Area III, Bhiwadi - RSPCB",09-01-2024 14:00:00,28.194909,76.862296,PM10,87,303,182
India,Rajasthan,Bhiwadi,"RIICO Ind. Area III, Bhiwadi - RSPCB",09-01-2024 14:00:00,28.194909,76.862296,NO2,23,45,31
India,Rajasthan,Bhiwadi,"RIICO Ind. Area III, Bhiwadi - RSPCB",09-01-2024 14:00:00,28.194909,76.862296,CO,32,107,67
India,Rajasthan,Bikaner,"MM Ground, Bikaner - RSPCB",09-01-2024 14:00:00,28.018792,73.292658,OZONE,2,51,25
India,Rajasthan,Bundi,"New Colony, Bundi - RSPCB",09-01-2024 14:00:00,25.435774,75.644272,PM2.5,301,358,332
India,Rajasthan,Bundi,"New Colony, Bundi - RSPCB",09-01-2024 14:00:00,25.435774,75.644272,SO2,1,4,3
India,Rajasthan,Bundi,"New Colony, Bundi - RSPCB",09-01-2024 14:00:00,25.435774,75.644272,OZONE,9,83,35
India,Rajasthan,Chittorgarh,"Shastri Nagar, Chittorgarh - RSPCB",09-01-2024 14:00:00,24.892047,74.623527,PM10,148,196,175
India,Rajasthan,Chittorgarh,"Shastri Nagar, Chittorgarh - RSPCB",09-01-2024 14:00:00,24.892047,74.623527,OZONE,9,46,26
India,Rajasthan,Churu,"Subash Chowk, Churu - RSPCB",09-01-2024 14:00:00,28.296139,74.961696,SO2,4,6,5
India,Rajasthan,Churu,"Subash Chowk, Churu - RSPCB",09-01-2024 14:00:00,28.296139,74.961696,CO,36,80,45
India,Rajasthan,Churu,"Subash Chowk, Churu - RSPCB",09-01-2024 14:00:00,28.296139,74.961696,OZONE,33,98,53
India,Rajasthan,Dholpur,"Raja Ganj, Dholpur - RSPCB",09-01-2024 14:00:00,26.699557,77.898881,SO2,12,45,18
India,Rajasthan,Dholpur,"Raja Ganj, Dholpur - RSPCB",09-01-2024 14:00:00,26.699557,77.898881,CO,32,77,56
India,Rajasthan,Dungarpur,"Bhoiwada, Dungarpur - RSPCB",09-01-2024 14:00:00,23.837789,73.714926,CO,31,52,48
India,Rajasthan,Jaipur,"Adarsh Nagar, Jaipur - RSPCB",09-01-2024 14:00:00,26.902909,75.836858,NO2,31,120,67
India,Rajasthan,Jaipur,"Police Commissionerate, Jaipur - RSPCB",09-01-2024 14:00:00,26.9164092,75.7994901,PM2.5,169,329,274
India,Rajasthan,Jaipur,"Sector-2 Murlipura, Jaipur - RSPCB",09-01-2024 14:00:00,26.960669,75.771817,NH3,8,8,8
India,Rajasthan,Jaipur,"Shastri Nagar, Jaipur - RSPCB",09-01-2024 14:00:00,26.9502929,75.730943,NO2,39,110,64
India,Rajasthan,Jaipur,"Shastri Nagar, Jaipur - RSPCB",09-01-2024 14:00:00,26.9502929,75.730943,CO,46,108,54
India,Rajasthan,Jaisalmer,"Sadar Bazar, Jaisalmer - RSPCB",09-01-2024 14:00:00,26.912329,70.909168,PM2.5,59,220,113
India,Rajasthan,Jalore,"Mudtra Sili, Jalore - RSPCB",09-01-2024 14:00:00,25.344694,72.626208,PM2.5,76,312,209
India,Rajasthan,Jalore,"Mudtra Sili, Jalore - RSPCB",09-01-2024 14:00:00,25.344694,72.626208,PM10,103,216,139
India,Rajasthan,Jalore,"Mudtra Sili, Jalore - RSPCB",09-01-2024 14:00:00,25.344694,72.626208,SO2,4,10,6
India,Rajasthan,Jhunjhunu,"Indra Nagar, Jhunjhunu - RSPCB",09-01-2024 14:00:00,28.108988,75.386577,PM2.5,30,304,136
India,Rajasthan,Jhunjhunu,"Indra Nagar, Jhunjhunu - RSPCB",09-01-2024 14:00:00,28.108988,75.386577,SO2,2,5,3
India,Rajasthan,Jodhpur,"Collectorate, Jodhpur - RSPCB",09-01-2024 14:00:00,26.268249,73.0193853,PM2.5,NA,NA,NA
India,Rajasthan,Jodhpur,"Digari Kalan, Jodhpur - RSPCB",09-01-2024 14:00:00,26.295810,73.082283,SO2,1,4,2
India,Rajasthan,Jodhpur,"Digari Kalan, Jodhpur - RSPCB",09-01-2024 14:00:00,26.295810,73.082283,OZONE,32,107,54
India,Rajasthan,Jodhpur,"Jhalamand, Jodhpur - RSPCB",09-01-2024 14:00:00,26.215415,73.070156,SO2,3,6,4
India,Rajasthan,Jodhpur,"Mandor, Jodhpur - RSPCB",09-01-2024 14:00:00,26.358805,73.047444,CO,31,52,43
India,Rajasthan,Jodhpur,"Samrat Ashok Udhyan, Jodhpur - RSPCB",09-01-2024 14:00:00,26.253384,72.976571,SO2,4,10,5
India,Rajasthan,Jodhpur,"Samrat Ashok Udhyan, Jodhpur - RSPCB",09-01-2024 14:00:00,26.253384,72.976571,OZONE,37,117,56
India,Rajasthan,Kota,"Dhanmandi, Kota - RSPCB",09-01-2024 14:00:00,25.164090,75.858137,PM10,150,292,211
India,Rajasthan,Kota,"Dhanmandi, Kota - RSPCB",09-01-2024 14:00:00,25.164090,75.858137,NO2,31,77,50
India,Rajasthan,Kota,"Dhanmandi, Kota - RSPCB",09-01-2024 14:00:00,25.164090,75.858137,NH3,5,6,5
India,Rajasthan,Kota,"Dhanmandi, Kota - RSPCB",09-01-2024 14:00:00,25.164090,75.858137,CO,46,90,60
India,Rajasthan,Pali,"Indira Colony Vistar, Pali - RSPCB",09-01-2024 14:00:00,25.771061, 73.340227,PM2.5,82,304,199
India,Rajasthan,Pratapgarh,"Pragati Nagar, Pratapgarh - RSPCB",09-01-2024 14:00:00,24.041198,74.780702,PM2.5,67,254,158
India,Rajasthan,Pratapgarh,"Pragati Nagar, Pratapgarh - RSPCB",09-01-2024 14:00:00,24.041198,74.780702,NO2,16,30,22
India,Rajasthan,Sawai Madhopur,"Sahu Nagar, Sawai Madhopur - RSPCB",09-01-2024 14:00:00,26.031443,76.359327,NH3,3,3,3
India,Rajasthan,Sikar,"Radhakishan Pura, Sikar - RSPCB",09-01-2024 14:00:00,27.608912,75.153302,NO2,12,51,22
India,Rajasthan,Sirohi,"Vedhaynath Colony, Sirohi - RSPCB",09-01-2024 14:00:00,24.885261,72.857549,NO2,15,108,34
India,Rajasthan,Sri Ganganagar,"Old City, Sri Ganganagar - RSPCB",09-01-2024 14:00:00,29.931624,73.864511,PM10,181,500,327
India,Rajasthan,Sri Ganganagar,"Old City, Sri Ganganagar - RSPCB",09-01-2024 14:00:00,29.931624,73.864511,NO2,24,96,54
India,Rajasthan,Udaipur,"Ashok Nagar, Udaipur - RSPCB",09-01-2024 14:00:00,24.5886166,73.6321397,NO2,27,85,44
India,Rajasthan,Udaipur,"Ashok Nagar, Udaipur - RSPCB",09-01-2024 14:00:00,24.5886166,73.6321397,CO,42,117,58
India,Sikkim,Gangtok,"Zero Point GICI, Gangtok - SSPCB",09-01-2024 14:00:00,27.338530,88.614099,NH3,1,1,1
India,TamilNadu,Ariyalur,"Keelapalur, Ariyalur - TNPCB",09-01-2024 14:00:00,11.06825,79.07033,PM2.5,8,40,21
India,TamilNadu,Ariyalur,"Keelapalur, Ariyalur - TNPCB",09-01-2024 14:00:00,11.06825,79.07033,PM10,8,50,25
India,TamilNadu,Chengalpattu,"Crescent University, Chengalpattu - TNPCB",09-01-2024 14:00:00,12.8777316,80.0834807,CO,27,32,28
India,TamilNadu,Chengalpattu,"Crescent University, Chengalpattu - TNPCB",09-01-2024 14:00:00,12.8777316,80.0834807,OZONE,6,6,6
India,TamilNadu,Chennai,"Alandur Bus Depot, Chennai - CPCB",09-01-2024 14:00:00,12.9099161,80.1076538,PM2.5,64,81,74
India,TamilNadu,Chennai,"Alandur Bus Depot, Chennai - CPCB",09-01-2024 14:00:00,12.9099161,80.1076538,NO2,18,132,52
India,TamilNadu,Chennai,"Arumbakkam, Chennai - TNPCB",09-01-2024 14:00:00,13.0664,80.2112 ,PM10,48,100,75
India,TamilNadu,Chennai,"Arumbakkam, Chennai - TNPCB",09-01-2024 14:00:00,13.0664,80.2112 ,NO2,11,30,20
India,TamilNadu,Chennai,"Arumbakkam, Chennai - TNPCB",09-01-2024 14:00:00,13.0664,80.2112 ,NH3,3,7,4
India,TamilNadu,Chennai,"Gandhi Nagar_Ennore, Chennai - TNPCB",09-01-2024 14:00:00,13.218341,80.32027,PM2.5,51,93,71
India,TamilNadu,Chennai,"Kodungaiyur, Chennai - TNPCB",09-01-2024 14:00:00,13.1278,80.2642,OZONE,5,12,6
India,TamilNadu,Chennai,"Manali, Chennai - CPCB",09-01-2024 14:00:00,13.164544,80.26285,OZONE,21,34,26
India,TamilNadu,Chennai,"Royapuram, Chennai - TNPCB",09-01-2024 14:00:00,13.1036,80.2909,NO2,10,27,17
India,TamilNadu,Chennai,"Royapuram, Chennai - TNPCB",09-01-2024 14:00:00,13.1036,80.2909,SO2,1,5,3
India,TamilNadu,Chennai,"Velachery Res. Area, Chennai - CPCB",09-01-2024 14:00:00,13.0052189,80.2398125,PM2.5,32,57,45
India,TamilNadu,Coimbatore,"PSG College of Arts and Science, Coimbatore - TNPCB",09-01-2024 14:00:00,11.0328,77.0349,PM2.5,12,54,36
India,TamilNadu,Coimbatore,"PSG College of Arts and Science, Coimbatore - TNPCB",09-01-2024 14:00:00,11.0328,77.0349,SO2,3,5,4
India,TamilNadu,Cuddalore,"Kudikadu, Cuddalore - TNPCB",09-01-2024 14:00:00,11.6829898,79.7532099,PM10,4,97,49
India,TamilNadu,Cuddalore,"Kudikadu, Cuddalore - TNPCB",09-01-2024 14:00:00,11.6829898,79.7532099,SO2,17,21,19
India,TamilNadu,Gummidipoondi,"Anthoni Pillai Nagar, Gummidipoondi - TNPCB",09-01-2024 14:00:00,13.4127,80.1081,PM2.5,60,367,148
India,TamilNadu,Gummidipoondi,"Anthoni Pillai Nagar, Gummidipoondi - TNPCB",09-01-2024 14:00:00,13.4127,80.1081,SO2,1,32,9
India,TamilNadu,Kanchipuram,"Kilambi, Kanchipuram - TNPCB",09-01-2024 14:00:00,12.864618,79.659968,NO2,NA,NA,NA
India,TamilNadu,Kanchipuram,"Kilambi, Kanchipuram - TNPCB",09-01-2024 14:00:00,12.864618,79.659968,SO2,NA,NA,NA
India,TamilNadu,Ooty,"Bombay Castel, Ooty - TNPCB",09-01-2024 14:00:00,11.4068288,76.7138973,SO2,13,13,13
India,TamilNadu,Palkalaiperur,"Bharathidasan University, Palkalaiperur - TNPCB",09-01-2024 14:00:00,10.681158,78.741746,PM10,10,48,27
India,TamilNadu,Ramanathapuram,"Chalai Bazaar, Ramanathapuram - TNPCB",09-01-2024 14:00:00,9.36399,78.831977,PM10,7,47,25
India,TamilNadu,Ramanathapuram,"Chalai Bazaar, Ramanathapuram - TNPCB",09-01-2024 14:00:00,9.36399,78.831977,CO,4,34,17
India,TamilNadu,Salem,"Sona College of Technology, Salem - TNPCB",09-01-2024 14:00:00,11.679111,78.125052,OZONE,2,4,3
India,TamilNadu,Vellore,"Vasanthapuram, Vellore - TNPCB",09-01-2024 14:00:00,12.909494,79.131861,PM10,27,120,65
India,TamilNadu,Vellore,"Vasanthapuram, Vellore - TNPCB",09-01-2024 14:00:00,12.909494,79.131861,NO2,3,13,8
India,TamilNadu,Virudhunagar,"Collectorate Office, Virudhunagar - TNPCB",09-01-2024 14:00:00,9.559382,77.948828,CO,20,28,22
India,TamilNadu,Virudhunagar,"Collectorate Office, Virudhunagar - TNPCB",09-01-2024 14:00:00,9.559382,77.948828,OZONE,3,3,3
India,Telangana,Hyderabad,"IITH Kandi, Hyderabad - TSPCB",09-01-2024 14:00:00,17.585705,78.126199,PM10,NA,NA,NA
India,Telangana,Hyderabad,"IITH Kandi, Hyderabad - TSPCB",09-01-2024 14:00:00,17.585705,78.126199,NH3,NA,NA,NA
India,Telangana,Hyderabad,"Kokapet, Hyderabad - TSPCB",09-01-2024 14:00:00,17.393559,78.339194,PM10,NA,NA,NA
India,Telangana,Hyderabad,"Kokapet, Hyderabad - TSPCB",09-01-2024 14:00:00,17.393559,78.339194,NO2,NA,NA,NA
India,Telangana,Hyderabad,"Kokapet, Hyderabad - TSPCB",09-01-2024 14:00:00,17.393559,78.339194,NH3,NA,NA,NA
India,Telangana,Hyderabad,"Kompally Municipal Office, Hyderabad - TSPCB",09-01-2024 14:00:00,17.544899,78.486949,NO2,9,12,9
India,Telangana,Hyderabad,"Kompally Municipal Office, Hyderabad - TSPCB",09-01-2024 14:00:00,17.544899,78.486949,OZONE,19,55,40
India,Telangana,Hyderabad,"New Malakpet, Hyderabad - TSPCB",09-01-2024 14:00:00,17.37206,78.50864,NO2,19,30,25
India,Telangana,Hyderabad,"Ramachandrapuram, Hyderabad - TSPCB",09-01-2024 14:00:00,17.528544,78.286195,PM2.5,35,45,42
India,Telangana,Hyderabad,"Sanathnagar, Hyderabad - TSPCB",09-01-2024 14:00:00,17.4559458,78.4332152,CO,41,52,49
India,Telangana,Hyderabad,"Sanathnagar, Hyderabad - TSPCB",09-01-2024 14:00:00,17.4559458,78.4332152,OZONE,7,96,23
India,Telangana,Hyderabad,"Zoo Park, Hyderabad - TSPCB",09-01-2024 14:00:00,17.349694,78.451437,SO2,1,3,2
India,Telangana,Hyderabad,"Zoo Park, Hyderabad - TSPCB",09-01-2024 14:00:00,17.349694,78.451437,CO,39,75,48
India,Tripura,Agartala,"Bardowali, Agartala - Tripura SPCB",09-01-2024 14:00:00,23.8175497,91.2726974,PM2.5,NA,NA,NA
India,Uttar_Pradesh,Agra,"Manoharpur, Agra - UPPCB",09-01-2024 14:00:00,27.23711,78.01936,OZONE,3,6,4
India,Uttar_Pradesh,Agra,"Rohta, Agra - UPPCB",09-01-2024 14:00:00,27.106972,78.000111,PM2.5,58,248,129
India,Uttar_Pradesh,Agra,"Rohta, Agra - UPPCB",09-01-2024 14:00:00,27.106972,78.000111,CO,20,35,26
India,Uttar_Pradesh,Agra,"Sanjay Palace, Agra - UPPCB",09-01-2024 14:00:00,27.19865833,78.00598056,CO,24,105,75
India,Uttar_Pradesh,Agra,"Sector-3B Avas Vikas Colony, Agra - UPPCB",09-01-2024 14:00:00,27.19412,77.96237,PM2.5,NA,NA,NA
India,Uttar_Pradesh,Agra,"Sector-3B Avas Vikas Colony, Agra - UPPCB",09-01-2024 14:00:00,27.19412,77.96237,OZONE,8,12,8
India,Uttar_Pradesh,Agra,"Shahjahan Garden, Agra - UPPCB",09-01-2024 14:00:00,27.169338,78.03582,PM10,48,170,97
India,Uttar_Pradesh,Agra,"Shahjahan Garden, Agra - UPPCB",09-01-2024 14:00:00,27.169338,78.03582,SO2,26,29,26
India,Uttar_Pradesh,Agra,"Shahjahan Garden, Agra - UPPCB",09-01-2024 14:00:00,27.169338,78.03582,OZONE,2,134,5
India,Uttar_Pradesh,Baghpat,"Sardar Patel Inter College, Baghpat - UPPCB",09-01-2024 14:00:00,28.964949,77.278761,PM10,97,198,141
India,Uttar_Pradesh,Baghpat,"Sardar Patel Inter College, Baghpat - UPPCB",09-01-2024 14:00:00,28.964949,77.278761,OZONE,2,24,7
India,Uttar_Pradesh,Bareilly,"Civil Lines, Bareilly - UPPCB",09-01-2024 14:00:00,28.359581,79.414455,NO2,15,28,21
India,Uttar_Pradesh,Bareilly,"Rajendra Nagar, Bareilly - UPPCB",09-01-2024 14:00:00,28.38910936,79.42963708,SO2,38,40,39
India,Uttar_Pradesh,Bulandshahr,"Yamunapuram, Bulandshahr - UPPCB",09-01-2024 14:00:00,28.406963,77.849831,NO2,27,128,75
India,Uttar_Pradesh,Bulandshahr,"Yamunapuram, Bulandshahr - UPPCB",09-01-2024 14:00:00,28.406963,77.849831,CO,8,94,35
India,Uttar_Pradesh,Firozabad,"Nagla Bhau, Firozabad - UPPCB",09-01-2024 14:00:00,27.168897,78.376960,NH3,1,2,2
India,Uttar_Pradesh,Firozabad,"Nagla Bhau, Firozabad - UPPCB",09-01-2024 14:00:00,27.168897,78.376960,SO2,32,47,40
India,Uttar_Pradesh,Ghaziabad,"Indirapuram, Ghaziabad - UPPCB",09-01-2024 14:00:00,28.646233,77.358075,NH3,11,14,12
India,Uttar_Pradesh,Ghaziabad,"Indirapuram, Ghaziabad - UPPCB",09-01-2024 14:00:00,28.646233,77.358075,OZONE,5,34,12
India,Uttar_Pradesh,Ghaziabad,"Loni, Ghaziabad - UPPCB",09-01-2024 14:00:00,28.757294,77.278792,NO2,12,57,26
India,Uttar_Pradesh,Ghaziabad,"Loni, Ghaziabad - UPPCB",09-01-2024 14:00:00,28.757294,77.278792,NH3,2,5,3
India,Uttar_Pradesh,Ghaziabad,"Sanjay Nagar, Ghaziabad - UPPCB",09-01-2024 14:00:00,28.685382,77.453839,CO,3,146,21
India,Uttar_Pradesh,Ghaziabad,"Sanjay Nagar, Ghaziabad - UPPCB",09-01-2024 14:00:00,28.685382,77.453839,OZONE,5,40,16
India,Uttar_Pradesh,Ghaziabad,"Vasundhara, Ghaziabad - UPPCB",09-01-2024 14:00:00,28.6603346,77.3572563,NO2,32,134,71
India,Uttar_Pradesh,Ghaziabad,"Vasundhara, Ghaziabad - UPPCB",09-01-2024 14:00:00,28.6603346,77.3572563,SO2,NA,NA,NA
India,Uttar_Pradesh,Greater Noida,"Knowledge Park - V, Greater Noida - UPPCB",09-01-2024 14:00:00,28.557054,77.453663,PM2.5,252,434,356
India,Uttar_Pradesh,Hapur,"Anand Vihar, Hapur - UPPCB",09-01-2024 14:00:00,28.725645,77.749675,PM10,123,306,180
India,Uttar_Pradesh,Jhansi,"Shivaji Nagar, Jhansi - UPPCB",09-01-2024 14:00:00,25.4547,78.6039,NH3,6,6,6
India,Uttar_Pradesh,Kanpur,"FTI Kidwai Nagar, Kanpur - UPPCB",09-01-2024 14:00:00,26.428282,80.327067,PM2.5,29,125,67
India,Uttar_Pradesh,Kanpur,"FTI Kidwai Nagar, Kanpur - UPPCB",09-01-2024 14:00:00,26.428282,80.327067,PM10,45,154,98
India,Uttar_Pradesh,Kanpur,"FTI Kidwai Nagar, Kanpur - UPPCB",09-01-2024 14:00:00,26.428282,80.327067,CO,42,66,47
India,Uttar_Pradesh,Kanpur,"NSI Kalyanpur, Kanpur - UPPCB",09-01-2024 14:00:00,26.509954,80.249612,PM2.5,23,151,69
India,Uttar_Pradesh,Kanpur,"Nehru Nagar, Kanpur - UPPCB",09-01-2024 14:00:00,26.4703136,80.3229863,PM2.5,43,233,107
India,Uttar_Pradesh,Kanpur,"Nehru Nagar, Kanpur - UPPCB",09-01-2024 14:00:00,26.4703136,80.3229863,NO2,3,114,44
India,Uttar_Pradesh,Kanpur,"Nehru Nagar, Kanpur - UPPCB",09-01-2024 14:00:00,26.4703136,80.3229863,OZONE,19,113,28
India,Uttar_Pradesh,Khurja,"Kalindi Kunj, Khurja - UPPCB",09-01-2024 14:00:00,28.2348927,77.8683002,PM10,NA,NA,NA
India,Uttar_Pradesh,Khurja,"Kalindi Kunj, Khurja - UPPCB",09-01-2024 14:00:00,28.2348927,77.8683002,SO2,NA,NA,NA
India,Uttar_Pradesh,Khurja,"Kalindi Kunj, Khurja - UPPCB",09-01-2024 14:00:00,28.2348927,77.8683002,OZONE,20,27,25
India,Uttar_Pradesh,Lucknow,"B R Ambedkar University, Lucknow - UPPCB",09-01-2024 14:00:00,26.766433,80.927299,NO2,11,18,12
India,Uttar_Pradesh,Lucknow,"Gomti Nagar, Lucknow - UPPCB",09-01-2024 14:00:00,26.868120,81.005119,SO2,4,36,13
India,Uttar_Pradesh,Lucknow,"Gomti Nagar, Lucknow - UPPCB",09-01-2024 14:00:00,26.868120,81.005119,OZONE,42,56,46
India,Uttar_Pradesh,Lucknow,"Kendriya Vidyalaya, Lucknow - CPCB",09-01-2024 14:00:00,26.906111,80.948222,NO2,1,9,5
India,Uttar_Pradesh,Lucknow,"Kendriya Vidyalaya, Lucknow - CPCB",09-01-2024 14:00:00,26.906111,80.948222,SO2,1,4,1
India,Uttar_Pradesh,Lucknow,"Kendriya Vidyalaya, Lucknow - CPCB",09-01-2024 14:00:00,26.906111,80.948222,OZONE,6,46,20
India,Uttar_Pradesh,Lucknow,"Kukrail Picnic Spot-1, Lucknow - UPPCB",09-01-2024 14:00:00,26.90723,80.98579,PM10,63,118,90
India,Uttar_Pradesh,Lucknow,"Lalbagh, Lucknow - CPCB",09-01-2024 14:00:00,26.8458805,80.9365541,PM10,107,403,178
India,Uttar_Pradesh,Lucknow,"Talkatora District Industries Center, Lucknow - CPCB",09-01-2024 14:00:00,26.83399722,80.8917361,PM10,14,186,129
India,Uttar_Pradesh,Lucknow,"Talkatora District Industries Center, Lucknow - CPCB",09-01-2024 14:00:00,26.83399722,80.8917361,OZONE,2,80,28
India,Uttar_Pradesh,Meerut,"Ganga Nagar, Meerut - UPPCB",09-01-2024 14:00:00,28.999264,77.7590354,NH3,6,11,8
India,Uttar_Pradesh,Meerut,"Ganga Nagar, Meerut - UPPCB",09-01-2024 14:00:00,28.999264,77.7590354,OZONE,2,5,4
India,Uttar_Pradesh,Meerut,"Jai Bhim Nagar, Meerut - UPPCB",09-01-2024 14:00:00,28.9535882,77.7622941,NH3,7,12,9
India,Uttar_Pradesh,Moradabad,"Buddhi Vihar, Moradabad - UPPCB",09-01-2024 14:00:00,28.83526,78.74460,NO2,22,24,23
India,Uttar_Pradesh,Moradabad,"Eco Herbal Park, Moradabad - UPPCB",09-01-2024 14:00:00,28.840739,78.697531,NO2,4,44,10
India,Uttar_Pradesh,Moradabad,"Eco Herbal Park, Moradabad - UPPCB",09-01-2024 14:00:00,28.840739,78.697531,NH3,7,36,10
India,Uttar_Pradesh,Moradabad,"Eco Herbal Park, Moradabad - UPPCB",09-01-2024 14:00:00,28.840739,78.697531,SO2,2,15,10
India,Uttar_Pradesh,Moradabad,"Eco Herbal Park, Moradabad - UPPCB",09-01-2024 14:00:00,28.840739,78.697531,OZONE,5,27,13
India,Uttar_Pradesh,Moradabad,"Employment Office, Moradabad - UPPCB",09-01-2024 14:00:00,28.88528,78.73880,PM2.5,41,82,59
India,Uttar_Pradesh,Moradabad,"Jigar Colony, Moradabad - UPPCB",09-01-2024 14:00:00,28.856664,78.772638,PM10,56,111,81
India,Uttar_Pradesh,Moradabad,"Jigar Colony, Moradabad - UPPCB",09-01-2024 14:00:00,28.856664,78.772638,NH3,5,5,5
India,Uttar_Pradesh,Moradabad,"Kashiram Nagar, Moradabad - UPPCB",09-01-2024 14:00:00,28.849399,78.742362,PM10,47,116,72
India,Uttar_Pradesh,Moradabad,"Kashiram Nagar, Moradabad - UPPCB",09-01-2024 14:00:00,28.849399,78.742362,NO2,15,35,20
India,Uttar_Pradesh,Moradabad,"Kashiram Nagar, Moradabad - UPPCB",09-01-2024 14:00:00,28.849399,78.742362,CO,42,49,47
India,Uttar_Pradesh,Moradabad,"Transport Nagar, Moradabad - UPPCB",09-01-2024 14:00:00,28.802625,78.753728,OZONE,16,18,17
India,Uttar_Pradesh,Muzaffarnagar,"New Mandi, Muzaffarnagar - UPPCB",09-01-2024 14:00:00,29.4723508,77.7194031,PM2.5,86,329,193
India,Uttar_Pradesh,Muzaffarnagar,"New Mandi, Muzaffarnagar - UPPCB",09-01-2024 14:00:00,29.4723508,77.7194031,NH3,6,8,7
India,Uttar_Pradesh,Muzaffarnagar,"New Mandi, Muzaffarnagar - UPPCB",09-01-2024 14:00:00,29.4723508,77.7194031,SO2,13,20,16
India,Uttar_Pradesh,Prayagraj,"Jhunsi, Prayagraj - UPPCB",09-01-2024 14:00:00,25.425602,81.917152,PM10,83,189,127
India,Uttar_Pradesh,Prayagraj,"Jhunsi, Prayagraj - UPPCB",09-01-2024 14:00:00,25.425602,81.917152,SO2,30,32,31
India,Uttar_Pradesh,Prayagraj,"Jhunsi, Prayagraj - UPPCB",09-01-2024 14:00:00,25.425602,81.917152,CO,26,100,43
India,Uttar_Pradesh,Prayagraj,"Motilal Nehru NIT, Prayagraj - UPPCB",09-01-2024 14:00:00,25.494,81.863,CO,28,108,51
India,Uttar_Pradesh,Prayagraj,"Nagar Nigam, Prayagraj - UPPCB",09-01-2024 14:00:00,25.44919916 ,81.82735986 ,PM10,90,238,143
India,Uttar_Pradesh,Prayagraj,"Nagar Nigam, Prayagraj - UPPCB",09-01-2024 14:00:00,25.44919916 ,81.82735986 ,CO,20,120,36
India,Uttar_Pradesh,Varanasi,"Ardhali Bazar, Varanasi - UPPCB",09-01-2024 14:00:00,25.3505986,82.9083074,OZONE,16,29,21
India,Uttar_Pradesh,Varanasi,"Maldahiya, Varanasi - UPPCB",09-01-2024 14:00:00,25.32393,82.99687,PM2.5,24,50,38
India,Uttar_Pradesh,Varanasi,"Maldahiya, Varanasi - UPPCB",09-01-2024 14:00:00,25.32393,82.99687,PM10,37,75,58
India,Uttar_Pradesh,Vrindavan,"Omex Eternity, Vrindavan - UPPCB",09-01-2024 14:00:00,27.5714090,77.6557570,OZONE,24,26,25
India,Uttarakhand,Dehradun,"Doon University, Dehradun - UKPCB",09-01-2024 14:00:00,30.269444,78.044167,OZONE,1,10,3
India,Uttarakhand,Kashipur,"Govt. Girls Inter College, Kashipur - UKPCB",09-01-2024 14:00:00,29.2124114,78.9611753,CO,42,80,53
India,Uttarakhand,Rishikesh,"Shivaji Nagar, Rishikesh - UKPCB",09-01-2024 14:00:00,30.075911,78.2859547,NH3,3,4,4
India,West_Bengal,Durgapur,"Sidhu Kanhu Indoor Stadium, Durgapur - WBPCB",09-01-2024 14:00:00,23.5404352,87.2892225,CO,28,61,48
India,West_Bengal,Haldia,"Priyambada Housing Estate, Haldia - WBPCB",09-01-2024 14:00:00,22.06047,88.109737,PM2.5,91,193,145
India,West_Bengal,Haldia,"Priyambada Housing Estate, Haldia - WBPCB",09-01-2024 14:00:00,22.06047,88.109737,PM10,97,136,119
India,West_Bengal,Howrah,"Belur Math, Howrah - WBPCB",09-01-2024 14:00:00,22.629801,88.352017,PM10,121,161,138
India,West_Bengal,Howrah,"Belur Math, Howrah - WBPCB",09-01-2024 14:00:00,22.629801,88.352017,SO2,7,15,11
India,West_Bengal,Howrah,"Belur Math, Howrah - WBPCB",09-01-2024 14:00:00,22.629801,88.352017,CO,16,50,22
India,West_Bengal,Howrah,"Ghusuri, Howrah - WBPCB",09-01-2024 14:00:00,22.611968,88.347422,PM10,148,500,204
India,West_Bengal,Howrah,"Padmapukur, Howrah - WBPCB",09-01-2024 14:00:00,22.5687319,88.2797276,NO2,25,60,43
India,West_Bengal,Howrah,"Padmapukur, Howrah - WBPCB",09-01-2024 14:00:00,22.5687319,88.2797276,SO2,9,41,19
India,West_Bengal,Howrah,"Padmapukur, Howrah - WBPCB",09-01-2024 14:00:00,22.5687319,88.2797276,CO,38,121,69
India,West_Bengal,Kolkata,"Ballygunge, Kolkata - WBPCB",09-01-2024 14:00:00,22.5367507,88.3638022,NO2,38,131,70
India,West_Bengal,Kolkata,"Ballygunge, Kolkata - WBPCB",09-01-2024 14:00:00,22.5367507,88.3638022,NH3,13,16,14
India,West_Bengal,Kolkata,"Ballygunge, Kolkata - WBPCB",09-01-2024 14:00:00,22.5367507,88.3638022,CO,20,93,28
India,West_Bengal,Kolkata,"Bidhannagar, Kolkata - WBPCB",09-01-2024 14:00:00,22.58157048,88.41002457,PM2.5,171,272,227
India,West_Bengal,Kolkata,"Bidhannagar, Kolkata - WBPCB",09-01-2024 14:00:00,22.58157048,88.41002457,NH3,10,11,10
India,West_Bengal,Kolkata,"Fort William, Kolkata - WBPCB",09-01-2024 14:00:00,22.556640,88.342674,PM2.5,251,315,288
India,West_Bengal,Kolkata,"Fort William, Kolkata - WBPCB",09-01-2024 14:00:00,22.556640,88.342674,OZONE,2,139,45
India,West_Bengal,Kolkata,"Victoria, Kolkata - WBPCB",09-01-2024 14:00:00,22.5448082,88.3403691,NO2,1,19,7
India,West_Bengal,Kolkata,"Victoria, Kolkata - WBPCB",09-01-2024 14:00:00,22.5448082,88.3403691,NH3,1,2,1
India,West_Bengal,Siliguri,"Ward-32 Bapupara, Siliguri - WBPCB",09-01-2024 14:00:00,26.6879226,88.4152495,PM2.5,84,328,214
India,Andhra_Pradesh,Amaravati,"Secretariat, Amaravati - APPCB",09-01-2024 14:00:00,16.5150833,80.5181667,PM10,113,148,137
India,Andhra_Pradesh,Anantapur,"Gulzarpet, Anantapur - APPCB",09-01-2024 14:00:00,14.675886,77.593027,PM2.5,45,62,54
India,Andhra_Pradesh,Anantapur,"Gulzarpet, Anantapur - APPCB",09-01-2024 14:00:00,14.675886,77.593027,NH3,NA,NA,NA
India,Andhra_Pradesh,Kadapa,"Yerramukkapalli, Kadapa - APPCB",09-01-2024 14:00:00,14.465052,78.824187,PM2.5,11,331,82
India,Andhra_Pradesh,Tirupati,"Tirumala, Tirupati - APPCB",09-01-2024 14:00:00,13.67,79.35,PM2.5,17,81,50
India,Andhra_Pradesh,Tirupati,"Vaikuntapuram, Tirupati - APPCB",09-01-2024 14:00:00,13.615387,79.409230,SO2,4,5,5
India,Andhra_Pradesh,Tirupati,"Vaikuntapuram, Tirupati - APPCB",09-01-2024 14:00:00,13.615387,79.409230,CO,14,16,14
India,Andhra_Pradesh,Vijayawada,"HB Colony, Vijayawada - APPCB",09-01-2024 14:00:00,16.536107,80.594233,SO2,5,31,13
India,Andhra_Pradesh,Vijayawada,"HB Colony, Vijayawada - APPCB",09-01-2024 14:00:00,16.536107,80.594233,OZONE,39,79,56
India,Andhra_Pradesh,Vijayawada,"Kanuru, Vijayawada - APPCB",09-01-2024 14:00:00,16.486692,80.699436,PM10,NA,NA,NA
India,Andhra_Pradesh,Vijayawada,"Kanuru, Vijayawada - APPCB",09-01-2024 14:00:00,16.486692,80.699436,NO2,NA,NA,NA
India,Andhra_Pradesh,Vijayawada,"Kanuru, Vijayawada - APPCB",09-01-2024 14:00:00,16.486692,80.699436,NH3,NA,NA,NA
India,Andhra_Pradesh,Vijayawada,"Rajiv Gandhi Park, Vijayawada - APPCB",09-01-2024 14:00:00,16.509717,80.612222,OZONE,14,72,50
India,Arunachal_Pradesh,Naharlagun,"Naharlagun, Naharlagun - APSPCB",09-01-2024 14:00:00,27.103358,93.679645,PM10,33,132,80
India,Arunachal_Pradesh,Naharlagun,"Naharlagun, Naharlagun - APSPCB",09-01-2024 14:00:00,27.103358,93.679645,CO,12,61,19
India,Assam,Byrnihat,"Central Academy for SFS, Byrnihat - PCBA",09-01-2024 14:00:00,26.071318,91.87488,PM2.5,60,453,320
India,Assam,Byrnihat,"Central Academy for SFS, Byrnihat - PCBA",09-01-2024 14:00:00,26.071318,91.87488,NO2,33,93,51
India,Assam,Byrnihat,"Central Academy for SFS, Byrnihat - PCBA",09-01-2024 14:00:00,26.071318,91.87488,OZONE,6,7,6
India,Assam,Guwahati,"IITG, Guwahati - PCBA",09-01-2024 14:00:00,26.2028636,91.70046436,PM10,82,229,158
India,Assam,Guwahati,"IITG, Guwahati - PCBA",09-01-2024 14:00:00,26.2028636,91.70046436,NO2,1,19,9
India,Assam,Guwahati,"IITG, Guwahati - PCBA",09-01-2024 14:00:00,26.2028636,91.70046436,SO2,11,12,11
India,Assam,Guwahati,"LGBI Airport, Guwahati - PCBA",09-01-2024 14:00:00,26.10887,91.589544,OZONE,1,125,39
India,Assam,Guwahati,"Railway Colony, Guwahati - PCBA",09-01-2024 14:00:00,26.181742,91.78063,OZONE,12,39,24
India,Assam,Nalbari,"Bata Chowk, Nalbari - PCBA",09-01-2024 14:00:00,26.446912,91.439057,SO2,4,16,10
India,Assam,Silchar,"Tarapur, Silchar - PCBA",09-01-2024 14:00:00,24.82827,92.79525,PM10,48,49,48
India,Assam,Sivasagar,"Girls College, Sivasagar - PCBA",09-01-2024 14:00:00,26.987634,94.636574,PM10,34,93,59
India,Bihar,Araria,"Kharahiya Basti, Araria - BSPCB",09-01-2024 14:00:00,26.146529,87.454184,NH3,6,8,7
India,Bihar,Araria,"Kharahiya Basti, Araria - BSPCB",09-01-2024 14:00:00,26.146529,87.454184,CO,14,96,36
India,Bihar,Araria,"Kharahiya Basti, Araria - BSPCB",09-01-2024 14:00:00,26.146529,87.454184,OZONE,10,36,19
India,Bihar,Arrah,"New DM Office, Arrah - BSPCB",09-01-2024 14:00:00,25.5626095,84.663264,NO2,18,84,42
India,Bihar,Arrah,"New DM Office, Arrah - BSPCB",09-01-2024 14:00:00,25.5626095,84.663264,NH3,6,10,7
India,Bihar,Arrah,"New DM Office, Arrah - BSPCB",09-01-2024 14:00:00,25.5626095,84.663264,SO2,6,22,18
India,Bihar,Bettiah,"Kamalnath Nagar, Bettiah - BSPCB",09-01-2024 14:00:00,26.80365,84.51954,SO2,14,21,19
India,Bihar,Bettiah,"Kamalnath Nagar, Bettiah - BSPCB",09-01-2024 14:00:00,26.80365,84.51954,OZONE,16,37,35
India,Bihar,Bhagalpur,"DM Office_Kachari Chowk, Bhagalpur - BSPCB",09-01-2024 14:00:00,25.251013,86.989001,OZONE,17,50,26
India,Bihar,Bihar Sharif,"D M Colony, Bihar Sharif - BSPCB",09-01-2024 14:00:00,25.204762,85.514960,SO2,3,10,7
India,Bihar,Chhapra,"Darshan Nagar, Chhapra - BSPCB",09-01-2024 14:00:00,25.7808257,84.7446768,OZONE,1,3,1
India,Bihar,Gaya,"Collectorate, Gaya - BSPCB",09-01-2024 14:00:00,24.7955,84.9994,CO,22,50,26
India,Bihar,Gaya,"Kareemganj, Gaya - BSPCB",09-01-2024 14:00:00,24.792403,84.992416,PM2.5,33,92,60
India,Bihar,Gaya,"Kareemganj, Gaya - BSPCB",09-01-2024 14:00:00,24.792403,84.992416,SO2,9,13,11
India,Bihar,Gaya,"Kareemganj, Gaya - BSPCB",09-01-2024 14:00:00,24.792403,84.992416,OZONE,2,40,24
India,Bihar,Gaya,"SFTI Kusdihra, Gaya - BSPCB",09-01-2024 14:00:00,24.762518,84.982348,SO2,6,9,8
India,Bihar,Gaya,"SFTI Kusdihra, Gaya - BSPCB",09-01-2024 14:00:00,24.762518,84.982348,CO,40,104,80
India,Bihar,Gaya,"SFTI Kusdihra, Gaya - BSPCB",09-01-2024 14:00:00,24.762518,84.982348,OZONE,6,59,28
India,Bihar,Hajipur,"Industrial Area, Hajipur - BSPCB",09-01-2024 14:00:00,25.697189,85.245900,PM10,144,302,202
India,Bihar,Hajipur,"Industrial Area, Hajipur - BSPCB",09-01-2024 14:00:00,25.697189,85.245900,NO2,12,36,19
India,Bihar,Hajipur,"Industrial Area, Hajipur - BSPCB",09-01-2024 14:00:00,25.697189,85.245900,SO2,6,8,7
India,Bihar,Manguraha,"Forest Rest House, Manguraha - BSPCB",09-01-2024 14:00:00,27.308328,84.531742,PM2.5,32,117,50
India,Bihar,Motihari,"Gandak Colony, Motihari - BSPCB",09-01-2024 14:00:00,26.63086,84.90051,NH3,11,15,13
India,Bihar,Munger,"Town Hall, Munger - BSPCB",09-01-2024 14:00:00,25.376776,86.471523,NH3,1,2,2
India,Bihar,Muzaffarpur,"Buddha Colony, Muzaffarpur - BSPCB",09-01-2024 14:00:00,26.11442,85.39813,CO,27,86,49
India,Bihar,Muzaffarpur,"MIT-Daudpur Kothi, Muzaffarpur - BSPCB",09-01-2024 14:00:00,26.1403345,85.3650192,SO2,6,7,6
India,Bihar,Muzaffarpur,"MIT-Daudpur Kothi, Muzaffarpur - BSPCB",09-01-2024 14:00:00,26.1403345,85.3650192,CO,83,106,91
India,Bihar,Muzaffarpur,"Muzaffarpur Collectorate, Muzaffarpur - BSPCB",09-01-2024 14:00:00,26.1209,85.3647,CO,38,89,52
India,Bihar,Patna,"DRM Office Danapur, Patna - BSPCB",09-01-2024 14:00:00,25.586562,85.043586,SO2,7,9,8
India,Bihar,Patna,"DRM Office Danapur, Patna - BSPCB",09-01-2024 14:00:00,25.586562,85.043586,CO,36,116,62
India,Bihar,Patna,"Govt. High School Shikarpur, Patna - BSPCB",09-01-2024 14:00:00,25.592539,85.227158,NO2,13,23,18
India,Bihar,Patna,"Govt. High School Shikarpur, Patna - BSPCB",09-01-2024 14:00:00,25.592539,85.227158,NH3,3,6,5
India,Bihar,Patna,"IGSC Planetarium Complex, Patna - BSPCB",09-01-2024 14:00:00,25.610369,85.132568,OZONE,14,16,15
India,Bihar,Patna,"Muradpur, Patna - BSPCB",09-01-2024 14:00:00,25.619651,85.147382,SO2,4,10,7
India,Bihar,Patna,"Rajbansi Nagar, Patna - BSPCB",09-01-2024 14:00:00,25.599486,85.113666,PM2.5,192,302,254
India,Bihar,Patna,"Rajbansi Nagar, Patna - BSPCB",09-01-2024 14:00:00,25.599486,85.113666,NO2,57,85,70
India,Bihar,Patna,"Rajbansi Nagar, Patna - BSPCB",09-01-2024 14:00:00,25.599486,85.113666,OZONE,1,47,19
India,Bihar,Patna,"Samanpura, Patna - BSPCB",09-01-2024 14:00:00,25.596727,85.085624,OZONE,5,55,17
India,Bihar,Purnia,"Mariam Nagar, Purnia - BSPCB",09-01-2024 14:00:00,25.366336,87.117468,PM10,93,239,137
India,Bihar,Saharsa,"Police Line, Saharsa - BSPCB",09-01-2024 14:00:00,25.892357,86.590325,NH3,9,9,9
India,Bihar,Saharsa,"Police Line, Saharsa - BSPCB",09-01-2024 14:00:00,25.892357,86.590325,SO2,18,18,18
India,Bihar,Saharsa,"Police Line, Saharsa - BSPCB",09-01-2024 14:00:00,25.892357,86.590325,OZONE,2,7,4
India,Bihar,Samastipur,"DM Office_Kasipur, Samastipur - BSPCB",09-01-2024 14:00:00,25.859655,85.77944,NO2,2,6,4
India,Bihar,Siwan,"Chitragupta Nagar, Siwan - BSPCB",09-01-2024 14:00:00,26.2271665,84.3570427,PM2.5,NA,NA,NA
India,Bihar,Siwan,"Chitragupta Nagar, Siwan - BSPCB",09-01-2024 14:00:00,26.2271665,84.3570427,NH3,3,9,4
India,Chandigarh,Chandigarh,"Sector 22, Chandigarh - CPCC",09-01-2024 14:00:00,30.735567,76.775714,NH3,4,11,8
India,Chandigarh,Chandigarh,"Sector-25, Chandigarh - CPCC",09-01-2024 14:00:00,30.751462,76.762879,NO2,15,45,25
India,Chandigarh,Chandigarh,"Sector-53, Chandigarh - CPCC",09-01-2024 14:00:00,30.719859,76.738637,CO,60,82,66
India,Chandigarh,Chandigarh,"Sector-53, Chandigarh - CPCC",09-01-2024 14:00:00,30.719859,76.738637,OZONE,11,26,17
India,Chhattisgarh,Bhilai,"32Bungalows, Bhilai - CECB",09-01-2024 14:00:00,21.194815,81.314770,SO2,9,16,12
India,Chhattisgarh,Bilaspur,"Mangala, Bilaspur - NTPC",09-01-2024 14:00:00,22.08815,82.13737,PM10,67,129,96
India,Chhattisgarh,Chhal,"Nawapara SECL Colony, Chhal - CECB",09-01-2024 14:00:00,22.118125,83.140608,PM10,59,122,86
India,Chhattisgarh,Chhal,"Nawapara SECL Colony, Chhal - CECB",09-01-2024 14:00:00,22.118125,83.140608,CO,53,108,93
India,Chhattisgarh,Korba,"Rampur, Korba - CECB",09-01-2024 14:00:00,22.368195,82.746431,PM10,67,116,97
India,Chhattisgarh,Korba,"Rampur, Korba - CECB",09-01-2024 14:00:00,22.368195,82.746431,SO2,8,41,14
India,Chhattisgarh,Kunjemura,"OP Jindal School, Kunjemura - CECB",09-01-2024 14:00:00,22.126650,83.483212,PM10,64,296,123
India,Chhattisgarh,Milupara,"Govt. Higher Secondary School, Milupara - CECB",09-01-2024 14:00:00,22.1910172,83.5197009,PM2.5,75,97,84
India,Chhattisgarh,Milupara,"Govt. Higher Secondary School, Milupara - CECB",09-01-2024 14:00:00,22.1910172,83.5197009,PM10,68,118,87
India,Chhattisgarh,Milupara,"Govt. Higher Secondary School, Milupara - CECB",09-01-2024 14:00:00,22.1910172,83.5197009,NO2,14,56,28
India,Chhattisgarh,Raipur,"Bhatagaon New ISBT, Raipur - CECB",09-01-2024 14:00:00,21.219665,81.630094,PM2.5,51,86,73
India,Chhattisgarh,Raipur,"Bhatagaon New ISBT, Raipur - CECB",09-01-2024 14:00:00,21.219665,81.630094,CO,30,94,44
India,Chhattisgarh,Raipur,"Krishak Nagar, Raipur - CECB",09-01-2024 14:00:00,21.237755,81.705301,PM10,68,140,106
India,Chhattisgarh,Raipur,"Krishak Nagar, Raipur - CECB",09-01-2024 14:00:00,21.237755,81.705301,NH3,1,1,1
India,Chhattisgarh,Raipur,"Krishak Nagar, Raipur - CECB",09-01-2024 14:00:00,21.237755,81.705301,OZONE,2,5,3
India,Chhattisgarh,Tumidih,"OP Jindal Industrial Park, Tumidih - CECB",09-01-2024 14:00:00,22.06631475,83.33820077,NH3,1,2,2
India,Chhattisgarh,Tumidih,"OP Jindal Industrial Park, Tumidih - CECB",09-01-2024 14:00:00,22.06631475,83.33820077,OZONE,5,83,28
India,Delhi,Delhi,"Alipur, Delhi - DPCC",09-01-2024 14:00:00,28.815329,77.153010,NH3,5,6,6
India,Delhi,Delhi,"Anand Vihar, Delhi - DPCC",09-01-2024 14:00:00,28.647622,77.3158090,NO2,52,159,95
India,Delhi,Delhi,"Bawana, Delhi - DPCC",09-01-2024 14:00:00,28.776200,77.051074,PM2.5,150,393,302
India,Delhi,Delhi,"Bawana, Delhi - DPCC",09-01-2024 14:00:00,28.776200,77.051074,NO2,18,50,30
India,Delhi,Delhi,"Bawana, Delhi - DPCC",09-01-2024 14:00:00,28.776200,77.051074,NH3,5,9,7
India,Delhi,Delhi,"Bawana, Delhi - DPCC",09-01-2024 14:00:00,28.776200,77.051074,SO2,4,8,5
India,Delhi,Delhi,"Burari Crossing, Delhi - IMD",09-01-2024 14:00:00,28.7256504,77.2011573,PM2.5,159,500,331
India,Delhi,Delhi,"Burari Crossing, Delhi - IMD",09-01-2024 14:00:00,28.7256504,77.2011573,NO2,11,17,14
India,Delhi,Delhi,"DTU, Delhi - CPCB",09-01-2024 14:00:00,28.7500499,77.1112615,NO2,17,52,30
India,Delhi,Delhi,"Dr. Karni Singh Shooting Range, Delhi - DPCC",09-01-2024 14:00:00,28.498571,77.264840,OZONE,1,61,9
India,Delhi,Delhi,"Dwarka-Sector 8, Delhi - DPCC ",09-01-2024 14:00:00,28.5710274,77.0719006,PM2.5,302,500,381
India,Delhi,Delhi,"Dwarka-Sector 8, Delhi - DPCC ",09-01-2024 14:00:00,28.5710274,77.0719006,OZONE,8,33,13
India,Delhi,Delhi,"IHBAS, Dilshad Garden, Delhi - CPCB",09-01-2024 14:00:00,28.6811736,77.3025234,PM10,116,404,260
India,Delhi,Delhi,"IHBAS, Dilshad Garden, Delhi - CPCB",09-01-2024 14:00:00,28.6811736,77.3025234,NH3,1,9,7
India,Delhi,Delhi,"IHBAS, Dilshad Garden, Delhi - CPCB",09-01-2024 14:00:00,28.6811736,77.3025234,CO,16,104,46
India,Delhi,Delhi,"IHBAS, Dilshad Garden, Delhi - CPCB",09-01-2024 14:00:00,28.6811736,77.3025234,OZONE,1,45,7
India,Delhi,Delhi,"ITO, Delhi - CPCB",09-01-2024 14:00:00,28.628624,77.241060,OZONE,12,46,13
India,Delhi,Delhi,"Jawaharlal Nehru Stadium, Delhi - DPCC",09-01-2024 14:00:00,28.580280,77.233829,NO2,54,148,89
India,Delhi,Delhi,"Jawaharlal Nehru Stadium, Delhi - DPCC",09-01-2024 14:00:00,28.580280,77.233829,SO2,12,34,23
India,Delhi,Delhi,"Major Dhyan Chand National Stadium, Delhi - DPCC",09-01-2024 14:00:00,28.611281,77.237738,PM10,174,459,308
India,Delhi,Delhi,"Mandir Marg, Delhi - DPCC",09-01-2024 14:00:00,28.636429,77.201067,PM10,181,465,316
India,Delhi,Delhi,"Mandir Marg, Delhi - DPCC",09-01-2024 14:00:00,28.636429,77.201067,NO2,55,81,64
India,Delhi,Delhi,"Mandir Marg, Delhi - DPCC",09-01-2024 14:00:00,28.636429,77.201067,OZONE,1,3,1
India,Delhi,Delhi,"Mundka, Delhi - DPCC",09-01-2024 14:00:00,28.684678,77.076574,PM2.5,281,456,370
India,Delhi,Delhi,"Mundka, Delhi - DPCC",09-01-2024 14:00:00,28.684678,77.076574,OZONE,3,33,29
India,Delhi,Delhi,"NSIT Dwarka, Delhi - CPCB",09-01-2024 14:00:00,28.60909,77.0325413,PM10,138,431,274
India,Delhi,Delhi,"NSIT Dwarka, Delhi - CPCB",09-01-2024 14:00:00,28.60909,77.0325413,OZONE,16,37,24
India,Delhi,Delhi,"Najafgarh, Delhi - DPCC",09-01-2024 14:00:00,28.570173,76.933762,NO2,14,55,36
India,Delhi,Delhi,"Najafgarh, Delhi - DPCC",09-01-2024 14:00:00,28.570173,76.933762,SO2,4,10,7
India,Delhi,Delhi,"Narela, Delhi - DPCC",09-01-2024 14:00:00,28.822836,77.101981,OZONE,6,47,23
India,Delhi,Delhi,"Nehru Nagar, Delhi - DPCC",09-01-2024 14:00:00,28.567890,77.250515,PM10,216,500,361
India,Delhi,Delhi,"Nehru Nagar, Delhi - DPCC",09-01-2024 14:00:00,28.567890,77.250515,NH3,23,35,25
India,Delhi,Delhi,"Nehru Nagar, Delhi - DPCC",09-01-2024 14:00:00,28.567890,77.250515,SO2,7,20,12
India,Delhi,Delhi,"Nehru Nagar, Delhi - DPCC",09-01-2024 14:00:00,28.567890,77.250515,CO,41,111,63
India,Delhi,Delhi,"New Moti Bagh, Delhi - MHUA",09-01-2024 14:00:00,28.57834,77.18400,NO2,1,11,5
India,Delhi,Delhi,"New Moti Bagh, Delhi - MHUA",09-01-2024 14:00:00,28.57834,77.18400,CO,38,109,44
India,Delhi,Delhi,"North Campus, DU, Delhi - IMD",09-01-2024 14:00:00,28.6573814,77.1585447,NO2,32,85,53
India,Delhi,Delhi,"Okhla Phase-2, Delhi - DPCC",09-01-2024 14:00:00,28.530785,77.271255,PM2.5,322,500,400
India,Delhi,Delhi,"Okhla Phase-2, Delhi - DPCC",09-01-2024 14:00:00,28.530785,77.271255,NH3,12,20,15
India,Delhi,Delhi,"Patparganj, Delhi - DPCC",09-01-2024 14:00:00,28.623763,77.287209,PM2.5,315,500,400
India,Delhi,Delhi,"Patparganj, Delhi - DPCC",09-01-2024 14:00:00,28.623763,77.287209,NH3,7,11,8
India,Delhi,Delhi,"Patparganj, Delhi - DPCC",09-01-2024 14:00:00,28.623763,77.287209,OZONE,7,37,9
India,Delhi,Delhi,"Punjabi Bagh, Delhi - DPCC",09-01-2024 14:00:00,28.674045,77.131023,PM2.5,301,488,382
India,Delhi,Delhi,"Punjabi Bagh, Delhi - DPCC",09-01-2024 14:00:00,28.674045,77.131023,SO2,1,5,2
India,Delhi,Delhi,"Pusa, Delhi - DPCC",09-01-2024 14:00:00,28.639652,77.146275,PM10,241,500,367
India,Delhi,Delhi,"Pusa, Delhi - IMD",09-01-2024 14:00:00,28.636110,77.173332,CO,50,101,52
India,Delhi,Delhi,"Pusa, Delhi - IMD",09-01-2024 14:00:00,28.636110,77.173332,OZONE,26,35,27
India,Delhi,Delhi,"R K Puram, Delhi - DPCC",09-01-2024 14:00:00,28.563262,77.186937,PM2.5,310,500,396
India,Delhi,Delhi,"R K Puram, Delhi - DPCC",09-01-2024 14:00:00,28.563262,77.186937,NO2,9,150,36
India,Delhi,Delhi,"Rohini, Delhi - DPCC",09-01-2024 14:00:00,28.732528,77.119920,PM2.5,253,441,333
India,Delhi,Delhi,"Rohini, Delhi - DPCC",09-01-2024 14:00:00,28.732528,77.119920,SO2,7,20,11
India,Delhi,Delhi,"Shadipur, Delhi - CPCB",09-01-2024 14:00:00,28.6514781,77.1473105,NO2,27,54,45
India,Delhi,Delhi,"Sirifort, Delhi - CPCB",09-01-2024 14:00:00,28.5504249,77.2159377,PM2.5,314,500,390
India,Delhi,Delhi,"Sirifort, Delhi - CPCB",09-01-2024 14:00:00,28.5504249,77.2159377,CO,30,102,31
India,Delhi,Delhi,"Sri Aurobindo Marg, Delhi - DPCC",09-01-2024 14:00:00,28.531346,77.190156,PM10,168,436,325
India,Delhi,Delhi,"Sri Aurobindo Marg, Delhi - DPCC",09-01-2024 14:00:00,28.531346,77.190156,OZONE,3,11,4
India,Delhi,Delhi,"Vivek Vihar, Delhi - DPCC",09-01-2024 14:00:00,28.672342,77.315260,PM2.5,301,500,402
India,Delhi,Delhi,"Wazirpur, Delhi - DPCC",09-01-2024 14:00:00,28.699793,77.165453,PM2.5,297,477,376
India,Gujarat,Ahmedabad,"Chandkheda, Ahmedabad - IITM",09-01-2024 14:00:00,23.107969,72.574648,CO,2,76,26
India,Gujarat,Ahmedabad,"Chandkheda, Ahmedabad - IITM",09-01-2024 14:00:00,23.107969,72.574648,OZONE,21,23,21
India,Gujarat,Ahmedabad,"Gyaspur, Ahmedabad - IITM",09-01-2024 14:00:00,22.977134,72.553024,OZONE,11,16,12
India,Gujarat,Ahmedabad,"Maninagar, Ahmedabad - GPCB",09-01-2024 14:00:00,23.002657,72.591912,NO2,18,94,46
India,Gujarat,Ahmedabad,"Maninagar, Ahmedabad - GPCB",09-01-2024 14:00:00,23.002657,72.591912,CO,12,54,20
India,Gujarat,Ahmedabad,"Rakhial, Ahmedabad - IITM",09-01-2024 14:00:00,23.016834,72.625775,PM10,88,181,140
India,Gujarat,Ahmedabad,"Rakhial, Ahmedabad - IITM",09-01-2024 14:00:00,23.016834,72.625775,NO2,5,22,12
India,Gujarat,Ahmedabad,"SAC ISRO Satellite, Ahmedabad - IITM",09-01-2024 14:00:00,23.023389,72.515201,NH3,2,3,3
India,Gujarat,Ahmedabad,"SAC ISRO Satellite, Ahmedabad - IITM",09-01-2024 14:00:00,23.023389,72.515201,OZONE,2,19,8
India,Gujarat,Ahmedabad,"SVPI Airport Hansol, Ahmedabad - IITM",09-01-2024 14:00:00,23.076793,72.627874,PM2.5,90,262,131
India,Gujarat,Ahmedabad,"SVPI Airport Hansol, Ahmedabad - IITM",09-01-2024 14:00:00,23.076793,72.627874,NO2,9,10,10
India,Gujarat,Ahmedabad,"Sardar Vallabhbhai Patel Stadium, Ahmedabad - IITM",09-01-2024 14:00:00,23.043070,72.562968,PM2.5,60,243,136
India,Gujarat,Ankleshwar,"GIDC, Ankleshwar - GPCB",09-01-2024 14:00:00,21.613267,73.010555,NH3,6,6,6
India,Gujarat,Ankleshwar,"GIDC, Ankleshwar - GPCB",09-01-2024 14:00:00,21.613267,73.010555,SO2,16,41,24
India,Gujarat,Ankleshwar,"GIDC, Ankleshwar - GPCB",09-01-2024 14:00:00,21.613267,73.010555,OZONE,20,29,22
India,Gujarat,Gandhinagar,"GIFT City, Gandhinagar - IITM",09-01-2024 14:00:00,23.163798,72.677768,SO2,4,6,6
India,Gujarat,Gandhinagar,"GIFT City, Gandhinagar - IITM",09-01-2024 14:00:00,23.163798,72.677768,CO,18,34,31
India,Gujarat,Gandhinagar,"IIPHG Lekawada, Gandhinagar - IITM",09-01-2024 14:00:00,23.243639,72.68994,NO2,8,15,11
India,Gujarat,Gandhinagar,"IIPHG Lekawada, Gandhinagar - IITM",09-01-2024 14:00:00,23.243639,72.68994,CO,24,44,36
India,Gujarat,Gandhinagar,"Sector-10, Gandhinagar - GPCB",09-01-2024 14:00:00,23.221714,72.654328,NO2,6,17,12
India,Gujarat,Vapi,"Phase-1 GIDC, Vapi - GPCB",09-01-2024 14:00:00,20.362421,72.918013,PM2.5,82,304,225
India,Gujarat,Vapi,"Phase-1 GIDC, Vapi - GPCB",09-01-2024 14:00:00,20.362421,72.918013,PM10,93,210,158
India,Gujarat,Vapi,"Phase-1 GIDC, Vapi - GPCB",09-01-2024 14:00:00,20.362421,72.918013,NH3,6,6,6
India,Gujarat,Vatva,"Phase-4 GIDC, Vatva - GPCB",09-01-2024 14:00:00,22.969611,72.643500,NH3,1,1,1
India,Haryana,Ambala,"Patti Mehar, Ambala - HSPCB",09-01-2024 14:00:00,30.379589,76.778328,PM10,32,190,98
India,Haryana,Ambala,"Patti Mehar, Ambala - HSPCB",09-01-2024 14:00:00,30.379589,76.778328,NH3,4,12,8
India,Haryana,Ambala,"Patti Mehar, Ambala - HSPCB",09-01-2024 14:00:00,30.379589,76.778328,CO,30,60,50
India,Haryana,Ballabgarh,"Nathu Colony, Ballabgarh - HSPCB",09-01-2024 14:00:00,28.3419248,77.319699,NO2,11,13,12
India,Haryana,Ballabgarh,"Nathu Colony, Ballabgarh - HSPCB",09-01-2024 14:00:00,28.3419248,77.319699,NH3,1,2,2
India,Haryana,Bhiwani,"H.B. Colony, Bhiwani - HSPCB",09-01-2024 14:00:00,28.806223,76.141105,PM10,71,197,139
India,Haryana,Dharuhera,"Municipal Corporation Office, Dharuhera -  HSPCB",09-01-2024 14:00:00,28.206800,76.799700,PM10,127,500,307
India,Haryana,Dharuhera,"Municipal Corporation Office, Dharuhera -  HSPCB",09-01-2024 14:00:00,28.206800,76.799700,CO,37,101,42
India,Haryana,Faridabad,"Sector 11, Faridabad - HSPCB",09-01-2024 14:00:00,28.376058,77.315741,NH3,6,6,6
India,Haryana,Faridabad,"Sector 30, Faridabad - HSPCB",09-01-2024 14:00:00,28.4417,77.3217,NH3,14,14,14
India,Haryana,Faridabad,"Sector 30, Faridabad - HSPCB",09-01-2024 14:00:00,28.4417,77.3217,CO,50,124,60
India,Haryana,Faridabad,"Sector- 16A, Faridabad - HSPCB",09-01-2024 14:00:00,28.4088421,77.3099081,NO2,27,80,51
India,Haryana,Faridabad,"Sector- 16A, Faridabad - HSPCB",09-01-2024 14:00:00,28.4088421,77.3099081,CO,10,80,16
India,Haryana,Fatehabad,"Huda Sector, Fatehabad - HSPCB",09-01-2024 14:00:00,29.503664,75.467934,CO,6,14,10
India,Haryana,Gurugram,"Sector-51, Gurugram - HSPCB",09-01-2024 14:00:00,28.4227,77.0667,CO,65,112,73
India,Haryana,Gurugram,"Teri Gram, Gurugram - HSPCB",09-01-2024 14:00:00,28.4275,77.1465,PM10,106,204,157
India,Haryana,Gurugram,"Teri Gram, Gurugram - HSPCB",09-01-2024 14:00:00,28.4275,77.1465,OZONE,8,18,11
India,Haryana,Gurugram,"Vikas Sadan, Gurugram - HSPCB",09-01-2024 14:00:00,28.4501238,77.0263051,SO2,13,33,26
India,Haryana,Jind,"Police Lines, Jind - HSPCB",09-01-2024 14:00:00,29.307814,76.337619,PM2.5,57,204,101
India,Haryana,Karnal,"Sector-12, Karnal - HSPCB",09-01-2024 14:00:00,29.695300,77.002700,PM2.5,29,136,77
India,Haryana,Karnal,"Sector-12, Karnal - HSPCB",09-01-2024 14:00:00,29.695300,77.002700,NO2,7,12,10
India,Haryana,Karnal,"Sector-12, Karnal - HSPCB",09-01-2024 14:00:00,29.695300,77.002700,CO,24,60,35
India,Haryana,Kurukshetra,"Sector-7, Kurukshetra - HSPCB",09-01-2024 14:00:00,29.966942,76.875879,PM10,56,92,77
India,Haryana,Kurukshetra,"Sector-7, Kurukshetra - HSPCB",09-01-2024 14:00:00,29.966942,76.875879,NH3,1,6,5
India,Haryana,Kurukshetra,"Sector-7, Kurukshetra - HSPCB",09-01-2024 14:00:00,29.966942,76.875879,CO,1,57,20
India,Haryana,Manesar,"Sector-2 IMT, Manesar - HSPCB",09-01-2024 14:00:00,28.360699,76.936090,PM10,68,224,149
India,Haryana,Narnaul,"Shastri Nagar, Narnaul - HSPCB",09-01-2024 14:00:00,28.060249,76.113115,SO2,12,83,21
India,Haryana,Narnaul,"Shastri Nagar, Narnaul - HSPCB",09-01-2024 14:00:00,28.060249,76.113115,OZONE,11,64,41
India,Haryana,Palwal,"Shyam Nagar, Palwal - HSPCB",09-01-2024 14:00:00,28.1485564,77.3320667,NO2,NA,NA,NA
India,Haryana,Panipat,"Sector-18, Panipat - HSPCB",09-01-2024 14:00:00,29.497973,76.993331,PM10,168,213,182
India,Haryana,Panipat,"Sector-18, Panipat - HSPCB",09-01-2024 14:00:00,29.497973,76.993331,SO2,12,14,13
India,Haryana,Panipat,"Sector-18, Panipat - HSPCB",09-01-2024 14:00:00,29.497973,76.993331,OZONE,29,50,42
India,Haryana,Sirsa,"F-Block, Sirsa - HSPCB",09-01-2024 14:00:00,29.536400,75.015800,NH3,12,13,13
India,Haryana,Sonipat,"Murthal, Sonipat - HSPCB",09-01-2024 14:00:00,29.027200,77.062100,PM10,114,166,140
India,Haryana,Sonipat,"Murthal, Sonipat - HSPCB",09-01-2024 14:00:00,29.027200,77.062100,NO2,37,44,40
India,Haryana,Sonipat,"Murthal, Sonipat - HSPCB",09-01-2024 14:00:00,29.027200,77.062100,OZONE,16,36,27
India,Haryana,Yamuna Nagar,"Gobind Pura, Yamuna Nagar - HSPCB",09-01-2024 14:00:00,30.1480566,77.2893471,NO2,11,29,18
India,Haryana,Yamuna Nagar,"Gobind Pura, Yamuna Nagar - HSPCB",09-01-2024 14:00:00,30.1480566,77.2893471,OZONE,6,10,8
India,Himachal Pradesh,Baddi,"HIMUDA Complex Phase-1, Baddi - HPPCB",09-01-2024 14:00:00,30.943887,76.801991,SO2,22,85,51
India,Jharkhand,Dhanbad,"Kalakusuma, Dhanbad - DMC",09-01-2024 14:00:00,23.811548,86.481238,PM2.5,5,196,106
India,Jharkhand,Dhanbad,"Sardar Patel Nagar, Dhanbad - JSPCB",09-01-2024 14:00:00,23.80569,86.44268,PM10,NA,NA,NA
India,Jharkhand,Pathardih,"Mohalbani Ghat, Pathardih - DMC",09-01-2024 14:00:00,23.669880,86.411725,NO2,NA,NA,NA
India,Karnataka,Bagalkot,"Vidayagiri, Bagalkot - KSPCB",09-01-2024 14:00:00,16.172806,75.659694,OZONE,19,27,23
India,Karnataka,Belgaum,"Ramteerth Nagar, Belgaum - KSPCB",09-01-2024 14:00:00,15.888653,74.541751,NO2,24,32,27
India,Karnataka,Belgaum,"Ramteerth Nagar, Belgaum - KSPCB",09-01-2024 14:00:00,15.888653,74.541751,NH3,33,34,33
India,Karnataka,Belgaum,"Ramteerth Nagar, Belgaum - KSPCB",09-01-2024 14:00:00,15.888653,74.541751,OZONE,19,20,19
India,Karnataka,Bengaluru,"BTM Layout, Bengaluru - CPCB",09-01-2024 14:00:00,12.9135218,77.5950804,PM10,NA,NA,NA
India,Karnataka,Bengaluru,"BTM Layout, Bengaluru - CPCB",09-01-2024 14:00:00,12.9135218,77.5950804,CO,18,32,24
India,Karnataka,Bengaluru,"Bapuji Nagar, Bengaluru - KSPCB",09-01-2024 14:00:00,12.951913,77.539784,PM2.5,34,88,52
India,Karnataka,Bengaluru,"Hebbal, Bengaluru - KSPCB",09-01-2024 14:00:00,13.029152,77.585901,NO2,5,5,5
India,Karnataka,Bengaluru,"Hebbal, Bengaluru - KSPCB",09-01-2024 14:00:00,13.029152,77.585901,NH3,1,1,1
India,Karnataka,Bengaluru,"Hombegowda Nagar, Bengaluru - KSPCB",09-01-2024 14:00:00,12.938539,77.590100,PM2.5,7,38,24
India,Karnataka,Bengaluru,"Hombegowda Nagar, Bengaluru - KSPCB",09-01-2024 14:00:00,12.938539,77.590100,CO,12,26,17
India,Karnataka,Bengaluru,"Jigani, Bengaluru - KSPCB",09-01-2024 14:00:00,12.7816279,77.6299145,NH3,2,3,2
India,Karnataka,Bengaluru,"Kasturi Nagar, Bengaluru - KSPCB",09-01-2024 14:00:00,13.003872,77.664217,NO2,16,17,17
India,Karnataka,Bengaluru,"Kasturi Nagar, Bengaluru - KSPCB",09-01-2024 14:00:00,13.003872,77.664217,OZONE,19,69,49
India,Karnataka,Bengaluru,"Peenya, Bengaluru - CPCB",09-01-2024 14:00:00,13.0270199,77.494094,PM10,36,90,53
India,Karnataka,Bengaluru,"Peenya, Bengaluru - CPCB",09-01-2024 14:00:00,13.0270199,77.494094,NO2,21,27,24
India,Karnataka,Bengaluru,"RVCE-Mailasandra, Bengaluru - KSPCB",09-01-2024 14:00:00,12.921418,77.502466,NO2,31,31,31
India,Karnataka,Bengaluru,"RVCE-Mailasandra, Bengaluru - KSPCB",09-01-2024 14:00:00,12.921418,77.502466,SO2,4,4,4
India,Karnataka,Bengaluru,"Shivapura_Peenya, Bengaluru - KSPCB",09-01-2024 14:00:00,13.0246342,77.5080115,PM2.5,2,72,19
India,Karnataka,Bengaluru,"Shivapura_Peenya, Bengaluru - KSPCB",09-01-2024 14:00:00,13.0246342,77.5080115,NO2,15,16,16
India,Karnataka,Bengaluru,"Silk Board, Bengaluru - KSPCB",09-01-2024 14:00:00,12.917348,77.622813,PM2.5,8,500,177
India,Karnataka,Bengaluru,"Silk Board, Bengaluru - KSPCB",09-01-2024 14:00:00,12.917348,77.622813,NO2,15,19,17
India,Karnataka,Bengaluru,"Silk Board, Bengaluru - KSPCB",09-01-2024 14:00:00,12.917348,77.622813,SO2,4,12,9
India,Karnataka,Bidar,"Naubad, Bidar - KSPCB",09-01-2024 14:00:00,17.930306,77.482194,PM2.5,67,186,110
India,Karnataka,Bidar,"Naubad, Bidar - KSPCB",09-01-2024 14:00:00,17.930306,77.482194,OZONE,22,51,35
India,Karnataka,Chikkaballapur,"Chikkaballapur Rural, Chikkaballapur - KSPCB",09-01-2024 14:00:00,13.428828,77.731418,NH3,1,1,1
India,Karnataka,Chikkaballapur,"Chikkaballapur Rural, Chikkaballapur - KSPCB",09-01-2024 14:00:00,13.428828,77.731418,SO2,14,25,20
India,Karnataka,Chikkamagaluru,"Kalyana Nagara, Chikkamagaluru - KSPCB",09-01-2024 14:00:00,13.328028,75.797056,NO2,15,44,24
India,Karnataka,Davanagere,"Devaraj Urs Badavane, Davanagere - KSPCB",09-01-2024 14:00:00,14.475800,75.905200,NO2,8,12,10
India,Karnataka,Davanagere,"Devaraj Urs Badavane, Davanagere - KSPCB",09-01-2024 14:00:00,14.475800,75.905200,SO2,2,5,4
India,Karnataka,Dharwad,"Kalabhavan, Dharwad - KSPCB",09-01-2024 14:00:00,15.459706,75.008381,NO2,11,23,16
India,Karnataka,Gadag,"Panchal Nagar, Gadag - KSPCB",09-01-2024 14:00:00,15.411456,75.638133,PM2.5,22,49,34
India,Karnataka,Gadag,"Panchal Nagar, Gadag - KSPCB",09-01-2024 14:00:00,15.411456,75.638133,SO2,8,11,10
India,Karnataka,Haveri,"Ashwini Nagar, Haveri - KSPCB",09-01-2024 14:00:00,14.791800,75.389600,NO2,20,46,31
India,Karnataka,Hubballi,"Deshpande Nagar, Hubballi - KSPCB",09-01-2024 14:00:00,15.351773,75.140726,OZONE,16,32,19
India,Karnataka,Hubballi,"Lingaraj Nagar, Hubballi - KSPCB",09-01-2024 14:00:00,15.3714823,75.1160168,PM2.5,20,52,33
India,Karnataka,Hubballi,"Lingaraj Nagar, Hubballi - KSPCB",09-01-2024 14:00:00,15.3714823,75.1160168,NO2,16,16,16
India,Karnataka,Hubballi,"Lingaraj Nagar, Hubballi - KSPCB",09-01-2024 14:00:00,15.3714823,75.1160168,SO2,2,6,4
India,Karnataka,Kalaburagi,"Lal Bahadur Shastri Nagar, Kalaburagi - KSPCB",09-01-2024 14:00:00,17.321993,76.822628,SO2,16,18,17
India,Karnataka,Kalaburagi,"Lal Bahadur Shastri Nagar, Kalaburagi - KSPCB",09-01-2024 14:00:00,17.321993,76.822628,OZONE,13,46,34
India,Karnataka,Kalaburagi,"Mahatma Basaveswar Colony, Kalaburgi - KSPCB",09-01-2024 14:00:00,17.336318,76.847397,CO,40,49,44
India,Karnataka,Karwar,"KHB Colony, Karwar - KSPCB",09-01-2024 14:00:00,14.816666,74.141003,PM10,40,125,73
India,Karnataka,Karwar,"KHB Colony, Karwar - KSPCB",09-01-2024 14:00:00,14.816666,74.141003,OZONE,21,22,21
India,Karnataka,Kolar,"Tamaka Ind. Area, Kolar - KSPCB",09-01-2024 14:00:00,13.1276288,78.1570122,OZONE,16,19,18
India,Karnataka,Madikeri,"Stuart Hill, Madikeri - KSPCB",09-01-2024 14:00:00,12.415911,75.735050,SO2,4,4,4
India,Karnataka,Madikeri,"Stuart Hill, Madikeri - KSPCB",09-01-2024 14:00:00,12.415911,75.735050,OZONE,16,31,22
India,Karnataka,Mangalore,"Kadri, Mangalore - KSPCB",09-01-2024 14:00:00,12.889250,74.853000,PM2.5,7,86,32
India,Karnataka,Mangalore,"Kadri, Mangalore - KSPCB",09-01-2024 14:00:00,12.889250,74.853000,CO,41,55,44
India,Karnataka,Mysuru,"Hebbal 1st Stage, Mysuru - KSPCB",09-01-2024 14:00:00,12.21041,76.37376,NH3,1,3,2
India,Karnataka,Raichur,"Haji Colony, Raichur - KSPCB",09-01-2024 14:00:00,16.208139,77.348417,CO,90,107,98
India,Karnataka,Tumakuru,"Thimmalapura, Tumakuru - KSPCB",09-01-2024 14:00:00,13.377516,77.099072,PM10,45,99,69
