country,state,city,station,last_update,latitude,longitude,pollutant_id,pollutant_min,pollutant_max,pollutant_avg
India,Andhra_Pradesh,Amaravati,"Secretariat, Amaravati - APPCB",17-06-2024 06:00:00,16.5150833,80.5181667,PM2.5,11,30,19
India,Andhra_Pradesh,Amaravati,"Secretariat, Amaravati - APPCB",17-06-2024 06:00:00,16.5150833,80.5181667,NH3,3,4,4
India,Andhra_Pradesh,Amaravati,"Secretariat, Amaravati - APPCB",17-06-2024 06:00:00,16.5150833,80.5181667,SO2,13,20,16
India,Andhra_Pradesh,Amaravati,"Secretariat, Amaravati - APPCB",17-06-2024 06:00:00,16.5150833,80.5181667,CO,5,127,29
India,Andhra_Pradesh,Anantapur,"Gulzarpet, Anantapur - APPCB",17-06-2024 06:00:00,14.675886,77.593027,OZONE,2,24,7
India,Andhra_Pradesh,Rajamahendravaram,"Anand Kala Kshetram, Rajamahendravaram - APPCB",17-06-2024 06:00:00,16.9872867,81.7363176,PM2.5,15,43,30
India,Andhra_Pradesh,Tirupati,"Vaikuntapuram, Tirupati - APPCB",17-06-2024 06:00:00,13.615387,79.409230,PM2.5,NA,NA,NA
India,Andhra_Pradesh,Tirupati,"Vaikuntapuram, Tirupati - APPCB",17-06-2024 06:00:00,13.615387,79.409230,PM10,NA,NA,NA
India,Andhra_Pradesh,Tirupati,"Vaikuntapuram, Tirupati - APPCB",17-06-2024 06:00:00,13.615387,79.409230,SO2,NA,NA,NA
India,Andhra_Pradesh,Vijayawada,"HB Colony, Vijayawada - APPCB",17-06-2024 06:00:00,16.536107,80.594233,PM2.5,39,85,51
India,Andhra_Pradesh,Vijayawada,"HB Colony, Vijayawada - APPCB",17-06-2024 06:00:00,16.536107,80.594233,PM10,50,97,62
India,Andhra_Pradesh,Vijayawada,"HB Colony, Vijayawada - APPCB",17-06-2024 06:00:00,16.536107,80.594233,NH3,4,5,4
India,Andhra_Pradesh,Vijayawada,"Kanuru, Vijayawada - APPCB",17-06-2024 06:00:00,16.486692,80.699436,PM2.5,NA,NA,NA
India,Andhra_Pradesh,Vijayawada,"Kanuru, Vijayawada - APPCB",17-06-2024 06:00:00,16.486692,80.699436,PM10,NA,NA,NA
India,Andhra_Pradesh,Vijayawada,"Rajiv Gandhi Park, Vijayawada - APPCB",17-06-2024 06:00:00,16.509717,80.612222,PM10,44,57,50
India,Andhra_Pradesh,Vijayawada,"Rajiv Gandhi Park, Vijayawada - APPCB",17-06-2024 06:00:00,16.509717,80.612222,NH3,4,6,5
India,Andhra_Pradesh,Vijayawada,"Rajiv Gandhi Park, Vijayawada - APPCB",17-06-2024 06:00:00,16.509717,80.612222,SO2,2,13,9
India,Andhra_Pradesh,Vijayawada,"Rajiv Nagar, Vijayawada - APPCB",17-06-2024 06:00:00,16.554731,80.649110,PM2.5,47,117,56
India,Andhra_Pradesh,Vijayawada,"Rajiv Nagar, Vijayawada - APPCB",17-06-2024 06:00:00,16.554731,80.649110,NO2,10,10,10
India,Andhra_Pradesh,Visakhapatnam,"GVM Corporation, Visakhapatnam - APPCB",17-06-2024 06:00:00,17.72,83.3,NO2,NA,NA,NA
India,Andhra_Pradesh,Visakhapatnam,"GVM Corporation, Visakhapatnam - APPCB",17-06-2024 06:00:00,17.72,83.3,NH3,NA,NA,NA
India,Assam,Guwahati,"Pan Bazaar, Guwahati - PCBA",17-06-2024 06:00:00,26.187500,91.744194,NO2,NA,NA,NA
India,Assam,Guwahati,"Pan Bazaar, Guwahati - PCBA",17-06-2024 06:00:00,26.187500,91.744194,CO,20,34,24
India,Assam,Nagaon,"Christianpatty, Nagaon - PCBA",17-06-2024 06:00:00,26.349082,92.68449,PM10,15,26,17
India,Assam,Nagaon,"Christianpatty, Nagaon - PCBA",17-06-2024 06:00:00,26.349082,92.68449,NH3,1,2,1
India,Assam,Nalbari,"Bata Chowk, Nalbari - PCBA",17-06-2024 06:00:00,26.446912,91.439057,PM2.5,NA,NA,NA
India,Assam,Silchar,"Tarapur, Silchar - PCBA",17-06-2024 06:00:00,24.82827,92.79525,NH3,1,1,1
India,Bihar,Arrah,"New DM Office, Arrah - BSPCB",17-06-2024 06:00:00,25.5626095,84.663264,OZONE,9,19,18
India,Bihar,Bettiah,"Kamalnath Nagar, Bettiah - BSPCB",17-06-2024 06:00:00,26.80365,84.51954,PM2.5,18,77,47
India,Bihar,Bhagalpur,"Mayaganj, Bhagalpur - BSPCB",17-06-2024 06:00:00,25.265194,87.012947,PM2.5,83,315,153
India,Bihar,Bhagalpur,"Mayaganj, Bhagalpur - BSPCB",17-06-2024 06:00:00,25.265194,87.012947,NH3,9,10,10
India,Bihar,Bihar Sharif,"D M Colony, Bihar Sharif - BSPCB",17-06-2024 06:00:00,25.204762,85.514960,PM2.5,NA,NA,NA
India,Bihar,Bihar Sharif,"D M Colony, Bihar Sharif - BSPCB",17-06-2024 06:00:00,25.204762,85.514960,NH3,1,1,1
India,Bihar,Bihar Sharif,"D M Colony, Bihar Sharif - BSPCB",17-06-2024 06:00:00,25.204762,85.514960,SO2,2,3,3
India,Bihar,Chhapra,"Darshan Nagar, Chhapra - BSPCB",17-06-2024 06:00:00,25.7808257,84.7446768,OZONE,1,15,2
India,Bihar,Gaya,"Collectorate, Gaya - BSPCB",17-06-2024 06:00:00,24.7955,84.9994,PM2.5,30,137,85
India,Bihar,Gaya,"Collectorate, Gaya - BSPCB",17-06-2024 06:00:00,24.7955,84.9994,SO2,3,14,7
India,Bihar,Gaya,"Kareemganj, Gaya - BSPCB",17-06-2024 06:00:00,24.792403,84.992416,NO2,20,23,21
India,Bihar,Gaya,"Kareemganj, Gaya - BSPCB",17-06-2024 06:00:00,24.792403,84.992416,CO,12,22,22
India,Bihar,Gaya,"SFTI Kusdihra, Gaya - BSPCB",17-06-2024 06:00:00,24.762518,84.982348,PM10,66,92,76
India,Bihar,Gaya,"SFTI Kusdihra, Gaya - BSPCB",17-06-2024 06:00:00,24.762518,84.982348,OZONE,24,47,35
India,Bihar,Hajipur,"Industrial Area, Hajipur - BSPCB",17-06-2024 06:00:00,25.697189,85.245900,NO2,9,31,20
India,Bihar,Katihar,"Mirchaibari, Katihar - BSPCB",17-06-2024 06:00:00,25.560083,87.553265,PM10,23,146,60
India,Bihar,Katihar,"Mirchaibari, Katihar - BSPCB",17-06-2024 06:00:00,25.560083,87.553265,OZONE,3,7,4
India,Bihar,Munger,"Town Hall, Munger - BSPCB",17-06-2024 06:00:00,25.376776,86.471523,CO,40,195,29
India,Bihar,Munger,"Town Hall, Munger - BSPCB",17-06-2024 06:00:00,25.376776,86.471523,OZONE,25,31,28
India,Bihar,Muzaffarpur,"Buddha Colony, Muzaffarpur - BSPCB",17-06-2024 06:00:00,26.11442,85.39813,SO2,NA,NA,NA
India,Bihar,Muzaffarpur,"MIT-Daudpur Kothi, Muzaffarpur - BSPCB",17-06-2024 06:00:00,26.1403345,85.3650192,PM2.5,22,117,46
India,Bihar,Muzaffarpur,"MIT-Daudpur Kothi, Muzaffarpur - BSPCB",17-06-2024 06:00:00,26.1403345,85.3650192,SO2,9,9,9
India,Bihar,Patna,"DRM Office Danapur, Patna - BSPCB",17-06-2024 06:00:00,25.586562,85.043586,PM10,109,156,136
India,Bihar,Patna,"Govt. High School Shikarpur, Patna - BSPCB",17-06-2024 06:00:00,25.592539,85.227158,PM2.5,84,178,133
India,Bihar,Patna,"Govt. High School Shikarpur, Patna - BSPCB",17-06-2024 06:00:00,25.592539,85.227158,NO2,33,36,35
India,Bihar,Patna,"Govt. High School Shikarpur, Patna - BSPCB",17-06-2024 06:00:00,25.592539,85.227158,NH3,4,5,5
India,Bihar,Patna,"Govt. High School Shikarpur, Patna - BSPCB",17-06-2024 06:00:00,25.592539,85.227158,CO,34,48,38
India,Bihar,Patna,"Govt. High School Shikarpur, Patna - BSPCB",17-06-2024 06:00:00,25.592539,85.227158,OZONE,1,59,2
India,Bihar,Patna,"IGSC Planetarium Complex, Patna - BSPCB",17-06-2024 06:00:00,25.610369,85.132568,SO2,4,7,5
India,Bihar,Patna,"IGSC Planetarium Complex, Patna - BSPCB",17-06-2024 06:00:00,25.610369,85.132568,CO,11,16,12
India,Bihar,Patna,"Rajbansi Nagar, Patna - BSPCB",17-06-2024 06:00:00,25.599486,85.113666,CO,30,39,33
India,Bihar,Patna,"Samanpura, Patna - BSPCB",17-06-2024 06:00:00,25.596727,85.085624,PM2.5,88,178,116
India,Bihar,Purnia,"Mariam Nagar, Purnia - BSPCB",17-06-2024 06:00:00,25.366336,87.117468,PM2.5,22,98,52
India,Bihar,Purnia,"Mariam Nagar, Purnia - BSPCB",17-06-2024 06:00:00,25.366336,87.117468,NH3,1,2,1
India,Bihar,Purnia,"Mariam Nagar, Purnia - BSPCB",17-06-2024 06:00:00,25.366336,87.117468,CO,32,60,47
India,Bihar,Rajgir,"Dangi Tola, Rajgir - BSPCB",17-06-2024 06:00:00,25.03280,85.41948,PM2.5,NA,NA,NA
India,Bihar,Rajgir,"Dangi Tola, Rajgir - BSPCB",17-06-2024 06:00:00,25.03280,85.41948,SO2,4,4,4
India,Bihar,Sasaram,"Dada Peer, Sasaram - BSPCB",17-06-2024 06:00:00,24.952822,84.002396,NH3,4,14,8
India,Bihar,Sasaram,"Dada Peer, Sasaram - BSPCB",17-06-2024 06:00:00,24.952822,84.002396,SO2,17,23,22
India,Bihar,Sasaram,"Dada Peer, Sasaram - BSPCB",17-06-2024 06:00:00,24.952822,84.002396,CO,24,82,62
India,Chandigarh,Chandigarh,"Sector 22, Chandigarh - CPCC",17-06-2024 06:00:00,30.735567,76.775714,PM10,123,186,152
India,Chandigarh,Chandigarh,"Sector 22, Chandigarh - CPCC",17-06-2024 06:00:00,30.735567,76.775714,NO2,18,49,27
India,Chhattisgarh,Bhilai,"32Bungalows, Bhilai - CECB",17-06-2024 06:00:00,21.194815,81.314770,NO2,10,17,12
India,Chhattisgarh,Bhilai,"32Bungalows, Bhilai - CECB",17-06-2024 06:00:00,21.194815,81.314770,NH3,9,10,10
India,Chhattisgarh,Bilaspur,"Mangala, Bilaspur - NTPC",17-06-2024 06:00:00,22.08815,82.13737,PM10,15,73,39
India,Chhattisgarh,Bilaspur,"Mangala, Bilaspur - NTPC",17-06-2024 06:00:00,22.08815,82.13737,CO,36,47,43
India,Chhattisgarh,Chhal,"Nawapara SECL Colony, Chhal - CECB",17-06-2024 06:00:00,22.118125,83.140608,OZONE,3,55,6
India,Chhattisgarh,Korba,"Rampur, Korba - CECB",17-06-2024 06:00:00,22.368195,82.746431,NH3,1,2,1
India,Chhattisgarh,Korba,"Rampur, Korba - CECB",17-06-2024 06:00:00,22.368195,82.746431,SO2,5,40,10
India,Chhattisgarh,Kunjemura,"OP Jindal School, Kunjemura - CECB",17-06-2024 06:00:00,22.126650,83.483212,CO,24,72,55
India,Chhattisgarh,Milupara,"Govt. Higher Secondary School, Milupara - CECB",17-06-2024 06:00:00,22.1910172,83.5197009,PM10,20,62,48
India,Chhattisgarh,Milupara,"Govt. Higher Secondary School, Milupara - CECB",17-06-2024 06:00:00,22.1910172,83.5197009,OZONE,9,38,10
India,Chhattisgarh,Raipur,"Bhatagaon New ISBT, Raipur - CECB",17-06-2024 06:00:00,21.219665,81.630094,PM10,36,127,78
India,Chhattisgarh,Raipur,"Bhatagaon New ISBT, Raipur - CECB",17-06-2024 06:00:00,21.219665,81.630094,OZONE,4,6,5
India,Chhattisgarh,Raipur,"Krishak Nagar, Raipur - CECB",17-06-2024 06:00:00,21.237755,81.705301,SO2,10,92,30
India,Chhattisgarh,Raipur,"Siltara Phase-II, Raipur - CECB",17-06-2024 06:00:00,21.371751,81.664929,PM2.5,58,232,100
India,Chhattisgarh,Raipur,"Siltara Phase-II, Raipur - CECB",17-06-2024 06:00:00,21.371751,81.664929,PM10,73,166,133
India,Chhattisgarh,Raipur,"Siltara Phase-II, Raipur - CECB",17-06-2024 06:00:00,21.371751,81.664929,NO2,22,76,38
India,Delhi,Delhi,"Anand Vihar, Delhi - DPCC",17-06-2024 06:00:00,28.647622,77.3158090,SO2,NA,NA,NA
India,Delhi,Delhi,"Anand Vihar, Delhi - DPCC",17-06-2024 06:00:00,28.647622,77.3158090,OZONE,82,105,83
India,Delhi,Delhi,"Bawana, Delhi - DPCC",17-06-2024 06:00:00,28.776200,77.051074,PM2.5,40,284,124
India,Delhi,Delhi,"Bawana, Delhi - DPCC",17-06-2024 06:00:00,28.776200,77.051074,PM10,127,334,196
India,Delhi,Delhi,"Bawana, Delhi - DPCC",17-06-2024 06:00:00,28.776200,77.051074,NO2,8,48,23
India,Delhi,Delhi,"Bawana, Delhi - DPCC",17-06-2024 06:00:00,28.776200,77.051074,OZONE,10,91,17
India,Delhi,Delhi,"CRRI Mathura Road, Delhi - IMD",17-06-2024 06:00:00,28.5512005,77.2735737,NO2,19,55,34
India,Delhi,Delhi,"CRRI Mathura Road, Delhi - IMD",17-06-2024 06:00:00,28.5512005,77.2735737,CO,22,86,67
India,Delhi,Delhi,"Chandni Chowk, Delhi - IITM",17-06-2024 06:00:00,28.656756,77.227234,OZONE,1,3,1
India,Delhi,Delhi,"DTU, Delhi - CPCB",17-06-2024 06:00:00,28.7500499,77.1112615,PM2.5,73,312,155
India,Delhi,Delhi,"DTU, Delhi - CPCB",17-06-2024 06:00:00,28.7500499,77.1112615,OZONE,31,93,43
India,Delhi,Delhi,"Dr. Karni Singh Shooting Range, Delhi - DPCC",17-06-2024 06:00:00,28.498571,77.264840,PM2.5,33,95,63
India,Delhi,Delhi,"Dr. Karni Singh Shooting Range, Delhi - DPCC",17-06-2024 06:00:00,28.498571,77.264840,OZONE,14,173,32
India,Delhi,Delhi,"IGI Airport (T3), Delhi - IMD",17-06-2024 06:00:00,28.5627763,77.1180053,PM2.5,31,158,67
India,Delhi,Delhi,"IHBAS, Dilshad Garden, Delhi - CPCB",17-06-2024 06:00:00,28.6811736,77.3025234,PM10,123,159,140
India,Delhi,Delhi,"IHBAS, Dilshad Garden, Delhi - CPCB",17-06-2024 06:00:00,28.6811736,77.3025234,NO2,8,41,31
India,Delhi,Delhi,"IHBAS, Dilshad Garden, Delhi - CPCB",17-06-2024 06:00:00,28.6811736,77.3025234,OZONE,22,38,33
India,Delhi,Delhi,"ITO, Delhi - CPCB",17-06-2024 06:00:00,28.628624,77.241060,PM10,75,125,97
India,Delhi,Delhi,"ITO, Delhi - CPCB",17-06-2024 06:00:00,28.628624,77.241060,CO,54,107,80
India,Delhi,Delhi,"ITO, Delhi - CPCB",17-06-2024 06:00:00,28.628624,77.241060,OZONE,3,47,6
India,Delhi,Delhi,"Jahangirpuri, Delhi - DPCC",17-06-2024 06:00:00,28.732820,77.170633,PM10,145,344,241
India,Delhi,Delhi,"Jahangirpuri, Delhi - DPCC",17-06-2024 06:00:00,28.732820,77.170633,CO,25,100,66
India,Delhi,Delhi,"Mundka, Delhi - DPCC",17-06-2024 06:00:00,28.684678,77.076574,PM2.5,37,316,126
India,Delhi,Delhi,"Mundka, Delhi - DPCC",17-06-2024 06:00:00,28.684678,77.076574,NH3,7,15,9
India,Delhi,Delhi,"Najafgarh, Delhi - DPCC",17-06-2024 06:00:00,28.570173,76.933762,PM10,123,248,169
India,Delhi,Delhi,"Najafgarh, Delhi - DPCC",17-06-2024 06:00:00,28.570173,76.933762,NO2,5,22,12
India,Delhi,Delhi,"Najafgarh, Delhi - DPCC",17-06-2024 06:00:00,28.570173,76.933762,NH3,5,9,6
India,Delhi,Delhi,"North Campus, DU, Delhi - IMD",17-06-2024 06:00:00,28.6573814,77.1585447,PM2.5,34,137,71
India,Delhi,Delhi,"North Campus, DU, Delhi - IMD",17-06-2024 06:00:00,28.6573814,77.1585447,NO2,6,37,16
India,Delhi,Delhi,"Okhla Phase-2, Delhi - DPCC",17-06-2024 06:00:00,28.530785,77.271255,NO2,21,125,63
India,Delhi,Delhi,"Okhla Phase-2, Delhi - DPCC",17-06-2024 06:00:00,28.530785,77.271255,NH3,9,12,11
India,Delhi,Delhi,"Okhla Phase-2, Delhi - DPCC",17-06-2024 06:00:00,28.530785,77.271255,CO,32,111,73
India,Delhi,Delhi,"Patparganj, Delhi - DPCC",17-06-2024 06:00:00,28.623763,77.287209,SO2,4,25,12
India,Delhi,Delhi,"Punjabi Bagh, Delhi - DPCC",17-06-2024 06:00:00,28.674045,77.131023,OZONE,8,72,18
India,Delhi,Delhi,"Pusa, Delhi - IMD",17-06-2024 06:00:00,28.636110,77.173332,OZONE,4,29,8
India,Delhi,Delhi,"R K Puram, Delhi - DPCC",17-06-2024 06:00:00,28.563262,77.186937,PM2.5,60,230,123
India,Delhi,Delhi,"R K Puram, Delhi - DPCC",17-06-2024 06:00:00,28.563262,77.186937,PM10,129,287,179
India,Delhi,Delhi,"Rohini, Delhi - DPCC",17-06-2024 06:00:00,28.732528,77.119920,PM2.5,40,243,95
India,Delhi,Delhi,"Rohini, Delhi - DPCC",17-06-2024 06:00:00,28.732528,77.119920,SO2,10,75,30
India,Delhi,Delhi,"Rohini, Delhi - DPCC",17-06-2024 06:00:00,28.732528,77.119920,CO,13,52,37
India,Delhi,Delhi,"Rohini, Delhi - DPCC",17-06-2024 06:00:00,28.732528,77.119920,OZONE,10,116,27
India,Delhi,Delhi,"Shadipur, Delhi - CPCB",17-06-2024 06:00:00,28.6514781,77.1473105,NO2,89,164,119
India,Delhi,Delhi,"Shadipur, Delhi - CPCB",17-06-2024 06:00:00,28.6514781,77.1473105,NH3,8,10,8
India,Delhi,Delhi,"Shadipur, Delhi - CPCB",17-06-2024 06:00:00,28.6514781,77.1473105,CO,31,72,43
India,Delhi,Delhi,"Vivek Vihar, Delhi - DPCC",17-06-2024 06:00:00,28.672342,77.315260,OZONE,2,67,13
India,Delhi,Delhi,"Wazirpur, Delhi - DPCC",17-06-2024 06:00:00,28.699793,77.165453,PM2.5,38,233,93
India,Delhi,Delhi,"Wazirpur, Delhi - DPCC",17-06-2024 06:00:00,28.699793,77.165453,NH3,7,9,8
India,Gujarat,Ahmedabad,"Chandkheda, Ahmedabad - IITM",17-06-2024 06:00:00,23.107969,72.574648,PM2.5,40,118,60
India,Gujarat,Ahmedabad,"Chandkheda, Ahmedabad - IITM",17-06-2024 06:00:00,23.107969,72.574648,PM10,39,111,63
India,Gujarat,Ahmedabad,"Chandkheda, Ahmedabad - IITM",17-06-2024 06:00:00,23.107969,72.574648,NO2,50,68,65
India,Gujarat,Ahmedabad,"Chandkheda, Ahmedabad - IITM",17-06-2024 06:00:00,23.107969,72.574648,SO2,2,7,5
India,Gujarat,Ahmedabad,"Gyaspur, Ahmedabad - IITM",17-06-2024 06:00:00,22.977134,72.553024,NH3,4,8,6
India,Gujarat,Ahmedabad,"Raikhad, Ahmedabad - IITM",17-06-2024 06:00:00,23.020509,72.579261,NH3,3,7,5
India,Gujarat,Ahmedabad,"Raikhad, Ahmedabad - IITM",17-06-2024 06:00:00,23.020509,72.579261,SO2,24,27,25
India,Gujarat,Ahmedabad,"Raikhad, Ahmedabad - IITM",17-06-2024 06:00:00,23.020509,72.579261,OZONE,12,73,19
India,Gujarat,Ahmedabad,"Rakhial, Ahmedabad - IITM",17-06-2024 06:00:00,23.016834,72.625775,PM2.5,50,83,69
India,Gujarat,Ahmedabad,"Sardar Vallabhbhai Patel Stadium, Ahmedabad - IITM",17-06-2024 06:00:00,23.043070,72.562968,PM2.5,47,93,61
India,Gujarat,Ahmedabad,"Sardar Vallabhbhai Patel Stadium, Ahmedabad - IITM",17-06-2024 06:00:00,23.043070,72.562968,PM10,52,112,72
India,Gujarat,Ahmedabad,"Sardar Vallabhbhai Patel Stadium, Ahmedabad - IITM",17-06-2024 06:00:00,23.043070,72.562968,OZONE,12,71,16
India,Gujarat,Gandhinagar,"Sector-10, Gandhinagar - GPCB",17-06-2024 06:00:00,23.221714,72.654328,SO2,2,2,2
India,Gujarat,Gandhinagar,"Sector-10, Gandhinagar - GPCB",17-06-2024 06:00:00,23.221714,72.654328,CO,17,24,17
India,Gujarat,Nandesari,"GIDC, Nandesari - Nandesari Ind. Association",17-06-2024 06:00:00,22.410802,73.097923,SO2,1,25,11
India,Gujarat,Surat,"Science Center, Surat - SMC",17-06-2024 06:00:00,21.170046,72.795405,PM10,NA,NA,NA
India,Gujarat,Surat,"Science Center, Surat - SMC",17-06-2024 06:00:00,21.170046,72.795405,NO2,19,29,22
India,Gujarat,Vatva,"Phase-4 GIDC, Vatva - GPCB",17-06-2024 06:00:00,22.969611,72.643500,PM10,56,96,71
India,Gujarat,Vatva,"Phase-4 GIDC, Vatva - GPCB",17-06-2024 06:00:00,22.969611,72.643500,CO,14,100,34
India,Haryana,Ambala,"Patti Mehar, Ambala - HSPCB",17-06-2024 06:00:00,30.379589,76.778328,PM2.5,48,89,71
India,Haryana,Ambala,"Patti Mehar, Ambala - HSPCB",17-06-2024 06:00:00,30.379589,76.778328,PM10,69,107,92
India,Haryana,Ambala,"Patti Mehar, Ambala - HSPCB",17-06-2024 06:00:00,30.379589,76.778328,NO2,8,21,14
India,Haryana,Ambala,"Patti Mehar, Ambala - HSPCB",17-06-2024 06:00:00,30.379589,76.778328,OZONE,35,61,44
India,Haryana,Bahadurgarh,"Arya Nagar, Bahadurgarh - HSPCB",17-06-2024 06:00:00,28.6701,76.9254,OZONE,32,41,36
India,Haryana,Ballabgarh,"Nathu Colony, Ballabgarh - HSPCB",17-06-2024 06:00:00,28.3419248,77.319699,SO2,4,18,8
India,Haryana,Dharuhera,"Municipal Corporation Office, Dharuhera -  HSPCB",17-06-2024 06:00:00,28.206800,76.799700,OZONE,6,31,8
India,Haryana,Faridabad,"New Industrial Town, Faridabad - HSPCB",17-06-2024 06:00:00,28.39072,77.30059,CO,1,51,17
India,Haryana,Faridabad,"Sector 11, Faridabad - HSPCB",17-06-2024 06:00:00,28.376058,77.315741,NO2,29,33,31
India,Haryana,Faridabad,"Sector 11, Faridabad - HSPCB",17-06-2024 06:00:00,28.376058,77.315741,SO2,3,120,44
India,Haryana,Faridabad,"Sector 30, Faridabad - HSPCB",17-06-2024 06:00:00,28.4417,77.3217,OZONE,1,34,4
India,Haryana,Fatehabad,"Huda Sector, Fatehabad - HSPCB",17-06-2024 06:00:00,29.503664,75.467934,SO2,11,19,15
India,Haryana,Gurugram,"Teri Gram, Gurugram - HSPCB",17-06-2024 06:00:00,28.4275,77.1465,NO2,24,74,52
India,Haryana,Gurugram,"Teri Gram, Gurugram - HSPCB",17-06-2024 06:00:00,28.4275,77.1465,CO,12,56,35
India,Haryana,Gurugram,"Teri Gram, Gurugram - HSPCB",17-06-2024 06:00:00,28.4275,77.1465,OZONE,60,148,74
India,Haryana,Hisar,"Urban Estate-II, Hisar - HSPCB",17-06-2024 06:00:00,29.140560,75.744941,SO2,1,42,15
India,Haryana,Kaithal,"Rishi Nagar, Kaithal - HSPCB",17-06-2024 06:00:00,29.8006,76.4155,NH3,NA,NA,NA
India,Haryana,Karnal,"Sector-12, Karnal - HSPCB",17-06-2024 06:00:00,29.695300,77.002700,NO2,7,12,10
India,Haryana,Kurukshetra,"Sector-7, Kurukshetra - HSPCB",17-06-2024 06:00:00,29.966942,76.875879,NH3,3,5,5
India,Haryana,Kurukshetra,"Sector-7, Kurukshetra - HSPCB",17-06-2024 06:00:00,29.966942,76.875879,SO2,2,3,3
India,Haryana,Kurukshetra,"Sector-7, Kurukshetra - HSPCB",17-06-2024 06:00:00,29.966942,76.875879,OZONE,56,95,72
India,Haryana,Mandikhera,"General Hospital, Mandikhera - HSPCB",17-06-2024 06:00:00,27.9002,76.9938,PM10,68,99,81
India,Haryana,Mandikhera,"General Hospital, Mandikhera - HSPCB",17-06-2024 06:00:00,27.9002,76.9938,CO,28,52,37
India,Haryana,Mandikhera,"General Hospital, Mandikhera - HSPCB",17-06-2024 06:00:00,27.9002,76.9938,OZONE,23,31,27
India,Haryana,Manesar,"Sector-2 IMT, Manesar - HSPCB",17-06-2024 06:00:00,28.360699,76.936090,PM10,44,95,66
India,Haryana,Manesar,"Sector-2 IMT, Manesar - HSPCB",17-06-2024 06:00:00,28.360699,76.936090,NO2,20,30,25
India,Haryana,Narnaul,"Shastri Nagar, Narnaul - HSPCB",17-06-2024 06:00:00,28.060249,76.113115,SO2,12,48,44
India,Haryana,Palwal,"Shyam Nagar, Palwal - HSPCB",17-06-2024 06:00:00,28.1485564,77.3320667,NH3,8,9,9
India,Haryana,Palwal,"Shyam Nagar, Palwal - HSPCB",17-06-2024 06:00:00,28.1485564,77.3320667,SO2,5,20,12
India,Haryana,Panipat,"Sector-18, Panipat - HSPCB",17-06-2024 06:00:00,29.432304,76.972765,NH3,2,3,2
India,Haryana,Sirsa,"F-Block, Sirsa - HSPCB",17-06-2024 06:00:00,29.536400,75.015800,NH3,11,13,12
India,Haryana,Sirsa,"F-Block, Sirsa - HSPCB",17-06-2024 06:00:00,29.536400,75.015800,SO2,21,27,23
India,Himachal Pradesh,Baddi,"HIMUDA Complex Phase-1, Baddi - HPPCB",17-06-2024 06:00:00,30.943887,76.801991,PM2.5,47,193,87
India,Himachal Pradesh,Baddi,"HIMUDA Complex Phase-1, Baddi - HPPCB",17-06-2024 06:00:00,30.943887,76.801991,NH3,4,7,6
India,Jharkhand,Dhanbad,"Kalakusuma, Dhanbad - DMC",17-06-2024 06:00:00,23.811548,86.481238,CO,130,135,132
India,Karnataka,Bagalkot,"Vidayagiri, Bagalkot - KSPCB",17-06-2024 06:00:00,16.172806,75.659694,PM10,45,46,46
India,Karnataka,Bagalkot,"Vidayagiri, Bagalkot - KSPCB",17-06-2024 06:00:00,16.172806,75.659694,CO,14,54,37
India,Karnataka,Belgaum,"Ramteerth Nagar, Belgaum - KSPCB",17-06-2024 06:00:00,15.888653,74.541751,NH3,9,12,11
India,Karnataka,Belgaum,"Ramteerth Nagar, Belgaum - KSPCB",17-06-2024 06:00:00,15.888653,74.541751,SO2,9,10,9
India,Karnataka,Belgaum,"Ramteerth Nagar, Belgaum - KSPCB",17-06-2024 06:00:00,15.888653,74.541751,OZONE,19,20,19
India,Karnataka,Bengaluru,"Bapuji Nagar, Bengaluru - KSPCB",17-06-2024 06:00:00,12.951913,77.539784,PM10,17,76,34
India,Karnataka,Bengaluru,"Bapuji Nagar, Bengaluru - KSPCB",17-06-2024 06:00:00,12.951913,77.539784,NO2,14,16,15
India,Karnataka,Bengaluru,"Bapuji Nagar, Bengaluru - KSPCB",17-06-2024 06:00:00,12.951913,77.539784,NH3,1,1,1
India,Karnataka,Bengaluru,"Hebbal, Bengaluru - KSPCB",17-06-2024 06:00:00,13.029152,77.585901,NO2,5,6,5
India,Karnataka,Bengaluru,"Hombegowda Nagar, Bengaluru - KSPCB",17-06-2024 06:00:00,12.938539,77.590100,PM2.5,5,25,14
India,Karnataka,Bengaluru,"Jayanagar 5th Block, Bengaluru - KSPCB",17-06-2024 06:00:00,12.920984,77.584908,SO2,15,24,20
India,Karnataka,Bengaluru,"Jigani, Bengaluru - KSPCB",17-06-2024 06:00:00,12.7816279,77.6299145,NO2,41,43,42
India,Karnataka,Bengaluru,"Kasturi Nagar, Bengaluru - KSPCB",17-06-2024 06:00:00,13.003872,77.664217,NO2,16,17,16
India,Karnataka,Bengaluru,"Peenya, Bengaluru - CPCB",17-06-2024 06:00:00,13.0270199,77.494094,CO,76,88,79
India,Karnataka,Bengaluru,"RVCE-Mailasandra, Bengaluru - KSPCB",17-06-2024 06:00:00,12.921418,77.502466,NO2,16,17,17
India,Karnataka,Bengaluru,"RVCE-Mailasandra, Bengaluru - KSPCB",17-06-2024 06:00:00,12.921418,77.502466,SO2,7,11,9
India,Karnataka,Bengaluru,"Shivapura_Peenya, Bengaluru - KSPCB",17-06-2024 06:00:00,13.0246342,77.5080115,CO,18,26,23
India,Karnataka,Chamarajanagar,"Urban, Chamarajanagar - KSPCB",17-06-2024 06:00:00,11.55358,76.55521,PM10,34,52,42
India,Karnataka,Chamarajanagar,"Urban, Chamarajanagar - KSPCB",17-06-2024 06:00:00,11.55358,76.55521,OZONE,14,27,15
India,Karnataka,Chikkaballapur,"Chikkaballapur Rural, Chikkaballapur - KSPCB",17-06-2024 06:00:00,13.428828,77.731418,PM10,8,29,18
India,Karnataka,Chikkamagaluru,"Kalyana Nagara, Chikkamagaluru - KSPCB",17-06-2024 06:00:00,13.328028,75.797056,PM10,23,76,44
India,Karnataka,Chikkamagaluru,"Kalyana Nagara, Chikkamagaluru - KSPCB",17-06-2024 06:00:00,13.328028,75.797056,NO2,15,29,21
India,Karnataka,Davanagere,"Devaraj Urs Badavane, Davanagere - KSPCB",17-06-2024 06:00:00,14.475800,75.905200,PM10,8,70,32
India,Karnataka,Davanagere,"Devaraj Urs Badavane, Davanagere - KSPCB",17-06-2024 06:00:00,14.475800,75.905200,NO2,9,13,11
India,Karnataka,Davanagere,"Devaraj Urs Badavane, Davanagere - KSPCB",17-06-2024 06:00:00,14.475800,75.905200,NH3,1,2,1
India,Karnataka,Davanagere,"Devaraj Urs Badavane, Davanagere - KSPCB",17-06-2024 06:00:00,14.475800,75.905200,OZONE,21,22,21
India,Karnataka,Hassan,"B.Katihalli, Hassan - KSPCB",17-06-2024 06:00:00,13.008556,76.125258,PM2.5,NA,NA,NA
India,Karnataka,Hassan,"B.Katihalli, Hassan - KSPCB",17-06-2024 06:00:00,13.008556,76.125258,NO2,NA,NA,NA
India,Karnataka,Hubballi,"Lingaraj Nagar, Hubballi - KSPCB",17-06-2024 06:00:00,15.3714823,75.1160168,PM2.5,50,51,50
India,Karnataka,Kalaburagi,"Lal Bahadur Shastri Nagar, Kalaburagi - KSPCB",17-06-2024 06:00:00,17.321993,76.822628,NO2,11,13,11
India,Karnataka,Kalaburagi,"Lal Bahadur Shastri Nagar, Kalaburagi - KSPCB",17-06-2024 06:00:00,17.321993,76.822628,NH3,2,2,2
India,Karnataka,Kalaburagi,"Lal Bahadur Shastri Nagar, Kalaburagi - KSPCB",17-06-2024 06:00:00,17.321993,76.822628,OZONE,NA,NA,NA
India,Karnataka,Kolar,"Tamaka Ind. Area, Kolar - KSPCB",17-06-2024 06:00:00,13.1276288,78.1570122,NO2,NA,NA,NA
India,Karnataka,Kolar,"Tamaka Ind. Area, Kolar - KSPCB",17-06-2024 06:00:00,13.1276288,78.1570122,NH3,NA,NA,NA
India,Karnataka,Kolar,"Tamaka Ind. Area, Kolar - KSPCB",17-06-2024 06:00:00,13.1276288,78.1570122,SO2,NA,NA,NA
India,Karnataka,Madikeri,"Stuart Hill, Madikeri - KSPCB",17-06-2024 06:00:00,12.415911,75.735050,PM2.5,15,33,25
India,Karnataka,Madikeri,"Stuart Hill, Madikeri - KSPCB",17-06-2024 06:00:00,12.415911,75.735050,SO2,4,4,4
India,Karnataka,Madikeri,"Stuart Hill, Madikeri - KSPCB",17-06-2024 06:00:00,12.415911,75.735050,OZONE,10,18,15
India,Karnataka,Mangalore,"Kadri, Mangalore - KSPCB",17-06-2024 06:00:00,12.889250,74.853000,PM10,40,86,55
India,Karnataka,Mangalore,"Kadri, Mangalore - KSPCB",17-06-2024 06:00:00,12.889250,74.853000,CO,34,38,37
India,Karnataka,Raichur,"Haji Colony, Raichur - KSPCB",17-06-2024 06:00:00,16.208139,77.348417,CO,94,120,103
India,Karnataka,Ramanagara,"Vijay Nagar, Ramanagara - KSPCB",17-06-2024 06:00:00,12.733409,77.298051,CO,7,24,13
India,Karnataka,Tumakuru,"Thimmalapura, Tumakuru - KSPCB",17-06-2024 06:00:00,13.377516,77.099072,PM2.5,22,49,33
India,Karnataka,Tumakuru,"Thimmalapura, Tumakuru - KSPCB",17-06-2024 06:00:00,13.377516,77.099072,CO,30,34,32
India,Karnataka,Vijayapura,"Ibrahimpur, Vijayapura - KSPCB",17-06-2024 06:00:00,16.802639,75.722694,CO,26,107,62
India,Karnataka,Yadgir,"Collector Office, Yadgir - KSPCB",17-06-2024 06:00:00,16.7602,77.1428,PM10,NA,NA,NA
India,Kerala,Eloor,"Udyogamandal, Eloor - Kerala PCB",17-06-2024 06:00:00,10.073232,76.302765,OZONE,10,11,10
India,Kerala,Kollam,"Polayathode, Kollam - Kerala PCB",17-06-2024 06:00:00,8.8787,76.6073,SO2,1,4,2
India,Kerala,Thiruvananthapuram,"Plammoodu, Thiruvananthapuram - Kerala PCB",17-06-2024 06:00:00,8.5149093,76.9435879,NH3,1,1,1
India,Madhya Pradesh,Bhopal,"Idgah Hills, Bhopal - MPPCB",17-06-2024 06:00:00,23.264759,77.381568,PM2.5,NA,NA,NA
India,Madhya Pradesh,Bhopal,"Idgah Hills, Bhopal - MPPCB",17-06-2024 06:00:00,23.264759,77.381568,NH3,NA,NA,NA
India,Madhya Pradesh,Bhopal,"Idgah Hills, Bhopal - MPPCB",17-06-2024 06:00:00,23.264759,77.381568,SO2,NA,NA,NA
India,Madhya Pradesh,Bhopal,"Paryavaran Parisar, Bhopal - MPPCB",17-06-2024 06:00:00,23.210494,77.425409,PM2.5,15,42,30
India,Madhya Pradesh,Bhopal,"Paryavaran Parisar, Bhopal - MPPCB",17-06-2024 06:00:00,23.210494,77.425409,SO2,7,9,8
India,Madhya Pradesh,Bhopal,"T T Nagar, Bhopal - MPPCB",17-06-2024 06:00:00,23.233584,77.400574,PM2.5,11,47,29
India,Madhya Pradesh,Bhopal,"T T Nagar, Bhopal - MPPCB",17-06-2024 06:00:00,23.233584,77.400574,NO2,21,45,27
India,Madhya Pradesh,Bhopal,"T T Nagar, Bhopal - MPPCB",17-06-2024 06:00:00,23.233584,77.400574,CO,72,121,119
India,Madhya Pradesh,Gwalior,"City Center, Gwalior - MPPCB",17-06-2024 06:00:00,26.203442,78.193251,PM10,22,82,53
India,Madhya Pradesh,Gwalior,"City Center, Gwalior - MPPCB",17-06-2024 06:00:00,26.203442,78.193251,NO2,5,25,9
India,Madhya Pradesh,Gwalior,"Deen Dayal Nagar, Gwalior - MPPCB",17-06-2024 06:00:00,26.259242,78.216432,NH3,3,5,4
India,Madhya Pradesh,Gwalior,"Maharaj Bada, Gwalior - MPPCB",17-06-2024 06:00:00,26.200388,78.147714,CO,19,99,36
India,Madhya Pradesh,Gwalior,"Maharaj Bada, Gwalior - MPPCB",17-06-2024 06:00:00,26.200388,78.147714,OZONE,39,107,55
India,Madhya Pradesh,Gwalior,"Phool Bagh, Gwalior - Mondelez Ind. Food",17-06-2024 06:00:00,26.210536,78.171,CO,78,94,86
India,Madhya Pradesh,Indore,"Chhoti Gwaltoli, Indore - MPPCB",17-06-2024 06:00:00,22.4310,75.5213,PM10,54,122,77
India,Madhya Pradesh,Indore,"Chhoti Gwaltoli, Indore - MPPCB",17-06-2024 06:00:00,22.4310,75.5213,CO,7,70,43
India,Madhya Pradesh,Indore,"Maguda Nagar, Indore - IMC",17-06-2024 06:00:00,22.7524,75.8872,PM2.5,NA,NA,NA
India,Madhya Pradesh,Indore,"Maguda Nagar, Indore - IMC",17-06-2024 06:00:00,22.7524,75.8872,SO2,27,38,33
India,Madhya Pradesh,Indore,"Maguda Nagar, Indore - IMC",17-06-2024 06:00:00,22.7524,75.8872,CO,18,24,23
India,Madhya Pradesh,Indore,"Regional Park, Indore - IMC",17-06-2024 06:00:00,22.6780,75.8559,PM10,19,63,36
India,Madhya Pradesh,Indore,"Regional Park, Indore - IMC",17-06-2024 06:00:00,22.6780,75.8559,OZONE,6,13,7
India,Madhya Pradesh,Indore,"Residency Area, Indore - IMC",17-06-2024 06:00:00,22.7084,75.8815,SO2,19,22,21
India,Madhya Pradesh,Indore,"Residency Area, Indore - IMC",17-06-2024 06:00:00,22.7084,75.8815,OZONE,10,16,11
India,Madhya Pradesh,Jabalpur,"Govindh Bhavan Colony, Jabalpur - JMC",17-06-2024 06:00:00,23.163174,79.973061,NH3,NA,NA,NA
India,Madhya Pradesh,Jabalpur,"Gupteshwar, Jabalpur - JMC",17-06-2024 06:00:00,23.142888,79.916147,NH3,4,5,4
India,Madhya Pradesh,Katni,"Gole Bazar, Katni - MPPCB",17-06-2024 06:00:00,23.50016,80.23284,PM2.5,42,81,59
India,Madhya Pradesh,Katni,"Gole Bazar, Katni - MPPCB",17-06-2024 06:00:00,23.50016,80.23284,PM10,62,108,81
India,Madhya Pradesh,Mandideep,"Sector-D Industrial Area, Mandideep - MPPCB",17-06-2024 06:00:00,23.108440,77.511428,CO,16,46,26
India,Madhya Pradesh,Pithampur,"Sector-2 Industrial Area, Pithampur - MPPCB",17-06-2024 06:00:00,22.624758,75.675238,NO2,4,48,18
India,Madhya Pradesh,Ratlam,"Shasthri Nagar, Ratlam - IPCA Lab",17-06-2024 06:00:00,23.331731,75.045981,SO2,28,31,29
India,Madhya Pradesh,Sagar,"Civil Lines, Sagar - MPPCB",17-06-2024 06:00:00,23.838586,78.759431,PM10,20,47,34
India,Madhya Pradesh,Sagar,"Civil Lines, Sagar - MPPCB",17-06-2024 06:00:00,23.838586,78.759431,SO2,1,5,2
India,Madhya Pradesh,Satna,"Bandhavgar Colony, Satna - Birla Cement",17-06-2024 06:00:00,24.58434363,80.8549414,PM2.5,42,42,42
India,Madhya Pradesh,Satna,"Bandhavgar Colony, Satna - Birla Cement",17-06-2024 06:00:00,24.58434363,80.8549414,PM10,29,54,38
India,Madhya Pradesh,Satna,"Bandhavgar Colony, Satna - Birla Cement",17-06-2024 06:00:00,24.58434363,80.8549414,CO,34,88,46
India,Madhya Pradesh,Singrauli,"Suryakiran Bhawan NCL, Singrauli - MPPCB",17-06-2024 06:00:00,24.108970,82.645580,NH3,NA,NA,NA
India,Maharashtra,Ahmednagar,"Tarakpur, Ahmednagar - MPCB",17-06-2024 06:00:00,19.10122,74.73339,PM10,29,92,56
India,Maharashtra,Ahmednagar,"Tarakpur, Ahmednagar - MPCB",17-06-2024 06:00:00,19.10122,74.73339,OZONE,12,48,31
India,Maharashtra,Akola,"Ramdaspeth, Akola - MPCB",17-06-2024 06:00:00,20.719516,77.000253,PM2.5,17,72,33
India,Maharashtra,Akola,"Ramdaspeth, Akola - MPCB",17-06-2024 06:00:00,20.719516,77.000253,NH3,3,15,8
India,Maharashtra,Amravati,"Shivneri Colony, Amravati - MPCB",17-06-2024 06:00:00,20.9402359,77.7895248,PM10,26,90,46
India,Maharashtra,Amravati,"Shivneri Colony, Amravati - MPCB",17-06-2024 06:00:00,20.9402359,77.7895248,NO2,4,21,10
India,Maharashtra,Amravati,"Shivneri Colony, Amravati - MPCB",17-06-2024 06:00:00,20.9402359,77.7895248,CO,12,28,15
India,Maharashtra,Amravati,"Shri Shivaji Science College, Amaravati - MPCB",17-06-2024 06:00:00,20.939198,77.765701,SO2,1,3,1
India,Maharashtra,Amravati,"Shri Shivaji Science College, Amaravati - MPCB",17-06-2024 06:00:00,20.939198,77.765701,OZONE,7,44,22
India,Maharashtra,Aurangabad,"MIDC Chilkalthana, Aurangabad - MPCB",17-06-2024 06:00:00,19.875620,75.387310,PM2.5,7,46,24
India,Maharashtra,Aurangabad,"More Chowk Waluj, Aurangabad - MPCB",17-06-2024 06:00:00,19.8389439,75.244448,NO2,4,8,6
India,Maharashtra,Badlapur,"Katrap, Badlapur - MPCB",17-06-2024 06:00:00,19.16485,73.23409,NO2,6,12,8
India,Maharashtra,Badlapur,"Katrap, Badlapur - MPCB",17-06-2024 06:00:00,19.16485,73.23409,NH3,1,3,2
India,Maharashtra,Belapur,"CBD Belapur, Belapur - MPCB",17-06-2024 06:00:00,19.0243902,73.0406721,PM2.5,28,47,37
India,Maharashtra,Boisar,"Khaira, Boisar - MPCB",17-06-2024 06:00:00,19.786089,72.757971,PM10,31,113,69
India,Maharashtra,Boisar,"Khaira, Boisar - MPCB",17-06-2024 06:00:00,19.786089,72.757971,NH3,1,14,4
India,Maharashtra,Chandrapur,"Chauhan Colony, Chandrapur - MPCB",17-06-2024 06:00:00,19.962900,79.298714,CO,24,27,26
India,Maharashtra,Chandrapur,"MIDC Khutala, Chandrapur - MPCB",17-06-2024 06:00:00,19.9775302,79.2337086,PM2.5,NA,NA,NA
India,Maharashtra,Chandrapur,"MIDC Khutala, Chandrapur - MPCB",17-06-2024 06:00:00,19.9775302,79.2337086,SO2,NA,NA,NA
India,Maharashtra,Dhule,"Deopur, Dhule - MPCB",17-06-2024 06:00:00,20.918946,74.776388,NH3,4,8,6
India,Maharashtra,Dhule,"Deopur, Dhule - MPCB",17-06-2024 06:00:00,20.918946,74.776388,CO,12,22,19
India,Maharashtra,Jalgaon,"Prabhat Colony, Jalgaon - MPCB",17-06-2024 06:00:00,21.001264,75.565602,PM2.5,18,44,35
India,Maharashtra,Jalgaon,"Prabhat Colony, Jalgaon - MPCB",17-06-2024 06:00:00,21.001264,75.565602,PM10,22,105,57
India,Maharashtra,Kalyan,"Khadakpada, Kalyan - MPCB",17-06-2024 06:00:00,19.25292,73.142019,NO2,22,29,26
India,Maharashtra,Kolhapur,"Shivaji University, Kolhapur - MPCB",17-06-2024 06:00:00,16.6870449,74.2505872,SO2,1,2,1
India,Maharashtra,Kolhapur,"Sinchan Bhavan, Kolhapur - MPCB",17-06-2024 06:00:00,16.7143745,74.2426398,PM10,21,61,39
India,Maharashtra,Latur,"Sawe Wadi, Latur - MPCB",17-06-2024 06:00:00,18.39963,76.57452,NH3,16,17,17
India,Maharashtra,Latur,"Sawe Wadi, Latur - MPCB",17-06-2024 06:00:00,18.39963,76.57452,OZONE,4,60,21
India,Maharashtra,Malegaon,"Mahesh Nagar, Malegaon - MPCB",17-06-2024 06:00:00,20.555712,74.529236,NO2,8,36,18
India,Maharashtra,Mira-Bhayandar,"Bhayandar West, Mira-Bhayandar - MPCB",17-06-2024 06:00:00,19.296481,72.840923,NH3,6,8,6
India,Maharashtra,Mira-Bhayandar,"Bhayandar West, Mira-Bhayandar - MPCB",17-06-2024 06:00:00,19.296481,72.840923,CO,20,46,23
India,Maharashtra,Mumbai,"Bandra Kurla Complex, Mumbai - MPCB",17-06-2024 06:00:00,19.065931,72.862131,NO2,7,22,14
India,Maharashtra,Mumbai,"Byculla, Mumbai - BMC",17-06-2024 06:00:00,18.9767,72.8380,SO2,1,2,1
India,Maharashtra,Mumbai,"Chakala-Andheri East, Mumbai - IITM",17-06-2024 06:00:00,19.11074,72.86084,NO2,26,56,32
India,Maharashtra,Mumbai,"Chembur, Mumbai - MPCB",17-06-2024 06:00:00,19.0364585,72.8954371,PM10,28,51,40
India,Maharashtra,Mumbai,"Chhatrapati Shivaji Intl. Airport (T2), Mumbai - MPCB",17-06-2024 06:00:00,19.10078,72.87462,SO2,16,21,18
India,Maharashtra,Mumbai,"Ghatkopar, Mumbai - BMC",17-06-2024 06:00:00,19.083694,72.920967,PM2.5,4,13,9
India,Maharashtra,Mumbai,"Ghatkopar, Mumbai - BMC",17-06-2024 06:00:00,19.083694,72.920967,PM10,5,40,14
India,Maharashtra,Mumbai,"Ghatkopar, Mumbai - BMC",17-06-2024 06:00:00,19.083694,72.920967,CO,NA,NA,NA
India,Maharashtra,Mumbai,"Kandivali East, Mumbai - MPCB",17-06-2024 06:00:00,19.205800,72.868200,NO2,13,64,25
India,Maharashtra,Mumbai,"Kandivali East, Mumbai - MPCB",17-06-2024 06:00:00,19.205800,72.868200,NH3,1,32,4
India,Maharashtra,Mumbai,"Kandivali West, Mumbai - BMC",17-06-2024 06:00:00,19.215859,72.831718,SO2,1,2,1
India,Maharashtra,Mumbai,"Kherwadi_Bandra East, Mumbai - MPCB",17-06-2024 06:00:00,19.0632143,72.8456324,NH3,NA,NA,NA
India,Maharashtra,Mumbai,"Khindipada-Bhandup West, Mumbai - IITM",17-06-2024 06:00:00,19.1653323,72.922099,PM2.5,11,35,22
India,Maharashtra,Mumbai,"Kurla, Mumbai - MPCB",17-06-2024 06:00:00,19.0863,72.8888,PM2.5,NA,NA,NA
India,Maharashtra,Mumbai,"Kurla, Mumbai - MPCB",17-06-2024 06:00:00,19.0863,72.8888,PM10,NA,NA,NA
India,Maharashtra,Mumbai,"Kurla, Mumbai - MPCB",17-06-2024 06:00:00,19.0863,72.8888,NO2,NA,NA,NA
India,Maharashtra,Mumbai,"Mulund West, Mumbai - MPCB",17-06-2024 06:00:00,19.1750,72.9419,PM10,NA,NA,NA
India,Maharashtra,Mumbai,"Navy Nagar-Colaba, Mumbai - IITM",17-06-2024 06:00:00,18.897756,72.813320,NH3,11,13,12
India,Maharashtra,Mumbai,"Powai, Mumbai - MPCB",17-06-2024 06:00:00,19.137500,72.915056,NH3,2,3,3
India,Maharashtra,Mumbai,"Powai, Mumbai - MPCB",17-06-2024 06:00:00,19.137500,72.915056,OZONE,NA,NA,NA
India,Maharashtra,Mumbai,"Sewri, Mumbai - BMC",17-06-2024 06:00:00,19.000084,72.856730,NO2,7,100,17
India,Maharashtra,Mumbai,"Sewri, Mumbai - BMC",17-06-2024 06:00:00,19.000084,72.856730,OZONE,8,45,19
India,Maharashtra,Mumbai,"Vasai West, Mumbai - MPCB",17-06-2024 06:00:00,19.383200,72.820400,OZONE,7,29,7
India,Maharashtra,Mumbai,"Vile Parle West, Mumbai - MPCB",17-06-2024 06:00:00,19.10861,72.83622,PM2.5,3,24,13
India,Maharashtra,Mumbai,"Worli, Mumbai - MPCB",17-06-2024 06:00:00,18.9936162,72.8128113,PM10,NA,NA,NA
India,Maharashtra,Nagpur,"Ambazari, Nagpur - MPCB",17-06-2024 06:00:00,21.121801,79.04952,NO2,4,34,16
India,Maharashtra,Nagpur,"Ambazari, Nagpur - MPCB",17-06-2024 06:00:00,21.121801,79.04952,SO2,14,27,19
India,Maharashtra,Nagpur,"Mahal, Nagpur - MPCB",17-06-2024 06:00:00,21.14472,79.107595,PM2.5,27,44,35
India,Maharashtra,Nagpur,"Mahal, Nagpur - MPCB",17-06-2024 06:00:00,21.14472,79.107595,PM10,34,66,49
India,Maharashtra,Nagpur,"Opp GPO Civil Lines, Nagpur - MPCB",17-06-2024 06:00:00,21.152875,79.0517531,NH3,3,4,4
India,Maharashtra,Nagpur,"Opp GPO Civil Lines, Nagpur - MPCB",17-06-2024 06:00:00,21.152875,79.0517531,SO2,3,18,7
India,Maharashtra,Nanded,"Sneh Nagar, Nanded - MPCB",17-06-2024 06:00:00,19.173852,77.296291,CO,18,28,21
India,Maharashtra,Nashik,"Pandav Nagari, Nashik - MPCB",17-06-2024 06:00:00,19.9591346,73.7788008,NH3,1,8,3
India,Maharashtra,Nashik,"Pandav Nagari, Nashik - MPCB",17-06-2024 06:00:00,19.9591346,73.7788008,SO2,2,8,6
India,Maharashtra,Nashik,"Pandav Nagari, Nashik - MPCB",17-06-2024 06:00:00,19.9591346,73.7788008,OZONE,18,49,22
India,Maharashtra,Navi Mumbai,"Kopripada-Vashi, Navi Mumbai - MPCB",17-06-2024 06:00:00,19.090337,73.014232,PM2.5,13,28,19
India,Maharashtra,Navi Mumbai,"Mahape, Navi Mumbai - MPCB",17-06-2024 06:00:00,19.1135051,73.008978,PM2.5,19,59,30
India,Maharashtra,Navi Mumbai,"Nerul, Navi Mumbai - MPCB",17-06-2024 06:00:00,19.008751,73.016620,OZONE,16,29,22
India,Maharashtra,Navi Mumbai,"Sanpada, Navi Mumbai - MPCB",17-06-2024 06:00:00,19.0575752,73.0151367,PM2.5,8,28,18
India,Maharashtra,Navi Mumbai,"Sanpada, Navi Mumbai - MPCB",17-06-2024 06:00:00,19.0575752,73.0151367,OZONE,5,83,18
India,Maharashtra,Navi Mumbai,"Sector-19A Nerul, Navi Mumbai - IITM",17-06-2024 06:00:00,19.044,73.0325,SO2,4,10,7
India,Maharashtra,Navi Mumbai,"Sector-19A Nerul, Navi Mumbai - IITM",17-06-2024 06:00:00,19.044,73.0325,CO,11,28,18
India,Maharashtra,Navi Mumbai,"Sector-2E Kalamboli, Navi Mumbai - MPCB",17-06-2024 06:00:00,19.02579,73.10297,PM2.5,14,94,47
India,Maharashtra,Navi Mumbai,"Sector-2E Kalamboli, Navi Mumbai - MPCB",17-06-2024 06:00:00,19.02579,73.10297,SO2,2,9,5
India,Maharashtra,Navi Mumbai,"Tondare-Taloja, Navi Mumbai - MPCB",17-06-2024 06:00:00,19.0630,73.1209,OZONE,1,43,1
India,Maharashtra,Pimpri-Chinchwad,"Gavalinagar, Pimpri Chinchwad - MPCB",17-06-2024 06:00:00,18.63673,73.82487,NO2,32,33,33
India,Maharashtra,Pune,"Alandi, Pune - IITM",17-06-2024 06:00:00,18.675076,73.892743,NO2,9,19,13
India,Maharashtra,Pune,"Bhosari, Pune - IITM",17-06-2024 06:00:00,18.640051,73.848956,PM10,16,39,30
India,Maharashtra,Pune,"Bhumkar Nagar, Pune - IITM",17-06-2024 06:00:00,18.605770,73.749976,NO2,33,54,39
India,Maharashtra,Pune,"Karve Road, Pune - MPCB",17-06-2024 06:00:00,18.5011743,73.8165527,OZONE,2,40,10
India,Maharashtra,Pune,"Mhada Colony, Pune - IITM",17-06-2024 06:00:00,18.573040,73.927715,PM2.5,30,56,39
India,Maharashtra,Pune,"Mhada Colony, Pune - IITM",17-06-2024 06:00:00,18.573040,73.927715,PM10,40,64,49
India,Maharashtra,Pune,"Revenue Colony-Shivajinagar, Pune - IITM",17-06-2024 06:00:00,18.530085,73.849598,OZONE,5,43,10
India,Maharashtra,Pune,"Savitribai Phule Pune University, Pune - MPCB",17-06-2024 06:00:00,18.547056,73.826908,NH3,1,4,3
India,Maharashtra,Pune,"Savitribai Phule Pune University, Pune - MPCB",17-06-2024 06:00:00,18.547056,73.826908,CO,10,26,18
India,Maharashtra,Sangli,"Vijay Nagar, Sangli - MPCB",17-06-2024 06:00:00, 16.5038,74.3623,PM2.5,12,34,21
India,Maharashtra,Solapur,"Ratandeep Housing Society, Solapur - MPCB",17-06-2024 06:00:00,17.65439,75.90649,PM10,27,72,41
India,Maharashtra,Solapur,"Ratandeep Housing Society, Solapur - MPCB",17-06-2024 06:00:00,17.65439,75.90649,NH3,7,15,9
India,Maharashtra,Solapur,"Ratandeep Housing Society, Solapur - MPCB",17-06-2024 06:00:00,17.65439,75.90649,SO2,1,2,1
India,Maharashtra,Thane,"Kasarvadavali, Thane - MPCB",17-06-2024 06:00:00,19.26777,72.97182,PM2.5,25,50,39
India,Maharashtra,Thane,"Kasarvadavali, Thane - MPCB",17-06-2024 06:00:00,19.26777,72.97182,NO2,7,24,16
India,Maharashtra,Thane,"Kasarvadavali, Thane - MPCB",17-06-2024 06:00:00,19.26777,72.97182,CO,30,50,36
India,Maharashtra,Thane,"Kasarvadavali, Thane - MPCB",17-06-2024 06:00:00,19.26777,72.97182,OZONE,1,12,2
India,Maharashtra,Thane,"Upvan Fort, Thane - MPCB",17-06-2024 06:00:00,19.222279,72.957979,NO2,9,34,22
India,Maharashtra,Ulhasnagar,"Sidhi Vinayak Nagar, Ulhasnagar - MPCB",17-06-2024 06:00:00,19.235581,73.159121,PM2.5,32,70,46
India,Maharashtra,Ulhasnagar,"Sidhi Vinayak Nagar, Ulhasnagar - MPCB",17-06-2024 06:00:00,19.235581,73.159121,NO2,13,20,16
India,Maharashtra,Virar,"Bolinj, Virar - MPCB",17-06-2024 06:00:00,19.4458210,72.7988231,NO2,12,12,12
India,Maharashtra,Virar,"Bolinj, Virar - MPCB",17-06-2024 06:00:00,19.4458210,72.7988231,OZONE,3,37,9
India,Manipur,Imphal,"DM College of Science, Imphal - Manipur PCB",17-06-2024 06:00:00,24.8207389,93.9423085,PM2.5,4,21,15
India,Mizoram,Aizawl,"Sikulpuikawn, Aizawl - Mizoram PCB",17-06-2024 06:00:00,23.7176342,92.7192841,CO,6,10,9
India,Mizoram,Aizawl,"Sikulpuikawn, Aizawl - Mizoram PCB",17-06-2024 06:00:00,23.7176342,92.7192841,OZONE,1,17,6
India,Nagaland,Kohima,"PWD Juction, Kohima - NPCB",17-06-2024 06:00:00,25.6635413,94.0989878,NH3,1,1,1
India,Nagaland,Kohima,"PWD Juction, Kohima - NPCB",17-06-2024 06:00:00,25.6635413,94.0989878,CO,7,20,15
India,Odisha,Barbil,"Forest Office, Barbil - OSPCB",17-06-2024 06:00:00,22.1166054,85.3945546,NO2,5,19,9
India,Odisha,Barbil,"Forest Office, Barbil - OSPCB",17-06-2024 06:00:00,22.1166054,85.3945546,OZONE,23,122,52
India,Odisha,Baripada,"Meher Colony, Baripada - OSPCB",17-06-2024 06:00:00,21.941841,86.728318,OZONE,47,330,118
India,Odisha,Bhubaneswar,"Lingraj Mandir, Bhubaneswar - OSPCB",17-06-2024 06:00:00,20.240790,85.836784,CO,13,129,100
India,Odisha,Bhubaneswar,"Patia, Bhubaneswar - OSPCB",17-06-2024 06:00:00,20.34652,85.81630,NO2,7,19,12
India,Odisha,Bhubaneswar,"Patia, Bhubaneswar - OSPCB",17-06-2024 06:00:00,20.34652,85.81630,SO2,2,42,12
India,Odisha,Bileipada,"Tata Township, Bileipada - OSPCB",17-06-2024 06:00:00,22.06156703,85.47409613,PM2.5,37,101,63
India,Odisha,Brajrajnagar,"GM Office, Brajrajnagar - OSPCB",17-06-2024 06:00:00,21.8004996,83.8396977,OZONE,16,157,109
India,Odisha,Byasanagar,"Ferro Chrome Colony, Byasanagar - OSPCB",17-06-2024 06:00:00,20.94185,86.11510,NO2,10,63,20
India,Odisha,Keonjhar,"Jagamohanpur, Keonjhar - OSPCB",17-06-2024 06:00:00,21.643900,85.599355,NH3,3,4,3
India,Odisha,Keonjhar,"Jagamohanpur, Keonjhar - OSPCB",17-06-2024 06:00:00,21.643900,85.599355,SO2,11,13,12
India,Odisha,Nayagarh,"Dabuna, Nayagarh - OSPCB",17-06-2024 06:00:00,21.847279,85.416905,SO2,1,3,2
India,Odisha,Rairangpur,"Divisional Forest Office, Rairangpur - OSPCB",17-06-2024 06:00:00,22.265816,86.174829,NH3,4,4,4
India,Odisha,Rairangpur,"Divisional Forest Office, Rairangpur - OSPCB",17-06-2024 06:00:00,22.265816,86.174829,OZONE,2,19,5
India,Odisha,Suakati,"OMC Colony, Suakati - OSPCB",17-06-2024 06:00:00,21.606865,85.510538,NO2,14,16,15
India,Odisha,Suakati,"OMC Colony, Suakati - OSPCB",17-06-2024 06:00:00,21.606865,85.510538,CO,12,20,17
India,Odisha,Talcher,"Talcher Coalfields,Talcher - OSPCB",17-06-2024 06:00:00,20.9360711,85.1707021,NO2,19,22,21
India,Odisha,Talcher,"Talcher Coalfields,Talcher - OSPCB",17-06-2024 06:00:00,20.9360711,85.1707021,CO,78,111,101
India,Punjab,Amritsar,"Golden Temple, Amritsar - PPCB",17-06-2024 06:00:00,31.620000,74.876512,PM10,77,122,97
India,Punjab,Amritsar,"Golden Temple, Amritsar - PPCB",17-06-2024 06:00:00,31.620000,74.876512,NO2,9,186,82
India,Punjab,Amritsar,"Golden Temple, Amritsar - PPCB",17-06-2024 06:00:00,31.620000,74.876512,NH3,5,14,9
India,Punjab,Amritsar,"Golden Temple, Amritsar - PPCB",17-06-2024 06:00:00,31.620000,74.876512,OZONE,32,67,57
India,Punjab,Bathinda,"Hardev Nagar, Bathinda - PPCB",17-06-2024 06:00:00,30.233011,74.907758,PM2.5,40,171,88
India,Punjab,Jalandhar,"Civil Line, Jalandhar - PPCB",17-06-2024 06:00:00,31.321907,75.578914,SO2,11,14,12
India,Punjab,Jalandhar,"Civil Line, Jalandhar - PPCB",17-06-2024 06:00:00,31.321907,75.578914,CO,17,50,37
India,Punjab,Khanna,"Kalal Majra, Khanna - PPCB",17-06-2024 06:00:00,30.736056 ,76.209694,PM2.5,53,110,87
India,Punjab,Khanna,"Kalal Majra, Khanna - PPCB",17-06-2024 06:00:00,30.736056 ,76.209694,PM10,113,140,129
India,Punjab,Ludhiana,"Punjab Agricultural University, Ludhiana - PPCB",17-06-2024 06:00:00,30.9028,75.8086,SO2,8,22,12
India,Punjab,Ludhiana,"Punjab Agricultural University, Ludhiana - PPCB",17-06-2024 06:00:00,30.9028,75.8086,OZONE,17,46,25
India,Punjab,Mandi Gobindgarh,"RIMT University, Mandi Gobindgarh - PPCB",17-06-2024 06:00:00,30.649961,76.331442,PM2.5,87,376,220
India,Punjab,Mandi Gobindgarh,"RIMT University, Mandi Gobindgarh - PPCB",17-06-2024 06:00:00,30.649961,76.331442,PM10,103,403,195
India,Punjab,Patiala,"Model Town, Patiala - PPCB",17-06-2024 06:00:00,30.349388,76.366642,PM10,95,127,112
India,Punjab,Patiala,"Model Town, Patiala - PPCB",17-06-2024 06:00:00,30.349388,76.366642,NH3,5,5,5
India,Punjab,Patiala,"Model Town, Patiala - PPCB",17-06-2024 06:00:00,30.349388,76.366642,CO,26,39,32
India,Rajasthan,Ajmer,"Civil Lines,  Ajmer - RSPCB",17-06-2024 06:00:00,26.470859,74.646594,NO2,14,17,16
India,Rajasthan,Ajmer,"Civil Lines,  Ajmer - RSPCB",17-06-2024 06:00:00,26.470859,74.646594,NH3,5,5,5
India,Rajasthan,Ajmer,"Civil Lines,  Ajmer - RSPCB",17-06-2024 06:00:00,26.470859,74.646594,SO2,11,19,15
India,Rajasthan,Ajmer,"Civil Lines,  Ajmer - RSPCB",17-06-2024 06:00:00,26.470859,74.646594,OZONE,16,185,66
India,Rajasthan,Alwar,"Moti Doongri, Alwar - RSPCB",17-06-2024 06:00:00,27.554793,76.611536,NH3,2,4,3
India,Rajasthan,Banswara,"Rati Talai, Banswara - RSPCB",17-06-2024 06:00:00,23.555190,74.440010,SO2,5,7,6
India,Rajasthan,Baran,"Bamboliya, Baran - RSPCB",17-06-2024 06:00:00,25.106006,76.469948,PM2.5,9,54,36
India,Rajasthan,Barmer,"Railway Colony, Barmer - RSPCB",17-06-2024 06:00:00,25.747299,71.393989,PM2.5,15,43,30
India,Rajasthan,Bharatpur,"Krishna Nagar, Bharatpur - RSPCB",17-06-2024 06:00:00,27.215415,77.50873,PM10,48,94,69
India,Rajasthan,Bharatpur,"Krishna Nagar, Bharatpur - RSPCB",17-06-2024 06:00:00,27.215415,77.50873,NO2,7,83,23
India,Rajasthan,Bhilwara,"Pratap Nagar, Bhilwara - RSPCB",17-06-2024 06:00:00,25.339605,74.618883,NH3,1,6,1
India,Rajasthan,Bhilwara,"Pratap Nagar, Bhilwara - RSPCB",17-06-2024 06:00:00,25.339605,74.618883,OZONE,8,60,31
India,Rajasthan,Bhiwadi,"RIICO Ind. Area III, Bhiwadi - RSPCB",17-06-2024 06:00:00,28.194909,76.862296,PM2.5,47,158,103
India,Rajasthan,Bhiwadi,"RIICO Ind. Area III, Bhiwadi - RSPCB",17-06-2024 06:00:00,28.194909,76.862296,SO2,10,18,13
India,Rajasthan,Bikaner,"MM Ground, Bikaner - RSPCB",17-06-2024 06:00:00,28.018792,73.292658,OZONE,28,51,37
India,Rajasthan,Bundi,"New Colony, Bundi - RSPCB",17-06-2024 06:00:00,25.435774,75.644272,PM10,67,238,112
India,Rajasthan,Churu,"Subash Chowk, Churu - RSPCB",17-06-2024 06:00:00,28.296139,74.961696,NH3,11,21,15
India,Rajasthan,Dausa,"Khatikan Mohalla, Dausa - RSPCB",17-06-2024 06:00:00,26.895552,76.334753,CO,2,47,24
India,Rajasthan,Dausa,"Khatikan Mohalla, Dausa - RSPCB",17-06-2024 06:00:00,26.895552,76.334753,OZONE,34,154,53
India,Rajasthan,Dholpur,"Raja Ganj, Dholpur - RSPCB",17-06-2024 06:00:00,26.699557,77.898881,NH3,5,7,6
India,Rajasthan,Hanumangarh,"Housing Board, Hanumangarh - RSPCB",17-06-2024 06:00:00,29.610750,74.283608,PM2.5,NA,NA,NA
India,Rajasthan,Hanumangarh,"Housing Board, Hanumangarh - RSPCB",17-06-2024 06:00:00,29.610750,74.283608,NH3,NA,NA,NA
India,Rajasthan,Jaipur,"Adarsh Nagar, Jaipur - RSPCB",17-06-2024 06:00:00,26.902909,75.836858,SO2,8,30,19
India,Rajasthan,Jaipur,"Mansarovar Sector-12, Jaipur - RSPCB",17-06-2024 06:00:00,26.843698,75.766894,PM2.5,24,51,35
India,Rajasthan,Jaipur,"Mansarovar Sector-12, Jaipur - RSPCB",17-06-2024 06:00:00,26.843698,75.766894,NH3,5,7,6
India,Rajasthan,Jaipur,"Police Commissionerate, Jaipur - RSPCB",17-06-2024 06:00:00,26.9164092,75.7994901,NO2,18,37,25
India,Rajasthan,Jaipur,"RIICO Sitapura, Jaipur - RSPCB",17-06-2024 06:00:00,26.786682,75.827928,NH3,1,22,10
India,Rajasthan,Jaipur,"Sector-2 Murlipura, Jaipur - RSPCB",17-06-2024 06:00:00,26.960669,75.771817,CO,NA,NA,NA
India,Rajasthan,Jaipur,"Shastri Nagar, Jaipur - RSPCB",17-06-2024 06:00:00,26.9502929,75.730943,PM2.5,62,196,117
India,Rajasthan,Jaisalmer,"Sadar Bazar, Jaisalmer - RSPCB",17-06-2024 06:00:00,26.912329,70.909168,NH3,3,9,4
India,Rajasthan,Jaisalmer,"Sadar Bazar, Jaisalmer - RSPCB",17-06-2024 06:00:00,26.912329,70.909168,OZONE,20,60,38
India,Rajasthan,Jalore,"Mudtra Sili, Jalore - RSPCB",17-06-2024 06:00:00,25.344694,72.626208,CO,4,20,13
India,Rajasthan,Jalore,"Mudtra Sili, Jalore - RSPCB",17-06-2024 06:00:00,25.344694,72.626208,OZONE,29,87,66
India,Rajasthan,Jhalawar,"Rajlaxmi Nagar, Jhalawar - RSPCB",17-06-2024 06:00:00,24.588397,76.172782,PM10,59,117,89
India,Rajasthan,Jhalawar,"Rajlaxmi Nagar, Jhalawar - RSPCB",17-06-2024 06:00:00,24.588397,76.172782,CO,14,29,20
India,Rajasthan,Jhalawar,"Rajlaxmi Nagar, Jhalawar - RSPCB",17-06-2024 06:00:00,24.588397,76.172782,OZONE,40,92,44
India,Rajasthan,Jhunjhunu,"Indra Nagar, Jhunjhunu - RSPCB",17-06-2024 06:00:00,28.108988,75.386577,NH3,14,29,20
India,Rajasthan,Jodhpur,"Collectorate, Jodhpur - RSPCB",17-06-2024 06:00:00,26.268249,73.0193853,PM10,22,142,89
India,Rajasthan,Jodhpur,"Jhalamand, Jodhpur - RSPCB",17-06-2024 06:00:00,26.215415,73.070156,PM10,42,78,65
India,Rajasthan,Jodhpur,"Jhalamand, Jodhpur - RSPCB",17-06-2024 06:00:00,26.215415,73.070156,NO2,1,10,5
India,Rajasthan,Jodhpur,"Mandor, Jodhpur - RSPCB",17-06-2024 06:00:00,26.358805,73.047444,NO2,13,24,18
India,Rajasthan,Jodhpur,"Mandor, Jodhpur - RSPCB",17-06-2024 06:00:00,26.358805,73.047444,CO,16,22,18
India,Rajasthan,Karauli,"Satyawati Vihar, Karauli - RSPCB",17-06-2024 06:00:00,26.506177,77.025989,NO2,NA,NA,NA
India,Rajasthan,Karauli,"Satyawati Vihar, Karauli - RSPCB",17-06-2024 06:00:00,26.506177,77.025989,OZONE,10,64,37
India,Rajasthan,Kota,"Dhanmandi, Kota - RSPCB",17-06-2024 06:00:00,25.164090,75.858137,NH3,4,5,4
India,Rajasthan,Kota,"Nayapura, Kota - RSPCB",17-06-2024 06:00:00,25.196024,75.855668,SO2,8,14,9
India,Rajasthan,Kota,"Nayapura, Kota - RSPCB",17-06-2024 06:00:00,25.196024,75.855668,OZONE,42,99,54
India,Rajasthan,Kota,"Shrinath Puram, Kota - RSPCB",17-06-2024 06:00:00,25.14389,75.821256,NO2,20,39,26
India,Rajasthan,Kota,"Shrinath Puram, Kota - RSPCB",17-06-2024 06:00:00,25.14389,75.821256,NH3,3,6,5
India,Rajasthan,Nagaur,"Karni Colony, Nagaur - RSPCB",17-06-2024 06:00:00,27.213494,73.734444,PM10,57,105,82
India,Rajasthan,Nagaur,"Karni Colony, Nagaur - RSPCB",17-06-2024 06:00:00,27.213494,73.734444,NO2,5,17,9
India,Rajasthan,Nagaur,"Karni Colony, Nagaur - RSPCB",17-06-2024 06:00:00,27.213494,73.734444,NH3,4,12,8
India,Rajasthan,Pali,"Indira Colony Vistar, Pali - RSPCB",17-06-2024 06:00:00,25.771061, 73.340227,PM10,74,125,100
India,Rajasthan,Pali,"Indira Colony Vistar, Pali - RSPCB",17-06-2024 06:00:00,25.771061, 73.340227,CO,6,100,52
India,Rajasthan,Pratapgarh,"Pragati Nagar, Pratapgarh - RSPCB",17-06-2024 06:00:00,24.041198,74.780702,NH3,4,4,4
India,Rajasthan,Rajsamand,"Dhoinda, Rajsamand - RSPCB",17-06-2024 06:00:00,25.036360,73.883502,PM10,28,54,45
India,Rajasthan,Rajsamand,"Dhoinda, Rajsamand - RSPCB",17-06-2024 06:00:00,25.036360,73.883502,NO2,5,19,10
India,Rajasthan,Sikar,"Radhakishan Pura, Sikar - RSPCB",17-06-2024 06:00:00,27.608912,75.153302,NO2,9,27,14
India,Rajasthan,Sikar,"Radhakishan Pura, Sikar - RSPCB",17-06-2024 06:00:00,27.608912,75.153302,OZONE,33,81,45
India,Rajasthan,Sirohi,"Vedhaynath Colony, Sirohi - RSPCB",17-06-2024 06:00:00,24.885261,72.857549,CO,4,20,15
India,Rajasthan,Sri Ganganagar,"Old City, Sri Ganganagar - RSPCB",17-06-2024 06:00:00,29.931624,73.864511,NH3,16,22,18
India,Rajasthan,Sri Ganganagar,"Old City, Sri Ganganagar - RSPCB",17-06-2024 06:00:00,29.931624,73.864511,CO,2,64,30
India,Rajasthan,Tonk,"Shastri Nagar, Tonk - RSPCB",17-06-2024 06:00:00,26.159933,75.780517,PM2.5,NA,NA,NA
India,Rajasthan,Tonk,"Shastri Nagar, Tonk - RSPCB",17-06-2024 06:00:00,26.159933,75.780517,PM10,NA,NA,NA
India,Rajasthan,Tonk,"Shastri Nagar, Tonk - RSPCB",17-06-2024 06:00:00,26.159933,75.780517,CO,NA,NA,NA
India,Rajasthan,Udaipur,"Ashok Nagar, Udaipur - RSPCB",17-06-2024 06:00:00,24.5886166,73.6321397,CO,3,75,30
India,Rajasthan,Udaipur,"Ashok Nagar, Udaipur - RSPCB",17-06-2024 06:00:00,24.5886166,73.6321397,OZONE,17,71,47
India,TamilNadu,Ariyalur,"Keelapalur, Ariyalur - TNPCB",17-06-2024 06:00:00,11.06825,79.07033,SO2,32,34,33
India,TamilNadu,Chennai,"Alandur Bus Depot, Chennai - CPCB",17-06-2024 06:00:00,12.9099161,80.1076538,PM10,25,26,25
India,TamilNadu,Chennai,"Alandur Bus Depot, Chennai - CPCB",17-06-2024 06:00:00,12.9099161,80.1076538,NO2,7,20,9
India,TamilNadu,Chennai,"Alandur Bus Depot, Chennai - CPCB",17-06-2024 06:00:00,12.9099161,80.1076538,CO,60,64,62
India,TamilNadu,Chennai,"Kodungaiyur, Chennai - TNPCB",17-06-2024 06:00:00,13.1278,80.2642,PM2.5,12,30,20
India,TamilNadu,Chennai,"Kodungaiyur, Chennai - TNPCB",17-06-2024 06:00:00,13.1278,80.2642,OZONE,22,67,37
India,TamilNadu,Chennai,"Manali, Chennai - CPCB",17-06-2024 06:00:00,13.164544,80.26285,PM2.5,18,134,81
India,TamilNadu,Chennai,"Perungudi, Chennai - TNPCB",17-06-2024 06:00:00,12.9533,80.2357,PM10,12,87,57
India,TamilNadu,Chennai,"Perungudi, Chennai - TNPCB",17-06-2024 06:00:00,12.9533,80.2357,SO2,1,6,3
India,TamilNadu,Chennai,"Royapuram, Chennai - TNPCB",17-06-2024 06:00:00,13.1036,80.2909,PM2.5,5,42,24
India,TamilNadu,Chennai,"Royapuram, Chennai - TNPCB",17-06-2024 06:00:00,13.1036,80.2909,PM10,10,80,51
India,TamilNadu,Chennai,"Royapuram, Chennai - TNPCB",17-06-2024 06:00:00,13.1036,80.2909,NO2,13,47,26
India,TamilNadu,Chennai,"Royapuram, Chennai - TNPCB",17-06-2024 06:00:00,13.1036,80.2909,NH3,1,7,3
India,TamilNadu,Chennai,"Velachery Res. Area, Chennai - CPCB",17-06-2024 06:00:00,13.0052189,80.2398125,PM2.5,21,60,35
India,TamilNadu,Chennai,"Velachery Res. Area, Chennai - CPCB",17-06-2024 06:00:00,13.0052189,80.2398125,SO2,7,20,12
India,TamilNadu,Gummidipoondi,"Anthoni Pillai Nagar, Gummidipoondi - TNPCB",17-06-2024 06:00:00,13.4127,80.1081,NO2,10,23,15
India,TamilNadu,Gummidipoondi,"Anthoni Pillai Nagar, Gummidipoondi - TNPCB",17-06-2024 06:00:00,13.4127,80.1081,NH3,1,3,2
India,TamilNadu,Gummidipoondi,"Anthoni Pillai Nagar, Gummidipoondi - TNPCB",17-06-2024 06:00:00,13.4127,80.1081,SO2,1,51,12
India,TamilNadu,Ooty,"Bombay Castel, Ooty - TNPCB",17-06-2024 06:00:00,11.4068288,76.7138973,OZONE,5,5,5
India,TamilNadu,Ramanathapuram,"Chalai Bazaar, Ramanathapuram - TNPCB",17-06-2024 06:00:00,9.36399,78.831977,PM10,24,42,33
India,TamilNadu,Tirupur,"Kumaran College, Tirupur - TNPCB",17-06-2024 06:00:00,11.0973603,77.3228673,PM2.5,NA,NA,NA
India,TamilNadu,Tirupur,"Kumaran College, Tirupur - TNPCB",17-06-2024 06:00:00,11.0973603,77.3228673,OZONE,7,7,7
India,Telangana,Hyderabad,"Bollaram Industrial Area, Hyderabad - TSPCB",17-06-2024 06:00:00,17.540891,78.358528,NH3,2,7,4
India,Telangana,Hyderabad,"Central University, Hyderabad - TSPCB",17-06-2024 06:00:00,17.460103,78.334361,NO2,8,41,25
India,Telangana,Hyderabad,"Central University, Hyderabad - TSPCB",17-06-2024 06:00:00,17.460103,78.334361,SO2,2,11,7
India,Telangana,Hyderabad,"ICRISAT Patancheru, Hyderabad - TSPCB",17-06-2024 06:00:00,17.518400,78.278777,SO2,6,20,13
India,Telangana,Hyderabad,"IITH Kandi, Hyderabad - TSPCB",17-06-2024 06:00:00,17.585705,78.126199,SO2,NA,NA,NA
India,Telangana,Hyderabad,"Kokapet, Hyderabad - TSPCB",17-06-2024 06:00:00,17.393559,78.339194,NH3,1,2,2
India,Telangana,Hyderabad,"Kokapet, Hyderabad - TSPCB",17-06-2024 06:00:00,17.393559,78.339194,CO,22,28,23
India,Telangana,Hyderabad,"Kompally Municipal Office, Hyderabad - TSPCB",17-06-2024 06:00:00,17.544899,78.486949,NH3,NA,NA,NA
India,Telangana,Hyderabad,"Kompally Municipal Office, Hyderabad - TSPCB",17-06-2024 06:00:00,17.544899,78.486949,CO,NA,NA,NA
India,Telangana,Hyderabad,"Nacharam_TSIIC IALA, Hyderabad - TSPCB",17-06-2024 06:00:00,17.429398,78.569354,OZONE,25,63,25
India,Telangana,Hyderabad,"New Malakpet, Hyderabad - TSPCB",17-06-2024 06:00:00,17.37206,78.50864,NO2,19,20,20
India,Telangana,Hyderabad,"New Malakpet, Hyderabad - TSPCB",17-06-2024 06:00:00,17.37206,78.50864,NH3,3,4,3
India,Telangana,Hyderabad,"Ramachandrapuram, Hyderabad - TSPCB",17-06-2024 06:00:00,17.528544,78.286195,NO2,NA,NA,NA
India,Telangana,Hyderabad,"Sanathnagar, Hyderabad - TSPCB",17-06-2024 06:00:00,17.4559458,78.4332152,PM2.5,21,42,31
India,Telangana,Hyderabad,"Sanathnagar, Hyderabad - TSPCB",17-06-2024 06:00:00,17.4559458,78.4332152,SO2,3,12,6
India,Telangana,Hyderabad,"Somajiguda, Hyderabad - TSPCB",17-06-2024 06:00:00,17.417094,78.457437,NO2,NA,NA,NA
India,Telangana,Hyderabad,"Somajiguda, Hyderabad - TSPCB",17-06-2024 06:00:00,17.417094,78.457437,NH3,NA,NA,NA
India,Telangana,Hyderabad,"Zoo Park, Hyderabad - TSPCB",17-06-2024 06:00:00,17.349694,78.451437,PM10,NA,NA,NA
India,Telangana,Hyderabad,"Zoo Park, Hyderabad - TSPCB",17-06-2024 06:00:00,17.349694,78.451437,NO2,9,21,14
India,Telangana,Hyderabad,"Zoo Park, Hyderabad - TSPCB",17-06-2024 06:00:00,17.349694,78.451437,NH3,1,1,1
India,Telangana,Hyderabad,"Zoo Park, Hyderabad - TSPCB",17-06-2024 06:00:00,17.349694,78.451437,OZONE,16,23,18
India,Tripura,Agartala,"Bardowali, Agartala - Tripura SPCB",17-06-2024 06:00:00,23.8175497,91.2726974,PM10,NA,NA,NA
India,Tripura,Agartala,"Bardowali, Agartala - Tripura SPCB",17-06-2024 06:00:00,23.8175497,91.2726974,OZONE,3,28,6
India,Uttar_Pradesh,Agra,"Manoharpur, Agra - UPPCB",17-06-2024 06:00:00,27.23711,78.01936,CO,5,17,11
India,Uttar_Pradesh,Agra,"Rohta, Agra - UPPCB",17-06-2024 06:00:00,27.106972,78.000111,PM10,20,63,31
India,Uttar_Pradesh,Agra,"Rohta, Agra - UPPCB",17-06-2024 06:00:00,27.106972,78.000111,OZONE,20,22,22
India,Uttar_Pradesh,Agra,"Sanjay Palace, Agra - UPPCB",17-06-2024 06:00:00,27.19865833,78.00598056,PM2.5,8,26,15
India,Uttar_Pradesh,Agra,"Sanjay Palace, Agra - UPPCB",17-06-2024 06:00:00,27.19865833,78.00598056,PM10,10,65,36
India,Uttar_Pradesh,Agra,"Sector-3B Avas Vikas Colony, Agra - UPPCB",17-06-2024 06:00:00,27.19412,77.96237,OZONE,11,15,12
India,Uttar_Pradesh,Baghpat,"Sardar Patel Inter College, Baghpat - UPPCB",17-06-2024 06:00:00,28.964949,77.278761,PM2.5,17,85,60
India,Uttar_Pradesh,Baghpat,"Sardar Patel Inter College, Baghpat - UPPCB",17-06-2024 06:00:00,28.964949,77.278761,SO2,4,81,35
India,Uttar_Pradesh,Bareilly,"Civil Lines, Bareilly - UPPCB",17-06-2024 06:00:00,28.359581,79.414455,NO2,2,3,2
India,Uttar_Pradesh,Bareilly,"Civil Lines, Bareilly - UPPCB",17-06-2024 06:00:00,28.359581,79.414455,CO,1,28,23
India,Uttar_Pradesh,Bareilly,"Civil Lines, Bareilly - UPPCB",17-06-2024 06:00:00,28.359581,79.414455,OZONE,1,8,8
India,Uttar_Pradesh,Bareilly,"Rajendra Nagar, Bareilly - UPPCB",17-06-2024 06:00:00,28.38910936,79.42963708,NO2,2,43,4
India,Uttar_Pradesh,Firozabad,"Nagla Bhau, Firozabad - UPPCB",17-06-2024 06:00:00,27.168897,78.376960,PM2.5,13,63,35
India,Uttar_Pradesh,Firozabad,"Nagla Bhau, Firozabad - UPPCB",17-06-2024 06:00:00,27.168897,78.376960,SO2,18,24,19
India,Uttar_Pradesh,Ghaziabad,"Indirapuram, Ghaziabad - UPPCB",17-06-2024 06:00:00,28.646233,77.358075,PM10,146,231,181
India,Uttar_Pradesh,Ghaziabad,"Indirapuram, Ghaziabad - UPPCB",17-06-2024 06:00:00,28.646233,77.358075,SO2,3,9,6
India,Uttar_Pradesh,Ghaziabad,"Loni, Ghaziabad - UPPCB",17-06-2024 06:00:00,28.757294,77.278792,NH3,1,5,3
India,Uttar_Pradesh,Ghaziabad,"Loni, Ghaziabad - UPPCB",17-06-2024 06:00:00,28.757294,77.278792,CO,16,68,57
India,Uttar_Pradesh,Ghaziabad,"Sanjay Nagar, Ghaziabad - UPPCB",17-06-2024 06:00:00,28.685382,77.453839,PM10,118,184,150
India,Uttar_Pradesh,Ghaziabad,"Sanjay Nagar, Ghaziabad - UPPCB",17-06-2024 06:00:00,28.685382,77.453839,SO2,15,33,23
India,Uttar_Pradesh,Ghaziabad,"Vasundhara, Ghaziabad - UPPCB",17-06-2024 06:00:00,28.6603346,77.3572563,OZONE,11,71,18
India,Uttar_Pradesh,Gorakhpur,"Madan Mohan Malaviya University of Technology, Gorakhpur - UPPCB",17-06-2024 06:00:00,26.730136,83.433859,NH3,1,1,1
India,Uttar_Pradesh,Gorakhpur,"Madan Mohan Malaviya University of Technology, Gorakhpur - UPPCB",17-06-2024 06:00:00,26.730136,83.433859,SO2,21,22,21
India,Uttar_Pradesh,Gorakhpur,"Madan Mohan Malaviya University of Technology, Gorakhpur - UPPCB",17-06-2024 06:00:00,26.730136,83.433859,OZONE,12,12,12
India,Uttar_Pradesh,Greater Noida,"Knowledge Park - III, Greater Noida - UPPCB",17-06-2024 06:00:00,28.47272,77.482000,CO,2,95,38
India,Uttar_Pradesh,Greater Noida,"Knowledge Park - V, Greater Noida - UPPCB",17-06-2024 06:00:00,28.557054,77.453663,PM2.5,52,167,92
India,Uttar_Pradesh,Greater Noida,"Knowledge Park - V, Greater Noida - UPPCB",17-06-2024 06:00:00,28.557054,77.453663,PM10,160,478,264
India,Uttar_Pradesh,Greater Noida,"Knowledge Park - V, Greater Noida - UPPCB",17-06-2024 06:00:00,28.557054,77.453663,NH3,4,9,5
India,Uttar_Pradesh,Greater Noida,"Knowledge Park - V, Greater Noida - UPPCB",17-06-2024 06:00:00,28.557054,77.453663,SO2,2,30,19
India,Uttar_Pradesh,Hapur,"Anand Vihar, Hapur - UPPCB",17-06-2024 06:00:00,28.725645,77.749675,PM10,NA,NA,NA
India,Uttar_Pradesh,Kanpur,"NSI Kalyanpur, Kanpur - UPPCB",17-06-2024 06:00:00,26.509954,80.249612,PM10,58,172,121
India,Uttar_Pradesh,Kanpur,"Nehru Nagar, Kanpur - UPPCB",17-06-2024 06:00:00,26.4703136,80.3229863,OZONE,16,240,18
India,Uttar_Pradesh,Khurja,"Kalindi Kunj, Khurja - UPPCB",17-06-2024 06:00:00,28.2348927,77.8683002,PM10,21,453,213
India,Uttar_Pradesh,Khurja,"Kalindi Kunj, Khurja - UPPCB",17-06-2024 06:00:00,28.2348927,77.8683002,CO,12,44,40
India,Uttar_Pradesh,Khurja,"Kalindi Kunj, Khurja - UPPCB",17-06-2024 06:00:00,28.2348927,77.8683002,OZONE,31,78,47
India,Uttar_Pradesh,Lucknow,"B R Ambedkar University, Lucknow - UPPCB",17-06-2024 06:00:00,26.766433,80.927299,NO2,11,12,11
India,Uttar_Pradesh,Lucknow,"Kendriya Vidyalaya, Lucknow - CPCB",17-06-2024 06:00:00,26.906111,80.948222,PM10,118,144,133
India,Uttar_Pradesh,Lucknow,"Kendriya Vidyalaya, Lucknow - CPCB",17-06-2024 06:00:00,26.906111,80.948222,NH3,3,17,12
India,Uttar_Pradesh,Lucknow,"Kukrail Picnic Spot-1, Lucknow - UPPCB",17-06-2024 06:00:00,26.90723,80.98579,PM2.5,31,229,74
India,Uttar_Pradesh,Lucknow,"Lalbagh, Lucknow - CPCB",17-06-2024 06:00:00,26.8458805,80.9365541,PM2.5,125,304,221
India,Uttar_Pradesh,Lucknow,"Lalbagh, Lucknow - CPCB",17-06-2024 06:00:00,26.8458805,80.9365541,NO2,39,79,50
India,Uttar_Pradesh,Lucknow,"Lalbagh, Lucknow - CPCB",17-06-2024 06:00:00,26.8458805,80.9365541,OZONE,6,30,15
India,Uttar_Pradesh,Lucknow,"Talkatora District Industries Center, Lucknow - CPCB",17-06-2024 06:00:00,26.83399722,80.8917361,NO2,12,14,13
India,Uttar_Pradesh,Lucknow,"Talkatora District Industries Center, Lucknow - CPCB",17-06-2024 06:00:00,26.83399722,80.8917361,SO2,6,15,10
India,Uttar_Pradesh,Lucknow,"Talkatora District Industries Center, Lucknow - CPCB",17-06-2024 06:00:00,26.83399722,80.8917361,CO,14,62,37
India,Uttar_Pradesh,Meerut,"Ganga Nagar, Meerut - UPPCB",17-06-2024 06:00:00,28.999264,77.7590354,NH3,7,13,8
India,Uttar_Pradesh,Moradabad,"Buddhi Vihar, Moradabad - UPPCB",17-06-2024 06:00:00,28.83526,78.74460,PM10,105,158,124
India,Uttar_Pradesh,Moradabad,"Eco Herbal Park, Moradabad - UPPCB",17-06-2024 06:00:00,28.840739,78.697531,SO2,6,55,30
India,Uttar_Pradesh,Moradabad,"Employment Office, Moradabad - UPPCB",17-06-2024 06:00:00,28.88528,78.73880,PM10,106,280,125
India,Uttar_Pradesh,Moradabad,"Transport Nagar, Moradabad - UPPCB",17-06-2024 06:00:00,28.802625,78.753728,PM10,68,140,106
India,Uttar_Pradesh,Moradabad,"Transport Nagar, Moradabad - UPPCB",17-06-2024 06:00:00,28.802625,78.753728,CO,29,44,44
India,Uttar_Pradesh,Muzaffarnagar,"New Mandi, Muzaffarnagar - UPPCB",17-06-2024 06:00:00,29.4723508,77.7194031,PM10,164,243,196
India,Uttar_Pradesh,Muzaffarnagar,"New Mandi, Muzaffarnagar - UPPCB",17-06-2024 06:00:00,29.4723508,77.7194031,NO2,8,32,13
India,Uttar_Pradesh,Muzaffarnagar,"New Mandi, Muzaffarnagar - UPPCB",17-06-2024 06:00:00,29.4723508,77.7194031,NH3,10,12,11
India,Uttar_Pradesh,Noida,"Sector - 125, Noida - UPPCB",17-06-2024 06:00:00,28.5447608,77.3231257,OZONE,3,68,4
India,Uttar_Pradesh,Noida,"Sector-1, Noida - UPPCB",17-06-2024 06:00:00,28.5898,77.3101,PM10,141,236,187
India,Uttar_Pradesh,Noida,"Sector-116, Noida - UPPCB",17-06-2024 06:00:00,28.569230,77.393848,NH3,7,19,11
India,Uttar_Pradesh,Noida,"Sector-116, Noida - UPPCB",17-06-2024 06:00:00,28.569230,77.393848,CO,8,125,52
India,Uttar_Pradesh,Prayagraj,"Jhunsi, Prayagraj - UPPCB",17-06-2024 06:00:00,25.425602,81.917152,NO2,6,6,6
India,Uttar_Pradesh,Prayagraj,"Nagar Nigam, Prayagraj - UPPCB",17-06-2024 06:00:00,25.44919916 ,81.82735986 ,NO2,5,5,5
India,Uttar_Pradesh,Varanasi,"Ardhali Bazar, Varanasi - UPPCB",17-06-2024 06:00:00,25.3505986,82.9083074,OZONE,19,22,20
India,Uttar_Pradesh,Varanasi,"Bhelupur, Varanasi - UPPCB",17-06-2024 06:00:00,25.301778,82.996789,OZONE,5,37,13
India,Uttar_Pradesh,Varanasi,"Maldahiya, Varanasi - UPPCB",17-06-2024 06:00:00,25.32393,82.99687,NO2,1,2,2
India,Uttar_Pradesh,Varanasi,"Maldahiya, Varanasi - UPPCB",17-06-2024 06:00:00,25.32393,82.99687,NH3,1,1,1
India,Uttar_Pradesh,Varanasi,"Maldahiya, Varanasi - UPPCB",17-06-2024 06:00:00,25.32393,82.99687,CO,2,30,18
India,Uttar_Pradesh,Vrindavan,"Omex Eternity, Vrindavan - UPPCB",17-06-2024 06:00:00,27.5714090,77.6557570,CO,18,38,31
India,Uttarakhand,Dehradun,"Doon University, Dehradun - UKPCB",17-06-2024 06:00:00,30.269444,78.044167,OZONE,43,172,71
India,Uttarakhand,Kashipur,"Govt. Girls Inter College, Kashipur - UKPCB",17-06-2024 06:00:00,29.2124114,78.9611753,OZONE,18,88,41
India,Uttarakhand,Rishikesh,"Shivaji Nagar, Rishikesh - UKPCB",17-06-2024 06:00:00,30.075911,78.2859547,PM10,NA,NA,NA
India,Uttarakhand,Rishikesh,"Shivaji Nagar, Rishikesh - UKPCB",17-06-2024 06:00:00,30.075911,78.2859547,NH3,NA,NA,NA
India,West_Bengal,Asansol,"Asansol Court Area, Asansol - WBPCB",17-06-2024 06:00:00,23.685297,86.945968,NH3,11,15,12
India,West_Bengal,Asansol,"Asansol Court Area, Asansol - WBPCB",17-06-2024 06:00:00,23.685297,86.945968,CO,12,40,23
India,West_Bengal,Asansol,"Asansol Court Area, Asansol - WBPCB",17-06-2024 06:00:00,23.685297,86.945968,OZONE,31,92,67
India,West_Bengal,Barrackpore,"SVSPA Campus, Barrackpore - WBPCB",17-06-2024 06:00:00,22.7605581,88.3617589,OZONE,23,62,34
India,West_Bengal,Durgapur,"Sidhu Kanhu Indoor Stadium, Durgapur - WBPCB",17-06-2024 06:00:00,23.5404352,87.2892225,SO2,18,100,42
India,West_Bengal,Haldia,"Priyambada Housing Estate, Haldia - WBPCB",17-06-2024 06:00:00,22.06047,88.109737,PM2.5,14,56,26
India,West_Bengal,Howrah,"Ghusuri, Howrah - WBPCB",17-06-2024 06:00:00,22.611968,88.347422,PM2.5,28,68,49
India,West_Bengal,Howrah,"Padmapukur, Howrah - WBPCB",17-06-2024 06:00:00,22.5687319,88.2797276,PM2.5,52,76,65
India,West_Bengal,Howrah,"Padmapukur, Howrah - WBPCB",17-06-2024 06:00:00,22.5687319,88.2797276,NH3,5,8,6
India,West_Bengal,Howrah,"Padmapukur, Howrah - WBPCB",17-06-2024 06:00:00,22.5687319,88.2797276,OZONE,26,42,29
India,West_Bengal,Kolkata,"Bidhannagar, Kolkata - WBPCB",17-06-2024 06:00:00,22.58157048,88.41002457,NH3,8,8,8
India,West_Bengal,Kolkata,"Bidhannagar, Kolkata - WBPCB",17-06-2024 06:00:00,22.58157048,88.41002457,CO,30,35,32
India,West_Bengal,Kolkata,"Fort William, Kolkata - WBPCB",17-06-2024 06:00:00,22.556640,88.342674,PM2.5,47,68,59
India,West_Bengal,Kolkata,"Fort William, Kolkata - WBPCB",17-06-2024 06:00:00,22.556640,88.342674,PM10,44,63,55
India,West_Bengal,Kolkata,"Fort William, Kolkata - WBPCB",17-06-2024 06:00:00,22.556640,88.342674,NO2,10,19,13
India,West_Bengal,Kolkata,"Jadavpur, Kolkata - WBPCB",17-06-2024 06:00:00,22.49929,88.36917,PM2.5,40,57,48
India,West_Bengal,Kolkata,"Rabindra Bharati University, Kolkata - WBPCB",17-06-2024 06:00:00,22.627847,88.380669,PM2.5,17,40,28
India,West_Bengal,Kolkata,"Rabindra Bharati University, Kolkata - WBPCB",17-06-2024 06:00:00,22.627847,88.380669,NO2,6,10,7
India,West_Bengal,Kolkata,"Rabindra Bharati University, Kolkata - WBPCB",17-06-2024 06:00:00,22.627847,88.380669,SO2,8,13,11
India,West_Bengal,Kolkata,"Rabindra Sarobar, Kolkata - WBPCB",17-06-2024 06:00:00,22.51106,88.35142,SO2,7,8,7
India,West_Bengal,Kolkata,"Victoria, Kolkata - WBPCB",17-06-2024 06:00:00,22.5448082,88.3403691,PM2.5,27,48,35
India,West_Bengal,Kolkata,"Victoria, Kolkata - WBPCB",17-06-2024 06:00:00,22.5448082,88.3403691,OZONE,24,39,26
India,West_Bengal,Siliguri,"Ward-32 Bapupara, Siliguri - WBPCB",17-06-2024 06:00:00,26.6879226,88.4152495,PM10,17,41,30
India,West_Bengal,Siliguri,"Ward-32 Bapupara, Siliguri - WBPCB",17-06-2024 06:00:00,26.6879226,88.4152495,NH3,10,10,10
India,West_Bengal,Siliguri,"Ward-32 Bapupara, Siliguri - WBPCB",17-06-2024 06:00:00,26.6879226,88.4152495,SO2,6,9,7
India,Andhra_Pradesh,Amaravati,"Secretariat, Amaravati - APPCB",17-06-2024 06:00:00,16.5150833,80.5181667,NO2,4,11,7
India,Andhra_Pradesh,Anantapur,"Gulzarpet, Anantapur - APPCB",17-06-2024 06:00:00,14.675886,77.593027,PM10,60,193,82
India,Andhra_Pradesh,Anantapur,"Gulzarpet, Anantapur - APPCB",17-06-2024 06:00:00,14.675886,77.593027,NH3,4,4,4
India,Andhra_Pradesh,Anantapur,"Gulzarpet, Anantapur - APPCB",17-06-2024 06:00:00,14.675886,77.593027,SO2,5,7,6
India,Andhra_Pradesh,Chittoor,"Gangineni Cheruvu, Chittoor - APPCB",17-06-2024 06:00:00,13.204880,79.097889,PM2.5,36,95,68
India,Andhra_Pradesh,Chittoor,"Gangineni Cheruvu, Chittoor - APPCB",17-06-2024 06:00:00,13.204880,79.097889,OZONE,51,51,51
India,Andhra_Pradesh,Rajamahendravaram,"Anand Kala Kshetram, Rajamahendravaram - APPCB",17-06-2024 06:00:00,16.9872867,81.7363176,SO2,11,12,11
India,Andhra_Pradesh,Tirupati,"Tirumala, Tirupati - APPCB",17-06-2024 06:00:00,13.67,79.35,NH3,1,2,1
India,Andhra_Pradesh,Tirupati,"Tirumala, Tirupati - APPCB",17-06-2024 06:00:00,13.67,79.35,SO2,2,8,5
India,Andhra_Pradesh,Vijayawada,"Rajiv Gandhi Park, Vijayawada - APPCB",17-06-2024 06:00:00,16.509717,80.612222,NO2,21,34,24
India,Andhra_Pradesh,Vijayawada,"Rajiv Nagar, Vijayawada - APPCB",17-06-2024 06:00:00,16.554731,80.649110,NH3,1,2,2
India,Andhra_Pradesh,Visakhapatnam,"GVM Corporation, Visakhapatnam - APPCB",17-06-2024 06:00:00,17.72,83.3,SO2,NA,NA,NA
India,Andhra_Pradesh,Visakhapatnam,"GVM Corporation, Visakhapatnam - APPCB",17-06-2024 06:00:00,17.72,83.3,CO,NA,NA,NA
India,Assam,Guwahati,"LGBI Airport, Guwahati - PCBA",17-06-2024 06:00:00,26.10887,91.589544,PM2.5,NA,NA,NA
India,Assam,Guwahati,"LGBI Airport, Guwahati - PCBA",17-06-2024 06:00:00,26.10887,91.589544,NH3,1,3,1
India,Assam,Guwahati,"LGBI Airport, Guwahati - PCBA",17-06-2024 06:00:00,26.10887,91.589544,CO,32,52,42
India,Assam,Guwahati,"Pan Bazaar, Guwahati - PCBA",17-06-2024 06:00:00,26.187500,91.744194,OZONE,17,17,17
India,Assam,Guwahati,"Railway Colony, Guwahati - PCBA",17-06-2024 06:00:00,26.181742,91.78063,SO2,1,2,2
India,Assam,Nagaon,"Christianpatty, Nagaon - PCBA",17-06-2024 06:00:00,26.349082,92.68449,CO,26,82,34
India,Assam,Nalbari,"Bata Chowk, Nalbari - PCBA",17-06-2024 06:00:00,26.446912,91.439057,CO,18,36,27
India,Assam,Sivasagar,"Girls College, Sivasagar - PCBA",17-06-2024 06:00:00,26.987634,94.636574,NH3,2,3,3
India,Bihar,Arrah,"New DM Office, Arrah - BSPCB",17-06-2024 06:00:00,25.5626095,84.663264,SO2,6,10,9
India,Bihar,Aurangabad,"Gurdeo Nagar, Aurangabad - BSPCB",17-06-2024 06:00:00,24.75746,84.366208,PM2.5,NA,NA,NA
India,Bihar,Aurangabad,"Gurdeo Nagar, Aurangabad - BSPCB",17-06-2024 06:00:00,24.75746,84.366208,NO2,2,13,6
India,Bihar,Aurangabad,"Gurdeo Nagar, Aurangabad - BSPCB",17-06-2024 06:00:00,24.75746,84.366208,NH3,2,26,14
India,Bihar,Aurangabad,"Gurdeo Nagar, Aurangabad - BSPCB",17-06-2024 06:00:00,24.75746,84.366208,SO2,2,23,17
India,Bihar,Aurangabad,"Gurdeo Nagar, Aurangabad - BSPCB",17-06-2024 06:00:00,24.75746,84.366208,OZONE,35,108,48
India,Bihar,Bettiah,"Kamalnath Nagar, Bettiah - BSPCB",17-06-2024 06:00:00,26.80365,84.51954,PM10,71,250,121
India,Bihar,Bettiah,"Kamalnath Nagar, Bettiah - BSPCB",17-06-2024 06:00:00,26.80365,84.51954,NO2,26,31,27
India,Bihar,Bettiah,"Kamalnath Nagar, Bettiah - BSPCB",17-06-2024 06:00:00,26.80365,84.51954,NH3,37,51,44
India,Bihar,Bhagalpur,"DM Office_Kachari Chowk, Bhagalpur - BSPCB",17-06-2024 06:00:00,25.251013,86.989001,PM10,84,161,113
India,Bihar,Bhagalpur,"DM Office_Kachari Chowk, Bhagalpur - BSPCB",17-06-2024 06:00:00,25.251013,86.989001,NO2,NA,NA,NA
India,Bihar,Bhagalpur,"Mayaganj, Bhagalpur - BSPCB",17-06-2024 06:00:00,25.265194,87.012947,PM10,66,155,98
India,Bihar,Bhagalpur,"Mayaganj, Bhagalpur - BSPCB",17-06-2024 06:00:00,25.265194,87.012947,CO,24,35,28
India,Bihar,Chhapra,"Darshan Nagar, Chhapra - BSPCB",17-06-2024 06:00:00,25.7808257,84.7446768,PM10,48,121,84
India,Bihar,Gaya,"Kareemganj, Gaya - BSPCB",17-06-2024 06:00:00,24.792403,84.992416,PM2.5,45,130,66
India,Bihar,Gaya,"SFTI Kusdihra, Gaya - BSPCB",17-06-2024 06:00:00,24.762518,84.982348,NO2,30,33,31
India,Bihar,Gaya,"SFTI Kusdihra, Gaya - BSPCB",17-06-2024 06:00:00,24.762518,84.982348,NH3,5,5,5
India,Bihar,Manguraha,"Forest Rest House, Manguraha - BSPCB",17-06-2024 06:00:00,27.308328,84.531742,SO2,1,3,2
India,Bihar,Motihari,"Gandak Colony, Motihari - BSPCB",17-06-2024 06:00:00,26.63086,84.90051,NO2,NA,NA,NA
India,Bihar,Motihari,"Gandak Colony, Motihari - BSPCB",17-06-2024 06:00:00,26.63086,84.90051,CO,NA,NA,NA
India,Bihar,Motihari,"Gandak Colony, Motihari - BSPCB",17-06-2024 06:00:00,26.63086,84.90051,OZONE,NA,NA,NA
India,Bihar,Munger,"Town Hall, Munger - BSPCB",17-06-2024 06:00:00,25.376776,86.471523,PM2.5,35,375,132
India,Bihar,Munger,"Town Hall, Munger - BSPCB",17-06-2024 06:00:00,25.376776,86.471523,NH3,3,3,3
India,Bihar,Muzaffarpur,"Buddha Colony, Muzaffarpur - BSPCB",17-06-2024 06:00:00,26.11442,85.39813,NO2,NA,NA,NA
India,Bihar,Muzaffarpur,"Buddha Colony, Muzaffarpur - BSPCB",17-06-2024 06:00:00,26.11442,85.39813,NH3,NA,NA,NA
India,Bihar,Muzaffarpur,"MIT-Daudpur Kothi, Muzaffarpur - BSPCB",17-06-2024 06:00:00,26.1403345,85.3650192,NO2,3,6,5
India,Bihar,Patna,"DRM Office Danapur, Patna - BSPCB",17-06-2024 06:00:00,25.586562,85.043586,NH3,2,3,3
India,Bihar,Patna,"DRM Office Danapur, Patna - BSPCB",17-06-2024 06:00:00,25.586562,85.043586,OZONE,11,67,38
India,Bihar,Patna,"Govt. High School Shikarpur, Patna - BSPCB",17-06-2024 06:00:00,25.592539,85.227158,PM10,78,134,116
India,Bihar,Patna,"Govt. High School Shikarpur, Patna - BSPCB",17-06-2024 06:00:00,25.592539,85.227158,SO2,8,11,10
India,Bihar,Patna,"IGSC Planetarium Complex, Patna - BSPCB",17-06-2024 06:00:00,25.610369,85.132568,PM2.5,81,190,123
India,Bihar,Patna,"IGSC Planetarium Complex, Patna - BSPCB",17-06-2024 06:00:00,25.610369,85.132568,OZONE,93,155,113
India,Bihar,Patna,"Muradpur, Patna - BSPCB",17-06-2024 06:00:00,25.619651,85.147382,NH3,1,12,6
India,Bihar,Patna,"Rajbansi Nagar, Patna - BSPCB",17-06-2024 06:00:00,25.599486,85.113666,SO2,6,17,13
India,Bihar,Purnia,"Mariam Nagar, Purnia - BSPCB",17-06-2024 06:00:00,25.366336,87.117468,NO2,2,18,5
India,Bihar,Rajgir,"Dangi Tola, Rajgir - BSPCB",17-06-2024 06:00:00,25.03280,85.41948,PM10,NA,NA,NA
India,Bihar,Siwan,"Chitragupta Nagar, Siwan - BSPCB",17-06-2024 06:00:00,26.2271665,84.3570427,NO2,NA,NA,NA
India,Chandigarh,Chandigarh,"Sector-25, Chandigarh - CPCC",17-06-2024 06:00:00,30.751462,76.762879,PM2.5,147,236,184
India,Chandigarh,Chandigarh,"Sector-25, Chandigarh - CPCC",17-06-2024 06:00:00,30.751462,76.762879,NO2,6,18,11
India,Chandigarh,Chandigarh,"Sector-25, Chandigarh - CPCC",17-06-2024 06:00:00,30.751462,76.762879,CO,16,24,21
India,Chandigarh,Chandigarh,"Sector-25, Chandigarh - CPCC",17-06-2024 06:00:00,30.751462,76.762879,OZONE,12,47,19
India,Chhattisgarh,Bhilai,"Civic Center, Bhilai - Bhilai Steel Plant",17-06-2024 06:00:00,21.185571,81.343175,PM2.5,19,41,32
India,Chhattisgarh,Bhilai,"Civic Center, Bhilai - Bhilai Steel Plant",17-06-2024 06:00:00,21.185571,81.343175,SO2,10,10,10
India,Chhattisgarh,Bhilai,"Civic Center, Bhilai - Bhilai Steel Plant",17-06-2024 06:00:00,21.185571,81.343175,OZONE,13,68,32
India,Chhattisgarh,Bhilai,"Hathkhoj, Bhilai - CECB",17-06-2024 06:00:00,21.224231,81.408350,NO2,5,23,9
India,Chhattisgarh,Bhilai,"Hathkhoj, Bhilai - CECB",17-06-2024 06:00:00,21.224231,81.408350,SO2,9,12,10
India,Chhattisgarh,Bhilai,"Hathkhoj, Bhilai - CECB",17-06-2024 06:00:00,21.224231,81.408350,CO,8,33,14
India,Chhattisgarh,Bilaspur,"Mangala, Bilaspur - NTPC",17-06-2024 06:00:00,22.08815,82.13737,PM2.5,23,65,37
India,Chhattisgarh,Chhal,"Nawapara SECL Colony, Chhal - CECB",17-06-2024 06:00:00,22.118125,83.140608,NH3,2,2,2
India,Chhattisgarh,Korba,"Rampur, Korba - CECB",17-06-2024 06:00:00,22.368195,82.746431,PM10,32,55,44
India,Chhattisgarh,Korba,"Rampur, Korba - CECB",17-06-2024 06:00:00,22.368195,82.746431,NO2,27,35,32
India,Chhattisgarh,Korba,"Rampur, Korba - CECB",17-06-2024 06:00:00,22.368195,82.746431,CO,14,28,19
India,Chhattisgarh,Korba,"Urja Nagar, Korba - CECB",17-06-2024 06:00:00,22.348441,82.549611,PM2.5,10,189,77
India,Chhattisgarh,Korba,"Urja Nagar, Korba - CECB",17-06-2024 06:00:00,22.348441,82.549611,OZONE,1,3,1
India,Chhattisgarh,Kunjemura,"OP Jindal School, Kunjemura - CECB",17-06-2024 06:00:00,22.126650,83.483212,SO2,1,5,3
India,Chhattisgarh,Kunjemura,"OP Jindal School, Kunjemura - CECB",17-06-2024 06:00:00,22.126650,83.483212,OZONE,4,11,4
India,Chhattisgarh,Raipur,"Bhatagaon New ISBT, Raipur - CECB",17-06-2024 06:00:00,21.219665,81.630094,NH3,2,2,2
India,Chhattisgarh,Raipur,"Bhatagaon New ISBT, Raipur - CECB",17-06-2024 06:00:00,21.219665,81.630094,SO2,4,7,6
India,Chhattisgarh,Raipur,"Krishak Nagar, Raipur - CECB",17-06-2024 06:00:00,21.237755,81.705301,PM10,10,108,61
India,Chhattisgarh,Raipur,"Krishak Nagar, Raipur - CECB",17-06-2024 06:00:00,21.237755,81.705301,OZONE,5,46,17
India,Chhattisgarh,Raipur,"Siltara Phase-II, Raipur - CECB",17-06-2024 06:00:00,21.371751,81.664929,OZONE,4,29,5
India,Chhattisgarh,Tumidih,"OP Jindal Industrial Park, Tumidih - CECB",17-06-2024 06:00:00,22.06631475,83.33820077,SO2,5,6,5
India,Delhi,Delhi,"Alipur, Delhi - DPCC",17-06-2024 06:00:00,28.815329,77.153010,SO2,5,60,29
India,Delhi,Delhi,"Alipur, Delhi - DPCC",17-06-2024 06:00:00,28.815329,77.153010,CO,24,56,45
India,Delhi,Delhi,"Anand Vihar, Delhi - DPCC",17-06-2024 06:00:00,28.647622,77.3158090,NH3,NA,NA,NA
India,Delhi,Delhi,"Ashok Vihar, Delhi - DPCC",17-06-2024 06:00:00,28.695381,77.181665,NO2,20,119,53
India,Delhi,Delhi,"Ashok Vihar, Delhi - DPCC",17-06-2024 06:00:00,28.695381,77.181665,OZONE,4,85,16
India,Delhi,Delhi,"Aya Nagar, Delhi - IMD",17-06-2024 06:00:00,28.4706914,77.1099364,OZONE,2,34,8
India,Delhi,Delhi,"Chandni Chowk, Delhi - IITM",17-06-2024 06:00:00,28.656756,77.227234,PM10,148,233,184
India,Delhi,Delhi,"Chandni Chowk, Delhi - IITM",17-06-2024 06:00:00,28.656756,77.227234,SO2,NA,NA,NA
India,Delhi,Delhi,"DTU, Delhi - CPCB",17-06-2024 06:00:00,28.7500499,77.1112615,NO2,25,27,26
India,Delhi,Delhi,"DTU, Delhi - CPCB",17-06-2024 06:00:00,28.7500499,77.1112615,NH3,7,8,7
India,Delhi,Delhi,"Dr. Karni Singh Shooting Range, Delhi - DPCC",17-06-2024 06:00:00,28.498571,77.264840,SO2,9,28,15
India,Delhi,Delhi,"Dr. Karni Singh Shooting Range, Delhi - DPCC",17-06-2024 06:00:00,28.498571,77.264840,CO,22,84,47
India,Delhi,Delhi,"Dwarka-Sector 8, Delhi - DPCC ",17-06-2024 06:00:00,28.5710274,77.0719006,SO2,12,54,25
India,Delhi,Delhi,"IGI Airport (T3), Delhi - IMD",17-06-2024 06:00:00,28.5627763,77.1180053,NO2,15,47,26
India,Delhi,Delhi,"IGI Airport (T3), Delhi - IMD",17-06-2024 06:00:00,28.5627763,77.1180053,OZONE,2,34,3
India,Delhi,Delhi,"ITO, Delhi - CPCB",17-06-2024 06:00:00,28.628624,77.241060,NO2,12,85,39
India,Delhi,Delhi,"Jawaharlal Nehru Stadium, Delhi - DPCC",17-06-2024 06:00:00,28.580280,77.233829,PM2.5,18,85,48
India,Delhi,Delhi,"Jawaharlal Nehru Stadium, Delhi - DPCC",17-06-2024 06:00:00,28.580280,77.233829,NO2,14,123,57
India,Delhi,Delhi,"Jawaharlal Nehru Stadium, Delhi - DPCC",17-06-2024 06:00:00,28.580280,77.233829,NH3,6,10,8
India,Delhi,Delhi,"Jawaharlal Nehru Stadium, Delhi - DPCC",17-06-2024 06:00:00,28.580280,77.233829,OZONE,2,120,10
India,Delhi,Delhi,"Major Dhyan Chand National Stadium, Delhi - DPCC",17-06-2024 06:00:00,28.611281,77.237738,NO2,8,119,48
India,Delhi,Delhi,"Major Dhyan Chand National Stadium, Delhi - DPCC",17-06-2024 06:00:00,28.611281,77.237738,CO,12,98,47
India,Delhi,Delhi,"Mandir Marg, Delhi - DPCC",17-06-2024 06:00:00,28.636429,77.201067,CO,42,73,60
India,Delhi,Delhi,"Mundka, Delhi - DPCC",17-06-2024 06:00:00,28.684678,77.076574,SO2,9,81,28
India,Delhi,Delhi,"NSIT Dwarka, Delhi - CPCB",17-06-2024 06:00:00,28.60909,77.0325413,PM2.5,67,185,118
India,Delhi,Delhi,"NSIT Dwarka, Delhi - CPCB",17-06-2024 06:00:00,28.60909,77.0325413,SO2,6,36,17
India,Delhi,Delhi,"Narela, Delhi - DPCC",17-06-2024 06:00:00,28.822836,77.101981,NO2,4,72,25
India,Delhi,Delhi,"Narela, Delhi - DPCC",17-06-2024 06:00:00,28.822836,77.101981,NH3,5,7,6
India,Delhi,Delhi,"Narela, Delhi - DPCC",17-06-2024 06:00:00,28.822836,77.101981,CO,28,56,51
India,Delhi,Delhi,"Nehru Nagar, Delhi - DPCC",17-06-2024 06:00:00,28.567890,77.250515,PM10,125,205,154
India,Delhi,Delhi,"Nehru Nagar, Delhi - DPCC",17-06-2024 06:00:00,28.567890,77.250515,OZONE,1,131,8
India,Delhi,Delhi,"North Campus, DU, Delhi - IMD",17-06-2024 06:00:00,28.6573814,77.1585447,OZONE,16,123,41
India,Delhi,Delhi,"Okhla Phase-2, Delhi - DPCC",17-06-2024 06:00:00,28.530785,77.271255,PM2.5,30,103,63
India,Delhi,Delhi,"Okhla Phase-2, Delhi - DPCC",17-06-2024 06:00:00,28.530785,77.271255,PM10,133,216,172
India,Delhi,Delhi,"Okhla Phase-2, Delhi - DPCC",17-06-2024 06:00:00,28.530785,77.271255,SO2,7,13,10
India,Delhi,Delhi,"Patparganj, Delhi - DPCC",17-06-2024 06:00:00,28.623763,77.287209,PM10,166,305,217
India,Delhi,Delhi,"Pusa, Delhi - DPCC",17-06-2024 06:00:00,28.639652,77.146275,PM10,141,281,192
India,Delhi,Delhi,"Pusa, Delhi - DPCC",17-06-2024 06:00:00,28.639652,77.146275,OZONE,6,63,13
India,Delhi,Delhi,"Pusa, Delhi - IMD",17-06-2024 06:00:00,28.636110,77.173332,NO2,10,28,16
India,Delhi,Delhi,"Shadipur, Delhi - CPCB",17-06-2024 06:00:00,28.6514781,77.1473105,PM2.5,226,364,300
India,Delhi,Delhi,"Shadipur, Delhi - CPCB",17-06-2024 06:00:00,28.6514781,77.1473105,SO2,10,31,19
India,Delhi,Delhi,"Sirifort, Delhi - CPCB",17-06-2024 06:00:00,28.5504249,77.2159377,NH3,19,24,21
India,Delhi,Delhi,"Sonia Vihar, Delhi - DPCC",17-06-2024 06:00:00,28.710508,77.249485,PM2.5,65,65,65
India,Delhi,Delhi,"Sonia Vihar, Delhi - DPCC",17-06-2024 06:00:00,28.710508,77.249485,NO2,14,85,37
India,Delhi,Delhi,"Sonia Vihar, Delhi - DPCC",17-06-2024 06:00:00,28.710508,77.249485,NH3,4,10,6
India,Delhi,Delhi,"Sonia Vihar, Delhi - DPCC",17-06-2024 06:00:00,28.710508,77.249485,CO,4,94,43
India,Delhi,Delhi,"Sonia Vihar, Delhi - DPCC",17-06-2024 06:00:00,28.710508,77.249485,OZONE,5,116,19
India,Delhi,Delhi,"Sri Aurobindo Marg, Delhi - DPCC",17-06-2024 06:00:00,28.531346,77.190156,PM2.5,37,118,65
India,Delhi,Delhi,"Vivek Vihar, Delhi - DPCC",17-06-2024 06:00:00,28.672342,77.315260,PM10,152,252,196
India,Gujarat,Ahmedabad,"Chandkheda, Ahmedabad - IITM",17-06-2024 06:00:00,23.107969,72.574648,NH3,4,5,5
India,Gujarat,Ahmedabad,"Chandkheda, Ahmedabad - IITM",17-06-2024 06:00:00,23.107969,72.574648,CO,18,65,56
India,Gujarat,Ahmedabad,"Gyaspur, Ahmedabad - IITM",17-06-2024 06:00:00,22.977134,72.553024,NO2,32,58,43
India,Gujarat,Ahmedabad,"Gyaspur, Ahmedabad - IITM",17-06-2024 06:00:00,22.977134,72.553024,CO,40,55,50
India,Gujarat,Ahmedabad,"Raikhad, Ahmedabad - IITM",17-06-2024 06:00:00,23.020509,72.579261,PM10,53,238,140
India,Gujarat,Ahmedabad,"Rakhial, Ahmedabad - IITM",17-06-2024 06:00:00,23.016834,72.625775,NH3,9,57,23
India,Gujarat,Ahmedabad,"Rakhial, Ahmedabad - IITM",17-06-2024 06:00:00,23.016834,72.625775,SO2,15,30,23
India,Gujarat,Ahmedabad,"Rakhial, Ahmedabad - IITM",17-06-2024 06:00:00,23.016834,72.625775,CO,33,62,40
India,Gujarat,Ahmedabad,"Rakhial, Ahmedabad - IITM",17-06-2024 06:00:00,23.016834,72.625775,OZONE,5,73,14
India,Gujarat,Ankleshwar,"GIDC, Ankleshwar - GPCB",17-06-2024 06:00:00,21.613267,73.010555,NO2,26,36,30
India,Gujarat,Ankleshwar,"GIDC, Ankleshwar - GPCB",17-06-2024 06:00:00,21.613267,73.010555,CO,30,106,84
India,Gujarat,Gandhinagar,"GIFT City, Gandhinagar - IITM",17-06-2024 06:00:00,23.163798,72.677768,NO2,17,28,22
India,Gujarat,Gandhinagar,"Sector-10, Gandhinagar - GPCB",17-06-2024 06:00:00,23.221714,72.654328,PM2.5,19,43,31
India,Gujarat,Surat,"Science Center, Surat - SMC",17-06-2024 06:00:00,21.170046,72.795405,CO,64,72,67
India,Gujarat,Vapi,"Phase-1 GIDC, Vapi - GPCB",17-06-2024 06:00:00,20.362421,72.918013,NO2,NA,NA,NA
India,Gujarat,Vatva,"Phase-4 GIDC, Vatva - GPCB",17-06-2024 06:00:00,22.969611,72.643500,SO2,5,14,9
India,Haryana,Ambala,"Patti Mehar, Ambala - HSPCB",17-06-2024 06:00:00,30.379589,76.778328,CO,30,58,38
India,Haryana,Bahadurgarh,"Arya Nagar, Bahadurgarh - HSPCB",17-06-2024 06:00:00,28.6701,76.9254,NH3,8,10,9
India,Haryana,Bahadurgarh,"Arya Nagar, Bahadurgarh - HSPCB",17-06-2024 06:00:00,28.6701,76.9254,SO2,2,75,16
India,Haryana,Ballabgarh,"Nathu Colony, Ballabgarh - HSPCB",17-06-2024 06:00:00,28.3419248,77.319699,PM2.5,84,331,206
India,Haryana,Bhiwani,"H.B. Colony, Bhiwani - HSPCB",17-06-2024 06:00:00,28.806223,76.141105,PM2.5,69,126,92
India,Haryana,Bhiwani,"H.B. Colony, Bhiwani - HSPCB",17-06-2024 06:00:00,28.806223,76.141105,PM10,85,115,103
India,Haryana,Bhiwani,"H.B. Colony, Bhiwani - HSPCB",17-06-2024 06:00:00,28.806223,76.141105,NO2,2,11,8
India,Haryana,Bhiwani,"H.B. Colony, Bhiwani - HSPCB",17-06-2024 06:00:00,28.806223,76.141105,NH3,6,6,6
India,Haryana,Charkhi Dadri,"Mini Secretariat, Charkhi Dadri - HSPCB",17-06-2024 06:00:00,28.593883,76.270653,PM2.5,54,145,87
India,Haryana,Charkhi Dadri,"Mini Secretariat, Charkhi Dadri - HSPCB",17-06-2024 06:00:00,28.593883,76.270653,SO2,NA,NA,NA
India,Haryana,Charkhi Dadri,"Mini Secretariat, Charkhi Dadri - HSPCB",17-06-2024 06:00:00,28.593883,76.270653,CO,6,97,59
India,Haryana,Faridabad,"New Industrial Town, Faridabad - HSPCB",17-06-2024 06:00:00,28.39072,77.30059,PM2.5,179,330,301
India,Haryana,Faridabad,"New Industrial Town, Faridabad - HSPCB",17-06-2024 06:00:00,28.39072,77.30059,NO2,4,4,4
India,Haryana,Faridabad,"Sector 11, Faridabad - HSPCB",17-06-2024 06:00:00,28.376058,77.315741,PM2.5,77,353,278
India,Haryana,Faridabad,"Sector 30, Faridabad - HSPCB",17-06-2024 06:00:00,28.4417,77.3217,SO2,NA,NA,NA
India,Haryana,Fatehabad,"Huda Sector, Fatehabad - HSPCB",17-06-2024 06:00:00,29.503664,75.467934,NO2,29,31,30
India,Haryana,Fatehabad,"Huda Sector, Fatehabad - HSPCB",17-06-2024 06:00:00,29.503664,75.467934,NH3,9,10,10
India,Haryana,Gurugram,"NISE Gwal Pahari, Gurugram - IMD",17-06-2024 06:00:00,28.422681,77.148944,NO2,4,17,9
India,Haryana,Gurugram,"NISE Gwal Pahari, Gurugram - IMD",17-06-2024 06:00:00,28.422681,77.148944,CO,64,84,80
India,Haryana,Gurugram,"Sector-51, Gurugram - HSPCB",17-06-2024 06:00:00,28.4227,77.0667,NO2,13,29,23
India,Haryana,Gurugram,"Sector-51, Gurugram - HSPCB",17-06-2024 06:00:00,28.4227,77.0667,SO2,2,6,3
India,Haryana,Gurugram,"Teri Gram, Gurugram - HSPCB",17-06-2024 06:00:00,28.4275,77.1465,PM10,134,231,172
India,Haryana,Hisar,"Urban Estate-II, Hisar - HSPCB",17-06-2024 06:00:00,29.140560,75.744941,NH3,3,4,4
India,Haryana,Jind,"Police Lines, Jind - HSPCB",17-06-2024 06:00:00,29.307814,76.337619,PM10,98,135,120
India,Haryana,Jind,"Police Lines, Jind - HSPCB",17-06-2024 06:00:00,29.307814,76.337619,NH3,NA,NA,NA
India,Haryana,Jind,"Police Lines, Jind - HSPCB",17-06-2024 06:00:00,29.307814,76.337619,CO,2,82,38
India,Haryana,Kaithal,"Rishi Nagar, Kaithal - HSPCB",17-06-2024 06:00:00,29.8006,76.4155,NO2,NA,NA,NA
India,Haryana,Kaithal,"Rishi Nagar, Kaithal - HSPCB",17-06-2024 06:00:00,29.8006,76.4155,CO,NA,NA,NA
India,Haryana,Karnal,"Sector-12, Karnal - HSPCB",17-06-2024 06:00:00,29.695300,77.002700,PM10,96,133,117
India,Haryana,Karnal,"Sector-12, Karnal - HSPCB",17-06-2024 06:00:00,29.695300,77.002700,OZONE,25,32,26
India,Haryana,Narnaul,"Shastri Nagar, Narnaul - HSPCB",17-06-2024 06:00:00,28.060249,76.113115,PM10,26,50,37
India,Haryana,Narnaul,"Shastri Nagar, Narnaul - HSPCB",17-06-2024 06:00:00,28.060249,76.113115,OZONE,24,54,45
India,Haryana,Panipat,"Sector-18, Panipat - HSPCB",17-06-2024 06:00:00,29.432304,76.972765,PM10,103,105,104
India,Haryana,Panipat,"Sector-18, Panipat - HSPCB",17-06-2024 06:00:00,29.432304,76.972765,NO2,31,32,31
India,Haryana,Panipat,"Sector-18, Panipat - HSPCB",17-06-2024 06:00:00,29.432304,76.972765,SO2,18,20,19
India,Haryana,Panipat,"Sector-18, Panipat - HSPCB",17-06-2024 06:00:00,29.432304,76.972765,CO,24,26,25
India,Haryana,Rohtak,"MD University, Rohtak - HSPCB",17-06-2024 06:00:00,28.52123,76.37138,SO2,5,8,7
India,Haryana,Rohtak,"MD University, Rohtak - HSPCB",17-06-2024 06:00:00,28.52123,76.37138,CO,6,50,41
India,Haryana,Sirsa,"F-Block, Sirsa - HSPCB",17-06-2024 06:00:00,29.536400,75.015800,PM10,62,93,75
India,Haryana,Sonipat,"Murthal, Sonipat - HSPCB",17-06-2024 06:00:00,29.027200,77.062100,NH3,6,10,9
India,Haryana,Sonipat,"Murthal, Sonipat - HSPCB",17-06-2024 06:00:00,29.027200,77.062100,SO2,12,29,20
India,Haryana,Yamuna Nagar,"Gobind Pura, Yamuna Nagar - HSPCB",17-06-2024 06:00:00,30.1480566,77.2893471,NH3,1,6,4
India,Haryana,Yamuna Nagar,"Gobind Pura, Yamuna Nagar - HSPCB",17-06-2024 06:00:00,30.1480566,77.2893471,OZONE,25,39,28
India,Himachal Pradesh,Baddi,"HIMUDA Complex Phase-1, Baddi - HPPCB",17-06-2024 06:00:00,30.943887,76.801991,SO2,11,105,38
India,Jharkhand,Dhanbad,"Kalakusuma, Dhanbad - DMC",17-06-2024 06:00:00,23.811548,86.481238,PM2.5,NA,NA,NA
India,Jharkhand,Dhanbad,"Kalakusuma, Dhanbad - DMC",17-06-2024 06:00:00,23.811548,86.481238,PM10,103,151,147
India,Karnataka,Bagalkot,"Vidayagiri, Bagalkot - KSPCB",17-06-2024 06:00:00,16.172806,75.659694,NH3,1,2,1
India,Karnataka,Bengaluru,"Bapuji Nagar, Bengaluru - KSPCB",17-06-2024 06:00:00,12.951913,77.539784,PM2.5,12,51,22
India,Karnataka,Bengaluru,"City Railway Station, Bengaluru - KSPCB",17-06-2024 06:00:00,12.9756843,77.5660749,NO2,37,47,42
India,Karnataka,Bengaluru,"City Railway Station, Bengaluru - KSPCB",17-06-2024 06:00:00,12.9756843,77.5660749,CO,55,78,63
India,Karnataka,Bengaluru,"Hebbal, Bengaluru - KSPCB",17-06-2024 06:00:00,13.029152,77.585901,PM10,8,34,22
India,Karnataka,Bengaluru,"Hombegowda Nagar, Bengaluru - KSPCB",17-06-2024 06:00:00,12.938539,77.590100,OZONE,11,26,18
India,Karnataka,Bengaluru,"Jigani, Bengaluru - KSPCB",17-06-2024 06:00:00,12.7816279,77.6299145,PM2.5,37,38,37
India,Karnataka,Bengaluru,"Jigani, Bengaluru - KSPCB",17-06-2024 06:00:00,12.7816279,77.6299145,SO2,11,12,11
India,Karnataka,Bengaluru,"Kasturi Nagar, Bengaluru - KSPCB",17-06-2024 06:00:00,13.003872,77.664217,PM2.5,30,38,33
India,Karnataka,Bengaluru,"Sanegurava Halli, Bengaluru - KSPCB",17-06-2024 06:00:00,12.990328,77.5431385,SO2,2,3,3
India,Karnataka,Bengaluru,"Shivapura_Peenya, Bengaluru - KSPCB",17-06-2024 06:00:00,13.0246342,77.5080115,PM2.5,21,63,37
India,Karnataka,Bengaluru,"Shivapura_Peenya, Bengaluru - KSPCB",17-06-2024 06:00:00,13.0246342,77.5080115,PM10,22,67,39
India,Karnataka,Bengaluru,"Shivapura_Peenya, Bengaluru - KSPCB",17-06-2024 06:00:00,13.0246342,77.5080115,NH3,4,4,4
India,Karnataka,Chikkaballapur,"Chikkaballapur Rural, Chikkaballapur - KSPCB",17-06-2024 06:00:00,13.428828,77.731418,PM2.5,4,21,10
India,Karnataka,Chikkamagaluru,"Kalyana Nagara, Chikkamagaluru - KSPCB",17-06-2024 06:00:00,13.328028,75.797056,SO2,1,7,3
India,Karnataka,Gadag,"Panchal Nagar, Gadag - KSPCB",17-06-2024 06:00:00,15.411456,75.638133,PM2.5,2,15,7
India,Karnataka,Gadag,"Panchal Nagar, Gadag - KSPCB",17-06-2024 06:00:00,15.411456,75.638133,OZONE,7,8,7
India,Karnataka,Hassan,"B.Katihalli, Hassan - KSPCB",17-06-2024 06:00:00,13.008556,76.125258,NH3,NA,NA,NA
India,Karnataka,Hassan,"B.Katihalli, Hassan - KSPCB",17-06-2024 06:00:00,13.008556,76.125258,SO2,NA,NA,NA
India,Karnataka,Haveri,"Ashwini Nagar, Haveri - KSPCB",17-06-2024 06:00:00,14.791800,75.389600,OZONE,NA,NA,NA
India,Karnataka,Hubballi,"Lingaraj Nagar, Hubballi - KSPCB",17-06-2024 06:00:00,15.3714823,75.1160168,NH3,2,4,2
India,Karnataka,Hubballi,"Lingaraj Nagar, Hubballi - KSPCB",17-06-2024 06:00:00,15.3714823,75.1160168,SO2,1,13,1
India,Karnataka,Hubballi,"Lingaraj Nagar, Hubballi - KSPCB",17-06-2024 06:00:00,15.3714823,75.1160168,OZONE,13,19,16
India,Karnataka,Kalaburagi,"Mahatma Basaveswar Colony, Kalaburgi - KSPCB",17-06-2024 06:00:00,17.336318,76.847397,NO2,NA,NA,NA
India,Karnataka,Kalaburagi,"Mahatma Basaveswar Colony, Kalaburgi - KSPCB",17-06-2024 06:00:00,17.336318,76.847397,CO,NA,NA,NA
India,Karnataka,Kalaburagi,"Mahatma Basaveswar Colony, Kalaburgi - KSPCB",17-06-2024 06:00:00,17.336318,76.847397,OZONE,NA,NA,NA
India,Karnataka,Madikeri,"Stuart Hill, Madikeri - KSPCB",17-06-2024 06:00:00,12.415911,75.735050,PM10,12,30,24
India,Karnataka,Madikeri,"Stuart Hill, Madikeri - KSPCB",17-06-2024 06:00:00,12.415911,75.735050,NH3,NA,NA,NA
India,Karnataka,Mangalore,"Kadri, Mangalore - KSPCB",17-06-2024 06:00:00,12.889250,74.853000,PM2.5,18,60,30
India,Karnataka,Mangalore,"Kadri, Mangalore - KSPCB",17-06-2024 06:00:00,12.889250,74.853000,NH3,2,2,2
India,Karnataka,Ramanagara,"Vijay Nagar, Ramanagara - KSPCB",17-06-2024 06:00:00,12.733409,77.298051,NO2,8,27,12
India,Karnataka,Shivamogga,"Vinoba Nagara, Shivamogga - KSPCB",17-06-2024 06:00:00,13.940000,75.555917,PM10,30,68,39
India,Karnataka,Shivamogga,"Vinoba Nagara, Shivamogga - KSPCB",17-06-2024 06:00:00,13.940000,75.555917,NH3,2,28,5
India,Karnataka,Yadgir,"Collector Office, Yadgir - KSPCB",17-06-2024 06:00:00,16.7602,77.1428,PM2.5,NA,NA,NA
India,Kerala,Kollam,"Polayathode, Kollam - Kerala PCB",17-06-2024 06:00:00,8.8787,76.6073,PM2.5,39,142,86
India,Kerala,Kollam,"Polayathode, Kollam - Kerala PCB",17-06-2024 06:00:00,8.8787,76.6073,NO2,8,9,8
India,Kerala,Thiruvananthapuram,"Kariavattom, Thiruvananthapuram - Kerala PCB",17-06-2024 06:00:00,8.563700,76.886500,CO,18,44,26
India,Kerala,Thiruvananthapuram,"Kariavattom, Thiruvananthapuram - Kerala PCB",17-06-2024 06:00:00,8.563700,76.886500,OZONE,36,37,36
India,Kerala,Thiruvananthapuram,"Plammoodu, Thiruvananthapuram - Kerala PCB",17-06-2024 06:00:00,8.5149093,76.9435879,SO2,1,17,9
India,Kerala,Thiruvananthapuram,"Plammoodu, Thiruvananthapuram - Kerala PCB",17-06-2024 06:00:00,8.5149093,76.9435879,CO,2,36,23
India,Kerala,Thrissur,"Corporation Ground, Thrissur - Kerala PCB",17-06-2024 06:00:00,10.532400,76.215900,NH3,NA,NA,NA
India,Kerala,Thrissur,"Corporation Ground, Thrissur - Kerala PCB",17-06-2024 06:00:00,10.532400,76.215900,SO2,NA,NA,NA
India,Madhya Pradesh,Bhopal,"Idgah Hills, Bhopal - MPPCB",17-06-2024 06:00:00,23.264759,77.381568,PM10,NA,NA,NA
India,Madhya Pradesh,Bhopal,"Idgah Hills, Bhopal - MPPCB",17-06-2024 06:00:00,23.264759,77.381568,NO2,NA,NA,NA
India,Madhya Pradesh,Bhopal,"Idgah Hills, Bhopal - MPPCB",17-06-2024 06:00:00,23.264759,77.381568,CO,NA,NA,NA
India,Madhya Pradesh,Bhopal,"Paryavaran Parisar, Bhopal - MPPCB",17-06-2024 06:00:00,23.210494,77.425409,OZONE,37,94,51
India,Madhya Pradesh,Bhopal,"T T Nagar, Bhopal - MPPCB",17-06-2024 06:00:00,23.233584,77.400574,PM10,50,120,77
India,Madhya Pradesh,Bhopal,"T T Nagar, Bhopal - MPPCB",17-06-2024 06:00:00,23.233584,77.400574,NH3,5,8,6
India,Madhya Pradesh,Dewas,"Bhopal Chauraha, Dewas - MPPCB",17-06-2024 06:00:00,22.9682591,76.064118,NO2,12,14,13
India,Madhya Pradesh,Gwalior,"City Center, Gwalior - MPPCB",17-06-2024 06:00:00,26.203442,78.193251,CO,33,64,44
India,Madhya Pradesh,Gwalior,"City Center, Gwalior - MPPCB",17-06-2024 06:00:00,26.203442,78.193251,OZONE,43,91,77
India,Madhya Pradesh,Gwalior,"Deen Dayal Nagar, Gwalior - MPPCB",17-06-2024 06:00:00,26.259242,78.216432,PM10,53,197,110
India,Madhya Pradesh,Gwalior,"Deen Dayal Nagar, Gwalior - MPPCB",17-06-2024 06:00:00,26.259242,78.216432,SO2,11,30,17
India,Madhya Pradesh,Gwalior,"Deen Dayal Nagar, Gwalior - MPPCB",17-06-2024 06:00:00,26.259242,78.216432,CO,38,101,74
India,Madhya Pradesh,Gwalior,"Phool Bagh, Gwalior - Mondelez Ind. Food",17-06-2024 06:00:00,26.210536,78.171,NO2,4,5,4
India,Madhya Pradesh,Indore,"Chhoti Gwaltoli, Indore - MPPCB",17-06-2024 06:00:00,22.4310,75.5213,OZONE,15,60,26
India,Madhya Pradesh,Indore,"Maguda Nagar, Indore - IMC",17-06-2024 06:00:00,22.7524,75.8872,PM10,NA,NA,NA
India,Madhya Pradesh,Indore,"Residency Area, Indore - IMC",17-06-2024 06:00:00,22.7084,75.8815,PM2.5,23,53,34
India,Madhya Pradesh,Jabalpur,"Govindh Bhavan Colony, Jabalpur - JMC",17-06-2024 06:00:00,23.163174,79.973061,PM10,NA,NA,NA
India,Madhya Pradesh,Jabalpur,"Gupteshwar, Jabalpur - JMC",17-06-2024 06:00:00,23.142888,79.916147,PM2.5,50,75,59
India,Madhya Pradesh,Jabalpur,"Gupteshwar, Jabalpur - JMC",17-06-2024 06:00:00,23.142888,79.916147,CO,12,33,22
India,Madhya Pradesh,Jabalpur,"Marhatal, Jabalpur - MPPCB",17-06-2024 06:00:00,23.168606,79.932247,NO2,8,46,20
India,Madhya Pradesh,Jabalpur,"Marhatal, Jabalpur - MPPCB",17-06-2024 06:00:00,23.168606,79.932247,NH3,4,5,4
India,Madhya Pradesh,Jabalpur,"Marhatal, Jabalpur - MPPCB",17-06-2024 06:00:00,23.168606,79.932247,OZONE,15,49,29
India,Madhya Pradesh,Katni,"Gole Bazar, Katni - MPPCB",17-06-2024 06:00:00,23.50016,80.23284,NO2,22,45,31
India,Madhya Pradesh,Katni,"Gole Bazar, Katni - MPPCB",17-06-2024 06:00:00,23.50016,80.23284,SO2,8,42,22
India,Madhya Pradesh,Mandideep,"Sector-D Industrial Area, Mandideep - MPPCB",17-06-2024 06:00:00,23.108440,77.511428,OZONE,4,25,9
India,Madhya Pradesh,Pithampur,"Sector-2 Industrial Area, Pithampur - MPPCB",17-06-2024 06:00:00,22.624758,75.675238,NH3,5,8,6
India,Madhya Pradesh,Pithampur,"Sector-2 Industrial Area, Pithampur - MPPCB",17-06-2024 06:00:00,22.624758,75.675238,OZONE,17,95,33
India,Madhya Pradesh,Sagar,"Civil Lines, Sagar - MPPCB",17-06-2024 06:00:00,23.838586,78.759431,PM2.5,16,38,28
India,Madhya Pradesh,Sagar,"Civil Lines, Sagar - MPPCB",17-06-2024 06:00:00,23.838586,78.759431,NO2,6,14,10
India,Madhya Pradesh,Sagar,"Civil Lines, Sagar - MPPCB",17-06-2024 06:00:00,23.838586,78.759431,OZONE,56,121,78
India,Madhya Pradesh,Sagar,"Deen Dayal Nagar, Sagar - MPPCB",17-06-2024 06:00:00,23.8640158,78.80289321,NO2,17,24,23
India,Madhya Pradesh,Sagar,"Deen Dayal Nagar, Sagar - MPPCB",17-06-2024 06:00:00,23.8640158,78.80289321,CO,48,64,60
India,Madhya Pradesh,Satna,"Bandhavgar Colony, Satna - Birla Cement",17-06-2024 06:00:00,24.58434363,80.8549414,NO2,25,45,30
India,Madhya Pradesh,Singrauli,"Suryakiran Bhawan NCL, Singrauli - MPPCB",17-06-2024 06:00:00,24.108970,82.645580,PM2.5,NA,NA,NA
India,Madhya Pradesh,Ujjain,"Mahakaleshwar Temple, Ujjain - MPPCB",17-06-2024 06:00:00,23.182719 ,75.768218 ,NO2,10,23,16
India,Madhya Pradesh,Ujjain,"Mahakaleshwar Temple, Ujjain - MPPCB",17-06-2024 06:00:00,23.182719 ,75.768218 ,NH3,3,20,9
India,Madhya Pradesh,Ujjain,"Mahakaleshwar Temple, Ujjain - MPPCB",17-06-2024 06:00:00,23.182719 ,75.768218 ,OZONE,67,75,72
India,Maharashtra,Ahmednagar,"Tarakpur, Ahmednagar - MPCB",17-06-2024 06:00:00,19.10122,74.73339,NO2,9,32,16
India,Maharashtra,Ahmednagar,"Tarakpur, Ahmednagar - MPCB",17-06-2024 06:00:00,19.10122,74.73339,CO,24,52,27
India,Maharashtra,Akola,"Ramdaspeth, Akola - MPCB",17-06-2024 06:00:00,20.719516,77.000253,NO2,5,42,16
India,Maharashtra,Akola,"Ramdaspeth, Akola - MPCB",17-06-2024 06:00:00,20.719516,77.000253,SO2,14,27,17
India,Maharashtra,Akola,"Ramdaspeth, Akola - MPCB",17-06-2024 06:00:00,20.719516,77.000253,OZONE,13,41,29
India,Maharashtra,Amravati,"Shri Shivaji Science College, Amaravati - MPCB",17-06-2024 06:00:00,20.939198,77.765701,PM10,31,65,47
India,Maharashtra,Amravati,"Shri Shivaji Science College, Amaravati - MPCB",17-06-2024 06:00:00,20.939198,77.765701,NH3,3,4,3
India,Maharashtra,Aurangabad,"MIDC Chilkalthana, Aurangabad - MPCB",17-06-2024 06:00:00,19.875620,75.387310,CO,22,112,35
India,Maharashtra,Aurangabad,"More Chowk Waluj, Aurangabad - MPCB",17-06-2024 06:00:00,19.8389439,75.244448,NH3,1,1,1
India,Maharashtra,Aurangabad,"More Chowk Waluj, Aurangabad - MPCB",17-06-2024 06:00:00,19.8389439,75.244448,CO,2,110,4
India,Maharashtra,Aurangabad,"More Chowk Waluj, Aurangabad - MPCB",17-06-2024 06:00:00,19.8389439,75.244448,OZONE,19,63,34
India,Maharashtra,Badlapur,"Katrap, Badlapur - MPCB",17-06-2024 06:00:00,19.16485,73.23409,PM10,73,162,114
