country,state,city,station,last_update,latitude,longitude,pollutant_id,pollutant_min,pollutant_max,pollutant_avg
India,Andhra_Pradesh,Amaravati,"Secretariat, Amaravati - APPCB",13-03-2024 02:00:00,16.5150833,80.5181667,NH3,4,5,4
India,Andhra_Pradesh,Amaravati,"Secretariat, Amaravati - APPCB",13-03-2024 02:00:00,16.5150833,80.5181667,CO,26,48,37
India,Andhra_Pradesh,Anantapur,"Gulzarpet, Anantapur - APPCB",13-03-2024 02:00:00,14.675886,77.593027,CO,26,56,37
India,Andhra_Pradesh,Rajamahendravaram,"Anand Kala Kshetram, Rajamahendravaram - APPCB",13-03-2024 02:00:00,16.9872867,81.7363176,SO2,11,13,12
India,Andhra_Pradesh,Rajamahendravaram,"Anand Kala Kshetram, Rajamahendravaram - APPCB",13-03-2024 02:00:00,16.9872867,81.7363176,OZONE,16,33,25
India,Andhra_Pradesh,Tirupati,"Tirumala, Tirupati - APPCB",13-03-2024 02:00:00,13.67,79.35,PM10,48,118,80
India,Andhra_Pradesh,Tirupati,"Tirumala, Tirupati - APPCB",13-03-2024 02:00:00,13.67,79.35,OZONE,25,70,42
India,Andhra_Pradesh,Tirupati,"Vaikuntapuram, Tirupati - APPCB",13-03-2024 02:00:00,13.615387,79.409230,OZONE,NA,NA,NA
India,Andhra_Pradesh,Vijayawada,"Kanuru, Vijayawada - APPCB",13-03-2024 02:00:00,16.486692,80.699436,SO2,7,12,10
India,Andhra_Pradesh,Vijayawada,"Rajiv Gandhi Park, Vijayawada - APPCB",13-03-2024 02:00:00,16.509717,80.612222,PM10,45,74,60
India,Andhra_Pradesh,Vijayawada,"Rajiv Gandhi Park, Vijayawada - APPCB",13-03-2024 02:00:00,16.509717,80.612222,NO2,12,59,35
India,Andhra_Pradesh,Vijayawada,"Rajiv Nagar, Vijayawada - APPCB",13-03-2024 02:00:00,16.554731,80.649110,SO2,10,18,14
India,Andhra_Pradesh,Visakhapatnam,"GVM Corporation, Visakhapatnam - APPCB",13-03-2024 02:00:00,17.72,83.3,NO2,31,74,50
India,Andhra_Pradesh,Visakhapatnam,"GVM Corporation, Visakhapatnam - APPCB",13-03-2024 02:00:00,17.72,83.3,CO,15,101,37
India,Arunachal_Pradesh,Naharlagun,"Naharlagun, Naharlagun - APSPCB",13-03-2024 02:00:00,27.103358,93.679645,PM2.5,NA,NA,NA
India,Assam,Byrnihat,"Central Academy for SFS, Byrnihat - PCBA",13-03-2024 02:00:00,26.071318,91.87488,PM10,70,484,268
India,Assam,Guwahati,"LGBI Airport, Guwahati - PCBA",13-03-2024 02:00:00,26.10887,91.589544,PM2.5,113,318,234
India,Assam,Guwahati,"Pan Bazaar, Guwahati - PCBA",13-03-2024 02:00:00,26.187500,91.744194,NH3,6,8,7
India,Assam,Nagaon,"Christianpatty, Nagaon - PCBA",13-03-2024 02:00:00,26.349082,92.68449,PM2.5,103,356,171
India,Assam,Nagaon,"Christianpatty, Nagaon - PCBA",13-03-2024 02:00:00,26.349082,92.68449,NH3,2,12,4
India,Assam,Nagaon,"Christianpatty, Nagaon - PCBA",13-03-2024 02:00:00,26.349082,92.68449,OZONE,12,168,36
India,Assam,Nalbari,"Bata Chowk, Nalbari - PCBA",13-03-2024 02:00:00,26.446912,91.439057,OZONE,1,167,84
India,Assam,Silchar,"Tarapur, Silchar - PCBA",13-03-2024 02:00:00,24.82827,92.79525,NO2,14,39,27
India,Assam,Silchar,"Tarapur, Silchar - PCBA",13-03-2024 02:00:00,24.82827,92.79525,NH3,1,1,1
India,Assam,Silchar,"Tarapur, Silchar - PCBA",13-03-2024 02:00:00,24.82827,92.79525,OZONE,1,42,31
India,Assam,Sivasagar,"Girls College, Sivasagar - PCBA",13-03-2024 02:00:00,26.987634,94.636574,PM10,31,91,60
India,Assam,Sivasagar,"Girls College, Sivasagar - PCBA",13-03-2024 02:00:00,26.987634,94.636574,CO,24,30,26
India,Assam,Sivasagar,"Girls College, Sivasagar - PCBA",13-03-2024 02:00:00,26.987634,94.636574,OZONE,1,17,3
India,Bihar,Araria,"Kharahiya Basti, Araria - BSPCB",13-03-2024 02:00:00,26.146529,87.454184,NO2,6,8,7
India,Bihar,Araria,"Kharahiya Basti, Araria - BSPCB",13-03-2024 02:00:00,26.146529,87.454184,NH3,7,8,8
India,Bihar,Araria,"Kharahiya Basti, Araria - BSPCB",13-03-2024 02:00:00,26.146529,87.454184,SO2,9,21,16
India,Bihar,Aurangabad,"Gurdeo Nagar, Aurangabad - BSPCB",13-03-2024 02:00:00,24.75746,84.366208,CO,NA,NA,NA
India,Bihar,Bettiah,"Kamalnath Nagar, Bettiah - BSPCB",13-03-2024 02:00:00,26.80365,84.51954,PM2.5,40,280,135
India,Bihar,Bhagalpur,"DM Office_Kachari Chowk, Bhagalpur - BSPCB",13-03-2024 02:00:00,25.251013,86.989001,CO,42,62,54
India,Bihar,Bihar Sharif,"D M Colony, Bihar Sharif - BSPCB",13-03-2024 02:00:00,25.204762,85.514960,PM10,28,105,77
India,Bihar,Bihar Sharif,"D M Colony, Bihar Sharif - BSPCB",13-03-2024 02:00:00,25.204762,85.514960,OZONE,NA,NA,NA
India,Bihar,Gaya,"Collectorate, Gaya - BSPCB",13-03-2024 02:00:00,24.7955,84.9994,NO2,1,3,2
India,Bihar,Hajipur,"Industrial Area, Hajipur - BSPCB",13-03-2024 02:00:00,25.697189,85.245900,PM10,133,203,172
India,Bihar,Hajipur,"Industrial Area, Hajipur - BSPCB",13-03-2024 02:00:00,25.697189,85.245900,OZONE,7,62,22
India,Bihar,Katihar,"Mirchaibari, Katihar - BSPCB",13-03-2024 02:00:00,25.560083,87.553265,PM2.5,77,302,142
India,Bihar,Katihar,"Mirchaibari, Katihar - BSPCB",13-03-2024 02:00:00,25.560083,87.553265,CO,NA,NA,NA
India,Bihar,Kishanganj,"SDM Office_Khagra, Kishanganj - BSPCB",13-03-2024 02:00:00,26.0881305,87.93840336,CO,1,12,9
India,Bihar,Manguraha,"Forest Rest House, Manguraha - BSPCB",13-03-2024 02:00:00,27.308328,84.531742,PM2.5,33,287,79
India,Bihar,Motihari,"Gandak Colony, Motihari - BSPCB",13-03-2024 02:00:00,26.63086,84.90051,CO,47,93,74
India,Bihar,Munger,"Town Hall, Munger - BSPCB",13-03-2024 02:00:00,25.376776,86.471523,PM10,99,227,125
India,Bihar,Munger,"Town Hall, Munger - BSPCB",13-03-2024 02:00:00,25.376776,86.471523,NO2,7,10,9
India,Bihar,Muzaffarpur,"Buddha Colony, Muzaffarpur - BSPCB",13-03-2024 02:00:00,26.11442,85.39813,PM2.5,NA,NA,NA
India,Bihar,Muzaffarpur,"Buddha Colony, Muzaffarpur - BSPCB",13-03-2024 02:00:00,26.11442,85.39813,NH3,NA,NA,NA
India,Bihar,Muzaffarpur,"MIT-Daudpur Kothi, Muzaffarpur - BSPCB",13-03-2024 02:00:00,26.1403345,85.3650192,CO,8,139,106
India,Bihar,Muzaffarpur,"MIT-Daudpur Kothi, Muzaffarpur - BSPCB",13-03-2024 02:00:00,26.1403345,85.3650192,OZONE,16,67,37
India,Bihar,Muzaffarpur,"Muzaffarpur Collectorate, Muzaffarpur - BSPCB",13-03-2024 02:00:00,26.1209,85.3647,SO2,6,17,9
India,Bihar,Muzaffarpur,"Muzaffarpur Collectorate, Muzaffarpur - BSPCB",13-03-2024 02:00:00,26.1209,85.3647,CO,26,72,32
India,Bihar,Patna,"Govt. High School Shikarpur, Patna - BSPCB",13-03-2024 02:00:00,25.592539,85.227158,OZONE,5,6,6
India,Bihar,Patna,"IGSC Planetarium Complex, Patna - BSPCB",13-03-2024 02:00:00,25.610369,85.132568,CO,12,14,13
India,Bihar,Patna,"Muradpur, Patna - BSPCB",13-03-2024 02:00:00,25.619651,85.147382,PM10,179,277,199
India,Bihar,Patna,"Muradpur, Patna - BSPCB",13-03-2024 02:00:00,25.619651,85.147382,NO2,12,22,17
India,Bihar,Patna,"Rajbansi Nagar, Patna - BSPCB",13-03-2024 02:00:00,25.599486,85.113666,OZONE,9,114,33
India,Bihar,Purnia,"Mariam Nagar, Purnia - BSPCB",13-03-2024 02:00:00,25.366336,87.117468,OZONE,17,64,26
India,Bihar,Rajgir,"Dangi Tola, Rajgir - BSPCB",13-03-2024 02:00:00,25.03280,85.41948,PM2.5,37,82,55
India,Bihar,Rajgir,"Dangi Tola, Rajgir - BSPCB",13-03-2024 02:00:00,25.03280,85.41948,NO2,1,1,1
India,Bihar,Saharsa,"Police Line, Saharsa - BSPCB",13-03-2024 02:00:00,25.892357,86.590325,PM10,93,146,114
India,Bihar,Saharsa,"Police Line, Saharsa - BSPCB",13-03-2024 02:00:00,25.892357,86.590325,NO2,5,8,7
India,Bihar,Samastipur,"DM Office_Kasipur, Samastipur - BSPCB",13-03-2024 02:00:00,25.859655,85.77944,NH3,3,4,4
India,Bihar,Samastipur,"DM Office_Kasipur, Samastipur - BSPCB",13-03-2024 02:00:00,25.859655,85.77944,SO2,10,16,13
India,Bihar,Siwan,"Chitragupta Nagar, Siwan - BSPCB",13-03-2024 02:00:00,26.2271665,84.3570427,PM2.5,45,270,125
India,Bihar,Siwan,"Chitragupta Nagar, Siwan - BSPCB",13-03-2024 02:00:00,26.2271665,84.3570427,SO2,28,36,33
India,Chandigarh,Chandigarh,"Sector 22, Chandigarh - CPCC",13-03-2024 02:00:00,30.735567,76.775714,NO2,15,47,30
India,Chandigarh,Chandigarh,"Sector 22, Chandigarh - CPCC",13-03-2024 02:00:00,30.735567,76.775714,NH3,4,8,6
India,Chandigarh,Chandigarh,"Sector 22, Chandigarh - CPCC",13-03-2024 02:00:00,30.735567,76.775714,SO2,5,76,17
India,Chandigarh,Chandigarh,"Sector 22, Chandigarh - CPCC",13-03-2024 02:00:00,30.735567,76.775714,CO,28,54,42
India,Chandigarh,Chandigarh,"Sector-25, Chandigarh - CPCC",13-03-2024 02:00:00,30.751462,76.762879,PM2.5,93,228,155
India,Chhattisgarh,Bhilai,"32Bungalows, Bhilai - CECB",13-03-2024 02:00:00,21.194815,81.314770,NO2,27,38,33
India,Chhattisgarh,Kunjemura,"OP Jindal School, Kunjemura - CECB",13-03-2024 02:00:00,22.126650,83.483212,SO2,2,14,7
India,Chhattisgarh,Milupara,"Govt. Higher Secondary School, Milupara - CECB",13-03-2024 02:00:00,22.1910172,83.5197009,NH3,NA,NA,NA
India,Chhattisgarh,Milupara,"Govt. Higher Secondary School, Milupara - CECB",13-03-2024 02:00:00,22.1910172,83.5197009,CO,25,29,25
India,Chhattisgarh,Raipur,"Bhatagaon New ISBT, Raipur - CECB",13-03-2024 02:00:00,21.219665,81.630094,PM10,42,116,75
India,Chhattisgarh,Raipur,"Krishak Nagar, Raipur - CECB",13-03-2024 02:00:00,21.237755,81.705301,PM10,45,107,83
India,Chhattisgarh,Raipur,"Krishak Nagar, Raipur - CECB",13-03-2024 02:00:00,21.237755,81.705301,NH3,1,1,1
India,Chhattisgarh,Raipur,"Krishak Nagar, Raipur - CECB",13-03-2024 02:00:00,21.237755,81.705301,CO,24,51,39
India,Chhattisgarh,Raipur,"Siltara Phase-II, Raipur - CECB",13-03-2024 02:00:00,21.371751,81.664929,PM2.5,NA,NA,NA
India,Chhattisgarh,Tumidih,"OP Jindal Industrial Park, Tumidih - CECB",13-03-2024 02:00:00,22.06631475,83.33820077,PM10,NA,NA,NA
India,Chhattisgarh,Tumidih,"OP Jindal Industrial Park, Tumidih - CECB",13-03-2024 02:00:00,22.06631475,83.33820077,NO2,NA,NA,NA
India,Delhi,Delhi,"Ashok Vihar, Delhi - DPCC",13-03-2024 02:00:00,28.695381,77.181665,NO2,11,87,50
India,Delhi,Delhi,"Aya Nagar, Delhi - IMD",13-03-2024 02:00:00,28.4706914,77.1099364,PM10,12,386,137
India,Delhi,Delhi,"Bawana, Delhi - DPCC",13-03-2024 02:00:00,28.776200,77.051074,PM10,111,427,185
India,Delhi,Delhi,"Bawana, Delhi - DPCC",13-03-2024 02:00:00,28.776200,77.051074,SO2,7,32,15
India,Delhi,Delhi,"Burari Crossing, Delhi - IMD",13-03-2024 02:00:00,28.7256504,77.2011573,NO2,11,14,12
India,Delhi,Delhi,"Burari Crossing, Delhi - IMD",13-03-2024 02:00:00,28.7256504,77.2011573,CO,46,68,51
India,Delhi,Delhi,"CRRI Mathura Road, Delhi - IMD",13-03-2024 02:00:00,28.5512005,77.2735737,NO2,4,22,13
India,Delhi,Delhi,"Dr. Karni Singh Shooting Range, Delhi - DPCC",13-03-2024 02:00:00,28.498571,77.264840,PM10,107,240,154
India,Delhi,Delhi,"IGI Airport (T3), Delhi - IMD",13-03-2024 02:00:00,28.5627763,77.1180053,PM10,66,409,137
India,Delhi,Delhi,"IHBAS, Dilshad Garden, Delhi - CPCB",13-03-2024 02:00:00,28.6811736,77.3025234,NH3,3,12,6
India,Delhi,Delhi,"IHBAS, Dilshad Garden, Delhi - CPCB",13-03-2024 02:00:00,28.6811736,77.3025234,SO2,1,22,9
India,Delhi,Delhi,"ITO, Delhi - CPCB",13-03-2024 02:00:00,28.628624,77.241060,SO2,7,32,16
India,Delhi,Delhi,"Lodhi Road, Delhi - IITM",13-03-2024 02:00:00,28.588333,77.221667,OZONE,16,19,17
India,Delhi,Delhi,"Lodhi Road, Delhi - IMD",13-03-2024 02:00:00,28.5918245,77.2273074,PM10,88,245,116
India,Delhi,Delhi,"Mandir Marg, Delhi - DPCC",13-03-2024 02:00:00,28.636429,77.201067,NH3,10,13,12
India,Delhi,Delhi,"NSIT Dwarka, Delhi - CPCB",13-03-2024 02:00:00,28.60909,77.0325413,PM10,NA,NA,NA
India,Delhi,Delhi,"Najafgarh, Delhi - DPCC",13-03-2024 02:00:00,28.570173,76.933762,PM10,58,334,143
India,Delhi,Delhi,"Najafgarh, Delhi - DPCC",13-03-2024 02:00:00,28.570173,76.933762,NO2,6,22,13
India,Delhi,Delhi,"Narela, Delhi - DPCC",13-03-2024 02:00:00,28.822836,77.101981,NH3,6,9,7
India,Delhi,Delhi,"Nehru Nagar, Delhi - DPCC",13-03-2024 02:00:00,28.567890,77.250515,PM10,98,286,151
India,Delhi,Delhi,"Nehru Nagar, Delhi - DPCC",13-03-2024 02:00:00,28.567890,77.250515,CO,34,98,65
India,Delhi,Delhi,"North Campus, DU, Delhi - IMD",13-03-2024 02:00:00,28.6573814,77.1585447,CO,34,80,59
India,Delhi,Delhi,"Okhla Phase-2, Delhi - DPCC",13-03-2024 02:00:00,28.530785,77.271255,NH3,8,12,9
India,Delhi,Delhi,"Okhla Phase-2, Delhi - DPCC",13-03-2024 02:00:00,28.530785,77.271255,SO2,10,13,11
India,Delhi,Delhi,"Patparganj, Delhi - DPCC",13-03-2024 02:00:00,28.623763,77.287209,PM2.5,40,200,87
India,Delhi,Delhi,"Patparganj, Delhi - DPCC",13-03-2024 02:00:00,28.623763,77.287209,OZONE,4,105,37
India,Delhi,Delhi,"Punjabi Bagh, Delhi - DPCC",13-03-2024 02:00:00,28.674045,77.131023,NO2,15,27,23
India,Delhi,Delhi,"Pusa, Delhi - DPCC",13-03-2024 02:00:00,28.639652,77.146275,NH3,8,13,10
India,Delhi,Delhi,"Pusa, Delhi - DPCC",13-03-2024 02:00:00,28.639652,77.146275,CO,38,104,60
India,Delhi,Delhi,"Pusa, Delhi - IMD",13-03-2024 02:00:00,28.636110,77.173332,PM2.5,NA,NA,NA
India,Delhi,Delhi,"Pusa, Delhi - IMD",13-03-2024 02:00:00,28.636110,77.173332,PM10,NA,NA,NA
India,Delhi,Delhi,"R K Puram, Delhi - DPCC",13-03-2024 02:00:00,28.563262,77.186937,NO2,15,55,37
India,Delhi,Delhi,"Rohini, Delhi - DPCC",13-03-2024 02:00:00,28.732528,77.119920,PM2.5,45,379,182
India,Delhi,Delhi,"Shadipur, Delhi - CPCB",13-03-2024 02:00:00,28.6514781,77.1473105,SO2,9,25,18
India,Delhi,Delhi,"Sri Aurobindo Marg, Delhi - DPCC",13-03-2024 02:00:00,28.531346,77.190156,PM2.5,52,369,148
India,Delhi,Delhi,"Vivek Vihar, Delhi - DPCC",13-03-2024 02:00:00,28.672342,77.315260,PM10,101,309,147
India,Delhi,Delhi,"Vivek Vihar, Delhi - DPCC",13-03-2024 02:00:00,28.672342,77.315260,CO,12,46,33
India,Delhi,Delhi,"Wazirpur, Delhi - DPCC",13-03-2024 02:00:00,28.699793,77.165453,PM2.5,56,371,179
India,Gujarat,Ahmedabad,"Chandkheda, Ahmedabad - IITM",13-03-2024 02:00:00,23.107969,72.574648,CO,12,92,54
India,Gujarat,Ahmedabad,"Gyaspur, Ahmedabad - IITM",13-03-2024 02:00:00,22.977134,72.553024,NO2,21,22,21
India,Gujarat,Ahmedabad,"Gyaspur, Ahmedabad - IITM",13-03-2024 02:00:00,22.977134,72.553024,NH3,4,4,4
India,Gujarat,Ahmedabad,"Gyaspur, Ahmedabad - IITM",13-03-2024 02:00:00,22.977134,72.553024,CO,23,26,24
India,Gujarat,Ahmedabad,"Maninagar, Ahmedabad - GPCB",13-03-2024 02:00:00,23.002657,72.591912,SO2,NA,NA,NA
India,Gujarat,Ahmedabad,"Raikhad, Ahmedabad - IITM",13-03-2024 02:00:00,23.020509,72.579261,PM10,2,264,104
India,Gujarat,Ahmedabad,"Rakhial, Ahmedabad - IITM",13-03-2024 02:00:00,23.016834,72.625775,PM10,28,414,125
India,Gujarat,Ahmedabad,"SAC ISRO Satellite, Ahmedabad - IITM",13-03-2024 02:00:00,23.023389,72.515201,PM2.5,121,156,145
India,Gujarat,Ahmedabad,"SAC ISRO Satellite, Ahmedabad - IITM",13-03-2024 02:00:00,23.023389,72.515201,OZONE,10,23,13
India,Gujarat,Ahmedabad,"SVPI Airport Hansol, Ahmedabad - IITM",13-03-2024 02:00:00,23.076793,72.627874,OZONE,7,32,14
India,Gujarat,Gandhinagar,"GIFT City, Gandhinagar - IITM",13-03-2024 02:00:00,23.163798,72.677768,PM2.5,46,232,105
India,Gujarat,Gandhinagar,"GIFT City, Gandhinagar - IITM",13-03-2024 02:00:00,23.163798,72.677768,SO2,1,9,3
India,Haryana,Ambala,"Patti Mehar, Ambala - HSPCB",13-03-2024 02:00:00,30.379589,76.778328,PM10,41,82,61
India,Haryana,Bahadurgarh,"Arya Nagar, Bahadurgarh - HSPCB",13-03-2024 02:00:00,28.6701,76.9254,CO,40,54,48
India,Haryana,Bahadurgarh,"Arya Nagar, Bahadurgarh - HSPCB",13-03-2024 02:00:00,28.6701,76.9254,OZONE,39,47,43
India,Haryana,Ballabgarh,"Nathu Colony, Ballabgarh - HSPCB",13-03-2024 02:00:00,28.3419248,77.319699,PM2.5,101,324,196
India,Haryana,Ballabgarh,"Nathu Colony, Ballabgarh - HSPCB",13-03-2024 02:00:00,28.3419248,77.319699,OZONE,1,29,7
India,Haryana,Charkhi Dadri,"Mini Secretariat, Charkhi Dadri - HSPCB",13-03-2024 02:00:00,28.593883,76.270653,NO2,12,14,13
India,Haryana,Charkhi Dadri,"Mini Secretariat, Charkhi Dadri - HSPCB",13-03-2024 02:00:00,28.593883,76.270653,NH3,6,6,6
India,Haryana,Faridabad,"Sector 30, Faridabad - HSPCB",13-03-2024 02:00:00,28.4417,77.3217,PM2.5,NA,NA,NA
India,Haryana,Faridabad,"Sector 30, Faridabad - HSPCB",13-03-2024 02:00:00,28.4417,77.3217,NH3,NA,NA,NA
India,Haryana,Fatehabad,"Huda Sector, Fatehabad - HSPCB",13-03-2024 02:00:00,29.503664,75.467934,NH3,12,19,13
India,Haryana,Fatehabad,"Huda Sector, Fatehabad - HSPCB",13-03-2024 02:00:00,29.503664,75.467934,CO,6,17,8
India,Haryana,Gurugram,"Sector-51, Gurugram - HSPCB",13-03-2024 02:00:00,28.4227,77.0667,PM2.5,93,414,221
India,Haryana,Gurugram,"Teri Gram, Gurugram - HSPCB",13-03-2024 02:00:00,28.4275,77.1465,NH3,50,87,66
India,Haryana,Hisar,"Urban Estate-II, Hisar - HSPCB",13-03-2024 02:00:00,29.140560,75.744941,NO2,21,34,24
India,Haryana,Hisar,"Urban Estate-II, Hisar - HSPCB",13-03-2024 02:00:00,29.140560,75.744941,NH3,8,13,10
India,Haryana,Jind,"Police Lines, Jind - HSPCB",13-03-2024 02:00:00,29.307814,76.337619,PM10,51,107,78
India,Haryana,Jind,"Police Lines, Jind - HSPCB",13-03-2024 02:00:00,29.307814,76.337619,CO,1,64,12
India,Haryana,Kaithal,"Rishi Nagar, Kaithal - HSPCB",13-03-2024 02:00:00,29.8006,76.4155,CO,3,40,15
India,Haryana,Karnal,"Sector-12, Karnal - HSPCB",13-03-2024 02:00:00,29.695300,77.002700,SO2,12,22,13
India,Haryana,Karnal,"Sector-12, Karnal - HSPCB",13-03-2024 02:00:00,29.695300,77.002700,OZONE,25,36,33
India,Haryana,Kurukshetra,"Sector-7, Kurukshetra - HSPCB",13-03-2024 02:00:00,29.966942,76.875879,PM2.5,41,115,69
India,Haryana,Kurukshetra,"Sector-7, Kurukshetra - HSPCB",13-03-2024 02:00:00,29.966942,76.875879,CO,2,29,18
India,Haryana,Mandikhera,"General Hospital, Mandikhera - HSPCB",13-03-2024 02:00:00,27.9002,76.9938,PM10,78,140,105
India,Haryana,Mandikhera,"General Hospital, Mandikhera - HSPCB",13-03-2024 02:00:00,27.9002,76.9938,NH3,18,21,19
India,Haryana,Manesar,"Sector-2 IMT, Manesar - HSPCB",13-03-2024 02:00:00,28.360699,76.936090,CO,8,39,17
India,Haryana,Palwal,"Shyam Nagar, Palwal - HSPCB",13-03-2024 02:00:00,28.1485564,77.3320667,PM2.5,54,92,71
India,Haryana,Panipat,"Sector-18, Panipat - HSPCB",13-03-2024 02:00:00,29.497973,76.993331,PM10,84,86,85
India,Haryana,Rohtak,"MD University, Rohtak - HSPCB",13-03-2024 02:00:00,28.52123,76.37138,NO2,45,55,51
India,Haryana,Sirsa,"F-Block, Sirsa - HSPCB",13-03-2024 02:00:00,29.536400,75.015800,CO,38,52,42
India,Haryana,Yamuna Nagar,"Gobind Pura, Yamuna Nagar - HSPCB",13-03-2024 02:00:00,30.1480566,77.2893471,NO2,14,14,14
India,Himachal Pradesh,Baddi,"HIMUDA Complex Phase-1, Baddi - HPPCB",13-03-2024 02:00:00,30.943887,76.801991,NO2,9,70,30
India,Himachal Pradesh,Baddi,"HIMUDA Complex Phase-1, Baddi - HPPCB",13-03-2024 02:00:00,30.943887,76.801991,CO,17,58,30
India,Jharkhand,Dhanbad,"Kalakusuma, Dhanbad - DMC",13-03-2024 02:00:00,23.811548,86.481238,PM2.5,13,73,23
India,Jharkhand,Dhanbad,"Kalakusuma, Dhanbad - DMC",13-03-2024 02:00:00,23.811548,86.481238,OZONE,21,23,21
India,Jharkhand,Dhanbad,"Sardar Patel Nagar, Dhanbad - JSPCB",13-03-2024 02:00:00,23.80569,86.44268,SO2,7,11,9
India,Jharkhand,Pathardih,"Mohalbani Ghat, Pathardih - DMC",13-03-2024 02:00:00,23.669880,86.411725,PM2.5,16,116,58
India,Karnataka,Bagalkot,"Vidayagiri, Bagalkot - KSPCB",13-03-2024 02:00:00,16.172806,75.659694,PM2.5,25,37,36
India,Karnataka,Bagalkot,"Vidayagiri, Bagalkot - KSPCB",13-03-2024 02:00:00,16.172806,75.659694,NH3,1,2,1
India,Karnataka,Bagalkot,"Vidayagiri, Bagalkot - KSPCB",13-03-2024 02:00:00,16.172806,75.659694,SO2,NA,NA,NA
India,Karnataka,Bagalkot,"Vidayagiri, Bagalkot - KSPCB",13-03-2024 02:00:00,16.172806,75.659694,CO,20,56,38
India,Karnataka,Belgaum,"Ramteerth Nagar, Belgaum - KSPCB",13-03-2024 02:00:00,15.888653,74.541751,PM2.5,45,72,51
India,Karnataka,Belgaum,"Ramteerth Nagar, Belgaum - KSPCB",13-03-2024 02:00:00,15.888653,74.541751,PM10,43,84,64
India,Karnataka,Belgaum,"Ramteerth Nagar, Belgaum - KSPCB",13-03-2024 02:00:00,15.888653,74.541751,OZONE,18,20,19
India,Karnataka,Bengaluru,"BTM Layout, Bengaluru - CPCB",13-03-2024 02:00:00,12.9135218,77.5950804,NH3,4,4,4
India,Karnataka,Bengaluru,"BTM Layout, Bengaluru - CPCB",13-03-2024 02:00:00,12.9135218,77.5950804,SO2,8,10,8
India,Karnataka,Bengaluru,"BTM Layout, Bengaluru - CPCB",13-03-2024 02:00:00,12.9135218,77.5950804,CO,37,44,38
India,Karnataka,Bengaluru,"Bapuji Nagar, Bengaluru - KSPCB",13-03-2024 02:00:00,12.951913,77.539784,SO2,6,9,7
India,Karnataka,Bengaluru,"Jayanagar 5th Block, Bengaluru - KSPCB",13-03-2024 02:00:00,12.920984,77.584908,NO2,9,16,11
India,Karnataka,Bengaluru,"Jigani, Bengaluru - KSPCB",13-03-2024 02:00:00,12.7816279,77.6299145,NO2,NA,NA,NA
India,Karnataka,Bengaluru,"Jigani, Bengaluru - KSPCB",13-03-2024 02:00:00,12.7816279,77.6299145,CO,48,92,72
India,Karnataka,Bengaluru,"Jigani, Bengaluru - KSPCB",13-03-2024 02:00:00,12.7816279,77.6299145,OZONE,34,87,52
India,Karnataka,Bengaluru,"Kasturi Nagar, Bengaluru - KSPCB",13-03-2024 02:00:00,13.003872,77.664217,PM2.5,95,184,130
India,Karnataka,Bengaluru,"Kasturi Nagar, Bengaluru - KSPCB",13-03-2024 02:00:00,13.003872,77.664217,NH3,3,4,4
India,Karnataka,Bengaluru,"Peenya, Bengaluru - CPCB",13-03-2024 02:00:00,13.0270199,77.494094,SO2,12,19,15
India,Karnataka,Bengaluru,"RVCE-Mailasandra, Bengaluru - KSPCB",13-03-2024 02:00:00,12.921418,77.502466,CO,34,74,53
India,Karnataka,Bengaluru,"Sanegurava Halli, Bengaluru - KSPCB",13-03-2024 02:00:00,12.990328,77.5431385,CO,5,53,26
India,Karnataka,Bengaluru,"Shivapura_Peenya, Bengaluru - KSPCB",13-03-2024 02:00:00,13.0246342,77.5080115,SO2,6,58,18
India,Karnataka,Chamarajanagar,"Urban, Chamarajanagar - KSPCB",13-03-2024 02:00:00,11.55358,76.55521,PM10,35,71,51
India,Karnataka,Chikkaballapur,"Chikkaballapur Rural, Chikkaballapur - KSPCB",13-03-2024 02:00:00,13.428828,77.731418,PM2.5,70,151,100
India,Karnataka,Chikkaballapur,"Chikkaballapur Rural, Chikkaballapur - KSPCB",13-03-2024 02:00:00,13.428828,77.731418,PM10,72,156,99
India,Karnataka,Chikkamagaluru,"Kalyana Nagara, Chikkamagaluru - KSPCB",13-03-2024 02:00:00,13.328028,75.797056,OZONE,28,63,29
India,Karnataka,Davanagere,"Devaraj Urs Badavane, Davanagere - KSPCB",13-03-2024 02:00:00,14.475800,75.905200,PM2.5,49,82,65
India,Karnataka,Davanagere,"Devaraj Urs Badavane, Davanagere - KSPCB",13-03-2024 02:00:00,14.475800,75.905200,PM10,54,99,76
India,Karnataka,Dharwad,"Kalabhavan, Dharwad - KSPCB",13-03-2024 02:00:00,15.459706,75.008381,NH3,2,3,2
India,Karnataka,Hassan,"B.Katihalli, Hassan - KSPCB",13-03-2024 02:00:00,13.008556,76.125258,PM10,NA,NA,NA
India,Karnataka,Hassan,"B.Katihalli, Hassan - KSPCB",13-03-2024 02:00:00,13.008556,76.125258,NO2,NA,NA,NA
India,Karnataka,Hassan,"B.Katihalli, Hassan - KSPCB",13-03-2024 02:00:00,13.008556,76.125258,OZONE,NA,NA,NA
India,Karnataka,Haveri,"Ashwini Nagar, Haveri - KSPCB",13-03-2024 02:00:00,14.791800,75.389600,NO2,7,35,21
India,Karnataka,Hubballi,"Deshpande Nagar, Hubballi - KSPCB",13-03-2024 02:00:00,15.351773,75.140726,CO,47,105,87
India,Karnataka,Hubballi,"Lingaraj Nagar, Hubballi - KSPCB",13-03-2024 02:00:00,15.3714823,75.1160168,NH3,2,2,2
India,Karnataka,Kalaburagi,"Lal Bahadur Shastri Nagar, Kalaburagi - KSPCB",13-03-2024 02:00:00,17.321993,76.822628,CO,NA,NA,NA
India,Karnataka,Kalaburagi,"Mahatma Basaveswar Colony, Kalaburgi - KSPCB",13-03-2024 02:00:00,17.336318,76.847397,NO2,8,31,21
India,Karnataka,Kalaburagi,"Mahatma Basaveswar Colony, Kalaburgi - KSPCB",13-03-2024 02:00:00,17.336318,76.847397,NH3,3,4,3
India,Karnataka,Karwar,"KHB Colony, Karwar - KSPCB",13-03-2024 02:00:00,14.816666,74.141003,NH3,1,12,4
India,Karnataka,Kolar,"Tamaka Ind. Area, Kolar - KSPCB",13-03-2024 02:00:00,13.1276288,78.1570122,NH3,3,20,10
India,Karnataka,Kolar,"Tamaka Ind. Area, Kolar - KSPCB",13-03-2024 02:00:00,13.1276288,78.1570122,OZONE,7,12,8
India,Karnataka,Koppal,"Diwator Nagar, Koppal - KSPCB",13-03-2024 02:00:00,15.347630,76.181767,OZONE,30,65,45
India,Karnataka,Madikeri,"Stuart Hill, Madikeri - KSPCB",13-03-2024 02:00:00,12.415911,75.735050,NO2,2,6,4
India,Karnataka,Raichur,"Haji Colony, Raichur - KSPCB",13-03-2024 02:00:00,16.208139,77.348417,OZONE,1,156,5
India,Karnataka,Shivamogga,"Vinoba Nagara, Shivamogga - KSPCB",13-03-2024 02:00:00,13.940000,75.555917,NH3,2,4,3
India,Karnataka,Shivamogga,"Vinoba Nagara, Shivamogga - KSPCB",13-03-2024 02:00:00,13.940000,75.555917,SO2,2,13,7
India,Karnataka,Tumakuru,"Thimmalapura, Tumakuru - KSPCB",13-03-2024 02:00:00,13.377516,77.099072,SO2,8,18,10
India,Karnataka,Tumakuru,"Thimmalapura, Tumakuru - KSPCB",13-03-2024 02:00:00,13.377516,77.099072,OZONE,18,42,30
India,Karnataka,Yadgir,"Collector Office, Yadgir - KSPCB",13-03-2024 02:00:00,16.7602,77.1428,CO,8,24,15
India,Kerala,Eloor,"Udyogamandal, Eloor - Kerala PCB",13-03-2024 02:00:00,10.073232,76.302765,PM2.5,32,49,41
India,Kerala,Kannur,"Thavakkara, Kannur - Kerala PCB",13-03-2024 02:00:00,11.875000,75.373200,PM10,64,74,69
India,Kerala,Kannur,"Thavakkara, Kannur - Kerala PCB",13-03-2024 02:00:00,11.875000,75.373200,NO2,6,7,6
India,Kerala,Kannur,"Thavakkara, Kannur - Kerala PCB",13-03-2024 02:00:00,11.875000,75.373200,OZONE,31,36,32
India,Kerala,Kochi,"Vyttila, Kochi - Kerala PCB",13-03-2024 02:00:00,9.969447,76.321186,NO2,1,3,2
India,Kerala,Kollam,"Polayathode, Kollam - Kerala PCB",13-03-2024 02:00:00,8.8787,76.6073,PM10,NA,NA,NA
India,Kerala,Kollam,"Polayathode, Kollam - Kerala PCB",13-03-2024 02:00:00,8.8787,76.6073,SO2,NA,NA,NA
India,Kerala,Kollam,"Polayathode, Kollam - Kerala PCB",13-03-2024 02:00:00,8.8787,76.6073,OZONE,NA,NA,NA
India,Kerala,Thiruvananthapuram,"Kariavattom, Thiruvananthapuram - Kerala PCB",13-03-2024 02:00:00,8.563700,76.886500,PM2.5,69,81,76
India,Kerala,Thiruvananthapuram,"Kariavattom, Thiruvananthapuram - Kerala PCB",13-03-2024 02:00:00,8.563700,76.886500,NO2,8,9,9
India,Kerala,Thiruvananthapuram,"Kariavattom, Thiruvananthapuram - Kerala PCB",13-03-2024 02:00:00,8.563700,76.886500,NH3,1,1,1
India,Kerala,Thiruvananthapuram,"Kariavattom, Thiruvananthapuram - Kerala PCB",13-03-2024 02:00:00,8.563700,76.886500,CO,18,38,24
India,Kerala,Thiruvananthapuram,"Plammoodu, Thiruvananthapuram - Kerala PCB",13-03-2024 02:00:00,8.5149093,76.9435879,SO2,4,13,9
India,Kerala,Thrissur,"Corporation Ground, Thrissur - Kerala PCB",13-03-2024 02:00:00,10.532400,76.215900,PM2.5,NA,NA,NA
India,Kerala,Thrissur,"Corporation Ground, Thrissur - Kerala PCB",13-03-2024 02:00:00,10.532400,76.215900,PM10,NA,NA,NA
India,Kerala,Thrissur,"Corporation Ground, Thrissur - Kerala PCB",13-03-2024 02:00:00,10.532400,76.215900,CO,NA,NA,NA
India,Kerala,Thrissur,"Corporation Ground, Thrissur - Kerala PCB",13-03-2024 02:00:00,10.532400,76.215900,OZONE,NA,NA,NA
India,Madhya Pradesh,Bhopal,"Paryavaran Parisar, Bhopal - MPPCB",13-03-2024 02:00:00,23.210494,77.425409,SO2,17,25,22
India,Madhya Pradesh,Dewas,"Bhopal Chauraha, Dewas - MPPCB",13-03-2024 02:00:00,22.9682591,76.064118,PM2.5,NA,NA,NA
India,Madhya Pradesh,Dewas,"Bhopal Chauraha, Dewas - MPPCB",13-03-2024 02:00:00,22.9682591,76.064118,NH3,NA,NA,NA
India,Madhya Pradesh,Gwalior,"Deen Dayal Nagar, Gwalior - MPPCB",13-03-2024 02:00:00,26.259242,78.216432,SO2,15,21,18
India,Madhya Pradesh,Gwalior,"Maharaj Bada, Gwalior - MPPCB",13-03-2024 02:00:00,26.200388,78.147714,NO2,13,74,38
India,Madhya Pradesh,Gwalior,"Maharaj Bada, Gwalior - MPPCB",13-03-2024 02:00:00,26.200388,78.147714,NH3,9,17,12
India,Madhya Pradesh,Gwalior,"Maharaj Bada, Gwalior - MPPCB",13-03-2024 02:00:00,26.200388,78.147714,SO2,14,39,22
India,Madhya Pradesh,Indore,"Chhoti Gwaltoli, Indore - MPPCB",13-03-2024 02:00:00,22.4310,75.5213,PM2.5,15,86,46
India,Madhya Pradesh,Indore,"Maguda Nagar, Indore - IMC",13-03-2024 02:00:00,22.7524,75.8872,OZONE,35,40,36
India,Madhya Pradesh,Indore,"Regional Park, Indore - IMC",13-03-2024 02:00:00,22.6780,75.8559,PM2.5,20,115,46
India,Madhya Pradesh,Jabalpur,"Govindh Bhavan Colony, Jabalpur - JMC",13-03-2024 02:00:00,23.163174,79.973061,PM10,61,103,80
India,Madhya Pradesh,Jabalpur,"Gupteshwar, Jabalpur - JMC",13-03-2024 02:00:00,23.142888,79.916147,NH3,6,11,8
India,Madhya Pradesh,Jabalpur,"Suhagi, Jabalpur - JMC",13-03-2024 02:00:00,23.218135,79.957770,PM2.5,33,355,157
India,Madhya Pradesh,Jabalpur,"Suhagi, Jabalpur - JMC",13-03-2024 02:00:00,23.218135,79.957770,PM10,28,217,100
India,Madhya Pradesh,Katni,"Gole Bazar, Katni - MPPCB",13-03-2024 02:00:00,23.50016,80.23284,PM2.5,42,136,73
India,Madhya Pradesh,Maihar,"Sahilara, Maihar - KJS Cements",13-03-2024 02:00:00,24.2613009,80.7231783,PM2.5,20,43,30
India,Madhya Pradesh,Mandideep,"Sector-D Industrial Area, Mandideep - MPPCB",13-03-2024 02:00:00,23.108440,77.511428,NO2,1,101,32
India,Madhya Pradesh,Pithampur,"Sector-2 Industrial Area, Pithampur - MPPCB",13-03-2024 02:00:00,22.624758,75.675238,NH3,5,9,6
India,Madhya Pradesh,Sagar,"Deen Dayal Nagar, Sagar - MPPCB",13-03-2024 02:00:00,23.8640158,78.80289321,NO2,9,24,23
India,Madhya Pradesh,Satna,"Bandhavgar Colony, Satna - Birla Cement",13-03-2024 02:00:00,24.58434363,80.8549414,PM10,28,97,63
India,Madhya Pradesh,Satna,"Bandhavgar Colony, Satna - Birla Cement",13-03-2024 02:00:00,24.58434363,80.8549414,SO2,1,3,2
India,Madhya Pradesh,Satna,"Bandhavgar Colony, Satna - Birla Cement",13-03-2024 02:00:00,24.58434363,80.8549414,OZONE,58,88,67
India,Madhya Pradesh,Singrauli,"Suryakiran Bhawan NCL, Singrauli - MPPCB",13-03-2024 02:00:00,24.108970,82.645580,SO2,29,43,36
India,Madhya Pradesh,Ujjain,"Mahakaleshwar Temple, Ujjain - MPPCB",13-03-2024 02:00:00,23.182719 ,75.768218 ,NO2,9,37,21
India,Madhya Pradesh,Ujjain,"Mahakaleshwar Temple, Ujjain - MPPCB",13-03-2024 02:00:00,23.182719 ,75.768218 ,OZONE,139,150,144
India,Maharashtra,Ahmednagar,"Tarakpur, Ahmednagar - MPCB",13-03-2024 02:00:00,19.10122,74.73339,PM10,68,342,128
India,Maharashtra,Ahmednagar,"Tarakpur, Ahmednagar - MPCB",13-03-2024 02:00:00,19.10122,74.73339,NO2,26,151,60
India,Maharashtra,Akola,"Ramdaspeth, Akola - MPCB",13-03-2024 02:00:00,20.719516,77.000253,PM10,70,150,102
India,Maharashtra,Akola,"Ramdaspeth, Akola - MPCB",13-03-2024 02:00:00,20.719516,77.000253,NH3,5,13,8
India,Maharashtra,Akola,"Ramdaspeth, Akola - MPCB",13-03-2024 02:00:00,20.719516,77.000253,CO,28,129,89
India,Maharashtra,Amravati,"Shivneri Colony, Amravati - MPCB",13-03-2024 02:00:00,20.9402359,77.7895248,NH3,1,2,1
India,Maharashtra,Amravati,"Shivneri Colony, Amravati - MPCB",13-03-2024 02:00:00,20.9402359,77.7895248,SO2,5,6,6
India,Maharashtra,Aurangabad,"MIDC Chilkalthana, Aurangabad - MPCB",13-03-2024 02:00:00,19.875620,75.387310,CO,42,86,55
India,Maharashtra,Aurangabad,"More Chowk Waluj, Aurangabad - MPCB",13-03-2024 02:00:00,19.8389439,75.244448,CO,3,72,38
India,Maharashtra,Aurangabad,"More Chowk Waluj, Aurangabad - MPCB",13-03-2024 02:00:00,19.8389439,75.244448,OZONE,10,21,11
India,Maharashtra,Aurangabad,"Rachnakar Colony, Aurangabad - MPCB",13-03-2024 02:00:00,19.863756,75.321188,CO,10,75,38
India,Maharashtra,Badlapur,"Katrap, Badlapur - MPCB",13-03-2024 02:00:00,19.16485,73.23409,PM2.5,64,284,127
India,Maharashtra,Badlapur,"Katrap, Badlapur - MPCB",13-03-2024 02:00:00,19.16485,73.23409,NH3,NA,NA,NA
India,Maharashtra,Badlapur,"Katrap, Badlapur - MPCB",13-03-2024 02:00:00,19.16485,73.23409,SO2,10,33,19
India,Maharashtra,Badlapur,"Katrap, Badlapur - MPCB",13-03-2024 02:00:00,19.16485,73.23409,OZONE,1,71,20
India,Maharashtra,Belapur,"CBD Belapur, Belapur - MPCB",13-03-2024 02:00:00,19.0243902,73.0406721,OZONE,3,165,27
India,Maharashtra,Bhiwandi,"Gokul Nagar, Bhiwandi - MPCB",13-03-2024 02:00:00,19.309073,73.057223,PM2.5,52,163,95
India,Maharashtra,Bhiwandi,"Gokul Nagar, Bhiwandi - MPCB",13-03-2024 02:00:00,19.309073,73.057223,PM10,99,172,129
India,Maharashtra,Bhiwandi,"Gokul Nagar, Bhiwandi - MPCB",13-03-2024 02:00:00,19.309073,73.057223,NH3,1,4,2
India,Maharashtra,Boisar,"Khaira, Boisar - MPCB",13-03-2024 02:00:00,19.786089,72.757971,PM2.5,69,265,116
India,Maharashtra,Boisar,"Khaira, Boisar - MPCB",13-03-2024 02:00:00,19.786089,72.757971,PM10,94,170,127
India,Maharashtra,Boisar,"Khaira, Boisar - MPCB",13-03-2024 02:00:00,19.786089,72.757971,OZONE,NA,NA,NA
India,Maharashtra,Chandrapur,"Chauhan Colony, Chandrapur - MPCB",13-03-2024 02:00:00,19.962900,79.298714,PM2.5,77,314,148
India,Maharashtra,Dhule,"Deopur, Dhule - MPCB",13-03-2024 02:00:00,20.918946,74.776388,PM10,72,194,104
India,Maharashtra,Jalgaon,"Prabhat Colony, Jalgaon - MPCB",13-03-2024 02:00:00,21.001264,75.565602,NH3,4,13,9
India,Maharashtra,Jalgaon,"Prabhat Colony, Jalgaon - MPCB",13-03-2024 02:00:00,21.001264,75.565602,CO,12,34,19
India,Maharashtra,Jalna,"Old MIDC, Jalna - MPCB",13-03-2024 02:00:00,19.854616,75.905894,SO2,NA,NA,NA
India,Maharashtra,Jalna,"Old MIDC, Jalna - MPCB",13-03-2024 02:00:00,19.854616,75.905894,CO,22,40,33
India,Maharashtra,Kolhapur,"Sinchan Bhavan, Kolhapur - MPCB",13-03-2024 02:00:00,16.7143745,74.2426398,PM2.5,96,303,182
India,Maharashtra,Kolhapur,"Sinchan Bhavan, Kolhapur - MPCB",13-03-2024 02:00:00,16.7143745,74.2426398,NO2,9,60,34
India,Maharashtra,Latur,"Sawe Wadi, Latur - MPCB",13-03-2024 02:00:00,18.39963,76.57452,PM10,80,128,101
India,Maharashtra,Latur,"Sawe Wadi, Latur - MPCB",13-03-2024 02:00:00,18.39963,76.57452,SO2,3,12,7
India,Maharashtra,Mahad,"Kamble Tarf Birwadi, Mahad - MPCB",13-03-2024 02:00:00,18.1023399,73.4783687,SO2,11,56,28
India,Maharashtra,Mumbai,"Bandra Kurla Complex, Mumbai - MPCB",13-03-2024 02:00:00,19.065931,72.862131,NO2,7,38,21
India,Maharashtra,Mumbai,"Bandra Kurla Complex, Mumbai - MPCB",13-03-2024 02:00:00,19.065931,72.862131,CO,15,42,26
India,Maharashtra,Mumbai,"Borivali East, Mumbai - IITM",13-03-2024 02:00:00,19.23241,72.86895,OZONE,25,196,71
India,Maharashtra,Mumbai,"Byculla, Mumbai - BMC",13-03-2024 02:00:00,18.9767,72.8380,PM10,52,100,75
India,Maharashtra,Mumbai,"Chembur, Mumbai - MPCB",13-03-2024 02:00:00,19.0364585,72.8954371,PM2.5,84,170,119
India,Maharashtra,Mumbai,"Chembur, Mumbai - MPCB",13-03-2024 02:00:00,19.0364585,72.8954371,SO2,3,26,10
India,Maharashtra,Mumbai,"Chhatrapati Shivaji Intl. Airport (T2), Mumbai - MPCB",13-03-2024 02:00:00,19.10078,72.87462,SO2,25,31,28
India,Maharashtra,Mumbai,"Chhatrapati Shivaji Intl. Airport (T2), Mumbai - MPCB",13-03-2024 02:00:00,19.10078,72.87462,CO,54,98,79
India,Maharashtra,Mumbai,"Colaba, Mumbai - MPCB",13-03-2024 02:00:00,18.910000,72.820000,PM2.5,31,62,43
India,Maharashtra,Mumbai,"Colaba, Mumbai - MPCB",13-03-2024 02:00:00,18.910000,72.820000,PM10,41,69,55
India,Maharashtra,Mumbai,"Colaba, Mumbai - MPCB",13-03-2024 02:00:00,18.910000,72.820000,OZONE,6,10,9
India,Maharashtra,Mumbai,"Ghatkopar, Mumbai - BMC",13-03-2024 02:00:00,19.083694,72.920967,OZONE,1,41,15
India,Maharashtra,Mumbai,"Kandivali East, Mumbai - MPCB",13-03-2024 02:00:00,19.205800,72.868200,PM2.5,18,85,39
India,Maharashtra,Mumbai,"Kandivali East, Mumbai - MPCB",13-03-2024 02:00:00,19.205800,72.868200,NO2,31,118,72
India,Maharashtra,Mumbai,"Kandivali East, Mumbai - MPCB",13-03-2024 02:00:00,19.205800,72.868200,CO,73,110,94
India,Maharashtra,Mumbai,"Kandivali West, Mumbai - BMC",13-03-2024 02:00:00,19.215859,72.831718,CO,NA,NA,NA
India,Maharashtra,Mumbai,"Kherwadi_Bandra East, Mumbai - MPCB",13-03-2024 02:00:00,19.0632143,72.8456324,PM2.5,73,133,95
India,Maharashtra,Mumbai,"Kurla, Mumbai - MPCB",13-03-2024 02:00:00,19.0863,72.8888,PM2.5,37,183,85
India,Maharashtra,Mumbai,"Kurla, Mumbai - MPCB",13-03-2024 02:00:00,19.0863,72.8888,CO,10,38,26
India,Maharashtra,Mumbai,"Kurla, Mumbai - MPCB",13-03-2024 02:00:00,19.0863,72.8888,OZONE,29,71,37
India,Maharashtra,Mumbai,"Mulund West, Mumbai - MPCB",13-03-2024 02:00:00,19.1750,72.9419,SO2,13,13,13
India,Maharashtra,Mumbai,"Mulund West, Mumbai - MPCB",13-03-2024 02:00:00,19.1750,72.9419,OZONE,7,7,7
India,Maharashtra,Mumbai,"Navy Nagar-Colaba, Mumbai - IITM",13-03-2024 02:00:00,18.897756,72.813320,PM2.5,134,237,194
India,Maharashtra,Mumbai,"Navy Nagar-Colaba, Mumbai - IITM",13-03-2024 02:00:00,18.897756,72.813320,OZONE,73,266,150
India,Maharashtra,Mumbai,"Powai, Mumbai - MPCB",13-03-2024 02:00:00,19.137500,72.915056,NH3,1,3,1
India,Maharashtra,Mumbai,"Sewri, Mumbai - BMC",13-03-2024 02:00:00,19.000084,72.856730,NH3,3,10,7
India,Maharashtra,Mumbai,"Sewri, Mumbai - BMC",13-03-2024 02:00:00,19.000084,72.856730,CO,14,44,33
India,Maharashtra,Mumbai,"Shivaji Nagar, Mumbai - BMC",13-03-2024 02:00:00,19.060498,72.923356,OZONE,1,118,34
India,Maharashtra,Mumbai,"Siddharth Nagar-Worli, Mumbai - IITM",13-03-2024 02:00:00,19.000083,72.813993,PM2.5,NA,NA,NA
India,Maharashtra,Mumbai,"Sion, Mumbai - MPCB",13-03-2024 02:00:00,19.047000,72.874600,OZONE,13,34,16
India,Maharashtra,Mumbai,"Vasai West, Mumbai - MPCB",13-03-2024 02:00:00,19.383200,72.820400,PM10,NA,NA,NA
India,Maharashtra,Mumbai,"Vasai West, Mumbai - MPCB",13-03-2024 02:00:00,19.383200,72.820400,CO,39,66,52
India,Maharashtra,Mumbai,"Worli, Mumbai - MPCB",13-03-2024 02:00:00,18.9936162,72.8128113,OZONE,7,11,8
India,Maharashtra,Nagpur,"Ambazari, Nagpur - MPCB",13-03-2024 02:00:00,21.121801,79.04952,NO2,18,77,33
India,Maharashtra,Nagpur,"Mahal, Nagpur - MPCB",13-03-2024 02:00:00,21.14472,79.107595,PM2.5,62,112,83
India,Maharashtra,Nanded,"Sneh Nagar, Nanded - MPCB",13-03-2024 02:00:00,19.173852,77.296291,NO2,NA,NA,NA
India,Maharashtra,Nanded,"Sneh Nagar, Nanded - MPCB",13-03-2024 02:00:00,19.173852,77.296291,SO2,2,7,5
India,Maharashtra,Nanded,"Sneh Nagar, Nanded - MPCB",13-03-2024 02:00:00,19.173852,77.296291,CO,30,41,36
India,Maharashtra,Nanded,"Sneh Nagar, Nanded - MPCB",13-03-2024 02:00:00,19.173852,77.296291,OZONE,11,178,51
India,Maharashtra,Nashik,"Gangapur Road, Nashik - MPCB",13-03-2024 02:00:00,20.0073285,73.7762427,PM2.5,60,133,85
India,Maharashtra,Nashik,"Pandav Nagari, Nashik - MPCB",13-03-2024 02:00:00,19.9591346,73.7788008,OZONE,31,66,48
India,Maharashtra,Navi Mumbai,"Kopripada-Vashi, Navi Mumbai - MPCB",13-03-2024 02:00:00,19.090337,73.014232,PM2.5,48,358,130
India,Maharashtra,Navi Mumbai,"Kopripada-Vashi, Navi Mumbai - MPCB",13-03-2024 02:00:00,19.090337,73.014232,PM10,80,376,156
India,Maharashtra,Navi Mumbai,"Kopripada-Vashi, Navi Mumbai - MPCB",13-03-2024 02:00:00,19.090337,73.014232,NH3,2,36,12
India,Maharashtra,Navi Mumbai,"Mahape, Navi Mumbai - MPCB",13-03-2024 02:00:00,19.1135051,73.008978,CO,32,74,62
India,Maharashtra,Navi Mumbai,"Mahape, Navi Mumbai - MPCB",13-03-2024 02:00:00,19.1135051,73.008978,OZONE,26,70,49
India,Maharashtra,Navi Mumbai,"Nerul, Navi Mumbai - MPCB",13-03-2024 02:00:00,19.008751,73.016620,NO2,25,40,32
India,Maharashtra,Navi Mumbai,"Sanpada, Navi Mumbai - MPCB",13-03-2024 02:00:00,19.0575752,73.0151367,NO2,2,25,9
India,Maharashtra,Navi Mumbai,"Sector-19A Nerul, Navi Mumbai - IITM",13-03-2024 02:00:00,19.044,73.0325,NH3,4,27,16
India,Maharashtra,Parbhani,"Masoom Colony, Parbhani - MPCB",13-03-2024 02:00:00,19.265594,76.761463,NO2,19,64,33
India,Maharashtra,Pimpri-Chinchwad,"Gavalinagar, Pimpri Chinchwad - MPCB",13-03-2024 02:00:00,18.63673,73.82487,NH3,1,14,4
India,Maharashtra,Pimpri-Chinchwad,"Gavalinagar, Pimpri Chinchwad - MPCB",13-03-2024 02:00:00,18.63673,73.82487,CO,12,86,27
India,Maharashtra,Pimpri-Chinchwad,"Park Street Wakad, Pimpri Chinchwad - MPCB",13-03-2024 02:00:00,18.59051,73.77946,SO2,9,30,17
India,Maharashtra,Pimpri-Chinchwad,"Thergaon, Pimpri Chinchwad - MPCB",13-03-2024 02:00:00,18.616318,73.765797,PM10,97,183,137
India,Maharashtra,Pimpri-Chinchwad,"Thergaon, Pimpri Chinchwad - MPCB",13-03-2024 02:00:00,18.616318,73.765797,CO,15,100,36
India,Maharashtra,Pimpri-Chinchwad,"Thergaon, Pimpri Chinchwad - MPCB",13-03-2024 02:00:00,18.616318,73.765797,OZONE,3,165,99
India,Maharashtra,Pune,"Bhosari, Pune - IITM",13-03-2024 02:00:00,18.640051,73.848956,PM2.5,7,168,62
India,Maharashtra,Pune,"Katraj Dairy, Pune - MPCB",13-03-2024 02:00:00,18.454450,73.854155,PM10,NA,NA,NA
India,Maharashtra,Pune,"Revenue Colony-Shivajinagar, Pune - IITM",13-03-2024 02:00:00,18.530085,73.849598,NO2,86,164,124
India,Maharashtra,Pune,"Savitribai Phule Pune University, Pune - MPCB",13-03-2024 02:00:00,18.547056,73.826908,NO2,20,138,55
India,Maharashtra,Pune,"Savitribai Phule Pune University, Pune - MPCB",13-03-2024 02:00:00,18.547056,73.826908,SO2,13,24,18
India,Maharashtra,Sangli,"Vijay Nagar, Sangli - MPCB",13-03-2024 02:00:00, 16.5038,74.3623,OZONE,36,114,62
India,Maharashtra,Solapur,"Dnyaneshwar Nagar, Solapur - MPCB",13-03-2024 02:00:00,17.6336264,75.9132495,PM10,91,146,118
India,Maharashtra,Solapur,"Dnyaneshwar Nagar, Solapur - MPCB",13-03-2024 02:00:00,17.6336264,75.9132495,CO,15,66,65
India,Maharashtra,Solapur,"Ratandeep Housing Society, Solapur - MPCB",13-03-2024 02:00:00,17.65439,75.90649,SO2,6,22,11
India,Maharashtra,Solapur,"Ratandeep Housing Society, Solapur - MPCB",13-03-2024 02:00:00,17.65439,75.90649,CO,15,102,65
India,Maharashtra,Thane,"Kasarvadavali, Thane - MPCB",13-03-2024 02:00:00,19.26777,72.97182,OZONE,5,165,68
India,Maharashtra,Thane,"Pimpleshwar Mandir, Thane - MPCB",13-03-2024 02:00:00,19.192056,72.9585188,NO2,6,18,11
India,Maharashtra,Thane,"Pimpleshwar Mandir, Thane - MPCB",13-03-2024 02:00:00,19.192056,72.9585188,NH3,3,3,3
India,Maharashtra,Thane,"Pimpleshwar Mandir, Thane - MPCB",13-03-2024 02:00:00,19.192056,72.9585188,CO,2,114,57
India,Maharashtra,Thane,"Upvan Fort, Thane - MPCB",13-03-2024 02:00:00,19.222279,72.957979,NO2,11,68,30
India,Maharashtra,Ulhasnagar,"Sidhi Vinayak Nagar, Ulhasnagar - MPCB",13-03-2024 02:00:00,19.235581,73.159121,PM10,99,176,126
India,Manipur,Imphal,"Manipur University, Imphal - Manipur PCB",13-03-2024 02:00:00,24.7524239,93.9286218,CO,16,35,28
India,Mizoram,Aizawl,"Sikulpuikawn, Aizawl - Mizoram PCB",13-03-2024 02:00:00,23.7176342,92.7192841,NH3,1,4,1
India,Mizoram,Aizawl,"Sikulpuikawn, Aizawl - Mizoram PCB",13-03-2024 02:00:00,23.7176342,92.7192841,OZONE,1,51,4
India,Nagaland,Kohima,"PWD Juction, Kohima - NPCB",13-03-2024 02:00:00,25.6635413,94.0989878,PM10,66,183,122
India,Nagaland,Kohima,"PWD Juction, Kohima - NPCB",13-03-2024 02:00:00,25.6635413,94.0989878,NO2,3,4,3
India,Nagaland,Kohima,"PWD Juction, Kohima - NPCB",13-03-2024 02:00:00,25.6635413,94.0989878,CO,16,34,28
India,Nagaland,Kohima,"PWD Juction, Kohima - NPCB",13-03-2024 02:00:00,25.6635413,94.0989878,OZONE,12,64,21
India,Odisha,Angul,"Hakimapada, Angul - OSPCB",13-03-2024 02:00:00,20.832874,85.104082,PM2.5,92,500,247
India,Odisha,Angul,"Hakimapada, Angul - OSPCB",13-03-2024 02:00:00,20.832874,85.104082,CO,51,152,71
India,Odisha,Balasore,"Kalidaspur, Balasore - OSPCB",13-03-2024 02:00:00,21.51161,86.89088,NH3,5,9,7
India,Odisha,Barbil,"Forest Office, Barbil - OSPCB",13-03-2024 02:00:00,22.1166054,85.3945546,SO2,1,38,9
India,Odisha,Barbil,"Forest Office, Barbil - OSPCB",13-03-2024 02:00:00,22.1166054,85.3945546,CO,9,105,50
India,Odisha,Baripada,"Meher Colony, Baripada - OSPCB",13-03-2024 02:00:00,21.941841,86.728318,NO2,1,1,1
India,Odisha,Baripada,"Meher Colony, Baripada - OSPCB",13-03-2024 02:00:00,21.941841,86.728318,SO2,4,7,6
India,Odisha,Bhubaneswar,"Patia, Bhubaneswar - OSPCB",13-03-2024 02:00:00,20.34652,85.81630,PM10,76,179,125
India,Odisha,Bileipada,"Tata Township, Bileipada - OSPCB",13-03-2024 02:00:00,22.06156703,85.47409613,NH3,11,11,11
India,Odisha,Bileipada,"Tata Township, Bileipada - OSPCB",13-03-2024 02:00:00,22.06156703,85.47409613,CO,14,36,22
India,Odisha,Bileipada,"Tata Township, Bileipada - OSPCB",13-03-2024 02:00:00,22.06156703,85.47409613,OZONE,19,29,20
India,Odisha,Brajrajnagar,"GM Office, Brajrajnagar - OSPCB",13-03-2024 02:00:00,21.8004996,83.8396977,NO2,16,17,16
India,Odisha,Brajrajnagar,"GM Office, Brajrajnagar - OSPCB",13-03-2024 02:00:00,21.8004996,83.8396977,SO2,15,15,15
India,Odisha,Byasanagar,"Ferro Chrome Colony, Byasanagar - OSPCB",13-03-2024 02:00:00,20.94185,86.11510,SO2,2,80,17
India,Odisha,Cuttack,"CDA Area, Cuttack - OSPCB",13-03-2024 02:00:00,20.48891     ,85.84768     ,NO2,NA,NA,NA
India,Odisha,Keonjhar,"Jagamohanpur, Keonjhar - OSPCB",13-03-2024 02:00:00,21.643900,85.599355,NO2,12,105,49
India,Odisha,Keonjhar,"Jagamohanpur, Keonjhar - OSPCB",13-03-2024 02:00:00,21.643900,85.599355,SO2,12,35,18
India,Odisha,Nayagarh,"Dabuna, Nayagarh - OSPCB",13-03-2024 02:00:00,21.847279,85.416905,PM10,78,205,136
India,Odisha,Rairangpur,"Divisional Forest Office, Rairangpur - OSPCB",13-03-2024 02:00:00,22.265816,86.174829,PM2.5,64,135,93
India,Odisha,Suakati,"OMC Colony, Suakati - OSPCB",13-03-2024 02:00:00,21.606865,85.510538,PM2.5,123,207,157
India,Odisha,Talcher,"Talcher Coalfields,Talcher - OSPCB",13-03-2024 02:00:00,20.9360711,85.1707021,NO2,37,43,40
India,Odisha,Talcher,"Talcher Coalfields,Talcher - OSPCB",13-03-2024 02:00:00,20.9360711,85.1707021,SO2,13,50,25
India,Punjab,Amritsar,"Golden Temple, Amritsar - PPCB",13-03-2024 02:00:00,31.620000,74.876512,PM10,91,135,110
India,Punjab,Amritsar,"Golden Temple, Amritsar - PPCB",13-03-2024 02:00:00,31.620000,74.876512,NH3,4,5,4
India,Punjab,Amritsar,"Golden Temple, Amritsar - PPCB",13-03-2024 02:00:00,31.620000,74.876512,SO2,3,46,19
India,Punjab,Amritsar,"Golden Temple, Amritsar - PPCB",13-03-2024 02:00:00,31.620000,74.876512,CO,2,103,33
India,Punjab,Bathinda,"Hardev Nagar, Bathinda - PPCB",13-03-2024 02:00:00,30.233011,74.907758,PM10,35,164,84
India,Punjab,Bathinda,"Hardev Nagar, Bathinda - PPCB",13-03-2024 02:00:00,30.233011,74.907758,SO2,1,22,11
India,Punjab,Jalandhar,"Civil Line, Jalandhar - PPCB",13-03-2024 02:00:00,31.321907,75.578914,PM2.5,66,136,89
India,Punjab,Jalandhar,"Civil Line, Jalandhar - PPCB",13-03-2024 02:00:00,31.321907,75.578914,SO2,10,16,13
India,Punjab,Khanna,"Kalal Majra, Khanna - PPCB",13-03-2024 02:00:00,30.736056 ,76.209694,NH3,14,15,14
India,Punjab,Khanna,"Kalal Majra, Khanna - PPCB",13-03-2024 02:00:00,30.736056 ,76.209694,SO2,9,31,19
India,Punjab,Ludhiana,"Punjab Agricultural University, Ludhiana - PPCB",13-03-2024 02:00:00,30.9028,75.8086,PM2.5,27,120,74
India,Punjab,Ludhiana,"Punjab Agricultural University, Ludhiana - PPCB",13-03-2024 02:00:00,30.9028,75.8086,OZONE,11,55,20
India,Punjab,Patiala,"Model Town, Patiala - PPCB",13-03-2024 02:00:00,30.349388,76.366642,NO2,22,27,25
India,Punjab,Patiala,"Model Town, Patiala - PPCB",13-03-2024 02:00:00,30.349388,76.366642,SO2,4,84,22
India,Punjab,Patiala,"Model Town, Patiala - PPCB",13-03-2024 02:00:00,30.349388,76.366642,CO,18,47,36
India,Punjab,Rupnagar,"Ratanpura, Rupnagar - Ambuja Cements",13-03-2024 02:00:00,31.0325454,76.5623046,PM10,44,493,211
India,Rajasthan,Ajmer,"Civil Lines,  Ajmer - RSPCB",13-03-2024 02:00:00,26.470859,74.646594,NO2,12,15,13
India,Rajasthan,Alwar,"Moti Doongri, Alwar - RSPCB",13-03-2024 02:00:00,27.554793,76.611536,PM10,53,121,89
India,Rajasthan,Alwar,"Moti Doongri, Alwar - RSPCB",13-03-2024 02:00:00,27.554793,76.611536,NH3,5,12,7
India,Rajasthan,Baran,"Bamboliya, Baran - RSPCB",13-03-2024 02:00:00,25.106006,76.469948,NH3,3,31,8
India,Rajasthan,Baran,"Bamboliya, Baran - RSPCB",13-03-2024 02:00:00,25.106006,76.469948,SO2,7,34,15
India,Rajasthan,Baran,"Bamboliya, Baran - RSPCB",13-03-2024 02:00:00,25.106006,76.469948,CO,13,80,35
India,Rajasthan,Barmer,"Railway Colony, Barmer - RSPCB",13-03-2024 02:00:00,25.747299,71.393989,NH3,5,27,9
India,Rajasthan,Barmer,"Railway Colony, Barmer - RSPCB",13-03-2024 02:00:00,25.747299,71.393989,CO,6,112,58
India,Rajasthan,Bharatpur,"Krishna Nagar, Bharatpur - RSPCB",13-03-2024 02:00:00,27.215415,77.50873,NO2,35,64,52
India,Rajasthan,Bharatpur,"Krishna Nagar, Bharatpur - RSPCB",13-03-2024 02:00:00,27.215415,77.50873,SO2,1,10,5
India,Rajasthan,Bharatpur,"Krishna Nagar, Bharatpur - RSPCB",13-03-2024 02:00:00,27.215415,77.50873,CO,16,90,54
India,Rajasthan,Bhilwara,"Pratap Nagar, Bhilwara - RSPCB",13-03-2024 02:00:00,25.339605,74.618883,OZONE,12,69,36
India,Rajasthan,Bhiwadi,"RIICO Ind. Area III, Bhiwadi - RSPCB",13-03-2024 02:00:00,28.194909,76.862296,PM10,37,219,153
India,Rajasthan,Bhiwadi,"Vasundhara Nagar_UIT, Bhiwadi - RSPCB",13-03-2024 02:00:00,28.207266,76.829265,NO2,22,105,56
India,Rajasthan,Bikaner,"MM Ground, Bikaner - RSPCB",13-03-2024 02:00:00,28.018792,73.292658,NO2,18,85,45
India,Rajasthan,Bikaner,"MM Ground, Bikaner - RSPCB",13-03-2024 02:00:00,28.018792,73.292658,CO,18,74,37
India,Rajasthan,Bikaner,"MM Ground, Bikaner - RSPCB",13-03-2024 02:00:00,28.018792,73.292658,OZONE,32,101,61
India,Rajasthan,Bundi,"New Colony, Bundi - RSPCB",13-03-2024 02:00:00,25.435774,75.644272,OZONE,22,112,69
India,Rajasthan,Chittorgarh,"Shastri Nagar, Chittorgarh - RSPCB",13-03-2024 02:00:00,24.892047,74.623527,NH3,2,13,7
India,Rajasthan,Chittorgarh,"Shastri Nagar, Chittorgarh - RSPCB",13-03-2024 02:00:00,24.892047,74.623527,OZONE,1,91,32
India,Rajasthan,Churu,"Subash Chowk, Churu - RSPCB",13-03-2024 02:00:00,28.296139,74.961696,NO2,3,32,14
India,Rajasthan,Churu,"Subash Chowk, Churu - RSPCB",13-03-2024 02:00:00,28.296139,74.961696,SO2,6,26,12
India,Rajasthan,Dausa,"Khatikan Mohalla, Dausa - RSPCB",13-03-2024 02:00:00,26.895552,76.334753,SO2,4,13,9
India,Rajasthan,Dausa,"Khatikan Mohalla, Dausa - RSPCB",13-03-2024 02:00:00,26.895552,76.334753,CO,12,94,74
India,Rajasthan,Dausa,"Khatikan Mohalla, Dausa - RSPCB",13-03-2024 02:00:00,26.895552,76.334753,OZONE,81,118,93
India,Rajasthan,Hanumangarh,"Housing Board, Hanumangarh - RSPCB",13-03-2024 02:00:00,29.610750,74.283608,PM2.5,32,310,173
India,Rajasthan,Hanumangarh,"Housing Board, Hanumangarh - RSPCB",13-03-2024 02:00:00,29.610750,74.283608,CO,38,100,62
India,Rajasthan,Hanumangarh,"Housing Board, Hanumangarh - RSPCB",13-03-2024 02:00:00,29.610750,74.283608,OZONE,6,40,19
India,Rajasthan,Jaipur,"Adarsh Nagar, Jaipur - RSPCB",13-03-2024 02:00:00,26.902909,75.836858,CO,5,40,27
India,Rajasthan,Jaipur,"Mansarovar Sector-12, Jaipur - RSPCB",13-03-2024 02:00:00,26.843698,75.766894,NO2,25,38,32
India,Rajasthan,Jaipur,"Mansarovar Sector-12, Jaipur - RSPCB",13-03-2024 02:00:00,26.843698,75.766894,NH3,4,6,5
India,Rajasthan,Jaipur,"Mansarovar Sector-12, Jaipur - RSPCB",13-03-2024 02:00:00,26.843698,75.766894,OZONE,8,23,12
India,Rajasthan,Jaipur,"RIICO Sitapura, Jaipur - RSPCB",13-03-2024 02:00:00,26.786682,75.827928,PM10,77,190,137
India,Rajasthan,Jaipur,"Shastri Nagar, Jaipur - RSPCB",13-03-2024 02:00:00,26.9502929,75.730943,NO2,9,89,31
India,Rajasthan,Jaisalmer,"Sadar Bazar, Jaisalmer - RSPCB",13-03-2024 02:00:00,26.912329,70.909168,PM2.5,13,141,53
India,Rajasthan,Jaisalmer,"Sadar Bazar, Jaisalmer - RSPCB",13-03-2024 02:00:00,26.912329,70.909168,PM10,55,176,105
India,Rajasthan,Jalore,"Mudtra Sili, Jalore - RSPCB",13-03-2024 02:00:00,25.344694,72.626208,PM2.5,21,272,65
India,Rajasthan,Jalore,"Mudtra Sili, Jalore - RSPCB",13-03-2024 02:00:00,25.344694,72.626208,SO2,4,8,5
India,Rajasthan,Jalore,"Mudtra Sili, Jalore - RSPCB",13-03-2024 02:00:00,25.344694,72.626208,OZONE,9,99,42
India,Rajasthan,Jhalawar,"Rajlaxmi Nagar, Jhalawar - RSPCB",13-03-2024 02:00:00,24.588397,76.172782,PM10,56,184,110
India,Rajasthan,Jhalawar,"Rajlaxmi Nagar, Jhalawar - RSPCB",13-03-2024 02:00:00,24.588397,76.172782,NH3,4,6,5
India,Rajasthan,Jhunjhunu,"Indra Nagar, Jhunjhunu - RSPCB",13-03-2024 02:00:00,28.108988,75.386577,PM2.5,36,312,118
India,Rajasthan,Jodhpur,"Collectorate, Jodhpur - RSPCB",13-03-2024 02:00:00,26.268249,73.0193853,PM10,5,147,102
India,Rajasthan,Jodhpur,"Collectorate, Jodhpur - RSPCB",13-03-2024 02:00:00,26.268249,73.0193853,OZONE,44,123,72
India,Rajasthan,Jodhpur,"Digari Kalan, Jodhpur - RSPCB",13-03-2024 02:00:00,26.295810,73.082283,SO2,1,7,4
India,Rajasthan,Jodhpur,"Jhalamand, Jodhpur - RSPCB",13-03-2024 02:00:00,26.215415,73.070156,PM2.5,28,321,128
India,Rajasthan,Jodhpur,"Jhalamand, Jodhpur - RSPCB",13-03-2024 02:00:00,26.215415,73.070156,NO2,27,54,36
India,Rajasthan,Jodhpur,"Mandor, Jodhpur - RSPCB",13-03-2024 02:00:00,26.358805,73.047444,SO2,1,6,3
India,Rajasthan,Jodhpur,"Samrat Ashok Udhyan, Jodhpur - RSPCB",13-03-2024 02:00:00,26.253384,72.976571,NO2,4,57,22
India,Rajasthan,Jodhpur,"Samrat Ashok Udhyan, Jodhpur - RSPCB",13-03-2024 02:00:00,26.253384,72.976571,SO2,2,11,5
India,Rajasthan,Karauli,"Satyawati Vihar, Karauli - RSPCB",13-03-2024 02:00:00,26.506177,77.025989,PM10,23,109,48
India,Rajasthan,Karauli,"Satyawati Vihar, Karauli - RSPCB",13-03-2024 02:00:00,26.506177,77.025989,SO2,4,16,10
India,Rajasthan,Kota,"Dhanmandi, Kota - RSPCB",13-03-2024 02:00:00,25.164090,75.858137,PM10,65,274,118
India,Rajasthan,Kota,"Dhanmandi, Kota - RSPCB",13-03-2024 02:00:00,25.164090,75.858137,SO2,3,15,7
India,Rajasthan,Kota,"Shrinath Puram, Kota - RSPCB",13-03-2024 02:00:00,25.14389,75.821256,PM10,66,149,102
India,Rajasthan,Nagaur,"Karni Colony, Nagaur - RSPCB",13-03-2024 02:00:00,27.213494,73.734444,PM10,NA,NA,NA
India,Rajasthan,Pali,"Indira Colony Vistar, Pali - RSPCB",13-03-2024 02:00:00,25.771061, 73.340227,PM2.5,38,349,159
India,Rajasthan,Pali,"Indira Colony Vistar, Pali - RSPCB",13-03-2024 02:00:00,25.771061, 73.340227,OZONE,14,77,32
India,Rajasthan,Pratapgarh,"Pragati Nagar, Pratapgarh - RSPCB",13-03-2024 02:00:00,24.041198,74.780702,SO2,2,6,3
India,Rajasthan,Sikar,"Radhakishan Pura, Sikar - RSPCB",13-03-2024 02:00:00,27.608912,75.153302,PM10,74,293,126
India,Rajasthan,Sirohi,"Vedhaynath Colony, Sirohi - RSPCB",13-03-2024 02:00:00,24.885261,72.857549,PM2.5,23,190,64
India,Rajasthan,Sirohi,"Vedhaynath Colony, Sirohi - RSPCB",13-03-2024 02:00:00,24.885261,72.857549,PM10,28,168,70
India,Rajasthan,Sirohi,"Vedhaynath Colony, Sirohi - RSPCB",13-03-2024 02:00:00,24.885261,72.857549,CO,3,81,49
India,Rajasthan,Sri Ganganagar,"Old City, Sri Ganganagar - RSPCB",13-03-2024 02:00:00,29.931624,73.864511,NH3,5,43,14
India,Rajasthan,Sri Ganganagar,"Old City, Sri Ganganagar - RSPCB",13-03-2024 02:00:00,29.931624,73.864511,CO,16,107,58
India,Rajasthan,Udaipur,"Ashok Nagar, Udaipur - RSPCB",13-03-2024 02:00:00,24.5886166,73.6321397,PM10,32,128,67
India,Sikkim,Gangtok,"Zero Point GICI, Gangtok - SSPCB",13-03-2024 02:00:00,27.338530,88.614099,PM10,40,98,72
India,Sikkim,Gangtok,"Zero Point GICI, Gangtok - SSPCB",13-03-2024 02:00:00,27.338530,88.614099,NO2,1,9,3
India,Sikkim,Gangtok,"Zero Point GICI, Gangtok - SSPCB",13-03-2024 02:00:00,27.338530,88.614099,CO,24,41,28
India,TamilNadu,Chengalpattu,"Crescent University, Chengalpattu - TNPCB",13-03-2024 02:00:00,12.8777316,80.0834807,OZONE,NA,NA,NA
India,TamilNadu,Chennai,"Arumbakkam, Chennai - TNPCB",13-03-2024 02:00:00,13.0664,80.2112 ,NO2,10,29,19
India,TamilNadu,Chennai,"Arumbakkam, Chennai - TNPCB",13-03-2024 02:00:00,13.0664,80.2112 ,SO2,1,9,4
India,TamilNadu,Chennai,"Kodungaiyur, Chennai - TNPCB",13-03-2024 02:00:00,13.1278,80.2642,PM2.5,20,45,29
India,TamilNadu,Chennai,"Kodungaiyur, Chennai - TNPCB",13-03-2024 02:00:00,13.1278,80.2642,OZONE,5,6,6
India,TamilNadu,Chennai,"Manali, Chennai - CPCB",13-03-2024 02:00:00,13.164544,80.26285,PM2.5,35,62,50
India,TamilNadu,Chennai,"Manali, Chennai - CPCB",13-03-2024 02:00:00,13.164544,80.26285,NO2,7,9,8
India,TamilNadu,Chennai,"Perungudi, Chennai - TNPCB",13-03-2024 02:00:00,12.9533,80.2357,PM2.5,37,78,51
India,TamilNadu,Chennai,"Perungudi, Chennai - TNPCB",13-03-2024 02:00:00,12.9533,80.2357,PM10,53,114,78
India,TamilNadu,Chennai,"Perungudi, Chennai - TNPCB",13-03-2024 02:00:00,12.9533,80.2357,NO2,3,14,6
India,TamilNadu,Chennai,"Perungudi, Chennai - TNPCB",13-03-2024 02:00:00,12.9533,80.2357,NH3,2,3,2
India,TamilNadu,Chennai,"Royapuram, Chennai - TNPCB",13-03-2024 02:00:00,13.1036,80.2909,PM2.5,31,52,43
India,TamilNadu,Coimbatore,"PSG College of Arts and Science, Coimbatore - TNPCB",13-03-2024 02:00:00,11.0328,77.0349,NH3,1,1,1
India,TamilNadu,Cuddalore,"Kudikadu, Cuddalore - TNPCB",13-03-2024 02:00:00,11.6829898,79.7532099,NO2,NA,NA,NA
India,TamilNadu,Cuddalore,"Semmandalam, Cuddalore - TNPCB",13-03-2024 02:00:00,11.7637683,79.7499835,NO2,5,15,10
India,TamilNadu,Gummidipoondi,"Anthoni Pillai Nagar, Gummidipoondi - TNPCB",13-03-2024 02:00:00,13.4127,80.1081,PM2.5,53,202,105
India,TamilNadu,Kanchipuram,"Kilambi, Kanchipuram - TNPCB",13-03-2024 02:00:00,12.864618,79.659968,NH3,NA,NA,NA
India,TamilNadu,Kanchipuram,"Kilambi, Kanchipuram - TNPCB",13-03-2024 02:00:00,12.864618,79.659968,OZONE,NA,NA,NA
India,TamilNadu,Ooty,"Bombay Castel, Ooty - TNPCB",13-03-2024 02:00:00,11.4068288,76.7138973,PM2.5,NA,NA,NA
India,TamilNadu,Ooty,"Bombay Castel, Ooty - TNPCB",13-03-2024 02:00:00,11.4068288,76.7138973,SO2,NA,NA,NA
India,TamilNadu,Palkalaiperur,"Bharathidasan University, Palkalaiperur - TNPCB",13-03-2024 02:00:00,10.681158,78.741746,PM10,40,70,52
India,TamilNadu,Thoothukudi,"Meelavittan, Thoothukudi - TNPCB",13-03-2024 02:00:00,8.816428 ,78.099039,PM10,40,355,84
India,TamilNadu,Tirupur,"Kumaran College, Tirupur - TNPCB",13-03-2024 02:00:00,11.0973603,77.3228673,PM2.5,21,60,37
India,TamilNadu,Tirupur,"Kumaran College, Tirupur - TNPCB",13-03-2024 02:00:00,11.0973603,77.3228673,NH3,NA,NA,NA
India,TamilNadu,Tirupur,"Kumaran College, Tirupur - TNPCB",13-03-2024 02:00:00,11.0973603,77.3228673,OZONE,6,7,7
India,Telangana,Hyderabad,"Bollaram Industrial Area, Hyderabad - TSPCB",13-03-2024 02:00:00,17.540891,78.358528,NO2,17,52,35
India,Telangana,Hyderabad,"Bollaram Industrial Area, Hyderabad - TSPCB",13-03-2024 02:00:00,17.540891,78.358528,OZONE,35,39,36
India,Telangana,Hyderabad,"Central University, Hyderabad - TSPCB",13-03-2024 02:00:00,17.460103,78.334361,NO2,18,34,26
India,Telangana,Hyderabad,"ECIL Kapra, Hyderabad - TSPCB",13-03-2024 02:00:00,17.470431,78.566959,PM10,59,80,67
India,Telangana,Hyderabad,"ECIL Kapra, Hyderabad - TSPCB",13-03-2024 02:00:00,17.470431,78.566959,SO2,4,27,13
India,Telangana,Hyderabad,"ECIL Kapra, Hyderabad - TSPCB",13-03-2024 02:00:00,17.470431,78.566959,CO,24,54,27
India,Telangana,Hyderabad,"Kokapet, Hyderabad - TSPCB",13-03-2024 02:00:00,17.393559,78.339194,CO,23,29,28
India,Telangana,Hyderabad,"Kokapet, Hyderabad - TSPCB",13-03-2024 02:00:00,17.393559,78.339194,OZONE,1,23,5
India,Telangana,Hyderabad,"Kompally Municipal Office, Hyderabad - TSPCB",13-03-2024 02:00:00,17.544899,78.486949,NO2,9,12,10
India,Telangana,Hyderabad,"Kompally Municipal Office, Hyderabad - TSPCB",13-03-2024 02:00:00,17.544899,78.486949,NH3,5,7,6
India,Telangana,Hyderabad,"Kompally Municipal Office, Hyderabad - TSPCB",13-03-2024 02:00:00,17.544899,78.486949,OZONE,3,93,46
India,Telangana,Hyderabad,"Nacharam_TSIIC IALA, Hyderabad - TSPCB",13-03-2024 02:00:00,17.429398,78.569354,CO,14,44,16
India,Telangana,Hyderabad,"Nacharam_TSIIC IALA, Hyderabad - TSPCB",13-03-2024 02:00:00,17.429398,78.569354,OZONE,12,30,29
India,Telangana,Hyderabad,"New Malakpet, Hyderabad - TSPCB",13-03-2024 02:00:00,17.37206,78.50864,NH3,4,4,4
India,Telangana,Hyderabad,"Ramachandrapuram, Hyderabad - TSPCB",13-03-2024 02:00:00,17.528544,78.286195,PM2.5,NA,NA,NA
India,Telangana,Hyderabad,"Ramachandrapuram, Hyderabad - TSPCB",13-03-2024 02:00:00,17.528544,78.286195,PM10,NA,NA,NA
India,Telangana,Hyderabad,"Sanathnagar, Hyderabad - TSPCB",13-03-2024 02:00:00,17.4559458,78.4332152,PM2.5,68,154,93
India,Telangana,Hyderabad,"Zoo Park, Hyderabad - TSPCB",13-03-2024 02:00:00,17.349694,78.451437,SO2,1,8,3
India,Tripura,Agartala,"Bardowali, Agartala - Tripura SPCB",13-03-2024 02:00:00,23.8175497,91.2726974,PM10,NA,NA,NA
India,Tripura,Agartala,"Bardowali, Agartala - Tripura SPCB",13-03-2024 02:00:00,23.8175497,91.2726974,NO2,NA,NA,NA
India,Uttar_Pradesh,Agra,"Manoharpur, Agra - UPPCB",13-03-2024 02:00:00,27.23711,78.01936,PM10,32,102,64
India,Uttar_Pradesh,Agra,"Manoharpur, Agra - UPPCB",13-03-2024 02:00:00,27.23711,78.01936,NH3,1,2,2
India,Uttar_Pradesh,Agra,"Manoharpur, Agra - UPPCB",13-03-2024 02:00:00,27.23711,78.01936,OZONE,1,39,13
India,Uttar_Pradesh,Agra,"Rohta, Agra - UPPCB",13-03-2024 02:00:00,27.106972,78.000111,PM10,23,128,66
India,Uttar_Pradesh,Agra,"Rohta, Agra - UPPCB",13-03-2024 02:00:00,27.106972,78.000111,SO2,4,13,8
India,Uttar_Pradesh,Agra,"Sanjay Palace, Agra - UPPCB",13-03-2024 02:00:00,27.19865833,78.00598056,NO2,37,58,47
India,Uttar_Pradesh,Agra,"Sanjay Palace, Agra - UPPCB",13-03-2024 02:00:00,27.19865833,78.00598056,SO2,5,9,8
India,Uttar_Pradesh,Agra,"Sector-3B Avas Vikas Colony, Agra - UPPCB",13-03-2024 02:00:00,27.19412,77.96237,NO2,8,24,16
India,Uttar_Pradesh,Agra,"Sector-3B Avas Vikas Colony, Agra - UPPCB",13-03-2024 02:00:00,27.19412,77.96237,SO2,22,24,22
India,Uttar_Pradesh,Agra,"Shastripuram, Agra - UPPCB",13-03-2024 02:00:00,27.19862,77.92066,PM10,26,157,106
India,Uttar_Pradesh,Agra,"Shastripuram, Agra - UPPCB",13-03-2024 02:00:00,27.19862,77.92066,NH3,1,1,1
India,Uttar_Pradesh,Agra,"Shastripuram, Agra - UPPCB",13-03-2024 02:00:00,27.19862,77.92066,OZONE,1,15,5
India,Uttar_Pradesh,Baghpat,"Sardar Patel Inter College, Baghpat - UPPCB",13-03-2024 02:00:00,28.964949,77.278761,NO2,12,49,27
India,Uttar_Pradesh,Baghpat,"Sardar Patel Inter College, Baghpat - UPPCB",13-03-2024 02:00:00,28.964949,77.278761,NH3,1,4,2
India,Uttar_Pradesh,Bareilly,"Civil Lines, Bareilly - UPPCB",13-03-2024 02:00:00,28.359581,79.414455,CO,26,52,36
India,Uttar_Pradesh,Bulandshahr,"Yamunapuram, Bulandshahr - UPPCB",13-03-2024 02:00:00,28.406963,77.849831,PM2.5,43,279,111
India,Uttar_Pradesh,Bulandshahr,"Yamunapuram, Bulandshahr - UPPCB",13-03-2024 02:00:00,28.406963,77.849831,SO2,22,105,53
India,Uttar_Pradesh,Firozabad,"Nagla Bhau, Firozabad - UPPCB",13-03-2024 02:00:00,27.168897,78.376960,PM10,29,84,45
India,Uttar_Pradesh,Ghaziabad,"Indirapuram, Ghaziabad - UPPCB",13-03-2024 02:00:00,28.646233,77.358075,SO2,10,21,16
India,Uttar_Pradesh,Ghaziabad,"Loni, Ghaziabad - UPPCB",13-03-2024 02:00:00,28.757294,77.278792,CO,2,38,18
India,Uttar_Pradesh,Ghaziabad,"Sanjay Nagar, Ghaziabad - UPPCB",13-03-2024 02:00:00,28.685382,77.453839,PM10,72,233,136
India,Uttar_Pradesh,Ghaziabad,"Sanjay Nagar, Ghaziabad - UPPCB",13-03-2024 02:00:00,28.685382,77.453839,NO2,26,94,57
India,Uttar_Pradesh,Ghaziabad,"Sanjay Nagar, Ghaziabad - UPPCB",13-03-2024 02:00:00,28.685382,77.453839,CO,4,57,38
India,Uttar_Pradesh,Ghaziabad,"Vasundhara, Ghaziabad - UPPCB",13-03-2024 02:00:00,28.6603346,77.3572563,PM2.5,35,276,127
India,Uttar_Pradesh,Ghaziabad,"Vasundhara, Ghaziabad - UPPCB",13-03-2024 02:00:00,28.6603346,77.3572563,SO2,6,103,25
India,Uttar_Pradesh,Ghaziabad,"Vasundhara, Ghaziabad - UPPCB",13-03-2024 02:00:00,28.6603346,77.3572563,OZONE,6,81,23
India,Uttar_Pradesh,Greater Noida,"Knowledge Park - III, Greater Noida - UPPCB",13-03-2024 02:00:00,28.47272,77.482000,CO,38,97,61
India,Uttar_Pradesh,Greater Noida,"Knowledge Park - III, Greater Noida - UPPCB",13-03-2024 02:00:00,28.47272,77.482000,OZONE,1,237,37
India,Uttar_Pradesh,Greater Noida,"Knowledge Park - V, Greater Noida - UPPCB",13-03-2024 02:00:00,28.557054,77.453663,NH3,3,7,4
India,Uttar_Pradesh,Greater Noida,"Knowledge Park - V, Greater Noida - UPPCB",13-03-2024 02:00:00,28.557054,77.453663,SO2,2,49,20
India,Uttar_Pradesh,Greater Noida,"Knowledge Park - V, Greater Noida - UPPCB",13-03-2024 02:00:00,28.557054,77.453663,CO,17,61,37
India,Uttar_Pradesh,Hapur,"Anand Vihar, Hapur - UPPCB",13-03-2024 02:00:00,28.725645,77.749675,NH3,7,10,8
India,Uttar_Pradesh,Hapur,"Anand Vihar, Hapur - UPPCB",13-03-2024 02:00:00,28.725645,77.749675,SO2,22,102,46
India,Uttar_Pradesh,Jhansi,"Shivaji Nagar, Jhansi - UPPCB",13-03-2024 02:00:00,25.4547,78.6039,PM2.5,21,70,44
India,Uttar_Pradesh,Jhansi,"Shivaji Nagar, Jhansi - UPPCB",13-03-2024 02:00:00,25.4547,78.6039,NO2,7,24,14
India,Uttar_Pradesh,Jhansi,"Shivaji Nagar, Jhansi - UPPCB",13-03-2024 02:00:00,25.4547,78.6039,SO2,11,14,12
India,Uttar_Pradesh,Kanpur,"NSI Kalyanpur, Kanpur - UPPCB",13-03-2024 02:00:00,26.509954,80.249612,NO2,16,18,17
India,Uttar_Pradesh,Kanpur,"Nehru Nagar, Kanpur - UPPCB",13-03-2024 02:00:00,26.4703136,80.3229863,SO2,1,10,6
India,Uttar_Pradesh,Khurja,"Kalindi Kunj, Khurja - UPPCB",13-03-2024 02:00:00,28.2348927,77.8683002,NO2,13,30,18
India,Uttar_Pradesh,Khurja,"Kalindi Kunj, Khurja - UPPCB",13-03-2024 02:00:00,28.2348927,77.8683002,SO2,25,60,33
India,Uttar_Pradesh,Lucknow,"B R Ambedkar University, Lucknow - UPPCB",13-03-2024 02:00:00,26.766433,80.927299,NH3,5,7,6
India,Uttar_Pradesh,Lucknow,"Kendriya Vidyalaya, Lucknow - CPCB",13-03-2024 02:00:00,26.906111,80.948222,PM10,90,141,113
India,Uttar_Pradesh,Lucknow,"Kendriya Vidyalaya, Lucknow - CPCB",13-03-2024 02:00:00,26.906111,80.948222,NH3,4,23,15
India,Uttar_Pradesh,Lucknow,"Kendriya Vidyalaya, Lucknow - CPCB",13-03-2024 02:00:00,26.906111,80.948222,OZONE,16,44,25
India,Uttar_Pradesh,Lucknow,"Kukrail Picnic Spot-1, Lucknow - UPPCB",13-03-2024 02:00:00,26.90723,80.98579,PM2.5,35,71,53
India,Uttar_Pradesh,Lucknow,"Kukrail Picnic Spot-1, Lucknow - UPPCB",13-03-2024 02:00:00,26.90723,80.98579,NH3,2,2,2
India,Uttar_Pradesh,Lucknow,"Lalbagh, Lucknow - CPCB",13-03-2024 02:00:00,26.8458805,80.9365541,SO2,1,16,8
India,Uttar_Pradesh,Lucknow,"Talkatora District Industries Center, Lucknow - CPCB",13-03-2024 02:00:00,26.83399722,80.8917361,NH3,12,21,16
India,Uttar_Pradesh,Meerut,"Ganga Nagar, Meerut - UPPCB",13-03-2024 02:00:00,28.999264,77.7590354,PM2.5,23,188,87
India,Uttar_Pradesh,Meerut,"Jai Bhim Nagar, Meerut - UPPCB",13-03-2024 02:00:00,28.9535882,77.7622941,NO2,13,53,29
India,Uttar_Pradesh,Meerut,"Jai Bhim Nagar, Meerut - UPPCB",13-03-2024 02:00:00,28.9535882,77.7622941,NH3,5,7,6
India,Uttar_Pradesh,Meerut,"Pallavpuram Phase 2, Meerut - UPPCB",13-03-2024 02:00:00,29.063510,77.709723,PM10,78,162,121
India,Uttar_Pradesh,Meerut,"Pallavpuram Phase 2, Meerut - UPPCB",13-03-2024 02:00:00,29.063510,77.709723,CO,10,49,32
India,Uttar_Pradesh,Moradabad,"Buddhi Vihar, Moradabad - UPPCB",13-03-2024 02:00:00,28.83526,78.74460,NO2,23,24,23
India,Uttar_Pradesh,Moradabad,"Buddhi Vihar, Moradabad - UPPCB",13-03-2024 02:00:00,28.83526,78.74460,CO,24,38,28
India,Uttar_Pradesh,Moradabad,"Employment Office, Moradabad - UPPCB",13-03-2024 02:00:00,28.88528,78.73880,NH3,3,4,4
India,Uttar_Pradesh,Moradabad,"Jigar Colony, Moradabad - UPPCB",13-03-2024 02:00:00,28.856664,78.772638,NH3,5,16,5
India,Uttar_Pradesh,Moradabad,"Jigar Colony, Moradabad - UPPCB",13-03-2024 02:00:00,28.856664,78.772638,CO,30,52,35
India,Uttar_Pradesh,Moradabad,"Transport Nagar, Moradabad - UPPCB",13-03-2024 02:00:00,28.802625,78.753728,PM10,57,104,81
India,Uttar_Pradesh,Moradabad,"Transport Nagar, Moradabad - UPPCB",13-03-2024 02:00:00,28.802625,78.753728,NO2,8,36,21
India,Uttar_Pradesh,Moradabad,"Transport Nagar, Moradabad - UPPCB",13-03-2024 02:00:00,28.802625,78.753728,NH3,6,6,6
India,Uttar_Pradesh,Muzaffarnagar,"New Mandi, Muzaffarnagar - UPPCB",13-03-2024 02:00:00,29.4723508,77.7194031,SO2,27,55,41
India,Uttar_Pradesh,Noida,"Sector-1, Noida - UPPCB",13-03-2024 02:00:00,28.5898,77.3101,NO2,35,102,63
India,Uttar_Pradesh,Noida,"Sector-116, Noida - UPPCB",13-03-2024 02:00:00,28.569230,77.393848,NO2,20,98,49
India,Uttar_Pradesh,Noida,"Sector-116, Noida - UPPCB",13-03-2024 02:00:00,28.569230,77.393848,OZONE,2,27,8
India,Uttar_Pradesh,Prayagraj,"Jhunsi, Prayagraj - UPPCB",13-03-2024 02:00:00,25.425602,81.917152,PM2.5,17,83,42
India,Uttar_Pradesh,Prayagraj,"Jhunsi, Prayagraj - UPPCB",13-03-2024 02:00:00,25.425602,81.917152,SO2,30,32,31
India,Uttar_Pradesh,Prayagraj,"Jhunsi, Prayagraj - UPPCB",13-03-2024 02:00:00,25.425602,81.917152,CO,8,44,34
India,Uttar_Pradesh,Varanasi,"Bhelupur, Varanasi - UPPCB",13-03-2024 02:00:00,25.301778,82.996789,PM2.5,5,31,14
India,Uttar_Pradesh,Vrindavan,"Omex Eternity, Vrindavan - UPPCB",13-03-2024 02:00:00,27.5714090,77.6557570,PM2.5,23,72,47
India,Uttar_Pradesh,Vrindavan,"Omex Eternity, Vrindavan - UPPCB",13-03-2024 02:00:00,27.5714090,77.6557570,PM10,58,381,170
India,Uttar_Pradesh,Vrindavan,"Omex Eternity, Vrindavan - UPPCB",13-03-2024 02:00:00,27.5714090,77.6557570,NH3,3,4,3
India,Uttar_Pradesh,Vrindavan,"Omex Eternity, Vrindavan - UPPCB",13-03-2024 02:00:00,27.5714090,77.6557570,SO2,39,40,40
India,Uttarakhand,Dehradun,"Doon University, Dehradun - UKPCB",13-03-2024 02:00:00,30.269444,78.044167,PM2.5,31,136,79
India,Uttarakhand,Dehradun,"Doon University, Dehradun - UKPCB",13-03-2024 02:00:00,30.269444,78.044167,PM10,63,122,87
India,Uttarakhand,Dehradun,"Doon University, Dehradun - UKPCB",13-03-2024 02:00:00,30.269444,78.044167,SO2,1,4,2
India,Uttarakhand,Dehradun,"Doon University, Dehradun - UKPCB",13-03-2024 02:00:00,30.269444,78.044167,OZONE,37,112,66
India,Uttarakhand,Kashipur,"Govt. Girls Inter College, Kashipur - UKPCB",13-03-2024 02:00:00,29.2124114,78.9611753,PM2.5,42,78,64
India,Uttarakhand,Rishikesh,"Shivaji Nagar, Rishikesh - UKPCB",13-03-2024 02:00:00,30.075911,78.2859547,PM10,10,120,65
India,West_Bengal,Asansol,"Asansol Court Area, Asansol - WBPCB",13-03-2024 02:00:00,23.685297,86.945968,PM2.5,92,306,180
India,West_Bengal,Asansol,"Asansol Court Area, Asansol - WBPCB",13-03-2024 02:00:00,23.685297,86.945968,NH3,2,15,5
India,West_Bengal,Durgapur,"Sidhu Kanhu Indoor Stadium, Durgapur - WBPCB",13-03-2024 02:00:00,23.5404352,87.2892225,SO2,13,37,24
India,West_Bengal,Durgapur,"Sidhu Kanhu Indoor Stadium, Durgapur - WBPCB",13-03-2024 02:00:00,23.5404352,87.2892225,CO,27,81,59
India,West_Bengal,Durgapur,"Sidhu Kanhu Indoor Stadium, Durgapur - WBPCB",13-03-2024 02:00:00,23.5404352,87.2892225,OZONE,4,82,9
India,West_Bengal,Haldia,"Priyambada Housing Estate, Haldia - WBPCB",13-03-2024 02:00:00,22.06047,88.109737,NO2,16,34,24
India,West_Bengal,Haldia,"Priyambada Housing Estate, Haldia - WBPCB",13-03-2024 02:00:00,22.06047,88.109737,SO2,10,81,18
India,West_Bengal,Howrah,"Belur Math, Howrah - WBPCB",13-03-2024 02:00:00,22.629801,88.352017,NO2,11,30,22
India,West_Bengal,Howrah,"Ghusuri, Howrah - WBPCB",13-03-2024 02:00:00,22.611968,88.347422,OZONE,11,31,20
India,West_Bengal,Howrah,"Padmapukur, Howrah - WBPCB",13-03-2024 02:00:00,22.5687319,88.2797276,NH3,2,3,2
India,West_Bengal,Kolkata,"Fort William, Kolkata - WBPCB",13-03-2024 02:00:00,22.556640,88.342674,OZONE,25,112,47
India,West_Bengal,Kolkata,"Jadavpur, Kolkata - WBPCB",13-03-2024 02:00:00,22.49929,88.36917,NO2,1,9,3
India,West_Bengal,Kolkata,"Jadavpur, Kolkata - WBPCB",13-03-2024 02:00:00,22.49929,88.36917,CO,16,39,24
India,West_Bengal,Kolkata,"Rabindra Sarobar, Kolkata - WBPCB",13-03-2024 02:00:00,22.51106,88.35142,PM2.5,48,140,77
India,West_Bengal,Siliguri,"Ward-32 Bapupara, Siliguri - WBPCB",13-03-2024 02:00:00,26.6879226,88.4152495,PM10,110,214,152
India,West_Bengal,Siliguri,"Ward-32 Bapupara, Siliguri - WBPCB",13-03-2024 02:00:00,26.6879226,88.4152495,OZONE,9,82,23
India,Andhra_Pradesh,Amaravati,"Secretariat, Amaravati - APPCB",13-03-2024 02:00:00,16.5150833,80.5181667,NO2,5,17,11
India,Andhra_Pradesh,Chittoor,"Gangineni Cheruvu, Chittoor - APPCB",13-03-2024 02:00:00,13.204880,79.097889,PM10,NA,NA,NA
India,Andhra_Pradesh,Chittoor,"Gangineni Cheruvu, Chittoor - APPCB",13-03-2024 02:00:00,13.204880,79.097889,NO2,NA,NA,NA
India,Andhra_Pradesh,Kadapa,"Yerramukkapalli, Kadapa - APPCB",13-03-2024 02:00:00,14.465052,78.824187,PM2.5,22,63,45
India,Andhra_Pradesh,Kadapa,"Yerramukkapalli, Kadapa - APPCB",13-03-2024 02:00:00,14.465052,78.824187,CO,12,28,16
India,Andhra_Pradesh,Rajamahendravaram,"Anand Kala Kshetram, Rajamahendravaram - APPCB",13-03-2024 02:00:00,16.9872867,81.7363176,PM10,49,105,69
India,Andhra_Pradesh,Rajamahendravaram,"Anand Kala Kshetram, Rajamahendravaram - APPCB",13-03-2024 02:00:00,16.9872867,81.7363176,NH3,3,5,4
India,Andhra_Pradesh,Tirupati,"Vaikuntapuram, Tirupati - APPCB",13-03-2024 02:00:00,13.615387,79.409230,PM2.5,NA,NA,NA
India,Andhra_Pradesh,Tirupati,"Vaikuntapuram, Tirupati - APPCB",13-03-2024 02:00:00,13.615387,79.409230,CO,NA,NA,NA
India,Andhra_Pradesh,Vijayawada,"HB Colony, Vijayawada - APPCB",13-03-2024 02:00:00,16.536107,80.594233,PM2.5,63,84,74
India,Andhra_Pradesh,Vijayawada,"Rajiv Gandhi Park, Vijayawada - APPCB",13-03-2024 02:00:00,16.509717,80.612222,SO2,4,9,7
India,Andhra_Pradesh,Vijayawada,"Rajiv Gandhi Park, Vijayawada - APPCB",13-03-2024 02:00:00,16.509717,80.612222,OZONE,2,62,19
India,Andhra_Pradesh,Vijayawada,"Rajiv Nagar, Vijayawada - APPCB",13-03-2024 02:00:00,16.554731,80.649110,PM10,69,82,73
India,Andhra_Pradesh,Vijayawada,"Rajiv Nagar, Vijayawada - APPCB",13-03-2024 02:00:00,16.554731,80.649110,NO2,5,36,15
India,Arunachal_Pradesh,Naharlagun,"Naharlagun, Naharlagun - APSPCB",13-03-2024 02:00:00,27.103358,93.679645,PM10,NA,NA,NA
India,Arunachal_Pradesh,Naharlagun,"Naharlagun, Naharlagun - APSPCB",13-03-2024 02:00:00,27.103358,93.679645,NO2,NA,NA,NA
India,Arunachal_Pradesh,Naharlagun,"Naharlagun, Naharlagun - APSPCB",13-03-2024 02:00:00,27.103358,93.679645,CO,14,42,31
India,Arunachal_Pradesh,Naharlagun,"Naharlagun, Naharlagun - APSPCB",13-03-2024 02:00:00,27.103358,93.679645,OZONE,2,2,2
India,Assam,Byrnihat,"Central Academy for SFS, Byrnihat - PCBA",13-03-2024 02:00:00,26.071318,91.87488,NO2,42,95,57
India,Assam,Byrnihat,"Central Academy for SFS, Byrnihat - PCBA",13-03-2024 02:00:00,26.071318,91.87488,NH3,5,8,7
India,Assam,Byrnihat,"Central Academy for SFS, Byrnihat - PCBA",13-03-2024 02:00:00,26.071318,91.87488,CO,31,71,38
India,Assam,Byrnihat,"Central Academy for SFS, Byrnihat - PCBA",13-03-2024 02:00:00,26.071318,91.87488,OZONE,10,17,15
India,Assam,Guwahati,"IITG, Guwahati - PCBA",13-03-2024 02:00:00,26.2028636,91.70046436,NO2,1,7,3
India,Assam,Guwahati,"IITG, Guwahati - PCBA",13-03-2024 02:00:00,26.2028636,91.70046436,NH3,5,5,5
India,Assam,Guwahati,"IITG, Guwahati - PCBA",13-03-2024 02:00:00,26.2028636,91.70046436,SO2,11,13,12
India,Assam,Guwahati,"LGBI Airport, Guwahati - PCBA",13-03-2024 02:00:00,26.10887,91.589544,CO,29,56,47
India,Assam,Guwahati,"Pan Bazaar, Guwahati - PCBA",13-03-2024 02:00:00,26.187500,91.744194,CO,26,85,54
India,Assam,Nagaon,"Christianpatty, Nagaon - PCBA",13-03-2024 02:00:00,26.349082,92.68449,NO2,19,112,32
India,Assam,Nagaon,"Christianpatty, Nagaon - PCBA",13-03-2024 02:00:00,26.349082,92.68449,CO,4,69,27
India,Bihar,Araria,"Kharahiya Basti, Araria - BSPCB",13-03-2024 02:00:00,26.146529,87.454184,PM2.5,50,220,148
India,Bihar,Aurangabad,"Gurdeo Nagar, Aurangabad - BSPCB",13-03-2024 02:00:00,24.75746,84.366208,PM2.5,NA,NA,NA
India,Bihar,Aurangabad,"Gurdeo Nagar, Aurangabad - BSPCB",13-03-2024 02:00:00,24.75746,84.366208,PM10,NA,NA,NA
India,Bihar,Bettiah,"Kamalnath Nagar, Bettiah - BSPCB",13-03-2024 02:00:00,26.80365,84.51954,NH3,3,6,3
India,Bihar,Bhagalpur,"DM Office_Kachari Chowk, Bhagalpur - BSPCB",13-03-2024 02:00:00,25.251013,86.989001,PM2.5,70,203,106
India,Bihar,Bhagalpur,"DM Office_Kachari Chowk, Bhagalpur - BSPCB",13-03-2024 02:00:00,25.251013,86.989001,PM10,115,161,134
India,Bihar,Bhagalpur,"Mayaganj, Bhagalpur - BSPCB",13-03-2024 02:00:00,25.265194,87.012947,NH3,7,9,8
India,Bihar,Bhagalpur,"Mayaganj, Bhagalpur - BSPCB",13-03-2024 02:00:00,25.265194,87.012947,CO,8,10,9
India,Bihar,Bhagalpur,"Mayaganj, Bhagalpur - BSPCB",13-03-2024 02:00:00,25.265194,87.012947,OZONE,23,111,46
India,Bihar,Bihar Sharif,"D M Colony, Bihar Sharif - BSPCB",13-03-2024 02:00:00,25.204762,85.514960,NO2,7,10,9
India,Bihar,Bihar Sharif,"D M Colony, Bihar Sharif - BSPCB",13-03-2024 02:00:00,25.204762,85.514960,CO,6,58,30
India,Bihar,Buxar,"Charitra Van, Buxar - BSPCB (Formerly known as Central Jail)",13-03-2024 02:00:00,25.567520,83.966379,OZONE,23,182,52
India,Bihar,Chhapra,"Darshan Nagar, Chhapra - BSPCB",13-03-2024 02:00:00,25.7808257,84.7446768,PM2.5,117,260,170
India,Bihar,Chhapra,"Darshan Nagar, Chhapra - BSPCB",13-03-2024 02:00:00,25.7808257,84.7446768,SO2,NA,NA,NA
India,Bihar,Chhapra,"Darshan Nagar, Chhapra - BSPCB",13-03-2024 02:00:00,25.7808257,84.7446768,CO,30,58,46
India,Bihar,Gaya,"SFTI Kusdihra, Gaya - BSPCB",13-03-2024 02:00:00,24.762518,84.982348,PM10,52,92,72
India,Bihar,Gaya,"SFTI Kusdihra, Gaya - BSPCB",13-03-2024 02:00:00,24.762518,84.982348,SO2,6,11,7
India,Bihar,Hajipur,"Industrial Area, Hajipur - BSPCB",13-03-2024 02:00:00,25.697189,85.245900,PM2.5,67,93,81
India,Bihar,Hajipur,"Industrial Area, Hajipur - BSPCB",13-03-2024 02:00:00,25.697189,85.245900,NH3,16,17,17
India,Bihar,Katihar,"Mirchaibari, Katihar - BSPCB",13-03-2024 02:00:00,25.560083,87.553265,NO2,16,42,26
India,Bihar,Kishanganj,"SDM Office_Khagra, Kishanganj - BSPCB",13-03-2024 02:00:00,26.0881305,87.93840336,SO2,15,42,30
India,Bihar,Kishanganj,"SDM Office_Khagra, Kishanganj - BSPCB",13-03-2024 02:00:00,26.0881305,87.93840336,OZONE,20,52,23
India,Bihar,Manguraha,"Forest Rest House, Manguraha - BSPCB",13-03-2024 02:00:00,27.308328,84.531742,PM10,37,165,82
India,Bihar,Manguraha,"Forest Rest House, Manguraha - BSPCB",13-03-2024 02:00:00,27.308328,84.531742,SO2,2,3,3
India,Bihar,Manguraha,"Forest Rest House, Manguraha - BSPCB",13-03-2024 02:00:00,27.308328,84.531742,CO,24,105,83
India,Bihar,Manguraha,"Forest Rest House, Manguraha - BSPCB",13-03-2024 02:00:00,27.308328,84.531742,OZONE,10,82,49
India,Bihar,Motihari,"Gandak Colony, Motihari - BSPCB",13-03-2024 02:00:00,26.63086,84.90051,PM2.5,32,147,75
India,Bihar,Motihari,"Gandak Colony, Motihari - BSPCB",13-03-2024 02:00:00,26.63086,84.90051,NO2,40,97,68
India,Bihar,Motihari,"Gandak Colony, Motihari - BSPCB",13-03-2024 02:00:00,26.63086,84.90051,SO2,4,10,7
India,Bihar,Motihari,"Gandak Colony, Motihari - BSPCB",13-03-2024 02:00:00,26.63086,84.90051,OZONE,34,168,80
India,Bihar,Munger,"Town Hall, Munger - BSPCB",13-03-2024 02:00:00,25.376776,86.471523,CO,4,12,6
India,Bihar,Munger,"Town Hall, Munger - BSPCB",13-03-2024 02:00:00,25.376776,86.471523,OZONE,9,307,23
India,Bihar,Muzaffarpur,"Buddha Colony, Muzaffarpur - BSPCB",13-03-2024 02:00:00,26.11442,85.39813,SO2,NA,NA,NA
India,Bihar,Muzaffarpur,"MIT-Daudpur Kothi, Muzaffarpur - BSPCB",13-03-2024 02:00:00,26.1403345,85.3650192,PM2.5,98,277,193
India,Bihar,Muzaffarpur,"MIT-Daudpur Kothi, Muzaffarpur - BSPCB",13-03-2024 02:00:00,26.1403345,85.3650192,SO2,19,21,20
India,Bihar,Muzaffarpur,"Muzaffarpur Collectorate, Muzaffarpur - BSPCB",13-03-2024 02:00:00,26.1209,85.3647,NO2,10,14,11
India,Bihar,Patna,"DRM Office Danapur, Patna - BSPCB",13-03-2024 02:00:00,25.586562,85.043586,NO2,14,67,38
India,Bihar,Patna,"Muradpur, Patna - BSPCB",13-03-2024 02:00:00,25.619651,85.147382,CO,15,60,41
India,Bihar,Patna,"Muradpur, Patna - BSPCB",13-03-2024 02:00:00,25.619651,85.147382,OZONE,3,37,11
India,Bihar,Patna,"Rajbansi Nagar, Patna - BSPCB",13-03-2024 02:00:00,25.599486,85.113666,PM2.5,73,184,119
India,Bihar,Patna,"Rajbansi Nagar, Patna - BSPCB",13-03-2024 02:00:00,25.599486,85.113666,NH3,3,4,4
India,Bihar,Purnia,"Mariam Nagar, Purnia - BSPCB",13-03-2024 02:00:00,25.366336,87.117468,NH3,1,1,1
India,Bihar,Rajgir,"Dangi Tola, Rajgir - BSPCB",13-03-2024 02:00:00,25.03280,85.41948,NH3,1,4,1
India,Bihar,Saharsa,"Police Line, Saharsa - BSPCB",13-03-2024 02:00:00,25.892357,86.590325,PM2.5,40,213,92
India,Bihar,Samastipur,"DM Office_Kasipur, Samastipur - BSPCB",13-03-2024 02:00:00,25.859655,85.77944,PM2.5,37,103,71
India,Bihar,Samastipur,"DM Office_Kasipur, Samastipur - BSPCB",13-03-2024 02:00:00,25.859655,85.77944,NO2,2,26,8
India,Bihar,Samastipur,"DM Office_Kasipur, Samastipur - BSPCB",13-03-2024 02:00:00,25.859655,85.77944,OZONE,10,27,10
India,Bihar,Sasaram,"Dada Peer, Sasaram - BSPCB",13-03-2024 02:00:00,24.952822,84.002396,NH3,8,15,10
India,Bihar,Sasaram,"Dada Peer, Sasaram - BSPCB",13-03-2024 02:00:00,24.952822,84.002396,SO2,21,23,22
India,Bihar,Sasaram,"Dada Peer, Sasaram - BSPCB",13-03-2024 02:00:00,24.952822,84.002396,OZONE,7,89,33
India,Bihar,Siwan,"Chitragupta Nagar, Siwan - BSPCB",13-03-2024 02:00:00,26.2271665,84.3570427,NO2,11,38,20
India,Chandigarh,Chandigarh,"Sector-25, Chandigarh - CPCC",13-03-2024 02:00:00,30.751462,76.762879,PM10,106,151,130
India,Chandigarh,Chandigarh,"Sector-25, Chandigarh - CPCC",13-03-2024 02:00:00,30.751462,76.762879,NH3,11,21,15
India,Chandigarh,Chandigarh,"Sector-25, Chandigarh - CPCC",13-03-2024 02:00:00,30.751462,76.762879,SO2,7,22,10
India,Chandigarh,Chandigarh,"Sector-25, Chandigarh - CPCC",13-03-2024 02:00:00,30.751462,76.762879,CO,14,40,28
India,Chhattisgarh,Bhilai,"32Bungalows, Bhilai - CECB",13-03-2024 02:00:00,21.194815,81.314770,NH3,6,6,6
India,Chhattisgarh,Bhilai,"32Bungalows, Bhilai - CECB",13-03-2024 02:00:00,21.194815,81.314770,CO,16,48,34
India,Chhattisgarh,Bhilai,"32Bungalows, Bhilai - CECB",13-03-2024 02:00:00,21.194815,81.314770,OZONE,4,21,7
India,Chhattisgarh,Bhilai,"Hathkhoj, Bhilai - CECB",13-03-2024 02:00:00,21.224231,81.408350,PM2.5,26,143,83
India,Chhattisgarh,Bilaspur,"Mangala, Bilaspur - NTPC",13-03-2024 02:00:00,22.08815,82.13737,NO2,12,14,13
India,Chhattisgarh,Chhal,"Nawapara SECL Colony, Chhal - CECB",13-03-2024 02:00:00,22.118125,83.140608,PM2.5,41,106,82
India,Chhattisgarh,Chhal,"Nawapara SECL Colony, Chhal - CECB",13-03-2024 02:00:00,22.118125,83.140608,NH3,2,2,2
India,Chhattisgarh,Chhal,"Nawapara SECL Colony, Chhal - CECB",13-03-2024 02:00:00,22.118125,83.140608,CO,24,48,35
India,Chhattisgarh,Korba,"Rampur, Korba - CECB",13-03-2024 02:00:00,22.368195,82.746431,OZONE,2,23,3
India,Chhattisgarh,Korba,"Urja Nagar, Korba - CECB",13-03-2024 02:00:00,22.348441,82.549611,NH3,1,11,4
India,Chhattisgarh,Kunjemura,"OP Jindal School, Kunjemura - CECB",13-03-2024 02:00:00,22.126650,83.483212,OZONE,4,77,22
India,Chhattisgarh,Raipur,"AIIMS, Raipur - CECB",13-03-2024 02:00:00,21.258815,81.578979,NO2,49,79,64
India,Chhattisgarh,Raipur,"AIIMS, Raipur - CECB",13-03-2024 02:00:00,21.258815,81.578979,NH3,6,6,6
India,Chhattisgarh,Raipur,"Bhatagaon New ISBT, Raipur - CECB",13-03-2024 02:00:00,21.219665,81.630094,NO2,3,54,42
India,Chhattisgarh,Raipur,"Bhatagaon New ISBT, Raipur - CECB",13-03-2024 02:00:00,21.219665,81.630094,SO2,3,6,5
India,Chhattisgarh,Raipur,"Siltara Phase-II, Raipur - CECB",13-03-2024 02:00:00,21.371751,81.664929,NO2,40,73,54
India,Chhattisgarh,Raipur,"Siltara Phase-II, Raipur - CECB",13-03-2024 02:00:00,21.371751,81.664929,CO,14,82,56
India,Chhattisgarh,Tumidih,"OP Jindal Industrial Park, Tumidih - CECB",13-03-2024 02:00:00,22.06631475,83.33820077,NH3,NA,NA,NA
India,Chhattisgarh,Tumidih,"OP Jindal Industrial Park, Tumidih - CECB",13-03-2024 02:00:00,22.06631475,83.33820077,CO,NA,NA,NA
India,Chhattisgarh,Tumidih,"OP Jindal Industrial Park, Tumidih - CECB",13-03-2024 02:00:00,22.06631475,83.33820077,OZONE,NA,NA,NA
India,Delhi,Delhi,"Alipur, Delhi - DPCC",13-03-2024 02:00:00,28.815329,77.153010,NO2,NA,NA,NA
India,Delhi,Delhi,"Alipur, Delhi - DPCC",13-03-2024 02:00:00,28.815329,77.153010,OZONE,6,105,31
India,Delhi,Delhi,"Ashok Vihar, Delhi - DPCC",13-03-2024 02:00:00,28.695381,77.181665,CO,18,60,41
India,Delhi,Delhi,"Aya Nagar, Delhi - IMD",13-03-2024 02:00:00,28.4706914,77.1099364,CO,12,74,60
India,Delhi,Delhi,"Bawana, Delhi - DPCC",13-03-2024 02:00:00,28.776200,77.051074,NO2,13,64,34
India,Delhi,Delhi,"Chandni Chowk, Delhi - IITM",13-03-2024 02:00:00,28.656756,77.227234,CO,122,136,130
India,Delhi,Delhi,"DTU, Delhi - CPCB",13-03-2024 02:00:00,28.7500499,77.1112615,NO2,24,48,34
India,Delhi,Delhi,"DTU, Delhi - CPCB",13-03-2024 02:00:00,28.7500499,77.1112615,SO2,26,29,27
India,Delhi,Delhi,"DTU, Delhi - CPCB",13-03-2024 02:00:00,28.7500499,77.1112615,OZONE,26,78,40
India,Delhi,Delhi,"Dr. Karni Singh Shooting Range, Delhi - DPCC",13-03-2024 02:00:00,28.498571,77.264840,NH3,5,12,7
India,Delhi,Delhi,"Dr. Karni Singh Shooting Range, Delhi - DPCC",13-03-2024 02:00:00,28.498571,77.264840,SO2,12,52,24
India,Delhi,Delhi,"Dr. Karni Singh Shooting Range, Delhi - DPCC",13-03-2024 02:00:00,28.498571,77.264840,OZONE,1,172,22
India,Delhi,Delhi,"Dwarka-Sector 8, Delhi - DPCC ",13-03-2024 02:00:00,28.5710274,77.0719006,PM10,100,450,182
India,Delhi,Delhi,"IGI Airport (T3), Delhi - IMD",13-03-2024 02:00:00,28.5627763,77.1180053,NO2,22,78,47
India,Delhi,Delhi,"IHBAS, Dilshad Garden, Delhi - CPCB",13-03-2024 02:00:00,28.6811736,77.3025234,CO,33,119,65
India,Delhi,Delhi,"IHBAS, Dilshad Garden, Delhi - CPCB",13-03-2024 02:00:00,28.6811736,77.3025234,OZONE,9,43,24
India,Delhi,Delhi,"ITO, Delhi - CPCB",13-03-2024 02:00:00,28.628624,77.241060,NH3,1,10,5
India,Delhi,Delhi,"ITO, Delhi - CPCB",13-03-2024 02:00:00,28.628624,77.241060,CO,22,100,59
India,Delhi,Delhi,"Jahangirpuri, Delhi - DPCC",13-03-2024 02:00:00,28.732820,77.170633,SO2,3,57,18
India,Delhi,Delhi,"Jahangirpuri, Delhi - DPCC",13-03-2024 02:00:00,28.732820,77.170633,OZONE,3,180,28
India,Delhi,Delhi,"Jawaharlal Nehru Stadium, Delhi - DPCC",13-03-2024 02:00:00,28.580280,77.233829,PM10,92,247,135
India,Delhi,Delhi,"Lodhi Road, Delhi - IITM",13-03-2024 02:00:00,28.588333,77.221667,PM10,53,338,112
India,Delhi,Delhi,"Lodhi Road, Delhi - IITM",13-03-2024 02:00:00,28.588333,77.221667,NO2,80,104,88
India,Delhi,Delhi,"Lodhi Road, Delhi - IMD",13-03-2024 02:00:00,28.5918245,77.2273074,NO2,3,14,9
India,Delhi,Delhi,"Major Dhyan Chand National Stadium, Delhi - DPCC",13-03-2024 02:00:00,28.611281,77.237738,NH3,7,11,8
India,Delhi,Delhi,"Mandir Marg, Delhi - DPCC",13-03-2024 02:00:00,28.636429,77.201067,CO,52,90,73
India,Delhi,Delhi,"Mundka, Delhi - DPCC",13-03-2024 02:00:00,28.684678,77.076574,SO2,8,26,14
India,Delhi,Delhi,"Mundka, Delhi - DPCC",13-03-2024 02:00:00,28.684678,77.076574,OZONE,14,14,14
India,Delhi,Delhi,"NSIT Dwarka, Delhi - CPCB",13-03-2024 02:00:00,28.60909,77.0325413,NO2,38,65,50
India,Delhi,Delhi,"Najafgarh, Delhi - DPCC",13-03-2024 02:00:00,28.570173,76.933762,PM2.5,33,406,173
India,Delhi,Delhi,"Narela, Delhi - DPCC",13-03-2024 02:00:00,28.822836,77.101981,PM2.5,50,423,184
India,Delhi,Delhi,"Nehru Nagar, Delhi - DPCC",13-03-2024 02:00:00,28.567890,77.250515,PM2.5,53,352,180
India,Delhi,Delhi,"Nehru Nagar, Delhi - DPCC",13-03-2024 02:00:00,28.567890,77.250515,NH3,5,10,8
India,Delhi,Delhi,"Nehru Nagar, Delhi - DPCC",13-03-2024 02:00:00,28.567890,77.250515,SO2,6,26,11
India,Delhi,Delhi,"New Moti Bagh, Delhi - MHUA",13-03-2024 02:00:00,28.57834,77.18400,PM2.5,48,388,182
India,Delhi,Delhi,"New Moti Bagh, Delhi - MHUA",13-03-2024 02:00:00,28.57834,77.18400,NO2,1,6,3
India,Delhi,Delhi,"Okhla Phase-2, Delhi - DPCC",13-03-2024 02:00:00,28.530785,77.271255,PM10,103,284,158
India,Delhi,Delhi,"Patparganj, Delhi - DPCC",13-03-2024 02:00:00,28.623763,77.287209,PM10,114,299,164
India,Delhi,Delhi,"Patparganj, Delhi - DPCC",13-03-2024 02:00:00,28.623763,77.287209,NH3,7,12,10
India,Delhi,Delhi,"Punjabi Bagh, Delhi - DPCC",13-03-2024 02:00:00,28.674045,77.131023,CO,27,64,45
India,Delhi,Delhi,"Pusa, Delhi - IMD",13-03-2024 02:00:00,28.636110,77.173332,NO2,NA,NA,NA
India,Delhi,Delhi,"R K Puram, Delhi - DPCC",13-03-2024 02:00:00,28.563262,77.186937,SO2,14,43,23
India,Delhi,Delhi,"Rohini, Delhi - DPCC",13-03-2024 02:00:00,28.732528,77.119920,NO2,15,79,41
India,Delhi,Delhi,"Rohini, Delhi - DPCC",13-03-2024 02:00:00,28.732528,77.119920,SO2,10,54,23
India,Delhi,Delhi,"Rohini, Delhi - DPCC",13-03-2024 02:00:00,28.732528,77.119920,CO,21,102,44
India,Delhi,Delhi,"Shadipur, Delhi - CPCB",13-03-2024 02:00:00,28.6514781,77.1473105,CO,28,72,50
India,Delhi,Delhi,"Sirifort, Delhi - CPCB",13-03-2024 02:00:00,28.5504249,77.2159377,PM10,91,242,140
India,Delhi,Delhi,"Sirifort, Delhi - CPCB",13-03-2024 02:00:00,28.5504249,77.2159377,NO2,NA,NA,NA
India,Delhi,Delhi,"Sonia Vihar, Delhi - DPCC",13-03-2024 02:00:00,28.710508,77.249485,PM10,86,288,159
India,Delhi,Delhi,"Sonia Vihar, Delhi - DPCC",13-03-2024 02:00:00,28.710508,77.249485,SO2,10,42,18
India,Delhi,Delhi,"Sri Aurobindo Marg, Delhi - DPCC",13-03-2024 02:00:00,28.531346,77.190156,SO2,10,50,20
India,Delhi,Delhi,"Sri Aurobindo Marg, Delhi - DPCC",13-03-2024 02:00:00,28.531346,77.190156,CO,12,54,36
India,Delhi,Delhi,"Vivek Vihar, Delhi - DPCC",13-03-2024 02:00:00,28.672342,77.315260,PM2.5,60,361,145
India,Delhi,Delhi,"Vivek Vihar, Delhi - DPCC",13-03-2024 02:00:00,28.672342,77.315260,SO2,29,52,38
India,Delhi,Delhi,"Vivek Vihar, Delhi - DPCC",13-03-2024 02:00:00,28.672342,77.315260,OZONE,3,68,11
India,Delhi,Delhi,"Wazirpur, Delhi - DPCC",13-03-2024 02:00:00,28.699793,77.165453,SO2,22,52,33
India,Gujarat,Ahmedabad,"Gyaspur, Ahmedabad - IITM",13-03-2024 02:00:00,22.977134,72.553024,PM2.5,29,383,147
India,Gujarat,Ahmedabad,"Gyaspur, Ahmedabad - IITM",13-03-2024 02:00:00,22.977134,72.553024,OZONE,6,42,13
India,Gujarat,Ahmedabad,"Maninagar, Ahmedabad - GPCB",13-03-2024 02:00:00,23.002657,72.591912,OZONE,10,105,25
India,Gujarat,Ahmedabad,"SVPI Airport Hansol, Ahmedabad - IITM",13-03-2024 02:00:00,23.076793,72.627874,PM10,42,140,74
India,Gujarat,Ahmedabad,"SVPI Airport Hansol, Ahmedabad - IITM",13-03-2024 02:00:00,23.076793,72.627874,NH3,4,5,4
India,Gujarat,Ahmedabad,"Sardar Vallabhbhai Patel Stadium, Ahmedabad - IITM",13-03-2024 02:00:00,23.043070,72.562968,PM10,57,144,90
India,Gujarat,Ahmedabad,"Sardar Vallabhbhai Patel Stadium, Ahmedabad - IITM",13-03-2024 02:00:00,23.043070,72.562968,SO2,1,13,7
India,Gujarat,Ankleshwar,"GIDC, Ankleshwar - GPCB",13-03-2024 02:00:00,21.613267,73.010555,NH3,7,7,7
India,Gujarat,Gandhinagar,"IIPHG Lekawada, Gandhinagar - IITM",13-03-2024 02:00:00,23.243639,72.68994,PM2.5,49,304,137
India,Gujarat,Gandhinagar,"IIPHG Lekawada, Gandhinagar - IITM",13-03-2024 02:00:00,23.243639,72.68994,NO2,28,33,30
India,Gujarat,Gandhinagar,"Sector-10, Gandhinagar - GPCB",13-03-2024 02:00:00,23.221714,72.654328,SO2,4,16,6
India,Gujarat,Gandhinagar,"Sector-10, Gandhinagar - GPCB",13-03-2024 02:00:00,23.221714,72.654328,OZONE,2,8,3
India,Gujarat,Nandesari,"GIDC, Nandesari - Nandesari Ind. Association",13-03-2024 02:00:00,22.410802,73.097923,SO2,1,14,7
India,Gujarat,Vapi,"Phase-1 GIDC, Vapi - GPCB",13-03-2024 02:00:00,20.362421,72.918013,PM2.5,38,206,78
India,Haryana,Ambala,"Patti Mehar, Ambala - HSPCB",13-03-2024 02:00:00,30.379589,76.778328,NO2,7,9,8
India,Haryana,Bahadurgarh,"Arya Nagar, Bahadurgarh - HSPCB",13-03-2024 02:00:00,28.6701,76.9254,SO2,13,17,15
India,Haryana,Ballabgarh,"Nathu Colony, Ballabgarh - HSPCB",13-03-2024 02:00:00,28.3419248,77.319699,NO2,12,14,13
India,Haryana,Bhiwani,"H.B. Colony, Bhiwani - HSPCB",13-03-2024 02:00:00,28.806223,76.141105,PM2.5,38,132,91
India,Haryana,Charkhi Dadri,"Mini Secretariat, Charkhi Dadri - HSPCB",13-03-2024 02:00:00,28.593883,76.270653,PM10,68,124,98
India,Haryana,Charkhi Dadri,"Mini Secretariat, Charkhi Dadri - HSPCB",13-03-2024 02:00:00,28.593883,76.270653,SO2,12,15,13
India,Haryana,Dharuhera,"Municipal Corporation Office, Dharuhera -  HSPCB",13-03-2024 02:00:00,28.206800,76.799700,PM2.5,42,212,108
India,Haryana,Dharuhera,"Municipal Corporation Office, Dharuhera -  HSPCB",13-03-2024 02:00:00,28.206800,76.799700,CO,18,59,40
India,Haryana,Faridabad,"New Industrial Town, Faridabad - HSPCB",13-03-2024 02:00:00,28.39072,77.30059,SO2,18,31,25
India,Haryana,Faridabad,"Sector 11, Faridabad - HSPCB",13-03-2024 02:00:00,28.376058,77.315741,NO2,30,33,32
India,Haryana,Faridabad,"Sector 11, Faridabad - HSPCB",13-03-2024 02:00:00,28.376058,77.315741,NH3,6,6,6
India,Haryana,Faridabad,"Sector 30, Faridabad - HSPCB",13-03-2024 02:00:00,28.4417,77.3217,OZONE,6,19,10
India,Haryana,Fatehabad,"Huda Sector, Fatehabad - HSPCB",13-03-2024 02:00:00,29.503664,75.467934,NO2,37,80,39
India,Haryana,Gurugram,"Sector-51, Gurugram - HSPCB",13-03-2024 02:00:00,28.4227,77.0667,NH3,7,14,9
India,Haryana,Gurugram,"Teri Gram, Gurugram - HSPCB",13-03-2024 02:00:00,28.4275,77.1465,CO,17,36,21
India,Haryana,Gurugram,"Vikas Sadan, Gurugram - HSPCB",13-03-2024 02:00:00,28.4501238,77.0263051,CO,54,139,102
India,Haryana,Hisar,"Urban Estate-II, Hisar - HSPCB",13-03-2024 02:00:00,29.140560,75.744941,SO2,13,94,57
India,Haryana,Hisar,"Urban Estate-II, Hisar - HSPCB",13-03-2024 02:00:00,29.140560,75.744941,OZONE,38,123,82
India,Haryana,Jind,"Police Lines, Jind - HSPCB",13-03-2024 02:00:00,29.307814,76.337619,PM2.5,34,96,62
India,Haryana,Jind,"Police Lines, Jind - HSPCB",13-03-2024 02:00:00,29.307814,76.337619,OZONE,10,21,18
India,Haryana,Kaithal,"Rishi Nagar, Kaithal - HSPCB",13-03-2024 02:00:00,29.8006,76.4155,NO2,24,26,25
India,Haryana,Karnal,"Sector-12, Karnal - HSPCB",13-03-2024 02:00:00,29.695300,77.002700,PM2.5,NA,NA,NA
India,Haryana,Karnal,"Sector-12, Karnal - HSPCB",13-03-2024 02:00:00,29.695300,77.002700,NO2,7,12,10
India,Haryana,Kurukshetra,"Sector-7, Kurukshetra - HSPCB",13-03-2024 02:00:00,29.966942,76.875879,OZONE,21,61,40
India,Haryana,Manesar,"Sector-2 IMT, Manesar - HSPCB",13-03-2024 02:00:00,28.360699,76.936090,PM2.5,85,308,140
India,Haryana,Narnaul,"Shastri Nagar, Narnaul - HSPCB",13-03-2024 02:00:00,28.060249,76.113115,NO2,12,49,26
India,Haryana,Narnaul,"Shastri Nagar, Narnaul - HSPCB",13-03-2024 02:00:00,28.060249,76.113115,NH3,4,16,8
India,Haryana,Narnaul,"Shastri Nagar, Narnaul - HSPCB",13-03-2024 02:00:00,28.060249,76.113115,CO,4,22,13
India,Haryana,Narnaul,"Shastri Nagar, Narnaul - HSPCB",13-03-2024 02:00:00,28.060249,76.113115,OZONE,7,52,28
India,Haryana,Palwal,"Shyam Nagar, Palwal - HSPCB",13-03-2024 02:00:00,28.1485564,77.3320667,PM10,107,162,139
India,Haryana,Sirsa,"F-Block, Sirsa - HSPCB",13-03-2024 02:00:00,29.536400,75.015800,PM2.5,2,95,49
India,Haryana,Sirsa,"F-Block, Sirsa - HSPCB",13-03-2024 02:00:00,29.536400,75.015800,SO2,48,62,56
India,Haryana,Yamuna Nagar,"Gobind Pura, Yamuna Nagar - HSPCB",13-03-2024 02:00:00,30.1480566,77.2893471,SO2,5,12,7
India,Himachal Pradesh,Baddi,"HIMUDA Complex Phase-1, Baddi - HPPCB",13-03-2024 02:00:00,30.943887,76.801991,SO2,12,109,56
India,Jharkhand,Dhanbad,"Sardar Patel Nagar, Dhanbad - JSPCB",13-03-2024 02:00:00,23.80569,86.44268,PM10,54,154,87
India,Jharkhand,Pathardih,"Mohalbani Ghat, Pathardih - DMC",13-03-2024 02:00:00,23.669880,86.411725,PM10,62,155,91
India,Karnataka,Belgaum,"Ramteerth Nagar, Belgaum - KSPCB",13-03-2024 02:00:00,15.888653,74.541751,NH3,34,34,34
India,Karnataka,Bengaluru,"BTM Layout, Bengaluru - CPCB",13-03-2024 02:00:00,12.9135218,77.5950804,PM10,57,84,71
India,Karnataka,Bengaluru,"BTM Layout, Bengaluru - CPCB",13-03-2024 02:00:00,12.9135218,77.5950804,NO2,28,29,28
India,Karnataka,Bengaluru,"Bapuji Nagar, Bengaluru - KSPCB",13-03-2024 02:00:00,12.951913,77.539784,PM10,70,124,98
India,Karnataka,Bengaluru,"Bapuji Nagar, Bengaluru - KSPCB",13-03-2024 02:00:00,12.951913,77.539784,CO,32,52,46
India,Karnataka,Bengaluru,"Hebbal, Bengaluru - KSPCB",13-03-2024 02:00:00,13.029152,77.585901,PM10,NA,NA,NA
India,Karnataka,Bengaluru,"Jayanagar 5th Block, Bengaluru - KSPCB",13-03-2024 02:00:00,12.920984,77.584908,CO,16,60,39
India,Karnataka,Bengaluru,"Jayanagar 5th Block, Bengaluru - KSPCB",13-03-2024 02:00:00,12.920984,77.584908,OZONE,28,28,28
India,Karnataka,Bengaluru,"Kasturi Nagar, Bengaluru - KSPCB",13-03-2024 02:00:00,13.003872,77.664217,PM10,127,183,151
India,Karnataka,Bengaluru,"Kasturi Nagar, Bengaluru - KSPCB",13-03-2024 02:00:00,13.003872,77.664217,SO2,10,10,10
India,Karnataka,Bengaluru,"Kasturi Nagar, Bengaluru - KSPCB",13-03-2024 02:00:00,13.003872,77.664217,OZONE,28,124,81
India,Karnataka,Bengaluru,"Peenya, Bengaluru - CPCB",13-03-2024 02:00:00,13.0270199,77.494094,NH3,2,4,3
India,Karnataka,Bengaluru,"Peenya, Bengaluru - CPCB",13-03-2024 02:00:00,13.0270199,77.494094,CO,13,60,36
India,Karnataka,Bengaluru,"RVCE-Mailasandra, Bengaluru - KSPCB",13-03-2024 02:00:00,12.921418,77.502466,PM2.5,NA,NA,NA
India,Karnataka,Bengaluru,"RVCE-Mailasandra, Bengaluru - KSPCB",13-03-2024 02:00:00,12.921418,77.502466,SO2,9,14,12
India,Karnataka,Bengaluru,"Sanegurava Halli, Bengaluru - KSPCB",13-03-2024 02:00:00,12.990328,77.5431385,SO2,NA,NA,NA
India,Karnataka,Bengaluru,"Shivapura_Peenya, Bengaluru - KSPCB",13-03-2024 02:00:00,13.0246342,77.5080115,PM2.5,17,172,76
India,Karnataka,Bengaluru,"Shivapura_Peenya, Bengaluru - KSPCB",13-03-2024 02:00:00,13.0246342,77.5080115,NH3,4,4,4
India,Karnataka,Bidar,"Naubad, Bidar - KSPCB",13-03-2024 02:00:00,17.930306,77.482194,PM2.5,NA,NA,NA
India,Karnataka,Bidar,"Naubad, Bidar - KSPCB",13-03-2024 02:00:00,17.930306,77.482194,SO2,NA,NA,NA
India,Karnataka,Chikkaballapur,"Chikkaballapur Rural, Chikkaballapur - KSPCB",13-03-2024 02:00:00,13.428828,77.731418,NO2,7,21,10
India,Karnataka,Chikkaballapur,"Chikkaballapur Rural, Chikkaballapur - KSPCB",13-03-2024 02:00:00,13.428828,77.731418,SO2,15,34,24
India,Karnataka,Davanagere,"Devaraj Urs Badavane, Davanagere - KSPCB",13-03-2024 02:00:00,14.475800,75.905200,SO2,4,9,6
India,Karnataka,Davanagere,"Devaraj Urs Badavane, Davanagere - KSPCB",13-03-2024 02:00:00,14.475800,75.905200,CO,10,20,17
India,Karnataka,Dharwad,"Kalabhavan, Dharwad - KSPCB",13-03-2024 02:00:00,15.459706,75.008381,PM10,66,152,108
India,Karnataka,Dharwad,"Kalabhavan, Dharwad - KSPCB",13-03-2024 02:00:00,15.459706,75.008381,CO,31,102,67
India,Karnataka,Hassan,"B.Katihalli, Hassan - KSPCB",13-03-2024 02:00:00,13.008556,76.125258,PM2.5,NA,NA,NA
India,Karnataka,Haveri,"Ashwini Nagar, Haveri - KSPCB",13-03-2024 02:00:00,14.791800,75.389600,PM10,NA,NA,NA
India,Karnataka,Hubballi,"Deshpande Nagar, Hubballi - KSPCB",13-03-2024 02:00:00,15.351773,75.140726,PM2.5,51,76,63
India,Karnataka,Hubballi,"Deshpande Nagar, Hubballi - KSPCB",13-03-2024 02:00:00,15.351773,75.140726,NO2,26,27,27
India,Karnataka,Hubballi,"Deshpande Nagar, Hubballi - KSPCB",13-03-2024 02:00:00,15.351773,75.140726,NH3,4,6,5
India,Karnataka,Hubballi,"Lingaraj Nagar, Hubballi - KSPCB",13-03-2024 02:00:00,15.3714823,75.1160168,PM10,48,73,60
India,Karnataka,Kalaburagi,"Lal Bahadur Shastri Nagar, Kalaburagi - KSPCB",13-03-2024 02:00:00,17.321993,76.822628,NO2,11,12,12
India,Karnataka,Kalaburagi,"Lal Bahadur Shastri Nagar, Kalaburagi - KSPCB",13-03-2024 02:00:00,17.321993,76.822628,OZONE,5,74,8
India,Karnataka,Kalaburagi,"Mahatma Basaveswar Colony, Kalaburgi - KSPCB",13-03-2024 02:00:00,17.336318,76.847397,PM2.5,28,94,51
India,Karnataka,Karwar,"KHB Colony, Karwar - KSPCB",13-03-2024 02:00:00,14.816666,74.141003,PM2.5,53,93,66
India,Karnataka,Karwar,"KHB Colony, Karwar - KSPCB",13-03-2024 02:00:00,14.816666,74.141003,PM10,62,104,76
India,Karnataka,Kolar,"Tamaka Ind. Area, Kolar - KSPCB",13-03-2024 02:00:00,13.1276288,78.1570122,CO,NA,NA,NA
India,Karnataka,Koppal,"Diwator Nagar, Koppal - KSPCB",13-03-2024 02:00:00,15.347630,76.181767,PM2.5,19,81,38
India,Karnataka,Koppal,"Diwator Nagar, Koppal - KSPCB",13-03-2024 02:00:00,15.347630,76.181767,PM10,24,84,39
India,Karnataka,Koppal,"Diwator Nagar, Koppal - KSPCB",13-03-2024 02:00:00,15.347630,76.181767,NO2,4,23,14
India,Karnataka,Koppal,"Diwator Nagar, Koppal - KSPCB",13-03-2024 02:00:00,15.347630,76.181767,NH3,3,7,5
India,Karnataka,Koppal,"Diwator Nagar, Koppal - KSPCB",13-03-2024 02:00:00,15.347630,76.181767,SO2,64,66,65
India,Karnataka,Mangalore,"Kadri, Mangalore - KSPCB",13-03-2024 02:00:00,12.889250,74.853000,NO2,6,7,6
India,Karnataka,Mysuru,"Hebbal 1st Stage, Mysuru - KSPCB",13-03-2024 02:00:00,12.21041,76.37376,NH3,1,3,2
India,Karnataka,Mysuru,"Hebbal 1st Stage, Mysuru - KSPCB",13-03-2024 02:00:00,12.21041,76.37376,CO,2,70,24
India,Karnataka,Raichur,"Haji Colony, Raichur - KSPCB",13-03-2024 02:00:00,16.208139,77.348417,CO,90,110,106
India,Karnataka,Ramanagara,"Vijay Nagar, Ramanagara - KSPCB",13-03-2024 02:00:00,12.733409,77.298051,NO2,2,16,7
India,Karnataka,Ramanagara,"Vijay Nagar, Ramanagara - KSPCB",13-03-2024 02:00:00,12.733409,77.298051,CO,4,36,19
India,Karnataka,Ramanagara,"Vijay Nagar, Ramanagara - KSPCB",13-03-2024 02:00:00,12.733409,77.298051,OZONE,28,30,29
India,Karnataka,Shivamogga,"Vinoba Nagara, Shivamogga - KSPCB",13-03-2024 02:00:00,13.940000,75.555917,PM2.5,35,57,46
India,Karnataka,Shivamogga,"Vinoba Nagara, Shivamogga - KSPCB",13-03-2024 02:00:00,13.940000,75.555917,PM10,50,76,64
India,Karnataka,Shivamogga,"Vinoba Nagara, Shivamogga - KSPCB",13-03-2024 02:00:00,13.940000,75.555917,CO,10,37,31
India,Karnataka,Udupi,"Brahmagiri, Udupi - KSPCB",13-03-2024 02:00:00,13.34194444,74.74694444,PM2.5,NA,NA,NA
India,Karnataka,Udupi,"Brahmagiri, Udupi - KSPCB",13-03-2024 02:00:00,13.34194444,74.74694444,CO,44,48,46
India,Karnataka,Vijayapura,"Ibrahimpur, Vijayapura - KSPCB",13-03-2024 02:00:00,16.802639,75.722694,CO,20,92,56
India,Kerala,Eloor,"Udyogamandal, Eloor - Kerala PCB",13-03-2024 02:00:00,10.073232,76.302765,NH3,1,1,1
India,Kerala,Eloor,"Udyogamandal, Eloor - Kerala PCB",13-03-2024 02:00:00,10.073232,76.302765,SO2,1,16,4
India,Kerala,Kannur,"Thavakkara, Kannur - Kerala PCB",13-03-2024 02:00:00,11.875000,75.373200,CO,30,35,33
India,Kerala,Kochi,"Vyttila, Kochi - Kerala PCB",13-03-2024 02:00:00,9.969447,76.321186,NH3,3,3,3
India,Kerala,Kochi,"Vyttila, Kochi - Kerala PCB",13-03-2024 02:00:00,9.969447,76.321186,SO2,1,8,3
India,Kerala,Thiruvananthapuram,"Plammoodu, Thiruvananthapuram - Kerala PCB",13-03-2024 02:00:00,8.5149093,76.9435879,OZONE,11,31,25
India,Kerala,Thrissur,"Corporation Ground, Thrissur - Kerala PCB",13-03-2024 02:00:00,10.532400,76.215900,NO2,NA,NA,NA
India,Kerala,Thrissur,"Corporation Ground, Thrissur - Kerala PCB",13-03-2024 02:00:00,10.532400,76.215900,NH3,NA,NA,NA
India,Madhya Pradesh,Bhopal,"Idgah Hills, Bhopal - MPPCB",13-03-2024 02:00:00,23.264759,77.381568,PM2.5,15,82,41
India,Madhya Pradesh,Bhopal,"Idgah Hills, Bhopal - MPPCB",13-03-2024 02:00:00,23.264759,77.381568,PM10,63,141,94
India,Madhya Pradesh,Bhopal,"Paryavaran Parisar, Bhopal - MPPCB",13-03-2024 02:00:00,23.210494,77.425409,CO,4,81,50
India,Madhya Pradesh,Bhopal,"Paryavaran Parisar, Bhopal - MPPCB",13-03-2024 02:00:00,23.210494,77.425409,OZONE,3,69,24
India,Madhya Pradesh,Bhopal,"T T Nagar, Bhopal - MPPCB",13-03-2024 02:00:00,23.233584,77.400574,NH3,1,6,4
India,Madhya Pradesh,Bhopal,"T T Nagar, Bhopal - MPPCB",13-03-2024 02:00:00,23.233584,77.400574,SO2,24,60,38
India,Madhya Pradesh,Dewas,"Bhopal Chauraha, Dewas - MPPCB",13-03-2024 02:00:00,22.9682591,76.064118,PM10,NA,NA,NA
