country,state,city,station,last_update,latitude,longitude,pollutant_id,pollutant_min,pollutant_max,pollutant_avg
India,Andhra_Pradesh,Amaravati,"Secretariat, Amaravati - APPCB",15-02-2024 15:00:00,16.5150833,80.5181667,PM2.5,30,82,60
India,Andhra_Pradesh,Amaravati,"Secretariat, Amaravati - APPCB",15-02-2024 15:00:00,16.5150833,80.5181667,NH3,3,4,4
India,Andhra_Pradesh,Anantapur,"Gulzarpet, Anantapur - APPCB",15-02-2024 15:00:00,14.675886,77.593027,PM2.5,15,52,33
India,Andhra_Pradesh,Anantapur,"Gulzarpet, Anantapur - APPCB",15-02-2024 15:00:00,14.675886,77.593027,NH3,NA,NA,NA
India,Andhra_Pradesh,Chittoor,"Gangineni Cheruvu, Chittoor - APPCB",15-02-2024 15:00:00,13.204880,79.097889,PM10,35,75,47
India,Andhra_Pradesh,Kadapa,"Yerramukkapalli, Kadapa - APPCB",15-02-2024 15:00:00,14.465052,78.824187,CO,8,57,12
India,Andhra_Pradesh,Rajamahendravaram,"Anand Kala Kshetram, Rajamahendravaram - APPCB",15-02-2024 15:00:00,16.9872867,81.7363176,NO2,12,60,31
India,Andhra_Pradesh,Rajamahendravaram,"Anand Kala Kshetram, Rajamahendravaram - APPCB",15-02-2024 15:00:00,16.9872867,81.7363176,SO2,11,12,12
India,Andhra_Pradesh,Tirupati,"Tirumala, Tirupati - APPCB",15-02-2024 15:00:00,13.67,79.35,PM2.5,40,91,58
India,Andhra_Pradesh,Tirupati,"Tirumala, Tirupati - APPCB",15-02-2024 15:00:00,13.67,79.35,NO2,28,48,37
India,Andhra_Pradesh,Tirupati,"Tirumala, Tirupati - APPCB",15-02-2024 15:00:00,13.67,79.35,CO,32,58,43
India,Andhra_Pradesh,Tirupati,"Vaikuntapuram, Tirupati - APPCB",15-02-2024 15:00:00,13.615387,79.409230,PM2.5,NA,NA,NA
India,Andhra_Pradesh,Tirupati,"Vaikuntapuram, Tirupati - APPCB",15-02-2024 15:00:00,13.615387,79.409230,OZONE,12,34,27
India,Andhra_Pradesh,Vijayawada,"Kanuru, Vijayawada - APPCB",15-02-2024 15:00:00,16.486692,80.699436,OZONE,25,25,25
India,Andhra_Pradesh,Vijayawada,"Rajiv Gandhi Park, Vijayawada - APPCB",15-02-2024 15:00:00,16.509717,80.612222,NH3,2,7,6
India,Andhra_Pradesh,Vijayawada,"Rajiv Gandhi Park, Vijayawada - APPCB",15-02-2024 15:00:00,16.509717,80.612222,SO2,2,8,5
India,Andhra_Pradesh,Visakhapatnam,"GVM Corporation, Visakhapatnam - APPCB",15-02-2024 15:00:00,17.72,83.3,NH3,2,15,7
India,Andhra_Pradesh,Visakhapatnam,"GVM Corporation, Visakhapatnam - APPCB",15-02-2024 15:00:00,17.72,83.3,SO2,8,14,11
India,Andhra_Pradesh,Visakhapatnam,"GVM Corporation, Visakhapatnam - APPCB",15-02-2024 15:00:00,17.72,83.3,OZONE,8,43,15
India,Arunachal_Pradesh,Naharlagun,"Naharlagun, Naharlagun - APSPCB",15-02-2024 15:00:00,27.103358,93.679645,SO2,NA,NA,NA
India,Assam,Byrnihat,"Central Academy for SFS, Byrnihat - PCBA",15-02-2024 15:00:00,26.071318,91.87488,NH3,2,8,6
India,Assam,Byrnihat,"Central Academy for SFS, Byrnihat - PCBA",15-02-2024 15:00:00,26.071318,91.87488,CO,9,140,93
India,Assam,Guwahati,"IITG, Guwahati - PCBA",15-02-2024 15:00:00,26.2028636,91.70046436,CO,12,29,16
India,Assam,Guwahati,"LGBI Airport, Guwahati - PCBA",15-02-2024 15:00:00,26.10887,91.589544,PM2.5,87,302,154
India,Assam,Guwahati,"Pan Bazaar, Guwahati - PCBA",15-02-2024 15:00:00,26.187500,91.744194,PM2.5,103,337,219
India,Assam,Guwahati,"Pan Bazaar, Guwahati - PCBA",15-02-2024 15:00:00,26.187500,91.744194,PM10,104,359,194
India,Assam,Guwahati,"Railway Colony, Guwahati - PCBA",15-02-2024 15:00:00,26.181742,91.78063,OZONE,3,44,20
India,Assam,Nagaon,"Christianpatty, Nagaon - PCBA",15-02-2024 15:00:00,26.349082,92.68449,PM2.5,130,468,305
India,Assam,Nagaon,"Christianpatty, Nagaon - PCBA",15-02-2024 15:00:00,26.349082,92.68449,PM10,99,431,195
India,Assam,Nagaon,"Christianpatty, Nagaon - PCBA",15-02-2024 15:00:00,26.349082,92.68449,OZONE,4,98,56
India,Assam,Nalbari,"Bata Chowk, Nalbari - PCBA",15-02-2024 15:00:00,26.446912,91.439057,NO2,14,48,29
India,Assam,Nalbari,"Bata Chowk, Nalbari - PCBA",15-02-2024 15:00:00,26.446912,91.439057,NH3,1,6,2
India,Assam,Silchar,"Tarapur, Silchar - PCBA",15-02-2024 15:00:00,24.82827,92.79525,PM10,43,44,43
India,Assam,Sivasagar,"Girls College, Sivasagar - PCBA",15-02-2024 15:00:00,26.987634,94.636574,PM10,32,90,61
India,Bihar,Araria,"Kharahiya Basti, Araria - BSPCB",15-02-2024 15:00:00,26.146529,87.454184,PM2.5,301,449,355
India,Bihar,Araria,"Kharahiya Basti, Araria - BSPCB",15-02-2024 15:00:00,26.146529,87.454184,NO2,6,8,7
India,Bihar,Arrah,"New DM Office, Arrah - BSPCB",15-02-2024 15:00:00,25.5626095,84.663264,SO2,10,23,18
India,Bihar,Bettiah,"Kamalnath Nagar, Bettiah - BSPCB",15-02-2024 15:00:00,26.80365,84.51954,PM2.5,18,57,34
India,Bihar,Bhagalpur,"DM Office_Kachari Chowk, Bhagalpur - BSPCB",15-02-2024 15:00:00,25.251013,86.989001,PM2.5,67,332,168
India,Bihar,Bhagalpur,"DM Office_Kachari Chowk, Bhagalpur - BSPCB",15-02-2024 15:00:00,25.251013,86.989001,OZONE,25,300,76
India,Bihar,Buxar,"Charitra Van, Buxar - BSPCB (Formerly known as Central Jail)",15-02-2024 15:00:00,25.567520,83.966379,PM2.5,63,309,194
India,Bihar,Buxar,"Charitra Van, Buxar - BSPCB (Formerly known as Central Jail)",15-02-2024 15:00:00,25.567520,83.966379,SO2,15,17,16
India,Bihar,Chhapra,"Darshan Nagar, Chhapra - BSPCB",15-02-2024 15:00:00,25.7808257,84.7446768,NO2,14,19,16
India,Bihar,Chhapra,"Darshan Nagar, Chhapra - BSPCB",15-02-2024 15:00:00,25.7808257,84.7446768,CO,22,36,28
India,Bihar,Gaya,"Collectorate, Gaya - BSPCB",15-02-2024 15:00:00,24.7955,84.9994,OZONE,51,85,75
India,Bihar,Gaya,"Kareemganj, Gaya - BSPCB",15-02-2024 15:00:00,24.792403,84.992416,SO2,8,11,9
India,Bihar,Gaya,"Kareemganj, Gaya - BSPCB",15-02-2024 15:00:00,24.792403,84.992416,OZONE,1,24,15
India,Bihar,Hajipur,"Industrial Area, Hajipur - BSPCB",15-02-2024 15:00:00,25.697189,85.245900,PM2.5,18,80,59
India,Bihar,Hajipur,"Industrial Area, Hajipur - BSPCB",15-02-2024 15:00:00,25.697189,85.245900,CO,20,42,30
India,Bihar,Hajipur,"Industrial Area, Hajipur - BSPCB",15-02-2024 15:00:00,25.697189,85.245900,OZONE,2,10,4
India,Bihar,Katihar,"Mirchaibari, Katihar - BSPCB",15-02-2024 15:00:00,25.560083,87.553265,CO,16,24,20
India,Bihar,Manguraha,"Forest Rest House, Manguraha - BSPCB",15-02-2024 15:00:00,27.308328,84.531742,CO,36,56,52
India,Bihar,Motihari,"Gandak Colony, Motihari - BSPCB",15-02-2024 15:00:00,26.63086,84.90051,NH3,6,11,8
India,Bihar,Motihari,"Gandak Colony, Motihari - BSPCB",15-02-2024 15:00:00,26.63086,84.90051,SO2,1,6,2
India,Bihar,Munger,"Town Hall, Munger - BSPCB",15-02-2024 15:00:00,25.376776,86.471523,PM2.5,28,97,67
India,Bihar,Munger,"Town Hall, Munger - BSPCB",15-02-2024 15:00:00,25.376776,86.471523,OZONE,8,13,11
India,Bihar,Muzaffarpur,"Muzaffarpur Collectorate, Muzaffarpur - BSPCB",15-02-2024 15:00:00,26.1209,85.3647,NO2,1,147,32
India,Bihar,Patna,"DRM Office Danapur, Patna - BSPCB",15-02-2024 15:00:00,25.586562,85.043586,PM2.5,72,274,175
India,Bihar,Patna,"Govt. High School Shikarpur, Patna - BSPCB",15-02-2024 15:00:00,25.592539,85.227158,NO2,20,32,27
India,Bihar,Patna,"Govt. High School Shikarpur, Patna - BSPCB",15-02-2024 15:00:00,25.592539,85.227158,CO,28,124,63
India,Bihar,Patna,"Muradpur, Patna - BSPCB",15-02-2024 15:00:00,25.619651,85.147382,CO,38,144,61
India,Bihar,Patna,"Muradpur, Patna - BSPCB",15-02-2024 15:00:00,25.619651,85.147382,OZONE,18,58,50
India,Bihar,Patna,"Rajbansi Nagar, Patna - BSPCB",15-02-2024 15:00:00,25.599486,85.113666,PM2.5,88,227,153
India,Bihar,Patna,"Rajbansi Nagar, Patna - BSPCB",15-02-2024 15:00:00,25.599486,85.113666,NO2,24,40,31
India,Bihar,Patna,"Samanpura, Patna - BSPCB",15-02-2024 15:00:00,25.596727,85.085624,SO2,15,16,16
India,Bihar,Purnia,"Mariam Nagar, Purnia - BSPCB",15-02-2024 15:00:00,25.366336,87.117468,SO2,16,21,18
India,Bihar,Purnia,"Mariam Nagar, Purnia - BSPCB",15-02-2024 15:00:00,25.366336,87.117468,CO,37,100,62
India,Bihar,Rajgir,"Dangi Tola, Rajgir - BSPCB",15-02-2024 15:00:00,25.03280,85.41948,NO2,1,1,1
India,Bihar,Rajgir,"Dangi Tola, Rajgir - BSPCB",15-02-2024 15:00:00,25.03280,85.41948,SO2,3,5,4
India,Bihar,Samastipur,"DM Office_Kasipur, Samastipur - BSPCB",15-02-2024 15:00:00,25.859655,85.77944,OZONE,9,27,17
India,Bihar,Siwan,"Chitragupta Nagar, Siwan - BSPCB",15-02-2024 15:00:00,26.2271665,84.3570427,PM10,49,173,102
India,Chandigarh,Chandigarh,"Sector 22, Chandigarh - CPCC",15-02-2024 15:00:00,30.735567,76.775714,PM2.5,87,306,207
India,Chandigarh,Chandigarh,"Sector 22, Chandigarh - CPCC",15-02-2024 15:00:00,30.735567,76.775714,PM10,91,251,144
India,Chandigarh,Chandigarh,"Sector-25, Chandigarh - CPCC",15-02-2024 15:00:00,30.751462,76.762879,PM2.5,147,234,190
India,Chandigarh,Chandigarh,"Sector-25, Chandigarh - CPCC",15-02-2024 15:00:00,30.751462,76.762879,PM10,126,159,141
India,Chandigarh,Chandigarh,"Sector-25, Chandigarh - CPCC",15-02-2024 15:00:00,30.751462,76.762879,CO,23,103,35
India,Chhattisgarh,Bhilai,"32Bungalows, Bhilai - CECB",15-02-2024 15:00:00,21.194815,81.314770,NH3,6,6,6
India,Chhattisgarh,Bhilai,"32Bungalows, Bhilai - CECB",15-02-2024 15:00:00,21.194815,81.314770,SO2,3,6,4
India,Chhattisgarh,Bhilai,"32Bungalows, Bhilai - CECB",15-02-2024 15:00:00,21.194815,81.314770,OZONE,4,9,6
India,Chhattisgarh,Bhilai,"Civic Center, Bhilai - Bhilai Steel Plant",15-02-2024 15:00:00,21.185571,81.343175,SO2,NA,NA,NA
India,Chhattisgarh,Bhilai,"Hathkhoj, Bhilai - CECB",15-02-2024 15:00:00,21.224231,81.408350,NO2,25,56,41
India,Chhattisgarh,Bhilai,"Hathkhoj, Bhilai - CECB",15-02-2024 15:00:00,21.224231,81.408350,CO,8,70,28
India,Chhattisgarh,Bilaspur,"Mangala, Bilaspur - NTPC",15-02-2024 15:00:00,22.08815,82.13737,PM2.5,20,69,42
India,Chhattisgarh,Chhal,"Nawapara SECL Colony, Chhal - CECB",15-02-2024 15:00:00,22.118125,83.140608,SO2,9,20,14
India,Chhattisgarh,Chhal,"Nawapara SECL Colony, Chhal - CECB",15-02-2024 15:00:00,22.118125,83.140608,OZONE,1,69,37
India,Chhattisgarh,Korba,"Urja Nagar, Korba - CECB",15-02-2024 15:00:00,22.348441,82.549611,SO2,2,5,4
India,Chhattisgarh,Kunjemura,"OP Jindal School, Kunjemura - CECB",15-02-2024 15:00:00,22.126650,83.483212,SO2,2,19,9
India,Chhattisgarh,Kunjemura,"OP Jindal School, Kunjemura - CECB",15-02-2024 15:00:00,22.126650,83.483212,CO,28,48,38
India,Chhattisgarh,Milupara,"Govt. Higher Secondary School, Milupara - CECB",15-02-2024 15:00:00,22.1910172,83.5197009,PM2.5,NA,NA,NA
India,Chhattisgarh,Raipur,"AIIMS, Raipur - CECB",15-02-2024 15:00:00,21.258815,81.578979,NO2,40,70,50
India,Chhattisgarh,Raipur,"Siltara Phase-II, Raipur - CECB",15-02-2024 15:00:00,21.371751,81.664929,PM10,43,131,98
India,Chhattisgarh,Tumidih,"OP Jindal Industrial Park, Tumidih - CECB",15-02-2024 15:00:00,22.06631475,83.33820077,PM10,38,407,88
India,Delhi,Delhi,"Anand Vihar, Delhi - DPCC",15-02-2024 15:00:00,28.647622,77.3158090,NH3,5,19,11
India,Delhi,Delhi,"Anand Vihar, Delhi - DPCC",15-02-2024 15:00:00,28.647622,77.3158090,SO2,1,27,10
India,Delhi,Delhi,"Anand Vihar, Delhi - DPCC",15-02-2024 15:00:00,28.647622,77.3158090,OZONE,18,23,20
India,Delhi,Delhi,"Bawana, Delhi - DPCC",15-02-2024 15:00:00,28.776200,77.051074,PM10,135,382,204
India,Delhi,Delhi,"Burari Crossing, Delhi - IMD",15-02-2024 15:00:00,28.7256504,77.2011573,PM10,99,414,228
India,Delhi,Delhi,"Burari Crossing, Delhi - IMD",15-02-2024 15:00:00,28.7256504,77.2011573,NO2,2,6,4
India,Delhi,Delhi,"CRRI Mathura Road, Delhi - IMD",15-02-2024 15:00:00,28.5512005,77.2735737,PM10,101,231,167
India,Delhi,Delhi,"DTU, Delhi - CPCB",15-02-2024 15:00:00,28.7500499,77.1112615,CO,25,50,39
India,Delhi,Delhi,"Dr. Karni Singh Shooting Range, Delhi - DPCC",15-02-2024 15:00:00,28.498571,77.264840,CO,35,107,55
India,Delhi,Delhi,"Dr. Karni Singh Shooting Range, Delhi - DPCC",15-02-2024 15:00:00,28.498571,77.264840,OZONE,1,196,184
India,Delhi,Delhi,"IGI Airport (T3), Delhi - IMD",15-02-2024 15:00:00,28.5627763,77.1180053,PM2.5,158,317,264
India,Delhi,Delhi,"IGI Airport (T3), Delhi - IMD",15-02-2024 15:00:00,28.5627763,77.1180053,PM10,128,245,181
India,Delhi,Delhi,"IGI Airport (T3), Delhi - IMD",15-02-2024 15:00:00,28.5627763,77.1180053,NO2,37,66,50
India,Delhi,Delhi,"IGI Airport (T3), Delhi - IMD",15-02-2024 15:00:00,28.5627763,77.1180053,CO,9,66,25
India,Delhi,Delhi,"IGI Airport (T3), Delhi - IMD",15-02-2024 15:00:00,28.5627763,77.1180053,OZONE,11,61,31
India,Delhi,Delhi,"IHBAS, Dilshad Garden, Delhi - CPCB",15-02-2024 15:00:00,28.6811736,77.3025234,SO2,2,112,18
India,Delhi,Delhi,"ITO, Delhi - CPCB",15-02-2024 15:00:00,28.628624,77.241060,OZONE,16,176,64
India,Delhi,Delhi,"Jahangirpuri, Delhi - DPCC",15-02-2024 15:00:00,28.732820,77.170633,PM2.5,222,461,337
India,Delhi,Delhi,"Jahangirpuri, Delhi - DPCC",15-02-2024 15:00:00,28.732820,77.170633,NH3,2,44,5
India,Delhi,Delhi,"Jahangirpuri, Delhi - DPCC",15-02-2024 15:00:00,28.732820,77.170633,CO,47,118,74
India,Delhi,Delhi,"Jahangirpuri, Delhi - DPCC",15-02-2024 15:00:00,28.732820,77.170633,OZONE,5,192,192
India,Delhi,Delhi,"Jawaharlal Nehru Stadium, Delhi - DPCC",15-02-2024 15:00:00,28.580280,77.233829,OZONE,1,158,154
India,Delhi,Delhi,"Lodhi Road, Delhi - IMD",15-02-2024 15:00:00,28.5918245,77.2273074,OZONE,13,96,47
India,Delhi,Delhi,"Major Dhyan Chand National Stadium, Delhi - DPCC",15-02-2024 15:00:00,28.611281,77.237738,NH3,NA,NA,NA
India,Delhi,Delhi,"Major Dhyan Chand National Stadium, Delhi - DPCC",15-02-2024 15:00:00,28.611281,77.237738,SO2,NA,NA,NA
India,Delhi,Delhi,"Mandir Marg, Delhi - DPCC",15-02-2024 15:00:00,28.636429,77.201067,CO,19,124,44
India,Delhi,Delhi,"Mundka, Delhi - DPCC",15-02-2024 15:00:00,28.684678,77.076574,CO,22,80,46
India,Delhi,Delhi,"NSIT Dwarka, Delhi - CPCB",15-02-2024 15:00:00,28.60909,77.0325413,NO2,41,77,54
India,Delhi,Delhi,"NSIT Dwarka, Delhi - CPCB",15-02-2024 15:00:00,28.60909,77.0325413,NH3,9,12,11
India,Delhi,Delhi,"NSIT Dwarka, Delhi - CPCB",15-02-2024 15:00:00,28.60909,77.0325413,OZONE,10,103,47
India,Delhi,Delhi,"Najafgarh, Delhi - DPCC",15-02-2024 15:00:00,28.570173,76.933762,PM2.5,150,322,250
India,Delhi,Delhi,"Najafgarh, Delhi - DPCC",15-02-2024 15:00:00,28.570173,76.933762,NH3,3,6,3
India,Delhi,Delhi,"Najafgarh, Delhi - DPCC",15-02-2024 15:00:00,28.570173,76.933762,SO2,10,15,12
India,Delhi,Delhi,"Narela, Delhi - DPCC",15-02-2024 15:00:00,28.822836,77.101981,PM10,133,254,181
India,Delhi,Delhi,"Narela, Delhi - DPCC",15-02-2024 15:00:00,28.822836,77.101981,SO2,4,35,13
India,Delhi,Delhi,"Narela, Delhi - DPCC",15-02-2024 15:00:00,28.822836,77.101981,CO,31,76,48
India,Delhi,Delhi,"Nehru Nagar, Delhi - DPCC",15-02-2024 15:00:00,28.567890,77.250515,CO,20,107,71
India,Delhi,Delhi,"North Campus, DU, Delhi - IMD",15-02-2024 15:00:00,28.6573814,77.1585447,CO,10,19,15
India,Delhi,Delhi,"Patparganj, Delhi - DPCC",15-02-2024 15:00:00,28.623763,77.287209,PM10,163,409,255
India,Delhi,Delhi,"Patparganj, Delhi - DPCC",15-02-2024 15:00:00,28.623763,77.287209,OZONE,1,89,34
India,Delhi,Delhi,"Punjabi Bagh, Delhi - DPCC",15-02-2024 15:00:00,28.674045,77.131023,PM2.5,213,374,330
India,Delhi,Delhi,"Punjabi Bagh, Delhi - DPCC",15-02-2024 15:00:00,28.674045,77.131023,SO2,4,45,27
India,Delhi,Delhi,"Pusa, Delhi - DPCC",15-02-2024 15:00:00,28.639652,77.146275,PM10,179,431,259
India,Delhi,Delhi,"Pusa, Delhi - DPCC",15-02-2024 15:00:00,28.639652,77.146275,NH3,9,12,10
India,Delhi,Delhi,"Rohini, Delhi - DPCC",15-02-2024 15:00:00,28.732528,77.119920,PM10,126,415,228
India,Delhi,Delhi,"Rohini, Delhi - DPCC",15-02-2024 15:00:00,28.732528,77.119920,NO2,29,95,60
India,Delhi,Delhi,"Shadipur, Delhi - CPCB",15-02-2024 15:00:00,28.6514781,77.1473105,SO2,8,21,14
India,Delhi,Delhi,"Sonia Vihar, Delhi - DPCC",15-02-2024 15:00:00,28.710508,77.249485,NH3,6,11,8
India,Delhi,Delhi,"Sri Aurobindo Marg, Delhi - DPCC",15-02-2024 15:00:00,28.531346,77.190156,NH3,7,9,8
India,Delhi,Delhi,"Vivek Vihar, Delhi - DPCC",15-02-2024 15:00:00,28.672342,77.315260,CO,16,110,42
India,Delhi,Delhi,"Wazirpur, Delhi - DPCC",15-02-2024 15:00:00,28.699793,77.165453,NO2,66,209,140
India,Gujarat,Ahmedabad,"Chandkheda, Ahmedabad - IITM",15-02-2024 15:00:00,23.107969,72.574648,CO,2,52,37
India,Gujarat,Ahmedabad,"Rakhial, Ahmedabad - IITM",15-02-2024 15:00:00,23.016834,72.625775,SO2,4,35,9
India,Gujarat,Ahmedabad,"Rakhial, Ahmedabad - IITM",15-02-2024 15:00:00,23.016834,72.625775,CO,29,62,32
India,Gujarat,Ahmedabad,"SAC ISRO Bopal, Ahmedabad - IITM",15-02-2024 15:00:00,23.041137,72.456691,NO2,12,13,12
India,Gujarat,Ahmedabad,"SVPI Airport Hansol, Ahmedabad - IITM",15-02-2024 15:00:00,23.076793,72.627874,PM2.5,60,118,86
India,Gujarat,Ahmedabad,"SVPI Airport Hansol, Ahmedabad - IITM",15-02-2024 15:00:00,23.076793,72.627874,PM10,101,157,129
India,Gujarat,Ahmedabad,"SVPI Airport Hansol, Ahmedabad - IITM",15-02-2024 15:00:00,23.076793,72.627874,CO,2,36,25
India,Gujarat,Ahmedabad,"Sardar Vallabhbhai Patel Stadium, Ahmedabad - IITM",15-02-2024 15:00:00,23.043070,72.562968,PM2.5,86,211,119
India,Gujarat,Ahmedabad,"Sardar Vallabhbhai Patel Stadium, Ahmedabad - IITM",15-02-2024 15:00:00,23.043070,72.562968,PM10,103,157,121
India,Gujarat,Ahmedabad,"Sardar Vallabhbhai Patel Stadium, Ahmedabad - IITM",15-02-2024 15:00:00,23.043070,72.562968,OZONE,2,11,8
India,Gujarat,Ankleshwar,"GIDC, Ankleshwar - GPCB",15-02-2024 15:00:00,21.613267,73.010555,NH3,6,7,6
India,Gujarat,Gandhinagar,"GIFT City, Gandhinagar - IITM",15-02-2024 15:00:00,23.163798,72.677768,PM2.5,74,244,102
India,Gujarat,Gandhinagar,"GIFT City, Gandhinagar - IITM",15-02-2024 15:00:00,23.163798,72.677768,NO2,19,21,20
India,Gujarat,Gandhinagar,"GIFT City, Gandhinagar - IITM",15-02-2024 15:00:00,23.163798,72.677768,CO,17,29,27
India,Gujarat,Gandhinagar,"GIFT City, Gandhinagar - IITM",15-02-2024 15:00:00,23.163798,72.677768,OZONE,1,7,4
India,Gujarat,Gandhinagar,"IIPHG Lekawada, Gandhinagar - IITM",15-02-2024 15:00:00,23.243639,72.68994,NO2,NA,NA,NA
India,Gujarat,Gandhinagar,"IIPHG Lekawada, Gandhinagar - IITM",15-02-2024 15:00:00,23.243639,72.68994,NH3,NA,NA,NA
India,Gujarat,Gandhinagar,"IIPHG Lekawada, Gandhinagar - IITM",15-02-2024 15:00:00,23.243639,72.68994,SO2,NA,NA,NA
India,Gujarat,Surat,"Science Center, Surat - SMC",15-02-2024 15:00:00,21.170046,72.795405,NO2,7,32,26
India,Gujarat,Surat,"Science Center, Surat - SMC",15-02-2024 15:00:00,21.170046,72.795405,SO2,17,29,22
India,Gujarat,Vapi,"Phase-1 GIDC, Vapi - GPCB",15-02-2024 15:00:00,20.362421,72.918013,SO2,45,46,45
India,Gujarat,Vapi,"Phase-1 GIDC, Vapi - GPCB",15-02-2024 15:00:00,20.362421,72.918013,CO,104,195,77
India,Gujarat,Vapi,"Phase-1 GIDC, Vapi - GPCB",15-02-2024 15:00:00,20.362421,72.918013,OZONE,54,68,61
India,Haryana,Bahadurgarh,"Arya Nagar, Bahadurgarh - HSPCB",15-02-2024 15:00:00,28.6701,76.9254,PM2.5,91,261,164
India,Haryana,Bahadurgarh,"Arya Nagar, Bahadurgarh - HSPCB",15-02-2024 15:00:00,28.6701,76.9254,NO2,34,42,37
India,Haryana,Bahadurgarh,"Arya Nagar, Bahadurgarh - HSPCB",15-02-2024 15:00:00,28.6701,76.9254,CO,41,56,49
India,Haryana,Ballabgarh,"Nathu Colony, Ballabgarh - HSPCB",15-02-2024 15:00:00,28.3419248,77.319699,SO2,7,32,18
India,Haryana,Bhiwani,"H.B. Colony, Bhiwani - HSPCB",15-02-2024 15:00:00,28.806223,76.141105,PM10,106,163,123
India,Haryana,Charkhi Dadri,"Mini Secretariat, Charkhi Dadri - HSPCB",15-02-2024 15:00:00,28.593883,76.270653,PM10,110,190,146
India,Haryana,Charkhi Dadri,"Mini Secretariat, Charkhi Dadri - HSPCB",15-02-2024 15:00:00,28.593883,76.270653,NO2,10,17,12
India,Haryana,Faridabad,"New Industrial Town, Faridabad - HSPCB",15-02-2024 15:00:00,28.39072,77.30059,PM2.5,228,329,292
India,Haryana,Faridabad,"Sector 11, Faridabad - HSPCB",15-02-2024 15:00:00,28.376058,77.315741,OZONE,3,50,10
India,Haryana,Fatehabad,"Huda Sector, Fatehabad - HSPCB",15-02-2024 15:00:00,29.503664,75.467934,NO2,25,25,25
India,Haryana,Gurugram,"Sector-51, Gurugram - HSPCB",15-02-2024 15:00:00,28.4227,77.0667,PM10,88,318,212
India,Haryana,Gurugram,"Sector-51, Gurugram - HSPCB",15-02-2024 15:00:00,28.4227,77.0667,NH3,6,14,9
India,Haryana,Gurugram,"Teri Gram, Gurugram - HSPCB",15-02-2024 15:00:00,28.4275,77.1465,PM10,NA,NA,NA
India,Haryana,Gurugram,"Teri Gram, Gurugram - HSPCB",15-02-2024 15:00:00,28.4275,77.1465,CO,22,51,40
India,Haryana,Hisar,"Urban Estate-II, Hisar - HSPCB",15-02-2024 15:00:00,29.140560,75.744941,NO2,7,10,8
India,Haryana,Jind,"Police Lines, Jind - HSPCB",15-02-2024 15:00:00,29.307814,76.337619,NO2,5,14,11
India,Haryana,Kaithal,"Rishi Nagar, Kaithal - HSPCB",15-02-2024 15:00:00,29.8006,76.4155,PM2.5,82,233,139
India,Haryana,Karnal,"Sector-12, Karnal - HSPCB",15-02-2024 15:00:00,29.695300,77.002700,NO2,7,12,10
India,Haryana,Kurukshetra,"Sector-7, Kurukshetra - HSPCB",15-02-2024 15:00:00,29.966942,76.875879,NO2,10,10,10
India,Haryana,Kurukshetra,"Sector-7, Kurukshetra - HSPCB",15-02-2024 15:00:00,29.966942,76.875879,NH3,3,5,5
India,Haryana,Kurukshetra,"Sector-7, Kurukshetra - HSPCB",15-02-2024 15:00:00,29.966942,76.875879,OZONE,25,82,44
India,Haryana,Mandikhera,"General Hospital, Mandikhera - HSPCB",15-02-2024 15:00:00,27.9002,76.9938,PM2.5,34,68,52
India,Haryana,Mandikhera,"General Hospital, Mandikhera - HSPCB",15-02-2024 15:00:00,27.9002,76.9938,PM10,86,125,107
India,Haryana,Mandikhera,"General Hospital, Mandikhera - HSPCB",15-02-2024 15:00:00,27.9002,76.9938,NH3,18,23,20
India,Haryana,Mandikhera,"General Hospital, Mandikhera - HSPCB",15-02-2024 15:00:00,27.9002,76.9938,OZONE,17,33,27
India,Haryana,Manesar,"Sector-2 IMT, Manesar - HSPCB",15-02-2024 15:00:00,28.360699,76.936090,OZONE,8,56,35
India,Haryana,Narnaul,"Shastri Nagar, Narnaul - HSPCB",15-02-2024 15:00:00,28.060249,76.113115,SO2,13,29,15
India,Haryana,Narnaul,"Shastri Nagar, Narnaul - HSPCB",15-02-2024 15:00:00,28.060249,76.113115,CO,2,16,9
India,Haryana,Rohtak,"MD University, Rohtak - HSPCB",15-02-2024 15:00:00,28.52123,76.37138,SO2,5,9,7
India,Haryana,Sirsa,"F-Block, Sirsa - HSPCB",15-02-2024 15:00:00,29.536400,75.015800,NO2,10,10,10
India,Haryana,Sirsa,"F-Block, Sirsa - HSPCB",15-02-2024 15:00:00,29.536400,75.015800,SO2,2,50,37
India,Haryana,Sonipat,"Murthal, Sonipat - HSPCB",15-02-2024 15:00:00,29.027200,77.062100,PM10,97,121,113
India,Haryana,Sonipat,"Murthal, Sonipat - HSPCB",15-02-2024 15:00:00,29.027200,77.062100,CO,24,30,27
India,Haryana,Sonipat,"Murthal, Sonipat - HSPCB",15-02-2024 15:00:00,29.027200,77.062100,OZONE,17,36,28
India,Himachal Pradesh,Baddi,"HIMUDA Complex Phase-1, Baddi - HPPCB",15-02-2024 15:00:00,30.943887,76.801991,PM2.5,82,403,239
India,Himachal Pradesh,Baddi,"HIMUDA Complex Phase-1, Baddi - HPPCB",15-02-2024 15:00:00,30.943887,76.801991,CO,8,78,43
India,Jharkhand,Dhanbad,"Kalakusuma, Dhanbad - DMC",15-02-2024 15:00:00,23.811548,86.481238,PM2.5,NA,NA,NA
India,Karnataka,Bagalkot,"Vidayagiri, Bagalkot - KSPCB",15-02-2024 15:00:00,16.172806,75.659694,NO2,9,10,9
India,Karnataka,Belgaum,"Ramteerth Nagar, Belgaum - KSPCB",15-02-2024 15:00:00,15.888653,74.541751,SO2,8,9,8
India,Karnataka,Belgaum,"Ramteerth Nagar, Belgaum - KSPCB",15-02-2024 15:00:00,15.888653,74.541751,OZONE,19,20,20
India,Karnataka,Bengaluru,"BTM Layout, Bengaluru - CPCB",15-02-2024 15:00:00,12.9135218,77.5950804,PM2.5,29,48,40
India,Karnataka,Bengaluru,"BTM Layout, Bengaluru - CPCB",15-02-2024 15:00:00,12.9135218,77.5950804,CO,36,38,37
India,Karnataka,Bengaluru,"Bapuji Nagar, Bengaluru - KSPCB",15-02-2024 15:00:00,12.951913,77.539784,PM2.5,58,163,93
India,Karnataka,Bengaluru,"Bapuji Nagar, Bengaluru - KSPCB",15-02-2024 15:00:00,12.951913,77.539784,NH3,1,1,1
India,Karnataka,Bengaluru,"Bapuji Nagar, Bengaluru - KSPCB",15-02-2024 15:00:00,12.951913,77.539784,SO2,5,8,7
India,Karnataka,Bengaluru,"Bapuji Nagar, Bengaluru - KSPCB",15-02-2024 15:00:00,12.951913,77.539784,CO,30,49,43
India,Karnataka,Bengaluru,"Hebbal, Bengaluru - KSPCB",15-02-2024 15:00:00,13.029152,77.585901,SO2,NA,NA,NA
India,Karnataka,Bengaluru,"Hombegowda Nagar, Bengaluru - KSPCB",15-02-2024 15:00:00,12.938539,77.590100,NO2,26,41,37
India,Karnataka,Bengaluru,"Jayanagar 5th Block, Bengaluru - KSPCB",15-02-2024 15:00:00,12.920984,77.584908,PM10,59,120,84
India,Karnataka,Bengaluru,"Jigani, Bengaluru - KSPCB",15-02-2024 15:00:00,12.7816279,77.6299145,PM2.5,NA,NA,NA
India,Karnataka,Bengaluru,"Jigani, Bengaluru - KSPCB",15-02-2024 15:00:00,12.7816279,77.6299145,OZONE,11,64,44
India,Karnataka,Bengaluru,"Kasturi Nagar, Bengaluru - KSPCB",15-02-2024 15:00:00,13.003872,77.664217,PM2.5,59,120,85
India,Karnataka,Bengaluru,"Kasturi Nagar, Bengaluru - KSPCB",15-02-2024 15:00:00,13.003872,77.664217,NH3,3,4,4
India,Karnataka,Bengaluru,"Kasturi Nagar, Bengaluru - KSPCB",15-02-2024 15:00:00,13.003872,77.664217,CO,21,27,25
India,Karnataka,Bengaluru,"Peenya, Bengaluru - CPCB",15-02-2024 15:00:00,13.0270199,77.494094,CO,29,46,35
India,Karnataka,Bengaluru,"Shivapura_Peenya, Bengaluru - KSPCB",15-02-2024 15:00:00,13.0246342,77.5080115,PM2.5,1,121,39
India,Karnataka,Bengaluru,"Silk Board, Bengaluru - KSPCB",15-02-2024 15:00:00,12.917348,77.622813,PM10,67,114,86
India,Karnataka,Bengaluru,"Silk Board, Bengaluru - KSPCB",15-02-2024 15:00:00,12.917348,77.622813,NH3,1,1,1
India,Karnataka,Bengaluru,"Silk Board, Bengaluru - KSPCB",15-02-2024 15:00:00,12.917348,77.622813,SO2,10,16,13
India,Karnataka,Bidar,"Naubad, Bidar - KSPCB",15-02-2024 15:00:00,17.930306,77.482194,PM2.5,32,95,52
India,Karnataka,Bidar,"Naubad, Bidar - KSPCB",15-02-2024 15:00:00,17.930306,77.482194,PM10,64,115,85
India,Karnataka,Chamarajanagar,"Urban, Chamarajanagar - KSPCB",15-02-2024 15:00:00,11.55358,76.55521,NH3,2,3,2
India,Karnataka,Chikkamagaluru,"Kalyana Nagara, Chikkamagaluru - KSPCB",15-02-2024 15:00:00,13.328028,75.797056,NH3,NA,NA,NA
India,Karnataka,Davanagere,"Devaraj Urs Badavane, Davanagere - KSPCB",15-02-2024 15:00:00,14.475800,75.905200,NO2,4,13,11
India,Karnataka,Dharwad,"Kalabhavan, Dharwad - KSPCB",15-02-2024 15:00:00,15.459706,75.008381,PM2.5,47,89,67
India,Karnataka,Dharwad,"Kalabhavan, Dharwad - KSPCB",15-02-2024 15:00:00,15.459706,75.008381,NO2,5,37,24
India,Karnataka,Gadag,"Panchal Nagar, Gadag - KSPCB",15-02-2024 15:00:00,15.411456,75.638133,CO,36,37,36
India,Karnataka,Hassan,"B.Katihalli, Hassan - KSPCB",15-02-2024 15:00:00,13.008556,76.125258,PM2.5,12,87,54
India,Karnataka,Haveri,"Ashwini Nagar, Haveri - KSPCB",15-02-2024 15:00:00,14.791800,75.389600,PM10,NA,NA,NA
India,Karnataka,Haveri,"Ashwini Nagar, Haveri - KSPCB",15-02-2024 15:00:00,14.791800,75.389600,NO2,21,46,32
India,Karnataka,Haveri,"Ashwini Nagar, Haveri - KSPCB",15-02-2024 15:00:00,14.791800,75.389600,OZONE,18,38,25
India,Karnataka,Hubballi,"Lingaraj Nagar, Hubballi - KSPCB",15-02-2024 15:00:00,15.3714823,75.1160168,NO2,7,16,15
India,Karnataka,Kalaburagi,"Lal Bahadur Shastri Nagar, Kalaburagi - KSPCB",15-02-2024 15:00:00,17.321993,76.822628,PM2.5,NA,NA,NA
India,Karnataka,Kalaburagi,"Lal Bahadur Shastri Nagar, Kalaburagi - KSPCB",15-02-2024 15:00:00,17.321993,76.822628,NH3,2,2,2
India,Karnataka,Kalaburagi,"Mahatma Basaveswar Colony, Kalaburgi - KSPCB",15-02-2024 15:00:00,17.336318,76.847397,SO2,5,26,9
India,Karnataka,Karwar,"KHB Colony, Karwar - KSPCB",15-02-2024 15:00:00,14.816666,74.141003,PM10,53,160,80
India,Karnataka,Karwar,"KHB Colony, Karwar - KSPCB",15-02-2024 15:00:00,14.816666,74.141003,SO2,18,18,18
India,Karnataka,Karwar,"KHB Colony, Karwar - KSPCB",15-02-2024 15:00:00,14.816666,74.141003,OZONE,21,22,22
India,Karnataka,Kolar,"Tamaka Ind. Area, Kolar - KSPCB",15-02-2024 15:00:00,13.1276288,78.1570122,PM10,49,149,85
India,Karnataka,Kolar,"Tamaka Ind. Area, Kolar - KSPCB",15-02-2024 15:00:00,13.1276288,78.1570122,OZONE,8,12,10
India,Karnataka,Koppal,"Diwator Nagar, Koppal - KSPCB",15-02-2024 15:00:00,15.347630,76.181767,NH3,3,7,5
India,Karnataka,Koppal,"Diwator Nagar, Koppal - KSPCB",15-02-2024 15:00:00,15.347630,76.181767,SO2,56,62,58
India,Karnataka,Mysuru,"Hebbal 1st Stage, Mysuru - KSPCB",15-02-2024 15:00:00,12.21041,76.37376,NH3,1,3,2
India,Karnataka,Mysuru,"Hebbal 1st Stage, Mysuru - KSPCB",15-02-2024 15:00:00,12.21041,76.37376,SO2,1,7,3
India,Karnataka,Raichur,"Haji Colony, Raichur - KSPCB",15-02-2024 15:00:00,16.208139,77.348417,NH3,1,3,2
India,Karnataka,Tumakuru,"Thimmalapura, Tumakuru - KSPCB",15-02-2024 15:00:00,13.377516,77.099072,PM10,13,37,22
India,Karnataka,Udupi,"Brahmagiri, Udupi - KSPCB",15-02-2024 15:00:00,13.34194444,74.74694444,NO2,13,14,14
India,Karnataka,Udupi,"Brahmagiri, Udupi - KSPCB",15-02-2024 15:00:00,13.34194444,74.74694444,NH3,1,2,1
India,Karnataka,Udupi,"Brahmagiri, Udupi - KSPCB",15-02-2024 15:00:00,13.34194444,74.74694444,SO2,21,23,21
India,Karnataka,Udupi,"Brahmagiri, Udupi - KSPCB",15-02-2024 15:00:00,13.34194444,74.74694444,CO,43,50,47
India,Karnataka,Vijayapura,"Ibrahimpur, Vijayapura - KSPCB",15-02-2024 15:00:00,16.802639,75.722694,SO2,4,67,28
India,Karnataka,Yadgir,"Collector Office, Yadgir - KSPCB",15-02-2024 15:00:00,16.7602,77.1428,OZONE,17,19,18
India,Kerala,Eloor,"Udyogamandal, Eloor - Kerala PCB",15-02-2024 15:00:00,10.073232,76.302765,NO2,4,5,4
India,Kerala,Eloor,"Udyogamandal, Eloor - Kerala PCB",15-02-2024 15:00:00,10.073232,76.302765,OZONE,10,18,15
India,Kerala,Kannur,"Thavakkara, Kannur - Kerala PCB",15-02-2024 15:00:00,11.875000,75.373200,NO2,6,7,6
India,Kerala,Kochi,"Vyttila, Kochi - Kerala PCB",15-02-2024 15:00:00,9.969447,76.321186,NH3,3,3,3
India,Kerala,Kochi,"Vyttila, Kochi - Kerala PCB",15-02-2024 15:00:00,9.969447,76.321186,SO2,2,67,13
India,Kerala,Kollam,"Polayathode, Kollam - Kerala PCB",15-02-2024 15:00:00,8.8787,76.6073,PM10,59,89,72
India,Kerala,Thiruvananthapuram,"Kariavattom, Thiruvananthapuram - Kerala PCB",15-02-2024 15:00:00,8.563700,76.886500,PM10,74,88,82
India,Kerala,Thiruvananthapuram,"Kariavattom, Thiruvananthapuram - Kerala PCB",15-02-2024 15:00:00,8.563700,76.886500,NO2,8,9,9
India,Kerala,Thiruvananthapuram,"Kariavattom, Thiruvananthapuram - Kerala PCB",15-02-2024 15:00:00,8.563700,76.886500,CO,14,58,29
India,Kerala,Thiruvananthapuram,"Plammoodu, Thiruvananthapuram - Kerala PCB",15-02-2024 15:00:00,8.5149093,76.9435879,NO2,10,12,11
India,Kerala,Thiruvananthapuram,"Plammoodu, Thiruvananthapuram - Kerala PCB",15-02-2024 15:00:00,8.5149093,76.9435879,NH3,2,2,2
India,Kerala,Thiruvananthapuram,"Plammoodu, Thiruvananthapuram - Kerala PCB",15-02-2024 15:00:00,8.5149093,76.9435879,CO,19,36,26
India,Madhya Pradesh,Bhopal,"Idgah Hills, Bhopal - MPPCB",15-02-2024 15:00:00,23.264759,77.381568,PM2.5,82,293,179
India,Madhya Pradesh,Bhopal,"Paryavaran Parisar, Bhopal - MPPCB",15-02-2024 15:00:00,23.210494,77.425409,PM2.5,98,247,174
India,Madhya Pradesh,Bhopal,"Paryavaran Parisar, Bhopal - MPPCB",15-02-2024 15:00:00,23.210494,77.425409,SO2,21,26,23
India,Madhya Pradesh,Dewas,"Bhopal Chauraha, Dewas - MPPCB",15-02-2024 15:00:00,22.9682591,76.064118,NH3,3,3,3
India,Madhya Pradesh,Dewas,"Bhopal Chauraha, Dewas - MPPCB",15-02-2024 15:00:00,22.9682591,76.064118,OZONE,16,40,31
India,Madhya Pradesh,Gwalior,"City Center, Gwalior - MPPCB",15-02-2024 15:00:00,26.203442,78.193251,NO2,26,98,50
India,Madhya Pradesh,Gwalior,"City Center, Gwalior - MPPCB",15-02-2024 15:00:00,26.203442,78.193251,NH3,6,9,8
India,Madhya Pradesh,Gwalior,"City Center, Gwalior - MPPCB",15-02-2024 15:00:00,26.203442,78.193251,CO,36,103,45
India,Madhya Pradesh,Gwalior,"City Center, Gwalior - MPPCB",15-02-2024 15:00:00,26.203442,78.193251,OZONE,54,114,57
India,Madhya Pradesh,Gwalior,"Maharaj Bada, Gwalior - MPPCB",15-02-2024 15:00:00,26.200388,78.147714,NH3,7,14,10
India,Madhya Pradesh,Gwalior,"Maharaj Bada, Gwalior - MPPCB",15-02-2024 15:00:00,26.200388,78.147714,SO2,16,32,22
India,Madhya Pradesh,Gwalior,"Maharaj Bada, Gwalior - MPPCB",15-02-2024 15:00:00,26.200388,78.147714,OZONE,17,179,175
India,Madhya Pradesh,Gwalior,"Phool Bagh, Gwalior - Mondelez Ind. Food",15-02-2024 15:00:00,26.210536,78.171,NO2,4,5,4
India,Madhya Pradesh,Indore,"Chhoti Gwaltoli, Indore - MPPCB",15-02-2024 15:00:00,22.4310,75.5213,CO,46,100,51
India,Madhya Pradesh,Indore,"Chhoti Gwaltoli, Indore - MPPCB",15-02-2024 15:00:00,22.4310,75.5213,OZONE,39,108,82
India,Madhya Pradesh,Indore,"Maguda Nagar, Indore - IMC",15-02-2024 15:00:00,22.7524,75.8872,PM10,54,97,70
India,Madhya Pradesh,Indore,"Regional Park, Indore - IMC",15-02-2024 15:00:00,22.6780,75.8559,CO,19,38,23
India,Madhya Pradesh,Indore,"Residency Area, Indore - IMC",15-02-2024 15:00:00,22.7084,75.8815,CO,12,16,13
India,Madhya Pradesh,Jabalpur,"Govindh Bhavan Colony, Jabalpur - JMC",15-02-2024 15:00:00,23.163174,79.973061,NH3,2,3,3
India,Madhya Pradesh,Jabalpur,"Marhatal, Jabalpur - MPPCB",15-02-2024 15:00:00,23.168606,79.932247,SO2,19,26,22
India,Madhya Pradesh,Jabalpur,"Marhatal, Jabalpur - MPPCB",15-02-2024 15:00:00,23.168606,79.932247,CO,37,92,44
India,Madhya Pradesh,Jabalpur,"Suhagi, Jabalpur - JMC",15-02-2024 15:00:00,23.218135,79.957770,PM2.5,62,193,116
India,Madhya Pradesh,Jabalpur,"Suhagi, Jabalpur - JMC",15-02-2024 15:00:00,23.218135,79.957770,SO2,9,10,10
India,Madhya Pradesh,Katni,"Gole Bazar, Katni - MPPCB",15-02-2024 15:00:00,23.50016,80.23284,PM10,NA,NA,NA
India,Madhya Pradesh,Katni,"Gole Bazar, Katni - MPPCB",15-02-2024 15:00:00,23.50016,80.23284,OZONE,16,91,80
India,Madhya Pradesh,Maihar,"Sahilara, Maihar - KJS Cements",15-02-2024 15:00:00,24.2613009,80.7231783,NO2,14,14,14
India,Madhya Pradesh,Maihar,"Sahilara, Maihar - KJS Cements",15-02-2024 15:00:00,24.2613009,80.7231783,CO,24,30,27
India,Madhya Pradesh,Mandideep,"Sector-D Industrial Area, Mandideep - MPPCB",15-02-2024 15:00:00,23.108440,77.511428,PM2.5,100,303,227
India,Madhya Pradesh,Mandideep,"Sector-D Industrial Area, Mandideep - MPPCB",15-02-2024 15:00:00,23.108440,77.511428,SO2,34,125,90
India,Madhya Pradesh,Mandideep,"Sector-D Industrial Area, Mandideep - MPPCB",15-02-2024 15:00:00,23.108440,77.511428,CO,22,86,33
India,Madhya Pradesh,Pithampur,"Sector-2 Industrial Area, Pithampur - MPPCB",15-02-2024 15:00:00,22.624758,75.675238,NO2,9,17,12
India,Madhya Pradesh,Ratlam,"Shasthri Nagar, Ratlam - IPCA Lab",15-02-2024 15:00:00,23.331731,75.045981,PM2.5,48,170,105
India,Madhya Pradesh,Sagar,"Deen Dayal Nagar, Sagar - MPPCB",15-02-2024 15:00:00,23.8640158,78.80289321,PM2.5,26,71,42
India,Madhya Pradesh,Satna,"Bandhavgar Colony, Satna - Birla Cement",15-02-2024 15:00:00,24.58434363,80.8549414,PM10,40,49,46
India,Madhya Pradesh,Singrauli,"Suryakiran Bhawan NCL, Singrauli - MPPCB",15-02-2024 15:00:00,24.108970,82.645580,OZONE,11,64,38
India,Madhya Pradesh,Ujjain,"Mahakaleshwar Temple, Ujjain - MPPCB",15-02-2024 15:00:00,23.182719 ,75.768218 ,PM2.5,94,215,152
India,Madhya Pradesh,Ujjain,"Mahakaleshwar Temple, Ujjain - MPPCB",15-02-2024 15:00:00,23.182719 ,75.768218 ,CO,28,64,40
India,Madhya Pradesh,Ujjain,"Mahakaleshwar Temple, Ujjain - MPPCB",15-02-2024 15:00:00,23.182719 ,75.768218 ,OZONE,121,146,136
India,Maharashtra,Ahmednagar,"Tarakpur, Ahmednagar - MPCB",15-02-2024 15:00:00,19.10122,74.73339,PM10,52,379,136
India,Maharashtra,Akola,"Ramdaspeth, Akola - MPCB",15-02-2024 15:00:00,20.719516,77.000253,PM2.5,52,250,136
India,Maharashtra,Akola,"Ramdaspeth, Akola - MPCB",15-02-2024 15:00:00,20.719516,77.000253,PM10,106,366,151
India,Maharashtra,Akola,"Ramdaspeth, Akola - MPCB",15-02-2024 15:00:00,20.719516,77.000253,NO2,10,94,34
India,Maharashtra,Akola,"Ramdaspeth, Akola - MPCB",15-02-2024 15:00:00,20.719516,77.000253,SO2,4,15,9
India,Maharashtra,Akola,"Ramdaspeth, Akola - MPCB",15-02-2024 15:00:00,20.719516,77.000253,CO,32,128,42
India,Maharashtra,Amravati,"Shri Shivaji Science College, Amaravati - MPCB",15-02-2024 15:00:00,20.939198,77.765701,SO2,2,13,6
India,Maharashtra,Aurangabad,"MIDC Chilkalthana, Aurangabad - MPCB",15-02-2024 15:00:00,19.875620,75.387310,NO2,8,116,43
India,Maharashtra,Aurangabad,"More Chowk Waluj, Aurangabad - MPCB",15-02-2024 15:00:00,19.8389439,75.244448,SO2,10,11,10
India,Maharashtra,Aurangabad,"More Chowk Waluj, Aurangabad - MPCB",15-02-2024 15:00:00,19.8389439,75.244448,OZONE,1,5,2
India,Maharashtra,Badlapur,"Katrap, Badlapur - MPCB",15-02-2024 15:00:00,19.16485,73.23409,NO2,18,84,46
India,Maharashtra,Badlapur,"Katrap, Badlapur - MPCB",15-02-2024 15:00:00,19.16485,73.23409,NH3,4,6,4
India,Maharashtra,Belapur,"CBD Belapur, Belapur - MPCB",15-02-2024 15:00:00,19.0243902,73.0406721,PM10,80,128,111
India,Maharashtra,Belapur,"CBD Belapur, Belapur - MPCB",15-02-2024 15:00:00,19.0243902,73.0406721,NH3,13,41,26
India,Maharashtra,Bhiwandi,"Gokul Nagar, Bhiwandi - MPCB",15-02-2024 15:00:00,19.309073,73.057223,PM2.5,30,132,80
India,Maharashtra,Bhiwandi,"Gokul Nagar, Bhiwandi - MPCB",15-02-2024 15:00:00,19.309073,73.057223,PM10,49,150,111
India,Maharashtra,Bhiwandi,"Gokul Nagar, Bhiwandi - MPCB",15-02-2024 15:00:00,19.309073,73.057223,OZONE,14,74,38
India,Maharashtra,Boisar,"Khaira, Boisar - MPCB",15-02-2024 15:00:00,19.786089,72.757971,NO2,NA,NA,NA
India,Maharashtra,Chandrapur,"Chauhan Colony, Chandrapur - MPCB",15-02-2024 15:00:00,19.962900,79.298714,SO2,7,40,21
India,Maharashtra,Dhule,"Deopur, Dhule - MPCB",15-02-2024 15:00:00,20.918946,74.776388,SO2,8,25,15
India,Maharashtra,Dhule,"Deopur, Dhule - MPCB",15-02-2024 15:00:00,20.918946,74.776388,CO,14,82,23
India,Maharashtra,Jalgaon,"Prabhat Colony, Jalgaon - MPCB",15-02-2024 15:00:00,21.001264,75.565602,SO2,4,84,15
India,Maharashtra,Jalna,"Old MIDC, Jalna - MPCB",15-02-2024 15:00:00,19.854616,75.905894,NH3,6,8,7
India,Maharashtra,Kalyan,"Khadakpada, Kalyan - MPCB",15-02-2024 15:00:00,19.25292,73.142019,PM2.5,23,97,56
India,Maharashtra,Kalyan,"Khadakpada, Kalyan - MPCB",15-02-2024 15:00:00,19.25292,73.142019,NO2,28,42,34
India,Maharashtra,Kalyan,"Khadakpada, Kalyan - MPCB",15-02-2024 15:00:00,19.25292,73.142019,NH3,1,1,1
India,Maharashtra,Kalyan,"Khadakpada, Kalyan - MPCB",15-02-2024 15:00:00,19.25292,73.142019,SO2,24,37,29
India,Maharashtra,Kalyan,"Khadakpada, Kalyan - MPCB",15-02-2024 15:00:00,19.25292,73.142019,CO,16,24,20
India,Maharashtra,Kolhapur,"Shivaji University, Kolhapur - MPCB",15-02-2024 15:00:00,16.6870449,74.2505872,NO2,14,126,47
India,Maharashtra,Latur,"Sawe Wadi, Latur - MPCB",15-02-2024 15:00:00,18.39963,76.57452,NH3,8,8,8
India,Maharashtra,Latur,"Sawe Wadi, Latur - MPCB",15-02-2024 15:00:00,18.39963,76.57452,SO2,5,12,8
India,Maharashtra,Mahad,"Kamble Tarf Birwadi, Mahad - MPCB",15-02-2024 15:00:00,18.1023399,73.4783687,PM2.5,95,301,174
India,Maharashtra,Mahad,"Kamble Tarf Birwadi, Mahad - MPCB",15-02-2024 15:00:00,18.1023399,73.4783687,NH3,5,5,5
India,Maharashtra,Mahad,"Kamble Tarf Birwadi, Mahad - MPCB",15-02-2024 15:00:00,18.1023399,73.4783687,CO,22,28,25
India,Maharashtra,Malegaon,"Mahesh Nagar, Malegaon - MPCB",15-02-2024 15:00:00,20.555712,74.529236,NO2,5,21,10
India,Maharashtra,Mira-Bhayandar,"Bhayandar West, Mira-Bhayandar - MPCB",15-02-2024 15:00:00,19.296481,72.840923,PM10,96,206,122
India,Maharashtra,Mumbai,"Bandra Kurla Complex, Mumbai - MPCB",15-02-2024 15:00:00,19.065931,72.862131,NH3,14,20,16
India,Maharashtra,Mumbai,"Bandra Kurla Complex, Mumbai - MPCB",15-02-2024 15:00:00,19.065931,72.862131,SO2,3,17,8
India,Maharashtra,Mumbai,"Chakala-Andheri East, Mumbai - IITM",15-02-2024 15:00:00,19.11074,72.86084,PM2.5,76,167,108
India,Maharashtra,Mumbai,"Chakala-Andheri East, Mumbai - IITM",15-02-2024 15:00:00,19.11074,72.86084,OZONE,1,89,52
India,Maharashtra,Mumbai,"Chembur, Mumbai - MPCB",15-02-2024 15:00:00,19.0364585,72.8954371,NH3,4,5,4
India,Maharashtra,Mumbai,"Chhatrapati Shivaji Intl. Airport (T2), Mumbai - MPCB",15-02-2024 15:00:00,19.10078,72.87462,CO,46,96,79
India,Maharashtra,Mumbai,"Colaba, Mumbai - MPCB",15-02-2024 15:00:00,18.910000,72.820000,PM2.5,47,92,68
India,Maharashtra,Mumbai,"Ghatkopar, Mumbai - BMC",15-02-2024 15:00:00,19.083694,72.920967,PM10,98,115,106
India,Maharashtra,Mumbai,"Ghatkopar, Mumbai - BMC",15-02-2024 15:00:00,19.083694,72.920967,SO2,1,7,3
India,Maharashtra,Mumbai,"Kandivali East, Mumbai - MPCB",15-02-2024 15:00:00,19.205800,72.868200,PM10,99,277,140
India,Maharashtra,Mumbai,"Kherwadi_Bandra East, Mumbai - MPCB",15-02-2024 15:00:00,19.0632143,72.8456324,CO,15,92,51
India,Maharashtra,Mumbai,"Khindipada-Bhandup West, Mumbai - IITM",15-02-2024 15:00:00,19.1653323,72.922099,PM2.5,73,192,117
India,Maharashtra,Mumbai,"Khindipada-Bhandup West, Mumbai - IITM",15-02-2024 15:00:00,19.1653323,72.922099,NH3,5,8,6
India,Maharashtra,Mumbai,"Malad West, Mumbai - IITM",15-02-2024 15:00:00,19.19709,72.82204,SO2,3,10,7
India,Maharashtra,Mumbai,"Malad West, Mumbai - IITM",15-02-2024 15:00:00,19.19709,72.82204,CO,10,54,31
India,Maharashtra,Mumbai,"Mazgaon, Mumbai - IITM",15-02-2024 15:00:00,18.96702,72.84214,PM2.5,120,258,178
India,Maharashtra,Mumbai,"Mazgaon, Mumbai - IITM",15-02-2024 15:00:00,18.96702,72.84214,NH3,15,57,42
India,Maharashtra,Mumbai,"Mindspace-Malad West, Mumbai - MPCB",15-02-2024 15:00:00,19.1878657,72.8304069,CO,34,60,49
India,Maharashtra,Mumbai,"Mindspace-Malad West, Mumbai - MPCB",15-02-2024 15:00:00,19.1878657,72.8304069,OZONE,2,94,22
India,Maharashtra,Mumbai,"Mulund West, Mumbai - MPCB",15-02-2024 15:00:00,19.1750,72.9419,PM2.5,29,237,65
India,Maharashtra,Mumbai,"Mulund West, Mumbai - MPCB",15-02-2024 15:00:00,19.1750,72.9419,SO2,14,15,14
India,Maharashtra,Mumbai,"Mulund West, Mumbai - MPCB",15-02-2024 15:00:00,19.1750,72.9419,CO,30,30,30
India,Maharashtra,Mumbai,"Navy Nagar-Colaba, Mumbai - IITM",15-02-2024 15:00:00,18.897756,72.813320,PM2.5,NA,NA,NA
India,Maharashtra,Mumbai,"Navy Nagar-Colaba, Mumbai - IITM",15-02-2024 15:00:00,18.897756,72.813320,NH3,NA,NA,NA
India,Maharashtra,Mumbai,"Navy Nagar-Colaba, Mumbai - IITM",15-02-2024 15:00:00,18.897756,72.813320,SO2,NA,NA,NA
India,Maharashtra,Mumbai,"Navy Nagar-Colaba, Mumbai - IITM",15-02-2024 15:00:00,18.897756,72.813320,OZONE,64,157,157
India,Maharashtra,Mumbai,"Powai, Mumbai - MPCB",15-02-2024 15:00:00,19.137500,72.915056,PM10,79,163,115
India,Maharashtra,Mumbai,"Powai, Mumbai - MPCB",15-02-2024 15:00:00,19.137500,72.915056,OZONE,22,69,36
India,Maharashtra,Mumbai,"Sewri, Mumbai - BMC",15-02-2024 15:00:00,19.000084,72.856730,NO2,54,146,100
India,Maharashtra,Mumbai,"Shivaji Nagar, Mumbai - BMC",15-02-2024 15:00:00,19.060498,72.923356,SO2,11,34,22
India,Maharashtra,Mumbai,"Siddharth Nagar-Worli, Mumbai - IITM",15-02-2024 15:00:00,19.000083,72.813993,PM2.5,NA,NA,NA
India,Maharashtra,Mumbai,"Siddharth Nagar-Worli, Mumbai - IITM",15-02-2024 15:00:00,19.000083,72.813993,PM10,NA,NA,NA
India,Maharashtra,Mumbai,"Siddharth Nagar-Worli, Mumbai - IITM",15-02-2024 15:00:00,19.000083,72.813993,NO2,NA,NA,NA
India,Maharashtra,Mumbai,"Siddharth Nagar-Worli, Mumbai - IITM",15-02-2024 15:00:00,19.000083,72.813993,OZONE,3,170,170
India,Maharashtra,Mumbai,"Vasai West, Mumbai - MPCB",15-02-2024 15:00:00,19.383200,72.820400,SO2,16,16,16
India,Maharashtra,Mumbai,"Vasai West, Mumbai - MPCB",15-02-2024 15:00:00,19.383200,72.820400,CO,25,96,43
India,Maharashtra,Mumbai,"Vasai West, Mumbai - MPCB",15-02-2024 15:00:00,19.383200,72.820400,OZONE,17,72,43
India,Maharashtra,Mumbai,"Worli, Mumbai - MPCB",15-02-2024 15:00:00,18.9936162,72.8128113,NH3,NA,NA,NA
India,Maharashtra,Mumbai,"Worli, Mumbai - MPCB",15-02-2024 15:00:00,18.9936162,72.8128113,CO,32,34,33
India,Maharashtra,Nagpur,"Ambazari, Nagpur - MPCB",15-02-2024 15:00:00,21.121801,79.04952,CO,11,120,17
India,Maharashtra,Nagpur,"Mahal, Nagpur - MPCB",15-02-2024 15:00:00,21.14472,79.107595,NH3,5,18,9
India,Maharashtra,Nagpur,"Mahal, Nagpur - MPCB",15-02-2024 15:00:00,21.14472,79.107595,CO,29,134,50
India,Maharashtra,Nagpur,"Opp GPO Civil Lines, Nagpur - MPCB",15-02-2024 15:00:00,21.152875,79.0517531,PM2.5,49,248,158
India,Maharashtra,Nagpur,"Opp GPO Civil Lines, Nagpur - MPCB",15-02-2024 15:00:00,21.152875,79.0517531,CO,22,160,33
India,Maharashtra,Nagpur,"Ram Nagar, Nagpur - MPCB",15-02-2024 15:00:00,21.143383,79.048912,SO2,8,111,21
India,Maharashtra,Nanded,"Sneh Nagar, Nanded - MPCB",15-02-2024 15:00:00,19.173852,77.296291,PM10,82,127,102
India,Maharashtra,Nanded,"Sneh Nagar, Nanded - MPCB",15-02-2024 15:00:00,19.173852,77.296291,NH3,1,2,1
India,Maharashtra,Nashik,"Gangapur Road, Nashik - MPCB",15-02-2024 15:00:00,20.0073285,73.7762427,SO2,1,15,6
India,Maharashtra,Nashik,"Gangapur Road, Nashik - MPCB",15-02-2024 15:00:00,20.0073285,73.7762427,OZONE,3,78,47
India,Maharashtra,Nashik,"Hirawadi, Nashik - MPCB",15-02-2024 15:00:00,20.021503,73.813844,NH3,1,2,1
India,Maharashtra,Nashik,"Pandav Nagari, Nashik - MPCB",15-02-2024 15:00:00,19.9591346,73.7788008,PM2.5,51,131,76
India,Maharashtra,Navi Mumbai,"Kopripada-Vashi, Navi Mumbai - MPCB",15-02-2024 15:00:00,19.090337,73.014232,SO2,13,52,32
India,Maharashtra,Navi Mumbai,"Mahape, Navi Mumbai - MPCB",15-02-2024 15:00:00,19.1135051,73.008978,NO2,37,39,38
India,Maharashtra,Navi Mumbai,"Mahape, Navi Mumbai - MPCB",15-02-2024 15:00:00,19.1135051,73.008978,NH3,3,4,3
India,Maharashtra,Navi Mumbai,"Mahape, Navi Mumbai - MPCB",15-02-2024 15:00:00,19.1135051,73.008978,OZONE,16,41,21
India,Maharashtra,Navi Mumbai,"Nerul, Navi Mumbai - MPCB",15-02-2024 15:00:00,19.008751,73.016620,SO2,16,27,24
India,Maharashtra,Navi Mumbai,"Sanpada, Navi Mumbai - MPCB",15-02-2024 15:00:00,19.0575752,73.0151367,PM2.5,57,197,138
India,Maharashtra,Navi Mumbai,"Sector-19A Nerul, Navi Mumbai - IITM",15-02-2024 15:00:00,19.044,73.0325,OZONE,1,220,220
India,Maharashtra,Navi Mumbai,"Sector-2E Kalamboli, Navi Mumbai - MPCB",15-02-2024 15:00:00,19.02579,73.10297,PM2.5,64,272,130
India,Maharashtra,Navi Mumbai,"Sector-2E Kalamboli, Navi Mumbai - MPCB",15-02-2024 15:00:00,19.02579,73.10297,SO2,12,93,45
India,Maharashtra,Navi Mumbai,"Tondare-Taloja, Navi Mumbai - MPCB",15-02-2024 15:00:00,19.0630,73.1209,PM10,97,164,122
India,Maharashtra,Navi Mumbai,"Tondare-Taloja, Navi Mumbai - MPCB",15-02-2024 15:00:00,19.0630,73.1209,NH3,NA,NA,NA
India,Maharashtra,Parbhani,"Masoom Colony, Parbhani - MPCB",15-02-2024 15:00:00,19.265594,76.761463,NH3,2,3,3
India,Maharashtra,Pimpri-Chinchwad,"Park Street Wakad, Pimpri Chinchwad - MPCB",15-02-2024 15:00:00,18.59051,73.77946,PM2.5,135,358,227
India,Maharashtra,Pimpri-Chinchwad,"Park Street Wakad, Pimpri Chinchwad - MPCB",15-02-2024 15:00:00,18.59051,73.77946,SO2,4,20,10
India,Maharashtra,Pimpri-Chinchwad,"Thergaon, Pimpri Chinchwad - MPCB",15-02-2024 15:00:00,18.616318,73.765797,PM10,104,362,170
India,Maharashtra,Pimpri-Chinchwad,"Thergaon, Pimpri Chinchwad - MPCB",15-02-2024 15:00:00,18.616318,73.765797,NO2,24,108,68
India,Maharashtra,Pune,"Bhosari, Pune - IITM",15-02-2024 15:00:00,18.640051,73.848956,OZONE,3,11,6
India,Maharashtra,Pune,"Karve Road, Pune - MPCB",15-02-2024 15:00:00,18.5011743,73.8165527,PM10,2,241,120
India,Maharashtra,Pune,"Karve Road, Pune - MPCB",15-02-2024 15:00:00,18.5011743,73.8165527,NO2,2,2,2
India,Maharashtra,Pune,"Karve Road, Pune - MPCB",15-02-2024 15:00:00,18.5011743,73.8165527,SO2,2,47,22
India,Maharashtra,Pune,"Katraj Dairy, Pune - MPCB",15-02-2024 15:00:00,18.454450,73.854155,PM10,73,203,127
India,Maharashtra,Pune,"Revenue Colony-Shivajinagar, Pune - IITM",15-02-2024 15:00:00,18.530085,73.849598,NO2,99,185,144
India,Maharashtra,Pune,"Revenue Colony-Shivajinagar, Pune - IITM",15-02-2024 15:00:00,18.530085,73.849598,SO2,83,121,107
India,Maharashtra,Pune,"Revenue Colony-Shivajinagar, Pune - IITM",15-02-2024 15:00:00,18.530085,73.849598,CO,106,131,110
India,Maharashtra,Pune,"Transport Nagar-Nigdi, Pune - IITM",15-02-2024 15:00:00,18.664282,73.763966,PM10,58,204,116
India,Maharashtra,Pune,"Transport Nagar-Nigdi, Pune - IITM",15-02-2024 15:00:00,18.664282,73.763966,NO2,12,24,17
India,Maharashtra,Sangli,"Vijay Nagar, Sangli - MPCB",15-02-2024 15:00:00, 16.5038,74.3623,CO,10,124,40
India,Maharashtra,Sangli,"Vijay Nagar, Sangli - MPCB",15-02-2024 15:00:00, 16.5038,74.3623,OZONE,30,40,32
India,Maharashtra,Solapur,"Dnyaneshwar Nagar, Solapur - MPCB",15-02-2024 15:00:00,17.6336264,75.9132495,NH3,12,54,23
India,Maharashtra,Solapur,"Ratandeep Housing Society, Solapur - MPCB",15-02-2024 15:00:00,17.65439,75.90649,NO2,14,146,57
India,Maharashtra,Solapur,"Ratandeep Housing Society, Solapur - MPCB",15-02-2024 15:00:00,17.65439,75.90649,OZONE,3,135,80
India,Maharashtra,Thane,"Kasarvadavali, Thane - MPCB",15-02-2024 15:00:00,19.26777,72.97182,NH3,5,10,7
India,Maharashtra,Thane,"Pimpleshwar Mandir, Thane - MPCB",15-02-2024 15:00:00,19.192056,72.9585188,NH3,3,3,3
India,Maharashtra,Thane,"Upvan Fort, Thane - MPCB",15-02-2024 15:00:00,19.222279,72.957979,NH3,10,15,12
India,Maharashtra,Ulhasnagar,"Sidhi Vinayak Nagar, Ulhasnagar - MPCB",15-02-2024 15:00:00,19.235581,73.159121,OZONE,12,100,62
India,Maharashtra,Virar,"Bolinj, Virar - MPCB",15-02-2024 15:00:00,19.4458210,72.7988231,NO2,15,61,27
India,Maharashtra,Virar,"Bolinj, Virar - MPCB",15-02-2024 15:00:00,19.4458210,72.7988231,SO2,17,43,26
India,Maharashtra,Virar,"Bolinj, Virar - MPCB",15-02-2024 15:00:00,19.4458210,72.7988231,CO,23,59,33
India,Maharashtra,Virar,"Bolinj, Virar - MPCB",15-02-2024 15:00:00,19.4458210,72.7988231,OZONE,41,138,78
India,Manipur,Imphal,"DM College of Science, Imphal - Manipur PCB",15-02-2024 15:00:00,24.8207389,93.9423085,NH3,NA,NA,NA
India,Manipur,Imphal,"Manipur University, Imphal - Manipur PCB",15-02-2024 15:00:00,24.7524239,93.9286218,PM2.5,49,340,170
India,Manipur,Imphal,"Manipur University, Imphal - Manipur PCB",15-02-2024 15:00:00,24.7524239,93.9286218,CO,12,74,23
India,Meghalaya,Shillong,"Lumpyngngad, Shillong - Meghalaya PCB",15-02-2024 15:00:00,25.5586,91.8985,PM2.5,58,310,139
India,Mizoram,Aizawl,"Sikulpuikawn, Aizawl - Mizoram PCB",15-02-2024 15:00:00,23.7176342,92.7192841,CO,12,20,14
India,Odisha,Angul,"Hakimapada, Angul - OSPCB",15-02-2024 15:00:00,20.832874,85.104082,NH3,1,3,2
India,Odisha,Balasore,"Kalidaspur, Balasore - OSPCB",15-02-2024 15:00:00,21.51161,86.89088,PM10,107,207,140
India,Odisha,Barbil,"Forest Office, Barbil - OSPCB",15-02-2024 15:00:00,22.1166054,85.3945546,PM10,70,410,164
India,Odisha,Barbil,"Forest Office, Barbil - OSPCB",15-02-2024 15:00:00,22.1166054,85.3945546,OZONE,2,118,65
India,Odisha,Baripada,"Meher Colony, Baripada - OSPCB",15-02-2024 15:00:00,21.941841,86.728318,PM10,NA,NA,NA
India,Odisha,Baripada,"Meher Colony, Baripada - OSPCB",15-02-2024 15:00:00,21.941841,86.728318,CO,26,42,33
India,Odisha,Baripada,"Meher Colony, Baripada - OSPCB",15-02-2024 15:00:00,21.941841,86.728318,OZONE,26,68,53
India,Odisha,Bhubaneswar,"Lingraj Mandir, Bhubaneswar - OSPCB",15-02-2024 15:00:00,20.240790,85.836784,CO,36,64,49
India,Odisha,Bhubaneswar,"Patia, Bhubaneswar - OSPCB",15-02-2024 15:00:00,20.34652,85.81630,PM10,63,125,102
India,Odisha,Bhubaneswar,"Patia, Bhubaneswar - OSPCB",15-02-2024 15:00:00,20.34652,85.81630,NO2,7,31,17
India,Odisha,Brajrajnagar,"GM Office, Brajrajnagar - OSPCB",15-02-2024 15:00:00,21.8004996,83.8396977,PM2.5,31,234,74
India,Odisha,Byasanagar,"Ferro Chrome Colony, Byasanagar - OSPCB",15-02-2024 15:00:00,20.94185,86.11510,NO2,11,26,16
India,Odisha,Byasanagar,"Ferro Chrome Colony, Byasanagar - OSPCB",15-02-2024 15:00:00,20.94185,86.11510,NH3,3,4,4
India,Odisha,Cuttack,"CDA Area, Cuttack - OSPCB",15-02-2024 15:00:00,20.48891     ,85.84768     ,PM10,70,137,101
India,Odisha,Cuttack,"CDA Area, Cuttack - OSPCB",15-02-2024 15:00:00,20.48891     ,85.84768     ,NH3,3,5,4
India,Odisha,Keonjhar,"Jagamohanpur, Keonjhar - OSPCB",15-02-2024 15:00:00,21.643900,85.599355,NH3,9,16,11
India,Odisha,Nayagarh,"Dabuna, Nayagarh - OSPCB",15-02-2024 15:00:00,21.847279,85.416905,NH3,2,6,4
India,Odisha,Nayagarh,"Dabuna, Nayagarh - OSPCB",15-02-2024 15:00:00,21.847279,85.416905,SO2,3,9,4
India,Odisha,Nayagarh,"Dabuna, Nayagarh - OSPCB",15-02-2024 15:00:00,21.847279,85.416905,OZONE,2,14,8
India,Odisha,Rairangpur,"Divisional Forest Office, Rairangpur - OSPCB",15-02-2024 15:00:00,22.265816,86.174829,PM2.5,72,208,141
India,Odisha,Rairangpur,"Divisional Forest Office, Rairangpur - OSPCB",15-02-2024 15:00:00,22.265816,86.174829,PM10,102,140,118
India,Odisha,Rairangpur,"Divisional Forest Office, Rairangpur - OSPCB",15-02-2024 15:00:00,22.265816,86.174829,NH3,5,5,5
India,Odisha,Rourkela,"Fertilizer Township, Rourkela - OSPCB",15-02-2024 15:00:00,22.18972222,84.86277778,NO2,5,68,25
India,Odisha,Rourkela,"Raghunathpali, Rourkela - OSPCB",15-02-2024 15:00:00,22.220833,84.809444,SO2,5,14,8
India,Odisha,Rourkela,"Sector-2, Rourkela - OSPCB",15-02-2024 15:00:00,22.24500000,84.88111111,CO,23,75,32
India,Odisha,Suakati,"OMC Colony, Suakati - OSPCB",15-02-2024 15:00:00,21.606865,85.510538,SO2,1,7,4
India,Odisha,Talcher,"Talcher Coalfields,Talcher - OSPCB",15-02-2024 15:00:00,20.9360711,85.1707021,CO,2,27,14
India,Puducherry,Puducherry,"Jawahar Nagar, Puducherry - PPCC",15-02-2024 15:00:00,11.9309,79.8027,NH3,2,3,2
India,Puducherry,Puducherry,"Jawahar Nagar, Puducherry - PPCC",15-02-2024 15:00:00,11.9309,79.8027,OZONE,13,55,38
India,Punjab,Amritsar,"Golden Temple, Amritsar - PPCB",15-02-2024 15:00:00,31.620000,74.876512,CO,18,101,54
India,Punjab,Amritsar,"Golden Temple, Amritsar - PPCB",15-02-2024 15:00:00,31.620000,74.876512,OZONE,26,34,29
India,Punjab,Bathinda,"Hardev Nagar, Bathinda - PPCB",15-02-2024 15:00:00,30.233011,74.907758,NO2,31,33,32
India,Punjab,Jalandhar,"Civil Line, Jalandhar - PPCB",15-02-2024 15:00:00,31.321907,75.578914,PM2.5,52,99,74
India,Punjab,Jalandhar,"Civil Line, Jalandhar - PPCB",15-02-2024 15:00:00,31.321907,75.578914,NH3,2,2,2
India,Punjab,Khanna,"Kalal Majra, Khanna - PPCB",15-02-2024 15:00:00,30.736056 ,76.209694,SO2,13,66,22
India,Punjab,Ludhiana,"Punjab Agricultural University, Ludhiana - PPCB",15-02-2024 15:00:00,30.9028,75.8086,CO,12,109,60
India,Punjab,Mandi Gobindgarh,"RIMT University, Mandi Gobindgarh - PPCB",15-02-2024 15:00:00,30.649961,76.331442,PM10,109,424,259
India,Punjab,Mandi Gobindgarh,"RIMT University, Mandi Gobindgarh - PPCB",15-02-2024 15:00:00,30.649961,76.331442,SO2,6,52,18
India,Punjab,Patiala,"Model Town, Patiala - PPCB",15-02-2024 15:00:00,30.349388,76.366642,NO2,19,24,22
India,Punjab,Patiala,"Model Town, Patiala - PPCB",15-02-2024 15:00:00,30.349388,76.366642,NH3,2,3,2
India,Punjab,Rupnagar,"Ratanpura, Rupnagar - Ambuja Cements",15-02-2024 15:00:00,31.0325454,76.5623046,SO2,3,12,8
India,Rajasthan,Ajmer,"Civil Lines,  Ajmer - RSPCB",15-02-2024 15:00:00,26.470859,74.646594,PM2.5,55,136,78
India,Rajasthan,Ajmer,"Civil Lines,  Ajmer - RSPCB",15-02-2024 15:00:00,26.470859,74.646594,NO2,31,69,42
India,Rajasthan,Ajmer,"Civil Lines,  Ajmer - RSPCB",15-02-2024 15:00:00,26.470859,74.646594,SO2,12,20,16
India,Rajasthan,Alwar,"Moti Doongri, Alwar - RSPCB",15-02-2024 15:00:00,27.554793,76.611536,NH3,6,10,8
India,Rajasthan,Alwar,"Moti Doongri, Alwar - RSPCB",15-02-2024 15:00:00,27.554793,76.611536,CO,37,106,61
India,Rajasthan,Alwar,"Moti Doongri, Alwar - RSPCB",15-02-2024 15:00:00,27.554793,76.611536,OZONE,7,33,20
India,Rajasthan,Banswara,"Rati Talai, Banswara - RSPCB",15-02-2024 15:00:00,23.555190,74.440010,NH3,NA,NA,NA
India,Rajasthan,Banswara,"Rati Talai, Banswara - RSPCB",15-02-2024 15:00:00,23.555190,74.440010,SO2,NA,NA,NA
India,Rajasthan,Baran,"Bamboliya, Baran - RSPCB",15-02-2024 15:00:00,25.106006,76.469948,SO2,NA,NA,NA
India,Rajasthan,Barmer,"Railway Colony, Barmer - RSPCB",15-02-2024 15:00:00,25.747299,71.393989,PM2.5,NA,NA,NA
India,Rajasthan,Bhilwara,"Pratap Nagar, Bhilwara - RSPCB",15-02-2024 15:00:00,25.339605,74.618883,NO2,NA,NA,NA
India,Rajasthan,Bhiwadi,"RIICO Ind. Area III, Bhiwadi - RSPCB",15-02-2024 15:00:00,28.194909,76.862296,PM10,133,287,216
India,Rajasthan,Bundi,"New Colony, Bundi - RSPCB",15-02-2024 15:00:00,25.435774,75.644272,NO2,NA,NA,NA
India,Rajasthan,Bundi,"New Colony, Bundi - RSPCB",15-02-2024 15:00:00,25.435774,75.644272,CO,30,30,30
India,Rajasthan,Churu,"Subash Chowk, Churu - RSPCB",15-02-2024 15:00:00,28.296139,74.961696,SO2,NA,NA,NA
India,Rajasthan,Churu,"Subash Chowk, Churu - RSPCB",15-02-2024 15:00:00,28.296139,74.961696,CO,30,30,30
India,Rajasthan,Dholpur,"Raja Ganj, Dholpur - RSPCB",15-02-2024 15:00:00,26.699557,77.898881,CO,38,40,39
India,Rajasthan,Dungarpur,"Bhoiwada, Dungarpur - RSPCB",15-02-2024 15:00:00,23.837789,73.714926,CO,16,16,16
India,Rajasthan,Jaipur,"Adarsh Nagar, Jaipur - RSPCB",15-02-2024 15:00:00,26.902909,75.836858,NH3,3,12,6
India,Rajasthan,Jaipur,"Adarsh Nagar, Jaipur - RSPCB",15-02-2024 15:00:00,26.902909,75.836858,OZONE,12,78,57
India,Rajasthan,Jaipur,"Police Commissionerate, Jaipur - RSPCB",15-02-2024 15:00:00,26.9164092,75.7994901,SO2,13,26,17
India,Rajasthan,Jaipur,"Shastri Nagar, Jaipur - RSPCB",15-02-2024 15:00:00,26.9502929,75.730943,PM10,NA,NA,NA
India,Rajasthan,Jhalawar,"Rajlaxmi Nagar, Jhalawar - RSPCB",15-02-2024 15:00:00,24.588397,76.172782,NH3,NA,NA,NA
India,Rajasthan,Jhalawar,"Rajlaxmi Nagar, Jhalawar - RSPCB",15-02-2024 15:00:00,24.588397,76.172782,CO,36,36,36
India,Rajasthan,Jhunjhunu,"Indra Nagar, Jhunjhunu - RSPCB",15-02-2024 15:00:00,28.108988,75.386577,CO,24,24,24
India,Rajasthan,Jodhpur,"Collectorate, Jodhpur - RSPCB",15-02-2024 15:00:00,26.268249,73.0193853,NO2,31,56,41
India,Rajasthan,Jodhpur,"Jhalamand, Jodhpur - RSPCB",15-02-2024 15:00:00,26.215415,73.070156,NO2,NA,NA,NA
India,Rajasthan,Jodhpur,"Mandor, Jodhpur - RSPCB",15-02-2024 15:00:00,26.358805,73.047444,PM2.5,NA,NA,NA
India,Rajasthan,Jodhpur,"Mandor, Jodhpur - RSPCB",15-02-2024 15:00:00,26.358805,73.047444,PM10,NA,NA,NA
India,Rajasthan,Jodhpur,"Mandor, Jodhpur - RSPCB",15-02-2024 15:00:00,26.358805,73.047444,OZONE,137,137,137
India,Rajasthan,Jodhpur,"Samrat Ashok Udhyan, Jodhpur - RSPCB",15-02-2024 15:00:00,26.253384,72.976571,CO,39,39,39
India,Rajasthan,Karauli,"Satyawati Vihar, Karauli - RSPCB",15-02-2024 15:00:00,26.506177,77.025989,PM10,NA,NA,NA
India,Rajasthan,Kota,"Dhanmandi, Kota - RSPCB",15-02-2024 15:00:00,25.164090,75.858137,NO2,NA,NA,NA
India,Rajasthan,Kota,"Dhanmandi, Kota - RSPCB",15-02-2024 15:00:00,25.164090,75.858137,SO2,NA,NA,NA
India,Rajasthan,Kota,"Nayapura, Kota - RSPCB",15-02-2024 15:00:00,25.196024,75.855668,PM10,NA,NA,NA
India,Rajasthan,Kota,"Nayapura, Kota - RSPCB",15-02-2024 15:00:00,25.196024,75.855668,NH3,NA,NA,NA
India,Rajasthan,Kota,"Shrinath Puram, Kota - RSPCB",15-02-2024 15:00:00,25.14389,75.821256,PM10,79,202,134
India,Rajasthan,Kota,"Shrinath Puram, Kota - RSPCB",15-02-2024 15:00:00,25.14389,75.821256,OZONE,10,129,78
India,Rajasthan,Pali,"Indira Colony Vistar, Pali - RSPCB",15-02-2024 15:00:00,25.771061, 73.340227,CO,31,96,53
India,Rajasthan,Rajsamand,"Dhoinda, Rajsamand - RSPCB",15-02-2024 15:00:00,25.036360,73.883502,SO2,NA,NA,NA
India,Rajasthan,Sawai Madhopur,"Sahu Nagar, Sawai Madhopur - RSPCB",15-02-2024 15:00:00,26.031443,76.359327,NH3,NA,NA,NA
India,Rajasthan,Udaipur,"Ashok Nagar, Udaipur - RSPCB",15-02-2024 15:00:00,24.5886166,73.6321397,PM10,118,181,151
India,Rajasthan,Udaipur,"Ashok Nagar, Udaipur - RSPCB",15-02-2024 15:00:00,24.5886166,73.6321397,NH3,4,9,5
India,Rajasthan,Udaipur,"Ashok Nagar, Udaipur - RSPCB",15-02-2024 15:00:00,24.5886166,73.6321397,CO,5,117,57
India,Sikkim,Gangtok,"Zero Point GICI, Gangtok - SSPCB",15-02-2024 15:00:00,27.338530,88.614099,CO,15,26,22
India,TamilNadu,Ariyalur,"Keelapalur, Ariyalur - TNPCB",15-02-2024 15:00:00,11.06825,79.07033,PM2.5,22,60,44
India,TamilNadu,Ariyalur,"Keelapalur, Ariyalur - TNPCB",15-02-2024 15:00:00,11.06825,79.07033,SO2,22,23,22
India,TamilNadu,Chennai,"Alandur Bus Depot, Chennai - CPCB",15-02-2024 15:00:00,12.9099161,80.1076538,NO2,10,88,26
India,TamilNadu,Chennai,"Alandur Bus Depot, Chennai - CPCB",15-02-2024 15:00:00,12.9099161,80.1076538,CO,62,63,62
India,TamilNadu,Chennai,"Alandur Bus Depot, Chennai - CPCB",15-02-2024 15:00:00,12.9099161,80.1076538,OZONE,1,11,7
India,TamilNadu,Chennai,"Gandhi Nagar_Ennore, Chennai - TNPCB",15-02-2024 15:00:00,13.218341,80.32027,PM10,NA,NA,NA
India,TamilNadu,Chennai,"Kodungaiyur, Chennai - TNPCB",15-02-2024 15:00:00,13.1278,80.2642,PM2.5,22,75,39
India,TamilNadu,Chennai,"Kodungaiyur, Chennai - TNPCB",15-02-2024 15:00:00,13.1278,80.2642,PM10,65,152,90
India,TamilNadu,Chennai,"Manali, Chennai - CPCB",15-02-2024 15:00:00,13.164544,80.26285,CO,57,105,84
India,TamilNadu,Chennai,"Perungudi, Chennai - TNPCB",15-02-2024 15:00:00,12.9533,80.2357,NH3,2,3,2
India,TamilNadu,Chennai,"Velachery Res. Area, Chennai - CPCB",15-02-2024 15:00:00,13.0052189,80.2398125,CO,2,121,57
India,TamilNadu,Chennai,"Velachery Res. Area, Chennai - CPCB",15-02-2024 15:00:00,13.0052189,80.2398125,OZONE,6,29,20
India,TamilNadu,Coimbatore,"PSG College of Arts and Science, Coimbatore - TNPCB",15-02-2024 15:00:00,11.0328,77.0349,NH3,1,1,1
India,TamilNadu,Coimbatore,"PSG College of Arts and Science, Coimbatore - TNPCB",15-02-2024 15:00:00,11.0328,77.0349,CO,76,78,77
India,TamilNadu,Coimbatore,"PSG College of Arts and Science, Coimbatore - TNPCB",15-02-2024 15:00:00,11.0328,77.0349,OZONE,3,5,4
India,TamilNadu,Cuddalore,"Kudikadu, Cuddalore - TNPCB",15-02-2024 15:00:00,11.6829898,79.7532099,NO2,14,30,18
India,TamilNadu,Gummidipoondi,"Anthoni Pillai Nagar, Gummidipoondi - TNPCB",15-02-2024 15:00:00,13.4127,80.1081,NO2,8,14,11
India,TamilNadu,Ooty,"Bombay Castel, Ooty - TNPCB",15-02-2024 15:00:00,11.4068288,76.7138973,PM2.5,NA,NA,NA
India,TamilNadu,Ramanathapuram,"Chalai Bazaar, Ramanathapuram - TNPCB",15-02-2024 15:00:00,9.36399,78.831977,PM10,32,82,60
India,TamilNadu,Ramanathapuram,"Chalai Bazaar, Ramanathapuram - TNPCB",15-02-2024 15:00:00,9.36399,78.831977,SO2,3,19,7
India,TamilNadu,Ramanathapuram,"Chalai Bazaar, Ramanathapuram - TNPCB",15-02-2024 15:00:00,9.36399,78.831977,CO,4,14,11
India,TamilNadu,Ramanathapuram,"Chalai Bazaar, Ramanathapuram - TNPCB",15-02-2024 15:00:00,9.36399,78.831977,OZONE,13,14,13
India,TamilNadu,Salem,"Sona College of Technology, Salem - TNPCB",15-02-2024 15:00:00,11.679111,78.125052,PM2.5,NA,NA,NA
India,TamilNadu,Salem,"Sona College of Technology, Salem - TNPCB",15-02-2024 15:00:00,11.679111,78.125052,PM10,NA,NA,NA
India,TamilNadu,Thoothukudi,"Meelavittan, Thoothukudi - TNPCB",15-02-2024 15:00:00,8.816428 ,78.099039,SO2,7,20,11
India,TamilNadu,Thoothukudi,"Meelavittan, Thoothukudi - TNPCB",15-02-2024 15:00:00,8.816428 ,78.099039,OZONE,4,74,20
India,TamilNadu,Tirupur,"Kumaran College, Tirupur - TNPCB",15-02-2024 15:00:00,11.0973603,77.3228673,SO2,16,18,18
India,TamilNadu,Tirupur,"Kumaran College, Tirupur - TNPCB",15-02-2024 15:00:00,11.0973603,77.3228673,CO,27,108,43
India,TamilNadu,Vellore,"Vasanthapuram, Vellore - TNPCB",15-02-2024 15:00:00,12.909494,79.131861,PM10,NA,NA,NA
India,Telangana,Hyderabad,"Bollaram Industrial Area, Hyderabad - TSPCB",15-02-2024 15:00:00,17.540891,78.358528,PM2.5,25,59,43
India,Telangana,Hyderabad,"ECIL Kapra, Hyderabad - TSPCB",15-02-2024 15:00:00,17.470431,78.566959,SO2,2,18,9
India,Telangana,Hyderabad,"ECIL Kapra, Hyderabad - TSPCB",15-02-2024 15:00:00,17.470431,78.566959,OZONE,6,71,43
India,Telangana,Hyderabad,"ICRISAT Patancheru, Hyderabad - TSPCB",15-02-2024 15:00:00,17.518400,78.278777,SO2,12,20,16
India,Telangana,Hyderabad,"Kompally Municipal Office, Hyderabad - TSPCB",15-02-2024 15:00:00,17.544899,78.486949,NH3,6,7,6
India,Telangana,Hyderabad,"Kompally Municipal Office, Hyderabad - TSPCB",15-02-2024 15:00:00,17.544899,78.486949,CO,5,38,8
India,Telangana,Hyderabad,"Nacharam_TSIIC IALA, Hyderabad - TSPCB",15-02-2024 15:00:00,17.429398,78.569354,CO,30,34,32
India,Telangana,Hyderabad,"New Malakpet, Hyderabad - TSPCB",15-02-2024 15:00:00,17.37206,78.50864,NO2,16,28,22
India,Telangana,Hyderabad,"New Malakpet, Hyderabad - TSPCB",15-02-2024 15:00:00,17.37206,78.50864,CO,9,35,22
India,Telangana,Hyderabad,"New Malakpet, Hyderabad - TSPCB",15-02-2024 15:00:00,17.37206,78.50864,OZONE,1,21,11
India,Telangana,Hyderabad,"Ramachandrapuram, Hyderabad - TSPCB",15-02-2024 15:00:00,17.528544,78.286195,CO,8,34,16
India,Telangana,Hyderabad,"Sanathnagar, Hyderabad - TSPCB",15-02-2024 15:00:00,17.4559458,78.4332152,NO2,NA,NA,NA
India,Telangana,Hyderabad,"Sanathnagar, Hyderabad - TSPCB",15-02-2024 15:00:00,17.4559458,78.4332152,CO,34,42,38
India,Telangana,Hyderabad,"Somajiguda, Hyderabad - TSPCB",15-02-2024 15:00:00,17.417094,78.457437,NO2,18,27,21
India,Telangana,Hyderabad,"Somajiguda, Hyderabad - TSPCB",15-02-2024 15:00:00,17.417094,78.457437,CO,8,26,15
India,Telangana,Hyderabad,"Zoo Park, Hyderabad - TSPCB",15-02-2024 15:00:00,17.349694,78.451437,SO2,2,7,4
India,Tripura,Agartala,"Bardowali, Agartala - Tripura SPCB",15-02-2024 15:00:00,23.8175497,91.2726974,PM10,136,401,234
India,Uttar_Pradesh,Agra,"Manoharpur, Agra - UPPCB",15-02-2024 15:00:00,27.23711,78.01936,NO2,17,17,17
India,Uttar_Pradesh,Agra,"Rohta, Agra - UPPCB",15-02-2024 15:00:00,27.106972,78.000111,PM10,8,146,89
India,Uttar_Pradesh,Agra,"Rohta, Agra - UPPCB",15-02-2024 15:00:00,27.106972,78.000111,NO2,NA,NA,NA
India,Uttar_Pradesh,Agra,"Rohta, Agra - UPPCB",15-02-2024 15:00:00,27.106972,78.000111,OZONE,21,22,22
India,Uttar_Pradesh,Agra,"Sector-3B Avas Vikas Colony, Agra - UPPCB",15-02-2024 15:00:00,27.19412,77.96237,NH3,3,6,4
India,Uttar_Pradesh,Agra,"Shahjahan Garden, Agra - UPPCB",15-02-2024 15:00:00,27.169338,78.03582,PM2.5,57,96,82
India,Uttar_Pradesh,Agra,"Shahjahan Garden, Agra - UPPCB",15-02-2024 15:00:00,27.169338,78.03582,NO2,28,29,29
India,Uttar_Pradesh,Agra,"Shastripuram, Agra - UPPCB",15-02-2024 15:00:00,27.19862,77.92066,NO2,21,143,35
India,Uttar_Pradesh,Agra,"Shastripuram, Agra - UPPCB",15-02-2024 15:00:00,27.19862,77.92066,CO,16,30,19
India,Uttar_Pradesh,Baghpat,"Sardar Patel Inter College, Baghpat - UPPCB",15-02-2024 15:00:00,28.964949,77.278761,PM2.5,125,264,178
India,Uttar_Pradesh,Bareilly,"Civil Lines, Bareilly - UPPCB",15-02-2024 15:00:00,28.359581,79.414455,SO2,40,41,41
India,Uttar_Pradesh,Bareilly,"Civil Lines, Bareilly - UPPCB",15-02-2024 15:00:00,28.359581,79.414455,CO,16,49,43
India,Uttar_Pradesh,Bareilly,"Rajendra Nagar, Bareilly - UPPCB",15-02-2024 15:00:00,28.38910936,79.42963708,NO2,32,90,61
India,Uttar_Pradesh,Bareilly,"Rajendra Nagar, Bareilly - UPPCB",15-02-2024 15:00:00,28.38910936,79.42963708,NH3,1,1,1
India,Uttar_Pradesh,Bareilly,"Rajendra Nagar, Bareilly - UPPCB",15-02-2024 15:00:00,28.38910936,79.42963708,CO,14,74,48
India,Uttar_Pradesh,Bulandshahr,"Yamunapuram, Bulandshahr - UPPCB",15-02-2024 15:00:00,28.406963,77.849831,PM2.5,103,307,207
India,Uttar_Pradesh,Firozabad,"Nagla Bhau, Firozabad - UPPCB",15-02-2024 15:00:00,27.168897,78.376960,PM10,46,98,74
India,Uttar_Pradesh,Firozabad,"Nagla Bhau, Firozabad - UPPCB",15-02-2024 15:00:00,27.168897,78.376960,NH3,2,2,2
India,Uttar_Pradesh,Firozabad,"Nagla Bhau, Firozabad - UPPCB",15-02-2024 15:00:00,27.168897,78.376960,OZONE,19,42,27
India,Uttar_Pradesh,Firozabad,"Vibhab Nagar, Firozabad - UPPCB",15-02-2024 15:00:00,27.1594,78.3953,PM10,50,78,68
India,Uttar_Pradesh,Firozabad,"Vibhab Nagar, Firozabad - UPPCB",15-02-2024 15:00:00,27.1594,78.3953,NO2,11,14,14
India,Uttar_Pradesh,Firozabad,"Vibhab Nagar, Firozabad - UPPCB",15-02-2024 15:00:00,27.1594,78.3953,SO2,13,41,16
India,Uttar_Pradesh,Ghaziabad,"Indirapuram, Ghaziabad - UPPCB",15-02-2024 15:00:00,28.646233,77.358075,PM10,137,252,187
India,Uttar_Pradesh,Ghaziabad,"Indirapuram, Ghaziabad - UPPCB",15-02-2024 15:00:00,28.646233,77.358075,CO,14,88,31
India,Uttar_Pradesh,Ghaziabad,"Loni, Ghaziabad - UPPCB",15-02-2024 15:00:00,28.757294,77.278792,PM2.5,92,319,243
India,Uttar_Pradesh,Ghaziabad,"Sanjay Nagar, Ghaziabad - UPPCB",15-02-2024 15:00:00,28.685382,77.453839,PM10,129,268,165
India,Uttar_Pradesh,Ghaziabad,"Sanjay Nagar, Ghaziabad - UPPCB",15-02-2024 15:00:00,28.685382,77.453839,CO,3,88,25
India,Uttar_Pradesh,Ghaziabad,"Vasundhara, Ghaziabad - UPPCB",15-02-2024 15:00:00,28.6603346,77.3572563,OZONE,9,52,27
India,Uttar_Pradesh,Gorakhpur,"Madan Mohan Malaviya University of Technology, Gorakhpur - UPPCB",15-02-2024 15:00:00,26.730136,83.433859,NO2,2,2,2
India,Uttar_Pradesh,Gorakhpur,"Madan Mohan Malaviya University of Technology, Gorakhpur - UPPCB",15-02-2024 15:00:00,26.730136,83.433859,OZONE,2,33,13
India,Uttar_Pradesh,Greater Noida,"Knowledge Park - V, Greater Noida - UPPCB",15-02-2024 15:00:00,28.557054,77.453663,NO2,20,44,30
India,Uttar_Pradesh,Hapur,"Anand Vihar, Hapur - UPPCB",15-02-2024 15:00:00,28.725645,77.749675,NH3,6,10,8
India,Uttar_Pradesh,Hapur,"Anand Vihar, Hapur - UPPCB",15-02-2024 15:00:00,28.725645,77.749675,CO,38,80,53
India,Uttar_Pradesh,Jhansi,"Shivaji Nagar, Jhansi - UPPCB",15-02-2024 15:00:00,25.4547,78.6039,NH3,6,6,6
India,Uttar_Pradesh,Jhansi,"Shivaji Nagar, Jhansi - UPPCB",15-02-2024 15:00:00,25.4547,78.6039,SO2,11,12,11
India,Uttar_Pradesh,Jhansi,"Shivaji Nagar, Jhansi - UPPCB",15-02-2024 15:00:00,25.4547,78.6039,OZONE,1,38,7
India,Uttar_Pradesh,Kanpur,"FTI Kidwai Nagar, Kanpur - UPPCB",15-02-2024 15:00:00,26.428282,80.327067,PM2.5,37,261,144
India,Uttar_Pradesh,Kanpur,"NSI Kalyanpur, Kanpur - UPPCB",15-02-2024 15:00:00,26.509954,80.249612,NH3,2,3,2
India,Uttar_Pradesh,Kanpur,"Nehru Nagar, Kanpur - UPPCB",15-02-2024 15:00:00,26.4703136,80.3229863,PM2.5,88,345,253
India,Uttar_Pradesh,Kanpur,"Nehru Nagar, Kanpur - UPPCB",15-02-2024 15:00:00,26.4703136,80.3229863,CO,24,108,47
India,Uttar_Pradesh,Khurja,"Kalindi Kunj, Khurja - UPPCB",15-02-2024 15:00:00,28.2348927,77.8683002,NH3,1,2,2
India,Uttar_Pradesh,Khurja,"Kalindi Kunj, Khurja - UPPCB",15-02-2024 15:00:00,28.2348927,77.8683002,OZONE,17,33,23
India,Uttar_Pradesh,Lucknow,"B R Ambedkar University, Lucknow - UPPCB",15-02-2024 15:00:00,26.766433,80.927299,OZONE,2,68,31
India,Uttar_Pradesh,Lucknow,"Kendriya Vidyalaya, Lucknow - CPCB",15-02-2024 15:00:00,26.906111,80.948222,PM2.5,72,319,206
India,Uttar_Pradesh,Lucknow,"Kendriya Vidyalaya, Lucknow - CPCB",15-02-2024 15:00:00,26.906111,80.948222,OZONE,2,68,32
India,Uttar_Pradesh,Lucknow,"Kukrail Picnic Spot-1, Lucknow - UPPCB",15-02-2024 15:00:00,26.90723,80.98579,PM2.5,76,217,155
India,Uttar_Pradesh,Lucknow,"Kukrail Picnic Spot-1, Lucknow - UPPCB",15-02-2024 15:00:00,26.90723,80.98579,CO,29,49,43
India,Uttar_Pradesh,Lucknow,"Lalbagh, Lucknow - CPCB",15-02-2024 15:00:00,26.8458805,80.9365541,PM2.5,138,320,240
India,Uttar_Pradesh,Lucknow,"Talkatora District Industries Center, Lucknow - CPCB",15-02-2024 15:00:00,26.83399722,80.8917361,PM10,149,315,203
India,Uttar_Pradesh,Lucknow,"Talkatora District Industries Center, Lucknow - CPCB",15-02-2024 15:00:00,26.83399722,80.8917361,NO2,6,29,14
India,Uttar_Pradesh,Lucknow,"Talkatora District Industries Center, Lucknow - CPCB",15-02-2024 15:00:00,26.83399722,80.8917361,OZONE,2,80,34
India,Uttar_Pradesh,Meerut,"Ganga Nagar, Meerut - UPPCB",15-02-2024 15:00:00,28.999264,77.7590354,PM2.5,80,271,167
India,Uttar_Pradesh,Meerut,"Ganga Nagar, Meerut - UPPCB",15-02-2024 15:00:00,28.999264,77.7590354,PM10,110,188,143
India,Uttar_Pradesh,Meerut,"Pallavpuram Phase 2, Meerut - UPPCB",15-02-2024 15:00:00,29.063510,77.709723,OZONE,7,18,9
India,Uttar_Pradesh,Moradabad,"Buddhi Vihar, Moradabad - UPPCB",15-02-2024 15:00:00,28.83526,78.74460,NO2,18,24,23
India,Uttar_Pradesh,Moradabad,"Buddhi Vihar, Moradabad - UPPCB",15-02-2024 15:00:00,28.83526,78.74460,NH3,2,2,2
India,Uttar_Pradesh,Moradabad,"Eco Herbal Park, Moradabad - UPPCB",15-02-2024 15:00:00,28.840739,78.697531,PM2.5,64,218,151
India,Uttar_Pradesh,Moradabad,"Eco Herbal Park, Moradabad - UPPCB",15-02-2024 15:00:00,28.840739,78.697531,PM10,66,140,110
India,Uttar_Pradesh,Moradabad,"Eco Herbal Park, Moradabad - UPPCB",15-02-2024 15:00:00,28.840739,78.697531,NO2,23,84,44
India,Uttar_Pradesh,Moradabad,"Eco Herbal Park, Moradabad - UPPCB",15-02-2024 15:00:00,28.840739,78.697531,SO2,1,37,17
India,Uttar_Pradesh,Moradabad,"Employment Office, Moradabad - UPPCB",15-02-2024 15:00:00,28.88528,78.73880,PM10,59,193,144
India,Uttar_Pradesh,Moradabad,"Employment Office, Moradabad - UPPCB",15-02-2024 15:00:00,28.88528,78.73880,NO2,10,20,20
India,Uttar_Pradesh,Moradabad,"Employment Office, Moradabad - UPPCB",15-02-2024 15:00:00,28.88528,78.73880,OZONE,12,29,16
India,Uttar_Pradesh,Moradabad,"Jigar Colony, Moradabad - UPPCB",15-02-2024 15:00:00,28.856664,78.772638,NH3,5,5,5
India,Uttar_Pradesh,Moradabad,"Jigar Colony, Moradabad - UPPCB",15-02-2024 15:00:00,28.856664,78.772638,CO,32,57,48
India,Uttar_Pradesh,Moradabad,"Kashiram Nagar, Moradabad - UPPCB",15-02-2024 15:00:00,28.849399,78.742362,NH3,3,4,4
India,Uttar_Pradesh,Moradabad,"Kashiram Nagar, Moradabad - UPPCB",15-02-2024 15:00:00,28.849399,78.742362,OZONE,15,64,25
India,Uttar_Pradesh,Moradabad,"Transport Nagar, Moradabad - UPPCB",15-02-2024 15:00:00,28.802625,78.753728,NH3,6,6,6
India,Uttar_Pradesh,Muzaffarnagar,"New Mandi, Muzaffarnagar - UPPCB",15-02-2024 15:00:00,29.4723508,77.7194031,NO2,18,61,37
India,Uttar_Pradesh,Noida,"Sector - 125, Noida - UPPCB",15-02-2024 15:00:00,28.5447608,77.3231257,PM10,100,293,153
India,Uttar_Pradesh,Noida,"Sector - 62, Noida - IMD",15-02-2024 15:00:00,28.6245479,77.3577104,OZONE,4,39,21
India,Uttar_Pradesh,Noida,"Sector-1, Noida - UPPCB",15-02-2024 15:00:00,28.5898,77.3101,SO2,5,27,11
India,Uttar_Pradesh,Noida,"Sector-1, Noida - UPPCB",15-02-2024 15:00:00,28.5898,77.3101,OZONE,1,155,59
India,Uttar_Pradesh,Prayagraj,"Jhunsi, Prayagraj - UPPCB",15-02-2024 15:00:00,25.425602,81.917152,PM2.5,30,57,44
India,Uttar_Pradesh,Prayagraj,"Motilal Nehru NIT, Prayagraj - UPPCB",15-02-2024 15:00:00,25.494,81.863,NO2,11,12,12
India,Uttar_Pradesh,Prayagraj,"Motilal Nehru NIT, Prayagraj - UPPCB",15-02-2024 15:00:00,25.494,81.863,SO2,21,23,22
India,Uttar_Pradesh,Prayagraj,"Nagar Nigam, Prayagraj - UPPCB",15-02-2024 15:00:00,25.44919916 ,81.82735986 ,PM10,67,119,83
India,Uttar_Pradesh,Prayagraj,"Nagar Nigam, Prayagraj - UPPCB",15-02-2024 15:00:00,25.44919916 ,81.82735986 ,SO2,12,65,39
India,Uttar_Pradesh,Varanasi,"Ardhali Bazar, Varanasi - UPPCB",15-02-2024 15:00:00,25.3505986,82.9083074,PM2.5,20,48,34
India,Uttar_Pradesh,Varanasi,"Bhelupur, Varanasi - UPPCB",15-02-2024 15:00:00,25.301778,82.996789,OZONE,2,18,10
India,Uttar_Pradesh,Varanasi,"Maldahiya, Varanasi - UPPCB",15-02-2024 15:00:00,25.32393,82.99687,SO2,NA,NA,NA
India,Uttar_Pradesh,Varanasi,"Maldahiya, Varanasi - UPPCB",15-02-2024 15:00:00,25.32393,82.99687,CO,7,88,7
India,Uttar_Pradesh,Vrindavan,"Omex Eternity, Vrindavan - UPPCB",15-02-2024 15:00:00,27.5714090,77.6557570,SO2,37,42,38
India,Uttar_Pradesh,Vrindavan,"Omex Eternity, Vrindavan - UPPCB",15-02-2024 15:00:00,27.5714090,77.6557570,OZONE,30,32,31
India,Uttarakhand,Dehradun,"Doon University, Dehradun - UKPCB",15-02-2024 15:00:00,30.269444,78.044167,NO2,1,9,3
India,Uttarakhand,Dehradun,"Doon University, Dehradun - UKPCB",15-02-2024 15:00:00,30.269444,78.044167,SO2,1,3,1
India,Uttarakhand,Kashipur,"Govt. Girls Inter College, Kashipur - UKPCB",15-02-2024 15:00:00,29.2124114,78.9611753,SO2,7,10,8
India,West_Bengal,Asansol,"Asansol Court Area, Asansol - WBPCB",15-02-2024 15:00:00,23.685297,86.945968,NH3,8,16,11
India,West_Bengal,Asansol,"Asansol Court Area, Asansol - WBPCB",15-02-2024 15:00:00,23.685297,86.945968,SO2,9,18,11
India,West_Bengal,Asansol,"Asansol Court Area, Asansol - WBPCB",15-02-2024 15:00:00,23.685297,86.945968,OZONE,9,33,19
India,West_Bengal,Durgapur,"Sidhu Kanhu Indoor Stadium, Durgapur - WBPCB",15-02-2024 15:00:00,23.5404352,87.2892225,PM2.5,88,185,129
India,West_Bengal,Durgapur,"Sidhu Kanhu Indoor Stadium, Durgapur - WBPCB",15-02-2024 15:00:00,23.5404352,87.2892225,PM10,100,149,124
India,West_Bengal,Durgapur,"Sidhu Kanhu Indoor Stadium, Durgapur - WBPCB",15-02-2024 15:00:00,23.5404352,87.2892225,NO2,26,41,33
India,West_Bengal,Haldia,"Priyambada Housing Estate, Haldia - WBPCB",15-02-2024 15:00:00,22.06047,88.109737,PM10,129,208,162
India,West_Bengal,Haldia,"Priyambada Housing Estate, Haldia - WBPCB",15-02-2024 15:00:00,22.06047,88.109737,NH3,4,5,4
India,West_Bengal,Howrah,"Belur Math, Howrah - WBPCB",15-02-2024 15:00:00,22.629801,88.352017,CO,4,64,17
India,West_Bengal,Howrah,"Belur Math, Howrah - WBPCB",15-02-2024 15:00:00,22.629801,88.352017,OZONE,9,77,43
India,West_Bengal,Howrah,"Padmapukur, Howrah - WBPCB",15-02-2024 15:00:00,22.5687319,88.2797276,PM2.5,55,236,167
India,West_Bengal,Kolkata,"Ballygunge, Kolkata - WBPCB",15-02-2024 15:00:00,22.5367507,88.3638022,NO2,32,113,80
India,West_Bengal,Kolkata,"Ballygunge, Kolkata - WBPCB",15-02-2024 15:00:00,22.5367507,88.3638022,NH3,9,18,12
India,West_Bengal,Kolkata,"Fort William, Kolkata - WBPCB",15-02-2024 15:00:00,22.556640,88.342674,SO2,8,64,19
India,West_Bengal,Kolkata,"Fort William, Kolkata - WBPCB",15-02-2024 15:00:00,22.556640,88.342674,CO,24,103,52
India,West_Bengal,Kolkata,"Rabindra Sarobar, Kolkata - WBPCB",15-02-2024 15:00:00,22.51106,88.35142,PM10,82,142,115
India,West_Bengal,Kolkata,"Rabindra Sarobar, Kolkata - WBPCB",15-02-2024 15:00:00,22.51106,88.35142,NO2,28,135,87
India,West_Bengal,Kolkata,"Victoria, Kolkata - WBPCB",15-02-2024 15:00:00,22.5448082,88.3403691,NH3,3,20,9
India,West_Bengal,Kolkata,"Victoria, Kolkata - WBPCB",15-02-2024 15:00:00,22.5448082,88.3403691,SO2,8,32,14
India,West_Bengal,Siliguri,"Ward-32 Bapupara, Siliguri - WBPCB",15-02-2024 15:00:00,26.6879226,88.4152495,NO2,33,135,69
India,West_Bengal,Siliguri,"Ward-32 Bapupara, Siliguri - WBPCB",15-02-2024 15:00:00,26.6879226,88.4152495,OZONE,9,82,44
India,Andhra_Pradesh,Amaravati,"Secretariat, Amaravati - APPCB",15-02-2024 15:00:00,16.5150833,80.5181667,SO2,12,20,16
India,Andhra_Pradesh,Anantapur,"Gulzarpet, Anantapur - APPCB",15-02-2024 15:00:00,14.675886,77.593027,SO2,1,14,7
India,Andhra_Pradesh,Kadapa,"Yerramukkapalli, Kadapa - APPCB",15-02-2024 15:00:00,14.465052,78.824187,PM2.5,NA,NA,NA
India,Andhra_Pradesh,Tirupati,"Vaikuntapuram, Tirupati - APPCB",15-02-2024 15:00:00,13.615387,79.409230,SO2,NA,NA,NA
India,Andhra_Pradesh,Tirupati,"Vaikuntapuram, Tirupati - APPCB",15-02-2024 15:00:00,13.615387,79.409230,CO,10,14,12
India,Andhra_Pradesh,Vijayawada,"Kanuru, Vijayawada - APPCB",15-02-2024 15:00:00,16.486692,80.699436,PM2.5,NA,NA,NA
India,Andhra_Pradesh,Vijayawada,"Kanuru, Vijayawada - APPCB",15-02-2024 15:00:00,16.486692,80.699436,PM10,NA,NA,NA
India,Andhra_Pradesh,Vijayawada,"Rajiv Gandhi Park, Vijayawada - APPCB",15-02-2024 15:00:00,16.509717,80.612222,PM2.5,44,93,68
India,Andhra_Pradesh,Vijayawada,"Rajiv Gandhi Park, Vijayawada - APPCB",15-02-2024 15:00:00,16.509717,80.612222,PM10,43,94,67
India,Andhra_Pradesh,Visakhapatnam,"GVM Corporation, Visakhapatnam - APPCB",15-02-2024 15:00:00,17.72,83.3,NO2,11,73,42
India,Arunachal_Pradesh,Naharlagun,"Naharlagun, Naharlagun - APSPCB",15-02-2024 15:00:00,27.103358,93.679645,NO2,NA,NA,NA
India,Arunachal_Pradesh,Naharlagun,"Naharlagun, Naharlagun - APSPCB",15-02-2024 15:00:00,27.103358,93.679645,CO,26,30,28
India,Assam,Byrnihat,"Central Academy for SFS, Byrnihat - PCBA",15-02-2024 15:00:00,26.071318,91.87488,PM2.5,117,407,317
India,Assam,Guwahati,"IITG, Guwahati - PCBA",15-02-2024 15:00:00,26.2028636,91.70046436,PM2.5,109,335,234
India,Assam,Guwahati,"LGBI Airport, Guwahati - PCBA",15-02-2024 15:00:00,26.10887,91.589544,NH3,1,10,3
India,Assam,Guwahati,"Pan Bazaar, Guwahati - PCBA",15-02-2024 15:00:00,26.187500,91.744194,NO2,3,18,10
India,Assam,Guwahati,"Pan Bazaar, Guwahati - PCBA",15-02-2024 15:00:00,26.187500,91.744194,SO2,63,98,76
India,Assam,Guwahati,"Railway Colony, Guwahati - PCBA",15-02-2024 15:00:00,26.181742,91.78063,CO,28,112,47
India,Assam,Nalbari,"Bata Chowk, Nalbari - PCBA",15-02-2024 15:00:00,26.446912,91.439057,PM10,105,416,214
India,Assam,Silchar,"Tarapur, Silchar - PCBA",15-02-2024 15:00:00,24.82827,92.79525,CO,16,40,20
India,Assam,Sivasagar,"Girls College, Sivasagar - PCBA",15-02-2024 15:00:00,26.987634,94.636574,NO2,16,40,26
India,Assam,Sivasagar,"Girls College, Sivasagar - PCBA",15-02-2024 15:00:00,26.987634,94.636574,CO,10,44,22
India,Bihar,Araria,"Kharahiya Basti, Araria - BSPCB",15-02-2024 15:00:00,26.146529,87.454184,NH3,7,9,8
India,Bihar,Arrah,"New DM Office, Arrah - BSPCB",15-02-2024 15:00:00,25.5626095,84.663264,CO,1,50,10
India,Bihar,Aurangabad,"Gurdeo Nagar, Aurangabad - BSPCB",15-02-2024 15:00:00,24.75746,84.366208,PM10,NA,NA,NA
India,Bihar,Aurangabad,"Gurdeo Nagar, Aurangabad - BSPCB",15-02-2024 15:00:00,24.75746,84.366208,SO2,NA,NA,NA
India,Bihar,Bettiah,"Kamalnath Nagar, Bettiah - BSPCB",15-02-2024 15:00:00,26.80365,84.51954,OZONE,1,3,2
India,Bihar,Bhagalpur,"DM Office_Kachari Chowk, Bhagalpur - BSPCB",15-02-2024 15:00:00,25.251013,86.989001,NH3,4,9,6
India,Bihar,Bhagalpur,"DM Office_Kachari Chowk, Bhagalpur - BSPCB",15-02-2024 15:00:00,25.251013,86.989001,CO,24,90,40
India,Bihar,Bhagalpur,"Mayaganj, Bhagalpur - BSPCB",15-02-2024 15:00:00,25.265194,87.012947,PM10,31,151,85
India,Bihar,Bhagalpur,"Mayaganj, Bhagalpur - BSPCB",15-02-2024 15:00:00,25.265194,87.012947,OZONE,9,47,28
India,Bihar,Bihar Sharif,"D M Colony, Bihar Sharif - BSPCB",15-02-2024 15:00:00,25.204762,85.514960,NH3,2,2,2
India,Bihar,Bihar Sharif,"D M Colony, Bihar Sharif - BSPCB",15-02-2024 15:00:00,25.204762,85.514960,SO2,3,15,7
India,Bihar,Buxar,"Charitra Van, Buxar - BSPCB (Formerly known as Central Jail)",15-02-2024 15:00:00,25.567520,83.966379,NO2,1,106,25
India,Bihar,Buxar,"Charitra Van, Buxar - BSPCB (Formerly known as Central Jail)",15-02-2024 15:00:00,25.567520,83.966379,NH3,NA,NA,NA
India,Bihar,Buxar,"Charitra Van, Buxar - BSPCB (Formerly known as Central Jail)",15-02-2024 15:00:00,25.567520,83.966379,OZONE,4,80,53
India,Bihar,Gaya,"Collectorate, Gaya - BSPCB",15-02-2024 15:00:00,24.7955,84.9994,NO2,NA,NA,NA
India,Bihar,Gaya,"SFTI Kusdihra, Gaya - BSPCB",15-02-2024 15:00:00,24.762518,84.982348,NH3,2,22,6
India,Bihar,Hajipur,"Industrial Area, Hajipur - BSPCB",15-02-2024 15:00:00,25.697189,85.245900,NH3,12,15,14
India,Bihar,Hajipur,"Industrial Area, Hajipur - BSPCB",15-02-2024 15:00:00,25.697189,85.245900,SO2,7,8,8
India,Bihar,Katihar,"Mirchaibari, Katihar - BSPCB",15-02-2024 15:00:00,25.560083,87.553265,PM2.5,67,163,96
India,Bihar,Manguraha,"Forest Rest House, Manguraha - BSPCB",15-02-2024 15:00:00,27.308328,84.531742,NH3,2,3,2
India,Bihar,Motihari,"Gandak Colony, Motihari - BSPCB",15-02-2024 15:00:00,26.63086,84.90051,CO,42,82,57
India,Bihar,Munger,"Town Hall, Munger - BSPCB",15-02-2024 15:00:00,25.376776,86.471523,PM10,34,111,79
India,Bihar,Munger,"Town Hall, Munger - BSPCB",15-02-2024 15:00:00,25.376776,86.471523,NH3,1,2,2
India,Bihar,Munger,"Town Hall, Munger - BSPCB",15-02-2024 15:00:00,25.376776,86.471523,CO,4,48,33
India,Bihar,Muzaffarpur,"Buddha Colony, Muzaffarpur - BSPCB",15-02-2024 15:00:00,26.11442,85.39813,NO2,21,54,35
India,Bihar,Muzaffarpur,"MIT-Daudpur Kothi, Muzaffarpur - BSPCB",15-02-2024 15:00:00,26.1403345,85.3650192,PM10,60,170,117
India,Bihar,Muzaffarpur,"MIT-Daudpur Kothi, Muzaffarpur - BSPCB",15-02-2024 15:00:00,26.1403345,85.3650192,NO2,4,8,7
India,Bihar,Muzaffarpur,"MIT-Daudpur Kothi, Muzaffarpur - BSPCB",15-02-2024 15:00:00,26.1403345,85.3650192,NH3,13,20,16
India,Bihar,Muzaffarpur,"MIT-Daudpur Kothi, Muzaffarpur - BSPCB",15-02-2024 15:00:00,26.1403345,85.3650192,CO,16,90,50
India,Bihar,Muzaffarpur,"MIT-Daudpur Kothi, Muzaffarpur - BSPCB",15-02-2024 15:00:00,26.1403345,85.3650192,OZONE,5,43,26
India,Bihar,Muzaffarpur,"Muzaffarpur Collectorate, Muzaffarpur - BSPCB",15-02-2024 15:00:00,26.1209,85.3647,PM2.5,99,301,197
India,Bihar,Muzaffarpur,"Muzaffarpur Collectorate, Muzaffarpur - BSPCB",15-02-2024 15:00:00,26.1209,85.3647,SO2,4,12,7
India,Bihar,Muzaffarpur,"Muzaffarpur Collectorate, Muzaffarpur - BSPCB",15-02-2024 15:00:00,26.1209,85.3647,CO,12,90,40
India,Bihar,Patna,"DRM Office Danapur, Patna - BSPCB",15-02-2024 15:00:00,25.586562,85.043586,PM10,98,158,119
India,Bihar,Patna,"DRM Office Danapur, Patna - BSPCB",15-02-2024 15:00:00,25.586562,85.043586,OZONE,1,43,23
India,Bihar,Patna,"Govt. High School Shikarpur, Patna - BSPCB",15-02-2024 15:00:00,25.592539,85.227158,OZONE,8,55,30
India,Bihar,Patna,"Rajbansi Nagar, Patna - BSPCB",15-02-2024 15:00:00,25.599486,85.113666,NH3,2,4,3
India,Bihar,Patna,"Rajbansi Nagar, Patna - BSPCB",15-02-2024 15:00:00,25.599486,85.113666,SO2,11,19,16
India,Bihar,Patna,"Rajbansi Nagar, Patna - BSPCB",15-02-2024 15:00:00,25.599486,85.113666,OZONE,1,33,18
India,Bihar,Patna,"Samanpura, Patna - BSPCB",15-02-2024 15:00:00,25.596727,85.085624,PM2.5,184,343,253
India,Bihar,Patna,"Samanpura, Patna - BSPCB",15-02-2024 15:00:00,25.596727,85.085624,PM10,151,343,216
India,Bihar,Rajgir,"Dangi Tola, Rajgir - BSPCB",15-02-2024 15:00:00,25.03280,85.41948,PM10,NA,NA,NA
India,Bihar,Rajgir,"Dangi Tola, Rajgir - BSPCB",15-02-2024 15:00:00,25.03280,85.41948,NH3,1,2,1
India,Bihar,Saharsa,"Police Line, Saharsa - BSPCB",15-02-2024 15:00:00,25.892357,86.590325,SO2,NA,NA,NA
India,Bihar,Saharsa,"Police Line, Saharsa - BSPCB",15-02-2024 15:00:00,25.892357,86.590325,CO,8,32,16
India,Bihar,Samastipur,"DM Office_Kasipur, Samastipur - BSPCB",15-02-2024 15:00:00,25.859655,85.77944,PM2.5,NA,NA,NA
India,Bihar,Samastipur,"DM Office_Kasipur, Samastipur - BSPCB",15-02-2024 15:00:00,25.859655,85.77944,NH3,3,10,5
India,Bihar,Siwan,"Chitragupta Nagar, Siwan - BSPCB",15-02-2024 15:00:00,26.2271665,84.3570427,SO2,15,35,32
India,Chandigarh,Chandigarh,"Sector-25, Chandigarh - CPCC",15-02-2024 15:00:00,30.751462,76.762879,NH3,18,64,32
India,Chandigarh,Chandigarh,"Sector-53, Chandigarh - CPCC",15-02-2024 15:00:00,30.719859,76.738637,CO,37,100,62
India,Chhattisgarh,Bhilai,"32Bungalows, Bhilai - CECB",15-02-2024 15:00:00,21.194815,81.314770,PM2.5,24,62,40
India,Chhattisgarh,Bhilai,"32Bungalows, Bhilai - CECB",15-02-2024 15:00:00,21.194815,81.314770,PM10,28,71,55
India,Chhattisgarh,Bhilai,"Civic Center, Bhilai - Bhilai Steel Plant",15-02-2024 15:00:00,21.185571,81.343175,NH3,NA,NA,NA
India,Chhattisgarh,Bhilai,"Hathkhoj, Bhilai - CECB",15-02-2024 15:00:00,21.224231,81.408350,PM10,56,148,113
India,Chhattisgarh,Bhilai,"Hathkhoj, Bhilai - CECB",15-02-2024 15:00:00,21.224231,81.408350,NH3,6,8,7
India,Chhattisgarh,Bhilai,"Hathkhoj, Bhilai - CECB",15-02-2024 15:00:00,21.224231,81.408350,SO2,12,28,16
India,Chhattisgarh,Bilaspur,"Mangala, Bilaspur - NTPC",15-02-2024 15:00:00,22.08815,82.13737,SO2,1,36,18
India,Chhattisgarh,Chhal,"Nawapara SECL Colony, Chhal - CECB",15-02-2024 15:00:00,22.118125,83.140608,PM2.5,50,124,68
India,Chhattisgarh,Chhal,"Nawapara SECL Colony, Chhal - CECB",15-02-2024 15:00:00,22.118125,83.140608,PM10,40,176,78
India,Chhattisgarh,Chhal,"Nawapara SECL Colony, Chhal - CECB",15-02-2024 15:00:00,22.118125,83.140608,NH3,2,2,2
India,Chhattisgarh,Korba,"Urja Nagar, Korba - CECB",15-02-2024 15:00:00,22.348441,82.549611,CO,24,40,24
India,Chhattisgarh,Kunjemura,"OP Jindal School, Kunjemura - CECB",15-02-2024 15:00:00,22.126650,83.483212,PM2.5,40,74,56
India,Chhattisgarh,Milupara,"Govt. Higher Secondary School, Milupara - CECB",15-02-2024 15:00:00,22.1910172,83.5197009,NO2,NA,NA,NA
India,Chhattisgarh,Milupara,"Govt. Higher Secondary School, Milupara - CECB",15-02-2024 15:00:00,22.1910172,83.5197009,NH3,NA,NA,NA
India,Chhattisgarh,Raipur,"Krishak Nagar, Raipur - CECB",15-02-2024 15:00:00,21.237755,81.705301,CO,32,54,46
India,Chhattisgarh,Raipur,"Siltara Phase-II, Raipur - CECB",15-02-2024 15:00:00,21.371751,81.664929,OZONE,3,14,10
India,Chhattisgarh,Tumidih,"OP Jindal Industrial Park, Tumidih - CECB",15-02-2024 15:00:00,22.06631475,83.33820077,SO2,5,13,7
India,Chhattisgarh,Tumidih,"OP Jindal Industrial Park, Tumidih - CECB",15-02-2024 15:00:00,22.06631475,83.33820077,CO,20,64,31
India,Delhi,Delhi,"Alipur, Delhi - DPCC",15-02-2024 15:00:00,28.815329,77.153010,PM2.5,142,327,250
India,Delhi,Delhi,"Anand Vihar, Delhi - DPCC",15-02-2024 15:00:00,28.647622,77.3158090,PM2.5,72,392,301
India,Delhi,Delhi,"Anand Vihar, Delhi - DPCC",15-02-2024 15:00:00,28.647622,77.3158090,NO2,95,214,143
India,Delhi,Delhi,"Ashok Vihar, Delhi - DPCC",15-02-2024 15:00:00,28.695381,77.181665,NO2,29,136,83
India,Delhi,Delhi,"Ashok Vihar, Delhi - DPCC",15-02-2024 15:00:00,28.695381,77.181665,CO,19,104,36
India,Delhi,Delhi,"Aya Nagar, Delhi - IMD",15-02-2024 15:00:00,28.4706914,77.1099364,PM2.5,NA,NA,NA
India,Delhi,Delhi,"Bawana, Delhi - DPCC",15-02-2024 15:00:00,28.776200,77.051074,CO,26,64,46
India,Delhi,Delhi,"CRRI Mathura Road, Delhi - IMD",15-02-2024 15:00:00,28.5512005,77.2735737,CO,1,1,1
India,Delhi,Delhi,"Dr. Karni Singh Shooting Range, Delhi - DPCC",15-02-2024 15:00:00,28.498571,77.264840,PM2.5,169,356,306
India,Delhi,Delhi,"IHBAS, Dilshad Garden, Delhi - CPCB",15-02-2024 15:00:00,28.6811736,77.3025234,PM2.5,102,306,216
India,Delhi,Delhi,"IHBAS, Dilshad Garden, Delhi - CPCB",15-02-2024 15:00:00,28.6811736,77.3025234,OZONE,11,59,38
India,Delhi,Delhi,"ITO, Delhi - CPCB",15-02-2024 15:00:00,28.628624,77.241060,PM2.5,NA,NA,NA
India,Delhi,Delhi,"ITO, Delhi - CPCB",15-02-2024 15:00:00,28.628624,77.241060,NO2,3,107,46
India,Delhi,Delhi,"ITO, Delhi - CPCB",15-02-2024 15:00:00,28.628624,77.241060,NH3,1,5,2
India,Delhi,Delhi,"Jawaharlal Nehru Stadium, Delhi - DPCC",15-02-2024 15:00:00,28.580280,77.233829,PM10,123,276,181
India,Delhi,Delhi,"Jawaharlal Nehru Stadium, Delhi - DPCC",15-02-2024 15:00:00,28.580280,77.233829,NO2,47,153,92
India,Delhi,Delhi,"Lodhi Road, Delhi - IITM",15-02-2024 15:00:00,28.588333,77.221667,NO2,69,129,88
India,Delhi,Delhi,"Lodhi Road, Delhi - IITM",15-02-2024 15:00:00,28.588333,77.221667,CO,62,70,67
India,Delhi,Delhi,"Lodhi Road, Delhi - IMD",15-02-2024 15:00:00,28.5918245,77.2273074,PM2.5,146,310,233
India,Delhi,Delhi,"Lodhi Road, Delhi - IMD",15-02-2024 15:00:00,28.5918245,77.2273074,PM10,124,189,146
India,Delhi,Delhi,"Lodhi Road, Delhi - IMD",15-02-2024 15:00:00,28.5918245,77.2273074,NO2,6,32,17
India,Delhi,Delhi,"Mandir Marg, Delhi - DPCC",15-02-2024 15:00:00,28.636429,77.201067,SO2,6,10,8
India,Delhi,Delhi,"Mundka, Delhi - DPCC",15-02-2024 15:00:00,28.684678,77.076574,PM10,138,436,243
India,Delhi,Delhi,"Mundka, Delhi - DPCC",15-02-2024 15:00:00,28.684678,77.076574,SO2,1,28,8
India,Delhi,Delhi,"NSIT Dwarka, Delhi - CPCB",15-02-2024 15:00:00,28.60909,77.0325413,SO2,8,14,11
India,Delhi,Delhi,"Najafgarh, Delhi - DPCC",15-02-2024 15:00:00,28.570173,76.933762,NO2,12,53,27
India,Delhi,Delhi,"Najafgarh, Delhi - DPCC",15-02-2024 15:00:00,28.570173,76.933762,CO,13,38,29
India,Delhi,Delhi,"Najafgarh, Delhi - DPCC",15-02-2024 15:00:00,28.570173,76.933762,OZONE,6,157,61
India,Delhi,Delhi,"Nehru Nagar, Delhi - DPCC",15-02-2024 15:00:00,28.567890,77.250515,PM2.5,208,405,329
India,Delhi,Delhi,"Nehru Nagar, Delhi - DPCC",15-02-2024 15:00:00,28.567890,77.250515,NO2,17,36,25
India,Delhi,Delhi,"New Moti Bagh, Delhi - MHUA",15-02-2024 15:00:00,28.57834,77.18400,NO2,1,8,4
India,Delhi,Delhi,"New Moti Bagh, Delhi - MHUA",15-02-2024 15:00:00,28.57834,77.18400,CO,20,110,46
India,Delhi,Delhi,"North Campus, DU, Delhi - IMD",15-02-2024 15:00:00,28.6573814,77.1585447,PM2.5,NA,NA,NA
India,Delhi,Delhi,"North Campus, DU, Delhi - IMD",15-02-2024 15:00:00,28.6573814,77.1585447,NO2,NA,NA,NA
India,Delhi,Delhi,"Okhla Phase-2, Delhi - DPCC",15-02-2024 15:00:00,28.530785,77.271255,PM10,138,270,209
India,Delhi,Delhi,"Okhla Phase-2, Delhi - DPCC",15-02-2024 15:00:00,28.530785,77.271255,OZONE,9,123,55
India,Delhi,Delhi,"Patparganj, Delhi - DPCC",15-02-2024 15:00:00,28.623763,77.287209,PM2.5,120,333,255
India,Delhi,Delhi,"Patparganj, Delhi - DPCC",15-02-2024 15:00:00,28.623763,77.287209,SO2,6,14,11
India,Delhi,Delhi,"Pusa, Delhi - DPCC",15-02-2024 15:00:00,28.639652,77.146275,CO,6,116,48
India,Delhi,Delhi,"Pusa, Delhi - DPCC",15-02-2024 15:00:00,28.639652,77.146275,OZONE,16,65,39
India,Delhi,Delhi,"Pusa, Delhi - IMD",15-02-2024 15:00:00,28.636110,77.173332,PM2.5,NA,NA,NA
India,Delhi,Delhi,"R K Puram, Delhi - DPCC",15-02-2024 15:00:00,28.563262,77.186937,PM10,156,293,203
India,Delhi,Delhi,"R K Puram, Delhi - DPCC",15-02-2024 15:00:00,28.563262,77.186937,OZONE,9,143,66
India,Delhi,Delhi,"Rohini, Delhi - DPCC",15-02-2024 15:00:00,28.732528,77.119920,NH3,10,15,12
India,Delhi,Delhi,"Shadipur, Delhi - CPCB",15-02-2024 15:00:00,28.6514781,77.1473105,NO2,47,60,53
India,Delhi,Delhi,"Sonia Vihar, Delhi - DPCC",15-02-2024 15:00:00,28.710508,77.249485,PM2.5,223,359,312
India,Delhi,Delhi,"Sonia Vihar, Delhi - DPCC",15-02-2024 15:00:00,28.710508,77.249485,SO2,5,27,14
India,Delhi,Delhi,"Sonia Vihar, Delhi - DPCC",15-02-2024 15:00:00,28.710508,77.249485,CO,35,134,64
India,Delhi,Delhi,"Sri Aurobindo Marg, Delhi - DPCC",15-02-2024 15:00:00,28.531346,77.190156,PM2.5,190,342,287
India,Delhi,Delhi,"Sri Aurobindo Marg, Delhi - DPCC",15-02-2024 15:00:00,28.531346,77.190156,CO,14,73,34
India,Delhi,Delhi,"Vivek Vihar, Delhi - DPCC",15-02-2024 15:00:00,28.672342,77.315260,PM10,146,326,209
India,Delhi,Delhi,"Wazirpur, Delhi - DPCC",15-02-2024 15:00:00,28.699793,77.165453,PM10,176,420,292
India,Gujarat,Ahmedabad,"Chandkheda, Ahmedabad - IITM",15-02-2024 15:00:00,23.107969,72.574648,NO2,72,144,108
India,Gujarat,Ahmedabad,"Gyaspur, Ahmedabad - IITM",15-02-2024 15:00:00,22.977134,72.553024,NH3,4,4,4
India,Gujarat,Ahmedabad,"Gyaspur, Ahmedabad - IITM",15-02-2024 15:00:00,22.977134,72.553024,OZONE,20,20,20
India,Gujarat,Ahmedabad,"Maninagar, Ahmedabad - GPCB",15-02-2024 15:00:00,23.002657,72.591912,PM2.5,39,95,72
India,Gujarat,Ahmedabad,"Maninagar, Ahmedabad - GPCB",15-02-2024 15:00:00,23.002657,72.591912,SO2,28,51,36
India,Gujarat,Ahmedabad,"Rakhial, Ahmedabad - IITM",15-02-2024 15:00:00,23.016834,72.625775,PM2.5,78,207,128
India,Gujarat,Ahmedabad,"Rakhial, Ahmedabad - IITM",15-02-2024 15:00:00,23.016834,72.625775,OZONE,3,62,32
India,Gujarat,Ahmedabad,"SAC ISRO Bopal, Ahmedabad - IITM",15-02-2024 15:00:00,23.041137,72.456691,NH3,3,4,3
India,Gujarat,Ahmedabad,"SAC ISRO Satellite, Ahmedabad - IITM",15-02-2024 15:00:00,23.023389,72.515201,NO2,17,17,17
India,Gujarat,Ahmedabad,"SVPI Airport Hansol, Ahmedabad - IITM",15-02-2024 15:00:00,23.076793,72.627874,NO2,1,16,4
India,Gujarat,Ahmedabad,"SVPI Airport Hansol, Ahmedabad - IITM",15-02-2024 15:00:00,23.076793,72.627874,SO2,3,27,6
India,Gujarat,Ahmedabad,"SVPI Airport Hansol, Ahmedabad - IITM",15-02-2024 15:00:00,23.076793,72.627874,OZONE,8,31,19
India,Gujarat,Ahmedabad,"Sardar Vallabhbhai Patel Stadium, Ahmedabad - IITM",15-02-2024 15:00:00,23.043070,72.562968,CO,12,46,22
India,Gujarat,Ankleshwar,"GIDC, Ankleshwar - GPCB",15-02-2024 15:00:00,21.613267,73.010555,PM10,66,160,97
India,Gujarat,Ankleshwar,"GIDC, Ankleshwar - GPCB",15-02-2024 15:00:00,21.613267,73.010555,OZONE,21,38,29
India,Gujarat,Gandhinagar,"GIFT City, Gandhinagar - IITM",15-02-2024 15:00:00,23.163798,72.677768,NH3,6,6,6
India,Gujarat,Gandhinagar,"IIPHG Lekawada, Gandhinagar - IITM",15-02-2024 15:00:00,23.243639,72.68994,PM10,86,130,105
India,Gujarat,Gandhinagar,"Sector-10, Gandhinagar - GPCB",15-02-2024 15:00:00,23.221714,72.654328,PM10,48,125,85
India,Gujarat,Gandhinagar,"Sector-10, Gandhinagar - GPCB",15-02-2024 15:00:00,23.221714,72.654328,NH3,1,2,2
India,Haryana,Ambala,"Patti Mehar, Ambala - HSPCB",15-02-2024 15:00:00,30.379589,76.778328,PM10,64,131,108
India,Haryana,Ambala,"Patti Mehar, Ambala - HSPCB",15-02-2024 15:00:00,30.379589,76.778328,NO2,NA,NA,NA
India,Haryana,Bahadurgarh,"Arya Nagar, Bahadurgarh - HSPCB",15-02-2024 15:00:00,28.6701,76.9254,SO2,11,30,17
India,Haryana,Bahadurgarh,"Arya Nagar, Bahadurgarh - HSPCB",15-02-2024 15:00:00,28.6701,76.9254,OZONE,39,48,44
India,Haryana,Bhiwani,"H.B. Colony, Bhiwani - HSPCB",15-02-2024 15:00:00,28.806223,76.141105,NH3,6,6,6
India,Haryana,Charkhi Dadri,"Mini Secretariat, Charkhi Dadri - HSPCB",15-02-2024 15:00:00,28.593883,76.270653,NH3,5,7,6
India,Haryana,Charkhi Dadri,"Mini Secretariat, Charkhi Dadri - HSPCB",15-02-2024 15:00:00,28.593883,76.270653,CO,26,75,44
India,Haryana,Dharuhera,"Municipal Corporation Office, Dharuhera -  HSPCB",15-02-2024 15:00:00,28.206800,76.799700,PM2.5,91,313,226
India,Haryana,Dharuhera,"Municipal Corporation Office, Dharuhera -  HSPCB",15-02-2024 15:00:00,28.206800,76.799700,NO2,43,110,78
India,Haryana,Dharuhera,"Municipal Corporation Office, Dharuhera -  HSPCB",15-02-2024 15:00:00,28.206800,76.799700,CO,22,74,47
India,Haryana,Faridabad,"New Industrial Town, Faridabad - HSPCB",15-02-2024 15:00:00,28.39072,77.30059,PM10,165,266,208
India,Haryana,Faridabad,"New Industrial Town, Faridabad - HSPCB",15-02-2024 15:00:00,28.39072,77.30059,SO2,NA,NA,NA
India,Haryana,Faridabad,"New Industrial Town, Faridabad - HSPCB",15-02-2024 15:00:00,28.39072,77.30059,CO,12,38,23
India,Haryana,Faridabad,"Sector 11, Faridabad - HSPCB",15-02-2024 15:00:00,28.376058,77.315741,PM10,71,150,108
India,Haryana,Faridabad,"Sector 30, Faridabad - HSPCB",15-02-2024 15:00:00,28.4417,77.3217,PM10,113,124,117
India,Haryana,Faridabad,"Sector 30, Faridabad - HSPCB",15-02-2024 15:00:00,28.4417,77.3217,NO2,29,33,31
India,Haryana,Faridabad,"Sector- 16A, Faridabad - HSPCB",15-02-2024 15:00:00,28.4088421,77.3099081,SO2,3,29,17
India,Haryana,Fatehabad,"Huda Sector, Fatehabad - HSPCB",15-02-2024 15:00:00,29.503664,75.467934,PM10,62,313,124
India,Haryana,Fatehabad,"Huda Sector, Fatehabad - HSPCB",15-02-2024 15:00:00,29.503664,75.467934,SO2,2,25,7
India,Haryana,Fatehabad,"Huda Sector, Fatehabad - HSPCB",15-02-2024 15:00:00,29.503664,75.467934,CO,5,43,13
India,Haryana,Gurugram,"Sector-51, Gurugram - HSPCB",15-02-2024 15:00:00,28.4227,77.0667,PM2.5,94,335,297
India,Haryana,Gurugram,"Sector-51, Gurugram - HSPCB",15-02-2024 15:00:00,28.4227,77.0667,SO2,3,4,3
India,Haryana,Gurugram,"Sector-51, Gurugram - HSPCB",15-02-2024 15:00:00,28.4227,77.0667,OZONE,27,67,53
India,Haryana,Gurugram,"Teri Gram, Gurugram - HSPCB",15-02-2024 15:00:00,28.4275,77.1465,PM2.5,NA,NA,NA
India,Haryana,Gurugram,"Teri Gram, Gurugram - HSPCB",15-02-2024 15:00:00,28.4275,77.1465,NH3,NA,NA,NA
India,Haryana,Gurugram,"Vikas Sadan, Gurugram - HSPCB",15-02-2024 15:00:00,28.4501238,77.0263051,PM2.5,79,176,115
India,Haryana,Hisar,"Urban Estate-II, Hisar - HSPCB",15-02-2024 15:00:00,29.140560,75.744941,PM10,103,169,126
India,Haryana,Hisar,"Urban Estate-II, Hisar - HSPCB",15-02-2024 15:00:00,29.140560,75.744941,CO,40,185,55
India,Haryana,Hisar,"Urban Estate-II, Hisar - HSPCB",15-02-2024 15:00:00,29.140560,75.744941,OZONE,33,186,180
India,Haryana,Jind,"Police Lines, Jind - HSPCB",15-02-2024 15:00:00,29.307814,76.337619,NH3,2,5,4
India,Haryana,Jind,"Police Lines, Jind - HSPCB",15-02-2024 15:00:00,29.307814,76.337619,CO,3,109,36
India,Haryana,Kaithal,"Rishi Nagar, Kaithal - HSPCB",15-02-2024 15:00:00,29.8006,76.4155,CO,6,35,22
India,Haryana,Karnal,"Sector-12, Karnal - HSPCB",15-02-2024 15:00:00,29.695300,77.002700,NH3,10,13,11
India,Haryana,Karnal,"Sector-12, Karnal - HSPCB",15-02-2024 15:00:00,29.695300,77.002700,CO,32,56,48
India,Haryana,Karnal,"Sector-12, Karnal - HSPCB",15-02-2024 15:00:00,29.695300,77.002700,OZONE,31,36,33
India,Haryana,Kurukshetra,"Sector-7, Kurukshetra - HSPCB",15-02-2024 15:00:00,29.966942,76.875879,PM10,103,158,118
India,Haryana,Manesar,"Sector-2 IMT, Manesar - HSPCB",15-02-2024 15:00:00,28.360699,76.936090,PM10,98,150,116
India,Haryana,Manesar,"Sector-2 IMT, Manesar - HSPCB",15-02-2024 15:00:00,28.360699,76.936090,NO2,11,28,21
India,Haryana,Manesar,"Sector-2 IMT, Manesar - HSPCB",15-02-2024 15:00:00,28.360699,76.936090,CO,10,60,43
India,Haryana,Narnaul,"Shastri Nagar, Narnaul - HSPCB",15-02-2024 15:00:00,28.060249,76.113115,PM10,61,155,111
India,Haryana,Narnaul,"Shastri Nagar, Narnaul - HSPCB",15-02-2024 15:00:00,28.060249,76.113115,NO2,16,58,35
India,Haryana,Palwal,"Shyam Nagar, Palwal - HSPCB",15-02-2024 15:00:00,28.1485564,77.3320667,NO2,23,24,24
India,Haryana,Rohtak,"MD University, Rohtak - HSPCB",15-02-2024 15:00:00,28.52123,76.37138,NO2,45,55,51
India,Haryana,Rohtak,"MD University, Rohtak - HSPCB",15-02-2024 15:00:00,28.52123,76.37138,OZONE,43,55,49
India,Haryana,Sirsa,"F-Block, Sirsa - HSPCB",15-02-2024 15:00:00,29.536400,75.015800,PM10,51,114,92
India,Haryana,Sonipat,"Murthal, Sonipat - HSPCB",15-02-2024 15:00:00,29.027200,77.062100,NO2,37,44,40
India,Haryana,Sonipat,"Murthal, Sonipat - HSPCB",15-02-2024 15:00:00,29.027200,77.062100,NH3,7,10,9
India,Haryana,Yamuna Nagar,"Gobind Pura, Yamuna Nagar - HSPCB",15-02-2024 15:00:00,30.1480566,77.2893471,PM10,NA,NA,NA
India,Himachal Pradesh,Baddi,"HIMUDA Complex Phase-1, Baddi - HPPCB",15-02-2024 15:00:00,30.943887,76.801991,NH3,5,10,7
India,Himachal Pradesh,Baddi,"HIMUDA Complex Phase-1, Baddi - HPPCB",15-02-2024 15:00:00,30.943887,76.801991,SO2,13,115,60
India,Himachal Pradesh,Baddi,"HIMUDA Complex Phase-1, Baddi - HPPCB",15-02-2024 15:00:00,30.943887,76.801991,OZONE,11,134,68
India,Jharkhand,Dhanbad,"Kalakusuma, Dhanbad - DMC",15-02-2024 15:00:00,23.811548,86.481238,PM10,NA,NA,NA
India,Jharkhand,Dhanbad,"Kalakusuma, Dhanbad - DMC",15-02-2024 15:00:00,23.811548,86.481238,SO2,NA,NA,NA
India,Jharkhand,Dhanbad,"Sardar Patel Nagar, Dhanbad - JSPCB",15-02-2024 15:00:00,23.80569,86.44268,PM2.5,NA,NA,NA
India,Jharkhand,Dhanbad,"Sardar Patel Nagar, Dhanbad - JSPCB",15-02-2024 15:00:00,23.80569,86.44268,OZONE,4,19,12
India,Jharkhand,Pathardih,"Mohalbani Ghat, Pathardih - DMC",15-02-2024 15:00:00,23.669880,86.411725,PM2.5,NA,NA,NA
India,Jharkhand,Pathardih,"Mohalbani Ghat, Pathardih - DMC",15-02-2024 15:00:00,23.669880,86.411725,PM10,NA,NA,NA
India,Jharkhand,Pathardih,"Mohalbani Ghat, Pathardih - DMC",15-02-2024 15:00:00,23.669880,86.411725,NO2,29,303,167
India,Jharkhand,Pathardih,"Mohalbani Ghat, Pathardih - DMC",15-02-2024 15:00:00,23.669880,86.411725,SO2,18,22,20
