country,state,city,station,last_update,latitude,longitude,pollutant_id,pollutant_min,pollutant_max,pollutant_avg
India,Andhra_Pradesh,Kadapa,"Yerramukkapalli, Kadapa - APPCB",13-02-2024 21:00:00,14.465052,78.824187,NO2,NA,NA,NA
India,Andhra_Pradesh,Kadapa,"Yerramukkapalli, Kadapa - APPCB",13-02-2024 21:00:00,14.465052,78.824187,CO,19,56,51
India,Andhra_Pradesh,Rajamahendravaram,"Anand Kala Kshetram, Rajamahendravaram - APPCB",13-02-2024 21:00:00,16.9872867,81.7363176,CO,2,84,25
India,Andhra_Pradesh,Tirupati,"Tirumala, Tirupati - APPCB",13-02-2024 21:00:00,13.67,79.35,PM10,28,58,42
India,Andhra_Pradesh,Tirupati,"Tirumala, Tirupati - APPCB",13-02-2024 21:00:00,13.67,79.35,NH3,1,2,1
India,Andhra_Pradesh,Vijayawada,"HB Colony, Vijayawada - APPCB",13-02-2024 21:00:00,16.536107,80.594233,SO2,4,7,5
India,Andhra_Pradesh,Vijayawada,"Kanuru, Vijayawada - APPCB",13-02-2024 21:00:00,16.486692,80.699436,SO2,6,10,8
India,Andhra_Pradesh,Vijayawada,"Rajiv Gandhi Park, Vijayawada - APPCB",13-02-2024 21:00:00,16.509717,80.612222,NH3,3,7,6
India,Andhra_Pradesh,Vijayawada,"Rajiv Nagar, Vijayawada - APPCB",13-02-2024 21:00:00,16.554731,80.649110,NH3,1,2,1
India,Andhra_Pradesh,Visakhapatnam,"GVM Corporation, Visakhapatnam - APPCB",13-02-2024 21:00:00,17.72,83.3,PM10,74,111,95
India,Andhra_Pradesh,Visakhapatnam,"GVM Corporation, Visakhapatnam - APPCB",13-02-2024 21:00:00,17.72,83.3,SO2,7,17,12
India,Assam,Guwahati,"IITG, Guwahati - PCBA",13-02-2024 21:00:00,26.2028636,91.70046436,PM2.5,NA,NA,NA
India,Assam,Guwahati,"LGBI Airport, Guwahati - PCBA",13-02-2024 21:00:00,26.10887,91.589544,PM10,98,239,136
India,Assam,Guwahati,"LGBI Airport, Guwahati - PCBA",13-02-2024 21:00:00,26.10887,91.589544,NH3,1,7,2
India,Assam,Guwahati,"LGBI Airport, Guwahati - PCBA",13-02-2024 21:00:00,26.10887,91.589544,SO2,11,13,12
India,Assam,Guwahati,"Pan Bazaar, Guwahati - PCBA",13-02-2024 21:00:00,26.187500,91.744194,NH3,4,6,5
India,Assam,Guwahati,"Pan Bazaar, Guwahati - PCBA",13-02-2024 21:00:00,26.187500,91.744194,CO,28,120,62
India,Assam,Guwahati,"Railway Colony, Guwahati - PCBA",13-02-2024 21:00:00,26.181742,91.78063,NO2,3,4,3
India,Assam,Guwahati,"Railway Colony, Guwahati - PCBA",13-02-2024 21:00:00,26.181742,91.78063,SO2,17,38,24
India,Assam,Guwahati,"Railway Colony, Guwahati - PCBA",13-02-2024 21:00:00,26.181742,91.78063,CO,28,132,61
India,Assam,Guwahati,"Railway Colony, Guwahati - PCBA",13-02-2024 21:00:00,26.181742,91.78063,OZONE,5,43,25
India,Assam,Nagaon,"Christianpatty, Nagaon - PCBA",13-02-2024 21:00:00,26.349082,92.68449,SO2,1,57,13
India,Assam,Nalbari,"Bata Chowk, Nalbari - PCBA",13-02-2024 21:00:00,26.446912,91.439057,NH3,1,5,2
India,Assam,Silchar,"Tarapur, Silchar - PCBA",13-02-2024 21:00:00,24.82827,92.79525,PM10,43,47,44
India,Assam,Silchar,"Tarapur, Silchar - PCBA",13-02-2024 21:00:00,24.82827,92.79525,SO2,7,21,12
India,Assam,Sivasagar,"Girls College, Sivasagar - PCBA",13-02-2024 21:00:00,26.987634,94.636574,NH3,2,2,2
India,Bihar,Araria,"Kharahiya Basti, Araria - BSPCB",13-02-2024 21:00:00,26.146529,87.454184,PM2.5,66,488,308
India,Bihar,Aurangabad,"Gurdeo Nagar, Aurangabad - BSPCB",13-02-2024 21:00:00,24.75746,84.366208,NH3,7,12,9
India,Bihar,Bettiah,"Kamalnath Nagar, Bettiah - BSPCB",13-02-2024 21:00:00,26.80365,84.51954,PM10,58,145,101
India,Bihar,Bhagalpur,"DM Office_Kachari Chowk, Bhagalpur - BSPCB",13-02-2024 21:00:00,25.251013,86.989001,OZONE,40,90,70
India,Bihar,Bhagalpur,"Mayaganj, Bhagalpur - BSPCB",13-02-2024 21:00:00,25.265194,87.012947,PM2.5,318,400,356
India,Bihar,Bihar Sharif,"D M Colony, Bihar Sharif - BSPCB",13-02-2024 21:00:00,25.204762,85.514960,OZONE,3,24,11
India,Bihar,Buxar,"Charitra Van, Buxar - BSPCB (Formerly known as Central Jail)",13-02-2024 21:00:00,25.567520,83.966379,OZONE,6,127,82
India,Bihar,Chhapra,"Darshan Nagar, Chhapra - BSPCB",13-02-2024 21:00:00,25.7808257,84.7446768,PM10,130,439,218
India,Bihar,Chhapra,"Darshan Nagar, Chhapra - BSPCB",13-02-2024 21:00:00,25.7808257,84.7446768,NH3,10,18,13
India,Bihar,Chhapra,"Darshan Nagar, Chhapra - BSPCB",13-02-2024 21:00:00,25.7808257,84.7446768,SO2,NA,NA,NA
India,Bihar,Gaya,"Collectorate, Gaya - BSPCB",13-02-2024 21:00:00,24.7955,84.9994,CO,2,40,20
India,Bihar,Gaya,"Kareemganj, Gaya - BSPCB",13-02-2024 21:00:00,24.792403,84.992416,PM10,NA,NA,NA
India,Bihar,Gaya,"SFTI Kusdihra, Gaya - BSPCB",13-02-2024 21:00:00,24.762518,84.982348,NO2,NA,NA,NA
India,Bihar,Gaya,"SFTI Kusdihra, Gaya - BSPCB",13-02-2024 21:00:00,24.762518,84.982348,NH3,NA,NA,NA
India,Bihar,Katihar,"Mirchaibari, Katihar - BSPCB",13-02-2024 21:00:00,25.560083,87.553265,PM2.5,72,280,149
India,Bihar,Katihar,"Mirchaibari, Katihar - BSPCB",13-02-2024 21:00:00,25.560083,87.553265,NO2,15,37,22
India,Bihar,Katihar,"Mirchaibari, Katihar - BSPCB",13-02-2024 21:00:00,25.560083,87.553265,CO,6,104,104
India,Bihar,Kishanganj,"SDM Office_Khagra, Kishanganj - BSPCB",13-02-2024 21:00:00,26.0881305,87.93840336,NO2,33,45,39
India,Bihar,Kishanganj,"SDM Office_Khagra, Kishanganj - BSPCB",13-02-2024 21:00:00,26.0881305,87.93840336,NH3,12,19,16
India,Bihar,Manguraha,"Forest Rest House, Manguraha - BSPCB",13-02-2024 21:00:00,27.308328,84.531742,SO2,1,4,2
India,Bihar,Motihari,"Gandak Colony, Motihari - BSPCB",13-02-2024 21:00:00,26.63086,84.90051,NO2,42,82,56
India,Bihar,Motihari,"Gandak Colony, Motihari - BSPCB",13-02-2024 21:00:00,26.63086,84.90051,NH3,7,13,9
India,Bihar,Motihari,"Gandak Colony, Motihari - BSPCB",13-02-2024 21:00:00,26.63086,84.90051,CO,40,80,48
India,Bihar,Munger,"Town Hall, Munger - BSPCB",13-02-2024 21:00:00,25.376776,86.471523,OZONE,7,14,10
India,Bihar,Muzaffarpur,"Buddha Colony, Muzaffarpur - BSPCB",13-02-2024 21:00:00,26.11442,85.39813,CO,42,142,62
India,Bihar,Patna,"DRM Office Danapur, Patna - BSPCB",13-02-2024 21:00:00,25.586562,85.043586,OZONE,1,53,33
India,Bihar,Patna,"Govt. High School Shikarpur, Patna - BSPCB",13-02-2024 21:00:00,25.592539,85.227158,NO2,27,43,33
India,Bihar,Patna,"Govt. High School Shikarpur, Patna - BSPCB",13-02-2024 21:00:00,25.592539,85.227158,CO,57,114,84
India,Bihar,Patna,"IGSC Planetarium Complex, Patna - BSPCB",13-02-2024 21:00:00,25.610369,85.132568,CO,14,17,14
India,Bihar,Patna,"Muradpur, Patna - BSPCB",13-02-2024 21:00:00,25.619651,85.147382,SO2,9,25,15
India,Bihar,Patna,"Muradpur, Patna - BSPCB",13-02-2024 21:00:00,25.619651,85.147382,OZONE,24,69,44
India,Bihar,Patna,"Rajbansi Nagar, Patna - BSPCB",13-02-2024 21:00:00,25.599486,85.113666,NO2,34,61,47
India,Bihar,Patna,"Rajbansi Nagar, Patna - BSPCB",13-02-2024 21:00:00,25.599486,85.113666,NH3,1,3,2
India,Bihar,Patna,"Samanpura, Patna - BSPCB",13-02-2024 21:00:00,25.596727,85.085624,PM10,203,500,316
India,Bihar,Patna,"Samanpura, Patna - BSPCB",13-02-2024 21:00:00,25.596727,85.085624,NO2,34,114,57
India,Bihar,Saharsa,"Police Line, Saharsa - BSPCB",13-02-2024 21:00:00,25.892357,86.590325,PM10,127,331,196
India,Bihar,Saharsa,"Police Line, Saharsa - BSPCB",13-02-2024 21:00:00,25.892357,86.590325,SO2,3,125,41
India,Bihar,Samastipur,"DM Office_Kasipur, Samastipur - BSPCB",13-02-2024 21:00:00,25.859655,85.77944,NH3,5,10,5
India,Bihar,Sasaram,"Dada Peer, Sasaram - BSPCB",13-02-2024 21:00:00,24.952822,84.002396,CO,32,87,56
India,Bihar,Siwan,"Chitragupta Nagar, Siwan - BSPCB",13-02-2024 21:00:00,26.2271665,84.3570427,CO,3,182,142
India,Bihar,Siwan,"Chitragupta Nagar, Siwan - BSPCB",13-02-2024 21:00:00,26.2271665,84.3570427,OZONE,2,46,30
India,Chhattisgarh,Bilaspur,"Mangala, Bilaspur - NTPC",13-02-2024 21:00:00,22.08815,82.13737,PM2.5,48,98,64
India,Chhattisgarh,Bilaspur,"Mangala, Bilaspur - NTPC",13-02-2024 21:00:00,22.08815,82.13737,PM10,38,104,59
India,Chhattisgarh,Bilaspur,"Mangala, Bilaspur - NTPC",13-02-2024 21:00:00,22.08815,82.13737,CO,34,52,39
India,Chhattisgarh,Chhal,"Nawapara SECL Colony, Chhal - CECB",13-02-2024 21:00:00,22.118125,83.140608,CO,48,104,98
India,Chhattisgarh,Korba,"Rampur, Korba - CECB",13-02-2024 21:00:00,22.368195,82.746431,NO2,23,39,33
India,Chhattisgarh,Korba,"Rampur, Korba - CECB",13-02-2024 21:00:00,22.368195,82.746431,NH3,2,4,3
India,Chhattisgarh,Kunjemura,"OP Jindal School, Kunjemura - CECB",13-02-2024 21:00:00,22.126650,83.483212,NO2,25,122,46
India,Chhattisgarh,Milupara,"Govt. Higher Secondary School, Milupara - CECB",13-02-2024 21:00:00,22.1910172,83.5197009,PM2.5,31,60,44
India,Chhattisgarh,Milupara,"Govt. Higher Secondary School, Milupara - CECB",13-02-2024 21:00:00,22.1910172,83.5197009,NO2,16,65,32
India,Chhattisgarh,Milupara,"Govt. Higher Secondary School, Milupara - CECB",13-02-2024 21:00:00,22.1910172,83.5197009,CO,28,53,43
India,Chhattisgarh,Milupara,"Govt. Higher Secondary School, Milupara - CECB",13-02-2024 21:00:00,22.1910172,83.5197009,OZONE,8,48,45
India,Chhattisgarh,Raipur,"AIIMS, Raipur - CECB",13-02-2024 21:00:00,21.258815,81.578979,NH3,4,4,4
India,Chhattisgarh,Raipur,"Bhatagaon New ISBT, Raipur - CECB",13-02-2024 21:00:00,21.219665,81.630094,PM10,NA,NA,NA
India,Chhattisgarh,Raipur,"Bhatagaon New ISBT, Raipur - CECB",13-02-2024 21:00:00,21.219665,81.630094,OZONE,NA,NA,NA
India,Chhattisgarh,Raipur,"Siltara Phase-II, Raipur - CECB",13-02-2024 21:00:00,21.371751,81.664929,SO2,6,18,9
India,Chhattisgarh,Tumidih,"OP Jindal Industrial Park, Tumidih - CECB",13-02-2024 21:00:00,22.06631475,83.33820077,PM2.5,24,53,40
India,Delhi,Delhi,"Alipur, Delhi - DPCC",13-02-2024 21:00:00,28.815329,77.153010,CO,52,102,62
India,Delhi,Delhi,"Anand Vihar, Delhi - DPCC",13-02-2024 21:00:00,28.647622,77.3158090,NH3,6,23,12
India,Delhi,Delhi,"Anand Vihar, Delhi - DPCC",13-02-2024 21:00:00,28.647622,77.3158090,SO2,16,41,27
India,Delhi,Delhi,"Aya Nagar, Delhi - IMD",13-02-2024 21:00:00,28.4706914,77.1099364,PM10,18,500,266
India,Delhi,Delhi,"Aya Nagar, Delhi - IMD",13-02-2024 21:00:00,28.4706914,77.1099364,CO,58,108,70
India,Delhi,Delhi,"Burari Crossing, Delhi - IMD",13-02-2024 21:00:00,28.7256504,77.2011573,NO2,NA,NA,NA
India,Delhi,Delhi,"CRRI Mathura Road, Delhi - IMD",13-02-2024 21:00:00,28.5512005,77.2735737,PM2.5,215,380,329
India,Delhi,Delhi,"CRRI Mathura Road, Delhi - IMD",13-02-2024 21:00:00,28.5512005,77.2735737,PM10,137,366,238
India,Delhi,Delhi,"DTU, Delhi - CPCB",13-02-2024 21:00:00,28.7500499,77.1112615,SO2,28,29,29
India,Delhi,Delhi,"DTU, Delhi - CPCB",13-02-2024 21:00:00,28.7500499,77.1112615,OZONE,26,29,28
India,Delhi,Delhi,"Dr. Karni Singh Shooting Range, Delhi - DPCC",13-02-2024 21:00:00,28.498571,77.264840,CO,43,118,66
India,Delhi,Delhi,"Dwarka-Sector 8, Delhi - DPCC ",13-02-2024 21:00:00,28.5710274,77.0719006,NH3,7,12,9
India,Delhi,Delhi,"ITO, Delhi - CPCB",13-02-2024 21:00:00,28.628624,77.241060,PM2.5,210,387,315
India,Delhi,Delhi,"ITO, Delhi - CPCB",13-02-2024 21:00:00,28.628624,77.241060,NO2,3,207,83
India,Delhi,Delhi,"ITO, Delhi - CPCB",13-02-2024 21:00:00,28.628624,77.241060,CO,44,137,80
India,Delhi,Delhi,"Jahangirpuri, Delhi - DPCC",13-02-2024 21:00:00,28.732820,77.170633,CO,60,126,89
India,Delhi,Delhi,"Jawaharlal Nehru Stadium, Delhi - DPCC",13-02-2024 21:00:00,28.580280,77.233829,PM2.5,160,382,335
India,Delhi,Delhi,"Lodhi Road, Delhi - IITM",13-02-2024 21:00:00,28.588333,77.221667,PM2.5,81,318,179
India,Delhi,Delhi,"Lodhi Road, Delhi - IMD",13-02-2024 21:00:00,28.5918245,77.2273074,CO,52,101,66
India,Delhi,Delhi,"Lodhi Road, Delhi - IMD",13-02-2024 21:00:00,28.5918245,77.2273074,OZONE,14,90,52
India,Delhi,Delhi,"Major Dhyan Chand National Stadium, Delhi - DPCC",13-02-2024 21:00:00,28.611281,77.237738,NO2,50,204,109
India,Delhi,Delhi,"Mundka, Delhi - DPCC",13-02-2024 21:00:00,28.684678,77.076574,OZONE,1,9,5
India,Delhi,Delhi,"NSIT Dwarka, Delhi - CPCB",13-02-2024 21:00:00,28.60909,77.0325413,SO2,10,20,14
India,Delhi,Delhi,"NSIT Dwarka, Delhi - CPCB",13-02-2024 21:00:00,28.60909,77.0325413,CO,21,79,34
India,Delhi,Delhi,"Najafgarh, Delhi - DPCC",13-02-2024 21:00:00,28.570173,76.933762,PM2.5,183,365,309
India,Delhi,Delhi,"North Campus, DU, Delhi - IMD",13-02-2024 21:00:00,28.6573814,77.1585447,CO,20,50,26
India,Delhi,Delhi,"North Campus, DU, Delhi - IMD",13-02-2024 21:00:00,28.6573814,77.1585447,OZONE,8,53,46
India,Delhi,Delhi,"Okhla Phase-2, Delhi - DPCC",13-02-2024 21:00:00,28.530785,77.271255,PM10,177,489,330
India,Delhi,Delhi,"Okhla Phase-2, Delhi - DPCC",13-02-2024 21:00:00,28.530785,77.271255,SO2,5,17,11
India,Delhi,Delhi,"Patparganj, Delhi - DPCC",13-02-2024 21:00:00,28.623763,77.287209,NH3,7,14,11
India,Delhi,Delhi,"Punjabi Bagh, Delhi - DPCC",13-02-2024 21:00:00,28.674045,77.131023,PM2.5,316,463,391
India,Delhi,Delhi,"Punjabi Bagh, Delhi - DPCC",13-02-2024 21:00:00,28.674045,77.131023,CO,6,116,53
India,Delhi,Delhi,"Punjabi Bagh, Delhi - DPCC",13-02-2024 21:00:00,28.674045,77.131023,OZONE,6,36,21
India,Delhi,Delhi,"Pusa, Delhi - DPCC",13-02-2024 21:00:00,28.639652,77.146275,PM2.5,322,454,371
India,Delhi,Delhi,"Pusa, Delhi - DPCC",13-02-2024 21:00:00,28.639652,77.146275,SO2,3,26,13
India,Delhi,Delhi,"Pusa, Delhi - DPCC",13-02-2024 21:00:00,28.639652,77.146275,OZONE,15,66,36
India,Delhi,Delhi,"R K Puram, Delhi - DPCC",13-02-2024 21:00:00,28.563262,77.186937,NO2,39,166,86
India,Delhi,Delhi,"R K Puram, Delhi - DPCC",13-02-2024 21:00:00,28.563262,77.186937,SO2,8,62,30
India,Delhi,Delhi,"R K Puram, Delhi - DPCC",13-02-2024 21:00:00,28.563262,77.186937,OZONE,7,119,61
India,Delhi,Delhi,"Rohini, Delhi - DPCC",13-02-2024 21:00:00,28.732528,77.119920,CO,38,118,66
India,Delhi,Delhi,"Sirifort, Delhi - CPCB",13-02-2024 21:00:00,28.5504249,77.2159377,OZONE,6,91,25
India,Delhi,Delhi,"Sonia Vihar, Delhi - DPCC",13-02-2024 21:00:00,28.710508,77.249485,SO2,5,19,10
India,Delhi,Delhi,"Sri Aurobindo Marg, Delhi - DPCC",13-02-2024 21:00:00,28.531346,77.190156,NH3,8,11,9
India,Delhi,Delhi,"Vivek Vihar, Delhi - DPCC",13-02-2024 21:00:00,28.672342,77.315260,PM10,195,481,333
India,Delhi,Delhi,"Vivek Vihar, Delhi - DPCC",13-02-2024 21:00:00,28.672342,77.315260,SO2,20,23,21
India,Delhi,Delhi,"Wazirpur, Delhi - DPCC",13-02-2024 21:00:00,28.699793,77.165453,PM10,290,466,406
India,Delhi,Delhi,"Wazirpur, Delhi - DPCC",13-02-2024 21:00:00,28.699793,77.165453,NO2,122,280,208
India,Gujarat,Ahmedabad,"Chandkheda, Ahmedabad - IITM",13-02-2024 21:00:00,23.107969,72.574648,PM10,32,226,96
India,Gujarat,Ahmedabad,"Chandkheda, Ahmedabad - IITM",13-02-2024 21:00:00,23.107969,72.574648,CO,2,54,20
India,Gujarat,Ahmedabad,"Gyaspur, Ahmedabad - IITM",13-02-2024 21:00:00,22.977134,72.553024,SO2,3,5,4
India,Gujarat,Ahmedabad,"Maninagar, Ahmedabad - GPCB",13-02-2024 21:00:00,23.002657,72.591912,PM10,61,108,83
India,Gujarat,Ahmedabad,"Maninagar, Ahmedabad - GPCB",13-02-2024 21:00:00,23.002657,72.591912,CO,20,43,28
India,Gujarat,Ahmedabad,"SAC ISRO Satellite, Ahmedabad - IITM",13-02-2024 21:00:00,23.023389,72.515201,NH3,3,3,3
India,Gujarat,Ankleshwar,"GIDC, Ankleshwar - GPCB",13-02-2024 21:00:00,21.613267,73.010555,OZONE,20,40,35
India,Gujarat,Gandhinagar,"GIFT City, Gandhinagar - IITM",13-02-2024 21:00:00,23.163798,72.677768,NO2,50,50,50
India,Gujarat,Gandhinagar,"GIFT City, Gandhinagar - IITM",13-02-2024 21:00:00,23.163798,72.677768,NH3,8,8,8
India,Gujarat,Gandhinagar,"IIPHG Lekawada, Gandhinagar - IITM",13-02-2024 21:00:00,23.243639,72.68994,PM10,84,136,106
India,Gujarat,Gandhinagar,"IIPHG Lekawada, Gandhinagar - IITM",13-02-2024 21:00:00,23.243639,72.68994,NH3,4,4,4
India,Gujarat,Gandhinagar,"Sector-10, Gandhinagar - GPCB",13-02-2024 21:00:00,23.221714,72.654328,PM2.5,35,51,43
India,Gujarat,Gandhinagar,"Sector-10, Gandhinagar - GPCB",13-02-2024 21:00:00,23.221714,72.654328,SO2,5,22,8
India,Gujarat,Gandhinagar,"Sector-10, Gandhinagar - GPCB",13-02-2024 21:00:00,23.221714,72.654328,CO,16,101,36
India,Gujarat,Gandhinagar,"Sector-10, Gandhinagar - GPCB",13-02-2024 21:00:00,23.221714,72.654328,OZONE,2,44,30
India,Gujarat,Surat,"Science Center, Surat - SMC",13-02-2024 21:00:00,21.170046,72.795405,SO2,18,24,20
India,Gujarat,Vapi,"Phase-1 GIDC, Vapi - GPCB",13-02-2024 21:00:00,20.362421,72.918013,PM10,102,450,203
India,Gujarat,Vatva,"Phase-4 GIDC, Vatva - GPCB",13-02-2024 21:00:00,22.969611,72.643500,PM2.5,58,242,101
India,Gujarat,Vatva,"Phase-4 GIDC, Vatva - GPCB",13-02-2024 21:00:00,22.969611,72.643500,OZONE,5,73,10
India,Haryana,Bahadurgarh,"Arya Nagar, Bahadurgarh - HSPCB",13-02-2024 21:00:00,28.6701,76.9254,OZONE,37,49,44
India,Haryana,Ballabgarh,"Nathu Colony, Ballabgarh - HSPCB",13-02-2024 21:00:00,28.3419248,77.319699,PM2.5,309,376,337
India,Haryana,Bhiwani,"H.B. Colony, Bhiwani - HSPCB",13-02-2024 21:00:00,28.806223,76.141105,PM10,119,156,130
India,Haryana,Bhiwani,"H.B. Colony, Bhiwani - HSPCB",13-02-2024 21:00:00,28.806223,76.141105,NO2,7,11,9
India,Haryana,Bhiwani,"H.B. Colony, Bhiwani - HSPCB",13-02-2024 21:00:00,28.806223,76.141105,NH3,5,6,6
India,Haryana,Dharuhera,"Municipal Corporation Office, Dharuhera -  HSPCB",13-02-2024 21:00:00,28.206800,76.799700,PM2.5,13,382,204
India,Haryana,Faridabad,"New Industrial Town, Faridabad - HSPCB",13-02-2024 21:00:00,28.39072,77.30059,PM2.5,257,464,366
India,Haryana,Faridabad,"New Industrial Town, Faridabad - HSPCB",13-02-2024 21:00:00,28.39072,77.30059,SO2,NA,NA,NA
India,Haryana,Faridabad,"Sector 11, Faridabad - HSPCB",13-02-2024 21:00:00,28.376058,77.315741,PM2.5,122,313,214
India,Haryana,Faridabad,"Sector 11, Faridabad - HSPCB",13-02-2024 21:00:00,28.376058,77.315741,CO,46,88,56
India,Haryana,Faridabad,"Sector 30, Faridabad - HSPCB",13-02-2024 21:00:00,28.4417,77.3217,OZONE,8,42,24
India,Haryana,Faridabad,"Sector- 16A, Faridabad - HSPCB",13-02-2024 21:00:00,28.4088421,77.3099081,SO2,16,27,23
India,Haryana,Fatehabad,"Huda Sector, Fatehabad - HSPCB",13-02-2024 21:00:00,29.503664,75.467934,PM2.5,97,322,214
India,Haryana,Fatehabad,"Huda Sector, Fatehabad - HSPCB",13-02-2024 21:00:00,29.503664,75.467934,NH3,8,9,9
India,Haryana,Gurugram,"Sector-51, Gurugram - HSPCB",13-02-2024 21:00:00,28.4227,77.0667,OZONE,27,67,56
India,Haryana,Gurugram,"Vikas Sadan, Gurugram - HSPCB",13-02-2024 21:00:00,28.4501238,77.0263051,SO2,18,35,27
India,Haryana,Gurugram,"Vikas Sadan, Gurugram - HSPCB",13-02-2024 21:00:00,28.4501238,77.0263051,OZONE,8,69,44
India,Haryana,Hisar,"Urban Estate-II, Hisar - HSPCB",13-02-2024 21:00:00,29.140560,75.744941,NO2,7,9,8
India,Haryana,Hisar,"Urban Estate-II, Hisar - HSPCB",13-02-2024 21:00:00,29.140560,75.744941,NH3,3,4,3
India,Haryana,Hisar,"Urban Estate-II, Hisar - HSPCB",13-02-2024 21:00:00,29.140560,75.744941,CO,40,134,63
India,Haryana,Jind,"Police Lines, Jind - HSPCB",13-02-2024 21:00:00,29.307814,76.337619,PM2.5,160,224,187
India,Haryana,Jind,"Police Lines, Jind - HSPCB",13-02-2024 21:00:00,29.307814,76.337619,NO2,8,17,12
India,Haryana,Kaithal,"Rishi Nagar, Kaithal - HSPCB",13-02-2024 21:00:00,29.8006,76.4155,NO2,23,26,25
India,Haryana,Mandikhera,"General Hospital, Mandikhera - HSPCB",13-02-2024 21:00:00,27.9002,76.9938,PM10,123,219,142
India,Haryana,Mandikhera,"General Hospital, Mandikhera - HSPCB",13-02-2024 21:00:00,27.9002,76.9938,NO2,15,20,18
India,Haryana,Rohtak,"MD University, Rohtak - HSPCB",13-02-2024 21:00:00,28.52123,76.37138,OZONE,44,55,49
India,Haryana,Sirsa,"F-Block, Sirsa - HSPCB",13-02-2024 21:00:00,29.536400,75.015800,SO2,19,35,28
India,Haryana,Sonipat,"Murthal, Sonipat - HSPCB",13-02-2024 21:00:00,29.027200,77.062100,NO2,37,44,40
India,Haryana,Sonipat,"Murthal, Sonipat - HSPCB",13-02-2024 21:00:00,29.027200,77.062100,SO2,12,29,20
India,Haryana,Yamuna Nagar,"Gobind Pura, Yamuna Nagar - HSPCB",13-02-2024 21:00:00,30.1480566,77.2893471,SO2,1,104,24
India,Haryana,Yamuna Nagar,"Gobind Pura, Yamuna Nagar - HSPCB",13-02-2024 21:00:00,30.1480566,77.2893471,OZONE,5,24,18
India,Himachal Pradesh,Baddi,"HIMUDA Complex Phase-1, Baddi - HPPCB",13-02-2024 21:00:00,30.943887,76.801991,PM2.5,NA,NA,NA
India,Himachal Pradesh,Baddi,"HIMUDA Complex Phase-1, Baddi - HPPCB",13-02-2024 21:00:00,30.943887,76.801991,SO2,15,129,71
India,Jharkhand,Dhanbad,"Kalakusuma, Dhanbad - DMC",13-02-2024 21:00:00,23.811548,86.481238,SO2,35,35,35
India,Jharkhand,Dhanbad,"Sardar Patel Nagar, Dhanbad - JSPCB",13-02-2024 21:00:00,23.80569,86.44268,PM2.5,NA,NA,NA
India,Jharkhand,Dhanbad,"Sardar Patel Nagar, Dhanbad - JSPCB",13-02-2024 21:00:00,23.80569,86.44268,SO2,NA,NA,NA
India,Jharkhand,Pathardih,"Mohalbani Ghat, Pathardih - DMC",13-02-2024 21:00:00,23.669880,86.411725,PM2.5,NA,NA,NA
India,Jharkhand,Pathardih,"Mohalbani Ghat, Pathardih - DMC",13-02-2024 21:00:00,23.669880,86.411725,PM10,NA,NA,NA
India,Jharkhand,Pathardih,"Mohalbani Ghat, Pathardih - DMC",13-02-2024 21:00:00,23.669880,86.411725,CO,170,170,170
India,Karnataka,Bagalkot,"Vidayagiri, Bagalkot - KSPCB",13-02-2024 21:00:00,16.172806,75.659694,PM10,42,47,45
India,Karnataka,Bagalkot,"Vidayagiri, Bagalkot - KSPCB",13-02-2024 21:00:00,16.172806,75.659694,NH3,1,2,1
India,Karnataka,Bengaluru,"BTM Layout, Bengaluru - CPCB",13-02-2024 21:00:00,12.9135218,77.5950804,PM2.5,26,53,38
India,Karnataka,Bengaluru,"BTM Layout, Bengaluru - CPCB",13-02-2024 21:00:00,12.9135218,77.5950804,SO2,13,13,13
India,Karnataka,Bengaluru,"BTM Layout, Bengaluru - CPCB",13-02-2024 21:00:00,12.9135218,77.5950804,OZONE,4,25,13
India,Karnataka,Bengaluru,"Bapuji Nagar, Bengaluru - KSPCB",13-02-2024 21:00:00,12.951913,77.539784,SO2,5,7,6
India,Karnataka,Bengaluru,"City Railway Station, Bengaluru - KSPCB",13-02-2024 21:00:00,12.9756843,77.5660749,PM10,60,86,72
India,Karnataka,Bengaluru,"Jigani, Bengaluru - KSPCB",13-02-2024 21:00:00,12.7816279,77.6299145,PM10,NA,NA,NA
India,Karnataka,Bengaluru,"Kasturi Nagar, Bengaluru - KSPCB",13-02-2024 21:00:00,13.003872,77.664217,SO2,10,10,10
India,Karnataka,Bengaluru,"Peenya, Bengaluru - CPCB",13-02-2024 21:00:00,13.0270199,77.494094,NO2,18,24,21
India,Karnataka,Bengaluru,"Shivapura_Peenya, Bengaluru - KSPCB",13-02-2024 21:00:00,13.0246342,77.5080115,PM2.5,8,127,52
India,Karnataka,Bengaluru,"Shivapura_Peenya, Bengaluru - KSPCB",13-02-2024 21:00:00,13.0246342,77.5080115,PM10,54,83,70
India,Karnataka,Bengaluru,"Shivapura_Peenya, Bengaluru - KSPCB",13-02-2024 21:00:00,13.0246342,77.5080115,NH3,4,4,4
India,Karnataka,Bengaluru,"Silk Board, Bengaluru - KSPCB",13-02-2024 21:00:00,12.917348,77.622813,PM10,62,111,82
India,Karnataka,Chikkamagaluru,"Kalyana Nagara, Chikkamagaluru - KSPCB",13-02-2024 21:00:00,13.328028,75.797056,PM2.5,18,64,36
India,Karnataka,Chikkamagaluru,"Kalyana Nagara, Chikkamagaluru - KSPCB",13-02-2024 21:00:00,13.328028,75.797056,NH3,3,4,4
India,Karnataka,Davanagere,"Devaraj Urs Badavane, Davanagere - KSPCB",13-02-2024 21:00:00,14.475800,75.905200,NO2,NA,NA,NA
India,Karnataka,Davanagere,"Devaraj Urs Badavane, Davanagere - KSPCB",13-02-2024 21:00:00,14.475800,75.905200,SO2,NA,NA,NA
India,Karnataka,Gadag,"Panchal Nagar, Gadag - KSPCB",13-02-2024 21:00:00,15.411456,75.638133,PM2.5,16,37,27
India,Karnataka,Gadag,"Panchal Nagar, Gadag - KSPCB",13-02-2024 21:00:00,15.411456,75.638133,PM10,20,42,29
India,Karnataka,Hassan,"B.Katihalli, Hassan - KSPCB",13-02-2024 21:00:00,13.008556,76.125258,PM10,17,104,72
India,Karnataka,Hassan,"B.Katihalli, Hassan - KSPCB",13-02-2024 21:00:00,13.008556,76.125258,NO2,7,8,8
India,Karnataka,Haveri,"Ashwini Nagar, Haveri - KSPCB",13-02-2024 21:00:00,14.791800,75.389600,CO,32,36,33
India,Karnataka,Hubballi,"Lingaraj Nagar, Hubballi - KSPCB",13-02-2024 21:00:00,15.3714823,75.1160168,PM2.5,18,49,36
India,Karnataka,Hubballi,"Lingaraj Nagar, Hubballi - KSPCB",13-02-2024 21:00:00,15.3714823,75.1160168,PM10,48,70,60
India,Karnataka,Kalaburagi,"Lal Bahadur Shastri Nagar, Kalaburagi - KSPCB",13-02-2024 21:00:00,17.321993,76.822628,NO2,11,12,12
India,Karnataka,Kalaburagi,"Lal Bahadur Shastri Nagar, Kalaburagi - KSPCB",13-02-2024 21:00:00,17.321993,76.822628,NH3,2,2,2
India,Karnataka,Koppal,"Diwator Nagar, Koppal - KSPCB",13-02-2024 21:00:00,15.347630,76.181767,NO2,3,21,11
India,Karnataka,Koppal,"Diwator Nagar, Koppal - KSPCB",13-02-2024 21:00:00,15.347630,76.181767,OZONE,1,46,33
India,Karnataka,Madikeri,"Stuart Hill, Madikeri - KSPCB",13-02-2024 21:00:00,12.415911,75.735050,PM2.5,17,52,36
India,Karnataka,Madikeri,"Stuart Hill, Madikeri - KSPCB",13-02-2024 21:00:00,12.415911,75.735050,SO2,4,4,4
India,Karnataka,Mangalore,"Kadri, Mangalore - KSPCB",13-02-2024 21:00:00,12.889250,74.853000,PM10,62,72,67
India,Karnataka,Mangalore,"Kadri, Mangalore - KSPCB",13-02-2024 21:00:00,12.889250,74.853000,NO2,6,7,6
India,Karnataka,Mysuru,"Hebbal 1st Stage, Mysuru - KSPCB",13-02-2024 21:00:00,12.21041,76.37376,SO2,2,10,4
India,Karnataka,Raichur,"Haji Colony, Raichur - KSPCB",13-02-2024 21:00:00,16.208139,77.348417,PM2.5,5,46,15
India,Karnataka,Raichur,"Haji Colony, Raichur - KSPCB",13-02-2024 21:00:00,16.208139,77.348417,NO2,13,41,24
India,Karnataka,Raichur,"Haji Colony, Raichur - KSPCB",13-02-2024 21:00:00,16.208139,77.348417,SO2,59,71,65
India,Karnataka,Ramanagara,"Vijay Nagar, Ramanagara - KSPCB",13-02-2024 21:00:00,12.733409,77.298051,PM2.5,21,73,44
India,Karnataka,Ramanagara,"Vijay Nagar, Ramanagara - KSPCB",13-02-2024 21:00:00,12.733409,77.298051,SO2,19,26,23
India,Karnataka,Shivamogga,"Vinoba Nagara, Shivamogga - KSPCB",13-02-2024 21:00:00,13.940000,75.555917,CO,13,44,25
India,Karnataka,Shivamogga,"Vinoba Nagara, Shivamogga - KSPCB",13-02-2024 21:00:00,13.940000,75.555917,OZONE,7,67,52
India,Karnataka,Udupi,"Brahmagiri, Udupi - KSPCB",13-02-2024 21:00:00,13.34194444,74.74694444,PM10,38,67,51
India,Karnataka,Yadgir,"Collector Office, Yadgir - KSPCB",13-02-2024 21:00:00,16.7602,77.1428,NO2,5,8,6
India,Karnataka,Yadgir,"Collector Office, Yadgir - KSPCB",13-02-2024 21:00:00,16.7602,77.1428,NH3,1,1,1
India,Kerala,Eloor,"Udyogamandal, Eloor - Kerala PCB",13-02-2024 21:00:00,10.073232,76.302765,NH3,1,1,1
India,Kerala,Eloor,"Udyogamandal, Eloor - Kerala PCB",13-02-2024 21:00:00,10.073232,76.302765,OZONE,10,21,16
India,Kerala,Kannur,"Thavakkara, Kannur - Kerala PCB",13-02-2024 21:00:00,11.875000,75.373200,PM2.5,44,51,47
India,Kerala,Kannur,"Thavakkara, Kannur - Kerala PCB",13-02-2024 21:00:00,11.875000,75.373200,PM10,58,68,63
India,Kerala,Kannur,"Thavakkara, Kannur - Kerala PCB",13-02-2024 21:00:00,11.875000,75.373200,NH3,1,1,1
India,Kerala,Kollam,"Polayathode, Kollam - Kerala PCB",13-02-2024 21:00:00,8.8787,76.6073,PM10,59,114,83
India,Kerala,Kollam,"Polayathode, Kollam - Kerala PCB",13-02-2024 21:00:00,8.8787,76.6073,NH3,1,1,1
India,Kerala,Kollam,"Polayathode, Kollam - Kerala PCB",13-02-2024 21:00:00,8.8787,76.6073,OZONE,31,39,36
India,Kerala,Thiruvananthapuram,"Kariavattom, Thiruvananthapuram - Kerala PCB",13-02-2024 21:00:00,8.563700,76.886500,PM10,77,87,82
India,Kerala,Thiruvananthapuram,"Kariavattom, Thiruvananthapuram - Kerala PCB",13-02-2024 21:00:00,8.563700,76.886500,CO,18,41,25
India,Kerala,Thiruvananthapuram,"Plammoodu, Thiruvananthapuram - Kerala PCB",13-02-2024 21:00:00,8.5149093,76.9435879,SO2,8,17,12
India,Kerala,Thrissur,"Corporation Ground, Thrissur - Kerala PCB",13-02-2024 21:00:00,10.532400,76.215900,PM2.5,47,54,51
India,Kerala,Thrissur,"Corporation Ground, Thrissur - Kerala PCB",13-02-2024 21:00:00,10.532400,76.215900,SO2,1,27,9
India,Madhya Pradesh,Bhopal,"Idgah Hills, Bhopal - MPPCB",13-02-2024 21:00:00,23.264759,77.381568,PM2.5,83,250,183
India,Madhya Pradesh,Bhopal,"Idgah Hills, Bhopal - MPPCB",13-02-2024 21:00:00,23.264759,77.381568,NH3,3,3,3
India,Madhya Pradesh,Bhopal,"Paryavaran Parisar, Bhopal - MPPCB",13-02-2024 21:00:00,23.210494,77.425409,PM2.5,117,301,224
India,Madhya Pradesh,Bhopal,"Paryavaran Parisar, Bhopal - MPPCB",13-02-2024 21:00:00,23.210494,77.425409,SO2,22,27,25
India,Madhya Pradesh,Bhopal,"Paryavaran Parisar, Bhopal - MPPCB",13-02-2024 21:00:00,23.210494,77.425409,OZONE,3,93,58
India,Madhya Pradesh,Bhopal,"T T Nagar, Bhopal - MPPCB",13-02-2024 21:00:00,23.233584,77.400574,SO2,19,58,32
India,Madhya Pradesh,Gwalior,"Deen Dayal Nagar, Gwalior - MPPCB",13-02-2024 21:00:00,26.259242,78.216432,NO2,40,84,58
India,Madhya Pradesh,Indore,"Maguda Nagar, Indore - IMC",13-02-2024 21:00:00,22.7524,75.8872,PM2.5,NA,NA,NA
India,Madhya Pradesh,Indore,"Maguda Nagar, Indore - IMC",13-02-2024 21:00:00,22.7524,75.8872,NO2,NA,NA,NA
India,Madhya Pradesh,Indore,"Regional Park, Indore - IMC",13-02-2024 21:00:00,22.6780,75.8559,PM10,33,109,64
India,Madhya Pradesh,Indore,"Residency Area, Indore - IMC",13-02-2024 21:00:00,22.7084,75.8815,NO2,38,66,47
India,Madhya Pradesh,Indore,"Residency Area, Indore - IMC",13-02-2024 21:00:00,22.7084,75.8815,OZONE,11,16,14
India,Madhya Pradesh,Jabalpur,"Gupteshwar, Jabalpur - JMC",13-02-2024 21:00:00,23.142888,79.916147,NH3,2,4,2
India,Madhya Pradesh,Jabalpur,"Gupteshwar, Jabalpur - JMC",13-02-2024 21:00:00,23.142888,79.916147,OZONE,12,88,65
India,Madhya Pradesh,Jabalpur,"Marhatal, Jabalpur - MPPCB",13-02-2024 21:00:00,23.168606,79.932247,NO2,26,71,42
India,Madhya Pradesh,Jabalpur,"Marhatal, Jabalpur - MPPCB",13-02-2024 21:00:00,23.168606,79.932247,CO,29,87,42
India,Madhya Pradesh,Jabalpur,"Suhagi, Jabalpur - JMC",13-02-2024 21:00:00,23.218135,79.957770,SO2,8,10,10
India,Madhya Pradesh,Maihar,"Sahilara, Maihar - KJS Cements",13-02-2024 21:00:00,24.2613009,80.7231783,PM2.5,36,76,55
India,Madhya Pradesh,Maihar,"Sahilara, Maihar - KJS Cements",13-02-2024 21:00:00,24.2613009,80.7231783,CO,24,30,26
India,Madhya Pradesh,Pithampur,"Sector-2 Industrial Area, Pithampur - MPPCB",13-02-2024 21:00:00,22.624758,75.675238,PM2.5,47,311,194
India,Madhya Pradesh,Pithampur,"Sector-2 Industrial Area, Pithampur - MPPCB",13-02-2024 21:00:00,22.624758,75.675238,NH3,5,8,7
India,Madhya Pradesh,Pithampur,"Sector-2 Industrial Area, Pithampur - MPPCB",13-02-2024 21:00:00,22.624758,75.675238,OZONE,30,90,57
India,Madhya Pradesh,Ratlam,"Shasthri Nagar, Ratlam - IPCA Lab",13-02-2024 21:00:00,23.331731,75.045981,PM2.5,64,207,107
India,Madhya Pradesh,Ratlam,"Shasthri Nagar, Ratlam - IPCA Lab",13-02-2024 21:00:00,23.331731,75.045981,PM10,113,260,151
India,Madhya Pradesh,Sagar,"Civil Lines, Sagar - MPPCB",13-02-2024 21:00:00,23.838586,78.759431,NO2,13,18,15
India,Madhya Pradesh,Sagar,"Deen Dayal Nagar, Sagar - MPPCB",13-02-2024 21:00:00,23.8640158,78.80289321,CO,32,99,63
India,Madhya Pradesh,Satna,"Bandhavgar Colony, Satna - Birla Cement",13-02-2024 21:00:00,24.58434363,80.8549414,PM2.5,11,15,13
India,Madhya Pradesh,Satna,"Bandhavgar Colony, Satna - Birla Cement",13-02-2024 21:00:00,24.58434363,80.8549414,NO2,7,14,10
India,Madhya Pradesh,Singrauli,"Suryakiran Bhawan NCL, Singrauli - MPPCB",13-02-2024 21:00:00,24.108970,82.645580,NH3,4,6,5
India,Madhya Pradesh,Singrauli,"Suryakiran Bhawan NCL, Singrauli - MPPCB",13-02-2024 21:00:00,24.108970,82.645580,SO2,44,103,68
India,Madhya Pradesh,Ujjain,"Mahakaleshwar Temple, Ujjain - MPPCB",13-02-2024 21:00:00,23.182719 ,75.768218 ,NH3,6,10,7
India,Madhya Pradesh,Ujjain,"Mahakaleshwar Temple, Ujjain - MPPCB",13-02-2024 21:00:00,23.182719 ,75.768218 ,SO2,7,22,13
India,Maharashtra,Ahmednagar,"Tarakpur, Ahmednagar - MPCB",13-02-2024 21:00:00,19.10122,74.73339,SO2,11,20,15
India,Maharashtra,Akola,"Ramdaspeth, Akola - MPCB",13-02-2024 21:00:00,20.719516,77.000253,PM10,108,472,151
India,Maharashtra,Akola,"Ramdaspeth, Akola - MPCB",13-02-2024 21:00:00,20.719516,77.000253,NH3,3,10,6
India,Maharashtra,Akola,"Ramdaspeth, Akola - MPCB",13-02-2024 21:00:00,20.719516,77.000253,CO,36,119,64
India,Maharashtra,Aurangabad,"MIDC Chilkalthana, Aurangabad - MPCB",13-02-2024 21:00:00,19.875620,75.387310,PM2.5,28,307,133
India,Maharashtra,Aurangabad,"Rachnakar Colony, Aurangabad - MPCB",13-02-2024 21:00:00,19.863756,75.321188,OZONE,5,91,70
India,Maharashtra,Belapur,"CBD Belapur, Belapur - MPCB",13-02-2024 21:00:00,19.0243902,73.0406721,PM10,91,132,110
India,Maharashtra,Belapur,"CBD Belapur, Belapur - MPCB",13-02-2024 21:00:00,19.0243902,73.0406721,NH3,15,48,27
India,Maharashtra,Belapur,"CBD Belapur, Belapur - MPCB",13-02-2024 21:00:00,19.0243902,73.0406721,OZONE,1,90,55
India,Maharashtra,Boisar,"Khaira, Boisar - MPCB",13-02-2024 21:00:00,19.786089,72.757971,PM2.5,86,299,178
India,Maharashtra,Boisar,"Khaira, Boisar - MPCB",13-02-2024 21:00:00,19.786089,72.757971,NO2,13,41,23
India,Maharashtra,Chandrapur,"Chauhan Colony, Chandrapur - MPCB",13-02-2024 21:00:00,19.962900,79.298714,NH3,NA,NA,NA
India,Maharashtra,Chandrapur,"Chauhan Colony, Chandrapur - MPCB",13-02-2024 21:00:00,19.962900,79.298714,OZONE,10,20,12
India,Maharashtra,Chandrapur,"MIDC Khutala, Chandrapur - MPCB",13-02-2024 21:00:00,19.9775302,79.2337086,SO2,NA,NA,NA
India,Maharashtra,Chandrapur,"MIDC Khutala, Chandrapur - MPCB",13-02-2024 21:00:00,19.9775302,79.2337086,OZONE,1,1,1
India,Maharashtra,Dhule,"Deopur, Dhule - MPCB",13-02-2024 21:00:00,20.918946,74.776388,PM10,NA,NA,NA
India,Maharashtra,Jalgaon,"Prabhat Colony, Jalgaon - MPCB",13-02-2024 21:00:00,21.001264,75.565602,CO,3,19,9
India,Maharashtra,Kolhapur,"Shivaji University, Kolhapur - MPCB",13-02-2024 21:00:00,16.6870449,74.2505872,NH3,3,9,5
India,Maharashtra,Kolhapur,"Sinchan Bhavan, Kolhapur - MPCB",13-02-2024 21:00:00,16.7143745,74.2426398,CO,8,81,33
India,Maharashtra,Latur,"Sawe Wadi, Latur - MPCB",13-02-2024 21:00:00,18.39963,76.57452,PM2.5,58,208,92
India,Maharashtra,Mahad,"Kamble Tarf Birwadi, Mahad - MPCB",13-02-2024 21:00:00,18.1023399,73.4783687,PM2.5,126,286,179
India,Maharashtra,Mahad,"Kamble Tarf Birwadi, Mahad - MPCB",13-02-2024 21:00:00,18.1023399,73.4783687,NH3,5,9,6
India,Maharashtra,Malegaon,"Mahesh Nagar, Malegaon - MPCB",13-02-2024 21:00:00,20.555712,74.529236,PM2.5,37,159,90
India,Maharashtra,Malegaon,"Mahesh Nagar, Malegaon - MPCB",13-02-2024 21:00:00,20.555712,74.529236,OZONE,16,63,60
India,Maharashtra,Mira-Bhayandar,"Bhayandar West, Mira-Bhayandar - MPCB",13-02-2024 21:00:00,19.296481,72.840923,CO,17,76,25
India,Maharashtra,Mumbai,"Bandra Kurla Complex, Mumbai - MPCB",13-02-2024 21:00:00,19.065931,72.862131,NH3,12,17,15
India,Maharashtra,Mumbai,"Borivali East, Mumbai - IITM",13-02-2024 21:00:00,19.23241,72.86895,OZONE,10,117,82
India,Maharashtra,Mumbai,"Borivali East, Mumbai - MPCB",13-02-2024 21:00:00,19.2243333,72.8658113,NH3,1,2,2
India,Maharashtra,Mumbai,"Borivali East, Mumbai - MPCB",13-02-2024 21:00:00,19.2243333,72.8658113,OZONE,13,15,14
India,Maharashtra,Mumbai,"Byculla, Mumbai - BMC",13-02-2024 21:00:00,18.9767,72.8380,CO,19,44,24
India,Maharashtra,Mumbai,"Chakala-Andheri East, Mumbai - IITM",13-02-2024 21:00:00,19.11074,72.86084,NH3,NA,NA,NA
India,Maharashtra,Mumbai,"Chakala-Andheri East, Mumbai - IITM",13-02-2024 21:00:00,19.11074,72.86084,CO,57,112,75
India,Maharashtra,Mumbai,"Chembur, Mumbai - MPCB",13-02-2024 21:00:00,19.0364585,72.8954371,NH3,4,6,4
India,Maharashtra,Mumbai,"Chembur, Mumbai - MPCB",13-02-2024 21:00:00,19.0364585,72.8954371,OZONE,4,208,144
India,Maharashtra,Mumbai,"Chhatrapati Shivaji Intl. Airport (T2), Mumbai - MPCB",13-02-2024 21:00:00,19.10078,72.87462,CO,57,101,65
India,Maharashtra,Mumbai,"Colaba, Mumbai - MPCB",13-02-2024 21:00:00,18.910000,72.820000,PM2.5,NA,NA,NA
India,Maharashtra,Mumbai,"Colaba, Mumbai - MPCB",13-02-2024 21:00:00,18.910000,72.820000,OZONE,9,10,9
India,Maharashtra,Mumbai,"Ghatkopar, Mumbai - BMC",13-02-2024 21:00:00,19.083694,72.920967,OZONE,4,48,41
India,Maharashtra,Mumbai,"Kandivali East, Mumbai - MPCB",13-02-2024 21:00:00,19.205800,72.868200,PM2.5,15,89,37
India,Maharashtra,Mumbai,"Khindipada-Bhandup West, Mumbai - IITM",13-02-2024 21:00:00,19.1653323,72.922099,NO2,6,13,10
India,Maharashtra,Mumbai,"Khindipada-Bhandup West, Mumbai - IITM",13-02-2024 21:00:00,19.1653323,72.922099,NH3,5,10,7
India,Maharashtra,Mumbai,"Kurla, Mumbai - MPCB",13-02-2024 21:00:00,19.0863,72.8888,NH3,2,8,4
India,Maharashtra,Mumbai,"Mindspace-Malad West, Mumbai - MPCB",13-02-2024 21:00:00,19.1878657,72.8304069,OZONE,3,80,57
India,Maharashtra,Mumbai,"Mulund West, Mumbai - MPCB",13-02-2024 21:00:00,19.1750,72.9419,OZONE,7,7,7
India,Maharashtra,Mumbai,"Powai, Mumbai - MPCB",13-02-2024 21:00:00,19.137500,72.915056,NO2,27,41,30
India,Maharashtra,Mumbai,"Powai, Mumbai - MPCB",13-02-2024 21:00:00,19.137500,72.915056,NH3,1,1,1
India,Maharashtra,Mumbai,"Sewri, Mumbai - BMC",13-02-2024 21:00:00,19.000084,72.856730,PM2.5,NA,NA,NA
India,Maharashtra,Mumbai,"Sewri, Mumbai - BMC",13-02-2024 21:00:00,19.000084,72.856730,PM10,NA,NA,NA
India,Maharashtra,Mumbai,"Shivaji Nagar, Mumbai - BMC",13-02-2024 21:00:00,19.060498,72.923356,SO2,8,30,17
India,Maharashtra,Mumbai,"Shivaji Nagar, Mumbai - BMC",13-02-2024 21:00:00,19.060498,72.923356,OZONE,5,95,70
India,Maharashtra,Mumbai,"Siddharth Nagar-Worli, Mumbai - IITM",13-02-2024 21:00:00,19.000083,72.813993,NO2,29,114,56
India,Maharashtra,Mumbai,"Sion, Mumbai - MPCB",13-02-2024 21:00:00,19.047000,72.874600,CO,12,72,18
India,Maharashtra,Mumbai,"Vasai West, Mumbai - MPCB",13-02-2024 21:00:00,19.383200,72.820400,OZONE,10,62,46
India,Maharashtra,Nagpur,"Ambazari, Nagpur - MPCB",13-02-2024 21:00:00,21.121801,79.04952,PM10,89,130,104
India,Maharashtra,Nagpur,"Mahal, Nagpur - MPCB",13-02-2024 21:00:00,21.14472,79.107595,CO,19,111,69
India,Maharashtra,Nagpur,"Opp GPO Civil Lines, Nagpur - MPCB",13-02-2024 21:00:00,21.152875,79.0517531,PM2.5,41,254,103
India,Maharashtra,Nagpur,"Opp GPO Civil Lines, Nagpur - MPCB",13-02-2024 21:00:00,21.152875,79.0517531,PM10,47,172,97
India,Maharashtra,Nagpur,"Opp GPO Civil Lines, Nagpur - MPCB",13-02-2024 21:00:00,21.152875,79.0517531,OZONE,2,23,15
India,Maharashtra,Nanded,"Sneh Nagar, Nanded - MPCB",13-02-2024 21:00:00,19.173852,77.296291,OZONE,23,82,74
India,Maharashtra,Nashik,"Gangapur Road, Nashik - MPCB",13-02-2024 21:00:00,20.0073285,73.7762427,PM10,22,181,78
India,Maharashtra,Nashik,"Gangapur Road, Nashik - MPCB",13-02-2024 21:00:00,20.0073285,73.7762427,OZONE,3,67,56
India,Maharashtra,Nashik,"Hirawadi, Nashik - MPCB",13-02-2024 21:00:00,20.021503,73.813844,NH3,1,2,1
India,Maharashtra,Nashik,"MIDC Ambad, Nashik - MPCB",13-02-2024 21:00:00,19.950220,73.731480,PM10,66,106,87
India,Maharashtra,Nashik,"MIDC Ambad, Nashik - MPCB",13-02-2024 21:00:00,19.950220,73.731480,NO2,19,82,32
India,Maharashtra,Navi Mumbai,"Kopripada-Vashi, Navi Mumbai - MPCB",13-02-2024 21:00:00,19.090337,73.014232,PM2.5,44,406,165
India,Maharashtra,Navi Mumbai,"Kopripada-Vashi, Navi Mumbai - MPCB",13-02-2024 21:00:00,19.090337,73.014232,NO2,25,140,89
India,Maharashtra,Navi Mumbai,"Kopripada-Vashi, Navi Mumbai - MPCB",13-02-2024 21:00:00,19.090337,73.014232,SO2,13,41,27
India,Maharashtra,Navi Mumbai,"Mahape, Navi Mumbai - MPCB",13-02-2024 21:00:00,19.1135051,73.008978,CO,30,60,36
India,Maharashtra,Navi Mumbai,"Nerul, Navi Mumbai - MPCB",13-02-2024 21:00:00,19.008751,73.016620,PM2.5,40,232,119
India,Maharashtra,Navi Mumbai,"Nerul, Navi Mumbai - MPCB",13-02-2024 21:00:00,19.008751,73.016620,CO,40,78,46
India,Maharashtra,Navi Mumbai,"Sanpada, Navi Mumbai - MPCB",13-02-2024 21:00:00,19.0575752,73.0151367,SO2,5,65,21
India,Maharashtra,Navi Mumbai,"Sanpada, Navi Mumbai - MPCB",13-02-2024 21:00:00,19.0575752,73.0151367,OZONE,1,115,67
India,Maharashtra,Navi Mumbai,"Sector-19A Nerul, Navi Mumbai - IITM",13-02-2024 21:00:00,19.044,73.0325,CO,2,83,43
India,Maharashtra,Navi Mumbai,"Sector-2E Kalamboli, Navi Mumbai - MPCB",13-02-2024 21:00:00,19.02579,73.10297,PM10,NA,NA,NA
India,Maharashtra,Parbhani,"Masoom Colony, Parbhani - MPCB",13-02-2024 21:00:00,19.265594,76.761463,NH3,2,3,3
India,Maharashtra,Parbhani,"Masoom Colony, Parbhani - MPCB",13-02-2024 21:00:00,19.265594,76.761463,CO,22,80,44
India,Maharashtra,Pimpri-Chinchwad,"Gavalinagar, Pimpri Chinchwad - MPCB",13-02-2024 21:00:00,18.63673,73.82487,NH3,2,15,5
India,Maharashtra,Pimpri-Chinchwad,"Gavalinagar, Pimpri Chinchwad - MPCB",13-02-2024 21:00:00,18.63673,73.82487,OZONE,2,279,159
India,Maharashtra,Pimpri-Chinchwad,"Park Street Wakad, Pimpri Chinchwad - MPCB",13-02-2024 21:00:00,18.59051,73.77946,PM10,86,161,127
India,Maharashtra,Pimpri-Chinchwad,"Thergaon, Pimpri Chinchwad - MPCB",13-02-2024 21:00:00,18.616318,73.765797,CO,24,76,34
India,Maharashtra,Pimpri-Chinchwad,"Thergaon, Pimpri Chinchwad - MPCB",13-02-2024 21:00:00,18.616318,73.765797,OZONE,3,254,152
India,Maharashtra,Pune,"Karve Road, Pune - MPCB",13-02-2024 21:00:00,18.5011743,73.8165527,PM10,4,406,132
India,Maharashtra,Pune,"Karve Road, Pune - MPCB",13-02-2024 21:00:00,18.5011743,73.8165527,NO2,2,2,2
India,Maharashtra,Pune,"Karve Road, Pune - MPCB",13-02-2024 21:00:00,18.5011743,73.8165527,SO2,1,72,24
India,Maharashtra,Pune,"Katraj Dairy, Pune - MPCB",13-02-2024 21:00:00,18.454450,73.854155,CO,54,94,63
India,Maharashtra,Pune,"Revenue Colony-Shivajinagar, Pune - IITM",13-02-2024 21:00:00,18.530085,73.849598,PM10,47,256,104
India,Maharashtra,Pune,"Revenue Colony-Shivajinagar, Pune - IITM",13-02-2024 21:00:00,18.530085,73.849598,CO,84,114,113
India,Maharashtra,Pune,"Savitribai Phule Pune University, Pune - MPCB",13-02-2024 21:00:00,18.547056,73.826908,PM10,56,133,104
India,Maharashtra,Pune,"Transport Nagar-Nigdi, Pune - IITM",13-02-2024 21:00:00,18.664282,73.763966,CO,48,196,55
India,Maharashtra,Pune,"Transport Nagar-Nigdi, Pune - IITM",13-02-2024 21:00:00,18.664282,73.763966,OZONE,2,72,52
India,Maharashtra,Sangli,"Vijay Nagar, Sangli - MPCB",13-02-2024 21:00:00, 16.5038,74.3623,PM2.5,61,324,210
India,Maharashtra,Sangli,"Vijay Nagar, Sangli - MPCB",13-02-2024 21:00:00, 16.5038,74.3623,OZONE,2,19,15
India,Maharashtra,Solapur,"Dnyaneshwar Nagar, Solapur - MPCB",13-02-2024 21:00:00,17.6336264,75.9132495,PM2.5,68,159,94
India,Maharashtra,Solapur,"Dnyaneshwar Nagar, Solapur - MPCB",13-02-2024 21:00:00,17.6336264,75.9132495,SO2,5,21,10
India,Maharashtra,Solapur,"Ratandeep Housing Society, Solapur - MPCB",13-02-2024 21:00:00,17.65439,75.90649,PM10,57,113,81
India,Maharashtra,Solapur,"Ratandeep Housing Society, Solapur - MPCB",13-02-2024 21:00:00,17.65439,75.90649,SO2,9,36,20
India,Maharashtra,Solapur,"Solapur, Solapur - MPCB",13-02-2024 21:00:00,17.6599188,75.9063906,PM10,96,151,116
India,Maharashtra,Thane,"Kasarvadavali, Thane - MPCB",13-02-2024 21:00:00,19.26777,72.97182,NH3,4,17,8
India,Maharashtra,Thane,"Pimpleshwar Mandir, Thane - MPCB",13-02-2024 21:00:00,19.192056,72.9585188,CO,50,116,68
India,Maharashtra,Thane,"Pimpleshwar Mandir, Thane - MPCB",13-02-2024 21:00:00,19.192056,72.9585188,OZONE,5,55,40
India,Maharashtra,Thane,"Upvan Fort, Thane - MPCB",13-02-2024 21:00:00,19.222279,72.957979,PM10,80,133,112
India,Maharashtra,Ulhasnagar,"Sidhi Vinayak Nagar, Ulhasnagar - MPCB",13-02-2024 21:00:00,19.235581,73.159121,OZONE,3,117,73
India,Maharashtra,Virar,"Bolinj, Virar - MPCB",13-02-2024 21:00:00,19.4458210,72.7988231,CO,22,72,27
India,Manipur,Imphal,"Manipur University, Imphal - Manipur PCB",13-02-2024 21:00:00,24.7524239,93.9286218,SO2,65,71,67
India,Manipur,Imphal,"Manipur University, Imphal - Manipur PCB",13-02-2024 21:00:00,24.7524239,93.9286218,CO,10,40,16
India,Meghalaya,Shillong,"Lumpyngngad, Shillong - Meghalaya PCB",13-02-2024 21:00:00,25.5586,91.8985,SO2,44,47,45
India,Meghalaya,Shillong,"Lumpyngngad, Shillong - Meghalaya PCB",13-02-2024 21:00:00,25.5586,91.8985,CO,18,34,27
India,Mizoram,Aizawl,"Sikulpuikawn, Aizawl - Mizoram PCB",13-02-2024 21:00:00,23.7176342,92.7192841,PM2.5,34,82,51
India,Nagaland,Kohima,"PWD Juction, Kohima - NPCB",13-02-2024 21:00:00,25.6635413,94.0989878,NH3,1,1,1
India,Odisha,Angul,"Hakimapada, Angul - OSPCB",13-02-2024 21:00:00,20.832874,85.104082,NO2,10,29,16
India,Odisha,Barbil,"Forest Office, Barbil - OSPCB",13-02-2024 21:00:00,22.1166054,85.3945546,NO2,8,20,13
India,Odisha,Barbil,"Forest Office, Barbil - OSPCB",13-02-2024 21:00:00,22.1166054,85.3945546,CO,44,127,60
India,Odisha,Baripada,"Meher Colony, Baripada - OSPCB",13-02-2024 21:00:00,21.941841,86.728318,PM2.5,207,307,249
India,Odisha,Bhubaneswar,"Lingraj Mandir, Bhubaneswar - OSPCB",13-02-2024 21:00:00,20.240790,85.836784,SO2,4,11,7
India,Odisha,Bhubaneswar,"Lingraj Mandir, Bhubaneswar - OSPCB",13-02-2024 21:00:00,20.240790,85.836784,CO,50,64,56
India,Odisha,Bhubaneswar,"Patia, Bhubaneswar - OSPCB",13-02-2024 21:00:00,20.34652,85.81630,CO,6,84,67
India,Odisha,Brajrajnagar,"GM Office, Brajrajnagar - OSPCB",13-02-2024 21:00:00,21.8004996,83.8396977,PM2.5,22,211,64
India,Odisha,Brajrajnagar,"GM Office, Brajrajnagar - OSPCB",13-02-2024 21:00:00,21.8004996,83.8396977,PM10,31,178,82
India,Odisha,Brajrajnagar,"GM Office, Brajrajnagar - OSPCB",13-02-2024 21:00:00,21.8004996,83.8396977,NO2,17,21,19
India,Odisha,Brajrajnagar,"GM Office, Brajrajnagar - OSPCB",13-02-2024 21:00:00,21.8004996,83.8396977,SO2,14,14,14
India,Odisha,Keonjhar,"Jagamohanpur, Keonjhar - OSPCB",13-02-2024 21:00:00,21.643900,85.599355,PM2.5,64,179,123
India,Odisha,Keonjhar,"Jagamohanpur, Keonjhar - OSPCB",13-02-2024 21:00:00,21.643900,85.599355,SO2,12,13,13
India,Odisha,Keonjhar,"Jagamohanpur, Keonjhar - OSPCB",13-02-2024 21:00:00,21.643900,85.599355,CO,12,36,25
India,Odisha,Keonjhar,"Jagamohanpur, Keonjhar - OSPCB",13-02-2024 21:00:00,21.643900,85.599355,OZONE,1,9,5
India,Odisha,Nayagarh,"Dabuna, Nayagarh - OSPCB",13-02-2024 21:00:00,21.847279,85.416905,NH3,1,5,4
India,Odisha,Rairangpur,"Divisional Forest Office, Rairangpur - OSPCB",13-02-2024 21:00:00,22.265816,86.174829,NH3,5,5,5
India,Odisha,Rourkela,"Fertilizer Township, Rourkela - OSPCB",13-02-2024 21:00:00,22.18972222,84.86277778,PM2.5,62,302,137
India,Odisha,Rourkela,"Raghunathpali, Rourkela - OSPCB",13-02-2024 21:00:00,22.220833,84.809444,NO2,19,104,50
India,Odisha,Rourkela,"Raghunathpali, Rourkela - OSPCB",13-02-2024 21:00:00,22.220833,84.809444,NH3,1,3,2
India,Odisha,Rourkela,"Raghunathpali, Rourkela - OSPCB",13-02-2024 21:00:00,22.220833,84.809444,SO2,4,12,7
India,Odisha,Rourkela,"Sector-2, Rourkela - OSPCB",13-02-2024 21:00:00,22.24500000,84.88111111,PM10,86,136,104
India,Odisha,Suakati,"OMC Colony, Suakati - OSPCB",13-02-2024 21:00:00,21.606865,85.510538,NO2,NA,NA,NA
India,Odisha,Suakati,"OMC Colony, Suakati - OSPCB",13-02-2024 21:00:00,21.606865,85.510538,SO2,NA,NA,NA
India,Odisha,Suakati,"OMC Colony, Suakati - OSPCB",13-02-2024 21:00:00,21.606865,85.510538,OZONE,26,141,96
India,Odisha,Talcher,"Talcher Coalfields,Talcher - OSPCB",13-02-2024 21:00:00,20.9360711,85.1707021,PM10,51,158,97
India,Odisha,Talcher,"Talcher Coalfields,Talcher - OSPCB",13-02-2024 21:00:00,20.9360711,85.1707021,NH3,7,9,7
India,Odisha,Tensa,"Barsua Iron Ore Mines, Tensa - OSPCB",13-02-2024 21:00:00,21.869985,85.167016,PM2.5,NA,NA,NA
India,Odisha,Tensa,"Barsua Iron Ore Mines, Tensa - OSPCB",13-02-2024 21:00:00,21.869985,85.167016,CO,NA,NA,NA
India,Puducherry,Puducherry,"Jawahar Nagar, Puducherry - PPCC",13-02-2024 21:00:00,11.9309,79.8027,PM10,21,73,44
India,Punjab,Amritsar,"Golden Temple, Amritsar - PPCB",13-02-2024 21:00:00,31.620000,74.876512,PM2.5,41,283,131
India,Punjab,Amritsar,"Golden Temple, Amritsar - PPCB",13-02-2024 21:00:00,31.620000,74.876512,NH3,4,11,5
India,Punjab,Amritsar,"Golden Temple, Amritsar - PPCB",13-02-2024 21:00:00,31.620000,74.876512,SO2,11,43,25
India,Punjab,Amritsar,"Golden Temple, Amritsar - PPCB",13-02-2024 21:00:00,31.620000,74.876512,OZONE,26,33,29
India,Punjab,Jalandhar,"Civil Line, Jalandhar - PPCB",13-02-2024 21:00:00,31.321907,75.578914,PM2.5,49,222,100
India,Punjab,Jalandhar,"Civil Line, Jalandhar - PPCB",13-02-2024 21:00:00,31.321907,75.578914,PM10,63,196,133
India,Punjab,Jalandhar,"Civil Line, Jalandhar - PPCB",13-02-2024 21:00:00,31.321907,75.578914,NH3,2,4,3
India,Punjab,Jalandhar,"Civil Line, Jalandhar - PPCB",13-02-2024 21:00:00,31.321907,75.578914,OZONE,10,65,44
India,Punjab,Khanna,"Kalal Majra, Khanna - PPCB",13-02-2024 21:00:00,30.736056 ,76.209694,PM2.5,52,207,116
India,Punjab,Khanna,"Kalal Majra, Khanna - PPCB",13-02-2024 21:00:00,30.736056 ,76.209694,SO2,11,64,16
India,Punjab,Ludhiana,"Punjab Agricultural University, Ludhiana - PPCB",13-02-2024 21:00:00,30.9028,75.8086,NO2,22,29,24
India,Punjab,Mandi Gobindgarh,"RIMT University, Mandi Gobindgarh - PPCB",13-02-2024 21:00:00,30.649961,76.331442,PM10,67,288,157
India,Punjab,Mandi Gobindgarh,"RIMT University, Mandi Gobindgarh - PPCB",13-02-2024 21:00:00,30.649961,76.331442,NO2,30,31,31
India,Punjab,Mandi Gobindgarh,"RIMT University, Mandi Gobindgarh - PPCB",13-02-2024 21:00:00,30.649961,76.331442,CO,6,47,29
India,Punjab,Mandi Gobindgarh,"RIMT University, Mandi Gobindgarh - PPCB",13-02-2024 21:00:00,30.649961,76.331442,OZONE,32,34,33
India,Punjab,Patiala,"Model Town, Patiala - PPCB",13-02-2024 21:00:00,30.349388,76.366642,PM10,91,132,112
India,Punjab,Rupnagar,"Ratanpura, Rupnagar - Ambuja Cements",13-02-2024 21:00:00,31.0325454,76.5623046,PM2.5,41,238,104
India,Punjab,Rupnagar,"Ratanpura, Rupnagar - Ambuja Cements",13-02-2024 21:00:00,31.0325454,76.5623046,SO2,1,12,7
India,Rajasthan,Ajmer,"Civil Lines,  Ajmer - RSPCB",13-02-2024 21:00:00,26.470859,74.646594,NO2,18,44,29
India,Rajasthan,Ajmer,"Civil Lines,  Ajmer - RSPCB",13-02-2024 21:00:00,26.470859,74.646594,CO,16,64,45
India,Rajasthan,Alwar,"Moti Doongri, Alwar - RSPCB",13-02-2024 21:00:00,27.554793,76.611536,NH3,6,11,8
India,Rajasthan,Banswara,"Rati Talai, Banswara - RSPCB",13-02-2024 21:00:00,23.555190,74.440010,PM2.5,NA,NA,NA
India,Rajasthan,Baran,"Bamboliya, Baran - RSPCB",13-02-2024 21:00:00,25.106006,76.469948,OZONE,127,127,127
India,Rajasthan,Bhilwara,"Pratap Nagar, Bhilwara - RSPCB",13-02-2024 21:00:00,25.339605,74.618883,CO,NA,NA,NA
India,Rajasthan,Bhiwadi,"RIICO Ind. Area III, Bhiwadi - RSPCB",13-02-2024 21:00:00,28.194909,76.862296,SO2,2,48,18
India,Rajasthan,Bhiwadi,"RIICO Ind. Area III, Bhiwadi - RSPCB",13-02-2024 21:00:00,28.194909,76.862296,OZONE,29,35,31
India,Rajasthan,Jaipur,"Shastri Nagar, Jaipur - RSPCB",13-02-2024 21:00:00,26.9502929,75.730943,NH3,7,26,13
India,Rajasthan,Jodhpur,"Collectorate, Jodhpur - RSPCB",13-02-2024 21:00:00,26.268249,73.0193853,PM10,84,153,127
India,Rajasthan,Kota,"Shrinath Puram, Kota - RSPCB",13-02-2024 21:00:00,25.14389,75.821256,OZONE,20,91,68
India,Rajasthan,Pali,"Indira Colony Vistar, Pali - RSPCB",13-02-2024 21:00:00,25.771061, 73.340227,PM10,92,139,115
India,Rajasthan,Pali,"Indira Colony Vistar, Pali - RSPCB",13-02-2024 21:00:00,25.771061, 73.340227,CO,12,103,62
India,Rajasthan,Rajsamand,"Dhoinda, Rajsamand - RSPCB",13-02-2024 21:00:00,25.036360,73.883502,PM2.5,NA,NA,NA
India,Rajasthan,Rajsamand,"Dhoinda, Rajsamand - RSPCB",13-02-2024 21:00:00,25.036360,73.883502,NH3,NA,NA,NA
India,Rajasthan,Rajsamand,"Dhoinda, Rajsamand - RSPCB",13-02-2024 21:00:00,25.036360,73.883502,SO2,NA,NA,NA
India,Rajasthan,Rajsamand,"Dhoinda, Rajsamand - RSPCB",13-02-2024 21:00:00,25.036360,73.883502,CO,36,51,44
India,Rajasthan,Sawai Madhopur,"Sahu Nagar, Sawai Madhopur - RSPCB",13-02-2024 21:00:00,26.031443,76.359327,OZONE,NA,NA,NA
India,Rajasthan,Udaipur,"Ashok Nagar, Udaipur - RSPCB",13-02-2024 21:00:00,24.5886166,73.6321397,NH3,4,9,6
India,Rajasthan,Udaipur,"Ashok Nagar, Udaipur - RSPCB",13-02-2024 21:00:00,24.5886166,73.6321397,SO2,2,34,16
India,Rajasthan,Udaipur,"Ashok Nagar, Udaipur - RSPCB",13-02-2024 21:00:00,24.5886166,73.6321397,CO,5,134,84
India,TamilNadu,Chennai,"Gandhi Nagar_Ennore, Chennai - TNPCB",13-02-2024 21:00:00,13.218341,80.32027,NH3,NA,NA,NA
India,TamilNadu,Chennai,"Manali, Chennai - CPCB",13-02-2024 21:00:00,13.164544,80.26285,NO2,9,15,11
India,TamilNadu,Chennai,"Manali, Chennai - CPCB",13-02-2024 21:00:00,13.164544,80.26285,NH3,3,7,5
India,TamilNadu,Chennai,"Royapuram, Chennai - TNPCB",13-02-2024 21:00:00,13.1036,80.2909,SO2,1,10,4
India,TamilNadu,Chennai,"Velachery Res. Area, Chennai - CPCB",13-02-2024 21:00:00,13.0052189,80.2398125,PM2.5,31,76,48
India,TamilNadu,Chennai,"Velachery Res. Area, Chennai - CPCB",13-02-2024 21:00:00,13.0052189,80.2398125,OZONE,6,24,21
India,TamilNadu,Coimbatore,"PSG College of Arts and Science, Coimbatore - TNPCB",13-02-2024 21:00:00,11.0328,77.0349,CO,76,78,78
India,TamilNadu,Cuddalore,"Kudikadu, Cuddalore - TNPCB",13-02-2024 21:00:00,11.6829898,79.7532099,PM2.5,19,66,42
India,TamilNadu,Gummidipoondi,"Anthoni Pillai Nagar, Gummidipoondi - TNPCB",13-02-2024 21:00:00,13.4127,80.1081,PM10,46,228,96
India,TamilNadu,Gummidipoondi,"Anthoni Pillai Nagar, Gummidipoondi - TNPCB",13-02-2024 21:00:00,13.4127,80.1081,NH3,1,2,2
India,TamilNadu,Ooty,"Bombay Castel, Ooty - TNPCB",13-02-2024 21:00:00,11.4068288,76.7138973,PM10,18,147,51
India,TamilNadu,Ooty,"Bombay Castel, Ooty - TNPCB",13-02-2024 21:00:00,11.4068288,76.7138973,SO2,13,14,13
India,TamilNadu,Palkalaiperur,"Bharathidasan University, Palkalaiperur - TNPCB",13-02-2024 21:00:00,10.681158,78.741746,CO,2,8,4
India,TamilNadu,Ramanathapuram,"Chalai Bazaar, Ramanathapuram - TNPCB",13-02-2024 21:00:00,9.36399,78.831977,PM2.5,17,40,31
India,TamilNadu,Salem,"Sona College of Technology, Salem - TNPCB",13-02-2024 21:00:00,11.679111,78.125052,PM2.5,NA,NA,NA
India,TamilNadu,Salem,"Sona College of Technology, Salem - TNPCB",13-02-2024 21:00:00,11.679111,78.125052,NH3,NA,NA,NA
India,TamilNadu,Virudhunagar,"Collectorate Office, Virudhunagar - TNPCB",13-02-2024 21:00:00,9.559382,77.948828,PM10,NA,NA,NA
India,TamilNadu,Virudhunagar,"Collectorate Office, Virudhunagar - TNPCB",13-02-2024 21:00:00,9.559382,77.948828,SO2,NA,NA,NA
India,TamilNadu,Virudhunagar,"Collectorate Office, Virudhunagar - TNPCB",13-02-2024 21:00:00,9.559382,77.948828,CO,20,30,22
India,Telangana,Hyderabad,"Bollaram Industrial Area, Hyderabad - TSPCB",13-02-2024 21:00:00,17.540891,78.358528,PM10,21,91,55
India,Telangana,Hyderabad,"Bollaram Industrial Area, Hyderabad - TSPCB",13-02-2024 21:00:00,17.540891,78.358528,NH3,2,3,2
India,Telangana,Hyderabad,"Central University, Hyderabad - TSPCB",13-02-2024 21:00:00,17.460103,78.334361,OZONE,3,4,4
India,Telangana,Hyderabad,"ECIL Kapra, Hyderabad - TSPCB",13-02-2024 21:00:00,17.470431,78.566959,PM10,58,103,76
India,Telangana,Hyderabad,"ECIL Kapra, Hyderabad - TSPCB",13-02-2024 21:00:00,17.470431,78.566959,CO,4,14,9
India,Telangana,Hyderabad,"ICRISAT Patancheru, Hyderabad - TSPCB",13-02-2024 21:00:00,17.518400,78.278777,PM2.5,8,177,56
India,Telangana,Hyderabad,"ICRISAT Patancheru, Hyderabad - TSPCB",13-02-2024 21:00:00,17.518400,78.278777,CO,4,82,44
India,Telangana,Hyderabad,"IITH Kandi, Hyderabad - TSPCB",13-02-2024 21:00:00,17.585705,78.126199,SO2,NA,NA,NA
India,Telangana,Hyderabad,"Kokapet, Hyderabad - TSPCB",13-02-2024 21:00:00,17.393559,78.339194,PM10,NA,NA,NA
India,Telangana,Hyderabad,"Nacharam_TSIIC IALA, Hyderabad - TSPCB",13-02-2024 21:00:00,17.429398,78.569354,PM10,NA,NA,NA
India,Telangana,Hyderabad,"Nacharam_TSIIC IALA, Hyderabad - TSPCB",13-02-2024 21:00:00,17.429398,78.569354,NO2,NA,NA,NA
India,Telangana,Hyderabad,"Nacharam_TSIIC IALA, Hyderabad - TSPCB",13-02-2024 21:00:00,17.429398,78.569354,OZONE,26,36,31
India,Telangana,Hyderabad,"New Malakpet, Hyderabad - TSPCB",13-02-2024 21:00:00,17.37206,78.50864,PM2.5,16,37,27
India,Telangana,Hyderabad,"New Malakpet, Hyderabad - TSPCB",13-02-2024 21:00:00,17.37206,78.50864,NH3,2,2,2
India,Telangana,Hyderabad,"New Malakpet, Hyderabad - TSPCB",13-02-2024 21:00:00,17.37206,78.50864,OZONE,5,25,17
India,Telangana,Hyderabad,"Ramachandrapuram, Hyderabad - TSPCB",13-02-2024 21:00:00,17.528544,78.286195,NO2,NA,NA,NA
India,Telangana,Hyderabad,"Ramachandrapuram, Hyderabad - TSPCB",13-02-2024 21:00:00,17.528544,78.286195,OZONE,20,42,34
India,Telangana,Hyderabad,"Somajiguda, Hyderabad - TSPCB",13-02-2024 21:00:00,17.417094,78.457437,NH3,NA,NA,NA
India,Telangana,Hyderabad,"Somajiguda, Hyderabad - TSPCB",13-02-2024 21:00:00,17.417094,78.457437,CO,8,36,17
India,Telangana,Hyderabad,"Zoo Park, Hyderabad - TSPCB",13-02-2024 21:00:00,17.349694,78.451437,PM2.5,18,62,35
India,Telangana,Hyderabad,"Zoo Park, Hyderabad - TSPCB",13-02-2024 21:00:00,17.349694,78.451437,NH3,1,1,1
India,Tripura,Agartala,"Bardowali, Agartala - Tripura SPCB",13-02-2024 21:00:00,23.8175497,91.2726974,PM2.5,84,371,253
India,Tripura,Agartala,"Bardowali, Agartala - Tripura SPCB",13-02-2024 21:00:00,23.8175497,91.2726974,CO,30,104,53
India,Uttar_Pradesh,Agra,"Manoharpur, Agra - UPPCB",13-02-2024 21:00:00,27.23711,78.01936,NO2,17,22,20
India,Uttar_Pradesh,Agra,"Manoharpur, Agra - UPPCB",13-02-2024 21:00:00,27.23711,78.01936,NH3,1,1,1
India,Uttar_Pradesh,Agra,"Rohta, Agra - UPPCB",13-02-2024 21:00:00,27.106972,78.000111,OZONE,15,22,21
India,Uttar_Pradesh,Agra,"Sector-3B Avas Vikas Colony, Agra - UPPCB",13-02-2024 21:00:00,27.19412,77.96237,PM2.5,35,83,59
India,Uttar_Pradesh,Agra,"Sector-3B Avas Vikas Colony, Agra - UPPCB",13-02-2024 21:00:00,27.19412,77.96237,CO,9,38,12
India,Uttar_Pradesh,Agra,"Sector-3B Avas Vikas Colony, Agra - UPPCB",13-02-2024 21:00:00,27.19412,77.96237,OZONE,3,51,25
India,Uttar_Pradesh,Agra,"Shahjahan Garden, Agra - UPPCB",13-02-2024 21:00:00,27.169338,78.03582,NO2,28,30,29
India,Uttar_Pradesh,Agra,"Shastripuram, Agra - UPPCB",13-02-2024 21:00:00,27.19862,77.92066,PM2.5,71,173,102
India,Uttar_Pradesh,Agra,"Shastripuram, Agra - UPPCB",13-02-2024 21:00:00,27.19862,77.92066,OZONE,3,17,13
India,Uttar_Pradesh,Baghpat,"Sardar Patel Inter College, Baghpat - UPPCB",13-02-2024 21:00:00,28.964949,77.278761,PM10,97,202,135
India,Uttar_Pradesh,Bareilly,"Civil Lines, Bareilly - UPPCB",13-02-2024 21:00:00,28.359581,79.414455,PM10,46,143,94
India,Uttar_Pradesh,Bareilly,"Rajendra Nagar, Bareilly - UPPCB",13-02-2024 21:00:00,28.38910936,79.42963708,OZONE,8,35,15
India,Uttar_Pradesh,Bulandshahr,"Yamunapuram, Bulandshahr - UPPCB",13-02-2024 21:00:00,28.406963,77.849831,PM10,111,282,187
India,Uttar_Pradesh,Bulandshahr,"Yamunapuram, Bulandshahr - UPPCB",13-02-2024 21:00:00,28.406963,77.849831,SO2,30,66,43
India,Uttar_Pradesh,Firozabad,"Nagla Bhau, Firozabad - UPPCB",13-02-2024 21:00:00,27.168897,78.376960,PM2.5,46,98,71
India,Uttar_Pradesh,Firozabad,"Vibhab Nagar, Firozabad - UPPCB",13-02-2024 21:00:00,27.1594,78.3953,NO2,NA,NA,NA
India,Uttar_Pradesh,Ghaziabad,"Indirapuram, Ghaziabad - UPPCB",13-02-2024 21:00:00,28.646233,77.358075,PM10,232,432,311
India,Uttar_Pradesh,Ghaziabad,"Indirapuram, Ghaziabad - UPPCB",13-02-2024 21:00:00,28.646233,77.358075,SO2,10,19,13
India,Uttar_Pradesh,Ghaziabad,"Indirapuram, Ghaziabad - UPPCB",13-02-2024 21:00:00,28.646233,77.358075,OZONE,5,34,20
India,Uttar_Pradesh,Ghaziabad,"Sanjay Nagar, Ghaziabad - UPPCB",13-02-2024 21:00:00,28.685382,77.453839,CO,36,108,75
India,Uttar_Pradesh,Ghaziabad,"Vasundhara, Ghaziabad - UPPCB",13-02-2024 21:00:00,28.6603346,77.3572563,CO,3,142,97
India,Uttar_Pradesh,Ghaziabad,"Vasundhara, Ghaziabad - UPPCB",13-02-2024 21:00:00,28.6603346,77.3572563,OZONE,12,55,34
India,Uttar_Pradesh,Gorakhpur,"Madan Mohan Malaviya University of Technology, Gorakhpur - UPPCB",13-02-2024 21:00:00,26.730136,83.433859,CO,20,36,23
India,Uttar_Pradesh,Greater Noida,"Knowledge Park - III, Greater Noida - UPPCB",13-02-2024 21:00:00,28.47272,77.482000,PM10,154,500,359
India,Uttar_Pradesh,Hapur,"Anand Vihar, Hapur - UPPCB",13-02-2024 21:00:00,28.725645,77.749675,SO2,18,51,30
India,Uttar_Pradesh,Kanpur,"FTI Kidwai Nagar, Kanpur - UPPCB",13-02-2024 21:00:00,26.428282,80.327067,NO2,16,36,17
India,Uttar_Pradesh,Kanpur,"NSI Kalyanpur, Kanpur - UPPCB",13-02-2024 21:00:00,26.509954,80.249612,NO2,11,15,13
India,Uttar_Pradesh,Kanpur,"Nehru Nagar, Kanpur - UPPCB",13-02-2024 21:00:00,26.4703136,80.3229863,CO,6,78,56
India,Uttar_Pradesh,Kanpur,"Nehru Nagar, Kanpur - UPPCB",13-02-2024 21:00:00,26.4703136,80.3229863,OZONE,36,131,105
India,Uttar_Pradesh,Khurja,"Kalindi Kunj, Khurja - UPPCB",13-02-2024 21:00:00,28.2348927,77.8683002,PM2.5,39,296,124
India,Uttar_Pradesh,Lucknow,"Gomti Nagar, Lucknow - UPPCB",13-02-2024 21:00:00,26.868120,81.005119,OZONE,63,74,65
India,Uttar_Pradesh,Lucknow,"Kendriya Vidyalaya, Lucknow - CPCB",13-02-2024 21:00:00,26.906111,80.948222,PM2.5,57,317,132
India,Uttar_Pradesh,Lucknow,"Kendriya Vidyalaya, Lucknow - CPCB",13-02-2024 21:00:00,26.906111,80.948222,NO2,22,104,61
India,Uttar_Pradesh,Lucknow,"Kendriya Vidyalaya, Lucknow - CPCB",13-02-2024 21:00:00,26.906111,80.948222,NH3,3,21,14
India,Uttar_Pradesh,Lucknow,"Kukrail Picnic Spot-1, Lucknow - UPPCB",13-02-2024 21:00:00,26.90723,80.98579,PM2.5,57,155,100
India,Uttar_Pradesh,Lucknow,"Kukrail Picnic Spot-1, Lucknow - UPPCB",13-02-2024 21:00:00,26.90723,80.98579,NH3,2,2,2
India,Uttar_Pradesh,Lucknow,"Lalbagh, Lucknow - CPCB",13-02-2024 21:00:00,26.8458805,80.9365541,PM10,112,370,186
India,Uttar_Pradesh,Lucknow,"Lalbagh, Lucknow - CPCB",13-02-2024 21:00:00,26.8458805,80.9365541,NH3,8,29,12
India,Uttar_Pradesh,Lucknow,"Talkatora District Industries Center, Lucknow - CPCB",13-02-2024 21:00:00,26.83399722,80.8917361,PM10,111,425,192
India,Uttar_Pradesh,Lucknow,"Talkatora District Industries Center, Lucknow - CPCB",13-02-2024 21:00:00,26.83399722,80.8917361,NO2,7,32,16
India,Uttar_Pradesh,Lucknow,"Talkatora District Industries Center, Lucknow - CPCB",13-02-2024 21:00:00,26.83399722,80.8917361,CO,10,114,38
India,Uttar_Pradesh,Lucknow,"Talkatora District Industries Center, Lucknow - CPCB",13-02-2024 21:00:00,26.83399722,80.8917361,OZONE,2,80,44
India,Uttar_Pradesh,Meerut,"Jai Bhim Nagar, Meerut - UPPCB",13-02-2024 21:00:00,28.9535882,77.7622941,PM10,80,184,136
India,Uttar_Pradesh,Meerut,"Pallavpuram Phase 2, Meerut - UPPCB",13-02-2024 21:00:00,29.063510,77.709723,NH3,9,14,11
India,Uttar_Pradesh,Moradabad,"Eco Herbal Park, Moradabad - UPPCB",13-02-2024 21:00:00,28.840739,78.697531,PM2.5,65,292,173
India,Uttar_Pradesh,Moradabad,"Eco Herbal Park, Moradabad - UPPCB",13-02-2024 21:00:00,28.840739,78.697531,PM10,64,164,111
India,Uttar_Pradesh,Moradabad,"Jigar Colony, Moradabad - UPPCB",13-02-2024 21:00:00,28.856664,78.772638,PM2.5,49,182,83
India,Uttar_Pradesh,Moradabad,"Jigar Colony, Moradabad - UPPCB",13-02-2024 21:00:00,28.856664,78.772638,OZONE,19,28,24
India,Uttar_Pradesh,Moradabad,"Transport Nagar, Moradabad - UPPCB",13-02-2024 21:00:00,28.802625,78.753728,OZONE,14,21,17
India,Uttar_Pradesh,Muzaffarnagar,"New Mandi, Muzaffarnagar - UPPCB",13-02-2024 21:00:00,29.4723508,77.7194031,PM10,138,438,276
India,Uttar_Pradesh,Muzaffarnagar,"New Mandi, Muzaffarnagar - UPPCB",13-02-2024 21:00:00,29.4723508,77.7194031,SO2,31,81,42
India,Uttar_Pradesh,Muzaffarnagar,"New Mandi, Muzaffarnagar - UPPCB",13-02-2024 21:00:00,29.4723508,77.7194031,OZONE,5,104,72
India,Uttar_Pradesh,Noida,"Sector - 125, Noida - UPPCB",13-02-2024 21:00:00,28.5447608,77.3231257,SO2,7,31,17
India,Uttar_Pradesh,Noida,"Sector - 62, Noida - IMD",13-02-2024 21:00:00,28.6245479,77.3577104,NO2,10,29,20
India,Uttar_Pradesh,Prayagraj,"Motilal Nehru NIT, Prayagraj - UPPCB",13-02-2024 21:00:00,25.494,81.863,PM2.5,59,110,81
India,Uttar_Pradesh,Prayagraj,"Motilal Nehru NIT, Prayagraj - UPPCB",13-02-2024 21:00:00,25.494,81.863,NO2,12,12,12
India,Uttar_Pradesh,Prayagraj,"Motilal Nehru NIT, Prayagraj - UPPCB",13-02-2024 21:00:00,25.494,81.863,OZONE,10,21,15
India,Uttar_Pradesh,Prayagraj,"Nagar Nigam, Prayagraj - UPPCB",13-02-2024 21:00:00,25.44919916 ,81.82735986 ,CO,21,52,32
India,Uttar_Pradesh,Varanasi,"Bhelupur, Varanasi - UPPCB",13-02-2024 21:00:00,25.301778,82.996789,CO,24,60,45
India,Uttar_Pradesh,Varanasi,"IESD Banaras Hindu University, Varanasi - UPPCB",13-02-2024 21:00:00,25.262326,82.995408,SO2,15,15,15
India,Uttar_Pradesh,Varanasi,"Maldahiya, Varanasi - UPPCB",13-02-2024 21:00:00,25.32393,82.99687,PM10,22,60,38
India,Uttarakhand,Dehradun,"Doon University, Dehradun - UKPCB",13-02-2024 21:00:00,30.269444,78.044167,NO2,1,15,4
India,Uttarakhand,Kashipur,"Govt. Girls Inter College, Kashipur - UKPCB",13-02-2024 21:00:00,29.2124114,78.9611753,PM2.5,68,267,146
India,Uttarakhand,Kashipur,"Govt. Girls Inter College, Kashipur - UKPCB",13-02-2024 21:00:00,29.2124114,78.9611753,NO2,8,48,17
India,West_Bengal,Asansol,"Asansol Court Area, Asansol - WBPCB",13-02-2024 21:00:00,23.685297,86.945968,PM2.5,150,355,282
India,West_Bengal,Durgapur,"Sidhu Kanhu Indoor Stadium, Durgapur - WBPCB",13-02-2024 21:00:00,23.5404352,87.2892225,PM10,113,266,184
India,West_Bengal,Durgapur,"Sidhu Kanhu Indoor Stadium, Durgapur - WBPCB",13-02-2024 21:00:00,23.5404352,87.2892225,NO2,33,50,40
India,West_Bengal,Durgapur,"Sidhu Kanhu Indoor Stadium, Durgapur - WBPCB",13-02-2024 21:00:00,23.5404352,87.2892225,CO,46,78,53
India,West_Bengal,Haldia,"Priyambada Housing Estate, Haldia - WBPCB",13-02-2024 21:00:00,22.06047,88.109737,NH3,3,5,4
India,West_Bengal,Haldia,"Priyambada Housing Estate, Haldia - WBPCB",13-02-2024 21:00:00,22.06047,88.109737,OZONE,14,33,24
India,West_Bengal,Howrah,"Belur Math, Howrah - WBPCB",13-02-2024 21:00:00,22.629801,88.352017,NO2,4,76,30
India,West_Bengal,Howrah,"Ghusuri, Howrah - WBPCB",13-02-2024 21:00:00,22.611968,88.347422,PM10,136,404,257
India,West_Bengal,Howrah,"Ghusuri, Howrah - WBPCB",13-02-2024 21:00:00,22.611968,88.347422,CO,6,112,38
India,West_Bengal,Howrah,"Ghusuri, Howrah - WBPCB",13-02-2024 21:00:00,22.611968,88.347422,OZONE,17,43,24
India,West_Bengal,Kolkata,"Ballygunge, Kolkata - WBPCB",13-02-2024 21:00:00,22.5367507,88.3638022,NH3,9,17,13
India,West_Bengal,Kolkata,"Bidhannagar, Kolkata - WBPCB",13-02-2024 21:00:00,22.58157048,88.41002457,PM2.5,177,310,256
India,West_Bengal,Kolkata,"Jadavpur, Kolkata - WBPCB",13-02-2024 21:00:00,22.49929,88.36917,SO2,5,11,7
India,West_Bengal,Kolkata,"Rabindra Bharati University, Kolkata - WBPCB",13-02-2024 21:00:00,22.627847,88.380669,SO2,10,44,20
India,West_Bengal,Kolkata,"Victoria, Kolkata - WBPCB",13-02-2024 21:00:00,22.5448082,88.3403691,PM2.5,164,299,233
India,West_Bengal,Kolkata,"Victoria, Kolkata - WBPCB",13-02-2024 21:00:00,22.5448082,88.3403691,PM10,130,171,156
India,West_Bengal,Siliguri,"Ward-32 Bapupara, Siliguri - WBPCB",13-02-2024 21:00:00,26.6879226,88.4152495,PM2.5,47,268,104
India,Andhra_Pradesh,Amaravati,"Secretariat, Amaravati - APPCB",13-02-2024 21:00:00,16.5150833,80.5181667,NH3,3,4,4
India,Andhra_Pradesh,Amaravati,"Secretariat, Amaravati - APPCB",13-02-2024 21:00:00,16.5150833,80.5181667,SO2,12,16,14
India,Andhra_Pradesh,Anantapur,"Gulzarpet, Anantapur - APPCB",13-02-2024 21:00:00,14.675886,77.593027,PM10,NA,NA,NA
India,Andhra_Pradesh,Chittoor,"Gangineni Cheruvu, Chittoor - APPCB",13-02-2024 21:00:00,13.204880,79.097889,PM2.5,NA,NA,NA
India,Andhra_Pradesh,Chittoor,"Gangineni Cheruvu, Chittoor - APPCB",13-02-2024 21:00:00,13.204880,79.097889,CO,NA,NA,NA
India,Andhra_Pradesh,Rajamahendravaram,"Anand Kala Kshetram, Rajamahendravaram - APPCB",13-02-2024 21:00:00,16.9872867,81.7363176,PM2.5,62,142,83
India,Andhra_Pradesh,Rajamahendravaram,"Anand Kala Kshetram, Rajamahendravaram - APPCB",13-02-2024 21:00:00,16.9872867,81.7363176,OZONE,22,45,37
India,Andhra_Pradesh,Tirupati,"Tirumala, Tirupati - APPCB",13-02-2024 21:00:00,13.67,79.35,NO2,24,43,32
India,Andhra_Pradesh,Tirupati,"Tirumala, Tirupati - APPCB",13-02-2024 21:00:00,13.67,79.35,SO2,1,8,4
India,Andhra_Pradesh,Vijayawada,"HB Colony, Vijayawada - APPCB",13-02-2024 21:00:00,16.536107,80.594233,CO,24,28,27
India,Andhra_Pradesh,Vijayawada,"Kanuru, Vijayawada - APPCB",13-02-2024 21:00:00,16.486692,80.699436,PM10,58,85,76
India,Andhra_Pradesh,Vijayawada,"Kanuru, Vijayawada - APPCB",13-02-2024 21:00:00,16.486692,80.699436,NH3,1,1,1
India,Andhra_Pradesh,Vijayawada,"Rajiv Gandhi Park, Vijayawada - APPCB",13-02-2024 21:00:00,16.509717,80.612222,PM10,43,70,59
India,Andhra_Pradesh,Vijayawada,"Rajiv Gandhi Park, Vijayawada - APPCB",13-02-2024 21:00:00,16.509717,80.612222,OZONE,12,77,57
India,Andhra_Pradesh,Vijayawada,"Rajiv Nagar, Vijayawada - APPCB",13-02-2024 21:00:00,16.554731,80.649110,PM2.5,62,129,92
India,Andhra_Pradesh,Vijayawada,"Rajiv Nagar, Vijayawada - APPCB",13-02-2024 21:00:00,16.554731,80.649110,SO2,8,21,15
India,Andhra_Pradesh,Vijayawada,"Rajiv Nagar, Vijayawada - APPCB",13-02-2024 21:00:00,16.554731,80.649110,OZONE,12,51,38
India,Andhra_Pradesh,Visakhapatnam,"GVM Corporation, Visakhapatnam - APPCB",13-02-2024 21:00:00,17.72,83.3,PM2.5,48,106,75
India,Andhra_Pradesh,Visakhapatnam,"GVM Corporation, Visakhapatnam - APPCB",13-02-2024 21:00:00,17.72,83.3,NO2,16,52,33
India,Arunachal_Pradesh,Naharlagun,"Naharlagun, Naharlagun - APSPCB",13-02-2024 21:00:00,27.103358,93.679645,OZONE,2,2,2
India,Assam,Byrnihat,"Central Academy for SFS, Byrnihat - PCBA",13-02-2024 21:00:00,26.071318,91.87488,PM2.5,70,500,280
India,Assam,Byrnihat,"Central Academy for SFS, Byrnihat - PCBA",13-02-2024 21:00:00,26.071318,91.87488,PM10,79,500,242
India,Assam,Byrnihat,"Central Academy for SFS, Byrnihat - PCBA",13-02-2024 21:00:00,26.071318,91.87488,NH3,1,8,6
India,Assam,Byrnihat,"Central Academy for SFS, Byrnihat - PCBA",13-02-2024 21:00:00,26.071318,91.87488,OZONE,12,17,15
India,Assam,Guwahati,"IITG, Guwahati - PCBA",13-02-2024 21:00:00,26.2028636,91.70046436,PM10,105,500,185
India,Assam,Guwahati,"LGBI Airport, Guwahati - PCBA",13-02-2024 21:00:00,26.10887,91.589544,PM2.5,10,220,111
India,Assam,Guwahati,"LGBI Airport, Guwahati - PCBA",13-02-2024 21:00:00,26.10887,91.589544,CO,8,84,25
India,Assam,Guwahati,"LGBI Airport, Guwahati - PCBA",13-02-2024 21:00:00,26.10887,91.589544,OZONE,8,93,63
India,Assam,Nagaon,"Christianpatty, Nagaon - PCBA",13-02-2024 21:00:00,26.349082,92.68449,NH3,2,7,3
India,Assam,Silchar,"Tarapur, Silchar - PCBA",13-02-2024 21:00:00,24.82827,92.79525,PM2.5,38,48,44
India,Assam,Silchar,"Tarapur, Silchar - PCBA",13-02-2024 21:00:00,24.82827,92.79525,NH3,1,1,1
India,Assam,Silchar,"Tarapur, Silchar - PCBA",13-02-2024 21:00:00,24.82827,92.79525,OZONE,2,15,4
India,Assam,Sivasagar,"Girls College, Sivasagar - PCBA",13-02-2024 21:00:00,26.987634,94.636574,PM2.5,25,41,32
India,Assam,Sivasagar,"Girls College, Sivasagar - PCBA",13-02-2024 21:00:00,26.987634,94.636574,PM10,36,94,54
India,Bihar,Araria,"Kharahiya Basti, Araria - BSPCB",13-02-2024 21:00:00,26.146529,87.454184,PM10,131,500,309
India,Bihar,Arrah,"New DM Office, Arrah - BSPCB",13-02-2024 21:00:00,25.5626095,84.663264,PM10,111,272,161
India,Bihar,Arrah,"New DM Office, Arrah - BSPCB",13-02-2024 21:00:00,25.5626095,84.663264,NO2,26,74,47
India,Bihar,Arrah,"New DM Office, Arrah - BSPCB",13-02-2024 21:00:00,25.5626095,84.663264,SO2,13,22,19
India,Bihar,Arrah,"New DM Office, Arrah - BSPCB",13-02-2024 21:00:00,25.5626095,84.663264,CO,1,30,12
India,Bihar,Aurangabad,"Gurdeo Nagar, Aurangabad - BSPCB",13-02-2024 21:00:00,24.75746,84.366208,PM10,NA,NA,NA
India,Bihar,Bettiah,"Kamalnath Nagar, Bettiah - BSPCB",13-02-2024 21:00:00,26.80365,84.51954,PM2.5,38,123,72
India,Bihar,Bhagalpur,"DM Office_Kachari Chowk, Bhagalpur - BSPCB",13-02-2024 21:00:00,25.251013,86.989001,NO2,39,124,73
India,Bihar,Bhagalpur,"DM Office_Kachari Chowk, Bhagalpur - BSPCB",13-02-2024 21:00:00,25.251013,86.989001,SO2,5,18,11
India,Bihar,Bhagalpur,"Mayaganj, Bhagalpur - BSPCB",13-02-2024 21:00:00,25.265194,87.012947,SO2,10,13,12
India,Bihar,Bihar Sharif,"D M Colony, Bihar Sharif - BSPCB",13-02-2024 21:00:00,25.204762,85.514960,PM2.5,42,273,118
India,Bihar,Bihar Sharif,"D M Colony, Bihar Sharif - BSPCB",13-02-2024 21:00:00,25.204762,85.514960,PM10,37,141,83
India,Bihar,Bihar Sharif,"D M Colony, Bihar Sharif - BSPCB",13-02-2024 21:00:00,25.204762,85.514960,NH3,2,2,2
India,Bihar,Bihar Sharif,"D M Colony, Bihar Sharif - BSPCB",13-02-2024 21:00:00,25.204762,85.514960,SO2,1,14,7
India,Bihar,Buxar,"Charitra Van, Buxar - BSPCB (Formerly known as Central Jail)",13-02-2024 21:00:00,25.567520,83.966379,PM2.5,157,328,230
India,Bihar,Buxar,"Charitra Van, Buxar - BSPCB (Formerly known as Central Jail)",13-02-2024 21:00:00,25.567520,83.966379,SO2,16,17,16
India,Bihar,Gaya,"Collectorate, Gaya - BSPCB",13-02-2024 21:00:00,24.7955,84.9994,NO2,8,18,14
India,Bihar,Gaya,"Collectorate, Gaya - BSPCB",13-02-2024 21:00:00,24.7955,84.9994,SO2,5,27,16
India,Bihar,Gaya,"Kareemganj, Gaya - BSPCB",13-02-2024 21:00:00,24.792403,84.992416,CO,9,104,47
India,Bihar,Gaya,"SFTI Kusdihra, Gaya - BSPCB",13-02-2024 21:00:00,24.762518,84.982348,OZONE,1,9,3
India,Bihar,Hajipur,"Industrial Area, Hajipur - BSPCB",13-02-2024 21:00:00,25.697189,85.245900,PM2.5,74,270,142
India,Bihar,Hajipur,"Industrial Area, Hajipur - BSPCB",13-02-2024 21:00:00,25.697189,85.245900,NO2,36,61,45
India,Bihar,Hajipur,"Industrial Area, Hajipur - BSPCB",13-02-2024 21:00:00,25.697189,85.245900,SO2,6,9,8
India,Bihar,Katihar,"Mirchaibari, Katihar - BSPCB",13-02-2024 21:00:00,25.560083,87.553265,NH3,3,6,4
India,Bihar,Katihar,"Mirchaibari, Katihar - BSPCB",13-02-2024 21:00:00,25.560083,87.553265,OZONE,15,21,20
India,Bihar,Kishanganj,"SDM Office_Khagra, Kishanganj - BSPCB",13-02-2024 21:00:00,26.0881305,87.93840336,OZONE,15,34,30
India,Bihar,Manguraha,"Forest Rest House, Manguraha - BSPCB",13-02-2024 21:00:00,27.308328,84.531742,NH3,1,3,2
India,Bihar,Motihari,"Gandak Colony, Motihari - BSPCB",13-02-2024 21:00:00,26.63086,84.90051,PM2.5,80,314,200
India,Bihar,Motihari,"Gandak Colony, Motihari - BSPCB",13-02-2024 21:00:00,26.63086,84.90051,SO2,2,90,11
India,Bihar,Munger,"Town Hall, Munger - BSPCB",13-02-2024 21:00:00,25.376776,86.471523,PM2.5,83,379,218
India,Bihar,Munger,"Town Hall, Munger - BSPCB",13-02-2024 21:00:00,25.376776,86.471523,NH3,1,2,2
India,Bihar,Muzaffarpur,"MIT-Daudpur Kothi, Muzaffarpur - BSPCB",13-02-2024 21:00:00,26.1403345,85.3650192,PM10,120,402,216
India,Bihar,Muzaffarpur,"MIT-Daudpur Kothi, Muzaffarpur - BSPCB",13-02-2024 21:00:00,26.1403345,85.3650192,NO2,5,8,7
India,Bihar,Muzaffarpur,"MIT-Daudpur Kothi, Muzaffarpur - BSPCB",13-02-2024 21:00:00,26.1403345,85.3650192,OZONE,6,72,44
India,Bihar,Muzaffarpur,"Muzaffarpur Collectorate, Muzaffarpur - BSPCB",13-02-2024 21:00:00,26.1209,85.3647,PM2.5,97,367,220
India,Bihar,Muzaffarpur,"Muzaffarpur Collectorate, Muzaffarpur - BSPCB",13-02-2024 21:00:00,26.1209,85.3647,NO2,3,11,8
India,Bihar,Muzaffarpur,"Muzaffarpur Collectorate, Muzaffarpur - BSPCB",13-02-2024 21:00:00,26.1209,85.3647,OZONE,11,67,45
India,Bihar,Patna,"DRM Office Danapur, Patna - BSPCB",13-02-2024 21:00:00,25.586562,85.043586,PM2.5,209,336,286
India,Bihar,Patna,"DRM Office Danapur, Patna - BSPCB",13-02-2024 21:00:00,25.586562,85.043586,NO2,22,76,46
India,Bihar,Patna,"Govt. High School Shikarpur, Patna - BSPCB",13-02-2024 21:00:00,25.592539,85.227158,NH3,2,4,3
India,Bihar,Patna,"Govt. High School Shikarpur, Patna - BSPCB",13-02-2024 21:00:00,25.592539,85.227158,SO2,2,7,5
India,Bihar,Patna,"IGSC Planetarium Complex, Patna - BSPCB",13-02-2024 21:00:00,25.610369,85.132568,OZONE,6,64,26
India,Bihar,Patna,"Muradpur, Patna - BSPCB",13-02-2024 21:00:00,25.619651,85.147382,PM10,201,479,315
India,Bihar,Patna,"Muradpur, Patna - BSPCB",13-02-2024 21:00:00,25.619651,85.147382,NO2,8,29,15
India,Bihar,Patna,"Rajbansi Nagar, Patna - BSPCB",13-02-2024 21:00:00,25.599486,85.113666,SO2,13,29,21
India,Bihar,Patna,"Samanpura, Patna - BSPCB",13-02-2024 21:00:00,25.596727,85.085624,SO2,15,18,16
India,Bihar,Purnia,"Mariam Nagar, Purnia - BSPCB",13-02-2024 21:00:00,25.366336,87.117468,PM2.5,97,332,247
India,Bihar,Purnia,"Mariam Nagar, Purnia - BSPCB",13-02-2024 21:00:00,25.366336,87.117468,OZONE,9,20,16
India,Bihar,Rajgir,"Dangi Tola, Rajgir - BSPCB",13-02-2024 21:00:00,25.03280,85.41948,PM2.5,NA,NA,NA
India,Bihar,Rajgir,"Dangi Tola, Rajgir - BSPCB",13-02-2024 21:00:00,25.03280,85.41948,SO2,NA,NA,NA
India,Bihar,Rajgir,"Dangi Tola, Rajgir - BSPCB",13-02-2024 21:00:00,25.03280,85.41948,CO,10,11,10
India,Bihar,Rajgir,"Dangi Tola, Rajgir - BSPCB",13-02-2024 21:00:00,25.03280,85.41948,OZONE,21,37,27
India,Bihar,Samastipur,"DM Office_Kasipur, Samastipur - BSPCB",13-02-2024 21:00:00,25.859655,85.77944,PM10,113,402,205
India,Bihar,Sasaram,"Dada Peer, Sasaram - BSPCB",13-02-2024 21:00:00,24.952822,84.002396,PM10,82,179,124
India,Bihar,Sasaram,"Dada Peer, Sasaram - BSPCB",13-02-2024 21:00:00,24.952822,84.002396,SO2,16,47,32
India,Bihar,Sasaram,"Dada Peer, Sasaram - BSPCB",13-02-2024 21:00:00,24.952822,84.002396,OZONE,4,4,4
India,Chandigarh,Chandigarh,"Sector 22, Chandigarh - CPCC",13-02-2024 21:00:00,30.735567,76.775714,OZONE,3,177,110
India,Chandigarh,Chandigarh,"Sector-25, Chandigarh - CPCC",13-02-2024 21:00:00,30.751462,76.762879,NO2,19,60,33
India,Chandigarh,Chandigarh,"Sector-53, Chandigarh - CPCC",13-02-2024 21:00:00,30.719859,76.738637,PM2.5,147,418,285
India,Chandigarh,Chandigarh,"Sector-53, Chandigarh - CPCC",13-02-2024 21:00:00,30.719859,76.738637,OZONE,2,70,52
India,Chhattisgarh,Bhilai,"32Bungalows, Bhilai - CECB",13-02-2024 21:00:00,21.194815,81.314770,PM2.5,34,71,53
India,Chhattisgarh,Bhilai,"Civic Center, Bhilai - Bhilai Steel Plant",13-02-2024 21:00:00,21.185571,81.343175,PM2.5,NA,NA,NA
India,Chhattisgarh,Bhilai,"Civic Center, Bhilai - Bhilai Steel Plant",13-02-2024 21:00:00,21.185571,81.343175,PM10,NA,NA,NA
India,Chhattisgarh,Bhilai,"Civic Center, Bhilai - Bhilai Steel Plant",13-02-2024 21:00:00,21.185571,81.343175,NO2,NA,NA,NA
India,Chhattisgarh,Bhilai,"Civic Center, Bhilai - Bhilai Steel Plant",13-02-2024 21:00:00,21.185571,81.343175,OZONE,9,48,31
India,Chhattisgarh,Bhilai,"Hathkhoj, Bhilai - CECB",13-02-2024 21:00:00,21.224231,81.408350,PM10,74,131,97
India,Chhattisgarh,Bhilai,"Hathkhoj, Bhilai - CECB",13-02-2024 21:00:00,21.224231,81.408350,CO,12,54,23
India,Chhattisgarh,Bhilai,"Hathkhoj, Bhilai - CECB",13-02-2024 21:00:00,21.224231,81.408350,OZONE,9,27,20
India,Chhattisgarh,Bilaspur,"Mangala, Bilaspur - NTPC",13-02-2024 21:00:00,22.08815,82.13737,SO2,2,35,17
India,Chhattisgarh,Chhal,"Nawapara SECL Colony, Chhal - CECB",13-02-2024 21:00:00,22.118125,83.140608,PM10,18,142,66
India,Chhattisgarh,Chhal,"Nawapara SECL Colony, Chhal - CECB",13-02-2024 21:00:00,22.118125,83.140608,NO2,12,68,29
India,Chhattisgarh,Korba,"Urja Nagar, Korba - CECB",13-02-2024 21:00:00,22.348441,82.549611,PM2.5,2,56,17
India,Chhattisgarh,Korba,"Urja Nagar, Korba - CECB",13-02-2024 21:00:00,22.348441,82.549611,PM10,32,80,58
India,Chhattisgarh,Korba,"Urja Nagar, Korba - CECB",13-02-2024 21:00:00,22.348441,82.549611,NH3,1,10,8
India,Chhattisgarh,Korba,"Urja Nagar, Korba - CECB",13-02-2024 21:00:00,22.348441,82.549611,CO,30,64,36
India,Chhattisgarh,Kunjemura,"OP Jindal School, Kunjemura - CECB",13-02-2024 21:00:00,22.126650,83.483212,PM10,21,180,48
India,Chhattisgarh,Kunjemura,"OP Jindal School, Kunjemura - CECB",13-02-2024 21:00:00,22.126650,83.483212,NH3,1,5,2
India,Chhattisgarh,Kunjemura,"OP Jindal School, Kunjemura - CECB",13-02-2024 21:00:00,22.126650,83.483212,CO,32,84,51
India,Chhattisgarh,Kunjemura,"OP Jindal School, Kunjemura - CECB",13-02-2024 21:00:00,22.126650,83.483212,OZONE,4,61,43
India,Chhattisgarh,Raipur,"AIIMS, Raipur - CECB",13-02-2024 21:00:00,21.258815,81.578979,NO2,38,63,51
India,Chhattisgarh,Raipur,"AIIMS, Raipur - CECB",13-02-2024 21:00:00,21.258815,81.578979,OZONE,1,43,14
India,Chhattisgarh,Raipur,"Bhatagaon New ISBT, Raipur - CECB",13-02-2024 21:00:00,21.219665,81.630094,CO,NA,NA,NA
India,Chhattisgarh,Raipur,"Krishak Nagar, Raipur - CECB",13-02-2024 21:00:00,21.237755,81.705301,PM10,45,75,60
India,Chhattisgarh,Raipur,"Siltara Phase-II, Raipur - CECB",13-02-2024 21:00:00,21.371751,81.664929,NH3,2,3,3
India,Chhattisgarh,Raipur,"Siltara Phase-II, Raipur - CECB",13-02-2024 21:00:00,21.371751,81.664929,OZONE,3,14,7
India,Chhattisgarh,Tumidih,"OP Jindal Industrial Park, Tumidih - CECB",13-02-2024 21:00:00,22.06631475,83.33820077,NH3,1,3,2
India,Chhattisgarh,Tumidih,"OP Jindal Industrial Park, Tumidih - CECB",13-02-2024 21:00:00,22.06631475,83.33820077,SO2,5,10,6
India,Chhattisgarh,Tumidih,"OP Jindal Industrial Park, Tumidih - CECB",13-02-2024 21:00:00,22.06631475,83.33820077,OZONE,5,65,45
India,Delhi,Delhi,"Alipur, Delhi - DPCC",13-02-2024 21:00:00,28.815329,77.153010,SO2,7,15,10
India,Delhi,Delhi,"Anand Vihar, Delhi - DPCC",13-02-2024 21:00:00,28.647622,77.3158090,OZONE,18,23,19
India,Delhi,Delhi,"Ashok Vihar, Delhi - DPCC",13-02-2024 21:00:00,28.695381,77.181665,NH3,10,12,11
India,Delhi,Delhi,"Bawana, Delhi - DPCC",13-02-2024 21:00:00,28.776200,77.051074,PM2.5,324,471,386
India,Delhi,Delhi,"Burari Crossing, Delhi - IMD",13-02-2024 21:00:00,28.7256504,77.2011573,PM2.5,NA,NA,NA
India,Delhi,Delhi,"CRRI Mathura Road, Delhi - IMD",13-02-2024 21:00:00,28.5512005,77.2735737,NO2,21,58,40
India,Delhi,Delhi,"DTU, Delhi - CPCB",13-02-2024 21:00:00,28.7500499,77.1112615,NO2,2,97,42
India,Delhi,Delhi,"DTU, Delhi - CPCB",13-02-2024 21:00:00,28.7500499,77.1112615,CO,35,70,48
India,Delhi,Delhi,"Dr. Karni Singh Shooting Range, Delhi - DPCC",13-02-2024 21:00:00,28.498571,77.264840,OZONE,1,165,105
India,Delhi,Delhi,"Dwarka-Sector 8, Delhi - DPCC ",13-02-2024 21:00:00,28.5710274,77.0719006,PM2.5,318,439,385
India,Delhi,Delhi,"Dwarka-Sector 8, Delhi - DPCC ",13-02-2024 21:00:00,28.5710274,77.0719006,OZONE,1,64,27
India,Delhi,Delhi,"IGI Airport (T3), Delhi - IMD",13-02-2024 21:00:00,28.5627763,77.1180053,NO2,35,100,68
India,Delhi,Delhi,"IGI Airport (T3), Delhi - IMD",13-02-2024 21:00:00,28.5627763,77.1180053,CO,24,108,41
India,Delhi,Delhi,"IHBAS, Dilshad Garden, Delhi - CPCB",13-02-2024 21:00:00,28.6811736,77.3025234,NO2,12,36,24
India,Delhi,Delhi,"IHBAS, Dilshad Garden, Delhi - CPCB",13-02-2024 21:00:00,28.6811736,77.3025234,OZONE,5,51,34
India,Delhi,Delhi,"Jahangirpuri, Delhi - DPCC",13-02-2024 21:00:00,28.732820,77.170633,PM2.5,329,488,398
India,Delhi,Delhi,"Jahangirpuri, Delhi - DPCC",13-02-2024 21:00:00,28.732820,77.170633,NH3,16,72,34
India,Delhi,Delhi,"Jawaharlal Nehru Stadium, Delhi - DPCC",13-02-2024 21:00:00,28.580280,77.233829,NO2,61,176,106
India,Delhi,Delhi,"Jawaharlal Nehru Stadium, Delhi - DPCC",13-02-2024 21:00:00,28.580280,77.233829,CO,40,112,67
India,Delhi,Delhi,"Lodhi Road, Delhi - IITM",13-02-2024 21:00:00,28.588333,77.221667,NO2,66,136,96
India,Delhi,Delhi,"Major Dhyan Chand National Stadium, Delhi - DPCC",13-02-2024 21:00:00,28.611281,77.237738,PM2.5,278,434,365
India,Delhi,Delhi,"Major Dhyan Chand National Stadium, Delhi - DPCC",13-02-2024 21:00:00,28.611281,77.237738,SO2,4,23,15
India,Delhi,Delhi,"Mandir Marg, Delhi - DPCC",13-02-2024 21:00:00,28.636429,77.201067,PM10,166,413,268
India,Delhi,Delhi,"Mandir Marg, Delhi - DPCC",13-02-2024 21:00:00,28.636429,77.201067,NO2,97,166,124
India,Delhi,Delhi,"Najafgarh, Delhi - DPCC",13-02-2024 21:00:00,28.570173,76.933762,SO2,6,14,10
India,Delhi,Delhi,"Najafgarh, Delhi - DPCC",13-02-2024 21:00:00,28.570173,76.933762,OZONE,1,168,107
India,Delhi,Delhi,"Narela, Delhi - DPCC",13-02-2024 21:00:00,28.822836,77.101981,PM10,190,410,281
India,Delhi,Delhi,"Narela, Delhi - DPCC",13-02-2024 21:00:00,28.822836,77.101981,CO,36,104,60
India,Delhi,Delhi,"Nehru Nagar, Delhi - DPCC",13-02-2024 21:00:00,28.567890,77.250515,NO2,12,52,29
India,Delhi,Delhi,"Nehru Nagar, Delhi - DPCC",13-02-2024 21:00:00,28.567890,77.250515,NH3,10,24,17
India,Delhi,Delhi,"Nehru Nagar, Delhi - DPCC",13-02-2024 21:00:00,28.567890,77.250515,SO2,3,22,12
India,Delhi,Delhi,"North Campus, DU, Delhi - IMD",13-02-2024 21:00:00,28.6573814,77.1585447,PM2.5,301,424,359
India,Delhi,Delhi,"North Campus, DU, Delhi - IMD",13-02-2024 21:00:00,28.6573814,77.1585447,NO2,31,61,46
India,Delhi,Delhi,"Okhla Phase-2, Delhi - DPCC",13-02-2024 21:00:00,28.530785,77.271255,OZONE,10,97,55
India,Delhi,Delhi,"Patparganj, Delhi - DPCC",13-02-2024 21:00:00,28.623763,77.287209,NO2,41,94,64
India,Delhi,Delhi,"Punjabi Bagh, Delhi - DPCC",13-02-2024 21:00:00,28.674045,77.131023,SO2,3,35,18
India,Delhi,Delhi,"Pusa, Delhi - DPCC",13-02-2024 21:00:00,28.639652,77.146275,NO2,85,412,169
India,Delhi,Delhi,"Pusa, Delhi - DPCC",13-02-2024 21:00:00,28.639652,77.146275,CO,16,110,71
India,Delhi,Delhi,"Pusa, Delhi - IMD",13-02-2024 21:00:00,28.636110,77.173332,PM2.5,NA,NA,NA
India,Delhi,Delhi,"Pusa, Delhi - IMD",13-02-2024 21:00:00,28.636110,77.173332,NO2,NA,NA,NA
India,Delhi,Delhi,"R K Puram, Delhi - DPCC",13-02-2024 21:00:00,28.563262,77.186937,PM2.5,267,459,378
India,Delhi,Delhi,"R K Puram, Delhi - DPCC",13-02-2024 21:00:00,28.563262,77.186937,PM10,139,422,300
India,Delhi,Delhi,"R K Puram, Delhi - DPCC",13-02-2024 21:00:00,28.563262,77.186937,NH3,NA,NA,NA
India,Delhi,Delhi,"Rohini, Delhi - DPCC",13-02-2024 21:00:00,28.732528,77.119920,NO2,30,98,61
India,Delhi,Delhi,"Rohini, Delhi - DPCC",13-02-2024 21:00:00,28.732528,77.119920,SO2,6,29,15
India,Delhi,Delhi,"Shadipur, Delhi - CPCB",13-02-2024 21:00:00,28.6514781,77.1473105,PM2.5,320,407,354
India,Delhi,Delhi,"Shadipur, Delhi - CPCB",13-02-2024 21:00:00,28.6514781,77.1473105,PM10,256,416,365
India,Delhi,Delhi,"Shadipur, Delhi - CPCB",13-02-2024 21:00:00,28.6514781,77.1473105,NO2,44,59,53
India,Delhi,Delhi,"Sirifort, Delhi - CPCB",13-02-2024 21:00:00,28.5504249,77.2159377,PM10,52,116,95
India,Delhi,Delhi,"Sirifort, Delhi - CPCB",13-02-2024 21:00:00,28.5504249,77.2159377,CO,36,108,55
India,Delhi,Delhi,"Sonia Vihar, Delhi - DPCC",13-02-2024 21:00:00,28.710508,77.249485,PM2.5,319,437,364
India,Delhi,Delhi,"Sonia Vihar, Delhi - DPCC",13-02-2024 21:00:00,28.710508,77.249485,OZONE,4,220,112
India,Delhi,Delhi,"Sri Aurobindo Marg, Delhi - DPCC",13-02-2024 21:00:00,28.531346,77.190156,CO,23,122,36
India,Delhi,Delhi,"Sri Aurobindo Marg, Delhi - DPCC",13-02-2024 21:00:00,28.531346,77.190156,OZONE,2,33,19
India,Delhi,Delhi,"Vivek Vihar, Delhi - DPCC",13-02-2024 21:00:00,28.672342,77.315260,PM2.5,339,500,402
India,Delhi,Delhi,"Vivek Vihar, Delhi - DPCC",13-02-2024 21:00:00,28.672342,77.315260,NH3,5,10,8
India,Delhi,Delhi,"Vivek Vihar, Delhi - DPCC",13-02-2024 21:00:00,28.672342,77.315260,OZONE,2,35,19
India,Delhi,Delhi,"Wazirpur, Delhi - DPCC",13-02-2024 21:00:00,28.699793,77.165453,NH3,5,9,7
India,Gujarat,Ahmedabad,"Gyaspur, Ahmedabad - IITM",13-02-2024 21:00:00,22.977134,72.553024,PM2.5,60,304,163
India,Gujarat,Ahmedabad,"Raikhad, Ahmedabad - IITM",13-02-2024 21:00:00,23.020509,72.579261,PM2.5,127,287,207
India,Gujarat,Ahmedabad,"SAC ISRO Bopal, Ahmedabad - IITM",13-02-2024 21:00:00,23.041137,72.456691,SO2,9,12,10
India,Gujarat,Ahmedabad,"SAC ISRO Satellite, Ahmedabad - IITM",13-02-2024 21:00:00,23.023389,72.515201,NO2,17,17,17
India,Gujarat,Ahmedabad,"Sardar Vallabhbhai Patel Stadium, Ahmedabad - IITM",13-02-2024 21:00:00,23.043070,72.562968,CO,16,41,26
India,Gujarat,Ankleshwar,"GIDC, Ankleshwar - GPCB",13-02-2024 21:00:00,21.613267,73.010555,PM2.5,85,307,159
India,Gujarat,Gandhinagar,"GIFT City, Gandhinagar - IITM",13-02-2024 21:00:00,23.163798,72.677768,PM2.5,61,231,101
India,Gujarat,Gandhinagar,"GIFT City, Gandhinagar - IITM",13-02-2024 21:00:00,23.163798,72.677768,OZONE,14,26,20
India,Gujarat,Gandhinagar,"IIPHG Lekawada, Gandhinagar - IITM",13-02-2024 21:00:00,23.243639,72.68994,NO2,16,17,16
India,Gujarat,Vatva,"Phase-4 GIDC, Vatva - GPCB",13-02-2024 21:00:00,22.969611,72.643500,NO2,28,181,59
India,Gujarat,Vatva,"Phase-4 GIDC, Vatva - GPCB",13-02-2024 21:00:00,22.969611,72.643500,SO2,17,17,17
India,Haryana,Ambala,"Patti Mehar, Ambala - HSPCB",13-02-2024 21:00:00,30.379589,76.778328,SO2,2,11,8
India,Haryana,Ambala,"Patti Mehar, Ambala - HSPCB",13-02-2024 21:00:00,30.379589,76.778328,OZONE,19,41,33
India,Haryana,Bahadurgarh,"Arya Nagar, Bahadurgarh - HSPCB",13-02-2024 21:00:00,28.6701,76.9254,CO,37,57,49
India,Haryana,Ballabgarh,"Nathu Colony, Ballabgarh - HSPCB",13-02-2024 21:00:00,28.3419248,77.319699,PM10,192,406,270
India,Haryana,Bhiwani,"H.B. Colony, Bhiwani - HSPCB",13-02-2024 21:00:00,28.806223,76.141105,PM2.5,177,299,214
India,Haryana,Dharuhera,"Municipal Corporation Office, Dharuhera -  HSPCB",13-02-2024 21:00:00,28.206800,76.799700,SO2,3,13,7
India,Haryana,Faridabad,"Sector 11, Faridabad - HSPCB",13-02-2024 21:00:00,28.376058,77.315741,SO2,10,19,16
India,Haryana,Faridabad,"Sector 30, Faridabad - HSPCB",13-02-2024 21:00:00,28.4417,77.3217,PM2.5,145,189,169
India,Haryana,Faridabad,"Sector 30, Faridabad - HSPCB",13-02-2024 21:00:00,28.4417,77.3217,NH3,9,9,9
India,Haryana,Faridabad,"Sector 30, Faridabad - HSPCB",13-02-2024 21:00:00,28.4417,77.3217,CO,2,127,50
India,Haryana,Fatehabad,"Huda Sector, Fatehabad - HSPCB",13-02-2024 21:00:00,29.503664,75.467934,CO,5,13,7
India,Haryana,Gurugram,"Sector-51, Gurugram - HSPCB",13-02-2024 21:00:00,28.4227,77.0667,SO2,1,4,3
India,Haryana,Gurugram,"Sector-51, Gurugram - HSPCB",13-02-2024 21:00:00,28.4227,77.0667,CO,48,111,68
India,Haryana,Gurugram,"Teri Gram, Gurugram - HSPCB",13-02-2024 21:00:00,28.4275,77.1465,NO2,20,59,40
India,Haryana,Gurugram,"Teri Gram, Gurugram - HSPCB",13-02-2024 21:00:00,28.4275,77.1465,NH3,28,48,39
India,Haryana,Gurugram,"Vikas Sadan, Gurugram - HSPCB",13-02-2024 21:00:00,28.4501238,77.0263051,PM2.5,165,328,247
India,Haryana,Gurugram,"Vikas Sadan, Gurugram - HSPCB",13-02-2024 21:00:00,28.4501238,77.0263051,NO2,5,26,14
India,Haryana,Hisar,"Urban Estate-II, Hisar - HSPCB",13-02-2024 21:00:00,29.140560,75.744941,OZONE,22,172,125
India,Haryana,Jind,"Police Lines, Jind - HSPCB",13-02-2024 21:00:00,29.307814,76.337619,SO2,4,29,11
India,Haryana,Jind,"Police Lines, Jind - HSPCB",13-02-2024 21:00:00,29.307814,76.337619,CO,2,123,15
India,Haryana,Jind,"Police Lines, Jind - HSPCB",13-02-2024 21:00:00,29.307814,76.337619,OZONE,1,22,20
India,Haryana,Kaithal,"Rishi Nagar, Kaithal - HSPCB",13-02-2024 21:00:00,29.8006,76.4155,PM10,153,231,177
India,Haryana,Kaithal,"Rishi Nagar, Kaithal - HSPCB",13-02-2024 21:00:00,29.8006,76.4155,SO2,4,30,13
India,Haryana,Kaithal,"Rishi Nagar, Kaithal - HSPCB",13-02-2024 21:00:00,29.8006,76.4155,OZONE,4,16,14
India,Haryana,Karnal,"Sector-12, Karnal - HSPCB",13-02-2024 21:00:00,29.695300,77.002700,PM10,94,129,111
India,Haryana,Karnal,"Sector-12, Karnal - HSPCB",13-02-2024 21:00:00,29.695300,77.002700,NH3,10,13,11
India,Haryana,Kurukshetra,"Sector-7, Kurukshetra - HSPCB",13-02-2024 21:00:00,29.966942,76.875879,CO,20,56,26
India,Haryana,Manesar,"Sector-2 IMT, Manesar - HSPCB",13-02-2024 21:00:00,28.360699,76.936090,PM2.5,95,409,313
India,Haryana,Narnaul,"Shastri Nagar, Narnaul - HSPCB",13-02-2024 21:00:00,28.060249,76.113115,PM2.5,74,234,132
India,Haryana,Narnaul,"Shastri Nagar, Narnaul - HSPCB",13-02-2024 21:00:00,28.060249,76.113115,NH3,5,18,11
India,Haryana,Narnaul,"Shastri Nagar, Narnaul - HSPCB",13-02-2024 21:00:00,28.060249,76.113115,CO,4,29,14
India,Haryana,Narnaul,"Shastri Nagar, Narnaul - HSPCB",13-02-2024 21:00:00,28.060249,76.113115,OZONE,25,79,58
India,Haryana,Palwal,"Shyam Nagar, Palwal - HSPCB",13-02-2024 21:00:00,28.1485564,77.3320667,PM2.5,78,309,183
India,Haryana,Palwal,"Shyam Nagar, Palwal - HSPCB",13-02-2024 21:00:00,28.1485564,77.3320667,OZONE,2,65,28
India,Haryana,Sirsa,"F-Block, Sirsa - HSPCB",13-02-2024 21:00:00,29.536400,75.015800,PM2.5,83,303,153
India,Haryana,Sirsa,"F-Block, Sirsa - HSPCB",13-02-2024 21:00:00,29.536400,75.015800,NO2,10,10,10
India,Haryana,Sonipat,"Murthal, Sonipat - HSPCB",13-02-2024 21:00:00,29.027200,77.062100,PM10,104,178,136
India,Haryana,Sonipat,"Murthal, Sonipat - HSPCB",13-02-2024 21:00:00,29.027200,77.062100,OZONE,16,36,31
India,Haryana,Yamuna Nagar,"Gobind Pura, Yamuna Nagar - HSPCB",13-02-2024 21:00:00,30.1480566,77.2893471,NO2,2,128,12
India,Haryana,Yamuna Nagar,"Gobind Pura, Yamuna Nagar - HSPCB",13-02-2024 21:00:00,30.1480566,77.2893471,CO,2,112,35
India,Jharkhand,Dhanbad,"Kalakusuma, Dhanbad - DMC",13-02-2024 21:00:00,23.811548,86.481238,PM2.5,37,80,45
India,Jharkhand,Dhanbad,"Kalakusuma, Dhanbad - DMC",13-02-2024 21:00:00,23.811548,86.481238,PM10,76,81,78
India,Jharkhand,Dhanbad,"Kalakusuma, Dhanbad - DMC",13-02-2024 21:00:00,23.811548,86.481238,OZONE,42,42,42
India,Jharkhand,Dhanbad,"Sardar Patel Nagar, Dhanbad - JSPCB",13-02-2024 21:00:00,23.80569,86.44268,NO2,NA,NA,NA
India,Jharkhand,Pathardih,"Mohalbani Ghat, Pathardih - DMC",13-02-2024 21:00:00,23.669880,86.411725,NO2,NA,NA,NA
India,Jharkhand,Pathardih,"Mohalbani Ghat, Pathardih - DMC",13-02-2024 21:00:00,23.669880,86.411725,OZONE,15,20,18
India,Karnataka,Bengaluru,"BTM Layout, Bengaluru - CPCB",13-02-2024 21:00:00,12.9135218,77.5950804,CO,36,38,37
India,Karnataka,Bengaluru,"Bapuji Nagar, Bengaluru - KSPCB",13-02-2024 21:00:00,12.951913,77.539784,PM2.5,44,174,82
India,Karnataka,Bengaluru,"Bapuji Nagar, Bengaluru - KSPCB",13-02-2024 21:00:00,12.951913,77.539784,CO,28,42,32
India,Karnataka,Bengaluru,"Hebbal, Bengaluru - KSPCB",13-02-2024 21:00:00,13.029152,77.585901,PM10,NA,NA,NA
India,Karnataka,Bengaluru,"Jigani, Bengaluru - KSPCB",13-02-2024 21:00:00,12.7816279,77.6299145,SO2,16,16,16
India,Karnataka,Bengaluru,"Kasturi Nagar, Bengaluru - KSPCB",13-02-2024 21:00:00,13.003872,77.664217,NH3,3,4,4
India,Karnataka,Bengaluru,"Kasturi Nagar, Bengaluru - KSPCB",13-02-2024 21:00:00,13.003872,77.664217,OZONE,32,92,57
India,Karnataka,Bengaluru,"Peenya, Bengaluru - CPCB",13-02-2024 21:00:00,13.0270199,77.494094,PM10,43,68,55
India,Karnataka,Bengaluru,"Sanegurava Halli, Bengaluru - KSPCB",13-02-2024 21:00:00,12.990328,77.5431385,SO2,1,3,2
India,Karnataka,Bengaluru,"Sanegurava Halli, Bengaluru - KSPCB",13-02-2024 21:00:00,12.990328,77.5431385,CO,8,26,19
India,Karnataka,Bengaluru,"Silk Board, Bengaluru - KSPCB",13-02-2024 21:00:00,12.917348,77.622813,NO2,22,28,24
India,Karnataka,Bidar,"Naubad, Bidar - KSPCB",13-02-2024 21:00:00,17.930306,77.482194,PM10,56,95,76
India,Karnataka,Chamarajanagar,"Urban, Chamarajanagar - KSPCB",13-02-2024 21:00:00,11.55358,76.55521,PM10,35,63,46
India,Karnataka,Chikkaballapur,"Chikkaballapur Rural, Chikkaballapur - KSPCB",13-02-2024 21:00:00,13.428828,77.731418,NO2,2,6,3
India,Karnataka,Chikkaballapur,"Chikkaballapur Rural, Chikkaballapur - KSPCB",13-02-2024 21:00:00,13.428828,77.731418,CO,NA,NA,NA
India,Karnataka,Chikkamagaluru,"Kalyana Nagara, Chikkamagaluru - KSPCB",13-02-2024 21:00:00,13.328028,75.797056,NO2,17,28,23
India,Karnataka,Dharwad,"Kalabhavan, Dharwad - KSPCB",13-02-2024 21:00:00,15.459706,75.008381,NH3,3,3,3
India,Karnataka,Dharwad,"Kalabhavan, Dharwad - KSPCB",13-02-2024 21:00:00,15.459706,75.008381,CO,26,154,72
India,Karnataka,Gadag,"Panchal Nagar, Gadag - KSPCB",13-02-2024 21:00:00,15.411456,75.638133,CO,38,46,40
India,Karnataka,Gadag,"Panchal Nagar, Gadag - KSPCB",13-02-2024 21:00:00,15.411456,75.638133,OZONE,38,66,60
India,Karnataka,Hassan,"B.Katihalli, Hassan - KSPCB",13-02-2024 21:00:00,13.008556,76.125258,NH3,1,3,2
India,Karnataka,Hassan,"B.Katihalli, Hassan - KSPCB",13-02-2024 21:00:00,13.008556,76.125258,CO,3,10,7
India,Karnataka,Haveri,"Ashwini Nagar, Haveri - KSPCB",13-02-2024 21:00:00,14.791800,75.389600,SO2,NA,NA,NA
India,Karnataka,Haveri,"Ashwini Nagar, Haveri - KSPCB",13-02-2024 21:00:00,14.791800,75.389600,OZONE,18,32,23
India,Karnataka,Kalaburagi,"Mahatma Basaveswar Colony, Kalaburgi - KSPCB",13-02-2024 21:00:00,17.336318,76.847397,PM10,42,72,48
India,Karnataka,Kalaburagi,"Mahatma Basaveswar Colony, Kalaburgi - KSPCB",13-02-2024 21:00:00,17.336318,76.847397,NO2,10,27,15
India,Karnataka,Kalaburagi,"Mahatma Basaveswar Colony, Kalaburgi - KSPCB",13-02-2024 21:00:00,17.336318,76.847397,CO,33,50,39
India,Karnataka,Karwar,"KHB Colony, Karwar - KSPCB",13-02-2024 21:00:00,14.816666,74.141003,PM10,71,139,96
India,Karnataka,Karwar,"KHB Colony, Karwar - KSPCB",13-02-2024 21:00:00,14.816666,74.141003,OZONE,21,22,22
India,Karnataka,Koppal,"Diwator Nagar, Koppal - KSPCB",13-02-2024 21:00:00,15.347630,76.181767,PM10,26,84,49
India,Karnataka,Madikeri,"Stuart Hill, Madikeri - KSPCB",13-02-2024 21:00:00,12.415911,75.735050,PM10,18,53,40
India,Karnataka,Mangalore,"Kadri, Mangalore - KSPCB",13-02-2024 21:00:00,12.889250,74.853000,CO,44,56,45
India,Karnataka,Mangalore,"Kadri, Mangalore - KSPCB",13-02-2024 21:00:00,12.889250,74.853000,OZONE,30,32,32
India,Karnataka,Mysuru,"Hebbal 1st Stage, Mysuru - KSPCB",13-02-2024 21:00:00,12.21041,76.37376,PM10,40,56,50
India,Karnataka,Ramanagara,"Vijay Nagar, Ramanagara - KSPCB",13-02-2024 21:00:00,12.733409,77.298051,CO,4,31,17
India,Karnataka,Tumakuru,"Thimmalapura, Tumakuru - KSPCB",13-02-2024 21:00:00,13.377516,77.099072,PM10,13,37,23
India,Karnataka,Udupi,"Brahmagiri, Udupi - KSPCB",13-02-2024 21:00:00,13.34194444,74.74694444,CO,42,49,43
India,Karnataka,Yadgir,"Collector Office, Yadgir - KSPCB",13-02-2024 21:00:00,16.7602,77.1428,PM10,NA,NA,NA
India,Kerala,Kannur,"Thavakkara, Kannur - Kerala PCB",13-02-2024 21:00:00,11.875000,75.373200,NO2,6,7,6
India,Kerala,Kannur,"Thavakkara, Kannur - Kerala PCB",13-02-2024 21:00:00,11.875000,75.373200,SO2,5,6,5
India,Kerala,Kochi,"Vyttila, Kochi - Kerala PCB",13-02-2024 21:00:00,9.969447,76.321186,NO2,2,14,5
India,Kerala,Kollam,"Polayathode, Kollam - Kerala PCB",13-02-2024 21:00:00,8.8787,76.6073,NO2,8,9,8
India,Kerala,Kollam,"Polayathode, Kollam - Kerala PCB",13-02-2024 21:00:00,8.8787,76.6073,SO2,1,8,2
India,Kerala,Thiruvananthapuram,"Kariavattom, Thiruvananthapuram - Kerala PCB",13-02-2024 21:00:00,8.563700,76.886500,PM2.5,73,83,78
India,Kerala,Thiruvananthapuram,"Kariavattom, Thiruvananthapuram - Kerala PCB",13-02-2024 21:00:00,8.563700,76.886500,SO2,2,13,8
India,Kerala,Thiruvananthapuram,"Plammoodu, Thiruvananthapuram - Kerala PCB",13-02-2024 21:00:00,8.5149093,76.9435879,PM2.5,11,59,31
India,Kerala,Thiruvananthapuram,"Plammoodu, Thiruvananthapuram - Kerala PCB",13-02-2024 21:00:00,8.5149093,76.9435879,NO2,10,12,11
India,Madhya Pradesh,Bhopal,"Idgah Hills, Bhopal - MPPCB",13-02-2024 21:00:00,23.264759,77.381568,PM10,115,184,148
India,Madhya Pradesh,Bhopal,"Paryavaran Parisar, Bhopal - MPPCB",13-02-2024 21:00:00,23.210494,77.425409,NO2,23,93,42
India,Madhya Pradesh,Bhopal,"Paryavaran Parisar, Bhopal - MPPCB",13-02-2024 21:00:00,23.210494,77.425409,CO,24,104,48
India,Madhya Pradesh,Bhopal,"T T Nagar, Bhopal - MPPCB",13-02-2024 21:00:00,23.233584,77.400574,PM10,127,201,152
India,Madhya Pradesh,Dewas,"Bhopal Chauraha, Dewas - MPPCB",13-02-2024 21:00:00,22.9682591,76.064118,PM2.5,102,287,183
India,Madhya Pradesh,Dewas,"Bhopal Chauraha, Dewas - MPPCB",13-02-2024 21:00:00,22.9682591,76.064118,NH3,3,3,3
India,Madhya Pradesh,Dewas,"Bhopal Chauraha, Dewas - MPPCB",13-02-2024 21:00:00,22.9682591,76.064118,SO2,11,69,37
India,Madhya Pradesh,Dewas,"Bhopal Chauraha, Dewas - MPPCB",13-02-2024 21:00:00,22.9682591,76.064118,OZONE,19,49,35
India,Madhya Pradesh,Gwalior,"City Center, Gwalior - MPPCB",13-02-2024 21:00:00,26.203442,78.193251,PM2.5,59,319,213
India,Madhya Pradesh,Gwalior,"City Center, Gwalior - MPPCB",13-02-2024 21:00:00,26.203442,78.193251,NH3,6,8,7
India,Madhya Pradesh,Gwalior,"Deen Dayal Nagar, Gwalior - MPPCB",13-02-2024 21:00:00,26.259242,78.216432,CO,20,141,79
India,Madhya Pradesh,Gwalior,"Maharaj Bada, Gwalior - MPPCB",13-02-2024 21:00:00,26.200388,78.147714,NO2,27,109,61
India,Madhya Pradesh,Gwalior,"Phool Bagh, Gwalior - Mondelez Ind. Food",13-02-2024 21:00:00,26.210536,78.171,CO,34,48,35
India,Madhya Pradesh,Indore,"Chhoti Gwaltoli, Indore - MPPCB",13-02-2024 21:00:00,22.4310,75.5213,CO,50,107,77
India,Madhya Pradesh,Indore,"Maguda Nagar, Indore - IMC",13-02-2024 21:00:00,22.7524,75.8872,PM10,NA,NA,NA
India,Madhya Pradesh,Indore,"Maguda Nagar, Indore - IMC",13-02-2024 21:00:00,22.7524,75.8872,NH3,NA,NA,NA
India,Madhya Pradesh,Indore,"Maguda Nagar, Indore - IMC",13-02-2024 21:00:00,22.7524,75.8872,SO2,NA,NA,NA
India,Madhya Pradesh,Indore,"Maguda Nagar, Indore - IMC",13-02-2024 21:00:00,22.7524,75.8872,OZONE,36,43,40
India,Madhya Pradesh,Indore,"Regional Park, Indore - IMC",13-02-2024 21:00:00,22.6780,75.8559,CO,20,44,24
India,Madhya Pradesh,Indore,"Residency Area, Indore - IMC",13-02-2024 21:00:00,22.7084,75.8815,CO,14,18,14
India,Madhya Pradesh,Jabalpur,"Govindh Bhavan Colony, Jabalpur - JMC",13-02-2024 21:00:00,23.163174,79.973061,PM2.5,45,92,66
India,Madhya Pradesh,Jabalpur,"Govindh Bhavan Colony, Jabalpur - JMC",13-02-2024 21:00:00,23.163174,79.973061,NO2,11,22,16
India,Madhya Pradesh,Jabalpur,"Govindh Bhavan Colony, Jabalpur - JMC",13-02-2024 21:00:00,23.163174,79.973061,OZONE,18,104,72
India,Madhya Pradesh,Jabalpur,"Gupteshwar, Jabalpur - JMC",13-02-2024 21:00:00,23.142888,79.916147,CO,28,109,49
India,Madhya Pradesh,Jabalpur,"Marhatal, Jabalpur - MPPCB",13-02-2024 21:00:00,23.168606,79.932247,PM2.5,61,172,105
India,Madhya Pradesh,Jabalpur,"Suhagi, Jabalpur - JMC",13-02-2024 21:00:00,23.218135,79.957770,PM10,NA,NA,NA
India,Madhya Pradesh,Jabalpur,"Suhagi, Jabalpur - JMC",13-02-2024 21:00:00,23.218135,79.957770,CO,16,108,76
India,Madhya Pradesh,Katni,"Gole Bazar, Katni - MPPCB",13-02-2024 21:00:00,23.50016,80.23284,NH3,NA,NA,NA
India,Madhya Pradesh,Katni,"Gole Bazar, Katni - MPPCB",13-02-2024 21:00:00,23.50016,80.23284,CO,17,104,55
India,Madhya Pradesh,Katni,"Gole Bazar, Katni - MPPCB",13-02-2024 21:00:00,23.50016,80.23284,OZONE,15,75,38
India,Madhya Pradesh,Maihar,"Sahilara, Maihar - KJS Cements",13-02-2024 21:00:00,24.2613009,80.7231783,NO2,14,14,14
India,Madhya Pradesh,Mandideep,"Sector-D Industrial Area, Mandideep - MPPCB",13-02-2024 21:00:00,23.108440,77.511428,PM2.5,113,311,240
India,Madhya Pradesh,Mandideep,"Sector-D Industrial Area, Mandideep - MPPCB",13-02-2024 21:00:00,23.108440,77.511428,OZONE,32,67,54
India,Madhya Pradesh,Pithampur,"Sector-2 Industrial Area, Pithampur - MPPCB",13-02-2024 21:00:00,22.624758,75.675238,CO,36,68,42
India,Madhya Pradesh,Ratlam,"Shasthri Nagar, Ratlam - IPCA Lab",13-02-2024 21:00:00,23.331731,75.045981,SO2,38,65,56
