country,state,city,station,last_update,latitude,longitude,pollutant_id,pollutant_min,pollutant_max,pollutant_avg
India,Andhra_Pradesh,Chittoor,"Gangineni Cheruvu, Chittoor - APPCB",19-04-2024 09:00:00,13.204880,79.097889,PM2.5,20,178,66
India,Andhra_Pradesh,Chittoor,"Gangineni Cheruvu, Chittoor - APPCB",19-04-2024 09:00:00,13.204880,79.097889,SO2,2,61,13
India,Andhra_Pradesh,Kadapa,"Yerramukkapalli, Kadapa - APPCB",19-04-2024 09:00:00,14.465052,78.824187,PM2.5,NA,NA,NA
India,Andhra_Pradesh,Kadapa,"Yerramukkapalli, Kadapa - APPCB",19-04-2024 09:00:00,14.465052,78.824187,OZONE,NA,NA,NA
India,Andhra_Pradesh,Tirupati,"Tirumala, Tirupati - APPCB",19-04-2024 09:00:00,13.67,79.35,PM2.5,37,173,68
India,Andhra_Pradesh,Tirupati,"Tirumala, Tirupati - APPCB",19-04-2024 09:00:00,13.67,79.35,CO,38,60,41
India,Andhra_Pradesh,Tirupati,"Vaikuntapuram, Tirupati - APPCB",19-04-2024 09:00:00,13.615387,79.409230,PM2.5,13,357,124
India,Andhra_Pradesh,Tirupati,"Vaikuntapuram, Tirupati - APPCB",19-04-2024 09:00:00,13.615387,79.409230,OZONE,7,45,10
India,Andhra_Pradesh,Vijayawada,"HB Colony, Vijayawada - APPCB",19-04-2024 09:00:00,16.536107,80.594233,NO2,3,11,7
India,Andhra_Pradesh,Vijayawada,"Rajiv Gandhi Park, Vijayawada - APPCB",19-04-2024 09:00:00,16.509717,80.612222,PM2.5,40,82,63
India,Andhra_Pradesh,Vijayawada,"Rajiv Gandhi Park, Vijayawada - APPCB",19-04-2024 09:00:00,16.509717,80.612222,OZONE,13,75,20
India,Andhra_Pradesh,Vijayawada,"Rajiv Nagar, Vijayawada - APPCB",19-04-2024 09:00:00,16.554731,80.649110,PM2.5,42,47,45
India,Andhra_Pradesh,Vijayawada,"Rajiv Nagar, Vijayawada - APPCB",19-04-2024 09:00:00,16.554731,80.649110,CO,40,40,40
India,Assam,Byrnihat,"Central Academy for SFS, Byrnihat - PCBA",19-04-2024 09:00:00,26.071318,91.87488,SO2,5,13,8
India,Assam,Byrnihat,"Central Academy for SFS, Byrnihat - PCBA",19-04-2024 09:00:00,26.071318,91.87488,OZONE,21,34,29
India,Assam,Guwahati,"IITG, Guwahati - PCBA",19-04-2024 09:00:00,26.2028636,91.70046436,NO2,1,3,1
India,Assam,Guwahati,"IITG, Guwahati - PCBA",19-04-2024 09:00:00,26.2028636,91.70046436,NH3,5,6,5
India,Assam,Guwahati,"Railway Colony, Guwahati - PCBA",19-04-2024 09:00:00,26.181742,91.78063,SO2,14,18,16
India,Assam,Nagaon,"Christianpatty, Nagaon - PCBA",19-04-2024 09:00:00,26.349082,92.68449,NO2,3,23,10
India,Assam,Nalbari,"Bata Chowk, Nalbari - PCBA",19-04-2024 09:00:00,26.446912,91.439057,SO2,9,12,10
India,Assam,Silchar,"Tarapur, Silchar - PCBA",19-04-2024 09:00:00,24.82827,92.79525,PM2.5,23,37,29
India,Assam,Sivasagar,"Girls College, Sivasagar - PCBA",19-04-2024 09:00:00,26.987634,94.636574,NH3,2,2,2
India,Assam,Sivasagar,"Girls College, Sivasagar - PCBA",19-04-2024 09:00:00,26.987634,94.636574,SO2,2,5,3
India,Bihar,Araria,"Kharahiya Basti, Araria - BSPCB",19-04-2024 09:00:00,26.146529,87.454184,PM10,50,132,82
India,Bihar,Araria,"Kharahiya Basti, Araria - BSPCB",19-04-2024 09:00:00,26.146529,87.454184,NH3,5,6,6
India,Bihar,Arrah,"New DM Office, Arrah - BSPCB",19-04-2024 09:00:00,25.5626095,84.663264,SO2,7,43,22
India,Bihar,Bettiah,"Kamalnath Nagar, Bettiah - BSPCB",19-04-2024 09:00:00,26.80365,84.51954,OZONE,1,16,3
India,Bihar,Bhagalpur,"Mayaganj, Bhagalpur - BSPCB",19-04-2024 09:00:00,25.265194,87.012947,PM2.5,37,273,146
India,Bihar,Bhagalpur,"Mayaganj, Bhagalpur - BSPCB",19-04-2024 09:00:00,25.265194,87.012947,OZONE,9,94,12
India,Bihar,Bihar Sharif,"D M Colony, Bihar Sharif - BSPCB",19-04-2024 09:00:00,25.204762,85.514960,SO2,1,15,10
India,Bihar,Bihar Sharif,"D M Colony, Bihar Sharif - BSPCB",19-04-2024 09:00:00,25.204762,85.514960,OZONE,14,62,52
India,Bihar,Buxar,"Charitra Van, Buxar - BSPCB (Formerly known as Central Jail)",19-04-2024 09:00:00,25.567520,83.966379,PM2.5,NA,NA,NA
India,Bihar,Buxar,"Charitra Van, Buxar - BSPCB (Formerly known as Central Jail)",19-04-2024 09:00:00,25.567520,83.966379,PM10,NA,NA,NA
India,Bihar,Buxar,"Charitra Van, Buxar - BSPCB (Formerly known as Central Jail)",19-04-2024 09:00:00,25.567520,83.966379,CO,44,86,71
India,Bihar,Chhapra,"Darshan Nagar, Chhapra - BSPCB",19-04-2024 09:00:00,25.7808257,84.7446768,NH3,7,14,10
India,Bihar,Gaya,"Collectorate, Gaya - BSPCB",19-04-2024 09:00:00,24.7955,84.9994,SO2,8,17,12
India,Bihar,Gaya,"Collectorate, Gaya - BSPCB",19-04-2024 09:00:00,24.7955,84.9994,OZONE,40,93,57
India,Bihar,Gaya,"Kareemganj, Gaya - BSPCB",19-04-2024 09:00:00,24.792403,84.992416,NO2,30,31,31
India,Bihar,Gaya,"Kareemganj, Gaya - BSPCB",19-04-2024 09:00:00,24.792403,84.992416,OZONE,1,16,6
India,Bihar,Gaya,"SFTI Kusdihra, Gaya - BSPCB",19-04-2024 09:00:00,24.762518,84.982348,PM2.5,21,144,80
India,Bihar,Gaya,"SFTI Kusdihra, Gaya - BSPCB",19-04-2024 09:00:00,24.762518,84.982348,PM10,54,86,71
India,Bihar,Hajipur,"Industrial Area, Hajipur - BSPCB",19-04-2024 09:00:00,25.697189,85.245900,SO2,7,9,8
India,Bihar,Katihar,"Mirchaibari, Katihar - BSPCB",19-04-2024 09:00:00,25.560083,87.553265,PM2.5,18,117,44
India,Bihar,Katihar,"Mirchaibari, Katihar - BSPCB",19-04-2024 09:00:00,25.560083,87.553265,NH3,6,9,8
India,Bihar,Katihar,"Mirchaibari, Katihar - BSPCB",19-04-2024 09:00:00,25.560083,87.553265,SO2,16,24,20
India,Bihar,Katihar,"Mirchaibari, Katihar - BSPCB",19-04-2024 09:00:00,25.560083,87.553265,OZONE,9,21,11
India,Bihar,Kishanganj,"SDM Office_Khagra, Kishanganj - BSPCB",19-04-2024 09:00:00,26.0881305,87.93840336,PM2.5,25,73,47
India,Bihar,Kishanganj,"SDM Office_Khagra, Kishanganj - BSPCB",19-04-2024 09:00:00,26.0881305,87.93840336,NO2,28,30,29
India,Bihar,Motihari,"Gandak Colony, Motihari - BSPCB",19-04-2024 09:00:00,26.63086,84.90051,PM2.5,17,93,58
India,Bihar,Munger,"Town Hall, Munger - BSPCB",19-04-2024 09:00:00,25.376776,86.471523,PM2.5,68,243,126
India,Bihar,Munger,"Town Hall, Munger - BSPCB",19-04-2024 09:00:00,25.376776,86.471523,PM10,81,171,120
India,Bihar,Munger,"Town Hall, Munger - BSPCB",19-04-2024 09:00:00,25.376776,86.471523,OZONE,28,94,30
India,Bihar,Muzaffarpur,"Buddha Colony, Muzaffarpur - BSPCB",19-04-2024 09:00:00,26.11442,85.39813,OZONE,23,47,40
India,Bihar,Muzaffarpur,"MIT-Daudpur Kothi, Muzaffarpur - BSPCB",19-04-2024 09:00:00,26.1403345,85.3650192,OZONE,12,83,28
India,Bihar,Muzaffarpur,"Muzaffarpur Collectorate, Muzaffarpur - BSPCB",19-04-2024 09:00:00,26.1209,85.3647,PM2.5,50,195,102
India,Bihar,Muzaffarpur,"Muzaffarpur Collectorate, Muzaffarpur - BSPCB",19-04-2024 09:00:00,26.1209,85.3647,CO,28,88,42
India,Bihar,Patna,"Govt. High School Shikarpur, Patna - BSPCB",19-04-2024 09:00:00,25.592539,85.227158,SO2,9,11,10
India,Bihar,Patna,"Rajbansi Nagar, Patna - BSPCB",19-04-2024 09:00:00,25.599486,85.113666,PM10,162,450,240
India,Bihar,Patna,"Rajbansi Nagar, Patna - BSPCB",19-04-2024 09:00:00,25.599486,85.113666,SO2,4,19,10
India,Bihar,Patna,"Samanpura, Patna - BSPCB",19-04-2024 09:00:00,25.596727,85.085624,PM2.5,11,301,140
India,Bihar,Patna,"Samanpura, Patna - BSPCB",19-04-2024 09:00:00,25.596727,85.085624,CO,28,106,67
India,Bihar,Purnia,"Mariam Nagar, Purnia - BSPCB",19-04-2024 09:00:00,25.366336,87.117468,SO2,5,12,7
India,Bihar,Saharsa,"Police Line, Saharsa - BSPCB",19-04-2024 09:00:00,25.892357,86.590325,SO2,16,16,16
India,Bihar,Sasaram,"Dada Peer, Sasaram - BSPCB",19-04-2024 09:00:00,24.952822,84.002396,PM10,66,166,120
India,Bihar,Sasaram,"Dada Peer, Sasaram - BSPCB",19-04-2024 09:00:00,24.952822,84.002396,NO2,8,18,13
India,Bihar,Sasaram,"Dada Peer, Sasaram - BSPCB",19-04-2024 09:00:00,24.952822,84.002396,NH3,8,10,8
India,Bihar,Siwan,"Chitragupta Nagar, Siwan - BSPCB",19-04-2024 09:00:00,26.2271665,84.3570427,PM10,NA,NA,NA
India,Bihar,Siwan,"Chitragupta Nagar, Siwan - BSPCB",19-04-2024 09:00:00,26.2271665,84.3570427,SO2,4,34,27
India,Chandigarh,Chandigarh,"Sector 22, Chandigarh - CPCC",19-04-2024 09:00:00,30.735567,76.775714,OZONE,3,121,87
India,Chandigarh,Chandigarh,"Sector-25, Chandigarh - CPCC",19-04-2024 09:00:00,30.751462,76.762879,PM2.5,89,211,132
India,Chandigarh,Chandigarh,"Sector-25, Chandigarh - CPCC",19-04-2024 09:00:00,30.751462,76.762879,PM10,89,155,120
India,Chandigarh,Chandigarh,"Sector-25, Chandigarh - CPCC",19-04-2024 09:00:00,30.751462,76.762879,OZONE,1,40,17
India,Chandigarh,Chandigarh,"Sector-53, Chandigarh - CPCC",19-04-2024 09:00:00,30.719859,76.738637,SO2,1,19,10
India,Chandigarh,Chandigarh,"Sector-53, Chandigarh - CPCC",19-04-2024 09:00:00,30.719859,76.738637,OZONE,6,58,32
India,Chhattisgarh,Bhilai,"32Bungalows, Bhilai - CECB",19-04-2024 09:00:00,21.194815,81.314770,CO,12,41,39
India,Chhattisgarh,Bhilai,"32Bungalows, Bhilai - CECB",19-04-2024 09:00:00,21.194815,81.314770,OZONE,5,61,7
India,Chhattisgarh,Bhilai,"Civic Center, Bhilai - Bhilai Steel Plant",19-04-2024 09:00:00,21.185571,81.343175,SO2,8,19,11
India,Chhattisgarh,Bhilai,"Hathkhoj, Bhilai - CECB",19-04-2024 09:00:00,21.224231,81.408350,NH3,6,8,8
India,Chhattisgarh,Bhilai,"Hathkhoj, Bhilai - CECB",19-04-2024 09:00:00,21.224231,81.408350,SO2,12,35,17
India,Chhattisgarh,Bhilai,"Hathkhoj, Bhilai - CECB",19-04-2024 09:00:00,21.224231,81.408350,CO,6,70,48
India,Chhattisgarh,Chhal,"Nawapara SECL Colony, Chhal - CECB",19-04-2024 09:00:00,22.118125,83.140608,PM10,34,118,63
India,Chhattisgarh,Chhal,"Nawapara SECL Colony, Chhal - CECB",19-04-2024 09:00:00,22.118125,83.140608,CO,NA,NA,NA
India,Chhattisgarh,Korba,"Rampur, Korba - CECB",19-04-2024 09:00:00,22.368195,82.746431,NO2,15,62,36
India,Chhattisgarh,Korba,"Rampur, Korba - CECB",19-04-2024 09:00:00,22.368195,82.746431,NH3,1,1,1
India,Chhattisgarh,Korba,"Urja Nagar, Korba - CECB",19-04-2024 09:00:00,22.348441,82.549611,PM2.5,2,214,77
India,Chhattisgarh,Korba,"Urja Nagar, Korba - CECB",19-04-2024 09:00:00,22.348441,82.549611,OZONE,1,57,1
India,Chhattisgarh,Kunjemura,"OP Jindal School, Kunjemura - CECB",19-04-2024 09:00:00,22.126650,83.483212,NO2,10,105,53
India,Chhattisgarh,Kunjemura,"OP Jindal School, Kunjemura - CECB",19-04-2024 09:00:00,22.126650,83.483212,SO2,8,40,13
India,Chhattisgarh,Raipur,"AIIMS, Raipur - CECB",19-04-2024 09:00:00,21.258815,81.578979,PM2.5,NA,NA,NA
India,Chhattisgarh,Raipur,"AIIMS, Raipur - CECB",19-04-2024 09:00:00,21.258815,81.578979,PM10,NA,NA,NA
India,Chhattisgarh,Raipur,"AIIMS, Raipur - CECB",19-04-2024 09:00:00,21.258815,81.578979,CO,NA,NA,NA
India,Chhattisgarh,Raipur,"AIIMS, Raipur - CECB",19-04-2024 09:00:00,21.258815,81.578979,OZONE,NA,NA,NA
India,Chhattisgarh,Raipur,"Bhatagaon New ISBT, Raipur - CECB",19-04-2024 09:00:00,21.219665,81.630094,PM10,28,140,65
India,Chhattisgarh,Raipur,"Bhatagaon New ISBT, Raipur - CECB",19-04-2024 09:00:00,21.219665,81.630094,OZONE,3,5,4
India,Chhattisgarh,Raipur,"Siltara Phase-II, Raipur - CECB",19-04-2024 09:00:00,21.371751,81.664929,SO2,12,67,27
India,Chhattisgarh,Raipur,"Siltara Phase-II, Raipur - CECB",19-04-2024 09:00:00,21.371751,81.664929,CO,8,101,68
India,Delhi,Delhi,"Alipur, Delhi - DPCC",19-04-2024 09:00:00,28.815329,77.153010,PM2.5,17,373,119
India,Delhi,Delhi,"Alipur, Delhi - DPCC",19-04-2024 09:00:00,28.815329,77.153010,NH3,5,11,7
India,Delhi,Delhi,"Alipur, Delhi - DPCC",19-04-2024 09:00:00,28.815329,77.153010,SO2,11,46,20
India,Delhi,Delhi,"Anand Vihar, Delhi - DPCC",19-04-2024 09:00:00,28.647622,77.3158090,PM2.5,NA,NA,NA
India,Delhi,Delhi,"Ashok Vihar, Delhi - DPCC",19-04-2024 09:00:00,28.695381,77.181665,CO,12,96,49
India,Delhi,Delhi,"Aya Nagar, Delhi - IMD",19-04-2024 09:00:00,28.4706914,77.1099364,NO2,61,109,73
India,Delhi,Delhi,"Aya Nagar, Delhi - IMD",19-04-2024 09:00:00,28.4706914,77.1099364,OZONE,3,24,6
India,Delhi,Delhi,"Bawana, Delhi - DPCC",19-04-2024 09:00:00,28.776200,77.051074,SO2,8,91,24
India,Delhi,Delhi,"Burari Crossing, Delhi - IMD",19-04-2024 09:00:00,28.7256504,77.2011573,NO2,13,30,20
India,Delhi,Delhi,"Burari Crossing, Delhi - IMD",19-04-2024 09:00:00,28.7256504,77.2011573,CO,8,36,31
India,Delhi,Delhi,"Chandni Chowk, Delhi - IITM",19-04-2024 09:00:00,28.656756,77.227234,SO2,2,63,30
India,Delhi,Delhi,"DTU, Delhi - CPCB",19-04-2024 09:00:00,28.7500499,77.1112615,PM10,87,346,162
India,Delhi,Delhi,"DTU, Delhi - CPCB",19-04-2024 09:00:00,28.7500499,77.1112615,NO2,8,14,11
India,Delhi,Delhi,"Dr. Karni Singh Shooting Range, Delhi - DPCC",19-04-2024 09:00:00,28.498571,77.264840,NH3,5,7,6
India,Delhi,Delhi,"Dr. Karni Singh Shooting Range, Delhi - DPCC",19-04-2024 09:00:00,28.498571,77.264840,CO,24,94,50
India,Delhi,Delhi,"Dr. Karni Singh Shooting Range, Delhi - DPCC",19-04-2024 09:00:00,28.498571,77.264840,OZONE,2,270,9
India,Delhi,Delhi,"Dwarka-Sector 8, Delhi - DPCC ",19-04-2024 09:00:00,28.5710274,77.0719006,NH3,6,10,7
India,Delhi,Delhi,"Dwarka-Sector 8, Delhi - DPCC ",19-04-2024 09:00:00,28.5710274,77.0719006,OZONE,2,65,3
India,Delhi,Delhi,"IHBAS, Dilshad Garden, Delhi - CPCB",19-04-2024 09:00:00,28.6811736,77.3025234,PM10,97,204,144
India,Delhi,Delhi,"IHBAS, Dilshad Garden, Delhi - CPCB",19-04-2024 09:00:00,28.6811736,77.3025234,OZONE,1,57,14
India,Delhi,Delhi,"ITO, Delhi - CPCB",19-04-2024 09:00:00,28.628624,77.241060,PM2.5,35,117,73
India,Delhi,Delhi,"Jahangirpuri, Delhi - DPCC",19-04-2024 09:00:00,28.732820,77.170633,SO2,13,63,32
India,Delhi,Delhi,"Jahangirpuri, Delhi - DPCC",19-04-2024 09:00:00,28.732820,77.170633,OZONE,4,76,8
India,Delhi,Delhi,"Jawaharlal Nehru Stadium, Delhi - DPCC",19-04-2024 09:00:00,28.580280,77.233829,PM2.5,18,161,52
India,Delhi,Delhi,"Jawaharlal Nehru Stadium, Delhi - DPCC",19-04-2024 09:00:00,28.580280,77.233829,SO2,4,37,18
India,Delhi,Delhi,"Lodhi Road, Delhi - IITM",19-04-2024 09:00:00,28.588333,77.221667,NO2,81,119,96
India,Delhi,Delhi,"Lodhi Road, Delhi - IITM",19-04-2024 09:00:00,28.588333,77.221667,CO,58,66,64
India,Delhi,Delhi,"Lodhi Road, Delhi - IMD",19-04-2024 09:00:00,28.5918245,77.2273074,PM2.5,9,178,60
India,Delhi,Delhi,"Lodhi Road, Delhi - IMD",19-04-2024 09:00:00,28.5918245,77.2273074,NO2,5,17,11
India,Delhi,Delhi,"Mandir Marg, Delhi - DPCC",19-04-2024 09:00:00,28.636429,77.201067,PM10,66,260,120
India,Delhi,Delhi,"Mandir Marg, Delhi - DPCC",19-04-2024 09:00:00,28.636429,77.201067,NO2,104,120,112
India,Delhi,Delhi,"Mandir Marg, Delhi - DPCC",19-04-2024 09:00:00,28.636429,77.201067,SO2,3,15,9
India,Delhi,Delhi,"Mandir Marg, Delhi - DPCC",19-04-2024 09:00:00,28.636429,77.201067,CO,14,72,49
India,Delhi,Delhi,"Mundka, Delhi - DPCC",19-04-2024 09:00:00,28.684678,77.076574,NO2,2,117,61
India,Delhi,Delhi,"Mundka, Delhi - DPCC",19-04-2024 09:00:00,28.684678,77.076574,CO,24,92,66
India,Delhi,Delhi,"Najafgarh, Delhi - DPCC",19-04-2024 09:00:00,28.570173,76.933762,NO2,8,43,22
India,Delhi,Delhi,"Najafgarh, Delhi - DPCC",19-04-2024 09:00:00,28.570173,76.933762,OZONE,3,162,26
India,Delhi,Delhi,"Narela, Delhi - DPCC",19-04-2024 09:00:00,28.822836,77.101981,PM2.5,20,391,130
India,Delhi,Delhi,"Okhla Phase-2, Delhi - DPCC",19-04-2024 09:00:00,28.530785,77.271255,CO,38,122,81
India,Delhi,Delhi,"Punjabi Bagh, Delhi - DPCC",19-04-2024 09:00:00,28.674045,77.131023,NH3,4,5,5
India,Delhi,Delhi,"Pusa, Delhi - DPCC",19-04-2024 09:00:00,28.639652,77.146275,PM2.5,22,250,81
India,Delhi,Delhi,"Pusa, Delhi - DPCC",19-04-2024 09:00:00,28.639652,77.146275,PM10,119,433,226
India,Delhi,Delhi,"Pusa, Delhi - DPCC",19-04-2024 09:00:00,28.639652,77.146275,CO,20,109,38
India,Delhi,Delhi,"Pusa, Delhi - DPCC",19-04-2024 09:00:00,28.639652,77.146275,OZONE,9,81,11
India,Delhi,Delhi,"Rohini, Delhi - DPCC",19-04-2024 09:00:00,28.732528,77.119920,NO2,13,118,56
India,Delhi,Delhi,"Rohini, Delhi - DPCC",19-04-2024 09:00:00,28.732528,77.119920,SO2,6,37,16
India,Delhi,Delhi,"Shadipur, Delhi - CPCB",19-04-2024 09:00:00,28.6514781,77.1473105,NH3,6,10,8
India,Delhi,Delhi,"Sirifort, Delhi - CPCB",19-04-2024 09:00:00,28.5504249,77.2159377,NH3,10,20,15
India,Delhi,Delhi,"Sirifort, Delhi - CPCB",19-04-2024 09:00:00,28.5504249,77.2159377,OZONE,7,55,7
India,Delhi,Delhi,"Sonia Vihar, Delhi - DPCC",19-04-2024 09:00:00,28.710508,77.249485,NH3,5,7,5
India,Delhi,Delhi,"Sri Aurobindo Marg, Delhi - DPCC",19-04-2024 09:00:00,28.531346,77.190156,NH3,6,9,7
India,Delhi,Delhi,"Sri Aurobindo Marg, Delhi - DPCC",19-04-2024 09:00:00,28.531346,77.190156,SO2,11,38,18
India,Delhi,Delhi,"Vivek Vihar, Delhi - DPCC",19-04-2024 09:00:00,28.672342,77.315260,CO,5,86,52
India,Delhi,Delhi,"Wazirpur, Delhi - DPCC",19-04-2024 09:00:00,28.699793,77.165453,PM2.5,33,204,105
India,Delhi,Delhi,"Wazirpur, Delhi - DPCC",19-04-2024 09:00:00,28.699793,77.165453,NH3,12,13,12
India,Gujarat,Ahmedabad,"Chandkheda, Ahmedabad - IITM",19-04-2024 09:00:00,23.107969,72.574648,PM10,47,125,89
India,Gujarat,Ahmedabad,"Chandkheda, Ahmedabad - IITM",19-04-2024 09:00:00,23.107969,72.574648,CO,50,109,76
India,Gujarat,Ahmedabad,"Gyaspur, Ahmedabad - IITM",19-04-2024 09:00:00,22.977134,72.553024,NO2,12,127,56
India,Gujarat,Ahmedabad,"Maninagar, Ahmedabad - GPCB",19-04-2024 09:00:00,23.002657,72.591912,SO2,1,100,53
India,Gujarat,Ahmedabad,"Maninagar, Ahmedabad - GPCB",19-04-2024 09:00:00,23.002657,72.591912,OZONE,15,59,26
India,Gujarat,Ahmedabad,"Raikhad, Ahmedabad - IITM",19-04-2024 09:00:00,23.020509,72.579261,CO,8,45,21
India,Gujarat,Ahmedabad,"Rakhial, Ahmedabad - IITM",19-04-2024 09:00:00,23.016834,72.625775,NH3,2,6,3
India,Gujarat,Ahmedabad,"Rakhial, Ahmedabad - IITM",19-04-2024 09:00:00,23.016834,72.625775,OZONE,7,43,13
India,Gujarat,Ahmedabad,"SAC ISRO Satellite, Ahmedabad - IITM",19-04-2024 09:00:00,23.023389,72.515201,OZONE,12,20,14
India,Gujarat,Ahmedabad,"SVPI Airport Hansol, Ahmedabad - IITM",19-04-2024 09:00:00,23.076793,72.627874,OZONE,7,26,11
India,Gujarat,Ahmedabad,"Sardar Vallabhbhai Patel Stadium, Ahmedabad - IITM",19-04-2024 09:00:00,23.043070,72.562968,PM10,51,100,72
India,Gujarat,Ankleshwar,"GIDC, Ankleshwar - GPCB",19-04-2024 09:00:00,21.613267,73.010555,CO,34,92,75
India,Gujarat,Gandhinagar,"IIPHG Lekawada, Gandhinagar - IITM",19-04-2024 09:00:00,23.243639,72.68994,NH3,4,6,5
India,Gujarat,Nandesari,"GIDC, Nandesari - Nandesari Ind. Association",19-04-2024 09:00:00,22.410802,73.097923,PM10,86,384,162
India,Gujarat,Nandesari,"GIDC, Nandesari - Nandesari Ind. Association",19-04-2024 09:00:00,22.410802,73.097923,NO2,16,72,33
India,Gujarat,Vatva,"Phase-4 GIDC, Vatva - GPCB",19-04-2024 09:00:00,22.969611,72.643500,PM2.5,22,51,37
India,Haryana,Ambala,"Patti Mehar, Ambala - HSPCB",19-04-2024 09:00:00,30.379589,76.778328,PM10,26,81,52
India,Haryana,Bahadurgarh,"Arya Nagar, Bahadurgarh - HSPCB",19-04-2024 09:00:00,28.6701,76.9254,PM10,54,384,175
India,Haryana,Bahadurgarh,"Arya Nagar, Bahadurgarh - HSPCB",19-04-2024 09:00:00,28.6701,76.9254,SO2,4,80,22
India,Haryana,Ballabgarh,"Nathu Colony, Ballabgarh - HSPCB",19-04-2024 09:00:00,28.3419248,77.319699,NH3,1,2,2
India,Haryana,Bhiwani,"H.B. Colony, Bhiwani - HSPCB",19-04-2024 09:00:00,28.806223,76.141105,CO,20,48,33
India,Haryana,Bhiwani,"H.B. Colony, Bhiwani - HSPCB",19-04-2024 09:00:00,28.806223,76.141105,OZONE,11,78,15
India,Haryana,Charkhi Dadri,"Mini Secretariat, Charkhi Dadri - HSPCB",19-04-2024 09:00:00,28.593883,76.270653,PM10,55,157,116
India,Haryana,Charkhi Dadri,"Mini Secretariat, Charkhi Dadri - HSPCB",19-04-2024 09:00:00,28.593883,76.270653,NO2,14,22,18
India,Haryana,Dharuhera,"Municipal Corporation Office, Dharuhera -  HSPCB",19-04-2024 09:00:00,28.206800,76.799700,SO2,6,26,14
India,Haryana,Faridabad,"New Industrial Town, Faridabad - HSPCB",19-04-2024 09:00:00,28.39072,77.30059,PM10,112,309,184
India,Haryana,Faridabad,"New Industrial Town, Faridabad - HSPCB",19-04-2024 09:00:00,28.39072,77.30059,OZONE,23,156,56
India,Haryana,Faridabad,"Sector 11, Faridabad - HSPCB",19-04-2024 09:00:00,28.376058,77.315741,SO2,2,118,7
India,Haryana,Faridabad,"Sector 30, Faridabad - HSPCB",19-04-2024 09:00:00,28.4417,77.3217,PM10,NA,NA,NA
India,Haryana,Faridabad,"Sector 30, Faridabad - HSPCB",19-04-2024 09:00:00,28.4417,77.3217,NH3,NA,NA,NA
India,Haryana,Faridabad,"Sector- 16A, Faridabad - HSPCB",19-04-2024 09:00:00,28.4088421,77.3099081,NO2,8,49,28
India,Haryana,Fatehabad,"Huda Sector, Fatehabad - HSPCB",19-04-2024 09:00:00,29.503664,75.467934,PM2.5,20,135,48
India,Haryana,Fatehabad,"Huda Sector, Fatehabad - HSPCB",19-04-2024 09:00:00,29.503664,75.467934,NH3,10,11,10
India,Haryana,Gurugram,"Sector-51, Gurugram - HSPCB",19-04-2024 09:00:00,28.4227,77.0667,PM10,15,220,147
India,Haryana,Hisar,"Urban Estate-II, Hisar - HSPCB",19-04-2024 09:00:00,29.140560,75.744941,PM2.5,NA,NA,NA
India,Haryana,Jind,"Police Lines, Jind - HSPCB",19-04-2024 09:00:00,29.307814,76.337619,PM2.5,35,170,59
India,Haryana,Jind,"Police Lines, Jind - HSPCB",19-04-2024 09:00:00,29.307814,76.337619,PM10,50,169,86
India,Haryana,Kaithal,"Rishi Nagar, Kaithal - HSPCB",19-04-2024 09:00:00,29.8006,76.4155,NO2,24,26,25
India,Haryana,Karnal,"Sector-12, Karnal - HSPCB",19-04-2024 09:00:00,29.695300,77.002700,NO2,7,12,10
India,Haryana,Karnal,"Sector-12, Karnal - HSPCB",19-04-2024 09:00:00,29.695300,77.002700,CO,8,46,29
India,Haryana,Karnal,"Sector-12, Karnal - HSPCB",19-04-2024 09:00:00,29.695300,77.002700,OZONE,19,36,28
India,Haryana,Mandikhera,"General Hospital, Mandikhera - HSPCB",19-04-2024 09:00:00,27.9002,76.9938,PM10,NA,NA,NA
India,Haryana,Manesar,"Sector-2 IMT, Manesar - HSPCB",19-04-2024 09:00:00,28.360699,76.936090,NO2,26,84,48
India,Haryana,Manesar,"Sector-2 IMT, Manesar - HSPCB",19-04-2024 09:00:00,28.360699,76.936090,OZONE,1,74,6
India,Haryana,Narnaul,"Shastri Nagar, Narnaul - HSPCB",19-04-2024 09:00:00,28.060249,76.113115,PM10,61,93,79
India,Haryana,Narnaul,"Shastri Nagar, Narnaul - HSPCB",19-04-2024 09:00:00,28.060249,76.113115,NH3,5,27,18
India,Haryana,Narnaul,"Shastri Nagar, Narnaul - HSPCB",19-04-2024 09:00:00,28.060249,76.113115,OZONE,34,59,53
India,Haryana,Panchkula,"Sector-6, Panchkula - HSPCB ",19-04-2024 09:00:00,30.7057778,76.8531805555555,SO2,2,36,8
India,Haryana,Panipat,"Sector-18, Panipat - HSPCB",19-04-2024 09:00:00,29.497973,76.993331,CO,NA,NA,NA
India,Haryana,Rohtak,"MD University, Rohtak - HSPCB",19-04-2024 09:00:00,28.52123,76.37138,CO,28,56,41
India,Haryana,Sonipat,"Murthal, Sonipat - HSPCB",19-04-2024 09:00:00,29.027200,77.062100,CO,11,32,24
India,Himachal Pradesh,Baddi,"HIMUDA Complex Phase-1, Baddi - HPPCB",19-04-2024 09:00:00,30.943887,76.801991,CO,10,56,14
India,Jharkhand,Dhanbad,"Kalakusuma, Dhanbad - DMC",19-04-2024 09:00:00,23.811548,86.481238,PM2.5,1,71,37
India,Karnataka,Bagalkot,"Vidayagiri, Bagalkot - KSPCB",19-04-2024 09:00:00,16.172806,75.659694,NH3,1,2,1
India,Karnataka,Bagalkot,"Vidayagiri, Bagalkot - KSPCB",19-04-2024 09:00:00,16.172806,75.659694,OZONE,NA,NA,NA
India,Karnataka,Belgaum,"Ramteerth Nagar, Belgaum - KSPCB",19-04-2024 09:00:00,15.888653,74.541751,CO,16,44,38
India,Karnataka,Bengaluru,"Bapuji Nagar, Bengaluru - KSPCB",19-04-2024 09:00:00,12.951913,77.539784,PM10,37,104,81
India,Karnataka,Bengaluru,"Bapuji Nagar, Bengaluru - KSPCB",19-04-2024 09:00:00,12.951913,77.539784,SO2,4,8,7
India,Karnataka,Bengaluru,"Bapuji Nagar, Bengaluru - KSPCB",19-04-2024 09:00:00,12.951913,77.539784,OZONE,24,27,27
India,Karnataka,Bengaluru,"Hebbal, Bengaluru - KSPCB",19-04-2024 09:00:00,13.029152,77.585901,PM2.5,39,130,66
India,Karnataka,Bengaluru,"Hombegowda Nagar, Bengaluru - KSPCB",19-04-2024 09:00:00,12.938539,77.590100,NO2,9,24,16
India,Karnataka,Bengaluru,"Hombegowda Nagar, Bengaluru - KSPCB",19-04-2024 09:00:00,12.938539,77.590100,NH3,1,2,1
India,Karnataka,Bengaluru,"Jayanagar 5th Block, Bengaluru - KSPCB",19-04-2024 09:00:00,12.920984,77.584908,SO2,10,22,16
India,Karnataka,Bengaluru,"Kasturi Nagar, Bengaluru - KSPCB",19-04-2024 09:00:00,13.003872,77.664217,PM2.5,59,500,119
India,Karnataka,Bengaluru,"Kasturi Nagar, Bengaluru - KSPCB",19-04-2024 09:00:00,13.003872,77.664217,NH3,3,4,4
India,Karnataka,Bengaluru,"Kasturi Nagar, Bengaluru - KSPCB",19-04-2024 09:00:00,13.003872,77.664217,SO2,10,10,10
India,Karnataka,Bengaluru,"RVCE-Mailasandra, Bengaluru - KSPCB",19-04-2024 09:00:00,12.921418,77.502466,PM2.5,30,285,135
India,Karnataka,Bengaluru,"RVCE-Mailasandra, Bengaluru - KSPCB",19-04-2024 09:00:00,12.921418,77.502466,SO2,7,15,9
India,Karnataka,Bengaluru,"Silk Board, Bengaluru - KSPCB",19-04-2024 09:00:00,12.917348,77.622813,PM2.5,43,80,62
India,Karnataka,Bengaluru,"Silk Board, Bengaluru - KSPCB",19-04-2024 09:00:00,12.917348,77.622813,SO2,5,10,8
India,Karnataka,Bidar,"Naubad, Bidar - KSPCB",19-04-2024 09:00:00,17.930306,77.482194,OZONE,14,48,35
India,Karnataka,Chamarajanagar,"Urban, Chamarajanagar - KSPCB",19-04-2024 09:00:00,11.55358,76.55521,PM10,34,60,41
India,Karnataka,Chamarajanagar,"Urban, Chamarajanagar - KSPCB",19-04-2024 09:00:00,11.55358,76.55521,NH3,1,2,2
India,Karnataka,Chikkaballapur,"Chikkaballapur Rural, Chikkaballapur - KSPCB",19-04-2024 09:00:00,13.428828,77.731418,NO2,6,14,9
India,Karnataka,Chikkamagaluru,"Kalyana Nagara, Chikkamagaluru - KSPCB",19-04-2024 09:00:00,13.328028,75.797056,OZONE,17,53,18
India,Karnataka,Davanagere,"Devaraj Urs Badavane, Davanagere - KSPCB",19-04-2024 09:00:00,14.475800,75.905200,PM10,23,244,74
India,Karnataka,Davanagere,"Devaraj Urs Badavane, Davanagere - KSPCB",19-04-2024 09:00:00,14.475800,75.905200,SO2,1,18,6
India,Karnataka,Dharwad,"Kalabhavan, Dharwad - KSPCB",19-04-2024 09:00:00,15.459706,75.008381,SO2,3,6,3
India,Karnataka,Hassan,"B.Katihalli, Hassan - KSPCB",19-04-2024 09:00:00,13.008556,76.125258,PM2.5,NA,NA,NA
India,Karnataka,Hassan,"B.Katihalli, Hassan - KSPCB",19-04-2024 09:00:00,13.008556,76.125258,CO,NA,NA,NA
India,Karnataka,Hassan,"B.Katihalli, Hassan - KSPCB",19-04-2024 09:00:00,13.008556,76.125258,OZONE,NA,NA,NA
India,Karnataka,Kalaburagi,"Lal Bahadur Shastri Nagar, Kalaburagi - KSPCB",19-04-2024 09:00:00,17.321993,76.822628,NO2,11,12,11
India,Karnataka,Kalaburagi,"Lal Bahadur Shastri Nagar, Kalaburagi - KSPCB",19-04-2024 09:00:00,17.321993,76.822628,OZONE,4,65,39
India,Karnataka,Kolar,"Tamaka Ind. Area, Kolar - KSPCB",19-04-2024 09:00:00,13.1276288,78.1570122,PM2.5,NA,NA,NA
India,Karnataka,Kolar,"Tamaka Ind. Area, Kolar - KSPCB",19-04-2024 09:00:00,13.1276288,78.1570122,NH3,12,42,33
India,Karnataka,Kolar,"Tamaka Ind. Area, Kolar - KSPCB",19-04-2024 09:00:00,13.1276288,78.1570122,CO,6,6,6
India,Karnataka,Koppal,"Diwator Nagar, Koppal - KSPCB",19-04-2024 09:00:00,15.347630,76.181767,PM2.5,NA,NA,NA
India,Karnataka,Koppal,"Diwator Nagar, Koppal - KSPCB",19-04-2024 09:00:00,15.347630,76.181767,SO2,NA,NA,NA
India,Karnataka,Madikeri,"Stuart Hill, Madikeri - KSPCB",19-04-2024 09:00:00,12.415911,75.735050,NO2,2,12,4
India,Karnataka,Madikeri,"Stuart Hill, Madikeri - KSPCB",19-04-2024 09:00:00,12.415911,75.735050,NH3,1,2,1
India,Karnataka,Madikeri,"Stuart Hill, Madikeri - KSPCB",19-04-2024 09:00:00,12.415911,75.735050,OZONE,22,43,25
India,Karnataka,Mangalore,"Kadri, Mangalore - KSPCB",19-04-2024 09:00:00,12.889250,74.853000,PM2.5,38,73,55
India,Karnataka,Mangalore,"Kadri, Mangalore - KSPCB",19-04-2024 09:00:00,12.889250,74.853000,NO2,3,34,7
India,Karnataka,Mangalore,"Kadri, Mangalore - KSPCB",19-04-2024 09:00:00,12.889250,74.853000,OZONE,30,39,31
India,Karnataka,Ramanagara,"Vijay Nagar, Ramanagara - KSPCB",19-04-2024 09:00:00,12.733409,77.298051,NH3,1,1,1
India,Karnataka,Ramanagara,"Vijay Nagar, Ramanagara - KSPCB",19-04-2024 09:00:00,12.733409,77.298051,CO,2,22,10
India,Karnataka,Shivamogga,"Vinoba Nagara, Shivamogga - KSPCB",19-04-2024 09:00:00,13.940000,75.555917,SO2,2,11,7
India,Karnataka,Tumakuru,"Thimmalapura, Tumakuru - KSPCB",19-04-2024 09:00:00,13.377516,77.099072,NH3,NA,NA,NA
India,Karnataka,Yadgir,"Collector Office, Yadgir - KSPCB",19-04-2024 09:00:00,16.7602,77.1428,CO,5,25,14
India,Karnataka,Yadgir,"Collector Office, Yadgir - KSPCB",19-04-2024 09:00:00,16.7602,77.1428,OZONE,18,20,19
India,Kerala,Eloor,"Udyogamandal, Eloor - Kerala PCB",19-04-2024 09:00:00,10.073232,76.302765,PM2.5,32,65,44
India,Kerala,Eloor,"Udyogamandal, Eloor - Kerala PCB",19-04-2024 09:00:00,10.073232,76.302765,CO,13,108,23
India,Kerala,Eloor,"Udyogamandal, Eloor - Kerala PCB",19-04-2024 09:00:00,10.073232,76.302765,OZONE,11,16,11
India,Kerala,Kannur,"Thavakkara, Kannur - Kerala PCB",19-04-2024 09:00:00,11.875000,75.373200,NH3,NA,NA,NA
India,Kerala,Kannur,"Thavakkara, Kannur - Kerala PCB",19-04-2024 09:00:00,11.875000,75.373200,CO,31,36,34
India,Kerala,Kannur,"Thavakkara, Kannur - Kerala PCB",19-04-2024 09:00:00,11.875000,75.373200,OZONE,33,33,33
India,Kerala,Thiruvananthapuram,"Kariavattom, Thiruvananthapuram - Kerala PCB",19-04-2024 09:00:00,8.563700,76.886500,PM2.5,77,87,82
India,Kerala,Thiruvananthapuram,"Kariavattom, Thiruvananthapuram - Kerala PCB",19-04-2024 09:00:00,8.563700,76.886500,PM10,81,91,86
India,Kerala,Thiruvananthapuram,"Kariavattom, Thiruvananthapuram - Kerala PCB",19-04-2024 09:00:00,8.563700,76.886500,NO2,8,10,9
India,Kerala,Thiruvananthapuram,"Kariavattom, Thiruvananthapuram - Kerala PCB",19-04-2024 09:00:00,8.563700,76.886500,NH3,1,1,1
India,Kerala,Thiruvananthapuram,"Kariavattom, Thiruvananthapuram - Kerala PCB",19-04-2024 09:00:00,8.563700,76.886500,SO2,1,11,6
India,Kerala,Thrissur,"Corporation Ground, Thrissur - Kerala PCB",19-04-2024 09:00:00,10.532400,76.215900,NO2,7,8,7
India,Madhya Pradesh,Bhopal,"Paryavaran Parisar, Bhopal - MPPCB",19-04-2024 09:00:00,23.210494,77.425409,CO,3,112,13
India,Madhya Pradesh,Dewas,"Bhopal Chauraha, Dewas - MPPCB",19-04-2024 09:00:00,22.9682591,76.064118,CO,12,34,20
India,Madhya Pradesh,Gwalior,"City Center, Gwalior - MPPCB",19-04-2024 09:00:00,26.203442,78.193251,NO2,6,85,19
India,Madhya Pradesh,Gwalior,"Maharaj Bada, Gwalior - MPPCB",19-04-2024 09:00:00,26.200388,78.147714,PM10,25,316,115
India,Madhya Pradesh,Gwalior,"Maharaj Bada, Gwalior - MPPCB",19-04-2024 09:00:00,26.200388,78.147714,NO2,12,127,32
India,Madhya Pradesh,Indore,"Chhoti Gwaltoli, Indore - MPPCB",19-04-2024 09:00:00,22.4310,75.5213,PM10,56,145,84
India,Madhya Pradesh,Indore,"Chhoti Gwaltoli, Indore - MPPCB",19-04-2024 09:00:00,22.4310,75.5213,CO,30,76,41
India,Madhya Pradesh,Indore,"Regional Park, Indore - IMC",19-04-2024 09:00:00,22.6780,75.8559,SO2,37,41,40
India,Madhya Pradesh,Indore,"Residency Area, Indore - IMC",19-04-2024 09:00:00,22.7084,75.8815,PM10,31,113,49
India,Madhya Pradesh,Jabalpur,"Govindh Bhavan Colony, Jabalpur - JMC",19-04-2024 09:00:00,23.163174,79.973061,PM10,34,79,57
India,Madhya Pradesh,Jabalpur,"Govindh Bhavan Colony, Jabalpur - JMC",19-04-2024 09:00:00,23.163174,79.973061,NO2,11,57,26
India,Madhya Pradesh,Jabalpur,"Gupteshwar, Jabalpur - JMC",19-04-2024 09:00:00,23.142888,79.916147,PM2.5,3,133,52
India,Madhya Pradesh,Jabalpur,"Gupteshwar, Jabalpur - JMC",19-04-2024 09:00:00,23.142888,79.916147,SO2,5,10,7
India,Madhya Pradesh,Jabalpur,"Marhatal, Jabalpur - MPPCB",19-04-2024 09:00:00,23.168606,79.932247,OZONE,1,84,24
India,Madhya Pradesh,Jabalpur,"Suhagi, Jabalpur - JMC",19-04-2024 09:00:00,23.218135,79.957770,CO,2,124,41
India,Madhya Pradesh,Jabalpur,"Suhagi, Jabalpur - JMC",19-04-2024 09:00:00,23.218135,79.957770,OZONE,1,106,13
India,Madhya Pradesh,Katni,"Gole Bazar, Katni - MPPCB",19-04-2024 09:00:00,23.50016,80.23284,NH3,1,7,4
India,Madhya Pradesh,Katni,"Gole Bazar, Katni - MPPCB",19-04-2024 09:00:00,23.50016,80.23284,OZONE,6,119,21
India,Madhya Pradesh,Maihar,"Sahilara, Maihar - KJS Cements",19-04-2024 09:00:00,24.2613009,80.7231783,PM10,30,71,44
India,Madhya Pradesh,Maihar,"Sahilara, Maihar - KJS Cements",19-04-2024 09:00:00,24.2613009,80.7231783,NO2,18,20,19
India,Madhya Pradesh,Mandideep,"Sector-D Industrial Area, Mandideep - MPPCB",19-04-2024 09:00:00,23.108440,77.511428,OZONE,13,45,20
India,Madhya Pradesh,Ratlam,"Shasthri Nagar, Ratlam - IPCA Lab",19-04-2024 09:00:00,23.331731,75.045981,PM10,20,410,128
India,Madhya Pradesh,Sagar,"Civil Lines, Sagar - MPPCB",19-04-2024 09:00:00,23.838586,78.759431,PM10,18,107,52
India,Madhya Pradesh,Sagar,"Civil Lines, Sagar - MPPCB",19-04-2024 09:00:00,23.838586,78.759431,CO,10,57,25
India,Madhya Pradesh,Sagar,"Deen Dayal Nagar, Sagar - MPPCB",19-04-2024 09:00:00,23.8640158,78.80289321,PM10,78,363,157
India,Madhya Pradesh,Sagar,"Deen Dayal Nagar, Sagar - MPPCB",19-04-2024 09:00:00,23.8640158,78.80289321,SO2,11,26,15
India,Madhya Pradesh,Satna,"Bandhavgar Colony, Satna - Birla Cement",19-04-2024 09:00:00,24.58434363,80.8549414,PM2.5,40,194,70
India,Madhya Pradesh,Satna,"Bandhavgar Colony, Satna - Birla Cement",19-04-2024 09:00:00,24.58434363,80.8549414,OZONE,8,9,8
India,Maharashtra,Ahmednagar,"Tarakpur, Ahmednagar - MPCB",19-04-2024 09:00:00,19.10122,74.73339,NH3,2,7,3
India,Maharashtra,Ahmednagar,"Tarakpur, Ahmednagar - MPCB",19-04-2024 09:00:00,19.10122,74.73339,CO,15,120,25
India,Maharashtra,Amravati,"Shri Shivaji Science College, Amaravati - MPCB",19-04-2024 09:00:00,20.939198,77.765701,OZONE,10,132,31
India,Maharashtra,Aurangabad,"MIDC Chilkalthana, Aurangabad - MPCB",19-04-2024 09:00:00,19.875620,75.387310,PM10,61,133,95
India,Maharashtra,Aurangabad,"More Chowk Waluj, Aurangabad - MPCB",19-04-2024 09:00:00,19.8389439,75.244448,SO2,NA,NA,NA
India,Maharashtra,Aurangabad,"Rachnakar Colony, Aurangabad - MPCB",19-04-2024 09:00:00,19.863756,75.321188,PM10,36,257,88
India,Maharashtra,Aurangabad,"Rachnakar Colony, Aurangabad - MPCB",19-04-2024 09:00:00,19.863756,75.321188,SO2,3,33,15
India,Maharashtra,Badlapur,"Katrap, Badlapur - MPCB",19-04-2024 09:00:00,19.16485,73.23409,PM10,36,104,75
India,Maharashtra,Badlapur,"Katrap, Badlapur - MPCB",19-04-2024 09:00:00,19.16485,73.23409,NO2,1,58,10
India,Maharashtra,Badlapur,"Katrap, Badlapur - MPCB",19-04-2024 09:00:00,19.16485,73.23409,OZONE,5,334,8
India,Maharashtra,Bhiwandi,"Gokul Nagar, Bhiwandi - MPCB",19-04-2024 09:00:00,19.309073,73.057223,NH3,3,6,4
India,Maharashtra,Chandrapur,"Chauhan Colony, Chandrapur - MPCB",19-04-2024 09:00:00,19.962900,79.298714,PM10,36,115,68
India,Maharashtra,Chandrapur,"Chauhan Colony, Chandrapur - MPCB",19-04-2024 09:00:00,19.962900,79.298714,CO,25,38,29
India,Maharashtra,Chandrapur,"Chauhan Colony, Chandrapur - MPCB",19-04-2024 09:00:00,19.962900,79.298714,OZONE,8,9,9
India,Maharashtra,Jalgaon,"Prabhat Colony, Jalgaon - MPCB",19-04-2024 09:00:00,21.001264,75.565602,PM2.5,58,114,83
India,Maharashtra,Jalgaon,"Prabhat Colony, Jalgaon - MPCB",19-04-2024 09:00:00,21.001264,75.565602,SO2,2,29,16
India,Maharashtra,Jalna,"Old MIDC, Jalna - MPCB",19-04-2024 09:00:00,19.854616,75.905894,NH3,7,8,7
India,Maharashtra,Jalna,"Old MIDC, Jalna - MPCB",19-04-2024 09:00:00,19.854616,75.905894,OZONE,14,192,31
India,Maharashtra,Kalyan,"Khadakpada, Kalyan - MPCB",19-04-2024 09:00:00,19.25292,73.142019,PM10,63,170,113
India,Maharashtra,Kalyan,"Khadakpada, Kalyan - MPCB",19-04-2024 09:00:00,19.25292,73.142019,CO,20,27,22
India,Maharashtra,Kolhapur,"Shivaji University, Kolhapur - MPCB",19-04-2024 09:00:00,16.6870449,74.2505872,PM2.5,16,176,92
India,Maharashtra,Kolhapur,"Shivaji University, Kolhapur - MPCB",19-04-2024 09:00:00,16.6870449,74.2505872,SO2,1,5,2
India,Maharashtra,Kolhapur,"Sinchan Bhavan, Kolhapur - MPCB",19-04-2024 09:00:00,16.7143745,74.2426398,NH3,7,8,8
India,Maharashtra,Kolhapur,"Sinchan Bhavan, Kolhapur - MPCB",19-04-2024 09:00:00,16.7143745,74.2426398,CO,16,36,20
India,Maharashtra,Latur,"Sawe Wadi, Latur - MPCB",19-04-2024 09:00:00,18.39963,76.57452,NH3,2,6,4
India,Maharashtra,Latur,"Sawe Wadi, Latur - MPCB",19-04-2024 09:00:00,18.39963,76.57452,CO,11,112,28
India,Maharashtra,Mahad,"Kamble Tarf Birwadi, Mahad - MPCB",19-04-2024 09:00:00,18.1023399,73.4783687,PM10,NA,NA,NA
India,Maharashtra,Mira-Bhayandar,"Bhayandar West, Mira-Bhayandar - MPCB",19-04-2024 09:00:00,19.296481,72.840923,SO2,1,6,3
India,Maharashtra,Mumbai,"Bandra Kurla Complex, Mumbai - MPCB",19-04-2024 09:00:00,19.065931,72.862131,NO2,6,17,8
India,Maharashtra,Mumbai,"Borivali East, Mumbai - IITM",19-04-2024 09:00:00,19.23241,72.86895,NH3,1,4,2
India,Maharashtra,Mumbai,"Borivali East, Mumbai - MPCB",19-04-2024 09:00:00,19.2243333,72.8658113,PM2.5,26,94,51
India,Maharashtra,Mumbai,"Borivali East, Mumbai - MPCB",19-04-2024 09:00:00,19.2243333,72.8658113,SO2,7,11,8
India,Maharashtra,Mumbai,"Borivali East, Mumbai - MPCB",19-04-2024 09:00:00,19.2243333,72.8658113,OZONE,14,15,15
India,Maharashtra,Mumbai,"Byculla, Mumbai - BMC",19-04-2024 09:00:00,18.9767,72.8380,PM10,35,64,49
India,Maharashtra,Mumbai,"Byculla, Mumbai - BMC",19-04-2024 09:00:00,18.9767,72.8380,NO2,10,22,14
India,Maharashtra,Mumbai,"Byculla, Mumbai - BMC",19-04-2024 09:00:00,18.9767,72.8380,SO2,1,2,1
India,Maharashtra,Mumbai,"Byculla, Mumbai - BMC",19-04-2024 09:00:00,18.9767,72.8380,CO,8,32,10
India,Maharashtra,Mumbai,"Chakala-Andheri East, Mumbai - IITM",19-04-2024 09:00:00,19.11074,72.86084,PM10,NA,NA,NA
India,Maharashtra,Mumbai,"Chembur, Mumbai - MPCB",19-04-2024 09:00:00,19.0364585,72.8954371,PM2.5,67,178,93
India,Maharashtra,Mumbai,"Chembur, Mumbai - MPCB",19-04-2024 09:00:00,19.0364585,72.8954371,PM10,52,137,89
India,Maharashtra,Mumbai,"Chembur, Mumbai - MPCB",19-04-2024 09:00:00,19.0364585,72.8954371,NH3,3,6,4
India,Maharashtra,Mumbai,"Chhatrapati Shivaji Intl. Airport (T2), Mumbai - MPCB",19-04-2024 09:00:00,19.10078,72.87462,NH3,1,11,1
India,Maharashtra,Mumbai,"Colaba, Mumbai - MPCB",19-04-2024 09:00:00,18.910000,72.820000,PM2.5,40,194,65
India,Maharashtra,Mumbai,"Kandivali West, Mumbai - BMC",19-04-2024 09:00:00,19.215859,72.831718,NO2,10,43,18
India,Maharashtra,Mumbai,"Kandivali West, Mumbai - BMC",19-04-2024 09:00:00,19.215859,72.831718,OZONE,16,59,30
India,Maharashtra,Mumbai,"Kurla, Mumbai - MPCB",19-04-2024 09:00:00,19.0863,72.8888,PM10,NA,NA,NA
India,Maharashtra,Mumbai,"Kurla, Mumbai - MPCB",19-04-2024 09:00:00,19.0863,72.8888,NO2,15,20,18
India,Maharashtra,Mumbai,"Kurla, Mumbai - MPCB",19-04-2024 09:00:00,19.0863,72.8888,NH3,2,2,2
India,Maharashtra,Mumbai,"Mazgaon, Mumbai - IITM",19-04-2024 09:00:00,18.96702,72.84214,PM2.5,44,90,67
India,Maharashtra,Mumbai,"Mazgaon, Mumbai - IITM",19-04-2024 09:00:00,18.96702,72.84214,PM10,53,105,81
India,Maharashtra,Mumbai,"Mazgaon, Mumbai - IITM",19-04-2024 09:00:00,18.96702,72.84214,OZONE,6,65,43
India,Maharashtra,Mumbai,"Mindspace-Malad West, Mumbai - MPCB",19-04-2024 09:00:00,19.1878657,72.8304069,NO2,14,48,25
India,Maharashtra,Mumbai,"Mindspace-Malad West, Mumbai - MPCB",19-04-2024 09:00:00,19.1878657,72.8304069,NH3,9,9,9
India,Maharashtra,Mumbai,"Mulund West, Mumbai - MPCB",19-04-2024 09:00:00,19.1750,72.9419,NO2,20,25,22
India,Maharashtra,Mumbai,"Mulund West, Mumbai - MPCB",19-04-2024 09:00:00,19.1750,72.9419,NH3,10,11,10
India,Maharashtra,Mumbai,"Powai, Mumbai - MPCB",19-04-2024 09:00:00,19.137500,72.915056,CO,30,42,36
India,Maharashtra,Mumbai,"Powai, Mumbai - MPCB",19-04-2024 09:00:00,19.137500,72.915056,OZONE,26,76,40
India,Maharashtra,Mumbai,"Sewri, Mumbai - BMC",19-04-2024 09:00:00,19.000084,72.856730,CO,10,28,17
India,Maharashtra,Mumbai,"Shivaji Nagar, Mumbai - BMC",19-04-2024 09:00:00,19.060498,72.923356,PM10,59,123,90
India,Maharashtra,Mumbai,"Shivaji Nagar, Mumbai - BMC",19-04-2024 09:00:00,19.060498,72.923356,NH3,6,14,11
India,Maharashtra,Mumbai,"Shivaji Nagar, Mumbai - BMC",19-04-2024 09:00:00,19.060498,72.923356,SO2,1,15,4
India,Maharashtra,Mumbai,"Shivaji Nagar, Mumbai - BMC",19-04-2024 09:00:00,19.060498,72.923356,OZONE,1,46,21
India,Maharashtra,Mumbai,"Sion, Mumbai - MPCB",19-04-2024 09:00:00,19.047000,72.874600,CO,10,28,22
India,Maharashtra,Mumbai,"Vile Parle West, Mumbai - MPCB",19-04-2024 09:00:00,19.10861,72.83622,PM2.5,53,113,70
India,Maharashtra,Mumbai,"Worli, Mumbai - MPCB",19-04-2024 09:00:00,18.9936162,72.8128113,PM2.5,15,46,28
India,Maharashtra,Mumbai,"Worli, Mumbai - MPCB",19-04-2024 09:00:00,18.9936162,72.8128113,OZONE,6,10,9
India,Maharashtra,Nagpur,"Ambazari, Nagpur - MPCB",19-04-2024 09:00:00,21.121801,79.04952,NO2,15,133,45
India,Maharashtra,Nagpur,"Mahal, Nagpur - MPCB",19-04-2024 09:00:00,21.14472,79.107595,NH3,2,10,4
India,Maharashtra,Nagpur,"Opp GPO Civil Lines, Nagpur - MPCB",19-04-2024 09:00:00,21.152875,79.0517531,PM10,59,137,91
India,Maharashtra,Nagpur,"Opp GPO Civil Lines, Nagpur - MPCB",19-04-2024 09:00:00,21.152875,79.0517531,CO,18,146,56
India,Maharashtra,Nashik,"Gangapur Road, Nashik - MPCB",19-04-2024 09:00:00,20.0073285,73.7762427,NO2,10,23,15
India,Maharashtra,Nashik,"MIDC Ambad, Nashik - MPCB",19-04-2024 09:00:00,19.950220,73.731480,PM2.5,31,64,47
India,Maharashtra,Nashik,"MIDC Ambad, Nashik - MPCB",19-04-2024 09:00:00,19.950220,73.731480,PM10,52,86,65
India,Maharashtra,Nashik,"Pandav Nagari, Nashik - MPCB",19-04-2024 09:00:00,19.9591346,73.7788008,PM2.5,37,78,62
India,Maharashtra,Nashik,"Pandav Nagari, Nashik - MPCB",19-04-2024 09:00:00,19.9591346,73.7788008,NO2,10,25,16
India,Maharashtra,Navi Mumbai,"Kopripada-Vashi, Navi Mumbai - MPCB",19-04-2024 09:00:00,19.090337,73.014232,PM2.5,48,260,79
India,Maharashtra,Navi Mumbai,"Kopripada-Vashi, Navi Mumbai - MPCB",19-04-2024 09:00:00,19.090337,73.014232,SO2,NA,NA,NA
India,Maharashtra,Navi Mumbai,"Mahape, Navi Mumbai - MPCB",19-04-2024 09:00:00,19.1135051,73.008978,PM10,59,243,120
India,Maharashtra,Navi Mumbai,"Mahape, Navi Mumbai - MPCB",19-04-2024 09:00:00,19.1135051,73.008978,OZONE,38,76,45
India,Maharashtra,Navi Mumbai,"Nerul, Navi Mumbai - MPCB",19-04-2024 09:00:00,19.008751,73.016620,PM10,86,184,134
India,Maharashtra,Navi Mumbai,"Nerul, Navi Mumbai - MPCB",19-04-2024 09:00:00,19.008751,73.016620,NO2,53,65,58
India,Maharashtra,Navi Mumbai,"Sanpada, Navi Mumbai - MPCB",19-04-2024 09:00:00,19.0575752,73.0151367,NH3,1,6,4
India,Maharashtra,Navi Mumbai,"Sector-19A Nerul, Navi Mumbai - IITM",19-04-2024 09:00:00,19.044,73.0325,OZONE,6,94,25
India,Maharashtra,Navi Mumbai,"Tondare-Taloja, Navi Mumbai - MPCB",19-04-2024 09:00:00,19.0630,73.1209,NH3,3,5,4
India,Maharashtra,Pimpri-Chinchwad,"Gavalinagar, Pimpri Chinchwad - MPCB",19-04-2024 09:00:00,18.63673,73.82487,PM2.5,33,122,68
India,Maharashtra,Pimpri-Chinchwad,"Gavalinagar, Pimpri Chinchwad - MPCB",19-04-2024 09:00:00,18.63673,73.82487,PM10,22,138,79
India,Maharashtra,Pimpri-Chinchwad,"Gavalinagar, Pimpri Chinchwad - MPCB",19-04-2024 09:00:00,18.63673,73.82487,NO2,16,40,26
India,Maharashtra,Pimpri-Chinchwad,"Park Street Wakad, Pimpri Chinchwad - MPCB",19-04-2024 09:00:00,18.59051,73.77946,SO2,1,11,6
India,Maharashtra,Pimpri-Chinchwad,"Park Street Wakad, Pimpri Chinchwad - MPCB",19-04-2024 09:00:00,18.59051,73.77946,CO,10,41,26
India,Maharashtra,Pimpri-Chinchwad,"Park Street Wakad, Pimpri Chinchwad - MPCB",19-04-2024 09:00:00,18.59051,73.77946,OZONE,16,91,28
India,Maharashtra,Pimpri-Chinchwad,"Thergaon, Pimpri Chinchwad - MPCB",19-04-2024 09:00:00,18.616318,73.765797,CO,20,50,27
India,Maharashtra,Pune,"Bhosari, Pune - IITM",19-04-2024 09:00:00,18.640051,73.848956,CO,NA,NA,NA
India,Maharashtra,Pune,"Katraj Dairy, Pune - MPCB",19-04-2024 09:00:00,18.454450,73.854155,NH3,1,3,2
India,Maharashtra,Pune,"Katraj Dairy, Pune - MPCB",19-04-2024 09:00:00,18.454450,73.854155,OZONE,11,59,23
India,Maharashtra,Pune,"Mhada Colony, Pune - IITM",19-04-2024 09:00:00,18.573040,73.927715,CO,1,68,8
India,Maharashtra,Sangli,"Vijay Nagar, Sangli - MPCB",19-04-2024 09:00:00, 16.5038,74.3623,NO2,11,33,20
India,Maharashtra,Sangli,"Vijay Nagar, Sangli - MPCB",19-04-2024 09:00:00, 16.5038,74.3623,SO2,3,8,6
India,Maharashtra,Sangli,"Vijay Nagar, Sangli - MPCB",19-04-2024 09:00:00, 16.5038,74.3623,CO,14,30,19
India,Maharashtra,Solapur,"Dnyaneshwar Nagar, Solapur - MPCB",19-04-2024 09:00:00,17.6336264,75.9132495,PM2.5,35,202,99
India,Maharashtra,Solapur,"Dnyaneshwar Nagar, Solapur - MPCB",19-04-2024 09:00:00,17.6336264,75.9132495,CO,7,30,13
India,Maharashtra,Solapur,"Ratandeep Housing Society, Solapur - MPCB",19-04-2024 09:00:00,17.65439,75.90649,CO,15,64,21
India,Maharashtra,Solapur,"Ratandeep Housing Society, Solapur - MPCB",19-04-2024 09:00:00,17.65439,75.90649,OZONE,41,143,67
India,Maharashtra,Thane,"Upvan Fort, Thane - MPCB",19-04-2024 09:00:00,19.222279,72.957979,NH3,6,9,7
India,Maharashtra,Thane,"Upvan Fort, Thane - MPCB",19-04-2024 09:00:00,19.222279,72.957979,SO2,2,18,9
India,Maharashtra,Ulhasnagar,"Sidhi Vinayak Nagar, Ulhasnagar - MPCB",19-04-2024 09:00:00,19.235581,73.159121,NO2,7,43,16
India,Maharashtra,Ulhasnagar,"Sidhi Vinayak Nagar, Ulhasnagar - MPCB",19-04-2024 09:00:00,19.235581,73.159121,OZONE,8,171,26
India,Maharashtra,Virar,"Bolinj, Virar - MPCB",19-04-2024 09:00:00,19.4458210,72.7988231,CO,8,54,31
India,Manipur,Imphal,"Manipur University, Imphal - Manipur PCB",19-04-2024 09:00:00,24.7524239,93.9286218,PM2.5,39,93,61
India,Manipur,Imphal,"Manipur University, Imphal - Manipur PCB",19-04-2024 09:00:00,24.7524239,93.9286218,SO2,88,95,90
India,Manipur,Imphal,"Manipur University, Imphal - Manipur PCB",19-04-2024 09:00:00,24.7524239,93.9286218,OZONE,1,38,9
India,Meghalaya,Shillong,"Lumpyngngad, Shillong - Meghalaya PCB",19-04-2024 09:00:00,25.5586,91.8985,CO,7,22,8
India,Mizoram,Aizawl,"Sikulpuikawn, Aizawl - Mizoram PCB",19-04-2024 09:00:00,23.7176342,92.7192841,SO2,2,2,2
India,Nagaland,Kohima,"PWD Juction, Kohima - NPCB",19-04-2024 09:00:00,25.6635413,94.0989878,PM2.5,69,151,108
India,Nagaland,Kohima,"PWD Juction, Kohima - NPCB",19-04-2024 09:00:00,25.6635413,94.0989878,NO2,3,4,3
India,Nagaland,Kohima,"PWD Juction, Kohima - NPCB",19-04-2024 09:00:00,25.6635413,94.0989878,SO2,31,34,32
India,Odisha,Balasore,"Kalidaspur, Balasore - OSPCB",19-04-2024 09:00:00,21.51161,86.89088,NH3,1,4,2
India,Odisha,Barbil,"Forest Office, Barbil - OSPCB",19-04-2024 09:00:00,22.1166054,85.3945546,SO2,9,34,16
India,Odisha,Baripada,"Meher Colony, Baripada - OSPCB",19-04-2024 09:00:00,21.941841,86.728318,OZONE,21,158,53
India,Odisha,Bhubaneswar,"Lingraj Mandir, Bhubaneswar - OSPCB",19-04-2024 09:00:00,20.240790,85.836784,NH3,2,3,3
India,Odisha,Bhubaneswar,"Lingraj Mandir, Bhubaneswar - OSPCB",19-04-2024 09:00:00,20.240790,85.836784,OZONE,4,15,9
India,Odisha,Bileipada,"Tata Township, Bileipada - OSPCB",19-04-2024 09:00:00,22.06156703,85.47409613,OZONE,NA,NA,NA
India,Odisha,Brajrajnagar,"GM Office, Brajrajnagar - OSPCB",19-04-2024 09:00:00,21.8004996,83.8396977,PM2.5,33,243,96
India,Odisha,Byasanagar,"Ferro Chrome Colony, Byasanagar - OSPCB",19-04-2024 09:00:00,20.94185,86.11510,SO2,8,64,22
India,Odisha,Cuttack,"CDA Area, Cuttack - OSPCB",19-04-2024 09:00:00,20.48891     ,85.84768     ,PM2.5,20,167,72
India,Odisha,Cuttack,"CDA Area, Cuttack - OSPCB",19-04-2024 09:00:00,20.48891     ,85.84768     ,NO2,10,33,21
India,Odisha,Cuttack,"CDA Area, Cuttack - OSPCB",19-04-2024 09:00:00,20.48891     ,85.84768     ,NH3,1,2,1
India,Odisha,Keonjhar,"Jagamohanpur, Keonjhar - OSPCB",19-04-2024 09:00:00,21.643900,85.599355,PM10,98,158,122
India,Odisha,Keonjhar,"Jagamohanpur, Keonjhar - OSPCB",19-04-2024 09:00:00,21.643900,85.599355,NO2,18,73,46
India,Odisha,Keonjhar,"Jagamohanpur, Keonjhar - OSPCB",19-04-2024 09:00:00,21.643900,85.599355,SO2,3,13,5
India,Odisha,Nayagarh,"Dabuna, Nayagarh - OSPCB",19-04-2024 09:00:00,21.847279,85.416905,SO2,NA,NA,NA
India,Odisha,Rairangpur,"Divisional Forest Office, Rairangpur - OSPCB",19-04-2024 09:00:00,22.265816,86.174829,NH3,3,3,3
India,Odisha,Suakati,"OMC Colony, Suakati - OSPCB",19-04-2024 09:00:00,21.606865,85.510538,PM2.5,88,323,158
India,Odisha,Talcher,"Talcher Coalfields,Talcher - OSPCB",19-04-2024 09:00:00,20.9360711,85.1707021,OZONE,9,29,25
India,Odisha,Tensa,"Barsua Iron Ore Mines, Tensa - OSPCB",19-04-2024 09:00:00,21.869985,85.167016,PM2.5,65,109,79
India,Puducherry,Puducherry,"Jawahar Nagar, Puducherry - PPCC",19-04-2024 09:00:00,11.9309,79.8027,PM2.5,NA,NA,NA
India,Puducherry,Puducherry,"Jawahar Nagar, Puducherry - PPCC",19-04-2024 09:00:00,11.9309,79.8027,NH3,3,5,4
India,Punjab,Bathinda,"Hardev Nagar, Bathinda - PPCB",19-04-2024 09:00:00,30.233011,74.907758,PM10,78,435,160
India,Punjab,Jalandhar,"Civil Line, Jalandhar - PPCB",19-04-2024 09:00:00,31.321907,75.578914,CO,16,73,22
India,Punjab,Khanna,"Kalal Majra, Khanna - PPCB",19-04-2024 09:00:00,30.736056 ,76.209694,NH3,15,15,15
India,Punjab,Khanna,"Kalal Majra, Khanna - PPCB",19-04-2024 09:00:00,30.736056 ,76.209694,CO,11,22,15
India,Punjab,Ludhiana,"Punjab Agricultural University, Ludhiana - PPCB",19-04-2024 09:00:00,30.9028,75.8086,PM10,43,117,83
India,Punjab,Ludhiana,"Punjab Agricultural University, Ludhiana - PPCB",19-04-2024 09:00:00,30.9028,75.8086,NO2,15,23,17
India,Punjab,Ludhiana,"Punjab Agricultural University, Ludhiana - PPCB",19-04-2024 09:00:00,30.9028,75.8086,NH3,3,5,4
India,Punjab,Mandi Gobindgarh,"RIMT University, Mandi Gobindgarh - PPCB",19-04-2024 09:00:00,30.649961,76.331442,PM10,46,236,106
India,Punjab,Mandi Gobindgarh,"RIMT University, Mandi Gobindgarh - PPCB",19-04-2024 09:00:00,30.649961,76.331442,CO,3,44,30
India,Punjab,Patiala,"Model Town, Patiala - PPCB",19-04-2024 09:00:00,30.349388,76.366642,NO2,22,33,24
India,Rajasthan,Ajmer,"Civil Lines,  Ajmer - RSPCB",19-04-2024 09:00:00,26.470859,74.646594,PM2.5,36,70,52
India,Rajasthan,Ajmer,"Civil Lines,  Ajmer - RSPCB",19-04-2024 09:00:00,26.470859,74.646594,OZONE,4,81,33
India,Rajasthan,Alwar,"Moti Doongri, Alwar - RSPCB",19-04-2024 09:00:00,27.554793,76.611536,CO,15,54,28
India,Rajasthan,Alwar,"Moti Doongri, Alwar - RSPCB",19-04-2024 09:00:00,27.554793,76.611536,OZONE,4,14,6
India,Rajasthan,Banswara,"Rati Talai, Banswara - RSPCB",19-04-2024 09:00:00,23.555190,74.440010,PM2.5,22,91,50
India,Rajasthan,Banswara,"Rati Talai, Banswara - RSPCB",19-04-2024 09:00:00,23.555190,74.440010,PM10,26,100,56
India,Rajasthan,Baran,"Bamboliya, Baran - RSPCB",19-04-2024 09:00:00,25.106006,76.469948,NO2,10,89,27
India,Rajasthan,Baran,"Bamboliya, Baran - RSPCB",19-04-2024 09:00:00,25.106006,76.469948,NH3,1,6,3
India,Rajasthan,Barmer,"Railway Colony, Barmer - RSPCB",19-04-2024 09:00:00,25.747299,71.393989,PM2.5,26,82,44
India,Rajasthan,Barmer,"Railway Colony, Barmer - RSPCB",19-04-2024 09:00:00,25.747299,71.393989,CO,62,97,65
India,Rajasthan,Barmer,"Railway Colony, Barmer - RSPCB",19-04-2024 09:00:00,25.747299,71.393989,OZONE,5,59,33
India,Rajasthan,Bhilwara,"Pratap Nagar, Bhilwara - RSPCB",19-04-2024 09:00:00,25.339605,74.618883,SO2,5,38,12
India,Rajasthan,Bhilwara,"Pratap Nagar, Bhilwara - RSPCB",19-04-2024 09:00:00,25.339605,74.618883,CO,14,38,24
India,Rajasthan,Bhiwadi,"RIICO Ind. Area III, Bhiwadi - RSPCB",19-04-2024 09:00:00,28.194909,76.862296,PM10,62,293,170
India,Rajasthan,Bhiwadi,"RIICO Ind. Area III, Bhiwadi - RSPCB",19-04-2024 09:00:00,28.194909,76.862296,OZONE,4,47,9
India,Rajasthan,Bundi,"New Colony, Bundi - RSPCB",19-04-2024 09:00:00,25.435774,75.644272,PM2.5,18,112,35
India,Rajasthan,Bundi,"New Colony, Bundi - RSPCB",19-04-2024 09:00:00,25.435774,75.644272,NO2,8,46,21
India,Rajasthan,Chittorgarh,"Shastri Nagar, Chittorgarh - RSPCB",19-04-2024 09:00:00,24.892047,74.623527,NO2,15,80,44
India,Rajasthan,Dausa,"Khatikan Mohalla, Dausa - RSPCB",19-04-2024 09:00:00,26.895552,76.334753,SO2,2,6,3
India,Rajasthan,Dholpur,"Raja Ganj, Dholpur - RSPCB",19-04-2024 09:00:00,26.699557,77.898881,PM2.5,23,98,56
India,Rajasthan,Dungarpur,"Bhoiwada, Dungarpur - RSPCB",19-04-2024 09:00:00,23.837789,73.714926,SO2,1,11,6
India,Rajasthan,Hanumangarh,"Housing Board, Hanumangarh - RSPCB",19-04-2024 09:00:00,29.610750,74.283608,PM10,98,457,215
India,Rajasthan,Jaipur,"Mansarovar Sector-12, Jaipur - RSPCB",19-04-2024 09:00:00,26.843698,75.766894,OZONE,78,82,81
India,Rajasthan,Jaipur,"Police Commissionerate, Jaipur - RSPCB",19-04-2024 09:00:00,26.9164092,75.7994901,PM10,67,366,130
India,Rajasthan,Jaipur,"Police Commissionerate, Jaipur - RSPCB",19-04-2024 09:00:00,26.9164092,75.7994901,SO2,5,60,27
India,Rajasthan,Jaipur,"Sector-2 Murlipura, Jaipur - RSPCB",19-04-2024 09:00:00,26.960669,75.771817,CO,7,74,36
India,Rajasthan,Jaipur,"Shastri Nagar, Jaipur - RSPCB",19-04-2024 09:00:00,26.9502929,75.730943,PM10,NA,NA,NA
India,Rajasthan,Jaipur,"Shastri Nagar, Jaipur - RSPCB",19-04-2024 09:00:00,26.9502929,75.730943,OZONE,26,51,30
India,Rajasthan,Jaisalmer,"Sadar Bazar, Jaisalmer - RSPCB",19-04-2024 09:00:00,26.912329,70.909168,NO2,5,17,11
India,Rajasthan,Jaisalmer,"Sadar Bazar, Jaisalmer - RSPCB",19-04-2024 09:00:00,26.912329,70.909168,NH3,3,8,6
India,Rajasthan,Jaisalmer,"Sadar Bazar, Jaisalmer - RSPCB",19-04-2024 09:00:00,26.912329,70.909168,CO,14,23,16
India,Rajasthan,Jalore,"Mudtra Sili, Jalore - RSPCB",19-04-2024 09:00:00,25.344694,72.626208,NO2,5,40,16
India,Rajasthan,Jhalawar,"Rajlaxmi Nagar, Jhalawar - RSPCB",19-04-2024 09:00:00,24.588397,76.172782,PM10,64,178,108
India,Rajasthan,Jhalawar,"Rajlaxmi Nagar, Jhalawar - RSPCB",19-04-2024 09:00:00,24.588397,76.172782,OZONE,5,87,26
India,Rajasthan,Jodhpur,"Collectorate, Jodhpur - RSPCB",19-04-2024 09:00:00,26.268249,73.0193853,PM2.5,35,350,166
India,Rajasthan,Jodhpur,"Collectorate, Jodhpur - RSPCB",19-04-2024 09:00:00,26.268249,73.0193853,CO,44,100,62
India,Rajasthan,Jodhpur,"Jhalamand, Jodhpur - RSPCB",19-04-2024 09:00:00,26.215415,73.070156,SO2,1,11,3
India,Rajasthan,Jodhpur,"Mandor, Jodhpur - RSPCB",19-04-2024 09:00:00,26.358805,73.047444,PM10,64,178,119
India,Rajasthan,Jodhpur,"Mandor, Jodhpur - RSPCB",19-04-2024 09:00:00,26.358805,73.047444,NH3,6,13,10
India,Rajasthan,Jodhpur,"Samrat Ashok Udhyan, Jodhpur - RSPCB",19-04-2024 09:00:00,26.253384,72.976571,NO2,6,53,20
India,Rajasthan,Jodhpur,"Samrat Ashok Udhyan, Jodhpur - RSPCB",19-04-2024 09:00:00,26.253384,72.976571,NH3,4,7,6
India,Rajasthan,Jodhpur,"Samrat Ashok Udhyan, Jodhpur - RSPCB",19-04-2024 09:00:00,26.253384,72.976571,SO2,3,37,8
India,Rajasthan,Jodhpur,"Samrat Ashok Udhyan, Jodhpur - RSPCB",19-04-2024 09:00:00,26.253384,72.976571,OZONE,18,99,41
India,Rajasthan,Karauli,"Satyawati Vihar, Karauli - RSPCB",19-04-2024 09:00:00,26.506177,77.025989,PM2.5,18,78,43
India,Rajasthan,Karauli,"Satyawati Vihar, Karauli - RSPCB",19-04-2024 09:00:00,26.506177,77.025989,CO,9,22,16
India,Rajasthan,Karauli,"Satyawati Vihar, Karauli - RSPCB",19-04-2024 09:00:00,26.506177,77.025989,OZONE,17,79,34
India,Rajasthan,Kota,"Shrinath Puram, Kota - RSPCB",19-04-2024 09:00:00,25.14389,75.821256,PM10,62,128,86
India,Rajasthan,Nagaur,"Karni Colony, Nagaur - RSPCB",19-04-2024 09:00:00,27.213494,73.734444,NH3,5,9,6
India,Rajasthan,Nagaur,"Karni Colony, Nagaur - RSPCB",19-04-2024 09:00:00,27.213494,73.734444,OZONE,41,85,50
India,Rajasthan,Pali,"Indira Colony Vistar, Pali - RSPCB",19-04-2024 09:00:00,25.771061, 73.340227,PM10,84,163,119
India,Rajasthan,Pratapgarh,"Pragati Nagar, Pratapgarh - RSPCB",19-04-2024 09:00:00,24.041198,74.780702,NH3,4,6,4
India,Rajasthan,Rajsamand,"Dhoinda, Rajsamand - RSPCB",19-04-2024 09:00:00,25.036360,73.883502,NH3,2,11,6
India,Rajasthan,Sikar,"Radhakishan Pura, Sikar - RSPCB",19-04-2024 09:00:00,27.608912,75.153302,PM2.5,11,64,35
India,Rajasthan,Sikar,"Radhakishan Pura, Sikar - RSPCB",19-04-2024 09:00:00,27.608912,75.153302,PM10,36,317,122
India,Rajasthan,Sirohi,"Vedhaynath Colony, Sirohi - RSPCB",19-04-2024 09:00:00,24.885261,72.857549,NO2,3,32,11
India,Rajasthan,Sirohi,"Vedhaynath Colony, Sirohi - RSPCB",19-04-2024 09:00:00,24.885261,72.857549,SO2,8,20,14
India,Rajasthan,Sirohi,"Vedhaynath Colony, Sirohi - RSPCB",19-04-2024 09:00:00,24.885261,72.857549,CO,44,114,54
India,Rajasthan,Sri Ganganagar,"Old City, Sri Ganganagar - RSPCB",19-04-2024 09:00:00,29.931624,73.864511,NO2,3,103,68
India,Rajasthan,Tonk,"Shastri Nagar, Tonk - RSPCB",19-04-2024 09:00:00,26.159933,75.780517,CO,2,28,17
India,Rajasthan,Tonk,"Shastri Nagar, Tonk - RSPCB",19-04-2024 09:00:00,26.159933,75.780517,OZONE,18,79,34
India,Rajasthan,Udaipur,"Ashok Nagar, Udaipur - RSPCB",19-04-2024 09:00:00,24.5886166,73.6321397,NO2,32,137,68
India,Rajasthan,Udaipur,"Ashok Nagar, Udaipur - RSPCB",19-04-2024 09:00:00,24.5886166,73.6321397,NH3,6,19,13
India,Sikkim,Gangtok,"Zero Point GICI, Gangtok - SSPCB",19-04-2024 09:00:00,27.338530,88.614099,PM10,26,48,37
India,TamilNadu,Chengalpattu,"Crescent University, Chengalpattu - TNPCB",19-04-2024 09:00:00,12.8777316,80.0834807,OZONE,6,7,6
India,TamilNadu,Chennai,"Kodungaiyur, Chennai - TNPCB",19-04-2024 09:00:00,13.1278,80.2642,CO,8,62,31
India,TamilNadu,Chennai,"Manali, Chennai - CPCB",19-04-2024 09:00:00,13.164544,80.26285,NO2,8,9,9
India,TamilNadu,Chennai,"Manali, Chennai - CPCB",19-04-2024 09:00:00,13.164544,80.26285,SO2,3,9,6
India,TamilNadu,Chennai,"Manali, Chennai - CPCB",19-04-2024 09:00:00,13.164544,80.26285,OZONE,15,19,18
India,TamilNadu,Chennai,"Perungudi, Chennai - TNPCB",19-04-2024 09:00:00,12.9533,80.2357,NH3,2,3,2
India,TamilNadu,Chennai,"Perungudi, Chennai - TNPCB",19-04-2024 09:00:00,12.9533,80.2357,SO2,1,6,2
India,TamilNadu,Chennai,"Royapuram, Chennai - TNPCB",19-04-2024 09:00:00,13.1036,80.2909,CO,NA,NA,NA
India,TamilNadu,Coimbatore,"PSG College of Arts and Science, Coimbatore - TNPCB",19-04-2024 09:00:00,11.0328,77.0349,NH3,1,1,1
India,TamilNadu,Coimbatore,"PSG College of Arts and Science, Coimbatore - TNPCB",19-04-2024 09:00:00,11.0328,77.0349,OZONE,3,5,4
India,TamilNadu,Cuddalore,"Kudikadu, Cuddalore - TNPCB",19-04-2024 09:00:00,11.6829898,79.7532099,PM10,20,124,53
India,TamilNadu,Cuddalore,"Semmandalam, Cuddalore - TNPCB",19-04-2024 09:00:00,11.7637683,79.7499835,PM2.5,NA,NA,NA
India,TamilNadu,Cuddalore,"Semmandalam, Cuddalore - TNPCB",19-04-2024 09:00:00,11.7637683,79.7499835,NO2,NA,NA,NA
India,TamilNadu,Cuddalore,"Semmandalam, Cuddalore - TNPCB",19-04-2024 09:00:00,11.7637683,79.7499835,NH3,NA,NA,NA
India,TamilNadu,Gummidipoondi,"Anthoni Pillai Nagar, Gummidipoondi - TNPCB",19-04-2024 09:00:00,13.4127,80.1081,SO2,2,77,19
India,TamilNadu,Kanchipuram,"Kilambi, Kanchipuram - TNPCB",19-04-2024 09:00:00,12.864618,79.659968,PM2.5,NA,NA,NA
India,TamilNadu,Kanchipuram,"Kilambi, Kanchipuram - TNPCB",19-04-2024 09:00:00,12.864618,79.659968,PM10,NA,NA,NA
India,TamilNadu,Palkalaiperur,"Bharathidasan University, Palkalaiperur - TNPCB",19-04-2024 09:00:00,10.681158,78.741746,PM10,11,42,24
India,TamilNadu,Palkalaiperur,"Bharathidasan University, Palkalaiperur - TNPCB",19-04-2024 09:00:00,10.681158,78.741746,CO,2,17,3
India,TamilNadu,Salem,"Sona College of Technology, Salem - TNPCB",19-04-2024 09:00:00,11.679111,78.125052,PM2.5,NA,NA,NA
India,TamilNadu,Salem,"Sona College of Technology, Salem - TNPCB",19-04-2024 09:00:00,11.679111,78.125052,PM10,NA,NA,NA
India,TamilNadu,Salem,"Sona College of Technology, Salem - TNPCB",19-04-2024 09:00:00,11.679111,78.125052,OZONE,NA,NA,NA
India,TamilNadu,Thoothukudi,"Meelavittan, Thoothukudi - TNPCB",19-04-2024 09:00:00,8.816428 ,78.099039,PM10,31,70,47
India,TamilNadu,Tirupur,"Kumaran College, Tirupur - TNPCB",19-04-2024 09:00:00,11.0973603,77.3228673,SO2,NA,NA,NA
India,TamilNadu,Vellore,"Vasanthapuram, Vellore - TNPCB",19-04-2024 09:00:00,12.909494,79.131861,PM10,NA,NA,NA
India,TamilNadu,Vellore,"Vasanthapuram, Vellore - TNPCB",19-04-2024 09:00:00,12.909494,79.131861,NO2,NA,NA,NA
India,TamilNadu,Vellore,"Vasanthapuram, Vellore - TNPCB",19-04-2024 09:00:00,12.909494,79.131861,NH3,NA,NA,NA
India,TamilNadu,Vellore,"Vasanthapuram, Vellore - TNPCB",19-04-2024 09:00:00,12.909494,79.131861,SO2,NA,NA,NA
India,Telangana,Hyderabad,"Central University, Hyderabad - TSPCB",19-04-2024 09:00:00,17.460103,78.334361,PM10,58,120,100
India,Telangana,Hyderabad,"ICRISAT Patancheru, Hyderabad - TSPCB",19-04-2024 09:00:00,17.518400,78.278777,NH3,2,2,2
India,Telangana,Hyderabad,"IITH Kandi, Hyderabad - TSPCB",19-04-2024 09:00:00,17.585705,78.126199,NH3,NA,NA,NA
India,Telangana,Hyderabad,"Kokapet, Hyderabad - TSPCB",19-04-2024 09:00:00,17.393559,78.339194,NH3,2,2,2
India,Telangana,Hyderabad,"Kompally Municipal Office, Hyderabad - TSPCB",19-04-2024 09:00:00,17.544899,78.486949,NH3,6,6,6
India,Telangana,Hyderabad,"Kompally Municipal Office, Hyderabad - TSPCB",19-04-2024 09:00:00,17.544899,78.486949,SO2,1,8,4
India,Telangana,Hyderabad,"Kompally Municipal Office, Hyderabad - TSPCB",19-04-2024 09:00:00,17.544899,78.486949,OZONE,1,93,7
India,Telangana,Hyderabad,"Nacharam_TSIIC IALA, Hyderabad - TSPCB",19-04-2024 09:00:00,17.429398,78.569354,PM10,NA,NA,NA
India,Telangana,Hyderabad,"Nacharam_TSIIC IALA, Hyderabad - TSPCB",19-04-2024 09:00:00,17.429398,78.569354,OZONE,NA,NA,NA
India,Telangana,Hyderabad,"Ramachandrapuram, Hyderabad - TSPCB",19-04-2024 09:00:00,17.528544,78.286195,PM10,71,86,84
India,Telangana,Hyderabad,"Ramachandrapuram, Hyderabad - TSPCB",19-04-2024 09:00:00,17.528544,78.286195,NO2,9,11,9
India,Telangana,Hyderabad,"Ramachandrapuram, Hyderabad - TSPCB",19-04-2024 09:00:00,17.528544,78.286195,CO,26,32,31
India,Telangana,Hyderabad,"Sanathnagar, Hyderabad - TSPCB",19-04-2024 09:00:00,17.4559458,78.4332152,PM2.5,79,205,110
India,Telangana,Hyderabad,"Somajiguda, Hyderabad - TSPCB",19-04-2024 09:00:00,17.417094,78.457437,NH3,NA,NA,NA
India,Telangana,Hyderabad,"Somajiguda, Hyderabad - TSPCB",19-04-2024 09:00:00,17.417094,78.457437,CO,NA,NA,NA
India,Telangana,Hyderabad,"Zoo Park, Hyderabad - TSPCB",19-04-2024 09:00:00,17.349694,78.451437,PM2.5,52,98,76
India,Tripura,Agartala,"Bardowali, Agartala - Tripura SPCB",19-04-2024 09:00:00,23.8175497,91.2726974,PM10,50,112,84
India,Tripura,Agartala,"Bardowali, Agartala - Tripura SPCB",19-04-2024 09:00:00,23.8175497,91.2726974,SO2,29,30,29
India,Uttar_Pradesh,Agra,"Manoharpur, Agra - UPPCB",19-04-2024 09:00:00,27.23711,78.01936,NO2,31,31,31
India,Uttar_Pradesh,Agra,"Rohta, Agra - UPPCB",19-04-2024 09:00:00,27.106972,78.000111,CO,6,14,9
India,Uttar_Pradesh,Agra,"Sector-3B Avas Vikas Colony, Agra - UPPCB",19-04-2024 09:00:00,27.19412,77.96237,PM10,31,124,58
India,Uttar_Pradesh,Agra,"Sector-3B Avas Vikas Colony, Agra - UPPCB",19-04-2024 09:00:00,27.19412,77.96237,NO2,22,23,23
India,Uttar_Pradesh,Agra,"Sector-3B Avas Vikas Colony, Agra - UPPCB",19-04-2024 09:00:00,27.19412,77.96237,CO,5,15,10
India,Uttar_Pradesh,Agra,"Shastripuram, Agra - UPPCB",19-04-2024 09:00:00,27.19862,77.92066,NH3,NA,NA,NA
India,Uttar_Pradesh,Agra,"Shastripuram, Agra - UPPCB",19-04-2024 09:00:00,27.19862,77.92066,CO,6,13,9
India,Uttar_Pradesh,Baghpat,"Sardar Patel Inter College, Baghpat - UPPCB",19-04-2024 09:00:00,28.964949,77.278761,SO2,3,112,42
India,Uttar_Pradesh,Bareilly,"Civil Lines, Bareilly - UPPCB",19-04-2024 09:00:00,28.359581,79.414455,PM10,59,125,87
India,Uttar_Pradesh,Bareilly,"Rajendra Nagar, Bareilly - UPPCB",19-04-2024 09:00:00,28.38910936,79.42963708,OZONE,1,36,1
India,Uttar_Pradesh,Bulandshahr,"Yamunapuram, Bulandshahr - UPPCB",19-04-2024 09:00:00,28.406963,77.849831,NH3,10,16,12
India,Uttar_Pradesh,Firozabad,"Nagla Bhau, Firozabad - UPPCB",19-04-2024 09:00:00,27.168897,78.376960,CO,18,33,23
India,Uttar_Pradesh,Firozabad,"Vibhab Nagar, Firozabad - UPPCB",19-04-2024 09:00:00,27.1594,78.3953,PM10,34,87,59
India,Uttar_Pradesh,Ghaziabad,"Indirapuram, Ghaziabad - UPPCB",19-04-2024 09:00:00,28.646233,77.358075,PM2.5,28,206,89
India,Uttar_Pradesh,Ghaziabad,"Loni, Ghaziabad - UPPCB",19-04-2024 09:00:00,28.757294,77.278792,PM2.5,18,218,83
India,Uttar_Pradesh,Ghaziabad,"Vasundhara, Ghaziabad - UPPCB",19-04-2024 09:00:00,28.6603346,77.3572563,PM10,66,190,124
India,Uttar_Pradesh,Greater Noida,"Knowledge Park - III, Greater Noida - UPPCB",19-04-2024 09:00:00,28.47272,77.482000,PM2.5,33,238,93
India,Uttar_Pradesh,Greater Noida,"Knowledge Park - III, Greater Noida - UPPCB",19-04-2024 09:00:00,28.47272,77.482000,PM10,131,339,214
India,Uttar_Pradesh,Greater Noida,"Knowledge Park - V, Greater Noida - UPPCB",19-04-2024 09:00:00,28.557054,77.453663,SO2,3,31,15
India,Uttar_Pradesh,Greater Noida,"Knowledge Park - V, Greater Noida - UPPCB",19-04-2024 09:00:00,28.557054,77.453663,CO,7,88,27
India,Uttar_Pradesh,Jhansi,"Shivaji Nagar, Jhansi - UPPCB",19-04-2024 09:00:00,25.4547,78.6039,CO,8,98,46
India,Uttar_Pradesh,Kanpur,"FTI Kidwai Nagar, Kanpur - UPPCB",19-04-2024 09:00:00,26.428282,80.327067,PM10,75,201,124
India,Uttar_Pradesh,Kanpur,"FTI Kidwai Nagar, Kanpur - UPPCB",19-04-2024 09:00:00,26.428282,80.327067,CO,26,55,41
India,Uttar_Pradesh,Kanpur,"FTI Kidwai Nagar, Kanpur - UPPCB",19-04-2024 09:00:00,26.428282,80.327067,OZONE,3,9,3
India,Uttar_Pradesh,Lucknow,"B R Ambedkar University, Lucknow - UPPCB",19-04-2024 09:00:00,26.766433,80.927299,NH3,6,9,7
India,Uttar_Pradesh,Lucknow,"Gomti Nagar, Lucknow - UPPCB",19-04-2024 09:00:00,26.868120,81.005119,CO,40,46,40
India,Uttar_Pradesh,Lucknow,"Kendriya Vidyalaya, Lucknow - CPCB",19-04-2024 09:00:00,26.906111,80.948222,OZONE,35,67,44
India,Uttar_Pradesh,Lucknow,"Kukrail Picnic Spot-1, Lucknow - UPPCB",19-04-2024 09:00:00,26.90723,80.98579,NO2,8,8,8
India,Uttar_Pradesh,Lucknow,"Talkatora District Industries Center, Lucknow - CPCB",19-04-2024 09:00:00,26.83399722,80.8917361,PM10,131,353,177
India,Uttar_Pradesh,Lucknow,"Talkatora District Industries Center, Lucknow - CPCB",19-04-2024 09:00:00,26.83399722,80.8917361,NH3,7,16,11
India,Uttar_Pradesh,Lucknow,"Talkatora District Industries Center, Lucknow - CPCB",19-04-2024 09:00:00,26.83399722,80.8917361,SO2,1,20,4
India,Uttar_Pradesh,Lucknow,"Talkatora District Industries Center, Lucknow - CPCB",19-04-2024 09:00:00,26.83399722,80.8917361,OZONE,2,81,7
India,Uttar_Pradesh,Meerut,"Ganga Nagar, Meerut - UPPCB",19-04-2024 09:00:00,28.999264,77.7590354,NH3,NA,NA,NA
India,Uttar_Pradesh,Meerut,"Ganga Nagar, Meerut - UPPCB",19-04-2024 09:00:00,28.999264,77.7590354,SO2,NA,NA,NA
India,Uttar_Pradesh,Meerut,"Ganga Nagar, Meerut - UPPCB",19-04-2024 09:00:00,28.999264,77.7590354,OZONE,NA,NA,NA
India,Uttar_Pradesh,Meerut,"Jai Bhim Nagar, Meerut - UPPCB",19-04-2024 09:00:00,28.9535882,77.7622941,NO2,3,71,27
India,Uttar_Pradesh,Moradabad,"Buddhi Vihar, Moradabad - UPPCB",19-04-2024 09:00:00,28.83526,78.74460,CO,17,27,25
India,Uttar_Pradesh,Moradabad,"Buddhi Vihar, Moradabad - UPPCB",19-04-2024 09:00:00,28.83526,78.74460,OZONE,17,41,18
India,Uttar_Pradesh,Moradabad,"Eco Herbal Park, Moradabad - UPPCB",19-04-2024 09:00:00,28.840739,78.697531,NO2,5,42,19
India,Uttar_Pradesh,Moradabad,"Eco Herbal Park, Moradabad - UPPCB",19-04-2024 09:00:00,28.840739,78.697531,OZONE,34,139,46
India,Uttar_Pradesh,Moradabad,"Employment Office, Moradabad - UPPCB",19-04-2024 09:00:00,28.88528,78.73880,NO2,16,23,19
India,Uttar_Pradesh,Moradabad,"Jigar Colony, Moradabad - UPPCB",19-04-2024 09:00:00,28.856664,78.772638,CO,20,35,33
India,Uttar_Pradesh,Moradabad,"Kashiram Nagar, Moradabad - UPPCB",19-04-2024 09:00:00,28.849399,78.742362,SO2,36,43,39
India,Uttar_Pradesh,Muzaffarnagar,"New Mandi, Muzaffarnagar - UPPCB",19-04-2024 09:00:00,29.4723508,77.7194031,SO2,4,84,36
India,Uttar_Pradesh,Muzaffarnagar,"New Mandi, Muzaffarnagar - UPPCB",19-04-2024 09:00:00,29.4723508,77.7194031,OZONE,16,73,33
India,Uttar_Pradesh,Noida,"Sector - 125, Noida - UPPCB",19-04-2024 09:00:00,28.5447608,77.3231257,NH3,4,19,10
India,Uttar_Pradesh,Noida,"Sector - 125, Noida - UPPCB",19-04-2024 09:00:00,28.5447608,77.3231257,SO2,14,55,23
India,Uttar_Pradesh,Noida,"Sector - 62, Noida - IMD",19-04-2024 09:00:00,28.6245479,77.3577104,CO,33,100,95
India,Uttar_Pradesh,Noida,"Sector-1, Noida - UPPCB",19-04-2024 09:00:00,28.5898,77.3101,PM10,109,269,172
India,Uttar_Pradesh,Prayagraj,"Jhunsi, Prayagraj - UPPCB",19-04-2024 09:00:00,25.425602,81.917152,PM2.5,13,62,38
India,Uttar_Pradesh,Prayagraj,"Jhunsi, Prayagraj - UPPCB",19-04-2024 09:00:00,25.425602,81.917152,NO2,6,6,6
India,Uttar_Pradesh,Prayagraj,"Jhunsi, Prayagraj - UPPCB",19-04-2024 09:00:00,25.425602,81.917152,OZONE,2,52,10
India,Uttar_Pradesh,Prayagraj,"Motilal Nehru NIT, Prayagraj - UPPCB",19-04-2024 09:00:00,25.494,81.863,NO2,12,12,12
India,Uttar_Pradesh,Varanasi,"Ardhali Bazar, Varanasi - UPPCB",19-04-2024 09:00:00,25.3505986,82.9083074,SO2,14,26,18
India,Uttar_Pradesh,Varanasi,"Ardhali Bazar, Varanasi - UPPCB",19-04-2024 09:00:00,25.3505986,82.9083074,OZONE,14,23,15
India,Uttar_Pradesh,Varanasi,"Bhelupur, Varanasi - UPPCB",19-04-2024 09:00:00,25.301778,82.996789,NH3,1,1,1
India,Uttar_Pradesh,Varanasi,"Bhelupur, Varanasi - UPPCB",19-04-2024 09:00:00,25.301778,82.996789,CO,12,36,23
India,Uttar_Pradesh,Varanasi,"IESD Banaras Hindu University, Varanasi - UPPCB",19-04-2024 09:00:00,25.262326,82.995408,NO2,NA,NA,NA
India,Uttar_Pradesh,Varanasi,"IESD Banaras Hindu University, Varanasi - UPPCB",19-04-2024 09:00:00,25.262326,82.995408,NH3,NA,NA,NA
India,Uttar_Pradesh,Varanasi,"Maldahiya, Varanasi - UPPCB",19-04-2024 09:00:00,25.32393,82.99687,CO,1,27,11
India,Uttar_Pradesh,Vrindavan,"Omex Eternity, Vrindavan - UPPCB",19-04-2024 09:00:00,27.5714090,77.6557570,NH3,1,2,1
India,Uttarakhand,Kashipur,"Govt. Girls Inter College, Kashipur - UKPCB",19-04-2024 09:00:00,29.2124114,78.9611753,SO2,9,12,10
India,Uttarakhand,Rishikesh,"Shivaji Nagar, Rishikesh - UKPCB",19-04-2024 09:00:00,30.075911,78.2859547,PM2.5,31,85,47
India,West_Bengal,Asansol,"Asansol Court Area, Asansol - WBPCB",19-04-2024 09:00:00,23.685297,86.945968,NH3,7,13,10
India,West_Bengal,Durgapur,"Sidhu Kanhu Indoor Stadium, Durgapur - WBPCB",19-04-2024 09:00:00,23.5404352,87.2892225,PM10,126,210,166
India,West_Bengal,Durgapur,"Sidhu Kanhu Indoor Stadium, Durgapur - WBPCB",19-04-2024 09:00:00,23.5404352,87.2892225,CO,27,92,68
India,West_Bengal,Haldia,"Priyambada Housing Estate, Haldia - WBPCB",19-04-2024 09:00:00,22.06047,88.109737,PM2.5,25,64,47
India,West_Bengal,Howrah,"Belur Math, Howrah - WBPCB",19-04-2024 09:00:00,22.629801,88.352017,CO,2,82,10
India,West_Bengal,Howrah,"Ghusuri, Howrah - WBPCB",19-04-2024 09:00:00,22.611968,88.347422,OZONE,10,28,15
India,West_Bengal,Howrah,"Padmapukur, Howrah - WBPCB",19-04-2024 09:00:00,22.5687319,88.2797276,PM2.5,48,105,69
India,West_Bengal,Kolkata,"Ballygunge, Kolkata - WBPCB",19-04-2024 09:00:00,22.5367507,88.3638022,SO2,6,27,18
India,West_Bengal,Kolkata,"Bidhannagar, Kolkata - WBPCB",19-04-2024 09:00:00,22.58157048,88.41002457,PM2.5,50,94,68
India,West_Bengal,Kolkata,"Bidhannagar, Kolkata - WBPCB",19-04-2024 09:00:00,22.58157048,88.41002457,NO2,23,144,45
India,West_Bengal,Kolkata,"Bidhannagar, Kolkata - WBPCB",19-04-2024 09:00:00,22.58157048,88.41002457,OZONE,8,140,70
India,West_Bengal,Kolkata,"Jadavpur, Kolkata - WBPCB",19-04-2024 09:00:00,22.49929,88.36917,NH3,1,5,4
India,West_Bengal,Kolkata,"Jadavpur, Kolkata - WBPCB",19-04-2024 09:00:00,22.49929,88.36917,OZONE,19,131,56
India,West_Bengal,Kolkata,"Rabindra Bharati University, Kolkata - WBPCB",19-04-2024 09:00:00,22.627847,88.380669,PM2.5,38,138,62
India,West_Bengal,Kolkata,"Rabindra Bharati University, Kolkata - WBPCB",19-04-2024 09:00:00,22.627847,88.380669,SO2,3,8,6
India,West_Bengal,Kolkata,"Rabindra Sarobar, Kolkata - WBPCB",19-04-2024 09:00:00,22.51106,88.35142,NO2,18,161,42
India,West_Bengal,Siliguri,"Ward-32 Bapupara, Siliguri - WBPCB",19-04-2024 09:00:00,26.6879226,88.4152495,NO2,29,61,41
India,Andhra_Pradesh,Amaravati,"Secretariat, Amaravati - APPCB",19-04-2024 09:00:00,16.5150833,80.5181667,CO,19,48,34
India,Andhra_Pradesh,Chittoor,"Gangineni Cheruvu, Chittoor - APPCB",19-04-2024 09:00:00,13.204880,79.097889,PM10,22,132,65
India,Andhra_Pradesh,Vijayawada,"Rajiv Gandhi Park, Vijayawada - APPCB",19-04-2024 09:00:00,16.509717,80.612222,CO,36,36,36
India,Andhra_Pradesh,Vijayawada,"Rajiv Nagar, Vijayawada - APPCB",19-04-2024 09:00:00,16.554731,80.649110,PM10,59,65,62
India,Andhra_Pradesh,Vijayawada,"Rajiv Nagar, Vijayawada - APPCB",19-04-2024 09:00:00,16.554731,80.649110,OZONE,11,39,16
India,Andhra_Pradesh,Visakhapatnam,"GVM Corporation, Visakhapatnam - APPCB",19-04-2024 09:00:00,17.72,83.3,PM10,69,143,99
India,Andhra_Pradesh,Visakhapatnam,"GVM Corporation, Visakhapatnam - APPCB",19-04-2024 09:00:00,17.72,83.3,NH3,3,6,4
India,Andhra_Pradesh,Visakhapatnam,"GVM Corporation, Visakhapatnam - APPCB",19-04-2024 09:00:00,17.72,83.3,CO,14,104,28
India,Assam,Byrnihat,"Central Academy for SFS, Byrnihat - PCBA",19-04-2024 09:00:00,26.071318,91.87488,PM10,16,425,174
India,Assam,Byrnihat,"Central Academy for SFS, Byrnihat - PCBA",19-04-2024 09:00:00,26.071318,91.87488,NO2,32,107,54
India,Assam,Guwahati,"IITG, Guwahati - PCBA",19-04-2024 09:00:00,26.2028636,91.70046436,PM10,48,149,100
India,Assam,Guwahati,"LGBI Airport, Guwahati - PCBA",19-04-2024 09:00:00,26.10887,91.589544,PM10,47,208,110
India,Assam,Guwahati,"LGBI Airport, Guwahati - PCBA",19-04-2024 09:00:00,26.10887,91.589544,NH3,2,5,4
India,Assam,Guwahati,"LGBI Airport, Guwahati - PCBA",19-04-2024 09:00:00,26.10887,91.589544,CO,46,63,57
India,Assam,Guwahati,"Railway Colony, Guwahati - PCBA",19-04-2024 09:00:00,26.181742,91.78063,PM2.5,41,98,74
India,Assam,Guwahati,"Railway Colony, Guwahati - PCBA",19-04-2024 09:00:00,26.181742,91.78063,NO2,3,3,3
India,Assam,Nagaon,"Christianpatty, Nagaon - PCBA",19-04-2024 09:00:00,26.349082,92.68449,PM10,65,100,80
India,Assam,Nagaon,"Christianpatty, Nagaon - PCBA",19-04-2024 09:00:00,26.349082,92.68449,SO2,1,28,13
India,Assam,Nalbari,"Bata Chowk, Nalbari - PCBA",19-04-2024 09:00:00,26.446912,91.439057,PM2.5,20,283,67
India,Assam,Nalbari,"Bata Chowk, Nalbari - PCBA",19-04-2024 09:00:00,26.446912,91.439057,NO2,8,26,14
India,Assam,Silchar,"Tarapur, Silchar - PCBA",19-04-2024 09:00:00,24.82827,92.79525,OZONE,1,28,2
India,Assam,Sivasagar,"Girls College, Sivasagar - PCBA",19-04-2024 09:00:00,26.987634,94.636574,PM10,45,87,60
India,Bihar,Araria,"Kharahiya Basti, Araria - BSPCB",19-04-2024 09:00:00,26.146529,87.454184,NO2,7,10,8
India,Bihar,Araria,"Kharahiya Basti, Araria - BSPCB",19-04-2024 09:00:00,26.146529,87.454184,CO,21,35,28
India,Bihar,Aurangabad,"Gurdeo Nagar, Aurangabad - BSPCB",19-04-2024 09:00:00,24.75746,84.366208,NO2,5,5,5
India,Bihar,Aurangabad,"Gurdeo Nagar, Aurangabad - BSPCB",19-04-2024 09:00:00,24.75746,84.366208,CO,20,69,66
India,Bihar,Aurangabad,"Gurdeo Nagar, Aurangabad - BSPCB",19-04-2024 09:00:00,24.75746,84.366208,OZONE,19,92,29
India,Bihar,Bettiah,"Kamalnath Nagar, Bettiah - BSPCB",19-04-2024 09:00:00,26.80365,84.51954,SO2,6,23,14
India,Bihar,Bettiah,"Kamalnath Nagar, Bettiah - BSPCB",19-04-2024 09:00:00,26.80365,84.51954,CO,62,68,64
India,Bihar,Bhagalpur,"DM Office_Kachari Chowk, Bhagalpur - BSPCB",19-04-2024 09:00:00,25.251013,86.989001,NO2,65,125,92
India,Bihar,Bhagalpur,"DM Office_Kachari Chowk, Bhagalpur - BSPCB",19-04-2024 09:00:00,25.251013,86.989001,OZONE,46,52,50
India,Bihar,Bhagalpur,"Mayaganj, Bhagalpur - BSPCB",19-04-2024 09:00:00,25.265194,87.012947,PM10,33,143,95
India,Bihar,Bhagalpur,"Mayaganj, Bhagalpur - BSPCB",19-04-2024 09:00:00,25.265194,87.012947,NO2,2,13,7
India,Bihar,Bhagalpur,"Mayaganj, Bhagalpur - BSPCB",19-04-2024 09:00:00,25.265194,87.012947,CO,8,10,9
India,Bihar,Bihar Sharif,"D M Colony, Bihar Sharif - BSPCB",19-04-2024 09:00:00,25.204762,85.514960,PM2.5,38,80,56
India,Bihar,Buxar,"Charitra Van, Buxar - BSPCB (Formerly known as Central Jail)",19-04-2024 09:00:00,25.567520,83.966379,NO2,NA,NA,NA
India,Bihar,Buxar,"Charitra Van, Buxar - BSPCB (Formerly known as Central Jail)",19-04-2024 09:00:00,25.567520,83.966379,OZONE,7,16,13
India,Bihar,Chhapra,"Darshan Nagar, Chhapra - BSPCB",19-04-2024 09:00:00,25.7808257,84.7446768,PM10,135,362,197
India,Bihar,Gaya,"Collectorate, Gaya - BSPCB",19-04-2024 09:00:00,24.7955,84.9994,CO,6,84,70
India,Bihar,Gaya,"Kareemganj, Gaya - BSPCB",19-04-2024 09:00:00,24.792403,84.992416,PM2.5,13,62,36
India,Bihar,Gaya,"SFTI Kusdihra, Gaya - BSPCB",19-04-2024 09:00:00,24.762518,84.982348,NH3,3,6,4
India,Bihar,Hajipur,"Industrial Area, Hajipur - BSPCB",19-04-2024 09:00:00,25.697189,85.245900,PM10,172,435,291
India,Bihar,Hajipur,"Industrial Area, Hajipur - BSPCB",19-04-2024 09:00:00,25.697189,85.245900,NH3,6,8,7
India,Bihar,Katihar,"Mirchaibari, Katihar - BSPCB",19-04-2024 09:00:00,25.560083,87.553265,CO,42,67,60
India,Bihar,Kishanganj,"SDM Office_Khagra, Kishanganj - BSPCB",19-04-2024 09:00:00,26.0881305,87.93840336,SO2,1,3,2
India,Bihar,Kishanganj,"SDM Office_Khagra, Kishanganj - BSPCB",19-04-2024 09:00:00,26.0881305,87.93840336,OZONE,14,85,15
India,Bihar,Motihari,"Gandak Colony, Motihari - BSPCB",19-04-2024 09:00:00,26.63086,84.90051,PM10,16,90,56
India,Bihar,Motihari,"Gandak Colony, Motihari - BSPCB",19-04-2024 09:00:00,26.63086,84.90051,CO,2,48,5
India,Bihar,Munger,"Town Hall, Munger - BSPCB",19-04-2024 09:00:00,25.376776,86.471523,NH3,2,2,2
India,Bihar,Muzaffarpur,"Buddha Colony, Muzaffarpur - BSPCB",19-04-2024 09:00:00,26.11442,85.39813,NO2,22,53,37
India,Bihar,Muzaffarpur,"Buddha Colony, Muzaffarpur - BSPCB",19-04-2024 09:00:00,26.11442,85.39813,SO2,5,35,10
India,Bihar,Muzaffarpur,"MIT-Daudpur Kothi, Muzaffarpur - BSPCB",19-04-2024 09:00:00,26.1403345,85.3650192,PM10,NA,NA,NA
India,Bihar,Muzaffarpur,"MIT-Daudpur Kothi, Muzaffarpur - BSPCB",19-04-2024 09:00:00,26.1403345,85.3650192,NO2,4,8,7
India,Bihar,Muzaffarpur,"Muzaffarpur Collectorate, Muzaffarpur - BSPCB",19-04-2024 09:00:00,26.1209,85.3647,SO2,8,19,12
India,Bihar,Patna,"DRM Office Danapur, Patna - BSPCB",19-04-2024 09:00:00,25.586562,85.043586,NH3,2,3,3
India,Bihar,Patna,"Muradpur, Patna - BSPCB",19-04-2024 09:00:00,25.619651,85.147382,PM10,193,500,356
India,Bihar,Patna,"Muradpur, Patna - BSPCB",19-04-2024 09:00:00,25.619651,85.147382,CO,8,43,34
India,Bihar,Patna,"Rajbansi Nagar, Patna - BSPCB",19-04-2024 09:00:00,25.599486,85.113666,NH3,5,10,7
India,Bihar,Purnia,"Mariam Nagar, Purnia - BSPCB",19-04-2024 09:00:00,25.366336,87.117468,CO,2,48,44
India,Bihar,Rajgir,"Dangi Tola, Rajgir - BSPCB",19-04-2024 09:00:00,25.03280,85.41948,PM10,27,100,62
India,Bihar,Rajgir,"Dangi Tola, Rajgir - BSPCB",19-04-2024 09:00:00,25.03280,85.41948,NO2,17,24,20
India,Bihar,Rajgir,"Dangi Tola, Rajgir - BSPCB",19-04-2024 09:00:00,25.03280,85.41948,CO,26,57,28
India,Bihar,Saharsa,"Police Line, Saharsa - BSPCB",19-04-2024 09:00:00,25.892357,86.590325,PM10,54,191,117
India,Bihar,Saharsa,"Police Line, Saharsa - BSPCB",19-04-2024 09:00:00,25.892357,86.590325,NH3,9,9,9
India,Bihar,Samastipur,"DM Office_Kasipur, Samastipur - BSPCB",19-04-2024 09:00:00,25.859655,85.77944,PM10,57,170,108
India,Bihar,Sasaram,"Dada Peer, Sasaram - BSPCB",19-04-2024 09:00:00,24.952822,84.002396,PM2.5,12,62,32
India,Bihar,Sasaram,"Dada Peer, Sasaram - BSPCB",19-04-2024 09:00:00,24.952822,84.002396,SO2,19,23,21
India,Bihar,Siwan,"Chitragupta Nagar, Siwan - BSPCB",19-04-2024 09:00:00,26.2271665,84.3570427,OZONE,18,89,45
India,Chandigarh,Chandigarh,"Sector-25, Chandigarh - CPCC",19-04-2024 09:00:00,30.751462,76.762879,NH3,8,29,15
India,Chandigarh,Chandigarh,"Sector-25, Chandigarh - CPCC",19-04-2024 09:00:00,30.751462,76.762879,SO2,9,16,12
India,Chandigarh,Chandigarh,"Sector-25, Chandigarh - CPCC",19-04-2024 09:00:00,30.751462,76.762879,CO,12,62,24
India,Chandigarh,Chandigarh,"Sector-53, Chandigarh - CPCC",19-04-2024 09:00:00,30.719859,76.738637,PM10,35,500,112
India,Chhattisgarh,Bhilai,"32Bungalows, Bhilai - CECB",19-04-2024 09:00:00,21.194815,81.314770,NO2,17,32,26
India,Chhattisgarh,Bhilai,"Civic Center, Bhilai - Bhilai Steel Plant",19-04-2024 09:00:00,21.185571,81.343175,NO2,12,71,19
India,Chhattisgarh,Bhilai,"Civic Center, Bhilai - Bhilai Steel Plant",19-04-2024 09:00:00,21.185571,81.343175,NH3,4,18,6
India,Chhattisgarh,Chhal,"Nawapara SECL Colony, Chhal - CECB",19-04-2024 09:00:00,22.118125,83.140608,NO2,14,56,32
India,Chhattisgarh,Chhal,"Nawapara SECL Colony, Chhal - CECB",19-04-2024 09:00:00,22.118125,83.140608,NH3,1,2,1
India,Chhattisgarh,Korba,"Rampur, Korba - CECB",19-04-2024 09:00:00,22.368195,82.746431,SO2,15,81,32
India,Chhattisgarh,Korba,"Urja Nagar, Korba - CECB",19-04-2024 09:00:00,22.348441,82.549611,SO2,1,6,3
India,Chhattisgarh,Milupara,"Govt. Higher Secondary School, Milupara - CECB",19-04-2024 09:00:00,22.1910172,83.5197009,NH3,NA,NA,NA
India,Chhattisgarh,Milupara,"Govt. Higher Secondary School, Milupara - CECB",19-04-2024 09:00:00,22.1910172,83.5197009,SO2,NA,NA,NA
India,Chhattisgarh,Raipur,"Bhatagaon New ISBT, Raipur - CECB",19-04-2024 09:00:00,21.219665,81.630094,NH3,2,2,2
India,Chhattisgarh,Raipur,"Siltara Phase-II, Raipur - CECB",19-04-2024 09:00:00,21.371751,81.664929,NO2,29,79,52
India,Chhattisgarh,Tumidih,"OP Jindal Industrial Park, Tumidih - CECB",19-04-2024 09:00:00,22.06631475,83.33820077,CO,NA,NA,NA
India,Delhi,Delhi,"Alipur, Delhi - DPCC",19-04-2024 09:00:00,28.815329,77.153010,CO,29,81,59
India,Delhi,Delhi,"Ashok Vihar, Delhi - DPCC",19-04-2024 09:00:00,28.695381,77.181665,SO2,18,39,26
India,Delhi,Delhi,"Bawana, Delhi - DPCC",19-04-2024 09:00:00,28.776200,77.051074,PM10,99,432,205
India,Delhi,Delhi,"Burari Crossing, Delhi - IMD",19-04-2024 09:00:00,28.7256504,77.2011573,OZONE,2,66,6
India,Delhi,Delhi,"Chandni Chowk, Delhi - IITM",19-04-2024 09:00:00,28.656756,77.227234,PM10,102,199,141
India,Delhi,Delhi,"Dr. Karni Singh Shooting Range, Delhi - DPCC",19-04-2024 09:00:00,28.498571,77.264840,PM2.5,32,163,69
India,Delhi,Delhi,"Dwarka-Sector 8, Delhi - DPCC ",19-04-2024 09:00:00,28.5710274,77.0719006,PM2.5,34,317,112
India,Delhi,Delhi,"Dwarka-Sector 8, Delhi - DPCC ",19-04-2024 09:00:00,28.5710274,77.0719006,PM10,100,416,234
India,Delhi,Delhi,"IGI Airport (T3), Delhi - IMD",19-04-2024 09:00:00,28.5627763,77.1180053,OZONE,3,51,5
India,Delhi,Delhi,"IHBAS, Dilshad Garden, Delhi - CPCB",19-04-2024 09:00:00,28.6811736,77.3025234,NH3,2,10,8
India,Delhi,Delhi,"ITO, Delhi - CPCB",19-04-2024 09:00:00,28.628624,77.241060,PM10,61,186,116
India,Delhi,Delhi,"ITO, Delhi - CPCB",19-04-2024 09:00:00,28.628624,77.241060,OZONE,12,50,12
India,Delhi,Delhi,"Jahangirpuri, Delhi - DPCC",19-04-2024 09:00:00,28.732820,77.170633,PM2.5,27,311,153
India,Delhi,Delhi,"Jahangirpuri, Delhi - DPCC",19-04-2024 09:00:00,28.732820,77.170633,PM10,108,426,229
India,Delhi,Delhi,"Jahangirpuri, Delhi - DPCC",19-04-2024 09:00:00,28.732820,77.170633,CO,43,148,83
India,Delhi,Delhi,"Lodhi Road, Delhi - IITM",19-04-2024 09:00:00,28.588333,77.221667,PM2.5,52,372,164
India,Delhi,Delhi,"Lodhi Road, Delhi - IITM",19-04-2024 09:00:00,28.588333,77.221667,SO2,8,39,23
India,Delhi,Delhi,"Lodhi Road, Delhi - IMD",19-04-2024 09:00:00,28.5918245,77.2273074,CO,9,24,21
India,Delhi,Delhi,"Major Dhyan Chand National Stadium, Delhi - DPCC",19-04-2024 09:00:00,28.611281,77.237738,SO2,6,11,9
India,Delhi,Delhi,"Mundka, Delhi - DPCC",19-04-2024 09:00:00,28.684678,77.076574,SO2,3,48,18
India,Delhi,Delhi,"Najafgarh, Delhi - DPCC",19-04-2024 09:00:00,28.570173,76.933762,CO,30,62,51
India,Delhi,Delhi,"Narela, Delhi - DPCC",19-04-2024 09:00:00,28.822836,77.101981,CO,24,78,49
India,Delhi,Delhi,"Nehru Nagar, Delhi - DPCC",19-04-2024 09:00:00,28.567890,77.250515,NO2,8,16,11
India,Delhi,Delhi,"Nehru Nagar, Delhi - DPCC",19-04-2024 09:00:00,28.567890,77.250515,NH3,2,3,2
India,Delhi,Delhi,"New Moti Bagh, Delhi - MHUA",19-04-2024 09:00:00,28.57834,77.18400,CO,22,114,77
India,Delhi,Delhi,"Okhla Phase-2, Delhi - DPCC",19-04-2024 09:00:00,28.530785,77.271255,NH3,6,11,8
India,Delhi,Delhi,"Patparganj, Delhi - DPCC",19-04-2024 09:00:00,28.623763,77.287209,OZONE,5,93,8
India,Delhi,Delhi,"Punjabi Bagh, Delhi - DPCC",19-04-2024 09:00:00,28.674045,77.131023,OZONE,3,24,3
India,Delhi,Delhi,"Pusa, Delhi - IMD",19-04-2024 09:00:00,28.636110,77.173332,PM2.5,21,313,151
India,Delhi,Delhi,"Pusa, Delhi - IMD",19-04-2024 09:00:00,28.636110,77.173332,NO2,13,66,37
India,Delhi,Delhi,"R K Puram, Delhi - DPCC",19-04-2024 09:00:00,28.563262,77.186937,NO2,1,64,12
India,Delhi,Delhi,"R K Puram, Delhi - DPCC",19-04-2024 09:00:00,28.563262,77.186937,OZONE,9,199,14
India,Delhi,Delhi,"Rohini, Delhi - DPCC",19-04-2024 09:00:00,28.732528,77.119920,PM10,83,500,232
India,Delhi,Delhi,"Rohini, Delhi - DPCC",19-04-2024 09:00:00,28.732528,77.119920,NH3,7,13,9
India,Delhi,Delhi,"Shadipur, Delhi - CPCB",19-04-2024 09:00:00,28.6514781,77.1473105,PM10,107,500,226
India,Delhi,Delhi,"Sirifort, Delhi - CPCB",19-04-2024 09:00:00,28.5504249,77.2159377,PM10,98,259,152
India,Delhi,Delhi,"Sirifort, Delhi - CPCB",19-04-2024 09:00:00,28.5504249,77.2159377,NO2,72,104,88
India,Delhi,Delhi,"Sonia Vihar, Delhi - DPCC",19-04-2024 09:00:00,28.710508,77.249485,SO2,8,30,14
India,Delhi,Delhi,"Sonia Vihar, Delhi - DPCC",19-04-2024 09:00:00,28.710508,77.249485,OZONE,2,119,8
India,Delhi,Delhi,"Sri Aurobindo Marg, Delhi - DPCC",19-04-2024 09:00:00,28.531346,77.190156,PM2.5,27,188,67
India,Delhi,Delhi,"Vivek Vihar, Delhi - DPCC",19-04-2024 09:00:00,28.672342,77.315260,NO2,24,114,69
India,Delhi,Delhi,"Vivek Vihar, Delhi - DPCC",19-04-2024 09:00:00,28.672342,77.315260,NH3,14,16,15
India,Gujarat,Ahmedabad,"Chandkheda, Ahmedabad - IITM",19-04-2024 09:00:00,23.107969,72.574648,NO2,43,45,44
India,Gujarat,Ahmedabad,"Chandkheda, Ahmedabad - IITM",19-04-2024 09:00:00,23.107969,72.574648,SO2,9,16,11
India,Gujarat,Ahmedabad,"Gyaspur, Ahmedabad - IITM",19-04-2024 09:00:00,22.977134,72.553024,OZONE,2,46,10
India,Gujarat,Ahmedabad,"Rakhial, Ahmedabad - IITM",19-04-2024 09:00:00,23.016834,72.625775,PM10,55,104,72
India,Gujarat,Ahmedabad,"Rakhial, Ahmedabad - IITM",19-04-2024 09:00:00,23.016834,72.625775,SO2,3,71,13
India,Gujarat,Ahmedabad,"SAC ISRO Satellite, Ahmedabad - IITM",19-04-2024 09:00:00,23.023389,72.515201,NO2,17,17,17
India,Gujarat,Ahmedabad,"SAC ISRO Satellite, Ahmedabad - IITM",19-04-2024 09:00:00,23.023389,72.515201,SO2,2,16,6
India,Gujarat,Ahmedabad,"SVPI Airport Hansol, Ahmedabad - IITM",19-04-2024 09:00:00,23.076793,72.627874,NH3,1,2,2
India,Gujarat,Ahmedabad,"SVPI Airport Hansol, Ahmedabad - IITM",19-04-2024 09:00:00,23.076793,72.627874,CO,26,66,27
India,Gujarat,Ahmedabad,"Sardar Vallabhbhai Patel Stadium, Ahmedabad - IITM",19-04-2024 09:00:00,23.043070,72.562968,NO2,39,41,40
India,Gujarat,Ahmedabad,"Sardar Vallabhbhai Patel Stadium, Ahmedabad - IITM",19-04-2024 09:00:00,23.043070,72.562968,CO,20,80,34
India,Gujarat,Gandhinagar,"IIPHG Lekawada, Gandhinagar - IITM",19-04-2024 09:00:00,23.243639,72.68994,PM2.5,28,121,79
India,Gujarat,Gandhinagar,"IIPHG Lekawada, Gandhinagar - IITM",19-04-2024 09:00:00,23.243639,72.68994,PM10,41,123,89
India,Gujarat,Gandhinagar,"IIPHG Lekawada, Gandhinagar - IITM",19-04-2024 09:00:00,23.243639,72.68994,OZONE,9,38,10
India,Gujarat,Gandhinagar,"Sector-10, Gandhinagar - GPCB",19-04-2024 09:00:00,23.221714,72.654328,NH3,1,1,1
India,Gujarat,Vapi,"Phase-1 GIDC, Vapi - GPCB",19-04-2024 09:00:00,20.362421,72.918013,SO2,50,53,52
India,Gujarat,Vatva,"Phase-4 GIDC, Vatva - GPCB",19-04-2024 09:00:00,22.969611,72.643500,SO2,12,73,28
India,Haryana,Ambala,"Patti Mehar, Ambala - HSPCB",19-04-2024 09:00:00,30.379589,76.778328,CO,30,60,51
India,Haryana,Ambala,"Patti Mehar, Ambala - HSPCB",19-04-2024 09:00:00,30.379589,76.778328,OZONE,29,41,35
India,Haryana,Bahadurgarh,"Arya Nagar, Bahadurgarh - HSPCB",19-04-2024 09:00:00,28.6701,76.9254,NO2,32,39,36
India,Haryana,Bahadurgarh,"Arya Nagar, Bahadurgarh - HSPCB",19-04-2024 09:00:00,28.6701,76.9254,CO,40,62,50
India,Haryana,Ballabgarh,"Nathu Colony, Ballabgarh - HSPCB",19-04-2024 09:00:00,28.3419248,77.319699,NO2,12,13,12
India,Haryana,Ballabgarh,"Nathu Colony, Ballabgarh - HSPCB",19-04-2024 09:00:00,28.3419248,77.319699,CO,14,89,62
India,Haryana,Bhiwani,"H.B. Colony, Bhiwani - HSPCB",19-04-2024 09:00:00,28.806223,76.141105,PM2.5,63,113,89
India,Haryana,Bhiwani,"H.B. Colony, Bhiwani - HSPCB",19-04-2024 09:00:00,28.806223,76.141105,SO2,2,18,9
India,Haryana,Charkhi Dadri,"Mini Secretariat, Charkhi Dadri - HSPCB",19-04-2024 09:00:00,28.593883,76.270653,PM2.5,55,272,158
India,Haryana,Faridabad,"New Industrial Town, Faridabad - HSPCB",19-04-2024 09:00:00,28.39072,77.30059,CO,5,38,23
India,Haryana,Faridabad,"Sector 11, Faridabad - HSPCB",19-04-2024 09:00:00,28.376058,77.315741,PM10,74,330,190
India,Haryana,Faridabad,"Sector 30, Faridabad - HSPCB",19-04-2024 09:00:00,28.4417,77.3217,OZONE,5,18,12
India,Haryana,Fatehabad,"Huda Sector, Fatehabad - HSPCB",19-04-2024 09:00:00,29.503664,75.467934,NO2,29,31,30
India,Haryana,Fatehabad,"Huda Sector, Fatehabad - HSPCB",19-04-2024 09:00:00,29.503664,75.467934,OZONE,47,58,54
India,Haryana,Gurugram,"Sector-51, Gurugram - HSPCB",19-04-2024 09:00:00,28.4227,77.0667,NH3,6,14,9
India,Haryana,Gurugram,"Sector-51, Gurugram - HSPCB",19-04-2024 09:00:00,28.4227,77.0667,CO,26,80,70
India,Haryana,Gurugram,"Teri Gram, Gurugram - HSPCB",19-04-2024 09:00:00,28.4275,77.1465,NH3,33,78,50
India,Haryana,Hisar,"Urban Estate-II, Hisar - HSPCB",19-04-2024 09:00:00,29.140560,75.744941,NH3,NA,NA,NA
India,Haryana,Hisar,"Urban Estate-II, Hisar - HSPCB",19-04-2024 09:00:00,29.140560,75.744941,CO,NA,NA,NA
India,Haryana,Jind,"Police Lines, Jind - HSPCB",19-04-2024 09:00:00,29.307814,76.337619,OZONE,6,21,11
India,Haryana,Kaithal,"Rishi Nagar, Kaithal - HSPCB",19-04-2024 09:00:00,29.8006,76.4155,PM2.5,20,189,60
India,Haryana,Kaithal,"Rishi Nagar, Kaithal - HSPCB",19-04-2024 09:00:00,29.8006,76.4155,PM10,72,188,121
India,Haryana,Kaithal,"Rishi Nagar, Kaithal - HSPCB",19-04-2024 09:00:00,29.8006,76.4155,SO2,5,85,16
India,Haryana,Karnal,"Sector-12, Karnal - HSPCB",19-04-2024 09:00:00,29.695300,77.002700,PM2.5,64,216,107
India,Haryana,Kurukshetra,"Sector-7, Kurukshetra - HSPCB",19-04-2024 09:00:00,29.966942,76.875879,NO2,10,10,10
India,Haryana,Mandikhera,"General Hospital, Mandikhera - HSPCB",19-04-2024 09:00:00,27.9002,76.9938,PM2.5,NA,NA,NA
India,Haryana,Mandikhera,"General Hospital, Mandikhera - HSPCB",19-04-2024 09:00:00,27.9002,76.9938,NO2,NA,NA,NA
India,Haryana,Manesar,"Sector-2 IMT, Manesar - HSPCB",19-04-2024 09:00:00,28.360699,76.936090,SO2,2,16,9
India,Haryana,Narnaul,"Shastri Nagar, Narnaul - HSPCB",19-04-2024 09:00:00,28.060249,76.113115,PM2.5,61,92,76
India,Haryana,Palwal,"Shyam Nagar, Palwal - HSPCB",19-04-2024 09:00:00,28.1485564,77.3320667,NH3,8,9,9
India,Haryana,Palwal,"Shyam Nagar, Palwal - HSPCB",19-04-2024 09:00:00,28.1485564,77.3320667,SO2,4,17,9
India,Haryana,Palwal,"Shyam Nagar, Palwal - HSPCB",19-04-2024 09:00:00,28.1485564,77.3320667,OZONE,8,32,16
India,Haryana,Panchkula,"Sector-6, Panchkula - HSPCB ",19-04-2024 09:00:00,30.7057778,76.8531805555555,NO2,8,11,10
India,Haryana,Panipat,"Sector-18, Panipat - HSPCB",19-04-2024 09:00:00,29.497973,76.993331,NH3,NA,NA,NA
India,Haryana,Panipat,"Sector-18, Panipat - HSPCB",19-04-2024 09:00:00,29.497973,76.993331,OZONE,NA,NA,NA
India,Haryana,Sonipat,"Murthal, Sonipat - HSPCB",19-04-2024 09:00:00,29.027200,77.062100,PM10,16,223,80
India,Himachal Pradesh,Baddi,"HIMUDA Complex Phase-1, Baddi - HPPCB",19-04-2024 09:00:00,30.943887,76.801991,NH3,3,5,4
India,Himachal Pradesh,Baddi,"HIMUDA Complex Phase-1, Baddi - HPPCB",19-04-2024 09:00:00,30.943887,76.801991,SO2,10,86,23
India,Jharkhand,Dhanbad,"Kalakusuma, Dhanbad - DMC",19-04-2024 09:00:00,23.811548,86.481238,NO2,NA,NA,NA
India,Jharkhand,Dhanbad,"Sardar Patel Nagar, Dhanbad - JSPCB",19-04-2024 09:00:00,23.80569,86.44268,NO2,NA,NA,NA
India,Jharkhand,Dhanbad,"Sardar Patel Nagar, Dhanbad - JSPCB",19-04-2024 09:00:00,23.80569,86.44268,SO2,NA,NA,NA
India,Karnataka,Belgaum,"Ramteerth Nagar, Belgaum - KSPCB",19-04-2024 09:00:00,15.888653,74.541751,PM2.5,10,36,22
India,Karnataka,Belgaum,"Ramteerth Nagar, Belgaum - KSPCB",19-04-2024 09:00:00,15.888653,74.541751,NO2,20,66,39
India,Karnataka,Bengaluru,"BTM Layout, Bengaluru - CPCB",19-04-2024 09:00:00,12.9135218,77.5950804,PM10,NA,NA,NA
India,Karnataka,Bengaluru,"Bapuji Nagar, Bengaluru - KSPCB",19-04-2024 09:00:00,12.951913,77.539784,NH3,1,1,1
India,Karnataka,Bengaluru,"Hebbal, Bengaluru - KSPCB",19-04-2024 09:00:00,13.029152,77.585901,SO2,17,24,20
India,Karnataka,Bengaluru,"Hebbal, Bengaluru - KSPCB",19-04-2024 09:00:00,13.029152,77.585901,CO,5,63,19
India,Karnataka,Bengaluru,"Jayanagar 5th Block, Bengaluru - KSPCB",19-04-2024 09:00:00,12.920984,77.584908,PM2.5,47,125,76
India,Karnataka,Bengaluru,"Kasturi Nagar, Bengaluru - KSPCB",19-04-2024 09:00:00,13.003872,77.664217,NO2,16,17,17
India,Karnataka,Bengaluru,"Sanegurava Halli, Bengaluru - KSPCB",19-04-2024 09:00:00,12.990328,77.5431385,CO,4,40,13
India,Karnataka,Bengaluru,"Shivapura_Peenya, Bengaluru - KSPCB",19-04-2024 09:00:00,13.0246342,77.5080115,OZONE,53,55,54
India,Karnataka,Bengaluru,"Silk Board, Bengaluru - KSPCB",19-04-2024 09:00:00,12.917348,77.622813,NO2,NA,NA,NA
India,Karnataka,Bengaluru,"Silk Board, Bengaluru - KSPCB",19-04-2024 09:00:00,12.917348,77.622813,NH3,NA,NA,NA
India,Karnataka,Bidar,"Naubad, Bidar - KSPCB",19-04-2024 09:00:00,17.930306,77.482194,PM2.5,66,152,88
India,Karnataka,Bidar,"Naubad, Bidar - KSPCB",19-04-2024 09:00:00,17.930306,77.482194,NO2,7,10,8
India,Karnataka,Chamarajanagar,"Urban, Chamarajanagar - KSPCB",19-04-2024 09:00:00,11.55358,76.55521,NO2,23,35,30
India,Karnataka,Chamarajanagar,"Urban, Chamarajanagar - KSPCB",19-04-2024 09:00:00,11.55358,76.55521,SO2,2,7,4
India,Karnataka,Chamarajanagar,"Urban, Chamarajanagar - KSPCB",19-04-2024 09:00:00,11.55358,76.55521,OZONE,15,36,26
India,Karnataka,Chikkaballapur,"Chikkaballapur Rural, Chikkaballapur - KSPCB",19-04-2024 09:00:00,13.428828,77.731418,PM10,63,140,87
India,Karnataka,Chikkamagaluru,"Kalyana Nagara, Chikkamagaluru - KSPCB",19-04-2024 09:00:00,13.328028,75.797056,NO2,13,33,22
India,Karnataka,Chikkamagaluru,"Kalyana Nagara, Chikkamagaluru - KSPCB",19-04-2024 09:00:00,13.328028,75.797056,NH3,2,4,3
India,Karnataka,Davanagere,"Devaraj Urs Badavane, Davanagere - KSPCB",19-04-2024 09:00:00,14.475800,75.905200,PM2.5,31,120,59
India,Karnataka,Davanagere,"Devaraj Urs Badavane, Davanagere - KSPCB",19-04-2024 09:00:00,14.475800,75.905200,NO2,12,16,14
India,Karnataka,Dharwad,"Kalabhavan, Dharwad - KSPCB",19-04-2024 09:00:00,15.459706,75.008381,PM2.5,19,75,40
India,Karnataka,Dharwad,"Kalabhavan, Dharwad - KSPCB",19-04-2024 09:00:00,15.459706,75.008381,CO,34,164,47
India,Karnataka,Gadag,"Panchal Nagar, Gadag - KSPCB",19-04-2024 09:00:00,15.411456,75.638133,PM2.5,NA,NA,NA
India,Karnataka,Hassan,"B.Katihalli, Hassan - KSPCB",19-04-2024 09:00:00,13.008556,76.125258,NH3,NA,NA,NA
India,Karnataka,Haveri,"Ashwini Nagar, Haveri - KSPCB",19-04-2024 09:00:00,14.791800,75.389600,PM2.5,40,74,54
India,Karnataka,Haveri,"Ashwini Nagar, Haveri - KSPCB",19-04-2024 09:00:00,14.791800,75.389600,PM10,NA,NA,NA
India,Karnataka,Haveri,"Ashwini Nagar, Haveri - KSPCB",19-04-2024 09:00:00,14.791800,75.389600,CO,36,38,38
India,Karnataka,Haveri,"Ashwini Nagar, Haveri - KSPCB",19-04-2024 09:00:00,14.791800,75.389600,OZONE,18,21,19
India,Karnataka,Kalaburagi,"Lal Bahadur Shastri Nagar, Kalaburagi - KSPCB",19-04-2024 09:00:00,17.321993,76.822628,PM2.5,5,308,59
India,Karnataka,Kalaburagi,"Lal Bahadur Shastri Nagar, Kalaburagi - KSPCB",19-04-2024 09:00:00,17.321993,76.822628,CO,44,62,45
India,Karnataka,Kalaburagi,"Mahatma Basaveswar Colony, Kalaburgi - KSPCB",19-04-2024 09:00:00,17.336318,76.847397,CO,30,80,37
India,Karnataka,Kalaburagi,"Mahatma Basaveswar Colony, Kalaburgi - KSPCB",19-04-2024 09:00:00,17.336318,76.847397,OZONE,4,15,9
India,Karnataka,Karwar,"KHB Colony, Karwar - KSPCB",19-04-2024 09:00:00,14.816666,74.141003,PM2.5,NA,NA,NA
India,Karnataka,Karwar,"KHB Colony, Karwar - KSPCB",19-04-2024 09:00:00,14.816666,74.141003,PM10,NA,NA,NA
India,Karnataka,Karwar,"KHB Colony, Karwar - KSPCB",19-04-2024 09:00:00,14.816666,74.141003,SO2,NA,NA,NA
India,Karnataka,Karwar,"KHB Colony, Karwar - KSPCB",19-04-2024 09:00:00,14.816666,74.141003,CO,NA,NA,NA
India,Karnataka,Karwar,"KHB Colony, Karwar - KSPCB",19-04-2024 09:00:00,14.816666,74.141003,OZONE,NA,NA,NA
India,Karnataka,Mysuru,"Hebbal 1st Stage, Mysuru - KSPCB",19-04-2024 09:00:00,12.21041,76.37376,PM2.5,16,53,33
India,Karnataka,Mysuru,"Hebbal 1st Stage, Mysuru - KSPCB",19-04-2024 09:00:00,12.21041,76.37376,OZONE,14,98,15
India,Karnataka,Ramanagara,"Vijay Nagar, Ramanagara - KSPCB",19-04-2024 09:00:00,12.733409,77.298051,NO2,3,7,4
India,Karnataka,Ramanagara,"Vijay Nagar, Ramanagara - KSPCB",19-04-2024 09:00:00,12.733409,77.298051,OZONE,28,30,29
India,Karnataka,Shivamogga,"Vinoba Nagara, Shivamogga - KSPCB",19-04-2024 09:00:00,13.940000,75.555917,NO2,9,15,12
India,Karnataka,Shivamogga,"Vinoba Nagara, Shivamogga - KSPCB",19-04-2024 09:00:00,13.940000,75.555917,CO,7,44,14
India,Karnataka,Tumakuru,"Thimmalapura, Tumakuru - KSPCB",19-04-2024 09:00:00,13.377516,77.099072,PM10,28,208,127
India,Karnataka,Vijayapura,"Ibrahimpur, Vijayapura - KSPCB",19-04-2024 09:00:00,16.802639,75.722694,SO2,2,38,14
India,Karnataka,Yadgir,"Collector Office, Yadgir - KSPCB",19-04-2024 09:00:00,16.7602,77.1428,PM2.5,52,84,63
India,Karnataka,Yadgir,"Collector Office, Yadgir - KSPCB",19-04-2024 09:00:00,16.7602,77.1428,NH3,NA,NA,NA
India,Kerala,Eloor,"Udyogamandal, Eloor - Kerala PCB",19-04-2024 09:00:00,10.073232,76.302765,NO2,4,5,4
India,Kerala,Kannur,"Thavakkara, Kannur - Kerala PCB",19-04-2024 09:00:00,11.875000,75.373200,PM2.5,NA,NA,NA
India,Kerala,Kannur,"Thavakkara, Kannur - Kerala PCB",19-04-2024 09:00:00,11.875000,75.373200,PM10,NA,NA,NA
India,Kerala,Kollam,"Polayathode, Kollam - Kerala PCB",19-04-2024 09:00:00,8.8787,76.6073,PM2.5,46,165,87
India,Kerala,Thiruvananthapuram,"Kariavattom, Thiruvananthapuram - Kerala PCB",19-04-2024 09:00:00,8.563700,76.886500,CO,18,32,21
India,Kerala,Thiruvananthapuram,"Plammoodu, Thiruvananthapuram - Kerala PCB",19-04-2024 09:00:00,8.5149093,76.9435879,PM2.5,7,41,18
India,Kerala,Thiruvananthapuram,"Plammoodu, Thiruvananthapuram - Kerala PCB",19-04-2024 09:00:00,8.5149093,76.9435879,OZONE,6,71,29
India,Madhya Pradesh,Bhopal,"Idgah Hills, Bhopal - MPPCB",19-04-2024 09:00:00,23.264759,77.381568,NH3,5,7,6
India,Madhya Pradesh,Bhopal,"Idgah Hills, Bhopal - MPPCB",19-04-2024 09:00:00,23.264759,77.381568,CO,22,82,30
India,Madhya Pradesh,Bhopal,"Paryavaran Parisar, Bhopal - MPPCB",19-04-2024 09:00:00,23.210494,77.425409,SO2,7,11,8
India,Madhya Pradesh,Bhopal,"T T Nagar, Bhopal - MPPCB",19-04-2024 09:00:00,23.233584,77.400574,SO2,9,28,21
India,Madhya Pradesh,Bhopal,"T T Nagar, Bhopal - MPPCB",19-04-2024 09:00:00,23.233584,77.400574,CO,20,106,28
India,Madhya Pradesh,Dewas,"Bhopal Chauraha, Dewas - MPPCB",19-04-2024 09:00:00,22.9682591,76.064118,PM2.5,19,307,47
India,Madhya Pradesh,Dewas,"Bhopal Chauraha, Dewas - MPPCB",19-04-2024 09:00:00,22.9682591,76.064118,NO2,12,14,13
India,Madhya Pradesh,Gwalior,"City Center, Gwalior - MPPCB",19-04-2024 09:00:00,26.203442,78.193251,OZONE,10,57,21
India,Madhya Pradesh,Gwalior,"Maharaj Bada, Gwalior - MPPCB",19-04-2024 09:00:00,26.200388,78.147714,CO,22,166,29
India,Madhya Pradesh,Indore,"Chhoti Gwaltoli, Indore - MPPCB",19-04-2024 09:00:00,22.4310,75.5213,NO2,43,95,61
India,Madhya Pradesh,Indore,"Maguda Nagar, Indore - IMC",19-04-2024 09:00:00,22.7524,75.8872,PM10,26,81,43
India,Madhya Pradesh,Indore,"Maguda Nagar, Indore - IMC",19-04-2024 09:00:00,22.7524,75.8872,CO,21,34,28
India,Madhya Pradesh,Indore,"Residency Area, Indore - IMC",19-04-2024 09:00:00,22.7084,75.8815,PM2.5,25,85,38
India,Madhya Pradesh,Jabalpur,"Govindh Bhavan Colony, Jabalpur - JMC",19-04-2024 09:00:00,23.163174,79.973061,PM2.5,13,57,36
India,Madhya Pradesh,Jabalpur,"Govindh Bhavan Colony, Jabalpur - JMC",19-04-2024 09:00:00,23.163174,79.973061,CO,4,34,24
India,Madhya Pradesh,Jabalpur,"Gupteshwar, Jabalpur - JMC",19-04-2024 09:00:00,23.142888,79.916147,NH3,7,10,8
India,Madhya Pradesh,Jabalpur,"Gupteshwar, Jabalpur - JMC",19-04-2024 09:00:00,23.142888,79.916147,OZONE,4,90,18
India,Madhya Pradesh,Jabalpur,"Marhatal, Jabalpur - MPPCB",19-04-2024 09:00:00,23.168606,79.932247,NO2,9,97,33
India,Madhya Pradesh,Jabalpur,"Marhatal, Jabalpur - MPPCB",19-04-2024 09:00:00,23.168606,79.932247,SO2,8,23,14
India,Madhya Pradesh,Jabalpur,"Marhatal, Jabalpur - MPPCB",19-04-2024 09:00:00,23.168606,79.932247,CO,22,168,58
India,Madhya Pradesh,Jabalpur,"Suhagi, Jabalpur - JMC",19-04-2024 09:00:00,23.218135,79.957770,NO2,40,47,44
India,Madhya Pradesh,Katni,"Gole Bazar, Katni - MPPCB",19-04-2024 09:00:00,23.50016,80.23284,PM10,63,346,149
India,Madhya Pradesh,Maihar,"Sahilara, Maihar - KJS Cements",19-04-2024 09:00:00,24.2613009,80.7231783,SO2,14,16,14
India,Madhya Pradesh,Mandideep,"Sector-D Industrial Area, Mandideep - MPPCB",19-04-2024 09:00:00,23.108440,77.511428,NH3,5,5,5
India,Madhya Pradesh,Mandideep,"Sector-D Industrial Area, Mandideep - MPPCB",19-04-2024 09:00:00,23.108440,77.511428,CO,12,102,36
India,Madhya Pradesh,Pithampur,"Sector-2 Industrial Area, Pithampur - MPPCB",19-04-2024 09:00:00,22.624758,75.675238,PM2.5,10,54,28
India,Madhya Pradesh,Pithampur,"Sector-2 Industrial Area, Pithampur - MPPCB",19-04-2024 09:00:00,22.624758,75.675238,NH3,3,4,4
India,Madhya Pradesh,Ratlam,"Shasthri Nagar, Ratlam - IPCA Lab",19-04-2024 09:00:00,23.331731,75.045981,PM2.5,9,286,110
India,Madhya Pradesh,Sagar,"Deen Dayal Nagar, Sagar - MPPCB",19-04-2024 09:00:00,23.8640158,78.80289321,NO2,23,24,23
India,Madhya Pradesh,Satna,"Bandhavgar Colony, Satna - Birla Cement",19-04-2024 09:00:00,24.58434363,80.8549414,NO2,30,103,56
India,Madhya Pradesh,Satna,"Bandhavgar Colony, Satna - Birla Cement",19-04-2024 09:00:00,24.58434363,80.8549414,SO2,3,4,3
India,Madhya Pradesh,Singrauli,"Suryakiran Bhawan NCL, Singrauli - MPPCB",19-04-2024 09:00:00,24.108970,82.645580,PM10,113,242,163
India,Madhya Pradesh,Singrauli,"Suryakiran Bhawan NCL, Singrauli - MPPCB",19-04-2024 09:00:00,24.108970,82.645580,NO2,11,69,35
India,Madhya Pradesh,Singrauli,"Suryakiran Bhawan NCL, Singrauli - MPPCB",19-04-2024 09:00:00,24.108970,82.645580,NH3,3,4,4
