country,state,city,station,last_update,latitude,longitude,pollutant_id,pollutant_min,pollutant_max,pollutant_avg
India,Andhra_Pradesh,Anantapur,"Gulzarpet, Anantapur - APPCB",18-03-2024 02:00:00,14.675886,77.593027,SO2,4,10,7
India,Andhra_Pradesh,Anantapur,"Gulzarpet, Anantapur - APPCB",18-03-2024 02:00:00,14.675886,77.593027,CO,21,30,25
India,Andhra_Pradesh,Anantapur,"Gulzarpet, Anantapur - APPCB",18-03-2024 02:00:00,14.675886,77.593027,OZONE,12,58,33
India,Andhra_Pradesh,Chittoor,"Gangineni Cheruvu, Chittoor - APPCB",18-03-2024 02:00:00,13.204880,79.097889,NH3,1,1,1
India,Andhra_Pradesh,Chittoor,"Gangineni Cheruvu, Chittoor - APPCB",18-03-2024 02:00:00,13.204880,79.097889,CO,NA,NA,NA
India,Andhra_Pradesh,Kadapa,"Yerramukkapalli, Kadapa - APPCB",18-03-2024 02:00:00,14.465052,78.824187,PM2.5,19,72,38
India,Andhra_Pradesh,Kadapa,"Yerramukkapalli, Kadapa - APPCB",18-03-2024 02:00:00,14.465052,78.824187,CO,8,16,10
India,Andhra_Pradesh,Kadapa,"Yerramukkapalli, Kadapa - APPCB",18-03-2024 02:00:00,14.465052,78.824187,OZONE,12,70,38
India,Andhra_Pradesh,Rajamahendravaram,"Anand Kala Kshetram, Rajamahendravaram - APPCB",18-03-2024 02:00:00,16.9872867,81.7363176,PM2.5,16,50,29
India,Andhra_Pradesh,Rajamahendravaram,"Anand Kala Kshetram, Rajamahendravaram - APPCB",18-03-2024 02:00:00,16.9872867,81.7363176,NH3,2,4,3
India,Andhra_Pradesh,Tirupati,"Vaikuntapuram, Tirupati - APPCB",18-03-2024 02:00:00,13.615387,79.409230,NO2,15,24,17
India,Andhra_Pradesh,Tirupati,"Vaikuntapuram, Tirupati - APPCB",18-03-2024 02:00:00,13.615387,79.409230,SO2,4,5,5
India,Andhra_Pradesh,Vijayawada,"HB Colony, Vijayawada - APPCB",18-03-2024 02:00:00,16.536107,80.594233,PM10,47,83,66
India,Andhra_Pradesh,Vijayawada,"HB Colony, Vijayawada - APPCB",18-03-2024 02:00:00,16.536107,80.594233,CO,28,32,32
India,Andhra_Pradesh,Vijayawada,"Kanuru, Vijayawada - APPCB",18-03-2024 02:00:00,16.486692,80.699436,PM10,56,73,63
India,Andhra_Pradesh,Vijayawada,"Kanuru, Vijayawada - APPCB",18-03-2024 02:00:00,16.486692,80.699436,CO,26,62,37
India,Andhra_Pradesh,Vijayawada,"Rajiv Gandhi Park, Vijayawada - APPCB",18-03-2024 02:00:00,16.509717,80.612222,NH3,4,7,6
India,Andhra_Pradesh,Vijayawada,"Rajiv Nagar, Vijayawada - APPCB",18-03-2024 02:00:00,16.554731,80.649110,OZONE,7,31,10
India,Andhra_Pradesh,Visakhapatnam,"GVM Corporation, Visakhapatnam - APPCB",18-03-2024 02:00:00,17.72,83.3,PM10,28,119,72
India,Arunachal_Pradesh,Naharlagun,"Naharlagun, Naharlagun - APSPCB",18-03-2024 02:00:00,27.103358,93.679645,CO,15,32,27
India,Assam,Guwahati,"LGBI Airport, Guwahati - PCBA",18-03-2024 02:00:00,26.10887,91.589544,CO,11,64,45
India,Assam,Guwahati,"Pan Bazaar, Guwahati - PCBA",18-03-2024 02:00:00,26.187500,91.744194,NO2,3,16,8
India,Assam,Guwahati,"Railway Colony, Guwahati - PCBA",18-03-2024 02:00:00,26.181742,91.78063,PM10,109,406,214
India,Assam,Guwahati,"Railway Colony, Guwahati - PCBA",18-03-2024 02:00:00,26.181742,91.78063,SO2,4,7,6
India,Assam,Nagaon,"Christianpatty, Nagaon - PCBA",18-03-2024 02:00:00,26.349082,92.68449,NO2,13,76,29
India,Assam,Nagaon,"Christianpatty, Nagaon - PCBA",18-03-2024 02:00:00,26.349082,92.68449,OZONE,20,155,51
India,Assam,Nalbari,"Bata Chowk, Nalbari - PCBA",18-03-2024 02:00:00,26.446912,91.439057,SO2,NA,NA,NA
India,Assam,Silchar,"Tarapur, Silchar - PCBA",18-03-2024 02:00:00,24.82827,92.79525,PM10,34,98,62
India,Assam,Silchar,"Tarapur, Silchar - PCBA",18-03-2024 02:00:00,24.82827,92.79525,CO,32,50,43
India,Assam,Sivasagar,"Girls College, Sivasagar - PCBA",18-03-2024 02:00:00,26.987634,94.636574,NO2,14,22,17
India,Assam,Sivasagar,"Girls College, Sivasagar - PCBA",18-03-2024 02:00:00,26.987634,94.636574,CO,28,34,32
India,Bihar,Arrah,"New DM Office, Arrah - BSPCB",18-03-2024 02:00:00,25.5626095,84.663264,PM10,NA,NA,NA
India,Bihar,Arrah,"New DM Office, Arrah - BSPCB",18-03-2024 02:00:00,25.5626095,84.663264,CO,NA,NA,NA
India,Bihar,Aurangabad,"Gurdeo Nagar, Aurangabad - BSPCB",18-03-2024 02:00:00,24.75746,84.366208,OZONE,6,64,14
India,Bihar,Bhagalpur,"Mayaganj, Bhagalpur - BSPCB",18-03-2024 02:00:00,25.265194,87.012947,PM10,68,181,112
India,Bihar,Bihar Sharif,"D M Colony, Bihar Sharif - BSPCB",18-03-2024 02:00:00,25.204762,85.514960,PM2.5,NA,NA,NA
India,Bihar,Bihar Sharif,"D M Colony, Bihar Sharif - BSPCB",18-03-2024 02:00:00,25.204762,85.514960,NO2,9,10,9
India,Bihar,Buxar,"Charitra Van, Buxar - BSPCB (Formerly known as Central Jail)",18-03-2024 02:00:00,25.567520,83.966379,PM10,88,262,154
India,Bihar,Chhapra,"Darshan Nagar, Chhapra - BSPCB",18-03-2024 02:00:00,25.7808257,84.7446768,SO2,6,66,30
India,Bihar,Chhapra,"Darshan Nagar, Chhapra - BSPCB",18-03-2024 02:00:00,25.7808257,84.7446768,OZONE,2,26,10
India,Bihar,Gaya,"SFTI Kusdihra, Gaya - BSPCB",18-03-2024 02:00:00,24.762518,84.982348,NH3,2,5,4
India,Bihar,Gaya,"SFTI Kusdihra, Gaya - BSPCB",18-03-2024 02:00:00,24.762518,84.982348,CO,20,48,33
India,Bihar,Gaya,"SFTI Kusdihra, Gaya - BSPCB",18-03-2024 02:00:00,24.762518,84.982348,OZONE,1,35,5
India,Bihar,Hajipur,"Industrial Area, Hajipur - BSPCB",18-03-2024 02:00:00,25.697189,85.245900,SO2,6,7,6
India,Bihar,Katihar,"Mirchaibari, Katihar - BSPCB",18-03-2024 02:00:00,25.560083,87.553265,PM10,38,196,106
India,Bihar,Katihar,"Mirchaibari, Katihar - BSPCB",18-03-2024 02:00:00,25.560083,87.553265,NO2,16,41,28
India,Bihar,Manguraha,"Forest Rest House, Manguraha - BSPCB",18-03-2024 02:00:00,27.308328,84.531742,NH3,1,2,2
India,Bihar,Manguraha,"Forest Rest House, Manguraha - BSPCB",18-03-2024 02:00:00,27.308328,84.531742,OZONE,40,93,70
India,Bihar,Munger,"Town Hall, Munger - BSPCB",18-03-2024 02:00:00,25.376776,86.471523,PM10,107,500,226
India,Bihar,Muzaffarpur,"MIT-Daudpur Kothi, Muzaffarpur - BSPCB",18-03-2024 02:00:00,26.1403345,85.3650192,CO,28,126,90
India,Bihar,Muzaffarpur,"MIT-Daudpur Kothi, Muzaffarpur - BSPCB",18-03-2024 02:00:00,26.1403345,85.3650192,OZONE,8,92,24
India,Bihar,Patna,"DRM Office Danapur, Patna - BSPCB",18-03-2024 02:00:00,25.586562,85.043586,PM2.5,83,319,206
India,Bihar,Patna,"Govt. High School Shikarpur, Patna - BSPCB",18-03-2024 02:00:00,25.592539,85.227158,OZONE,2,59,21
India,Bihar,Patna,"IGSC Planetarium Complex, Patna - BSPCB",18-03-2024 02:00:00,25.610369,85.132568,NO2,14,14,14
India,Bihar,Patna,"Muradpur, Patna - BSPCB",18-03-2024 02:00:00,25.619651,85.147382,PM2.5,206,377,311
India,Bihar,Patna,"Rajbansi Nagar, Patna - BSPCB",18-03-2024 02:00:00,25.599486,85.113666,NO2,19,46,28
India,Bihar,Patna,"Rajbansi Nagar, Patna - BSPCB",18-03-2024 02:00:00,25.599486,85.113666,SO2,10,26,17
India,Bihar,Patna,"Rajbansi Nagar, Patna - BSPCB",18-03-2024 02:00:00,25.599486,85.113666,OZONE,3,94,14
India,Bihar,Patna,"Samanpura, Patna - BSPCB",18-03-2024 02:00:00,25.596727,85.085624,NO2,26,66,48
India,Bihar,Patna,"Samanpura, Patna - BSPCB",18-03-2024 02:00:00,25.596727,85.085624,SO2,15,16,15
India,Bihar,Purnia,"Mariam Nagar, Purnia - BSPCB",18-03-2024 02:00:00,25.366336,87.117468,PM2.5,3,313,109
India,Bihar,Purnia,"Mariam Nagar, Purnia - BSPCB",18-03-2024 02:00:00,25.366336,87.117468,NO2,5,6,6
India,Bihar,Purnia,"Mariam Nagar, Purnia - BSPCB",18-03-2024 02:00:00,25.366336,87.117468,NH3,1,2,2
India,Bihar,Purnia,"Mariam Nagar, Purnia - BSPCB",18-03-2024 02:00:00,25.366336,87.117468,OZONE,10,55,21
India,Bihar,Rajgir,"Dangi Tola, Rajgir - BSPCB",18-03-2024 02:00:00,25.03280,85.41948,NH3,1,1,1
India,Bihar,Saharsa,"Police Line, Saharsa - BSPCB",18-03-2024 02:00:00,25.892357,86.590325,PM10,101,202,135
India,Bihar,Saharsa,"Police Line, Saharsa - BSPCB",18-03-2024 02:00:00,25.892357,86.590325,OZONE,11,48,26
India,Bihar,Samastipur,"DM Office_Kasipur, Samastipur - BSPCB",18-03-2024 02:00:00,25.859655,85.77944,PM10,44,171,109
India,Bihar,Samastipur,"DM Office_Kasipur, Samastipur - BSPCB",18-03-2024 02:00:00,25.859655,85.77944,CO,15,31,19
India,Bihar,Sasaram,"Dada Peer, Sasaram - BSPCB",18-03-2024 02:00:00,24.952822,84.002396,OZONE,4,87,22
India,Bihar,Siwan,"Chitragupta Nagar, Siwan - BSPCB",18-03-2024 02:00:00,26.2271665,84.3570427,PM2.5,37,322,209
India,Bihar,Siwan,"Chitragupta Nagar, Siwan - BSPCB",18-03-2024 02:00:00,26.2271665,84.3570427,PM10,76,179,132
India,Chandigarh,Chandigarh,"Sector 22, Chandigarh - CPCC",18-03-2024 02:00:00,30.735567,76.775714,NO2,22,110,53
India,Chandigarh,Chandigarh,"Sector 22, Chandigarh - CPCC",18-03-2024 02:00:00,30.735567,76.775714,SO2,9,28,17
India,Chandigarh,Chandigarh,"Sector-25, Chandigarh - CPCC",18-03-2024 02:00:00,30.751462,76.762879,SO2,7,21,11
India,Chandigarh,Chandigarh,"Sector-25, Chandigarh - CPCC",18-03-2024 02:00:00,30.751462,76.762879,OZONE,1,52,11
India,Chandigarh,Chandigarh,"Sector-53, Chandigarh - CPCC",18-03-2024 02:00:00,30.719859,76.738637,PM10,71,188,130
India,Chandigarh,Chandigarh,"Sector-53, Chandigarh - CPCC",18-03-2024 02:00:00,30.719859,76.738637,CO,35,102,67
India,Chhattisgarh,Bhilai,"32Bungalows, Bhilai - CECB",18-03-2024 02:00:00,21.194815,81.314770,NO2,29,38,34
India,Chhattisgarh,Bilaspur,"Mangala, Bilaspur - NTPC",18-03-2024 02:00:00,22.08815,82.13737,PM10,NA,NA,NA
India,Chhattisgarh,Korba,"Rampur, Korba - CECB",18-03-2024 02:00:00,22.368195,82.746431,NO2,30,36,34
India,Chhattisgarh,Korba,"Urja Nagar, Korba - CECB",18-03-2024 02:00:00,22.348441,82.549611,PM10,27,106,63
India,Chhattisgarh,Korba,"Urja Nagar, Korba - CECB",18-03-2024 02:00:00,22.348441,82.549611,NH3,6,9,7
India,Chhattisgarh,Raipur,"AIIMS, Raipur - CECB",18-03-2024 02:00:00,21.258815,81.578979,OZONE,NA,NA,NA
India,Chhattisgarh,Raipur,"Bhatagaon New ISBT, Raipur - CECB",18-03-2024 02:00:00,21.219665,81.630094,SO2,1,3,2
India,Chhattisgarh,Raipur,"Siltara Phase-II, Raipur - CECB",18-03-2024 02:00:00,21.371751,81.664929,NH3,3,3,3
India,Chhattisgarh,Raipur,"Siltara Phase-II, Raipur - CECB",18-03-2024 02:00:00,21.371751,81.664929,CO,28,54,42
India,Chhattisgarh,Tumidih,"OP Jindal Industrial Park, Tumidih - CECB",18-03-2024 02:00:00,22.06631475,83.33820077,SO2,NA,NA,NA
India,Delhi,Delhi,"Alipur, Delhi - DPCC",18-03-2024 02:00:00,28.815329,77.153010,NH3,4,9,6
India,Delhi,Delhi,"Alipur, Delhi - DPCC",18-03-2024 02:00:00,28.815329,77.153010,OZONE,6,170,41
India,Delhi,Delhi,"Aya Nagar, Delhi - IMD",18-03-2024 02:00:00,28.4706914,77.1099364,CO,47,71,56
India,Delhi,Delhi,"Bawana, Delhi - DPCC",18-03-2024 02:00:00,28.776200,77.051074,NH3,5,7,6
India,Delhi,Delhi,"Burari Crossing, Delhi - IMD",18-03-2024 02:00:00,28.7256504,77.2011573,PM2.5,23,332,174
India,Delhi,Delhi,"Burari Crossing, Delhi - IMD",18-03-2024 02:00:00,28.7256504,77.2011573,NO2,4,5,4
India,Delhi,Delhi,"DTU, Delhi - CPCB",18-03-2024 02:00:00,28.7500499,77.1112615,PM10,87,332,198
India,Delhi,Delhi,"DTU, Delhi - CPCB",18-03-2024 02:00:00,28.7500499,77.1112615,NO2,24,46,35
India,Delhi,Delhi,"DTU, Delhi - CPCB",18-03-2024 02:00:00,28.7500499,77.1112615,NH3,8,12,10
India,Delhi,Delhi,"Dr. Karni Singh Shooting Range, Delhi - DPCC",18-03-2024 02:00:00,28.498571,77.264840,PM2.5,64,316,176
India,Delhi,Delhi,"Dr. Karni Singh Shooting Range, Delhi - DPCC",18-03-2024 02:00:00,28.498571,77.264840,NO2,37,137,91
India,Delhi,Delhi,"Dwarka-Sector 8, Delhi - DPCC ",18-03-2024 02:00:00,28.5710274,77.0719006,NH3,2,7,4
India,Delhi,Delhi,"Dwarka-Sector 8, Delhi - DPCC ",18-03-2024 02:00:00,28.5710274,77.0719006,SO2,7,48,15
India,Delhi,Delhi,"IHBAS, Dilshad Garden, Delhi - CPCB",18-03-2024 02:00:00,28.6811736,77.3025234,CO,20,63,53
India,Delhi,Delhi,"Jahangirpuri, Delhi - DPCC",18-03-2024 02:00:00,28.732820,77.170633,SO2,8,48,34
India,Delhi,Delhi,"Jawaharlal Nehru Stadium, Delhi - DPCC",18-03-2024 02:00:00,28.580280,77.233829,NH3,5,11,8
India,Delhi,Delhi,"Jawaharlal Nehru Stadium, Delhi - DPCC",18-03-2024 02:00:00,28.580280,77.233829,SO2,14,78,33
India,Delhi,Delhi,"Lodhi Road, Delhi - IITM",18-03-2024 02:00:00,28.588333,77.221667,SO2,10,46,28
India,Delhi,Delhi,"Lodhi Road, Delhi - IITM",18-03-2024 02:00:00,28.588333,77.221667,OZONE,16,20,16
India,Delhi,Delhi,"Lodhi Road, Delhi - IMD",18-03-2024 02:00:00,28.5918245,77.2273074,NO2,3,15,9
India,Delhi,Delhi,"Major Dhyan Chand National Stadium, Delhi - DPCC",18-03-2024 02:00:00,28.611281,77.237738,OZONE,2,190,23
India,Delhi,Delhi,"Mandir Marg, Delhi - DPCC",18-03-2024 02:00:00,28.636429,77.201067,NO2,159,191,175
India,Delhi,Delhi,"Mandir Marg, Delhi - DPCC",18-03-2024 02:00:00,28.636429,77.201067,CO,55,92,78
India,Delhi,Delhi,"Mundka, Delhi - DPCC",18-03-2024 02:00:00,28.684678,77.076574,PM2.5,47,427,264
India,Delhi,Delhi,"Mundka, Delhi - DPCC",18-03-2024 02:00:00,28.684678,77.076574,OZONE,14,14,14
India,Delhi,Delhi,"NSIT Dwarka, Delhi - CPCB",18-03-2024 02:00:00,28.60909,77.0325413,OZONE,4,52,14
India,Delhi,Delhi,"Najafgarh, Delhi - DPCC",18-03-2024 02:00:00,28.570173,76.933762,PM10,NA,NA,NA
India,Delhi,Delhi,"Najafgarh, Delhi - DPCC",18-03-2024 02:00:00,28.570173,76.933762,NO2,5,22,13
India,Delhi,Delhi,"Najafgarh, Delhi - DPCC",18-03-2024 02:00:00,28.570173,76.933762,SO2,4,19,12
India,Delhi,Delhi,"Narela, Delhi - DPCC",18-03-2024 02:00:00,28.822836,77.101981,NH3,5,8,6
India,Delhi,Delhi,"Narela, Delhi - DPCC",18-03-2024 02:00:00,28.822836,77.101981,SO2,10,86,49
India,Delhi,Delhi,"Narela, Delhi - DPCC",18-03-2024 02:00:00,28.822836,77.101981,CO,43,77,70
India,Delhi,Delhi,"Nehru Nagar, Delhi - DPCC",18-03-2024 02:00:00,28.567890,77.250515,NO2,10,23,16
India,Delhi,Delhi,"Nehru Nagar, Delhi - DPCC",18-03-2024 02:00:00,28.567890,77.250515,SO2,7,28,14
India,Delhi,Delhi,"North Campus, DU, Delhi - IMD",18-03-2024 02:00:00,28.6573814,77.1585447,PM2.5,60,325,183
India,Delhi,Delhi,"North Campus, DU, Delhi - IMD",18-03-2024 02:00:00,28.6573814,77.1585447,OZONE,1,61,11
India,Delhi,Delhi,"Patparganj, Delhi - DPCC",18-03-2024 02:00:00,28.623763,77.287209,PM10,120,268,183
India,Delhi,Delhi,"Patparganj, Delhi - DPCC",18-03-2024 02:00:00,28.623763,77.287209,NH3,6,13,9
India,Delhi,Delhi,"Patparganj, Delhi - DPCC",18-03-2024 02:00:00,28.623763,77.287209,SO2,17,19,18
India,Delhi,Delhi,"Punjabi Bagh, Delhi - DPCC",18-03-2024 02:00:00,28.674045,77.131023,PM2.5,47,349,226
India,Delhi,Delhi,"Punjabi Bagh, Delhi - DPCC",18-03-2024 02:00:00,28.674045,77.131023,SO2,21,34,25
India,Delhi,Delhi,"Punjabi Bagh, Delhi - DPCC",18-03-2024 02:00:00,28.674045,77.131023,CO,32,64,49
India,Delhi,Delhi,"Pusa, Delhi - DPCC",18-03-2024 02:00:00,28.639652,77.146275,PM10,NA,NA,NA
India,Delhi,Delhi,"Pusa, Delhi - DPCC",18-03-2024 02:00:00,28.639652,77.146275,SO2,NA,NA,NA
India,Delhi,Delhi,"Pusa, Delhi - DPCC",18-03-2024 02:00:00,28.639652,77.146275,OZONE,NA,NA,NA
India,Delhi,Delhi,"Pusa, Delhi - IMD",18-03-2024 02:00:00,28.636110,77.173332,NO2,13,28,22
India,Delhi,Delhi,"R K Puram, Delhi - DPCC",18-03-2024 02:00:00,28.563262,77.186937,SO2,6,40,14
India,Delhi,Delhi,"Rohini, Delhi - DPCC",18-03-2024 02:00:00,28.732528,77.119920,PM2.5,52,441,249
India,Delhi,Delhi,"Rohini, Delhi - DPCC",18-03-2024 02:00:00,28.732528,77.119920,CO,12,100,62
India,Delhi,Delhi,"Shadipur, Delhi - CPCB",18-03-2024 02:00:00,28.6514781,77.1473105,PM10,123,436,187
India,Delhi,Delhi,"Sirifort, Delhi - CPCB",18-03-2024 02:00:00,28.5504249,77.2159377,CO,10,65,38
India,Delhi,Delhi,"Vivek Vihar, Delhi - DPCC",18-03-2024 02:00:00,28.672342,77.315260,PM2.5,70,301,158
India,Delhi,Delhi,"Vivek Vihar, Delhi - DPCC",18-03-2024 02:00:00,28.672342,77.315260,PM10,115,175,145
India,Delhi,Delhi,"Wazirpur, Delhi - DPCC",18-03-2024 02:00:00,28.699793,77.165453,NO2,51,160,108
India,Gujarat,Ahmedabad,"Chandkheda, Ahmedabad - IITM",18-03-2024 02:00:00,23.107969,72.574648,SO2,6,10,7
India,Gujarat,Ahmedabad,"Chandkheda, Ahmedabad - IITM",18-03-2024 02:00:00,23.107969,72.574648,OZONE,25,66,37
India,Gujarat,Ahmedabad,"Gyaspur, Ahmedabad - IITM",18-03-2024 02:00:00,22.977134,72.553024,PM10,82,259,154
India,Gujarat,Ahmedabad,"Maninagar, Ahmedabad - GPCB",18-03-2024 02:00:00,23.002657,72.591912,NO2,24,77,40
India,Gujarat,Ahmedabad,"Maninagar, Ahmedabad - GPCB",18-03-2024 02:00:00,23.002657,72.591912,CO,8,87,64
India,Gujarat,Ahmedabad,"Raikhad, Ahmedabad - IITM",18-03-2024 02:00:00,23.020509,72.579261,SO2,4,9,6
India,Gujarat,Ahmedabad,"Raikhad, Ahmedabad - IITM",18-03-2024 02:00:00,23.020509,72.579261,CO,12,105,51
India,Gujarat,Ahmedabad,"SAC ISRO Satellite, Ahmedabad - IITM",18-03-2024 02:00:00,23.023389,72.515201,PM2.5,110,115,112
India,Gujarat,Ahmedabad,"SAC ISRO Satellite, Ahmedabad - IITM",18-03-2024 02:00:00,23.023389,72.515201,CO,26,29,28
India,Gujarat,Ahmedabad,"SAC ISRO Satellite, Ahmedabad - IITM",18-03-2024 02:00:00,23.023389,72.515201,OZONE,14,20,18
India,Gujarat,Ahmedabad,"SVPI Airport Hansol, Ahmedabad - IITM",18-03-2024 02:00:00,23.076793,72.627874,PM10,70,160,97
India,Gujarat,Ahmedabad,"SVPI Airport Hansol, Ahmedabad - IITM",18-03-2024 02:00:00,23.076793,72.627874,NH3,4,5,4
India,Gujarat,Ahmedabad,"Sardar Vallabhbhai Patel Stadium, Ahmedabad - IITM",18-03-2024 02:00:00,23.043070,72.562968,NH3,2,2,2
India,Gujarat,Ahmedabad,"Sardar Vallabhbhai Patel Stadium, Ahmedabad - IITM",18-03-2024 02:00:00,23.043070,72.562968,CO,29,59,40
India,Gujarat,Gandhinagar,"GIFT City, Gandhinagar - IITM",18-03-2024 02:00:00,23.163798,72.677768,PM2.5,NA,NA,NA
India,Gujarat,Gandhinagar,"GIFT City, Gandhinagar - IITM",18-03-2024 02:00:00,23.163798,72.677768,NO2,NA,NA,NA
India,Gujarat,Gandhinagar,"GIFT City, Gandhinagar - IITM",18-03-2024 02:00:00,23.163798,72.677768,SO2,NA,NA,NA
India,Gujarat,Gandhinagar,"GIFT City, Gandhinagar - IITM",18-03-2024 02:00:00,23.163798,72.677768,OZONE,NA,NA,NA
India,Gujarat,Gandhinagar,"IIPHG Lekawada, Gandhinagar - IITM",18-03-2024 02:00:00,23.243639,72.68994,PM10,67,145,99
India,Gujarat,Gandhinagar,"IIPHG Lekawada, Gandhinagar - IITM",18-03-2024 02:00:00,23.243639,72.68994,NO2,37,50,41
India,Gujarat,Gandhinagar,"Sector-10, Gandhinagar - GPCB",18-03-2024 02:00:00,23.221714,72.654328,CO,37,74,51
India,Gujarat,Nandesari,"GIDC, Nandesari - Nandesari Ind. Association",18-03-2024 02:00:00,22.410802,73.097923,PM10,114,328,188
India,Gujarat,Surat,"Science Center, Surat - SMC",18-03-2024 02:00:00,21.170046,72.795405,NO2,22,36,30
India,Gujarat,Vapi,"Phase-1 GIDC, Vapi - GPCB",18-03-2024 02:00:00,20.362421,72.918013,PM2.5,50,252,112
India,Gujarat,Vapi,"Phase-1 GIDC, Vapi - GPCB",18-03-2024 02:00:00,20.362421,72.918013,NO2,6,7,6
India,Gujarat,Vapi,"Phase-1 GIDC, Vapi - GPCB",18-03-2024 02:00:00,20.362421,72.918013,CO,105,186,184
India,Gujarat,Vapi,"Phase-1 GIDC, Vapi - GPCB",18-03-2024 02:00:00,20.362421,72.918013,OZONE,1,2,2
India,Gujarat,Vatva,"Phase-4 GIDC, Vatva - GPCB",18-03-2024 02:00:00,22.969611,72.643500,SO2,7,47,15
India,Haryana,Ambala,"Patti Mehar, Ambala - HSPCB",18-03-2024 02:00:00,30.379589,76.778328,NO2,8,21,14
India,Haryana,Ambala,"Patti Mehar, Ambala - HSPCB",18-03-2024 02:00:00,30.379589,76.778328,SO2,71,99,78
India,Haryana,Ambala,"Patti Mehar, Ambala - HSPCB",18-03-2024 02:00:00,30.379589,76.778328,OZONE,46,58,52
India,Haryana,Ballabgarh,"Nathu Colony, Ballabgarh - HSPCB",18-03-2024 02:00:00,28.3419248,77.319699,CO,5,109,45
India,Haryana,Bhiwani,"H.B. Colony, Bhiwani - HSPCB",18-03-2024 02:00:00,28.806223,76.141105,PM10,36,285,117
India,Haryana,Dharuhera,"Municipal Corporation Office, Dharuhera -  HSPCB",18-03-2024 02:00:00,28.206800,76.799700,PM2.5,75,321,204
India,Haryana,Dharuhera,"Municipal Corporation Office, Dharuhera -  HSPCB",18-03-2024 02:00:00,28.206800,76.799700,OZONE,14,48,24
India,Haryana,Faridabad,"New Industrial Town, Faridabad - HSPCB",18-03-2024 02:00:00,28.39072,77.30059,OZONE,3,258,78
India,Haryana,Faridabad,"Sector 11, Faridabad - HSPCB",18-03-2024 02:00:00,28.376058,77.315741,PM10,114,195,142
India,Haryana,Faridabad,"Sector 30, Faridabad - HSPCB",18-03-2024 02:00:00,28.4417,77.3217,PM2.5,91,105,96
India,Haryana,Faridabad,"Sector 30, Faridabad - HSPCB",18-03-2024 02:00:00,28.4417,77.3217,NH3,9,9,9
India,Haryana,Fatehabad,"Huda Sector, Fatehabad - HSPCB",18-03-2024 02:00:00,29.503664,75.467934,NH3,6,19,13
India,Haryana,Gurugram,"Sector-51, Gurugram - HSPCB",18-03-2024 02:00:00,28.4227,77.0667,NH3,7,14,9
India,Haryana,Gurugram,"Teri Gram, Gurugram - HSPCB",18-03-2024 02:00:00,28.4275,77.1465,NH3,47,97,67
India,Haryana,Gurugram,"Vikas Sadan, Gurugram - HSPCB",18-03-2024 02:00:00,28.4501238,77.0263051,CO,54,139,102
India,Haryana,Gurugram,"Vikas Sadan, Gurugram - HSPCB",18-03-2024 02:00:00,28.4501238,77.0263051,OZONE,7,68,19
India,Haryana,Hisar,"Urban Estate-II, Hisar - HSPCB",18-03-2024 02:00:00,29.140560,75.744941,PM2.5,37,171,83
India,Haryana,Hisar,"Urban Estate-II, Hisar - HSPCB",18-03-2024 02:00:00,29.140560,75.744941,NH3,8,8,8
India,Haryana,Hisar,"Urban Estate-II, Hisar - HSPCB",18-03-2024 02:00:00,29.140560,75.744941,SO2,53,84,70
India,Haryana,Kaithal,"Rishi Nagar, Kaithal - HSPCB",18-03-2024 02:00:00,29.8006,76.4155,NH3,NA,NA,NA
India,Haryana,Karnal,"Sector-12, Karnal - HSPCB",18-03-2024 02:00:00,29.695300,77.002700,CO,28,37,32
India,Haryana,Kurukshetra,"Sector-7, Kurukshetra - HSPCB",18-03-2024 02:00:00,29.966942,76.875879,PM2.5,48,85,63
India,Haryana,Kurukshetra,"Sector-7, Kurukshetra - HSPCB",18-03-2024 02:00:00,29.966942,76.875879,CO,2,32,18
India,Haryana,Mandikhera,"General Hospital, Mandikhera - HSPCB",18-03-2024 02:00:00,27.9002,76.9938,PM2.5,20,46,31
India,Haryana,Mandikhera,"General Hospital, Mandikhera - HSPCB",18-03-2024 02:00:00,27.9002,76.9938,SO2,30,38,34
India,Haryana,Manesar,"Sector-2 IMT, Manesar - HSPCB",18-03-2024 02:00:00,28.360699,76.936090,PM2.5,53,150,90
India,Haryana,Narnaul,"Shastri Nagar, Narnaul - HSPCB",18-03-2024 02:00:00,28.060249,76.113115,NH3,4,24,11
India,Haryana,Narnaul,"Shastri Nagar, Narnaul - HSPCB",18-03-2024 02:00:00,28.060249,76.113115,SO2,13,13,13
India,Haryana,Palwal,"Shyam Nagar, Palwal - HSPCB",18-03-2024 02:00:00,28.1485564,77.3320667,PM2.5,37,94,71
India,Haryana,Palwal,"Shyam Nagar, Palwal - HSPCB",18-03-2024 02:00:00,28.1485564,77.3320667,CO,15,111,31
India,Haryana,Panipat,"Sector-18, Panipat - HSPCB",18-03-2024 02:00:00,29.497973,76.993331,PM2.5,143,152,150
India,Haryana,Panipat,"Sector-18, Panipat - HSPCB",18-03-2024 02:00:00,29.497973,76.993331,PM10,83,86,85
India,Haryana,Panipat,"Sector-18, Panipat - HSPCB",18-03-2024 02:00:00,29.497973,76.993331,NO2,31,32,31
India,Haryana,Rohtak,"MD University, Rohtak - HSPCB",18-03-2024 02:00:00,28.52123,76.37138,NO2,47,59,51
India,Haryana,Rohtak,"MD University, Rohtak - HSPCB",18-03-2024 02:00:00,28.52123,76.37138,OZONE,46,55,51
India,Haryana,Sirsa,"F-Block, Sirsa - HSPCB",18-03-2024 02:00:00,29.536400,75.015800,PM10,48,160,86
India,Haryana,Sirsa,"F-Block, Sirsa - HSPCB",18-03-2024 02:00:00,29.536400,75.015800,NO2,10,10,10
India,Haryana,Sonipat,"Murthal, Sonipat - HSPCB",18-03-2024 02:00:00,29.027200,77.062100,PM10,46,98,71
India,Haryana,Sonipat,"Murthal, Sonipat - HSPCB",18-03-2024 02:00:00,29.027200,77.062100,SO2,13,29,20
India,Haryana,Sonipat,"Murthal, Sonipat - HSPCB",18-03-2024 02:00:00,29.027200,77.062100,OZONE,16,35,22
India,Haryana,Yamuna Nagar,"Gobind Pura, Yamuna Nagar - HSPCB",18-03-2024 02:00:00,30.1480566,77.2893471,PM2.5,63,131,80
India,Jharkhand,Dhanbad,"Kalakusuma, Dhanbad - DMC",18-03-2024 02:00:00,23.811548,86.481238,PM10,108,112,110
India,Jharkhand,Dhanbad,"Kalakusuma, Dhanbad - DMC",18-03-2024 02:00:00,23.811548,86.481238,CO,129,134,132
India,Karnataka,Bagalkot,"Vidayagiri, Bagalkot - KSPCB",18-03-2024 02:00:00,16.172806,75.659694,PM2.5,25,37,36
India,Karnataka,Bagalkot,"Vidayagiri, Bagalkot - KSPCB",18-03-2024 02:00:00,16.172806,75.659694,OZONE,2,6,4
India,Karnataka,Bengaluru,"Bapuji Nagar, Bengaluru - KSPCB",18-03-2024 02:00:00,12.951913,77.539784,PM10,NA,NA,NA
India,Karnataka,Bengaluru,"Bapuji Nagar, Bengaluru - KSPCB",18-03-2024 02:00:00,12.951913,77.539784,OZONE,15,42,28
India,Karnataka,Bengaluru,"Hebbal, Bengaluru - KSPCB",18-03-2024 02:00:00,13.029152,77.585901,SO2,NA,NA,NA
India,Karnataka,Bengaluru,"Hombegowda Nagar, Bengaluru - KSPCB",18-03-2024 02:00:00,12.938539,77.590100,PM2.5,55,165,93
India,Karnataka,Bengaluru,"Hombegowda Nagar, Bengaluru - KSPCB",18-03-2024 02:00:00,12.938539,77.590100,SO2,3,4,4
India,Karnataka,Bengaluru,"Jayanagar 5th Block, Bengaluru - KSPCB",18-03-2024 02:00:00,12.920984,77.584908,NH3,4,4,4
India,Karnataka,Bengaluru,"Jigani, Bengaluru - KSPCB",18-03-2024 02:00:00,12.7816279,77.6299145,NH3,4,4,4
India,Karnataka,Bengaluru,"Peenya, Bengaluru - CPCB",18-03-2024 02:00:00,13.0270199,77.494094,PM2.5,39,56,49
India,Karnataka,Bengaluru,"Peenya, Bengaluru - CPCB",18-03-2024 02:00:00,13.0270199,77.494094,SO2,3,8,6
India,Karnataka,Bengaluru,"Peenya, Bengaluru - CPCB",18-03-2024 02:00:00,13.0270199,77.494094,CO,18,41,30
India,Karnataka,Bengaluru,"RVCE-Mailasandra, Bengaluru - KSPCB",18-03-2024 02:00:00,12.921418,77.502466,PM10,104,160,139
India,Karnataka,Bengaluru,"RVCE-Mailasandra, Bengaluru - KSPCB",18-03-2024 02:00:00,12.921418,77.502466,OZONE,10,10,10
India,Karnataka,Bengaluru,"Sanegurava Halli, Bengaluru - KSPCB",18-03-2024 02:00:00,12.990328,77.5431385,SO2,2,5,3
India,Karnataka,Bengaluru,"Shivapura_Peenya, Bengaluru - KSPCB",18-03-2024 02:00:00,13.0246342,77.5080115,PM2.5,3,147,44
India,Karnataka,Bengaluru,"Shivapura_Peenya, Bengaluru - KSPCB",18-03-2024 02:00:00,13.0246342,77.5080115,CO,22,41,28
India,Karnataka,Bengaluru,"Shivapura_Peenya, Bengaluru - KSPCB",18-03-2024 02:00:00,13.0246342,77.5080115,OZONE,54,56,55
India,Karnataka,Bengaluru,"Silk Board, Bengaluru - KSPCB",18-03-2024 02:00:00,12.917348,77.622813,PM2.5,48,141,77
India,Karnataka,Bengaluru,"Silk Board, Bengaluru - KSPCB",18-03-2024 02:00:00,12.917348,77.622813,PM10,64,140,95
India,Karnataka,Bengaluru,"Silk Board, Bengaluru - KSPCB",18-03-2024 02:00:00,12.917348,77.622813,SO2,9,26,14
India,Karnataka,Bengaluru,"Silk Board, Bengaluru - KSPCB",18-03-2024 02:00:00,12.917348,77.622813,OZONE,27,31,30
India,Karnataka,Chamarajanagar,"Urban, Chamarajanagar - KSPCB",18-03-2024 02:00:00,11.55358,76.55521,SO2,2,6,3
India,Karnataka,Davanagere,"Devaraj Urs Badavane, Davanagere - KSPCB",18-03-2024 02:00:00,14.475800,75.905200,NO2,14,21,16
India,Karnataka,Davanagere,"Devaraj Urs Badavane, Davanagere - KSPCB",18-03-2024 02:00:00,14.475800,75.905200,NH3,NA,NA,NA
India,Karnataka,Davanagere,"Devaraj Urs Badavane, Davanagere - KSPCB",18-03-2024 02:00:00,14.475800,75.905200,CO,18,20,19
India,Karnataka,Dharwad,"Kalabhavan, Dharwad - KSPCB",18-03-2024 02:00:00,15.459706,75.008381,PM2.5,50,219,74
India,Karnataka,Dharwad,"Kalabhavan, Dharwad - KSPCB",18-03-2024 02:00:00,15.459706,75.008381,CO,26,104,52
India,Karnataka,Gadag,"Panchal Nagar, Gadag - KSPCB",18-03-2024 02:00:00,15.411456,75.638133,SO2,8,17,14
India,Karnataka,Haveri,"Ashwini Nagar, Haveri - KSPCB",18-03-2024 02:00:00,14.791800,75.389600,CO,36,38,37
India,Karnataka,Haveri,"Ashwini Nagar, Haveri - KSPCB",18-03-2024 02:00:00,14.791800,75.389600,OZONE,18,19,18
India,Karnataka,Hubballi,"Lingaraj Nagar, Hubballi - KSPCB",18-03-2024 02:00:00,15.3714823,75.1160168,PM10,NA,NA,NA
India,Karnataka,Kalaburagi,"Lal Bahadur Shastri Nagar, Kalaburagi - KSPCB",18-03-2024 02:00:00,17.321993,76.822628,PM10,37,118,66
India,Karnataka,Kalaburagi,"Mahatma Basaveswar Colony, Kalaburgi - KSPCB",18-03-2024 02:00:00,17.336318,76.847397,PM2.5,29,79,46
India,Karnataka,Kalaburagi,"Mahatma Basaveswar Colony, Kalaburgi - KSPCB",18-03-2024 02:00:00,17.336318,76.847397,NO2,10,21,13
India,Karnataka,Kalaburagi,"Mahatma Basaveswar Colony, Kalaburgi - KSPCB",18-03-2024 02:00:00,17.336318,76.847397,NH3,2,3,3
India,Karnataka,Kalaburagi,"Mahatma Basaveswar Colony, Kalaburgi - KSPCB",18-03-2024 02:00:00,17.336318,76.847397,CO,36,58,44
India,Karnataka,Kalaburagi,"Mahatma Basaveswar Colony, Kalaburgi - KSPCB",18-03-2024 02:00:00,17.336318,76.847397,OZONE,5,20,15
India,Karnataka,Karwar,"KHB Colony, Karwar - KSPCB",18-03-2024 02:00:00,14.816666,74.141003,CO,8,8,8
India,Karnataka,Kolar,"Tamaka Ind. Area, Kolar - KSPCB",18-03-2024 02:00:00,13.1276288,78.1570122,NO2,NA,NA,NA
India,Karnataka,Kolar,"Tamaka Ind. Area, Kolar - KSPCB",18-03-2024 02:00:00,13.1276288,78.1570122,NH3,NA,NA,NA
India,Karnataka,Koppal,"Diwator Nagar, Koppal - KSPCB",18-03-2024 02:00:00,15.347630,76.181767,PM2.5,27,67,45
India,Karnataka,Koppal,"Diwator Nagar, Koppal - KSPCB",18-03-2024 02:00:00,15.347630,76.181767,PM10,37,65,49
India,Karnataka,Madikeri,"Stuart Hill, Madikeri - KSPCB",18-03-2024 02:00:00,12.415911,75.735050,PM2.5,42,69,53
India,Karnataka,Madikeri,"Stuart Hill, Madikeri - KSPCB",18-03-2024 02:00:00,12.415911,75.735050,NO2,2,8,4
India,Karnataka,Mangalore,"Kadri, Mangalore - KSPCB",18-03-2024 02:00:00,12.889250,74.853000,OZONE,30,33,31
India,Karnataka,Shivamogga,"Vinoba Nagara, Shivamogga - KSPCB",18-03-2024 02:00:00,13.940000,75.555917,PM10,41,68,55
India,Karnataka,Tumakuru,"Thimmalapura, Tumakuru - KSPCB",18-03-2024 02:00:00,13.377516,77.099072,OZONE,12,54,35
India,Karnataka,Udupi,"Brahmagiri, Udupi - KSPCB",18-03-2024 02:00:00,13.34194444,74.74694444,NO2,28,31,30
India,Karnataka,Udupi,"Brahmagiri, Udupi - KSPCB",18-03-2024 02:00:00,13.34194444,74.74694444,SO2,12,16,15
India,Karnataka,Yadgir,"Collector Office, Yadgir - KSPCB",18-03-2024 02:00:00,16.7602,77.1428,NH3,NA,NA,NA
India,Kerala,Kannur,"Thavakkara, Kannur - Kerala PCB",18-03-2024 02:00:00,11.875000,75.373200,PM2.5,50,59,55
India,Kerala,Kannur,"Thavakkara, Kannur - Kerala PCB",18-03-2024 02:00:00,11.875000,75.373200,NH3,1,1,1
India,Kerala,Kollam,"Polayathode, Kollam - Kerala PCB",18-03-2024 02:00:00,8.8787,76.6073,PM10,70,91,80
India,Kerala,Kollam,"Polayathode, Kollam - Kerala PCB",18-03-2024 02:00:00,8.8787,76.6073,SO2,1,4,2
India,Kerala,Kollam,"Polayathode, Kollam - Kerala PCB",18-03-2024 02:00:00,8.8787,76.6073,CO,5,26,12
India,Kerala,Thiruvananthapuram,"Plammoodu, Thiruvananthapuram - Kerala PCB",18-03-2024 02:00:00,8.5149093,76.9435879,NO2,8,11,9
India,Kerala,Thiruvananthapuram,"Plammoodu, Thiruvananthapuram - Kerala PCB",18-03-2024 02:00:00,8.5149093,76.9435879,OZONE,8,55,18
India,Madhya Pradesh,Bhopal,"Idgah Hills, Bhopal - MPPCB",18-03-2024 02:00:00,23.264759,77.381568,NH3,3,7,5
India,Madhya Pradesh,Bhopal,"Idgah Hills, Bhopal - MPPCB",18-03-2024 02:00:00,23.264759,77.381568,CO,20,42,35
India,Madhya Pradesh,Bhopal,"Paryavaran Parisar, Bhopal - MPPCB",18-03-2024 02:00:00,23.210494,77.425409,NH3,8,11,9
India,Madhya Pradesh,Bhopal,"T T Nagar, Bhopal - MPPCB",18-03-2024 02:00:00,23.233584,77.400574,OZONE,62,126,93
India,Madhya Pradesh,Dewas,"Bhopal Chauraha, Dewas - MPPCB",18-03-2024 02:00:00,22.9682591,76.064118,PM10,93,166,118
India,Madhya Pradesh,Dewas,"Bhopal Chauraha, Dewas - MPPCB",18-03-2024 02:00:00,22.9682591,76.064118,CO,10,44,28
India,Madhya Pradesh,Gwalior,"City Center, Gwalior - MPPCB",18-03-2024 02:00:00,26.203442,78.193251,PM2.5,30,235,138
India,Madhya Pradesh,Gwalior,"City Center, Gwalior - MPPCB",18-03-2024 02:00:00,26.203442,78.193251,OZONE,9,72,22
India,Madhya Pradesh,Gwalior,"Deen Dayal Nagar, Gwalior - MPPCB",18-03-2024 02:00:00,26.259242,78.216432,NH3,2,9,5
India,Madhya Pradesh,Gwalior,"Deen Dayal Nagar, Gwalior - MPPCB",18-03-2024 02:00:00,26.259242,78.216432,SO2,16,27,20
India,Madhya Pradesh,Gwalior,"Deen Dayal Nagar, Gwalior - MPPCB",18-03-2024 02:00:00,26.259242,78.216432,CO,14,137,99
India,Madhya Pradesh,Gwalior,"Maharaj Bada, Gwalior - MPPCB",18-03-2024 02:00:00,26.200388,78.147714,PM2.5,35,230,94
India,Madhya Pradesh,Indore,"Chhoti Gwaltoli, Indore - MPPCB",18-03-2024 02:00:00,22.4310,75.5213,OZONE,12,130,45
India,Madhya Pradesh,Indore,"Maguda Nagar, Indore - IMC",18-03-2024 02:00:00,22.7524,75.8872,OZONE,36,43,37
India,Madhya Pradesh,Indore,"Regional Park, Indore - IMC",18-03-2024 02:00:00,22.6780,75.8559,CO,23,46,34
India,Madhya Pradesh,Indore,"Regional Park, Indore - IMC",18-03-2024 02:00:00,22.6780,75.8559,OZONE,11,17,13
India,Madhya Pradesh,Indore,"Residency Area, Indore - IMC",18-03-2024 02:00:00,22.7084,75.8815,PM2.5,45,154,70
India,Madhya Pradesh,Indore,"Residency Area, Indore - IMC",18-03-2024 02:00:00,22.7084,75.8815,PM10,53,132,73
India,Madhya Pradesh,Indore,"Residency Area, Indore - IMC",18-03-2024 02:00:00,22.7084,75.8815,CO,13,20,17
India,Madhya Pradesh,Jabalpur,"Govindh Bhavan Colony, Jabalpur - JMC",18-03-2024 02:00:00,23.163174,79.973061,PM10,57,187,77
India,Madhya Pradesh,Jabalpur,"Gupteshwar, Jabalpur - JMC",18-03-2024 02:00:00,23.142888,79.916147,OZONE,15,104,37
India,Madhya Pradesh,Jabalpur,"Marhatal, Jabalpur - MPPCB",18-03-2024 02:00:00,23.168606,79.932247,NO2,10,50,24
India,Madhya Pradesh,Jabalpur,"Suhagi, Jabalpur - JMC",18-03-2024 02:00:00,23.218135,79.957770,NH3,5,5,5
India,Madhya Pradesh,Katni,"Gole Bazar, Katni - MPPCB",18-03-2024 02:00:00,23.50016,80.23284,CO,40,66,45
India,Madhya Pradesh,Katni,"Gole Bazar, Katni - MPPCB",18-03-2024 02:00:00,23.50016,80.23284,OZONE,43,143,95
India,Madhya Pradesh,Maihar,"Sahilara, Maihar - KJS Cements",18-03-2024 02:00:00,24.2613009,80.7231783,PM10,31,435,60
India,Madhya Pradesh,Mandideep,"Sector-D Industrial Area, Mandideep - MPPCB",18-03-2024 02:00:00,23.108440,77.511428,SO2,14,127,66
India,Madhya Pradesh,Pithampur,"Sector-2 Industrial Area, Pithampur - MPPCB",18-03-2024 02:00:00,22.624758,75.675238,PM10,99,168,124
India,Madhya Pradesh,Pithampur,"Sector-2 Industrial Area, Pithampur - MPPCB",18-03-2024 02:00:00,22.624758,75.675238,OZONE,24,56,33
India,Madhya Pradesh,Ratlam,"Shasthri Nagar, Ratlam - IPCA Lab",18-03-2024 02:00:00,23.331731,75.045981,PM2.5,34,86,58
India,Madhya Pradesh,Ratlam,"Shasthri Nagar, Ratlam - IPCA Lab",18-03-2024 02:00:00,23.331731,75.045981,SO2,36,45,38
India,Madhya Pradesh,Sagar,"Civil Lines, Sagar - MPPCB",18-03-2024 02:00:00,23.838586,78.759431,OZONE,60,210,73
India,Madhya Pradesh,Satna,"Bandhavgar Colony, Satna - Birla Cement",18-03-2024 02:00:00,24.58434363,80.8549414,NO2,28,66,41
India,Madhya Pradesh,Singrauli,"Suryakiran Bhawan NCL, Singrauli - MPPCB",18-03-2024 02:00:00,24.108970,82.645580,SO2,17,107,38
India,Madhya Pradesh,Ujjain,"Mahakaleshwar Temple, Ujjain - MPPCB",18-03-2024 02:00:00,23.182719 ,75.768218 ,PM2.5,34,119,56
India,Maharashtra,Ahmednagar,"Tarakpur, Ahmednagar - MPCB",18-03-2024 02:00:00,19.10122,74.73339,PM2.5,39,125,72
India,Maharashtra,Ahmednagar,"Tarakpur, Ahmednagar - MPCB",18-03-2024 02:00:00,19.10122,74.73339,NH3,4,8,5
India,Maharashtra,Akola,"Ramdaspeth, Akola - MPCB",18-03-2024 02:00:00,20.719516,77.000253,PM2.5,33,91,67
India,Maharashtra,Akola,"Ramdaspeth, Akola - MPCB",18-03-2024 02:00:00,20.719516,77.000253,OZONE,14,93,43
India,Maharashtra,Amravati,"Shivneri Colony, Amravati - MPCB",18-03-2024 02:00:00,20.9402359,77.7895248,OZONE,37,123,67
India,Maharashtra,Aurangabad,"More Chowk Waluj, Aurangabad - MPCB",18-03-2024 02:00:00,19.8389439,75.244448,NO2,3,16,6
India,Maharashtra,Aurangabad,"More Chowk Waluj, Aurangabad - MPCB",18-03-2024 02:00:00,19.8389439,75.244448,CO,3,104,35
India,Maharashtra,Aurangabad,"Rachnakar Colony, Aurangabad - MPCB",18-03-2024 02:00:00,19.863756,75.321188,NH3,1,2,1
India,Maharashtra,Aurangabad,"Rachnakar Colony, Aurangabad - MPCB",18-03-2024 02:00:00,19.863756,75.321188,SO2,10,82,37
India,Maharashtra,Aurangabad,"Rachnakar Colony, Aurangabad - MPCB",18-03-2024 02:00:00,19.863756,75.321188,OZONE,21,91,90
India,Maharashtra,Belapur,"CBD Belapur, Belapur - MPCB",18-03-2024 02:00:00,19.0243902,73.0406721,PM10,54,109,85
India,Maharashtra,Belapur,"CBD Belapur, Belapur - MPCB",18-03-2024 02:00:00,19.0243902,73.0406721,NO2,14,48,29
India,Maharashtra,Bhiwandi,"Gokul Nagar, Bhiwandi - MPCB",18-03-2024 02:00:00,19.309073,73.057223,NH3,1,4,1
India,Maharashtra,Chandrapur,"Chauhan Colony, Chandrapur - MPCB",18-03-2024 02:00:00,19.962900,79.298714,PM2.5,49,96,70
India,Maharashtra,Chandrapur,"Chauhan Colony, Chandrapur - MPCB",18-03-2024 02:00:00,19.962900,79.298714,PM10,41,76,57
India,Maharashtra,Chandrapur,"Chauhan Colony, Chandrapur - MPCB",18-03-2024 02:00:00,19.962900,79.298714,SO2,1,32,12
India,Maharashtra,Chandrapur,"Chauhan Colony, Chandrapur - MPCB",18-03-2024 02:00:00,19.962900,79.298714,OZONE,15,16,16
India,Maharashtra,Chandrapur,"MIDC Khutala, Chandrapur - MPCB",18-03-2024 02:00:00,19.9775302,79.2337086,SO2,20,23,21
India,Maharashtra,Dhule,"Deopur, Dhule - MPCB",18-03-2024 02:00:00,20.918946,74.776388,NH3,2,27,4
India,Maharashtra,Jalgaon,"Prabhat Colony, Jalgaon - MPCB",18-03-2024 02:00:00,21.001264,75.565602,SO2,3,20,12
India,Maharashtra,Jalna,"Old MIDC, Jalna - MPCB",18-03-2024 02:00:00,19.854616,75.905894,SO2,6,16,11
India,Maharashtra,Kolhapur,"Shivaji University, Kolhapur - MPCB",18-03-2024 02:00:00,16.6870449,74.2505872,PM2.5,129,195,154
India,Maharashtra,Kolhapur,"Shivaji University, Kolhapur - MPCB",18-03-2024 02:00:00,16.6870449,74.2505872,NO2,25,59,41
India,Maharashtra,Kolhapur,"Shivaji University, Kolhapur - MPCB",18-03-2024 02:00:00,16.6870449,74.2505872,OZONE,7,115,42
India,Maharashtra,Kolhapur,"Sinchan Bhavan, Kolhapur - MPCB",18-03-2024 02:00:00,16.7143745,74.2426398,PM10,44,226,122
India,Maharashtra,Kolhapur,"Sinchan Bhavan, Kolhapur - MPCB",18-03-2024 02:00:00,16.7143745,74.2426398,NH3,7,8,8
India,Maharashtra,Kolhapur,"Sinchan Bhavan, Kolhapur - MPCB",18-03-2024 02:00:00,16.7143745,74.2426398,SO2,1,19,5
India,Maharashtra,Kolhapur,"Sinchan Bhavan, Kolhapur - MPCB",18-03-2024 02:00:00,16.7143745,74.2426398,CO,13,58,23
India,Maharashtra,Latur,"Sawe Wadi, Latur - MPCB",18-03-2024 02:00:00,18.39963,76.57452,PM10,75,114,101
India,Maharashtra,Latur,"Sawe Wadi, Latur - MPCB",18-03-2024 02:00:00,18.39963,76.57452,SO2,3,17,7
India,Maharashtra,Malegaon,"Mahesh Nagar, Malegaon - MPCB",18-03-2024 02:00:00,20.555712,74.529236,NH3,2,14,4
India,Maharashtra,Mumbai,"Bandra Kurla Complex, Mumbai - MPCB",18-03-2024 02:00:00,19.065931,72.862131,CO,11,27,15
India,Maharashtra,Mumbai,"Bandra Kurla Complex, Mumbai - MPCB",18-03-2024 02:00:00,19.065931,72.862131,OZONE,17,107,74
India,Maharashtra,Mumbai,"Borivali East, Mumbai - MPCB",18-03-2024 02:00:00,19.2243333,72.8658113,NO2,NA,NA,NA
India,Maharashtra,Mumbai,"Chakala-Andheri East, Mumbai - IITM",18-03-2024 02:00:00,19.11074,72.86084,NH3,5,11,8
India,Maharashtra,Mumbai,"Chembur, Mumbai - MPCB",18-03-2024 02:00:00,19.0364585,72.8954371,NO2,24,47,34
India,Maharashtra,Mumbai,"Chembur, Mumbai - MPCB",18-03-2024 02:00:00,19.0364585,72.8954371,CO,14,28,19
India,Maharashtra,Mumbai,"Colaba, Mumbai - MPCB",18-03-2024 02:00:00,18.910000,72.820000,NO2,18,24,20
India,Maharashtra,Mumbai,"Ghatkopar, Mumbai - BMC",18-03-2024 02:00:00,19.083694,72.920967,CO,6,19,10
India,Maharashtra,Mumbai,"Kandivali East, Mumbai - MPCB",18-03-2024 02:00:00,19.205800,72.868200,NO2,26,109,48
India,Maharashtra,Mumbai,"Kandivali West, Mumbai - BMC",18-03-2024 02:00:00,19.215859,72.831718,PM2.5,40,80,57
India,Maharashtra,Mumbai,"Kandivali West, Mumbai - BMC",18-03-2024 02:00:00,19.215859,72.831718,CO,10,34,19
India,Maharashtra,Mumbai,"Kandivali West, Mumbai - BMC",18-03-2024 02:00:00,19.215859,72.831718,OZONE,2,46,21
India,Maharashtra,Mumbai,"Kurla, Mumbai - MPCB",18-03-2024 02:00:00,19.0863,72.8888,PM10,NA,NA,NA
India,Maharashtra,Mumbai,"Kurla, Mumbai - MPCB",18-03-2024 02:00:00,19.0863,72.8888,NH3,2,5,3
India,Maharashtra,Mumbai,"Mazgaon, Mumbai - IITM",18-03-2024 02:00:00,18.96702,72.84214,PM2.5,82,132,106
India,Maharashtra,Mumbai,"Mindspace-Malad West, Mumbai - MPCB",18-03-2024 02:00:00,19.1878657,72.8304069,PM10,NA,NA,NA
India,Maharashtra,Mumbai,"Mindspace-Malad West, Mumbai - MPCB",18-03-2024 02:00:00,19.1878657,72.8304069,OZONE,NA,NA,NA
India,Maharashtra,Mumbai,"Navy Nagar-Colaba, Mumbai - IITM",18-03-2024 02:00:00,18.897756,72.813320,PM10,108,149,123
India,Maharashtra,Mumbai,"Navy Nagar-Colaba, Mumbai - IITM",18-03-2024 02:00:00,18.897756,72.813320,SO2,5,18,10
India,Maharashtra,Mumbai,"Powai, Mumbai - MPCB",18-03-2024 02:00:00,19.137500,72.915056,PM2.5,30,62,40
India,Maharashtra,Mumbai,"Powai, Mumbai - MPCB",18-03-2024 02:00:00,19.137500,72.915056,SO2,NA,NA,NA
India,Maharashtra,Mumbai,"Shivaji Nagar, Mumbai - BMC",18-03-2024 02:00:00,19.060498,72.923356,SO2,3,25,8
India,Maharashtra,Mumbai,"Vile Parle West, Mumbai - MPCB",18-03-2024 02:00:00,19.10861,72.83622,PM2.5,NA,NA,NA
India,Maharashtra,Mumbai,"Vile Parle West, Mumbai - MPCB",18-03-2024 02:00:00,19.10861,72.83622,NH3,10,11,10
India,Maharashtra,Mumbai,"Vile Parle West, Mumbai - MPCB",18-03-2024 02:00:00,19.10861,72.83622,CO,41,43,42
India,Maharashtra,Mumbai,"Worli, Mumbai - MPCB",18-03-2024 02:00:00,18.9936162,72.8128113,SO2,NA,NA,NA
India,Maharashtra,Nagpur,"Ambazari, Nagpur - MPCB",18-03-2024 02:00:00,21.121801,79.04952,NO2,17,38,26
India,Maharashtra,Nagpur,"Ambazari, Nagpur - MPCB",18-03-2024 02:00:00,21.121801,79.04952,SO2,4,38,21
India,Maharashtra,Nagpur,"Ram Nagar, Nagpur - MPCB",18-03-2024 02:00:00,21.143383,79.048912,PM2.5,48,186,90
India,Maharashtra,Nagpur,"Ram Nagar, Nagpur - MPCB",18-03-2024 02:00:00,21.143383,79.048912,NH3,4,7,5
India,Maharashtra,Nagpur,"Ram Nagar, Nagpur - MPCB",18-03-2024 02:00:00,21.143383,79.048912,SO2,1,24,12
India,Maharashtra,Nanded,"Sneh Nagar, Nanded - MPCB",18-03-2024 02:00:00,19.173852,77.296291,CO,30,38,35
India,Maharashtra,Nashik,"Gangapur Road, Nashik - MPCB",18-03-2024 02:00:00,20.0073285,73.7762427,PM2.5,NA,NA,NA
India,Maharashtra,Nashik,"Gangapur Road, Nashik - MPCB",18-03-2024 02:00:00,20.0073285,73.7762427,OZONE,9,33,18
India,Maharashtra,Nashik,"Hirawadi, Nashik - MPCB",18-03-2024 02:00:00,20.021503,73.813844,PM2.5,42,97,69
India,Maharashtra,Nashik,"Hirawadi, Nashik - MPCB",18-03-2024 02:00:00,20.021503,73.813844,PM10,72,124,98
India,Maharashtra,Nashik,"Hirawadi, Nashik - MPCB",18-03-2024 02:00:00,20.021503,73.813844,CO,7,40,22
India,Maharashtra,Nashik,"MIDC Ambad, Nashik - MPCB",18-03-2024 02:00:00,19.950220,73.731480,NH3,2,4,3
India,Maharashtra,Navi Mumbai,"Kopripada-Vashi, Navi Mumbai - MPCB",18-03-2024 02:00:00,19.090337,73.014232,PM2.5,73,193,108
India,Maharashtra,Navi Mumbai,"Kopripada-Vashi, Navi Mumbai - MPCB",18-03-2024 02:00:00,19.090337,73.014232,SO2,6,30,10
India,Maharashtra,Navi Mumbai,"Kopripada-Vashi, Navi Mumbai - MPCB",18-03-2024 02:00:00,19.090337,73.014232,OZONE,9,96,33
India,Maharashtra,Navi Mumbai,"Sanpada, Navi Mumbai - MPCB",18-03-2024 02:00:00,19.0575752,73.0151367,NO2,1,29,12
India,Maharashtra,Navi Mumbai,"Sanpada, Navi Mumbai - MPCB",18-03-2024 02:00:00,19.0575752,73.0151367,CO,8,29,12
India,Maharashtra,Navi Mumbai,"Sanpada, Navi Mumbai - MPCB",18-03-2024 02:00:00,19.0575752,73.0151367,OZONE,2,105,11
India,Maharashtra,Navi Mumbai,"Sector-19A Nerul, Navi Mumbai - IITM",18-03-2024 02:00:00,19.044,73.0325,NH3,9,23,16
India,Maharashtra,Navi Mumbai,"Sector-19A Nerul, Navi Mumbai - IITM",18-03-2024 02:00:00,19.044,73.0325,OZONE,2,173,29
India,Maharashtra,Navi Mumbai,"Sector-2E Kalamboli, Navi Mumbai - MPCB",18-03-2024 02:00:00,19.02579,73.10297,PM10,82,119,98
India,Maharashtra,Navi Mumbai,"Tondare-Taloja, Navi Mumbai - MPCB",18-03-2024 02:00:00,19.0630,73.1209,CO,10,46,19
India,Maharashtra,Parbhani,"Masoom Colony, Parbhani - MPCB",18-03-2024 02:00:00,19.265594,76.761463,PM2.5,38,308,212
India,Maharashtra,Parbhani,"Masoom Colony, Parbhani - MPCB",18-03-2024 02:00:00,19.265594,76.761463,OZONE,13,65,40
India,Maharashtra,Pimpri-Chinchwad,"Gavalinagar, Pimpri Chinchwad - MPCB",18-03-2024 02:00:00,18.63673,73.82487,NH3,1,8,4
India,Maharashtra,Pimpri-Chinchwad,"Park Street Wakad, Pimpri Chinchwad - MPCB",18-03-2024 02:00:00,18.59051,73.77946,PM2.5,84,168,122
India,Maharashtra,Pimpri-Chinchwad,"Park Street Wakad, Pimpri Chinchwad - MPCB",18-03-2024 02:00:00,18.59051,73.77946,NO2,43,116,77
India,Maharashtra,Pune,"Karve Road, Pune - MPCB",18-03-2024 02:00:00,18.5011743,73.8165527,CO,45,54,54
India,Maharashtra,Pune,"Katraj Dairy, Pune - MPCB",18-03-2024 02:00:00,18.454450,73.854155,PM10,66,108,82
India,Maharashtra,Pune,"Revenue Colony-Shivajinagar, Pune - IITM",18-03-2024 02:00:00,18.530085,73.849598,NO2,77,154,108
India,Maharashtra,Pune,"Revenue Colony-Shivajinagar, Pune - IITM",18-03-2024 02:00:00,18.530085,73.849598,OZONE,1,53,20
India,Maharashtra,Solapur,"Ratandeep Housing Society, Solapur - MPCB",18-03-2024 02:00:00,17.65439,75.90649,OZONE,4,157,69
India,Maharashtra,Ulhasnagar,"Sidhi Vinayak Nagar, Ulhasnagar - MPCB",18-03-2024 02:00:00,19.235581,73.159121,SO2,7,33,13
India,Maharashtra,Ulhasnagar,"Sidhi Vinayak Nagar, Ulhasnagar - MPCB",18-03-2024 02:00:00,19.235581,73.159121,CO,6,39,28
India,Maharashtra,Virar,"Bolinj, Virar - MPCB",18-03-2024 02:00:00,19.4458210,72.7988231,PM2.5,63,302,144
India,Maharashtra,Virar,"Bolinj, Virar - MPCB",18-03-2024 02:00:00,19.4458210,72.7988231,SO2,2,27,8
India,Maharashtra,Virar,"Bolinj, Virar - MPCB",18-03-2024 02:00:00,19.4458210,72.7988231,OZONE,2,125,52
India,Manipur,Imphal,"DM College of Science, Imphal - Manipur PCB",18-03-2024 02:00:00,24.8207389,93.9423085,NO2,NA,NA,NA
India,Manipur,Imphal,"DM College of Science, Imphal - Manipur PCB",18-03-2024 02:00:00,24.8207389,93.9423085,SO2,NA,NA,NA
India,Manipur,Imphal,"Manipur University, Imphal - Manipur PCB",18-03-2024 02:00:00,24.7524239,93.9286218,OZONE,2,67,22
India,Meghalaya,Shillong,"Lumpyngngad, Shillong - Meghalaya PCB",18-03-2024 02:00:00,25.5586,91.8985,NO2,NA,NA,NA
India,Mizoram,Aizawl,"Sikulpuikawn, Aizawl - Mizoram PCB",18-03-2024 02:00:00,23.7176342,92.7192841,CO,12,18,15
India,Nagaland,Kohima,"PWD Juction, Kohima - NPCB",18-03-2024 02:00:00,25.6635413,94.0989878,NH3,1,1,1
India,Nagaland,Kohima,"PWD Juction, Kohima - NPCB",18-03-2024 02:00:00,25.6635413,94.0989878,OZONE,10,23,16
India,Odisha,Angul,"Hakimapada, Angul - OSPCB",18-03-2024 02:00:00,20.832874,85.104082,OZONE,15,113,48
India,Odisha,Balasore,"Kalidaspur, Balasore - OSPCB",18-03-2024 02:00:00,21.51161,86.89088,PM10,41,109,79
India,Odisha,Balasore,"Kalidaspur, Balasore - OSPCB",18-03-2024 02:00:00,21.51161,86.89088,CO,34,90,66
India,Odisha,Barbil,"Forest Office, Barbil - OSPCB",18-03-2024 02:00:00,22.1166054,85.3945546,PM2.5,37,314,77
India,Odisha,Bhubaneswar,"Lingraj Mandir, Bhubaneswar - OSPCB",18-03-2024 02:00:00,20.240790,85.836784,NO2,5,19,12
India,Odisha,Bhubaneswar,"Patia, Bhubaneswar - OSPCB",18-03-2024 02:00:00,20.34652,85.81630,SO2,2,8,5
India,Odisha,Bhubaneswar,"Patia, Bhubaneswar - OSPCB",18-03-2024 02:00:00,20.34652,85.81630,CO,77,92,81
India,Odisha,Bhubaneswar,"Patia, Bhubaneswar - OSPCB",18-03-2024 02:00:00,20.34652,85.81630,OZONE,7,95,28
India,Odisha,Brajrajnagar,"GM Office, Brajrajnagar - OSPCB",18-03-2024 02:00:00,21.8004996,83.8396977,NO2,13,31,16
India,Odisha,Byasanagar,"Ferro Chrome Colony, Byasanagar - OSPCB",18-03-2024 02:00:00,20.94185,86.11510,PM10,37,119,59
India,Odisha,Cuttack,"CDA Area, Cuttack - OSPCB",18-03-2024 02:00:00,20.48891     ,85.84768     ,NO2,6,25,12
India,Odisha,Keonjhar,"Jagamohanpur, Keonjhar - OSPCB",18-03-2024 02:00:00,21.643900,85.599355,NH3,NA,NA,NA
India,Odisha,Keonjhar,"Jagamohanpur, Keonjhar - OSPCB",18-03-2024 02:00:00,21.643900,85.599355,OZONE,1,28,3
India,Odisha,Nayagarh,"Dabuna, Nayagarh - OSPCB",18-03-2024 02:00:00,21.847279,85.416905,OZONE,1,12,3
India,Odisha,Rairangpur,"Divisional Forest Office, Rairangpur - OSPCB",18-03-2024 02:00:00,22.265816,86.174829,PM2.5,35,89,54
India,Odisha,Rairangpur,"Divisional Forest Office, Rairangpur - OSPCB",18-03-2024 02:00:00,22.265816,86.174829,NO2,7,8,7
India,Odisha,Rairangpur,"Divisional Forest Office, Rairangpur - OSPCB",18-03-2024 02:00:00,22.265816,86.174829,CO,10,33,22
India,Odisha,Rairangpur,"Divisional Forest Office, Rairangpur - OSPCB",18-03-2024 02:00:00,22.265816,86.174829,OZONE,11,41,23
India,Odisha,Rourkela,"Fertilizer Township, Rourkela - OSPCB",18-03-2024 02:00:00,22.18972222,84.86277778,CO,16,30,24
India,Odisha,Rourkela,"Raghunathpali, Rourkela - OSPCB",18-03-2024 02:00:00,22.220833,84.809444,PM2.5,48,90,70
India,Odisha,Rourkela,"Sector-2, Rourkela - OSPCB",18-03-2024 02:00:00,22.24500000,84.88111111,CO,16,73,33
India,Odisha,Suakati,"OMC Colony, Suakati - OSPCB",18-03-2024 02:00:00,21.606865,85.510538,NH3,6,22,11
India,Odisha,Suakati,"OMC Colony, Suakati - OSPCB",18-03-2024 02:00:00,21.606865,85.510538,SO2,2,10,5
India,Odisha,Talcher,"Talcher Coalfields,Talcher - OSPCB",18-03-2024 02:00:00,20.9360711,85.1707021,NH3,7,7,7
India,Puducherry,Puducherry,"Jawahar Nagar, Puducherry - PPCC",18-03-2024 02:00:00,11.9309,79.8027,PM2.5,2,38,11
India,Puducherry,Puducherry,"Jawahar Nagar, Puducherry - PPCC",18-03-2024 02:00:00,11.9309,79.8027,CO,14,42,25
India,Puducherry,Puducherry,"Jawahar Nagar, Puducherry - PPCC",18-03-2024 02:00:00,11.9309,79.8027,OZONE,8,27,20
India,Punjab,Amritsar,"Golden Temple, Amritsar - PPCB",18-03-2024 02:00:00,31.620000,74.876512,OZONE,45,64,55
India,Punjab,Bathinda,"Hardev Nagar, Bathinda - PPCB",18-03-2024 02:00:00,30.233011,74.907758,NO2,29,31,30
India,Punjab,Bathinda,"Hardev Nagar, Bathinda - PPCB",18-03-2024 02:00:00,30.233011,74.907758,SO2,2,23,12
India,Punjab,Khanna,"Kalal Majra, Khanna - PPCB",18-03-2024 02:00:00,30.736056 ,76.209694,PM2.5,39,78,57
India,Punjab,Ludhiana,"Punjab Agricultural University, Ludhiana - PPCB",18-03-2024 02:00:00,30.9028,75.8086,CO,4,38,18
India,Punjab,Mandi Gobindgarh,"RIMT University, Mandi Gobindgarh - PPCB",18-03-2024 02:00:00,30.649961,76.331442,PM10,54,222,113
India,Punjab,Patiala,"Model Town, Patiala - PPCB",18-03-2024 02:00:00,30.349388,76.366642,NO2,22,28,26
India,Punjab,Patiala,"Model Town, Patiala - PPCB",18-03-2024 02:00:00,30.349388,76.366642,CO,20,50,34
India,Punjab,Patiala,"Model Town, Patiala - PPCB",18-03-2024 02:00:00,30.349388,76.366642,OZONE,22,107,53
India,Punjab,Rupnagar,"Ratanpura, Rupnagar - Ambuja Cements",18-03-2024 02:00:00,31.0325454,76.5623046,SO2,5,12,10
India,Rajasthan,Ajmer,"Civil Lines,  Ajmer - RSPCB",18-03-2024 02:00:00,26.470859,74.646594,CO,12,52,33
India,Rajasthan,Alwar,"Moti Doongri, Alwar - RSPCB",18-03-2024 02:00:00,27.554793,76.611536,PM2.5,37,74,51
India,Rajasthan,Alwar,"Moti Doongri, Alwar - RSPCB",18-03-2024 02:00:00,27.554793,76.611536,SO2,1,61,26
India,Rajasthan,Alwar,"Moti Doongri, Alwar - RSPCB",18-03-2024 02:00:00,27.554793,76.611536,CO,14,107,60
India,Rajasthan,Banswara,"Rati Talai, Banswara - RSPCB",18-03-2024 02:00:00,23.555190,74.440010,PM10,83,234,134
India,Rajasthan,Banswara,"Rati Talai, Banswara - RSPCB",18-03-2024 02:00:00,23.555190,74.440010,NO2,15,114,37
India,Rajasthan,Baran,"Bamboliya, Baran - RSPCB",18-03-2024 02:00:00,25.106006,76.469948,NO2,7,32,12
India,Rajasthan,Barmer,"Railway Colony, Barmer - RSPCB",18-03-2024 02:00:00,25.747299,71.393989,NO2,9,22,12
India,Rajasthan,Barmer,"Railway Colony, Barmer - RSPCB",18-03-2024 02:00:00,25.747299,71.393989,NH3,3,5,4
India,Rajasthan,Bharatpur,"Krishna Nagar, Bharatpur - RSPCB",18-03-2024 02:00:00,27.215415,77.50873,PM2.5,34,327,155
India,Rajasthan,Bharatpur,"Krishna Nagar, Bharatpur - RSPCB",18-03-2024 02:00:00,27.215415,77.50873,OZONE,2,115,46
India,Rajasthan,Bhilwara,"Pratap Nagar, Bhilwara - RSPCB",18-03-2024 02:00:00,25.339605,74.618883,PM10,46,126,66
India,Rajasthan,Bhilwara,"Pratap Nagar, Bhilwara - RSPCB",18-03-2024 02:00:00,25.339605,74.618883,CO,20,44,35
India,Rajasthan,Bundi,"New Colony, Bundi - RSPCB",18-03-2024 02:00:00,25.435774,75.644272,OZONE,41,156,91
India,Rajasthan,Churu,"Subash Chowk, Churu - RSPCB",18-03-2024 02:00:00,28.296139,74.961696,NO2,2,49,21
India,Rajasthan,Churu,"Subash Chowk, Churu - RSPCB",18-03-2024 02:00:00,28.296139,74.961696,SO2,4,22,11
India,Rajasthan,Churu,"Subash Chowk, Churu - RSPCB",18-03-2024 02:00:00,28.296139,74.961696,CO,16,50,29
India,Rajasthan,Dausa,"Khatikan Mohalla, Dausa - RSPCB",18-03-2024 02:00:00,26.895552,76.334753,PM2.5,37,271,80
India,Rajasthan,Dausa,"Khatikan Mohalla, Dausa - RSPCB",18-03-2024 02:00:00,26.895552,76.334753,NO2,31,92,55
India,Rajasthan,Dausa,"Khatikan Mohalla, Dausa - RSPCB",18-03-2024 02:00:00,26.895552,76.334753,SO2,8,16,12
India,Rajasthan,Dausa,"Khatikan Mohalla, Dausa - RSPCB",18-03-2024 02:00:00,26.895552,76.334753,OZONE,64,80,71
India,Rajasthan,Dholpur,"Raja Ganj, Dholpur - RSPCB",18-03-2024 02:00:00,26.699557,77.898881,PM10,NA,NA,NA
India,Rajasthan,Dholpur,"Raja Ganj, Dholpur - RSPCB",18-03-2024 02:00:00,26.699557,77.898881,NO2,NA,NA,NA
India,Rajasthan,Dholpur,"Raja Ganj, Dholpur - RSPCB",18-03-2024 02:00:00,26.699557,77.898881,CO,24,56,35
India,Rajasthan,Dungarpur,"Bhoiwada, Dungarpur - RSPCB",18-03-2024 02:00:00,23.837789,73.714926,PM2.5,42,87,59
India,Rajasthan,Dungarpur,"Bhoiwada, Dungarpur - RSPCB",18-03-2024 02:00:00,23.837789,73.714926,OZONE,32,113,60
India,Rajasthan,Jaipur,"Adarsh Nagar, Jaipur - RSPCB",18-03-2024 02:00:00,26.902909,75.836858,SO2,2,23,16
India,Rajasthan,Jaipur,"Mansarovar Sector-12, Jaipur - RSPCB",18-03-2024 02:00:00,26.843698,75.766894,OZONE,2,7,4
India,Rajasthan,Jaipur,"Police Commissionerate, Jaipur - RSPCB",18-03-2024 02:00:00,26.9164092,75.7994901,SO2,14,23,19
India,Rajasthan,Jaipur,"Police Commissionerate, Jaipur - RSPCB",18-03-2024 02:00:00,26.9164092,75.7994901,CO,26,56,39
India,Rajasthan,Jaipur,"RIICO Sitapura, Jaipur - RSPCB",18-03-2024 02:00:00,26.786682,75.827928,NO2,15,142,37
India,Rajasthan,Jaipur,"RIICO Sitapura, Jaipur - RSPCB",18-03-2024 02:00:00,26.786682,75.827928,NH3,2,26,6
India,Rajasthan,Jaipur,"Sector-2 Murlipura, Jaipur - RSPCB",18-03-2024 02:00:00,26.960669,75.771817,PM2.5,27,80,46
India,Rajasthan,Jaipur,"Sector-2 Murlipura, Jaipur - RSPCB",18-03-2024 02:00:00,26.960669,75.771817,NH3,1,13,5
India,Rajasthan,Jaipur,"Sector-2 Murlipura, Jaipur - RSPCB",18-03-2024 02:00:00,26.960669,75.771817,OZONE,48,108,67
India,Rajasthan,Jaipur,"Shastri Nagar, Jaipur - RSPCB",18-03-2024 02:00:00,26.9502929,75.730943,CO,20,56,42
India,Rajasthan,Jalore,"Mudtra Sili, Jalore - RSPCB",18-03-2024 02:00:00,25.344694,72.626208,PM2.5,27,97,50
India,Rajasthan,Jalore,"Mudtra Sili, Jalore - RSPCB",18-03-2024 02:00:00,25.344694,72.626208,PM10,59,157,99
India,Rajasthan,Jalore,"Mudtra Sili, Jalore - RSPCB",18-03-2024 02:00:00,25.344694,72.626208,NO2,13,82,27
India,Rajasthan,Jalore,"Mudtra Sili, Jalore - RSPCB",18-03-2024 02:00:00,25.344694,72.626208,NH3,4,6,5
India,Rajasthan,Jhunjhunu,"Indra Nagar, Jhunjhunu - RSPCB",18-03-2024 02:00:00,28.108988,75.386577,NH3,19,31,25
India,Rajasthan,Jodhpur,"Collectorate, Jodhpur - RSPCB",18-03-2024 02:00:00,26.268249,73.0193853,SO2,1,54,19
India,Rajasthan,Jodhpur,"Collectorate, Jodhpur - RSPCB",18-03-2024 02:00:00,26.268249,73.0193853,CO,24,94,57
India,Rajasthan,Jodhpur,"Collectorate, Jodhpur - RSPCB",18-03-2024 02:00:00,26.268249,73.0193853,OZONE,29,119,55
India,Rajasthan,Jodhpur,"Digari Kalan, Jodhpur - RSPCB",18-03-2024 02:00:00,26.295810,73.082283,SO2,NA,NA,NA
India,Rajasthan,Jodhpur,"Jhalamand, Jodhpur - RSPCB",18-03-2024 02:00:00,26.215415,73.070156,PM2.5,28,308,73
India,Rajasthan,Jodhpur,"Jhalamand, Jodhpur - RSPCB",18-03-2024 02:00:00,26.215415,73.070156,NO2,21,39,27
India,Rajasthan,Jodhpur,"Mandor, Jodhpur - RSPCB",18-03-2024 02:00:00,26.358805,73.047444,NH3,NA,NA,NA
India,Rajasthan,Jodhpur,"Mandor, Jodhpur - RSPCB",18-03-2024 02:00:00,26.358805,73.047444,OZONE,NA,NA,NA
India,Rajasthan,Jodhpur,"Samrat Ashok Udhyan, Jodhpur - RSPCB",18-03-2024 02:00:00,26.253384,72.976571,PM2.5,15,120,40
India,Rajasthan,Jodhpur,"Samrat Ashok Udhyan, Jodhpur - RSPCB",18-03-2024 02:00:00,26.253384,72.976571,CO,22,103,53
India,Rajasthan,Kota,"Shrinath Puram, Kota - RSPCB",18-03-2024 02:00:00,25.14389,75.821256,PM10,NA,NA,NA
India,Rajasthan,Nagaur,"Karni Colony, Nagaur - RSPCB",18-03-2024 02:00:00,27.213494,73.734444,OZONE,55,88,67
India,Rajasthan,Pali,"Indira Colony Vistar, Pali - RSPCB",18-03-2024 02:00:00,25.771061, 73.340227,PM2.5,70,191,112
India,Rajasthan,Pali,"Indira Colony Vistar, Pali - RSPCB",18-03-2024 02:00:00,25.771061, 73.340227,CO,33,78,59
India,Rajasthan,Pratapgarh,"Pragati Nagar, Pratapgarh - RSPCB",18-03-2024 02:00:00,24.041198,74.780702,PM2.5,31,73,44
India,Rajasthan,Pratapgarh,"Pragati Nagar, Pratapgarh - RSPCB",18-03-2024 02:00:00,24.041198,74.780702,CO,16,32,23
India,Rajasthan,Rajsamand,"Dhoinda, Rajsamand - RSPCB",18-03-2024 02:00:00,25.036360,73.883502,PM10,47,155,78
India,Rajasthan,Sikar,"Radhakishan Pura, Sikar - RSPCB",18-03-2024 02:00:00,27.608912,75.153302,CO,10,91,35
India,Rajasthan,Sirohi,"Vedhaynath Colony, Sirohi - RSPCB",18-03-2024 02:00:00,24.885261,72.857549,PM2.5,38,134,60
India,Rajasthan,Sri Ganganagar,"Old City, Sri Ganganagar - RSPCB",18-03-2024 02:00:00,29.931624,73.864511,PM2.5,28,418,151
India,Rajasthan,Udaipur,"Ashok Nagar, Udaipur - RSPCB",18-03-2024 02:00:00,24.5886166,73.6321397,PM2.5,70,168,115
India,Sikkim,Gangtok,"Zero Point GICI, Gangtok - SSPCB",18-03-2024 02:00:00,27.338530,88.614099,PM10,53,123,84
India,Sikkim,Gangtok,"Zero Point GICI, Gangtok - SSPCB",18-03-2024 02:00:00,27.338530,88.614099,SO2,10,11,10
India,TamilNadu,Ariyalur,"Keelapalur, Ariyalur - TNPCB",18-03-2024 02:00:00,11.06825,79.07033,PM10,22,42,31
India,TamilNadu,Ariyalur,"Keelapalur, Ariyalur - TNPCB",18-03-2024 02:00:00,11.06825,79.07033,SO2,34,58,36
India,TamilNadu,Chennai,"Alandur Bus Depot, Chennai - CPCB",18-03-2024 02:00:00,12.9099161,80.1076538,NH3,1,30,6
India,TamilNadu,Chennai,"Alandur Bus Depot, Chennai - CPCB",18-03-2024 02:00:00,12.9099161,80.1076538,OZONE,4,7,5
India,TamilNadu,Chennai,"Manali, Chennai - CPCB",18-03-2024 02:00:00,13.164544,80.26285,CO,NA,NA,NA
India,TamilNadu,Chennai,"Perungudi, Chennai - TNPCB",18-03-2024 02:00:00,12.9533,80.2357,PM10,9,57,28
India,TamilNadu,Chennai,"Perungudi, Chennai - TNPCB",18-03-2024 02:00:00,12.9533,80.2357,NO2,1,9,4
India,TamilNadu,Chennai,"Perungudi, Chennai - TNPCB",18-03-2024 02:00:00,12.9533,80.2357,NH3,1,2,2
India,TamilNadu,Chennai,"Perungudi, Chennai - TNPCB",18-03-2024 02:00:00,12.9533,80.2357,CO,2,84,17
India,TamilNadu,Chennai,"Royapuram, Chennai - TNPCB",18-03-2024 02:00:00,13.1036,80.2909,OZONE,9,11,9
India,TamilNadu,Chennai,"Velachery Res. Area, Chennai - CPCB",18-03-2024 02:00:00,13.0052189,80.2398125,NO2,6,17,10
India,TamilNadu,Chennai,"Velachery Res. Area, Chennai - CPCB",18-03-2024 02:00:00,13.0052189,80.2398125,CO,4,110,43
India,TamilNadu,Chennai,"Velachery Res. Area, Chennai - CPCB",18-03-2024 02:00:00,13.0052189,80.2398125,OZONE,3,30,5
India,TamilNadu,Palkalaiperur,"Bharathidasan University, Palkalaiperur - TNPCB",18-03-2024 02:00:00,10.681158,78.741746,OZONE,1,1,1
India,Telangana,Hyderabad,"Bollaram Industrial Area, Hyderabad - TSPCB",18-03-2024 02:00:00,17.540891,78.358528,NO2,11,21,15
India,Telangana,Hyderabad,"Central University, Hyderabad - TSPCB",18-03-2024 02:00:00,17.460103,78.334361,PM2.5,25,45,33
India,Telangana,Hyderabad,"Central University, Hyderabad - TSPCB",18-03-2024 02:00:00,17.460103,78.334361,SO2,6,11,8
India,Telangana,Hyderabad,"ECIL Kapra, Hyderabad - TSPCB",18-03-2024 02:00:00,17.470431,78.566959,PM10,58,70,63
India,Telangana,Hyderabad,"ECIL Kapra, Hyderabad - TSPCB",18-03-2024 02:00:00,17.470431,78.566959,SO2,2,19,8
India,Telangana,Hyderabad,"ECIL Kapra, Hyderabad - TSPCB",18-03-2024 02:00:00,17.470431,78.566959,OZONE,7,29,19
India,Telangana,Hyderabad,"Kompally Municipal Office, Hyderabad - TSPCB",18-03-2024 02:00:00,17.544899,78.486949,OZONE,10,53,30
India,Telangana,Hyderabad,"Nacharam_TSIIC IALA, Hyderabad - TSPCB",18-03-2024 02:00:00,17.429398,78.569354,SO2,NA,NA,NA
India,Telangana,Hyderabad,"Nacharam_TSIIC IALA, Hyderabad - TSPCB",18-03-2024 02:00:00,17.429398,78.569354,CO,13,13,13
India,Telangana,Hyderabad,"Nacharam_TSIIC IALA, Hyderabad - TSPCB",18-03-2024 02:00:00,17.429398,78.569354,OZONE,17,47,43
India,Telangana,Hyderabad,"New Malakpet, Hyderabad - TSPCB",18-03-2024 02:00:00,17.37206,78.50864,PM10,57,70,64
India,Telangana,Hyderabad,"New Malakpet, Hyderabad - TSPCB",18-03-2024 02:00:00,17.37206,78.50864,SO2,9,16,12
India,Telangana,Hyderabad,"Ramachandrapuram, Hyderabad - TSPCB",18-03-2024 02:00:00,17.528544,78.286195,NO2,11,13,12
India,Telangana,Hyderabad,"Sanathnagar, Hyderabad - TSPCB",18-03-2024 02:00:00,17.4559458,78.4332152,SO2,6,9,7
India,Telangana,Hyderabad,"Sanathnagar, Hyderabad - TSPCB",18-03-2024 02:00:00,17.4559458,78.4332152,CO,27,53,48
India,Telangana,Hyderabad,"Somajiguda, Hyderabad - TSPCB",18-03-2024 02:00:00,17.417094,78.457437,PM2.5,NA,NA,NA
India,Telangana,Hyderabad,"Somajiguda, Hyderabad - TSPCB",18-03-2024 02:00:00,17.417094,78.457437,PM10,NA,NA,NA
India,Telangana,Hyderabad,"Somajiguda, Hyderabad - TSPCB",18-03-2024 02:00:00,17.417094,78.457437,NO2,NA,NA,NA
India,Telangana,Hyderabad,"Zoo Park, Hyderabad - TSPCB",18-03-2024 02:00:00,17.349694,78.451437,NH3,1,1,1
India,Tripura,Agartala,"Bardowali, Agartala - Tripura SPCB",18-03-2024 02:00:00,23.8175497,91.2726974,NO2,7,27,13
India,Tripura,Agartala,"Bardowali, Agartala - Tripura SPCB",18-03-2024 02:00:00,23.8175497,91.2726974,CO,19,104,80
India,Uttar_Pradesh,Agra,"Manoharpur, Agra - UPPCB",18-03-2024 02:00:00,27.23711,78.01936,SO2,10,18,13
India,Uttar_Pradesh,Agra,"Sanjay Palace, Agra - UPPCB",18-03-2024 02:00:00,27.19865833,78.00598056,CO,3,102,59
India,Uttar_Pradesh,Agra,"Sector-3B Avas Vikas Colony, Agra - UPPCB",18-03-2024 02:00:00,27.19412,77.96237,OZONE,2,7,3
India,Uttar_Pradesh,Agra,"Shahjahan Garden, Agra - UPPCB",18-03-2024 02:00:00,27.169338,78.03582,PM2.5,30,184,67
India,Uttar_Pradesh,Agra,"Shahjahan Garden, Agra - UPPCB",18-03-2024 02:00:00,27.169338,78.03582,PM10,51,152,87
India,Uttar_Pradesh,Agra,"Shahjahan Garden, Agra - UPPCB",18-03-2024 02:00:00,27.169338,78.03582,NO2,16,39,21
India,Uttar_Pradesh,Agra,"Shahjahan Garden, Agra - UPPCB",18-03-2024 02:00:00,27.169338,78.03582,OZONE,1,333,76
India,Uttar_Pradesh,Agra,"Shastripuram, Agra - UPPCB",18-03-2024 02:00:00,27.19862,77.92066,PM10,22,169,104
India,Uttar_Pradesh,Baghpat,"Sardar Patel Inter College, Baghpat - UPPCB",18-03-2024 02:00:00,28.964949,77.278761,PM10,68,134,106
India,Uttar_Pradesh,Baghpat,"Sardar Patel Inter College, Baghpat - UPPCB",18-03-2024 02:00:00,28.964949,77.278761,NH3,6,17,9
India,Uttar_Pradesh,Bareilly,"Rajendra Nagar, Bareilly - UPPCB",18-03-2024 02:00:00,28.38910936,79.42963708,OZONE,10,28,15
India,Uttar_Pradesh,Bulandshahr,"Yamunapuram, Bulandshahr - UPPCB",18-03-2024 02:00:00,28.406963,77.849831,PM10,51,172,119
India,Uttar_Pradesh,Bulandshahr,"Yamunapuram, Bulandshahr - UPPCB",18-03-2024 02:00:00,28.406963,77.849831,NO2,18,145,83
India,Uttar_Pradesh,Firozabad,"Nagla Bhau, Firozabad - UPPCB",18-03-2024 02:00:00,27.168897,78.376960,NO2,16,17,17
India,Uttar_Pradesh,Firozabad,"Vibhab Nagar, Firozabad - UPPCB",18-03-2024 02:00:00,27.1594,78.3953,SO2,12,34,20
India,Uttar_Pradesh,Ghaziabad,"Indirapuram, Ghaziabad - UPPCB",18-03-2024 02:00:00,28.646233,77.358075,NH3,7,11,10
India,Uttar_Pradesh,Ghaziabad,"Indirapuram, Ghaziabad - UPPCB",18-03-2024 02:00:00,28.646233,77.358075,OZONE,3,72,19
India,Uttar_Pradesh,Ghaziabad,"Loni, Ghaziabad - UPPCB",18-03-2024 02:00:00,28.757294,77.278792,NO2,13,52,30
India,Uttar_Pradesh,Ghaziabad,"Loni, Ghaziabad - UPPCB",18-03-2024 02:00:00,28.757294,77.278792,CO,36,90,74
India,Uttar_Pradesh,Ghaziabad,"Sanjay Nagar, Ghaziabad - UPPCB",18-03-2024 02:00:00,28.685382,77.453839,PM2.5,35,240,105
India,Uttar_Pradesh,Ghaziabad,"Vasundhara, Ghaziabad - UPPCB",18-03-2024 02:00:00,28.6603346,77.3572563,NH3,2,4,3
India,Uttar_Pradesh,Ghaziabad,"Vasundhara, Ghaziabad - UPPCB",18-03-2024 02:00:00,28.6603346,77.3572563,OZONE,6,88,30
India,Uttar_Pradesh,Gorakhpur,"Madan Mohan Malaviya University of Technology, Gorakhpur - UPPCB",18-03-2024 02:00:00,26.730136,83.433859,PM2.5,52,306,134
India,Uttar_Pradesh,Gorakhpur,"Madan Mohan Malaviya University of Technology, Gorakhpur - UPPCB",18-03-2024 02:00:00,26.730136,83.433859,PM10,54,165,104
India,Uttar_Pradesh,Gorakhpur,"Madan Mohan Malaviya University of Technology, Gorakhpur - UPPCB",18-03-2024 02:00:00,26.730136,83.433859,NO2,2,2,2
India,Uttar_Pradesh,Gorakhpur,"Madan Mohan Malaviya University of Technology, Gorakhpur - UPPCB",18-03-2024 02:00:00,26.730136,83.433859,CO,14,32,22
India,Uttar_Pradesh,Greater Noida,"Knowledge Park - III, Greater Noida - UPPCB",18-03-2024 02:00:00,28.47272,77.482000,PM2.5,68,315,187
India,Uttar_Pradesh,Greater Noida,"Knowledge Park - III, Greater Noida - UPPCB",18-03-2024 02:00:00,28.47272,77.482000,SO2,14,47,23
India,Uttar_Pradesh,Greater Noida,"Knowledge Park - III, Greater Noida - UPPCB",18-03-2024 02:00:00,28.47272,77.482000,OZONE,1,262,43
India,Uttar_Pradesh,Greater Noida,"Knowledge Park - V, Greater Noida - UPPCB",18-03-2024 02:00:00,28.557054,77.453663,OZONE,6,116,24
India,Uttar_Pradesh,Hapur,"Anand Vihar, Hapur - UPPCB",18-03-2024 02:00:00,28.725645,77.749675,PM2.5,45,264,140
India,Uttar_Pradesh,Hapur,"Anand Vihar, Hapur - UPPCB",18-03-2024 02:00:00,28.725645,77.749675,OZONE,13,144,58
India,Uttar_Pradesh,Kanpur,"FTI Kidwai Nagar, Kanpur - UPPCB",18-03-2024 02:00:00,26.428282,80.327067,PM10,62,443,153
India,Uttar_Pradesh,Kanpur,"FTI Kidwai Nagar, Kanpur - UPPCB",18-03-2024 02:00:00,26.428282,80.327067,SO2,23,24,24
India,Uttar_Pradesh,Kanpur,"FTI Kidwai Nagar, Kanpur - UPPCB",18-03-2024 02:00:00,26.428282,80.327067,CO,27,46,37
India,Uttar_Pradesh,Kanpur,"FTI Kidwai Nagar, Kanpur - UPPCB",18-03-2024 02:00:00,26.428282,80.327067,OZONE,3,9,5
India,Uttar_Pradesh,Kanpur,"NSI Kalyanpur, Kanpur - UPPCB",18-03-2024 02:00:00,26.509954,80.249612,PM2.5,4,108,62
India,Uttar_Pradesh,Kanpur,"NSI Kalyanpur, Kanpur - UPPCB",18-03-2024 02:00:00,26.509954,80.249612,PM10,16,212,115
India,Uttar_Pradesh,Kanpur,"NSI Kalyanpur, Kanpur - UPPCB",18-03-2024 02:00:00,26.509954,80.249612,NO2,13,14,14
India,Uttar_Pradesh,Kanpur,"NSI Kalyanpur, Kanpur - UPPCB",18-03-2024 02:00:00,26.509954,80.249612,CO,24,54,47
India,Uttar_Pradesh,Kanpur,"Nehru Nagar, Kanpur - UPPCB",18-03-2024 02:00:00,26.4703136,80.3229863,PM2.5,44,300,96
India,Uttar_Pradesh,Kanpur,"Nehru Nagar, Kanpur - UPPCB",18-03-2024 02:00:00,26.4703136,80.3229863,SO2,4,12,9
India,Uttar_Pradesh,Kanpur,"Nehru Nagar, Kanpur - UPPCB",18-03-2024 02:00:00,26.4703136,80.3229863,OZONE,145,266,178
India,Uttar_Pradesh,Lucknow,"B R Ambedkar University, Lucknow - UPPCB",18-03-2024 02:00:00,26.766433,80.927299,NO2,11,12,11
India,Uttar_Pradesh,Lucknow,"B R Ambedkar University, Lucknow - UPPCB",18-03-2024 02:00:00,26.766433,80.927299,NH3,5,6,5
India,Uttar_Pradesh,Lucknow,"B R Ambedkar University, Lucknow - UPPCB",18-03-2024 02:00:00,26.766433,80.927299,OZONE,1,81,37
India,Uttar_Pradesh,Lucknow,"Gomti Nagar, Lucknow - UPPCB",18-03-2024 02:00:00,26.868120,81.005119,PM10,67,139,93
India,Uttar_Pradesh,Lucknow,"Kukrail Picnic Spot-1, Lucknow - UPPCB",18-03-2024 02:00:00,26.90723,80.98579,NH3,2,2,2
India,Uttar_Pradesh,Lucknow,"Talkatora District Industries Center, Lucknow - CPCB",18-03-2024 02:00:00,26.83399722,80.8917361,PM10,102,138,119
India,Uttar_Pradesh,Meerut,"Ganga Nagar, Meerut - UPPCB",18-03-2024 02:00:00,28.999264,77.7590354,SO2,28,52,36
India,Uttar_Pradesh,Meerut,"Ganga Nagar, Meerut - UPPCB",18-03-2024 02:00:00,28.999264,77.7590354,CO,1,26,17
India,Uttar_Pradesh,Meerut,"Jai Bhim Nagar, Meerut - UPPCB",18-03-2024 02:00:00,28.9535882,77.7622941,SO2,21,33,25
India,Uttar_Pradesh,Meerut,"Pallavpuram Phase 2, Meerut - UPPCB",18-03-2024 02:00:00,29.063510,77.709723,SO2,20,54,34
India,Uttar_Pradesh,Moradabad,"Buddhi Vihar, Moradabad - UPPCB",18-03-2024 02:00:00,28.83526,78.74460,PM2.5,35,218,107
India,Uttar_Pradesh,Moradabad,"Buddhi Vihar, Moradabad - UPPCB",18-03-2024 02:00:00,28.83526,78.74460,NO2,23,23,23
India,Uttar_Pradesh,Moradabad,"Buddhi Vihar, Moradabad - UPPCB",18-03-2024 02:00:00,28.83526,78.74460,OZONE,13,34,19
India,Uttar_Pradesh,Moradabad,"Employment Office, Moradabad - UPPCB",18-03-2024 02:00:00,28.88528,78.73880,PM2.5,32,180,84
India,Uttar_Pradesh,Moradabad,"Employment Office, Moradabad - UPPCB",18-03-2024 02:00:00,28.88528,78.73880,NO2,18,20,19
India,Uttar_Pradesh,Moradabad,"Employment Office, Moradabad - UPPCB",18-03-2024 02:00:00,28.88528,78.73880,CO,20,44,35
India,Uttar_Pradesh,Moradabad,"Kashiram Nagar, Moradabad - UPPCB",18-03-2024 02:00:00,28.849399,78.742362,PM10,73,181,128
India,Uttar_Pradesh,Moradabad,"Kashiram Nagar, Moradabad - UPPCB",18-03-2024 02:00:00,28.849399,78.742362,NO2,16,47,26
India,Uttar_Pradesh,Moradabad,"Kashiram Nagar, Moradabad - UPPCB",18-03-2024 02:00:00,28.849399,78.742362,OZONE,18,60,24
India,Uttar_Pradesh,Muzaffarnagar,"New Mandi, Muzaffarnagar - UPPCB",18-03-2024 02:00:00,29.4723508,77.7194031,PM2.5,61,305,205
India,Uttar_Pradesh,Noida,"Sector - 125, Noida - UPPCB",18-03-2024 02:00:00,28.5447608,77.3231257,PM2.5,38,190,85
India,Uttar_Pradesh,Noida,"Sector - 125, Noida - UPPCB",18-03-2024 02:00:00,28.5447608,77.3231257,NH3,17,29,23
India,Uttar_Pradesh,Noida,"Sector - 125, Noida - UPPCB",18-03-2024 02:00:00,28.5447608,77.3231257,CO,32,84,63
India,Uttar_Pradesh,Noida,"Sector-1, Noida - UPPCB",18-03-2024 02:00:00,28.5898,77.3101,PM10,110,201,164
India,Uttar_Pradesh,Noida,"Sector-1, Noida - UPPCB",18-03-2024 02:00:00,28.5898,77.3101,OZONE,1,198,38
India,Uttar_Pradesh,Noida,"Sector-116, Noida - UPPCB",18-03-2024 02:00:00,28.569230,77.393848,PM2.5,72,314,148
India,Uttar_Pradesh,Noida,"Sector-116, Noida - UPPCB",18-03-2024 02:00:00,28.569230,77.393848,PM10,127,195,154
India,Uttar_Pradesh,Prayagraj,"Jhunsi, Prayagraj - UPPCB",18-03-2024 02:00:00,25.425602,81.917152,PM2.5,23,73,46
India,Uttar_Pradesh,Prayagraj,"Jhunsi, Prayagraj - UPPCB",18-03-2024 02:00:00,25.425602,81.917152,NO2,6,6,6
India,Uttar_Pradesh,Prayagraj,"Jhunsi, Prayagraj - UPPCB",18-03-2024 02:00:00,25.425602,81.917152,NH3,5,5,5
India,Uttar_Pradesh,Prayagraj,"Motilal Nehru NIT, Prayagraj - UPPCB",18-03-2024 02:00:00,25.494,81.863,PM2.5,21,60,43
India,Uttar_Pradesh,Prayagraj,"Motilal Nehru NIT, Prayagraj - UPPCB",18-03-2024 02:00:00,25.494,81.863,PM10,36,145,83
India,Uttar_Pradesh,Prayagraj,"Nagar Nigam, Prayagraj - UPPCB",18-03-2024 02:00:00,25.44919916 ,81.82735986 ,PM10,66,195,106
India,Uttar_Pradesh,Prayagraj,"Nagar Nigam, Prayagraj - UPPCB",18-03-2024 02:00:00,25.44919916 ,81.82735986 ,NH3,4,9,7
India,Uttar_Pradesh,Varanasi,"Ardhali Bazar, Varanasi - UPPCB",18-03-2024 02:00:00,25.3505986,82.9083074,SO2,4,25,10
India,Uttar_Pradesh,Varanasi,"Ardhali Bazar, Varanasi - UPPCB",18-03-2024 02:00:00,25.3505986,82.9083074,CO,2,35,19
India,Uttar_Pradesh,Varanasi,"Bhelupur, Varanasi - UPPCB",18-03-2024 02:00:00,25.301778,82.996789,NO2,8,8,8
India,Uttar_Pradesh,Varanasi,"IESD Banaras Hindu University, Varanasi - UPPCB",18-03-2024 02:00:00,25.262326,82.995408,SO2,16,17,17
India,Uttar_Pradesh,Varanasi,"IESD Banaras Hindu University, Varanasi - UPPCB",18-03-2024 02:00:00,25.262326,82.995408,CO,18,42,30
India,Uttar_Pradesh,Varanasi,"Maldahiya, Varanasi - UPPCB",18-03-2024 02:00:00,25.32393,82.99687,CO,4,90,39
India,Uttar_Pradesh,Vrindavan,"Omex Eternity, Vrindavan - UPPCB",18-03-2024 02:00:00,27.5714090,77.6557570,PM10,46,407,147
India,Uttarakhand,Kashipur,"Govt. Girls Inter College, Kashipur - UKPCB",18-03-2024 02:00:00,29.2124114,78.9611753,PM2.5,12,194,98
India,Uttarakhand,Kashipur,"Govt. Girls Inter College, Kashipur - UKPCB",18-03-2024 02:00:00,29.2124114,78.9611753,CO,11,86,49
India,Uttarakhand,Kashipur,"Govt. Girls Inter College, Kashipur - UKPCB",18-03-2024 02:00:00,29.2124114,78.9611753,OZONE,5,56,23
India,West_Bengal,Durgapur,"Sidhu Kanhu Indoor Stadium, Durgapur - WBPCB",18-03-2024 02:00:00,23.5404352,87.2892225,NH3,3,4,3
India,West_Bengal,Haldia,"Priyambada Housing Estate, Haldia - WBPCB",18-03-2024 02:00:00,22.06047,88.109737,PM10,52,135,87
India,West_Bengal,Haldia,"Priyambada Housing Estate, Haldia - WBPCB",18-03-2024 02:00:00,22.06047,88.109737,NH3,3,4,4
India,West_Bengal,Howrah,"Ghusuri, Howrah - WBPCB",18-03-2024 02:00:00,22.611968,88.347422,OZONE,13,30,19
India,West_Bengal,Howrah,"Padmapukur, Howrah - WBPCB",18-03-2024 02:00:00,22.5687319,88.2797276,SO2,11,37,20
India,West_Bengal,Kolkata,"Ballygunge, Kolkata - WBPCB",18-03-2024 02:00:00,22.5367507,88.3638022,NH3,7,17,11
India,West_Bengal,Kolkata,"Ballygunge, Kolkata - WBPCB",18-03-2024 02:00:00,22.5367507,88.3638022,SO2,8,23,13
India,West_Bengal,Kolkata,"Ballygunge, Kolkata - WBPCB",18-03-2024 02:00:00,22.5367507,88.3638022,OZONE,17,82,32
India,West_Bengal,Kolkata,"Fort William, Kolkata - WBPCB",18-03-2024 02:00:00,22.556640,88.342674,NO2,18,84,44
India,West_Bengal,Kolkata,"Fort William, Kolkata - WBPCB",18-03-2024 02:00:00,22.556640,88.342674,SO2,10,26,16
India,West_Bengal,Kolkata,"Fort William, Kolkata - WBPCB",18-03-2024 02:00:00,22.556640,88.342674,CO,20,44,36
India,West_Bengal,Kolkata,"Jadavpur, Kolkata - WBPCB",18-03-2024 02:00:00,22.49929,88.36917,NO2,1,13,3
India,West_Bengal,Kolkata,"Jadavpur, Kolkata - WBPCB",18-03-2024 02:00:00,22.49929,88.36917,NH3,6,6,6
India,West_Bengal,Kolkata,"Jadavpur, Kolkata - WBPCB",18-03-2024 02:00:00,22.49929,88.36917,OZONE,16,99,32
India,West_Bengal,Kolkata,"Rabindra Bharati University, Kolkata - WBPCB",18-03-2024 02:00:00,22.627847,88.380669,CO,28,64,47
India,West_Bengal,Kolkata,"Rabindra Sarobar, Kolkata - WBPCB",18-03-2024 02:00:00,22.51106,88.35142,PM2.5,36,76,60
India,West_Bengal,Kolkata,"Rabindra Sarobar, Kolkata - WBPCB",18-03-2024 02:00:00,22.51106,88.35142,NO2,29,100,57
India,West_Bengal,Kolkata,"Rabindra Sarobar, Kolkata - WBPCB",18-03-2024 02:00:00,22.51106,88.35142,NH3,4,7,5
India,Andhra_Pradesh,Amaravati,"Secretariat, Amaravati - APPCB",18-03-2024 02:00:00,16.5150833,80.5181667,NH3,4,5,5
India,Andhra_Pradesh,Amaravati,"Secretariat, Amaravati - APPCB",18-03-2024 02:00:00,16.5150833,80.5181667,SO2,14,19,17
India,Andhra_Pradesh,Chittoor,"Gangineni Cheruvu, Chittoor - APPCB",18-03-2024 02:00:00,13.204880,79.097889,PM10,27,65,42
India,Andhra_Pradesh,Chittoor,"Gangineni Cheruvu, Chittoor - APPCB",18-03-2024 02:00:00,13.204880,79.097889,SO2,5,20,13
India,Andhra_Pradesh,Kadapa,"Yerramukkapalli, Kadapa - APPCB",18-03-2024 02:00:00,14.465052,78.824187,PM10,21,76,40
India,Andhra_Pradesh,Tirupati,"Tirumala, Tirupati - APPCB",18-03-2024 02:00:00,13.67,79.35,NH3,1,1,1
India,Andhra_Pradesh,Tirupati,"Vaikuntapuram, Tirupati - APPCB",18-03-2024 02:00:00,13.615387,79.409230,CO,8,16,13
India,Andhra_Pradesh,Vijayawada,"Kanuru, Vijayawada - APPCB",18-03-2024 02:00:00,16.486692,80.699436,PM2.5,50,64,56
India,Andhra_Pradesh,Vijayawada,"Kanuru, Vijayawada - APPCB",18-03-2024 02:00:00,16.486692,80.699436,NO2,14,19,15
India,Andhra_Pradesh,Vijayawada,"Rajiv Gandhi Park, Vijayawada - APPCB",18-03-2024 02:00:00,16.509717,80.612222,CO,38,44,44
India,Andhra_Pradesh,Vijayawada,"Rajiv Nagar, Vijayawada - APPCB",18-03-2024 02:00:00,16.554731,80.649110,NH3,1,2,1
India,Andhra_Pradesh,Vijayawada,"Rajiv Nagar, Vijayawada - APPCB",18-03-2024 02:00:00,16.554731,80.649110,SO2,13,21,16
India,Andhra_Pradesh,Visakhapatnam,"GVM Corporation, Visakhapatnam - APPCB",18-03-2024 02:00:00,17.72,83.3,PM2.5,18,58,39
India,Andhra_Pradesh,Visakhapatnam,"GVM Corporation, Visakhapatnam - APPCB",18-03-2024 02:00:00,17.72,83.3,SO2,10,20,14
India,Arunachal_Pradesh,Naharlagun,"Naharlagun, Naharlagun - APSPCB",18-03-2024 02:00:00,27.103358,93.679645,OZONE,2,2,2
India,Assam,Byrnihat,"Central Academy for SFS, Byrnihat - PCBA",18-03-2024 02:00:00,26.071318,91.87488,PM2.5,90,500,321
India,Assam,Byrnihat,"Central Academy for SFS, Byrnihat - PCBA",18-03-2024 02:00:00,26.071318,91.87488,NH3,5,8,7
India,Assam,Guwahati,"IITG, Guwahati - PCBA",18-03-2024 02:00:00,26.2028636,91.70046436,PM10,113,415,222
India,Assam,Guwahati,"IITG, Guwahati - PCBA",18-03-2024 02:00:00,26.2028636,91.70046436,CO,10,30,21
India,Assam,Guwahati,"IITG, Guwahati - PCBA",18-03-2024 02:00:00,26.2028636,91.70046436,OZONE,1,44,9
India,Assam,Guwahati,"LGBI Airport, Guwahati - PCBA",18-03-2024 02:00:00,26.10887,91.589544,PM2.5,127,337,252
India,Assam,Guwahati,"LGBI Airport, Guwahati - PCBA",18-03-2024 02:00:00,26.10887,91.589544,OZONE,1,78,20
India,Assam,Guwahati,"Pan Bazaar, Guwahati - PCBA",18-03-2024 02:00:00,26.187500,91.744194,NH3,6,8,7
India,Assam,Guwahati,"Pan Bazaar, Guwahati - PCBA",18-03-2024 02:00:00,26.187500,91.744194,SO2,81,109,97
India,Assam,Guwahati,"Railway Colony, Guwahati - PCBA",18-03-2024 02:00:00,26.181742,91.78063,CO,27,115,91
India,Assam,Nagaon,"Christianpatty, Nagaon - PCBA",18-03-2024 02:00:00,26.349082,92.68449,PM2.5,35,130,76
India,Assam,Nagaon,"Christianpatty, Nagaon - PCBA",18-03-2024 02:00:00,26.349082,92.68449,SO2,2,20,12
India,Assam,Nalbari,"Bata Chowk, Nalbari - PCBA",18-03-2024 02:00:00,26.446912,91.439057,PM2.5,90,260,185
India,Assam,Nalbari,"Bata Chowk, Nalbari - PCBA",18-03-2024 02:00:00,26.446912,91.439057,OZONE,23,154,79
India,Assam,Silchar,"Tarapur, Silchar - PCBA",18-03-2024 02:00:00,24.82827,92.79525,OZONE,3,3,3
India,Assam,Sivasagar,"Girls College, Sivasagar - PCBA",18-03-2024 02:00:00,26.987634,94.636574,NH3,2,2,2
India,Bihar,Araria,"Kharahiya Basti, Araria - BSPCB",18-03-2024 02:00:00,26.146529,87.454184,CO,15,31,20
India,Bihar,Arrah,"New DM Office, Arrah - BSPCB",18-03-2024 02:00:00,25.5626095,84.663264,PM2.5,NA,NA,NA
India,Bihar,Arrah,"New DM Office, Arrah - BSPCB",18-03-2024 02:00:00,25.5626095,84.663264,NO2,NA,NA,NA
India,Bihar,Arrah,"New DM Office, Arrah - BSPCB",18-03-2024 02:00:00,25.5626095,84.663264,OZONE,NA,NA,NA
India,Bihar,Aurangabad,"Gurdeo Nagar, Aurangabad - BSPCB",18-03-2024 02:00:00,24.75746,84.366208,PM10,68,177,107
India,Bihar,Aurangabad,"Gurdeo Nagar, Aurangabad - BSPCB",18-03-2024 02:00:00,24.75746,84.366208,NO2,4,5,5
India,Bihar,Bettiah,"Kamalnath Nagar, Bettiah - BSPCB",18-03-2024 02:00:00,26.80365,84.51954,NO2,34,204,57
India,Bihar,Bettiah,"Kamalnath Nagar, Bettiah - BSPCB",18-03-2024 02:00:00,26.80365,84.51954,NH3,3,6,3
India,Bihar,Bettiah,"Kamalnath Nagar, Bettiah - BSPCB",18-03-2024 02:00:00,26.80365,84.51954,SO2,9,22,16
India,Bihar,Bhagalpur,"DM Office_Kachari Chowk, Bhagalpur - BSPCB",18-03-2024 02:00:00,25.251013,86.989001,SO2,NA,NA,NA
India,Bihar,Bhagalpur,"Mayaganj, Bhagalpur - BSPCB",18-03-2024 02:00:00,25.265194,87.012947,NH3,5,8,6
India,Bihar,Bihar Sharif,"D M Colony, Bihar Sharif - BSPCB",18-03-2024 02:00:00,25.204762,85.514960,OZONE,4,4,4
India,Bihar,Buxar,"Charitra Van, Buxar - BSPCB (Formerly known as Central Jail)",18-03-2024 02:00:00,25.567520,83.966379,NH3,3,3,3
India,Bihar,Chhapra,"Darshan Nagar, Chhapra - BSPCB",18-03-2024 02:00:00,25.7808257,84.7446768,PM10,84,216,141
India,Bihar,Gaya,"Collectorate, Gaya - BSPCB",18-03-2024 02:00:00,24.7955,84.9994,NO2,1,4,2
India,Bihar,Gaya,"Collectorate, Gaya - BSPCB",18-03-2024 02:00:00,24.7955,84.9994,SO2,7,18,12
India,Bihar,Gaya,"Kareemganj, Gaya - BSPCB",18-03-2024 02:00:00,24.792403,84.992416,PM10,75,175,118
India,Bihar,Gaya,"Kareemganj, Gaya - BSPCB",18-03-2024 02:00:00,24.792403,84.992416,NO2,30,31,31
India,Bihar,Gaya,"Kareemganj, Gaya - BSPCB",18-03-2024 02:00:00,24.792403,84.992416,SO2,9,12,10
India,Bihar,Gaya,"Kareemganj, Gaya - BSPCB",18-03-2024 02:00:00,24.792403,84.992416,CO,12,102,53
India,Bihar,Gaya,"SFTI Kusdihra, Gaya - BSPCB",18-03-2024 02:00:00,24.762518,84.982348,PM2.5,61,197,124
India,Bihar,Hajipur,"Industrial Area, Hajipur - BSPCB",18-03-2024 02:00:00,25.697189,85.245900,PM2.5,50,169,109
India,Bihar,Hajipur,"Industrial Area, Hajipur - BSPCB",18-03-2024 02:00:00,25.697189,85.245900,NO2,43,69,53
India,Bihar,Katihar,"Mirchaibari, Katihar - BSPCB",18-03-2024 02:00:00,25.560083,87.553265,NH3,7,11,9
India,Bihar,Katihar,"Mirchaibari, Katihar - BSPCB",18-03-2024 02:00:00,25.560083,87.553265,CO,3,60,43
India,Bihar,Kishanganj,"SDM Office_Khagra, Kishanganj - BSPCB",18-03-2024 02:00:00,26.0881305,87.93840336,CO,4,15,10
India,Bihar,Manguraha,"Forest Rest House, Manguraha - BSPCB",18-03-2024 02:00:00,27.308328,84.531742,PM2.5,22,87,38
India,Bihar,Manguraha,"Forest Rest House, Manguraha - BSPCB",18-03-2024 02:00:00,27.308328,84.531742,PM10,21,120,72
India,Bihar,Munger,"Town Hall, Munger - BSPCB",18-03-2024 02:00:00,25.376776,86.471523,PM2.5,92,500,239
India,Bihar,Munger,"Town Hall, Munger - BSPCB",18-03-2024 02:00:00,25.376776,86.471523,NH3,1,2,2
India,Bihar,Munger,"Town Hall, Munger - BSPCB",18-03-2024 02:00:00,25.376776,86.471523,OZONE,10,17,11
India,Bihar,Muzaffarpur,"MIT-Daudpur Kothi, Muzaffarpur - BSPCB",18-03-2024 02:00:00,26.1403345,85.3650192,PM2.5,NA,NA,NA
India,Bihar,Muzaffarpur,"MIT-Daudpur Kothi, Muzaffarpur - BSPCB",18-03-2024 02:00:00,26.1403345,85.3650192,NH3,1,10,4
India,Bihar,Muzaffarpur,"Muzaffarpur Collectorate, Muzaffarpur - BSPCB",18-03-2024 02:00:00,26.1209,85.3647,PM2.5,47,290,169
India,Bihar,Patna,"DRM Office Danapur, Patna - BSPCB",18-03-2024 02:00:00,25.586562,85.043586,PM10,113,319,207
India,Bihar,Patna,"DRM Office Danapur, Patna - BSPCB",18-03-2024 02:00:00,25.586562,85.043586,NH3,2,3,3
India,Bihar,Patna,"DRM Office Danapur, Patna - BSPCB",18-03-2024 02:00:00,25.586562,85.043586,SO2,7,10,9
India,Bihar,Patna,"DRM Office Danapur, Patna - BSPCB",18-03-2024 02:00:00,25.586562,85.043586,CO,16,122,88
India,Bihar,Patna,"Govt. High School Shikarpur, Patna - BSPCB",18-03-2024 02:00:00,25.592539,85.227158,PM2.5,88,202,152
India,Bihar,Patna,"Govt. High School Shikarpur, Patna - BSPCB",18-03-2024 02:00:00,25.592539,85.227158,NO2,19,25,22
India,Bihar,Patna,"Govt. High School Shikarpur, Patna - BSPCB",18-03-2024 02:00:00,25.592539,85.227158,CO,23,80,57
India,Bihar,Patna,"Muradpur, Patna - BSPCB",18-03-2024 02:00:00,25.619651,85.147382,NO2,8,18,14
India,Bihar,Patna,"Muradpur, Patna - BSPCB",18-03-2024 02:00:00,25.619651,85.147382,NH3,2,4,3
India,Bihar,Patna,"Muradpur, Patna - BSPCB",18-03-2024 02:00:00,25.619651,85.147382,OZONE,1,33,6
India,Bihar,Patna,"Rajbansi Nagar, Patna - BSPCB",18-03-2024 02:00:00,25.599486,85.113666,PM2.5,76,249,140
India,Bihar,Patna,"Rajbansi Nagar, Patna - BSPCB",18-03-2024 02:00:00,25.599486,85.113666,NH3,3,4,4
India,Bihar,Patna,"Samanpura, Patna - BSPCB",18-03-2024 02:00:00,25.596727,85.085624,PM10,134,500,303
India,Bihar,Purnia,"Mariam Nagar, Purnia - BSPCB",18-03-2024 02:00:00,25.366336,87.117468,CO,18,86,70
India,Bihar,Rajgir,"Dangi Tola, Rajgir - BSPCB",18-03-2024 02:00:00,25.03280,85.41948,PM2.5,33,187,74
India,Bihar,Rajgir,"Dangi Tola, Rajgir - BSPCB",18-03-2024 02:00:00,25.03280,85.41948,PM10,36,140,79
India,Bihar,Rajgir,"Dangi Tola, Rajgir - BSPCB",18-03-2024 02:00:00,25.03280,85.41948,OZONE,21,24,23
India,Bihar,Saharsa,"Police Line, Saharsa - BSPCB",18-03-2024 02:00:00,25.892357,86.590325,NH3,8,9,9
India,Bihar,Sasaram,"Dada Peer, Sasaram - BSPCB",18-03-2024 02:00:00,24.952822,84.002396,PM2.5,15,103,43
India,Bihar,Sasaram,"Dada Peer, Sasaram - BSPCB",18-03-2024 02:00:00,24.952822,84.002396,PM10,54,129,81
India,Bihar,Sasaram,"Dada Peer, Sasaram - BSPCB",18-03-2024 02:00:00,24.952822,84.002396,NH3,8,16,10
India,Bihar,Sasaram,"Dada Peer, Sasaram - BSPCB",18-03-2024 02:00:00,24.952822,84.002396,SO2,19,28,23
India,Bihar,Siwan,"Chitragupta Nagar, Siwan - BSPCB",18-03-2024 02:00:00,26.2271665,84.3570427,SO2,1,36,31
India,Chandigarh,Chandigarh,"Sector-25, Chandigarh - CPCC",18-03-2024 02:00:00,30.751462,76.762879,CO,16,46,31
India,Chandigarh,Chandigarh,"Sector-53, Chandigarh - CPCC",18-03-2024 02:00:00,30.719859,76.738637,SO2,8,16,11
India,Chhattisgarh,Bhilai,"32Bungalows, Bhilai - CECB",18-03-2024 02:00:00,21.194815,81.314770,PM10,37,79,56
India,Chhattisgarh,Bhilai,"Hathkhoj, Bhilai - CECB",18-03-2024 02:00:00,21.224231,81.408350,NH3,8,8,8
India,Chhattisgarh,Bilaspur,"Mangala, Bilaspur - NTPC",18-03-2024 02:00:00,22.08815,82.13737,NO2,NA,NA,NA
India,Chhattisgarh,Bilaspur,"Mangala, Bilaspur - NTPC",18-03-2024 02:00:00,22.08815,82.13737,SO2,NA,NA,NA
India,Chhattisgarh,Chhal,"Nawapara SECL Colony, Chhal - CECB",18-03-2024 02:00:00,22.118125,83.140608,PM10,47,122,75
India,Chhattisgarh,Chhal,"Nawapara SECL Colony, Chhal - CECB",18-03-2024 02:00:00,22.118125,83.140608,SO2,10,21,14
India,Chhattisgarh,Chhal,"Nawapara SECL Colony, Chhal - CECB",18-03-2024 02:00:00,22.118125,83.140608,CO,24,56,43
India,Chhattisgarh,Korba,"Rampur, Korba - CECB",18-03-2024 02:00:00,22.368195,82.746431,SO2,6,12,9
India,Chhattisgarh,Korba,"Rampur, Korba - CECB",18-03-2024 02:00:00,22.368195,82.746431,OZONE,3,10,5
India,Chhattisgarh,Korba,"Urja Nagar, Korba - CECB",18-03-2024 02:00:00,22.348441,82.549611,NO2,70,84,77
India,Chhattisgarh,Korba,"Urja Nagar, Korba - CECB",18-03-2024 02:00:00,22.348441,82.549611,CO,31,41,34
India,Chhattisgarh,Raipur,"AIIMS, Raipur - CECB",18-03-2024 02:00:00,21.258815,81.578979,SO2,NA,NA,NA
India,Chhattisgarh,Raipur,"Bhatagaon New ISBT, Raipur - CECB",18-03-2024 02:00:00,21.219665,81.630094,NO2,57,77,68
India,Chhattisgarh,Raipur,"Bhatagaon New ISBT, Raipur - CECB",18-03-2024 02:00:00,21.219665,81.630094,NH3,3,3,3
India,Chhattisgarh,Raipur,"Bhatagaon New ISBT, Raipur - CECB",18-03-2024 02:00:00,21.219665,81.630094,OZONE,3,6,5
India,Chhattisgarh,Raipur,"Krishak Nagar, Raipur - CECB",18-03-2024 02:00:00,21.237755,81.705301,NO2,21,38,29
India,Chhattisgarh,Raipur,"Krishak Nagar, Raipur - CECB",18-03-2024 02:00:00,21.237755,81.705301,CO,26,38,29
India,Chhattisgarh,Raipur,"Siltara Phase-II, Raipur - CECB",18-03-2024 02:00:00,21.371751,81.664929,NO2,49,71,57
India,Chhattisgarh,Tumidih,"OP Jindal Industrial Park, Tumidih - CECB",18-03-2024 02:00:00,22.06631475,83.33820077,NH3,NA,NA,NA
India,Delhi,Delhi,"Alipur, Delhi - DPCC",18-03-2024 02:00:00,28.815329,77.153010,SO2,10,42,23
India,Delhi,Delhi,"Alipur, Delhi - DPCC",18-03-2024 02:00:00,28.815329,77.153010,CO,36,74,55
India,Delhi,Delhi,"Ashok Vihar, Delhi - DPCC",18-03-2024 02:00:00,28.695381,77.181665,PM10,138,224,184
India,Delhi,Delhi,"Ashok Vihar, Delhi - DPCC",18-03-2024 02:00:00,28.695381,77.181665,CO,15,76,55
India,Delhi,Delhi,"Aya Nagar, Delhi - IMD",18-03-2024 02:00:00,28.4706914,77.1099364,PM2.5,66,348,198
India,Delhi,Delhi,"Aya Nagar, Delhi - IMD",18-03-2024 02:00:00,28.4706914,77.1099364,NO2,19,33,24
India,Delhi,Delhi,"Bawana, Delhi - DPCC",18-03-2024 02:00:00,28.776200,77.051074,CO,12,55,40
India,Delhi,Delhi,"Burari Crossing, Delhi - IMD",18-03-2024 02:00:00,28.7256504,77.2011573,CO,47,67,53
India,Delhi,Delhi,"CRRI Mathura Road, Delhi - IMD",18-03-2024 02:00:00,28.5512005,77.2735737,PM10,92,271,142
India,Delhi,Delhi,"CRRI Mathura Road, Delhi - IMD",18-03-2024 02:00:00,28.5512005,77.2735737,CO,34,112,81
India,Delhi,Delhi,"DTU, Delhi - CPCB",18-03-2024 02:00:00,28.7500499,77.1112615,CO,18,48,32
India,Delhi,Delhi,"Dr. Karni Singh Shooting Range, Delhi - DPCC",18-03-2024 02:00:00,28.498571,77.264840,PM10,118,214,160
India,Delhi,Delhi,"Dwarka-Sector 8, Delhi - DPCC ",18-03-2024 02:00:00,28.5710274,77.0719006,CO,42,117,90
India,Delhi,Delhi,"IGI Airport (T3), Delhi - IMD",18-03-2024 02:00:00,28.5627763,77.1180053,PM10,76,232,143
India,Delhi,Delhi,"IGI Airport (T3), Delhi - IMD",18-03-2024 02:00:00,28.5627763,77.1180053,OZONE,5,49,11
India,Delhi,Delhi,"IHBAS, Dilshad Garden, Delhi - CPCB",18-03-2024 02:00:00,28.6811736,77.3025234,NH3,4,7,6
India,Delhi,Delhi,"IHBAS, Dilshad Garden, Delhi - CPCB",18-03-2024 02:00:00,28.6811736,77.3025234,OZONE,10,35,20
India,Delhi,Delhi,"Jahangirpuri, Delhi - DPCC",18-03-2024 02:00:00,28.732820,77.170633,NO2,22,205,107
India,Delhi,Delhi,"Jawaharlal Nehru Stadium, Delhi - DPCC",18-03-2024 02:00:00,28.580280,77.233829,PM2.5,45,304,146
India,Delhi,Delhi,"Lodhi Road, Delhi - IMD",18-03-2024 02:00:00,28.5918245,77.2273074,CO,24,42,30
India,Delhi,Delhi,"Lodhi Road, Delhi - IMD",18-03-2024 02:00:00,28.5918245,77.2273074,OZONE,6,105,20
India,Delhi,Delhi,"Major Dhyan Chand National Stadium, Delhi - DPCC",18-03-2024 02:00:00,28.611281,77.237738,PM2.5,60,332,170
India,Delhi,Delhi,"Mandir Marg, Delhi - DPCC",18-03-2024 02:00:00,28.636429,77.201067,PM2.5,42,291,143
India,Delhi,Delhi,"Mandir Marg, Delhi - DPCC",18-03-2024 02:00:00,28.636429,77.201067,PM10,78,149,117
India,Delhi,Delhi,"Mundka, Delhi - DPCC",18-03-2024 02:00:00,28.684678,77.076574,SO2,16,98,35
India,Delhi,Delhi,"NSIT Dwarka, Delhi - CPCB",18-03-2024 02:00:00,28.60909,77.0325413,SO2,3,25,14
India,Delhi,Delhi,"NSIT Dwarka, Delhi - CPCB",18-03-2024 02:00:00,28.60909,77.0325413,CO,28,99,59
India,Delhi,Delhi,"Najafgarh, Delhi - DPCC",18-03-2024 02:00:00,28.570173,76.933762,PM2.5,30,342,173
India,Delhi,Delhi,"New Moti Bagh, Delhi - MHUA",18-03-2024 02:00:00,28.57834,77.18400,PM2.5,39,331,191
India,Delhi,Delhi,"New Moti Bagh, Delhi - MHUA",18-03-2024 02:00:00,28.57834,77.18400,NO2,1,6,3
India,Delhi,Delhi,"North Campus, DU, Delhi - IMD",18-03-2024 02:00:00,28.6573814,77.1585447,NO2,10,49,27
India,Delhi,Delhi,"North Campus, DU, Delhi - IMD",18-03-2024 02:00:00,28.6573814,77.1585447,CO,8,94,52
India,Delhi,Delhi,"Okhla Phase-2, Delhi - DPCC",18-03-2024 02:00:00,28.530785,77.271255,NH3,7,10,9
India,Delhi,Delhi,"Patparganj, Delhi - DPCC",18-03-2024 02:00:00,28.623763,77.287209,NO2,34,71,55
India,Delhi,Delhi,"Pusa, Delhi - DPCC",18-03-2024 02:00:00,28.639652,77.146275,PM2.5,NA,NA,NA
India,Delhi,Delhi,"Pusa, Delhi - DPCC",18-03-2024 02:00:00,28.639652,77.146275,NH3,NA,NA,NA
India,Delhi,Delhi,"R K Puram, Delhi - DPCC",18-03-2024 02:00:00,28.563262,77.186937,NH3,2,3,3
India,Delhi,Delhi,"Rohini, Delhi - DPCC",18-03-2024 02:00:00,28.732528,77.119920,SO2,12,103,38
India,Delhi,Delhi,"Shadipur, Delhi - CPCB",18-03-2024 02:00:00,28.6514781,77.1473105,SO2,13,33,22
India,Delhi,Delhi,"Sirifort, Delhi - CPCB",18-03-2024 02:00:00,28.5504249,77.2159377,SO2,40,49,43
India,Delhi,Delhi,"Sirifort, Delhi - CPCB",18-03-2024 02:00:00,28.5504249,77.2159377,OZONE,4,99,13
India,Delhi,Delhi,"Sonia Vihar, Delhi - DPCC",18-03-2024 02:00:00,28.710508,77.249485,SO2,10,36,20
India,Delhi,Delhi,"Sri Aurobindo Marg, Delhi - DPCC",18-03-2024 02:00:00,28.531346,77.190156,CO,13,48,33
India,Delhi,Delhi,"Sri Aurobindo Marg, Delhi - DPCC",18-03-2024 02:00:00,28.531346,77.190156,OZONE,1,53,9
India,Delhi,Delhi,"Vivek Vihar, Delhi - DPCC",18-03-2024 02:00:00,28.672342,77.315260,CO,12,54,38
India,Delhi,Delhi,"Wazirpur, Delhi - DPCC",18-03-2024 02:00:00,28.699793,77.165453,PM2.5,54,375,221
India,Delhi,Delhi,"Wazirpur, Delhi - DPCC",18-03-2024 02:00:00,28.699793,77.165453,PM10,108,269,191
India,Delhi,Delhi,"Wazirpur, Delhi - DPCC",18-03-2024 02:00:00,28.699793,77.165453,NH3,8,10,9
India,Gujarat,Ahmedabad,"Chandkheda, Ahmedabad - IITM",18-03-2024 02:00:00,23.107969,72.574648,PM10,81,176,123
India,Gujarat,Ahmedabad,"Chandkheda, Ahmedabad - IITM",18-03-2024 02:00:00,23.107969,72.574648,NH3,15,15,15
India,Gujarat,Ahmedabad,"Chandkheda, Ahmedabad - IITM",18-03-2024 02:00:00,23.107969,72.574648,CO,8,52,30
India,Gujarat,Ahmedabad,"Raikhad, Ahmedabad - IITM",18-03-2024 02:00:00,23.020509,72.579261,PM2.5,150,371,279
India,Gujarat,Ahmedabad,"Rakhial, Ahmedabad - IITM",18-03-2024 02:00:00,23.016834,72.625775,NO2,15,79,30
India,Gujarat,Ahmedabad,"Rakhial, Ahmedabad - IITM",18-03-2024 02:00:00,23.016834,72.625775,OZONE,9,60,28
India,Gujarat,Ahmedabad,"SVPI Airport Hansol, Ahmedabad - IITM",18-03-2024 02:00:00,23.076793,72.627874,NO2,15,18,16
India,Gujarat,Ahmedabad,"SVPI Airport Hansol, Ahmedabad - IITM",18-03-2024 02:00:00,23.076793,72.627874,CO,20,52,35
India,Gujarat,Ahmedabad,"Sardar Vallabhbhai Patel Stadium, Ahmedabad - IITM",18-03-2024 02:00:00,23.043070,72.562968,PM2.5,76,220,118
India,Gujarat,Ahmedabad,"Sardar Vallabhbhai Patel Stadium, Ahmedabad - IITM",18-03-2024 02:00:00,23.043070,72.562968,NO2,7,17,16
India,Gujarat,Ankleshwar,"GIDC, Ankleshwar - GPCB",18-03-2024 02:00:00,21.613267,73.010555,CO,51,106,96
India,Gujarat,Gandhinagar,"IIPHG Lekawada, Gandhinagar - IITM",18-03-2024 02:00:00,23.243639,72.68994,NH3,6,7,7
India,Gujarat,Gandhinagar,"IIPHG Lekawada, Gandhinagar - IITM",18-03-2024 02:00:00,23.243639,72.68994,SO2,2,11,6
India,Gujarat,Gandhinagar,"Sector-10, Gandhinagar - GPCB",18-03-2024 02:00:00,23.221714,72.654328,PM10,57,102,74
India,Gujarat,Surat,"Science Center, Surat - SMC",18-03-2024 02:00:00,21.170046,72.795405,PM10,22,80,45
India,Gujarat,Vatva,"Phase-4 GIDC, Vatva - GPCB",18-03-2024 02:00:00,22.969611,72.643500,NH3,4,8,5
India,Haryana,Ambala,"Patti Mehar, Ambala - HSPCB",18-03-2024 02:00:00,30.379589,76.778328,NH3,5,12,8
India,Haryana,Bahadurgarh,"Arya Nagar, Bahadurgarh - HSPCB",18-03-2024 02:00:00,28.6701,76.9254,PM2.5,NA,NA,NA
India,Haryana,Bahadurgarh,"Arya Nagar, Bahadurgarh - HSPCB",18-03-2024 02:00:00,28.6701,76.9254,NH3,11,12,11
India,Haryana,Bhiwani,"H.B. Colony, Bhiwani - HSPCB",18-03-2024 02:00:00,28.806223,76.141105,NH3,5,6,6
India,Haryana,Charkhi Dadri,"Mini Secretariat, Charkhi Dadri - HSPCB",18-03-2024 02:00:00,28.593883,76.270653,PM2.5,50,252,132
India,Haryana,Charkhi Dadri,"Mini Secretariat, Charkhi Dadri - HSPCB",18-03-2024 02:00:00,28.593883,76.270653,SO2,24,71,41
India,Haryana,Dharuhera,"Municipal Corporation Office, Dharuhera -  HSPCB",18-03-2024 02:00:00,28.206800,76.799700,PM10,114,301,203
India,Haryana,Faridabad,"New Industrial Town, Faridabad - HSPCB",18-03-2024 02:00:00,28.39072,77.30059,PM2.5,253,342,301
India,Haryana,Faridabad,"New Industrial Town, Faridabad - HSPCB",18-03-2024 02:00:00,28.39072,77.30059,NO2,17,21,19
India,Haryana,Faridabad,"New Industrial Town, Faridabad - HSPCB",18-03-2024 02:00:00,28.39072,77.30059,CO,13,34,23
India,Haryana,Faridabad,"Sector 11, Faridabad - HSPCB",18-03-2024 02:00:00,28.376058,77.315741,SO2,5,117,18
India,Haryana,Faridabad,"Sector 11, Faridabad - HSPCB",18-03-2024 02:00:00,28.376058,77.315741,CO,26,50,40
India,Haryana,Faridabad,"Sector 30, Faridabad - HSPCB",18-03-2024 02:00:00,28.4417,77.3217,SO2,2,8,5
India,Haryana,Fatehabad,"Huda Sector, Fatehabad - HSPCB",18-03-2024 02:00:00,29.503664,75.467934,PM10,65,122,96
India,Haryana,Fatehabad,"Huda Sector, Fatehabad - HSPCB",18-03-2024 02:00:00,29.503664,75.467934,SO2,3,23,9
India,Haryana,Gurugram,"Sector-51, Gurugram - HSPCB",18-03-2024 02:00:00,28.4227,77.0667,PM2.5,77,391,207
India,Haryana,Gurugram,"Sector-51, Gurugram - HSPCB",18-03-2024 02:00:00,28.4227,77.0667,OZONE,27,67,51
India,Haryana,Gurugram,"Teri Gram, Gurugram - HSPCB",18-03-2024 02:00:00,28.4275,77.1465,PM10,157,456,272
India,Haryana,Gurugram,"Teri Gram, Gurugram - HSPCB",18-03-2024 02:00:00,28.4275,77.1465,CO,18,40,23
India,Haryana,Gurugram,"Teri Gram, Gurugram - HSPCB",18-03-2024 02:00:00,28.4275,77.1465,OZONE,13,24,22
India,Haryana,Gurugram,"Vikas Sadan, Gurugram - HSPCB",18-03-2024 02:00:00,28.4501238,77.0263051,NO2,5,24,14
India,Haryana,Hisar,"Urban Estate-II, Hisar - HSPCB",18-03-2024 02:00:00,29.140560,75.744941,PM10,66,130,92
India,Haryana,Hisar,"Urban Estate-II, Hisar - HSPCB",18-03-2024 02:00:00,29.140560,75.744941,CO,40,104,46
India,Haryana,Kaithal,"Rishi Nagar, Kaithal - HSPCB",18-03-2024 02:00:00,29.8006,76.4155,PM10,NA,NA,NA
India,Haryana,Kaithal,"Rishi Nagar, Kaithal - HSPCB",18-03-2024 02:00:00,29.8006,76.4155,CO,8,102,55
India,Haryana,Kaithal,"Rishi Nagar, Kaithal - HSPCB",18-03-2024 02:00:00,29.8006,76.4155,OZONE,14,21,19
India,Haryana,Karnal,"Sector-12, Karnal - HSPCB",18-03-2024 02:00:00,29.695300,77.002700,OZONE,30,35,35
India,Haryana,Kurukshetra,"Sector-7, Kurukshetra - HSPCB",18-03-2024 02:00:00,29.966942,76.875879,PM10,65,108,85
India,Haryana,Kurukshetra,"Sector-7, Kurukshetra - HSPCB",18-03-2024 02:00:00,29.966942,76.875879,NO2,10,10,10
India,Haryana,Kurukshetra,"Sector-7, Kurukshetra - HSPCB",18-03-2024 02:00:00,29.966942,76.875879,OZONE,22,72,41
India,Haryana,Mandikhera,"General Hospital, Mandikhera - HSPCB",18-03-2024 02:00:00,27.9002,76.9938,NO2,17,21,19
India,Haryana,Narnaul,"Shastri Nagar, Narnaul - HSPCB",18-03-2024 02:00:00,28.060249,76.113115,PM2.5,26,95,50
India,Haryana,Narnaul,"Shastri Nagar, Narnaul - HSPCB",18-03-2024 02:00:00,28.060249,76.113115,NO2,12,75,35
India,Haryana,Palwal,"Shyam Nagar, Palwal - HSPCB",18-03-2024 02:00:00,28.1485564,77.3320667,NO2,23,25,24
India,Haryana,Palwal,"Shyam Nagar, Palwal - HSPCB",18-03-2024 02:00:00,28.1485564,77.3320667,NH3,8,9,9
India,Haryana,Panipat,"Sector-18, Panipat - HSPCB",18-03-2024 02:00:00,29.497973,76.993331,CO,24,26,25
India,Haryana,Sonipat,"Murthal, Sonipat - HSPCB",18-03-2024 02:00:00,29.027200,77.062100,NH3,3,10,9
India,Haryana,Yamuna Nagar,"Gobind Pura, Yamuna Nagar - HSPCB",18-03-2024 02:00:00,30.1480566,77.2893471,CO,40,67,49
India,Himachal Pradesh,Baddi,"HIMUDA Complex Phase-1, Baddi - HPPCB",18-03-2024 02:00:00,30.943887,76.801991,PM10,83,189,126
India,Himachal Pradesh,Baddi,"HIMUDA Complex Phase-1, Baddi - HPPCB",18-03-2024 02:00:00,30.943887,76.801991,NO2,11,47,27
India,Himachal Pradesh,Baddi,"HIMUDA Complex Phase-1, Baddi - HPPCB",18-03-2024 02:00:00,30.943887,76.801991,SO2,16,110,41
India,Jharkhand,Dhanbad,"Kalakusuma, Dhanbad - DMC",18-03-2024 02:00:00,23.811548,86.481238,OZONE,35,36,36
India,Karnataka,Bagalkot,"Vidayagiri, Bagalkot - KSPCB",18-03-2024 02:00:00,16.172806,75.659694,NO2,9,10,9
India,Karnataka,Bagalkot,"Vidayagiri, Bagalkot - KSPCB",18-03-2024 02:00:00,16.172806,75.659694,NH3,1,2,1
India,Karnataka,Bengaluru,"BTM Layout, Bengaluru - CPCB",18-03-2024 02:00:00,12.9135218,77.5950804,PM2.5,35,83,50
India,Karnataka,Bengaluru,"BTM Layout, Bengaluru - CPCB",18-03-2024 02:00:00,12.9135218,77.5950804,PM10,45,90,65
India,Karnataka,Bengaluru,"BTM Layout, Bengaluru - CPCB",18-03-2024 02:00:00,12.9135218,77.5950804,SO2,10,10,10
India,Karnataka,Bengaluru,"Bapuji Nagar, Bengaluru - KSPCB",18-03-2024 02:00:00,12.951913,77.539784,SO2,NA,NA,NA
India,Karnataka,Bengaluru,"Jigani, Bengaluru - KSPCB",18-03-2024 02:00:00,12.7816279,77.6299145,PM2.5,17,305,123
India,Karnataka,Bengaluru,"Jigani, Bengaluru - KSPCB",18-03-2024 02:00:00,12.7816279,77.6299145,PM10,46,179,93
India,Karnataka,Bengaluru,"Jigani, Bengaluru - KSPCB",18-03-2024 02:00:00,12.7816279,77.6299145,SO2,16,16,16
India,Karnataka,Bengaluru,"Jigani, Bengaluru - KSPCB",18-03-2024 02:00:00,12.7816279,77.6299145,OZONE,18,77,57
India,Karnataka,Bengaluru,"Kasturi Nagar, Bengaluru - KSPCB",18-03-2024 02:00:00,13.003872,77.664217,OZONE,23,115,75
India,Karnataka,Bengaluru,"Peenya, Bengaluru - CPCB",18-03-2024 02:00:00,13.0270199,77.494094,NO2,7,22,14
India,Karnataka,Bengaluru,"Shivapura_Peenya, Bengaluru - KSPCB",18-03-2024 02:00:00,13.0246342,77.5080115,SO2,8,54,23
India,Karnataka,Bengaluru,"Silk Board, Bengaluru - KSPCB",18-03-2024 02:00:00,12.917348,77.622813,NO2,18,23,20
India,Karnataka,Chamarajanagar,"Urban, Chamarajanagar - KSPCB",18-03-2024 02:00:00,11.55358,76.55521,CO,21,93,52
India,Karnataka,Chikkaballapur,"Chikkaballapur Rural, Chikkaballapur - KSPCB",18-03-2024 02:00:00,13.428828,77.731418,PM10,59,94,76
India,Karnataka,Chikkamagaluru,"Kalyana Nagara, Chikkamagaluru - KSPCB",18-03-2024 02:00:00,13.328028,75.797056,PM10,23,258,67
India,Karnataka,Chikkamagaluru,"Kalyana Nagara, Chikkamagaluru - KSPCB",18-03-2024 02:00:00,13.328028,75.797056,OZONE,13,65,25
India,Karnataka,Dharwad,"Kalabhavan, Dharwad - KSPCB",18-03-2024 02:00:00,15.459706,75.008381,PM10,66,182,94
India,Karnataka,Gadag,"Panchal Nagar, Gadag - KSPCB",18-03-2024 02:00:00,15.411456,75.638133,PM10,48,72,61
India,Karnataka,Gadag,"Panchal Nagar, Gadag - KSPCB",18-03-2024 02:00:00,15.411456,75.638133,NO2,5,24,13
India,Karnataka,Gadag,"Panchal Nagar, Gadag - KSPCB",18-03-2024 02:00:00,15.411456,75.638133,OZONE,35,88,73
India,Karnataka,Hubballi,"Deshpande Nagar, Hubballi - KSPCB",18-03-2024 02:00:00,15.351773,75.140726,CO,26,120,109
India,Karnataka,Hubballi,"Lingaraj Nagar, Hubballi - KSPCB",18-03-2024 02:00:00,15.3714823,75.1160168,NH3,NA,NA,NA
India,Karnataka,Hubballi,"Lingaraj Nagar, Hubballi - KSPCB",18-03-2024 02:00:00,15.3714823,75.1160168,SO2,NA,NA,NA
India,Karnataka,Kolar,"Tamaka Ind. Area, Kolar - KSPCB",18-03-2024 02:00:00,13.1276288,78.1570122,PM2.5,NA,NA,NA
India,Karnataka,Kolar,"Tamaka Ind. Area, Kolar - KSPCB",18-03-2024 02:00:00,13.1276288,78.1570122,OZONE,7,13,11
India,Karnataka,Koppal,"Diwator Nagar, Koppal - KSPCB",18-03-2024 02:00:00,15.347630,76.181767,NH3,3,6,5
India,Karnataka,Madikeri,"Stuart Hill, Madikeri - KSPCB",18-03-2024 02:00:00,12.415911,75.735050,PM10,55,81,70
India,Karnataka,Madikeri,"Stuart Hill, Madikeri - KSPCB",18-03-2024 02:00:00,12.415911,75.735050,OZONE,26,42,31
India,Karnataka,Mangalore,"Kadri, Mangalore - KSPCB",18-03-2024 02:00:00,12.889250,74.853000,PM2.5,40,66,57
India,Karnataka,Mangalore,"Kadri, Mangalore - KSPCB",18-03-2024 02:00:00,12.889250,74.853000,CO,34,40,38
India,Karnataka,Mysuru,"Hebbal 1st Stage, Mysuru - KSPCB",18-03-2024 02:00:00,12.21041,76.37376,PM10,33,63,50
India,Karnataka,Mysuru,"Hebbal 1st Stage, Mysuru - KSPCB",18-03-2024 02:00:00,12.21041,76.37376,SO2,1,5,3
India,Karnataka,Mysuru,"Hebbal 1st Stage, Mysuru - KSPCB",18-03-2024 02:00:00,12.21041,76.37376,OZONE,6,82,31
India,Karnataka,Raichur,"Haji Colony, Raichur - KSPCB",18-03-2024 02:00:00,16.208139,77.348417,SO2,NA,NA,NA
India,Karnataka,Ramanagara,"Vijay Nagar, Ramanagara - KSPCB",18-03-2024 02:00:00,12.733409,77.298051,PM10,38,69,53
India,Karnataka,Shivamogga,"Vinoba Nagara, Shivamogga - KSPCB",18-03-2024 02:00:00,13.940000,75.555917,SO2,2,9,6
India,Karnataka,Shivamogga,"Vinoba Nagara, Shivamogga - KSPCB",18-03-2024 02:00:00,13.940000,75.555917,CO,7,41,31
