country,state,city,station,last_update,latitude,longitude,pollutant_id,pollutant_min,pollutant_max,pollutant_avg
India,Andhra_Pradesh,Amaravati,"Secretariat, Amaravati - APPCB",22-01-2024 13:00:00,16.5150833,80.5181667,CO,7,28,19
India,Andhra_Pradesh,Chittoor,"Gangineni Cheruvu, Chittoor - APPCB",22-01-2024 13:00:00,13.204880,79.097889,PM10,NA,NA,NA
India,Andhra_Pradesh,Rajamahendravaram,"Anand Kala Kshetram, Rajamahendravaram - APPCB",22-01-2024 13:00:00,16.9872867,81.7363176,NO2,NA,NA,NA
India,Andhra_Pradesh,Rajamahendravaram,"Anand Kala Kshetram, Rajamahendravaram - APPCB",22-01-2024 13:00:00,16.9872867,81.7363176,NH3,NA,NA,NA
India,Andhra_Pradesh,Rajamahendravaram,"Anand Kala Kshetram, Rajamahendravaram - APPCB",22-01-2024 13:00:00,16.9872867,81.7363176,OZONE,4,5,4
India,Andhra_Pradesh,Tirupati,"Vaikuntapuram, Tirupati - APPCB",22-01-2024 13:00:00,13.615387,79.409230,PM10,17,57,26
India,Andhra_Pradesh,Tirupati,"Vaikuntapuram, Tirupati - APPCB",22-01-2024 13:00:00,13.615387,79.409230,SO2,5,5,5
India,Andhra_Pradesh,Tirupati,"Vaikuntapuram, Tirupati - APPCB",22-01-2024 13:00:00,13.615387,79.409230,CO,8,17,12
India,Andhra_Pradesh,Tirupati,"Vaikuntapuram, Tirupati - APPCB",22-01-2024 13:00:00,13.615387,79.409230,OZONE,1,45,11
India,Andhra_Pradesh,Vijayawada,"HB Colony, Vijayawada - APPCB",22-01-2024 13:00:00,16.536107,80.594233,PM2.5,NA,NA,NA
India,Andhra_Pradesh,Vijayawada,"HB Colony, Vijayawada - APPCB",22-01-2024 13:00:00,16.536107,80.594233,NO2,NA,NA,NA
India,Arunachal_Pradesh,Naharlagun,"Naharlagun, Naharlagun - APSPCB",22-01-2024 13:00:00,27.103358,93.679645,CO,10,12,11
India,Assam,Byrnihat,"Central Academy for SFS, Byrnihat - PCBA",22-01-2024 13:00:00,26.071318,91.87488,PM10,104,389,189
India,Assam,Guwahati,"LGBI Airport, Guwahati - PCBA",22-01-2024 13:00:00,26.10887,91.589544,PM10,159,492,296
India,Assam,Guwahati,"Railway Colony, Guwahati - PCBA",22-01-2024 13:00:00,26.181742,91.78063,PM2.5,206,454,308
India,Assam,Guwahati,"Railway Colony, Guwahati - PCBA",22-01-2024 13:00:00,26.181742,91.78063,PM10,122,429,194
India,Assam,Guwahati,"Railway Colony, Guwahati - PCBA",22-01-2024 13:00:00,26.181742,91.78063,SO2,19,43,24
India,Assam,Nagaon,"Christianpatty, Nagaon - PCBA",22-01-2024 13:00:00,26.349082,92.68449,PM10,103,236,161
India,Assam,Nagaon,"Christianpatty, Nagaon - PCBA",22-01-2024 13:00:00,26.349082,92.68449,CO,11,16,12
India,Assam,Nalbari,"Bata Chowk, Nalbari - PCBA",22-01-2024 13:00:00,26.446912,91.439057,CO,2,76,32
India,Assam,Silchar,"Tarapur, Silchar - PCBA",22-01-2024 13:00:00,24.82827,92.79525,NH3,1,1,1
India,Assam,Silchar,"Tarapur, Silchar - PCBA",22-01-2024 13:00:00,24.82827,92.79525,OZONE,1,5,1
India,Bihar,Araria,"Kharahiya Basti, Araria - BSPCB",22-01-2024 13:00:00,26.146529,87.454184,CO,18,45,40
India,Bihar,Arrah,"New DM Office, Arrah - BSPCB",22-01-2024 13:00:00,25.5626095,84.663264,NO2,NA,NA,NA
India,Bihar,Arrah,"New DM Office, Arrah - BSPCB",22-01-2024 13:00:00,25.5626095,84.663264,CO,8,8,8
India,Bihar,Aurangabad,"Gurdeo Nagar, Aurangabad - BSPCB",22-01-2024 13:00:00,24.75746,84.366208,PM10,107,256,143
India,Bihar,Bettiah,"Kamalnath Nagar, Bettiah - BSPCB",22-01-2024 13:00:00,26.80365,84.51954,PM2.5,22,45,32
India,Bihar,Bettiah,"Kamalnath Nagar, Bettiah - BSPCB",22-01-2024 13:00:00,26.80365,84.51954,PM10,26,54,39
India,Bihar,Bhagalpur,"DM Office_Kachari Chowk, Bhagalpur - BSPCB",22-01-2024 13:00:00,25.251013,86.989001,PM2.5,297,381,328
India,Bihar,Bhagalpur,"DM Office_Kachari Chowk, Bhagalpur - BSPCB",22-01-2024 13:00:00,25.251013,86.989001,OZONE,22,32,27
India,Bihar,Bhagalpur,"Mayaganj, Bhagalpur - BSPCB",22-01-2024 13:00:00,25.265194,87.012947,PM2.5,304,385,327
India,Bihar,Bihar Sharif,"D M Colony, Bihar Sharif - BSPCB",22-01-2024 13:00:00,25.204762,85.514960,PM10,75,173,130
India,Bihar,Chhapra,"Darshan Nagar, Chhapra - BSPCB",22-01-2024 13:00:00,25.7808257,84.7446768,PM10,135,284,184
India,Bihar,Gaya,"Kareemganj, Gaya - BSPCB",22-01-2024 13:00:00,24.792403,84.992416,OZONE,6,30,16
India,Bihar,Katihar,"Mirchaibari, Katihar - BSPCB",22-01-2024 13:00:00,25.560083,87.553265,NH3,1,2,2
India,Bihar,Katihar,"Mirchaibari, Katihar - BSPCB",22-01-2024 13:00:00,25.560083,87.553265,OZONE,23,30,27
India,Bihar,Kishanganj,"SDM Office_Khagra, Kishanganj - BSPCB",22-01-2024 13:00:00,26.0881305,87.93840336,NH3,10,11,10
India,Bihar,Kishanganj,"SDM Office_Khagra, Kishanganj - BSPCB",22-01-2024 13:00:00,26.0881305,87.93840336,OZONE,12,19,13
India,Bihar,Manguraha,"Forest Rest House, Manguraha - BSPCB",22-01-2024 13:00:00,27.308328,84.531742,PM2.5,62,127,84
India,Bihar,Manguraha,"Forest Rest House, Manguraha - BSPCB",22-01-2024 13:00:00,27.308328,84.531742,NO2,6,15,11
India,Bihar,Manguraha,"Forest Rest House, Manguraha - BSPCB",22-01-2024 13:00:00,27.308328,84.531742,NH3,2,2,2
India,Bihar,Motihari,"Gandak Colony, Motihari - BSPCB",22-01-2024 13:00:00,26.63086,84.90051,SO2,1,8,4
India,Bihar,Munger,"Town Hall, Munger - BSPCB",22-01-2024 13:00:00,25.376776,86.471523,PM2.5,57,183,113
India,Bihar,Munger,"Town Hall, Munger - BSPCB",22-01-2024 13:00:00,25.376776,86.471523,OZONE,11,16,14
India,Bihar,Patna,"DRM Office Danapur, Patna - BSPCB",22-01-2024 13:00:00,25.586562,85.043586,OZONE,1,40,11
India,Bihar,Patna,"IGSC Planetarium Complex, Patna - BSPCB",22-01-2024 13:00:00,25.610369,85.132568,PM2.5,82,348,194
India,Bihar,Patna,"IGSC Planetarium Complex, Patna - BSPCB",22-01-2024 13:00:00,25.610369,85.132568,CO,32,48,45
India,Bihar,Patna,"Rajbansi Nagar, Patna - BSPCB",22-01-2024 13:00:00,25.599486,85.113666,PM10,121,448,242
India,Bihar,Patna,"Rajbansi Nagar, Patna - BSPCB",22-01-2024 13:00:00,25.599486,85.113666,NO2,52,63,57
India,Bihar,Patna,"Samanpura, Patna - BSPCB",22-01-2024 13:00:00,25.596727,85.085624,PM2.5,NA,NA,NA
India,Bihar,Rajgir,"Dangi Tola, Rajgir - BSPCB",22-01-2024 13:00:00,25.03280,85.41948,NO2,10,35,19
India,Bihar,Saharsa,"Police Line, Saharsa - BSPCB",22-01-2024 13:00:00,25.892357,86.590325,NH3,NA,NA,NA
India,Bihar,Saharsa,"Police Line, Saharsa - BSPCB",22-01-2024 13:00:00,25.892357,86.590325,OZONE,25,52,49
India,Bihar,Samastipur,"DM Office_Kasipur, Samastipur - BSPCB",22-01-2024 13:00:00,25.859655,85.77944,NO2,3,6,5
India,Bihar,Samastipur,"DM Office_Kasipur, Samastipur - BSPCB",22-01-2024 13:00:00,25.859655,85.77944,SO2,10,13,12
India,Chandigarh,Chandigarh,"Sector 22, Chandigarh - CPCC",22-01-2024 13:00:00,30.735567,76.775714,SO2,5,38,20
India,Chandigarh,Chandigarh,"Sector-25, Chandigarh - CPCC",22-01-2024 13:00:00,30.751462,76.762879,NO2,16,32,21
India,Chandigarh,Chandigarh,"Sector-25, Chandigarh - CPCC",22-01-2024 13:00:00,30.751462,76.762879,NH3,10,14,11
India,Chandigarh,Chandigarh,"Sector-53, Chandigarh - CPCC",22-01-2024 13:00:00,30.719859,76.738637,PM2.5,267,415,338
India,Chandigarh,Chandigarh,"Sector-53, Chandigarh - CPCC",22-01-2024 13:00:00,30.719859,76.738637,NO2,17,42,29
India,Chhattisgarh,Bhilai,"Hathkhoj, Bhilai - CECB",22-01-2024 13:00:00,21.224231,81.408350,SO2,37,121,72
India,Chhattisgarh,Chhal,"Nawapara SECL Colony, Chhal - CECB",22-01-2024 13:00:00,22.118125,83.140608,PM10,28,226,76
India,Chhattisgarh,Korba,"Rampur, Korba - CECB",22-01-2024 13:00:00,22.368195,82.746431,OZONE,2,62,14
India,Chhattisgarh,Korba,"Urja Nagar, Korba - CECB",22-01-2024 13:00:00,22.348441,82.549611,PM10,14,242,47
India,Chhattisgarh,Kunjemura,"OP Jindal School, Kunjemura - CECB",22-01-2024 13:00:00,22.126650,83.483212,PM10,23,153,79
India,Chhattisgarh,Kunjemura,"OP Jindal School, Kunjemura - CECB",22-01-2024 13:00:00,22.126650,83.483212,NO2,13,151,65
India,Chhattisgarh,Kunjemura,"OP Jindal School, Kunjemura - CECB",22-01-2024 13:00:00,22.126650,83.483212,OZONE,3,53,23
India,Chhattisgarh,Milupara,"Govt. Higher Secondary School, Milupara - CECB",22-01-2024 13:00:00,22.1910172,83.5197009,SO2,7,40,14
India,Chhattisgarh,Raipur,"AIIMS, Raipur - CECB",22-01-2024 13:00:00,21.258815,81.578979,PM10,74,130,101
India,Chhattisgarh,Raipur,"AIIMS, Raipur - CECB",22-01-2024 13:00:00,21.258815,81.578979,NO2,48,55,52
India,Chhattisgarh,Raipur,"Krishak Nagar, Raipur - CECB",22-01-2024 13:00:00,21.237755,81.705301,SO2,8,10,9
India,Chhattisgarh,Raipur,"Siltara Phase-II, Raipur - CECB",22-01-2024 13:00:00,21.371751,81.664929,SO2,NA,NA,NA
India,Delhi,Delhi,"Alipur, Delhi - DPCC",22-01-2024 13:00:00,28.815329,77.153010,PM2.5,242,403,313
India,Delhi,Delhi,"Alipur, Delhi - DPCC",22-01-2024 13:00:00,28.815329,77.153010,NH3,9,14,11
India,Delhi,Delhi,"Alipur, Delhi - DPCC",22-01-2024 13:00:00,28.815329,77.153010,SO2,7,11,9
India,Delhi,Delhi,"Alipur, Delhi - DPCC",22-01-2024 13:00:00,28.815329,77.153010,OZONE,16,58,26
India,Delhi,Delhi,"Ashok Vihar, Delhi - DPCC",22-01-2024 13:00:00,28.695381,77.181665,PM10,179,411,227
India,Delhi,Delhi,"Ashok Vihar, Delhi - DPCC",22-01-2024 13:00:00,28.695381,77.181665,NH3,6,9,8
India,Delhi,Delhi,"Aya Nagar, Delhi - IMD",22-01-2024 13:00:00,28.4706914,77.1099364,OZONE,NA,NA,NA
India,Delhi,Delhi,"Bawana, Delhi - DPCC",22-01-2024 13:00:00,28.776200,77.051074,NO2,16,50,29
India,Delhi,Delhi,"CRRI Mathura Road, Delhi - IMD",22-01-2024 13:00:00,28.5512005,77.2735737,OZONE,NA,NA,NA
India,Delhi,Delhi,"DTU, Delhi - CPCB",22-01-2024 13:00:00,28.7500499,77.1112615,NH3,12,20,14
India,Delhi,Delhi,"DTU, Delhi - CPCB",22-01-2024 13:00:00,28.7500499,77.1112615,SO2,26,28,27
India,Delhi,Delhi,"Dwarka-Sector 8, Delhi - DPCC ",22-01-2024 13:00:00,28.5710274,77.0719006,OZONE,5,39,13
India,Delhi,Delhi,"IGI Airport (T3), Delhi - IMD",22-01-2024 13:00:00,28.5627763,77.1180053,OZONE,NA,NA,NA
India,Delhi,Delhi,"IHBAS, Dilshad Garden, Delhi - CPCB",22-01-2024 13:00:00,28.6811736,77.3025234,PM10,125,272,160
India,Delhi,Delhi,"IHBAS, Dilshad Garden, Delhi - CPCB",22-01-2024 13:00:00,28.6811736,77.3025234,NH3,2,9,6
India,Delhi,Delhi,"Jawaharlal Nehru Stadium, Delhi - DPCC",22-01-2024 13:00:00,28.580280,77.233829,NO2,67,101,83
India,Delhi,Delhi,"Lodhi Road, Delhi - IMD",22-01-2024 13:00:00,28.5918245,77.2273074,PM2.5,NA,NA,NA
India,Delhi,Delhi,"Lodhi Road, Delhi - IMD",22-01-2024 13:00:00,28.5918245,77.2273074,PM10,NA,NA,NA
India,Delhi,Delhi,"Major Dhyan Chand National Stadium, Delhi - DPCC",22-01-2024 13:00:00,28.611281,77.237738,PM10,152,266,191
India,Delhi,Delhi,"Major Dhyan Chand National Stadium, Delhi - DPCC",22-01-2024 13:00:00,28.611281,77.237738,NH3,11,14,12
India,Delhi,Delhi,"Major Dhyan Chand National Stadium, Delhi - DPCC",22-01-2024 13:00:00,28.611281,77.237738,SO2,3,18,13
India,Delhi,Delhi,"Major Dhyan Chand National Stadium, Delhi - DPCC",22-01-2024 13:00:00,28.611281,77.237738,CO,39,65,48
India,Delhi,Delhi,"Mandir Marg, Delhi - DPCC",22-01-2024 13:00:00,28.636429,77.201067,NO2,102,122,110
India,Delhi,Delhi,"Mundka, Delhi - DPCC",22-01-2024 13:00:00,28.684678,77.076574,NH3,5,22,10
India,Delhi,Delhi,"NSIT Dwarka, Delhi - CPCB",22-01-2024 13:00:00,28.60909,77.0325413,NO2,23,68,38
India,Delhi,Delhi,"NSIT Dwarka, Delhi - CPCB",22-01-2024 13:00:00,28.60909,77.0325413,CO,36,99,55
India,Delhi,Delhi,"Najafgarh, Delhi - DPCC",22-01-2024 13:00:00,28.570173,76.933762,NH3,6,7,6
India,Delhi,Delhi,"Najafgarh, Delhi - DPCC",22-01-2024 13:00:00,28.570173,76.933762,SO2,5,13,10
India,Delhi,Delhi,"Najafgarh, Delhi - DPCC",22-01-2024 13:00:00,28.570173,76.933762,OZONE,15,97,40
India,Delhi,Delhi,"Okhla Phase-2, Delhi - DPCC",22-01-2024 13:00:00,28.530785,77.271255,PM10,175,294,229
India,Delhi,Delhi,"Okhla Phase-2, Delhi - DPCC",22-01-2024 13:00:00,28.530785,77.271255,NO2,58,114,80
India,Delhi,Delhi,"Punjabi Bagh, Delhi - DPCC",22-01-2024 13:00:00,28.674045,77.131023,NH3,5,7,6
India,Delhi,Delhi,"Punjabi Bagh, Delhi - DPCC",22-01-2024 13:00:00,28.674045,77.131023,SO2,NA,NA,NA
India,Delhi,Delhi,"Pusa, Delhi - DPCC",22-01-2024 13:00:00,28.639652,77.146275,PM2.5,NA,NA,NA
India,Delhi,Delhi,"Pusa, Delhi - DPCC",22-01-2024 13:00:00,28.639652,77.146275,PM10,NA,NA,NA
India,Delhi,Delhi,"Pusa, Delhi - IMD",22-01-2024 13:00:00,28.636110,77.173332,PM10,NA,NA,NA
India,Delhi,Delhi,"Pusa, Delhi - IMD",22-01-2024 13:00:00,28.636110,77.173332,NO2,NA,NA,NA
India,Delhi,Delhi,"Rohini, Delhi - DPCC",22-01-2024 13:00:00,28.732528,77.119920,SO2,5,14,9
India,Delhi,Delhi,"Shadipur, Delhi - CPCB",22-01-2024 13:00:00,28.6514781,77.1473105,CO,54,116,76
India,Delhi,Delhi,"Shadipur, Delhi - CPCB",22-01-2024 13:00:00,28.6514781,77.1473105,OZONE,7,35,17
India,Delhi,Delhi,"Sirifort, Delhi - CPCB",22-01-2024 13:00:00,28.5504249,77.2159377,NO2,138,170,154
India,Delhi,Delhi,"Sonia Vihar, Delhi - DPCC",22-01-2024 13:00:00,28.710508,77.249485,NH3,5,8,6
India,Delhi,Delhi,"Vivek Vihar, Delhi - DPCC",22-01-2024 13:00:00,28.672342,77.315260,NO2,37,69,55
India,Delhi,Delhi,"Wazirpur, Delhi - DPCC",22-01-2024 13:00:00,28.699793,77.165453,PM10,186,437,257
India,Delhi,Delhi,"Wazirpur, Delhi - DPCC",22-01-2024 13:00:00,28.699793,77.165453,SO2,10,43,22
India,Gujarat,Ahmedabad,"Chandkheda, Ahmedabad - IITM",22-01-2024 13:00:00,23.107969,72.574648,PM10,55,180,106
India,Gujarat,Ahmedabad,"Gyaspur, Ahmedabad - IITM",22-01-2024 13:00:00,22.977134,72.553024,OZONE,11,13,12
India,Gujarat,Ahmedabad,"Rakhial, Ahmedabad - IITM",22-01-2024 13:00:00,23.016834,72.625775,NO2,7,74,22
India,Gujarat,Ahmedabad,"SAC ISRO Bopal, Ahmedabad - IITM",22-01-2024 13:00:00,23.041137,72.456691,CO,28,40,31
India,Gujarat,Ahmedabad,"SAC ISRO Bopal, Ahmedabad - IITM",22-01-2024 13:00:00,23.041137,72.456691,OZONE,13,15,14
India,Gujarat,Ahmedabad,"SVPI Airport Hansol, Ahmedabad - IITM",22-01-2024 13:00:00,23.076793,72.627874,NO2,14,15,14
India,Gujarat,Ahmedabad,"Sardar Vallabhbhai Patel Stadium, Ahmedabad - IITM",22-01-2024 13:00:00,23.043070,72.562968,NO2,12,14,13
India,Gujarat,Ankleshwar,"GIDC, Ankleshwar - GPCB",22-01-2024 13:00:00,21.613267,73.010555,NO2,33,34,34
India,Gujarat,Ankleshwar,"GIDC, Ankleshwar - GPCB",22-01-2024 13:00:00,21.613267,73.010555,SO2,26,136,90
India,Gujarat,Gandhinagar,"GIFT City, Gandhinagar - IITM",22-01-2024 13:00:00,23.163798,72.677768,SO2,4,8,6
India,Gujarat,Gandhinagar,"IIPHG Lekawada, Gandhinagar - IITM",22-01-2024 13:00:00,23.243639,72.68994,PM2.5,77,324,178
India,Gujarat,Surat,"Science Center, Surat - SMC",22-01-2024 13:00:00,21.170046,72.795405,CO,41,61,52
India,Gujarat,Vapi,"Phase-1 GIDC, Vapi - GPCB",22-01-2024 13:00:00,20.362421,72.918013,PM2.5,58,333,140
India,Gujarat,Vapi,"Phase-1 GIDC, Vapi - GPCB",22-01-2024 13:00:00,20.362421,72.918013,PM10,82,259,135
India,Gujarat,Vapi,"Phase-1 GIDC, Vapi - GPCB",22-01-2024 13:00:00,20.362421,72.918013,CO,103,171,35
India,Gujarat,Vatva,"Phase-4 GIDC, Vatva - GPCB",22-01-2024 13:00:00,22.969611,72.643500,OZONE,7,24,12
India,Haryana,Ambala,"Patti Mehar, Ambala - HSPCB",22-01-2024 13:00:00,30.379589,76.778328,NH3,5,12,8
India,Haryana,Bahadurgarh,"Arya Nagar, Bahadurgarh - HSPCB",22-01-2024 13:00:00,28.6701,76.9254,CO,38,56,46
India,Haryana,Ballabgarh,"Nathu Colony, Ballabgarh - HSPCB",22-01-2024 13:00:00,28.3419248,77.319699,PM10,162,195,178
India,Haryana,Charkhi Dadri,"Mini Secretariat, Charkhi Dadri - HSPCB",22-01-2024 13:00:00,28.593883,76.270653,PM2.5,68,293,127
India,Haryana,Charkhi Dadri,"Mini Secretariat, Charkhi Dadri - HSPCB",22-01-2024 13:00:00,28.593883,76.270653,PM10,68,164,104
India,Haryana,Charkhi Dadri,"Mini Secretariat, Charkhi Dadri - HSPCB",22-01-2024 13:00:00,28.593883,76.270653,NO2,9,14,11
India,Haryana,Charkhi Dadri,"Mini Secretariat, Charkhi Dadri - HSPCB",22-01-2024 13:00:00,28.593883,76.270653,OZONE,14,17,16
India,Haryana,Faridabad,"New Industrial Town, Faridabad - HSPCB",22-01-2024 13:00:00,28.39072,77.30059,PM10,159,351,261
India,Haryana,Faridabad,"Sector 11, Faridabad - HSPCB",22-01-2024 13:00:00,28.376058,77.315741,CO,20,84,52
India,Haryana,Faridabad,"Sector 30, Faridabad - HSPCB",22-01-2024 13:00:00,28.4417,77.3217,NH3,NA,NA,NA
India,Haryana,Faridabad,"Sector 30, Faridabad - HSPCB",22-01-2024 13:00:00,28.4417,77.3217,CO,86,100,95
India,Haryana,Faridabad,"Sector- 16A, Faridabad - HSPCB",22-01-2024 13:00:00,28.4088421,77.3099081,NO2,1,55,28
India,Haryana,Fatehabad,"Huda Sector, Fatehabad - HSPCB",22-01-2024 13:00:00,29.503664,75.467934,PM2.5,125,223,163
India,Haryana,Fatehabad,"Huda Sector, Fatehabad - HSPCB",22-01-2024 13:00:00,29.503664,75.467934,NO2,29,32,30
India,Haryana,Fatehabad,"Huda Sector, Fatehabad - HSPCB",22-01-2024 13:00:00,29.503664,75.467934,CO,5,10,8
India,Haryana,Gurugram,"NISE Gwal Pahari, Gurugram - IMD",22-01-2024 13:00:00,28.422681,77.148944,PM10,NA,NA,NA
India,Haryana,Gurugram,"Teri Gram, Gurugram - HSPCB",22-01-2024 13:00:00,28.4275,77.1465,CO,32,67,38
India,Haryana,Gurugram,"Vikas Sadan, Gurugram - HSPCB",22-01-2024 13:00:00,28.4501238,77.0263051,OZONE,8,68,29
India,Haryana,Hisar,"Urban Estate-II, Hisar - HSPCB",22-01-2024 13:00:00,29.140560,75.744941,PM2.5,87,255,136
India,Haryana,Hisar,"Urban Estate-II, Hisar - HSPCB",22-01-2024 13:00:00,29.140560,75.744941,PM10,62,147,92
India,Haryana,Jind,"Police Lines, Jind - HSPCB",22-01-2024 13:00:00,29.307814,76.337619,NH3,2,5,4
India,Haryana,Karnal,"Sector-12, Karnal - HSPCB",22-01-2024 13:00:00,29.695300,77.002700,NH3,10,13,11
India,Haryana,Karnal,"Sector-12, Karnal - HSPCB",22-01-2024 13:00:00,29.695300,77.002700,SO2,12,13,13
India,Haryana,Kurukshetra,"Sector-7, Kurukshetra - HSPCB",22-01-2024 13:00:00,29.966942,76.875879,PM10,107,179,145
India,Haryana,Mandikhera,"General Hospital, Mandikhera - HSPCB",22-01-2024 13:00:00,27.9002,76.9938,NH3,19,21,20
India,Haryana,Manesar,"Sector-2 IMT, Manesar - HSPCB",22-01-2024 13:00:00,28.360699,76.936090,NO2,14,33,21
India,Haryana,Manesar,"Sector-2 IMT, Manesar - HSPCB",22-01-2024 13:00:00,28.360699,76.936090,CO,10,108,20
India,Haryana,Narnaul,"Shastri Nagar, Narnaul - HSPCB",22-01-2024 13:00:00,28.060249,76.113115,SO2,12,27,14
India,Haryana,Narnaul,"Shastri Nagar, Narnaul - HSPCB",22-01-2024 13:00:00,28.060249,76.113115,OZONE,49,85,75
India,Haryana,Palwal,"Shyam Nagar, Palwal - HSPCB",22-01-2024 13:00:00,28.1485564,77.3320667,SO2,9,23,16
India,Haryana,Panipat,"Sector-18, Panipat - HSPCB",22-01-2024 13:00:00,29.497973,76.993331,NH3,NA,NA,NA
India,Haryana,Panipat,"Sector-18, Panipat - HSPCB",22-01-2024 13:00:00,29.497973,76.993331,SO2,NA,NA,NA
India,Haryana,Rohtak,"MD University, Rohtak - HSPCB",22-01-2024 13:00:00,28.52123,76.37138,PM2.5,104,209,143
India,Haryana,Rohtak,"MD University, Rohtak - HSPCB",22-01-2024 13:00:00,28.52123,76.37138,SO2,1,23,7
India,Haryana,Sonipat,"Murthal, Sonipat - HSPCB",22-01-2024 13:00:00,29.027200,77.062100,NO2,37,44,40
India,Haryana,Sonipat,"Murthal, Sonipat - HSPCB",22-01-2024 13:00:00,29.027200,77.062100,NH3,7,10,9
India,Haryana,Sonipat,"Murthal, Sonipat - HSPCB",22-01-2024 13:00:00,29.027200,77.062100,CO,2,34,20
India,Haryana,Yamuna Nagar,"Gobind Pura, Yamuna Nagar - HSPCB",22-01-2024 13:00:00,30.1480566,77.2893471,NH3,1,6,4
India,Haryana,Yamuna Nagar,"Gobind Pura, Yamuna Nagar - HSPCB",22-01-2024 13:00:00,30.1480566,77.2893471,SO2,1,94,10
India,Haryana,Yamuna Nagar,"Gobind Pura, Yamuna Nagar - HSPCB",22-01-2024 13:00:00,30.1480566,77.2893471,CO,99,112,109
India,Himachal Pradesh,Baddi,"HIMUDA Complex Phase-1, Baddi - HPPCB",22-01-2024 13:00:00,30.943887,76.801991,NO2,12,43,30
India,Himachal Pradesh,Baddi,"HIMUDA Complex Phase-1, Baddi - HPPCB",22-01-2024 13:00:00,30.943887,76.801991,SO2,16,113,56
India,Jharkhand,Dhanbad,"Kalakusuma, Dhanbad - DMC",22-01-2024 13:00:00,23.811548,86.481238,NO2,32,34,33
India,Karnataka,Bagalkot,"Vidayagiri, Bagalkot - KSPCB",22-01-2024 13:00:00,16.172806,75.659694,PM2.5,19,27,26
India,Karnataka,Bagalkot,"Vidayagiri, Bagalkot - KSPCB",22-01-2024 13:00:00,16.172806,75.659694,PM10,50,51,51
India,Karnataka,Bagalkot,"Vidayagiri, Bagalkot - KSPCB",22-01-2024 13:00:00,16.172806,75.659694,NH3,1,2,1
India,Karnataka,Belgaum,"Ramteerth Nagar, Belgaum - KSPCB",22-01-2024 13:00:00,15.888653,74.541751,PM2.5,22,78,39
India,Karnataka,Belgaum,"Ramteerth Nagar, Belgaum - KSPCB",22-01-2024 13:00:00,15.888653,74.541751,PM10,30,81,47
India,Karnataka,Belgaum,"Ramteerth Nagar, Belgaum - KSPCB",22-01-2024 13:00:00,15.888653,74.541751,OZONE,19,20,19
India,Karnataka,Bengaluru,"BTM Layout, Bengaluru - CPCB",22-01-2024 13:00:00,12.9135218,77.5950804,NH3,NA,NA,NA
India,Karnataka,Bengaluru,"Bapuji Nagar, Bengaluru - KSPCB",22-01-2024 13:00:00,12.951913,77.539784,PM2.5,44,300,93
India,Karnataka,Bengaluru,"Bapuji Nagar, Bengaluru - KSPCB",22-01-2024 13:00:00,12.951913,77.539784,OZONE,7,12,8
India,Karnataka,Bengaluru,"City Railway Station, Bengaluru - KSPCB",22-01-2024 13:00:00,12.9756843,77.5660749,NO2,22,39,32
India,Karnataka,Bengaluru,"Hebbal, Bengaluru - KSPCB",22-01-2024 13:00:00,13.029152,77.585901,PM10,NA,NA,NA
India,Karnataka,Bengaluru,"Hombegowda Nagar, Bengaluru - KSPCB",22-01-2024 13:00:00,12.938539,77.590100,OZONE,4,5,4
India,Karnataka,Bengaluru,"Jayanagar 5th Block, Bengaluru - KSPCB",22-01-2024 13:00:00,12.920984,77.584908,NH3,2,4,3
India,Karnataka,Bengaluru,"Jigani, Bengaluru - KSPCB",22-01-2024 13:00:00,12.7816279,77.6299145,PM2.5,18,126,58
India,Karnataka,Bengaluru,"Kasturi Nagar, Bengaluru - KSPCB",22-01-2024 13:00:00,13.003872,77.664217,SO2,9,10,10
India,Karnataka,Bengaluru,"Peenya, Bengaluru - CPCB",22-01-2024 13:00:00,13.0270199,77.494094,NH3,5,6,5
India,Karnataka,Bengaluru,"RVCE-Mailasandra, Bengaluru - KSPCB",22-01-2024 13:00:00,12.921418,77.502466,CO,38,108,46
India,Karnataka,Bidar,"Naubad, Bidar - KSPCB",22-01-2024 13:00:00,17.930306,77.482194,CO,49,86,64
India,Karnataka,Chamarajanagar,"Urban, Chamarajanagar - KSPCB",22-01-2024 13:00:00,11.55358,76.55521,NO2,24,36,30
India,Karnataka,Chamarajanagar,"Urban, Chamarajanagar - KSPCB",22-01-2024 13:00:00,11.55358,76.55521,SO2,2,6,3
India,Karnataka,Chamarajanagar,"Urban, Chamarajanagar - KSPCB",22-01-2024 13:00:00,11.55358,76.55521,OZONE,14,42,21
India,Karnataka,Chikkaballapur,"Chikkaballapur Rural, Chikkaballapur - KSPCB",22-01-2024 13:00:00,13.428828,77.731418,NO2,7,13,9
India,Karnataka,Chikkamagaluru,"Kalyana Nagara, Chikkamagaluru - KSPCB",22-01-2024 13:00:00,13.328028,75.797056,PM2.5,30,87,58
India,Karnataka,Davanagere,"Devaraj Urs Badavane, Davanagere - KSPCB",22-01-2024 13:00:00,14.475800,75.905200,NO2,1,24,13
India,Karnataka,Davanagere,"Devaraj Urs Badavane, Davanagere - KSPCB",22-01-2024 13:00:00,14.475800,75.905200,NH3,1,3,1
India,Karnataka,Davanagere,"Devaraj Urs Badavane, Davanagere - KSPCB",22-01-2024 13:00:00,14.475800,75.905200,CO,16,28,18
India,Karnataka,Dharwad,"Kalabhavan, Dharwad - KSPCB",22-01-2024 13:00:00,15.459706,75.008381,NO2,5,29,19
India,Karnataka,Dharwad,"Kalabhavan, Dharwad - KSPCB",22-01-2024 13:00:00,15.459706,75.008381,NH3,3,3,3
India,Karnataka,Dharwad,"Kalabhavan, Dharwad - KSPCB",22-01-2024 13:00:00,15.459706,75.008381,OZONE,3,40,21
India,Karnataka,Hassan,"B.Katihalli, Hassan - KSPCB",22-01-2024 13:00:00,13.008556,76.125258,PM2.5,50,98,75
India,Karnataka,Hassan,"B.Katihalli, Hassan - KSPCB",22-01-2024 13:00:00,13.008556,76.125258,NH3,3,5,3
India,Karnataka,Haveri,"Ashwini Nagar, Haveri - KSPCB",22-01-2024 13:00:00,14.791800,75.389600,PM2.5,NA,NA,NA
India,Karnataka,Hubballi,"Deshpande Nagar, Hubballi - KSPCB",22-01-2024 13:00:00,15.351773,75.140726,PM10,NA,NA,NA
India,Karnataka,Hubballi,"Deshpande Nagar, Hubballi - KSPCB",22-01-2024 13:00:00,15.351773,75.140726,NO2,NA,NA,NA
India,Karnataka,Kalaburagi,"Lal Bahadur Shastri Nagar, Kalaburagi - KSPCB",22-01-2024 13:00:00,17.321993,76.822628,PM10,7,75,34
India,Karnataka,Kalaburagi,"Lal Bahadur Shastri Nagar, Kalaburagi - KSPCB",22-01-2024 13:00:00,17.321993,76.822628,NH3,2,2,2
India,Karnataka,Kalaburagi,"Mahatma Basaveswar Colony, Kalaburgi - KSPCB",22-01-2024 13:00:00,17.336318,76.847397,PM2.5,17,42,31
India,Karnataka,Kalaburagi,"Mahatma Basaveswar Colony, Kalaburgi - KSPCB",22-01-2024 13:00:00,17.336318,76.847397,NO2,14,30,22
India,Karnataka,Karwar,"KHB Colony, Karwar - KSPCB",22-01-2024 13:00:00,14.816666,74.141003,OZONE,21,22,22
India,Karnataka,Koppal,"Diwator Nagar, Koppal - KSPCB",22-01-2024 13:00:00,15.347630,76.181767,SO2,63,101,72
India,Karnataka,Koppal,"Diwator Nagar, Koppal - KSPCB",22-01-2024 13:00:00,15.347630,76.181767,CO,74,111,101
India,Karnataka,Madikeri,"Stuart Hill, Madikeri - KSPCB",22-01-2024 13:00:00,12.415911,75.735050,NO2,4,11,7
India,Karnataka,Ramanagara,"Vijay Nagar, Ramanagara - KSPCB",22-01-2024 13:00:00,12.733409,77.298051,PM2.5,44,149,60
India,Karnataka,Ramanagara,"Vijay Nagar, Ramanagara - KSPCB",22-01-2024 13:00:00,12.733409,77.298051,OZONE,28,30,29
India,Karnataka,Udupi,"Brahmagiri, Udupi - KSPCB",22-01-2024 13:00:00,13.34194444,74.74694444,PM10,20,58,37
India,Karnataka,Udupi,"Brahmagiri, Udupi - KSPCB",22-01-2024 13:00:00,13.34194444,74.74694444,CO,40,48,44
India,Karnataka,Vijayapura,"Ibrahimpur, Vijayapura - KSPCB",22-01-2024 13:00:00,16.802639,75.722694,PM2.5,23,31,30
India,Karnataka,Vijayapura,"Ibrahimpur, Vijayapura - KSPCB",22-01-2024 13:00:00,16.802639,75.722694,SO2,NA,NA,NA
India,Karnataka,Vijayapura,"Ibrahimpur, Vijayapura - KSPCB",22-01-2024 13:00:00,16.802639,75.722694,CO,22,167,146
India,Kerala,Eloor,"Udyogamandal, Eloor - Kerala PCB",22-01-2024 13:00:00,10.073232,76.302765,SO2,1,4,1
India,Kerala,Eloor,"Udyogamandal, Eloor - Kerala PCB",22-01-2024 13:00:00,10.073232,76.302765,CO,4,107,41
India,Kerala,Kannur,"Thavakkara, Kannur - Kerala PCB",22-01-2024 13:00:00,11.875000,75.373200,PM2.5,44,51,48
India,Kerala,Kannur,"Thavakkara, Kannur - Kerala PCB",22-01-2024 13:00:00,11.875000,75.373200,CO,30,36,33
India,Kerala,Kochi,"Vyttila, Kochi - Kerala PCB",22-01-2024 13:00:00,9.969447,76.321186,NO2,1,7,3
India,Kerala,Kochi,"Vyttila, Kochi - Kerala PCB",22-01-2024 13:00:00,9.969447,76.321186,CO,44,46,45
India,Kerala,Kollam,"Polayathode, Kollam - Kerala PCB",22-01-2024 13:00:00,8.8787,76.6073,PM2.5,58,244,115
India,Kerala,Kollam,"Polayathode, Kollam - Kerala PCB",22-01-2024 13:00:00,8.8787,76.6073,NO2,8,9,8
India,Madhya Pradesh,Bhopal,"Paryavaran Parisar, Bhopal - MPPCB",22-01-2024 13:00:00,23.210494,77.425409,PM2.5,45,431,221
India,Madhya Pradesh,Bhopal,"Paryavaran Parisar, Bhopal - MPPCB",22-01-2024 13:00:00,23.210494,77.425409,NO2,25,114,61
India,Madhya Pradesh,Bhopal,"Paryavaran Parisar, Bhopal - MPPCB",22-01-2024 13:00:00,23.210494,77.425409,OZONE,2,74,34
India,Madhya Pradesh,Bhopal,"T T Nagar, Bhopal - MPPCB",22-01-2024 13:00:00,23.233584,77.400574,PM2.5,61,376,217
India,Madhya Pradesh,Bhopal,"T T Nagar, Bhopal - MPPCB",22-01-2024 13:00:00,23.233584,77.400574,SO2,7,27,17
India,Madhya Pradesh,Bhopal,"T T Nagar, Bhopal - MPPCB",22-01-2024 13:00:00,23.233584,77.400574,OZONE,6,104,66
India,Madhya Pradesh,Damoh,"Shrivastav Colony, Damoh - MPPCB",22-01-2024 13:00:00,23.81748678,79.446246,PM2.5,NA,NA,NA
India,Madhya Pradesh,Gwalior,"City Center, Gwalior - MPPCB",22-01-2024 13:00:00,26.203442,78.193251,NH3,6,10,7
India,Madhya Pradesh,Gwalior,"City Center, Gwalior - MPPCB",22-01-2024 13:00:00,26.203442,78.193251,CO,14,125,32
India,Madhya Pradesh,Gwalior,"City Center, Gwalior - MPPCB",22-01-2024 13:00:00,26.203442,78.193251,OZONE,19,39,23
India,Madhya Pradesh,Gwalior,"Deen Dayal Nagar, Gwalior - MPPCB",22-01-2024 13:00:00,26.259242,78.216432,PM10,100,500,236
India,Madhya Pradesh,Gwalior,"Deen Dayal Nagar, Gwalior - MPPCB",22-01-2024 13:00:00,26.259242,78.216432,CO,40,52,50
India,Madhya Pradesh,Gwalior,"Phool Bagh, Gwalior - Mondelez Ind. Food",22-01-2024 13:00:00,26.210536,78.171,PM10,14,283,134
India,Madhya Pradesh,Gwalior,"Phool Bagh, Gwalior - Mondelez Ind. Food",22-01-2024 13:00:00,26.210536,78.171,CO,32,54,34
India,Madhya Pradesh,Indore,"Chhoti Gwaltoli, Indore - MPPCB",22-01-2024 13:00:00,22.4310,75.5213,SO2,14,37,23
India,Madhya Pradesh,Indore,"Chhoti Gwaltoli, Indore - MPPCB",22-01-2024 13:00:00,22.4310,75.5213,CO,30,108,53
India,Madhya Pradesh,Indore,"Chhoti Gwaltoli, Indore - MPPCB",22-01-2024 13:00:00,22.4310,75.5213,OZONE,11,104,72
India,Madhya Pradesh,Indore,"Maguda Nagar, Indore - IMC",22-01-2024 13:00:00,22.7524,75.8872,PM10,35,164,73
India,Madhya Pradesh,Indore,"Regional Park, Indore - IMC",22-01-2024 13:00:00,22.6780,75.8559,OZONE,5,19,8
India,Madhya Pradesh,Indore,"Residency Area, Indore - IMC",22-01-2024 13:00:00,22.7084,75.8815,PM2.5,NA,NA,NA
India,Madhya Pradesh,Jabalpur,"Marhatal, Jabalpur - MPPCB",22-01-2024 13:00:00,23.168606,79.932247,SO2,14,20,17
India,Madhya Pradesh,Jabalpur,"Suhagi, Jabalpur - JMC",22-01-2024 13:00:00,23.218135,79.957770,NH3,3,4,4
India,Madhya Pradesh,Katni,"Gole Bazar, Katni - MPPCB",22-01-2024 13:00:00,23.50016,80.23284,NH3,6,9,8
India,Madhya Pradesh,Maihar,"Sahilara, Maihar - KJS Cements",22-01-2024 13:00:00,24.2613009,80.7231783,NO2,14,14,14
India,Madhya Pradesh,Maihar,"Sahilara, Maihar - KJS Cements",22-01-2024 13:00:00,24.2613009,80.7231783,CO,46,70,58
India,Madhya Pradesh,Mandideep,"Sector-D Industrial Area, Mandideep - MPPCB",22-01-2024 13:00:00,23.108440,77.511428,PM2.5,73,348,197
India,Madhya Pradesh,Pithampur,"Sector-2 Industrial Area, Pithampur - MPPCB",22-01-2024 13:00:00,22.624758,75.675238,NH3,2,4,3
India,Madhya Pradesh,Pithampur,"Sector-2 Industrial Area, Pithampur - MPPCB",22-01-2024 13:00:00,22.624758,75.675238,OZONE,29,57,40
India,Madhya Pradesh,Ratlam,"Shasthri Nagar, Ratlam - IPCA Lab",22-01-2024 13:00:00,23.331731,75.045981,NO2,1,69,22
India,Madhya Pradesh,Sagar,"Civil Lines, Sagar - MPPCB",22-01-2024 13:00:00,23.838586,78.759431,PM2.5,22,229,117
India,Madhya Pradesh,Sagar,"Civil Lines, Sagar - MPPCB",22-01-2024 13:00:00,23.838586,78.759431,PM10,39,123,86
India,Madhya Pradesh,Sagar,"Civil Lines, Sagar - MPPCB",22-01-2024 13:00:00,23.838586,78.759431,NO2,9,21,13
India,Madhya Pradesh,Sagar,"Civil Lines, Sagar - MPPCB",22-01-2024 13:00:00,23.838586,78.759431,SO2,3,5,4
India,Madhya Pradesh,Sagar,"Civil Lines, Sagar - MPPCB",22-01-2024 13:00:00,23.838586,78.759431,OZONE,39,46,42
India,Madhya Pradesh,Sagar,"Deen Dayal Nagar, Sagar - MPPCB",22-01-2024 13:00:00,23.8640158,78.80289321,PM2.5,16,59,36
India,Madhya Pradesh,Singrauli,"Suryakiran Bhawan NCL, Singrauli - MPPCB",22-01-2024 13:00:00,24.108970,82.645580,CO,24,106,58
India,Madhya Pradesh,Ujjain,"Mahakaleshwar Temple, Ujjain - MPPCB",22-01-2024 13:00:00,23.182719 ,75.768218 ,CO,30,89,49
India,Madhya Pradesh,Ujjain,"Mahakaleshwar Temple, Ujjain - MPPCB",22-01-2024 13:00:00,23.182719 ,75.768218 ,OZONE,66,83,78
India,Maharashtra,Ahmednagar,"Tarakpur, Ahmednagar - MPCB",22-01-2024 13:00:00,19.10122,74.73339,CO,18,42,41
India,Maharashtra,Ahmednagar,"Tarakpur, Ahmednagar - MPCB",22-01-2024 13:00:00,19.10122,74.73339,OZONE,134,159,146
India,Maharashtra,Akola,"Ramdaspeth, Akola - MPCB",22-01-2024 13:00:00,20.719516,77.000253,NO2,12,38,20
India,Maharashtra,Akola,"Ramdaspeth, Akola - MPCB",22-01-2024 13:00:00,20.719516,77.000253,SO2,2,12,4
India,Maharashtra,Amravati,"Shri Shivaji Science College, Amaravati - MPCB",22-01-2024 13:00:00,20.939198,77.765701,NH3,1,2,2
India,Maharashtra,Amravati,"Shri Shivaji Science College, Amaravati - MPCB",22-01-2024 13:00:00,20.939198,77.765701,SO2,14,44,19
India,Maharashtra,Aurangabad,"MIDC Chilkalthana, Aurangabad - MPCB",22-01-2024 13:00:00,19.875620,75.387310,PM2.5,78,235,118
India,Maharashtra,Aurangabad,"MIDC Chilkalthana, Aurangabad - MPCB",22-01-2024 13:00:00,19.875620,75.387310,PM10,83,159,106
India,Maharashtra,Aurangabad,"Rachnakar Colony, Aurangabad - MPCB",22-01-2024 13:00:00,19.863756,75.321188,PM10,106,167,125
India,Maharashtra,Aurangabad,"Rachnakar Colony, Aurangabad - MPCB",22-01-2024 13:00:00,19.863756,75.321188,NO2,19,72,35
India,Maharashtra,Badlapur,"Katrap, Badlapur - MPCB",22-01-2024 13:00:00,19.16485,73.23409,NO2,28,91,51
India,Maharashtra,Bhiwandi,"Gokul Nagar, Bhiwandi - MPCB",22-01-2024 13:00:00,19.309073,73.057223,PM2.5,51,306,158
India,Maharashtra,Boisar,"Khaira, Boisar - MPCB",22-01-2024 13:00:00,19.786089,72.757971,NO2,1,21,10
India,Maharashtra,Boisar,"Khaira, Boisar - MPCB",22-01-2024 13:00:00,19.786089,72.757971,SO2,12,106,34
India,Maharashtra,Boisar,"Khaira, Boisar - MPCB",22-01-2024 13:00:00,19.786089,72.757971,OZONE,68,74,71
India,Maharashtra,Chandrapur,"Chauhan Colony, Chandrapur - MPCB",22-01-2024 13:00:00,19.962900,79.298714,SO2,7,55,17
India,Maharashtra,Chandrapur,"MIDC Khutala, Chandrapur - MPCB",22-01-2024 13:00:00,19.9775302,79.2337086,CO,20,80,63
India,Maharashtra,Dhule,"Deopur, Dhule - MPCB",22-01-2024 13:00:00,20.918946,74.776388,NO2,8,24,13
India,Maharashtra,Dhule,"Deopur, Dhule - MPCB",22-01-2024 13:00:00,20.918946,74.776388,NH3,2,8,6
India,Maharashtra,Dhule,"Deopur, Dhule - MPCB",22-01-2024 13:00:00,20.918946,74.776388,OZONE,6,75,31
India,Maharashtra,Jalgaon,"Prabhat Colony, Jalgaon - MPCB",22-01-2024 13:00:00,21.001264,75.565602,NH3,7,9,8
India,Maharashtra,Jalgaon,"Prabhat Colony, Jalgaon - MPCB",22-01-2024 13:00:00,21.001264,75.565602,CO,13,28,18
India,Maharashtra,Jalna,"Old MIDC, Jalna - MPCB",22-01-2024 13:00:00,19.854616,75.905894,CO,30,37,34
India,Maharashtra,Kalyan,"Khadakpada, Kalyan - MPCB",22-01-2024 13:00:00,19.25292,73.142019,PM2.5,30,97,66
India,Maharashtra,Kalyan,"Khadakpada, Kalyan - MPCB",22-01-2024 13:00:00,19.25292,73.142019,PM10,64,166,116
India,Maharashtra,Kalyan,"Khadakpada, Kalyan - MPCB",22-01-2024 13:00:00,19.25292,73.142019,NO2,18,97,36
India,Maharashtra,Kalyan,"Khadakpada, Kalyan - MPCB",22-01-2024 13:00:00,19.25292,73.142019,NH3,1,2,1
India,Maharashtra,Kalyan,"Khadakpada, Kalyan - MPCB",22-01-2024 13:00:00,19.25292,73.142019,OZONE,8,31,16
India,Maharashtra,Latur,"Sawe Wadi, Latur - MPCB",22-01-2024 13:00:00,18.39963,76.57452,PM10,61,108,81
India,Maharashtra,Latur,"Sawe Wadi, Latur - MPCB",22-01-2024 13:00:00,18.39963,76.57452,OZONE,39,68,57
India,Maharashtra,Mahad,"Kamble Tarf Birwadi, Mahad - MPCB",22-01-2024 13:00:00,18.1023399,73.4783687,PM2.5,50,133,82
India,Maharashtra,Mahad,"Kamble Tarf Birwadi, Mahad - MPCB",22-01-2024 13:00:00,18.1023399,73.4783687,NO2,11,42,22
India,Maharashtra,Mira-Bhayandar,"Bhayandar West, Mira-Bhayandar - MPCB",22-01-2024 13:00:00,19.296481,72.840923,PM2.5,61,124,85
India,Maharashtra,Mira-Bhayandar,"Bhayandar West, Mira-Bhayandar - MPCB",22-01-2024 13:00:00,19.296481,72.840923,NO2,15,47,31
India,Maharashtra,Mumbai,"Bandra Kurla Complex, Mumbai - MPCB",22-01-2024 13:00:00,19.065931,72.862131,NO2,NA,NA,NA
India,Maharashtra,Mumbai,"Borivali East, Mumbai - IITM",22-01-2024 13:00:00,19.23241,72.86895,NH3,NA,NA,NA
India,Maharashtra,Mumbai,"Borivali East, Mumbai - IITM",22-01-2024 13:00:00,19.23241,72.86895,CO,2,78,28
India,Maharashtra,Mumbai,"Borivali East, Mumbai - MPCB",22-01-2024 13:00:00,19.2243333,72.8658113,CO,3,106,30
India,Maharashtra,Mumbai,"Byculla, Mumbai - BMC",22-01-2024 13:00:00,18.9767,72.8380,PM10,71,131,105
India,Maharashtra,Mumbai,"Byculla, Mumbai - BMC",22-01-2024 13:00:00,18.9767,72.8380,NH3,3,7,4
India,Maharashtra,Mumbai,"Byculla, Mumbai - BMC",22-01-2024 13:00:00,18.9767,72.8380,SO2,1,11,3
India,Maharashtra,Mumbai,"Chakala-Andheri East, Mumbai - IITM",22-01-2024 13:00:00,19.11074,72.86084,PM2.5,15,42,30
India,Maharashtra,Mumbai,"Chakala-Andheri East, Mumbai - IITM",22-01-2024 13:00:00,19.11074,72.86084,PM10,66,123,89
India,Maharashtra,Mumbai,"Chembur, Mumbai - MPCB",22-01-2024 13:00:00,19.0364585,72.8954371,PM2.5,83,251,126
India,Maharashtra,Mumbai,"Chhatrapati Shivaji Intl. Airport (T2), Mumbai - MPCB",22-01-2024 13:00:00,19.10078,72.87462,PM10,67,137,99
India,Maharashtra,Mumbai,"Chhatrapati Shivaji Intl. Airport (T2), Mumbai - MPCB",22-01-2024 13:00:00,19.10078,72.87462,NH3,4,7,6
India,Maharashtra,Mumbai,"Colaba, Mumbai - MPCB",22-01-2024 13:00:00,18.910000,72.820000,NO2,18,42,27
India,Maharashtra,Mumbai,"Colaba, Mumbai - MPCB",22-01-2024 13:00:00,18.910000,72.820000,SO2,6,9,8
India,Maharashtra,Mumbai,"Colaba, Mumbai - MPCB",22-01-2024 13:00:00,18.910000,72.820000,CO,12,28,19
India,Maharashtra,Mumbai,"Deonar, Mumbai - IITM",22-01-2024 13:00:00,19.04946,72.9230,PM10,NA,NA,NA
India,Maharashtra,Mumbai,"Deonar, Mumbai - IITM",22-01-2024 13:00:00,19.04946,72.9230,CO,2,2,2
India,Maharashtra,Mumbai,"Ghatkopar, Mumbai - BMC",22-01-2024 13:00:00,19.083694,72.920967,OZONE,4,47,12
India,Maharashtra,Mumbai,"Kandivali East, Mumbai - MPCB",22-01-2024 13:00:00,19.205800,72.868200,OZONE,25,31,29
India,Maharashtra,Mumbai,"Kandivali West, Mumbai - BMC",22-01-2024 13:00:00,19.215859,72.831718,PM10,80,123,102
India,Maharashtra,Mumbai,"Kandivali West, Mumbai - BMC",22-01-2024 13:00:00,19.215859,72.831718,NO2,18,103,44
India,Maharashtra,Mumbai,"Khindipada-Bhandup West, Mumbai - IITM",22-01-2024 13:00:00,19.1653323,72.922099,PM2.5,74,185,113
India,Maharashtra,Mumbai,"Khindipada-Bhandup West, Mumbai - IITM",22-01-2024 13:00:00,19.1653323,72.922099,CO,9,109,76
India,Maharashtra,Mumbai,"Kurla, Mumbai - MPCB",22-01-2024 13:00:00,19.0863,72.8888,SO2,32,32,32
India,Maharashtra,Mumbai,"Malad West, Mumbai - IITM",22-01-2024 13:00:00,19.19709,72.82204,PM2.5,12,319,153
India,Maharashtra,Mumbai,"Malad West, Mumbai - IITM",22-01-2024 13:00:00,19.19709,72.82204,PM10,NA,NA,NA
India,Maharashtra,Mumbai,"Mazgaon, Mumbai - IITM",22-01-2024 13:00:00,18.96702,72.84214,PM2.5,124,214,176
India,Maharashtra,Mumbai,"Mindspace-Malad West, Mumbai - MPCB",22-01-2024 13:00:00,19.1878657,72.8304069,PM10,103,177,135
India,Maharashtra,Mumbai,"Mindspace-Malad West, Mumbai - MPCB",22-01-2024 13:00:00,19.1878657,72.8304069,SO2,3,21,8
India,Maharashtra,Mumbai,"Mindspace-Malad West, Mumbai - MPCB",22-01-2024 13:00:00,19.1878657,72.8304069,OZONE,3,82,16
India,Maharashtra,Mumbai,"Mulund West, Mumbai - MPCB",22-01-2024 13:00:00,19.1750,72.9419,PM2.5,30,73,55
India,Maharashtra,Mumbai,"Mulund West, Mumbai - MPCB",22-01-2024 13:00:00,19.1750,72.9419,NO2,23,28,24
India,Maharashtra,Mumbai,"Mulund West, Mumbai - MPCB",22-01-2024 13:00:00,19.1750,72.9419,NH3,9,10,9
India,Maharashtra,Mumbai,"Mulund West, Mumbai - MPCB",22-01-2024 13:00:00,19.1750,72.9419,CO,18,18,18
India,Maharashtra,Mumbai,"Navy Nagar-Colaba, Mumbai - IITM",22-01-2024 13:00:00,18.897756,72.813320,PM2.5,57,92,74
India,Maharashtra,Mumbai,"Navy Nagar-Colaba, Mumbai - IITM",22-01-2024 13:00:00,18.897756,72.813320,PM10,79,157,107
India,Maharashtra,Mumbai,"Navy Nagar-Colaba, Mumbai - IITM",22-01-2024 13:00:00,18.897756,72.813320,OZONE,14,116,65
India,Maharashtra,Mumbai,"Powai, Mumbai - MPCB",22-01-2024 13:00:00,19.137500,72.915056,PM2.5,NA,NA,NA
India,Maharashtra,Mumbai,"Sewri, Mumbai - BMC",22-01-2024 13:00:00,19.000084,72.856730,PM2.5,75,241,136
India,Maharashtra,Mumbai,"Sewri, Mumbai - BMC",22-01-2024 13:00:00,19.000084,72.856730,PM10,88,180,118
India,Maharashtra,Mumbai,"Sewri, Mumbai - BMC",22-01-2024 13:00:00,19.000084,72.856730,NH3,1,17,12
India,Maharashtra,Mumbai,"Shivaji Nagar, Mumbai - BMC",22-01-2024 13:00:00,19.060498,72.923356,NH3,2,7,5
India,Maharashtra,Mumbai,"Shivaji Nagar, Mumbai - BMC",22-01-2024 13:00:00,19.060498,72.923356,OZONE,1,123,29
India,Maharashtra,Mumbai,"Sion, Mumbai - MPCB",22-01-2024 13:00:00,19.047000,72.874600,PM10,81,329,143
India,Maharashtra,Mumbai,"Sion, Mumbai - MPCB",22-01-2024 13:00:00,19.047000,72.874600,NO2,31,154,81
India,Maharashtra,Mumbai,"Vasai West, Mumbai - MPCB",22-01-2024 13:00:00,19.383200,72.820400,PM2.5,28,90,44
India,Maharashtra,Mumbai,"Vasai West, Mumbai - MPCB",22-01-2024 13:00:00,19.383200,72.820400,NH3,4,4,4
India,Maharashtra,Mumbai,"Worli, Mumbai - MPCB",22-01-2024 13:00:00,18.9936162,72.8128113,PM2.5,36,87,53
India,Maharashtra,Nagpur,"Opp GPO Civil Lines, Nagpur - MPCB",22-01-2024 13:00:00,21.152875,79.0517531,NH3,1,4,1
India,Maharashtra,Nagpur,"Opp GPO Civil Lines, Nagpur - MPCB",22-01-2024 13:00:00,21.152875,79.0517531,SO2,8,102,39
India,Maharashtra,Nagpur,"Ram Nagar, Nagpur - MPCB",22-01-2024 13:00:00,21.143383,79.048912,CO,20,100,27
India,Maharashtra,Nashik,"Gangapur Road, Nashik - MPCB",22-01-2024 13:00:00,20.0073285,73.7762427,OZONE,2,68,22
India,Maharashtra,Nashik,"Hirawadi, Nashik - MPCB",22-01-2024 13:00:00,20.021503,73.813844,OZONE,18,110,60
India,Maharashtra,Navi Mumbai,"Nerul, Navi Mumbai - MPCB",22-01-2024 13:00:00,19.008751,73.016620,NO2,23,40,34
India,Maharashtra,Navi Mumbai,"Sanpada, Navi Mumbai - MPCB",22-01-2024 13:00:00,19.0575752,73.0151367,PM10,76,152,119
India,Maharashtra,Navi Mumbai,"Sanpada, Navi Mumbai - MPCB",22-01-2024 13:00:00,19.0575752,73.0151367,NO2,6,20,14
India,Maharashtra,Navi Mumbai,"Sector-19A Nerul, Navi Mumbai - IITM",22-01-2024 13:00:00,19.044,73.0325,CO,31,116,61
India,Maharashtra,Navi Mumbai,"Sector-2E Kalamboli, Navi Mumbai - MPCB",22-01-2024 13:00:00,19.02579,73.10297,PM2.5,14,322,180
India,Maharashtra,Navi Mumbai,"Sector-2E Kalamboli, Navi Mumbai - MPCB",22-01-2024 13:00:00,19.02579,73.10297,NH3,7,18,11
India,Maharashtra,Navi Mumbai,"Sector-2E Kalamboli, Navi Mumbai - MPCB",22-01-2024 13:00:00,19.02579,73.10297,OZONE,1,92,29
India,Maharashtra,Navi Mumbai,"Tondare-Taloja, Navi Mumbai - MPCB",22-01-2024 13:00:00,19.0630,73.1209,NH3,NA,NA,NA
India,Maharashtra,Navi Mumbai,"Tondare-Taloja, Navi Mumbai - MPCB",22-01-2024 13:00:00,19.0630,73.1209,OZONE,24,120,77
India,Maharashtra,Parbhani,"Masoom Colony, Parbhani - MPCB",22-01-2024 13:00:00,19.265594,76.761463,NO2,10,57,22
India,Maharashtra,Pimpri-Chinchwad,"Gavalinagar, Pimpri Chinchwad - MPCB",22-01-2024 13:00:00,18.63673,73.82487,OZONE,1,180,62
India,Maharashtra,Pimpri-Chinchwad,"Park Street Wakad, Pimpri Chinchwad - MPCB",22-01-2024 13:00:00,18.59051,73.77946,NH3,7,18,13
India,Maharashtra,Pimpri-Chinchwad,"Park Street Wakad, Pimpri Chinchwad - MPCB",22-01-2024 13:00:00,18.59051,73.77946,SO2,6,18,9
India,Maharashtra,Pimpri-Chinchwad,"Thergaon, Pimpri Chinchwad - MPCB",22-01-2024 13:00:00,18.616318,73.765797,PM10,106,147,123
India,Maharashtra,Pune,"Bhosari, Pune - IITM",22-01-2024 13:00:00,18.640051,73.848956,PM2.5,23,191,91
India,Maharashtra,Pune,"Bhosari, Pune - IITM",22-01-2024 13:00:00,18.640051,73.848956,PM10,65,169,116
India,Maharashtra,Pune,"Bhosari, Pune - IITM",22-01-2024 13:00:00,18.640051,73.848956,CO,26,62,42
India,Maharashtra,Pune,"Bhosari, Pune - IITM",22-01-2024 13:00:00,18.640051,73.848956,OZONE,2,41,16
India,Maharashtra,Pune,"Karve Road, Pune - MPCB",22-01-2024 13:00:00,18.5011743,73.8165527,PM2.5,83,83,83
India,Maharashtra,Pune,"Karve Road, Pune - MPCB",22-01-2024 13:00:00,18.5011743,73.8165527,SO2,23,23,23
India,Maharashtra,Pune,"Karve Road, Pune - MPCB",22-01-2024 13:00:00,18.5011743,73.8165527,CO,72,72,72
India,Maharashtra,Pune,"Karve Road, Pune - MPCB",22-01-2024 13:00:00,18.5011743,73.8165527,OZONE,6,6,6
India,Maharashtra,Pune,"Katraj Dairy, Pune - MPCB",22-01-2024 13:00:00,18.454450,73.854155,CO,35,104,50
India,Maharashtra,Pune,"Revenue Colony-Shivajinagar, Pune - IITM",22-01-2024 13:00:00,18.530085,73.849598,CO,104,117,107
India,Maharashtra,Pune,"Savitribai Phule Pune University, Pune - MPCB",22-01-2024 13:00:00,18.547056,73.826908,NO2,NA,NA,NA
India,Maharashtra,Pune,"Transport Nagar-Nigdi, Pune - IITM",22-01-2024 13:00:00,18.664282,73.763966,NO2,24,34,29
India,Maharashtra,Pune,"Transport Nagar-Nigdi, Pune - IITM",22-01-2024 13:00:00,18.664282,73.763966,OZONE,5,66,33
India,Maharashtra,Sangli,"Vijay Nagar, Sangli - MPCB",22-01-2024 13:00:00, 16.5038,74.3623,SO2,7,18,12
India,Maharashtra,Sangli,"Vijay Nagar, Sangli - MPCB",22-01-2024 13:00:00, 16.5038,74.3623,OZONE,2,70,26
India,Maharashtra,Solapur,"Dnyaneshwar Nagar, Solapur - MPCB",22-01-2024 13:00:00,17.6336264,75.9132495,PM10,93,189,131
India,Maharashtra,Solapur,"Ratandeep Housing Society, Solapur - MPCB",22-01-2024 13:00:00,17.65439,75.90649,PM10,58,157,107
India,Maharashtra,Solapur,"Ratandeep Housing Society, Solapur - MPCB",22-01-2024 13:00:00,17.65439,75.90649,CO,18,106,24
India,Maharashtra,Solapur,"Ratandeep Housing Society, Solapur - MPCB",22-01-2024 13:00:00,17.65439,75.90649,OZONE,3,47,31
India,Maharashtra,Solapur,"Solapur, Solapur - MPCB",22-01-2024 13:00:00,17.6599188,75.9063906,SO2,29,40,34
India,Maharashtra,Thane,"Kasarvadavali, Thane - MPCB",22-01-2024 13:00:00,19.26777,72.97182,PM2.5,126,312,203
India,Maharashtra,Thane,"Upvan Fort, Thane - MPCB",22-01-2024 13:00:00,19.222279,72.957979,PM10,108,161,134
India,Maharashtra,Ulhasnagar,"Sidhi Vinayak Nagar, Ulhasnagar - MPCB",22-01-2024 13:00:00,19.235581,73.159121,PM10,99,338,158
India,Maharashtra,Ulhasnagar,"Sidhi Vinayak Nagar, Ulhasnagar - MPCB",22-01-2024 13:00:00,19.235581,73.159121,SO2,14,99,29
India,Maharashtra,Virar,"Bolinj, Virar - MPCB",22-01-2024 13:00:00,19.4458210,72.7988231,SO2,7,30,15
India,Manipur,Imphal,"DM College of Science, Imphal - Manipur PCB",22-01-2024 13:00:00,24.8207389,93.9423085,CO,6,6,6
India,Meghalaya,Shillong,"JN Stadium, Shillong - Meghalaya PCB",22-01-2024 13:00:00,25.5803419,91.8942571,SO2,28,30,29
India,Meghalaya,Shillong,"Lumpyngngad, Shillong - Meghalaya PCB",22-01-2024 13:00:00,25.5586,91.8985,OZONE,59,96,82
India,Mizoram,Aizawl,"Sikulpuikawn, Aizawl - Mizoram PCB",22-01-2024 13:00:00,23.7176342,92.7192841,PM10,22,107,47
India,Odisha,Balasore,"Kalidaspur, Balasore - OSPCB",22-01-2024 13:00:00,21.51161,86.89088,OZONE,4,86,34
India,Odisha,Baripada,"Meher Colony, Baripada - OSPCB",22-01-2024 13:00:00,21.941841,86.728318,NO2,2,4,3
India,Odisha,Bhubaneswar,"Lingraj Mandir, Bhubaneswar - OSPCB",22-01-2024 13:00:00,20.240790,85.836784,PM2.5,270,493,331
India,Odisha,Bhubaneswar,"Patia, Bhubaneswar - OSPCB",22-01-2024 13:00:00,20.34652,85.81630,OZONE,44,128,69
India,Odisha,Bileipada,"Tata Township, Bileipada - OSPCB",22-01-2024 13:00:00,22.06156703,85.47409613,PM10,116,227,164
India,Odisha,Brajrajnagar,"GM Office, Brajrajnagar - OSPCB",22-01-2024 13:00:00,21.8004996,83.8396977,PM2.5,18,198,59
India,Odisha,Brajrajnagar,"GM Office, Brajrajnagar - OSPCB",22-01-2024 13:00:00,21.8004996,83.8396977,PM10,26,172,70
India,Odisha,Byasanagar,"Ferro Chrome Colony, Byasanagar - OSPCB",22-01-2024 13:00:00,20.94185,86.11510,CO,72,118,94
India,Odisha,Cuttack,"CDA Area, Cuttack - OSPCB",22-01-2024 13:00:00,20.48891     ,85.84768     ,PM2.5,257,365,325
India,Odisha,Nayagarh,"Dabuna, Nayagarh - OSPCB",22-01-2024 13:00:00,21.847279,85.416905,SO2,2,4,3
India,Odisha,Nayagarh,"Dabuna, Nayagarh - OSPCB",22-01-2024 13:00:00,21.847279,85.416905,CO,28,40,34
India,Odisha,Nayagarh,"Dabuna, Nayagarh - OSPCB",22-01-2024 13:00:00,21.847279,85.416905,OZONE,2,13,6
India,Odisha,Rairangpur,"Divisional Forest Office, Rairangpur - OSPCB",22-01-2024 13:00:00,22.265816,86.174829,NH3,3,3,3
India,Odisha,Rairangpur,"Divisional Forest Office, Rairangpur - OSPCB",22-01-2024 13:00:00,22.265816,86.174829,CO,32,58,41
India,Odisha,Rourkela,"Fertilizer Township, Rourkela - OSPCB",22-01-2024 13:00:00,22.18972222,84.86277778,PM2.5,72,321,159
India,Odisha,Rourkela,"Fertilizer Township, Rourkela - OSPCB",22-01-2024 13:00:00,22.18972222,84.86277778,NO2,11,107,23
India,Odisha,Rourkela,"Raghunathpali, Rourkela - OSPCB",22-01-2024 13:00:00,22.220833,84.809444,PM2.5,NA,NA,NA
India,Odisha,Talcher,"Talcher Coalfields,Talcher - OSPCB",22-01-2024 13:00:00,20.9360711,85.1707021,PM10,47,110,81
India,Odisha,Tensa,"Barsua Iron Ore Mines, Tensa - OSPCB",22-01-2024 13:00:00,21.869985,85.167016,PM10,51,115,94
India,Odisha,Tensa,"Barsua Iron Ore Mines, Tensa - OSPCB",22-01-2024 13:00:00,21.869985,85.167016,NO2,53,75,62
India,Odisha,Tensa,"Barsua Iron Ore Mines, Tensa - OSPCB",22-01-2024 13:00:00,21.869985,85.167016,SO2,10,16,13
India,Punjab,Amritsar,"Golden Temple, Amritsar - PPCB",22-01-2024 13:00:00,31.620000,74.876512,SO2,20,22,21
India,Punjab,Bathinda,"Hardev Nagar, Bathinda - PPCB",22-01-2024 13:00:00,30.233011,74.907758,SO2,2,129,49
India,Punjab,Khanna,"Kalal Majra, Khanna - PPCB",22-01-2024 13:00:00,30.736056 ,76.209694,PM10,52,121,95
India,Punjab,Ludhiana,"Punjab Agricultural University, Ludhiana - PPCB",22-01-2024 13:00:00,30.9028,75.8086,PM10,114,176,146
India,Punjab,Mandi Gobindgarh,"RIMT University, Mandi Gobindgarh - PPCB",22-01-2024 13:00:00,30.649961,76.331442,PM10,122,243,170
India,Punjab,Mandi Gobindgarh,"RIMT University, Mandi Gobindgarh - PPCB",22-01-2024 13:00:00,30.649961,76.331442,CO,20,55,28
India,Punjab,Patiala,"Model Town, Patiala - PPCB",22-01-2024 13:00:00,30.349388,76.366642,NH3,6,7,7
India,Rajasthan,Ajmer,"Civil Lines,  Ajmer - RSPCB",22-01-2024 13:00:00,26.470859,74.646594,PM2.5,34,240,112
India,Rajasthan,Ajmer,"Civil Lines,  Ajmer - RSPCB",22-01-2024 13:00:00,26.470859,74.646594,NH3,19,52,37
India,Rajasthan,Alwar,"Moti Doongri, Alwar - RSPCB",22-01-2024 13:00:00,27.554793,76.611536,OZONE,7,24,9
India,Rajasthan,Banswara,"Rati Talai, Banswara - RSPCB",22-01-2024 13:00:00,23.555190,74.440010,PM10,80,229,117
India,Rajasthan,Baran,"Bamboliya, Baran - RSPCB",22-01-2024 13:00:00,25.106006,76.469948,CO,3,92,9
India,Rajasthan,Barmer,"Railway Colony, Barmer - RSPCB",22-01-2024 13:00:00,25.747299,71.393989,SO2,7,50,14
India,Rajasthan,Bharatpur,"Krishna Nagar, Bharatpur - RSPCB",22-01-2024 13:00:00,27.215415,77.50873,SO2,1,19,6
India,Rajasthan,Bharatpur,"Krishna Nagar, Bharatpur - RSPCB",22-01-2024 13:00:00,27.215415,77.50873,CO,74,157,109
India,Rajasthan,Bhiwadi,"RIICO Ind. Area III, Bhiwadi - RSPCB",22-01-2024 13:00:00,28.194909,76.862296,PM10,122,168,146
India,Rajasthan,Bikaner,"MM Ground, Bikaner - RSPCB",22-01-2024 13:00:00,28.018792,73.292658,PM10,110,454,259
India,Rajasthan,Chittorgarh,"Shastri Nagar, Chittorgarh - RSPCB",22-01-2024 13:00:00,24.892047,74.623527,SO2,2,98,18
India,Rajasthan,Chittorgarh,"Shastri Nagar, Chittorgarh - RSPCB",22-01-2024 13:00:00,24.892047,74.623527,OZONE,2,82,25
India,Rajasthan,Dausa,"Khatikan Mohalla, Dausa - RSPCB",22-01-2024 13:00:00,26.895552,76.334753,SO2,5,72,9
India,Rajasthan,Dausa,"Khatikan Mohalla, Dausa - RSPCB",22-01-2024 13:00:00,26.895552,76.334753,OZONE,31,118,50
India,Rajasthan,Dholpur,"Raja Ganj, Dholpur - RSPCB",22-01-2024 13:00:00,26.699557,77.898881,OZONE,1,125,13
India,Rajasthan,Dungarpur,"Bhoiwada, Dungarpur - RSPCB",22-01-2024 13:00:00,23.837789,73.714926,NH3,6,7,7
India,Rajasthan,Hanumangarh,"Housing Board, Hanumangarh - RSPCB",22-01-2024 13:00:00,29.610750,74.283608,NO2,17,43,26
India,Rajasthan,Hanumangarh,"Housing Board, Hanumangarh - RSPCB",22-01-2024 13:00:00,29.610750,74.283608,OZONE,7,23,18
India,Rajasthan,Jaipur,"Adarsh Nagar, Jaipur - RSPCB",22-01-2024 13:00:00,26.902909,75.836858,PM10,86,172,110
India,Rajasthan,Jaipur,"Adarsh Nagar, Jaipur - RSPCB",22-01-2024 13:00:00,26.902909,75.836858,OZONE,10,83,59
India,Rajasthan,Jaipur,"Mansarovar Sector-12, Jaipur - RSPCB",22-01-2024 13:00:00,26.843698,75.766894,PM2.5,32,361,163
India,Rajasthan,Jaipur,"Mansarovar Sector-12, Jaipur - RSPCB",22-01-2024 13:00:00,26.843698,75.766894,SO2,1,10,4
India,Rajasthan,Jaipur,"Police Commissionerate, Jaipur - RSPCB",22-01-2024 13:00:00,26.9164092,75.7994901,PM2.5,89,315,207
India,Rajasthan,Jaipur,"Police Commissionerate, Jaipur - RSPCB",22-01-2024 13:00:00,26.9164092,75.7994901,NO2,25,117,61
India,Rajasthan,Jaipur,"Police Commissionerate, Jaipur - RSPCB",22-01-2024 13:00:00,26.9164092,75.7994901,CO,24,108,41
India,Rajasthan,Jaipur,"RIICO Sitapura, Jaipur - RSPCB",22-01-2024 13:00:00,26.786682,75.827928,PM10,70,389,161
India,Rajasthan,Jaipur,"RIICO Sitapura, Jaipur - RSPCB",22-01-2024 13:00:00,26.786682,75.827928,NO2,28,150,60
India,Rajasthan,Jaipur,"RIICO Sitapura, Jaipur - RSPCB",22-01-2024 13:00:00,26.786682,75.827928,OZONE,2,127,57
India,Rajasthan,Jaipur,"Sector-2 Murlipura, Jaipur - RSPCB",22-01-2024 13:00:00,26.960669,75.771817,SO2,5,38,11
India,Rajasthan,Jaipur,"Shastri Nagar, Jaipur - RSPCB",22-01-2024 13:00:00,26.9502929,75.730943,PM2.5,57,273,141
India,Rajasthan,Jalore,"Mudtra Sili, Jalore - RSPCB",22-01-2024 13:00:00,25.344694,72.626208,SO2,7,14,10
India,Rajasthan,Jhalawar,"Rajlaxmi Nagar, Jhalawar - RSPCB",22-01-2024 13:00:00,24.588397,76.172782,NH3,5,10,7
India,Rajasthan,Jhalawar,"Rajlaxmi Nagar, Jhalawar - RSPCB",22-01-2024 13:00:00,24.588397,76.172782,CO,28,119,53
India,Rajasthan,Jodhpur,"Collectorate, Jodhpur - RSPCB",22-01-2024 13:00:00,26.268249,73.0193853,NO2,22,24,23
India,Rajasthan,Jodhpur,"Digari Kalan, Jodhpur - RSPCB",22-01-2024 13:00:00,26.295810,73.082283,PM2.5,9,182,75
India,Rajasthan,Jodhpur,"Digari Kalan, Jodhpur - RSPCB",22-01-2024 13:00:00,26.295810,73.082283,PM10,34,197,98
India,Rajasthan,Jodhpur,"Jhalamand, Jodhpur - RSPCB",22-01-2024 13:00:00,26.215415,73.070156,OZONE,8,127,46
India,Rajasthan,Jodhpur,"Samrat Ashok Udhyan, Jodhpur - RSPCB",22-01-2024 13:00:00,26.253384,72.976571,NO2,21,129,48
India,Rajasthan,Jodhpur,"Samrat Ashok Udhyan, Jodhpur - RSPCB",22-01-2024 13:00:00,26.253384,72.976571,SO2,7,20,10
India,Rajasthan,Jodhpur,"Samrat Ashok Udhyan, Jodhpur - RSPCB",22-01-2024 13:00:00,26.253384,72.976571,CO,33,101,52
India,Rajasthan,Karauli,"Satyawati Vihar, Karauli - RSPCB",22-01-2024 13:00:00,26.506177,77.025989,OZONE,12,57,26
India,Rajasthan,Kota,"Dhanmandi, Kota - RSPCB",22-01-2024 13:00:00,25.164090,75.858137,PM2.5,97,427,309
India,Rajasthan,Kota,"Nayapura, Kota - RSPCB",22-01-2024 13:00:00,25.196024,75.855668,PM2.5,97,424,282
India,Rajasthan,Kota,"Nayapura, Kota - RSPCB",22-01-2024 13:00:00,25.196024,75.855668,PM10,97,362,189
India,Rajasthan,Kota,"Nayapura, Kota - RSPCB",22-01-2024 13:00:00,25.196024,75.855668,NH3,8,17,11
India,Rajasthan,Kota,"Nayapura, Kota - RSPCB",22-01-2024 13:00:00,25.196024,75.855668,SO2,3,27,7
India,Rajasthan,Kota,"Nayapura, Kota - RSPCB",22-01-2024 13:00:00,25.196024,75.855668,OZONE,2,122,44
India,Rajasthan,Kota,"Shrinath Puram, Kota - RSPCB",22-01-2024 13:00:00,25.14389,75.821256,NO2,43,358,136
India,Rajasthan,Nagaur,"Karni Colony, Nagaur - RSPCB",22-01-2024 13:00:00,27.213494,73.734444,NH3,8,13,10
India,Rajasthan,Nagaur,"Karni Colony, Nagaur - RSPCB",22-01-2024 13:00:00,27.213494,73.734444,CO,40,91,69
India,Rajasthan,Pratapgarh,"Pragati Nagar, Pratapgarh - RSPCB",22-01-2024 13:00:00,24.041198,74.780702,NO2,15,50,22
India,Rajasthan,Rajsamand,"Dhoinda, Rajsamand - RSPCB",22-01-2024 13:00:00,25.036360,73.883502,NH3,2,17,6
India,Rajasthan,Sikar,"Radhakishan Pura, Sikar - RSPCB",22-01-2024 13:00:00,27.608912,75.153302,PM2.5,56,343,227
India,Rajasthan,Sikar,"Radhakishan Pura, Sikar - RSPCB",22-01-2024 13:00:00,27.608912,75.153302,PM10,108,196,146
India,Rajasthan,Sikar,"Radhakishan Pura, Sikar - RSPCB",22-01-2024 13:00:00,27.608912,75.153302,SO2,4,17,7
India,Rajasthan,Sikar,"Radhakishan Pura, Sikar - RSPCB",22-01-2024 13:00:00,27.608912,75.153302,CO,24,64,46
India,Rajasthan,Sikar,"Radhakishan Pura, Sikar - RSPCB",22-01-2024 13:00:00,27.608912,75.153302,OZONE,12,121,65
India,Rajasthan,Sirohi,"Vedhaynath Colony, Sirohi - RSPCB",22-01-2024 13:00:00,24.885261,72.857549,PM10,27,220,67
India,Rajasthan,Sri Ganganagar,"Old City, Sri Ganganagar - RSPCB",22-01-2024 13:00:00,29.931624,73.864511,PM10,137,314,193
India,Rajasthan,Sri Ganganagar,"Old City, Sri Ganganagar - RSPCB",22-01-2024 13:00:00,29.931624,73.864511,NH3,4,15,8
India,Rajasthan,Tonk,"Shastri Nagar, Tonk - RSPCB",22-01-2024 13:00:00,26.159933,75.780517,OZONE,1,94,28
India,Rajasthan,Udaipur,"Ashok Nagar, Udaipur - RSPCB",22-01-2024 13:00:00,24.5886166,73.6321397,PM2.5,58,304,139
India,Rajasthan,Udaipur,"Ashok Nagar, Udaipur - RSPCB",22-01-2024 13:00:00,24.5886166,73.6321397,NO2,37,138,70
India,Rajasthan,Udaipur,"Ashok Nagar, Udaipur - RSPCB",22-01-2024 13:00:00,24.5886166,73.6321397,CO,32,126,47
India,Sikkim,Gangtok,"Zero Point GICI, Gangtok - SSPCB",22-01-2024 13:00:00,27.338530,88.614099,PM2.5,17,35,25
India,Sikkim,Gangtok,"Zero Point GICI, Gangtok - SSPCB",22-01-2024 13:00:00,27.338530,88.614099,CO,17,29,20
India,TamilNadu,Chengalpattu,"Crescent University, Chengalpattu - TNPCB",22-01-2024 13:00:00,12.8777316,80.0834807,SO2,NA,NA,NA
India,TamilNadu,Chennai,"Alandur Bus Depot, Chennai - CPCB",22-01-2024 13:00:00,12.9099161,80.1076538,PM2.5,64,158,97
India,TamilNadu,Chennai,"Alandur Bus Depot, Chennai - CPCB",22-01-2024 13:00:00,12.9099161,80.1076538,NO2,15,218,50
India,TamilNadu,Chennai,"Alandur Bus Depot, Chennai - CPCB",22-01-2024 13:00:00,12.9099161,80.1076538,SO2,25,27,26
India,TamilNadu,Chennai,"Arumbakkam, Chennai - TNPCB",22-01-2024 13:00:00,13.0664,80.2112 ,NO2,7,49,18
India,TamilNadu,Chennai,"Arumbakkam, Chennai - TNPCB",22-01-2024 13:00:00,13.0664,80.2112 ,NH3,1,5,3
India,TamilNadu,Chennai,"Arumbakkam, Chennai - TNPCB",22-01-2024 13:00:00,13.0664,80.2112 ,SO2,1,26,6
India,TamilNadu,Chennai,"Kodungaiyur, Chennai - TNPCB",22-01-2024 13:00:00,13.1278,80.2642,PM10,35,152,66
India,TamilNadu,Chennai,"Kodungaiyur, Chennai - TNPCB",22-01-2024 13:00:00,13.1278,80.2642,OZONE,6,6,6
India,TamilNadu,Chennai,"Manali, Chennai - CPCB",22-01-2024 13:00:00,13.164544,80.26285,OZONE,8,15,9
India,TamilNadu,Chennai,"Perungudi, Chennai - TNPCB",22-01-2024 13:00:00,12.9533,80.2357,PM10,35,371,79
India,TamilNadu,Chennai,"Perungudi, Chennai - TNPCB",22-01-2024 13:00:00,12.9533,80.2357,NO2,3,15,6
India,TamilNadu,Chennai,"Velachery Res. Area, Chennai - CPCB",22-01-2024 13:00:00,13.0052189,80.2398125,PM2.5,21,64,34
India,TamilNadu,Chennai,"Velachery Res. Area, Chennai - CPCB",22-01-2024 13:00:00,13.0052189,80.2398125,CO,24,75,40
India,TamilNadu,Chennai,"Velachery Res. Area, Chennai - CPCB",22-01-2024 13:00:00,13.0052189,80.2398125,OZONE,19,37,26
India,TamilNadu,Cuddalore,"Kudikadu, Cuddalore - TNPCB",22-01-2024 13:00:00,11.6829898,79.7532099,SO2,16,17,16
India,TamilNadu,Cuddalore,"Semmandalam, Cuddalore - TNPCB",22-01-2024 13:00:00,11.7637683,79.7499835,PM2.5,22,85,50
India,TamilNadu,Kanchipuram,"Kilambi, Kanchipuram - TNPCB",22-01-2024 13:00:00,12.864618,79.659968,OZONE,1,3,2
India,TamilNadu,Ooty,"Bombay Castel, Ooty - TNPCB",22-01-2024 13:00:00,11.4068288,76.7138973,CO,17,18,17
India,TamilNadu,Ramanathapuram,"Chalai Bazaar, Ramanathapuram - TNPCB",22-01-2024 13:00:00,9.36399,78.831977,PM2.5,27,45,35
India,TamilNadu,Ramanathapuram,"Chalai Bazaar, Ramanathapuram - TNPCB",22-01-2024 13:00:00,9.36399,78.831977,PM10,26,74,50
India,TamilNadu,Ramanathapuram,"Chalai Bazaar, Ramanathapuram - TNPCB",22-01-2024 13:00:00,9.36399,78.831977,CO,7,23,15
India,TamilNadu,Thoothukudi,"Meelavittan, Thoothukudi - TNPCB",22-01-2024 13:00:00,8.816428 ,78.099039,CO,1,40,21
India,TamilNadu,Thoothukudi,"Meelavittan, Thoothukudi - TNPCB",22-01-2024 13:00:00,8.816428 ,78.099039,OZONE,11,122,32
India,TamilNadu,Tirupur,"Kumaran College, Tirupur - TNPCB",22-01-2024 13:00:00,11.0973603,77.3228673,NO2,6,73,18
India,TamilNadu,Tirupur,"Kumaran College, Tirupur - TNPCB",22-01-2024 13:00:00,11.0973603,77.3228673,SO2,19,19,19
India,TamilNadu,Virudhunagar,"Collectorate Office, Virudhunagar - TNPCB",22-01-2024 13:00:00,9.559382,77.948828,PM2.5,25,53,38
India,TamilNadu,Virudhunagar,"Collectorate Office, Virudhunagar - TNPCB",22-01-2024 13:00:00,9.559382,77.948828,PM10,30,63,46
India,Telangana,Hyderabad,"Bollaram Industrial Area, Hyderabad - TSPCB",22-01-2024 13:00:00,17.540891,78.358528,OZONE,37,39,37
India,Telangana,Hyderabad,"ICRISAT Patancheru, Hyderabad - TSPCB",22-01-2024 13:00:00,17.518400,78.278777,PM10,36,98,55
India,Telangana,Hyderabad,"ICRISAT Patancheru, Hyderabad - TSPCB",22-01-2024 13:00:00,17.518400,78.278777,SO2,11,19,15
India,Telangana,Hyderabad,"ICRISAT Patancheru, Hyderabad - TSPCB",22-01-2024 13:00:00,17.518400,78.278777,OZONE,6,94,31
India,Telangana,Hyderabad,"IITH Kandi, Hyderabad - TSPCB",22-01-2024 13:00:00,17.585705,78.126199,OZONE,28,28,28
India,Telangana,Hyderabad,"Kompally Municipal Office, Hyderabad - TSPCB",22-01-2024 13:00:00,17.544899,78.486949,PM10,NA,NA,NA
India,Telangana,Hyderabad,"Kompally Municipal Office, Hyderabad - TSPCB",22-01-2024 13:00:00,17.544899,78.486949,SO2,NA,NA,NA
India,Telangana,Hyderabad,"Kompally Municipal Office, Hyderabad - TSPCB",22-01-2024 13:00:00,17.544899,78.486949,CO,12,36,26
India,Telangana,Hyderabad,"Kompally Municipal Office, Hyderabad - TSPCB",22-01-2024 13:00:00,17.544899,78.486949,OZONE,16,59,42
India,Telangana,Hyderabad,"Nacharam_TSIIC IALA, Hyderabad - TSPCB",22-01-2024 13:00:00,17.429398,78.569354,OZONE,27,36,34
India,Telangana,Hyderabad,"New Malakpet, Hyderabad - TSPCB",22-01-2024 13:00:00,17.37206,78.50864,NO2,18,27,21
India,Telangana,Hyderabad,"New Malakpet, Hyderabad - TSPCB",22-01-2024 13:00:00,17.37206,78.50864,OZONE,3,27,10
India,Telangana,Hyderabad,"Ramachandrapuram, Hyderabad - TSPCB",22-01-2024 13:00:00,17.528544,78.286195,NH3,NA,NA,NA
India,Telangana,Hyderabad,"Somajiguda, Hyderabad - TSPCB",22-01-2024 13:00:00,17.417094,78.457437,NO2,NA,NA,NA
India,Telangana,Hyderabad,"Somajiguda, Hyderabad - TSPCB",22-01-2024 13:00:00,17.417094,78.457437,NH3,NA,NA,NA
India,Telangana,Hyderabad,"Zoo Park, Hyderabad - TSPCB",22-01-2024 13:00:00,17.349694,78.451437,PM10,30,101,58
India,Telangana,Hyderabad,"Zoo Park, Hyderabad - TSPCB",22-01-2024 13:00:00,17.349694,78.451437,NH3,1,1,1
India,Tripura,Agartala,"Bardowali, Agartala - Tripura SPCB",22-01-2024 13:00:00,23.8175497,91.2726974,OZONE,1,7,4
India,Uttar_Pradesh,Agra,"Manoharpur, Agra - UPPCB",22-01-2024 13:00:00,27.23711,78.01936,NO2,22,22,22
India,Uttar_Pradesh,Agra,"Rohta, Agra - UPPCB",22-01-2024 13:00:00,27.106972,78.000111,SO2,10,45,23
India,Uttar_Pradesh,Agra,"Rohta, Agra - UPPCB",22-01-2024 13:00:00,27.106972,78.000111,CO,18,80,31
India,Uttar_Pradesh,Agra,"Sanjay Palace, Agra - UPPCB",22-01-2024 13:00:00,27.19865833,78.00598056,CO,NA,NA,NA
India,Uttar_Pradesh,Agra,"Sanjay Palace, Agra - UPPCB",22-01-2024 13:00:00,27.19865833,78.00598056,OZONE,NA,NA,NA
India,Uttar_Pradesh,Agra,"Shahjahan Garden, Agra - UPPCB",22-01-2024 13:00:00,27.169338,78.03582,PM10,58,232,118
India,Uttar_Pradesh,Agra,"Shastripuram, Agra - UPPCB",22-01-2024 13:00:00,27.19862,77.92066,OZONE,1,27,3
India,Uttar_Pradesh,Baghpat,"Sardar Patel Inter College, Baghpat - UPPCB",22-01-2024 13:00:00,28.964949,77.278761,NO2,32,74,42
India,Uttar_Pradesh,Baghpat,"Sardar Patel Inter College, Baghpat - UPPCB",22-01-2024 13:00:00,28.964949,77.278761,CO,39,56,51
India,Uttar_Pradesh,Bareilly,"Rajendra Nagar, Bareilly - UPPCB",22-01-2024 13:00:00,28.38910936,79.42963708,NO2,33,53,42
India,Uttar_Pradesh,Bareilly,"Rajendra Nagar, Bareilly - UPPCB",22-01-2024 13:00:00,28.38910936,79.42963708,CO,56,76,61
India,Uttar_Pradesh,Bulandshahr,"Yamunapuram, Bulandshahr - UPPCB",22-01-2024 13:00:00,28.406963,77.849831,NH3,11,18,14
India,Uttar_Pradesh,Firozabad,"Nagla Bhau, Firozabad - UPPCB",22-01-2024 13:00:00,27.168897,78.376960,NO2,12,17,17
India,Uttar_Pradesh,Firozabad,"Nagla Bhau, Firozabad - UPPCB",22-01-2024 13:00:00,27.168897,78.376960,OZONE,23,54,30
India,Uttar_Pradesh,Firozabad,"Vibhab Nagar, Firozabad - UPPCB",22-01-2024 13:00:00,27.1594,78.3953,NH3,2,2,2
India,Uttar_Pradesh,Ghaziabad,"Indirapuram, Ghaziabad - UPPCB",22-01-2024 13:00:00,28.646233,77.358075,NH3,5,13,7
India,Uttar_Pradesh,Ghaziabad,"Sanjay Nagar, Ghaziabad - UPPCB",22-01-2024 13:00:00,28.685382,77.453839,NO2,49,80,61
India,Uttar_Pradesh,Ghaziabad,"Vasundhara, Ghaziabad - UPPCB",22-01-2024 13:00:00,28.6603346,77.3572563,NO2,31,81,56
India,Uttar_Pradesh,Ghaziabad,"Vasundhara, Ghaziabad - UPPCB",22-01-2024 13:00:00,28.6603346,77.3572563,SO2,2,19,9
India,Uttar_Pradesh,Gorakhpur,"Madan Mohan Malaviya University of Technology, Gorakhpur - UPPCB",22-01-2024 13:00:00,26.730136,83.433859,PM10,83,130,108
India,Uttar_Pradesh,Gorakhpur,"Madan Mohan Malaviya University of Technology, Gorakhpur - UPPCB",22-01-2024 13:00:00,26.730136,83.433859,CO,36,63,51
India,Uttar_Pradesh,Greater Noida,"Knowledge Park - V, Greater Noida - UPPCB",22-01-2024 13:00:00,28.557054,77.453663,PM2.5,208,347,303
India,Uttar_Pradesh,Greater Noida,"Knowledge Park - V, Greater Noida - UPPCB",22-01-2024 13:00:00,28.557054,77.453663,PM10,126,273,208
India,Uttar_Pradesh,Greater Noida,"Knowledge Park - V, Greater Noida - UPPCB",22-01-2024 13:00:00,28.557054,77.453663,NO2,19,51,29
India,Uttar_Pradesh,Greater Noida,"Knowledge Park - V, Greater Noida - UPPCB",22-01-2024 13:00:00,28.557054,77.453663,NH3,5,10,6
India,Uttar_Pradesh,Greater Noida,"Knowledge Park - V, Greater Noida - UPPCB",22-01-2024 13:00:00,28.557054,77.453663,CO,5,58,31
India,Uttar_Pradesh,Hapur,"Anand Vihar, Hapur - UPPCB",22-01-2024 13:00:00,28.725645,77.749675,SO2,12,35,26
India,Uttar_Pradesh,Jhansi,"Shivaji Nagar, Jhansi - UPPCB",22-01-2024 13:00:00,25.4547,78.6039,NO2,18,38,25
India,Uttar_Pradesh,Jhansi,"Shivaji Nagar, Jhansi - UPPCB",22-01-2024 13:00:00,25.4547,78.6039,NH3,6,6,6
India,Uttar_Pradesh,Jhansi,"Shivaji Nagar, Jhansi - UPPCB",22-01-2024 13:00:00,25.4547,78.6039,SO2,10,16,12
India,Uttar_Pradesh,Kanpur,"FTI Kidwai Nagar, Kanpur - UPPCB",22-01-2024 13:00:00,26.428282,80.327067,NH3,2,5,3
India,Uttar_Pradesh,Kanpur,"FTI Kidwai Nagar, Kanpur - UPPCB",22-01-2024 13:00:00,26.428282,80.327067,OZONE,3,9,5
India,Uttar_Pradesh,Kanpur,"NSI Kalyanpur, Kanpur - UPPCB",22-01-2024 13:00:00,26.509954,80.249612,PM10,120,151,135
India,Uttar_Pradesh,Kanpur,"NSI Kalyanpur, Kanpur - UPPCB",22-01-2024 13:00:00,26.509954,80.249612,SO2,23,24,23
India,Uttar_Pradesh,Kanpur,"Nehru Nagar, Kanpur - UPPCB",22-01-2024 13:00:00,26.4703136,80.3229863,PM2.5,106,317,188
India,Uttar_Pradesh,Khurja,"Kalindi Kunj, Khurja - UPPCB",22-01-2024 13:00:00,28.2348927,77.8683002,PM10,43,193,93
India,Uttar_Pradesh,Khurja,"Kalindi Kunj, Khurja - UPPCB",22-01-2024 13:00:00,28.2348927,77.8683002,OZONE,21,48,39
India,Uttar_Pradesh,Lucknow,"B R Ambedkar University, Lucknow - UPPCB",22-01-2024 13:00:00,26.766433,80.927299,PM10,89,134,102
India,Uttar_Pradesh,Lucknow,"Kendriya Vidyalaya, Lucknow - CPCB",22-01-2024 13:00:00,26.906111,80.948222,PM2.5,NA,NA,NA
India,Uttar_Pradesh,Lucknow,"Kendriya Vidyalaya, Lucknow - CPCB",22-01-2024 13:00:00,26.906111,80.948222,SO2,NA,NA,NA
India,Uttar_Pradesh,Lucknow,"Kukrail Picnic Spot-1, Lucknow - UPPCB",22-01-2024 13:00:00,26.90723,80.98579,CO,23,31,25
India,Uttar_Pradesh,Lucknow,"Lalbagh, Lucknow - CPCB",22-01-2024 13:00:00,26.8458805,80.9365541,PM2.5,204,333,286
India,Uttar_Pradesh,Lucknow,"Lalbagh, Lucknow - CPCB",22-01-2024 13:00:00,26.8458805,80.9365541,OZONE,8,29,19
India,Uttar_Pradesh,Lucknow,"Talkatora District Industries Center, Lucknow - CPCB",22-01-2024 13:00:00,26.83399722,80.8917361,CO,22,46,30
India,Uttar_Pradesh,Meerut,"Ganga Nagar, Meerut - UPPCB",22-01-2024 13:00:00,28.999264,77.7590354,PM10,118,206,150
India,Uttar_Pradesh,Meerut,"Jai Bhim Nagar, Meerut - UPPCB",22-01-2024 13:00:00,28.9535882,77.7622941,PM2.5,98,279,160
India,Uttar_Pradesh,Meerut,"Jai Bhim Nagar, Meerut - UPPCB",22-01-2024 13:00:00,28.9535882,77.7622941,NO2,15,43,24
India,Uttar_Pradesh,Meerut,"Jai Bhim Nagar, Meerut - UPPCB",22-01-2024 13:00:00,28.9535882,77.7622941,NH3,7,11,9
India,Uttar_Pradesh,Meerut,"Jai Bhim Nagar, Meerut - UPPCB",22-01-2024 13:00:00,28.9535882,77.7622941,SO2,3,7,4
India,Uttar_Pradesh,Meerut,"Pallavpuram Phase 2, Meerut - UPPCB",22-01-2024 13:00:00,29.063510,77.709723,SO2,4,4,4
India,Uttar_Pradesh,Moradabad,"Buddhi Vihar, Moradabad - UPPCB",22-01-2024 13:00:00,28.83526,78.74460,NO2,22,24,23
India,Uttar_Pradesh,Moradabad,"Eco Herbal Park, Moradabad - UPPCB",22-01-2024 13:00:00,28.840739,78.697531,PM2.5,120,305,182
India,Uttar_Pradesh,Moradabad,"Eco Herbal Park, Moradabad - UPPCB",22-01-2024 13:00:00,28.840739,78.697531,PM10,88,137,109
India,Uttar_Pradesh,Moradabad,"Eco Herbal Park, Moradabad - UPPCB",22-01-2024 13:00:00,28.840739,78.697531,NH3,2,47,8
India,Uttar_Pradesh,Moradabad,"Eco Herbal Park, Moradabad - UPPCB",22-01-2024 13:00:00,28.840739,78.697531,SO2,5,22,12
India,Uttar_Pradesh,Moradabad,"Eco Herbal Park, Moradabad - UPPCB",22-01-2024 13:00:00,28.840739,78.697531,OZONE,4,9,4
India,Uttar_Pradesh,Moradabad,"Employment Office, Moradabad - UPPCB",22-01-2024 13:00:00,28.88528,78.73880,PM10,108,185,135
India,Uttar_Pradesh,Moradabad,"Employment Office, Moradabad - UPPCB",22-01-2024 13:00:00,28.88528,78.73880,NO2,22,24,23
India,Uttar_Pradesh,Moradabad,"Employment Office, Moradabad - UPPCB",22-01-2024 13:00:00,28.88528,78.73880,OZONE,14,18,16
India,Uttar_Pradesh,Moradabad,"Jigar Colony, Moradabad - UPPCB",22-01-2024 13:00:00,28.856664,78.772638,NO2,22,24,23
India,Uttar_Pradesh,Moradabad,"Kashiram Nagar, Moradabad - UPPCB",22-01-2024 13:00:00,28.849399,78.742362,PM10,87,144,114
India,Uttar_Pradesh,Moradabad,"Transport Nagar, Moradabad - UPPCB",22-01-2024 13:00:00,28.802625,78.753728,SO2,40,44,42
India,Uttar_Pradesh,Moradabad,"Transport Nagar, Moradabad - UPPCB",22-01-2024 13:00:00,28.802625,78.753728,CO,14,42,35
India,Uttar_Pradesh,Noida,"Sector - 125, Noida - UPPCB",22-01-2024 13:00:00,28.5447608,77.3231257,CO,41,82,45
India,Uttar_Pradesh,Noida,"Sector - 62, Noida - IMD",22-01-2024 13:00:00,28.6245479,77.3577104,CO,NA,NA,NA
India,Uttar_Pradesh,Noida,"Sector - 62, Noida - IMD",22-01-2024 13:00:00,28.6245479,77.3577104,OZONE,NA,NA,NA
India,Uttar_Pradesh,Noida,"Sector-1, Noida - UPPCB",22-01-2024 13:00:00,28.5898,77.3101,NO2,42,84,60
India,Uttar_Pradesh,Noida,"Sector-1, Noida - UPPCB",22-01-2024 13:00:00,28.5898,77.3101,NH3,7,13,10
India,Uttar_Pradesh,Noida,"Sector-1, Noida - UPPCB",22-01-2024 13:00:00,28.5898,77.3101,SO2,8,14,10
India,Uttar_Pradesh,Noida,"Sector-116, Noida - UPPCB",22-01-2024 13:00:00,28.569230,77.393848,PM2.5,246,360,312
India,Uttar_Pradesh,Noida,"Sector-116, Noida - UPPCB",22-01-2024 13:00:00,28.569230,77.393848,NO2,28,67,44
India,Uttar_Pradesh,Noida,"Sector-116, Noida - UPPCB",22-01-2024 13:00:00,28.569230,77.393848,CO,24,71,48
India,Uttar_Pradesh,Prayagraj,"Jhunsi, Prayagraj - UPPCB",22-01-2024 13:00:00,25.425602,81.917152,PM2.5,44,333,98
India,Uttar_Pradesh,Prayagraj,"Jhunsi, Prayagraj - UPPCB",22-01-2024 13:00:00,25.425602,81.917152,NO2,6,6,6
India,Uttar_Pradesh,Prayagraj,"Jhunsi, Prayagraj - UPPCB",22-01-2024 13:00:00,25.425602,81.917152,SO2,30,33,31
India,Uttar_Pradesh,Prayagraj,"Jhunsi, Prayagraj - UPPCB",22-01-2024 13:00:00,25.425602,81.917152,CO,24,116,36
India,Uttar_Pradesh,Prayagraj,"Motilal Nehru NIT, Prayagraj - UPPCB",22-01-2024 13:00:00,25.494,81.863,NO2,12,12,12
India,Uttar_Pradesh,Prayagraj,"Nagar Nigam, Prayagraj - UPPCB",22-01-2024 13:00:00,25.44919916 ,81.82735986 ,SO2,9,40,22
India,Uttar_Pradesh,Prayagraj,"Nagar Nigam, Prayagraj - UPPCB",22-01-2024 13:00:00,25.44919916 ,81.82735986 ,OZONE,4,12,8
India,Uttar_Pradesh,Varanasi,"Ardhali Bazar, Varanasi - UPPCB",22-01-2024 13:00:00,25.3505986,82.9083074,NO2,19,41,27
India,Uttar_Pradesh,Varanasi,"Bhelupur, Varanasi - UPPCB",22-01-2024 13:00:00,25.301778,82.996789,PM2.5,23,77,41
India,Uttar_Pradesh,Varanasi,"Bhelupur, Varanasi - UPPCB",22-01-2024 13:00:00,25.301778,82.996789,CO,18,115,50
India,Uttar_Pradesh,Varanasi,"Bhelupur, Varanasi - UPPCB",22-01-2024 13:00:00,25.301778,82.996789,OZONE,3,40,5
India,Uttar_Pradesh,Varanasi,"IESD Banaras Hindu University, Varanasi - UPPCB",22-01-2024 13:00:00,25.262326,82.995408,NO2,2,3,2
India,Uttar_Pradesh,Vrindavan,"Omex Eternity, Vrindavan - UPPCB",22-01-2024 13:00:00,27.5714090,77.6557570,CO,44,112,49
India,Uttar_Pradesh,Vrindavan,"Omex Eternity, Vrindavan - UPPCB",22-01-2024 13:00:00,27.5714090,77.6557570,OZONE,29,31,30
India,Uttarakhand,Dehradun,"Doon University, Dehradun - UKPCB",22-01-2024 13:00:00,30.269444,78.044167,SO2,1,1,1
India,Uttarakhand,Kashipur,"Govt. Girls Inter College, Kashipur - UKPCB",22-01-2024 13:00:00,29.2124114,78.9611753,PM2.5,137,238,170
India,Uttarakhand,Kashipur,"Govt. Girls Inter College, Kashipur - UKPCB",22-01-2024 13:00:00,29.2124114,78.9611753,PM10,91,147,120
India,Uttarakhand,Kashipur,"Govt. Girls Inter College, Kashipur - UKPCB",22-01-2024 13:00:00,29.2124114,78.9611753,OZONE,2,6,5
India,Uttarakhand,Rishikesh,"Shivaji Nagar, Rishikesh - UKPCB",22-01-2024 13:00:00,30.075911,78.2859547,NO2,6,11,8
India,Uttarakhand,Rishikesh,"Shivaji Nagar, Rishikesh - UKPCB",22-01-2024 13:00:00,30.075911,78.2859547,NH3,3,3,3
India,West_Bengal,Asansol,"Asansol Court Area, Asansol - WBPCB",22-01-2024 13:00:00,23.685297,86.945968,CO,6,51,20
India,West_Bengal,Barrackpore,"SVSPA Campus, Barrackpore - WBPCB",22-01-2024 13:00:00,22.7605581,88.3617589,PM2.5,227,347,308
India,West_Bengal,Barrackpore,"SVSPA Campus, Barrackpore - WBPCB",22-01-2024 13:00:00,22.7605581,88.3617589,NO2,15,63,30
India,West_Bengal,Barrackpore,"SVSPA Campus, Barrackpore - WBPCB",22-01-2024 13:00:00,22.7605581,88.3617589,OZONE,8,56,22
India,West_Bengal,Durgapur,"Sidhu Kanhu Indoor Stadium, Durgapur - WBPCB",22-01-2024 13:00:00,23.5404352,87.2892225,NO2,19,40,31
India,West_Bengal,Durgapur,"Sidhu Kanhu Indoor Stadium, Durgapur - WBPCB",22-01-2024 13:00:00,23.5404352,87.2892225,OZONE,2,41,14
India,West_Bengal,Haldia,"Priyambada Housing Estate, Haldia - WBPCB",22-01-2024 13:00:00,22.06047,88.109737,NO2,29,53,37
India,West_Bengal,Haldia,"Priyambada Housing Estate, Haldia - WBPCB",22-01-2024 13:00:00,22.06047,88.109737,NH3,4,5,4
India,West_Bengal,Haldia,"Priyambada Housing Estate, Haldia - WBPCB",22-01-2024 13:00:00,22.06047,88.109737,CO,36,86,57
India,West_Bengal,Kolkata,"Ballygunge, Kolkata - WBPCB",22-01-2024 13:00:00,22.5367507,88.3638022,NO2,36,134,77
India,West_Bengal,Kolkata,"Bidhannagar, Kolkata - WBPCB",22-01-2024 13:00:00,22.58157048,88.41002457,OZONE,5,33,13
India,West_Bengal,Kolkata,"Fort William, Kolkata - WBPCB",22-01-2024 13:00:00,22.556640,88.342674,PM2.5,36,179,91
India,West_Bengal,Kolkata,"Jadavpur, Kolkata - WBPCB",22-01-2024 13:00:00,22.49929,88.36917,SO2,3,6,4
India,West_Bengal,Kolkata,"Rabindra Bharati University, Kolkata - WBPCB",22-01-2024 13:00:00,22.627847,88.380669,PM10,134,249,162
India,West_Bengal,Kolkata,"Rabindra Bharati University, Kolkata - WBPCB",22-01-2024 13:00:00,22.627847,88.380669,NO2,20,22,21
India,West_Bengal,Kolkata,"Rabindra Bharati University, Kolkata - WBPCB",22-01-2024 13:00:00,22.627847,88.380669,CO,30,103,35
India,West_Bengal,Kolkata,"Rabindra Sarobar, Kolkata - WBPCB",22-01-2024 13:00:00,22.51106,88.35142,SO2,9,32,17
India,West_Bengal,Siliguri,"Ward-32 Bapupara, Siliguri - WBPCB",22-01-2024 13:00:00,26.6879226,88.4152495,OZONE,9,50,26
India,Andhra_Pradesh,Anantapur,"Gulzarpet, Anantapur - APPCB",22-01-2024 13:00:00,14.675886,77.593027,NO2,18,49,28
India,Andhra_Pradesh,Anantapur,"Gulzarpet, Anantapur - APPCB",22-01-2024 13:00:00,14.675886,77.593027,NH3,2,3,3
India,Andhra_Pradesh,Chittoor,"Gangineni Cheruvu, Chittoor - APPCB",22-01-2024 13:00:00,13.204880,79.097889,NO2,NA,NA,NA
India,Andhra_Pradesh,Chittoor,"Gangineni Cheruvu, Chittoor - APPCB",22-01-2024 13:00:00,13.204880,79.097889,SO2,NA,NA,NA
India,Andhra_Pradesh,Kadapa,"Yerramukkapalli, Kadapa - APPCB",22-01-2024 13:00:00,14.465052,78.824187,NO2,9,10,9
India,Andhra_Pradesh,Kadapa,"Yerramukkapalli, Kadapa - APPCB",22-01-2024 13:00:00,14.465052,78.824187,SO2,1,2,1
India,Andhra_Pradesh,Kadapa,"Yerramukkapalli, Kadapa - APPCB",22-01-2024 13:00:00,14.465052,78.824187,OZONE,19,47,28
India,Andhra_Pradesh,Rajamahendravaram,"Anand Kala Kshetram, Rajamahendravaram - APPCB",22-01-2024 13:00:00,16.9872867,81.7363176,PM10,NA,NA,NA
India,Andhra_Pradesh,Tirupati,"Tirumala, Tirupati - APPCB",22-01-2024 13:00:00,13.67,79.35,NH3,1,2,1
India,Andhra_Pradesh,Tirupati,"Tirumala, Tirupati - APPCB",22-01-2024 13:00:00,13.67,79.35,SO2,11,57,17
India,Andhra_Pradesh,Tirupati,"Tirumala, Tirupati - APPCB",22-01-2024 13:00:00,13.67,79.35,CO,38,54,42
India,Andhra_Pradesh,Tirupati,"Vaikuntapuram, Tirupati - APPCB",22-01-2024 13:00:00,13.615387,79.409230,PM2.5,20,65,30
India,Andhra_Pradesh,Vijayawada,"Rajiv Gandhi Park, Vijayawada - APPCB",22-01-2024 13:00:00,16.509717,80.612222,NO2,NA,NA,NA
India,Andhra_Pradesh,Visakhapatnam,"GVM Corporation, Visakhapatnam - APPCB",22-01-2024 13:00:00,17.72,83.3,CO,6,85,56
India,Arunachal_Pradesh,Naharlagun,"Naharlagun, Naharlagun - APSPCB",22-01-2024 13:00:00,27.103358,93.679645,PM10,NA,NA,NA
India,Arunachal_Pradesh,Naharlagun,"Naharlagun, Naharlagun - APSPCB",22-01-2024 13:00:00,27.103358,93.679645,SO2,NA,NA,NA
India,Assam,Byrnihat,"Central Academy for SFS, Byrnihat - PCBA",22-01-2024 13:00:00,26.071318,91.87488,CO,1,109,37
India,Assam,Byrnihat,"Central Academy for SFS, Byrnihat - PCBA",22-01-2024 13:00:00,26.071318,91.87488,OZONE,4,6,6
India,Assam,Guwahati,"LGBI Airport, Guwahati - PCBA",22-01-2024 13:00:00,26.10887,91.589544,PM2.5,301,380,340
India,Assam,Guwahati,"LGBI Airport, Guwahati - PCBA",22-01-2024 13:00:00,26.10887,91.589544,NO2,7,38,14
India,Assam,Guwahati,"LGBI Airport, Guwahati - PCBA",22-01-2024 13:00:00,26.10887,91.589544,OZONE,26,72,40
India,Assam,Nagaon,"Christianpatty, Nagaon - PCBA",22-01-2024 13:00:00,26.349082,92.68449,OZONE,4,105,36
India,Assam,Nalbari,"Bata Chowk, Nalbari - PCBA",22-01-2024 13:00:00,26.446912,91.439057,OZONE,8,99,42
India,Assam,Sivasagar,"Girls College, Sivasagar - PCBA",22-01-2024 13:00:00,26.987634,94.636574,NH3,3,3,3
India,Assam,Sivasagar,"Girls College, Sivasagar - PCBA",22-01-2024 13:00:00,26.987634,94.636574,CO,4,48,27
India,Bihar,Araria,"Kharahiya Basti, Araria - BSPCB",22-01-2024 13:00:00,26.146529,87.454184,NO2,6,8,7
India,Bihar,Araria,"Kharahiya Basti, Araria - BSPCB",22-01-2024 13:00:00,26.146529,87.454184,SO2,9,17,16
India,Bihar,Araria,"Kharahiya Basti, Araria - BSPCB",22-01-2024 13:00:00,26.146529,87.454184,OZONE,14,37,21
India,Bihar,Arrah,"New DM Office, Arrah - BSPCB",22-01-2024 13:00:00,25.5626095,84.663264,SO2,NA,NA,NA
India,Bihar,Aurangabad,"Gurdeo Nagar, Aurangabad - BSPCB",22-01-2024 13:00:00,24.75746,84.366208,CO,18,104,28
India,Bihar,Bettiah,"Kamalnath Nagar, Bettiah - BSPCB",22-01-2024 13:00:00,26.80365,84.51954,NH3,3,3,3
India,Bihar,Bettiah,"Kamalnath Nagar, Bettiah - BSPCB",22-01-2024 13:00:00,26.80365,84.51954,CO,10,82,46
India,Bihar,Bhagalpur,"DM Office_Kachari Chowk, Bhagalpur - BSPCB",22-01-2024 13:00:00,25.251013,86.989001,NO2,19,52,33
India,Bihar,Bhagalpur,"Mayaganj, Bhagalpur - BSPCB",22-01-2024 13:00:00,25.265194,87.012947,PM10,141,246,167
India,Bihar,Bihar Sharif,"D M Colony, Bihar Sharif - BSPCB",22-01-2024 13:00:00,25.204762,85.514960,NO2,9,10,10
India,Bihar,Bihar Sharif,"D M Colony, Bihar Sharif - BSPCB",22-01-2024 13:00:00,25.204762,85.514960,NH3,2,2,2
India,Bihar,Bihar Sharif,"D M Colony, Bihar Sharif - BSPCB",22-01-2024 13:00:00,25.204762,85.514960,CO,13,53,33
India,Bihar,Chhapra,"Darshan Nagar, Chhapra - BSPCB",22-01-2024 13:00:00,25.7808257,84.7446768,OZONE,1,2,2
India,Bihar,Gaya,"Collectorate, Gaya - BSPCB",22-01-2024 13:00:00,24.7955,84.9994,NO2,16,21,18
India,Bihar,Gaya,"Kareemganj, Gaya - BSPCB",22-01-2024 13:00:00,24.792403,84.992416,NO2,17,31,30
India,Bihar,Gaya,"SFTI Kusdihra, Gaya - BSPCB",22-01-2024 13:00:00,24.762518,84.982348,PM2.5,35,303,176
India,Bihar,Hajipur,"Industrial Area, Hajipur - BSPCB",22-01-2024 13:00:00,25.697189,85.245900,CO,42,110,77
India,Bihar,Katihar,"Mirchaibari, Katihar - BSPCB",22-01-2024 13:00:00,25.560083,87.553265,PM2.5,92,260,135
India,Bihar,Manguraha,"Forest Rest House, Manguraha - BSPCB",22-01-2024 13:00:00,27.308328,84.531742,PM10,75,119,98
India,Bihar,Manguraha,"Forest Rest House, Manguraha - BSPCB",22-01-2024 13:00:00,27.308328,84.531742,OZONE,35,53,48
India,Bihar,Munger,"Town Hall, Munger - BSPCB",22-01-2024 13:00:00,25.376776,86.471523,NO2,8,10,9
India,Bihar,Munger,"Town Hall, Munger - BSPCB",22-01-2024 13:00:00,25.376776,86.471523,NH3,1,2,2
India,Bihar,Munger,"Town Hall, Munger - BSPCB",22-01-2024 13:00:00,25.376776,86.471523,SO2,26,46,36
India,Bihar,Muzaffarpur,"Buddha Colony, Muzaffarpur - BSPCB",22-01-2024 13:00:00,26.11442,85.39813,PM2.5,117,279,213
India,Bihar,Muzaffarpur,"MIT-Daudpur Kothi, Muzaffarpur - BSPCB",22-01-2024 13:00:00,26.1403345,85.3650192,PM2.5,50,174,87
India,Bihar,Muzaffarpur,"MIT-Daudpur Kothi, Muzaffarpur - BSPCB",22-01-2024 13:00:00,26.1403345,85.3650192,NO2,5,8,7
India,Bihar,Muzaffarpur,"MIT-Daudpur Kothi, Muzaffarpur - BSPCB",22-01-2024 13:00:00,26.1403345,85.3650192,OZONE,10,42,28
India,Bihar,Muzaffarpur,"Muzaffarpur Collectorate, Muzaffarpur - BSPCB",22-01-2024 13:00:00,26.1209,85.3647,NO2,2,33,8
India,Bihar,Patna,"DRM Office Danapur, Patna - BSPCB",22-01-2024 13:00:00,25.586562,85.043586,SO2,7,13,9
India,Bihar,Patna,"Govt. High School Shikarpur, Patna - BSPCB",22-01-2024 13:00:00,25.592539,85.227158,SO2,1,7,2
India,Bihar,Patna,"Govt. High School Shikarpur, Patna - BSPCB",22-01-2024 13:00:00,25.592539,85.227158,CO,62,111,80
India,Bihar,Patna,"IGSC Planetarium Complex, Patna - BSPCB",22-01-2024 13:00:00,25.610369,85.132568,OZONE,14,15,14
India,Bihar,Patna,"Muradpur, Patna - BSPCB",22-01-2024 13:00:00,25.619651,85.147382,PM2.5,167,338,282
India,Bihar,Patna,"Muradpur, Patna - BSPCB",22-01-2024 13:00:00,25.619651,85.147382,NH3,1,2,1
India,Bihar,Patna,"Samanpura, Patna - BSPCB",22-01-2024 13:00:00,25.596727,85.085624,NH3,3,3,3
India,Bihar,Purnia,"Mariam Nagar, Purnia - BSPCB",22-01-2024 13:00:00,25.366336,87.117468,NO2,12,13,13
India,Bihar,Purnia,"Mariam Nagar, Purnia - BSPCB",22-01-2024 13:00:00,25.366336,87.117468,OZONE,14,25,16
India,Bihar,Rajgir,"Dangi Tola, Rajgir - BSPCB",22-01-2024 13:00:00,25.03280,85.41948,SO2,4,10,6
India,Bihar,Samastipur,"DM Office_Kasipur, Samastipur - BSPCB",22-01-2024 13:00:00,25.859655,85.77944,PM2.5,60,150,101
India,Bihar,Samastipur,"DM Office_Kasipur, Samastipur - BSPCB",22-01-2024 13:00:00,25.859655,85.77944,CO,23,29,27
India,Bihar,Samastipur,"DM Office_Kasipur, Samastipur - BSPCB",22-01-2024 13:00:00,25.859655,85.77944,OZONE,10,12,11
India,Bihar,Sasaram,"Dada Peer, Sasaram - BSPCB",22-01-2024 13:00:00,24.952822,84.002396,PM2.5,141,343,233
India,Bihar,Sasaram,"Dada Peer, Sasaram - BSPCB",22-01-2024 13:00:00,24.952822,84.002396,OZONE,4,8,4
India,Bihar,Siwan,"Chitragupta Nagar, Siwan - BSPCB",22-01-2024 13:00:00,26.2271665,84.3570427,PM10,66,139,104
India,Chandigarh,Chandigarh,"Sector 22, Chandigarh - CPCC",22-01-2024 13:00:00,30.735567,76.775714,NO2,11,23,15
India,Chandigarh,Chandigarh,"Sector 22, Chandigarh - CPCC",22-01-2024 13:00:00,30.735567,76.775714,NH3,6,9,7
India,Chandigarh,Chandigarh,"Sector-25, Chandigarh - CPCC",22-01-2024 13:00:00,30.751462,76.762879,OZONE,2,9,3
India,Chandigarh,Chandigarh,"Sector-53, Chandigarh - CPCC",22-01-2024 13:00:00,30.719859,76.738637,NH3,6,9,7
India,Chandigarh,Chandigarh,"Sector-53, Chandigarh - CPCC",22-01-2024 13:00:00,30.719859,76.738637,CO,68,78,72
India,Chhattisgarh,Bhilai,"32Bungalows, Bhilai - CECB",22-01-2024 13:00:00,21.194815,81.314770,NO2,20,30,24
India,Chhattisgarh,Bhilai,"Civic Center, Bhilai - Bhilai Steel Plant",22-01-2024 13:00:00,21.185571,81.343175,PM2.5,34,76,57
India,Chhattisgarh,Bhilai,"Civic Center, Bhilai - Bhilai Steel Plant",22-01-2024 13:00:00,21.185571,81.343175,PM10,46,90,70
India,Chhattisgarh,Bhilai,"Civic Center, Bhilai - Bhilai Steel Plant",22-01-2024 13:00:00,21.185571,81.343175,NO2,8,13,11
India,Chhattisgarh,Bhilai,"Civic Center, Bhilai - Bhilai Steel Plant",22-01-2024 13:00:00,21.185571,81.343175,CO,28,74,38
India,Chhattisgarh,Bhilai,"Hathkhoj, Bhilai - CECB",22-01-2024 13:00:00,21.224231,81.408350,PM2.5,52,152,90
India,Chhattisgarh,Bhilai,"Hathkhoj, Bhilai - CECB",22-01-2024 13:00:00,21.224231,81.408350,NH3,6,8,7
India,Chhattisgarh,Bhilai,"Hathkhoj, Bhilai - CECB",22-01-2024 13:00:00,21.224231,81.408350,OZONE,15,29,18
India,Chhattisgarh,Chhal,"Nawapara SECL Colony, Chhal - CECB",22-01-2024 13:00:00,22.118125,83.140608,NO2,11,53,24
India,Chhattisgarh,Korba,"Rampur, Korba - CECB",22-01-2024 13:00:00,22.368195,82.746431,NO2,17,76,43
India,Chhattisgarh,Kunjemura,"OP Jindal School, Kunjemura - CECB",22-01-2024 13:00:00,22.126650,83.483212,CO,24,68,31
India,Chhattisgarh,Raipur,"AIIMS, Raipur - CECB",22-01-2024 13:00:00,21.258815,81.578979,OZONE,1,15,4
India,Chhattisgarh,Raipur,"Bhatagaon New ISBT, Raipur - CECB",22-01-2024 13:00:00,21.219665,81.630094,PM10,51,113,83
India,Chhattisgarh,Raipur,"Krishak Nagar, Raipur - CECB",22-01-2024 13:00:00,21.237755,81.705301,NO2,27,36,32
India,Chhattisgarh,Raipur,"Siltara Phase-II, Raipur - CECB",22-01-2024 13:00:00,21.371751,81.664929,PM10,NA,NA,NA
India,Chhattisgarh,Tumidih,"OP Jindal Industrial Park, Tumidih - CECB",22-01-2024 13:00:00,22.06631475,83.33820077,PM10,22,369,85
India,Chhattisgarh,Tumidih,"OP Jindal Industrial Park, Tumidih - CECB",22-01-2024 13:00:00,22.06631475,83.33820077,SO2,5,9,6
India,Delhi,Delhi,"Anand Vihar, Delhi - DPCC",22-01-2024 13:00:00,28.647622,77.3158090,NH3,7,10,8
India,Delhi,Delhi,"Ashok Vihar, Delhi - DPCC",22-01-2024 13:00:00,28.695381,77.181665,CO,44,76,56
India,Delhi,Delhi,"Ashok Vihar, Delhi - DPCC",22-01-2024 13:00:00,28.695381,77.181665,OZONE,4,10,6
India,Delhi,Delhi,"Aya Nagar, Delhi - IMD",22-01-2024 13:00:00,28.4706914,77.1099364,PM10,NA,NA,NA
India,Delhi,Delhi,"Bawana, Delhi - DPCC",22-01-2024 13:00:00,28.776200,77.051074,NH3,5,8,7
India,Delhi,Delhi,"Bawana, Delhi - DPCC",22-01-2024 13:00:00,28.776200,77.051074,OZONE,11,51,21
India,Delhi,Delhi,"Burari Crossing, Delhi - IMD",22-01-2024 13:00:00,28.7256504,77.2011573,PM10,NA,NA,NA
India,Delhi,Delhi,"Burari Crossing, Delhi - IMD",22-01-2024 13:00:00,28.7256504,77.2011573,CO,NA,NA,NA
India,Delhi,Delhi,"CRRI Mathura Road, Delhi - IMD",22-01-2024 13:00:00,28.5512005,77.2735737,PM2.5,NA,NA,NA
India,Delhi,Delhi,"CRRI Mathura Road, Delhi - IMD",22-01-2024 13:00:00,28.5512005,77.2735737,NO2,NA,NA,NA
India,Delhi,Delhi,"CRRI Mathura Road, Delhi - IMD",22-01-2024 13:00:00,28.5512005,77.2735737,CO,NA,NA,NA
India,Delhi,Delhi,"DTU, Delhi - CPCB",22-01-2024 13:00:00,28.7500499,77.1112615,NO2,27,80,39
India,Delhi,Delhi,"Dr. Karni Singh Shooting Range, Delhi - DPCC",22-01-2024 13:00:00,28.498571,77.264840,PM2.5,308,378,344
India,Delhi,Delhi,"Dr. Karni Singh Shooting Range, Delhi - DPCC",22-01-2024 13:00:00,28.498571,77.264840,OZONE,1,87,21
India,Delhi,Delhi,"Dwarka-Sector 8, Delhi - DPCC ",22-01-2024 13:00:00,28.5710274,77.0719006,PM10,171,338,218
India,Delhi,Delhi,"Dwarka-Sector 8, Delhi - DPCC ",22-01-2024 13:00:00,28.5710274,77.0719006,SO2,4,8,6
India,Delhi,Delhi,"IHBAS, Dilshad Garden, Delhi - CPCB",22-01-2024 13:00:00,28.6811736,77.3025234,PM2.5,190,321,260
India,Delhi,Delhi,"IHBAS, Dilshad Garden, Delhi - CPCB",22-01-2024 13:00:00,28.6811736,77.3025234,SO2,2,39,14
India,Delhi,Delhi,"ITO, Delhi - CPCB",22-01-2024 13:00:00,28.628624,77.241060,OZONE,26,49,30
India,Delhi,Delhi,"Lodhi Road, Delhi - IMD",22-01-2024 13:00:00,28.5918245,77.2273074,CO,NA,NA,NA
India,Delhi,Delhi,"Major Dhyan Chand National Stadium, Delhi - DPCC",22-01-2024 13:00:00,28.611281,77.237738,PM2.5,300,376,335
India,Delhi,Delhi,"Major Dhyan Chand National Stadium, Delhi - DPCC",22-01-2024 13:00:00,28.611281,77.237738,OZONE,3,3,3
India,Delhi,Delhi,"Mundka, Delhi - DPCC",22-01-2024 13:00:00,28.684678,77.076574,PM2.5,309,381,341
India,Delhi,Delhi,"Mundka, Delhi - DPCC",22-01-2024 13:00:00,28.684678,77.076574,PM10,162,311,199
India,Delhi,Delhi,"Mundka, Delhi - DPCC",22-01-2024 13:00:00,28.684678,77.076574,SO2,1,7,2
India,Delhi,Delhi,"Najafgarh, Delhi - DPCC",22-01-2024 13:00:00,28.570173,76.933762,PM2.5,220,379,306
India,Delhi,Delhi,"Najafgarh, Delhi - DPCC",22-01-2024 13:00:00,28.570173,76.933762,CO,9,116,33
India,Delhi,Delhi,"Nehru Nagar, Delhi - DPCC",22-01-2024 13:00:00,28.567890,77.250515,SO2,5,15,9
India,Delhi,Delhi,"Nehru Nagar, Delhi - DPCC",22-01-2024 13:00:00,28.567890,77.250515,CO,40,108,59
India,Delhi,Delhi,"New Moti Bagh, Delhi - MHUA",22-01-2024 13:00:00,28.57834,77.18400,PM2.5,NA,NA,NA
India,Delhi,Delhi,"North Campus, DU, Delhi - IMD",22-01-2024 13:00:00,28.6573814,77.1585447,CO,NA,NA,NA
India,Delhi,Delhi,"North Campus, DU, Delhi - IMD",22-01-2024 13:00:00,28.6573814,77.1585447,OZONE,NA,NA,NA
India,Delhi,Delhi,"Okhla Phase-2, Delhi - DPCC",22-01-2024 13:00:00,28.530785,77.271255,NH3,12,16,14
India,Delhi,Delhi,"Okhla Phase-2, Delhi - DPCC",22-01-2024 13:00:00,28.530785,77.271255,SO2,3,7,5
India,Delhi,Delhi,"Okhla Phase-2, Delhi - DPCC",22-01-2024 13:00:00,28.530785,77.271255,CO,36,100,53
India,Delhi,Delhi,"Patparganj, Delhi - DPCC",22-01-2024 13:00:00,28.623763,77.287209,PM10,167,405,240
India,Delhi,Delhi,"R K Puram, Delhi - DPCC",22-01-2024 13:00:00,28.563262,77.186937,CO,52,107,62
India,Delhi,Delhi,"R K Puram, Delhi - DPCC",22-01-2024 13:00:00,28.563262,77.186937,OZONE,8,69,22
India,Delhi,Delhi,"Rohini, Delhi - DPCC",22-01-2024 13:00:00,28.732528,77.119920,NO2,24,78,39
India,Delhi,Delhi,"Rohini, Delhi - DPCC",22-01-2024 13:00:00,28.732528,77.119920,CO,30,63,43
India,Delhi,Delhi,"Shadipur, Delhi - CPCB",22-01-2024 13:00:00,28.6514781,77.1473105,NH3,11,16,13
India,Delhi,Delhi,"Sonia Vihar, Delhi - DPCC",22-01-2024 13:00:00,28.710508,77.249485,OZONE,12,78,28
India,Delhi,Delhi,"Sri Aurobindo Marg, Delhi - DPCC",22-01-2024 13:00:00,28.531346,77.190156,OZONE,1,15,5
India,Delhi,Delhi,"Vivek Vihar, Delhi - DPCC",22-01-2024 13:00:00,28.672342,77.315260,PM2.5,314,456,361
India,Delhi,Delhi,"Vivek Vihar, Delhi - DPCC",22-01-2024 13:00:00,28.672342,77.315260,PM10,164,433,244
India,Delhi,Delhi,"Wazirpur, Delhi - DPCC",22-01-2024 13:00:00,28.699793,77.165453,CO,33,72,56
India,Delhi,Delhi,"Wazirpur, Delhi - DPCC",22-01-2024 13:00:00,28.699793,77.165453,OZONE,4,52,18
India,Gujarat,Ahmedabad,"Gyaspur, Ahmedabad - IITM",22-01-2024 13:00:00,22.977134,72.553024,CO,10,38,24
India,Gujarat,Ahmedabad,"Maninagar, Ahmedabad - GPCB",22-01-2024 13:00:00,23.002657,72.591912,PM2.5,28,244,109
India,Gujarat,Ahmedabad,"Maninagar, Ahmedabad - GPCB",22-01-2024 13:00:00,23.002657,72.591912,PM10,72,198,125
India,Gujarat,Ahmedabad,"Maninagar, Ahmedabad - GPCB",22-01-2024 13:00:00,23.002657,72.591912,CO,9,68,21
India,Gujarat,Ahmedabad,"Raikhad, Ahmedabad - IITM",22-01-2024 13:00:00,23.020509,72.579261,CO,12,121,81
India,Gujarat,Ahmedabad,"Rakhial, Ahmedabad - IITM",22-01-2024 13:00:00,23.016834,72.625775,CO,9,102,15
India,Gujarat,Ahmedabad,"Rakhial, Ahmedabad - IITM",22-01-2024 13:00:00,23.016834,72.625775,OZONE,1,51,19
India,Gujarat,Ahmedabad,"SVPI Airport Hansol, Ahmedabad - IITM",22-01-2024 13:00:00,23.076793,72.627874,PM2.5,63,333,158
India,Gujarat,Ahmedabad,"Sardar Vallabhbhai Patel Stadium, Ahmedabad - IITM",22-01-2024 13:00:00,23.043070,72.562968,NH3,3,3,3
India,Gujarat,Ahmedabad,"Sardar Vallabhbhai Patel Stadium, Ahmedabad - IITM",22-01-2024 13:00:00,23.043070,72.562968,SO2,7,9,8
India,Gujarat,Ahmedabad,"Sardar Vallabhbhai Patel Stadium, Ahmedabad - IITM",22-01-2024 13:00:00,23.043070,72.562968,CO,5,120,18
India,Gujarat,Ahmedabad,"Sardar Vallabhbhai Patel Stadium, Ahmedabad - IITM",22-01-2024 13:00:00,23.043070,72.562968,OZONE,1,12,7
India,Gujarat,Ankleshwar,"GIDC, Ankleshwar - GPCB",22-01-2024 13:00:00,21.613267,73.010555,PM2.5,54,132,96
India,Gujarat,Gandhinagar,"GIFT City, Gandhinagar - IITM",22-01-2024 13:00:00,23.163798,72.677768,NH3,2,3,2
India,Gujarat,Gandhinagar,"GIFT City, Gandhinagar - IITM",22-01-2024 13:00:00,23.163798,72.677768,CO,3,15,7
India,Gujarat,Gandhinagar,"IIPHG Lekawada, Gandhinagar - IITM",22-01-2024 13:00:00,23.243639,72.68994,NO2,13,15,14
India,Gujarat,Gandhinagar,"IIPHG Lekawada, Gandhinagar - IITM",22-01-2024 13:00:00,23.243639,72.68994,NH3,3,4,3
India,Gujarat,Gandhinagar,"IIPHG Lekawada, Gandhinagar - IITM",22-01-2024 13:00:00,23.243639,72.68994,OZONE,9,26,17
India,Gujarat,Surat,"Science Center, Surat - SMC",22-01-2024 13:00:00,21.170046,72.795405,PM2.5,12,69,32
India,Gujarat,Surat,"Science Center, Surat - SMC",22-01-2024 13:00:00,21.170046,72.795405,SO2,14,22,17
India,Gujarat,Vapi,"Phase-1 GIDC, Vapi - GPCB",22-01-2024 13:00:00,20.362421,72.918013,OZONE,1,3,1
India,Gujarat,Vatva,"Phase-4 GIDC, Vatva - GPCB",22-01-2024 13:00:00,22.969611,72.643500,SO2,4,6,5
India,Gujarat,Vatva,"Phase-4 GIDC, Vatva - GPCB",22-01-2024 13:00:00,22.969611,72.643500,CO,38,40,40
India,Haryana,Ambala,"Patti Mehar, Ambala - HSPCB",22-01-2024 13:00:00,30.379589,76.778328,SO2,4,31,10
India,Haryana,Bahadurgarh,"Arya Nagar, Bahadurgarh - HSPCB",22-01-2024 13:00:00,28.6701,76.9254,PM10,96,159,122
India,Haryana,Bahadurgarh,"Arya Nagar, Bahadurgarh - HSPCB",22-01-2024 13:00:00,28.6701,76.9254,NO2,34,41,37
India,Haryana,Bahadurgarh,"Arya Nagar, Bahadurgarh - HSPCB",22-01-2024 13:00:00,28.6701,76.9254,NH3,11,12,11
India,Haryana,Bahadurgarh,"Arya Nagar, Bahadurgarh - HSPCB",22-01-2024 13:00:00,28.6701,76.9254,SO2,6,10,9
India,Haryana,Bhiwani,"H.B. Colony, Bhiwani - HSPCB",22-01-2024 13:00:00,28.806223,76.141105,PM10,90,119,104
India,Haryana,Charkhi Dadri,"Mini Secretariat, Charkhi Dadri - HSPCB",22-01-2024 13:00:00,28.593883,76.270653,NH3,5,6,5
India,Haryana,Charkhi Dadri,"Mini Secretariat, Charkhi Dadri - HSPCB",22-01-2024 13:00:00,28.593883,76.270653,CO,54,103,60
India,Haryana,Dharuhera,"Municipal Corporation Office, Dharuhera -  HSPCB",22-01-2024 13:00:00,28.206800,76.799700,CO,32,76,39
India,Haryana,Faridabad,"New Industrial Town, Faridabad - HSPCB",22-01-2024 13:00:00,28.39072,77.30059,PM2.5,215,358,316
India,Haryana,Faridabad,"New Industrial Town, Faridabad - HSPCB",22-01-2024 13:00:00,28.39072,77.30059,NO2,6,14,8
India,Haryana,Faridabad,"Sector 11, Faridabad - HSPCB",22-01-2024 13:00:00,28.376058,77.315741,PM2.5,NA,NA,NA
India,Haryana,Faridabad,"Sector 11, Faridabad - HSPCB",22-01-2024 13:00:00,28.376058,77.315741,NH3,NA,NA,NA
India,Haryana,Faridabad,"Sector- 16A, Faridabad - HSPCB",22-01-2024 13:00:00,28.4088421,77.3099081,PM2.5,204,364,325
India,Haryana,Fatehabad,"Huda Sector, Fatehabad - HSPCB",22-01-2024 13:00:00,29.503664,75.467934,PM10,97,137,112
India,Haryana,Gurugram,"NISE Gwal Pahari, Gurugram - IMD",22-01-2024 13:00:00,28.422681,77.148944,OZONE,NA,NA,NA
India,Haryana,Gurugram,"Sector-51, Gurugram - HSPCB",22-01-2024 13:00:00,28.4227,77.0667,NH3,6,14,9
India,Haryana,Gurugram,"Sector-51, Gurugram - HSPCB",22-01-2024 13:00:00,28.4227,77.0667,SO2,2,4,3
India,Haryana,Gurugram,"Sector-51, Gurugram - HSPCB",22-01-2024 13:00:00,28.4227,77.0667,OZONE,27,67,47
India,Haryana,Gurugram,"Teri Gram, Gurugram - HSPCB",22-01-2024 13:00:00,28.4275,77.1465,PM2.5,60,434,152
India,Haryana,Gurugram,"Teri Gram, Gurugram - HSPCB",22-01-2024 13:00:00,28.4275,77.1465,PM10,132,349,187
India,Haryana,Gurugram,"Teri Gram, Gurugram - HSPCB",22-01-2024 13:00:00,28.4275,77.1465,SO2,3,5,4
India,Haryana,Hisar,"Urban Estate-II, Hisar - HSPCB",22-01-2024 13:00:00,29.140560,75.744941,NO2,6,21,8
India,Haryana,Hisar,"Urban Estate-II, Hisar - HSPCB",22-01-2024 13:00:00,29.140560,75.744941,OZONE,89,113,95
India,Haryana,Jind,"Police Lines, Jind - HSPCB",22-01-2024 13:00:00,29.307814,76.337619,NO2,7,16,11
India,Haryana,Jind,"Police Lines, Jind - HSPCB",22-01-2024 13:00:00,29.307814,76.337619,CO,1,80,34
India,Haryana,Kaithal,"Rishi Nagar, Kaithal - HSPCB",22-01-2024 13:00:00,29.8006,76.4155,NH3,8,8,8
India,Haryana,Kaithal,"Rishi Nagar, Kaithal - HSPCB",22-01-2024 13:00:00,29.8006,76.4155,SO2,10,20,15
India,Haryana,Karnal,"Sector-12, Karnal - HSPCB",22-01-2024 13:00:00,29.695300,77.002700,NO2,7,12,10
India,Haryana,Kurukshetra,"Sector-7, Kurukshetra - HSPCB",22-01-2024 13:00:00,29.966942,76.875879,CO,2,40,15
India,Haryana,Kurukshetra,"Sector-7, Kurukshetra - HSPCB",22-01-2024 13:00:00,29.966942,76.875879,OZONE,19,33,28
India,Haryana,Manesar,"Sector-2 IMT, Manesar - HSPCB",22-01-2024 13:00:00,28.360699,76.936090,NH3,4,9,6
India,Haryana,Narnaul,"Shastri Nagar, Narnaul - HSPCB",22-01-2024 13:00:00,28.060249,76.113115,PM2.5,37,148,70
India,Haryana,Panchkula,"Sector-6, Panchkula - HSPCB ",22-01-2024 13:00:00,30.7057778,76.8531805555555,SO2,11,12,12
India,Haryana,Panipat,"Sector-18, Panipat - HSPCB",22-01-2024 13:00:00,29.497973,76.993331,NO2,NA,NA,NA
India,Haryana,Panipat,"Sector-18, Panipat - HSPCB",22-01-2024 13:00:00,29.497973,76.993331,CO,23,24,24
India,Haryana,Panipat,"Sector-18, Panipat - HSPCB",22-01-2024 13:00:00,29.497973,76.993331,OZONE,30,31,30
India,Haryana,Rohtak,"MD University, Rohtak - HSPCB",22-01-2024 13:00:00,28.52123,76.37138,OZONE,95,106,99
India,Haryana,Sirsa,"F-Block, Sirsa - HSPCB",22-01-2024 13:00:00,29.536400,75.015800,PM10,NA,NA,NA
India,Haryana,Sonipat,"Murthal, Sonipat - HSPCB",22-01-2024 13:00:00,29.027200,77.062100,PM2.5,105,323,213
India,Haryana,Sonipat,"Murthal, Sonipat - HSPCB",22-01-2024 13:00:00,29.027200,77.062100,PM10,164,164,164
India,Haryana,Yamuna Nagar,"Gobind Pura, Yamuna Nagar - HSPCB",22-01-2024 13:00:00,30.1480566,77.2893471,PM10,99,162,136
India,Himachal Pradesh,Baddi,"HIMUDA Complex Phase-1, Baddi - HPPCB",22-01-2024 13:00:00,30.943887,76.801991,PM2.5,85,321,201
India,Himachal Pradesh,Baddi,"HIMUDA Complex Phase-1, Baddi - HPPCB",22-01-2024 13:00:00,30.943887,76.801991,NH3,5,6,5
India,Jharkhand,Dhanbad,"Sardar Patel Nagar, Dhanbad - JSPCB",22-01-2024 13:00:00,23.80569,86.44268,NO2,NA,NA,NA
India,Jharkhand,Dhanbad,"Sardar Patel Nagar, Dhanbad - JSPCB",22-01-2024 13:00:00,23.80569,86.44268,SO2,NA,NA,NA
India,Jharkhand,Pathardih,"Mohalbani Ghat, Pathardih - DMC",22-01-2024 13:00:00,23.669880,86.411725,NO2,NA,NA,NA
India,Karnataka,Bagalkot,"Vidayagiri, Bagalkot - KSPCB",22-01-2024 13:00:00,16.172806,75.659694,NO2,10,11,10
India,Karnataka,Bagalkot,"Vidayagiri, Bagalkot - KSPCB",22-01-2024 13:00:00,16.172806,75.659694,CO,27,56,46
India,Karnataka,Belgaum,"Ramteerth Nagar, Belgaum - KSPCB",22-01-2024 13:00:00,15.888653,74.541751,NO2,26,30,28
India,Karnataka,Belgaum,"Ramteerth Nagar, Belgaum - KSPCB",22-01-2024 13:00:00,15.888653,74.541751,SO2,8,9,8
India,Karnataka,Bengaluru,"BTM Layout, Bengaluru - CPCB",22-01-2024 13:00:00,12.9135218,77.5950804,PM10,NA,NA,NA
India,Karnataka,Bengaluru,"BTM Layout, Bengaluru - CPCB",22-01-2024 13:00:00,12.9135218,77.5950804,SO2,NA,NA,NA
India,Karnataka,Bengaluru,"Bapuji Nagar, Bengaluru - KSPCB",22-01-2024 13:00:00,12.951913,77.539784,PM10,49,206,98
India,Karnataka,Bengaluru,"City Railway Station, Bengaluru - KSPCB",22-01-2024 13:00:00,12.9756843,77.5660749,PM10,66,85,78
India,Karnataka,Bengaluru,"Hebbal, Bengaluru - KSPCB",22-01-2024 13:00:00,13.029152,77.585901,NO2,NA,NA,NA
India,Karnataka,Bengaluru,"Hombegowda Nagar, Bengaluru - KSPCB",22-01-2024 13:00:00,12.938539,77.590100,PM10,43,150,80
India,Karnataka,Bengaluru,"Jayanagar 5th Block, Bengaluru - KSPCB",22-01-2024 13:00:00,12.920984,77.584908,SO2,13,38,22
India,Karnataka,Bengaluru,"Jigani, Bengaluru - KSPCB",22-01-2024 13:00:00,12.7816279,77.6299145,PM10,34,118,87
India,Karnataka,Bengaluru,"Jigani, Bengaluru - KSPCB",22-01-2024 13:00:00,12.7816279,77.6299145,CO,36,92,59
India,Karnataka,Bengaluru,"Kasturi Nagar, Bengaluru - KSPCB",22-01-2024 13:00:00,13.003872,77.664217,PM10,77,461,131
India,Karnataka,Bengaluru,"Kasturi Nagar, Bengaluru - KSPCB",22-01-2024 13:00:00,13.003872,77.664217,NO2,16,17,16
India,Karnataka,Bengaluru,"RVCE-Mailasandra, Bengaluru - KSPCB",22-01-2024 13:00:00,12.921418,77.502466,NO2,31,31,31
India,Karnataka,Bengaluru,"Sanegurava Halli, Bengaluru - KSPCB",22-01-2024 13:00:00,12.990328,77.5431385,CO,8,19,14
India,Karnataka,Bengaluru,"Silk Board, Bengaluru - KSPCB",22-01-2024 13:00:00,12.917348,77.622813,PM10,54,262,105
India,Karnataka,Bengaluru,"Silk Board, Bengaluru - KSPCB",22-01-2024 13:00:00,12.917348,77.622813,NO2,21,35,26
India,Karnataka,Bengaluru,"Silk Board, Bengaluru - KSPCB",22-01-2024 13:00:00,12.917348,77.622813,OZONE,25,30,30
India,Karnataka,Bidar,"Naubad, Bidar - KSPCB",22-01-2024 13:00:00,17.930306,77.482194,NO2,7,9,8
India,Karnataka,Chikkaballapur,"Chikkaballapur Rural, Chikkaballapur - KSPCB",22-01-2024 13:00:00,13.428828,77.731418,OZONE,24,25,25
India,Karnataka,Chikkamagaluru,"Kalyana Nagara, Chikkamagaluru - KSPCB",22-01-2024 13:00:00,13.328028,75.797056,PM10,24,94,63
India,Karnataka,Chikkamagaluru,"Kalyana Nagara, Chikkamagaluru - KSPCB",22-01-2024 13:00:00,13.328028,75.797056,NO2,18,34,25
India,Karnataka,Chikkamagaluru,"Kalyana Nagara, Chikkamagaluru - KSPCB",22-01-2024 13:00:00,13.328028,75.797056,CO,6,107,30
India,Karnataka,Chikkamagaluru,"Kalyana Nagara, Chikkamagaluru - KSPCB",22-01-2024 13:00:00,13.328028,75.797056,OZONE,17,59,34
India,Karnataka,Davanagere,"Devaraj Urs Badavane, Davanagere - KSPCB",22-01-2024 13:00:00,14.475800,75.905200,SO2,1,9,4
India,Karnataka,Gadag,"Panchal Nagar, Gadag - KSPCB",22-01-2024 13:00:00,15.411456,75.638133,PM2.5,17,67,35
India,Karnataka,Gadag,"Panchal Nagar, Gadag - KSPCB",22-01-2024 13:00:00,15.411456,75.638133,CO,48,62,56
India,Karnataka,Gadag,"Panchal Nagar, Gadag - KSPCB",22-01-2024 13:00:00,15.411456,75.638133,OZONE,20,66,33
India,Karnataka,Hassan,"B.Katihalli, Hassan - KSPCB",22-01-2024 13:00:00,13.008556,76.125258,SO2,11,15,13
India,Karnataka,Hassan,"B.Katihalli, Hassan - KSPCB",22-01-2024 13:00:00,13.008556,76.125258,CO,10,22,18
India,Karnataka,Haveri,"Ashwini Nagar, Haveri - KSPCB",22-01-2024 13:00:00,14.791800,75.389600,NH3,NA,NA,NA
India,Karnataka,Haveri,"Ashwini Nagar, Haveri - KSPCB",22-01-2024 13:00:00,14.791800,75.389600,SO2,NA,NA,NA
India,Karnataka,Haveri,"Ashwini Nagar, Haveri - KSPCB",22-01-2024 13:00:00,14.791800,75.389600,CO,32,34,34
India,Karnataka,Hubballi,"Deshpande Nagar, Hubballi - KSPCB",22-01-2024 13:00:00,15.351773,75.140726,OZONE,1,49,27
India,Karnataka,Hubballi,"Lingaraj Nagar, Hubballi - KSPCB",22-01-2024 13:00:00,15.3714823,75.1160168,CO,24,69,56
