country,state,city,station,last_update,latitude,longitude,pollutant_id,pollutant_min,pollutant_max,pollutant_avg
India,Andhra_Pradesh,Amaravati,"Secretariat, Amaravati - APPCB",04-05-2024 12:00:00,16.5150833,80.5181667,PM10,28,94,56
India,Andhra_Pradesh,Anantapur,"Gulzarpet, Anantapur - APPCB",04-05-2024 12:00:00,14.675886,77.593027,PM10,87,136,104
India,Andhra_Pradesh,Kadapa,"Yerramukkapalli, Kadapa - APPCB",04-05-2024 12:00:00,14.465052,78.824187,PM10,NA,NA,NA
India,Andhra_Pradesh,Kadapa,"Yerramukkapalli, Kadapa - APPCB",04-05-2024 12:00:00,14.465052,78.824187,NO2,NA,NA,NA
India,Andhra_Pradesh,Tirupati,"Tirumala, Tirupati - APPCB",04-05-2024 12:00:00,13.67,79.35,NH3,1,2,1
India,Andhra_Pradesh,Tirupati,"Vaikuntapuram, Tirupati - APPCB",04-05-2024 12:00:00,13.615387,79.409230,PM10,13,37,16
India,Andhra_Pradesh,Tirupati,"Vaikuntapuram, Tirupati - APPCB",04-05-2024 12:00:00,13.615387,79.409230,NH3,2,3,3
India,Andhra_Pradesh,Tirupati,"Vaikuntapuram, Tirupati - APPCB",04-05-2024 12:00:00,13.615387,79.409230,OZONE,4,33,15
India,Andhra_Pradesh,Vijayawada,"HB Colony, Vijayawada - APPCB",04-05-2024 12:00:00,16.536107,80.594233,PM2.5,38,62,48
India,Andhra_Pradesh,Vijayawada,"Kanuru, Vijayawada - APPCB",04-05-2024 12:00:00,16.486692,80.699436,CO,38,38,38
India,Andhra_Pradesh,Vijayawada,"Rajiv Nagar, Vijayawada - APPCB",04-05-2024 12:00:00,16.554731,80.649110,SO2,23,65,34
India,Andhra_Pradesh,Visakhapatnam,"GVM Corporation, Visakhapatnam - APPCB",04-05-2024 12:00:00,17.72,83.3,PM10,59,180,100
India,Andhra_Pradesh,Visakhapatnam,"GVM Corporation, Visakhapatnam - APPCB",04-05-2024 12:00:00,17.72,83.3,SO2,8,15,12
India,Arunachal_Pradesh,Naharlagun,"Naharlagun, Naharlagun - APSPCB",04-05-2024 12:00:00,27.103358,93.679645,PM10,16,46,30
India,Assam,Byrnihat,"Central Academy for SFS, Byrnihat - PCBA",04-05-2024 12:00:00,26.071318,91.87488,PM2.5,120,475,315
India,Assam,Byrnihat,"Central Academy for SFS, Byrnihat - PCBA",04-05-2024 12:00:00,26.071318,91.87488,CO,33,70,47
India,Assam,Guwahati,"Railway Colony, Guwahati - PCBA",04-05-2024 12:00:00,26.181742,91.78063,PM2.5,1,364,174
India,Assam,Guwahati,"Railway Colony, Guwahati - PCBA",04-05-2024 12:00:00,26.181742,91.78063,SO2,9,22,14
India,Assam,Nalbari,"Bata Chowk, Nalbari - PCBA",04-05-2024 12:00:00,26.446912,91.439057,NO2,8,21,12
India,Assam,Silchar,"Tarapur, Silchar - PCBA",04-05-2024 12:00:00,24.82827,92.79525,NO2,12,13,13
India,Assam,Silchar,"Tarapur, Silchar - PCBA",04-05-2024 12:00:00,24.82827,92.79525,OZONE,1,24,5
India,Assam,Sivasagar,"Girls College, Sivasagar - PCBA",04-05-2024 12:00:00,26.987634,94.636574,NO2,10,20,15
India,Bihar,Araria,"Kharahiya Basti, Araria - BSPCB",04-05-2024 12:00:00,26.146529,87.454184,PM2.5,52,305,128
India,Bihar,Arrah,"New DM Office, Arrah - BSPCB",04-05-2024 12:00:00,25.5626095,84.663264,PM10,54,235,136
India,Bihar,Arrah,"New DM Office, Arrah - BSPCB",04-05-2024 12:00:00,25.5626095,84.663264,NH3,3,8,5
India,Bihar,Aurangabad,"Gurdeo Nagar, Aurangabad - BSPCB",04-05-2024 12:00:00,24.75746,84.366208,CO,7,52,49
India,Bihar,Bettiah,"Kamalnath Nagar, Bettiah - BSPCB",04-05-2024 12:00:00,26.80365,84.51954,PM10,96,279,174
India,Bihar,Bettiah,"Kamalnath Nagar, Bettiah - BSPCB",04-05-2024 12:00:00,26.80365,84.51954,NO2,28,29,28
India,Bihar,Bhagalpur,"DM Office_Kachari Chowk, Bhagalpur - BSPCB",04-05-2024 12:00:00,25.251013,86.989001,PM2.5,57,263,130
India,Bihar,Bhagalpur,"DM Office_Kachari Chowk, Bhagalpur - BSPCB",04-05-2024 12:00:00,25.251013,86.989001,PM10,113,251,170
India,Bihar,Bhagalpur,"DM Office_Kachari Chowk, Bhagalpur - BSPCB",04-05-2024 12:00:00,25.251013,86.989001,NH3,NA,NA,NA
India,Bihar,Bhagalpur,"DM Office_Kachari Chowk, Bhagalpur - BSPCB",04-05-2024 12:00:00,25.251013,86.989001,OZONE,44,50,48
India,Bihar,Bhagalpur,"Mayaganj, Bhagalpur - BSPCB",04-05-2024 12:00:00,25.265194,87.012947,NO2,3,11,7
India,Bihar,Bihar Sharif,"D M Colony, Bihar Sharif - BSPCB",04-05-2024 12:00:00,25.204762,85.514960,NO2,9,10,9
India,Bihar,Bihar Sharif,"D M Colony, Bihar Sharif - BSPCB",04-05-2024 12:00:00,25.204762,85.514960,NH3,2,2,2
India,Bihar,Bihar Sharif,"D M Colony, Bihar Sharif - BSPCB",04-05-2024 12:00:00,25.204762,85.514960,OZONE,15,56,40
India,Bihar,Buxar,"Charitra Van, Buxar - BSPCB (Formerly known as Central Jail)",04-05-2024 12:00:00,25.567520,83.966379,NH3,3,4,3
India,Bihar,Chhapra,"Darshan Nagar, Chhapra - BSPCB",04-05-2024 12:00:00,25.7808257,84.7446768,PM2.5,NA,NA,NA
India,Bihar,Gaya,"Collectorate, Gaya - BSPCB",04-05-2024 12:00:00,24.7955,84.9994,CO,NA,NA,NA
India,Bihar,Gaya,"Kareemganj, Gaya - BSPCB",04-05-2024 12:00:00,24.792403,84.992416,SO2,5,10,8
India,Bihar,Gaya,"SFTI Kusdihra, Gaya - BSPCB",04-05-2024 12:00:00,24.762518,84.982348,PM2.5,43,204,104
India,Bihar,Gaya,"SFTI Kusdihra, Gaya - BSPCB",04-05-2024 12:00:00,24.762518,84.982348,SO2,9,13,11
India,Bihar,Gaya,"SFTI Kusdihra, Gaya - BSPCB",04-05-2024 12:00:00,24.762518,84.982348,CO,15,82,52
India,Bihar,Gaya,"SFTI Kusdihra, Gaya - BSPCB",04-05-2024 12:00:00,24.762518,84.982348,OZONE,12,92,24
India,Bihar,Hajipur,"Industrial Area, Hajipur - BSPCB",04-05-2024 12:00:00,25.697189,85.245900,PM10,150,500,308
India,Bihar,Hajipur,"Industrial Area, Hajipur - BSPCB",04-05-2024 12:00:00,25.697189,85.245900,NH3,8,8,8
India,Bihar,Kishanganj,"SDM Office_Khagra, Kishanganj - BSPCB",04-05-2024 12:00:00,26.0881305,87.93840336,PM10,135,404,213
India,Bihar,Manguraha,"Forest Rest House, Manguraha - BSPCB",04-05-2024 12:00:00,27.308328,84.531742,NH3,1,3,2
India,Bihar,Manguraha,"Forest Rest House, Manguraha - BSPCB",04-05-2024 12:00:00,27.308328,84.531742,CO,8,74,18
India,Bihar,Muzaffarpur,"Buddha Colony, Muzaffarpur - BSPCB",04-05-2024 12:00:00,26.11442,85.39813,PM10,143,324,216
India,Bihar,Muzaffarpur,"Buddha Colony, Muzaffarpur - BSPCB",04-05-2024 12:00:00,26.11442,85.39813,OZONE,8,40,26
India,Bihar,Muzaffarpur,"MIT-Daudpur Kothi, Muzaffarpur - BSPCB",04-05-2024 12:00:00,26.1403345,85.3650192,PM2.5,127,377,269
India,Bihar,Muzaffarpur,"MIT-Daudpur Kothi, Muzaffarpur - BSPCB",04-05-2024 12:00:00,26.1403345,85.3650192,PM10,101,224,139
India,Bihar,Patna,"DRM Office Danapur, Patna - BSPCB",04-05-2024 12:00:00,25.586562,85.043586,NH3,2,3,3
India,Bihar,Patna,"Govt. High School Shikarpur, Patna - BSPCB",04-05-2024 12:00:00,25.592539,85.227158,CO,36,107,92
India,Bihar,Patna,"IGSC Planetarium Complex, Patna - BSPCB",04-05-2024 12:00:00,25.610369,85.132568,NO2,11,11,11
India,Bihar,Patna,"IGSC Planetarium Complex, Patna - BSPCB",04-05-2024 12:00:00,25.610369,85.132568,CO,12,14,13
India,Bihar,Patna,"Muradpur, Patna - BSPCB",04-05-2024 12:00:00,25.619651,85.147382,NO2,27,122,80
India,Bihar,Patna,"Muradpur, Patna - BSPCB",04-05-2024 12:00:00,25.619651,85.147382,NH3,1,4,2
India,Bihar,Patna,"Samanpura, Patna - BSPCB",04-05-2024 12:00:00,25.596727,85.085624,PM2.5,95,500,282
India,Bihar,Patna,"Samanpura, Patna - BSPCB",04-05-2024 12:00:00,25.596727,85.085624,NO2,9,106,53
India,Bihar,Rajgir,"Dangi Tola, Rajgir - BSPCB",04-05-2024 12:00:00,25.03280,85.41948,PM2.5,28,223,86
India,Bihar,Rajgir,"Dangi Tola, Rajgir - BSPCB",04-05-2024 12:00:00,25.03280,85.41948,NO2,18,44,22
India,Bihar,Saharsa,"Police Line, Saharsa - BSPCB",04-05-2024 12:00:00,25.892357,86.590325,PM2.5,NA,NA,NA
India,Bihar,Saharsa,"Police Line, Saharsa - BSPCB",04-05-2024 12:00:00,25.892357,86.590325,NH3,9,9,9
India,Bihar,Samastipur,"DM Office_Kasipur, Samastipur - BSPCB",04-05-2024 12:00:00,25.859655,85.77944,CO,14,22,21
India,Bihar,Siwan,"Chitragupta Nagar, Siwan - BSPCB",04-05-2024 12:00:00,26.2271665,84.3570427,NO2,24,106,42
India,Chandigarh,Chandigarh,"Sector 22, Chandigarh - CPCC",04-05-2024 12:00:00,30.735567,76.775714,PM10,71,164,109
India,Chandigarh,Chandigarh,"Sector 22, Chandigarh - CPCC",04-05-2024 12:00:00,30.735567,76.775714,OZONE,75,170,103
India,Chandigarh,Chandigarh,"Sector-25, Chandigarh - CPCC",04-05-2024 12:00:00,30.751462,76.762879,OZONE,12,46,26
India,Chandigarh,Chandigarh,"Sector-53, Chandigarh - CPCC",04-05-2024 12:00:00,30.719859,76.738637,NO2,9,58,20
India,Chhattisgarh,Bhilai,"32Bungalows, Bhilai - CECB",04-05-2024 12:00:00,21.194815,81.314770,NO2,18,34,28
India,Chhattisgarh,Bhilai,"Hathkhoj, Bhilai - CECB",04-05-2024 12:00:00,21.224231,81.408350,PM2.5,34,304,136
India,Chhattisgarh,Bhilai,"Hathkhoj, Bhilai - CECB",04-05-2024 12:00:00,21.224231,81.408350,NO2,10,74,34
India,Chhattisgarh,Bhilai,"Hathkhoj, Bhilai - CECB",04-05-2024 12:00:00,21.224231,81.408350,NH3,8,9,8
India,Chhattisgarh,Korba,"Rampur, Korba - CECB",04-05-2024 12:00:00,22.368195,82.746431,PM10,45,89,68
India,Chhattisgarh,Korba,"Urja Nagar, Korba - CECB",04-05-2024 12:00:00,22.348441,82.549611,NH3,1,12,4
India,Chhattisgarh,Kunjemura,"OP Jindal School, Kunjemura - CECB",04-05-2024 12:00:00,22.126650,83.483212,OZONE,4,122,46
India,Chhattisgarh,Milupara,"Govt. Higher Secondary School, Milupara - CECB",04-05-2024 12:00:00,22.1910172,83.5197009,OZONE,NA,NA,NA
India,Chhattisgarh,Raipur,"AIIMS, Raipur - CECB",04-05-2024 12:00:00,21.258815,81.578979,NO2,30,80,49
India,Chhattisgarh,Raipur,"AIIMS, Raipur - CECB",04-05-2024 12:00:00,21.258815,81.578979,CO,27,72,41
India,Chhattisgarh,Raipur,"AIIMS, Raipur - CECB",04-05-2024 12:00:00,21.258815,81.578979,OZONE,1,76,7
India,Chhattisgarh,Raipur,"Siltara Phase-II, Raipur - CECB",04-05-2024 12:00:00,21.371751,81.664929,NH3,3,3,3
India,Delhi,Delhi,"Alipur, Delhi - DPCC",04-05-2024 12:00:00,28.815329,77.153010,NO2,7,96,48
India,Delhi,Delhi,"Ashok Vihar, Delhi - DPCC",04-05-2024 12:00:00,28.695381,77.181665,PM2.5,55,379,232
India,Delhi,Delhi,"Ashok Vihar, Delhi - DPCC",04-05-2024 12:00:00,28.695381,77.181665,NO2,18,120,75
India,Delhi,Delhi,"Aya Nagar, Delhi - IMD",04-05-2024 12:00:00,28.4706914,77.1099364,CO,39,80,80
India,Delhi,Delhi,"Bawana, Delhi - DPCC",04-05-2024 12:00:00,28.776200,77.051074,CO,3,77,52
India,Delhi,Delhi,"Bawana, Delhi - DPCC",04-05-2024 12:00:00,28.776200,77.051074,OZONE,10,168,168
India,Delhi,Delhi,"Burari Crossing, Delhi - IMD",04-05-2024 12:00:00,28.7256504,77.2011573,PM10,154,430,260
India,Delhi,Delhi,"CRRI Mathura Road, Delhi - IMD",04-05-2024 12:00:00,28.5512005,77.2735737,OZONE,3,122,29
India,Delhi,Delhi,"Chandni Chowk, Delhi - IITM",04-05-2024 12:00:00,28.656756,77.227234,NH3,21,50,31
India,Delhi,Delhi,"DTU, Delhi - CPCB",04-05-2024 12:00:00,28.7500499,77.1112615,NH3,2,12,7
India,Delhi,Delhi,"DTU, Delhi - CPCB",04-05-2024 12:00:00,28.7500499,77.1112615,OZONE,37,274,180
India,Delhi,Delhi,"Dr. Karni Singh Shooting Range, Delhi - DPCC",04-05-2024 12:00:00,28.498571,77.264840,PM10,155,421,254
India,Delhi,Delhi,"Dr. Karni Singh Shooting Range, Delhi - DPCC",04-05-2024 12:00:00,28.498571,77.264840,NO2,25,171,105
India,Delhi,Delhi,"Dr. Karni Singh Shooting Range, Delhi - DPCC",04-05-2024 12:00:00,28.498571,77.264840,CO,28,108,70
India,Delhi,Delhi,"Dwarka-Sector 8, Delhi - DPCC ",04-05-2024 12:00:00,28.5710274,77.0719006,PM10,160,500,326
India,Delhi,Delhi,"ITO, Delhi - CPCB",04-05-2024 12:00:00,28.628624,77.241060,OZONE,12,80,28
India,Delhi,Delhi,"Jahangirpuri, Delhi - DPCC",04-05-2024 12:00:00,28.732820,77.170633,SO2,7,97,54
India,Delhi,Delhi,"Jawaharlal Nehru Stadium, Delhi - DPCC",04-05-2024 12:00:00,28.580280,77.233829,NH3,5,16,8
India,Delhi,Delhi,"Lodhi Road, Delhi - IITM",04-05-2024 12:00:00,28.588333,77.221667,OZONE,16,20,17
India,Delhi,Delhi,"Major Dhyan Chand National Stadium, Delhi - DPCC",04-05-2024 12:00:00,28.611281,77.237738,NH3,5,9,7
India,Delhi,Delhi,"Major Dhyan Chand National Stadium, Delhi - DPCC",04-05-2024 12:00:00,28.611281,77.237738,SO2,21,124,41
India,Delhi,Delhi,"Mundka, Delhi - DPCC",04-05-2024 12:00:00,28.684678,77.076574,NO2,17,121,65
India,Delhi,Delhi,"Mundka, Delhi - DPCC",04-05-2024 12:00:00,28.684678,77.076574,SO2,16,123,68
India,Delhi,Delhi,"Mundka, Delhi - DPCC",04-05-2024 12:00:00,28.684678,77.076574,OZONE,53,244,244
India,Delhi,Delhi,"NSIT Dwarka, Delhi - CPCB",04-05-2024 12:00:00,28.60909,77.0325413,CO,26,50,34
India,Delhi,Delhi,"Najafgarh, Delhi - DPCC",04-05-2024 12:00:00,28.570173,76.933762,NH3,5,16,11
India,Delhi,Delhi,"Narela, Delhi - DPCC",04-05-2024 12:00:00,28.822836,77.101981,PM2.5,58,403,253
India,Delhi,Delhi,"Nehru Nagar, Delhi - DPCC",04-05-2024 12:00:00,28.567890,77.250515,PM2.5,74,457,251
India,Delhi,Delhi,"Nehru Nagar, Delhi - DPCC",04-05-2024 12:00:00,28.567890,77.250515,OZONE,1,219,51
India,Delhi,Delhi,"Patparganj, Delhi - DPCC",04-05-2024 12:00:00,28.623763,77.287209,PM2.5,65,385,206
India,Delhi,Delhi,"Patparganj, Delhi - DPCC",04-05-2024 12:00:00,28.623763,77.287209,PM10,166,453,279
India,Delhi,Delhi,"Pusa, Delhi - DPCC",04-05-2024 12:00:00,28.639652,77.146275,PM10,184,500,328
India,Delhi,Delhi,"Pusa, Delhi - IMD",04-05-2024 12:00:00,28.636110,77.173332,CO,33,70,66
India,Delhi,Delhi,"Rohini, Delhi - DPCC",04-05-2024 12:00:00,28.732528,77.119920,PM2.5,64,456,267
India,Delhi,Delhi,"Rohini, Delhi - DPCC",04-05-2024 12:00:00,28.732528,77.119920,NH3,6,13,10
India,Delhi,Delhi,"Rohini, Delhi - DPCC",04-05-2024 12:00:00,28.732528,77.119920,SO2,12,94,38
India,Delhi,Delhi,"Shadipur, Delhi - CPCB",04-05-2024 12:00:00,28.6514781,77.1473105,NO2,61,106,81
India,Delhi,Delhi,"Shadipur, Delhi - CPCB",04-05-2024 12:00:00,28.6514781,77.1473105,OZONE,14,80,21
India,Delhi,Delhi,"Sirifort, Delhi - CPCB",04-05-2024 12:00:00,28.5504249,77.2159377,SO2,13,51,25
India,Delhi,Delhi,"Sonia Vihar, Delhi - DPCC",04-05-2024 12:00:00,28.710508,77.249485,PM2.5,45,355,222
India,Delhi,Delhi,"Sonia Vihar, Delhi - DPCC",04-05-2024 12:00:00,28.710508,77.249485,SO2,12,53,28
India,Delhi,Delhi,"Vivek Vihar, Delhi - DPCC",04-05-2024 12:00:00,28.672342,77.315260,PM2.5,73,337,237
India,Delhi,Delhi,"Vivek Vihar, Delhi - DPCC",04-05-2024 12:00:00,28.672342,77.315260,OZONE,6,189,189
India,Delhi,Delhi,"Wazirpur, Delhi - DPCC",04-05-2024 12:00:00,28.699793,77.165453,PM10,151,425,280
India,Delhi,Delhi,"Wazirpur, Delhi - DPCC",04-05-2024 12:00:00,28.699793,77.165453,NO2,43,137,90
India,Delhi,Delhi,"Wazirpur, Delhi - DPCC",04-05-2024 12:00:00,28.699793,77.165453,NH3,6,15,11
India,Delhi,Delhi,"Wazirpur, Delhi - DPCC",04-05-2024 12:00:00,28.699793,77.165453,CO,36,100,71
India,Gujarat,Ahmedabad,"Chandkheda, Ahmedabad - IITM",04-05-2024 12:00:00,23.107969,72.574648,PM10,85,272,119
India,Gujarat,Ahmedabad,"Chandkheda, Ahmedabad - IITM",04-05-2024 12:00:00,23.107969,72.574648,SO2,3,18,6
India,Gujarat,Ahmedabad,"Chandkheda, Ahmedabad - IITM",04-05-2024 12:00:00,23.107969,72.574648,OZONE,2,54,9
India,Gujarat,Ahmedabad,"Gyaspur, Ahmedabad - IITM",04-05-2024 12:00:00,22.977134,72.553024,PM2.5,71,344,150
India,Gujarat,Ahmedabad,"Gyaspur, Ahmedabad - IITM",04-05-2024 12:00:00,22.977134,72.553024,SO2,5,21,11
India,Gujarat,Ahmedabad,"Raikhad, Ahmedabad - IITM",04-05-2024 12:00:00,23.020509,72.579261,NO2,11,15,13
India,Gujarat,Ahmedabad,"Raikhad, Ahmedabad - IITM",04-05-2024 12:00:00,23.020509,72.579261,SO2,4,30,8
India,Gujarat,Ahmedabad,"Raikhad, Ahmedabad - IITM",04-05-2024 12:00:00,23.020509,72.579261,CO,18,118,29
India,Gujarat,Ahmedabad,"Rakhial, Ahmedabad - IITM",04-05-2024 12:00:00,23.016834,72.625775,PM2.5,76,368,159
India,Gujarat,Ahmedabad,"Rakhial, Ahmedabad - IITM",04-05-2024 12:00:00,23.016834,72.625775,NO2,12,43,22
India,Gujarat,Ahmedabad,"SAC ISRO Satellite, Ahmedabad - IITM",04-05-2024 12:00:00,23.023389,72.515201,NH3,3,3,3
India,Gujarat,Ahmedabad,"SVPI Airport Hansol, Ahmedabad - IITM",04-05-2024 12:00:00,23.076793,72.627874,CO,27,157,50
India,Gujarat,Ahmedabad,"Sardar Vallabhbhai Patel Stadium, Ahmedabad - IITM",04-05-2024 12:00:00,23.043070,72.562968,SO2,4,11,7
India,Gujarat,Ahmedabad,"Sardar Vallabhbhai Patel Stadium, Ahmedabad - IITM",04-05-2024 12:00:00,23.043070,72.562968,OZONE,4,26,8
India,Gujarat,Ankleshwar,"GIDC, Ankleshwar - GPCB",04-05-2024 12:00:00,21.613267,73.010555,OZONE,17,36,27
India,Gujarat,Gandhinagar,"Sector-10, Gandhinagar - GPCB",04-05-2024 12:00:00,23.221714,72.654328,PM10,37,335,107
India,Gujarat,Gandhinagar,"Sector-10, Gandhinagar - GPCB",04-05-2024 12:00:00,23.221714,72.654328,NO2,16,324,39
India,Gujarat,Gandhinagar,"Sector-10, Gandhinagar - GPCB",04-05-2024 12:00:00,23.221714,72.654328,SO2,6,10,7
India,Gujarat,Surat,"Science Center, Surat - SMC",04-05-2024 12:00:00,21.170046,72.795405,PM2.5,2,28,13
India,Gujarat,Surat,"Science Center, Surat - SMC",04-05-2024 12:00:00,21.170046,72.795405,SO2,1,6,3
India,Gujarat,Vapi,"Phase-1 GIDC, Vapi - GPCB",04-05-2024 12:00:00,20.362421,72.918013,PM2.5,27,107,50
India,Gujarat,Vapi,"Phase-1 GIDC, Vapi - GPCB",04-05-2024 12:00:00,20.362421,72.918013,SO2,53,54,54
India,Haryana,Ambala,"Patti Mehar, Ambala - HSPCB",04-05-2024 12:00:00,30.379589,76.778328,PM10,71,115,93
India,Haryana,Ambala,"Patti Mehar, Ambala - HSPCB",04-05-2024 12:00:00,30.379589,76.778328,NH3,8,8,8
India,Haryana,Ambala,"Patti Mehar, Ambala - HSPCB",04-05-2024 12:00:00,30.379589,76.778328,CO,30,60,52
India,Haryana,Ballabgarh,"Nathu Colony, Ballabgarh - HSPCB",04-05-2024 12:00:00,28.3419248,77.319699,CO,12,110,49
India,Haryana,Bhiwani,"H.B. Colony, Bhiwani - HSPCB",04-05-2024 12:00:00,28.806223,76.141105,PM10,88,308,137
India,Haryana,Bhiwani,"H.B. Colony, Bhiwani - HSPCB",04-05-2024 12:00:00,28.806223,76.141105,CO,13,60,51
India,Haryana,Faridabad,"Sector 30, Faridabad - HSPCB",04-05-2024 12:00:00,28.4417,77.3217,PM2.5,257,305,290
India,Haryana,Faridabad,"Sector 30, Faridabad - HSPCB",04-05-2024 12:00:00,28.4417,77.3217,NO2,30,33,31
India,Haryana,Faridabad,"Sector 30, Faridabad - HSPCB",04-05-2024 12:00:00,28.4417,77.3217,OZONE,58,62,61
India,Haryana,Faridabad,"Sector- 16A, Faridabad - HSPCB",04-05-2024 12:00:00,28.4088421,77.3099081,SO2,1,23,15
India,Haryana,Fatehabad,"Huda Sector, Fatehabad - HSPCB",04-05-2024 12:00:00,29.503664,75.467934,PM10,108,208,152
India,Haryana,Gurugram,"Sector-51, Gurugram - HSPCB",04-05-2024 12:00:00,28.4227,77.0667,PM2.5,279,449,378
India,Haryana,Gurugram,"Sector-51, Gurugram - HSPCB",04-05-2024 12:00:00,28.4227,77.0667,NH3,6,14,9
India,Haryana,Gurugram,"Teri Gram, Gurugram - HSPCB",04-05-2024 12:00:00,28.4275,77.1465,PM10,211,432,332
India,Haryana,Gurugram,"Teri Gram, Gurugram - HSPCB",04-05-2024 12:00:00,28.4275,77.1465,SO2,5,6,6
India,Haryana,Gurugram,"Vikas Sadan, Gurugram - HSPCB",04-05-2024 12:00:00,28.4501238,77.0263051,NO2,5,25,14
India,Haryana,Hisar,"Urban Estate-II, Hisar - HSPCB",04-05-2024 12:00:00,29.140560,75.744941,PM2.5,68,301,177
India,Haryana,Hisar,"Urban Estate-II, Hisar - HSPCB",04-05-2024 12:00:00,29.140560,75.744941,NH3,9,14,11
India,Haryana,Hisar,"Urban Estate-II, Hisar - HSPCB",04-05-2024 12:00:00,29.140560,75.744941,SO2,NA,NA,NA
India,Haryana,Jind,"Police Lines, Jind - HSPCB",04-05-2024 12:00:00,29.307814,76.337619,PM10,102,179,137
India,Haryana,Jind,"Police Lines, Jind - HSPCB",04-05-2024 12:00:00,29.307814,76.337619,NO2,7,16,11
India,Haryana,Jind,"Police Lines, Jind - HSPCB",04-05-2024 12:00:00,29.307814,76.337619,OZONE,8,29,18
India,Haryana,Kaithal,"Rishi Nagar, Kaithal - HSPCB",04-05-2024 12:00:00,29.8006,76.4155,OZONE,6,10,9
India,Haryana,Karnal,"Sector-12, Karnal - HSPCB",04-05-2024 12:00:00,29.695300,77.002700,PM2.5,31,149,98
India,Haryana,Kurukshetra,"Sector-7, Kurukshetra - HSPCB",04-05-2024 12:00:00,29.966942,76.875879,NO2,9,10,10
India,Haryana,Mandikhera,"General Hospital, Mandikhera - HSPCB",04-05-2024 12:00:00,27.9002,76.9938,NH3,17,19,18
India,Haryana,Narnaul,"Shastri Nagar, Narnaul - HSPCB",04-05-2024 12:00:00,28.060249,76.113115,PM10,85,196,125
India,Haryana,Palwal,"Shyam Nagar, Palwal - HSPCB",04-05-2024 12:00:00,28.1485564,77.3320667,NH3,8,9,9
India,Haryana,Panipat,"Sector-18, Panipat - HSPCB",04-05-2024 12:00:00,29.497973,76.993331,NH3,2,3,2
India,Haryana,Panipat,"Sector-18, Panipat - HSPCB",04-05-2024 12:00:00,29.497973,76.993331,CO,24,26,25
India,Haryana,Sirsa,"F-Block, Sirsa - HSPCB",04-05-2024 12:00:00,29.536400,75.015800,SO2,NA,NA,NA
India,Haryana,Sirsa,"F-Block, Sirsa - HSPCB",04-05-2024 12:00:00,29.536400,75.015800,OZONE,20,82,40
India,Haryana,Sonipat,"Murthal, Sonipat - HSPCB",04-05-2024 12:00:00,29.027200,77.062100,PM10,86,88,87
India,Haryana,Yamuna Nagar,"Gobind Pura, Yamuna Nagar - HSPCB",04-05-2024 12:00:00,30.1480566,77.2893471,CO,38,65,49
India,Himachal Pradesh,Baddi,"HIMUDA Complex Phase-1, Baddi - HPPCB",04-05-2024 12:00:00,30.943887,76.801991,PM10,78,193,138
India,Karnataka,Bagalkot,"Vidayagiri, Bagalkot - KSPCB",04-05-2024 12:00:00,16.172806,75.659694,NH3,1,2,1
India,Karnataka,Bengaluru,"BTM Layout, Bengaluru - CPCB",04-05-2024 12:00:00,12.9135218,77.5950804,NO2,26,42,29
India,Karnataka,Bengaluru,"Bapuji Nagar, Bengaluru - KSPCB",04-05-2024 12:00:00,12.951913,77.539784,SO2,5,9,7
India,Karnataka,Bengaluru,"Bapuji Nagar, Bengaluru - KSPCB",04-05-2024 12:00:00,12.951913,77.539784,OZONE,25,28,26
India,Karnataka,Bengaluru,"Hebbal, Bengaluru - KSPCB",04-05-2024 12:00:00,13.029152,77.585901,PM2.5,33,83,54
India,Karnataka,Bengaluru,"Hebbal, Bengaluru - KSPCB",04-05-2024 12:00:00,13.029152,77.585901,PM10,34,122,62
India,Karnataka,Bengaluru,"Hebbal, Bengaluru - KSPCB",04-05-2024 12:00:00,13.029152,77.585901,NO2,4,5,5
India,Karnataka,Bengaluru,"Hebbal, Bengaluru - KSPCB",04-05-2024 12:00:00,13.029152,77.585901,NH3,1,1,1
India,Karnataka,Bengaluru,"Hebbal, Bengaluru - KSPCB",04-05-2024 12:00:00,13.029152,77.585901,CO,6,30,19
India,Karnataka,Bengaluru,"Hombegowda Nagar, Bengaluru - KSPCB",04-05-2024 12:00:00,12.938539,77.590100,CO,22,66,27
India,Karnataka,Bengaluru,"Jayanagar 5th Block, Bengaluru - KSPCB",04-05-2024 12:00:00,12.920984,77.584908,OZONE,32,35,33
India,Karnataka,Bengaluru,"Kasturi Nagar, Bengaluru - KSPCB",04-05-2024 12:00:00,13.003872,77.664217,NO2,16,17,17
India,Karnataka,Bengaluru,"RVCE-Mailasandra, Bengaluru - KSPCB",04-05-2024 12:00:00,12.921418,77.502466,PM10,30,102,73
India,Karnataka,Bengaluru,"Sanegurava Halli, Bengaluru - KSPCB",04-05-2024 12:00:00,12.990328,77.5431385,CO,8,54,15
India,Karnataka,Bengaluru,"Shivapura_Peenya, Bengaluru - KSPCB",04-05-2024 12:00:00,13.0246342,77.5080115,PM10,33,77,54
India,Karnataka,Chamarajanagar,"Urban, Chamarajanagar - KSPCB",04-05-2024 12:00:00,11.55358,76.55521,NO2,23,36,34
India,Karnataka,Chamarajanagar,"Urban, Chamarajanagar - KSPCB",04-05-2024 12:00:00,11.55358,76.55521,CO,20,141,26
India,Karnataka,Chamarajanagar,"Urban, Chamarajanagar - KSPCB",04-05-2024 12:00:00,11.55358,76.55521,OZONE,29,39,37
India,Karnataka,Chikkamagaluru,"Kalyana Nagara, Chikkamagaluru - KSPCB",04-05-2024 12:00:00,13.328028,75.797056,NO2,16,27,19
India,Karnataka,Davanagere,"Devaraj Urs Badavane, Davanagere - KSPCB",04-05-2024 12:00:00,14.475800,75.905200,SO2,4,6,5
India,Karnataka,Davanagere,"Devaraj Urs Badavane, Davanagere - KSPCB",04-05-2024 12:00:00,14.475800,75.905200,CO,16,18,16
India,Karnataka,Dharwad,"Kalabhavan, Dharwad - KSPCB",04-05-2024 12:00:00,15.459706,75.008381,PM10,17,427,114
India,Karnataka,Dharwad,"Kalabhavan, Dharwad - KSPCB",04-05-2024 12:00:00,15.459706,75.008381,NO2,8,28,14
India,Karnataka,Gadag,"Panchal Nagar, Gadag - KSPCB",04-05-2024 12:00:00,15.411456,75.638133,NH3,1,3,2
India,Karnataka,Gadag,"Panchal Nagar, Gadag - KSPCB",04-05-2024 12:00:00,15.411456,75.638133,SO2,2,18,14
India,Karnataka,Gadag,"Panchal Nagar, Gadag - KSPCB",04-05-2024 12:00:00,15.411456,75.638133,OZONE,33,79,43
India,Karnataka,Hassan,"B.Katihalli, Hassan - KSPCB",04-05-2024 12:00:00,13.008556,76.125258,CO,2,2,2
India,Karnataka,Haveri,"Ashwini Nagar, Haveri - KSPCB",04-05-2024 12:00:00,14.791800,75.389600,PM10,53,99,75
India,Karnataka,Haveri,"Ashwini Nagar, Haveri - KSPCB",04-05-2024 12:00:00,14.791800,75.389600,OZONE,18,22,19
India,Karnataka,Hubballi,"Deshpande Nagar, Hubballi - KSPCB",04-05-2024 12:00:00,15.351773,75.140726,NH3,5,6,5
India,Karnataka,Hubballi,"Lingaraj Nagar, Hubballi - KSPCB",04-05-2024 12:00:00,15.3714823,75.1160168,PM2.5,44,59,53
India,Karnataka,Karwar,"KHB Colony, Karwar - KSPCB",04-05-2024 12:00:00,14.816666,74.141003,NH3,1,4,1
India,Karnataka,Kolar,"Tamaka Ind. Area, Kolar - KSPCB",04-05-2024 12:00:00,13.1276288,78.1570122,OZONE,11,13,13
India,Karnataka,Koppal,"Diwator Nagar, Koppal - KSPCB",04-05-2024 12:00:00,15.347630,76.181767,PM10,16,38,28
India,Karnataka,Koppal,"Diwator Nagar, Koppal - KSPCB",04-05-2024 12:00:00,15.347630,76.181767,NO2,19,69,48
India,Karnataka,Madikeri,"Stuart Hill, Madikeri - KSPCB",04-05-2024 12:00:00,12.415911,75.735050,NH3,1,3,1
India,Karnataka,Ramanagara,"Vijay Nagar, Ramanagara - KSPCB",04-05-2024 12:00:00,12.733409,77.298051,PM10,NA,NA,NA
India,Karnataka,Shivamogga,"Vinoba Nagara, Shivamogga - KSPCB",04-05-2024 12:00:00,13.940000,75.555917,PM2.5,29,44,41
India,Karnataka,Tumakuru,"Thimmalapura, Tumakuru - KSPCB",04-05-2024 12:00:00,13.377516,77.099072,PM10,102,162,126
India,Karnataka,Udupi,"Brahmagiri, Udupi - KSPCB",04-05-2024 12:00:00,13.34194444,74.74694444,NO2,28,30,29
India,Karnataka,Udupi,"Brahmagiri, Udupi - KSPCB",04-05-2024 12:00:00,13.34194444,74.74694444,NH3,1,1,1
India,Karnataka,Udupi,"Brahmagiri, Udupi - KSPCB",04-05-2024 12:00:00,13.34194444,74.74694444,SO2,9,13,11
India,Karnataka,Yadgir,"Collector Office, Yadgir - KSPCB",04-05-2024 12:00:00,16.7602,77.1428,PM2.5,32,77,52
India,Karnataka,Yadgir,"Collector Office, Yadgir - KSPCB",04-05-2024 12:00:00,16.7602,77.1428,NH3,NA,NA,NA
India,Kerala,Eloor,"Udyogamandal, Eloor - Kerala PCB",04-05-2024 12:00:00,10.073232,76.302765,PM10,28,54,42
India,Kerala,Eloor,"Udyogamandal, Eloor - Kerala PCB",04-05-2024 12:00:00,10.073232,76.302765,NH3,1,1,1
India,Kerala,Eloor,"Udyogamandal, Eloor - Kerala PCB",04-05-2024 12:00:00,10.073232,76.302765,OZONE,12,16,13
India,Kerala,Kollam,"Polayathode, Kollam - Kerala PCB",04-05-2024 12:00:00,8.8787,76.6073,SO2,1,64,9
India,Kerala,Thiruvananthapuram,"Kariavattom, Thiruvananthapuram - Kerala PCB",04-05-2024 12:00:00,8.563700,76.886500,NO2,8,10,9
India,Kerala,Thiruvananthapuram,"Kariavattom, Thiruvananthapuram - Kerala PCB",04-05-2024 12:00:00,8.563700,76.886500,OZONE,26,31,30
India,Kerala,Thiruvananthapuram,"Plammoodu, Thiruvananthapuram - Kerala PCB",04-05-2024 12:00:00,8.5149093,76.9435879,CO,10,30,17
India,Kerala,Thiruvananthapuram,"Plammoodu, Thiruvananthapuram - Kerala PCB",04-05-2024 12:00:00,8.5149093,76.9435879,OZONE,1,57,16
India,Kerala,Thrissur,"Corporation Ground, Thrissur - Kerala PCB",04-05-2024 12:00:00,10.532400,76.215900,PM2.5,45,51,48
India,Kerala,Thrissur,"Corporation Ground, Thrissur - Kerala PCB",04-05-2024 12:00:00,10.532400,76.215900,PM10,60,69,65
India,Kerala,Thrissur,"Corporation Ground, Thrissur - Kerala PCB",04-05-2024 12:00:00,10.532400,76.215900,NH3,NA,NA,NA
India,Kerala,Thrissur,"Corporation Ground, Thrissur - Kerala PCB",04-05-2024 12:00:00,10.532400,76.215900,SO2,NA,NA,NA
India,Madhya Pradesh,Bhopal,"Idgah Hills, Bhopal - MPPCB",04-05-2024 12:00:00,23.264759,77.381568,PM2.5,30,70,47
India,Madhya Pradesh,Bhopal,"Idgah Hills, Bhopal - MPPCB",04-05-2024 12:00:00,23.264759,77.381568,NH3,4,6,5
India,Madhya Pradesh,Bhopal,"Paryavaran Parisar, Bhopal - MPPCB",04-05-2024 12:00:00,23.210494,77.425409,PM2.5,37,193,79
India,Madhya Pradesh,Bhopal,"T T Nagar, Bhopal - MPPCB",04-05-2024 12:00:00,23.233584,77.400574,PM2.5,38,99,60
India,Madhya Pradesh,Bhopal,"T T Nagar, Bhopal - MPPCB",04-05-2024 12:00:00,23.233584,77.400574,OZONE,28,148,98
India,Madhya Pradesh,Dewas,"Bhopal Chauraha, Dewas - MPPCB",04-05-2024 12:00:00,22.9682591,76.064118,NH3,3,3,3
India,Madhya Pradesh,Dewas,"Bhopal Chauraha, Dewas - MPPCB",04-05-2024 12:00:00,22.9682591,76.064118,SO2,5,60,25
India,Madhya Pradesh,Dewas,"Bhopal Chauraha, Dewas - MPPCB",04-05-2024 12:00:00,22.9682591,76.064118,CO,15,111,25
India,Madhya Pradesh,Gwalior,"Deen Dayal Nagar, Gwalior - MPPCB",04-05-2024 12:00:00,26.259242,78.216432,NH3,5,14,9
India,Madhya Pradesh,Gwalior,"Maharaj Bada, Gwalior - MPPCB",04-05-2024 12:00:00,26.200388,78.147714,PM2.5,37,257,129
India,Madhya Pradesh,Gwalior,"Maharaj Bada, Gwalior - MPPCB",04-05-2024 12:00:00,26.200388,78.147714,NH3,2,29,9
India,Madhya Pradesh,Gwalior,"Phool Bagh, Gwalior - Mondelez Ind. Food",04-05-2024 12:00:00,26.210536,78.171,CO,79,106,82
India,Madhya Pradesh,Indore,"Chhoti Gwaltoli, Indore - MPPCB",04-05-2024 12:00:00,22.4310,75.5213,CO,46,125,59
India,Madhya Pradesh,Indore,"Chhoti Gwaltoli, Indore - MPPCB",04-05-2024 12:00:00,22.4310,75.5213,OZONE,11,191,68
India,Madhya Pradesh,Indore,"Maguda Nagar, Indore - IMC",04-05-2024 12:00:00,22.7524,75.8872,CO,24,41,27
India,Madhya Pradesh,Indore,"Maguda Nagar, Indore - IMC",04-05-2024 12:00:00,22.7524,75.8872,OZONE,36,48,45
India,Madhya Pradesh,Indore,"Regional Park, Indore - IMC",04-05-2024 12:00:00,22.6780,75.8559,NO2,NA,NA,NA
India,Madhya Pradesh,Jabalpur,"Gupteshwar, Jabalpur - JMC",04-05-2024 12:00:00,23.142888,79.916147,PM2.5,43,312,136
India,Madhya Pradesh,Jabalpur,"Gupteshwar, Jabalpur - JMC",04-05-2024 12:00:00,23.142888,79.916147,CO,9,123,32
India,Madhya Pradesh,Jabalpur,"Marhatal, Jabalpur - MPPCB",04-05-2024 12:00:00,23.168606,79.932247,PM10,95,298,146
India,Madhya Pradesh,Jabalpur,"Marhatal, Jabalpur - MPPCB",04-05-2024 12:00:00,23.168606,79.932247,NH3,2,3,3
India,Madhya Pradesh,Jabalpur,"Marhatal, Jabalpur - MPPCB",04-05-2024 12:00:00,23.168606,79.932247,SO2,5,33,14
India,Madhya Pradesh,Jabalpur,"Suhagi, Jabalpur - JMC",04-05-2024 12:00:00,23.218135,79.957770,PM10,78,257,149
India,Madhya Pradesh,Katni,"Gole Bazar, Katni - MPPCB",04-05-2024 12:00:00,23.50016,80.23284,NO2,34,168,94
India,Madhya Pradesh,Katni,"Gole Bazar, Katni - MPPCB",04-05-2024 12:00:00,23.50016,80.23284,SO2,8,108,35
India,Madhya Pradesh,Katni,"Gole Bazar, Katni - MPPCB",04-05-2024 12:00:00,23.50016,80.23284,CO,8,136,42
India,Madhya Pradesh,Mandideep,"Sector-D Industrial Area, Mandideep - MPPCB",04-05-2024 12:00:00,23.108440,77.511428,SO2,9,85,29
India,Madhya Pradesh,Sagar,"Civil Lines, Sagar - MPPCB",04-05-2024 12:00:00,23.838586,78.759431,PM10,30,197,116
India,Madhya Pradesh,Sagar,"Deen Dayal Nagar, Sagar - MPPCB",04-05-2024 12:00:00,23.8640158,78.80289321,PM2.5,18,67,37
India,Madhya Pradesh,Sagar,"Deen Dayal Nagar, Sagar - MPPCB",04-05-2024 12:00:00,23.8640158,78.80289321,SO2,9,18,12
India,Madhya Pradesh,Satna,"Bandhavgar Colony, Satna - Birla Cement",04-05-2024 12:00:00,24.58434363,80.8549414,NO2,4,4,4
India,Madhya Pradesh,Satna,"Bandhavgar Colony, Satna - Birla Cement",04-05-2024 12:00:00,24.58434363,80.8549414,SO2,4,6,5
India,Madhya Pradesh,Singrauli,"Suryakiran Bhawan NCL, Singrauli - MPPCB",04-05-2024 12:00:00,24.108970,82.645580,SO2,NA,NA,NA
India,Maharashtra,Ahmednagar,"Tarakpur, Ahmednagar - MPCB",04-05-2024 12:00:00,19.10122,74.73339,NO2,16,160,65
India,Maharashtra,Akola,"Ramdaspeth, Akola - MPCB",04-05-2024 12:00:00,20.719516,77.000253,SO2,9,32,16
India,Maharashtra,Akola,"Ramdaspeth, Akola - MPCB",04-05-2024 12:00:00,20.719516,77.000253,CO,18,127,36
India,Maharashtra,Amravati,"Shivneri Colony, Amravati - MPCB",04-05-2024 12:00:00,20.9402359,77.7895248,NO2,3,88,26
India,Maharashtra,Amravati,"Shri Shivaji Science College, Amaravati - MPCB",04-05-2024 12:00:00,20.939198,77.765701,PM2.5,60,211,90
India,Maharashtra,Aurangabad,"MIDC Chilkalthana, Aurangabad - MPCB",04-05-2024 12:00:00,19.875620,75.387310,SO2,NA,NA,NA
India,Maharashtra,Aurangabad,"MIDC Chilkalthana, Aurangabad - MPCB",04-05-2024 12:00:00,19.875620,75.387310,OZONE,7,135,91
India,Maharashtra,Aurangabad,"More Chowk Waluj, Aurangabad - MPCB",04-05-2024 12:00:00,19.8389439,75.244448,PM10,50,115,85
India,Maharashtra,Aurangabad,"Rachnakar Colony, Aurangabad - MPCB",04-05-2024 12:00:00,19.863756,75.321188,CO,1,113,15
India,Maharashtra,Badlapur,"Katrap, Badlapur - MPCB",04-05-2024 12:00:00,19.16485,73.23409,NH3,1,2,1
India,Maharashtra,Badlapur,"Katrap, Badlapur - MPCB",04-05-2024 12:00:00,19.16485,73.23409,CO,17,48,35
India,Maharashtra,Badlapur,"Katrap, Badlapur - MPCB",04-05-2024 12:00:00,19.16485,73.23409,OZONE,1,125,24
India,Maharashtra,Belapur,"CBD Belapur, Belapur - MPCB",04-05-2024 12:00:00,19.0243902,73.0406721,SO2,2,10,4
India,Maharashtra,Bhiwandi,"Gokul Nagar, Bhiwandi - MPCB",04-05-2024 12:00:00,19.309073,73.057223,PM2.5,30,78,53
India,Maharashtra,Bhiwandi,"Gokul Nagar, Bhiwandi - MPCB",04-05-2024 12:00:00,19.309073,73.057223,PM10,70,126,92
India,Maharashtra,Boisar,"Khaira, Boisar - MPCB",04-05-2024 12:00:00,19.786089,72.757971,NO2,2,50,26
India,Maharashtra,Dhule,"Deopur, Dhule - MPCB",04-05-2024 12:00:00,20.918946,74.776388,PM2.5,88,171,111
India,Maharashtra,Jalgaon,"Prabhat Colony, Jalgaon - MPCB",04-05-2024 12:00:00,21.001264,75.565602,PM10,103,205,145
India,Maharashtra,Jalna,"Old MIDC, Jalna - MPCB",04-05-2024 12:00:00,19.854616,75.905894,NO2,15,45,30
India,Maharashtra,Kalyan,"Khadakpada, Kalyan - MPCB",04-05-2024 12:00:00,19.25292,73.142019,PM10,119,146,133
India,Maharashtra,Kalyan,"Khadakpada, Kalyan - MPCB",04-05-2024 12:00:00,19.25292,73.142019,SO2,26,31,29
India,Maharashtra,Kalyan,"Khadakpada, Kalyan - MPCB",04-05-2024 12:00:00,19.25292,73.142019,CO,17,20,20
India,Maharashtra,Kalyan,"Khadakpada, Kalyan - MPCB",04-05-2024 12:00:00,19.25292,73.142019,OZONE,9,27,12
India,Maharashtra,Kolhapur,"Shivaji University, Kolhapur - MPCB",04-05-2024 12:00:00,16.6870449,74.2505872,PM2.5,30,113,68
India,Maharashtra,Kolhapur,"Shivaji University, Kolhapur - MPCB",04-05-2024 12:00:00,16.6870449,74.2505872,PM10,105,150,127
India,Maharashtra,Kolhapur,"Shivaji University, Kolhapur - MPCB",04-05-2024 12:00:00,16.6870449,74.2505872,NH3,3,7,5
India,Maharashtra,Latur,"Sawe Wadi, Latur - MPCB",04-05-2024 12:00:00,18.39963,76.57452,PM2.5,61,155,100
India,Maharashtra,Latur,"Sawe Wadi, Latur - MPCB",04-05-2024 12:00:00,18.39963,76.57452,NO2,NA,NA,NA
India,Maharashtra,Mahad,"Kamble Tarf Birwadi, Mahad - MPCB",04-05-2024 12:00:00,18.1023399,73.4783687,PM10,NA,NA,NA
India,Maharashtra,Mahad,"Kamble Tarf Birwadi, Mahad - MPCB",04-05-2024 12:00:00,18.1023399,73.4783687,SO2,NA,NA,NA
India,Maharashtra,Mahad,"Kamble Tarf Birwadi, Mahad - MPCB",04-05-2024 12:00:00,18.1023399,73.4783687,OZONE,44,110,44
India,Maharashtra,Malegaon,"Mahesh Nagar, Malegaon - MPCB",04-05-2024 12:00:00,20.555712,74.529236,PM10,101,165,126
India,Maharashtra,Malegaon,"Mahesh Nagar, Malegaon - MPCB",04-05-2024 12:00:00,20.555712,74.529236,SO2,10,33,20
India,Maharashtra,Malegaon,"Mahesh Nagar, Malegaon - MPCB",04-05-2024 12:00:00,20.555712,74.529236,CO,11,36,20
India,Maharashtra,Mira-Bhayandar,"Bhayandar West, Mira-Bhayandar - MPCB",04-05-2024 12:00:00,19.296481,72.840923,CO,20,39,24
India,Maharashtra,Mumbai,"Borivali East, Mumbai - IITM",04-05-2024 12:00:00,19.23241,72.86895,PM10,55,110,82
India,Maharashtra,Mumbai,"Borivali East, Mumbai - IITM",04-05-2024 12:00:00,19.23241,72.86895,NH3,3,6,4
India,Maharashtra,Mumbai,"Borivali East, Mumbai - MPCB",04-05-2024 12:00:00,19.2243333,72.8658113,PM10,NA,NA,NA
India,Maharashtra,Mumbai,"Chakala-Andheri East, Mumbai - IITM",04-05-2024 12:00:00,19.11074,72.86084,CO,2,100,67
India,Maharashtra,Mumbai,"Chembur, Mumbai - MPCB",04-05-2024 12:00:00,19.0364585,72.8954371,PM10,45,118,78
India,Maharashtra,Mumbai,"Chembur, Mumbai - MPCB",04-05-2024 12:00:00,19.0364585,72.8954371,NO2,16,58,28
India,Maharashtra,Mumbai,"Colaba, Mumbai - MPCB",04-05-2024 12:00:00,18.910000,72.820000,NO2,19,22,20
India,Maharashtra,Mumbai,"Colaba, Mumbai - MPCB",04-05-2024 12:00:00,18.910000,72.820000,OZONE,11,11,11
India,Maharashtra,Mumbai,"Deonar, Mumbai - IITM",04-05-2024 12:00:00,19.04946,72.9230,PM10,77,140,114
India,Maharashtra,Mumbai,"Deonar, Mumbai - IITM",04-05-2024 12:00:00,19.04946,72.9230,NO2,10,23,15
India,Maharashtra,Mumbai,"Deonar, Mumbai - IITM",04-05-2024 12:00:00,19.04946,72.9230,NH3,5,11,8
India,Maharashtra,Mumbai,"Ghatkopar, Mumbai - BMC",04-05-2024 12:00:00,19.083694,72.920967,NH3,1,7,3
India,Maharashtra,Mumbai,"Kandivali West, Mumbai - BMC",04-05-2024 12:00:00,19.215859,72.831718,PM10,36,75,47
India,Maharashtra,Mumbai,"Kandivali West, Mumbai - BMC",04-05-2024 12:00:00,19.215859,72.831718,OZONE,15,58,31
India,Maharashtra,Mumbai,"Kherwadi_Bandra East, Mumbai - MPCB",04-05-2024 12:00:00,19.0632143,72.8456324,PM2.5,22,46,34
India,Maharashtra,Mumbai,"Kherwadi_Bandra East, Mumbai - MPCB",04-05-2024 12:00:00,19.0632143,72.8456324,SO2,2,4,3
India,Maharashtra,Mumbai,"Khindipada-Bhandup West, Mumbai - IITM",04-05-2024 12:00:00,19.1653323,72.922099,PM10,28,106,69
India,Maharashtra,Mumbai,"Khindipada-Bhandup West, Mumbai - IITM",04-05-2024 12:00:00,19.1653323,72.922099,SO2,2,11,7
India,Maharashtra,Mumbai,"Kurla, Mumbai - MPCB",04-05-2024 12:00:00,19.0863,72.8888,PM2.5,27,137,61
India,Maharashtra,Mumbai,"Kurla, Mumbai - MPCB",04-05-2024 12:00:00,19.0863,72.8888,CO,1,12,3
India,Maharashtra,Mumbai,"Mindspace-Malad West, Mumbai - MPCB",04-05-2024 12:00:00,19.1878657,72.8304069,PM10,30,95,60
India,Maharashtra,Mumbai,"Mulund West, Mumbai - MPCB",04-05-2024 12:00:00,19.1750,72.9419,PM10,60,154,101
India,Maharashtra,Mumbai,"Mulund West, Mumbai - MPCB",04-05-2024 12:00:00,19.1750,72.9419,NH3,11,11,11
India,Maharashtra,Mumbai,"Navy Nagar-Colaba, Mumbai - IITM",04-05-2024 12:00:00,18.897756,72.813320,SO2,7,14,10
India,Maharashtra,Mumbai,"Powai, Mumbai - MPCB",04-05-2024 12:00:00,19.137500,72.915056,CO,32,38,35
India,Maharashtra,Mumbai,"Siddharth Nagar-Worli, Mumbai - IITM",04-05-2024 12:00:00,19.000083,72.813993,NH3,3,7,5
India,Maharashtra,Mumbai,"Siddharth Nagar-Worli, Mumbai - IITM",04-05-2024 12:00:00,19.000083,72.813993,OZONE,31,78,45
India,Maharashtra,Mumbai,"Sion, Mumbai - MPCB",04-05-2024 12:00:00,19.047000,72.874600,OZONE,54,73,65
India,Maharashtra,Mumbai,"Worli, Mumbai - MPCB",04-05-2024 12:00:00,18.9936162,72.8128113,PM2.5,15,33,21
India,Maharashtra,Nagpur,"Ambazari, Nagpur - MPCB",04-05-2024 12:00:00,21.121801,79.04952,PM10,114,163,134
India,Maharashtra,Nagpur,"Ambazari, Nagpur - MPCB",04-05-2024 12:00:00,21.121801,79.04952,SO2,2,108,36
India,Maharashtra,Nagpur,"Ambazari, Nagpur - MPCB",04-05-2024 12:00:00,21.121801,79.04952,OZONE,5,235,199
India,Maharashtra,Nagpur,"Mahal, Nagpur - MPCB",04-05-2024 12:00:00,21.14472,79.107595,PM10,112,194,142
India,Maharashtra,Nagpur,"Mahal, Nagpur - MPCB",04-05-2024 12:00:00,21.14472,79.107595,NH3,2,10,6
India,Maharashtra,Nagpur,"Mahal, Nagpur - MPCB",04-05-2024 12:00:00,21.14472,79.107595,CO,34,130,45
India,Maharashtra,Nagpur,"Mahal, Nagpur - MPCB",04-05-2024 12:00:00,21.14472,79.107595,OZONE,6,178,63
India,Maharashtra,Nagpur,"Opp GPO Civil Lines, Nagpur - MPCB",04-05-2024 12:00:00,21.152875,79.0517531,PM10,74,135,103
India,Maharashtra,Nagpur,"Opp GPO Civil Lines, Nagpur - MPCB",04-05-2024 12:00:00,21.152875,79.0517531,NH3,3,4,3
India,Maharashtra,Nagpur,"Opp GPO Civil Lines, Nagpur - MPCB",04-05-2024 12:00:00,21.152875,79.0517531,SO2,9,124,32
India,Maharashtra,Nanded,"Sneh Nagar, Nanded - MPCB",04-05-2024 12:00:00,19.173852,77.296291,PM2.5,56,156,108
India,Maharashtra,Nanded,"Sneh Nagar, Nanded - MPCB",04-05-2024 12:00:00,19.173852,77.296291,NO2,15,98,37
India,Maharashtra,Nanded,"Sneh Nagar, Nanded - MPCB",04-05-2024 12:00:00,19.173852,77.296291,SO2,1,9,5
India,Maharashtra,Nashik,"Hirawadi, Nashik - MPCB",04-05-2024 12:00:00,20.021503,73.813844,NH3,1,3,2
India,Maharashtra,Nashik,"Hirawadi, Nashik - MPCB",04-05-2024 12:00:00,20.021503,73.813844,CO,24,68,32
India,Maharashtra,Nashik,"MIDC Ambad, Nashik - MPCB",04-05-2024 12:00:00,19.950220,73.731480,NO2,7,26,14
India,Maharashtra,Nashik,"Pandav Nagari, Nashik - MPCB",04-05-2024 12:00:00,19.9591346,73.7788008,CO,13,31,18
India,Maharashtra,Navi Mumbai,"Mahape, Navi Mumbai - MPCB",04-05-2024 12:00:00,19.1135051,73.008978,OZONE,43,57,48
India,Maharashtra,Navi Mumbai,"Nerul, Navi Mumbai - MPCB",04-05-2024 12:00:00,19.008751,73.016620,PM2.5,36,85,54
India,Maharashtra,Navi Mumbai,"Sanpada, Navi Mumbai - MPCB",04-05-2024 12:00:00,19.0575752,73.0151367,NH3,1,5,3
India,Maharashtra,Navi Mumbai,"Sector-19A Nerul, Navi Mumbai - IITM",04-05-2024 12:00:00,19.044,73.0325,OZONE,4,144,33
India,Maharashtra,Navi Mumbai,"Sector-2E Kalamboli, Navi Mumbai - MPCB",04-05-2024 12:00:00,19.02579,73.10297,PM2.5,28,149,57
India,Maharashtra,Navi Mumbai,"Sector-2E Kalamboli, Navi Mumbai - MPCB",04-05-2024 12:00:00,19.02579,73.10297,NO2,23,49,36
India,Maharashtra,Navi Mumbai,"Sector-2E Kalamboli, Navi Mumbai - MPCB",04-05-2024 12:00:00,19.02579,73.10297,CO,4,18,11
India,Maharashtra,Navi Mumbai,"Tondare-Taloja, Navi Mumbai - MPCB",04-05-2024 12:00:00,19.0630,73.1209,SO2,2,21,6
India,Maharashtra,Parbhani,"Masoom Colony, Parbhani - MPCB",04-05-2024 12:00:00,19.265594,76.761463,CO,12,113,34
India,Maharashtra,Parbhani,"Masoom Colony, Parbhani - MPCB",04-05-2024 12:00:00,19.265594,76.761463,OZONE,11,110,69
India,Maharashtra,Pimpri-Chinchwad,"Gavalinagar, Pimpri Chinchwad - MPCB",04-05-2024 12:00:00,18.63673,73.82487,PM10,75,112,93
India,Maharashtra,Pimpri-Chinchwad,"Gavalinagar, Pimpri Chinchwad - MPCB",04-05-2024 12:00:00,18.63673,73.82487,SO2,5,18,10
India,Maharashtra,Pimpri-Chinchwad,"Gavalinagar, Pimpri Chinchwad - MPCB",04-05-2024 12:00:00,18.63673,73.82487,CO,10,27,19
India,Maharashtra,Pimpri-Chinchwad,"Park Street Wakad, Pimpri Chinchwad - MPCB",04-05-2024 12:00:00,18.59051,73.77946,OZONE,17,129,40
India,Maharashtra,Pimpri-Chinchwad,"Thergaon, Pimpri Chinchwad - MPCB",04-05-2024 12:00:00,18.616318,73.765797,PM10,69,112,90
India,Maharashtra,Pimpri-Chinchwad,"Thergaon, Pimpri Chinchwad - MPCB",04-05-2024 12:00:00,18.616318,73.765797,OZONE,29,188,70
India,Maharashtra,Pune,"Alandi, Pune - IITM",04-05-2024 12:00:00,18.675076,73.892743,PM2.5,30,94,57
India,Maharashtra,Pune,"Alandi, Pune - IITM",04-05-2024 12:00:00,18.675076,73.892743,CO,22,48,37
India,Maharashtra,Pune,"Alandi, Pune - IITM",04-05-2024 12:00:00,18.675076,73.892743,OZONE,15,77,33
India,Maharashtra,Pune,"Bhosari, Pune - IITM",04-05-2024 12:00:00,18.640051,73.848956,CO,16,40,26
India,Maharashtra,Pune,"Karve Road, Pune - MPCB",04-05-2024 12:00:00,18.5011743,73.8165527,CO,40,194,77
India,Maharashtra,Pune,"Karve Road, Pune - MPCB",04-05-2024 12:00:00,18.5011743,73.8165527,OZONE,72,194,151
India,Maharashtra,Pune,"Katraj Dairy, Pune - MPCB",04-05-2024 12:00:00,18.454450,73.854155,NH3,1,5,2
India,Maharashtra,Pune,"Mhada Colony, Pune - IITM",04-05-2024 12:00:00,18.573040,73.927715,PM10,49,148,107
India,Maharashtra,Pune,"Revenue Colony-Shivajinagar, Pune - IITM",04-05-2024 12:00:00,18.530085,73.849598,NO2,53,172,121
India,Maharashtra,Pune,"Savitribai Phule Pune University, Pune - MPCB",04-05-2024 12:00:00,18.547056,73.826908,PM10,78,143,108
India,Maharashtra,Pune,"Savitribai Phule Pune University, Pune - MPCB",04-05-2024 12:00:00,18.547056,73.826908,NO2,8,23,14
India,Maharashtra,Pune,"Savitribai Phule Pune University, Pune - MPCB",04-05-2024 12:00:00,18.547056,73.826908,OZONE,7,210,165
India,Maharashtra,Sangli,"Vijay Nagar, Sangli - MPCB",04-05-2024 12:00:00, 16.5038,74.3623,PM10,60,104,79
India,Maharashtra,Solapur,"Dnyaneshwar Nagar, Solapur - MPCB",04-05-2024 12:00:00,17.6336264,75.9132495,PM10,99,170,127
India,Maharashtra,Solapur,"Dnyaneshwar Nagar, Solapur - MPCB",04-05-2024 12:00:00,17.6336264,75.9132495,NH3,11,37,19
India,Maharashtra,Solapur,"Dnyaneshwar Nagar, Solapur - MPCB",04-05-2024 12:00:00,17.6336264,75.9132495,CO,5,58,23
India,Maharashtra,Solapur,"Ratandeep Housing Society, Solapur - MPCB",04-05-2024 12:00:00,17.65439,75.90649,CO,13,122,26
India,Maharashtra,Solapur,"Solapur, Solapur - MPCB",04-05-2024 12:00:00,17.6599188,75.9063906,SO2,103,106,105
India,Maharashtra,Thane,"Kasarvadavali, Thane - MPCB",04-05-2024 12:00:00,19.26777,72.97182,PM2.5,35,92,59
India,Maharashtra,Thane,"Pimpleshwar Mandir, Thane - MPCB",04-05-2024 12:00:00,19.192056,72.9585188,NH3,1,4,2
India,Maharashtra,Ulhasnagar,"Sidhi Vinayak Nagar, Ulhasnagar - MPCB",04-05-2024 12:00:00,19.235581,73.159121,PM10,81,128,107
India,Maharashtra,Ulhasnagar,"Sidhi Vinayak Nagar, Ulhasnagar - MPCB",04-05-2024 12:00:00,19.235581,73.159121,CO,14,42,25
India,Maharashtra,Virar,"Bolinj, Virar - MPCB",04-05-2024 12:00:00,19.4458210,72.7988231,NH3,9,9,9
India,Maharashtra,Virar,"Bolinj, Virar - MPCB",04-05-2024 12:00:00,19.4458210,72.7988231,SO2,4,8,6
India,Manipur,Imphal,"DM College of Science, Imphal - Manipur PCB",04-05-2024 12:00:00,24.8207389,93.9423085,OZONE,NA,NA,NA
India,Manipur,Imphal,"Manipur University, Imphal - Manipur PCB",04-05-2024 12:00:00,24.7524239,93.9286218,SO2,80,94,91
India,Meghalaya,Shillong,"Lumpyngngad, Shillong - Meghalaya PCB",04-05-2024 12:00:00,25.5586,91.8985,SO2,40,44,42
India,Mizoram,Aizawl,"Sikulpuikawn, Aizawl - Mizoram PCB",04-05-2024 12:00:00,23.7176342,92.7192841,PM2.5,2,25,14
India,Nagaland,Kohima,"PWD Juction, Kohima - NPCB",04-05-2024 12:00:00,25.6635413,94.0989878,NO2,3,4,4
India,Odisha,Angul,"Hakimapada, Angul - OSPCB",04-05-2024 12:00:00,20.832874,85.104082,NO2,5,84,25
India,Odisha,Balasore,"Kalidaspur, Balasore - OSPCB",04-05-2024 12:00:00,21.51161,86.89088,PM2.5,18,68,48
India,Odisha,Barbil,"Forest Office, Barbil - OSPCB",04-05-2024 12:00:00,22.1166054,85.3945546,PM2.5,35,444,187
India,Odisha,Barbil,"Forest Office, Barbil - OSPCB",04-05-2024 12:00:00,22.1166054,85.3945546,PM10,107,480,250
India,Odisha,Bhubaneswar,"Lingraj Mandir, Bhubaneswar - OSPCB",04-05-2024 12:00:00,20.240790,85.836784,CO,52,52,52
India,Odisha,Brajrajnagar,"GM Office, Brajrajnagar - OSPCB",04-05-2024 12:00:00,21.8004996,83.8396977,CO,102,104,103
India,Odisha,Byasanagar,"Ferro Chrome Colony, Byasanagar - OSPCB",04-05-2024 12:00:00,20.94185,86.11510,PM10,44,174,107
India,Odisha,Cuttack,"CDA Area, Cuttack - OSPCB",04-05-2024 12:00:00,20.48891     ,85.84768     ,CO,16,32,20
India,Odisha,Keonjhar,"Jagamohanpur, Keonjhar - OSPCB",04-05-2024 12:00:00,21.643900,85.599355,PM2.5,76,185,130
India,Odisha,Nayagarh,"Dabuna, Nayagarh - OSPCB",04-05-2024 12:00:00,21.847279,85.416905,NO2,2,3,3
India,Odisha,Rairangpur,"Divisional Forest Office, Rairangpur - OSPCB",04-05-2024 12:00:00,22.265816,86.174829,PM10,107,140,120
India,Odisha,Rourkela,"Fertilizer Township, Rourkela - OSPCB",04-05-2024 12:00:00,22.18972222,84.86277778,PM10,97,207,140
India,Odisha,Rourkela,"Fertilizer Township, Rourkela - OSPCB",04-05-2024 12:00:00,22.18972222,84.86277778,NO2,9,59,21
India,Odisha,Rourkela,"Raghunathpali, Rourkela - OSPCB",04-05-2024 12:00:00,22.220833,84.809444,NO2,17,161,78
India,Odisha,Suakati,"OMC Colony, Suakati - OSPCB",04-05-2024 12:00:00,21.606865,85.510538,PM10,132,185,158
India,Odisha,Suakati,"OMC Colony, Suakati - OSPCB",04-05-2024 12:00:00,21.606865,85.510538,OZONE,13,188,173
India,Odisha,Talcher,"Talcher Coalfields,Talcher - OSPCB",04-05-2024 12:00:00,20.9360711,85.1707021,PM10,32,204,89
India,Odisha,Talcher,"Talcher Coalfields,Talcher - OSPCB",04-05-2024 12:00:00,20.9360711,85.1707021,NH3,3,4,3
India,Odisha,Talcher,"Talcher Coalfields,Talcher - OSPCB",04-05-2024 12:00:00,20.9360711,85.1707021,SO2,42,53,46
India,Odisha,Talcher,"Talcher Coalfields,Talcher - OSPCB",04-05-2024 12:00:00,20.9360711,85.1707021,OZONE,17,40,24
India,Punjab,Amritsar,"Golden Temple, Amritsar - PPCB",04-05-2024 12:00:00,31.620000,74.876512,NO2,19,72,49
India,Punjab,Bathinda,"Hardev Nagar, Bathinda - PPCB",04-05-2024 12:00:00,30.233011,74.907758,NO2,28,33,30
India,Punjab,Jalandhar,"Civil Line, Jalandhar - PPCB",04-05-2024 12:00:00,31.321907,75.578914,PM10,40,122,95
India,Punjab,Jalandhar,"Civil Line, Jalandhar - PPCB",04-05-2024 12:00:00,31.321907,75.578914,NO2,40,45,42
India,Punjab,Khanna,"Kalal Majra, Khanna - PPCB",04-05-2024 12:00:00,30.736056 ,76.209694,NO2,34,36,36
India,Punjab,Khanna,"Kalal Majra, Khanna - PPCB",04-05-2024 12:00:00,30.736056 ,76.209694,NH3,16,17,17
India,Punjab,Khanna,"Kalal Majra, Khanna - PPCB",04-05-2024 12:00:00,30.736056 ,76.209694,SO2,6,62,21
India,Punjab,Ludhiana,"Punjab Agricultural University, Ludhiana - PPCB",04-05-2024 12:00:00,30.9028,75.8086,NH3,4,5,4
India,Punjab,Ludhiana,"Punjab Agricultural University, Ludhiana - PPCB",04-05-2024 12:00:00,30.9028,75.8086,OZONE,20,51,33
India,Punjab,Mandi Gobindgarh,"RIMT University, Mandi Gobindgarh - PPCB",04-05-2024 12:00:00,30.649961,76.331442,PM2.5,56,386,138
India,Punjab,Mandi Gobindgarh,"RIMT University, Mandi Gobindgarh - PPCB",04-05-2024 12:00:00,30.649961,76.331442,NO2,33,33,33
India,Punjab,Patiala,"Model Town, Patiala - PPCB",04-05-2024 12:00:00,30.349388,76.366642,NH3,6,7,6
India,Punjab,Patiala,"Model Town, Patiala - PPCB",04-05-2024 12:00:00,30.349388,76.366642,SO2,4,56,25
India,Rajasthan,Alwar,"Moti Doongri, Alwar - RSPCB",04-05-2024 12:00:00,27.554793,76.611536,PM2.5,63,222,99
India,Rajasthan,Alwar,"Moti Doongri, Alwar - RSPCB",04-05-2024 12:00:00,27.554793,76.611536,SO2,4,55,19
India,Rajasthan,Alwar,"Moti Doongri, Alwar - RSPCB",04-05-2024 12:00:00,27.554793,76.611536,CO,23,70,49
India,Rajasthan,Alwar,"Moti Doongri, Alwar - RSPCB",04-05-2024 12:00:00,27.554793,76.611536,OZONE,11,39,27
India,Rajasthan,Baran,"Bamboliya, Baran - RSPCB",04-05-2024 12:00:00,25.106006,76.469948,SO2,8,51,15
India,Rajasthan,Baran,"Bamboliya, Baran - RSPCB",04-05-2024 12:00:00,25.106006,76.469948,CO,20,100,52
India,Rajasthan,Baran,"Bamboliya, Baran - RSPCB",04-05-2024 12:00:00,25.106006,76.469948,OZONE,3,177,68
India,Rajasthan,Barmer,"Railway Colony, Barmer - RSPCB",04-05-2024 12:00:00,25.747299,71.393989,NH3,6,20,14
India,Rajasthan,Barmer,"Railway Colony, Barmer - RSPCB",04-05-2024 12:00:00,25.747299,71.393989,CO,68,93,70
India,Rajasthan,Bharatpur,"Krishna Nagar, Bharatpur - RSPCB",04-05-2024 12:00:00,27.215415,77.50873,PM2.5,84,360,227
India,Rajasthan,Bharatpur,"Krishna Nagar, Bharatpur - RSPCB",04-05-2024 12:00:00,27.215415,77.50873,SO2,4,34,11
India,Rajasthan,Bhiwadi,"Vasundhara Nagar_UIT, Bhiwadi - RSPCB",04-05-2024 12:00:00,28.207266,76.829265,PM2.5,32,427,248
India,Rajasthan,Bhiwadi,"Vasundhara Nagar_UIT, Bhiwadi - RSPCB",04-05-2024 12:00:00,28.207266,76.829265,NH3,6,25,13
India,Rajasthan,Bhiwadi,"Vasundhara Nagar_UIT, Bhiwadi - RSPCB",04-05-2024 12:00:00,28.207266,76.829265,CO,12,68,58
India,Rajasthan,Bikaner,"MM Ground, Bikaner - RSPCB",04-05-2024 12:00:00,28.018792,73.292658,PM10,78,311,142
India,Rajasthan,Bikaner,"MM Ground, Bikaner - RSPCB",04-05-2024 12:00:00,28.018792,73.292658,NH3,9,14,11
India,Rajasthan,Bundi,"New Colony, Bundi - RSPCB",04-05-2024 12:00:00,25.435774,75.644272,PM2.5,12,273,77
India,Rajasthan,Bundi,"New Colony, Bundi - RSPCB",04-05-2024 12:00:00,25.435774,75.644272,SO2,7,10,8
India,Rajasthan,Chittorgarh,"Shastri Nagar, Chittorgarh - RSPCB",04-05-2024 12:00:00,24.892047,74.623527,PM10,87,450,184
India,Rajasthan,Chittorgarh,"Shastri Nagar, Chittorgarh - RSPCB",04-05-2024 12:00:00,24.892047,74.623527,SO2,3,23,9
India,Rajasthan,Chittorgarh,"Shastri Nagar, Chittorgarh - RSPCB",04-05-2024 12:00:00,24.892047,74.623527,OZONE,1,166,31
India,Rajasthan,Dausa,"Khatikan Mohalla, Dausa - RSPCB",04-05-2024 12:00:00,26.895552,76.334753,NO2,33,126,72
India,Rajasthan,Dausa,"Khatikan Mohalla, Dausa - RSPCB",04-05-2024 12:00:00,26.895552,76.334753,OZONE,9,155,152
India,Rajasthan,Dholpur,"Raja Ganj, Dholpur - RSPCB",04-05-2024 12:00:00,26.699557,77.898881,NH3,4,11,7
India,Rajasthan,Dholpur,"Raja Ganj, Dholpur - RSPCB",04-05-2024 12:00:00,26.699557,77.898881,SO2,6,23,9
India,Rajasthan,Dungarpur,"Bhoiwada, Dungarpur - RSPCB",04-05-2024 12:00:00,23.837789,73.714926,NO2,12,25,17
India,Rajasthan,Dungarpur,"Bhoiwada, Dungarpur - RSPCB",04-05-2024 12:00:00,23.837789,73.714926,OZONE,21,100,36
India,Rajasthan,Hanumangarh,"Housing Board, Hanumangarh - RSPCB",04-05-2024 12:00:00,29.610750,74.283608,SO2,3,27,13
India,Rajasthan,Hanumangarh,"Housing Board, Hanumangarh - RSPCB",04-05-2024 12:00:00,29.610750,74.283608,OZONE,13,68,34
India,Rajasthan,Jaipur,"Mansarovar Sector-12, Jaipur - RSPCB",04-05-2024 12:00:00,26.843698,75.766894,NO2,10,133,69
India,Rajasthan,Jaipur,"Mansarovar Sector-12, Jaipur - RSPCB",04-05-2024 12:00:00,26.843698,75.766894,SO2,7,31,12
India,Rajasthan,Jaipur,"Mansarovar Sector-12, Jaipur - RSPCB",04-05-2024 12:00:00,26.843698,75.766894,OZONE,45,263,89
India,Rajasthan,Jaipur,"Police Commissionerate, Jaipur - RSPCB",04-05-2024 12:00:00,26.9164092,75.7994901,PM2.5,40,263,111
India,Rajasthan,Jaipur,"Police Commissionerate, Jaipur - RSPCB",04-05-2024 12:00:00,26.9164092,75.7994901,NH3,3,6,5
India,Rajasthan,Jaipur,"RIICO Sitapura, Jaipur - RSPCB",04-05-2024 12:00:00,26.786682,75.827928,PM2.5,NA,NA,NA
India,Rajasthan,Jaipur,"RIICO Sitapura, Jaipur - RSPCB",04-05-2024 12:00:00,26.786682,75.827928,PM10,NA,NA,NA
India,Rajasthan,Jaipur,"RIICO Sitapura, Jaipur - RSPCB",04-05-2024 12:00:00,26.786682,75.827928,NH3,NA,NA,NA
India,Rajasthan,Jaipur,"RIICO Sitapura, Jaipur - RSPCB",04-05-2024 12:00:00,26.786682,75.827928,SO2,NA,NA,NA
India,Rajasthan,Jaipur,"RIICO Sitapura, Jaipur - RSPCB",04-05-2024 12:00:00,26.786682,75.827928,OZONE,6,88,34
India,Rajasthan,Jaipur,"Sector-2 Murlipura, Jaipur - RSPCB",04-05-2024 12:00:00,26.960669,75.771817,PM10,101,372,164
India,Rajasthan,Jaipur,"Sector-2 Murlipura, Jaipur - RSPCB",04-05-2024 12:00:00,26.960669,75.771817,NH3,4,49,17
India,Rajasthan,Jaipur,"Shastri Nagar, Jaipur - RSPCB",04-05-2024 12:00:00,26.9502929,75.730943,PM10,98,183,127
India,Rajasthan,Jaipur,"Shastri Nagar, Jaipur - RSPCB",04-05-2024 12:00:00,26.9502929,75.730943,NO2,24,108,53
India,Rajasthan,Jaisalmer,"Sadar Bazar, Jaisalmer - RSPCB",04-05-2024 12:00:00,26.912329,70.909168,NO2,13,43,24
India,Rajasthan,Jhalawar,"Rajlaxmi Nagar, Jhalawar - RSPCB",04-05-2024 12:00:00,24.588397,76.172782,PM2.5,16,156,79
India,Rajasthan,Jhalawar,"Rajlaxmi Nagar, Jhalawar - RSPCB",04-05-2024 12:00:00,24.588397,76.172782,NO2,17,78,40
India,Rajasthan,Jhalawar,"Rajlaxmi Nagar, Jhalawar - RSPCB",04-05-2024 12:00:00,24.588397,76.172782,CO,8,103,52
India,Rajasthan,Jhunjhunu,"Indra Nagar, Jhunjhunu - RSPCB",04-05-2024 12:00:00,28.108988,75.386577,NH3,10,30,15
India,Rajasthan,Jhunjhunu,"Indra Nagar, Jhunjhunu - RSPCB",04-05-2024 12:00:00,28.108988,75.386577,OZONE,5,61,29
India,Rajasthan,Jodhpur,"Collectorate, Jodhpur - RSPCB",04-05-2024 12:00:00,26.268249,73.0193853,PM10,98,406,226
India,Rajasthan,Jodhpur,"Collectorate, Jodhpur - RSPCB",04-05-2024 12:00:00,26.268249,73.0193853,CO,10,140,59
India,Rajasthan,Jodhpur,"Collectorate, Jodhpur - RSPCB",04-05-2024 12:00:00,26.268249,73.0193853,OZONE,1,137,18
India,Rajasthan,Jodhpur,"Samrat Ashok Udhyan, Jodhpur - RSPCB",04-05-2024 12:00:00,26.253384,72.976571,PM2.5,13,282,67
India,Rajasthan,Jodhpur,"Samrat Ashok Udhyan, Jodhpur - RSPCB",04-05-2024 12:00:00,26.253384,72.976571,NH3,3,13,6
India,Rajasthan,Karauli,"Satyawati Vihar, Karauli - RSPCB",04-05-2024 12:00:00,26.506177,77.025989,NO2,12,122,39
India,Rajasthan,Kota,"Dhanmandi, Kota - RSPCB",04-05-2024 12:00:00,25.164090,75.858137,PM10,72,351,149
India,Rajasthan,Kota,"Dhanmandi, Kota - RSPCB",04-05-2024 12:00:00,25.164090,75.858137,SO2,6,107,25
India,Rajasthan,Kota,"Nayapura, Kota - RSPCB",04-05-2024 12:00:00,25.196024,75.855668,NO2,20,132,85
India,Rajasthan,Kota,"Shrinath Puram, Kota - RSPCB",04-05-2024 12:00:00,25.14389,75.821256,NO2,20,102,53
India,Rajasthan,Pratapgarh,"Pragati Nagar, Pratapgarh - RSPCB",04-05-2024 12:00:00,24.041198,74.780702,NH3,3,9,5
India,Rajasthan,Pratapgarh,"Pragati Nagar, Pratapgarh - RSPCB",04-05-2024 12:00:00,24.041198,74.780702,CO,12,96,22
India,Rajasthan,Sawai Madhopur,"Sahu Nagar, Sawai Madhopur - RSPCB",04-05-2024 12:00:00,26.031443,76.359327,PM2.5,28,241,89
India,Rajasthan,Sirohi,"Vedhaynath Colony, Sirohi - RSPCB",04-05-2024 12:00:00,24.885261,72.857549,SO2,4,10,7
India,Rajasthan,Sri Ganganagar,"Old City, Sri Ganganagar - RSPCB",04-05-2024 12:00:00,29.931624,73.864511,PM10,207,437,297
India,Rajasthan,Sri Ganganagar,"Old City, Sri Ganganagar - RSPCB",04-05-2024 12:00:00,29.931624,73.864511,OZONE,16,79,39
India,Rajasthan,Tonk,"Shastri Nagar, Tonk - RSPCB",04-05-2024 12:00:00,26.159933,75.780517,PM2.5,13,213,71
India,Rajasthan,Tonk,"Shastri Nagar, Tonk - RSPCB",04-05-2024 12:00:00,26.159933,75.780517,SO2,1,23,7
India,Rajasthan,Udaipur,"Ashok Nagar, Udaipur - RSPCB",04-05-2024 12:00:00,24.5886166,73.6321397,SO2,7,17,11
India,Rajasthan,Udaipur,"Ashok Nagar, Udaipur - RSPCB",04-05-2024 12:00:00,24.5886166,73.6321397,OZONE,8,110,24
India,Sikkim,Gangtok,"Zero Point GICI, Gangtok - SSPCB",04-05-2024 12:00:00,27.338530,88.614099,NH3,1,1,1
India,Sikkim,Gangtok,"Zero Point GICI, Gangtok - SSPCB",04-05-2024 12:00:00,27.338530,88.614099,SO2,11,13,12
India,Sikkim,Gangtok,"Zero Point GICI, Gangtok - SSPCB",04-05-2024 12:00:00,27.338530,88.614099,CO,20,32,23
India,TamilNadu,Ariyalur,"Keelapalur, Ariyalur - TNPCB",04-05-2024 12:00:00,11.06825,79.07033,PM2.5,26,71,40
India,TamilNadu,Chennai,"Alandur Bus Depot, Chennai - CPCB",04-05-2024 12:00:00,12.9099161,80.1076538,NO2,7,11,9
India,TamilNadu,Chennai,"Alandur Bus Depot, Chennai - CPCB",04-05-2024 12:00:00,12.9099161,80.1076538,NH3,7,17,9
India,TamilNadu,Chennai,"Arumbakkam, Chennai - TNPCB",04-05-2024 12:00:00,13.0664,80.2112 ,SO2,1,24,7
India,TamilNadu,Chennai,"Manali, Chennai - CPCB",04-05-2024 12:00:00,13.164544,80.26285,PM2.5,NA,NA,NA
India,TamilNadu,Chennai,"Manali, Chennai - CPCB",04-05-2024 12:00:00,13.164544,80.26285,PM10,NA,NA,NA
India,TamilNadu,Chennai,"Manali, Chennai - CPCB",04-05-2024 12:00:00,13.164544,80.26285,NO2,NA,NA,NA
India,TamilNadu,Chennai,"Royapuram, Chennai - TNPCB",04-05-2024 12:00:00,13.1036,80.2909,SO2,1,7,4
India,TamilNadu,Chennai,"Velachery Res. Area, Chennai - CPCB",04-05-2024 12:00:00,13.0052189,80.2398125,PM10,NA,NA,NA
India,TamilNadu,Chennai,"Velachery Res. Area, Chennai - CPCB",04-05-2024 12:00:00,13.0052189,80.2398125,SO2,NA,NA,NA
India,TamilNadu,Chennai,"Velachery Res. Area, Chennai - CPCB",04-05-2024 12:00:00,13.0052189,80.2398125,CO,1,116,1
India,TamilNadu,Cuddalore,"Kudikadu, Cuddalore - TNPCB",04-05-2024 12:00:00,11.6829898,79.7532099,PM10,NA,NA,NA
India,TamilNadu,Cuddalore,"Semmandalam, Cuddalore - TNPCB",04-05-2024 12:00:00,11.7637683,79.7499835,PM10,13,40,25
India,TamilNadu,Cuddalore,"Semmandalam, Cuddalore - TNPCB",04-05-2024 12:00:00,11.7637683,79.7499835,NH3,2,3,3
India,TamilNadu,Palkalaiperur,"Bharathidasan University, Palkalaiperur - TNPCB",04-05-2024 12:00:00,10.681158,78.741746,OZONE,1,5,1
India,TamilNadu,Ramanathapuram,"Chalai Bazaar, Ramanathapuram - TNPCB",04-05-2024 12:00:00,9.36399,78.831977,CO,2,6,5
India,TamilNadu,Salem,"Sona College of Technology, Salem - TNPCB",04-05-2024 12:00:00,11.679111,78.125052,NH3,1,1,1
India,TamilNadu,Salem,"Sona College of Technology, Salem - TNPCB",04-05-2024 12:00:00,11.679111,78.125052,SO2,99,100,99
India,TamilNadu,Salem,"Sona College of Technology, Salem - TNPCB",04-05-2024 12:00:00,11.679111,78.125052,CO,48,56,52
India,TamilNadu,Thoothukudi,"Meelavittan, Thoothukudi - TNPCB",04-05-2024 12:00:00,8.816428 ,78.099039,SO2,NA,NA,NA
India,TamilNadu,Thoothukudi,"Meelavittan, Thoothukudi - TNPCB",04-05-2024 12:00:00,8.816428 ,78.099039,OZONE,18,118,55
India,TamilNadu,Tirupur,"Kumaran College, Tirupur - TNPCB",04-05-2024 12:00:00,11.0973603,77.3228673,PM2.5,11,30,20
India,TamilNadu,Tirupur,"Kumaran College, Tirupur - TNPCB",04-05-2024 12:00:00,11.0973603,77.3228673,NH3,NA,NA,NA
India,TamilNadu,Virudhunagar,"Collectorate Office, Virudhunagar - TNPCB",04-05-2024 12:00:00,9.559382,77.948828,NO2,2,13,6
India,Telangana,Hyderabad,"Bollaram Industrial Area, Hyderabad - TSPCB",04-05-2024 12:00:00,17.540891,78.358528,PM10,78,159,114
India,Telangana,Hyderabad,"Bollaram Industrial Area, Hyderabad - TSPCB",04-05-2024 12:00:00,17.540891,78.358528,NO2,24,72,42
India,Telangana,Hyderabad,"Bollaram Industrial Area, Hyderabad - TSPCB",04-05-2024 12:00:00,17.540891,78.358528,OZONE,34,37,35
India,Telangana,Hyderabad,"Central University, Hyderabad - TSPCB",04-05-2024 12:00:00,17.460103,78.334361,NH3,3,25,7
India,Telangana,Hyderabad,"ECIL Kapra, Hyderabad - TSPCB",04-05-2024 12:00:00,17.470431,78.566959,PM2.5,39,75,50
India,Telangana,Hyderabad,"ECIL Kapra, Hyderabad - TSPCB",04-05-2024 12:00:00,17.470431,78.566959,PM10,63,82,72
India,Telangana,Hyderabad,"ECIL Kapra, Hyderabad - TSPCB",04-05-2024 12:00:00,17.470431,78.566959,CO,7,63,16
India,Telangana,Hyderabad,"ICRISAT Patancheru, Hyderabad - TSPCB",04-05-2024 12:00:00,17.518400,78.278777,OZONE,2,83,33
India,Telangana,Hyderabad,"IITH Kandi, Hyderabad - TSPCB",04-05-2024 12:00:00,17.585705,78.126199,CO,4,14,14
India,Telangana,Hyderabad,"Kompally Municipal Office, Hyderabad - TSPCB",04-05-2024 12:00:00,17.544899,78.486949,NO2,9,9,9
India,Telangana,Hyderabad,"Kompally Municipal Office, Hyderabad - TSPCB",04-05-2024 12:00:00,17.544899,78.486949,NH3,5,6,6
India,Telangana,Hyderabad,"Kompally Municipal Office, Hyderabad - TSPCB",04-05-2024 12:00:00,17.544899,78.486949,SO2,2,13,5
India,Telangana,Hyderabad,"Nacharam_TSIIC IALA, Hyderabad - TSPCB",04-05-2024 12:00:00,17.429398,78.569354,SO2,7,24,17
India,Telangana,Hyderabad,"New Malakpet, Hyderabad - TSPCB",04-05-2024 12:00:00,17.37206,78.50864,PM2.5,30,252,67
India,Telangana,Hyderabad,"New Malakpet, Hyderabad - TSPCB",04-05-2024 12:00:00,17.37206,78.50864,NO2,13,46,22
India,Telangana,Hyderabad,"Sanathnagar, Hyderabad - TSPCB",04-05-2024 12:00:00,17.4559458,78.4332152,NO2,27,32,29
India,Telangana,Hyderabad,"Sanathnagar, Hyderabad - TSPCB",04-05-2024 12:00:00,17.4559458,78.4332152,CO,26,62,42
India,Telangana,Hyderabad,"Somajiguda, Hyderabad - TSPCB",04-05-2024 12:00:00,17.417094,78.457437,NH3,4,10,8
India,Telangana,Hyderabad,"Zoo Park, Hyderabad - TSPCB",04-05-2024 12:00:00,17.349694,78.451437,PM10,35,155,110
India,Tripura,Agartala,"Bardowali, Agartala - Tripura SPCB",04-05-2024 12:00:00,23.8175497,91.2726974,CO,9,26,12
India,Uttar_Pradesh,Agra,"Manoharpur, Agra - UPPCB",04-05-2024 12:00:00,27.23711,78.01936,OZONE,1,71,19
India,Uttar_Pradesh,Agra,"Rohta, Agra - UPPCB",04-05-2024 12:00:00,27.106972,78.000111,NO2,4,4,4
India,Uttar_Pradesh,Agra,"Sector-3B Avas Vikas Colony, Agra - UPPCB",04-05-2024 12:00:00,27.19412,77.96237,NH3,6,14,9
India,Uttar_Pradesh,Agra,"Sector-3B Avas Vikas Colony, Agra - UPPCB",04-05-2024 12:00:00,27.19412,77.96237,OZONE,9,17,12
India,Uttar_Pradesh,Agra,"Shastripuram, Agra - UPPCB",04-05-2024 12:00:00,27.19862,77.92066,NO2,32,42,34
India,Uttar_Pradesh,Baghpat,"Sardar Patel Inter College, Baghpat - UPPCB",04-05-2024 12:00:00,28.964949,77.278761,OZONE,12,123,49
India,Uttar_Pradesh,Bareilly,"Rajendra Nagar, Bareilly - UPPCB",04-05-2024 12:00:00,28.38910936,79.42963708,OZONE,2,92,10
India,Uttar_Pradesh,Firozabad,"Nagla Bhau, Firozabad - UPPCB",04-05-2024 12:00:00,27.168897,78.376960,PM2.5,18,98,55
India,Uttar_Pradesh,Firozabad,"Nagla Bhau, Firozabad - UPPCB",04-05-2024 12:00:00,27.168897,78.376960,NH3,2,2,2
India,Uttar_Pradesh,Firozabad,"Vibhab Nagar, Firozabad - UPPCB",04-05-2024 12:00:00,27.1594,78.3953,PM2.5,47,281,108
India,Uttar_Pradesh,Firozabad,"Vibhab Nagar, Firozabad - UPPCB",04-05-2024 12:00:00,27.1594,78.3953,NO2,12,13,13
India,Uttar_Pradesh,Firozabad,"Vibhab Nagar, Firozabad - UPPCB",04-05-2024 12:00:00,27.1594,78.3953,NH3,2,2,2
India,Uttar_Pradesh,Ghaziabad,"Indirapuram, Ghaziabad - UPPCB",04-05-2024 12:00:00,28.646233,77.358075,SO2,4,27,9
India,Uttar_Pradesh,Ghaziabad,"Indirapuram, Ghaziabad - UPPCB",04-05-2024 12:00:00,28.646233,77.358075,CO,26,61,45
India,Uttar_Pradesh,Ghaziabad,"Loni, Ghaziabad - UPPCB",04-05-2024 12:00:00,28.757294,77.278792,PM10,139,359,220
India,Uttar_Pradesh,Ghaziabad,"Loni, Ghaziabad - UPPCB",04-05-2024 12:00:00,28.757294,77.278792,OZONE,7,154,51
India,Uttar_Pradesh,Ghaziabad,"Vasundhara, Ghaziabad - UPPCB",04-05-2024 12:00:00,28.6603346,77.3572563,NH3,5,10,7
India,Uttar_Pradesh,Gorakhpur,"Madan Mohan Malaviya University of Technology, Gorakhpur - UPPCB",04-05-2024 12:00:00,26.730136,83.433859,NO2,11,12,11
India,Uttar_Pradesh,Greater Noida,"Knowledge Park - III, Greater Noida - UPPCB",04-05-2024 12:00:00,28.47272,77.482000,PM10,176,405,274
India,Uttar_Pradesh,Greater Noida,"Knowledge Park - V, Greater Noida - UPPCB",04-05-2024 12:00:00,28.557054,77.453663,PM2.5,77,321,194
India,Uttar_Pradesh,Hapur,"Anand Vihar, Hapur - UPPCB",04-05-2024 12:00:00,28.725645,77.749675,OZONE,7,66,31
India,Uttar_Pradesh,Kanpur,"FTI Kidwai Nagar, Kanpur - UPPCB",04-05-2024 12:00:00,26.428282,80.327067,NH3,2,3,2
India,Uttar_Pradesh,Kanpur,"Nehru Nagar, Kanpur - UPPCB",04-05-2024 12:00:00,26.4703136,80.3229863,SO2,2,11,8
India,Uttar_Pradesh,Lucknow,"B R Ambedkar University, Lucknow - UPPCB",04-05-2024 12:00:00,26.766433,80.927299,PM2.5,74,322,187
India,Uttar_Pradesh,Lucknow,"Gomti Nagar, Lucknow - UPPCB",04-05-2024 12:00:00,26.868120,81.005119,OZONE,33,42,37
India,Uttar_Pradesh,Lucknow,"Kendriya Vidyalaya, Lucknow - CPCB",04-05-2024 12:00:00,26.906111,80.948222,NO2,3,44,16
India,Uttar_Pradesh,Lucknow,"Kendriya Vidyalaya, Lucknow - CPCB",04-05-2024 12:00:00,26.906111,80.948222,CO,19,66,38
India,Uttar_Pradesh,Lucknow,"Kukrail Picnic Spot-1, Lucknow - UPPCB",04-05-2024 12:00:00,26.90723,80.98579,PM10,92,142,118
India,Uttar_Pradesh,Lucknow,"Kukrail Picnic Spot-1, Lucknow - UPPCB",04-05-2024 12:00:00,26.90723,80.98579,SO2,28,32,30
India,Uttar_Pradesh,Lucknow,"Lalbagh, Lucknow - CPCB",04-05-2024 12:00:00,26.8458805,80.9365541,NO2,15,52,30
India,Uttar_Pradesh,Lucknow,"Talkatora District Industries Center, Lucknow - CPCB",04-05-2024 12:00:00,26.83399722,80.8917361,PM10,139,178,160
India,Uttar_Pradesh,Lucknow,"Talkatora District Industries Center, Lucknow - CPCB",04-05-2024 12:00:00,26.83399722,80.8917361,OZONE,2,81,17
India,Uttar_Pradesh,Meerut,"Ganga Nagar, Meerut - UPPCB",04-05-2024 12:00:00,28.999264,77.7590354,PM2.5,43,217,106
India,Uttar_Pradesh,Meerut,"Ganga Nagar, Meerut - UPPCB",04-05-2024 12:00:00,28.999264,77.7590354,PM10,126,230,172
India,Uttar_Pradesh,Meerut,"Jai Bhim Nagar, Meerut - UPPCB",04-05-2024 12:00:00,28.9535882,77.7622941,NO2,19,60,34
India,Uttar_Pradesh,Meerut,"Jai Bhim Nagar, Meerut - UPPCB",04-05-2024 12:00:00,28.9535882,77.7622941,SO2,10,24,19
India,Uttar_Pradesh,Meerut,"Jai Bhim Nagar, Meerut - UPPCB",04-05-2024 12:00:00,28.9535882,77.7622941,CO,48,101,64
India,Uttar_Pradesh,Meerut,"Pallavpuram Phase 2, Meerut - UPPCB",04-05-2024 12:00:00,29.063510,77.709723,PM10,127,333,208
India,Uttar_Pradesh,Moradabad,"Buddhi Vihar, Moradabad - UPPCB",04-05-2024 12:00:00,28.83526,78.74460,NH3,2,2,2
India,Uttar_Pradesh,Moradabad,"Employment Office, Moradabad - UPPCB",04-05-2024 12:00:00,28.88528,78.73880,SO2,32,51,39
India,Uttar_Pradesh,Moradabad,"Jigar Colony, Moradabad - UPPCB",04-05-2024 12:00:00,28.856664,78.772638,PM10,86,202,129
India,Uttar_Pradesh,Moradabad,"Jigar Colony, Moradabad - UPPCB",04-05-2024 12:00:00,28.856664,78.772638,SO2,6,10,8
India,Uttar_Pradesh,Moradabad,"Jigar Colony, Moradabad - UPPCB",04-05-2024 12:00:00,28.856664,78.772638,OZONE,36,82,51
India,Uttar_Pradesh,Moradabad,"Kashiram Nagar, Moradabad - UPPCB",04-05-2024 12:00:00,28.849399,78.742362,NO2,3,4,4
India,Uttar_Pradesh,Moradabad,"Transport Nagar, Moradabad - UPPCB",04-05-2024 12:00:00,28.802625,78.753728,PM2.5,25,162,73
India,Uttar_Pradesh,Muzaffarnagar,"New Mandi, Muzaffarnagar - UPPCB",04-05-2024 12:00:00,29.4723508,77.7194031,PM10,144,322,212
India,Uttar_Pradesh,Noida,"Sector-1, Noida - UPPCB",04-05-2024 12:00:00,28.5898,77.3101,PM10,162,431,257
India,Uttar_Pradesh,Noida,"Sector-1, Noida - UPPCB",04-05-2024 12:00:00,28.5898,77.3101,NH3,NA,NA,NA
India,Uttar_Pradesh,Prayagraj,"Jhunsi, Prayagraj - UPPCB",04-05-2024 12:00:00,25.425602,81.917152,CO,6,64,29
India,Uttar_Pradesh,Prayagraj,"Motilal Nehru NIT, Prayagraj - UPPCB",04-05-2024 12:00:00,25.494,81.863,PM10,57,147,93
India,Uttar_Pradesh,Prayagraj,"Nagar Nigam, Prayagraj - UPPCB",04-05-2024 12:00:00,25.44919916 ,81.82735986 ,PM2.5,41,103,70
India,Uttar_Pradesh,Prayagraj,"Nagar Nigam, Prayagraj - UPPCB",04-05-2024 12:00:00,25.44919916 ,81.82735986 ,PM10,40,103,67
India,Uttar_Pradesh,Prayagraj,"Nagar Nigam, Prayagraj - UPPCB",04-05-2024 12:00:00,25.44919916 ,81.82735986 ,OZONE,11,12,11
India,Uttar_Pradesh,Varanasi,"Ardhali Bazar, Varanasi - UPPCB",04-05-2024 12:00:00,25.3505986,82.9083074,PM2.5,14,63,43
India,Uttar_Pradesh,Varanasi,"Ardhali Bazar, Varanasi - UPPCB",04-05-2024 12:00:00,25.3505986,82.9083074,PM10,20,89,60
India,Uttar_Pradesh,Varanasi,"Bhelupur, Varanasi - UPPCB",04-05-2024 12:00:00,25.301778,82.996789,PM10,33,156,68
India,Uttar_Pradesh,Varanasi,"Bhelupur, Varanasi - UPPCB",04-05-2024 12:00:00,25.301778,82.996789,SO2,28,32,30
India,Uttar_Pradesh,Varanasi,"IESD Banaras Hindu University, Varanasi - UPPCB",04-05-2024 12:00:00,25.262326,82.995408,PM10,NA,NA,NA
India,Uttar_Pradesh,Varanasi,"IESD Banaras Hindu University, Varanasi - UPPCB",04-05-2024 12:00:00,25.262326,82.995408,NH3,NA,NA,NA
India,Uttar_Pradesh,Varanasi,"Maldahiya, Varanasi - UPPCB",04-05-2024 12:00:00,25.32393,82.99687,PM10,21,56,36
India,Uttar_Pradesh,Varanasi,"Maldahiya, Varanasi - UPPCB",04-05-2024 12:00:00,25.32393,82.99687,SO2,23,29,26
India,Uttar_Pradesh,Vrindavan,"Omex Eternity, Vrindavan - UPPCB",04-05-2024 12:00:00,27.5714090,77.6557570,PM2.5,25,92,58
India,Uttar_Pradesh,Vrindavan,"Omex Eternity, Vrindavan - UPPCB",04-05-2024 12:00:00,27.5714090,77.6557570,NH3,1,2,1
India,Uttar_Pradesh,Vrindavan,"Omex Eternity, Vrindavan - UPPCB",04-05-2024 12:00:00,27.5714090,77.6557570,CO,26,84,77
India,Uttarakhand,Dehradun,"Doon University, Dehradun - UKPCB",04-05-2024 12:00:00,30.269444,78.044167,OZONE,48,194,189
India,Uttarakhand,Kashipur,"Govt. Girls Inter College, Kashipur - UKPCB",04-05-2024 12:00:00,29.2124114,78.9611753,NO2,21,31,26
India,Uttarakhand,Kashipur,"Govt. Girls Inter College, Kashipur - UKPCB",04-05-2024 12:00:00,29.2124114,78.9611753,NH3,5,7,6
India,Uttarakhand,Rishikesh,"Shivaji Nagar, Rishikesh - UKPCB",04-05-2024 12:00:00,30.075911,78.2859547,PM2.5,51,182,87
India,Uttarakhand,Rishikesh,"Shivaji Nagar, Rishikesh - UKPCB",04-05-2024 12:00:00,30.075911,78.2859547,NO2,10,42,24
India,Uttarakhand,Rishikesh,"Shivaji Nagar, Rishikesh - UKPCB",04-05-2024 12:00:00,30.075911,78.2859547,SO2,4,7,5
India,West_Bengal,Asansol,"Asansol Court Area, Asansol - WBPCB",04-05-2024 12:00:00,23.685297,86.945968,OZONE,15,60,22
India,West_Bengal,Barrackpore,"SVSPA Campus, Barrackpore - WBPCB",04-05-2024 12:00:00,22.7605581,88.3617589,SO2,9,17,12
India,West_Bengal,Barrackpore,"SVSPA Campus, Barrackpore - WBPCB",04-05-2024 12:00:00,22.7605581,88.3617589,OZONE,22,91,36
India,West_Bengal,Durgapur,"PCBL Residential Complex, Durgapur - WBPCB",04-05-2024 12:00:00,23.5087640,87.3544400,CO,40,126,62
India,West_Bengal,Haldia,"Priyambada Housing Estate, Haldia - WBPCB",04-05-2024 12:00:00,22.06047,88.109737,NH3,4,5,5
India,West_Bengal,Haldia,"Priyambada Housing Estate, Haldia - WBPCB",04-05-2024 12:00:00,22.06047,88.109737,SO2,11,58,16
India,West_Bengal,Howrah,"Belur Math, Howrah - WBPCB",04-05-2024 12:00:00,22.629801,88.352017,CO,4,18,9
India,West_Bengal,Howrah,"Ghusuri, Howrah - WBPCB",04-05-2024 12:00:00,22.611968,88.347422,PM2.5,50,132,85
India,West_Bengal,Howrah,"Ghusuri, Howrah - WBPCB",04-05-2024 12:00:00,22.611968,88.347422,NO2,16,20,18
India,West_Bengal,Howrah,"Padmapukur, Howrah - WBPCB",04-05-2024 12:00:00,22.5687319,88.2797276,PM10,58,143,93
India,West_Bengal,Howrah,"Padmapukur, Howrah - WBPCB",04-05-2024 12:00:00,22.5687319,88.2797276,NO2,7,9,8
India,West_Bengal,Kolkata,"Ballygunge, Kolkata - WBPCB",04-05-2024 12:00:00,22.5367507,88.3638022,PM10,50,123,84
India,West_Bengal,Kolkata,"Ballygunge, Kolkata - WBPCB",04-05-2024 12:00:00,22.5367507,88.3638022,NH3,6,10,8
India,West_Bengal,Kolkata,"Ballygunge, Kolkata - WBPCB",04-05-2024 12:00:00,22.5367507,88.3638022,CO,8,15,11
India,West_Bengal,Kolkata,"Ballygunge, Kolkata - WBPCB",04-05-2024 12:00:00,22.5367507,88.3638022,OZONE,32,134,40
India,West_Bengal,Kolkata,"Bidhannagar, Kolkata - WBPCB",04-05-2024 12:00:00,22.58157048,88.41002457,CO,21,30,22
India,West_Bengal,Kolkata,"Fort William, Kolkata - WBPCB",04-05-2024 12:00:00,22.556640,88.342674,PM10,60,134,92
India,West_Bengal,Kolkata,"Fort William, Kolkata - WBPCB",04-05-2024 12:00:00,22.556640,88.342674,NO2,14,72,25
India,West_Bengal,Kolkata,"Jadavpur, Kolkata - WBPCB",04-05-2024 12:00:00,22.49929,88.36917,PM2.5,27,77,51
India,West_Bengal,Kolkata,"Jadavpur, Kolkata - WBPCB",04-05-2024 12:00:00,22.49929,88.36917,PM10,47,110,74
India,West_Bengal,Kolkata,"Victoria, Kolkata - WBPCB",04-05-2024 12:00:00,22.5448082,88.3403691,PM10,59,123,91
India,West_Bengal,Kolkata,"Victoria, Kolkata - WBPCB",04-05-2024 12:00:00,22.5448082,88.3403691,SO2,7,17,12
India,Andhra_Pradesh,Amaravati,"Secretariat, Amaravati - APPCB",04-05-2024 12:00:00,16.5150833,80.5181667,NO2,3,9,6
India,Andhra_Pradesh,Amaravati,"Secretariat, Amaravati - APPCB",04-05-2024 12:00:00,16.5150833,80.5181667,SO2,8,13,11
India,Andhra_Pradesh,Amaravati,"Secretariat, Amaravati - APPCB",04-05-2024 12:00:00,16.5150833,80.5181667,OZONE,19,73,30
India,Andhra_Pradesh,Anantapur,"Gulzarpet, Anantapur - APPCB",04-05-2024 12:00:00,14.675886,77.593027,NH3,4,4,4
India,Andhra_Pradesh,Chittoor,"Gangineni Cheruvu, Chittoor - APPCB",04-05-2024 12:00:00,13.204880,79.097889,SO2,6,10,7
India,Andhra_Pradesh,Kadapa,"Yerramukkapalli, Kadapa - APPCB",04-05-2024 12:00:00,14.465052,78.824187,OZONE,26,130,51
India,Andhra_Pradesh,Tirupati,"Vaikuntapuram, Tirupati - APPCB",04-05-2024 12:00:00,13.615387,79.409230,PM2.5,13,36,16
India,Andhra_Pradesh,Vijayawada,"HB Colony, Vijayawada - APPCB",04-05-2024 12:00:00,16.536107,80.594233,PM10,45,96,66
India,Andhra_Pradesh,Vijayawada,"HB Colony, Vijayawada - APPCB",04-05-2024 12:00:00,16.536107,80.594233,NH3,4,4,4
India,Andhra_Pradesh,Vijayawada,"Kanuru, Vijayawada - APPCB",04-05-2024 12:00:00,16.486692,80.699436,PM2.5,50,71,57
India,Andhra_Pradesh,Vijayawada,"Kanuru, Vijayawada - APPCB",04-05-2024 12:00:00,16.486692,80.699436,NH3,NA,NA,NA
India,Andhra_Pradesh,Vijayawada,"Kanuru, Vijayawada - APPCB",04-05-2024 12:00:00,16.486692,80.699436,SO2,8,14,11
India,Andhra_Pradesh,Vijayawada,"Kanuru, Vijayawada - APPCB",04-05-2024 12:00:00,16.486692,80.699436,OZONE,28,28,28
India,Andhra_Pradesh,Vijayawada,"Rajiv Gandhi Park, Vijayawada - APPCB",04-05-2024 12:00:00,16.509717,80.612222,SO2,7,9,8
India,Andhra_Pradesh,Vijayawada,"Rajiv Gandhi Park, Vijayawada - APPCB",04-05-2024 12:00:00,16.509717,80.612222,OZONE,19,88,33
India,Andhra_Pradesh,Vijayawada,"Rajiv Nagar, Vijayawada - APPCB",04-05-2024 12:00:00,16.554731,80.649110,CO,39,40,40
India,Andhra_Pradesh,Visakhapatnam,"GVM Corporation, Visakhapatnam - APPCB",04-05-2024 12:00:00,17.72,83.3,PM2.5,18,112,47
India,Andhra_Pradesh,Visakhapatnam,"GVM Corporation, Visakhapatnam - APPCB",04-05-2024 12:00:00,17.72,83.3,OZONE,5,59,18
India,Arunachal_Pradesh,Naharlagun,"Naharlagun, Naharlagun - APSPCB",04-05-2024 12:00:00,27.103358,93.679645,PM2.5,2,47,29
India,Arunachal_Pradesh,Naharlagun,"Naharlagun, Naharlagun - APSPCB",04-05-2024 12:00:00,27.103358,93.679645,OZONE,2,2,2
India,Assam,Byrnihat,"Central Academy for SFS, Byrnihat - PCBA",04-05-2024 12:00:00,26.071318,91.87488,PM10,111,479,244
India,Assam,Byrnihat,"Central Academy for SFS, Byrnihat - PCBA",04-05-2024 12:00:00,26.071318,91.87488,NH3,11,13,12
India,Assam,Guwahati,"IITG, Guwahati - PCBA",04-05-2024 12:00:00,26.2028636,91.70046436,NH3,5,5,5
India,Assam,Guwahati,"LGBI Airport, Guwahati - PCBA",04-05-2024 12:00:00,26.10887,91.589544,PM10,113,500,226
India,Assam,Guwahati,"LGBI Airport, Guwahati - PCBA",04-05-2024 12:00:00,26.10887,91.589544,SO2,8,12,10
India,Assam,Guwahati,"LGBI Airport, Guwahati - PCBA",04-05-2024 12:00:00,26.10887,91.589544,CO,50,111,63
India,Assam,Guwahati,"LGBI Airport, Guwahati - PCBA",04-05-2024 12:00:00,26.10887,91.589544,OZONE,2,18,10
India,Assam,Guwahati,"Pan Bazaar, Guwahati - PCBA",04-05-2024 12:00:00,26.187500,91.744194,SO2,39,63,48
India,Assam,Guwahati,"Railway Colony, Guwahati - PCBA",04-05-2024 12:00:00,26.181742,91.78063,PM10,75,362,150
India,Assam,Guwahati,"Railway Colony, Guwahati - PCBA",04-05-2024 12:00:00,26.181742,91.78063,NO2,3,3,3
India,Assam,Guwahati,"Railway Colony, Guwahati - PCBA",04-05-2024 12:00:00,26.181742,91.78063,CO,14,66,26
India,Assam,Nagaon,"Christianpatty, Nagaon - PCBA",04-05-2024 12:00:00,26.349082,92.68449,PM2.5,63,113,86
India,Assam,Nagaon,"Christianpatty, Nagaon - PCBA",04-05-2024 12:00:00,26.349082,92.68449,PM10,70,106,90
India,Assam,Nagaon,"Christianpatty, Nagaon - PCBA",04-05-2024 12:00:00,26.349082,92.68449,NH3,2,26,5
India,Assam,Nalbari,"Bata Chowk, Nalbari - PCBA",04-05-2024 12:00:00,26.446912,91.439057,PM10,75,203,129
India,Assam,Nalbari,"Bata Chowk, Nalbari - PCBA",04-05-2024 12:00:00,26.446912,91.439057,OZONE,2,18,13
India,Assam,Sivasagar,"Girls College, Sivasagar - PCBA",04-05-2024 12:00:00,26.987634,94.636574,PM2.5,41,55,47
India,Assam,Sivasagar,"Girls College, Sivasagar - PCBA",04-05-2024 12:00:00,26.987634,94.636574,OZONE,1,25,7
India,Bihar,Araria,"Kharahiya Basti, Araria - BSPCB",04-05-2024 12:00:00,26.146529,87.454184,CO,8,30,21
India,Bihar,Aurangabad,"Gurdeo Nagar, Aurangabad - BSPCB",04-05-2024 12:00:00,24.75746,84.366208,NO2,4,10,5
India,Bihar,Aurangabad,"Gurdeo Nagar, Aurangabad - BSPCB",04-05-2024 12:00:00,24.75746,84.366208,NH3,11,26,19
India,Bihar,Aurangabad,"Gurdeo Nagar, Aurangabad - BSPCB",04-05-2024 12:00:00,24.75746,84.366208,OZONE,21,122,82
India,Bihar,Buxar,"Charitra Van, Buxar - BSPCB (Formerly known as Central Jail)",04-05-2024 12:00:00,25.567520,83.966379,PM2.5,NA,NA,NA
India,Bihar,Chhapra,"Darshan Nagar, Chhapra - BSPCB",04-05-2024 12:00:00,25.7808257,84.7446768,PM10,NA,NA,NA
India,Bihar,Chhapra,"Darshan Nagar, Chhapra - BSPCB",04-05-2024 12:00:00,25.7808257,84.7446768,NO2,NA,NA,NA
India,Bihar,Gaya,"Collectorate, Gaya - BSPCB",04-05-2024 12:00:00,24.7955,84.9994,OZONE,46,83,63
India,Bihar,Gaya,"Kareemganj, Gaya - BSPCB",04-05-2024 12:00:00,24.792403,84.992416,CO,11,22,19
India,Bihar,Katihar,"Mirchaibari, Katihar - BSPCB",04-05-2024 12:00:00,25.560083,87.553265,NO2,15,43,29
India,Bihar,Katihar,"Mirchaibari, Katihar - BSPCB",04-05-2024 12:00:00,25.560083,87.553265,SO2,16,22,19
India,Bihar,Kishanganj,"SDM Office_Khagra, Kishanganj - BSPCB",04-05-2024 12:00:00,26.0881305,87.93840336,OZONE,38,85,52
India,Bihar,Manguraha,"Forest Rest House, Manguraha - BSPCB",04-05-2024 12:00:00,27.308328,84.531742,PM10,58,166,129
India,Bihar,Motihari,"Gandak Colony, Motihari - BSPCB",04-05-2024 12:00:00,26.63086,84.90051,PM2.5,27,80,47
India,Bihar,Motihari,"Gandak Colony, Motihari - BSPCB",04-05-2024 12:00:00,26.63086,84.90051,NO2,54,132,96
India,Bihar,Motihari,"Gandak Colony, Motihari - BSPCB",04-05-2024 12:00:00,26.63086,84.90051,CO,1,66,5
India,Bihar,Munger,"Town Hall, Munger - BSPCB",04-05-2024 12:00:00,25.376776,86.471523,PM2.5,63,364,143
India,Bihar,Munger,"Town Hall, Munger - BSPCB",04-05-2024 12:00:00,25.376776,86.471523,PM10,75,371,135
India,Bihar,Munger,"Town Hall, Munger - BSPCB",04-05-2024 12:00:00,25.376776,86.471523,NH3,2,3,3
India,Bihar,Muzaffarpur,"Buddha Colony, Muzaffarpur - BSPCB",04-05-2024 12:00:00,26.11442,85.39813,PM2.5,172,345,290
India,Bihar,Muzaffarpur,"MIT-Daudpur Kothi, Muzaffarpur - BSPCB",04-05-2024 12:00:00,26.1403345,85.3650192,NO2,4,6,5
India,Bihar,Muzaffarpur,"MIT-Daudpur Kothi, Muzaffarpur - BSPCB",04-05-2024 12:00:00,26.1403345,85.3650192,NH3,1,3,2
India,Bihar,Muzaffarpur,"MIT-Daudpur Kothi, Muzaffarpur - BSPCB",04-05-2024 12:00:00,26.1403345,85.3650192,SO2,4,4,4
India,Bihar,Muzaffarpur,"MIT-Daudpur Kothi, Muzaffarpur - BSPCB",04-05-2024 12:00:00,26.1403345,85.3650192,CO,6,101,42
India,Bihar,Muzaffarpur,"Muzaffarpur Collectorate, Muzaffarpur - BSPCB",04-05-2024 12:00:00,26.1209,85.3647,PM2.5,66,405,192
India,Bihar,Muzaffarpur,"Muzaffarpur Collectorate, Muzaffarpur - BSPCB",04-05-2024 12:00:00,26.1209,85.3647,NO2,32,70,41
India,Bihar,Muzaffarpur,"Muzaffarpur Collectorate, Muzaffarpur - BSPCB",04-05-2024 12:00:00,26.1209,85.3647,OZONE,49,120,57
India,Bihar,Patna,"DRM Office Danapur, Patna - BSPCB",04-05-2024 12:00:00,25.586562,85.043586,CO,20,130,92
India,Bihar,Patna,"DRM Office Danapur, Patna - BSPCB",04-05-2024 12:00:00,25.586562,85.043586,OZONE,1,34,14
India,Bihar,Patna,"Govt. High School Shikarpur, Patna - BSPCB",04-05-2024 12:00:00,25.592539,85.227158,PM2.5,127,396,291
India,Bihar,Patna,"IGSC Planetarium Complex, Patna - BSPCB",04-05-2024 12:00:00,25.610369,85.132568,PM2.5,78,420,260
India,Bihar,Patna,"Muradpur, Patna - BSPCB",04-05-2024 12:00:00,25.619651,85.147382,SO2,7,17,12
India,Bihar,Patna,"Muradpur, Patna - BSPCB",04-05-2024 12:00:00,25.619651,85.147382,CO,24,128,108
India,Bihar,Patna,"Muradpur, Patna - BSPCB",04-05-2024 12:00:00,25.619651,85.147382,OZONE,3,95,54
India,Bihar,Patna,"Rajbansi Nagar, Patna - BSPCB",04-05-2024 12:00:00,25.599486,85.113666,PM2.5,21,321,200
India,Bihar,Patna,"Rajbansi Nagar, Patna - BSPCB",04-05-2024 12:00:00,25.599486,85.113666,OZONE,4,167,44
India,Bihar,Patna,"Samanpura, Patna - BSPCB",04-05-2024 12:00:00,25.596727,85.085624,PM10,135,500,346
India,Bihar,Patna,"Samanpura, Patna - BSPCB",04-05-2024 12:00:00,25.596727,85.085624,NH3,11,30,19
India,Bihar,Patna,"Samanpura, Patna - BSPCB",04-05-2024 12:00:00,25.596727,85.085624,SO2,8,21,13
India,Bihar,Purnia,"Mariam Nagar, Purnia - BSPCB",04-05-2024 12:00:00,25.366336,87.117468,PM2.5,53,153,61
India,Bihar,Rajgir,"Dangi Tola, Rajgir - BSPCB",04-05-2024 12:00:00,25.03280,85.41948,PM10,32,153,82
India,Bihar,Saharsa,"Police Line, Saharsa - BSPCB",04-05-2024 12:00:00,25.892357,86.590325,OZONE,14,50,25
India,Bihar,Sasaram,"Dada Peer, Sasaram - BSPCB",04-05-2024 12:00:00,24.952822,84.002396,PM10,47,133,95
India,Bihar,Siwan,"Chitragupta Nagar, Siwan - BSPCB",04-05-2024 12:00:00,26.2271665,84.3570427,PM2.5,55,443,234
India,Chandigarh,Chandigarh,"Sector 22, Chandigarh - CPCC",04-05-2024 12:00:00,30.735567,76.775714,NH3,5,14,7
India,Chandigarh,Chandigarh,"Sector 22, Chandigarh - CPCC",04-05-2024 12:00:00,30.735567,76.775714,CO,34,54,45
India,Chandigarh,Chandigarh,"Sector-25, Chandigarh - CPCC",04-05-2024 12:00:00,30.751462,76.762879,PM2.5,67,131,103
India,Chandigarh,Chandigarh,"Sector-25, Chandigarh - CPCC",04-05-2024 12:00:00,30.751462,76.762879,NO2,3,16,9
India,Chandigarh,Chandigarh,"Sector-25, Chandigarh - CPCC",04-05-2024 12:00:00,30.751462,76.762879,SO2,7,20,12
India,Chandigarh,Chandigarh,"Sector-53, Chandigarh - CPCC",04-05-2024 12:00:00,30.719859,76.738637,PM2.5,25,163,75
India,Chhattisgarh,Bhilai,"32Bungalows, Bhilai - CECB",04-05-2024 12:00:00,21.194815,81.314770,PM2.5,65,130,91
India,Chhattisgarh,Bhilai,"32Bungalows, Bhilai - CECB",04-05-2024 12:00:00,21.194815,81.314770,NH3,6,6,6
India,Chhattisgarh,Bhilai,"Civic Center, Bhilai - Bhilai Steel Plant",04-05-2024 12:00:00,21.185571,81.343175,PM2.5,30,62,44
India,Chhattisgarh,Bhilai,"Civic Center, Bhilai - Bhilai Steel Plant",04-05-2024 12:00:00,21.185571,81.343175,PM10,61,113,85
India,Chhattisgarh,Bhilai,"Civic Center, Bhilai - Bhilai Steel Plant",04-05-2024 12:00:00,21.185571,81.343175,SO2,9,13,10
India,Chhattisgarh,Bhilai,"Civic Center, Bhilai - Bhilai Steel Plant",04-05-2024 12:00:00,21.185571,81.343175,CO,18,86,35
India,Chhattisgarh,Bhilai,"Civic Center, Bhilai - Bhilai Steel Plant",04-05-2024 12:00:00,21.185571,81.343175,OZONE,9,97,39
India,Chhattisgarh,Bilaspur,"Mangala, Bilaspur - NTPC",04-05-2024 12:00:00,22.08815,82.13737,SO2,8,15,12
India,Chhattisgarh,Bilaspur,"Mangala, Bilaspur - NTPC",04-05-2024 12:00:00,22.08815,82.13737,CO,30,46,37
India,Chhattisgarh,Chhal,"Nawapara SECL Colony, Chhal - CECB",04-05-2024 12:00:00,22.118125,83.140608,PM10,75,116,94
India,Chhattisgarh,Korba,"Rampur, Korba - CECB",04-05-2024 12:00:00,22.368195,82.746431,SO2,22,97,46
India,Chhattisgarh,Korba,"Urja Nagar, Korba - CECB",04-05-2024 12:00:00,22.348441,82.549611,PM2.5,1,15,7
India,Chhattisgarh,Korba,"Urja Nagar, Korba - CECB",04-05-2024 12:00:00,22.348441,82.549611,PM10,23,366,84
India,Chhattisgarh,Korba,"Urja Nagar, Korba - CECB",04-05-2024 12:00:00,22.348441,82.549611,CO,16,101,41
India,Chhattisgarh,Kunjemura,"OP Jindal School, Kunjemura - CECB",04-05-2024 12:00:00,22.126650,83.483212,PM10,69,462,190
India,Chhattisgarh,Milupara,"Govt. Higher Secondary School, Milupara - CECB",04-05-2024 12:00:00,22.1910172,83.5197009,PM2.5,NA,NA,NA
India,Chhattisgarh,Milupara,"Govt. Higher Secondary School, Milupara - CECB",04-05-2024 12:00:00,22.1910172,83.5197009,NO2,NA,NA,NA
India,Chhattisgarh,Raipur,"AIIMS, Raipur - CECB",04-05-2024 12:00:00,21.258815,81.578979,PM10,48,94,67
India,Chhattisgarh,Raipur,"Bhatagaon New ISBT, Raipur - CECB",04-05-2024 12:00:00,21.219665,81.630094,PM10,43,161,103
India,Chhattisgarh,Raipur,"Bhatagaon New ISBT, Raipur - CECB",04-05-2024 12:00:00,21.219665,81.630094,CO,16,104,52
India,Chhattisgarh,Raipur,"Krishak Nagar, Raipur - CECB",04-05-2024 12:00:00,21.237755,81.705301,PM10,75,155,104
India,Chhattisgarh,Tumidih,"OP Jindal Industrial Park, Tumidih - CECB",04-05-2024 12:00:00,22.06631475,83.33820077,NH3,1,2,2
India,Delhi,Delhi,"Anand Vihar, Delhi - DPCC",04-05-2024 12:00:00,28.647622,77.3158090,PM10,155,466,295
India,Delhi,Delhi,"Anand Vihar, Delhi - DPCC",04-05-2024 12:00:00,28.647622,77.3158090,NO2,76,149,106
India,Delhi,Delhi,"Anand Vihar, Delhi - DPCC",04-05-2024 12:00:00,28.647622,77.3158090,SO2,17,77,46
India,Delhi,Delhi,"Anand Vihar, Delhi - DPCC",04-05-2024 12:00:00,28.647622,77.3158090,CO,17,104,50
India,Delhi,Delhi,"Anand Vihar, Delhi - DPCC",04-05-2024 12:00:00,28.647622,77.3158090,OZONE,5,163,163
India,Delhi,Delhi,"Ashok Vihar, Delhi - DPCC",04-05-2024 12:00:00,28.695381,77.181665,SO2,24,92,52
India,Delhi,Delhi,"Ashok Vihar, Delhi - DPCC",04-05-2024 12:00:00,28.695381,77.181665,CO,28,93,55
India,Delhi,Delhi,"Aya Nagar, Delhi - IMD",04-05-2024 12:00:00,28.4706914,77.1099364,PM10,NA,NA,NA
India,Delhi,Delhi,"CRRI Mathura Road, Delhi - IMD",04-05-2024 12:00:00,28.5512005,77.2735737,PM2.5,79,411,259
India,Delhi,Delhi,"CRRI Mathura Road, Delhi - IMD",04-05-2024 12:00:00,28.5512005,77.2735737,PM10,149,443,280
India,Delhi,Delhi,"Chandni Chowk, Delhi - IITM",04-05-2024 12:00:00,28.656756,77.227234,SO2,1,31,17
India,Delhi,Delhi,"DTU, Delhi - CPCB",04-05-2024 12:00:00,28.7500499,77.1112615,PM10,144,500,285
India,Delhi,Delhi,"DTU, Delhi - CPCB",04-05-2024 12:00:00,28.7500499,77.1112615,CO,22,76,62
India,Delhi,Delhi,"Dr. Karni Singh Shooting Range, Delhi - DPCC",04-05-2024 12:00:00,28.498571,77.264840,OZONE,2,251,50
India,Delhi,Delhi,"Dwarka-Sector 8, Delhi - DPCC ",04-05-2024 12:00:00,28.5710274,77.0719006,SO2,12,55,28
India,Delhi,Delhi,"Dwarka-Sector 8, Delhi - DPCC ",04-05-2024 12:00:00,28.5710274,77.0719006,CO,44,109,93
India,Delhi,Delhi,"IHBAS, Dilshad Garden, Delhi - CPCB",04-05-2024 12:00:00,28.6811736,77.3025234,PM10,121,192,157
India,Delhi,Delhi,"IHBAS, Dilshad Garden, Delhi - CPCB",04-05-2024 12:00:00,28.6811736,77.3025234,NO2,25,78,44
India,Delhi,Delhi,"Jahangirpuri, Delhi - DPCC",04-05-2024 12:00:00,28.732820,77.170633,PM10,180,442,346
India,Delhi,Delhi,"Jahangirpuri, Delhi - DPCC",04-05-2024 12:00:00,28.732820,77.170633,NO2,38,169,110
India,Delhi,Delhi,"Jahangirpuri, Delhi - DPCC",04-05-2024 12:00:00,28.732820,77.170633,OZONE,5,122,42
India,Delhi,Delhi,"Jawaharlal Nehru Stadium, Delhi - DPCC",04-05-2024 12:00:00,28.580280,77.233829,PM10,136,427,225
India,Delhi,Delhi,"Jawaharlal Nehru Stadium, Delhi - DPCC",04-05-2024 12:00:00,28.580280,77.233829,SO2,13,100,39
India,Delhi,Delhi,"Lodhi Road, Delhi - IITM",04-05-2024 12:00:00,28.588333,77.221667,PM2.5,85,332,167
India,Delhi,Delhi,"Major Dhyan Chand National Stadium, Delhi - DPCC",04-05-2024 12:00:00,28.611281,77.237738,PM10,130,418,206
India,Delhi,Delhi,"Major Dhyan Chand National Stadium, Delhi - DPCC",04-05-2024 12:00:00,28.611281,77.237738,OZONE,1,201,41
India,Delhi,Delhi,"Mundka, Delhi - DPCC",04-05-2024 12:00:00,28.684678,77.076574,CO,30,109,82
India,Delhi,Delhi,"NSIT Dwarka, Delhi - CPCB",04-05-2024 12:00:00,28.60909,77.0325413,NH3,11,17,14
India,Delhi,Delhi,"NSIT Dwarka, Delhi - CPCB",04-05-2024 12:00:00,28.60909,77.0325413,OZONE,11,119,44
India,Delhi,Delhi,"Najafgarh, Delhi - DPCC",04-05-2024 12:00:00,28.570173,76.933762,PM10,122,483,315
India,Delhi,Delhi,"Najafgarh, Delhi - DPCC",04-05-2024 12:00:00,28.570173,76.933762,NO2,25,145,79
India,Delhi,Delhi,"Narela, Delhi - DPCC",04-05-2024 12:00:00,28.822836,77.101981,OZONE,21,259,259
India,Delhi,Delhi,"Nehru Nagar, Delhi - DPCC",04-05-2024 12:00:00,28.567890,77.250515,PM10,137,425,233
India,Delhi,Delhi,"Nehru Nagar, Delhi - DPCC",04-05-2024 12:00:00,28.567890,77.250515,NH3,2,3,2
India,Delhi,Delhi,"New Moti Bagh, Delhi - MHUA",04-05-2024 12:00:00,28.57834,77.18400,CO,22,111,92
India,Delhi,Delhi,"Okhla Phase-2, Delhi - DPCC",04-05-2024 12:00:00,28.530785,77.271255,NO2,49,178,125
India,Delhi,Delhi,"Punjabi Bagh, Delhi - DPCC",04-05-2024 12:00:00,28.674045,77.131023,NO2,45,101,72
India,Delhi,Delhi,"Pusa, Delhi - DPCC",04-05-2024 12:00:00,28.639652,77.146275,NO2,77,176,121
India,Delhi,Delhi,"Pusa, Delhi - DPCC",04-05-2024 12:00:00,28.639652,77.146275,NH3,3,8,6
India,Delhi,Delhi,"Pusa, Delhi - DPCC",04-05-2024 12:00:00,28.639652,77.146275,SO2,7,78,37
India,Delhi,Delhi,"Pusa, Delhi - DPCC",04-05-2024 12:00:00,28.639652,77.146275,CO,14,112,47
India,Delhi,Delhi,"Pusa, Delhi - IMD",04-05-2024 12:00:00,28.636110,77.173332,PM2.5,NA,NA,NA
India,Delhi,Delhi,"Pusa, Delhi - IMD",04-05-2024 12:00:00,28.636110,77.173332,PM10,NA,NA,NA
India,Delhi,Delhi,"R K Puram, Delhi - DPCC",04-05-2024 12:00:00,28.563262,77.186937,OZONE,4,257,19
India,Delhi,Delhi,"Rohini, Delhi - DPCC",04-05-2024 12:00:00,28.732528,77.119920,PM10,154,453,321
India,Delhi,Delhi,"Shadipur, Delhi - CPCB",04-05-2024 12:00:00,28.6514781,77.1473105,PM2.5,142,500,340
India,Delhi,Delhi,"Sonia Vihar, Delhi - DPCC",04-05-2024 12:00:00,28.710508,77.249485,NO2,16,107,58
India,Delhi,Delhi,"Vivek Vihar, Delhi - DPCC",04-05-2024 12:00:00,28.672342,77.315260,NH3,15,16,16
India,Delhi,Delhi,"Vivek Vihar, Delhi - DPCC",04-05-2024 12:00:00,28.672342,77.315260,SO2,31,68,45
India,Delhi,Delhi,"Wazirpur, Delhi - DPCC",04-05-2024 12:00:00,28.699793,77.165453,OZONE,6,259,259
India,Gujarat,Ahmedabad,"Chandkheda, Ahmedabad - IITM",04-05-2024 12:00:00,23.107969,72.574648,PM2.5,78,360,145
India,Gujarat,Ahmedabad,"Chandkheda, Ahmedabad - IITM",04-05-2024 12:00:00,23.107969,72.574648,NO2,45,50,48
India,Gujarat,Ahmedabad,"Chandkheda, Ahmedabad - IITM",04-05-2024 12:00:00,23.107969,72.574648,NH3,3,4,3
India,Gujarat,Ahmedabad,"Gyaspur, Ahmedabad - IITM",04-05-2024 12:00:00,22.977134,72.553024,CO,19,72,28
India,Gujarat,Ahmedabad,"Raikhad, Ahmedabad - IITM",04-05-2024 12:00:00,23.020509,72.579261,NH3,2,3,3
India,Gujarat,Ahmedabad,"Rakhial, Ahmedabad - IITM",04-05-2024 12:00:00,23.016834,72.625775,PM10,94,379,152
India,Gujarat,Ahmedabad,"Rakhial, Ahmedabad - IITM",04-05-2024 12:00:00,23.016834,72.625775,CO,4,123,16
India,Gujarat,Ahmedabad,"SVPI Airport Hansol, Ahmedabad - IITM",04-05-2024 12:00:00,23.076793,72.627874,SO2,2,28,10
India,Gujarat,Ahmedabad,"Sardar Vallabhbhai Patel Stadium, Ahmedabad - IITM",04-05-2024 12:00:00,23.043070,72.562968,PM2.5,64,354,134
India,Gujarat,Ahmedabad,"Sardar Vallabhbhai Patel Stadium, Ahmedabad - IITM",04-05-2024 12:00:00,23.043070,72.562968,NO2,3,18,15
India,Gujarat,Ahmedabad,"Sardar Vallabhbhai Patel Stadium, Ahmedabad - IITM",04-05-2024 12:00:00,23.043070,72.562968,NH3,1,2,1
India,Gujarat,Ahmedabad,"Sardar Vallabhbhai Patel Stadium, Ahmedabad - IITM",04-05-2024 12:00:00,23.043070,72.562968,CO,27,102,36
India,Gujarat,Ankleshwar,"GIDC, Ankleshwar - GPCB",04-05-2024 12:00:00,21.613267,73.010555,NO2,35,36,36
India,Gujarat,Gandhinagar,"Sector-10, Gandhinagar - GPCB",04-05-2024 12:00:00,23.221714,72.654328,PM2.5,21,85,47
India,Gujarat,Nandesari,"GIDC, Nandesari - Nandesari Ind. Association",04-05-2024 12:00:00,22.410802,73.097923,PM2.5,50,378,182
India,Gujarat,Vapi,"Phase-1 GIDC, Vapi - GPCB",04-05-2024 12:00:00,20.362421,72.918013,PM10,45,104,75
India,Gujarat,Vapi,"Phase-1 GIDC, Vapi - GPCB",04-05-2024 12:00:00,20.362421,72.918013,OZONE,NA,NA,NA
India,Gujarat,Vatva,"Phase-4 GIDC, Vatva - GPCB",04-05-2024 12:00:00,22.969611,72.643500,NH3,5,17,11
India,Haryana,Ambala,"Patti Mehar, Ambala - HSPCB",04-05-2024 12:00:00,30.379589,76.778328,PM2.5,29,57,44
India,Haryana,Ambala,"Patti Mehar, Ambala - HSPCB",04-05-2024 12:00:00,30.379589,76.778328,NO2,3,5,4
India,Haryana,Bahadurgarh,"Arya Nagar, Bahadurgarh - HSPCB",04-05-2024 12:00:00,28.6701,76.9254,PM2.5,61,422,254
India,Haryana,Bahadurgarh,"Arya Nagar, Bahadurgarh - HSPCB",04-05-2024 12:00:00,28.6701,76.9254,NH3,8,10,9
India,Haryana,Bahadurgarh,"Arya Nagar, Bahadurgarh - HSPCB",04-05-2024 12:00:00,28.6701,76.9254,OZONE,34,43,38
India,Haryana,Ballabgarh,"Nathu Colony, Ballabgarh - HSPCB",04-05-2024 12:00:00,28.3419248,77.319699,NO2,12,14,13
India,Haryana,Ballabgarh,"Nathu Colony, Ballabgarh - HSPCB",04-05-2024 12:00:00,28.3419248,77.319699,NH3,1,2,2
India,Haryana,Bhiwani,"H.B. Colony, Bhiwani - HSPCB",04-05-2024 12:00:00,28.806223,76.141105,NH3,6,6,6
India,Haryana,Bhiwani,"H.B. Colony, Bhiwani - HSPCB",04-05-2024 12:00:00,28.806223,76.141105,OZONE,22,28,23
India,Haryana,Dharuhera,"Municipal Corporation Office, Dharuhera -  HSPCB",04-05-2024 12:00:00,28.206800,76.799700,PM10,NA,NA,NA
India,Haryana,Dharuhera,"Municipal Corporation Office, Dharuhera -  HSPCB",04-05-2024 12:00:00,28.206800,76.799700,SO2,2,81,33
India,Haryana,Faridabad,"Sector 11, Faridabad - HSPCB",04-05-2024 12:00:00,28.376058,77.315741,PM2.5,242,373,309
India,Haryana,Faridabad,"Sector 11, Faridabad - HSPCB",04-05-2024 12:00:00,28.376058,77.315741,NO2,30,32,31
India,Haryana,Faridabad,"Sector 30, Faridabad - HSPCB",04-05-2024 12:00:00,28.4417,77.3217,NH3,9,9,9
India,Haryana,Faridabad,"Sector 30, Faridabad - HSPCB",04-05-2024 12:00:00,28.4417,77.3217,CO,54,57,56
India,Haryana,Faridabad,"Sector- 16A, Faridabad - HSPCB",04-05-2024 12:00:00,28.4088421,77.3099081,CO,20,103,88
India,Haryana,Fatehabad,"Huda Sector, Fatehabad - HSPCB",04-05-2024 12:00:00,29.503664,75.467934,PM2.5,52,344,185
India,Haryana,Fatehabad,"Huda Sector, Fatehabad - HSPCB",04-05-2024 12:00:00,29.503664,75.467934,NO2,28,31,30
India,Haryana,Fatehabad,"Huda Sector, Fatehabad - HSPCB",04-05-2024 12:00:00,29.503664,75.467934,NH3,10,10,10
India,Haryana,Fatehabad,"Huda Sector, Fatehabad - HSPCB",04-05-2024 12:00:00,29.503664,75.467934,CO,5,34,9
India,Haryana,Gurugram,"Sector-51, Gurugram - HSPCB",04-05-2024 12:00:00,28.4227,77.0667,PM10,142,416,288
India,Haryana,Gurugram,"Sector-51, Gurugram - HSPCB",04-05-2024 12:00:00,28.4227,77.0667,NO2,13,29,23
India,Haryana,Gurugram,"Teri Gram, Gurugram - HSPCB",04-05-2024 12:00:00,28.4275,77.1465,CO,30,77,61
India,Haryana,Gurugram,"Vikas Sadan, Gurugram - HSPCB",04-05-2024 12:00:00,28.4501238,77.0263051,SO2,27,49,37
India,Haryana,Gurugram,"Vikas Sadan, Gurugram - HSPCB",04-05-2024 12:00:00,28.4501238,77.0263051,OZONE,8,68,23
India,Haryana,Hisar,"Urban Estate-II, Hisar - HSPCB",04-05-2024 12:00:00,29.140560,75.744941,NO2,22,34,27
India,Haryana,Hisar,"Urban Estate-II, Hisar - HSPCB",04-05-2024 12:00:00,29.140560,75.744941,OZONE,38,212,201
India,Haryana,Jind,"Police Lines, Jind - HSPCB",04-05-2024 12:00:00,29.307814,76.337619,PM2.5,58,237,136
India,Haryana,Karnal,"Sector-12, Karnal - HSPCB",04-05-2024 12:00:00,29.695300,77.002700,PM10,82,138,108
India,Haryana,Kurukshetra,"Sector-7, Kurukshetra - HSPCB",04-05-2024 12:00:00,29.966942,76.875879,PM10,94,161,122
India,Haryana,Kurukshetra,"Sector-7, Kurukshetra - HSPCB",04-05-2024 12:00:00,29.966942,76.875879,SO2,2,19,4
India,Haryana,Kurukshetra,"Sector-7, Kurukshetra - HSPCB",04-05-2024 12:00:00,29.966942,76.875879,CO,3,30,18
India,Haryana,Kurukshetra,"Sector-7, Kurukshetra - HSPCB",04-05-2024 12:00:00,29.966942,76.875879,OZONE,30,68,40
India,Haryana,Mandikhera,"General Hospital, Mandikhera - HSPCB",04-05-2024 12:00:00,27.9002,76.9938,NO2,20,24,22
India,Haryana,Mandikhera,"General Hospital, Mandikhera - HSPCB",04-05-2024 12:00:00,27.9002,76.9938,CO,8,44,30
India,Haryana,Manesar,"Sector-2 IMT, Manesar - HSPCB",04-05-2024 12:00:00,28.360699,76.936090,NH3,11,51,29
India,Haryana,Manesar,"Sector-2 IMT, Manesar - HSPCB",04-05-2024 12:00:00,28.360699,76.936090,SO2,6,38,12
India,Haryana,Narnaul,"Shastri Nagar, Narnaul - HSPCB",04-05-2024 12:00:00,28.060249,76.113115,NH3,5,27,15
India,Haryana,Palwal,"Shyam Nagar, Palwal - HSPCB",04-05-2024 12:00:00,28.1485564,77.3320667,SO2,1,17,7
India,Haryana,Panchkula,"Sector-6, Panchkula - HSPCB ",04-05-2024 12:00:00,30.7057778,76.8531805555555,CO,2,13,6
India,Haryana,Panipat,"Sector-18, Panipat - HSPCB",04-05-2024 12:00:00,29.497973,76.993331,OZONE,30,30,30
India,Haryana,Rohtak,"MD University, Rohtak - HSPCB",04-05-2024 12:00:00,28.52123,76.37138,CO,22,110,44
India,Haryana,Rohtak,"MD University, Rohtak - HSPCB",04-05-2024 12:00:00,28.52123,76.37138,OZONE,44,53,48
India,Haryana,Sirsa,"F-Block, Sirsa - HSPCB",04-05-2024 12:00:00,29.536400,75.015800,NO2,10,15,10
India,Haryana,Sirsa,"F-Block, Sirsa - HSPCB",04-05-2024 12:00:00,29.536400,75.015800,NH3,11,13,12
India,Haryana,Yamuna Nagar,"Gobind Pura, Yamuna Nagar - HSPCB",04-05-2024 12:00:00,30.1480566,77.2893471,PM2.5,70,100,86
India,Haryana,Yamuna Nagar,"Gobind Pura, Yamuna Nagar - HSPCB",04-05-2024 12:00:00,30.1480566,77.2893471,PM10,93,122,109
India,Jharkhand,Dhanbad,"Sardar Patel Nagar, Dhanbad - JSPCB",04-05-2024 12:00:00,23.80569,86.44268,PM2.5,NA,NA,NA
India,Jharkhand,Dhanbad,"Sardar Patel Nagar, Dhanbad - JSPCB",04-05-2024 12:00:00,23.80569,86.44268,NO2,NA,NA,NA
India,Jharkhand,Dhanbad,"Sardar Patel Nagar, Dhanbad - JSPCB",04-05-2024 12:00:00,23.80569,86.44268,SO2,NA,NA,NA
India,Jharkhand,Pathardih,"Mohalbani Ghat, Pathardih - DMC",04-05-2024 12:00:00,23.669880,86.411725,NO2,NA,NA,NA
India,Karnataka,Belgaum,"Ramteerth Nagar, Belgaum - KSPCB",04-05-2024 12:00:00,15.888653,74.541751,PM2.5,13,29,19
India,Karnataka,Belgaum,"Ramteerth Nagar, Belgaum - KSPCB",04-05-2024 12:00:00,15.888653,74.541751,PM10,32,102,60
India,Karnataka,Belgaum,"Ramteerth Nagar, Belgaum - KSPCB",04-05-2024 12:00:00,15.888653,74.541751,SO2,8,9,8
India,Karnataka,Belgaum,"Ramteerth Nagar, Belgaum - KSPCB",04-05-2024 12:00:00,15.888653,74.541751,OZONE,19,20,19
India,Karnataka,Bengaluru,"Bapuji Nagar, Bengaluru - KSPCB",04-05-2024 12:00:00,12.951913,77.539784,CO,24,86,35
India,Karnataka,Bengaluru,"Hombegowda Nagar, Bengaluru - KSPCB",04-05-2024 12:00:00,12.938539,77.590100,PM10,28,129,72
India,Karnataka,Bengaluru,"Hombegowda Nagar, Bengaluru - KSPCB",04-05-2024 12:00:00,12.938539,77.590100,SO2,1,4,2
India,Karnataka,Bengaluru,"Hombegowda Nagar, Bengaluru - KSPCB",04-05-2024 12:00:00,12.938539,77.590100,OZONE,8,65,38
India,Karnataka,Bengaluru,"Jayanagar 5th Block, Bengaluru - KSPCB",04-05-2024 12:00:00,12.920984,77.584908,NH3,NA,NA,NA
India,Karnataka,Bengaluru,"Jayanagar 5th Block, Bengaluru - KSPCB",04-05-2024 12:00:00,12.920984,77.584908,SO2,6,30,19
India,Karnataka,Bengaluru,"Kasturi Nagar, Bengaluru - KSPCB",04-05-2024 12:00:00,13.003872,77.664217,SO2,10,10,10
India,Karnataka,Bengaluru,"Peenya, Bengaluru - CPCB",04-05-2024 12:00:00,13.0270199,77.494094,PM2.5,35,63,50
India,Karnataka,Bengaluru,"Peenya, Bengaluru - CPCB",04-05-2024 12:00:00,13.0270199,77.494094,PM10,45,80,64
India,Karnataka,Bengaluru,"Peenya, Bengaluru - CPCB",04-05-2024 12:00:00,13.0270199,77.494094,CO,31,44,33
India,Karnataka,Bengaluru,"RVCE-Mailasandra, Bengaluru - KSPCB",04-05-2024 12:00:00,12.921418,77.502466,NO2,16,17,17
India,Karnataka,Bengaluru,"RVCE-Mailasandra, Bengaluru - KSPCB",04-05-2024 12:00:00,12.921418,77.502466,SO2,8,10,8
India,Karnataka,Bengaluru,"RVCE-Mailasandra, Bengaluru - KSPCB",04-05-2024 12:00:00,12.921418,77.502466,OZONE,39,39,39
India,Karnataka,Bengaluru,"Sanegurava Halli, Bengaluru - KSPCB",04-05-2024 12:00:00,12.990328,77.5431385,PM10,34,98,49
India,Karnataka,Bengaluru,"Sanegurava Halli, Bengaluru - KSPCB",04-05-2024 12:00:00,12.990328,77.5431385,SO2,2,3,3
India,Karnataka,Bengaluru,"Shivapura_Peenya, Bengaluru - KSPCB",04-05-2024 12:00:00,13.0246342,77.5080115,SO2,4,10,6
India,Karnataka,Bidar,"Naubad, Bidar - KSPCB",04-05-2024 12:00:00,17.930306,77.482194,NO2,7,11,8
India,Karnataka,Bidar,"Naubad, Bidar - KSPCB",04-05-2024 12:00:00,17.930306,77.482194,OZONE,13,59,40
India,Karnataka,Chamarajanagar,"Urban, Chamarajanagar - KSPCB",04-05-2024 12:00:00,11.55358,76.55521,PM2.5,30,46,44
India,Karnataka,Chamarajanagar,"Urban, Chamarajanagar - KSPCB",04-05-2024 12:00:00,11.55358,76.55521,PM10,46,59,57
India,Karnataka,Chamarajanagar,"Urban, Chamarajanagar - KSPCB",04-05-2024 12:00:00,11.55358,76.55521,NH3,2,2,2
India,Karnataka,Chamarajanagar,"Urban, Chamarajanagar - KSPCB",04-05-2024 12:00:00,11.55358,76.55521,SO2,5,10,7
India,Karnataka,Chikkaballapur,"Chikkaballapur Rural, Chikkaballapur - KSPCB",04-05-2024 12:00:00,13.428828,77.731418,PM2.5,38,83,58
India,Karnataka,Chikkaballapur,"Chikkaballapur Rural, Chikkaballapur - KSPCB",04-05-2024 12:00:00,13.428828,77.731418,CO,2,26,13
