country,state,city,station,last_update,latitude,longitude,pollutant_id,pollutant_min,pollutant_max,pollutant_avg
India,Andhra_Pradesh,Amaravati,"Secretariat, Amaravati - APPCB",10-01-2024 20:00:00,16.5150833,80.5181667,NO2,13,57,20
India,Andhra_Pradesh,Anantapur,"Gulzarpet, Anantapur - APPCB",10-01-2024 20:00:00,14.675886,77.593027,NO2,8,34,20
India,Andhra_Pradesh,Rajamahendravaram,"Anand Kala Kshetram, Rajamahendravaram - APPCB",10-01-2024 20:00:00,16.9872867,81.7363176,OZONE,13,30,26
India,Andhra_Pradesh,Tirupati,"Tirumala, Tirupati - APPCB",10-01-2024 20:00:00,13.67,79.35,PM2.5,65,94,82
India,Andhra_Pradesh,Tirupati,"Tirumala, Tirupati - APPCB",10-01-2024 20:00:00,13.67,79.35,NO2,18,32,25
India,Andhra_Pradesh,Tirupati,"Tirumala, Tirupati - APPCB",10-01-2024 20:00:00,13.67,79.35,OZONE,26,45,38
India,Andhra_Pradesh,Tirupati,"Vaikuntapuram, Tirupati - APPCB",10-01-2024 20:00:00,13.615387,79.409230,NO2,15,26,19
India,Andhra_Pradesh,Vijayawada,"HB Colony, Vijayawada - APPCB",10-01-2024 20:00:00,16.536107,80.594233,NH3,3,4,4
India,Andhra_Pradesh,Vijayawada,"Rajiv Gandhi Park, Vijayawada - APPCB",10-01-2024 20:00:00,16.509717,80.612222,PM10,54,94,75
India,Andhra_Pradesh,Vijayawada,"Rajiv Gandhi Park, Vijayawada - APPCB",10-01-2024 20:00:00,16.509717,80.612222,NO2,2,108,35
India,Andhra_Pradesh,Visakhapatnam,"GVM Corporation, Visakhapatnam - APPCB",10-01-2024 20:00:00,17.72,83.3,PM2.5,130,346,278
India,Andhra_Pradesh,Visakhapatnam,"GVM Corporation, Visakhapatnam - APPCB",10-01-2024 20:00:00,17.72,83.3,CO,24,82,34
India,Arunachal_Pradesh,Naharlagun,"Naharlagun, Naharlagun - APSPCB",10-01-2024 20:00:00,27.103358,93.679645,PM2.5,54,306,126
India,Arunachal_Pradesh,Naharlagun,"Naharlagun, Naharlagun - APSPCB",10-01-2024 20:00:00,27.103358,93.679645,OZONE,2,2,2
India,Assam,Byrnihat,"Central Academy for SFS, Byrnihat - PCBA",10-01-2024 20:00:00,26.071318,91.87488,OZONE,6,160,25
India,Assam,Guwahati,"Pan Bazaar, Guwahati - PCBA",10-01-2024 20:00:00,26.187500,91.744194,SO2,58,86,65
India,Assam,Guwahati,"Railway Colony, Guwahati - PCBA",10-01-2024 20:00:00,26.181742,91.78063,SO2,23,58,32
India,Assam,Nagaon,"Christianpatty, Nagaon - PCBA",10-01-2024 20:00:00,26.349082,92.68449,PM10,123,444,263
India,Assam,Nagaon,"Christianpatty, Nagaon - PCBA",10-01-2024 20:00:00,26.349082,92.68449,SO2,1,5,3
India,Assam,Nalbari,"Bata Chowk, Nalbari - PCBA",10-01-2024 20:00:00,26.446912,91.439057,SO2,6,11,8
India,Assam,Nalbari,"Bata Chowk, Nalbari - PCBA",10-01-2024 20:00:00,26.446912,91.439057,OZONE,9,20,18
India,Assam,Silchar,"Tarapur, Silchar - PCBA",10-01-2024 20:00:00,24.82827,92.79525,PM2.5,32,39,35
India,Assam,Silchar,"Tarapur, Silchar - PCBA",10-01-2024 20:00:00,24.82827,92.79525,NH3,1,1,1
India,Assam,Sivasagar,"Girls College, Sivasagar - PCBA",10-01-2024 20:00:00,26.987634,94.636574,NO2,19,41,29
India,Assam,Sivasagar,"Girls College, Sivasagar - PCBA",10-01-2024 20:00:00,26.987634,94.636574,CO,7,106,18
India,Bihar,Araria,"Kharahiya Basti, Araria - BSPCB",10-01-2024 20:00:00,26.146529,87.454184,PM2.5,271,455,354
India,Bihar,Araria,"Kharahiya Basti, Araria - BSPCB",10-01-2024 20:00:00,26.146529,87.454184,CO,47,133,70
India,Bihar,Arrah,"New DM Office, Arrah - BSPCB",10-01-2024 20:00:00,25.5626095,84.663264,SO2,15,20,18
India,Bihar,Aurangabad,"Gurdeo Nagar, Aurangabad - BSPCB",10-01-2024 20:00:00,24.75746,84.366208,CO,16,117,74
India,Bihar,Aurangabad,"Gurdeo Nagar, Aurangabad - BSPCB",10-01-2024 20:00:00,24.75746,84.366208,OZONE,2,72,51
India,Bihar,Bettiah,"Kamalnath Nagar, Bettiah - BSPCB",10-01-2024 20:00:00,26.80365,84.51954,PM10,NA,NA,NA
India,Bihar,Bettiah,"Kamalnath Nagar, Bettiah - BSPCB",10-01-2024 20:00:00,26.80365,84.51954,NH3,NA,NA,NA
India,Bihar,Bettiah,"Kamalnath Nagar, Bettiah - BSPCB",10-01-2024 20:00:00,26.80365,84.51954,CO,102,112,106
India,Bihar,Bhagalpur,"DM Office_Kachari Chowk, Bhagalpur - BSPCB",10-01-2024 20:00:00,25.251013,86.989001,OZONE,20,30,25
India,Bihar,Bhagalpur,"Mayaganj, Bhagalpur - BSPCB",10-01-2024 20:00:00,25.265194,87.012947,PM10,133,326,206
India,Bihar,Bhagalpur,"Mayaganj, Bhagalpur - BSPCB",10-01-2024 20:00:00,25.265194,87.012947,OZONE,10,61,43
India,Bihar,Bihar Sharif,"D M Colony, Bihar Sharif - BSPCB",10-01-2024 20:00:00,25.204762,85.514960,PM10,101,159,130
India,Bihar,Bihar Sharif,"D M Colony, Bihar Sharif - BSPCB",10-01-2024 20:00:00,25.204762,85.514960,NO2,9,10,10
India,Bihar,Chhapra,"Darshan Nagar, Chhapra - BSPCB",10-01-2024 20:00:00,25.7808257,84.7446768,PM10,135,225,187
India,Bihar,Chhapra,"Darshan Nagar, Chhapra - BSPCB",10-01-2024 20:00:00,25.7808257,84.7446768,NH3,1,2,2
India,Bihar,Chhapra,"Darshan Nagar, Chhapra - BSPCB",10-01-2024 20:00:00,25.7808257,84.7446768,CO,17,30,24
India,Bihar,Gaya,"Collectorate, Gaya - BSPCB",10-01-2024 20:00:00,24.7955,84.9994,NO2,17,22,20
India,Bihar,Gaya,"Kareemganj, Gaya - BSPCB",10-01-2024 20:00:00,24.792403,84.992416,PM2.5,8,130,54
India,Bihar,Gaya,"Kareemganj, Gaya - BSPCB",10-01-2024 20:00:00,24.792403,84.992416,NH3,1,5,3
India,Bihar,Gaya,"SFTI Kusdihra, Gaya - BSPCB",10-01-2024 20:00:00,24.762518,84.982348,PM2.5,75,236,145
India,Bihar,Gaya,"SFTI Kusdihra, Gaya - BSPCB",10-01-2024 20:00:00,24.762518,84.982348,SO2,7,11,9
India,Bihar,Gaya,"SFTI Kusdihra, Gaya - BSPCB",10-01-2024 20:00:00,24.762518,84.982348,OZONE,7,63,42
India,Bihar,Hajipur,"Industrial Area, Hajipur - BSPCB",10-01-2024 20:00:00,25.697189,85.245900,NH3,1,6,4
India,Bihar,Katihar,"Mirchaibari, Katihar - BSPCB",10-01-2024 20:00:00,25.560083,87.553265,PM2.5,95,377,246
India,Bihar,Katihar,"Mirchaibari, Katihar - BSPCB",10-01-2024 20:00:00,25.560083,87.553265,NO2,20,43,30
India,Bihar,Katihar,"Mirchaibari, Katihar - BSPCB",10-01-2024 20:00:00,25.560083,87.553265,NH3,3,6,5
India,Bihar,Kishanganj,"SDM Office_Khagra, Kishanganj - BSPCB",10-01-2024 20:00:00,26.0881305,87.93840336,NO2,29,35,31
India,Bihar,Kishanganj,"SDM Office_Khagra, Kishanganj - BSPCB",10-01-2024 20:00:00,26.0881305,87.93840336,OZONE,15,42,34
India,Bihar,Manguraha,"Forest Rest House, Manguraha - BSPCB",10-01-2024 20:00:00,27.308328,84.531742,NO2,26,53,42
India,Bihar,Munger,"Town Hall, Munger - BSPCB",10-01-2024 20:00:00,25.376776,86.471523,NO2,7,8,8
India,Bihar,Munger,"Town Hall, Munger - BSPCB",10-01-2024 20:00:00,25.376776,86.471523,SO2,27,44,38
India,Bihar,Munger,"Town Hall, Munger - BSPCB",10-01-2024 20:00:00,25.376776,86.471523,OZONE,9,96,63
India,Bihar,Muzaffarpur,"Buddha Colony, Muzaffarpur - BSPCB",10-01-2024 20:00:00,26.11442,85.39813,NO2,7,55,21
India,Bihar,Muzaffarpur,"MIT-Daudpur Kothi, Muzaffarpur - BSPCB",10-01-2024 20:00:00,26.1403345,85.3650192,SO2,4,10,6
India,Bihar,Muzaffarpur,"MIT-Daudpur Kothi, Muzaffarpur - BSPCB",10-01-2024 20:00:00,26.1403345,85.3650192,CO,67,108,98
India,Bihar,Muzaffarpur,"MIT-Daudpur Kothi, Muzaffarpur - BSPCB",10-01-2024 20:00:00,26.1403345,85.3650192,OZONE,3,64,35
India,Bihar,Patna,"DRM Office Danapur, Patna - BSPCB",10-01-2024 20:00:00,25.586562,85.043586,SO2,6,9,7
India,Bihar,Patna,"Govt. High School Shikarpur, Patna - BSPCB",10-01-2024 20:00:00,25.592539,85.227158,PM10,95,190,139
India,Bihar,Patna,"Govt. High School Shikarpur, Patna - BSPCB",10-01-2024 20:00:00,25.592539,85.227158,OZONE,11,46,33
India,Bihar,Patna,"Muradpur, Patna - BSPCB",10-01-2024 20:00:00,25.619651,85.147382,SO2,4,8,7
India,Bihar,Patna,"Rajbansi Nagar, Patna - BSPCB",10-01-2024 20:00:00,25.599486,85.113666,PM2.5,147,320,233
India,Bihar,Patna,"Rajbansi Nagar, Patna - BSPCB",10-01-2024 20:00:00,25.599486,85.113666,PM10,166,293,205
India,Bihar,Patna,"Rajbansi Nagar, Patna - BSPCB",10-01-2024 20:00:00,25.599486,85.113666,NH3,6,9,7
India,Bihar,Patna,"Rajbansi Nagar, Patna - BSPCB",10-01-2024 20:00:00,25.599486,85.113666,SO2,12,22,18
India,Bihar,Patna,"Rajbansi Nagar, Patna - BSPCB",10-01-2024 20:00:00,25.599486,85.113666,CO,30,102,53
India,Bihar,Patna,"Samanpura, Patna - BSPCB",10-01-2024 20:00:00,25.596727,85.085624,PM2.5,230,440,335
India,Bihar,Patna,"Samanpura, Patna - BSPCB",10-01-2024 20:00:00,25.596727,85.085624,NO2,15,21,16
India,Bihar,Patna,"Samanpura, Patna - BSPCB",10-01-2024 20:00:00,25.596727,85.085624,SO2,3,7,5
India,Bihar,Patna,"Samanpura, Patna - BSPCB",10-01-2024 20:00:00,25.596727,85.085624,CO,65,161,83
India,Bihar,Purnia,"Mariam Nagar, Purnia - BSPCB",10-01-2024 20:00:00,25.366336,87.117468,PM2.5,257,407,321
India,Bihar,Purnia,"Mariam Nagar, Purnia - BSPCB",10-01-2024 20:00:00,25.366336,87.117468,CO,62,122,74
India,Bihar,Rajgir,"Dangi Tola, Rajgir - BSPCB",10-01-2024 20:00:00,25.03280,85.41948,NO2,4,22,7
India,Bihar,Saharsa,"Police Line, Saharsa - BSPCB",10-01-2024 20:00:00,25.892357,86.590325,PM2.5,315,488,365
India,Bihar,Saharsa,"Police Line, Saharsa - BSPCB",10-01-2024 20:00:00,25.892357,86.590325,CO,1,112,13
India,Bihar,Saharsa,"Police Line, Saharsa - BSPCB",10-01-2024 20:00:00,25.892357,86.590325,OZONE,2,5,4
India,Bihar,Samastipur,"DM Office_Kasipur, Samastipur - BSPCB",10-01-2024 20:00:00,25.859655,85.77944,NO2,2,11,5
India,Bihar,Sasaram,"Dada Peer, Sasaram - BSPCB",10-01-2024 20:00:00,24.952822,84.002396,NO2,1,12,7
India,Chandigarh,Chandigarh,"Sector 22, Chandigarh - CPCC",10-01-2024 20:00:00,30.735567,76.775714,NH3,3,10,6
India,Chandigarh,Chandigarh,"Sector-25, Chandigarh - CPCC",10-01-2024 20:00:00,30.751462,76.762879,CO,32,45,37
India,Chandigarh,Chandigarh,"Sector-53, Chandigarh - CPCC",10-01-2024 20:00:00,30.719859,76.738637,SO2,2,61,14
India,Chandigarh,Chandigarh,"Sector-53, Chandigarh - CPCC",10-01-2024 20:00:00,30.719859,76.738637,CO,58,85,71
India,Chandigarh,Chandigarh,"Sector-53, Chandigarh - CPCC",10-01-2024 20:00:00,30.719859,76.738637,OZONE,10,26,23
India,Chhattisgarh,Bhilai,"Civic Center, Bhilai - Bhilai Steel Plant",10-01-2024 20:00:00,21.185571,81.343175,PM2.5,5,85,57
India,Chhattisgarh,Bhilai,"Civic Center, Bhilai - Bhilai Steel Plant",10-01-2024 20:00:00,21.185571,81.343175,OZONE,7,60,36
India,Chhattisgarh,Bhilai,"Hathkhoj, Bhilai - CECB",10-01-2024 20:00:00,21.224231,81.408350,OZONE,11,38,31
India,Chhattisgarh,Bilaspur,"Mangala, Bilaspur - NTPC",10-01-2024 20:00:00,22.08815,82.13737,PM10,83,171,123
India,Chhattisgarh,Bilaspur,"Mangala, Bilaspur - NTPC",10-01-2024 20:00:00,22.08815,82.13737,SO2,13,51,33
India,Chhattisgarh,Chhal,"Nawapara SECL Colony, Chhal - CECB",10-01-2024 20:00:00,22.118125,83.140608,PM10,52,131,101
India,Chhattisgarh,Chhal,"Nawapara SECL Colony, Chhal - CECB",10-01-2024 20:00:00,22.118125,83.140608,SO2,8,57,21
India,Chhattisgarh,Chhal,"Nawapara SECL Colony, Chhal - CECB",10-01-2024 20:00:00,22.118125,83.140608,CO,70,120,93
India,Chhattisgarh,Korba,"Rampur, Korba - CECB",10-01-2024 20:00:00,22.368195,82.746431,PM10,90,139,110
India,Chhattisgarh,Korba,"Rampur, Korba - CECB",10-01-2024 20:00:00,22.368195,82.746431,NO2,34,74,43
India,Chhattisgarh,Korba,"Urja Nagar, Korba - CECB",10-01-2024 20:00:00,22.348441,82.549611,PM10,58,422,111
India,Chhattisgarh,Korba,"Urja Nagar, Korba - CECB",10-01-2024 20:00:00,22.348441,82.549611,NO2,58,81,67
India,Chhattisgarh,Korba,"Urja Nagar, Korba - CECB",10-01-2024 20:00:00,22.348441,82.549611,OZONE,47,48,47
India,Chhattisgarh,Milupara,"Govt. Higher Secondary School, Milupara - CECB",10-01-2024 20:00:00,22.1910172,83.5197009,PM10,73,210,115
India,Chhattisgarh,Milupara,"Govt. Higher Secondary School, Milupara - CECB",10-01-2024 20:00:00,22.1910172,83.5197009,OZONE,4,112,69
India,Chhattisgarh,Raipur,"AIIMS, Raipur - CECB",10-01-2024 20:00:00,21.258815,81.578979,PM2.5,60,182,118
India,Chhattisgarh,Raipur,"AIIMS, Raipur - CECB",10-01-2024 20:00:00,21.258815,81.578979,NO2,49,73,63
India,Chhattisgarh,Raipur,"AIIMS, Raipur - CECB",10-01-2024 20:00:00,21.258815,81.578979,NH3,4,4,4
India,Chhattisgarh,Raipur,"Bhatagaon New ISBT, Raipur - CECB",10-01-2024 20:00:00,21.219665,81.630094,PM2.5,61,185,112
India,Chhattisgarh,Raipur,"Siltara Phase-II, Raipur - CECB",10-01-2024 20:00:00,21.371751,81.664929,CO,38,74,51
India,Chhattisgarh,Tumidih,"OP Jindal Industrial Park, Tumidih - CECB",10-01-2024 20:00:00,22.06631475,83.33820077,CO,31,60,45
India,Delhi,Delhi,"Alipur, Delhi - DPCC",10-01-2024 20:00:00,28.815329,77.153010,PM2.5,182,347,252
India,Delhi,Delhi,"Alipur, Delhi - DPCC",10-01-2024 20:00:00,28.815329,77.153010,PM10,99,267,141
India,Delhi,Delhi,"Alipur, Delhi - DPCC",10-01-2024 20:00:00,28.815329,77.153010,CO,42,68,55
India,Delhi,Delhi,"Anand Vihar, Delhi - DPCC",10-01-2024 20:00:00,28.647622,77.3158090,NH3,8,11,9
India,Delhi,Delhi,"Aya Nagar, Delhi - IMD",10-01-2024 20:00:00,28.4706914,77.1099364,CO,60,80,69
India,Delhi,Delhi,"Bawana, Delhi - DPCC",10-01-2024 20:00:00,28.776200,77.051074,SO2,2,4,3
India,Delhi,Delhi,"Bawana, Delhi - DPCC",10-01-2024 20:00:00,28.776200,77.051074,OZONE,4,24,15
India,Delhi,Delhi,"Burari Crossing, Delhi - IMD",10-01-2024 20:00:00,28.7256504,77.2011573,NO2,8,13,10
India,Delhi,Delhi,"Burari Crossing, Delhi - IMD",10-01-2024 20:00:00,28.7256504,77.2011573,OZONE,23,38,31
India,Delhi,Delhi,"CRRI Mathura Road, Delhi - IMD",10-01-2024 20:00:00,28.5512005,77.2735737,PM2.5,147,347,249
India,Delhi,Delhi,"DTU, Delhi - CPCB",10-01-2024 20:00:00,28.7500499,77.1112615,PM10,144,330,196
India,Delhi,Delhi,"DTU, Delhi - CPCB",10-01-2024 20:00:00,28.7500499,77.1112615,NH3,11,16,12
India,Delhi,Delhi,"DTU, Delhi - CPCB",10-01-2024 20:00:00,28.7500499,77.1112615,SO2,28,29,29
India,Delhi,Delhi,"IGI Airport (T3), Delhi - IMD",10-01-2024 20:00:00,28.5627763,77.1180053,PM2.5,146,358,264
India,Delhi,Delhi,"IGI Airport (T3), Delhi - IMD",10-01-2024 20:00:00,28.5627763,77.1180053,PM10,106,324,166
India,Delhi,Delhi,"IHBAS, Dilshad Garden, Delhi - CPCB",10-01-2024 20:00:00,28.6811736,77.3025234,PM2.5,67,298,141
India,Delhi,Delhi,"IHBAS, Dilshad Garden, Delhi - CPCB",10-01-2024 20:00:00,28.6811736,77.3025234,CO,8,84,48
India,Delhi,Delhi,"ITO, Delhi - CPCB",10-01-2024 20:00:00,28.628624,77.241060,SO2,7,28,16
India,Delhi,Delhi,"ITO, Delhi - CPCB",10-01-2024 20:00:00,28.628624,77.241060,CO,34,101,76
India,Delhi,Delhi,"Jahangirpuri, Delhi - DPCC",10-01-2024 20:00:00,28.732820,77.170633,NH3,8,10,9
India,Delhi,Delhi,"Lodhi Road, Delhi - IITM",10-01-2024 20:00:00,28.588333,77.221667,PM10,NA,NA,NA
India,Delhi,Delhi,"Lodhi Road, Delhi - IMD",10-01-2024 20:00:00,28.5918245,77.2273074,PM2.5,141,351,248
India,Delhi,Delhi,"Mandir Marg, Delhi - DPCC",10-01-2024 20:00:00,28.636429,77.201067,NO2,51,107,92
India,Delhi,Delhi,"Mandir Marg, Delhi - DPCC",10-01-2024 20:00:00,28.636429,77.201067,CO,8,70,46
India,Delhi,Delhi,"NSIT Dwarka, Delhi - CPCB",10-01-2024 20:00:00,28.60909,77.0325413,SO2,6,15,10
India,Delhi,Delhi,"Najafgarh, Delhi - DPCC",10-01-2024 20:00:00,28.570173,76.933762,CO,20,56,46
India,Delhi,Delhi,"Narela, Delhi - DPCC",10-01-2024 20:00:00,28.822836,77.101981,PM2.5,218,354,278
India,Delhi,Delhi,"Narela, Delhi - DPCC",10-01-2024 20:00:00,28.822836,77.101981,PM10,132,311,173
India,Delhi,Delhi,"Narela, Delhi - DPCC",10-01-2024 20:00:00,28.822836,77.101981,NH3,8,12,10
India,Delhi,Delhi,"Narela, Delhi - DPCC",10-01-2024 20:00:00,28.822836,77.101981,CO,67,107,92
India,Delhi,Delhi,"Nehru Nagar, Delhi - DPCC",10-01-2024 20:00:00,28.567890,77.250515,CO,45,82,71
India,Delhi,Delhi,"Nehru Nagar, Delhi - DPCC",10-01-2024 20:00:00,28.567890,77.250515,OZONE,3,37,23
India,Delhi,Delhi,"New Moti Bagh, Delhi - MHUA",10-01-2024 20:00:00,28.57834,77.18400,NO2,1,6,2
India,Delhi,Delhi,"North Campus, DU, Delhi - IMD",10-01-2024 20:00:00,28.6573814,77.1585447,CO,35,74,54
India,Delhi,Delhi,"Okhla Phase-2, Delhi - DPCC",10-01-2024 20:00:00,28.530785,77.271255,PM10,139,363,212
India,Delhi,Delhi,"Okhla Phase-2, Delhi - DPCC",10-01-2024 20:00:00,28.530785,77.271255,NH3,11,15,13
India,Delhi,Delhi,"Okhla Phase-2, Delhi - DPCC",10-01-2024 20:00:00,28.530785,77.271255,CO,32,100,63
India,Delhi,Delhi,"Okhla Phase-2, Delhi - DPCC",10-01-2024 20:00:00,28.530785,77.271255,OZONE,10,34,24
India,Delhi,Delhi,"Punjabi Bagh, Delhi - DPCC",10-01-2024 20:00:00,28.674045,77.131023,CO,40,84,68
India,Delhi,Delhi,"Pusa, Delhi - DPCC",10-01-2024 20:00:00,28.639652,77.146275,PM10,154,409,265
India,Delhi,Delhi,"Pusa, Delhi - DPCC",10-01-2024 20:00:00,28.639652,77.146275,CO,17,121,89
India,Delhi,Delhi,"Pusa, Delhi - IMD",10-01-2024 20:00:00,28.636110,77.173332,PM2.5,87,351,238
India,Delhi,Delhi,"Pusa, Delhi - IMD",10-01-2024 20:00:00,28.636110,77.173332,PM10,96,226,149
India,Delhi,Delhi,"Pusa, Delhi - IMD",10-01-2024 20:00:00,28.636110,77.173332,NO2,16,33,23
India,Delhi,Delhi,"R K Puram, Delhi - DPCC",10-01-2024 20:00:00,28.563262,77.186937,NO2,20,69,39
India,Delhi,Delhi,"R K Puram, Delhi - DPCC",10-01-2024 20:00:00,28.563262,77.186937,NH3,5,11,8
India,Delhi,Delhi,"R K Puram, Delhi - DPCC",10-01-2024 20:00:00,28.563262,77.186937,OZONE,12,56,36
India,Delhi,Delhi,"Shadipur, Delhi - CPCB",10-01-2024 20:00:00,28.6514781,77.1473105,PM2.5,220,385,317
India,Delhi,Delhi,"Shadipur, Delhi - CPCB",10-01-2024 20:00:00,28.6514781,77.1473105,NO2,26,57,44
India,Delhi,Delhi,"Sirifort, Delhi - CPCB",10-01-2024 20:00:00,28.5504249,77.2159377,PM10,134,353,197
India,Delhi,Delhi,"Sirifort, Delhi - CPCB",10-01-2024 20:00:00,28.5504249,77.2159377,NO2,132,169,146
India,Delhi,Delhi,"Sonia Vihar, Delhi - DPCC",10-01-2024 20:00:00,28.710508,77.249485,SO2,2,5,3
India,Delhi,Delhi,"Sri Aurobindo Marg, Delhi - DPCC",10-01-2024 20:00:00,28.531346,77.190156,NO2,27,70,40
India,Delhi,Delhi,"Vivek Vihar, Delhi - DPCC",10-01-2024 20:00:00,28.672342,77.315260,OZONE,2,21,6
India,Gujarat,Ahmedabad,"Chandkheda, Ahmedabad - IITM",10-01-2024 20:00:00,23.107969,72.574648,NO2,6,11,8
India,Gujarat,Ahmedabad,"Gyaspur, Ahmedabad - IITM",10-01-2024 20:00:00,22.977134,72.553024,PM2.5,77,306,160
India,Gujarat,Ahmedabad,"Gyaspur, Ahmedabad - IITM",10-01-2024 20:00:00,22.977134,72.553024,SO2,8,9,8
India,Gujarat,Ahmedabad,"Maninagar, Ahmedabad - GPCB",10-01-2024 20:00:00,23.002657,72.591912,OZONE,9,83,69
India,Gujarat,Ahmedabad,"Rakhial, Ahmedabad - IITM",10-01-2024 20:00:00,23.016834,72.625775,OZONE,4,42,30
India,Gujarat,Ahmedabad,"SAC ISRO Bopal, Ahmedabad - IITM",10-01-2024 20:00:00,23.041137,72.456691,NH3,4,6,5
India,Gujarat,Ahmedabad,"SAC ISRO Satellite, Ahmedabad - IITM",10-01-2024 20:00:00,23.023389,72.515201,NH3,2,4,3
India,Gujarat,Ahmedabad,"SVPI Airport Hansol, Ahmedabad - IITM",10-01-2024 20:00:00,23.076793,72.627874,SO2,3,7,5
India,Gujarat,Ahmedabad,"SVPI Airport Hansol, Ahmedabad - IITM",10-01-2024 20:00:00,23.076793,72.627874,OZONE,6,21,16
India,Gujarat,Ahmedabad,"Sardar Vallabhbhai Patel Stadium, Ahmedabad - IITM",10-01-2024 20:00:00,23.043070,72.562968,SO2,NA,NA,NA
India,Gujarat,Gandhinagar,"GIFT City, Gandhinagar - IITM",10-01-2024 20:00:00,23.163798,72.677768,NH3,2,2,2
India,Gujarat,Gandhinagar,"GIFT City, Gandhinagar - IITM",10-01-2024 20:00:00,23.163798,72.677768,SO2,5,6,6
India,Gujarat,Gandhinagar,"Sector-10, Gandhinagar - GPCB",10-01-2024 20:00:00,23.221714,72.654328,PM10,NA,NA,NA
India,Gujarat,Vapi,"Phase-1 GIDC, Vapi - GPCB",10-01-2024 20:00:00,20.362421,72.918013,SO2,47,51,49
India,Gujarat,Vatva,"Phase-4 GIDC, Vatva - GPCB",10-01-2024 20:00:00,22.969611,72.643500,NO2,7,67,20
India,Gujarat,Vatva,"Phase-4 GIDC, Vatva - GPCB",10-01-2024 20:00:00,22.969611,72.643500,CO,38,40,39
India,Gujarat,Vatva,"Phase-4 GIDC, Vatva - GPCB",10-01-2024 20:00:00,22.969611,72.643500,OZONE,7,29,23
India,Haryana,Ambala,"Patti Mehar, Ambala - HSPCB",10-01-2024 20:00:00,30.379589,76.778328,PM2.5,66,180,105
India,Haryana,Ballabgarh,"Nathu Colony, Ballabgarh - HSPCB",10-01-2024 20:00:00,28.3419248,77.319699,PM10,103,235,148
India,Haryana,Ballabgarh,"Nathu Colony, Ballabgarh - HSPCB",10-01-2024 20:00:00,28.3419248,77.319699,NO2,1,13,12
India,Haryana,Bhiwani,"H.B. Colony, Bhiwani - HSPCB",10-01-2024 20:00:00,28.806223,76.141105,NO2,2,11,7
India,Haryana,Bhiwani,"H.B. Colony, Bhiwani - HSPCB",10-01-2024 20:00:00,28.806223,76.141105,OZONE,11,45,19
India,Haryana,Dharuhera,"Municipal Corporation Office, Dharuhera -  HSPCB",10-01-2024 20:00:00,28.206800,76.799700,PM10,152,296,194
India,Haryana,Dharuhera,"Municipal Corporation Office, Dharuhera -  HSPCB",10-01-2024 20:00:00,28.206800,76.799700,OZONE,4,41,29
India,Haryana,Faridabad,"New Industrial Town, Faridabad - HSPCB",10-01-2024 20:00:00,28.39072,77.30059,PM10,145,271,191
India,Haryana,Faridabad,"New Industrial Town, Faridabad - HSPCB",10-01-2024 20:00:00,28.39072,77.30059,CO,7,34,23
India,Haryana,Faridabad,"Sector 11, Faridabad - HSPCB",10-01-2024 20:00:00,28.376058,77.315741,PM2.5,4,167,139
India,Haryana,Faridabad,"Sector 11, Faridabad - HSPCB",10-01-2024 20:00:00,28.376058,77.315741,NH3,6,7,6
India,Haryana,Faridabad,"Sector 30, Faridabad - HSPCB",10-01-2024 20:00:00,28.4417,77.3217,PM2.5,NA,NA,NA
India,Haryana,Faridabad,"Sector 30, Faridabad - HSPCB",10-01-2024 20:00:00,28.4417,77.3217,NH3,NA,NA,NA
India,Haryana,Faridabad,"Sector- 16A, Faridabad - HSPCB",10-01-2024 20:00:00,28.4088421,77.3099081,NO2,11,52,25
India,Haryana,Fatehabad,"Huda Sector, Fatehabad - HSPCB",10-01-2024 20:00:00,29.503664,75.467934,PM2.5,286,335,311
India,Haryana,Fatehabad,"Huda Sector, Fatehabad - HSPCB",10-01-2024 20:00:00,29.503664,75.467934,PM10,143,189,164
India,Haryana,Fatehabad,"Huda Sector, Fatehabad - HSPCB",10-01-2024 20:00:00,29.503664,75.467934,NH3,10,11,10
India,Haryana,Fatehabad,"Huda Sector, Fatehabad - HSPCB",10-01-2024 20:00:00,29.503664,75.467934,SO2,4,12,7
India,Haryana,Gurugram,"Sector-51, Gurugram - HSPCB",10-01-2024 20:00:00,28.4227,77.0667,NO2,13,29,23
India,Haryana,Gurugram,"Teri Gram, Gurugram - HSPCB",10-01-2024 20:00:00,28.4275,77.1465,OZONE,8,11,11
India,Haryana,Hisar,"Urban Estate-II, Hisar - HSPCB",10-01-2024 20:00:00,29.140560,75.744941,SO2,NA,NA,NA
India,Haryana,Jind,"Police Lines, Jind - HSPCB",10-01-2024 20:00:00,29.307814,76.337619,CO,2,162,55
India,Haryana,Kaithal,"Rishi Nagar, Kaithal - HSPCB",10-01-2024 20:00:00,29.8006,76.4155,PM2.5,42,159,84
India,Haryana,Kaithal,"Rishi Nagar, Kaithal - HSPCB",10-01-2024 20:00:00,29.8006,76.4155,NO2,24,26,25
India,Haryana,Karnal,"Sector-12, Karnal - HSPCB",10-01-2024 20:00:00,29.695300,77.002700,NO2,NA,NA,NA
India,Haryana,Karnal,"Sector-12, Karnal - HSPCB",10-01-2024 20:00:00,29.695300,77.002700,NH3,NA,NA,NA
India,Haryana,Karnal,"Sector-12, Karnal - HSPCB",10-01-2024 20:00:00,29.695300,77.002700,SO2,NA,NA,NA
India,Haryana,Kurukshetra,"Sector-7, Kurukshetra - HSPCB",10-01-2024 20:00:00,29.966942,76.875879,PM10,96,147,120
India,Haryana,Kurukshetra,"Sector-7, Kurukshetra - HSPCB",10-01-2024 20:00:00,29.966942,76.875879,NO2,10,10,10
India,Haryana,Mandikhera,"General Hospital, Mandikhera - HSPCB",10-01-2024 20:00:00,27.9002,76.9938,PM10,NA,NA,NA
India,Haryana,Manesar,"Sector-2 IMT, Manesar - HSPCB",10-01-2024 20:00:00,28.360699,76.936090,NO2,15,22,18
India,Haryana,Manesar,"Sector-2 IMT, Manesar - HSPCB",10-01-2024 20:00:00,28.360699,76.936090,SO2,3,32,13
India,Haryana,Manesar,"Sector-2 IMT, Manesar - HSPCB",10-01-2024 20:00:00,28.360699,76.936090,CO,16,39,32
India,Haryana,Palwal,"Shyam Nagar, Palwal - HSPCB",10-01-2024 20:00:00,28.1485564,77.3320667,NO2,3,6,5
India,Haryana,Palwal,"Shyam Nagar, Palwal - HSPCB",10-01-2024 20:00:00,28.1485564,77.3320667,SO2,5,20,13
India,Haryana,Palwal,"Shyam Nagar, Palwal - HSPCB",10-01-2024 20:00:00,28.1485564,77.3320667,OZONE,1,14,6
India,Haryana,Panipat,"Sector-18, Panipat - HSPCB",10-01-2024 20:00:00,29.497973,76.993331,CO,NA,NA,NA
India,Haryana,Rohtak,"MD University, Rohtak - HSPCB",10-01-2024 20:00:00,28.52123,76.37138,PM2.5,233,383,329
India,Haryana,Rohtak,"MD University, Rohtak - HSPCB",10-01-2024 20:00:00,28.52123,76.37138,NO2,47,55,51
India,Haryana,Rohtak,"MD University, Rohtak - HSPCB",10-01-2024 20:00:00,28.52123,76.37138,SO2,1,20,9
India,Haryana,Yamuna Nagar,"Gobind Pura, Yamuna Nagar - HSPCB",10-01-2024 20:00:00,30.1480566,77.2893471,PM2.5,65,186,94
India,Haryana,Yamuna Nagar,"Gobind Pura, Yamuna Nagar - HSPCB",10-01-2024 20:00:00,30.1480566,77.2893471,NO2,11,29,18
India,Haryana,Yamuna Nagar,"Gobind Pura, Yamuna Nagar - HSPCB",10-01-2024 20:00:00,30.1480566,77.2893471,SO2,3,9,7
India,Haryana,Yamuna Nagar,"Gobind Pura, Yamuna Nagar - HSPCB",10-01-2024 20:00:00,30.1480566,77.2893471,OZONE,7,10,8
India,Himachal Pradesh,Baddi,"HIMUDA Complex Phase-1, Baddi - HPPCB",10-01-2024 20:00:00,30.943887,76.801991,PM2.5,98,302,189
India,Himachal Pradesh,Baddi,"HIMUDA Complex Phase-1, Baddi - HPPCB",10-01-2024 20:00:00,30.943887,76.801991,SO2,18,62,32
India,Jharkhand,Dhanbad,"Kalakusuma, Dhanbad - DMC",10-01-2024 20:00:00,23.811548,86.481238,OZONE,20,31,28
India,Jharkhand,Dhanbad,"Sardar Patel Nagar, Dhanbad - JSPCB",10-01-2024 20:00:00,23.80569,86.44268,NO2,200,420,291
India,Jharkhand,Pathardih,"Mohalbani Ghat, Pathardih - DMC",10-01-2024 20:00:00,23.669880,86.411725,NO2,192,415,283
India,Jharkhand,Pathardih,"Mohalbani Ghat, Pathardih - DMC",10-01-2024 20:00:00,23.669880,86.411725,SO2,15,19,17
India,Jharkhand,Pathardih,"Mohalbani Ghat, Pathardih - DMC",10-01-2024 20:00:00,23.669880,86.411725,CO,145,174,174
India,Jharkhand,Pathardih,"Mohalbani Ghat, Pathardih - DMC",10-01-2024 20:00:00,23.669880,86.411725,OZONE,16,21,17
India,Karnataka,Bagalkot,"Vidayagiri, Bagalkot - KSPCB",10-01-2024 20:00:00,16.172806,75.659694,PM2.5,18,36,34
India,Karnataka,Bagalkot,"Vidayagiri, Bagalkot - KSPCB",10-01-2024 20:00:00,16.172806,75.659694,NO2,10,11,10
India,Karnataka,Bagalkot,"Vidayagiri, Bagalkot - KSPCB",10-01-2024 20:00:00,16.172806,75.659694,NH3,1,2,1
India,Karnataka,Belgaum,"Ramteerth Nagar, Belgaum - KSPCB",10-01-2024 20:00:00,15.888653,74.541751,PM10,38,108,66
India,Karnataka,Belgaum,"Ramteerth Nagar, Belgaum - KSPCB",10-01-2024 20:00:00,15.888653,74.541751,NO2,25,34,28
India,Karnataka,Bengaluru,"BTM Layout, Bengaluru - CPCB",10-01-2024 20:00:00,12.9135218,77.5950804,SO2,6,14,10
India,Karnataka,Bengaluru,"Bapuji Nagar, Bengaluru - KSPCB",10-01-2024 20:00:00,12.951913,77.539784,NO2,10,12,11
India,Karnataka,Bengaluru,"Bapuji Nagar, Bengaluru - KSPCB",10-01-2024 20:00:00,12.951913,77.539784,SO2,5,7,6
India,Karnataka,Bengaluru,"Hebbal, Bengaluru - KSPCB",10-01-2024 20:00:00,13.029152,77.585901,OZONE,7,8,7
India,Karnataka,Bengaluru,"Hombegowda Nagar, Bengaluru - KSPCB",10-01-2024 20:00:00,12.938539,77.590100,NO2,30,39,34
India,Karnataka,Bengaluru,"Hombegowda Nagar, Bengaluru - KSPCB",10-01-2024 20:00:00,12.938539,77.590100,CO,10,24,19
India,Karnataka,Bengaluru,"Hombegowda Nagar, Bengaluru - KSPCB",10-01-2024 20:00:00,12.938539,77.590100,OZONE,4,6,5
India,Karnataka,Bengaluru,"Jigani, Bengaluru - KSPCB",10-01-2024 20:00:00,12.7816279,77.6299145,NH3,2,4,3
India,Karnataka,Bengaluru,"Kasturi Nagar, Bengaluru - KSPCB",10-01-2024 20:00:00,13.003872,77.664217,NO2,16,17,17
India,Karnataka,Bengaluru,"Kasturi Nagar, Bengaluru - KSPCB",10-01-2024 20:00:00,13.003872,77.664217,NH3,4,4,4
India,Karnataka,Bengaluru,"Kasturi Nagar, Bengaluru - KSPCB",10-01-2024 20:00:00,13.003872,77.664217,CO,24,26,26
India,Karnataka,Bengaluru,"Peenya, Bengaluru - CPCB",10-01-2024 20:00:00,13.0270199,77.494094,PM10,64,107,83
India,Karnataka,Bengaluru,"RVCE-Mailasandra, Bengaluru - KSPCB",10-01-2024 20:00:00,12.921418,77.502466,CO,44,56,53
India,Karnataka,Bengaluru,"Shivapura_Peenya, Bengaluru - KSPCB",10-01-2024 20:00:00,13.0246342,77.5080115,PM2.5,5,60,23
India,Karnataka,Bengaluru,"Shivapura_Peenya, Bengaluru - KSPCB",10-01-2024 20:00:00,13.0246342,77.5080115,PM10,51,81,66
India,Karnataka,Bengaluru,"Shivapura_Peenya, Bengaluru - KSPCB",10-01-2024 20:00:00,13.0246342,77.5080115,SO2,3,24,11
India,Karnataka,Bengaluru,"Shivapura_Peenya, Bengaluru - KSPCB",10-01-2024 20:00:00,13.0246342,77.5080115,OZONE,37,87,73
India,Karnataka,Bengaluru,"Silk Board, Bengaluru - KSPCB",10-01-2024 20:00:00,12.917348,77.622813,NH3,2,3,2
India,Karnataka,Bidar,"Naubad, Bidar - KSPCB",10-01-2024 20:00:00,17.930306,77.482194,PM10,92,138,115
India,Karnataka,Bidar,"Naubad, Bidar - KSPCB",10-01-2024 20:00:00,17.930306,77.482194,CO,38,78,53
India,Karnataka,Chamarajanagar,"Urban, Chamarajanagar - KSPCB",10-01-2024 20:00:00,11.55358,76.55521,PM10,34,54,44
India,Karnataka,Chamarajanagar,"Urban, Chamarajanagar - KSPCB",10-01-2024 20:00:00,11.55358,76.55521,SO2,2,7,4
India,Karnataka,Chamarajanagar,"Urban, Chamarajanagar - KSPCB",10-01-2024 20:00:00,11.55358,76.55521,OZONE,15,34,26
India,Karnataka,Chikkamagaluru,"Kalyana Nagara, Chikkamagaluru - KSPCB",10-01-2024 20:00:00,13.328028,75.797056,NO2,22,43,29
India,Karnataka,Chikkamagaluru,"Kalyana Nagara, Chikkamagaluru - KSPCB",10-01-2024 20:00:00,13.328028,75.797056,NH3,3,6,4
India,Karnataka,Davanagere,"Devaraj Urs Badavane, Davanagere - KSPCB",10-01-2024 20:00:00,14.475800,75.905200,CO,8,18,14
India,Karnataka,Davanagere,"Devaraj Urs Badavane, Davanagere - KSPCB",10-01-2024 20:00:00,14.475800,75.905200,OZONE,16,29,24
India,Karnataka,Dharwad,"Kalabhavan, Dharwad - KSPCB",10-01-2024 20:00:00,15.459706,75.008381,PM2.5,45,75,57
India,Karnataka,Dharwad,"Kalabhavan, Dharwad - KSPCB",10-01-2024 20:00:00,15.459706,75.008381,NH3,2,3,2
India,Karnataka,Gadag,"Panchal Nagar, Gadag - KSPCB",10-01-2024 20:00:00,15.411456,75.638133,NH3,2,3,2
India,Karnataka,Hassan,"B.Katihalli, Hassan - KSPCB",10-01-2024 20:00:00,13.008556,76.125258,PM2.5,NA,NA,NA
India,Karnataka,Hassan,"B.Katihalli, Hassan - KSPCB",10-01-2024 20:00:00,13.008556,76.125258,CO,NA,NA,NA
India,Karnataka,Hubballi,"Lingaraj Nagar, Hubballi - KSPCB",10-01-2024 20:00:00,15.3714823,75.1160168,NO2,16,16,16
India,Karnataka,Kalaburagi,"Lal Bahadur Shastri Nagar, Kalaburagi - KSPCB",10-01-2024 20:00:00,17.321993,76.822628,NH3,2,3,2
India,Karnataka,Kalaburagi,"Lal Bahadur Shastri Nagar, Kalaburagi - KSPCB",10-01-2024 20:00:00,17.321993,76.822628,OZONE,2,50,36
India,Karnataka,Kalaburagi,"Mahatma Basaveswar Colony, Kalaburgi - KSPCB",10-01-2024 20:00:00,17.336318,76.847397,NH3,2,4,3
India,Karnataka,Kalaburagi,"Mahatma Basaveswar Colony, Kalaburgi - KSPCB",10-01-2024 20:00:00,17.336318,76.847397,OZONE,8,38,26
India,Karnataka,Karwar,"KHB Colony, Karwar - KSPCB",10-01-2024 20:00:00,14.816666,74.141003,SO2,17,18,18
India,Karnataka,Kolar,"Tamaka Ind. Area, Kolar - KSPCB",10-01-2024 20:00:00,13.1276288,78.1570122,OZONE,17,24,22
India,Karnataka,Madikeri,"Stuart Hill, Madikeri - KSPCB",10-01-2024 20:00:00,12.415911,75.735050,PM2.5,38,71,50
India,Karnataka,Madikeri,"Stuart Hill, Madikeri - KSPCB",10-01-2024 20:00:00,12.415911,75.735050,CO,2,34,17
India,Karnataka,Mysuru,"Hebbal 1st Stage, Mysuru - KSPCB",10-01-2024 20:00:00,12.21041,76.37376,PM2.5,34,83,43
India,Karnataka,Mysuru,"Hebbal 1st Stage, Mysuru - KSPCB",10-01-2024 20:00:00,12.21041,76.37376,SO2,1,6,2
India,Karnataka,Raichur,"Haji Colony, Raichur - KSPCB",10-01-2024 20:00:00,16.208139,77.348417,SO2,62,86,72
India,Karnataka,Raichur,"Haji Colony, Raichur - KSPCB",10-01-2024 20:00:00,16.208139,77.348417,OZONE,1,56,13
India,Karnataka,Ramanagara,"Vijay Nagar, Ramanagara - KSPCB",10-01-2024 20:00:00,12.733409,77.298051,PM2.5,40,78,55
India,Karnataka,Ramanagara,"Vijay Nagar, Ramanagara - KSPCB",10-01-2024 20:00:00,12.733409,77.298051,PM10,31,52,43
India,Karnataka,Ramanagara,"Vijay Nagar, Ramanagara - KSPCB",10-01-2024 20:00:00,12.733409,77.298051,OZONE,24,26,25
India,Karnataka,Tumakuru,"Thimmalapura, Tumakuru - KSPCB",10-01-2024 20:00:00,13.377516,77.099072,NO2,NA,NA,NA
India,Karnataka,Udupi,"Brahmagiri, Udupi - KSPCB",10-01-2024 20:00:00,13.34194444,74.74694444,OZONE,23,23,23
India,Karnataka,Vijayapura,"Ibrahimpur, Vijayapura - KSPCB",10-01-2024 20:00:00,16.802639,75.722694,NO2,17,19,19
India,Karnataka,Yadgir,"Collector Office, Yadgir - KSPCB",10-01-2024 20:00:00,16.7602,77.1428,SO2,3,25,15
India,Kerala,Thiruvananthapuram,"Kariavattom, Thiruvananthapuram - Kerala PCB",10-01-2024 20:00:00,8.563700,76.886500,NO2,8,10,9
India,Kerala,Thiruvananthapuram,"Kariavattom, Thiruvananthapuram - Kerala PCB",10-01-2024 20:00:00,8.563700,76.886500,CO,12,68,22
India,Kerala,Thiruvananthapuram,"Plammoodu, Thiruvananthapuram - Kerala PCB",10-01-2024 20:00:00,8.5149093,76.9435879,PM2.5,NA,NA,NA
India,Kerala,Thrissur,"Corporation Ground, Thrissur - Kerala PCB",10-01-2024 20:00:00,10.532400,76.215900,PM10,49,62,58
India,Kerala,Thrissur,"Corporation Ground, Thrissur - Kerala PCB",10-01-2024 20:00:00,10.532400,76.215900,CO,14,36,27
India,Madhya Pradesh,Bhopal,"Idgah Hills, Bhopal - MPPCB",10-01-2024 20:00:00,23.264759,77.381568,PM2.5,77,312,207
India,Madhya Pradesh,Bhopal,"Idgah Hills, Bhopal - MPPCB",10-01-2024 20:00:00,23.264759,77.381568,PM10,91,225,156
India,Madhya Pradesh,Bhopal,"Idgah Hills, Bhopal - MPPCB",10-01-2024 20:00:00,23.264759,77.381568,OZONE,29,56,44
India,Madhya Pradesh,Bhopal,"Paryavaran Parisar, Bhopal - MPPCB",10-01-2024 20:00:00,23.210494,77.425409,NO2,23,52,36
India,Madhya Pradesh,Bhopal,"Paryavaran Parisar, Bhopal - MPPCB",10-01-2024 20:00:00,23.210494,77.425409,CO,26,52,36
India,Madhya Pradesh,Bhopal,"T T Nagar, Bhopal - MPPCB",10-01-2024 20:00:00,23.233584,77.400574,OZONE,24,57,36
India,Madhya Pradesh,Damoh,"Shrivastav Colony, Damoh - MPPCB",10-01-2024 20:00:00,23.81748678,79.446246,PM2.5,22,61,38
India,Madhya Pradesh,Dewas,"Bhopal Chauraha, Dewas - MPPCB",10-01-2024 20:00:00,22.9682591,76.064118,PM10,102,164,139
India,Madhya Pradesh,Dewas,"Bhopal Chauraha, Dewas - MPPCB",10-01-2024 20:00:00,22.9682591,76.064118,CO,30,46,43
India,Madhya Pradesh,Gwalior,"City Center, Gwalior - MPPCB",10-01-2024 20:00:00,26.203442,78.193251,OZONE,16,19,17
India,Madhya Pradesh,Gwalior,"Deen Dayal Nagar, Gwalior - MPPCB",10-01-2024 20:00:00,26.259242,78.216432,NH3,6,12,8
India,Madhya Pradesh,Gwalior,"Maharaj Bada, Gwalior - MPPCB",10-01-2024 20:00:00,26.200388,78.147714,PM10,118,382,207
India,Madhya Pradesh,Gwalior,"Maharaj Bada, Gwalior - MPPCB",10-01-2024 20:00:00,26.200388,78.147714,CO,36,104,54
India,Madhya Pradesh,Gwalior,"Maharaj Bada, Gwalior - MPPCB",10-01-2024 20:00:00,26.200388,78.147714,OZONE,7,50,34
India,Madhya Pradesh,Gwalior,"Phool Bagh, Gwalior - Mondelez Ind. Food",10-01-2024 20:00:00,26.210536,78.171,PM10,8,160,87
India,Madhya Pradesh,Indore,"Maguda Nagar, Indore - IMC",10-01-2024 20:00:00,22.7524,75.8872,CO,24,28,25
India,Madhya Pradesh,Indore,"Maguda Nagar, Indore - IMC",10-01-2024 20:00:00,22.7524,75.8872,OZONE,37,41,39
India,Madhya Pradesh,Indore,"Regional Park, Indore - IMC",10-01-2024 20:00:00,22.6780,75.8559,PM2.5,75,131,97
India,Madhya Pradesh,Indore,"Regional Park, Indore - IMC",10-01-2024 20:00:00,22.6780,75.8559,NO2,5,7,6
India,Madhya Pradesh,Indore,"Residency Area, Indore - IMC",10-01-2024 20:00:00,22.7084,75.8815,PM2.5,80,178,122
India,Madhya Pradesh,Indore,"Residency Area, Indore - IMC",10-01-2024 20:00:00,22.7084,75.8815,PM10,69,112,89
India,Madhya Pradesh,Jabalpur,"Govindh Bhavan Colony, Jabalpur - JMC",10-01-2024 20:00:00,23.163174,79.973061,PM2.5,93,302,168
India,Madhya Pradesh,Jabalpur,"Govindh Bhavan Colony, Jabalpur - JMC",10-01-2024 20:00:00,23.163174,79.973061,SO2,2,8,4
India,Madhya Pradesh,Jabalpur,"Gupteshwar, Jabalpur - JMC",10-01-2024 20:00:00,23.142888,79.916147,NH3,6,10,7
India,Madhya Pradesh,Jabalpur,"Suhagi, Jabalpur - JMC",10-01-2024 20:00:00,23.218135,79.957770,PM2.5,123,297,198
India,Madhya Pradesh,Jabalpur,"Suhagi, Jabalpur - JMC",10-01-2024 20:00:00,23.218135,79.957770,NO2,56,57,56
India,Madhya Pradesh,Maihar,"Sahilara, Maihar - KJS Cements",10-01-2024 20:00:00,24.2613009,80.7231783,PM10,15,103,58
India,Madhya Pradesh,Pithampur,"Sector-2 Industrial Area, Pithampur - MPPCB",10-01-2024 20:00:00,22.624758,75.675238,PM2.5,90,320,255
India,Madhya Pradesh,Pithampur,"Sector-2 Industrial Area, Pithampur - MPPCB",10-01-2024 20:00:00,22.624758,75.675238,NO2,9,16,12
India,Madhya Pradesh,Pithampur,"Sector-2 Industrial Area, Pithampur - MPPCB",10-01-2024 20:00:00,22.624758,75.675238,OZONE,29,44,36
India,Madhya Pradesh,Ratlam,"Shasthri Nagar, Ratlam - IPCA Lab",10-01-2024 20:00:00,23.331731,75.045981,PM10,NA,NA,NA
India,Madhya Pradesh,Ratlam,"Shasthri Nagar, Ratlam - IPCA Lab",10-01-2024 20:00:00,23.331731,75.045981,NO2,2,112,21
India,Madhya Pradesh,Sagar,"Civil Lines, Sagar - MPPCB",10-01-2024 20:00:00,23.838586,78.759431,NO2,11,20,14
India,Madhya Pradesh,Sagar,"Deen Dayal Nagar, Sagar - MPPCB",10-01-2024 20:00:00,23.8640158,78.80289321,PM2.5,24,72,46
India,Madhya Pradesh,Sagar,"Deen Dayal Nagar, Sagar - MPPCB",10-01-2024 20:00:00,23.8640158,78.80289321,PM10,66,210,130
India,Madhya Pradesh,Sagar,"Deen Dayal Nagar, Sagar - MPPCB",10-01-2024 20:00:00,23.8640158,78.80289321,SO2,5,13,9
India,Madhya Pradesh,Ujjain,"Mahakaleshwar Temple, Ujjain - MPPCB",10-01-2024 20:00:00,23.182719 ,75.768218 ,SO2,8,13,10
India,Maharashtra,Ahmednagar,"Tarakpur, Ahmednagar - MPCB",10-01-2024 20:00:00,19.10122,74.73339,SO2,7,24,18
India,Maharashtra,Akola,"Ramdaspeth, Akola - MPCB",10-01-2024 20:00:00,20.719516,77.000253,NH3,3,8,4
India,Maharashtra,Amravati,"Shivneri Colony, Amravati - MPCB",10-01-2024 20:00:00,20.9402359,77.7895248,PM2.5,45,118,72
India,Maharashtra,Amravati,"Shivneri Colony, Amravati - MPCB",10-01-2024 20:00:00,20.9402359,77.7895248,NO2,15,82,44
India,Maharashtra,Amravati,"Shivneri Colony, Amravati - MPCB",10-01-2024 20:00:00,20.9402359,77.7895248,OZONE,1,84,52
India,Maharashtra,Amravati,"Shri Shivaji Science College, Amaravati - MPCB",10-01-2024 20:00:00,20.939198,77.765701,NO2,12,112,49
India,Maharashtra,Amravati,"Shri Shivaji Science College, Amaravati - MPCB",10-01-2024 20:00:00,20.939198,77.765701,CO,24,121,49
India,Maharashtra,Aurangabad,"MIDC Chilkalthana, Aurangabad - MPCB",10-01-2024 20:00:00,19.875620,75.387310,NH3,3,4,4
India,Maharashtra,Aurangabad,"More Chowk Waluj, Aurangabad - MPCB",10-01-2024 20:00:00,19.8389439,75.244448,PM10,18,154,75
India,Maharashtra,Aurangabad,"Rachnakar Colony, Aurangabad - MPCB",10-01-2024 20:00:00,19.863756,75.321188,PM10,62,146,94
India,Maharashtra,Aurangabad,"Rachnakar Colony, Aurangabad - MPCB",10-01-2024 20:00:00,19.863756,75.321188,NH3,2,16,7
India,Maharashtra,Aurangabad,"Rachnakar Colony, Aurangabad - MPCB",10-01-2024 20:00:00,19.863756,75.321188,SO2,7,19,10
India,Maharashtra,Aurangabad,"Rachnakar Colony, Aurangabad - MPCB",10-01-2024 20:00:00,19.863756,75.321188,OZONE,8,93,74
India,Maharashtra,Badlapur,"Katrap, Badlapur - MPCB",10-01-2024 20:00:00,19.16485,73.23409,OZONE,2,32,20
India,Maharashtra,Belapur,"CBD Belapur, Belapur - MPCB",10-01-2024 20:00:00,19.0243902,73.0406721,PM10,46,110,71
India,Maharashtra,Boisar,"Khaira, Boisar - MPCB",10-01-2024 20:00:00,19.786089,72.757971,NH3,6,13,9
India,Maharashtra,Boisar,"Khaira, Boisar - MPCB",10-01-2024 20:00:00,19.786089,72.757971,OZONE,29,30,30
India,Maharashtra,Chandrapur,"Chauhan Colony, Chandrapur - MPCB",10-01-2024 20:00:00,19.962900,79.298714,NO2,26,90,42
India,Maharashtra,Chandrapur,"Chauhan Colony, Chandrapur - MPCB",10-01-2024 20:00:00,19.962900,79.298714,NH3,2,2,2
India,Maharashtra,Chandrapur,"Chauhan Colony, Chandrapur - MPCB",10-01-2024 20:00:00,19.962900,79.298714,SO2,8,121,41
India,Maharashtra,Chandrapur,"Chauhan Colony, Chandrapur - MPCB",10-01-2024 20:00:00,19.962900,79.298714,OZONE,1,12,6
India,Maharashtra,Dhule,"Deopur, Dhule - MPCB",10-01-2024 20:00:00,20.918946,74.776388,SO2,3,31,17
India,Maharashtra,Jalgaon,"Prabhat Colony, Jalgaon - MPCB",10-01-2024 20:00:00,21.001264,75.565602,NH3,6,9,7
India,Maharashtra,Jalgaon,"Prabhat Colony, Jalgaon - MPCB",10-01-2024 20:00:00,21.001264,75.565602,OZONE,14,68,48
India,Maharashtra,Jalna,"Old MIDC, Jalna - MPCB",10-01-2024 20:00:00,19.854616,75.905894,SO2,NA,NA,NA
India,Maharashtra,Kalyan,"Khadakpada, Kalyan - MPCB",10-01-2024 20:00:00,19.25292,73.142019,SO2,13,110,30
India,Maharashtra,Kolhapur,"Shivaji University, Kolhapur - MPCB",10-01-2024 20:00:00,16.6870449,74.2505872,PM10,48,132,87
India,Maharashtra,Latur,"Sawe Wadi, Latur - MPCB",10-01-2024 20:00:00,18.39963,76.57452,NO2,13,115,42
India,Maharashtra,Latur,"Sawe Wadi, Latur - MPCB",10-01-2024 20:00:00,18.39963,76.57452,NH3,8,8,8
India,Maharashtra,Latur,"Sawe Wadi, Latur - MPCB",10-01-2024 20:00:00,18.39963,76.57452,OZONE,8,65,43
India,Maharashtra,Mahad,"Kamble Tarf Birwadi, Mahad - MPCB",10-01-2024 20:00:00,18.1023399,73.4783687,SO2,1,122,30
India,Maharashtra,Mahad,"Kamble Tarf Birwadi, Mahad - MPCB",10-01-2024 20:00:00,18.1023399,73.4783687,OZONE,4,57,30
India,Maharashtra,Mira-Bhayandar,"Bhayandar West, Mira-Bhayandar - MPCB",10-01-2024 20:00:00,19.296481,72.840923,OZONE,5,65,53
India,Maharashtra,Mumbai,"Bandra Kurla Complex, Mumbai - MPCB",10-01-2024 20:00:00,19.065931,72.862131,PM2.5,39,130,70
India,Maharashtra,Mumbai,"Bandra Kurla Complex, Mumbai - MPCB",10-01-2024 20:00:00,19.065931,72.862131,CO,28,65,49
India,Maharashtra,Mumbai,"Bandra Kurla Complex, Mumbai - MPCB",10-01-2024 20:00:00,19.065931,72.862131,OZONE,1,48,32
India,Maharashtra,Mumbai,"Borivali East, Mumbai - IITM",10-01-2024 20:00:00,19.23241,72.86895,NH3,4,5,4
India,Maharashtra,Mumbai,"Borivali East, Mumbai - IITM",10-01-2024 20:00:00,19.23241,72.86895,CO,1,45,23
India,Maharashtra,Mumbai,"Borivali East, Mumbai - MPCB",10-01-2024 20:00:00,19.2243333,72.8658113,PM2.5,27,98,62
India,Maharashtra,Mumbai,"Borivali East, Mumbai - MPCB",10-01-2024 20:00:00,19.2243333,72.8658113,NH3,1,2,1
India,Maharashtra,Mumbai,"Byculla, Mumbai - BMC",10-01-2024 20:00:00,18.9767,72.8380,PM2.5,24,82,58
India,Maharashtra,Mumbai,"Byculla, Mumbai - BMC",10-01-2024 20:00:00,18.9767,72.8380,SO2,1,8,4
India,Maharashtra,Mumbai,"Chakala-Andheri East, Mumbai - IITM",10-01-2024 20:00:00,19.11074,72.86084,NO2,40,159,82
India,Maharashtra,Mumbai,"Chakala-Andheri East, Mumbai - IITM",10-01-2024 20:00:00,19.11074,72.86084,SO2,10,36,24
India,Maharashtra,Mumbai,"Chakala-Andheri East, Mumbai - IITM",10-01-2024 20:00:00,19.11074,72.86084,CO,11,76,39
India,Maharashtra,Mumbai,"Chembur, Mumbai - MPCB",10-01-2024 20:00:00,19.0364585,72.8954371,NO2,28,106,55
India,Maharashtra,Mumbai,"Chembur, Mumbai - MPCB",10-01-2024 20:00:00,19.0364585,72.8954371,SO2,1,39,5
India,Maharashtra,Mumbai,"Chhatrapati Shivaji Intl. Airport (T2), Mumbai - MPCB",10-01-2024 20:00:00,19.10078,72.87462,PM10,38,119,75
India,Maharashtra,Mumbai,"Colaba, Mumbai - MPCB",10-01-2024 20:00:00,18.910000,72.820000,NO2,14,28,18
India,Maharashtra,Mumbai,"Ghatkopar, Mumbai - BMC",10-01-2024 20:00:00,19.083694,72.920967,PM2.5,35,88,53
India,Maharashtra,Mumbai,"Kandivali East, Mumbai - MPCB",10-01-2024 20:00:00,19.205800,72.868200,NO2,28,125,73
India,Maharashtra,Mumbai,"Kandivali West, Mumbai - BMC",10-01-2024 20:00:00,19.215859,72.831718,NH3,1,4,3
India,Maharashtra,Mumbai,"Kandivali West, Mumbai - BMC",10-01-2024 20:00:00,19.215859,72.831718,SO2,3,5,4
India,Maharashtra,Mumbai,"Kandivali West, Mumbai - BMC",10-01-2024 20:00:00,19.215859,72.831718,OZONE,1,38,29
India,Maharashtra,Mumbai,"Kherwadi_Bandra East, Mumbai - MPCB",10-01-2024 20:00:00,19.0632143,72.8456324,NH3,5,7,6
India,Maharashtra,Mumbai,"Khindipada-Bhandup West, Mumbai - IITM",10-01-2024 20:00:00,19.1653323,72.922099,PM2.5,25,112,70
India,Maharashtra,Mumbai,"Khindipada-Bhandup West, Mumbai - IITM",10-01-2024 20:00:00,19.1653323,72.922099,CO,32,74,49
India,Maharashtra,Mumbai,"Kurla, Mumbai - MPCB",10-01-2024 20:00:00,19.0863,72.8888,PM2.5,NA,NA,NA
India,Maharashtra,Mumbai,"Kurla, Mumbai - MPCB",10-01-2024 20:00:00,19.0863,72.8888,NO2,NA,NA,NA
India,Maharashtra,Mumbai,"Kurla, Mumbai - MPCB",10-01-2024 20:00:00,19.0863,72.8888,SO2,NA,NA,NA
India,Maharashtra,Mumbai,"Malad West, Mumbai - IITM",10-01-2024 20:00:00,19.19709,72.82204,PM2.5,11,292,151
India,Maharashtra,Mumbai,"Malad West, Mumbai - IITM",10-01-2024 20:00:00,19.19709,72.82204,NH3,2,5,2
India,Maharashtra,Mumbai,"Mazgaon, Mumbai - IITM",10-01-2024 20:00:00,18.96702,72.84214,NO2,45,128,69
India,Maharashtra,Mumbai,"Mindspace-Malad West, Mumbai - MPCB",10-01-2024 20:00:00,19.1878657,72.8304069,OZONE,2,63,45
India,Maharashtra,Mumbai,"Mulund West, Mumbai - MPCB",10-01-2024 20:00:00,19.1750,72.9419,PM10,25,154,62
India,Maharashtra,Mumbai,"Navy Nagar-Colaba, Mumbai - IITM",10-01-2024 20:00:00,18.897756,72.813320,CO,34,76,57
India,Maharashtra,Mumbai,"Powai, Mumbai - MPCB",10-01-2024 20:00:00,19.137500,72.915056,PM2.5,33,90,55
India,Maharashtra,Mumbai,"Powai, Mumbai - MPCB",10-01-2024 20:00:00,19.137500,72.915056,NH3,1,1,1
India,Maharashtra,Mumbai,"Sewri, Mumbai - BMC",10-01-2024 20:00:00,19.000084,72.856730,OZONE,1,127,71
India,Maharashtra,Mumbai,"Sion, Mumbai - MPCB",10-01-2024 20:00:00,19.047000,72.874600,NO2,23,80,44
India,Maharashtra,Mumbai,"Sion, Mumbai - MPCB",10-01-2024 20:00:00,19.047000,72.874600,NH3,1,2,1
India,Maharashtra,Mumbai,"Sion, Mumbai - MPCB",10-01-2024 20:00:00,19.047000,72.874600,SO2,34,36,35
India,Maharashtra,Mumbai,"Sion, Mumbai - MPCB",10-01-2024 20:00:00,19.047000,72.874600,CO,16,58,34
India,Maharashtra,Mumbai,"Vasai West, Mumbai - MPCB",10-01-2024 20:00:00,19.383200,72.820400,NH3,4,5,4
India,Maharashtra,Mumbai,"Vasai West, Mumbai - MPCB",10-01-2024 20:00:00,19.383200,72.820400,SO2,15,16,16
India,Maharashtra,Nagpur,"Ambazari, Nagpur - MPCB",10-01-2024 20:00:00,21.121801,79.04952,PM2.5,80,187,108
India,Maharashtra,Nagpur,"Ambazari, Nagpur - MPCB",10-01-2024 20:00:00,21.121801,79.04952,SO2,8,88,33
India,Maharashtra,Nagpur,"Mahal, Nagpur - MPCB",10-01-2024 20:00:00,21.14472,79.107595,CO,26,172,74
India,Maharashtra,Nagpur,"Opp GPO Civil Lines, Nagpur - MPCB",10-01-2024 20:00:00,21.152875,79.0517531,OZONE,2,105,58
India,Maharashtra,Nagpur,"Ram Nagar, Nagpur - MPCB",10-01-2024 20:00:00,21.143383,79.048912,PM2.5,79,175,118
India,Maharashtra,Nagpur,"Ram Nagar, Nagpur - MPCB",10-01-2024 20:00:00,21.143383,79.048912,NO2,14,108,42
India,Maharashtra,Nagpur,"Ram Nagar, Nagpur - MPCB",10-01-2024 20:00:00,21.143383,79.048912,CO,17,92,30
India,Maharashtra,Nanded,"Sneh Nagar, Nanded - MPCB",10-01-2024 20:00:00,19.173852,77.296291,PM2.5,12,320,172
India,Maharashtra,Nanded,"Sneh Nagar, Nanded - MPCB",10-01-2024 20:00:00,19.173852,77.296291,PM10,35,187,119
India,Maharashtra,Nanded,"Sneh Nagar, Nanded - MPCB",10-01-2024 20:00:00,19.173852,77.296291,SO2,1,8,3
India,Maharashtra,Nanded,"Sneh Nagar, Nanded - MPCB",10-01-2024 20:00:00,19.173852,77.296291,OZONE,15,125,109
India,Maharashtra,Nashik,"Gangapur Road, Nashik - MPCB",10-01-2024 20:00:00,20.0073285,73.7762427,PM2.5,NA,NA,NA
India,Maharashtra,Nashik,"MIDC Ambad, Nashik - MPCB",10-01-2024 20:00:00,19.950220,73.731480,CO,14,36,25
India,Maharashtra,Nashik,"Pandav Nagari, Nashik - MPCB",10-01-2024 20:00:00,19.9591346,73.7788008,PM2.5,29,68,43
India,Maharashtra,Nashik,"Pandav Nagari, Nashik - MPCB",10-01-2024 20:00:00,19.9591346,73.7788008,NH3,6,8,7
India,Maharashtra,Nashik,"Pandav Nagari, Nashik - MPCB",10-01-2024 20:00:00,19.9591346,73.7788008,CO,14,31,27
India,Maharashtra,Navi Mumbai,"Kopripada-Vashi, Navi Mumbai - MPCB",10-01-2024 20:00:00,19.090337,73.014232,PM10,29,196,95
India,Maharashtra,Navi Mumbai,"Kopripada-Vashi, Navi Mumbai - MPCB",10-01-2024 20:00:00,19.090337,73.014232,NH3,6,33,11
India,Maharashtra,Navi Mumbai,"Mahape, Navi Mumbai - MPCB",10-01-2024 20:00:00,19.1135051,73.008978,OZONE,17,28,21
India,Maharashtra,Navi Mumbai,"Nerul, Navi Mumbai - MPCB",10-01-2024 20:00:00,19.008751,73.016620,NO2,6,10,8
India,Maharashtra,Navi Mumbai,"Nerul, Navi Mumbai - MPCB",10-01-2024 20:00:00,19.008751,73.016620,CO,12,19,14
India,Maharashtra,Navi Mumbai,"Sector-2E Kalamboli, Navi Mumbai - MPCB",10-01-2024 20:00:00,19.02579,73.10297,NH3,11,16,13
India,Maharashtra,Navi Mumbai,"Sector-2E Kalamboli, Navi Mumbai - MPCB",10-01-2024 20:00:00,19.02579,73.10297,SO2,9,23,14
India,Maharashtra,Navi Mumbai,"Tondare-Taloja, Navi Mumbai - MPCB",10-01-2024 20:00:00,19.0630,73.1209,NH3,4,7,5
India,Maharashtra,Navi Mumbai,"Tondare-Taloja, Navi Mumbai - MPCB",10-01-2024 20:00:00,19.0630,73.1209,CO,13,41,21
India,Maharashtra,Pimpri-Chinchwad,"Gavalinagar, Pimpri Chinchwad - MPCB",10-01-2024 20:00:00,18.63673,73.82487,PM2.5,75,189,117
India,Maharashtra,Pimpri-Chinchwad,"Park Street Wakad, Pimpri Chinchwad - MPCB",10-01-2024 20:00:00,18.59051,73.77946,SO2,1,18,7
India,Maharashtra,Pimpri-Chinchwad,"Park Street Wakad, Pimpri Chinchwad - MPCB",10-01-2024 20:00:00,18.59051,73.77946,OZONE,1,52,28
India,Maharashtra,Pimpri-Chinchwad,"Thergaon, Pimpri Chinchwad - MPCB",10-01-2024 20:00:00,18.616318,73.765797,NO2,16,87,44
India,Maharashtra,Pimpri-Chinchwad,"Thergaon, Pimpri Chinchwad - MPCB",10-01-2024 20:00:00,18.616318,73.765797,NH3,7,15,10
India,Maharashtra,Pimpri-Chinchwad,"Thergaon, Pimpri Chinchwad - MPCB",10-01-2024 20:00:00,18.616318,73.765797,CO,18,52,35
India,Maharashtra,Pune,"Bhosari, Pune - IITM",10-01-2024 20:00:00,18.640051,73.848956,PM2.5,30,131,59
India,Maharashtra,Pune,"Mhada Colony, Pune - IITM",10-01-2024 20:00:00,18.573040,73.927715,PM10,39,89,61
India,Maharashtra,Pune,"Revenue Colony-Shivajinagar, Pune - IITM",10-01-2024 20:00:00,18.530085,73.849598,NH3,23,30,29
India,Maharashtra,Pune,"Transport Nagar-Nigdi, Pune - IITM",10-01-2024 20:00:00,18.664282,73.763966,PM10,56,128,88
India,Maharashtra,Sangli,"Vijay Nagar, Sangli - MPCB",10-01-2024 20:00:00, 16.5038,74.3623,NO2,16,56,32
India,Maharashtra,Solapur,"Dnyaneshwar Nagar, Solapur - MPCB",10-01-2024 20:00:00,17.6336264,75.9132495,PM2.5,94,191,129
India,Maharashtra,Solapur,"Dnyaneshwar Nagar, Solapur - MPCB",10-01-2024 20:00:00,17.6336264,75.9132495,PM10,71,107,89
India,Maharashtra,Solapur,"Ratandeep Housing Society, Solapur - MPCB",10-01-2024 20:00:00,17.65439,75.90649,CO,20,78,27
India,Maharashtra,Solapur,"Solapur, Solapur - MPCB",10-01-2024 20:00:00,17.6599188,75.9063906,SO2,30,36,32
India,Maharashtra,Thane,"Kasarvadavali, Thane - MPCB",10-01-2024 20:00:00,19.26777,72.97182,PM10,147,155,150
India,Maharashtra,Thane,"Upvan Fort, Thane - MPCB",10-01-2024 20:00:00,19.222279,72.957979,PM2.5,49,229,101
India,Meghalaya,Shillong,"JN Stadium, Shillong - Meghalaya PCB",10-01-2024 20:00:00,25.5803419,91.8942571,NH3,2,10,4
India,Meghalaya,Shillong,"JN Stadium, Shillong - Meghalaya PCB",10-01-2024 20:00:00,25.5803419,91.8942571,SO2,25,29,27
India,Meghalaya,Shillong,"Lumpyngngad, Shillong - Meghalaya PCB",10-01-2024 20:00:00,25.5586,91.8985,PM10,NA,NA,NA
India,Meghalaya,Shillong,"Lumpyngngad, Shillong - Meghalaya PCB",10-01-2024 20:00:00,25.5586,91.8985,NO2,5,6,6
India,Meghalaya,Shillong,"Lumpyngngad, Shillong - Meghalaya PCB",10-01-2024 20:00:00,25.5586,91.8985,SO2,14,16,15
India,Mizoram,Aizawl,"Sikulpuikawn, Aizawl - Mizoram PCB",10-01-2024 20:00:00,23.7176342,92.7192841,PM2.5,4,50,29
India,Mizoram,Aizawl,"Sikulpuikawn, Aizawl - Mizoram PCB",10-01-2024 20:00:00,23.7176342,92.7192841,PM10,20,55,36
India,Nagaland,Kohima,"PWD Juction, Kohima - NPCB",10-01-2024 20:00:00,25.6635413,94.0989878,NO2,3,4,3
India,Nagaland,Kohima,"PWD Juction, Kohima - NPCB",10-01-2024 20:00:00,25.6635413,94.0989878,CO,8,46,23
India,Odisha,Balasore,"Kalidaspur, Balasore - OSPCB",10-01-2024 20:00:00,21.51161,86.89088,NO2,10,61,21
India,Odisha,Bhubaneswar,"Patia, Bhubaneswar - OSPCB",10-01-2024 20:00:00,20.34652,85.81630,CO,32,78,44
India,Odisha,Bileipada,"Tata Township, Bileipada - OSPCB",10-01-2024 20:00:00,22.06156703,85.47409613,PM2.5,128,301,195
India,Odisha,Bileipada,"Tata Township, Bileipada - OSPCB",10-01-2024 20:00:00,22.06156703,85.47409613,NH3,11,11,11
India,Odisha,Bileipada,"Tata Township, Bileipada - OSPCB",10-01-2024 20:00:00,22.06156703,85.47409613,OZONE,11,24,19
India,Odisha,Brajrajnagar,"GM Office, Brajrajnagar - OSPCB",10-01-2024 20:00:00,21.8004996,83.8396977,NO2,12,20,16
India,Odisha,Brajrajnagar,"GM Office, Brajrajnagar - OSPCB",10-01-2024 20:00:00,21.8004996,83.8396977,OZONE,19,32,24
India,Odisha,Byasanagar,"Ferro Chrome Colony, Byasanagar - OSPCB",10-01-2024 20:00:00,20.94185,86.11510,OZONE,16,156,123
India,Odisha,Cuttack,"CDA Area, Cuttack - OSPCB",10-01-2024 20:00:00,20.48891     ,85.84768     ,PM2.5,90,397,286
India,Odisha,Cuttack,"CDA Area, Cuttack - OSPCB",10-01-2024 20:00:00,20.48891     ,85.84768     ,NH3,2,4,4
India,Odisha,Keonjhar,"Jagamohanpur, Keonjhar - OSPCB",10-01-2024 20:00:00,21.643900,85.599355,PM10,20,189,133
India,Odisha,Nayagarh,"Dabuna, Nayagarh - OSPCB",10-01-2024 20:00:00,21.847279,85.416905,OZONE,1,25,12
India,Odisha,Rairangpur,"Divisional Forest Office, Rairangpur - OSPCB",10-01-2024 20:00:00,22.265816,86.174829,PM2.5,114,304,198
India,Odisha,Rourkela,"Raghunathpali, Rourkela - OSPCB",10-01-2024 20:00:00,22.220833,84.809444,PM2.5,91,336,202
India,Odisha,Rourkela,"Raghunathpali, Rourkela - OSPCB",10-01-2024 20:00:00,22.220833,84.809444,CO,34,102,77
India,Odisha,Rourkela,"Raghunathpali, Rourkela - OSPCB",10-01-2024 20:00:00,22.220833,84.809444,OZONE,15,112,67
India,Odisha,Rourkela,"Sector-2, Rourkela - OSPCB",10-01-2024 20:00:00,22.24500000,84.88111111,PM2.5,31,230,78
India,Odisha,Suakati,"OMC Colony, Suakati - OSPCB",10-01-2024 20:00:00,21.606865,85.510538,NH3,NA,NA,NA
India,Odisha,Suakati,"OMC Colony, Suakati - OSPCB",10-01-2024 20:00:00,21.606865,85.510538,OZONE,32,217,97
India,Punjab,Amritsar,"Golden Temple, Amritsar - PPCB",10-01-2024 20:00:00,31.620000,74.876512,CO,20,31,25
India,Punjab,Bathinda,"Hardev Nagar, Bathinda - PPCB",10-01-2024 20:00:00,30.233011,74.907758,PM10,74,151,118
India,Punjab,Khanna,"Kalal Majra, Khanna - PPCB",10-01-2024 20:00:00,30.736056 ,76.209694,PM2.5,53,297,116
India,Punjab,Khanna,"Kalal Majra, Khanna - PPCB",10-01-2024 20:00:00,30.736056 ,76.209694,NO2,30,30,30
India,Punjab,Khanna,"Kalal Majra, Khanna - PPCB",10-01-2024 20:00:00,30.736056 ,76.209694,NH3,15,15,15
India,Punjab,Mandi Gobindgarh,"RIMT University, Mandi Gobindgarh - PPCB",10-01-2024 20:00:00,30.649961,76.331442,PM10,54,238,123
India,Punjab,Patiala,"Model Town, Patiala - PPCB",10-01-2024 20:00:00,30.349388,76.366642,SO2,1,23,9
India,Punjab,Rupnagar,"Ratanpura, Rupnagar - Ambuja Cements",10-01-2024 20:00:00,31.0325454,76.5623046,CO,60,106,91
India,Rajasthan,Ajmer,"Civil Lines,  Ajmer - RSPCB",10-01-2024 20:00:00,26.470859,74.646594,PM2.5,17,188,90
India,Rajasthan,Ajmer,"Civil Lines,  Ajmer - RSPCB",10-01-2024 20:00:00,26.470859,74.646594,OZONE,2,43,36
India,Rajasthan,Alwar,"Moti Doongri, Alwar - RSPCB",10-01-2024 20:00:00,27.554793,76.611536,NH3,4,7,6
India,Rajasthan,Baran,"Bamboliya, Baran - RSPCB",10-01-2024 20:00:00,25.106006,76.469948,OZONE,11,62,51
India,Rajasthan,Barmer,"Railway Colony, Barmer - RSPCB",10-01-2024 20:00:00,25.747299,71.393989,PM10,72,217,111
India,Rajasthan,Bharatpur,"Krishna Nagar, Bharatpur - RSPCB",10-01-2024 20:00:00,27.215415,77.50873,OZONE,8,84,57
India,Rajasthan,Bhilwara,"Pratap Nagar, Bhilwara - RSPCB",10-01-2024 20:00:00,25.339605,74.618883,OZONE,8,80,57
India,Rajasthan,Bhiwadi,"RIICO Ind. Area III, Bhiwadi - RSPCB",10-01-2024 20:00:00,28.194909,76.862296,PM2.5,44,323,187
India,Rajasthan,Bikaner,"MM Ground, Bikaner - RSPCB",10-01-2024 20:00:00,28.018792,73.292658,PM2.5,72,418,260
India,Rajasthan,Bundi,"New Colony, Bundi - RSPCB",10-01-2024 20:00:00,25.435774,75.644272,CO,34,104,60
India,Rajasthan,Chittorgarh,"Shastri Nagar, Chittorgarh - RSPCB",10-01-2024 20:00:00,24.892047,74.623527,PM2.5,98,337,244
India,Rajasthan,Chittorgarh,"Shastri Nagar, Chittorgarh - RSPCB",10-01-2024 20:00:00,24.892047,74.623527,OZONE,8,53,42
India,Rajasthan,Churu,"Subash Chowk, Churu - RSPCB",10-01-2024 20:00:00,28.296139,74.961696,SO2,2,5,3
India,Rajasthan,Dausa,"Khatikan Mohalla, Dausa - RSPCB",10-01-2024 20:00:00,26.895552,76.334753,SO2,5,5,5
India,Rajasthan,Dausa,"Khatikan Mohalla, Dausa - RSPCB",10-01-2024 20:00:00,26.895552,76.334753,CO,22,174,174
India,Rajasthan,Dausa,"Khatikan Mohalla, Dausa - RSPCB",10-01-2024 20:00:00,26.895552,76.334753,OZONE,1,185,91
India,Rajasthan,Dholpur,"Raja Ganj, Dholpur - RSPCB",10-01-2024 20:00:00,26.699557,77.898881,CO,16,110,42
India,Rajasthan,Hanumangarh,"Housing Board, Hanumangarh - RSPCB",10-01-2024 20:00:00,29.610750,74.283608,SO2,1,3,1
India,Rajasthan,Jaipur,"Adarsh Nagar, Jaipur - RSPCB",10-01-2024 20:00:00,26.902909,75.836858,SO2,4,40,17
India,Rajasthan,Jaipur,"Mansarovar Sector-12, Jaipur - RSPCB",10-01-2024 20:00:00,26.843698,75.766894,PM2.5,30,308,201
India,Rajasthan,Jaipur,"Mansarovar Sector-12, Jaipur - RSPCB",10-01-2024 20:00:00,26.843698,75.766894,CO,14,131,65
India,Rajasthan,Jaipur,"Police Commissionerate, Jaipur - RSPCB",10-01-2024 20:00:00,26.9164092,75.7994901,NH3,NA,NA,NA
India,Rajasthan,Jaipur,"RIICO Sitapura, Jaipur - RSPCB",10-01-2024 20:00:00,26.786682,75.827928,PM10,103,466,174
India,Rajasthan,Jaipur,"Sector-2 Murlipura, Jaipur - RSPCB",10-01-2024 20:00:00,26.960669,75.771817,PM2.5,36,479,285
India,Rajasthan,Jaisalmer,"Sadar Bazar, Jaisalmer - RSPCB",10-01-2024 20:00:00,26.912329,70.909168,NO2,22,92,43
India,Rajasthan,Jaisalmer,"Sadar Bazar, Jaisalmer - RSPCB",10-01-2024 20:00:00,26.912329,70.909168,NH3,10,24,12
India,Rajasthan,Jalore,"Mudtra Sili, Jalore - RSPCB",10-01-2024 20:00:00,25.344694,72.626208,PM2.5,39,331,196
India,Rajasthan,Jalore,"Mudtra Sili, Jalore - RSPCB",10-01-2024 20:00:00,25.344694,72.626208,SO2,2,8,5
India,Rajasthan,Jalore,"Mudtra Sili, Jalore - RSPCB",10-01-2024 20:00:00,25.344694,72.626208,CO,14,107,50
India,Rajasthan,Jhalawar,"Rajlaxmi Nagar, Jhalawar - RSPCB",10-01-2024 20:00:00,24.588397,76.172782,SO2,4,6,4
India,Rajasthan,Jhalawar,"Rajlaxmi Nagar, Jhalawar - RSPCB",10-01-2024 20:00:00,24.588397,76.172782,CO,48,74,58
India,Rajasthan,Jhalawar,"Rajlaxmi Nagar, Jhalawar - RSPCB",10-01-2024 20:00:00,24.588397,76.172782,OZONE,35,76,61
India,Rajasthan,Jodhpur,"Collectorate, Jodhpur - RSPCB",10-01-2024 20:00:00,26.268249,73.0193853,PM2.5,39,316,181
India,Rajasthan,Jodhpur,"Collectorate, Jodhpur - RSPCB",10-01-2024 20:00:00,26.268249,73.0193853,CO,24,95,60
India,Rajasthan,Jodhpur,"Digari Kalan, Jodhpur - RSPCB",10-01-2024 20:00:00,26.295810,73.082283,NO2,9,42,19
India,Rajasthan,Jodhpur,"Digari Kalan, Jodhpur - RSPCB",10-01-2024 20:00:00,26.295810,73.082283,NH3,4,7,6
India,Rajasthan,Jodhpur,"Jhalamand, Jodhpur - RSPCB",10-01-2024 20:00:00,26.215415,73.070156,PM2.5,45,282,133
India,Rajasthan,Jodhpur,"Jhalamand, Jodhpur - RSPCB",10-01-2024 20:00:00,26.215415,73.070156,PM10,90,163,126
India,Rajasthan,Jodhpur,"Jhalamand, Jodhpur - RSPCB",10-01-2024 20:00:00,26.215415,73.070156,NH3,4,6,5
India,Rajasthan,Jodhpur,"Jhalamand, Jodhpur - RSPCB",10-01-2024 20:00:00,26.215415,73.070156,SO2,3,8,5
India,Rajasthan,Jodhpur,"Mandor, Jodhpur - RSPCB",10-01-2024 20:00:00,26.358805,73.047444,SO2,1,3,2
India,Rajasthan,Jodhpur,"Mandor, Jodhpur - RSPCB",10-01-2024 20:00:00,26.358805,73.047444,CO,30,62,39
India,Rajasthan,Jodhpur,"Mandor, Jodhpur - RSPCB",10-01-2024 20:00:00,26.358805,73.047444,OZONE,29,126,108
India,Rajasthan,Jodhpur,"Samrat Ashok Udhyan, Jodhpur - RSPCB",10-01-2024 20:00:00,26.253384,72.976571,SO2,4,19,7
India,Rajasthan,Jodhpur,"Samrat Ashok Udhyan, Jodhpur - RSPCB",10-01-2024 20:00:00,26.253384,72.976571,CO,34,102,47
India,Rajasthan,Karauli,"Satyawati Vihar, Karauli - RSPCB",10-01-2024 20:00:00,26.506177,77.025989,PM10,88,203,126
India,Rajasthan,Karauli,"Satyawati Vihar, Karauli - RSPCB",10-01-2024 20:00:00,26.506177,77.025989,CO,8,116,32
India,Rajasthan,Kota,"Dhanmandi, Kota - RSPCB",10-01-2024 20:00:00,25.164090,75.858137,CO,28,129,71
India,Rajasthan,Kota,"Shrinath Puram, Kota - RSPCB",10-01-2024 20:00:00,25.14389,75.821256,OZONE,15,57,31
India,Rajasthan,Nagaur,"Karni Colony, Nagaur - RSPCB",10-01-2024 20:00:00,27.213494,73.734444,PM2.5,63,259,150
India,Rajasthan,Pali,"Indira Colony Vistar, Pali - RSPCB",10-01-2024 20:00:00,25.771061, 73.340227,PM10,123,170,137
India,Rajasthan,Pali,"Indira Colony Vistar, Pali - RSPCB",10-01-2024 20:00:00,25.771061, 73.340227,NO2,18,70,40
India,Rajasthan,Pratapgarh,"Pragati Nagar, Pratapgarh - RSPCB",10-01-2024 20:00:00,24.041198,74.780702,CO,20,52,33
India,Rajasthan,Pratapgarh,"Pragati Nagar, Pratapgarh - RSPCB",10-01-2024 20:00:00,24.041198,74.780702,OZONE,24,84,65
India,Rajasthan,Rajsamand,"Dhoinda, Rajsamand - RSPCB",10-01-2024 20:00:00,25.036360,73.883502,NO2,12,39,19
India,Rajasthan,Rajsamand,"Dhoinda, Rajsamand - RSPCB",10-01-2024 20:00:00,25.036360,73.883502,OZONE,4,55,40
India,Rajasthan,Sawai Madhopur,"Sahu Nagar, Sawai Madhopur - RSPCB",10-01-2024 20:00:00,26.031443,76.359327,PM2.5,47,280,88
India,Rajasthan,Sawai Madhopur,"Sahu Nagar, Sawai Madhopur - RSPCB",10-01-2024 20:00:00,26.031443,76.359327,NO2,23,24,24
India,Rajasthan,Sawai Madhopur,"Sahu Nagar, Sawai Madhopur - RSPCB",10-01-2024 20:00:00,26.031443,76.359327,CO,33,120,56
India,Rajasthan,Sikar,"Radhakishan Pura, Sikar - RSPCB",10-01-2024 20:00:00,27.608912,75.153302,PM10,39,196,117
India,Rajasthan,Sikar,"Radhakishan Pura, Sikar - RSPCB",10-01-2024 20:00:00,27.608912,75.153302,NO2,12,35,23
India,Rajasthan,Sikar,"Radhakishan Pura, Sikar - RSPCB",10-01-2024 20:00:00,27.608912,75.153302,NH3,6,10,8
India,Rajasthan,Sikar,"Radhakishan Pura, Sikar - RSPCB",10-01-2024 20:00:00,27.608912,75.153302,OZONE,9,303,103
India,Sikkim,Gangtok,"Zero Point GICI, Gangtok - SSPCB",10-01-2024 20:00:00,27.338530,88.614099,NO2,1,19,6
India,Sikkim,Gangtok,"Zero Point GICI, Gangtok - SSPCB",10-01-2024 20:00:00,27.338530,88.614099,NH3,1,1,1
India,Sikkim,Gangtok,"Zero Point GICI, Gangtok - SSPCB",10-01-2024 20:00:00,27.338530,88.614099,SO2,50,56,53
India,TamilNadu,Ariyalur,"Keelapalur, Ariyalur - TNPCB",10-01-2024 20:00:00,11.06825,79.07033,NO2,19,50,28
India,TamilNadu,Chengalpattu,"Crescent University, Chengalpattu - TNPCB",10-01-2024 20:00:00,12.8777316,80.0834807,PM2.5,25,80,48
India,TamilNadu,Chengalpattu,"Crescent University, Chengalpattu - TNPCB",10-01-2024 20:00:00,12.8777316,80.0834807,PM10,21,66,40
India,TamilNadu,Chennai,"Alandur Bus Depot, Chennai - CPCB",10-01-2024 20:00:00,12.9099161,80.1076538,PM2.5,70,221,113
India,TamilNadu,Chennai,"Arumbakkam, Chennai - TNPCB",10-01-2024 20:00:00,13.0664,80.2112 ,NO2,10,42,19
India,TamilNadu,Chennai,"Arumbakkam, Chennai - TNPCB",10-01-2024 20:00:00,13.0664,80.2112 ,NH3,2,9,4
India,TamilNadu,Chennai,"Arumbakkam, Chennai - TNPCB",10-01-2024 20:00:00,13.0664,80.2112 ,SO2,1,8,4
India,TamilNadu,Chennai,"Gandhi Nagar_Ennore, Chennai - TNPCB",10-01-2024 20:00:00,13.218341,80.32027,PM2.5,60,87,70
India,TamilNadu,Chennai,"Manali, Chennai - CPCB",10-01-2024 20:00:00,13.164544,80.26285,NH3,4,6,5
India,TamilNadu,Chennai,"Royapuram, Chennai - TNPCB",10-01-2024 20:00:00,13.1036,80.2909,SO2,1,6,3
India,TamilNadu,Chennai,"Velachery Res. Area, Chennai - CPCB",10-01-2024 20:00:00,13.0052189,80.2398125,NO2,9,65,19
India,TamilNadu,Chennai,"Velachery Res. Area, Chennai - CPCB",10-01-2024 20:00:00,13.0052189,80.2398125,SO2,11,11,11
India,TamilNadu,Chennai,"Velachery Res. Area, Chennai - CPCB",10-01-2024 20:00:00,13.0052189,80.2398125,OZONE,20,41,36
India,TamilNadu,Coimbatore,"PSG College of Arts and Science, Coimbatore - TNPCB",10-01-2024 20:00:00,11.0328,77.0349,SO2,4,5,4
India,TamilNadu,Cuddalore,"Kudikadu, Cuddalore - TNPCB",10-01-2024 20:00:00,11.6829898,79.7532099,NH3,4,4,4
India,TamilNadu,Cuddalore,"Semmandalam, Cuddalore - TNPCB",10-01-2024 20:00:00,11.7637683,79.7499835,NH3,NA,NA,NA
India,TamilNadu,Gummidipoondi,"Anthoni Pillai Nagar, Gummidipoondi - TNPCB",10-01-2024 20:00:00,13.4127,80.1081,PM2.5,70,398,157
India,TamilNadu,Gummidipoondi,"Anthoni Pillai Nagar, Gummidipoondi - TNPCB",10-01-2024 20:00:00,13.4127,80.1081,NO2,8,14,11
India,TamilNadu,Gummidipoondi,"Anthoni Pillai Nagar, Gummidipoondi - TNPCB",10-01-2024 20:00:00,13.4127,80.1081,SO2,1,22,4
India,TamilNadu,Kanchipuram,"Kilambi, Kanchipuram - TNPCB",10-01-2024 20:00:00,12.864618,79.659968,PM10,54,88,69
India,TamilNadu,Kanchipuram,"Kilambi, Kanchipuram - TNPCB",10-01-2024 20:00:00,12.864618,79.659968,CO,NA,NA,NA
India,TamilNadu,Kanchipuram,"Kilambi, Kanchipuram - TNPCB",10-01-2024 20:00:00,12.864618,79.659968,OZONE,3,4,3
India,TamilNadu,Ramanathapuram,"Chalai Bazaar, Ramanathapuram - TNPCB",10-01-2024 20:00:00,9.36399,78.831977,SO2,3,8,6
India,TamilNadu,Ramanathapuram,"Chalai Bazaar, Ramanathapuram - TNPCB",10-01-2024 20:00:00,9.36399,78.831977,CO,3,36,14
India,TamilNadu,Salem,"Sona College of Technology, Salem - TNPCB",10-01-2024 20:00:00,11.679111,78.125052,PM2.5,45,216,82
India,TamilNadu,Thoothukudi,"Meelavittan, Thoothukudi - TNPCB",10-01-2024 20:00:00,8.816428 ,78.099039,NO2,8,53,16
India,TamilNadu,Vellore,"Vasanthapuram, Vellore - TNPCB",10-01-2024 20:00:00,12.909494,79.131861,NH3,1,1,1
India,TamilNadu,Vellore,"Vasanthapuram, Vellore - TNPCB",10-01-2024 20:00:00,12.909494,79.131861,OZONE,1,2,2
India,Telangana,Hyderabad,"Bollaram Industrial Area, Hyderabad - TSPCB",10-01-2024 20:00:00,17.540891,78.358528,CO,9,64,44
India,Telangana,Hyderabad,"Central University, Hyderabad - TSPCB",10-01-2024 20:00:00,17.460103,78.334361,SO2,3,11,6
India,Telangana,Hyderabad,"ECIL Kapra, Hyderabad - TSPCB",10-01-2024 20:00:00,17.470431,78.566959,PM2.5,65,73,69
India,Telangana,Hyderabad,"ICRISAT Patancheru, Hyderabad - TSPCB",10-01-2024 20:00:00,17.518400,78.278777,OZONE,8,154,111
India,Telangana,Hyderabad,"IITH Kandi, Hyderabad - TSPCB",10-01-2024 20:00:00,17.585705,78.126199,NO2,9,12,11
India,Telangana,Hyderabad,"Nacharam_TSIIC IALA, Hyderabad - TSPCB",10-01-2024 20:00:00,17.429398,78.569354,PM10,43,222,114
India,Telangana,Hyderabad,"Nacharam_TSIIC IALA, Hyderabad - TSPCB",10-01-2024 20:00:00,17.429398,78.569354,CO,18,23,19
India,Telangana,Hyderabad,"New Malakpet, Hyderabad - TSPCB",10-01-2024 20:00:00,17.37206,78.50864,PM10,52,67,58
India,Telangana,Hyderabad,"New Malakpet, Hyderabad - TSPCB",10-01-2024 20:00:00,17.37206,78.50864,OZONE,4,28,24
India,Telangana,Hyderabad,"Ramachandrapuram, Hyderabad - TSPCB",10-01-2024 20:00:00,17.528544,78.286195,SO2,8,13,9
India,Telangana,Hyderabad,"Sanathnagar, Hyderabad - TSPCB",10-01-2024 20:00:00,17.4559458,78.4332152,NO2,12,329,61
India,Telangana,Hyderabad,"Somajiguda, Hyderabad - TSPCB",10-01-2024 20:00:00,17.417094,78.457437,CO,12,40,23
India,Telangana,Hyderabad,"Zoo Park, Hyderabad - TSPCB",10-01-2024 20:00:00,17.349694,78.451437,NO2,36,56,46
India,Telangana,Hyderabad,"Zoo Park, Hyderabad - TSPCB",10-01-2024 20:00:00,17.349694,78.451437,NH3,1,1,1
India,Tripura,Agartala,"Bardowali, Agartala - Tripura SPCB",10-01-2024 20:00:00,23.8175497,91.2726974,NH3,2,2,2
India,Uttar_Pradesh,Agra,"Manoharpur, Agra - UPPCB",10-01-2024 20:00:00,27.23711,78.01936,PM2.5,34,70,51
India,Uttar_Pradesh,Agra,"Manoharpur, Agra - UPPCB",10-01-2024 20:00:00,27.23711,78.01936,PM10,48,100,72
India,Uttar_Pradesh,Agra,"Manoharpur, Agra - UPPCB",10-01-2024 20:00:00,27.23711,78.01936,NH3,1,1,1
India,Uttar_Pradesh,Agra,"Rohta, Agra - UPPCB",10-01-2024 20:00:00,27.106972,78.000111,NH3,2,2,2
India,Uttar_Pradesh,Agra,"Sanjay Palace, Agra - UPPCB",10-01-2024 20:00:00,27.19865833,78.00598056,OZONE,15,66,49
India,Uttar_Pradesh,Agra,"Sector-3B Avas Vikas Colony, Agra - UPPCB",10-01-2024 20:00:00,27.19412,77.96237,PM2.5,35,185,57
India,Uttar_Pradesh,Agra,"Shahjahan Garden, Agra - UPPCB",10-01-2024 20:00:00,27.169338,78.03582,NO2,NA,NA,NA
India,Uttar_Pradesh,Agra,"Shahjahan Garden, Agra - UPPCB",10-01-2024 20:00:00,27.169338,78.03582,SO2,NA,NA,NA
India,Uttar_Pradesh,Agra,"Shahjahan Garden, Agra - UPPCB",10-01-2024 20:00:00,27.169338,78.03582,OZONE,4,11,8
India,Uttar_Pradesh,Agra,"Shastripuram, Agra - UPPCB",10-01-2024 20:00:00,27.19862,77.92066,NO2,17,28,24
India,Uttar_Pradesh,Agra,"Shastripuram, Agra - UPPCB",10-01-2024 20:00:00,27.19862,77.92066,CO,1,8,5
India,Uttar_Pradesh,Baghpat,"Sardar Patel Inter College, Baghpat - UPPCB",10-01-2024 20:00:00,28.964949,77.278761,PM10,68,195,108
India,Uttar_Pradesh,Baghpat,"Sardar Patel Inter College, Baghpat - UPPCB",10-01-2024 20:00:00,28.964949,77.278761,OZONE,2,22,13
India,Uttar_Pradesh,Bareilly,"Civil Lines, Bareilly - UPPCB",10-01-2024 20:00:00,28.359581,79.414455,CO,7,48,12
India,Uttar_Pradesh,Bareilly,"Rajendra Nagar, Bareilly - UPPCB",10-01-2024 20:00:00,28.38910936,79.42963708,CO,25,63,30
India,Uttar_Pradesh,Bareilly,"Rajendra Nagar, Bareilly - UPPCB",10-01-2024 20:00:00,28.38910936,79.42963708,OZONE,9,19,13
India,Uttar_Pradesh,Bulandshahr,"Yamunapuram, Bulandshahr - UPPCB",10-01-2024 20:00:00,28.406963,77.849831,PM2.5,115,324,223
India,Uttar_Pradesh,Bulandshahr,"Yamunapuram, Bulandshahr - UPPCB",10-01-2024 20:00:00,28.406963,77.849831,CO,2,98,75
India,Uttar_Pradesh,Firozabad,"Nagla Bhau, Firozabad - UPPCB",10-01-2024 20:00:00,27.168897,78.376960,CO,6,31,15
India,Uttar_Pradesh,Firozabad,"Nagla Bhau, Firozabad - UPPCB",10-01-2024 20:00:00,27.168897,78.376960,OZONE,5,42,30
India,Uttar_Pradesh,Firozabad,"Vibhab Nagar, Firozabad - UPPCB",10-01-2024 20:00:00,27.1594,78.3953,NH3,2,2,2
India,Uttar_Pradesh,Firozabad,"Vibhab Nagar, Firozabad - UPPCB",10-01-2024 20:00:00,27.1594,78.3953,OZONE,28,89,35
India,Uttar_Pradesh,Ghaziabad,"Indirapuram, Ghaziabad - UPPCB",10-01-2024 20:00:00,28.646233,77.358075,NH3,8,15,11
India,Uttar_Pradesh,Ghaziabad,"Indirapuram, Ghaziabad - UPPCB",10-01-2024 20:00:00,28.646233,77.358075,CO,8,32,18
India,Uttar_Pradesh,Ghaziabad,"Loni, Ghaziabad - UPPCB",10-01-2024 20:00:00,28.757294,77.278792,NH3,1,4,2
India,Uttar_Pradesh,Ghaziabad,"Sanjay Nagar, Ghaziabad - UPPCB",10-01-2024 20:00:00,28.685382,77.453839,NO2,10,83,38
India,Uttar_Pradesh,Greater Noida,"Knowledge Park - III, Greater Noida - UPPCB",10-01-2024 20:00:00,28.47272,77.482000,PM2.5,142,326,220
India,Uttar_Pradesh,Greater Noida,"Knowledge Park - III, Greater Noida - UPPCB",10-01-2024 20:00:00,28.47272,77.482000,CO,52,100,90
India,Uttar_Pradesh,Jhansi,"Shivaji Nagar, Jhansi - UPPCB",10-01-2024 20:00:00,25.4547,78.6039,PM2.5,40,343,96
India,Uttar_Pradesh,Kanpur,"FTI Kidwai Nagar, Kanpur - UPPCB",10-01-2024 20:00:00,26.428282,80.327067,NO2,11,70,14
India,Uttar_Pradesh,Kanpur,"FTI Kidwai Nagar, Kanpur - UPPCB",10-01-2024 20:00:00,26.428282,80.327067,OZONE,3,6,5
India,Uttar_Pradesh,Kanpur,"NSI Kalyanpur, Kanpur - UPPCB",10-01-2024 20:00:00,26.509954,80.249612,NO2,10,16,13
India,Uttar_Pradesh,Kanpur,"Nehru Nagar, Kanpur - UPPCB",10-01-2024 20:00:00,26.4703136,80.3229863,NO2,15,431,68
India,Uttar_Pradesh,Kanpur,"Nehru Nagar, Kanpur - UPPCB",10-01-2024 20:00:00,26.4703136,80.3229863,OZONE,9,94,61
India,Uttar_Pradesh,Khurja,"Kalindi Kunj, Khurja - UPPCB",10-01-2024 20:00:00,28.2348927,77.8683002,NH3,1,2,2
India,Uttar_Pradesh,Lucknow,"B R Ambedkar University, Lucknow - UPPCB",10-01-2024 20:00:00,26.766433,80.927299,NO2,11,12,12
India,Uttar_Pradesh,Lucknow,"B R Ambedkar University, Lucknow - UPPCB",10-01-2024 20:00:00,26.766433,80.927299,OZONE,3,37,22
India,Uttar_Pradesh,Lucknow,"Kendriya Vidyalaya, Lucknow - CPCB",10-01-2024 20:00:00,26.906111,80.948222,PM10,105,163,131
India,Uttar_Pradesh,Lucknow,"Kendriya Vidyalaya, Lucknow - CPCB",10-01-2024 20:00:00,26.906111,80.948222,CO,35,101,46
India,Uttar_Pradesh,Lucknow,"Lalbagh, Lucknow - CPCB",10-01-2024 20:00:00,26.8458805,80.9365541,PM2.5,144,369,238
India,Uttar_Pradesh,Lucknow,"Lalbagh, Lucknow - CPCB",10-01-2024 20:00:00,26.8458805,80.9365541,CO,40,114,85
India,Uttar_Pradesh,Meerut,"Ganga Nagar, Meerut - UPPCB",10-01-2024 20:00:00,28.999264,77.7590354,PM2.5,124,353,223
India,Uttar_Pradesh,Meerut,"Ganga Nagar, Meerut - UPPCB",10-01-2024 20:00:00,28.999264,77.7590354,SO2,9,22,18
India,Uttar_Pradesh,Meerut,"Ganga Nagar, Meerut - UPPCB",10-01-2024 20:00:00,28.999264,77.7590354,OZONE,2,6,3
India,Uttar_Pradesh,Meerut,"Jai Bhim Nagar, Meerut - UPPCB",10-01-2024 20:00:00,28.9535882,77.7622941,PM2.5,82,302,148
India,Uttar_Pradesh,Meerut,"Jai Bhim Nagar, Meerut - UPPCB",10-01-2024 20:00:00,28.9535882,77.7622941,OZONE,8,40,31
India,Uttar_Pradesh,Meerut,"Pallavpuram Phase 2, Meerut - UPPCB",10-01-2024 20:00:00,29.063510,77.709723,PM2.5,85,349,185
India,Uttar_Pradesh,Meerut,"Pallavpuram Phase 2, Meerut - UPPCB",10-01-2024 20:00:00,29.063510,77.709723,OZONE,13,19,15
India,Uttar_Pradesh,Moradabad,"Eco Herbal Park, Moradabad - UPPCB",10-01-2024 20:00:00,28.840739,78.697531,PM10,72,137,101
India,Uttar_Pradesh,Moradabad,"Eco Herbal Park, Moradabad - UPPCB",10-01-2024 20:00:00,28.840739,78.697531,NH3,7,81,14
India,Uttar_Pradesh,Moradabad,"Jigar Colony, Moradabad - UPPCB",10-01-2024 20:00:00,28.856664,78.772638,NH3,5,6,5
India,Uttar_Pradesh,Moradabad,"Kashiram Nagar, Moradabad - UPPCB",10-01-2024 20:00:00,28.849399,78.742362,PM2.5,53,107,72
India,Uttar_Pradesh,Moradabad,"Kashiram Nagar, Moradabad - UPPCB",10-01-2024 20:00:00,28.849399,78.742362,PM10,71,136,98
India,Uttar_Pradesh,Moradabad,"Kashiram Nagar, Moradabad - UPPCB",10-01-2024 20:00:00,28.849399,78.742362,OZONE,11,34,19
India,Uttar_Pradesh,Moradabad,"Transport Nagar, Moradabad - UPPCB",10-01-2024 20:00:00,28.802625,78.753728,PM2.5,59,234,90
India,Uttar_Pradesh,Moradabad,"Transport Nagar, Moradabad - UPPCB",10-01-2024 20:00:00,28.802625,78.753728,PM10,56,129,81
India,Uttar_Pradesh,Moradabad,"Transport Nagar, Moradabad - UPPCB",10-01-2024 20:00:00,28.802625,78.753728,SO2,37,43,40
India,Uttar_Pradesh,Muzaffarnagar,"New Mandi, Muzaffarnagar - UPPCB",10-01-2024 20:00:00,29.4723508,77.7194031,NH3,7,10,8
India,Uttar_Pradesh,Noida,"Sector - 125, Noida - UPPCB",10-01-2024 20:00:00,28.5447608,77.3231257,NH3,6,13,12
India,Uttar_Pradesh,Noida,"Sector - 62, Noida - IMD",10-01-2024 20:00:00,28.6245479,77.3577104,NO2,23,58,34
India,Uttar_Pradesh,Noida,"Sector - 62, Noida - IMD",10-01-2024 20:00:00,28.6245479,77.3577104,OZONE,30,44,37
India,Uttar_Pradesh,Noida,"Sector-1, Noida - UPPCB",10-01-2024 20:00:00,28.5898,77.3101,NH3,9,14,11
India,Uttar_Pradesh,Prayagraj,"Jhunsi, Prayagraj - UPPCB",10-01-2024 20:00:00,25.425602,81.917152,SO2,30,32,31
India,Uttar_Pradesh,Prayagraj,"Motilal Nehru NIT, Prayagraj - UPPCB",10-01-2024 20:00:00,25.494,81.863,NH3,6,7,7
India,Uttar_Pradesh,Prayagraj,"Nagar Nigam, Prayagraj - UPPCB",10-01-2024 20:00:00,25.44919916 ,81.82735986 ,PM2.5,70,157,89
India,Uttar_Pradesh,Varanasi,"Ardhali Bazar, Varanasi - UPPCB",10-01-2024 20:00:00,25.3505986,82.9083074,OZONE,16,22,18
India,Uttar_Pradesh,Varanasi,"Bhelupur, Varanasi - UPPCB",10-01-2024 20:00:00,25.301778,82.996789,NO2,19,50,27
India,Uttar_Pradesh,Varanasi,"Bhelupur, Varanasi - UPPCB",10-01-2024 20:00:00,25.301778,82.996789,SO2,19,20,19
India,Uttar_Pradesh,Varanasi,"IESD Banaras Hindu University, Varanasi - UPPCB",10-01-2024 20:00:00,25.262326,82.995408,PM2.5,11,30,20
India,Uttar_Pradesh,Varanasi,"IESD Banaras Hindu University, Varanasi - UPPCB",10-01-2024 20:00:00,25.262326,82.995408,NO2,2,3,2
India,Uttar_Pradesh,Varanasi,"IESD Banaras Hindu University, Varanasi - UPPCB",10-01-2024 20:00:00,25.262326,82.995408,NH3,1,2,2
India,Uttar_Pradesh,Varanasi,"IESD Banaras Hindu University, Varanasi - UPPCB",10-01-2024 20:00:00,25.262326,82.995408,OZONE,1,2,1
India,Uttar_Pradesh,Varanasi,"Maldahiya, Varanasi - UPPCB",10-01-2024 20:00:00,25.32393,82.99687,PM10,28,85,47
India,Uttar_Pradesh,Varanasi,"Maldahiya, Varanasi - UPPCB",10-01-2024 20:00:00,25.32393,82.99687,CO,18,82,23
India,Uttar_Pradesh,Vrindavan,"Omex Eternity, Vrindavan - UPPCB",10-01-2024 20:00:00,27.5714090,77.6557570,PM2.5,28,77,45
India,Uttar_Pradesh,Vrindavan,"Omex Eternity, Vrindavan - UPPCB",10-01-2024 20:00:00,27.5714090,77.6557570,OZONE,24,26,25
India,Uttarakhand,Dehradun,"Doon University, Dehradun - UKPCB",10-01-2024 20:00:00,30.269444,78.044167,PM2.5,NA,NA,NA
India,Uttarakhand,Dehradun,"Doon University, Dehradun - UKPCB",10-01-2024 20:00:00,30.269444,78.044167,OZONE,1,11,7
India,Uttarakhand,Kashipur,"Govt. Girls Inter College, Kashipur - UKPCB",10-01-2024 20:00:00,29.2124114,78.9611753,CO,24,83,51
India,West_Bengal,Asansol,"Asansol Court Area, Asansol - WBPCB",10-01-2024 20:00:00,23.685297,86.945968,OZONE,7,84,53
India,West_Bengal,Barrackpore,"SVSPA Campus, Barrackpore - WBPCB",10-01-2024 20:00:00,22.7605581,88.3617589,PM10,NA,NA,NA
India,West_Bengal,Haldia,"Priyambada Housing Estate, Haldia - WBPCB",10-01-2024 20:00:00,22.06047,88.109737,PM2.5,54,219,138
India,West_Bengal,Howrah,"Belur Math, Howrah - WBPCB",10-01-2024 20:00:00,22.629801,88.352017,NO2,10,25,17
India,West_Bengal,Howrah,"Belur Math, Howrah - WBPCB",10-01-2024 20:00:00,22.629801,88.352017,CO,2,97,25
India,West_Bengal,Howrah,"Ghusuri, Howrah - WBPCB",10-01-2024 20:00:00,22.611968,88.347422,PM10,131,500,275
India,West_Bengal,Howrah,"Ghusuri, Howrah - WBPCB",10-01-2024 20:00:00,22.611968,88.347422,NO2,25,101,44
India,West_Bengal,Howrah,"Ghusuri, Howrah - WBPCB",10-01-2024 20:00:00,22.611968,88.347422,CO,20,136,37
India,West_Bengal,Kolkata,"Bidhannagar, Kolkata - WBPCB",10-01-2024 20:00:00,22.58157048,88.41002457,SO2,2,21,9
India,West_Bengal,Kolkata,"Fort William, Kolkata - WBPCB",10-01-2024 20:00:00,22.556640,88.342674,NH3,NA,NA,NA
India,West_Bengal,Kolkata,"Jadavpur, Kolkata - WBPCB",10-01-2024 20:00:00,22.49929,88.36917,NH3,NA,NA,NA
India,West_Bengal,Kolkata,"Rabindra Sarobar, Kolkata - WBPCB",10-01-2024 20:00:00,22.51106,88.35142,SO2,11,54,25
India,West_Bengal,Kolkata,"Victoria, Kolkata - WBPCB",10-01-2024 20:00:00,22.5448082,88.3403691,CO,8,119,21
India,West_Bengal,Siliguri,"Ward-32 Bapupara, Siliguri - WBPCB",10-01-2024 20:00:00,26.6879226,88.4152495,CO,30,65,46
India,Andhra_Pradesh,Amaravati,"Secretariat, Amaravati - APPCB",10-01-2024 20:00:00,16.5150833,80.5181667,PM10,101,154,128
India,Andhra_Pradesh,Amaravati,"Secretariat, Amaravati - APPCB",10-01-2024 20:00:00,16.5150833,80.5181667,SO2,16,32,22
India,Andhra_Pradesh,Amaravati,"Secretariat, Amaravati - APPCB",10-01-2024 20:00:00,16.5150833,80.5181667,CO,10,52,41
India,Andhra_Pradesh,Anantapur,"Gulzarpet, Anantapur - APPCB",10-01-2024 20:00:00,14.675886,77.593027,PM2.5,44,68,56
India,Andhra_Pradesh,Anantapur,"Gulzarpet, Anantapur - APPCB",10-01-2024 20:00:00,14.675886,77.593027,NH3,2,3,3
India,Andhra_Pradesh,Anantapur,"Gulzarpet, Anantapur - APPCB",10-01-2024 20:00:00,14.675886,77.593027,SO2,4,10,6
India,Andhra_Pradesh,Chittoor,"Gangineni Cheruvu, Chittoor - APPCB",10-01-2024 20:00:00,13.204880,79.097889,NH3,1,3,1
India,Andhra_Pradesh,Rajamahendravaram,"Anand Kala Kshetram, Rajamahendravaram - APPCB",10-01-2024 20:00:00,16.9872867,81.7363176,PM10,138,182,154
India,Andhra_Pradesh,Rajamahendravaram,"Anand Kala Kshetram, Rajamahendravaram - APPCB",10-01-2024 20:00:00,16.9872867,81.7363176,NO2,11,65,32
India,Andhra_Pradesh,Tirupati,"Tirumala, Tirupati - APPCB",10-01-2024 20:00:00,13.67,79.35,PM10,60,80,69
India,Andhra_Pradesh,Tirupati,"Vaikuntapuram, Tirupati - APPCB",10-01-2024 20:00:00,13.615387,79.409230,PM2.5,23,229,51
India,Andhra_Pradesh,Vijayawada,"HB Colony, Vijayawada - APPCB",10-01-2024 20:00:00,16.536107,80.594233,PM2.5,49,121,65
India,Andhra_Pradesh,Vijayawada,"HB Colony, Vijayawada - APPCB",10-01-2024 20:00:00,16.536107,80.594233,SO2,4,31,12
India,Andhra_Pradesh,Vijayawada,"HB Colony, Vijayawada - APPCB",10-01-2024 20:00:00,16.536107,80.594233,CO,21,28,26
India,Andhra_Pradesh,Vijayawada,"Kanuru, Vijayawada - APPCB",10-01-2024 20:00:00,16.486692,80.699436,PM10,70,137,111
India,Andhra_Pradesh,Vijayawada,"Kanuru, Vijayawada - APPCB",10-01-2024 20:00:00,16.486692,80.699436,NO2,14,24,17
India,Arunachal_Pradesh,Naharlagun,"Naharlagun, Naharlagun - APSPCB",10-01-2024 20:00:00,27.103358,93.679645,NO2,2,2,2
India,Assam,Byrnihat,"Central Academy for SFS, Byrnihat - PCBA",10-01-2024 20:00:00,26.071318,91.87488,PM2.5,NA,NA,NA
India,Assam,Byrnihat,"Central Academy for SFS, Byrnihat - PCBA",10-01-2024 20:00:00,26.071318,91.87488,PM10,NA,NA,NA
India,Assam,Guwahati,"LGBI Airport, Guwahati - PCBA",10-01-2024 20:00:00,26.10887,91.589544,NO2,13,65,29
India,Assam,Guwahati,"LGBI Airport, Guwahati - PCBA",10-01-2024 20:00:00,26.10887,91.589544,OZONE,2,90,58
India,Assam,Guwahati,"Pan Bazaar, Guwahati - PCBA",10-01-2024 20:00:00,26.187500,91.744194,PM10,128,329,186
India,Assam,Guwahati,"Pan Bazaar, Guwahati - PCBA",10-01-2024 20:00:00,26.187500,91.744194,CO,51,106,62
India,Assam,Guwahati,"Railway Colony, Guwahati - PCBA",10-01-2024 20:00:00,26.181742,91.78063,NO2,3,3,3
India,Assam,Nagaon,"Christianpatty, Nagaon - PCBA",10-01-2024 20:00:00,26.349082,92.68449,CO,1,8,6
India,Assam,Nagaon,"Christianpatty, Nagaon - PCBA",10-01-2024 20:00:00,26.349082,92.68449,OZONE,5,43,22
India,Assam,Silchar,"Tarapur, Silchar - PCBA",10-01-2024 20:00:00,24.82827,92.79525,NO2,25,34,29
India,Assam,Silchar,"Tarapur, Silchar - PCBA",10-01-2024 20:00:00,24.82827,92.79525,CO,24,38,27
India,Assam,Sivasagar,"Girls College, Sivasagar - PCBA",10-01-2024 20:00:00,26.987634,94.636574,PM10,30,98,60
India,Assam,Sivasagar,"Girls College, Sivasagar - PCBA",10-01-2024 20:00:00,26.987634,94.636574,SO2,3,5,5
India,Assam,Sivasagar,"Girls College, Sivasagar - PCBA",10-01-2024 20:00:00,26.987634,94.636574,OZONE,1,7,2
India,Bihar,Araria,"Kharahiya Basti, Araria - BSPCB",10-01-2024 20:00:00,26.146529,87.454184,PM10,147,445,278
India,Bihar,Araria,"Kharahiya Basti, Araria - BSPCB",10-01-2024 20:00:00,26.146529,87.454184,SO2,12,17,15
India,Bihar,Arrah,"New DM Office, Arrah - BSPCB",10-01-2024 20:00:00,25.5626095,84.663264,PM2.5,137,380,284
India,Bihar,Arrah,"New DM Office, Arrah - BSPCB",10-01-2024 20:00:00,25.5626095,84.663264,NO2,21,102,39
India,Bihar,Arrah,"New DM Office, Arrah - BSPCB",10-01-2024 20:00:00,25.5626095,84.663264,NH3,6,12,7
India,Bihar,Arrah,"New DM Office, Arrah - BSPCB",10-01-2024 20:00:00,25.5626095,84.663264,CO,4,56,9
India,Bihar,Arrah,"New DM Office, Arrah - BSPCB",10-01-2024 20:00:00,25.5626095,84.663264,OZONE,13,34,15
India,Bihar,Aurangabad,"Gurdeo Nagar, Aurangabad - BSPCB",10-01-2024 20:00:00,24.75746,84.366208,NH3,5,33,13
India,Bihar,Bettiah,"Kamalnath Nagar, Bettiah - BSPCB",10-01-2024 20:00:00,26.80365,84.51954,OZONE,6,40,31
India,Bihar,Bihar Sharif,"D M Colony, Bihar Sharif - BSPCB",10-01-2024 20:00:00,25.204762,85.514960,PM2.5,42,93,62
India,Bihar,Bihar Sharif,"D M Colony, Bihar Sharif - BSPCB",10-01-2024 20:00:00,25.204762,85.514960,SO2,1,13,7
India,Bihar,Bihar Sharif,"D M Colony, Bihar Sharif - BSPCB",10-01-2024 20:00:00,25.204762,85.514960,CO,3,56,31
India,Bihar,Chhapra,"Darshan Nagar, Chhapra - BSPCB",10-01-2024 20:00:00,25.7808257,84.7446768,NO2,10,19,14
India,Bihar,Gaya,"Collectorate, Gaya - BSPCB",10-01-2024 20:00:00,24.7955,84.9994,SO2,15,39,23
India,Bihar,Gaya,"Kareemganj, Gaya - BSPCB",10-01-2024 20:00:00,24.792403,84.992416,NO2,30,31,30
India,Bihar,Gaya,"Kareemganj, Gaya - BSPCB",10-01-2024 20:00:00,24.792403,84.992416,SO2,9,12,11
India,Bihar,Gaya,"SFTI Kusdihra, Gaya - BSPCB",10-01-2024 20:00:00,24.762518,84.982348,NO2,22,44,33
India,Bihar,Gaya,"SFTI Kusdihra, Gaya - BSPCB",10-01-2024 20:00:00,24.762518,84.982348,NH3,4,5,5
India,Bihar,Hajipur,"Industrial Area, Hajipur - BSPCB",10-01-2024 20:00:00,25.697189,85.245900,SO2,6,9,7
India,Bihar,Katihar,"Mirchaibari, Katihar - BSPCB",10-01-2024 20:00:00,25.560083,87.553265,PM10,115,371,205
India,Bihar,Katihar,"Mirchaibari, Katihar - BSPCB",10-01-2024 20:00:00,25.560083,87.553265,SO2,21,27,24
India,Bihar,Katihar,"Mirchaibari, Katihar - BSPCB",10-01-2024 20:00:00,25.560083,87.553265,CO,31,36,32
India,Bihar,Katihar,"Mirchaibari, Katihar - BSPCB",10-01-2024 20:00:00,25.560083,87.553265,OZONE,23,29,26
India,Bihar,Kishanganj,"SDM Office_Khagra, Kishanganj - BSPCB",10-01-2024 20:00:00,26.0881305,87.93840336,PM2.5,12,233,65
India,Bihar,Kishanganj,"SDM Office_Khagra, Kishanganj - BSPCB",10-01-2024 20:00:00,26.0881305,87.93840336,SO2,8,21,15
India,Bihar,Manguraha,"Forest Rest House, Manguraha - BSPCB",10-01-2024 20:00:00,27.308328,84.531742,CO,5,38,22
India,Bihar,Manguraha,"Forest Rest House, Manguraha - BSPCB",10-01-2024 20:00:00,27.308328,84.531742,OZONE,15,40,24
India,Bihar,Motihari,"Gandak Colony, Motihari - BSPCB",10-01-2024 20:00:00,26.63086,84.90051,PM10,67,198,119
India,Bihar,Motihari,"Gandak Colony, Motihari - BSPCB",10-01-2024 20:00:00,26.63086,84.90051,OZONE,23,66,47
India,Bihar,Munger,"Town Hall, Munger - BSPCB",10-01-2024 20:00:00,25.376776,86.471523,NH3,1,2,2
India,Bihar,Muzaffarpur,"Buddha Colony, Muzaffarpur - BSPCB",10-01-2024 20:00:00,26.11442,85.39813,CO,26,82,48
India,Bihar,Muzaffarpur,"MIT-Daudpur Kothi, Muzaffarpur - BSPCB",10-01-2024 20:00:00,26.1403345,85.3650192,PM10,113,277,171
India,Bihar,Muzaffarpur,"MIT-Daudpur Kothi, Muzaffarpur - BSPCB",10-01-2024 20:00:00,26.1403345,85.3650192,NO2,5,11,7
India,Bihar,Muzaffarpur,"Muzaffarpur Collectorate, Muzaffarpur - BSPCB",10-01-2024 20:00:00,26.1209,85.3647,PM2.5,143,432,257
India,Bihar,Muzaffarpur,"Muzaffarpur Collectorate, Muzaffarpur - BSPCB",10-01-2024 20:00:00,26.1209,85.3647,SO2,5,13,11
India,Bihar,Muzaffarpur,"Muzaffarpur Collectorate, Muzaffarpur - BSPCB",10-01-2024 20:00:00,26.1209,85.3647,OZONE,30,107,59
India,Bihar,Patna,"DRM Office Danapur, Patna - BSPCB",10-01-2024 20:00:00,25.586562,85.043586,PM2.5,NA,NA,NA
India,Bihar,Patna,"DRM Office Danapur, Patna - BSPCB",10-01-2024 20:00:00,25.586562,85.043586,OZONE,1,55,37
India,Bihar,Patna,"IGSC Planetarium Complex, Patna - BSPCB",10-01-2024 20:00:00,25.610369,85.132568,PM2.5,87,350,169
India,Bihar,Patna,"IGSC Planetarium Complex, Patna - BSPCB",10-01-2024 20:00:00,25.610369,85.132568,CO,56,74,63
India,Bihar,Patna,"Muradpur, Patna - BSPCB",10-01-2024 20:00:00,25.619651,85.147382,NH3,2,10,4
India,Bihar,Patna,"Muradpur, Patna - BSPCB",10-01-2024 20:00:00,25.619651,85.147382,OZONE,11,77,53
India,Bihar,Patna,"Samanpura, Patna - BSPCB",10-01-2024 20:00:00,25.596727,85.085624,NH3,2,3,3
India,Bihar,Rajgir,"Dangi Tola, Rajgir - BSPCB",10-01-2024 20:00:00,25.03280,85.41948,NH3,1,8,2
India,Bihar,Samastipur,"DM Office_Kasipur, Samastipur - BSPCB",10-01-2024 20:00:00,25.859655,85.77944,NH3,4,4,4
India,Bihar,Samastipur,"DM Office_Kasipur, Samastipur - BSPCB",10-01-2024 20:00:00,25.859655,85.77944,CO,14,39,25
India,Bihar,Sasaram,"Dada Peer, Sasaram - BSPCB",10-01-2024 20:00:00,24.952822,84.002396,PM10,48,203,113
India,Bihar,Sasaram,"Dada Peer, Sasaram - BSPCB",10-01-2024 20:00:00,24.952822,84.002396,CO,36,56,43
India,Bihar,Siwan,"Chitragupta Nagar, Siwan - BSPCB",10-01-2024 20:00:00,26.2271665,84.3570427,NO2,24,91,38
India,Bihar,Siwan,"Chitragupta Nagar, Siwan - BSPCB",10-01-2024 20:00:00,26.2271665,84.3570427,NH3,2,13,4
India,Bihar,Siwan,"Chitragupta Nagar, Siwan - BSPCB",10-01-2024 20:00:00,26.2271665,84.3570427,CO,82,181,120
India,Bihar,Siwan,"Chitragupta Nagar, Siwan - BSPCB",10-01-2024 20:00:00,26.2271665,84.3570427,OZONE,1,79,53
India,Chandigarh,Chandigarh,"Sector 22, Chandigarh - CPCC",10-01-2024 20:00:00,30.735567,76.775714,PM10,122,284,176
India,Chandigarh,Chandigarh,"Sector-25, Chandigarh - CPCC",10-01-2024 20:00:00,30.751462,76.762879,PM10,132,197,160
India,Chandigarh,Chandigarh,"Sector-25, Chandigarh - CPCC",10-01-2024 20:00:00,30.751462,76.762879,NO2,15,30,19
India,Chandigarh,Chandigarh,"Sector-25, Chandigarh - CPCC",10-01-2024 20:00:00,30.751462,76.762879,SO2,8,16,10
India,Chandigarh,Chandigarh,"Sector-53, Chandigarh - CPCC",10-01-2024 20:00:00,30.719859,76.738637,NO2,10,14,12
India,Chhattisgarh,Bhilai,"32Bungalows, Bhilai - CECB",10-01-2024 20:00:00,21.194815,81.314770,PM2.5,89,285,205
India,Chhattisgarh,Bhilai,"32Bungalows, Bhilai - CECB",10-01-2024 20:00:00,21.194815,81.314770,PM10,98,195,157
India,Chhattisgarh,Bhilai,"Civic Center, Bhilai - Bhilai Steel Plant",10-01-2024 20:00:00,21.185571,81.343175,NH3,2,2,2
India,Chhattisgarh,Bhilai,"Civic Center, Bhilai - Bhilai Steel Plant",10-01-2024 20:00:00,21.185571,81.343175,SO2,2,30,12
India,Chhattisgarh,Bhilai,"Hathkhoj, Bhilai - CECB",10-01-2024 20:00:00,21.224231,81.408350,PM2.5,66,321,238
India,Chhattisgarh,Bhilai,"Hathkhoj, Bhilai - CECB",10-01-2024 20:00:00,21.224231,81.408350,NO2,39,100,72
India,Chhattisgarh,Bhilai,"Hathkhoj, Bhilai - CECB",10-01-2024 20:00:00,21.224231,81.408350,NH3,7,8,8
India,Chhattisgarh,Bhilai,"Hathkhoj, Bhilai - CECB",10-01-2024 20:00:00,21.224231,81.408350,SO2,11,76,30
India,Chhattisgarh,Bilaspur,"Mangala, Bilaspur - NTPC",10-01-2024 20:00:00,22.08815,82.13737,PM2.5,39,155,96
India,Chhattisgarh,Chhal,"Nawapara SECL Colony, Chhal - CECB",10-01-2024 20:00:00,22.118125,83.140608,OZONE,6,87,53
India,Chhattisgarh,Korba,"Rampur, Korba - CECB",10-01-2024 20:00:00,22.368195,82.746431,SO2,7,78,14
India,Chhattisgarh,Kunjemura,"OP Jindal School, Kunjemura - CECB",10-01-2024 20:00:00,22.126650,83.483212,NO2,31,108,61
India,Chhattisgarh,Milupara,"Govt. Higher Secondary School, Milupara - CECB",10-01-2024 20:00:00,22.1910172,83.5197009,NO2,16,74,29
India,Chhattisgarh,Raipur,"AIIMS, Raipur - CECB",10-01-2024 20:00:00,21.258815,81.578979,CO,34,80,42
India,Chhattisgarh,Raipur,"Bhatagaon New ISBT, Raipur - CECB",10-01-2024 20:00:00,21.219665,81.630094,NH3,1,5,3
India,Chhattisgarh,Raipur,"Bhatagaon New ISBT, Raipur - CECB",10-01-2024 20:00:00,21.219665,81.630094,CO,42,127,57
India,Chhattisgarh,Raipur,"Bhatagaon New ISBT, Raipur - CECB",10-01-2024 20:00:00,21.219665,81.630094,OZONE,3,10,5
India,Delhi,Delhi,"Alipur, Delhi - DPCC",10-01-2024 20:00:00,28.815329,77.153010,NO2,16,42,21
India,Delhi,Delhi,"Anand Vihar, Delhi - DPCC",10-01-2024 20:00:00,28.647622,77.3158090,NO2,32,116,66
India,Delhi,Delhi,"Anand Vihar, Delhi - DPCC",10-01-2024 20:00:00,28.647622,77.3158090,CO,116,142,133
India,Delhi,Delhi,"Anand Vihar, Delhi - DPCC",10-01-2024 20:00:00,28.647622,77.3158090,OZONE,15,20,18
India,Delhi,Delhi,"Ashok Vihar, Delhi - DPCC",10-01-2024 20:00:00,28.695381,77.181665,NO2,28,82,41
India,Delhi,Delhi,"Ashok Vihar, Delhi - DPCC",10-01-2024 20:00:00,28.695381,77.181665,NH3,9,13,11
India,Delhi,Delhi,"Ashok Vihar, Delhi - DPCC",10-01-2024 20:00:00,28.695381,77.181665,OZONE,5,7,6
India,Delhi,Delhi,"Aya Nagar, Delhi - IMD",10-01-2024 20:00:00,28.4706914,77.1099364,PM2.5,74,338,212
India,Delhi,Delhi,"Bawana, Delhi - DPCC",10-01-2024 20:00:00,28.776200,77.051074,PM10,141,348,201
India,Delhi,Delhi,"CRRI Mathura Road, Delhi - IMD",10-01-2024 20:00:00,28.5512005,77.2735737,CO,1,24,13
India,Delhi,Delhi,"CRRI Mathura Road, Delhi - IMD",10-01-2024 20:00:00,28.5512005,77.2735737,OZONE,33,40,37
India,Delhi,Delhi,"DTU, Delhi - CPCB",10-01-2024 20:00:00,28.7500499,77.1112615,CO,25,46,36
India,Delhi,Delhi,"Dr. Karni Singh Shooting Range, Delhi - DPCC",10-01-2024 20:00:00,28.498571,77.264840,PM2.5,242,376,315
India,Delhi,Delhi,"Dr. Karni Singh Shooting Range, Delhi - DPCC",10-01-2024 20:00:00,28.498571,77.264840,NO2,36,102,58
India,Delhi,Delhi,"Dr. Karni Singh Shooting Range, Delhi - DPCC",10-01-2024 20:00:00,28.498571,77.264840,NH3,7,17,11
India,Delhi,Delhi,"Dr. Karni Singh Shooting Range, Delhi - DPCC",10-01-2024 20:00:00,28.498571,77.264840,SO2,3,7,5
India,Delhi,Delhi,"Dwarka-Sector 8, Delhi - DPCC ",10-01-2024 20:00:00,28.5710274,77.0719006,PM10,132,321,200
India,Delhi,Delhi,"Dwarka-Sector 8, Delhi - DPCC ",10-01-2024 20:00:00,28.5710274,77.0719006,NO2,16,63,31
India,Delhi,Delhi,"Dwarka-Sector 8, Delhi - DPCC ",10-01-2024 20:00:00,28.5710274,77.0719006,SO2,4,7,5
India,Delhi,Delhi,"Dwarka-Sector 8, Delhi - DPCC ",10-01-2024 20:00:00,28.5710274,77.0719006,CO,24,100,58
India,Delhi,Delhi,"IGI Airport (T3), Delhi - IMD",10-01-2024 20:00:00,28.5627763,77.1180053,CO,10,114,47
India,Delhi,Delhi,"ITO, Delhi - CPCB",10-01-2024 20:00:00,28.628624,77.241060,PM10,94,179,129
India,Delhi,Delhi,"ITO, Delhi - CPCB",10-01-2024 20:00:00,28.628624,77.241060,OZONE,13,76,53
India,Delhi,Delhi,"Jahangirpuri, Delhi - DPCC",10-01-2024 20:00:00,28.732820,77.170633,PM2.5,238,424,325
India,Delhi,Delhi,"Jahangirpuri, Delhi - DPCC",10-01-2024 20:00:00,28.732820,77.170633,PM10,160,423,250
India,Delhi,Delhi,"Jawaharlal Nehru Stadium, Delhi - DPCC",10-01-2024 20:00:00,28.580280,77.233829,PM10,125,292,179
India,Delhi,Delhi,"Jawaharlal Nehru Stadium, Delhi - DPCC",10-01-2024 20:00:00,28.580280,77.233829,SO2,14,23,18
India,Delhi,Delhi,"Jawaharlal Nehru Stadium, Delhi - DPCC",10-01-2024 20:00:00,28.580280,77.233829,OZONE,6,28,21
India,Delhi,Delhi,"Lodhi Road, Delhi - IMD",10-01-2024 20:00:00,28.5918245,77.2273074,OZONE,15,43,32
India,Delhi,Delhi,"Major Dhyan Chand National Stadium, Delhi - DPCC",10-01-2024 20:00:00,28.611281,77.237738,NH3,10,14,12
India,Delhi,Delhi,"Major Dhyan Chand National Stadium, Delhi - DPCC",10-01-2024 20:00:00,28.611281,77.237738,CO,42,106,97
India,Delhi,Delhi,"Mandir Marg, Delhi - DPCC",10-01-2024 20:00:00,28.636429,77.201067,SO2,2,14,7
India,Delhi,Delhi,"Mandir Marg, Delhi - DPCC",10-01-2024 20:00:00,28.636429,77.201067,OZONE,1,10,5
India,Delhi,Delhi,"Mundka, Delhi - DPCC",10-01-2024 20:00:00,28.684678,77.076574,PM2.5,276,404,332
India,Delhi,Delhi,"Mundka, Delhi - DPCC",10-01-2024 20:00:00,28.684678,77.076574,SO2,11,15,13
India,Delhi,Delhi,"NSIT Dwarka, Delhi - CPCB",10-01-2024 20:00:00,28.60909,77.0325413,OZONE,13,40,29
India,Delhi,Delhi,"Najafgarh, Delhi - DPCC",10-01-2024 20:00:00,28.570173,76.933762,PM2.5,193,351,290
India,Delhi,Delhi,"North Campus, DU, Delhi - IMD",10-01-2024 20:00:00,28.6573814,77.1585447,PM2.5,217,370,298
India,Delhi,Delhi,"North Campus, DU, Delhi - IMD",10-01-2024 20:00:00,28.6573814,77.1585447,OZONE,18,32,28
India,Delhi,Delhi,"Punjabi Bagh, Delhi - DPCC",10-01-2024 20:00:00,28.674045,77.131023,NO2,69,93,77
India,Delhi,Delhi,"Punjabi Bagh, Delhi - DPCC",10-01-2024 20:00:00,28.674045,77.131023,SO2,1,6,3
India,Delhi,Delhi,"Punjabi Bagh, Delhi - DPCC",10-01-2024 20:00:00,28.674045,77.131023,OZONE,7,10,8
India,Delhi,Delhi,"Pusa, Delhi - DPCC",10-01-2024 20:00:00,28.639652,77.146275,SO2,2,12,7
India,Delhi,Delhi,"Pusa, Delhi - IMD",10-01-2024 20:00:00,28.636110,77.173332,CO,34,65,47
India,Delhi,Delhi,"Rohini, Delhi - DPCC",10-01-2024 20:00:00,28.732528,77.119920,PM2.5,217,381,306
India,Delhi,Delhi,"Rohini, Delhi - DPCC",10-01-2024 20:00:00,28.732528,77.119920,CO,22,84,55
India,Delhi,Delhi,"Shadipur, Delhi - CPCB",10-01-2024 20:00:00,28.6514781,77.1473105,OZONE,3,39,26
India,Delhi,Delhi,"Sirifort, Delhi - CPCB",10-01-2024 20:00:00,28.5504249,77.2159377,PM2.5,235,386,312
India,Delhi,Delhi,"Sirifort, Delhi - CPCB",10-01-2024 20:00:00,28.5504249,77.2159377,SO2,25,26,26
India,Delhi,Delhi,"Sirifort, Delhi - CPCB",10-01-2024 20:00:00,28.5504249,77.2159377,CO,15,38,29
India,Delhi,Delhi,"Sonia Vihar, Delhi - DPCC",10-01-2024 20:00:00,28.710508,77.249485,CO,52,92,74
India,Delhi,Delhi,"Sri Aurobindo Marg, Delhi - DPCC",10-01-2024 20:00:00,28.531346,77.190156,CO,24,52,44
India,Delhi,Delhi,"Sri Aurobindo Marg, Delhi - DPCC",10-01-2024 20:00:00,28.531346,77.190156,OZONE,4,16,10
India,Delhi,Delhi,"Wazirpur, Delhi - DPCC",10-01-2024 20:00:00,28.699793,77.165453,PM2.5,279,395,327
India,Gujarat,Ahmedabad,"Chandkheda, Ahmedabad - IITM",10-01-2024 20:00:00,23.107969,72.574648,PM2.5,48,165,93
India,Gujarat,Ahmedabad,"Chandkheda, Ahmedabad - IITM",10-01-2024 20:00:00,23.107969,72.574648,SO2,4,6,4
India,Gujarat,Ahmedabad,"Chandkheda, Ahmedabad - IITM",10-01-2024 20:00:00,23.107969,72.574648,OZONE,21,24,23
India,Gujarat,Ahmedabad,"Gyaspur, Ahmedabad - IITM",10-01-2024 20:00:00,22.977134,72.553024,CO,20,27,25
India,Gujarat,Ahmedabad,"Rakhial, Ahmedabad - IITM",10-01-2024 20:00:00,23.016834,72.625775,NH3,4,7,5
India,Gujarat,Ahmedabad,"SAC ISRO Bopal, Ahmedabad - IITM",10-01-2024 20:00:00,23.041137,72.456691,CO,28,54,35
India,Gujarat,Ahmedabad,"SAC ISRO Satellite, Ahmedabad - IITM",10-01-2024 20:00:00,23.023389,72.515201,PM2.5,76,143,96
India,Gujarat,Ahmedabad,"SVPI Airport Hansol, Ahmedabad - IITM",10-01-2024 20:00:00,23.076793,72.627874,PM10,75,106,91
India,Gujarat,Ahmedabad,"SVPI Airport Hansol, Ahmedabad - IITM",10-01-2024 20:00:00,23.076793,72.627874,NO2,10,10,10
India,Gujarat,Ahmedabad,"Sardar Vallabhbhai Patel Stadium, Ahmedabad - IITM",10-01-2024 20:00:00,23.043070,72.562968,CO,24,68,35
India,Gujarat,Ankleshwar,"GIDC, Ankleshwar - GPCB",10-01-2024 20:00:00,21.613267,73.010555,PM10,64,112,90
India,Gujarat,Gandhinagar,"GIFT City, Gandhinagar - IITM",10-01-2024 20:00:00,23.163798,72.677768,OZONE,8,29,21
India,Gujarat,Gandhinagar,"IIPHG Lekawada, Gandhinagar - IITM",10-01-2024 20:00:00,23.243639,72.68994,PM2.5,57,93,70
India,Gujarat,Gandhinagar,"Sector-10, Gandhinagar - GPCB",10-01-2024 20:00:00,23.221714,72.654328,PM2.5,38,93,53
India,Gujarat,Gandhinagar,"Sector-10, Gandhinagar - GPCB",10-01-2024 20:00:00,23.221714,72.654328,NO2,6,29,13
India,Gujarat,Vapi,"Phase-1 GIDC, Vapi - GPCB",10-01-2024 20:00:00,20.362421,72.918013,PM2.5,39,300,172
India,Haryana,Ambala,"Patti Mehar, Ambala - HSPCB",10-01-2024 20:00:00,30.379589,76.778328,NH3,4,4,1
India,Haryana,Bahadurgarh,"Arya Nagar, Bahadurgarh - HSPCB",10-01-2024 20:00:00,28.6701,76.9254,NO2,33,38,36
India,Haryana,Bahadurgarh,"Arya Nagar, Bahadurgarh - HSPCB",10-01-2024 20:00:00,28.6701,76.9254,NH3,11,12,11
India,Haryana,Bhiwani,"H.B. Colony, Bhiwani - HSPCB",10-01-2024 20:00:00,28.806223,76.141105,PM2.5,72,317,219
India,Haryana,Bhiwani,"H.B. Colony, Bhiwani - HSPCB",10-01-2024 20:00:00,28.806223,76.141105,PM10,66,179,131
India,Haryana,Bhiwani,"H.B. Colony, Bhiwani - HSPCB",10-01-2024 20:00:00,28.806223,76.141105,NH3,5,6,6
India,Haryana,Bhiwani,"H.B. Colony, Bhiwani - HSPCB",10-01-2024 20:00:00,28.806223,76.141105,SO2,2,23,12
India,Haryana,Charkhi Dadri,"Mini Secretariat, Charkhi Dadri - HSPCB",10-01-2024 20:00:00,28.593883,76.270653,PM2.5,85,304,173
India,Haryana,Charkhi Dadri,"Mini Secretariat, Charkhi Dadri - HSPCB",10-01-2024 20:00:00,28.593883,76.270653,OZONE,13,17,15
India,Haryana,Dharuhera,"Municipal Corporation Office, Dharuhera -  HSPCB",10-01-2024 20:00:00,28.206800,76.799700,NO2,46,113,67
India,Haryana,Dharuhera,"Municipal Corporation Office, Dharuhera -  HSPCB",10-01-2024 20:00:00,28.206800,76.799700,SO2,6,55,20
India,Haryana,Faridabad,"Sector 11, Faridabad - HSPCB",10-01-2024 20:00:00,28.376058,77.315741,NO2,31,33,32
India,Haryana,Faridabad,"Sector 11, Faridabad - HSPCB",10-01-2024 20:00:00,28.376058,77.315741,OZONE,2,7,5
India,Haryana,Faridabad,"Sector 30, Faridabad - HSPCB",10-01-2024 20:00:00,28.4417,77.3217,SO2,NA,NA,NA
India,Haryana,Faridabad,"Sector 30, Faridabad - HSPCB",10-01-2024 20:00:00,28.4417,77.3217,OZONE,4,18,11
India,Haryana,Fatehabad,"Huda Sector, Fatehabad - HSPCB",10-01-2024 20:00:00,29.503664,75.467934,CO,5,18,8
India,Haryana,Gurugram,"Sector-51, Gurugram - HSPCB",10-01-2024 20:00:00,28.4227,77.0667,PM10,71,170,119
India,Haryana,Gurugram,"Sector-51, Gurugram - HSPCB",10-01-2024 20:00:00,28.4227,77.0667,OZONE,27,67,56
India,Haryana,Gurugram,"Teri Gram, Gurugram - HSPCB",10-01-2024 20:00:00,28.4275,77.1465,PM10,71,173,113
India,Haryana,Gurugram,"Vikas Sadan, Gurugram - HSPCB",10-01-2024 20:00:00,28.4501238,77.0263051,OZONE,7,69,50
India,Haryana,Hisar,"Urban Estate-II, Hisar - HSPCB",10-01-2024 20:00:00,29.140560,75.744941,NO2,6,40,10
India,Haryana,Hisar,"Urban Estate-II, Hisar - HSPCB",10-01-2024 20:00:00,29.140560,75.744941,NH3,2,4,3
India,Haryana,Jind,"Police Lines, Jind - HSPCB",10-01-2024 20:00:00,29.307814,76.337619,NH3,2,4,3
India,Haryana,Kaithal,"Rishi Nagar, Kaithal - HSPCB",10-01-2024 20:00:00,29.8006,76.4155,PM10,43,98,67
India,Haryana,Kaithal,"Rishi Nagar, Kaithal - HSPCB",10-01-2024 20:00:00,29.8006,76.4155,CO,26,64,51
India,Haryana,Kaithal,"Rishi Nagar, Kaithal - HSPCB",10-01-2024 20:00:00,29.8006,76.4155,OZONE,6,10,9
India,Haryana,Kurukshetra,"Sector-7, Kurukshetra - HSPCB",10-01-2024 20:00:00,29.966942,76.875879,NH3,5,5,5
India,Haryana,Kurukshetra,"Sector-7, Kurukshetra - HSPCB",10-01-2024 20:00:00,29.966942,76.875879,OZONE,18,35,29
India,Haryana,Mandikhera,"General Hospital, Mandikhera - HSPCB",10-01-2024 20:00:00,27.9002,76.9938,NH3,NA,NA,NA
India,Haryana,Manesar,"Sector-2 IMT, Manesar - HSPCB",10-01-2024 20:00:00,28.360699,76.936090,PM10,71,131,98
India,Haryana,Narnaul,"Shastri Nagar, Narnaul - HSPCB",10-01-2024 20:00:00,28.060249,76.113115,OZONE,17,73,35
India,Haryana,Palwal,"Shyam Nagar, Palwal - HSPCB",10-01-2024 20:00:00,28.1485564,77.3320667,CO,10,15,12
India,Haryana,Panchkula,"Sector-6, Panchkula - HSPCB ",10-01-2024 20:00:00,30.7057778,76.8531805555555,OZONE,42,63,53
India,Haryana,Panipat,"Sector-18, Panipat - HSPCB",10-01-2024 20:00:00,29.497973,76.993331,NO2,NA,NA,NA
India,Haryana,Sirsa,"F-Block, Sirsa - HSPCB",10-01-2024 20:00:00,29.536400,75.015800,NH3,13,21,13
India,Haryana,Sirsa,"F-Block, Sirsa - HSPCB",10-01-2024 20:00:00,29.536400,75.015800,SO2,5,12,8
India,Haryana,Sonipat,"Murthal, Sonipat - HSPCB",10-01-2024 20:00:00,29.027200,77.062100,PM10,93,183,114
India,Haryana,Sonipat,"Murthal, Sonipat - HSPCB",10-01-2024 20:00:00,29.027200,77.062100,SO2,13,29,20
India,Haryana,Yamuna Nagar,"Gobind Pura, Yamuna Nagar - HSPCB",10-01-2024 20:00:00,30.1480566,77.2893471,PM10,82,153,104
India,Haryana,Yamuna Nagar,"Gobind Pura, Yamuna Nagar - HSPCB",10-01-2024 20:00:00,30.1480566,77.2893471,CO,48,61,53
India,Himachal Pradesh,Baddi,"HIMUDA Complex Phase-1, Baddi - HPPCB",10-01-2024 20:00:00,30.943887,76.801991,NH3,5,6,5
India,Himachal Pradesh,Baddi,"HIMUDA Complex Phase-1, Baddi - HPPCB",10-01-2024 20:00:00,30.943887,76.801991,CO,39,54,47
India,Jharkhand,Dhanbad,"Kalakusuma, Dhanbad - DMC",10-01-2024 20:00:00,23.811548,86.481238,CO,102,110,108
