country,state,city,station,last_update,latitude,longitude,pollutant_id,pollutant_min,pollutant_max,pollutant_avg
India,Andhra_Pradesh,Amaravati,"Secretariat, Amaravati - APPCB",26-04-2024 02:00:00,16.5150833,80.5181667,NO2,4,10,7
India,Andhra_Pradesh,Amaravati,"Secretariat, Amaravati - APPCB",26-04-2024 02:00:00,16.5150833,80.5181667,NH3,3,4,4
India,Andhra_Pradesh,Anantapur,"Gulzarpet, Anantapur - APPCB",26-04-2024 02:00:00,14.675886,77.593027,NO2,12,13,13
India,Andhra_Pradesh,Anantapur,"Gulzarpet, Anantapur - APPCB",26-04-2024 02:00:00,14.675886,77.593027,SO2,6,27,10
India,Andhra_Pradesh,Rajamahendravaram,"Anand Kala Kshetram, Rajamahendravaram - APPCB",26-04-2024 02:00:00,16.9872867,81.7363176,PM2.5,5,49,20
India,Andhra_Pradesh,Rajamahendravaram,"Anand Kala Kshetram, Rajamahendravaram - APPCB",26-04-2024 02:00:00,16.9872867,81.7363176,SO2,5,67,17
India,Andhra_Pradesh,Rajamahendravaram,"Anand Kala Kshetram, Rajamahendravaram - APPCB",26-04-2024 02:00:00,16.9872867,81.7363176,CO,20,101,30
India,Andhra_Pradesh,Tirupati,"Tirumala, Tirupati - APPCB",26-04-2024 02:00:00,13.67,79.35,NO2,17,44,27
India,Andhra_Pradesh,Tirupati,"Tirumala, Tirupati - APPCB",26-04-2024 02:00:00,13.67,79.35,OZONE,16,83,50
India,Andhra_Pradesh,Tirupati,"Vaikuntapuram, Tirupati - APPCB",26-04-2024 02:00:00,13.615387,79.409230,NO2,15,31,21
India,Andhra_Pradesh,Vijayawada,"HB Colony, Vijayawada - APPCB",26-04-2024 02:00:00,16.536107,80.594233,PM2.5,38,47,43
India,Andhra_Pradesh,Vijayawada,"HB Colony, Vijayawada - APPCB",26-04-2024 02:00:00,16.536107,80.594233,NH3,4,4,4
India,Andhra_Pradesh,Vijayawada,"Kanuru, Vijayawada - APPCB",26-04-2024 02:00:00,16.486692,80.699436,NO2,14,18,16
India,Andhra_Pradesh,Vijayawada,"Kanuru, Vijayawada - APPCB",26-04-2024 02:00:00,16.486692,80.699436,SO2,8,12,10
India,Andhra_Pradesh,Vijayawada,"Rajiv Gandhi Park, Vijayawada - APPCB",26-04-2024 02:00:00,16.509717,80.612222,NH3,1,4,3
India,Andhra_Pradesh,Visakhapatnam,"GVM Corporation, Visakhapatnam - APPCB",26-04-2024 02:00:00,17.72,83.3,NO2,35,62,49
India,Andhra_Pradesh,Visakhapatnam,"GVM Corporation, Visakhapatnam - APPCB",26-04-2024 02:00:00,17.72,83.3,SO2,10,17,14
India,Arunachal_Pradesh,Naharlagun,"Naharlagun, Naharlagun - APSPCB",26-04-2024 02:00:00,27.103358,93.679645,CO,NA,NA,NA
India,Assam,Byrnihat,"Central Academy for SFS, Byrnihat - PCBA",26-04-2024 02:00:00,26.071318,91.87488,SO2,7,8,8
India,Assam,Byrnihat,"Central Academy for SFS, Byrnihat - PCBA",26-04-2024 02:00:00,26.071318,91.87488,CO,32,80,41
India,Assam,Guwahati,"IITG, Guwahati - PCBA",26-04-2024 02:00:00,26.2028636,91.70046436,SO2,11,13,12
India,Assam,Guwahati,"Pan Bazaar, Guwahati - PCBA",26-04-2024 02:00:00,26.187500,91.744194,NO2,NA,NA,NA
India,Assam,Guwahati,"Pan Bazaar, Guwahati - PCBA",26-04-2024 02:00:00,26.187500,91.744194,CO,20,40,30
India,Assam,Guwahati,"Railway Colony, Guwahati - PCBA",26-04-2024 02:00:00,26.181742,91.78063,NO2,3,3,3
India,Assam,Guwahati,"Railway Colony, Guwahati - PCBA",26-04-2024 02:00:00,26.181742,91.78063,OZONE,3,25,13
India,Assam,Nalbari,"Bata Chowk, Nalbari - PCBA",26-04-2024 02:00:00,26.446912,91.439057,NO2,7,27,11
India,Assam,Silchar,"Tarapur, Silchar - PCBA",26-04-2024 02:00:00,24.82827,92.79525,PM10,26,69,51
India,Assam,Silchar,"Tarapur, Silchar - PCBA",26-04-2024 02:00:00,24.82827,92.79525,NO2,13,13,13
India,Assam,Sivasagar,"Girls College, Sivasagar - PCBA",26-04-2024 02:00:00,26.987634,94.636574,SO2,5,16,11
India,Assam,Sivasagar,"Girls College, Sivasagar - PCBA",26-04-2024 02:00:00,26.987634,94.636574,CO,12,18,16
India,Bihar,Araria,"Kharahiya Basti, Araria - BSPCB",26-04-2024 02:00:00,26.146529,87.454184,OZONE,6,10,8
India,Bihar,Arrah,"New DM Office, Arrah - BSPCB",26-04-2024 02:00:00,25.5626095,84.663264,OZONE,12,46,23
India,Bihar,Bettiah,"Kamalnath Nagar, Bettiah - BSPCB",26-04-2024 02:00:00,26.80365,84.51954,SO2,8,22,14
India,Bihar,Bhagalpur,"DM Office_Kachari Chowk, Bhagalpur - BSPCB",26-04-2024 02:00:00,25.251013,86.989001,PM10,112,258,165
India,Bihar,Bhagalpur,"Mayaganj, Bhagalpur - BSPCB",26-04-2024 02:00:00,25.265194,87.012947,PM10,NA,NA,NA
India,Bihar,Bhagalpur,"Mayaganj, Bhagalpur - BSPCB",26-04-2024 02:00:00,25.265194,87.012947,NO2,NA,NA,NA
India,Bihar,Bhagalpur,"Mayaganj, Bhagalpur - BSPCB",26-04-2024 02:00:00,25.265194,87.012947,NH3,NA,NA,NA
India,Bihar,Bihar Sharif,"D M Colony, Bihar Sharif - BSPCB",26-04-2024 02:00:00,25.204762,85.514960,PM10,51,115,80
India,Bihar,Gaya,"Collectorate, Gaya - BSPCB",26-04-2024 02:00:00,24.7955,84.9994,PM2.5,29,288,130
India,Bihar,Gaya,"Kareemganj, Gaya - BSPCB",26-04-2024 02:00:00,24.792403,84.992416,PM10,56,118,82
India,Bihar,Gaya,"SFTI Kusdihra, Gaya - BSPCB",26-04-2024 02:00:00,24.762518,84.982348,OZONE,3,92,41
India,Bihar,Hajipur,"Industrial Area, Hajipur - BSPCB",26-04-2024 02:00:00,25.697189,85.245900,NO2,17,69,45
India,Bihar,Hajipur,"Industrial Area, Hajipur - BSPCB",26-04-2024 02:00:00,25.697189,85.245900,SO2,6,9,8
India,Bihar,Kishanganj,"SDM Office_Khagra, Kishanganj - BSPCB",26-04-2024 02:00:00,26.0881305,87.93840336,NH3,9,10,9
India,Bihar,Kishanganj,"SDM Office_Khagra, Kishanganj - BSPCB",26-04-2024 02:00:00,26.0881305,87.93840336,SO2,2,12,5
India,Bihar,Motihari,"Gandak Colony, Motihari - BSPCB",26-04-2024 02:00:00,26.63086,84.90051,OZONE,35,197,107
India,Bihar,Munger,"Town Hall, Munger - BSPCB",26-04-2024 02:00:00,25.376776,86.471523,PM2.5,77,344,157
India,Bihar,Munger,"Town Hall, Munger - BSPCB",26-04-2024 02:00:00,25.376776,86.471523,NO2,7,9,8
India,Bihar,Munger,"Town Hall, Munger - BSPCB",26-04-2024 02:00:00,25.376776,86.471523,NH3,2,2,2
India,Bihar,Munger,"Town Hall, Munger - BSPCB",26-04-2024 02:00:00,25.376776,86.471523,SO2,2,33,15
India,Bihar,Muzaffarpur,"Buddha Colony, Muzaffarpur - BSPCB",26-04-2024 02:00:00,26.11442,85.39813,SO2,1,12,8
India,Bihar,Muzaffarpur,"MIT-Daudpur Kothi, Muzaffarpur - BSPCB",26-04-2024 02:00:00,26.1403345,85.3650192,CO,27,103,56
India,Bihar,Patna,"DRM Office Danapur, Patna - BSPCB",26-04-2024 02:00:00,25.586562,85.043586,NH3,3,3,3
India,Bihar,Patna,"Govt. High School Shikarpur, Patna - BSPCB",26-04-2024 02:00:00,25.592539,85.227158,NO2,14,22,18
India,Bihar,Patna,"IGSC Planetarium Complex, Patna - BSPCB",26-04-2024 02:00:00,25.610369,85.132568,PM2.5,NA,NA,NA
India,Bihar,Patna,"Muradpur, Patna - BSPCB",26-04-2024 02:00:00,25.619651,85.147382,PM2.5,93,344,211
India,Bihar,Patna,"Muradpur, Patna - BSPCB",26-04-2024 02:00:00,25.619651,85.147382,OZONE,3,91,30
India,Bihar,Patna,"Rajbansi Nagar, Patna - BSPCB",26-04-2024 02:00:00,25.599486,85.113666,PM2.5,59,431,239
India,Bihar,Patna,"Rajbansi Nagar, Patna - BSPCB",26-04-2024 02:00:00,25.599486,85.113666,OZONE,3,122,23
India,Bihar,Patna,"Samanpura, Patna - BSPCB",26-04-2024 02:00:00,25.596727,85.085624,NH3,12,21,16
India,Bihar,Patna,"Samanpura, Patna - BSPCB",26-04-2024 02:00:00,25.596727,85.085624,SO2,5,14,9
India,Bihar,Patna,"Samanpura, Patna - BSPCB",26-04-2024 02:00:00,25.596727,85.085624,CO,24,117,83
India,Bihar,Purnia,"Mariam Nagar, Purnia - BSPCB",26-04-2024 02:00:00,25.366336,87.117468,NO2,3,11,8
India,Bihar,Purnia,"Mariam Nagar, Purnia - BSPCB",26-04-2024 02:00:00,25.366336,87.117468,NH3,2,12,8
India,Bihar,Purnia,"Mariam Nagar, Purnia - BSPCB",26-04-2024 02:00:00,25.366336,87.117468,OZONE,8,27,12
India,Bihar,Rajgir,"Dangi Tola, Rajgir - BSPCB",26-04-2024 02:00:00,25.03280,85.41948,SO2,4,5,4
India,Bihar,Rajgir,"Dangi Tola, Rajgir - BSPCB",26-04-2024 02:00:00,25.03280,85.41948,OZONE,30,38,33
India,Bihar,Saharsa,"Police Line, Saharsa - BSPCB",26-04-2024 02:00:00,25.892357,86.590325,NH3,9,9,9
India,Bihar,Saharsa,"Police Line, Saharsa - BSPCB",26-04-2024 02:00:00,25.892357,86.590325,CO,54,55,54
India,Bihar,Sasaram,"Dada Peer, Sasaram - BSPCB",26-04-2024 02:00:00,24.952822,84.002396,PM2.5,NA,NA,NA
India,Bihar,Sasaram,"Dada Peer, Sasaram - BSPCB",26-04-2024 02:00:00,24.952822,84.002396,NO2,19,144,62
India,Bihar,Siwan,"Chitragupta Nagar, Siwan - BSPCB",26-04-2024 02:00:00,26.2271665,84.3570427,PM2.5,20,83,48
India,Bihar,Siwan,"Chitragupta Nagar, Siwan - BSPCB",26-04-2024 02:00:00,26.2271665,84.3570427,SO2,22,34,29
India,Chandigarh,Chandigarh,"Sector 22, Chandigarh - CPCC",26-04-2024 02:00:00,30.735567,76.775714,SO2,5,45,17
India,Chandigarh,Chandigarh,"Sector-25, Chandigarh - CPCC",26-04-2024 02:00:00,30.751462,76.762879,PM2.5,81,158,114
India,Chandigarh,Chandigarh,"Sector-25, Chandigarh - CPCC",26-04-2024 02:00:00,30.751462,76.762879,NO2,4,46,17
India,Chandigarh,Chandigarh,"Sector-25, Chandigarh - CPCC",26-04-2024 02:00:00,30.751462,76.762879,NH3,8,31,16
India,Chandigarh,Chandigarh,"Sector-25, Chandigarh - CPCC",26-04-2024 02:00:00,30.751462,76.762879,CO,7,38,24
India,Chandigarh,Chandigarh,"Sector-53, Chandigarh - CPCC",26-04-2024 02:00:00,30.719859,76.738637,PM10,39,183,95
India,Chhattisgarh,Bhilai,"32Bungalows, Bhilai - CECB",26-04-2024 02:00:00,21.194815,81.314770,PM2.5,42,75,59
India,Chhattisgarh,Bhilai,"32Bungalows, Bhilai - CECB",26-04-2024 02:00:00,21.194815,81.314770,SO2,4,10,7
India,Chhattisgarh,Bhilai,"32Bungalows, Bhilai - CECB",26-04-2024 02:00:00,21.194815,81.314770,CO,18,42,31
India,Chhattisgarh,Bhilai,"Civic Center, Bhilai - Bhilai Steel Plant",26-04-2024 02:00:00,21.185571,81.343175,PM2.5,18,307,57
India,Chhattisgarh,Bhilai,"Hathkhoj, Bhilai - CECB",26-04-2024 02:00:00,21.224231,81.408350,PM2.5,23,185,67
India,Chhattisgarh,Bilaspur,"Mangala, Bilaspur - NTPC",26-04-2024 02:00:00,22.08815,82.13737,PM10,11,83,49
India,Chhattisgarh,Bilaspur,"Mangala, Bilaspur - NTPC",26-04-2024 02:00:00,22.08815,82.13737,NO2,15,15,15
India,Chhattisgarh,Bilaspur,"Mangala, Bilaspur - NTPC",26-04-2024 02:00:00,22.08815,82.13737,SO2,1,34,15
India,Chhattisgarh,Chhal,"Nawapara SECL Colony, Chhal - CECB",26-04-2024 02:00:00,22.118125,83.140608,NO2,15,69,32
India,Chhattisgarh,Chhal,"Nawapara SECL Colony, Chhal - CECB",26-04-2024 02:00:00,22.118125,83.140608,SO2,14,46,26
India,Chhattisgarh,Korba,"Rampur, Korba - CECB",26-04-2024 02:00:00,22.368195,82.746431,NH3,1,1,1
India,Chhattisgarh,Milupara,"Govt. Higher Secondary School, Milupara - CECB",26-04-2024 02:00:00,22.1910172,83.5197009,PM10,NA,NA,NA
India,Chhattisgarh,Raipur,"Bhatagaon New ISBT, Raipur - CECB",26-04-2024 02:00:00,21.219665,81.630094,SO2,NA,NA,NA
India,Chhattisgarh,Raipur,"Bhatagaon New ISBT, Raipur - CECB",26-04-2024 02:00:00,21.219665,81.630094,OZONE,3,37,5
India,Chhattisgarh,Raipur,"Krishak Nagar, Raipur - CECB",26-04-2024 02:00:00,21.237755,81.705301,PM10,40,64,52
India,Chhattisgarh,Raipur,"Siltara Phase-II, Raipur - CECB",26-04-2024 02:00:00,21.371751,81.664929,PM10,38,184,112
India,Chhattisgarh,Raipur,"Siltara Phase-II, Raipur - CECB",26-04-2024 02:00:00,21.371751,81.664929,CO,16,98,39
India,Chhattisgarh,Raipur,"Siltara Phase-II, Raipur - CECB",26-04-2024 02:00:00,21.371751,81.664929,OZONE,3,50,14
India,Chhattisgarh,Tumidih,"OP Jindal Industrial Park, Tumidih - CECB",26-04-2024 02:00:00,22.06631475,83.33820077,CO,16,82,26
India,Delhi,Delhi,"Alipur, Delhi - DPCC",26-04-2024 02:00:00,28.815329,77.153010,SO2,6,93,25
India,Delhi,Delhi,"Alipur, Delhi - DPCC",26-04-2024 02:00:00,28.815329,77.153010,OZONE,1,134,36
India,Delhi,Delhi,"Anand Vihar, Delhi - DPCC",26-04-2024 02:00:00,28.647622,77.3158090,SO2,17,51,34
India,Delhi,Delhi,"Ashok Vihar, Delhi - DPCC",26-04-2024 02:00:00,28.695381,77.181665,CO,3,103,60
India,Delhi,Delhi,"Bawana, Delhi - DPCC",26-04-2024 02:00:00,28.776200,77.051074,NH3,4,8,6
India,Delhi,Delhi,"Dr. Karni Singh Shooting Range, Delhi - DPCC",26-04-2024 02:00:00,28.498571,77.264840,NH3,5,10,7
India,Delhi,Delhi,"Dwarka-Sector 8, Delhi - DPCC ",26-04-2024 02:00:00,28.5710274,77.0719006,SO2,1,72,20
India,Delhi,Delhi,"IGI Airport (T3), Delhi - IMD",26-04-2024 02:00:00,28.5627763,77.1180053,PM10,54,439,227
India,Delhi,Delhi,"IGI Airport (T3), Delhi - IMD",26-04-2024 02:00:00,28.5627763,77.1180053,NO2,5,14,9
India,Delhi,Delhi,"IHBAS, Dilshad Garden, Delhi - CPCB",26-04-2024 02:00:00,28.6811736,77.3025234,PM2.5,65,180,95
India,Delhi,Delhi,"ITO, Delhi - CPCB",26-04-2024 02:00:00,28.628624,77.241060,NH3,1,7,4
India,Delhi,Delhi,"ITO, Delhi - CPCB",26-04-2024 02:00:00,28.628624,77.241060,CO,32,118,94
India,Delhi,Delhi,"Jahangirpuri, Delhi - DPCC",26-04-2024 02:00:00,28.732820,77.170633,PM2.5,25,442,236
India,Delhi,Delhi,"Jahangirpuri, Delhi - DPCC",26-04-2024 02:00:00,28.732820,77.170633,SO2,7,107,48
India,Delhi,Delhi,"Lodhi Road, Delhi - IMD",26-04-2024 02:00:00,28.5918245,77.2273074,PM2.5,1,340,98
India,Delhi,Delhi,"Lodhi Road, Delhi - IMD",26-04-2024 02:00:00,28.5918245,77.2273074,NO2,1,91,18
India,Delhi,Delhi,"Major Dhyan Chand National Stadium, Delhi - DPCC",26-04-2024 02:00:00,28.611281,77.237738,PM10,52,412,152
India,Delhi,Delhi,"Major Dhyan Chand National Stadium, Delhi - DPCC",26-04-2024 02:00:00,28.611281,77.237738,NO2,26,241,122
India,Delhi,Delhi,"Major Dhyan Chand National Stadium, Delhi - DPCC",26-04-2024 02:00:00,28.611281,77.237738,NH3,1,12,9
India,Delhi,Delhi,"Major Dhyan Chand National Stadium, Delhi - DPCC",26-04-2024 02:00:00,28.611281,77.237738,CO,7,103,54
India,Delhi,Delhi,"Mandir Marg, Delhi - DPCC",26-04-2024 02:00:00,28.636429,77.201067,PM10,36,340,126
India,Delhi,Delhi,"Mundka, Delhi - DPCC",26-04-2024 02:00:00,28.684678,77.076574,PM2.5,NA,NA,NA
India,Delhi,Delhi,"NSIT Dwarka, Delhi - CPCB",26-04-2024 02:00:00,28.60909,77.0325413,SO2,3,83,20
India,Delhi,Delhi,"New Moti Bagh, Delhi - MHUA",26-04-2024 02:00:00,28.57834,77.18400,CO,14,131,89
India,Delhi,Delhi,"North Campus, DU, Delhi - IMD",26-04-2024 02:00:00,28.6573814,77.1585447,NO2,NA,NA,NA
India,Delhi,Delhi,"North Campus, DU, Delhi - IMD",26-04-2024 02:00:00,28.6573814,77.1585447,CO,NA,NA,NA
India,Delhi,Delhi,"Okhla Phase-2, Delhi - DPCC",26-04-2024 02:00:00,28.530785,77.271255,PM2.5,13,312,133
India,Delhi,Delhi,"Okhla Phase-2, Delhi - DPCC",26-04-2024 02:00:00,28.530785,77.271255,OZONE,7,105,21
India,Delhi,Delhi,"Patparganj, Delhi - DPCC",26-04-2024 02:00:00,28.623763,77.287209,NO2,NA,NA,NA
India,Delhi,Delhi,"Patparganj, Delhi - DPCC",26-04-2024 02:00:00,28.623763,77.287209,NH3,NA,NA,NA
India,Delhi,Delhi,"Patparganj, Delhi - DPCC",26-04-2024 02:00:00,28.623763,77.287209,CO,40,122,86
India,Delhi,Delhi,"Patparganj, Delhi - DPCC",26-04-2024 02:00:00,28.623763,77.287209,OZONE,5,147,32
India,Delhi,Delhi,"Pusa, Delhi - IMD",26-04-2024 02:00:00,28.636110,77.173332,PM10,109,428,199
India,Delhi,Delhi,"Pusa, Delhi - IMD",26-04-2024 02:00:00,28.636110,77.173332,CO,30,92,64
India,Delhi,Delhi,"R K Puram, Delhi - DPCC",26-04-2024 02:00:00,28.563262,77.186937,NO2,1,101,40
India,Delhi,Delhi,"R K Puram, Delhi - DPCC",26-04-2024 02:00:00,28.563262,77.186937,SO2,17,76,34
India,Delhi,Delhi,"R K Puram, Delhi - DPCC",26-04-2024 02:00:00,28.563262,77.186937,OZONE,14,172,45
India,Delhi,Delhi,"Rohini, Delhi - DPCC",26-04-2024 02:00:00,28.732528,77.119920,PM10,86,489,249
India,Delhi,Delhi,"Rohini, Delhi - DPCC",26-04-2024 02:00:00,28.732528,77.119920,NO2,7,113,59
India,Delhi,Delhi,"Shadipur, Delhi - CPCB",26-04-2024 02:00:00,28.6514781,77.1473105,NO2,37,96,69
India,Delhi,Delhi,"Sirifort, Delhi - CPCB",26-04-2024 02:00:00,28.5504249,77.2159377,NH3,10,29,19
India,Delhi,Delhi,"Sirifort, Delhi - CPCB",26-04-2024 02:00:00,28.5504249,77.2159377,CO,8,132,95
India,Delhi,Delhi,"Sonia Vihar, Delhi - DPCC",26-04-2024 02:00:00,28.710508,77.249485,PM2.5,15,356,168
India,Delhi,Delhi,"Sri Aurobindo Marg, Delhi - DPCC",26-04-2024 02:00:00,28.531346,77.190156,NH3,6,12,9
India,Delhi,Delhi,"Sri Aurobindo Marg, Delhi - DPCC",26-04-2024 02:00:00,28.531346,77.190156,SO2,9,90,18
India,Delhi,Delhi,"Wazirpur, Delhi - DPCC",26-04-2024 02:00:00,28.699793,77.165453,PM2.5,22,371,198
India,Delhi,Delhi,"Wazirpur, Delhi - DPCC",26-04-2024 02:00:00,28.699793,77.165453,NO2,15,74,45
India,Delhi,Delhi,"Wazirpur, Delhi - DPCC",26-04-2024 02:00:00,28.699793,77.165453,NH3,12,13,13
India,Delhi,Delhi,"Wazirpur, Delhi - DPCC",26-04-2024 02:00:00,28.699793,77.165453,OZONE,4,144,19
India,Gujarat,Ahmedabad,"Chandkheda, Ahmedabad - IITM",26-04-2024 02:00:00,23.107969,72.574648,NH3,2,5,3
India,Gujarat,Ahmedabad,"Chandkheda, Ahmedabad - IITM",26-04-2024 02:00:00,23.107969,72.574648,OZONE,8,67,24
India,Gujarat,Ahmedabad,"Gyaspur, Ahmedabad - IITM",26-04-2024 02:00:00,22.977134,72.553024,NH3,2,4,2
India,Gujarat,Ahmedabad,"Gyaspur, Ahmedabad - IITM",26-04-2024 02:00:00,22.977134,72.553024,SO2,7,22,12
India,Gujarat,Ahmedabad,"Gyaspur, Ahmedabad - IITM",26-04-2024 02:00:00,22.977134,72.553024,CO,26,66,40
India,Gujarat,Ahmedabad,"Raikhad, Ahmedabad - IITM",26-04-2024 02:00:00,23.020509,72.579261,PM10,86,140,105
India,Gujarat,Ahmedabad,"Raikhad, Ahmedabad - IITM",26-04-2024 02:00:00,23.020509,72.579261,OZONE,8,37,15
India,Gujarat,Ahmedabad,"SAC ISRO Satellite, Ahmedabad - IITM",26-04-2024 02:00:00,23.023389,72.515201,PM2.5,88,135,114
India,Gujarat,Ahmedabad,"SAC ISRO Satellite, Ahmedabad - IITM",26-04-2024 02:00:00,23.023389,72.515201,CO,26,34,34
India,Gujarat,Ahmedabad,"SVPI Airport Hansol, Ahmedabad - IITM",26-04-2024 02:00:00,23.076793,72.627874,NH3,5,7,6
India,Gujarat,Ahmedabad,"SVPI Airport Hansol, Ahmedabad - IITM",26-04-2024 02:00:00,23.076793,72.627874,CO,20,100,57
India,Gujarat,Ahmedabad,"Sardar Vallabhbhai Patel Stadium, Ahmedabad - IITM",26-04-2024 02:00:00,23.043070,72.562968,PM10,64,146,109
India,Gujarat,Ahmedabad,"Sardar Vallabhbhai Patel Stadium, Ahmedabad - IITM",26-04-2024 02:00:00,23.043070,72.562968,OZONE,5,42,23
India,Gujarat,Ankleshwar,"GIDC, Ankleshwar - GPCB",26-04-2024 02:00:00,21.613267,73.010555,NO2,32,33,32
India,Gujarat,Gandhinagar,"IIPHG Lekawada, Gandhinagar - IITM",26-04-2024 02:00:00,23.243639,72.68994,PM2.5,NA,NA,NA
India,Gujarat,Gandhinagar,"IIPHG Lekawada, Gandhinagar - IITM",26-04-2024 02:00:00,23.243639,72.68994,NH3,NA,NA,NA
India,Gujarat,Gandhinagar,"IIPHG Lekawada, Gandhinagar - IITM",26-04-2024 02:00:00,23.243639,72.68994,CO,27,39,39
India,Gujarat,Gandhinagar,"IIPHG Lekawada, Gandhinagar - IITM",26-04-2024 02:00:00,23.243639,72.68994,OZONE,30,59,50
India,Gujarat,Nandesari,"GIDC, Nandesari - Nandesari Ind. Association",26-04-2024 02:00:00,22.410802,73.097923,PM2.5,72,340,196
India,Gujarat,Nandesari,"GIDC, Nandesari - Nandesari Ind. Association",26-04-2024 02:00:00,22.410802,73.097923,PM10,98,404,184
India,Gujarat,Surat,"Science Center, Surat - SMC",26-04-2024 02:00:00,21.170046,72.795405,PM10,5,40,20
India,Gujarat,Surat,"Science Center, Surat - SMC",26-04-2024 02:00:00,21.170046,72.795405,NO2,31,49,40
India,Gujarat,Vapi,"Phase-1 GIDC, Vapi - GPCB",26-04-2024 02:00:00,20.362421,72.918013,PM2.5,25,98,47
India,Gujarat,Vapi,"Phase-1 GIDC, Vapi - GPCB",26-04-2024 02:00:00,20.362421,72.918013,NO2,6,7,7
India,Gujarat,Vapi,"Phase-1 GIDC, Vapi - GPCB",26-04-2024 02:00:00,20.362421,72.918013,OZONE,15,22,21
India,Gujarat,Vatva,"Phase-4 GIDC, Vatva - GPCB",26-04-2024 02:00:00,22.969611,72.643500,PM2.5,36,92,59
India,Haryana,Ambala,"Patti Mehar, Ambala - HSPCB",26-04-2024 02:00:00,30.379589,76.778328,SO2,13,20,17
India,Haryana,Ambala,"Patti Mehar, Ambala - HSPCB",26-04-2024 02:00:00,30.379589,76.778328,OZONE,27,47,40
India,Haryana,Bahadurgarh,"Arya Nagar, Bahadurgarh - HSPCB",26-04-2024 02:00:00,28.6701,76.9254,PM2.5,7,237,84
India,Haryana,Bahadurgarh,"Arya Nagar, Bahadurgarh - HSPCB",26-04-2024 02:00:00,28.6701,76.9254,NH3,8,9,9
India,Haryana,Ballabgarh,"Nathu Colony, Ballabgarh - HSPCB",26-04-2024 02:00:00,28.3419248,77.319699,PM10,121,375,210
India,Haryana,Ballabgarh,"Nathu Colony, Ballabgarh - HSPCB",26-04-2024 02:00:00,28.3419248,77.319699,CO,8,120,73
India,Haryana,Bhiwani,"H.B. Colony, Bhiwani - HSPCB",26-04-2024 02:00:00,28.806223,76.141105,PM10,42,137,92
India,Haryana,Bhiwani,"H.B. Colony, Bhiwani - HSPCB",26-04-2024 02:00:00,28.806223,76.141105,OZONE,27,49,33
India,Haryana,Charkhi Dadri,"Mini Secretariat, Charkhi Dadri - HSPCB",26-04-2024 02:00:00,28.593883,76.270653,PM10,57,193,127
India,Haryana,Dharuhera,"Municipal Corporation Office, Dharuhera -  HSPCB",26-04-2024 02:00:00,28.206800,76.799700,NO2,44,112,68
India,Haryana,Dharuhera,"Municipal Corporation Office, Dharuhera -  HSPCB",26-04-2024 02:00:00,28.206800,76.799700,SO2,2,66,25
India,Haryana,Dharuhera,"Municipal Corporation Office, Dharuhera -  HSPCB",26-04-2024 02:00:00,28.206800,76.799700,CO,10,68,38
India,Haryana,Faridabad,"New Industrial Town, Faridabad - HSPCB",26-04-2024 02:00:00,28.39072,77.30059,SO2,3,13,8
India,Haryana,Faridabad,"New Industrial Town, Faridabad - HSPCB",26-04-2024 02:00:00,28.39072,77.30059,CO,2,79,49
India,Haryana,Faridabad,"Sector 30, Faridabad - HSPCB",26-04-2024 02:00:00,28.4417,77.3217,NH3,9,9,9
India,Haryana,Faridabad,"Sector- 16A, Faridabad - HSPCB",26-04-2024 02:00:00,28.4088421,77.3099081,SO2,22,28,25
India,Haryana,Fatehabad,"Huda Sector, Fatehabad - HSPCB",26-04-2024 02:00:00,29.503664,75.467934,CO,5,20,8
India,Haryana,Fatehabad,"Huda Sector, Fatehabad - HSPCB",26-04-2024 02:00:00,29.503664,75.467934,OZONE,24,84,54
India,Haryana,Gurugram,"Sector-51, Gurugram - HSPCB",26-04-2024 02:00:00,28.4227,77.0667,PM10,102,488,259
India,Haryana,Gurugram,"Teri Gram, Gurugram - HSPCB",26-04-2024 02:00:00,28.4275,77.1465,NO2,32,98,55
India,Haryana,Gurugram,"Vikas Sadan, Gurugram - HSPCB",26-04-2024 02:00:00,28.4501238,77.0263051,NO2,5,26,14
India,Haryana,Hisar,"Urban Estate-II, Hisar - HSPCB",26-04-2024 02:00:00,29.140560,75.744941,NO2,17,31,26
India,Haryana,Hisar,"Urban Estate-II, Hisar - HSPCB",26-04-2024 02:00:00,29.140560,75.744941,CO,24,56,34
India,Haryana,Jind,"Police Lines, Jind - HSPCB",26-04-2024 02:00:00,29.307814,76.337619,PM10,58,141,103
India,Haryana,Jind,"Police Lines, Jind - HSPCB",26-04-2024 02:00:00,29.307814,76.337619,SO2,2,49,13
India,Haryana,Jind,"Police Lines, Jind - HSPCB",26-04-2024 02:00:00,29.307814,76.337619,CO,4,88,39
India,Haryana,Kaithal,"Rishi Nagar, Kaithal - HSPCB",26-04-2024 02:00:00,29.8006,76.4155,PM2.5,32,113,68
India,Haryana,Kaithal,"Rishi Nagar, Kaithal - HSPCB",26-04-2024 02:00:00,29.8006,76.4155,PM10,82,148,119
India,Haryana,Kaithal,"Rishi Nagar, Kaithal - HSPCB",26-04-2024 02:00:00,29.8006,76.4155,NH3,8,8,8
India,Haryana,Karnal,"Sector-12, Karnal - HSPCB",26-04-2024 02:00:00,29.695300,77.002700,PM2.5,69,139,98
India,Haryana,Karnal,"Sector-12, Karnal - HSPCB",26-04-2024 02:00:00,29.695300,77.002700,NO2,7,12,10
India,Haryana,Kurukshetra,"Sector-7, Kurukshetra - HSPCB",26-04-2024 02:00:00,29.966942,76.875879,NH3,5,5,5
India,Haryana,Kurukshetra,"Sector-7, Kurukshetra - HSPCB",26-04-2024 02:00:00,29.966942,76.875879,CO,1,22,16
India,Haryana,Mandikhera,"General Hospital, Mandikhera - HSPCB",26-04-2024 02:00:00,27.9002,76.9938,PM2.5,12,141,47
India,Haryana,Mandikhera,"General Hospital, Mandikhera - HSPCB",26-04-2024 02:00:00,27.9002,76.9938,NO2,18,24,21
India,Haryana,Narnaul,"Shastri Nagar, Narnaul - HSPCB",26-04-2024 02:00:00,28.060249,76.113115,NH3,5,29,15
India,Haryana,Panchkula,"Sector-6, Panchkula - HSPCB ",26-04-2024 02:00:00,30.7057778,76.8531805555555,NO2,9,10,10
India,Haryana,Panchkula,"Sector-6, Panchkula - HSPCB ",26-04-2024 02:00:00,30.7057778,76.8531805555555,CO,1,27,2
India,Haryana,Panipat,"Sector-18, Panipat - HSPCB",26-04-2024 02:00:00,29.497973,76.993331,PM2.5,NA,NA,NA
India,Haryana,Panipat,"Sector-18, Panipat - HSPCB",26-04-2024 02:00:00,29.497973,76.993331,NH3,NA,NA,NA
India,Haryana,Rohtak,"MD University, Rohtak - HSPCB",26-04-2024 02:00:00,28.52123,76.37138,OZONE,45,56,50
India,Haryana,Sonipat,"Murthal, Sonipat - HSPCB",26-04-2024 02:00:00,29.027200,77.062100,SO2,13,29,20
India,Haryana,Sonipat,"Murthal, Sonipat - HSPCB",26-04-2024 02:00:00,29.027200,77.062100,CO,6,24,14
India,Haryana,Yamuna Nagar,"Gobind Pura, Yamuna Nagar - HSPCB",26-04-2024 02:00:00,30.1480566,77.2893471,CO,28,60,45
India,Jharkhand,Dhanbad,"Kalakusuma, Dhanbad - DMC",26-04-2024 02:00:00,23.811548,86.481238,CO,128,134,131
India,Jharkhand,Dhanbad,"Kalakusuma, Dhanbad - DMC",26-04-2024 02:00:00,23.811548,86.481238,OZONE,29,55,48
India,Jharkhand,Dhanbad,"Sardar Patel Nagar, Dhanbad - JSPCB",26-04-2024 02:00:00,23.80569,86.44268,PM10,46,258,149
India,Karnataka,Bagalkot,"Vidayagiri, Bagalkot - KSPCB",26-04-2024 02:00:00,16.172806,75.659694,NO2,9,11,9
India,Karnataka,Bagalkot,"Vidayagiri, Bagalkot - KSPCB",26-04-2024 02:00:00,16.172806,75.659694,NH3,1,2,1
India,Karnataka,Bengaluru,"BTM Layout, Bengaluru - CPCB",26-04-2024 02:00:00,12.9135218,77.5950804,NH3,4,4,4
India,Karnataka,Bengaluru,"BTM Layout, Bengaluru - CPCB",26-04-2024 02:00:00,12.9135218,77.5950804,OZONE,8,88,48
India,Karnataka,Bengaluru,"Bapuji Nagar, Bengaluru - KSPCB",26-04-2024 02:00:00,12.951913,77.539784,SO2,5,8,7
India,Karnataka,Bengaluru,"Hebbal, Bengaluru - KSPCB",26-04-2024 02:00:00,13.029152,77.585901,OZONE,8,32,9
India,Karnataka,Bengaluru,"Jayanagar 5th Block, Bengaluru - KSPCB",26-04-2024 02:00:00,12.920984,77.584908,NH3,NA,NA,NA
India,Karnataka,Bengaluru,"Kasturi Nagar, Bengaluru - KSPCB",26-04-2024 02:00:00,13.003872,77.664217,NO2,16,17,17
India,Karnataka,Bengaluru,"Kasturi Nagar, Bengaluru - KSPCB",26-04-2024 02:00:00,13.003872,77.664217,OZONE,11,103,62
India,Karnataka,Bengaluru,"Peenya, Bengaluru - CPCB",26-04-2024 02:00:00,13.0270199,77.494094,NH3,3,5,3
India,Karnataka,Bengaluru,"Peenya, Bengaluru - CPCB",26-04-2024 02:00:00,13.0270199,77.494094,CO,32,54,42
India,Karnataka,Bengaluru,"Peenya, Bengaluru - CPCB",26-04-2024 02:00:00,13.0270199,77.494094,OZONE,7,36,17
India,Karnataka,Bengaluru,"Shivapura_Peenya, Bengaluru - KSPCB",26-04-2024 02:00:00,13.0246342,77.5080115,NO2,15,16,15
India,Karnataka,Bengaluru,"Shivapura_Peenya, Bengaluru - KSPCB",26-04-2024 02:00:00,13.0246342,77.5080115,CO,23,45,36
India,Karnataka,Chamarajanagar,"Urban, Chamarajanagar - KSPCB",26-04-2024 02:00:00,11.55358,76.55521,NH3,1,2,2
India,Karnataka,Chamarajanagar,"Urban, Chamarajanagar - KSPCB",26-04-2024 02:00:00,11.55358,76.55521,OZONE,14,56,22
India,Karnataka,Chikkaballapur,"Chikkaballapur Rural, Chikkaballapur - KSPCB",26-04-2024 02:00:00,13.428828,77.731418,NO2,6,17,9
India,Karnataka,Chikkaballapur,"Chikkaballapur Rural, Chikkaballapur - KSPCB",26-04-2024 02:00:00,13.428828,77.731418,NH3,1,1,1
India,Karnataka,Chikkaballapur,"Chikkaballapur Rural, Chikkaballapur - KSPCB",26-04-2024 02:00:00,13.428828,77.731418,CO,16,42,18
India,Karnataka,Chikkamagaluru,"Kalyana Nagara, Chikkamagaluru - KSPCB",26-04-2024 02:00:00,13.328028,75.797056,PM2.5,NA,NA,NA
India,Karnataka,Davanagere,"Devaraj Urs Badavane, Davanagere - KSPCB",26-04-2024 02:00:00,14.475800,75.905200,PM2.5,37,107,62
India,Karnataka,Davanagere,"Devaraj Urs Badavane, Davanagere - KSPCB",26-04-2024 02:00:00,14.475800,75.905200,PM10,50,142,78
India,Karnataka,Davanagere,"Devaraj Urs Badavane, Davanagere - KSPCB",26-04-2024 02:00:00,14.475800,75.905200,NO2,11,19,14
India,Karnataka,Davanagere,"Devaraj Urs Badavane, Davanagere - KSPCB",26-04-2024 02:00:00,14.475800,75.905200,NH3,1,2,1
India,Karnataka,Dharwad,"Kalabhavan, Dharwad - KSPCB",26-04-2024 02:00:00,15.459706,75.008381,OZONE,2,21,3
India,Karnataka,Gadag,"Panchal Nagar, Gadag - KSPCB",26-04-2024 02:00:00,15.411456,75.638133,PM10,34,58,42
India,Karnataka,Gadag,"Panchal Nagar, Gadag - KSPCB",26-04-2024 02:00:00,15.411456,75.638133,NH3,1,3,2
India,Karnataka,Hassan,"B.Katihalli, Hassan - KSPCB",26-04-2024 02:00:00,13.008556,76.125258,SO2,21,37,26
India,Karnataka,Haveri,"Ashwini Nagar, Haveri - KSPCB",26-04-2024 02:00:00,14.791800,75.389600,PM2.5,38,68,58
India,Karnataka,Haveri,"Ashwini Nagar, Haveri - KSPCB",26-04-2024 02:00:00,14.791800,75.389600,PM10,NA,NA,NA
India,Karnataka,Hubballi,"Deshpande Nagar, Hubballi - KSPCB",26-04-2024 02:00:00,15.351773,75.140726,PM10,NA,NA,NA
India,Karnataka,Hubballi,"Lingaraj Nagar, Hubballi - KSPCB",26-04-2024 02:00:00,15.3714823,75.1160168,NH3,2,2,2
India,Karnataka,Hubballi,"Lingaraj Nagar, Hubballi - KSPCB",26-04-2024 02:00:00,15.3714823,75.1160168,CO,2,34,16
India,Karnataka,Hubballi,"Lingaraj Nagar, Hubballi - KSPCB",26-04-2024 02:00:00,15.3714823,75.1160168,OZONE,21,87,49
India,Karnataka,Kalaburagi,"Lal Bahadur Shastri Nagar, Kalaburagi - KSPCB",26-04-2024 02:00:00,17.321993,76.822628,PM10,18,126,55
India,Karnataka,Kalaburagi,"Mahatma Basaveswar Colony, Kalaburgi - KSPCB",26-04-2024 02:00:00,17.336318,76.847397,PM10,22,61,43
India,Karnataka,Kalaburagi,"Mahatma Basaveswar Colony, Kalaburgi - KSPCB",26-04-2024 02:00:00,17.336318,76.847397,OZONE,11,46,26
India,Karnataka,Karwar,"KHB Colony, Karwar - KSPCB",26-04-2024 02:00:00,14.816666,74.141003,NH3,1,23,2
India,Karnataka,Karwar,"KHB Colony, Karwar - KSPCB",26-04-2024 02:00:00,14.816666,74.141003,SO2,21,22,22
India,Karnataka,Kolar,"Tamaka Ind. Area, Kolar - KSPCB",26-04-2024 02:00:00,13.1276288,78.1570122,NO2,20,77,36
India,Karnataka,Koppal,"Diwator Nagar, Koppal - KSPCB",26-04-2024 02:00:00,15.347630,76.181767,PM10,20,80,38
India,Karnataka,Madikeri,"Stuart Hill, Madikeri - KSPCB",26-04-2024 02:00:00,12.415911,75.735050,NO2,4,16,7
India,Karnataka,Madikeri,"Stuart Hill, Madikeri - KSPCB",26-04-2024 02:00:00,12.415911,75.735050,SO2,4,4,4
India,Karnataka,Mysuru,"Hebbal 1st Stage, Mysuru - KSPCB",26-04-2024 02:00:00,12.21041,76.37376,NH3,2,2,2
India,Karnataka,Ramanagara,"Vijay Nagar, Ramanagara - KSPCB",26-04-2024 02:00:00,12.733409,77.298051,NO2,3,12,6
India,Karnataka,Ramanagara,"Vijay Nagar, Ramanagara - KSPCB",26-04-2024 02:00:00,12.733409,77.298051,NH3,1,2,1
India,Karnataka,Ramanagara,"Vijay Nagar, Ramanagara - KSPCB",26-04-2024 02:00:00,12.733409,77.298051,SO2,4,34,20
India,Karnataka,Shivamogga,"Vinoba Nagara, Shivamogga - KSPCB",26-04-2024 02:00:00,13.940000,75.555917,PM10,42,75,55
India,Karnataka,Tumakuru,"Thimmalapura, Tumakuru - KSPCB",26-04-2024 02:00:00,13.377516,77.099072,NH3,NA,NA,NA
India,Karnataka,Vijayapura,"Ibrahimpur, Vijayapura - KSPCB",26-04-2024 02:00:00,16.802639,75.722694,PM10,41,44,42
India,Karnataka,Yadgir,"Collector Office, Yadgir - KSPCB",26-04-2024 02:00:00,16.7602,77.1428,PM10,52,86,67
India,Karnataka,Yadgir,"Collector Office, Yadgir - KSPCB",26-04-2024 02:00:00,16.7602,77.1428,SO2,6,61,19
India,Kerala,Kollam,"Polayathode, Kollam - Kerala PCB",26-04-2024 02:00:00,8.8787,76.6073,PM10,54,101,77
India,Kerala,Kollam,"Polayathode, Kollam - Kerala PCB",26-04-2024 02:00:00,8.8787,76.6073,NH3,1,1,1
India,Kerala,Thiruvananthapuram,"Kariavattom, Thiruvananthapuram - Kerala PCB",26-04-2024 02:00:00,8.563700,76.886500,PM10,80,93,87
India,Kerala,Thiruvananthapuram,"Kariavattom, Thiruvananthapuram - Kerala PCB",26-04-2024 02:00:00,8.563700,76.886500,NH3,1,1,1
India,Kerala,Thiruvananthapuram,"Plammoodu, Thiruvananthapuram - Kerala PCB",26-04-2024 02:00:00,8.5149093,76.9435879,PM2.5,6,43,23
India,Kerala,Thiruvananthapuram,"Plammoodu, Thiruvananthapuram - Kerala PCB",26-04-2024 02:00:00,8.5149093,76.9435879,OZONE,6,56,22
India,Kerala,Thrissur,"Corporation Ground, Thrissur - Kerala PCB",26-04-2024 02:00:00,10.532400,76.215900,PM2.5,43,52,48
India,Kerala,Thrissur,"Corporation Ground, Thrissur - Kerala PCB",26-04-2024 02:00:00,10.532400,76.215900,NO2,7,8,7
India,Madhya Pradesh,Bhopal,"Idgah Hills, Bhopal - MPPCB",26-04-2024 02:00:00,23.264759,77.381568,CO,24,86,59
India,Madhya Pradesh,Bhopal,"Paryavaran Parisar, Bhopal - MPPCB",26-04-2024 02:00:00,23.210494,77.425409,NH3,6,9,7
India,Madhya Pradesh,Bhopal,"T T Nagar, Bhopal - MPPCB",26-04-2024 02:00:00,23.233584,77.400574,PM2.5,27,92,45
India,Madhya Pradesh,Bhopal,"T T Nagar, Bhopal - MPPCB",26-04-2024 02:00:00,23.233584,77.400574,OZONE,36,80,51
India,Madhya Pradesh,Dewas,"Bhopal Chauraha, Dewas - MPPCB",26-04-2024 02:00:00,22.9682591,76.064118,NO2,12,15,13
India,Madhya Pradesh,Dewas,"Bhopal Chauraha, Dewas - MPPCB",26-04-2024 02:00:00,22.9682591,76.064118,NH3,3,3,3
India,Madhya Pradesh,Gwalior,"City Center, Gwalior - MPPCB",26-04-2024 02:00:00,26.203442,78.193251,NH3,3,9,5
India,Madhya Pradesh,Gwalior,"Deen Dayal Nagar, Gwalior - MPPCB",26-04-2024 02:00:00,26.259242,78.216432,PM10,55,302,130
India,Madhya Pradesh,Gwalior,"Deen Dayal Nagar, Gwalior - MPPCB",26-04-2024 02:00:00,26.259242,78.216432,CO,30,74,39
India,Madhya Pradesh,Gwalior,"Deen Dayal Nagar, Gwalior - MPPCB",26-04-2024 02:00:00,26.259242,78.216432,OZONE,21,203,103
India,Madhya Pradesh,Gwalior,"Maharaj Bada, Gwalior - MPPCB",26-04-2024 02:00:00,26.200388,78.147714,PM10,36,260,130
India,Madhya Pradesh,Gwalior,"Maharaj Bada, Gwalior - MPPCB",26-04-2024 02:00:00,26.200388,78.147714,NO2,22,131,55
India,Madhya Pradesh,Gwalior,"Phool Bagh, Gwalior - Mondelez Ind. Food",26-04-2024 02:00:00,26.210536,78.171,NO2,4,5,4
India,Madhya Pradesh,Indore,"Chhoti Gwaltoli, Indore - MPPCB",26-04-2024 02:00:00,22.4310,75.5213,PM10,72,147,107
India,Madhya Pradesh,Indore,"Chhoti Gwaltoli, Indore - MPPCB",26-04-2024 02:00:00,22.4310,75.5213,NH3,3,5,4
India,Madhya Pradesh,Indore,"Maguda Nagar, Indore - IMC",26-04-2024 02:00:00,22.7524,75.8872,PM10,33,76,54
India,Madhya Pradesh,Indore,"Maguda Nagar, Indore - IMC",26-04-2024 02:00:00,22.7524,75.8872,NH3,1,1,1
India,Madhya Pradesh,Indore,"Regional Park, Indore - IMC",26-04-2024 02:00:00,22.6780,75.8559,NH3,1,3,2
India,Madhya Pradesh,Indore,"Residency Area, Indore - IMC",26-04-2024 02:00:00,22.7084,75.8815,PM2.5,33,86,55
India,Madhya Pradesh,Indore,"Residency Area, Indore - IMC",26-04-2024 02:00:00,22.7084,75.8815,CO,14,18,16
India,Madhya Pradesh,Indore,"Residency Area, Indore - IMC",26-04-2024 02:00:00,22.7084,75.8815,OZONE,9,19,11
India,Madhya Pradesh,Jabalpur,"Govindh Bhavan Colony, Jabalpur - JMC",26-04-2024 02:00:00,23.163174,79.973061,NH3,NA,NA,NA
India,Madhya Pradesh,Jabalpur,"Gupteshwar, Jabalpur - JMC",26-04-2024 02:00:00,23.142888,79.916147,NO2,14,35,23
India,Madhya Pradesh,Jabalpur,"Marhatal, Jabalpur - MPPCB",26-04-2024 02:00:00,23.168606,79.932247,PM2.5,21,98,48
India,Madhya Pradesh,Jabalpur,"Marhatal, Jabalpur - MPPCB",26-04-2024 02:00:00,23.168606,79.932247,CO,14,74,44
India,Madhya Pradesh,Jabalpur,"Suhagi, Jabalpur - JMC",26-04-2024 02:00:00,23.218135,79.957770,PM2.5,23,87,52
India,Madhya Pradesh,Jabalpur,"Suhagi, Jabalpur - JMC",26-04-2024 02:00:00,23.218135,79.957770,SO2,6,109,12
India,Madhya Pradesh,Katni,"Gole Bazar, Katni - MPPCB",26-04-2024 02:00:00,23.50016,80.23284,PM10,58,153,94
India,Madhya Pradesh,Mandideep,"Sector-D Industrial Area, Mandideep - MPPCB",26-04-2024 02:00:00,23.108440,77.511428,PM10,53,226,98
India,Madhya Pradesh,Sagar,"Civil Lines, Sagar - MPPCB",26-04-2024 02:00:00,23.838586,78.759431,PM10,28,101,65
India,Madhya Pradesh,Sagar,"Civil Lines, Sagar - MPPCB",26-04-2024 02:00:00,23.838586,78.759431,SO2,4,8,6
India,Madhya Pradesh,Sagar,"Deen Dayal Nagar, Sagar - MPPCB",26-04-2024 02:00:00,23.8640158,78.80289321,NO2,23,24,24
India,Madhya Pradesh,Sagar,"Deen Dayal Nagar, Sagar - MPPCB",26-04-2024 02:00:00,23.8640158,78.80289321,SO2,NA,NA,NA
India,Madhya Pradesh,Singrauli,"Suryakiran Bhawan NCL, Singrauli - MPPCB",26-04-2024 02:00:00,24.108970,82.645580,NO2,11,100,54
India,Madhya Pradesh,Singrauli,"Suryakiran Bhawan NCL, Singrauli - MPPCB",26-04-2024 02:00:00,24.108970,82.645580,SO2,38,97,48
India,Madhya Pradesh,Ujjain,"Mahakaleshwar Temple, Ujjain - MPPCB",26-04-2024 02:00:00,23.182719 ,75.768218 ,NO2,NA,NA,NA
India,Maharashtra,Ahmednagar,"Tarakpur, Ahmednagar - MPCB",26-04-2024 02:00:00,19.10122,74.73339,SO2,NA,NA,NA
India,Maharashtra,Akola,"Ramdaspeth, Akola - MPCB",26-04-2024 02:00:00,20.719516,77.000253,NH3,4,10,6
India,Maharashtra,Akola,"Ramdaspeth, Akola - MPCB",26-04-2024 02:00:00,20.719516,77.000253,OZONE,18,89,53
India,Maharashtra,Amravati,"Shivneri Colony, Amravati - MPCB",26-04-2024 02:00:00,20.9402359,77.7895248,PM10,47,103,68
India,Maharashtra,Amravati,"Shivneri Colony, Amravati - MPCB",26-04-2024 02:00:00,20.9402359,77.7895248,NH3,1,3,2
India,Maharashtra,Amravati,"Shivneri Colony, Amravati - MPCB",26-04-2024 02:00:00,20.9402359,77.7895248,SO2,1,11,2
India,Maharashtra,Amravati,"Shivneri Colony, Amravati - MPCB",26-04-2024 02:00:00,20.9402359,77.7895248,OZONE,24,109,62
India,Maharashtra,Amravati,"Shri Shivaji Science College, Amaravati - MPCB",26-04-2024 02:00:00,20.939198,77.765701,PM10,44,114,63
India,Maharashtra,Aurangabad,"MIDC Chilkalthana, Aurangabad - MPCB",26-04-2024 02:00:00,19.875620,75.387310,PM2.5,56,91,73
India,Maharashtra,Aurangabad,"MIDC Chilkalthana, Aurangabad - MPCB",26-04-2024 02:00:00,19.875620,75.387310,NH3,3,4,3
India,Maharashtra,Aurangabad,"Rachnakar Colony, Aurangabad - MPCB",26-04-2024 02:00:00,19.863756,75.321188,NH3,1,2,1
India,Maharashtra,Aurangabad,"Rachnakar Colony, Aurangabad - MPCB",26-04-2024 02:00:00,19.863756,75.321188,OZONE,26,128,45
India,Maharashtra,Belapur,"CBD Belapur, Belapur - MPCB",26-04-2024 02:00:00,19.0243902,73.0406721,CO,12,38,28
India,Maharashtra,Bhiwandi,"Gokul Nagar, Bhiwandi - MPCB",26-04-2024 02:00:00,19.309073,73.057223,SO2,19,29,22
India,Maharashtra,Boisar,"Khaira, Boisar - MPCB",26-04-2024 02:00:00,19.786089,72.757971,PM2.5,13,148,82
India,Maharashtra,Chandrapur,"Chauhan Colony, Chandrapur - MPCB",26-04-2024 02:00:00,19.962900,79.298714,CO,24,30,26
India,Maharashtra,Jalgaon,"Prabhat Colony, Jalgaon - MPCB",26-04-2024 02:00:00,21.001264,75.565602,PM10,90,180,125
India,Maharashtra,Jalgaon,"Prabhat Colony, Jalgaon - MPCB",26-04-2024 02:00:00,21.001264,75.565602,CO,12,66,32
India,Maharashtra,Jalna,"Old MIDC, Jalna - MPCB",26-04-2024 02:00:00,19.854616,75.905894,CO,18,37,27
India,Maharashtra,Kalyan,"Khadakpada, Kalyan - MPCB",26-04-2024 02:00:00,19.25292,73.142019,PM2.5,21,61,37
India,Maharashtra,Kalyan,"Khadakpada, Kalyan - MPCB",26-04-2024 02:00:00,19.25292,73.142019,OZONE,8,16,10
India,Maharashtra,Kolhapur,"Shivaji University, Kolhapur - MPCB",26-04-2024 02:00:00,16.6870449,74.2505872,PM2.5,50,169,96
India,Maharashtra,Kolhapur,"Sinchan Bhavan, Kolhapur - MPCB",26-04-2024 02:00:00,16.7143745,74.2426398,PM2.5,17,127,59
India,Maharashtra,Latur,"Sawe Wadi, Latur - MPCB",26-04-2024 02:00:00,18.39963,76.57452,CO,10,125,76
India,Maharashtra,Mahad,"Kamble Tarf Birwadi, Mahad - MPCB",26-04-2024 02:00:00,18.1023399,73.4783687,PM2.5,52,104,74
India,Maharashtra,Mira-Bhayandar,"Bhayandar West, Mira-Bhayandar - MPCB",26-04-2024 02:00:00,19.296481,72.840923,NO2,5,33,13
India,Maharashtra,Mira-Bhayandar,"Bhayandar West, Mira-Bhayandar - MPCB",26-04-2024 02:00:00,19.296481,72.840923,SO2,2,6,3
India,Maharashtra,Mumbai,"Bandra Kurla Complex, Mumbai - MPCB",26-04-2024 02:00:00,19.065931,72.862131,NO2,2,18,8
India,Maharashtra,Mumbai,"Borivali East, Mumbai - IITM",26-04-2024 02:00:00,19.23241,72.86895,NO2,52,84,67
India,Maharashtra,Mumbai,"Byculla, Mumbai - BMC",26-04-2024 02:00:00,18.9767,72.8380,SO2,2,8,2
India,Maharashtra,Mumbai,"Chakala-Andheri East, Mumbai - IITM",26-04-2024 02:00:00,19.11074,72.86084,PM2.5,52,310,121
India,Maharashtra,Mumbai,"Chakala-Andheri East, Mumbai - IITM",26-04-2024 02:00:00,19.11074,72.86084,PM10,62,472,191
India,Maharashtra,Mumbai,"Chakala-Andheri East, Mumbai - IITM",26-04-2024 02:00:00,19.11074,72.86084,SO2,14,50,27
India,Maharashtra,Mumbai,"Chhatrapati Shivaji Intl. Airport (T2), Mumbai - MPCB",26-04-2024 02:00:00,19.10078,72.87462,PM10,69,130,102
India,Maharashtra,Mumbai,"Chhatrapati Shivaji Intl. Airport (T2), Mumbai - MPCB",26-04-2024 02:00:00,19.10078,72.87462,OZONE,3,6,4
India,Maharashtra,Mumbai,"Colaba, Mumbai - MPCB",26-04-2024 02:00:00,18.910000,72.820000,PM2.5,19,48,35
India,Maharashtra,Mumbai,"Deonar, Mumbai - IITM",26-04-2024 02:00:00,19.04946,72.9230,NO2,13,19,16
India,Maharashtra,Mumbai,"Kandivali East, Mumbai - MPCB",26-04-2024 02:00:00,19.205800,72.868200,PM10,55,113,83
India,Maharashtra,Mumbai,"Kandivali East, Mumbai - MPCB",26-04-2024 02:00:00,19.205800,72.868200,NO2,20,76,32
India,Maharashtra,Mumbai,"Kandivali East, Mumbai - MPCB",26-04-2024 02:00:00,19.205800,72.868200,CO,30,34,32
India,Maharashtra,Mumbai,"Kandivali West, Mumbai - BMC",26-04-2024 02:00:00,19.215859,72.831718,OZONE,12,71,39
India,Maharashtra,Mumbai,"Kherwadi_Bandra East, Mumbai - MPCB",26-04-2024 02:00:00,19.0632143,72.8456324,NO2,7,54,18
India,Maharashtra,Mumbai,"Khindipada-Bhandup West, Mumbai - IITM",26-04-2024 02:00:00,19.1653323,72.922099,PM2.5,28,68,48
India,Maharashtra,Mumbai,"Khindipada-Bhandup West, Mumbai - IITM",26-04-2024 02:00:00,19.1653323,72.922099,NH3,1,3,2
India,Maharashtra,Mumbai,"Kurla, Mumbai - MPCB",26-04-2024 02:00:00,19.0863,72.8888,PM2.5,21,198,51
India,Maharashtra,Mumbai,"Kurla, Mumbai - MPCB",26-04-2024 02:00:00,19.0863,72.8888,NO2,14,19,16
India,Maharashtra,Mumbai,"Kurla, Mumbai - MPCB",26-04-2024 02:00:00,19.0863,72.8888,NH3,2,2,2
India,Maharashtra,Mumbai,"Kurla, Mumbai - MPCB",26-04-2024 02:00:00,19.0863,72.8888,OZONE,28,43,28
India,Maharashtra,Mumbai,"Mindspace-Malad West, Mumbai - MPCB",26-04-2024 02:00:00,19.1878657,72.8304069,PM2.5,32,81,49
India,Maharashtra,Mumbai,"Mindspace-Malad West, Mumbai - MPCB",26-04-2024 02:00:00,19.1878657,72.8304069,NO2,14,82,32
India,Maharashtra,Mumbai,"Mulund West, Mumbai - MPCB",26-04-2024 02:00:00,19.1750,72.9419,PM2.5,34,78,55
India,Maharashtra,Mumbai,"Mulund West, Mumbai - MPCB",26-04-2024 02:00:00,19.1750,72.9419,NH3,10,11,10
India,Maharashtra,Mumbai,"Mulund West, Mumbai - MPCB",26-04-2024 02:00:00,19.1750,72.9419,CO,37,37,37
India,Maharashtra,Mumbai,"Navy Nagar-Colaba, Mumbai - IITM",26-04-2024 02:00:00,18.897756,72.813320,CO,11,34,22
India,Maharashtra,Mumbai,"Powai, Mumbai - MPCB",26-04-2024 02:00:00,19.137500,72.915056,PM2.5,22,43,32
India,Maharashtra,Mumbai,"Powai, Mumbai - MPCB",26-04-2024 02:00:00,19.137500,72.915056,NH3,1,2,1
India,Maharashtra,Mumbai,"Powai, Mumbai - MPCB",26-04-2024 02:00:00,19.137500,72.915056,SO2,35,51,41
India,Maharashtra,Mumbai,"Sewri, Mumbai - BMC",26-04-2024 02:00:00,19.000084,72.856730,CO,8,36,22
India,Maharashtra,Mumbai,"Shivaji Nagar, Mumbai - BMC",26-04-2024 02:00:00,19.060498,72.923356,PM2.5,17,52,35
India,Maharashtra,Mumbai,"Siddharth Nagar-Worli, Mumbai - IITM",26-04-2024 02:00:00,19.000083,72.813993,NO2,20,37,26
India,Maharashtra,Mumbai,"Sion, Mumbai - MPCB",26-04-2024 02:00:00,19.047000,72.874600,NO2,63,71,67
India,Maharashtra,Mumbai,"Vasai West, Mumbai - MPCB",26-04-2024 02:00:00,19.383200,72.820400,PM2.5,15,93,44
India,Maharashtra,Mumbai,"Vasai West, Mumbai - MPCB",26-04-2024 02:00:00,19.383200,72.820400,PM10,51,129,84
India,Maharashtra,Mumbai,"Vasai West, Mumbai - MPCB",26-04-2024 02:00:00,19.383200,72.820400,NO2,26,28,27
India,Maharashtra,Mumbai,"Vile Parle West, Mumbai - MPCB",26-04-2024 02:00:00,19.10861,72.83622,NH3,9,11,11
India,Maharashtra,Mumbai,"Vile Parle West, Mumbai - MPCB",26-04-2024 02:00:00,19.10861,72.83622,CO,2,2,2
India,Maharashtra,Nagpur,"Ambazari, Nagpur - MPCB",26-04-2024 02:00:00,21.121801,79.04952,PM10,35,64,51
India,Maharashtra,Nagpur,"Mahal, Nagpur - MPCB",26-04-2024 02:00:00,21.14472,79.107595,PM10,35,86,58
India,Maharashtra,Nagpur,"Mahal, Nagpur - MPCB",26-04-2024 02:00:00,21.14472,79.107595,SO2,11,40,23
India,Maharashtra,Nagpur,"Opp GPO Civil Lines, Nagpur - MPCB",26-04-2024 02:00:00,21.152875,79.0517531,PM10,32,64,44
India,Maharashtra,Nanded,"Sneh Nagar, Nanded - MPCB",26-04-2024 02:00:00,19.173852,77.296291,NO2,NA,NA,NA
India,Maharashtra,Nanded,"Sneh Nagar, Nanded - MPCB",26-04-2024 02:00:00,19.173852,77.296291,NH3,NA,NA,NA
India,Maharashtra,Nashik,"Gangapur Road, Nashik - MPCB",26-04-2024 02:00:00,20.0073285,73.7762427,PM10,55,116,81
India,Maharashtra,Nashik,"Gangapur Road, Nashik - MPCB",26-04-2024 02:00:00,20.0073285,73.7762427,SO2,5,16,9
India,Maharashtra,Navi Mumbai,"Kopripada-Vashi, Navi Mumbai - MPCB",26-04-2024 02:00:00,19.090337,73.014232,OZONE,8,193,31
India,Maharashtra,Navi Mumbai,"Mahape, Navi Mumbai - MPCB",26-04-2024 02:00:00,19.1135051,73.008978,SO2,22,23,23
India,Maharashtra,Navi Mumbai,"Nerul, Navi Mumbai - MPCB",26-04-2024 02:00:00,19.008751,73.016620,PM10,86,207,132
India,Maharashtra,Navi Mumbai,"Nerul, Navi Mumbai - MPCB",26-04-2024 02:00:00,19.008751,73.016620,NH3,2,3,2
India,Maharashtra,Navi Mumbai,"Nerul, Navi Mumbai - MPCB",26-04-2024 02:00:00,19.008751,73.016620,SO2,14,16,15
India,Maharashtra,Navi Mumbai,"Sanpada, Navi Mumbai - MPCB",26-04-2024 02:00:00,19.0575752,73.0151367,CO,1,16,9
India,Maharashtra,Navi Mumbai,"Sanpada, Navi Mumbai - MPCB",26-04-2024 02:00:00,19.0575752,73.0151367,OZONE,9,119,30
India,Maharashtra,Navi Mumbai,"Sector-2E Kalamboli, Navi Mumbai - MPCB",26-04-2024 02:00:00,19.02579,73.10297,NH3,1,4,2
India,Maharashtra,Navi Mumbai,"Tondare-Taloja, Navi Mumbai - MPCB",26-04-2024 02:00:00,19.0630,73.1209,OZONE,1,96,13
India,Maharashtra,Parbhani,"Masoom Colony, Parbhani - MPCB",26-04-2024 02:00:00,19.265594,76.761463,NO2,18,79,38
India,Maharashtra,Pimpri-Chinchwad,"Park Street Wakad, Pimpri Chinchwad - MPCB",26-04-2024 02:00:00,18.59051,73.77946,NO2,37,93,64
India,Maharashtra,Pimpri-Chinchwad,"Park Street Wakad, Pimpri Chinchwad - MPCB",26-04-2024 02:00:00,18.59051,73.77946,OZONE,11,114,62
India,Maharashtra,Pune,"Bhosari, Pune - IITM",26-04-2024 02:00:00,18.640051,73.848956,NO2,NA,NA,NA
India,Maharashtra,Pune,"Bhosari, Pune - IITM",26-04-2024 02:00:00,18.640051,73.848956,OZONE,NA,NA,NA
India,Maharashtra,Pune,"Karve Road, Pune - MPCB",26-04-2024 02:00:00,18.5011743,73.8165527,PM2.5,13,121,54
India,Maharashtra,Pune,"Karve Road, Pune - MPCB",26-04-2024 02:00:00,18.5011743,73.8165527,PM10,23,161,90
India,Maharashtra,Pune,"Karve Road, Pune - MPCB",26-04-2024 02:00:00,18.5011743,73.8165527,SO2,4,31,15
India,Maharashtra,Pune,"Karve Road, Pune - MPCB",26-04-2024 02:00:00,18.5011743,73.8165527,OZONE,21,217,104
India,Maharashtra,Pune,"Mhada Colony, Pune - IITM",26-04-2024 02:00:00,18.573040,73.927715,NO2,9,48,29
India,Maharashtra,Pune,"Mhada Colony, Pune - IITM",26-04-2024 02:00:00,18.573040,73.927715,CO,17,107,72
India,Maharashtra,Pune,"Mhada Colony, Pune - IITM",26-04-2024 02:00:00,18.573040,73.927715,OZONE,5,94,48
India,Maharashtra,Pune,"Transport Nagar-Nigdi, Pune - IITM",26-04-2024 02:00:00,18.664282,73.763966,PM2.5,27,67,42
India,Maharashtra,Pune,"Transport Nagar-Nigdi, Pune - IITM",26-04-2024 02:00:00,18.664282,73.763966,NO2,12,14,13
India,Maharashtra,Sangli,"Vijay Nagar, Sangli - MPCB",26-04-2024 02:00:00, 16.5038,74.3623,NH3,1,2,2
India,Maharashtra,Sangli,"Vijay Nagar, Sangli - MPCB",26-04-2024 02:00:00, 16.5038,74.3623,OZONE,19,149,84
India,Maharashtra,Solapur,"Dnyaneshwar Nagar, Solapur - MPCB",26-04-2024 02:00:00,17.6336264,75.9132495,PM10,75,115,97
India,Maharashtra,Solapur,"Ratandeep Housing Society, Solapur - MPCB",26-04-2024 02:00:00,17.65439,75.90649,PM10,65,127,77
India,Maharashtra,Solapur,"Solapur, Solapur - MPCB",26-04-2024 02:00:00,17.6599188,75.9063906,PM10,118,141,135
India,Maharashtra,Thane,"Pimpleshwar Mandir, Thane - MPCB",26-04-2024 02:00:00,19.192056,72.9585188,NO2,23,78,32
India,Maharashtra,Thane,"Upvan Fort, Thane - MPCB",26-04-2024 02:00:00,19.222279,72.957979,PM2.5,13,87,35
India,Maharashtra,Thane,"Upvan Fort, Thane - MPCB",26-04-2024 02:00:00,19.222279,72.957979,PM10,42,87,65
India,Maharashtra,Thane,"Upvan Fort, Thane - MPCB",26-04-2024 02:00:00,19.222279,72.957979,NH3,4,6,5
India,Maharashtra,Ulhasnagar,"Sidhi Vinayak Nagar, Ulhasnagar - MPCB",26-04-2024 02:00:00,19.235581,73.159121,PM2.5,58,149,90
India,Maharashtra,Ulhasnagar,"Sidhi Vinayak Nagar, Ulhasnagar - MPCB",26-04-2024 02:00:00,19.235581,73.159121,NO2,6,58,16
India,Maharashtra,Ulhasnagar,"Sidhi Vinayak Nagar, Ulhasnagar - MPCB",26-04-2024 02:00:00,19.235581,73.159121,NH3,2,3,2
India,Maharashtra,Ulhasnagar,"Sidhi Vinayak Nagar, Ulhasnagar - MPCB",26-04-2024 02:00:00,19.235581,73.159121,OZONE,3,152,36
India,Maharashtra,Virar,"Bolinj, Virar - MPCB",26-04-2024 02:00:00,19.4458210,72.7988231,CO,3,103,44
India,Manipur,Imphal,"DM College of Science, Imphal - Manipur PCB",26-04-2024 02:00:00,24.8207389,93.9423085,PM10,12,40,26
India,Manipur,Imphal,"DM College of Science, Imphal - Manipur PCB",26-04-2024 02:00:00,24.8207389,93.9423085,NO2,7,8,7
India,Manipur,Imphal,"DM College of Science, Imphal - Manipur PCB",26-04-2024 02:00:00,24.8207389,93.9423085,SO2,95,100,98
India,Manipur,Imphal,"DM College of Science, Imphal - Manipur PCB",26-04-2024 02:00:00,24.8207389,93.9423085,CO,6,7,6
India,Meghalaya,Shillong,"Lumpyngngad, Shillong - Meghalaya PCB",26-04-2024 02:00:00,25.5586,91.8985,SO2,39,58,43
India,Mizoram,Aizawl,"Sikulpuikawn, Aizawl - Mizoram PCB",26-04-2024 02:00:00,23.7176342,92.7192841,SO2,2,3,2
India,Mizoram,Aizawl,"Sikulpuikawn, Aizawl - Mizoram PCB",26-04-2024 02:00:00,23.7176342,92.7192841,CO,12,22,20
India,Nagaland,Kohima,"PWD Juction, Kohima - NPCB",26-04-2024 02:00:00,25.6635413,94.0989878,PM10,89,121,102
India,Odisha,Balasore,"Kalidaspur, Balasore - OSPCB",26-04-2024 02:00:00,21.51161,86.89088,PM10,98,286,143
India,Odisha,Balasore,"Kalidaspur, Balasore - OSPCB",26-04-2024 02:00:00,21.51161,86.89088,NO2,7,59,22
India,Odisha,Balasore,"Kalidaspur, Balasore - OSPCB",26-04-2024 02:00:00,21.51161,86.89088,CO,24,102,56
India,Odisha,Barbil,"Forest Office, Barbil - OSPCB",26-04-2024 02:00:00,22.1166054,85.3945546,NO2,1,1,1
India,Odisha,Barbil,"Forest Office, Barbil - OSPCB",26-04-2024 02:00:00,22.1166054,85.3945546,CO,28,76,61
India,Odisha,Baripada,"Meher Colony, Baripada - OSPCB",26-04-2024 02:00:00,21.941841,86.728318,NO2,NA,NA,NA
India,Odisha,Baripada,"Meher Colony, Baripada - OSPCB",26-04-2024 02:00:00,21.941841,86.728318,OZONE,NA,NA,NA
India,Odisha,Bhubaneswar,"Lingraj Mandir, Bhubaneswar - OSPCB",26-04-2024 02:00:00,20.240790,85.836784,PM10,50,282,121
India,Odisha,Bhubaneswar,"Lingraj Mandir, Bhubaneswar - OSPCB",26-04-2024 02:00:00,20.240790,85.836784,CO,35,92,51
India,Odisha,Bileipada,"Tata Township, Bileipada - OSPCB",26-04-2024 02:00:00,22.06156703,85.47409613,NH3,11,12,11
India,Odisha,Brajrajnagar,"GM Office, Brajrajnagar - OSPCB",26-04-2024 02:00:00,21.8004996,83.8396977,OZONE,3,152,31
India,Odisha,Keonjhar,"Jagamohanpur, Keonjhar - OSPCB",26-04-2024 02:00:00,21.643900,85.599355,NO2,13,54,28
India,Odisha,Keonjhar,"Jagamohanpur, Keonjhar - OSPCB",26-04-2024 02:00:00,21.643900,85.599355,SO2,5,12,6
India,Odisha,Nayagarh,"Dabuna, Nayagarh - OSPCB",26-04-2024 02:00:00,21.847279,85.416905,PM2.5,NA,NA,NA
India,Odisha,Nayagarh,"Dabuna, Nayagarh - OSPCB",26-04-2024 02:00:00,21.847279,85.416905,NO2,NA,NA,NA
India,Odisha,Rairangpur,"Divisional Forest Office, Rairangpur - OSPCB",26-04-2024 02:00:00,22.265816,86.174829,OZONE,8,91,18
India,Odisha,Rourkela,"Raghunathpali, Rourkela - OSPCB",26-04-2024 02:00:00,22.220833,84.809444,SO2,7,36,15
India,Odisha,Rourkela,"Sector-2, Rourkela - OSPCB",26-04-2024 02:00:00,22.24500000,84.88111111,CO,18,101,57
India,Odisha,Suakati,"OMC Colony, Suakati - OSPCB",26-04-2024 02:00:00,21.606865,85.510538,SO2,9,123,39
India,Odisha,Talcher,"Talcher Coalfields,Talcher - OSPCB",26-04-2024 02:00:00,20.9360711,85.1707021,SO2,64,82,74
India,Odisha,Tensa,"Barsua Iron Ore Mines, Tensa - OSPCB",26-04-2024 02:00:00,21.869985,85.167016,SO2,NA,NA,NA
India,Puducherry,Puducherry,"Jawahar Nagar, Puducherry - PPCC",26-04-2024 02:00:00,11.9309,79.8027,NO2,1,25,7
India,Punjab,Bathinda,"Hardev Nagar, Bathinda - PPCB",26-04-2024 02:00:00,30.233011,74.907758,PM10,NA,NA,NA
India,Punjab,Jalandhar,"Civil Line, Jalandhar - PPCB",26-04-2024 02:00:00,31.321907,75.578914,PM10,25,95,62
India,Punjab,Ludhiana,"Punjab Agricultural University, Ludhiana - PPCB",26-04-2024 02:00:00,30.9028,75.8086,OZONE,12,55,34
India,Punjab,Mandi Gobindgarh,"RIMT University, Mandi Gobindgarh - PPCB",26-04-2024 02:00:00,30.649961,76.331442,NO2,NA,NA,NA
India,Punjab,Mandi Gobindgarh,"RIMT University, Mandi Gobindgarh - PPCB",26-04-2024 02:00:00,30.649961,76.331442,SO2,NA,NA,NA
India,Punjab,Mandi Gobindgarh,"RIMT University, Mandi Gobindgarh - PPCB",26-04-2024 02:00:00,30.649961,76.331442,CO,6,38,25
India,Punjab,Patiala,"Model Town, Patiala - PPCB",26-04-2024 02:00:00,30.349388,76.366642,NH3,6,7,6
India,Punjab,Patiala,"Model Town, Patiala - PPCB",26-04-2024 02:00:00,30.349388,76.366642,OZONE,22,97,52
India,Punjab,Rupnagar,"Ratanpura, Rupnagar - Ambuja Cements",26-04-2024 02:00:00,31.0325454,76.5623046,PM2.5,64,176,100
India,Rajasthan,Ajmer,"Civil Lines,  Ajmer - RSPCB",26-04-2024 02:00:00,26.470859,74.646594,PM2.5,43,92,63
India,Rajasthan,Ajmer,"Civil Lines,  Ajmer - RSPCB",26-04-2024 02:00:00,26.470859,74.646594,OZONE,13,140,35
India,Rajasthan,Barmer,"Railway Colony, Barmer - RSPCB",26-04-2024 02:00:00,25.747299,71.393989,PM10,44,132,73
India,Rajasthan,Bharatpur,"Krishna Nagar, Bharatpur - RSPCB",26-04-2024 02:00:00,27.215415,77.50873,PM10,76,341,164
India,Rajasthan,Bharatpur,"Krishna Nagar, Bharatpur - RSPCB",26-04-2024 02:00:00,27.215415,77.50873,OZONE,3,153,56
India,Rajasthan,Bhilwara,"Pratap Nagar, Bhilwara - RSPCB",26-04-2024 02:00:00,25.339605,74.618883,PM2.5,15,55,36
India,Rajasthan,Bhilwara,"Pratap Nagar, Bhilwara - RSPCB",26-04-2024 02:00:00,25.339605,74.618883,CO,NA,NA,NA
India,Rajasthan,Bhiwadi,"RIICO Ind. Area III, Bhiwadi - RSPCB",26-04-2024 02:00:00,28.194909,76.862296,PM2.5,71,338,224
India,Rajasthan,Bhiwadi,"RIICO Ind. Area III, Bhiwadi - RSPCB",26-04-2024 02:00:00,28.194909,76.862296,NH3,2,25,12
India,Rajasthan,Bhiwadi,"RIICO Ind. Area III, Bhiwadi - RSPCB",26-04-2024 02:00:00,28.194909,76.862296,SO2,25,43,32
India,Rajasthan,Bhiwadi,"RIICO Ind. Area III, Bhiwadi - RSPCB",26-04-2024 02:00:00,28.194909,76.862296,CO,21,120,88
India,Rajasthan,Bikaner,"MM Ground, Bikaner - RSPCB",26-04-2024 02:00:00,28.018792,73.292658,SO2,5,14,9
India,Rajasthan,Chittorgarh,"Shastri Nagar, Chittorgarh - RSPCB",26-04-2024 02:00:00,24.892047,74.623527,OZONE,2,87,58
India,Rajasthan,Churu,"Subash Chowk, Churu - RSPCB",26-04-2024 02:00:00,28.296139,74.961696,PM2.5,17,99,48
India,Rajasthan,Churu,"Subash Chowk, Churu - RSPCB",26-04-2024 02:00:00,28.296139,74.961696,CO,8,46,26
India,Rajasthan,Churu,"Subash Chowk, Churu - RSPCB",26-04-2024 02:00:00,28.296139,74.961696,OZONE,68,194,114
India,Rajasthan,Dholpur,"Raja Ganj, Dholpur - RSPCB",26-04-2024 02:00:00,26.699557,77.898881,PM10,86,239,140
India,Rajasthan,Dungarpur,"Bhoiwada, Dungarpur - RSPCB",26-04-2024 02:00:00,23.837789,73.714926,NH3,6,6,6
India,Rajasthan,Jaipur,"Adarsh Nagar, Jaipur - RSPCB",26-04-2024 02:00:00,26.902909,75.836858,PM10,68,108,87
India,Rajasthan,Jaipur,"Adarsh Nagar, Jaipur - RSPCB",26-04-2024 02:00:00,26.902909,75.836858,OZONE,11,46,21
India,Rajasthan,Jaipur,"Mansarovar Sector-12, Jaipur - RSPCB",26-04-2024 02:00:00,26.843698,75.766894,SO2,7,12,9
India,Rajasthan,Jaipur,"Police Commissionerate, Jaipur - RSPCB",26-04-2024 02:00:00,26.9164092,75.7994901,NH3,5,8,6
India,Rajasthan,Jaipur,"Police Commissionerate, Jaipur - RSPCB",26-04-2024 02:00:00,26.9164092,75.7994901,SO2,5,69,24
India,Rajasthan,Jaipur,"Police Commissionerate, Jaipur - RSPCB",26-04-2024 02:00:00,26.9164092,75.7994901,OZONE,11,159,57
India,Rajasthan,Jaipur,"RIICO Sitapura, Jaipur - RSPCB",26-04-2024 02:00:00,26.786682,75.827928,PM10,68,195,115
India,Rajasthan,Jaipur,"RIICO Sitapura, Jaipur - RSPCB",26-04-2024 02:00:00,26.786682,75.827928,CO,16,94,63
India,Rajasthan,Jaipur,"Sector-2 Murlipura, Jaipur - RSPCB",26-04-2024 02:00:00,26.960669,75.771817,CO,36,114,102
India,Rajasthan,Jaipur,"Sector-2 Murlipura, Jaipur - RSPCB",26-04-2024 02:00:00,26.960669,75.771817,OZONE,2,120,41
India,Rajasthan,Jaipur,"Shastri Nagar, Jaipur - RSPCB",26-04-2024 02:00:00,26.9502929,75.730943,NH3,8,36,13
India,Rajasthan,Jaipur,"Shastri Nagar, Jaipur - RSPCB",26-04-2024 02:00:00,26.9502929,75.730943,SO2,7,55,19
India,Rajasthan,Jaisalmer,"Sadar Bazar, Jaisalmer - RSPCB",26-04-2024 02:00:00,26.912329,70.909168,PM10,48,132,90
India,Rajasthan,Jalore,"Mudtra Sili, Jalore - RSPCB",26-04-2024 02:00:00,25.344694,72.626208,PM10,64,280,117
India,Rajasthan,Jalore,"Mudtra Sili, Jalore - RSPCB",26-04-2024 02:00:00,25.344694,72.626208,NH3,3,6,5
India,Rajasthan,Jhalawar,"Rajlaxmi Nagar, Jhalawar - RSPCB",26-04-2024 02:00:00,24.588397,76.172782,OZONE,9,91,24
India,Rajasthan,Jhunjhunu,"Indra Nagar, Jhunjhunu - RSPCB",26-04-2024 02:00:00,28.108988,75.386577,NO2,12,113,40
India,Rajasthan,Jhunjhunu,"Indra Nagar, Jhunjhunu - RSPCB",26-04-2024 02:00:00,28.108988,75.386577,SO2,4,13,6
India,Rajasthan,Jhunjhunu,"Indra Nagar, Jhunjhunu - RSPCB",26-04-2024 02:00:00,28.108988,75.386577,OZONE,3,93,31
India,Rajasthan,Jodhpur,"Collectorate, Jodhpur - RSPCB",26-04-2024 02:00:00,26.268249,73.0193853,SO2,7,22,11
India,Rajasthan,Jodhpur,"Collectorate, Jodhpur - RSPCB",26-04-2024 02:00:00,26.268249,73.0193853,OZONE,7,107,38
India,Rajasthan,Jodhpur,"Digari Kalan, Jodhpur - RSPCB",26-04-2024 02:00:00,26.295810,73.082283,NO2,4,68,22
India,Rajasthan,Jodhpur,"Jhalamand, Jodhpur - RSPCB",26-04-2024 02:00:00,26.215415,73.070156,PM10,32,274,122
India,Rajasthan,Jodhpur,"Jhalamand, Jodhpur - RSPCB",26-04-2024 02:00:00,26.215415,73.070156,NH3,5,14,8
India,Rajasthan,Jodhpur,"Mandor, Jodhpur - RSPCB",26-04-2024 02:00:00,26.358805,73.047444,PM10,46,146,85
India,Rajasthan,Jodhpur,"Mandor, Jodhpur - RSPCB",26-04-2024 02:00:00,26.358805,73.047444,NO2,15,69,31
India,Rajasthan,Jodhpur,"Samrat Ashok Udhyan, Jodhpur - RSPCB",26-04-2024 02:00:00,26.253384,72.976571,NO2,2,44,12
India,Rajasthan,Jodhpur,"Samrat Ashok Udhyan, Jodhpur - RSPCB",26-04-2024 02:00:00,26.253384,72.976571,CO,4,36,20
India,Rajasthan,Karauli,"Satyawati Vihar, Karauli - RSPCB",26-04-2024 02:00:00,26.506177,77.025989,PM10,63,223,114
India,Rajasthan,Kota,"Nayapura, Kota - RSPCB",26-04-2024 02:00:00,25.196024,75.855668,NO2,15,131,58
India,Rajasthan,Kota,"Nayapura, Kota - RSPCB",26-04-2024 02:00:00,25.196024,75.855668,NH3,5,20,10
India,Rajasthan,Kota,"Nayapura, Kota - RSPCB",26-04-2024 02:00:00,25.196024,75.855668,CO,16,128,68
India,Rajasthan,Nagaur,"Karni Colony, Nagaur - RSPCB",26-04-2024 02:00:00,27.213494,73.734444,PM2.5,17,72,33
India,Rajasthan,Nagaur,"Karni Colony, Nagaur - RSPCB",26-04-2024 02:00:00,27.213494,73.734444,PM10,70,192,115
India,Rajasthan,Pali,"Indira Colony Vistar, Pali - RSPCB",26-04-2024 02:00:00,25.771061, 73.340227,NO2,18,70,40
India,Rajasthan,Pali,"Indira Colony Vistar, Pali - RSPCB",26-04-2024 02:00:00,25.771061, 73.340227,NH3,6,17,13
India,Rajasthan,Pali,"Indira Colony Vistar, Pali - RSPCB",26-04-2024 02:00:00,25.771061, 73.340227,SO2,8,11,9
India,Rajasthan,Pratapgarh,"Pragati Nagar, Pratapgarh - RSPCB",26-04-2024 02:00:00,24.041198,74.780702,NO2,5,66,19
India,Rajasthan,Rajsamand,"Dhoinda, Rajsamand - RSPCB",26-04-2024 02:00:00,25.036360,73.883502,SO2,1,3,2
India,Rajasthan,Sawai Madhopur,"Sahu Nagar, Sawai Madhopur - RSPCB",26-04-2024 02:00:00,26.031443,76.359327,PM10,65,244,146
India,Rajasthan,Sawai Madhopur,"Sahu Nagar, Sawai Madhopur - RSPCB",26-04-2024 02:00:00,26.031443,76.359327,NO2,3,55,23
India,Rajasthan,Sikar,"Radhakishan Pura, Sikar - RSPCB",26-04-2024 02:00:00,27.608912,75.153302,NH3,4,8,6
India,Rajasthan,Sirohi,"Vedhaynath Colony, Sirohi - RSPCB",26-04-2024 02:00:00,24.885261,72.857549,PM2.5,20,256,50
India,Rajasthan,Sirohi,"Vedhaynath Colony, Sirohi - RSPCB",26-04-2024 02:00:00,24.885261,72.857549,SO2,4,11,8
India,Rajasthan,Tonk,"Shastri Nagar, Tonk - RSPCB",26-04-2024 02:00:00,26.159933,75.780517,CO,7,104,63
India,Rajasthan,Udaipur,"Ashok Nagar, Udaipur - RSPCB",26-04-2024 02:00:00,24.5886166,73.6321397,NO2,30,61,46
India,Rajasthan,Udaipur,"Ashok Nagar, Udaipur - RSPCB",26-04-2024 02:00:00,24.5886166,73.6321397,NH3,7,12,9
India,Rajasthan,Udaipur,"Ashok Nagar, Udaipur - RSPCB",26-04-2024 02:00:00,24.5886166,73.6321397,OZONE,25,61,41
India,Sikkim,Gangtok,"Zero Point GICI, Gangtok - SSPCB",26-04-2024 02:00:00,27.338530,88.614099,CO,16,28,23
India,TamilNadu,Chennai,"Perungudi, Chennai - TNPCB",26-04-2024 02:00:00,12.9533,80.2357,PM2.5,2,13,7
India,TamilNadu,Chennai,"Perungudi, Chennai - TNPCB",26-04-2024 02:00:00,12.9533,80.2357,CO,10,75,16
India,TamilNadu,Chennai,"Royapuram, Chennai - TNPCB",26-04-2024 02:00:00,13.1036,80.2909,SO2,1,5,3
India,TamilNadu,Cuddalore,"Kudikadu, Cuddalore - TNPCB",26-04-2024 02:00:00,11.6829898,79.7532099,PM10,20,119,57
India,TamilNadu,Cuddalore,"Semmandalam, Cuddalore - TNPCB",26-04-2024 02:00:00,11.7637683,79.7499835,NH3,NA,NA,NA
India,TamilNadu,Kanchipuram,"Kilambi, Kanchipuram - TNPCB",26-04-2024 02:00:00,12.864618,79.659968,SO2,NA,NA,NA
India,TamilNadu,Kanchipuram,"Kilambi, Kanchipuram - TNPCB",26-04-2024 02:00:00,12.864618,79.659968,CO,NA,NA,NA
India,TamilNadu,Palkalaiperur,"Bharathidasan University, Palkalaiperur - TNPCB",26-04-2024 02:00:00,10.681158,78.741746,PM10,27,48,37
India,TamilNadu,Ramanathapuram,"Chalai Bazaar, Ramanathapuram - TNPCB",26-04-2024 02:00:00,9.36399,78.831977,PM10,28,73,45
India,TamilNadu,Ramanathapuram,"Chalai Bazaar, Ramanathapuram - TNPCB",26-04-2024 02:00:00,9.36399,78.831977,CO,2,8,5
India,TamilNadu,Salem,"Sona College of Technology, Salem - TNPCB",26-04-2024 02:00:00,11.679111,78.125052,PM2.5,NA,NA,NA
India,TamilNadu,Thoothukudi,"Meelavittan, Thoothukudi - TNPCB",26-04-2024 02:00:00,8.816428 ,78.099039,PM10,40,158,83
India,TamilNadu,Thoothukudi,"Meelavittan, Thoothukudi - TNPCB",26-04-2024 02:00:00,8.816428 ,78.099039,CO,4,32,23
India,TamilNadu,Tirupur,"Kumaran College, Tirupur - TNPCB",26-04-2024 02:00:00,11.0973603,77.3228673,SO2,NA,NA,NA
India,TamilNadu,Tirupur,"Kumaran College, Tirupur - TNPCB",26-04-2024 02:00:00,11.0973603,77.3228673,CO,15,96,62
India,TamilNadu,Tirupur,"Kumaran College, Tirupur - TNPCB",26-04-2024 02:00:00,11.0973603,77.3228673,OZONE,7,7,7
India,Telangana,Hyderabad,"Bollaram Industrial Area, Hyderabad - TSPCB",26-04-2024 02:00:00,17.540891,78.358528,PM10,58,118,94
India,Telangana,Hyderabad,"Bollaram Industrial Area, Hyderabad - TSPCB",26-04-2024 02:00:00,17.540891,78.358528,SO2,13,112,31
India,Telangana,Hyderabad,"Central University, Hyderabad - TSPCB",26-04-2024 02:00:00,17.460103,78.334361,OZONE,3,4,4
India,Telangana,Hyderabad,"ECIL Kapra, Hyderabad - TSPCB",26-04-2024 02:00:00,17.470431,78.566959,PM2.5,49,108,66
India,Telangana,Hyderabad,"ECIL Kapra, Hyderabad - TSPCB",26-04-2024 02:00:00,17.470431,78.566959,NH3,5,9,8
India,Telangana,Hyderabad,"ECIL Kapra, Hyderabad - TSPCB",26-04-2024 02:00:00,17.470431,78.566959,SO2,15,55,30
India,Telangana,Hyderabad,"ECIL Kapra, Hyderabad - TSPCB",26-04-2024 02:00:00,17.470431,78.566959,OZONE,17,120,37
India,Telangana,Hyderabad,"ICRISAT Patancheru, Hyderabad - TSPCB",26-04-2024 02:00:00,17.518400,78.278777,OZONE,36,101,61
India,Telangana,Hyderabad,"IITH Kandi, Hyderabad - TSPCB",26-04-2024 02:00:00,17.585705,78.126199,NO2,NA,NA,NA
India,Telangana,Hyderabad,"Kokapet, Hyderabad - TSPCB",26-04-2024 02:00:00,17.393559,78.339194,OZONE,3,10,6
India,Telangana,Hyderabad,"Kompally Municipal Office, Hyderabad - TSPCB",26-04-2024 02:00:00,17.544899,78.486949,SO2,7,30,15
India,Telangana,Hyderabad,"Nacharam_TSIIC IALA, Hyderabad - TSPCB",26-04-2024 02:00:00,17.429398,78.569354,PM2.5,NA,NA,NA
India,Telangana,Hyderabad,"Nacharam_TSIIC IALA, Hyderabad - TSPCB",26-04-2024 02:00:00,17.429398,78.569354,CO,26,42,33
India,Telangana,Hyderabad,"Nacharam_TSIIC IALA, Hyderabad - TSPCB",26-04-2024 02:00:00,17.429398,78.569354,OZONE,32,66,39
India,Telangana,Hyderabad,"New Malakpet, Hyderabad - TSPCB",26-04-2024 02:00:00,17.37206,78.50864,NO2,12,40,17
India,Telangana,Hyderabad,"New Malakpet, Hyderabad - TSPCB",26-04-2024 02:00:00,17.37206,78.50864,SO2,8,15,11
India,Telangana,Hyderabad,"Ramachandrapuram, Hyderabad - TSPCB",26-04-2024 02:00:00,17.528544,78.286195,PM2.5,25,37,31
India,Telangana,Hyderabad,"Sanathnagar, Hyderabad - TSPCB",26-04-2024 02:00:00,17.4559458,78.4332152,PM2.5,42,100,66
India,Telangana,Hyderabad,"Somajiguda, Hyderabad - TSPCB",26-04-2024 02:00:00,17.417094,78.457437,PM10,81,105,91
India,Telangana,Hyderabad,"Somajiguda, Hyderabad - TSPCB",26-04-2024 02:00:00,17.417094,78.457437,NH3,5,7,6
India,Telangana,Hyderabad,"Somajiguda, Hyderabad - TSPCB",26-04-2024 02:00:00,17.417094,78.457437,SO2,18,21,19
India,Telangana,Hyderabad,"Zoo Park, Hyderabad - TSPCB",26-04-2024 02:00:00,17.349694,78.451437,NH3,1,1,1
India,Tripura,Agartala,"Bardowali, Agartala - Tripura SPCB",26-04-2024 02:00:00,23.8175497,91.2726974,PM2.5,62,108,84
India,Tripura,Agartala,"Bardowali, Agartala - Tripura SPCB",26-04-2024 02:00:00,23.8175497,91.2726974,NO2,5,9,7
India,Uttar_Pradesh,Agra,"Manoharpur, Agra - UPPCB",26-04-2024 02:00:00,27.23711,78.01936,PM10,13,84,38
India,Uttar_Pradesh,Agra,"Manoharpur, Agra - UPPCB",26-04-2024 02:00:00,27.23711,78.01936,NH3,2,2,2
India,Uttar_Pradesh,Agra,"Manoharpur, Agra - UPPCB",26-04-2024 02:00:00,27.23711,78.01936,SO2,14,43,21
India,Uttar_Pradesh,Agra,"Manoharpur, Agra - UPPCB",26-04-2024 02:00:00,27.23711,78.01936,CO,6,16,9
India,Uttar_Pradesh,Agra,"Manoharpur, Agra - UPPCB",26-04-2024 02:00:00,27.23711,78.01936,OZONE,3,61,40
India,Uttar_Pradesh,Agra,"Rohta, Agra - UPPCB",26-04-2024 02:00:00,27.106972,78.000111,PM10,10,76,39
India,Uttar_Pradesh,Agra,"Rohta, Agra - UPPCB",26-04-2024 02:00:00,27.106972,78.000111,NH3,1,1,1
India,Uttar_Pradesh,Agra,"Rohta, Agra - UPPCB",26-04-2024 02:00:00,27.106972,78.000111,SO2,4,19,9
India,Uttar_Pradesh,Agra,"Sanjay Palace, Agra - UPPCB",26-04-2024 02:00:00,27.19865833,78.00598056,PM2.5,8,55,25
India,Uttar_Pradesh,Agra,"Sector-3B Avas Vikas Colony, Agra - UPPCB",26-04-2024 02:00:00,27.19412,77.96237,NH3,4,11,7
India,Uttar_Pradesh,Agra,"Sector-3B Avas Vikas Colony, Agra - UPPCB",26-04-2024 02:00:00,27.19412,77.96237,SO2,9,13,10
India,Uttar_Pradesh,Agra,"Shahjahan Garden, Agra - UPPCB",26-04-2024 02:00:00,27.169338,78.03582,NO2,28,29,29
India,Uttar_Pradesh,Agra,"Shastripuram, Agra - UPPCB",26-04-2024 02:00:00,27.19862,77.92066,PM2.5,17,209,65
India,Uttar_Pradesh,Agra,"Shastripuram, Agra - UPPCB",26-04-2024 02:00:00,27.19862,77.92066,PM10,60,182,115
India,Uttar_Pradesh,Baghpat,"Sardar Patel Inter College, Baghpat - UPPCB",26-04-2024 02:00:00,28.964949,77.278761,PM2.5,23,302,141
India,Uttar_Pradesh,Baghpat,"Sardar Patel Inter College, Baghpat - UPPCB",26-04-2024 02:00:00,28.964949,77.278761,PM10,83,432,216
India,Uttar_Pradesh,Baghpat,"Sardar Patel Inter College, Baghpat - UPPCB",26-04-2024 02:00:00,28.964949,77.278761,NO2,21,88,55
India,Uttar_Pradesh,Baghpat,"Sardar Patel Inter College, Baghpat - UPPCB",26-04-2024 02:00:00,28.964949,77.278761,OZONE,9,87,39
India,Uttar_Pradesh,Bareilly,"Civil Lines, Bareilly - UPPCB",26-04-2024 02:00:00,28.359581,79.414455,PM2.5,4,14,8
India,Uttar_Pradesh,Bareilly,"Civil Lines, Bareilly - UPPCB",26-04-2024 02:00:00,28.359581,79.414455,PM10,10,24,14
India,Uttar_Pradesh,Bareilly,"Civil Lines, Bareilly - UPPCB",26-04-2024 02:00:00,28.359581,79.414455,SO2,50,60,53
India,Uttar_Pradesh,Bareilly,"Civil Lines, Bareilly - UPPCB",26-04-2024 02:00:00,28.359581,79.414455,OZONE,1,11,2
India,Uttar_Pradesh,Bareilly,"Rajendra Nagar, Bareilly - UPPCB",26-04-2024 02:00:00,28.38910936,79.42963708,PM2.5,14,50,32
India,Uttar_Pradesh,Bulandshahr,"Yamunapuram, Bulandshahr - UPPCB",26-04-2024 02:00:00,28.406963,77.849831,PM10,76,186,138
India,Uttar_Pradesh,Bulandshahr,"Yamunapuram, Bulandshahr - UPPCB",26-04-2024 02:00:00,28.406963,77.849831,NO2,16,158,83
India,Uttar_Pradesh,Firozabad,"Nagla Bhau, Firozabad - UPPCB",26-04-2024 02:00:00,27.168897,78.376960,PM10,33,124,67
India,Uttar_Pradesh,Ghaziabad,"Loni, Ghaziabad - UPPCB",26-04-2024 02:00:00,28.757294,77.278792,PM2.5,25,303,131
India,Uttar_Pradesh,Ghaziabad,"Loni, Ghaziabad - UPPCB",26-04-2024 02:00:00,28.757294,77.278792,CO,18,103,73
India,Uttar_Pradesh,Ghaziabad,"Vasundhara, Ghaziabad - UPPCB",26-04-2024 02:00:00,28.6603346,77.3572563,NO2,27,133,94
India,Uttar_Pradesh,Ghaziabad,"Vasundhara, Ghaziabad - UPPCB",26-04-2024 02:00:00,28.6603346,77.3572563,OZONE,12,260,72
India,Uttar_Pradesh,Gorakhpur,"Madan Mohan Malaviya University of Technology, Gorakhpur - UPPCB",26-04-2024 02:00:00,26.730136,83.433859,NO2,2,2,2
India,Uttar_Pradesh,Gorakhpur,"Madan Mohan Malaviya University of Technology, Gorakhpur - UPPCB",26-04-2024 02:00:00,26.730136,83.433859,NH3,1,1,1
India,Uttar_Pradesh,Gorakhpur,"Madan Mohan Malaviya University of Technology, Gorakhpur - UPPCB",26-04-2024 02:00:00,26.730136,83.433859,SO2,37,56,43
India,Uttar_Pradesh,Greater Noida,"Knowledge Park - III, Greater Noida - UPPCB",26-04-2024 02:00:00,28.47272,77.482000,PM10,103,372,223
India,Uttar_Pradesh,Greater Noida,"Knowledge Park - III, Greater Noida - UPPCB",26-04-2024 02:00:00,28.47272,77.482000,CO,16,113,89
India,Uttar_Pradesh,Greater Noida,"Knowledge Park - V, Greater Noida - UPPCB",26-04-2024 02:00:00,28.557054,77.453663,PM10,119,463,272
India,Uttar_Pradesh,Greater Noida,"Knowledge Park - V, Greater Noida - UPPCB",26-04-2024 02:00:00,28.557054,77.453663,SO2,3,79,23
India,Uttar_Pradesh,Jhansi,"Shivaji Nagar, Jhansi - UPPCB",26-04-2024 02:00:00,25.4547,78.6039,SO2,14,23,16
India,Uttar_Pradesh,Kanpur,"FTI Kidwai Nagar, Kanpur - UPPCB",26-04-2024 02:00:00,26.428282,80.327067,PM2.5,34,215,79
India,Uttar_Pradesh,Kanpur,"FTI Kidwai Nagar, Kanpur - UPPCB",26-04-2024 02:00:00,26.428282,80.327067,OZONE,9,14,10
India,Uttar_Pradesh,Kanpur,"NSI Kalyanpur, Kanpur - UPPCB",26-04-2024 02:00:00,26.509954,80.249612,PM10,82,200,127
India,Uttar_Pradesh,Kanpur,"NSI Kalyanpur, Kanpur - UPPCB",26-04-2024 02:00:00,26.509954,80.249612,NO2,17,21,19
India,Uttar_Pradesh,Kanpur,"NSI Kalyanpur, Kanpur - UPPCB",26-04-2024 02:00:00,26.509954,80.249612,NH3,2,3,2
India,Uttar_Pradesh,Kanpur,"NSI Kalyanpur, Kanpur - UPPCB",26-04-2024 02:00:00,26.509954,80.249612,SO2,20,26,22
India,Uttar_Pradesh,Kanpur,"Nehru Nagar, Kanpur - UPPCB",26-04-2024 02:00:00,26.4703136,80.3229863,PM10,17,156,62
India,Uttar_Pradesh,Kanpur,"Nehru Nagar, Kanpur - UPPCB",26-04-2024 02:00:00,26.4703136,80.3229863,SO2,3,11,8
India,Uttar_Pradesh,Khurja,"Kalindi Kunj, Khurja - UPPCB",26-04-2024 02:00:00,28.2348927,77.8683002,CO,28,69,44
India,Uttar_Pradesh,Khurja,"Kalindi Kunj, Khurja - UPPCB",26-04-2024 02:00:00,28.2348927,77.8683002,OZONE,28,40,34
India,Uttar_Pradesh,Lucknow,"Gomti Nagar, Lucknow - UPPCB",26-04-2024 02:00:00,26.868120,81.005119,CO,39,46,42
India,Uttar_Pradesh,Lucknow,"Kendriya Vidyalaya, Lucknow - CPCB",26-04-2024 02:00:00,26.906111,80.948222,PM2.5,59,116,91
India,Uttar_Pradesh,Lucknow,"Kendriya Vidyalaya, Lucknow - CPCB",26-04-2024 02:00:00,26.906111,80.948222,PM10,105,141,121
India,Uttar_Pradesh,Lucknow,"Kendriya Vidyalaya, Lucknow - CPCB",26-04-2024 02:00:00,26.906111,80.948222,NO2,6,52,21
India,Uttar_Pradesh,Lucknow,"Kendriya Vidyalaya, Lucknow - CPCB",26-04-2024 02:00:00,26.906111,80.948222,SO2,4,8,6
India,Uttar_Pradesh,Lucknow,"Lalbagh, Lucknow - CPCB",26-04-2024 02:00:00,26.8458805,80.9365541,PM10,90,323,147
India,Uttar_Pradesh,Meerut,"Ganga Nagar, Meerut - UPPCB",26-04-2024 02:00:00,28.999264,77.7590354,PM2.5,17,240,86
India,Uttar_Pradesh,Meerut,"Ganga Nagar, Meerut - UPPCB",26-04-2024 02:00:00,28.999264,77.7590354,NO2,18,91,48
India,Uttar_Pradesh,Meerut,"Pallavpuram Phase 2, Meerut - UPPCB",26-04-2024 02:00:00,29.063510,77.709723,PM10,108,256,166
India,Uttar_Pradesh,Meerut,"Pallavpuram Phase 2, Meerut - UPPCB",26-04-2024 02:00:00,29.063510,77.709723,NH3,7,14,10
India,Uttar_Pradesh,Meerut,"Pallavpuram Phase 2, Meerut - UPPCB",26-04-2024 02:00:00,29.063510,77.709723,CO,2,68,52
India,Uttar_Pradesh,Meerut,"Pallavpuram Phase 2, Meerut - UPPCB",26-04-2024 02:00:00,29.063510,77.709723,OZONE,17,99,38
India,Uttar_Pradesh,Moradabad,"Buddhi Vihar, Moradabad - UPPCB",26-04-2024 02:00:00,28.83526,78.74460,NO2,22,23,23
India,Uttar_Pradesh,Moradabad,"Buddhi Vihar, Moradabad - UPPCB",26-04-2024 02:00:00,28.83526,78.74460,SO2,15,17,16
India,Uttar_Pradesh,Moradabad,"Eco Herbal Park, Moradabad - UPPCB",26-04-2024 02:00:00,28.840739,78.697531,PM2.5,18,119,57
India,Uttar_Pradesh,Moradabad,"Eco Herbal Park, Moradabad - UPPCB",26-04-2024 02:00:00,28.840739,78.697531,NO2,9,62,30
India,Uttar_Pradesh,Moradabad,"Kashiram Nagar, Moradabad - UPPCB",26-04-2024 02:00:00,28.849399,78.742362,PM2.5,29,308,91
India,Uttar_Pradesh,Moradabad,"Transport Nagar, Moradabad - UPPCB",26-04-2024 02:00:00,28.802625,78.753728,NH3,5,5,5
India,Uttar_Pradesh,Muzaffarnagar,"New Mandi, Muzaffarnagar - UPPCB",26-04-2024 02:00:00,29.4723508,77.7194031,CO,14,72,36
India,Uttar_Pradesh,Noida,"Sector - 125, Noida - UPPCB",26-04-2024 02:00:00,28.5447608,77.3231257,PM10,62,336,147
India,Uttar_Pradesh,Noida,"Sector-1, Noida - UPPCB",26-04-2024 02:00:00,28.5898,77.3101,PM2.5,12,323,122
India,Uttar_Pradesh,Noida,"Sector-1, Noida - UPPCB",26-04-2024 02:00:00,28.5898,77.3101,NH3,1,10,4
India,Uttar_Pradesh,Noida,"Sector-116, Noida - UPPCB",26-04-2024 02:00:00,28.569230,77.393848,PM2.5,17,303,149
India,Uttar_Pradesh,Prayagraj,"Jhunsi, Prayagraj - UPPCB",26-04-2024 02:00:00,25.425602,81.917152,OZONE,2,65,29
India,Uttar_Pradesh,Prayagraj,"Motilal Nehru NIT, Prayagraj - UPPCB",26-04-2024 02:00:00,25.494,81.863,PM10,47,98,68
India,Uttar_Pradesh,Prayagraj,"Motilal Nehru NIT, Prayagraj - UPPCB",26-04-2024 02:00:00,25.494,81.863,NO2,11,12,12
India,Uttar_Pradesh,Prayagraj,"Motilal Nehru NIT, Prayagraj - UPPCB",26-04-2024 02:00:00,25.494,81.863,SO2,25,56,36
India,Uttar_Pradesh,Varanasi,"Ardhali Bazar, Varanasi - UPPCB",26-04-2024 02:00:00,25.3505986,82.9083074,SO2,19,44,30
India,Uttar_Pradesh,Varanasi,"Bhelupur, Varanasi - UPPCB",26-04-2024 02:00:00,25.301778,82.996789,NO2,7,8,8
India,Uttar_Pradesh,Varanasi,"Bhelupur, Varanasi - UPPCB",26-04-2024 02:00:00,25.301778,82.996789,NH3,1,2,1
India,Uttar_Pradesh,Varanasi,"Maldahiya, Varanasi - UPPCB",26-04-2024 02:00:00,25.32393,82.99687,PM10,18,50,29
India,Uttar_Pradesh,Varanasi,"Maldahiya, Varanasi - UPPCB",26-04-2024 02:00:00,25.32393,82.99687,SO2,26,31,28
India,Uttar_Pradesh,Varanasi,"Maldahiya, Varanasi - UPPCB",26-04-2024 02:00:00,25.32393,82.99687,CO,1,58,34
India,Uttar_Pradesh,Vrindavan,"Omex Eternity, Vrindavan - UPPCB",26-04-2024 02:00:00,27.5714090,77.6557570,PM10,40,352,168
India,Uttar_Pradesh,Vrindavan,"Omex Eternity, Vrindavan - UPPCB",26-04-2024 02:00:00,27.5714090,77.6557570,OZONE,30,37,32
India,Uttarakhand,Dehradun,"Doon University, Dehradun - UKPCB",26-04-2024 02:00:00,30.269444,78.044167,PM10,50,126,81
India,Uttarakhand,Dehradun,"Doon University, Dehradun - UKPCB",26-04-2024 02:00:00,30.269444,78.044167,OZONE,46,164,102
India,Uttarakhand,Kashipur,"Govt. Girls Inter College, Kashipur - UKPCB",26-04-2024 02:00:00,29.2124114,78.9611753,PM2.5,49,115,74
India,Uttarakhand,Kashipur,"Govt. Girls Inter College, Kashipur - UKPCB",26-04-2024 02:00:00,29.2124114,78.9611753,OZONE,35,84,55
India,Uttarakhand,Rishikesh,"Shivaji Nagar, Rishikesh - UKPCB",26-04-2024 02:00:00,30.075911,78.2859547,PM2.5,36,86,54
India,Uttarakhand,Rishikesh,"Shivaji Nagar, Rishikesh - UKPCB",26-04-2024 02:00:00,30.075911,78.2859547,NO2,8,38,18
India,Uttarakhand,Rishikesh,"Shivaji Nagar, Rishikesh - UKPCB",26-04-2024 02:00:00,30.075911,78.2859547,SO2,3,5,4
India,Uttarakhand,Rishikesh,"Shivaji Nagar, Rishikesh - UKPCB",26-04-2024 02:00:00,30.075911,78.2859547,OZONE,33,142,62
India,West_Bengal,Durgapur,"PCBL Residential Complex, Durgapur - WBPCB",26-04-2024 02:00:00,23.5087640,87.3544400,PM2.5,NA,NA,NA
India,West_Bengal,Durgapur,"PCBL Residential Complex, Durgapur - WBPCB",26-04-2024 02:00:00,23.5087640,87.3544400,CO,22,92,72
India,West_Bengal,Durgapur,"Sidhu Kanhu Indoor Stadium, Durgapur - WBPCB",26-04-2024 02:00:00,23.5404352,87.2892225,PM10,111,292,185
India,West_Bengal,Durgapur,"Sidhu Kanhu Indoor Stadium, Durgapur - WBPCB",26-04-2024 02:00:00,23.5404352,87.2892225,NO2,17,78,40
India,West_Bengal,Durgapur,"Sidhu Kanhu Indoor Stadium, Durgapur - WBPCB",26-04-2024 02:00:00,23.5404352,87.2892225,NH3,4,7,5
India,West_Bengal,Howrah,"Belur Math, Howrah - WBPCB",26-04-2024 02:00:00,22.629801,88.352017,CO,2,57,23
India,West_Bengal,Howrah,"Ghusuri, Howrah - WBPCB",26-04-2024 02:00:00,22.611968,88.347422,PM2.5,65,263,152
India,West_Bengal,Howrah,"Ghusuri, Howrah - WBPCB",26-04-2024 02:00:00,22.611968,88.347422,OZONE,13,30,18
India,West_Bengal,Howrah,"Padmapukur, Howrah - WBPCB",26-04-2024 02:00:00,22.5687319,88.2797276,OZONE,7,74,24
India,West_Bengal,Kolkata,"Fort William, Kolkata - WBPCB",26-04-2024 02:00:00,22.556640,88.342674,PM10,77,126,104
India,West_Bengal,Kolkata,"Fort William, Kolkata - WBPCB",26-04-2024 02:00:00,22.556640,88.342674,NO2,23,150,46
India,West_Bengal,Kolkata,"Jadavpur, Kolkata - WBPCB",26-04-2024 02:00:00,22.49929,88.36917,CO,5,32,16
India,West_Bengal,Kolkata,"Rabindra Bharati University, Kolkata - WBPCB",26-04-2024 02:00:00,22.627847,88.380669,SO2,4,13,8
India,West_Bengal,Kolkata,"Rabindra Sarobar, Kolkata - WBPCB",26-04-2024 02:00:00,22.51106,88.35142,CO,20,42,30
India,West_Bengal,Kolkata,"Rabindra Sarobar, Kolkata - WBPCB",26-04-2024 02:00:00,22.51106,88.35142,OZONE,22,139,56
India,West_Bengal,Kolkata,"Victoria, Kolkata - WBPCB",26-04-2024 02:00:00,22.5448082,88.3403691,NH3,4,4,4
India,West_Bengal,Siliguri,"Ward-32 Bapupara, Siliguri - WBPCB",26-04-2024 02:00:00,26.6879226,88.4152495,NO2,31,103,63
India,Andhra_Pradesh,Amaravati,"Secretariat, Amaravati - APPCB",26-04-2024 02:00:00,16.5150833,80.5181667,PM10,20,50,33
India,Andhra_Pradesh,Anantapur,"Gulzarpet, Anantapur - APPCB",26-04-2024 02:00:00,14.675886,77.593027,CO,22,46,30
India,Andhra_Pradesh,Kadapa,"Yerramukkapalli, Kadapa - APPCB",26-04-2024 02:00:00,14.465052,78.824187,OZONE,NA,NA,NA
India,Andhra_Pradesh,Rajamahendravaram,"Anand Kala Kshetram, Rajamahendravaram - APPCB",26-04-2024 02:00:00,16.9872867,81.7363176,NO2,5,118,36
India,Andhra_Pradesh,Rajamahendravaram,"Anand Kala Kshetram, Rajamahendravaram - APPCB",26-04-2024 02:00:00,16.9872867,81.7363176,NH3,1,9,5
India,Andhra_Pradesh,Tirupati,"Tirumala, Tirupati - APPCB",26-04-2024 02:00:00,13.67,79.35,PM2.5,39,89,58
India,Andhra_Pradesh,Tirupati,"Vaikuntapuram, Tirupati - APPCB",26-04-2024 02:00:00,13.615387,79.409230,PM2.5,13,264,56
India,Andhra_Pradesh,Tirupati,"Vaikuntapuram, Tirupati - APPCB",26-04-2024 02:00:00,13.615387,79.409230,CO,8,14,14
India,Andhra_Pradesh,Vijayawada,"HB Colony, Vijayawada - APPCB",26-04-2024 02:00:00,16.536107,80.594233,SO2,3,5,4
India,Andhra_Pradesh,Vijayawada,"HB Colony, Vijayawada - APPCB",26-04-2024 02:00:00,16.536107,80.594233,CO,38,40,40
India,Andhra_Pradesh,Vijayawada,"Kanuru, Vijayawada - APPCB",26-04-2024 02:00:00,16.486692,80.699436,CO,22,48,31
India,Andhra_Pradesh,Vijayawada,"Rajiv Gandhi Park, Vijayawada - APPCB",26-04-2024 02:00:00,16.509717,80.612222,NO2,32,76,46
India,Andhra_Pradesh,Vijayawada,"Rajiv Gandhi Park, Vijayawada - APPCB",26-04-2024 02:00:00,16.509717,80.612222,OZONE,5,63,17
India,Andhra_Pradesh,Visakhapatnam,"GVM Corporation, Visakhapatnam - APPCB",26-04-2024 02:00:00,17.72,83.3,PM10,63,173,100
India,Andhra_Pradesh,Visakhapatnam,"GVM Corporation, Visakhapatnam - APPCB",26-04-2024 02:00:00,17.72,83.3,CO,11,42,23
India,Arunachal_Pradesh,Naharlagun,"Naharlagun, Naharlagun - APSPCB",26-04-2024 02:00:00,27.103358,93.679645,SO2,NA,NA,NA
India,Arunachal_Pradesh,Naharlagun,"Naharlagun, Naharlagun - APSPCB",26-04-2024 02:00:00,27.103358,93.679645,OZONE,NA,NA,NA
India,Assam,Byrnihat,"Central Academy for SFS, Byrnihat - PCBA",26-04-2024 02:00:00,26.071318,91.87488,PM10,60,433,190
India,Assam,Guwahati,"IITG, Guwahati - PCBA",26-04-2024 02:00:00,26.2028636,91.70046436,PM2.5,25,197,93
India,Assam,Guwahati,"IITG, Guwahati - PCBA",26-04-2024 02:00:00,26.2028636,91.70046436,CO,8,14,12
India,Assam,Guwahati,"LGBI Airport, Guwahati - PCBA",26-04-2024 02:00:00,26.10887,91.589544,NO2,30,100,60
India,Assam,Guwahati,"LGBI Airport, Guwahati - PCBA",26-04-2024 02:00:00,26.10887,91.589544,SO2,8,13,11
India,Assam,Guwahati,"LGBI Airport, Guwahati - PCBA",26-04-2024 02:00:00,26.10887,91.589544,OZONE,4,21,12
India,Assam,Guwahati,"Pan Bazaar, Guwahati - PCBA",26-04-2024 02:00:00,26.187500,91.744194,OZONE,17,18,17
India,Assam,Guwahati,"Railway Colony, Guwahati - PCBA",26-04-2024 02:00:00,26.181742,91.78063,SO2,13,21,17
India,Assam,Nagaon,"Christianpatty, Nagaon - PCBA",26-04-2024 02:00:00,26.349082,92.68449,CO,36,69,54
India,Assam,Nagaon,"Christianpatty, Nagaon - PCBA",26-04-2024 02:00:00,26.349082,92.68449,OZONE,47,94,66
India,Assam,Nalbari,"Bata Chowk, Nalbari - PCBA",26-04-2024 02:00:00,26.446912,91.439057,CO,49,92,73
India,Assam,Silchar,"Tarapur, Silchar - PCBA",26-04-2024 02:00:00,24.82827,92.79525,OZONE,1,32,6
India,Assam,Sivasagar,"Girls College, Sivasagar - PCBA",26-04-2024 02:00:00,26.987634,94.636574,OZONE,2,47,7
India,Bihar,Araria,"Kharahiya Basti, Araria - BSPCB",26-04-2024 02:00:00,26.146529,87.454184,PM2.5,33,283,111
India,Bihar,Araria,"Kharahiya Basti, Araria - BSPCB",26-04-2024 02:00:00,26.146529,87.454184,PM10,60,271,136
India,Bihar,Araria,"Kharahiya Basti, Araria - BSPCB",26-04-2024 02:00:00,26.146529,87.454184,SO2,9,16,13
India,Bihar,Arrah,"New DM Office, Arrah - BSPCB",26-04-2024 02:00:00,25.5626095,84.663264,PM2.5,43,123,66
India,Bihar,Arrah,"New DM Office, Arrah - BSPCB",26-04-2024 02:00:00,25.5626095,84.663264,NH3,2,5,3
India,Bihar,Arrah,"New DM Office, Arrah - BSPCB",26-04-2024 02:00:00,25.5626095,84.663264,SO2,9,34,22
India,Bihar,Bettiah,"Kamalnath Nagar, Bettiah - BSPCB",26-04-2024 02:00:00,26.80365,84.51954,NH3,3,6,4
India,Bihar,Bettiah,"Kamalnath Nagar, Bettiah - BSPCB",26-04-2024 02:00:00,26.80365,84.51954,OZONE,4,21,7
India,Bihar,Bhagalpur,"DM Office_Kachari Chowk, Bhagalpur - BSPCB",26-04-2024 02:00:00,25.251013,86.989001,NO2,38,117,87
India,Bihar,Bhagalpur,"Mayaganj, Bhagalpur - BSPCB",26-04-2024 02:00:00,25.265194,87.012947,SO2,NA,NA,NA
India,Bihar,Bihar Sharif,"D M Colony, Bihar Sharif - BSPCB",26-04-2024 02:00:00,25.204762,85.514960,SO2,NA,NA,NA
India,Bihar,Chhapra,"Darshan Nagar, Chhapra - BSPCB",26-04-2024 02:00:00,25.7808257,84.7446768,PM10,98,286,129
India,Bihar,Chhapra,"Darshan Nagar, Chhapra - BSPCB",26-04-2024 02:00:00,25.7808257,84.7446768,NO2,21,34,26
India,Bihar,Chhapra,"Darshan Nagar, Chhapra - BSPCB",26-04-2024 02:00:00,25.7808257,84.7446768,CO,36,66,58
India,Bihar,Gaya,"Collectorate, Gaya - BSPCB",26-04-2024 02:00:00,24.7955,84.9994,NO2,1,4,2
India,Bihar,Gaya,"Kareemganj, Gaya - BSPCB",26-04-2024 02:00:00,24.792403,84.992416,CO,7,24,13
India,Bihar,Gaya,"SFTI Kusdihra, Gaya - BSPCB",26-04-2024 02:00:00,24.762518,84.982348,SO2,6,22,9
India,Bihar,Hajipur,"Industrial Area, Hajipur - BSPCB",26-04-2024 02:00:00,25.697189,85.245900,PM2.5,70,192,109
India,Bihar,Katihar,"Mirchaibari, Katihar - BSPCB",26-04-2024 02:00:00,25.560083,87.553265,NO2,16,30,25
India,Bihar,Katihar,"Mirchaibari, Katihar - BSPCB",26-04-2024 02:00:00,25.560083,87.553265,NH3,5,15,7
India,Bihar,Kishanganj,"SDM Office_Khagra, Kishanganj - BSPCB",26-04-2024 02:00:00,26.0881305,87.93840336,OZONE,56,65,58
India,Bihar,Motihari,"Gandak Colony, Motihari - BSPCB",26-04-2024 02:00:00,26.63086,84.90051,PM10,27,236,80
India,Bihar,Motihari,"Gandak Colony, Motihari - BSPCB",26-04-2024 02:00:00,26.63086,84.90051,SO2,1,7,3
India,Bihar,Munger,"Town Hall, Munger - BSPCB",26-04-2024 02:00:00,25.376776,86.471523,PM10,93,305,141
India,Bihar,Munger,"Town Hall, Munger - BSPCB",26-04-2024 02:00:00,25.376776,86.471523,CO,57,133,76
India,Bihar,Munger,"Town Hall, Munger - BSPCB",26-04-2024 02:00:00,25.376776,86.471523,OZONE,27,95,30
India,Bihar,Muzaffarpur,"Buddha Colony, Muzaffarpur - BSPCB",26-04-2024 02:00:00,26.11442,85.39813,PM10,137,423,217
India,Bihar,Muzaffarpur,"Buddha Colony, Muzaffarpur - BSPCB",26-04-2024 02:00:00,26.11442,85.39813,CO,14,41,29
India,Bihar,Muzaffarpur,"Muzaffarpur Collectorate, Muzaffarpur - BSPCB",26-04-2024 02:00:00,26.1209,85.3647,PM2.5,42,359,138
India,Bihar,Muzaffarpur,"Muzaffarpur Collectorate, Muzaffarpur - BSPCB",26-04-2024 02:00:00,26.1209,85.3647,SO2,9,14,11
India,Bihar,Muzaffarpur,"Muzaffarpur Collectorate, Muzaffarpur - BSPCB",26-04-2024 02:00:00,26.1209,85.3647,CO,44,60,52
India,Bihar,Patna,"DRM Office Danapur, Patna - BSPCB",26-04-2024 02:00:00,25.586562,85.043586,OZONE,30,62,36
India,Bihar,Patna,"Govt. High School Shikarpur, Patna - BSPCB",26-04-2024 02:00:00,25.592539,85.227158,PM10,118,436,213
India,Bihar,Patna,"IGSC Planetarium Complex, Patna - BSPCB",26-04-2024 02:00:00,25.610369,85.132568,CO,NA,NA,NA
India,Bihar,Patna,"IGSC Planetarium Complex, Patna - BSPCB",26-04-2024 02:00:00,25.610369,85.132568,OZONE,NA,NA,NA
India,Bihar,Patna,"Muradpur, Patna - BSPCB",26-04-2024 02:00:00,25.619651,85.147382,PM10,163,443,316
India,Bihar,Patna,"Rajbansi Nagar, Patna - BSPCB",26-04-2024 02:00:00,25.599486,85.113666,CO,23,84,57
India,Bihar,Patna,"Samanpura, Patna - BSPCB",26-04-2024 02:00:00,25.596727,85.085624,PM10,183,463,295
India,Bihar,Purnia,"Mariam Nagar, Purnia - BSPCB",26-04-2024 02:00:00,25.366336,87.117468,PM2.5,NA,NA,NA
India,Bihar,Purnia,"Mariam Nagar, Purnia - BSPCB",26-04-2024 02:00:00,25.366336,87.117468,PM10,13,139,91
India,Bihar,Rajgir,"Dangi Tola, Rajgir - BSPCB",26-04-2024 02:00:00,25.03280,85.41948,PM2.5,23,103,51
India,Bihar,Rajgir,"Dangi Tola, Rajgir - BSPCB",26-04-2024 02:00:00,25.03280,85.41948,PM10,26,109,57
India,Bihar,Saharsa,"Police Line, Saharsa - BSPCB",26-04-2024 02:00:00,25.892357,86.590325,PM2.5,18,67,42
India,Bihar,Samastipur,"DM Office_Kasipur, Samastipur - BSPCB",26-04-2024 02:00:00,25.859655,85.77944,PM10,NA,NA,NA
India,Bihar,Samastipur,"DM Office_Kasipur, Samastipur - BSPCB",26-04-2024 02:00:00,25.859655,85.77944,NH3,1,4,3
India,Bihar,Siwan,"Chitragupta Nagar, Siwan - BSPCB",26-04-2024 02:00:00,26.2271665,84.3570427,CO,101,138,123
India,Chandigarh,Chandigarh,"Sector 22, Chandigarh - CPCC",26-04-2024 02:00:00,30.735567,76.775714,CO,29,69,50
India,Chandigarh,Chandigarh,"Sector 22, Chandigarh - CPCC",26-04-2024 02:00:00,30.735567,76.775714,OZONE,3,175,73
India,Chandigarh,Chandigarh,"Sector-25, Chandigarh - CPCC",26-04-2024 02:00:00,30.751462,76.762879,SO2,10,22,16
India,Chandigarh,Chandigarh,"Sector-53, Chandigarh - CPCC",26-04-2024 02:00:00,30.719859,76.738637,SO2,1,32,14
India,Chandigarh,Chandigarh,"Sector-53, Chandigarh - CPCC",26-04-2024 02:00:00,30.719859,76.738637,CO,28,93,56
India,Chandigarh,Chandigarh,"Sector-53, Chandigarh - CPCC",26-04-2024 02:00:00,30.719859,76.738637,OZONE,13,64,32
India,Chhattisgarh,Bhilai,"Civic Center, Bhilai - Bhilai Steel Plant",26-04-2024 02:00:00,21.185571,81.343175,PM10,NA,NA,NA
India,Chhattisgarh,Bhilai,"Civic Center, Bhilai - Bhilai Steel Plant",26-04-2024 02:00:00,21.185571,81.343175,NH3,4,11,6
India,Chhattisgarh,Bhilai,"Civic Center, Bhilai - Bhilai Steel Plant",26-04-2024 02:00:00,21.185571,81.343175,SO2,4,31,11
India,Chhattisgarh,Bhilai,"Civic Center, Bhilai - Bhilai Steel Plant",26-04-2024 02:00:00,21.185571,81.343175,OZONE,9,72,24
India,Chhattisgarh,Bhilai,"Hathkhoj, Bhilai - CECB",26-04-2024 02:00:00,21.224231,81.408350,PM10,49,131,89
India,Chhattisgarh,Chhal,"Nawapara SECL Colony, Chhal - CECB",26-04-2024 02:00:00,22.118125,83.140608,OZONE,10,131,44
India,Chhattisgarh,Korba,"Urja Nagar, Korba - CECB",26-04-2024 02:00:00,22.348441,82.549611,PM2.5,NA,NA,NA
India,Chhattisgarh,Milupara,"Govt. Higher Secondary School, Milupara - CECB",26-04-2024 02:00:00,22.1910172,83.5197009,NO2,NA,NA,NA
India,Chhattisgarh,Milupara,"Govt. Higher Secondary School, Milupara - CECB",26-04-2024 02:00:00,22.1910172,83.5197009,NH3,NA,NA,NA
India,Chhattisgarh,Milupara,"Govt. Higher Secondary School, Milupara - CECB",26-04-2024 02:00:00,22.1910172,83.5197009,SO2,NA,NA,NA
India,Chhattisgarh,Milupara,"Govt. Higher Secondary School, Milupara - CECB",26-04-2024 02:00:00,22.1910172,83.5197009,CO,14,70,41
India,Chhattisgarh,Raipur,"AIIMS, Raipur - CECB",26-04-2024 02:00:00,21.258815,81.578979,PM2.5,33,59,47
India,Chhattisgarh,Raipur,"AIIMS, Raipur - CECB",26-04-2024 02:00:00,21.258815,81.578979,OZONE,9,50,20
India,Chhattisgarh,Raipur,"Bhatagaon New ISBT, Raipur - CECB",26-04-2024 02:00:00,21.219665,81.630094,NH3,NA,NA,NA
India,Chhattisgarh,Raipur,"Siltara Phase-II, Raipur - CECB",26-04-2024 02:00:00,21.371751,81.664929,NO2,27,78,48
India,Chhattisgarh,Raipur,"Siltara Phase-II, Raipur - CECB",26-04-2024 02:00:00,21.371751,81.664929,NH3,3,3,3
India,Chhattisgarh,Tumidih,"OP Jindal Industrial Park, Tumidih - CECB",26-04-2024 02:00:00,22.06631475,83.33820077,OZONE,4,82,34
India,Delhi,Delhi,"Alipur, Delhi - DPCC",26-04-2024 02:00:00,28.815329,77.153010,PM10,95,402,232
India,Delhi,Delhi,"Alipur, Delhi - DPCC",26-04-2024 02:00:00,28.815329,77.153010,NO2,9,143,70
India,Delhi,Delhi,"Anand Vihar, Delhi - DPCC",26-04-2024 02:00:00,28.647622,77.3158090,OZONE,4,107,19
India,Delhi,Delhi,"Aya Nagar, Delhi - IMD",26-04-2024 02:00:00,28.4706914,77.1099364,NO2,NA,NA,NA
India,Delhi,Delhi,"Aya Nagar, Delhi - IMD",26-04-2024 02:00:00,28.4706914,77.1099364,CO,NA,NA,NA
India,Delhi,Delhi,"Bawana, Delhi - DPCC",26-04-2024 02:00:00,28.776200,77.051074,PM2.5,27,500,222
India,Delhi,Delhi,"Bawana, Delhi - DPCC",26-04-2024 02:00:00,28.776200,77.051074,PM10,109,487,251
India,Delhi,Delhi,"Bawana, Delhi - DPCC",26-04-2024 02:00:00,28.776200,77.051074,NO2,11,108,50
India,Delhi,Delhi,"Bawana, Delhi - DPCC",26-04-2024 02:00:00,28.776200,77.051074,OZONE,3,131,50
India,Delhi,Delhi,"CRRI Mathura Road, Delhi - IMD",26-04-2024 02:00:00,28.5512005,77.2735737,PM10,86,436,241
India,Delhi,Delhi,"CRRI Mathura Road, Delhi - IMD",26-04-2024 02:00:00,28.5512005,77.2735737,NO2,22,46,32
India,Delhi,Delhi,"CRRI Mathura Road, Delhi - IMD",26-04-2024 02:00:00,28.5512005,77.2735737,CO,28,123,88
India,Delhi,Delhi,"Chandni Chowk, Delhi - IITM",26-04-2024 02:00:00,28.656756,77.227234,SO2,NA,NA,NA
India,Delhi,Delhi,"Dwarka-Sector 8, Delhi - DPCC ",26-04-2024 02:00:00,28.5710274,77.0719006,NH3,4,7,5
India,Delhi,Delhi,"Dwarka-Sector 8, Delhi - DPCC ",26-04-2024 02:00:00,28.5710274,77.0719006,OZONE,1,68,12
India,Delhi,Delhi,"IGI Airport (T3), Delhi - IMD",26-04-2024 02:00:00,28.5627763,77.1180053,PM2.5,15,385,147
India,Delhi,Delhi,"IHBAS, Dilshad Garden, Delhi - CPCB",26-04-2024 02:00:00,28.6811736,77.3025234,PM10,46,180,135
India,Delhi,Delhi,"IHBAS, Dilshad Garden, Delhi - CPCB",26-04-2024 02:00:00,28.6811736,77.3025234,NO2,35,71,47
India,Delhi,Delhi,"IHBAS, Dilshad Garden, Delhi - CPCB",26-04-2024 02:00:00,28.6811736,77.3025234,CO,14,65,39
India,Delhi,Delhi,"Jahangirpuri, Delhi - DPCC",26-04-2024 02:00:00,28.732820,77.170633,PM10,117,455,299
India,Delhi,Delhi,"Jawaharlal Nehru Stadium, Delhi - DPCC",26-04-2024 02:00:00,28.580280,77.233829,NO2,31,214,129
India,Delhi,Delhi,"Jawaharlal Nehru Stadium, Delhi - DPCC",26-04-2024 02:00:00,28.580280,77.233829,CO,21,120,89
India,Delhi,Delhi,"Lodhi Road, Delhi - IMD",26-04-2024 02:00:00,28.5918245,77.2273074,PM10,56,260,118
India,Delhi,Delhi,"Lodhi Road, Delhi - IMD",26-04-2024 02:00:00,28.5918245,77.2273074,CO,4,36,19
India,Delhi,Delhi,"Major Dhyan Chand National Stadium, Delhi - DPCC",26-04-2024 02:00:00,28.611281,77.237738,PM2.5,30,402,140
India,Delhi,Delhi,"Mandir Marg, Delhi - DPCC",26-04-2024 02:00:00,28.636429,77.201067,CO,6,68,49
India,Delhi,Delhi,"Mundka, Delhi - DPCC",26-04-2024 02:00:00,28.684678,77.076574,CO,28,82,61
India,Delhi,Delhi,"NSIT Dwarka, Delhi - CPCB",26-04-2024 02:00:00,28.60909,77.0325413,NO2,13,61,39
India,Delhi,Delhi,"NSIT Dwarka, Delhi - CPCB",26-04-2024 02:00:00,28.60909,77.0325413,NH3,7,19,11
India,Delhi,Delhi,"Najafgarh, Delhi - DPCC",26-04-2024 02:00:00,28.570173,76.933762,NO2,23,125,69
India,Delhi,Delhi,"Najafgarh, Delhi - DPCC",26-04-2024 02:00:00,28.570173,76.933762,OZONE,15,145,55
India,Delhi,Delhi,"Narela, Delhi - DPCC",26-04-2024 02:00:00,28.822836,77.101981,SO2,5,111,34
India,Delhi,Delhi,"New Moti Bagh, Delhi - MHUA",26-04-2024 02:00:00,28.57834,77.18400,PM2.5,10,360,166
India,Delhi,Delhi,"Okhla Phase-2, Delhi - DPCC",26-04-2024 02:00:00,28.530785,77.271255,NO2,40,156,102
India,Delhi,Delhi,"Patparganj, Delhi - DPCC",26-04-2024 02:00:00,28.623763,77.287209,PM10,NA,NA,NA
India,Delhi,Delhi,"Patparganj, Delhi - DPCC",26-04-2024 02:00:00,28.623763,77.287209,SO2,NA,NA,NA
India,Delhi,Delhi,"Punjabi Bagh, Delhi - DPCC",26-04-2024 02:00:00,28.674045,77.131023,PM2.5,4,440,179
India,Delhi,Delhi,"Punjabi Bagh, Delhi - DPCC",26-04-2024 02:00:00,28.674045,77.131023,SO2,17,54,37
India,Delhi,Delhi,"Pusa, Delhi - DPCC",26-04-2024 02:00:00,28.639652,77.146275,NO2,66,177,106
India,Delhi,Delhi,"Rohini, Delhi - DPCC",26-04-2024 02:00:00,28.732528,77.119920,SO2,6,120,30
India,Delhi,Delhi,"Shadipur, Delhi - CPCB",26-04-2024 02:00:00,28.6514781,77.1473105,PM2.5,67,443,286
India,Delhi,Delhi,"Shadipur, Delhi - CPCB",26-04-2024 02:00:00,28.6514781,77.1473105,NH3,5,7,6
India,Delhi,Delhi,"Shadipur, Delhi - CPCB",26-04-2024 02:00:00,28.6514781,77.1473105,SO2,3,42,21
India,Delhi,Delhi,"Shadipur, Delhi - CPCB",26-04-2024 02:00:00,28.6514781,77.1473105,OZONE,37,85,62
India,Delhi,Delhi,"Sirifort, Delhi - CPCB",26-04-2024 02:00:00,28.5504249,77.2159377,OZONE,11,63,16
India,Delhi,Delhi,"Sonia Vihar, Delhi - DPCC",26-04-2024 02:00:00,28.710508,77.249485,NO2,13,125,64
India,Delhi,Delhi,"Sonia Vihar, Delhi - DPCC",26-04-2024 02:00:00,28.710508,77.249485,NH3,5,9,6
India,Delhi,Delhi,"Sonia Vihar, Delhi - DPCC",26-04-2024 02:00:00,28.710508,77.249485,OZONE,5,114,35
India,Delhi,Delhi,"Vivek Vihar, Delhi - DPCC",26-04-2024 02:00:00,28.672342,77.315260,NO2,27,150,76
India,Delhi,Delhi,"Vivek Vihar, Delhi - DPCC",26-04-2024 02:00:00,28.672342,77.315260,NH3,15,16,15
India,Delhi,Delhi,"Wazirpur, Delhi - DPCC",26-04-2024 02:00:00,28.699793,77.165453,SO2,4,74,18
India,Gujarat,Ahmedabad,"Chandkheda, Ahmedabad - IITM",26-04-2024 02:00:00,23.107969,72.574648,CO,10,46,24
India,Gujarat,Ahmedabad,"Gyaspur, Ahmedabad - IITM",26-04-2024 02:00:00,22.977134,72.553024,PM2.5,52,361,141
India,Gujarat,Ahmedabad,"Raikhad, Ahmedabad - IITM",26-04-2024 02:00:00,23.020509,72.579261,PM2.5,85,228,125
India,Gujarat,Ahmedabad,"Raikhad, Ahmedabad - IITM",26-04-2024 02:00:00,23.020509,72.579261,NO2,43,53,47
India,Gujarat,Ahmedabad,"Rakhial, Ahmedabad - IITM",26-04-2024 02:00:00,23.016834,72.625775,PM10,99,163,123
India,Gujarat,Ahmedabad,"Rakhial, Ahmedabad - IITM",26-04-2024 02:00:00,23.016834,72.625775,CO,26,93,58
India,Gujarat,Ahmedabad,"SAC ISRO Satellite, Ahmedabad - IITM",26-04-2024 02:00:00,23.023389,72.515201,OZONE,11,46,19
India,Gujarat,Ahmedabad,"Sardar Vallabhbhai Patel Stadium, Ahmedabad - IITM",26-04-2024 02:00:00,23.043070,72.562968,PM2.5,55,191,111
India,Gujarat,Ahmedabad,"Sardar Vallabhbhai Patel Stadium, Ahmedabad - IITM",26-04-2024 02:00:00,23.043070,72.562968,NO2,38,41,40
India,Gujarat,Ahmedabad,"Sardar Vallabhbhai Patel Stadium, Ahmedabad - IITM",26-04-2024 02:00:00,23.043070,72.562968,NH3,8,9,9
India,Gujarat,Ahmedabad,"Sardar Vallabhbhai Patel Stadium, Ahmedabad - IITM",26-04-2024 02:00:00,23.043070,72.562968,SO2,3,38,13
India,Gujarat,Gandhinagar,"IIPHG Lekawada, Gandhinagar - IITM",26-04-2024 02:00:00,23.243639,72.68994,SO2,NA,NA,NA
India,Gujarat,Gandhinagar,"Sector-10, Gandhinagar - GPCB",26-04-2024 02:00:00,23.221714,72.654328,NH3,1,1,1
India,Gujarat,Vapi,"Phase-1 GIDC, Vapi - GPCB",26-04-2024 02:00:00,20.362421,72.918013,PM10,47,174,69
India,Gujarat,Vapi,"Phase-1 GIDC, Vapi - GPCB",26-04-2024 02:00:00,20.362421,72.918013,SO2,52,54,53
India,Haryana,Ambala,"Patti Mehar, Ambala - HSPCB",26-04-2024 02:00:00,30.379589,76.778328,PM2.5,24,76,50
India,Haryana,Ambala,"Patti Mehar, Ambala - HSPCB",26-04-2024 02:00:00,30.379589,76.778328,PM10,20,84,47
India,Haryana,Bahadurgarh,"Arya Nagar, Bahadurgarh - HSPCB",26-04-2024 02:00:00,28.6701,76.9254,PM10,41,241,150
India,Haryana,Bahadurgarh,"Arya Nagar, Bahadurgarh - HSPCB",26-04-2024 02:00:00,28.6701,76.9254,CO,91,102,99
India,Haryana,Ballabgarh,"Nathu Colony, Ballabgarh - HSPCB",26-04-2024 02:00:00,28.3419248,77.319699,SO2,3,50,17
India,Haryana,Charkhi Dadri,"Mini Secretariat, Charkhi Dadri - HSPCB",26-04-2024 02:00:00,28.593883,76.270653,SO2,8,45,25
India,Haryana,Charkhi Dadri,"Mini Secretariat, Charkhi Dadri - HSPCB",26-04-2024 02:00:00,28.593883,76.270653,OZONE,13,16,15
India,Haryana,Dharuhera,"Municipal Corporation Office, Dharuhera -  HSPCB",26-04-2024 02:00:00,28.206800,76.799700,NH3,9,26,19
India,Haryana,Faridabad,"New Industrial Town, Faridabad - HSPCB",26-04-2024 02:00:00,28.39072,77.30059,NH3,1,8,5
India,Haryana,Faridabad,"New Industrial Town, Faridabad - HSPCB",26-04-2024 02:00:00,28.39072,77.30059,OZONE,8,245,43
India,Haryana,Faridabad,"Sector 11, Faridabad - HSPCB",26-04-2024 02:00:00,28.376058,77.315741,PM10,108,486,304
India,Haryana,Faridabad,"Sector 11, Faridabad - HSPCB",26-04-2024 02:00:00,28.376058,77.315741,CO,20,74,55
India,Haryana,Faridabad,"Sector 30, Faridabad - HSPCB",26-04-2024 02:00:00,28.4417,77.3217,PM2.5,89,105,96
India,Haryana,Faridabad,"Sector 30, Faridabad - HSPCB",26-04-2024 02:00:00,28.4417,77.3217,CO,56,64,60
India,Haryana,Gurugram,"Sector-51, Gurugram - HSPCB",26-04-2024 02:00:00,28.4227,77.0667,PM2.5,140,500,333
India,Haryana,Gurugram,"Teri Gram, Gurugram - HSPCB",26-04-2024 02:00:00,28.4275,77.1465,CO,12,74,41
India,Haryana,Gurugram,"Vikas Sadan, Gurugram - HSPCB",26-04-2024 02:00:00,28.4501238,77.0263051,PM2.5,77,500,298
India,Haryana,Gurugram,"Vikas Sadan, Gurugram - HSPCB",26-04-2024 02:00:00,28.4501238,77.0263051,OZONE,8,69,20
India,Haryana,Hisar,"Urban Estate-II, Hisar - HSPCB",26-04-2024 02:00:00,29.140560,75.744941,PM2.5,35,150,77
India,Haryana,Hisar,"Urban Estate-II, Hisar - HSPCB",26-04-2024 02:00:00,29.140560,75.744941,PM10,73,171,124
India,Haryana,Jind,"Police Lines, Jind - HSPCB",26-04-2024 02:00:00,29.307814,76.337619,NO2,5,17,11
India,Haryana,Jind,"Police Lines, Jind - HSPCB",26-04-2024 02:00:00,29.307814,76.337619,NH3,2,5,4
India,Haryana,Jind,"Police Lines, Jind - HSPCB",26-04-2024 02:00:00,29.307814,76.337619,OZONE,8,23,15
India,Haryana,Kaithal,"Rishi Nagar, Kaithal - HSPCB",26-04-2024 02:00:00,29.8006,76.4155,NO2,24,26,25
India,Haryana,Kaithal,"Rishi Nagar, Kaithal - HSPCB",26-04-2024 02:00:00,29.8006,76.4155,SO2,44,102,66
India,Haryana,Kurukshetra,"Sector-7, Kurukshetra - HSPCB",26-04-2024 02:00:00,29.966942,76.875879,NO2,10,10,10
India,Haryana,Manesar,"Sector-2 IMT, Manesar - HSPCB",26-04-2024 02:00:00,28.360699,76.936090,OZONE,2,142,20
India,Haryana,Narnaul,"Shastri Nagar, Narnaul - HSPCB",26-04-2024 02:00:00,28.060249,76.113115,PM2.5,46,331,102
India,Haryana,Narnaul,"Shastri Nagar, Narnaul - HSPCB",26-04-2024 02:00:00,28.060249,76.113115,OZONE,9,60,51
India,Haryana,Palwal,"Shyam Nagar, Palwal - HSPCB",26-04-2024 02:00:00,28.1485564,77.3320667,CO,14,39,32
India,Haryana,Panipat,"Sector-18, Panipat - HSPCB",26-04-2024 02:00:00,29.497973,76.993331,PM10,NA,NA,NA
India,Haryana,Rohtak,"MD University, Rohtak - HSPCB",26-04-2024 02:00:00,28.52123,76.37138,NO2,46,55,51
India,Haryana,Sonipat,"Murthal, Sonipat - HSPCB",26-04-2024 02:00:00,29.027200,77.062100,NO2,37,44,40
India,Himachal Pradesh,Baddi,"HIMUDA Complex Phase-1, Baddi - HPPCB",26-04-2024 02:00:00,30.943887,76.801991,NO2,4,87,18
India,Himachal Pradesh,Baddi,"HIMUDA Complex Phase-1, Baddi - HPPCB",26-04-2024 02:00:00,30.943887,76.801991,NH3,2,4,2
India,Jharkhand,Pathardih,"Mohalbani Ghat, Pathardih - DMC",26-04-2024 02:00:00,23.669880,86.411725,NO2,NA,NA,NA
India,Karnataka,Bagalkot,"Vidayagiri, Bagalkot - KSPCB",26-04-2024 02:00:00,16.172806,75.659694,PM2.5,19,37,36
India,Karnataka,Belgaum,"Ramteerth Nagar, Belgaum - KSPCB",26-04-2024 02:00:00,15.888653,74.541751,PM2.5,14,33,24
India,Karnataka,Belgaum,"Ramteerth Nagar, Belgaum - KSPCB",26-04-2024 02:00:00,15.888653,74.541751,CO,23,46,32
India,Karnataka,Bengaluru,"BTM Layout, Bengaluru - CPCB",26-04-2024 02:00:00,12.9135218,77.5950804,PM2.5,32,41,36
India,Karnataka,Bengaluru,"Bapuji Nagar, Bengaluru - KSPCB",26-04-2024 02:00:00,12.951913,77.539784,PM10,64,108,88
India,Karnataka,Bengaluru,"Hebbal, Bengaluru - KSPCB",26-04-2024 02:00:00,13.029152,77.585901,PM2.5,46,150,74
India,Karnataka,Bengaluru,"Hombegowda Nagar, Bengaluru - KSPCB",26-04-2024 02:00:00,12.938539,77.590100,PM2.5,40,80,55
India,Karnataka,Bengaluru,"Hombegowda Nagar, Bengaluru - KSPCB",26-04-2024 02:00:00,12.938539,77.590100,NO2,11,23,16
India,Karnataka,Bengaluru,"Hombegowda Nagar, Bengaluru - KSPCB",26-04-2024 02:00:00,12.938539,77.590100,CO,22,38,34
India,Karnataka,Bengaluru,"Kasturi Nagar, Bengaluru - KSPCB",26-04-2024 02:00:00,13.003872,77.664217,PM2.5,84,115,97
India,Karnataka,Bengaluru,"Kasturi Nagar, Bengaluru - KSPCB",26-04-2024 02:00:00,13.003872,77.664217,PM10,103,123,113
India,Karnataka,Bengaluru,"RVCE-Mailasandra, Bengaluru - KSPCB",26-04-2024 02:00:00,12.921418,77.502466,CO,28,46,39
India,Karnataka,Bengaluru,"Sanegurava Halli, Bengaluru - KSPCB",26-04-2024 02:00:00,12.990328,77.5431385,CO,4,101,18
India,Karnataka,Bengaluru,"Shivapura_Peenya, Bengaluru - KSPCB",26-04-2024 02:00:00,13.0246342,77.5080115,NH3,4,4,4
India,Karnataka,Bengaluru,"Silk Board, Bengaluru - KSPCB",26-04-2024 02:00:00,12.917348,77.622813,SO2,5,16,10
India,Karnataka,Bidar,"Naubad, Bidar - KSPCB",26-04-2024 02:00:00,17.930306,77.482194,NH3,NA,NA,NA
