country,state,city,station,last_update,latitude,longitude,pollutant_id,pollutant_min,pollutant_max,pollutant_avg
India,Andhra_Pradesh,Amaravati,"Secretariat, Amaravati - APPCB",18-01-2024 20:00:00,16.5150833,80.5181667,NO2,9,25,16
India,Andhra_Pradesh,Amaravati,"Secretariat, Amaravati - APPCB",18-01-2024 20:00:00,16.5150833,80.5181667,SO2,12,14,13
India,Andhra_Pradesh,Anantapur,"Gulzarpet, Anantapur - APPCB",18-01-2024 20:00:00,14.675886,77.593027,NO2,14,40,24
India,Andhra_Pradesh,Anantapur,"Gulzarpet, Anantapur - APPCB",18-01-2024 20:00:00,14.675886,77.593027,SO2,6,15,7
India,Andhra_Pradesh,Kadapa,"Yerramukkapalli, Kadapa - APPCB",18-01-2024 20:00:00,14.465052,78.824187,SO2,1,2,2
India,Andhra_Pradesh,Rajamahendravaram,"Anand Kala Kshetram, Rajamahendravaram - APPCB",18-01-2024 20:00:00,16.9872867,81.7363176,SO2,15,22,19
India,Andhra_Pradesh,Tirupati,"Tirumala, Tirupati - APPCB",18-01-2024 20:00:00,13.67,79.35,CO,35,58,44
India,Andhra_Pradesh,Vijayawada,"Rajiv Gandhi Park, Vijayawada - APPCB",18-01-2024 20:00:00,16.509717,80.612222,CO,40,46,40
India,Andhra_Pradesh,Visakhapatnam,"GVM Corporation, Visakhapatnam - APPCB",18-01-2024 20:00:00,17.72,83.3,PM10,NA,NA,NA
India,Andhra_Pradesh,Visakhapatnam,"GVM Corporation, Visakhapatnam - APPCB",18-01-2024 20:00:00,17.72,83.3,OZONE,8,14,11
India,Arunachal_Pradesh,Naharlagun,"Naharlagun, Naharlagun - APSPCB",18-01-2024 20:00:00,27.103358,93.679645,CO,12,59,20
India,Assam,Byrnihat,"Central Academy for SFS, Byrnihat - PCBA",18-01-2024 20:00:00,26.071318,91.87488,PM10,NA,NA,NA
India,Assam,Byrnihat,"Central Academy for SFS, Byrnihat - PCBA",18-01-2024 20:00:00,26.071318,91.87488,NH3,NA,NA,NA
India,Assam,Byrnihat,"Central Academy for SFS, Byrnihat - PCBA",18-01-2024 20:00:00,26.071318,91.87488,SO2,NA,NA,NA
India,Assam,Byrnihat,"Central Academy for SFS, Byrnihat - PCBA",18-01-2024 20:00:00,26.071318,91.87488,CO,78,154,154
India,Assam,Guwahati,"IITG, Guwahati - PCBA",18-01-2024 20:00:00,26.2028636,91.70046436,PM10,109,277,166
India,Assam,Guwahati,"IITG, Guwahati - PCBA",18-01-2024 20:00:00,26.2028636,91.70046436,SO2,11,13,12
India,Assam,Guwahati,"LGBI Airport, Guwahati - PCBA",18-01-2024 20:00:00,26.10887,91.589544,PM2.5,82,408,267
India,Assam,Guwahati,"LGBI Airport, Guwahati - PCBA",18-01-2024 20:00:00,26.10887,91.589544,NO2,14,96,35
India,Assam,Guwahati,"LGBI Airport, Guwahati - PCBA",18-01-2024 20:00:00,26.10887,91.589544,NH3,1,10,4
India,Assam,Guwahati,"Pan Bazaar, Guwahati - PCBA",18-01-2024 20:00:00,26.187500,91.744194,CO,40,124,61
India,Assam,Nalbari,"Bata Chowk, Nalbari - PCBA",18-01-2024 20:00:00,26.446912,91.439057,SO2,3,13,7
India,Assam,Sivasagar,"Girls College, Sivasagar - PCBA",18-01-2024 20:00:00,26.987634,94.636574,PM10,35,91,54
India,Assam,Sivasagar,"Girls College, Sivasagar - PCBA",18-01-2024 20:00:00,26.987634,94.636574,NH3,3,3,3
India,Assam,Sivasagar,"Girls College, Sivasagar - PCBA",18-01-2024 20:00:00,26.987634,94.636574,SO2,4,7,6
India,Bihar,Araria,"Kharahiya Basti, Araria - BSPCB",18-01-2024 20:00:00,26.146529,87.454184,CO,51,104,76
India,Bihar,Bettiah,"Kamalnath Nagar, Bettiah - BSPCB",18-01-2024 20:00:00,26.80365,84.51954,PM10,29,145,66
India,Bihar,Bhagalpur,"Mayaganj, Bhagalpur - BSPCB",18-01-2024 20:00:00,25.265194,87.012947,PM2.5,123,376,268
India,Bihar,Bhagalpur,"Mayaganj, Bhagalpur - BSPCB",18-01-2024 20:00:00,25.265194,87.012947,NO2,6,24,10
India,Bihar,Gaya,"Collectorate, Gaya - BSPCB",18-01-2024 20:00:00,24.7955,84.9994,CO,34,40,37
India,Bihar,Gaya,"Kareemganj, Gaya - BSPCB",18-01-2024 20:00:00,24.792403,84.992416,CO,19,101,49
India,Bihar,Gaya,"SFTI Kusdihra, Gaya - BSPCB",18-01-2024 20:00:00,24.762518,84.982348,PM2.5,176,322,282
India,Bihar,Gaya,"SFTI Kusdihra, Gaya - BSPCB",18-01-2024 20:00:00,24.762518,84.982348,PM10,124,164,141
India,Bihar,Gaya,"SFTI Kusdihra, Gaya - BSPCB",18-01-2024 20:00:00,24.762518,84.982348,SO2,8,10,9
India,Bihar,Gaya,"SFTI Kusdihra, Gaya - BSPCB",18-01-2024 20:00:00,24.762518,84.982348,CO,86,107,102
India,Bihar,Hajipur,"Industrial Area, Hajipur - BSPCB",18-01-2024 20:00:00,25.697189,85.245900,PM10,166,264,218
India,Bihar,Katihar,"Mirchaibari, Katihar - BSPCB",18-01-2024 20:00:00,25.560083,87.553265,SO2,16,21,18
India,Bihar,Kishanganj,"SDM Office_Khagra, Kishanganj - BSPCB",18-01-2024 20:00:00,26.0881305,87.93840336,NH3,7,13,10
India,Bihar,Motihari,"Gandak Colony, Motihari - BSPCB",18-01-2024 20:00:00,26.63086,84.90051,CO,69,103,76
India,Bihar,Munger,"Town Hall, Munger - BSPCB",18-01-2024 20:00:00,25.376776,86.471523,NO2,8,10,9
India,Bihar,Munger,"Town Hall, Munger - BSPCB",18-01-2024 20:00:00,25.376776,86.471523,OZONE,9,14,11
India,Bihar,Muzaffarpur,"Buddha Colony, Muzaffarpur - BSPCB",18-01-2024 20:00:00,26.11442,85.39813,NH3,19,23,21
India,Bihar,Muzaffarpur,"MIT-Daudpur Kothi, Muzaffarpur - BSPCB",18-01-2024 20:00:00,26.1403345,85.3650192,PM2.5,230,362,304
India,Bihar,Patna,"DRM Office Danapur, Patna - BSPCB",18-01-2024 20:00:00,25.586562,85.043586,OZONE,2,11,5
India,Bihar,Patna,"Govt. High School Shikarpur, Patna - BSPCB",18-01-2024 20:00:00,25.592539,85.227158,PM2.5,24,256,108
India,Bihar,Patna,"IGSC Planetarium Complex, Patna - BSPCB",18-01-2024 20:00:00,25.610369,85.132568,PM2.5,81,288,145
India,Bihar,Patna,"IGSC Planetarium Complex, Patna - BSPCB",18-01-2024 20:00:00,25.610369,85.132568,CO,110,115,114
India,Bihar,Patna,"Muradpur, Patna - BSPCB",18-01-2024 20:00:00,25.619651,85.147382,PM2.5,304,354,321
India,Bihar,Patna,"Muradpur, Patna - BSPCB",18-01-2024 20:00:00,25.619651,85.147382,CO,85,110,101
India,Bihar,Patna,"Rajbansi Nagar, Patna - BSPCB",18-01-2024 20:00:00,25.599486,85.113666,PM10,227,409,311
India,Bihar,Patna,"Samanpura, Patna - BSPCB",18-01-2024 20:00:00,25.596727,85.085624,PM10,207,469,367
India,Bihar,Patna,"Samanpura, Patna - BSPCB",18-01-2024 20:00:00,25.596727,85.085624,NO2,14,16,14
India,Bihar,Patna,"Samanpura, Patna - BSPCB",18-01-2024 20:00:00,25.596727,85.085624,CO,105,133,113
India,Bihar,Purnia,"Mariam Nagar, Purnia - BSPCB",18-01-2024 20:00:00,25.366336,87.117468,PM2.5,52,253,133
India,Bihar,Purnia,"Mariam Nagar, Purnia - BSPCB",18-01-2024 20:00:00,25.366336,87.117468,OZONE,10,12,11
India,Bihar,Rajgir,"Dangi Tola, Rajgir - BSPCB",18-01-2024 20:00:00,25.03280,85.41948,PM2.5,270,401,346
India,Bihar,Rajgir,"Dangi Tola, Rajgir - BSPCB",18-01-2024 20:00:00,25.03280,85.41948,CO,11,36,28
India,Bihar,Saharsa,"Police Line, Saharsa - BSPCB",18-01-2024 20:00:00,25.892357,86.590325,PM2.5,133,474,288
India,Bihar,Samastipur,"DM Office_Kasipur, Samastipur - BSPCB",18-01-2024 20:00:00,25.859655,85.77944,PM10,NA,NA,NA
India,Bihar,Siwan,"Chitragupta Nagar, Siwan - BSPCB",18-01-2024 20:00:00,26.2271665,84.3570427,PM10,73,133,98
India,Chandigarh,Chandigarh,"Sector-53, Chandigarh - CPCC",18-01-2024 20:00:00,30.719859,76.738637,OZONE,2,42,31
India,Chhattisgarh,Bhilai,"32Bungalows, Bhilai - CECB",18-01-2024 20:00:00,21.194815,81.314770,OZONE,3,5,5
India,Chhattisgarh,Bhilai,"Civic Center, Bhilai - Bhilai Steel Plant",18-01-2024 20:00:00,21.185571,81.343175,PM10,43,124,77
India,Chhattisgarh,Bhilai,"Civic Center, Bhilai - Bhilai Steel Plant",18-01-2024 20:00:00,21.185571,81.343175,NO2,10,18,12
India,Chhattisgarh,Bhilai,"Civic Center, Bhilai - Bhilai Steel Plant",18-01-2024 20:00:00,21.185571,81.343175,OZONE,7,33,27
India,Chhattisgarh,Bhilai,"Hathkhoj, Bhilai - CECB",18-01-2024 20:00:00,21.224231,81.408350,NH3,7,8,7
India,Chhattisgarh,Bhilai,"Hathkhoj, Bhilai - CECB",18-01-2024 20:00:00,21.224231,81.408350,OZONE,11,31,28
India,Chhattisgarh,Chhal,"Nawapara SECL Colony, Chhal - CECB",18-01-2024 20:00:00,22.118125,83.140608,PM10,NA,NA,NA
India,Chhattisgarh,Chhal,"Nawapara SECL Colony, Chhal - CECB",18-01-2024 20:00:00,22.118125,83.140608,NH3,NA,NA,NA
India,Chhattisgarh,Korba,"Rampur, Korba - CECB",18-01-2024 20:00:00,22.368195,82.746431,NO2,31,57,47
India,Chhattisgarh,Korba,"Rampur, Korba - CECB",18-01-2024 20:00:00,22.368195,82.746431,NH3,3,6,4
India,Chhattisgarh,Korba,"Rampur, Korba - CECB",18-01-2024 20:00:00,22.368195,82.746431,CO,36,74,57
India,Chhattisgarh,Korba,"Rampur, Korba - CECB",18-01-2024 20:00:00,22.368195,82.746431,OZONE,2,15,9
India,Chhattisgarh,Kunjemura,"OP Jindal School, Kunjemura - CECB",18-01-2024 20:00:00,22.126650,83.483212,SO2,1,16,6
India,Chhattisgarh,Kunjemura,"OP Jindal School, Kunjemura - CECB",18-01-2024 20:00:00,22.126650,83.483212,OZONE,3,27,18
India,Chhattisgarh,Milupara,"Govt. Higher Secondary School, Milupara - CECB",18-01-2024 20:00:00,22.1910172,83.5197009,NH3,1,2,1
India,Chhattisgarh,Milupara,"Govt. Higher Secondary School, Milupara - CECB",18-01-2024 20:00:00,22.1910172,83.5197009,OZONE,4,54,32
India,Chhattisgarh,Raipur,"AIIMS, Raipur - CECB",18-01-2024 20:00:00,21.258815,81.578979,NH3,4,4,4
India,Chhattisgarh,Raipur,"Siltara Phase-II, Raipur - CECB",18-01-2024 20:00:00,21.371751,81.664929,OZONE,3,3,3
India,Chhattisgarh,Tumidih,"OP Jindal Industrial Park, Tumidih - CECB",18-01-2024 20:00:00,22.06631475,83.33820077,SO2,NA,NA,NA
India,Chhattisgarh,Tumidih,"OP Jindal Industrial Park, Tumidih - CECB",18-01-2024 20:00:00,22.06631475,83.33820077,CO,46,88,62
India,Delhi,Delhi,"Alipur, Delhi - DPCC",18-01-2024 20:00:00,28.815329,77.153010,PM10,125,360,204
India,Delhi,Delhi,"Alipur, Delhi - DPCC",18-01-2024 20:00:00,28.815329,77.153010,NH3,1,49,10
India,Delhi,Delhi,"Anand Vihar, Delhi - DPCC",18-01-2024 20:00:00,28.647622,77.3158090,PM2.5,304,440,369
India,Delhi,Delhi,"Ashok Vihar, Delhi - DPCC",18-01-2024 20:00:00,28.695381,77.181665,NO2,49,142,91
India,Delhi,Delhi,"Ashok Vihar, Delhi - DPCC",18-01-2024 20:00:00,28.695381,77.181665,NH3,10,13,12
India,Delhi,Delhi,"Ashok Vihar, Delhi - DPCC",18-01-2024 20:00:00,28.695381,77.181665,CO,28,106,89
India,Delhi,Delhi,"Bawana, Delhi - DPCC",18-01-2024 20:00:00,28.776200,77.051074,SO2,4,11,7
India,Delhi,Delhi,"Bawana, Delhi - DPCC",18-01-2024 20:00:00,28.776200,77.051074,OZONE,2,63,30
India,Delhi,Delhi,"CRRI Mathura Road, Delhi - IMD",18-01-2024 20:00:00,28.5512005,77.2735737,PM10,83,255,146
India,Delhi,Delhi,"DTU, Delhi - CPCB",18-01-2024 20:00:00,28.7500499,77.1112615,NO2,7,107,48
India,Delhi,Delhi,"Dr. Karni Singh Shooting Range, Delhi - DPCC",18-01-2024 20:00:00,28.498571,77.264840,PM10,117,318,202
India,Delhi,Delhi,"Dr. Karni Singh Shooting Range, Delhi - DPCC",18-01-2024 20:00:00,28.498571,77.264840,NO2,38,90,61
India,Delhi,Delhi,"Dwarka-Sector 8, Delhi - DPCC ",18-01-2024 20:00:00,28.5710274,77.0719006,PM2.5,242,421,345
India,Delhi,Delhi,"Dwarka-Sector 8, Delhi - DPCC ",18-01-2024 20:00:00,28.5710274,77.0719006,PM10,113,347,243
India,Delhi,Delhi,"IHBAS, Dilshad Garden, Delhi - CPCB",18-01-2024 20:00:00,28.6811736,77.3025234,PM2.5,200,347,303
India,Delhi,Delhi,"ITO, Delhi - CPCB",18-01-2024 20:00:00,28.628624,77.241060,OZONE,28,41,32
India,Delhi,Delhi,"Jahangirpuri, Delhi - DPCC",18-01-2024 20:00:00,28.732820,77.170633,SO2,11,17,14
India,Delhi,Delhi,"Jahangirpuri, Delhi - DPCC",18-01-2024 20:00:00,28.732820,77.170633,OZONE,8,39,23
India,Delhi,Delhi,"Jawaharlal Nehru Stadium, Delhi - DPCC",18-01-2024 20:00:00,28.580280,77.233829,NH3,10,13,11
India,Delhi,Delhi,"Jawaharlal Nehru Stadium, Delhi - DPCC",18-01-2024 20:00:00,28.580280,77.233829,SO2,5,24,10
India,Delhi,Delhi,"Lodhi Road, Delhi - IITM",18-01-2024 20:00:00,28.588333,77.221667,PM2.5,119,500,237
India,Delhi,Delhi,"Lodhi Road, Delhi - IITM",18-01-2024 20:00:00,28.588333,77.221667,SO2,3,38,24
India,Delhi,Delhi,"Lodhi Road, Delhi - IMD",18-01-2024 20:00:00,28.5918245,77.2273074,PM10,123,382,223
India,Delhi,Delhi,"Major Dhyan Chand National Stadium, Delhi - DPCC",18-01-2024 20:00:00,28.611281,77.237738,NH3,11,16,13
India,Delhi,Delhi,"Mandir Marg, Delhi - DPCC",18-01-2024 20:00:00,28.636429,77.201067,PM2.5,196,394,317
India,Delhi,Delhi,"Najafgarh, Delhi - DPCC",18-01-2024 20:00:00,28.570173,76.933762,CO,3,38,7
India,Delhi,Delhi,"Narela, Delhi - DPCC",18-01-2024 20:00:00,28.822836,77.101981,OZONE,6,90,45
India,Delhi,Delhi,"Nehru Nagar, Delhi - DPCC",18-01-2024 20:00:00,28.567890,77.250515,PM2.5,216,421,322
India,Delhi,Delhi,"North Campus, DU, Delhi - IMD",18-01-2024 20:00:00,28.6573814,77.1585447,NO2,13,116,55
India,Delhi,Delhi,"Okhla Phase-2, Delhi - DPCC",18-01-2024 20:00:00,28.530785,77.271255,NO2,47,109,72
India,Delhi,Delhi,"Okhla Phase-2, Delhi - DPCC",18-01-2024 20:00:00,28.530785,77.271255,OZONE,9,53,29
India,Delhi,Delhi,"Patparganj, Delhi - DPCC",18-01-2024 20:00:00,28.623763,77.287209,PM10,119,330,221
India,Delhi,Delhi,"Patparganj, Delhi - DPCC",18-01-2024 20:00:00,28.623763,77.287209,NH3,7,12,10
India,Delhi,Delhi,"Punjabi Bagh, Delhi - DPCC",18-01-2024 20:00:00,28.674045,77.131023,PM10,108,455,281
India,Delhi,Delhi,"Pusa, Delhi - DPCC",18-01-2024 20:00:00,28.639652,77.146275,PM2.5,134,404,295
India,Delhi,Delhi,"Pusa, Delhi - DPCC",18-01-2024 20:00:00,28.639652,77.146275,PM10,124,407,263
India,Delhi,Delhi,"Pusa, Delhi - DPCC",18-01-2024 20:00:00,28.639652,77.146275,NH3,15,32,22
India,Delhi,Delhi,"Pusa, Delhi - IMD",18-01-2024 20:00:00,28.636110,77.173332,NO2,28,86,50
India,Delhi,Delhi,"Pusa, Delhi - IMD",18-01-2024 20:00:00,28.636110,77.173332,OZONE,11,25,15
India,Delhi,Delhi,"R K Puram, Delhi - DPCC",18-01-2024 20:00:00,28.563262,77.186937,NO2,28,95,59
India,Delhi,Delhi,"R K Puram, Delhi - DPCC",18-01-2024 20:00:00,28.563262,77.186937,NH3,5,10,8
India,Delhi,Delhi,"R K Puram, Delhi - DPCC",18-01-2024 20:00:00,28.563262,77.186937,SO2,13,31,20
India,Delhi,Delhi,"R K Puram, Delhi - DPCC",18-01-2024 20:00:00,28.563262,77.186937,OZONE,8,86,43
India,Delhi,Delhi,"Rohini, Delhi - DPCC",18-01-2024 20:00:00,28.732528,77.119920,OZONE,1,66,40
India,Delhi,Delhi,"Shadipur, Delhi - CPCB",18-01-2024 20:00:00,28.6514781,77.1473105,NH3,12,26,17
India,Delhi,Delhi,"Shadipur, Delhi - CPCB",18-01-2024 20:00:00,28.6514781,77.1473105,CO,38,102,53
India,Delhi,Delhi,"Shadipur, Delhi - CPCB",18-01-2024 20:00:00,28.6514781,77.1473105,OZONE,51,154,124
India,Delhi,Delhi,"Sirifort, Delhi - CPCB",18-01-2024 20:00:00,28.5504249,77.2159377,PM2.5,300,420,354
India,Delhi,Delhi,"Sonia Vihar, Delhi - DPCC",18-01-2024 20:00:00,28.710508,77.249485,PM2.5,193,500,356
India,Delhi,Delhi,"Sonia Vihar, Delhi - DPCC",18-01-2024 20:00:00,28.710508,77.249485,NO2,42,123,71
India,Delhi,Delhi,"Sri Aurobindo Marg, Delhi - DPCC",18-01-2024 20:00:00,28.531346,77.190156,OZONE,1,16,9
India,Delhi,Delhi,"Vivek Vihar, Delhi - DPCC",18-01-2024 20:00:00,28.672342,77.315260,SO2,7,8,8
India,Delhi,Delhi,"Wazirpur, Delhi - DPCC",18-01-2024 20:00:00,28.699793,77.165453,NH3,4,7,5
India,Gujarat,Ahmedabad,"Chandkheda, Ahmedabad - IITM",18-01-2024 20:00:00,23.107969,72.574648,PM2.5,58,212,105
India,Gujarat,Ahmedabad,"Maninagar, Ahmedabad - GPCB",18-01-2024 20:00:00,23.002657,72.591912,PM2.5,33,148,86
India,Gujarat,Ahmedabad,"Raikhad, Ahmedabad - IITM",18-01-2024 20:00:00,23.020509,72.579261,PM2.5,NA,NA,NA
India,Gujarat,Ahmedabad,"Raikhad, Ahmedabad - IITM",18-01-2024 20:00:00,23.020509,72.579261,PM10,NA,NA,NA
India,Gujarat,Ahmedabad,"Raikhad, Ahmedabad - IITM",18-01-2024 20:00:00,23.020509,72.579261,NH3,NA,NA,NA
India,Gujarat,Ahmedabad,"Rakhial, Ahmedabad - IITM",18-01-2024 20:00:00,23.016834,72.625775,NO2,8,79,25
India,Gujarat,Ahmedabad,"Rakhial, Ahmedabad - IITM",18-01-2024 20:00:00,23.016834,72.625775,SO2,3,8,5
India,Gujarat,Ahmedabad,"SAC ISRO Bopal, Ahmedabad - IITM",18-01-2024 20:00:00,23.041137,72.456691,NO2,15,15,15
India,Gujarat,Ahmedabad,"SAC ISRO Satellite, Ahmedabad - IITM",18-01-2024 20:00:00,23.023389,72.515201,PM10,108,109,108
India,Gujarat,Ahmedabad,"SAC ISRO Satellite, Ahmedabad - IITM",18-01-2024 20:00:00,23.023389,72.515201,NH3,2,4,3
India,Gujarat,Ahmedabad,"SVPI Airport Hansol, Ahmedabad - IITM",18-01-2024 20:00:00,23.076793,72.627874,SO2,3,6,5
India,Gujarat,Ahmedabad,"Sardar Vallabhbhai Patel Stadium, Ahmedabad - IITM",18-01-2024 20:00:00,23.043070,72.562968,SO2,6,8,7
India,Gujarat,Ahmedabad,"Sardar Vallabhbhai Patel Stadium, Ahmedabad - IITM",18-01-2024 20:00:00,23.043070,72.562968,CO,10,110,27
India,Gujarat,Ankleshwar,"GIDC, Ankleshwar - GPCB",18-01-2024 20:00:00,21.613267,73.010555,SO2,4,128,41
India,Gujarat,Gandhinagar,"Sector-10, Gandhinagar - GPCB",18-01-2024 20:00:00,23.221714,72.654328,CO,18,20,20
India,Haryana,Ambala,"Patti Mehar, Ambala - HSPCB",18-01-2024 20:00:00,30.379589,76.778328,SO2,1,33,8
India,Haryana,Bahadurgarh,"Arya Nagar, Bahadurgarh - HSPCB",18-01-2024 20:00:00,28.6701,76.9254,OZONE,39,49,43
India,Haryana,Ballabgarh,"Nathu Colony, Ballabgarh - HSPCB",18-01-2024 20:00:00,28.3419248,77.319699,PM10,91,183,131
India,Haryana,Bhiwani,"H.B. Colony, Bhiwani - HSPCB",18-01-2024 20:00:00,28.806223,76.141105,PM2.5,101,348,188
India,Haryana,Bhiwani,"H.B. Colony, Bhiwani - HSPCB",18-01-2024 20:00:00,28.806223,76.141105,NO2,2,10,9
India,Haryana,Charkhi Dadri,"Mini Secretariat, Charkhi Dadri - HSPCB",18-01-2024 20:00:00,28.593883,76.270653,SO2,7,11,9
India,Haryana,Dharuhera,"Municipal Corporation Office, Dharuhera -  HSPCB",18-01-2024 20:00:00,28.206800,76.799700,PM2.5,45,301,152
India,Haryana,Faridabad,"Sector 30, Faridabad - HSPCB",18-01-2024 20:00:00,28.4417,77.3217,PM2.5,145,172,158
India,Haryana,Faridabad,"Sector 30, Faridabad - HSPCB",18-01-2024 20:00:00,28.4417,77.3217,PM10,126,136,131
India,Haryana,Faridabad,"Sector- 16A, Faridabad - HSPCB",18-01-2024 20:00:00,28.4088421,77.3099081,OZONE,14,14,14
India,Haryana,Fatehabad,"Huda Sector, Fatehabad - HSPCB",18-01-2024 20:00:00,29.503664,75.467934,SO2,3,10,8
India,Haryana,Gurugram,"NISE Gwal Pahari, Gurugram - IMD",18-01-2024 20:00:00,28.422681,77.148944,PM2.5,58,310,162
India,Haryana,Gurugram,"NISE Gwal Pahari, Gurugram - IMD",18-01-2024 20:00:00,28.422681,77.148944,NO2,6,19,11
India,Haryana,Gurugram,"NISE Gwal Pahari, Gurugram - IMD",18-01-2024 20:00:00,28.422681,77.148944,CO,14,22,16
India,Haryana,Gurugram,"Teri Gram, Gurugram - HSPCB",18-01-2024 20:00:00,28.4275,77.1465,PM10,90,238,153
India,Haryana,Gurugram,"Teri Gram, Gurugram - HSPCB",18-01-2024 20:00:00,28.4275,77.1465,CO,32,63,45
India,Haryana,Gurugram,"Teri Gram, Gurugram - HSPCB",18-01-2024 20:00:00,28.4275,77.1465,OZONE,7,14,14
India,Haryana,Gurugram,"Vikas Sadan, Gurugram - HSPCB",18-01-2024 20:00:00,28.4501238,77.0263051,PM2.5,18,197,91
India,Haryana,Gurugram,"Vikas Sadan, Gurugram - HSPCB",18-01-2024 20:00:00,28.4501238,77.0263051,SO2,21,39,29
India,Haryana,Hisar,"Urban Estate-II, Hisar - HSPCB",18-01-2024 20:00:00,29.140560,75.744941,NO2,6,10,8
India,Haryana,Hisar,"Urban Estate-II, Hisar - HSPCB",18-01-2024 20:00:00,29.140560,75.744941,CO,40,77,64
India,Haryana,Jind,"Police Lines, Jind - HSPCB",18-01-2024 20:00:00,29.307814,76.337619,CO,22,26,24
India,Haryana,Kaithal,"Rishi Nagar, Kaithal - HSPCB",18-01-2024 20:00:00,29.8006,76.4155,PM10,NA,NA,NA
India,Haryana,Kurukshetra,"Sector-7, Kurukshetra - HSPCB",18-01-2024 20:00:00,29.966942,76.875879,PM10,3,336,165
India,Haryana,Kurukshetra,"Sector-7, Kurukshetra - HSPCB",18-01-2024 20:00:00,29.966942,76.875879,NH3,3,5,5
India,Haryana,Mandikhera,"General Hospital, Mandikhera - HSPCB",18-01-2024 20:00:00,27.9002,76.9938,NO2,15,21,19
India,Haryana,Manesar,"Sector-2 IMT, Manesar - HSPCB",18-01-2024 20:00:00,28.360699,76.936090,NH3,5,9,7
India,Haryana,Narnaul,"Shastri Nagar, Narnaul - HSPCB",18-01-2024 20:00:00,28.060249,76.113115,NO2,17,46,33
India,Haryana,Panchkula,"Sector-6, Panchkula - HSPCB ",18-01-2024 20:00:00,30.7057778,76.8531805555555,OZONE,40,69,60
India,Haryana,Panipat,"Sector-18, Panipat - HSPCB",18-01-2024 20:00:00,29.497973,76.993331,PM10,104,110,107
India,Haryana,Panipat,"Sector-18, Panipat - HSPCB",18-01-2024 20:00:00,29.497973,76.993331,SO2,12,13,13
India,Haryana,Sirsa,"F-Block, Sirsa - HSPCB",18-01-2024 20:00:00,29.536400,75.015800,NO2,10,10,10
India,Haryana,Sirsa,"F-Block, Sirsa - HSPCB",18-01-2024 20:00:00,29.536400,75.015800,SO2,7,17,13
India,Haryana,Sonipat,"Murthal, Sonipat - HSPCB",18-01-2024 20:00:00,29.027200,77.062100,PM2.5,80,362,213
India,Haryana,Sonipat,"Murthal, Sonipat - HSPCB",18-01-2024 20:00:00,29.027200,77.062100,NO2,37,44,40
India,Haryana,Sonipat,"Murthal, Sonipat - HSPCB",18-01-2024 20:00:00,29.027200,77.062100,SO2,13,29,20
India,Haryana,Yamuna Nagar,"Gobind Pura, Yamuna Nagar - HSPCB",18-01-2024 20:00:00,30.1480566,77.2893471,SO2,3,90,12
India,Jharkhand,Dhanbad,"Kalakusuma, Dhanbad - DMC",18-01-2024 20:00:00,23.811548,86.481238,PM2.5,NA,NA,NA
India,Jharkhand,Dhanbad,"Kalakusuma, Dhanbad - DMC",18-01-2024 20:00:00,23.811548,86.481238,NO2,32,34,33
India,Jharkhand,Dhanbad,"Kalakusuma, Dhanbad - DMC",18-01-2024 20:00:00,23.811548,86.481238,CO,88,104,99
India,Jharkhand,Dhanbad,"Kalakusuma, Dhanbad - DMC",18-01-2024 20:00:00,23.811548,86.481238,OZONE,19,22,19
India,Jharkhand,Dhanbad,"Sardar Patel Nagar, Dhanbad - JSPCB",18-01-2024 20:00:00,23.80569,86.44268,SO2,NA,NA,NA
India,Jharkhand,Dhanbad,"Sardar Patel Nagar, Dhanbad - JSPCB",18-01-2024 20:00:00,23.80569,86.44268,OZONE,11,14,11
India,Karnataka,Bagalkot,"Vidayagiri, Bagalkot - KSPCB",18-01-2024 20:00:00,16.172806,75.659694,NO2,10,11,10
India,Karnataka,Bagalkot,"Vidayagiri, Bagalkot - KSPCB",18-01-2024 20:00:00,16.172806,75.659694,CO,28,51,41
India,Karnataka,Belgaum,"Ramteerth Nagar, Belgaum - KSPCB",18-01-2024 20:00:00,15.888653,74.541751,PM2.5,21,168,53
India,Karnataka,Belgaum,"Ramteerth Nagar, Belgaum - KSPCB",18-01-2024 20:00:00,15.888653,74.541751,SO2,8,8,8
India,Karnataka,Belgaum,"Ramteerth Nagar, Belgaum - KSPCB",18-01-2024 20:00:00,15.888653,74.541751,CO,38,57,53
India,Karnataka,Bengaluru,"Bapuji Nagar, Bengaluru - KSPCB",18-01-2024 20:00:00,12.951913,77.539784,PM2.5,65,162,102
India,Karnataka,Bengaluru,"City Railway Station, Bengaluru - KSPCB",18-01-2024 20:00:00,12.9756843,77.5660749,SO2,13,13,13
India,Karnataka,Bengaluru,"Hebbal, Bengaluru - KSPCB",18-01-2024 20:00:00,13.029152,77.585901,NO2,5,5,5
India,Karnataka,Bengaluru,"Hombegowda Nagar, Bengaluru - KSPCB",18-01-2024 20:00:00,12.938539,77.590100,PM2.5,39,169,67
India,Karnataka,Bengaluru,"Hombegowda Nagar, Bengaluru - KSPCB",18-01-2024 20:00:00,12.938539,77.590100,SO2,4,5,4
India,Karnataka,Bengaluru,"Jayanagar 5th Block, Bengaluru - KSPCB",18-01-2024 20:00:00,12.920984,77.584908,PM2.5,78,245,144
India,Karnataka,Bengaluru,"Jayanagar 5th Block, Bengaluru - KSPCB",18-01-2024 20:00:00,12.920984,77.584908,NH3,2,3,2
India,Karnataka,Bengaluru,"Jigani, Bengaluru - KSPCB",18-01-2024 20:00:00,12.7816279,77.6299145,CO,48,80,62
India,Karnataka,Bengaluru,"Peenya, Bengaluru - CPCB",18-01-2024 20:00:00,13.0270199,77.494094,PM2.5,32,163,61
India,Karnataka,Bengaluru,"Shivapura_Peenya, Bengaluru - KSPCB",18-01-2024 20:00:00,13.0246342,77.5080115,NH3,4,4,4
India,Karnataka,Bengaluru,"Shivapura_Peenya, Bengaluru - KSPCB",18-01-2024 20:00:00,13.0246342,77.5080115,SO2,5,38,15
India,Karnataka,Bengaluru,"Silk Board, Bengaluru - KSPCB",18-01-2024 20:00:00,12.917348,77.622813,PM2.5,44,232,90
India,Karnataka,Bidar,"Naubad, Bidar - KSPCB",18-01-2024 20:00:00,17.930306,77.482194,NH3,2,3,3
India,Karnataka,Bidar,"Naubad, Bidar - KSPCB",18-01-2024 20:00:00,17.930306,77.482194,SO2,14,23,16
India,Karnataka,Chamarajanagar,"Urban, Chamarajanagar - KSPCB",18-01-2024 20:00:00,11.55358,76.55521,PM2.5,20,47,29
India,Karnataka,Chamarajanagar,"Urban, Chamarajanagar - KSPCB",18-01-2024 20:00:00,11.55358,76.55521,PM10,39,56,44
India,Karnataka,Chikkaballapur,"Chikkaballapur Rural, Chikkaballapur - KSPCB",18-01-2024 20:00:00,13.428828,77.731418,PM2.5,67,207,120
India,Karnataka,Chikkaballapur,"Chikkaballapur Rural, Chikkaballapur - KSPCB",18-01-2024 20:00:00,13.428828,77.731418,NO2,8,23,12
India,Karnataka,Chikkamagaluru,"Kalyana Nagara, Chikkamagaluru - KSPCB",18-01-2024 20:00:00,13.328028,75.797056,NH3,3,5,3
India,Karnataka,Chikkamagaluru,"Kalyana Nagara, Chikkamagaluru - KSPCB",18-01-2024 20:00:00,13.328028,75.797056,OZONE,17,52,48
India,Karnataka,Davanagere,"Devaraj Urs Badavane, Davanagere - KSPCB",18-01-2024 20:00:00,14.475800,75.905200,OZONE,18,24,20
India,Karnataka,Hassan,"B.Katihalli, Hassan - KSPCB",18-01-2024 20:00:00,13.008556,76.125258,PM2.5,NA,NA,NA
India,Karnataka,Hassan,"B.Katihalli, Hassan - KSPCB",18-01-2024 20:00:00,13.008556,76.125258,SO2,NA,NA,NA
India,Karnataka,Hassan,"B.Katihalli, Hassan - KSPCB",18-01-2024 20:00:00,13.008556,76.125258,CO,14,50,27
India,Karnataka,Haveri,"Ashwini Nagar, Haveri - KSPCB",18-01-2024 20:00:00,14.791800,75.389600,NH3,NA,NA,NA
India,Karnataka,Haveri,"Ashwini Nagar, Haveri - KSPCB",18-01-2024 20:00:00,14.791800,75.389600,CO,32,33,32
India,Karnataka,Haveri,"Ashwini Nagar, Haveri - KSPCB",18-01-2024 20:00:00,14.791800,75.389600,OZONE,18,20,19
India,Karnataka,Hubballi,"Deshpande Nagar, Hubballi - KSPCB",18-01-2024 20:00:00,15.351773,75.140726,SO2,12,15,14
India,Karnataka,Hubballi,"Lingaraj Nagar, Hubballi - KSPCB",18-01-2024 20:00:00,15.3714823,75.1160168,NH3,2,2,2
India,Karnataka,Hubballi,"Lingaraj Nagar, Hubballi - KSPCB",18-01-2024 20:00:00,15.3714823,75.1160168,OZONE,17,97,42
India,Karnataka,Kalaburagi,"Mahatma Basaveswar Colony, Kalaburgi - KSPCB",18-01-2024 20:00:00,17.336318,76.847397,PM2.5,NA,NA,NA
India,Karnataka,Kalaburagi,"Mahatma Basaveswar Colony, Kalaburgi - KSPCB",18-01-2024 20:00:00,17.336318,76.847397,PM10,NA,NA,NA
India,Karnataka,Kalaburagi,"Mahatma Basaveswar Colony, Kalaburgi - KSPCB",18-01-2024 20:00:00,17.336318,76.847397,OZONE,19,28,24
India,Karnataka,Karwar,"KHB Colony, Karwar - KSPCB",18-01-2024 20:00:00,14.816666,74.141003,SO2,18,18,18
India,Karnataka,Kolar,"Tamaka Ind. Area, Kolar - KSPCB",18-01-2024 20:00:00,13.1276288,78.1570122,NH3,6,7,7
India,Karnataka,Kolar,"Tamaka Ind. Area, Kolar - KSPCB",18-01-2024 20:00:00,13.1276288,78.1570122,OZONE,15,17,16
India,Karnataka,Madikeri,"Stuart Hill, Madikeri - KSPCB",18-01-2024 20:00:00,12.415911,75.735050,PM10,29,53,37
India,Karnataka,Madikeri,"Stuart Hill, Madikeri - KSPCB",18-01-2024 20:00:00,12.415911,75.735050,NO2,4,10,6
India,Karnataka,Madikeri,"Stuart Hill, Madikeri - KSPCB",18-01-2024 20:00:00,12.415911,75.735050,NH3,1,1,1
India,Karnataka,Mangalore,"Kadri, Mangalore - KSPCB",18-01-2024 20:00:00,12.889250,74.853000,NH3,2,3,3
India,Karnataka,Mangalore,"Kadri, Mangalore - KSPCB",18-01-2024 20:00:00,12.889250,74.853000,CO,34,43,41
India,Karnataka,Mysuru,"Hebbal 1st Stage, Mysuru - KSPCB",18-01-2024 20:00:00,12.21041,76.37376,CO,12,74,23
India,Karnataka,Raichur,"Haji Colony, Raichur - KSPCB",18-01-2024 20:00:00,16.208139,77.348417,NH3,NA,NA,NA
India,Karnataka,Raichur,"Haji Colony, Raichur - KSPCB",18-01-2024 20:00:00,16.208139,77.348417,SO2,NA,NA,NA
India,Karnataka,Ramanagara,"Vijay Nagar, Ramanagara - KSPCB",18-01-2024 20:00:00,12.733409,77.298051,NH3,1,1,1
India,Karnataka,Shivamogga,"Vinoba Nagara, Shivamogga - KSPCB",18-01-2024 20:00:00,13.940000,75.555917,PM2.5,32,66,51
India,Karnataka,Udupi,"Brahmagiri, Udupi - KSPCB",18-01-2024 20:00:00,13.34194444,74.74694444,PM10,28,59,40
India,Karnataka,Udupi,"Brahmagiri, Udupi - KSPCB",18-01-2024 20:00:00,13.34194444,74.74694444,NH3,1,2,2
India,Karnataka,Udupi,"Brahmagiri, Udupi - KSPCB",18-01-2024 20:00:00,13.34194444,74.74694444,SO2,20,23,21
India,Karnataka,Udupi,"Brahmagiri, Udupi - KSPCB",18-01-2024 20:00:00,13.34194444,74.74694444,OZONE,23,23,23
India,Karnataka,Vijayapura,"Ibrahimpur, Vijayapura - KSPCB",18-01-2024 20:00:00,16.802639,75.722694,SO2,1,3,2
India,Karnataka,Yadgir,"Collector Office, Yadgir - KSPCB",18-01-2024 20:00:00,16.7602,77.1428,PM2.5,55,98,70
India,Karnataka,Yadgir,"Collector Office, Yadgir - KSPCB",18-01-2024 20:00:00,16.7602,77.1428,NH3,1,1,1
India,Kerala,Kannur,"Thavakkara, Kannur - Kerala PCB",18-01-2024 20:00:00,11.875000,75.373200,PM2.5,44,50,48
India,Kerala,Kochi,"Vyttila, Kochi - Kerala PCB",18-01-2024 20:00:00,9.969447,76.321186,NH3,3,3,3
India,Kerala,Kochi,"Vyttila, Kochi - Kerala PCB",18-01-2024 20:00:00,9.969447,76.321186,SO2,2,5,4
India,Kerala,Thiruvananthapuram,"Plammoodu, Thiruvananthapuram - Kerala PCB",18-01-2024 20:00:00,8.5149093,76.9435879,SO2,2,10,7
India,Kerala,Thiruvananthapuram,"Plammoodu, Thiruvananthapuram - Kerala PCB",18-01-2024 20:00:00,8.5149093,76.9435879,OZONE,13,54,21
India,Kerala,Thrissur,"Corporation Ground, Thrissur - Kerala PCB",18-01-2024 20:00:00,10.532400,76.215900,PM2.5,49,54,51
India,Madhya Pradesh,Bhopal,"Paryavaran Parisar, Bhopal - MPPCB",18-01-2024 20:00:00,23.210494,77.425409,PM2.5,67,316,146
India,Madhya Pradesh,Bhopal,"Paryavaran Parisar, Bhopal - MPPCB",18-01-2024 20:00:00,23.210494,77.425409,NO2,24,96,49
India,Madhya Pradesh,Bhopal,"Paryavaran Parisar, Bhopal - MPPCB",18-01-2024 20:00:00,23.210494,77.425409,CO,7,84,29
India,Madhya Pradesh,Bhopal,"T T Nagar, Bhopal - MPPCB",18-01-2024 20:00:00,23.233584,77.400574,PM2.5,76,250,158
India,Madhya Pradesh,Bhopal,"T T Nagar, Bhopal - MPPCB",18-01-2024 20:00:00,23.233584,77.400574,NH3,1,4,2
India,Madhya Pradesh,Damoh,"Shrivastav Colony, Damoh - MPPCB",18-01-2024 20:00:00,23.81748678,79.446246,PM10,52,123,89
India,Madhya Pradesh,Dewas,"Bhopal Chauraha, Dewas - MPPCB",18-01-2024 20:00:00,22.9682591,76.064118,SO2,30,46,38
India,Madhya Pradesh,Dewas,"Bhopal Chauraha, Dewas - MPPCB",18-01-2024 20:00:00,22.9682591,76.064118,OZONE,12,47,37
India,Madhya Pradesh,Gwalior,"City Center, Gwalior - MPPCB",18-01-2024 20:00:00,26.203442,78.193251,OZONE,18,20,19
India,Madhya Pradesh,Gwalior,"Deen Dayal Nagar, Gwalior - MPPCB",18-01-2024 20:00:00,26.259242,78.216432,NH3,5,9,7
India,Madhya Pradesh,Gwalior,"Deen Dayal Nagar, Gwalior - MPPCB",18-01-2024 20:00:00,26.259242,78.216432,SO2,14,19,15
India,Madhya Pradesh,Gwalior,"Maharaj Bada, Gwalior - MPPCB",18-01-2024 20:00:00,26.200388,78.147714,CO,57,115,92
India,Madhya Pradesh,Indore,"Chhoti Gwaltoli, Indore - MPPCB",18-01-2024 20:00:00,22.4310,75.5213,CO,66,126,79
India,Madhya Pradesh,Indore,"Regional Park, Indore - IMC",18-01-2024 20:00:00,22.6780,75.8559,OZONE,4,13,10
India,Madhya Pradesh,Indore,"Residency Area, Indore - IMC",18-01-2024 20:00:00,22.7084,75.8815,PM2.5,NA,NA,NA
India,Madhya Pradesh,Jabalpur,"Govindh Bhavan Colony, Jabalpur - JMC",18-01-2024 20:00:00,23.163174,79.973061,SO2,NA,NA,NA
India,Madhya Pradesh,Jabalpur,"Gupteshwar, Jabalpur - JMC",18-01-2024 20:00:00,23.142888,79.916147,NO2,15,132,36
India,Madhya Pradesh,Jabalpur,"Suhagi, Jabalpur - JMC",18-01-2024 20:00:00,23.218135,79.957770,OZONE,13,152,85
India,Madhya Pradesh,Katni,"Gole Bazar, Katni - MPPCB",18-01-2024 20:00:00,23.50016,80.23284,PM10,78,161,128
India,Madhya Pradesh,Katni,"Gole Bazar, Katni - MPPCB",18-01-2024 20:00:00,23.50016,80.23284,NO2,22,88,44
India,Madhya Pradesh,Katni,"Gole Bazar, Katni - MPPCB",18-01-2024 20:00:00,23.50016,80.23284,SO2,2,24,12
India,Madhya Pradesh,Maihar,"Sahilara, Maihar - KJS Cements",18-01-2024 20:00:00,24.2613009,80.7231783,PM10,43,150,89
India,Madhya Pradesh,Mandideep,"Sector-D Industrial Area, Mandideep - MPPCB",18-01-2024 20:00:00,23.108440,77.511428,NH3,5,8,7
India,Madhya Pradesh,Pithampur,"Sector-2 Industrial Area, Pithampur - MPPCB",18-01-2024 20:00:00,22.624758,75.675238,NH3,2,3,2
India,Madhya Pradesh,Sagar,"Civil Lines, Sagar - MPPCB",18-01-2024 20:00:00,23.838586,78.759431,PM2.5,78,333,204
India,Madhya Pradesh,Sagar,"Civil Lines, Sagar - MPPCB",18-01-2024 20:00:00,23.838586,78.759431,SO2,3,5,4
India,Madhya Pradesh,Satna,"Bandhavgar Colony, Satna - Birla Cement",18-01-2024 20:00:00,24.58434363,80.8549414,PM2.5,4,39,21
India,Madhya Pradesh,Satna,"Bandhavgar Colony, Satna - Birla Cement",18-01-2024 20:00:00,24.58434363,80.8549414,CO,28,45,34
India,Madhya Pradesh,Satna,"Bandhavgar Colony, Satna - Birla Cement",18-01-2024 20:00:00,24.58434363,80.8549414,OZONE,58,80,73
India,Madhya Pradesh,Singrauli,"Suryakiran Bhawan NCL, Singrauli - MPPCB",18-01-2024 20:00:00,24.108970,82.645580,SO2,70,136,104
India,Madhya Pradesh,Ujjain,"Mahakaleshwar Temple, Ujjain - MPPCB",18-01-2024 20:00:00,23.182719 ,75.768218 ,PM10,68,164,100
India,Madhya Pradesh,Ujjain,"Mahakaleshwar Temple, Ujjain - MPPCB",18-01-2024 20:00:00,23.182719 ,75.768218 ,NO2,9,78,26
India,Madhya Pradesh,Ujjain,"Mahakaleshwar Temple, Ujjain - MPPCB",18-01-2024 20:00:00,23.182719 ,75.768218 ,NH3,6,12,8
India,Maharashtra,Ahmednagar,"Tarakpur, Ahmednagar - MPCB",18-01-2024 20:00:00,19.10122,74.73339,CO,12,104,45
India,Maharashtra,Akola,"Ramdaspeth, Akola - MPCB",18-01-2024 20:00:00,20.719516,77.000253,SO2,5,13,8
India,Maharashtra,Amravati,"Shivneri Colony, Amravati - MPCB",18-01-2024 20:00:00,20.9402359,77.7895248,NH3,2,4,3
India,Maharashtra,Amravati,"Shri Shivaji Science College, Amaravati - MPCB",18-01-2024 20:00:00,20.939198,77.765701,PM2.5,91,214,123
India,Maharashtra,Amravati,"Shri Shivaji Science College, Amaravati - MPCB",18-01-2024 20:00:00,20.939198,77.765701,PM10,107,422,171
India,Maharashtra,Aurangabad,"MIDC Chilkalthana, Aurangabad - MPCB",18-01-2024 20:00:00,19.875620,75.387310,SO2,6,16,10
India,Maharashtra,Belapur,"CBD Belapur, Belapur - MPCB",18-01-2024 20:00:00,19.0243902,73.0406721,NO2,22,77,45
India,Maharashtra,Boisar,"Khaira, Boisar - MPCB",18-01-2024 20:00:00,19.786089,72.757971,NO2,14,57,28
India,Maharashtra,Boisar,"Khaira, Boisar - MPCB",18-01-2024 20:00:00,19.786089,72.757971,CO,16,104,27
India,Maharashtra,Chandrapur,"Chauhan Colony, Chandrapur - MPCB",18-01-2024 20:00:00,19.962900,79.298714,PM2.5,67,172,105
India,Maharashtra,Chandrapur,"Chauhan Colony, Chandrapur - MPCB",18-01-2024 20:00:00,19.962900,79.298714,CO,4,30,15
India,Maharashtra,Chandrapur,"MIDC Khutala, Chandrapur - MPCB",18-01-2024 20:00:00,19.9775302,79.2337086,SO2,NA,NA,NA
India,Maharashtra,Dhule,"Deopur, Dhule - MPCB",18-01-2024 20:00:00,20.918946,74.776388,PM2.5,128,223,173
India,Maharashtra,Dhule,"Deopur, Dhule - MPCB",18-01-2024 20:00:00,20.918946,74.776388,NO2,9,20,12
India,Maharashtra,Dhule,"Deopur, Dhule - MPCB",18-01-2024 20:00:00,20.918946,74.776388,CO,17,38,25
India,Maharashtra,Jalgaon,"Prabhat Colony, Jalgaon - MPCB",18-01-2024 20:00:00,21.001264,75.565602,SO2,5,25,13
India,Maharashtra,Jalgaon,"Prabhat Colony, Jalgaon - MPCB",18-01-2024 20:00:00,21.001264,75.565602,OZONE,1,100,78
India,Maharashtra,Jalna,"Old MIDC, Jalna - MPCB",18-01-2024 20:00:00,19.854616,75.905894,OZONE,23,126,91
India,Maharashtra,Kalyan,"Khadakpada, Kalyan - MPCB",18-01-2024 20:00:00,19.25292,73.142019,NH3,1,3,1
India,Maharashtra,Kalyan,"Khadakpada, Kalyan - MPCB",18-01-2024 20:00:00,19.25292,73.142019,CO,10,66,15
India,Maharashtra,Kolhapur,"Shivaji University, Kolhapur - MPCB",18-01-2024 20:00:00,16.6870449,74.2505872,PM10,52,147,87
India,Maharashtra,Kolhapur,"Sinchan Bhavan, Kolhapur - MPCB",18-01-2024 20:00:00,16.7143745,74.2426398,OZONE,8,82,70
India,Maharashtra,Latur,"Sawe Wadi, Latur - MPCB",18-01-2024 20:00:00,18.39963,76.57452,SO2,2,22,13
India,Maharashtra,Mahad,"Kamble Tarf Birwadi, Mahad - MPCB",18-01-2024 20:00:00,18.1023399,73.4783687,NH3,4,6,5
India,Maharashtra,Mahad,"Kamble Tarf Birwadi, Mahad - MPCB",18-01-2024 20:00:00,18.1023399,73.4783687,SO2,8,129,46
India,Maharashtra,Mahad,"Kamble Tarf Birwadi, Mahad - MPCB",18-01-2024 20:00:00,18.1023399,73.4783687,CO,4,48,27
India,Maharashtra,Mahad,"Kamble Tarf Birwadi, Mahad - MPCB",18-01-2024 20:00:00,18.1023399,73.4783687,OZONE,7,50,39
India,Maharashtra,Malegaon,"Mahesh Nagar, Malegaon - MPCB",18-01-2024 20:00:00,20.555712,74.529236,PM2.5,61,95,72
India,Maharashtra,Malegaon,"Mahesh Nagar, Malegaon - MPCB",18-01-2024 20:00:00,20.555712,74.529236,PM10,84,269,121
India,Maharashtra,Malegaon,"Mahesh Nagar, Malegaon - MPCB",18-01-2024 20:00:00,20.555712,74.529236,OZONE,10,86,65
India,Maharashtra,Mira-Bhayandar,"Bhayandar West, Mira-Bhayandar - MPCB",18-01-2024 20:00:00,19.296481,72.840923,NH3,4,9,6
India,Maharashtra,Mira-Bhayandar,"Bhayandar West, Mira-Bhayandar - MPCB",18-01-2024 20:00:00,19.296481,72.840923,CO,10,68,13
India,Maharashtra,Mumbai,"Bandra Kurla Complex, Mumbai - MPCB",18-01-2024 20:00:00,19.065931,72.862131,PM10,84,287,155
India,Maharashtra,Mumbai,"Bandra Kurla Complex, Mumbai - MPCB",18-01-2024 20:00:00,19.065931,72.862131,CO,19,98,29
India,Maharashtra,Mumbai,"Bandra Kurla Complex, Mumbai - MPCB",18-01-2024 20:00:00,19.065931,72.862131,OZONE,1,38,28
India,Maharashtra,Mumbai,"Byculla, Mumbai - BMC",18-01-2024 20:00:00,18.9767,72.8380,PM10,50,126,83
India,Maharashtra,Mumbai,"Chakala-Andheri East, Mumbai - IITM",18-01-2024 20:00:00,19.11074,72.86084,PM2.5,16,34,23
India,Maharashtra,Mumbai,"Chakala-Andheri East, Mumbai - IITM",18-01-2024 20:00:00,19.11074,72.86084,CO,4,62,27
India,Maharashtra,Mumbai,"Chakala-Andheri East, Mumbai - IITM",18-01-2024 20:00:00,19.11074,72.86084,OZONE,45,78,64
India,Maharashtra,Mumbai,"Chembur, Mumbai - MPCB",18-01-2024 20:00:00,19.0364585,72.8954371,NH3,2,3,2
India,Maharashtra,Mumbai,"Chembur, Mumbai - MPCB",18-01-2024 20:00:00,19.0364585,72.8954371,SO2,1,15,6
India,Maharashtra,Mumbai,"Colaba, Mumbai - MPCB",18-01-2024 20:00:00,18.910000,72.820000,PM2.5,NA,NA,NA
India,Maharashtra,Mumbai,"Colaba, Mumbai - MPCB",18-01-2024 20:00:00,18.910000,72.820000,PM10,37,92,60
India,Maharashtra,Mumbai,"Ghatkopar, Mumbai - BMC",18-01-2024 20:00:00,19.083694,72.920967,PM2.5,54,197,97
India,Maharashtra,Mumbai,"Ghatkopar, Mumbai - BMC",18-01-2024 20:00:00,19.083694,72.920967,PM10,65,125,89
India,Maharashtra,Mumbai,"Ghatkopar, Mumbai - BMC",18-01-2024 20:00:00,19.083694,72.920967,NO2,38,62,47
India,Maharashtra,Mumbai,"Ghatkopar, Mumbai - BMC",18-01-2024 20:00:00,19.083694,72.920967,NH3,NA,NA,NA
India,Maharashtra,Mumbai,"Kandivali East, Mumbai - MPCB",18-01-2024 20:00:00,19.205800,72.868200,PM2.5,18,45,33
India,Maharashtra,Mumbai,"Kandivali East, Mumbai - MPCB",18-01-2024 20:00:00,19.205800,72.868200,SO2,66,102,91
India,Maharashtra,Mumbai,"Kherwadi_Bandra East, Mumbai - MPCB",18-01-2024 20:00:00,19.0632143,72.8456324,OZONE,1,54,46
India,Maharashtra,Mumbai,"Kurla, Mumbai - MPCB",18-01-2024 20:00:00,19.0863,72.8888,PM2.5,58,184,96
India,Maharashtra,Mumbai,"Malad West, Mumbai - IITM",18-01-2024 20:00:00,19.19709,72.82204,PM2.5,77,259,154
India,Maharashtra,Mumbai,"Navy Nagar-Colaba, Mumbai - IITM",18-01-2024 20:00:00,18.897756,72.813320,NO2,32,67,46
India,Maharashtra,Mumbai,"Navy Nagar-Colaba, Mumbai - IITM",18-01-2024 20:00:00,18.897756,72.813320,OZONE,7,119,78
India,Maharashtra,Mumbai,"Sewri, Mumbai - BMC",18-01-2024 20:00:00,19.000084,72.856730,NO2,39,119,79
India,Maharashtra,Mumbai,"Sewri, Mumbai - BMC",18-01-2024 20:00:00,19.000084,72.856730,CO,NA,NA,NA
India,Maharashtra,Mumbai,"Sewri, Mumbai - BMC",18-01-2024 20:00:00,19.000084,72.856730,OZONE,1,150,103
India,Maharashtra,Mumbai,"Siddharth Nagar-Worli, Mumbai - IITM",18-01-2024 20:00:00,19.000083,72.813993,CO,8,20,10
India,Maharashtra,Mumbai,"Sion, Mumbai - MPCB",18-01-2024 20:00:00,19.047000,72.874600,SO2,31,33,32
India,Maharashtra,Mumbai,"Vasai West, Mumbai - MPCB",18-01-2024 20:00:00,19.383200,72.820400,NO2,27,27,27
India,Maharashtra,Nagpur,"Mahal, Nagpur - MPCB",18-01-2024 20:00:00,21.14472,79.107595,PM2.5,138,261,175
India,Maharashtra,Nagpur,"Mahal, Nagpur - MPCB",18-01-2024 20:00:00,21.14472,79.107595,NO2,6,40,20
India,Maharashtra,Nagpur,"Opp GPO Civil Lines, Nagpur - MPCB",18-01-2024 20:00:00,21.152875,79.0517531,NO2,6,32,14
India,Maharashtra,Nagpur,"Opp GPO Civil Lines, Nagpur - MPCB",18-01-2024 20:00:00,21.152875,79.0517531,SO2,6,49,16
India,Maharashtra,Nagpur,"Opp GPO Civil Lines, Nagpur - MPCB",18-01-2024 20:00:00,21.152875,79.0517531,OZONE,2,92,69
India,Maharashtra,Nagpur,"Ram Nagar, Nagpur - MPCB",18-01-2024 20:00:00,21.143383,79.048912,NO2,21,93,36
India,Maharashtra,Nagpur,"Ram Nagar, Nagpur - MPCB",18-01-2024 20:00:00,21.143383,79.048912,SO2,5,42,15
India,Maharashtra,Nagpur,"Ram Nagar, Nagpur - MPCB",18-01-2024 20:00:00,21.143383,79.048912,OZONE,6,70,52
India,Maharashtra,Nashik,"Gangapur Road, Nashik - MPCB",18-01-2024 20:00:00,20.0073285,73.7762427,PM2.5,58,152,89
India,Maharashtra,Nashik,"Gangapur Road, Nashik - MPCB",18-01-2024 20:00:00,20.0073285,73.7762427,NO2,2,7,5
India,Maharashtra,Nashik,"Gangapur Road, Nashik - MPCB",18-01-2024 20:00:00,20.0073285,73.7762427,CO,18,18,18
India,Maharashtra,Nashik,"Gangapur Road, Nashik - MPCB",18-01-2024 20:00:00,20.0073285,73.7762427,OZONE,1,98,69
India,Maharashtra,Nashik,"Hirawadi, Nashik - MPCB",18-01-2024 20:00:00,20.021503,73.813844,NO2,16,99,48
India,Maharashtra,Nashik,"Hirawadi, Nashik - MPCB",18-01-2024 20:00:00,20.021503,73.813844,OZONE,12,171,134
India,Maharashtra,Nashik,"MIDC Ambad, Nashik - MPCB",18-01-2024 20:00:00,19.950220,73.731480,PM2.5,76,146,107
India,Maharashtra,Nashik,"MIDC Ambad, Nashik - MPCB",18-01-2024 20:00:00,19.950220,73.731480,NO2,NA,NA,NA
India,Maharashtra,Nashik,"MIDC Ambad, Nashik - MPCB",18-01-2024 20:00:00,19.950220,73.731480,NH3,2,3,2
India,Maharashtra,Nashik,"MIDC Ambad, Nashik - MPCB",18-01-2024 20:00:00,19.950220,73.731480,SO2,9,21,14
India,Maharashtra,Nashik,"MIDC Ambad, Nashik - MPCB",18-01-2024 20:00:00,19.950220,73.731480,OZONE,8,62,47
India,Maharashtra,Navi Mumbai,"Kopripada-Vashi, Navi Mumbai - MPCB",18-01-2024 20:00:00,19.090337,73.014232,NH3,4,21,11
India,Maharashtra,Navi Mumbai,"Kopripada-Vashi, Navi Mumbai - MPCB",18-01-2024 20:00:00,19.090337,73.014232,SO2,18,61,33
India,Maharashtra,Navi Mumbai,"Mahape, Navi Mumbai - MPCB",18-01-2024 20:00:00,19.1135051,73.008978,PM2.5,42,194,71
India,Maharashtra,Navi Mumbai,"Nerul, Navi Mumbai - MPCB",18-01-2024 20:00:00,19.008751,73.016620,NO2,20,35,27
India,Maharashtra,Navi Mumbai,"Nerul, Navi Mumbai - MPCB",18-01-2024 20:00:00,19.008751,73.016620,OZONE,34,46,38
India,Maharashtra,Navi Mumbai,"Sanpada, Navi Mumbai - MPCB",18-01-2024 20:00:00,19.0575752,73.0151367,NO2,NA,NA,NA
India,Maharashtra,Navi Mumbai,"Sector-19A Nerul, Navi Mumbai - IITM",18-01-2024 20:00:00,19.044,73.0325,PM10,111,236,157
India,Maharashtra,Navi Mumbai,"Sector-2E Kalamboli, Navi Mumbai - MPCB",18-01-2024 20:00:00,19.02579,73.10297,SO2,2,34,14
India,Maharashtra,Navi Mumbai,"Tondare-Taloja, Navi Mumbai - MPCB",18-01-2024 20:00:00,19.0630,73.1209,NO2,20,162,76
India,Maharashtra,Navi Mumbai,"Tondare-Taloja, Navi Mumbai - MPCB",18-01-2024 20:00:00,19.0630,73.1209,OZONE,1,156,100
India,Maharashtra,Parbhani,"Masoom Colony, Parbhani - MPCB",18-01-2024 20:00:00,19.265594,76.761463,PM10,92,138,118
India,Maharashtra,Pimpri-Chinchwad,"Park Street Wakad, Pimpri Chinchwad - MPCB",18-01-2024 20:00:00,18.59051,73.77946,PM2.5,63,94,82
India,Maharashtra,Pimpri-Chinchwad,"Thergaon, Pimpri Chinchwad - MPCB",18-01-2024 20:00:00,18.616318,73.765797,NO2,11,92,52
India,Maharashtra,Pimpri-Chinchwad,"Thergaon, Pimpri Chinchwad - MPCB",18-01-2024 20:00:00,18.616318,73.765797,OZONE,3,82,62
India,Maharashtra,Pune,"Alandi, Pune - IITM",18-01-2024 20:00:00,18.675076,73.892743,PM2.5,31,112,61
India,Maharashtra,Pune,"Alandi, Pune - IITM",18-01-2024 20:00:00,18.675076,73.892743,NO2,19,29,22
India,Maharashtra,Pune,"Karve Road, Pune - MPCB",18-01-2024 20:00:00,18.5011743,73.8165527,PM10,109,117,111
India,Maharashtra,Pune,"Katraj Dairy, Pune - MPCB",18-01-2024 20:00:00,18.454450,73.854155,CO,22,49,43
India,Maharashtra,Pune,"Mhada Colony, Pune - IITM",18-01-2024 20:00:00,18.573040,73.927715,CO,31,70,43
India,Maharashtra,Pune,"Revenue Colony-Shivajinagar, Pune - IITM",18-01-2024 20:00:00,18.530085,73.849598,PM2.5,41,98,58
India,Maharashtra,Pune,"Revenue Colony-Shivajinagar, Pune - IITM",18-01-2024 20:00:00,18.530085,73.849598,SO2,106,133,121
India,Maharashtra,Pune,"Savitribai Phule Pune University, Pune - MPCB",18-01-2024 20:00:00,18.547056,73.826908,PM2.5,42,135,77
India,Maharashtra,Sangli,"Vijay Nagar, Sangli - MPCB",18-01-2024 20:00:00, 16.5038,74.3623,NH3,1,3,2
India,Maharashtra,Thane,"Kasarvadavali, Thane - MPCB",18-01-2024 20:00:00,19.26777,72.97182,PM2.5,110,325,192
India,Maharashtra,Thane,"Kasarvadavali, Thane - MPCB",18-01-2024 20:00:00,19.26777,72.97182,SO2,6,39,14
India,Maharashtra,Thane,"Kasarvadavali, Thane - MPCB",18-01-2024 20:00:00,19.26777,72.97182,OZONE,1,94,72
India,Maharashtra,Thane,"Upvan Fort, Thane - MPCB",18-01-2024 20:00:00,19.222279,72.957979,PM2.5,65,289,120
India,Maharashtra,Thane,"Upvan Fort, Thane - MPCB",18-01-2024 20:00:00,19.222279,72.957979,PM10,84,171,111
India,Maharashtra,Thane,"Upvan Fort, Thane - MPCB",18-01-2024 20:00:00,19.222279,72.957979,NO2,15,90,38
India,Maharashtra,Ulhasnagar,"Sidhi Vinayak Nagar, Ulhasnagar - MPCB",18-01-2024 20:00:00,19.235581,73.159121,PM10,112,178,148
India,Maharashtra,Ulhasnagar,"Sidhi Vinayak Nagar, Ulhasnagar - MPCB",18-01-2024 20:00:00,19.235581,73.159121,CO,19,100,29
India,Maharashtra,Virar,"Bolinj, Virar - MPCB",18-01-2024 20:00:00,19.4458210,72.7988231,PM10,102,257,149
India,Maharashtra,Virar,"Bolinj, Virar - MPCB",18-01-2024 20:00:00,19.4458210,72.7988231,NO2,11,110,41
India,Manipur,Imphal,"DM College of Science, Imphal - Manipur PCB",18-01-2024 20:00:00,24.8207389,93.9423085,PM10,11,105,34
India,Manipur,Imphal,"DM College of Science, Imphal - Manipur PCB",18-01-2024 20:00:00,24.8207389,93.9423085,NH3,2,2,2
India,Meghalaya,Shillong,"JN Stadium, Shillong - Meghalaya PCB",18-01-2024 20:00:00,25.5803419,91.8942571,PM10,22,155,57
India,Meghalaya,Shillong,"JN Stadium, Shillong - Meghalaya PCB",18-01-2024 20:00:00,25.5803419,91.8942571,NH3,2,7,3
India,Meghalaya,Shillong,"JN Stadium, Shillong - Meghalaya PCB",18-01-2024 20:00:00,25.5803419,91.8942571,CO,18,88,41
India,Meghalaya,Shillong,"Lumpyngngad, Shillong - Meghalaya PCB",18-01-2024 20:00:00,25.5586,91.8985,PM10,15,115,66
India,Meghalaya,Shillong,"Lumpyngngad, Shillong - Meghalaya PCB",18-01-2024 20:00:00,25.5586,91.8985,CO,6,42,25
India,Mizoram,Aizawl,"Sikulpuikawn, Aizawl - Mizoram PCB",18-01-2024 20:00:00,23.7176342,92.7192841,OZONE,9,15,11
India,Nagaland,Kohima,"PWD Juction, Kohima - NPCB",18-01-2024 20:00:00,25.6635413,94.0989878,NH3,1,3,1
India,Odisha,Angul,"Hakimapada, Angul - OSPCB",18-01-2024 20:00:00,20.832874,85.104082,NH3,2,6,3
India,Odisha,Balasore,"Kalidaspur, Balasore - OSPCB",18-01-2024 20:00:00,21.51161,86.89088,CO,61,118,88
India,Odisha,Balasore,"Kalidaspur, Balasore - OSPCB",18-01-2024 20:00:00,21.51161,86.89088,OZONE,7,48,24
India,Odisha,Barbil,"Forest Office, Barbil - OSPCB",18-01-2024 20:00:00,22.1166054,85.3945546,PM10,40,266,126
India,Odisha,Barbil,"Forest Office, Barbil - OSPCB",18-01-2024 20:00:00,22.1166054,85.3945546,CO,33,84,47
India,Odisha,Baripada,"Meher Colony, Baripada - OSPCB",18-01-2024 20:00:00,21.941841,86.728318,NO2,2,3,3
India,Odisha,Baripada,"Meher Colony, Baripada - OSPCB",18-01-2024 20:00:00,21.941841,86.728318,NH3,4,4,4
India,Odisha,Baripada,"Meher Colony, Baripada - OSPCB",18-01-2024 20:00:00,21.941841,86.728318,SO2,5,8,5
India,Odisha,Baripada,"Meher Colony, Baripada - OSPCB",18-01-2024 20:00:00,21.941841,86.728318,OZONE,9,26,10
India,Odisha,Bhubaneswar,"Lingraj Mandir, Bhubaneswar - OSPCB",18-01-2024 20:00:00,20.240790,85.836784,NH3,NA,NA,NA
India,Odisha,Bhubaneswar,"Patia, Bhubaneswar - OSPCB",18-01-2024 20:00:00,20.34652,85.81630,SO2,NA,NA,NA
India,Odisha,Bileipada,"Tata Township, Bileipada - OSPCB",18-01-2024 20:00:00,22.06156703,85.47409613,PM10,79,212,136
India,Odisha,Bileipada,"Tata Township, Bileipada - OSPCB",18-01-2024 20:00:00,22.06156703,85.47409613,CO,22,42,25
India,Odisha,Bileipada,"Tata Township, Bileipada - OSPCB",18-01-2024 20:00:00,22.06156703,85.47409613,OZONE,20,24,21
India,Odisha,Brajrajnagar,"GM Office, Brajrajnagar - OSPCB",18-01-2024 20:00:00,21.8004996,83.8396977,PM2.5,46,142,80
India,Odisha,Brajrajnagar,"GM Office, Brajrajnagar - OSPCB",18-01-2024 20:00:00,21.8004996,83.8396977,CO,62,106,81
India,Odisha,Byasanagar,"Ferro Chrome Colony, Byasanagar - OSPCB",18-01-2024 20:00:00,20.94185,86.11510,PM2.5,87,373,165
India,Odisha,Keonjhar,"Jagamohanpur, Keonjhar - OSPCB",18-01-2024 20:00:00,21.643900,85.599355,PM10,64,126,91
India,Odisha,Keonjhar,"Jagamohanpur, Keonjhar - OSPCB",18-01-2024 20:00:00,21.643900,85.599355,CO,12,24,20
India,Odisha,Nayagarh,"Dabuna, Nayagarh - OSPCB",18-01-2024 20:00:00,21.847279,85.416905,PM10,60,131,102
India,Odisha,Nayagarh,"Dabuna, Nayagarh - OSPCB",18-01-2024 20:00:00,21.847279,85.416905,NO2,30,32,31
India,Odisha,Rairangpur,"Divisional Forest Office, Rairangpur - OSPCB",18-01-2024 20:00:00,22.265816,86.174829,PM2.5,62,204,131
India,Odisha,Rourkela,"Raghunathpali, Rourkela - OSPCB",18-01-2024 20:00:00,22.220833,84.809444,PM2.5,18,304,120
India,Odisha,Rourkela,"Raghunathpali, Rourkela - OSPCB",18-01-2024 20:00:00,22.220833,84.809444,NO2,26,120,53
India,Odisha,Rourkela,"Sector-2, Rourkela - OSPCB",18-01-2024 20:00:00,22.24500000,84.88111111,CO,22,48,28
India,Odisha,Suakati,"OMC Colony, Suakati - OSPCB",18-01-2024 20:00:00,21.606865,85.510538,PM10,35,164,122
India,Odisha,Suakati,"OMC Colony, Suakati - OSPCB",18-01-2024 20:00:00,21.606865,85.510538,NO2,22,113,56
India,Odisha,Tensa,"Barsua Iron Ore Mines, Tensa - OSPCB",18-01-2024 20:00:00,21.869985,85.167016,NH3,7,9,8
India,Odisha,Tensa,"Barsua Iron Ore Mines, Tensa - OSPCB",18-01-2024 20:00:00,21.869985,85.167016,SO2,11,21,15
India,Odisha,Tensa,"Barsua Iron Ore Mines, Tensa - OSPCB",18-01-2024 20:00:00,21.869985,85.167016,CO,26,33,30
India,Odisha,Tensa,"Barsua Iron Ore Mines, Tensa - OSPCB",18-01-2024 20:00:00,21.869985,85.167016,OZONE,1,19,7
India,Puducherry,Puducherry,"Jawahar Nagar, Puducherry - PPCC",18-01-2024 20:00:00,11.9309,79.8027,NO2,8,29,15
India,Punjab,Amritsar,"Golden Temple, Amritsar - PPCB",18-01-2024 20:00:00,31.620000,74.876512,OZONE,24,33,28
India,Punjab,Bathinda,"Hardev Nagar, Bathinda - PPCB",18-01-2024 20:00:00,30.233011,74.907758,SO2,2,62,16
India,Punjab,Jalandhar,"Civil Line, Jalandhar - PPCB",18-01-2024 20:00:00,31.321907,75.578914,PM10,45,370,125
India,Punjab,Jalandhar,"Civil Line, Jalandhar - PPCB",18-01-2024 20:00:00,31.321907,75.578914,SO2,3,20,7
India,Punjab,Jalandhar,"Civil Line, Jalandhar - PPCB",18-01-2024 20:00:00,31.321907,75.578914,OZONE,13,54,38
India,Punjab,Ludhiana,"Punjab Agricultural University, Ludhiana - PPCB",18-01-2024 20:00:00,30.9028,75.8086,PM2.5,63,393,220
India,Punjab,Ludhiana,"Punjab Agricultural University, Ludhiana - PPCB",18-01-2024 20:00:00,30.9028,75.8086,OZONE,10,46,26
India,Punjab,Mandi Gobindgarh,"RIMT University, Mandi Gobindgarh - PPCB",18-01-2024 20:00:00,30.649961,76.331442,PM10,102,275,145
India,Punjab,Mandi Gobindgarh,"RIMT University, Mandi Gobindgarh - PPCB",18-01-2024 20:00:00,30.649961,76.331442,SO2,1,92,25
India,Punjab,Patiala,"Model Town, Patiala - PPCB",18-01-2024 20:00:00,30.349388,76.366642,NO2,28,33,30
India,Punjab,Patiala,"Model Town, Patiala - PPCB",18-01-2024 20:00:00,30.349388,76.366642,CO,52,125,92
India,Rajasthan,Ajmer,"Civil Lines,  Ajmer - RSPCB",18-01-2024 20:00:00,26.470859,74.646594,PM2.5,49,227,117
India,Rajasthan,Ajmer,"Civil Lines,  Ajmer - RSPCB",18-01-2024 20:00:00,26.470859,74.646594,NO2,24,78,41
India,Rajasthan,Alwar,"Moti Doongri, Alwar - RSPCB",18-01-2024 20:00:00,27.554793,76.611536,PM10,68,122,92
India,Rajasthan,Alwar,"Moti Doongri, Alwar - RSPCB",18-01-2024 20:00:00,27.554793,76.611536,SO2,3,33,20
India,Rajasthan,Banswara,"Rati Talai, Banswara - RSPCB",18-01-2024 20:00:00,23.555190,74.440010,NO2,5,20,11
India,Rajasthan,Barmer,"Railway Colony, Barmer - RSPCB",18-01-2024 20:00:00,25.747299,71.393989,NH3,4,11,7
India,Rajasthan,Bharatpur,"Krishna Nagar, Bharatpur - RSPCB",18-01-2024 20:00:00,27.215415,77.50873,SO2,2,6,4
India,Rajasthan,Bhilwara,"Pratap Nagar, Bhilwara - RSPCB",18-01-2024 20:00:00,25.339605,74.618883,NH3,4,6,5
India,Rajasthan,Bhilwara,"Pratap Nagar, Bhilwara - RSPCB",18-01-2024 20:00:00,25.339605,74.618883,SO2,3,16,9
India,Rajasthan,Bhilwara,"Pratap Nagar, Bhilwara - RSPCB",18-01-2024 20:00:00,25.339605,74.618883,CO,28,70,43
India,Rajasthan,Bhiwadi,"RIICO Ind. Area III, Bhiwadi - RSPCB",18-01-2024 20:00:00,28.194909,76.862296,NO2,10,23,16
India,Rajasthan,Bhiwadi,"RIICO Ind. Area III, Bhiwadi - RSPCB",18-01-2024 20:00:00,28.194909,76.862296,OZONE,5,9,6
India,Rajasthan,Bikaner,"MM Ground, Bikaner - RSPCB",18-01-2024 20:00:00,28.018792,73.292658,PM2.5,238,381,320
India,Rajasthan,Bikaner,"MM Ground, Bikaner - RSPCB",18-01-2024 20:00:00,28.018792,73.292658,PM10,131,428,207
India,Rajasthan,Bikaner,"MM Ground, Bikaner - RSPCB",18-01-2024 20:00:00,28.018792,73.292658,CO,66,131,88
India,Rajasthan,Bundi,"New Colony, Bundi - RSPCB",18-01-2024 20:00:00,25.435774,75.644272,NH3,4,5,4
India,Rajasthan,Bundi,"New Colony, Bundi - RSPCB",18-01-2024 20:00:00,25.435774,75.644272,OZONE,3,93,61
India,Rajasthan,Chittorgarh,"Shastri Nagar, Chittorgarh - RSPCB",18-01-2024 20:00:00,24.892047,74.623527,PM2.5,NA,NA,NA
India,Rajasthan,Chittorgarh,"Shastri Nagar, Chittorgarh - RSPCB",18-01-2024 20:00:00,24.892047,74.623527,NO2,NA,NA,NA
India,Rajasthan,Churu,"Subash Chowk, Churu - RSPCB",18-01-2024 20:00:00,28.296139,74.961696,PM10,111,177,139
India,Rajasthan,Dungarpur,"Bhoiwada, Dungarpur - RSPCB",18-01-2024 20:00:00,23.837789,73.714926,PM10,88,185,126
India,Rajasthan,Dungarpur,"Bhoiwada, Dungarpur - RSPCB",18-01-2024 20:00:00,23.837789,73.714926,NO2,24,51,35
India,Rajasthan,Dungarpur,"Bhoiwada, Dungarpur - RSPCB",18-01-2024 20:00:00,23.837789,73.714926,NH3,6,7,7
India,Rajasthan,Dungarpur,"Bhoiwada, Dungarpur - RSPCB",18-01-2024 20:00:00,23.837789,73.714926,CO,30,76,35
India,Rajasthan,Hanumangarh,"Housing Board, Hanumangarh - RSPCB",18-01-2024 20:00:00,29.610750,74.283608,NO2,23,120,45
India,Rajasthan,Jaipur,"Adarsh Nagar, Jaipur - RSPCB",18-01-2024 20:00:00,26.902909,75.836858,NH3,7,17,10
India,Rajasthan,Jaipur,"Mansarovar Sector-12, Jaipur - RSPCB",18-01-2024 20:00:00,26.843698,75.766894,PM2.5,107,338,209
India,Rajasthan,Jaipur,"Police Commissionerate, Jaipur - RSPCB",18-01-2024 20:00:00,26.9164092,75.7994901,PM10,138,273,176
India,Rajasthan,Jaipur,"RIICO Sitapura, Jaipur - RSPCB",18-01-2024 20:00:00,26.786682,75.827928,NO2,20,191,54
India,Rajasthan,Jaipur,"RIICO Sitapura, Jaipur - RSPCB",18-01-2024 20:00:00,26.786682,75.827928,OZONE,1,78,48
India,Rajasthan,Jaipur,"Sector-2 Murlipura, Jaipur - RSPCB",18-01-2024 20:00:00,26.960669,75.771817,PM2.5,168,365,297
India,Rajasthan,Jaipur,"Sector-2 Murlipura, Jaipur - RSPCB",18-01-2024 20:00:00,26.960669,75.771817,NH3,7,7,7
India,Rajasthan,Jaipur,"Shastri Nagar, Jaipur - RSPCB",18-01-2024 20:00:00,26.9502929,75.730943,PM10,113,176,144
India,Rajasthan,Jaipur,"Shastri Nagar, Jaipur - RSPCB",18-01-2024 20:00:00,26.9502929,75.730943,NO2,45,157,85
India,Rajasthan,Jaipur,"Shastri Nagar, Jaipur - RSPCB",18-01-2024 20:00:00,26.9502929,75.730943,OZONE,9,33,25
India,Rajasthan,Jalore,"Mudtra Sili, Jalore - RSPCB",18-01-2024 20:00:00,25.344694,72.626208,PM10,104,361,180
India,Rajasthan,Jalore,"Mudtra Sili, Jalore - RSPCB",18-01-2024 20:00:00,25.344694,72.626208,CO,46,141,82
India,Rajasthan,Jhunjhunu,"Indra Nagar, Jhunjhunu - RSPCB",18-01-2024 20:00:00,28.108988,75.386577,PM2.5,191,368,302
India,Rajasthan,Jhunjhunu,"Indra Nagar, Jhunjhunu - RSPCB",18-01-2024 20:00:00,28.108988,75.386577,NH3,12,17,15
India,Rajasthan,Jhunjhunu,"Indra Nagar, Jhunjhunu - RSPCB",18-01-2024 20:00:00,28.108988,75.386577,OZONE,4,31,21
India,Rajasthan,Jodhpur,"Collectorate, Jodhpur - RSPCB",18-01-2024 20:00:00,26.268249,73.0193853,SO2,1,31,18
India,Rajasthan,Jodhpur,"Digari Kalan, Jodhpur - RSPCB",18-01-2024 20:00:00,26.295810,73.082283,PM10,79,155,126
India,Rajasthan,Jodhpur,"Digari Kalan, Jodhpur - RSPCB",18-01-2024 20:00:00,26.295810,73.082283,SO2,1,6,3
India,Rajasthan,Jodhpur,"Digari Kalan, Jodhpur - RSPCB",18-01-2024 20:00:00,26.295810,73.082283,CO,28,87,40
India,Rajasthan,Jodhpur,"Jhalamand, Jodhpur - RSPCB",18-01-2024 20:00:00,26.215415,73.070156,PM2.5,61,309,214
India,Rajasthan,Jodhpur,"Jhalamand, Jodhpur - RSPCB",18-01-2024 20:00:00,26.215415,73.070156,NH3,6,11,9
India,Rajasthan,Jodhpur,"Samrat Ashok Udhyan, Jodhpur - RSPCB",18-01-2024 20:00:00,26.253384,72.976571,SO2,4,12,7
India,Rajasthan,Karauli,"Satyawati Vihar, Karauli - RSPCB",18-01-2024 20:00:00,26.506177,77.025989,CO,14,61,33
India,Rajasthan,Kota,"Dhanmandi, Kota - RSPCB",18-01-2024 20:00:00,25.164090,75.858137,NO2,24,111,50
India,Rajasthan,Kota,"Dhanmandi, Kota - RSPCB",18-01-2024 20:00:00,25.164090,75.858137,CO,44,118,72
India,Rajasthan,Kota,"Nayapura, Kota - RSPCB",18-01-2024 20:00:00,25.196024,75.855668,SO2,1,130,11
India,Rajasthan,Kota,"Nayapura, Kota - RSPCB",18-01-2024 20:00:00,25.196024,75.855668,OZONE,4,110,59
India,Rajasthan,Kota,"Shrinath Puram, Kota - RSPCB",18-01-2024 20:00:00,25.14389,75.821256,PM10,NA,NA,NA
India,Rajasthan,Kota,"Shrinath Puram, Kota - RSPCB",18-01-2024 20:00:00,25.14389,75.821256,OZONE,15,41,20
India,Rajasthan,Nagaur,"Karni Colony, Nagaur - RSPCB",18-01-2024 20:00:00,27.213494,73.734444,PM2.5,102,344,270
India,Rajasthan,Nagaur,"Karni Colony, Nagaur - RSPCB",18-01-2024 20:00:00,27.213494,73.734444,CO,40,95,69
India,Rajasthan,Pratapgarh,"Pragati Nagar, Pratapgarh - RSPCB",18-01-2024 20:00:00,24.041198,74.780702,NO2,NA,NA,NA
India,Rajasthan,Pratapgarh,"Pragati Nagar, Pratapgarh - RSPCB",18-01-2024 20:00:00,24.041198,74.780702,NH3,NA,NA,NA
India,Rajasthan,Rajsamand,"Dhoinda, Rajsamand - RSPCB",18-01-2024 20:00:00,25.036360,73.883502,OZONE,1,69,47
India,Rajasthan,Sawai Madhopur,"Sahu Nagar, Sawai Madhopur - RSPCB",18-01-2024 20:00:00,26.031443,76.359327,NO2,4,24,19
India,Rajasthan,Sikar,"Radhakishan Pura, Sikar - RSPCB",18-01-2024 20:00:00,27.608912,75.153302,NO2,15,65,28
India,Rajasthan,Sirohi,"Vedhaynath Colony, Sirohi - RSPCB",18-01-2024 20:00:00,24.885261,72.857549,NO2,10,88,42
India,Rajasthan,Sirohi,"Vedhaynath Colony, Sirohi - RSPCB",18-01-2024 20:00:00,24.885261,72.857549,NH3,5,15,8
India,Rajasthan,Sirohi,"Vedhaynath Colony, Sirohi - RSPCB",18-01-2024 20:00:00,24.885261,72.857549,CO,13,88,24
India,Rajasthan,Sirohi,"Vedhaynath Colony, Sirohi - RSPCB",18-01-2024 20:00:00,24.885261,72.857549,OZONE,1,123,97
India,Rajasthan,Sri Ganganagar,"Old City, Sri Ganganagar - RSPCB",18-01-2024 20:00:00,29.931624,73.864511,PM10,129,354,219
India,Rajasthan,Sri Ganganagar,"Old City, Sri Ganganagar - RSPCB",18-01-2024 20:00:00,29.931624,73.864511,NO2,22,62,41
India,TamilNadu,Ariyalur,"Keelapalur, Ariyalur - TNPCB",18-01-2024 20:00:00,11.06825,79.07033,PM2.5,NA,NA,NA
India,TamilNadu,Chennai,"Alandur Bus Depot, Chennai - CPCB",18-01-2024 20:00:00,12.9099161,80.1076538,CO,1,71,1
India,TamilNadu,Chennai,"Arumbakkam, Chennai - TNPCB",18-01-2024 20:00:00,13.0664,80.2112 ,PM10,44,161,77
India,TamilNadu,Chennai,"Gandhi Nagar_Ennore, Chennai - TNPCB",18-01-2024 20:00:00,13.218341,80.32027,SO2,26,27,26
India,TamilNadu,Chennai,"Gandhi Nagar_Ennore, Chennai - TNPCB",18-01-2024 20:00:00,13.218341,80.32027,OZONE,2,3,2
India,TamilNadu,Chennai,"Manali, Chennai - CPCB",18-01-2024 20:00:00,13.164544,80.26285,PM10,23,244,96
India,TamilNadu,Chennai,"Perungudi, Chennai - TNPCB",18-01-2024 20:00:00,12.9533,80.2357,CO,6,57,35
India,TamilNadu,Chennai,"Royapuram, Chennai - TNPCB",18-01-2024 20:00:00,13.1036,80.2909,CO,16,60,22
India,TamilNadu,Chennai,"Velachery Res. Area, Chennai - CPCB",18-01-2024 20:00:00,13.0052189,80.2398125,NO2,10,101,32
India,TamilNadu,Coimbatore,"PSG College of Arts and Science, Coimbatore - TNPCB",18-01-2024 20:00:00,11.0328,77.0349,OZONE,3,4,4
India,TamilNadu,Gummidipoondi,"Anthoni Pillai Nagar, Gummidipoondi - TNPCB",18-01-2024 20:00:00,13.4127,80.1081,PM10,39,300,106
India,TamilNadu,Kanchipuram,"Kilambi, Kanchipuram - TNPCB",18-01-2024 20:00:00,12.864618,79.659968,CO,2,2,2
India,TamilNadu,Ooty,"Bombay Castel, Ooty - TNPCB",18-01-2024 20:00:00,11.4068288,76.7138973,SO2,13,14,13
India,TamilNadu,Ramanathapuram,"Chalai Bazaar, Ramanathapuram - TNPCB",18-01-2024 20:00:00,9.36399,78.831977,SO2,4,8,6
India,TamilNadu,Ramanathapuram,"Chalai Bazaar, Ramanathapuram - TNPCB",18-01-2024 20:00:00,9.36399,78.831977,OZONE,13,14,14
India,TamilNadu,Salem,"Sona College of Technology, Salem - TNPCB",18-01-2024 20:00:00,11.679111,78.125052,PM10,NA,NA,NA
India,TamilNadu,Salem,"Sona College of Technology, Salem - TNPCB",18-01-2024 20:00:00,11.679111,78.125052,SO2,NA,NA,NA
India,TamilNadu,Salem,"Sona College of Technology, Salem - TNPCB",18-01-2024 20:00:00,11.679111,78.125052,OZONE,3,4,3
India,TamilNadu,Tiruchirappalli,"St Joseph College, Tiruchirappalli - TNPCB",18-01-2024 20:00:00,10.830158,78.691849,PM2.5,19,346,49
India,TamilNadu,Tiruchirappalli,"St Joseph College, Tiruchirappalli - TNPCB",18-01-2024 20:00:00,10.830158,78.691849,NH3,NA,NA,NA
India,TamilNadu,Vellore,"Vasanthapuram, Vellore - TNPCB",18-01-2024 20:00:00,12.909494,79.131861,PM2.5,NA,NA,NA
India,TamilNadu,Vellore,"Vasanthapuram, Vellore - TNPCB",18-01-2024 20:00:00,12.909494,79.131861,PM10,NA,NA,NA
India,TamilNadu,Virudhunagar,"Collectorate Office, Virudhunagar - TNPCB",18-01-2024 20:00:00,9.559382,77.948828,PM2.5,NA,NA,NA
India,TamilNadu,Virudhunagar,"Collectorate Office, Virudhunagar - TNPCB",18-01-2024 20:00:00,9.559382,77.948828,NH3,2,3,2
India,TamilNadu,Virudhunagar,"Collectorate Office, Virudhunagar - TNPCB",18-01-2024 20:00:00,9.559382,77.948828,CO,18,25,21
India,Telangana,Hyderabad,"Central University, Hyderabad - TSPCB",18-01-2024 20:00:00,17.460103,78.334361,NO2,10,32,22
India,Telangana,Hyderabad,"Central University, Hyderabad - TSPCB",18-01-2024 20:00:00,17.460103,78.334361,CO,16,47,26
India,Telangana,Hyderabad,"ECIL Kapra, Hyderabad - TSPCB",18-01-2024 20:00:00,17.470431,78.566959,PM10,65,298,85
India,Telangana,Hyderabad,"ECIL Kapra, Hyderabad - TSPCB",18-01-2024 20:00:00,17.470431,78.566959,NO2,8,9,8
India,Telangana,Hyderabad,"ICRISAT Patancheru, Hyderabad - TSPCB",18-01-2024 20:00:00,17.518400,78.278777,PM10,36,87,55
India,Telangana,Hyderabad,"ICRISAT Patancheru, Hyderabad - TSPCB",18-01-2024 20:00:00,17.518400,78.278777,OZONE,50,92,84
India,Telangana,Hyderabad,"IITH Kandi, Hyderabad - TSPCB",18-01-2024 20:00:00,17.585705,78.126199,PM2.5,NA,NA,NA
India,Telangana,Hyderabad,"IITH Kandi, Hyderabad - TSPCB",18-01-2024 20:00:00,17.585705,78.126199,PM10,NA,NA,NA
India,Telangana,Hyderabad,"Kokapet, Hyderabad - TSPCB",18-01-2024 20:00:00,17.393559,78.339194,NH3,NA,NA,NA
India,Telangana,Hyderabad,"Kompally Municipal Office, Hyderabad - TSPCB",18-01-2024 20:00:00,17.544899,78.486949,NO2,9,12,10
India,Telangana,Hyderabad,"Kompally Municipal Office, Hyderabad - TSPCB",18-01-2024 20:00:00,17.544899,78.486949,CO,1,36,19
India,Telangana,Hyderabad,"Nacharam_TSIIC IALA, Hyderabad - TSPCB",18-01-2024 20:00:00,17.429398,78.569354,OZONE,26,36,28
India,Telangana,Hyderabad,"New Malakpet, Hyderabad - TSPCB",18-01-2024 20:00:00,17.37206,78.50864,PM2.5,28,59,42
India,Telangana,Hyderabad,"New Malakpet, Hyderabad - TSPCB",18-01-2024 20:00:00,17.37206,78.50864,NO2,18,29,22
India,Telangana,Hyderabad,"Zoo Park, Hyderabad - TSPCB",18-01-2024 20:00:00,17.349694,78.451437,PM2.5,NA,NA,NA
India,Telangana,Hyderabad,"Zoo Park, Hyderabad - TSPCB",18-01-2024 20:00:00,17.349694,78.451437,NO2,NA,NA,NA
India,Telangana,Hyderabad,"Zoo Park, Hyderabad - TSPCB",18-01-2024 20:00:00,17.349694,78.451437,NH3,NA,NA,NA
India,Telangana,Hyderabad,"Zoo Park, Hyderabad - TSPCB",18-01-2024 20:00:00,17.349694,78.451437,CO,NA,NA,NA
India,Telangana,Hyderabad,"Zoo Park, Hyderabad - TSPCB",18-01-2024 20:00:00,17.349694,78.451437,OZONE,NA,NA,NA
India,Tripura,Agartala,"Bardowali, Agartala - Tripura SPCB",18-01-2024 20:00:00,23.8175497,91.2726974,PM10,102,357,162
India,Tripura,Agartala,"Bardowali, Agartala - Tripura SPCB",18-01-2024 20:00:00,23.8175497,91.2726974,SO2,23,25,24
India,Uttar_Pradesh,Agra,"Manoharpur, Agra - UPPCB",18-01-2024 20:00:00,27.23711,78.01936,NH3,1,1,1
India,Uttar_Pradesh,Agra,"Rohta, Agra - UPPCB",18-01-2024 20:00:00,27.106972,78.000111,PM10,35,110,61
India,Uttar_Pradesh,Agra,"Rohta, Agra - UPPCB",18-01-2024 20:00:00,27.106972,78.000111,NH3,2,2,2
India,Uttar_Pradesh,Agra,"Sanjay Palace, Agra - UPPCB",18-01-2024 20:00:00,27.19865833,78.00598056,PM2.5,31,95,51
India,Uttar_Pradesh,Agra,"Shahjahan Garden, Agra - UPPCB",18-01-2024 20:00:00,27.169338,78.03582,NO2,29,38,34
India,Uttar_Pradesh,Bareilly,"Civil Lines, Bareilly - UPPCB",18-01-2024 20:00:00,28.359581,79.414455,PM2.5,NA,NA,NA
India,Uttar_Pradesh,Bareilly,"Rajendra Nagar, Bareilly - UPPCB",18-01-2024 20:00:00,28.38910936,79.42963708,CO,62,79,68
India,Uttar_Pradesh,Bulandshahr,"Yamunapuram, Bulandshahr - UPPCB",18-01-2024 20:00:00,28.406963,77.849831,SO2,5,11,9
India,Uttar_Pradesh,Firozabad,"Nagla Bhau, Firozabad - UPPCB",18-01-2024 20:00:00,27.168897,78.376960,NO2,16,18,17
India,Uttar_Pradesh,Firozabad,"Nagla Bhau, Firozabad - UPPCB",18-01-2024 20:00:00,27.168897,78.376960,NH3,2,2,2
India,Uttar_Pradesh,Firozabad,"Nagla Bhau, Firozabad - UPPCB",18-01-2024 20:00:00,27.168897,78.376960,SO2,17,21,20
India,Uttar_Pradesh,Firozabad,"Nagla Bhau, Firozabad - UPPCB",18-01-2024 20:00:00,27.168897,78.376960,CO,10,29,15
India,Uttar_Pradesh,Firozabad,"Vibhab Nagar, Firozabad - UPPCB",18-01-2024 20:00:00,27.1594,78.3953,PM2.5,43,96,62
India,Uttar_Pradesh,Firozabad,"Vibhab Nagar, Firozabad - UPPCB",18-01-2024 20:00:00,27.1594,78.3953,NH3,2,2,2
India,Uttar_Pradesh,Ghaziabad,"Loni, Ghaziabad - UPPCB",18-01-2024 20:00:00,28.757294,77.278792,CO,64,127,90
India,Uttar_Pradesh,Ghaziabad,"Sanjay Nagar, Ghaziabad - UPPCB",18-01-2024 20:00:00,28.685382,77.453839,NO2,71,140,92
India,Uttar_Pradesh,Ghaziabad,"Vasundhara, Ghaziabad - UPPCB",18-01-2024 20:00:00,28.6603346,77.3572563,PM2.5,NA,NA,NA
India,Uttar_Pradesh,Ghaziabad,"Vasundhara, Ghaziabad - UPPCB",18-01-2024 20:00:00,28.6603346,77.3572563,SO2,NA,NA,NA
India,Uttar_Pradesh,Ghaziabad,"Vasundhara, Ghaziabad - UPPCB",18-01-2024 20:00:00,28.6603346,77.3572563,OZONE,2,36,20
India,Uttar_Pradesh,Greater Noida,"Knowledge Park - III, Greater Noida - UPPCB",18-01-2024 20:00:00,28.47272,77.482000,OZONE,1,24,21
India,Uttar_Pradesh,Greater Noida,"Knowledge Park - V, Greater Noida - UPPCB",18-01-2024 20:00:00,28.557054,77.453663,OZONE,4,37,19
India,Uttar_Pradesh,Jhansi,"Shivaji Nagar, Jhansi - UPPCB",18-01-2024 20:00:00,25.4547,78.6039,CO,30,58,36
India,Uttar_Pradesh,Kanpur,"FTI Kidwai Nagar, Kanpur - UPPCB",18-01-2024 20:00:00,26.428282,80.327067,PM2.5,18,102,78
India,Uttar_Pradesh,Kanpur,"FTI Kidwai Nagar, Kanpur - UPPCB",18-01-2024 20:00:00,26.428282,80.327067,NH3,4,5,4
India,Uttar_Pradesh,Kanpur,"NSI Kalyanpur, Kanpur - UPPCB",18-01-2024 20:00:00,26.509954,80.249612,SO2,22,24,23
India,Uttar_Pradesh,Kanpur,"Nehru Nagar, Kanpur - UPPCB",18-01-2024 20:00:00,26.4703136,80.3229863,OZONE,15,103,65
India,Uttar_Pradesh,Khurja,"Kalindi Kunj, Khurja - UPPCB",18-01-2024 20:00:00,28.2348927,77.8683002,PM10,6,73,33
India,Uttar_Pradesh,Lucknow,"B R Ambedkar University, Lucknow - UPPCB",18-01-2024 20:00:00,26.766433,80.927299,SO2,23,24,23
India,Uttar_Pradesh,Lucknow,"Gomti Nagar, Lucknow - UPPCB",18-01-2024 20:00:00,26.868120,81.005119,PM2.5,23,118,43
India,Uttar_Pradesh,Lucknow,"Kendriya Vidyalaya, Lucknow - CPCB",18-01-2024 20:00:00,26.906111,80.948222,PM10,88,131,109
India,Uttar_Pradesh,Lucknow,"Kendriya Vidyalaya, Lucknow - CPCB",18-01-2024 20:00:00,26.906111,80.948222,SO2,1,11,6
India,Uttar_Pradesh,Lucknow,"Kendriya Vidyalaya, Lucknow - CPCB",18-01-2024 20:00:00,26.906111,80.948222,OZONE,6,65,46
India,Uttar_Pradesh,Lucknow,"Kukrail Picnic Spot-1, Lucknow - UPPCB",18-01-2024 20:00:00,26.90723,80.98579,OZONE,5,71,34
India,Uttar_Pradesh,Lucknow,"Lalbagh, Lucknow - CPCB",18-01-2024 20:00:00,26.8458805,80.9365541,PM2.5,119,360,212
India,Uttar_Pradesh,Lucknow,"Lalbagh, Lucknow - CPCB",18-01-2024 20:00:00,26.8458805,80.9365541,SO2,1,16,6
India,Uttar_Pradesh,Lucknow,"Lalbagh, Lucknow - CPCB",18-01-2024 20:00:00,26.8458805,80.9365541,CO,56,109,90
India,Uttar_Pradesh,Lucknow,"Talkatora District Industries Center, Lucknow - CPCB",18-01-2024 20:00:00,26.83399722,80.8917361,PM2.5,89,319,175
India,Uttar_Pradesh,Lucknow,"Talkatora District Industries Center, Lucknow - CPCB",18-01-2024 20:00:00,26.83399722,80.8917361,NH3,17,31,23
India,Uttar_Pradesh,Meerut,"Pallavpuram Phase 2, Meerut - UPPCB",18-01-2024 20:00:00,29.063510,77.709723,PM10,60,186,110
India,Uttar_Pradesh,Meerut,"Pallavpuram Phase 2, Meerut - UPPCB",18-01-2024 20:00:00,29.063510,77.709723,NO2,13,70,27
India,Uttar_Pradesh,Meerut,"Pallavpuram Phase 2, Meerut - UPPCB",18-01-2024 20:00:00,29.063510,77.709723,SO2,4,7,5
India,Uttar_Pradesh,Moradabad,"Buddhi Vihar, Moradabad - UPPCB",18-01-2024 20:00:00,28.83526,78.74460,PM10,42,118,78
India,Uttar_Pradesh,Moradabad,"Buddhi Vihar, Moradabad - UPPCB",18-01-2024 20:00:00,28.83526,78.74460,NH3,7,9,8
India,Uttar_Pradesh,Moradabad,"Eco Herbal Park, Moradabad - UPPCB",18-01-2024 20:00:00,28.840739,78.697531,PM10,34,107,63
India,Uttar_Pradesh,Moradabad,"Jigar Colony, Moradabad - UPPCB",18-01-2024 20:00:00,28.856664,78.772638,NO2,21,26,25
India,Uttar_Pradesh,Moradabad,"Jigar Colony, Moradabad - UPPCB",18-01-2024 20:00:00,28.856664,78.772638,CO,18,72,48
India,Uttar_Pradesh,Moradabad,"Kashiram Nagar, Moradabad - UPPCB",18-01-2024 20:00:00,28.849399,78.742362,NH3,3,4,4
India,Uttar_Pradesh,Moradabad,"Kashiram Nagar, Moradabad - UPPCB",18-01-2024 20:00:00,28.849399,78.742362,SO2,25,29,27
India,Uttar_Pradesh,Moradabad,"Kashiram Nagar, Moradabad - UPPCB",18-01-2024 20:00:00,28.849399,78.742362,OZONE,12,21,14
India,Uttar_Pradesh,Moradabad,"Transport Nagar, Moradabad - UPPCB",18-01-2024 20:00:00,28.802625,78.753728,PM2.5,35,94,63
India,Uttar_Pradesh,Moradabad,"Transport Nagar, Moradabad - UPPCB",18-01-2024 20:00:00,28.802625,78.753728,SO2,40,42,41
India,Uttar_Pradesh,Moradabad,"Transport Nagar, Moradabad - UPPCB",18-01-2024 20:00:00,28.802625,78.753728,CO,40,42,40
India,Uttar_Pradesh,Muzaffarnagar,"New Mandi, Muzaffarnagar - UPPCB",18-01-2024 20:00:00,29.4723508,77.7194031,NH3,7,13,9
India,Uttar_Pradesh,Noida,"Sector - 125, Noida - UPPCB",18-01-2024 20:00:00,28.5447608,77.3231257,NO2,51,113,89
India,Uttar_Pradesh,Noida,"Sector - 62, Noida - IMD",18-01-2024 20:00:00,28.6245479,77.3577104,PM2.5,164,367,285
India,Uttar_Pradesh,Noida,"Sector-1, Noida - UPPCB",18-01-2024 20:00:00,28.5898,77.3101,NH3,8,14,10
India,Uttar_Pradesh,Noida,"Sector-1, Noida - UPPCB",18-01-2024 20:00:00,28.5898,77.3101,CO,12,74,41
India,Uttar_Pradesh,Noida,"Sector-116, Noida - UPPCB",18-01-2024 20:00:00,28.569230,77.393848,NO2,15,59,37
India,Uttar_Pradesh,Noida,"Sector-116, Noida - UPPCB",18-01-2024 20:00:00,28.569230,77.393848,SO2,15,22,18
India,Uttar_Pradesh,Prayagraj,"Jhunsi, Prayagraj - UPPCB",18-01-2024 20:00:00,25.425602,81.917152,PM2.5,52,93,72
India,Uttar_Pradesh,Prayagraj,"Jhunsi, Prayagraj - UPPCB",18-01-2024 20:00:00,25.425602,81.917152,SO2,31,33,31
India,Uttar_Pradesh,Prayagraj,"Nagar Nigam, Prayagraj - UPPCB",18-01-2024 20:00:00,25.44919916 ,81.82735986 ,PM10,86,153,128
India,Uttar_Pradesh,Varanasi,"Ardhali Bazar, Varanasi - UPPCB",18-01-2024 20:00:00,25.3505986,82.9083074,PM10,43,67,53
India,Uttar_Pradesh,Varanasi,"IESD Banaras Hindu University, Varanasi - UPPCB",18-01-2024 20:00:00,25.262326,82.995408,OZONE,1,3,2
India,Uttar_Pradesh,Vrindavan,"Omex Eternity, Vrindavan - UPPCB",18-01-2024 20:00:00,27.5714090,77.6557570,NO2,2,3,3
India,Uttarakhand,Dehradun,"Doon University, Dehradun - UKPCB",18-01-2024 20:00:00,30.269444,78.044167,PM2.5,36,311,226
India,Uttarakhand,Dehradun,"Doon University, Dehradun - UKPCB",18-01-2024 20:00:00,30.269444,78.044167,NO2,2,7,4
India,Uttarakhand,Rishikesh,"Shivaji Nagar, Rishikesh - UKPCB",18-01-2024 20:00:00,30.075911,78.2859547,SO2,4,6,5
India,West_Bengal,Asansol,"Asansol Court Area, Asansol - WBPCB",18-01-2024 20:00:00,23.685297,86.945968,NO2,31,57,45
India,West_Bengal,Barrackpore,"SVSPA Campus, Barrackpore - WBPCB",18-01-2024 20:00:00,22.7605581,88.3617589,SO2,7,8,8
India,West_Bengal,Durgapur,"Sidhu Kanhu Indoor Stadium, Durgapur - WBPCB",18-01-2024 20:00:00,23.5404352,87.2892225,NO2,NA,NA,NA
India,West_Bengal,Haldia,"Priyambada Housing Estate, Haldia - WBPCB",18-01-2024 20:00:00,22.06047,88.109737,NO2,26,40,32
India,West_Bengal,Haldia,"Priyambada Housing Estate, Haldia - WBPCB",18-01-2024 20:00:00,22.06047,88.109737,SO2,7,14,10
India,West_Bengal,Haldia,"Priyambada Housing Estate, Haldia - WBPCB",18-01-2024 20:00:00,22.06047,88.109737,CO,52,67,63
India,West_Bengal,Haldia,"Priyambada Housing Estate, Haldia - WBPCB",18-01-2024 20:00:00,22.06047,88.109737,OZONE,15,31,21
India,West_Bengal,Howrah,"Padmapukur, Howrah - WBPCB",18-01-2024 20:00:00,22.5687319,88.2797276,PM10,124,159,135
India,West_Bengal,Howrah,"Padmapukur, Howrah - WBPCB",18-01-2024 20:00:00,22.5687319,88.2797276,CO,13,88,52
India,West_Bengal,Kolkata,"Ballygunge, Kolkata - WBPCB",18-01-2024 20:00:00,22.5367507,88.3638022,PM2.5,183,307,232
India,West_Bengal,Kolkata,"Ballygunge, Kolkata - WBPCB",18-01-2024 20:00:00,22.5367507,88.3638022,NH3,5,7,6
India,West_Bengal,Kolkata,"Ballygunge, Kolkata - WBPCB",18-01-2024 20:00:00,22.5367507,88.3638022,CO,20,46,33
India,West_Bengal,Kolkata,"Bidhannagar, Kolkata - WBPCB",18-01-2024 20:00:00,22.58157048,88.41002457,PM2.5,136,211,172
India,West_Bengal,Kolkata,"Bidhannagar, Kolkata - WBPCB",18-01-2024 20:00:00,22.58157048,88.41002457,NH3,10,11,10
India,West_Bengal,Kolkata,"Bidhannagar, Kolkata - WBPCB",18-01-2024 20:00:00,22.58157048,88.41002457,CO,64,74,68
India,West_Bengal,Kolkata,"Fort William, Kolkata - WBPCB",18-01-2024 20:00:00,22.556640,88.342674,PM2.5,217,282,244
India,West_Bengal,Kolkata,"Fort William, Kolkata - WBPCB",18-01-2024 20:00:00,22.556640,88.342674,OZONE,15,85,62
India,West_Bengal,Kolkata,"Jadavpur, Kolkata - WBPCB",18-01-2024 20:00:00,22.49929,88.36917,NO2,4,7,5
India,West_Bengal,Kolkata,"Rabindra Bharati University, Kolkata - WBPCB",18-01-2024 20:00:00,22.627847,88.380669,CO,42,56,47
India,West_Bengal,Siliguri,"Ward-32 Bapupara, Siliguri - WBPCB",18-01-2024 20:00:00,26.6879226,88.4152495,CO,24,91,38
India,Andhra_Pradesh,Chittoor,"Gangineni Cheruvu, Chittoor - APPCB",18-01-2024 20:00:00,13.204880,79.097889,PM2.5,39,71,48
India,Andhra_Pradesh,Chittoor,"Gangineni Cheruvu, Chittoor - APPCB",18-01-2024 20:00:00,13.204880,79.097889,NO2,6,27,13
India,Andhra_Pradesh,Chittoor,"Gangineni Cheruvu, Chittoor - APPCB",18-01-2024 20:00:00,13.204880,79.097889,SO2,1,47,14
India,Andhra_Pradesh,Chittoor,"Gangineni Cheruvu, Chittoor - APPCB",18-01-2024 20:00:00,13.204880,79.097889,CO,10,30,14
India,Andhra_Pradesh,Kadapa,"Yerramukkapalli, Kadapa - APPCB",18-01-2024 20:00:00,14.465052,78.824187,PM2.5,25,58,38
India,Andhra_Pradesh,Rajamahendravaram,"Anand Kala Kshetram, Rajamahendravaram - APPCB",18-01-2024 20:00:00,16.9872867,81.7363176,PM2.5,35,138,86
India,Andhra_Pradesh,Rajamahendravaram,"Anand Kala Kshetram, Rajamahendravaram - APPCB",18-01-2024 20:00:00,16.9872867,81.7363176,PM10,44,116,82
India,Andhra_Pradesh,Tirupati,"Tirumala, Tirupati - APPCB",18-01-2024 20:00:00,13.67,79.35,PM10,26,82,52
India,Andhra_Pradesh,Tirupati,"Tirumala, Tirupati - APPCB",18-01-2024 20:00:00,13.67,79.35,SO2,4,6,5
India,Andhra_Pradesh,Vijayawada,"HB Colony, Vijayawada - APPCB",18-01-2024 20:00:00,16.536107,80.594233,NO2,NA,NA,NA
India,Andhra_Pradesh,Vijayawada,"HB Colony, Vijayawada - APPCB",18-01-2024 20:00:00,16.536107,80.594233,SO2,NA,NA,NA
India,Andhra_Pradesh,Vijayawada,"Rajiv Gandhi Park, Vijayawada - APPCB",18-01-2024 20:00:00,16.509717,80.612222,NH3,NA,NA,NA
India,Assam,Byrnihat,"Central Academy for SFS, Byrnihat - PCBA",18-01-2024 20:00:00,26.071318,91.87488,PM2.5,NA,NA,NA
India,Assam,Byrnihat,"Central Academy for SFS, Byrnihat - PCBA",18-01-2024 20:00:00,26.071318,91.87488,OZONE,5,6,6
India,Assam,Guwahati,"IITG, Guwahati - PCBA",18-01-2024 20:00:00,26.2028636,91.70046436,PM2.5,154,399,299
India,Assam,Guwahati,"LGBI Airport, Guwahati - PCBA",18-01-2024 20:00:00,26.10887,91.589544,SO2,11,14,13
India,Assam,Guwahati,"LGBI Airport, Guwahati - PCBA",18-01-2024 20:00:00,26.10887,91.589544,OZONE,1,106,62
India,Assam,Guwahati,"Pan Bazaar, Guwahati - PCBA",18-01-2024 20:00:00,26.187500,91.744194,NO2,NA,NA,NA
India,Assam,Guwahati,"Pan Bazaar, Guwahati - PCBA",18-01-2024 20:00:00,26.187500,91.744194,OZONE,17,17,17
India,Assam,Guwahati,"Railway Colony, Guwahati - PCBA",18-01-2024 20:00:00,26.181742,91.78063,PM10,92,467,224
India,Assam,Nalbari,"Bata Chowk, Nalbari - PCBA",18-01-2024 20:00:00,26.446912,91.439057,PM10,71,320,131
India,Assam,Nalbari,"Bata Chowk, Nalbari - PCBA",18-01-2024 20:00:00,26.446912,91.439057,OZONE,13,21,18
India,Assam,Silchar,"Tarapur, Silchar - PCBA",18-01-2024 20:00:00,24.82827,92.79525,CO,32,48,38
India,Bihar,Araria,"Kharahiya Basti, Araria - BSPCB",18-01-2024 20:00:00,26.146529,87.454184,PM10,NA,NA,NA
India,Bihar,Araria,"Kharahiya Basti, Araria - BSPCB",18-01-2024 20:00:00,26.146529,87.454184,NH3,NA,NA,NA
India,Bihar,Arrah,"New DM Office, Arrah - BSPCB",18-01-2024 20:00:00,25.5626095,84.663264,NH3,5,8,6
India,Bihar,Arrah,"New DM Office, Arrah - BSPCB",18-01-2024 20:00:00,25.5626095,84.663264,SO2,14,22,18
India,Bihar,Arrah,"New DM Office, Arrah - BSPCB",18-01-2024 20:00:00,25.5626095,84.663264,CO,4,16,8
India,Bihar,Aurangabad,"Gurdeo Nagar, Aurangabad - BSPCB",18-01-2024 20:00:00,24.75746,84.366208,SO2,NA,NA,NA
India,Bihar,Bettiah,"Kamalnath Nagar, Bettiah - BSPCB",18-01-2024 20:00:00,26.80365,84.51954,PM2.5,NA,NA,NA
India,Bihar,Bettiah,"Kamalnath Nagar, Bettiah - BSPCB",18-01-2024 20:00:00,26.80365,84.51954,CO,16,100,55
India,Bihar,Bhagalpur,"DM Office_Kachari Chowk, Bhagalpur - BSPCB",18-01-2024 20:00:00,25.251013,86.989001,PM2.5,197,352,286
India,Bihar,Bhagalpur,"DM Office_Kachari Chowk, Bhagalpur - BSPCB",18-01-2024 20:00:00,25.251013,86.989001,PM10,123,199,167
India,Bihar,Bhagalpur,"Mayaganj, Bhagalpur - BSPCB",18-01-2024 20:00:00,25.265194,87.012947,PM10,87,233,145
India,Bihar,Bhagalpur,"Mayaganj, Bhagalpur - BSPCB",18-01-2024 20:00:00,25.265194,87.012947,OZONE,21,30,25
India,Bihar,Chhapra,"Darshan Nagar, Chhapra - BSPCB",18-01-2024 20:00:00,25.7808257,84.7446768,SO2,NA,NA,NA
India,Bihar,Chhapra,"Darshan Nagar, Chhapra - BSPCB",18-01-2024 20:00:00,25.7808257,84.7446768,CO,26,39,31
India,Bihar,Chhapra,"Darshan Nagar, Chhapra - BSPCB",18-01-2024 20:00:00,25.7808257,84.7446768,OZONE,1,2,1
India,Bihar,Gaya,"Collectorate, Gaya - BSPCB",18-01-2024 20:00:00,24.7955,84.9994,NO2,17,20,18
India,Bihar,Gaya,"Collectorate, Gaya - BSPCB",18-01-2024 20:00:00,24.7955,84.9994,OZONE,51,83,62
India,Bihar,Gaya,"Kareemganj, Gaya - BSPCB",18-01-2024 20:00:00,24.792403,84.992416,OZONE,2,31,16
India,Bihar,Gaya,"SFTI Kusdihra, Gaya - BSPCB",18-01-2024 20:00:00,24.762518,84.982348,NO2,20,36,27
India,Bihar,Katihar,"Mirchaibari, Katihar - BSPCB",18-01-2024 20:00:00,25.560083,87.553265,PM10,61,192,117
India,Bihar,Katihar,"Mirchaibari, Katihar - BSPCB",18-01-2024 20:00:00,25.560083,87.553265,CO,26,42,33
India,Bihar,Kishanganj,"SDM Office_Khagra, Kishanganj - BSPCB",18-01-2024 20:00:00,26.0881305,87.93840336,NO2,29,34,31
India,Bihar,Manguraha,"Forest Rest House, Manguraha - BSPCB",18-01-2024 20:00:00,27.308328,84.531742,PM2.5,NA,NA,NA
India,Bihar,Manguraha,"Forest Rest House, Manguraha - BSPCB",18-01-2024 20:00:00,27.308328,84.531742,CO,3,37,20
India,Bihar,Motihari,"Gandak Colony, Motihari - BSPCB",18-01-2024 20:00:00,26.63086,84.90051,PM10,101,177,125
India,Bihar,Munger,"Town Hall, Munger - BSPCB",18-01-2024 20:00:00,25.376776,86.471523,PM2.5,83,304,147
India,Bihar,Munger,"Town Hall, Munger - BSPCB",18-01-2024 20:00:00,25.376776,86.471523,CO,52,70,59
India,Bihar,Muzaffarpur,"Buddha Colony, Muzaffarpur - BSPCB",18-01-2024 20:00:00,26.11442,85.39813,CO,61,113,95
India,Bihar,Muzaffarpur,"MIT-Daudpur Kothi, Muzaffarpur - BSPCB",18-01-2024 20:00:00,26.1403345,85.3650192,NO2,5,8,7
India,Bihar,Muzaffarpur,"MIT-Daudpur Kothi, Muzaffarpur - BSPCB",18-01-2024 20:00:00,26.1403345,85.3650192,OZONE,3,7,6
India,Bihar,Patna,"DRM Office Danapur, Patna - BSPCB",18-01-2024 20:00:00,25.586562,85.043586,PM2.5,342,388,364
India,Bihar,Patna,"DRM Office Danapur, Patna - BSPCB",18-01-2024 20:00:00,25.586562,85.043586,NH3,4,5,4
India,Bihar,Patna,"Govt. High School Shikarpur, Patna - BSPCB",18-01-2024 20:00:00,25.592539,85.227158,NH3,3,6,5
India,Bihar,Patna,"IGSC Planetarium Complex, Patna - BSPCB",18-01-2024 20:00:00,25.610369,85.132568,NO2,15,15,15
India,Bihar,Patna,"Muradpur, Patna - BSPCB",18-01-2024 20:00:00,25.619651,85.147382,NO2,2,21,10
India,Bihar,Patna,"Muradpur, Patna - BSPCB",18-01-2024 20:00:00,25.619651,85.147382,NH3,1,4,2
India,Bihar,Patna,"Muradpur, Patna - BSPCB",18-01-2024 20:00:00,25.619651,85.147382,OZONE,9,18,13
India,Bihar,Patna,"Samanpura, Patna - BSPCB",18-01-2024 20:00:00,25.596727,85.085624,PM2.5,301,376,331
India,Bihar,Patna,"Samanpura, Patna - BSPCB",18-01-2024 20:00:00,25.596727,85.085624,NH3,3,3,3
India,Bihar,Patna,"Samanpura, Patna - BSPCB",18-01-2024 20:00:00,25.596727,85.085624,SO2,5,8,6
India,Bihar,Purnia,"Mariam Nagar, Purnia - BSPCB",18-01-2024 20:00:00,25.366336,87.117468,PM10,86,211,138
India,Bihar,Purnia,"Mariam Nagar, Purnia - BSPCB",18-01-2024 20:00:00,25.366336,87.117468,NH3,1,1,1
India,Bihar,Purnia,"Mariam Nagar, Purnia - BSPCB",18-01-2024 20:00:00,25.366336,87.117468,SO2,18,21,19
India,Bihar,Saharsa,"Police Line, Saharsa - BSPCB",18-01-2024 20:00:00,25.892357,86.590325,NO2,5,8,7
India,Bihar,Samastipur,"DM Office_Kasipur, Samastipur - BSPCB",18-01-2024 20:00:00,25.859655,85.77944,PM2.5,NA,NA,NA
India,Bihar,Samastipur,"DM Office_Kasipur, Samastipur - BSPCB",18-01-2024 20:00:00,25.859655,85.77944,NO2,NA,NA,NA
India,Bihar,Samastipur,"DM Office_Kasipur, Samastipur - BSPCB",18-01-2024 20:00:00,25.859655,85.77944,SO2,NA,NA,NA
India,Bihar,Samastipur,"DM Office_Kasipur, Samastipur - BSPCB",18-01-2024 20:00:00,25.859655,85.77944,OZONE,6,10,9
India,Bihar,Sasaram,"Dada Peer, Sasaram - BSPCB",18-01-2024 20:00:00,24.952822,84.002396,PM2.5,132,311,220
India,Bihar,Sasaram,"Dada Peer, Sasaram - BSPCB",18-01-2024 20:00:00,24.952822,84.002396,PM10,103,167,130
India,Bihar,Sasaram,"Dada Peer, Sasaram - BSPCB",18-01-2024 20:00:00,24.952822,84.002396,SO2,21,23,22
India,Bihar,Siwan,"Chitragupta Nagar, Siwan - BSPCB",18-01-2024 20:00:00,26.2271665,84.3570427,NH3,1,5,3
India,Chandigarh,Chandigarh,"Sector 22, Chandigarh - CPCC",18-01-2024 20:00:00,30.735567,76.775714,PM10,117,410,238
India,Chandigarh,Chandigarh,"Sector-25, Chandigarh - CPCC",18-01-2024 20:00:00,30.751462,76.762879,PM2.5,173,320,260
India,Chandigarh,Chandigarh,"Sector-25, Chandigarh - CPCC",18-01-2024 20:00:00,30.751462,76.762879,SO2,6,16,10
India,Chandigarh,Chandigarh,"Sector-53, Chandigarh - CPCC",18-01-2024 20:00:00,30.719859,76.738637,PM2.5,290,476,385
India,Chandigarh,Chandigarh,"Sector-53, Chandigarh - CPCC",18-01-2024 20:00:00,30.719859,76.738637,PM10,137,417,272
India,Chhattisgarh,Bhilai,"32Bungalows, Bhilai - CECB",18-01-2024 20:00:00,21.194815,81.314770,NH3,6,6,6
India,Chhattisgarh,Bhilai,"32Bungalows, Bhilai - CECB",18-01-2024 20:00:00,21.194815,81.314770,CO,34,86,37
India,Chhattisgarh,Bhilai,"Civic Center, Bhilai - Bhilai Steel Plant",18-01-2024 20:00:00,21.185571,81.343175,SO2,9,11,10
India,Chhattisgarh,Bhilai,"Hathkhoj, Bhilai - CECB",18-01-2024 20:00:00,21.224231,81.408350,CO,26,62,30
India,Chhattisgarh,Bilaspur,"Mangala, Bilaspur - NTPC",18-01-2024 20:00:00,22.08815,82.13737,NO2,7,13,10
India,Chhattisgarh,Chhal,"Nawapara SECL Colony, Chhal - CECB",18-01-2024 20:00:00,22.118125,83.140608,CO,51,119,98
India,Chhattisgarh,Korba,"Rampur, Korba - CECB",18-01-2024 20:00:00,22.368195,82.746431,PM10,52,312,105
India,Chhattisgarh,Korba,"Urja Nagar, Korba - CECB",18-01-2024 20:00:00,22.348441,82.549611,NO2,60,76,69
India,Chhattisgarh,Korba,"Urja Nagar, Korba - CECB",18-01-2024 20:00:00,22.348441,82.549611,NH3,5,9,6
India,Chhattisgarh,Kunjemura,"OP Jindal School, Kunjemura - CECB",18-01-2024 20:00:00,22.126650,83.483212,PM2.5,46,91,62
India,Chhattisgarh,Raipur,"Bhatagaon New ISBT, Raipur - CECB",18-01-2024 20:00:00,21.219665,81.630094,NH3,2,4,3
India,Chhattisgarh,Raipur,"Bhatagaon New ISBT, Raipur - CECB",18-01-2024 20:00:00,21.219665,81.630094,SO2,NA,NA,NA
India,Chhattisgarh,Raipur,"Krishak Nagar, Raipur - CECB",18-01-2024 20:00:00,21.237755,81.705301,NO2,26,43,34
India,Chhattisgarh,Raipur,"Krishak Nagar, Raipur - CECB",18-01-2024 20:00:00,21.237755,81.705301,NH3,1,1,1
India,Chhattisgarh,Raipur,"Siltara Phase-II, Raipur - CECB",18-01-2024 20:00:00,21.371751,81.664929,PM10,88,193,123
India,Chhattisgarh,Tumidih,"OP Jindal Industrial Park, Tumidih - CECB",18-01-2024 20:00:00,22.06631475,83.33820077,OZONE,9,40,25
India,Delhi,Delhi,"Alipur, Delhi - DPCC",18-01-2024 20:00:00,28.815329,77.153010,OZONE,3,76,38
India,Delhi,Delhi,"Anand Vihar, Delhi - DPCC",18-01-2024 20:00:00,28.647622,77.3158090,NO2,51,131,90
India,Delhi,Delhi,"Anand Vihar, Delhi - DPCC",18-01-2024 20:00:00,28.647622,77.3158090,NH3,8,13,10
India,Delhi,Delhi,"Anand Vihar, Delhi - DPCC",18-01-2024 20:00:00,28.647622,77.3158090,CO,4,80,15
India,Delhi,Delhi,"Ashok Vihar, Delhi - DPCC",18-01-2024 20:00:00,28.695381,77.181665,PM2.5,149,422,318
India,Delhi,Delhi,"Ashok Vihar, Delhi - DPCC",18-01-2024 20:00:00,28.695381,77.181665,PM10,142,484,317
India,Delhi,Delhi,"Aya Nagar, Delhi - IMD",18-01-2024 20:00:00,28.4706914,77.1099364,OZONE,1,18,9
India,Delhi,Delhi,"Burari Crossing, Delhi - IMD",18-01-2024 20:00:00,28.7256504,77.2011573,PM2.5,92,430,283
India,Delhi,Delhi,"Burari Crossing, Delhi - IMD",18-01-2024 20:00:00,28.7256504,77.2011573,CO,104,106,105
India,Delhi,Delhi,"CRRI Mathura Road, Delhi - IMD",18-01-2024 20:00:00,28.5512005,77.2735737,CO,58,84,68
India,Delhi,Delhi,"DTU, Delhi - CPCB",18-01-2024 20:00:00,28.7500499,77.1112615,PM10,135,436,331
India,Delhi,Delhi,"Dr. Karni Singh Shooting Range, Delhi - DPCC",18-01-2024 20:00:00,28.498571,77.264840,SO2,4,14,9
India,Delhi,Delhi,"Dr. Karni Singh Shooting Range, Delhi - DPCC",18-01-2024 20:00:00,28.498571,77.264840,OZONE,1,85,42
India,Delhi,Delhi,"Dwarka-Sector 8, Delhi - DPCC ",18-01-2024 20:00:00,28.5710274,77.0719006,NH3,4,9,5
India,Delhi,Delhi,"Dwarka-Sector 8, Delhi - DPCC ",18-01-2024 20:00:00,28.5710274,77.0719006,SO2,5,12,8
India,Delhi,Delhi,"IGI Airport (T3), Delhi - IMD",18-01-2024 20:00:00,28.5627763,77.1180053,CO,2,80,77
India,Delhi,Delhi,"IHBAS, Dilshad Garden, Delhi - CPCB",18-01-2024 20:00:00,28.6811736,77.3025234,PM10,117,241,184
India,Delhi,Delhi,"IHBAS, Dilshad Garden, Delhi - CPCB",18-01-2024 20:00:00,28.6811736,77.3025234,NH3,2,7,5
India,Delhi,Delhi,"IHBAS, Dilshad Garden, Delhi - CPCB",18-01-2024 20:00:00,28.6811736,77.3025234,SO2,8,47,29
India,Delhi,Delhi,"ITO, Delhi - CPCB",18-01-2024 20:00:00,28.628624,77.241060,PM2.5,293,416,360
India,Delhi,Delhi,"ITO, Delhi - CPCB",18-01-2024 20:00:00,28.628624,77.241060,NO2,19,56,31
India,Delhi,Delhi,"ITO, Delhi - CPCB",18-01-2024 20:00:00,28.628624,77.241060,CO,17,101,71
India,Delhi,Delhi,"Lodhi Road, Delhi - IITM",18-01-2024 20:00:00,28.588333,77.221667,NO2,71,87,84
India,Delhi,Delhi,"Lodhi Road, Delhi - IITM",18-01-2024 20:00:00,28.588333,77.221667,OZONE,15,16,15
India,Delhi,Delhi,"Mandir Marg, Delhi - DPCC",18-01-2024 20:00:00,28.636429,77.201067,OZONE,1,11,6
India,Delhi,Delhi,"Mundka, Delhi - DPCC",18-01-2024 20:00:00,28.684678,77.076574,PM10,126,445,335
India,Delhi,Delhi,"Mundka, Delhi - DPCC",18-01-2024 20:00:00,28.684678,77.076574,NO2,43,127,78
India,Delhi,Delhi,"NSIT Dwarka, Delhi - CPCB",18-01-2024 20:00:00,28.60909,77.0325413,PM10,142,344,237
India,Delhi,Delhi,"NSIT Dwarka, Delhi - CPCB",18-01-2024 20:00:00,28.60909,77.0325413,NH3,10,11,10
India,Delhi,Delhi,"NSIT Dwarka, Delhi - CPCB",18-01-2024 20:00:00,28.60909,77.0325413,CO,38,96,56
India,Delhi,Delhi,"Najafgarh, Delhi - DPCC",18-01-2024 20:00:00,28.570173,76.933762,PM2.5,107,375,251
India,Delhi,Delhi,"Najafgarh, Delhi - DPCC",18-01-2024 20:00:00,28.570173,76.933762,NO2,20,68,30
India,Delhi,Delhi,"Narela, Delhi - DPCC",18-01-2024 20:00:00,28.822836,77.101981,CO,48,126,99
India,Delhi,Delhi,"Nehru Nagar, Delhi - DPCC",18-01-2024 20:00:00,28.567890,77.250515,OZONE,1,56,27
India,Delhi,Delhi,"New Moti Bagh, Delhi - MHUA",18-01-2024 20:00:00,28.57834,77.18400,PM2.5,144,412,314
India,Delhi,Delhi,"North Campus, DU, Delhi - IMD",18-01-2024 20:00:00,28.6573814,77.1585447,PM2.5,172,440,337
India,Delhi,Delhi,"Okhla Phase-2, Delhi - DPCC",18-01-2024 20:00:00,28.530785,77.271255,NH3,13,18,15
India,Delhi,Delhi,"Okhla Phase-2, Delhi - DPCC",18-01-2024 20:00:00,28.530785,77.271255,SO2,6,13,9
India,Delhi,Delhi,"Patparganj, Delhi - DPCC",18-01-2024 20:00:00,28.623763,77.287209,OZONE,1,5,4
India,Delhi,Delhi,"Punjabi Bagh, Delhi - DPCC",18-01-2024 20:00:00,28.674045,77.131023,OZONE,6,10,8
India,Delhi,Delhi,"Pusa, Delhi - DPCC",18-01-2024 20:00:00,28.639652,77.146275,NO2,111,328,200
India,Delhi,Delhi,"Shadipur, Delhi - CPCB",18-01-2024 20:00:00,28.6514781,77.1473105,PM10,113,500,312
India,Delhi,Delhi,"Sirifort, Delhi - CPCB",18-01-2024 20:00:00,28.5504249,77.2159377,NO2,103,168,147
India,Delhi,Delhi,"Sirifort, Delhi - CPCB",18-01-2024 20:00:00,28.5504249,77.2159377,SO2,28,31,29
India,Delhi,Delhi,"Sirifort, Delhi - CPCB",18-01-2024 20:00:00,28.5504249,77.2159377,CO,30,102,61
India,Delhi,Delhi,"Sonia Vihar, Delhi - DPCC",18-01-2024 20:00:00,28.710508,77.249485,NH3,8,11,9
India,Delhi,Delhi,"Sri Aurobindo Marg, Delhi - DPCC",18-01-2024 20:00:00,28.531346,77.190156,NH3,8,12,10
India,Delhi,Delhi,"Vivek Vihar, Delhi - DPCC",18-01-2024 20:00:00,28.672342,77.315260,CO,26,120,85
India,Delhi,Delhi,"Wazirpur, Delhi - DPCC",18-01-2024 20:00:00,28.699793,77.165453,SO2,20,47,30
India,Gujarat,Ahmedabad,"Chandkheda, Ahmedabad - IITM",18-01-2024 20:00:00,23.107969,72.574648,PM10,64,136,96
India,Gujarat,Ahmedabad,"Chandkheda, Ahmedabad - IITM",18-01-2024 20:00:00,23.107969,72.574648,NH3,4,4,4
India,Gujarat,Ahmedabad,"Chandkheda, Ahmedabad - IITM",18-01-2024 20:00:00,23.107969,72.574648,CO,32,105,48
India,Gujarat,Ahmedabad,"Chandkheda, Ahmedabad - IITM",18-01-2024 20:00:00,23.107969,72.574648,OZONE,20,24,23
India,Gujarat,Ahmedabad,"Gyaspur, Ahmedabad - IITM",18-01-2024 20:00:00,22.977134,72.553024,PM2.5,54,255,124
India,Gujarat,Ahmedabad,"Gyaspur, Ahmedabad - IITM",18-01-2024 20:00:00,22.977134,72.553024,NH3,3,3,3
India,Gujarat,Ahmedabad,"Gyaspur, Ahmedabad - IITM",18-01-2024 20:00:00,22.977134,72.553024,CO,12,26,15
India,Gujarat,Ahmedabad,"Maninagar, Ahmedabad - GPCB",18-01-2024 20:00:00,23.002657,72.591912,NO2,12,115,54
India,Gujarat,Ahmedabad,"Maninagar, Ahmedabad - GPCB",18-01-2024 20:00:00,23.002657,72.591912,CO,8,63,20
India,Gujarat,Ahmedabad,"Raikhad, Ahmedabad - IITM",18-01-2024 20:00:00,23.020509,72.579261,OZONE,20,20,20
India,Gujarat,Ahmedabad,"SAC ISRO Bopal, Ahmedabad - IITM",18-01-2024 20:00:00,23.041137,72.456691,PM10,54,166,96
India,Gujarat,Ahmedabad,"SAC ISRO Bopal, Ahmedabad - IITM",18-01-2024 20:00:00,23.041137,72.456691,NH3,4,4,4
India,Gujarat,Ahmedabad,"SAC ISRO Bopal, Ahmedabad - IITM",18-01-2024 20:00:00,23.041137,72.456691,OZONE,23,24,24
India,Gujarat,Ahmedabad,"SAC ISRO Satellite, Ahmedabad - IITM",18-01-2024 20:00:00,23.023389,72.515201,PM2.5,111,116,113
India,Gujarat,Ahmedabad,"SVPI Airport Hansol, Ahmedabad - IITM",18-01-2024 20:00:00,23.076793,72.627874,PM10,65,175,110
India,Gujarat,Ahmedabad,"SVPI Airport Hansol, Ahmedabad - IITM",18-01-2024 20:00:00,23.076793,72.627874,NO2,14,14,14
India,Gujarat,Ahmedabad,"Sardar Vallabhbhai Patel Stadium, Ahmedabad - IITM",18-01-2024 20:00:00,23.043070,72.562968,NH3,3,3,3
India,Gujarat,Ahmedabad,"Sardar Vallabhbhai Patel Stadium, Ahmedabad - IITM",18-01-2024 20:00:00,23.043070,72.562968,OZONE,2,14,11
India,Gujarat,Gandhinagar,"GIFT City, Gandhinagar - IITM",18-01-2024 20:00:00,23.163798,72.677768,PM2.5,41,125,72
India,Gujarat,Gandhinagar,"GIFT City, Gandhinagar - IITM",18-01-2024 20:00:00,23.163798,72.677768,SO2,5,8,6
India,Gujarat,Gandhinagar,"IIPHG Lekawada, Gandhinagar - IITM",18-01-2024 20:00:00,23.243639,72.68994,CO,46,72,50
India,Gujarat,Gandhinagar,"Sector-10, Gandhinagar - GPCB",18-01-2024 20:00:00,23.221714,72.654328,PM10,34,136,75
India,Gujarat,Vapi,"Phase-1 GIDC, Vapi - GPCB",18-01-2024 20:00:00,20.362421,72.918013,PM2.5,80,360,230
India,Gujarat,Vapi,"Phase-1 GIDC, Vapi - GPCB",18-01-2024 20:00:00,20.362421,72.918013,OZONE,1,5,2
India,Gujarat,Vatva,"Phase-4 GIDC, Vatva - GPCB",18-01-2024 20:00:00,22.969611,72.643500,NO2,22,300,82
India,Haryana,Ambala,"Patti Mehar, Ambala - HSPCB",18-01-2024 20:00:00,30.379589,76.778328,OZONE,28,42,37
India,Haryana,Bahadurgarh,"Arya Nagar, Bahadurgarh - HSPCB",18-01-2024 20:00:00,28.6701,76.9254,PM2.5,78,335,247
India,Haryana,Ballabgarh,"Nathu Colony, Ballabgarh - HSPCB",18-01-2024 20:00:00,28.3419248,77.319699,CO,34,82,57
India,Haryana,Bhiwani,"H.B. Colony, Bhiwani - HSPCB",18-01-2024 20:00:00,28.806223,76.141105,NH3,6,6,6
India,Haryana,Bhiwani,"H.B. Colony, Bhiwani - HSPCB",18-01-2024 20:00:00,28.806223,76.141105,CO,42,82,52
India,Haryana,Charkhi Dadri,"Mini Secretariat, Charkhi Dadri - HSPCB",18-01-2024 20:00:00,28.593883,76.270653,NH3,5,7,6
India,Haryana,Dharuhera,"Municipal Corporation Office, Dharuhera -  HSPCB",18-01-2024 20:00:00,28.206800,76.799700,CO,40,110,67
India,Haryana,Faridabad,"New Industrial Town, Faridabad - HSPCB",18-01-2024 20:00:00,28.39072,77.30059,PM2.5,163,374,276
India,Haryana,Faridabad,"New Industrial Town, Faridabad - HSPCB",18-01-2024 20:00:00,28.39072,77.30059,SO2,4,9,7
India,Haryana,Faridabad,"New Industrial Town, Faridabad - HSPCB",18-01-2024 20:00:00,28.39072,77.30059,OZONE,28,70,60
India,Haryana,Faridabad,"Sector 11, Faridabad - HSPCB",18-01-2024 20:00:00,28.376058,77.315741,NO2,31,34,32
India,Haryana,Faridabad,"Sector 11, Faridabad - HSPCB",18-01-2024 20:00:00,28.376058,77.315741,NH3,6,6,6
India,Haryana,Faridabad,"Sector 11, Faridabad - HSPCB",18-01-2024 20:00:00,28.376058,77.315741,SO2,18,135,24
India,Haryana,Faridabad,"Sector 30, Faridabad - HSPCB",18-01-2024 20:00:00,28.4417,77.3217,NO2,30,33,31
India,Haryana,Gurugram,"Sector-51, Gurugram - HSPCB",18-01-2024 20:00:00,28.4227,77.0667,PM10,93,343,167
India,Haryana,Gurugram,"Teri Gram, Gurugram - HSPCB",18-01-2024 20:00:00,28.4275,77.1465,NH3,7,18,12
India,Haryana,Hisar,"Urban Estate-II, Hisar - HSPCB",18-01-2024 20:00:00,29.140560,75.744941,NH3,2,4,3
India,Haryana,Hisar,"Urban Estate-II, Hisar - HSPCB",18-01-2024 20:00:00,29.140560,75.744941,SO2,1,51,14
India,Haryana,Hisar,"Urban Estate-II, Hisar - HSPCB",18-01-2024 20:00:00,29.140560,75.744941,OZONE,14,85,46
India,Haryana,Jind,"Police Lines, Jind - HSPCB",18-01-2024 20:00:00,29.307814,76.337619,PM2.5,88,314,207
India,Haryana,Jind,"Police Lines, Jind - HSPCB",18-01-2024 20:00:00,29.307814,76.337619,OZONE,3,12,10
India,Haryana,Kaithal,"Rishi Nagar, Kaithal - HSPCB",18-01-2024 20:00:00,29.8006,76.4155,NO2,24,26,25
India,Haryana,Kaithal,"Rishi Nagar, Kaithal - HSPCB",18-01-2024 20:00:00,29.8006,76.4155,CO,54,135,97
India,Haryana,Kurukshetra,"Sector-7, Kurukshetra - HSPCB",18-01-2024 20:00:00,29.966942,76.875879,PM2.5,3,401,265
India,Haryana,Mandikhera,"General Hospital, Mandikhera - HSPCB",18-01-2024 20:00:00,27.9002,76.9938,NH3,17,21,20
India,Haryana,Mandikhera,"General Hospital, Mandikhera - HSPCB",18-01-2024 20:00:00,27.9002,76.9938,CO,44,103,60
India,Haryana,Mandikhera,"General Hospital, Mandikhera - HSPCB",18-01-2024 20:00:00,27.9002,76.9938,OZONE,21,34,27
India,Haryana,Narnaul,"Shastri Nagar, Narnaul - HSPCB",18-01-2024 20:00:00,28.060249,76.113115,PM2.5,78,196,116
India,Haryana,Panipat,"Sector-18, Panipat - HSPCB",18-01-2024 20:00:00,29.497973,76.993331,CO,24,28,25
India,Haryana,Panipat,"Sector-18, Panipat - HSPCB",18-01-2024 20:00:00,29.497973,76.993331,OZONE,30,35,33
India,Haryana,Rohtak,"MD University, Rohtak - HSPCB",18-01-2024 20:00:00,28.52123,76.37138,CO,4,40,27
India,Haryana,Sirsa,"F-Block, Sirsa - HSPCB",18-01-2024 20:00:00,29.536400,75.015800,PM10,63,122,100
India,Haryana,Sirsa,"F-Block, Sirsa - HSPCB",18-01-2024 20:00:00,29.536400,75.015800,NH3,12,13,13
India,Haryana,Sirsa,"F-Block, Sirsa - HSPCB",18-01-2024 20:00:00,29.536400,75.015800,CO,65,78,73
India,Haryana,Yamuna Nagar,"Gobind Pura, Yamuna Nagar - HSPCB",18-01-2024 20:00:00,30.1480566,77.2893471,CO,29,131,93
India,Jharkhand,Dhanbad,"Kalakusuma, Dhanbad - DMC",18-01-2024 20:00:00,23.811548,86.481238,PM10,112,277,146
India,Jharkhand,Dhanbad,"Sardar Patel Nagar, Dhanbad - JSPCB",18-01-2024 20:00:00,23.80569,86.44268,PM2.5,NA,NA,NA
India,Jharkhand,Dhanbad,"Sardar Patel Nagar, Dhanbad - JSPCB",18-01-2024 20:00:00,23.80569,86.44268,PM10,NA,NA,NA
India,Jharkhand,Dhanbad,"Sardar Patel Nagar, Dhanbad - JSPCB",18-01-2024 20:00:00,23.80569,86.44268,NO2,NA,NA,NA
India,Jharkhand,Pathardih,"Mohalbani Ghat, Pathardih - DMC",18-01-2024 20:00:00,23.669880,86.411725,PM2.5,NA,NA,NA
India,Karnataka,Bagalkot,"Vidayagiri, Bagalkot - KSPCB",18-01-2024 20:00:00,16.172806,75.659694,PM2.5,19,27,27
India,Karnataka,Bagalkot,"Vidayagiri, Bagalkot - KSPCB",18-01-2024 20:00:00,16.172806,75.659694,NH3,1,2,1
India,Karnataka,Bagalkot,"Vidayagiri, Bagalkot - KSPCB",18-01-2024 20:00:00,16.172806,75.659694,SO2,9,9,9
India,Karnataka,Belgaum,"Ramteerth Nagar, Belgaum - KSPCB",18-01-2024 20:00:00,15.888653,74.541751,NH3,33,34,33
India,Karnataka,Bengaluru,"BTM Layout, Bengaluru - CPCB",18-01-2024 20:00:00,12.9135218,77.5950804,NO2,28,29,28
India,Karnataka,Bengaluru,"BTM Layout, Bengaluru - CPCB",18-01-2024 20:00:00,12.9135218,77.5950804,OZONE,2,22,12
India,Karnataka,Bengaluru,"Bapuji Nagar, Bengaluru - KSPCB",18-01-2024 20:00:00,12.951913,77.539784,NH3,1,1,1
India,Karnataka,Bengaluru,"Bapuji Nagar, Bengaluru - KSPCB",18-01-2024 20:00:00,12.951913,77.539784,OZONE,11,12,12
India,Karnataka,Bengaluru,"Hebbal, Bengaluru - KSPCB",18-01-2024 20:00:00,13.029152,77.585901,CO,2,72,26
India,Karnataka,Bengaluru,"Hebbal, Bengaluru - KSPCB",18-01-2024 20:00:00,13.029152,77.585901,OZONE,7,41,14
India,Karnataka,Bengaluru,"Hombegowda Nagar, Bengaluru - KSPCB",18-01-2024 20:00:00,12.938539,77.590100,OZONE,4,5,4
India,Karnataka,Bengaluru,"Jayanagar 5th Block, Bengaluru - KSPCB",18-01-2024 20:00:00,12.920984,77.584908,NO2,10,15,11
India,Karnataka,Bengaluru,"Jayanagar 5th Block, Bengaluru - KSPCB",18-01-2024 20:00:00,12.920984,77.584908,OZONE,18,19,18
India,Karnataka,Bengaluru,"Jigani, Bengaluru - KSPCB",18-01-2024 20:00:00,12.7816279,77.6299145,PM10,49,139,99
India,Karnataka,Bengaluru,"Peenya, Bengaluru - CPCB",18-01-2024 20:00:00,13.0270199,77.494094,NH3,5,6,5
India,Karnataka,Bengaluru,"RVCE-Mailasandra, Bengaluru - KSPCB",18-01-2024 20:00:00,12.921418,77.502466,NH3,4,4,4
India,Karnataka,Bengaluru,"RVCE-Mailasandra, Bengaluru - KSPCB",18-01-2024 20:00:00,12.921418,77.502466,CO,38,101,53
India,Karnataka,Bengaluru,"Shivapura_Peenya, Bengaluru - KSPCB",18-01-2024 20:00:00,13.0246342,77.5080115,PM2.5,15,155,42
India,Karnataka,Bengaluru,"Shivapura_Peenya, Bengaluru - KSPCB",18-01-2024 20:00:00,13.0246342,77.5080115,PM10,55,142,90
India,Karnataka,Bidar,"Naubad, Bidar - KSPCB",18-01-2024 20:00:00,17.930306,77.482194,OZONE,20,40,34
India,Karnataka,Chikkaballapur,"Chikkaballapur Rural, Chikkaballapur - KSPCB",18-01-2024 20:00:00,13.428828,77.731418,CO,8,25,12
India,Karnataka,Davanagere,"Devaraj Urs Badavane, Davanagere - KSPCB",18-01-2024 20:00:00,14.475800,75.905200,PM2.5,NA,NA,NA
India,Karnataka,Davanagere,"Devaraj Urs Badavane, Davanagere - KSPCB",18-01-2024 20:00:00,14.475800,75.905200,SO2,NA,NA,NA
India,Karnataka,Dharwad,"Kalabhavan, Dharwad - KSPCB",18-01-2024 20:00:00,15.459706,75.008381,PM2.5,45,62,53
India,Karnataka,Dharwad,"Kalabhavan, Dharwad - KSPCB",18-01-2024 20:00:00,15.459706,75.008381,SO2,2,18,6
India,Karnataka,Gadag,"Panchal Nagar, Gadag - KSPCB",18-01-2024 20:00:00,15.411456,75.638133,NO2,7,22,14
India,Karnataka,Gadag,"Panchal Nagar, Gadag - KSPCB",18-01-2024 20:00:00,15.411456,75.638133,CO,44,60,50
India,Karnataka,Hassan,"B.Katihalli, Hassan - KSPCB",18-01-2024 20:00:00,13.008556,76.125258,NH3,NA,NA,NA
India,Karnataka,Hubballi,"Deshpande Nagar, Hubballi - KSPCB",18-01-2024 20:00:00,15.351773,75.140726,CO,78,102,87
India,Karnataka,Kalaburagi,"Lal Bahadur Shastri Nagar, Kalaburagi - KSPCB",18-01-2024 20:00:00,17.321993,76.822628,NH3,2,2,2
India,Karnataka,Kalaburagi,"Mahatma Basaveswar Colony, Kalaburgi - KSPCB",18-01-2024 20:00:00,17.336318,76.847397,NO2,NA,NA,NA
India,Karnataka,Kalaburagi,"Mahatma Basaveswar Colony, Kalaburgi - KSPCB",18-01-2024 20:00:00,17.336318,76.847397,CO,40,54,46
India,Karnataka,Karwar,"KHB Colony, Karwar - KSPCB",18-01-2024 20:00:00,14.816666,74.141003,CO,1,152,58
India,Karnataka,Karwar,"KHB Colony, Karwar - KSPCB",18-01-2024 20:00:00,14.816666,74.141003,OZONE,21,22,21
India,Karnataka,Kolar,"Tamaka Ind. Area, Kolar - KSPCB",18-01-2024 20:00:00,13.1276288,78.1570122,PM10,35,129,58
India,Karnataka,Koppal,"Diwator Nagar, Koppal - KSPCB",18-01-2024 20:00:00,15.347630,76.181767,NO2,2,21,11
India,Karnataka,Madikeri,"Stuart Hill, Madikeri - KSPCB",18-01-2024 20:00:00,12.415911,75.735050,OZONE,25,39,33
India,Karnataka,Mangalore,"Kadri, Mangalore - KSPCB",18-01-2024 20:00:00,12.889250,74.853000,PM2.5,45,87,62
