country,state,city,station,last_update,latitude,longitude,pollutant_id,pollutant_min,pollutant_max,pollutant_avg
India,Andhra_Pradesh,Amaravati,"Secretariat, Amaravati - APPCB",04-05-2024 20:00:00,16.5150833,80.5181667,SO2,8,13,11
India,Andhra_Pradesh,Anantapur,"Gulzarpet, Anantapur - APPCB",04-05-2024 20:00:00,14.675886,77.593027,PM10,80,136,101
India,Andhra_Pradesh,Anantapur,"Gulzarpet, Anantapur - APPCB",04-05-2024 20:00:00,14.675886,77.593027,NH3,4,4,4
India,Andhra_Pradesh,Anantapur,"Gulzarpet, Anantapur - APPCB",04-05-2024 20:00:00,14.675886,77.593027,OZONE,3,86,65
India,Andhra_Pradesh,Chittoor,"Gangineni Cheruvu, Chittoor - APPCB",04-05-2024 20:00:00,13.204880,79.097889,PM2.5,33,104,72
India,Andhra_Pradesh,Kadapa,"Yerramukkapalli, Kadapa - APPCB",04-05-2024 20:00:00,14.465052,78.824187,PM2.5,NA,NA,NA
India,Andhra_Pradesh,Kadapa,"Yerramukkapalli, Kadapa - APPCB",04-05-2024 20:00:00,14.465052,78.824187,PM10,NA,NA,NA
India,Andhra_Pradesh,Rajamahendravaram,"Anand Kala Kshetram, Rajamahendravaram - APPCB",04-05-2024 20:00:00,16.9872867,81.7363176,NO2,NA,NA,NA
India,Andhra_Pradesh,Rajamahendravaram,"Anand Kala Kshetram, Rajamahendravaram - APPCB",04-05-2024 20:00:00,16.9872867,81.7363176,SO2,NA,NA,NA
India,Andhra_Pradesh,Rajamahendravaram,"Anand Kala Kshetram, Rajamahendravaram - APPCB",04-05-2024 20:00:00,16.9872867,81.7363176,OZONE,25,59,40
India,Andhra_Pradesh,Tirupati,"Tirumala, Tirupati - APPCB",04-05-2024 20:00:00,13.67,79.35,NH3,1,2,1
India,Andhra_Pradesh,Tirupati,"Tirumala, Tirupati - APPCB",04-05-2024 20:00:00,13.67,79.35,OZONE,21,81,52
India,Andhra_Pradesh,Vijayawada,"HB Colony, Vijayawada - APPCB",04-05-2024 20:00:00,16.536107,80.594233,PM10,45,85,64
India,Andhra_Pradesh,Vijayawada,"HB Colony, Vijayawada - APPCB",04-05-2024 20:00:00,16.536107,80.594233,NO2,5,11,8
India,Andhra_Pradesh,Vijayawada,"HB Colony, Vijayawada - APPCB",04-05-2024 20:00:00,16.536107,80.594233,SO2,5,7,6
India,Andhra_Pradesh,Vijayawada,"Kanuru, Vijayawada - APPCB",04-05-2024 20:00:00,16.486692,80.699436,PM2.5,50,65,54
India,Andhra_Pradesh,Vijayawada,"Kanuru, Vijayawada - APPCB",04-05-2024 20:00:00,16.486692,80.699436,PM10,55,74,61
India,Andhra_Pradesh,Vijayawada,"Kanuru, Vijayawada - APPCB",04-05-2024 20:00:00,16.486692,80.699436,OZONE,28,29,28
India,Andhra_Pradesh,Vijayawada,"Rajiv Gandhi Park, Vijayawada - APPCB",04-05-2024 20:00:00,16.509717,80.612222,CO,40,46,43
India,Andhra_Pradesh,Vijayawada,"Rajiv Nagar, Vijayawada - APPCB",04-05-2024 20:00:00,16.554731,80.649110,NO2,12,13,13
India,Andhra_Pradesh,Visakhapatnam,"GVM Corporation, Visakhapatnam - APPCB",04-05-2024 20:00:00,17.72,83.3,SO2,8,15,12
India,Andhra_Pradesh,Visakhapatnam,"GVM Corporation, Visakhapatnam - APPCB",04-05-2024 20:00:00,17.72,83.3,CO,5,94,15
India,Arunachal_Pradesh,Naharlagun,"Naharlagun, Naharlagun - APSPCB",04-05-2024 20:00:00,27.103358,93.679645,PM2.5,NA,NA,NA
India,Arunachal_Pradesh,Naharlagun,"Naharlagun, Naharlagun - APSPCB",04-05-2024 20:00:00,27.103358,93.679645,NO2,NA,NA,NA
India,Assam,Byrnihat,"Central Academy for SFS, Byrnihat - PCBA",04-05-2024 20:00:00,26.071318,91.87488,SO2,4,9,7
India,Assam,Byrnihat,"Central Academy for SFS, Byrnihat - PCBA",04-05-2024 20:00:00,26.071318,91.87488,CO,14,66,44
India,Assam,Guwahati,"IITG, Guwahati - PCBA",04-05-2024 20:00:00,26.2028636,91.70046436,OZONE,NA,NA,NA
India,Assam,Guwahati,"LGBI Airport, Guwahati - PCBA",04-05-2024 20:00:00,26.10887,91.589544,NO2,24,98,57
India,Assam,Guwahati,"Railway Colony, Guwahati - PCBA",04-05-2024 20:00:00,26.181742,91.78063,PM2.5,70,292,143
India,Assam,Guwahati,"Railway Colony, Guwahati - PCBA",04-05-2024 20:00:00,26.181742,91.78063,PM10,75,214,125
India,Assam,Guwahati,"Railway Colony, Guwahati - PCBA",04-05-2024 20:00:00,26.181742,91.78063,SO2,10,26,14
India,Assam,Guwahati,"Railway Colony, Guwahati - PCBA",04-05-2024 20:00:00,26.181742,91.78063,OZONE,3,31,15
India,Assam,Nagaon,"Christianpatty, Nagaon - PCBA",04-05-2024 20:00:00,26.349082,92.68449,NO2,5,67,17
India,Assam,Nalbari,"Bata Chowk, Nalbari - PCBA",04-05-2024 20:00:00,26.446912,91.439057,PM10,75,325,133
India,Assam,Silchar,"Tarapur, Silchar - PCBA",04-05-2024 20:00:00,24.82827,92.79525,PM2.5,17,33,26
India,Assam,Silchar,"Tarapur, Silchar - PCBA",04-05-2024 20:00:00,24.82827,92.79525,NO2,12,13,13
India,Assam,Silchar,"Tarapur, Silchar - PCBA",04-05-2024 20:00:00,24.82827,92.79525,OZONE,1,21,10
India,Assam,Sivasagar,"Girls College, Sivasagar - PCBA",04-05-2024 20:00:00,26.987634,94.636574,NH3,1,2,1
India,Bihar,Araria,"Kharahiya Basti, Araria - BSPCB",04-05-2024 20:00:00,26.146529,87.454184,SO2,9,16,14
India,Bihar,Arrah,"New DM Office, Arrah - BSPCB",04-05-2024 20:00:00,25.5626095,84.663264,PM10,93,235,146
India,Bihar,Arrah,"New DM Office, Arrah - BSPCB",04-05-2024 20:00:00,25.5626095,84.663264,NO2,1,20,9
India,Bihar,Arrah,"New DM Office, Arrah - BSPCB",04-05-2024 20:00:00,25.5626095,84.663264,NH3,3,8,5
India,Bihar,Aurangabad,"Gurdeo Nagar, Aurangabad - BSPCB",04-05-2024 20:00:00,24.75746,84.366208,PM2.5,25,210,86
India,Bihar,Bhagalpur,"DM Office_Kachari Chowk, Bhagalpur - BSPCB",04-05-2024 20:00:00,25.251013,86.989001,PM2.5,92,263,143
India,Bihar,Bhagalpur,"DM Office_Kachari Chowk, Bhagalpur - BSPCB",04-05-2024 20:00:00,25.251013,86.989001,NH3,NA,NA,NA
India,Bihar,Bhagalpur,"DM Office_Kachari Chowk, Bhagalpur - BSPCB",04-05-2024 20:00:00,25.251013,86.989001,SO2,14,17,16
India,Bihar,Bhagalpur,"Mayaganj, Bhagalpur - BSPCB",04-05-2024 20:00:00,25.265194,87.012947,OZONE,23,84,65
India,Bihar,Buxar,"Charitra Van, Buxar - BSPCB (Formerly known as Central Jail)",04-05-2024 20:00:00,25.567520,83.966379,PM2.5,NA,NA,NA
India,Bihar,Buxar,"Charitra Van, Buxar - BSPCB (Formerly known as Central Jail)",04-05-2024 20:00:00,25.567520,83.966379,NH3,3,4,3
India,Bihar,Buxar,"Charitra Van, Buxar - BSPCB (Formerly known as Central Jail)",04-05-2024 20:00:00,25.567520,83.966379,CO,11,151,151
India,Bihar,Buxar,"Charitra Van, Buxar - BSPCB (Formerly known as Central Jail)",04-05-2024 20:00:00,25.567520,83.966379,OZONE,13,305,191
India,Bihar,Chhapra,"Darshan Nagar, Chhapra - BSPCB",04-05-2024 20:00:00,25.7808257,84.7446768,PM2.5,NA,NA,NA
India,Bihar,Gaya,"Kareemganj, Gaya - BSPCB",04-05-2024 20:00:00,24.792403,84.992416,OZONE,3,16,8
India,Bihar,Gaya,"SFTI Kusdihra, Gaya - BSPCB",04-05-2024 20:00:00,24.762518,84.982348,PM10,50,112,86
India,Bihar,Gaya,"SFTI Kusdihra, Gaya - BSPCB",04-05-2024 20:00:00,24.762518,84.982348,OZONE,12,79,64
India,Bihar,Hajipur,"Industrial Area, Hajipur - BSPCB",04-05-2024 20:00:00,25.697189,85.245900,PM2.5,76,357,203
India,Bihar,Hajipur,"Industrial Area, Hajipur - BSPCB",04-05-2024 20:00:00,25.697189,85.245900,PM10,157,500,318
India,Bihar,Hajipur,"Industrial Area, Hajipur - BSPCB",04-05-2024 20:00:00,25.697189,85.245900,SO2,8,10,9
India,Bihar,Katihar,"Mirchaibari, Katihar - BSPCB",04-05-2024 20:00:00,25.560083,87.553265,PM10,98,183,131
India,Bihar,Katihar,"Mirchaibari, Katihar - BSPCB",04-05-2024 20:00:00,25.560083,87.553265,NO2,16,37,30
India,Bihar,Katihar,"Mirchaibari, Katihar - BSPCB",04-05-2024 20:00:00,25.560083,87.553265,NH3,5,11,7
India,Bihar,Katihar,"Mirchaibari, Katihar - BSPCB",04-05-2024 20:00:00,25.560083,87.553265,SO2,18,23,20
India,Bihar,Katihar,"Mirchaibari, Katihar - BSPCB",04-05-2024 20:00:00,25.560083,87.553265,CO,49,66,60
India,Bihar,Kishanganj,"SDM Office_Khagra, Kishanganj - BSPCB",04-05-2024 20:00:00,26.0881305,87.93840336,PM10,135,330,206
India,Bihar,Motihari,"Gandak Colony, Motihari - BSPCB",04-05-2024 20:00:00,26.63086,84.90051,PM2.5,27,77,47
India,Bihar,Motihari,"Gandak Colony, Motihari - BSPCB",04-05-2024 20:00:00,26.63086,84.90051,PM10,26,74,45
India,Bihar,Motihari,"Gandak Colony, Motihari - BSPCB",04-05-2024 20:00:00,26.63086,84.90051,NH3,10,22,16
India,Bihar,Munger,"Town Hall, Munger - BSPCB",04-05-2024 20:00:00,25.376776,86.471523,CO,47,84,56
India,Bihar,Muzaffarpur,"Buddha Colony, Muzaffarpur - BSPCB",04-05-2024 20:00:00,26.11442,85.39813,PM2.5,234,345,296
India,Bihar,Muzaffarpur,"Buddha Colony, Muzaffarpur - BSPCB",04-05-2024 20:00:00,26.11442,85.39813,NO2,22,105,40
India,Bihar,Muzaffarpur,"MIT-Daudpur Kothi, Muzaffarpur - BSPCB",04-05-2024 20:00:00,26.1403345,85.3650192,PM2.5,160,377,275
India,Bihar,Muzaffarpur,"MIT-Daudpur Kothi, Muzaffarpur - BSPCB",04-05-2024 20:00:00,26.1403345,85.3650192,NH3,1,2,1
India,Bihar,Muzaffarpur,"Muzaffarpur Collectorate, Muzaffarpur - BSPCB",04-05-2024 20:00:00,26.1209,85.3647,PM2.5,133,405,236
India,Bihar,Patna,"DRM Office Danapur, Patna - BSPCB",04-05-2024 20:00:00,25.586562,85.043586,CO,32,118,58
India,Bihar,Patna,"DRM Office Danapur, Patna - BSPCB",04-05-2024 20:00:00,25.586562,85.043586,OZONE,1,69,59
India,Bihar,Patna,"IGSC Planetarium Complex, Patna - BSPCB",04-05-2024 20:00:00,25.610369,85.132568,CO,12,38,21
India,Bihar,Patna,"Muradpur, Patna - BSPCB",04-05-2024 20:00:00,25.619651,85.147382,NO2,36,122,83
India,Bihar,Patna,"Muradpur, Patna - BSPCB",04-05-2024 20:00:00,25.619651,85.147382,OZONE,3,95,63
India,Bihar,Patna,"Rajbansi Nagar, Patna - BSPCB",04-05-2024 20:00:00,25.599486,85.113666,CO,24,109,56
India,Bihar,Patna,"Samanpura, Patna - BSPCB",04-05-2024 20:00:00,25.596727,85.085624,PM2.5,195,500,331
India,Bihar,Patna,"Samanpura, Patna - BSPCB",04-05-2024 20:00:00,25.596727,85.085624,SO2,7,21,13
India,Bihar,Patna,"Samanpura, Patna - BSPCB",04-05-2024 20:00:00,25.596727,85.085624,OZONE,5,263,187
India,Bihar,Saharsa,"Police Line, Saharsa - BSPCB",04-05-2024 20:00:00,25.892357,86.590325,PM2.5,NA,NA,NA
India,Bihar,Samastipur,"DM Office_Kasipur, Samastipur - BSPCB",04-05-2024 20:00:00,25.859655,85.77944,PM2.5,NA,NA,NA
India,Bihar,Samastipur,"DM Office_Kasipur, Samastipur - BSPCB",04-05-2024 20:00:00,25.859655,85.77944,CO,14,22,21
India,Bihar,Sasaram,"Dada Peer, Sasaram - BSPCB",04-05-2024 20:00:00,24.952822,84.002396,OZONE,16,117,89
India,Bihar,Siwan,"Chitragupta Nagar, Siwan - BSPCB",04-05-2024 20:00:00,26.2271665,84.3570427,NO2,27,99,40
India,Bihar,Siwan,"Chitragupta Nagar, Siwan - BSPCB",04-05-2024 20:00:00,26.2271665,84.3570427,OZONE,9,199,150
India,Chandigarh,Chandigarh,"Sector 22, Chandigarh - CPCC",04-05-2024 20:00:00,30.735567,76.775714,SO2,6,35,17
India,Chandigarh,Chandigarh,"Sector-25, Chandigarh - CPCC",04-05-2024 20:00:00,30.751462,76.762879,SO2,8,20,12
India,Chandigarh,Chandigarh,"Sector-25, Chandigarh - CPCC",04-05-2024 20:00:00,30.751462,76.762879,CO,8,24,12
India,Chandigarh,Chandigarh,"Sector-53, Chandigarh - CPCC",04-05-2024 20:00:00,30.719859,76.738637,NO2,6,58,20
India,Chhattisgarh,Bhilai,"32Bungalows, Bhilai - CECB",04-05-2024 20:00:00,21.194815,81.314770,PM10,82,147,124
India,Chhattisgarh,Bhilai,"32Bungalows, Bhilai - CECB",04-05-2024 20:00:00,21.194815,81.314770,NH3,6,6,6
India,Chhattisgarh,Bhilai,"Civic Center, Bhilai - Bhilai Steel Plant",04-05-2024 20:00:00,21.185571,81.343175,PM10,61,113,85
India,Chhattisgarh,Bhilai,"Civic Center, Bhilai - Bhilai Steel Plant",04-05-2024 20:00:00,21.185571,81.343175,CO,18,86,40
India,Chhattisgarh,Bhilai,"Hathkhoj, Bhilai - CECB",04-05-2024 20:00:00,21.224231,81.408350,NH3,8,9,8
India,Chhattisgarh,Bilaspur,"Mangala, Bilaspur - NTPC",04-05-2024 20:00:00,22.08815,82.13737,PM2.5,53,113,81
India,Chhattisgarh,Bilaspur,"Mangala, Bilaspur - NTPC",04-05-2024 20:00:00,22.08815,82.13737,PM10,55,106,77
India,Chhattisgarh,Bilaspur,"Mangala, Bilaspur - NTPC",04-05-2024 20:00:00,22.08815,82.13737,SO2,4,15,11
India,Chhattisgarh,Chhal,"Nawapara SECL Colony, Chhal - CECB",04-05-2024 20:00:00,22.118125,83.140608,PM10,60,134,96
India,Chhattisgarh,Korba,"Rampur, Korba - CECB",04-05-2024 20:00:00,22.368195,82.746431,CO,12,69,18
India,Chhattisgarh,Milupara,"Govt. Higher Secondary School, Milupara - CECB",04-05-2024 20:00:00,22.1910172,83.5197009,NO2,NA,NA,NA
India,Chhattisgarh,Milupara,"Govt. Higher Secondary School, Milupara - CECB",04-05-2024 20:00:00,22.1910172,83.5197009,NH3,NA,NA,NA
India,Chhattisgarh,Raipur,"Bhatagaon New ISBT, Raipur - CECB",04-05-2024 20:00:00,21.219665,81.630094,CO,28,104,35
India,Chhattisgarh,Raipur,"Krishak Nagar, Raipur - CECB",04-05-2024 20:00:00,21.237755,81.705301,PM10,82,155,109
India,Chhattisgarh,Raipur,"Krishak Nagar, Raipur - CECB",04-05-2024 20:00:00,21.237755,81.705301,NH3,NA,NA,NA
India,Chhattisgarh,Raipur,"Siltara Phase-II, Raipur - CECB",04-05-2024 20:00:00,21.371751,81.664929,SO2,7,92,31
India,Chhattisgarh,Tumidih,"OP Jindal Industrial Park, Tumidih - CECB",04-05-2024 20:00:00,22.06631475,83.33820077,NO2,19,99,47
India,Chhattisgarh,Tumidih,"OP Jindal Industrial Park, Tumidih - CECB",04-05-2024 20:00:00,22.06631475,83.33820077,SO2,6,20,8
India,Chhattisgarh,Tumidih,"OP Jindal Industrial Park, Tumidih - CECB",04-05-2024 20:00:00,22.06631475,83.33820077,OZONE,11,123,93
India,Delhi,Delhi,"Alipur, Delhi - DPCC",04-05-2024 20:00:00,28.815329,77.153010,PM10,142,410,255
India,Delhi,Delhi,"Ashok Vihar, Delhi - DPCC",04-05-2024 20:00:00,28.695381,77.181665,PM10,140,424,265
India,Delhi,Delhi,"Bawana, Delhi - DPCC",04-05-2024 20:00:00,28.776200,77.051074,PM2.5,93,444,292
India,Delhi,Delhi,"Bawana, Delhi - DPCC",04-05-2024 20:00:00,28.776200,77.051074,NO2,13,92,48
India,Delhi,Delhi,"Bawana, Delhi - DPCC",04-05-2024 20:00:00,28.776200,77.051074,SO2,9,83,40
India,Delhi,Delhi,"Burari Crossing, Delhi - IMD",04-05-2024 20:00:00,28.7256504,77.2011573,PM10,121,430,269
India,Delhi,Delhi,"Burari Crossing, Delhi - IMD",04-05-2024 20:00:00,28.7256504,77.2011573,CO,28,50,33
India,Delhi,Delhi,"Chandni Chowk, Delhi - IITM",04-05-2024 20:00:00,28.656756,77.227234,SO2,1,34,15
India,Delhi,Delhi,"DTU, Delhi - CPCB",04-05-2024 20:00:00,28.7500499,77.1112615,OZONE,37,261,206
India,Delhi,Delhi,"Dr. Karni Singh Shooting Range, Delhi - DPCC",04-05-2024 20:00:00,28.498571,77.264840,NH3,5,7,6
India,Delhi,Delhi,"Dr. Karni Singh Shooting Range, Delhi - DPCC",04-05-2024 20:00:00,28.498571,77.264840,SO2,24,81,41
India,Delhi,Delhi,"Dr. Karni Singh Shooting Range, Delhi - DPCC",04-05-2024 20:00:00,28.498571,77.264840,CO,31,108,52
India,Delhi,Delhi,"Dwarka-Sector 8, Delhi - DPCC ",04-05-2024 20:00:00,28.5710274,77.0719006,PM2.5,102,472,308
India,Delhi,Delhi,"Dwarka-Sector 8, Delhi - DPCC ",04-05-2024 20:00:00,28.5710274,77.0719006,NH3,2,2,2
India,Delhi,Delhi,"IGI Airport (T3), Delhi - IMD",04-05-2024 20:00:00,28.5627763,77.1180053,PM2.5,70,442,293
India,Delhi,Delhi,"IHBAS, Dilshad Garden, Delhi - CPCB",04-05-2024 20:00:00,28.6811736,77.3025234,NO2,34,58,43
India,Delhi,Delhi,"IHBAS, Dilshad Garden, Delhi - CPCB",04-05-2024 20:00:00,28.6811736,77.3025234,OZONE,11,14,13
India,Delhi,Delhi,"ITO, Delhi - CPCB",04-05-2024 20:00:00,28.628624,77.241060,NO2,18,102,56
India,Delhi,Delhi,"Jahangirpuri, Delhi - DPCC",04-05-2024 20:00:00,28.732820,77.170633,NO2,40,179,111
India,Delhi,Delhi,"Jawaharlal Nehru Stadium, Delhi - DPCC",04-05-2024 20:00:00,28.580280,77.233829,NO2,40,195,119
India,Delhi,Delhi,"Lodhi Road, Delhi - IMD",04-05-2024 20:00:00,28.5918245,77.2273074,NO2,4,18,12
India,Delhi,Delhi,"Major Dhyan Chand National Stadium, Delhi - DPCC",04-05-2024 20:00:00,28.611281,77.237738,SO2,20,75,38
India,Delhi,Delhi,"Major Dhyan Chand National Stadium, Delhi - DPCC",04-05-2024 20:00:00,28.611281,77.237738,OZONE,1,248,110
India,Delhi,Delhi,"Mundka, Delhi - DPCC",04-05-2024 20:00:00,28.684678,77.076574,PM10,159,500,362
India,Delhi,Delhi,"Mundka, Delhi - DPCC",04-05-2024 20:00:00,28.684678,77.076574,CO,36,109,44
India,Delhi,Delhi,"Najafgarh, Delhi - DPCC",04-05-2024 20:00:00,28.570173,76.933762,CO,2,82,5
India,Delhi,Delhi,"Nehru Nagar, Delhi - DPCC",04-05-2024 20:00:00,28.567890,77.250515,CO,48,74,56
India,Delhi,Delhi,"New Moti Bagh, Delhi - MHUA",04-05-2024 20:00:00,28.57834,77.18400,CO,36,111,55
India,Delhi,Delhi,"Punjabi Bagh, Delhi - DPCC",04-05-2024 20:00:00,28.674045,77.131023,PM2.5,117,451,307
India,Delhi,Delhi,"Punjabi Bagh, Delhi - DPCC",04-05-2024 20:00:00,28.674045,77.131023,NO2,46,101,73
India,Delhi,Delhi,"Punjabi Bagh, Delhi - DPCC",04-05-2024 20:00:00,28.674045,77.131023,NH3,4,5,4
India,Delhi,Delhi,"Pusa, Delhi - DPCC",04-05-2024 20:00:00,28.639652,77.146275,NO2,82,191,127
India,Delhi,Delhi,"Pusa, Delhi - DPCC",04-05-2024 20:00:00,28.639652,77.146275,NH3,3,9,7
India,Delhi,Delhi,"Pusa, Delhi - IMD",04-05-2024 20:00:00,28.636110,77.173332,PM2.5,NA,NA,NA
India,Delhi,Delhi,"R K Puram, Delhi - DPCC",04-05-2024 20:00:00,28.563262,77.186937,PM2.5,142,459,309
India,Delhi,Delhi,"R K Puram, Delhi - DPCC",04-05-2024 20:00:00,28.563262,77.186937,NH3,NA,NA,NA
India,Delhi,Delhi,"R K Puram, Delhi - DPCC",04-05-2024 20:00:00,28.563262,77.186937,OZONE,4,252,125
India,Delhi,Delhi,"Shadipur, Delhi - CPCB",04-05-2024 20:00:00,28.6514781,77.1473105,SO2,12,38,24
India,Delhi,Delhi,"Sirifort, Delhi - CPCB",04-05-2024 20:00:00,28.5504249,77.2159377,NH3,27,34,30
India,Delhi,Delhi,"Sirifort, Delhi - CPCB",04-05-2024 20:00:00,28.5504249,77.2159377,CO,22,121,50
India,Delhi,Delhi,"Sri Aurobindo Marg, Delhi - DPCC",04-05-2024 20:00:00,28.531346,77.190156,NO2,18,97,59
India,Delhi,Delhi,"Wazirpur, Delhi - DPCC",04-05-2024 20:00:00,28.699793,77.165453,NO2,48,165,93
India,Delhi,Delhi,"Wazirpur, Delhi - DPCC",04-05-2024 20:00:00,28.699793,77.165453,NH3,4,15,11
India,Gujarat,Ahmedabad,"Chandkheda, Ahmedabad - IITM",04-05-2024 20:00:00,23.107969,72.574648,PM10,85,272,136
India,Gujarat,Ahmedabad,"Gyaspur, Ahmedabad - IITM",04-05-2024 20:00:00,22.977134,72.553024,NO2,NA,NA,NA
India,Gujarat,Ahmedabad,"Maninagar, Ahmedabad - GPCB",04-05-2024 20:00:00,23.002657,72.591912,SO2,1,131,53
India,Gujarat,Ahmedabad,"Raikhad, Ahmedabad - IITM",04-05-2024 20:00:00,23.020509,72.579261,NO2,12,25,14
India,Gujarat,Ahmedabad,"Rakhial, Ahmedabad - IITM",04-05-2024 20:00:00,23.016834,72.625775,PM10,94,500,177
India,Gujarat,Ahmedabad,"Rakhial, Ahmedabad - IITM",04-05-2024 20:00:00,23.016834,72.625775,CO,4,123,64
India,Gujarat,Ahmedabad,"SAC ISRO Satellite, Ahmedabad - IITM",04-05-2024 20:00:00,23.023389,72.515201,NH3,3,3,3
India,Gujarat,Ahmedabad,"SAC ISRO Satellite, Ahmedabad - IITM",04-05-2024 20:00:00,23.023389,72.515201,SO2,3,20,7
India,Gujarat,Ahmedabad,"SAC ISRO Satellite, Ahmedabad - IITM",04-05-2024 20:00:00,23.023389,72.515201,OZONE,2,15,12
India,Gujarat,Ahmedabad,"SVPI Airport Hansol, Ahmedabad - IITM",04-05-2024 20:00:00,23.076793,72.627874,PM2.5,50,155,74
India,Gujarat,Ahmedabad,"SVPI Airport Hansol, Ahmedabad - IITM",04-05-2024 20:00:00,23.076793,72.627874,PM10,117,281,153
India,Gujarat,Ahmedabad,"SVPI Airport Hansol, Ahmedabad - IITM",04-05-2024 20:00:00,23.076793,72.627874,OZONE,16,26,19
India,Gujarat,Gandhinagar,"Sector-10, Gandhinagar - GPCB",04-05-2024 20:00:00,23.221714,72.654328,NH3,1,69,5
India,Gujarat,Gandhinagar,"Sector-10, Gandhinagar - GPCB",04-05-2024 20:00:00,23.221714,72.654328,OZONE,2,25,21
India,Gujarat,Nandesari,"GIDC, Nandesari - Nandesari Ind. Association",04-05-2024 20:00:00,22.410802,73.097923,PM2.5,53,378,183
India,Gujarat,Nandesari,"GIDC, Nandesari - Nandesari Ind. Association",04-05-2024 20:00:00,22.410802,73.097923,PM10,85,426,176
India,Gujarat,Vapi,"Phase-1 GIDC, Vapi - GPCB",04-05-2024 20:00:00,20.362421,72.918013,PM2.5,27,107,50
India,Haryana,Ambala,"Patti Mehar, Ambala - HSPCB",04-05-2024 20:00:00,30.379589,76.778328,PM10,49,115,85
India,Haryana,Ambala,"Patti Mehar, Ambala - HSPCB",04-05-2024 20:00:00,30.379589,76.778328,CO,30,60,41
India,Haryana,Ambala,"Patti Mehar, Ambala - HSPCB",04-05-2024 20:00:00,30.379589,76.778328,OZONE,34,49,41
India,Haryana,Bahadurgarh,"Arya Nagar, Bahadurgarh - HSPCB",04-05-2024 20:00:00,28.6701,76.9254,OZONE,34,43,37
India,Haryana,Bhiwani,"H.B. Colony, Bhiwani - HSPCB",04-05-2024 20:00:00,28.806223,76.141105,SO2,5,19,12
India,Haryana,Charkhi Dadri,"Mini Secretariat, Charkhi Dadri - HSPCB",04-05-2024 20:00:00,28.593883,76.270653,PM2.5,67,353,252
India,Haryana,Charkhi Dadri,"Mini Secretariat, Charkhi Dadri - HSPCB",04-05-2024 20:00:00,28.593883,76.270653,CO,20,114,42
India,Haryana,Charkhi Dadri,"Mini Secretariat, Charkhi Dadri - HSPCB",04-05-2024 20:00:00,28.593883,76.270653,OZONE,13,17,16
India,Haryana,Faridabad,"New Industrial Town, Faridabad - HSPCB",04-05-2024 20:00:00,28.39072,77.30059,NO2,9,25,15
India,Haryana,Faridabad,"New Industrial Town, Faridabad - HSPCB",04-05-2024 20:00:00,28.39072,77.30059,SO2,6,9,7
India,Haryana,Faridabad,"New Industrial Town, Faridabad - HSPCB",04-05-2024 20:00:00,28.39072,77.30059,OZONE,1,251,166
India,Haryana,Faridabad,"Sector 11, Faridabad - HSPCB",04-05-2024 20:00:00,28.376058,77.315741,SO2,2,117,21
India,Haryana,Faridabad,"Sector 30, Faridabad - HSPCB",04-05-2024 20:00:00,28.4417,77.3217,NH3,9,9,9
India,Haryana,Faridabad,"Sector 30, Faridabad - HSPCB",04-05-2024 20:00:00,28.4417,77.3217,OZONE,59,62,60
India,Haryana,Faridabad,"Sector- 16A, Faridabad - HSPCB",04-05-2024 20:00:00,28.4088421,77.3099081,SO2,1,25,16
India,Haryana,Fatehabad,"Huda Sector, Fatehabad - HSPCB",04-05-2024 20:00:00,29.503664,75.467934,PM10,97,208,147
India,Haryana,Fatehabad,"Huda Sector, Fatehabad - HSPCB",04-05-2024 20:00:00,29.503664,75.467934,NH3,9,10,10
India,Haryana,Gurugram,"Sector-51, Gurugram - HSPCB",04-05-2024 20:00:00,28.4227,77.0667,NH3,7,14,9
India,Haryana,Gurugram,"Teri Gram, Gurugram - HSPCB",04-05-2024 20:00:00,28.4275,77.1465,PM2.5,63,462,299
India,Haryana,Gurugram,"Vikas Sadan, Gurugram - HSPCB",04-05-2024 20:00:00,28.4501238,77.0263051,OZONE,8,68,50
India,Haryana,Hisar,"Urban Estate-II, Hisar - HSPCB",04-05-2024 20:00:00,29.140560,75.744941,PM10,86,237,140
India,Haryana,Hisar,"Urban Estate-II, Hisar - HSPCB",04-05-2024 20:00:00,29.140560,75.744941,NO2,21,34,26
India,Haryana,Hisar,"Urban Estate-II, Hisar - HSPCB",04-05-2024 20:00:00,29.140560,75.744941,CO,25,102,28
India,Haryana,Jind,"Police Lines, Jind - HSPCB",04-05-2024 20:00:00,29.307814,76.337619,PM2.5,53,237,135
India,Haryana,Kaithal,"Rishi Nagar, Kaithal - HSPCB",04-05-2024 20:00:00,29.8006,76.4155,PM10,89,226,148
India,Haryana,Kaithal,"Rishi Nagar, Kaithal - HSPCB",04-05-2024 20:00:00,29.8006,76.4155,NH3,8,8,8
India,Haryana,Kaithal,"Rishi Nagar, Kaithal - HSPCB",04-05-2024 20:00:00,29.8006,76.4155,OZONE,6,11,9
India,Haryana,Karnal,"Sector-12, Karnal - HSPCB",04-05-2024 20:00:00,29.695300,77.002700,PM10,68,138,102
India,Haryana,Karnal,"Sector-12, Karnal - HSPCB",04-05-2024 20:00:00,29.695300,77.002700,CO,16,46,29
India,Haryana,Kurukshetra,"Sector-7, Kurukshetra - HSPCB",04-05-2024 20:00:00,29.966942,76.875879,PM10,79,161,115
India,Haryana,Mandikhera,"General Hospital, Mandikhera - HSPCB",04-05-2024 20:00:00,27.9002,76.9938,SO2,31,38,34
India,Haryana,Manesar,"Sector-2 IMT, Manesar - HSPCB",04-05-2024 20:00:00,28.360699,76.936090,PM10,69,202,143
India,Haryana,Manesar,"Sector-2 IMT, Manesar - HSPCB",04-05-2024 20:00:00,28.360699,76.936090,SO2,6,38,12
India,Haryana,Manesar,"Sector-2 IMT, Manesar - HSPCB",04-05-2024 20:00:00,28.360699,76.936090,CO,18,64,29
India,Haryana,Narnaul,"Shastri Nagar, Narnaul - HSPCB",04-05-2024 20:00:00,28.060249,76.113115,OZONE,52,56,54
India,Haryana,Panchkula,"Sector-6, Panchkula - HSPCB ",04-05-2024 20:00:00,30.7057778,76.8531805555555,SO2,2,10,4
India,Haryana,Panipat,"Sector-18, Panipat - HSPCB",04-05-2024 20:00:00,29.497973,76.993331,CO,24,26,25
India,Haryana,Rohtak,"MD University, Rohtak - HSPCB",04-05-2024 20:00:00,28.52123,76.37138,PM2.5,37,317,186
India,Haryana,Rohtak,"MD University, Rohtak - HSPCB",04-05-2024 20:00:00,28.52123,76.37138,NO2,46,56,50
India,Haryana,Sirsa,"F-Block, Sirsa - HSPCB",04-05-2024 20:00:00,29.536400,75.015800,PM2.5,52,311,151
India,Haryana,Sonipat,"Murthal, Sonipat - HSPCB",04-05-2024 20:00:00,29.027200,77.062100,PM2.5,33,34,33
India,Haryana,Sonipat,"Murthal, Sonipat - HSPCB",04-05-2024 20:00:00,29.027200,77.062100,NH3,5,10,9
India,Haryana,Yamuna Nagar,"Gobind Pura, Yamuna Nagar - HSPCB",04-05-2024 20:00:00,30.1480566,77.2893471,NO2,11,28,18
India,Jharkhand,Dhanbad,"Kalakusuma, Dhanbad - DMC",04-05-2024 20:00:00,23.811548,86.481238,CO,129,134,130
India,Jharkhand,Dhanbad,"Sardar Patel Nagar, Dhanbad - JSPCB",04-05-2024 20:00:00,23.80569,86.44268,CO,60,173,108
India,Jharkhand,Dhanbad,"Sardar Patel Nagar, Dhanbad - JSPCB",04-05-2024 20:00:00,23.80569,86.44268,OZONE,19,46,33
India,Jharkhand,Pathardih,"Mohalbani Ghat, Pathardih - DMC",04-05-2024 20:00:00,23.669880,86.411725,NO2,NA,NA,NA
India,Jharkhand,Pathardih,"Mohalbani Ghat, Pathardih - DMC",04-05-2024 20:00:00,23.669880,86.411725,CO,35,100,65
India,Karnataka,Bagalkot,"Vidayagiri, Bagalkot - KSPCB",04-05-2024 20:00:00,16.172806,75.659694,CO,22,54,34
India,Karnataka,Bengaluru,"BTM Layout, Bengaluru - CPCB",04-05-2024 20:00:00,12.9135218,77.5950804,PM2.5,32,59,35
India,Karnataka,Bengaluru,"Bapuji Nagar, Bengaluru - KSPCB",04-05-2024 20:00:00,12.951913,77.539784,CO,24,133,67
India,Karnataka,Bengaluru,"Hebbal, Bengaluru - KSPCB",04-05-2024 20:00:00,13.029152,77.585901,OZONE,8,96,45
India,Karnataka,Bengaluru,"Hombegowda Nagar, Bengaluru - KSPCB",04-05-2024 20:00:00,12.938539,77.590100,PM10,28,114,57
India,Karnataka,Bengaluru,"Jayanagar 5th Block, Bengaluru - KSPCB",04-05-2024 20:00:00,12.920984,77.584908,SO2,11,31,18
India,Karnataka,Bengaluru,"Jayanagar 5th Block, Bengaluru - KSPCB",04-05-2024 20:00:00,12.920984,77.584908,OZONE,32,35,33
India,Karnataka,Bengaluru,"Kasturi Nagar, Bengaluru - KSPCB",04-05-2024 20:00:00,13.003872,77.664217,NH3,4,4,4
India,Karnataka,Bengaluru,"Peenya, Bengaluru - CPCB",04-05-2024 20:00:00,13.0270199,77.494094,OZONE,8,44,30
India,Karnataka,Bengaluru,"RVCE-Mailasandra, Bengaluru - KSPCB",04-05-2024 20:00:00,12.921418,77.502466,SO2,8,12,9
India,Karnataka,Bengaluru,"Shivapura_Peenya, Bengaluru - KSPCB",04-05-2024 20:00:00,13.0246342,77.5080115,CO,13,58,23
India,Karnataka,Bengaluru,"Silk Board, Bengaluru - KSPCB",04-05-2024 20:00:00,12.917348,77.622813,PM10,NA,NA,NA
India,Karnataka,Bidar,"Naubad, Bidar - KSPCB",04-05-2024 20:00:00,17.930306,77.482194,PM2.5,53,103,74
India,Karnataka,Bidar,"Naubad, Bidar - KSPCB",04-05-2024 20:00:00,17.930306,77.482194,NO2,7,11,8
India,Karnataka,Bidar,"Naubad, Bidar - KSPCB",04-05-2024 20:00:00,17.930306,77.482194,NH3,2,3,3
India,Karnataka,Bidar,"Naubad, Bidar - KSPCB",04-05-2024 20:00:00,17.930306,77.482194,CO,55,105,62
India,Karnataka,Bidar,"Naubad, Bidar - KSPCB",04-05-2024 20:00:00,17.930306,77.482194,OZONE,13,59,55
India,Karnataka,Chamarajanagar,"Urban, Chamarajanagar - KSPCB",04-05-2024 20:00:00,11.55358,76.55521,PM2.5,30,46,41
India,Karnataka,Chamarajanagar,"Urban, Chamarajanagar - KSPCB",04-05-2024 20:00:00,11.55358,76.55521,SO2,4,10,7
India,Karnataka,Chikkaballapur,"Chikkaballapur Rural, Chikkaballapur - KSPCB",04-05-2024 20:00:00,13.428828,77.731418,NH3,1,1,1
India,Karnataka,Chikkamagaluru,"Kalyana Nagara, Chikkamagaluru - KSPCB",04-05-2024 20:00:00,13.328028,75.797056,SO2,1,5,2
India,Karnataka,Chikkamagaluru,"Kalyana Nagara, Chikkamagaluru - KSPCB",04-05-2024 20:00:00,13.328028,75.797056,CO,11,110,28
India,Karnataka,Davanagere,"Devaraj Urs Badavane, Davanagere - KSPCB",04-05-2024 20:00:00,14.475800,75.905200,SO2,2,6,5
India,Karnataka,Dharwad,"Kalabhavan, Dharwad - KSPCB",04-05-2024 20:00:00,15.459706,75.008381,NO2,8,28,14
India,Karnataka,Dharwad,"Kalabhavan, Dharwad - KSPCB",04-05-2024 20:00:00,15.459706,75.008381,CO,13,78,60
India,Karnataka,Gadag,"Panchal Nagar, Gadag - KSPCB",04-05-2024 20:00:00,15.411456,75.638133,NH3,1,3,2
India,Karnataka,Hassan,"B.Katihalli, Hassan - KSPCB",04-05-2024 20:00:00,13.008556,76.125258,PM2.5,NA,NA,NA
India,Karnataka,Hassan,"B.Katihalli, Hassan - KSPCB",04-05-2024 20:00:00,13.008556,76.125258,NO2,NA,NA,NA
India,Karnataka,Hassan,"B.Katihalli, Hassan - KSPCB",04-05-2024 20:00:00,13.008556,76.125258,SO2,NA,NA,NA
India,Karnataka,Hubballi,"Deshpande Nagar, Hubballi - KSPCB",04-05-2024 20:00:00,15.351773,75.140726,PM2.5,12,49,34
India,Karnataka,Hubballi,"Deshpande Nagar, Hubballi - KSPCB",04-05-2024 20:00:00,15.351773,75.140726,PM10,62,115,83
India,Karnataka,Hubballi,"Deshpande Nagar, Hubballi - KSPCB",04-05-2024 20:00:00,15.351773,75.140726,NO2,26,28,27
India,Karnataka,Hubballi,"Deshpande Nagar, Hubballi - KSPCB",04-05-2024 20:00:00,15.351773,75.140726,SO2,7,11,8
India,Karnataka,Hubballi,"Deshpande Nagar, Hubballi - KSPCB",04-05-2024 20:00:00,15.351773,75.140726,CO,9,46,40
India,Karnataka,Hubballi,"Lingaraj Nagar, Hubballi - KSPCB",04-05-2024 20:00:00,15.3714823,75.1160168,OZONE,26,84,75
India,Karnataka,Kalaburagi,"Lal Bahadur Shastri Nagar, Kalaburagi - KSPCB",04-05-2024 20:00:00,17.321993,76.822628,NH3,1,2,2
India,Karnataka,Kalaburagi,"Mahatma Basaveswar Colony, Kalaburgi - KSPCB",04-05-2024 20:00:00,17.336318,76.847397,PM2.5,22,74,41
India,Karnataka,Kalaburagi,"Mahatma Basaveswar Colony, Kalaburgi - KSPCB",04-05-2024 20:00:00,17.336318,76.847397,NH3,2,4,3
India,Karnataka,Kolar,"Tamaka Ind. Area, Kolar - KSPCB",04-05-2024 20:00:00,13.1276288,78.1570122,CO,4,6,5
India,Karnataka,Kolar,"Tamaka Ind. Area, Kolar - KSPCB",04-05-2024 20:00:00,13.1276288,78.1570122,OZONE,11,13,12
India,Karnataka,Koppal,"Diwator Nagar, Koppal - KSPCB",04-05-2024 20:00:00,15.347630,76.181767,CO,98,100,99
India,Karnataka,Madikeri,"Stuart Hill, Madikeri - KSPCB",04-05-2024 20:00:00,12.415911,75.735050,PM2.5,13,47,27
India,Karnataka,Madikeri,"Stuart Hill, Madikeri - KSPCB",04-05-2024 20:00:00,12.415911,75.735050,PM10,12,46,29
India,Karnataka,Mangalore,"Kadri, Mangalore - KSPCB",04-05-2024 20:00:00,12.889250,74.853000,CO,36,41,38
India,Karnataka,Mangalore,"Kadri, Mangalore - KSPCB",04-05-2024 20:00:00,12.889250,74.853000,OZONE,28,32,31
India,Karnataka,Mysuru,"Hebbal 1st Stage, Mysuru - KSPCB",04-05-2024 20:00:00,12.21041,76.37376,NO2,13,32,21
India,Karnataka,Mysuru,"Hebbal 1st Stage, Mysuru - KSPCB",04-05-2024 20:00:00,12.21041,76.37376,OZONE,12,96,69
India,Karnataka,Raichur,"Haji Colony, Raichur - KSPCB",04-05-2024 20:00:00,16.208139,77.348417,PM2.5,NA,NA,NA
India,Karnataka,Raichur,"Haji Colony, Raichur - KSPCB",04-05-2024 20:00:00,16.208139,77.348417,OZONE,4,5,4
India,Karnataka,Ramanagara,"Vijay Nagar, Ramanagara - KSPCB",04-05-2024 20:00:00,12.733409,77.298051,PM2.5,NA,NA,NA
India,Karnataka,Ramanagara,"Vijay Nagar, Ramanagara - KSPCB",04-05-2024 20:00:00,12.733409,77.298051,SO2,NA,NA,NA
India,Karnataka,Tumakuru,"Thimmalapura, Tumakuru - KSPCB",04-05-2024 20:00:00,13.377516,77.099072,NO2,NA,NA,NA
India,Karnataka,Udupi,"Brahmagiri, Udupi - KSPCB",04-05-2024 20:00:00,13.34194444,74.74694444,NO2,28,30,29
India,Karnataka,Vijayapura,"Ibrahimpur, Vijayapura - KSPCB",04-05-2024 20:00:00,16.802639,75.722694,PM10,41,43,42
India,Karnataka,Yadgir,"Collector Office, Yadgir - KSPCB",04-05-2024 20:00:00,16.7602,77.1428,PM2.5,34,77,55
India,Karnataka,Yadgir,"Collector Office, Yadgir - KSPCB",04-05-2024 20:00:00,16.7602,77.1428,PM10,40,93,65
India,Karnataka,Yadgir,"Collector Office, Yadgir - KSPCB",04-05-2024 20:00:00,16.7602,77.1428,CO,7,34,18
India,Kerala,Eloor,"Udyogamandal, Eloor - Kerala PCB",04-05-2024 20:00:00,10.073232,76.302765,PM2.5,33,68,47
India,Kerala,Eloor,"Udyogamandal, Eloor - Kerala PCB",04-05-2024 20:00:00,10.073232,76.302765,SO2,1,6,2
India,Kerala,Eloor,"Udyogamandal, Eloor - Kerala PCB",04-05-2024 20:00:00,10.073232,76.302765,OZONE,12,16,13
India,Kerala,Kannur,"Thavakkara, Kannur - Kerala PCB",04-05-2024 20:00:00,11.875000,75.373200,NO2,6,7,6
India,Kerala,Kollam,"Polayathode, Kollam - Kerala PCB",04-05-2024 20:00:00,8.8787,76.6073,SO2,1,64,10
India,Kerala,Kollam,"Polayathode, Kollam - Kerala PCB",04-05-2024 20:00:00,8.8787,76.6073,CO,14,17,16
India,Kerala,Thiruvananthapuram,"Kariavattom, Thiruvananthapuram - Kerala PCB",04-05-2024 20:00:00,8.563700,76.886500,NH3,1,1,1
India,Kerala,Thiruvananthapuram,"Kariavattom, Thiruvananthapuram - Kerala PCB",04-05-2024 20:00:00,8.563700,76.886500,OZONE,27,31,30
India,Madhya Pradesh,Bhopal,"Idgah Hills, Bhopal - MPPCB",04-05-2024 20:00:00,23.264759,77.381568,NO2,18,56,31
India,Madhya Pradesh,Bhopal,"Idgah Hills, Bhopal - MPPCB",04-05-2024 20:00:00,23.264759,77.381568,NH3,4,6,5
India,Madhya Pradesh,Bhopal,"Idgah Hills, Bhopal - MPPCB",04-05-2024 20:00:00,23.264759,77.381568,SO2,6,10,9
India,Madhya Pradesh,Bhopal,"Idgah Hills, Bhopal - MPPCB",04-05-2024 20:00:00,23.264759,77.381568,OZONE,42,142,114
India,Madhya Pradesh,Bhopal,"Paryavaran Parisar, Bhopal - MPPCB",04-05-2024 20:00:00,23.210494,77.425409,NO2,10,143,58
India,Madhya Pradesh,Bhopal,"Paryavaran Parisar, Bhopal - MPPCB",04-05-2024 20:00:00,23.210494,77.425409,SO2,7,13,11
India,Madhya Pradesh,Bhopal,"T T Nagar, Bhopal - MPPCB",04-05-2024 20:00:00,23.233584,77.400574,PM10,105,162,129
India,Madhya Pradesh,Bhopal,"T T Nagar, Bhopal - MPPCB",04-05-2024 20:00:00,23.233584,77.400574,SO2,7,31,22
India,Madhya Pradesh,Dewas,"Bhopal Chauraha, Dewas - MPPCB",04-05-2024 20:00:00,22.9682591,76.064118,PM2.5,30,182,64
India,Madhya Pradesh,Dewas,"Bhopal Chauraha, Dewas - MPPCB",04-05-2024 20:00:00,22.9682591,76.064118,NH3,3,3,3
India,Madhya Pradesh,Gwalior,"City Center, Gwalior - MPPCB",04-05-2024 20:00:00,26.203442,78.193251,PM10,51,200,128
India,Madhya Pradesh,Gwalior,"Deen Dayal Nagar, Gwalior - MPPCB",04-05-2024 20:00:00,26.259242,78.216432,NO2,11,169,67
India,Madhya Pradesh,Gwalior,"Deen Dayal Nagar, Gwalior - MPPCB",04-05-2024 20:00:00,26.259242,78.216432,NH3,5,14,9
India,Madhya Pradesh,Gwalior,"Deen Dayal Nagar, Gwalior - MPPCB",04-05-2024 20:00:00,26.259242,78.216432,SO2,NA,NA,NA
India,Madhya Pradesh,Gwalior,"Maharaj Bada, Gwalior - MPPCB",04-05-2024 20:00:00,26.200388,78.147714,NH3,2,29,10
India,Madhya Pradesh,Gwalior,"Phool Bagh, Gwalior - Mondelez Ind. Food",04-05-2024 20:00:00,26.210536,78.171,CO,79,106,83
India,Madhya Pradesh,Indore,"Chhoti Gwaltoli, Indore - MPPCB",04-05-2024 20:00:00,22.4310,75.5213,SO2,10,43,20
India,Madhya Pradesh,Indore,"Maguda Nagar, Indore - IMC",04-05-2024 20:00:00,22.7524,75.8872,PM2.5,47,284,98
India,Madhya Pradesh,Indore,"Maguda Nagar, Indore - IMC",04-05-2024 20:00:00,22.7524,75.8872,PM10,45,138,75
India,Madhya Pradesh,Indore,"Maguda Nagar, Indore - IMC",04-05-2024 20:00:00,22.7524,75.8872,NO2,5,8,6
India,Madhya Pradesh,Indore,"Regional Park, Indore - IMC",04-05-2024 20:00:00,22.6780,75.8559,NO2,NA,NA,NA
India,Madhya Pradesh,Indore,"Regional Park, Indore - IMC",04-05-2024 20:00:00,22.6780,75.8559,SO2,52,56,54
India,Madhya Pradesh,Jabalpur,"Govindh Bhavan Colony, Jabalpur - JMC",04-05-2024 20:00:00,23.163174,79.973061,NH3,8,13,10
India,Madhya Pradesh,Jabalpur,"Gupteshwar, Jabalpur - JMC",04-05-2024 20:00:00,23.142888,79.916147,PM2.5,48,312,133
India,Madhya Pradesh,Jabalpur,"Gupteshwar, Jabalpur - JMC",04-05-2024 20:00:00,23.142888,79.916147,SO2,11,17,13
India,Madhya Pradesh,Jabalpur,"Gupteshwar, Jabalpur - JMC",04-05-2024 20:00:00,23.142888,79.916147,OZONE,5,232,184
India,Madhya Pradesh,Jabalpur,"Marhatal, Jabalpur - MPPCB",04-05-2024 20:00:00,23.168606,79.932247,PM2.5,35,289,113
India,Madhya Pradesh,Jabalpur,"Marhatal, Jabalpur - MPPCB",04-05-2024 20:00:00,23.168606,79.932247,CO,12,162,62
India,Madhya Pradesh,Katni,"Gole Bazar, Katni - MPPCB",04-05-2024 20:00:00,23.50016,80.23284,NO2,34,184,96
India,Madhya Pradesh,Mandideep,"Sector-D Industrial Area, Mandideep - MPPCB",04-05-2024 20:00:00,23.108440,77.511428,CO,17,121,20
India,Madhya Pradesh,Pithampur,"Sector-2 Industrial Area, Pithampur - MPPCB",04-05-2024 20:00:00,22.624758,75.675238,SO2,10,14,12
India,Madhya Pradesh,Ratlam,"Shasthri Nagar, Ratlam - IPCA Lab",04-05-2024 20:00:00,23.331731,75.045981,PM2.5,30,87,57
India,Madhya Pradesh,Sagar,"Civil Lines, Sagar - MPPCB",04-05-2024 20:00:00,23.838586,78.759431,NH3,6,15,8
India,Madhya Pradesh,Sagar,"Deen Dayal Nagar, Sagar - MPPCB",04-05-2024 20:00:00,23.8640158,78.80289321,PM2.5,21,67,38
India,Madhya Pradesh,Sagar,"Deen Dayal Nagar, Sagar - MPPCB",04-05-2024 20:00:00,23.8640158,78.80289321,SO2,9,18,12
India,Madhya Pradesh,Singrauli,"Suryakiran Bhawan NCL, Singrauli - MPPCB",04-05-2024 20:00:00,24.108970,82.645580,CO,24,99,66
India,Madhya Pradesh,Ujjain,"Mahakaleshwar Temple, Ujjain - MPPCB",04-05-2024 20:00:00,23.182719 ,75.768218 ,PM2.5,30,87,59
India,Madhya Pradesh,Ujjain,"Mahakaleshwar Temple, Ujjain - MPPCB",04-05-2024 20:00:00,23.182719 ,75.768218 ,NH3,6,12,9
India,Maharashtra,Ahmednagar,"Tarakpur, Ahmednagar - MPCB",04-05-2024 20:00:00,19.10122,74.73339,CO,18,109,46
India,Maharashtra,Akola,"Ramdaspeth, Akola - MPCB",04-05-2024 20:00:00,20.719516,77.000253,PM2.5,49,195,86
India,Maharashtra,Akola,"Ramdaspeth, Akola - MPCB",04-05-2024 20:00:00,20.719516,77.000253,NH3,7,16,10
India,Maharashtra,Amravati,"Shivneri Colony, Amravati - MPCB",04-05-2024 20:00:00,20.9402359,77.7895248,PM2.5,60,136,98
India,Maharashtra,Amravati,"Shivneri Colony, Amravati - MPCB",04-05-2024 20:00:00,20.9402359,77.7895248,PM10,113,146,129
India,Maharashtra,Amravati,"Shivneri Colony, Amravati - MPCB",04-05-2024 20:00:00,20.9402359,77.7895248,CO,12,78,26
India,Maharashtra,Amravati,"Shri Shivaji Science College, Amaravati - MPCB",04-05-2024 20:00:00,20.939198,77.765701,PM2.5,55,211,90
India,Maharashtra,Aurangabad,"MIDC Chilkalthana, Aurangabad - MPCB",04-05-2024 20:00:00,19.875620,75.387310,CO,33,104,35
India,Maharashtra,Aurangabad,"More Chowk Waluj, Aurangabad - MPCB",04-05-2024 20:00:00,19.8389439,75.244448,OZONE,24,131,84
India,Maharashtra,Badlapur,"Katrap, Badlapur - MPCB",04-05-2024 20:00:00,19.16485,73.23409,PM10,70,125,98
India,Maharashtra,Badlapur,"Katrap, Badlapur - MPCB",04-05-2024 20:00:00,19.16485,73.23409,NO2,8,81,20
India,Maharashtra,Badlapur,"Katrap, Badlapur - MPCB",04-05-2024 20:00:00,19.16485,73.23409,NH3,1,2,1
India,Maharashtra,Bhiwandi,"Gokul Nagar, Bhiwandi - MPCB",04-05-2024 20:00:00,19.309073,73.057223,NO2,11,49,21
India,Maharashtra,Boisar,"Khaira, Boisar - MPCB",04-05-2024 20:00:00,19.786089,72.757971,PM2.5,31,187,95
India,Maharashtra,Boisar,"Khaira, Boisar - MPCB",04-05-2024 20:00:00,19.786089,72.757971,NO2,12,128,31
India,Maharashtra,Chandrapur,"Chauhan Colony, Chandrapur - MPCB",04-05-2024 20:00:00,19.962900,79.298714,SO2,8,122,44
India,Maharashtra,Dhule,"Deopur, Dhule - MPCB",04-05-2024 20:00:00,20.918946,74.776388,NO2,17,97,34
India,Maharashtra,Dhule,"Deopur, Dhule - MPCB",04-05-2024 20:00:00,20.918946,74.776388,SO2,15,32,22
India,Maharashtra,Dhule,"Deopur, Dhule - MPCB",04-05-2024 20:00:00,20.918946,74.776388,OZONE,20,103,80
India,Maharashtra,Kalyan,"Khadakpada, Kalyan - MPCB",04-05-2024 20:00:00,19.25292,73.142019,PM2.5,NA,NA,NA
India,Maharashtra,Kalyan,"Khadakpada, Kalyan - MPCB",04-05-2024 20:00:00,19.25292,73.142019,CO,17,20,18
India,Maharashtra,Kolhapur,"Shivaji University, Kolhapur - MPCB",04-05-2024 20:00:00,16.6870449,74.2505872,PM2.5,30,103,69
India,Maharashtra,Kolhapur,"Sinchan Bhavan, Kolhapur - MPCB",04-05-2024 20:00:00,16.7143745,74.2426398,PM10,NA,NA,NA
India,Maharashtra,Kolhapur,"Sinchan Bhavan, Kolhapur - MPCB",04-05-2024 20:00:00,16.7143745,74.2426398,OZONE,21,145,122
India,Maharashtra,Latur,"Sawe Wadi, Latur - MPCB",04-05-2024 20:00:00,18.39963,76.57452,NH3,NA,NA,NA
India,Maharashtra,Mahad,"Kamble Tarf Birwadi, Mahad - MPCB",04-05-2024 20:00:00,18.1023399,73.4783687,PM10,NA,NA,NA
India,Maharashtra,Mahad,"Kamble Tarf Birwadi, Mahad - MPCB",04-05-2024 20:00:00,18.1023399,73.4783687,SO2,NA,NA,NA
India,Maharashtra,Mira-Bhayandar,"Bhayandar West, Mira-Bhayandar - MPCB",04-05-2024 20:00:00,19.296481,72.840923,CO,20,39,21
India,Maharashtra,Mumbai,"Borivali East, Mumbai - IITM",04-05-2024 20:00:00,19.23241,72.86895,NO2,40,80,64
India,Maharashtra,Mumbai,"Borivali East, Mumbai - IITM",04-05-2024 20:00:00,19.23241,72.86895,NH3,3,5,4
India,Maharashtra,Mumbai,"Borivali East, Mumbai - IITM",04-05-2024 20:00:00,19.23241,72.86895,OZONE,32,92,72
India,Maharashtra,Mumbai,"Borivali East, Mumbai - MPCB",04-05-2024 20:00:00,19.2243333,72.8658113,NH3,NA,NA,NA
India,Maharashtra,Mumbai,"Byculla, Mumbai - BMC",04-05-2024 20:00:00,18.9767,72.8380,NO2,6,9,7
India,Maharashtra,Mumbai,"Chakala-Andheri East, Mumbai - IITM",04-05-2024 20:00:00,19.11074,72.86084,OZONE,9,39,25
India,Maharashtra,Mumbai,"Chhatrapati Shivaji Intl. Airport (T2), Mumbai - MPCB",04-05-2024 20:00:00,19.10078,72.87462,OZONE,4,6,5
India,Maharashtra,Mumbai,"Colaba, Mumbai - MPCB",04-05-2024 20:00:00,18.910000,72.820000,PM2.5,31,58,40
India,Maharashtra,Mumbai,"Colaba, Mumbai - MPCB",04-05-2024 20:00:00,18.910000,72.820000,PM10,56,86,69
India,Maharashtra,Mumbai,"Colaba, Mumbai - MPCB",04-05-2024 20:00:00,18.910000,72.820000,SO2,10,11,11
India,Maharashtra,Mumbai,"Ghatkopar, Mumbai - BMC",04-05-2024 20:00:00,19.083694,72.920967,PM10,37,67,52
India,Maharashtra,Mumbai,"Kandivali East, Mumbai - MPCB",04-05-2024 20:00:00,19.205800,72.868200,SO2,7,9,8
India,Maharashtra,Mumbai,"Kandivali West, Mumbai - BMC",04-05-2024 20:00:00,19.215859,72.831718,OZONE,15,47,33
India,Maharashtra,Mumbai,"Kherwadi_Bandra East, Mumbai - MPCB",04-05-2024 20:00:00,19.0632143,72.8456324,NH3,3,8,4
India,Maharashtra,Mumbai,"Khindipada-Bhandup West, Mumbai - IITM",04-05-2024 20:00:00,19.1653323,72.922099,NO2,7,10,8
India,Maharashtra,Mumbai,"Khindipada-Bhandup West, Mumbai - IITM",04-05-2024 20:00:00,19.1653323,72.922099,OZONE,3,24,16
India,Maharashtra,Mumbai,"Kurla, Mumbai - MPCB",04-05-2024 20:00:00,19.0863,72.8888,NH3,1,2,1
India,Maharashtra,Mumbai,"Kurla, Mumbai - MPCB",04-05-2024 20:00:00,19.0863,72.8888,OZONE,27,28,28
India,Maharashtra,Mumbai,"Mazgaon, Mumbai - IITM",04-05-2024 20:00:00,18.96702,72.84214,CO,10,74,53
India,Maharashtra,Mumbai,"Mulund West, Mumbai - MPCB",04-05-2024 20:00:00,19.1750,72.9419,CO,40,40,40
India,Maharashtra,Mumbai,"Navy Nagar-Colaba, Mumbai - IITM",04-05-2024 20:00:00,18.897756,72.813320,SO2,6,14,10
India,Maharashtra,Mumbai,"Sewri, Mumbai - BMC",04-05-2024 20:00:00,19.000084,72.856730,PM10,NA,NA,NA
India,Maharashtra,Mumbai,"Siddharth Nagar-Worli, Mumbai - IITM",04-05-2024 20:00:00,19.000083,72.813993,PM10,79,104,89
India,Maharashtra,Mumbai,"Siddharth Nagar-Worli, Mumbai - IITM",04-05-2024 20:00:00,19.000083,72.813993,NO2,16,249,47
India,Maharashtra,Mumbai,"Siddharth Nagar-Worli, Mumbai - IITM",04-05-2024 20:00:00,19.000083,72.813993,NH3,5,25,7
India,Maharashtra,Mumbai,"Siddharth Nagar-Worli, Mumbai - IITM",04-05-2024 20:00:00,19.000083,72.813993,CO,35,84,71
India,Maharashtra,Mumbai,"Vasai West, Mumbai - MPCB",04-05-2024 20:00:00,19.383200,72.820400,SO2,16,17,16
India,Maharashtra,Mumbai,"Vile Parle West, Mumbai - MPCB",04-05-2024 20:00:00,19.10861,72.83622,PM10,75,135,95
India,Maharashtra,Mumbai,"Vile Parle West, Mumbai - MPCB",04-05-2024 20:00:00,19.10861,72.83622,NO2,7,10,8
India,Maharashtra,Mumbai,"Worli, Mumbai - MPCB",04-05-2024 20:00:00,18.9936162,72.8128113,SO2,12,12,12
India,Maharashtra,Mumbai,"Worli, Mumbai - MPCB",04-05-2024 20:00:00,18.9936162,72.8128113,CO,28,29,28
India,Maharashtra,Mumbai,"Worli, Mumbai - MPCB",04-05-2024 20:00:00,18.9936162,72.8128113,OZONE,7,11,10
India,Maharashtra,Nagpur,"Ambazari, Nagpur - MPCB",04-05-2024 20:00:00,21.121801,79.04952,CO,12,106,41
India,Maharashtra,Nagpur,"Mahal, Nagpur - MPCB",04-05-2024 20:00:00,21.14472,79.107595,PM10,112,194,141
India,Maharashtra,Nagpur,"Mahal, Nagpur - MPCB",04-05-2024 20:00:00,21.14472,79.107595,SO2,21,100,59
India,Maharashtra,Nanded,"Sneh Nagar, Nanded - MPCB",04-05-2024 20:00:00,19.173852,77.296291,PM10,98,194,147
India,Maharashtra,Nanded,"Sneh Nagar, Nanded - MPCB",04-05-2024 20:00:00,19.173852,77.296291,NO2,13,98,35
India,Maharashtra,Nanded,"Sneh Nagar, Nanded - MPCB",04-05-2024 20:00:00,19.173852,77.296291,SO2,1,5,3
India,Maharashtra,Nashik,"Gangapur Road, Nashik - MPCB",04-05-2024 20:00:00,20.0073285,73.7762427,OZONE,27,83,75
India,Maharashtra,Nashik,"Hirawadi, Nashik - MPCB",04-05-2024 20:00:00,20.021503,73.813844,NO2,7,39,17
India,Maharashtra,Nashik,"Hirawadi, Nashik - MPCB",04-05-2024 20:00:00,20.021503,73.813844,NH3,2,3,2
India,Maharashtra,Nashik,"Hirawadi, Nashik - MPCB",04-05-2024 20:00:00,20.021503,73.813844,OZONE,9,118,86
India,Maharashtra,Nashik,"Pandav Nagari, Nashik - MPCB",04-05-2024 20:00:00,19.9591346,73.7788008,NH3,2,7,4
India,Maharashtra,Nashik,"Pandav Nagari, Nashik - MPCB",04-05-2024 20:00:00,19.9591346,73.7788008,SO2,15,35,24
India,Maharashtra,Navi Mumbai,"Kopripada-Vashi, Navi Mumbai - MPCB",04-05-2024 20:00:00,19.090337,73.014232,NH3,4,7,6
India,Maharashtra,Navi Mumbai,"Kopripada-Vashi, Navi Mumbai - MPCB",04-05-2024 20:00:00,19.090337,73.014232,CO,12,27,17
India,Maharashtra,Navi Mumbai,"Nerul, Navi Mumbai - MPCB",04-05-2024 20:00:00,19.008751,73.016620,PM2.5,29,243,66
India,Maharashtra,Navi Mumbai,"Sanpada, Navi Mumbai - MPCB",04-05-2024 20:00:00,19.0575752,73.0151367,PM10,57,107,86
India,Maharashtra,Navi Mumbai,"Sanpada, Navi Mumbai - MPCB",04-05-2024 20:00:00,19.0575752,73.0151367,NO2,8,20,14
India,Maharashtra,Navi Mumbai,"Sanpada, Navi Mumbai - MPCB",04-05-2024 20:00:00,19.0575752,73.0151367,CO,6,11,9
India,Maharashtra,Navi Mumbai,"Tondare-Taloja, Navi Mumbai - MPCB",04-05-2024 20:00:00,19.0630,73.1209,OZONE,1,251,57
India,Maharashtra,Parbhani,"Masoom Colony, Parbhani - MPCB",04-05-2024 20:00:00,19.265594,76.761463,NH3,1,5,4
India,Maharashtra,Parbhani,"Masoom Colony, Parbhani - MPCB",04-05-2024 20:00:00,19.265594,76.761463,SO2,5,21,11
India,Maharashtra,Parbhani,"Masoom Colony, Parbhani - MPCB",04-05-2024 20:00:00,19.265594,76.761463,OZONE,11,113,101
India,Maharashtra,Pimpri-Chinchwad,"Gavalinagar, Pimpri Chinchwad - MPCB",04-05-2024 20:00:00,18.63673,73.82487,CO,11,27,15
India,Maharashtra,Pimpri-Chinchwad,"Park Street Wakad, Pimpri Chinchwad - MPCB",04-05-2024 20:00:00,18.59051,73.77946,PM2.5,22,348,68
India,Maharashtra,Pimpri-Chinchwad,"Thergaon, Pimpri Chinchwad - MPCB",04-05-2024 20:00:00,18.616318,73.765797,PM2.5,73,222,126
India,Maharashtra,Pune,"Alandi, Pune - IITM",04-05-2024 20:00:00,18.675076,73.892743,PM2.5,37,94,56
India,Maharashtra,Pune,"Alandi, Pune - IITM",04-05-2024 20:00:00,18.675076,73.892743,NO2,11,21,15
India,Maharashtra,Pune,"Bhosari, Pune - IITM",04-05-2024 20:00:00,18.640051,73.848956,PM2.5,30,76,47
India,Maharashtra,Pune,"Karve Road, Pune - MPCB",04-05-2024 20:00:00,18.5011743,73.8165527,PM2.5,46,450,92
India,Maharashtra,Pune,"Karve Road, Pune - MPCB",04-05-2024 20:00:00,18.5011743,73.8165527,CO,40,194,68
India,Maharashtra,Pune,"Katraj Dairy, Pune - MPCB",04-05-2024 20:00:00,18.454450,73.854155,NH3,1,4,2
India,Maharashtra,Pune,"Mhada Colony, Pune - IITM",04-05-2024 20:00:00,18.573040,73.927715,NO2,17,57,36
India,Maharashtra,Pune,"Transport Nagar-Nigdi, Pune - IITM",04-05-2024 20:00:00,18.664282,73.763966,PM10,12,92,76
India,Maharashtra,Sangli,"Vijay Nagar, Sangli - MPCB",04-05-2024 20:00:00, 16.5038,74.3623,PM2.5,40,61,49
India,Maharashtra,Solapur,"Dnyaneshwar Nagar, Solapur - MPCB",04-05-2024 20:00:00,17.6336264,75.9132495,CO,8,58,16
India,Maharashtra,Solapur,"Solapur, Solapur - MPCB",04-05-2024 20:00:00,17.6599188,75.9063906,PM10,125,143,139
India,Maharashtra,Thane,"Pimpleshwar Mandir, Thane - MPCB",04-05-2024 20:00:00,19.192056,72.9585188,SO2,1,28,7
India,Maharashtra,Ulhasnagar,"Sidhi Vinayak Nagar, Ulhasnagar - MPCB",04-05-2024 20:00:00,19.235581,73.159121,PM2.5,62,103,83
India,Maharashtra,Ulhasnagar,"Sidhi Vinayak Nagar, Ulhasnagar - MPCB",04-05-2024 20:00:00,19.235581,73.159121,NO2,4,63,20
India,Maharashtra,Ulhasnagar,"Sidhi Vinayak Nagar, Ulhasnagar - MPCB",04-05-2024 20:00:00,19.235581,73.159121,SO2,9,18,12
India,Maharashtra,Virar,"Bolinj, Virar - MPCB",04-05-2024 20:00:00,19.4458210,72.7988231,NO2,5,39,21
India,Manipur,Imphal,"DM College of Science, Imphal - Manipur PCB",04-05-2024 20:00:00,24.8207389,93.9423085,PM2.5,19,60,28
India,Meghalaya,Shillong,"Lumpyngngad, Shillong - Meghalaya PCB",04-05-2024 20:00:00,25.5586,91.8985,OZONE,13,92,20
India,Mizoram,Aizawl,"Sikulpuikawn, Aizawl - Mizoram PCB",04-05-2024 20:00:00,23.7176342,92.7192841,PM10,16,78,48
India,Mizoram,Aizawl,"Sikulpuikawn, Aizawl - Mizoram PCB",04-05-2024 20:00:00,23.7176342,92.7192841,OZONE,4,17,7
India,Nagaland,Kohima,"PWD Juction, Kohima - NPCB",04-05-2024 20:00:00,25.6635413,94.0989878,NO2,3,4,4
India,Odisha,Angul,"Hakimapada, Angul - OSPCB",04-05-2024 20:00:00,20.832874,85.104082,NH3,1,2,1
India,Odisha,Angul,"Hakimapada, Angul - OSPCB",04-05-2024 20:00:00,20.832874,85.104082,CO,9,56,39
India,Odisha,Balasore,"Kalidaspur, Balasore - OSPCB",04-05-2024 20:00:00,21.51161,86.89088,NH3,3,6,4
India,Odisha,Barbil,"Forest Office, Barbil - OSPCB",04-05-2024 20:00:00,22.1166054,85.3945546,NO2,1,1,1
India,Odisha,Barbil,"Forest Office, Barbil - OSPCB",04-05-2024 20:00:00,22.1166054,85.3945546,NH3,NA,NA,NA
India,Odisha,Baripada,"Meher Colony, Baripada - OSPCB",04-05-2024 20:00:00,21.941841,86.728318,SO2,1,25,6
India,Odisha,Bhubaneswar,"Lingraj Mandir, Bhubaneswar - OSPCB",04-05-2024 20:00:00,20.240790,85.836784,NO2,2,14,7
India,Odisha,Bhubaneswar,"Lingraj Mandir, Bhubaneswar - OSPCB",04-05-2024 20:00:00,20.240790,85.836784,CO,52,52,52
India,Odisha,Bileipada,"Tata Township, Bileipada - OSPCB",04-05-2024 20:00:00,22.06156703,85.47409613,SO2,NA,NA,NA
India,Odisha,Bileipada,"Tata Township, Bileipada - OSPCB",04-05-2024 20:00:00,22.06156703,85.47409613,CO,20,24,21
India,Odisha,Brajrajnagar,"GM Office, Brajrajnagar - OSPCB",04-05-2024 20:00:00,21.8004996,83.8396977,CO,102,104,103
India,Odisha,Byasanagar,"Ferro Chrome Colony, Byasanagar - OSPCB",04-05-2024 20:00:00,20.94185,86.11510,NO2,7,17,10
India,Odisha,Byasanagar,"Ferro Chrome Colony, Byasanagar - OSPCB",04-05-2024 20:00:00,20.94185,86.11510,SO2,5,31,12
India,Odisha,Cuttack,"CDA Area, Cuttack - OSPCB",04-05-2024 20:00:00,20.48891     ,85.84768     ,PM2.5,7,75,40
India,Odisha,Cuttack,"CDA Area, Cuttack - OSPCB",04-05-2024 20:00:00,20.48891     ,85.84768     ,NO2,11,21,15
India,Odisha,Cuttack,"CDA Area, Cuttack - OSPCB",04-05-2024 20:00:00,20.48891     ,85.84768     ,SO2,1,5,2
India,Odisha,Keonjhar,"Jagamohanpur, Keonjhar - OSPCB",04-05-2024 20:00:00,21.643900,85.599355,PM2.5,121,185,150
India,Odisha,Keonjhar,"Jagamohanpur, Keonjhar - OSPCB",04-05-2024 20:00:00,21.643900,85.599355,NH3,1,3,2
India,Odisha,Nayagarh,"Dabuna, Nayagarh - OSPCB",04-05-2024 20:00:00,21.847279,85.416905,NH3,4,4,4
India,Odisha,Nayagarh,"Dabuna, Nayagarh - OSPCB",04-05-2024 20:00:00,21.847279,85.416905,SO2,2,10,5
India,Odisha,Rourkela,"Raghunathpali, Rourkela - OSPCB",04-05-2024 20:00:00,22.220833,84.809444,NH3,1,2,1
India,Odisha,Rourkela,"Raghunathpali, Rourkela - OSPCB",04-05-2024 20:00:00,22.220833,84.809444,SO2,9,16,11
India,Odisha,Rourkela,"Sector-2, Rourkela - OSPCB",04-05-2024 20:00:00,22.24500000,84.88111111,PM2.5,57,322,189
India,Odisha,Rourkela,"Sector-2, Rourkela - OSPCB",04-05-2024 20:00:00,22.24500000,84.88111111,PM10,69,143,104
India,Odisha,Suakati,"OMC Colony, Suakati - OSPCB",04-05-2024 20:00:00,21.606865,85.510538,PM10,132,182,155
India,Odisha,Suakati,"OMC Colony, Suakati - OSPCB",04-05-2024 20:00:00,21.606865,85.510538,NO2,9,13,12
India,Odisha,Suakati,"OMC Colony, Suakati - OSPCB",04-05-2024 20:00:00,21.606865,85.510538,SO2,13,87,26
India,Odisha,Suakati,"OMC Colony, Suakati - OSPCB",04-05-2024 20:00:00,21.606865,85.510538,OZONE,13,218,185
India,Odisha,Talcher,"Talcher Coalfields,Talcher - OSPCB",04-05-2024 20:00:00,20.9360711,85.1707021,PM2.5,21,346,107
India,Odisha,Tensa,"Barsua Iron Ore Mines, Tensa - OSPCB",04-05-2024 20:00:00,21.869985,85.167016,PM10,134,165,150
India,Puducherry,Puducherry,"Jawahar Nagar, Puducherry - PPCC",04-05-2024 20:00:00,11.9309,79.8027,NH3,2,47,8
India,Puducherry,Puducherry,"Jawahar Nagar, Puducherry - PPCC",04-05-2024 20:00:00,11.9309,79.8027,CO,18,30,23
India,Punjab,Amritsar,"Golden Temple, Amritsar - PPCB",04-05-2024 20:00:00,31.620000,74.876512,NH3,5,11,6
India,Punjab,Amritsar,"Golden Temple, Amritsar - PPCB",04-05-2024 20:00:00,31.620000,74.876512,OZONE,31,56,44
India,Punjab,Bathinda,"Hardev Nagar, Bathinda - PPCB",04-05-2024 20:00:00,30.233011,74.907758,PM10,78,266,162
India,Punjab,Bathinda,"Hardev Nagar, Bathinda - PPCB",04-05-2024 20:00:00,30.233011,74.907758,SO2,2,54,14
India,Punjab,Jalandhar,"Civil Line, Jalandhar - PPCB",04-05-2024 20:00:00,31.321907,75.578914,NO2,37,45,42
India,Punjab,Jalandhar,"Civil Line, Jalandhar - PPCB",04-05-2024 20:00:00,31.321907,75.578914,OZONE,12,68,28
India,Punjab,Khanna,"Kalal Majra, Khanna - PPCB",04-05-2024 20:00:00,30.736056 ,76.209694,SO2,6,62,18
India,Punjab,Khanna,"Kalal Majra, Khanna - PPCB",04-05-2024 20:00:00,30.736056 ,76.209694,OZONE,41,48,45
India,Punjab,Ludhiana,"Punjab Agricultural University, Ludhiana - PPCB",04-05-2024 20:00:00,30.9028,75.8086,OZONE,20,47,40
India,Punjab,Mandi Gobindgarh,"RIMT University, Mandi Gobindgarh - PPCB",04-05-2024 20:00:00,30.649961,76.331442,PM10,47,412,129
India,Punjab,Patiala,"Model Town, Patiala - PPCB",04-05-2024 20:00:00,30.349388,76.366642,NO2,21,29,25
India,Punjab,Patiala,"Model Town, Patiala - PPCB",04-05-2024 20:00:00,30.349388,76.366642,CO,20,45,23
India,Rajasthan,Ajmer,"Civil Lines,  Ajmer - RSPCB",04-05-2024 20:00:00,26.470859,74.646594,PM10,60,151,107
India,Rajasthan,Ajmer,"Civil Lines,  Ajmer - RSPCB",04-05-2024 20:00:00,26.470859,74.646594,NH3,9,14,12
India,Rajasthan,Ajmer,"Civil Lines,  Ajmer - RSPCB",04-05-2024 20:00:00,26.470859,74.646594,OZONE,8,60,53
India,Rajasthan,Alwar,"Moti Doongri, Alwar - RSPCB",04-05-2024 20:00:00,27.554793,76.611536,PM2.5,63,179,89
India,Rajasthan,Alwar,"Moti Doongri, Alwar - RSPCB",04-05-2024 20:00:00,27.554793,76.611536,PM10,69,152,95
India,Rajasthan,Alwar,"Moti Doongri, Alwar - RSPCB",04-05-2024 20:00:00,27.554793,76.611536,NO2,27,57,40
India,Rajasthan,Alwar,"Moti Doongri, Alwar - RSPCB",04-05-2024 20:00:00,27.554793,76.611536,NH3,3,8,5
India,Rajasthan,Banswara,"Rati Talai, Banswara - RSPCB",04-05-2024 20:00:00,23.555190,74.440010,NO2,12,126,31
India,Rajasthan,Banswara,"Rati Talai, Banswara - RSPCB",04-05-2024 20:00:00,23.555190,74.440010,OZONE,25,107,66
India,Rajasthan,Baran,"Bamboliya, Baran - RSPCB",04-05-2024 20:00:00,25.106006,76.469948,OZONE,3,184,139
India,Rajasthan,Barmer,"Railway Colony, Barmer - RSPCB",04-05-2024 20:00:00,25.747299,71.393989,NH3,8,20,15
India,Rajasthan,Bharatpur,"Krishna Nagar, Bharatpur - RSPCB",04-05-2024 20:00:00,27.215415,77.50873,NH3,2,8,5
India,Rajasthan,Bharatpur,"Krishna Nagar, Bharatpur - RSPCB",04-05-2024 20:00:00,27.215415,77.50873,SO2,2,34,10
India,Rajasthan,Bhiwadi,"Vasundhara Nagar_UIT, Bhiwadi - RSPCB",04-05-2024 20:00:00,28.207266,76.829265,NO2,16,138,78
India,Rajasthan,Bhiwadi,"Vasundhara Nagar_UIT, Bhiwadi - RSPCB",04-05-2024 20:00:00,28.207266,76.829265,NH3,7,25,14
India,Rajasthan,Bikaner,"MM Ground, Bikaner - RSPCB",04-05-2024 20:00:00,28.018792,73.292658,CO,15,124,20
India,Rajasthan,Bundi,"New Colony, Bundi - RSPCB",04-05-2024 20:00:00,25.435774,75.644272,NO2,10,119,36
India,Rajasthan,Chittorgarh,"Shastri Nagar, Chittorgarh - RSPCB",04-05-2024 20:00:00,24.892047,74.623527,NH3,4,11,9
India,Rajasthan,Dausa,"Khatikan Mohalla, Dausa - RSPCB",04-05-2024 20:00:00,26.895552,76.334753,OZONE,9,152,117
India,Rajasthan,Dholpur,"Raja Ganj, Dholpur - RSPCB",04-05-2024 20:00:00,26.699557,77.898881,NO2,27,114,66
India,Rajasthan,Dungarpur,"Bhoiwada, Dungarpur - RSPCB",04-05-2024 20:00:00,23.837789,73.714926,PM2.5,12,80,36
India,Rajasthan,Hanumangarh,"Housing Board, Hanumangarh - RSPCB",04-05-2024 20:00:00,29.610750,74.283608,OZONE,18,68,52
India,Rajasthan,Jaipur,"Mansarovar Sector-12, Jaipur - RSPCB",04-05-2024 20:00:00,26.843698,75.766894,OZONE,50,263,67
India,Rajasthan,Jaipur,"Police Commissionerate, Jaipur - RSPCB",04-05-2024 20:00:00,26.9164092,75.7994901,CO,20,102,32
India,Rajasthan,Jaipur,"Police Commissionerate, Jaipur - RSPCB",04-05-2024 20:00:00,26.9164092,75.7994901,OZONE,17,151,101
India,Rajasthan,Jaipur,"Sector-2 Murlipura, Jaipur - RSPCB",04-05-2024 20:00:00,26.960669,75.771817,PM2.5,25,139,52
India,Rajasthan,Jaipur,"Sector-2 Murlipura, Jaipur - RSPCB",04-05-2024 20:00:00,26.960669,75.771817,CO,22,110,48
India,Rajasthan,Jaipur,"Shastri Nagar, Jaipur - RSPCB",04-05-2024 20:00:00,26.9502929,75.730943,NO2,26,108,55
India,Rajasthan,Jalore,"Mudtra Sili, Jalore - RSPCB",04-05-2024 20:00:00,25.344694,72.626208,PM2.5,19,124,41
India,Rajasthan,Jhalawar,"Rajlaxmi Nagar, Jhalawar - RSPCB",04-05-2024 20:00:00,24.588397,76.172782,SO2,6,21,10
India,Rajasthan,Jhalawar,"Rajlaxmi Nagar, Jhalawar - RSPCB",04-05-2024 20:00:00,24.588397,76.172782,OZONE,6,170,122
India,Rajasthan,Jodhpur,"Collectorate, Jodhpur - RSPCB",04-05-2024 20:00:00,26.268249,73.0193853,PM10,92,406,224
India,Rajasthan,Jodhpur,"Collectorate, Jodhpur - RSPCB",04-05-2024 20:00:00,26.268249,73.0193853,OZONE,1,75,57
India,Rajasthan,Jodhpur,"Jhalamand, Jodhpur - RSPCB",04-05-2024 20:00:00,26.215415,73.070156,PM10,58,369,158
India,Rajasthan,Jodhpur,"Jhalamand, Jodhpur - RSPCB",04-05-2024 20:00:00,26.215415,73.070156,NO2,3,91,26
India,Rajasthan,Jodhpur,"Mandor, Jodhpur - RSPCB",04-05-2024 20:00:00,26.358805,73.047444,PM10,84,244,138
India,Rajasthan,Jodhpur,"Mandor, Jodhpur - RSPCB",04-05-2024 20:00:00,26.358805,73.047444,NH3,6,20,10
India,Rajasthan,Jodhpur,"Samrat Ashok Udhyan, Jodhpur - RSPCB",04-05-2024 20:00:00,26.253384,72.976571,PM10,81,402,159
India,Rajasthan,Jodhpur,"Samrat Ashok Udhyan, Jodhpur - RSPCB",04-05-2024 20:00:00,26.253384,72.976571,NO2,4,157,41
India,Rajasthan,Karauli,"Satyawati Vihar, Karauli - RSPCB",04-05-2024 20:00:00,26.506177,77.025989,PM10,105,354,162
India,Rajasthan,Karauli,"Satyawati Vihar, Karauli - RSPCB",04-05-2024 20:00:00,26.506177,77.025989,NH3,10,21,15
India,Rajasthan,Kota,"Dhanmandi, Kota - RSPCB",04-05-2024 20:00:00,25.164090,75.858137,PM2.5,67,435,179
India,Rajasthan,Kota,"Dhanmandi, Kota - RSPCB",04-05-2024 20:00:00,25.164090,75.858137,NH3,4,12,7
India,Rajasthan,Kota,"Nayapura, Kota - RSPCB",04-05-2024 20:00:00,25.196024,75.855668,NH3,2,7,4
India,Rajasthan,Kota,"Nayapura, Kota - RSPCB",04-05-2024 20:00:00,25.196024,75.855668,SO2,13,104,28
India,Rajasthan,Kota,"Shrinath Puram, Kota - RSPCB",04-05-2024 20:00:00,25.14389,75.821256,PM10,98,154,132
India,Rajasthan,Nagaur,"Karni Colony, Nagaur - RSPCB",04-05-2024 20:00:00,27.213494,73.734444,PM2.5,17,77,39
India,Rajasthan,Nagaur,"Karni Colony, Nagaur - RSPCB",04-05-2024 20:00:00,27.213494,73.734444,NH3,7,13,9
India,Rajasthan,Pratapgarh,"Pragati Nagar, Pratapgarh - RSPCB",04-05-2024 20:00:00,24.041198,74.780702,PM10,72,287,128
India,Rajasthan,Pratapgarh,"Pragati Nagar, Pratapgarh - RSPCB",04-05-2024 20:00:00,24.041198,74.780702,NO2,5,119,24
India,Rajasthan,Pratapgarh,"Pragati Nagar, Pratapgarh - RSPCB",04-05-2024 20:00:00,24.041198,74.780702,OZONE,27,114,90
India,Rajasthan,Rajsamand,"Dhoinda, Rajsamand - RSPCB",04-05-2024 20:00:00,25.036360,73.883502,PM10,NA,NA,NA
India,Rajasthan,Rajsamand,"Dhoinda, Rajsamand - RSPCB",04-05-2024 20:00:00,25.036360,73.883502,NO2,NA,NA,NA
India,Rajasthan,Rajsamand,"Dhoinda, Rajsamand - RSPCB",04-05-2024 20:00:00,25.036360,73.883502,NH3,NA,NA,NA
India,Rajasthan,Sikar,"Radhakishan Pura, Sikar - RSPCB",04-05-2024 20:00:00,27.608912,75.153302,PM10,94,385,159
India,Rajasthan,Sikar,"Radhakishan Pura, Sikar - RSPCB",04-05-2024 20:00:00,27.608912,75.153302,NO2,9,110,35
India,Rajasthan,Sikar,"Radhakishan Pura, Sikar - RSPCB",04-05-2024 20:00:00,27.608912,75.153302,SO2,2,20,6
India,Rajasthan,Sikar,"Radhakishan Pura, Sikar - RSPCB",04-05-2024 20:00:00,27.608912,75.153302,OZONE,11,71,56
India,Rajasthan,Sirohi,"Vedhaynath Colony, Sirohi - RSPCB",04-05-2024 20:00:00,24.885261,72.857549,NO2,5,28,11
India,Rajasthan,Sirohi,"Vedhaynath Colony, Sirohi - RSPCB",04-05-2024 20:00:00,24.885261,72.857549,SO2,4,9,6
India,Rajasthan,Sri Ganganagar,"Old City, Sri Ganganagar - RSPCB",04-05-2024 20:00:00,29.931624,73.864511,PM10,158,369,245
India,Rajasthan,Sri Ganganagar,"Old City, Sri Ganganagar - RSPCB",04-05-2024 20:00:00,29.931624,73.864511,OZONE,24,71,60
India,Rajasthan,Tonk,"Shastri Nagar, Tonk - RSPCB",04-05-2024 20:00:00,26.159933,75.780517,PM2.5,20,213,69
India,Rajasthan,Tonk,"Shastri Nagar, Tonk - RSPCB",04-05-2024 20:00:00,26.159933,75.780517,CO,2,109,8
India,Rajasthan,Tonk,"Shastri Nagar, Tonk - RSPCB",04-05-2024 20:00:00,26.159933,75.780517,OZONE,1,126,102
India,Rajasthan,Udaipur,"Ashok Nagar, Udaipur - RSPCB",04-05-2024 20:00:00,24.5886166,73.6321397,PM2.5,50,148,89
India,TamilNadu,Ariyalur,"Keelapalur, Ariyalur - TNPCB",04-05-2024 20:00:00,11.06825,79.07033,PM10,25,59,39
India,TamilNadu,Chengalpattu,"Crescent University, Chengalpattu - TNPCB",04-05-2024 20:00:00,12.8777316,80.0834807,SO2,NA,NA,NA
India,TamilNadu,Chengalpattu,"Crescent University, Chengalpattu - TNPCB",04-05-2024 20:00:00,12.8777316,80.0834807,CO,26,28,27
India,TamilNadu,Chennai,"Alandur Bus Depot, Chennai - CPCB",04-05-2024 20:00:00,12.9099161,80.1076538,PM10,28,69,40
India,TamilNadu,Chennai,"Alandur Bus Depot, Chennai - CPCB",04-05-2024 20:00:00,12.9099161,80.1076538,OZONE,5,10,7
India,TamilNadu,Chennai,"Manali, Chennai - CPCB",04-05-2024 20:00:00,13.164544,80.26285,NO2,NA,NA,NA
India,TamilNadu,Chennai,"Perungudi, Chennai - TNPCB",04-05-2024 20:00:00,12.9533,80.2357,PM2.5,2,35,16
India,TamilNadu,Chennai,"Perungudi, Chennai - TNPCB",04-05-2024 20:00:00,12.9533,80.2357,PM10,11,90,44
India,TamilNadu,Chennai,"Perungudi, Chennai - TNPCB",04-05-2024 20:00:00,12.9533,80.2357,NH3,1,2,2
India,TamilNadu,Chennai,"Perungudi, Chennai - TNPCB",04-05-2024 20:00:00,12.9533,80.2357,CO,4,75,32
India,TamilNadu,Chennai,"Royapuram, Chennai - TNPCB",04-05-2024 20:00:00,13.1036,80.2909,NH3,NA,NA,NA
India,TamilNadu,Chennai,"Royapuram, Chennai - TNPCB",04-05-2024 20:00:00,13.1036,80.2909,OZONE,9,11,9
India,TamilNadu,Chennai,"Velachery Res. Area, Chennai - CPCB",04-05-2024 20:00:00,13.0052189,80.2398125,NO2,NA,NA,NA
India,TamilNadu,Chennai,"Velachery Res. Area, Chennai - CPCB",04-05-2024 20:00:00,13.0052189,80.2398125,SO2,NA,NA,NA
India,TamilNadu,Cuddalore,"Kudikadu, Cuddalore - TNPCB",04-05-2024 20:00:00,11.6829898,79.7532099,PM10,NA,NA,NA
India,TamilNadu,Cuddalore,"Kudikadu, Cuddalore - TNPCB",04-05-2024 20:00:00,11.6829898,79.7532099,NO2,NA,NA,NA
India,TamilNadu,Cuddalore,"Semmandalam, Cuddalore - TNPCB",04-05-2024 20:00:00,11.7637683,79.7499835,NO2,2,6,4
India,TamilNadu,Cuddalore,"Semmandalam, Cuddalore - TNPCB",04-05-2024 20:00:00,11.7637683,79.7499835,OZONE,1,2,1
India,TamilNadu,Gummidipoondi,"Anthoni Pillai Nagar, Gummidipoondi - TNPCB",04-05-2024 20:00:00,13.4127,80.1081,PM2.5,12,58,42
India,TamilNadu,Gummidipoondi,"Anthoni Pillai Nagar, Gummidipoondi - TNPCB",04-05-2024 20:00:00,13.4127,80.1081,NO2,21,35,28
India,TamilNadu,Gummidipoondi,"Anthoni Pillai Nagar, Gummidipoondi - TNPCB",04-05-2024 20:00:00,13.4127,80.1081,NH3,2,3,3
India,TamilNadu,Ramanathapuram,"Chalai Bazaar, Ramanathapuram - TNPCB",04-05-2024 20:00:00,9.36399,78.831977,PM10,28,64,42
India,TamilNadu,Ramanathapuram,"Chalai Bazaar, Ramanathapuram - TNPCB",04-05-2024 20:00:00,9.36399,78.831977,SO2,7,10,8
India,TamilNadu,Salem,"Sona College of Technology, Salem - TNPCB",04-05-2024 20:00:00,11.679111,78.125052,PM10,44,105,68
India,TamilNadu,Tirupur,"Kumaran College, Tirupur - TNPCB",04-05-2024 20:00:00,11.0973603,77.3228673,PM2.5,11,31,20
India,TamilNadu,Virudhunagar,"Collectorate Office, Virudhunagar - TNPCB",04-05-2024 20:00:00,9.559382,77.948828,NH3,6,7,6
India,Telangana,Hyderabad,"Bollaram Industrial Area, Hyderabad - TSPCB",04-05-2024 20:00:00,17.540891,78.358528,NH3,4,7,5
India,Telangana,Hyderabad,"Bollaram Industrial Area, Hyderabad - TSPCB",04-05-2024 20:00:00,17.540891,78.358528,CO,2,60,13
India,Telangana,Hyderabad,"Central University, Hyderabad - TSPCB",04-05-2024 20:00:00,17.460103,78.334361,NO2,24,140,45
India,Telangana,Hyderabad,"Central University, Hyderabad - TSPCB",04-05-2024 20:00:00,17.460103,78.334361,SO2,7,42,12
India,Telangana,Hyderabad,"ECIL Kapra, Hyderabad - TSPCB",04-05-2024 20:00:00,17.470431,78.566959,NH3,6,10,7
India,Telangana,Hyderabad,"ICRISAT Patancheru, Hyderabad - TSPCB",04-05-2024 20:00:00,17.518400,78.278777,PM10,76,158,132
India,Telangana,Hyderabad,"ICRISAT Patancheru, Hyderabad - TSPCB",04-05-2024 20:00:00,17.518400,78.278777,NO2,16,18,16
India,Telangana,Hyderabad,"ICRISAT Patancheru, Hyderabad - TSPCB",04-05-2024 20:00:00,17.518400,78.278777,OZONE,2,83,62
India,Telangana,Hyderabad,"IITH Kandi, Hyderabad - TSPCB",04-05-2024 20:00:00,17.585705,78.126199,PM2.5,NA,NA,NA
India,Telangana,Hyderabad,"IITH Kandi, Hyderabad - TSPCB",04-05-2024 20:00:00,17.585705,78.126199,NH3,NA,NA,NA
India,Telangana,Hyderabad,"Kokapet, Hyderabad - TSPCB",04-05-2024 20:00:00,17.393559,78.339194,NO2,8,10,9
India,Telangana,Hyderabad,"Kokapet, Hyderabad - TSPCB",04-05-2024 20:00:00,17.393559,78.339194,NH3,2,2,2
India,Telangana,Hyderabad,"Kokapet, Hyderabad - TSPCB",04-05-2024 20:00:00,17.393559,78.339194,OZONE,1,7,6
India,Telangana,Hyderabad,"Kompally Municipal Office, Hyderabad - TSPCB",04-05-2024 20:00:00,17.544899,78.486949,NH3,5,7,6
India,Telangana,Hyderabad,"Kompally Municipal Office, Hyderabad - TSPCB",04-05-2024 20:00:00,17.544899,78.486949,OZONE,3,85,60
India,Telangana,Hyderabad,"Nacharam_TSIIC IALA, Hyderabad - TSPCB",04-05-2024 20:00:00,17.429398,78.569354,NO2,10,15,14
India,Telangana,Hyderabad,"New Malakpet, Hyderabad - TSPCB",04-05-2024 20:00:00,17.37206,78.50864,NO2,13,53,28
India,Telangana,Hyderabad,"Ramachandrapuram, Hyderabad - TSPCB",04-05-2024 20:00:00,17.528544,78.286195,NO2,NA,NA,NA
India,Telangana,Hyderabad,"Sanathnagar, Hyderabad - TSPCB",04-05-2024 20:00:00,17.4559458,78.4332152,SO2,8,27,18
India,Telangana,Hyderabad,"Somajiguda, Hyderabad - TSPCB",04-05-2024 20:00:00,17.417094,78.457437,NH3,4,10,8
India,Telangana,Hyderabad,"Zoo Park, Hyderabad - TSPCB",04-05-2024 20:00:00,17.349694,78.451437,OZONE,15,45,37
India,Tripura,Agartala,"Bardowali, Agartala - Tripura SPCB",04-05-2024 20:00:00,23.8175497,91.2726974,PM2.5,38,134,79
India,Tripura,Agartala,"Bardowali, Agartala - Tripura SPCB",04-05-2024 20:00:00,23.8175497,91.2726974,NO2,4,9,6
India,Tripura,Agartala,"Bardowali, Agartala - Tripura SPCB",04-05-2024 20:00:00,23.8175497,91.2726974,SO2,30,31,30
India,Tripura,Agartala,"Bardowali, Agartala - Tripura SPCB",04-05-2024 20:00:00,23.8175497,91.2726974,CO,10,27,19
India,Uttar_Pradesh,Agra,"Manoharpur, Agra - UPPCB",04-05-2024 20:00:00,27.23711,78.01936,SO2,7,35,18
India,Uttar_Pradesh,Agra,"Rohta, Agra - UPPCB",04-05-2024 20:00:00,27.106972,78.000111,NH3,2,2,2
India,Uttar_Pradesh,Agra,"Rohta, Agra - UPPCB",04-05-2024 20:00:00,27.106972,78.000111,CO,10,58,12
India,Uttar_Pradesh,Agra,"Rohta, Agra - UPPCB",04-05-2024 20:00:00,27.106972,78.000111,OZONE,12,15,13
India,Uttar_Pradesh,Agra,"Sanjay Palace, Agra - UPPCB",04-05-2024 20:00:00,27.19865833,78.00598056,PM2.5,13,88,44
India,Uttar_Pradesh,Agra,"Sector-3B Avas Vikas Colony, Agra - UPPCB",04-05-2024 20:00:00,27.19412,77.96237,NO2,40,42,41
India,Uttar_Pradesh,Agra,"Sector-3B Avas Vikas Colony, Agra - UPPCB",04-05-2024 20:00:00,27.19412,77.96237,NH3,6,16,9
India,Uttar_Pradesh,Agra,"Sector-3B Avas Vikas Colony, Agra - UPPCB",04-05-2024 20:00:00,27.19412,77.96237,OZONE,9,17,13
India,Uttar_Pradesh,Agra,"Shahjahan Garden, Agra - UPPCB",04-05-2024 20:00:00,27.169338,78.03582,PM10,NA,NA,NA
India,Uttar_Pradesh,Baghpat,"Sardar Patel Inter College, Baghpat - UPPCB",04-05-2024 20:00:00,28.964949,77.278761,NH3,1,5,4
India,Uttar_Pradesh,Bareilly,"Civil Lines, Bareilly - UPPCB",04-05-2024 20:00:00,28.359581,79.414455,CO,16,113,32
India,Uttar_Pradesh,Bareilly,"Rajendra Nagar, Bareilly - UPPCB",04-05-2024 20:00:00,28.38910936,79.42963708,NH3,1,1,1
India,Uttar_Pradesh,Bulandshahr,"Yamunapuram, Bulandshahr - UPPCB",04-05-2024 20:00:00,28.406963,77.849831,NO2,22,155,88
India,Uttar_Pradesh,Firozabad,"Nagla Bhau, Firozabad - UPPCB",04-05-2024 20:00:00,27.168897,78.376960,NH3,2,2,2
India,Uttar_Pradesh,Firozabad,"Vibhab Nagar, Firozabad - UPPCB",04-05-2024 20:00:00,27.1594,78.3953,PM2.5,53,281,106
India,Uttar_Pradesh,Firozabad,"Vibhab Nagar, Firozabad - UPPCB",04-05-2024 20:00:00,27.1594,78.3953,NH3,2,2,2
India,Uttar_Pradesh,Ghaziabad,"Indirapuram, Ghaziabad - UPPCB",04-05-2024 20:00:00,28.646233,77.358075,PM10,150,354,249
India,Uttar_Pradesh,Ghaziabad,"Loni, Ghaziabad - UPPCB",04-05-2024 20:00:00,28.757294,77.278792,PM2.5,82,323,202
India,Uttar_Pradesh,Ghaziabad,"Loni, Ghaziabad - UPPCB",04-05-2024 20:00:00,28.757294,77.278792,PM10,125,359,217
India,Uttar_Pradesh,Ghaziabad,"Loni, Ghaziabad - UPPCB",04-05-2024 20:00:00,28.757294,77.278792,CO,13,93,34
India,Uttar_Pradesh,Ghaziabad,"Sanjay Nagar, Ghaziabad - UPPCB",04-05-2024 20:00:00,28.685382,77.453839,PM2.5,84,344,226
India,Uttar_Pradesh,Ghaziabad,"Sanjay Nagar, Ghaziabad - UPPCB",04-05-2024 20:00:00,28.685382,77.453839,PM10,128,248,188
India,Uttar_Pradesh,Ghaziabad,"Sanjay Nagar, Ghaziabad - UPPCB",04-05-2024 20:00:00,28.685382,77.453839,NH3,7,10,8
India,Uttar_Pradesh,Ghaziabad,"Vasundhara, Ghaziabad - UPPCB",04-05-2024 20:00:00,28.6603346,77.3572563,PM2.5,68,215,140
India,Uttar_Pradesh,Ghaziabad,"Vasundhara, Ghaziabad - UPPCB",04-05-2024 20:00:00,28.6603346,77.3572563,CO,18,69,37
India,Uttar_Pradesh,Gorakhpur,"Madan Mohan Malaviya University of Technology, Gorakhpur - UPPCB",04-05-2024 20:00:00,26.730136,83.433859,SO2,37,44,40
India,Uttar_Pradesh,Greater Noida,"Knowledge Park - V, Greater Noida - UPPCB",04-05-2024 20:00:00,28.557054,77.453663,NH3,3,5,4
India,Uttar_Pradesh,Hapur,"Anand Vihar, Hapur - UPPCB",04-05-2024 20:00:00,28.725645,77.749675,SO2,15,103,57
India,Uttar_Pradesh,Jhansi,"Shivaji Nagar, Jhansi - UPPCB",04-05-2024 20:00:00,25.4547,78.6039,PM10,35,321,124
India,Uttar_Pradesh,Jhansi,"Shivaji Nagar, Jhansi - UPPCB",04-05-2024 20:00:00,25.4547,78.6039,NO2,1,115,50
India,Uttar_Pradesh,Jhansi,"Shivaji Nagar, Jhansi - UPPCB",04-05-2024 20:00:00,25.4547,78.6039,OZONE,3,69,39
India,Uttar_Pradesh,Kanpur,"FTI Kidwai Nagar, Kanpur - UPPCB",04-05-2024 20:00:00,26.428282,80.327067,OZONE,8,14,13
India,Uttar_Pradesh,Kanpur,"NSI Kalyanpur, Kanpur - UPPCB",04-05-2024 20:00:00,26.509954,80.249612,NH3,2,2,2
India,Uttar_Pradesh,Kanpur,"NSI Kalyanpur, Kanpur - UPPCB",04-05-2024 20:00:00,26.509954,80.249612,SO2,21,31,24
India,Uttar_Pradesh,Kanpur,"Nehru Nagar, Kanpur - UPPCB",04-05-2024 20:00:00,26.4703136,80.3229863,PM2.5,60,425,179
India,Uttar_Pradesh,Khurja,"Kalindi Kunj, Khurja - UPPCB",04-05-2024 20:00:00,28.2348927,77.8683002,NO2,3,4,3
India,Uttar_Pradesh,Khurja,"Kalindi Kunj, Khurja - UPPCB",04-05-2024 20:00:00,28.2348927,77.8683002,NH3,1,2,2
India,Uttar_Pradesh,Khurja,"Kalindi Kunj, Khurja - UPPCB",04-05-2024 20:00:00,28.2348927,77.8683002,SO2,51,88,61
India,Uttar_Pradesh,Khurja,"Kalindi Kunj, Khurja - UPPCB",04-05-2024 20:00:00,28.2348927,77.8683002,CO,44,89,61
India,Uttar_Pradesh,Khurja,"Kalindi Kunj, Khurja - UPPCB",04-05-2024 20:00:00,28.2348927,77.8683002,OZONE,31,53,41
India,Uttar_Pradesh,Lucknow,"B R Ambedkar University, Lucknow - UPPCB",04-05-2024 20:00:00,26.766433,80.927299,PM2.5,87,322,189
India,Uttar_Pradesh,Lucknow,"Gomti Nagar, Lucknow - UPPCB",04-05-2024 20:00:00,26.868120,81.005119,PM2.5,73,173,115
India,Uttar_Pradesh,Lucknow,"Gomti Nagar, Lucknow - UPPCB",04-05-2024 20:00:00,26.868120,81.005119,NO2,10,12,11
India,Uttar_Pradesh,Lucknow,"Gomti Nagar, Lucknow - UPPCB",04-05-2024 20:00:00,26.868120,81.005119,SO2,1,22,10
India,Uttar_Pradesh,Lucknow,"Gomti Nagar, Lucknow - UPPCB",04-05-2024 20:00:00,26.868120,81.005119,OZONE,33,42,41
India,Uttar_Pradesh,Lucknow,"Kendriya Vidyalaya, Lucknow - CPCB",04-05-2024 20:00:00,26.906111,80.948222,OZONE,21,159,118
India,Uttar_Pradesh,Lucknow,"Kukrail Picnic Spot-1, Lucknow - UPPCB",04-05-2024 20:00:00,26.90723,80.98579,NH3,2,2,2
India,Uttar_Pradesh,Lucknow,"Kukrail Picnic Spot-1, Lucknow - UPPCB",04-05-2024 20:00:00,26.90723,80.98579,OZONE,5,49,42
India,Uttar_Pradesh,Lucknow,"Talkatora District Industries Center, Lucknow - CPCB",04-05-2024 20:00:00,26.83399722,80.8917361,OZONE,2,81,48
India,Uttar_Pradesh,Meerut,"Ganga Nagar, Meerut - UPPCB",04-05-2024 20:00:00,28.999264,77.7590354,SO2,15,45,28
India,Uttar_Pradesh,Meerut,"Jai Bhim Nagar, Meerut - UPPCB",04-05-2024 20:00:00,28.9535882,77.7622941,NH3,4,8,5
India,Uttar_Pradesh,Meerut,"Pallavpuram Phase 2, Meerut - UPPCB",04-05-2024 20:00:00,29.063510,77.709723,SO2,11,55,32
India,Uttar_Pradesh,Moradabad,"Eco Herbal Park, Moradabad - UPPCB",04-05-2024 20:00:00,28.840739,78.697531,PM2.5,30,143,80
India,Uttar_Pradesh,Moradabad,"Eco Herbal Park, Moradabad - UPPCB",04-05-2024 20:00:00,28.840739,78.697531,NO2,14,58,32
India,Uttar_Pradesh,Moradabad,"Eco Herbal Park, Moradabad - UPPCB",04-05-2024 20:00:00,28.840739,78.697531,SO2,3,90,30
India,Uttar_Pradesh,Moradabad,"Kashiram Nagar, Moradabad - UPPCB",04-05-2024 20:00:00,28.849399,78.742362,OZONE,13,92,69
India,Uttar_Pradesh,Moradabad,"Transport Nagar, Moradabad - UPPCB",04-05-2024 20:00:00,28.802625,78.753728,PM10,83,140,111
India,Uttar_Pradesh,Moradabad,"Transport Nagar, Moradabad - UPPCB",04-05-2024 20:00:00,28.802625,78.753728,SO2,51,64,57
India,Uttar_Pradesh,Muzaffarnagar,"New Mandi, Muzaffarnagar - UPPCB",04-05-2024 20:00:00,29.4723508,77.7194031,PM10,132,307,200
India,Uttar_Pradesh,Muzaffarnagar,"New Mandi, Muzaffarnagar - UPPCB",04-05-2024 20:00:00,29.4723508,77.7194031,SO2,8,86,36
India,Uttar_Pradesh,Noida,"Sector - 125, Noida - UPPCB",04-05-2024 20:00:00,28.5447608,77.3231257,PM10,119,423,209
India,Uttar_Pradesh,Noida,"Sector - 125, Noida - UPPCB",04-05-2024 20:00:00,28.5447608,77.3231257,NO2,13,163,83
India,Uttar_Pradesh,Noida,"Sector-1, Noida - UPPCB",04-05-2024 20:00:00,28.5898,77.3101,OZONE,1,264,148
India,Uttar_Pradesh,Noida,"Sector-116, Noida - UPPCB",04-05-2024 20:00:00,28.569230,77.393848,NH3,6,10,8
India,Uttar_Pradesh,Noida,"Sector-116, Noida - UPPCB",04-05-2024 20:00:00,28.569230,77.393848,CO,20,120,52
India,Uttar_Pradesh,Prayagraj,"Jhunsi, Prayagraj - UPPCB",04-05-2024 20:00:00,25.425602,81.917152,SO2,30,32,31
India,Uttar_Pradesh,Prayagraj,"Jhunsi, Prayagraj - UPPCB",04-05-2024 20:00:00,25.425602,81.917152,CO,9,58,13
India,Uttar_Pradesh,Prayagraj,"Motilal Nehru NIT, Prayagraj - UPPCB",04-05-2024 20:00:00,25.494,81.863,PM2.5,27,67,47
India,Uttar_Pradesh,Prayagraj,"Motilal Nehru NIT, Prayagraj - UPPCB",04-05-2024 20:00:00,25.494,81.863,CO,12,54,18
India,Uttar_Pradesh,Prayagraj,"Nagar Nigam, Prayagraj - UPPCB",04-05-2024 20:00:00,25.44919916 ,81.82735986 ,NO2,5,5,5
India,Uttar_Pradesh,Prayagraj,"Nagar Nigam, Prayagraj - UPPCB",04-05-2024 20:00:00,25.44919916 ,81.82735986 ,NH3,4,10,6
India,Uttar_Pradesh,Varanasi,"Bhelupur, Varanasi - UPPCB",04-05-2024 20:00:00,25.301778,82.996789,PM10,44,156,73
India,Uttar_Pradesh,Varanasi,"IESD Banaras Hindu University, Varanasi - UPPCB",04-05-2024 20:00:00,25.262326,82.995408,PM10,NA,NA,NA
India,Uttar_Pradesh,Varanasi,"Maldahiya, Varanasi - UPPCB",04-05-2024 20:00:00,25.32393,82.99687,PM2.5,23,46,32
India,Uttar_Pradesh,Varanasi,"Maldahiya, Varanasi - UPPCB",04-05-2024 20:00:00,25.32393,82.99687,PM10,28,56,38
India,Uttar_Pradesh,Varanasi,"Maldahiya, Varanasi - UPPCB",04-05-2024 20:00:00,25.32393,82.99687,NH3,1,4,1
India,Uttar_Pradesh,Varanasi,"Maldahiya, Varanasi - UPPCB",04-05-2024 20:00:00,25.32393,82.99687,CO,6,119,16
India,Uttar_Pradesh,Vrindavan,"Omex Eternity, Vrindavan - UPPCB",04-05-2024 20:00:00,27.5714090,77.6557570,SO2,42,54,48
India,Uttar_Pradesh,Vrindavan,"Omex Eternity, Vrindavan - UPPCB",04-05-2024 20:00:00,27.5714090,77.6557570,CO,30,84,42
India,Uttarakhand,Dehradun,"Doon University, Dehradun - UKPCB",04-05-2024 20:00:00,30.269444,78.044167,PM10,69,140,101
India,Uttarakhand,Dehradun,"Doon University, Dehradun - UKPCB",04-05-2024 20:00:00,30.269444,78.044167,SO2,2,7,3
India,Uttarakhand,Dehradun,"Doon University, Dehradun - UKPCB",04-05-2024 20:00:00,30.269444,78.044167,OZONE,48,189,125
India,Uttarakhand,Kashipur,"Govt. Girls Inter College, Kashipur - UKPCB",04-05-2024 20:00:00,29.2124114,78.9611753,NH3,5,9,6
India,Uttarakhand,Rishikesh,"Shivaji Nagar, Rishikesh - UKPCB",04-05-2024 20:00:00,30.075911,78.2859547,NO2,8,53,23
India,Uttarakhand,Rishikesh,"Shivaji Nagar, Rishikesh - UKPCB",04-05-2024 20:00:00,30.075911,78.2859547,CO,14,61,25
India,West_Bengal,Asansol,"Asansol Court Area, Asansol - WBPCB",04-05-2024 20:00:00,23.685297,86.945968,PM2.5,170,344,296
India,West_Bengal,Asansol,"Asansol Court Area, Asansol - WBPCB",04-05-2024 20:00:00,23.685297,86.945968,NO2,19,140,47
India,West_Bengal,Durgapur,"Sidhu Kanhu Indoor Stadium, Durgapur - WBPCB",04-05-2024 20:00:00,23.5404352,87.2892225,PM10,116,247,177
India,West_Bengal,Haldia,"Priyambada Housing Estate, Haldia - WBPCB",04-05-2024 20:00:00,22.06047,88.109737,PM10,23,92,43
India,West_Bengal,Howrah,"Belur Math, Howrah - WBPCB",04-05-2024 20:00:00,22.629801,88.352017,SO2,3,9,7
India,West_Bengal,Howrah,"Belur Math, Howrah - WBPCB",04-05-2024 20:00:00,22.629801,88.352017,OZONE,16,52,37
India,West_Bengal,Kolkata,"Bidhannagar, Kolkata - WBPCB",04-05-2024 20:00:00,22.58157048,88.41002457,PM10,43,112,72
India,West_Bengal,Kolkata,"Bidhannagar, Kolkata - WBPCB",04-05-2024 20:00:00,22.58157048,88.41002457,SO2,11,16,13
India,West_Bengal,Kolkata,"Bidhannagar, Kolkata - WBPCB",04-05-2024 20:00:00,22.58157048,88.41002457,OZONE,24,67,46
India,West_Bengal,Kolkata,"Fort William, Kolkata - WBPCB",04-05-2024 20:00:00,22.556640,88.342674,PM2.5,45,88,58
India,West_Bengal,Kolkata,"Fort William, Kolkata - WBPCB",04-05-2024 20:00:00,22.556640,88.342674,NO2,14,25,18
India,West_Bengal,Kolkata,"Jadavpur, Kolkata - WBPCB",04-05-2024 20:00:00,22.49929,88.36917,NO2,17,59,21
India,West_Bengal,Kolkata,"Jadavpur, Kolkata - WBPCB",04-05-2024 20:00:00,22.49929,88.36917,OZONE,26,63,45
India,West_Bengal,Kolkata,"Rabindra Bharati University, Kolkata - WBPCB",04-05-2024 20:00:00,22.627847,88.380669,PM10,52,97,68
India,West_Bengal,Kolkata,"Rabindra Bharati University, Kolkata - WBPCB",04-05-2024 20:00:00,22.627847,88.380669,NH3,10,10,10
India,West_Bengal,Kolkata,"Rabindra Sarobar, Kolkata - WBPCB",04-05-2024 20:00:00,22.51106,88.35142,PM2.5,31,68,45
India,West_Bengal,Kolkata,"Victoria, Kolkata - WBPCB",04-05-2024 20:00:00,22.5448082,88.3403691,PM2.5,35,73,51
India,West_Bengal,Kolkata,"Victoria, Kolkata - WBPCB",04-05-2024 20:00:00,22.5448082,88.3403691,SO2,7,16,11
India,Andhra_Pradesh,Amaravati,"Secretariat, Amaravati - APPCB",04-05-2024 20:00:00,16.5150833,80.5181667,CO,2,48,23
India,Andhra_Pradesh,Anantapur,"Gulzarpet, Anantapur - APPCB",04-05-2024 20:00:00,14.675886,77.593027,PM2.5,40,76,65
India,Andhra_Pradesh,Chittoor,"Gangineni Cheruvu, Chittoor - APPCB",04-05-2024 20:00:00,13.204880,79.097889,PM10,36,106,77
India,Andhra_Pradesh,Tirupati,"Tirumala, Tirupati - APPCB",04-05-2024 20:00:00,13.67,79.35,NO2,11,45,26
India,Andhra_Pradesh,Tirupati,"Tirumala, Tirupati - APPCB",04-05-2024 20:00:00,13.67,79.35,SO2,1,10,5
India,Andhra_Pradesh,Tirupati,"Vaikuntapuram, Tirupati - APPCB",04-05-2024 20:00:00,13.615387,79.409230,PM10,13,37,17
India,Andhra_Pradesh,Vijayawada,"Kanuru, Vijayawada - APPCB",04-05-2024 20:00:00,16.486692,80.699436,CO,38,38,38
India,Andhra_Pradesh,Vijayawada,"Rajiv Gandhi Park, Vijayawada - APPCB",04-05-2024 20:00:00,16.509717,80.612222,NO2,31,42,36
India,Andhra_Pradesh,Vijayawada,"Rajiv Gandhi Park, Vijayawada - APPCB",04-05-2024 20:00:00,16.509717,80.612222,NH3,5,6,5
India,Andhra_Pradesh,Vijayawada,"Rajiv Gandhi Park, Vijayawada - APPCB",04-05-2024 20:00:00,16.509717,80.612222,OZONE,19,82,60
India,Arunachal_Pradesh,Naharlagun,"Naharlagun, Naharlagun - APSPCB",04-05-2024 20:00:00,27.103358,93.679645,OZONE,NA,NA,NA
India,Assam,Guwahati,"IITG, Guwahati - PCBA",04-05-2024 20:00:00,26.2028636,91.70046436,PM2.5,NA,NA,NA
India,Assam,Guwahati,"IITG, Guwahati - PCBA",04-05-2024 20:00:00,26.2028636,91.70046436,CO,NA,NA,NA
India,Assam,Guwahati,"LGBI Airport, Guwahati - PCBA",04-05-2024 20:00:00,26.10887,91.589544,CO,24,111,50
India,Assam,Guwahati,"LGBI Airport, Guwahati - PCBA",04-05-2024 20:00:00,26.10887,91.589544,OZONE,2,17,10
India,Assam,Guwahati,"Pan Bazaar, Guwahati - PCBA",04-05-2024 20:00:00,26.187500,91.744194,NH3,3,4,3
India,Assam,Guwahati,"Pan Bazaar, Guwahati - PCBA",04-05-2024 20:00:00,26.187500,91.744194,SO2,39,64,48
India,Assam,Nagaon,"Christianpatty, Nagaon - PCBA",04-05-2024 20:00:00,26.349082,92.68449,NH3,2,7,4
India,Assam,Nalbari,"Bata Chowk, Nalbari - PCBA",04-05-2024 20:00:00,26.446912,91.439057,SO2,5,12,10
India,Assam,Silchar,"Tarapur, Silchar - PCBA",04-05-2024 20:00:00,24.82827,92.79525,NH3,1,1,1
India,Assam,Silchar,"Tarapur, Silchar - PCBA",04-05-2024 20:00:00,24.82827,92.79525,CO,20,42,38
India,Bihar,Araria,"Kharahiya Basti, Araria - BSPCB",04-05-2024 20:00:00,26.146529,87.454184,PM10,83,191,120
India,Bihar,Arrah,"New DM Office, Arrah - BSPCB",04-05-2024 20:00:00,25.5626095,84.663264,SO2,3,50,24
India,Bihar,Arrah,"New DM Office, Arrah - BSPCB",04-05-2024 20:00:00,25.5626095,84.663264,OZONE,13,32,15
India,Bihar,Aurangabad,"Gurdeo Nagar, Aurangabad - BSPCB",04-05-2024 20:00:00,24.75746,84.366208,SO2,NA,NA,NA
India,Bihar,Aurangabad,"Gurdeo Nagar, Aurangabad - BSPCB",04-05-2024 20:00:00,24.75746,84.366208,OZONE,21,165,117
India,Bihar,Bhagalpur,"DM Office_Kachari Chowk, Bhagalpur - BSPCB",04-05-2024 20:00:00,25.251013,86.989001,NO2,54,97,79
India,Bihar,Bhagalpur,"Mayaganj, Bhagalpur - BSPCB",04-05-2024 20:00:00,25.265194,87.012947,NH3,7,9,8
India,Bihar,Bihar Sharif,"D M Colony, Bihar Sharif - BSPCB",04-05-2024 20:00:00,25.204762,85.514960,PM2.5,NA,NA,NA
India,Bihar,Buxar,"Charitra Van, Buxar - BSPCB (Formerly known as Central Jail)",04-05-2024 20:00:00,25.567520,83.966379,PM10,NA,NA,NA
India,Bihar,Chhapra,"Darshan Nagar, Chhapra - BSPCB",04-05-2024 20:00:00,25.7808257,84.7446768,CO,58,78,65
India,Bihar,Gaya,"Collectorate, Gaya - BSPCB",04-05-2024 20:00:00,24.7955,84.9994,SO2,4,66,23
India,Bihar,Gaya,"Kareemganj, Gaya - BSPCB",04-05-2024 20:00:00,24.792403,84.992416,PM2.5,15,140,68
India,Bihar,Gaya,"SFTI Kusdihra, Gaya - BSPCB",04-05-2024 20:00:00,24.762518,84.982348,NH3,4,7,6
India,Bihar,Gaya,"SFTI Kusdihra, Gaya - BSPCB",04-05-2024 20:00:00,24.762518,84.982348,SO2,4,27,11
India,Bihar,Gaya,"SFTI Kusdihra, Gaya - BSPCB",04-05-2024 20:00:00,24.762518,84.982348,CO,24,82,29
India,Bihar,Hajipur,"Industrial Area, Hajipur - BSPCB",04-05-2024 20:00:00,25.697189,85.245900,NO2,59,63,61
India,Bihar,Hajipur,"Industrial Area, Hajipur - BSPCB",04-05-2024 20:00:00,25.697189,85.245900,CO,34,100,43
India,Bihar,Katihar,"Mirchaibari, Katihar - BSPCB",04-05-2024 20:00:00,25.560083,87.553265,OZONE,11,17,15
India,Bihar,Kishanganj,"SDM Office_Khagra, Kishanganj - BSPCB",04-05-2024 20:00:00,26.0881305,87.93840336,OZONE,37,62,38
India,Bihar,Manguraha,"Forest Rest House, Manguraha - BSPCB",04-05-2024 20:00:00,27.308328,84.531742,NO2,10,22,17
India,Bihar,Manguraha,"Forest Rest House, Manguraha - BSPCB",04-05-2024 20:00:00,27.308328,84.531742,NH3,1,3,2
India,Bihar,Manguraha,"Forest Rest House, Manguraha - BSPCB",04-05-2024 20:00:00,27.308328,84.531742,OZONE,16,180,69
India,Bihar,Motihari,"Gandak Colony, Motihari - BSPCB",04-05-2024 20:00:00,26.63086,84.90051,OZONE,28,100,81
India,Bihar,Munger,"Town Hall, Munger - BSPCB",04-05-2024 20:00:00,25.376776,86.471523,PM2.5,68,364,144
India,Bihar,Munger,"Town Hall, Munger - BSPCB",04-05-2024 20:00:00,25.376776,86.471523,NH3,2,3,3
India,Bihar,Muzaffarpur,"Buddha Colony, Muzaffarpur - BSPCB",04-05-2024 20:00:00,26.11442,85.39813,CO,27,96,34
India,Bihar,Muzaffarpur,"MIT-Daudpur Kothi, Muzaffarpur - BSPCB",04-05-2024 20:00:00,26.1403345,85.3650192,PM10,97,224,136
India,Bihar,Patna,"DRM Office Danapur, Patna - BSPCB",04-05-2024 20:00:00,25.586562,85.043586,NH3,2,4,3
India,Bihar,Patna,"Govt. High School Shikarpur, Patna - BSPCB",04-05-2024 20:00:00,25.592539,85.227158,SO2,8,11,10
India,Bihar,Patna,"Muradpur, Patna - BSPCB",04-05-2024 20:00:00,25.619651,85.147382,NH3,1,4,2
India,Bihar,Patna,"Rajbansi Nagar, Patna - BSPCB",04-05-2024 20:00:00,25.599486,85.113666,SO2,17,37,24
India,Bihar,Patna,"Rajbansi Nagar, Patna - BSPCB",04-05-2024 20:00:00,25.599486,85.113666,OZONE,4,179,113
India,Bihar,Patna,"Samanpura, Patna - BSPCB",04-05-2024 20:00:00,25.596727,85.085624,PM10,197,500,386
India,Bihar,Purnia,"Mariam Nagar, Purnia - BSPCB",04-05-2024 20:00:00,25.366336,87.117468,NO2,4,8,5
India,Bihar,Purnia,"Mariam Nagar, Purnia - BSPCB",04-05-2024 20:00:00,25.366336,87.117468,SO2,7,18,11
India,Bihar,Purnia,"Mariam Nagar, Purnia - BSPCB",04-05-2024 20:00:00,25.366336,87.117468,OZONE,3,49,29
India,Bihar,Rajgir,"Dangi Tola, Rajgir - BSPCB",04-05-2024 20:00:00,25.03280,85.41948,PM10,49,153,94
India,Bihar,Saharsa,"Police Line, Saharsa - BSPCB",04-05-2024 20:00:00,25.892357,86.590325,SO2,16,16,16
India,Bihar,Saharsa,"Police Line, Saharsa - BSPCB",04-05-2024 20:00:00,25.892357,86.590325,CO,53,54,54
India,Bihar,Saharsa,"Police Line, Saharsa - BSPCB",04-05-2024 20:00:00,25.892357,86.590325,OZONE,14,50,40
India,Bihar,Samastipur,"DM Office_Kasipur, Samastipur - BSPCB",04-05-2024 20:00:00,25.859655,85.77944,NH3,1,4,3
India,Bihar,Samastipur,"DM Office_Kasipur, Samastipur - BSPCB",04-05-2024 20:00:00,25.859655,85.77944,SO2,7,10,10
India,Bihar,Siwan,"Chitragupta Nagar, Siwan - BSPCB",04-05-2024 20:00:00,26.2271665,84.3570427,PM2.5,110,443,252
India,Chandigarh,Chandigarh,"Sector 22, Chandigarh - CPCC",04-05-2024 20:00:00,30.735567,76.775714,PM10,42,134,102
India,Chandigarh,Chandigarh,"Sector 22, Chandigarh - CPCC",04-05-2024 20:00:00,30.735567,76.775714,NO2,14,44,29
India,Chandigarh,Chandigarh,"Sector-25, Chandigarh - CPCC",04-05-2024 20:00:00,30.751462,76.762879,NO2,2,16,8
India,Chandigarh,Chandigarh,"Sector-53, Chandigarh - CPCC",04-05-2024 20:00:00,30.719859,76.738637,PM2.5,25,163,74
India,Chhattisgarh,Bhilai,"Civic Center, Bhilai - Bhilai Steel Plant",04-05-2024 20:00:00,21.185571,81.343175,OZONE,9,93,72
India,Chhattisgarh,Chhal,"Nawapara SECL Colony, Chhal - CECB",04-05-2024 20:00:00,22.118125,83.140608,CO,25,80,38
India,Chhattisgarh,Korba,"Rampur, Korba - CECB",04-05-2024 20:00:00,22.368195,82.746431,NH3,1,1,1
India,Chhattisgarh,Korba,"Rampur, Korba - CECB",04-05-2024 20:00:00,22.368195,82.746431,SO2,22,78,46
India,Chhattisgarh,Korba,"Urja Nagar, Korba - CECB",04-05-2024 20:00:00,22.348441,82.549611,PM10,23,366,88
India,Chhattisgarh,Kunjemura,"OP Jindal School, Kunjemura - CECB",04-05-2024 20:00:00,22.126650,83.483212,PM2.5,59,348,161
India,Chhattisgarh,Kunjemura,"OP Jindal School, Kunjemura - CECB",04-05-2024 20:00:00,22.126650,83.483212,NH3,1,7,3
India,Chhattisgarh,Kunjemura,"OP Jindal School, Kunjemura - CECB",04-05-2024 20:00:00,22.126650,83.483212,OZONE,4,120,95
India,Chhattisgarh,Milupara,"Govt. Higher Secondary School, Milupara - CECB",04-05-2024 20:00:00,22.1910172,83.5197009,PM10,NA,NA,NA
India,Chhattisgarh,Raipur,"AIIMS, Raipur - CECB",04-05-2024 20:00:00,21.258815,81.578979,PM2.5,NA,NA,NA
India,Chhattisgarh,Raipur,"AIIMS, Raipur - CECB",04-05-2024 20:00:00,21.258815,81.578979,NO2,NA,NA,NA
India,Chhattisgarh,Raipur,"AIIMS, Raipur - CECB",04-05-2024 20:00:00,21.258815,81.578979,SO2,NA,NA,NA
India,Chhattisgarh,Raipur,"Bhatagaon New ISBT, Raipur - CECB",04-05-2024 20:00:00,21.219665,81.630094,NO2,40,86,57
India,Chhattisgarh,Raipur,"Bhatagaon New ISBT, Raipur - CECB",04-05-2024 20:00:00,21.219665,81.630094,SO2,1,4,2
India,Chhattisgarh,Raipur,"Krishak Nagar, Raipur - CECB",04-05-2024 20:00:00,21.237755,81.705301,SO2,9,75,24
India,Chhattisgarh,Raipur,"Krishak Nagar, Raipur - CECB",04-05-2024 20:00:00,21.237755,81.705301,CO,14,58,24
India,Chhattisgarh,Raipur,"Krishak Nagar, Raipur - CECB",04-05-2024 20:00:00,21.237755,81.705301,OZONE,1,157,84
India,Chhattisgarh,Tumidih,"OP Jindal Industrial Park, Tumidih - CECB",04-05-2024 20:00:00,22.06631475,83.33820077,PM10,54,482,153
India,Chhattisgarh,Tumidih,"OP Jindal Industrial Park, Tumidih - CECB",04-05-2024 20:00:00,22.06631475,83.33820077,NH3,1,2,2
India,Delhi,Delhi,"Alipur, Delhi - DPCC",04-05-2024 20:00:00,28.815329,77.153010,SO2,13,64,34
India,Delhi,Delhi,"Alipur, Delhi - DPCC",04-05-2024 20:00:00,28.815329,77.153010,CO,40,68,46
India,Delhi,Delhi,"Anand Vihar, Delhi - DPCC",04-05-2024 20:00:00,28.647622,77.3158090,SO2,27,77,54
India,Delhi,Delhi,"Ashok Vihar, Delhi - DPCC",04-05-2024 20:00:00,28.695381,77.181665,NH3,9,21,13
India,Delhi,Delhi,"Ashok Vihar, Delhi - DPCC",04-05-2024 20:00:00,28.695381,77.181665,CO,28,88,45
India,Delhi,Delhi,"Bawana, Delhi - DPCC",04-05-2024 20:00:00,28.776200,77.051074,PM10,134,460,294
India,Delhi,Delhi,"CRRI Mathura Road, Delhi - IMD",04-05-2024 20:00:00,28.5512005,77.2735737,PM2.5,99,411,299
India,Delhi,Delhi,"CRRI Mathura Road, Delhi - IMD",04-05-2024 20:00:00,28.5512005,77.2735737,CO,38,102,51
India,Delhi,Delhi,"CRRI Mathura Road, Delhi - IMD",04-05-2024 20:00:00,28.5512005,77.2735737,OZONE,3,122,54
India,Delhi,Delhi,"DTU, Delhi - CPCB",04-05-2024 20:00:00,28.7500499,77.1112615,PM10,129,500,278
India,Delhi,Delhi,"DTU, Delhi - CPCB",04-05-2024 20:00:00,28.7500499,77.1112615,NH3,1,10,5
India,Delhi,Delhi,"IGI Airport (T3), Delhi - IMD",04-05-2024 20:00:00,28.5627763,77.1180053,CO,42,94,56
India,Delhi,Delhi,"IGI Airport (T3), Delhi - IMD",04-05-2024 20:00:00,28.5627763,77.1180053,OZONE,5,55,33
India,Delhi,Delhi,"IHBAS, Dilshad Garden, Delhi - CPCB",04-05-2024 20:00:00,28.6811736,77.3025234,CO,8,54,30
India,Delhi,Delhi,"ITO, Delhi - CPCB",04-05-2024 20:00:00,28.628624,77.241060,PM10,118,364,169
India,Delhi,Delhi,"ITO, Delhi - CPCB",04-05-2024 20:00:00,28.628624,77.241060,SO2,15,43,27
India,Delhi,Delhi,"Jahangirpuri, Delhi - DPCC",04-05-2024 20:00:00,28.732820,77.170633,PM2.5,102,439,302
India,Delhi,Delhi,"Jahangirpuri, Delhi - DPCC",04-05-2024 20:00:00,28.732820,77.170633,NH3,7,51,19
India,Delhi,Delhi,"Jawaharlal Nehru Stadium, Delhi - DPCC",04-05-2024 20:00:00,28.580280,77.233829,CO,40,106,57
India,Delhi,Delhi,"Lodhi Road, Delhi - IITM",04-05-2024 20:00:00,28.588333,77.221667,PM2.5,14,332,148
India,Delhi,Delhi,"Lodhi Road, Delhi - IITM",04-05-2024 20:00:00,28.588333,77.221667,NH3,8,12,10
India,Delhi,Delhi,"Lodhi Road, Delhi - IITM",04-05-2024 20:00:00,28.588333,77.221667,SO2,21,71,40
India,Delhi,Delhi,"Lodhi Road, Delhi - IMD",04-05-2024 20:00:00,28.5918245,77.2273074,PM2.5,89,402,247
India,Delhi,Delhi,"Lodhi Road, Delhi - IMD",04-05-2024 20:00:00,28.5918245,77.2273074,CO,12,30,16
India,Delhi,Delhi,"Major Dhyan Chand National Stadium, Delhi - DPCC",04-05-2024 20:00:00,28.611281,77.237738,PM10,142,418,213
India,Delhi,Delhi,"Major Dhyan Chand National Stadium, Delhi - DPCC",04-05-2024 20:00:00,28.611281,77.237738,NO2,29,202,102
India,Delhi,Delhi,"Mundka, Delhi - DPCC",04-05-2024 20:00:00,28.684678,77.076574,PM2.5,98,500,361
India,Delhi,Delhi,"Mundka, Delhi - DPCC",04-05-2024 20:00:00,28.684678,77.076574,OZONE,53,279,197
India,Delhi,Delhi,"NSIT Dwarka, Delhi - CPCB",04-05-2024 20:00:00,28.60909,77.0325413,SO2,1,42,17
India,Delhi,Delhi,"Najafgarh, Delhi - DPCC",04-05-2024 20:00:00,28.570173,76.933762,PM10,95,483,307
India,Delhi,Delhi,"Najafgarh, Delhi - DPCC",04-05-2024 20:00:00,28.570173,76.933762,SO2,4,24,15
India,Delhi,Delhi,"Narela, Delhi - DPCC",04-05-2024 20:00:00,28.822836,77.101981,NH3,3,6,4
India,Delhi,Delhi,"Narela, Delhi - DPCC",04-05-2024 20:00:00,28.822836,77.101981,SO2,15,97,44
India,Delhi,Delhi,"Narela, Delhi - DPCC",04-05-2024 20:00:00,28.822836,77.101981,CO,26,68,37
India,Delhi,Delhi,"Nehru Nagar, Delhi - DPCC",04-05-2024 20:00:00,28.567890,77.250515,PM2.5,203,457,303
India,Delhi,Delhi,"Nehru Nagar, Delhi - DPCC",04-05-2024 20:00:00,28.567890,77.250515,SO2,6,16,8
India,Delhi,Delhi,"New Moti Bagh, Delhi - MHUA",04-05-2024 20:00:00,28.57834,77.18400,NO2,7,51,26
India,Delhi,Delhi,"Okhla Phase-2, Delhi - DPCC",04-05-2024 20:00:00,28.530785,77.271255,SO2,16,24,20
India,Delhi,Delhi,"Okhla Phase-2, Delhi - DPCC",04-05-2024 20:00:00,28.530785,77.271255,CO,59,128,79
India,Delhi,Delhi,"Patparganj, Delhi - DPCC",04-05-2024 20:00:00,28.623763,77.287209,PM10,185,453,284
India,Delhi,Delhi,"Patparganj, Delhi - DPCC",04-05-2024 20:00:00,28.623763,77.287209,CO,50,113,73
India,Delhi,Delhi,"Pusa, Delhi - DPCC",04-05-2024 20:00:00,28.639652,77.146275,PM10,185,500,334
India,Delhi,Delhi,"Pusa, Delhi - IMD",04-05-2024 20:00:00,28.636110,77.173332,PM10,NA,NA,NA
India,Delhi,Delhi,"R K Puram, Delhi - DPCC",04-05-2024 20:00:00,28.563262,77.186937,PM10,112,500,282
India,Delhi,Delhi,"Rohini, Delhi - DPCC",04-05-2024 20:00:00,28.732528,77.119920,NO2,15,187,67
India,Delhi,Delhi,"Rohini, Delhi - DPCC",04-05-2024 20:00:00,28.732528,77.119920,NH3,7,13,10
India,Delhi,Delhi,"Rohini, Delhi - DPCC",04-05-2024 20:00:00,28.732528,77.119920,OZONE,5,261,188
India,Delhi,Delhi,"Shadipur, Delhi - CPCB",04-05-2024 20:00:00,28.6514781,77.1473105,OZONE,12,35,25
India,Delhi,Delhi,"Sirifort, Delhi - CPCB",04-05-2024 20:00:00,28.5504249,77.2159377,NO2,59,77,71
India,Delhi,Delhi,"Sonia Vihar, Delhi - DPCC",04-05-2024 20:00:00,28.710508,77.249485,PM2.5,80,355,238
India,Delhi,Delhi,"Sonia Vihar, Delhi - DPCC",04-05-2024 20:00:00,28.710508,77.249485,PM10,112,419,242
India,Delhi,Delhi,"Sonia Vihar, Delhi - DPCC",04-05-2024 20:00:00,28.710508,77.249485,CO,57,100,65
India,Delhi,Delhi,"Sri Aurobindo Marg, Delhi - DPCC",04-05-2024 20:00:00,28.531346,77.190156,PM2.5,103,414,247
India,Delhi,Delhi,"Sri Aurobindo Marg, Delhi - DPCC",04-05-2024 20:00:00,28.531346,77.190156,PM10,136,406,211
India,Delhi,Delhi,"Sri Aurobindo Marg, Delhi - DPCC",04-05-2024 20:00:00,28.531346,77.190156,NH3,5,9,7
India,Delhi,Delhi,"Vivek Vihar, Delhi - DPCC",04-05-2024 20:00:00,28.672342,77.315260,PM10,148,346,244
India,Delhi,Delhi,"Vivek Vihar, Delhi - DPCC",04-05-2024 20:00:00,28.672342,77.315260,NH3,15,16,16
India,Delhi,Delhi,"Wazirpur, Delhi - DPCC",04-05-2024 20:00:00,28.699793,77.165453,CO,60,128,83
India,Gujarat,Ahmedabad,"Gyaspur, Ahmedabad - IITM",04-05-2024 20:00:00,22.977134,72.553024,NH3,3,21,13
India,Gujarat,Ahmedabad,"Gyaspur, Ahmedabad - IITM",04-05-2024 20:00:00,22.977134,72.553024,CO,20,72,39
India,Gujarat,Ahmedabad,"Maninagar, Ahmedabad - GPCB",04-05-2024 20:00:00,23.002657,72.591912,OZONE,8,77,46
India,Gujarat,Ahmedabad,"Raikhad, Ahmedabad - IITM",04-05-2024 20:00:00,23.020509,72.579261,PM10,74,171,117
India,Gujarat,Ahmedabad,"Raikhad, Ahmedabad - IITM",04-05-2024 20:00:00,23.020509,72.579261,SO2,4,30,8
India,Gujarat,Ahmedabad,"Raikhad, Ahmedabad - IITM",04-05-2024 20:00:00,23.020509,72.579261,OZONE,1,13,8
India,Gujarat,Ahmedabad,"Rakhial, Ahmedabad - IITM",04-05-2024 20:00:00,23.016834,72.625775,PM2.5,77,368,163
India,Gujarat,Ahmedabad,"SAC ISRO Satellite, Ahmedabad - IITM",04-05-2024 20:00:00,23.023389,72.515201,PM2.5,83,84,84
India,Gujarat,Ahmedabad,"SAC ISRO Satellite, Ahmedabad - IITM",04-05-2024 20:00:00,23.023389,72.515201,PM10,90,90,90
India,Gujarat,Ahmedabad,"SAC ISRO Satellite, Ahmedabad - IITM",04-05-2024 20:00:00,23.023389,72.515201,NO2,32,33,32
India,Gujarat,Ahmedabad,"Sardar Vallabhbhai Patel Stadium, Ahmedabad - IITM",04-05-2024 20:00:00,23.043070,72.562968,PM10,74,175,112
India,Gujarat,Ankleshwar,"GIDC, Ankleshwar - GPCB",04-05-2024 20:00:00,21.613267,73.010555,CO,4,88,16
India,Gujarat,Ankleshwar,"GIDC, Ankleshwar - GPCB",04-05-2024 20:00:00,21.613267,73.010555,OZONE,21,33,29
India,Gujarat,Gandhinagar,"Sector-10, Gandhinagar - GPCB",04-05-2024 20:00:00,23.221714,72.654328,NO2,14,324,39
India,Gujarat,Surat,"Science Center, Surat - SMC",04-05-2024 20:00:00,21.170046,72.795405,PM2.5,2,28,11
India,Gujarat,Surat,"Science Center, Surat - SMC",04-05-2024 20:00:00,21.170046,72.795405,PM10,10,49,24
India,Gujarat,Surat,"Science Center, Surat - SMC",04-05-2024 20:00:00,21.170046,72.795405,SO2,1,6,3
India,Gujarat,Vapi,"Phase-1 GIDC, Vapi - GPCB",04-05-2024 20:00:00,20.362421,72.918013,NH3,2,2,2
India,Gujarat,Vapi,"Phase-1 GIDC, Vapi - GPCB",04-05-2024 20:00:00,20.362421,72.918013,SO2,53,54,54
India,Haryana,Ambala,"Patti Mehar, Ambala - HSPCB",04-05-2024 20:00:00,30.379589,76.778328,NO2,3,4,4
India,Haryana,Bahadurgarh,"Arya Nagar, Bahadurgarh - HSPCB",04-05-2024 20:00:00,28.6701,76.9254,NO2,21,25,22
India,Haryana,Bahadurgarh,"Arya Nagar, Bahadurgarh - HSPCB",04-05-2024 20:00:00,28.6701,76.9254,SO2,18,112,55
India,Haryana,Ballabgarh,"Nathu Colony, Ballabgarh - HSPCB",04-05-2024 20:00:00,28.3419248,77.319699,PM2.5,97,376,297
India,Haryana,Ballabgarh,"Nathu Colony, Ballabgarh - HSPCB",04-05-2024 20:00:00,28.3419248,77.319699,NH3,1,2,2
India,Haryana,Bhiwani,"H.B. Colony, Bhiwani - HSPCB",04-05-2024 20:00:00,28.806223,76.141105,NH3,6,6,6
India,Haryana,Dharuhera,"Municipal Corporation Office, Dharuhera -  HSPCB",04-05-2024 20:00:00,28.206800,76.799700,NO2,48,112,81
India,Haryana,Faridabad,"New Industrial Town, Faridabad - HSPCB",04-05-2024 20:00:00,28.39072,77.30059,PM10,122,472,270
India,Haryana,Faridabad,"Sector 11, Faridabad - HSPCB",04-05-2024 20:00:00,28.376058,77.315741,NH3,6,6,6
India,Haryana,Faridabad,"Sector 30, Faridabad - HSPCB",04-05-2024 20:00:00,28.4417,77.3217,PM2.5,266,305,293
India,Haryana,Faridabad,"Sector 30, Faridabad - HSPCB",04-05-2024 20:00:00,28.4417,77.3217,CO,54,57,54
India,Haryana,Fatehabad,"Huda Sector, Fatehabad - HSPCB",04-05-2024 20:00:00,29.503664,75.467934,NO2,28,31,30
India,Haryana,Fatehabad,"Huda Sector, Fatehabad - HSPCB",04-05-2024 20:00:00,29.503664,75.467934,OZONE,45,66,61
India,Haryana,Gurugram,"Sector-51, Gurugram - HSPCB",04-05-2024 20:00:00,28.4227,77.0667,PM2.5,66,449,351
India,Haryana,Gurugram,"Sector-51, Gurugram - HSPCB",04-05-2024 20:00:00,28.4227,77.0667,NO2,13,29,23
India,Haryana,Gurugram,"Sector-51, Gurugram - HSPCB",04-05-2024 20:00:00,28.4227,77.0667,CO,22,106,38
India,Haryana,Gurugram,"Teri Gram, Gurugram - HSPCB",04-05-2024 20:00:00,28.4275,77.1465,PM10,71,432,312
India,Haryana,Gurugram,"Teri Gram, Gurugram - HSPCB",04-05-2024 20:00:00,28.4275,77.1465,NH3,25,41,33
India,Haryana,Jind,"Police Lines, Jind - HSPCB",04-05-2024 20:00:00,29.307814,76.337619,SO2,7,42,21
India,Haryana,Jind,"Police Lines, Jind - HSPCB",04-05-2024 20:00:00,29.307814,76.337619,OZONE,8,29,17
India,Haryana,Kaithal,"Rishi Nagar, Kaithal - HSPCB",04-05-2024 20:00:00,29.8006,76.4155,PM2.5,47,100,76
India,Haryana,Karnal,"Sector-12, Karnal - HSPCB",04-05-2024 20:00:00,29.695300,77.002700,PM2.5,70,149,102
India,Haryana,Karnal,"Sector-12, Karnal - HSPCB",04-05-2024 20:00:00,29.695300,77.002700,NO2,7,12,10
India,Haryana,Karnal,"Sector-12, Karnal - HSPCB",04-05-2024 20:00:00,29.695300,77.002700,NH3,10,13,11
India,Haryana,Mandikhera,"General Hospital, Mandikhera - HSPCB",04-05-2024 20:00:00,27.9002,76.9938,PM10,17,165,94
India,Haryana,Manesar,"Sector-2 IMT, Manesar - HSPCB",04-05-2024 20:00:00,28.360699,76.936090,PM2.5,70,325,228
India,Haryana,Manesar,"Sector-2 IMT, Manesar - HSPCB",04-05-2024 20:00:00,28.360699,76.936090,NH3,16,51,29
India,Haryana,Narnaul,"Shastri Nagar, Narnaul - HSPCB",04-05-2024 20:00:00,28.060249,76.113115,PM10,89,196,128
India,Haryana,Palwal,"Shyam Nagar, Palwal - HSPCB",04-05-2024 20:00:00,28.1485564,77.3320667,PM2.5,54,105,81
India,Haryana,Palwal,"Shyam Nagar, Palwal - HSPCB",04-05-2024 20:00:00,28.1485564,77.3320667,NO2,23,24,24
India,Haryana,Palwal,"Shyam Nagar, Palwal - HSPCB",04-05-2024 20:00:00,28.1485564,77.3320667,CO,19,39,28
India,Haryana,Panchkula,"Sector-6, Panchkula - HSPCB ",04-05-2024 20:00:00,30.7057778,76.8531805555555,OZONE,51,61,56
India,Haryana,Panipat,"Sector-18, Panipat - HSPCB",04-05-2024 20:00:00,29.497973,76.993331,OZONE,30,30,30
India,Haryana,Rohtak,"MD University, Rohtak - HSPCB",04-05-2024 20:00:00,28.52123,76.37138,OZONE,44,53,49
India,Haryana,Sirsa,"F-Block, Sirsa - HSPCB",04-05-2024 20:00:00,29.536400,75.015800,CO,60,102,66
India,Haryana,Sonipat,"Murthal, Sonipat - HSPCB",04-05-2024 20:00:00,29.027200,77.062100,NO2,37,44,40
India,Haryana,Yamuna Nagar,"Gobind Pura, Yamuna Nagar - HSPCB",04-05-2024 20:00:00,30.1480566,77.2893471,NH3,1,6,4
India,Haryana,Yamuna Nagar,"Gobind Pura, Yamuna Nagar - HSPCB",04-05-2024 20:00:00,30.1480566,77.2893471,CO,34,65,43
India,Himachal Pradesh,Baddi,"HIMUDA Complex Phase-1, Baddi - HPPCB",04-05-2024 20:00:00,30.943887,76.801991,PM10,57,193,128
India,Himachal Pradesh,Baddi,"HIMUDA Complex Phase-1, Baddi - HPPCB",04-05-2024 20:00:00,30.943887,76.801991,SO2,10,73,28
India,Jharkhand,Dhanbad,"Kalakusuma, Dhanbad - DMC",04-05-2024 20:00:00,23.811548,86.481238,PM2.5,3,215,122
India,Jharkhand,Dhanbad,"Kalakusuma, Dhanbad - DMC",04-05-2024 20:00:00,23.811548,86.481238,NO2,46,171,130
India,Jharkhand,Dhanbad,"Sardar Patel Nagar, Dhanbad - JSPCB",04-05-2024 20:00:00,23.80569,86.44268,PM2.5,NA,NA,NA
India,Jharkhand,Dhanbad,"Sardar Patel Nagar, Dhanbad - JSPCB",04-05-2024 20:00:00,23.80569,86.44268,NO2,NA,NA,NA
India,Jharkhand,Pathardih,"Mohalbani Ghat, Pathardih - DMC",04-05-2024 20:00:00,23.669880,86.411725,PM10,NA,NA,NA
India,Karnataka,Bagalkot,"Vidayagiri, Bagalkot - KSPCB",04-05-2024 20:00:00,16.172806,75.659694,PM2.5,20,37,36
India,Karnataka,Bagalkot,"Vidayagiri, Bagalkot - KSPCB",04-05-2024 20:00:00,16.172806,75.659694,PM10,46,46,46
