country,state,city,station,last_update,latitude,longitude,pollutant_id,pollutant_min,pollutant_max,pollutant_avg
India,Andhra_Pradesh,Amaravati,"Secretariat, Amaravati - APPCB",31-03-2024 03:00:00,16.5150833,80.5181667,PM10,26,63,42
India,Andhra_Pradesh,Anantapur,"Gulzarpet, Anantapur - APPCB",31-03-2024 03:00:00,14.675886,77.593027,CO,36,70,45
India,Andhra_Pradesh,Chittoor,"Gangineni Cheruvu, Chittoor - APPCB",31-03-2024 03:00:00,13.204880,79.097889,CO,2,11,7
India,Andhra_Pradesh,Rajamahendravaram,"Anand Kala Kshetram, Rajamahendravaram - APPCB",31-03-2024 03:00:00,16.9872867,81.7363176,PM10,19,72,39
India,Andhra_Pradesh,Tirupati,"Tirumala, Tirupati - APPCB",31-03-2024 03:00:00,13.67,79.35,NO2,14,44,27
India,Andhra_Pradesh,Tirupati,"Tirumala, Tirupati - APPCB",31-03-2024 03:00:00,13.67,79.35,SO2,4,26,13
India,Andhra_Pradesh,Tirupati,"Vaikuntapuram, Tirupati - APPCB",31-03-2024 03:00:00,13.615387,79.409230,NH3,NA,NA,NA
India,Andhra_Pradesh,Vijayawada,"HB Colony, Vijayawada - APPCB",31-03-2024 03:00:00,16.536107,80.594233,PM2.5,47,56,52
India,Andhra_Pradesh,Vijayawada,"HB Colony, Vijayawada - APPCB",31-03-2024 03:00:00,16.536107,80.594233,CO,32,53,37
India,Andhra_Pradesh,Vijayawada,"Kanuru, Vijayawada - APPCB",31-03-2024 03:00:00,16.486692,80.699436,PM2.5,NA,NA,NA
India,Andhra_Pradesh,Vijayawada,"Kanuru, Vijayawada - APPCB",31-03-2024 03:00:00,16.486692,80.699436,SO2,NA,NA,NA
India,Andhra_Pradesh,Vijayawada,"Rajiv Gandhi Park, Vijayawada - APPCB",31-03-2024 03:00:00,16.509717,80.612222,PM2.5,35,73,53
India,Andhra_Pradesh,Vijayawada,"Rajiv Gandhi Park, Vijayawada - APPCB",31-03-2024 03:00:00,16.509717,80.612222,CO,36,49,38
India,Andhra_Pradesh,Vijayawada,"Rajiv Gandhi Park, Vijayawada - APPCB",31-03-2024 03:00:00,16.509717,80.612222,OZONE,1,80,12
India,Andhra_Pradesh,Vijayawada,"Rajiv Nagar, Vijayawada - APPCB",31-03-2024 03:00:00,16.554731,80.649110,PM10,61,65,63
India,Andhra_Pradesh,Vijayawada,"Rajiv Nagar, Vijayawada - APPCB",31-03-2024 03:00:00,16.554731,80.649110,CO,37,37,37
India,Andhra_Pradesh,Visakhapatnam,"GVM Corporation, Visakhapatnam - APPCB",31-03-2024 03:00:00,17.72,83.3,NH3,2,5,3
India,Andhra_Pradesh,Visakhapatnam,"GVM Corporation, Visakhapatnam - APPCB",31-03-2024 03:00:00,17.72,83.3,SO2,8,15,11
India,Arunachal_Pradesh,Naharlagun,"Naharlagun, Naharlagun - APSPCB",31-03-2024 03:00:00,27.103358,93.679645,PM2.5,45,195,91
India,Arunachal_Pradesh,Naharlagun,"Naharlagun, Naharlagun - APSPCB",31-03-2024 03:00:00,27.103358,93.679645,SO2,4,4,4
India,Arunachal_Pradesh,Naharlagun,"Naharlagun, Naharlagun - APSPCB",31-03-2024 03:00:00,27.103358,93.679645,OZONE,2,2,2
India,Assam,Byrnihat,"Central Academy for SFS, Byrnihat - PCBA",31-03-2024 03:00:00,26.071318,91.87488,PM10,177,500,324
India,Assam,Byrnihat,"Central Academy for SFS, Byrnihat - PCBA",31-03-2024 03:00:00,26.071318,91.87488,NH3,6,9,8
India,Assam,Guwahati,"IITG, Guwahati - PCBA",31-03-2024 03:00:00,26.2028636,91.70046436,PM2.5,74,420,217
India,Assam,Guwahati,"Pan Bazaar, Guwahati - PCBA",31-03-2024 03:00:00,26.187500,91.744194,NH3,5,10,6
India,Assam,Guwahati,"Pan Bazaar, Guwahati - PCBA",31-03-2024 03:00:00,26.187500,91.744194,SO2,2,82,52
India,Assam,Guwahati,"Railway Colony, Guwahati - PCBA",31-03-2024 03:00:00,26.181742,91.78063,NO2,3,3,3
India,Assam,Nagaon,"Christianpatty, Nagaon - PCBA",31-03-2024 03:00:00,26.349082,92.68449,NH3,8,29,13
India,Assam,Nagaon,"Christianpatty, Nagaon - PCBA",31-03-2024 03:00:00,26.349082,92.68449,SO2,17,78,42
India,Assam,Nagaon,"Christianpatty, Nagaon - PCBA",31-03-2024 03:00:00,26.349082,92.68449,OZONE,9,104,25
India,Assam,Nalbari,"Bata Chowk, Nalbari - PCBA",31-03-2024 03:00:00,26.446912,91.439057,PM10,125,500,230
India,Assam,Nalbari,"Bata Chowk, Nalbari - PCBA",31-03-2024 03:00:00,26.446912,91.439057,NO2,11,65,27
India,Assam,Nalbari,"Bata Chowk, Nalbari - PCBA",31-03-2024 03:00:00,26.446912,91.439057,CO,6,103,48
India,Assam,Nalbari,"Bata Chowk, Nalbari - PCBA",31-03-2024 03:00:00,26.446912,91.439057,OZONE,5,126,18
India,Assam,Silchar,"Tarapur, Silchar - PCBA",31-03-2024 03:00:00,24.82827,92.79525,PM2.5,23,38,29
India,Assam,Silchar,"Tarapur, Silchar - PCBA",31-03-2024 03:00:00,24.82827,92.79525,NH3,1,1,1
India,Assam,Silchar,"Tarapur, Silchar - PCBA",31-03-2024 03:00:00,24.82827,92.79525,SO2,8,14,11
India,Assam,Sivasagar,"Girls College, Sivasagar - PCBA",31-03-2024 03:00:00,26.987634,94.636574,PM10,31,93,55
India,Assam,Sivasagar,"Girls College, Sivasagar - PCBA",31-03-2024 03:00:00,26.987634,94.636574,NO2,6,18,12
India,Assam,Sivasagar,"Girls College, Sivasagar - PCBA",31-03-2024 03:00:00,26.987634,94.636574,CO,4,15,13
India,Assam,Sivasagar,"Girls College, Sivasagar - PCBA",31-03-2024 03:00:00,26.987634,94.636574,OZONE,1,43,2
India,Bihar,Araria,"Kharahiya Basti, Araria - BSPCB",31-03-2024 03:00:00,26.146529,87.454184,PM2.5,47,320,112
India,Bihar,Araria,"Kharahiya Basti, Araria - BSPCB",31-03-2024 03:00:00,26.146529,87.454184,CO,20,33,26
India,Bihar,Bhagalpur,"Mayaganj, Bhagalpur - BSPCB",31-03-2024 03:00:00,25.265194,87.012947,PM2.5,47,379,286
India,Bihar,Bhagalpur,"Mayaganj, Bhagalpur - BSPCB",31-03-2024 03:00:00,25.265194,87.012947,OZONE,8,16,11
India,Bihar,Bihar Sharif,"D M Colony, Bihar Sharif - BSPCB",31-03-2024 03:00:00,25.204762,85.514960,PM2.5,NA,NA,NA
India,Bihar,Bihar Sharif,"D M Colony, Bihar Sharif - BSPCB",31-03-2024 03:00:00,25.204762,85.514960,OZONE,NA,NA,NA
India,Bihar,Buxar,"Charitra Van, Buxar - BSPCB (Formerly known as Central Jail)",31-03-2024 03:00:00,25.567520,83.966379,NH3,1,3,1
India,Bihar,Buxar,"Charitra Van, Buxar - BSPCB (Formerly known as Central Jail)",31-03-2024 03:00:00,25.567520,83.966379,CO,19,122,68
India,Bihar,Chhapra,"Darshan Nagar, Chhapra - BSPCB",31-03-2024 03:00:00,25.7808257,84.7446768,NH3,6,17,11
India,Bihar,Gaya,"Collectorate, Gaya - BSPCB",31-03-2024 03:00:00,24.7955,84.9994,NO2,1,3,2
India,Bihar,Gaya,"Collectorate, Gaya - BSPCB",31-03-2024 03:00:00,24.7955,84.9994,SO2,7,21,13
India,Bihar,Gaya,"Collectorate, Gaya - BSPCB",31-03-2024 03:00:00,24.7955,84.9994,OZONE,44,81,69
India,Bihar,Hajipur,"Industrial Area, Hajipur - BSPCB",31-03-2024 03:00:00,25.697189,85.245900,NH3,4,6,5
India,Bihar,Hajipur,"Industrial Area, Hajipur - BSPCB",31-03-2024 03:00:00,25.697189,85.245900,OZONE,2,56,25
India,Bihar,Kishanganj,"SDM Office_Khagra, Kishanganj - BSPCB",31-03-2024 03:00:00,26.0881305,87.93840336,NH3,10,13,11
India,Bihar,Manguraha,"Forest Rest House, Manguraha - BSPCB",31-03-2024 03:00:00,27.308328,84.531742,PM10,52,119,88
India,Bihar,Manguraha,"Forest Rest House, Manguraha - BSPCB",31-03-2024 03:00:00,27.308328,84.531742,NO2,19,24,22
India,Bihar,Manguraha,"Forest Rest House, Manguraha - BSPCB",31-03-2024 03:00:00,27.308328,84.531742,NH3,3,3,3
India,Bihar,Motihari,"Gandak Colony, Motihari - BSPCB",31-03-2024 03:00:00,26.63086,84.90051,NO2,43,71,56
India,Bihar,Motihari,"Gandak Colony, Motihari - BSPCB",31-03-2024 03:00:00,26.63086,84.90051,SO2,2,9,5
India,Bihar,Munger,"Town Hall, Munger - BSPCB",31-03-2024 03:00:00,25.376776,86.471523,SO2,24,51,39
India,Bihar,Muzaffarpur,"Buddha Colony, Muzaffarpur - BSPCB",31-03-2024 03:00:00,26.11442,85.39813,NH3,3,27,9
India,Bihar,Muzaffarpur,"MIT-Daudpur Kothi, Muzaffarpur - BSPCB",31-03-2024 03:00:00,26.1403345,85.3650192,PM10,60,162,110
India,Bihar,Muzaffarpur,"Muzaffarpur Collectorate, Muzaffarpur - BSPCB",31-03-2024 03:00:00,26.1209,85.3647,NO2,6,18,11
India,Bihar,Muzaffarpur,"Muzaffarpur Collectorate, Muzaffarpur - BSPCB",31-03-2024 03:00:00,26.1209,85.3647,OZONE,12,65,25
India,Bihar,Patna,"DRM Office Danapur, Patna - BSPCB",31-03-2024 03:00:00,25.586562,85.043586,NO2,7,78,25
India,Bihar,Patna,"DRM Office Danapur, Patna - BSPCB",31-03-2024 03:00:00,25.586562,85.043586,NH3,3,3,3
India,Bihar,Patna,"DRM Office Danapur, Patna - BSPCB",31-03-2024 03:00:00,25.586562,85.043586,SO2,6,8,7
India,Bihar,Patna,"Govt. High School Shikarpur, Patna - BSPCB",31-03-2024 03:00:00,25.592539,85.227158,PM10,153,228,187
India,Bihar,Patna,"IGSC Planetarium Complex, Patna - BSPCB",31-03-2024 03:00:00,25.610369,85.132568,CO,8,12,12
India,Bihar,Patna,"Muradpur, Patna - BSPCB",31-03-2024 03:00:00,25.619651,85.147382,PM10,188,362,296
India,Bihar,Patna,"Rajbansi Nagar, Patna - BSPCB",31-03-2024 03:00:00,25.599486,85.113666,PM10,146,232,178
India,Bihar,Patna,"Rajbansi Nagar, Patna - BSPCB",31-03-2024 03:00:00,25.599486,85.113666,OZONE,3,96,38
India,Bihar,Patna,"Samanpura, Patna - BSPCB",31-03-2024 03:00:00,25.596727,85.085624,CO,52,118,88
India,Bihar,Purnia,"Mariam Nagar, Purnia - BSPCB",31-03-2024 03:00:00,25.366336,87.117468,NH3,2,2,2
India,Bihar,Rajgir,"Dangi Tola, Rajgir - BSPCB",31-03-2024 03:00:00,25.03280,85.41948,NH3,1,3,1
India,Bihar,Rajgir,"Dangi Tola, Rajgir - BSPCB",31-03-2024 03:00:00,25.03280,85.41948,SO2,4,4,4
India,Bihar,Saharsa,"Police Line, Saharsa - BSPCB",31-03-2024 03:00:00,25.892357,86.590325,NO2,6,8,7
India,Bihar,Samastipur,"DM Office_Kasipur, Samastipur - BSPCB",31-03-2024 03:00:00,25.859655,85.77944,CO,6,33,23
India,Bihar,Sasaram,"Dada Peer, Sasaram - BSPCB",31-03-2024 03:00:00,24.952822,84.002396,NO2,9,21,15
India,Bihar,Sasaram,"Dada Peer, Sasaram - BSPCB",31-03-2024 03:00:00,24.952822,84.002396,OZONE,21,89,38
India,Chandigarh,Chandigarh,"Sector 22, Chandigarh - CPCC",31-03-2024 03:00:00,30.735567,76.775714,SO2,4,40,9
India,Chandigarh,Chandigarh,"Sector-25, Chandigarh - CPCC",31-03-2024 03:00:00,30.751462,76.762879,PM10,58,163,114
India,Chandigarh,Chandigarh,"Sector-25, Chandigarh - CPCC",31-03-2024 03:00:00,30.751462,76.762879,NH3,12,43,19
India,Chandigarh,Chandigarh,"Sector-25, Chandigarh - CPCC",31-03-2024 03:00:00,30.751462,76.762879,SO2,7,38,12
India,Chandigarh,Chandigarh,"Sector-53, Chandigarh - CPCC",31-03-2024 03:00:00,30.719859,76.738637,PM2.5,5,270,71
India,Chandigarh,Chandigarh,"Sector-53, Chandigarh - CPCC",31-03-2024 03:00:00,30.719859,76.738637,NO2,NA,NA,NA
India,Chhattisgarh,Bhilai,"32Bungalows, Bhilai - CECB",31-03-2024 03:00:00,21.194815,81.314770,NO2,21,35,30
India,Chhattisgarh,Bhilai,"32Bungalows, Bhilai - CECB",31-03-2024 03:00:00,21.194815,81.314770,NH3,6,6,6
India,Chhattisgarh,Bhilai,"Civic Center, Bhilai - Bhilai Steel Plant",31-03-2024 03:00:00,21.185571,81.343175,SO2,4,23,11
India,Chhattisgarh,Chhal,"Nawapara SECL Colony, Chhal - CECB",31-03-2024 03:00:00,22.118125,83.140608,PM2.5,82,193,133
India,Chhattisgarh,Korba,"Rampur, Korba - CECB",31-03-2024 03:00:00,22.368195,82.746431,OZONE,2,9,4
India,Chhattisgarh,Raipur,"AIIMS, Raipur - CECB",31-03-2024 03:00:00,21.258815,81.578979,PM10,NA,NA,NA
India,Chhattisgarh,Raipur,"AIIMS, Raipur - CECB",31-03-2024 03:00:00,21.258815,81.578979,SO2,6,39,16
India,Chhattisgarh,Raipur,"AIIMS, Raipur - CECB",31-03-2024 03:00:00,21.258815,81.578979,CO,26,46,33
India,Chhattisgarh,Raipur,"Bhatagaon New ISBT, Raipur - CECB",31-03-2024 03:00:00,21.219665,81.630094,NH3,2,2,2
India,Chhattisgarh,Raipur,"Siltara Phase-II, Raipur - CECB",31-03-2024 03:00:00,21.371751,81.664929,PM2.5,54,164,99
India,Delhi,Delhi,"Alipur, Delhi - DPCC",31-03-2024 03:00:00,28.815329,77.153010,NH3,7,10,8
India,Delhi,Delhi,"Alipur, Delhi - DPCC",31-03-2024 03:00:00,28.815329,77.153010,SO2,14,34,20
India,Delhi,Delhi,"Anand Vihar, Delhi - DPCC",31-03-2024 03:00:00,28.647622,77.3158090,PM10,139,500,272
India,Delhi,Delhi,"Anand Vihar, Delhi - DPCC",31-03-2024 03:00:00,28.647622,77.3158090,SO2,34,40,37
India,Delhi,Delhi,"Anand Vihar, Delhi - DPCC",31-03-2024 03:00:00,28.647622,77.3158090,CO,3,117,79
India,Delhi,Delhi,"Ashok Vihar, Delhi - DPCC",31-03-2024 03:00:00,28.695381,77.181665,CO,8,125,84
India,Delhi,Delhi,"Aya Nagar, Delhi - IMD",31-03-2024 03:00:00,28.4706914,77.1099364,PM10,123,496,227
India,Delhi,Delhi,"Bawana, Delhi - DPCC",31-03-2024 03:00:00,28.776200,77.051074,NH3,7,13,9
India,Delhi,Delhi,"Burari Crossing, Delhi - IMD",31-03-2024 03:00:00,28.7256504,77.2011573,PM10,114,416,184
India,Delhi,Delhi,"Chandni Chowk, Delhi - IITM",31-03-2024 03:00:00,28.656756,77.227234,NH3,7,20,14
India,Delhi,Delhi,"DTU, Delhi - CPCB",31-03-2024 03:00:00,28.7500499,77.1112615,PM2.5,98,302,200
India,Delhi,Delhi,"Dr. Karni Singh Shooting Range, Delhi - DPCC",31-03-2024 03:00:00,28.498571,77.264840,PM2.5,87,293,197
India,Delhi,Delhi,"Dr. Karni Singh Shooting Range, Delhi - DPCC",31-03-2024 03:00:00,28.498571,77.264840,OZONE,6,261,28
India,Delhi,Delhi,"Dwarka-Sector 8, Delhi - DPCC ",31-03-2024 03:00:00,28.5710274,77.0719006,NO2,16,100,50
India,Delhi,Delhi,"IGI Airport (T3), Delhi - IMD",31-03-2024 03:00:00,28.5627763,77.1180053,CO,16,104,69
India,Delhi,Delhi,"ITO, Delhi - CPCB",31-03-2024 03:00:00,28.628624,77.241060,NO2,6,216,98
India,Delhi,Delhi,"ITO, Delhi - CPCB",31-03-2024 03:00:00,28.628624,77.241060,CO,38,131,106
India,Delhi,Delhi,"Jawaharlal Nehru Stadium, Delhi - DPCC",31-03-2024 03:00:00,28.580280,77.233829,OZONE,4,250,30
India,Delhi,Delhi,"Lodhi Road, Delhi - IITM",31-03-2024 03:00:00,28.588333,77.221667,PM2.5,71,500,326
India,Delhi,Delhi,"Major Dhyan Chand National Stadium, Delhi - DPCC",31-03-2024 03:00:00,28.611281,77.237738,SO2,14,24,20
India,Delhi,Delhi,"NSIT Dwarka, Delhi - CPCB",31-03-2024 03:00:00,28.60909,77.0325413,NH3,10,24,14
India,Delhi,Delhi,"NSIT Dwarka, Delhi - CPCB",31-03-2024 03:00:00,28.60909,77.0325413,OZONE,1,72,10
India,Delhi,Delhi,"Najafgarh, Delhi - DPCC",31-03-2024 03:00:00,28.570173,76.933762,SO2,1,14,11
India,Delhi,Delhi,"Najafgarh, Delhi - DPCC",31-03-2024 03:00:00,28.570173,76.933762,CO,20,79,59
India,Delhi,Delhi,"Narela, Delhi - DPCC",31-03-2024 03:00:00,28.822836,77.101981,PM2.5,68,350,199
India,Delhi,Delhi,"Narela, Delhi - DPCC",31-03-2024 03:00:00,28.822836,77.101981,NO2,14,111,58
India,Delhi,Delhi,"Narela, Delhi - DPCC",31-03-2024 03:00:00,28.822836,77.101981,NH3,7,12,10
India,Delhi,Delhi,"Narela, Delhi - DPCC",31-03-2024 03:00:00,28.822836,77.101981,SO2,15,50,24
India,Delhi,Delhi,"Narela, Delhi - DPCC",31-03-2024 03:00:00,28.822836,77.101981,CO,41,104,90
India,Delhi,Delhi,"Nehru Nagar, Delhi - DPCC",31-03-2024 03:00:00,28.567890,77.250515,PM10,142,427,218
India,Delhi,Delhi,"North Campus, DU, Delhi - IMD",31-03-2024 03:00:00,28.6573814,77.1585447,OZONE,2,62,7
India,Delhi,Delhi,"Okhla Phase-2, Delhi - DPCC",31-03-2024 03:00:00,28.530785,77.271255,SO2,10,17,12
India,Delhi,Delhi,"Okhla Phase-2, Delhi - DPCC",31-03-2024 03:00:00,28.530785,77.271255,OZONE,11,142,23
India,Delhi,Delhi,"Patparganj, Delhi - DPCC",31-03-2024 03:00:00,28.623763,77.287209,NO2,19,83,44
India,Delhi,Delhi,"Patparganj, Delhi - DPCC",31-03-2024 03:00:00,28.623763,77.287209,SO2,18,21,19
India,Delhi,Delhi,"Patparganj, Delhi - DPCC",31-03-2024 03:00:00,28.623763,77.287209,CO,9,105,81
India,Delhi,Delhi,"Pusa, Delhi - DPCC",31-03-2024 03:00:00,28.639652,77.146275,PM2.5,70,302,138
India,Delhi,Delhi,"Rohini, Delhi - DPCC",31-03-2024 03:00:00,28.732528,77.119920,NH3,9,15,11
India,Delhi,Delhi,"Rohini, Delhi - DPCC",31-03-2024 03:00:00,28.732528,77.119920,SO2,10,17,13
India,Delhi,Delhi,"Shadipur, Delhi - CPCB",31-03-2024 03:00:00,28.6514781,77.1473105,NO2,44,90,65
India,Delhi,Delhi,"Sonia Vihar, Delhi - DPCC",31-03-2024 03:00:00,28.710508,77.249485,CO,34,114,92
India,Delhi,Delhi,"Sri Aurobindo Marg, Delhi - DPCC",31-03-2024 03:00:00,28.531346,77.190156,CO,18,105,70
India,Delhi,Delhi,"Sri Aurobindo Marg, Delhi - DPCC",31-03-2024 03:00:00,28.531346,77.190156,OZONE,8,16,9
India,Delhi,Delhi,"Vivek Vihar, Delhi - DPCC",31-03-2024 03:00:00,28.672342,77.315260,NO2,26,122,62
India,Gujarat,Ahmedabad,"Maninagar, Ahmedabad - GPCB",31-03-2024 03:00:00,23.002657,72.591912,PM10,48,114,87
India,Gujarat,Ahmedabad,"Maninagar, Ahmedabad - GPCB",31-03-2024 03:00:00,23.002657,72.591912,CO,38,90,59
India,Gujarat,Ahmedabad,"Maninagar, Ahmedabad - GPCB",31-03-2024 03:00:00,23.002657,72.591912,OZONE,12,79,23
India,Gujarat,Ahmedabad,"Raikhad, Ahmedabad - IITM",31-03-2024 03:00:00,23.020509,72.579261,NO2,27,159,51
India,Gujarat,Ahmedabad,"Raikhad, Ahmedabad - IITM",31-03-2024 03:00:00,23.020509,72.579261,CO,13,117,50
India,Gujarat,Ahmedabad,"SVPI Airport Hansol, Ahmedabad - IITM",31-03-2024 03:00:00,23.076793,72.627874,NH3,4,5,4
India,Gujarat,Ahmedabad,"Sardar Vallabhbhai Patel Stadium, Ahmedabad - IITM",31-03-2024 03:00:00,23.043070,72.562968,PM10,58,108,80
India,Gujarat,Gandhinagar,"IIPHG Lekawada, Gandhinagar - IITM",31-03-2024 03:00:00,23.243639,72.68994,SO2,1,12,6
India,Gujarat,Gandhinagar,"Sector-10, Gandhinagar - GPCB",31-03-2024 03:00:00,23.221714,72.654328,PM2.5,20,53,36
India,Gujarat,Gandhinagar,"Sector-10, Gandhinagar - GPCB",31-03-2024 03:00:00,23.221714,72.654328,PM10,41,119,69
India,Gujarat,Surat,"Science Center, Surat - SMC",31-03-2024 03:00:00,21.170046,72.795405,CO,44,58,53
India,Gujarat,Vapi,"Phase-1 GIDC, Vapi - GPCB",31-03-2024 03:00:00,20.362421,72.918013,SO2,50,52,51
India,Gujarat,Vatva,"Phase-4 GIDC, Vatva - GPCB",31-03-2024 03:00:00,22.969611,72.643500,NO2,37,159,69
India,Haryana,Ambala,"Patti Mehar, Ambala - HSPCB",31-03-2024 03:00:00,30.379589,76.778328,NH3,5,12,8
India,Haryana,Bahadurgarh,"Arya Nagar, Bahadurgarh - HSPCB",31-03-2024 03:00:00,28.6701,76.9254,PM10,88,294,175
India,Haryana,Ballabgarh,"Nathu Colony, Ballabgarh - HSPCB",31-03-2024 03:00:00,28.3419248,77.319699,NO2,9,13,12
India,Haryana,Bhiwani,"H.B. Colony, Bhiwani - HSPCB",31-03-2024 03:00:00,28.806223,76.141105,PM2.5,149,221,171
India,Haryana,Bhiwani,"H.B. Colony, Bhiwani - HSPCB",31-03-2024 03:00:00,28.806223,76.141105,PM10,110,132,117
India,Haryana,Charkhi Dadri,"Mini Secretariat, Charkhi Dadri - HSPCB",31-03-2024 03:00:00,28.593883,76.270653,PM10,76,146,113
India,Haryana,Faridabad,"New Industrial Town, Faridabad - HSPCB",31-03-2024 03:00:00,28.39072,77.30059,OZONE,18,92,36
India,Haryana,Faridabad,"Sector 30, Faridabad - HSPCB",31-03-2024 03:00:00,28.4417,77.3217,CO,18,118,92
India,Haryana,Faridabad,"Sector- 16A, Faridabad - HSPCB",31-03-2024 03:00:00,28.4088421,77.3099081,OZONE,14,14,14
India,Haryana,Fatehabad,"Huda Sector, Fatehabad - HSPCB",31-03-2024 03:00:00,29.503664,75.467934,PM10,57,109,83
India,Haryana,Fatehabad,"Huda Sector, Fatehabad - HSPCB",31-03-2024 03:00:00,29.503664,75.467934,SO2,10,11,11
India,Haryana,Gurugram,"Sector-51, Gurugram - HSPCB",31-03-2024 03:00:00,28.4227,77.0667,NO2,13,29,23
India,Haryana,Gurugram,"Sector-51, Gurugram - HSPCB",31-03-2024 03:00:00,28.4227,77.0667,NH3,7,14,9
India,Haryana,Gurugram,"Teri Gram, Gurugram - HSPCB",31-03-2024 03:00:00,28.4275,77.1465,PM10,189,399,283
India,Haryana,Gurugram,"Teri Gram, Gurugram - HSPCB",31-03-2024 03:00:00,28.4275,77.1465,CO,18,38,27
India,Haryana,Kaithal,"Rishi Nagar, Kaithal - HSPCB",31-03-2024 03:00:00,29.8006,76.4155,NH3,NA,NA,NA
India,Haryana,Kurukshetra,"Sector-7, Kurukshetra - HSPCB",31-03-2024 03:00:00,29.966942,76.875879,PM10,38,136,72
India,Haryana,Manesar,"Sector-2 IMT, Manesar - HSPCB",31-03-2024 03:00:00,28.360699,76.936090,NO2,18,25,21
India,Haryana,Narnaul,"Shastri Nagar, Narnaul - HSPCB",31-03-2024 03:00:00,28.060249,76.113115,PM2.5,30,65,49
India,Haryana,Palwal,"Shyam Nagar, Palwal - HSPCB",31-03-2024 03:00:00,28.1485564,77.3320667,NO2,23,25,24
India,Haryana,Palwal,"Shyam Nagar, Palwal - HSPCB",31-03-2024 03:00:00,28.1485564,77.3320667,NH3,8,9,9
India,Haryana,Palwal,"Shyam Nagar, Palwal - HSPCB",31-03-2024 03:00:00,28.1485564,77.3320667,CO,18,39,35
India,Haryana,Panipat,"Sector-18, Panipat - HSPCB",31-03-2024 03:00:00,29.497973,76.993331,NH3,2,3,2
India,Haryana,Panipat,"Sector-18, Panipat - HSPCB",31-03-2024 03:00:00,29.497973,76.993331,OZONE,30,30,30
India,Haryana,Sonipat,"Murthal, Sonipat - HSPCB",31-03-2024 03:00:00,29.027200,77.062100,CO,9,36,19
India,Haryana,Sonipat,"Murthal, Sonipat - HSPCB",31-03-2024 03:00:00,29.027200,77.062100,OZONE,16,36,20
India,Haryana,Yamuna Nagar,"Gobind Pura, Yamuna Nagar - HSPCB",31-03-2024 03:00:00,30.1480566,77.2893471,NO2,3,29,14
India,Himachal Pradesh,Baddi,"HIMUDA Complex Phase-1, Baddi - HPPCB",31-03-2024 03:00:00,30.943887,76.801991,SO2,NA,NA,NA
India,Jharkhand,Dhanbad,"Kalakusuma, Dhanbad - DMC",31-03-2024 03:00:00,23.811548,86.481238,CO,128,135,131
India,Jharkhand,Dhanbad,"Kalakusuma, Dhanbad - DMC",31-03-2024 03:00:00,23.811548,86.481238,OZONE,35,36,36
India,Jharkhand,Dhanbad,"Sardar Patel Nagar, Dhanbad - JSPCB",31-03-2024 03:00:00,23.80569,86.44268,NO2,6,392,119
India,Jharkhand,Dhanbad,"Sardar Patel Nagar, Dhanbad - JSPCB",31-03-2024 03:00:00,23.80569,86.44268,CO,2,126,27
India,Jharkhand,Dhanbad,"Sardar Patel Nagar, Dhanbad - JSPCB",31-03-2024 03:00:00,23.80569,86.44268,OZONE,8,35,16
India,Jharkhand,Pathardih,"Mohalbani Ghat, Pathardih - DMC",31-03-2024 03:00:00,23.669880,86.411725,PM10,NA,NA,NA
India,Jharkhand,Pathardih,"Mohalbani Ghat, Pathardih - DMC",31-03-2024 03:00:00,23.669880,86.411725,NO2,NA,NA,NA
India,Karnataka,Bagalkot,"Vidayagiri, Bagalkot - KSPCB",31-03-2024 03:00:00,16.172806,75.659694,NH3,1,2,1
India,Karnataka,Bengaluru,"BTM Layout, Bengaluru - CPCB",31-03-2024 03:00:00,12.9135218,77.5950804,SO2,NA,NA,NA
India,Karnataka,Bengaluru,"Bapuji Nagar, Bengaluru - KSPCB",31-03-2024 03:00:00,12.951913,77.539784,PM10,68,124,96
India,Karnataka,Bengaluru,"Hombegowda Nagar, Bengaluru - KSPCB",31-03-2024 03:00:00,12.938539,77.590100,PM2.5,34,82,60
India,Karnataka,Bengaluru,"Hombegowda Nagar, Bengaluru - KSPCB",31-03-2024 03:00:00,12.938539,77.590100,PM10,57,112,81
India,Karnataka,Bengaluru,"Hombegowda Nagar, Bengaluru - KSPCB",31-03-2024 03:00:00,12.938539,77.590100,NO2,11,28,18
India,Karnataka,Bengaluru,"Jayanagar 5th Block, Bengaluru - KSPCB",31-03-2024 03:00:00,12.920984,77.584908,OZONE,18,19,18
India,Karnataka,Bengaluru,"Jigani, Bengaluru - KSPCB",31-03-2024 03:00:00,12.7816279,77.6299145,PM2.5,18,301,90
India,Karnataka,Bengaluru,"Jigani, Bengaluru - KSPCB",31-03-2024 03:00:00,12.7816279,77.6299145,NH3,4,4,4
India,Karnataka,Bengaluru,"Jigani, Bengaluru - KSPCB",31-03-2024 03:00:00,12.7816279,77.6299145,OZONE,17,78,34
India,Karnataka,Bengaluru,"Peenya, Bengaluru - CPCB",31-03-2024 03:00:00,13.0270199,77.494094,PM2.5,NA,NA,NA
India,Karnataka,Bengaluru,"Peenya, Bengaluru - CPCB",31-03-2024 03:00:00,13.0270199,77.494094,NO2,25,53,38
India,Karnataka,Bengaluru,"Peenya, Bengaluru - CPCB",31-03-2024 03:00:00,13.0270199,77.494094,OZONE,11,33,23
India,Karnataka,Bengaluru,"Sanegurava Halli, Bengaluru - KSPCB",31-03-2024 03:00:00,12.990328,77.5431385,SO2,1,3,3
India,Karnataka,Bengaluru,"Shivapura_Peenya, Bengaluru - KSPCB",31-03-2024 03:00:00,13.0246342,77.5080115,PM2.5,8,289,62
India,Karnataka,Bidar,"Naubad, Bidar - KSPCB",31-03-2024 03:00:00,17.930306,77.482194,NO2,7,8,8
India,Karnataka,Chikkaballapur,"Chikkaballapur Rural, Chikkaballapur - KSPCB",31-03-2024 03:00:00,13.428828,77.731418,PM2.5,40,108,75
India,Karnataka,Chikkaballapur,"Chikkaballapur Rural, Chikkaballapur - KSPCB",31-03-2024 03:00:00,13.428828,77.731418,NO2,7,25,12
India,Karnataka,Chikkamagaluru,"Kalyana Nagara, Chikkamagaluru - KSPCB",31-03-2024 03:00:00,13.328028,75.797056,OZONE,27,47,29
India,Karnataka,Davanagere,"Devaraj Urs Badavane, Davanagere - KSPCB",31-03-2024 03:00:00,14.475800,75.905200,PM10,NA,NA,NA
India,Karnataka,Gadag,"Panchal Nagar, Gadag - KSPCB",31-03-2024 03:00:00,15.411456,75.638133,PM2.5,13,51,28
India,Karnataka,Gadag,"Panchal Nagar, Gadag - KSPCB",31-03-2024 03:00:00,15.411456,75.638133,CO,40,51,46
India,Karnataka,Gadag,"Panchal Nagar, Gadag - KSPCB",31-03-2024 03:00:00,15.411456,75.638133,OZONE,23,75,37
India,Karnataka,Hassan,"B.Katihalli, Hassan - KSPCB",31-03-2024 03:00:00,13.008556,76.125258,SO2,NA,NA,NA
India,Karnataka,Hubballi,"Deshpande Nagar, Hubballi - KSPCB",31-03-2024 03:00:00,15.351773,75.140726,NH3,3,7,6
India,Karnataka,Hubballi,"Lingaraj Nagar, Hubballi - KSPCB",31-03-2024 03:00:00,15.3714823,75.1160168,SO2,1,4,2
India,Karnataka,Kalaburagi,"Lal Bahadur Shastri Nagar, Kalaburagi - KSPCB",31-03-2024 03:00:00,17.321993,76.822628,NH3,2,2,2
India,Karnataka,Kalaburagi,"Mahatma Basaveswar Colony, Kalaburgi - KSPCB",31-03-2024 03:00:00,17.336318,76.847397,CO,34,48,41
India,Karnataka,Kolar,"Tamaka Ind. Area, Kolar - KSPCB",31-03-2024 03:00:00,13.1276288,78.1570122,NO2,19,107,38
India,Karnataka,Kolar,"Tamaka Ind. Area, Kolar - KSPCB",31-03-2024 03:00:00,13.1276288,78.1570122,CO,6,6,6
India,Karnataka,Koppal,"Diwator Nagar, Koppal - KSPCB",31-03-2024 03:00:00,15.347630,76.181767,NH3,NA,NA,NA
India,Karnataka,Madikeri,"Stuart Hill, Madikeri - KSPCB",31-03-2024 03:00:00,12.415911,75.735050,PM10,22,46,31
India,Karnataka,Madikeri,"Stuart Hill, Madikeri - KSPCB",31-03-2024 03:00:00,12.415911,75.735050,NO2,2,13,5
India,Karnataka,Mangalore,"Kadri, Mangalore - KSPCB",31-03-2024 03:00:00,12.889250,74.853000,PM10,27,35,32
India,Karnataka,Mysuru,"Hebbal 1st Stage, Mysuru - KSPCB",31-03-2024 03:00:00,12.21041,76.37376,PM2.5,17,128,44
India,Karnataka,Mysuru,"Hebbal 1st Stage, Mysuru - KSPCB",31-03-2024 03:00:00,12.21041,76.37376,PM10,37,98,62
India,Karnataka,Raichur,"Haji Colony, Raichur - KSPCB",31-03-2024 03:00:00,16.208139,77.348417,NH3,NA,NA,NA
India,Karnataka,Raichur,"Haji Colony, Raichur - KSPCB",31-03-2024 03:00:00,16.208139,77.348417,SO2,NA,NA,NA
India,Karnataka,Ramanagara,"Vijay Nagar, Ramanagara - KSPCB",31-03-2024 03:00:00,12.733409,77.298051,PM10,26,64,44
India,Karnataka,Ramanagara,"Vijay Nagar, Ramanagara - KSPCB",31-03-2024 03:00:00,12.733409,77.298051,NO2,3,16,7
India,Karnataka,Tumakuru,"Thimmalapura, Tumakuru - KSPCB",31-03-2024 03:00:00,13.377516,77.099072,PM2.5,NA,NA,NA
India,Karnataka,Tumakuru,"Thimmalapura, Tumakuru - KSPCB",31-03-2024 03:00:00,13.377516,77.099072,PM10,12,89,38
India,Karnataka,Tumakuru,"Thimmalapura, Tumakuru - KSPCB",31-03-2024 03:00:00,13.377516,77.099072,CO,29,34,31
India,Karnataka,Tumakuru,"Thimmalapura, Tumakuru - KSPCB",31-03-2024 03:00:00,13.377516,77.099072,OZONE,13,63,35
India,Karnataka,Vijayapura,"Ibrahimpur, Vijayapura - KSPCB",31-03-2024 03:00:00,16.802639,75.722694,NO2,17,19,19
India,Karnataka,Vijayapura,"Ibrahimpur, Vijayapura - KSPCB",31-03-2024 03:00:00,16.802639,75.722694,SO2,8,111,39
India,Karnataka,Yadgir,"Collector Office, Yadgir - KSPCB",31-03-2024 03:00:00,16.7602,77.1428,PM10,65,101,79
India,Karnataka,Yadgir,"Collector Office, Yadgir - KSPCB",31-03-2024 03:00:00,16.7602,77.1428,OZONE,18,19,19
India,Kerala,Eloor,"Udyogamandal, Eloor - Kerala PCB",31-03-2024 03:00:00,10.073232,76.302765,NH3,1,1,1
India,Kerala,Kollam,"Polayathode, Kollam - Kerala PCB",31-03-2024 03:00:00,8.8787,76.6073,OZONE,31,37,34
India,Kerala,Thiruvananthapuram,"Kariavattom, Thiruvananthapuram - Kerala PCB",31-03-2024 03:00:00,8.563700,76.886500,OZONE,28,33,30
India,Madhya Pradesh,Bhopal,"Idgah Hills, Bhopal - MPPCB",31-03-2024 03:00:00,23.264759,77.381568,NH3,5,8,6
India,Madhya Pradesh,Bhopal,"Paryavaran Parisar, Bhopal - MPPCB",31-03-2024 03:00:00,23.210494,77.425409,OZONE,6,72,37
India,Madhya Pradesh,Bhopal,"T T Nagar, Bhopal - MPPCB",31-03-2024 03:00:00,23.233584,77.400574,NO2,21,43,30
India,Madhya Pradesh,Bhopal,"T T Nagar, Bhopal - MPPCB",31-03-2024 03:00:00,23.233584,77.400574,NH3,5,8,7
India,Madhya Pradesh,Dewas,"Bhopal Chauraha, Dewas - MPPCB",31-03-2024 03:00:00,22.9682591,76.064118,PM2.5,62,314,155
India,Madhya Pradesh,Dewas,"Bhopal Chauraha, Dewas - MPPCB",31-03-2024 03:00:00,22.9682591,76.064118,NH3,3,3,3
India,Madhya Pradesh,Dewas,"Bhopal Chauraha, Dewas - MPPCB",31-03-2024 03:00:00,22.9682591,76.064118,CO,18,44,38
India,Madhya Pradesh,Dewas,"Bhopal Chauraha, Dewas - MPPCB",31-03-2024 03:00:00,22.9682591,76.064118,OZONE,32,97,42
India,Madhya Pradesh,Gwalior,"City Center, Gwalior - MPPCB",31-03-2024 03:00:00,26.203442,78.193251,PM2.5,18,157,60
India,Madhya Pradesh,Gwalior,"Deen Dayal Nagar, Gwalior - MPPCB",31-03-2024 03:00:00,26.259242,78.216432,PM10,59,188,121
India,Madhya Pradesh,Indore,"Chhoti Gwaltoli, Indore - MPPCB",31-03-2024 03:00:00,22.4310,75.5213,NO2,55,89,67
India,Madhya Pradesh,Indore,"Chhoti Gwaltoli, Indore - MPPCB",31-03-2024 03:00:00,22.4310,75.5213,NH3,4,7,6
India,Madhya Pradesh,Indore,"Maguda Nagar, Indore - IMC",31-03-2024 03:00:00,22.7524,75.8872,PM2.5,50,156,93
India,Madhya Pradesh,Indore,"Maguda Nagar, Indore - IMC",31-03-2024 03:00:00,22.7524,75.8872,NO2,4,5,4
India,Madhya Pradesh,Indore,"Maguda Nagar, Indore - IMC",31-03-2024 03:00:00,22.7524,75.8872,SO2,NA,NA,NA
India,Madhya Pradesh,Indore,"Maguda Nagar, Indore - IMC",31-03-2024 03:00:00,22.7524,75.8872,CO,28,32,31
India,Madhya Pradesh,Indore,"Residency Area, Indore - IMC",31-03-2024 03:00:00,22.7084,75.8815,SO2,NA,NA,NA
India,Madhya Pradesh,Jabalpur,"Govindh Bhavan Colony, Jabalpur - JMC",31-03-2024 03:00:00,23.163174,79.973061,PM2.5,NA,NA,NA
India,Madhya Pradesh,Jabalpur,"Govindh Bhavan Colony, Jabalpur - JMC",31-03-2024 03:00:00,23.163174,79.973061,CO,NA,NA,NA
India,Madhya Pradesh,Jabalpur,"Gupteshwar, Jabalpur - JMC",31-03-2024 03:00:00,23.142888,79.916147,PM10,50,147,87
India,Madhya Pradesh,Jabalpur,"Marhatal, Jabalpur - MPPCB",31-03-2024 03:00:00,23.168606,79.932247,PM2.5,40,200,84
India,Madhya Pradesh,Jabalpur,"Suhagi, Jabalpur - JMC",31-03-2024 03:00:00,23.218135,79.957770,NH3,4,4,4
India,Madhya Pradesh,Jabalpur,"Suhagi, Jabalpur - JMC",31-03-2024 03:00:00,23.218135,79.957770,SO2,10,12,11
India,Madhya Pradesh,Jabalpur,"Suhagi, Jabalpur - JMC",31-03-2024 03:00:00,23.218135,79.957770,OZONE,4,114,13
India,Madhya Pradesh,Katni,"Gole Bazar, Katni - MPPCB",31-03-2024 03:00:00,23.50016,80.23284,PM2.5,37,110,59
India,Madhya Pradesh,Katni,"Gole Bazar, Katni - MPPCB",31-03-2024 03:00:00,23.50016,80.23284,CO,46,82,49
India,Madhya Pradesh,Maihar,"Sahilara, Maihar - KJS Cements",31-03-2024 03:00:00,24.2613009,80.7231783,SO2,NA,NA,NA
India,Madhya Pradesh,Mandideep,"Sector-D Industrial Area, Mandideep - MPPCB",31-03-2024 03:00:00,23.108440,77.511428,OZONE,6,31,13
India,Madhya Pradesh,Pithampur,"Sector-2 Industrial Area, Pithampur - MPPCB",31-03-2024 03:00:00,22.624758,75.675238,CO,28,68,51
India,Madhya Pradesh,Ratlam,"Shasthri Nagar, Ratlam - IPCA Lab",31-03-2024 03:00:00,23.331731,75.045981,NO2,10,44,21
India,Madhya Pradesh,Sagar,"Civil Lines, Sagar - MPPCB",31-03-2024 03:00:00,23.838586,78.759431,PM2.5,33,138,71
India,Madhya Pradesh,Sagar,"Deen Dayal Nagar, Sagar - MPPCB",31-03-2024 03:00:00,23.8640158,78.80289321,PM10,28,79,49
India,Madhya Pradesh,Satna,"Bandhavgar Colony, Satna - Birla Cement",31-03-2024 03:00:00,24.58434363,80.8549414,NO2,23,52,34
India,Madhya Pradesh,Singrauli,"Suryakiran Bhawan NCL, Singrauli - MPPCB",31-03-2024 03:00:00,24.108970,82.645580,SO2,37,81,48
India,Madhya Pradesh,Ujjain,"Mahakaleshwar Temple, Ujjain - MPPCB",31-03-2024 03:00:00,23.182719 ,75.768218 ,NH3,5,8,7
India,Madhya Pradesh,Ujjain,"Mahakaleshwar Temple, Ujjain - MPPCB",31-03-2024 03:00:00,23.182719 ,75.768218 ,SO2,7,27,16
India,Madhya Pradesh,Ujjain,"Mahakaleshwar Temple, Ujjain - MPPCB",31-03-2024 03:00:00,23.182719 ,75.768218 ,CO,8,76,36
India,Maharashtra,Ahmednagar,"Tarakpur, Ahmednagar - MPCB",31-03-2024 03:00:00,19.10122,74.73339,PM2.5,40,95,64
India,Maharashtra,Ahmednagar,"Tarakpur, Ahmednagar - MPCB",31-03-2024 03:00:00,19.10122,74.73339,PM10,61,152,109
India,Maharashtra,Ahmednagar,"Tarakpur, Ahmednagar - MPCB",31-03-2024 03:00:00,19.10122,74.73339,SO2,17,21,18
India,Maharashtra,Akola,"Ramdaspeth, Akola - MPCB",31-03-2024 03:00:00,20.719516,77.000253,CO,16,108,57
India,Maharashtra,Amravati,"Shivneri Colony, Amravati - MPCB",31-03-2024 03:00:00,20.9402359,77.7895248,PM10,72,442,129
India,Maharashtra,Amravati,"Shivneri Colony, Amravati - MPCB",31-03-2024 03:00:00,20.9402359,77.7895248,SO2,22,23,22
India,Maharashtra,Amravati,"Shri Shivaji Science College, Amaravati - MPCB",31-03-2024 03:00:00,20.939198,77.765701,PM10,64,200,116
India,Maharashtra,Amravati,"Shri Shivaji Science College, Amaravati - MPCB",31-03-2024 03:00:00,20.939198,77.765701,SO2,2,8,4
India,Maharashtra,Aurangabad,"MIDC Chilkalthana, Aurangabad - MPCB",31-03-2024 03:00:00,19.875620,75.387310,PM10,49,149,106
India,Maharashtra,Aurangabad,"MIDC Chilkalthana, Aurangabad - MPCB",31-03-2024 03:00:00,19.875620,75.387310,OZONE,1,150,24
India,Maharashtra,Aurangabad,"More Chowk Waluj, Aurangabad - MPCB",31-03-2024 03:00:00,19.8389439,75.244448,PM10,62,138,94
India,Maharashtra,Aurangabad,"More Chowk Waluj, Aurangabad - MPCB",31-03-2024 03:00:00,19.8389439,75.244448,NH3,9,10,9
India,Maharashtra,Aurangabad,"Rachnakar Colony, Aurangabad - MPCB",31-03-2024 03:00:00,19.863756,75.321188,PM10,54,107,90
India,Maharashtra,Aurangabad,"Rachnakar Colony, Aurangabad - MPCB",31-03-2024 03:00:00,19.863756,75.321188,NH3,1,2,1
India,Maharashtra,Aurangabad,"Rachnakar Colony, Aurangabad - MPCB",31-03-2024 03:00:00,19.863756,75.321188,SO2,16,61,35
India,Maharashtra,Badlapur,"Katrap, Badlapur - MPCB",31-03-2024 03:00:00,19.16485,73.23409,SO2,5,15,7
India,Maharashtra,Badlapur,"Katrap, Badlapur - MPCB",31-03-2024 03:00:00,19.16485,73.23409,OZONE,2,93,50
India,Maharashtra,Belapur,"CBD Belapur, Belapur - MPCB",31-03-2024 03:00:00,19.0243902,73.0406721,PM2.5,34,123,61
India,Maharashtra,Bhiwandi,"Gokul Nagar, Bhiwandi - MPCB",31-03-2024 03:00:00,19.309073,73.057223,NH3,1,3,1
India,Maharashtra,Bhiwandi,"Gokul Nagar, Bhiwandi - MPCB",31-03-2024 03:00:00,19.309073,73.057223,SO2,2,18,6
India,Maharashtra,Boisar,"Khaira, Boisar - MPCB",31-03-2024 03:00:00,19.786089,72.757971,PM2.5,11,143,78
India,Maharashtra,Boisar,"Khaira, Boisar - MPCB",31-03-2024 03:00:00,19.786089,72.757971,NH3,2,10,4
India,Maharashtra,Chandrapur,"Chauhan Colony, Chandrapur - MPCB",31-03-2024 03:00:00,19.962900,79.298714,PM10,67,107,88
India,Maharashtra,Chandrapur,"Chauhan Colony, Chandrapur - MPCB",31-03-2024 03:00:00,19.962900,79.298714,NO2,12,32,21
India,Maharashtra,Chandrapur,"MIDC Khutala, Chandrapur - MPCB",31-03-2024 03:00:00,19.9775302,79.2337086,PM2.5,64,203,96
India,Maharashtra,Chandrapur,"MIDC Khutala, Chandrapur - MPCB",31-03-2024 03:00:00,19.9775302,79.2337086,CO,22,70,43
India,Maharashtra,Jalgaon,"Prabhat Colony, Jalgaon - MPCB",31-03-2024 03:00:00,21.001264,75.565602,NO2,14,123,38
India,Maharashtra,Jalgaon,"Prabhat Colony, Jalgaon - MPCB",31-03-2024 03:00:00,21.001264,75.565602,CO,10,38,18
India,Maharashtra,Jalna,"Old MIDC, Jalna - MPCB",31-03-2024 03:00:00,19.854616,75.905894,PM2.5,43,65,57
India,Maharashtra,Kalyan,"Khadakpada, Kalyan - MPCB",31-03-2024 03:00:00,19.25292,73.142019,OZONE,10,19,12
India,Maharashtra,Kolhapur,"Shivaji University, Kolhapur - MPCB",31-03-2024 03:00:00,16.6870449,74.2505872,OZONE,6,79,12
India,Maharashtra,Latur,"Sawe Wadi, Latur - MPCB",31-03-2024 03:00:00,18.39963,76.57452,PM2.5,67,126,93
India,Maharashtra,Latur,"Sawe Wadi, Latur - MPCB",31-03-2024 03:00:00,18.39963,76.57452,OZONE,28,77,46
India,Maharashtra,Malegaon,"Mahesh Nagar, Malegaon - MPCB",31-03-2024 03:00:00,20.555712,74.529236,PM10,80,146,112
India,Maharashtra,Mumbai,"Bandra Kurla Complex, Mumbai - MPCB",31-03-2024 03:00:00,19.065931,72.862131,PM10,97,187,125
India,Maharashtra,Mumbai,"Bandra Kurla Complex, Mumbai - MPCB",31-03-2024 03:00:00,19.065931,72.862131,NO2,4,19,10
India,Maharashtra,Mumbai,"Bandra Kurla Complex, Mumbai - MPCB",31-03-2024 03:00:00,19.065931,72.862131,SO2,1,2,1
India,Maharashtra,Mumbai,"Borivali East, Mumbai - MPCB",31-03-2024 03:00:00,19.2243333,72.8658113,NO2,6,21,13
India,Maharashtra,Mumbai,"Byculla, Mumbai - BMC",31-03-2024 03:00:00,18.9767,72.8380,OZONE,3,74,57
India,Maharashtra,Mumbai,"Chakala-Andheri East, Mumbai - IITM",31-03-2024 03:00:00,19.11074,72.86084,PM2.5,33,76,55
India,Maharashtra,Mumbai,"Chakala-Andheri East, Mumbai - IITM",31-03-2024 03:00:00,19.11074,72.86084,NO2,69,136,99
India,Maharashtra,Mumbai,"Chakala-Andheri East, Mumbai - IITM",31-03-2024 03:00:00,19.11074,72.86084,SO2,31,62,41
India,Maharashtra,Mumbai,"Chhatrapati Shivaji Intl. Airport (T2), Mumbai - MPCB",31-03-2024 03:00:00,19.10078,72.87462,NO2,1,46,20
India,Maharashtra,Mumbai,"Chhatrapati Shivaji Intl. Airport (T2), Mumbai - MPCB",31-03-2024 03:00:00,19.10078,72.87462,NH3,1,7,2
India,Maharashtra,Mumbai,"Chhatrapati Shivaji Intl. Airport (T2), Mumbai - MPCB",31-03-2024 03:00:00,19.10078,72.87462,OZONE,4,8,5
India,Maharashtra,Mumbai,"Ghatkopar, Mumbai - BMC",31-03-2024 03:00:00,19.083694,72.920967,PM2.5,22,60,42
India,Maharashtra,Mumbai,"Kandivali East, Mumbai - MPCB",31-03-2024 03:00:00,19.205800,72.868200,OZONE,29,31,30
India,Maharashtra,Mumbai,"Kandivali West, Mumbai - BMC",31-03-2024 03:00:00,19.215859,72.831718,PM2.5,25,91,45
India,Maharashtra,Mumbai,"Kandivali West, Mumbai - BMC",31-03-2024 03:00:00,19.215859,72.831718,PM10,29,75,41
India,Maharashtra,Mumbai,"Kandivali West, Mumbai - BMC",31-03-2024 03:00:00,19.215859,72.831718,CO,6,28,16
India,Maharashtra,Mumbai,"Kandivali West, Mumbai - BMC",31-03-2024 03:00:00,19.215859,72.831718,OZONE,1,26,14
India,Maharashtra,Mumbai,"Kherwadi_Bandra East, Mumbai - MPCB",31-03-2024 03:00:00,19.0632143,72.8456324,PM2.5,30,77,53
India,Maharashtra,Mumbai,"Kherwadi_Bandra East, Mumbai - MPCB",31-03-2024 03:00:00,19.0632143,72.8456324,PM10,72,113,98
India,Maharashtra,Mumbai,"Khindipada-Bhandup West, Mumbai - IITM",31-03-2024 03:00:00,19.1653323,72.922099,NO2,8,16,15
India,Maharashtra,Mumbai,"Kurla, Mumbai - MPCB",31-03-2024 03:00:00,19.0863,72.8888,OZONE,27,29,29
India,Maharashtra,Mumbai,"Mazgaon, Mumbai - IITM",31-03-2024 03:00:00,18.96702,72.84214,SO2,8,15,11
India,Maharashtra,Mumbai,"Mindspace-Malad West, Mumbai - MPCB",31-03-2024 03:00:00,19.1878657,72.8304069,NH3,4,5,4
India,Maharashtra,Mumbai,"Mulund West, Mumbai - MPCB",31-03-2024 03:00:00,19.1750,72.9419,NH3,10,11,10
India,Maharashtra,Mumbai,"Mulund West, Mumbai - MPCB",31-03-2024 03:00:00,19.1750,72.9419,SO2,13,13,13
India,Maharashtra,Mumbai,"Mulund West, Mumbai - MPCB",31-03-2024 03:00:00,19.1750,72.9419,CO,36,36,36
India,Maharashtra,Mumbai,"Powai, Mumbai - MPCB",31-03-2024 03:00:00,19.137500,72.915056,PM2.5,32,91,49
India,Maharashtra,Mumbai,"Powai, Mumbai - MPCB",31-03-2024 03:00:00,19.137500,72.915056,PM10,76,148,117
India,Maharashtra,Mumbai,"Powai, Mumbai - MPCB",31-03-2024 03:00:00,19.137500,72.915056,NH3,1,1,1
India,Maharashtra,Mumbai,"Powai, Mumbai - MPCB",31-03-2024 03:00:00,19.137500,72.915056,CO,32,39,34
India,Maharashtra,Mumbai,"Powai, Mumbai - MPCB",31-03-2024 03:00:00,19.137500,72.915056,OZONE,24,80,57
India,Maharashtra,Mumbai,"Sewri, Mumbai - BMC",31-03-2024 03:00:00,19.000084,72.856730,PM10,52,96,71
India,Maharashtra,Mumbai,"Sewri, Mumbai - BMC",31-03-2024 03:00:00,19.000084,72.856730,NO2,27,70,42
India,Maharashtra,Mumbai,"Sewri, Mumbai - BMC",31-03-2024 03:00:00,19.000084,72.856730,NH3,1,8,6
India,Maharashtra,Mumbai,"Shivaji Nagar, Mumbai - BMC",31-03-2024 03:00:00,19.060498,72.923356,NO2,52,121,76
India,Maharashtra,Mumbai,"Shivaji Nagar, Mumbai - BMC",31-03-2024 03:00:00,19.060498,72.923356,NH3,5,8,7
India,Maharashtra,Mumbai,"Siddharth Nagar-Worli, Mumbai - IITM",31-03-2024 03:00:00,19.000083,72.813993,PM10,76,127,100
India,Maharashtra,Mumbai,"Siddharth Nagar-Worli, Mumbai - IITM",31-03-2024 03:00:00,19.000083,72.813993,NO2,18,27,20
India,Maharashtra,Mumbai,"Siddharth Nagar-Worli, Mumbai - IITM",31-03-2024 03:00:00,19.000083,72.813993,NH3,1,2,2
India,Maharashtra,Mumbai,"Siddharth Nagar-Worli, Mumbai - IITM",31-03-2024 03:00:00,19.000083,72.813993,CO,17,42,29
India,Maharashtra,Mumbai,"Siddharth Nagar-Worli, Mumbai - IITM",31-03-2024 03:00:00,19.000083,72.813993,OZONE,23,86,63
India,Maharashtra,Mumbai,"Sion, Mumbai - MPCB",31-03-2024 03:00:00,19.047000,72.874600,PM10,99,177,128
India,Maharashtra,Mumbai,"Sion, Mumbai - MPCB",31-03-2024 03:00:00,19.047000,72.874600,NO2,12,55,29
India,Maharashtra,Mumbai,"Sion, Mumbai - MPCB",31-03-2024 03:00:00,19.047000,72.874600,NH3,1,1,1
India,Maharashtra,Mumbai,"Vasai West, Mumbai - MPCB",31-03-2024 03:00:00,19.383200,72.820400,SO2,16,30,23
India,Maharashtra,Mumbai,"Vasai West, Mumbai - MPCB",31-03-2024 03:00:00,19.383200,72.820400,OZONE,15,67,67
India,Maharashtra,Mumbai,"Vile Parle West, Mumbai - MPCB",31-03-2024 03:00:00,19.10861,72.83622,PM10,80,156,111
India,Maharashtra,Mumbai,"Worli, Mumbai - MPCB",31-03-2024 03:00:00,18.9936162,72.8128113,PM2.5,24,53,38
India,Maharashtra,Mumbai,"Worli, Mumbai - MPCB",31-03-2024 03:00:00,18.9936162,72.8128113,PM10,63,125,97
India,Maharashtra,Mumbai,"Worli, Mumbai - MPCB",31-03-2024 03:00:00,18.9936162,72.8128113,SO2,11,11,11
India,Maharashtra,Mumbai,"Worli, Mumbai - MPCB",31-03-2024 03:00:00,18.9936162,72.8128113,OZONE,5,9,7
India,Maharashtra,Nagpur,"Ambazari, Nagpur - MPCB",31-03-2024 03:00:00,21.121801,79.04952,NO2,11,93,34
India,Maharashtra,Nagpur,"Ambazari, Nagpur - MPCB",31-03-2024 03:00:00,21.121801,79.04952,OZONE,21,141,55
India,Maharashtra,Nagpur,"Opp GPO Civil Lines, Nagpur - MPCB",31-03-2024 03:00:00,21.152875,79.0517531,NH3,4,12,7
India,Maharashtra,Nagpur,"Ram Nagar, Nagpur - MPCB",31-03-2024 03:00:00,21.143383,79.048912,PM2.5,57,272,98
India,Maharashtra,Nanded,"Sneh Nagar, Nanded - MPCB",31-03-2024 03:00:00,19.173852,77.296291,NO2,18,29,22
India,Maharashtra,Nashik,"Gangapur Road, Nashik - MPCB",31-03-2024 03:00:00,20.0073285,73.7762427,NH3,1,1,1
India,Maharashtra,Nashik,"Gangapur Road, Nashik - MPCB",31-03-2024 03:00:00,20.0073285,73.7762427,CO,50,109,68
India,Maharashtra,Nashik,"Hirawadi, Nashik - MPCB",31-03-2024 03:00:00,20.021503,73.813844,PM2.5,53,80,65
India,Maharashtra,Nashik,"Hirawadi, Nashik - MPCB",31-03-2024 03:00:00,20.021503,73.813844,PM10,67,87,81
India,Maharashtra,Nashik,"Hirawadi, Nashik - MPCB",31-03-2024 03:00:00,20.021503,73.813844,NH3,2,3,2
India,Maharashtra,Nashik,"Pandav Nagari, Nashik - MPCB",31-03-2024 03:00:00,19.9591346,73.7788008,PM2.5,56,98,71
India,Maharashtra,Nashik,"Pandav Nagari, Nashik - MPCB",31-03-2024 03:00:00,19.9591346,73.7788008,CO,14,48,19
India,Maharashtra,Navi Mumbai,"Mahape, Navi Mumbai - MPCB",31-03-2024 03:00:00,19.1135051,73.008978,SO2,26,27,27
India,Maharashtra,Navi Mumbai,"Nerul, Navi Mumbai - MPCB",31-03-2024 03:00:00,19.008751,73.016620,PM10,108,308,155
India,Maharashtra,Navi Mumbai,"Sanpada, Navi Mumbai - MPCB",31-03-2024 03:00:00,19.0575752,73.0151367,PM2.5,42,85,66
India,Maharashtra,Navi Mumbai,"Sanpada, Navi Mumbai - MPCB",31-03-2024 03:00:00,19.0575752,73.0151367,NO2,11,36,23
India,Maharashtra,Navi Mumbai,"Sanpada, Navi Mumbai - MPCB",31-03-2024 03:00:00,19.0575752,73.0151367,NH3,5,11,8
India,Maharashtra,Navi Mumbai,"Sector-19A Nerul, Navi Mumbai - IITM",31-03-2024 03:00:00,19.044,73.0325,CO,27,100,69
India,Maharashtra,Navi Mumbai,"Sector-19A Nerul, Navi Mumbai - IITM",31-03-2024 03:00:00,19.044,73.0325,OZONE,4,79,8
India,Maharashtra,Navi Mumbai,"Sector-2E Kalamboli, Navi Mumbai - MPCB",31-03-2024 03:00:00,19.02579,73.10297,SO2,1,22,8
India,Maharashtra,Navi Mumbai,"Sector-2E Kalamboli, Navi Mumbai - MPCB",31-03-2024 03:00:00,19.02579,73.10297,CO,12,50,36
India,Maharashtra,Parbhani,"Masoom Colony, Parbhani - MPCB",31-03-2024 03:00:00,19.265594,76.761463,NO2,18,42,24
India,Maharashtra,Parbhani,"Masoom Colony, Parbhani - MPCB",31-03-2024 03:00:00,19.265594,76.761463,SO2,5,24,12
India,Maharashtra,Pimpri-Chinchwad,"Gavalinagar, Pimpri Chinchwad - MPCB",31-03-2024 03:00:00,18.63673,73.82487,PM2.5,44,199,93
India,Maharashtra,Pimpri-Chinchwad,"Park Street Wakad, Pimpri Chinchwad - MPCB",31-03-2024 03:00:00,18.59051,73.77946,PM2.5,50,154,79
India,Maharashtra,Pimpri-Chinchwad,"Thergaon, Pimpri Chinchwad - MPCB",31-03-2024 03:00:00,18.616318,73.765797,PM10,NA,NA,NA
India,Maharashtra,Pune,"Bhosari, Pune - IITM",31-03-2024 03:00:00,18.640051,73.848956,NO2,13,14,14
India,Maharashtra,Pune,"Mhada Colony, Pune - IITM",31-03-2024 03:00:00,18.573040,73.927715,PM2.5,44,127,69
India,Maharashtra,Pune,"Mhada Colony, Pune - IITM",31-03-2024 03:00:00,18.573040,73.927715,PM10,53,103,82
India,Maharashtra,Pune,"Mhada Colony, Pune - IITM",31-03-2024 03:00:00,18.573040,73.927715,NO2,4,19,14
India,Maharashtra,Pune,"Mhada Colony, Pune - IITM",31-03-2024 03:00:00,18.573040,73.927715,OZONE,21,29,24
India,Maharashtra,Pune,"Revenue Colony-Shivajinagar, Pune - IITM",31-03-2024 03:00:00,18.530085,73.849598,PM2.5,30,160,77
India,Maharashtra,Pune,"Revenue Colony-Shivajinagar, Pune - IITM",31-03-2024 03:00:00,18.530085,73.849598,CO,96,117,113
India,Maharashtra,Pune,"Savitribai Phule Pune University, Pune - MPCB",31-03-2024 03:00:00,18.547056,73.826908,CO,12,46,23
India,Maharashtra,Pune,"Transport Nagar-Nigdi, Pune - IITM",31-03-2024 03:00:00,18.664282,73.763966,PM2.5,35,80,59
India,Maharashtra,Pune,"Transport Nagar-Nigdi, Pune - IITM",31-03-2024 03:00:00,18.664282,73.763966,CO,44,62,56
India,Maharashtra,Solapur,"Ratandeep Housing Society, Solapur - MPCB",31-03-2024 03:00:00,17.65439,75.90649,PM2.5,63,124,90
India,Maharashtra,Solapur,"Ratandeep Housing Society, Solapur - MPCB",31-03-2024 03:00:00,17.65439,75.90649,PM10,78,122,97
India,Maharashtra,Solapur,"Ratandeep Housing Society, Solapur - MPCB",31-03-2024 03:00:00,17.65439,75.90649,NO2,12,102,37
India,Maharashtra,Solapur,"Ratandeep Housing Society, Solapur - MPCB",31-03-2024 03:00:00,17.65439,75.90649,SO2,1,22,7
India,Maharashtra,Thane,"Pimpleshwar Mandir, Thane - MPCB",31-03-2024 03:00:00,19.192056,72.9585188,OZONE,1,57,23
India,Maharashtra,Thane,"Upvan Fort, Thane - MPCB",31-03-2024 03:00:00,19.222279,72.957979,PM2.5,37,64,54
India,Maharashtra,Ulhasnagar,"Sidhi Vinayak Nagar, Ulhasnagar - MPCB",31-03-2024 03:00:00,19.235581,73.159121,PM2.5,88,204,129
India,Maharashtra,Ulhasnagar,"Sidhi Vinayak Nagar, Ulhasnagar - MPCB",31-03-2024 03:00:00,19.235581,73.159121,NH3,2,3,2
India,Maharashtra,Virar,"Bolinj, Virar - MPCB",31-03-2024 03:00:00,19.4458210,72.7988231,NO2,6,47,18
India,Manipur,Imphal,"Manipur University, Imphal - Manipur PCB",31-03-2024 03:00:00,24.7524239,93.9286218,NO2,10,21,15
India,Manipur,Imphal,"Manipur University, Imphal - Manipur PCB",31-03-2024 03:00:00,24.7524239,93.9286218,OZONE,NA,NA,NA
India,Meghalaya,Shillong,"Lumpyngngad, Shillong - Meghalaya PCB",31-03-2024 03:00:00,25.5586,91.8985,CO,9,18,12
India,Nagaland,Kohima,"PWD Juction, Kohima - NPCB",31-03-2024 03:00:00,25.6635413,94.0989878,PM10,63,140,100
India,Odisha,Angul,"Hakimapada, Angul - OSPCB",31-03-2024 03:00:00,20.832874,85.104082,SO2,9,112,43
India,Odisha,Angul,"Hakimapada, Angul - OSPCB",31-03-2024 03:00:00,20.832874,85.104082,OZONE,2,298,55
India,Odisha,Balasore,"Kalidaspur, Balasore - OSPCB",31-03-2024 03:00:00,21.51161,86.89088,NO2,9,25,16
India,Odisha,Baripada,"Meher Colony, Baripada - OSPCB",31-03-2024 03:00:00,21.941841,86.728318,PM10,69,117,93
India,Odisha,Baripada,"Meher Colony, Baripada - OSPCB",31-03-2024 03:00:00,21.941841,86.728318,NO2,1,1,1
India,Odisha,Bhubaneswar,"Lingraj Mandir, Bhubaneswar - OSPCB",31-03-2024 03:00:00,20.240790,85.836784,SO2,1,7,5
India,Odisha,Bhubaneswar,"Lingraj Mandir, Bhubaneswar - OSPCB",31-03-2024 03:00:00,20.240790,85.836784,CO,50,66,58
India,Odisha,Bhubaneswar,"Patia, Bhubaneswar - OSPCB",31-03-2024 03:00:00,20.34652,85.81630,SO2,3,11,7
India,Odisha,Bileipada,"Tata Township, Bileipada - OSPCB",31-03-2024 03:00:00,22.06156703,85.47409613,NH3,11,11,11
India,Odisha,Cuttack,"CDA Area, Cuttack - OSPCB",31-03-2024 03:00:00,20.48891     ,85.84768     ,NH3,1,1,1
India,Odisha,Cuttack,"CDA Area, Cuttack - OSPCB",31-03-2024 03:00:00,20.48891     ,85.84768     ,OZONE,8,134,21
India,Odisha,Keonjhar,"Jagamohanpur, Keonjhar - OSPCB",31-03-2024 03:00:00,21.643900,85.599355,SO2,NA,NA,NA
India,Odisha,Keonjhar,"Jagamohanpur, Keonjhar - OSPCB",31-03-2024 03:00:00,21.643900,85.599355,OZONE,1,31,2
India,Odisha,Nayagarh,"Dabuna, Nayagarh - OSPCB",31-03-2024 03:00:00,21.847279,85.416905,PM10,106,403,207
India,Odisha,Nayagarh,"Dabuna, Nayagarh - OSPCB",31-03-2024 03:00:00,21.847279,85.416905,OZONE,3,54,16
India,Odisha,Rairangpur,"Divisional Forest Office, Rairangpur - OSPCB",31-03-2024 03:00:00,22.265816,86.174829,CO,17,42,35
India,Odisha,Rourkela,"Raghunathpali, Rourkela - OSPCB",31-03-2024 03:00:00,22.220833,84.809444,PM10,68,284,157
India,Odisha,Rourkela,"Sector-2, Rourkela - OSPCB",31-03-2024 03:00:00,22.24500000,84.88111111,PM10,139,190,151
India,Odisha,Rourkela,"Sector-2, Rourkela - OSPCB",31-03-2024 03:00:00,22.24500000,84.88111111,CO,28,74,47
India,Odisha,Suakati,"OMC Colony, Suakati - OSPCB",31-03-2024 03:00:00,21.606865,85.510538,PM2.5,133,275,197
India,Odisha,Tensa,"Barsua Iron Ore Mines, Tensa - OSPCB",31-03-2024 03:00:00,21.869985,85.167016,CO,27,37,32
India,Puducherry,Puducherry,"Jawahar Nagar, Puducherry - PPCC",31-03-2024 03:00:00,11.9309,79.8027,SO2,4,10,7
India,Puducherry,Puducherry,"Jawahar Nagar, Puducherry - PPCC",31-03-2024 03:00:00,11.9309,79.8027,OZONE,1,34,17
India,Punjab,Amritsar,"Golden Temple, Amritsar - PPCB",31-03-2024 03:00:00,31.620000,74.876512,PM10,66,137,81
India,Punjab,Amritsar,"Golden Temple, Amritsar - PPCB",31-03-2024 03:00:00,31.620000,74.876512,CO,8,112,23
India,Punjab,Jalandhar,"Civil Line, Jalandhar - PPCB",31-03-2024 03:00:00,31.321907,75.578914,NH3,2,2,2
India,Punjab,Jalandhar,"Civil Line, Jalandhar - PPCB",31-03-2024 03:00:00,31.321907,75.578914,CO,4,103,54
India,Punjab,Khanna,"Kalal Majra, Khanna - PPCB",31-03-2024 03:00:00,30.736056 ,76.209694,PM2.5,18,226,50
India,Punjab,Khanna,"Kalal Majra, Khanna - PPCB",31-03-2024 03:00:00,30.736056 ,76.209694,PM10,22,183,61
India,Punjab,Ludhiana,"Punjab Agricultural University, Ludhiana - PPCB",31-03-2024 03:00:00,30.9028,75.8086,OZONE,9,45,13
India,Punjab,Mandi Gobindgarh,"RIMT University, Mandi Gobindgarh - PPCB",31-03-2024 03:00:00,30.649961,76.331442,SO2,NA,NA,NA
India,Punjab,Mandi Gobindgarh,"RIMT University, Mandi Gobindgarh - PPCB",31-03-2024 03:00:00,30.649961,76.331442,CO,8,52,16
India,Punjab,Patiala,"Model Town, Patiala - PPCB",31-03-2024 03:00:00,30.349388,76.366642,PM10,24,128,64
India,Punjab,Patiala,"Model Town, Patiala - PPCB",31-03-2024 03:00:00,30.349388,76.366642,CO,10,56,34
India,Punjab,Patiala,"Model Town, Patiala - PPCB",31-03-2024 03:00:00,30.349388,76.366642,OZONE,8,46,13
India,Punjab,Rupnagar,"Ratanpura, Rupnagar - Ambuja Cements",31-03-2024 03:00:00,31.0325454,76.5623046,PM2.5,NA,NA,NA
India,Rajasthan,Ajmer,"Civil Lines,  Ajmer - RSPCB",31-03-2024 03:00:00,26.470859,74.646594,NO2,11,13,12
India,Rajasthan,Alwar,"Moti Doongri, Alwar - RSPCB",31-03-2024 03:00:00,27.554793,76.611536,NO2,35,67,45
India,Rajasthan,Alwar,"Moti Doongri, Alwar - RSPCB",31-03-2024 03:00:00,27.554793,76.611536,NH3,4,9,6
India,Rajasthan,Alwar,"Moti Doongri, Alwar - RSPCB",31-03-2024 03:00:00,27.554793,76.611536,OZONE,8,19,11
India,Rajasthan,Banswara,"Rati Talai, Banswara - RSPCB",31-03-2024 03:00:00,23.555190,74.440010,SO2,39,72,54
India,Rajasthan,Baran,"Bamboliya, Baran - RSPCB",31-03-2024 03:00:00,25.106006,76.469948,OZONE,20,113,50
India,Rajasthan,Barmer,"Railway Colony, Barmer - RSPCB",31-03-2024 03:00:00,25.747299,71.393989,CO,5,38,17
India,Rajasthan,Barmer,"Railway Colony, Barmer - RSPCB",31-03-2024 03:00:00,25.747299,71.393989,OZONE,69,82,74
India,Rajasthan,Bharatpur,"Krishna Nagar, Bharatpur - RSPCB",31-03-2024 03:00:00,27.215415,77.50873,PM10,67,423,180
India,Rajasthan,Bharatpur,"Krishna Nagar, Bharatpur - RSPCB",31-03-2024 03:00:00,27.215415,77.50873,SO2,5,16,10
India,Rajasthan,Bhilwara,"Pratap Nagar, Bhilwara - RSPCB",31-03-2024 03:00:00,25.339605,74.618883,CO,12,35,22
India,Rajasthan,Bikaner,"MM Ground, Bikaner - RSPCB",31-03-2024 03:00:00,28.018792,73.292658,PM10,114,266,163
India,Rajasthan,Bikaner,"MM Ground, Bikaner - RSPCB",31-03-2024 03:00:00,28.018792,73.292658,SO2,1,16,5
India,Rajasthan,Bundi,"New Colony, Bundi - RSPCB",31-03-2024 03:00:00,25.435774,75.644272,PM2.5,13,70,33
India,Rajasthan,Chittorgarh,"Shastri Nagar, Chittorgarh - RSPCB",31-03-2024 03:00:00,24.892047,74.623527,CO,12,24,18
India,Rajasthan,Chittorgarh,"Shastri Nagar, Chittorgarh - RSPCB",31-03-2024 03:00:00,24.892047,74.623527,OZONE,14,97,59
India,Rajasthan,Dausa,"Khatikan Mohalla, Dausa - RSPCB",31-03-2024 03:00:00,26.895552,76.334753,PM2.5,12,121,47
India,Rajasthan,Dausa,"Khatikan Mohalla, Dausa - RSPCB",31-03-2024 03:00:00,26.895552,76.334753,NO2,24,90,55
India,Rajasthan,Dausa,"Khatikan Mohalla, Dausa - RSPCB",31-03-2024 03:00:00,26.895552,76.334753,SO2,7,110,14
India,Rajasthan,Dausa,"Khatikan Mohalla, Dausa - RSPCB",31-03-2024 03:00:00,26.895552,76.334753,CO,11,114,72
India,Rajasthan,Dausa,"Khatikan Mohalla, Dausa - RSPCB",31-03-2024 03:00:00,26.895552,76.334753,OZONE,6,114,36
India,Rajasthan,Dholpur,"Raja Ganj, Dholpur - RSPCB",31-03-2024 03:00:00,26.699557,77.898881,PM2.5,15,119,58
India,Rajasthan,Hanumangarh,"Housing Board, Hanumangarh - RSPCB",31-03-2024 03:00:00,29.610750,74.283608,CO,45,80,66
India,Rajasthan,Jaipur,"Adarsh Nagar, Jaipur - RSPCB",31-03-2024 03:00:00,26.902909,75.836858,PM10,81,135,108
India,Rajasthan,Jaipur,"Mansarovar Sector-12, Jaipur - RSPCB",31-03-2024 03:00:00,26.843698,75.766894,OZONE,7,115,44
India,Rajasthan,Jaipur,"Police Commissionerate, Jaipur - RSPCB",31-03-2024 03:00:00,26.9164092,75.7994901,NO2,26,86,51
India,Rajasthan,Jaipur,"Police Commissionerate, Jaipur - RSPCB",31-03-2024 03:00:00,26.9164092,75.7994901,NH3,2,10,6
India,Rajasthan,Jaipur,"Police Commissionerate, Jaipur - RSPCB",31-03-2024 03:00:00,26.9164092,75.7994901,OZONE,12,72,22
India,Rajasthan,Jaipur,"RIICO Sitapura, Jaipur - RSPCB",31-03-2024 03:00:00,26.786682,75.827928,NH3,2,12,6
India,Rajasthan,Jaipur,"Sector-2 Murlipura, Jaipur - RSPCB",31-03-2024 03:00:00,26.960669,75.771817,CO,24,102,58
India,Rajasthan,Jaipur,"Shastri Nagar, Jaipur - RSPCB",31-03-2024 03:00:00,26.9502929,75.730943,PM10,108,148,131
India,Rajasthan,Jaipur,"Shastri Nagar, Jaipur - RSPCB",31-03-2024 03:00:00,26.9502929,75.730943,CO,3,61,40
India,Rajasthan,Jaisalmer,"Sadar Bazar, Jaisalmer - RSPCB",31-03-2024 03:00:00,26.912329,70.909168,PM2.5,11,37,24
India,Rajasthan,Jalore,"Mudtra Sili, Jalore - RSPCB",31-03-2024 03:00:00,25.344694,72.626208,PM10,50,96,74
India,Rajasthan,Jalore,"Mudtra Sili, Jalore - RSPCB",31-03-2024 03:00:00,25.344694,72.626208,NH3,3,5,4
India,Rajasthan,Jhunjhunu,"Indra Nagar, Jhunjhunu - RSPCB",31-03-2024 03:00:00,28.108988,75.386577,NO2,17,30,24
India,Rajasthan,Jodhpur,"Collectorate, Jodhpur - RSPCB",31-03-2024 03:00:00,26.268249,73.0193853,PM2.5,36,177,87
India,Rajasthan,Jodhpur,"Collectorate, Jodhpur - RSPCB",31-03-2024 03:00:00,26.268249,73.0193853,CO,25,92,51
India,Rajasthan,Jodhpur,"Digari Kalan, Jodhpur - RSPCB",31-03-2024 03:00:00,26.295810,73.082283,PM2.5,13,59,30
India,Rajasthan,Jodhpur,"Digari Kalan, Jodhpur - RSPCB",31-03-2024 03:00:00,26.295810,73.082283,NO2,2,60,20
India,Rajasthan,Jodhpur,"Digari Kalan, Jodhpur - RSPCB",31-03-2024 03:00:00,26.295810,73.082283,OZONE,22,94,35
India,Rajasthan,Jodhpur,"Mandor, Jodhpur - RSPCB",31-03-2024 03:00:00,26.358805,73.047444,SO2,1,4,2
India,Rajasthan,Jodhpur,"Mandor, Jodhpur - RSPCB",31-03-2024 03:00:00,26.358805,73.047444,OZONE,44,71,51
India,Rajasthan,Karauli,"Satyawati Vihar, Karauli - RSPCB",31-03-2024 03:00:00,26.506177,77.025989,PM10,44,153,91
India,Rajasthan,Kota,"Dhanmandi, Kota - RSPCB",31-03-2024 03:00:00,25.164090,75.858137,PM10,48,142,94
India,Rajasthan,Kota,"Dhanmandi, Kota - RSPCB",31-03-2024 03:00:00,25.164090,75.858137,OZONE,10,127,38
India,Rajasthan,Kota,"Nayapura, Kota - RSPCB",31-03-2024 03:00:00,25.196024,75.855668,PM10,71,148,115
India,Rajasthan,Kota,"Shrinath Puram, Kota - RSPCB",31-03-2024 03:00:00,25.14389,75.821256,PM10,71,99,82
India,Rajasthan,Kota,"Shrinath Puram, Kota - RSPCB",31-03-2024 03:00:00,25.14389,75.821256,NH3,2,4,3
India,Rajasthan,Pali,"Indira Colony Vistar, Pali - RSPCB",31-03-2024 03:00:00,25.771061, 73.340227,PM2.5,32,108,70
India,Rajasthan,Pali,"Indira Colony Vistar, Pali - RSPCB",31-03-2024 03:00:00,25.771061, 73.340227,NH3,1,4,2
India,Rajasthan,Sawai Madhopur,"Sahu Nagar, Sawai Madhopur - RSPCB",31-03-2024 03:00:00,26.031443,76.359327,OZONE,6,92,27
India,Rajasthan,Sirohi,"Vedhaynath Colony, Sirohi - RSPCB",31-03-2024 03:00:00,24.885261,72.857549,OZONE,30,88,56
India,Rajasthan,Sri Ganganagar,"Old City, Sri Ganganagar - RSPCB",31-03-2024 03:00:00,29.931624,73.864511,PM2.5,7,95,45
India,Rajasthan,Sri Ganganagar,"Old City, Sri Ganganagar - RSPCB",31-03-2024 03:00:00,29.931624,73.864511,SO2,4,10,7
India,Rajasthan,Sri Ganganagar,"Old City, Sri Ganganagar - RSPCB",31-03-2024 03:00:00,29.931624,73.864511,CO,28,102,67
India,Rajasthan,Udaipur,"Ashok Nagar, Udaipur - RSPCB",31-03-2024 03:00:00,24.5886166,73.6321397,PM2.5,46,168,100
India,Rajasthan,Udaipur,"Ashok Nagar, Udaipur - RSPCB",31-03-2024 03:00:00,24.5886166,73.6321397,CO,6,67,29
India,TamilNadu,Ariyalur,"Keelapalur, Ariyalur - TNPCB",31-03-2024 03:00:00,11.06825,79.07033,PM10,24,49,38
India,TamilNadu,Chennai,"Alandur Bus Depot, Chennai - CPCB",31-03-2024 03:00:00,12.9099161,80.1076538,PM10,36,71,47
India,TamilNadu,Chennai,"Arumbakkam, Chennai - TNPCB",31-03-2024 03:00:00,13.0664,80.2112 ,NH3,2,5,4
India,TamilNadu,Chennai,"Kodungaiyur, Chennai - TNPCB",31-03-2024 03:00:00,13.1278,80.2642,PM10,18,96,51
India,TamilNadu,Coimbatore,"PSG College of Arts and Science, Coimbatore - TNPCB",31-03-2024 03:00:00,11.0328,77.0349,CO,NA,NA,NA
India,TamilNadu,Cuddalore,"Kudikadu, Cuddalore - TNPCB",31-03-2024 03:00:00,11.6829898,79.7532099,PM2.5,NA,NA,NA
India,TamilNadu,Cuddalore,"Semmandalam, Cuddalore - TNPCB",31-03-2024 03:00:00,11.7637683,79.7499835,NO2,3,20,10
India,TamilNadu,Cuddalore,"Semmandalam, Cuddalore - TNPCB",31-03-2024 03:00:00,11.7637683,79.7499835,NH3,1,3,2
India,TamilNadu,Cuddalore,"Semmandalam, Cuddalore - TNPCB",31-03-2024 03:00:00,11.7637683,79.7499835,OZONE,1,2,2
India,TamilNadu,Gummidipoondi,"Anthoni Pillai Nagar, Gummidipoondi - TNPCB",31-03-2024 03:00:00,13.4127,80.1081,PM2.5,25,326,88
India,TamilNadu,Ooty,"Bombay Castel, Ooty - TNPCB",31-03-2024 03:00:00,11.4068288,76.7138973,PM2.5,NA,NA,NA
India,TamilNadu,Ooty,"Bombay Castel, Ooty - TNPCB",31-03-2024 03:00:00,11.4068288,76.7138973,NO2,NA,NA,NA
India,TamilNadu,Ooty,"Bombay Castel, Ooty - TNPCB",31-03-2024 03:00:00,11.4068288,76.7138973,OZONE,NA,NA,NA
India,TamilNadu,Ramanathapuram,"Chalai Bazaar, Ramanathapuram - TNPCB",31-03-2024 03:00:00,9.36399,78.831977,NH3,1,1,1
India,TamilNadu,Ramanathapuram,"Chalai Bazaar, Ramanathapuram - TNPCB",31-03-2024 03:00:00,9.36399,78.831977,OZONE,13,14,14
India,TamilNadu,Thoothukudi,"Meelavittan, Thoothukudi - TNPCB",31-03-2024 03:00:00,8.816428 ,78.099039,OZONE,3,109,36
India,Telangana,Hyderabad,"Central University, Hyderabad - TSPCB",31-03-2024 03:00:00,17.460103,78.334361,PM2.5,27,46,37
India,Telangana,Hyderabad,"ECIL Kapra, Hyderabad - TSPCB",31-03-2024 03:00:00,17.470431,78.566959,PM2.5,51,71,58
India,Telangana,Hyderabad,"ECIL Kapra, Hyderabad - TSPCB",31-03-2024 03:00:00,17.470431,78.566959,PM10,60,89,67
India,Telangana,Hyderabad,"ICRISAT Patancheru, Hyderabad - TSPCB",31-03-2024 03:00:00,17.518400,78.278777,NH3,2,2,2
India,Telangana,Hyderabad,"ICRISAT Patancheru, Hyderabad - TSPCB",31-03-2024 03:00:00,17.518400,78.278777,CO,28,80,58
India,Telangana,Hyderabad,"IITH Kandi, Hyderabad - TSPCB",31-03-2024 03:00:00,17.585705,78.126199,PM10,51,84,67
India,Telangana,Hyderabad,"IITH Kandi, Hyderabad - TSPCB",31-03-2024 03:00:00,17.585705,78.126199,NO2,8,15,13
India,Telangana,Hyderabad,"IITH Kandi, Hyderabad - TSPCB",31-03-2024 03:00:00,17.585705,78.126199,SO2,7,12,9
India,Telangana,Hyderabad,"Kompally Municipal Office, Hyderabad - TSPCB",31-03-2024 03:00:00,17.544899,78.486949,PM2.5,NA,NA,NA
India,Telangana,Hyderabad,"Kompally Municipal Office, Hyderabad - TSPCB",31-03-2024 03:00:00,17.544899,78.486949,NO2,NA,NA,NA
India,Telangana,Hyderabad,"Nacharam_TSIIC IALA, Hyderabad - TSPCB",31-03-2024 03:00:00,17.429398,78.569354,NO2,12,12,12
India,Telangana,Hyderabad,"Nacharam_TSIIC IALA, Hyderabad - TSPCB",31-03-2024 03:00:00,17.429398,78.569354,OZONE,18,40,26
India,Telangana,Hyderabad,"Ramachandrapuram, Hyderabad - TSPCB",31-03-2024 03:00:00,17.528544,78.286195,PM2.5,27,35,31
India,Telangana,Hyderabad,"Somajiguda, Hyderabad - TSPCB",31-03-2024 03:00:00,17.417094,78.457437,NO2,NA,NA,NA
India,Tripura,Agartala,"Bardowali, Agartala - Tripura SPCB",31-03-2024 03:00:00,23.8175497,91.2726974,PM2.5,46,117,76
India,Tripura,Agartala,"Bardowali, Agartala - Tripura SPCB",31-03-2024 03:00:00,23.8175497,91.2726974,PM10,46,113,86
India,Uttar_Pradesh,Agra,"Manoharpur, Agra - UPPCB",31-03-2024 03:00:00,27.23711,78.01936,PM2.5,14,93,51
India,Uttar_Pradesh,Agra,"Manoharpur, Agra - UPPCB",31-03-2024 03:00:00,27.23711,78.01936,OZONE,2,59,24
India,Uttar_Pradesh,Agra,"Rohta, Agra - UPPCB",31-03-2024 03:00:00,27.106972,78.000111,CO,6,20,17
India,Uttar_Pradesh,Agra,"Sanjay Palace, Agra - UPPCB",31-03-2024 03:00:00,27.19865833,78.00598056,PM10,28,101,52
India,Uttar_Pradesh,Agra,"Sanjay Palace, Agra - UPPCB",31-03-2024 03:00:00,27.19865833,78.00598056,SO2,6,11,9
India,Uttar_Pradesh,Agra,"Sector-3B Avas Vikas Colony, Agra - UPPCB",31-03-2024 03:00:00,27.19412,77.96237,NO2,38,43,42
India,Uttar_Pradesh,Agra,"Sector-3B Avas Vikas Colony, Agra - UPPCB",31-03-2024 03:00:00,27.19412,77.96237,NH3,3,10,6
India,Uttar_Pradesh,Agra,"Shahjahan Garden, Agra - UPPCB",31-03-2024 03:00:00,27.169338,78.03582,PM2.5,16,74,36
India,Uttar_Pradesh,Agra,"Shastripuram, Agra - UPPCB",31-03-2024 03:00:00,27.19862,77.92066,NH3,2,17,3
India,Uttar_Pradesh,Baghpat,"Sardar Patel Inter College, Baghpat - UPPCB",31-03-2024 03:00:00,28.964949,77.278761,OZONE,10,83,30
India,Uttar_Pradesh,Bareilly,"Civil Lines, Bareilly - UPPCB",31-03-2024 03:00:00,28.359581,79.414455,PM2.5,7,15,11
India,Uttar_Pradesh,Bareilly,"Civil Lines, Bareilly - UPPCB",31-03-2024 03:00:00,28.359581,79.414455,SO2,43,46,45
India,Uttar_Pradesh,Bareilly,"Rajendra Nagar, Bareilly - UPPCB",31-03-2024 03:00:00,28.38910936,79.42963708,NO2,6,97,25
India,Uttar_Pradesh,Bulandshahr,"Yamunapuram, Bulandshahr - UPPCB",31-03-2024 03:00:00,28.406963,77.849831,NO2,10,128,41
India,Uttar_Pradesh,Firozabad,"Nagla Bhau, Firozabad - UPPCB",31-03-2024 03:00:00,27.168897,78.376960,NO2,17,17,17
India,Uttar_Pradesh,Firozabad,"Nagla Bhau, Firozabad - UPPCB",31-03-2024 03:00:00,27.168897,78.376960,NH3,2,2,2
India,Uttar_Pradesh,Firozabad,"Vibhab Nagar, Firozabad - UPPCB",31-03-2024 03:00:00,27.1594,78.3953,NO2,14,14,14
India,Uttar_Pradesh,Firozabad,"Vibhab Nagar, Firozabad - UPPCB",31-03-2024 03:00:00,27.1594,78.3953,SO2,13,45,22
India,Uttar_Pradesh,Ghaziabad,"Indirapuram, Ghaziabad - UPPCB",31-03-2024 03:00:00,28.646233,77.358075,PM10,92,353,186
India,Uttar_Pradesh,Ghaziabad,"Loni, Ghaziabad - UPPCB",31-03-2024 03:00:00,28.757294,77.278792,NH3,2,11,4
India,Uttar_Pradesh,Ghaziabad,"Loni, Ghaziabad - UPPCB",31-03-2024 03:00:00,28.757294,77.278792,OZONE,3,93,23
India,Uttar_Pradesh,Ghaziabad,"Sanjay Nagar, Ghaziabad - UPPCB",31-03-2024 03:00:00,28.685382,77.453839,PM10,94,270,161
India,Uttar_Pradesh,Ghaziabad,"Sanjay Nagar, Ghaziabad - UPPCB",31-03-2024 03:00:00,28.685382,77.453839,CO,2,103,56
India,Uttar_Pradesh,Ghaziabad,"Vasundhara, Ghaziabad - UPPCB",31-03-2024 03:00:00,28.6603346,77.3572563,PM10,58,234,135
India,Uttar_Pradesh,Gorakhpur,"Madan Mohan Malaviya University of Technology, Gorakhpur - UPPCB",31-03-2024 03:00:00,26.730136,83.433859,PM10,87,152,118
India,Uttar_Pradesh,Greater Noida,"Knowledge Park - V, Greater Noida - UPPCB",31-03-2024 03:00:00,28.557054,77.453663,PM2.5,61,347,214
India,Uttar_Pradesh,Greater Noida,"Knowledge Park - V, Greater Noida - UPPCB",31-03-2024 03:00:00,28.557054,77.453663,NH3,5,8,6
India,Uttar_Pradesh,Greater Noida,"Knowledge Park - V, Greater Noida - UPPCB",31-03-2024 03:00:00,28.557054,77.453663,OZONE,2,193,11
India,Uttar_Pradesh,Hapur,"Anand Vihar, Hapur - UPPCB",31-03-2024 03:00:00,28.725645,77.749675,PM10,68,158,109
India,Uttar_Pradesh,Hapur,"Anand Vihar, Hapur - UPPCB",31-03-2024 03:00:00,28.725645,77.749675,NH3,10,16,12
India,Uttar_Pradesh,Hapur,"Anand Vihar, Hapur - UPPCB",31-03-2024 03:00:00,28.725645,77.749675,CO,40,124,106
India,Uttar_Pradesh,Jhansi,"Shivaji Nagar, Jhansi - UPPCB",31-03-2024 03:00:00,25.4547,78.6039,NO2,4,63,23
India,Uttar_Pradesh,Jhansi,"Shivaji Nagar, Jhansi - UPPCB",31-03-2024 03:00:00,25.4547,78.6039,NH3,6,6,6
India,Uttar_Pradesh,Kanpur,"FTI Kidwai Nagar, Kanpur - UPPCB",31-03-2024 03:00:00,26.428282,80.327067,NH3,3,4,3
India,Uttar_Pradesh,Kanpur,"FTI Kidwai Nagar, Kanpur - UPPCB",31-03-2024 03:00:00,26.428282,80.327067,CO,29,66,54
India,Uttar_Pradesh,Kanpur,"NSI Kalyanpur, Kanpur - UPPCB",31-03-2024 03:00:00,26.509954,80.249612,OZONE,11,59,46
India,Uttar_Pradesh,Khurja,"Kalindi Kunj, Khurja - UPPCB",31-03-2024 03:00:00,28.2348927,77.8683002,PM2.5,47,255,96
India,Uttar_Pradesh,Lucknow,"Gomti Nagar, Lucknow - UPPCB",31-03-2024 03:00:00,26.868120,81.005119,NO2,12,15,14
India,Uttar_Pradesh,Lucknow,"Gomti Nagar, Lucknow - UPPCB",31-03-2024 03:00:00,26.868120,81.005119,OZONE,46,56,49
India,Uttar_Pradesh,Lucknow,"Kendriya Vidyalaya, Lucknow - CPCB",31-03-2024 03:00:00,26.906111,80.948222,NO2,9,64,29
India,Uttar_Pradesh,Lucknow,"Kendriya Vidyalaya, Lucknow - CPCB",31-03-2024 03:00:00,26.906111,80.948222,SO2,5,9,6
India,Uttar_Pradesh,Lucknow,"Kukrail Picnic Spot-1, Lucknow - UPPCB",31-03-2024 03:00:00,26.90723,80.98579,CO,20,40,27
India,Uttar_Pradesh,Lucknow,"Lalbagh, Lucknow - CPCB",31-03-2024 03:00:00,26.8458805,80.9365541,CO,53,105,91
India,Uttar_Pradesh,Lucknow,"Lalbagh, Lucknow - CPCB",31-03-2024 03:00:00,26.8458805,80.9365541,OZONE,14,94,23
India,Uttar_Pradesh,Lucknow,"Talkatora District Industries Center, Lucknow - CPCB",31-03-2024 03:00:00,26.83399722,80.8917361,NH3,10,24,16
India,Uttar_Pradesh,Lucknow,"Talkatora District Industries Center, Lucknow - CPCB",31-03-2024 03:00:00,26.83399722,80.8917361,CO,2,76,27
India,Uttar_Pradesh,Lucknow,"Talkatora District Industries Center, Lucknow - CPCB",31-03-2024 03:00:00,26.83399722,80.8917361,OZONE,2,81,11
India,Uttar_Pradesh,Meerut,"Ganga Nagar, Meerut - UPPCB",31-03-2024 03:00:00,28.999264,77.7590354,PM2.5,23,248,100
India,Uttar_Pradesh,Meerut,"Ganga Nagar, Meerut - UPPCB",31-03-2024 03:00:00,28.999264,77.7590354,SO2,1,25,10
India,Uttar_Pradesh,Meerut,"Ganga Nagar, Meerut - UPPCB",31-03-2024 03:00:00,28.999264,77.7590354,OZONE,1,32,7
India,Uttar_Pradesh,Meerut,"Pallavpuram Phase 2, Meerut - UPPCB",31-03-2024 03:00:00,29.063510,77.709723,NO2,9,158,58
India,Uttar_Pradesh,Meerut,"Pallavpuram Phase 2, Meerut - UPPCB",31-03-2024 03:00:00,29.063510,77.709723,SO2,10,51,33
India,Uttar_Pradesh,Moradabad,"Buddhi Vihar, Moradabad - UPPCB",31-03-2024 03:00:00,28.83526,78.74460,NO2,23,24,23
India,Uttar_Pradesh,Moradabad,"Eco Herbal Park, Moradabad - UPPCB",31-03-2024 03:00:00,28.840739,78.697531,PM2.5,45,165,94
India,Uttar_Pradesh,Moradabad,"Eco Herbal Park, Moradabad - UPPCB",31-03-2024 03:00:00,28.840739,78.697531,NO2,5,50,16
India,Uttar_Pradesh,Moradabad,"Eco Herbal Park, Moradabad - UPPCB",31-03-2024 03:00:00,28.840739,78.697531,SO2,9,32,22
India,Uttar_Pradesh,Moradabad,"Eco Herbal Park, Moradabad - UPPCB",31-03-2024 03:00:00,28.840739,78.697531,CO,12,62,40
India,Uttar_Pradesh,Moradabad,"Jigar Colony, Moradabad - UPPCB",31-03-2024 03:00:00,28.856664,78.772638,PM2.5,33,169,71
India,Uttar_Pradesh,Moradabad,"Kashiram Nagar, Moradabad - UPPCB",31-03-2024 03:00:00,28.849399,78.742362,NO2,3,4,4
India,Uttar_Pradesh,Moradabad,"Transport Nagar, Moradabad - UPPCB",31-03-2024 03:00:00,28.802625,78.753728,PM2.5,39,119,79
India,Uttar_Pradesh,Moradabad,"Transport Nagar, Moradabad - UPPCB",31-03-2024 03:00:00,28.802625,78.753728,OZONE,14,24,17
India,Uttar_Pradesh,Muzaffarnagar,"New Mandi, Muzaffarnagar - UPPCB",31-03-2024 03:00:00,29.4723508,77.7194031,NO2,NA,NA,NA
India,Uttar_Pradesh,Muzaffarnagar,"New Mandi, Muzaffarnagar - UPPCB",31-03-2024 03:00:00,29.4723508,77.7194031,CO,12,78,52
India,Uttar_Pradesh,Noida,"Sector - 125, Noida - UPPCB",31-03-2024 03:00:00,28.5447608,77.3231257,PM2.5,49,242,111
India,Uttar_Pradesh,Noida,"Sector - 62, Noida - IMD",31-03-2024 03:00:00,28.6245479,77.3577104,NO2,13,23,17
India,Uttar_Pradesh,Noida,"Sector-1, Noida - UPPCB",31-03-2024 03:00:00,28.5898,77.3101,SO2,12,34,18
India,Uttar_Pradesh,Noida,"Sector-116, Noida - UPPCB",31-03-2024 03:00:00,28.569230,77.393848,NO2,11,127,49
India,Uttar_Pradesh,Prayagraj,"Motilal Nehru NIT, Prayagraj - UPPCB",31-03-2024 03:00:00,25.494,81.863,PM10,40,100,72
India,Uttar_Pradesh,Prayagraj,"Nagar Nigam, Prayagraj - UPPCB",31-03-2024 03:00:00,25.44919916 ,81.82735986 ,PM2.5,33,130,63
India,Uttar_Pradesh,Prayagraj,"Nagar Nigam, Prayagraj - UPPCB",31-03-2024 03:00:00,25.44919916 ,81.82735986 ,PM10,56,154,111
India,Uttar_Pradesh,Prayagraj,"Nagar Nigam, Prayagraj - UPPCB",31-03-2024 03:00:00,25.44919916 ,81.82735986 ,SO2,37,93,64
India,Uttar_Pradesh,Varanasi,"Ardhali Bazar, Varanasi - UPPCB",31-03-2024 03:00:00,25.3505986,82.9083074,PM2.5,11,50,31
India,Uttar_Pradesh,Varanasi,"Bhelupur, Varanasi - UPPCB",31-03-2024 03:00:00,25.301778,82.996789,OZONE,2,44,2
India,Uttar_Pradesh,Varanasi,"IESD Banaras Hindu University, Varanasi - UPPCB",31-03-2024 03:00:00,25.262326,82.995408,PM2.5,9,32,20
India,Uttar_Pradesh,Varanasi,"IESD Banaras Hindu University, Varanasi - UPPCB",31-03-2024 03:00:00,25.262326,82.995408,NH3,1,3,2
India,Uttar_Pradesh,Varanasi,"IESD Banaras Hindu University, Varanasi - UPPCB",31-03-2024 03:00:00,25.262326,82.995408,CO,8,31,22
India,Uttar_Pradesh,Vrindavan,"Omex Eternity, Vrindavan - UPPCB",31-03-2024 03:00:00,27.5714090,77.6557570,NO2,2,3,3
India,Uttar_Pradesh,Vrindavan,"Omex Eternity, Vrindavan - UPPCB",31-03-2024 03:00:00,27.5714090,77.6557570,CO,32,72,56
India,Uttarakhand,Dehradun,"Doon University, Dehradun - UKPCB",31-03-2024 03:00:00,30.269444,78.044167,PM2.5,NA,NA,NA
India,Uttarakhand,Dehradun,"Doon University, Dehradun - UKPCB",31-03-2024 03:00:00,30.269444,78.044167,CO,NA,NA,NA
India,Uttarakhand,Kashipur,"Govt. Girls Inter College, Kashipur - UKPCB",31-03-2024 03:00:00,29.2124114,78.9611753,PM2.5,36,131,85
India,Uttarakhand,Kashipur,"Govt. Girls Inter College, Kashipur - UKPCB",31-03-2024 03:00:00,29.2124114,78.9611753,NH3,NA,NA,NA
India,Uttarakhand,Rishikesh,"Shivaji Nagar, Rishikesh - UKPCB",31-03-2024 03:00:00,30.075911,78.2859547,PM10,29,88,51
India,Uttarakhand,Rishikesh,"Shivaji Nagar, Rishikesh - UKPCB",31-03-2024 03:00:00,30.075911,78.2859547,OZONE,15,69,30
India,West_Bengal,Asansol,"Asansol Court Area, Asansol - WBPCB",31-03-2024 03:00:00,23.685297,86.945968,NO2,19,36,29
India,West_Bengal,Asansol,"Asansol Court Area, Asansol - WBPCB",31-03-2024 03:00:00,23.685297,86.945968,NH3,2,9,6
India,West_Bengal,Asansol,"Asansol Court Area, Asansol - WBPCB",31-03-2024 03:00:00,23.685297,86.945968,SO2,5,25,10
India,West_Bengal,Asansol,"Asansol Court Area, Asansol - WBPCB",31-03-2024 03:00:00,23.685297,86.945968,OZONE,11,34,18
India,West_Bengal,Barrackpore,"SVSPA Campus, Barrackpore - WBPCB",31-03-2024 03:00:00,22.7605581,88.3617589,NO2,10,18,15
India,West_Bengal,Durgapur,"Sidhu Kanhu Indoor Stadium, Durgapur - WBPCB",31-03-2024 03:00:00,23.5404352,87.2892225,CO,24,119,64
India,West_Bengal,Haldia,"Priyambada Housing Estate, Haldia - WBPCB",31-03-2024 03:00:00,22.06047,88.109737,SO2,9,23,14
India,West_Bengal,Haldia,"Priyambada Housing Estate, Haldia - WBPCB",31-03-2024 03:00:00,22.06047,88.109737,OZONE,23,193,25
India,West_Bengal,Howrah,"Padmapukur, Howrah - WBPCB",31-03-2024 03:00:00,22.5687319,88.2797276,NO2,6,8,7
India,West_Bengal,Howrah,"Padmapukur, Howrah - WBPCB",31-03-2024 03:00:00,22.5687319,88.2797276,NH3,1,2,1
India,West_Bengal,Howrah,"Padmapukur, Howrah - WBPCB",31-03-2024 03:00:00,22.5687319,88.2797276,SO2,9,60,30
India,West_Bengal,Kolkata,"Ballygunge, Kolkata - WBPCB",31-03-2024 03:00:00,22.5367507,88.3638022,NH3,3,4,4
India,West_Bengal,Kolkata,"Bidhannagar, Kolkata - WBPCB",31-03-2024 03:00:00,22.58157048,88.41002457,NO2,10,24,15
India,West_Bengal,Kolkata,"Fort William, Kolkata - WBPCB",31-03-2024 03:00:00,22.556640,88.342674,PM2.5,31,92,54
India,West_Bengal,Kolkata,"Jadavpur, Kolkata - WBPCB",31-03-2024 03:00:00,22.49929,88.36917,CO,12,34,22
India,West_Bengal,Kolkata,"Jadavpur, Kolkata - WBPCB",31-03-2024 03:00:00,22.49929,88.36917,OZONE,10,107,25
India,West_Bengal,Kolkata,"Rabindra Bharati University, Kolkata - WBPCB",31-03-2024 03:00:00,22.627847,88.380669,PM2.5,19,68,43
India,West_Bengal,Kolkata,"Rabindra Bharati University, Kolkata - WBPCB",31-03-2024 03:00:00,22.627847,88.380669,NH3,7,7,7
India,West_Bengal,Kolkata,"Rabindra Bharati University, Kolkata - WBPCB",31-03-2024 03:00:00,22.627847,88.380669,SO2,5,9,7
India,West_Bengal,Kolkata,"Rabindra Bharati University, Kolkata - WBPCB",31-03-2024 03:00:00,22.627847,88.380669,CO,26,42,31
India,West_Bengal,Kolkata,"Rabindra Bharati University, Kolkata - WBPCB",31-03-2024 03:00:00,22.627847,88.380669,OZONE,10,76,27
India,West_Bengal,Kolkata,"Rabindra Sarobar, Kolkata - WBPCB",31-03-2024 03:00:00,22.51106,88.35142,NO2,9,38,21
India,West_Bengal,Kolkata,"Rabindra Sarobar, Kolkata - WBPCB",31-03-2024 03:00:00,22.51106,88.35142,NH3,4,7,6
India,West_Bengal,Kolkata,"Rabindra Sarobar, Kolkata - WBPCB",31-03-2024 03:00:00,22.51106,88.35142,CO,6,24,9
India,West_Bengal,Kolkata,"Victoria, Kolkata - WBPCB",31-03-2024 03:00:00,22.5448082,88.3403691,PM2.5,24,85,52
India,West_Bengal,Kolkata,"Victoria, Kolkata - WBPCB",31-03-2024 03:00:00,22.5448082,88.3403691,NH3,2,3,2
India,West_Bengal,Kolkata,"Victoria, Kolkata - WBPCB",31-03-2024 03:00:00,22.5448082,88.3403691,CO,16,38,25
India,West_Bengal,Siliguri,"Ward-32 Bapupara, Siliguri - WBPCB",31-03-2024 03:00:00,26.6879226,88.4152495,PM2.5,59,133,89
India,West_Bengal,Siliguri,"Ward-32 Bapupara, Siliguri - WBPCB",31-03-2024 03:00:00,26.6879226,88.4152495,CO,21,60,47
India,Andhra_Pradesh,Amaravati,"Secretariat, Amaravati - APPCB",31-03-2024 03:00:00,16.5150833,80.5181667,PM2.5,10,44,27
India,Andhra_Pradesh,Amaravati,"Secretariat, Amaravati - APPCB",31-03-2024 03:00:00,16.5150833,80.5181667,OZONE,5,72,20
India,Andhra_Pradesh,Chittoor,"Gangineni Cheruvu, Chittoor - APPCB",31-03-2024 03:00:00,13.204880,79.097889,PM2.5,13,170,63
India,Andhra_Pradesh,Chittoor,"Gangineni Cheruvu, Chittoor - APPCB",31-03-2024 03:00:00,13.204880,79.097889,NO2,5,20,8
India,Andhra_Pradesh,Kadapa,"Yerramukkapalli, Kadapa - APPCB",31-03-2024 03:00:00,14.465052,78.824187,NO2,8,8,8
India,Andhra_Pradesh,Kadapa,"Yerramukkapalli, Kadapa - APPCB",31-03-2024 03:00:00,14.465052,78.824187,CO,10,50,16
India,Andhra_Pradesh,Vijayawada,"HB Colony, Vijayawada - APPCB",31-03-2024 03:00:00,16.536107,80.594233,PM10,47,68,58
India,Andhra_Pradesh,Vijayawada,"Kanuru, Vijayawada - APPCB",31-03-2024 03:00:00,16.486692,80.699436,PM10,NA,NA,NA
India,Andhra_Pradesh,Vijayawada,"Rajiv Gandhi Park, Vijayawada - APPCB",31-03-2024 03:00:00,16.509717,80.612222,SO2,5,19,8
India,Andhra_Pradesh,Vijayawada,"Rajiv Nagar, Vijayawada - APPCB",31-03-2024 03:00:00,16.554731,80.649110,PM2.5,44,47,45
India,Andhra_Pradesh,Vijayawada,"Rajiv Nagar, Vijayawada - APPCB",31-03-2024 03:00:00,16.554731,80.649110,SO2,15,19,18
India,Andhra_Pradesh,Visakhapatnam,"GVM Corporation, Visakhapatnam - APPCB",31-03-2024 03:00:00,17.72,83.3,PM2.5,22,77,42
India,Andhra_Pradesh,Visakhapatnam,"GVM Corporation, Visakhapatnam - APPCB",31-03-2024 03:00:00,17.72,83.3,NO2,35,56,43
India,Assam,Byrnihat,"Central Academy for SFS, Byrnihat - PCBA",31-03-2024 03:00:00,26.071318,91.87488,SO2,1,15,8
India,Assam,Byrnihat,"Central Academy for SFS, Byrnihat - PCBA",31-03-2024 03:00:00,26.071318,91.87488,OZONE,1,21,21
India,Assam,Guwahati,"IITG, Guwahati - PCBA",31-03-2024 03:00:00,26.2028636,91.70046436,NH3,5,5,5
India,Assam,Guwahati,"IITG, Guwahati - PCBA",31-03-2024 03:00:00,26.2028636,91.70046436,CO,10,30,22
India,Assam,Guwahati,"LGBI Airport, Guwahati - PCBA",31-03-2024 03:00:00,26.10887,91.589544,NO2,14,88,37
India,Assam,Guwahati,"LGBI Airport, Guwahati - PCBA",31-03-2024 03:00:00,26.10887,91.589544,SO2,1,16,7
India,Assam,Guwahati,"Railway Colony, Guwahati - PCBA",31-03-2024 03:00:00,26.181742,91.78063,PM10,89,323,179
India,Assam,Silchar,"Tarapur, Silchar - PCBA",31-03-2024 03:00:00,24.82827,92.79525,PM10,31,60,46
India,Assam,Silchar,"Tarapur, Silchar - PCBA",31-03-2024 03:00:00,24.82827,92.79525,OZONE,1,3,3
India,Bihar,Araria,"Kharahiya Basti, Araria - BSPCB",31-03-2024 03:00:00,26.146529,87.454184,NH3,7,8,7
India,Bihar,Araria,"Kharahiya Basti, Araria - BSPCB",31-03-2024 03:00:00,26.146529,87.454184,OZONE,7,11,9
India,Bihar,Arrah,"New DM Office, Arrah - BSPCB",31-03-2024 03:00:00,25.5626095,84.663264,NO2,8,67,26
India,Bihar,Aurangabad,"Gurdeo Nagar, Aurangabad - BSPCB",31-03-2024 03:00:00,24.75746,84.366208,OZONE,1,50,22
India,Bihar,Bettiah,"Kamalnath Nagar, Bettiah - BSPCB",31-03-2024 03:00:00,26.80365,84.51954,NO2,8,8,8
India,Bihar,Bettiah,"Kamalnath Nagar, Bettiah - BSPCB",31-03-2024 03:00:00,26.80365,84.51954,NH3,3,3,3
India,Bihar,Bettiah,"Kamalnath Nagar, Bettiah - BSPCB",31-03-2024 03:00:00,26.80365,84.51954,SO2,8,17,13
India,Bihar,Bhagalpur,"Mayaganj, Bhagalpur - BSPCB",31-03-2024 03:00:00,25.265194,87.012947,NH3,5,7,6
India,Bihar,Bihar Sharif,"D M Colony, Bihar Sharif - BSPCB",31-03-2024 03:00:00,25.204762,85.514960,SO2,2,15,7
India,Bihar,Buxar,"Charitra Van, Buxar - BSPCB (Formerly known as Central Jail)",31-03-2024 03:00:00,25.567520,83.966379,PM10,84,258,148
India,Bihar,Buxar,"Charitra Van, Buxar - BSPCB (Formerly known as Central Jail)",31-03-2024 03:00:00,25.567520,83.966379,NO2,22,151,49
India,Bihar,Chhapra,"Darshan Nagar, Chhapra - BSPCB",31-03-2024 03:00:00,25.7808257,84.7446768,NO2,17,26,21
India,Bihar,Chhapra,"Darshan Nagar, Chhapra - BSPCB",31-03-2024 03:00:00,25.7808257,84.7446768,SO2,2,27,6
India,Bihar,Chhapra,"Darshan Nagar, Chhapra - BSPCB",31-03-2024 03:00:00,25.7808257,84.7446768,CO,34,60,47
India,Bihar,Gaya,"Kareemganj, Gaya - BSPCB",31-03-2024 03:00:00,24.792403,84.992416,CO,6,101,33
India,Bihar,Gaya,"SFTI Kusdihra, Gaya - BSPCB",31-03-2024 03:00:00,24.762518,84.982348,PM10,76,132,99
India,Bihar,Gaya,"SFTI Kusdihra, Gaya - BSPCB",31-03-2024 03:00:00,24.762518,84.982348,OZONE,16,107,36
India,Bihar,Kishanganj,"SDM Office_Khagra, Kishanganj - BSPCB",31-03-2024 03:00:00,26.0881305,87.93840336,SO2,34,85,44
India,Bihar,Kishanganj,"SDM Office_Khagra, Kishanganj - BSPCB",31-03-2024 03:00:00,26.0881305,87.93840336,CO,3,14,9
India,Bihar,Manguraha,"Forest Rest House, Manguraha - BSPCB",31-03-2024 03:00:00,27.308328,84.531742,SO2,6,7,6
India,Bihar,Motihari,"Gandak Colony, Motihari - BSPCB",31-03-2024 03:00:00,26.63086,84.90051,PM2.5,28,97,64
India,Bihar,Muzaffarpur,"Buddha Colony, Muzaffarpur - BSPCB",31-03-2024 03:00:00,26.11442,85.39813,PM2.5,108,294,202
India,Bihar,Muzaffarpur,"MIT-Daudpur Kothi, Muzaffarpur - BSPCB",31-03-2024 03:00:00,26.1403345,85.3650192,NO2,5,8,7
India,Bihar,Muzaffarpur,"MIT-Daudpur Kothi, Muzaffarpur - BSPCB",31-03-2024 03:00:00,26.1403345,85.3650192,NH3,1,6,3
India,Bihar,Muzaffarpur,"Muzaffarpur Collectorate, Muzaffarpur - BSPCB",31-03-2024 03:00:00,26.1209,85.3647,SO2,6,17,9
India,Bihar,Muzaffarpur,"Muzaffarpur Collectorate, Muzaffarpur - BSPCB",31-03-2024 03:00:00,26.1209,85.3647,CO,22,102,25
India,Bihar,Patna,"Govt. High School Shikarpur, Patna - BSPCB",31-03-2024 03:00:00,25.592539,85.227158,NO2,20,23,21
India,Bihar,Patna,"Govt. High School Shikarpur, Patna - BSPCB",31-03-2024 03:00:00,25.592539,85.227158,NH3,5,5,5
India,Bihar,Patna,"Govt. High School Shikarpur, Patna - BSPCB",31-03-2024 03:00:00,25.592539,85.227158,SO2,8,11,10
India,Bihar,Patna,"IGSC Planetarium Complex, Patna - BSPCB",31-03-2024 03:00:00,25.610369,85.132568,NO2,14,14,14
India,Bihar,Patna,"IGSC Planetarium Complex, Patna - BSPCB",31-03-2024 03:00:00,25.610369,85.132568,SO2,5,5,5
India,Bihar,Patna,"IGSC Planetarium Complex, Patna - BSPCB",31-03-2024 03:00:00,25.610369,85.132568,OZONE,27,224,54
India,Bihar,Patna,"Muradpur, Patna - BSPCB",31-03-2024 03:00:00,25.619651,85.147382,PM2.5,170,334,281
India,Bihar,Patna,"Muradpur, Patna - BSPCB",31-03-2024 03:00:00,25.619651,85.147382,OZONE,5,40,11
India,Bihar,Patna,"Rajbansi Nagar, Patna - BSPCB",31-03-2024 03:00:00,25.599486,85.113666,NO2,13,48,23
India,Bihar,Patna,"Samanpura, Patna - BSPCB",31-03-2024 03:00:00,25.596727,85.085624,SO2,6,7,6
India,Bihar,Purnia,"Mariam Nagar, Purnia - BSPCB",31-03-2024 03:00:00,25.366336,87.117468,PM10,101,260,162
India,Bihar,Rajgir,"Dangi Tola, Rajgir - BSPCB",31-03-2024 03:00:00,25.03280,85.41948,NO2,1,1,1
India,Bihar,Samastipur,"DM Office_Kasipur, Samastipur - BSPCB",31-03-2024 03:00:00,25.859655,85.77944,SO2,3,15,10
India,Bihar,Sasaram,"Dada Peer, Sasaram - BSPCB",31-03-2024 03:00:00,24.952822,84.002396,NH3,7,13,9
India,Bihar,Siwan,"Chitragupta Nagar, Siwan - BSPCB",31-03-2024 03:00:00,26.2271665,84.3570427,NH3,1,4,2
India,Bihar,Siwan,"Chitragupta Nagar, Siwan - BSPCB",31-03-2024 03:00:00,26.2271665,84.3570427,CO,36,148,81
India,Bihar,Siwan,"Chitragupta Nagar, Siwan - BSPCB",31-03-2024 03:00:00,26.2271665,84.3570427,OZONE,19,100,44
India,Chandigarh,Chandigarh,"Sector-53, Chandigarh - CPCC",31-03-2024 03:00:00,30.719859,76.738637,CO,13,129,82
India,Chhattisgarh,Bhilai,"32Bungalows, Bhilai - CECB",31-03-2024 03:00:00,21.194815,81.314770,PM2.5,47,64,54
India,Chhattisgarh,Bhilai,"32Bungalows, Bhilai - CECB",31-03-2024 03:00:00,21.194815,81.314770,SO2,5,14,7
India,Chhattisgarh,Bhilai,"Civic Center, Bhilai - Bhilai Steel Plant",31-03-2024 03:00:00,21.185571,81.343175,PM2.5,25,56,46
India,Chhattisgarh,Bhilai,"Civic Center, Bhilai - Bhilai Steel Plant",31-03-2024 03:00:00,21.185571,81.343175,PM10,42,70,54
India,Chhattisgarh,Bhilai,"Civic Center, Bhilai - Bhilai Steel Plant",31-03-2024 03:00:00,21.185571,81.343175,OZONE,20,74,33
India,Chhattisgarh,Bhilai,"Hathkhoj, Bhilai - CECB",31-03-2024 03:00:00,21.224231,81.408350,SO2,13,27,17
India,Chhattisgarh,Bhilai,"Hathkhoj, Bhilai - CECB",31-03-2024 03:00:00,21.224231,81.408350,OZONE,8,19,12
India,Chhattisgarh,Bilaspur,"Mangala, Bilaspur - NTPC",31-03-2024 03:00:00,22.08815,82.13737,NO2,16,20,18
India,Chhattisgarh,Bilaspur,"Mangala, Bilaspur - NTPC",31-03-2024 03:00:00,22.08815,82.13737,SO2,15,24,19
India,Chhattisgarh,Chhal,"Nawapara SECL Colony, Chhal - CECB",31-03-2024 03:00:00,22.118125,83.140608,NO2,11,55,27
India,Chhattisgarh,Korba,"Rampur, Korba - CECB",31-03-2024 03:00:00,22.368195,82.746431,PM2.5,9,37,16
India,Chhattisgarh,Raipur,"AIIMS, Raipur - CECB",31-03-2024 03:00:00,21.258815,81.578979,OZONE,7,113,15
India,Chhattisgarh,Raipur,"Krishak Nagar, Raipur - CECB",31-03-2024 03:00:00,21.237755,81.705301,CO,31,46,36
India,Chhattisgarh,Raipur,"Siltara Phase-II, Raipur - CECB",31-03-2024 03:00:00,21.371751,81.664929,NH3,3,3,3
India,Chhattisgarh,Tumidih,"OP Jindal Industrial Park, Tumidih - CECB",31-03-2024 03:00:00,22.06631475,83.33820077,PM2.5,NA,NA,NA
India,Delhi,Delhi,"Anand Vihar, Delhi - DPCC",31-03-2024 03:00:00,28.647622,77.3158090,NH3,1,9,4
India,Delhi,Delhi,"Ashok Vihar, Delhi - DPCC",31-03-2024 03:00:00,28.695381,77.181665,PM10,142,424,237
India,Delhi,Delhi,"Ashok Vihar, Delhi - DPCC",31-03-2024 03:00:00,28.695381,77.181665,NO2,10,136,53
India,Delhi,Delhi,"Ashok Vihar, Delhi - DPCC",31-03-2024 03:00:00,28.695381,77.181665,SO2,26,36,30
India,Delhi,Delhi,"Aya Nagar, Delhi - IMD",31-03-2024 03:00:00,28.4706914,77.1099364,PM2.5,64,328,216
India,Delhi,Delhi,"Aya Nagar, Delhi - IMD",31-03-2024 03:00:00,28.4706914,77.1099364,CO,26,105,81
India,Delhi,Delhi,"Bawana, Delhi - DPCC",31-03-2024 03:00:00,28.776200,77.051074,NO2,10,112,45
India,Delhi,Delhi,"Bawana, Delhi - DPCC",31-03-2024 03:00:00,28.776200,77.051074,OZONE,6,119,21
India,Delhi,Delhi,"CRRI Mathura Road, Delhi - IMD",31-03-2024 03:00:00,28.5512005,77.2735737,PM2.5,80,333,183
India,Delhi,Delhi,"Chandni Chowk, Delhi - IITM",31-03-2024 03:00:00,28.656756,77.227234,NO2,4,190,60
India,Delhi,Delhi,"DTU, Delhi - CPCB",31-03-2024 03:00:00,28.7500499,77.1112615,SO2,32,34,33
India,Delhi,Delhi,"Dr. Karni Singh Shooting Range, Delhi - DPCC",31-03-2024 03:00:00,28.498571,77.264840,NO2,34,151,68
India,Delhi,Delhi,"Dwarka-Sector 8, Delhi - DPCC ",31-03-2024 03:00:00,28.5710274,77.0719006,PM10,119,500,269
India,Delhi,Delhi,"Dwarka-Sector 8, Delhi - DPCC ",31-03-2024 03:00:00,28.5710274,77.0719006,NH3,7,11,9
India,Delhi,Delhi,"IGI Airport (T3), Delhi - IMD",31-03-2024 03:00:00,28.5627763,77.1180053,OZONE,1,55,4
India,Delhi,Delhi,"ITO, Delhi - CPCB",31-03-2024 03:00:00,28.628624,77.241060,PM2.5,55,333,180
India,Delhi,Delhi,"ITO, Delhi - CPCB",31-03-2024 03:00:00,28.628624,77.241060,PM10,103,272,160
India,Delhi,Delhi,"ITO, Delhi - CPCB",31-03-2024 03:00:00,28.628624,77.241060,NH3,1,12,5
India,Delhi,Delhi,"ITO, Delhi - CPCB",31-03-2024 03:00:00,28.628624,77.241060,OZONE,13,109,16
India,Delhi,Delhi,"Jahangirpuri, Delhi - DPCC",31-03-2024 03:00:00,28.732820,77.170633,NH3,2,14,10
India,Delhi,Delhi,"Jawaharlal Nehru Stadium, Delhi - DPCC",31-03-2024 03:00:00,28.580280,77.233829,PM10,129,270,182
India,Delhi,Delhi,"Jawaharlal Nehru Stadium, Delhi - DPCC",31-03-2024 03:00:00,28.580280,77.233829,NO2,31,169,86
India,Delhi,Delhi,"Jawaharlal Nehru Stadium, Delhi - DPCC",31-03-2024 03:00:00,28.580280,77.233829,SO2,4,51,25
India,Delhi,Delhi,"Lodhi Road, Delhi - IITM",31-03-2024 03:00:00,28.588333,77.221667,NO2,58,136,89
India,Delhi,Delhi,"Lodhi Road, Delhi - IITM",31-03-2024 03:00:00,28.588333,77.221667,NH3,8,17,11
India,Delhi,Delhi,"Lodhi Road, Delhi - IITM",31-03-2024 03:00:00,28.588333,77.221667,CO,60,66,64
India,Delhi,Delhi,"Lodhi Road, Delhi - IMD",31-03-2024 03:00:00,28.5918245,77.2273074,PM2.5,77,260,147
India,Delhi,Delhi,"Lodhi Road, Delhi - IMD",31-03-2024 03:00:00,28.5918245,77.2273074,NO2,2,13,5
India,Delhi,Delhi,"Major Dhyan Chand National Stadium, Delhi - DPCC",31-03-2024 03:00:00,28.611281,77.237738,PM10,123,260,174
India,Delhi,Delhi,"Major Dhyan Chand National Stadium, Delhi - DPCC",31-03-2024 03:00:00,28.611281,77.237738,OZONE,1,208,18
India,Delhi,Delhi,"Mandir Marg, Delhi - DPCC",31-03-2024 03:00:00,28.636429,77.201067,OZONE,9,31,12
India,Delhi,Delhi,"Mundka, Delhi - DPCC",31-03-2024 03:00:00,28.684678,77.076574,CO,36,78,51
India,Delhi,Delhi,"NSIT Dwarka, Delhi - CPCB",31-03-2024 03:00:00,28.60909,77.0325413,PM10,139,441,232
India,Delhi,Delhi,"Najafgarh, Delhi - DPCC",31-03-2024 03:00:00,28.570173,76.933762,PM2.5,63,287,138
India,Delhi,Delhi,"Najafgarh, Delhi - DPCC",31-03-2024 03:00:00,28.570173,76.933762,NH3,1,13,7
India,Delhi,Delhi,"Narela, Delhi - DPCC",31-03-2024 03:00:00,28.822836,77.101981,OZONE,8,138,28
India,Delhi,Delhi,"Nehru Nagar, Delhi - DPCC",31-03-2024 03:00:00,28.567890,77.250515,PM2.5,NA,NA,NA
India,Delhi,Delhi,"Nehru Nagar, Delhi - DPCC",31-03-2024 03:00:00,28.567890,77.250515,NO2,NA,NA,NA
India,Delhi,Delhi,"Nehru Nagar, Delhi - DPCC",31-03-2024 03:00:00,28.567890,77.250515,OZONE,4,148,16
India,Delhi,Delhi,"Okhla Phase-2, Delhi - DPCC",31-03-2024 03:00:00,28.530785,77.271255,PM10,154,469,249
India,Delhi,Delhi,"Okhla Phase-2, Delhi - DPCC",31-03-2024 03:00:00,28.530785,77.271255,CO,12,125,115
India,Delhi,Delhi,"Pusa, Delhi - DPCC",31-03-2024 03:00:00,28.639652,77.146275,NO2,24,129,83
India,Delhi,Delhi,"Pusa, Delhi - DPCC",31-03-2024 03:00:00,28.639652,77.146275,CO,18,104,87
India,Delhi,Delhi,"Pusa, Delhi - DPCC",31-03-2024 03:00:00,28.639652,77.146275,OZONE,9,108,16
India,Delhi,Delhi,"Pusa, Delhi - IMD",31-03-2024 03:00:00,28.636110,77.173332,NO2,12,53,26
India,Delhi,Delhi,"R K Puram, Delhi - DPCC",31-03-2024 03:00:00,28.563262,77.186937,CO,28,139,114
India,Delhi,Delhi,"Rohini, Delhi - DPCC",31-03-2024 03:00:00,28.732528,77.119920,CO,28,132,94
India,Delhi,Delhi,"Shadipur, Delhi - CPCB",31-03-2024 03:00:00,28.6514781,77.1473105,PM2.5,93,443,262
India,Delhi,Delhi,"Shadipur, Delhi - CPCB",31-03-2024 03:00:00,28.6514781,77.1473105,NH3,2,8,6
India,Delhi,Delhi,"Shadipur, Delhi - CPCB",31-03-2024 03:00:00,28.6514781,77.1473105,SO2,11,40,21
India,Delhi,Delhi,"Shadipur, Delhi - CPCB",31-03-2024 03:00:00,28.6514781,77.1473105,CO,28,72,52
India,Delhi,Delhi,"Sirifort, Delhi - CPCB",31-03-2024 03:00:00,28.5504249,77.2159377,NH3,7,17,10
India,Delhi,Delhi,"Sonia Vihar, Delhi - DPCC",31-03-2024 03:00:00,28.710508,77.249485,PM2.5,84,321,190
India,Delhi,Delhi,"Sonia Vihar, Delhi - DPCC",31-03-2024 03:00:00,28.710508,77.249485,PM10,134,344,198
India,Delhi,Delhi,"Sonia Vihar, Delhi - DPCC",31-03-2024 03:00:00,28.710508,77.249485,NH3,7,12,8
India,Delhi,Delhi,"Sri Aurobindo Marg, Delhi - DPCC",31-03-2024 03:00:00,28.531346,77.190156,NO2,NA,NA,NA
India,Gujarat,Ahmedabad,"Chandkheda, Ahmedabad - IITM",31-03-2024 03:00:00,23.107969,72.574648,OZONE,8,40,16
India,Gujarat,Ahmedabad,"Gyaspur, Ahmedabad - IITM",31-03-2024 03:00:00,22.977134,72.553024,NO2,1,52,30
India,Gujarat,Ahmedabad,"Gyaspur, Ahmedabad - IITM",31-03-2024 03:00:00,22.977134,72.553024,OZONE,7,25,9
India,Gujarat,Ahmedabad,"Maninagar, Ahmedabad - GPCB",31-03-2024 03:00:00,23.002657,72.591912,PM2.5,29,154,68
India,Gujarat,Ahmedabad,"Maninagar, Ahmedabad - GPCB",31-03-2024 03:00:00,23.002657,72.591912,SO2,9,66,37
India,Gujarat,Ahmedabad,"Raikhad, Ahmedabad - IITM",31-03-2024 03:00:00,23.020509,72.579261,OZONE,8,29,14
India,Gujarat,Ahmedabad,"Rakhial, Ahmedabad - IITM",31-03-2024 03:00:00,23.016834,72.625775,PM10,68,112,89
India,Gujarat,Ahmedabad,"SAC ISRO Satellite, Ahmedabad - IITM",31-03-2024 03:00:00,23.023389,72.515201,CO,21,26,25
India,Gujarat,Ahmedabad,"SVPI Airport Hansol, Ahmedabad - IITM",31-03-2024 03:00:00,23.076793,72.627874,CO,20,62,39
India,Gujarat,Ahmedabad,"SVPI Airport Hansol, Ahmedabad - IITM",31-03-2024 03:00:00,23.076793,72.627874,OZONE,10,33,15
India,Gujarat,Ahmedabad,"Sardar Vallabhbhai Patel Stadium, Ahmedabad - IITM",31-03-2024 03:00:00,23.043070,72.562968,PM2.5,48,98,68
India,Gujarat,Ankleshwar,"GIDC, Ankleshwar - GPCB",31-03-2024 03:00:00,21.613267,73.010555,NH3,NA,NA,NA
India,Gujarat,Ankleshwar,"GIDC, Ankleshwar - GPCB",31-03-2024 03:00:00,21.613267,73.010555,SO2,NA,NA,NA
India,Gujarat,Gandhinagar,"GIFT City, Gandhinagar - IITM",31-03-2024 03:00:00,23.163798,72.677768,PM10,60,181,101
India,Gujarat,Gandhinagar,"IIPHG Lekawada, Gandhinagar - IITM",31-03-2024 03:00:00,23.243639,72.68994,CO,14,40,28
India,Gujarat,Gandhinagar,"Sector-10, Gandhinagar - GPCB",31-03-2024 03:00:00,23.221714,72.654328,NH3,1,2,2
India,Gujarat,Gandhinagar,"Sector-10, Gandhinagar - GPCB",31-03-2024 03:00:00,23.221714,72.654328,SO2,3,11,6
India,Gujarat,Gandhinagar,"Sector-10, Gandhinagar - GPCB",31-03-2024 03:00:00,23.221714,72.654328,OZONE,17,18,18
India,Gujarat,Nandesari,"GIDC, Nandesari - Nandesari Ind. Association",31-03-2024 03:00:00,22.410802,73.097923,NO2,8,111,29
India,Gujarat,Surat,"Science Center, Surat - SMC",31-03-2024 03:00:00,21.170046,72.795405,PM10,7,479,195
India,Gujarat,Surat,"Science Center, Surat - SMC",31-03-2024 03:00:00,21.170046,72.795405,SO2,1,9,5
India,Gujarat,Vatva,"Phase-4 GIDC, Vatva - GPCB",31-03-2024 03:00:00,22.969611,72.643500,PM10,61,126,83
India,Gujarat,Vatva,"Phase-4 GIDC, Vatva - GPCB",31-03-2024 03:00:00,22.969611,72.643500,NH3,1,11,7
India,Haryana,Ambala,"Patti Mehar, Ambala - HSPCB",31-03-2024 03:00:00,30.379589,76.778328,PM10,21,175,80
India,Haryana,Ambala,"Patti Mehar, Ambala - HSPCB",31-03-2024 03:00:00,30.379589,76.778328,SO2,NA,NA,NA
India,Haryana,Ambala,"Patti Mehar, Ambala - HSPCB",31-03-2024 03:00:00,30.379589,76.778328,OZONE,18,41,33
India,Haryana,Bahadurgarh,"Arya Nagar, Bahadurgarh - HSPCB",31-03-2024 03:00:00,28.6701,76.9254,PM2.5,36,358,158
India,Haryana,Ballabgarh,"Nathu Colony, Ballabgarh - HSPCB",31-03-2024 03:00:00,28.3419248,77.319699,PM2.5,121,500,226
India,Haryana,Bhiwani,"H.B. Colony, Bhiwani - HSPCB",31-03-2024 03:00:00,28.806223,76.141105,NH3,6,6,6
India,Haryana,Bhiwani,"H.B. Colony, Bhiwani - HSPCB",31-03-2024 03:00:00,28.806223,76.141105,SO2,1,49,7
India,Haryana,Bhiwani,"H.B. Colony, Bhiwani - HSPCB",31-03-2024 03:00:00,28.806223,76.141105,OZONE,12,103,17
India,Haryana,Charkhi Dadri,"Mini Secretariat, Charkhi Dadri - HSPCB",31-03-2024 03:00:00,28.593883,76.270653,OZONE,13,18,16
India,Haryana,Dharuhera,"Municipal Corporation Office, Dharuhera -  HSPCB",31-03-2024 03:00:00,28.206800,76.799700,NH3,NA,NA,NA
India,Haryana,Dharuhera,"Municipal Corporation Office, Dharuhera -  HSPCB",31-03-2024 03:00:00,28.206800,76.799700,CO,80,105,105
India,Haryana,Faridabad,"New Industrial Town, Faridabad - HSPCB",31-03-2024 03:00:00,28.39072,77.30059,CO,16,94,67
India,Haryana,Faridabad,"Sector 11, Faridabad - HSPCB",31-03-2024 03:00:00,28.376058,77.315741,PM2.5,154,386,301
India,Haryana,Faridabad,"Sector 30, Faridabad - HSPCB",31-03-2024 03:00:00,28.4417,77.3217,PM2.5,90,103,97
India,Haryana,Faridabad,"Sector 30, Faridabad - HSPCB",31-03-2024 03:00:00,28.4417,77.3217,NH3,9,9,9
India,Haryana,Faridabad,"Sector- 16A, Faridabad - HSPCB",31-03-2024 03:00:00,28.4088421,77.3099081,CO,8,102,68
India,Haryana,Fatehabad,"Huda Sector, Fatehabad - HSPCB",31-03-2024 03:00:00,29.503664,75.467934,OZONE,72,110,94
India,Haryana,Gurugram,"Sector-51, Gurugram - HSPCB",31-03-2024 03:00:00,28.4227,77.0667,PM2.5,84,332,242
India,Haryana,Gurugram,"Sector-51, Gurugram - HSPCB",31-03-2024 03:00:00,28.4227,77.0667,CO,37,103,81
India,Haryana,Gurugram,"Teri Gram, Gurugram - HSPCB",31-03-2024 03:00:00,28.4275,77.1465,NH3,50,88,65
India,Haryana,Gurugram,"Teri Gram, Gurugram - HSPCB",31-03-2024 03:00:00,28.4275,77.1465,SO2,4,5,4
India,Haryana,Gurugram,"Vikas Sadan, Gurugram - HSPCB",31-03-2024 03:00:00,28.4501238,77.0263051,PM2.5,76,267,162
India,Haryana,Gurugram,"Vikas Sadan, Gurugram - HSPCB",31-03-2024 03:00:00,28.4501238,77.0263051,NO2,5,26,13
India,Haryana,Gurugram,"Vikas Sadan, Gurugram - HSPCB",31-03-2024 03:00:00,28.4501238,77.0263051,OZONE,8,68,16
India,Haryana,Hisar,"Urban Estate-II, Hisar - HSPCB",31-03-2024 03:00:00,29.140560,75.744941,NO2,17,22,21
India,Haryana,Hisar,"Urban Estate-II, Hisar - HSPCB",31-03-2024 03:00:00,29.140560,75.744941,OZONE,20,137,52
India,Haryana,Jind,"Police Lines, Jind - HSPCB",31-03-2024 03:00:00,29.307814,76.337619,OZONE,15,35,28
India,Haryana,Kaithal,"Rishi Nagar, Kaithal - HSPCB",31-03-2024 03:00:00,29.8006,76.4155,PM10,NA,NA,NA
India,Haryana,Kurukshetra,"Sector-7, Kurukshetra - HSPCB",31-03-2024 03:00:00,29.966942,76.875879,NO2,10,11,10
India,Haryana,Kurukshetra,"Sector-7, Kurukshetra - HSPCB",31-03-2024 03:00:00,29.966942,76.875879,CO,2,43,25
India,Haryana,Mandikhera,"General Hospital, Mandikhera - HSPCB",31-03-2024 03:00:00,27.9002,76.9938,PM2.5,7,64,36
India,Haryana,Manesar,"Sector-2 IMT, Manesar - HSPCB",31-03-2024 03:00:00,28.360699,76.936090,SO2,1,114,54
India,Haryana,Manesar,"Sector-2 IMT, Manesar - HSPCB",31-03-2024 03:00:00,28.360699,76.936090,OZONE,1,51,8
India,Haryana,Palwal,"Shyam Nagar, Palwal - HSPCB",31-03-2024 03:00:00,28.1485564,77.3320667,PM10,81,136,106
India,Haryana,Panchkula,"Sector-6, Panchkula - HSPCB ",31-03-2024 03:00:00,30.7057778,76.8531805555555,PM2.5,10,83,36
India,Haryana,Panchkula,"Sector-6, Panchkula - HSPCB ",31-03-2024 03:00:00,30.7057778,76.8531805555555,NO2,28,30,29
India,Haryana,Panchkula,"Sector-6, Panchkula - HSPCB ",31-03-2024 03:00:00,30.7057778,76.8531805555555,SO2,11,12,12
India,Haryana,Panipat,"Sector-18, Panipat - HSPCB",31-03-2024 03:00:00,29.497973,76.993331,PM10,64,66,65
India,Haryana,Panipat,"Sector-18, Panipat - HSPCB",31-03-2024 03:00:00,29.497973,76.993331,CO,24,26,25
India,Haryana,Rohtak,"MD University, Rohtak - HSPCB",31-03-2024 03:00:00,28.52123,76.37138,OZONE,46,53,49
India,Haryana,Sirsa,"F-Block, Sirsa - HSPCB",31-03-2024 03:00:00,29.536400,75.015800,CO,31,44,40
India,Haryana,Sonipat,"Murthal, Sonipat - HSPCB",31-03-2024 03:00:00,29.027200,77.062100,PM10,72,181,115
India,Haryana,Yamuna Nagar,"Gobind Pura, Yamuna Nagar - HSPCB",31-03-2024 03:00:00,30.1480566,77.2893471,SO2,2,88,17
India,Haryana,Yamuna Nagar,"Gobind Pura, Yamuna Nagar - HSPCB",31-03-2024 03:00:00,30.1480566,77.2893471,OZONE,18,41,23
India,Himachal Pradesh,Baddi,"HIMUDA Complex Phase-1, Baddi - HPPCB",31-03-2024 03:00:00,30.943887,76.801991,PM2.5,NA,NA,NA
India,Himachal Pradesh,Baddi,"HIMUDA Complex Phase-1, Baddi - HPPCB",31-03-2024 03:00:00,30.943887,76.801991,NO2,NA,NA,NA
India,Himachal Pradesh,Baddi,"HIMUDA Complex Phase-1, Baddi - HPPCB",31-03-2024 03:00:00,30.943887,76.801991,OZONE,3,80,54
India,Jharkhand,Dhanbad,"Sardar Patel Nagar, Dhanbad - JSPCB",31-03-2024 03:00:00,23.80569,86.44268,PM2.5,9,178,78
India,Jharkhand,Pathardih,"Mohalbani Ghat, Pathardih - DMC",31-03-2024 03:00:00,23.669880,86.411725,SO2,NA,NA,NA
India,Karnataka,Bengaluru,"BTM Layout, Bengaluru - CPCB",31-03-2024 03:00:00,12.9135218,77.5950804,NO2,NA,NA,NA
India,Karnataka,Bengaluru,"BTM Layout, Bengaluru - CPCB",31-03-2024 03:00:00,12.9135218,77.5950804,NH3,NA,NA,NA
India,Karnataka,Bengaluru,"BTM Layout, Bengaluru - CPCB",31-03-2024 03:00:00,12.9135218,77.5950804,CO,NA,NA,NA
India,Karnataka,Bengaluru,"BTM Layout, Bengaluru - CPCB",31-03-2024 03:00:00,12.9135218,77.5950804,OZONE,NA,NA,NA
India,Karnataka,Bengaluru,"Bapuji Nagar, Bengaluru - KSPCB",31-03-2024 03:00:00,12.951913,77.539784,PM2.5,65,130,99
India,Karnataka,Bengaluru,"Bapuji Nagar, Bengaluru - KSPCB",31-03-2024 03:00:00,12.951913,77.539784,SO2,4,9,6
India,Karnataka,Bengaluru,"Hebbal, Bengaluru - KSPCB",31-03-2024 03:00:00,13.029152,77.585901,OZONE,8,60,8
India,Karnataka,Bengaluru,"Jayanagar 5th Block, Bengaluru - KSPCB",31-03-2024 03:00:00,12.920984,77.584908,NH3,3,5,4
India,Karnataka,Bengaluru,"Jayanagar 5th Block, Bengaluru - KSPCB",31-03-2024 03:00:00,12.920984,77.584908,SO2,12,38,23
India,Karnataka,Bengaluru,"Jigani, Bengaluru - KSPCB",31-03-2024 03:00:00,12.7816279,77.6299145,PM10,35,147,91
India,Karnataka,Bengaluru,"Peenya, Bengaluru - CPCB",31-03-2024 03:00:00,13.0270199,77.494094,NH3,3,5,3
India,Karnataka,Bengaluru,"RVCE-Mailasandra, Bengaluru - KSPCB",31-03-2024 03:00:00,12.921418,77.502466,NO2,16,17,17
India,Karnataka,Bengaluru,"RVCE-Mailasandra, Bengaluru - KSPCB",31-03-2024 03:00:00,12.921418,77.502466,CO,30,60,44
India,Karnataka,Bengaluru,"Sanegurava Halli, Bengaluru - KSPCB",31-03-2024 03:00:00,12.990328,77.5431385,NO2,22,39,28
India,Karnataka,Bengaluru,"Silk Board, Bengaluru - KSPCB",31-03-2024 03:00:00,12.917348,77.622813,NH3,4,6,5
India,Karnataka,Bengaluru,"Silk Board, Bengaluru - KSPCB",31-03-2024 03:00:00,12.917348,77.622813,SO2,5,17,10
India,Karnataka,Bidar,"Naubad, Bidar - KSPCB",31-03-2024 03:00:00,17.930306,77.482194,PM10,91,131,108
India,Karnataka,Chamarajanagar,"Urban, Chamarajanagar - KSPCB",31-03-2024 03:00:00,11.55358,76.55521,PM2.5,20,49,30
India,Karnataka,Chamarajanagar,"Urban, Chamarajanagar - KSPCB",31-03-2024 03:00:00,11.55358,76.55521,OZONE,15,52,21
India,Karnataka,Chikkaballapur,"Chikkaballapur Rural, Chikkaballapur - KSPCB",31-03-2024 03:00:00,13.428828,77.731418,SO2,17,34,25
India,Karnataka,Chikkaballapur,"Chikkaballapur Rural, Chikkaballapur - KSPCB",31-03-2024 03:00:00,13.428828,77.731418,OZONE,24,27,25
India,Karnataka,Chikkamagaluru,"Kalyana Nagara, Chikkamagaluru - KSPCB",31-03-2024 03:00:00,13.328028,75.797056,PM2.5,NA,NA,NA
India,Karnataka,Chikkamagaluru,"Kalyana Nagara, Chikkamagaluru - KSPCB",31-03-2024 03:00:00,13.328028,75.797056,PM10,NA,NA,NA
India,Karnataka,Chikkamagaluru,"Kalyana Nagara, Chikkamagaluru - KSPCB",31-03-2024 03:00:00,13.328028,75.797056,CO,11,126,52
India,Karnataka,Davanagere,"Devaraj Urs Badavane, Davanagere - KSPCB",31-03-2024 03:00:00,14.475800,75.905200,NO2,11,18,13
India,Karnataka,Davanagere,"Devaraj Urs Badavane, Davanagere - KSPCB",31-03-2024 03:00:00,14.475800,75.905200,NH3,1,2,1
India,Karnataka,Davanagere,"Devaraj Urs Badavane, Davanagere - KSPCB",31-03-2024 03:00:00,14.475800,75.905200,OZONE,21,26,22
India,Karnataka,Dharwad,"Kalabhavan, Dharwad - KSPCB",31-03-2024 03:00:00,15.459706,75.008381,OZONE,2,25,2
India,Karnataka,Gadag,"Panchal Nagar, Gadag - KSPCB",31-03-2024 03:00:00,15.411456,75.638133,PM10,39,59,47
India,Karnataka,Haveri,"Ashwini Nagar, Haveri - KSPCB",31-03-2024 03:00:00,14.791800,75.389600,SO2,14,14,14
India,Karnataka,Hubballi,"Deshpande Nagar, Hubballi - KSPCB",31-03-2024 03:00:00,15.351773,75.140726,OZONE,2,35,9
India,Karnataka,Hubballi,"Lingaraj Nagar, Hubballi - KSPCB",31-03-2024 03:00:00,15.3714823,75.1160168,NO2,16,16,16
India,Karnataka,Kolar,"Tamaka Ind. Area, Kolar - KSPCB",31-03-2024 03:00:00,13.1276288,78.1570122,PM10,61,187,103
India,Karnataka,Kolar,"Tamaka Ind. Area, Kolar - KSPCB",31-03-2024 03:00:00,13.1276288,78.1570122,SO2,10,18,14
India,Karnataka,Kolar,"Tamaka Ind. Area, Kolar - KSPCB",31-03-2024 03:00:00,13.1276288,78.1570122,OZONE,13,16,14
India,Karnataka,Koppal,"Diwator Nagar, Koppal - KSPCB",31-03-2024 03:00:00,15.347630,76.181767,CO,95,108,104
India,Karnataka,Koppal,"Diwator Nagar, Koppal - KSPCB",31-03-2024 03:00:00,15.347630,76.181767,OZONE,19,47,28
India,Karnataka,Madikeri,"Stuart Hill, Madikeri - KSPCB",31-03-2024 03:00:00,12.415911,75.735050,CO,4,105,37
India,Karnataka,Mangalore,"Kadri, Mangalore - KSPCB",31-03-2024 03:00:00,12.889250,74.853000,OZONE,30,32,31
