country,state,city,station,last_update,latitude,longitude,pollutant_id,pollutant_min,pollutant_max,pollutant_avg
India,Andhra_Pradesh,Amaravati,"Secretariat, Amaravati - APPCB",15-04-2024 08:00:00,16.5150833,80.5181667,NH3,3,4,4
India,Andhra_Pradesh,Anantapur,"Gulzarpet, Anantapur - APPCB",15-04-2024 08:00:00,14.675886,77.593027,OZONE,9,51,22
India,Andhra_Pradesh,Chittoor,"Gangineni Cheruvu, Chittoor - APPCB",15-04-2024 08:00:00,13.204880,79.097889,SO2,3,24,11
India,Andhra_Pradesh,Chittoor,"Gangineni Cheruvu, Chittoor - APPCB",15-04-2024 08:00:00,13.204880,79.097889,OZONE,90,90,90
India,Andhra_Pradesh,Rajamahendravaram,"Anand Kala Kshetram, Rajamahendravaram - APPCB",15-04-2024 08:00:00,16.9872867,81.7363176,NH3,3,5,4
India,Andhra_Pradesh,Tirupati,"Tirumala, Tirupati - APPCB",15-04-2024 08:00:00,13.67,79.35,NO2,18,35,25
India,Andhra_Pradesh,Tirupati,"Tirumala, Tirupati - APPCB",15-04-2024 08:00:00,13.67,79.35,OZONE,12,64,21
India,Andhra_Pradesh,Vijayawada,"HB Colony, Vijayawada - APPCB",15-04-2024 08:00:00,16.536107,80.594233,PM2.5,NA,NA,NA
India,Andhra_Pradesh,Vijayawada,"Rajiv Gandhi Park, Vijayawada - APPCB",15-04-2024 08:00:00,16.509717,80.612222,NO2,NA,NA,NA
India,Andhra_Pradesh,Vijayawada,"Rajiv Gandhi Park, Vijayawada - APPCB",15-04-2024 08:00:00,16.509717,80.612222,NH3,NA,NA,NA
India,Arunachal_Pradesh,Naharlagun,"Naharlagun, Naharlagun - APSPCB",15-04-2024 08:00:00,27.103358,93.679645,NO2,3,3,3
India,Arunachal_Pradesh,Naharlagun,"Naharlagun, Naharlagun - APSPCB",15-04-2024 08:00:00,27.103358,93.679645,OZONE,2,2,2
India,Assam,Byrnihat,"Central Academy for SFS, Byrnihat - PCBA",15-04-2024 08:00:00,26.071318,91.87488,PM10,62,500,260
India,Assam,Byrnihat,"Central Academy for SFS, Byrnihat - PCBA",15-04-2024 08:00:00,26.071318,91.87488,OZONE,22,34,29
India,Assam,Guwahati,"LGBI Airport, Guwahati - PCBA",15-04-2024 08:00:00,26.10887,91.589544,PM10,111,297,179
India,Assam,Guwahati,"Railway Colony, Guwahati - PCBA",15-04-2024 08:00:00,26.181742,91.78063,PM2.5,85,348,230
India,Assam,Guwahati,"Railway Colony, Guwahati - PCBA",15-04-2024 08:00:00,26.181742,91.78063,PM10,91,297,169
India,Assam,Nagaon,"Christianpatty, Nagaon - PCBA",15-04-2024 08:00:00,26.349082,92.68449,PM10,79,151,111
India,Assam,Nagaon,"Christianpatty, Nagaon - PCBA",15-04-2024 08:00:00,26.349082,92.68449,NO2,3,97,27
India,Assam,Nagaon,"Christianpatty, Nagaon - PCBA",15-04-2024 08:00:00,26.349082,92.68449,CO,22,106,40
India,Assam,Nagaon,"Christianpatty, Nagaon - PCBA",15-04-2024 08:00:00,26.349082,92.68449,OZONE,25,154,41
India,Assam,Nalbari,"Bata Chowk, Nalbari - PCBA",15-04-2024 08:00:00,26.446912,91.439057,PM10,127,424,219
India,Assam,Nalbari,"Bata Chowk, Nalbari - PCBA",15-04-2024 08:00:00,26.446912,91.439057,SO2,NA,NA,NA
India,Assam,Nalbari,"Bata Chowk, Nalbari - PCBA",15-04-2024 08:00:00,26.446912,91.439057,OZONE,4,193,18
India,Assam,Silchar,"Tarapur, Silchar - PCBA",15-04-2024 08:00:00,24.82827,92.79525,PM10,30,64,50
India,Assam,Silchar,"Tarapur, Silchar - PCBA",15-04-2024 08:00:00,24.82827,92.79525,NO2,13,13,13
India,Assam,Silchar,"Tarapur, Silchar - PCBA",15-04-2024 08:00:00,24.82827,92.79525,NH3,1,1,1
India,Assam,Silchar,"Tarapur, Silchar - PCBA",15-04-2024 08:00:00,24.82827,92.79525,OZONE,1,10,1
India,Assam,Sivasagar,"Girls College, Sivasagar - PCBA",15-04-2024 08:00:00,26.987634,94.636574,PM2.5,38,51,45
India,Assam,Sivasagar,"Girls College, Sivasagar - PCBA",15-04-2024 08:00:00,26.987634,94.636574,NO2,12,24,17
India,Bihar,Araria,"Kharahiya Basti, Araria - BSPCB",15-04-2024 08:00:00,26.146529,87.454184,PM2.5,NA,NA,NA
India,Bihar,Arrah,"New DM Office, Arrah - BSPCB",15-04-2024 08:00:00,25.5626095,84.663264,NH3,4,7,5
India,Bihar,Aurangabad,"Gurdeo Nagar, Aurangabad - BSPCB",15-04-2024 08:00:00,24.75746,84.366208,PM2.5,15,273,112
India,Bihar,Aurangabad,"Gurdeo Nagar, Aurangabad - BSPCB",15-04-2024 08:00:00,24.75746,84.366208,PM10,39,147,87
India,Bihar,Bhagalpur,"DM Office_Kachari Chowk, Bhagalpur - BSPCB",15-04-2024 08:00:00,25.251013,86.989001,PM2.5,147,260,203
India,Bihar,Bhagalpur,"Mayaganj, Bhagalpur - BSPCB",15-04-2024 08:00:00,25.265194,87.012947,PM10,99,305,138
India,Bihar,Bihar Sharif,"D M Colony, Bihar Sharif - BSPCB",15-04-2024 08:00:00,25.204762,85.514960,PM10,43,163,95
India,Bihar,Bihar Sharif,"D M Colony, Bihar Sharif - BSPCB",15-04-2024 08:00:00,25.204762,85.514960,CO,44,100,58
India,Bihar,Buxar,"Charitra Van, Buxar - BSPCB (Formerly known as Central Jail)",15-04-2024 08:00:00,25.567520,83.966379,CO,NA,NA,NA
India,Bihar,Chhapra,"Darshan Nagar, Chhapra - BSPCB",15-04-2024 08:00:00,25.7808257,84.7446768,NO2,17,30,24
India,Bihar,Chhapra,"Darshan Nagar, Chhapra - BSPCB",15-04-2024 08:00:00,25.7808257,84.7446768,CO,50,78,59
India,Bihar,Gaya,"SFTI Kusdihra, Gaya - BSPCB",15-04-2024 08:00:00,24.762518,84.982348,PM10,40,93,67
India,Bihar,Gaya,"SFTI Kusdihra, Gaya - BSPCB",15-04-2024 08:00:00,24.762518,84.982348,NO2,18,98,39
India,Bihar,Gaya,"SFTI Kusdihra, Gaya - BSPCB",15-04-2024 08:00:00,24.762518,84.982348,NH3,4,6,5
India,Bihar,Hajipur,"Industrial Area, Hajipur - BSPCB",15-04-2024 08:00:00,25.697189,85.245900,PM2.5,51,280,140
India,Bihar,Hajipur,"Industrial Area, Hajipur - BSPCB",15-04-2024 08:00:00,25.697189,85.245900,SO2,5,7,6
India,Bihar,Hajipur,"Industrial Area, Hajipur - BSPCB",15-04-2024 08:00:00,25.697189,85.245900,CO,32,80,80
India,Bihar,Katihar,"Mirchaibari, Katihar - BSPCB",15-04-2024 08:00:00,25.560083,87.553265,PM10,66,270,130
India,Bihar,Katihar,"Mirchaibari, Katihar - BSPCB",15-04-2024 08:00:00,25.560083,87.553265,NH3,5,10,7
India,Bihar,Kishanganj,"SDM Office_Khagra, Kishanganj - BSPCB",15-04-2024 08:00:00,26.0881305,87.93840336,NO2,27,33,29
India,Bihar,Kishanganj,"SDM Office_Khagra, Kishanganj - BSPCB",15-04-2024 08:00:00,26.0881305,87.93840336,NH3,9,11,10
India,Bihar,Kishanganj,"SDM Office_Khagra, Kishanganj - BSPCB",15-04-2024 08:00:00,26.0881305,87.93840336,SO2,NA,NA,NA
India,Bihar,Manguraha,"Forest Rest House, Manguraha - BSPCB",15-04-2024 08:00:00,27.308328,84.531742,PM2.5,NA,NA,NA
India,Bihar,Motihari,"Gandak Colony, Motihari - BSPCB",15-04-2024 08:00:00,26.63086,84.90051,PM2.5,35,210,73
India,Bihar,Motihari,"Gandak Colony, Motihari - BSPCB",15-04-2024 08:00:00,26.63086,84.90051,PM10,34,133,64
India,Bihar,Motihari,"Gandak Colony, Motihari - BSPCB",15-04-2024 08:00:00,26.63086,84.90051,NO2,55,122,94
India,Bihar,Munger,"Town Hall, Munger - BSPCB",15-04-2024 08:00:00,25.376776,86.471523,PM2.5,68,293,137
India,Bihar,Munger,"Town Hall, Munger - BSPCB",15-04-2024 08:00:00,25.376776,86.471523,PM10,81,191,126
India,Bihar,Munger,"Town Hall, Munger - BSPCB",15-04-2024 08:00:00,25.376776,86.471523,SO2,2,43,23
India,Bihar,Muzaffarpur,"Buddha Colony, Muzaffarpur - BSPCB",15-04-2024 08:00:00,26.11442,85.39813,SO2,4,26,10
India,Bihar,Muzaffarpur,"MIT-Daudpur Kothi, Muzaffarpur - BSPCB",15-04-2024 08:00:00,26.1403345,85.3650192,PM2.5,120,500,358
India,Bihar,Muzaffarpur,"MIT-Daudpur Kothi, Muzaffarpur - BSPCB",15-04-2024 08:00:00,26.1403345,85.3650192,CO,26,112,72
India,Bihar,Muzaffarpur,"MIT-Daudpur Kothi, Muzaffarpur - BSPCB",15-04-2024 08:00:00,26.1403345,85.3650192,OZONE,6,58,13
India,Bihar,Patna,"DRM Office Danapur, Patna - BSPCB",15-04-2024 08:00:00,25.586562,85.043586,PM10,118,297,197
India,Bihar,Patna,"IGSC Planetarium Complex, Patna - BSPCB",15-04-2024 08:00:00,25.610369,85.132568,SO2,5,6,5
India,Bihar,Patna,"Muradpur, Patna - BSPCB",15-04-2024 08:00:00,25.619651,85.147382,PM10,165,465,344
India,Bihar,Patna,"Muradpur, Patna - BSPCB",15-04-2024 08:00:00,25.619651,85.147382,NH3,2,4,3
India,Bihar,Patna,"Rajbansi Nagar, Patna - BSPCB",15-04-2024 08:00:00,25.599486,85.113666,NO2,17,46,30
India,Bihar,Patna,"Rajbansi Nagar, Patna - BSPCB",15-04-2024 08:00:00,25.599486,85.113666,OZONE,3,106,4
India,Bihar,Purnia,"Mariam Nagar, Purnia - BSPCB",15-04-2024 08:00:00,25.366336,87.117468,PM10,NA,NA,NA
India,Bihar,Rajgir,"Dangi Tola, Rajgir - BSPCB",15-04-2024 08:00:00,25.03280,85.41948,SO2,3,5,4
India,Bihar,Saharsa,"Police Line, Saharsa - BSPCB",15-04-2024 08:00:00,25.892357,86.590325,NO2,5,8,7
India,Bihar,Samastipur,"DM Office_Kasipur, Samastipur - BSPCB",15-04-2024 08:00:00,25.859655,85.77944,SO2,1,13,6
India,Bihar,Sasaram,"Dada Peer, Sasaram - BSPCB",15-04-2024 08:00:00,24.952822,84.002396,PM10,31,158,90
India,Bihar,Siwan,"Chitragupta Nagar, Siwan - BSPCB",15-04-2024 08:00:00,26.2271665,84.3570427,NO2,12,142,42
India,Bihar,Siwan,"Chitragupta Nagar, Siwan - BSPCB",15-04-2024 08:00:00,26.2271665,84.3570427,SO2,19,34,30
India,Bihar,Siwan,"Chitragupta Nagar, Siwan - BSPCB",15-04-2024 08:00:00,26.2271665,84.3570427,CO,6,164,110
India,Chandigarh,Chandigarh,"Sector 22, Chandigarh - CPCC",15-04-2024 08:00:00,30.735567,76.775714,PM2.5,50,183,104
India,Chandigarh,Chandigarh,"Sector 22, Chandigarh - CPCC",15-04-2024 08:00:00,30.735567,76.775714,PM10,48,390,123
India,Chandigarh,Chandigarh,"Sector-25, Chandigarh - CPCC",15-04-2024 08:00:00,30.751462,76.762879,OZONE,1,29,1
India,Chandigarh,Chandigarh,"Sector-53, Chandigarh - CPCC",15-04-2024 08:00:00,30.719859,76.738637,NO2,19,111,57
India,Chandigarh,Chandigarh,"Sector-53, Chandigarh - CPCC",15-04-2024 08:00:00,30.719859,76.738637,CO,38,124,66
India,Chhattisgarh,Bhilai,"32Bungalows, Bhilai - CECB",15-04-2024 08:00:00,21.194815,81.314770,PM2.5,23,50,33
India,Chhattisgarh,Bhilai,"32Bungalows, Bhilai - CECB",15-04-2024 08:00:00,21.194815,81.314770,PM10,17,35,25
India,Chhattisgarh,Bhilai,"Civic Center, Bhilai - Bhilai Steel Plant",15-04-2024 08:00:00,21.185571,81.343175,NO2,16,17,16
India,Chhattisgarh,Bhilai,"Hathkhoj, Bhilai - CECB",15-04-2024 08:00:00,21.224231,81.408350,PM10,43,126,86
India,Chhattisgarh,Bilaspur,"Mangala, Bilaspur - NTPC",15-04-2024 08:00:00,22.08815,82.13737,PM10,22,78,43
India,Chhattisgarh,Korba,"Rampur, Korba - CECB",15-04-2024 08:00:00,22.368195,82.746431,NH3,1,1,1
India,Chhattisgarh,Korba,"Urja Nagar, Korba - CECB",15-04-2024 08:00:00,22.348441,82.549611,OZONE,NA,NA,NA
India,Chhattisgarh,Kunjemura,"OP Jindal School, Kunjemura - CECB",15-04-2024 08:00:00,22.126650,83.483212,NO2,14,112,64
India,Chhattisgarh,Kunjemura,"OP Jindal School, Kunjemura - CECB",15-04-2024 08:00:00,22.126650,83.483212,NH3,1,6,2
India,Chhattisgarh,Raipur,"AIIMS, Raipur - CECB",15-04-2024 08:00:00,21.258815,81.578979,NH3,6,6,6
India,Chhattisgarh,Raipur,"AIIMS, Raipur - CECB",15-04-2024 08:00:00,21.258815,81.578979,CO,26,38,34
India,Chhattisgarh,Raipur,"Bhatagaon New ISBT, Raipur - CECB",15-04-2024 08:00:00,21.219665,81.630094,NO2,29,44,36
India,Chhattisgarh,Raipur,"Krishak Nagar, Raipur - CECB",15-04-2024 08:00:00,21.237755,81.705301,NO2,13,25,21
India,Chhattisgarh,Raipur,"Krishak Nagar, Raipur - CECB",15-04-2024 08:00:00,21.237755,81.705301,NH3,1,1,1
India,Chhattisgarh,Raipur,"Siltara Phase-II, Raipur - CECB",15-04-2024 08:00:00,21.371751,81.664929,PM2.5,30,175,83
India,Chhattisgarh,Raipur,"Siltara Phase-II, Raipur - CECB",15-04-2024 08:00:00,21.371751,81.664929,CO,1,70,31
India,Delhi,Delhi,"Alipur, Delhi - DPCC",15-04-2024 08:00:00,28.815329,77.153010,SO2,12,26,17
India,Delhi,Delhi,"Alipur, Delhi - DPCC",15-04-2024 08:00:00,28.815329,77.153010,CO,42,80,68
India,Delhi,Delhi,"Bawana, Delhi - DPCC",15-04-2024 08:00:00,28.776200,77.051074,SO2,9,45,15
India,Delhi,Delhi,"Burari Crossing, Delhi - IMD",15-04-2024 08:00:00,28.7256504,77.2011573,NO2,18,26,21
India,Delhi,Delhi,"Burari Crossing, Delhi - IMD",15-04-2024 08:00:00,28.7256504,77.2011573,OZONE,5,32,8
India,Delhi,Delhi,"Chandni Chowk, Delhi - IITM",15-04-2024 08:00:00,28.656756,77.227234,PM10,99,188,144
India,Delhi,Delhi,"DTU, Delhi - CPCB",15-04-2024 08:00:00,28.7500499,77.1112615,PM10,NA,NA,NA
India,Delhi,Delhi,"DTU, Delhi - CPCB",15-04-2024 08:00:00,28.7500499,77.1112615,NH3,NA,NA,NA
India,Delhi,Delhi,"Dr. Karni Singh Shooting Range, Delhi - DPCC",15-04-2024 08:00:00,28.498571,77.264840,NH3,7,13,9
India,Delhi,Delhi,"Dwarka-Sector 8, Delhi - DPCC ",15-04-2024 08:00:00,28.5710274,77.0719006,SO2,5,8,7
India,Delhi,Delhi,"IGI Airport (T3), Delhi - IMD",15-04-2024 08:00:00,28.5627763,77.1180053,PM2.5,45,450,160
India,Delhi,Delhi,"IGI Airport (T3), Delhi - IMD",15-04-2024 08:00:00,28.5627763,77.1180053,NO2,37,78,53
India,Delhi,Delhi,"IHBAS, Dilshad Garden, Delhi - CPCB",15-04-2024 08:00:00,28.6811736,77.3025234,PM10,80,211,149
India,Delhi,Delhi,"Jahangirpuri, Delhi - DPCC",15-04-2024 08:00:00,28.732820,77.170633,PM2.5,57,399,244
India,Delhi,Delhi,"Jahangirpuri, Delhi - DPCC",15-04-2024 08:00:00,28.732820,77.170633,PM10,101,361,216
India,Delhi,Delhi,"Jahangirpuri, Delhi - DPCC",15-04-2024 08:00:00,28.732820,77.170633,NO2,22,116,72
India,Delhi,Delhi,"Jahangirpuri, Delhi - DPCC",15-04-2024 08:00:00,28.732820,77.170633,OZONE,5,42,6
India,Delhi,Delhi,"Jawaharlal Nehru Stadium, Delhi - DPCC",15-04-2024 08:00:00,28.580280,77.233829,PM10,68,172,126
India,Delhi,Delhi,"Jawaharlal Nehru Stadium, Delhi - DPCC",15-04-2024 08:00:00,28.580280,77.233829,SO2,7,36,21
India,Delhi,Delhi,"Jawaharlal Nehru Stadium, Delhi - DPCC",15-04-2024 08:00:00,28.580280,77.233829,OZONE,2,122,4
India,Delhi,Delhi,"Lodhi Road, Delhi - IMD",15-04-2024 08:00:00,28.5918245,77.2273074,PM2.5,29,249,118
India,Delhi,Delhi,"Lodhi Road, Delhi - IMD",15-04-2024 08:00:00,28.5918245,77.2273074,PM10,56,137,106
India,Delhi,Delhi,"Lodhi Road, Delhi - IMD",15-04-2024 08:00:00,28.5918245,77.2273074,CO,14,30,27
India,Delhi,Delhi,"Lodhi Road, Delhi - IMD",15-04-2024 08:00:00,28.5918245,77.2273074,OZONE,9,39,9
India,Delhi,Delhi,"Major Dhyan Chand National Stadium, Delhi - DPCC",15-04-2024 08:00:00,28.611281,77.237738,NO2,29,117,83
India,Delhi,Delhi,"Major Dhyan Chand National Stadium, Delhi - DPCC",15-04-2024 08:00:00,28.611281,77.237738,SO2,10,22,15
India,Delhi,Delhi,"Major Dhyan Chand National Stadium, Delhi - DPCC",15-04-2024 08:00:00,28.611281,77.237738,CO,8,82,66
India,Delhi,Delhi,"Mandir Marg, Delhi - DPCC",15-04-2024 08:00:00,28.636429,77.201067,PM2.5,36,322,157
India,Delhi,Delhi,"Mandir Marg, Delhi - DPCC",15-04-2024 08:00:00,28.636429,77.201067,PM10,60,167,117
India,Delhi,Delhi,"Mundka, Delhi - DPCC",15-04-2024 08:00:00,28.684678,77.076574,NO2,24,67,44
India,Delhi,Delhi,"Najafgarh, Delhi - DPCC",15-04-2024 08:00:00,28.570173,76.933762,NO2,17,52,31
India,Delhi,Delhi,"Nehru Nagar, Delhi - DPCC",15-04-2024 08:00:00,28.567890,77.250515,PM10,80,217,143
India,Delhi,Delhi,"Nehru Nagar, Delhi - DPCC",15-04-2024 08:00:00,28.567890,77.250515,NO2,8,12,10
India,Delhi,Delhi,"North Campus, DU, Delhi - IMD",15-04-2024 08:00:00,28.6573814,77.1585447,PM2.5,NA,NA,NA
India,Delhi,Delhi,"North Campus, DU, Delhi - IMD",15-04-2024 08:00:00,28.6573814,77.1585447,NO2,NA,NA,NA
India,Delhi,Delhi,"Okhla Phase-2, Delhi - DPCC",15-04-2024 08:00:00,28.530785,77.271255,PM10,100,417,174
India,Delhi,Delhi,"Okhla Phase-2, Delhi - DPCC",15-04-2024 08:00:00,28.530785,77.271255,NO2,37,137,90
India,Delhi,Delhi,"Okhla Phase-2, Delhi - DPCC",15-04-2024 08:00:00,28.530785,77.271255,SO2,11,17,14
India,Delhi,Delhi,"Okhla Phase-2, Delhi - DPCC",15-04-2024 08:00:00,28.530785,77.271255,OZONE,10,78,12
India,Delhi,Delhi,"Patparganj, Delhi - DPCC",15-04-2024 08:00:00,28.623763,77.287209,PM10,88,332,190
India,Delhi,Delhi,"Patparganj, Delhi - DPCC",15-04-2024 08:00:00,28.623763,77.287209,SO2,4,10,8
India,Delhi,Delhi,"Pusa, Delhi - IMD",15-04-2024 08:00:00,28.636110,77.173332,PM10,102,246,176
India,Delhi,Delhi,"R K Puram, Delhi - DPCC",15-04-2024 08:00:00,28.563262,77.186937,PM10,101,217,154
India,Delhi,Delhi,"R K Puram, Delhi - DPCC",15-04-2024 08:00:00,28.563262,77.186937,NO2,50,138,92
India,Delhi,Delhi,"Rohini, Delhi - DPCC",15-04-2024 08:00:00,28.732528,77.119920,PM10,85,420,191
India,Delhi,Delhi,"Shadipur, Delhi - CPCB",15-04-2024 08:00:00,28.6514781,77.1473105,PM2.5,51,323,186
India,Delhi,Delhi,"Shadipur, Delhi - CPCB",15-04-2024 08:00:00,28.6514781,77.1473105,CO,17,43,29
India,Delhi,Delhi,"Sirifort, Delhi - CPCB",15-04-2024 08:00:00,28.5504249,77.2159377,CO,16,92,86
India,Delhi,Delhi,"Sonia Vihar, Delhi - DPCC",15-04-2024 08:00:00,28.710508,77.249485,PM2.5,48,336,216
India,Delhi,Delhi,"Vivek Vihar, Delhi - DPCC",15-04-2024 08:00:00,28.672342,77.315260,NO2,31,85,62
India,Delhi,Delhi,"Wazirpur, Delhi - DPCC",15-04-2024 08:00:00,28.699793,77.165453,PM10,143,391,243
India,Delhi,Delhi,"Wazirpur, Delhi - DPCC",15-04-2024 08:00:00,28.699793,77.165453,CO,42,108,103
India,Gujarat,Ahmedabad,"Gyaspur, Ahmedabad - IITM",15-04-2024 08:00:00,22.977134,72.553024,NO2,36,45,39
India,Gujarat,Ahmedabad,"Gyaspur, Ahmedabad - IITM",15-04-2024 08:00:00,22.977134,72.553024,NH3,11,11,11
India,Gujarat,Ahmedabad,"SVPI Airport Hansol, Ahmedabad - IITM",15-04-2024 08:00:00,23.076793,72.627874,PM10,NA,NA,NA
India,Gujarat,Ahmedabad,"Sardar Vallabhbhai Patel Stadium, Ahmedabad - IITM",15-04-2024 08:00:00,23.043070,72.562968,PM2.5,35,386,92
India,Gujarat,Ankleshwar,"GIDC, Ankleshwar - GPCB",15-04-2024 08:00:00,21.613267,73.010555,PM2.5,35,78,55
India,Gujarat,Ankleshwar,"GIDC, Ankleshwar - GPCB",15-04-2024 08:00:00,21.613267,73.010555,PM10,41,78,61
India,Gujarat,Ankleshwar,"GIDC, Ankleshwar - GPCB",15-04-2024 08:00:00,21.613267,73.010555,NO2,32,33,32
India,Gujarat,Ankleshwar,"GIDC, Ankleshwar - GPCB",15-04-2024 08:00:00,21.613267,73.010555,NH3,7,7,7
India,Gujarat,Gandhinagar,"IIPHG Lekawada, Gandhinagar - IITM",15-04-2024 08:00:00,23.243639,72.68994,PM10,42,381,85
India,Gujarat,Gandhinagar,"Sector-10, Gandhinagar - GPCB",15-04-2024 08:00:00,23.221714,72.654328,CO,24,34,30
India,Gujarat,Surat,"Science Center, Surat - SMC",15-04-2024 08:00:00,21.170046,72.795405,PM2.5,2,22,11
India,Gujarat,Surat,"Science Center, Surat - SMC",15-04-2024 08:00:00,21.170046,72.795405,CO,26,45,33
India,Gujarat,Vapi,"Phase-1 GIDC, Vapi - GPCB",15-04-2024 08:00:00,20.362421,72.918013,PM10,35,102,50
India,Gujarat,Vapi,"Phase-1 GIDC, Vapi - GPCB",15-04-2024 08:00:00,20.362421,72.918013,NH3,2,2,2
India,Gujarat,Vapi,"Phase-1 GIDC, Vapi - GPCB",15-04-2024 08:00:00,20.362421,72.918013,OZONE,2,2,2
India,Gujarat,Vatva,"Phase-4 GIDC, Vatva - GPCB",15-04-2024 08:00:00,22.969611,72.643500,PM2.5,28,83,46
India,Gujarat,Vatva,"Phase-4 GIDC, Vatva - GPCB",15-04-2024 08:00:00,22.969611,72.643500,PM10,37,272,74
India,Haryana,Ambala,"Patti Mehar, Ambala - HSPCB",15-04-2024 08:00:00,30.379589,76.778328,PM2.5,31,97,57
India,Haryana,Ambala,"Patti Mehar, Ambala - HSPCB",15-04-2024 08:00:00,30.379589,76.778328,NH3,8,8,8
India,Haryana,Ambala,"Patti Mehar, Ambala - HSPCB",15-04-2024 08:00:00,30.379589,76.778328,SO2,94,105,102
India,Haryana,Bahadurgarh,"Arya Nagar, Bahadurgarh - HSPCB",15-04-2024 08:00:00,28.6701,76.9254,NH3,NA,NA,NA
India,Haryana,Ballabgarh,"Nathu Colony, Ballabgarh - HSPCB",15-04-2024 08:00:00,28.3419248,77.319699,SO2,1,26,14
India,Haryana,Bhiwani,"H.B. Colony, Bhiwani - HSPCB",15-04-2024 08:00:00,28.806223,76.141105,PM2.5,63,168,89
India,Haryana,Charkhi Dadri,"Mini Secretariat, Charkhi Dadri - HSPCB",15-04-2024 08:00:00,28.593883,76.270653,NO2,14,22,18
India,Haryana,Dharuhera,"Municipal Corporation Office, Dharuhera -  HSPCB",15-04-2024 08:00:00,28.206800,76.799700,SO2,NA,NA,NA
India,Haryana,Dharuhera,"Municipal Corporation Office, Dharuhera -  HSPCB",15-04-2024 08:00:00,28.206800,76.799700,OZONE,NA,NA,NA
India,Haryana,Faridabad,"New Industrial Town, Faridabad - HSPCB",15-04-2024 08:00:00,28.39072,77.30059,PM10,88,240,155
India,Haryana,Faridabad,"New Industrial Town, Faridabad - HSPCB",15-04-2024 08:00:00,28.39072,77.30059,SO2,14,15,15
India,Haryana,Faridabad,"New Industrial Town, Faridabad - HSPCB",15-04-2024 08:00:00,28.39072,77.30059,CO,8,38,32
India,Haryana,Faridabad,"Sector 11, Faridabad - HSPCB",15-04-2024 08:00:00,28.376058,77.315741,NO2,30,33,31
India,Haryana,Faridabad,"Sector 11, Faridabad - HSPCB",15-04-2024 08:00:00,28.376058,77.315741,NH3,6,6,6
India,Haryana,Gurugram,"Sector-51, Gurugram - HSPCB",15-04-2024 08:00:00,28.4227,77.0667,NO2,13,29,23
India,Haryana,Gurugram,"Sector-51, Gurugram - HSPCB",15-04-2024 08:00:00,28.4227,77.0667,NH3,7,14,9
India,Haryana,Gurugram,"Sector-51, Gurugram - HSPCB",15-04-2024 08:00:00,28.4227,77.0667,OZONE,27,56,37
India,Haryana,Gurugram,"Teri Gram, Gurugram - HSPCB",15-04-2024 08:00:00,28.4275,77.1465,SO2,3,4,4
India,Haryana,Gurugram,"Vikas Sadan, Gurugram - HSPCB",15-04-2024 08:00:00,28.4501238,77.0263051,SO2,16,67,36
India,Haryana,Hisar,"Urban Estate-II, Hisar - HSPCB",15-04-2024 08:00:00,29.140560,75.744941,PM2.5,48,123,65
India,Haryana,Hisar,"Urban Estate-II, Hisar - HSPCB",15-04-2024 08:00:00,29.140560,75.744941,CO,25,56,36
India,Haryana,Jind,"Police Lines, Jind - HSPCB",15-04-2024 08:00:00,29.307814,76.337619,OZONE,15,27,18
India,Haryana,Kaithal,"Rishi Nagar, Kaithal - HSPCB",15-04-2024 08:00:00,29.8006,76.4155,NH3,NA,NA,NA
India,Haryana,Kaithal,"Rishi Nagar, Kaithal - HSPCB",15-04-2024 08:00:00,29.8006,76.4155,CO,20,40,27
India,Haryana,Karnal,"Sector-12, Karnal - HSPCB",15-04-2024 08:00:00,29.695300,77.002700,SO2,12,13,13
India,Haryana,Kurukshetra,"Sector-7, Kurukshetra - HSPCB",15-04-2024 08:00:00,29.966942,76.875879,SO2,4,128,35
India,Haryana,Kurukshetra,"Sector-7, Kurukshetra - HSPCB",15-04-2024 08:00:00,29.966942,76.875879,CO,14,46,30
India,Haryana,Mandikhera,"General Hospital, Mandikhera - HSPCB",15-04-2024 08:00:00,27.9002,76.9938,PM2.5,21,46,33
India,Haryana,Manesar,"Sector-2 IMT, Manesar - HSPCB",15-04-2024 08:00:00,28.360699,76.936090,NH3,NA,NA,NA
India,Haryana,Manesar,"Sector-2 IMT, Manesar - HSPCB",15-04-2024 08:00:00,28.360699,76.936090,SO2,NA,NA,NA
India,Haryana,Palwal,"Shyam Nagar, Palwal - HSPCB",15-04-2024 08:00:00,28.1485564,77.3320667,NO2,23,24,24
India,Haryana,Palwal,"Shyam Nagar, Palwal - HSPCB",15-04-2024 08:00:00,28.1485564,77.3320667,NH3,8,9,9
India,Haryana,Panchkula,"Sector-6, Panchkula - HSPCB ",15-04-2024 08:00:00,30.7057778,76.8531805555555,PM2.5,36,263,115
India,Haryana,Sonipat,"Murthal, Sonipat - HSPCB",15-04-2024 08:00:00,29.027200,77.062100,PM2.5,47,53,50
India,Haryana,Sonipat,"Murthal, Sonipat - HSPCB",15-04-2024 08:00:00,29.027200,77.062100,NO2,37,44,40
India,Haryana,Sonipat,"Murthal, Sonipat - HSPCB",15-04-2024 08:00:00,29.027200,77.062100,OZONE,16,36,20
India,Haryana,Yamuna Nagar,"Gobind Pura, Yamuna Nagar - HSPCB",15-04-2024 08:00:00,30.1480566,77.2893471,CO,32,100,52
India,Jharkhand,Dhanbad,"Kalakusuma, Dhanbad - DMC",15-04-2024 08:00:00,23.811548,86.481238,SO2,14,21,15
India,Jharkhand,Dhanbad,"Sardar Patel Nagar, Dhanbad - JSPCB",15-04-2024 08:00:00,23.80569,86.44268,PM2.5,NA,NA,NA
India,Karnataka,Bagalkot,"Vidayagiri, Bagalkot - KSPCB",15-04-2024 08:00:00,16.172806,75.659694,PM2.5,2,40,38
India,Karnataka,Bagalkot,"Vidayagiri, Bagalkot - KSPCB",15-04-2024 08:00:00,16.172806,75.659694,CO,14,50,37
India,Karnataka,Bengaluru,"BTM Layout, Bengaluru - CPCB",15-04-2024 08:00:00,12.9135218,77.5950804,NO2,27,28,27
India,Karnataka,Bengaluru,"Bapuji Nagar, Bengaluru - KSPCB",15-04-2024 08:00:00,12.951913,77.539784,NH3,1,1,1
India,Karnataka,Bengaluru,"Bapuji Nagar, Bengaluru - KSPCB",15-04-2024 08:00:00,12.951913,77.539784,CO,36,48,42
India,Karnataka,Bengaluru,"Hombegowda Nagar, Bengaluru - KSPCB",15-04-2024 08:00:00,12.938539,77.590100,NO2,10,21,15
India,Karnataka,Bengaluru,"Hombegowda Nagar, Bengaluru - KSPCB",15-04-2024 08:00:00,12.938539,77.590100,OZONE,4,5,4
India,Karnataka,Bengaluru,"Kasturi Nagar, Bengaluru - KSPCB",15-04-2024 08:00:00,13.003872,77.664217,SO2,10,10,10
India,Karnataka,Bengaluru,"Peenya, Bengaluru - CPCB",15-04-2024 08:00:00,13.0270199,77.494094,OZONE,20,53,30
India,Karnataka,Bengaluru,"Sanegurava Halli, Bengaluru - KSPCB",15-04-2024 08:00:00,12.990328,77.5431385,PM10,34,45,36
India,Karnataka,Bengaluru,"Shivapura_Peenya, Bengaluru - KSPCB",15-04-2024 08:00:00,13.0246342,77.5080115,PM2.5,9,98,36
India,Karnataka,Bengaluru,"Shivapura_Peenya, Bengaluru - KSPCB",15-04-2024 08:00:00,13.0246342,77.5080115,OZONE,53,56,54
India,Karnataka,Bengaluru,"Silk Board, Bengaluru - KSPCB",15-04-2024 08:00:00,12.917348,77.622813,NH3,NA,NA,NA
India,Karnataka,Bidar,"Naubad, Bidar - KSPCB",15-04-2024 08:00:00,17.930306,77.482194,CO,72,94,79
India,Karnataka,Bidar,"Naubad, Bidar - KSPCB",15-04-2024 08:00:00,17.930306,77.482194,OZONE,19,44,22
India,Karnataka,Chikkamagaluru,"Kalyana Nagara, Chikkamagaluru - KSPCB",15-04-2024 08:00:00,13.328028,75.797056,SO2,NA,NA,NA
India,Karnataka,Chikkamagaluru,"Kalyana Nagara, Chikkamagaluru - KSPCB",15-04-2024 08:00:00,13.328028,75.797056,OZONE,13,45,14
India,Karnataka,Davanagere,"Devaraj Urs Badavane, Davanagere - KSPCB",15-04-2024 08:00:00,14.475800,75.905200,NO2,11,18,14
India,Karnataka,Dharwad,"Kalabhavan, Dharwad - KSPCB",15-04-2024 08:00:00,15.459706,75.008381,SO2,NA,NA,NA
India,Karnataka,Gadag,"Panchal Nagar, Gadag - KSPCB",15-04-2024 08:00:00,15.411456,75.638133,PM10,35,56,46
India,Karnataka,Gadag,"Panchal Nagar, Gadag - KSPCB",15-04-2024 08:00:00,15.411456,75.638133,NO2,5,27,14
India,Karnataka,Gadag,"Panchal Nagar, Gadag - KSPCB",15-04-2024 08:00:00,15.411456,75.638133,CO,42,54,48
India,Karnataka,Hassan,"B.Katihalli, Hassan - KSPCB",15-04-2024 08:00:00,13.008556,76.125258,PM10,NA,NA,NA
India,Karnataka,Hassan,"B.Katihalli, Hassan - KSPCB",15-04-2024 08:00:00,13.008556,76.125258,NH3,NA,NA,NA
India,Karnataka,Hassan,"B.Katihalli, Hassan - KSPCB",15-04-2024 08:00:00,13.008556,76.125258,SO2,NA,NA,NA
India,Karnataka,Haveri,"Ashwini Nagar, Haveri - KSPCB",15-04-2024 08:00:00,14.791800,75.389600,PM2.5,38,66,54
India,Karnataka,Kalaburagi,"Lal Bahadur Shastri Nagar, Kalaburagi - KSPCB",15-04-2024 08:00:00,17.321993,76.822628,PM2.5,NA,NA,NA
India,Karnataka,Kalaburagi,"Lal Bahadur Shastri Nagar, Kalaburagi - KSPCB",15-04-2024 08:00:00,17.321993,76.822628,NH3,1,2,2
India,Karnataka,Kalaburagi,"Lal Bahadur Shastri Nagar, Kalaburagi - KSPCB",15-04-2024 08:00:00,17.321993,76.822628,CO,42,65,44
India,Karnataka,Kalaburagi,"Mahatma Basaveswar Colony, Kalaburgi - KSPCB",15-04-2024 08:00:00,17.336318,76.847397,SO2,NA,NA,NA
India,Karnataka,Karwar,"KHB Colony, Karwar - KSPCB",15-04-2024 08:00:00,14.816666,74.141003,NH3,1,27,4
India,Karnataka,Karwar,"KHB Colony, Karwar - KSPCB",15-04-2024 08:00:00,14.816666,74.141003,SO2,18,20,19
India,Karnataka,Koppal,"Diwator Nagar, Koppal - KSPCB",15-04-2024 08:00:00,15.347630,76.181767,NH3,6,9,8
India,Karnataka,Koppal,"Diwator Nagar, Koppal - KSPCB",15-04-2024 08:00:00,15.347630,76.181767,SO2,27,31,27
India,Karnataka,Koppal,"Diwator Nagar, Koppal - KSPCB",15-04-2024 08:00:00,15.347630,76.181767,OZONE,24,81,39
India,Karnataka,Madikeri,"Stuart Hill, Madikeri - KSPCB",15-04-2024 08:00:00,12.415911,75.735050,NO2,3,16,7
India,Karnataka,Mangalore,"Kadri, Mangalore - KSPCB",15-04-2024 08:00:00,12.889250,74.853000,CO,43,48,47
India,Karnataka,Shivamogga,"Vinoba Nagara, Shivamogga - KSPCB",15-04-2024 08:00:00,13.940000,75.555917,PM2.5,38,42,40
India,Karnataka,Vijayapura,"Ibrahimpur, Vijayapura - KSPCB",15-04-2024 08:00:00,16.802639,75.722694,NO2,12,19,19
India,Karnataka,Vijayapura,"Ibrahimpur, Vijayapura - KSPCB",15-04-2024 08:00:00,16.802639,75.722694,OZONE,10,16,14
India,Karnataka,Yadgir,"Collector Office, Yadgir - KSPCB",15-04-2024 08:00:00,16.7602,77.1428,OZONE,18,21,20
India,Kerala,Eloor,"Udyogamandal, Eloor - Kerala PCB",15-04-2024 08:00:00,10.073232,76.302765,NO2,4,4,4
India,Kerala,Eloor,"Udyogamandal, Eloor - Kerala PCB",15-04-2024 08:00:00,10.073232,76.302765,NH3,1,1,1
India,Kerala,Eloor,"Udyogamandal, Eloor - Kerala PCB",15-04-2024 08:00:00,10.073232,76.302765,SO2,1,16,4
India,Kerala,Kollam,"Polayathode, Kollam - Kerala PCB",15-04-2024 08:00:00,8.8787,76.6073,PM2.5,42,82,64
India,Kerala,Thiruvananthapuram,"Kariavattom, Thiruvananthapuram - Kerala PCB",15-04-2024 08:00:00,8.563700,76.886500,SO2,1,10,6
India,Kerala,Thiruvananthapuram,"Plammoodu, Thiruvananthapuram - Kerala PCB",15-04-2024 08:00:00,8.5149093,76.9435879,NO2,7,10,8
India,Kerala,Thiruvananthapuram,"Plammoodu, Thiruvananthapuram - Kerala PCB",15-04-2024 08:00:00,8.5149093,76.9435879,CO,16,30,24
India,Kerala,Thrissur,"Corporation Ground, Thrissur - Kerala PCB",15-04-2024 08:00:00,10.532400,76.215900,PM10,59,68,64
India,Kerala,Thrissur,"Corporation Ground, Thrissur - Kerala PCB",15-04-2024 08:00:00,10.532400,76.215900,CO,14,14,14
India,Madhya Pradesh,Bhopal,"Idgah Hills, Bhopal - MPPCB",15-04-2024 08:00:00,23.264759,77.381568,NH3,1,9,4
India,Madhya Pradesh,Bhopal,"Paryavaran Parisar, Bhopal - MPPCB",15-04-2024 08:00:00,23.210494,77.425409,PM2.5,23,263,83
India,Madhya Pradesh,Bhopal,"Paryavaran Parisar, Bhopal - MPPCB",15-04-2024 08:00:00,23.210494,77.425409,OZONE,2,99,15
India,Madhya Pradesh,Bhopal,"T T Nagar, Bhopal - MPPCB",15-04-2024 08:00:00,23.233584,77.400574,PM2.5,25,167,70
India,Madhya Pradesh,Bhopal,"T T Nagar, Bhopal - MPPCB",15-04-2024 08:00:00,23.233584,77.400574,NH3,2,9,7
India,Madhya Pradesh,Dewas,"Bhopal Chauraha, Dewas - MPPCB",15-04-2024 08:00:00,22.9682591,76.064118,NH3,3,3,3
India,Madhya Pradesh,Gwalior,"City Center, Gwalior - MPPCB",15-04-2024 08:00:00,26.203442,78.193251,NH3,6,8,7
India,Madhya Pradesh,Gwalior,"City Center, Gwalior - MPPCB",15-04-2024 08:00:00,26.203442,78.193251,SO2,11,37,24
India,Madhya Pradesh,Gwalior,"City Center, Gwalior - MPPCB",15-04-2024 08:00:00,26.203442,78.193251,CO,50,103,62
India,Madhya Pradesh,Gwalior,"Deen Dayal Nagar, Gwalior - MPPCB",15-04-2024 08:00:00,26.259242,78.216432,PM2.5,46,251,106
India,Madhya Pradesh,Gwalior,"Deen Dayal Nagar, Gwalior - MPPCB",15-04-2024 08:00:00,26.259242,78.216432,SO2,15,20,17
India,Madhya Pradesh,Gwalior,"Deen Dayal Nagar, Gwalior - MPPCB",15-04-2024 08:00:00,26.259242,78.216432,OZONE,37,243,63
India,Madhya Pradesh,Gwalior,"Maharaj Bada, Gwalior - MPPCB",15-04-2024 08:00:00,26.200388,78.147714,SO2,10,18,14
India,Madhya Pradesh,Indore,"Chhoti Gwaltoli, Indore - MPPCB",15-04-2024 08:00:00,22.4310,75.5213,PM10,68,152,102
India,Madhya Pradesh,Indore,"Chhoti Gwaltoli, Indore - MPPCB",15-04-2024 08:00:00,22.4310,75.5213,NH3,4,7,5
India,Madhya Pradesh,Indore,"Chhoti Gwaltoli, Indore - MPPCB",15-04-2024 08:00:00,22.4310,75.5213,CO,12,157,56
India,Madhya Pradesh,Indore,"Regional Park, Indore - IMC",15-04-2024 08:00:00,22.6780,75.8559,OZONE,9,22,11
India,Madhya Pradesh,Jabalpur,"Gupteshwar, Jabalpur - JMC",15-04-2024 08:00:00,23.142888,79.916147,NO2,15,59,22
India,Madhya Pradesh,Jabalpur,"Gupteshwar, Jabalpur - JMC",15-04-2024 08:00:00,23.142888,79.916147,CO,24,78,28
India,Madhya Pradesh,Jabalpur,"Suhagi, Jabalpur - JMC",15-04-2024 08:00:00,23.218135,79.957770,PM10,15,76,38
India,Madhya Pradesh,Jabalpur,"Suhagi, Jabalpur - JMC",15-04-2024 08:00:00,23.218135,79.957770,SO2,9,12,12
India,Madhya Pradesh,Katni,"Gole Bazar, Katni - MPPCB",15-04-2024 08:00:00,23.50016,80.23284,PM10,38,163,84
India,Madhya Pradesh,Katni,"Gole Bazar, Katni - MPPCB",15-04-2024 08:00:00,23.50016,80.23284,NO2,26,127,64
India,Madhya Pradesh,Maihar,"Sahilara, Maihar - KJS Cements",15-04-2024 08:00:00,24.2613009,80.7231783,PM2.5,9,49,25
India,Madhya Pradesh,Mandideep,"Sector-D Industrial Area, Mandideep - MPPCB",15-04-2024 08:00:00,23.108440,77.511428,PM2.5,32,306,97
India,Madhya Pradesh,Pithampur,"Sector-2 Industrial Area, Pithampur - MPPCB",15-04-2024 08:00:00,22.624758,75.675238,PM2.5,30,86,52
India,Madhya Pradesh,Pithampur,"Sector-2 Industrial Area, Pithampur - MPPCB",15-04-2024 08:00:00,22.624758,75.675238,OZONE,20,66,21
India,Madhya Pradesh,Ratlam,"Shasthri Nagar, Ratlam - IPCA Lab",15-04-2024 08:00:00,23.331731,75.045981,SO2,40,52,45
India,Madhya Pradesh,Sagar,"Civil Lines, Sagar - MPPCB",15-04-2024 08:00:00,23.838586,78.759431,NO2,7,31,16
India,Madhya Pradesh,Sagar,"Civil Lines, Sagar - MPPCB",15-04-2024 08:00:00,23.838586,78.759431,CO,10,30,17
India,Madhya Pradesh,Sagar,"Deen Dayal Nagar, Sagar - MPPCB",15-04-2024 08:00:00,23.8640158,78.80289321,PM10,15,84,42
India,Madhya Pradesh,Satna,"Bandhavgar Colony, Satna - Birla Cement",15-04-2024 08:00:00,24.58434363,80.8549414,SO2,1,1,1
India,Madhya Pradesh,Singrauli,"Suryakiran Bhawan NCL, Singrauli - MPPCB",15-04-2024 08:00:00,24.108970,82.645580,OZONE,5,69,10
India,Madhya Pradesh,Ujjain,"Mahakaleshwar Temple, Ujjain - MPPCB",15-04-2024 08:00:00,23.182719 ,75.768218 ,PM2.5,17,500,70
India,Madhya Pradesh,Ujjain,"Mahakaleshwar Temple, Ujjain - MPPCB",15-04-2024 08:00:00,23.182719 ,75.768218 ,SO2,8,28,14
India,Maharashtra,Ahmednagar,"Tarakpur, Ahmednagar - MPCB",15-04-2024 08:00:00,19.10122,74.73339,PM2.5,31,78,55
India,Maharashtra,Ahmednagar,"Tarakpur, Ahmednagar - MPCB",15-04-2024 08:00:00,19.10122,74.73339,NH3,2,6,4
India,Maharashtra,Ahmednagar,"Tarakpur, Ahmednagar - MPCB",15-04-2024 08:00:00,19.10122,74.73339,CO,36,115,51
India,Maharashtra,Amravati,"Shivneri Colony, Amravati - MPCB",15-04-2024 08:00:00,20.9402359,77.7895248,SO2,NA,NA,NA
India,Maharashtra,Amravati,"Shri Shivaji Science College, Amaravati - MPCB",15-04-2024 08:00:00,20.939198,77.765701,NH3,8,13,9
India,Maharashtra,Aurangabad,"MIDC Chilkalthana, Aurangabad - MPCB",15-04-2024 08:00:00,19.875620,75.387310,PM2.5,21,182,76
India,Maharashtra,Aurangabad,"MIDC Chilkalthana, Aurangabad - MPCB",15-04-2024 08:00:00,19.875620,75.387310,NO2,6,62,22
India,Maharashtra,Aurangabad,"MIDC Chilkalthana, Aurangabad - MPCB",15-04-2024 08:00:00,19.875620,75.387310,CO,20,66,35
India,Maharashtra,Aurangabad,"More Chowk Waluj, Aurangabad - MPCB",15-04-2024 08:00:00,19.8389439,75.244448,PM10,34,112,63
India,Maharashtra,Aurangabad,"More Chowk Waluj, Aurangabad - MPCB",15-04-2024 08:00:00,19.8389439,75.244448,CO,2,105,23
India,Maharashtra,Aurangabad,"More Chowk Waluj, Aurangabad - MPCB",15-04-2024 08:00:00,19.8389439,75.244448,OZONE,16,106,39
India,Maharashtra,Badlapur,"Katrap, Badlapur - MPCB",15-04-2024 08:00:00,19.16485,73.23409,SO2,4,15,7
India,Maharashtra,Badlapur,"Katrap, Badlapur - MPCB",15-04-2024 08:00:00,19.16485,73.23409,CO,16,70,31
India,Maharashtra,Belapur,"CBD Belapur, Belapur - MPCB",15-04-2024 08:00:00,19.0243902,73.0406721,PM10,48,97,67
India,Maharashtra,Belapur,"CBD Belapur, Belapur - MPCB",15-04-2024 08:00:00,19.0243902,73.0406721,NH3,2,3,2
India,Maharashtra,Belapur,"CBD Belapur, Belapur - MPCB",15-04-2024 08:00:00,19.0243902,73.0406721,SO2,1,8,4
India,Maharashtra,Bhiwandi,"Gokul Nagar, Bhiwandi - MPCB",15-04-2024 08:00:00,19.309073,73.057223,PM10,75,116,93
India,Maharashtra,Bhiwandi,"Gokul Nagar, Bhiwandi - MPCB",15-04-2024 08:00:00,19.309073,73.057223,OZONE,19,199,48
India,Maharashtra,Boisar,"Khaira, Boisar - MPCB",15-04-2024 08:00:00,19.786089,72.757971,CO,14,52,30
India,Maharashtra,Chandrapur,"Chauhan Colony, Chandrapur - MPCB",15-04-2024 08:00:00,19.962900,79.298714,OZONE,8,9,9
India,Maharashtra,Dhule,"Deopur, Dhule - MPCB",15-04-2024 08:00:00,20.918946,74.776388,SO2,10,19,14
India,Maharashtra,Jalgaon,"Prabhat Colony, Jalgaon - MPCB",15-04-2024 08:00:00,21.001264,75.565602,PM2.5,80,194,129
India,Maharashtra,Jalgaon,"Prabhat Colony, Jalgaon - MPCB",15-04-2024 08:00:00,21.001264,75.565602,NH3,6,20,12
India,Maharashtra,Jalgaon,"Prabhat Colony, Jalgaon - MPCB",15-04-2024 08:00:00,21.001264,75.565602,OZONE,12,141,15
India,Maharashtra,Jalna,"Old MIDC, Jalna - MPCB",15-04-2024 08:00:00,19.854616,75.905894,PM10,22,95,59
India,Maharashtra,Kalyan,"Khadakpada, Kalyan - MPCB",15-04-2024 08:00:00,19.25292,73.142019,NH3,1,1,1
India,Maharashtra,Kolhapur,"Shivaji University, Kolhapur - MPCB",15-04-2024 08:00:00,16.6870449,74.2505872,SO2,3,8,5
India,Maharashtra,Kolhapur,"Sinchan Bhavan, Kolhapur - MPCB",15-04-2024 08:00:00,16.7143745,74.2426398,PM10,50,108,72
India,Maharashtra,Latur,"Sawe Wadi, Latur - MPCB",15-04-2024 08:00:00,18.39963,76.57452,NO2,NA,NA,NA
India,Maharashtra,Latur,"Sawe Wadi, Latur - MPCB",15-04-2024 08:00:00,18.39963,76.57452,CO,13,36,21
India,Maharashtra,Mahad,"Kamble Tarf Birwadi, Mahad - MPCB",15-04-2024 08:00:00,18.1023399,73.4783687,PM2.5,31,135,65
India,Maharashtra,Mahad,"Kamble Tarf Birwadi, Mahad - MPCB",15-04-2024 08:00:00,18.1023399,73.4783687,NH3,8,8,8
India,Maharashtra,Mira-Bhayandar,"Bhayandar West, Mira-Bhayandar - MPCB",15-04-2024 08:00:00,19.296481,72.840923,SO2,1,4,1
India,Maharashtra,Mumbai,"Bandra Kurla Complex, Mumbai - MPCB",15-04-2024 08:00:00,19.065931,72.862131,SO2,1,4,1
India,Maharashtra,Mumbai,"Borivali East, Mumbai - IITM",15-04-2024 08:00:00,19.23241,72.86895,PM2.5,24,52,37
India,Maharashtra,Mumbai,"Borivali East, Mumbai - IITM",15-04-2024 08:00:00,19.23241,72.86895,CO,13,51,23
India,Maharashtra,Mumbai,"Borivali East, Mumbai - MPCB",15-04-2024 08:00:00,19.2243333,72.8658113,NO2,6,20,9
India,Maharashtra,Mumbai,"Borivali East, Mumbai - MPCB",15-04-2024 08:00:00,19.2243333,72.8658113,OZONE,15,15,15
India,Maharashtra,Mumbai,"Byculla, Mumbai - BMC",15-04-2024 08:00:00,18.9767,72.8380,CO,10,42,18
India,Maharashtra,Mumbai,"Chembur, Mumbai - MPCB",15-04-2024 08:00:00,19.0364585,72.8954371,CO,14,34,22
India,Maharashtra,Mumbai,"Chembur, Mumbai - MPCB",15-04-2024 08:00:00,19.0364585,72.8954371,OZONE,1,146,8
India,Maharashtra,Mumbai,"Chhatrapati Shivaji Intl. Airport (T2), Mumbai - MPCB",15-04-2024 08:00:00,19.10078,72.87462,NH3,1,34,7
India,Maharashtra,Mumbai,"Colaba, Mumbai - MPCB",15-04-2024 08:00:00,18.910000,72.820000,SO2,10,12,10
India,Maharashtra,Mumbai,"Ghatkopar, Mumbai - BMC",15-04-2024 08:00:00,19.083694,72.920967,PM2.5,NA,NA,NA
India,Maharashtra,Mumbai,"Ghatkopar, Mumbai - BMC",15-04-2024 08:00:00,19.083694,72.920967,NH3,1,8,4
India,Maharashtra,Mumbai,"Ghatkopar, Mumbai - BMC",15-04-2024 08:00:00,19.083694,72.920967,SO2,1,5,2
India,Maharashtra,Mumbai,"Ghatkopar, Mumbai - BMC",15-04-2024 08:00:00,19.083694,72.920967,OZONE,1,36,3
India,Maharashtra,Mumbai,"Kandivali East, Mumbai - MPCB",15-04-2024 08:00:00,19.205800,72.868200,NO2,14,62,26
India,Maharashtra,Mumbai,"Kandivali East, Mumbai - MPCB",15-04-2024 08:00:00,19.205800,72.868200,CO,26,28,27
India,Maharashtra,Mumbai,"Kandivali East, Mumbai - MPCB",15-04-2024 08:00:00,19.205800,72.868200,OZONE,29,31,30
India,Maharashtra,Mumbai,"Kandivali West, Mumbai - BMC",15-04-2024 08:00:00,19.215859,72.831718,PM2.5,20,41,31
India,Maharashtra,Mumbai,"Kandivali West, Mumbai - BMC",15-04-2024 08:00:00,19.215859,72.831718,NO2,6,39,16
India,Maharashtra,Mumbai,"Kandivali West, Mumbai - BMC",15-04-2024 08:00:00,19.215859,72.831718,OZONE,2,86,10
India,Maharashtra,Mumbai,"Kurla, Mumbai - MPCB",15-04-2024 08:00:00,19.0863,72.8888,NO2,14,18,15
India,Maharashtra,Mumbai,"Kurla, Mumbai - MPCB",15-04-2024 08:00:00,19.0863,72.8888,SO2,32,32,32
India,Maharashtra,Mumbai,"Mindspace-Malad West, Mumbai - MPCB",15-04-2024 08:00:00,19.1878657,72.8304069,PM2.5,22,69,40
India,Maharashtra,Mumbai,"Mulund West, Mumbai - MPCB",15-04-2024 08:00:00,19.1750,72.9419,NO2,19,23,20
India,Maharashtra,Mumbai,"Navy Nagar-Colaba, Mumbai - IITM",15-04-2024 08:00:00,18.897756,72.813320,NO2,13,40,19
India,Maharashtra,Mumbai,"Navy Nagar-Colaba, Mumbai - IITM",15-04-2024 08:00:00,18.897756,72.813320,OZONE,9,125,33
India,Maharashtra,Mumbai,"Powai, Mumbai - MPCB",15-04-2024 08:00:00,19.137500,72.915056,PM2.5,20,45,30
India,Maharashtra,Mumbai,"Powai, Mumbai - MPCB",15-04-2024 08:00:00,19.137500,72.915056,NO2,16,26,20
India,Maharashtra,Mumbai,"Powai, Mumbai - MPCB",15-04-2024 08:00:00,19.137500,72.915056,NH3,1,1,1
India,Maharashtra,Mumbai,"Powai, Mumbai - MPCB",15-04-2024 08:00:00,19.137500,72.915056,CO,28,36,32
India,Maharashtra,Mumbai,"Sewri, Mumbai - BMC",15-04-2024 08:00:00,19.000084,72.856730,NO2,18,49,29
India,Maharashtra,Mumbai,"Sewri, Mumbai - BMC",15-04-2024 08:00:00,19.000084,72.856730,CO,12,30,18
India,Maharashtra,Mumbai,"Sion, Mumbai - MPCB",15-04-2024 08:00:00,19.047000,72.874600,OZONE,29,32,30
India,Maharashtra,Mumbai,"Vasai West, Mumbai - MPCB",15-04-2024 08:00:00,19.383200,72.820400,CO,74,102,86
India,Maharashtra,Mumbai,"Worli, Mumbai - MPCB",15-04-2024 08:00:00,18.9936162,72.8128113,PM2.5,14,39,24
India,Maharashtra,Mumbai,"Worli, Mumbai - MPCB",15-04-2024 08:00:00,18.9936162,72.8128113,NO2,14,14,14
India,Maharashtra,Mumbai,"Worli, Mumbai - MPCB",15-04-2024 08:00:00,18.9936162,72.8128113,OZONE,6,27,8
India,Maharashtra,Nagpur,"Mahal, Nagpur - MPCB",15-04-2024 08:00:00,21.14472,79.107595,NH3,2,9,5
India,Maharashtra,Nagpur,"Opp GPO Civil Lines, Nagpur - MPCB",15-04-2024 08:00:00,21.152875,79.0517531,PM2.5,65,225,105
India,Maharashtra,Nagpur,"Opp GPO Civil Lines, Nagpur - MPCB",15-04-2024 08:00:00,21.152875,79.0517531,PM10,49,156,93
India,Maharashtra,Nanded,"Sneh Nagar, Nanded - MPCB",15-04-2024 08:00:00,19.173852,77.296291,NH3,NA,NA,NA
India,Maharashtra,Nashik,"Gangapur Road, Nashik - MPCB",15-04-2024 08:00:00,20.0073285,73.7762427,PM2.5,37,51,45
India,Maharashtra,Nashik,"Hirawadi, Nashik - MPCB",15-04-2024 08:00:00,20.021503,73.813844,NO2,1,43,12
India,Maharashtra,Nashik,"Hirawadi, Nashik - MPCB",15-04-2024 08:00:00,20.021503,73.813844,CO,10,36,18
India,Maharashtra,Nashik,"Hirawadi, Nashik - MPCB",15-04-2024 08:00:00,20.021503,73.813844,OZONE,18,84,20
India,Maharashtra,Nashik,"MIDC Ambad, Nashik - MPCB",15-04-2024 08:00:00,19.950220,73.731480,PM2.5,44,71,58
India,Maharashtra,Nashik,"Pandav Nagari, Nashik - MPCB",15-04-2024 08:00:00,19.9591346,73.7788008,PM10,46,107,66
India,Maharashtra,Navi Mumbai,"Kopripada-Vashi, Navi Mumbai - MPCB",15-04-2024 08:00:00,19.090337,73.014232,NH3,6,11,8
India,Maharashtra,Navi Mumbai,"Kopripada-Vashi, Navi Mumbai - MPCB",15-04-2024 08:00:00,19.090337,73.014232,SO2,1,9,3
India,Maharashtra,Navi Mumbai,"Mahape, Navi Mumbai - MPCB",15-04-2024 08:00:00,19.1135051,73.008978,NH3,1,2,1
India,Maharashtra,Navi Mumbai,"Mahape, Navi Mumbai - MPCB",15-04-2024 08:00:00,19.1135051,73.008978,CO,103,110,108
India,Maharashtra,Navi Mumbai,"Sanpada, Navi Mumbai - MPCB",15-04-2024 08:00:00,19.0575752,73.0151367,NH3,NA,NA,NA
India,Maharashtra,Navi Mumbai,"Sector-19A Nerul, Navi Mumbai - IITM",15-04-2024 08:00:00,19.044,73.0325,PM10,32,101,66
India,Maharashtra,Navi Mumbai,"Sector-2E Kalamboli, Navi Mumbai - MPCB",15-04-2024 08:00:00,19.02579,73.10297,CO,2,44,16
India,Maharashtra,Navi Mumbai,"Tondare-Taloja, Navi Mumbai - MPCB",15-04-2024 08:00:00,19.0630,73.1209,PM2.5,42,94,62
India,Maharashtra,Navi Mumbai,"Tondare-Taloja, Navi Mumbai - MPCB",15-04-2024 08:00:00,19.0630,73.1209,NO2,20,40,30
India,Maharashtra,Navi Mumbai,"Tondare-Taloja, Navi Mumbai - MPCB",15-04-2024 08:00:00,19.0630,73.1209,SO2,9,41,19
India,Maharashtra,Navi Mumbai,"Tondare-Taloja, Navi Mumbai - MPCB",15-04-2024 08:00:00,19.0630,73.1209,CO,6,41,18
India,Maharashtra,Parbhani,"Masoom Colony, Parbhani - MPCB",15-04-2024 08:00:00,19.265594,76.761463,PM2.5,41,117,75
India,Maharashtra,Parbhani,"Masoom Colony, Parbhani - MPCB",15-04-2024 08:00:00,19.265594,76.761463,NO2,18,82,31
India,Maharashtra,Pimpri-Chinchwad,"Gavalinagar, Pimpri Chinchwad - MPCB",15-04-2024 08:00:00,18.63673,73.82487,NO2,13,71,28
India,Maharashtra,Pimpri-Chinchwad,"Gavalinagar, Pimpri Chinchwad - MPCB",15-04-2024 08:00:00,18.63673,73.82487,SO2,4,15,8
India,Maharashtra,Pimpri-Chinchwad,"Park Street Wakad, Pimpri Chinchwad - MPCB",15-04-2024 08:00:00,18.59051,73.77946,CO,20,52,42
India,Maharashtra,Pimpri-Chinchwad,"Thergaon, Pimpri Chinchwad - MPCB",15-04-2024 08:00:00,18.616318,73.765797,PM2.5,70,154,107
India,Maharashtra,Pune,"Bhosari, Pune - IITM",15-04-2024 08:00:00,18.640051,73.848956,PM2.5,11,64,37
India,Maharashtra,Pune,"Karve Road, Pune - MPCB",15-04-2024 08:00:00,18.5011743,73.8165527,CO,76,76,76
India,Maharashtra,Pune,"Katraj Dairy, Pune - MPCB",15-04-2024 08:00:00,18.454450,73.854155,PM2.5,NA,NA,NA
India,Maharashtra,Pune,"Mhada Colony, Pune - IITM",15-04-2024 08:00:00,18.573040,73.927715,CO,2,16,3
India,Maharashtra,Pune,"Revenue Colony-Shivajinagar, Pune - IITM",15-04-2024 08:00:00,18.530085,73.849598,OZONE,4,60,16
India,Maharashtra,Pune,"Transport Nagar-Nigdi, Pune - IITM",15-04-2024 08:00:00,18.664282,73.763966,PM2.5,5,71,41
India,Maharashtra,Pune,"Transport Nagar-Nigdi, Pune - IITM",15-04-2024 08:00:00,18.664282,73.763966,CO,26,42,36
India,Maharashtra,Pune,"Transport Nagar-Nigdi, Pune - IITM",15-04-2024 08:00:00,18.664282,73.763966,OZONE,5,85,15
India,Maharashtra,Solapur,"Ratandeep Housing Society, Solapur - MPCB",15-04-2024 08:00:00,17.65439,75.90649,PM2.5,34,89,54
India,Maharashtra,Solapur,"Ratandeep Housing Society, Solapur - MPCB",15-04-2024 08:00:00,17.65439,75.90649,CO,18,86,23
India,Maharashtra,Solapur,"Solapur, Solapur - MPCB",15-04-2024 08:00:00,17.6599188,75.9063906,NO2,54,55,55
India,Maharashtra,Thane,"Kasarvadavali, Thane - MPCB",15-04-2024 08:00:00,19.26777,72.97182,PM2.5,31,65,47
India,Maharashtra,Thane,"Kasarvadavali, Thane - MPCB",15-04-2024 08:00:00,19.26777,72.97182,NH3,5,8,6
India,Maharashtra,Thane,"Kasarvadavali, Thane - MPCB",15-04-2024 08:00:00,19.26777,72.97182,OZONE,5,77,9
India,Maharashtra,Thane,"Pimpleshwar Mandir, Thane - MPCB",15-04-2024 08:00:00,19.192056,72.9585188,NH3,1,2,1
India,Maharashtra,Thane,"Pimpleshwar Mandir, Thane - MPCB",15-04-2024 08:00:00,19.192056,72.9585188,CO,2,112,53
India,Maharashtra,Ulhasnagar,"Sidhi Vinayak Nagar, Ulhasnagar - MPCB",15-04-2024 08:00:00,19.235581,73.159121,PM2.5,58,85,71
India,Maharashtra,Virar,"Bolinj, Virar - MPCB",15-04-2024 08:00:00,19.4458210,72.7988231,PM2.5,27,77,46
India,Maharashtra,Virar,"Bolinj, Virar - MPCB",15-04-2024 08:00:00,19.4458210,72.7988231,NO2,3,25,9
India,Maharashtra,Virar,"Bolinj, Virar - MPCB",15-04-2024 08:00:00,19.4458210,72.7988231,NH3,6,9,7
India,Maharashtra,Virar,"Bolinj, Virar - MPCB",15-04-2024 08:00:00,19.4458210,72.7988231,OZONE,13,72,21
India,Manipur,Imphal,"DM College of Science, Imphal - Manipur PCB",15-04-2024 08:00:00,24.8207389,93.9423085,NH3,NA,NA,NA
India,Manipur,Imphal,"DM College of Science, Imphal - Manipur PCB",15-04-2024 08:00:00,24.8207389,93.9423085,SO2,NA,NA,NA
India,Mizoram,Aizawl,"Sikulpuikawn, Aizawl - Mizoram PCB",15-04-2024 08:00:00,23.7176342,92.7192841,PM10,57,123,94
India,Mizoram,Aizawl,"Sikulpuikawn, Aizawl - Mizoram PCB",15-04-2024 08:00:00,23.7176342,92.7192841,NO2,NA,NA,NA
India,Mizoram,Aizawl,"Sikulpuikawn, Aizawl - Mizoram PCB",15-04-2024 08:00:00,23.7176342,92.7192841,OZONE,NA,NA,NA
India,Nagaland,Kohima,"PWD Juction, Kohima - NPCB",15-04-2024 08:00:00,25.6635413,94.0989878,PM10,105,153,129
India,Nagaland,Kohima,"PWD Juction, Kohima - NPCB",15-04-2024 08:00:00,25.6635413,94.0989878,CO,20,41,28
India,Nagaland,Kohima,"PWD Juction, Kohima - NPCB",15-04-2024 08:00:00,25.6635413,94.0989878,OZONE,16,54,20
India,Odisha,Angul,"Hakimapada, Angul - OSPCB",15-04-2024 08:00:00,20.832874,85.104082,PM2.5,63,306,122
India,Odisha,Angul,"Hakimapada, Angul - OSPCB",15-04-2024 08:00:00,20.832874,85.104082,SO2,9,108,29
India,Odisha,Angul,"Hakimapada, Angul - OSPCB",15-04-2024 08:00:00,20.832874,85.104082,CO,27,98,61
India,Odisha,Balasore,"Kalidaspur, Balasore - OSPCB",15-04-2024 08:00:00,21.51161,86.89088,NO2,9,34,18
India,Odisha,Baripada,"Meher Colony, Baripada - OSPCB",15-04-2024 08:00:00,21.941841,86.728318,PM10,91,130,113
India,Odisha,Baripada,"Meher Colony, Baripada - OSPCB",15-04-2024 08:00:00,21.941841,86.728318,CO,22,35,30
India,Odisha,Bhubaneswar,"Lingraj Mandir, Bhubaneswar - OSPCB",15-04-2024 08:00:00,20.240790,85.836784,PM2.5,87,325,147
India,Odisha,Bhubaneswar,"Patia, Bhubaneswar - OSPCB",15-04-2024 08:00:00,20.34652,85.81630,CO,1,172,172
India,Odisha,Bileipada,"Tata Township, Bileipada - OSPCB",15-04-2024 08:00:00,22.06156703,85.47409613,PM2.5,69,239,113
India,Odisha,Bileipada,"Tata Township, Bileipada - OSPCB",15-04-2024 08:00:00,22.06156703,85.47409613,NO2,9,11,10
India,Odisha,Brajrajnagar,"GM Office, Brajrajnagar - OSPCB",15-04-2024 08:00:00,21.8004996,83.8396977,PM10,40,126,83
India,Odisha,Brajrajnagar,"GM Office, Brajrajnagar - OSPCB",15-04-2024 08:00:00,21.8004996,83.8396977,NO2,14,17,15
India,Odisha,Brajrajnagar,"GM Office, Brajrajnagar - OSPCB",15-04-2024 08:00:00,21.8004996,83.8396977,NH3,1,2,1
India,Odisha,Brajrajnagar,"GM Office, Brajrajnagar - OSPCB",15-04-2024 08:00:00,21.8004996,83.8396977,CO,80,95,92
India,Odisha,Byasanagar,"Ferro Chrome Colony, Byasanagar - OSPCB",15-04-2024 08:00:00,20.94185,86.11510,PM10,NA,NA,NA
India,Odisha,Cuttack,"CDA Area, Cuttack - OSPCB",15-04-2024 08:00:00,20.48891     ,85.84768     ,NH3,2,3,2
India,Odisha,Cuttack,"CDA Area, Cuttack - OSPCB",15-04-2024 08:00:00,20.48891     ,85.84768     ,CO,8,46,20
India,Odisha,Keonjhar,"Jagamohanpur, Keonjhar - OSPCB",15-04-2024 08:00:00,21.643900,85.599355,SO2,4,6,5
India,Odisha,Keonjhar,"Jagamohanpur, Keonjhar - OSPCB",15-04-2024 08:00:00,21.643900,85.599355,CO,12,103,33
India,Odisha,Nayagarh,"Dabuna, Nayagarh - OSPCB",15-04-2024 08:00:00,21.847279,85.416905,PM10,71,487,186
India,Odisha,Rourkela,"Raghunathpali, Rourkela - OSPCB",15-04-2024 08:00:00,22.220833,84.809444,SO2,7,9,8
India,Odisha,Rourkela,"Raghunathpali, Rourkela - OSPCB",15-04-2024 08:00:00,22.220833,84.809444,CO,32,76,55
India,Odisha,Rourkela,"Sector-2, Rourkela - OSPCB",15-04-2024 08:00:00,22.24500000,84.88111111,PM2.5,61,252,136
India,Odisha,Suakati,"OMC Colony, Suakati - OSPCB",15-04-2024 08:00:00,21.606865,85.510538,SO2,12,46,24
India,Odisha,Suakati,"OMC Colony, Suakati - OSPCB",15-04-2024 08:00:00,21.606865,85.510538,CO,18,31,21
India,Odisha,Suakati,"OMC Colony, Suakati - OSPCB",15-04-2024 08:00:00,21.606865,85.510538,OZONE,34,204,66
India,Odisha,Talcher,"Talcher Coalfields,Talcher - OSPCB",15-04-2024 08:00:00,20.9360711,85.1707021,PM10,62,437,156
India,Odisha,Talcher,"Talcher Coalfields,Talcher - OSPCB",15-04-2024 08:00:00,20.9360711,85.1707021,NO2,18,24,20
India,Odisha,Talcher,"Talcher Coalfields,Talcher - OSPCB",15-04-2024 08:00:00,20.9360711,85.1707021,NH3,3,4,3
India,Odisha,Talcher,"Talcher Coalfields,Talcher - OSPCB",15-04-2024 08:00:00,20.9360711,85.1707021,CO,16,117,73
India,Odisha,Tensa,"Barsua Iron Ore Mines, Tensa - OSPCB",15-04-2024 08:00:00,21.869985,85.167016,PM10,74,111,96
India,Odisha,Tensa,"Barsua Iron Ore Mines, Tensa - OSPCB",15-04-2024 08:00:00,21.869985,85.167016,CO,20,45,21
India,Puducherry,Puducherry,"Jawahar Nagar, Puducherry - PPCC",15-04-2024 08:00:00,11.9309,79.8027,NO2,1,6,2
India,Punjab,Amritsar,"Golden Temple, Amritsar - PPCB",15-04-2024 08:00:00,31.620000,74.876512,PM2.5,79,104,92
India,Punjab,Amritsar,"Golden Temple, Amritsar - PPCB",15-04-2024 08:00:00,31.620000,74.876512,PM10,79,101,92
India,Punjab,Amritsar,"Golden Temple, Amritsar - PPCB",15-04-2024 08:00:00,31.620000,74.876512,CO,12,106,43
India,Punjab,Bathinda,"Hardev Nagar, Bathinda - PPCB",15-04-2024 08:00:00,30.233011,74.907758,SO2,23,39,32
India,Punjab,Bathinda,"Hardev Nagar, Bathinda - PPCB",15-04-2024 08:00:00,30.233011,74.907758,CO,1,102,23
India,Punjab,Mandi Gobindgarh,"RIMT University, Mandi Gobindgarh - PPCB",15-04-2024 08:00:00,30.649961,76.331442,NH3,6,6,6
India,Punjab,Mandi Gobindgarh,"RIMT University, Mandi Gobindgarh - PPCB",15-04-2024 08:00:00,30.649961,76.331442,OZONE,32,33,33
India,Punjab,Rupnagar,"Ratanpura, Rupnagar - Ambuja Cements",15-04-2024 08:00:00,31.0325454,76.5623046,CO,40,56,44
India,Rajasthan,Alwar,"Moti Doongri, Alwar - RSPCB",15-04-2024 08:00:00,27.554793,76.611536,PM2.5,46,129,79
India,Rajasthan,Alwar,"Moti Doongri, Alwar - RSPCB",15-04-2024 08:00:00,27.554793,76.611536,NO2,40,53,46
India,Rajasthan,Baran,"Bamboliya, Baran - RSPCB",15-04-2024 08:00:00,25.106006,76.469948,PM2.5,15,76,46
India,Rajasthan,Baran,"Bamboliya, Baran - RSPCB",15-04-2024 08:00:00,25.106006,76.469948,PM10,30,138,69
India,Rajasthan,Baran,"Bamboliya, Baran - RSPCB",15-04-2024 08:00:00,25.106006,76.469948,NO2,13,44,21
India,Rajasthan,Barmer,"Railway Colony, Barmer - RSPCB",15-04-2024 08:00:00,25.747299,71.393989,PM10,50,140,81
India,Rajasthan,Barmer,"Railway Colony, Barmer - RSPCB",15-04-2024 08:00:00,25.747299,71.393989,CO,10,20,14
India,Rajasthan,Bharatpur,"Krishna Nagar, Bharatpur - RSPCB",15-04-2024 08:00:00,27.215415,77.50873,NH3,2,6,4
India,Rajasthan,Bhiwadi,"RIICO Ind. Area III, Bhiwadi - RSPCB",15-04-2024 08:00:00,28.194909,76.862296,PM10,39,109,85
India,Rajasthan,Bhiwadi,"Vasundhara Nagar_UIT, Bhiwadi - RSPCB",15-04-2024 08:00:00,28.207266,76.829265,PM2.5,38,372,190
India,Rajasthan,Bhiwadi,"Vasundhara Nagar_UIT, Bhiwadi - RSPCB",15-04-2024 08:00:00,28.207266,76.829265,NH3,9,49,19
India,Rajasthan,Bhiwadi,"Vasundhara Nagar_UIT, Bhiwadi - RSPCB",15-04-2024 08:00:00,28.207266,76.829265,SO2,2,23,11
India,Rajasthan,Bhiwadi,"Vasundhara Nagar_UIT, Bhiwadi - RSPCB",15-04-2024 08:00:00,28.207266,76.829265,CO,22,68,54
India,Rajasthan,Bikaner,"MM Ground, Bikaner - RSPCB",15-04-2024 08:00:00,28.018792,73.292658,NO2,29,64,50
India,Rajasthan,Bundi,"New Colony, Bundi - RSPCB",15-04-2024 08:00:00,25.435774,75.644272,PM10,NA,NA,NA
India,Rajasthan,Bundi,"New Colony, Bundi - RSPCB",15-04-2024 08:00:00,25.435774,75.644272,SO2,NA,NA,NA
India,Rajasthan,Churu,"Subash Chowk, Churu - RSPCB",15-04-2024 08:00:00,28.296139,74.961696,NO2,NA,NA,NA
India,Rajasthan,Dausa,"Khatikan Mohalla, Dausa - RSPCB",15-04-2024 08:00:00,26.895552,76.334753,PM2.5,34,230,66
India,Rajasthan,Dausa,"Khatikan Mohalla, Dausa - RSPCB",15-04-2024 08:00:00,26.895552,76.334753,PM10,87,180,125
India,Rajasthan,Dausa,"Khatikan Mohalla, Dausa - RSPCB",15-04-2024 08:00:00,26.895552,76.334753,NH3,5,8,6
India,Rajasthan,Dausa,"Khatikan Mohalla, Dausa - RSPCB",15-04-2024 08:00:00,26.895552,76.334753,SO2,2,7,4
India,Rajasthan,Dausa,"Khatikan Mohalla, Dausa - RSPCB",15-04-2024 08:00:00,26.895552,76.334753,OZONE,28,123,53
India,Rajasthan,Dholpur,"Raja Ganj, Dholpur - RSPCB",15-04-2024 08:00:00,26.699557,77.898881,SO2,4,6,5
India,Rajasthan,Dungarpur,"Bhoiwada, Dungarpur - RSPCB",15-04-2024 08:00:00,23.837789,73.714926,PM2.5,18,73,38
India,Rajasthan,Dungarpur,"Bhoiwada, Dungarpur - RSPCB",15-04-2024 08:00:00,23.837789,73.714926,NO2,13,31,21
India,Rajasthan,Dungarpur,"Bhoiwada, Dungarpur - RSPCB",15-04-2024 08:00:00,23.837789,73.714926,CO,8,26,21
India,Rajasthan,Hanumangarh,"Housing Board, Hanumangarh - RSPCB",15-04-2024 08:00:00,29.610750,74.283608,CO,24,104,65
India,Rajasthan,Hanumangarh,"Housing Board, Hanumangarh - RSPCB",15-04-2024 08:00:00,29.610750,74.283608,OZONE,20,87,42
India,Rajasthan,Jaipur,"Mansarovar Sector-12, Jaipur - RSPCB",15-04-2024 08:00:00,26.843698,75.766894,PM2.5,21,81,48
India,Rajasthan,Jaipur,"Mansarovar Sector-12, Jaipur - RSPCB",15-04-2024 08:00:00,26.843698,75.766894,NO2,11,59,23
India,Rajasthan,Jaipur,"Sector-2 Murlipura, Jaipur - RSPCB",15-04-2024 08:00:00,26.960669,75.771817,PM10,53,179,98
India,Rajasthan,Jaisalmer,"Sadar Bazar, Jaisalmer - RSPCB",15-04-2024 08:00:00,26.912329,70.909168,OZONE,23,94,33
India,Rajasthan,Jalore,"Mudtra Sili, Jalore - RSPCB",15-04-2024 08:00:00,25.344694,72.626208,PM2.5,31,52,43
India,Rajasthan,Jalore,"Mudtra Sili, Jalore - RSPCB",15-04-2024 08:00:00,25.344694,72.626208,NO2,12,62,21
India,Rajasthan,Jalore,"Mudtra Sili, Jalore - RSPCB",15-04-2024 08:00:00,25.344694,72.626208,NH3,6,12,8
India,Rajasthan,Jalore,"Mudtra Sili, Jalore - RSPCB",15-04-2024 08:00:00,25.344694,72.626208,CO,12,32,15
India,Rajasthan,Jhalawar,"Rajlaxmi Nagar, Jhalawar - RSPCB",15-04-2024 08:00:00,24.588397,76.172782,PM2.5,25,73,49
India,Rajasthan,Jhalawar,"Rajlaxmi Nagar, Jhalawar - RSPCB",15-04-2024 08:00:00,24.588397,76.172782,NO2,15,35,22
India,Rajasthan,Jhalawar,"Rajlaxmi Nagar, Jhalawar - RSPCB",15-04-2024 08:00:00,24.588397,76.172782,OZONE,36,99,44
India,Rajasthan,Jhunjhunu,"Indra Nagar, Jhunjhunu - RSPCB",15-04-2024 08:00:00,28.108988,75.386577,NO2,27,46,34
India,Rajasthan,Jodhpur,"Collectorate, Jodhpur - RSPCB",15-04-2024 08:00:00,26.268249,73.0193853,SO2,1,20,8
India,Rajasthan,Jodhpur,"Digari Kalan, Jodhpur - RSPCB",15-04-2024 08:00:00,26.295810,73.082283,PM2.5,23,52,36
India,Rajasthan,Jodhpur,"Digari Kalan, Jodhpur - RSPCB",15-04-2024 08:00:00,26.295810,73.082283,PM10,52,116,70
India,Rajasthan,Jodhpur,"Digari Kalan, Jodhpur - RSPCB",15-04-2024 08:00:00,26.295810,73.082283,CO,12,26,16
India,Rajasthan,Jodhpur,"Jhalamand, Jodhpur - RSPCB",15-04-2024 08:00:00,26.215415,73.070156,PM10,34,110,59
India,Rajasthan,Jodhpur,"Jhalamand, Jodhpur - RSPCB",15-04-2024 08:00:00,26.215415,73.070156,NO2,7,48,21
India,Rajasthan,Jodhpur,"Jhalamand, Jodhpur - RSPCB",15-04-2024 08:00:00,26.215415,73.070156,NH3,8,41,16
India,Rajasthan,Jodhpur,"Mandor, Jodhpur - RSPCB",15-04-2024 08:00:00,26.358805,73.047444,PM10,44,118,70
India,Rajasthan,Jodhpur,"Samrat Ashok Udhyan, Jodhpur - RSPCB",15-04-2024 08:00:00,26.253384,72.976571,SO2,2,8,4
India,Rajasthan,Karauli,"Satyawati Vihar, Karauli - RSPCB",15-04-2024 08:00:00,26.506177,77.025989,PM10,73,170,114
India,Rajasthan,Karauli,"Satyawati Vihar, Karauli - RSPCB",15-04-2024 08:00:00,26.506177,77.025989,NO2,10,47,19
India,Rajasthan,Karauli,"Satyawati Vihar, Karauli - RSPCB",15-04-2024 08:00:00,26.506177,77.025989,NH3,10,19,13
India,Rajasthan,Kota,"Dhanmandi, Kota - RSPCB",15-04-2024 08:00:00,25.164090,75.858137,PM2.5,10,82,39
India,Rajasthan,Kota,"Dhanmandi, Kota - RSPCB",15-04-2024 08:00:00,25.164090,75.858137,NH3,4,6,5
India,Rajasthan,Kota,"Dhanmandi, Kota - RSPCB",15-04-2024 08:00:00,25.164090,75.858137,CO,14,39,19
India,Rajasthan,Kota,"Nayapura, Kota - RSPCB",15-04-2024 08:00:00,25.196024,75.855668,PM10,50,246,94
India,Rajasthan,Kota,"Shrinath Puram, Kota - RSPCB",15-04-2024 08:00:00,25.14389,75.821256,PM2.5,44,202,104
India,Rajasthan,Kota,"Shrinath Puram, Kota - RSPCB",15-04-2024 08:00:00,25.14389,75.821256,CO,28,98,56
India,Rajasthan,Nagaur,"Karni Colony, Nagaur - RSPCB",15-04-2024 08:00:00,27.213494,73.734444,OZONE,28,81,37
India,Rajasthan,Pratapgarh,"Pragati Nagar, Pratapgarh - RSPCB",15-04-2024 08:00:00,24.041198,74.780702,SO2,5,46,13
India,Rajasthan,Sikar,"Radhakishan Pura, Sikar - RSPCB",15-04-2024 08:00:00,27.608912,75.153302,PM2.5,29,100,70
India,Rajasthan,Sikar,"Radhakishan Pura, Sikar - RSPCB",15-04-2024 08:00:00,27.608912,75.153302,NO2,15,51,27
India,Rajasthan,Sri Ganganagar,"Old City, Sri Ganganagar - RSPCB",15-04-2024 08:00:00,29.931624,73.864511,PM10,79,400,179
India,Rajasthan,Sri Ganganagar,"Old City, Sri Ganganagar - RSPCB",15-04-2024 08:00:00,29.931624,73.864511,CO,34,59,38
India,Rajasthan,Tonk,"Shastri Nagar, Tonk - RSPCB",15-04-2024 08:00:00,26.159933,75.780517,OZONE,22,101,29
India,Rajasthan,Udaipur,"Ashok Nagar, Udaipur - RSPCB",15-04-2024 08:00:00,24.5886166,73.6321397,PM10,59,120,87
India,Rajasthan,Udaipur,"Ashok Nagar, Udaipur - RSPCB",15-04-2024 08:00:00,24.5886166,73.6321397,NH3,12,19,16
India,Sikkim,Gangtok,"Zero Point GICI, Gangtok - SSPCB",15-04-2024 08:00:00,27.338530,88.614099,PM2.5,12,38,22
India,TamilNadu,Ariyalur,"Keelapalur, Ariyalur - TNPCB",15-04-2024 08:00:00,11.06825,79.07033,SO2,25,91,30
India,TamilNadu,Chennai,"Alandur Bus Depot, Chennai - CPCB",15-04-2024 08:00:00,12.9099161,80.1076538,PM10,28,51,36
India,TamilNadu,Chennai,"Arumbakkam, Chennai - TNPCB",15-04-2024 08:00:00,13.0664,80.2112 ,SO2,1,6,3
India,TamilNadu,Chennai,"Kodungaiyur, Chennai - TNPCB",15-04-2024 08:00:00,13.1278,80.2642,PM2.5,10,49,27
India,TamilNadu,Chennai,"Kodungaiyur, Chennai - TNPCB",15-04-2024 08:00:00,13.1278,80.2642,SO2,1,10,5
India,TamilNadu,Chennai,"Kodungaiyur, Chennai - TNPCB",15-04-2024 08:00:00,13.1278,80.2642,OZONE,3,7,6
India,TamilNadu,Chennai,"Manali, Chennai - CPCB",15-04-2024 08:00:00,13.164544,80.26285,PM10,40,108,74
India,TamilNadu,Chennai,"Manali, Chennai - CPCB",15-04-2024 08:00:00,13.164544,80.26285,CO,50,105,70
India,TamilNadu,Chennai,"Manali, Chennai - CPCB",15-04-2024 08:00:00,13.164544,80.26285,OZONE,21,54,31
India,TamilNadu,Chennai,"Perungudi, Chennai - TNPCB",15-04-2024 08:00:00,12.9533,80.2357,PM10,31,112,74
India,TamilNadu,Chennai,"Perungudi, Chennai - TNPCB",15-04-2024 08:00:00,12.9533,80.2357,OZONE,4,48,6
India,TamilNadu,Chennai,"Royapuram, Chennai - TNPCB",15-04-2024 08:00:00,13.1036,80.2909,SO2,2,7,4
India,TamilNadu,Chennai,"Velachery Res. Area, Chennai - CPCB",15-04-2024 08:00:00,13.0052189,80.2398125,NO2,7,25,9
India,TamilNadu,Cuddalore,"Kudikadu, Cuddalore - TNPCB",15-04-2024 08:00:00,11.6829898,79.7532099,NH3,4,4,4
India,TamilNadu,Gummidipoondi,"Anthoni Pillai Nagar, Gummidipoondi - TNPCB",15-04-2024 08:00:00,13.4127,80.1081,PM2.5,44,205,92
India,TamilNadu,Gummidipoondi,"Anthoni Pillai Nagar, Gummidipoondi - TNPCB",15-04-2024 08:00:00,13.4127,80.1081,SO2,1,42,8
India,TamilNadu,Ramanathapuram,"Chalai Bazaar, Ramanathapuram - TNPCB",15-04-2024 08:00:00,9.36399,78.831977,OZONE,13,14,14
India,TamilNadu,Salem,"Sona College of Technology, Salem - TNPCB",15-04-2024 08:00:00,11.679111,78.125052,OZONE,2,3,3
India,TamilNadu,Thoothukudi,"Meelavittan, Thoothukudi - TNPCB",15-04-2024 08:00:00,8.816428 ,78.099039,NO2,22,31,26
India,TamilNadu,Tirupur,"Kumaran College, Tirupur - TNPCB",15-04-2024 08:00:00,11.0973603,77.3228673,NO2,5,39,14
India,TamilNadu,Tirupur,"Kumaran College, Tirupur - TNPCB",15-04-2024 08:00:00,11.0973603,77.3228673,SO2,22,24,23
India,TamilNadu,Tirupur,"Kumaran College, Tirupur - TNPCB",15-04-2024 08:00:00,11.0973603,77.3228673,CO,20,73,23
India,TamilNadu,Vellore,"Vasanthapuram, Vellore - TNPCB",15-04-2024 08:00:00,12.909494,79.131861,NO2,NA,NA,NA
India,TamilNadu,Virudhunagar,"Collectorate Office, Virudhunagar - TNPCB",15-04-2024 08:00:00,9.559382,77.948828,PM10,32,63,44
India,TamilNadu,Virudhunagar,"Collectorate Office, Virudhunagar - TNPCB",15-04-2024 08:00:00,9.559382,77.948828,NH3,6,7,6
India,Telangana,Hyderabad,"Central University, Hyderabad - TSPCB",15-04-2024 08:00:00,17.460103,78.334361,SO2,3,11,7
India,Telangana,Hyderabad,"Central University, Hyderabad - TSPCB",15-04-2024 08:00:00,17.460103,78.334361,OZONE,3,4,3
India,Telangana,Hyderabad,"ECIL Kapra, Hyderabad - TSPCB",15-04-2024 08:00:00,17.470431,78.566959,PM2.5,70,88,79
India,Telangana,Hyderabad,"ECIL Kapra, Hyderabad - TSPCB",15-04-2024 08:00:00,17.470431,78.566959,NH3,5,8,8
India,Telangana,Hyderabad,"IITH Kandi, Hyderabad - TSPCB",15-04-2024 08:00:00,17.585705,78.126199,SO2,NA,NA,NA
India,Telangana,Hyderabad,"Kokapet, Hyderabad - TSPCB",15-04-2024 08:00:00,17.393559,78.339194,PM2.5,50,68,59
India,Telangana,Hyderabad,"New Malakpet, Hyderabad - TSPCB",15-04-2024 08:00:00,17.37206,78.50864,PM10,70,82,75
India,Telangana,Hyderabad,"New Malakpet, Hyderabad - TSPCB",15-04-2024 08:00:00,17.37206,78.50864,NH3,3,4,4
India,Telangana,Hyderabad,"Ramachandrapuram, Hyderabad - TSPCB",15-04-2024 08:00:00,17.528544,78.286195,PM10,NA,NA,NA
India,Telangana,Hyderabad,"Ramachandrapuram, Hyderabad - TSPCB",15-04-2024 08:00:00,17.528544,78.286195,SO2,NA,NA,NA
India,Telangana,Hyderabad,"Sanathnagar, Hyderabad - TSPCB",15-04-2024 08:00:00,17.4559458,78.4332152,NO2,29,29,29
India,Telangana,Hyderabad,"Somajiguda, Hyderabad - TSPCB",15-04-2024 08:00:00,17.417094,78.457437,NO2,13,32,18
India,Telangana,Hyderabad,"Zoo Park, Hyderabad - TSPCB",15-04-2024 08:00:00,17.349694,78.451437,SO2,1,6,3
India,Telangana,Hyderabad,"Zoo Park, Hyderabad - TSPCB",15-04-2024 08:00:00,17.349694,78.451437,OZONE,17,26,18
India,Tripura,Agartala,"Bardowali, Agartala - Tripura SPCB",15-04-2024 08:00:00,23.8175497,91.2726974,NH3,2,3,3
India,Tripura,Agartala,"Bardowali, Agartala - Tripura SPCB",15-04-2024 08:00:00,23.8175497,91.2726974,OZONE,1,54,2
India,Uttar_Pradesh,Agra,"Manoharpur, Agra - UPPCB",15-04-2024 08:00:00,27.23711,78.01936,PM10,37,110,50
India,Uttar_Pradesh,Agra,"Manoharpur, Agra - UPPCB",15-04-2024 08:00:00,27.23711,78.01936,SO2,12,19,15
India,Uttar_Pradesh,Agra,"Rohta, Agra - UPPCB",15-04-2024 08:00:00,27.106972,78.000111,PM2.5,36,74,52
India,Uttar_Pradesh,Agra,"Rohta, Agra - UPPCB",15-04-2024 08:00:00,27.106972,78.000111,NH3,NA,NA,NA
India,Uttar_Pradesh,Agra,"Sanjay Palace, Agra - UPPCB",15-04-2024 08:00:00,27.19865833,78.00598056,OZONE,64,125,90
India,Uttar_Pradesh,Agra,"Shahjahan Garden, Agra - UPPCB",15-04-2024 08:00:00,27.169338,78.03582,NH3,3,8,5
India,Uttar_Pradesh,Baghpat,"Sardar Patel Inter College, Baghpat - UPPCB",15-04-2024 08:00:00,28.964949,77.278761,NO2,21,52,33
India,Uttar_Pradesh,Baghpat,"Sardar Patel Inter College, Baghpat - UPPCB",15-04-2024 08:00:00,28.964949,77.278761,NH3,2,4,3
India,Uttar_Pradesh,Baghpat,"Sardar Patel Inter College, Baghpat - UPPCB",15-04-2024 08:00:00,28.964949,77.278761,SO2,12,107,40
India,Uttar_Pradesh,Bareilly,"Civil Lines, Bareilly - UPPCB",15-04-2024 08:00:00,28.359581,79.414455,CO,24,44,38
India,Uttar_Pradesh,Bareilly,"Rajendra Nagar, Bareilly - UPPCB",15-04-2024 08:00:00,28.38910936,79.42963708,NO2,1,2,2
India,Uttar_Pradesh,Bareilly,"Rajendra Nagar, Bareilly - UPPCB",15-04-2024 08:00:00,28.38910936,79.42963708,SO2,44,47,45
India,Uttar_Pradesh,Bareilly,"Rajendra Nagar, Bareilly - UPPCB",15-04-2024 08:00:00,28.38910936,79.42963708,CO,8,31,28
India,Uttar_Pradesh,Bulandshahr,"Yamunapuram, Bulandshahr - UPPCB",15-04-2024 08:00:00,28.406963,77.849831,CO,20,76,57
India,Uttar_Pradesh,Firozabad,"Nagla Bhau, Firozabad - UPPCB",15-04-2024 08:00:00,27.168897,78.376960,CO,24,36,31
India,Uttar_Pradesh,Firozabad,"Vibhab Nagar, Firozabad - UPPCB",15-04-2024 08:00:00,27.1594,78.3953,PM2.5,51,98,76
India,Uttar_Pradesh,Firozabad,"Vibhab Nagar, Firozabad - UPPCB",15-04-2024 08:00:00,27.1594,78.3953,SO2,12,83,26
India,Uttar_Pradesh,Firozabad,"Vibhab Nagar, Firozabad - UPPCB",15-04-2024 08:00:00,27.1594,78.3953,OZONE,19,146,26
India,Uttar_Pradesh,Ghaziabad,"Indirapuram, Ghaziabad - UPPCB",15-04-2024 08:00:00,28.646233,77.358075,NO2,29,61,47
India,Uttar_Pradesh,Ghaziabad,"Sanjay Nagar, Ghaziabad - UPPCB",15-04-2024 08:00:00,28.685382,77.453839,NO2,21,84,60
India,Uttar_Pradesh,Ghaziabad,"Vasundhara, Ghaziabad - UPPCB",15-04-2024 08:00:00,28.6603346,77.3572563,CO,16,86,49
India,Uttar_Pradesh,Ghaziabad,"Vasundhara, Ghaziabad - UPPCB",15-04-2024 08:00:00,28.6603346,77.3572563,OZONE,17,39,21
India,Uttar_Pradesh,Gorakhpur,"Madan Mohan Malaviya University of Technology, Gorakhpur - UPPCB",15-04-2024 08:00:00,26.730136,83.433859,PM10,65,146,103
India,Uttar_Pradesh,Gorakhpur,"Madan Mohan Malaviya University of Technology, Gorakhpur - UPPCB",15-04-2024 08:00:00,26.730136,83.433859,NH3,2,2,2
India,Uttar_Pradesh,Greater Noida,"Knowledge Park - III, Greater Noida - UPPCB",15-04-2024 08:00:00,28.47272,77.482000,NO2,18,82,54
India,Uttar_Pradesh,Greater Noida,"Knowledge Park - V, Greater Noida - UPPCB",15-04-2024 08:00:00,28.557054,77.453663,NH3,2,5,3
India,Uttar_Pradesh,Greater Noida,"Knowledge Park - V, Greater Noida - UPPCB",15-04-2024 08:00:00,28.557054,77.453663,OZONE,4,93,11
India,Uttar_Pradesh,Hapur,"Anand Vihar, Hapur - UPPCB",15-04-2024 08:00:00,28.725645,77.749675,PM10,24,136,91
India,Uttar_Pradesh,Jhansi,"Shivaji Nagar, Jhansi - UPPCB",15-04-2024 08:00:00,25.4547,78.6039,CO,9,26,17
India,Uttar_Pradesh,Kanpur,"FTI Kidwai Nagar, Kanpur - UPPCB",15-04-2024 08:00:00,26.428282,80.327067,NH3,3,5,4
India,Uttar_Pradesh,Kanpur,"NSI Kalyanpur, Kanpur - UPPCB",15-04-2024 08:00:00,26.509954,80.249612,PM10,44,144,95
India,Uttar_Pradesh,Kanpur,"NSI Kalyanpur, Kanpur - UPPCB",15-04-2024 08:00:00,26.509954,80.249612,SO2,20,23,21
India,Uttar_Pradesh,Kanpur,"Nehru Nagar, Kanpur - UPPCB",15-04-2024 08:00:00,26.4703136,80.3229863,PM10,32,136,74
India,Uttar_Pradesh,Kanpur,"Nehru Nagar, Kanpur - UPPCB",15-04-2024 08:00:00,26.4703136,80.3229863,SO2,5,11,8
India,Uttar_Pradesh,Khurja,"Kalindi Kunj, Khurja - UPPCB",15-04-2024 08:00:00,28.2348927,77.8683002,NH3,1,1,1
India,Uttar_Pradesh,Khurja,"Kalindi Kunj, Khurja - UPPCB",15-04-2024 08:00:00,28.2348927,77.8683002,OZONE,28,37,29
India,Uttar_Pradesh,Lucknow,"Kukrail Picnic Spot-1, Lucknow - UPPCB",15-04-2024 08:00:00,26.90723,80.98579,PM10,46,149,95
India,Uttar_Pradesh,Lucknow,"Kukrail Picnic Spot-1, Lucknow - UPPCB",15-04-2024 08:00:00,26.90723,80.98579,SO2,25,27,26
India,Uttar_Pradesh,Lucknow,"Kukrail Picnic Spot-1, Lucknow - UPPCB",15-04-2024 08:00:00,26.90723,80.98579,CO,14,34,30
India,Uttar_Pradesh,Lucknow,"Kukrail Picnic Spot-1, Lucknow - UPPCB",15-04-2024 08:00:00,26.90723,80.98579,OZONE,3,45,10
India,Uttar_Pradesh,Lucknow,"Lalbagh, Lucknow - CPCB",15-04-2024 08:00:00,26.8458805,80.9365541,CO,8,115,43
India,Uttar_Pradesh,Meerut,"Ganga Nagar, Meerut - UPPCB",15-04-2024 08:00:00,28.999264,77.7590354,NO2,15,57,35
India,Uttar_Pradesh,Meerut,"Jai Bhim Nagar, Meerut - UPPCB",15-04-2024 08:00:00,28.9535882,77.7622941,PM2.5,8,111,60
India,Uttar_Pradesh,Meerut,"Jai Bhim Nagar, Meerut - UPPCB",15-04-2024 08:00:00,28.9535882,77.7622941,PM10,30,140,85
India,Uttar_Pradesh,Meerut,"Pallavpuram Phase 2, Meerut - UPPCB",15-04-2024 08:00:00,29.063510,77.709723,OZONE,8,65,14
India,Uttar_Pradesh,Moradabad,"Buddhi Vihar, Moradabad - UPPCB",15-04-2024 08:00:00,28.83526,78.74460,CO,26,36,34
India,Uttar_Pradesh,Moradabad,"Eco Herbal Park, Moradabad - UPPCB",15-04-2024 08:00:00,28.840739,78.697531,PM2.5,18,99,56
India,Uttar_Pradesh,Moradabad,"Jigar Colony, Moradabad - UPPCB",15-04-2024 08:00:00,28.856664,78.772638,PM10,43,142,97
India,Uttar_Pradesh,Moradabad,"Transport Nagar, Moradabad - UPPCB",15-04-2024 08:00:00,28.802625,78.753728,SO2,42,50,44
India,Uttar_Pradesh,Moradabad,"Transport Nagar, Moradabad - UPPCB",15-04-2024 08:00:00,28.802625,78.753728,CO,13,42,40
India,Uttar_Pradesh,Muzaffarnagar,"New Mandi, Muzaffarnagar - UPPCB",15-04-2024 08:00:00,29.4723508,77.7194031,PM2.5,65,330,223
India,Uttar_Pradesh,Muzaffarnagar,"New Mandi, Muzaffarnagar - UPPCB",15-04-2024 08:00:00,29.4723508,77.7194031,NO2,22,43,29
India,Uttar_Pradesh,Muzaffarnagar,"New Mandi, Muzaffarnagar - UPPCB",15-04-2024 08:00:00,29.4723508,77.7194031,SO2,12,69,36
India,Uttar_Pradesh,Noida,"Sector - 125, Noida - UPPCB",15-04-2024 08:00:00,28.5447608,77.3231257,PM10,52,188,114
India,Uttar_Pradesh,Noida,"Sector - 125, Noida - UPPCB",15-04-2024 08:00:00,28.5447608,77.3231257,NO2,55,177,112
India,Uttar_Pradesh,Noida,"Sector - 125, Noida - UPPCB",15-04-2024 08:00:00,28.5447608,77.3231257,CO,20,83,73
India,Uttar_Pradesh,Noida,"Sector - 125, Noida - UPPCB",15-04-2024 08:00:00,28.5447608,77.3231257,OZONE,4,109,14
India,Uttar_Pradesh,Noida,"Sector - 62, Noida - IMD",15-04-2024 08:00:00,28.6245479,77.3577104,CO,54,84,80
India,Uttar_Pradesh,Noida,"Sector - 62, Noida - IMD",15-04-2024 08:00:00,28.6245479,77.3577104,OZONE,7,33,13
India,Uttar_Pradesh,Noida,"Sector-1, Noida - UPPCB",15-04-2024 08:00:00,28.5898,77.3101,CO,14,66,56
India,Uttar_Pradesh,Noida,"Sector-1, Noida - UPPCB",15-04-2024 08:00:00,28.5898,77.3101,OZONE,1,113,17
India,Uttar_Pradesh,Noida,"Sector-116, Noida - UPPCB",15-04-2024 08:00:00,28.569230,77.393848,SO2,13,70,36
India,Uttar_Pradesh,Noida,"Sector-116, Noida - UPPCB",15-04-2024 08:00:00,28.569230,77.393848,OZONE,27,131,41
India,Uttar_Pradesh,Prayagraj,"Jhunsi, Prayagraj - UPPCB",15-04-2024 08:00:00,25.425602,81.917152,PM2.5,3,56,28
India,Uttar_Pradesh,Prayagraj,"Jhunsi, Prayagraj - UPPCB",15-04-2024 08:00:00,25.425602,81.917152,SO2,30,32,31
India,Uttar_Pradesh,Prayagraj,"Jhunsi, Prayagraj - UPPCB",15-04-2024 08:00:00,25.425602,81.917152,OZONE,6,53,10
India,Uttar_Pradesh,Prayagraj,"Motilal Nehru NIT, Prayagraj - UPPCB",15-04-2024 08:00:00,25.494,81.863,OZONE,5,44,5
India,Uttar_Pradesh,Prayagraj,"Nagar Nigam, Prayagraj - UPPCB",15-04-2024 08:00:00,25.44919916 ,81.82735986 ,OZONE,11,12,11
India,Uttar_Pradesh,Varanasi,"Ardhali Bazar, Varanasi - UPPCB",15-04-2024 08:00:00,25.3505986,82.9083074,PM2.5,6,69,26
India,Uttar_Pradesh,Varanasi,"Ardhali Bazar, Varanasi - UPPCB",15-04-2024 08:00:00,25.3505986,82.9083074,NO2,15,38,25
India,Uttar_Pradesh,Varanasi,"Ardhali Bazar, Varanasi - UPPCB",15-04-2024 08:00:00,25.3505986,82.9083074,CO,11,30,23
India,Uttar_Pradesh,Varanasi,"Bhelupur, Varanasi - UPPCB",15-04-2024 08:00:00,25.301778,82.996789,PM10,10,68,31
India,Uttar_Pradesh,Varanasi,"Bhelupur, Varanasi - UPPCB",15-04-2024 08:00:00,25.301778,82.996789,NO2,8,8,8
India,Uttar_Pradesh,Vrindavan,"Omex Eternity, Vrindavan - UPPCB",15-04-2024 08:00:00,27.5714090,77.6557570,PM2.5,16,66,39
India,Uttar_Pradesh,Vrindavan,"Omex Eternity, Vrindavan - UPPCB",15-04-2024 08:00:00,27.5714090,77.6557570,NH3,1,2,1
India,West_Bengal,Asansol,"Asansol Court Area, Asansol - WBPCB",15-04-2024 08:00:00,23.685297,86.945968,NO2,35,67,48
India,West_Bengal,Barrackpore,"SVSPA Campus, Barrackpore - WBPCB",15-04-2024 08:00:00,22.7605581,88.3617589,NO2,13,27,19
India,West_Bengal,Barrackpore,"SVSPA Campus, Barrackpore - WBPCB",15-04-2024 08:00:00,22.7605581,88.3617589,NH3,2,3,3
India,West_Bengal,Barrackpore,"SVSPA Campus, Barrackpore - WBPCB",15-04-2024 08:00:00,22.7605581,88.3617589,SO2,9,21,13
India,West_Bengal,Durgapur,"Sidhu Kanhu Indoor Stadium, Durgapur - WBPCB",15-04-2024 08:00:00,23.5404352,87.2892225,NO2,20,79,37
India,West_Bengal,Durgapur,"Sidhu Kanhu Indoor Stadium, Durgapur - WBPCB",15-04-2024 08:00:00,23.5404352,87.2892225,OZONE,4,97,12
India,West_Bengal,Haldia,"Priyambada Housing Estate, Haldia - WBPCB",15-04-2024 08:00:00,22.06047,88.109737,PM10,57,191,100
India,West_Bengal,Haldia,"Priyambada Housing Estate, Haldia - WBPCB",15-04-2024 08:00:00,22.06047,88.109737,NO2,14,63,26
India,West_Bengal,Howrah,"Belur Math, Howrah - WBPCB",15-04-2024 08:00:00,22.629801,88.352017,NO2,6,32,18
India,West_Bengal,Howrah,"Belur Math, Howrah - WBPCB",15-04-2024 08:00:00,22.629801,88.352017,SO2,7,15,9
India,West_Bengal,Howrah,"Ghusuri, Howrah - WBPCB",15-04-2024 08:00:00,22.611968,88.347422,PM2.5,NA,NA,NA
India,West_Bengal,Kolkata,"Bidhannagar, Kolkata - WBPCB",15-04-2024 08:00:00,22.58157048,88.41002457,CO,20,33,28
India,West_Bengal,Kolkata,"Bidhannagar, Kolkata - WBPCB",15-04-2024 08:00:00,22.58157048,88.41002457,OZONE,37,144,51
India,West_Bengal,Kolkata,"Fort William, Kolkata - WBPCB",15-04-2024 08:00:00,22.556640,88.342674,SO2,10,35,19
India,West_Bengal,Kolkata,"Jadavpur, Kolkata - WBPCB",15-04-2024 08:00:00,22.49929,88.36917,NO2,3,25,7
India,West_Bengal,Kolkata,"Jadavpur, Kolkata - WBPCB",15-04-2024 08:00:00,22.49929,88.36917,NH3,1,2,2
India,West_Bengal,Kolkata,"Jadavpur, Kolkata - WBPCB",15-04-2024 08:00:00,22.49929,88.36917,OZONE,36,135,48
India,West_Bengal,Kolkata,"Rabindra Sarobar, Kolkata - WBPCB",15-04-2024 08:00:00,22.51106,88.35142,PM2.5,45,70,58
India,West_Bengal,Kolkata,"Victoria, Kolkata - WBPCB",15-04-2024 08:00:00,22.5448082,88.3403691,NH3,1,2,2
India,West_Bengal,Siliguri,"Ward-32 Bapupara, Siliguri - WBPCB",15-04-2024 08:00:00,26.6879226,88.4152495,NH3,6,13,10
India,West_Bengal,Siliguri,"Ward-32 Bapupara, Siliguri - WBPCB",15-04-2024 08:00:00,26.6879226,88.4152495,CO,21,36,28
India,Andhra_Pradesh,Amaravati,"Secretariat, Amaravati - APPCB",15-04-2024 08:00:00,16.5150833,80.5181667,PM10,41,103,67
India,Andhra_Pradesh,Amaravati,"Secretariat, Amaravati - APPCB",15-04-2024 08:00:00,16.5150833,80.5181667,NO2,3,14,8
India,Andhra_Pradesh,Amaravati,"Secretariat, Amaravati - APPCB",15-04-2024 08:00:00,16.5150833,80.5181667,OZONE,3,61,13
India,Andhra_Pradesh,Anantapur,"Gulzarpet, Anantapur - APPCB",15-04-2024 08:00:00,14.675886,77.593027,SO2,4,7,6
India,Andhra_Pradesh,Chittoor,"Gangineni Cheruvu, Chittoor - APPCB",15-04-2024 08:00:00,13.204880,79.097889,PM10,59,103,87
India,Andhra_Pradesh,Tirupati,"Tirumala, Tirupati - APPCB",15-04-2024 08:00:00,13.67,79.35,CO,32,60,35
India,Andhra_Pradesh,Vijayawada,"HB Colony, Vijayawada - APPCB",15-04-2024 08:00:00,16.536107,80.594233,PM10,NA,NA,NA
India,Andhra_Pradesh,Vijayawada,"HB Colony, Vijayawada - APPCB",15-04-2024 08:00:00,16.536107,80.594233,NO2,NA,NA,NA
India,Andhra_Pradesh,Vijayawada,"Rajiv Gandhi Park, Vijayawada - APPCB",15-04-2024 08:00:00,16.509717,80.612222,PM2.5,NA,NA,NA
India,Andhra_Pradesh,Vijayawada,"Rajiv Gandhi Park, Vijayawada - APPCB",15-04-2024 08:00:00,16.509717,80.612222,SO2,NA,NA,NA
India,Andhra_Pradesh,Vijayawada,"Rajiv Nagar, Vijayawada - APPCB",15-04-2024 08:00:00,16.554731,80.649110,PM2.5,NA,NA,NA
India,Andhra_Pradesh,Vijayawada,"Rajiv Nagar, Vijayawada - APPCB",15-04-2024 08:00:00,16.554731,80.649110,OZONE,NA,NA,NA
India,Andhra_Pradesh,Visakhapatnam,"GVM Corporation, Visakhapatnam - APPCB",15-04-2024 08:00:00,17.72,83.3,PM2.5,52,152,80
India,Arunachal_Pradesh,Naharlagun,"Naharlagun, Naharlagun - APSPCB",15-04-2024 08:00:00,27.103358,93.679645,PM10,51,100,76
India,Assam,Byrnihat,"Central Academy for SFS, Byrnihat - PCBA",15-04-2024 08:00:00,26.071318,91.87488,PM2.5,72,500,323
India,Assam,Byrnihat,"Central Academy for SFS, Byrnihat - PCBA",15-04-2024 08:00:00,26.071318,91.87488,NH3,5,9,8
India,Assam,Byrnihat,"Central Academy for SFS, Byrnihat - PCBA",15-04-2024 08:00:00,26.071318,91.87488,SO2,6,8,7
India,Assam,Byrnihat,"Central Academy for SFS, Byrnihat - PCBA",15-04-2024 08:00:00,26.071318,91.87488,CO,32,90,36
India,Assam,Guwahati,"LGBI Airport, Guwahati - PCBA",15-04-2024 08:00:00,26.10887,91.589544,OZONE,1,23,8
India,Assam,Guwahati,"Pan Bazaar, Guwahati - PCBA",15-04-2024 08:00:00,26.187500,91.744194,CO,32,107,73
India,Assam,Guwahati,"Pan Bazaar, Guwahati - PCBA",15-04-2024 08:00:00,26.187500,91.744194,OZONE,17,18,17
India,Assam,Sivasagar,"Girls College, Sivasagar - PCBA",15-04-2024 08:00:00,26.987634,94.636574,NH3,2,2,2
India,Assam,Sivasagar,"Girls College, Sivasagar - PCBA",15-04-2024 08:00:00,26.987634,94.636574,SO2,4,4,4
India,Bihar,Araria,"Kharahiya Basti, Araria - BSPCB",15-04-2024 08:00:00,26.146529,87.454184,NO2,2,9,7
India,Bihar,Araria,"Kharahiya Basti, Araria - BSPCB",15-04-2024 08:00:00,26.146529,87.454184,NH3,7,10,7
India,Bihar,Araria,"Kharahiya Basti, Araria - BSPCB",15-04-2024 08:00:00,26.146529,87.454184,CO,18,42,22
India,Bihar,Arrah,"New DM Office, Arrah - BSPCB",15-04-2024 08:00:00,25.5626095,84.663264,PM2.5,35,177,81
India,Bihar,Arrah,"New DM Office, Arrah - BSPCB",15-04-2024 08:00:00,25.5626095,84.663264,SO2,16,21,18
India,Bihar,Arrah,"New DM Office, Arrah - BSPCB",15-04-2024 08:00:00,25.5626095,84.663264,OZONE,13,43,15
India,Bihar,Aurangabad,"Gurdeo Nagar, Aurangabad - BSPCB",15-04-2024 08:00:00,24.75746,84.366208,SO2,3,10,7
India,Bihar,Bhagalpur,"DM Office_Kachari Chowk, Bhagalpur - BSPCB",15-04-2024 08:00:00,25.251013,86.989001,PM10,125,180,148
India,Bihar,Bhagalpur,"DM Office_Kachari Chowk, Bhagalpur - BSPCB",15-04-2024 08:00:00,25.251013,86.989001,OZONE,45,62,48
India,Bihar,Bhagalpur,"Mayaganj, Bhagalpur - BSPCB",15-04-2024 08:00:00,25.265194,87.012947,NO2,2,11,7
India,Bihar,Buxar,"Charitra Van, Buxar - BSPCB (Formerly known as Central Jail)",15-04-2024 08:00:00,25.567520,83.966379,NH3,NA,NA,NA
India,Bihar,Chhapra,"Darshan Nagar, Chhapra - BSPCB",15-04-2024 08:00:00,25.7808257,84.7446768,NH3,8,18,13
India,Bihar,Gaya,"Collectorate, Gaya - BSPCB",15-04-2024 08:00:00,24.7955,84.9994,NO2,1,3,2
India,Bihar,Gaya,"Kareemganj, Gaya - BSPCB",15-04-2024 08:00:00,24.792403,84.992416,NO2,30,31,30
India,Bihar,Gaya,"SFTI Kusdihra, Gaya - BSPCB",15-04-2024 08:00:00,24.762518,84.982348,CO,16,62,44
India,Bihar,Gaya,"SFTI Kusdihra, Gaya - BSPCB",15-04-2024 08:00:00,24.762518,84.982348,OZONE,50,146,71
India,Bihar,Hajipur,"Industrial Area, Hajipur - BSPCB",15-04-2024 08:00:00,25.697189,85.245900,NO2,41,59,49
India,Bihar,Hajipur,"Industrial Area, Hajipur - BSPCB",15-04-2024 08:00:00,25.697189,85.245900,NH3,7,10,9
India,Bihar,Hajipur,"Industrial Area, Hajipur - BSPCB",15-04-2024 08:00:00,25.697189,85.245900,OZONE,3,79,6
India,Bihar,Kishanganj,"SDM Office_Khagra, Kishanganj - BSPCB",15-04-2024 08:00:00,26.0881305,87.93840336,PM2.5,25,170,79
India,Bihar,Kishanganj,"SDM Office_Khagra, Kishanganj - BSPCB",15-04-2024 08:00:00,26.0881305,87.93840336,OZONE,13,24,14
India,Bihar,Manguraha,"Forest Rest House, Manguraha - BSPCB",15-04-2024 08:00:00,27.308328,84.531742,OZONE,9,61,11
India,Bihar,Motihari,"Gandak Colony, Motihari - BSPCB",15-04-2024 08:00:00,26.63086,84.90051,SO2,2,14,6
India,Bihar,Munger,"Town Hall, Munger - BSPCB",15-04-2024 08:00:00,25.376776,86.471523,NO2,7,9,7
India,Bihar,Munger,"Town Hall, Munger - BSPCB",15-04-2024 08:00:00,25.376776,86.471523,NH3,1,3,2
India,Bihar,Muzaffarpur,"Buddha Colony, Muzaffarpur - BSPCB",15-04-2024 08:00:00,26.11442,85.39813,PM2.5,191,410,317
India,Bihar,Muzaffarpur,"Buddha Colony, Muzaffarpur - BSPCB",15-04-2024 08:00:00,26.11442,85.39813,NH3,1,7,5
India,Bihar,Muzaffarpur,"MIT-Daudpur Kothi, Muzaffarpur - BSPCB",15-04-2024 08:00:00,26.1403345,85.3650192,SO2,13,21,17
India,Bihar,Muzaffarpur,"Muzaffarpur Collectorate, Muzaffarpur - BSPCB",15-04-2024 08:00:00,26.1209,85.3647,NO2,3,143,42
India,Bihar,Muzaffarpur,"Muzaffarpur Collectorate, Muzaffarpur - BSPCB",15-04-2024 08:00:00,26.1209,85.3647,CO,31,70,44
India,Bihar,Muzaffarpur,"Muzaffarpur Collectorate, Muzaffarpur - BSPCB",15-04-2024 08:00:00,26.1209,85.3647,OZONE,44,98,78
India,Bihar,Patna,"DRM Office Danapur, Patna - BSPCB",15-04-2024 08:00:00,25.586562,85.043586,NO2,6,99,41
India,Bihar,Patna,"DRM Office Danapur, Patna - BSPCB",15-04-2024 08:00:00,25.586562,85.043586,CO,14,109,59
India,Bihar,Patna,"Govt. High School Shikarpur, Patna - BSPCB",15-04-2024 08:00:00,25.592539,85.227158,OZONE,1,59,3
India,Bihar,Patna,"IGSC Planetarium Complex, Patna - BSPCB",15-04-2024 08:00:00,25.610369,85.132568,PM2.5,97,349,261
India,Bihar,Patna,"IGSC Planetarium Complex, Patna - BSPCB",15-04-2024 08:00:00,25.610369,85.132568,NO2,11,12,11
India,Bihar,Patna,"Muradpur, Patna - BSPCB",15-04-2024 08:00:00,25.619651,85.147382,PM2.5,301,358,336
India,Bihar,Patna,"Rajbansi Nagar, Patna - BSPCB",15-04-2024 08:00:00,25.599486,85.113666,PM2.5,134,335,265
India,Bihar,Purnia,"Mariam Nagar, Purnia - BSPCB",15-04-2024 08:00:00,25.366336,87.117468,PM2.5,NA,NA,NA
India,Bihar,Rajgir,"Dangi Tola, Rajgir - BSPCB",15-04-2024 08:00:00,25.03280,85.41948,NO2,18,28,21
India,Bihar,Rajgir,"Dangi Tola, Rajgir - BSPCB",15-04-2024 08:00:00,25.03280,85.41948,OZONE,30,39,33
India,Bihar,Saharsa,"Police Line, Saharsa - BSPCB",15-04-2024 08:00:00,25.892357,86.590325,OZONE,5,106,27
India,Bihar,Samastipur,"DM Office_Kasipur, Samastipur - BSPCB",15-04-2024 08:00:00,25.859655,85.77944,PM10,74,279,156
India,Bihar,Samastipur,"DM Office_Kasipur, Samastipur - BSPCB",15-04-2024 08:00:00,25.859655,85.77944,OZONE,8,11,9
India,Bihar,Sasaram,"Dada Peer, Sasaram - BSPCB",15-04-2024 08:00:00,24.952822,84.002396,NO2,8,26,17
India,Bihar,Sasaram,"Dada Peer, Sasaram - BSPCB",15-04-2024 08:00:00,24.952822,84.002396,SO2,22,23,22
India,Bihar,Siwan,"Chitragupta Nagar, Siwan - BSPCB",15-04-2024 08:00:00,26.2271665,84.3570427,PM10,57,241,116
India,Bihar,Siwan,"Chitragupta Nagar, Siwan - BSPCB",15-04-2024 08:00:00,26.2271665,84.3570427,NH3,1,26,5
India,Chandigarh,Chandigarh,"Sector 22, Chandigarh - CPCC",15-04-2024 08:00:00,30.735567,76.775714,NO2,27,152,81
India,Chandigarh,Chandigarh,"Sector-25, Chandigarh - CPCC",15-04-2024 08:00:00,30.751462,76.762879,PM2.5,103,238,171
India,Chandigarh,Chandigarh,"Sector-25, Chandigarh - CPCC",15-04-2024 08:00:00,30.751462,76.762879,PM10,94,178,132
India,Chandigarh,Chandigarh,"Sector-25, Chandigarh - CPCC",15-04-2024 08:00:00,30.751462,76.762879,CO,18,80,47
India,Chhattisgarh,Bhilai,"32Bungalows, Bhilai - CECB",15-04-2024 08:00:00,21.194815,81.314770,NO2,20,30,26
India,Chhattisgarh,Bhilai,"32Bungalows, Bhilai - CECB",15-04-2024 08:00:00,21.194815,81.314770,OZONE,4,21,5
India,Chhattisgarh,Bhilai,"Civic Center, Bhilai - Bhilai Steel Plant",15-04-2024 08:00:00,21.185571,81.343175,NH3,5,5,5
India,Chhattisgarh,Bhilai,"Civic Center, Bhilai - Bhilai Steel Plant",15-04-2024 08:00:00,21.185571,81.343175,CO,24,76,42
India,Chhattisgarh,Bhilai,"Hathkhoj, Bhilai - CECB",15-04-2024 08:00:00,21.224231,81.408350,NH3,6,8,7
India,Chhattisgarh,Chhal,"Nawapara SECL Colony, Chhal - CECB",15-04-2024 08:00:00,22.118125,83.140608,PM2.5,37,115,62
India,Chhattisgarh,Chhal,"Nawapara SECL Colony, Chhal - CECB",15-04-2024 08:00:00,22.118125,83.140608,NH3,2,2,2
India,Chhattisgarh,Chhal,"Nawapara SECL Colony, Chhal - CECB",15-04-2024 08:00:00,22.118125,83.140608,CO,24,80,41
India,Chhattisgarh,Korba,"Urja Nagar, Korba - CECB",15-04-2024 08:00:00,22.348441,82.549611,PM2.5,2,305,52
India,Chhattisgarh,Korba,"Urja Nagar, Korba - CECB",15-04-2024 08:00:00,22.348441,82.549611,CO,23,104,28
India,Chhattisgarh,Kunjemura,"OP Jindal School, Kunjemura - CECB",15-04-2024 08:00:00,22.126650,83.483212,PM10,58,302,139
India,Chhattisgarh,Raipur,"AIIMS, Raipur - CECB",15-04-2024 08:00:00,21.258815,81.578979,PM10,31,74,47
India,Chhattisgarh,Raipur,"Krishak Nagar, Raipur - CECB",15-04-2024 08:00:00,21.237755,81.705301,PM2.5,25,54,40
India,Chhattisgarh,Raipur,"Krishak Nagar, Raipur - CECB",15-04-2024 08:00:00,21.237755,81.705301,CO,28,52,46
India,Chhattisgarh,Raipur,"Siltara Phase-II, Raipur - CECB",15-04-2024 08:00:00,21.371751,81.664929,NH3,3,3,3
India,Chhattisgarh,Tumidih,"OP Jindal Industrial Park, Tumidih - CECB",15-04-2024 08:00:00,22.06631475,83.33820077,PM2.5,NA,NA,NA
India,Chhattisgarh,Tumidih,"OP Jindal Industrial Park, Tumidih - CECB",15-04-2024 08:00:00,22.06631475,83.33820077,PM10,NA,NA,NA
India,Chhattisgarh,Tumidih,"OP Jindal Industrial Park, Tumidih - CECB",15-04-2024 08:00:00,22.06631475,83.33820077,NH3,1,3,2
India,Chhattisgarh,Tumidih,"OP Jindal Industrial Park, Tumidih - CECB",15-04-2024 08:00:00,22.06631475,83.33820077,OZONE,4,58,8
India,Delhi,Delhi,"Alipur, Delhi - DPCC",15-04-2024 08:00:00,28.815329,77.153010,NH3,7,11,9
India,Delhi,Delhi,"Ashok Vihar, Delhi - DPCC",15-04-2024 08:00:00,28.695381,77.181665,NO2,19,83,54
India,Delhi,Delhi,"Ashok Vihar, Delhi - DPCC",15-04-2024 08:00:00,28.695381,77.181665,CO,24,61,54
India,Delhi,Delhi,"Ashok Vihar, Delhi - DPCC",15-04-2024 08:00:00,28.695381,77.181665,OZONE,2,9,2
India,Delhi,Delhi,"Aya Nagar, Delhi - IMD",15-04-2024 08:00:00,28.4706914,77.1099364,NO2,61,107,82
India,Delhi,Delhi,"Burari Crossing, Delhi - IMD",15-04-2024 08:00:00,28.7256504,77.2011573,PM10,110,231,178
India,Delhi,Delhi,"CRRI Mathura Road, Delhi - IMD",15-04-2024 08:00:00,28.5512005,77.2735737,PM10,83,236,149
India,Delhi,Delhi,"CRRI Mathura Road, Delhi - IMD",15-04-2024 08:00:00,28.5512005,77.2735737,CO,22,73,60
India,Delhi,Delhi,"CRRI Mathura Road, Delhi - IMD",15-04-2024 08:00:00,28.5512005,77.2735737,OZONE,2,47,8
India,Delhi,Delhi,"Chandni Chowk, Delhi - IITM",15-04-2024 08:00:00,28.656756,77.227234,NH3,5,23,13
India,Delhi,Delhi,"Chandni Chowk, Delhi - IITM",15-04-2024 08:00:00,28.656756,77.227234,OZONE,4,6,6
India,Delhi,Delhi,"DTU, Delhi - CPCB",15-04-2024 08:00:00,28.7500499,77.1112615,OZONE,NA,NA,NA
India,Delhi,Delhi,"Dwarka-Sector 8, Delhi - DPCC ",15-04-2024 08:00:00,28.5710274,77.0719006,NH3,12,16,14
India,Delhi,Delhi,"Dwarka-Sector 8, Delhi - DPCC ",15-04-2024 08:00:00,28.5710274,77.0719006,CO,70,112,97
India,Delhi,Delhi,"Dwarka-Sector 8, Delhi - DPCC ",15-04-2024 08:00:00,28.5710274,77.0719006,OZONE,2,49,3
India,Delhi,Delhi,"IGI Airport (T3), Delhi - IMD",15-04-2024 08:00:00,28.5627763,77.1180053,OZONE,1,23,2
India,Delhi,Delhi,"IHBAS, Dilshad Garden, Delhi - CPCB",15-04-2024 08:00:00,28.6811736,77.3025234,CO,18,112,34
India,Delhi,Delhi,"ITO, Delhi - CPCB",15-04-2024 08:00:00,28.628624,77.241060,PM10,58,200,133
India,Delhi,Delhi,"Jahangirpuri, Delhi - DPCC",15-04-2024 08:00:00,28.732820,77.170633,NH3,17,29,24
India,Delhi,Delhi,"Jawaharlal Nehru Stadium, Delhi - DPCC",15-04-2024 08:00:00,28.580280,77.233829,PM2.5,28,277,121
India,Delhi,Delhi,"Jawaharlal Nehru Stadium, Delhi - DPCC",15-04-2024 08:00:00,28.580280,77.233829,NH3,8,14,11
India,Delhi,Delhi,"NSIT Dwarka, Delhi - CPCB",15-04-2024 08:00:00,28.60909,77.0325413,PM10,113,201,148
India,Delhi,Delhi,"NSIT Dwarka, Delhi - CPCB",15-04-2024 08:00:00,28.60909,77.0325413,SO2,13,34,22
India,Delhi,Delhi,"Najafgarh, Delhi - DPCC",15-04-2024 08:00:00,28.570173,76.933762,CO,50,80,61
India,Delhi,Delhi,"Narela, Delhi - DPCC",15-04-2024 08:00:00,28.822836,77.101981,PM10,112,259,186
India,Delhi,Delhi,"Narela, Delhi - DPCC",15-04-2024 08:00:00,28.822836,77.101981,NH3,7,12,10
India,Delhi,Delhi,"Nehru Nagar, Delhi - DPCC",15-04-2024 08:00:00,28.567890,77.250515,CO,52,68,59
India,Delhi,Delhi,"New Moti Bagh, Delhi - MHUA",15-04-2024 08:00:00,28.57834,77.18400,NO2,8,35,15
India,Delhi,Delhi,"North Campus, DU, Delhi - IMD",15-04-2024 08:00:00,28.6573814,77.1585447,CO,90,108,108
India,Delhi,Delhi,"Okhla Phase-2, Delhi - DPCC",15-04-2024 08:00:00,28.530785,77.271255,NH3,11,15,13
India,Delhi,Delhi,"Patparganj, Delhi - DPCC",15-04-2024 08:00:00,28.623763,77.287209,NO2,22,66,46
India,Delhi,Delhi,"Punjabi Bagh, Delhi - DPCC",15-04-2024 08:00:00,28.674045,77.131023,SO2,NA,NA,NA
India,Delhi,Delhi,"Pusa, Delhi - DPCC",15-04-2024 08:00:00,28.639652,77.146275,NH3,8,15,12
India,Delhi,Delhi,"Pusa, Delhi - DPCC",15-04-2024 08:00:00,28.639652,77.146275,SO2,7,27,14
India,Delhi,Delhi,"Pusa, Delhi - DPCC",15-04-2024 08:00:00,28.639652,77.146275,OZONE,1,60,1
India,Delhi,Delhi,"Pusa, Delhi - IMD",15-04-2024 08:00:00,28.636110,77.173332,NO2,19,42,29
India,Delhi,Delhi,"R K Puram, Delhi - DPCC",15-04-2024 08:00:00,28.563262,77.186937,PM2.5,51,321,184
India,Delhi,Delhi,"Rohini, Delhi - DPCC",15-04-2024 08:00:00,28.732528,77.119920,NH3,13,20,16
India,Delhi,Delhi,"Rohini, Delhi - DPCC",15-04-2024 08:00:00,28.732528,77.119920,CO,32,100,84
India,Delhi,Delhi,"Rohini, Delhi - DPCC",15-04-2024 08:00:00,28.732528,77.119920,OZONE,4,71,5
India,Delhi,Delhi,"Shadipur, Delhi - CPCB",15-04-2024 08:00:00,28.6514781,77.1473105,OZONE,60,197,163
India,Delhi,Delhi,"Sirifort, Delhi - CPCB",15-04-2024 08:00:00,28.5504249,77.2159377,PM10,88,210,146
India,Delhi,Delhi,"Sirifort, Delhi - CPCB",15-04-2024 08:00:00,28.5504249,77.2159377,SO2,24,28,26
India,Delhi,Delhi,"Sonia Vihar, Delhi - DPCC",15-04-2024 08:00:00,28.710508,77.249485,NO2,18,66,40
India,Delhi,Delhi,"Sri Aurobindo Marg, Delhi - DPCC",15-04-2024 08:00:00,28.531346,77.190156,PM2.5,38,310,126
India,Delhi,Delhi,"Sri Aurobindo Marg, Delhi - DPCC",15-04-2024 08:00:00,28.531346,77.190156,NH3,12,16,13
India,Delhi,Delhi,"Vivek Vihar, Delhi - DPCC",15-04-2024 08:00:00,28.672342,77.315260,PM10,86,308,189
India,Delhi,Delhi,"Vivek Vihar, Delhi - DPCC",15-04-2024 08:00:00,28.672342,77.315260,CO,22,68,61
India,Delhi,Delhi,"Wazirpur, Delhi - DPCC",15-04-2024 08:00:00,28.699793,77.165453,OZONE,4,45,6
India,Gujarat,Ahmedabad,"Chandkheda, Ahmedabad - IITM",15-04-2024 08:00:00,23.107969,72.574648,PM10,49,404,94
India,Gujarat,Ahmedabad,"Chandkheda, Ahmedabad - IITM",15-04-2024 08:00:00,23.107969,72.574648,NO2,60,86,74
India,Gujarat,Ahmedabad,"Gyaspur, Ahmedabad - IITM",15-04-2024 08:00:00,22.977134,72.553024,PM2.5,53,329,86
India,Gujarat,Ahmedabad,"Maninagar, Ahmedabad - GPCB",15-04-2024 08:00:00,23.002657,72.591912,PM2.5,NA,NA,NA
India,Gujarat,Ahmedabad,"Raikhad, Ahmedabad - IITM",15-04-2024 08:00:00,23.020509,72.579261,PM10,32,452,108
India,Gujarat,Ahmedabad,"Sardar Vallabhbhai Patel Stadium, Ahmedabad - IITM",15-04-2024 08:00:00,23.043070,72.562968,NO2,39,41,40
India,Gujarat,Ahmedabad,"Sardar Vallabhbhai Patel Stadium, Ahmedabad - IITM",15-04-2024 08:00:00,23.043070,72.562968,NH3,7,7,7
India,Gujarat,Ankleshwar,"GIDC, Ankleshwar - GPCB",15-04-2024 08:00:00,21.613267,73.010555,SO2,1,45,15
India,Gujarat,Gandhinagar,"IIPHG Lekawada, Gandhinagar - IITM",15-04-2024 08:00:00,23.243639,72.68994,SO2,10,10,10
India,Gujarat,Gandhinagar,"Sector-10, Gandhinagar - GPCB",15-04-2024 08:00:00,23.221714,72.654328,PM10,26,120,60
India,Gujarat,Gandhinagar,"Sector-10, Gandhinagar - GPCB",15-04-2024 08:00:00,23.221714,72.654328,SO2,4,4,4
India,Gujarat,Surat,"Science Center, Surat - SMC",15-04-2024 08:00:00,21.170046,72.795405,SO2,1,5,2
India,Gujarat,Vapi,"Phase-1 GIDC, Vapi - GPCB",15-04-2024 08:00:00,20.362421,72.918013,PM2.5,25,100,41
India,Gujarat,Vapi,"Phase-1 GIDC, Vapi - GPCB",15-04-2024 08:00:00,20.362421,72.918013,SO2,51,52,52
India,Gujarat,Vatva,"Phase-4 GIDC, Vatva - GPCB",15-04-2024 08:00:00,22.969611,72.643500,NO2,26,71,37
India,Gujarat,Vatva,"Phase-4 GIDC, Vatva - GPCB",15-04-2024 08:00:00,22.969611,72.643500,SO2,11,26,17
India,Haryana,Ambala,"Patti Mehar, Ambala - HSPCB",15-04-2024 08:00:00,30.379589,76.778328,CO,30,60,47
India,Haryana,Ambala,"Patti Mehar, Ambala - HSPCB",15-04-2024 08:00:00,30.379589,76.778328,OZONE,38,54,49
India,Haryana,Bahadurgarh,"Arya Nagar, Bahadurgarh - HSPCB",15-04-2024 08:00:00,28.6701,76.9254,SO2,NA,NA,NA
India,Haryana,Bahadurgarh,"Arya Nagar, Bahadurgarh - HSPCB",15-04-2024 08:00:00,28.6701,76.9254,CO,NA,NA,NA
India,Haryana,Ballabgarh,"Nathu Colony, Ballabgarh - HSPCB",15-04-2024 08:00:00,28.3419248,77.319699,OZONE,5,27,8
India,Haryana,Charkhi Dadri,"Mini Secretariat, Charkhi Dadri - HSPCB",15-04-2024 08:00:00,28.593883,76.270653,PM10,51,182,104
India,Haryana,Charkhi Dadri,"Mini Secretariat, Charkhi Dadri - HSPCB",15-04-2024 08:00:00,28.593883,76.270653,CO,37,92,70
India,Haryana,Dharuhera,"Municipal Corporation Office, Dharuhera -  HSPCB",15-04-2024 08:00:00,28.206800,76.799700,PM10,NA,NA,NA
India,Haryana,Dharuhera,"Municipal Corporation Office, Dharuhera -  HSPCB",15-04-2024 08:00:00,28.206800,76.799700,CO,NA,NA,NA
India,Haryana,Faridabad,"New Industrial Town, Faridabad - HSPCB",15-04-2024 08:00:00,28.39072,77.30059,PM2.5,96,353,265
India,Haryana,Faridabad,"New Industrial Town, Faridabad - HSPCB",15-04-2024 08:00:00,28.39072,77.30059,NO2,12,16,14
India,Haryana,Faridabad,"New Industrial Town, Faridabad - HSPCB",15-04-2024 08:00:00,28.39072,77.30059,OZONE,1,159,10
India,Haryana,Fatehabad,"Huda Sector, Fatehabad - HSPCB",15-04-2024 08:00:00,29.503664,75.467934,NH3,9,11,10
India,Haryana,Fatehabad,"Huda Sector, Fatehabad - HSPCB",15-04-2024 08:00:00,29.503664,75.467934,OZONE,45,83,74
India,Haryana,Gurugram,"Sector-51, Gurugram - HSPCB",15-04-2024 08:00:00,28.4227,77.0667,PM10,92,279,152
India,Haryana,Gurugram,"Teri Gram, Gurugram - HSPCB",15-04-2024 08:00:00,28.4275,77.1465,PM2.5,69,241,126
India,Haryana,Gurugram,"Teri Gram, Gurugram - HSPCB",15-04-2024 08:00:00,28.4275,77.1465,PM10,103,247,180
India,Haryana,Gurugram,"Teri Gram, Gurugram - HSPCB",15-04-2024 08:00:00,28.4275,77.1465,NH3,42,85,57
India,Haryana,Gurugram,"Vikas Sadan, Gurugram - HSPCB",15-04-2024 08:00:00,28.4501238,77.0263051,PM2.5,20,135,70
India,Haryana,Gurugram,"Vikas Sadan, Gurugram - HSPCB",15-04-2024 08:00:00,28.4501238,77.0263051,CO,54,148,105
India,Haryana,Gurugram,"Vikas Sadan, Gurugram - HSPCB",15-04-2024 08:00:00,28.4501238,77.0263051,OZONE,7,66,10
India,Haryana,Karnal,"Sector-12, Karnal - HSPCB",15-04-2024 08:00:00,29.695300,77.002700,PM2.5,66,139,90
India,Haryana,Mandikhera,"General Hospital, Mandikhera - HSPCB",15-04-2024 08:00:00,27.9002,76.9938,NO2,18,24,22
India,Haryana,Mandikhera,"General Hospital, Mandikhera - HSPCB",15-04-2024 08:00:00,27.9002,76.9938,SO2,32,37,34
India,Haryana,Manesar,"Sector-2 IMT, Manesar - HSPCB",15-04-2024 08:00:00,28.360699,76.936090,NO2,NA,NA,NA
India,Haryana,Panipat,"Sector-18, Panipat - HSPCB",15-04-2024 08:00:00,29.497973,76.993331,PM2.5,66,72,71
India,Haryana,Panipat,"Sector-18, Panipat - HSPCB",15-04-2024 08:00:00,29.497973,76.993331,NH3,2,3,2
India,Haryana,Panipat,"Sector-18, Panipat - HSPCB",15-04-2024 08:00:00,29.497973,76.993331,OZONE,30,30,30
India,Haryana,Sonipat,"Murthal, Sonipat - HSPCB",15-04-2024 08:00:00,29.027200,77.062100,SO2,12,29,20
India,Haryana,Yamuna Nagar,"Gobind Pura, Yamuna Nagar - HSPCB",15-04-2024 08:00:00,30.1480566,77.2893471,NO2,11,29,18
India,Himachal Pradesh,Baddi,"HIMUDA Complex Phase-1, Baddi - HPPCB",15-04-2024 08:00:00,30.943887,76.801991,PM2.5,28,308,106
India,Himachal Pradesh,Baddi,"HIMUDA Complex Phase-1, Baddi - HPPCB",15-04-2024 08:00:00,30.943887,76.801991,OZONE,11,135,55
India,Jharkhand,Dhanbad,"Kalakusuma, Dhanbad - DMC",15-04-2024 08:00:00,23.811548,86.481238,PM10,98,428,168
India,Jharkhand,Dhanbad,"Kalakusuma, Dhanbad - DMC",15-04-2024 08:00:00,23.811548,86.481238,CO,129,134,132
India,Karnataka,Bengaluru,"BTM Layout, Bengaluru - CPCB",15-04-2024 08:00:00,12.9135218,77.5950804,OZONE,9,57,14
India,Karnataka,Bengaluru,"Hebbal, Bengaluru - KSPCB",15-04-2024 08:00:00,13.029152,77.585901,PM10,45,102,73
India,Karnataka,Bengaluru,"Hombegowda Nagar, Bengaluru - KSPCB",15-04-2024 08:00:00,12.938539,77.590100,CO,8,18,12
India,Karnataka,Bengaluru,"Jayanagar 5th Block, Bengaluru - KSPCB",15-04-2024 08:00:00,12.920984,77.584908,PM2.5,46,130,65
India,Karnataka,Bengaluru,"Jayanagar 5th Block, Bengaluru - KSPCB",15-04-2024 08:00:00,12.920984,77.584908,NO2,4,7,5
India,Karnataka,Bengaluru,"Peenya, Bengaluru - CPCB",15-04-2024 08:00:00,13.0270199,77.494094,PM10,28,48,36
India,Karnataka,Bengaluru,"Peenya, Bengaluru - CPCB",15-04-2024 08:00:00,13.0270199,77.494094,SO2,10,15,12
India,Karnataka,Bengaluru,"RVCE-Mailasandra, Bengaluru - KSPCB",15-04-2024 08:00:00,12.921418,77.502466,PM2.5,54,106,81
India,Karnataka,Bengaluru,"RVCE-Mailasandra, Bengaluru - KSPCB",15-04-2024 08:00:00,12.921418,77.502466,NO2,17,17,17
India,Karnataka,Bengaluru,"RVCE-Mailasandra, Bengaluru - KSPCB",15-04-2024 08:00:00,12.921418,77.502466,OZONE,39,39,39
India,Karnataka,Bengaluru,"Sanegurava Halli, Bengaluru - KSPCB",15-04-2024 08:00:00,12.990328,77.5431385,NO2,22,31,26
India,Karnataka,Bengaluru,"Shivapura_Peenya, Bengaluru - KSPCB",15-04-2024 08:00:00,13.0246342,77.5080115,PM10,41,65,53
India,Karnataka,Bengaluru,"Shivapura_Peenya, Bengaluru - KSPCB",15-04-2024 08:00:00,13.0246342,77.5080115,NO2,15,16,15
India,Karnataka,Bengaluru,"Shivapura_Peenya, Bengaluru - KSPCB",15-04-2024 08:00:00,13.0246342,77.5080115,NH3,4,4,4
India,Karnataka,Bidar,"Naubad, Bidar - KSPCB",15-04-2024 08:00:00,17.930306,77.482194,PM2.5,47,77,58
India,Karnataka,Chamarajanagar,"Urban, Chamarajanagar - KSPCB",15-04-2024 08:00:00,11.55358,76.55521,PM2.5,20,46,32
India,Karnataka,Chikkaballapur,"Chikkaballapur Rural, Chikkaballapur - KSPCB",15-04-2024 08:00:00,13.428828,77.731418,NO2,6,12,8
India,Karnataka,Chikkamagaluru,"Kalyana Nagara, Chikkamagaluru - KSPCB",15-04-2024 08:00:00,13.328028,75.797056,NO2,18,32,21
India,Karnataka,Chikkamagaluru,"Kalyana Nagara, Chikkamagaluru - KSPCB",15-04-2024 08:00:00,13.328028,75.797056,CO,11,105,40
India,Karnataka,Dharwad,"Kalabhavan, Dharwad - KSPCB",15-04-2024 08:00:00,15.459706,75.008381,PM2.5,NA,NA,NA
India,Karnataka,Dharwad,"Kalabhavan, Dharwad - KSPCB",15-04-2024 08:00:00,15.459706,75.008381,NO2,NA,NA,NA
India,Karnataka,Dharwad,"Kalabhavan, Dharwad - KSPCB",15-04-2024 08:00:00,15.459706,75.008381,NH3,NA,NA,NA
India,Karnataka,Gadag,"Panchal Nagar, Gadag - KSPCB",15-04-2024 08:00:00,15.411456,75.638133,NH3,1,3,2
India,Karnataka,Hassan,"B.Katihalli, Hassan - KSPCB",15-04-2024 08:00:00,13.008556,76.125258,CO,10,18,15
India,Karnataka,Haveri,"Ashwini Nagar, Haveri - KSPCB",15-04-2024 08:00:00,14.791800,75.389600,NH3,3,4,3
India,Karnataka,Haveri,"Ashwini Nagar, Haveri - KSPCB",15-04-2024 08:00:00,14.791800,75.389600,CO,37,38,38
India,Karnataka,Haveri,"Ashwini Nagar, Haveri - KSPCB",15-04-2024 08:00:00,14.791800,75.389600,OZONE,18,21,19
India,Karnataka,Kalaburagi,"Mahatma Basaveswar Colony, Kalaburgi - KSPCB",15-04-2024 08:00:00,17.336318,76.847397,PM2.5,26,53,37
India,Karnataka,Kalaburagi,"Mahatma Basaveswar Colony, Kalaburgi - KSPCB",15-04-2024 08:00:00,17.336318,76.847397,NH3,2,4,3
India,Karnataka,Karwar,"KHB Colony, Karwar - KSPCB",15-04-2024 08:00:00,14.816666,74.141003,PM10,36,71,51
India,Karnataka,Karwar,"KHB Colony, Karwar - KSPCB",15-04-2024 08:00:00,14.816666,74.141003,CO,7,8,8
India,Karnataka,Karwar,"KHB Colony, Karwar - KSPCB",15-04-2024 08:00:00,14.816666,74.141003,OZONE,21,22,22
India,Karnataka,Kolar,"Tamaka Ind. Area, Kolar - KSPCB",15-04-2024 08:00:00,13.1276288,78.1570122,SO2,NA,NA,NA
India,Karnataka,Madikeri,"Stuart Hill, Madikeri - KSPCB",15-04-2024 08:00:00,12.415911,75.735050,CO,6,80,37
India,Karnataka,Mangalore,"Kadri, Mangalore - KSPCB",15-04-2024 08:00:00,12.889250,74.853000,PM2.5,NA,NA,NA
India,Karnataka,Mysuru,"Hebbal 1st Stage, Mysuru - KSPCB",15-04-2024 08:00:00,12.21041,76.37376,PM10,30,93,61
India,Karnataka,Ramanagara,"Vijay Nagar, Ramanagara - KSPCB",15-04-2024 08:00:00,12.733409,77.298051,NH3,1,2,1
India,Karnataka,Ramanagara,"Vijay Nagar, Ramanagara - KSPCB",15-04-2024 08:00:00,12.733409,77.298051,CO,4,22,13
India,Karnataka,Tumakuru,"Thimmalapura, Tumakuru - KSPCB",15-04-2024 08:00:00,13.377516,77.099072,SO2,NA,NA,NA
India,Karnataka,Tumakuru,"Thimmalapura, Tumakuru - KSPCB",15-04-2024 08:00:00,13.377516,77.099072,OZONE,16,51,20
India,Karnataka,Vijayapura,"Ibrahimpur, Vijayapura - KSPCB",15-04-2024 08:00:00,16.802639,75.722694,NH3,2,2,2
India,Karnataka,Vijayapura,"Ibrahimpur, Vijayapura - KSPCB",15-04-2024 08:00:00,16.802639,75.722694,SO2,1,26,8
India,Karnataka,Yadgir,"Collector Office, Yadgir - KSPCB",15-04-2024 08:00:00,16.7602,77.1428,PM2.5,40,54,47
India,Kerala,Kollam,"Polayathode, Kollam - Kerala PCB",15-04-2024 08:00:00,8.8787,76.6073,NO2,7,9,8
India,Kerala,Kollam,"Polayathode, Kollam - Kerala PCB",15-04-2024 08:00:00,8.8787,76.6073,SO2,1,5,2
India,Kerala,Thiruvananthapuram,"Kariavattom, Thiruvananthapuram - Kerala PCB",15-04-2024 08:00:00,8.563700,76.886500,NH3,1,1,1
India,Kerala,Thiruvananthapuram,"Plammoodu, Thiruvananthapuram - Kerala PCB",15-04-2024 08:00:00,8.5149093,76.9435879,PM10,18,62,36
