country,state,city,station,last_update,latitude,longitude,pollutant_id,pollutant_min,pollutant_max,pollutant_avg
India,Andhra_Pradesh,Amaravati,"Secretariat, Amaravati - APPCB",20-01-2024 22:00:00,16.5150833,80.5181667,PM10,29,54,39
India,Andhra_Pradesh,Amaravati,"Secretariat, Amaravati - APPCB",20-01-2024 22:00:00,16.5150833,80.5181667,OZONE,1,38,28
India,Andhra_Pradesh,Chittoor,"Gangineni Cheruvu, Chittoor - APPCB",20-01-2024 22:00:00,13.204880,79.097889,NO2,6,33,15
India,Andhra_Pradesh,Chittoor,"Gangineni Cheruvu, Chittoor - APPCB",20-01-2024 22:00:00,13.204880,79.097889,CO,8,32,14
India,Andhra_Pradesh,Kadapa,"Yerramukkapalli, Kadapa - APPCB",20-01-2024 22:00:00,14.465052,78.824187,PM10,18,77,37
India,Andhra_Pradesh,Kadapa,"Yerramukkapalli, Kadapa - APPCB",20-01-2024 22:00:00,14.465052,78.824187,OZONE,17,51,44
India,Andhra_Pradesh,Tirupati,"Vaikuntapuram, Tirupati - APPCB",20-01-2024 22:00:00,13.615387,79.409230,PM2.5,20,80,35
India,Andhra_Pradesh,Tirupati,"Vaikuntapuram, Tirupati - APPCB",20-01-2024 22:00:00,13.615387,79.409230,CO,10,15,13
India,Andhra_Pradesh,Tirupati,"Vaikuntapuram, Tirupati - APPCB",20-01-2024 22:00:00,13.615387,79.409230,OZONE,1,39,26
India,Andhra_Pradesh,Visakhapatnam,"GVM Corporation, Visakhapatnam - APPCB",20-01-2024 22:00:00,17.72,83.3,NO2,15,53,36
India,Arunachal_Pradesh,Naharlagun,"Naharlagun, Naharlagun - APSPCB",20-01-2024 22:00:00,27.103358,93.679645,PM10,NA,NA,NA
India,Assam,Byrnihat,"Central Academy for SFS, Byrnihat - PCBA",20-01-2024 22:00:00,26.071318,91.87488,PM2.5,43,424,268
India,Assam,Guwahati,"IITG, Guwahati - PCBA",20-01-2024 22:00:00,26.2028636,91.70046436,OZONE,2,18,12
India,Assam,Guwahati,"LGBI Airport, Guwahati - PCBA",20-01-2024 22:00:00,26.10887,91.589544,PM10,103,413,177
India,Assam,Guwahati,"LGBI Airport, Guwahati - PCBA",20-01-2024 22:00:00,26.10887,91.589544,NO2,13,66,33
India,Assam,Guwahati,"LGBI Airport, Guwahati - PCBA",20-01-2024 22:00:00,26.10887,91.589544,NH3,1,7,3
India,Assam,Guwahati,"LGBI Airport, Guwahati - PCBA",20-01-2024 22:00:00,26.10887,91.589544,SO2,12,17,15
India,Assam,Guwahati,"Pan Bazaar, Guwahati - PCBA",20-01-2024 22:00:00,26.187500,91.744194,NO2,NA,NA,NA
India,Assam,Guwahati,"Pan Bazaar, Guwahati - PCBA",20-01-2024 22:00:00,26.187500,91.744194,SO2,57,101,72
India,Assam,Guwahati,"Pan Bazaar, Guwahati - PCBA",20-01-2024 22:00:00,26.187500,91.744194,OZONE,17,17,17
India,Assam,Guwahati,"Railway Colony, Guwahati - PCBA",20-01-2024 22:00:00,26.181742,91.78063,NO2,3,4,3
India,Assam,Guwahati,"Railway Colony, Guwahati - PCBA",20-01-2024 22:00:00,26.181742,91.78063,OZONE,10,37,22
India,Assam,Nagaon,"Christianpatty, Nagaon - PCBA",20-01-2024 22:00:00,26.349082,92.68449,NO2,15,34,22
India,Assam,Nagaon,"Christianpatty, Nagaon - PCBA",20-01-2024 22:00:00,26.349082,92.68449,NH3,1,5,4
India,Assam,Nagaon,"Christianpatty, Nagaon - PCBA",20-01-2024 22:00:00,26.349082,92.68449,SO2,12,23,14
India,Assam,Nalbari,"Bata Chowk, Nalbari - PCBA",20-01-2024 22:00:00,26.446912,91.439057,PM2.5,35,462,210
India,Assam,Silchar,"Tarapur, Silchar - PCBA",20-01-2024 22:00:00,24.82827,92.79525,OZONE,2,8,3
India,Assam,Sivasagar,"Girls College, Sivasagar - PCBA",20-01-2024 22:00:00,26.987634,94.636574,OZONE,1,50,15
India,Bihar,Arrah,"New DM Office, Arrah - BSPCB",20-01-2024 22:00:00,25.5626095,84.663264,PM10,124,282,168
India,Bihar,Aurangabad,"Gurdeo Nagar, Aurangabad - BSPCB",20-01-2024 22:00:00,24.75746,84.366208,PM2.5,103,297,207
India,Bihar,Aurangabad,"Gurdeo Nagar, Aurangabad - BSPCB",20-01-2024 22:00:00,24.75746,84.366208,PM10,97,157,128
India,Bihar,Aurangabad,"Gurdeo Nagar, Aurangabad - BSPCB",20-01-2024 22:00:00,24.75746,84.366208,SO2,9,15,12
India,Bihar,Bettiah,"Kamalnath Nagar, Bettiah - BSPCB",20-01-2024 22:00:00,26.80365,84.51954,SO2,NA,NA,NA
India,Bihar,Bettiah,"Kamalnath Nagar, Bettiah - BSPCB",20-01-2024 22:00:00,26.80365,84.51954,CO,7,150,107
India,Bihar,Bhagalpur,"DM Office_Kachari Chowk, Bhagalpur - BSPCB",20-01-2024 22:00:00,25.251013,86.989001,NO2,20,106,43
India,Bihar,Bhagalpur,"Mayaganj, Bhagalpur - BSPCB",20-01-2024 22:00:00,25.265194,87.012947,PM10,110,288,175
India,Bihar,Bhagalpur,"Mayaganj, Bhagalpur - BSPCB",20-01-2024 22:00:00,25.265194,87.012947,CO,8,11,8
India,Bihar,Bihar Sharif,"D M Colony, Bihar Sharif - BSPCB",20-01-2024 22:00:00,25.204762,85.514960,SO2,2,10,6
India,Bihar,Bihar Sharif,"D M Colony, Bihar Sharif - BSPCB",20-01-2024 22:00:00,25.204762,85.514960,CO,9,42,22
India,Bihar,Chhapra,"Darshan Nagar, Chhapra - BSPCB",20-01-2024 22:00:00,25.7808257,84.7446768,PM10,130,306,179
India,Bihar,Chhapra,"Darshan Nagar, Chhapra - BSPCB",20-01-2024 22:00:00,25.7808257,84.7446768,CO,22,46,38
India,Bihar,Gaya,"Collectorate, Gaya - BSPCB",20-01-2024 22:00:00,24.7955,84.9994,NO2,17,22,19
India,Bihar,Gaya,"Collectorate, Gaya - BSPCB",20-01-2024 22:00:00,24.7955,84.9994,SO2,17,23,20
India,Bihar,Gaya,"Kareemganj, Gaya - BSPCB",20-01-2024 22:00:00,24.792403,84.992416,PM10,123,205,158
India,Bihar,Gaya,"SFTI Kusdihra, Gaya - BSPCB",20-01-2024 22:00:00,24.762518,84.982348,SO2,7,11,9
India,Bihar,Kishanganj,"SDM Office_Khagra, Kishanganj - BSPCB",20-01-2024 22:00:00,26.0881305,87.93840336,PM2.5,10,223,55
India,Bihar,Kishanganj,"SDM Office_Khagra, Kishanganj - BSPCB",20-01-2024 22:00:00,26.0881305,87.93840336,PM10,128,416,234
India,Bihar,Kishanganj,"SDM Office_Khagra, Kishanganj - BSPCB",20-01-2024 22:00:00,26.0881305,87.93840336,NO2,28,35,30
India,Bihar,Motihari,"Gandak Colony, Motihari - BSPCB",20-01-2024 22:00:00,26.63086,84.90051,NH3,7,14,11
India,Bihar,Motihari,"Gandak Colony, Motihari - BSPCB",20-01-2024 22:00:00,26.63086,84.90051,SO2,1,11,4
India,Bihar,Muzaffarpur,"Buddha Colony, Muzaffarpur - BSPCB",20-01-2024 22:00:00,26.11442,85.39813,NH3,15,25,20
India,Bihar,Muzaffarpur,"Buddha Colony, Muzaffarpur - BSPCB",20-01-2024 22:00:00,26.11442,85.39813,OZONE,5,83,62
India,Bihar,Muzaffarpur,"MIT-Daudpur Kothi, Muzaffarpur - BSPCB",20-01-2024 22:00:00,26.1403345,85.3650192,SO2,10,21,11
India,Bihar,Muzaffarpur,"Muzaffarpur Collectorate, Muzaffarpur - BSPCB",20-01-2024 22:00:00,26.1209,85.3647,OZONE,19,84,53
India,Bihar,Patna,"DRM Office Danapur, Patna - BSPCB",20-01-2024 22:00:00,25.586562,85.043586,NO2,13,68,32
India,Bihar,Patna,"Govt. High School Shikarpur, Patna - BSPCB",20-01-2024 22:00:00,25.592539,85.227158,NH3,3,5,4
India,Bihar,Patna,"IGSC Planetarium Complex, Patna - BSPCB",20-01-2024 22:00:00,25.610369,85.132568,PM2.5,86,319,175
India,Bihar,Patna,"IGSC Planetarium Complex, Patna - BSPCB",20-01-2024 22:00:00,25.610369,85.132568,SO2,6,71,16
India,Bihar,Patna,"IGSC Planetarium Complex, Patna - BSPCB",20-01-2024 22:00:00,25.610369,85.132568,OZONE,13,15,14
India,Bihar,Patna,"Rajbansi Nagar, Patna - BSPCB",20-01-2024 22:00:00,25.599486,85.113666,CO,34,94,53
India,Bihar,Patna,"Samanpura, Patna - BSPCB",20-01-2024 22:00:00,25.596727,85.085624,PM2.5,217,415,321
India,Bihar,Patna,"Samanpura, Patna - BSPCB",20-01-2024 22:00:00,25.596727,85.085624,NO2,14,22,16
India,Bihar,Patna,"Samanpura, Patna - BSPCB",20-01-2024 22:00:00,25.596727,85.085624,OZONE,9,65,42
India,Bihar,Purnia,"Mariam Nagar, Purnia - BSPCB",20-01-2024 22:00:00,25.366336,87.117468,NO2,11,15,13
India,Bihar,Purnia,"Mariam Nagar, Purnia - BSPCB",20-01-2024 22:00:00,25.366336,87.117468,CO,49,106,77
India,Bihar,Sasaram,"Dada Peer, Sasaram - BSPCB",20-01-2024 22:00:00,24.952822,84.002396,CO,25,49,42
India,Bihar,Siwan,"Chitragupta Nagar, Siwan - BSPCB",20-01-2024 22:00:00,26.2271665,84.3570427,PM10,77,167,104
India,Bihar,Siwan,"Chitragupta Nagar, Siwan - BSPCB",20-01-2024 22:00:00,26.2271665,84.3570427,SO2,21,35,30
India,Chandigarh,Chandigarh,"Sector 22, Chandigarh - CPCC",20-01-2024 22:00:00,30.735567,76.775714,SO2,8,52,18
India,Chandigarh,Chandigarh,"Sector-25, Chandigarh - CPCC",20-01-2024 22:00:00,30.751462,76.762879,OZONE,1,21,10
India,Chandigarh,Chandigarh,"Sector-53, Chandigarh - CPCC",20-01-2024 22:00:00,30.719859,76.738637,NH3,8,9,8
India,Chandigarh,Chandigarh,"Sector-53, Chandigarh - CPCC",20-01-2024 22:00:00,30.719859,76.738637,CO,70,112,96
India,Chhattisgarh,Bhilai,"32Bungalows, Bhilai - CECB",20-01-2024 22:00:00,21.194815,81.314770,NO2,20,31,25
India,Chhattisgarh,Bhilai,"32Bungalows, Bhilai - CECB",20-01-2024 22:00:00,21.194815,81.314770,SO2,9,12,10
India,Chhattisgarh,Bhilai,"Hathkhoj, Bhilai - CECB",20-01-2024 22:00:00,21.224231,81.408350,PM2.5,86,165,130
India,Chhattisgarh,Bhilai,"Hathkhoj, Bhilai - CECB",20-01-2024 22:00:00,21.224231,81.408350,OZONE,11,27,25
India,Chhattisgarh,Bilaspur,"Mangala, Bilaspur - NTPC",20-01-2024 22:00:00,22.08815,82.13737,PM10,42,126,80
India,Chhattisgarh,Korba,"Rampur, Korba - CECB",20-01-2024 22:00:00,22.368195,82.746431,NH3,5,5,5
India,Chhattisgarh,Korba,"Rampur, Korba - CECB",20-01-2024 22:00:00,22.368195,82.746431,SO2,8,13,11
India,Chhattisgarh,Korba,"Urja Nagar, Korba - CECB",20-01-2024 22:00:00,22.348441,82.549611,PM2.5,NA,NA,NA
India,Chhattisgarh,Kunjemura,"OP Jindal School, Kunjemura - CECB",20-01-2024 22:00:00,22.126650,83.483212,NO2,24,71,42
India,Chhattisgarh,Milupara,"Govt. Higher Secondary School, Milupara - CECB",20-01-2024 22:00:00,22.1910172,83.5197009,NH3,1,2,2
India,Chhattisgarh,Raipur,"AIIMS, Raipur - CECB",20-01-2024 22:00:00,21.258815,81.578979,PM2.5,82,158,115
India,Chhattisgarh,Raipur,"Bhatagaon New ISBT, Raipur - CECB",20-01-2024 22:00:00,21.219665,81.630094,NH3,2,3,3
India,Chhattisgarh,Raipur,"Krishak Nagar, Raipur - CECB",20-01-2024 22:00:00,21.237755,81.705301,PM2.5,70,91,81
India,Chhattisgarh,Raipur,"Krishak Nagar, Raipur - CECB",20-01-2024 22:00:00,21.237755,81.705301,SO2,9,13,10
India,Chhattisgarh,Raipur,"Siltara Phase-II, Raipur - CECB",20-01-2024 22:00:00,21.371751,81.664929,PM2.5,40,54,46
India,Chhattisgarh,Raipur,"Siltara Phase-II, Raipur - CECB",20-01-2024 22:00:00,21.371751,81.664929,OZONE,NA,NA,NA
India,Chhattisgarh,Tumidih,"OP Jindal Industrial Park, Tumidih - CECB",20-01-2024 22:00:00,22.06631475,83.33820077,OZONE,4,34,24
India,Delhi,Delhi,"Alipur, Delhi - DPCC",20-01-2024 22:00:00,28.815329,77.153010,CO,44,90,66
India,Delhi,Delhi,"Ashok Vihar, Delhi - DPCC",20-01-2024 22:00:00,28.695381,77.181665,NO2,NA,NA,NA
India,Delhi,Delhi,"Ashok Vihar, Delhi - DPCC",20-01-2024 22:00:00,28.695381,77.181665,OZONE,4,27,13
India,Delhi,Delhi,"Bawana, Delhi - DPCC",20-01-2024 22:00:00,28.776200,77.051074,NH3,7,10,8
India,Delhi,Delhi,"Bawana, Delhi - DPCC",20-01-2024 22:00:00,28.776200,77.051074,SO2,5,9,6
India,Delhi,Delhi,"Bawana, Delhi - DPCC",20-01-2024 22:00:00,28.776200,77.051074,OZONE,3,71,40
India,Delhi,Delhi,"Burari Crossing, Delhi - IMD",20-01-2024 22:00:00,28.7256504,77.2011573,CO,102,107,104
India,Delhi,Delhi,"CRRI Mathura Road, Delhi - IMD",20-01-2024 22:00:00,28.5512005,77.2735737,NO2,16,413,49
India,Delhi,Delhi,"CRRI Mathura Road, Delhi - IMD",20-01-2024 22:00:00,28.5512005,77.2735737,CO,49,98,69
India,Delhi,Delhi,"DTU, Delhi - CPCB",20-01-2024 22:00:00,28.7500499,77.1112615,PM2.5,77,305,163
India,Delhi,Delhi,"DTU, Delhi - CPCB",20-01-2024 22:00:00,28.7500499,77.1112615,NO2,35,70,51
India,Delhi,Delhi,"DTU, Delhi - CPCB",20-01-2024 22:00:00,28.7500499,77.1112615,NH3,14,23,17
India,Delhi,Delhi,"Dr. Karni Singh Shooting Range, Delhi - DPCC",20-01-2024 22:00:00,28.498571,77.264840,NH3,7,12,8
India,Delhi,Delhi,"Dwarka-Sector 8, Delhi - DPCC ",20-01-2024 22:00:00,28.5710274,77.0719006,NO2,2,37,12
India,Delhi,Delhi,"Dwarka-Sector 8, Delhi - DPCC ",20-01-2024 22:00:00,28.5710274,77.0719006,SO2,6,9,7
India,Delhi,Delhi,"IHBAS, Dilshad Garden, Delhi - CPCB",20-01-2024 22:00:00,28.6811736,77.3025234,NO2,18,54,31
India,Delhi,Delhi,"IHBAS, Dilshad Garden, Delhi - CPCB",20-01-2024 22:00:00,28.6811736,77.3025234,OZONE,13,52,35
India,Delhi,Delhi,"Jahangirpuri, Delhi - DPCC",20-01-2024 22:00:00,28.732820,77.170633,NO2,37,85,52
India,Delhi,Delhi,"Jahangirpuri, Delhi - DPCC",20-01-2024 22:00:00,28.732820,77.170633,CO,38,102,74
India,Delhi,Delhi,"Jawaharlal Nehru Stadium, Delhi - DPCC",20-01-2024 22:00:00,28.580280,77.233829,PM2.5,300,407,336
India,Delhi,Delhi,"Lodhi Road, Delhi - IITM",20-01-2024 22:00:00,28.588333,77.221667,SO2,NA,NA,NA
India,Delhi,Delhi,"Lodhi Road, Delhi - IMD",20-01-2024 22:00:00,28.5918245,77.2273074,CO,78,107,95
India,Delhi,Delhi,"Major Dhyan Chand National Stadium, Delhi - DPCC",20-01-2024 22:00:00,28.611281,77.237738,NH3,11,14,12
India,Delhi,Delhi,"Major Dhyan Chand National Stadium, Delhi - DPCC",20-01-2024 22:00:00,28.611281,77.237738,OZONE,3,3,3
India,Delhi,Delhi,"Mundka, Delhi - DPCC",20-01-2024 22:00:00,28.684678,77.076574,NO2,44,100,70
India,Delhi,Delhi,"Mundka, Delhi - DPCC",20-01-2024 22:00:00,28.684678,77.076574,OZONE,1,15,10
India,Delhi,Delhi,"Najafgarh, Delhi - DPCC",20-01-2024 22:00:00,28.570173,76.933762,PM2.5,290,361,325
India,Delhi,Delhi,"Narela, Delhi - DPCC",20-01-2024 22:00:00,28.822836,77.101981,NO2,35,111,60
India,Delhi,Delhi,"Narela, Delhi - DPCC",20-01-2024 22:00:00,28.822836,77.101981,NH3,9,14,11
India,Delhi,Delhi,"Narela, Delhi - DPCC",20-01-2024 22:00:00,28.822836,77.101981,SO2,6,16,10
India,Delhi,Delhi,"Nehru Nagar, Delhi - DPCC",20-01-2024 22:00:00,28.567890,77.250515,CO,27,120,69
India,Delhi,Delhi,"Nehru Nagar, Delhi - DPCC",20-01-2024 22:00:00,28.567890,77.250515,OZONE,2,93,44
India,Delhi,Delhi,"Okhla Phase-2, Delhi - DPCC",20-01-2024 22:00:00,28.530785,77.271255,PM2.5,306,477,355
India,Delhi,Delhi,"Patparganj, Delhi - DPCC",20-01-2024 22:00:00,28.623763,77.287209,PM2.5,293,416,337
India,Delhi,Delhi,"Patparganj, Delhi - DPCC",20-01-2024 22:00:00,28.623763,77.287209,PM10,144,413,229
India,Delhi,Delhi,"Pusa, Delhi - DPCC",20-01-2024 22:00:00,28.639652,77.146275,PM10,166,439,253
India,Delhi,Delhi,"Pusa, Delhi - DPCC",20-01-2024 22:00:00,28.639652,77.146275,OZONE,18,81,50
India,Delhi,Delhi,"Sirifort, Delhi - CPCB",20-01-2024 22:00:00,28.5504249,77.2159377,NH3,6,14,8
India,Delhi,Delhi,"Sirifort, Delhi - CPCB",20-01-2024 22:00:00,28.5504249,77.2159377,OZONE,11,32,26
India,Delhi,Delhi,"Sri Aurobindo Marg, Delhi - DPCC",20-01-2024 22:00:00,28.531346,77.190156,PM2.5,318,417,357
India,Delhi,Delhi,"Sri Aurobindo Marg, Delhi - DPCC",20-01-2024 22:00:00,28.531346,77.190156,PM10,169,390,250
India,Delhi,Delhi,"Vivek Vihar, Delhi - DPCC",20-01-2024 22:00:00,28.672342,77.315260,CO,26,118,88
India,Delhi,Delhi,"Vivek Vihar, Delhi - DPCC",20-01-2024 22:00:00,28.672342,77.315260,OZONE,2,23,12
India,Delhi,Delhi,"Wazirpur, Delhi - DPCC",20-01-2024 22:00:00,28.699793,77.165453,SO2,12,38,22
India,Delhi,Delhi,"Wazirpur, Delhi - DPCC",20-01-2024 22:00:00,28.699793,77.165453,OZONE,4,97,48
India,Gujarat,Ahmedabad,"Chandkheda, Ahmedabad - IITM",20-01-2024 22:00:00,23.107969,72.574648,PM2.5,48,160,96
India,Gujarat,Ahmedabad,"Chandkheda, Ahmedabad - IITM",20-01-2024 22:00:00,23.107969,72.574648,NO2,17,23,19
India,Gujarat,Ahmedabad,"Chandkheda, Ahmedabad - IITM",20-01-2024 22:00:00,23.107969,72.574648,SO2,4,8,5
India,Gujarat,Ahmedabad,"Gyaspur, Ahmedabad - IITM",20-01-2024 22:00:00,22.977134,72.553024,PM2.5,64,152,98
India,Gujarat,Ahmedabad,"Maninagar, Ahmedabad - GPCB",20-01-2024 22:00:00,23.002657,72.591912,CO,10,46,28
India,Gujarat,Ahmedabad,"Raikhad, Ahmedabad - IITM",20-01-2024 22:00:00,23.020509,72.579261,NO2,16,17,17
India,Gujarat,Ahmedabad,"Raikhad, Ahmedabad - IITM",20-01-2024 22:00:00,23.020509,72.579261,CO,18,103,37
India,Gujarat,Ahmedabad,"Rakhial, Ahmedabad - IITM",20-01-2024 22:00:00,23.016834,72.625775,CO,19,102,60
India,Gujarat,Ahmedabad,"SAC ISRO Bopal, Ahmedabad - IITM",20-01-2024 22:00:00,23.041137,72.456691,PM10,54,151,85
India,Gujarat,Ahmedabad,"SAC ISRO Bopal, Ahmedabad - IITM",20-01-2024 22:00:00,23.041137,72.456691,OZONE,9,19,11
India,Gujarat,Ahmedabad,"SAC ISRO Satellite, Ahmedabad - IITM",20-01-2024 22:00:00,23.023389,72.515201,SO2,4,25,7
India,Gujarat,Ahmedabad,"SAC ISRO Satellite, Ahmedabad - IITM",20-01-2024 22:00:00,23.023389,72.515201,OZONE,4,12,8
India,Gujarat,Ahmedabad,"SVPI Airport Hansol, Ahmedabad - IITM",20-01-2024 22:00:00,23.076793,72.627874,NO2,14,15,14
India,Gujarat,Ahmedabad,"Sardar Vallabhbhai Patel Stadium, Ahmedabad - IITM",20-01-2024 22:00:00,23.043070,72.562968,CO,1,44,21
India,Gujarat,Ankleshwar,"GIDC, Ankleshwar - GPCB",20-01-2024 22:00:00,21.613267,73.010555,PM2.5,61,132,99
India,Gujarat,Ankleshwar,"GIDC, Ankleshwar - GPCB",20-01-2024 22:00:00,21.613267,73.010555,OZONE,21,29,27
India,Gujarat,Gandhinagar,"GIFT City, Gandhinagar - IITM",20-01-2024 22:00:00,23.163798,72.677768,NH3,2,3,2
India,Gujarat,Gandhinagar,"GIFT City, Gandhinagar - IITM",20-01-2024 22:00:00,23.163798,72.677768,CO,2,18,10
India,Gujarat,Gandhinagar,"IIPHG Lekawada, Gandhinagar - IITM",20-01-2024 22:00:00,23.243639,72.68994,NO2,13,15,14
India,Gujarat,Gandhinagar,"Sector-10, Gandhinagar - GPCB",20-01-2024 22:00:00,23.221714,72.654328,PM10,NA,NA,NA
India,Gujarat,Gandhinagar,"Sector-10, Gandhinagar - GPCB",20-01-2024 22:00:00,23.221714,72.654328,NH3,NA,NA,NA
India,Gujarat,Vapi,"Phase-1 GIDC, Vapi - GPCB",20-01-2024 22:00:00,20.362421,72.918013,PM2.5,78,411,189
India,Gujarat,Vatva,"Phase-4 GIDC, Vatva - GPCB",20-01-2024 22:00:00,22.969611,72.643500,PM10,49,116,77
India,Gujarat,Vatva,"Phase-4 GIDC, Vatva - GPCB",20-01-2024 22:00:00,22.969611,72.643500,NH3,1,2,2
India,Gujarat,Vatva,"Phase-4 GIDC, Vatva - GPCB",20-01-2024 22:00:00,22.969611,72.643500,OZONE,6,24,16
India,Haryana,Bahadurgarh,"Arya Nagar, Bahadurgarh - HSPCB",20-01-2024 22:00:00,28.6701,76.9254,PM2.5,226,325,288
India,Haryana,Bahadurgarh,"Arya Nagar, Bahadurgarh - HSPCB",20-01-2024 22:00:00,28.6701,76.9254,NO2,34,38,36
India,Haryana,Bahadurgarh,"Arya Nagar, Bahadurgarh - HSPCB",20-01-2024 22:00:00,28.6701,76.9254,NH3,10,13,11
India,Haryana,Ballabgarh,"Nathu Colony, Ballabgarh - HSPCB",20-01-2024 22:00:00,28.3419248,77.319699,NO2,12,15,12
India,Haryana,Ballabgarh,"Nathu Colony, Ballabgarh - HSPCB",20-01-2024 22:00:00,28.3419248,77.319699,SO2,7,81,16
India,Haryana,Bhiwani,"H.B. Colony, Bhiwani - HSPCB",20-01-2024 22:00:00,28.806223,76.141105,NH3,5,6,6
India,Haryana,Bhiwani,"H.B. Colony, Bhiwani - HSPCB",20-01-2024 22:00:00,28.806223,76.141105,SO2,4,12,9
India,Haryana,Bhiwani,"H.B. Colony, Bhiwani - HSPCB",20-01-2024 22:00:00,28.806223,76.141105,CO,11,72,30
India,Haryana,Dharuhera,"Municipal Corporation Office, Dharuhera -  HSPCB",20-01-2024 22:00:00,28.206800,76.799700,NO2,44,111,69
India,Haryana,Faridabad,"New Industrial Town, Faridabad - HSPCB",20-01-2024 22:00:00,28.39072,77.30059,NH3,NA,NA,NA
India,Haryana,Faridabad,"Sector 11, Faridabad - HSPCB",20-01-2024 22:00:00,28.376058,77.315741,NO2,29,33,31
India,Haryana,Faridabad,"Sector- 16A, Faridabad - HSPCB",20-01-2024 22:00:00,28.4088421,77.3099081,CO,14,95,71
India,Haryana,Fatehabad,"Huda Sector, Fatehabad - HSPCB",20-01-2024 22:00:00,29.503664,75.467934,CO,6,24,8
India,Haryana,Gurugram,"NISE Gwal Pahari, Gurugram - IMD",20-01-2024 22:00:00,28.422681,77.148944,OZONE,13,20,17
India,Haryana,Gurugram,"Sector-51, Gurugram - HSPCB",20-01-2024 22:00:00,28.4227,77.0667,NO2,13,38,24
India,Haryana,Gurugram,"Sector-51, Gurugram - HSPCB",20-01-2024 22:00:00,28.4227,77.0667,SO2,2,4,3
India,Haryana,Gurugram,"Teri Gram, Gurugram - HSPCB",20-01-2024 22:00:00,28.4275,77.1465,CO,26,66,52
India,Haryana,Gurugram,"Vikas Sadan, Gurugram - HSPCB",20-01-2024 22:00:00,28.4501238,77.0263051,SO2,14,31,24
India,Haryana,Jind,"Police Lines, Jind - HSPCB",20-01-2024 22:00:00,29.307814,76.337619,NH3,2,4,4
India,Haryana,Jind,"Police Lines, Jind - HSPCB",20-01-2024 22:00:00,29.307814,76.337619,OZONE,1,13,8
India,Haryana,Kaithal,"Rishi Nagar, Kaithal - HSPCB",20-01-2024 22:00:00,29.8006,76.4155,PM10,124,283,165
India,Haryana,Kaithal,"Rishi Nagar, Kaithal - HSPCB",20-01-2024 22:00:00,29.8006,76.4155,NH3,8,8,8
India,Haryana,Kaithal,"Rishi Nagar, Kaithal - HSPCB",20-01-2024 22:00:00,29.8006,76.4155,SO2,9,113,32
India,Haryana,Kaithal,"Rishi Nagar, Kaithal - HSPCB",20-01-2024 22:00:00,29.8006,76.4155,CO,4,73,51
India,Haryana,Mandikhera,"General Hospital, Mandikhera - HSPCB",20-01-2024 22:00:00,27.9002,76.9938,NO2,16,22,19
India,Haryana,Manesar,"Sector-2 IMT, Manesar - HSPCB",20-01-2024 22:00:00,28.360699,76.936090,PM10,111,224,141
India,Haryana,Manesar,"Sector-2 IMT, Manesar - HSPCB",20-01-2024 22:00:00,28.360699,76.936090,NH3,4,9,6
India,Haryana,Manesar,"Sector-2 IMT, Manesar - HSPCB",20-01-2024 22:00:00,28.360699,76.936090,CO,19,78,42
India,Haryana,Narnaul,"Shastri Nagar, Narnaul - HSPCB",20-01-2024 22:00:00,28.060249,76.113115,PM10,77,114,90
India,Haryana,Panchkula,"Sector-6, Panchkula - HSPCB ",20-01-2024 22:00:00,30.7057778,76.8531805555555,NO2,28,31,30
India,Haryana,Panipat,"Sector-18, Panipat - HSPCB",20-01-2024 22:00:00,29.497973,76.993331,CO,2,28,25
India,Haryana,Sirsa,"F-Block, Sirsa - HSPCB",20-01-2024 22:00:00,29.536400,75.015800,CO,56,75,68
India,Haryana,Sonipat,"Murthal, Sonipat - HSPCB",20-01-2024 22:00:00,29.027200,77.062100,PM10,164,164,164
India,Haryana,Sonipat,"Murthal, Sonipat - HSPCB",20-01-2024 22:00:00,29.027200,77.062100,NH3,3,10,9
India,Haryana,Yamuna Nagar,"Gobind Pura, Yamuna Nagar - HSPCB",20-01-2024 22:00:00,30.1480566,77.2893471,PM2.5,91,446,172
India,Haryana,Yamuna Nagar,"Gobind Pura, Yamuna Nagar - HSPCB",20-01-2024 22:00:00,30.1480566,77.2893471,NO2,11,30,18
India,Haryana,Yamuna Nagar,"Gobind Pura, Yamuna Nagar - HSPCB",20-01-2024 22:00:00,30.1480566,77.2893471,NH3,1,6,4
India,Haryana,Yamuna Nagar,"Gobind Pura, Yamuna Nagar - HSPCB",20-01-2024 22:00:00,30.1480566,77.2893471,SO2,1,56,7
India,Himachal Pradesh,Baddi,"HIMUDA Complex Phase-1, Baddi - HPPCB",20-01-2024 22:00:00,30.943887,76.801991,SO2,47,117,89
India,Himachal Pradesh,Baddi,"HIMUDA Complex Phase-1, Baddi - HPPCB",20-01-2024 22:00:00,30.943887,76.801991,CO,56,102,78
India,Jharkhand,Dhanbad,"Kalakusuma, Dhanbad - DMC",20-01-2024 22:00:00,23.811548,86.481238,PM10,123,387,190
India,Jharkhand,Dhanbad,"Sardar Patel Nagar, Dhanbad - JSPCB",20-01-2024 22:00:00,23.80569,86.44268,PM10,NA,NA,NA
India,Jharkhand,Dhanbad,"Sardar Patel Nagar, Dhanbad - JSPCB",20-01-2024 22:00:00,23.80569,86.44268,NO2,NA,NA,NA
India,Jharkhand,Dhanbad,"Sardar Patel Nagar, Dhanbad - JSPCB",20-01-2024 22:00:00,23.80569,86.44268,CO,186,190,125
India,Jharkhand,Pathardih,"Mohalbani Ghat, Pathardih - DMC",20-01-2024 22:00:00,23.669880,86.411725,NO2,NA,NA,NA
India,Jharkhand,Pathardih,"Mohalbani Ghat, Pathardih - DMC",20-01-2024 22:00:00,23.669880,86.411725,CO,102,136,112
India,Jharkhand,Pathardih,"Mohalbani Ghat, Pathardih - DMC",20-01-2024 22:00:00,23.669880,86.411725,OZONE,20,49,32
India,Karnataka,Bagalkot,"Vidayagiri, Bagalkot - KSPCB",20-01-2024 22:00:00,16.172806,75.659694,PM10,50,51,51
India,Karnataka,Bengaluru,"BTM Layout, Bengaluru - CPCB",20-01-2024 22:00:00,12.9135218,77.5950804,PM10,49,84,74
India,Karnataka,Bengaluru,"Bapuji Nagar, Bengaluru - KSPCB",20-01-2024 22:00:00,12.951913,77.539784,NO2,10,11,11
India,Karnataka,Bengaluru,"Bapuji Nagar, Bengaluru - KSPCB",20-01-2024 22:00:00,12.951913,77.539784,OZONE,9,12,11
India,Karnataka,Bengaluru,"Hombegowda Nagar, Bengaluru - KSPCB",20-01-2024 22:00:00,12.938539,77.590100,NO2,35,44,38
India,Karnataka,Bengaluru,"Hombegowda Nagar, Bengaluru - KSPCB",20-01-2024 22:00:00,12.938539,77.590100,NH3,2,2,2
India,Karnataka,Bengaluru,"Hombegowda Nagar, Bengaluru - KSPCB",20-01-2024 22:00:00,12.938539,77.590100,CO,14,22,19
India,Karnataka,Bengaluru,"Jigani, Bengaluru - KSPCB",20-01-2024 22:00:00,12.7816279,77.6299145,NH3,3,3,3
India,Karnataka,Bengaluru,"Jigani, Bengaluru - KSPCB",20-01-2024 22:00:00,12.7816279,77.6299145,OZONE,14,82,58
India,Karnataka,Bengaluru,"Kasturi Nagar, Bengaluru - KSPCB",20-01-2024 22:00:00,13.003872,77.664217,PM2.5,41,157,105
India,Karnataka,Bengaluru,"Peenya, Bengaluru - CPCB",20-01-2024 22:00:00,13.0270199,77.494094,OZONE,35,38,37
India,Karnataka,Bengaluru,"RVCE-Mailasandra, Bengaluru - KSPCB",20-01-2024 22:00:00,12.921418,77.502466,PM2.5,59,138,82
India,Karnataka,Bengaluru,"RVCE-Mailasandra, Bengaluru - KSPCB",20-01-2024 22:00:00,12.921418,77.502466,PM10,111,177,133
India,Karnataka,Bengaluru,"Shivapura_Peenya, Bengaluru - KSPCB",20-01-2024 22:00:00,13.0246342,77.5080115,NH3,4,4,4
India,Karnataka,Bengaluru,"Shivapura_Peenya, Bengaluru - KSPCB",20-01-2024 22:00:00,13.0246342,77.5080115,OZONE,18,184,114
India,Karnataka,Bengaluru,"Silk Board, Bengaluru - KSPCB",20-01-2024 22:00:00,12.917348,77.622813,PM2.5,54,95,75
India,Karnataka,Bengaluru,"Silk Board, Bengaluru - KSPCB",20-01-2024 22:00:00,12.917348,77.622813,OZONE,27,31,30
India,Karnataka,Bidar,"Naubad, Bidar - KSPCB",20-01-2024 22:00:00,17.930306,77.482194,SO2,15,22,17
India,Karnataka,Chikkaballapur,"Chikkaballapur Rural, Chikkaballapur - KSPCB",20-01-2024 22:00:00,13.428828,77.731418,PM10,59,267,93
India,Karnataka,Chikkaballapur,"Chikkaballapur Rural, Chikkaballapur - KSPCB",20-01-2024 22:00:00,13.428828,77.731418,NO2,7,21,9
India,Karnataka,Chikkaballapur,"Chikkaballapur Rural, Chikkaballapur - KSPCB",20-01-2024 22:00:00,13.428828,77.731418,CO,8,14,10
India,Karnataka,Chikkamagaluru,"Kalyana Nagara, Chikkamagaluru - KSPCB",20-01-2024 22:00:00,13.328028,75.797056,CO,11,155,46
India,Karnataka,Chikkamagaluru,"Kalyana Nagara, Chikkamagaluru - KSPCB",20-01-2024 22:00:00,13.328028,75.797056,OZONE,15,79,57
India,Karnataka,Davanagere,"Devaraj Urs Badavane, Davanagere - KSPCB",20-01-2024 22:00:00,14.475800,75.905200,NH3,1,1,1
India,Karnataka,Davanagere,"Devaraj Urs Badavane, Davanagere - KSPCB",20-01-2024 22:00:00,14.475800,75.905200,OZONE,16,25,22
India,Karnataka,Dharwad,"Kalabhavan, Dharwad - KSPCB",20-01-2024 22:00:00,15.459706,75.008381,PM2.5,48,72,55
India,Karnataka,Dharwad,"Kalabhavan, Dharwad - KSPCB",20-01-2024 22:00:00,15.459706,75.008381,PM10,73,94,80
India,Karnataka,Dharwad,"Kalabhavan, Dharwad - KSPCB",20-01-2024 22:00:00,15.459706,75.008381,NO2,15,33,22
India,Karnataka,Dharwad,"Kalabhavan, Dharwad - KSPCB",20-01-2024 22:00:00,15.459706,75.008381,NH3,3,3,3
India,Karnataka,Dharwad,"Kalabhavan, Dharwad - KSPCB",20-01-2024 22:00:00,15.459706,75.008381,OZONE,2,49,28
India,Karnataka,Gadag,"Panchal Nagar, Gadag - KSPCB",20-01-2024 22:00:00,15.411456,75.638133,NH3,1,3,2
India,Karnataka,Gadag,"Panchal Nagar, Gadag - KSPCB",20-01-2024 22:00:00,15.411456,75.638133,CO,43,50,46
India,Karnataka,Haveri,"Ashwini Nagar, Haveri - KSPCB",20-01-2024 22:00:00,14.791800,75.389600,PM2.5,53,86,68
India,Karnataka,Haveri,"Ashwini Nagar, Haveri - KSPCB",20-01-2024 22:00:00,14.791800,75.389600,OZONE,18,20,19
India,Karnataka,Hubballi,"Deshpande Nagar, Hubballi - KSPCB",20-01-2024 22:00:00,15.351773,75.140726,PM2.5,62,172,108
India,Karnataka,Hubballi,"Deshpande Nagar, Hubballi - KSPCB",20-01-2024 22:00:00,15.351773,75.140726,NO2,19,28,25
India,Karnataka,Hubballi,"Lingaraj Nagar, Hubballi - KSPCB",20-01-2024 22:00:00,15.3714823,75.1160168,PM2.5,24,58,38
India,Karnataka,Hubballi,"Lingaraj Nagar, Hubballi - KSPCB",20-01-2024 22:00:00,15.3714823,75.1160168,NO2,16,16,16
India,Karnataka,Hubballi,"Lingaraj Nagar, Hubballi - KSPCB",20-01-2024 22:00:00,15.3714823,75.1160168,OZONE,2,45,37
India,Karnataka,Kalaburagi,"Lal Bahadur Shastri Nagar, Kalaburagi - KSPCB",20-01-2024 22:00:00,17.321993,76.822628,PM10,6,40,17
India,Karnataka,Kalaburagi,"Lal Bahadur Shastri Nagar, Kalaburagi - KSPCB",20-01-2024 22:00:00,17.321993,76.822628,NH3,2,3,2
India,Karnataka,Karwar,"KHB Colony, Karwar - KSPCB",20-01-2024 22:00:00,14.816666,74.141003,NO2,4,6,5
India,Karnataka,Karwar,"KHB Colony, Karwar - KSPCB",20-01-2024 22:00:00,14.816666,74.141003,SO2,18,18,18
India,Karnataka,Karwar,"KHB Colony, Karwar - KSPCB",20-01-2024 22:00:00,14.816666,74.141003,CO,1,2,1
India,Karnataka,Kolar,"Tamaka Ind. Area, Kolar - KSPCB",20-01-2024 22:00:00,13.1276288,78.1570122,SO2,13,15,13
India,Karnataka,Koppal,"Diwator Nagar, Koppal - KSPCB",20-01-2024 22:00:00,15.347630,76.181767,NO2,2,25,12
India,Karnataka,Koppal,"Diwator Nagar, Koppal - KSPCB",20-01-2024 22:00:00,15.347630,76.181767,NH3,3,8,5
India,Karnataka,Koppal,"Diwator Nagar, Koppal - KSPCB",20-01-2024 22:00:00,15.347630,76.181767,OZONE,21,52,41
India,Karnataka,Madikeri,"Stuart Hill, Madikeri - KSPCB",20-01-2024 22:00:00,12.415911,75.735050,NH3,1,1,1
India,Karnataka,Madikeri,"Stuart Hill, Madikeri - KSPCB",20-01-2024 22:00:00,12.415911,75.735050,SO2,4,4,4
India,Karnataka,Mangalore,"Kadri, Mangalore - KSPCB",20-01-2024 22:00:00,12.889250,74.853000,PM2.5,45,95,67
India,Karnataka,Mangalore,"Kadri, Mangalore - KSPCB",20-01-2024 22:00:00,12.889250,74.853000,SO2,17,22,21
India,Karnataka,Mysuru,"Hebbal 1st Stage, Mysuru - KSPCB",20-01-2024 22:00:00,12.21041,76.37376,PM10,50,73,59
India,Karnataka,Mysuru,"Hebbal 1st Stage, Mysuru - KSPCB",20-01-2024 22:00:00,12.21041,76.37376,NH3,1,3,2
India,Karnataka,Mysuru,"Hebbal 1st Stage, Mysuru - KSPCB",20-01-2024 22:00:00,12.21041,76.37376,CO,6,54,26
India,Karnataka,Raichur,"Haji Colony, Raichur - KSPCB",20-01-2024 22:00:00,16.208139,77.348417,SO2,NA,NA,NA
India,Karnataka,Ramanagara,"Vijay Nagar, Ramanagara - KSPCB",20-01-2024 22:00:00,12.733409,77.298051,PM2.5,45,97,62
India,Karnataka,Ramanagara,"Vijay Nagar, Ramanagara - KSPCB",20-01-2024 22:00:00,12.733409,77.298051,OZONE,28,29,29
India,Karnataka,Shivamogga,"Vinoba Nagara, Shivamogga - KSPCB",20-01-2024 22:00:00,13.940000,75.555917,PM10,51,86,64
India,Karnataka,Tumakuru,"Thimmalapura, Tumakuru - KSPCB",20-01-2024 22:00:00,13.377516,77.099072,PM10,107,416,160
India,Karnataka,Tumakuru,"Thimmalapura, Tumakuru - KSPCB",20-01-2024 22:00:00,13.377516,77.099072,SO2,9,14,10
India,Karnataka,Tumakuru,"Thimmalapura, Tumakuru - KSPCB",20-01-2024 22:00:00,13.377516,77.099072,OZONE,6,70,34
India,Karnataka,Udupi,"Brahmagiri, Udupi - KSPCB",20-01-2024 22:00:00,13.34194444,74.74694444,NH3,1,2,2
India,Karnataka,Vijayapura,"Ibrahimpur, Vijayapura - KSPCB",20-01-2024 22:00:00,16.802639,75.722694,SO2,2,4,3
India,Karnataka,Yadgir,"Collector Office, Yadgir - KSPCB",20-01-2024 22:00:00,16.7602,77.1428,PM2.5,48,86,65
India,Karnataka,Yadgir,"Collector Office, Yadgir - KSPCB",20-01-2024 22:00:00,16.7602,77.1428,NO2,5,8,6
India,Karnataka,Yadgir,"Collector Office, Yadgir - KSPCB",20-01-2024 22:00:00,16.7602,77.1428,OZONE,18,20,19
India,Kerala,Eloor,"Udyogamandal, Eloor - Kerala PCB",20-01-2024 22:00:00,10.073232,76.302765,PM2.5,42,71,56
India,Kerala,Eloor,"Udyogamandal, Eloor - Kerala PCB",20-01-2024 22:00:00,10.073232,76.302765,NO2,4,4,4
India,Kerala,Eloor,"Udyogamandal, Eloor - Kerala PCB",20-01-2024 22:00:00,10.073232,76.302765,SO2,1,5,2
India,Kerala,Kannur,"Thavakkara, Kannur - Kerala PCB",20-01-2024 22:00:00,11.875000,75.373200,PM2.5,43,51,47
India,Kerala,Kollam,"Polayathode, Kollam - Kerala PCB",20-01-2024 22:00:00,8.8787,76.6073,PM2.5,31,500,117
India,Kerala,Kollam,"Polayathode, Kollam - Kerala PCB",20-01-2024 22:00:00,8.8787,76.6073,PM10,41,418,90
India,Kerala,Kollam,"Polayathode, Kollam - Kerala PCB",20-01-2024 22:00:00,8.8787,76.6073,NH3,1,1,1
India,Kerala,Kollam,"Polayathode, Kollam - Kerala PCB",20-01-2024 22:00:00,8.8787,76.6073,CO,4,48,15
India,Kerala,Thiruvananthapuram,"Plammoodu, Thiruvananthapuram - Kerala PCB",20-01-2024 22:00:00,8.5149093,76.9435879,PM10,38,91,66
India,Kerala,Thiruvananthapuram,"Plammoodu, Thiruvananthapuram - Kerala PCB",20-01-2024 22:00:00,8.5149093,76.9435879,NO2,12,14,13
India,Kerala,Thiruvananthapuram,"Plammoodu, Thiruvananthapuram - Kerala PCB",20-01-2024 22:00:00,8.5149093,76.9435879,SO2,4,16,10
India,Kerala,Thiruvananthapuram,"Plammoodu, Thiruvananthapuram - Kerala PCB",20-01-2024 22:00:00,8.5149093,76.9435879,CO,32,99,43
India,Kerala,Thrissur,"Corporation Ground, Thrissur - Kerala PCB",20-01-2024 22:00:00,10.532400,76.215900,PM10,55,62,58
India,Kerala,Thrissur,"Corporation Ground, Thrissur - Kerala PCB",20-01-2024 22:00:00,10.532400,76.215900,SO2,NA,NA,NA
India,Kerala,Thrissur,"Corporation Ground, Thrissur - Kerala PCB",20-01-2024 22:00:00,10.532400,76.215900,CO,14,124,33
India,Madhya Pradesh,Bhopal,"Idgah Hills, Bhopal - MPPCB",20-01-2024 22:00:00,23.264759,77.381568,PM2.5,95,347,232
India,Madhya Pradesh,Bhopal,"Paryavaran Parisar, Bhopal - MPPCB",20-01-2024 22:00:00,23.210494,77.425409,OZONE,10,63,44
India,Madhya Pradesh,Bhopal,"T T Nagar, Bhopal - MPPCB",20-01-2024 22:00:00,23.233584,77.400574,NO2,36,67,50
India,Madhya Pradesh,Bhopal,"T T Nagar, Bhopal - MPPCB",20-01-2024 22:00:00,23.233584,77.400574,SO2,9,45,25
India,Madhya Pradesh,Damoh,"Shrivastav Colony, Damoh - MPPCB",20-01-2024 22:00:00,23.81748678,79.446246,CO,24,24,24
India,Madhya Pradesh,Dewas,"Bhopal Chauraha, Dewas - MPPCB",20-01-2024 22:00:00,22.9682591,76.064118,PM2.5,60,303,164
India,Madhya Pradesh,Dewas,"Bhopal Chauraha, Dewas - MPPCB",20-01-2024 22:00:00,22.9682591,76.064118,NH3,3,3,3
India,Madhya Pradesh,Gwalior,"City Center, Gwalior - MPPCB",20-01-2024 22:00:00,26.203442,78.193251,PM10,100,219,130
India,Madhya Pradesh,Gwalior,"City Center, Gwalior - MPPCB",20-01-2024 22:00:00,26.203442,78.193251,SO2,9,38,30
India,Madhya Pradesh,Gwalior,"Deen Dayal Nagar, Gwalior - MPPCB",20-01-2024 22:00:00,26.259242,78.216432,CO,18,57,46
India,Madhya Pradesh,Gwalior,"Maharaj Bada, Gwalior - MPPCB",20-01-2024 22:00:00,26.200388,78.147714,NH3,4,8,7
India,Madhya Pradesh,Gwalior,"Phool Bagh, Gwalior - Mondelez Ind. Food",20-01-2024 22:00:00,26.210536,78.171,SO2,9,11,10
India,Madhya Pradesh,Indore,"Chhoti Gwaltoli, Indore - MPPCB",20-01-2024 22:00:00,22.4310,75.5213,NO2,53,96,70
India,Madhya Pradesh,Indore,"Chhoti Gwaltoli, Indore - MPPCB",20-01-2024 22:00:00,22.4310,75.5213,OZONE,23,81,60
India,Madhya Pradesh,Indore,"Maguda Nagar, Indore - IMC",20-01-2024 22:00:00,22.7524,75.8872,PM10,35,116,68
India,Madhya Pradesh,Indore,"Maguda Nagar, Indore - IMC",20-01-2024 22:00:00,22.7524,75.8872,NH3,1,1,1
India,Madhya Pradesh,Indore,"Regional Park, Indore - IMC",20-01-2024 22:00:00,22.6780,75.8559,PM2.5,38,165,82
India,Madhya Pradesh,Indore,"Regional Park, Indore - IMC",20-01-2024 22:00:00,22.6780,75.8559,CO,19,38,29
India,Madhya Pradesh,Jabalpur,"Govindh Bhavan Colony, Jabalpur - JMC",20-01-2024 22:00:00,23.163174,79.973061,OZONE,14,57,25
India,Madhya Pradesh,Jabalpur,"Gupteshwar, Jabalpur - JMC",20-01-2024 22:00:00,23.142888,79.916147,PM2.5,93,313,210
India,Madhya Pradesh,Jabalpur,"Gupteshwar, Jabalpur - JMC",20-01-2024 22:00:00,23.142888,79.916147,NH3,2,4,3
India,Madhya Pradesh,Jabalpur,"Marhatal, Jabalpur - MPPCB",20-01-2024 22:00:00,23.168606,79.932247,PM10,146,303,220
India,Madhya Pradesh,Jabalpur,"Marhatal, Jabalpur - MPPCB",20-01-2024 22:00:00,23.168606,79.932247,NO2,30,71,46
India,Madhya Pradesh,Jabalpur,"Marhatal, Jabalpur - MPPCB",20-01-2024 22:00:00,23.168606,79.932247,NH3,4,6,5
India,Madhya Pradesh,Jabalpur,"Suhagi, Jabalpur - JMC",20-01-2024 22:00:00,23.218135,79.957770,CO,40,107,101
India,Madhya Pradesh,Katni,"Gole Bazar, Katni - MPPCB",20-01-2024 22:00:00,23.50016,80.23284,PM2.5,105,205,158
India,Madhya Pradesh,Katni,"Gole Bazar, Katni - MPPCB",20-01-2024 22:00:00,23.50016,80.23284,PM10,124,150,138
India,Madhya Pradesh,Katni,"Gole Bazar, Katni - MPPCB",20-01-2024 22:00:00,23.50016,80.23284,SO2,8,38,16
India,Madhya Pradesh,Mandideep,"Sector-D Industrial Area, Mandideep - MPPCB",20-01-2024 22:00:00,23.108440,77.511428,NO2,55,96,68
India,Madhya Pradesh,Mandideep,"Sector-D Industrial Area, Mandideep - MPPCB",20-01-2024 22:00:00,23.108440,77.511428,NH3,6,8,7
India,Madhya Pradesh,Mandideep,"Sector-D Industrial Area, Mandideep - MPPCB",20-01-2024 22:00:00,23.108440,77.511428,OZONE,15,18,17
India,Madhya Pradesh,Pithampur,"Sector-2 Industrial Area, Pithampur - MPPCB",20-01-2024 22:00:00,22.624758,75.675238,PM10,121,223,155
India,Madhya Pradesh,Pithampur,"Sector-2 Industrial Area, Pithampur - MPPCB",20-01-2024 22:00:00,22.624758,75.675238,NO2,7,25,15
India,Madhya Pradesh,Pithampur,"Sector-2 Industrial Area, Pithampur - MPPCB",20-01-2024 22:00:00,22.624758,75.675238,SO2,9,16,13
India,Madhya Pradesh,Pithampur,"Sector-2 Industrial Area, Pithampur - MPPCB",20-01-2024 22:00:00,22.624758,75.675238,CO,40,84,47
India,Madhya Pradesh,Sagar,"Civil Lines, Sagar - MPPCB",20-01-2024 22:00:00,23.838586,78.759431,PM10,140,211,178
India,Madhya Pradesh,Sagar,"Deen Dayal Nagar, Sagar - MPPCB",20-01-2024 22:00:00,23.8640158,78.80289321,SO2,8,10,9
India,Madhya Pradesh,Satna,"Bandhavgar Colony, Satna - Birla Cement",20-01-2024 22:00:00,24.58434363,80.8549414,NO2,5,18,8
India,Madhya Pradesh,Ujjain,"Mahakaleshwar Temple, Ujjain - MPPCB",20-01-2024 22:00:00,23.182719 ,75.768218 ,NH3,5,6,5
India,Maharashtra,Akola,"Ramdaspeth, Akola - MPCB",20-01-2024 22:00:00,20.719516,77.000253,CO,23,52,35
India,Maharashtra,Amravati,"Shri Shivaji Science College, Amaravati - MPCB",20-01-2024 22:00:00,20.939198,77.765701,CO,34,110,59
India,Maharashtra,Aurangabad,"MIDC Chilkalthana, Aurangabad - MPCB",20-01-2024 22:00:00,19.875620,75.387310,NO2,7,64,28
India,Maharashtra,Aurangabad,"MIDC Chilkalthana, Aurangabad - MPCB",20-01-2024 22:00:00,19.875620,75.387310,OZONE,9,47,28
India,Maharashtra,Aurangabad,"Rachnakar Colony, Aurangabad - MPCB",20-01-2024 22:00:00,19.863756,75.321188,NH3,1,1,1
India,Maharashtra,Badlapur,"Katrap, Badlapur - MPCB",20-01-2024 22:00:00,19.16485,73.23409,NO2,25,75,47
India,Maharashtra,Badlapur,"Katrap, Badlapur - MPCB",20-01-2024 22:00:00,19.16485,73.23409,SO2,9,41,20
India,Maharashtra,Belapur,"CBD Belapur, Belapur - MPCB",20-01-2024 22:00:00,19.0243902,73.0406721,PM10,NA,NA,NA
India,Maharashtra,Belapur,"CBD Belapur, Belapur - MPCB",20-01-2024 22:00:00,19.0243902,73.0406721,NO2,NA,NA,NA
India,Maharashtra,Belapur,"CBD Belapur, Belapur - MPCB",20-01-2024 22:00:00,19.0243902,73.0406721,OZONE,12,124,76
India,Maharashtra,Bhiwandi,"Gokul Nagar, Bhiwandi - MPCB",20-01-2024 22:00:00,19.309073,73.057223,NH3,2,2,2
India,Maharashtra,Bhiwandi,"Gokul Nagar, Bhiwandi - MPCB",20-01-2024 22:00:00,19.309073,73.057223,CO,34,108,39
India,Maharashtra,Boisar,"Khaira, Boisar - MPCB",20-01-2024 22:00:00,19.786089,72.757971,NO2,NA,NA,NA
India,Maharashtra,Chandrapur,"Chauhan Colony, Chandrapur - MPCB",20-01-2024 22:00:00,19.962900,79.298714,PM2.5,85,324,212
India,Maharashtra,Chandrapur,"Chauhan Colony, Chandrapur - MPCB",20-01-2024 22:00:00,19.962900,79.298714,NO2,11,17,14
India,Maharashtra,Chandrapur,"Chauhan Colony, Chandrapur - MPCB",20-01-2024 22:00:00,19.962900,79.298714,SO2,8,24,14
India,Maharashtra,Chandrapur,"Chauhan Colony, Chandrapur - MPCB",20-01-2024 22:00:00,19.962900,79.298714,OZONE,11,34,17
India,Maharashtra,Dhule,"Deopur, Dhule - MPCB",20-01-2024 22:00:00,20.918946,74.776388,OZONE,13,81,47
India,Maharashtra,Jalgaon,"Prabhat Colony, Jalgaon - MPCB",20-01-2024 22:00:00,21.001264,75.565602,PM10,NA,NA,NA
India,Maharashtra,Jalgaon,"Prabhat Colony, Jalgaon - MPCB",20-01-2024 22:00:00,21.001264,75.565602,NO2,NA,NA,NA
India,Maharashtra,Jalgaon,"Prabhat Colony, Jalgaon - MPCB",20-01-2024 22:00:00,21.001264,75.565602,OZONE,NA,NA,NA
India,Maharashtra,Kalyan,"Khadakpada, Kalyan - MPCB",20-01-2024 22:00:00,19.25292,73.142019,NO2,22,125,42
India,Maharashtra,Kalyan,"Khadakpada, Kalyan - MPCB",20-01-2024 22:00:00,19.25292,73.142019,SO2,19,104,36
India,Maharashtra,Kolhapur,"Shivaji University, Kolhapur - MPCB",20-01-2024 22:00:00,16.6870449,74.2505872,NO2,NA,NA,NA
India,Maharashtra,Kolhapur,"Sinchan Bhavan, Kolhapur - MPCB",20-01-2024 22:00:00,16.7143745,74.2426398,NH3,7,8,8
India,Maharashtra,Latur,"Sawe Wadi, Latur - MPCB",20-01-2024 22:00:00,18.39963,76.57452,OZONE,1,77,41
India,Maharashtra,Malegaon,"Mahesh Nagar, Malegaon - MPCB",20-01-2024 22:00:00,20.555712,74.529236,PM2.5,61,188,95
India,Maharashtra,Malegaon,"Mahesh Nagar, Malegaon - MPCB",20-01-2024 22:00:00,20.555712,74.529236,SO2,11,26,20
India,Maharashtra,Malegaon,"Mahesh Nagar, Malegaon - MPCB",20-01-2024 22:00:00,20.555712,74.529236,OZONE,13,88,52
India,Maharashtra,Mira-Bhayandar,"Bhayandar West, Mira-Bhayandar - MPCB",20-01-2024 22:00:00,19.296481,72.840923,OZONE,14,68,57
India,Maharashtra,Mumbai,"Borivali East, Mumbai - IITM",20-01-2024 22:00:00,19.23241,72.86895,PM10,70,135,106
India,Maharashtra,Mumbai,"Borivali East, Mumbai - MPCB",20-01-2024 22:00:00,19.2243333,72.8658113,PM10,55,136,88
India,Maharashtra,Mumbai,"Byculla, Mumbai - BMC",20-01-2024 22:00:00,18.9767,72.8380,PM2.5,77,301,191
India,Maharashtra,Mumbai,"Chakala-Andheri East, Mumbai - IITM",20-01-2024 22:00:00,19.11074,72.86084,PM2.5,24,52,40
India,Maharashtra,Mumbai,"Chakala-Andheri East, Mumbai - IITM",20-01-2024 22:00:00,19.11074,72.86084,NO2,53,194,110
India,Maharashtra,Mumbai,"Chakala-Andheri East, Mumbai - IITM",20-01-2024 22:00:00,19.11074,72.86084,CO,30,100,47
India,Maharashtra,Mumbai,"Chembur, Mumbai - MPCB",20-01-2024 22:00:00,19.0364585,72.8954371,PM2.5,87,293,190
India,Maharashtra,Mumbai,"Chembur, Mumbai - MPCB",20-01-2024 22:00:00,19.0364585,72.8954371,CO,25,102,38
India,Maharashtra,Mumbai,"Chhatrapati Shivaji Intl. Airport (T2), Mumbai - MPCB",20-01-2024 22:00:00,19.10078,72.87462,PM2.5,34,74,56
India,Maharashtra,Mumbai,"Chhatrapati Shivaji Intl. Airport (T2), Mumbai - MPCB",20-01-2024 22:00:00,19.10078,72.87462,PM10,86,148,120
India,Maharashtra,Mumbai,"Chhatrapati Shivaji Intl. Airport (T2), Mumbai - MPCB",20-01-2024 22:00:00,19.10078,72.87462,SO2,22,30,26
India,Maharashtra,Mumbai,"Colaba, Mumbai - MPCB",20-01-2024 22:00:00,18.910000,72.820000,PM2.5,NA,NA,NA
India,Maharashtra,Mumbai,"Colaba, Mumbai - MPCB",20-01-2024 22:00:00,18.910000,72.820000,OZONE,10,14,13
India,Maharashtra,Mumbai,"Deonar, Mumbai - IITM",20-01-2024 22:00:00,19.04946,72.9230,PM10,NA,NA,NA
India,Maharashtra,Mumbai,"Deonar, Mumbai - IITM",20-01-2024 22:00:00,19.04946,72.9230,NO2,NA,NA,NA
India,Maharashtra,Mumbai,"Kherwadi_Bandra East, Mumbai - MPCB",20-01-2024 22:00:00,19.0632143,72.8456324,PM2.5,72,306,220
India,Maharashtra,Mumbai,"Kherwadi_Bandra East, Mumbai - MPCB",20-01-2024 22:00:00,19.0632143,72.8456324,SO2,1,120,33
India,Maharashtra,Mumbai,"Khindipada-Bhandup West, Mumbai - IITM",20-01-2024 22:00:00,19.1653323,72.922099,NO2,2,9,4
India,Maharashtra,Mumbai,"Khindipada-Bhandup West, Mumbai - IITM",20-01-2024 22:00:00,19.1653323,72.922099,NH3,1,1,1
India,Maharashtra,Mumbai,"Khindipada-Bhandup West, Mumbai - IITM",20-01-2024 22:00:00,19.1653323,72.922099,SO2,1,11,4
India,Maharashtra,Mumbai,"Malad West, Mumbai - IITM",20-01-2024 22:00:00,19.19709,72.82204,CO,2,5,2
India,Maharashtra,Mumbai,"Mazgaon, Mumbai - IITM",20-01-2024 22:00:00,18.96702,72.84214,NO2,NA,NA,NA
India,Maharashtra,Mumbai,"Mazgaon, Mumbai - IITM",20-01-2024 22:00:00,18.96702,72.84214,NH3,NA,NA,NA
India,Maharashtra,Mumbai,"Mindspace-Malad West, Mumbai - MPCB",20-01-2024 22:00:00,19.1878657,72.8304069,NH3,8,9,9
India,Maharashtra,Mumbai,"Mindspace-Malad West, Mumbai - MPCB",20-01-2024 22:00:00,19.1878657,72.8304069,CO,25,116,41
India,Maharashtra,Mumbai,"Mulund West, Mumbai - MPCB",20-01-2024 22:00:00,19.1750,72.9419,PM2.5,46,90,65
India,Maharashtra,Mumbai,"Mulund West, Mumbai - MPCB",20-01-2024 22:00:00,19.1750,72.9419,PM10,73,140,103
India,Maharashtra,Mumbai,"Mulund West, Mumbai - MPCB",20-01-2024 22:00:00,19.1750,72.9419,OZONE,8,8,8
India,Maharashtra,Mumbai,"Navy Nagar-Colaba, Mumbai - IITM",20-01-2024 22:00:00,18.897756,72.813320,PM2.5,55,128,88
India,Maharashtra,Mumbai,"Navy Nagar-Colaba, Mumbai - IITM",20-01-2024 22:00:00,18.897756,72.813320,SO2,1,48,15
India,Maharashtra,Mumbai,"Powai, Mumbai - MPCB",20-01-2024 22:00:00,19.137500,72.915056,NO2,24,50,34
India,Maharashtra,Mumbai,"Powai, Mumbai - MPCB",20-01-2024 22:00:00,19.137500,72.915056,NH3,1,1,1
India,Maharashtra,Mumbai,"Sewri, Mumbai - BMC",20-01-2024 22:00:00,19.000084,72.856730,PM2.5,75,309,229
India,Maharashtra,Mumbai,"Sewri, Mumbai - BMC",20-01-2024 22:00:00,19.000084,72.856730,NO2,40,144,88
India,Maharashtra,Mumbai,"Sewri, Mumbai - BMC",20-01-2024 22:00:00,19.000084,72.856730,SO2,4,61,18
India,Maharashtra,Mumbai,"Siddharth Nagar-Worli, Mumbai - IITM",20-01-2024 22:00:00,19.000083,72.813993,PM10,NA,NA,NA
India,Maharashtra,Mumbai,"Sion, Mumbai - MPCB",20-01-2024 22:00:00,19.047000,72.874600,PM10,91,236,171
India,Maharashtra,Mumbai,"Sion, Mumbai - MPCB",20-01-2024 22:00:00,19.047000,72.874600,OZONE,10,20,14
India,Maharashtra,Mumbai,"Vasai West, Mumbai - MPCB",20-01-2024 22:00:00,19.383200,72.820400,NO2,27,28,27
India,Maharashtra,Mumbai,"Vasai West, Mumbai - MPCB",20-01-2024 22:00:00,19.383200,72.820400,OZONE,5,68,56
India,Maharashtra,Mumbai,"Vile Parle West, Mumbai - MPCB",20-01-2024 22:00:00,19.10861,72.83622,PM2.5,47,173,111
India,Maharashtra,Mumbai,"Worli, Mumbai - MPCB",20-01-2024 22:00:00,18.9936162,72.8128113,SO2,10,12,11
India,Maharashtra,Mumbai,"Worli, Mumbai - MPCB",20-01-2024 22:00:00,18.9936162,72.8128113,CO,36,40,39
India,Maharashtra,Nagpur,"Ambazari, Nagpur - MPCB",20-01-2024 22:00:00,21.121801,79.04952,NH3,1,19,4
India,Maharashtra,Nagpur,"Mahal, Nagpur - MPCB",20-01-2024 22:00:00,21.14472,79.107595,SO2,17,68,34
India,Maharashtra,Nagpur,"Opp GPO Civil Lines, Nagpur - MPCB",20-01-2024 22:00:00,21.152875,79.0517531,NO2,7,64,23
India,Maharashtra,Nagpur,"Ram Nagar, Nagpur - MPCB",20-01-2024 22:00:00,21.143383,79.048912,PM2.5,103,273,177
India,Maharashtra,Nagpur,"Ram Nagar, Nagpur - MPCB",20-01-2024 22:00:00,21.143383,79.048912,OZONE,4,80,48
India,Maharashtra,Nanded,"Sneh Nagar, Nanded - MPCB",20-01-2024 22:00:00,19.173852,77.296291,PM2.5,43,186,96
India,Maharashtra,Nanded,"Sneh Nagar, Nanded - MPCB",20-01-2024 22:00:00,19.173852,77.296291,CO,35,44,38
India,Maharashtra,Nashik,"Gangapur Road, Nashik - MPCB",20-01-2024 22:00:00,20.0073285,73.7762427,PM10,62,109,86
India,Maharashtra,Nashik,"MIDC Ambad, Nashik - MPCB",20-01-2024 22:00:00,19.950220,73.731480,NO2,5,90,37
India,Maharashtra,Nashik,"MIDC Ambad, Nashik - MPCB",20-01-2024 22:00:00,19.950220,73.731480,CO,17,92,18
India,Maharashtra,Nashik,"Pandav Nagari, Nashik - MPCB",20-01-2024 22:00:00,19.9591346,73.7788008,PM10,NA,NA,NA
India,Maharashtra,Navi Mumbai,"Kopripada-Vashi, Navi Mumbai - MPCB",20-01-2024 22:00:00,19.090337,73.014232,NH3,4,31,16
India,Maharashtra,Navi Mumbai,"Mahape, Navi Mumbai - MPCB",20-01-2024 22:00:00,19.1135051,73.008978,NH3,3,3,3
India,Maharashtra,Navi Mumbai,"Sanpada, Navi Mumbai - MPCB",20-01-2024 22:00:00,19.0575752,73.0151367,PM2.5,63,332,187
India,Maharashtra,Navi Mumbai,"Sector-19A Nerul, Navi Mumbai - IITM",20-01-2024 22:00:00,19.044,73.0325,NO2,34,169,91
India,Maharashtra,Navi Mumbai,"Sector-2E Kalamboli, Navi Mumbai - MPCB",20-01-2024 22:00:00,19.02579,73.10297,PM2.5,53,326,208
India,Maharashtra,Navi Mumbai,"Sector-2E Kalamboli, Navi Mumbai - MPCB",20-01-2024 22:00:00,19.02579,73.10297,NO2,86,89,88
India,Maharashtra,Navi Mumbai,"Sector-2E Kalamboli, Navi Mumbai - MPCB",20-01-2024 22:00:00,19.02579,73.10297,SO2,6,49,21
India,Maharashtra,Navi Mumbai,"Sector-2E Kalamboli, Navi Mumbai - MPCB",20-01-2024 22:00:00,19.02579,73.10297,OZONE,1,156,88
India,Maharashtra,Pimpri-Chinchwad,"Park Street Wakad, Pimpri Chinchwad - MPCB",20-01-2024 22:00:00,18.59051,73.77946,PM2.5,80,130,113
India,Maharashtra,Pimpri-Chinchwad,"Park Street Wakad, Pimpri Chinchwad - MPCB",20-01-2024 22:00:00,18.59051,73.77946,NO2,39,124,80
India,Maharashtra,Pimpri-Chinchwad,"Park Street Wakad, Pimpri Chinchwad - MPCB",20-01-2024 22:00:00,18.59051,73.77946,SO2,3,13,7
India,Maharashtra,Pune,"Alandi, Pune - IITM",20-01-2024 22:00:00,18.675076,73.892743,NO2,18,30,22
India,Maharashtra,Pune,"Bhosari, Pune - IITM",20-01-2024 22:00:00,18.640051,73.848956,NO2,7,26,18
India,Maharashtra,Pune,"Karve Road, Pune - MPCB",20-01-2024 22:00:00,18.5011743,73.8165527,PM2.5,80,83,81
India,Maharashtra,Pune,"Karve Road, Pune - MPCB",20-01-2024 22:00:00,18.5011743,73.8165527,CO,68,72,71
India,Maharashtra,Pune,"Katraj Dairy, Pune - MPCB",20-01-2024 22:00:00,18.454450,73.854155,PM2.5,38,67,54
India,Maharashtra,Pune,"Katraj Dairy, Pune - MPCB",20-01-2024 22:00:00,18.454450,73.854155,CO,31,60,50
India,Maharashtra,Pune,"Revenue Colony-Shivajinagar, Pune - IITM",20-01-2024 22:00:00,18.530085,73.849598,NO2,94,225,169
India,Maharashtra,Pune,"Revenue Colony-Shivajinagar, Pune - IITM",20-01-2024 22:00:00,18.530085,73.849598,CO,101,112,110
India,Maharashtra,Pune,"Savitribai Phule Pune University, Pune - MPCB",20-01-2024 22:00:00,18.547056,73.826908,NO2,10,39,26
India,Maharashtra,Pune,"Savitribai Phule Pune University, Pune - MPCB",20-01-2024 22:00:00,18.547056,73.826908,OZONE,1,92,46
India,Maharashtra,Sangli,"Vijay Nagar, Sangli - MPCB",20-01-2024 22:00:00, 16.5038,74.3623,PM10,67,140,105
India,Maharashtra,Solapur,"Dnyaneshwar Nagar, Solapur - MPCB",20-01-2024 22:00:00,17.6336264,75.9132495,PM10,81,182,117
India,Maharashtra,Solapur,"Dnyaneshwar Nagar, Solapur - MPCB",20-01-2024 22:00:00,17.6336264,75.9132495,SO2,NA,NA,NA
India,Maharashtra,Solapur,"Ratandeep Housing Society, Solapur - MPCB",20-01-2024 22:00:00,17.65439,75.90649,NO2,30,146,70
India,Maharashtra,Solapur,"Solapur, Solapur - MPCB",20-01-2024 22:00:00,17.6599188,75.9063906,PM2.5,47,96,66
India,Maharashtra,Ulhasnagar,"Sidhi Vinayak Nagar, Ulhasnagar - MPCB",20-01-2024 22:00:00,19.235581,73.159121,PM10,114,185,148
India,Maharashtra,Ulhasnagar,"Sidhi Vinayak Nagar, Ulhasnagar - MPCB",20-01-2024 22:00:00,19.235581,73.159121,NO2,12,93,42
India,Maharashtra,Virar,"Bolinj, Virar - MPCB",20-01-2024 22:00:00,19.4458210,72.7988231,OZONE,1,106,92
India,Manipur,Imphal,"DM College of Science, Imphal - Manipur PCB",20-01-2024 22:00:00,24.8207389,93.9423085,PM10,24,141,45
India,Manipur,Imphal,"DM College of Science, Imphal - Manipur PCB",20-01-2024 22:00:00,24.8207389,93.9423085,SO2,77,81,79
India,Manipur,Imphal,"Manipur University, Imphal - Manipur PCB",20-01-2024 22:00:00,24.7524239,93.9286218,PM2.5,40,482,228
India,Manipur,Imphal,"Manipur University, Imphal - Manipur PCB",20-01-2024 22:00:00,24.7524239,93.9286218,NH3,NA,NA,NA
India,Meghalaya,Shillong,"JN Stadium, Shillong - Meghalaya PCB",20-01-2024 22:00:00,25.5803419,91.8942571,SO2,27,30,28
India,Meghalaya,Shillong,"Lumpyngngad, Shillong - Meghalaya PCB",20-01-2024 22:00:00,25.5586,91.8985,SO2,15,19,16
India,Mizoram,Aizawl,"Sikulpuikawn, Aizawl - Mizoram PCB",20-01-2024 22:00:00,23.7176342,92.7192841,CO,14,22,16
India,Nagaland,Kohima,"PWD Juction, Kohima - NPCB",20-01-2024 22:00:00,25.6635413,94.0989878,PM2.5,18,303,95
India,Odisha,Angul,"Hakimapada, Angul - OSPCB",20-01-2024 22:00:00,20.832874,85.104082,OZONE,29,95,78
India,Odisha,Balasore,"Kalidaspur, Balasore - OSPCB",20-01-2024 22:00:00,21.51161,86.89088,SO2,15,51,26
India,Odisha,Balasore,"Kalidaspur, Balasore - OSPCB",20-01-2024 22:00:00,21.51161,86.89088,CO,90,115,110
India,Odisha,Barbil,"Forest Office, Barbil - OSPCB",20-01-2024 22:00:00,22.1166054,85.3945546,SO2,3,36,11
India,Odisha,Barbil,"Forest Office, Barbil - OSPCB",20-01-2024 22:00:00,22.1166054,85.3945546,CO,61,102,77
India,Odisha,Bhubaneswar,"Lingraj Mandir, Bhubaneswar - OSPCB",20-01-2024 22:00:00,20.240790,85.836784,PM2.5,220,311,281
India,Odisha,Bhubaneswar,"Lingraj Mandir, Bhubaneswar - OSPCB",20-01-2024 22:00:00,20.240790,85.836784,OZONE,54,128,109
India,Odisha,Bhubaneswar,"Patia, Bhubaneswar - OSPCB",20-01-2024 22:00:00,20.34652,85.81630,PM2.5,197,304,272
India,Odisha,Bhubaneswar,"Patia, Bhubaneswar - OSPCB",20-01-2024 22:00:00,20.34652,85.81630,PM10,120,165,144
India,Odisha,Bileipada,"Tata Township, Bileipada - OSPCB",20-01-2024 22:00:00,22.06156703,85.47409613,PM2.5,165,302,209
India,Odisha,Bileipada,"Tata Township, Bileipada - OSPCB",20-01-2024 22:00:00,22.06156703,85.47409613,PM10,138,209,164
India,Odisha,Brajrajnagar,"GM Office, Brajrajnagar - OSPCB",20-01-2024 22:00:00,21.8004996,83.8396977,PM10,36,113,70
India,Odisha,Brajrajnagar,"GM Office, Brajrajnagar - OSPCB",20-01-2024 22:00:00,21.8004996,83.8396977,NH3,2,4,3
India,Odisha,Cuttack,"CDA Area, Cuttack - OSPCB",20-01-2024 22:00:00,20.48891     ,85.84768     ,NO2,22,43,28
India,Odisha,Cuttack,"CDA Area, Cuttack - OSPCB",20-01-2024 22:00:00,20.48891     ,85.84768     ,OZONE,33,93,78
India,Odisha,Nayagarh,"Dabuna, Nayagarh - OSPCB",20-01-2024 22:00:00,21.847279,85.416905,PM2.5,117,241,157
India,Odisha,Rourkela,"Fertilizer Township, Rourkela - OSPCB",20-01-2024 22:00:00,22.18972222,84.86277778,NO2,7,22,16
India,Odisha,Rourkela,"Raghunathpali, Rourkela - OSPCB",20-01-2024 22:00:00,22.220833,84.809444,NO2,22,141,46
India,Odisha,Rourkela,"Raghunathpali, Rourkela - OSPCB",20-01-2024 22:00:00,22.220833,84.809444,OZONE,21,75,50
India,Odisha,Rourkela,"Sector-2, Rourkela - OSPCB",20-01-2024 22:00:00,22.24500000,84.88111111,PM10,NA,NA,NA
India,Odisha,Talcher,"Talcher Coalfields,Talcher - OSPCB",20-01-2024 22:00:00,20.9360711,85.1707021,PM2.5,42,330,143
India,Odisha,Talcher,"Talcher Coalfields,Talcher - OSPCB",20-01-2024 22:00:00,20.9360711,85.1707021,NO2,44,52,47
India,Odisha,Talcher,"Talcher Coalfields,Talcher - OSPCB",20-01-2024 22:00:00,20.9360711,85.1707021,OZONE,1,6,3
India,Odisha,Tensa,"Barsua Iron Ore Mines, Tensa - OSPCB",20-01-2024 22:00:00,21.869985,85.167016,CO,26,54,28
India,Punjab,Amritsar,"Golden Temple, Amritsar - PPCB",20-01-2024 22:00:00,31.620000,74.876512,CO,25,44,35
India,Punjab,Jalandhar,"Civil Line, Jalandhar - PPCB",20-01-2024 22:00:00,31.321907,75.578914,PM2.5,134,302,206
India,Punjab,Jalandhar,"Civil Line, Jalandhar - PPCB",20-01-2024 22:00:00,31.321907,75.578914,NO2,17,18,18
India,Punjab,Khanna,"Kalal Majra, Khanna - PPCB",20-01-2024 22:00:00,30.736056 ,76.209694,PM2.5,83,151,111
India,Punjab,Ludhiana,"Punjab Agricultural University, Ludhiana - PPCB",20-01-2024 22:00:00,30.9028,75.8086,CO,10,112,67
India,Punjab,Ludhiana,"Punjab Agricultural University, Ludhiana - PPCB",20-01-2024 22:00:00,30.9028,75.8086,OZONE,9,31,18
India,Punjab,Mandi Gobindgarh,"RIMT University, Mandi Gobindgarh - PPCB",20-01-2024 22:00:00,30.649961,76.331442,NO2,26,32,31
India,Punjab,Patiala,"Model Town, Patiala - PPCB",20-01-2024 22:00:00,30.349388,76.366642,PM10,104,173,126
India,Punjab,Patiala,"Model Town, Patiala - PPCB",20-01-2024 22:00:00,30.349388,76.366642,SO2,11,33,19
India,Punjab,Patiala,"Model Town, Patiala - PPCB",20-01-2024 22:00:00,30.349388,76.366642,CO,62,91,74
India,Punjab,Patiala,"Model Town, Patiala - PPCB",20-01-2024 22:00:00,30.349388,76.366642,OZONE,23,46,37
India,Punjab,Rupnagar,"Ratanpura, Rupnagar - Ambuja Cements",20-01-2024 22:00:00,31.0325454,76.5623046,SO2,1,4,3
India,Rajasthan,Alwar,"Moti Doongri, Alwar - RSPCB",20-01-2024 22:00:00,27.554793,76.611536,CO,8,111,77
India,Rajasthan,Banswara,"Rati Talai, Banswara - RSPCB",20-01-2024 22:00:00,23.555190,74.440010,PM2.5,NA,NA,NA
India,Rajasthan,Bharatpur,"Krishna Nagar, Bharatpur - RSPCB",20-01-2024 22:00:00,27.215415,77.50873,PM10,135,359,182
India,Rajasthan,Bhiwadi,"RIICO Ind. Area III, Bhiwadi - RSPCB",20-01-2024 22:00:00,28.194909,76.862296,PM2.5,122,423,232
India,Rajasthan,Bhiwadi,"RIICO Ind. Area III, Bhiwadi - RSPCB",20-01-2024 22:00:00,28.194909,76.862296,NH3,8,25,17
India,Rajasthan,Bhiwadi,"RIICO Ind. Area III, Bhiwadi - RSPCB",20-01-2024 22:00:00,28.194909,76.862296,CO,9,137,84
India,Rajasthan,Bikaner,"MM Ground, Bikaner - RSPCB",20-01-2024 22:00:00,28.018792,73.292658,OZONE,4,82,57
India,Rajasthan,Bundi,"New Colony, Bundi - RSPCB",20-01-2024 22:00:00,25.435774,75.644272,SO2,2,7,3
India,Rajasthan,Chittorgarh,"Shastri Nagar, Chittorgarh - RSPCB",20-01-2024 22:00:00,24.892047,74.623527,PM2.5,19,305,146
India,Rajasthan,Chittorgarh,"Shastri Nagar, Chittorgarh - RSPCB",20-01-2024 22:00:00,24.892047,74.623527,PM10,92,195,143
India,Rajasthan,Chittorgarh,"Shastri Nagar, Chittorgarh - RSPCB",20-01-2024 22:00:00,24.892047,74.623527,NO2,34,120,61
India,Rajasthan,Dausa,"Khatikan Mohalla, Dausa - RSPCB",20-01-2024 22:00:00,26.895552,76.334753,PM10,133,196,161
India,Rajasthan,Dholpur,"Raja Ganj, Dholpur - RSPCB",20-01-2024 22:00:00,26.699557,77.898881,PM10,84,279,125
India,Rajasthan,Dholpur,"Raja Ganj, Dholpur - RSPCB",20-01-2024 22:00:00,26.699557,77.898881,NO2,9,50,19
India,Rajasthan,Dholpur,"Raja Ganj, Dholpur - RSPCB",20-01-2024 22:00:00,26.699557,77.898881,CO,10,98,55
India,Rajasthan,Dungarpur,"Bhoiwada, Dungarpur - RSPCB",20-01-2024 22:00:00,23.837789,73.714926,NO2,22,47,30
India,Rajasthan,Dungarpur,"Bhoiwada, Dungarpur - RSPCB",20-01-2024 22:00:00,23.837789,73.714926,CO,28,56,35
India,Rajasthan,Hanumangarh,"Housing Board, Hanumangarh - RSPCB",20-01-2024 22:00:00,29.610750,74.283608,PM10,107,432,249
India,Rajasthan,Hanumangarh,"Housing Board, Hanumangarh - RSPCB",20-01-2024 22:00:00,29.610750,74.283608,NH3,14,18,15
India,Rajasthan,Jaipur,"Adarsh Nagar, Jaipur - RSPCB",20-01-2024 22:00:00,26.902909,75.836858,CO,30,96,61
India,Rajasthan,Jaipur,"Adarsh Nagar, Jaipur - RSPCB",20-01-2024 22:00:00,26.902909,75.836858,OZONE,13,105,61
India,Rajasthan,Jaipur,"Mansarovar Sector-12, Jaipur - RSPCB",20-01-2024 22:00:00,26.843698,75.766894,NO2,15,162,44
India,Rajasthan,Jaipur,"Mansarovar Sector-12, Jaipur - RSPCB",20-01-2024 22:00:00,26.843698,75.766894,NH3,7,16,9
India,Rajasthan,Jaipur,"Police Commissionerate, Jaipur - RSPCB",20-01-2024 22:00:00,26.9164092,75.7994901,SO2,NA,NA,NA
India,Rajasthan,Jaipur,"RIICO Sitapura, Jaipur - RSPCB",20-01-2024 22:00:00,26.786682,75.827928,NO2,23,150,47
India,Rajasthan,Jaipur,"Sector-2 Murlipura, Jaipur - RSPCB",20-01-2024 22:00:00,26.960669,75.771817,PM10,92,414,201
India,Rajasthan,Jalore,"Mudtra Sili, Jalore - RSPCB",20-01-2024 22:00:00,25.344694,72.626208,PM2.5,36,304,156
India,Rajasthan,Jalore,"Mudtra Sili, Jalore - RSPCB",20-01-2024 22:00:00,25.344694,72.626208,OZONE,6,111,74
India,Rajasthan,Jhalawar,"Rajlaxmi Nagar, Jhalawar - RSPCB",20-01-2024 22:00:00,24.588397,76.172782,SO2,4,6,5
India,Rajasthan,Jodhpur,"Jhalamand, Jodhpur - RSPCB",20-01-2024 22:00:00,26.215415,73.070156,SO2,4,12,6
India,Rajasthan,Jodhpur,"Mandor, Jodhpur - RSPCB",20-01-2024 22:00:00,26.358805,73.047444,NO2,28,57,39
India,Rajasthan,Jodhpur,"Mandor, Jodhpur - RSPCB",20-01-2024 22:00:00,26.358805,73.047444,NH3,4,10,8
India,Rajasthan,Jodhpur,"Mandor, Jodhpur - RSPCB",20-01-2024 22:00:00,26.358805,73.047444,CO,15,45,17
India,Rajasthan,Jodhpur,"Mandor, Jodhpur - RSPCB",20-01-2024 22:00:00,26.358805,73.047444,OZONE,17,103,86
India,Rajasthan,Jodhpur,"Samrat Ashok Udhyan, Jodhpur - RSPCB",20-01-2024 22:00:00,26.253384,72.976571,PM2.5,16,228,127
India,Rajasthan,Karauli,"Satyawati Vihar, Karauli - RSPCB",20-01-2024 22:00:00,26.506177,77.025989,PM2.5,103,278,185
India,Rajasthan,Karauli,"Satyawati Vihar, Karauli - RSPCB",20-01-2024 22:00:00,26.506177,77.025989,OZONE,20,37,31
India,Rajasthan,Kota,"Dhanmandi, Kota - RSPCB",20-01-2024 22:00:00,25.164090,75.858137,SO2,2,30,6
India,Rajasthan,Kota,"Nayapura, Kota - RSPCB",20-01-2024 22:00:00,25.196024,75.855668,SO2,7,14,9
India,Rajasthan,Kota,"Nayapura, Kota - RSPCB",20-01-2024 22:00:00,25.196024,75.855668,OZONE,2,72,37
India,Rajasthan,Kota,"Shrinath Puram, Kota - RSPCB",20-01-2024 22:00:00,25.14389,75.821256,OZONE,8,50,21
India,Rajasthan,Nagaur,"Karni Colony, Nagaur - RSPCB",20-01-2024 22:00:00,27.213494,73.734444,PM10,104,333,146
India,Rajasthan,Nagaur,"Karni Colony, Nagaur - RSPCB",20-01-2024 22:00:00,27.213494,73.734444,CO,36,62,47
India,Rajasthan,Nagaur,"Karni Colony, Nagaur - RSPCB",20-01-2024 22:00:00,27.213494,73.734444,OZONE,34,71,63
India,Rajasthan,Pali,"Indira Colony Vistar, Pali - RSPCB",20-01-2024 22:00:00,25.771061, 73.340227,CO,2,100,33
India,Rajasthan,Pratapgarh,"Pragati Nagar, Pratapgarh - RSPCB",20-01-2024 22:00:00,24.041198,74.780702,CO,27,56,41
India,Rajasthan,Rajsamand,"Dhoinda, Rajsamand - RSPCB",20-01-2024 22:00:00,25.036360,73.883502,PM2.5,55,273,140
India,Rajasthan,Sawai Madhopur,"Sahu Nagar, Sawai Madhopur - RSPCB",20-01-2024 22:00:00,26.031443,76.359327,SO2,4,8,6
India,Rajasthan,Sikar,"Radhakishan Pura, Sikar - RSPCB",20-01-2024 22:00:00,27.608912,75.153302,NO2,14,36,20
India,Rajasthan,Sirohi,"Vedhaynath Colony, Sirohi - RSPCB",20-01-2024 22:00:00,24.885261,72.857549,NO2,10,96,43
India,Rajasthan,Sirohi,"Vedhaynath Colony, Sirohi - RSPCB",20-01-2024 22:00:00,24.885261,72.857549,SO2,4,14,8
India,Rajasthan,Sirohi,"Vedhaynath Colony, Sirohi - RSPCB",20-01-2024 22:00:00,24.885261,72.857549,OZONE,5,121,79
India,Rajasthan,Sri Ganganagar,"Old City, Sri Ganganagar - RSPCB",20-01-2024 22:00:00,29.931624,73.864511,PM10,115,407,220
India,Rajasthan,Sri Ganganagar,"Old City, Sri Ganganagar - RSPCB",20-01-2024 22:00:00,29.931624,73.864511,NO2,20,69,44
India,Rajasthan,Sri Ganganagar,"Old City, Sri Ganganagar - RSPCB",20-01-2024 22:00:00,29.931624,73.864511,OZONE,5,27,18
India,Rajasthan,Tonk,"Shastri Nagar, Tonk - RSPCB",20-01-2024 22:00:00,26.159933,75.780517,PM10,105,325,145
India,Rajasthan,Tonk,"Shastri Nagar, Tonk - RSPCB",20-01-2024 22:00:00,26.159933,75.780517,NH3,3,30,8
India,Rajasthan,Udaipur,"Ashok Nagar, Udaipur - RSPCB",20-01-2024 22:00:00,24.5886166,73.6321397,PM2.5,81,289,153
India,Rajasthan,Udaipur,"Ashok Nagar, Udaipur - RSPCB",20-01-2024 22:00:00,24.5886166,73.6321397,SO2,15,58,28
India,Rajasthan,Udaipur,"Ashok Nagar, Udaipur - RSPCB",20-01-2024 22:00:00,24.5886166,73.6321397,CO,38,98,73
India,Rajasthan,Udaipur,"Ashok Nagar, Udaipur - RSPCB",20-01-2024 22:00:00,24.5886166,73.6321397,OZONE,9,14,12
India,Sikkim,Gangtok,"Zero Point GICI, Gangtok - SSPCB",20-01-2024 22:00:00,27.338530,88.614099,PM10,20,56,32
India,TamilNadu,Chennai,"Alandur Bus Depot, Chennai - CPCB",20-01-2024 22:00:00,12.9099161,80.1076538,PM2.5,64,102,85
India,TamilNadu,Chennai,"Alandur Bus Depot, Chennai - CPCB",20-01-2024 22:00:00,12.9099161,80.1076538,NH3,5,8,6
India,TamilNadu,Chennai,"Arumbakkam, Chennai - TNPCB",20-01-2024 22:00:00,13.0664,80.2112 ,PM2.5,38,101,63
India,TamilNadu,Chennai,"Kodungaiyur, Chennai - TNPCB",20-01-2024 22:00:00,13.1278,80.2642,NO2,5,20,13
India,TamilNadu,Chennai,"Kodungaiyur, Chennai - TNPCB",20-01-2024 22:00:00,13.1278,80.2642,NH3,3,4,4
India,TamilNadu,Chennai,"Kodungaiyur, Chennai - TNPCB",20-01-2024 22:00:00,13.1278,80.2642,SO2,NA,NA,NA
India,TamilNadu,Chennai,"Manali, Chennai - CPCB",20-01-2024 22:00:00,13.164544,80.26285,SO2,4,34,9
India,TamilNadu,Chennai,"Manali, Chennai - CPCB",20-01-2024 22:00:00,13.164544,80.26285,CO,32,101,78
India,TamilNadu,Chennai,"Royapuram, Chennai - TNPCB",20-01-2024 22:00:00,13.1036,80.2909,PM2.5,26,196,54
India,TamilNadu,Chennai,"Royapuram, Chennai - TNPCB",20-01-2024 22:00:00,13.1036,80.2909,NH3,1,1,1
India,TamilNadu,Chennai,"Velachery Res. Area, Chennai - CPCB",20-01-2024 22:00:00,13.0052189,80.2398125,NH3,5,9,7
India,TamilNadu,Chennai,"Velachery Res. Area, Chennai - CPCB",20-01-2024 22:00:00,13.0052189,80.2398125,OZONE,16,35,29
India,TamilNadu,Cuddalore,"Semmandalam, Cuddalore - TNPCB",20-01-2024 22:00:00,11.7637683,79.7499835,PM10,NA,NA,NA
India,TamilNadu,Cuddalore,"Semmandalam, Cuddalore - TNPCB",20-01-2024 22:00:00,11.7637683,79.7499835,OZONE,1,2,2
India,TamilNadu,Ooty,"Bombay Castel, Ooty - TNPCB",20-01-2024 22:00:00,11.4068288,76.7138973,PM2.5,NA,NA,NA
India,TamilNadu,Ooty,"Bombay Castel, Ooty - TNPCB",20-01-2024 22:00:00,11.4068288,76.7138973,PM10,NA,NA,NA
India,TamilNadu,Ramanathapuram,"Chalai Bazaar, Ramanathapuram - TNPCB",20-01-2024 22:00:00,9.36399,78.831977,NH3,1,1,1
India,TamilNadu,Ramanathapuram,"Chalai Bazaar, Ramanathapuram - TNPCB",20-01-2024 22:00:00,9.36399,78.831977,SO2,5,8,6
India,TamilNadu,Ramanathapuram,"Chalai Bazaar, Ramanathapuram - TNPCB",20-01-2024 22:00:00,9.36399,78.831977,CO,9,19,15
India,TamilNadu,Salem,"Sona College of Technology, Salem - TNPCB",20-01-2024 22:00:00,11.679111,78.125052,SO2,NA,NA,NA
India,TamilNadu,Thoothukudi,"Meelavittan, Thoothukudi - TNPCB",20-01-2024 22:00:00,8.816428 ,78.099039,NO2,26,47,34
India,TamilNadu,Thoothukudi,"Meelavittan, Thoothukudi - TNPCB",20-01-2024 22:00:00,8.816428 ,78.099039,SO2,7,21,12
India,TamilNadu,Tirupur,"Kumaran College, Tirupur - TNPCB",20-01-2024 22:00:00,11.0973603,77.3228673,NO2,5,63,21
India,TamilNadu,Tirupur,"Kumaran College, Tirupur - TNPCB",20-01-2024 22:00:00,11.0973603,77.3228673,SO2,19,19,19
India,TamilNadu,Tirupur,"Kumaran College, Tirupur - TNPCB",20-01-2024 22:00:00,11.0973603,77.3228673,CO,16,105,69
India,TamilNadu,Virudhunagar,"Collectorate Office, Virudhunagar - TNPCB",20-01-2024 22:00:00,9.559382,77.948828,NH3,2,2,2
India,TamilNadu,Virudhunagar,"Collectorate Office, Virudhunagar - TNPCB",20-01-2024 22:00:00,9.559382,77.948828,OZONE,3,3,3
India,Telangana,Hyderabad,"Bollaram Industrial Area, Hyderabad - TSPCB",20-01-2024 22:00:00,17.540891,78.358528,PM10,48,104,75
India,Telangana,Hyderabad,"Central University, Hyderabad - TSPCB",20-01-2024 22:00:00,17.460103,78.334361,NH3,2,5,4
India,Telangana,Hyderabad,"Central University, Hyderabad - TSPCB",20-01-2024 22:00:00,17.460103,78.334361,SO2,3,9,6
India,Telangana,Hyderabad,"Central University, Hyderabad - TSPCB",20-01-2024 22:00:00,17.460103,78.334361,CO,12,53,44
India,Telangana,Hyderabad,"ECIL Kapra, Hyderabad - TSPCB",20-01-2024 22:00:00,17.470431,78.566959,CO,8,18,12
India,Telangana,Hyderabad,"ECIL Kapra, Hyderabad - TSPCB",20-01-2024 22:00:00,17.470431,78.566959,OZONE,7,32,25
India,Telangana,Hyderabad,"ICRISAT Patancheru, Hyderabad - TSPCB",20-01-2024 22:00:00,17.518400,78.278777,OZONE,28,98,56
India,Telangana,Hyderabad,"IITH Kandi, Hyderabad - TSPCB",20-01-2024 22:00:00,17.585705,78.126199,NH3,2,3,3
India,Telangana,Hyderabad,"IITH Kandi, Hyderabad - TSPCB",20-01-2024 22:00:00,17.585705,78.126199,CO,2,53,15
India,Telangana,Hyderabad,"IITH Kandi, Hyderabad - TSPCB",20-01-2024 22:00:00,17.585705,78.126199,OZONE,28,28,28
India,Telangana,Hyderabad,"Ramachandrapuram, Hyderabad - TSPCB",20-01-2024 22:00:00,17.528544,78.286195,NH3,2,2,2
India,Telangana,Hyderabad,"Sanathnagar, Hyderabad - TSPCB",20-01-2024 22:00:00,17.4559458,78.4332152,SO2,5,9,7
India,Telangana,Hyderabad,"Somajiguda, Hyderabad - TSPCB",20-01-2024 22:00:00,17.417094,78.457437,OZONE,6,19,13
India,Uttar_Pradesh,Agra,"Manoharpur, Agra - UPPCB",20-01-2024 22:00:00,27.23711,78.01936,PM10,66,137,86
India,Uttar_Pradesh,Agra,"Rohta, Agra - UPPCB",20-01-2024 22:00:00,27.106972,78.000111,PM2.5,66,206,90
India,Uttar_Pradesh,Agra,"Rohta, Agra - UPPCB",20-01-2024 22:00:00,27.106972,78.000111,SO2,7,17,9
India,Uttar_Pradesh,Agra,"Sanjay Palace, Agra - UPPCB",20-01-2024 22:00:00,27.19865833,78.00598056,PM10,81,142,105
India,Uttar_Pradesh,Agra,"Sanjay Palace, Agra - UPPCB",20-01-2024 22:00:00,27.19865833,78.00598056,CO,25,108,74
India,Uttar_Pradesh,Agra,"Sector-3B Avas Vikas Colony, Agra - UPPCB",20-01-2024 22:00:00,27.19412,77.96237,PM2.5,48,165,71
India,Uttar_Pradesh,Agra,"Sector-3B Avas Vikas Colony, Agra - UPPCB",20-01-2024 22:00:00,27.19412,77.96237,PM10,65,160,93
India,Uttar_Pradesh,Agra,"Sector-3B Avas Vikas Colony, Agra - UPPCB",20-01-2024 22:00:00,27.19412,77.96237,NO2,16,52,28
India,Uttar_Pradesh,Agra,"Sector-3B Avas Vikas Colony, Agra - UPPCB",20-01-2024 22:00:00,27.19412,77.96237,NH3,4,6,4
India,Uttar_Pradesh,Agra,"Sector-3B Avas Vikas Colony, Agra - UPPCB",20-01-2024 22:00:00,27.19412,77.96237,OZONE,13,15,14
India,Uttar_Pradesh,Agra,"Shahjahan Garden, Agra - UPPCB",20-01-2024 22:00:00,27.169338,78.03582,PM10,49,107,73
India,Uttar_Pradesh,Agra,"Shahjahan Garden, Agra - UPPCB",20-01-2024 22:00:00,27.169338,78.03582,NH3,4,7,5
India,Uttar_Pradesh,Agra,"Shahjahan Garden, Agra - UPPCB",20-01-2024 22:00:00,27.169338,78.03582,SO2,27,32,29
India,Uttar_Pradesh,Bareilly,"Civil Lines, Bareilly - UPPCB",20-01-2024 22:00:00,28.359581,79.414455,PM2.5,20,156,54
India,Uttar_Pradesh,Bareilly,"Civil Lines, Bareilly - UPPCB",20-01-2024 22:00:00,28.359581,79.414455,PM10,18,116,47
India,Uttar_Pradesh,Bulandshahr,"Yamunapuram, Bulandshahr - UPPCB",20-01-2024 22:00:00,28.406963,77.849831,CO,14,103,57
India,Uttar_Pradesh,Bulandshahr,"Yamunapuram, Bulandshahr - UPPCB",20-01-2024 22:00:00,28.406963,77.849831,OZONE,4,66,39
India,Uttar_Pradesh,Firozabad,"Nagla Bhau, Firozabad - UPPCB",20-01-2024 22:00:00,27.168897,78.376960,CO,6,30,14
India,Uttar_Pradesh,Firozabad,"Vibhab Nagar, Firozabad - UPPCB",20-01-2024 22:00:00,27.1594,78.3953,PM2.5,61,145,86
India,Uttar_Pradesh,Ghaziabad,"Indirapuram, Ghaziabad - UPPCB",20-01-2024 22:00:00,28.646233,77.358075,PM10,120,428,205
India,Uttar_Pradesh,Ghaziabad,"Indirapuram, Ghaziabad - UPPCB",20-01-2024 22:00:00,28.646233,77.358075,SO2,5,15,9
India,Uttar_Pradesh,Ghaziabad,"Indirapuram, Ghaziabad - UPPCB",20-01-2024 22:00:00,28.646233,77.358075,CO,14,51,25
India,Uttar_Pradesh,Ghaziabad,"Indirapuram, Ghaziabad - UPPCB",20-01-2024 22:00:00,28.646233,77.358075,OZONE,3,10,8
India,Uttar_Pradesh,Ghaziabad,"Loni, Ghaziabad - UPPCB",20-01-2024 22:00:00,28.757294,77.278792,SO2,8,13,9
India,Uttar_Pradesh,Ghaziabad,"Sanjay Nagar, Ghaziabad - UPPCB",20-01-2024 22:00:00,28.685382,77.453839,CO,20,117,77
India,Uttar_Pradesh,Ghaziabad,"Sanjay Nagar, Ghaziabad - UPPCB",20-01-2024 22:00:00,28.685382,77.453839,OZONE,3,75,39
India,Uttar_Pradesh,Gorakhpur,"Madan Mohan Malaviya University of Technology, Gorakhpur - UPPCB",20-01-2024 22:00:00,26.730136,83.433859,NH3,2,2,2
India,Uttar_Pradesh,Gorakhpur,"Madan Mohan Malaviya University of Technology, Gorakhpur - UPPCB",20-01-2024 22:00:00,26.730136,83.433859,OZONE,7,30,17
India,Uttar_Pradesh,Greater Noida,"Knowledge Park - V, Greater Noida - UPPCB",20-01-2024 22:00:00,28.557054,77.453663,NO2,11,32,20
India,Uttar_Pradesh,Hapur,"Anand Vihar, Hapur - UPPCB",20-01-2024 22:00:00,28.725645,77.749675,PM10,112,225,143
India,Uttar_Pradesh,Hapur,"Anand Vihar, Hapur - UPPCB",20-01-2024 22:00:00,28.725645,77.749675,NO2,6,102,23
India,Uttar_Pradesh,Kanpur,"FTI Kidwai Nagar, Kanpur - UPPCB",20-01-2024 22:00:00,26.428282,80.327067,PM10,14,169,100
India,Uttar_Pradesh,Kanpur,"FTI Kidwai Nagar, Kanpur - UPPCB",20-01-2024 22:00:00,26.428282,80.327067,NH3,4,4,4
India,Uttar_Pradesh,Kanpur,"NSI Kalyanpur, Kanpur - UPPCB",20-01-2024 22:00:00,26.509954,80.249612,PM10,113,155,132
India,Uttar_Pradesh,Kanpur,"NSI Kalyanpur, Kanpur - UPPCB",20-01-2024 22:00:00,26.509954,80.249612,OZONE,14,21,17
India,Uttar_Pradesh,Kanpur,"Nehru Nagar, Kanpur - UPPCB",20-01-2024 22:00:00,26.4703136,80.3229863,PM2.5,80,227,144
India,Uttar_Pradesh,Kanpur,"Nehru Nagar, Kanpur - UPPCB",20-01-2024 22:00:00,26.4703136,80.3229863,PM10,72,131,103
India,Uttar_Pradesh,Khurja,"Kalindi Kunj, Khurja - UPPCB",20-01-2024 22:00:00,28.2348927,77.8683002,PM10,9,109,45
India,Uttar_Pradesh,Khurja,"Kalindi Kunj, Khurja - UPPCB",20-01-2024 22:00:00,28.2348927,77.8683002,OZONE,21,48,22
India,Uttar_Pradesh,Lucknow,"B R Ambedkar University, Lucknow - UPPCB",20-01-2024 22:00:00,26.766433,80.927299,SO2,23,23,23
India,Uttar_Pradesh,Lucknow,"Kendriya Vidyalaya, Lucknow - CPCB",20-01-2024 22:00:00,26.906111,80.948222,PM10,94,121,109
India,Uttar_Pradesh,Lucknow,"Kendriya Vidyalaya, Lucknow - CPCB",20-01-2024 22:00:00,26.906111,80.948222,NH3,3,20,14
India,Uttar_Pradesh,Lucknow,"Lalbagh, Lucknow - CPCB",20-01-2024 22:00:00,26.8458805,80.9365541,PM2.5,104,330,223
India,Uttar_Pradesh,Lucknow,"Lalbagh, Lucknow - CPCB",20-01-2024 22:00:00,26.8458805,80.9365541,NO2,17,46,27
India,Uttar_Pradesh,Lucknow,"Lalbagh, Lucknow - CPCB",20-01-2024 22:00:00,26.8458805,80.9365541,OZONE,2,13,6
India,Uttar_Pradesh,Meerut,"Ganga Nagar, Meerut - UPPCB",20-01-2024 22:00:00,28.999264,77.7590354,PM10,100,424,164
India,Uttar_Pradesh,Meerut,"Ganga Nagar, Meerut - UPPCB",20-01-2024 22:00:00,28.999264,77.7590354,CO,33,125,86
India,Uttar_Pradesh,Meerut,"Jai Bhim Nagar, Meerut - UPPCB",20-01-2024 22:00:00,28.9535882,77.7622941,PM2.5,84,412,158
India,Uttar_Pradesh,Meerut,"Jai Bhim Nagar, Meerut - UPPCB",20-01-2024 22:00:00,28.9535882,77.7622941,PM10,70,358,118
India,Uttar_Pradesh,Meerut,"Jai Bhim Nagar, Meerut - UPPCB",20-01-2024 22:00:00,28.9535882,77.7622941,NO2,12,123,32
India,Uttar_Pradesh,Meerut,"Jai Bhim Nagar, Meerut - UPPCB",20-01-2024 22:00:00,28.9535882,77.7622941,SO2,4,29,9
India,Uttar_Pradesh,Meerut,"Jai Bhim Nagar, Meerut - UPPCB",20-01-2024 22:00:00,28.9535882,77.7622941,CO,16,132,91
India,Uttar_Pradesh,Meerut,"Pallavpuram Phase 2, Meerut - UPPCB",20-01-2024 22:00:00,29.063510,77.709723,NH3,NA,NA,NA
India,Uttar_Pradesh,Meerut,"Pallavpuram Phase 2, Meerut - UPPCB",20-01-2024 22:00:00,29.063510,77.709723,OZONE,15,23,20
India,Uttar_Pradesh,Moradabad,"Buddhi Vihar, Moradabad - UPPCB",20-01-2024 22:00:00,28.83526,78.74460,CO,37,76,48
India,Uttar_Pradesh,Moradabad,"Eco Herbal Park, Moradabad - UPPCB",20-01-2024 22:00:00,28.840739,78.697531,NO2,1,50,15
India,Uttar_Pradesh,Moradabad,"Eco Herbal Park, Moradabad - UPPCB",20-01-2024 22:00:00,28.840739,78.697531,SO2,1,21,9
India,Uttar_Pradesh,Moradabad,"Employment Office, Moradabad - UPPCB",20-01-2024 22:00:00,28.88528,78.73880,NH3,4,4,4
India,Uttar_Pradesh,Moradabad,"Employment Office, Moradabad - UPPCB",20-01-2024 22:00:00,28.88528,78.73880,SO2,23,24,23
India,Uttar_Pradesh,Moradabad,"Employment Office, Moradabad - UPPCB",20-01-2024 22:00:00,28.88528,78.73880,OZONE,13,18,15
India,Uttar_Pradesh,Moradabad,"Jigar Colony, Moradabad - UPPCB",20-01-2024 22:00:00,28.856664,78.772638,PM10,71,130,95
India,Uttar_Pradesh,Moradabad,"Kashiram Nagar, Moradabad - UPPCB",20-01-2024 22:00:00,28.849399,78.742362,PM2.5,48,273,84
India,Uttar_Pradesh,Noida,"Sector - 62, Noida - IMD",20-01-2024 22:00:00,28.6245479,77.3577104,CO,80,104,97
India,Uttar_Pradesh,Noida,"Sector-1, Noida - UPPCB",20-01-2024 22:00:00,28.5898,77.3101,PM2.5,91,500,186
India,Uttar_Pradesh,Noida,"Sector-116, Noida - UPPCB",20-01-2024 22:00:00,28.569230,77.393848,NO2,13,61,28
India,Uttar_Pradesh,Noida,"Sector-116, Noida - UPPCB",20-01-2024 22:00:00,28.569230,77.393848,SO2,14,19,16
India,Uttar_Pradesh,Noida,"Sector-116, Noida - UPPCB",20-01-2024 22:00:00,28.569230,77.393848,OZONE,5,61,31
India,Uttar_Pradesh,Prayagraj,"Jhunsi, Prayagraj - UPPCB",20-01-2024 22:00:00,25.425602,81.917152,CO,20,78,32
India,Uttar_Pradesh,Prayagraj,"Jhunsi, Prayagraj - UPPCB",20-01-2024 22:00:00,25.425602,81.917152,OZONE,1,10,6
India,Uttar_Pradesh,Prayagraj,"Motilal Nehru NIT, Prayagraj - UPPCB",20-01-2024 22:00:00,25.494,81.863,PM2.5,86,227,107
India,Uttar_Pradesh,Prayagraj,"Nagar Nigam, Prayagraj - UPPCB",20-01-2024 22:00:00,25.44919916 ,81.82735986 ,SO2,12,38,25
India,Uttar_Pradesh,Varanasi,"Ardhali Bazar, Varanasi - UPPCB",20-01-2024 22:00:00,25.3505986,82.9083074,OZONE,17,27,20
India,Uttar_Pradesh,Varanasi,"Bhelupur, Varanasi - UPPCB",20-01-2024 22:00:00,25.301778,82.996789,NH3,2,3,2
India,Uttar_Pradesh,Varanasi,"Bhelupur, Varanasi - UPPCB",20-01-2024 22:00:00,25.301778,82.996789,CO,26,68,39
India,Uttar_Pradesh,Varanasi,"IESD Banaras Hindu University, Varanasi - UPPCB",20-01-2024 22:00:00,25.262326,82.995408,NO2,2,3,2
India,Uttar_Pradesh,Varanasi,"Maldahiya, Varanasi - UPPCB",20-01-2024 22:00:00,25.32393,82.99687,PM10,63,91,76
India,Uttar_Pradesh,Vrindavan,"Omex Eternity, Vrindavan - UPPCB",20-01-2024 22:00:00,27.5714090,77.6557570,PM2.5,41,80,49
India,Uttar_Pradesh,Vrindavan,"Omex Eternity, Vrindavan - UPPCB",20-01-2024 22:00:00,27.5714090,77.6557570,NO2,2,3,3
India,Uttarakhand,Dehradun,"Doon University, Dehradun - UKPCB",20-01-2024 22:00:00,30.269444,78.044167,PM10,72,177,116
India,Uttarakhand,Dehradun,"Doon University, Dehradun - UKPCB",20-01-2024 22:00:00,30.269444,78.044167,CO,26,48,36
India,Uttarakhand,Dehradun,"Doon University, Dehradun - UKPCB",20-01-2024 22:00:00,30.269444,78.044167,OZONE,3,11,7
India,Uttarakhand,Kashipur,"Govt. Girls Inter College, Kashipur - UKPCB",20-01-2024 22:00:00,29.2124114,78.9611753,NO2,18,94,37
India,Uttarakhand,Rishikesh,"Shivaji Nagar, Rishikesh - UKPCB",20-01-2024 22:00:00,30.075911,78.2859547,NH3,4,4,4
India,Uttarakhand,Rishikesh,"Shivaji Nagar, Rishikesh - UKPCB",20-01-2024 22:00:00,30.075911,78.2859547,SO2,4,5,4
India,West_Bengal,Asansol,"Asansol Court Area, Asansol - WBPCB",20-01-2024 22:00:00,23.685297,86.945968,NH3,6,11,7
India,West_Bengal,Barrackpore,"SVSPA Campus, Barrackpore - WBPCB",20-01-2024 22:00:00,22.7605581,88.3617589,SO2,NA,NA,NA
India,West_Bengal,Durgapur,"Sidhu Kanhu Indoor Stadium, Durgapur - WBPCB",20-01-2024 22:00:00,23.5404352,87.2892225,OZONE,1,42,19
India,West_Bengal,Haldia,"Priyambada Housing Estate, Haldia - WBPCB",20-01-2024 22:00:00,22.06047,88.109737,CO,49,76,60
India,West_Bengal,Howrah,"Belur Math, Howrah - WBPCB",20-01-2024 22:00:00,22.629801,88.352017,NH3,4,5,5
India,West_Bengal,Howrah,"Belur Math, Howrah - WBPCB",20-01-2024 22:00:00,22.629801,88.352017,CO,20,78,41
India,West_Bengal,Howrah,"Ghusuri, Howrah - WBPCB",20-01-2024 22:00:00,22.611968,88.347422,OZONE,9,18,14
India,West_Bengal,Kolkata,"Ballygunge, Kolkata - WBPCB",20-01-2024 22:00:00,22.5367507,88.3638022,SO2,10,26,17
India,West_Bengal,Kolkata,"Ballygunge, Kolkata - WBPCB",20-01-2024 22:00:00,22.5367507,88.3638022,OZONE,6,88,45
India,West_Bengal,Kolkata,"Fort William, Kolkata - WBPCB",20-01-2024 22:00:00,22.556640,88.342674,PM10,135,223,161
India,West_Bengal,Kolkata,"Fort William, Kolkata - WBPCB",20-01-2024 22:00:00,22.556640,88.342674,OZONE,15,85,52
India,West_Bengal,Kolkata,"Rabindra Bharati University, Kolkata - WBPCB",20-01-2024 22:00:00,22.627847,88.380669,NO2,20,23,22
India,West_Bengal,Kolkata,"Rabindra Sarobar, Kolkata - WBPCB",20-01-2024 22:00:00,22.51106,88.35142,PM10,111,153,128
India,West_Bengal,Kolkata,"Rabindra Sarobar, Kolkata - WBPCB",20-01-2024 22:00:00,22.51106,88.35142,NO2,34,216,82
India,West_Bengal,Kolkata,"Rabindra Sarobar, Kolkata - WBPCB",20-01-2024 22:00:00,22.51106,88.35142,OZONE,3,90,49
India,West_Bengal,Kolkata,"Victoria, Kolkata - WBPCB",20-01-2024 22:00:00,22.5448082,88.3403691,SO2,17,34,23
India,West_Bengal,Kolkata,"Victoria, Kolkata - WBPCB",20-01-2024 22:00:00,22.5448082,88.3403691,CO,30,105,66
India,West_Bengal,Siliguri,"Ward-32 Bapupara, Siliguri - WBPCB",20-01-2024 22:00:00,26.6879226,88.4152495,PM2.5,71,256,141
India,West_Bengal,Siliguri,"Ward-32 Bapupara, Siliguri - WBPCB",20-01-2024 22:00:00,26.6879226,88.4152495,CO,30,80,50
India,Andhra_Pradesh,Amaravati,"Secretariat, Amaravati - APPCB",20-01-2024 22:00:00,16.5150833,80.5181667,NO2,7,20,11
India,Andhra_Pradesh,Anantapur,"Gulzarpet, Anantapur - APPCB",20-01-2024 22:00:00,14.675886,77.593027,PM2.5,34,62,51
India,Andhra_Pradesh,Anantapur,"Gulzarpet, Anantapur - APPCB",20-01-2024 22:00:00,14.675886,77.593027,NH3,2,3,3
India,Andhra_Pradesh,Chittoor,"Gangineni Cheruvu, Chittoor - APPCB",20-01-2024 22:00:00,13.204880,79.097889,SO2,2,65,19
India,Andhra_Pradesh,Kadapa,"Yerramukkapalli, Kadapa - APPCB",20-01-2024 22:00:00,14.465052,78.824187,SO2,1,2,2
India,Andhra_Pradesh,Rajamahendravaram,"Anand Kala Kshetram, Rajamahendravaram - APPCB",20-01-2024 22:00:00,16.9872867,81.7363176,PM10,42,81,61
India,Andhra_Pradesh,Rajamahendravaram,"Anand Kala Kshetram, Rajamahendravaram - APPCB",20-01-2024 22:00:00,16.9872867,81.7363176,NO2,14,43,23
India,Andhra_Pradesh,Tirupati,"Tirumala, Tirupati - APPCB",20-01-2024 22:00:00,13.67,79.35,PM2.5,40,82,62
India,Andhra_Pradesh,Tirupati,"Tirumala, Tirupati - APPCB",20-01-2024 22:00:00,13.67,79.35,PM10,36,74,55
India,Andhra_Pradesh,Tirupati,"Tirumala, Tirupati - APPCB",20-01-2024 22:00:00,13.67,79.35,NO2,28,48,33
India,Andhra_Pradesh,Tirupati,"Tirumala, Tirupati - APPCB",20-01-2024 22:00:00,13.67,79.35,NH3,1,2,1
India,Andhra_Pradesh,Tirupati,"Tirumala, Tirupati - APPCB",20-01-2024 22:00:00,13.67,79.35,CO,34,58,48
India,Andhra_Pradesh,Tirupati,"Tirumala, Tirupati - APPCB",20-01-2024 22:00:00,13.67,79.35,OZONE,11,47,31
India,Andhra_Pradesh,Tirupati,"Vaikuntapuram, Tirupati - APPCB",20-01-2024 22:00:00,13.615387,79.409230,PM10,17,70,31
India,Andhra_Pradesh,Tirupati,"Vaikuntapuram, Tirupati - APPCB",20-01-2024 22:00:00,13.615387,79.409230,SO2,4,5,5
India,Andhra_Pradesh,Vijayawada,"Rajiv Gandhi Park, Vijayawada - APPCB",20-01-2024 22:00:00,16.509717,80.612222,PM2.5,NA,NA,NA
India,Andhra_Pradesh,Visakhapatnam,"GVM Corporation, Visakhapatnam - APPCB",20-01-2024 22:00:00,17.72,83.3,OZONE,8,36,20
India,Assam,Byrnihat,"Central Academy for SFS, Byrnihat - PCBA",20-01-2024 22:00:00,26.071318,91.87488,SO2,13,24,15
India,Assam,Guwahati,"IITG, Guwahati - PCBA",20-01-2024 22:00:00,26.2028636,91.70046436,PM10,88,307,194
India,Assam,Guwahati,"IITG, Guwahati - PCBA",20-01-2024 22:00:00,26.2028636,91.70046436,NH3,5,5,5
India,Assam,Guwahati,"LGBI Airport, Guwahati - PCBA",20-01-2024 22:00:00,26.10887,91.589544,PM2.5,137,401,264
India,Assam,Guwahati,"LGBI Airport, Guwahati - PCBA",20-01-2024 22:00:00,26.10887,91.589544,CO,65,89,80
India,Assam,Guwahati,"Pan Bazaar, Guwahati - PCBA",20-01-2024 22:00:00,26.187500,91.744194,PM2.5,79,381,279
India,Assam,Guwahati,"Pan Bazaar, Guwahati - PCBA",20-01-2024 22:00:00,26.187500,91.744194,NH3,3,5,4
India,Assam,Guwahati,"Pan Bazaar, Guwahati - PCBA",20-01-2024 22:00:00,26.187500,91.744194,CO,29,114,65
India,Assam,Guwahati,"Railway Colony, Guwahati - PCBA",20-01-2024 22:00:00,26.181742,91.78063,CO,26,121,65
India,Assam,Nagaon,"Christianpatty, Nagaon - PCBA",20-01-2024 22:00:00,26.349082,92.68449,PM2.5,67,476,246
India,Assam,Silchar,"Tarapur, Silchar - PCBA",20-01-2024 22:00:00,24.82827,92.79525,NH3,1,1,1
India,Assam,Silchar,"Tarapur, Silchar - PCBA",20-01-2024 22:00:00,24.82827,92.79525,SO2,3,9,6
India,Assam,Sivasagar,"Girls College, Sivasagar - PCBA",20-01-2024 22:00:00,26.987634,94.636574,PM10,14,93,54
India,Assam,Sivasagar,"Girls College, Sivasagar - PCBA",20-01-2024 22:00:00,26.987634,94.636574,NO2,9,28,17
India,Assam,Sivasagar,"Girls College, Sivasagar - PCBA",20-01-2024 22:00:00,26.987634,94.636574,CO,4,56,21
India,Bihar,Araria,"Kharahiya Basti, Araria - BSPCB",20-01-2024 22:00:00,26.146529,87.454184,PM10,107,490,248
India,Bihar,Araria,"Kharahiya Basti, Araria - BSPCB",20-01-2024 22:00:00,26.146529,87.454184,SO2,13,17,16
India,Bihar,Araria,"Kharahiya Basti, Araria - BSPCB",20-01-2024 22:00:00,26.146529,87.454184,CO,46,102,64
India,Bihar,Araria,"Kharahiya Basti, Araria - BSPCB",20-01-2024 22:00:00,26.146529,87.454184,OZONE,10,45,28
India,Bihar,Bhagalpur,"DM Office_Kachari Chowk, Bhagalpur - BSPCB",20-01-2024 22:00:00,25.251013,86.989001,PM10,143,272,186
India,Bihar,Gaya,"Collectorate, Gaya - BSPCB",20-01-2024 22:00:00,24.7955,84.9994,PM2.5,298,400,323
India,Bihar,Gaya,"Collectorate, Gaya - BSPCB",20-01-2024 22:00:00,24.7955,84.9994,OZONE,48,74,60
India,Bihar,Gaya,"Kareemganj, Gaya - BSPCB",20-01-2024 22:00:00,24.792403,84.992416,NH3,1,6,3
India,Bihar,Gaya,"Kareemganj, Gaya - BSPCB",20-01-2024 22:00:00,24.792403,84.992416,CO,6,96,42
India,Bihar,Gaya,"SFTI Kusdihra, Gaya - BSPCB",20-01-2024 22:00:00,24.762518,84.982348,NO2,20,62,34
India,Bihar,Katihar,"Mirchaibari, Katihar - BSPCB",20-01-2024 22:00:00,25.560083,87.553265,PM2.5,73,332,182
India,Bihar,Kishanganj,"SDM Office_Khagra, Kishanganj - BSPCB",20-01-2024 22:00:00,26.0881305,87.93840336,OZONE,12,34,25
India,Bihar,Manguraha,"Forest Rest House, Manguraha - BSPCB",20-01-2024 22:00:00,27.308328,84.531742,PM2.5,60,287,124
India,Bihar,Manguraha,"Forest Rest House, Manguraha - BSPCB",20-01-2024 22:00:00,27.308328,84.531742,NO2,14,62,27
India,Bihar,Manguraha,"Forest Rest House, Manguraha - BSPCB",20-01-2024 22:00:00,27.308328,84.531742,SO2,NA,NA,NA
India,Bihar,Munger,"Town Hall, Munger - BSPCB",20-01-2024 22:00:00,25.376776,86.471523,NH3,1,2,2
India,Bihar,Munger,"Town Hall, Munger - BSPCB",20-01-2024 22:00:00,25.376776,86.471523,SO2,38,46,42
India,Bihar,Muzaffarpur,"MIT-Daudpur Kothi, Muzaffarpur - BSPCB",20-01-2024 22:00:00,26.1403345,85.3650192,PM2.5,83,344,222
India,Bihar,Muzaffarpur,"MIT-Daudpur Kothi, Muzaffarpur - BSPCB",20-01-2024 22:00:00,26.1403345,85.3650192,NH3,3,5,4
India,Bihar,Muzaffarpur,"Muzaffarpur Collectorate, Muzaffarpur - BSPCB",20-01-2024 22:00:00,26.1209,85.3647,PM2.5,76,388,213
India,Bihar,Muzaffarpur,"Muzaffarpur Collectorate, Muzaffarpur - BSPCB",20-01-2024 22:00:00,26.1209,85.3647,CO,17,58,34
India,Bihar,Patna,"DRM Office Danapur, Patna - BSPCB",20-01-2024 22:00:00,25.586562,85.043586,CO,58,119,86
India,Bihar,Patna,"DRM Office Danapur, Patna - BSPCB",20-01-2024 22:00:00,25.586562,85.043586,OZONE,1,47,27
India,Bihar,Patna,"Govt. High School Shikarpur, Patna - BSPCB",20-01-2024 22:00:00,25.592539,85.227158,PM10,109,150,129
India,Bihar,Patna,"IGSC Planetarium Complex, Patna - BSPCB",20-01-2024 22:00:00,25.610369,85.132568,CO,12,106,22
India,Bihar,Patna,"Muradpur, Patna - BSPCB",20-01-2024 22:00:00,25.619651,85.147382,NH3,1,2,1
India,Bihar,Patna,"Muradpur, Patna - BSPCB",20-01-2024 22:00:00,25.619651,85.147382,OZONE,11,69,48
India,Bihar,Patna,"Rajbansi Nagar, Patna - BSPCB",20-01-2024 22:00:00,25.599486,85.113666,PM2.5,260,348,308
India,Bihar,Patna,"Rajbansi Nagar, Patna - BSPCB",20-01-2024 22:00:00,25.599486,85.113666,PM10,190,403,264
India,Bihar,Patna,"Rajbansi Nagar, Patna - BSPCB",20-01-2024 22:00:00,25.599486,85.113666,OZONE,2,56,29
India,Bihar,Purnia,"Mariam Nagar, Purnia - BSPCB",20-01-2024 22:00:00,25.366336,87.117468,PM2.5,83,363,188
India,Bihar,Purnia,"Mariam Nagar, Purnia - BSPCB",20-01-2024 22:00:00,25.366336,87.117468,SO2,18,22,19
India,Bihar,Rajgir,"Dangi Tola, Rajgir - BSPCB",20-01-2024 22:00:00,25.03280,85.41948,OZONE,20,26,24
India,Bihar,Saharsa,"Police Line, Saharsa - BSPCB",20-01-2024 22:00:00,25.892357,86.590325,PM10,167,248,203
India,Bihar,Saharsa,"Police Line, Saharsa - BSPCB",20-01-2024 22:00:00,25.892357,86.590325,SO2,26,29,28
India,Bihar,Saharsa,"Police Line, Saharsa - BSPCB",20-01-2024 22:00:00,25.892357,86.590325,OZONE,10,63,34
India,Bihar,Samastipur,"DM Office_Kasipur, Samastipur - BSPCB",20-01-2024 22:00:00,25.859655,85.77944,NH3,5,5,5
India,Bihar,Samastipur,"DM Office_Kasipur, Samastipur - BSPCB",20-01-2024 22:00:00,25.859655,85.77944,SO2,7,15,12
India,Bihar,Samastipur,"DM Office_Kasipur, Samastipur - BSPCB",20-01-2024 22:00:00,25.859655,85.77944,OZONE,9,17,12
India,Bihar,Sasaram,"Dada Peer, Sasaram - BSPCB",20-01-2024 22:00:00,24.952822,84.002396,NH3,3,7,5
India,Bihar,Sasaram,"Dada Peer, Sasaram - BSPCB",20-01-2024 22:00:00,24.952822,84.002396,SO2,21,23,22
India,Bihar,Siwan,"Chitragupta Nagar, Siwan - BSPCB",20-01-2024 22:00:00,26.2271665,84.3570427,CO,36,182,160
India,Chandigarh,Chandigarh,"Sector 22, Chandigarh - CPCC",20-01-2024 22:00:00,30.735567,76.775714,NH3,9,15,11
India,Chandigarh,Chandigarh,"Sector-25, Chandigarh - CPCC",20-01-2024 22:00:00,30.751462,76.762879,SO2,7,15,10
India,Chandigarh,Chandigarh,"Sector-53, Chandigarh - CPCC",20-01-2024 22:00:00,30.719859,76.738637,SO2,8,16,12
India,Chhattisgarh,Bhilai,"32Bungalows, Bhilai - CECB",20-01-2024 22:00:00,21.194815,81.314770,NH3,6,6,6
India,Chhattisgarh,Bhilai,"Civic Center, Bhilai - Bhilai Steel Plant",20-01-2024 22:00:00,21.185571,81.343175,NO2,10,18,12
India,Chhattisgarh,Bhilai,"Civic Center, Bhilai - Bhilai Steel Plant",20-01-2024 22:00:00,21.185571,81.343175,SO2,9,12,10
India,Chhattisgarh,Bhilai,"Civic Center, Bhilai - Bhilai Steel Plant",20-01-2024 22:00:00,21.185571,81.343175,OZONE,6,34,25
India,Chhattisgarh,Bhilai,"Hathkhoj, Bhilai - CECB",20-01-2024 22:00:00,21.224231,81.408350,PM10,102,125,110
India,Chhattisgarh,Bhilai,"Hathkhoj, Bhilai - CECB",20-01-2024 22:00:00,21.224231,81.408350,NO2,47,70,55
India,Chhattisgarh,Bhilai,"Hathkhoj, Bhilai - CECB",20-01-2024 22:00:00,21.224231,81.408350,CO,32,45,36
India,Chhattisgarh,Chhal,"Nawapara SECL Colony, Chhal - CECB",20-01-2024 22:00:00,22.118125,83.140608,PM10,44,78,62
India,Chhattisgarh,Korba,"Rampur, Korba - CECB",20-01-2024 22:00:00,22.368195,82.746431,CO,32,52,37
India,Chhattisgarh,Korba,"Urja Nagar, Korba - CECB",20-01-2024 22:00:00,22.348441,82.549611,PM10,NA,NA,NA
India,Chhattisgarh,Korba,"Urja Nagar, Korba - CECB",20-01-2024 22:00:00,22.348441,82.549611,NO2,NA,NA,NA
India,Chhattisgarh,Korba,"Urja Nagar, Korba - CECB",20-01-2024 22:00:00,22.348441,82.549611,NH3,NA,NA,NA
India,Chhattisgarh,Kunjemura,"OP Jindal School, Kunjemura - CECB",20-01-2024 22:00:00,22.126650,83.483212,SO2,1,26,10
India,Chhattisgarh,Milupara,"Govt. Higher Secondary School, Milupara - CECB",20-01-2024 22:00:00,22.1910172,83.5197009,PM2.5,44,77,60
India,Chhattisgarh,Milupara,"Govt. Higher Secondary School, Milupara - CECB",20-01-2024 22:00:00,22.1910172,83.5197009,NO2,18,65,34
India,Chhattisgarh,Milupara,"Govt. Higher Secondary School, Milupara - CECB",20-01-2024 22:00:00,22.1910172,83.5197009,OZONE,4,45,29
India,Chhattisgarh,Raipur,"AIIMS, Raipur - CECB",20-01-2024 22:00:00,21.258815,81.578979,NH3,4,4,4
India,Chhattisgarh,Raipur,"AIIMS, Raipur - CECB",20-01-2024 22:00:00,21.258815,81.578979,CO,42,60,56
India,Chhattisgarh,Raipur,"Bhatagaon New ISBT, Raipur - CECB",20-01-2024 22:00:00,21.219665,81.630094,PM2.5,63,93,72
India,Chhattisgarh,Raipur,"Bhatagaon New ISBT, Raipur - CECB",20-01-2024 22:00:00,21.219665,81.630094,SO2,NA,NA,NA
India,Chhattisgarh,Raipur,"Bhatagaon New ISBT, Raipur - CECB",20-01-2024 22:00:00,21.219665,81.630094,CO,38,66,61
India,Chhattisgarh,Tumidih,"OP Jindal Industrial Park, Tumidih - CECB",20-01-2024 22:00:00,22.06631475,83.33820077,NH3,1,3,2
India,Chhattisgarh,Tumidih,"OP Jindal Industrial Park, Tumidih - CECB",20-01-2024 22:00:00,22.06631475,83.33820077,CO,42,62,45
India,Delhi,Delhi,"Alipur, Delhi - DPCC",20-01-2024 22:00:00,28.815329,77.153010,NO2,23,78,41
India,Delhi,Delhi,"Alipur, Delhi - DPCC",20-01-2024 22:00:00,28.815329,77.153010,NH3,10,14,12
India,Delhi,Delhi,"Anand Vihar, Delhi - DPCC",20-01-2024 22:00:00,28.647622,77.3158090,NO2,47,150,78
India,Delhi,Delhi,"Anand Vihar, Delhi - DPCC",20-01-2024 22:00:00,28.647622,77.3158090,NH3,6,8,7
India,Delhi,Delhi,"Aya Nagar, Delhi - IMD",20-01-2024 22:00:00,28.4706914,77.1099364,PM10,137,299,208
India,Delhi,Delhi,"Aya Nagar, Delhi - IMD",20-01-2024 22:00:00,28.4706914,77.1099364,OZONE,6,34,19
India,Delhi,Delhi,"Bawana, Delhi - DPCC",20-01-2024 22:00:00,28.776200,77.051074,PM2.5,311,426,360
India,Delhi,Delhi,"Bawana, Delhi - DPCC",20-01-2024 22:00:00,28.776200,77.051074,PM10,157,406,259
India,Delhi,Delhi,"Bawana, Delhi - DPCC",20-01-2024 22:00:00,28.776200,77.051074,CO,51,95,74
India,Delhi,Delhi,"Burari Crossing, Delhi - IMD",20-01-2024 22:00:00,28.7256504,77.2011573,NO2,8,14,11
India,Delhi,Delhi,"CRRI Mathura Road, Delhi - IMD",20-01-2024 22:00:00,28.5512005,77.2735737,PM2.5,184,387,292
India,Delhi,Delhi,"DTU, Delhi - CPCB",20-01-2024 22:00:00,28.7500499,77.1112615,CO,30,65,48
India,Delhi,Delhi,"Dr. Karni Singh Shooting Range, Delhi - DPCC",20-01-2024 22:00:00,28.498571,77.264840,PM2.5,308,382,343
India,Delhi,Delhi,"IGI Airport (T3), Delhi - IMD",20-01-2024 22:00:00,28.5627763,77.1180053,CO,49,95,81
India,Delhi,Delhi,"IHBAS, Dilshad Garden, Delhi - CPCB",20-01-2024 22:00:00,28.6811736,77.3025234,PM10,111,240,161
India,Delhi,Delhi,"ITO, Delhi - CPCB",20-01-2024 22:00:00,28.628624,77.241060,NH3,5,11,7
India,Delhi,Delhi,"ITO, Delhi - CPCB",20-01-2024 22:00:00,28.628624,77.241060,SO2,3,137,26
India,Delhi,Delhi,"ITO, Delhi - CPCB",20-01-2024 22:00:00,28.628624,77.241060,CO,36,123,95
India,Delhi,Delhi,"ITO, Delhi - CPCB",20-01-2024 22:00:00,28.628624,77.241060,OZONE,26,51,38
India,Delhi,Delhi,"Jahangirpuri, Delhi - DPCC",20-01-2024 22:00:00,28.732820,77.170633,SO2,13,17,15
India,Delhi,Delhi,"Jawaharlal Nehru Stadium, Delhi - DPCC",20-01-2024 22:00:00,28.580280,77.233829,NO2,57,147,84
India,Delhi,Delhi,"Jawaharlal Nehru Stadium, Delhi - DPCC",20-01-2024 22:00:00,28.580280,77.233829,SO2,1,16,5
India,Delhi,Delhi,"Lodhi Road, Delhi - IITM",20-01-2024 22:00:00,28.588333,77.221667,PM10,NA,NA,NA
India,Delhi,Delhi,"Lodhi Road, Delhi - IMD",20-01-2024 22:00:00,28.5918245,77.2273074,OZONE,15,66,39
India,Delhi,Delhi,"Mandir Marg, Delhi - DPCC",20-01-2024 22:00:00,28.636429,77.201067,NH3,13,16,15
India,Delhi,Delhi,"Mandir Marg, Delhi - DPCC",20-01-2024 22:00:00,28.636429,77.201067,SO2,6,10,8
India,Delhi,Delhi,"Mundka, Delhi - DPCC",20-01-2024 22:00:00,28.684678,77.076574,SO2,2,14,4
India,Delhi,Delhi,"NSIT Dwarka, Delhi - CPCB",20-01-2024 22:00:00,28.60909,77.0325413,NO2,35,57,43
India,Delhi,Delhi,"NSIT Dwarka, Delhi - CPCB",20-01-2024 22:00:00,28.60909,77.0325413,OZONE,11,83,45
India,Delhi,Delhi,"Najafgarh, Delhi - DPCC",20-01-2024 22:00:00,28.570173,76.933762,PM10,140,229,176
India,Delhi,Delhi,"Narela, Delhi - DPCC",20-01-2024 22:00:00,28.822836,77.101981,OZONE,6,132,70
India,Delhi,Delhi,"New Moti Bagh, Delhi - MHUA",20-01-2024 22:00:00,28.57834,77.18400,NO2,1,6,3
India,Delhi,Delhi,"New Moti Bagh, Delhi - MHUA",20-01-2024 22:00:00,28.57834,77.18400,CO,32,108,76
India,Delhi,Delhi,"North Campus, DU, Delhi - IMD",20-01-2024 22:00:00,28.6573814,77.1585447,CO,38,105,67
India,Delhi,Delhi,"Okhla Phase-2, Delhi - DPCC",20-01-2024 22:00:00,28.530785,77.271255,NH3,12,16,13
India,Delhi,Delhi,"Punjabi Bagh, Delhi - DPCC",20-01-2024 22:00:00,28.674045,77.131023,NO2,82,105,89
India,Delhi,Delhi,"Pusa, Delhi - DPCC",20-01-2024 22:00:00,28.639652,77.146275,NO2,104,327,169
India,Delhi,Delhi,"Pusa, Delhi - DPCC",20-01-2024 22:00:00,28.639652,77.146275,CO,5,110,65
India,Delhi,Delhi,"R K Puram, Delhi - DPCC",20-01-2024 22:00:00,28.563262,77.186937,PM10,157,365,239
India,Delhi,Delhi,"Rohini, Delhi - DPCC",20-01-2024 22:00:00,28.732528,77.119920,PM10,152,386,217
India,Delhi,Delhi,"Rohini, Delhi - DPCC",20-01-2024 22:00:00,28.732528,77.119920,NH3,7,12,9
India,Delhi,Delhi,"Rohini, Delhi - DPCC",20-01-2024 22:00:00,28.732528,77.119920,SO2,9,16,12
India,Delhi,Delhi,"Rohini, Delhi - DPCC",20-01-2024 22:00:00,28.732528,77.119920,CO,31,101,83
India,Delhi,Delhi,"Shadipur, Delhi - CPCB",20-01-2024 22:00:00,28.6514781,77.1473105,NO2,40,79,59
India,Delhi,Delhi,"Sirifort, Delhi - CPCB",20-01-2024 22:00:00,28.5504249,77.2159377,PM2.5,307,405,351
India,Delhi,Delhi,"Sri Aurobindo Marg, Delhi - DPCC",20-01-2024 22:00:00,28.531346,77.190156,OZONE,2,17,10
India,Delhi,Delhi,"Vivek Vihar, Delhi - DPCC",20-01-2024 22:00:00,28.672342,77.315260,PM2.5,302,422,356
India,Delhi,Delhi,"Vivek Vihar, Delhi - DPCC",20-01-2024 22:00:00,28.672342,77.315260,NH3,5,10,8
India,Delhi,Delhi,"Wazirpur, Delhi - DPCC",20-01-2024 22:00:00,28.699793,77.165453,PM2.5,309,482,368
India,Delhi,Delhi,"Wazirpur, Delhi - DPCC",20-01-2024 22:00:00,28.699793,77.165453,PM10,159,480,290
India,Gujarat,Ahmedabad,"Chandkheda, Ahmedabad - IITM",20-01-2024 22:00:00,23.107969,72.574648,CO,28,80,48
India,Gujarat,Ahmedabad,"Chandkheda, Ahmedabad - IITM",20-01-2024 22:00:00,23.107969,72.574648,OZONE,21,24,22
India,Gujarat,Ahmedabad,"Maninagar, Ahmedabad - GPCB",20-01-2024 22:00:00,23.002657,72.591912,PM2.5,38,252,95
India,Gujarat,Ahmedabad,"Rakhial, Ahmedabad - IITM",20-01-2024 22:00:00,23.016834,72.625775,PM10,59,184,100
India,Gujarat,Ahmedabad,"Rakhial, Ahmedabad - IITM",20-01-2024 22:00:00,23.016834,72.625775,NO2,2,64,14
India,Gujarat,Ahmedabad,"Rakhial, Ahmedabad - IITM",20-01-2024 22:00:00,23.016834,72.625775,SO2,2,13,6
India,Gujarat,Ahmedabad,"SAC ISRO Bopal, Ahmedabad - IITM",20-01-2024 22:00:00,23.041137,72.456691,PM2.5,54,293,105
India,Gujarat,Ahmedabad,"SAC ISRO Satellite, Ahmedabad - IITM",20-01-2024 22:00:00,23.023389,72.515201,CO,26,46,33
India,Gujarat,Ahmedabad,"SVPI Airport Hansol, Ahmedabad - IITM",20-01-2024 22:00:00,23.076793,72.627874,PM10,66,190,105
India,Gujarat,Ahmedabad,"SVPI Airport Hansol, Ahmedabad - IITM",20-01-2024 22:00:00,23.076793,72.627874,CO,20,74,46
India,Gujarat,Ahmedabad,"SVPI Airport Hansol, Ahmedabad - IITM",20-01-2024 22:00:00,23.076793,72.627874,OZONE,5,20,14
India,Gujarat,Ahmedabad,"Sardar Vallabhbhai Patel Stadium, Ahmedabad - IITM",20-01-2024 22:00:00,23.043070,72.562968,NO2,12,14,13
India,Gujarat,Gandhinagar,"IIPHG Lekawada, Gandhinagar - IITM",20-01-2024 22:00:00,23.243639,72.68994,NH3,3,4,3
India,Gujarat,Gandhinagar,"IIPHG Lekawada, Gandhinagar - IITM",20-01-2024 22:00:00,23.243639,72.68994,OZONE,16,25,17
India,Gujarat,Gandhinagar,"Sector-10, Gandhinagar - GPCB",20-01-2024 22:00:00,23.221714,72.654328,NO2,NA,NA,NA
India,Gujarat,Vapi,"Phase-1 GIDC, Vapi - GPCB",20-01-2024 22:00:00,20.362421,72.918013,SO2,38,46,43
India,Gujarat,Vapi,"Phase-1 GIDC, Vapi - GPCB",20-01-2024 22:00:00,20.362421,72.918013,OZONE,1,5,3
India,Gujarat,Vatva,"Phase-4 GIDC, Vatva - GPCB",20-01-2024 22:00:00,22.969611,72.643500,PM2.5,31,133,62
India,Haryana,Bahadurgarh,"Arya Nagar, Bahadurgarh - HSPCB",20-01-2024 22:00:00,28.6701,76.9254,PM10,135,230,173
India,Haryana,Bahadurgarh,"Arya Nagar, Bahadurgarh - HSPCB",20-01-2024 22:00:00,28.6701,76.9254,SO2,8,9,8
India,Haryana,Bhiwani,"H.B. Colony, Bhiwani - HSPCB",20-01-2024 22:00:00,28.806223,76.141105,NO2,5,10,9
India,Haryana,Charkhi Dadri,"Mini Secretariat, Charkhi Dadri - HSPCB",20-01-2024 22:00:00,28.593883,76.270653,PM2.5,161,396,226
India,Haryana,Charkhi Dadri,"Mini Secretariat, Charkhi Dadri - HSPCB",20-01-2024 22:00:00,28.593883,76.270653,CO,23,114,72
India,Haryana,Charkhi Dadri,"Mini Secretariat, Charkhi Dadri - HSPCB",20-01-2024 22:00:00,28.593883,76.270653,OZONE,13,18,16
India,Haryana,Dharuhera,"Municipal Corporation Office, Dharuhera -  HSPCB",20-01-2024 22:00:00,28.206800,76.799700,PM2.5,82,312,160
India,Haryana,Dharuhera,"Municipal Corporation Office, Dharuhera -  HSPCB",20-01-2024 22:00:00,28.206800,76.799700,CO,30,113,75
India,Haryana,Dharuhera,"Municipal Corporation Office, Dharuhera -  HSPCB",20-01-2024 22:00:00,28.206800,76.799700,OZONE,2,43,19
India,Haryana,Faridabad,"New Industrial Town, Faridabad - HSPCB",20-01-2024 22:00:00,28.39072,77.30059,NO2,NA,NA,NA
India,Haryana,Faridabad,"New Industrial Town, Faridabad - HSPCB",20-01-2024 22:00:00,28.39072,77.30059,SO2,NA,NA,NA
India,Haryana,Faridabad,"New Industrial Town, Faridabad - HSPCB",20-01-2024 22:00:00,28.39072,77.30059,OZONE,44,80,63
India,Haryana,Fatehabad,"Huda Sector, Fatehabad - HSPCB",20-01-2024 22:00:00,29.503664,75.467934,PM10,88,183,147
India,Haryana,Fatehabad,"Huda Sector, Fatehabad - HSPCB",20-01-2024 22:00:00,29.503664,75.467934,OZONE,20,25,22
India,Haryana,Gurugram,"NISE Gwal Pahari, Gurugram - IMD",20-01-2024 22:00:00,28.422681,77.148944,NO2,1,20,14
India,Haryana,Gurugram,"Sector-51, Gurugram - HSPCB",20-01-2024 22:00:00,28.4227,77.0667,PM10,157,485,229
India,Haryana,Gurugram,"Sector-51, Gurugram - HSPCB",20-01-2024 22:00:00,28.4227,77.0667,OZONE,27,67,56
India,Haryana,Gurugram,"Teri Gram, Gurugram - HSPCB",20-01-2024 22:00:00,28.4275,77.1465,PM2.5,213,319,280
India,Haryana,Gurugram,"Teri Gram, Gurugram - HSPCB",20-01-2024 22:00:00,28.4275,77.1465,NO2,30,52,37
India,Haryana,Jind,"Police Lines, Jind - HSPCB",20-01-2024 22:00:00,29.307814,76.337619,PM10,117,192,146
India,Haryana,Jind,"Police Lines, Jind - HSPCB",20-01-2024 22:00:00,29.307814,76.337619,SO2,6,8,7
India,Haryana,Jind,"Police Lines, Jind - HSPCB",20-01-2024 22:00:00,29.307814,76.337619,CO,2,114,33
India,Haryana,Kaithal,"Rishi Nagar, Kaithal - HSPCB",20-01-2024 22:00:00,29.8006,76.4155,PM2.5,245,314,276
India,Haryana,Karnal,"Sector-12, Karnal - HSPCB",20-01-2024 22:00:00,29.695300,77.002700,PM10,102,126,111
India,Haryana,Karnal,"Sector-12, Karnal - HSPCB",20-01-2024 22:00:00,29.695300,77.002700,SO2,12,13,12
India,Haryana,Mandikhera,"General Hospital, Mandikhera - HSPCB",20-01-2024 22:00:00,27.9002,76.9938,NH3,18,21,19
India,Haryana,Mandikhera,"General Hospital, Mandikhera - HSPCB",20-01-2024 22:00:00,27.9002,76.9938,CO,21,106,67
India,Haryana,Manesar,"Sector-2 IMT, Manesar - HSPCB",20-01-2024 22:00:00,28.360699,76.936090,PM2.5,144,340,228
India,Haryana,Manesar,"Sector-2 IMT, Manesar - HSPCB",20-01-2024 22:00:00,28.360699,76.936090,OZONE,6,38,20
India,Haryana,Narnaul,"Shastri Nagar, Narnaul - HSPCB",20-01-2024 22:00:00,28.060249,76.113115,NH3,5,15,10
India,Haryana,Panchkula,"Sector-6, Panchkula - HSPCB ",20-01-2024 22:00:00,30.7057778,76.8531805555555,SO2,11,12,12
India,Haryana,Panipat,"Sector-18, Panipat - HSPCB",20-01-2024 22:00:00,29.497973,76.993331,PM10,55,110,101
India,Haryana,Panipat,"Sector-18, Panipat - HSPCB",20-01-2024 22:00:00,29.497973,76.993331,NH3,2,3,3
India,Haryana,Sirsa,"F-Block, Sirsa - HSPCB",20-01-2024 22:00:00,29.536400,75.015800,NO2,10,10,10
India,Haryana,Sirsa,"F-Block, Sirsa - HSPCB",20-01-2024 22:00:00,29.536400,75.015800,OZONE,25,71,48
India,Jharkhand,Dhanbad,"Kalakusuma, Dhanbad - DMC",20-01-2024 22:00:00,23.811548,86.481238,PM2.5,NA,NA,NA
India,Jharkhand,Dhanbad,"Kalakusuma, Dhanbad - DMC",20-01-2024 22:00:00,23.811548,86.481238,CO,84,107,95
India,Jharkhand,Pathardih,"Mohalbani Ghat, Pathardih - DMC",20-01-2024 22:00:00,23.669880,86.411725,PM2.5,NA,NA,NA
India,Karnataka,Bagalkot,"Vidayagiri, Bagalkot - KSPCB",20-01-2024 22:00:00,16.172806,75.659694,CO,24,64,42
India,Karnataka,Belgaum,"Ramteerth Nagar, Belgaum - KSPCB",20-01-2024 22:00:00,15.888653,74.541751,NO2,26,30,28
India,Karnataka,Belgaum,"Ramteerth Nagar, Belgaum - KSPCB",20-01-2024 22:00:00,15.888653,74.541751,SO2,8,9,8
India,Karnataka,Belgaum,"Ramteerth Nagar, Belgaum - KSPCB",20-01-2024 22:00:00,15.888653,74.541751,CO,36,54,45
India,Karnataka,Belgaum,"Ramteerth Nagar, Belgaum - KSPCB",20-01-2024 22:00:00,15.888653,74.541751,OZONE,19,20,19
