country,state,city,station,last_update,latitude,longitude,pollutant_id,pollutant_min,pollutant_max,pollutant_avg
India,Andhra_Pradesh,Amaravati,"Secretariat, Amaravati - APPCB",09-06-2024 21:00:00,16.5150833,80.5181667,NH3,3,4,4
India,Andhra_Pradesh,Amaravati,"Secretariat, Amaravati - APPCB",09-06-2024 21:00:00,16.5150833,80.5181667,SO2,13,21,17
India,Andhra_Pradesh,Anantapur,"Gulzarpet, Anantapur - APPCB",09-06-2024 21:00:00,14.675886,77.593027,PM2.5,NA,NA,NA
India,Andhra_Pradesh,Anantapur,"Gulzarpet, Anantapur - APPCB",09-06-2024 21:00:00,14.675886,77.593027,PM10,NA,NA,NA
India,Andhra_Pradesh,Anantapur,"Gulzarpet, Anantapur - APPCB",09-06-2024 21:00:00,14.675886,77.593027,NO2,NA,NA,NA
India,Andhra_Pradesh,Chittoor,"Gangineni Cheruvu, Chittoor - APPCB",09-06-2024 21:00:00,13.204880,79.097889,SO2,NA,NA,NA
India,Andhra_Pradesh,Chittoor,"Gangineni Cheruvu, Chittoor - APPCB",09-06-2024 21:00:00,13.204880,79.097889,CO,12,18,15
India,Andhra_Pradesh,Rajamahendravaram,"Anand Kala Kshetram, Rajamahendravaram - APPCB",09-06-2024 21:00:00,16.9872867,81.7363176,PM10,15,49,29
India,Andhra_Pradesh,Rajamahendravaram,"Anand Kala Kshetram, Rajamahendravaram - APPCB",09-06-2024 21:00:00,16.9872867,81.7363176,NH3,1,6,3
India,Andhra_Pradesh,Tirupati,"Tirumala, Tirupati - APPCB",09-06-2024 21:00:00,13.67,79.35,OZONE,19,37,29
India,Andhra_Pradesh,Tirupati,"Vaikuntapuram, Tirupati - APPCB",09-06-2024 21:00:00,13.615387,79.409230,OZONE,4,35,22
India,Andhra_Pradesh,Vijayawada,"HB Colony, Vijayawada - APPCB",09-06-2024 21:00:00,16.536107,80.594233,PM2.5,37,66,46
India,Andhra_Pradesh,Vijayawada,"Kanuru, Vijayawada - APPCB",09-06-2024 21:00:00,16.486692,80.699436,SO2,6,8,7
India,Andhra_Pradesh,Vijayawada,"Kanuru, Vijayawada - APPCB",09-06-2024 21:00:00,16.486692,80.699436,CO,36,36,36
India,Andhra_Pradesh,Vijayawada,"Rajiv Gandhi Park, Vijayawada - APPCB",09-06-2024 21:00:00,16.509717,80.612222,NH3,5,6,6
India,Andhra_Pradesh,Vijayawada,"Rajiv Gandhi Park, Vijayawada - APPCB",09-06-2024 21:00:00,16.509717,80.612222,SO2,9,11,10
India,Andhra_Pradesh,Vijayawada,"Rajiv Gandhi Park, Vijayawada - APPCB",09-06-2024 21:00:00,16.509717,80.612222,CO,36,36,36
India,Andhra_Pradesh,Vijayawada,"Rajiv Nagar, Vijayawada - APPCB",09-06-2024 21:00:00,16.554731,80.649110,OZONE,29,53,41
India,Andhra_Pradesh,Visakhapatnam,"GVM Corporation, Visakhapatnam - APPCB",09-06-2024 21:00:00,17.72,83.3,NO2,49,94,60
India,Arunachal_Pradesh,Naharlagun,"Naharlagun, Naharlagun - APSPCB",09-06-2024 21:00:00,27.103358,93.679645,NO2,3,3,3
India,Assam,Guwahati,"IITG, Guwahati - PCBA",09-06-2024 21:00:00,26.2028636,91.70046436,PM2.5,13,121,59
India,Assam,Guwahati,"IITG, Guwahati - PCBA",09-06-2024 21:00:00,26.2028636,91.70046436,NH3,5,5,5
India,Assam,Guwahati,"LGBI Airport, Guwahati - PCBA",09-06-2024 21:00:00,26.10887,91.589544,NO2,8,38,23
India,Assam,Guwahati,"Railway Colony, Guwahati - PCBA",09-06-2024 21:00:00,26.181742,91.78063,NO2,3,3,3
India,Assam,Guwahati,"Railway Colony, Guwahati - PCBA",09-06-2024 21:00:00,26.181742,91.78063,OZONE,1,11,5
India,Assam,Nalbari,"Bata Chowk, Nalbari - PCBA",09-06-2024 21:00:00,26.446912,91.439057,PM2.5,12,277,89
India,Assam,Nalbari,"Bata Chowk, Nalbari - PCBA",09-06-2024 21:00:00,26.446912,91.439057,NO2,15,31,22
India,Assam,Silchar,"Tarapur, Silchar - PCBA",09-06-2024 21:00:00,24.82827,92.79525,OZONE,1,2,1
India,Assam,Sivasagar,"Girls College, Sivasagar - PCBA",09-06-2024 21:00:00,26.987634,94.636574,SO2,3,28,9
India,Bihar,Arrah,"New DM Office, Arrah - BSPCB",09-06-2024 21:00:00,25.5626095,84.663264,OZONE,2,56,18
India,Bihar,Bhagalpur,"DM Office_Kachari Chowk, Bhagalpur - BSPCB",09-06-2024 21:00:00,25.251013,86.989001,CO,30,84,73
India,Bihar,Bihar Sharif,"D M Colony, Bihar Sharif - BSPCB",09-06-2024 21:00:00,25.204762,85.514960,PM2.5,12,243,80
India,Bihar,Chhapra,"Darshan Nagar, Chhapra - BSPCB",09-06-2024 21:00:00,25.7808257,84.7446768,NH3,6,13,9
India,Bihar,Gaya,"Kareemganj, Gaya - BSPCB",09-06-2024 21:00:00,24.792403,84.992416,NO2,20,22,21
India,Bihar,Gaya,"Kareemganj, Gaya - BSPCB",09-06-2024 21:00:00,24.792403,84.992416,CO,22,23,23
India,Bihar,Hajipur,"Industrial Area, Hajipur - BSPCB",09-06-2024 21:00:00,25.697189,85.245900,PM10,117,195,150
India,Bihar,Katihar,"Mirchaibari, Katihar - BSPCB",09-06-2024 21:00:00,25.560083,87.553265,PM10,63,154,98
India,Bihar,Katihar,"Mirchaibari, Katihar - BSPCB",09-06-2024 21:00:00,25.560083,87.553265,SO2,8,13,10
India,Bihar,Manguraha,"Forest Rest House, Manguraha - BSPCB",09-06-2024 21:00:00,27.308328,84.531742,PM2.5,NA,NA,NA
India,Bihar,Manguraha,"Forest Rest House, Manguraha - BSPCB",09-06-2024 21:00:00,27.308328,84.531742,PM10,NA,NA,NA
India,Bihar,Manguraha,"Forest Rest House, Manguraha - BSPCB",09-06-2024 21:00:00,27.308328,84.531742,NO2,15,26,21
India,Bihar,Manguraha,"Forest Rest House, Manguraha - BSPCB",09-06-2024 21:00:00,27.308328,84.531742,OZONE,2,25,16
India,Bihar,Motihari,"Gandak Colony, Motihari - BSPCB",09-06-2024 21:00:00,26.63086,84.90051,PM10,58,130,98
India,Bihar,Motihari,"Gandak Colony, Motihari - BSPCB",09-06-2024 21:00:00,26.63086,84.90051,NO2,11,44,20
India,Bihar,Motihari,"Gandak Colony, Motihari - BSPCB",09-06-2024 21:00:00,26.63086,84.90051,OZONE,18,80,51
India,Bihar,Munger,"Town Hall, Munger - BSPCB",09-06-2024 21:00:00,25.376776,86.471523,PM10,NA,NA,NA
India,Bihar,Munger,"Town Hall, Munger - BSPCB",09-06-2024 21:00:00,25.376776,86.471523,NO2,5,6,5
India,Bihar,Munger,"Town Hall, Munger - BSPCB",09-06-2024 21:00:00,25.376776,86.471523,SO2,19,35,27
India,Bihar,Muzaffarpur,"Buddha Colony, Muzaffarpur - BSPCB",09-06-2024 21:00:00,26.11442,85.39813,PM2.5,87,222,146
India,Bihar,Muzaffarpur,"MIT-Daudpur Kothi, Muzaffarpur - BSPCB",09-06-2024 21:00:00,26.1403345,85.3650192,NH3,NA,NA,NA
India,Bihar,Patna,"DRM Office Danapur, Patna - BSPCB",09-06-2024 21:00:00,25.586562,85.043586,NH3,2,3,3
India,Bihar,Patna,"Govt. High School Shikarpur, Patna - BSPCB",09-06-2024 21:00:00,25.592539,85.227158,NO2,33,36,35
India,Bihar,Patna,"Govt. High School Shikarpur, Patna - BSPCB",09-06-2024 21:00:00,25.592539,85.227158,SO2,9,12,10
India,Bihar,Patna,"IGSC Planetarium Complex, Patna - BSPCB",09-06-2024 21:00:00,25.610369,85.132568,SO2,4,6,5
India,Bihar,Patna,"Muradpur, Patna - BSPCB",09-06-2024 21:00:00,25.619651,85.147382,NO2,13,77,33
India,Bihar,Patna,"Muradpur, Patna - BSPCB",09-06-2024 21:00:00,25.619651,85.147382,SO2,4,12,9
India,Bihar,Patna,"Rajbansi Nagar, Patna - BSPCB",09-06-2024 21:00:00,25.599486,85.113666,NO2,8,42,18
India,Bihar,Rajgir,"Dangi Tola, Rajgir - BSPCB",09-06-2024 21:00:00,25.03280,85.41948,SO2,4,5,4
India,Bihar,Saharsa,"Police Line, Saharsa - BSPCB",09-06-2024 21:00:00,25.892357,86.590325,PM10,NA,NA,NA
India,Bihar,Samastipur,"DM Office_Kasipur, Samastipur - BSPCB",09-06-2024 21:00:00,25.859655,85.77944,NO2,4,5,4
India,Bihar,Samastipur,"DM Office_Kasipur, Samastipur - BSPCB",09-06-2024 21:00:00,25.859655,85.77944,OZONE,1,13,4
India,Bihar,Sasaram,"Dada Peer, Sasaram - BSPCB",09-06-2024 21:00:00,24.952822,84.002396,CO,44,99,63
India,Chandigarh,Chandigarh,"Sector 22, Chandigarh - CPCC",09-06-2024 21:00:00,30.735567,76.775714,NO2,14,44,28
India,Chandigarh,Chandigarh,"Sector 22, Chandigarh - CPCC",09-06-2024 21:00:00,30.735567,76.775714,SO2,6,45,20
India,Chandigarh,Chandigarh,"Sector 22, Chandigarh - CPCC",09-06-2024 21:00:00,30.735567,76.775714,OZONE,79,301,187
India,Chandigarh,Chandigarh,"Sector-53, Chandigarh - CPCC",09-06-2024 21:00:00,30.719859,76.738637,NH3,4,7,5
India,Chandigarh,Chandigarh,"Sector-53, Chandigarh - CPCC",09-06-2024 21:00:00,30.719859,76.738637,OZONE,26,71,64
India,Chhattisgarh,Bhilai,"32Bungalows, Bhilai - CECB",09-06-2024 21:00:00,21.194815,81.314770,PM2.5,25,78,39
India,Chhattisgarh,Bhilai,"32Bungalows, Bhilai - CECB",09-06-2024 21:00:00,21.194815,81.314770,NO2,10,18,13
India,Chhattisgarh,Bhilai,"32Bungalows, Bhilai - CECB",09-06-2024 21:00:00,21.194815,81.314770,NH3,6,7,6
India,Chhattisgarh,Bhilai,"Civic Center, Bhilai - Bhilai Steel Plant",09-06-2024 21:00:00,21.185571,81.343175,PM2.5,20,51,28
India,Chhattisgarh,Bhilai,"Civic Center, Bhilai - Bhilai Steel Plant",09-06-2024 21:00:00,21.185571,81.343175,OZONE,18,63,49
India,Chhattisgarh,Chhal,"Nawapara SECL Colony, Chhal - CECB",09-06-2024 21:00:00,22.118125,83.140608,PM10,35,123,58
India,Chhattisgarh,Chhal,"Nawapara SECL Colony, Chhal - CECB",09-06-2024 21:00:00,22.118125,83.140608,CO,10,64,35
India,Chhattisgarh,Korba,"Urja Nagar, Korba - CECB",09-06-2024 21:00:00,22.348441,82.549611,CO,22,46,24
India,Chhattisgarh,Milupara,"Govt. Higher Secondary School, Milupara - CECB",09-06-2024 21:00:00,22.1910172,83.5197009,PM2.5,NA,NA,NA
India,Chhattisgarh,Milupara,"Govt. Higher Secondary School, Milupara - CECB",09-06-2024 21:00:00,22.1910172,83.5197009,SO2,NA,NA,NA
India,Chhattisgarh,Raipur,"AIIMS, Raipur - CECB",09-06-2024 21:00:00,21.258815,81.578979,CO,17,32,23
India,Chhattisgarh,Raipur,"Bhatagaon New ISBT, Raipur - CECB",09-06-2024 21:00:00,21.219665,81.630094,PM2.5,12,33,22
India,Chhattisgarh,Raipur,"Bhatagaon New ISBT, Raipur - CECB",09-06-2024 21:00:00,21.219665,81.630094,PM10,17,64,36
India,Chhattisgarh,Raipur,"Krishak Nagar, Raipur - CECB",09-06-2024 21:00:00,21.237755,81.705301,SO2,8,27,16
India,Chhattisgarh,Raipur,"Krishak Nagar, Raipur - CECB",09-06-2024 21:00:00,21.237755,81.705301,CO,5,24,17
India,Chhattisgarh,Raipur,"Siltara Phase-II, Raipur - CECB",09-06-2024 21:00:00,21.371751,81.664929,PM2.5,26,149,65
India,Chhattisgarh,Raipur,"Siltara Phase-II, Raipur - CECB",09-06-2024 21:00:00,21.371751,81.664929,NH3,3,3,3
India,Chhattisgarh,Raipur,"Siltara Phase-II, Raipur - CECB",09-06-2024 21:00:00,21.371751,81.664929,SO2,10,50,18
India,Delhi,Delhi,"Anand Vihar, Delhi - DPCC",09-06-2024 21:00:00,28.647622,77.3158090,PM2.5,8,240,95
India,Delhi,Delhi,"Anand Vihar, Delhi - DPCC",09-06-2024 21:00:00,28.647622,77.3158090,PM10,131,257,180
India,Delhi,Delhi,"Anand Vihar, Delhi - DPCC",09-06-2024 21:00:00,28.647622,77.3158090,NH3,6,9,8
India,Delhi,Delhi,"Anand Vihar, Delhi - DPCC",09-06-2024 21:00:00,28.647622,77.3158090,OZONE,88,168,146
India,Delhi,Delhi,"Ashok Vihar, Delhi - DPCC",09-06-2024 21:00:00,28.695381,77.181665,PM2.5,18,167,68
India,Delhi,Delhi,"Ashok Vihar, Delhi - DPCC",09-06-2024 21:00:00,28.695381,77.181665,SO2,17,48,29
India,Delhi,Delhi,"Ashok Vihar, Delhi - DPCC",09-06-2024 21:00:00,28.695381,77.181665,OZONE,48,158,136
India,Delhi,Delhi,"Bawana, Delhi - DPCC",09-06-2024 21:00:00,28.776200,77.051074,SO2,8,85,34
India,Delhi,Delhi,"Burari Crossing, Delhi - IMD",09-06-2024 21:00:00,28.7256504,77.2011573,OZONE,1,83,68
India,Delhi,Delhi,"DTU, Delhi - CPCB",09-06-2024 21:00:00,28.7500499,77.1112615,PM2.5,48,292,114
India,Delhi,Delhi,"Dr. Karni Singh Shooting Range, Delhi - DPCC",09-06-2024 21:00:00,28.498571,77.264840,CO,20,103,37
India,Delhi,Delhi,"Dwarka-Sector 8, Delhi - DPCC ",09-06-2024 21:00:00,28.5710274,77.0719006,NH3,3,11,6
India,Delhi,Delhi,"Dwarka-Sector 8, Delhi - DPCC ",09-06-2024 21:00:00,28.5710274,77.0719006,OZONE,8,143,117
India,Delhi,Delhi,"IGI Airport (T3), Delhi - IMD",09-06-2024 21:00:00,28.5627763,77.1180053,NO2,16,64,32
India,Delhi,Delhi,"IGI Airport (T3), Delhi - IMD",09-06-2024 21:00:00,28.5627763,77.1180053,OZONE,3,57,41
India,Delhi,Delhi,"IHBAS, Dilshad Garden, Delhi - CPCB",09-06-2024 21:00:00,28.6811736,77.3025234,NH3,6,9,7
India,Delhi,Delhi,"IHBAS, Dilshad Garden, Delhi - CPCB",09-06-2024 21:00:00,28.6811736,77.3025234,OZONE,20,42,32
India,Delhi,Delhi,"ITO, Delhi - CPCB",09-06-2024 21:00:00,28.628624,77.241060,CO,26,56,34
India,Delhi,Delhi,"ITO, Delhi - CPCB",09-06-2024 21:00:00,28.628624,77.241060,OZONE,19,63,51
India,Delhi,Delhi,"Jahangirpuri, Delhi - DPCC",09-06-2024 21:00:00,28.732820,77.170633,NH3,8,18,12
India,Delhi,Delhi,"Jahangirpuri, Delhi - DPCC",09-06-2024 21:00:00,28.732820,77.170633,OZONE,12,89,76
India,Delhi,Delhi,"Jawaharlal Nehru Stadium, Delhi - DPCC",09-06-2024 21:00:00,28.580280,77.233829,PM2.5,13,77,44
India,Delhi,Delhi,"Jawaharlal Nehru Stadium, Delhi - DPCC",09-06-2024 21:00:00,28.580280,77.233829,PM10,86,211,135
India,Delhi,Delhi,"Lodhi Road, Delhi - IITM",09-06-2024 21:00:00,28.588333,77.221667,SO2,NA,NA,NA
India,Delhi,Delhi,"Major Dhyan Chand National Stadium, Delhi - DPCC",09-06-2024 21:00:00,28.611281,77.237738,PM10,72,181,132
India,Delhi,Delhi,"Major Dhyan Chand National Stadium, Delhi - DPCC",09-06-2024 21:00:00,28.611281,77.237738,NO2,11,141,46
India,Delhi,Delhi,"Major Dhyan Chand National Stadium, Delhi - DPCC",09-06-2024 21:00:00,28.611281,77.237738,NH3,5,7,6
India,Delhi,Delhi,"Mundka, Delhi - DPCC",09-06-2024 21:00:00,28.684678,77.076574,PM10,114,294,187
India,Delhi,Delhi,"NSIT Dwarka, Delhi - CPCB",09-06-2024 21:00:00,28.60909,77.0325413,PM10,141,211,171
India,Delhi,Delhi,"NSIT Dwarka, Delhi - CPCB",09-06-2024 21:00:00,28.60909,77.0325413,NH3,3,7,6
India,Delhi,Delhi,"NSIT Dwarka, Delhi - CPCB",09-06-2024 21:00:00,28.60909,77.0325413,CO,40,67,57
India,Delhi,Delhi,"Najafgarh, Delhi - DPCC",09-06-2024 21:00:00,28.570173,76.933762,NO2,5,36,14
India,Delhi,Delhi,"Najafgarh, Delhi - DPCC",09-06-2024 21:00:00,28.570173,76.933762,SO2,4,41,22
India,Delhi,Delhi,"Najafgarh, Delhi - DPCC",09-06-2024 21:00:00,28.570173,76.933762,OZONE,20,126,108
India,Delhi,Delhi,"Narela, Delhi - DPCC",09-06-2024 21:00:00,28.822836,77.101981,PM2.5,19,317,95
India,Delhi,Delhi,"Narela, Delhi - DPCC",09-06-2024 21:00:00,28.822836,77.101981,PM10,113,270,173
India,Delhi,Delhi,"Narela, Delhi - DPCC",09-06-2024 21:00:00,28.822836,77.101981,NH3,4,5,5
India,Delhi,Delhi,"Narela, Delhi - DPCC",09-06-2024 21:00:00,28.822836,77.101981,CO,27,60,36
India,Delhi,Delhi,"Nehru Nagar, Delhi - DPCC",09-06-2024 21:00:00,28.567890,77.250515,PM10,85,157,129
India,Delhi,Delhi,"Nehru Nagar, Delhi - DPCC",09-06-2024 21:00:00,28.567890,77.250515,CO,50,101,60
India,Delhi,Delhi,"New Moti Bagh, Delhi - MHUA",09-06-2024 21:00:00,28.57834,77.18400,NO2,5,42,14
India,Delhi,Delhi,"North Campus, DU, Delhi - IMD",09-06-2024 21:00:00,28.6573814,77.1585447,CO,59,102,62
India,Delhi,Delhi,"Okhla Phase-2, Delhi - DPCC",09-06-2024 21:00:00,28.530785,77.271255,PM10,109,173,146
India,Delhi,Delhi,"Okhla Phase-2, Delhi - DPCC",09-06-2024 21:00:00,28.530785,77.271255,NH3,8,12,10
India,Delhi,Delhi,"Okhla Phase-2, Delhi - DPCC",09-06-2024 21:00:00,28.530785,77.271255,CO,30,106,65
India,Delhi,Delhi,"Patparganj, Delhi - DPCC",09-06-2024 21:00:00,28.623763,77.287209,NH3,6,8,7
India,Delhi,Delhi,"Patparganj, Delhi - DPCC",09-06-2024 21:00:00,28.623763,77.287209,SO2,6,20,11
India,Delhi,Delhi,"Patparganj, Delhi - DPCC",09-06-2024 21:00:00,28.623763,77.287209,CO,14,96,40
India,Delhi,Delhi,"Pusa, Delhi - DPCC",09-06-2024 21:00:00,28.639652,77.146275,SO2,9,44,21
India,Delhi,Delhi,"Pusa, Delhi - DPCC",09-06-2024 21:00:00,28.639652,77.146275,OZONE,11,105,80
India,Delhi,Delhi,"R K Puram, Delhi - DPCC",09-06-2024 21:00:00,28.563262,77.186937,SO2,2,32,18
India,Delhi,Delhi,"Shadipur, Delhi - CPCB",09-06-2024 21:00:00,28.6514781,77.1473105,NH3,6,8,7
India,Delhi,Delhi,"Sirifort, Delhi - CPCB",09-06-2024 21:00:00,28.5504249,77.2159377,NO2,18,57,42
India,Delhi,Delhi,"Sirifort, Delhi - CPCB",09-06-2024 21:00:00,28.5504249,77.2159377,SO2,43,47,44
India,Delhi,Delhi,"Sirifort, Delhi - CPCB",09-06-2024 21:00:00,28.5504249,77.2159377,OZONE,6,65,42
India,Delhi,Delhi,"Sonia Vihar, Delhi - DPCC",09-06-2024 21:00:00,28.710508,77.249485,PM2.5,22,167,68
India,Delhi,Delhi,"Sonia Vihar, Delhi - DPCC",09-06-2024 21:00:00,28.710508,77.249485,OZONE,38,223,194
India,Delhi,Delhi,"Sri Aurobindo Marg, Delhi - DPCC",09-06-2024 21:00:00,28.531346,77.190156,PM10,103,173,145
India,Delhi,Delhi,"Vivek Vihar, Delhi - DPCC",09-06-2024 21:00:00,28.672342,77.315260,PM2.5,NA,NA,NA
India,Delhi,Delhi,"Vivek Vihar, Delhi - DPCC",09-06-2024 21:00:00,28.672342,77.315260,CO,54,103,67
India,Delhi,Delhi,"Wazirpur, Delhi - DPCC",09-06-2024 21:00:00,28.699793,77.165453,PM10,91,179,140
India,Delhi,Delhi,"Wazirpur, Delhi - DPCC",09-06-2024 21:00:00,28.699793,77.165453,NH3,13,14,14
India,Gujarat,Ahmedabad,"Chandkheda, Ahmedabad - IITM",09-06-2024 21:00:00,23.107969,72.574648,NO2,78,104,100
India,Gujarat,Ahmedabad,"Chandkheda, Ahmedabad - IITM",09-06-2024 21:00:00,23.107969,72.574648,OZONE,3,25,14
India,Gujarat,Ahmedabad,"Gyaspur, Ahmedabad - IITM",09-06-2024 21:00:00,22.977134,72.553024,PM10,86,162,113
India,Gujarat,Ahmedabad,"Gyaspur, Ahmedabad - IITM",09-06-2024 21:00:00,22.977134,72.553024,SO2,17,22,20
India,Gujarat,Ahmedabad,"Maninagar, Ahmedabad - GPCB",09-06-2024 21:00:00,23.002657,72.591912,NO2,24,53,34
India,Gujarat,Ahmedabad,"Maninagar, Ahmedabad - GPCB",09-06-2024 21:00:00,23.002657,72.591912,OZONE,15,79,67
India,Gujarat,Ahmedabad,"Rakhial, Ahmedabad - IITM",09-06-2024 21:00:00,23.016834,72.625775,PM2.5,42,72,52
India,Gujarat,Ahmedabad,"Rakhial, Ahmedabad - IITM",09-06-2024 21:00:00,23.016834,72.625775,PM10,59,105,74
India,Gujarat,Ahmedabad,"Rakhial, Ahmedabad - IITM",09-06-2024 21:00:00,23.016834,72.625775,OZONE,8,61,54
India,Gujarat,Ahmedabad,"Sardar Vallabhbhai Patel Stadium, Ahmedabad - IITM",09-06-2024 21:00:00,23.043070,72.562968,PM10,73,157,96
India,Gujarat,Ahmedabad,"Sardar Vallabhbhai Patel Stadium, Ahmedabad - IITM",09-06-2024 21:00:00,23.043070,72.562968,CO,48,51,50
India,Gujarat,Ankleshwar,"GIDC, Ankleshwar - GPCB",09-06-2024 21:00:00,21.613267,73.010555,NH3,2,3,3
India,Gujarat,Ankleshwar,"GIDC, Ankleshwar - GPCB",09-06-2024 21:00:00,21.613267,73.010555,CO,49,101,64
India,Gujarat,Gandhinagar,"Sector-10, Gandhinagar - GPCB",09-06-2024 21:00:00,23.221714,72.654328,CO,2,17,5
India,Haryana,Ambala,"Patti Mehar, Ambala - HSPCB",09-06-2024 21:00:00,30.379589,76.778328,PM10,35,97,69
India,Haryana,Ambala,"Patti Mehar, Ambala - HSPCB",09-06-2024 21:00:00,30.379589,76.778328,NO2,8,20,14
India,Haryana,Ambala,"Patti Mehar, Ambala - HSPCB",09-06-2024 21:00:00,30.379589,76.778328,NH3,5,12,8
India,Haryana,Bahadurgarh,"Arya Nagar, Bahadurgarh - HSPCB",09-06-2024 21:00:00,28.6701,76.9254,NH3,8,9,9
India,Haryana,Bhiwani,"H.B. Colony, Bhiwani - HSPCB",09-06-2024 21:00:00,28.806223,76.141105,NH3,6,6,6
India,Haryana,Dharuhera,"Municipal Corporation Office, Dharuhera -  HSPCB",09-06-2024 21:00:00,28.206800,76.799700,PM10,129,225,165
India,Haryana,Dharuhera,"Municipal Corporation Office, Dharuhera -  HSPCB",09-06-2024 21:00:00,28.206800,76.799700,NO2,44,110,71
India,Haryana,Dharuhera,"Municipal Corporation Office, Dharuhera -  HSPCB",09-06-2024 21:00:00,28.206800,76.799700,SO2,6,15,9
India,Haryana,Dharuhera,"Municipal Corporation Office, Dharuhera -  HSPCB",09-06-2024 21:00:00,28.206800,76.799700,CO,2,30,9
India,Haryana,Faridabad,"Sector 11, Faridabad - HSPCB",09-06-2024 21:00:00,28.376058,77.315741,NH3,6,6,6
India,Haryana,Faridabad,"Sector 11, Faridabad - HSPCB",09-06-2024 21:00:00,28.376058,77.315741,CO,28,46,33
India,Haryana,Faridabad,"Sector 30, Faridabad - HSPCB",09-06-2024 21:00:00,28.4417,77.3217,CO,9,84,19
India,Haryana,Faridabad,"Sector 30, Faridabad - HSPCB",09-06-2024 21:00:00,28.4417,77.3217,OZONE,9,40,36
India,Haryana,Faridabad,"Sector- 16A, Faridabad - HSPCB",09-06-2024 21:00:00,28.4088421,77.3099081,NO2,NA,NA,NA
India,Haryana,Faridabad,"Sector- 16A, Faridabad - HSPCB",09-06-2024 21:00:00,28.4088421,77.3099081,CO,36,101,69
India,Haryana,Fatehabad,"Huda Sector, Fatehabad - HSPCB",09-06-2024 21:00:00,29.503664,75.467934,PM2.5,11,68,38
India,Haryana,Fatehabad,"Huda Sector, Fatehabad - HSPCB",09-06-2024 21:00:00,29.503664,75.467934,PM10,86,111,98
India,Haryana,Gurugram,"Sector-51, Gurugram - HSPCB",09-06-2024 21:00:00,28.4227,77.0667,NO2,13,29,22
India,Haryana,Gurugram,"Teri Gram, Gurugram - HSPCB",09-06-2024 21:00:00,28.4275,77.1465,PM10,77,139,109
India,Haryana,Gurugram,"Vikas Sadan, Gurugram - HSPCB",09-06-2024 21:00:00,28.4501238,77.0263051,PM2.5,46,128,65
India,Haryana,Gurugram,"Vikas Sadan, Gurugram - HSPCB",09-06-2024 21:00:00,28.4501238,77.0263051,SO2,9,81,31
India,Haryana,Hisar,"Urban Estate-II, Hisar - HSPCB",09-06-2024 21:00:00,29.140560,75.744941,PM2.5,49,70,58
India,Haryana,Jind,"Police Lines, Jind - HSPCB",09-06-2024 21:00:00,29.307814,76.337619,NH3,1,7,2
India,Haryana,Jind,"Police Lines, Jind - HSPCB",09-06-2024 21:00:00,29.307814,76.337619,SO2,5,114,19
India,Haryana,Jind,"Police Lines, Jind - HSPCB",09-06-2024 21:00:00,29.307814,76.337619,CO,2,82,16
India,Haryana,Kaithal,"Rishi Nagar, Kaithal - HSPCB",09-06-2024 21:00:00,29.8006,76.4155,CO,2,16,4
India,Haryana,Kurukshetra,"Sector-7, Kurukshetra - HSPCB",09-06-2024 21:00:00,29.966942,76.875879,NO2,10,10,10
India,Haryana,Mandikhera,"General Hospital, Mandikhera - HSPCB",09-06-2024 21:00:00,27.9002,76.9938,OZONE,23,32,25
India,Haryana,Narnaul,"Shastri Nagar, Narnaul - HSPCB",09-06-2024 21:00:00,28.060249,76.113115,NO2,15,85,48
India,Haryana,Narnaul,"Shastri Nagar, Narnaul - HSPCB",09-06-2024 21:00:00,28.060249,76.113115,SO2,12,13,12
India,Haryana,Narnaul,"Shastri Nagar, Narnaul - HSPCB",09-06-2024 21:00:00,28.060249,76.113115,CO,7,40,9
India,Haryana,Palwal,"Shyam Nagar, Palwal - HSPCB",09-06-2024 21:00:00,28.1485564,77.3320667,PM2.5,46,76,59
India,Haryana,Panipat,"Sector-18, Panipat - HSPCB",09-06-2024 21:00:00,29.432304,76.972765,PM10,104,104,104
India,Haryana,Panipat,"Sector-18, Panipat - HSPCB",09-06-2024 21:00:00,29.432304,76.972765,CO,24,26,25
India,Haryana,Panipat,"Sector-18, Panipat - HSPCB",09-06-2024 21:00:00,29.432304,76.972765,OZONE,30,30,30
India,Haryana,Rohtak,"MD University, Rohtak - HSPCB",09-06-2024 21:00:00,28.52123,76.37138,OZONE,45,56,52
India,Haryana,Sirsa,"F-Block, Sirsa - HSPCB",09-06-2024 21:00:00,29.536400,75.015800,PM10,58,100,82
India,Haryana,Sirsa,"F-Block, Sirsa - HSPCB",09-06-2024 21:00:00,29.536400,75.015800,NO2,10,11,10
India,Haryana,Sirsa,"F-Block, Sirsa - HSPCB",09-06-2024 21:00:00,29.536400,75.015800,OZONE,13,73,28
India,Haryana,Sonipat,"Murthal, Sonipat - HSPCB",09-06-2024 21:00:00,29.027200,77.062100,SO2,13,29,20
India,Haryana,Yamuna Nagar,"Gobind Pura, Yamuna Nagar - HSPCB",09-06-2024 21:00:00,30.1480566,77.2893471,PM2.5,60,103,83
India,Haryana,Yamuna Nagar,"Gobind Pura, Yamuna Nagar - HSPCB",09-06-2024 21:00:00,30.1480566,77.2893471,PM10,79,123,106
India,Haryana,Yamuna Nagar,"Gobind Pura, Yamuna Nagar - HSPCB",09-06-2024 21:00:00,30.1480566,77.2893471,SO2,2,13,5
India,Haryana,Yamuna Nagar,"Gobind Pura, Yamuna Nagar - HSPCB",09-06-2024 21:00:00,30.1480566,77.2893471,CO,40,104,101
India,Himachal Pradesh,Baddi,"HIMUDA Complex Phase-1, Baddi - HPPCB",09-06-2024 21:00:00,30.943887,76.801991,CO,8,41,13
India,Jharkhand,Dhanbad,"Kalakusuma, Dhanbad - DMC",09-06-2024 21:00:00,23.811548,86.481238,SO2,NA,NA,NA
India,Jharkhand,Dhanbad,"Sardar Patel Nagar, Dhanbad - JSPCB",09-06-2024 21:00:00,23.80569,86.44268,PM10,85,228,131
India,Jharkhand,Dhanbad,"Sardar Patel Nagar, Dhanbad - JSPCB",09-06-2024 21:00:00,23.80569,86.44268,CO,82,194,166
India,Jharkhand,Dhanbad,"Sardar Patel Nagar, Dhanbad - JSPCB",09-06-2024 21:00:00,23.80569,86.44268,OZONE,18,27,24
India,Karnataka,Bagalkot,"Vidayagiri, Bagalkot - KSPCB",09-06-2024 21:00:00,16.172806,75.659694,PM2.5,NA,NA,NA
India,Karnataka,Bagalkot,"Vidayagiri, Bagalkot - KSPCB",09-06-2024 21:00:00,16.172806,75.659694,PM10,NA,NA,NA
India,Karnataka,Bagalkot,"Vidayagiri, Bagalkot - KSPCB",09-06-2024 21:00:00,16.172806,75.659694,CO,32,46,39
India,Karnataka,Belgaum,"Ramteerth Nagar, Belgaum - KSPCB",09-06-2024 21:00:00,15.888653,74.541751,PM2.5,NA,NA,NA
India,Karnataka,Bengaluru,"Bapuji Nagar, Bengaluru - KSPCB",09-06-2024 21:00:00,12.951913,77.539784,PM10,11,199,53
India,Karnataka,Bengaluru,"Hebbal, Bengaluru - KSPCB",09-06-2024 21:00:00,13.029152,77.585901,PM2.5,2,27,8
India,Karnataka,Bengaluru,"Hebbal, Bengaluru - KSPCB",09-06-2024 21:00:00,13.029152,77.585901,NH3,1,1,1
India,Karnataka,Bengaluru,"Hombegowda Nagar, Bengaluru - KSPCB",09-06-2024 21:00:00,12.938539,77.590100,OZONE,13,32,22
India,Karnataka,Bengaluru,"Kasturi Nagar, Bengaluru - KSPCB",09-06-2024 21:00:00,13.003872,77.664217,PM2.5,28,39,33
India,Karnataka,Bengaluru,"Kasturi Nagar, Bengaluru - KSPCB",09-06-2024 21:00:00,13.003872,77.664217,PM10,37,50,43
India,Karnataka,Bengaluru,"Kasturi Nagar, Bengaluru - KSPCB",09-06-2024 21:00:00,13.003872,77.664217,SO2,10,10,10
India,Karnataka,Bengaluru,"Peenya, Bengaluru - CPCB",09-06-2024 21:00:00,13.0270199,77.494094,PM10,42,66,51
India,Karnataka,Bengaluru,"Shivapura_Peenya, Bengaluru - KSPCB",09-06-2024 21:00:00,13.0246342,77.5080115,NH3,4,4,4
India,Karnataka,Bengaluru,"Shivapura_Peenya, Bengaluru - KSPCB",09-06-2024 21:00:00,13.0246342,77.5080115,SO2,3,6,4
India,Karnataka,Bengaluru,"Shivapura_Peenya, Bengaluru - KSPCB",09-06-2024 21:00:00,13.0246342,77.5080115,CO,16,26,20
India,Karnataka,Bengaluru,"Silk Board, Bengaluru - KSPCB",09-06-2024 21:00:00,12.917348,77.622813,PM2.5,2,30,14
India,Karnataka,Bidar,"Naubad, Bidar - KSPCB",09-06-2024 21:00:00,17.930306,77.482194,PM10,27,44,37
India,Karnataka,Bidar,"Naubad, Bidar - KSPCB",09-06-2024 21:00:00,17.930306,77.482194,NO2,7,8,7
India,Karnataka,Chamarajanagar,"Urban, Chamarajanagar - KSPCB",09-06-2024 21:00:00,11.55358,76.55521,NH3,2,2,2
India,Karnataka,Chikkaballapur,"Chikkaballapur Rural, Chikkaballapur - KSPCB",09-06-2024 21:00:00,13.428828,77.731418,SO2,18,25,22
India,Karnataka,Chikkamagaluru,"Kalyana Nagara, Chikkamagaluru - KSPCB",09-06-2024 21:00:00,13.328028,75.797056,PM10,20,78,28
India,Karnataka,Dharwad,"Kalabhavan, Dharwad - KSPCB",09-06-2024 21:00:00,15.459706,75.008381,NH3,2,3,3
India,Karnataka,Dharwad,"Kalabhavan, Dharwad - KSPCB",09-06-2024 21:00:00,15.459706,75.008381,SO2,2,103,44
India,Karnataka,Gadag,"Panchal Nagar, Gadag - KSPCB",09-06-2024 21:00:00,15.411456,75.638133,SO2,11,21,14
India,Karnataka,Hassan,"B.Katihalli, Hassan - KSPCB",09-06-2024 21:00:00,13.008556,76.125258,PM10,NA,NA,NA
India,Karnataka,Haveri,"Ashwini Nagar, Haveri - KSPCB",09-06-2024 21:00:00,14.791800,75.389600,PM2.5,3,28,11
India,Karnataka,Hubballi,"Lingaraj Nagar, Hubballi - KSPCB",09-06-2024 21:00:00,15.3714823,75.1160168,CO,7,18,15
India,Karnataka,Hubballi,"Lingaraj Nagar, Hubballi - KSPCB",09-06-2024 21:00:00,15.3714823,75.1160168,OZONE,26,42,38
India,Karnataka,Kalaburagi,"Lal Bahadur Shastri Nagar, Kalaburagi - KSPCB",09-06-2024 21:00:00,17.321993,76.822628,NO2,10,12,11
India,Karnataka,Kalaburagi,"Mahatma Basaveswar Colony, Kalaburgi - KSPCB",09-06-2024 21:00:00,17.336318,76.847397,NH3,2,3,2
India,Karnataka,Kalaburagi,"Mahatma Basaveswar Colony, Kalaburgi - KSPCB",09-06-2024 21:00:00,17.336318,76.847397,SO2,3,27,6
India,Karnataka,Kolar,"Tamaka Ind. Area, Kolar - KSPCB",09-06-2024 21:00:00,13.1276288,78.1570122,PM10,15,35,24
India,Karnataka,Kolar,"Tamaka Ind. Area, Kolar - KSPCB",09-06-2024 21:00:00,13.1276288,78.1570122,NO2,18,28,23
India,Karnataka,Kolar,"Tamaka Ind. Area, Kolar - KSPCB",09-06-2024 21:00:00,13.1276288,78.1570122,NH3,7,8,8
India,Karnataka,Madikeri,"Stuart Hill, Madikeri - KSPCB",09-06-2024 21:00:00,12.415911,75.735050,NO2,1,5,2
India,Karnataka,Mysuru,"Hebbal 1st Stage, Mysuru - KSPCB",09-06-2024 21:00:00,12.21041,76.37376,SO2,1,5,2
India,Karnataka,Raichur,"Haji Colony, Raichur - KSPCB",09-06-2024 21:00:00,16.208139,77.348417,PM10,9,49,28
India,Karnataka,Raichur,"Haji Colony, Raichur - KSPCB",09-06-2024 21:00:00,16.208139,77.348417,SO2,67,74,70
India,Karnataka,Ramanagara,"Vijay Nagar, Ramanagara - KSPCB",09-06-2024 21:00:00,12.733409,77.298051,PM2.5,2,21,9
India,Karnataka,Ramanagara,"Vijay Nagar, Ramanagara - KSPCB",09-06-2024 21:00:00,12.733409,77.298051,CO,6,32,14
India,Karnataka,Vijayapura,"Ibrahimpur, Vijayapura - KSPCB",09-06-2024 21:00:00,16.802639,75.722694,OZONE,13,16,15
India,Karnataka,Yadgir,"Collector Office, Yadgir - KSPCB",09-06-2024 21:00:00,16.7602,77.1428,PM2.5,NA,NA,NA
India,Karnataka,Yadgir,"Collector Office, Yadgir - KSPCB",09-06-2024 21:00:00,16.7602,77.1428,CO,NA,NA,NA
India,Kerala,Kannur,"Thavakkara, Kannur - Kerala PCB",09-06-2024 21:00:00,11.875000,75.373200,SO2,NA,NA,NA
India,Kerala,Kollam,"Polayathode, Kollam - Kerala PCB",09-06-2024 21:00:00,8.8787,76.6073,SO2,1,5,2
India,Kerala,Thiruvananthapuram,"Kariavattom, Thiruvananthapuram - Kerala PCB",09-06-2024 21:00:00,8.563700,76.886500,PM10,54,60,57
India,Kerala,Thrissur,"Corporation Ground, Thrissur - Kerala PCB",09-06-2024 21:00:00,10.532400,76.215900,PM10,56,68,64
India,Kerala,Thrissur,"Corporation Ground, Thrissur - Kerala PCB",09-06-2024 21:00:00,10.532400,76.215900,OZONE,26,32,29
India,Madhya Pradesh,Bhopal,"Idgah Hills, Bhopal - MPPCB",09-06-2024 21:00:00,23.264759,77.381568,PM2.5,42,173,73
India,Madhya Pradesh,Bhopal,"Idgah Hills, Bhopal - MPPCB",09-06-2024 21:00:00,23.264759,77.381568,PM10,69,161,101
India,Madhya Pradesh,Bhopal,"Paryavaran Parisar, Bhopal - MPPCB",09-06-2024 21:00:00,23.210494,77.425409,PM2.5,32,117,53
India,Madhya Pradesh,Bhopal,"T T Nagar, Bhopal - MPPCB",09-06-2024 21:00:00,23.233584,77.400574,OZONE,10,84,64
India,Madhya Pradesh,Dewas,"Bhopal Chauraha, Dewas - MPPCB",09-06-2024 21:00:00,22.9682591,76.064118,PM2.5,31,70,46
India,Madhya Pradesh,Dewas,"Bhopal Chauraha, Dewas - MPPCB",09-06-2024 21:00:00,22.9682591,76.064118,PM10,40,78,54
India,Madhya Pradesh,Dewas,"Bhopal Chauraha, Dewas - MPPCB",09-06-2024 21:00:00,22.9682591,76.064118,CO,28,57,33
India,Madhya Pradesh,Gwalior,"City Center, Gwalior - MPPCB",09-06-2024 21:00:00,26.203442,78.193251,PM10,78,236,153
India,Madhya Pradesh,Gwalior,"City Center, Gwalior - MPPCB",09-06-2024 21:00:00,26.203442,78.193251,NO2,6,62,16
India,Madhya Pradesh,Gwalior,"City Center, Gwalior - MPPCB",09-06-2024 21:00:00,26.203442,78.193251,CO,24,110,32
India,Madhya Pradesh,Gwalior,"Deen Dayal Nagar, Gwalior - MPPCB",09-06-2024 21:00:00,26.259242,78.216432,NO2,8,94,21
India,Madhya Pradesh,Gwalior,"Deen Dayal Nagar, Gwalior - MPPCB",09-06-2024 21:00:00,26.259242,78.216432,SO2,7,27,14
India,Madhya Pradesh,Gwalior,"Maharaj Bada, Gwalior - MPPCB",09-06-2024 21:00:00,26.200388,78.147714,PM2.5,27,183,83
India,Madhya Pradesh,Gwalior,"Maharaj Bada, Gwalior - MPPCB",09-06-2024 21:00:00,26.200388,78.147714,NH3,3,17,6
India,Madhya Pradesh,Gwalior,"Maharaj Bada, Gwalior - MPPCB",09-06-2024 21:00:00,26.200388,78.147714,OZONE,24,179,147
India,Madhya Pradesh,Gwalior,"Phool Bagh, Gwalior - Mondelez Ind. Food",09-06-2024 21:00:00,26.210536,78.171,PM2.5,34,310,134
India,Madhya Pradesh,Indore,"Chhoti Gwaltoli, Indore - MPPCB",09-06-2024 21:00:00,22.4310,75.5213,PM2.5,35,263,81
India,Madhya Pradesh,Indore,"Regional Park, Indore - IMC",09-06-2024 21:00:00,22.6780,75.8559,CO,22,40,24
India,Madhya Pradesh,Indore,"Residency Area, Indore - IMC",09-06-2024 21:00:00,22.7084,75.8815,CO,7,21,12
India,Madhya Pradesh,Jabalpur,"Suhagi, Jabalpur - JMC",09-06-2024 21:00:00,23.218135,79.957770,CO,NA,NA,NA
India,Madhya Pradesh,Jabalpur,"Suhagi, Jabalpur - JMC",09-06-2024 21:00:00,23.218135,79.957770,OZONE,NA,NA,NA
India,Madhya Pradesh,Maihar,"Sahilara, Maihar - KJS Cements",09-06-2024 21:00:00,24.2613009,80.7231783,CO,38,54,40
India,Madhya Pradesh,Pithampur,"Sector-2 Industrial Area, Pithampur - MPPCB",09-06-2024 21:00:00,22.624758,75.675238,CO,32,84,35
India,Madhya Pradesh,Ratlam,"Shasthri Nagar, Ratlam - IPCA Lab",09-06-2024 21:00:00,23.331731,75.045981,PM10,74,241,118
India,Madhya Pradesh,Sagar,"Civil Lines, Sagar - MPPCB",09-06-2024 21:00:00,23.838586,78.759431,CO,2,49,17
India,Madhya Pradesh,Satna,"Bandhavgar Colony, Satna - Birla Cement",09-06-2024 21:00:00,24.58434363,80.8549414,SO2,2,4,3
India,Madhya Pradesh,Satna,"Bandhavgar Colony, Satna - Birla Cement",09-06-2024 21:00:00,24.58434363,80.8549414,CO,36,129,54
India,Madhya Pradesh,Ujjain,"Mahakaleshwar Temple, Ujjain - MPPCB",09-06-2024 21:00:00,23.182719 ,75.768218 ,PM2.5,56,100,83
India,Maharashtra,Ahmednagar,"Tarakpur, Ahmednagar - MPCB",09-06-2024 21:00:00,19.10122,74.73339,CO,NA,NA,NA
India,Maharashtra,Akola,"Ramdaspeth, Akola - MPCB",09-06-2024 21:00:00,20.719516,77.000253,OZONE,15,67,50
India,Maharashtra,Amravati,"Shri Shivaji Science College, Amaravati - MPCB",09-06-2024 21:00:00,20.939198,77.765701,PM2.5,40,64,51
India,Maharashtra,Amravati,"Shri Shivaji Science College, Amaravati - MPCB",09-06-2024 21:00:00,20.939198,77.765701,PM10,46,106,68
India,Maharashtra,Aurangabad,"MIDC Chilkalthana, Aurangabad - MPCB",09-06-2024 21:00:00,19.875620,75.387310,PM10,45,170,80
India,Maharashtra,Aurangabad,"More Chowk Waluj, Aurangabad - MPCB",09-06-2024 21:00:00,19.8389439,75.244448,NO2,8,27,20
India,Maharashtra,Aurangabad,"More Chowk Waluj, Aurangabad - MPCB",09-06-2024 21:00:00,19.8389439,75.244448,SO2,2,6,4
India,Maharashtra,Aurangabad,"More Chowk Waluj, Aurangabad - MPCB",09-06-2024 21:00:00,19.8389439,75.244448,CO,2,78,28
India,Maharashtra,Aurangabad,"Rachnakar Colony, Aurangabad - MPCB",09-06-2024 21:00:00,19.863756,75.321188,NH3,2,3,2
India,Maharashtra,Aurangabad,"Rachnakar Colony, Aurangabad - MPCB",09-06-2024 21:00:00,19.863756,75.321188,CO,15,103,17
India,Maharashtra,Bhiwandi,"Gokul Nagar, Bhiwandi - MPCB",09-06-2024 21:00:00,19.309073,73.057223,CO,4,51,34
India,Maharashtra,Boisar,"Khaira, Boisar - MPCB",09-06-2024 21:00:00,19.786089,72.757971,NO2,12,35,20
India,Maharashtra,Dhule,"Deopur, Dhule - MPCB",09-06-2024 21:00:00,20.918946,74.776388,PM2.5,57,95,72
India,Maharashtra,Dhule,"Deopur, Dhule - MPCB",09-06-2024 21:00:00,20.918946,74.776388,SO2,3,21,11
India,Maharashtra,Jalgaon,"Prabhat Colony, Jalgaon - MPCB",09-06-2024 21:00:00,21.001264,75.565602,PM10,36,417,105
India,Maharashtra,Jalna,"Old MIDC, Jalna - MPCB",09-06-2024 21:00:00,19.854616,75.905894,PM2.5,20,58,32
India,Maharashtra,Kolhapur,"Shivaji University, Kolhapur - MPCB",09-06-2024 21:00:00,16.6870449,74.2505872,PM2.5,21,136,65
India,Maharashtra,Kolhapur,"Sinchan Bhavan, Kolhapur - MPCB",09-06-2024 21:00:00,16.7143745,74.2426398,PM2.5,20,35,25
India,Maharashtra,Kolhapur,"Sinchan Bhavan, Kolhapur - MPCB",09-06-2024 21:00:00,16.7143745,74.2426398,PM10,13,40,28
India,Maharashtra,Kolhapur,"Sinchan Bhavan, Kolhapur - MPCB",09-06-2024 21:00:00,16.7143745,74.2426398,NH3,7,8,8
India,Maharashtra,Mahad,"Kamble Tarf Birwadi, Mahad - MPCB",09-06-2024 21:00:00,18.1023399,73.4783687,SO2,5,43,11
India,Maharashtra,Mahad,"Kamble Tarf Birwadi, Mahad - MPCB",09-06-2024 21:00:00,18.1023399,73.4783687,OZONE,9,51,27
India,Maharashtra,Malegaon,"Mahesh Nagar, Malegaon - MPCB",09-06-2024 21:00:00,20.555712,74.529236,PM10,60,121,87
India,Maharashtra,Malegaon,"Mahesh Nagar, Malegaon - MPCB",09-06-2024 21:00:00,20.555712,74.529236,CO,18,46,28
India,Maharashtra,Mira-Bhayandar,"Bhayandar West, Mira-Bhayandar - MPCB",09-06-2024 21:00:00,19.296481,72.840923,NO2,17,51,23
India,Maharashtra,Mumbai,"Borivali East, Mumbai - MPCB",09-06-2024 21:00:00,19.2243333,72.8658113,NO2,NA,NA,NA
India,Maharashtra,Mumbai,"Borivali East, Mumbai - MPCB",09-06-2024 21:00:00,19.2243333,72.8658113,SO2,NA,NA,NA
India,Maharashtra,Mumbai,"Byculla, Mumbai - BMC",09-06-2024 21:00:00,18.9767,72.8380,PM10,14,39,26
India,Maharashtra,Mumbai,"Byculla, Mumbai - BMC",09-06-2024 21:00:00,18.9767,72.8380,NH3,2,2,2
India,Maharashtra,Mumbai,"Byculla, Mumbai - BMC",09-06-2024 21:00:00,18.9767,72.8380,SO2,1,2,1
India,Maharashtra,Mumbai,"Chakala-Andheri East, Mumbai - IITM",09-06-2024 21:00:00,19.11074,72.86084,NO2,29,52,36
India,Maharashtra,Mumbai,"Colaba, Mumbai - MPCB",09-06-2024 21:00:00,18.910000,72.820000,PM10,18,89,46
India,Maharashtra,Mumbai,"Deonar, Mumbai - IITM",09-06-2024 21:00:00,19.04946,72.9230,PM10,18,94,57
India,Maharashtra,Mumbai,"Ghatkopar, Mumbai - BMC",09-06-2024 21:00:00,19.083694,72.920967,PM2.5,5,22,10
India,Maharashtra,Mumbai,"Ghatkopar, Mumbai - BMC",09-06-2024 21:00:00,19.083694,72.920967,PM10,7,40,23
India,Maharashtra,Mumbai,"Kandivali West, Mumbai - BMC",09-06-2024 21:00:00,19.215859,72.831718,SO2,1,3,2
India,Maharashtra,Mumbai,"Kandivali West, Mumbai - BMC",09-06-2024 21:00:00,19.215859,72.831718,CO,6,36,20
India,Maharashtra,Mumbai,"Mindspace-Malad West, Mumbai - MPCB",09-06-2024 21:00:00,19.1878657,72.8304069,NH3,7,8,8
India,Maharashtra,Mumbai,"Mindspace-Malad West, Mumbai - MPCB",09-06-2024 21:00:00,19.1878657,72.8304069,SO2,5,17,8
India,Maharashtra,Mumbai,"Mindspace-Malad West, Mumbai - MPCB",09-06-2024 21:00:00,19.1878657,72.8304069,CO,20,32,22
India,Maharashtra,Mumbai,"Navy Nagar-Colaba, Mumbai - IITM",09-06-2024 21:00:00,18.897756,72.813320,PM2.5,14,30,20
India,Maharashtra,Mumbai,"Navy Nagar-Colaba, Mumbai - IITM",09-06-2024 21:00:00,18.897756,72.813320,PM10,14,67,36
India,Maharashtra,Mumbai,"Navy Nagar-Colaba, Mumbai - IITM",09-06-2024 21:00:00,18.897756,72.813320,NO2,47,82,61
India,Maharashtra,Mumbai,"Navy Nagar-Colaba, Mumbai - IITM",09-06-2024 21:00:00,18.897756,72.813320,CO,8,34,32
India,Maharashtra,Mumbai,"Navy Nagar-Colaba, Mumbai - IITM",09-06-2024 21:00:00,18.897756,72.813320,OZONE,24,71,50
India,Maharashtra,Mumbai,"Powai, Mumbai - MPCB",09-06-2024 21:00:00,19.137500,72.915056,CO,34,43,39
India,Maharashtra,Mumbai,"Sewri, Mumbai - BMC",09-06-2024 21:00:00,19.000084,72.856730,PM10,17,43,28
India,Maharashtra,Mumbai,"Sewri, Mumbai - BMC",09-06-2024 21:00:00,19.000084,72.856730,OZONE,9,76,55
India,Maharashtra,Mumbai,"Siddharth Nagar-Worli, Mumbai - IITM",09-06-2024 21:00:00,19.000083,72.813993,NO2,NA,NA,NA
India,Maharashtra,Mumbai,"Vasai West, Mumbai - MPCB",09-06-2024 21:00:00,19.383200,72.820400,NH3,4,9,4
India,Maharashtra,Mumbai,"Vasai West, Mumbai - MPCB",09-06-2024 21:00:00,19.383200,72.820400,SO2,15,106,24
India,Maharashtra,Mumbai,"Vile Parle West, Mumbai - MPCB",09-06-2024 21:00:00,19.10861,72.83622,NH3,NA,NA,NA
India,Maharashtra,Mumbai,"Vile Parle West, Mumbai - MPCB",09-06-2024 21:00:00,19.10861,72.83622,OZONE,NA,NA,NA
India,Maharashtra,Nagpur,"Ambazari, Nagpur - MPCB",09-06-2024 21:00:00,21.121801,79.04952,PM10,63,116,86
India,Maharashtra,Nagpur,"Ambazari, Nagpur - MPCB",09-06-2024 21:00:00,21.121801,79.04952,NH3,2,14,6
India,Maharashtra,Nagpur,"Ambazari, Nagpur - MPCB",09-06-2024 21:00:00,21.121801,79.04952,OZONE,5,152,118
India,Maharashtra,Nagpur,"Mahal, Nagpur - MPCB",09-06-2024 21:00:00,21.14472,79.107595,NO2,13,40,22
India,Maharashtra,Nagpur,"Opp GPO Civil Lines, Nagpur - MPCB",09-06-2024 21:00:00,21.152875,79.0517531,CO,13,60,29
India,Maharashtra,Nashik,"Gangapur Road, Nashik - MPCB",09-06-2024 21:00:00,20.0073285,73.7762427,CO,11,56,42
India,Maharashtra,Nashik,"Hirawadi, Nashik - MPCB",09-06-2024 21:00:00,20.021503,73.813844,CO,8,45,38
India,Maharashtra,Nashik,"MIDC Ambad, Nashik - MPCB",09-06-2024 21:00:00,19.950220,73.731480,CO,15,84,51
India,Maharashtra,Nashik,"Pandav Nagari, Nashik - MPCB",09-06-2024 21:00:00,19.9591346,73.7788008,PM2.5,29,79,55
India,Maharashtra,Nashik,"Pandav Nagari, Nashik - MPCB",09-06-2024 21:00:00,19.9591346,73.7788008,OZONE,24,71,57
India,Maharashtra,Navi Mumbai,"Kopripada-Vashi, Navi Mumbai - MPCB",09-06-2024 21:00:00,19.090337,73.014232,SO2,4,6,5
India,Maharashtra,Navi Mumbai,"Mahape, Navi Mumbai - MPCB",09-06-2024 21:00:00,19.1135051,73.008978,PM2.5,NA,NA,NA
India,Maharashtra,Navi Mumbai,"Mahape, Navi Mumbai - MPCB",09-06-2024 21:00:00,19.1135051,73.008978,NO2,NA,NA,NA
India,Maharashtra,Navi Mumbai,"Mahape, Navi Mumbai - MPCB",09-06-2024 21:00:00,19.1135051,73.008978,SO2,NA,NA,NA
India,Maharashtra,Navi Mumbai,"Nerul, Navi Mumbai - MPCB",09-06-2024 21:00:00,19.008751,73.016620,PM10,16,73,41
India,Maharashtra,Navi Mumbai,"Nerul, Navi Mumbai - MPCB",09-06-2024 21:00:00,19.008751,73.016620,NO2,19,29,23
India,Maharashtra,Navi Mumbai,"Sanpada, Navi Mumbai - MPCB",09-06-2024 21:00:00,19.0575752,73.0151367,PM2.5,9,36,22
India,Maharashtra,Navi Mumbai,"Sanpada, Navi Mumbai - MPCB",09-06-2024 21:00:00,19.0575752,73.0151367,SO2,1,4,2
India,Maharashtra,Navi Mumbai,"Sector-19A Nerul, Navi Mumbai - IITM",09-06-2024 21:00:00,19.044,73.0325,NH3,23,65,46
India,Maharashtra,Navi Mumbai,"Sector-2E Kalamboli, Navi Mumbai - MPCB",09-06-2024 21:00:00,19.02579,73.10297,PM2.5,10,105,54
India,Maharashtra,Navi Mumbai,"Sector-2E Kalamboli, Navi Mumbai - MPCB",09-06-2024 21:00:00,19.02579,73.10297,NH3,1,2,2
India,Maharashtra,Navi Mumbai,"Tondare-Taloja, Navi Mumbai - MPCB",09-06-2024 21:00:00,19.0630,73.1209,CO,NA,NA,NA
India,Maharashtra,Parbhani,"Masoom Colony, Parbhani - MPCB",09-06-2024 21:00:00,19.265594,76.761463,NH3,3,7,5
India,Maharashtra,Pimpri-Chinchwad,"Gavalinagar, Pimpri Chinchwad - MPCB",09-06-2024 21:00:00,18.63673,73.82487,PM2.5,19,44,30
India,Maharashtra,Pimpri-Chinchwad,"Gavalinagar, Pimpri Chinchwad - MPCB",09-06-2024 21:00:00,18.63673,73.82487,NH3,NA,NA,NA
India,Maharashtra,Pune,"Alandi, Pune - IITM",09-06-2024 21:00:00,18.675076,73.892743,PM2.5,16,304,44
India,Maharashtra,Pune,"Alandi, Pune - IITM",09-06-2024 21:00:00,18.675076,73.892743,NO2,8,42,17
India,Maharashtra,Pune,"Karve Road, Pune - MPCB",09-06-2024 21:00:00,18.5011743,73.8165527,OZONE,NA,NA,NA
India,Maharashtra,Pune,"Mhada Colony, Pune - IITM",09-06-2024 21:00:00,18.573040,73.927715,CO,35,127,71
India,Maharashtra,Pune,"Revenue Colony-Shivajinagar, Pune - IITM",09-06-2024 21:00:00,18.530085,73.849598,PM10,16,61,36
India,Maharashtra,Pune,"Revenue Colony-Shivajinagar, Pune - IITM",09-06-2024 21:00:00,18.530085,73.849598,NO2,4,29,14
India,Maharashtra,Pune,"Savitribai Phule Pune University, Pune - MPCB",09-06-2024 21:00:00,18.547056,73.826908,NO2,22,44,30
India,Maharashtra,Sangli,"Vijay Nagar, Sangli - MPCB",09-06-2024 21:00:00, 16.5038,74.3623,SO2,7,12,10
India,Maharashtra,Sangli,"Vijay Nagar, Sangli - MPCB",09-06-2024 21:00:00, 16.5038,74.3623,CO,12,28,14
India,Maharashtra,Solapur,"Dnyaneshwar Nagar, Solapur - MPCB",09-06-2024 21:00:00,17.6336264,75.9132495,CO,20,41,26
India,Maharashtra,Solapur,"Ratandeep Housing Society, Solapur - MPCB",09-06-2024 21:00:00,17.65439,75.90649,PM10,46,89,65
India,Maharashtra,Solapur,"Ratandeep Housing Society, Solapur - MPCB",09-06-2024 21:00:00,17.65439,75.90649,NO2,1,41,18
India,Maharashtra,Thane,"Kasarvadavali, Thane - MPCB",09-06-2024 21:00:00,19.26777,72.97182,NO2,9,41,22
India,Maharashtra,Thane,"Pimpleshwar Mandir, Thane - MPCB",09-06-2024 21:00:00,19.192056,72.9585188,NH3,2,4,3
India,Maharashtra,Thane,"Upvan Fort, Thane - MPCB",09-06-2024 21:00:00,19.222279,72.957979,NO2,8,33,16
India,Maharashtra,Thane,"Upvan Fort, Thane - MPCB",09-06-2024 21:00:00,19.222279,72.957979,NH3,4,6,4
India,Maharashtra,Thane,"Upvan Fort, Thane - MPCB",09-06-2024 21:00:00,19.222279,72.957979,CO,8,43,24
India,Maharashtra,Ulhasnagar,"Sidhi Vinayak Nagar, Ulhasnagar - MPCB",09-06-2024 21:00:00,19.235581,73.159121,PM2.5,39,80,63
India,Maharashtra,Ulhasnagar,"Sidhi Vinayak Nagar, Ulhasnagar - MPCB",09-06-2024 21:00:00,19.235581,73.159121,CO,14,39,33
India,Maharashtra,Virar,"Bolinj, Virar - MPCB",09-06-2024 21:00:00,19.4458210,72.7988231,PM10,27,99,54
India,Maharashtra,Virar,"Bolinj, Virar - MPCB",09-06-2024 21:00:00,19.4458210,72.7988231,OZONE,26,66,51
India,Manipur,Imphal,"Manipur University, Imphal - Manipur PCB",09-06-2024 21:00:00,24.7524239,93.9286218,CO,8,20,11
India,Manipur,Imphal,"Manipur University, Imphal - Manipur PCB",09-06-2024 21:00:00,24.7524239,93.9286218,OZONE,1,38,19
India,Meghalaya,Shillong,"Lumpyngngad, Shillong - Meghalaya PCB",09-06-2024 21:00:00,25.5586,91.8985,NO2,1,2,1
India,Mizoram,Aizawl,"Sikulpuikawn, Aizawl - Mizoram PCB",09-06-2024 21:00:00,23.7176342,92.7192841,PM2.5,1,23,11
India,Mizoram,Aizawl,"Sikulpuikawn, Aizawl - Mizoram PCB",09-06-2024 21:00:00,23.7176342,92.7192841,NH3,1,2,1
India,Nagaland,Kohima,"PWD Juction, Kohima - NPCB",09-06-2024 21:00:00,25.6635413,94.0989878,NH3,1,1,1
India,Nagaland,Kohima,"PWD Juction, Kohima - NPCB",09-06-2024 21:00:00,25.6635413,94.0989878,SO2,36,41,38
India,Odisha,Angul,"Hakimapada, Angul - OSPCB",09-06-2024 21:00:00,20.832874,85.104082,PM2.5,42,123,65
India,Odisha,Balasore,"Kalidaspur, Balasore - OSPCB",09-06-2024 21:00:00,21.51161,86.89088,PM2.5,8,82,38
India,Odisha,Balasore,"Kalidaspur, Balasore - OSPCB",09-06-2024 21:00:00,21.51161,86.89088,NO2,5,36,15
India,Odisha,Balasore,"Kalidaspur, Balasore - OSPCB",09-06-2024 21:00:00,21.51161,86.89088,NH3,1,2,1
India,Odisha,Barbil,"Forest Office, Barbil - OSPCB",09-06-2024 21:00:00,22.1166054,85.3945546,SO2,6,48,17
India,Odisha,Baripada,"Meher Colony, Baripada - OSPCB",09-06-2024 21:00:00,21.941841,86.728318,NH3,1,3,2
India,Odisha,Bhubaneswar,"Lingraj Mandir, Bhubaneswar - OSPCB",09-06-2024 21:00:00,20.240790,85.836784,PM10,22,125,66
India,Odisha,Bhubaneswar,"Patia, Bhubaneswar - OSPCB",09-06-2024 21:00:00,20.34652,85.81630,NH3,1,2,1
India,Odisha,Bhubaneswar,"Patia, Bhubaneswar - OSPCB",09-06-2024 21:00:00,20.34652,85.81630,CO,17,40,32
India,Odisha,Byasanagar,"Ferro Chrome Colony, Byasanagar - OSPCB",09-06-2024 21:00:00,20.94185,86.11510,NO2,NA,NA,NA
India,Odisha,Cuttack,"CDA Area, Cuttack - OSPCB",09-06-2024 21:00:00,20.48891     ,85.84768     ,CO,10,39,28
India,Odisha,Keonjhar,"Jagamohanpur, Keonjhar - OSPCB",09-06-2024 21:00:00,21.643900,85.599355,PM10,56,109,82
India,Odisha,Keonjhar,"Jagamohanpur, Keonjhar - OSPCB",09-06-2024 21:00:00,21.643900,85.599355,OZONE,1,88,35
India,Odisha,Nayagarh,"Dabuna, Nayagarh - OSPCB",09-06-2024 21:00:00,21.847279,85.416905,SO2,2,18,6
India,Odisha,Nayagarh,"Dabuna, Nayagarh - OSPCB",09-06-2024 21:00:00,21.847279,85.416905,OZONE,18,46,41
India,Odisha,Rairangpur,"Divisional Forest Office, Rairangpur - OSPCB",09-06-2024 21:00:00,22.265816,86.174829,NO2,2,3,2
India,Odisha,Rairangpur,"Divisional Forest Office, Rairangpur - OSPCB",09-06-2024 21:00:00,22.265816,86.174829,SO2,15,19,17
India,Odisha,Rairangpur,"Divisional Forest Office, Rairangpur - OSPCB",09-06-2024 21:00:00,22.265816,86.174829,CO,13,29,18
India,Odisha,Rourkela,"Fertilizer Township, Rourkela - OSPCB",09-06-2024 21:00:00,22.18972222,84.86277778,PM10,88,144,116
India,Odisha,Rourkela,"Fertilizer Township, Rourkela - OSPCB",09-06-2024 21:00:00,22.18972222,84.86277778,NO2,11,21,15
India,Odisha,Rourkela,"Fertilizer Township, Rourkela - OSPCB",09-06-2024 21:00:00,22.18972222,84.86277778,CO,12,24,18
India,Odisha,Rourkela,"Raghunathpali, Rourkela - OSPCB",09-06-2024 21:00:00,22.220833,84.809444,NH3,1,3,2
India,Odisha,Rourkela,"Raghunathpali, Rourkela - OSPCB",09-06-2024 21:00:00,22.220833,84.809444,CO,26,55,35
India,Odisha,Suakati,"OMC Colony, Suakati - OSPCB",09-06-2024 21:00:00,21.606865,85.510538,NH3,4,4,4
India,Odisha,Suakati,"OMC Colony, Suakati - OSPCB",09-06-2024 21:00:00,21.606865,85.510538,CO,16,20,19
India,Odisha,Talcher,"Talcher Coalfields,Talcher - OSPCB",09-06-2024 21:00:00,20.9360711,85.1707021,NH3,3,4,4
India,Odisha,Tensa,"Barsua Iron Ore Mines, Tensa - OSPCB",09-06-2024 21:00:00,21.869985,85.167016,NO2,12,52,26
India,Odisha,Tensa,"Barsua Iron Ore Mines, Tensa - OSPCB",09-06-2024 21:00:00,21.869985,85.167016,CO,24,34,30
India,Puducherry,Puducherry,"Jawahar Nagar, Puducherry - PPCC",09-06-2024 21:00:00,11.9309,79.8027,PM10,10,52,25
India,Puducherry,Puducherry,"Jawahar Nagar, Puducherry - PPCC",09-06-2024 21:00:00,11.9309,79.8027,NO2,4,30,8
India,Puducherry,Puducherry,"Jawahar Nagar, Puducherry - PPCC",09-06-2024 21:00:00,11.9309,79.8027,CO,16,37,29
India,Puducherry,Puducherry,"Jawahar Nagar, Puducherry - PPCC",09-06-2024 21:00:00,11.9309,79.8027,OZONE,25,68,60
India,Punjab,Bathinda,"Hardev Nagar, Bathinda - PPCB",09-06-2024 21:00:00,30.233011,74.907758,NO2,32,33,33
India,Punjab,Bathinda,"Hardev Nagar, Bathinda - PPCB",09-06-2024 21:00:00,30.233011,74.907758,CO,3,140,27
India,Punjab,Jalandhar,"Civil Line, Jalandhar - PPCB",09-06-2024 21:00:00,31.321907,75.578914,PM10,79,106,94
India,Punjab,Jalandhar,"Civil Line, Jalandhar - PPCB",09-06-2024 21:00:00,31.321907,75.578914,SO2,7,12,9
India,Punjab,Jalandhar,"Civil Line, Jalandhar - PPCB",09-06-2024 21:00:00,31.321907,75.578914,CO,10,54,21
India,Punjab,Jalandhar,"Civil Line, Jalandhar - PPCB",09-06-2024 21:00:00,31.321907,75.578914,OZONE,35,105,64
India,Punjab,Khanna,"Kalal Majra, Khanna - PPCB",09-06-2024 21:00:00,30.736056 ,76.209694,PM2.5,22,202,89
India,Punjab,Khanna,"Kalal Majra, Khanna - PPCB",09-06-2024 21:00:00,30.736056 ,76.209694,PM10,107,163,137
India,Punjab,Ludhiana,"Punjab Agricultural University, Ludhiana - PPCB",09-06-2024 21:00:00,30.9028,75.8086,PM10,76,137,105
India,Punjab,Mandi Gobindgarh,"RIMT University, Mandi Gobindgarh - PPCB",09-06-2024 21:00:00,30.649961,76.331442,PM2.5,69,322,204
India,Punjab,Mandi Gobindgarh,"RIMT University, Mandi Gobindgarh - PPCB",09-06-2024 21:00:00,30.649961,76.331442,SO2,20,58,34
India,Punjab,Mandi Gobindgarh,"RIMT University, Mandi Gobindgarh - PPCB",09-06-2024 21:00:00,30.649961,76.331442,OZONE,26,27,26
India,Punjab,Patiala,"Model Town, Patiala - PPCB",09-06-2024 21:00:00,30.349388,76.366642,PM2.5,50,115,81
India,Punjab,Patiala,"Model Town, Patiala - PPCB",09-06-2024 21:00:00,30.349388,76.366642,PM10,79,139,113
India,Rajasthan,Alwar,"Moti Doongri, Alwar - RSPCB",09-06-2024 21:00:00,27.554793,76.611536,NO2,17,39,29
India,Rajasthan,Banswara,"Rati Talai, Banswara - RSPCB",09-06-2024 21:00:00,23.555190,74.440010,SO2,4,10,7
India,Rajasthan,Baran,"Bamboliya, Baran - RSPCB",09-06-2024 21:00:00,25.106006,76.469948,PM2.5,2,42,17
India,Rajasthan,Barmer,"Railway Colony, Barmer - RSPCB",09-06-2024 21:00:00,25.747299,71.393989,PM10,38,107,71
India,Rajasthan,Bharatpur,"Krishna Nagar, Bharatpur - RSPCB",09-06-2024 21:00:00,27.215415,77.50873,PM10,50,168,103
India,Rajasthan,Bhilwara,"Pratap Nagar, Bhilwara - RSPCB",09-06-2024 21:00:00,25.339605,74.618883,PM2.5,17,85,36
India,Rajasthan,Bhilwara,"Pratap Nagar, Bhilwara - RSPCB",09-06-2024 21:00:00,25.339605,74.618883,PM10,19,95,41
India,Rajasthan,Bhiwadi,"Vasundhara Nagar_UIT, Bhiwadi - RSPCB",09-06-2024 21:00:00,28.207266,76.829265,SO2,5,27,12
India,Rajasthan,Bikaner,"MM Ground, Bikaner - RSPCB",09-06-2024 21:00:00,28.018792,73.292658,PM2.5,33,228,64
India,Rajasthan,Bikaner,"MM Ground, Bikaner - RSPCB",09-06-2024 21:00:00,28.018792,73.292658,PM10,72,318,125
India,Rajasthan,Bikaner,"MM Ground, Bikaner - RSPCB",09-06-2024 21:00:00,28.018792,73.292658,NH3,8,10,9
India,Rajasthan,Bundi,"New Colony, Bundi - RSPCB",09-06-2024 21:00:00,25.435774,75.644272,PM10,35,138,88
India,Rajasthan,Bundi,"New Colony, Bundi - RSPCB",09-06-2024 21:00:00,25.435774,75.644272,SO2,4,8,6
India,Rajasthan,Bundi,"New Colony, Bundi - RSPCB",09-06-2024 21:00:00,25.435774,75.644272,CO,15,103,30
India,Rajasthan,Chittorgarh,"Shastri Nagar, Chittorgarh - RSPCB",09-06-2024 21:00:00,24.892047,74.623527,PM2.5,NA,NA,NA
India,Rajasthan,Churu,"Subash Chowk, Churu - RSPCB",09-06-2024 21:00:00,28.296139,74.961696,PM2.5,18,67,35
India,Rajasthan,Churu,"Subash Chowk, Churu - RSPCB",09-06-2024 21:00:00,28.296139,74.961696,NH3,5,9,6
India,Rajasthan,Churu,"Subash Chowk, Churu - RSPCB",09-06-2024 21:00:00,28.296139,74.961696,SO2,3,5,4
India,Rajasthan,Churu,"Subash Chowk, Churu - RSPCB",09-06-2024 21:00:00,28.296139,74.961696,OZONE,48,149,143
India,Rajasthan,Dausa,"Khatikan Mohalla, Dausa - RSPCB",09-06-2024 21:00:00,26.895552,76.334753,NO2,1,32,12
India,Rajasthan,Dholpur,"Raja Ganj, Dholpur - RSPCB",09-06-2024 21:00:00,26.699557,77.898881,NH3,3,13,8
India,Rajasthan,Dholpur,"Raja Ganj, Dholpur - RSPCB",09-06-2024 21:00:00,26.699557,77.898881,OZONE,38,186,160
India,Rajasthan,Dungarpur,"Bhoiwada, Dungarpur - RSPCB",09-06-2024 21:00:00,23.837789,73.714926,OZONE,37,78,61
India,Rajasthan,Hanumangarh,"Housing Board, Hanumangarh - RSPCB",09-06-2024 21:00:00,29.610750,74.283608,NH3,5,17,10
India,Rajasthan,Hanumangarh,"Housing Board, Hanumangarh - RSPCB",09-06-2024 21:00:00,29.610750,74.283608,OZONE,14,71,61
India,Rajasthan,Jaipur,"Mansarovar Sector-12, Jaipur - RSPCB",09-06-2024 21:00:00,26.843698,75.766894,NO2,15,48,30
India,Rajasthan,Jaipur,"Mansarovar Sector-12, Jaipur - RSPCB",09-06-2024 21:00:00,26.843698,75.766894,SO2,6,13,10
India,Rajasthan,Jaipur,"Mansarovar Sector-12, Jaipur - RSPCB",09-06-2024 21:00:00,26.843698,75.766894,CO,8,62,20
India,Rajasthan,Jaipur,"RIICO Sitapura, Jaipur - RSPCB",09-06-2024 21:00:00,26.786682,75.827928,PM2.5,25,130,49
India,Rajasthan,Jaipur,"RIICO Sitapura, Jaipur - RSPCB",09-06-2024 21:00:00,26.786682,75.827928,NH3,3,12,7
India,Rajasthan,Jaipur,"Sector-2 Murlipura, Jaipur - RSPCB",09-06-2024 21:00:00,26.960669,75.771817,PM2.5,20,180,43
India,Rajasthan,Jaipur,"Sector-2 Murlipura, Jaipur - RSPCB",09-06-2024 21:00:00,26.960669,75.771817,PM10,44,259,87
India,Rajasthan,Jaipur,"Sector-2 Murlipura, Jaipur - RSPCB",09-06-2024 21:00:00,26.960669,75.771817,OZONE,22,110,84
India,Rajasthan,Jaipur,"Shastri Nagar, Jaipur - RSPCB",09-06-2024 21:00:00,26.9502929,75.730943,NO2,11,68,30
India,Rajasthan,Jaisalmer,"Sadar Bazar, Jaisalmer - RSPCB",09-06-2024 21:00:00,26.912329,70.909168,PM2.5,NA,NA,NA
India,Rajasthan,Jhalawar,"Rajlaxmi Nagar, Jhalawar - RSPCB",09-06-2024 21:00:00,24.588397,76.172782,NO2,15,57,23
India,Rajasthan,Jhunjhunu,"Indra Nagar, Jhunjhunu - RSPCB",09-06-2024 21:00:00,28.108988,75.386577,SO2,4,7,5
India,Rajasthan,Jodhpur,"Collectorate, Jodhpur - RSPCB",09-06-2024 21:00:00,26.268249,73.0193853,CO,2,132,54
India,Rajasthan,Jodhpur,"Jhalamand, Jodhpur - RSPCB",09-06-2024 21:00:00,26.215415,73.070156,SO2,3,5,4
India,Rajasthan,Jodhpur,"Mandor, Jodhpur - RSPCB",09-06-2024 21:00:00,26.358805,73.047444,CO,14,21,15
India,Rajasthan,Jodhpur,"Mandor, Jodhpur - RSPCB",09-06-2024 21:00:00,26.358805,73.047444,OZONE,44,76,72
India,Rajasthan,Jodhpur,"Samrat Ashok Udhyan, Jodhpur - RSPCB",09-06-2024 21:00:00,26.253384,72.976571,NO2,1,31,9
India,Rajasthan,Karauli,"Satyawati Vihar, Karauli - RSPCB",09-06-2024 21:00:00,26.506177,77.025989,PM10,45,213,110
India,Rajasthan,Kota,"Dhanmandi, Kota - RSPCB",09-06-2024 21:00:00,25.164090,75.858137,NH3,5,6,5
India,Rajasthan,Kota,"Nayapura, Kota - RSPCB",09-06-2024 21:00:00,25.196024,75.855668,SO2,5,11,7
India,Rajasthan,Kota,"Nayapura, Kota - RSPCB",09-06-2024 21:00:00,25.196024,75.855668,CO,12,54,23
India,Rajasthan,Kota,"Shrinath Puram, Kota - RSPCB",09-06-2024 21:00:00,25.14389,75.821256,PM2.5,44,174,93
India,Rajasthan,Kota,"Shrinath Puram, Kota - RSPCB",09-06-2024 21:00:00,25.14389,75.821256,OZONE,18,52,26
India,Rajasthan,Nagaur,"Karni Colony, Nagaur - RSPCB",09-06-2024 21:00:00,27.213494,73.734444,CO,40,44,42
India,Rajasthan,Pali,"Indira Colony Vistar, Pali - RSPCB",09-06-2024 21:00:00,25.771061, 73.340227,OZONE,31,63,48
India,Rajasthan,Pratapgarh,"Pragati Nagar, Pratapgarh - RSPCB",09-06-2024 21:00:00,24.041198,74.780702,PM2.5,13,34,23
India,Rajasthan,Pratapgarh,"Pragati Nagar, Pratapgarh - RSPCB",09-06-2024 21:00:00,24.041198,74.780702,NH3,4,6,5
India,Rajasthan,Pratapgarh,"Pragati Nagar, Pratapgarh - RSPCB",09-06-2024 21:00:00,24.041198,74.780702,SO2,1,3,2
India,Rajasthan,Sawai Madhopur,"Sahu Nagar, Sawai Madhopur - RSPCB",09-06-2024 21:00:00,26.031443,76.359327,PM2.5,25,321,65
India,Rajasthan,Sikar,"Radhakishan Pura, Sikar - RSPCB",09-06-2024 21:00:00,27.608912,75.153302,PM2.5,12,92,50
India,Rajasthan,Sikar,"Radhakishan Pura, Sikar - RSPCB",09-06-2024 21:00:00,27.608912,75.153302,PM10,68,208,129
India,Rajasthan,Sikar,"Radhakishan Pura, Sikar - RSPCB",09-06-2024 21:00:00,27.608912,75.153302,OZONE,30,98,86
India,Rajasthan,Sirohi,"Vedhaynath Colony, Sirohi - RSPCB",09-06-2024 21:00:00,24.885261,72.857549,PM2.5,11,38,23
India,Rajasthan,Sri Ganganagar,"Old City, Sri Ganganagar - RSPCB",09-06-2024 21:00:00,29.931624,73.864511,NH3,17,23,5
India,Rajasthan,Tonk,"Shastri Nagar, Tonk - RSPCB",09-06-2024 21:00:00,26.159933,75.780517,CO,1,10,1
India,Rajasthan,Udaipur,"Ashok Nagar, Udaipur - RSPCB",09-06-2024 21:00:00,24.5886166,73.6321397,PM10,52,109,86
India,Rajasthan,Udaipur,"Ashok Nagar, Udaipur - RSPCB",09-06-2024 21:00:00,24.5886166,73.6321397,NO2,28,103,48
India,Rajasthan,Udaipur,"Ashok Nagar, Udaipur - RSPCB",09-06-2024 21:00:00,24.5886166,73.6321397,OZONE,8,18,13
India,Sikkim,Gangtok,"Zero Point GICI, Gangtok - SSPCB",09-06-2024 21:00:00,27.338530,88.614099,NO2,1,3,1
India,Sikkim,Gangtok,"Zero Point GICI, Gangtok - SSPCB",09-06-2024 21:00:00,27.338530,88.614099,CO,10,18,13
India,TamilNadu,Ariyalur,"Keelapalur, Ariyalur - TNPCB",09-06-2024 21:00:00,11.06825,79.07033,PM2.5,10,38,22
India,TamilNadu,Chennai,"Alandur Bus Depot, Chennai - CPCB",09-06-2024 21:00:00,12.9099161,80.1076538,PM10,23,23,23
India,TamilNadu,Chennai,"Arumbakkam, Chennai - TNPCB",09-06-2024 21:00:00,13.0664,80.2112 ,PM2.5,2,41,14
India,TamilNadu,Chennai,"Kodungaiyur, Chennai - TNPCB",09-06-2024 21:00:00,13.1278,80.2642,NO2,11,36,19
India,TamilNadu,Chennai,"Manali, Chennai - CPCB",09-06-2024 21:00:00,13.164544,80.26285,NH3,5,5,5
India,TamilNadu,Chennai,"Perungudi, Chennai - TNPCB",09-06-2024 21:00:00,12.9533,80.2357,SO2,1,7,5
India,TamilNadu,Chennai,"Perungudi, Chennai - TNPCB",09-06-2024 21:00:00,12.9533,80.2357,OZONE,10,17,12
India,TamilNadu,Chennai,"Velachery Res. Area, Chennai - CPCB",09-06-2024 21:00:00,13.0052189,80.2398125,PM10,20,59,32
India,TamilNadu,Chennai,"Velachery Res. Area, Chennai - CPCB",09-06-2024 21:00:00,13.0052189,80.2398125,CO,105,108,107
India,TamilNadu,Coimbatore,"PSG College of Arts and Science, Coimbatore - TNPCB",09-06-2024 21:00:00,11.0328,77.0349,OZONE,4,5,4
India,TamilNadu,Cuddalore,"Kudikadu, Cuddalore - TNPCB",09-06-2024 21:00:00,11.6829898,79.7532099,SO2,10,11,11
India,TamilNadu,Cuddalore,"Semmandalam, Cuddalore - TNPCB",09-06-2024 21:00:00,11.7637683,79.7499835,OZONE,1,2,2
India,TamilNadu,Gummidipoondi,"Anthoni Pillai Nagar, Gummidipoondi - TNPCB",09-06-2024 21:00:00,13.4127,80.1081,PM2.5,2,88,36
India,TamilNadu,Ramanathapuram,"Chalai Bazaar, Ramanathapuram - TNPCB",09-06-2024 21:00:00,9.36399,78.831977,OZONE,13,14,14
India,TamilNadu,Salem,"Sona College of Technology, Salem - TNPCB",09-06-2024 21:00:00,11.679111,78.125052,PM10,8,38,22
India,TamilNadu,Salem,"Sona College of Technology, Salem - TNPCB",09-06-2024 21:00:00,11.679111,78.125052,NH3,1,1,1
India,TamilNadu,Salem,"Sona College of Technology, Salem - TNPCB",09-06-2024 21:00:00,11.679111,78.125052,SO2,81,83,82
India,TamilNadu,Thoothukudi,"Meelavittan, Thoothukudi - TNPCB",09-06-2024 21:00:00,8.816428 ,78.099039,NO2,24,43,32
India,TamilNadu,Thoothukudi,"Meelavittan, Thoothukudi - TNPCB",09-06-2024 21:00:00,8.816428 ,78.099039,CO,1,136,55
India,TamilNadu,Tirupur,"Kumaran College, Tirupur - TNPCB",09-06-2024 21:00:00,11.0973603,77.3228673,PM2.5,NA,NA,NA
India,TamilNadu,Tirupur,"Kumaran College, Tirupur - TNPCB",09-06-2024 21:00:00,11.0973603,77.3228673,NO2,4,10,7
India,TamilNadu,Tirupur,"Kumaran College, Tirupur - TNPCB",09-06-2024 21:00:00,11.0973603,77.3228673,SO2,17,19,18
India,Telangana,Hyderabad,"Bollaram Industrial Area, Hyderabad - TSPCB",09-06-2024 21:00:00,17.540891,78.358528,SO2,6,21,17
India,Telangana,Hyderabad,"Central University, Hyderabad - TSPCB",09-06-2024 21:00:00,17.460103,78.334361,NO2,13,34,20
India,Telangana,Hyderabad,"Central University, Hyderabad - TSPCB",09-06-2024 21:00:00,17.460103,78.334361,CO,9,22,15
India,Telangana,Hyderabad,"Central University, Hyderabad - TSPCB",09-06-2024 21:00:00,17.460103,78.334361,OZONE,3,4,4
India,Telangana,Hyderabad,"ICRISAT Patancheru, Hyderabad - TSPCB",09-06-2024 21:00:00,17.518400,78.278777,PM2.5,NA,NA,NA
India,Telangana,Hyderabad,"ICRISAT Patancheru, Hyderabad - TSPCB",09-06-2024 21:00:00,17.518400,78.278777,NO2,3,12,8
India,Telangana,Hyderabad,"ICRISAT Patancheru, Hyderabad - TSPCB",09-06-2024 21:00:00,17.518400,78.278777,NH3,1,2,1
India,Telangana,Hyderabad,"ICRISAT Patancheru, Hyderabad - TSPCB",09-06-2024 21:00:00,17.518400,78.278777,OZONE,6,27,23
India,Telangana,Hyderabad,"IITH Kandi, Hyderabad - TSPCB",09-06-2024 21:00:00,17.585705,78.126199,OZONE,31,44,32
India,Telangana,Hyderabad,"Kompally Municipal Office, Hyderabad - TSPCB",09-06-2024 21:00:00,17.544899,78.486949,PM2.5,NA,NA,NA
India,Telangana,Hyderabad,"Nacharam_TSIIC IALA, Hyderabad - TSPCB",09-06-2024 21:00:00,17.429398,78.569354,PM10,57,75,65
India,Telangana,Hyderabad,"Nacharam_TSIIC IALA, Hyderabad - TSPCB",09-06-2024 21:00:00,17.429398,78.569354,SO2,8,22,14
India,Telangana,Hyderabad,"New Malakpet, Hyderabad - TSPCB",09-06-2024 21:00:00,17.37206,78.50864,OZONE,15,51,36
India,Telangana,Hyderabad,"Ramachandrapuram, Hyderabad - TSPCB",09-06-2024 21:00:00,17.528544,78.286195,PM2.5,44,47,46
India,Telangana,Hyderabad,"Ramachandrapuram, Hyderabad - TSPCB",09-06-2024 21:00:00,17.528544,78.286195,PM10,73,76,75
India,Telangana,Hyderabad,"Sanathnagar, Hyderabad - TSPCB",09-06-2024 21:00:00,17.4559458,78.4332152,PM2.5,21,59,30
India,Telangana,Hyderabad,"Sanathnagar, Hyderabad - TSPCB",09-06-2024 21:00:00,17.4559458,78.4332152,SO2,4,11,8
India,Telangana,Hyderabad,"Zoo Park, Hyderabad - TSPCB",09-06-2024 21:00:00,17.349694,78.451437,NO2,13,19,15
India,Telangana,Hyderabad,"Zoo Park, Hyderabad - TSPCB",09-06-2024 21:00:00,17.349694,78.451437,CO,20,39,29
India,Tripura,Agartala,"Bardowali, Agartala - Tripura SPCB",09-06-2024 21:00:00,23.8175497,91.2726974,SO2,35,36,35
India,Tripura,Agartala,"Bardowali, Agartala - Tripura SPCB",09-06-2024 21:00:00,23.8175497,91.2726974,CO,10,20,16
India,Uttar_Pradesh,Agra,"Manoharpur, Agra - UPPCB",09-06-2024 21:00:00,27.23711,78.01936,PM2.5,27,64,48
India,Uttar_Pradesh,Agra,"Manoharpur, Agra - UPPCB",09-06-2024 21:00:00,27.23711,78.01936,NH3,1,2,2
India,Uttar_Pradesh,Agra,"Sector-3B Avas Vikas Colony, Agra - UPPCB",09-06-2024 21:00:00,27.19412,77.96237,NO2,41,44,43
India,Uttar_Pradesh,Agra,"Shahjahan Garden, Agra - UPPCB",09-06-2024 21:00:00,27.169338,78.03582,OZONE,1,14,10
India,Uttar_Pradesh,Baghpat,"Sardar Patel Inter College, Baghpat - UPPCB",09-06-2024 21:00:00,28.964949,77.278761,PM10,96,279,175
India,Uttar_Pradesh,Baghpat,"Sardar Patel Inter College, Baghpat - UPPCB",09-06-2024 21:00:00,28.964949,77.278761,OZONE,14,71,46
India,Uttar_Pradesh,Bareilly,"Rajendra Nagar, Bareilly - UPPCB",09-06-2024 21:00:00,28.38910936,79.42963708,PM10,44,78,64
India,Uttar_Pradesh,Bulandshahr,"Yamunapuram, Bulandshahr - UPPCB",09-06-2024 21:00:00,28.406963,77.849831,PM10,100,164,129
India,Uttar_Pradesh,Bulandshahr,"Yamunapuram, Bulandshahr - UPPCB",09-06-2024 21:00:00,28.406963,77.849831,OZONE,3,56,46
India,Uttar_Pradesh,Firozabad,"Vibhab Nagar, Firozabad - UPPCB",09-06-2024 21:00:00,27.1594,78.3953,PM2.5,40,89,62
India,Uttar_Pradesh,Firozabad,"Vibhab Nagar, Firozabad - UPPCB",09-06-2024 21:00:00,27.1594,78.3953,NO2,14,14,14
India,Uttar_Pradesh,Ghaziabad,"Indirapuram, Ghaziabad - UPPCB",09-06-2024 21:00:00,28.646233,77.358075,PM2.5,24,186,68
India,Uttar_Pradesh,Ghaziabad,"Indirapuram, Ghaziabad - UPPCB",09-06-2024 21:00:00,28.646233,77.358075,CO,34,70,41
India,Uttar_Pradesh,Ghaziabad,"Loni, Ghaziabad - UPPCB",09-06-2024 21:00:00,28.757294,77.278792,NH3,1,4,2
India,Uttar_Pradesh,Ghaziabad,"Vasundhara, Ghaziabad - UPPCB",09-06-2024 21:00:00,28.6603346,77.3572563,NH3,5,13,8
India,Uttar_Pradesh,Gorakhpur,"Madan Mohan Malaviya University of Technology, Gorakhpur - UPPCB",09-06-2024 21:00:00,26.730136,83.433859,OZONE,8,12,9
India,Uttar_Pradesh,Greater Noida,"Knowledge Park - III, Greater Noida - UPPCB",09-06-2024 21:00:00,28.47272,77.482000,SO2,7,31,17
India,Uttar_Pradesh,Greater Noida,"Knowledge Park - V, Greater Noida - UPPCB",09-06-2024 21:00:00,28.557054,77.453663,CO,13,72,23
India,Uttar_Pradesh,Greater Noida,"Knowledge Park - V, Greater Noida - UPPCB",09-06-2024 21:00:00,28.557054,77.453663,OZONE,28,146,120
India,Uttar_Pradesh,Jhansi,"Shivaji Nagar, Jhansi - UPPCB",09-06-2024 21:00:00,25.4547,78.6039,NH3,5,6,6
India,Uttar_Pradesh,Jhansi,"Shivaji Nagar, Jhansi - UPPCB",09-06-2024 21:00:00,25.4547,78.6039,CO,8,75,25
India,Uttar_Pradesh,Jhansi,"Shivaji Nagar, Jhansi - UPPCB",09-06-2024 21:00:00,25.4547,78.6039,OZONE,22,81,59
India,Uttar_Pradesh,Kanpur,"NSI Kalyanpur, Kanpur - UPPCB",09-06-2024 21:00:00,26.509954,80.249612,PM2.5,47,127,85
India,Uttar_Pradesh,Kanpur,"NSI Kalyanpur, Kanpur - UPPCB",09-06-2024 21:00:00,26.509954,80.249612,SO2,17,25,21
India,Uttar_Pradesh,Kanpur,"NSI Kalyanpur, Kanpur - UPPCB",09-06-2024 21:00:00,26.509954,80.249612,CO,30,76,35
India,Uttar_Pradesh,Kanpur,"Nehru Nagar, Kanpur - UPPCB",09-06-2024 21:00:00,26.4703136,80.3229863,PM10,22,97,58
India,Uttar_Pradesh,Kanpur,"Nehru Nagar, Kanpur - UPPCB",09-06-2024 21:00:00,26.4703136,80.3229863,OZONE,21,246,170
India,Uttar_Pradesh,Lucknow,"B R Ambedkar University, Lucknow - UPPCB",09-06-2024 21:00:00,26.766433,80.927299,PM10,NA,NA,NA
India,Uttar_Pradesh,Lucknow,"B R Ambedkar University, Lucknow - UPPCB",09-06-2024 21:00:00,26.766433,80.927299,NO2,11,12,11
India,Uttar_Pradesh,Lucknow,"Gomti Nagar, Lucknow - UPPCB",09-06-2024 21:00:00,26.868120,81.005119,NO2,10,12,11
India,Uttar_Pradesh,Meerut,"Ganga Nagar, Meerut - UPPCB",09-06-2024 21:00:00,28.999264,77.7590354,OZONE,25,66,57
India,Uttar_Pradesh,Meerut,"Jai Bhim Nagar, Meerut - UPPCB",09-06-2024 21:00:00,28.9535882,77.7622941,PM10,136,332,181
India,Uttar_Pradesh,Meerut,"Pallavpuram Phase 2, Meerut - UPPCB",09-06-2024 21:00:00,29.063510,77.709723,CO,16,58,27
India,Uttar_Pradesh,Moradabad,"Employment Office, Moradabad - UPPCB",09-06-2024 21:00:00,28.88528,78.73880,PM2.5,15,52,40
India,Uttar_Pradesh,Moradabad,"Jigar Colony, Moradabad - UPPCB",09-06-2024 21:00:00,28.856664,78.772638,PM2.5,24,64,46
India,Uttar_Pradesh,Moradabad,"Jigar Colony, Moradabad - UPPCB",09-06-2024 21:00:00,28.856664,78.772638,NH3,6,6,6
India,Uttar_Pradesh,Moradabad,"Transport Nagar, Moradabad - UPPCB",09-06-2024 21:00:00,28.802625,78.753728,PM2.5,14,64,39
India,Uttar_Pradesh,Muzaffarnagar,"New Mandi, Muzaffarnagar - UPPCB",09-06-2024 21:00:00,29.4723508,77.7194031,CO,30,76,43
India,Uttar_Pradesh,Noida,"Sector - 62, Noida - IMD",09-06-2024 21:00:00,28.6245479,77.3577104,PM2.5,27,81,59
India,Uttar_Pradesh,Noida,"Sector - 62, Noida - IMD",09-06-2024 21:00:00,28.6245479,77.3577104,CO,16,34,18
India,Uttar_Pradesh,Noida,"Sector-1, Noida - UPPCB",09-06-2024 21:00:00,28.5898,77.3101,SO2,7,24,14
India,Uttar_Pradesh,Noida,"Sector-116, Noida - UPPCB",09-06-2024 21:00:00,28.569230,77.393848,PM2.5,23,84,54
India,Uttar_Pradesh,Noida,"Sector-116, Noida - UPPCB",09-06-2024 21:00:00,28.569230,77.393848,NH3,6,10,8
India,Uttar_Pradesh,Prayagraj,"Jhunsi, Prayagraj - UPPCB",09-06-2024 21:00:00,25.425602,81.917152,PM10,58,147,98
India,Uttar_Pradesh,Prayagraj,"Jhunsi, Prayagraj - UPPCB",09-06-2024 21:00:00,25.425602,81.917152,NO2,5,6,6
India,Uttar_Pradesh,Prayagraj,"Motilal Nehru NIT, Prayagraj - UPPCB",09-06-2024 21:00:00,25.494,81.863,NH3,6,7,7
India,Uttar_Pradesh,Prayagraj,"Nagar Nigam, Prayagraj - UPPCB",09-06-2024 21:00:00,25.44919916 ,81.82735986 ,SO2,NA,NA,NA
India,Uttar_Pradesh,Prayagraj,"Nagar Nigam, Prayagraj - UPPCB",09-06-2024 21:00:00,25.44919916 ,81.82735986 ,OZONE,11,12,11
India,Uttar_Pradesh,Varanasi,"Bhelupur, Varanasi - UPPCB",09-06-2024 21:00:00,25.301778,82.996789,NH3,1,2,1
India,Uttar_Pradesh,Varanasi,"IESD Banaras Hindu University, Varanasi - UPPCB",09-06-2024 21:00:00,25.262326,82.995408,PM2.5,NA,NA,NA
India,Uttar_Pradesh,Varanasi,"IESD Banaras Hindu University, Varanasi - UPPCB",09-06-2024 21:00:00,25.262326,82.995408,NH3,NA,NA,NA
India,Uttar_Pradesh,Varanasi,"Maldahiya, Varanasi - UPPCB",09-06-2024 21:00:00,25.32393,82.99687,NO2,1,2,2
India,Uttar_Pradesh,Vrindavan,"Omex Eternity, Vrindavan - UPPCB",09-06-2024 21:00:00,27.5714090,77.6557570,NO2,12,12,12
India,Uttarakhand,Kashipur,"Govt. Girls Inter College, Kashipur - UKPCB",09-06-2024 21:00:00,29.2124114,78.9611753,NO2,6,24,11
India,Uttarakhand,Rishikesh,"Shivaji Nagar, Rishikesh - UKPCB",09-06-2024 21:00:00,30.075911,78.2859547,SO2,NA,NA,NA
India,Uttarakhand,Rishikesh,"Shivaji Nagar, Rishikesh - UKPCB",09-06-2024 21:00:00,30.075911,78.2859547,CO,14,46,25
India,West_Bengal,Barrackpore,"SVSPA Campus, Barrackpore - WBPCB",09-06-2024 21:00:00,22.7605581,88.3617589,OZONE,18,73,58
India,West_Bengal,Durgapur,"PCBL Residential Complex, Durgapur - WBPCB",09-06-2024 21:00:00,23.5087640,87.3544400,SO2,9,71,17
India,West_Bengal,Durgapur,"PCBL Residential Complex, Durgapur - WBPCB",09-06-2024 21:00:00,23.5087640,87.3544400,CO,12,104,42
India,West_Bengal,Durgapur,"Sidhu Kanhu Indoor Stadium, Durgapur - WBPCB",09-06-2024 21:00:00,23.5404352,87.2892225,PM2.5,122,252,171
India,West_Bengal,Haldia,"Priyambada Housing Estate, Haldia - WBPCB",09-06-2024 21:00:00,22.06047,88.109737,PM10,25,109,53
India,West_Bengal,Howrah,"Padmapukur, Howrah - WBPCB",09-06-2024 21:00:00,22.5687319,88.2797276,PM10,67,101,79
India,West_Bengal,Howrah,"Padmapukur, Howrah - WBPCB",09-06-2024 21:00:00,22.5687319,88.2797276,NO2,25,48,30
India,West_Bengal,Howrah,"Padmapukur, Howrah - WBPCB",09-06-2024 21:00:00,22.5687319,88.2797276,CO,7,56,22
India,West_Bengal,Kolkata,"Ballygunge, Kolkata - WBPCB",09-06-2024 21:00:00,22.5367507,88.3638022,SO2,3,8,6
India,West_Bengal,Kolkata,"Ballygunge, Kolkata - WBPCB",09-06-2024 21:00:00,22.5367507,88.3638022,OZONE,25,84,66
India,West_Bengal,Kolkata,"Bidhannagar, Kolkata - WBPCB",09-06-2024 21:00:00,22.58157048,88.41002457,NH3,8,9,8
India,West_Bengal,Kolkata,"Jadavpur, Kolkata - WBPCB",09-06-2024 21:00:00,22.49929,88.36917,NO2,11,13,12
India,West_Bengal,Kolkata,"Jadavpur, Kolkata - WBPCB",09-06-2024 21:00:00,22.49929,88.36917,SO2,7,8,7
India,West_Bengal,Kolkata,"Jadavpur, Kolkata - WBPCB",09-06-2024 21:00:00,22.49929,88.36917,CO,14,24,21
India,West_Bengal,Kolkata,"Jadavpur, Kolkata - WBPCB",09-06-2024 21:00:00,22.49929,88.36917,OZONE,24,88,67
India,West_Bengal,Kolkata,"Rabindra Bharati University, Kolkata - WBPCB",09-06-2024 21:00:00,22.627847,88.380669,CO,22,35,31
India,West_Bengal,Kolkata,"Rabindra Sarobar, Kolkata - WBPCB",09-06-2024 21:00:00,22.51106,88.35142,NH3,11,12,12
India,West_Bengal,Kolkata,"Victoria, Kolkata - WBPCB",09-06-2024 21:00:00,22.5448082,88.3403691,OZONE,16,56,44
India,West_Bengal,Siliguri,"Ward-32 Bapupara, Siliguri - WBPCB",09-06-2024 21:00:00,26.6879226,88.4152495,NH3,9,10,10
India,West_Bengal,Siliguri,"Ward-32 Bapupara, Siliguri - WBPCB",09-06-2024 21:00:00,26.6879226,88.4152495,OZONE,16,18,17
India,Andhra_Pradesh,Amaravati,"Secretariat, Amaravati - APPCB",09-06-2024 21:00:00,16.5150833,80.5181667,PM10,8,36,14
India,Andhra_Pradesh,Amaravati,"Secretariat, Amaravati - APPCB",09-06-2024 21:00:00,16.5150833,80.5181667,CO,8,34,19
India,Andhra_Pradesh,Anantapur,"Gulzarpet, Anantapur - APPCB",09-06-2024 21:00:00,14.675886,77.593027,NH3,NA,NA,NA
India,Andhra_Pradesh,Chittoor,"Gangineni Cheruvu, Chittoor - APPCB",09-06-2024 21:00:00,13.204880,79.097889,PM2.5,NA,NA,NA
India,Andhra_Pradesh,Kadapa,"Yerramukkapalli, Kadapa - APPCB",09-06-2024 21:00:00,14.465052,78.824187,SO2,NA,NA,NA
India,Andhra_Pradesh,Rajamahendravaram,"Anand Kala Kshetram, Rajamahendravaram - APPCB",09-06-2024 21:00:00,16.9872867,81.7363176,PM2.5,3,46,19
India,Andhra_Pradesh,Rajamahendravaram,"Anand Kala Kshetram, Rajamahendravaram - APPCB",09-06-2024 21:00:00,16.9872867,81.7363176,OZONE,27,48,41
India,Andhra_Pradesh,Tirupati,"Tirumala, Tirupati - APPCB",09-06-2024 21:00:00,13.67,79.35,NH3,1,1,1
India,Andhra_Pradesh,Tirupati,"Vaikuntapuram, Tirupati - APPCB",09-06-2024 21:00:00,13.615387,79.409230,PM10,NA,NA,NA
India,Andhra_Pradesh,Vijayawada,"HB Colony, Vijayawada - APPCB",09-06-2024 21:00:00,16.536107,80.594233,NH3,4,5,4
India,Andhra_Pradesh,Vijayawada,"HB Colony, Vijayawada - APPCB",09-06-2024 21:00:00,16.536107,80.594233,SO2,6,8,7
India,Andhra_Pradesh,Vijayawada,"Kanuru, Vijayawada - APPCB",09-06-2024 21:00:00,16.486692,80.699436,PM2.5,36,49,42
India,Andhra_Pradesh,Vijayawada,"Rajiv Nagar, Vijayawada - APPCB",09-06-2024 21:00:00,16.554731,80.649110,NO2,10,10,10
India,Andhra_Pradesh,Vijayawada,"Rajiv Nagar, Vijayawada - APPCB",09-06-2024 21:00:00,16.554731,80.649110,NH3,2,2,2
India,Andhra_Pradesh,Vijayawada,"Rajiv Nagar, Vijayawada - APPCB",09-06-2024 21:00:00,16.554731,80.649110,CO,38,38,38
India,Andhra_Pradesh,Visakhapatnam,"GVM Corporation, Visakhapatnam - APPCB",09-06-2024 21:00:00,17.72,83.3,SO2,6,16,10
India,Arunachal_Pradesh,Naharlagun,"Naharlagun, Naharlagun - APSPCB",09-06-2024 21:00:00,27.103358,93.679645,PM2.5,25,64,41
India,Arunachal_Pradesh,Naharlagun,"Naharlagun, Naharlagun - APSPCB",09-06-2024 21:00:00,27.103358,93.679645,PM10,24,61,40
India,Arunachal_Pradesh,Naharlagun,"Naharlagun, Naharlagun - APSPCB",09-06-2024 21:00:00,27.103358,93.679645,OZONE,3,3,3
India,Assam,Byrnihat,"Central Academy for SFS, Byrnihat - PCBA",09-06-2024 21:00:00,26.071318,91.87488,NO2,4,23,9
India,Assam,Byrnihat,"Central Academy for SFS, Byrnihat - PCBA",09-06-2024 21:00:00,26.071318,91.87488,NH3,18,21,19
India,Assam,Byrnihat,"Central Academy for SFS, Byrnihat - PCBA",09-06-2024 21:00:00,26.071318,91.87488,SO2,13,64,33
India,Assam,Guwahati,"LGBI Airport, Guwahati - PCBA",09-06-2024 21:00:00,26.10887,91.589544,PM2.5,13,384,103
India,Assam,Guwahati,"LGBI Airport, Guwahati - PCBA",09-06-2024 21:00:00,26.10887,91.589544,PM10,18,280,89
India,Assam,Guwahati,"LGBI Airport, Guwahati - PCBA",09-06-2024 21:00:00,26.10887,91.589544,OZONE,23,30,25
India,Assam,Guwahati,"Pan Bazaar, Guwahati - PCBA",09-06-2024 21:00:00,26.187500,91.744194,CO,22,50,30
India,Assam,Guwahati,"Railway Colony, Guwahati - PCBA",09-06-2024 21:00:00,26.181742,91.78063,SO2,7,14,11
India,Assam,Guwahati,"Railway Colony, Guwahati - PCBA",09-06-2024 21:00:00,26.181742,91.78063,CO,22,64,32
India,Assam,Nagaon,"Christianpatty, Nagaon - PCBA",09-06-2024 21:00:00,26.349082,92.68449,NH3,1,35,6
India,Assam,Nalbari,"Bata Chowk, Nalbari - PCBA",09-06-2024 21:00:00,26.446912,91.439057,NH3,1,1,1
India,Assam,Nalbari,"Bata Chowk, Nalbari - PCBA",09-06-2024 21:00:00,26.446912,91.439057,SO2,4,10,6
India,Assam,Nalbari,"Bata Chowk, Nalbari - PCBA",09-06-2024 21:00:00,26.446912,91.439057,OZONE,28,44,40
India,Assam,Sivasagar,"Girls College, Sivasagar - PCBA",09-06-2024 21:00:00,26.987634,94.636574,PM2.5,31,82,41
India,Assam,Sivasagar,"Girls College, Sivasagar - PCBA",09-06-2024 21:00:00,26.987634,94.636574,OZONE,1,9,5
India,Bihar,Arrah,"New DM Office, Arrah - BSPCB",09-06-2024 21:00:00,25.5626095,84.663264,PM2.5,48,143,78
India,Bihar,Arrah,"New DM Office, Arrah - BSPCB",09-06-2024 21:00:00,25.5626095,84.663264,PM10,69,121,95
India,Bihar,Aurangabad,"Gurdeo Nagar, Aurangabad - BSPCB",09-06-2024 21:00:00,24.75746,84.366208,NO2,3,19,6
India,Bihar,Bhagalpur,"DM Office_Kachari Chowk, Bhagalpur - BSPCB",09-06-2024 21:00:00,25.251013,86.989001,NO2,22,37,28
India,Bihar,Bhagalpur,"DM Office_Kachari Chowk, Bhagalpur - BSPCB",09-06-2024 21:00:00,25.251013,86.989001,NH3,3,6,4
India,Bihar,Bihar Sharif,"D M Colony, Bihar Sharif - BSPCB",09-06-2024 21:00:00,25.204762,85.514960,SO2,2,3,3
India,Bihar,Bihar Sharif,"D M Colony, Bihar Sharif - BSPCB",09-06-2024 21:00:00,25.204762,85.514960,OZONE,15,120,34
India,Bihar,Buxar,"Charitra Van, Buxar - BSPCB (Formerly known as Central Jail)",09-06-2024 21:00:00,25.567520,83.966379,SO2,2,4,3
India,Bihar,Buxar,"Charitra Van, Buxar - BSPCB (Formerly known as Central Jail)",09-06-2024 21:00:00,25.567520,83.966379,CO,34,104,41
India,Bihar,Gaya,"Collectorate, Gaya - BSPCB",09-06-2024 21:00:00,24.7955,84.9994,PM2.5,30,173,84
India,Bihar,Gaya,"SFTI Kusdihra, Gaya - BSPCB",09-06-2024 21:00:00,24.762518,84.982348,NO2,6,88,29
India,Bihar,Gaya,"SFTI Kusdihra, Gaya - BSPCB",09-06-2024 21:00:00,24.762518,84.982348,CO,10,56,18
India,Bihar,Hajipur,"Industrial Area, Hajipur - BSPCB",09-06-2024 21:00:00,25.697189,85.245900,SO2,5,6,6
India,Bihar,Katihar,"Mirchaibari, Katihar - BSPCB",09-06-2024 21:00:00,25.560083,87.553265,NO2,3,4,4
India,Bihar,Katihar,"Mirchaibari, Katihar - BSPCB",09-06-2024 21:00:00,25.560083,87.553265,CO,24,36,29
India,Bihar,Katihar,"Mirchaibari, Katihar - BSPCB",09-06-2024 21:00:00,25.560083,87.553265,OZONE,4,10,6
India,Bihar,Kishanganj,"SDM Office_Khagra, Kishanganj - BSPCB",09-06-2024 21:00:00,26.0881305,87.93840336,SO2,6,7,6
India,Bihar,Motihari,"Gandak Colony, Motihari - BSPCB",09-06-2024 21:00:00,26.63086,84.90051,NH3,2,14,4
India,Bihar,Munger,"Town Hall, Munger - BSPCB",09-06-2024 21:00:00,25.376776,86.471523,OZONE,26,34,29
India,Bihar,Muzaffarpur,"Buddha Colony, Muzaffarpur - BSPCB",09-06-2024 21:00:00,26.11442,85.39813,SO2,2,13,4
India,Bihar,Muzaffarpur,"Buddha Colony, Muzaffarpur - BSPCB",09-06-2024 21:00:00,26.11442,85.39813,OZONE,63,272,137
India,Bihar,Muzaffarpur,"MIT-Daudpur Kothi, Muzaffarpur - BSPCB",09-06-2024 21:00:00,26.1403345,85.3650192,NO2,NA,NA,NA
India,Bihar,Muzaffarpur,"Muzaffarpur Collectorate, Muzaffarpur - BSPCB",09-06-2024 21:00:00,26.1209,85.3647,CO,28,28,28
India,Bihar,Patna,"DRM Office Danapur, Patna - BSPCB",09-06-2024 21:00:00,25.586562,85.043586,OZONE,17,146,93
India,Bihar,Patna,"Govt. High School Shikarpur, Patna - BSPCB",09-06-2024 21:00:00,25.592539,85.227158,PM2.5,56,273,141
India,Bihar,Patna,"Govt. High School Shikarpur, Patna - BSPCB",09-06-2024 21:00:00,25.592539,85.227158,CO,20,54,38
India,Bihar,Patna,"Samanpura, Patna - BSPCB",09-06-2024 21:00:00,25.596727,85.085624,PM2.5,86,311,190
India,Bihar,Patna,"Samanpura, Patna - BSPCB",09-06-2024 21:00:00,25.596727,85.085624,PM10,171,358,234
India,Bihar,Patna,"Samanpura, Patna - BSPCB",09-06-2024 21:00:00,25.596727,85.085624,CO,30,78,48
India,Bihar,Patna,"Samanpura, Patna - BSPCB",09-06-2024 21:00:00,25.596727,85.085624,OZONE,31,157,127
India,Bihar,Samastipur,"DM Office_Kasipur, Samastipur - BSPCB",09-06-2024 21:00:00,25.859655,85.77944,CO,2,20,11
India,Bihar,Sasaram,"Dada Peer, Sasaram - BSPCB",09-06-2024 21:00:00,24.952822,84.002396,NH3,3,13,8
India,Bihar,Sasaram,"Dada Peer, Sasaram - BSPCB",09-06-2024 21:00:00,24.952822,84.002396,OZONE,13,72,50
India,Bihar,Siwan,"Chitragupta Nagar, Siwan - BSPCB",09-06-2024 21:00:00,26.2271665,84.3570427,NH3,1,5,1
India,Chandigarh,Chandigarh,"Sector-25, Chandigarh - CPCC",09-06-2024 21:00:00,30.751462,76.762879,PM2.5,NA,NA,NA
India,Chandigarh,Chandigarh,"Sector-25, Chandigarh - CPCC",09-06-2024 21:00:00,30.751462,76.762879,NO2,NA,NA,NA
India,Chandigarh,Chandigarh,"Sector-25, Chandigarh - CPCC",09-06-2024 21:00:00,30.751462,76.762879,SO2,NA,NA,NA
India,Chandigarh,Chandigarh,"Sector-53, Chandigarh - CPCC",09-06-2024 21:00:00,30.719859,76.738637,PM10,50,173,111
India,Chhattisgarh,Bhilai,"32Bungalows, Bhilai - CECB",09-06-2024 21:00:00,21.194815,81.314770,PM10,28,126,52
India,Chhattisgarh,Bilaspur,"Mangala, Bilaspur - NTPC",09-06-2024 21:00:00,22.08815,82.13737,PM2.5,17,77,39
India,Chhattisgarh,Bilaspur,"Mangala, Bilaspur - NTPC",09-06-2024 21:00:00,22.08815,82.13737,PM10,22,74,41
India,Chhattisgarh,Bilaspur,"Mangala, Bilaspur - NTPC",09-06-2024 21:00:00,22.08815,82.13737,NO2,13,17,15
India,Chhattisgarh,Korba,"Rampur, Korba - CECB",09-06-2024 21:00:00,22.368195,82.746431,PM2.5,NA,NA,NA
India,Chhattisgarh,Korba,"Rampur, Korba - CECB",09-06-2024 21:00:00,22.368195,82.746431,NH3,NA,NA,NA
India,Chhattisgarh,Korba,"Urja Nagar, Korba - CECB",09-06-2024 21:00:00,22.348441,82.549611,PM10,20,94,49
India,Chhattisgarh,Kunjemura,"OP Jindal School, Kunjemura - CECB",09-06-2024 21:00:00,22.126650,83.483212,PM10,28,406,86
India,Chhattisgarh,Milupara,"Govt. Higher Secondary School, Milupara - CECB",09-06-2024 21:00:00,22.1910172,83.5197009,CO,5,54,23
India,Chhattisgarh,Raipur,"AIIMS, Raipur - CECB",09-06-2024 21:00:00,21.258815,81.578979,OZONE,3,41,20
India,Chhattisgarh,Raipur,"Bhatagaon New ISBT, Raipur - CECB",09-06-2024 21:00:00,21.219665,81.630094,SO2,1,2,2
India,Chhattisgarh,Raipur,"Bhatagaon New ISBT, Raipur - CECB",09-06-2024 21:00:00,21.219665,81.630094,CO,14,39,24
India,Chhattisgarh,Raipur,"Krishak Nagar, Raipur - CECB",09-06-2024 21:00:00,21.237755,81.705301,PM2.5,11,35,23
India,Chhattisgarh,Raipur,"Siltara Phase-II, Raipur - CECB",09-06-2024 21:00:00,21.371751,81.664929,CO,24,74,37
India,Delhi,Delhi,"Alipur, Delhi - DPCC",09-06-2024 21:00:00,28.815329,77.153010,PM2.5,18,143,56
India,Delhi,Delhi,"Alipur, Delhi - DPCC",09-06-2024 21:00:00,28.815329,77.153010,PM10,85,191,144
India,Delhi,Delhi,"Alipur, Delhi - DPCC",09-06-2024 21:00:00,28.815329,77.153010,OZONE,68,275,246
India,Delhi,Delhi,"Anand Vihar, Delhi - DPCC",09-06-2024 21:00:00,28.647622,77.3158090,SO2,18,45,26
India,Delhi,Delhi,"Aya Nagar, Delhi - IMD",09-06-2024 21:00:00,28.4706914,77.1099364,CO,64,112,75
India,Delhi,Delhi,"Bawana, Delhi - DPCC",09-06-2024 21:00:00,28.776200,77.051074,PM10,133,290,189
India,Delhi,Delhi,"Bawana, Delhi - DPCC",09-06-2024 21:00:00,28.776200,77.051074,CO,24,58,31
India,Delhi,Delhi,"CRRI Mathura Road, Delhi - IMD",09-06-2024 21:00:00,28.5512005,77.2735737,PM2.5,33,196,78
India,Delhi,Delhi,"CRRI Mathura Road, Delhi - IMD",09-06-2024 21:00:00,28.5512005,77.2735737,OZONE,4,73,49
India,Delhi,Delhi,"Chandni Chowk, Delhi - IITM",09-06-2024 21:00:00,28.656756,77.227234,PM2.5,216,327,297
India,Delhi,Delhi,"Chandni Chowk, Delhi - IITM",09-06-2024 21:00:00,28.656756,77.227234,CO,52,72,56
India,Delhi,Delhi,"DTU, Delhi - CPCB",09-06-2024 21:00:00,28.7500499,77.1112615,PM10,83,208,141
India,Delhi,Delhi,"Dr. Karni Singh Shooting Range, Delhi - DPCC",09-06-2024 21:00:00,28.498571,77.264840,SO2,5,32,16
India,Delhi,Delhi,"Dr. Karni Singh Shooting Range, Delhi - DPCC",09-06-2024 21:00:00,28.498571,77.264840,OZONE,9,258,109
India,Delhi,Delhi,"Dwarka-Sector 8, Delhi - DPCC ",09-06-2024 21:00:00,28.5710274,77.0719006,SO2,11,68,26
India,Delhi,Delhi,"IGI Airport (T3), Delhi - IMD",09-06-2024 21:00:00,28.5627763,77.1180053,CO,36,62,41
India,Delhi,Delhi,"IHBAS, Dilshad Garden, Delhi - CPCB",09-06-2024 21:00:00,28.6811736,77.3025234,PM10,105,147,127
India,Delhi,Delhi,"IHBAS, Dilshad Garden, Delhi - CPCB",09-06-2024 21:00:00,28.6811736,77.3025234,NO2,12,33,24
India,Delhi,Delhi,"IHBAS, Dilshad Garden, Delhi - CPCB",09-06-2024 21:00:00,28.6811736,77.3025234,CO,17,89,53
India,Delhi,Delhi,"ITO, Delhi - CPCB",09-06-2024 21:00:00,28.628624,77.241060,NH3,6,7,7
India,Delhi,Delhi,"Jawaharlal Nehru Stadium, Delhi - DPCC",09-06-2024 21:00:00,28.580280,77.233829,NO2,12,121,42
India,Delhi,Delhi,"Jawaharlal Nehru Stadium, Delhi - DPCC",09-06-2024 21:00:00,28.580280,77.233829,OZONE,19,238,191
India,Delhi,Delhi,"Lodhi Road, Delhi - IITM",09-06-2024 21:00:00,28.588333,77.221667,PM10,NA,NA,NA
India,Delhi,Delhi,"Major Dhyan Chand National Stadium, Delhi - DPCC",09-06-2024 21:00:00,28.611281,77.237738,PM2.5,37,223,92
India,Delhi,Delhi,"Mandir Marg, Delhi - DPCC",09-06-2024 21:00:00,28.636429,77.201067,PM2.5,12,267,76
India,Delhi,Delhi,"Mandir Marg, Delhi - DPCC",09-06-2024 21:00:00,28.636429,77.201067,NO2,65,90,74
India,Delhi,Delhi,"Mandir Marg, Delhi - DPCC",09-06-2024 21:00:00,28.636429,77.201067,SO2,8,29,16
India,Delhi,Delhi,"Mandir Marg, Delhi - DPCC",09-06-2024 21:00:00,28.636429,77.201067,CO,20,46,32
India,Delhi,Delhi,"Mandir Marg, Delhi - DPCC",09-06-2024 21:00:00,28.636429,77.201067,OZONE,54,117,93
India,Delhi,Delhi,"Mundka, Delhi - DPCC",09-06-2024 21:00:00,28.684678,77.076574,NO2,34,86,48
India,Delhi,Delhi,"Mundka, Delhi - DPCC",09-06-2024 21:00:00,28.684678,77.076574,NH3,5,8,7
India,Delhi,Delhi,"Mundka, Delhi - DPCC",09-06-2024 21:00:00,28.684678,77.076574,SO2,6,123,32
India,Delhi,Delhi,"NSIT Dwarka, Delhi - CPCB",09-06-2024 21:00:00,28.60909,77.0325413,NO2,25,43,33
India,Delhi,Delhi,"NSIT Dwarka, Delhi - CPCB",09-06-2024 21:00:00,28.60909,77.0325413,OZONE,14,93,75
India,Delhi,Delhi,"Najafgarh, Delhi - DPCC",09-06-2024 21:00:00,28.570173,76.933762,PM2.5,5,310,95
India,Delhi,Delhi,"Narela, Delhi - DPCC",09-06-2024 21:00:00,28.822836,77.101981,SO2,8,110,33
India,Delhi,Delhi,"Nehru Nagar, Delhi - DPCC",09-06-2024 21:00:00,28.567890,77.250515,OZONE,33,272,192
India,Delhi,Delhi,"North Campus, DU, Delhi - IMD",09-06-2024 21:00:00,28.6573814,77.1585447,PM10,NA,NA,NA
India,Delhi,Delhi,"Okhla Phase-2, Delhi - DPCC",09-06-2024 21:00:00,28.530785,77.271255,OZONE,10,112,82
India,Delhi,Delhi,"Patparganj, Delhi - DPCC",09-06-2024 21:00:00,28.623763,77.287209,PM2.5,40,110,78
India,Delhi,Delhi,"Pusa, Delhi - DPCC",09-06-2024 21:00:00,28.639652,77.146275,PM10,116,248,165
India,Delhi,Delhi,"Pusa, Delhi - IMD",09-06-2024 21:00:00,28.636110,77.173332,CO,36,52,39
India,Delhi,Delhi,"R K Puram, Delhi - DPCC",09-06-2024 21:00:00,28.563262,77.186937,PM10,100,173,141
India,Delhi,Delhi,"R K Puram, Delhi - DPCC",09-06-2024 21:00:00,28.563262,77.186937,CO,10,104,52
India,Delhi,Delhi,"R K Puram, Delhi - DPCC",09-06-2024 21:00:00,28.563262,77.186937,OZONE,22,189,150
India,Delhi,Delhi,"Rohini, Delhi - DPCC",09-06-2024 21:00:00,28.732528,77.119920,SO2,5,75,30
India,Delhi,Delhi,"Shadipur, Delhi - CPCB",09-06-2024 21:00:00,28.6514781,77.1473105,PM2.5,168,500,281
India,Delhi,Delhi,"Sirifort, Delhi - CPCB",09-06-2024 21:00:00,28.5504249,77.2159377,PM2.5,25,122,72
India,Delhi,Delhi,"Sirifort, Delhi - CPCB",09-06-2024 21:00:00,28.5504249,77.2159377,PM10,95,395,156
India,Delhi,Delhi,"Sirifort, Delhi - CPCB",09-06-2024 21:00:00,28.5504249,77.2159377,CO,8,36,14
India,Delhi,Delhi,"Sonia Vihar, Delhi - DPCC",09-06-2024 21:00:00,28.710508,77.249485,NH3,4,8,6
India,Delhi,Delhi,"Sri Aurobindo Marg, Delhi - DPCC",09-06-2024 21:00:00,28.531346,77.190156,NO2,26,210,160
India,Delhi,Delhi,"Sri Aurobindo Marg, Delhi - DPCC",09-06-2024 21:00:00,28.531346,77.190156,SO2,8,30,15
India,Delhi,Delhi,"Sri Aurobindo Marg, Delhi - DPCC",09-06-2024 21:00:00,28.531346,77.190156,OZONE,4,67,50
India,Delhi,Delhi,"Vivek Vihar, Delhi - DPCC",09-06-2024 21:00:00,28.672342,77.315260,PM10,NA,NA,NA
India,Delhi,Delhi,"Wazirpur, Delhi - DPCC",09-06-2024 21:00:00,28.699793,77.165453,NO2,28,60,39
India,Delhi,Delhi,"Wazirpur, Delhi - DPCC",09-06-2024 21:00:00,28.699793,77.165453,OZONE,13,58,49
India,Gujarat,Ahmedabad,"Gyaspur, Ahmedabad - IITM",09-06-2024 21:00:00,22.977134,72.553024,PM2.5,42,77,54
India,Gujarat,Ahmedabad,"Maninagar, Ahmedabad - GPCB",09-06-2024 21:00:00,23.002657,72.591912,SO2,10,131,60
India,Gujarat,Ahmedabad,"Rakhial, Ahmedabad - IITM",09-06-2024 21:00:00,23.016834,72.625775,SO2,14,66,32
India,Gujarat,Ahmedabad,"SVPI Airport Hansol, Ahmedabad - IITM",09-06-2024 21:00:00,23.076793,72.627874,PM2.5,49,170,104
India,Gujarat,Ahmedabad,"SVPI Airport Hansol, Ahmedabad - IITM",09-06-2024 21:00:00,23.076793,72.627874,PM10,74,127,103
India,Gujarat,Ahmedabad,"SVPI Airport Hansol, Ahmedabad - IITM",09-06-2024 21:00:00,23.076793,72.627874,SO2,4,14,7
India,Gujarat,Ankleshwar,"GIDC, Ankleshwar - GPCB",09-06-2024 21:00:00,21.613267,73.010555,OZONE,16,31,29
India,Gujarat,Gandhinagar,"GIFT City, Gandhinagar - IITM",09-06-2024 21:00:00,23.163798,72.677768,SO2,5,15,11
India,Gujarat,Gandhinagar,"GIFT City, Gandhinagar - IITM",09-06-2024 21:00:00,23.163798,72.677768,CO,31,36,35
India,Gujarat,Gandhinagar,"GIFT City, Gandhinagar - IITM",09-06-2024 21:00:00,23.163798,72.677768,OZONE,9,51,41
India,Gujarat,Gandhinagar,"Sector-10, Gandhinagar - GPCB",09-06-2024 21:00:00,23.221714,72.654328,OZONE,11,42,36
India,Gujarat,Nandesari,"GIDC, Nandesari - Nandesari Ind. Association",09-06-2024 21:00:00,22.410802,73.097923,NO2,2,18,9
India,Gujarat,Surat,"Science Center, Surat - SMC",09-06-2024 21:00:00,21.170046,72.795405,SO2,10,13,12
India,Gujarat,Vapi,"Phase-1 GIDC, Vapi - GPCB",09-06-2024 21:00:00,20.362421,72.918013,NO2,6,7,6
India,Gujarat,Vatva,"Phase-4 GIDC, Vatva - GPCB",09-06-2024 21:00:00,22.969611,72.643500,PM2.5,13,59,38
India,Gujarat,Vatva,"Phase-4 GIDC, Vatva - GPCB",09-06-2024 21:00:00,22.969611,72.643500,CO,20,22,21
India,Gujarat,Vatva,"Phase-4 GIDC, Vatva - GPCB",09-06-2024 21:00:00,22.969611,72.643500,OZONE,29,30,30
India,Haryana,Ambala,"Patti Mehar, Ambala - HSPCB",09-06-2024 21:00:00,30.379589,76.778328,CO,30,61,39
India,Haryana,Bahadurgarh,"Arya Nagar, Bahadurgarh - HSPCB",09-06-2024 21:00:00,28.6701,76.9254,PM10,95,176,134
India,Haryana,Ballabgarh,"Nathu Colony, Ballabgarh - HSPCB",09-06-2024 21:00:00,28.3419248,77.319699,PM2.5,70,304,183
India,Haryana,Ballabgarh,"Nathu Colony, Ballabgarh - HSPCB",09-06-2024 21:00:00,28.3419248,77.319699,PM10,106,188,150
India,Haryana,Ballabgarh,"Nathu Colony, Ballabgarh - HSPCB",09-06-2024 21:00:00,28.3419248,77.319699,NH3,1,2,2
India,Haryana,Ballabgarh,"Nathu Colony, Ballabgarh - HSPCB",09-06-2024 21:00:00,28.3419248,77.319699,SO2,5,25,11
India,Haryana,Bhiwani,"H.B. Colony, Bhiwani - HSPCB",09-06-2024 21:00:00,28.806223,76.141105,OZONE,9,125,13
India,Haryana,Dharuhera,"Municipal Corporation Office, Dharuhera -  HSPCB",09-06-2024 21:00:00,28.206800,76.799700,NH3,9,26,19
India,Haryana,Dharuhera,"Municipal Corporation Office, Dharuhera -  HSPCB",09-06-2024 21:00:00,28.206800,76.799700,OZONE,6,53,43
India,Haryana,Faridabad,"New Industrial Town, Faridabad - HSPCB",09-06-2024 21:00:00,28.39072,77.30059,PM10,139,192,166
India,Haryana,Faridabad,"New Industrial Town, Faridabad - HSPCB",09-06-2024 21:00:00,28.39072,77.30059,NH3,NA,NA,NA
India,Haryana,Faridabad,"Sector 11, Faridabad - HSPCB",09-06-2024 21:00:00,28.376058,77.315741,SO2,4,121,18
India,Haryana,Faridabad,"Sector 30, Faridabad - HSPCB",09-06-2024 21:00:00,28.4417,77.3217,PM10,88,128,108
India,Haryana,Faridabad,"Sector 30, Faridabad - HSPCB",09-06-2024 21:00:00,28.4417,77.3217,NO2,NA,NA,NA
India,Haryana,Faridabad,"Sector 30, Faridabad - HSPCB",09-06-2024 21:00:00,28.4417,77.3217,NH3,3,3,3
India,Haryana,Faridabad,"Sector 30, Faridabad - HSPCB",09-06-2024 21:00:00,28.4417,77.3217,SO2,5,6,6
India,Haryana,Faridabad,"Sector- 16A, Faridabad - HSPCB",09-06-2024 21:00:00,28.4088421,77.3099081,OZONE,14,14,14
India,Haryana,Gurugram,"Sector-51, Gurugram - HSPCB",09-06-2024 21:00:00,28.4227,77.0667,PM2.5,229,324,285
India,Haryana,Gurugram,"Sector-51, Gurugram - HSPCB",09-06-2024 21:00:00,28.4227,77.0667,SO2,2,4,3
India,Haryana,Gurugram,"Teri Gram, Gurugram - HSPCB",09-06-2024 21:00:00,28.4275,77.1465,CO,8,26,26
India,Haryana,Hisar,"Urban Estate-II, Hisar - HSPCB",09-06-2024 21:00:00,29.140560,75.744941,CO,25,43,28
India,Haryana,Hisar,"Urban Estate-II, Hisar - HSPCB",09-06-2024 21:00:00,29.140560,75.744941,OZONE,68,151,140
India,Haryana,Jind,"Police Lines, Jind - HSPCB",09-06-2024 21:00:00,29.307814,76.337619,PM2.5,47,71,57
India,Haryana,Jind,"Police Lines, Jind - HSPCB",09-06-2024 21:00:00,29.307814,76.337619,NO2,5,140,30
India,Haryana,Kaithal,"Rishi Nagar, Kaithal - HSPCB",09-06-2024 21:00:00,29.8006,76.4155,NH3,7,9,8
India,Haryana,Kaithal,"Rishi Nagar, Kaithal - HSPCB",09-06-2024 21:00:00,29.8006,76.4155,OZONE,15,23,18
India,Haryana,Karnal,"Sector-12, Karnal - HSPCB",09-06-2024 21:00:00,29.695300,77.002700,PM2.5,45,101,75
India,Haryana,Karnal,"Sector-12, Karnal - HSPCB",09-06-2024 21:00:00,29.695300,77.002700,NH3,10,13,11
India,Haryana,Kurukshetra,"Sector-7, Kurukshetra - HSPCB",09-06-2024 21:00:00,29.966942,76.875879,PM2.5,54,119,86
India,Haryana,Kurukshetra,"Sector-7, Kurukshetra - HSPCB",09-06-2024 21:00:00,29.966942,76.875879,PM10,74,144,112
India,Haryana,Kurukshetra,"Sector-7, Kurukshetra - HSPCB",09-06-2024 21:00:00,29.966942,76.875879,OZONE,77,185,161
India,Haryana,Mandikhera,"General Hospital, Mandikhera - HSPCB",09-06-2024 21:00:00,27.9002,76.9938,NH3,17,19,18
India,Haryana,Mandikhera,"General Hospital, Mandikhera - HSPCB",09-06-2024 21:00:00,27.9002,76.9938,SO2,31,37,34
India,Haryana,Mandikhera,"General Hospital, Mandikhera - HSPCB",09-06-2024 21:00:00,27.9002,76.9938,CO,20,32,22
India,Haryana,Manesar,"Sector-2 IMT, Manesar - HSPCB",09-06-2024 21:00:00,28.360699,76.936090,SO2,NA,NA,NA
India,Haryana,Narnaul,"Shastri Nagar, Narnaul - HSPCB",09-06-2024 21:00:00,28.060249,76.113115,PM10,37,60,46
India,Haryana,Palwal,"Shyam Nagar, Palwal - HSPCB",09-06-2024 21:00:00,28.1485564,77.3320667,NO2,23,24,24
India,Haryana,Sirsa,"F-Block, Sirsa - HSPCB",09-06-2024 21:00:00,29.536400,75.015800,CO,112,120,114
India,Haryana,Sonipat,"Murthal, Sonipat - HSPCB",09-06-2024 21:00:00,29.027200,77.062100,OZONE,17,35,31
India,Haryana,Yamuna Nagar,"Gobind Pura, Yamuna Nagar - HSPCB",09-06-2024 21:00:00,30.1480566,77.2893471,OZONE,15,20,17
India,Himachal Pradesh,Baddi,"HIMUDA Complex Phase-1, Baddi - HPPCB",09-06-2024 21:00:00,30.943887,76.801991,PM10,69,196,131
India,Himachal Pradesh,Baddi,"HIMUDA Complex Phase-1, Baddi - HPPCB",09-06-2024 21:00:00,30.943887,76.801991,NH3,3,7,5
India,Himachal Pradesh,Baddi,"HIMUDA Complex Phase-1, Baddi - HPPCB",09-06-2024 21:00:00,30.943887,76.801991,SO2,7,129,43
India,Jammu_and_Kashmir,Srinagar,"Rajbagh, Srinagar - JKSPCB",09-06-2024 21:00:00,34.066206,74.819820,CO,NA,NA,NA
India,Jammu_and_Kashmir,Srinagar,"Rajbagh, Srinagar - JKSPCB",09-06-2024 21:00:00,34.066206,74.819820,OZONE,NA,NA,NA
India,Jharkhand,Dhanbad,"Kalakusuma, Dhanbad - DMC",09-06-2024 21:00:00,23.811548,86.481238,NO2,105,426,256
India,Jharkhand,Dhanbad,"Kalakusuma, Dhanbad - DMC",09-06-2024 21:00:00,23.811548,86.481238,CO,129,134,131
India,Jharkhand,Dhanbad,"Sardar Patel Nagar, Dhanbad - JSPCB",09-06-2024 21:00:00,23.80569,86.44268,NO2,99,428,250
India,Karnataka,Bagalkot,"Vidayagiri, Bagalkot - KSPCB",09-06-2024 21:00:00,16.172806,75.659694,NH3,NA,NA,NA
India,Karnataka,Belgaum,"Ramteerth Nagar, Belgaum - KSPCB",09-06-2024 21:00:00,15.888653,74.541751,PM10,NA,NA,NA
India,Karnataka,Bengaluru,"Bapuji Nagar, Bengaluru - KSPCB",09-06-2024 21:00:00,12.951913,77.539784,PM2.5,7,231,42
India,Karnataka,Bengaluru,"Bapuji Nagar, Bengaluru - KSPCB",09-06-2024 21:00:00,12.951913,77.539784,SO2,5,6,6
India,Karnataka,Bengaluru,"Bapuji Nagar, Bengaluru - KSPCB",09-06-2024 21:00:00,12.951913,77.539784,OZONE,22,28,26
India,Karnataka,Bengaluru,"Hebbal, Bengaluru - KSPCB",09-06-2024 21:00:00,13.029152,77.585901,OZONE,7,39,9
India,Karnataka,Bengaluru,"Jayanagar 5th Block, Bengaluru - KSPCB",09-06-2024 21:00:00,12.920984,77.584908,PM2.5,3,33,12
India,Karnataka,Bengaluru,"Jayanagar 5th Block, Bengaluru - KSPCB",09-06-2024 21:00:00,12.920984,77.584908,PM10,6,46,21
India,Karnataka,Bengaluru,"Jayanagar 5th Block, Bengaluru - KSPCB",09-06-2024 21:00:00,12.920984,77.584908,NH3,1,2,2
India,Karnataka,Bengaluru,"Jayanagar 5th Block, Bengaluru - KSPCB",09-06-2024 21:00:00,12.920984,77.584908,CO,21,22,22
India,Karnataka,Bengaluru,"Jigani, Bengaluru - KSPCB",09-06-2024 21:00:00,12.7816279,77.6299145,PM2.5,39,41,40
India,Karnataka,Bengaluru,"Jigani, Bengaluru - KSPCB",09-06-2024 21:00:00,12.7816279,77.6299145,CO,24,40,25
India,Karnataka,Bengaluru,"Jigani, Bengaluru - KSPCB",09-06-2024 21:00:00,12.7816279,77.6299145,OZONE,29,36,33
India,Karnataka,Bengaluru,"Peenya, Bengaluru - CPCB",09-06-2024 21:00:00,13.0270199,77.494094,NH3,3,4,3
India,Karnataka,Bengaluru,"Silk Board, Bengaluru - KSPCB",09-06-2024 21:00:00,12.917348,77.622813,NO2,10,17,14
India,Karnataka,Bidar,"Naubad, Bidar - KSPCB",09-06-2024 21:00:00,17.930306,77.482194,OZONE,7,31,24
India,Karnataka,Chamarajanagar,"Urban, Chamarajanagar - KSPCB",09-06-2024 21:00:00,11.55358,76.55521,CO,30,122,30
India,Karnataka,Chikkaballapur,"Chikkaballapur Rural, Chikkaballapur - KSPCB",09-06-2024 21:00:00,13.428828,77.731418,PM10,6,34,20
India,Karnataka,Chikkaballapur,"Chikkaballapur Rural, Chikkaballapur - KSPCB",09-06-2024 21:00:00,13.428828,77.731418,NH3,1,1,1
India,Karnataka,Chikkaballapur,"Chikkaballapur Rural, Chikkaballapur - KSPCB",09-06-2024 21:00:00,13.428828,77.731418,CO,8,16,13
India,Karnataka,Chikkaballapur,"Chikkaballapur Rural, Chikkaballapur - KSPCB",09-06-2024 21:00:00,13.428828,77.731418,OZONE,25,27,25
India,Karnataka,Chikkamagaluru,"Kalyana Nagara, Chikkamagaluru - KSPCB",09-06-2024 21:00:00,13.328028,75.797056,NH3,2,3,2
India,Karnataka,Davanagere,"Devaraj Urs Badavane, Davanagere - KSPCB",09-06-2024 21:00:00,14.475800,75.905200,OZONE,20,22,21
India,Karnataka,Hassan,"B.Katihalli, Hassan - KSPCB",09-06-2024 21:00:00,13.008556,76.125258,NO2,NA,NA,NA
India,Karnataka,Hassan,"B.Katihalli, Hassan - KSPCB",09-06-2024 21:00:00,13.008556,76.125258,SO2,NA,NA,NA
India,Karnataka,Hassan,"B.Katihalli, Hassan - KSPCB",09-06-2024 21:00:00,13.008556,76.125258,OZONE,19,19,19
India,Karnataka,Haveri,"Ashwini Nagar, Haveri - KSPCB",09-06-2024 21:00:00,14.791800,75.389600,NH3,2,3,3
India,Karnataka,Hubballi,"Lingaraj Nagar, Hubballi - KSPCB",09-06-2024 21:00:00,15.3714823,75.1160168,PM2.5,27,46,40
India,Karnataka,Hubballi,"Lingaraj Nagar, Hubballi - KSPCB",09-06-2024 21:00:00,15.3714823,75.1160168,PM10,49,52,50
India,Karnataka,Hubballi,"Lingaraj Nagar, Hubballi - KSPCB",09-06-2024 21:00:00,15.3714823,75.1160168,NH3,2,3,3
India,Karnataka,Kalaburagi,"Lal Bahadur Shastri Nagar, Kalaburagi - KSPCB",09-06-2024 21:00:00,17.321993,76.822628,PM10,7,64,26
India,Karnataka,Kalaburagi,"Mahatma Basaveswar Colony, Kalaburgi - KSPCB",09-06-2024 21:00:00,17.336318,76.847397,PM10,19,39,25
India,Karnataka,Koppal,"Diwator Nagar, Koppal - KSPCB",09-06-2024 21:00:00,15.347630,76.181767,SO2,24,24,24
India,Karnataka,Madikeri,"Stuart Hill, Madikeri - KSPCB",09-06-2024 21:00:00,12.415911,75.735050,PM2.5,10,26,19
India,Karnataka,Madikeri,"Stuart Hill, Madikeri - KSPCB",09-06-2024 21:00:00,12.415911,75.735050,CO,4,57,24
India,Karnataka,Mangalore,"Kadri, Mangalore - KSPCB",09-06-2024 21:00:00,12.889250,74.853000,NH3,2,2,2
India,Karnataka,Mysuru,"Hebbal 1st Stage, Mysuru - KSPCB",09-06-2024 21:00:00,12.21041,76.37376,CO,2,21,13
India,Karnataka,Raichur,"Haji Colony, Raichur - KSPCB",09-06-2024 21:00:00,16.208139,77.348417,NH3,2,3,3
India,Karnataka,Raichur,"Haji Colony, Raichur - KSPCB",09-06-2024 21:00:00,16.208139,77.348417,CO,98,108,104
India,Karnataka,Shivamogga,"Vinoba Nagara, Shivamogga - KSPCB",09-06-2024 21:00:00,13.940000,75.555917,OZONE,9,57,40
India,Karnataka,Tumakuru,"Thimmalapura, Tumakuru - KSPCB",09-06-2024 21:00:00,13.377516,77.099072,PM10,31,102,64
India,Karnataka,Tumakuru,"Thimmalapura, Tumakuru - KSPCB",09-06-2024 21:00:00,13.377516,77.099072,CO,30,34,32
India,Kerala,Kannur,"Thavakkara, Kannur - Kerala PCB",09-06-2024 21:00:00,11.875000,75.373200,OZONE,29,31,29
India,Kerala,Kollam,"Polayathode, Kollam - Kerala PCB",09-06-2024 21:00:00,8.8787,76.6073,PM10,20,66,43
India,Kerala,Kollam,"Polayathode, Kollam - Kerala PCB",09-06-2024 21:00:00,8.8787,76.6073,CO,14,17,15
India,Kerala,Thiruvananthapuram,"Kariavattom, Thiruvananthapuram - Kerala PCB",09-06-2024 21:00:00,8.563700,76.886500,PM2.5,35,38,36
India,Kerala,Thiruvananthapuram,"Kariavattom, Thiruvananthapuram - Kerala PCB",09-06-2024 21:00:00,8.563700,76.886500,NO2,6,7,7
India,Kerala,Thrissur,"Corporation Ground, Thrissur - Kerala PCB",09-06-2024 21:00:00,10.532400,76.215900,NO2,7,8,7
India,Kerala,Thrissur,"Corporation Ground, Thrissur - Kerala PCB",09-06-2024 21:00:00,10.532400,76.215900,NH3,NA,NA,NA
India,Madhya Pradesh,Bhopal,"Idgah Hills, Bhopal - MPPCB",09-06-2024 21:00:00,23.264759,77.381568,CO,12,78,24
India,Madhya Pradesh,Bhopal,"Paryavaran Parisar, Bhopal - MPPCB",09-06-2024 21:00:00,23.210494,77.425409,CO,4,52,27
India,Madhya Pradesh,Bhopal,"T T Nagar, Bhopal - MPPCB",09-06-2024 21:00:00,23.233584,77.400574,PM10,68,176,105
India,Madhya Pradesh,Bhopal,"T T Nagar, Bhopal - MPPCB",09-06-2024 21:00:00,23.233584,77.400574,NO2,7,73,35
India,Madhya Pradesh,Bhopal,"T T Nagar, Bhopal - MPPCB",09-06-2024 21:00:00,23.233584,77.400574,NH3,3,10,7
India,Madhya Pradesh,Bhopal,"T T Nagar, Bhopal - MPPCB",09-06-2024 21:00:00,23.233584,77.400574,CO,17,123,96
India,Madhya Pradesh,Gwalior,"Deen Dayal Nagar, Gwalior - MPPCB",09-06-2024 21:00:00,26.259242,78.216432,PM10,97,468,232
India,Madhya Pradesh,Gwalior,"Deen Dayal Nagar, Gwalior - MPPCB",09-06-2024 21:00:00,26.259242,78.216432,CO,23,94,72
India,Madhya Pradesh,Gwalior,"Maharaj Bada, Gwalior - MPPCB",09-06-2024 21:00:00,26.200388,78.147714,SO2,3,95,37
India,Madhya Pradesh,Gwalior,"Phool Bagh, Gwalior - Mondelez Ind. Food",09-06-2024 21:00:00,26.210536,78.171,NO2,4,5,4
India,Madhya Pradesh,Gwalior,"Phool Bagh, Gwalior - Mondelez Ind. Food",09-06-2024 21:00:00,26.210536,78.171,SO2,26,40,29
India,Madhya Pradesh,Indore,"Maguda Nagar, Indore - IMC",09-06-2024 21:00:00,22.7524,75.8872,NH3,NA,NA,NA
India,Madhya Pradesh,Indore,"Maguda Nagar, Indore - IMC",09-06-2024 21:00:00,22.7524,75.8872,OZONE,NA,NA,NA
India,Madhya Pradesh,Indore,"Regional Park, Indore - IMC",09-06-2024 21:00:00,22.6780,75.8559,NH3,1,3,1
India,Madhya Pradesh,Indore,"Residency Area, Indore - IMC",09-06-2024 21:00:00,22.7084,75.8815,PM10,NA,NA,NA
India,Madhya Pradesh,Indore,"Residency Area, Indore - IMC",09-06-2024 21:00:00,22.7084,75.8815,SO2,30,73,43
India,Madhya Pradesh,Jabalpur,"Govindh Bhavan Colony, Jabalpur - JMC",09-06-2024 21:00:00,23.163174,79.973061,PM10,56,145,85
India,Madhya Pradesh,Jabalpur,"Gupteshwar, Jabalpur - JMC",09-06-2024 21:00:00,23.142888,79.916147,OZONE,36,81,72
India,Madhya Pradesh,Jabalpur,"Marhatal, Jabalpur - MPPCB",09-06-2024 21:00:00,23.168606,79.932247,SO2,17,22,20
India,Madhya Pradesh,Jabalpur,"Suhagi, Jabalpur - JMC",09-06-2024 21:00:00,23.218135,79.957770,PM10,NA,NA,NA
India,Madhya Pradesh,Maihar,"Sahilara, Maihar - KJS Cements",09-06-2024 21:00:00,24.2613009,80.7231783,PM10,3,130,68
India,Madhya Pradesh,Mandideep,"Sector-D Industrial Area, Mandideep - MPPCB",09-06-2024 21:00:00,23.108440,77.511428,PM2.5,65,364,168
