country,state,city,station,last_update,latitude,longitude,pollutant_id,pollutant_min,pollutant_max,pollutant_avg
India,Andhra_Pradesh,Amaravati,"Secretariat, Amaravati - APPCB",18-09-2024 21:00:00,16.5150833,80.5181667,NH3,2,4,4
India,Andhra_Pradesh,Amaravati,"Secretariat, Amaravati - APPCB",18-09-2024 21:00:00,16.5150833,80.5181667,SO2,16,20,18
India,Andhra_Pradesh,Amaravati,"Secretariat, Amaravati - APPCB",18-09-2024 21:00:00,16.5150833,80.5181667,OZONE,6,38,26
India,Andhra_Pradesh,Anantapur,"Gulzarpet, Anantapur - APPCB",18-09-2024 21:00:00,14.675886,77.593027,PM10,42,68,53
India,Andhra_Pradesh,Anantapur,"Gulzarpet, Anantapur - APPCB",18-09-2024 21:00:00,14.675886,77.593027,NO2,17,73,39
India,Andhra_Pradesh,Anantapur,"Gulzarpet, Anantapur - APPCB",18-09-2024 21:00:00,14.675886,77.593027,SO2,1,48,14
India,Andhra_Pradesh,Chittoor,"Gangineni Cheruvu, Chittoor - APPCB",18-09-2024 21:00:00,13.204880,79.097889,NO2,7,10,9
India,Andhra_Pradesh,Kadapa,"Yerramukkapalli, Kadapa - APPCB",18-09-2024 21:00:00,14.465052,78.824187,PM10,36,68,51
India,Andhra_Pradesh,Rajamahendravaram,"Anand Kala Kshetram, Rajamahendravaram - APPCB",18-09-2024 21:00:00,16.9872867,81.7363176,PM10,53,117,83
India,Andhra_Pradesh,Rajamahendravaram,"Anand Kala Kshetram, Rajamahendravaram - APPCB",18-09-2024 21:00:00,16.9872867,81.7363176,NO2,6,16,10
India,Andhra_Pradesh,Rajamahendravaram,"Anand Kala Kshetram, Rajamahendravaram - APPCB",18-09-2024 21:00:00,16.9872867,81.7363176,NH3,2,4,3
India,Andhra_Pradesh,Tirupati,"Tirumala, Tirupati - APPCB",18-09-2024 21:00:00,13.67,79.35,PM10,NA,NA,NA
India,Andhra_Pradesh,Tirupati,"Tirumala, Tirupati - APPCB",18-09-2024 21:00:00,13.67,79.35,NO2,NA,NA,NA
India,Andhra_Pradesh,Tirupati,"Tirumala, Tirupati - APPCB",18-09-2024 21:00:00,13.67,79.35,SO2,NA,NA,NA
India,Andhra_Pradesh,Tirupati,"Vaikuntapuram, Tirupati - APPCB",18-09-2024 21:00:00,13.615387,79.409230,NO2,13,24,17
India,Andhra_Pradesh,Tirupati,"Vaikuntapuram, Tirupati - APPCB",18-09-2024 21:00:00,13.615387,79.409230,CO,16,38,28
India,Andhra_Pradesh,Tirupati,"Vaikuntapuram, Tirupati - APPCB",18-09-2024 21:00:00,13.615387,79.409230,OZONE,27,66,61
India,Andhra_Pradesh,Vijayawada,"Kanuru, Vijayawada - APPCB",18-09-2024 21:00:00,16.486692,80.699436,NH3,NA,NA,NA
India,Andhra_Pradesh,Vijayawada,"Kanuru, Vijayawada - APPCB",18-09-2024 21:00:00,16.486692,80.699436,SO2,NA,NA,NA
India,Andhra_Pradesh,Vijayawada,"Rajiv Gandhi Park, Vijayawada - APPCB",18-09-2024 21:00:00,16.509717,80.612222,CO,NA,NA,NA
India,Andhra_Pradesh,Visakhapatnam,"GVM Corporation, Visakhapatnam - APPCB",18-09-2024 21:00:00,17.72,83.3,CO,6,42,18
India,Arunachal_Pradesh,Naharlagun,"Naharlagun, Naharlagun - APSPCB",18-09-2024 21:00:00,27.103358,93.679645,PM2.5,3,68,28
India,Assam,Byrnihat,"Central Academy for SFS, Byrnihat - PCBA",18-09-2024 21:00:00,26.071318,91.87488,PM2.5,NA,NA,NA
India,Assam,Byrnihat,"Central Academy for SFS, Byrnihat - PCBA",18-09-2024 21:00:00,26.071318,91.87488,PM10,NA,NA,NA
India,Assam,Byrnihat,"Central Academy for SFS, Byrnihat - PCBA",18-09-2024 21:00:00,26.071318,91.87488,OZONE,22,36,27
India,Assam,Guwahati,"IITG, Guwahati - PCBA",18-09-2024 21:00:00,26.2028636,91.70046436,PM10,NA,NA,NA
India,Assam,Guwahati,"IITG, Guwahati - PCBA",18-09-2024 21:00:00,26.2028636,91.70046436,SO2,NA,NA,NA
India,Assam,Guwahati,"LGBI Airport, Guwahati - PCBA",18-09-2024 21:00:00,26.10887,91.589544,PM2.5,3,500,90
India,Assam,Guwahati,"Railway Colony, Guwahati - PCBA",18-09-2024 21:00:00,26.181742,91.78063,CO,20,45,26
India,Assam,Nagaon,"Christianpatty, Nagaon - PCBA",18-09-2024 21:00:00,26.349082,92.68449,CO,30,86,50
India,Assam,Silchar,"Tarapur, Silchar - PCBA",18-09-2024 21:00:00,24.82827,92.79525,NH3,1,1,1
India,Assam,Sivasagar,"Girls College, Sivasagar - PCBA",18-09-2024 21:00:00,26.987634,94.636574,NH3,1,5,2
India,Assam,Sivasagar,"Girls College, Sivasagar - PCBA",18-09-2024 21:00:00,26.987634,94.636574,OZONE,1,12,4
India,Bihar,Araria,"Kharahiya Basti, Araria - BSPCB",18-09-2024 21:00:00,26.146529,87.454184,CO,22,51,33
India,Bihar,Arrah,"New DM Office, Arrah - BSPCB",18-09-2024 21:00:00,25.5626095,84.663264,PM2.5,30,50,38
India,Bihar,Arrah,"New DM Office, Arrah - BSPCB",18-09-2024 21:00:00,25.5626095,84.663264,CO,6,24,21
India,Bihar,Aurangabad,"Gurdeo Nagar, Aurangabad - BSPCB",18-09-2024 21:00:00,24.75746,84.366208,PM10,28,165,97
India,Bihar,Aurangabad,"Gurdeo Nagar, Aurangabad - BSPCB",18-09-2024 21:00:00,24.75746,84.366208,OZONE,17,44,33
India,Bihar,Begusarai,"Lohiyanagar, Begusarai - BSPCB (Formerly known as DRCC Anandpur)",18-09-2024 21:00:00,25.42742023,86.13886079,CO,32,66,42
India,Bihar,Bettiah,"Kamalnath Nagar, Bettiah - BSPCB",18-09-2024 21:00:00,26.80365,84.51954,PM10,71,144,105
India,Bihar,Bhagalpur,"Mayaganj, Bhagalpur - BSPCB",18-09-2024 21:00:00,25.265194,87.012947,OZONE,14,57,38
India,Bihar,Bihar Sharif,"D M Colony, Bihar Sharif - BSPCB",18-09-2024 21:00:00,25.204762,85.514960,PM10,46,210,111
India,Bihar,Bihar Sharif,"D M Colony, Bihar Sharif - BSPCB",18-09-2024 21:00:00,25.204762,85.514960,SO2,5,7,6
India,Bihar,Bihar Sharif,"D M Colony, Bihar Sharif - BSPCB",18-09-2024 21:00:00,25.204762,85.514960,CO,19,29,21
India,Bihar,Bihar Sharif,"D M Colony, Bihar Sharif - BSPCB",18-09-2024 21:00:00,25.204762,85.514960,OZONE,16,59,36
India,Bihar,Buxar,"Charitra Van, Buxar - BSPCB (Formerly known as Central Jail)",18-09-2024 21:00:00,25.567520,83.966379,PM10,15,56,31
India,Bihar,Buxar,"Charitra Van, Buxar - BSPCB (Formerly known as Central Jail)",18-09-2024 21:00:00,25.567520,83.966379,SO2,2,6,3
India,Bihar,Gaya,"Collectorate, Gaya - BSPCB",18-09-2024 21:00:00,24.7955,84.9994,SO2,18,19,18
India,Bihar,Gaya,"Kareemganj, Gaya - BSPCB",18-09-2024 21:00:00,24.792403,84.992416,NH3,3,4,3
India,Bihar,Gaya,"SFTI Kusdihra, Gaya - BSPCB",18-09-2024 21:00:00,24.762518,84.982348,PM10,NA,NA,NA
India,Bihar,Gaya,"SFTI Kusdihra, Gaya - BSPCB",18-09-2024 21:00:00,24.762518,84.982348,NO2,NA,NA,NA
India,Bihar,Gaya,"SFTI Kusdihra, Gaya - BSPCB",18-09-2024 21:00:00,24.762518,84.982348,CO,13,32,26
India,Bihar,Katihar,"Mirchaibari, Katihar - BSPCB",18-09-2024 21:00:00,25.560083,87.553265,SO2,5,17,13
India,Bihar,Kishanganj,"SDM Office_Khagra, Kishanganj - BSPCB",18-09-2024 21:00:00,26.0881305,87.93840336,PM10,31,180,84
India,Bihar,Manguraha,"Forest Rest House, Manguraha - BSPCB",18-09-2024 21:00:00,27.308328,84.531742,PM10,54,81,70
India,Bihar,Motihari,"Gandak Colony, Motihari - BSPCB",18-09-2024 21:00:00,26.63086,84.90051,CO,24,48,32
India,Bihar,Muzaffarpur,"Buddha Colony, Muzaffarpur - BSPCB",18-09-2024 21:00:00,26.11442,85.39813,NO2,4,30,12
India,Bihar,Muzaffarpur,"MIT-Daudpur Kothi, Muzaffarpur - BSPCB",18-09-2024 21:00:00,26.1403345,85.3650192,PM10,NA,NA,NA
India,Bihar,Muzaffarpur,"Muzaffarpur Collectorate, Muzaffarpur - BSPCB",18-09-2024 21:00:00,26.1209,85.3647,PM2.5,40,150,68
India,Bihar,Muzaffarpur,"Muzaffarpur Collectorate, Muzaffarpur - BSPCB",18-09-2024 21:00:00,26.1209,85.3647,SO2,5,12,9
India,Bihar,Patna,"DRM Office Danapur, Patna - BSPCB",18-09-2024 21:00:00,25.586562,85.043586,PM2.5,20,56,39
India,Bihar,Patna,"DRM Office Danapur, Patna - BSPCB",18-09-2024 21:00:00,25.586562,85.043586,NO2,19,32,24
India,Bihar,Patna,"DRM Office Danapur, Patna - BSPCB",18-09-2024 21:00:00,25.586562,85.043586,NH3,5,8,6
India,Bihar,Patna,"DRM Office Danapur, Patna - BSPCB",18-09-2024 21:00:00,25.586562,85.043586,CO,30,56,38
India,Bihar,Patna,"Govt. High School Shikarpur, Patna - BSPCB",18-09-2024 21:00:00,25.592539,85.227158,NH3,5,6,6
India,Bihar,Patna,"Rajbansi Nagar, Patna - BSPCB",18-09-2024 21:00:00,25.599486,85.113666,PM10,69,113,90
India,Bihar,Patna,"Rajbansi Nagar, Patna - BSPCB",18-09-2024 21:00:00,25.599486,85.113666,NO2,19,195,50
India,Bihar,Patna,"Samanpura, Patna - BSPCB",18-09-2024 21:00:00,25.596727,85.085624,PM2.5,NA,NA,NA
India,Bihar,Patna,"Samanpura, Patna - BSPCB",18-09-2024 21:00:00,25.596727,85.085624,NH3,5,11,10
India,Bihar,Purnia,"Mariam Nagar, Purnia - BSPCB",18-09-2024 21:00:00,25.366336,87.117468,PM10,NA,NA,NA
India,Bihar,Purnia,"Mariam Nagar, Purnia - BSPCB",18-09-2024 21:00:00,25.366336,87.117468,CO,34,54,46
India,Bihar,Rajgir,"Dangi Tola, Rajgir - BSPCB",18-09-2024 21:00:00,25.03280,85.41948,SO2,4,4,4
India,Bihar,Samastipur,"DM Office_Kasipur, Samastipur - BSPCB",18-09-2024 21:00:00,25.859655,85.77944,PM10,7,42,17
India,Bihar,Siwan,"Chitragupta Nagar, Siwan - BSPCB",18-09-2024 21:00:00,26.2271665,84.3570427,PM10,42,190,73
India,Bihar,Siwan,"Chitragupta Nagar, Siwan - BSPCB",18-09-2024 21:00:00,26.2271665,84.3570427,NH3,3,4,3
India,Chandigarh,Chandigarh,"Sector 22, Chandigarh - CPCC",18-09-2024 21:00:00,30.735567,76.775714,SO2,7,11,8
India,Chandigarh,Chandigarh,"Sector-25, Chandigarh - CPCC",18-09-2024 21:00:00,30.751462,76.762879,PM10,35,111,63
India,Chandigarh,Chandigarh,"Sector-25, Chandigarh - CPCC",18-09-2024 21:00:00,30.751462,76.762879,NO2,8,47,21
India,Chandigarh,Chandigarh,"Sector-25, Chandigarh - CPCC",18-09-2024 21:00:00,30.751462,76.762879,CO,24,44,31
India,Chhattisgarh,Bhilai,"32Bungalows, Bhilai - CECB",18-09-2024 21:00:00,21.194815,81.314770,PM10,39,69,47
India,Chhattisgarh,Bhilai,"Civic Center, Bhilai - Bhilai Steel Plant",18-09-2024 21:00:00,21.185571,81.343175,PM2.5,16,42,26
India,Chhattisgarh,Bhilai,"Civic Center, Bhilai - Bhilai Steel Plant",18-09-2024 21:00:00,21.185571,81.343175,PM10,30,49,37
India,Chhattisgarh,Bhilai,"Civic Center, Bhilai - Bhilai Steel Plant",18-09-2024 21:00:00,21.185571,81.343175,NH3,3,4,4
India,Chhattisgarh,Bhilai,"Civic Center, Bhilai - Bhilai Steel Plant",18-09-2024 21:00:00,21.185571,81.343175,CO,36,61,41
India,Chhattisgarh,Bhilai,"Civic Center, Bhilai - Bhilai Steel Plant",18-09-2024 21:00:00,21.185571,81.343175,OZONE,9,28,21
India,Chhattisgarh,Bhilai,"Hathkhoj, Bhilai - CECB",18-09-2024 21:00:00,21.224231,81.408350,NH3,5,6,6
India,Chhattisgarh,Bhilai,"Hathkhoj, Bhilai - CECB",18-09-2024 21:00:00,21.224231,81.408350,SO2,11,25,13
India,Chhattisgarh,Bilaspur,"Mangala, Bilaspur - NTPC",18-09-2024 21:00:00,22.08815,82.13737,PM2.5,14,60,27
India,Chhattisgarh,Bilaspur,"Mangala, Bilaspur - NTPC",18-09-2024 21:00:00,22.08815,82.13737,PM10,19,78,32
India,Chhattisgarh,Chhal,"Nawapara SECL Colony, Chhal - CECB",18-09-2024 21:00:00,22.118125,83.140608,NO2,5,13,8
India,Chhattisgarh,Korba,"Rampur, Korba - CECB",18-09-2024 21:00:00,22.368195,82.746431,NH3,1,1,1
India,Chhattisgarh,Korba,"Urja Nagar, Korba - CECB",18-09-2024 21:00:00,22.348441,82.549611,NH3,2,6,5
India,Chhattisgarh,Kunjemura,"OP Jindal School, Kunjemura - CECB",18-09-2024 21:00:00,22.126650,83.483212,CO,20,75,27
India,Chhattisgarh,Raipur,"AIIMS, Raipur - CECB",18-09-2024 21:00:00,21.258815,81.578979,PM2.5,13,26,20
India,Chhattisgarh,Raipur,"AIIMS, Raipur - CECB",18-09-2024 21:00:00,21.258815,81.578979,NO2,5,14,8
India,Chhattisgarh,Raipur,"Bhatagaon New ISBT, Raipur - CECB",18-09-2024 21:00:00,21.219665,81.630094,NH3,2,2,2
India,Chhattisgarh,Raipur,"Siltara Phase-II, Raipur - CECB",18-09-2024 21:00:00,21.371751,81.664929,NH3,3,3,3
India,Delhi,Delhi,"Alipur, Delhi - DPCC",18-09-2024 21:00:00,28.815329,77.153010,NO2,16,42,26
India,Delhi,Delhi,"Ashok Vihar, Delhi - DPCC",18-09-2024 21:00:00,28.695381,77.181665,NH3,7,10,8
India,Delhi,Delhi,"Ashok Vihar, Delhi - DPCC",18-09-2024 21:00:00,28.695381,77.181665,SO2,3,12,6
India,Delhi,Delhi,"Burari Crossing, Delhi - IMD",18-09-2024 21:00:00,28.7256504,77.2011573,PM10,9,132,69
India,Delhi,Delhi,"DTU, Delhi - CPCB",18-09-2024 21:00:00,28.7500499,77.1112615,PM10,21,203,93
India,Delhi,Delhi,"Dwarka-Sector 8, Delhi - DPCC ",18-09-2024 21:00:00,28.5710274,77.0719006,NO2,28,115,70
India,Delhi,Delhi,"Dwarka-Sector 8, Delhi - DPCC ",18-09-2024 21:00:00,28.5710274,77.0719006,NH3,5,7,6
India,Delhi,Delhi,"IGI Airport (T3), Delhi - IMD",18-09-2024 21:00:00,28.5627763,77.1180053,NO2,31,64,47
India,Delhi,Delhi,"IGI Airport (T3), Delhi - IMD",18-09-2024 21:00:00,28.5627763,77.1180053,CO,12,73,16
India,Delhi,Delhi,"IHBAS, Dilshad Garden, Delhi - CPCB",18-09-2024 21:00:00,28.6811736,77.3025234,PM10,47,159,87
India,Delhi,Delhi,"IHBAS, Dilshad Garden, Delhi - CPCB",18-09-2024 21:00:00,28.6811736,77.3025234,NO2,35,82,51
India,Delhi,Delhi,"IHBAS, Dilshad Garden, Delhi - CPCB",18-09-2024 21:00:00,28.6811736,77.3025234,OZONE,15,20,18
India,Delhi,Delhi,"Jahangirpuri, Delhi - DPCC",18-09-2024 21:00:00,28.732820,77.170633,SO2,3,25,17
India,Delhi,Delhi,"Jawaharlal Nehru Stadium, Delhi - DPCC",18-09-2024 21:00:00,28.580280,77.233829,PM2.5,3,80,42
India,Delhi,Delhi,"Jawaharlal Nehru Stadium, Delhi - DPCC",18-09-2024 21:00:00,28.580280,77.233829,PM10,16,108,62
India,Delhi,Delhi,"Lodhi Road, Delhi - IITM",18-09-2024 21:00:00,28.588333,77.221667,NO2,77,102,88
India,Delhi,Delhi,"Lodhi Road, Delhi - IMD",18-09-2024 21:00:00,28.5918245,77.2273074,CO,14,20,17
India,Delhi,Delhi,"Major Dhyan Chand National Stadium, Delhi - DPCC",18-09-2024 21:00:00,28.611281,77.237738,NO2,16,60,33
India,Delhi,Delhi,"Mandir Marg, Delhi - DPCC",18-09-2024 21:00:00,28.636429,77.201067,NO2,31,69,46
India,Delhi,Delhi,"Mandir Marg, Delhi - DPCC",18-09-2024 21:00:00,28.636429,77.201067,OZONE,1,40,14
India,Delhi,Delhi,"Mundka, Delhi - DPCC",18-09-2024 21:00:00,28.684678,77.076574,NO2,18,202,46
India,Delhi,Delhi,"Mundka, Delhi - DPCC",18-09-2024 21:00:00,28.684678,77.076574,NH3,2,14,6
India,Delhi,Delhi,"NSIT Dwarka, Delhi - CPCB",18-09-2024 21:00:00,28.60909,77.0325413,SO2,8,18,12
India,Delhi,Delhi,"Najafgarh, Delhi - DPCC",18-09-2024 21:00:00,28.570173,76.933762,CO,27,62,37
India,Delhi,Delhi,"Narela, Delhi - DPCC",18-09-2024 21:00:00,28.822836,77.101981,NH3,5,8,6
India,Delhi,Delhi,"Nehru Nagar, Delhi - DPCC",18-09-2024 21:00:00,28.567890,77.250515,SO2,9,17,12
India,Delhi,Delhi,"North Campus, DU, Delhi - IMD",18-09-2024 21:00:00,28.6573814,77.1585447,NO2,33,85,51
India,Delhi,Delhi,"North Campus, DU, Delhi - IMD",18-09-2024 21:00:00,28.6573814,77.1585447,CO,22,72,26
India,Delhi,Delhi,"Okhla Phase-2, Delhi - DPCC",18-09-2024 21:00:00,28.530785,77.271255,CO,32,80,37
India,Delhi,Delhi,"Patparganj, Delhi - DPCC",18-09-2024 21:00:00,28.623763,77.287209,SO2,1,5,3
India,Delhi,Delhi,"Patparganj, Delhi - DPCC",18-09-2024 21:00:00,28.623763,77.287209,CO,4,56,21
India,Delhi,Delhi,"Pusa, Delhi - IMD",18-09-2024 21:00:00,28.636110,77.173332,PM2.5,2,156,54
India,Delhi,Delhi,"Pusa, Delhi - IMD",18-09-2024 21:00:00,28.636110,77.173332,OZONE,12,23,15
India,Delhi,Delhi,"R K Puram, Delhi - DPCC",18-09-2024 21:00:00,28.563262,77.186937,PM10,30,151,87
India,Delhi,Delhi,"R K Puram, Delhi - DPCC",18-09-2024 21:00:00,28.563262,77.186937,NO2,37,74,47
India,Delhi,Delhi,"R K Puram, Delhi - DPCC",18-09-2024 21:00:00,28.563262,77.186937,NH3,3,6,5
India,Delhi,Delhi,"Rohini, Delhi - DPCC",18-09-2024 21:00:00,28.732528,77.119920,PM10,21,207,113
India,Delhi,Delhi,"Shadipur, Delhi - CPCB",18-09-2024 21:00:00,28.6514781,77.1473105,SO2,2,20,11
India,Delhi,Delhi,"Sonia Vihar, Delhi - DPCC",18-09-2024 21:00:00,28.710508,77.249485,PM10,30,201,90
India,Delhi,Delhi,"Sonia Vihar, Delhi - DPCC",18-09-2024 21:00:00,28.710508,77.249485,NH3,4,10,6
India,Delhi,Delhi,"Sonia Vihar, Delhi - DPCC",18-09-2024 21:00:00,28.710508,77.249485,SO2,1,9,4
India,Delhi,Delhi,"Sri Aurobindo Marg, Delhi - DPCC",18-09-2024 21:00:00,28.531346,77.190156,PM2.5,20,150,57
India,Delhi,Delhi,"Vivek Vihar, Delhi - DPCC",18-09-2024 21:00:00,28.672342,77.315260,NO2,10,59,28
India,Delhi,Delhi,"Wazirpur, Delhi - DPCC",18-09-2024 21:00:00,28.699793,77.165453,SO2,1,8,4
India,Gujarat,Ahmedabad,"Chandkheda, Ahmedabad - IITM",18-09-2024 21:00:00,23.107969,72.574648,NH3,2,3,3
India,Gujarat,Ahmedabad,"Chandkheda, Ahmedabad - IITM",18-09-2024 21:00:00,23.107969,72.574648,OZONE,4,35,25
India,Gujarat,Ahmedabad,"Gyaspur, Ahmedabad - IITM",18-09-2024 21:00:00,22.977134,72.553024,PM2.5,14,67,38
India,Gujarat,Ahmedabad,"Gyaspur, Ahmedabad - IITM",18-09-2024 21:00:00,22.977134,72.553024,CO,26,35,32
India,Gujarat,Ahmedabad,"Maninagar, Ahmedabad - GPCB",18-09-2024 21:00:00,23.002657,72.591912,PM2.5,16,54,34
India,Gujarat,Ahmedabad,"Maninagar, Ahmedabad - GPCB",18-09-2024 21:00:00,23.002657,72.591912,CO,12,42,29
India,Gujarat,Ahmedabad,"Raikhad, Ahmedabad - IITM",18-09-2024 21:00:00,23.020509,72.579261,PM2.5,43,60,50
India,Gujarat,Ahmedabad,"SAC ISRO Satellite, Ahmedabad - IITM",18-09-2024 21:00:00,23.023389,72.515201,PM10,41,117,65
India,Gujarat,Ahmedabad,"SAC ISRO Satellite, Ahmedabad - IITM",18-09-2024 21:00:00,23.023389,72.515201,NH3,1,1,1
India,Gujarat,Ahmedabad,"SAC ISRO Satellite, Ahmedabad - IITM",18-09-2024 21:00:00,23.023389,72.515201,CO,14,38,22
India,Gujarat,Ahmedabad,"SVPI Airport Hansol, Ahmedabad - IITM",18-09-2024 21:00:00,23.076793,72.627874,NO2,25,57,36
India,Gujarat,Ahmedabad,"Sardar Vallabhbhai Patel Stadium, Ahmedabad - IITM",18-09-2024 21:00:00,23.043070,72.562968,PM2.5,10,98,60
India,Gujarat,Ahmedabad,"Sardar Vallabhbhai Patel Stadium, Ahmedabad - IITM",18-09-2024 21:00:00,23.043070,72.562968,NH3,2,6,4
India,Gujarat,Ankleshwar,"GIDC, Ankleshwar - GPCB",18-09-2024 21:00:00,21.613267,73.010555,CO,16,31,24
India,Gujarat,Gandhinagar,"Sector-10, Gandhinagar - GPCB",18-09-2024 21:00:00,23.221714,72.654328,NH3,2,2,2
India,Gujarat,Gandhinagar,"Sector-10, Gandhinagar - GPCB",18-09-2024 21:00:00,23.221714,72.654328,CO,14,46,19
India,Gujarat,Nandesari,"GIDC, Nandesari - Nandesari Ind. Association",18-09-2024 21:00:00,22.410802,73.097923,SO2,1,17,7
India,Gujarat,Vapi,"Phase-1 GIDC, Vapi - GPCB",18-09-2024 21:00:00,20.362421,72.918013,NO2,13,15,14
India,Gujarat,Vatva,"Phase-4 GIDC, Vatva - GPCB",18-09-2024 21:00:00,22.969611,72.643500,PM10,44,102,70
India,Gujarat,Vatva,"Phase-4 GIDC, Vatva - GPCB",18-09-2024 21:00:00,22.969611,72.643500,NH3,1,1,1
India,Haryana,Ambala,"Patti Mehar, Ambala - HSPCB",18-09-2024 21:00:00,30.379589,76.778328,PM10,32,83,49
India,Haryana,Bahadurgarh,"Arya Nagar, Bahadurgarh - HSPCB",18-09-2024 21:00:00,28.6701,76.9254,NO2,28,38,35
India,Haryana,Ballabgarh,"Nathu Colony, Ballabgarh - HSPCB",18-09-2024 21:00:00,28.3419248,77.319699,NH3,NA,NA,NA
India,Haryana,Charkhi Dadri,"Mini Secretariat, Charkhi Dadri - HSPCB",18-09-2024 21:00:00,28.593883,76.270653,PM2.5,12,285,134
India,Haryana,Charkhi Dadri,"Mini Secretariat, Charkhi Dadri - HSPCB",18-09-2024 21:00:00,28.593883,76.270653,NH3,6,8,7
India,Haryana,Charkhi Dadri,"Mini Secretariat, Charkhi Dadri - HSPCB",18-09-2024 21:00:00,28.593883,76.270653,SO2,9,17,13
India,Haryana,Charkhi Dadri,"Mini Secretariat, Charkhi Dadri - HSPCB",18-09-2024 21:00:00,28.593883,76.270653,CO,10,21,14
India,Haryana,Dharuhera,"Municipal Corporation Office, Dharuhera -  HSPCB",18-09-2024 21:00:00,28.206800,76.799700,PM2.5,NA,NA,NA
India,Haryana,Dharuhera,"Municipal Corporation Office, Dharuhera -  HSPCB",18-09-2024 21:00:00,28.206800,76.799700,SO2,NA,NA,NA
India,Haryana,Dharuhera,"Municipal Corporation Office, Dharuhera -  HSPCB",18-09-2024 21:00:00,28.206800,76.799700,CO,9,26,12
India,Haryana,Faridabad,"New Industrial Town, Faridabad - HSPCB",18-09-2024 21:00:00,28.39072,77.30059,PM10,18,108,62
India,Haryana,Faridabad,"New Industrial Town, Faridabad - HSPCB",18-09-2024 21:00:00,28.39072,77.30059,CO,10,30,13
India,Haryana,Faridabad,"New Industrial Town, Faridabad - HSPCB",18-09-2024 21:00:00,28.39072,77.30059,OZONE,11,21,14
India,Haryana,Faridabad,"Sector 11, Faridabad - HSPCB",18-09-2024 21:00:00,28.376058,77.315741,PM2.5,NA,NA,NA
India,Haryana,Faridabad,"Sector 11, Faridabad - HSPCB",18-09-2024 21:00:00,28.376058,77.315741,NO2,30,32,31
India,Haryana,Faridabad,"Sector 11, Faridabad - HSPCB",18-09-2024 21:00:00,28.376058,77.315741,CO,26,46,31
India,Haryana,Faridabad,"Sector 11, Faridabad - HSPCB",18-09-2024 21:00:00,28.376058,77.315741,OZONE,5,36,9
India,Haryana,Faridabad,"Sector 30, Faridabad - HSPCB",18-09-2024 21:00:00,28.4417,77.3217,NH3,NA,NA,NA
India,Haryana,Fatehabad,"Huda Sector, Fatehabad - HSPCB",18-09-2024 21:00:00,29.503664,75.467934,PM2.5,NA,NA,NA
India,Haryana,Fatehabad,"Huda Sector, Fatehabad - HSPCB",18-09-2024 21:00:00,29.503664,75.467934,NH3,NA,NA,NA
India,Haryana,Gurugram,"Sector-51, Gurugram - HSPCB",18-09-2024 21:00:00,28.4227,77.0667,PM10,20,175,105
India,Haryana,Gurugram,"Sector-51, Gurugram - HSPCB",18-09-2024 21:00:00,28.4227,77.0667,NH3,6,14,9
India,Haryana,Gurugram,"Sector-51, Gurugram - HSPCB",18-09-2024 21:00:00,28.4227,77.0667,OZONE,32,35,34
India,Haryana,Gurugram,"Teri Gram, Gurugram - HSPCB",18-09-2024 21:00:00,28.4275,77.1465,PM2.5,17,39,26
India,Haryana,Gurugram,"Teri Gram, Gurugram - HSPCB",18-09-2024 21:00:00,28.4275,77.1465,PM10,16,35,23
India,Haryana,Gurugram,"Teri Gram, Gurugram - HSPCB",18-09-2024 21:00:00,28.4275,77.1465,SO2,3,18,10
India,Haryana,Gurugram,"Teri Gram, Gurugram - HSPCB",18-09-2024 21:00:00,28.4275,77.1465,CO,13,42,30
India,Haryana,Hisar,"Urban Estate-II, Hisar - HSPCB",18-09-2024 21:00:00,29.140560,75.744941,SO2,NA,NA,NA
India,Haryana,Jind,"Police Lines, Jind - HSPCB",18-09-2024 21:00:00,29.307814,76.337619,PM10,31,124,87
India,Haryana,Kaithal,"Rishi Nagar, Kaithal - HSPCB",18-09-2024 21:00:00,29.8006,76.4155,PM2.5,29,100,60
India,Haryana,Kaithal,"Rishi Nagar, Kaithal - HSPCB",18-09-2024 21:00:00,29.8006,76.4155,SO2,30,61,34
India,Haryana,Kaithal,"Rishi Nagar, Kaithal - HSPCB",18-09-2024 21:00:00,29.8006,76.4155,CO,2,59,33
India,Haryana,Karnal,"Sector-12, Karnal - HSPCB",18-09-2024 21:00:00,29.695300,77.002700,PM10,29,143,78
India,Haryana,Karnal,"Sector-12, Karnal - HSPCB",18-09-2024 21:00:00,29.695300,77.002700,SO2,12,13,12
India,Haryana,Karnal,"Sector-12, Karnal - HSPCB",18-09-2024 21:00:00,29.695300,77.002700,CO,28,47,34
India,Haryana,Kurukshetra,"Sector-7, Kurukshetra - HSPCB",18-09-2024 21:00:00,29.966942,76.875879,PM2.5,29,51,43
India,Haryana,Kurukshetra,"Sector-7, Kurukshetra - HSPCB",18-09-2024 21:00:00,29.966942,76.875879,CO,8,44,21
India,Haryana,Mandikhera,"General Hospital, Mandikhera - HSPCB",18-09-2024 21:00:00,27.9002,76.9938,NH3,16,19,18
India,Haryana,Manesar,"Sector-2 IMT, Manesar - HSPCB",18-09-2024 21:00:00,28.360699,76.936090,NO2,26,84,48
India,Haryana,Manesar,"Sector-2 IMT, Manesar - HSPCB",18-09-2024 21:00:00,28.360699,76.936090,NH3,16,50,29
India,Haryana,Narnaul,"Shastri Nagar, Narnaul - HSPCB",18-09-2024 21:00:00,28.060249,76.113115,PM2.5,30,83,60
India,Haryana,Narnaul,"Shastri Nagar, Narnaul - HSPCB",18-09-2024 21:00:00,28.060249,76.113115,OZONE,3,70,43
India,Haryana,Palwal,"Shyam Nagar, Palwal - HSPCB",18-09-2024 21:00:00,28.1485564,77.3320667,NO2,23,24,24
India,Haryana,Panchkula,"Sector-6, Panchkula - HSPCB ",18-09-2024 21:00:00,30.7057778,76.8531805555555,OZONE,26,48,32
India,Haryana,Panipat,"Sector-18, Panipat - HSPCB",18-09-2024 21:00:00,29.432304,76.972765,NO2,NA,NA,NA
India,Haryana,Panipat,"Sector-18, Panipat - HSPCB",18-09-2024 21:00:00,29.432304,76.972765,NH3,NA,NA,NA
India,Haryana,Panipat,"Sector-18, Panipat - HSPCB",18-09-2024 21:00:00,29.432304,76.972765,SO2,NA,NA,NA
India,Haryana,Rohtak,"MD University, Rohtak - HSPCB",18-09-2024 21:00:00,28.52123,76.37138,NO2,32,38,36
India,Haryana,Rohtak,"MD University, Rohtak - HSPCB",18-09-2024 21:00:00,28.52123,76.37138,SO2,1,30,7
India,Haryana,Rohtak,"MD University, Rohtak - HSPCB",18-09-2024 21:00:00,28.52123,76.37138,CO,20,37,28
India,Haryana,Sirsa,"F-Block, Sirsa - HSPCB",18-09-2024 21:00:00,29.536400,75.015800,PM10,NA,NA,NA
India,Haryana,Sirsa,"F-Block, Sirsa - HSPCB",18-09-2024 21:00:00,29.536400,75.015800,NH3,5,7,5
India,Haryana,Sirsa,"F-Block, Sirsa - HSPCB",18-09-2024 21:00:00,29.536400,75.015800,CO,64,72,68
India,Haryana,Sonipat,"Murthal, Sonipat - HSPCB",18-09-2024 21:00:00,29.027200,77.062100,PM2.5,34,35,34
India,Haryana,Sonipat,"Murthal, Sonipat - HSPCB",18-09-2024 21:00:00,29.027200,77.062100,NO2,37,44,40
India,Haryana,Sonipat,"Murthal, Sonipat - HSPCB",18-09-2024 21:00:00,29.027200,77.062100,NH3,7,10,9
India,Haryana,Yamuna Nagar,"Gobind Pura, Yamuna Nagar - HSPCB",18-09-2024 21:00:00,30.1480566,77.2893471,NO2,11,21,16
India,Haryana,Yamuna Nagar,"Gobind Pura, Yamuna Nagar - HSPCB",18-09-2024 21:00:00,30.1480566,77.2893471,NH3,1,7,4
India,Haryana,Yamuna Nagar,"Gobind Pura, Yamuna Nagar - HSPCB",18-09-2024 21:00:00,30.1480566,77.2893471,SO2,1,127,30
India,Haryana,Yamuna Nagar,"Gobind Pura, Yamuna Nagar - HSPCB",18-09-2024 21:00:00,30.1480566,77.2893471,CO,17,52,46
India,Himachal Pradesh,Baddi,"HIMUDA Complex Phase-1, Baddi - HPPCB",18-09-2024 21:00:00,30.943887,76.801991,SO2,19,20,19
India,Jharkhand,Jorapokhar,"Tata Stadium, Jorapokhar - JSPCB",18-09-2024 21:00:00,23.707909,86.414670,PM10,NA,NA,NA
India,Jharkhand,Jorapokhar,"Tata Stadium, Jorapokhar - JSPCB",18-09-2024 21:00:00,23.707909,86.414670,NH3,NA,NA,NA
India,Jharkhand,Jorapokhar,"Tata Stadium, Jorapokhar - JSPCB",18-09-2024 21:00:00,23.707909,86.414670,CO,34,83,59
India,Karnataka,Belgaum,"Ramteerth Nagar, Belgaum - KSPCB",18-09-2024 21:00:00,15.888653,74.541751,PM2.5,15,39,22
India,Karnataka,Bengaluru,"Bapuji Nagar, Bengaluru - KSPCB",18-09-2024 21:00:00,12.951913,77.539784,NH3,1,1,1
India,Karnataka,Bengaluru,"City Railway Station, Bengaluru - KSPCB",18-09-2024 21:00:00,12.9756843,77.5660749,PM10,61,111,85
India,Karnataka,Bengaluru,"City Railway Station, Bengaluru - KSPCB",18-09-2024 21:00:00,12.9756843,77.5660749,SO2,14,19,17
India,Karnataka,Bengaluru,"Hebbal, Bengaluru - KSPCB",18-09-2024 21:00:00,13.029152,77.585901,PM2.5,26,56,34
India,Karnataka,Bengaluru,"Hebbal, Bengaluru - KSPCB",18-09-2024 21:00:00,13.029152,77.585901,OZONE,6,12,10
India,Karnataka,Bengaluru,"Jayanagar 5th Block, Bengaluru - KSPCB",18-09-2024 21:00:00,12.920984,77.584908,NO2,3,6,3
India,Karnataka,Bengaluru,"Jigani, Bengaluru - KSPCB",18-09-2024 21:00:00,12.7816279,77.6299145,NO2,26,36,34
India,Karnataka,Bengaluru,"Kasturi Nagar, Bengaluru - KSPCB",18-09-2024 21:00:00,13.003872,77.664217,PM2.5,51,73,56
India,Karnataka,Bengaluru,"RVCE-Mailasandra, Bengaluru - KSPCB",18-09-2024 21:00:00,12.921418,77.502466,CO,27,44,37
India,Karnataka,Bengaluru,"Sanegurava Halli, Bengaluru - KSPCB",18-09-2024 21:00:00,12.990328,77.5431385,NO2,20,37,23
India,Karnataka,Bengaluru,"Sanegurava Halli, Bengaluru - KSPCB",18-09-2024 21:00:00,12.990328,77.5431385,CO,12,30,19
India,Karnataka,Bengaluru,"Silk Board, Bengaluru - KSPCB",18-09-2024 21:00:00,12.917348,77.622813,NO2,13,31,21
India,Karnataka,Bengaluru,"Silk Board, Bengaluru - KSPCB",18-09-2024 21:00:00,12.917348,77.622813,NH3,3,3,3
India,Karnataka,Bengaluru,"Silk Board, Bengaluru - KSPCB",18-09-2024 21:00:00,12.917348,77.622813,SO2,9,15,12
India,Karnataka,Bidar,"Naubad, Bidar - KSPCB",18-09-2024 21:00:00,17.930306,77.482194,PM2.5,36,76,45
India,Karnataka,Bidar,"Naubad, Bidar - KSPCB",18-09-2024 21:00:00,17.930306,77.482194,NH3,3,3,3
India,Karnataka,Bidar,"Naubad, Bidar - KSPCB",18-09-2024 21:00:00,17.930306,77.482194,SO2,20,22,21
India,Karnataka,Bidar,"Naubad, Bidar - KSPCB",18-09-2024 21:00:00,17.930306,77.482194,OZONE,12,25,20
India,Karnataka,Chamarajanagar,"Urban, Chamarajanagar - KSPCB",18-09-2024 21:00:00,11.55358,76.55521,PM10,30,56,43
India,Karnataka,Chikkaballapur,"Chikkaballapur Rural, Chikkaballapur - KSPCB",18-09-2024 21:00:00,13.428828,77.731418,PM10,22,82,48
India,Karnataka,Chikkamagaluru,"Kalyana Nagara, Chikkamagaluru - KSPCB",18-09-2024 21:00:00,13.328028,75.797056,OZONE,28,52,48
India,Karnataka,Dharwad,"Kalabhavan, Dharwad - KSPCB",18-09-2024 21:00:00,15.459706,75.008381,PM2.5,45,53,50
India,Karnataka,Gadag,"Panchal Nagar, Gadag - KSPCB",18-09-2024 21:00:00,15.411456,75.638133,NO2,7,32,15
India,Karnataka,Hassan,"B.Katihalli, Hassan - KSPCB",18-09-2024 21:00:00,13.008556,76.125258,PM2.5,8,50,28
India,Karnataka,Hassan,"B.Katihalli, Hassan - KSPCB",18-09-2024 21:00:00,13.008556,76.125258,SO2,6,40,25
India,Karnataka,Haveri,"Ashwini Nagar, Haveri - KSPCB",18-09-2024 21:00:00,14.791800,75.389600,NO2,23,26,24
India,Karnataka,Haveri,"Ashwini Nagar, Haveri - KSPCB",18-09-2024 21:00:00,14.791800,75.389600,SO2,15,15,15
India,Karnataka,Hubballi,"Deshpande Nagar, Hubballi - KSPCB",18-09-2024 21:00:00,15.351773,75.140726,OZONE,16,17,17
India,Karnataka,Hubballi,"Lingaraj Nagar, Hubballi - KSPCB",18-09-2024 21:00:00,15.3714823,75.1160168,PM10,40,53,47
India,Karnataka,Kalaburagi,"Lal Bahadur Shastri Nagar, Kalaburagi - KSPCB",18-09-2024 21:00:00,17.321993,76.822628,PM2.5,17,50,30
India,Karnataka,Kalaburagi,"Lal Bahadur Shastri Nagar, Kalaburagi - KSPCB",18-09-2024 21:00:00,17.321993,76.822628,CO,1,34,2
India,Karnataka,Kalaburagi,"Mahatma Basaveswar Colony, Kalaburgi - KSPCB",18-09-2024 21:00:00,17.336318,76.847397,NH3,2,4,3
India,Karnataka,Karwar,"KHB Colony, Karwar - KSPCB",18-09-2024 21:00:00,14.816666,74.141003,NO2,NA,NA,NA
India,Karnataka,Kolar,"Tamaka Ind. Area, Kolar - KSPCB",18-09-2024 21:00:00,13.1276288,78.1570122,PM10,24,82,53
India,Karnataka,Kolar,"Tamaka Ind. Area, Kolar - KSPCB",18-09-2024 21:00:00,13.1276288,78.1570122,SO2,8,19,15
India,Karnataka,Mangalore,"Kadri, Mangalore - KSPCB",18-09-2024 21:00:00,12.889250,74.853000,OZONE,31,32,31
India,Karnataka,Mysuru,"Hebbal 1st Stage, Mysuru - KSPCB",18-09-2024 21:00:00,12.21041,76.37376,PM2.5,16,41,30
India,Karnataka,Mysuru,"Hebbal 1st Stage, Mysuru - KSPCB",18-09-2024 21:00:00,12.21041,76.37376,SO2,1,7,3
India,Karnataka,Ramanagara,"Vijay Nagar, Ramanagara - KSPCB",18-09-2024 21:00:00,12.733409,77.298051,PM2.5,13,42,22
India,Karnataka,Ramanagara,"Vijay Nagar, Ramanagara - KSPCB",18-09-2024 21:00:00,12.733409,77.298051,CO,2,34,18
India,Karnataka,Shivamogga,"Vinoba Nagara, Shivamogga - KSPCB",18-09-2024 21:00:00,13.940000,75.555917,NO2,15,28,21
India,Karnataka,Shivamogga,"Vinoba Nagara, Shivamogga - KSPCB",18-09-2024 21:00:00,13.940000,75.555917,NH3,2,3,2
India,Karnataka,Shivamogga,"Vinoba Nagara, Shivamogga - KSPCB",18-09-2024 21:00:00,13.940000,75.555917,OZONE,7,68,57
India,Karnataka,Tumakuru,"Thimmalapura, Tumakuru - KSPCB",18-09-2024 21:00:00,13.377516,77.099072,PM10,56,243,110
India,Karnataka,Tumakuru,"Thimmalapura, Tumakuru - KSPCB",18-09-2024 21:00:00,13.377516,77.099072,NH3,2,2,2
India,Karnataka,Udupi,"Brahmagiri, Udupi - KSPCB",18-09-2024 21:00:00,13.34194444,74.74694444,PM2.5,NA,NA,NA
India,Karnataka,Udupi,"Brahmagiri, Udupi - KSPCB",18-09-2024 21:00:00,13.34194444,74.74694444,SO2,18,19,18
India,Karnataka,Udupi,"Brahmagiri, Udupi - KSPCB",18-09-2024 21:00:00,13.34194444,74.74694444,OZONE,23,24,23
India,Karnataka,Vijayapura,"Ibrahimpur, Vijayapura - KSPCB",18-09-2024 21:00:00,16.802639,75.722694,NO2,17,19,19
India,Karnataka,Yadgir,"Collector Office, Yadgir - KSPCB",18-09-2024 21:00:00,16.7602,77.1428,PM10,46,99,68
India,Karnataka,Yadgir,"Collector Office, Yadgir - KSPCB",18-09-2024 21:00:00,16.7602,77.1428,CO,15,28,20
India,Kerala,Kollam,"Polayathode, Kollam - Kerala PCB",18-09-2024 21:00:00,8.8787,76.6073,CO,14,16,16
India,Kerala,Kollam,"Polayathode, Kollam - Kerala PCB",18-09-2024 21:00:00,8.8787,76.6073,OZONE,30,37,35
India,Kerala,Thiruvananthapuram,"Kariavattom, Thiruvananthapuram - Kerala PCB",18-09-2024 21:00:00,8.563700,76.886500,PM2.5,34,46,39
India,Kerala,Thrissur,"Corporation Ground, Thrissur - Kerala PCB",18-09-2024 21:00:00,10.532400,76.215900,PM10,45,52,48
India,Kerala,Thrissur,"Corporation Ground, Thrissur - Kerala PCB",18-09-2024 21:00:00,10.532400,76.215900,CO,40,46,42
India,Kerala,Thrissur,"Corporation Ground, Thrissur - Kerala PCB",18-09-2024 21:00:00,10.532400,76.215900,OZONE,30,31,31
India,Madhya Pradesh,Bhopal,"Idgah Hills, Bhopal - MPPCB",18-09-2024 21:00:00,23.264759,77.381568,NH3,1,3,2
India,Madhya Pradesh,Bhopal,"Idgah Hills, Bhopal - MPPCB",18-09-2024 21:00:00,23.264759,77.381568,SO2,5,8,7
India,Madhya Pradesh,Bhopal,"Paryavaran Parisar, Bhopal - MPPCB",18-09-2024 21:00:00,23.210494,77.425409,NO2,7,60,16
India,Madhya Pradesh,Bhopal,"Paryavaran Parisar, Bhopal - MPPCB",18-09-2024 21:00:00,23.210494,77.425409,NH3,2,4,2
India,Madhya Pradesh,Bhopal,"T T Nagar, Bhopal - MPPCB",18-09-2024 21:00:00,23.233584,77.400574,PM2.5,8,48,25
India,Madhya Pradesh,Bhopal,"T T Nagar, Bhopal - MPPCB",18-09-2024 21:00:00,23.233584,77.400574,NO2,9,38,16
India,Madhya Pradesh,Bhopal,"T T Nagar, Bhopal - MPPCB",18-09-2024 21:00:00,23.233584,77.400574,SO2,2,23,14
India,Madhya Pradesh,Damoh,"Shrivastav Colony, Damoh - MPPCB",18-09-2024 21:00:00,23.81748678,79.446246,PM10,1,12,4
India,Madhya Pradesh,Damoh,"Shrivastav Colony, Damoh - MPPCB",18-09-2024 21:00:00,23.81748678,79.446246,SO2,60,61,60
India,Madhya Pradesh,Dewas,"Bhopal Chauraha, Dewas - MPPCB",18-09-2024 21:00:00,22.9682591,76.064118,CO,4,44,28
India,Madhya Pradesh,Gwalior,"City Center, Gwalior - MPPCB",18-09-2024 21:00:00,26.203442,78.193251,CO,13,44,38
India,Madhya Pradesh,Gwalior,"Deen Dayal Nagar, Gwalior - MPPCB",18-09-2024 21:00:00,26.259242,78.216432,NH3,4,5,4
India,Madhya Pradesh,Gwalior,"Maharaj Bada, Gwalior - MPPCB",18-09-2024 21:00:00,26.200388,78.147714,PM10,19,73,38
India,Madhya Pradesh,Indore,"Chhoti Gwaltoli, Indore - MPPCB",18-09-2024 21:00:00,22.4310,75.5213,PM10,52,140,85
India,Madhya Pradesh,Indore,"Chhoti Gwaltoli, Indore - MPPCB",18-09-2024 21:00:00,22.4310,75.5213,NH3,3,4,3
India,Madhya Pradesh,Indore,"Chhoti Gwaltoli, Indore - MPPCB",18-09-2024 21:00:00,22.4310,75.5213,SO2,10,17,13
India,Madhya Pradesh,Indore,"Maguda Nagar, Indore - IMC",18-09-2024 21:00:00,22.7524,75.8872,CO,16,20,17
India,Madhya Pradesh,Indore,"Residency Area, Indore - IMC",18-09-2024 21:00:00,22.7084,75.8815,NO2,20,31,27
India,Madhya Pradesh,Jabalpur,"Govindh Bhavan Colony, Jabalpur - JMC",18-09-2024 21:00:00,23.163174,79.973061,CO,4,20,16
India,Madhya Pradesh,Jabalpur,"Gupteshwar, Jabalpur - JMC",18-09-2024 21:00:00,23.142888,79.916147,PM10,19,150,46
India,Madhya Pradesh,Jabalpur,"Gupteshwar, Jabalpur - JMC",18-09-2024 21:00:00,23.142888,79.916147,OZONE,16,61,43
India,Madhya Pradesh,Jabalpur,"Marhatal, Jabalpur - MPPCB",18-09-2024 21:00:00,23.168606,79.932247,SO2,NA,NA,NA
India,Madhya Pradesh,Jabalpur,"Marhatal, Jabalpur - MPPCB",18-09-2024 21:00:00,23.168606,79.932247,CO,22,68,47
India,Madhya Pradesh,Jabalpur,"Suhagi, Jabalpur - JMC",18-09-2024 21:00:00,23.218135,79.957770,NO2,34,36,35
India,Madhya Pradesh,Katni,"Gole Bazar, Katni - MPPCB",18-09-2024 21:00:00,23.50016,80.23284,OZONE,11,40,28
India,Madhya Pradesh,Maihar,"Sahilara, Maihar - KJS Cements",18-09-2024 21:00:00,24.2613009,80.7231783,PM2.5,NA,NA,NA
India,Madhya Pradesh,Maihar,"Sahilara, Maihar - KJS Cements",18-09-2024 21:00:00,24.2613009,80.7231783,NO2,10,12,10
India,Madhya Pradesh,Mandideep,"Sector-D Industrial Area, Mandideep - MPPCB",18-09-2024 21:00:00,23.108440,77.511428,PM2.5,25,122,43
India,Madhya Pradesh,Mandideep,"Sector-D Industrial Area, Mandideep - MPPCB",18-09-2024 21:00:00,23.108440,77.511428,CO,14,60,28
India,Madhya Pradesh,Mandideep,"Sector-D Industrial Area, Mandideep - MPPCB",18-09-2024 21:00:00,23.108440,77.511428,OZONE,24,27,26
India,Madhya Pradesh,Pithampur,"Sector-2 Industrial Area, Pithampur - MPPCB",18-09-2024 21:00:00,22.624758,75.675238,OZONE,35,87,77
India,Madhya Pradesh,Ratlam,"Shasthri Nagar, Ratlam - IPCA Lab",18-09-2024 21:00:00,23.331731,75.045981,PM10,59,143,83
India,Madhya Pradesh,Sagar,"Civil Lines, Sagar - MPPCB",18-09-2024 21:00:00,23.838586,78.759431,SO2,2,9,4
India,Madhya Pradesh,Sagar,"Civil Lines, Sagar - MPPCB",18-09-2024 21:00:00,23.838586,78.759431,CO,31,45,43
India,Madhya Pradesh,Sagar,"Civil Lines, Sagar - MPPCB",18-09-2024 21:00:00,23.838586,78.759431,OZONE,37,51,40
India,Madhya Pradesh,Satna,"Bandhavgar Colony, Satna - Birla Cement",18-09-2024 21:00:00,24.58434363,80.8549414,PM2.5,1,40,5
India,Madhya Pradesh,Satna,"Bandhavgar Colony, Satna - Birla Cement",18-09-2024 21:00:00,24.58434363,80.8549414,PM10,67,69,68
India,Madhya Pradesh,Satna,"Bandhavgar Colony, Satna - Birla Cement",18-09-2024 21:00:00,24.58434363,80.8549414,SO2,2,4,3
India,Madhya Pradesh,Singrauli,"Suryakiran Bhawan NCL, Singrauli - MPPCB",18-09-2024 21:00:00,24.108970,82.645580,SO2,21,32,26
India,Madhya Pradesh,Ujjain,"Mahakaleshwar Temple, Ujjain - MPPCB",18-09-2024 21:00:00,23.182719 ,75.768218 ,SO2,11,15,13
India,Maharashtra,Akola,"Ramdaspeth, Akola - MPCB",18-09-2024 21:00:00,20.719516,77.000253,NO2,6,21,10
India,Maharashtra,Akola,"Ramdaspeth, Akola - MPCB",18-09-2024 21:00:00,20.719516,77.000253,NH3,3,4,4
India,Maharashtra,Amravati,"Shri Shivaji Science College, Amaravati - MPCB",18-09-2024 21:00:00,20.939198,77.765701,NH3,1,2,2
India,Maharashtra,Amravati,"Shri Shivaji Science College, Amaravati - MPCB",18-09-2024 21:00:00,20.939198,77.765701,OZONE,25,54,48
India,Maharashtra,Aurangabad,"MIDC Chilkalthana, Aurangabad - MPCB",18-09-2024 21:00:00,19.875620,75.387310,PM10,51,115,72
India,Maharashtra,Aurangabad,"Rachnakar Colony, Aurangabad - MPCB",18-09-2024 21:00:00,19.863756,75.321188,PM10,47,125,74
India,Maharashtra,Badlapur,"Katrap, Badlapur - MPCB",18-09-2024 21:00:00,19.16485,73.23409,PM2.5,NA,NA,NA
India,Maharashtra,Badlapur,"Katrap, Badlapur - MPCB",18-09-2024 21:00:00,19.16485,73.23409,SO2,NA,NA,NA
India,Maharashtra,Badlapur,"Katrap, Badlapur - MPCB",18-09-2024 21:00:00,19.16485,73.23409,CO,14,64,29
India,Maharashtra,Boisar,"Khaira, Boisar - MPCB",18-09-2024 21:00:00,19.786089,72.757971,CO,10,42,17
India,Maharashtra,Chandrapur,"MIDC Khutala, Chandrapur - MPCB",18-09-2024 21:00:00,19.9775302,79.2337086,OZONE,3,28,21
India,Maharashtra,Dhule,"Deopur, Dhule - MPCB",18-09-2024 21:00:00,20.918946,74.776388,NO2,1,4,2
India,Maharashtra,Dhule,"Deopur, Dhule - MPCB",18-09-2024 21:00:00,20.918946,74.776388,NH3,3,4,3
India,Maharashtra,Jalgaon,"Prabhat Colony, Jalgaon - MPCB",18-09-2024 21:00:00,21.001264,75.565602,PM10,44,91,66
India,Maharashtra,Jalgaon,"Prabhat Colony, Jalgaon - MPCB",18-09-2024 21:00:00,21.001264,75.565602,SO2,7,14,9
India,Maharashtra,Jalna,"Old MIDC, Jalna - MPCB",18-09-2024 21:00:00,19.854616,75.905894,NO2,22,28,25
India,Maharashtra,Jalna,"Old MIDC, Jalna - MPCB",18-09-2024 21:00:00,19.854616,75.905894,SO2,6,7,6
India,Maharashtra,Jalna,"Old MIDC, Jalna - MPCB",18-09-2024 21:00:00,19.854616,75.905894,OZONE,6,21,12
India,Maharashtra,Kalyan,"Khadakpada, Kalyan - MPCB",18-09-2024 21:00:00,19.25292,73.142019,PM10,19,151,69
India,Maharashtra,Kalyan,"Khadakpada, Kalyan - MPCB",18-09-2024 21:00:00,19.25292,73.142019,CO,5,6,6
India,Maharashtra,Kolhapur,"Shivaji University, Kolhapur - MPCB",18-09-2024 21:00:00,16.6870449,74.2505872,PM2.5,25,88,55
India,Maharashtra,Kolhapur,"Shivaji University, Kolhapur - MPCB",18-09-2024 21:00:00,16.6870449,74.2505872,PM10,53,115,92
India,Maharashtra,Kolhapur,"Shivaji University, Kolhapur - MPCB",18-09-2024 21:00:00,16.6870449,74.2505872,NH3,2,4,3
India,Maharashtra,Kolhapur,"Sinchan Bhavan, Kolhapur - MPCB",18-09-2024 21:00:00,16.7143745,74.2426398,PM2.5,11,34,19
India,Maharashtra,Kolhapur,"Sinchan Bhavan, Kolhapur - MPCB",18-09-2024 21:00:00,16.7143745,74.2426398,NO2,6,17,11
India,Maharashtra,Mahad,"Kamble Tarf Birwadi, Mahad - MPCB",18-09-2024 21:00:00,18.1023399,73.4783687,PM2.5,37,140,61
India,Maharashtra,Mahad,"Kamble Tarf Birwadi, Mahad - MPCB",18-09-2024 21:00:00,18.1023399,73.4783687,NO2,5,22,10
India,Maharashtra,Mahad,"Kamble Tarf Birwadi, Mahad - MPCB",18-09-2024 21:00:00,18.1023399,73.4783687,SO2,8,114,35
India,Maharashtra,Malegaon,"Mahesh Nagar, Malegaon - MPCB",18-09-2024 21:00:00,20.555712,74.529236,OZONE,6,35,23
India,Maharashtra,Mira-Bhayandar,"Bhayandar West, Mira-Bhayandar - MPCB",18-09-2024 21:00:00,19.296481,72.840923,OZONE,1,48,33
India,Maharashtra,Mumbai,"Borivali East, Mumbai - MPCB",18-09-2024 21:00:00,19.2243333,72.8658113,PM10,NA,NA,NA
India,Maharashtra,Mumbai,"Borivali East, Mumbai - MPCB",18-09-2024 21:00:00,19.2243333,72.8658113,SO2,6,8,8
India,Maharashtra,Mumbai,"Byculla, Mumbai - BMC",18-09-2024 21:00:00,18.9767,72.8380,NO2,5,14,8
India,Maharashtra,Mumbai,"Chembur, Mumbai - MPCB",18-09-2024 21:00:00,19.0364585,72.8954371,PM10,38,70,56
India,Maharashtra,Mumbai,"Chembur, Mumbai - MPCB",18-09-2024 21:00:00,19.0364585,72.8954371,CO,18,32,21
India,Maharashtra,Mumbai,"Chembur, Mumbai - MPCB",18-09-2024 21:00:00,19.0364585,72.8954371,OZONE,1,62,30
India,Maharashtra,Mumbai,"Chhatrapati Shivaji Intl. Airport (T2), Mumbai - MPCB",18-09-2024 21:00:00,19.10078,72.87462,PM10,68,112,88
India,Maharashtra,Mumbai,"Chhatrapati Shivaji Intl. Airport (T2), Mumbai - MPCB",18-09-2024 21:00:00,19.10078,72.87462,SO2,8,11,10
India,Maharashtra,Mumbai,"Chhatrapati Shivaji Intl. Airport (T2), Mumbai - MPCB",18-09-2024 21:00:00,19.10078,72.87462,CO,6,14,7
India,Maharashtra,Mumbai,"Colaba, Mumbai - MPCB",18-09-2024 21:00:00,18.910000,72.820000,PM10,NA,NA,NA
India,Maharashtra,Mumbai,"Deonar, Mumbai - IITM",18-09-2024 21:00:00,19.04946,72.9230,PM2.5,NA,NA,NA
India,Maharashtra,Mumbai,"Deonar, Mumbai - IITM",18-09-2024 21:00:00,19.04946,72.9230,SO2,NA,NA,NA
India,Maharashtra,Mumbai,"Kandivali East, Mumbai - MPCB",18-09-2024 21:00:00,19.205800,72.868200,PM2.5,17,39,23
India,Maharashtra,Mumbai,"Kandivali West, Mumbai - BMC",18-09-2024 21:00:00,19.215859,72.831718,PM2.5,19,48,30
India,Maharashtra,Mumbai,"Kandivali West, Mumbai - BMC",18-09-2024 21:00:00,19.215859,72.831718,SO2,2,5,3
India,Maharashtra,Mumbai,"Kandivali West, Mumbai - BMC",18-09-2024 21:00:00,19.215859,72.831718,CO,10,35,15
India,Maharashtra,Mumbai,"Kherwadi_Bandra East, Mumbai - MPCB",18-09-2024 21:00:00,19.0632143,72.8456324,CO,14,43,19
India,Maharashtra,Mumbai,"Khindipada-Bhandup West, Mumbai - IITM",18-09-2024 21:00:00,19.1653323,72.922099,PM2.5,NA,NA,NA
India,Maharashtra,Mumbai,"Khindipada-Bhandup West, Mumbai - IITM",18-09-2024 21:00:00,19.1653323,72.922099,NH3,NA,NA,NA
India,Maharashtra,Mumbai,"Khindipada-Bhandup West, Mumbai - IITM",18-09-2024 21:00:00,19.1653323,72.922099,SO2,NA,NA,NA
India,Maharashtra,Mumbai,"Mindspace-Malad West, Mumbai - MPCB",18-09-2024 21:00:00,19.1878657,72.8304069,PM10,40,63,50
India,Maharashtra,Mumbai,"Mindspace-Malad West, Mumbai - MPCB",18-09-2024 21:00:00,19.1878657,72.8304069,CO,18,42,24
India,Maharashtra,Mumbai,"Navy Nagar-Colaba, Mumbai - IITM",18-09-2024 21:00:00,18.897756,72.813320,PM10,22,121,59
India,Maharashtra,Mumbai,"Navy Nagar-Colaba, Mumbai - IITM",18-09-2024 21:00:00,18.897756,72.813320,NH3,3,8,5
India,Maharashtra,Mumbai,"Navy Nagar-Colaba, Mumbai - IITM",18-09-2024 21:00:00,18.897756,72.813320,SO2,3,16,6
India,Maharashtra,Mumbai,"Navy Nagar-Colaba, Mumbai - IITM",18-09-2024 21:00:00,18.897756,72.813320,CO,17,106,31
India,Maharashtra,Mumbai,"Navy Nagar-Colaba, Mumbai - IITM",18-09-2024 21:00:00,18.897756,72.813320,OZONE,7,53,44
India,Maharashtra,Mumbai,"Powai, Mumbai - MPCB",18-09-2024 21:00:00,19.137500,72.915056,NO2,1,26,13
India,Maharashtra,Mumbai,"Powai, Mumbai - MPCB",18-09-2024 21:00:00,19.137500,72.915056,NH3,2,3,3
India,Maharashtra,Mumbai,"Sewri, Mumbai - BMC",18-09-2024 21:00:00,19.000084,72.856730,OZONE,3,68,35
India,Maharashtra,Mumbai,"Shivaji Nagar, Mumbai - BMC",18-09-2024 21:00:00,19.060498,72.923356,PM2.5,54,222,112
India,Maharashtra,Mumbai,"Shivaji Nagar, Mumbai - BMC",18-09-2024 21:00:00,19.060498,72.923356,OZONE,8,41,30
India,Maharashtra,Mumbai,"Sion, Mumbai - MPCB",18-09-2024 21:00:00,19.047000,72.874600,OZONE,8,12,10
India,Maharashtra,Mumbai,"Vasai West, Mumbai - MPCB",18-09-2024 21:00:00,19.383200,72.820400,SO2,21,40,24
India,Maharashtra,Mumbai,"Vile Parle West, Mumbai - MPCB",18-09-2024 21:00:00,19.10861,72.83622,NO2,NA,NA,NA
India,Maharashtra,Nagpur,"Ambazari, Nagpur - MPCB",18-09-2024 21:00:00,21.121801,79.04952,NH3,1,3,2
India,Maharashtra,Nagpur,"Opp GPO Civil Lines, Nagpur - MPCB",18-09-2024 21:00:00,21.152875,79.0517531,PM10,21,81,43
India,Maharashtra,Nagpur,"Opp GPO Civil Lines, Nagpur - MPCB",18-09-2024 21:00:00,21.152875,79.0517531,SO2,2,9,6
India,Maharashtra,Nanded,"Sneh Nagar, Nanded - MPCB",18-09-2024 21:00:00,19.173852,77.296291,NH3,4,5,4
India,Maharashtra,Nanded,"Sneh Nagar, Nanded - MPCB",18-09-2024 21:00:00,19.173852,77.296291,SO2,1,8,3
India,Maharashtra,Nashik,"Gangapur Road, Nashik - MPCB",18-09-2024 21:00:00,20.0073285,73.7762427,PM10,23,91,44
India,Maharashtra,Nashik,"Gangapur Road, Nashik - MPCB",18-09-2024 21:00:00,20.0073285,73.7762427,SO2,3,8,5
India,Maharashtra,Nashik,"Gangapur Road, Nashik - MPCB",18-09-2024 21:00:00,20.0073285,73.7762427,CO,7,36,17
India,Maharashtra,Nashik,"Hirawadi, Nashik - MPCB",18-09-2024 21:00:00,20.021503,73.813844,PM2.5,19,59,40
India,Maharashtra,Nashik,"Hirawadi, Nashik - MPCB",18-09-2024 21:00:00,20.021503,73.813844,SO2,1,6,3
India,Maharashtra,Nashik,"Pandav Nagari, Nashik - MPCB",18-09-2024 21:00:00,19.9591346,73.7788008,PM10,34,85,60
India,Maharashtra,Nashik,"Pandav Nagari, Nashik - MPCB",18-09-2024 21:00:00,19.9591346,73.7788008,CO,10,24,18
India,Maharashtra,Nashik,"Pandav Nagari, Nashik - MPCB",18-09-2024 21:00:00,19.9591346,73.7788008,OZONE,9,58,49
India,Maharashtra,Navi Mumbai,"Kopripada-Vashi, Navi Mumbai - MPCB",18-09-2024 21:00:00,19.090337,73.014232,OZONE,30,31,31
India,Maharashtra,Navi Mumbai,"Mahape, Navi Mumbai - MPCB",18-09-2024 21:00:00,19.1135051,73.008978,PM10,54,131,85
India,Maharashtra,Navi Mumbai,"Mahape, Navi Mumbai - MPCB",18-09-2024 21:00:00,19.1135051,73.008978,NO2,17,17,17
India,Maharashtra,Navi Mumbai,"Nerul, Navi Mumbai - MPCB",18-09-2024 21:00:00,19.008751,73.016620,NO2,19,28,24
India,Maharashtra,Navi Mumbai,"Nerul, Navi Mumbai - MPCB",18-09-2024 21:00:00,19.008751,73.016620,NH3,1,2,2
India,Maharashtra,Navi Mumbai,"Nerul, Navi Mumbai - MPCB",18-09-2024 21:00:00,19.008751,73.016620,CO,16,23,18
India,Maharashtra,Navi Mumbai,"Sanpada, Navi Mumbai - MPCB",18-09-2024 21:00:00,19.0575752,73.0151367,PM2.5,2,63,39
India,Maharashtra,Navi Mumbai,"Sanpada, Navi Mumbai - MPCB",18-09-2024 21:00:00,19.0575752,73.0151367,SO2,1,12,4
India,Maharashtra,Navi Mumbai,"Sector-19A Nerul, Navi Mumbai - IITM",18-09-2024 21:00:00,19.044,73.0325,PM10,57,102,81
India,Maharashtra,Navi Mumbai,"Sector-19A Nerul, Navi Mumbai - IITM",18-09-2024 21:00:00,19.044,73.0325,NH3,11,20,16
India,Maharashtra,Navi Mumbai,"Sector-19A Nerul, Navi Mumbai - IITM",18-09-2024 21:00:00,19.044,73.0325,CO,60,113,82
India,Maharashtra,Navi Mumbai,"Sector-19A Nerul, Navi Mumbai - IITM",18-09-2024 21:00:00,19.044,73.0325,OZONE,1,31,17
India,Maharashtra,Navi Mumbai,"Tondare-Taloja, Navi Mumbai - MPCB",18-09-2024 21:00:00,19.0630,73.1209,NO2,NA,NA,NA
India,Maharashtra,Navi Mumbai,"Tondare-Taloja, Navi Mumbai - MPCB",18-09-2024 21:00:00,19.0630,73.1209,OZONE,1,61,52
India,Maharashtra,Parbhani,"Masoom Colony, Parbhani - MPCB",18-09-2024 21:00:00,19.265594,76.761463,PM2.5,43,290,84
India,Maharashtra,Parbhani,"Masoom Colony, Parbhani - MPCB",18-09-2024 21:00:00,19.265594,76.761463,PM10,64,125,93
India,Maharashtra,Pimpri-Chinchwad,"Gavalinagar, Pimpri Chinchwad - MPCB",18-09-2024 21:00:00,18.63673,73.82487,PM2.5,21,49,30
India,Maharashtra,Pimpri-Chinchwad,"Gavalinagar, Pimpri Chinchwad - MPCB",18-09-2024 21:00:00,18.63673,73.82487,NH3,4,4,4
India,Maharashtra,Pimpri-Chinchwad,"Gavalinagar, Pimpri Chinchwad - MPCB",18-09-2024 21:00:00,18.63673,73.82487,SO2,1,2,2
India,Maharashtra,Pimpri-Chinchwad,"Gavalinagar, Pimpri Chinchwad - MPCB",18-09-2024 21:00:00,18.63673,73.82487,OZONE,4,89,64
India,Maharashtra,Pimpri-Chinchwad,"Park Street Wakad, Pimpri Chinchwad - MPCB",18-09-2024 21:00:00,18.59051,73.77946,PM2.5,16,99,41
India,Maharashtra,Pimpri-Chinchwad,"Park Street Wakad, Pimpri Chinchwad - MPCB",18-09-2024 21:00:00,18.59051,73.77946,PM10,38,83,59
India,Maharashtra,Pimpri-Chinchwad,"Savta Mali Nagar, Pimpri-Chinchwad - IITM",18-09-2024 21:00:00,18.614767,73.799516,CO,26,59,41
India,Maharashtra,Pune,"Bhumkar Nagar, Pune - IITM",18-09-2024 21:00:00,18.605770,73.749976,NO2,29,68,40
India,Maharashtra,Pune,"Bhumkar Nagar, Pune - IITM",18-09-2024 21:00:00,18.605770,73.749976,CO,41,102,45
India,Maharashtra,Pune,"Karve Road, Pune - MPCB",18-09-2024 21:00:00,18.5011743,73.8165527,PM10,29,168,93
India,Maharashtra,Pune,"Karve Road, Pune - MPCB",18-09-2024 21:00:00,18.5011743,73.8165527,SO2,5,32,16
India,Maharashtra,Pune,"Katraj Dairy, Pune - MPCB",18-09-2024 21:00:00,18.454450,73.854155,PM2.5,16,45,30
India,Maharashtra,Pune,"Katraj Dairy, Pune - MPCB",18-09-2024 21:00:00,18.454450,73.854155,CO,6,51,27
India,Maharashtra,Pune,"Mhada Colony, Pune - IITM",18-09-2024 21:00:00,18.573040,73.927715,PM2.5,15,62,35
India,Maharashtra,Pune,"Mhada Colony, Pune - IITM",18-09-2024 21:00:00,18.573040,73.927715,CO,52,102,74
India,Maharashtra,Pune,"Revenue Colony-Shivajinagar, Pune - IITM",18-09-2024 21:00:00,18.530085,73.849598,PM2.5,32,54,45
India,Maharashtra,Pune,"Revenue Colony-Shivajinagar, Pune - IITM",18-09-2024 21:00:00,18.530085,73.849598,PM10,34,59,49
India,Maharashtra,Pune,"Revenue Colony-Shivajinagar, Pune - IITM",18-09-2024 21:00:00,18.530085,73.849598,OZONE,10,87,74
India,Maharashtra,Pune,"Savitribai Phule Pune University, Pune - MPCB",18-09-2024 21:00:00,18.547056,73.826908,PM10,42,102,56
India,Maharashtra,Pune,"Savitribai Phule Pune University, Pune - MPCB",18-09-2024 21:00:00,18.547056,73.826908,NO2,14,37,22
India,Maharashtra,Pune,"Savitribai Phule Pune University, Pune - MPCB",18-09-2024 21:00:00,18.547056,73.826908,CO,8,22,11
India,Maharashtra,Sangli,"Vijay Nagar, Sangli - MPCB",18-09-2024 21:00:00, 16.5038,74.3623,SO2,10,15,12
India,Maharashtra,Solapur,"Dnyaneshwar Nagar, Solapur - MPCB",18-09-2024 21:00:00,17.6336264,75.9132495,PM2.5,10,37,18
India,Maharashtra,Solapur,"Dnyaneshwar Nagar, Solapur - MPCB",18-09-2024 21:00:00,17.6336264,75.9132495,NH3,6,31,10
India,Maharashtra,Solapur,"Ratandeep Housing Society, Solapur - MPCB",18-09-2024 21:00:00,17.65439,75.90649,NO2,15,50,24
India,Maharashtra,Solapur,"Ratandeep Housing Society, Solapur - MPCB",18-09-2024 21:00:00,17.65439,75.90649,CO,12,107,46
India,Maharashtra,Solapur,"Solapur, Solapur - MPCB",18-09-2024 21:00:00,17.6599188,75.9063906,NO2,54,55,55
India,Maharashtra,Thane,"Kasarvadavali, Thane - MPCB",18-09-2024 21:00:00,19.26777,72.97182,NO2,8,39,18
India,Maharashtra,Thane,"Kasarvadavali, Thane - MPCB",18-09-2024 21:00:00,19.26777,72.97182,CO,4,38,14
India,Maharashtra,Thane,"Pimpleshwar Mandir, Thane - MPCB",18-09-2024 21:00:00,19.192056,72.9585188,NO2,3,5,4
India,Maharashtra,Thane,"Pimpleshwar Mandir, Thane - MPCB",18-09-2024 21:00:00,19.192056,72.9585188,CO,16,106,54
India,Maharashtra,Thane,"Upvan Fort, Thane - MPCB",18-09-2024 21:00:00,19.222279,72.957979,PM10,37,82,59
India,Maharashtra,Virar,"Bolinj, Virar - MPCB",18-09-2024 21:00:00,19.4458210,72.7988231,PM10,42,85,64
India,Maharashtra,Virar,"Bolinj, Virar - MPCB",18-09-2024 21:00:00,19.4458210,72.7988231,NH3,2,4,3
India,Maharashtra,Virar,"Bolinj, Virar - MPCB",18-09-2024 21:00:00,19.4458210,72.7988231,CO,10,53,18
India,Maharashtra,Virar,"Bolinj, Virar - MPCB",18-09-2024 21:00:00,19.4458210,72.7988231,OZONE,2,57,47
India,Meghalaya,Shillong,"Lumpyngngad, Shillong - Meghalaya PCB",18-09-2024 21:00:00,25.5586,91.8985,PM10,NA,NA,NA
India,Meghalaya,Shillong,"Lumpyngngad, Shillong - Meghalaya PCB",18-09-2024 21:00:00,25.5586,91.8985,NO2,1,2,1
India,Meghalaya,Shillong,"Lumpyngngad, Shillong - Meghalaya PCB",18-09-2024 21:00:00,25.5586,91.8985,CO,4,14,11
India,Mizoram,Aizawl,"Sikulpuikawn, Aizawl - Mizoram PCB",18-09-2024 21:00:00,23.7176342,92.7192841,NO2,1,5,2
India,Mizoram,Aizawl,"Sikulpuikawn, Aizawl - Mizoram PCB",18-09-2024 21:00:00,23.7176342,92.7192841,SO2,3,3,3
India,Nagaland,Kohima,"PWD Juction, Kohima - NPCB",18-09-2024 21:00:00,25.6635413,94.0989878,SO2,47,55,51
India,Odisha,Angul,"Hakimapada, Angul - OSPCB",18-09-2024 21:00:00,20.832874,85.104082,SO2,8,124,38
India,Odisha,Barbil,"Forest Office, Barbil - OSPCB",18-09-2024 21:00:00,22.1166054,85.3945546,OZONE,2,49,27
India,Odisha,Baripada,"Meher Colony, Baripada - OSPCB",18-09-2024 21:00:00,21.941841,86.728318,NO2,20,36,27
India,Odisha,Bhubaneswar,"Patia, Bhubaneswar - OSPCB",18-09-2024 21:00:00,20.34652,85.81630,PM2.5,15,55,36
India,Odisha,Brajrajnagar,"GM Office, Brajrajnagar - OSPCB",18-09-2024 21:00:00,21.8004996,83.8396977,SO2,23,26,25
India,Odisha,Byasanagar,"Ferro Chrome Colony, Byasanagar - OSPCB",18-09-2024 21:00:00,20.94185,86.11510,PM2.5,15,63,28
India,Odisha,Byasanagar,"Ferro Chrome Colony, Byasanagar - OSPCB",18-09-2024 21:00:00,20.94185,86.11510,SO2,3,6,4
India,Odisha,Cuttack,"CDA Area, Cuttack - OSPCB",18-09-2024 21:00:00,20.48891     ,85.84768     ,PM10,31,83,55
India,Odisha,Cuttack,"CDA Area, Cuttack - OSPCB",18-09-2024 21:00:00,20.48891     ,85.84768     ,NO2,6,46,15
India,Odisha,Cuttack,"CDA Area, Cuttack - OSPCB",18-09-2024 21:00:00,20.48891     ,85.84768     ,NH3,1,1,1
India,Odisha,Cuttack,"CDA Area, Cuttack - OSPCB",18-09-2024 21:00:00,20.48891     ,85.84768     ,CO,4,104,42
India,Odisha,Keonjhar,"Jagamohanpur, Keonjhar - OSPCB",18-09-2024 21:00:00,21.643900,85.599355,PM10,NA,NA,NA
India,Odisha,Keonjhar,"Jagamohanpur, Keonjhar - OSPCB",18-09-2024 21:00:00,21.643900,85.599355,NO2,3,163,17
India,Odisha,Rairangpur,"Divisional Forest Office, Rairangpur - OSPCB",18-09-2024 21:00:00,22.265816,86.174829,OZONE,1,16,8
India,Odisha,Rourkela,"Raghunathpali, Rourkela - OSPCB",18-09-2024 21:00:00,22.220833,84.809444,PM2.5,15,53,26
India,Odisha,Rourkela,"Raghunathpali, Rourkela - OSPCB",18-09-2024 21:00:00,22.220833,84.809444,PM10,31,81,47
India,Odisha,Rourkela,"Raghunathpali, Rourkela - OSPCB",18-09-2024 21:00:00,22.220833,84.809444,NH3,3,3,3
India,Odisha,Rourkela,"Raghunathpali, Rourkela - OSPCB",18-09-2024 21:00:00,22.220833,84.809444,CO,46,100,70
India,Odisha,Rourkela,"Sector-2, Rourkela - OSPCB",18-09-2024 21:00:00,22.24500000,84.88111111,CO,29,66,58
India,Odisha,Suakati,"OMC Colony, Suakati - OSPCB",18-09-2024 21:00:00,21.606865,85.510538,NH3,NA,NA,NA
India,Odisha,Talcher,"Talcher Coalfields,Talcher - OSPCB",18-09-2024 21:00:00,20.9360711,85.1707021,CO,76,110,102
India,Odisha,Tensa,"Barsua Iron Ore Mines, Tensa - OSPCB",18-09-2024 21:00:00,21.869985,85.167016,PM10,30,74,48
India,Odisha,Tensa,"Barsua Iron Ore Mines, Tensa - OSPCB",18-09-2024 21:00:00,21.869985,85.167016,SO2,8,10,10
India,Puducherry,Puducherry,"Jawahar Nagar, Puducherry - PPCC",18-09-2024 21:00:00,11.9309,79.8027,PM2.5,9,49,26
India,Puducherry,Puducherry,"Jawahar Nagar, Puducherry - PPCC",18-09-2024 21:00:00,11.9309,79.8027,PM10,25,55,40
India,Puducherry,Puducherry,"Jawahar Nagar, Puducherry - PPCC",18-09-2024 21:00:00,11.9309,79.8027,SO2,8,16,11
India,Punjab,Amritsar,"Golden Temple, Amritsar - PPCB",18-09-2024 21:00:00,31.620000,74.876512,PM10,64,97,77
India,Punjab,Bathinda,"Hardev Nagar, Bathinda - PPCB",18-09-2024 21:00:00,30.233011,74.907758,PM2.5,37,89,66
India,Punjab,Bathinda,"Hardev Nagar, Bathinda - PPCB",18-09-2024 21:00:00,30.233011,74.907758,PM10,90,177,124
India,Punjab,Bathinda,"Hardev Nagar, Bathinda - PPCB",18-09-2024 21:00:00,30.233011,74.907758,SO2,18,58,32
India,Punjab,Jalandhar,"Civil Line, Jalandhar - PPCB",18-09-2024 21:00:00,31.321907,75.578914,NO2,16,20,18
India,Punjab,Khanna,"Kalal Majra, Khanna - PPCB",18-09-2024 21:00:00,30.736056 ,76.209694,PM2.5,28,159,72
India,Punjab,Khanna,"Kalal Majra, Khanna - PPCB",18-09-2024 21:00:00,30.736056 ,76.209694,NH3,5,6,5
India,Punjab,Khanna,"Kalal Majra, Khanna - PPCB",18-09-2024 21:00:00,30.736056 ,76.209694,CO,12,22,15
India,Punjab,Ludhiana,"Punjab Agricultural University, Ludhiana - PPCB",18-09-2024 21:00:00,30.9028,75.8086,PM2.5,58,189,109
India,Punjab,Ludhiana,"Punjab Agricultural University, Ludhiana - PPCB",18-09-2024 21:00:00,30.9028,75.8086,PM10,66,143,110
India,Punjab,Ludhiana,"Punjab Agricultural University, Ludhiana - PPCB",18-09-2024 21:00:00,30.9028,75.8086,NH3,3,5,4
India,Punjab,Mandi Gobindgarh,"RIMT University, Mandi Gobindgarh - PPCB",18-09-2024 21:00:00,30.649961,76.331442,CO,20,74,56
India,Punjab,Patiala,"Model Town, Patiala - PPCB",18-09-2024 21:00:00,30.349388,76.366642,NO2,18,29,22
India,Punjab,Patiala,"Model Town, Patiala - PPCB",18-09-2024 21:00:00,30.349388,76.366642,OZONE,19,46,36
India,Punjab,Rupnagar,"Ratanpura, Rupnagar - Ambuja Cements",18-09-2024 21:00:00,31.0325454,76.5623046,PM2.5,26,91,46
India,Rajasthan,Ajmer,"Civil Lines,  Ajmer - RSPCB",18-09-2024 21:00:00,26.470859,74.646594,OZONE,14,48,34
India,Rajasthan,Alwar,"Moti Doongri, Alwar - RSPCB",18-09-2024 21:00:00,27.554793,76.611536,NO2,16,30,21
India,Rajasthan,Banswara,"Rati Talai, Banswara - RSPCB",18-09-2024 21:00:00,23.555190,74.440010,NO2,5,34,13
India,Rajasthan,Banswara,"Rati Talai, Banswara - RSPCB",18-09-2024 21:00:00,23.555190,74.440010,SO2,2,9,5
India,Rajasthan,Banswara,"Rati Talai, Banswara - RSPCB",18-09-2024 21:00:00,23.555190,74.440010,OZONE,16,60,45
India,Rajasthan,Baran,"Bamboliya, Baran - RSPCB",18-09-2024 21:00:00,25.106006,76.469948,PM10,11,41,22
India,Rajasthan,Baran,"Bamboliya, Baran - RSPCB",18-09-2024 21:00:00,25.106006,76.469948,CO,8,25,22
India,Rajasthan,Barmer,"Railway Colony, Barmer - RSPCB",18-09-2024 21:00:00,25.747299,71.393989,PM2.5,4,43,21
India,Rajasthan,Barmer,"Railway Colony, Barmer - RSPCB",18-09-2024 21:00:00,25.747299,71.393989,OZONE,28,71,59
India,Rajasthan,Bharatpur,"Krishna Nagar, Bharatpur - RSPCB",18-09-2024 21:00:00,27.215415,77.50873,NH3,1,4,3
India,Rajasthan,Bharatpur,"Krishna Nagar, Bharatpur - RSPCB",18-09-2024 21:00:00,27.215415,77.50873,OZONE,33,58,55
India,Rajasthan,Bhiwadi,"RIICO Ind. Area III, Bhiwadi - RSPCB",18-09-2024 21:00:00,28.194909,76.862296,OZONE,10,73,43
India,Rajasthan,Bikaner,"MM Ground, Bikaner - RSPCB",18-09-2024 21:00:00,28.018792,73.292658,NO2,7,51,20
India,Rajasthan,Bikaner,"MM Ground, Bikaner - RSPCB",18-09-2024 21:00:00,28.018792,73.292658,OZONE,28,106,83
India,Rajasthan,Bundi,"New Colony, Bundi - RSPCB",18-09-2024 21:00:00,25.435774,75.644272,PM10,35,120,69
India,Rajasthan,Bundi,"New Colony, Bundi - RSPCB",18-09-2024 21:00:00,25.435774,75.644272,SO2,3,5,4
India,Rajasthan,Bundi,"New Colony, Bundi - RSPCB",18-09-2024 21:00:00,25.435774,75.644272,CO,34,79,55
India,Rajasthan,Chittorgarh,"Shastri Nagar, Chittorgarh - RSPCB",18-09-2024 21:00:00,24.892047,74.623527,OZONE,7,72,56
India,Rajasthan,Dausa,"Khatikan Mohalla, Dausa - RSPCB",18-09-2024 21:00:00,26.895552,76.334753,PM2.5,5,89,33
India,Rajasthan,Dholpur,"Raja Ganj, Dholpur - RSPCB",18-09-2024 21:00:00,26.699557,77.898881,PM2.5,13,57,34
India,Rajasthan,Dungarpur,"Bhoiwada, Dungarpur - RSPCB",18-09-2024 21:00:00,23.837789,73.714926,CO,49,70,54
India,Rajasthan,Dungarpur,"Bhoiwada, Dungarpur - RSPCB",18-09-2024 21:00:00,23.837789,73.714926,OZONE,22,66,55
India,Rajasthan,Hanumangarh,"Housing Board, Hanumangarh - RSPCB",18-09-2024 21:00:00,29.610750,74.283608,SO2,NA,NA,NA
India,Rajasthan,Jaipur,"Adarsh Nagar, Jaipur - RSPCB",18-09-2024 21:00:00,26.902909,75.836858,NO2,11,67,34
India,Rajasthan,Jaipur,"Adarsh Nagar, Jaipur - RSPCB",18-09-2024 21:00:00,26.902909,75.836858,NH3,3,10,5
India,Rajasthan,Jaipur,"Police Commissionerate, Jaipur - RSPCB",18-09-2024 21:00:00,26.9164092,75.7994901,CO,24,57,42
India,Rajasthan,Jaipur,"RIICO Sitapura, Jaipur - RSPCB",18-09-2024 21:00:00,26.786682,75.827928,NO2,NA,NA,NA
India,Rajasthan,Jaipur,"RIICO Sitapura, Jaipur - RSPCB",18-09-2024 21:00:00,26.786682,75.827928,CO,11,24,16
India,Rajasthan,Jaipur,"Sector-2 Murlipura, Jaipur - RSPCB",18-09-2024 21:00:00,26.960669,75.771817,PM10,26,139,82
India,Rajasthan,Jaipur,"Sector-2 Murlipura, Jaipur - RSPCB",18-09-2024 21:00:00,26.960669,75.771817,NO2,8,56,26
India,Rajasthan,Jaisalmer,"Sadar Bazar, Jaisalmer - RSPCB",18-09-2024 21:00:00,26.912329,70.909168,PM10,35,154,86
India,Rajasthan,Jaisalmer,"Sadar Bazar, Jaisalmer - RSPCB",18-09-2024 21:00:00,26.912329,70.909168,SO2,2,5,3
India,Rajasthan,Jalore,"Mudtra Sili, Jalore - RSPCB",18-09-2024 21:00:00,25.344694,72.626208,PM10,78,146,106
India,Rajasthan,Jhalawar,"Rajlaxmi Nagar, Jhalawar - RSPCB",18-09-2024 21:00:00,24.588397,76.172782,SO2,3,6,4
India,Rajasthan,Jhalawar,"Rajlaxmi Nagar, Jhalawar - RSPCB",18-09-2024 21:00:00,24.588397,76.172782,CO,23,28,25
India,Rajasthan,Jhunjhunu,"Indra Nagar, Jhunjhunu - RSPCB",18-09-2024 21:00:00,28.108988,75.386577,NH3,17,26,23
India,Rajasthan,Jhunjhunu,"Indra Nagar, Jhunjhunu - RSPCB",18-09-2024 21:00:00,28.108988,75.386577,SO2,2,4,3
India,Rajasthan,Jhunjhunu,"Indra Nagar, Jhunjhunu - RSPCB",18-09-2024 21:00:00,28.108988,75.386577,CO,20,36,29
India,Rajasthan,Jodhpur,"Digari Kalan, Jodhpur - RSPCB",18-09-2024 21:00:00,26.295810,73.082283,PM2.5,9,48,29
India,Rajasthan,Jodhpur,"Digari Kalan, Jodhpur - RSPCB",18-09-2024 21:00:00,26.295810,73.082283,CO,17,46,24
India,Rajasthan,Jodhpur,"Digari Kalan, Jodhpur - RSPCB",18-09-2024 21:00:00,26.295810,73.082283,OZONE,8,67,57
India,Rajasthan,Jodhpur,"Mandor, Jodhpur - RSPCB",18-09-2024 21:00:00,26.358805,73.047444,CO,6,18,15
India,Rajasthan,Kota,"Dhanmandi, Kota - RSPCB",18-09-2024 21:00:00,25.164090,75.858137,PM2.5,5,48,20
India,Rajasthan,Kota,"Dhanmandi, Kota - RSPCB",18-09-2024 21:00:00,25.164090,75.858137,SO2,1,16,2
India,Rajasthan,Kota,"Dhanmandi, Kota - RSPCB",18-09-2024 21:00:00,25.164090,75.858137,OZONE,17,52,38
India,Rajasthan,Kota,"Nayapura, Kota - RSPCB",18-09-2024 21:00:00,25.196024,75.855668,OZONE,22,66,53
India,Rajasthan,Kota,"Shrinath Puram, Kota - RSPCB",18-09-2024 21:00:00,25.14389,75.821256,PM2.5,31,239,67
India,Rajasthan,Kota,"Shrinath Puram, Kota - RSPCB",18-09-2024 21:00:00,25.14389,75.821256,NO2,18,51,25
India,Rajasthan,Kota,"Shrinath Puram, Kota - RSPCB",18-09-2024 21:00:00,25.14389,75.821256,NH3,2,3,2
India,Rajasthan,Nagaur,"Karni Colony, Nagaur - RSPCB",18-09-2024 21:00:00,27.213494,73.734444,PM2.5,18,106,46
India,Rajasthan,Pali,"Indira Colony Vistar, Pali - RSPCB",18-09-2024 21:00:00,25.771061, 73.340227,CO,19,50,38
India,Rajasthan,Pratapgarh,"Pragati Nagar, Pratapgarh - RSPCB",18-09-2024 21:00:00,24.041198,74.780702,OZONE,27,86,58
India,Rajasthan,Rajsamand,"Dhoinda, Rajsamand - RSPCB",18-09-2024 21:00:00,25.036360,73.883502,PM10,38,85,60
India,Rajasthan,Sawai Madhopur,"Sahu Nagar, Sawai Madhopur - RSPCB",18-09-2024 21:00:00,26.031443,76.359327,PM2.5,15,57,28
India,Rajasthan,Sikar,"Radhakishan Pura, Sikar - RSPCB",18-09-2024 21:00:00,27.608912,75.153302,NO2,3,27,11
India,Rajasthan,Sirohi,"Vedhaynath Colony, Sirohi - RSPCB",18-09-2024 21:00:00,24.885261,72.857549,OZONE,7,148,53
India,Rajasthan,Sri Ganganagar,"Old City, Sri Ganganagar - RSPCB",18-09-2024 21:00:00,29.931624,73.864511,SO2,1,8,4
India,Rajasthan,Sri Ganganagar,"Old City, Sri Ganganagar - RSPCB",18-09-2024 21:00:00,29.931624,73.864511,CO,12,62,31
India,Rajasthan,Tonk,"Shastri Nagar, Tonk - RSPCB",18-09-2024 21:00:00,26.159933,75.780517,PM10,30,131,59
India,Rajasthan,Tonk,"Shastri Nagar, Tonk - RSPCB",18-09-2024 21:00:00,26.159933,75.780517,NH3,3,5,4
India,Rajasthan,Tonk,"Shastri Nagar, Tonk - RSPCB",18-09-2024 21:00:00,26.159933,75.780517,SO2,2,17,5
India,Rajasthan,Udaipur,"Ashok Nagar, Udaipur - RSPCB",18-09-2024 21:00:00,24.5886166,73.6321397,PM2.5,29,82,56
India,Sikkim,Gangtok,"Zero Point GICI, Gangtok - SSPCB",18-09-2024 21:00:00,27.338530,88.614099,NO2,NA,NA,NA
India,TamilNadu,Chennai,"Alandur Bus Depot, Chennai - CPCB",18-09-2024 21:00:00,12.9099161,80.1076538,CO,4,10,6
India,TamilNadu,Chennai,"Arumbakkam, Chennai - TNPCB",18-09-2024 21:00:00,13.0664,80.2112 ,NH3,NA,NA,NA
India,TamilNadu,Chennai,"Kodungaiyur, Chennai - TNPCB",18-09-2024 21:00:00,13.1278,80.2642,PM2.5,13,30,22
India,TamilNadu,Chennai,"Manali, Chennai - CPCB",18-09-2024 21:00:00,13.164544,80.26285,PM2.5,15,80,43
India,TamilNadu,Chennai,"Royapuram, Chennai - TNPCB",18-09-2024 21:00:00,13.1036,80.2909,SO2,2,14,7
India,TamilNadu,Chennai,"Royapuram, Chennai - TNPCB",18-09-2024 21:00:00,13.1036,80.2909,CO,2,75,29
India,TamilNadu,Chennai,"Velachery Res. Area, Chennai - CPCB",18-09-2024 21:00:00,13.0052189,80.2398125,OZONE,5,13,11
India,TamilNadu,Coimbatore,"SIDCO Kurichi, Coimbatore - TNPCB",18-09-2024 21:00:00,10.942451,76.978996,PM2.5,30,192,74
India,TamilNadu,Coimbatore,"SIDCO Kurichi, Coimbatore - TNPCB",18-09-2024 21:00:00,10.942451,76.978996,OZONE,31,38,36
India,TamilNadu,Cuddalore,"Kudikadu, Cuddalore - TNPCB",18-09-2024 21:00:00,11.6829898,79.7532099,PM2.5,13,70,30
India,TamilNadu,Cuddalore,"Semmandalam, Cuddalore - TNPCB",18-09-2024 21:00:00,11.7637683,79.7499835,NO2,10,27,16
India,TamilNadu,Dindigul,"Mendonsa Colony, Dindigul - TNPCB",18-09-2024 21:00:00,10.358535,77.984321,PM2.5,21,40,30
India,TamilNadu,Dindigul,"Mendonsa Colony, Dindigul - TNPCB",18-09-2024 21:00:00,10.358535,77.984321,SO2,23,23,23
India,TamilNadu,Gummidipoondi,"Anthoni Pillai Nagar, Gummidipoondi - TNPCB",18-09-2024 21:00:00,13.4127,80.1081,PM2.5,28,246,69
India,TamilNadu,Gummidipoondi,"Anthoni Pillai Nagar, Gummidipoondi - TNPCB",18-09-2024 21:00:00,13.4127,80.1081,SO2,NA,NA,NA
India,TamilNadu,Kanchipuram,"Kilambi, Kanchipuram - TNPCB",18-09-2024 21:00:00,12.864618,79.659968,NO2,1,30,16
India,TamilNadu,Ooty,"Bombay Castel, Ooty - TNPCB",18-09-2024 21:00:00,11.4068288,76.7138973,NO2,NA,NA,NA
India,TamilNadu,Ooty,"Bombay Castel, Ooty - TNPCB",18-09-2024 21:00:00,11.4068288,76.7138973,CO,24,26,25
India,TamilNadu,Ramanathapuram,"Chalai Bazaar, Ramanathapuram - TNPCB",18-09-2024 21:00:00,9.36399,78.831977,NO2,2,2,2
India,TamilNadu,Ramanathapuram,"Chalai Bazaar, Ramanathapuram - TNPCB",18-09-2024 21:00:00,9.36399,78.831977,SO2,7,28,9
India,TamilNadu,Ramanathapuram,"Chalai Bazaar, Ramanathapuram - TNPCB",18-09-2024 21:00:00,9.36399,78.831977,CO,2,6,4
India,TamilNadu,Salem,"Sona College of Technology, Salem - TNPCB",18-09-2024 21:00:00,11.679111,78.125052,PM10,32,108,48
India,TamilNadu,Thoothukudi,"Meelavittan, Thoothukudi - TNPCB",18-09-2024 21:00:00,8.816428 ,78.099039,NO2,15,46,21
India,TamilNadu,Tirunelveli,"Municipal Corporation Office, Tirunelveli - TNPCB",18-09-2024 21:00:00,8.728442,77.6962,OZONE,6,6,6
India,TamilNadu,Tirupur,"Kumaran College, Tirupur - TNPCB",18-09-2024 21:00:00,11.0973603,77.3228673,PM2.5,NA,NA,NA
India,TamilNadu,Tirupur,"Kumaran College, Tirupur - TNPCB",18-09-2024 21:00:00,11.0973603,77.3228673,NO2,NA,NA,NA
India,TamilNadu,Virudhunagar,"Collectorate Office, Virudhunagar - TNPCB",18-09-2024 21:00:00,9.559382,77.948828,PM2.5,15,66,25
India,TamilNadu,Virudhunagar,"Collectorate Office, Virudhunagar - TNPCB",18-09-2024 21:00:00,9.559382,77.948828,NO2,10,16,12
India,Telangana,Hyderabad,"Bollaram Industrial Area, Hyderabad - TSPCB",18-09-2024 21:00:00,17.540891,78.358528,NH3,4,13,6
India,Telangana,Hyderabad,"Central University, Hyderabad - TSPCB",18-09-2024 21:00:00,17.460103,78.334361,PM2.5,30,53,39
India,Telangana,Hyderabad,"Central University, Hyderabad - TSPCB",18-09-2024 21:00:00,17.460103,78.334361,NH3,1,7,4
India,Telangana,Hyderabad,"ECIL Kapra, Hyderabad - TSPCB",18-09-2024 21:00:00,17.470431,78.566959,PM10,63,96,74
India,Telangana,Hyderabad,"ECIL Kapra, Hyderabad - TSPCB",18-09-2024 21:00:00,17.470431,78.566959,OZONE,30,66,56
India,Telangana,Hyderabad,"ICRISAT Patancheru, Hyderabad - TSPCB",18-09-2024 21:00:00,17.518400,78.278777,PM10,67,112,85
India,Telangana,Hyderabad,"IDA Pashamylaram, Hyderabad - TSPCB",18-09-2024 21:00:00,17.5316895,78.218939,PM2.5,40,160,66
India,Telangana,Hyderabad,"IDA Pashamylaram, Hyderabad - TSPCB",18-09-2024 21:00:00,17.5316895,78.218939,SO2,1,22,7
India,Telangana,Hyderabad,"IITH Kandi, Hyderabad - TSPCB",18-09-2024 21:00:00,17.585705,78.126199,PM2.5,41,44,42
India,Telangana,Hyderabad,"IITH Kandi, Hyderabad - TSPCB",18-09-2024 21:00:00,17.585705,78.126199,SO2,12,17,14
India,Telangana,Hyderabad,"Kokapet, Hyderabad - TSPCB",18-09-2024 21:00:00,17.393559,78.339194,NO2,NA,NA,NA
India,Telangana,Hyderabad,"Kokapet, Hyderabad - TSPCB",18-09-2024 21:00:00,17.393559,78.339194,SO2,NA,NA,NA
India,Telangana,Hyderabad,"Kokapet, Hyderabad - TSPCB",18-09-2024 21:00:00,17.393559,78.339194,CO,20,52,29
India,Telangana,Hyderabad,"Kompally Municipal Office, Hyderabad - TSPCB",18-09-2024 21:00:00,17.544899,78.486949,NH3,3,6,4
India,Telangana,Hyderabad,"Kompally Municipal Office, Hyderabad - TSPCB",18-09-2024 21:00:00,17.544899,78.486949,SO2,2,25,9
India,Telangana,Hyderabad,"Nacharam_TSIIC IALA, Hyderabad - TSPCB",18-09-2024 21:00:00,17.429398,78.569354,NO2,8,11,9
India,Telangana,Hyderabad,"Nacharam_TSIIC IALA, Hyderabad - TSPCB",18-09-2024 21:00:00,17.429398,78.569354,SO2,7,17,10
India,Telangana,Hyderabad,"Ramachandrapuram, Hyderabad - TSPCB",18-09-2024 21:00:00,17.528544,78.286195,PM2.5,30,32,31
India,Telangana,Hyderabad,"Ramachandrapuram, Hyderabad - TSPCB",18-09-2024 21:00:00,17.528544,78.286195,OZONE,NA,NA,NA
India,Telangana,Hyderabad,"Zoo Park, Hyderabad - TSPCB",18-09-2024 21:00:00,17.349694,78.451437,PM2.5,30,55,40
India,Telangana,Hyderabad,"Zoo Park, Hyderabad - TSPCB",18-09-2024 21:00:00,17.349694,78.451437,PM10,34,87,50
India,Telangana,Hyderabad,"Zoo Park, Hyderabad - TSPCB",18-09-2024 21:00:00,17.349694,78.451437,CO,7,46,27
India,Tripura,Agartala,"Bardowali, Agartala - Tripura SPCB",18-09-2024 21:00:00,23.8175497,91.2726974,OZONE,5,126,56
India,Uttar_Pradesh,Agra,"Sanjay Palace, Agra - UPPCB",18-09-2024 21:00:00,27.19865833,78.00598056,PM10,72,86,78
India,Uttar_Pradesh,Agra,"Sector-3B Avas Vikas Colony, Agra - UPPCB",18-09-2024 21:00:00,27.19412,77.96237,NO2,30,30,30
India,Uttar_Pradesh,Agra,"Sector-3B Avas Vikas Colony, Agra - UPPCB",18-09-2024 21:00:00,27.19412,77.96237,SO2,18,21,19
India,Uttar_Pradesh,Agra,"Shahjahan Garden, Agra - UPPCB",18-09-2024 21:00:00,27.169338,78.03582,NO2,16,18,17
India,Uttar_Pradesh,Agra,"Shastripuram, Agra - UPPCB",18-09-2024 21:00:00,27.19862,77.92066,SO2,20,23,22
India,Uttar_Pradesh,Agra,"Shastripuram, Agra - UPPCB",18-09-2024 21:00:00,27.19862,77.92066,CO,3,8,7
India,Uttar_Pradesh,Baghpat,"Sardar Patel Inter College, Baghpat - UPPCB",18-09-2024 21:00:00,28.964949,77.278761,SO2,8,19,14
India,Uttar_Pradesh,Bareilly,"Civil Lines, Bareilly - UPPCB",18-09-2024 21:00:00,28.359581,79.414455,NH3,2,2,2
India,Uttar_Pradesh,Bareilly,"Rajendra Nagar, Bareilly - UPPCB",18-09-2024 21:00:00,28.38910936,79.42963708,SO2,20,21,21
India,Uttar_Pradesh,Bulandshahr,"Yamunapuram, Bulandshahr - UPPCB",18-09-2024 21:00:00,28.406963,77.849831,NH3,4,9,6
India,Uttar_Pradesh,Bulandshahr,"Yamunapuram, Bulandshahr - UPPCB",18-09-2024 21:00:00,28.406963,77.849831,SO2,4,29,17
India,Uttar_Pradesh,Firozabad,"Nagla Bhau, Firozabad - UPPCB",18-09-2024 21:00:00,27.168897,78.376960,PM2.5,14,33,23
India,Uttar_Pradesh,Firozabad,"Nagla Bhau, Firozabad - UPPCB",18-09-2024 21:00:00,27.168897,78.376960,PM10,24,40,32
India,Uttar_Pradesh,Firozabad,"Vibhab Nagar, Firozabad - UPPCB",18-09-2024 21:00:00,27.1594,78.3953,OZONE,11,17,13
India,Uttar_Pradesh,Ghaziabad,"Indirapuram, Ghaziabad - UPPCB",18-09-2024 21:00:00,28.646233,77.358075,PM10,18,164,77
India,Uttar_Pradesh,Ghaziabad,"Indirapuram, Ghaziabad - UPPCB",18-09-2024 21:00:00,28.646233,77.358075,NO2,36,58,45
India,Uttar_Pradesh,Ghaziabad,"Indirapuram, Ghaziabad - UPPCB",18-09-2024 21:00:00,28.646233,77.358075,CO,34,104,40
India,Uttar_Pradesh,Ghaziabad,"Loni, Ghaziabad - UPPCB",18-09-2024 21:00:00,28.757294,77.278792,SO2,1,15,4
India,Uttar_Pradesh,Ghaziabad,"Loni, Ghaziabad - UPPCB",18-09-2024 21:00:00,28.757294,77.278792,OZONE,13,29,27
India,Uttar_Pradesh,Ghaziabad,"Vasundhara, Ghaziabad - UPPCB",18-09-2024 21:00:00,28.6603346,77.3572563,PM2.5,20,251,79
India,Uttar_Pradesh,Gorakhpur,"Madan Mohan Malaviya University of Technology, Gorakhpur - UPPCB",18-09-2024 21:00:00,26.730136,83.433859,PM2.5,30,90,64
India,Uttar_Pradesh,Gorakhpur,"Madan Mohan Malaviya University of Technology, Gorakhpur - UPPCB",18-09-2024 21:00:00,26.730136,83.433859,NO2,11,11,11
India,Uttar_Pradesh,Gorakhpur,"Madan Mohan Malaviya University of Technology, Gorakhpur - UPPCB",18-09-2024 21:00:00,26.730136,83.433859,NH3,1,1,1
India,Uttar_Pradesh,Greater Noida,"Knowledge Park - III, Greater Noida - UPPCB",18-09-2024 21:00:00,28.47272,77.482000,NH3,NA,NA,NA
India,Uttar_Pradesh,Greater Noida,"Knowledge Park - III, Greater Noida - UPPCB",18-09-2024 21:00:00,28.47272,77.482000,OZONE,9,16,15
India,Uttar_Pradesh,Greater Noida,"Knowledge Park - V, Greater Noida - UPPCB",18-09-2024 21:00:00,28.557054,77.453663,NH3,1,3,2
India,Uttar_Pradesh,Greater Noida,"Knowledge Park - V, Greater Noida - UPPCB",18-09-2024 21:00:00,28.557054,77.453663,SO2,5,13,10
India,Uttar_Pradesh,Hapur,"Anand Vihar, Hapur - UPPCB",18-09-2024 21:00:00,28.725645,77.749675,PM10,12,81,44
India,Uttar_Pradesh,Hapur,"Anand Vihar, Hapur - UPPCB",18-09-2024 21:00:00,28.725645,77.749675,CO,28,48,31
India,Uttar_Pradesh,Jhansi,"Shivaji Nagar, Jhansi - UPPCB",18-09-2024 21:00:00,25.4547,78.6039,NO2,6,17,10
India,Uttar_Pradesh,Kanpur,"FTI Kidwai Nagar, Kanpur - UPPCB",18-09-2024 21:00:00,26.428282,80.327067,NO2,22,51,25
India,Uttar_Pradesh,Kanpur,"NSI Kalyanpur, Kanpur - UPPCB",18-09-2024 21:00:00,26.509954,80.249612,OZONE,9,19,12
India,Uttar_Pradesh,Kanpur,"Nehru Nagar, Kanpur - UPPCB",18-09-2024 21:00:00,26.4703136,80.3229863,SO2,15,19,16
India,Uttar_Pradesh,Kanpur,"Nehru Nagar, Kanpur - UPPCB",18-09-2024 21:00:00,26.4703136,80.3229863,CO,53,68,56
India,Uttar_Pradesh,Lucknow,"B R Ambedkar University, Lucknow - UPPCB",18-09-2024 21:00:00,26.766433,80.927299,PM2.5,47,86,64
India,Uttar_Pradesh,Lucknow,"B R Ambedkar University, Lucknow - UPPCB",18-09-2024 21:00:00,26.766433,80.927299,SO2,14,15,15
India,Uttar_Pradesh,Lucknow,"Gomti Nagar, Lucknow - UPPCB",18-09-2024 21:00:00,26.868120,81.005119,CO,37,40,40
India,Uttar_Pradesh,Lucknow,"Kendriya Vidyalaya, Lucknow - CPCB",18-09-2024 21:00:00,26.906111,80.948222,NO2,NA,NA,NA
India,Uttar_Pradesh,Lucknow,"Talkatora District Industries Center, Lucknow - CPCB",18-09-2024 21:00:00,26.83399722,80.8917361,PM10,NA,NA,NA
India,Uttar_Pradesh,Meerut,"Jai Bhim Nagar, Meerut - UPPCB",18-09-2024 21:00:00,28.9535882,77.7622941,PM10,16,96,46
India,Uttar_Pradesh,Meerut,"Jai Bhim Nagar, Meerut - UPPCB",18-09-2024 21:00:00,28.9535882,77.7622941,SO2,2,4,3
India,Uttar_Pradesh,Meerut,"Jai Bhim Nagar, Meerut - UPPCB",18-09-2024 21:00:00,28.9535882,77.7622941,OZONE,9,53,41
India,Uttar_Pradesh,Meerut,"Pallavpuram Phase 2, Meerut - UPPCB",18-09-2024 21:00:00,29.063510,77.709723,PM2.5,11,71,39
India,Uttar_Pradesh,Meerut,"Pallavpuram Phase 2, Meerut - UPPCB",18-09-2024 21:00:00,29.063510,77.709723,NO2,6,72,29
India,Uttar_Pradesh,Meerut,"Pallavpuram Phase 2, Meerut - UPPCB",18-09-2024 21:00:00,29.063510,77.709723,NH3,2,6,4
India,Uttar_Pradesh,Meerut,"Pallavpuram Phase 2, Meerut - UPPCB",18-09-2024 21:00:00,29.063510,77.709723,CO,32,59,48
India,Uttar_Pradesh,Moradabad,"Buddhi Vihar, Moradabad - UPPCB",18-09-2024 21:00:00,28.83526,78.74460,PM2.5,NA,NA,NA
India,Uttar_Pradesh,Moradabad,"Buddhi Vihar, Moradabad - UPPCB",18-09-2024 21:00:00,28.83526,78.74460,CO,8,31,25
India,Uttar_Pradesh,Moradabad,"Buddhi Vihar, Moradabad - UPPCB",18-09-2024 21:00:00,28.83526,78.74460,OZONE,6,12,7
India,Uttar_Pradesh,Moradabad,"Eco Herbal Park, Moradabad - UPPCB",18-09-2024 21:00:00,28.840739,78.697531,NO2,6,21,9
India,Uttar_Pradesh,Moradabad,"Employment Office, Moradabad - UPPCB",18-09-2024 21:00:00,28.88528,78.73880,SO2,19,21,20
India,Uttar_Pradesh,Moradabad,"Kashiram Nagar, Moradabad - UPPCB",18-09-2024 21:00:00,28.849399,78.742362,NH3,4,4,4
India,Uttar_Pradesh,Muzaffarnagar,"New Mandi, Muzaffarnagar - UPPCB",18-09-2024 21:00:00,29.4723508,77.7194031,PM2.5,31,336,118
India,Uttar_Pradesh,Muzaffarnagar,"New Mandi, Muzaffarnagar - UPPCB",18-09-2024 21:00:00,29.4723508,77.7194031,NO2,11,50,26
India,Uttar_Pradesh,Muzaffarnagar,"New Mandi, Muzaffarnagar - UPPCB",18-09-2024 21:00:00,29.4723508,77.7194031,NH3,7,9,8
India,Uttar_Pradesh,Muzaffarnagar,"New Mandi, Muzaffarnagar - UPPCB",18-09-2024 21:00:00,29.4723508,77.7194031,CO,10,28,16
India,Uttar_Pradesh,Prayagraj,"Motilal Nehru NIT, Prayagraj - UPPCB",18-09-2024 21:00:00,25.494,81.863,NO2,10,12,12
India,Uttar_Pradesh,Prayagraj,"Nagar Nigam, Prayagraj - UPPCB",18-09-2024 21:00:00,25.44919916 ,81.82735986 ,NH3,8,13,10
India,Uttar_Pradesh,Varanasi,"Bhelupur, Varanasi - UPPCB",18-09-2024 21:00:00,25.301778,82.996789,NO2,8,8,8
India,Uttar_Pradesh,Varanasi,"Bhelupur, Varanasi - UPPCB",18-09-2024 21:00:00,25.301778,82.996789,OZONE,1,2,2
India,Uttar_Pradesh,Varanasi,"IESD Banaras Hindu University, Varanasi - UPPCB",18-09-2024 21:00:00,25.262326,82.995408,PM2.5,42,86,52
India,Uttar_Pradesh,Varanasi,"IESD Banaras Hindu University, Varanasi - UPPCB",18-09-2024 21:00:00,25.262326,82.995408,PM10,47,91,58
India,Uttar_Pradesh,Varanasi,"IESD Banaras Hindu University, Varanasi - UPPCB",18-09-2024 21:00:00,25.262326,82.995408,NH3,1,3,2
India,Uttar_Pradesh,Varanasi,"IESD Banaras Hindu University, Varanasi - UPPCB",18-09-2024 21:00:00,25.262326,82.995408,SO2,28,53,42
India,Uttar_Pradesh,Varanasi,"Maldahiya, Varanasi - UPPCB",18-09-2024 21:00:00,25.32393,82.99687,PM2.5,42,84,57
India,Uttar_Pradesh,Varanasi,"Maldahiya, Varanasi - UPPCB",18-09-2024 21:00:00,25.32393,82.99687,NO2,1,2,2
India,Uttar_Pradesh,Vrindavan,"Omex Eternity, Vrindavan - UPPCB",18-09-2024 21:00:00,27.5714090,77.6557570,PM2.5,4,14,9
India,Uttar_Pradesh,Vrindavan,"Omex Eternity, Vrindavan - UPPCB",18-09-2024 21:00:00,27.5714090,77.6557570,SO2,19,21,20
India,Uttarakhand,Dehradun,"Doon University, Dehradun - UKPCB",18-09-2024 21:00:00,30.269444,78.044167,PM2.5,2,35,23
India,Uttarakhand,Kashipur,"Govt. Girls Inter College, Kashipur - UKPCB",18-09-2024 21:00:00,29.2124114,78.9611753,PM2.5,12,33,21
India,Uttarakhand,Kashipur,"Govt. Girls Inter College, Kashipur - UKPCB",18-09-2024 21:00:00,29.2124114,78.9611753,NH3,6,7,6
India,Uttarakhand,Rishikesh,"Shivaji Nagar, Rishikesh - UKPCB",18-09-2024 21:00:00,30.075911,78.2859547,OZONE,5,5,5
India,West_Bengal,Asansol,"Asansol Court Area, Asansol - WBPCB",18-09-2024 21:00:00,23.685297,86.945968,NO2,26,82,43
India,West_Bengal,Asansol,"Evelyn Lodge, Asansol - WBPCB",18-09-2024 21:00:00,23.6979360,86.9443950,CO,26,98,40
India,West_Bengal,Asansol,"Mahabir Colliery, Asansol - WBPCB",18-09-2024 21:00:00,23.6181830,87.1057180,PM2.5,37,134,62
India,West_Bengal,Asansol,"Trivenidevi Bhalotia College, Asansol - WBPCB",18-09-2024 21:00:00,23.616515,87.119133,PM10,63,171,96
India,West_Bengal,Barrackpore,"SVSPA Campus, Barrackpore - WBPCB",18-09-2024 21:00:00,22.7605581,88.3617589,NO2,7,17,12
India,West_Bengal,Durgapur,"Mahishkapur Road_B-Zone, Durgapur - WBPCB",18-09-2024 21:00:00,23.567923,87.306843,NH3,1,3,1
India,West_Bengal,Durgapur,"Mahishkapur Road_B-Zone, Durgapur - WBPCB",18-09-2024 21:00:00,23.567923,87.306843,SO2,2,4,3
India,West_Bengal,Durgapur,"Sidhu Kanhu Indoor Stadium, Durgapur - WBPCB",18-09-2024 21:00:00,23.5404352,87.2892225,NO2,16,36,22
India,West_Bengal,Haldia,"Priyambada Housing Estate, Haldia - WBPCB",18-09-2024 21:00:00,22.06047,88.109737,SO2,9,18,12
India,West_Bengal,Haldia,"Priyambada Housing Estate, Haldia - WBPCB",18-09-2024 21:00:00,22.06047,88.109737,OZONE,15,35,28
India,West_Bengal,Howrah,"Belur Math, Howrah - WBPCB",18-09-2024 21:00:00,22.629801,88.352017,NH3,5,6,5
India,West_Bengal,Howrah,"Botanical Garden, Howrah - WBPCB",18-09-2024 21:00:00,22.554954,88.292568,PM2.5,50,89,65
India,West_Bengal,Howrah,"Botanical Garden, Howrah - WBPCB",18-09-2024 21:00:00,22.554954,88.292568,NO2,7,13,9
India,West_Bengal,Howrah,"Botanical Garden, Howrah - WBPCB",18-09-2024 21:00:00,22.554954,88.292568,SO2,1,5,3
India,West_Bengal,Howrah,"Ghusuri, Howrah - WBPCB",18-09-2024 21:00:00,22.611968,88.347422,NH3,4,4,4
India,West_Bengal,Howrah,"Padmapukur, Howrah - WBPCB",18-09-2024 21:00:00,22.5687319,88.2797276,NH3,4,7,5
India,West_Bengal,Howrah,"Padmapukur, Howrah - WBPCB",18-09-2024 21:00:00,22.5687319,88.2797276,OZONE,20,33,28
India,West_Bengal,Kolkata,"Ballygunge, Kolkata - WBPCB",18-09-2024 21:00:00,22.5367507,88.3638022,NH3,9,16,12
India,West_Bengal,Kolkata,"Fort William, Kolkata - WBPCB",18-09-2024 21:00:00,22.556640,88.342674,PM2.5,37,62,47
India,West_Bengal,Kolkata,"Fort William, Kolkata - WBPCB",18-09-2024 21:00:00,22.556640,88.342674,NH3,7,11,9
India,West_Bengal,Kolkata,"Fort William, Kolkata - WBPCB",18-09-2024 21:00:00,22.556640,88.342674,CO,10,20,16
India,West_Bengal,Kolkata,"Rabindra Bharati University, Kolkata - WBPCB",18-09-2024 21:00:00,22.627847,88.380669,SO2,9,13,11
India,West_Bengal,Kolkata,"Rabindra Sarobar, Kolkata - WBPCB",18-09-2024 21:00:00,22.51106,88.35142,NO2,21,44,32
India,West_Bengal,Kolkata,"Rabindra Sarobar, Kolkata - WBPCB",18-09-2024 21:00:00,22.51106,88.35142,SO2,4,6,5
India,West_Bengal,Siliguri,"Ward-32 Bapupara, Siliguri - WBPCB",18-09-2024 21:00:00,26.6879226,88.4152495,PM10,38,72,50
India,West_Bengal,Siliguri,"Ward-32 Bapupara, Siliguri - WBPCB",18-09-2024 21:00:00,26.6879226,88.4152495,NO2,16,35,20
India,West_Bengal,Siliguri,"Ward-32 Bapupara, Siliguri - WBPCB",18-09-2024 21:00:00,26.6879226,88.4152495,CO,14,44,17
India,Andhra_Pradesh,Amaravati,"Secretariat, Amaravati - APPCB",18-09-2024 21:00:00,16.5150833,80.5181667,PM2.5,33,72,49
India,Andhra_Pradesh,Anantapur,"Gulzarpet, Anantapur - APPCB",18-09-2024 21:00:00,14.675886,77.593027,PM2.5,18,92,43
India,Andhra_Pradesh,Chittoor,"Gangineni Cheruvu, Chittoor - APPCB",18-09-2024 21:00:00,13.204880,79.097889,PM2.5,21,80,51
India,Andhra_Pradesh,Kadapa,"Yerramukkapalli, Kadapa - APPCB",18-09-2024 21:00:00,14.465052,78.824187,PM2.5,37,61,49
India,Andhra_Pradesh,Kadapa,"Yerramukkapalli, Kadapa - APPCB",18-09-2024 21:00:00,14.465052,78.824187,NO2,5,8,6
India,Andhra_Pradesh,Kadapa,"Yerramukkapalli, Kadapa - APPCB",18-09-2024 21:00:00,14.465052,78.824187,SO2,5,6,5
India,Andhra_Pradesh,Rajamahendravaram,"Anand Kala Kshetram, Rajamahendravaram - APPCB",18-09-2024 21:00:00,16.9872867,81.7363176,PM2.5,35,72,55
India,Andhra_Pradesh,Tirupati,"Tirumala, Tirupati - APPCB",18-09-2024 21:00:00,13.67,79.35,NH3,NA,NA,NA
India,Andhra_Pradesh,Tirupati,"Tirumala, Tirupati - APPCB",18-09-2024 21:00:00,13.67,79.35,CO,18,26,22
India,Andhra_Pradesh,Tirupati,"Tirumala, Tirupati - APPCB",18-09-2024 21:00:00,13.67,79.35,OZONE,24,32,29
India,Andhra_Pradesh,Tirupati,"Vaikuntapuram, Tirupati - APPCB",18-09-2024 21:00:00,13.615387,79.409230,PM10,42,50,44
India,Andhra_Pradesh,Vijayawada,"HB Colony, Vijayawada - APPCB",18-09-2024 21:00:00,16.536107,80.594233,OZONE,NA,NA,NA
India,Andhra_Pradesh,Visakhapatnam,"GVM Corporation, Visakhapatnam - APPCB",18-09-2024 21:00:00,17.72,83.3,PM10,86,156,122
India,Andhra_Pradesh,Visakhapatnam,"GVM Corporation, Visakhapatnam - APPCB",18-09-2024 21:00:00,17.72,83.3,NH3,3,7,4
India,Andhra_Pradesh,Visakhapatnam,"GVM Corporation, Visakhapatnam - APPCB",18-09-2024 21:00:00,17.72,83.3,SO2,3,12,8
India,Arunachal_Pradesh,Naharlagun,"Naharlagun, Naharlagun - APSPCB",18-09-2024 21:00:00,27.103358,93.679645,SO2,5,5,5
India,Arunachal_Pradesh,Naharlagun,"Naharlagun, Naharlagun - APSPCB",18-09-2024 21:00:00,27.103358,93.679645,CO,10,20,13
India,Assam,Byrnihat,"Central Academy for SFS, Byrnihat - PCBA",18-09-2024 21:00:00,26.071318,91.87488,NH3,NA,NA,NA
India,Assam,Byrnihat,"Central Academy for SFS, Byrnihat - PCBA",18-09-2024 21:00:00,26.071318,91.87488,CO,20,97,43
India,Assam,Guwahati,"IITG, Guwahati - PCBA",18-09-2024 21:00:00,26.2028636,91.70046436,NH3,NA,NA,NA
India,Assam,Guwahati,"LGBI Airport, Guwahati - PCBA",18-09-2024 21:00:00,26.10887,91.589544,NH3,1,14,2
India,Assam,Guwahati,"Pan Bazaar, Guwahati - PCBA",18-09-2024 21:00:00,26.187500,91.744194,PM2.5,NA,NA,NA
India,Assam,Guwahati,"Pan Bazaar, Guwahati - PCBA",18-09-2024 21:00:00,26.187500,91.744194,CO,NA,NA,NA
India,Assam,Guwahati,"Railway Colony, Guwahati - PCBA",18-09-2024 21:00:00,26.181742,91.78063,PM10,33,139,73
India,Assam,Guwahati,"Railway Colony, Guwahati - PCBA",18-09-2024 21:00:00,26.181742,91.78063,SO2,5,6,6
India,Assam,Nagaon,"Christianpatty, Nagaon - PCBA",18-09-2024 21:00:00,26.349082,92.68449,PM10,5,312,70
India,Assam,Nalbari,"Bata Chowk, Nalbari - PCBA",18-09-2024 21:00:00,26.446912,91.439057,PM10,51,135,64
India,Assam,Silchar,"Tarapur, Silchar - PCBA",18-09-2024 21:00:00,24.82827,92.79525,CO,19,25,21
India,Bihar,Araria,"Kharahiya Basti, Araria - BSPCB",18-09-2024 21:00:00,26.146529,87.454184,PM2.5,70,320,174
India,Bihar,Arrah,"New DM Office, Arrah - BSPCB",18-09-2024 21:00:00,25.5626095,84.663264,PM10,NA,NA,NA
India,Bihar,Arrah,"New DM Office, Arrah - BSPCB",18-09-2024 21:00:00,25.5626095,84.663264,NH3,1,2,1
India,Bihar,Aurangabad,"Gurdeo Nagar, Aurangabad - BSPCB",18-09-2024 21:00:00,24.75746,84.366208,NO2,11,11,11
India,Bihar,Aurangabad,"Gurdeo Nagar, Aurangabad - BSPCB",18-09-2024 21:00:00,24.75746,84.366208,CO,26,72,62
India,Bihar,Begusarai,"Lohiyanagar, Begusarai - BSPCB (Formerly known as DRCC Anandpur)",18-09-2024 21:00:00,25.42742023,86.13886079,PM2.5,2,38,13
India,Bihar,Begusarai,"Lohiyanagar, Begusarai - BSPCB (Formerly known as DRCC Anandpur)",18-09-2024 21:00:00,25.42742023,86.13886079,OZONE,4,22,12
India,Bihar,Bettiah,"Kamalnath Nagar, Bettiah - BSPCB",18-09-2024 21:00:00,26.80365,84.51954,PM2.5,NA,NA,NA
India,Bihar,Bhagalpur,"DM Office_Kachari Chowk, Bhagalpur - BSPCB",18-09-2024 21:00:00,25.251013,86.989001,PM2.5,47,140,78
India,Bihar,Gaya,"Kareemganj, Gaya - BSPCB",18-09-2024 21:00:00,24.792403,84.992416,PM2.5,5,62,29
India,Bihar,Gaya,"Kareemganj, Gaya - BSPCB",18-09-2024 21:00:00,24.792403,84.992416,SO2,6,17,11
India,Bihar,Hajipur,"Industrial Area, Hajipur - BSPCB",18-09-2024 21:00:00,25.697189,85.245900,PM2.5,43,99,64
India,Bihar,Hajipur,"Industrial Area, Hajipur - BSPCB",18-09-2024 21:00:00,25.697189,85.245900,NO2,3,11,6
India,Bihar,Hajipur,"Industrial Area, Hajipur - BSPCB",18-09-2024 21:00:00,25.697189,85.245900,SO2,6,7,7
India,Bihar,Katihar,"Mirchaibari, Katihar - BSPCB",18-09-2024 21:00:00,25.560083,87.553265,PM2.5,32,193,68
India,Bihar,Katihar,"Mirchaibari, Katihar - BSPCB",18-09-2024 21:00:00,25.560083,87.553265,NH3,4,7,6
India,Bihar,Katihar,"Mirchaibari, Katihar - BSPCB",18-09-2024 21:00:00,25.560083,87.553265,OZONE,26,39,35
India,Bihar,Kishanganj,"SDM Office_Khagra, Kishanganj - BSPCB",18-09-2024 21:00:00,26.0881305,87.93840336,SO2,8,34,16
India,Bihar,Kishanganj,"SDM Office_Khagra, Kishanganj - BSPCB",18-09-2024 21:00:00,26.0881305,87.93840336,CO,4,4,4
India,Bihar,Manguraha,"Forest Rest House, Manguraha - BSPCB",18-09-2024 21:00:00,27.308328,84.531742,PM2.5,7,65,19
India,Bihar,Manguraha,"Forest Rest House, Manguraha - BSPCB",18-09-2024 21:00:00,27.308328,84.531742,NO2,7,14,8
India,Bihar,Munger,"Town Hall, Munger - BSPCB",18-09-2024 21:00:00,25.376776,86.471523,NO2,NA,NA,NA
India,Bihar,Munger,"Town Hall, Munger - BSPCB",18-09-2024 21:00:00,25.376776,86.471523,NH3,NA,NA,NA
India,Bihar,Muzaffarpur,"Buddha Colony, Muzaffarpur - BSPCB",18-09-2024 21:00:00,26.11442,85.39813,SO2,2,4,3
India,Bihar,Muzaffarpur,"MIT-Daudpur Kothi, Muzaffarpur - BSPCB",18-09-2024 21:00:00,26.1403345,85.3650192,NO2,23,38,33
India,Bihar,Muzaffarpur,"MIT-Daudpur Kothi, Muzaffarpur - BSPCB",18-09-2024 21:00:00,26.1403345,85.3650192,SO2,4,8,7
India,Bihar,Muzaffarpur,"Muzaffarpur Collectorate, Muzaffarpur - BSPCB",18-09-2024 21:00:00,26.1209,85.3647,CO,8,50,33
India,Bihar,Patna,"DRM Office Danapur, Patna - BSPCB",18-09-2024 21:00:00,25.586562,85.043586,SO2,5,9,6
India,Bihar,Patna,"DRM Office Danapur, Patna - BSPCB",18-09-2024 21:00:00,25.586562,85.043586,OZONE,6,300,80
India,Bihar,Patna,"IGSC Planetarium Complex, Patna - BSPCB",18-09-2024 21:00:00,25.610369,85.132568,NO2,18,18,18
India,Bihar,Patna,"IGSC Planetarium Complex, Patna - BSPCB",18-09-2024 21:00:00,25.610369,85.132568,SO2,7,9,8
India,Bihar,Patna,"IGSC Planetarium Complex, Patna - BSPCB",18-09-2024 21:00:00,25.610369,85.132568,OZONE,18,68,32
India,Bihar,Patna,"Muradpur, Patna - BSPCB",18-09-2024 21:00:00,25.619651,85.147382,PM2.5,57,91,76
India,Bihar,Patna,"Muradpur, Patna - BSPCB",18-09-2024 21:00:00,25.619651,85.147382,CO,14,64,49
India,Bihar,Patna,"Rajbansi Nagar, Patna - BSPCB",18-09-2024 21:00:00,25.599486,85.113666,NH3,2,7,4
India,Bihar,Patna,"Samanpura, Patna - BSPCB",18-09-2024 21:00:00,25.596727,85.085624,SO2,4,6,5
India,Bihar,Purnia,"Mariam Nagar, Purnia - BSPCB",18-09-2024 21:00:00,25.366336,87.117468,PM2.5,NA,NA,NA
India,Bihar,Purnia,"Mariam Nagar, Purnia - BSPCB",18-09-2024 21:00:00,25.366336,87.117468,SO2,NA,NA,NA
India,Bihar,Rajgir,"Dangi Tola, Rajgir - BSPCB",18-09-2024 21:00:00,25.03280,85.41948,PM2.5,40,103,65
India,Bihar,Samastipur,"DM Office_Kasipur, Samastipur - BSPCB",18-09-2024 21:00:00,25.859655,85.77944,NO2,NA,NA,NA
India,Bihar,Sasaram,"Dada Peer, Sasaram - BSPCB",18-09-2024 21:00:00,24.952822,84.002396,PM10,16,30,20
India,Bihar,Sasaram,"Dada Peer, Sasaram - BSPCB",18-09-2024 21:00:00,24.952822,84.002396,CO,15,50,41
India,Bihar,Siwan,"Chitragupta Nagar, Siwan - BSPCB",18-09-2024 21:00:00,26.2271665,84.3570427,SO2,30,35,33
India,Chandigarh,Chandigarh,"Sector 22, Chandigarh - CPCC",18-09-2024 21:00:00,30.735567,76.775714,PM10,28,133,71
India,Chandigarh,Chandigarh,"Sector 22, Chandigarh - CPCC",18-09-2024 21:00:00,30.735567,76.775714,NO2,13,77,35
India,Chandigarh,Chandigarh,"Sector 22, Chandigarh - CPCC",18-09-2024 21:00:00,30.735567,76.775714,NH3,4,12,6
India,Chandigarh,Chandigarh,"Sector-25, Chandigarh - CPCC",18-09-2024 21:00:00,30.751462,76.762879,PM2.5,35,71,53
India,Chandigarh,Chandigarh,"Sector-25, Chandigarh - CPCC",18-09-2024 21:00:00,30.751462,76.762879,SO2,3,29,6
India,Chandigarh,Chandigarh,"Sector-25, Chandigarh - CPCC",18-09-2024 21:00:00,30.751462,76.762879,OZONE,7,50,16
India,Chandigarh,Chandigarh,"Sector-53, Chandigarh - CPCC",18-09-2024 21:00:00,30.719859,76.738637,PM2.5,22,98,52
India,Chandigarh,Chandigarh,"Sector-53, Chandigarh - CPCC",18-09-2024 21:00:00,30.719859,76.738637,NH3,2,6,2
India,Chhattisgarh,Bhilai,"32Bungalows, Bhilai - CECB",18-09-2024 21:00:00,21.194815,81.314770,SO2,7,10,8
India,Chhattisgarh,Bhilai,"Civic Center, Bhilai - Bhilai Steel Plant",18-09-2024 21:00:00,21.185571,81.343175,SO2,9,12,10
India,Chhattisgarh,Bhilai,"Hathkhoj, Bhilai - CECB",18-09-2024 21:00:00,21.224231,81.408350,CO,6,36,16
India,Chhattisgarh,Bilaspur,"Mangala, Bilaspur - NTPC",18-09-2024 21:00:00,22.08815,82.13737,NO2,25,32,28
India,Chhattisgarh,Bilaspur,"Mangala, Bilaspur - NTPC",18-09-2024 21:00:00,22.08815,82.13737,CO,36,51,47
India,Chhattisgarh,Chhal,"Nawapara SECL Colony, Chhal - CECB",18-09-2024 21:00:00,22.118125,83.140608,SO2,1,17,14
India,Chhattisgarh,Chhal,"Nawapara SECL Colony, Chhal - CECB",18-09-2024 21:00:00,22.118125,83.140608,CO,20,40,25
India,Chhattisgarh,Korba,"Rampur, Korba - CECB",18-09-2024 21:00:00,22.368195,82.746431,PM2.5,27,114,51
India,Chhattisgarh,Korba,"Rampur, Korba - CECB",18-09-2024 21:00:00,22.368195,82.746431,CO,25,41,28
India,Chhattisgarh,Raipur,"Bhatagaon New ISBT, Raipur - CECB",18-09-2024 21:00:00,21.219665,81.630094,PM2.5,10,44,25
India,Chhattisgarh,Raipur,"Bhatagaon New ISBT, Raipur - CECB",18-09-2024 21:00:00,21.219665,81.630094,PM10,32,46,36
India,Chhattisgarh,Raipur,"Krishak Nagar, Raipur - CECB",18-09-2024 21:00:00,21.237755,81.705301,PM2.5,13,26,18
India,Chhattisgarh,Raipur,"Krishak Nagar, Raipur - CECB",18-09-2024 21:00:00,21.237755,81.705301,NO2,5,5,5
India,Chhattisgarh,Raipur,"Krishak Nagar, Raipur - CECB",18-09-2024 21:00:00,21.237755,81.705301,NH3,1,1,1
India,Chhattisgarh,Raipur,"Siltara Phase-II, Raipur - CECB",18-09-2024 21:00:00,21.371751,81.664929,PM10,37,114,73
India,Chhattisgarh,Raipur,"Siltara Phase-II, Raipur - CECB",18-09-2024 21:00:00,21.371751,81.664929,SO2,2,11,10
India,Chhattisgarh,Raipur,"Siltara Phase-II, Raipur - CECB",18-09-2024 21:00:00,21.371751,81.664929,OZONE,3,6,4
India,Delhi,Delhi,"Alipur, Delhi - DPCC",18-09-2024 21:00:00,28.815329,77.153010,NH3,3,5,4
India,Delhi,Delhi,"Alipur, Delhi - DPCC",18-09-2024 21:00:00,28.815329,77.153010,CO,14,40,22
India,Delhi,Delhi,"Anand Vihar, Delhi - DPCC",18-09-2024 21:00:00,28.647622,77.3158090,PM10,NA,NA,NA
India,Delhi,Delhi,"Anand Vihar, Delhi - DPCC",18-09-2024 21:00:00,28.647622,77.3158090,OZONE,30,62,49
India,Delhi,Delhi,"Ashok Vihar, Delhi - DPCC",18-09-2024 21:00:00,28.695381,77.181665,OZONE,14,57,23
India,Delhi,Delhi,"Bawana, Delhi - DPCC",18-09-2024 21:00:00,28.776200,77.051074,NH3,5,7,6
India,Delhi,Delhi,"Bawana, Delhi - DPCC",18-09-2024 21:00:00,28.776200,77.051074,CO,9,73,29
India,Delhi,Delhi,"Burari Crossing, Delhi - IMD",18-09-2024 21:00:00,28.7256504,77.2011573,PM2.5,17,222,75
India,Delhi,Delhi,"Chandni Chowk, Delhi - IITM",18-09-2024 21:00:00,28.656756,77.227234,NH3,7,86,13
India,Delhi,Delhi,"Chandni Chowk, Delhi - IITM",18-09-2024 21:00:00,28.656756,77.227234,SO2,6,65,31
India,Delhi,Delhi,"Chandni Chowk, Delhi - IITM",18-09-2024 21:00:00,28.656756,77.227234,CO,18,143,56
India,Delhi,Delhi,"DTU, Delhi - CPCB",18-09-2024 21:00:00,28.7500499,77.1112615,NO2,38,57,47
India,Delhi,Delhi,"DTU, Delhi - CPCB",18-09-2024 21:00:00,28.7500499,77.1112615,SO2,46,52,49
India,Delhi,Delhi,"DTU, Delhi - CPCB",18-09-2024 21:00:00,28.7500499,77.1112615,CO,15,38,21
India,Delhi,Delhi,"DTU, Delhi - CPCB",18-09-2024 21:00:00,28.7500499,77.1112615,OZONE,18,29,24
India,Delhi,Delhi,"Dr. Karni Singh Shooting Range, Delhi - DPCC",18-09-2024 21:00:00,28.498571,77.264840,PM10,29,127,74
India,Delhi,Delhi,"Dr. Karni Singh Shooting Range, Delhi - DPCC",18-09-2024 21:00:00,28.498571,77.264840,OZONE,3,46,28
India,Delhi,Delhi,"IGI Airport (T3), Delhi - IMD",18-09-2024 21:00:00,28.5627763,77.1180053,PM10,29,241,105
India,Delhi,Delhi,"ITO, Delhi - CPCB",18-09-2024 21:00:00,28.628624,77.241060,PM10,NA,NA,NA
India,Delhi,Delhi,"ITO, Delhi - CPCB",18-09-2024 21:00:00,28.628624,77.241060,NO2,NA,NA,NA
India,Delhi,Delhi,"Jahangirpuri, Delhi - DPCC",18-09-2024 21:00:00,28.732820,77.170633,PM2.5,10,203,75
India,Delhi,Delhi,"Jawaharlal Nehru Stadium, Delhi - DPCC",18-09-2024 21:00:00,28.580280,77.233829,NH3,4,6,5
India,Delhi,Delhi,"Lodhi Road, Delhi - IMD",18-09-2024 21:00:00,28.5918245,77.2273074,PM10,NA,NA,NA
India,Delhi,Delhi,"Lodhi Road, Delhi - IMD",18-09-2024 21:00:00,28.5918245,77.2273074,NO2,NA,NA,NA
India,Delhi,Delhi,"Lodhi Road, Delhi - IMD",18-09-2024 21:00:00,28.5918245,77.2273074,OZONE,12,45,20
India,Delhi,Delhi,"Major Dhyan Chand National Stadium, Delhi - DPCC",18-09-2024 21:00:00,28.611281,77.237738,OZONE,3,62,16
India,Delhi,Delhi,"Mandir Marg, Delhi - DPCC",18-09-2024 21:00:00,28.636429,77.201067,PM10,17,112,60
India,Delhi,Delhi,"Mandir Marg, Delhi - DPCC",18-09-2024 21:00:00,28.636429,77.201067,CO,35,94,41
India,Delhi,Delhi,"Mundka, Delhi - DPCC",18-09-2024 21:00:00,28.684678,77.076574,PM10,33,215,125
India,Delhi,Delhi,"Mundka, Delhi - DPCC",18-09-2024 21:00:00,28.684678,77.076574,CO,25,86,39
India,Delhi,Delhi,"NSIT Dwarka, Delhi - CPCB",18-09-2024 21:00:00,28.60909,77.0325413,PM2.5,29,126,75
India,Delhi,Delhi,"NSIT Dwarka, Delhi - CPCB",18-09-2024 21:00:00,28.60909,77.0325413,PM10,21,132,99
India,Delhi,Delhi,"NSIT Dwarka, Delhi - CPCB",18-09-2024 21:00:00,28.60909,77.0325413,CO,30,104,56
India,Delhi,Delhi,"Narela, Delhi - DPCC",18-09-2024 21:00:00,28.822836,77.101981,PM2.5,31,120,65
India,Delhi,Delhi,"Narela, Delhi - DPCC",18-09-2024 21:00:00,28.822836,77.101981,NO2,12,64,35
India,Delhi,Delhi,"Narela, Delhi - DPCC",18-09-2024 21:00:00,28.822836,77.101981,SO2,3,12,6
India,Delhi,Delhi,"Nehru Nagar, Delhi - DPCC",18-09-2024 21:00:00,28.567890,77.250515,CO,15,52,21
India,Delhi,Delhi,"New Moti Bagh, Delhi - MHUA",18-09-2024 21:00:00,28.57834,77.18400,CO,28,105,43
India,Delhi,Delhi,"Okhla Phase-2, Delhi - DPCC",18-09-2024 21:00:00,28.530785,77.271255,NO2,36,89,60
India,Delhi,Delhi,"Okhla Phase-2, Delhi - DPCC",18-09-2024 21:00:00,28.530785,77.271255,SO2,1,7,2
India,Delhi,Delhi,"Punjabi Bagh, Delhi - DPCC",18-09-2024 21:00:00,28.674045,77.131023,PM2.5,18,311,112
India,Delhi,Delhi,"Punjabi Bagh, Delhi - DPCC",18-09-2024 21:00:00,28.674045,77.131023,NH3,2,6,4
India,Delhi,Delhi,"Pusa, Delhi - DPCC",18-09-2024 21:00:00,28.639652,77.146275,NO2,27,96,54
India,Delhi,Delhi,"Pusa, Delhi - IMD",18-09-2024 21:00:00,28.636110,77.173332,PM10,4,167,64
India,Delhi,Delhi,"R K Puram, Delhi - DPCC",18-09-2024 21:00:00,28.563262,77.186937,CO,36,87,42
India,Delhi,Delhi,"Rohini, Delhi - DPCC",18-09-2024 21:00:00,28.732528,77.119920,NO2,16,74,42
India,Delhi,Delhi,"Shadipur, Delhi - CPCB",18-09-2024 21:00:00,28.6514781,77.1473105,PM10,35,161,114
India,Delhi,Delhi,"Shadipur, Delhi - CPCB",18-09-2024 21:00:00,28.6514781,77.1473105,NO2,38,88,51
India,Delhi,Delhi,"Sirifort, Delhi - CPCB",18-09-2024 21:00:00,28.5504249,77.2159377,PM10,25,127,75
India,Delhi,Delhi,"Sirifort, Delhi - CPCB",18-09-2024 21:00:00,28.5504249,77.2159377,OZONE,15,17,16
India,Delhi,Delhi,"Sonia Vihar, Delhi - DPCC",18-09-2024 21:00:00,28.710508,77.249485,NO2,14,62,30
India,Delhi,Delhi,"Sonia Vihar, Delhi - DPCC",18-09-2024 21:00:00,28.710508,77.249485,CO,14,78,29
India,Delhi,Delhi,"Sri Aurobindo Marg, Delhi - DPCC",18-09-2024 21:00:00,28.531346,77.190156,PM10,22,147,79
India,Delhi,Delhi,"Sri Aurobindo Marg, Delhi - DPCC",18-09-2024 21:00:00,28.531346,77.190156,NO2,13,66,31
India,Delhi,Delhi,"Sri Aurobindo Marg, Delhi - DPCC",18-09-2024 21:00:00,28.531346,77.190156,OZONE,5,19,11
India,Delhi,Delhi,"Vivek Vihar, Delhi - DPCC",18-09-2024 21:00:00,28.672342,77.315260,PM2.5,28,289,82
India,Delhi,Delhi,"Wazirpur, Delhi - DPCC",18-09-2024 21:00:00,28.699793,77.165453,NO2,38,111,68
India,Delhi,Delhi,"Wazirpur, Delhi - DPCC",18-09-2024 21:00:00,28.699793,77.165453,NH3,11,17,15
India,Gujarat,Ahmedabad,"Chandkheda, Ahmedabad - IITM",18-09-2024 21:00:00,23.107969,72.574648,NO2,27,41,35
India,Gujarat,Ahmedabad,"Maninagar, Ahmedabad - GPCB",18-09-2024 21:00:00,23.002657,72.591912,PM10,48,83,65
India,Gujarat,Ahmedabad,"Maninagar, Ahmedabad - GPCB",18-09-2024 21:00:00,23.002657,72.591912,NO2,16,21,18
India,Gujarat,Ahmedabad,"Maninagar, Ahmedabad - GPCB",18-09-2024 21:00:00,23.002657,72.591912,OZONE,38,67,58
India,Gujarat,Ahmedabad,"Raikhad, Ahmedabad - IITM",18-09-2024 21:00:00,23.020509,72.579261,NO2,13,61,29
India,Gujarat,Ahmedabad,"Raikhad, Ahmedabad - IITM",18-09-2024 21:00:00,23.020509,72.579261,NH3,4,6,5
India,Gujarat,Ahmedabad,"Raikhad, Ahmedabad - IITM",18-09-2024 21:00:00,23.020509,72.579261,CO,14,56,32
India,Gujarat,Ahmedabad,"Rakhial, Ahmedabad - IITM",18-09-2024 21:00:00,23.016834,72.625775,PM10,66,123,94
India,Gujarat,Ahmedabad,"SAC ISRO Satellite, Ahmedabad - IITM",18-09-2024 21:00:00,23.023389,72.515201,SO2,2,5,4
India,Gujarat,Ahmedabad,"SVPI Airport Hansol, Ahmedabad - IITM",18-09-2024 21:00:00,23.076793,72.627874,CO,18,30,22
India,Gujarat,Ahmedabad,"Sardar Vallabhbhai Patel Stadium, Ahmedabad - IITM",18-09-2024 21:00:00,23.043070,72.562968,CO,22,29,26
India,Gujarat,Ankleshwar,"GIDC, Ankleshwar - GPCB",18-09-2024 21:00:00,21.613267,73.010555,SO2,NA,NA,NA
India,Gujarat,Gandhinagar,"GIFT City, Gandhinagar - IITM",18-09-2024 21:00:00,23.163798,72.677768,NO2,5,7,6
India,Gujarat,Gandhinagar,"GIFT City, Gandhinagar - IITM",18-09-2024 21:00:00,23.163798,72.677768,NH3,3,3,3
India,Gujarat,Gandhinagar,"Sector-10, Gandhinagar - GPCB",18-09-2024 21:00:00,23.221714,72.654328,PM2.5,30,54,41
India,Gujarat,Gandhinagar,"Sector-10, Gandhinagar - GPCB",18-09-2024 21:00:00,23.221714,72.654328,NO2,16,16,16
India,Gujarat,Nandesari,"GIDC, Nandesari - Nandesari Ind. Association",18-09-2024 21:00:00,22.410802,73.097923,PM10,108,402,214
India,Gujarat,Vapi,"Phase-1 GIDC, Vapi - GPCB",18-09-2024 21:00:00,20.362421,72.918013,PM2.5,12,57,28
India,Gujarat,Vapi,"Phase-1 GIDC, Vapi - GPCB",18-09-2024 21:00:00,20.362421,72.918013,SO2,42,68,54
India,Gujarat,Vapi,"Phase-1 GIDC, Vapi - GPCB",18-09-2024 21:00:00,20.362421,72.918013,OZONE,4,5,4
India,Haryana,Ambala,"Patti Mehar, Ambala - HSPCB",18-09-2024 21:00:00,30.379589,76.778328,NO2,8,20,14
India,Haryana,Ambala,"Patti Mehar, Ambala - HSPCB",18-09-2024 21:00:00,30.379589,76.778328,SO2,5,10,6
India,Haryana,Bahadurgarh,"Arya Nagar, Bahadurgarh - HSPCB",18-09-2024 21:00:00,28.6701,76.9254,NH3,10,16,14
India,Haryana,Ballabgarh,"Nathu Colony, Ballabgarh - HSPCB",18-09-2024 21:00:00,28.3419248,77.319699,NO2,NA,NA,NA
India,Haryana,Faridabad,"Sector 30, Faridabad - HSPCB",18-09-2024 21:00:00,28.4417,77.3217,OZONE,13,17,16
India,Haryana,Fatehabad,"Huda Sector, Fatehabad - HSPCB",18-09-2024 21:00:00,29.503664,75.467934,PM10,NA,NA,NA
India,Haryana,Fatehabad,"Huda Sector, Fatehabad - HSPCB",18-09-2024 21:00:00,29.503664,75.467934,OZONE,28,38,33
India,Haryana,Gurugram,"Sector-51, Gurugram - HSPCB",18-09-2024 21:00:00,28.4227,77.0667,SO2,4,6,5
India,Haryana,Gurugram,"Teri Gram, Gurugram - HSPCB",18-09-2024 21:00:00,28.4275,77.1465,NO2,2,7,5
India,Haryana,Gurugram,"Vikas Sadan, Gurugram - HSPCB",18-09-2024 21:00:00,28.4501238,77.0263051,SO2,3,44,13
India,Haryana,Hisar,"Urban Estate-II, Hisar - HSPCB",18-09-2024 21:00:00,29.140560,75.744941,NO2,6,12,11
India,Haryana,Jind,"Police Lines, Jind - HSPCB",18-09-2024 21:00:00,29.307814,76.337619,NO2,8,16,12
India,Haryana,Jind,"Police Lines, Jind - HSPCB",18-09-2024 21:00:00,29.307814,76.337619,SO2,1,28,6
