country,state,city,station,last_update,latitude,longitude,pollutant_id,pollutant_min,pollutant_max,pollutant_avg
India,Andhra_Pradesh,Rajamahendravaram,"Anand Kala Kshetram, Rajamahendravaram - APPCB",09-04-2024 02:00:00,16.9872867,81.7363176,SO2,8,13,11
India,Andhra_Pradesh,Rajamahendravaram,"Anand Kala Kshetram, Rajamahendravaram - APPCB",09-04-2024 02:00:00,16.9872867,81.7363176,CO,6,70,32
India,Andhra_Pradesh,Tirupati,"Vaikuntapuram, Tirupati - APPCB",09-04-2024 02:00:00,13.615387,79.409230,CO,6,16,13
India,Andhra_Pradesh,Tirupati,"Vaikuntapuram, Tirupati - APPCB",09-04-2024 02:00:00,13.615387,79.409230,OZONE,5,52,15
India,Andhra_Pradesh,Vijayawada,"HB Colony, Vijayawada - APPCB",09-04-2024 02:00:00,16.536107,80.594233,PM10,51,74,62
India,Andhra_Pradesh,Vijayawada,"Kanuru, Vijayawada - APPCB",09-04-2024 02:00:00,16.486692,80.699436,PM10,NA,NA,NA
India,Andhra_Pradesh,Vijayawada,"Kanuru, Vijayawada - APPCB",09-04-2024 02:00:00,16.486692,80.699436,CO,22,48,29
India,Andhra_Pradesh,Vijayawada,"Rajiv Gandhi Park, Vijayawada - APPCB",09-04-2024 02:00:00,16.509717,80.612222,PM10,26,74,50
India,Andhra_Pradesh,Vijayawada,"Rajiv Nagar, Vijayawada - APPCB",09-04-2024 02:00:00,16.554731,80.649110,SO2,5,16,9
India,Andhra_Pradesh,Vijayawada,"Rajiv Nagar, Vijayawada - APPCB",09-04-2024 02:00:00,16.554731,80.649110,OZONE,8,28,16
India,Andhra_Pradesh,Visakhapatnam,"GVM Corporation, Visakhapatnam - APPCB",09-04-2024 02:00:00,17.72,83.3,PM2.5,45,103,75
India,Andhra_Pradesh,Visakhapatnam,"GVM Corporation, Visakhapatnam - APPCB",09-04-2024 02:00:00,17.72,83.3,NH3,2,8,6
India,Andhra_Pradesh,Visakhapatnam,"GVM Corporation, Visakhapatnam - APPCB",09-04-2024 02:00:00,17.72,83.3,SO2,11,18,14
India,Andhra_Pradesh,Visakhapatnam,"GVM Corporation, Visakhapatnam - APPCB",09-04-2024 02:00:00,17.72,83.3,CO,12,50,37
India,Arunachal_Pradesh,Naharlagun,"Naharlagun, Naharlagun - APSPCB",09-04-2024 02:00:00,27.103358,93.679645,PM2.5,58,201,114
India,Assam,Guwahati,"IITG, Guwahati - PCBA",09-04-2024 02:00:00,26.2028636,91.70046436,PM10,104,235,137
India,Assam,Guwahati,"LGBI Airport, Guwahati - PCBA",09-04-2024 02:00:00,26.10887,91.589544,PM2.5,73,207,107
India,Assam,Guwahati,"Pan Bazaar, Guwahati - PCBA",09-04-2024 02:00:00,26.187500,91.744194,NO2,1,12,6
India,Assam,Nagaon,"Christianpatty, Nagaon - PCBA",09-04-2024 02:00:00,26.349082,92.68449,OZONE,27,124,48
India,Assam,Nalbari,"Bata Chowk, Nalbari - PCBA",09-04-2024 02:00:00,26.446912,91.439057,OZONE,46,138,69
India,Assam,Silchar,"Tarapur, Silchar - PCBA",09-04-2024 02:00:00,24.82827,92.79525,PM10,60,92,79
India,Assam,Silchar,"Tarapur, Silchar - PCBA",09-04-2024 02:00:00,24.82827,92.79525,OZONE,2,17,1
India,Bihar,Arrah,"New DM Office, Arrah - BSPCB",09-04-2024 02:00:00,25.5626095,84.663264,NH3,3,6,4
India,Bihar,Arrah,"New DM Office, Arrah - BSPCB",09-04-2024 02:00:00,25.5626095,84.663264,CO,5,22,12
India,Bihar,Aurangabad,"Gurdeo Nagar, Aurangabad - BSPCB",09-04-2024 02:00:00,24.75746,84.366208,PM10,NA,NA,NA
India,Bihar,Aurangabad,"Gurdeo Nagar, Aurangabad - BSPCB",09-04-2024 02:00:00,24.75746,84.366208,NO2,4,6,5
India,Bihar,Aurangabad,"Gurdeo Nagar, Aurangabad - BSPCB",09-04-2024 02:00:00,24.75746,84.366208,NH3,4,6,5
India,Bihar,Bettiah,"Kamalnath Nagar, Bettiah - BSPCB",09-04-2024 02:00:00,26.80365,84.51954,NH3,3,10,4
India,Bihar,Bettiah,"Kamalnath Nagar, Bettiah - BSPCB",09-04-2024 02:00:00,26.80365,84.51954,OZONE,2,13,4
India,Bihar,Bhagalpur,"Mayaganj, Bhagalpur - BSPCB",09-04-2024 02:00:00,25.265194,87.012947,NH3,6,9,7
India,Bihar,Bhagalpur,"Mayaganj, Bhagalpur - BSPCB",09-04-2024 02:00:00,25.265194,87.012947,SO2,11,12,12
India,Bihar,Bhagalpur,"Mayaganj, Bhagalpur - BSPCB",09-04-2024 02:00:00,25.265194,87.012947,CO,8,10,9
India,Bihar,Buxar,"Charitra Van, Buxar - BSPCB (Formerly known as Central Jail)",09-04-2024 02:00:00,25.567520,83.966379,PM2.5,NA,NA,NA
India,Bihar,Buxar,"Charitra Van, Buxar - BSPCB (Formerly known as Central Jail)",09-04-2024 02:00:00,25.567520,83.966379,NO2,33,200,72
India,Bihar,Buxar,"Charitra Van, Buxar - BSPCB (Formerly known as Central Jail)",09-04-2024 02:00:00,25.567520,83.966379,NH3,1,3,1
India,Bihar,Buxar,"Charitra Van, Buxar - BSPCB (Formerly known as Central Jail)",09-04-2024 02:00:00,25.567520,83.966379,SO2,14,30,21
India,Bihar,Buxar,"Charitra Van, Buxar - BSPCB (Formerly known as Central Jail)",09-04-2024 02:00:00,25.567520,83.966379,OZONE,6,220,67
India,Bihar,Chhapra,"Darshan Nagar, Chhapra - BSPCB",09-04-2024 02:00:00,25.7808257,84.7446768,SO2,1,9,4
India,Bihar,Gaya,"Collectorate, Gaya - BSPCB",09-04-2024 02:00:00,24.7955,84.9994,NO2,1,4,3
India,Bihar,Gaya,"Kareemganj, Gaya - BSPCB",09-04-2024 02:00:00,24.792403,84.992416,CO,6,106,48
India,Bihar,Hajipur,"Industrial Area, Hajipur - BSPCB",09-04-2024 02:00:00,25.697189,85.245900,OZONE,3,79,20
India,Bihar,Katihar,"Mirchaibari, Katihar - BSPCB",09-04-2024 02:00:00,25.560083,87.553265,NO2,31,52,38
India,Bihar,Katihar,"Mirchaibari, Katihar - BSPCB",09-04-2024 02:00:00,25.560083,87.553265,CO,44,69,49
India,Bihar,Katihar,"Mirchaibari, Katihar - BSPCB",09-04-2024 02:00:00,25.560083,87.553265,OZONE,11,16,11
India,Bihar,Kishanganj,"SDM Office_Khagra, Kishanganj - BSPCB",09-04-2024 02:00:00,26.0881305,87.93840336,OZONE,40,48,41
India,Bihar,Manguraha,"Forest Rest House, Manguraha - BSPCB",09-04-2024 02:00:00,27.308328,84.531742,NO2,12,34,18
India,Bihar,Manguraha,"Forest Rest House, Manguraha - BSPCB",09-04-2024 02:00:00,27.308328,84.531742,NH3,2,5,2
India,Bihar,Manguraha,"Forest Rest House, Manguraha - BSPCB",09-04-2024 02:00:00,27.308328,84.531742,OZONE,18,92,43
India,Bihar,Motihari,"Gandak Colony, Motihari - BSPCB",09-04-2024 02:00:00,26.63086,84.90051,NO2,NA,NA,NA
India,Bihar,Munger,"Town Hall, Munger - BSPCB",09-04-2024 02:00:00,25.376776,86.471523,PM2.5,NA,NA,NA
India,Bihar,Munger,"Town Hall, Munger - BSPCB",09-04-2024 02:00:00,25.376776,86.471523,NO2,8,10,9
India,Bihar,Munger,"Town Hall, Munger - BSPCB",09-04-2024 02:00:00,25.376776,86.471523,NH3,1,2,2
India,Bihar,Muzaffarpur,"Buddha Colony, Muzaffarpur - BSPCB",09-04-2024 02:00:00,26.11442,85.39813,PM10,111,215,148
India,Bihar,Muzaffarpur,"MIT-Daudpur Kothi, Muzaffarpur - BSPCB",09-04-2024 02:00:00,26.1403345,85.3650192,NO2,6,9,7
India,Bihar,Patna,"DRM Office Danapur, Patna - BSPCB",09-04-2024 02:00:00,25.586562,85.043586,SO2,11,16,13
India,Bihar,Patna,"Govt. High School Shikarpur, Patna - BSPCB",09-04-2024 02:00:00,25.592539,85.227158,SO2,8,12,10
India,Bihar,Patna,"IGSC Planetarium Complex, Patna - BSPCB",09-04-2024 02:00:00,25.610369,85.132568,NO2,11,12,11
India,Bihar,Patna,"Muradpur, Patna - BSPCB",09-04-2024 02:00:00,25.619651,85.147382,PM2.5,86,334,212
India,Bihar,Patna,"Muradpur, Patna - BSPCB",09-04-2024 02:00:00,25.619651,85.147382,PM10,119,439,242
India,Bihar,Patna,"Rajbansi Nagar, Patna - BSPCB",09-04-2024 02:00:00,25.599486,85.113666,PM10,66,197,126
India,Bihar,Purnia,"Mariam Nagar, Purnia - BSPCB",09-04-2024 02:00:00,25.366336,87.117468,NH3,2,2,2
India,Bihar,Saharsa,"Police Line, Saharsa - BSPCB",09-04-2024 02:00:00,25.892357,86.590325,PM2.5,17,355,74
India,Bihar,Samastipur,"DM Office_Kasipur, Samastipur - BSPCB",09-04-2024 02:00:00,25.859655,85.77944,PM2.5,28,315,108
India,Bihar,Samastipur,"DM Office_Kasipur, Samastipur - BSPCB",09-04-2024 02:00:00,25.859655,85.77944,NH3,2,5,4
India,Bihar,Samastipur,"DM Office_Kasipur, Samastipur - BSPCB",09-04-2024 02:00:00,25.859655,85.77944,SO2,8,15,11
India,Bihar,Sasaram,"Dada Peer, Sasaram - BSPCB",09-04-2024 02:00:00,24.952822,84.002396,NH3,8,12,9
India,Bihar,Sasaram,"Dada Peer, Sasaram - BSPCB",09-04-2024 02:00:00,24.952822,84.002396,SO2,20,23,23
India,Bihar,Siwan,"Chitragupta Nagar, Siwan - BSPCB",09-04-2024 02:00:00,26.2271665,84.3570427,OZONE,29,164,59
India,Chandigarh,Chandigarh,"Sector 22, Chandigarh - CPCC",09-04-2024 02:00:00,30.735567,76.775714,NH3,5,9,7
India,Chandigarh,Chandigarh,"Sector-25, Chandigarh - CPCC",09-04-2024 02:00:00,30.751462,76.762879,PM2.5,NA,NA,NA
India,Chandigarh,Chandigarh,"Sector-25, Chandigarh - CPCC",09-04-2024 02:00:00,30.751462,76.762879,NO2,NA,NA,NA
India,Chandigarh,Chandigarh,"Sector-53, Chandigarh - CPCC",09-04-2024 02:00:00,30.719859,76.738637,NO2,NA,NA,NA
India,Chhattisgarh,Bhilai,"32Bungalows, Bhilai - CECB",09-04-2024 02:00:00,21.194815,81.314770,NO2,24,36,31
India,Chhattisgarh,Bhilai,"32Bungalows, Bhilai - CECB",09-04-2024 02:00:00,21.194815,81.314770,OZONE,4,15,5
India,Chhattisgarh,Bhilai,"Civic Center, Bhilai - Bhilai Steel Plant",09-04-2024 02:00:00,21.185571,81.343175,PM10,18,75,37
India,Chhattisgarh,Chhal,"Nawapara SECL Colony, Chhal - CECB",09-04-2024 02:00:00,22.118125,83.140608,PM2.5,20,52,33
India,Chhattisgarh,Chhal,"Nawapara SECL Colony, Chhal - CECB",09-04-2024 02:00:00,22.118125,83.140608,NO2,14,59,24
India,Chhattisgarh,Korba,"Rampur, Korba - CECB",09-04-2024 02:00:00,22.368195,82.746431,PM2.5,8,29,18
India,Chhattisgarh,Korba,"Rampur, Korba - CECB",09-04-2024 02:00:00,22.368195,82.746431,PM10,18,44,28
India,Chhattisgarh,Korba,"Rampur, Korba - CECB",09-04-2024 02:00:00,22.368195,82.746431,SO2,10,16,12
India,Chhattisgarh,Kunjemura,"OP Jindal School, Kunjemura - CECB",09-04-2024 02:00:00,22.126650,83.483212,NO2,23,117,56
India,Chhattisgarh,Kunjemura,"OP Jindal School, Kunjemura - CECB",09-04-2024 02:00:00,22.126650,83.483212,OZONE,13,47,22
India,Chhattisgarh,Milupara,"Govt. Higher Secondary School, Milupara - CECB",09-04-2024 02:00:00,22.1910172,83.5197009,NH3,NA,NA,NA
India,Chhattisgarh,Milupara,"Govt. Higher Secondary School, Milupara - CECB",09-04-2024 02:00:00,22.1910172,83.5197009,CO,8,34,24
India,Chhattisgarh,Milupara,"Govt. Higher Secondary School, Milupara - CECB",09-04-2024 02:00:00,22.1910172,83.5197009,OZONE,3,22,14
India,Chhattisgarh,Raipur,"AIIMS, Raipur - CECB",09-04-2024 02:00:00,21.258815,81.578979,PM10,18,102,43
India,Chhattisgarh,Raipur,"AIIMS, Raipur - CECB",09-04-2024 02:00:00,21.258815,81.578979,NO2,31,43,36
India,Chhattisgarh,Raipur,"AIIMS, Raipur - CECB",09-04-2024 02:00:00,21.258815,81.578979,CO,24,43,37
India,Chhattisgarh,Raipur,"Krishak Nagar, Raipur - CECB",09-04-2024 02:00:00,21.237755,81.705301,PM2.5,12,23,17
India,Chhattisgarh,Raipur,"Krishak Nagar, Raipur - CECB",09-04-2024 02:00:00,21.237755,81.705301,OZONE,3,5,4
India,Chhattisgarh,Raipur,"Siltara Phase-II, Raipur - CECB",09-04-2024 02:00:00,21.371751,81.664929,NH3,NA,NA,NA
India,Chhattisgarh,Tumidih,"OP Jindal Industrial Park, Tumidih - CECB",09-04-2024 02:00:00,22.06631475,83.33820077,PM10,29,80,53
India,Chhattisgarh,Tumidih,"OP Jindal Industrial Park, Tumidih - CECB",09-04-2024 02:00:00,22.06631475,83.33820077,NH3,2,3,3
India,Delhi,Delhi,"Ashok Vihar, Delhi - DPCC",09-04-2024 02:00:00,28.695381,77.181665,PM2.5,25,360,156
India,Delhi,Delhi,"Ashok Vihar, Delhi - DPCC",09-04-2024 02:00:00,28.695381,77.181665,OZONE,2,26,7
India,Delhi,Delhi,"Aya Nagar, Delhi - IMD",09-04-2024 02:00:00,28.4706914,77.1099364,NO2,12,21,16
India,Delhi,Delhi,"Bawana, Delhi - DPCC",09-04-2024 02:00:00,28.776200,77.051074,NO2,14,80,47
India,Delhi,Delhi,"Burari Crossing, Delhi - IMD",09-04-2024 02:00:00,28.7256504,77.2011573,PM2.5,69,350,164
India,Delhi,Delhi,"Dr. Karni Singh Shooting Range, Delhi - DPCC",09-04-2024 02:00:00,28.498571,77.264840,NO2,26,158,92
India,Delhi,Delhi,"Dr. Karni Singh Shooting Range, Delhi - DPCC",09-04-2024 02:00:00,28.498571,77.264840,NH3,5,6,5
India,Delhi,Delhi,"Dr. Karni Singh Shooting Range, Delhi - DPCC",09-04-2024 02:00:00,28.498571,77.264840,CO,19,104,83
India,Delhi,Delhi,"IHBAS, Dilshad Garden, Delhi - CPCB",09-04-2024 02:00:00,28.6811736,77.3025234,CO,1,82,49
India,Delhi,Delhi,"ITO, Delhi - CPCB",09-04-2024 02:00:00,28.628624,77.241060,PM2.5,20,318,142
India,Delhi,Delhi,"ITO, Delhi - CPCB",09-04-2024 02:00:00,28.628624,77.241060,CO,28,103,79
India,Delhi,Delhi,"ITO, Delhi - CPCB",09-04-2024 02:00:00,28.628624,77.241060,OZONE,13,70,21
India,Delhi,Delhi,"Jahangirpuri, Delhi - DPCC",09-04-2024 02:00:00,28.732820,77.170633,OZONE,4,67,15
India,Delhi,Delhi,"Jawaharlal Nehru Stadium, Delhi - DPCC",09-04-2024 02:00:00,28.580280,77.233829,PM10,99,253,143
India,Delhi,Delhi,"Jawaharlal Nehru Stadium, Delhi - DPCC",09-04-2024 02:00:00,28.580280,77.233829,NO2,22,160,89
India,Delhi,Delhi,"Lodhi Road, Delhi - IITM",09-04-2024 02:00:00,28.588333,77.221667,PM10,103,449,205
India,Delhi,Delhi,"Lodhi Road, Delhi - IITM",09-04-2024 02:00:00,28.588333,77.221667,NO2,82,131,100
India,Delhi,Delhi,"Lodhi Road, Delhi - IMD",09-04-2024 02:00:00,28.5918245,77.2273074,CO,12,34,16
India,Delhi,Delhi,"Major Dhyan Chand National Stadium, Delhi - DPCC",09-04-2024 02:00:00,28.611281,77.237738,NO2,25,151,88
India,Delhi,Delhi,"Major Dhyan Chand National Stadium, Delhi - DPCC",09-04-2024 02:00:00,28.611281,77.237738,NH3,4,9,6
India,Delhi,Delhi,"Mandir Marg, Delhi - DPCC",09-04-2024 02:00:00,28.636429,77.201067,PM10,52,220,109
India,Delhi,Delhi,"Mundka, Delhi - DPCC",09-04-2024 02:00:00,28.684678,77.076574,NO2,15,101,57
India,Delhi,Delhi,"Mundka, Delhi - DPCC",09-04-2024 02:00:00,28.684678,77.076574,OZONE,7,136,53
India,Delhi,Delhi,"NSIT Dwarka, Delhi - CPCB",09-04-2024 02:00:00,28.60909,77.0325413,PM10,120,430,216
India,Delhi,Delhi,"NSIT Dwarka, Delhi - CPCB",09-04-2024 02:00:00,28.60909,77.0325413,NO2,50,73,60
India,Delhi,Delhi,"Najafgarh, Delhi - DPCC",09-04-2024 02:00:00,28.570173,76.933762,OZONE,9,164,62
India,Delhi,Delhi,"Narela, Delhi - DPCC",09-04-2024 02:00:00,28.822836,77.101981,NO2,10,133,58
India,Delhi,Delhi,"Nehru Nagar, Delhi - DPCC",09-04-2024 02:00:00,28.567890,77.250515,NH3,3,4,3
India,Delhi,Delhi,"North Campus, DU, Delhi - IMD",09-04-2024 02:00:00,28.6573814,77.1585447,CO,55,117,102
India,Delhi,Delhi,"Okhla Phase-2, Delhi - DPCC",09-04-2024 02:00:00,28.530785,77.271255,PM2.5,20,300,121
India,Delhi,Delhi,"Okhla Phase-2, Delhi - DPCC",09-04-2024 02:00:00,28.530785,77.271255,NO2,44,159,104
India,Delhi,Delhi,"Okhla Phase-2, Delhi - DPCC",09-04-2024 02:00:00,28.530785,77.271255,OZONE,8,110,26
India,Delhi,Delhi,"Patparganj, Delhi - DPCC",09-04-2024 02:00:00,28.623763,77.287209,PM2.5,23,358,132
India,Delhi,Delhi,"Punjabi Bagh, Delhi - DPCC",09-04-2024 02:00:00,28.674045,77.131023,NH3,4,5,4
India,Delhi,Delhi,"Pusa, Delhi - DPCC",09-04-2024 02:00:00,28.639652,77.146275,NH3,5,9,7
India,Delhi,Delhi,"Pusa, Delhi - IMD",09-04-2024 02:00:00,28.636110,77.173332,PM2.5,66,365,208
India,Delhi,Delhi,"R K Puram, Delhi - DPCC",09-04-2024 02:00:00,28.563262,77.186937,PM10,109,273,171
India,Delhi,Delhi,"R K Puram, Delhi - DPCC",09-04-2024 02:00:00,28.563262,77.186937,OZONE,3,9,6
India,Delhi,Delhi,"Rohini, Delhi - DPCC",09-04-2024 02:00:00,28.732528,77.119920,PM10,73,457,231
India,Delhi,Delhi,"Sonia Vihar, Delhi - DPCC",09-04-2024 02:00:00,28.710508,77.249485,SO2,NA,NA,NA
India,Delhi,Delhi,"Sri Aurobindo Marg, Delhi - DPCC",09-04-2024 02:00:00,28.531346,77.190156,PM10,93,213,131
India,Delhi,Delhi,"Sri Aurobindo Marg, Delhi - DPCC",09-04-2024 02:00:00,28.531346,77.190156,CO,4,72,49
India,Delhi,Delhi,"Vivek Vihar, Delhi - DPCC",09-04-2024 02:00:00,28.672342,77.315260,PM2.5,37,500,195
India,Delhi,Delhi,"Wazirpur, Delhi - DPCC",09-04-2024 02:00:00,28.699793,77.165453,PM2.5,33,414,185
India,Gujarat,Ahmedabad,"Chandkheda, Ahmedabad - IITM",09-04-2024 02:00:00,23.107969,72.574648,PM10,74,259,117
India,Gujarat,Ahmedabad,"Gyaspur, Ahmedabad - IITM",09-04-2024 02:00:00,22.977134,72.553024,PM2.5,77,328,161
India,Gujarat,Ahmedabad,"Gyaspur, Ahmedabad - IITM",09-04-2024 02:00:00,22.977134,72.553024,CO,4,41,28
India,Gujarat,Ahmedabad,"Gyaspur, Ahmedabad - IITM",09-04-2024 02:00:00,22.977134,72.553024,OZONE,3,50,10
India,Gujarat,Ahmedabad,"SAC ISRO Satellite, Ahmedabad - IITM",09-04-2024 02:00:00,23.023389,72.515201,NH3,3,3,3
India,Gujarat,Ahmedabad,"SVPI Airport Hansol, Ahmedabad - IITM",09-04-2024 02:00:00,23.076793,72.627874,PM2.5,71,304,123
India,Gujarat,Ahmedabad,"SVPI Airport Hansol, Ahmedabad - IITM",09-04-2024 02:00:00,23.076793,72.627874,OZONE,7,47,16
India,Gujarat,Ahmedabad,"Sardar Vallabhbhai Patel Stadium, Ahmedabad - IITM",09-04-2024 02:00:00,23.043070,72.562968,NO2,33,41,40
India,Gujarat,Ahmedabad,"Sardar Vallabhbhai Patel Stadium, Ahmedabad - IITM",09-04-2024 02:00:00,23.043070,72.562968,CO,24,94,68
India,Gujarat,Gandhinagar,"Sector-10, Gandhinagar - GPCB",09-04-2024 02:00:00,23.221714,72.654328,PM2.5,31,88,58
India,Gujarat,Gandhinagar,"Sector-10, Gandhinagar - GPCB",09-04-2024 02:00:00,23.221714,72.654328,CO,16,101,65
India,Gujarat,Vapi,"Phase-1 GIDC, Vapi - GPCB",09-04-2024 02:00:00,20.362421,72.918013,PM10,50,102,67
India,Gujarat,Vapi,"Phase-1 GIDC, Vapi - GPCB",09-04-2024 02:00:00,20.362421,72.918013,NH3,2,2,2
India,Gujarat,Vatva,"Phase-4 GIDC, Vatva - GPCB",09-04-2024 02:00:00,22.969611,72.643500,PM2.5,38,135,75
India,Gujarat,Vatva,"Phase-4 GIDC, Vatva - GPCB",09-04-2024 02:00:00,22.969611,72.643500,SO2,4,63,24
India,Haryana,Ambala,"Patti Mehar, Ambala - HSPCB",09-04-2024 02:00:00,30.379589,76.778328,PM10,29,183,64
India,Haryana,Ambala,"Patti Mehar, Ambala - HSPCB",09-04-2024 02:00:00,30.379589,76.778328,NH3,5,12,8
India,Haryana,Ambala,"Patti Mehar, Ambala - HSPCB",09-04-2024 02:00:00,30.379589,76.778328,OZONE,31,54,46
India,Haryana,Bahadurgarh,"Arya Nagar, Bahadurgarh - HSPCB",09-04-2024 02:00:00,28.6701,76.9254,PM10,84,252,148
India,Haryana,Bahadurgarh,"Arya Nagar, Bahadurgarh - HSPCB",09-04-2024 02:00:00,28.6701,76.9254,NH3,10,12,11
India,Haryana,Bahadurgarh,"Arya Nagar, Bahadurgarh - HSPCB",09-04-2024 02:00:00,28.6701,76.9254,OZONE,41,51,45
India,Haryana,Ballabgarh,"Nathu Colony, Ballabgarh - HSPCB",09-04-2024 02:00:00,28.3419248,77.319699,SO2,6,69,28
India,Haryana,Bhiwani,"H.B. Colony, Bhiwani - HSPCB",09-04-2024 02:00:00,28.806223,76.141105,NH3,6,6,6
India,Haryana,Bhiwani,"H.B. Colony, Bhiwani - HSPCB",09-04-2024 02:00:00,28.806223,76.141105,OZONE,9,30,13
India,Haryana,Charkhi Dadri,"Mini Secretariat, Charkhi Dadri - HSPCB",09-04-2024 02:00:00,28.593883,76.270653,OZONE,14,17,15
India,Haryana,Dharuhera,"Municipal Corporation Office, Dharuhera -  HSPCB",09-04-2024 02:00:00,28.206800,76.799700,PM2.5,1,303,144
India,Haryana,Dharuhera,"Municipal Corporation Office, Dharuhera -  HSPCB",09-04-2024 02:00:00,28.206800,76.799700,NO2,45,115,69
India,Haryana,Faridabad,"New Industrial Town, Faridabad - HSPCB",09-04-2024 02:00:00,28.39072,77.30059,NO2,4,18,13
India,Haryana,Faridabad,"New Industrial Town, Faridabad - HSPCB",09-04-2024 02:00:00,28.39072,77.30059,SO2,6,10,8
India,Haryana,Faridabad,"Sector 11, Faridabad - HSPCB",09-04-2024 02:00:00,28.376058,77.315741,PM10,125,498,255
India,Haryana,Faridabad,"Sector 11, Faridabad - HSPCB",09-04-2024 02:00:00,28.376058,77.315741,CO,15,76,57
India,Haryana,Faridabad,"Sector 11, Faridabad - HSPCB",09-04-2024 02:00:00,28.376058,77.315741,OZONE,3,19,7
India,Haryana,Faridabad,"Sector 30, Faridabad - HSPCB",09-04-2024 02:00:00,28.4417,77.3217,CO,57,64,61
India,Haryana,Faridabad,"Sector 30, Faridabad - HSPCB",09-04-2024 02:00:00,28.4417,77.3217,OZONE,10,10,10
India,Haryana,Faridabad,"Sector- 16A, Faridabad - HSPCB",09-04-2024 02:00:00,28.4088421,77.3099081,NO2,6,59,39
India,Haryana,Faridabad,"Sector- 16A, Faridabad - HSPCB",09-04-2024 02:00:00,28.4088421,77.3099081,CO,15,114,80
India,Haryana,Fatehabad,"Huda Sector, Fatehabad - HSPCB",09-04-2024 02:00:00,29.503664,75.467934,PM10,53,139,82
India,Haryana,Gurugram,"Sector-51, Gurugram - HSPCB",09-04-2024 02:00:00,28.4227,77.0667,OZONE,27,67,51
India,Haryana,Gurugram,"Teri Gram, Gurugram - HSPCB",09-04-2024 02:00:00,28.4275,77.1465,NO2,28,59,43
India,Haryana,Gurugram,"Teri Gram, Gurugram - HSPCB",09-04-2024 02:00:00,28.4275,77.1465,CO,12,40,23
India,Haryana,Gurugram,"Vikas Sadan, Gurugram - HSPCB",09-04-2024 02:00:00,28.4501238,77.0263051,PM2.5,79,300,212
India,Haryana,Hisar,"Urban Estate-II, Hisar - HSPCB",09-04-2024 02:00:00,29.140560,75.744941,PM10,86,147,106
India,Haryana,Hisar,"Urban Estate-II, Hisar - HSPCB",09-04-2024 02:00:00,29.140560,75.744941,NH3,7,11,10
India,Haryana,Jind,"Police Lines, Jind - HSPCB",09-04-2024 02:00:00,29.307814,76.337619,CO,1,102,42
India,Haryana,Kaithal,"Rishi Nagar, Kaithal - HSPCB",09-04-2024 02:00:00,29.8006,76.4155,NO2,24,26,25
India,Haryana,Kaithal,"Rishi Nagar, Kaithal - HSPCB",09-04-2024 02:00:00,29.8006,76.4155,CO,15,52,27
India,Haryana,Karnal,"Sector-12, Karnal - HSPCB",09-04-2024 02:00:00,29.695300,77.002700,CO,22,51,34
India,Haryana,Kurukshetra,"Sector-7, Kurukshetra - HSPCB",09-04-2024 02:00:00,29.966942,76.875879,NO2,9,11,10
India,Haryana,Kurukshetra,"Sector-7, Kurukshetra - HSPCB",09-04-2024 02:00:00,29.966942,76.875879,SO2,2,136,26
India,Haryana,Mandikhera,"General Hospital, Mandikhera - HSPCB",09-04-2024 02:00:00,27.9002,76.9938,PM2.5,17,68,37
India,Haryana,Manesar,"Sector-2 IMT, Manesar - HSPCB",09-04-2024 02:00:00,28.360699,76.936090,NH3,2,5,4
India,Haryana,Narnaul,"Shastri Nagar, Narnaul - HSPCB",09-04-2024 02:00:00,28.060249,76.113115,NO2,12,75,35
India,Haryana,Narnaul,"Shastri Nagar, Narnaul - HSPCB",09-04-2024 02:00:00,28.060249,76.113115,CO,12,52,20
India,Haryana,Palwal,"Shyam Nagar, Palwal - HSPCB",09-04-2024 02:00:00,28.1485564,77.3320667,PM10,68,162,104
India,Haryana,Panipat,"Sector-18, Panipat - HSPCB",09-04-2024 02:00:00,29.497973,76.993331,NH3,2,3,3
India,Haryana,Rohtak,"MD University, Rohtak - HSPCB",09-04-2024 02:00:00,28.52123,76.37138,CO,6,114,76
India,Haryana,Sirsa,"F-Block, Sirsa - HSPCB",09-04-2024 02:00:00,29.536400,75.015800,PM10,49,121,75
India,Haryana,Sirsa,"F-Block, Sirsa - HSPCB",09-04-2024 02:00:00,29.536400,75.015800,NH3,12,13,13
India,Haryana,Sirsa,"F-Block, Sirsa - HSPCB",09-04-2024 02:00:00,29.536400,75.015800,SO2,66,88,82
India,Haryana,Sirsa,"F-Block, Sirsa - HSPCB",09-04-2024 02:00:00,29.536400,75.015800,CO,25,50,36
India,Haryana,Sonipat,"Murthal, Sonipat - HSPCB",09-04-2024 02:00:00,29.027200,77.062100,SO2,13,29,20
India,Haryana,Yamuna Nagar,"Gobind Pura, Yamuna Nagar - HSPCB",09-04-2024 02:00:00,30.1480566,77.2893471,PM10,51,140,92
India,Haryana,Yamuna Nagar,"Gobind Pura, Yamuna Nagar - HSPCB",09-04-2024 02:00:00,30.1480566,77.2893471,SO2,2,101,11
India,Himachal Pradesh,Baddi,"HIMUDA Complex Phase-1, Baddi - HPPCB",09-04-2024 02:00:00,30.943887,76.801991,PM2.5,10,230,36
India,Himachal Pradesh,Baddi,"HIMUDA Complex Phase-1, Baddi - HPPCB",09-04-2024 02:00:00,30.943887,76.801991,SO2,9,108,30
India,Jharkhand,Dhanbad,"Kalakusuma, Dhanbad - DMC",09-04-2024 02:00:00,23.811548,86.481238,OZONE,22,42,30
India,Jharkhand,Pathardih,"Mohalbani Ghat, Pathardih - DMC",09-04-2024 02:00:00,23.669880,86.411725,PM2.5,NA,NA,NA
India,Jharkhand,Pathardih,"Mohalbani Ghat, Pathardih - DMC",09-04-2024 02:00:00,23.669880,86.411725,CO,130,151,139
India,Karnataka,Belgaum,"Ramteerth Nagar, Belgaum - KSPCB",09-04-2024 02:00:00,15.888653,74.541751,PM10,24,54,41
India,Karnataka,Belgaum,"Ramteerth Nagar, Belgaum - KSPCB",09-04-2024 02:00:00,15.888653,74.541751,NO2,26,29,28
India,Karnataka,Belgaum,"Ramteerth Nagar, Belgaum - KSPCB",09-04-2024 02:00:00,15.888653,74.541751,OZONE,19,20,19
India,Karnataka,Bengaluru,"BTM Layout, Bengaluru - CPCB",09-04-2024 02:00:00,12.9135218,77.5950804,PM10,NA,NA,NA
India,Karnataka,Bengaluru,"BTM Layout, Bengaluru - CPCB",09-04-2024 02:00:00,12.9135218,77.5950804,CO,46,47,46
India,Karnataka,Bengaluru,"Bapuji Nagar, Bengaluru - KSPCB",09-04-2024 02:00:00,12.951913,77.539784,PM2.5,63,223,116
India,Karnataka,Bengaluru,"Hebbal, Bengaluru - KSPCB",09-04-2024 02:00:00,13.029152,77.585901,PM2.5,30,95,55
India,Karnataka,Bengaluru,"Hombegowda Nagar, Bengaluru - KSPCB",09-04-2024 02:00:00,12.938539,77.590100,PM2.5,38,75,53
India,Karnataka,Bengaluru,"Hombegowda Nagar, Bengaluru - KSPCB",09-04-2024 02:00:00,12.938539,77.590100,OZONE,4,5,4
India,Karnataka,Bengaluru,"Jigani, Bengaluru - KSPCB",09-04-2024 02:00:00,12.7816279,77.6299145,PM2.5,14,305,66
India,Karnataka,Bengaluru,"Jigani, Bengaluru - KSPCB",09-04-2024 02:00:00,12.7816279,77.6299145,PM10,31,123,73
India,Karnataka,Bengaluru,"Jigani, Bengaluru - KSPCB",09-04-2024 02:00:00,12.7816279,77.6299145,NH3,4,4,4
India,Karnataka,Bengaluru,"Jigani, Bengaluru - KSPCB",09-04-2024 02:00:00,12.7816279,77.6299145,OZONE,9,79,49
India,Karnataka,Bengaluru,"Kasturi Nagar, Bengaluru - KSPCB",09-04-2024 02:00:00,13.003872,77.664217,NO2,16,17,16
India,Karnataka,Bengaluru,"Kasturi Nagar, Bengaluru - KSPCB",09-04-2024 02:00:00,13.003872,77.664217,CO,20,25,23
India,Karnataka,Bengaluru,"Kasturi Nagar, Bengaluru - KSPCB",09-04-2024 02:00:00,13.003872,77.664217,OZONE,16,136,75
India,Karnataka,Bengaluru,"RVCE-Mailasandra, Bengaluru - KSPCB",09-04-2024 02:00:00,12.921418,77.502466,CO,28,50,42
India,Karnataka,Bengaluru,"Sanegurava Halli, Bengaluru - KSPCB",09-04-2024 02:00:00,12.990328,77.5431385,NO2,23,38,27
India,Karnataka,Bengaluru,"Shivapura_Peenya, Bengaluru - KSPCB",09-04-2024 02:00:00,13.0246342,77.5080115,NO2,15,16,15
India,Karnataka,Bengaluru,"Shivapura_Peenya, Bengaluru - KSPCB",09-04-2024 02:00:00,13.0246342,77.5080115,SO2,7,32,16
India,Karnataka,Bengaluru,"Shivapura_Peenya, Bengaluru - KSPCB",09-04-2024 02:00:00,13.0246342,77.5080115,OZONE,53,56,54
India,Karnataka,Bidar,"Naubad, Bidar - KSPCB",09-04-2024 02:00:00,17.930306,77.482194,SO2,14,23,20
India,Karnataka,Chamarajanagar,"Urban, Chamarajanagar - KSPCB",09-04-2024 02:00:00,11.55358,76.55521,NH3,1,2,2
India,Karnataka,Chikkaballapur,"Chikkaballapur Rural, Chikkaballapur - KSPCB",09-04-2024 02:00:00,13.428828,77.731418,SO2,15,27,20
India,Karnataka,Dharwad,"Kalabhavan, Dharwad - KSPCB",09-04-2024 02:00:00,15.459706,75.008381,SO2,3,5,4
India,Karnataka,Hassan,"B.Katihalli, Hassan - KSPCB",09-04-2024 02:00:00,13.008556,76.125258,NO2,NA,NA,NA
India,Karnataka,Hassan,"B.Katihalli, Hassan - KSPCB",09-04-2024 02:00:00,13.008556,76.125258,NH3,NA,NA,NA
India,Karnataka,Haveri,"Ashwini Nagar, Haveri - KSPCB",09-04-2024 02:00:00,14.791800,75.389600,PM10,55,116,79
India,Karnataka,Haveri,"Ashwini Nagar, Haveri - KSPCB",09-04-2024 02:00:00,14.791800,75.389600,NO2,25,39,32
India,Karnataka,Haveri,"Ashwini Nagar, Haveri - KSPCB",09-04-2024 02:00:00,14.791800,75.389600,NH3,3,3,3
India,Karnataka,Hubballi,"Deshpande Nagar, Hubballi - KSPCB",09-04-2024 02:00:00,15.351773,75.140726,CO,1,21,14
India,Karnataka,Kalaburagi,"Lal Bahadur Shastri Nagar, Kalaburagi - KSPCB",09-04-2024 02:00:00,17.321993,76.822628,NO2,11,12,11
India,Karnataka,Kalaburagi,"Mahatma Basaveswar Colony, Kalaburgi - KSPCB",09-04-2024 02:00:00,17.336318,76.847397,NO2,12,18,14
India,Karnataka,Kalaburagi,"Mahatma Basaveswar Colony, Kalaburgi - KSPCB",09-04-2024 02:00:00,17.336318,76.847397,CO,44,58,49
India,Karnataka,Karwar,"KHB Colony, Karwar - KSPCB",09-04-2024 02:00:00,14.816666,74.141003,NH3,2,4,1
India,Karnataka,Karwar,"KHB Colony, Karwar - KSPCB",09-04-2024 02:00:00,14.816666,74.141003,SO2,19,20,19
India,Karnataka,Kolar,"Tamaka Ind. Area, Kolar - KSPCB",09-04-2024 02:00:00,13.1276288,78.1570122,NH3,NA,NA,NA
India,Karnataka,Koppal,"Diwator Nagar, Koppal - KSPCB",09-04-2024 02:00:00,15.347630,76.181767,NO2,34,72,50
India,Karnataka,Madikeri,"Stuart Hill, Madikeri - KSPCB",09-04-2024 02:00:00,12.415911,75.735050,CO,8,84,52
India,Karnataka,Madikeri,"Stuart Hill, Madikeri - KSPCB",09-04-2024 02:00:00,12.415911,75.735050,OZONE,16,45,21
India,Karnataka,Raichur,"Haji Colony, Raichur - KSPCB",09-04-2024 02:00:00,16.208139,77.348417,OZONE,NA,NA,NA
India,Karnataka,Ramanagara,"Vijay Nagar, Ramanagara - KSPCB",09-04-2024 02:00:00,12.733409,77.298051,PM2.5,32,68,47
India,Karnataka,Shivamogga,"Vinoba Nagara, Shivamogga - KSPCB",09-04-2024 02:00:00,13.940000,75.555917,PM10,42,78,59
India,Karnataka,Shivamogga,"Vinoba Nagara, Shivamogga - KSPCB",09-04-2024 02:00:00,13.940000,75.555917,NO2,11,15,13
India,Karnataka,Tumakuru,"Thimmalapura, Tumakuru - KSPCB",09-04-2024 02:00:00,13.377516,77.099072,SO2,7,39,12
India,Karnataka,Vijayapura,"Ibrahimpur, Vijayapura - KSPCB",09-04-2024 02:00:00,16.802639,75.722694,PM2.5,26,31,30
India,Karnataka,Vijayapura,"Ibrahimpur, Vijayapura - KSPCB",09-04-2024 02:00:00,16.802639,75.722694,NH3,2,2,2
India,Karnataka,Yadgir,"Collector Office, Yadgir - KSPCB",09-04-2024 02:00:00,16.7602,77.1428,OZONE,NA,NA,NA
India,Kerala,Eloor,"Udyogamandal, Eloor - Kerala PCB",09-04-2024 02:00:00,10.073232,76.302765,NO2,4,5,4
India,Kerala,Eloor,"Udyogamandal, Eloor - Kerala PCB",09-04-2024 02:00:00,10.073232,76.302765,SO2,1,7,2
India,Kerala,Thiruvananthapuram,"Kariavattom, Thiruvananthapuram - Kerala PCB",09-04-2024 02:00:00,8.563700,76.886500,PM10,92,104,99
India,Kerala,Thiruvananthapuram,"Kariavattom, Thiruvananthapuram - Kerala PCB",09-04-2024 02:00:00,8.563700,76.886500,NH3,1,1,1
India,Kerala,Thiruvananthapuram,"Plammoodu, Thiruvananthapuram - Kerala PCB",09-04-2024 02:00:00,8.5149093,76.9435879,PM10,30,59,42
India,Madhya Pradesh,Bhopal,"Paryavaran Parisar, Bhopal - MPPCB",09-04-2024 02:00:00,23.210494,77.425409,NH3,6,10,9
India,Madhya Pradesh,Bhopal,"Paryavaran Parisar, Bhopal - MPPCB",09-04-2024 02:00:00,23.210494,77.425409,OZONE,23,104,42
India,Madhya Pradesh,Bhopal,"T T Nagar, Bhopal - MPPCB",09-04-2024 02:00:00,23.233584,77.400574,NO2,19,37,24
India,Madhya Pradesh,Bhopal,"T T Nagar, Bhopal - MPPCB",09-04-2024 02:00:00,23.233584,77.400574,SO2,12,34,20
India,Madhya Pradesh,Dewas,"Bhopal Chauraha, Dewas - MPPCB",09-04-2024 02:00:00,22.9682591,76.064118,PM2.5,66,390,170
India,Madhya Pradesh,Dewas,"Bhopal Chauraha, Dewas - MPPCB",09-04-2024 02:00:00,22.9682591,76.064118,OZONE,23,87,57
India,Madhya Pradesh,Gwalior,"City Center, Gwalior - MPPCB",09-04-2024 02:00:00,26.203442,78.193251,PM10,29,156,111
India,Madhya Pradesh,Gwalior,"Deen Dayal Nagar, Gwalior - MPPCB",09-04-2024 02:00:00,26.259242,78.216432,SO2,12,18,14
India,Madhya Pradesh,Gwalior,"Maharaj Bada, Gwalior - MPPCB",09-04-2024 02:00:00,26.200388,78.147714,PM10,44,257,128
India,Madhya Pradesh,Gwalior,"Maharaj Bada, Gwalior - MPPCB",09-04-2024 02:00:00,26.200388,78.147714,NH3,3,9,5
India,Madhya Pradesh,Gwalior,"Phool Bagh, Gwalior - Mondelez Ind. Food",09-04-2024 02:00:00,26.210536,78.171,SO2,NA,NA,NA
India,Madhya Pradesh,Indore,"Maguda Nagar, Indore - IMC",09-04-2024 02:00:00,22.7524,75.8872,SO2,29,36,33
India,Madhya Pradesh,Indore,"Regional Park, Indore - IMC",09-04-2024 02:00:00,22.6780,75.8559,PM2.5,35,233,84
India,Madhya Pradesh,Indore,"Regional Park, Indore - IMC",09-04-2024 02:00:00,22.6780,75.8559,CO,26,51,30
India,Madhya Pradesh,Indore,"Regional Park, Indore - IMC",09-04-2024 02:00:00,22.6780,75.8559,OZONE,11,22,13
India,Madhya Pradesh,Indore,"Residency Area, Indore - IMC",09-04-2024 02:00:00,22.7084,75.8815,PM2.5,38,227,81
India,Madhya Pradesh,Jabalpur,"Govindh Bhavan Colony, Jabalpur - JMC",09-04-2024 02:00:00,23.163174,79.973061,NO2,11,23,16
India,Madhya Pradesh,Jabalpur,"Govindh Bhavan Colony, Jabalpur - JMC",09-04-2024 02:00:00,23.163174,79.973061,SO2,12,38,19
India,Madhya Pradesh,Jabalpur,"Marhatal, Jabalpur - MPPCB",09-04-2024 02:00:00,23.168606,79.932247,NH3,2,2,2
India,Madhya Pradesh,Jabalpur,"Suhagi, Jabalpur - JMC",09-04-2024 02:00:00,23.218135,79.957770,NO2,41,45,42
India,Madhya Pradesh,Katni,"Gole Bazar, Katni - MPPCB",09-04-2024 02:00:00,23.50016,80.23284,NH3,2,9,5
India,Madhya Pradesh,Mandideep,"Sector-D Industrial Area, Mandideep - MPPCB",09-04-2024 02:00:00,23.108440,77.511428,PM2.5,76,309,171
India,Madhya Pradesh,Mandideep,"Sector-D Industrial Area, Mandideep - MPPCB",09-04-2024 02:00:00,23.108440,77.511428,NO2,14,91,40
India,Madhya Pradesh,Mandideep,"Sector-D Industrial Area, Mandideep - MPPCB",09-04-2024 02:00:00,23.108440,77.511428,SO2,19,95,45
India,Madhya Pradesh,Mandideep,"Sector-D Industrial Area, Mandideep - MPPCB",09-04-2024 02:00:00,23.108440,77.511428,CO,22,42,30
India,Madhya Pradesh,Ratlam,"Shasthri Nagar, Ratlam - IPCA Lab",09-04-2024 02:00:00,23.331731,75.045981,PM2.5,30,259,115
India,Madhya Pradesh,Ratlam,"Shasthri Nagar, Ratlam - IPCA Lab",09-04-2024 02:00:00,23.331731,75.045981,NO2,24,130,55
India,Madhya Pradesh,Sagar,"Civil Lines, Sagar - MPPCB",09-04-2024 02:00:00,23.838586,78.759431,PM10,47,88,56
India,Madhya Pradesh,Sagar,"Civil Lines, Sagar - MPPCB",09-04-2024 02:00:00,23.838586,78.759431,NO2,9,33,14
India,Madhya Pradesh,Satna,"Bandhavgar Colony, Satna - Birla Cement",09-04-2024 02:00:00,24.58434363,80.8549414,PM10,27,124,57
India,Madhya Pradesh,Satna,"Bandhavgar Colony, Satna - Birla Cement",09-04-2024 02:00:00,24.58434363,80.8549414,CO,24,101,41
India,Madhya Pradesh,Singrauli,"Suryakiran Bhawan NCL, Singrauli - MPPCB",09-04-2024 02:00:00,24.108970,82.645580,NO2,8,68,26
India,Madhya Pradesh,Singrauli,"Suryakiran Bhawan NCL, Singrauli - MPPCB",09-04-2024 02:00:00,24.108970,82.645580,SO2,21,51,34
India,Madhya Pradesh,Ujjain,"Mahakaleshwar Temple, Ujjain - MPPCB",09-04-2024 02:00:00,23.182719 ,75.768218 ,SO2,20,46,29
India,Madhya Pradesh,Ujjain,"Mahakaleshwar Temple, Ujjain - MPPCB",09-04-2024 02:00:00,23.182719 ,75.768218 ,CO,2,124,49
India,Maharashtra,Akola,"Ramdaspeth, Akola - MPCB",09-04-2024 02:00:00,20.719516,77.000253,PM10,48,136,98
India,Maharashtra,Amravati,"Shivneri Colony, Amravati - MPCB",09-04-2024 02:00:00,20.9402359,77.7895248,PM2.5,62,215,112
India,Maharashtra,Amravati,"Shivneri Colony, Amravati - MPCB",09-04-2024 02:00:00,20.9402359,77.7895248,PM10,61,119,94
India,Maharashtra,Amravati,"Shivneri Colony, Amravati - MPCB",09-04-2024 02:00:00,20.9402359,77.7895248,SO2,4,8,6
India,Maharashtra,Amravati,"Shri Shivaji Science College, Amaravati - MPCB",09-04-2024 02:00:00,20.939198,77.765701,SO2,2,25,15
India,Maharashtra,Amravati,"Shri Shivaji Science College, Amaravati - MPCB",09-04-2024 02:00:00,20.939198,77.765701,OZONE,21,87,61
India,Maharashtra,Aurangabad,"MIDC Chilkalthana, Aurangabad - MPCB",09-04-2024 02:00:00,19.875620,75.387310,PM10,78,186,123
India,Maharashtra,Aurangabad,"More Chowk Waluj, Aurangabad - MPCB",09-04-2024 02:00:00,19.8389439,75.244448,OZONE,16,92,28
India,Maharashtra,Aurangabad,"Rachnakar Colony, Aurangabad - MPCB",09-04-2024 02:00:00,19.863756,75.321188,NH3,1,2,1
India,Maharashtra,Aurangabad,"Rachnakar Colony, Aurangabad - MPCB",09-04-2024 02:00:00,19.863756,75.321188,SO2,17,45,32
India,Maharashtra,Aurangabad,"Rachnakar Colony, Aurangabad - MPCB",09-04-2024 02:00:00,19.863756,75.321188,OZONE,23,108,44
India,Maharashtra,Badlapur,"Katrap, Badlapur - MPCB",09-04-2024 02:00:00,19.16485,73.23409,NO2,8,39,22
India,Maharashtra,Badlapur,"Katrap, Badlapur - MPCB",09-04-2024 02:00:00,19.16485,73.23409,NH3,1,4,2
India,Maharashtra,Belapur,"CBD Belapur, Belapur - MPCB",09-04-2024 02:00:00,19.0243902,73.0406721,NO2,11,58,26
India,Maharashtra,Belapur,"CBD Belapur, Belapur - MPCB",09-04-2024 02:00:00,19.0243902,73.0406721,NH3,3,23,9
India,Maharashtra,Belapur,"CBD Belapur, Belapur - MPCB",09-04-2024 02:00:00,19.0243902,73.0406721,SO2,2,9,5
India,Maharashtra,Bhiwandi,"Gokul Nagar, Bhiwandi - MPCB",09-04-2024 02:00:00,19.309073,73.057223,CO,10,105,19
India,Maharashtra,Boisar,"Khaira, Boisar - MPCB",09-04-2024 02:00:00,19.786089,72.757971,PM2.5,21,307,94
India,Maharashtra,Boisar,"Khaira, Boisar - MPCB",09-04-2024 02:00:00,19.786089,72.757971,PM10,54,128,93
India,Maharashtra,Chandrapur,"Chauhan Colony, Chandrapur - MPCB",09-04-2024 02:00:00,19.962900,79.298714,SO2,3,12,6
India,Maharashtra,Chandrapur,"MIDC Khutala, Chandrapur - MPCB",09-04-2024 02:00:00,19.9775302,79.2337086,PM2.5,47,230,110
India,Maharashtra,Chandrapur,"MIDC Khutala, Chandrapur - MPCB",09-04-2024 02:00:00,19.9775302,79.2337086,NO2,9,60,36
India,Maharashtra,Dhule,"Deopur, Dhule - MPCB",09-04-2024 02:00:00,20.918946,74.776388,PM10,86,131,110
India,Maharashtra,Dhule,"Deopur, Dhule - MPCB",09-04-2024 02:00:00,20.918946,74.776388,SO2,20,40,32
India,Maharashtra,Dhule,"Deopur, Dhule - MPCB",09-04-2024 02:00:00,20.918946,74.776388,OZONE,8,97,55
India,Maharashtra,Jalgaon,"Prabhat Colony, Jalgaon - MPCB",09-04-2024 02:00:00,21.001264,75.565602,CO,10,71,39
India,Maharashtra,Jalna,"Old MIDC, Jalna - MPCB",09-04-2024 02:00:00,19.854616,75.905894,SO2,3,9,6
India,Maharashtra,Kalyan,"Khadakpada, Kalyan - MPCB",09-04-2024 02:00:00,19.25292,73.142019,CO,16,24,20
India,Maharashtra,Latur,"Sawe Wadi, Latur - MPCB",09-04-2024 02:00:00,18.39963,76.57452,PM10,63,111,86
India,Maharashtra,Latur,"Sawe Wadi, Latur - MPCB",09-04-2024 02:00:00,18.39963,76.57452,NH3,3,5,4
India,Maharashtra,Mahad,"Kamble Tarf Birwadi, Mahad - MPCB",09-04-2024 02:00:00,18.1023399,73.4783687,PM10,3,174,101
India,Maharashtra,Mahad,"Kamble Tarf Birwadi, Mahad - MPCB",09-04-2024 02:00:00,18.1023399,73.4783687,NO2,21,239,80
India,Maharashtra,Mahad,"Kamble Tarf Birwadi, Mahad - MPCB",09-04-2024 02:00:00,18.1023399,73.4783687,NH3,8,8,8
India,Maharashtra,Mahad,"Kamble Tarf Birwadi, Mahad - MPCB",09-04-2024 02:00:00,18.1023399,73.4783687,SO2,10,110,57
India,Maharashtra,Mahad,"Kamble Tarf Birwadi, Mahad - MPCB",09-04-2024 02:00:00,18.1023399,73.4783687,CO,24,84,46
India,Maharashtra,Malegaon,"Mahesh Nagar, Malegaon - MPCB",09-04-2024 02:00:00,20.555712,74.529236,NH3,1,12,3
India,Maharashtra,Mira-Bhayandar,"Bhayandar West, Mira-Bhayandar - MPCB",09-04-2024 02:00:00,19.296481,72.840923,PM10,62,376,119
India,Maharashtra,Mira-Bhayandar,"Bhayandar West, Mira-Bhayandar - MPCB",09-04-2024 02:00:00,19.296481,72.840923,NH3,3,5,4
India,Maharashtra,Mumbai,"Bandra Kurla Complex, Mumbai - MPCB",09-04-2024 02:00:00,19.065931,72.862131,PM10,94,111,103
India,Maharashtra,Mumbai,"Borivali East, Mumbai - IITM",09-04-2024 02:00:00,19.23241,72.86895,NH3,1,2,1
India,Maharashtra,Mumbai,"Borivali East, Mumbai - IITM",09-04-2024 02:00:00,19.23241,72.86895,OZONE,29,134,62
India,Maharashtra,Mumbai,"Borivali East, Mumbai - MPCB",09-04-2024 02:00:00,19.2243333,72.8658113,PM10,34,107,63
India,Maharashtra,Mumbai,"Borivali East, Mumbai - MPCB",09-04-2024 02:00:00,19.2243333,72.8658113,NH3,1,3,2
India,Maharashtra,Mumbai,"Byculla, Mumbai - BMC",09-04-2024 02:00:00,18.9767,72.8380,NO2,14,23,17
India,Maharashtra,Mumbai,"Byculla, Mumbai - BMC",09-04-2024 02:00:00,18.9767,72.8380,SO2,1,14,7
India,Maharashtra,Mumbai,"Chakala-Andheri East, Mumbai - IITM",09-04-2024 02:00:00,19.11074,72.86084,NH3,11,21,17
India,Maharashtra,Mumbai,"Chakala-Andheri East, Mumbai - IITM",09-04-2024 02:00:00,19.11074,72.86084,CO,2,51,50
India,Maharashtra,Mumbai,"Chembur, Mumbai - MPCB",09-04-2024 02:00:00,19.0364585,72.8954371,PM2.5,41,116,73
India,Maharashtra,Mumbai,"Chembur, Mumbai - MPCB",09-04-2024 02:00:00,19.0364585,72.8954371,PM10,32,103,74
India,Maharashtra,Mumbai,"Chembur, Mumbai - MPCB",09-04-2024 02:00:00,19.0364585,72.8954371,NH3,2,3,3
India,Maharashtra,Mumbai,"Chembur, Mumbai - MPCB",09-04-2024 02:00:00,19.0364585,72.8954371,SO2,1,6,2
India,Maharashtra,Mumbai,"Chembur, Mumbai - MPCB",09-04-2024 02:00:00,19.0364585,72.8954371,CO,11,40,20
India,Maharashtra,Mumbai,"Chhatrapati Shivaji Intl. Airport (T2), Mumbai - MPCB",09-04-2024 02:00:00,19.10078,72.87462,NH3,1,36,7
India,Maharashtra,Mumbai,"Colaba, Mumbai - MPCB",09-04-2024 02:00:00,18.910000,72.820000,PM2.5,33,78,53
India,Maharashtra,Mumbai,"Ghatkopar, Mumbai - BMC",09-04-2024 02:00:00,19.083694,72.920967,PM10,35,78,54
India,Maharashtra,Mumbai,"Ghatkopar, Mumbai - BMC",09-04-2024 02:00:00,19.083694,72.920967,NO2,4,27,17
India,Maharashtra,Mumbai,"Kherwadi_Bandra East, Mumbai - MPCB",09-04-2024 02:00:00,19.0632143,72.8456324,PM2.5,38,68,48
India,Maharashtra,Mumbai,"Kherwadi_Bandra East, Mumbai - MPCB",09-04-2024 02:00:00,19.0632143,72.8456324,PM10,41,128,78
India,Maharashtra,Mumbai,"Kherwadi_Bandra East, Mumbai - MPCB",09-04-2024 02:00:00,19.0632143,72.8456324,CO,10,46,15
India,Maharashtra,Mumbai,"Khindipada-Bhandup West, Mumbai - IITM",09-04-2024 02:00:00,19.1653323,72.922099,SO2,4,13,6
India,Maharashtra,Mumbai,"Khindipada-Bhandup West, Mumbai - IITM",09-04-2024 02:00:00,19.1653323,72.922099,CO,1,39,21
India,Maharashtra,Mumbai,"Kurla, Mumbai - MPCB",09-04-2024 02:00:00,19.0863,72.8888,SO2,32,32,32
India,Maharashtra,Mumbai,"Kurla, Mumbai - MPCB",09-04-2024 02:00:00,19.0863,72.8888,CO,8,20,15
India,Maharashtra,Mumbai,"Mindspace-Malad West, Mumbai - MPCB",09-04-2024 02:00:00,19.1878657,72.8304069,NO2,14,83,34
India,Maharashtra,Mumbai,"Mindspace-Malad West, Mumbai - MPCB",09-04-2024 02:00:00,19.1878657,72.8304069,NH3,8,8,8
India,Maharashtra,Mumbai,"Mulund West, Mumbai - MPCB",09-04-2024 02:00:00,19.1750,72.9419,NO2,21,24,22
India,Maharashtra,Mumbai,"Navy Nagar-Colaba, Mumbai - IITM",09-04-2024 02:00:00,18.897756,72.813320,SO2,1,5,2
India,Maharashtra,Mumbai,"Navy Nagar-Colaba, Mumbai - IITM",09-04-2024 02:00:00,18.897756,72.813320,CO,7,44,16
India,Maharashtra,Mumbai,"Powai, Mumbai - MPCB",09-04-2024 02:00:00,19.137500,72.915056,NH3,NA,NA,NA
India,Maharashtra,Mumbai,"Powai, Mumbai - MPCB",09-04-2024 02:00:00,19.137500,72.915056,SO2,31,42,36
India,Maharashtra,Mumbai,"Sewri, Mumbai - BMC",09-04-2024 02:00:00,19.000084,72.856730,PM10,34,111,69
India,Maharashtra,Mumbai,"Sewri, Mumbai - BMC",09-04-2024 02:00:00,19.000084,72.856730,CO,14,43,29
India,Maharashtra,Mumbai,"Sewri, Mumbai - BMC",09-04-2024 02:00:00,19.000084,72.856730,OZONE,9,96,28
India,Maharashtra,Mumbai,"Sion, Mumbai - MPCB",09-04-2024 02:00:00,19.047000,72.874600,SO2,34,37,35
India,Maharashtra,Mumbai,"Worli, Mumbai - MPCB",09-04-2024 02:00:00,18.9936162,72.8128113,SO2,11,12,11
India,Maharashtra,Mumbai,"Worli, Mumbai - MPCB",09-04-2024 02:00:00,18.9936162,72.8128113,OZONE,6,13,10
India,Maharashtra,Nagpur,"Ambazari, Nagpur - MPCB",09-04-2024 02:00:00,21.121801,79.04952,PM2.5,56,119,89
India,Maharashtra,Nagpur,"Ambazari, Nagpur - MPCB",09-04-2024 02:00:00,21.121801,79.04952,PM10,66,110,88
India,Maharashtra,Nagpur,"Ambazari, Nagpur - MPCB",09-04-2024 02:00:00,21.121801,79.04952,CO,8,54,34
India,Maharashtra,Nagpur,"Ambazari, Nagpur - MPCB",09-04-2024 02:00:00,21.121801,79.04952,OZONE,47,122,74
India,Maharashtra,Nagpur,"Mahal, Nagpur - MPCB",09-04-2024 02:00:00,21.14472,79.107595,PM2.5,64,276,103
India,Maharashtra,Nagpur,"Mahal, Nagpur - MPCB",09-04-2024 02:00:00,21.14472,79.107595,CO,14,113,72
India,Maharashtra,Nagpur,"Opp GPO Civil Lines, Nagpur - MPCB",09-04-2024 02:00:00,21.152875,79.0517531,OZONE,32,91,57
India,Maharashtra,Nanded,"Sneh Nagar, Nanded - MPCB",09-04-2024 02:00:00,19.173852,77.296291,PM2.5,38,239,117
India,Maharashtra,Nanded,"Sneh Nagar, Nanded - MPCB",09-04-2024 02:00:00,19.173852,77.296291,NH3,1,2,1
India,Maharashtra,Nanded,"Sneh Nagar, Nanded - MPCB",09-04-2024 02:00:00,19.173852,77.296291,SO2,3,57,17
India,Maharashtra,Nashik,"Gangapur Road, Nashik - MPCB",09-04-2024 02:00:00,20.0073285,73.7762427,NH3,1,4,2
India,Maharashtra,Nashik,"MIDC Ambad, Nashik - MPCB",09-04-2024 02:00:00,19.950220,73.731480,PM10,11,124,67
India,Maharashtra,Nashik,"MIDC Ambad, Nashik - MPCB",09-04-2024 02:00:00,19.950220,73.731480,NH3,1,3,2
India,Maharashtra,Nashik,"Pandav Nagari, Nashik - MPCB",09-04-2024 02:00:00,19.9591346,73.7788008,PM10,38,92,64
India,Maharashtra,Navi Mumbai,"Kopripada-Vashi, Navi Mumbai - MPCB",09-04-2024 02:00:00,19.090337,73.014232,SO2,NA,NA,NA
India,Maharashtra,Navi Mumbai,"Kopripada-Vashi, Navi Mumbai - MPCB",09-04-2024 02:00:00,19.090337,73.014232,CO,10,54,27
India,Maharashtra,Navi Mumbai,"Mahape, Navi Mumbai - MPCB",09-04-2024 02:00:00,19.1135051,73.008978,NH3,1,3,2
India,Maharashtra,Navi Mumbai,"Nerul, Navi Mumbai - MPCB",09-04-2024 02:00:00,19.008751,73.016620,SO2,17,20,18
India,Maharashtra,Navi Mumbai,"Nerul, Navi Mumbai - MPCB",09-04-2024 02:00:00,19.008751,73.016620,CO,34,44,37
India,Maharashtra,Navi Mumbai,"Sanpada, Navi Mumbai - MPCB",09-04-2024 02:00:00,19.0575752,73.0151367,NH3,2,15,6
India,Maharashtra,Parbhani,"Masoom Colony, Parbhani - MPCB",09-04-2024 02:00:00,19.265594,76.761463,NO2,18,64,32
India,Maharashtra,Parbhani,"Masoom Colony, Parbhani - MPCB",09-04-2024 02:00:00,19.265594,76.761463,SO2,25,83,38
India,Maharashtra,Pimpri-Chinchwad,"Gavalinagar, Pimpri Chinchwad - MPCB",09-04-2024 02:00:00,18.63673,73.82487,PM2.5,48,79,59
India,Maharashtra,Pimpri-Chinchwad,"Park Street Wakad, Pimpri Chinchwad - MPCB",09-04-2024 02:00:00,18.59051,73.77946,SO2,6,29,11
India,Maharashtra,Pimpri-Chinchwad,"Park Street Wakad, Pimpri Chinchwad - MPCB",09-04-2024 02:00:00,18.59051,73.77946,CO,16,57,28
India,Maharashtra,Pimpri-Chinchwad,"Park Street Wakad, Pimpri Chinchwad - MPCB",09-04-2024 02:00:00,18.59051,73.77946,OZONE,2,69,33
India,Maharashtra,Pimpri-Chinchwad,"Thergaon, Pimpri Chinchwad - MPCB",09-04-2024 02:00:00,18.616318,73.765797,PM10,NA,NA,NA
India,Maharashtra,Pune,"Bhosari, Pune - IITM",09-04-2024 02:00:00,18.640051,73.848956,PM2.5,9,52,32
India,Maharashtra,Pune,"Bhosari, Pune - IITM",09-04-2024 02:00:00,18.640051,73.848956,OZONE,8,72,38
India,Maharashtra,Pune,"Katraj Dairy, Pune - MPCB",09-04-2024 02:00:00,18.454450,73.854155,NH3,2,6,4
India,Maharashtra,Pune,"Katraj Dairy, Pune - MPCB",09-04-2024 02:00:00,18.454450,73.854155,OZONE,1,66,10
India,Maharashtra,Pune,"Revenue Colony-Shivajinagar, Pune - IITM",09-04-2024 02:00:00,18.530085,73.849598,PM10,NA,NA,NA
India,Maharashtra,Pune,"Savitribai Phule Pune University, Pune - MPCB",09-04-2024 02:00:00,18.547056,73.826908,PM10,51,90,63
India,Maharashtra,Pune,"Savitribai Phule Pune University, Pune - MPCB",09-04-2024 02:00:00,18.547056,73.826908,SO2,2,10,6
India,Maharashtra,Pune,"Savitribai Phule Pune University, Pune - MPCB",09-04-2024 02:00:00,18.547056,73.826908,OZONE,1,201,56
India,Maharashtra,Pune,"Transport Nagar-Nigdi, Pune - IITM",09-04-2024 02:00:00,18.664282,73.763966,PM10,20,92,48
India,Maharashtra,Pune,"Transport Nagar-Nigdi, Pune - IITM",09-04-2024 02:00:00,18.664282,73.763966,OZONE,14,61,36
India,Maharashtra,Solapur,"Dnyaneshwar Nagar, Solapur - MPCB",09-04-2024 02:00:00,17.6336264,75.9132495,PM2.5,62,121,78
India,Maharashtra,Solapur,"Ratandeep Housing Society, Solapur - MPCB",09-04-2024 02:00:00,17.65439,75.90649,NO2,20,99,48
India,Maharashtra,Thane,"Kasarvadavali, Thane - MPCB",09-04-2024 02:00:00,19.26777,72.97182,PM10,57,112,92
India,Maharashtra,Thane,"Kasarvadavali, Thane - MPCB",09-04-2024 02:00:00,19.26777,72.97182,NO2,29,57,38
India,Maharashtra,Thane,"Kasarvadavali, Thane - MPCB",09-04-2024 02:00:00,19.26777,72.97182,NH3,5,9,7
India,Maharashtra,Thane,"Upvan Fort, Thane - MPCB",09-04-2024 02:00:00,19.222279,72.957979,PM10,NA,NA,NA
India,Maharashtra,Thane,"Upvan Fort, Thane - MPCB",09-04-2024 02:00:00,19.222279,72.957979,NH3,8,12,10
India,Maharashtra,Ulhasnagar,"Sidhi Vinayak Nagar, Ulhasnagar - MPCB",09-04-2024 02:00:00,19.235581,73.159121,OZONE,4,92,36
India,Maharashtra,Virar,"Bolinj, Virar - MPCB",09-04-2024 02:00:00,19.4458210,72.7988231,PM2.5,61,226,97
India,Maharashtra,Virar,"Bolinj, Virar - MPCB",09-04-2024 02:00:00,19.4458210,72.7988231,PM10,79,150,105
India,Manipur,Imphal,"DM College of Science, Imphal - Manipur PCB",09-04-2024 02:00:00,24.8207389,93.9423085,NH3,NA,NA,NA
India,Meghalaya,Shillong,"Lumpyngngad, Shillong - Meghalaya PCB",09-04-2024 02:00:00,25.5586,91.8985,NO2,1,1,1
India,Mizoram,Aizawl,"Sikulpuikawn, Aizawl - Mizoram PCB",09-04-2024 02:00:00,23.7176342,92.7192841,SO2,2,2,2
India,Nagaland,Kohima,"PWD Juction, Kohima - NPCB",09-04-2024 02:00:00,25.6635413,94.0989878,PM2.5,48,128,75
India,Nagaland,Kohima,"PWD Juction, Kohima - NPCB",09-04-2024 02:00:00,25.6635413,94.0989878,PM10,48,107,72
India,Nagaland,Kohima,"PWD Juction, Kohima - NPCB",09-04-2024 02:00:00,25.6635413,94.0989878,NO2,3,4,3
India,Nagaland,Kohima,"PWD Juction, Kohima - NPCB",09-04-2024 02:00:00,25.6635413,94.0989878,OZONE,6,29,9
India,Odisha,Angul,"Hakimapada, Angul - OSPCB",09-04-2024 02:00:00,20.832874,85.104082,NO2,1,5,1
India,Odisha,Angul,"Hakimapada, Angul - OSPCB",09-04-2024 02:00:00,20.832874,85.104082,SO2,10,105,34
India,Odisha,Barbil,"Forest Office, Barbil - OSPCB",09-04-2024 02:00:00,22.1166054,85.3945546,PM2.5,22,78,45
India,Odisha,Baripada,"Meher Colony, Baripada - OSPCB",09-04-2024 02:00:00,21.941841,86.728318,NO2,2,3,2
India,Odisha,Baripada,"Meher Colony, Baripada - OSPCB",09-04-2024 02:00:00,21.941841,86.728318,SO2,3,5,4
India,Odisha,Bhubaneswar,"Lingraj Mandir, Bhubaneswar - OSPCB",09-04-2024 02:00:00,20.240790,85.836784,PM2.5,NA,NA,NA
India,Odisha,Bhubaneswar,"Lingraj Mandir, Bhubaneswar - OSPCB",09-04-2024 02:00:00,20.240790,85.836784,NO2,NA,NA,NA
India,Odisha,Bhubaneswar,"Patia, Bhubaneswar - OSPCB",09-04-2024 02:00:00,20.34652,85.81630,PM2.5,NA,NA,NA
India,Odisha,Bhubaneswar,"Patia, Bhubaneswar - OSPCB",09-04-2024 02:00:00,20.34652,85.81630,OZONE,34,119,54
India,Odisha,Bileipada,"Tata Township, Bileipada - OSPCB",09-04-2024 02:00:00,22.06156703,85.47409613,SO2,NA,NA,NA
India,Odisha,Bileipada,"Tata Township, Bileipada - OSPCB",09-04-2024 02:00:00,22.06156703,85.47409613,CO,15,28,20
India,Odisha,Byasanagar,"Ferro Chrome Colony, Byasanagar - OSPCB",09-04-2024 02:00:00,20.94185,86.11510,PM2.5,20,293,71
India,Odisha,Byasanagar,"Ferro Chrome Colony, Byasanagar - OSPCB",09-04-2024 02:00:00,20.94185,86.11510,OZONE,21,101,49
India,Odisha,Cuttack,"CDA Area, Cuttack - OSPCB",09-04-2024 02:00:00,20.48891     ,85.84768     ,CO,23,52,38
India,Odisha,Nayagarh,"Dabuna, Nayagarh - OSPCB",09-04-2024 02:00:00,21.847279,85.416905,PM10,NA,NA,NA
India,Odisha,Nayagarh,"Dabuna, Nayagarh - OSPCB",09-04-2024 02:00:00,21.847279,85.416905,NO2,NA,NA,NA
India,Odisha,Rairangpur,"Divisional Forest Office, Rairangpur - OSPCB",09-04-2024 02:00:00,22.265816,86.174829,PM2.5,39,70,54
India,Odisha,Rairangpur,"Divisional Forest Office, Rairangpur - OSPCB",09-04-2024 02:00:00,22.265816,86.174829,SO2,3,4,3
India,Odisha,Rourkela,"Fertilizer Township, Rourkela - OSPCB",09-04-2024 02:00:00,22.18972222,84.86277778,PM10,NA,NA,NA
India,Odisha,Rourkela,"Fertilizer Township, Rourkela - OSPCB",09-04-2024 02:00:00,22.18972222,84.86277778,NO2,NA,NA,NA
India,Odisha,Rourkela,"Raghunathpali, Rourkela - OSPCB",09-04-2024 02:00:00,22.220833,84.809444,NO2,26,75,47
India,Odisha,Rourkela,"Sector-2, Rourkela - OSPCB",09-04-2024 02:00:00,22.24500000,84.88111111,NO2,33,34,33
India,Odisha,Rourkela,"Sector-2, Rourkela - OSPCB",09-04-2024 02:00:00,22.24500000,84.88111111,CO,15,48,30
India,Odisha,Suakati,"OMC Colony, Suakati - OSPCB",09-04-2024 02:00:00,21.606865,85.510538,NO2,3,8,7
India,Odisha,Talcher,"Talcher Coalfields,Talcher - OSPCB",09-04-2024 02:00:00,20.9360711,85.1707021,CO,15,123,54
India,Odisha,Tensa,"Barsua Iron Ore Mines, Tensa - OSPCB",09-04-2024 02:00:00,21.869985,85.167016,PM10,34,108,64
India,Odisha,Tensa,"Barsua Iron Ore Mines, Tensa - OSPCB",09-04-2024 02:00:00,21.869985,85.167016,NH3,2,4,3
India,Puducherry,Puducherry,"Jawahar Nagar, Puducherry - PPCC",09-04-2024 02:00:00,11.9309,79.8027,NO2,1,12,4
India,Punjab,Amritsar,"Golden Temple, Amritsar - PPCB",09-04-2024 02:00:00,31.620000,74.876512,SO2,8,39,24
India,Punjab,Jalandhar,"Civil Line, Jalandhar - PPCB",09-04-2024 02:00:00,31.321907,75.578914,PM2.5,41,88,60
India,Punjab,Jalandhar,"Civil Line, Jalandhar - PPCB",09-04-2024 02:00:00,31.321907,75.578914,NO2,31,38,35
India,Punjab,Khanna,"Kalal Majra, Khanna - PPCB",09-04-2024 02:00:00,30.736056 ,76.209694,PM2.5,32,81,52
India,Punjab,Khanna,"Kalal Majra, Khanna - PPCB",09-04-2024 02:00:00,30.736056 ,76.209694,NO2,31,33,32
India,Punjab,Ludhiana,"Punjab Agricultural University, Ludhiana - PPCB",09-04-2024 02:00:00,30.9028,75.8086,PM2.5,32,170,84
India,Punjab,Ludhiana,"Punjab Agricultural University, Ludhiana - PPCB",09-04-2024 02:00:00,30.9028,75.8086,SO2,11,43,19
India,Punjab,Ludhiana,"Punjab Agricultural University, Ludhiana - PPCB",09-04-2024 02:00:00,30.9028,75.8086,CO,14,66,48
India,Punjab,Mandi Gobindgarh,"RIMT University, Mandi Gobindgarh - PPCB",09-04-2024 02:00:00,30.649961,76.331442,PM10,NA,NA,NA
India,Punjab,Patiala,"Model Town, Patiala - PPCB",09-04-2024 02:00:00,30.349388,76.366642,PM2.5,29,71,54
India,Punjab,Patiala,"Model Town, Patiala - PPCB",09-04-2024 02:00:00,30.349388,76.366642,PM10,62,95,76
India,Punjab,Patiala,"Model Town, Patiala - PPCB",09-04-2024 02:00:00,30.349388,76.366642,CO,18,46,35
India,Punjab,Rupnagar,"Ratanpura, Rupnagar - Ambuja Cements",09-04-2024 02:00:00,31.0325454,76.5623046,SO2,2,10,7
India,Punjab,Rupnagar,"Ratanpura, Rupnagar - Ambuja Cements",09-04-2024 02:00:00,31.0325454,76.5623046,CO,22,54,40
India,Rajasthan,Banswara,"Rati Talai, Banswara - RSPCB",09-04-2024 02:00:00,23.555190,74.440010,NO2,4,122,42
India,Rajasthan,Banswara,"Rati Talai, Banswara - RSPCB",09-04-2024 02:00:00,23.555190,74.440010,SO2,27,53,39
India,Rajasthan,Banswara,"Rati Talai, Banswara - RSPCB",09-04-2024 02:00:00,23.555190,74.440010,OZONE,10,163,45
India,Rajasthan,Barmer,"Railway Colony, Barmer - RSPCB",09-04-2024 02:00:00,25.747299,71.393989,NH3,6,29,13
India,Rajasthan,Bhilwara,"Pratap Nagar, Bhilwara - RSPCB",09-04-2024 02:00:00,25.339605,74.618883,SO2,5,26,14
India,Rajasthan,Bhilwara,"Pratap Nagar, Bhilwara - RSPCB",09-04-2024 02:00:00,25.339605,74.618883,CO,18,104,71
India,Rajasthan,Bhiwadi,"RIICO Ind. Area III, Bhiwadi - RSPCB",09-04-2024 02:00:00,28.194909,76.862296,NO2,58,86,68
India,Rajasthan,Bhiwadi,"RIICO Ind. Area III, Bhiwadi - RSPCB",09-04-2024 02:00:00,28.194909,76.862296,NH3,18,27,21
India,Rajasthan,Bhiwadi,"RIICO Ind. Area III, Bhiwadi - RSPCB",09-04-2024 02:00:00,28.194909,76.862296,OZONE,3,55,7
India,Rajasthan,Bikaner,"MM Ground, Bikaner - RSPCB",09-04-2024 02:00:00,28.018792,73.292658,NH3,9,20,12
India,Rajasthan,Bundi,"New Colony, Bundi - RSPCB",09-04-2024 02:00:00,25.435774,75.644272,NO2,7,121,45
India,Rajasthan,Churu,"Subash Chowk, Churu - RSPCB",09-04-2024 02:00:00,28.296139,74.961696,NO2,10,105,34
India,Rajasthan,Churu,"Subash Chowk, Churu - RSPCB",09-04-2024 02:00:00,28.296139,74.961696,NH3,8,12,10
India,Rajasthan,Churu,"Subash Chowk, Churu - RSPCB",09-04-2024 02:00:00,28.296139,74.961696,OZONE,22,171,112
India,Rajasthan,Dausa,"Khatikan Mohalla, Dausa - RSPCB",09-04-2024 02:00:00,26.895552,76.334753,CO,40,139,83
India,Rajasthan,Dholpur,"Raja Ganj, Dholpur - RSPCB",09-04-2024 02:00:00,26.699557,77.898881,NO2,6,97,33
India,Rajasthan,Dungarpur,"Bhoiwada, Dungarpur - RSPCB",09-04-2024 02:00:00,23.837789,73.714926,PM10,39,171,87
India,Rajasthan,Dungarpur,"Bhoiwada, Dungarpur - RSPCB",09-04-2024 02:00:00,23.837789,73.714926,NH3,2,8,4
India,Rajasthan,Dungarpur,"Bhoiwada, Dungarpur - RSPCB",09-04-2024 02:00:00,23.837789,73.714926,CO,9,85,44
India,Rajasthan,Hanumangarh,"Housing Board, Hanumangarh - RSPCB",09-04-2024 02:00:00,29.610750,74.283608,NH3,6,12,9
India,Rajasthan,Jaipur,"Adarsh Nagar, Jaipur - RSPCB",09-04-2024 02:00:00,26.902909,75.836858,OZONE,7,40,20
India,Rajasthan,Jaipur,"Mansarovar Sector-12, Jaipur - RSPCB",09-04-2024 02:00:00,26.843698,75.766894,SO2,2,19,9
India,Rajasthan,Jaipur,"RIICO Sitapura, Jaipur - RSPCB",09-04-2024 02:00:00,26.786682,75.827928,PM2.5,NA,NA,NA
India,Rajasthan,Jaipur,"Sector-2 Murlipura, Jaipur - RSPCB",09-04-2024 02:00:00,26.960669,75.771817,PM2.5,30,78,48
India,Rajasthan,Jaipur,"Sector-2 Murlipura, Jaipur - RSPCB",09-04-2024 02:00:00,26.960669,75.771817,CO,30,102,68
India,Rajasthan,Jaipur,"Shastri Nagar, Jaipur - RSPCB",09-04-2024 02:00:00,26.9502929,75.730943,NO2,4,95,33
India,Rajasthan,Jaipur,"Shastri Nagar, Jaipur - RSPCB",09-04-2024 02:00:00,26.9502929,75.730943,SO2,3,33,19
India,Rajasthan,Jaipur,"Shastri Nagar, Jaipur - RSPCB",09-04-2024 02:00:00,26.9502929,75.730943,OZONE,14,106,42
India,Rajasthan,Jaisalmer,"Sadar Bazar, Jaisalmer - RSPCB",09-04-2024 02:00:00,26.912329,70.909168,NH3,6,18,10
India,Rajasthan,Jaisalmer,"Sadar Bazar, Jaisalmer - RSPCB",09-04-2024 02:00:00,26.912329,70.909168,SO2,3,16,5
India,Rajasthan,Jalore,"Mudtra Sili, Jalore - RSPCB",09-04-2024 02:00:00,25.344694,72.626208,NO2,7,154,41
India,Rajasthan,Jhalawar,"Rajlaxmi Nagar, Jhalawar - RSPCB",09-04-2024 02:00:00,24.588397,76.172782,PM10,59,409,144
India,Rajasthan,Jhalawar,"Rajlaxmi Nagar, Jhalawar - RSPCB",09-04-2024 02:00:00,24.588397,76.172782,OZONE,4,92,33
India,Rajasthan,Jodhpur,"Collectorate, Jodhpur - RSPCB",09-04-2024 02:00:00,26.268249,73.0193853,PM2.5,NA,NA,NA
India,Rajasthan,Jodhpur,"Digari Kalan, Jodhpur - RSPCB",09-04-2024 02:00:00,26.295810,73.082283,PM2.5,11,94,46
India,Rajasthan,Jodhpur,"Jhalamand, Jodhpur - RSPCB",09-04-2024 02:00:00,26.215415,73.070156,OZONE,11,93,28
India,Rajasthan,Jodhpur,"Mandor, Jodhpur - RSPCB",09-04-2024 02:00:00,26.358805,73.047444,NH3,6,14,9
India,Rajasthan,Jodhpur,"Mandor, Jodhpur - RSPCB",09-04-2024 02:00:00,26.358805,73.047444,OZONE,2,119,37
India,Rajasthan,Jodhpur,"Samrat Ashok Udhyan, Jodhpur - RSPCB",09-04-2024 02:00:00,26.253384,72.976571,NO2,5,141,61
India,Rajasthan,Karauli,"Satyawati Vihar, Karauli - RSPCB",09-04-2024 02:00:00,26.506177,77.025989,PM10,32,161,87
India,Rajasthan,Karauli,"Satyawati Vihar, Karauli - RSPCB",09-04-2024 02:00:00,26.506177,77.025989,NH3,4,16,8
India,Rajasthan,Kota,"Shrinath Puram, Kota - RSPCB",09-04-2024 02:00:00,25.14389,75.821256,OZONE,10,81,25
India,Rajasthan,Nagaur,"Karni Colony, Nagaur - RSPCB",09-04-2024 02:00:00,27.213494,73.734444,CO,9,44,29
India,Rajasthan,Pali,"Indira Colony Vistar, Pali - RSPCB",09-04-2024 02:00:00,25.771061, 73.340227,PM10,69,276,132
India,Rajasthan,Pali,"Indira Colony Vistar, Pali - RSPCB",09-04-2024 02:00:00,25.771061, 73.340227,NH3,1,8,3
India,Rajasthan,Pali,"Indira Colony Vistar, Pali - RSPCB",09-04-2024 02:00:00,25.771061, 73.340227,OZONE,9,92,50
India,Rajasthan,Pratapgarh,"Pragati Nagar, Pratapgarh - RSPCB",09-04-2024 02:00:00,24.041198,74.780702,NH3,3,10,6
India,Rajasthan,Pratapgarh,"Pragati Nagar, Pratapgarh - RSPCB",09-04-2024 02:00:00,24.041198,74.780702,CO,13,40,27
India,Rajasthan,Rajsamand,"Dhoinda, Rajsamand - RSPCB",09-04-2024 02:00:00,25.036360,73.883502,SO2,8,8,8
India,Rajasthan,Sawai Madhopur,"Sahu Nagar, Sawai Madhopur - RSPCB",09-04-2024 02:00:00,26.031443,76.359327,SO2,2,11,4
India,Rajasthan,Sawai Madhopur,"Sahu Nagar, Sawai Madhopur - RSPCB",09-04-2024 02:00:00,26.031443,76.359327,CO,8,106,81
India,Rajasthan,Sikar,"Radhakishan Pura, Sikar - RSPCB",09-04-2024 02:00:00,27.608912,75.153302,PM2.5,17,278,72
India,Rajasthan,Sikar,"Radhakishan Pura, Sikar - RSPCB",09-04-2024 02:00:00,27.608912,75.153302,NO2,10,100,32
India,Rajasthan,Sikar,"Radhakishan Pura, Sikar - RSPCB",09-04-2024 02:00:00,27.608912,75.153302,NH3,1,7,4
India,Rajasthan,Sikar,"Radhakishan Pura, Sikar - RSPCB",09-04-2024 02:00:00,27.608912,75.153302,OZONE,6,146,53
India,Rajasthan,Sirohi,"Vedhaynath Colony, Sirohi - RSPCB",09-04-2024 02:00:00,24.885261,72.857549,SO2,3,8,6
India,Rajasthan,Udaipur,"Ashok Nagar, Udaipur - RSPCB",09-04-2024 02:00:00,24.5886166,73.6321397,SO2,8,16,11
India,Rajasthan,Udaipur,"Ashok Nagar, Udaipur - RSPCB",09-04-2024 02:00:00,24.5886166,73.6321397,OZONE,3,72,21
India,Sikkim,Gangtok,"Zero Point GICI, Gangtok - SSPCB",09-04-2024 02:00:00,27.338530,88.614099,NH3,NA,NA,NA
India,TamilNadu,Chengalpattu,"Crescent University, Chengalpattu - TNPCB",09-04-2024 02:00:00,12.8777316,80.0834807,CO,24,26,26
India,TamilNadu,Chennai,"Alandur Bus Depot, Chennai - CPCB",09-04-2024 02:00:00,12.9099161,80.1076538,PM2.5,37,65,45
India,TamilNadu,Chennai,"Alandur Bus Depot, Chennai - CPCB",09-04-2024 02:00:00,12.9099161,80.1076538,CO,58,103,88
India,TamilNadu,Chennai,"Alandur Bus Depot, Chennai - CPCB",09-04-2024 02:00:00,12.9099161,80.1076538,OZONE,2,8,5
India,TamilNadu,Chennai,"Arumbakkam, Chennai - TNPCB",09-04-2024 02:00:00,13.0664,80.2112 ,PM2.5,6,39,16
India,TamilNadu,Chennai,"Manali, Chennai - CPCB",09-04-2024 02:00:00,13.164544,80.26285,PM2.5,17,107,58
India,TamilNadu,Chennai,"Perungudi, Chennai - TNPCB",09-04-2024 02:00:00,12.9533,80.2357,PM2.5,10,37,24
India,TamilNadu,Chennai,"Velachery Res. Area, Chennai - CPCB",09-04-2024 02:00:00,13.0052189,80.2398125,PM2.5,21,44,34
India,TamilNadu,Coimbatore,"PSG College of Arts and Science, Coimbatore - TNPCB",09-04-2024 02:00:00,11.0328,77.0349,PM2.5,33,163,58
India,TamilNadu,Cuddalore,"Kudikadu, Cuddalore - TNPCB",09-04-2024 02:00:00,11.6829898,79.7532099,NH3,4,4,4
India,TamilNadu,Gummidipoondi,"Anthoni Pillai Nagar, Gummidipoondi - TNPCB",09-04-2024 02:00:00,13.4127,80.1081,NO2,10,18,13
India,TamilNadu,Gummidipoondi,"Anthoni Pillai Nagar, Gummidipoondi - TNPCB",09-04-2024 02:00:00,13.4127,80.1081,NH3,1,2,2
India,TamilNadu,Ooty,"Bombay Castel, Ooty - TNPCB",09-04-2024 02:00:00,11.4068288,76.7138973,PM10,NA,NA,NA
India,TamilNadu,Ooty,"Bombay Castel, Ooty - TNPCB",09-04-2024 02:00:00,11.4068288,76.7138973,OZONE,5,5,5
India,TamilNadu,Ramanathapuram,"Chalai Bazaar, Ramanathapuram - TNPCB",09-04-2024 02:00:00,9.36399,78.831977,CO,2,7,4
India,TamilNadu,Salem,"Sona College of Technology, Salem - TNPCB",09-04-2024 02:00:00,11.679111,78.125052,PM2.5,NA,NA,NA
India,TamilNadu,Salem,"Sona College of Technology, Salem - TNPCB",09-04-2024 02:00:00,11.679111,78.125052,PM10,NA,NA,NA
India,TamilNadu,Thoothukudi,"Meelavittan, Thoothukudi - TNPCB",09-04-2024 02:00:00,8.816428 ,78.099039,CO,2,65,16
India,TamilNadu,Tirupur,"Kumaran College, Tirupur - TNPCB",09-04-2024 02:00:00,11.0973603,77.3228673,PM10,NA,NA,NA
India,TamilNadu,Tirupur,"Kumaran College, Tirupur - TNPCB",09-04-2024 02:00:00,11.0973603,77.3228673,SO2,NA,NA,NA
India,TamilNadu,Vellore,"Vasanthapuram, Vellore - TNPCB",09-04-2024 02:00:00,12.909494,79.131861,PM2.5,NA,NA,NA
India,TamilNadu,Vellore,"Vasanthapuram, Vellore - TNPCB",09-04-2024 02:00:00,12.909494,79.131861,PM10,NA,NA,NA
India,TamilNadu,Vellore,"Vasanthapuram, Vellore - TNPCB",09-04-2024 02:00:00,12.909494,79.131861,NH3,NA,NA,NA
India,TamilNadu,Virudhunagar,"Collectorate Office, Virudhunagar - TNPCB",09-04-2024 02:00:00,9.559382,77.948828,PM2.5,NA,NA,NA
India,TamilNadu,Virudhunagar,"Collectorate Office, Virudhunagar - TNPCB",09-04-2024 02:00:00,9.559382,77.948828,NH3,NA,NA,NA
India,Telangana,Hyderabad,"ECIL Kapra, Hyderabad - TSPCB",09-04-2024 02:00:00,17.470431,78.566959,PM10,80,88,83
India,Telangana,Hyderabad,"ECIL Kapra, Hyderabad - TSPCB",09-04-2024 02:00:00,17.470431,78.566959,SO2,10,73,26
India,Telangana,Hyderabad,"ICRISAT Patancheru, Hyderabad - TSPCB",09-04-2024 02:00:00,17.518400,78.278777,PM2.5,35,183,76
India,Telangana,Hyderabad,"ICRISAT Patancheru, Hyderabad - TSPCB",09-04-2024 02:00:00,17.518400,78.278777,PM10,50,158,110
India,Telangana,Hyderabad,"ICRISAT Patancheru, Hyderabad - TSPCB",09-04-2024 02:00:00,17.518400,78.278777,CO,10,106,30
India,Telangana,Hyderabad,"IITH Kandi, Hyderabad - TSPCB",09-04-2024 02:00:00,17.585705,78.126199,SO2,NA,NA,NA
India,Telangana,Hyderabad,"IITH Kandi, Hyderabad - TSPCB",09-04-2024 02:00:00,17.585705,78.126199,CO,4,52,41
India,Telangana,Hyderabad,"Kokapet, Hyderabad - TSPCB",09-04-2024 02:00:00,17.393559,78.339194,NO2,7,9,8
India,Telangana,Hyderabad,"Kokapet, Hyderabad - TSPCB",09-04-2024 02:00:00,17.393559,78.339194,CO,29,34,30
India,Telangana,Hyderabad,"Kompally Municipal Office, Hyderabad - TSPCB",09-04-2024 02:00:00,17.544899,78.486949,SO2,10,57,20
India,Telangana,Hyderabad,"Nacharam_TSIIC IALA, Hyderabad - TSPCB",09-04-2024 02:00:00,17.429398,78.569354,PM2.5,NA,NA,NA
India,Telangana,Hyderabad,"Ramachandrapuram, Hyderabad - TSPCB",09-04-2024 02:00:00,17.528544,78.286195,PM2.5,33,36,35
India,Telangana,Hyderabad,"Sanathnagar, Hyderabad - TSPCB",09-04-2024 02:00:00,17.4559458,78.4332152,PM2.5,50,104,75
India,Telangana,Hyderabad,"Somajiguda, Hyderabad - TSPCB",09-04-2024 02:00:00,17.417094,78.457437,PM10,70,85,76
India,Telangana,Hyderabad,"Zoo Park, Hyderabad - TSPCB",09-04-2024 02:00:00,17.349694,78.451437,PM2.5,48,143,84
India,Telangana,Hyderabad,"Zoo Park, Hyderabad - TSPCB",09-04-2024 02:00:00,17.349694,78.451437,PM10,105,157,139
India,Telangana,Hyderabad,"Zoo Park, Hyderabad - TSPCB",09-04-2024 02:00:00,17.349694,78.451437,NO2,23,34,29
India,Telangana,Hyderabad,"Zoo Park, Hyderabad - TSPCB",09-04-2024 02:00:00,17.349694,78.451437,NH3,1,2,1
India,Telangana,Hyderabad,"Zoo Park, Hyderabad - TSPCB",09-04-2024 02:00:00,17.349694,78.451437,SO2,1,11,4
India,Telangana,Hyderabad,"Zoo Park, Hyderabad - TSPCB",09-04-2024 02:00:00,17.349694,78.451437,CO,34,65,40
India,Tripura,Agartala,"Bardowali, Agartala - Tripura SPCB",09-04-2024 02:00:00,23.8175497,91.2726974,SO2,29,31,29
India,Uttar_Pradesh,Agra,"Manoharpur, Agra - UPPCB",09-04-2024 02:00:00,27.23711,78.01936,SO2,12,19,14
India,Uttar_Pradesh,Agra,"Manoharpur, Agra - UPPCB",09-04-2024 02:00:00,27.23711,78.01936,CO,8,18,9
India,Uttar_Pradesh,Agra,"Rohta, Agra - UPPCB",09-04-2024 02:00:00,27.106972,78.000111,PM10,9,83,38
India,Uttar_Pradesh,Agra,"Rohta, Agra - UPPCB",09-04-2024 02:00:00,27.106972,78.000111,NH3,1,1,1
India,Uttar_Pradesh,Agra,"Rohta, Agra - UPPCB",09-04-2024 02:00:00,27.106972,78.000111,SO2,3,18,8
India,Uttar_Pradesh,Agra,"Sanjay Palace, Agra - UPPCB",09-04-2024 02:00:00,27.19865833,78.00598056,NO2,37,71,45
India,Uttar_Pradesh,Agra,"Sanjay Palace, Agra - UPPCB",09-04-2024 02:00:00,27.19865833,78.00598056,CO,13,84,46
India,Uttar_Pradesh,Agra,"Sanjay Palace, Agra - UPPCB",09-04-2024 02:00:00,27.19865833,78.00598056,OZONE,11,53,33
India,Uttar_Pradesh,Agra,"Sector-3B Avas Vikas Colony, Agra - UPPCB",09-04-2024 02:00:00,27.19412,77.96237,PM10,29,114,68
India,Uttar_Pradesh,Agra,"Shastripuram, Agra - UPPCB",09-04-2024 02:00:00,27.19862,77.92066,CO,8,20,14
India,Uttar_Pradesh,Baghpat,"Sardar Patel Inter College, Baghpat - UPPCB",09-04-2024 02:00:00,28.964949,77.278761,NO2,12,84,38
India,Uttar_Pradesh,Baghpat,"Sardar Patel Inter College, Baghpat - UPPCB",09-04-2024 02:00:00,28.964949,77.278761,CO,52,104,92
India,Uttar_Pradesh,Bareilly,"Civil Lines, Bareilly - UPPCB",09-04-2024 02:00:00,28.359581,79.414455,NO2,2,3,2
India,Uttar_Pradesh,Bulandshahr,"Yamunapuram, Bulandshahr - UPPCB",09-04-2024 02:00:00,28.406963,77.849831,PM10,94,216,131
India,Uttar_Pradesh,Firozabad,"Vibhab Nagar, Firozabad - UPPCB",09-04-2024 02:00:00,27.1594,78.3953,NH3,2,2,2
India,Uttar_Pradesh,Ghaziabad,"Indirapuram, Ghaziabad - UPPCB",09-04-2024 02:00:00,28.646233,77.358075,NH3,8,13,11
India,Uttar_Pradesh,Ghaziabad,"Indirapuram, Ghaziabad - UPPCB",09-04-2024 02:00:00,28.646233,77.358075,CO,22,70,51
India,Uttar_Pradesh,Ghaziabad,"Loni, Ghaziabad - UPPCB",09-04-2024 02:00:00,28.757294,77.278792,PM2.5,18,365,147
India,Uttar_Pradesh,Ghaziabad,"Vasundhara, Ghaziabad - UPPCB",09-04-2024 02:00:00,28.6603346,77.3572563,PM2.5,22,247,119
India,Uttar_Pradesh,Ghaziabad,"Vasundhara, Ghaziabad - UPPCB",09-04-2024 02:00:00,28.6603346,77.3572563,NO2,4,271,132
India,Uttar_Pradesh,Gorakhpur,"Madan Mohan Malaviya University of Technology, Gorakhpur - UPPCB",09-04-2024 02:00:00,26.730136,83.433859,NH3,1,1,1
India,Uttar_Pradesh,Hapur,"Anand Vihar, Hapur - UPPCB",09-04-2024 02:00:00,28.725645,77.749675,NH3,3,25,6
India,Uttar_Pradesh,Hapur,"Anand Vihar, Hapur - UPPCB",09-04-2024 02:00:00,28.725645,77.749675,CO,28,44,38
India,Uttar_Pradesh,Jhansi,"Shivaji Nagar, Jhansi - UPPCB",09-04-2024 02:00:00,25.4547,78.6039,CO,8,72,43
India,Uttar_Pradesh,Kanpur,"FTI Kidwai Nagar, Kanpur - UPPCB",09-04-2024 02:00:00,26.428282,80.327067,CO,27,57,44
India,Uttar_Pradesh,Kanpur,"NSI Kalyanpur, Kanpur - UPPCB",09-04-2024 02:00:00,26.509954,80.249612,PM2.5,29,291,86
India,Uttar_Pradesh,Kanpur,"Nehru Nagar, Kanpur - UPPCB",09-04-2024 02:00:00,26.4703136,80.3229863,PM2.5,NA,NA,NA
India,Uttar_Pradesh,Kanpur,"Nehru Nagar, Kanpur - UPPCB",09-04-2024 02:00:00,26.4703136,80.3229863,PM10,NA,NA,NA
India,Uttar_Pradesh,Lucknow,"Kendriya Vidyalaya, Lucknow - CPCB",09-04-2024 02:00:00,26.906111,80.948222,NH3,3,17,11
India,Uttar_Pradesh,Lucknow,"Kendriya Vidyalaya, Lucknow - CPCB",09-04-2024 02:00:00,26.906111,80.948222,CO,16,72,55
India,Uttar_Pradesh,Lucknow,"Kukrail Picnic Spot-1, Lucknow - UPPCB",09-04-2024 02:00:00,26.90723,80.98579,NO2,8,9,8
India,Uttar_Pradesh,Lucknow,"Kukrail Picnic Spot-1, Lucknow - UPPCB",09-04-2024 02:00:00,26.90723,80.98579,CO,10,28,19
India,Uttar_Pradesh,Lucknow,"Kukrail Picnic Spot-1, Lucknow - UPPCB",09-04-2024 02:00:00,26.90723,80.98579,OZONE,5,45,20
India,Uttar_Pradesh,Lucknow,"Lalbagh, Lucknow - CPCB",09-04-2024 02:00:00,26.8458805,80.9365541,PM10,77,162,121
India,Uttar_Pradesh,Lucknow,"Talkatora District Industries Center, Lucknow - CPCB",09-04-2024 02:00:00,26.83399722,80.8917361,PM2.5,36,221,84
India,Uttar_Pradesh,Lucknow,"Talkatora District Industries Center, Lucknow - CPCB",09-04-2024 02:00:00,26.83399722,80.8917361,PM10,110,318,134
India,Uttar_Pradesh,Lucknow,"Talkatora District Industries Center, Lucknow - CPCB",09-04-2024 02:00:00,26.83399722,80.8917361,SO2,1,29,7
India,Uttar_Pradesh,Lucknow,"Talkatora District Industries Center, Lucknow - CPCB",09-04-2024 02:00:00,26.83399722,80.8917361,OZONE,2,80,14
India,Uttar_Pradesh,Meerut,"Ganga Nagar, Meerut - UPPCB",09-04-2024 02:00:00,28.999264,77.7590354,PM2.5,15,216,76
India,Uttar_Pradesh,Meerut,"Ganga Nagar, Meerut - UPPCB",09-04-2024 02:00:00,28.999264,77.7590354,SO2,6,70,26
India,Uttar_Pradesh,Meerut,"Ganga Nagar, Meerut - UPPCB",09-04-2024 02:00:00,28.999264,77.7590354,CO,22,86,54
India,Uttar_Pradesh,Meerut,"Ganga Nagar, Meerut - UPPCB",09-04-2024 02:00:00,28.999264,77.7590354,OZONE,35,189,83
India,Uttar_Pradesh,Meerut,"Jai Bhim Nagar, Meerut - UPPCB",09-04-2024 02:00:00,28.9535882,77.7622941,CO,32,88,69
India,Uttar_Pradesh,Meerut,"Pallavpuram Phase 2, Meerut - UPPCB",09-04-2024 02:00:00,29.063510,77.709723,PM2.5,18,301,103
India,Uttar_Pradesh,Meerut,"Pallavpuram Phase 2, Meerut - UPPCB",09-04-2024 02:00:00,29.063510,77.709723,NH3,7,15,10
India,Uttar_Pradesh,Moradabad,"Buddhi Vihar, Moradabad - UPPCB",09-04-2024 02:00:00,28.83526,78.74460,PM10,57,156,107
India,Uttar_Pradesh,Moradabad,"Eco Herbal Park, Moradabad - UPPCB",09-04-2024 02:00:00,28.840739,78.697531,CO,2,103,20
India,Uttar_Pradesh,Moradabad,"Employment Office, Moradabad - UPPCB",09-04-2024 02:00:00,28.88528,78.73880,CO,14,62,43
India,Uttar_Pradesh,Moradabad,"Jigar Colony, Moradabad - UPPCB",09-04-2024 02:00:00,28.856664,78.772638,NO2,17,19,18
India,Uttar_Pradesh,Moradabad,"Jigar Colony, Moradabad - UPPCB",09-04-2024 02:00:00,28.856664,78.772638,SO2,28,33,31
India,Uttar_Pradesh,Muzaffarnagar,"New Mandi, Muzaffarnagar - UPPCB",09-04-2024 02:00:00,29.4723508,77.7194031,NH3,9,14,11
India,Uttar_Pradesh,Muzaffarnagar,"New Mandi, Muzaffarnagar - UPPCB",09-04-2024 02:00:00,29.4723508,77.7194031,SO2,15,106,47
India,Uttar_Pradesh,Noida,"Sector - 62, Noida - IMD",09-04-2024 02:00:00,28.6245479,77.3577104,PM2.5,33,302,162
India,Uttar_Pradesh,Noida,"Sector - 62, Noida - IMD",09-04-2024 02:00:00,28.6245479,77.3577104,NO2,15,180,66
India,Uttar_Pradesh,Noida,"Sector - 62, Noida - IMD",09-04-2024 02:00:00,28.6245479,77.3577104,OZONE,7,42,20
India,Uttar_Pradesh,Noida,"Sector-116, Noida - UPPCB",09-04-2024 02:00:00,28.569230,77.393848,NO2,20,128,68
India,Uttar_Pradesh,Noida,"Sector-116, Noida - UPPCB",09-04-2024 02:00:00,28.569230,77.393848,NH3,5,10,8
India,Uttar_Pradesh,Noida,"Sector-116, Noida - UPPCB",09-04-2024 02:00:00,28.569230,77.393848,SO2,21,102,45
India,Uttar_Pradesh,Noida,"Sector-116, Noida - UPPCB",09-04-2024 02:00:00,28.569230,77.393848,CO,28,108,89
India,Uttar_Pradesh,Prayagraj,"Jhunsi, Prayagraj - UPPCB",09-04-2024 02:00:00,25.425602,81.917152,CO,5,30,18
India,Uttar_Pradesh,Prayagraj,"Motilal Nehru NIT, Prayagraj - UPPCB",09-04-2024 02:00:00,25.494,81.863,PM2.5,13,50,31
India,Uttar_Pradesh,Varanasi,"Bhelupur, Varanasi - UPPCB",09-04-2024 02:00:00,25.301778,82.996789,NO2,8,8,8
India,Uttar_Pradesh,Varanasi,"IESD Banaras Hindu University, Varanasi - UPPCB",09-04-2024 02:00:00,25.262326,82.995408,NH3,1,3,2
India,Uttar_Pradesh,Varanasi,"IESD Banaras Hindu University, Varanasi - UPPCB",09-04-2024 02:00:00,25.262326,82.995408,SO2,15,16,15
India,Uttar_Pradesh,Vrindavan,"Omex Eternity, Vrindavan - UPPCB",09-04-2024 02:00:00,27.5714090,77.6557570,NH3,1,3,2
India,Uttar_Pradesh,Vrindavan,"Omex Eternity, Vrindavan - UPPCB",09-04-2024 02:00:00,27.5714090,77.6557570,CO,27,82,39
India,Uttarakhand,Dehradun,"Doon University, Dehradun - UKPCB",09-04-2024 02:00:00,30.269444,78.044167,PM2.5,28,72,52
India,Uttarakhand,Kashipur,"Govt. Girls Inter College, Kashipur - UKPCB",09-04-2024 02:00:00,29.2124114,78.9611753,PM2.5,20,131,78
India,Uttarakhand,Rishikesh,"Shivaji Nagar, Rishikesh - UKPCB",09-04-2024 02:00:00,30.075911,78.2859547,PM10,46,88,62
India,Uttarakhand,Rishikesh,"Shivaji Nagar, Rishikesh - UKPCB",09-04-2024 02:00:00,30.075911,78.2859547,NH3,2,3,3
India,West_Bengal,Asansol,"Asansol Court Area, Asansol - WBPCB",09-04-2024 02:00:00,23.685297,86.945968,NO2,27,77,44
India,West_Bengal,Asansol,"Asansol Court Area, Asansol - WBPCB",09-04-2024 02:00:00,23.685297,86.945968,NH3,4,28,10
India,West_Bengal,Barrackpore,"SVSPA Campus, Barrackpore - WBPCB",09-04-2024 02:00:00,22.7605581,88.3617589,NO2,10,28,18
India,West_Bengal,Durgapur,"PCBL Residential Complex, Durgapur - WBPCB",09-04-2024 02:00:00,23.5087640,87.3544400,PM10,87,235,137
India,West_Bengal,Durgapur,"Sidhu Kanhu Indoor Stadium, Durgapur - WBPCB",09-04-2024 02:00:00,23.5404352,87.2892225,NH3,1,2,1
India,West_Bengal,Haldia,"Priyambada Housing Estate, Haldia - WBPCB",09-04-2024 02:00:00,22.06047,88.109737,PM2.5,28,61,40
India,West_Bengal,Howrah,"Belur Math, Howrah - WBPCB",09-04-2024 02:00:00,22.629801,88.352017,PM2.5,39,79,66
India,West_Bengal,Howrah,"Belur Math, Howrah - WBPCB",09-04-2024 02:00:00,22.629801,88.352017,PM10,69,107,90
India,West_Bengal,Howrah,"Belur Math, Howrah - WBPCB",09-04-2024 02:00:00,22.629801,88.352017,NO2,10,36,19
India,West_Bengal,Howrah,"Ghusuri, Howrah - WBPCB",09-04-2024 02:00:00,22.611968,88.347422,NH3,2,4,3
India,West_Bengal,Kolkata,"Ballygunge, Kolkata - WBPCB",09-04-2024 02:00:00,22.5367507,88.3638022,CO,16,38,27
India,West_Bengal,Kolkata,"Bidhannagar, Kolkata - WBPCB",09-04-2024 02:00:00,22.58157048,88.41002457,PM10,61,121,77
India,West_Bengal,Kolkata,"Bidhannagar, Kolkata - WBPCB",09-04-2024 02:00:00,22.58157048,88.41002457,NO2,26,53,38
India,West_Bengal,Kolkata,"Bidhannagar, Kolkata - WBPCB",09-04-2024 02:00:00,22.58157048,88.41002457,OZONE,20,73,26
India,West_Bengal,Kolkata,"Jadavpur, Kolkata - WBPCB",09-04-2024 02:00:00,22.49929,88.36917,OZONE,21,90,32
India,West_Bengal,Kolkata,"Rabindra Bharati University, Kolkata - WBPCB",09-04-2024 02:00:00,22.627847,88.380669,NH3,15,18,16
India,West_Bengal,Kolkata,"Rabindra Sarobar, Kolkata - WBPCB",09-04-2024 02:00:00,22.51106,88.35142,PM2.5,36,63,48
India,West_Bengal,Kolkata,"Rabindra Sarobar, Kolkata - WBPCB",09-04-2024 02:00:00,22.51106,88.35142,PM10,39,83,60
India,West_Bengal,Kolkata,"Rabindra Sarobar, Kolkata - WBPCB",09-04-2024 02:00:00,22.51106,88.35142,SO2,8,81,30
India,West_Bengal,Kolkata,"Victoria, Kolkata - WBPCB",09-04-2024 02:00:00,22.5448082,88.3403691,PM2.5,40,64,50
India,West_Bengal,Kolkata,"Victoria, Kolkata - WBPCB",09-04-2024 02:00:00,22.5448082,88.3403691,CO,50,78,65
India,Andhra_Pradesh,Amaravati,"Secretariat, Amaravati - APPCB",09-04-2024 02:00:00,16.5150833,80.5181667,NH3,5,5,5
India,Andhra_Pradesh,Amaravati,"Secretariat, Amaravati - APPCB",09-04-2024 02:00:00,16.5150833,80.5181667,OZONE,8,47,27
India,Andhra_Pradesh,Chittoor,"Gangineni Cheruvu, Chittoor - APPCB",09-04-2024 02:00:00,13.204880,79.097889,PM2.5,NA,NA,NA
India,Andhra_Pradesh,Chittoor,"Gangineni Cheruvu, Chittoor - APPCB",09-04-2024 02:00:00,13.204880,79.097889,PM10,NA,NA,NA
India,Andhra_Pradesh,Chittoor,"Gangineni Cheruvu, Chittoor - APPCB",09-04-2024 02:00:00,13.204880,79.097889,NO2,NA,NA,NA
India,Andhra_Pradesh,Chittoor,"Gangineni Cheruvu, Chittoor - APPCB",09-04-2024 02:00:00,13.204880,79.097889,NH3,NA,NA,NA
India,Andhra_Pradesh,Chittoor,"Gangineni Cheruvu, Chittoor - APPCB",09-04-2024 02:00:00,13.204880,79.097889,SO2,NA,NA,NA
India,Andhra_Pradesh,Kadapa,"Yerramukkapalli, Kadapa - APPCB",09-04-2024 02:00:00,14.465052,78.824187,PM10,NA,NA,NA
India,Andhra_Pradesh,Kadapa,"Yerramukkapalli, Kadapa - APPCB",09-04-2024 02:00:00,14.465052,78.824187,OZONE,20,85,49
India,Andhra_Pradesh,Rajamahendravaram,"Anand Kala Kshetram, Rajamahendravaram - APPCB",09-04-2024 02:00:00,16.9872867,81.7363176,PM10,26,106,66
India,Andhra_Pradesh,Tirupati,"Tirumala, Tirupati - APPCB",09-04-2024 02:00:00,13.67,79.35,PM2.5,30,77,54
India,Andhra_Pradesh,Tirupati,"Vaikuntapuram, Tirupati - APPCB",09-04-2024 02:00:00,13.615387,79.409230,NH3,NA,NA,NA
India,Andhra_Pradesh,Vijayawada,"HB Colony, Vijayawada - APPCB",09-04-2024 02:00:00,16.536107,80.594233,NH3,4,4,4
India,Andhra_Pradesh,Vijayawada,"HB Colony, Vijayawada - APPCB",09-04-2024 02:00:00,16.536107,80.594233,SO2,4,5,4
India,Andhra_Pradesh,Vijayawada,"Rajiv Gandhi Park, Vijayawada - APPCB",09-04-2024 02:00:00,16.509717,80.612222,SO2,6,9,8
India,Andhra_Pradesh,Vijayawada,"Rajiv Gandhi Park, Vijayawada - APPCB",09-04-2024 02:00:00,16.509717,80.612222,CO,38,38,38
India,Andhra_Pradesh,Vijayawada,"Rajiv Gandhi Park, Vijayawada - APPCB",09-04-2024 02:00:00,16.509717,80.612222,OZONE,7,57,21
India,Arunachal_Pradesh,Naharlagun,"Naharlagun, Naharlagun - APSPCB",09-04-2024 02:00:00,27.103358,93.679645,PM10,62,132,97
India,Assam,Byrnihat,"Central Academy for SFS, Byrnihat - PCBA",09-04-2024 02:00:00,26.071318,91.87488,CO,34,87,39
India,Assam,Byrnihat,"Central Academy for SFS, Byrnihat - PCBA",09-04-2024 02:00:00,26.071318,91.87488,OZONE,21,23,22
India,Assam,Guwahati,"IITG, Guwahati - PCBA",09-04-2024 02:00:00,26.2028636,91.70046436,CO,12,26,20
India,Assam,Guwahati,"IITG, Guwahati - PCBA",09-04-2024 02:00:00,26.2028636,91.70046436,OZONE,5,40,12
India,Assam,Guwahati,"LGBI Airport, Guwahati - PCBA",09-04-2024 02:00:00,26.10887,91.589544,NH3,2,8,5
India,Assam,Guwahati,"Pan Bazaar, Guwahati - PCBA",09-04-2024 02:00:00,26.187500,91.744194,PM2.5,NA,NA,NA
India,Assam,Guwahati,"Railway Colony, Guwahati - PCBA",09-04-2024 02:00:00,26.181742,91.78063,PM2.5,100,354,181
India,Assam,Guwahati,"Railway Colony, Guwahati - PCBA",09-04-2024 02:00:00,26.181742,91.78063,CO,23,109,72
India,Assam,Nagaon,"Christianpatty, Nagaon - PCBA",09-04-2024 02:00:00,26.349082,92.68449,PM2.5,82,213,117
India,Assam,Nagaon,"Christianpatty, Nagaon - PCBA",09-04-2024 02:00:00,26.349082,92.68449,PM10,86,136,105
India,Assam,Nagaon,"Christianpatty, Nagaon - PCBA",09-04-2024 02:00:00,26.349082,92.68449,NO2,7,78,21
India,Assam,Nagaon,"Christianpatty, Nagaon - PCBA",09-04-2024 02:00:00,26.349082,92.68449,SO2,1,79,33
India,Assam,Nalbari,"Bata Chowk, Nalbari - PCBA",09-04-2024 02:00:00,26.446912,91.439057,SO2,2,7,3
India,Assam,Silchar,"Tarapur, Silchar - PCBA",09-04-2024 02:00:00,24.82827,92.79525,NH3,1,1,1
India,Assam,Sivasagar,"Girls College, Sivasagar - PCBA",09-04-2024 02:00:00,26.987634,94.636574,PM10,47,87,60
India,Bihar,Araria,"Kharahiya Basti, Araria - BSPCB",09-04-2024 02:00:00,26.146529,87.454184,PM10,NA,NA,NA
India,Bihar,Araria,"Kharahiya Basti, Araria - BSPCB",09-04-2024 02:00:00,26.146529,87.454184,NH3,NA,NA,NA
India,Bihar,Araria,"Kharahiya Basti, Araria - BSPCB",09-04-2024 02:00:00,26.146529,87.454184,CO,14,31,22
India,Bihar,Arrah,"New DM Office, Arrah - BSPCB",09-04-2024 02:00:00,25.5626095,84.663264,PM2.5,23,98,50
India,Bihar,Arrah,"New DM Office, Arrah - BSPCB",09-04-2024 02:00:00,25.5626095,84.663264,NO2,6,47,19
India,Bihar,Arrah,"New DM Office, Arrah - BSPCB",09-04-2024 02:00:00,25.5626095,84.663264,OZONE,8,41,16
India,Bihar,Bhagalpur,"DM Office_Kachari Chowk, Bhagalpur - BSPCB",09-04-2024 02:00:00,25.251013,86.989001,PM2.5,35,273,112
India,Bihar,Bhagalpur,"DM Office_Kachari Chowk, Bhagalpur - BSPCB",09-04-2024 02:00:00,25.251013,86.989001,NH3,8,11,9
India,Bihar,Bhagalpur,"DM Office_Kachari Chowk, Bhagalpur - BSPCB",09-04-2024 02:00:00,25.251013,86.989001,CO,32,102,72
India,Bihar,Bhagalpur,"DM Office_Kachari Chowk, Bhagalpur - BSPCB",09-04-2024 02:00:00,25.251013,86.989001,OZONE,41,48,46
India,Bihar,Bhagalpur,"Mayaganj, Bhagalpur - BSPCB",09-04-2024 02:00:00,25.265194,87.012947,OZONE,11,43,22
India,Bihar,Bihar Sharif,"D M Colony, Bihar Sharif - BSPCB",09-04-2024 02:00:00,25.204762,85.514960,PM2.5,13,130,44
India,Bihar,Bihar Sharif,"D M Colony, Bihar Sharif - BSPCB",09-04-2024 02:00:00,25.204762,85.514960,NH3,2,2,2
India,Bihar,Buxar,"Charitra Van, Buxar - BSPCB (Formerly known as Central Jail)",09-04-2024 02:00:00,25.567520,83.966379,CO,31,124,74
India,Bihar,Chhapra,"Darshan Nagar, Chhapra - BSPCB",09-04-2024 02:00:00,25.7808257,84.7446768,PM10,72,219,120
India,Bihar,Chhapra,"Darshan Nagar, Chhapra - BSPCB",09-04-2024 02:00:00,25.7808257,84.7446768,NO2,20,33,26
India,Bihar,Chhapra,"Darshan Nagar, Chhapra - BSPCB",09-04-2024 02:00:00,25.7808257,84.7446768,NH3,8,15,11
India,Bihar,Gaya,"Collectorate, Gaya - BSPCB",09-04-2024 02:00:00,24.7955,84.9994,PM2.5,33,199,97
India,Bihar,Gaya,"Kareemganj, Gaya - BSPCB",09-04-2024 02:00:00,24.792403,84.992416,PM2.5,7,98,31
India,Bihar,Gaya,"Kareemganj, Gaya - BSPCB",09-04-2024 02:00:00,24.792403,84.992416,PM10,16,145,64
India,Bihar,Gaya,"Kareemganj, Gaya - BSPCB",09-04-2024 02:00:00,24.792403,84.992416,NH3,1,5,3
India,Bihar,Gaya,"Kareemganj, Gaya - BSPCB",09-04-2024 02:00:00,24.792403,84.992416,OZONE,4,27,14
India,Bihar,Gaya,"SFTI Kusdihra, Gaya - BSPCB",09-04-2024 02:00:00,24.762518,84.982348,PM2.5,20,66,46
India,Bihar,Gaya,"SFTI Kusdihra, Gaya - BSPCB",09-04-2024 02:00:00,24.762518,84.982348,SO2,6,12,8
India,Bihar,Gaya,"SFTI Kusdihra, Gaya - BSPCB",09-04-2024 02:00:00,24.762518,84.982348,OZONE,8,103,46
India,Bihar,Hajipur,"Industrial Area, Hajipur - BSPCB",09-04-2024 02:00:00,25.697189,85.245900,CO,24,68,48
India,Bihar,Katihar,"Mirchaibari, Katihar - BSPCB",09-04-2024 02:00:00,25.560083,87.553265,PM10,74,177,136
India,Bihar,Manguraha,"Forest Rest House, Manguraha - BSPCB",09-04-2024 02:00:00,27.308328,84.531742,PM10,48,164,100
India,Bihar,Manguraha,"Forest Rest House, Manguraha - BSPCB",09-04-2024 02:00:00,27.308328,84.531742,CO,10,108,44
India,Bihar,Motihari,"Gandak Colony, Motihari - BSPCB",09-04-2024 02:00:00,26.63086,84.90051,PM2.5,NA,NA,NA
India,Bihar,Motihari,"Gandak Colony, Motihari - BSPCB",09-04-2024 02:00:00,26.63086,84.90051,PM10,NA,NA,NA
India,Bihar,Muzaffarpur,"Buddha Colony, Muzaffarpur - BSPCB",09-04-2024 02:00:00,26.11442,85.39813,PM2.5,98,307,181
India,Bihar,Muzaffarpur,"Buddha Colony, Muzaffarpur - BSPCB",09-04-2024 02:00:00,26.11442,85.39813,NO2,15,104,41
India,Bihar,Muzaffarpur,"Buddha Colony, Muzaffarpur - BSPCB",09-04-2024 02:00:00,26.11442,85.39813,NH3,4,7,6
India,Bihar,Muzaffarpur,"Buddha Colony, Muzaffarpur - BSPCB",09-04-2024 02:00:00,26.11442,85.39813,SO2,11,33,17
India,Bihar,Muzaffarpur,"MIT-Daudpur Kothi, Muzaffarpur - BSPCB",09-04-2024 02:00:00,26.1403345,85.3650192,SO2,11,18,14
India,Bihar,Muzaffarpur,"MIT-Daudpur Kothi, Muzaffarpur - BSPCB",09-04-2024 02:00:00,26.1403345,85.3650192,CO,18,118,58
India,Bihar,Patna,"DRM Office Danapur, Patna - BSPCB",09-04-2024 02:00:00,25.586562,85.043586,NH3,2,3,3
India,Bihar,Patna,"IGSC Planetarium Complex, Patna - BSPCB",09-04-2024 02:00:00,25.610369,85.132568,OZONE,23,54,33
India,Bihar,Patna,"Muradpur, Patna - BSPCB",09-04-2024 02:00:00,25.619651,85.147382,NO2,10,19,14
India,Bihar,Patna,"Muradpur, Patna - BSPCB",09-04-2024 02:00:00,25.619651,85.147382,NH3,3,5,4
India,Bihar,Patna,"Muradpur, Patna - BSPCB",09-04-2024 02:00:00,25.619651,85.147382,CO,12,134,79
India,Bihar,Patna,"Rajbansi Nagar, Patna - BSPCB",09-04-2024 02:00:00,25.599486,85.113666,NO2,15,50,26
India,Bihar,Patna,"Samanpura, Patna - BSPCB",09-04-2024 02:00:00,25.596727,85.085624,PM2.5,NA,NA,NA
India,Bihar,Patna,"Samanpura, Patna - BSPCB",09-04-2024 02:00:00,25.596727,85.085624,NH3,NA,NA,NA
India,Bihar,Patna,"Samanpura, Patna - BSPCB",09-04-2024 02:00:00,25.596727,85.085624,OZONE,8,10,9
India,Bihar,Purnia,"Mariam Nagar, Purnia - BSPCB",09-04-2024 02:00:00,25.366336,87.117468,OZONE,9,57,10
India,Bihar,Rajgir,"Dangi Tola, Rajgir - BSPCB",09-04-2024 02:00:00,25.03280,85.41948,PM2.5,7,75,32
India,Bihar,Rajgir,"Dangi Tola, Rajgir - BSPCB",09-04-2024 02:00:00,25.03280,85.41948,NO2,17,27,19
India,Bihar,Rajgir,"Dangi Tola, Rajgir - BSPCB",09-04-2024 02:00:00,25.03280,85.41948,NH3,NA,NA,NA
India,Bihar,Rajgir,"Dangi Tola, Rajgir - BSPCB",09-04-2024 02:00:00,25.03280,85.41948,SO2,4,5,4
India,Bihar,Saharsa,"Police Line, Saharsa - BSPCB",09-04-2024 02:00:00,25.892357,86.590325,SO2,16,17,16
India,Bihar,Saharsa,"Police Line, Saharsa - BSPCB",09-04-2024 02:00:00,25.892357,86.590325,OZONE,13,53,26
India,Bihar,Samastipur,"DM Office_Kasipur, Samastipur - BSPCB",09-04-2024 02:00:00,25.859655,85.77944,PM10,18,228,104
India,Bihar,Samastipur,"DM Office_Kasipur, Samastipur - BSPCB",09-04-2024 02:00:00,25.859655,85.77944,OZONE,9,13,10
India,Bihar,Sasaram,"Dada Peer, Sasaram - BSPCB",09-04-2024 02:00:00,24.952822,84.002396,PM2.5,8,131,30
India,Bihar,Sasaram,"Dada Peer, Sasaram - BSPCB",09-04-2024 02:00:00,24.952822,84.002396,OZONE,6,96,58
India,Chandigarh,Chandigarh,"Sector 22, Chandigarh - CPCC",09-04-2024 02:00:00,30.735567,76.775714,PM10,41,140,78
India,Chandigarh,Chandigarh,"Sector 22, Chandigarh - CPCC",09-04-2024 02:00:00,30.735567,76.775714,OZONE,3,180,56
India,Chandigarh,Chandigarh,"Sector-25, Chandigarh - CPCC",09-04-2024 02:00:00,30.751462,76.762879,NH3,NA,NA,NA
India,Chandigarh,Chandigarh,"Sector-53, Chandigarh - CPCC",09-04-2024 02:00:00,30.719859,76.738637,NH3,4,5,4
India,Chandigarh,Chandigarh,"Sector-53, Chandigarh - CPCC",09-04-2024 02:00:00,30.719859,76.738637,CO,36,80,50
India,Chhattisgarh,Bhilai,"32Bungalows, Bhilai - CECB",09-04-2024 02:00:00,21.194815,81.314770,PM2.5,NA,NA,NA
India,Chhattisgarh,Bhilai,"32Bungalows, Bhilai - CECB",09-04-2024 02:00:00,21.194815,81.314770,CO,19,37,32
India,Chhattisgarh,Bhilai,"Civic Center, Bhilai - Bhilai Steel Plant",09-04-2024 02:00:00,21.185571,81.343175,SO2,9,51,16
India,Chhattisgarh,Bhilai,"Hathkhoj, Bhilai - CECB",09-04-2024 02:00:00,21.224231,81.408350,NO2,14,43,25
India,Chhattisgarh,Bhilai,"Hathkhoj, Bhilai - CECB",09-04-2024 02:00:00,21.224231,81.408350,NH3,8,8,8
India,Chhattisgarh,Bilaspur,"Mangala, Bilaspur - NTPC",09-04-2024 02:00:00,22.08815,82.13737,SO2,13,26,20
India,Chhattisgarh,Chhal,"Nawapara SECL Colony, Chhal - CECB",09-04-2024 02:00:00,22.118125,83.140608,SO2,2,18,12
India,Chhattisgarh,Korba,"Urja Nagar, Korba - CECB",09-04-2024 02:00:00,22.348441,82.549611,PM2.5,3,14,6
India,Chhattisgarh,Korba,"Urja Nagar, Korba - CECB",09-04-2024 02:00:00,22.348441,82.549611,SO2,3,6,4
India,Chhattisgarh,Kunjemura,"OP Jindal School, Kunjemura - CECB",09-04-2024 02:00:00,22.126650,83.483212,NH3,2,4,3
India,Chhattisgarh,Milupara,"Govt. Higher Secondary School, Milupara - CECB",09-04-2024 02:00:00,22.1910172,83.5197009,NO2,27,95,53
India,Chhattisgarh,Milupara,"Govt. Higher Secondary School, Milupara - CECB",09-04-2024 02:00:00,22.1910172,83.5197009,SO2,NA,NA,NA
India,Chhattisgarh,Raipur,"Bhatagaon New ISBT, Raipur - CECB",09-04-2024 02:00:00,21.219665,81.630094,PM2.5,10,40,18
India,Chhattisgarh,Raipur,"Bhatagaon New ISBT, Raipur - CECB",09-04-2024 02:00:00,21.219665,81.630094,SO2,1,2,2
India,Chhattisgarh,Raipur,"Krishak Nagar, Raipur - CECB",09-04-2024 02:00:00,21.237755,81.705301,NO2,29,33,31
India,Chhattisgarh,Raipur,"Krishak Nagar, Raipur - CECB",09-04-2024 02:00:00,21.237755,81.705301,NH3,1,1,1
India,Chhattisgarh,Raipur,"Siltara Phase-II, Raipur - CECB",09-04-2024 02:00:00,21.371751,81.664929,CO,28,66,34
India,Chhattisgarh,Raipur,"Siltara Phase-II, Raipur - CECB",09-04-2024 02:00:00,21.371751,81.664929,OZONE,3,8,3
India,Chhattisgarh,Tumidih,"OP Jindal Industrial Park, Tumidih - CECB",09-04-2024 02:00:00,22.06631475,83.33820077,CO,20,64,30
India,Delhi,Delhi,"Alipur, Delhi - DPCC",09-04-2024 02:00:00,28.815329,77.153010,PM2.5,21,424,165
India,Delhi,Delhi,"Alipur, Delhi - DPCC",09-04-2024 02:00:00,28.815329,77.153010,PM10,63,410,164
India,Delhi,Delhi,"Alipur, Delhi - DPCC",09-04-2024 02:00:00,28.815329,77.153010,SO2,8,116,39
India,Delhi,Delhi,"Anand Vihar, Delhi - DPCC",09-04-2024 02:00:00,28.647622,77.3158090,NH3,1,9,4
India,Delhi,Delhi,"Aya Nagar, Delhi - IMD",09-04-2024 02:00:00,28.4706914,77.1099364,PM2.5,67,320,153
India,Delhi,Delhi,"Aya Nagar, Delhi - IMD",09-04-2024 02:00:00,28.4706914,77.1099364,CO,53,90,64
India,Delhi,Delhi,"Bawana, Delhi - DPCC",09-04-2024 02:00:00,28.776200,77.051074,CO,15,101,38
India,Delhi,Delhi,"Bawana, Delhi - DPCC",09-04-2024 02:00:00,28.776200,77.051074,OZONE,6,134,67
India,Delhi,Delhi,"Burari Crossing, Delhi - IMD",09-04-2024 02:00:00,28.7256504,77.2011573,NO2,18,34,26
India,Delhi,Delhi,"CRRI Mathura Road, Delhi - IMD",09-04-2024 02:00:00,28.5512005,77.2735737,OZONE,1,50,1
India,Delhi,Delhi,"Chandni Chowk, Delhi - IITM",09-04-2024 02:00:00,28.656756,77.227234,CO,44,50,48
India,Delhi,Delhi,"DTU, Delhi - CPCB",09-04-2024 02:00:00,28.7500499,77.1112615,PM10,NA,NA,NA
India,Delhi,Delhi,"DTU, Delhi - CPCB",09-04-2024 02:00:00,28.7500499,77.1112615,NO2,NA,NA,NA
India,Delhi,Delhi,"DTU, Delhi - CPCB",09-04-2024 02:00:00,28.7500499,77.1112615,NH3,NA,NA,NA
India,Delhi,Delhi,"IGI Airport (T3), Delhi - IMD",09-04-2024 02:00:00,28.5627763,77.1180053,CO,15,100,58
India,Delhi,Delhi,"IGI Airport (T3), Delhi - IMD",09-04-2024 02:00:00,28.5627763,77.1180053,OZONE,1,43,12
India,Delhi,Delhi,"IHBAS, Dilshad Garden, Delhi - CPCB",09-04-2024 02:00:00,28.6811736,77.3025234,NH3,5,20,9
India,Delhi,Delhi,"IHBAS, Dilshad Garden, Delhi - CPCB",09-04-2024 02:00:00,28.6811736,77.3025234,SO2,7,51,23
India,Delhi,Delhi,"Jahangirpuri, Delhi - DPCC",09-04-2024 02:00:00,28.732820,77.170633,NO2,16,135,79
India,Delhi,Delhi,"Jahangirpuri, Delhi - DPCC",09-04-2024 02:00:00,28.732820,77.170633,SO2,1,112,42
India,Delhi,Delhi,"Jahangirpuri, Delhi - DPCC",09-04-2024 02:00:00,28.732820,77.170633,CO,31,105,81
India,Delhi,Delhi,"Lodhi Road, Delhi - IITM",09-04-2024 02:00:00,28.588333,77.221667,NH3,7,11,9
India,Delhi,Delhi,"Lodhi Road, Delhi - IITM",09-04-2024 02:00:00,28.588333,77.221667,SO2,15,78,33
India,Delhi,Delhi,"Major Dhyan Chand National Stadium, Delhi - DPCC",09-04-2024 02:00:00,28.611281,77.237738,PM10,64,252,122
India,Delhi,Delhi,"Major Dhyan Chand National Stadium, Delhi - DPCC",09-04-2024 02:00:00,28.611281,77.237738,CO,8,72,50
India,Delhi,Delhi,"Mandir Marg, Delhi - DPCC",09-04-2024 02:00:00,28.636429,77.201067,NO2,107,127,113
India,Delhi,Delhi,"Mundka, Delhi - DPCC",09-04-2024 02:00:00,28.684678,77.076574,SO2,11,129,40
India,Delhi,Delhi,"Mundka, Delhi - DPCC",09-04-2024 02:00:00,28.684678,77.076574,CO,16,101,56
India,Delhi,Delhi,"NSIT Dwarka, Delhi - CPCB",09-04-2024 02:00:00,28.60909,77.0325413,PM2.5,144,454,287
India,Delhi,Delhi,"NSIT Dwarka, Delhi - CPCB",09-04-2024 02:00:00,28.60909,77.0325413,NH3,6,15,9
India,Delhi,Delhi,"NSIT Dwarka, Delhi - CPCB",09-04-2024 02:00:00,28.60909,77.0325413,OZONE,4,85,38
India,Delhi,Delhi,"Najafgarh, Delhi - DPCC",09-04-2024 02:00:00,28.570173,76.933762,CO,30,83,55
India,Delhi,Delhi,"Narela, Delhi - DPCC",09-04-2024 02:00:00,28.822836,77.101981,PM2.5,27,431,218
India,Delhi,Delhi,"Narela, Delhi - DPCC",09-04-2024 02:00:00,28.822836,77.101981,NH3,4,12,7
India,Delhi,Delhi,"Narela, Delhi - DPCC",09-04-2024 02:00:00,28.822836,77.101981,CO,12,96,57
India,Delhi,Delhi,"Narela, Delhi - DPCC",09-04-2024 02:00:00,28.822836,77.101981,OZONE,3,136,42
India,Delhi,Delhi,"New Moti Bagh, Delhi - MHUA",09-04-2024 02:00:00,28.57834,77.18400,CO,16,104,77
India,Delhi,Delhi,"North Campus, DU, Delhi - IMD",09-04-2024 02:00:00,28.6573814,77.1585447,NO2,8,49,28
India,Delhi,Delhi,"North Campus, DU, Delhi - IMD",09-04-2024 02:00:00,28.6573814,77.1585447,OZONE,2,44,10
India,Delhi,Delhi,"Okhla Phase-2, Delhi - DPCC",09-04-2024 02:00:00,28.530785,77.271255,CO,76,117,105
India,Delhi,Delhi,"Patparganj, Delhi - DPCC",09-04-2024 02:00:00,28.623763,77.287209,PM10,103,370,179
India,Delhi,Delhi,"Patparganj, Delhi - DPCC",09-04-2024 02:00:00,28.623763,77.287209,CO,2,93,46
India,Delhi,Delhi,"Patparganj, Delhi - DPCC",09-04-2024 02:00:00,28.623763,77.287209,OZONE,4,142,47
India,Delhi,Delhi,"Punjabi Bagh, Delhi - DPCC",09-04-2024 02:00:00,28.674045,77.131023,NO2,42,104,72
India,Delhi,Delhi,"Punjabi Bagh, Delhi - DPCC",09-04-2024 02:00:00,28.674045,77.131023,SO2,20,26,23
India,Delhi,Delhi,"Punjabi Bagh, Delhi - DPCC",09-04-2024 02:00:00,28.674045,77.131023,OZONE,1,35,9
India,Delhi,Delhi,"Pusa, Delhi - DPCC",09-04-2024 02:00:00,28.639652,77.146275,PM2.5,27,340,106
India,Delhi,Delhi,"Pusa, Delhi - DPCC",09-04-2024 02:00:00,28.639652,77.146275,NO2,64,170,110
India,Delhi,Delhi,"Pusa, Delhi - IMD",09-04-2024 02:00:00,28.636110,77.173332,PM10,114,322,174
India,Delhi,Delhi,"R K Puram, Delhi - DPCC",09-04-2024 02:00:00,28.563262,77.186937,NH3,3,7,5
India,Delhi,Delhi,"R K Puram, Delhi - DPCC",09-04-2024 02:00:00,28.563262,77.186937,CO,17,133,91
India,Delhi,Delhi,"Shadipur, Delhi - CPCB",09-04-2024 02:00:00,28.6514781,77.1473105,PM10,108,500,245
India,Delhi,Delhi,"Sirifort, Delhi - CPCB",09-04-2024 02:00:00,28.5504249,77.2159377,PM10,86,235,145
India,Delhi,Delhi,"Sirifort, Delhi - CPCB",09-04-2024 02:00:00,28.5504249,77.2159377,NO2,45,78,59
India,Delhi,Delhi,"Sonia Vihar, Delhi - DPCC",09-04-2024 02:00:00,28.710508,77.249485,CO,NA,NA,NA
India,Delhi,Delhi,"Vivek Vihar, Delhi - DPCC",09-04-2024 02:00:00,28.672342,77.315260,SO2,30,101,53
India,Delhi,Delhi,"Wazirpur, Delhi - DPCC",09-04-2024 02:00:00,28.699793,77.165453,PM10,105,417,207
India,Delhi,Delhi,"Wazirpur, Delhi - DPCC",09-04-2024 02:00:00,28.699793,77.165453,OZONE,4,102,22
India,Gujarat,Ahmedabad,"Chandkheda, Ahmedabad - IITM",09-04-2024 02:00:00,23.107969,72.574648,NO2,2,35,26
India,Gujarat,Ahmedabad,"Chandkheda, Ahmedabad - IITM",09-04-2024 02:00:00,23.107969,72.574648,CO,12,108,82
India,Gujarat,Ahmedabad,"Gyaspur, Ahmedabad - IITM",09-04-2024 02:00:00,22.977134,72.553024,PM10,82,227,132
India,Gujarat,Ahmedabad,"Gyaspur, Ahmedabad - IITM",09-04-2024 02:00:00,22.977134,72.553024,NO2,21,69,38
India,Gujarat,Ahmedabad,"Raikhad, Ahmedabad - IITM",09-04-2024 02:00:00,23.020509,72.579261,PM2.5,101,303,186
India,Gujarat,Ahmedabad,"Raikhad, Ahmedabad - IITM",09-04-2024 02:00:00,23.020509,72.579261,SO2,5,21,12
India,Gujarat,Ahmedabad,"Rakhial, Ahmedabad - IITM",09-04-2024 02:00:00,23.016834,72.625775,PM2.5,58,311,109
India,Gujarat,Ahmedabad,"Rakhial, Ahmedabad - IITM",09-04-2024 02:00:00,23.016834,72.625775,SO2,6,101,31
India,Gujarat,Ahmedabad,"SVPI Airport Hansol, Ahmedabad - IITM",09-04-2024 02:00:00,23.076793,72.627874,PM10,83,206,123
India,Gujarat,Ahmedabad,"SVPI Airport Hansol, Ahmedabad - IITM",09-04-2024 02:00:00,23.076793,72.627874,NH3,4,5,4
India,Gujarat,Ahmedabad,"Sardar Vallabhbhai Patel Stadium, Ahmedabad - IITM",09-04-2024 02:00:00,23.043070,72.562968,NH3,7,7,7
India,Gujarat,Ahmedabad,"Sardar Vallabhbhai Patel Stadium, Ahmedabad - IITM",09-04-2024 02:00:00,23.043070,72.562968,SO2,2,29,9
India,Gujarat,Ahmedabad,"Sardar Vallabhbhai Patel Stadium, Ahmedabad - IITM",09-04-2024 02:00:00,23.043070,72.562968,OZONE,2,27,7
India,Gujarat,Ankleshwar,"GIDC, Ankleshwar - GPCB",09-04-2024 02:00:00,21.613267,73.010555,SO2,1,35,15
India,Gujarat,Gandhinagar,"Sector-10, Gandhinagar - GPCB",09-04-2024 02:00:00,23.221714,72.654328,SO2,5,8,6
India,Gujarat,Gandhinagar,"Sector-10, Gandhinagar - GPCB",09-04-2024 02:00:00,23.221714,72.654328,OZONE,3,79,19
India,Gujarat,Nandesari,"GIDC, Nandesari - Nandesari Ind. Association",09-04-2024 02:00:00,22.410802,73.097923,PM2.5,41,359,207
India,Gujarat,Surat,"Science Center, Surat - SMC",09-04-2024 02:00:00,21.170046,72.795405,CO,31,54,39
India,Gujarat,Vapi,"Phase-1 GIDC, Vapi - GPCB",09-04-2024 02:00:00,20.362421,72.918013,NO2,6,7,6
India,Gujarat,Vatva,"Phase-4 GIDC, Vatva - GPCB",09-04-2024 02:00:00,22.969611,72.643500,PM10,60,142,103
India,Gujarat,Vatva,"Phase-4 GIDC, Vatva - GPCB",09-04-2024 02:00:00,22.969611,72.643500,CO,18,18,18
India,Haryana,Ambala,"Patti Mehar, Ambala - HSPCB",09-04-2024 02:00:00,30.379589,76.778328,NO2,8,21,14
India,Haryana,Ballabgarh,"Nathu Colony, Ballabgarh - HSPCB",09-04-2024 02:00:00,28.3419248,77.319699,PM2.5,42,336,207
India,Haryana,Ballabgarh,"Nathu Colony, Ballabgarh - HSPCB",09-04-2024 02:00:00,28.3419248,77.319699,NH3,1,2,2
India,Haryana,Ballabgarh,"Nathu Colony, Ballabgarh - HSPCB",09-04-2024 02:00:00,28.3419248,77.319699,CO,12,124,67
India,Haryana,Ballabgarh,"Nathu Colony, Ballabgarh - HSPCB",09-04-2024 02:00:00,28.3419248,77.319699,OZONE,4,36,9
India,Haryana,Bhiwani,"H.B. Colony, Bhiwani - HSPCB",09-04-2024 02:00:00,28.806223,76.141105,PM2.5,49,239,102
India,Haryana,Bhiwani,"H.B. Colony, Bhiwani - HSPCB",09-04-2024 02:00:00,28.806223,76.141105,NO2,4,10,8
India,Haryana,Bhiwani,"H.B. Colony, Bhiwani - HSPCB",09-04-2024 02:00:00,28.806223,76.141105,SO2,2,18,9
India,Haryana,Bhiwani,"H.B. Colony, Bhiwani - HSPCB",09-04-2024 02:00:00,28.806223,76.141105,CO,16,66,42
India,Haryana,Dharuhera,"Municipal Corporation Office, Dharuhera -  HSPCB",09-04-2024 02:00:00,28.206800,76.799700,OZONE,2,48,12
India,Haryana,Faridabad,"Sector 11, Faridabad - HSPCB",09-04-2024 02:00:00,28.376058,77.315741,NO2,30,32,31
India,Haryana,Faridabad,"Sector 11, Faridabad - HSPCB",09-04-2024 02:00:00,28.376058,77.315741,SO2,3,120,21
India,Haryana,Faridabad,"Sector 30, Faridabad - HSPCB",09-04-2024 02:00:00,28.4417,77.3217,PM2.5,91,108,97
India,Haryana,Faridabad,"Sector 30, Faridabad - HSPCB",09-04-2024 02:00:00,28.4417,77.3217,SO2,12,13,13
India,Haryana,Fatehabad,"Huda Sector, Fatehabad - HSPCB",09-04-2024 02:00:00,29.503664,75.467934,OZONE,85,97,90
India,Haryana,Gurugram,"Teri Gram, Gurugram - HSPCB",09-04-2024 02:00:00,28.4275,77.1465,PM10,122,432,245
India,Haryana,Gurugram,"Teri Gram, Gurugram - HSPCB",09-04-2024 02:00:00,28.4275,77.1465,NH3,45,93,67
India,Haryana,Gurugram,"Vikas Sadan, Gurugram - HSPCB",09-04-2024 02:00:00,28.4501238,77.0263051,CO,54,148,108
India,Haryana,Hisar,"Urban Estate-II, Hisar - HSPCB",09-04-2024 02:00:00,29.140560,75.744941,PM2.5,45,282,97
India,Haryana,Hisar,"Urban Estate-II, Hisar - HSPCB",09-04-2024 02:00:00,29.140560,75.744941,OZONE,5,183,110
India,Haryana,Jind,"Police Lines, Jind - HSPCB",09-04-2024 02:00:00,29.307814,76.337619,NH3,1,5,4
India,Haryana,Kaithal,"Rishi Nagar, Kaithal - HSPCB",09-04-2024 02:00:00,29.8006,76.4155,PM2.5,23,146,57
India,Haryana,Karnal,"Sector-12, Karnal - HSPCB",09-04-2024 02:00:00,29.695300,77.002700,SO2,12,13,13
India,Haryana,Kurukshetra,"Sector-7, Kurukshetra - HSPCB",09-04-2024 02:00:00,29.966942,76.875879,PM10,51,111,74
India,Haryana,Kurukshetra,"Sector-7, Kurukshetra - HSPCB",09-04-2024 02:00:00,29.966942,76.875879,NH3,3,10,5
India,Haryana,Mandikhera,"General Hospital, Mandikhera - HSPCB",09-04-2024 02:00:00,27.9002,76.9938,SO2,30,38,34
India,Haryana,Manesar,"Sector-2 IMT, Manesar - HSPCB",09-04-2024 02:00:00,28.360699,76.936090,SO2,14,24,21
India,Haryana,Narnaul,"Shastri Nagar, Narnaul - HSPCB",09-04-2024 02:00:00,28.060249,76.113115,NH3,4,24,11
India,Haryana,Palwal,"Shyam Nagar, Palwal - HSPCB",09-04-2024 02:00:00,28.1485564,77.3320667,PM2.5,55,90,71
India,Haryana,Palwal,"Shyam Nagar, Palwal - HSPCB",09-04-2024 02:00:00,28.1485564,77.3320667,SO2,1,99,11
India,Haryana,Panchkula,"Sector-6, Panchkula - HSPCB ",09-04-2024 02:00:00,30.7057778,76.8531805555555,SO2,2,14,3
India,Haryana,Panipat,"Sector-18, Panipat - HSPCB",09-04-2024 02:00:00,29.497973,76.993331,NO2,31,32,31
India,Haryana,Panipat,"Sector-18, Panipat - HSPCB",09-04-2024 02:00:00,29.497973,76.993331,OZONE,30,30,30
India,Haryana,Rohtak,"MD University, Rohtak - HSPCB",09-04-2024 02:00:00,28.52123,76.37138,NO2,46,55,51
India,Haryana,Sonipat,"Murthal, Sonipat - HSPCB",09-04-2024 02:00:00,29.027200,77.062100,PM2.5,34,36,35
India,Haryana,Sonipat,"Murthal, Sonipat - HSPCB",09-04-2024 02:00:00,29.027200,77.062100,NH3,7,10,9
India,Haryana,Yamuna Nagar,"Gobind Pura, Yamuna Nagar - HSPCB",09-04-2024 02:00:00,30.1480566,77.2893471,PM2.5,38,141,75
India,Haryana,Yamuna Nagar,"Gobind Pura, Yamuna Nagar - HSPCB",09-04-2024 02:00:00,30.1480566,77.2893471,OZONE,18,40,30
India,Himachal Pradesh,Baddi,"HIMUDA Complex Phase-1, Baddi - HPPCB",09-04-2024 02:00:00,30.943887,76.801991,OZONE,19,151,106
India,Jharkhand,Dhanbad,"Kalakusuma, Dhanbad - DMC",09-04-2024 02:00:00,23.811548,86.481238,PM2.5,2,102,55
India,Jharkhand,Dhanbad,"Kalakusuma, Dhanbad - DMC",09-04-2024 02:00:00,23.811548,86.481238,NO2,13,282,108
India,Jharkhand,Dhanbad,"Sardar Patel Nagar, Dhanbad - JSPCB",09-04-2024 02:00:00,23.80569,86.44268,PM10,NA,NA,NA
India,Jharkhand,Dhanbad,"Sardar Patel Nagar, Dhanbad - JSPCB",09-04-2024 02:00:00,23.80569,86.44268,OZONE,13,33,21
India,Jharkhand,Pathardih,"Mohalbani Ghat, Pathardih - DMC",09-04-2024 02:00:00,23.669880,86.411725,PM10,NA,NA,NA
India,Jharkhand,Pathardih,"Mohalbani Ghat, Pathardih - DMC",09-04-2024 02:00:00,23.669880,86.411725,OZONE,18,32,23
India,Karnataka,Bagalkot,"Vidayagiri, Bagalkot - KSPCB",09-04-2024 02:00:00,16.172806,75.659694,PM10,49,50,50
India,Karnataka,Belgaum,"Ramteerth Nagar, Belgaum - KSPCB",09-04-2024 02:00:00,15.888653,74.541751,PM2.5,20,44,34
India,Karnataka,Belgaum,"Ramteerth Nagar, Belgaum - KSPCB",09-04-2024 02:00:00,15.888653,74.541751,NH3,34,34,34
