country,state,city,station,last_update,latitude,longitude,pollutant_id,pollutant_min,pollutant_max,pollutant_avg
India,Andhra_Pradesh,Amaravati,"Secretariat, Amaravati - APPCB",05-04-2024 12:00:00,16.5150833,80.5181667,NO2,3,13,7
India,Andhra_Pradesh,Anantapur,"Gulzarpet, Anantapur - APPCB",05-04-2024 12:00:00,14.675886,77.593027,SO2,2,19,5
India,Andhra_Pradesh,Anantapur,"Gulzarpet, Anantapur - APPCB",05-04-2024 12:00:00,14.675886,77.593027,OZONE,8,57,24
India,Andhra_Pradesh,Tirupati,"Tirumala, Tirupati - APPCB",05-04-2024 12:00:00,13.67,79.35,CO,2,58,17
India,Andhra_Pradesh,Tirupati,"Vaikuntapuram, Tirupati - APPCB",05-04-2024 12:00:00,13.615387,79.409230,CO,10,16,13
India,Andhra_Pradesh,Vijayawada,"HB Colony, Vijayawada - APPCB",05-04-2024 12:00:00,16.536107,80.594233,OZONE,3,28,13
India,Andhra_Pradesh,Vijayawada,"Kanuru, Vijayawada - APPCB",05-04-2024 12:00:00,16.486692,80.699436,NO2,NA,NA,NA
India,Andhra_Pradesh,Vijayawada,"Rajiv Gandhi Park, Vijayawada - APPCB",05-04-2024 12:00:00,16.509717,80.612222,PM2.5,28,85,47
India,Andhra_Pradesh,Vijayawada,"Rajiv Nagar, Vijayawada - APPCB",05-04-2024 12:00:00,16.554731,80.649110,CO,44,44,44
India,Andhra_Pradesh,Visakhapatnam,"GVM Corporation, Visakhapatnam - APPCB",05-04-2024 12:00:00,17.72,83.3,NO2,24,72,41
India,Andhra_Pradesh,Visakhapatnam,"GVM Corporation, Visakhapatnam - APPCB",05-04-2024 12:00:00,17.72,83.3,SO2,10,17,13
India,Arunachal_Pradesh,Naharlagun,"Naharlagun, Naharlagun - APSPCB",05-04-2024 12:00:00,27.103358,93.679645,NO2,3,3,3
India,Assam,Byrnihat,"Central Academy for SFS, Byrnihat - PCBA",05-04-2024 12:00:00,26.071318,91.87488,CO,34,85,57
India,Assam,Guwahati,"IITG, Guwahati - PCBA",05-04-2024 12:00:00,26.2028636,91.70046436,NO2,1,1,1
India,Assam,Guwahati,"IITG, Guwahati - PCBA",05-04-2024 12:00:00,26.2028636,91.70046436,OZONE,13,44,17
India,Assam,Guwahati,"LGBI Airport, Guwahati - PCBA",05-04-2024 12:00:00,26.10887,91.589544,NH3,3,8,6
India,Assam,Guwahati,"Pan Bazaar, Guwahati - PCBA",05-04-2024 12:00:00,26.187500,91.744194,CO,20,30,26
India,Assam,Guwahati,"Railway Colony, Guwahati - PCBA",05-04-2024 12:00:00,26.181742,91.78063,NO2,3,4,3
India,Assam,Nalbari,"Bata Chowk, Nalbari - PCBA",05-04-2024 12:00:00,26.446912,91.439057,NH3,1,2,2
India,Assam,Nalbari,"Bata Chowk, Nalbari - PCBA",05-04-2024 12:00:00,26.446912,91.439057,CO,6,104,58
India,Assam,Silchar,"Tarapur, Silchar - PCBA",05-04-2024 12:00:00,24.82827,92.79525,CO,24,46,30
India,Assam,Sivasagar,"Girls College, Sivasagar - PCBA",05-04-2024 12:00:00,26.987634,94.636574,PM2.5,21,56,44
India,Assam,Sivasagar,"Girls College, Sivasagar - PCBA",05-04-2024 12:00:00,26.987634,94.636574,NH3,1,2,1
India,Assam,Sivasagar,"Girls College, Sivasagar - PCBA",05-04-2024 12:00:00,26.987634,94.636574,SO2,3,4,4
India,Assam,Sivasagar,"Girls College, Sivasagar - PCBA",05-04-2024 12:00:00,26.987634,94.636574,CO,6,10,8
India,Bihar,Araria,"Kharahiya Basti, Araria - BSPCB",05-04-2024 12:00:00,26.146529,87.454184,NH3,7,7,7
India,Bihar,Araria,"Kharahiya Basti, Araria - BSPCB",05-04-2024 12:00:00,26.146529,87.454184,OZONE,5,10,10
India,Bihar,Aurangabad,"Gurdeo Nagar, Aurangabad - BSPCB",05-04-2024 12:00:00,24.75746,84.366208,PM2.5,43,325,108
India,Bihar,Bettiah,"Kamalnath Nagar, Bettiah - BSPCB",05-04-2024 12:00:00,26.80365,84.51954,NO2,NA,NA,NA
India,Bihar,Bettiah,"Kamalnath Nagar, Bettiah - BSPCB",05-04-2024 12:00:00,26.80365,84.51954,NH3,3,3,3
India,Bihar,Bhagalpur,"Mayaganj, Bhagalpur - BSPCB",05-04-2024 12:00:00,25.265194,87.012947,PM2.5,NA,NA,NA
India,Bihar,Bhagalpur,"Mayaganj, Bhagalpur - BSPCB",05-04-2024 12:00:00,25.265194,87.012947,NO2,2,11,6
India,Bihar,Bhagalpur,"Mayaganj, Bhagalpur - BSPCB",05-04-2024 12:00:00,25.265194,87.012947,CO,8,10,9
India,Bihar,Bihar Sharif,"D M Colony, Bihar Sharif - BSPCB",05-04-2024 12:00:00,25.204762,85.514960,PM2.5,45,167,86
India,Bihar,Bihar Sharif,"D M Colony, Bihar Sharif - BSPCB",05-04-2024 12:00:00,25.204762,85.514960,NO2,8,10,9
India,Bihar,Bihar Sharif,"D M Colony, Bihar Sharif - BSPCB",05-04-2024 12:00:00,25.204762,85.514960,OZONE,7,102,12
India,Bihar,Buxar,"Charitra Van, Buxar - BSPCB (Formerly known as Central Jail)",05-04-2024 12:00:00,25.567520,83.966379,PM10,NA,NA,NA
India,Bihar,Buxar,"Charitra Van, Buxar - BSPCB (Formerly known as Central Jail)",05-04-2024 12:00:00,25.567520,83.966379,NO2,46,313,92
India,Bihar,Buxar,"Charitra Van, Buxar - BSPCB (Formerly known as Central Jail)",05-04-2024 12:00:00,25.567520,83.966379,OZONE,6,168,152
India,Bihar,Chhapra,"Darshan Nagar, Chhapra - BSPCB",05-04-2024 12:00:00,25.7808257,84.7446768,NO2,20,30,26
India,Bihar,Gaya,"Kareemganj, Gaya - BSPCB",05-04-2024 12:00:00,24.792403,84.992416,PM10,60,189,117
India,Bihar,Gaya,"Kareemganj, Gaya - BSPCB",05-04-2024 12:00:00,24.792403,84.992416,NH3,1,5,3
India,Bihar,Gaya,"Kareemganj, Gaya - BSPCB",05-04-2024 12:00:00,24.792403,84.992416,CO,2,102,45
India,Bihar,Gaya,"SFTI Kusdihra, Gaya - BSPCB",05-04-2024 12:00:00,24.762518,84.982348,NO2,23,87,45
India,Bihar,Hajipur,"Industrial Area, Hajipur - BSPCB",05-04-2024 12:00:00,25.697189,85.245900,SO2,6,8,7
India,Bihar,Hajipur,"Industrial Area, Hajipur - BSPCB",05-04-2024 12:00:00,25.697189,85.245900,CO,30,84,47
India,Bihar,Katihar,"Mirchaibari, Katihar - BSPCB",05-04-2024 12:00:00,25.560083,87.553265,NH3,7,9,8
India,Bihar,Kishanganj,"SDM Office_Khagra, Kishanganj - BSPCB",05-04-2024 12:00:00,26.0881305,87.93840336,PM2.5,52,140,92
India,Bihar,Kishanganj,"SDM Office_Khagra, Kishanganj - BSPCB",05-04-2024 12:00:00,26.0881305,87.93840336,OZONE,6,34,12
India,Bihar,Manguraha,"Forest Rest House, Manguraha - BSPCB",05-04-2024 12:00:00,27.308328,84.531742,PM2.5,25,260,89
India,Bihar,Manguraha,"Forest Rest House, Manguraha - BSPCB",05-04-2024 12:00:00,27.308328,84.531742,OZONE,11,138,39
India,Bihar,Motihari,"Gandak Colony, Motihari - BSPCB",05-04-2024 12:00:00,26.63086,84.90051,PM2.5,23,73,48
India,Bihar,Motihari,"Gandak Colony, Motihari - BSPCB",05-04-2024 12:00:00,26.63086,84.90051,SO2,5,17,8
India,Bihar,Munger,"Town Hall, Munger - BSPCB",05-04-2024 12:00:00,25.376776,86.471523,NH3,1,2,2
India,Bihar,Muzaffarpur,"Buddha Colony, Muzaffarpur - BSPCB",05-04-2024 12:00:00,26.11442,85.39813,PM10,137,266,208
India,Bihar,Muzaffarpur,"Buddha Colony, Muzaffarpur - BSPCB",05-04-2024 12:00:00,26.11442,85.39813,NH3,5,8,6
India,Bihar,Muzaffarpur,"Buddha Colony, Muzaffarpur - BSPCB",05-04-2024 12:00:00,26.11442,85.39813,CO,24,78,49
India,Bihar,Muzaffarpur,"MIT-Daudpur Kothi, Muzaffarpur - BSPCB",05-04-2024 12:00:00,26.1403345,85.3650192,PM2.5,207,358,292
India,Bihar,Muzaffarpur,"MIT-Daudpur Kothi, Muzaffarpur - BSPCB",05-04-2024 12:00:00,26.1403345,85.3650192,CO,20,80,38
India,Bihar,Muzaffarpur,"Muzaffarpur Collectorate, Muzaffarpur - BSPCB",05-04-2024 12:00:00,26.1209,85.3647,SO2,8,21,15
India,Bihar,Patna,"DRM Office Danapur, Patna - BSPCB",05-04-2024 12:00:00,25.586562,85.043586,SO2,NA,NA,NA
India,Bihar,Patna,"DRM Office Danapur, Patna - BSPCB",05-04-2024 12:00:00,25.586562,85.043586,CO,19,60,39
India,Bihar,Patna,"Govt. High School Shikarpur, Patna - BSPCB",05-04-2024 12:00:00,25.592539,85.227158,NO2,19,28,22
India,Bihar,Patna,"IGSC Planetarium Complex, Patna - BSPCB",05-04-2024 12:00:00,25.610369,85.132568,PM2.5,37,278,171
India,Bihar,Patna,"IGSC Planetarium Complex, Patna - BSPCB",05-04-2024 12:00:00,25.610369,85.132568,NO2,11,11,11
India,Bihar,Patna,"Muradpur, Patna - BSPCB",05-04-2024 12:00:00,25.619651,85.147382,SO2,NA,NA,NA
India,Bihar,Patna,"Muradpur, Patna - BSPCB",05-04-2024 12:00:00,25.619651,85.147382,OZONE,NA,NA,NA
India,Bihar,Patna,"Rajbansi Nagar, Patna - BSPCB",05-04-2024 12:00:00,25.599486,85.113666,SO2,4,25,13
India,Bihar,Rajgir,"Dangi Tola, Rajgir - BSPCB",05-04-2024 12:00:00,25.03280,85.41948,PM2.5,NA,NA,NA
India,Bihar,Rajgir,"Dangi Tola, Rajgir - BSPCB",05-04-2024 12:00:00,25.03280,85.41948,PM10,NA,NA,NA
India,Bihar,Rajgir,"Dangi Tola, Rajgir - BSPCB",05-04-2024 12:00:00,25.03280,85.41948,NO2,1,1,1
India,Bihar,Saharsa,"Police Line, Saharsa - BSPCB",05-04-2024 12:00:00,25.892357,86.590325,PM2.5,33,325,145
India,Bihar,Saharsa,"Police Line, Saharsa - BSPCB",05-04-2024 12:00:00,25.892357,86.590325,SO2,16,16,16
India,Bihar,Saharsa,"Police Line, Saharsa - BSPCB",05-04-2024 12:00:00,25.892357,86.590325,CO,12,80,29
India,Bihar,Samastipur,"DM Office_Kasipur, Samastipur - BSPCB",05-04-2024 12:00:00,25.859655,85.77944,PM2.5,45,314,170
India,Bihar,Samastipur,"DM Office_Kasipur, Samastipur - BSPCB",05-04-2024 12:00:00,25.859655,85.77944,NH3,3,5,4
India,Bihar,Samastipur,"DM Office_Kasipur, Samastipur - BSPCB",05-04-2024 12:00:00,25.859655,85.77944,CO,16,38,30
India,Bihar,Sasaram,"Dada Peer, Sasaram - BSPCB",05-04-2024 12:00:00,24.952822,84.002396,PM2.5,8,82,43
India,Bihar,Sasaram,"Dada Peer, Sasaram - BSPCB",05-04-2024 12:00:00,24.952822,84.002396,PM10,81,178,112
India,Chandigarh,Chandigarh,"Sector 22, Chandigarh - CPCC",05-04-2024 12:00:00,30.735567,76.775714,PM2.5,35,103,71
India,Chandigarh,Chandigarh,"Sector-25, Chandigarh - CPCC",05-04-2024 12:00:00,30.751462,76.762879,SO2,8,21,12
India,Chandigarh,Chandigarh,"Sector-53, Chandigarh - CPCC",05-04-2024 12:00:00,30.719859,76.738637,NH3,4,7,5
India,Chandigarh,Chandigarh,"Sector-53, Chandigarh - CPCC",05-04-2024 12:00:00,30.719859,76.738637,CO,37,70,52
India,Chhattisgarh,Bhilai,"32Bungalows, Bhilai - CECB",05-04-2024 12:00:00,21.194815,81.314770,NH3,6,7,7
India,Chhattisgarh,Chhal,"Nawapara SECL Colony, Chhal - CECB",05-04-2024 12:00:00,22.118125,83.140608,PM10,104,228,147
India,Chhattisgarh,Korba,"Rampur, Korba - CECB",05-04-2024 12:00:00,22.368195,82.746431,OZONE,2,46,4
India,Chhattisgarh,Korba,"Urja Nagar, Korba - CECB",05-04-2024 12:00:00,22.348441,82.549611,PM2.5,55,287,141
India,Chhattisgarh,Kunjemura,"OP Jindal School, Kunjemura - CECB",05-04-2024 12:00:00,22.126650,83.483212,PM10,84,400,170
India,Chhattisgarh,Kunjemura,"OP Jindal School, Kunjemura - CECB",05-04-2024 12:00:00,22.126650,83.483212,NH3,1,7,2
India,Chhattisgarh,Kunjemura,"OP Jindal School, Kunjemura - CECB",05-04-2024 12:00:00,22.126650,83.483212,SO2,2,20,10
India,Chhattisgarh,Milupara,"Govt. Higher Secondary School, Milupara - CECB",05-04-2024 12:00:00,22.1910172,83.5197009,NH3,1,2,1
India,Chhattisgarh,Raipur,"AIIMS, Raipur - CECB",05-04-2024 12:00:00,21.258815,81.578979,PM10,52,104,83
India,Chhattisgarh,Raipur,"AIIMS, Raipur - CECB",05-04-2024 12:00:00,21.258815,81.578979,OZONE,3,32,11
India,Chhattisgarh,Raipur,"Bhatagaon New ISBT, Raipur - CECB",05-04-2024 12:00:00,21.219665,81.630094,SO2,1,3,2
India,Chhattisgarh,Raipur,"Krishak Nagar, Raipur - CECB",05-04-2024 12:00:00,21.237755,81.705301,PM10,53,108,71
India,Chhattisgarh,Raipur,"Krishak Nagar, Raipur - CECB",05-04-2024 12:00:00,21.237755,81.705301,NO2,20,48,33
India,Chhattisgarh,Raipur,"Krishak Nagar, Raipur - CECB",05-04-2024 12:00:00,21.237755,81.705301,SO2,15,27,20
India,Chhattisgarh,Tumidih,"OP Jindal Industrial Park, Tumidih - CECB",05-04-2024 12:00:00,22.06631475,83.33820077,PM10,NA,NA,NA
India,Delhi,Delhi,"Alipur, Delhi - DPCC",05-04-2024 12:00:00,28.815329,77.153010,PM10,65,413,145
India,Delhi,Delhi,"Anand Vihar, Delhi - DPCC",05-04-2024 12:00:00,28.647622,77.3158090,NH3,1,6,3
India,Delhi,Delhi,"Ashok Vihar, Delhi - DPCC",05-04-2024 12:00:00,28.695381,77.181665,OZONE,2,21,6
India,Delhi,Delhi,"Aya Nagar, Delhi - IMD",05-04-2024 12:00:00,28.4706914,77.1099364,PM2.5,66,246,130
India,Delhi,Delhi,"Aya Nagar, Delhi - IMD",05-04-2024 12:00:00,28.4706914,77.1099364,NO2,58,72,62
India,Delhi,Delhi,"Bawana, Delhi - DPCC",05-04-2024 12:00:00,28.776200,77.051074,SO2,10,51,19
India,Delhi,Delhi,"Burari Crossing, Delhi - IMD",05-04-2024 12:00:00,28.7256504,77.2011573,CO,26,47,37
India,Delhi,Delhi,"CRRI Mathura Road, Delhi - IMD",05-04-2024 12:00:00,28.5512005,77.2735737,PM2.5,51,434,144
India,Delhi,Delhi,"CRRI Mathura Road, Delhi - IMD",05-04-2024 12:00:00,28.5512005,77.2735737,CO,14,111,55
India,Delhi,Delhi,"DTU, Delhi - CPCB",05-04-2024 12:00:00,28.7500499,77.1112615,CO,16,57,34
India,Delhi,Delhi,"Dr. Karni Singh Shooting Range, Delhi - DPCC",05-04-2024 12:00:00,28.498571,77.264840,PM10,97,261,146
India,Delhi,Delhi,"Dwarka-Sector 8, Delhi - DPCC ",05-04-2024 12:00:00,28.5710274,77.0719006,PM2.5,43,309,135
India,Delhi,Delhi,"ITO, Delhi - CPCB",05-04-2024 12:00:00,28.628624,77.241060,CO,29,109,43
India,Delhi,Delhi,"Jahangirpuri, Delhi - DPCC",05-04-2024 12:00:00,28.732820,77.170633,NO2,10,142,68
India,Delhi,Delhi,"Jahangirpuri, Delhi - DPCC",05-04-2024 12:00:00,28.732820,77.170633,SO2,4,96,39
India,Delhi,Delhi,"Jawaharlal Nehru Stadium, Delhi - DPCC",05-04-2024 12:00:00,28.580280,77.233829,PM2.5,24,130,69
India,Delhi,Delhi,"Lodhi Road, Delhi - IITM",05-04-2024 12:00:00,28.588333,77.221667,NH3,7,12,9
India,Delhi,Delhi,"Lodhi Road, Delhi - IITM",05-04-2024 12:00:00,28.588333,77.221667,SO2,13,43,29
India,Delhi,Delhi,"Lodhi Road, Delhi - IITM",05-04-2024 12:00:00,28.588333,77.221667,CO,58,66,63
India,Delhi,Delhi,"Lodhi Road, Delhi - IMD",05-04-2024 12:00:00,28.5918245,77.2273074,PM10,77,142,117
India,Delhi,Delhi,"Mandir Marg, Delhi - DPCC",05-04-2024 12:00:00,28.636429,77.201067,PM10,64,146,107
India,Delhi,Delhi,"Mundka, Delhi - DPCC",05-04-2024 12:00:00,28.684678,77.076574,NH3,5,7,6
India,Delhi,Delhi,"Mundka, Delhi - DPCC",05-04-2024 12:00:00,28.684678,77.076574,OZONE,18,157,93
India,Delhi,Delhi,"NSIT Dwarka, Delhi - CPCB",05-04-2024 12:00:00,28.60909,77.0325413,OZONE,6,79,28
India,Delhi,Delhi,"Najafgarh, Delhi - DPCC",05-04-2024 12:00:00,28.570173,76.933762,PM10,58,233,133
India,Delhi,Delhi,"Najafgarh, Delhi - DPCC",05-04-2024 12:00:00,28.570173,76.933762,NH3,1,7,4
India,Delhi,Delhi,"Najafgarh, Delhi - DPCC",05-04-2024 12:00:00,28.570173,76.933762,CO,1,72,48
India,Delhi,Delhi,"Narela, Delhi - DPCC",05-04-2024 12:00:00,28.822836,77.101981,NO2,6,91,36
India,Delhi,Delhi,"Nehru Nagar, Delhi - DPCC",05-04-2024 12:00:00,28.567890,77.250515,NH3,8,11,9
India,Delhi,Delhi,"New Moti Bagh, Delhi - MHUA",05-04-2024 12:00:00,28.57834,77.18400,NO2,1,35,14
India,Delhi,Delhi,"New Moti Bagh, Delhi - MHUA",05-04-2024 12:00:00,28.57834,77.18400,CO,11,110,44
India,Delhi,Delhi,"Okhla Phase-2, Delhi - DPCC",05-04-2024 12:00:00,28.530785,77.271255,NH3,7,11,8
India,Delhi,Delhi,"Patparganj, Delhi - DPCC",05-04-2024 12:00:00,28.623763,77.287209,NO2,26,99,49
India,Delhi,Delhi,"Patparganj, Delhi - DPCC",05-04-2024 12:00:00,28.623763,77.287209,SO2,16,21,19
India,Delhi,Delhi,"Patparganj, Delhi - DPCC",05-04-2024 12:00:00,28.623763,77.287209,OZONE,5,147,44
India,Delhi,Delhi,"Pusa, Delhi - DPCC",05-04-2024 12:00:00,28.639652,77.146275,PM2.5,32,198,85
India,Delhi,Delhi,"Pusa, Delhi - IMD",05-04-2024 12:00:00,28.636110,77.173332,PM10,106,225,157
India,Delhi,Delhi,"Pusa, Delhi - IMD",05-04-2024 12:00:00,28.636110,77.173332,CO,64,102,79
India,Delhi,Delhi,"Pusa, Delhi - IMD",05-04-2024 12:00:00,28.636110,77.173332,OZONE,3,55,19
India,Delhi,Delhi,"R K Puram, Delhi - DPCC",05-04-2024 12:00:00,28.563262,77.186937,SO2,2,48,18
India,Delhi,Delhi,"Rohini, Delhi - DPCC",05-04-2024 12:00:00,28.732528,77.119920,NO2,9,120,42
India,Delhi,Delhi,"Rohini, Delhi - DPCC",05-04-2024 12:00:00,28.732528,77.119920,NH3,8,12,9
India,Delhi,Delhi,"Sirifort, Delhi - CPCB",05-04-2024 12:00:00,28.5504249,77.2159377,NH3,2,16,10
India,Delhi,Delhi,"Sonia Vihar, Delhi - DPCC",05-04-2024 12:00:00,28.710508,77.249485,OZONE,9,65,28
India,Delhi,Delhi,"Sri Aurobindo Marg, Delhi - DPCC",05-04-2024 12:00:00,28.531346,77.190156,PM10,92,256,148
India,Delhi,Delhi,"Sri Aurobindo Marg, Delhi - DPCC",05-04-2024 12:00:00,28.531346,77.190156,NH3,6,9,7
India,Delhi,Delhi,"Wazirpur, Delhi - DPCC",05-04-2024 12:00:00,28.699793,77.165453,SO2,12,98,38
India,Delhi,Delhi,"Wazirpur, Delhi - DPCC",05-04-2024 12:00:00,28.699793,77.165453,OZONE,4,111,36
India,Gujarat,Ahmedabad,"Chandkheda, Ahmedabad - IITM",05-04-2024 12:00:00,23.107969,72.574648,PM10,75,136,102
India,Gujarat,Ahmedabad,"Chandkheda, Ahmedabad - IITM",05-04-2024 12:00:00,23.107969,72.574648,NO2,32,36,33
India,Gujarat,Ahmedabad,"Chandkheda, Ahmedabad - IITM",05-04-2024 12:00:00,23.107969,72.574648,CO,57,86,66
India,Gujarat,Ahmedabad,"Gyaspur, Ahmedabad - IITM",05-04-2024 12:00:00,22.977134,72.553024,NO2,17,79,48
India,Gujarat,Ahmedabad,"Raikhad, Ahmedabad - IITM",05-04-2024 12:00:00,23.020509,72.579261,OZONE,8,32,17
India,Gujarat,Ahmedabad,"Rakhial, Ahmedabad - IITM",05-04-2024 12:00:00,23.016834,72.625775,NH3,6,21,10
India,Gujarat,Ahmedabad,"Rakhial, Ahmedabad - IITM",05-04-2024 12:00:00,23.016834,72.625775,OZONE,7,45,17
India,Gujarat,Ahmedabad,"Sardar Vallabhbhai Patel Stadium, Ahmedabad - IITM",05-04-2024 12:00:00,23.043070,72.562968,PM2.5,60,95,75
India,Gujarat,Ankleshwar,"GIDC, Ankleshwar - GPCB",05-04-2024 12:00:00,21.613267,73.010555,PM2.5,39,78,63
India,Gujarat,Ankleshwar,"GIDC, Ankleshwar - GPCB",05-04-2024 12:00:00,21.613267,73.010555,NO2,35,35,35
India,Gujarat,Ankleshwar,"GIDC, Ankleshwar - GPCB",05-04-2024 12:00:00,21.613267,73.010555,SO2,10,132,38
India,Gujarat,Gandhinagar,"IIPHG Lekawada, Gandhinagar - IITM",05-04-2024 12:00:00,23.243639,72.68994,PM2.5,47,86,64
India,Gujarat,Gandhinagar,"Sector-10, Gandhinagar - GPCB",05-04-2024 12:00:00,23.221714,72.654328,SO2,4,7,6
India,Gujarat,Gandhinagar,"Sector-10, Gandhinagar - GPCB",05-04-2024 12:00:00,23.221714,72.654328,OZONE,22,23,22
India,Gujarat,Nandesari,"GIDC, Nandesari - Nandesari Ind. Association",05-04-2024 12:00:00,22.410802,73.097923,NO2,10,134,34
India,Gujarat,Surat,"Science Center, Surat - SMC",05-04-2024 12:00:00,21.170046,72.795405,PM2.5,5,27,14
India,Gujarat,Surat,"Science Center, Surat - SMC",05-04-2024 12:00:00,21.170046,72.795405,CO,28,57,33
India,Haryana,Ambala,"Patti Mehar, Ambala - HSPCB",05-04-2024 12:00:00,30.379589,76.778328,PM2.5,27,57,42
India,Haryana,Ambala,"Patti Mehar, Ambala - HSPCB",05-04-2024 12:00:00,30.379589,76.778328,CO,30,60,53
India,Haryana,Bahadurgarh,"Arya Nagar, Bahadurgarh - HSPCB",05-04-2024 12:00:00,28.6701,76.9254,PM2.5,10,78,39
India,Haryana,Bahadurgarh,"Arya Nagar, Bahadurgarh - HSPCB",05-04-2024 12:00:00,28.6701,76.9254,OZONE,39,49,44
India,Haryana,Ballabgarh,"Nathu Colony, Ballabgarh - HSPCB",05-04-2024 12:00:00,28.3419248,77.319699,PM10,121,228,168
India,Haryana,Ballabgarh,"Nathu Colony, Ballabgarh - HSPCB",05-04-2024 12:00:00,28.3419248,77.319699,NO2,12,13,13
India,Haryana,Ballabgarh,"Nathu Colony, Ballabgarh - HSPCB",05-04-2024 12:00:00,28.3419248,77.319699,NH3,1,2,2
India,Haryana,Ballabgarh,"Nathu Colony, Ballabgarh - HSPCB",05-04-2024 12:00:00,28.3419248,77.319699,SO2,8,31,17
India,Haryana,Dharuhera,"Municipal Corporation Office, Dharuhera -  HSPCB",05-04-2024 12:00:00,28.206800,76.799700,PM2.5,33,176,109
India,Haryana,Dharuhera,"Municipal Corporation Office, Dharuhera -  HSPCB",05-04-2024 12:00:00,28.206800,76.799700,PM10,85,291,179
India,Haryana,Faridabad,"Sector 11, Faridabad - HSPCB",05-04-2024 12:00:00,28.376058,77.315741,PM10,74,392,221
India,Haryana,Faridabad,"Sector 11, Faridabad - HSPCB",05-04-2024 12:00:00,28.376058,77.315741,NH3,6,6,6
India,Haryana,Faridabad,"Sector 11, Faridabad - HSPCB",05-04-2024 12:00:00,28.376058,77.315741,CO,6,72,41
India,Haryana,Faridabad,"Sector 30, Faridabad - HSPCB",05-04-2024 12:00:00,28.4417,77.3217,OZONE,10,10,10
India,Haryana,Faridabad,"Sector- 16A, Faridabad - HSPCB",05-04-2024 12:00:00,28.4088421,77.3099081,CO,6,104,38
India,Haryana,Fatehabad,"Huda Sector, Fatehabad - HSPCB",05-04-2024 12:00:00,29.503664,75.467934,NO2,23,41,37
India,Haryana,Fatehabad,"Huda Sector, Fatehabad - HSPCB",05-04-2024 12:00:00,29.503664,75.467934,SO2,10,11,11
India,Haryana,Gurugram,"Sector-51, Gurugram - HSPCB",05-04-2024 12:00:00,28.4227,77.0667,NH3,6,14,9
India,Haryana,Gurugram,"Sector-51, Gurugram - HSPCB",05-04-2024 12:00:00,28.4227,77.0667,SO2,3,4,4
India,Haryana,Gurugram,"Sector-51, Gurugram - HSPCB",05-04-2024 12:00:00,28.4227,77.0667,CO,28,81,49
India,Haryana,Gurugram,"Sector-51, Gurugram - HSPCB",05-04-2024 12:00:00,28.4227,77.0667,OZONE,27,67,46
India,Haryana,Gurugram,"Vikas Sadan, Gurugram - HSPCB",05-04-2024 12:00:00,28.4501238,77.0263051,PM2.5,58,290,170
India,Haryana,Hisar,"Urban Estate-II, Hisar - HSPCB",05-04-2024 12:00:00,29.140560,75.744941,PM2.5,35,73,55
India,Haryana,Jind,"Police Lines, Jind - HSPCB",05-04-2024 12:00:00,29.307814,76.337619,PM2.5,24,71,42
India,Haryana,Jind,"Police Lines, Jind - HSPCB",05-04-2024 12:00:00,29.307814,76.337619,PM10,49,103,64
India,Haryana,Kaithal,"Rishi Nagar, Kaithal - HSPCB",05-04-2024 12:00:00,29.8006,76.4155,NH3,8,8,8
India,Haryana,Karnal,"Sector-12, Karnal - HSPCB",05-04-2024 12:00:00,29.695300,77.002700,PM2.5,27,53,36
India,Haryana,Kurukshetra,"Sector-7, Kurukshetra - HSPCB",05-04-2024 12:00:00,29.966942,76.875879,PM2.5,45,128,78
India,Haryana,Mandikhera,"General Hospital, Mandikhera - HSPCB",05-04-2024 12:00:00,27.9002,76.9938,SO2,32,39,35
India,Haryana,Mandikhera,"General Hospital, Mandikhera - HSPCB",05-04-2024 12:00:00,27.9002,76.9938,CO,6,26,24
India,Haryana,Mandikhera,"General Hospital, Mandikhera - HSPCB",05-04-2024 12:00:00,27.9002,76.9938,OZONE,24,33,28
India,Haryana,Manesar,"Sector-2 IMT, Manesar - HSPCB",05-04-2024 12:00:00,28.360699,76.936090,PM10,39,102,78
India,Haryana,Manesar,"Sector-2 IMT, Manesar - HSPCB",05-04-2024 12:00:00,28.360699,76.936090,CO,17,38,32
India,Haryana,Panipat,"Sector-18, Panipat - HSPCB",05-04-2024 12:00:00,29.497973,76.993331,NO2,31,32,31
India,Haryana,Rohtak,"MD University, Rohtak - HSPCB",05-04-2024 12:00:00,28.52123,76.37138,NO2,47,56,50
India,Haryana,Rohtak,"MD University, Rohtak - HSPCB",05-04-2024 12:00:00,28.52123,76.37138,CO,17,106,43
India,Haryana,Sirsa,"F-Block, Sirsa - HSPCB",05-04-2024 12:00:00,29.536400,75.015800,NO2,10,10,10
India,Haryana,Yamuna Nagar,"Gobind Pura, Yamuna Nagar - HSPCB",05-04-2024 12:00:00,30.1480566,77.2893471,PM2.5,49,85,64
India,Haryana,Yamuna Nagar,"Gobind Pura, Yamuna Nagar - HSPCB",05-04-2024 12:00:00,30.1480566,77.2893471,CO,28,64,53
India,Himachal Pradesh,Baddi,"HIMUDA Complex Phase-1, Baddi - HPPCB",05-04-2024 12:00:00,30.943887,76.801991,PM2.5,17,243,64
India,Himachal Pradesh,Baddi,"HIMUDA Complex Phase-1, Baddi - HPPCB",05-04-2024 12:00:00,30.943887,76.801991,NO2,13,50,25
India,Himachal Pradesh,Baddi,"HIMUDA Complex Phase-1, Baddi - HPPCB",05-04-2024 12:00:00,30.943887,76.801991,NH3,2,5,4
India,Jharkhand,Dhanbad,"Kalakusuma, Dhanbad - DMC",05-04-2024 12:00:00,23.811548,86.481238,CO,128,137,134
India,Jharkhand,Dhanbad,"Sardar Patel Nagar, Dhanbad - JSPCB",05-04-2024 12:00:00,23.80569,86.44268,CO,102,192,18
India,Jharkhand,Pathardih,"Mohalbani Ghat, Pathardih - DMC",05-04-2024 12:00:00,23.669880,86.411725,PM2.5,NA,NA,NA
India,Jharkhand,Pathardih,"Mohalbani Ghat, Pathardih - DMC",05-04-2024 12:00:00,23.669880,86.411725,NO2,NA,NA,NA
India,Karnataka,Bagalkot,"Vidayagiri, Bagalkot - KSPCB",05-04-2024 12:00:00,16.172806,75.659694,NH3,1,2,1
India,Karnataka,Belgaum,"Ramteerth Nagar, Belgaum - KSPCB",05-04-2024 12:00:00,15.888653,74.541751,PM10,35,91,47
India,Karnataka,Bengaluru,"BTM Layout, Bengaluru - CPCB",05-04-2024 12:00:00,12.9135218,77.5950804,PM10,32,172,60
India,Karnataka,Bengaluru,"BTM Layout, Bengaluru - CPCB",05-04-2024 12:00:00,12.9135218,77.5950804,CO,43,44,44
India,Karnataka,Bengaluru,"Bapuji Nagar, Bengaluru - KSPCB",05-04-2024 12:00:00,12.951913,77.539784,NO2,8,14,11
India,Karnataka,Bengaluru,"Jayanagar 5th Block, Bengaluru - KSPCB",05-04-2024 12:00:00,12.920984,77.584908,PM2.5,36,84,60
India,Karnataka,Bengaluru,"Jayanagar 5th Block, Bengaluru - KSPCB",05-04-2024 12:00:00,12.920984,77.584908,PM10,42,187,94
India,Karnataka,Bengaluru,"Jigani, Bengaluru - KSPCB",05-04-2024 12:00:00,12.7816279,77.6299145,PM2.5,14,235,47
India,Karnataka,Bengaluru,"Jigani, Bengaluru - KSPCB",05-04-2024 12:00:00,12.7816279,77.6299145,OZONE,18,71,34
India,Karnataka,Bengaluru,"Kasturi Nagar, Bengaluru - KSPCB",05-04-2024 12:00:00,13.003872,77.664217,SO2,10,10,10
India,Karnataka,Bengaluru,"RVCE-Mailasandra, Bengaluru - KSPCB",05-04-2024 12:00:00,12.921418,77.502466,PM10,73,116,96
India,Karnataka,Bengaluru,"RVCE-Mailasandra, Bengaluru - KSPCB",05-04-2024 12:00:00,12.921418,77.502466,SO2,8,13,10
India,Karnataka,Bengaluru,"Shivapura_Peenya, Bengaluru - KSPCB",05-04-2024 12:00:00,13.0246342,77.5080115,PM10,44,106,65
India,Karnataka,Bengaluru,"Shivapura_Peenya, Bengaluru - KSPCB",05-04-2024 12:00:00,13.0246342,77.5080115,OZONE,53,56,54
India,Karnataka,Bidar,"Naubad, Bidar - KSPCB",05-04-2024 12:00:00,17.930306,77.482194,PM2.5,69,121,88
India,Karnataka,Bidar,"Naubad, Bidar - KSPCB",05-04-2024 12:00:00,17.930306,77.482194,PM10,NA,NA,NA
India,Karnataka,Bidar,"Naubad, Bidar - KSPCB",05-04-2024 12:00:00,17.930306,77.482194,OZONE,11,53,27
India,Karnataka,Chamarajanagar,"Urban, Chamarajanagar - KSPCB",05-04-2024 12:00:00,11.55358,76.55521,PM10,34,65,44
India,Karnataka,Chikkaballapur,"Chikkaballapur Rural, Chikkaballapur - KSPCB",05-04-2024 12:00:00,13.428828,77.731418,NO2,7,19,10
India,Karnataka,Chikkaballapur,"Chikkaballapur Rural, Chikkaballapur - KSPCB",05-04-2024 12:00:00,13.428828,77.731418,NH3,1,1,1
India,Karnataka,Chikkaballapur,"Chikkaballapur Rural, Chikkaballapur - KSPCB",05-04-2024 12:00:00,13.428828,77.731418,SO2,13,26,18
India,Karnataka,Chikkaballapur,"Chikkaballapur Rural, Chikkaballapur - KSPCB",05-04-2024 12:00:00,13.428828,77.731418,CO,12,24,19
India,Karnataka,Chikkamagaluru,"Kalyana Nagara, Chikkamagaluru - KSPCB",05-04-2024 12:00:00,13.328028,75.797056,NH3,1,4,3
India,Karnataka,Davanagere,"Devaraj Urs Badavane, Davanagere - KSPCB",05-04-2024 12:00:00,14.475800,75.905200,SO2,NA,NA,NA
India,Karnataka,Davanagere,"Devaraj Urs Badavane, Davanagere - KSPCB",05-04-2024 12:00:00,14.475800,75.905200,OZONE,18,22,20
India,Karnataka,Dharwad,"Kalabhavan, Dharwad - KSPCB",05-04-2024 12:00:00,15.459706,75.008381,PM2.5,56,70,61
India,Karnataka,Dharwad,"Kalabhavan, Dharwad - KSPCB",05-04-2024 12:00:00,15.459706,75.008381,OZONE,2,50,15
India,Karnataka,Gadag,"Panchal Nagar, Gadag - KSPCB",05-04-2024 12:00:00,15.411456,75.638133,NO2,7,23,14
India,Karnataka,Gadag,"Panchal Nagar, Gadag - KSPCB",05-04-2024 12:00:00,15.411456,75.638133,SO2,NA,NA,NA
India,Karnataka,Hassan,"B.Katihalli, Hassan - KSPCB",05-04-2024 12:00:00,13.008556,76.125258,PM2.5,63,97,78
India,Karnataka,Hassan,"B.Katihalli, Hassan - KSPCB",05-04-2024 12:00:00,13.008556,76.125258,NO2,3,22,10
India,Karnataka,Haveri,"Ashwini Nagar, Haveri - KSPCB",05-04-2024 12:00:00,14.791800,75.389600,PM2.5,NA,NA,NA
India,Karnataka,Haveri,"Ashwini Nagar, Haveri - KSPCB",05-04-2024 12:00:00,14.791800,75.389600,NO2,NA,NA,NA
India,Karnataka,Hubballi,"Deshpande Nagar, Hubballi - KSPCB",05-04-2024 12:00:00,15.351773,75.140726,CO,2,20,1
India,Karnataka,Hubballi,"Lingaraj Nagar, Hubballi - KSPCB",05-04-2024 12:00:00,15.3714823,75.1160168,PM10,48,75,61
India,Karnataka,Kalaburagi,"Mahatma Basaveswar Colony, Kalaburgi - KSPCB",05-04-2024 12:00:00,17.336318,76.847397,PM10,42,95,56
India,Karnataka,Kalaburagi,"Mahatma Basaveswar Colony, Kalaburgi - KSPCB",05-04-2024 12:00:00,17.336318,76.847397,SO2,5,16,9
India,Karnataka,Kalaburagi,"Mahatma Basaveswar Colony, Kalaburgi - KSPCB",05-04-2024 12:00:00,17.336318,76.847397,CO,40,102,46
India,Karnataka,Kolar,"Tamaka Ind. Area, Kolar - KSPCB",05-04-2024 12:00:00,13.1276288,78.1570122,PM2.5,18,251,51
India,Karnataka,Kolar,"Tamaka Ind. Area, Kolar - KSPCB",05-04-2024 12:00:00,13.1276288,78.1570122,PM10,29,232,74
India,Karnataka,Kolar,"Tamaka Ind. Area, Kolar - KSPCB",05-04-2024 12:00:00,13.1276288,78.1570122,OZONE,13,16,15
India,Karnataka,Koppal,"Diwator Nagar, Koppal - KSPCB",05-04-2024 12:00:00,15.347630,76.181767,OZONE,30,82,41
India,Karnataka,Madikeri,"Stuart Hill, Madikeri - KSPCB",05-04-2024 12:00:00,12.415911,75.735050,NH3,1,2,1
India,Karnataka,Madikeri,"Stuart Hill, Madikeri - KSPCB",05-04-2024 12:00:00,12.415911,75.735050,OZONE,22,47,34
India,Karnataka,Mangalore,"Kadri, Mangalore - KSPCB",05-04-2024 12:00:00,12.889250,74.853000,SO2,19,27,25
India,Karnataka,Mysuru,"Hebbal 1st Stage, Mysuru - KSPCB",05-04-2024 12:00:00,12.21041,76.37376,PM10,39,74,51
India,Karnataka,Mysuru,"Hebbal 1st Stage, Mysuru - KSPCB",05-04-2024 12:00:00,12.21041,76.37376,CO,2,71,20
India,Karnataka,Ramanagara,"Vijay Nagar, Ramanagara - KSPCB",05-04-2024 12:00:00,12.733409,77.298051,NO2,2,11,5
India,Karnataka,Ramanagara,"Vijay Nagar, Ramanagara - KSPCB",05-04-2024 12:00:00,12.733409,77.298051,NH3,1,2,1
India,Karnataka,Ramanagara,"Vijay Nagar, Ramanagara - KSPCB",05-04-2024 12:00:00,12.733409,77.298051,CO,4,48,30
India,Karnataka,Tumakuru,"Thimmalapura, Tumakuru - KSPCB",05-04-2024 12:00:00,13.377516,77.099072,NO2,NA,NA,NA
India,Karnataka,Vijayapura,"Ibrahimpur, Vijayapura - KSPCB",05-04-2024 12:00:00,16.802639,75.722694,PM2.5,26,31,30
India,Karnataka,Vijayapura,"Ibrahimpur, Vijayapura - KSPCB",05-04-2024 12:00:00,16.802639,75.722694,NO2,17,19,19
India,Karnataka,Yadgir,"Collector Office, Yadgir - KSPCB",05-04-2024 12:00:00,16.7602,77.1428,PM10,59,103,79
India,Karnataka,Yadgir,"Collector Office, Yadgir - KSPCB",05-04-2024 12:00:00,16.7602,77.1428,NO2,6,10,7
India,Kerala,Eloor,"Udyogamandal, Eloor - Kerala PCB",05-04-2024 12:00:00,10.073232,76.302765,PM2.5,30,55,39
India,Kerala,Eloor,"Udyogamandal, Eloor - Kerala PCB",05-04-2024 12:00:00,10.073232,76.302765,PM10,33,48,39
India,Kerala,Eloor,"Udyogamandal, Eloor - Kerala PCB",05-04-2024 12:00:00,10.073232,76.302765,CO,12,102,31
India,Kerala,Kollam,"Polayathode, Kollam - Kerala PCB",05-04-2024 12:00:00,8.8787,76.6073,PM2.5,25,83,48
India,Kerala,Kollam,"Polayathode, Kollam - Kerala PCB",05-04-2024 12:00:00,8.8787,76.6073,OZONE,32,38,34
India,Kerala,Thiruvananthapuram,"Kariavattom, Thiruvananthapuram - Kerala PCB",05-04-2024 12:00:00,8.563700,76.886500,NO2,8,10,9
India,Kerala,Thrissur,"Corporation Ground, Thrissur - Kerala PCB",05-04-2024 12:00:00,10.532400,76.215900,CO,14,28,14
India,Madhya Pradesh,Bhopal,"Paryavaran Parisar, Bhopal - MPPCB",05-04-2024 12:00:00,23.210494,77.425409,PM2.5,17,157,61
India,Madhya Pradesh,Bhopal,"Paryavaran Parisar, Bhopal - MPPCB",05-04-2024 12:00:00,23.210494,77.425409,PM10,54,155,93
India,Madhya Pradesh,Dewas,"Bhopal Chauraha, Dewas - MPPCB",05-04-2024 12:00:00,22.9682591,76.064118,PM2.5,45,306,113
India,Madhya Pradesh,Dewas,"Bhopal Chauraha, Dewas - MPPCB",05-04-2024 12:00:00,22.9682591,76.064118,PM10,104,180,130
India,Madhya Pradesh,Gwalior,"City Center, Gwalior - MPPCB",05-04-2024 12:00:00,26.203442,78.193251,SO2,20,57,37
India,Madhya Pradesh,Gwalior,"Deen Dayal Nagar, Gwalior - MPPCB",05-04-2024 12:00:00,26.259242,78.216432,NO2,19,134,55
India,Madhya Pradesh,Gwalior,"Deen Dayal Nagar, Gwalior - MPPCB",05-04-2024 12:00:00,26.259242,78.216432,OZONE,10,196,60
India,Madhya Pradesh,Gwalior,"Maharaj Bada, Gwalior - MPPCB",05-04-2024 12:00:00,26.200388,78.147714,NO2,14,85,35
India,Madhya Pradesh,Gwalior,"Maharaj Bada, Gwalior - MPPCB",05-04-2024 12:00:00,26.200388,78.147714,NH3,3,14,6
India,Madhya Pradesh,Gwalior,"Maharaj Bada, Gwalior - MPPCB",05-04-2024 12:00:00,26.200388,78.147714,OZONE,31,179,164
India,Madhya Pradesh,Indore,"Maguda Nagar, Indore - IMC",05-04-2024 12:00:00,22.7524,75.8872,SO2,32,43,34
India,Madhya Pradesh,Indore,"Regional Park, Indore - IMC",05-04-2024 12:00:00,22.6780,75.8559,NH3,1,2,1
India,Madhya Pradesh,Indore,"Residency Area, Indore - IMC",05-04-2024 12:00:00,22.7084,75.8815,SO2,27,30,28
India,Madhya Pradesh,Indore,"Residency Area, Indore - IMC",05-04-2024 12:00:00,22.7084,75.8815,OZONE,10,23,11
India,Madhya Pradesh,Jabalpur,"Govindh Bhavan Colony, Jabalpur - JMC",05-04-2024 12:00:00,23.163174,79.973061,PM2.5,37,304,135
India,Madhya Pradesh,Jabalpur,"Govindh Bhavan Colony, Jabalpur - JMC",05-04-2024 12:00:00,23.163174,79.973061,PM10,69,157,113
India,Madhya Pradesh,Jabalpur,"Govindh Bhavan Colony, Jabalpur - JMC",05-04-2024 12:00:00,23.163174,79.973061,SO2,11,24,16
India,Madhya Pradesh,Jabalpur,"Gupteshwar, Jabalpur - JMC",05-04-2024 12:00:00,23.142888,79.916147,SO2,8,17,12
India,Madhya Pradesh,Jabalpur,"Marhatal, Jabalpur - MPPCB",05-04-2024 12:00:00,23.168606,79.932247,PM2.5,34,288,128
India,Madhya Pradesh,Jabalpur,"Marhatal, Jabalpur - MPPCB",05-04-2024 12:00:00,23.168606,79.932247,SO2,8,22,13
India,Madhya Pradesh,Jabalpur,"Marhatal, Jabalpur - MPPCB",05-04-2024 12:00:00,23.168606,79.932247,OZONE,1,93,44
India,Madhya Pradesh,Jabalpur,"Suhagi, Jabalpur - JMC",05-04-2024 12:00:00,23.218135,79.957770,NH3,3,4,4
India,Madhya Pradesh,Katni,"Gole Bazar, Katni - MPPCB",05-04-2024 12:00:00,23.50016,80.23284,PM10,90,300,167
India,Madhya Pradesh,Katni,"Gole Bazar, Katni - MPPCB",05-04-2024 12:00:00,23.50016,80.23284,OZONE,2,99,35
India,Madhya Pradesh,Mandideep,"Sector-D Industrial Area, Mandideep - MPPCB",05-04-2024 12:00:00,23.108440,77.511428,PM2.5,41,328,130
India,Madhya Pradesh,Mandideep,"Sector-D Industrial Area, Mandideep - MPPCB",05-04-2024 12:00:00,23.108440,77.511428,PM10,76,313,141
India,Madhya Pradesh,Mandideep,"Sector-D Industrial Area, Mandideep - MPPCB",05-04-2024 12:00:00,23.108440,77.511428,OZONE,8,43,24
India,Madhya Pradesh,Pithampur,"Sector-2 Industrial Area, Pithampur - MPPCB",05-04-2024 12:00:00,22.624758,75.675238,PM2.5,29,156,72
India,Madhya Pradesh,Pithampur,"Sector-2 Industrial Area, Pithampur - MPPCB",05-04-2024 12:00:00,22.624758,75.675238,NH3,2,4,3
India,Madhya Pradesh,Pithampur,"Sector-2 Industrial Area, Pithampur - MPPCB",05-04-2024 12:00:00,22.624758,75.675238,SO2,13,17,14
India,Madhya Pradesh,Sagar,"Civil Lines, Sagar - MPPCB",05-04-2024 12:00:00,23.838586,78.759431,PM10,89,150,110
India,Madhya Pradesh,Sagar,"Civil Lines, Sagar - MPPCB",05-04-2024 12:00:00,23.838586,78.759431,NH3,3,7,5
India,Madhya Pradesh,Sagar,"Civil Lines, Sagar - MPPCB",05-04-2024 12:00:00,23.838586,78.759431,OZONE,2,96,41
India,Madhya Pradesh,Sagar,"Deen Dayal Nagar, Sagar - MPPCB",05-04-2024 12:00:00,23.8640158,78.80289321,CO,16,99,58
India,Madhya Pradesh,Satna,"Bandhavgar Colony, Satna - Birla Cement",05-04-2024 12:00:00,24.58434363,80.8549414,NO2,33,94,51
India,Madhya Pradesh,Singrauli,"Suryakiran Bhawan NCL, Singrauli - MPPCB",05-04-2024 12:00:00,24.108970,82.645580,NO2,10,99,46
India,Madhya Pradesh,Ujjain,"Mahakaleshwar Temple, Ujjain - MPPCB",05-04-2024 12:00:00,23.182719 ,75.768218 ,OZONE,101,138,125
India,Maharashtra,Ahmednagar,"Tarakpur, Ahmednagar - MPCB",05-04-2024 12:00:00,19.10122,74.73339,PM2.5,NA,NA,NA
India,Maharashtra,Ahmednagar,"Tarakpur, Ahmednagar - MPCB",05-04-2024 12:00:00,19.10122,74.73339,NO2,NA,NA,NA
India,Maharashtra,Akola,"Ramdaspeth, Akola - MPCB",05-04-2024 12:00:00,20.719516,77.000253,CO,13,96,18
India,Maharashtra,Aurangabad,"MIDC Chilkalthana, Aurangabad - MPCB",05-04-2024 12:00:00,19.875620,75.387310,PM10,37,159,114
India,Maharashtra,Aurangabad,"MIDC Chilkalthana, Aurangabad - MPCB",05-04-2024 12:00:00,19.875620,75.387310,NO2,6,101,27
India,Maharashtra,Aurangabad,"MIDC Chilkalthana, Aurangabad - MPCB",05-04-2024 12:00:00,19.875620,75.387310,NH3,3,4,4
India,Maharashtra,Aurangabad,"More Chowk Waluj, Aurangabad - MPCB",05-04-2024 12:00:00,19.8389439,75.244448,PM10,48,104,71
India,Maharashtra,Aurangabad,"More Chowk Waluj, Aurangabad - MPCB",05-04-2024 12:00:00,19.8389439,75.244448,SO2,1,6,3
India,Maharashtra,Aurangabad,"More Chowk Waluj, Aurangabad - MPCB",05-04-2024 12:00:00,19.8389439,75.244448,OZONE,28,92,55
India,Maharashtra,Aurangabad,"Rachnakar Colony, Aurangabad - MPCB",05-04-2024 12:00:00,19.863756,75.321188,PM2.5,63,200,93
India,Maharashtra,Boisar,"Khaira, Boisar - MPCB",05-04-2024 12:00:00,19.786089,72.757971,NO2,12,83,43
India,Maharashtra,Boisar,"Khaira, Boisar - MPCB",05-04-2024 12:00:00,19.786089,72.757971,SO2,NA,NA,NA
India,Maharashtra,Jalgaon,"Prabhat Colony, Jalgaon - MPCB",05-04-2024 12:00:00,21.001264,75.565602,PM10,59,161,106
India,Maharashtra,Jalgaon,"Prabhat Colony, Jalgaon - MPCB",05-04-2024 12:00:00,21.001264,75.565602,CO,14,36,16
India,Maharashtra,Jalna,"Old MIDC, Jalna - MPCB",05-04-2024 12:00:00,19.854616,75.905894,NH3,6,8,7
India,Maharashtra,Kolhapur,"Shivaji University, Kolhapur - MPCB",05-04-2024 12:00:00,16.6870449,74.2505872,NO2,16,29,24
India,Maharashtra,Kolhapur,"Sinchan Bhavan, Kolhapur - MPCB",05-04-2024 12:00:00,16.7143745,74.2426398,PM2.5,25,339,76
India,Maharashtra,Kolhapur,"Sinchan Bhavan, Kolhapur - MPCB",05-04-2024 12:00:00,16.7143745,74.2426398,NH3,7,8,7
India,Maharashtra,Latur,"Sawe Wadi, Latur - MPCB",05-04-2024 12:00:00,18.39963,76.57452,PM2.5,64,93,76
India,Maharashtra,Mahad,"Kamble Tarf Birwadi, Mahad - MPCB",05-04-2024 12:00:00,18.1023399,73.4783687,CO,22,53,40
India,Maharashtra,Mira-Bhayandar,"Bhayandar West, Mira-Bhayandar - MPCB",05-04-2024 12:00:00,19.296481,72.840923,NH3,NA,NA,NA
India,Maharashtra,Mumbai,"Bandra Kurla Complex, Mumbai - MPCB",05-04-2024 12:00:00,19.065931,72.862131,PM2.5,28,72,49
India,Maharashtra,Mumbai,"Bandra Kurla Complex, Mumbai - MPCB",05-04-2024 12:00:00,19.065931,72.862131,CO,14,34,29
India,Maharashtra,Mumbai,"Borivali East, Mumbai - IITM",05-04-2024 12:00:00,19.23241,72.86895,NH3,1,2,1
India,Maharashtra,Mumbai,"Borivali East, Mumbai - IITM",05-04-2024 12:00:00,19.23241,72.86895,OZONE,25,116,48
India,Maharashtra,Mumbai,"Borivali East, Mumbai - MPCB",05-04-2024 12:00:00,19.2243333,72.8658113,PM10,24,119,68
India,Maharashtra,Mumbai,"Borivali East, Mumbai - MPCB",05-04-2024 12:00:00,19.2243333,72.8658113,NO2,3,23,11
India,Maharashtra,Mumbai,"Borivali East, Mumbai - MPCB",05-04-2024 12:00:00,19.2243333,72.8658113,NH3,1,2,1
India,Maharashtra,Mumbai,"Chakala-Andheri East, Mumbai - IITM",05-04-2024 12:00:00,19.11074,72.86084,PM2.5,31,124,71
India,Maharashtra,Mumbai,"Chembur, Mumbai - MPCB",05-04-2024 12:00:00,19.0364585,72.8954371,PM2.5,42,80,59
India,Maharashtra,Mumbai,"Chhatrapati Shivaji Intl. Airport (T2), Mumbai - MPCB",05-04-2024 12:00:00,19.10078,72.87462,CO,45,68,55
India,Maharashtra,Mumbai,"Ghatkopar, Mumbai - BMC",05-04-2024 12:00:00,19.083694,72.920967,NH3,2,14,6
India,Maharashtra,Mumbai,"Ghatkopar, Mumbai - BMC",05-04-2024 12:00:00,19.083694,72.920967,OZONE,1,36,8
India,Maharashtra,Mumbai,"Kandivali East, Mumbai - MPCB",05-04-2024 12:00:00,19.205800,72.868200,CO,24,28,24
India,Maharashtra,Mumbai,"Kherwadi_Bandra East, Mumbai - MPCB",05-04-2024 12:00:00,19.0632143,72.8456324,PM10,62,132,92
India,Maharashtra,Mumbai,"Kherwadi_Bandra East, Mumbai - MPCB",05-04-2024 12:00:00,19.0632143,72.8456324,NH3,3,14,6
India,Maharashtra,Mumbai,"Khindipada-Bhandup West, Mumbai - IITM",05-04-2024 12:00:00,19.1653323,72.922099,NO2,7,16,12
India,Maharashtra,Mumbai,"Khindipada-Bhandup West, Mumbai - IITM",05-04-2024 12:00:00,19.1653323,72.922099,NH3,1,15,1
India,Maharashtra,Mumbai,"Khindipada-Bhandup West, Mumbai - IITM",05-04-2024 12:00:00,19.1653323,72.922099,CO,2,24,10
India,Maharashtra,Mumbai,"Khindipada-Bhandup West, Mumbai - IITM",05-04-2024 12:00:00,19.1653323,72.922099,OZONE,5,36,10
India,Maharashtra,Mumbai,"Mindspace-Malad West, Mumbai - MPCB",05-04-2024 12:00:00,19.1878657,72.8304069,CO,11,24,17
India,Maharashtra,Mumbai,"Mulund West, Mumbai - MPCB",05-04-2024 12:00:00,19.1750,72.9419,NH3,10,11,11
India,Maharashtra,Mumbai,"Sewri, Mumbai - BMC",05-04-2024 12:00:00,19.000084,72.856730,PM2.5,20,40,29
India,Maharashtra,Mumbai,"Siddharth Nagar-Worli, Mumbai - IITM",05-04-2024 12:00:00,19.000083,72.813993,PM2.5,50,302,183
India,Maharashtra,Mumbai,"Sion, Mumbai - MPCB",05-04-2024 12:00:00,19.047000,72.874600,SO2,34,37,35
India,Maharashtra,Mumbai,"Sion, Mumbai - MPCB",05-04-2024 12:00:00,19.047000,72.874600,CO,8,24,19
India,Maharashtra,Mumbai,"Vasai West, Mumbai - MPCB",05-04-2024 12:00:00,19.383200,72.820400,NO2,26,29,27
India,Maharashtra,Mumbai,"Vile Parle West, Mumbai - MPCB",05-04-2024 12:00:00,19.10861,72.83622,NH3,10,11,11
India,Maharashtra,Nagpur,"Ambazari, Nagpur - MPCB",05-04-2024 12:00:00,21.121801,79.04952,NO2,12,105,38
India,Maharashtra,Nagpur,"Ambazari, Nagpur - MPCB",05-04-2024 12:00:00,21.121801,79.04952,CO,6,160,18
India,Maharashtra,Nagpur,"Mahal, Nagpur - MPCB",05-04-2024 12:00:00,21.14472,79.107595,PM10,75,120,104
India,Maharashtra,Nagpur,"Opp GPO Civil Lines, Nagpur - MPCB",05-04-2024 12:00:00,21.152875,79.0517531,SO2,9,40,18
India,Maharashtra,Nanded,"Sneh Nagar, Nanded - MPCB",05-04-2024 12:00:00,19.173852,77.296291,PM10,49,220,118
India,Maharashtra,Nanded,"Sneh Nagar, Nanded - MPCB",05-04-2024 12:00:00,19.173852,77.296291,CO,30,43,34
India,Maharashtra,Nanded,"Sneh Nagar, Nanded - MPCB",05-04-2024 12:00:00,19.173852,77.296291,OZONE,31,121,50
India,Maharashtra,Nashik,"Gangapur Road, Nashik - MPCB",05-04-2024 12:00:00,20.0073285,73.7762427,CO,22,113,74
India,Maharashtra,Nashik,"Hirawadi, Nashik - MPCB",05-04-2024 12:00:00,20.021503,73.813844,SO2,6,14,10
India,Maharashtra,Nashik,"Pandav Nagari, Nashik - MPCB",05-04-2024 12:00:00,19.9591346,73.7788008,PM10,55,93,73
India,Maharashtra,Nashik,"Pandav Nagari, Nashik - MPCB",05-04-2024 12:00:00,19.9591346,73.7788008,SO2,5,21,14
India,Maharashtra,Nashik,"Pandav Nagari, Nashik - MPCB",05-04-2024 12:00:00,19.9591346,73.7788008,CO,12,43,26
India,Maharashtra,Navi Mumbai,"Kopripada-Vashi, Navi Mumbai - MPCB",05-04-2024 12:00:00,19.090337,73.014232,PM2.5,22,73,51
India,Maharashtra,Navi Mumbai,"Kopripada-Vashi, Navi Mumbai - MPCB",05-04-2024 12:00:00,19.090337,73.014232,PM10,34,109,87
India,Maharashtra,Navi Mumbai,"Mahape, Navi Mumbai - MPCB",05-04-2024 12:00:00,19.1135051,73.008978,PM2.5,36,105,64
India,Maharashtra,Navi Mumbai,"Mahape, Navi Mumbai - MPCB",05-04-2024 12:00:00,19.1135051,73.008978,CO,44,63,57
India,Maharashtra,Navi Mumbai,"Mahape, Navi Mumbai - MPCB",05-04-2024 12:00:00,19.1135051,73.008978,OZONE,21,53,28
India,Maharashtra,Navi Mumbai,"Nerul, Navi Mumbai - MPCB",05-04-2024 12:00:00,19.008751,73.016620,PM2.5,42,114,75
India,Maharashtra,Navi Mumbai,"Sanpada, Navi Mumbai - MPCB",05-04-2024 12:00:00,19.0575752,73.0151367,PM10,61,220,108
India,Maharashtra,Navi Mumbai,"Sanpada, Navi Mumbai - MPCB",05-04-2024 12:00:00,19.0575752,73.0151367,OZONE,1,135,29
India,Maharashtra,Parbhani,"Masoom Colony, Parbhani - MPCB",05-04-2024 12:00:00,19.265594,76.761463,NH3,12,15,14
India,Maharashtra,Pimpri-Chinchwad,"Gavalinagar, Pimpri Chinchwad - MPCB",05-04-2024 12:00:00,18.63673,73.82487,PM2.5,47,112,72
India,Maharashtra,Pimpri-Chinchwad,"Gavalinagar, Pimpri Chinchwad - MPCB",05-04-2024 12:00:00,18.63673,73.82487,PM10,46,132,87
India,Maharashtra,Pimpri-Chinchwad,"Gavalinagar, Pimpri Chinchwad - MPCB",05-04-2024 12:00:00,18.63673,73.82487,NH3,1,12,3
India,Maharashtra,Pimpri-Chinchwad,"Park Street Wakad, Pimpri Chinchwad - MPCB",05-04-2024 12:00:00,18.59051,73.77946,SO2,3,19,12
India,Maharashtra,Pune,"Karve Road, Pune - MPCB",05-04-2024 12:00:00,18.5011743,73.8165527,OZONE,7,7,7
India,Maharashtra,Pune,"Katraj Dairy, Pune - MPCB",05-04-2024 12:00:00,18.454450,73.854155,PM10,59,138,91
India,Maharashtra,Pune,"Katraj Dairy, Pune - MPCB",05-04-2024 12:00:00,18.454450,73.854155,NO2,16,57,31
India,Maharashtra,Pune,"Katraj Dairy, Pune - MPCB",05-04-2024 12:00:00,18.454450,73.854155,SO2,1,4,2
India,Maharashtra,Pune,"Mhada Colony, Pune - IITM",05-04-2024 12:00:00,18.573040,73.927715,PM10,39,109,73
India,Maharashtra,Pune,"Mhada Colony, Pune - IITM",05-04-2024 12:00:00,18.573040,73.927715,NO2,2,16,9
India,Maharashtra,Pune,"Revenue Colony-Shivajinagar, Pune - IITM",05-04-2024 12:00:00,18.530085,73.849598,NO2,64,181,125
India,Maharashtra,Pune,"Revenue Colony-Shivajinagar, Pune - IITM",05-04-2024 12:00:00,18.530085,73.849598,CO,109,117,111
India,Maharashtra,Pune,"Savitribai Phule Pune University, Pune - MPCB",05-04-2024 12:00:00,18.547056,73.826908,PM2.5,56,117,79
India,Maharashtra,Pune,"Savitribai Phule Pune University, Pune - MPCB",05-04-2024 12:00:00,18.547056,73.826908,NH3,1,2,1
India,Maharashtra,Pune,"Savitribai Phule Pune University, Pune - MPCB",05-04-2024 12:00:00,18.547056,73.826908,SO2,8,19,14
India,Maharashtra,Pune,"Transport Nagar-Nigdi, Pune - IITM",05-04-2024 12:00:00,18.664282,73.763966,NO2,15,19,17
India,Maharashtra,Sangli,"Vijay Nagar, Sangli - MPCB",05-04-2024 12:00:00, 16.5038,74.3623,PM2.5,54,103,71
India,Maharashtra,Solapur,"Dnyaneshwar Nagar, Solapur - MPCB",05-04-2024 12:00:00,17.6336264,75.9132495,PM10,89,188,124
India,Maharashtra,Solapur,"Dnyaneshwar Nagar, Solapur - MPCB",05-04-2024 12:00:00,17.6336264,75.9132495,NO2,12,64,26
India,Maharashtra,Solapur,"Dnyaneshwar Nagar, Solapur - MPCB",05-04-2024 12:00:00,17.6336264,75.9132495,OZONE,20,98,47
India,Maharashtra,Solapur,"Ratandeep Housing Society, Solapur - MPCB",05-04-2024 12:00:00,17.65439,75.90649,PM2.5,88,188,133
India,Maharashtra,Thane,"Kasarvadavali, Thane - MPCB",05-04-2024 12:00:00,19.26777,72.97182,PM2.5,44,95,61
India,Maharashtra,Thane,"Kasarvadavali, Thane - MPCB",05-04-2024 12:00:00,19.26777,72.97182,NH3,6,9,7
India,Maharashtra,Thane,"Kasarvadavali, Thane - MPCB",05-04-2024 12:00:00,19.26777,72.97182,SO2,2,10,5
India,Maharashtra,Thane,"Kasarvadavali, Thane - MPCB",05-04-2024 12:00:00,19.26777,72.97182,CO,5,23,15
India,Maharashtra,Thane,"Upvan Fort, Thane - MPCB",05-04-2024 12:00:00,19.222279,72.957979,PM10,57,115,82
India,Maharashtra,Thane,"Upvan Fort, Thane - MPCB",05-04-2024 12:00:00,19.222279,72.957979,NO2,8,36,15
India,Maharashtra,Ulhasnagar,"Sidhi Vinayak Nagar, Ulhasnagar - MPCB",05-04-2024 12:00:00,19.235581,73.159121,NO2,6,20,12
India,Maharashtra,Virar,"Bolinj, Virar - MPCB",05-04-2024 12:00:00,19.4458210,72.7988231,SO2,3,8,6
India,Manipur,Imphal,"Manipur University, Imphal - Manipur PCB",05-04-2024 12:00:00,24.7524239,93.9286218,PM2.5,58,133,83
India,Manipur,Imphal,"Manipur University, Imphal - Manipur PCB",05-04-2024 12:00:00,24.7524239,93.9286218,NH3,1,1,1
India,Meghalaya,Shillong,"Lumpyngngad, Shillong - Meghalaya PCB",05-04-2024 12:00:00,25.5586,91.8985,PM2.5,53,109,80
India,Meghalaya,Shillong,"Lumpyngngad, Shillong - Meghalaya PCB",05-04-2024 12:00:00,25.5586,91.8985,CO,8,12,9
India,Mizoram,Aizawl,"Sikulpuikawn, Aizawl - Mizoram PCB",05-04-2024 12:00:00,23.7176342,92.7192841,NO2,1,2,1
India,Mizoram,Aizawl,"Sikulpuikawn, Aizawl - Mizoram PCB",05-04-2024 12:00:00,23.7176342,92.7192841,CO,14,19,16
India,Odisha,Balasore,"Kalidaspur, Balasore - OSPCB",05-04-2024 12:00:00,21.51161,86.89088,NO2,8,22,14
India,Odisha,Balasore,"Kalidaspur, Balasore - OSPCB",05-04-2024 12:00:00,21.51161,86.89088,NH3,1,4,3
India,Odisha,Baripada,"Meher Colony, Baripada - OSPCB",05-04-2024 12:00:00,21.941841,86.728318,PM2.5,NA,NA,NA
India,Odisha,Baripada,"Meher Colony, Baripada - OSPCB",05-04-2024 12:00:00,21.941841,86.728318,NO2,NA,NA,NA
India,Odisha,Baripada,"Meher Colony, Baripada - OSPCB",05-04-2024 12:00:00,21.941841,86.728318,CO,NA,NA,NA
India,Odisha,Bhubaneswar,"Lingraj Mandir, Bhubaneswar - OSPCB",05-04-2024 12:00:00,20.240790,85.836784,NH3,2,4,3
India,Odisha,Bhubaneswar,"Lingraj Mandir, Bhubaneswar - OSPCB",05-04-2024 12:00:00,20.240790,85.836784,CO,18,107,74
India,Odisha,Bileipada,"Tata Township, Bileipada - OSPCB",05-04-2024 12:00:00,22.06156703,85.47409613,PM2.5,NA,NA,NA
India,Odisha,Bileipada,"Tata Township, Bileipada - OSPCB",05-04-2024 12:00:00,22.06156703,85.47409613,NO2,NA,NA,NA
India,Odisha,Bileipada,"Tata Township, Bileipada - OSPCB",05-04-2024 12:00:00,22.06156703,85.47409613,SO2,NA,NA,NA
India,Odisha,Brajrajnagar,"GM Office, Brajrajnagar - OSPCB",05-04-2024 12:00:00,21.8004996,83.8396977,SO2,21,21,21
India,Odisha,Byasanagar,"Ferro Chrome Colony, Byasanagar - OSPCB",05-04-2024 12:00:00,20.94185,86.11510,NO2,8,19,13
India,Odisha,Byasanagar,"Ferro Chrome Colony, Byasanagar - OSPCB",05-04-2024 12:00:00,20.94185,86.11510,NH3,1,2,1
India,Odisha,Cuttack,"CDA Area, Cuttack - OSPCB",05-04-2024 12:00:00,20.48891     ,85.84768     ,NO2,7,19,13
India,Odisha,Keonjhar,"Jagamohanpur, Keonjhar - OSPCB",05-04-2024 12:00:00,21.643900,85.599355,PM2.5,125,236,172
India,Odisha,Rairangpur,"Divisional Forest Office, Rairangpur - OSPCB",05-04-2024 12:00:00,22.265816,86.174829,NO2,7,8,7
India,Odisha,Rourkela,"Raghunathpali, Rourkela - OSPCB",05-04-2024 12:00:00,22.220833,84.809444,SO2,1,44,13
India,Odisha,Rourkela,"Raghunathpali, Rourkela - OSPCB",05-04-2024 12:00:00,22.220833,84.809444,OZONE,17,198,43
India,Odisha,Suakati,"OMC Colony, Suakati - OSPCB",05-04-2024 12:00:00,21.606865,85.510538,NH3,4,5,4
India,Odisha,Tensa,"Barsua Iron Ore Mines, Tensa - OSPCB",05-04-2024 12:00:00,21.869985,85.167016,CO,12,61,17
India,Odisha,Tensa,"Barsua Iron Ore Mines, Tensa - OSPCB",05-04-2024 12:00:00,21.869985,85.167016,OZONE,74,218,94
India,Puducherry,Puducherry,"Jawahar Nagar, Puducherry - PPCC",05-04-2024 12:00:00,11.9309,79.8027,PM2.5,2,28,9
India,Puducherry,Puducherry,"Jawahar Nagar, Puducherry - PPCC",05-04-2024 12:00:00,11.9309,79.8027,NO2,1,11,5
India,Punjab,Amritsar,"Golden Temple, Amritsar - PPCB",05-04-2024 12:00:00,31.620000,74.876512,PM2.5,33,95,44
India,Punjab,Amritsar,"Golden Temple, Amritsar - PPCB",05-04-2024 12:00:00,31.620000,74.876512,CO,27,90,46
India,Punjab,Bathinda,"Hardev Nagar, Bathinda - PPCB",05-04-2024 12:00:00,30.233011,74.907758,SO2,8,46,32
India,Punjab,Jalandhar,"Civil Line, Jalandhar - PPCB",05-04-2024 12:00:00,31.321907,75.578914,PM10,49,104,80
India,Punjab,Khanna,"Kalal Majra, Khanna - PPCB",05-04-2024 12:00:00,30.736056 ,76.209694,PM2.5,35,78,55
India,Punjab,Ludhiana,"Punjab Agricultural University, Ludhiana - PPCB",05-04-2024 12:00:00,30.9028,75.8086,NH3,4,5,5
India,Punjab,Mandi Gobindgarh,"RIMT University, Mandi Gobindgarh - PPCB",05-04-2024 12:00:00,30.649961,76.331442,NO2,33,33,33
India,Punjab,Patiala,"Model Town, Patiala - PPCB",05-04-2024 12:00:00,30.349388,76.366642,NO2,24,28,26
India,Punjab,Patiala,"Model Town, Patiala - PPCB",05-04-2024 12:00:00,30.349388,76.366642,NH3,6,7,6
India,Punjab,Rupnagar,"Ratanpura, Rupnagar - Ambuja Cements",05-04-2024 12:00:00,31.0325454,76.5623046,CO,32,70,54
India,Rajasthan,Ajmer,"Civil Lines,  Ajmer - RSPCB",05-04-2024 12:00:00,26.470859,74.646594,CO,10,56,27
India,Rajasthan,Alwar,"Moti Doongri, Alwar - RSPCB",05-04-2024 12:00:00,27.554793,76.611536,PM10,32,108,79
India,Rajasthan,Alwar,"Moti Doongri, Alwar - RSPCB",05-04-2024 12:00:00,27.554793,76.611536,NH3,5,9,6
India,Rajasthan,Alwar,"Moti Doongri, Alwar - RSPCB",05-04-2024 12:00:00,27.554793,76.611536,CO,15,98,32
India,Rajasthan,Banswara,"Rati Talai, Banswara - RSPCB",05-04-2024 12:00:00,23.555190,74.440010,NH3,4,6,5
India,Rajasthan,Banswara,"Rati Talai, Banswara - RSPCB",05-04-2024 12:00:00,23.555190,74.440010,SO2,19,40,28
India,Rajasthan,Baran,"Bamboliya, Baran - RSPCB",05-04-2024 12:00:00,25.106006,76.469948,NO2,8,87,22
India,Rajasthan,Baran,"Bamboliya, Baran - RSPCB",05-04-2024 12:00:00,25.106006,76.469948,SO2,6,17,9
India,Rajasthan,Bharatpur,"Krishna Nagar, Bharatpur - RSPCB",05-04-2024 12:00:00,27.215415,77.50873,PM10,99,434,201
India,Rajasthan,Bharatpur,"Krishna Nagar, Bharatpur - RSPCB",05-04-2024 12:00:00,27.215415,77.50873,NO2,8,94,40
India,Rajasthan,Bharatpur,"Krishna Nagar, Bharatpur - RSPCB",05-04-2024 12:00:00,27.215415,77.50873,NH3,4,9,6
India,Rajasthan,Bharatpur,"Krishna Nagar, Bharatpur - RSPCB",05-04-2024 12:00:00,27.215415,77.50873,SO2,7,16,10
India,Rajasthan,Bhilwara,"Pratap Nagar, Bhilwara - RSPCB",05-04-2024 12:00:00,25.339605,74.618883,PM10,51,106,77
India,Rajasthan,Bhilwara,"Pratap Nagar, Bhilwara - RSPCB",05-04-2024 12:00:00,25.339605,74.618883,NH3,3,5,4
India,Rajasthan,Bhilwara,"Pratap Nagar, Bhilwara - RSPCB",05-04-2024 12:00:00,25.339605,74.618883,CO,16,36,20
India,Rajasthan,Bhiwadi,"RIICO Ind. Area III, Bhiwadi - RSPCB",05-04-2024 12:00:00,28.194909,76.862296,NO2,44,58,55
India,Rajasthan,Bhiwadi,"Vasundhara Nagar_UIT, Bhiwadi - RSPCB",05-04-2024 12:00:00,28.207266,76.829265,SO2,4,59,16
India,Rajasthan,Bikaner,"MM Ground, Bikaner - RSPCB",05-04-2024 12:00:00,28.018792,73.292658,PM2.5,23,72,45
India,Rajasthan,Bikaner,"MM Ground, Bikaner - RSPCB",05-04-2024 12:00:00,28.018792,73.292658,NO2,17,39,20
India,Rajasthan,Churu,"Subash Chowk, Churu - RSPCB",05-04-2024 12:00:00,28.296139,74.961696,PM2.5,24,91,41
India,Rajasthan,Churu,"Subash Chowk, Churu - RSPCB",05-04-2024 12:00:00,28.296139,74.961696,NO2,13,72,28
India,Rajasthan,Churu,"Subash Chowk, Churu - RSPCB",05-04-2024 12:00:00,28.296139,74.961696,OZONE,54,135,86
India,Rajasthan,Dausa,"Khatikan Mohalla, Dausa - RSPCB",05-04-2024 12:00:00,26.895552,76.334753,PM2.5,19,257,76
India,Rajasthan,Dausa,"Khatikan Mohalla, Dausa - RSPCB",05-04-2024 12:00:00,26.895552,76.334753,OZONE,14,156,58
India,Rajasthan,Dungarpur,"Bhoiwada, Dungarpur - RSPCB",05-04-2024 12:00:00,23.837789,73.714926,NO2,9,16,12
India,Rajasthan,Dungarpur,"Bhoiwada, Dungarpur - RSPCB",05-04-2024 12:00:00,23.837789,73.714926,SO2,7,10,9
India,Rajasthan,Hanumangarh,"Housing Board, Hanumangarh - RSPCB",05-04-2024 12:00:00,29.610750,74.283608,OZONE,18,60,36
India,Rajasthan,Jaipur,"Adarsh Nagar, Jaipur - RSPCB",05-04-2024 12:00:00,26.902909,75.836858,OZONE,6,45,23
India,Rajasthan,Jaipur,"Mansarovar Sector-12, Jaipur - RSPCB",05-04-2024 12:00:00,26.843698,75.766894,CO,18,61,49
India,Rajasthan,Jaipur,"Police Commissionerate, Jaipur - RSPCB",05-04-2024 12:00:00,26.9164092,75.7994901,NO2,20,103,68
India,Rajasthan,Jaipur,"Police Commissionerate, Jaipur - RSPCB",05-04-2024 12:00:00,26.9164092,75.7994901,NH3,2,9,8
India,Rajasthan,Jaipur,"Police Commissionerate, Jaipur - RSPCB",05-04-2024 12:00:00,26.9164092,75.7994901,SO2,13,29,22
India,Rajasthan,Jaipur,"RIICO Sitapura, Jaipur - RSPCB",05-04-2024 12:00:00,26.786682,75.827928,PM10,91,371,190
India,Rajasthan,Jaipur,"RIICO Sitapura, Jaipur - RSPCB",05-04-2024 12:00:00,26.786682,75.827928,SO2,13,25,17
India,Rajasthan,Jaipur,"Sector-2 Murlipura, Jaipur - RSPCB",05-04-2024 12:00:00,26.960669,75.771817,PM10,48,358,97
India,Rajasthan,Jaipur,"Shastri Nagar, Jaipur - RSPCB",05-04-2024 12:00:00,26.9502929,75.730943,PM2.5,68,254,135
India,Rajasthan,Jaipur,"Shastri Nagar, Jaipur - RSPCB",05-04-2024 12:00:00,26.9502929,75.730943,PM10,106,214,151
India,Rajasthan,Jaipur,"Shastri Nagar, Jaipur - RSPCB",05-04-2024 12:00:00,26.9502929,75.730943,NH3,3,38,12
India,Rajasthan,Jaisalmer,"Sadar Bazar, Jaisalmer - RSPCB",05-04-2024 12:00:00,26.912329,70.909168,NO2,13,56,24
India,Rajasthan,Jalore,"Mudtra Sili, Jalore - RSPCB",05-04-2024 12:00:00,25.344694,72.626208,NO2,4,36,17
India,Rajasthan,Jhalawar,"Rajlaxmi Nagar, Jhalawar - RSPCB",05-04-2024 12:00:00,24.588397,76.172782,SO2,2,11,5
India,Rajasthan,Jhalawar,"Rajlaxmi Nagar, Jhalawar - RSPCB",05-04-2024 12:00:00,24.588397,76.172782,CO,10,30,22
India,Rajasthan,Jodhpur,"Collectorate, Jodhpur - RSPCB",05-04-2024 12:00:00,26.268249,73.0193853,PM10,104,200,155
India,Rajasthan,Jodhpur,"Digari Kalan, Jodhpur - RSPCB",05-04-2024 12:00:00,26.295810,73.082283,PM2.5,40,88,54
India,Rajasthan,Jodhpur,"Digari Kalan, Jodhpur - RSPCB",05-04-2024 12:00:00,26.295810,73.082283,SO2,4,9,6
India,Rajasthan,Jodhpur,"Digari Kalan, Jodhpur - RSPCB",05-04-2024 12:00:00,26.295810,73.082283,OZONE,24,120,51
India,Rajasthan,Jodhpur,"Jhalamand, Jodhpur - RSPCB",05-04-2024 12:00:00,26.215415,73.070156,PM10,84,273,138
India,Rajasthan,Jodhpur,"Mandor, Jodhpur - RSPCB",05-04-2024 12:00:00,26.358805,73.047444,PM2.5,31,53,43
India,Rajasthan,Jodhpur,"Mandor, Jodhpur - RSPCB",05-04-2024 12:00:00,26.358805,73.047444,SO2,2,3,3
India,Rajasthan,Jodhpur,"Mandor, Jodhpur - RSPCB",05-04-2024 12:00:00,26.358805,73.047444,CO,2,20,20
India,Rajasthan,Jodhpur,"Samrat Ashok Udhyan, Jodhpur - RSPCB",05-04-2024 12:00:00,26.253384,72.976571,NO2,4,29,9
India,Rajasthan,Jodhpur,"Samrat Ashok Udhyan, Jodhpur - RSPCB",05-04-2024 12:00:00,26.253384,72.976571,OZONE,29,126,55
India,Rajasthan,Karauli,"Satyawati Vihar, Karauli - RSPCB",05-04-2024 12:00:00,26.506177,77.025989,CO,12,48,24
India,Rajasthan,Kota,"Dhanmandi, Kota - RSPCB",05-04-2024 12:00:00,25.164090,75.858137,SO2,6,70,12
India,Rajasthan,Kota,"Dhanmandi, Kota - RSPCB",05-04-2024 12:00:00,25.164090,75.858137,OZONE,10,73,51
India,Rajasthan,Kota,"Nayapura, Kota - RSPCB",05-04-2024 12:00:00,25.196024,75.855668,SO2,3,33,7
India,Rajasthan,Kota,"Shrinath Puram, Kota - RSPCB",05-04-2024 12:00:00,25.14389,75.821256,PM2.5,62,197,91
India,Rajasthan,Kota,"Shrinath Puram, Kota - RSPCB",05-04-2024 12:00:00,25.14389,75.821256,SO2,10,59,18
India,Rajasthan,Kota,"Shrinath Puram, Kota - RSPCB",05-04-2024 12:00:00,25.14389,75.821256,OZONE,13,59,47
India,Rajasthan,Nagaur,"Karni Colony, Nagaur - RSPCB",05-04-2024 12:00:00,27.213494,73.734444,PM2.5,15,61,38
India,Rajasthan,Pali,"Indira Colony Vistar, Pali - RSPCB",05-04-2024 12:00:00,25.771061, 73.340227,PM10,112,189,132
India,Rajasthan,Pratapgarh,"Pragati Nagar, Pratapgarh - RSPCB",05-04-2024 12:00:00,24.041198,74.780702,CO,10,23,16
India,Rajasthan,Rajsamand,"Dhoinda, Rajsamand - RSPCB",05-04-2024 12:00:00,25.036360,73.883502,OZONE,22,41,36
India,Rajasthan,Sawai Madhopur,"Sahu Nagar, Sawai Madhopur - RSPCB",05-04-2024 12:00:00,26.031443,76.359327,CO,8,113,27
India,Rajasthan,Sikar,"Radhakishan Pura, Sikar - RSPCB",05-04-2024 12:00:00,27.608912,75.153302,PM10,81,179,125
India,Rajasthan,Sikar,"Radhakishan Pura, Sikar - RSPCB",05-04-2024 12:00:00,27.608912,75.153302,NH3,5,8,7
India,Rajasthan,Sirohi,"Vedhaynath Colony, Sirohi - RSPCB",05-04-2024 12:00:00,24.885261,72.857549,OZONE,45,91,63
India,Rajasthan,Sri Ganganagar,"Old City, Sri Ganganagar - RSPCB",05-04-2024 12:00:00,29.931624,73.864511,PM2.5,45,160,80
India,Rajasthan,Tonk,"Shastri Nagar, Tonk - RSPCB",05-04-2024 12:00:00,26.159933,75.780517,PM2.5,NA,NA,NA
India,Rajasthan,Tonk,"Shastri Nagar, Tonk - RSPCB",05-04-2024 12:00:00,26.159933,75.780517,SO2,3,21,10
India,Rajasthan,Udaipur,"Ashok Nagar, Udaipur - RSPCB",05-04-2024 12:00:00,24.5886166,73.6321397,PM2.5,55,127,91
India,Rajasthan,Udaipur,"Ashok Nagar, Udaipur - RSPCB",05-04-2024 12:00:00,24.5886166,73.6321397,PM10,76,147,104
India,Rajasthan,Udaipur,"Ashok Nagar, Udaipur - RSPCB",05-04-2024 12:00:00,24.5886166,73.6321397,NH3,6,7,6
India,Sikkim,Gangtok,"Zero Point GICI, Gangtok - SSPCB",05-04-2024 12:00:00,27.338530,88.614099,PM10,52,82,69
India,Sikkim,Gangtok,"Zero Point GICI, Gangtok - SSPCB",05-04-2024 12:00:00,27.338530,88.614099,NO2,1,6,2
India,TamilNadu,Ariyalur,"Keelapalur, Ariyalur - TNPCB",05-04-2024 12:00:00,11.06825,79.07033,PM10,7,39,20
India,TamilNadu,Ariyalur,"Keelapalur, Ariyalur - TNPCB",05-04-2024 12:00:00,11.06825,79.07033,NH3,1,2,1
India,TamilNadu,Chengalpattu,"Crescent University, Chengalpattu - TNPCB",05-04-2024 12:00:00,12.8777316,80.0834807,SO2,NA,NA,NA
India,TamilNadu,Chengalpattu,"Crescent University, Chengalpattu - TNPCB",05-04-2024 12:00:00,12.8777316,80.0834807,OZONE,6,7,6
India,TamilNadu,Chennai,"Alandur Bus Depot, Chennai - CPCB",05-04-2024 12:00:00,12.9099161,80.1076538,PM2.5,29,70,47
India,TamilNadu,Chennai,"Alandur Bus Depot, Chennai - CPCB",05-04-2024 12:00:00,12.9099161,80.1076538,OZONE,3,7,5
India,TamilNadu,Chennai,"Kodungaiyur, Chennai - TNPCB",05-04-2024 12:00:00,13.1278,80.2642,PM2.5,4,24,13
India,TamilNadu,Chennai,"Kodungaiyur, Chennai - TNPCB",05-04-2024 12:00:00,13.1278,80.2642,NO2,8,17,13
India,TamilNadu,Chennai,"Manali, Chennai - CPCB",05-04-2024 12:00:00,13.164544,80.26285,PM10,19,86,53
India,TamilNadu,Chennai,"Perungudi, Chennai - TNPCB",05-04-2024 12:00:00,12.9533,80.2357,NH3,2,2,2
India,TamilNadu,Chennai,"Royapuram, Chennai - TNPCB",05-04-2024 12:00:00,13.1036,80.2909,NH3,NA,NA,NA
India,TamilNadu,Chennai,"Royapuram, Chennai - TNPCB",05-04-2024 12:00:00,13.1036,80.2909,SO2,2,5,4
India,TamilNadu,Chennai,"Velachery Res. Area, Chennai - CPCB",05-04-2024 12:00:00,13.0052189,80.2398125,PM10,19,51,32
India,TamilNadu,Chennai,"Velachery Res. Area, Chennai - CPCB",05-04-2024 12:00:00,13.0052189,80.2398125,OZONE,10,46,32
India,TamilNadu,Cuddalore,"Semmandalam, Cuddalore - TNPCB",05-04-2024 12:00:00,11.7637683,79.7499835,PM2.5,NA,NA,NA
India,TamilNadu,Gummidipoondi,"Anthoni Pillai Nagar, Gummidipoondi - TNPCB",05-04-2024 12:00:00,13.4127,80.1081,NH3,1,2,2
India,TamilNadu,Kanchipuram,"Kilambi, Kanchipuram - TNPCB",05-04-2024 12:00:00,12.864618,79.659968,PM2.5,NA,NA,NA
India,TamilNadu,Kanchipuram,"Kilambi, Kanchipuram - TNPCB",05-04-2024 12:00:00,12.864618,79.659968,OZONE,NA,NA,NA
India,TamilNadu,Ooty,"Bombay Castel, Ooty - TNPCB",05-04-2024 12:00:00,11.4068288,76.7138973,PM2.5,NA,NA,NA
India,TamilNadu,Ooty,"Bombay Castel, Ooty - TNPCB",05-04-2024 12:00:00,11.4068288,76.7138973,NO2,NA,NA,NA
India,TamilNadu,Ramanathapuram,"Chalai Bazaar, Ramanathapuram - TNPCB",05-04-2024 12:00:00,9.36399,78.831977,CO,1,6,4
India,TamilNadu,Ramanathapuram,"Chalai Bazaar, Ramanathapuram - TNPCB",05-04-2024 12:00:00,9.36399,78.831977,OZONE,13,14,14
India,TamilNadu,Thoothukudi,"Meelavittan, Thoothukudi - TNPCB",05-04-2024 12:00:00,8.816428 ,78.099039,PM10,28,151,67
India,TamilNadu,Thoothukudi,"Meelavittan, Thoothukudi - TNPCB",05-04-2024 12:00:00,8.816428 ,78.099039,OZONE,1,135,24
India,TamilNadu,Virudhunagar,"Collectorate Office, Virudhunagar - TNPCB",05-04-2024 12:00:00,9.559382,77.948828,OZONE,6,7,6
India,Telangana,Hyderabad,"Bollaram Industrial Area, Hyderabad - TSPCB",05-04-2024 12:00:00,17.540891,78.358528,PM2.5,57,177,75
India,Telangana,Hyderabad,"Central University, Hyderabad - TSPCB",05-04-2024 12:00:00,17.460103,78.334361,NO2,20,43,28
India,Telangana,Hyderabad,"ECIL Kapra, Hyderabad - TSPCB",05-04-2024 12:00:00,17.470431,78.566959,PM2.5,46,73,56
India,Telangana,Hyderabad,"ECIL Kapra, Hyderabad - TSPCB",05-04-2024 12:00:00,17.470431,78.566959,PM10,75,89,81
India,Telangana,Hyderabad,"ECIL Kapra, Hyderabad - TSPCB",05-04-2024 12:00:00,17.470431,78.566959,NO2,9,11,10
India,Telangana,Hyderabad,"ECIL Kapra, Hyderabad - TSPCB",05-04-2024 12:00:00,17.470431,78.566959,NH3,6,10,6
India,Telangana,Hyderabad,"ICRISAT Patancheru, Hyderabad - TSPCB",05-04-2024 12:00:00,17.518400,78.278777,SO2,15,48,24
India,Telangana,Hyderabad,"ICRISAT Patancheru, Hyderabad - TSPCB",05-04-2024 12:00:00,17.518400,78.278777,CO,20,114,72
India,Telangana,Hyderabad,"ICRISAT Patancheru, Hyderabad - TSPCB",05-04-2024 12:00:00,17.518400,78.278777,OZONE,9,96,39
India,Telangana,Hyderabad,"IITH Kandi, Hyderabad - TSPCB",05-04-2024 12:00:00,17.585705,78.126199,SO2,NA,NA,NA
India,Telangana,Hyderabad,"IITH Kandi, Hyderabad - TSPCB",05-04-2024 12:00:00,17.585705,78.126199,CO,5,42,8
India,Telangana,Hyderabad,"Kokapet, Hyderabad - TSPCB",05-04-2024 12:00:00,17.393559,78.339194,NO2,8,9,8
India,Telangana,Hyderabad,"Kokapet, Hyderabad - TSPCB",05-04-2024 12:00:00,17.393559,78.339194,NH3,1,1,1
India,Telangana,Hyderabad,"Kokapet, Hyderabad - TSPCB",05-04-2024 12:00:00,17.393559,78.339194,CO,18,20,20
India,Telangana,Hyderabad,"Kompally Municipal Office, Hyderabad - TSPCB",05-04-2024 12:00:00,17.544899,78.486949,NO2,NA,NA,NA
India,Telangana,Hyderabad,"Nacharam_TSIIC IALA, Hyderabad - TSPCB",05-04-2024 12:00:00,17.429398,78.569354,PM10,75,93,91
India,Telangana,Hyderabad,"Nacharam_TSIIC IALA, Hyderabad - TSPCB",05-04-2024 12:00:00,17.429398,78.569354,CO,30,44,33
India,Telangana,Hyderabad,"New Malakpet, Hyderabad - TSPCB",05-04-2024 12:00:00,17.37206,78.50864,NO2,17,36,23
India,Telangana,Hyderabad,"Ramachandrapuram, Hyderabad - TSPCB",05-04-2024 12:00:00,17.528544,78.286195,PM10,79,84,81
India,Telangana,Hyderabad,"Ramachandrapuram, Hyderabad - TSPCB",05-04-2024 12:00:00,17.528544,78.286195,OZONE,2,53,17
India,Telangana,Hyderabad,"Sanathnagar, Hyderabad - TSPCB",05-04-2024 12:00:00,17.4559458,78.4332152,PM2.5,51,109,69
India,Telangana,Hyderabad,"Sanathnagar, Hyderabad - TSPCB",05-04-2024 12:00:00,17.4559458,78.4332152,NO2,29,30,29
India,Telangana,Hyderabad,"Somajiguda, Hyderabad - TSPCB",05-04-2024 12:00:00,17.417094,78.457437,NO2,19,37,27
India,Telangana,Hyderabad,"Zoo Park, Hyderabad - TSPCB",05-04-2024 12:00:00,17.349694,78.451437,PM2.5,39,109,63
India,Tripura,Agartala,"Bardowali, Agartala - Tripura SPCB",05-04-2024 12:00:00,23.8175497,91.2726974,NO2,4,11,7
India,Tripura,Agartala,"Bardowali, Agartala - Tripura SPCB",05-04-2024 12:00:00,23.8175497,91.2726974,SO2,28,29,29
India,Uttar_Pradesh,Agra,"Manoharpur, Agra - UPPCB",05-04-2024 12:00:00,27.23711,78.01936,SO2,10,25,16
India,Uttar_Pradesh,Agra,"Rohta, Agra - UPPCB",05-04-2024 12:00:00,27.106972,78.000111,SO2,3,18,11
India,Uttar_Pradesh,Agra,"Rohta, Agra - UPPCB",05-04-2024 12:00:00,27.106972,78.000111,CO,6,32,23
India,Uttar_Pradesh,Agra,"Rohta, Agra - UPPCB",05-04-2024 12:00:00,27.106972,78.000111,OZONE,15,18,17
India,Uttar_Pradesh,Agra,"Sector-3B Avas Vikas Colony, Agra - UPPCB",05-04-2024 12:00:00,27.19412,77.96237,OZONE,2,8,4
India,Uttar_Pradesh,Agra,"Shahjahan Garden, Agra - UPPCB",05-04-2024 12:00:00,27.169338,78.03582,PM2.5,22,151,64
India,Uttar_Pradesh,Agra,"Shahjahan Garden, Agra - UPPCB",05-04-2024 12:00:00,27.169338,78.03582,NH3,7,12,10
India,Uttar_Pradesh,Agra,"Shastripuram, Agra - UPPCB",05-04-2024 12:00:00,27.19862,77.92066,NO2,71,172,83
India,Uttar_Pradesh,Agra,"Shastripuram, Agra - UPPCB",05-04-2024 12:00:00,27.19862,77.92066,NH3,NA,NA,NA
India,Uttar_Pradesh,Agra,"Shastripuram, Agra - UPPCB",05-04-2024 12:00:00,27.19862,77.92066,SO2,16,20,17
India,Uttar_Pradesh,Baghpat,"Sardar Patel Inter College, Baghpat - UPPCB",05-04-2024 12:00:00,28.964949,77.278761,PM10,49,225,121
India,Uttar_Pradesh,Baghpat,"Sardar Patel Inter College, Baghpat - UPPCB",05-04-2024 12:00:00,28.964949,77.278761,NH3,2,4,2
India,Uttar_Pradesh,Baghpat,"Sardar Patel Inter College, Baghpat - UPPCB",05-04-2024 12:00:00,28.964949,77.278761,SO2,10,105,48
India,Uttar_Pradesh,Bareilly,"Civil Lines, Bareilly - UPPCB",05-04-2024 12:00:00,28.359581,79.414455,PM10,42,114,71
India,Uttar_Pradesh,Bareilly,"Civil Lines, Bareilly - UPPCB",05-04-2024 12:00:00,28.359581,79.414455,NO2,2,3,2
India,Uttar_Pradesh,Bareilly,"Rajendra Nagar, Bareilly - UPPCB",05-04-2024 12:00:00,28.38910936,79.42963708,OZONE,1,26,21
India,Uttar_Pradesh,Firozabad,"Vibhab Nagar, Firozabad - UPPCB",05-04-2024 12:00:00,27.1594,78.3953,NH3,2,2,2
India,Uttar_Pradesh,Firozabad,"Vibhab Nagar, Firozabad - UPPCB",05-04-2024 12:00:00,27.1594,78.3953,SO2,14,59,36
India,Uttar_Pradesh,Firozabad,"Vibhab Nagar, Firozabad - UPPCB",05-04-2024 12:00:00,27.1594,78.3953,CO,9,28,25
India,Uttar_Pradesh,Ghaziabad,"Indirapuram, Ghaziabad - UPPCB",05-04-2024 12:00:00,28.646233,77.358075,NO2,74,142,107
India,Uttar_Pradesh,Ghaziabad,"Indirapuram, Ghaziabad - UPPCB",05-04-2024 12:00:00,28.646233,77.358075,SO2,6,12,10
India,Uttar_Pradesh,Ghaziabad,"Loni, Ghaziabad - UPPCB",05-04-2024 12:00:00,28.757294,77.278792,PM2.5,NA,NA,NA
India,Uttar_Pradesh,Ghaziabad,"Loni, Ghaziabad - UPPCB",05-04-2024 12:00:00,28.757294,77.278792,PM10,NA,NA,NA
India,Uttar_Pradesh,Ghaziabad,"Loni, Ghaziabad - UPPCB",05-04-2024 12:00:00,28.757294,77.278792,NH3,NA,NA,NA
India,Uttar_Pradesh,Ghaziabad,"Loni, Ghaziabad - UPPCB",05-04-2024 12:00:00,28.757294,77.278792,SO2,NA,NA,NA
India,Uttar_Pradesh,Ghaziabad,"Loni, Ghaziabad - UPPCB",05-04-2024 12:00:00,28.757294,77.278792,CO,36,96,44
India,Uttar_Pradesh,Ghaziabad,"Sanjay Nagar, Ghaziabad - UPPCB",05-04-2024 12:00:00,28.685382,77.453839,PM2.5,25,315,144
India,Uttar_Pradesh,Ghaziabad,"Sanjay Nagar, Ghaziabad - UPPCB",05-04-2024 12:00:00,28.685382,77.453839,NH3,6,12,9
India,Uttar_Pradesh,Hapur,"Anand Vihar, Hapur - UPPCB",05-04-2024 12:00:00,28.725645,77.749675,NH3,7,11,9
India,Uttar_Pradesh,Hapur,"Anand Vihar, Hapur - UPPCB",05-04-2024 12:00:00,28.725645,77.749675,CO,34,94,49
India,Uttar_Pradesh,Jhansi,"Shivaji Nagar, Jhansi - UPPCB",05-04-2024 12:00:00,25.4547,78.6039,PM2.5,18,415,56
India,Uttar_Pradesh,Kanpur,"FTI Kidwai Nagar, Kanpur - UPPCB",05-04-2024 12:00:00,26.428282,80.327067,PM2.5,43,295,102
India,Uttar_Pradesh,Kanpur,"FTI Kidwai Nagar, Kanpur - UPPCB",05-04-2024 12:00:00,26.428282,80.327067,NH3,2,4,3
India,Uttar_Pradesh,Kanpur,"FTI Kidwai Nagar, Kanpur - UPPCB",05-04-2024 12:00:00,26.428282,80.327067,CO,29,50,45
India,Uttar_Pradesh,Kanpur,"NSI Kalyanpur, Kanpur - UPPCB",05-04-2024 12:00:00,26.509954,80.249612,PM2.5,36,175,80
India,Uttar_Pradesh,Kanpur,"NSI Kalyanpur, Kanpur - UPPCB",05-04-2024 12:00:00,26.509954,80.249612,NO2,15,15,15
India,Uttar_Pradesh,Kanpur,"Nehru Nagar, Kanpur - UPPCB",05-04-2024 12:00:00,26.4703136,80.3229863,PM2.5,30,144,63
India,Uttar_Pradesh,Khurja,"Kalindi Kunj, Khurja - UPPCB",05-04-2024 12:00:00,28.2348927,77.8683002,NO2,3,4,3
India,Uttar_Pradesh,Khurja,"Kalindi Kunj, Khurja - UPPCB",05-04-2024 12:00:00,28.2348927,77.8683002,NH3,1,2,1
India,Uttar_Pradesh,Lucknow,"B R Ambedkar University, Lucknow - UPPCB",05-04-2024 12:00:00,26.766433,80.927299,SO2,33,49,37
India,Uttar_Pradesh,Lucknow,"Kendriya Vidyalaya, Lucknow - CPCB",05-04-2024 12:00:00,26.906111,80.948222,NO2,7,36,18
India,Uttar_Pradesh,Lucknow,"Lalbagh, Lucknow - CPCB",05-04-2024 12:00:00,26.8458805,80.9365541,PM2.5,44,221,111
India,Uttar_Pradesh,Lucknow,"Lalbagh, Lucknow - CPCB",05-04-2024 12:00:00,26.8458805,80.9365541,SO2,1,14,8
India,Uttar_Pradesh,Lucknow,"Talkatora District Industries Center, Lucknow - CPCB",05-04-2024 12:00:00,26.83399722,80.8917361,PM2.5,28,99,53
India,Uttar_Pradesh,Meerut,"Ganga Nagar, Meerut - UPPCB",05-04-2024 12:00:00,28.999264,77.7590354,CO,21,90,41
India,Uttar_Pradesh,Meerut,"Jai Bhim Nagar, Meerut - UPPCB",05-04-2024 12:00:00,28.9535882,77.7622941,PM10,46,190,84
India,Uttar_Pradesh,Meerut,"Pallavpuram Phase 2, Meerut - UPPCB",05-04-2024 12:00:00,29.063510,77.709723,OZONE,18,95,38
India,Uttar_Pradesh,Moradabad,"Employment Office, Moradabad - UPPCB",05-04-2024 12:00:00,28.88528,78.73880,NH3,3,4,4
India,Uttar_Pradesh,Moradabad,"Employment Office, Moradabad - UPPCB",05-04-2024 12:00:00,28.88528,78.73880,CO,4,44,36
India,Uttar_Pradesh,Moradabad,"Kashiram Nagar, Moradabad - UPPCB",05-04-2024 12:00:00,28.849399,78.742362,PM10,46,162,105
India,Uttar_Pradesh,Moradabad,"Transport Nagar, Moradabad - UPPCB",05-04-2024 12:00:00,28.802625,78.753728,PM10,39,122,79
India,Uttar_Pradesh,Moradabad,"Transport Nagar, Moradabad - UPPCB",05-04-2024 12:00:00,28.802625,78.753728,NH3,6,6,6
India,Uttar_Pradesh,Noida,"Sector - 125, Noida - UPPCB",05-04-2024 12:00:00,28.5447608,77.3231257,NO2,23,169,82
India,Uttar_Pradesh,Noida,"Sector - 125, Noida - UPPCB",05-04-2024 12:00:00,28.5447608,77.3231257,NH3,5,15,12
India,Uttar_Pradesh,Noida,"Sector-1, Noida - UPPCB",05-04-2024 12:00:00,28.5898,77.3101,SO2,7,32,15
India,Uttar_Pradesh,Noida,"Sector-1, Noida - UPPCB",05-04-2024 12:00:00,28.5898,77.3101,CO,4,112,35
India,Uttar_Pradesh,Noida,"Sector-116, Noida - UPPCB",05-04-2024 12:00:00,28.569230,77.393848,PM2.5,35,186,95
India,Uttar_Pradesh,Noida,"Sector-116, Noida - UPPCB",05-04-2024 12:00:00,28.569230,77.393848,PM10,106,299,164
India,Uttar_Pradesh,Noida,"Sector-116, Noida - UPPCB",05-04-2024 12:00:00,28.569230,77.393848,NO2,23,143,61
India,Uttar_Pradesh,Noida,"Sector-116, Noida - UPPCB",05-04-2024 12:00:00,28.569230,77.393848,NH3,5,11,8
India,Uttar_Pradesh,Noida,"Sector-116, Noida - UPPCB",05-04-2024 12:00:00,28.569230,77.393848,SO2,20,52,31
India,Uttar_Pradesh,Noida,"Sector-116, Noida - UPPCB",05-04-2024 12:00:00,28.569230,77.393848,OZONE,1,58,12
India,Uttar_Pradesh,Prayagraj,"Motilal Nehru NIT, Prayagraj - UPPCB",05-04-2024 12:00:00,25.494,81.863,SO2,22,38,29
India,Uttar_Pradesh,Prayagraj,"Nagar Nigam, Prayagraj - UPPCB",05-04-2024 12:00:00,25.44919916 ,81.82735986 ,SO2,29,77,50
India,Uttar_Pradesh,Varanasi,"Ardhali Bazar, Varanasi - UPPCB",05-04-2024 12:00:00,25.3505986,82.9083074,PM2.5,14,67,38
India,Uttar_Pradesh,Varanasi,"Bhelupur, Varanasi - UPPCB",05-04-2024 12:00:00,25.301778,82.996789,PM10,28,67,45
India,Uttar_Pradesh,Varanasi,"Bhelupur, Varanasi - UPPCB",05-04-2024 12:00:00,25.301778,82.996789,OZONE,1,67,25
India,Uttar_Pradesh,Varanasi,"IESD Banaras Hindu University, Varanasi - UPPCB",05-04-2024 12:00:00,25.262326,82.995408,PM2.5,7,25,16
India,Uttar_Pradesh,Varanasi,"IESD Banaras Hindu University, Varanasi - UPPCB",05-04-2024 12:00:00,25.262326,82.995408,NO2,2,2,2
India,Uttar_Pradesh,Varanasi,"Maldahiya, Varanasi - UPPCB",05-04-2024 12:00:00,25.32393,82.99687,PM10,21,57,38
India,Uttar_Pradesh,Varanasi,"Maldahiya, Varanasi - UPPCB",05-04-2024 12:00:00,25.32393,82.99687,CO,9,105,20
India,Uttar_Pradesh,Vrindavan,"Omex Eternity, Vrindavan - UPPCB",05-04-2024 12:00:00,27.5714090,77.6557570,CO,27,80,67
India,Uttarakhand,Dehradun,"Doon University, Dehradun - UKPCB",05-04-2024 12:00:00,30.269444,78.044167,PM10,40,125,85
India,Uttarakhand,Kashipur,"Govt. Girls Inter College, Kashipur - UKPCB",05-04-2024 12:00:00,29.2124114,78.9611753,CO,24,67,34
India,Uttarakhand,Rishikesh,"Shivaji Nagar, Rishikesh - UKPCB",05-04-2024 12:00:00,30.075911,78.2859547,PM2.5,25,61,45
India,Uttarakhand,Rishikesh,"Shivaji Nagar, Rishikesh - UKPCB",05-04-2024 12:00:00,30.075911,78.2859547,NO2,7,40,17
India,Uttarakhand,Rishikesh,"Shivaji Nagar, Rishikesh - UKPCB",05-04-2024 12:00:00,30.075911,78.2859547,SO2,4,5,4
India,Uttarakhand,Rishikesh,"Shivaji Nagar, Rishikesh - UKPCB",05-04-2024 12:00:00,30.075911,78.2859547,OZONE,20,128,42
India,West_Bengal,Asansol,"Asansol Court Area, Asansol - WBPCB",05-04-2024 12:00:00,23.685297,86.945968,NO2,27,51,39
India,West_Bengal,Asansol,"Asansol Court Area, Asansol - WBPCB",05-04-2024 12:00:00,23.685297,86.945968,NH3,4,10,6
India,West_Bengal,Barrackpore,"SVSPA Campus, Barrackpore - WBPCB",05-04-2024 12:00:00,22.7605581,88.3617589,SO2,6,14,8
India,West_Bengal,Barrackpore,"SVSPA Campus, Barrackpore - WBPCB",05-04-2024 12:00:00,22.7605581,88.3617589,OZONE,2,70,16
India,West_Bengal,Durgapur,"Sidhu Kanhu Indoor Stadium, Durgapur - WBPCB",05-04-2024 12:00:00,23.5404352,87.2892225,PM2.5,42,428,187
India,West_Bengal,Durgapur,"Sidhu Kanhu Indoor Stadium, Durgapur - WBPCB",05-04-2024 12:00:00,23.5404352,87.2892225,PM10,131,314,163
India,West_Bengal,Durgapur,"Sidhu Kanhu Indoor Stadium, Durgapur - WBPCB",05-04-2024 12:00:00,23.5404352,87.2892225,CO,28,117,62
India,West_Bengal,Haldia,"Priyambada Housing Estate, Haldia - WBPCB",05-04-2024 12:00:00,22.06047,88.109737,SO2,9,25,14
India,West_Bengal,Howrah,"Belur Math, Howrah - WBPCB",05-04-2024 12:00:00,22.629801,88.352017,OZONE,9,66,18
India,West_Bengal,Howrah,"Padmapukur, Howrah - WBPCB",05-04-2024 12:00:00,22.5687319,88.2797276,PM2.5,37,77,53
India,West_Bengal,Howrah,"Padmapukur, Howrah - WBPCB",05-04-2024 12:00:00,22.5687319,88.2797276,NH3,1,2,1
India,West_Bengal,Kolkata,"Ballygunge, Kolkata - WBPCB",05-04-2024 12:00:00,22.5367507,88.3638022,NH3,5,8,7
India,West_Bengal,Kolkata,"Ballygunge, Kolkata - WBPCB",05-04-2024 12:00:00,22.5367507,88.3638022,OZONE,11,70,19
India,West_Bengal,Kolkata,"Bidhannagar, Kolkata - WBPCB",05-04-2024 12:00:00,22.58157048,88.41002457,PM2.5,18,88,48
India,West_Bengal,Kolkata,"Fort William, Kolkata - WBPCB",05-04-2024 12:00:00,22.556640,88.342674,PM2.5,33,78,53
India,West_Bengal,Kolkata,"Fort William, Kolkata - WBPCB",05-04-2024 12:00:00,22.556640,88.342674,PM10,45,103,71
India,West_Bengal,Kolkata,"Fort William, Kolkata - WBPCB",05-04-2024 12:00:00,22.556640,88.342674,NH3,3,4,3
India,West_Bengal,Kolkata,"Fort William, Kolkata - WBPCB",05-04-2024 12:00:00,22.556640,88.342674,SO2,6,20,9
India,West_Bengal,Kolkata,"Fort William, Kolkata - WBPCB",05-04-2024 12:00:00,22.556640,88.342674,CO,12,30,18
India,West_Bengal,Kolkata,"Rabindra Bharati University, Kolkata - WBPCB",05-04-2024 12:00:00,22.627847,88.380669,SO2,2,22,9
India,West_Bengal,Kolkata,"Rabindra Bharati University, Kolkata - WBPCB",05-04-2024 12:00:00,22.627847,88.380669,OZONE,13,303,32
India,West_Bengal,Kolkata,"Victoria, Kolkata - WBPCB",05-04-2024 12:00:00,22.5448082,88.3403691,PM2.5,24,86,50
India,West_Bengal,Kolkata,"Victoria, Kolkata - WBPCB",05-04-2024 12:00:00,22.5448082,88.3403691,OZONE,10,53,18
India,West_Bengal,Siliguri,"Ward-32 Bapupara, Siliguri - WBPCB",05-04-2024 12:00:00,26.6879226,88.4152495,SO2,7,12,9
India,West_Bengal,Siliguri,"Ward-32 Bapupara, Siliguri - WBPCB",05-04-2024 12:00:00,26.6879226,88.4152495,CO,14,65,21
India,Andhra_Pradesh,Amaravati,"Secretariat, Amaravati - APPCB",05-04-2024 12:00:00,16.5150833,80.5181667,SO2,15,19,16
India,Andhra_Pradesh,Amaravati,"Secretariat, Amaravati - APPCB",05-04-2024 12:00:00,16.5150833,80.5181667,OZONE,1,48,21
India,Andhra_Pradesh,Chittoor,"Gangineni Cheruvu, Chittoor - APPCB",05-04-2024 12:00:00,13.204880,79.097889,PM2.5,31,330,100
India,Andhra_Pradesh,Kadapa,"Yerramukkapalli, Kadapa - APPCB",05-04-2024 12:00:00,14.465052,78.824187,NO2,NA,NA,NA
India,Andhra_Pradesh,Rajamahendravaram,"Anand Kala Kshetram, Rajamahendravaram - APPCB",05-04-2024 12:00:00,16.9872867,81.7363176,PM10,14,51,30
India,Andhra_Pradesh,Rajamahendravaram,"Anand Kala Kshetram, Rajamahendravaram - APPCB",05-04-2024 12:00:00,16.9872867,81.7363176,SO2,11,13,12
India,Andhra_Pradesh,Rajamahendravaram,"Anand Kala Kshetram, Rajamahendravaram - APPCB",05-04-2024 12:00:00,16.9872867,81.7363176,CO,24,34,29
India,Andhra_Pradesh,Tirupati,"Tirumala, Tirupati - APPCB",05-04-2024 12:00:00,13.67,79.35,PM10,26,96,49
India,Andhra_Pradesh,Tirupati,"Tirumala, Tirupati - APPCB",05-04-2024 12:00:00,13.67,79.35,NH3,1,1,1
India,Andhra_Pradesh,Tirupati,"Tirumala, Tirupati - APPCB",05-04-2024 12:00:00,13.67,79.35,SO2,1,12,6
India,Andhra_Pradesh,Tirupati,"Vaikuntapuram, Tirupati - APPCB",05-04-2024 12:00:00,13.615387,79.409230,PM10,14,151,61
India,Andhra_Pradesh,Tirupati,"Vaikuntapuram, Tirupati - APPCB",05-04-2024 12:00:00,13.615387,79.409230,NO2,14,54,25
India,Andhra_Pradesh,Tirupati,"Vaikuntapuram, Tirupati - APPCB",05-04-2024 12:00:00,13.615387,79.409230,OZONE,4,48,20
India,Andhra_Pradesh,Vijayawada,"HB Colony, Vijayawada - APPCB",05-04-2024 12:00:00,16.536107,80.594233,PM2.5,39,46,42
India,Andhra_Pradesh,Vijayawada,"Kanuru, Vijayawada - APPCB",05-04-2024 12:00:00,16.486692,80.699436,OZONE,28,28,28
India,Andhra_Pradesh,Vijayawada,"Rajiv Gandhi Park, Vijayawada - APPCB",05-04-2024 12:00:00,16.509717,80.612222,PM10,25,97,49
India,Andhra_Pradesh,Vijayawada,"Rajiv Gandhi Park, Vijayawada - APPCB",05-04-2024 12:00:00,16.509717,80.612222,NO2,2,56,24
India,Andhra_Pradesh,Vijayawada,"Rajiv Gandhi Park, Vijayawada - APPCB",05-04-2024 12:00:00,16.509717,80.612222,SO2,5,10,7
India,Andhra_Pradesh,Vijayawada,"Rajiv Nagar, Vijayawada - APPCB",05-04-2024 12:00:00,16.554731,80.649110,PM10,59,104,65
India,Andhra_Pradesh,Vijayawada,"Rajiv Nagar, Vijayawada - APPCB",05-04-2024 12:00:00,16.554731,80.649110,SO2,10,20,13
India,Andhra_Pradesh,Visakhapatnam,"GVM Corporation, Visakhapatnam - APPCB",05-04-2024 12:00:00,17.72,83.3,PM10,65,185,114
India,Andhra_Pradesh,Visakhapatnam,"GVM Corporation, Visakhapatnam - APPCB",05-04-2024 12:00:00,17.72,83.3,OZONE,8,11,10
India,Assam,Byrnihat,"Central Academy for SFS, Byrnihat - PCBA",05-04-2024 12:00:00,26.071318,91.87488,PM10,42,153,85
India,Assam,Byrnihat,"Central Academy for SFS, Byrnihat - PCBA",05-04-2024 12:00:00,26.071318,91.87488,NH3,2,7,5
India,Assam,Guwahati,"IITG, Guwahati - PCBA",05-04-2024 12:00:00,26.2028636,91.70046436,SO2,11,12,12
India,Assam,Guwahati,"IITG, Guwahati - PCBA",05-04-2024 12:00:00,26.2028636,91.70046436,CO,8,10,9
India,Assam,Guwahati,"LGBI Airport, Guwahati - PCBA",05-04-2024 12:00:00,26.10887,91.589544,PM2.5,33,318,108
India,Assam,Guwahati,"Pan Bazaar, Guwahati - PCBA",05-04-2024 12:00:00,26.187500,91.744194,PM2.5,23,64,46
India,Assam,Guwahati,"Pan Bazaar, Guwahati - PCBA",05-04-2024 12:00:00,26.187500,91.744194,NH3,3,4,3
India,Assam,Guwahati,"Railway Colony, Guwahati - PCBA",05-04-2024 12:00:00,26.181742,91.78063,PM10,56,500,236
India,Assam,Guwahati,"Railway Colony, Guwahati - PCBA",05-04-2024 12:00:00,26.181742,91.78063,SO2,48,55,51
India,Assam,Nagaon,"Christianpatty, Nagaon - PCBA",05-04-2024 12:00:00,26.349082,92.68449,OZONE,33,131,58
India,Assam,Nalbari,"Bata Chowk, Nalbari - PCBA",05-04-2024 12:00:00,26.446912,91.439057,PM10,62,157,120
India,Assam,Nalbari,"Bata Chowk, Nalbari - PCBA",05-04-2024 12:00:00,26.446912,91.439057,NO2,9,18,13
India,Bihar,Araria,"Kharahiya Basti, Araria - BSPCB",05-04-2024 12:00:00,26.146529,87.454184,PM2.5,37,266,86
India,Bihar,Arrah,"New DM Office, Arrah - BSPCB",05-04-2024 12:00:00,25.5626095,84.663264,PM2.5,NA,NA,NA
India,Bihar,Arrah,"New DM Office, Arrah - BSPCB",05-04-2024 12:00:00,25.5626095,84.663264,NH3,NA,NA,NA
India,Bihar,Arrah,"New DM Office, Arrah - BSPCB",05-04-2024 12:00:00,25.5626095,84.663264,SO2,NA,NA,NA
India,Bihar,Arrah,"New DM Office, Arrah - BSPCB",05-04-2024 12:00:00,25.5626095,84.663264,CO,1,8,7
India,Bihar,Arrah,"New DM Office, Arrah - BSPCB",05-04-2024 12:00:00,25.5626095,84.663264,OZONE,15,39,23
India,Bihar,Bettiah,"Kamalnath Nagar, Bettiah - BSPCB",05-04-2024 12:00:00,26.80365,84.51954,SO2,21,28,23
India,Bihar,Bettiah,"Kamalnath Nagar, Bettiah - BSPCB",05-04-2024 12:00:00,26.80365,84.51954,CO,62,64,63
India,Bihar,Buxar,"Charitra Van, Buxar - BSPCB (Formerly known as Central Jail)",05-04-2024 12:00:00,25.567520,83.966379,PM2.5,NA,NA,NA
India,Bihar,Chhapra,"Darshan Nagar, Chhapra - BSPCB",05-04-2024 12:00:00,25.7808257,84.7446768,PM2.5,85,305,204
India,Bihar,Chhapra,"Darshan Nagar, Chhapra - BSPCB",05-04-2024 12:00:00,25.7808257,84.7446768,PM10,84,170,132
India,Bihar,Chhapra,"Darshan Nagar, Chhapra - BSPCB",05-04-2024 12:00:00,25.7808257,84.7446768,CO,34,69,49
India,Bihar,Chhapra,"Darshan Nagar, Chhapra - BSPCB",05-04-2024 12:00:00,25.7808257,84.7446768,OZONE,1,4,2
India,Bihar,Gaya,"Kareemganj, Gaya - BSPCB",05-04-2024 12:00:00,24.792403,84.992416,SO2,4,10,7
India,Bihar,Katihar,"Mirchaibari, Katihar - BSPCB",05-04-2024 12:00:00,25.560083,87.553265,CO,46,55,51
India,Bihar,Kishanganj,"SDM Office_Khagra, Kishanganj - BSPCB",05-04-2024 12:00:00,26.0881305,87.93840336,PM10,117,326,183
India,Bihar,Kishanganj,"SDM Office_Khagra, Kishanganj - BSPCB",05-04-2024 12:00:00,26.0881305,87.93840336,SO2,38,66,51
India,Bihar,Manguraha,"Forest Rest House, Manguraha - BSPCB",05-04-2024 12:00:00,27.308328,84.531742,CO,9,72,37
India,Bihar,Motihari,"Gandak Colony, Motihari - BSPCB",05-04-2024 12:00:00,26.63086,84.90051,CO,8,38,19
India,Bihar,Munger,"Town Hall, Munger - BSPCB",05-04-2024 12:00:00,25.376776,86.471523,CO,1,15,2
India,Bihar,Muzaffarpur,"Buddha Colony, Muzaffarpur - BSPCB",05-04-2024 12:00:00,26.11442,85.39813,PM2.5,158,326,279
India,Bihar,Muzaffarpur,"Buddha Colony, Muzaffarpur - BSPCB",05-04-2024 12:00:00,26.11442,85.39813,SO2,11,58,18
India,Bihar,Muzaffarpur,"MIT-Daudpur Kothi, Muzaffarpur - BSPCB",05-04-2024 12:00:00,26.1403345,85.3650192,PM10,125,244,164
India,Bihar,Muzaffarpur,"Muzaffarpur Collectorate, Muzaffarpur - BSPCB",05-04-2024 12:00:00,26.1209,85.3647,NO2,7,184,33
India,Bihar,Patna,"DRM Office Danapur, Patna - BSPCB",05-04-2024 12:00:00,25.586562,85.043586,PM2.5,NA,NA,NA
India,Bihar,Patna,"Govt. High School Shikarpur, Patna - BSPCB",05-04-2024 12:00:00,25.592539,85.227158,PM2.5,134,302,206
India,Bihar,Patna,"Govt. High School Shikarpur, Patna - BSPCB",05-04-2024 12:00:00,25.592539,85.227158,SO2,9,20,12
India,Bihar,Patna,"Govt. High School Shikarpur, Patna - BSPCB",05-04-2024 12:00:00,25.592539,85.227158,OZONE,1,59,20
India,Bihar,Patna,"IGSC Planetarium Complex, Patna - BSPCB",05-04-2024 12:00:00,25.610369,85.132568,SO2,5,6,5
India,Bihar,Patna,"Rajbansi Nagar, Patna - BSPCB",05-04-2024 12:00:00,25.599486,85.113666,CO,17,104,34
India,Bihar,Patna,"Samanpura, Patna - BSPCB",05-04-2024 12:00:00,25.596727,85.085624,PM2.5,49,424,202
India,Bihar,Patna,"Samanpura, Patna - BSPCB",05-04-2024 12:00:00,25.596727,85.085624,SO2,6,15,10
India,Bihar,Patna,"Samanpura, Patna - BSPCB",05-04-2024 12:00:00,25.596727,85.085624,CO,27,123,76
India,Bihar,Patna,"Samanpura, Patna - BSPCB",05-04-2024 12:00:00,25.596727,85.085624,OZONE,31,154,154
India,Bihar,Purnia,"Mariam Nagar, Purnia - BSPCB",05-04-2024 12:00:00,25.366336,87.117468,PM10,117,261,156
India,Bihar,Rajgir,"Dangi Tola, Rajgir - BSPCB",05-04-2024 12:00:00,25.03280,85.41948,OZONE,17,31,24
India,Bihar,Saharsa,"Police Line, Saharsa - BSPCB",05-04-2024 12:00:00,25.892357,86.590325,NO2,6,8,7
India,Bihar,Samastipur,"DM Office_Kasipur, Samastipur - BSPCB",05-04-2024 12:00:00,25.859655,85.77944,OZONE,9,17,10
India,Bihar,Siwan,"Chitragupta Nagar, Siwan - BSPCB",05-04-2024 12:00:00,26.2271665,84.3570427,OZONE,19,137,89
India,Chandigarh,Chandigarh,"Sector 22, Chandigarh - CPCC",05-04-2024 12:00:00,30.735567,76.775714,PM10,59,139,92
India,Chandigarh,Chandigarh,"Sector 22, Chandigarh - CPCC",05-04-2024 12:00:00,30.735567,76.775714,SO2,8,51,21
India,Chandigarh,Chandigarh,"Sector 22, Chandigarh - CPCC",05-04-2024 12:00:00,30.735567,76.775714,CO,32,52,44
India,Chandigarh,Chandigarh,"Sector-25, Chandigarh - CPCC",05-04-2024 12:00:00,30.751462,76.762879,PM10,102,150,116
India,Chandigarh,Chandigarh,"Sector-25, Chandigarh - CPCC",05-04-2024 12:00:00,30.751462,76.762879,CO,13,32,24
India,Chandigarh,Chandigarh,"Sector-25, Chandigarh - CPCC",05-04-2024 12:00:00,30.751462,76.762879,OZONE,1,49,15
India,Chandigarh,Chandigarh,"Sector-53, Chandigarh - CPCC",05-04-2024 12:00:00,30.719859,76.738637,SO2,11,30,19
India,Chandigarh,Chandigarh,"Sector-53, Chandigarh - CPCC",05-04-2024 12:00:00,30.719859,76.738637,OZONE,14,59,28
India,Chhattisgarh,Bhilai,"Civic Center, Bhilai - Bhilai Steel Plant",05-04-2024 12:00:00,21.185571,81.343175,PM10,44,114,68
India,Chhattisgarh,Bhilai,"Civic Center, Bhilai - Bhilai Steel Plant",05-04-2024 12:00:00,21.185571,81.343175,SO2,3,14,9
India,Chhattisgarh,Bilaspur,"Mangala, Bilaspur - NTPC",05-04-2024 12:00:00,22.08815,82.13737,NO2,18,22,20
India,Chhattisgarh,Bilaspur,"Mangala, Bilaspur - NTPC",05-04-2024 12:00:00,22.08815,82.13737,SO2,6,16,11
India,Chhattisgarh,Chhal,"Nawapara SECL Colony, Chhal - CECB",05-04-2024 12:00:00,22.118125,83.140608,PM2.5,157,306,228
India,Chhattisgarh,Chhal,"Nawapara SECL Colony, Chhal - CECB",05-04-2024 12:00:00,22.118125,83.140608,NO2,17,64,35
India,Chhattisgarh,Chhal,"Nawapara SECL Colony, Chhal - CECB",05-04-2024 12:00:00,22.118125,83.140608,CO,10,70,40
India,Chhattisgarh,Korba,"Urja Nagar, Korba - CECB",05-04-2024 12:00:00,22.348441,82.549611,PM10,37,293,116
India,Chhattisgarh,Korba,"Urja Nagar, Korba - CECB",05-04-2024 12:00:00,22.348441,82.549611,SO2,3,54,9
India,Chhattisgarh,Kunjemura,"OP Jindal School, Kunjemura - CECB",05-04-2024 12:00:00,22.126650,83.483212,NO2,25,149,78
India,Chhattisgarh,Milupara,"Govt. Higher Secondary School, Milupara - CECB",05-04-2024 12:00:00,22.1910172,83.5197009,NO2,16,77,42
India,Chhattisgarh,Raipur,"AIIMS, Raipur - CECB",05-04-2024 12:00:00,21.258815,81.578979,NH3,5,6,6
India,Chhattisgarh,Raipur,"Krishak Nagar, Raipur - CECB",05-04-2024 12:00:00,21.237755,81.705301,NH3,1,1,1
India,Chhattisgarh,Raipur,"Krishak Nagar, Raipur - CECB",05-04-2024 12:00:00,21.237755,81.705301,CO,28,58,50
India,Chhattisgarh,Raipur,"Siltara Phase-II, Raipur - CECB",05-04-2024 12:00:00,21.371751,81.664929,PM2.5,80,312,173
India,Chhattisgarh,Raipur,"Siltara Phase-II, Raipur - CECB",05-04-2024 12:00:00,21.371751,81.664929,PM10,85,200,138
India,Chhattisgarh,Raipur,"Siltara Phase-II, Raipur - CECB",05-04-2024 12:00:00,21.371751,81.664929,NH3,3,3,3
India,Chhattisgarh,Raipur,"Siltara Phase-II, Raipur - CECB",05-04-2024 12:00:00,21.371751,81.664929,OZONE,3,51,14
India,Chhattisgarh,Tumidih,"OP Jindal Industrial Park, Tumidih - CECB",05-04-2024 12:00:00,22.06631475,83.33820077,PM2.5,NA,NA,NA
India,Chhattisgarh,Tumidih,"OP Jindal Industrial Park, Tumidih - CECB",05-04-2024 12:00:00,22.06631475,83.33820077,CO,18,60,24
India,Chhattisgarh,Tumidih,"OP Jindal Industrial Park, Tumidih - CECB",05-04-2024 12:00:00,22.06631475,83.33820077,OZONE,41,96,67
India,Delhi,Delhi,"Alipur, Delhi - DPCC",05-04-2024 12:00:00,28.815329,77.153010,PM2.5,26,312,108
India,Delhi,Delhi,"Anand Vihar, Delhi - DPCC",05-04-2024 12:00:00,28.647622,77.3158090,OZONE,3,96,17
India,Delhi,Delhi,"Aya Nagar, Delhi - IMD",05-04-2024 12:00:00,28.4706914,77.1099364,OZONE,2,13,3
India,Delhi,Delhi,"Burari Crossing, Delhi - IMD",05-04-2024 12:00:00,28.7256504,77.2011573,OZONE,13,83,26
India,Delhi,Delhi,"CRRI Mathura Road, Delhi - IMD",05-04-2024 12:00:00,28.5512005,77.2735737,NO2,7,26,16
India,Delhi,Delhi,"DTU, Delhi - CPCB",05-04-2024 12:00:00,28.7500499,77.1112615,NO2,9,22,15
India,Delhi,Delhi,"Dr. Karni Singh Shooting Range, Delhi - DPCC",05-04-2024 12:00:00,28.498571,77.264840,PM2.5,40,217,93
India,Delhi,Delhi,"Dwarka-Sector 8, Delhi - DPCC ",05-04-2024 12:00:00,28.5710274,77.0719006,OZONE,2,76,27
India,Delhi,Delhi,"IGI Airport (T3), Delhi - IMD",05-04-2024 12:00:00,28.5627763,77.1180053,CO,14,94,33
India,Delhi,Delhi,"Jahangirpuri, Delhi - DPCC",05-04-2024 12:00:00,28.732820,77.170633,PM10,105,445,225
India,Delhi,Delhi,"Jahangirpuri, Delhi - DPCC",05-04-2024 12:00:00,28.732820,77.170633,CO,35,117,57
India,Delhi,Delhi,"Jawaharlal Nehru Stadium, Delhi - DPCC",05-04-2024 12:00:00,28.580280,77.233829,CO,26,114,38
India,Delhi,Delhi,"Jawaharlal Nehru Stadium, Delhi - DPCC",05-04-2024 12:00:00,28.580280,77.233829,OZONE,1,254,51
India,Delhi,Delhi,"Lodhi Road, Delhi - IITM",05-04-2024 12:00:00,28.588333,77.221667,OZONE,15,20,16
India,Delhi,Delhi,"Major Dhyan Chand National Stadium, Delhi - DPCC",05-04-2024 12:00:00,28.611281,77.237738,NO2,26,182,82
India,Delhi,Delhi,"Mandir Marg, Delhi - DPCC",05-04-2024 12:00:00,28.636429,77.201067,NO2,85,114,108
India,Delhi,Delhi,"Mandir Marg, Delhi - DPCC",05-04-2024 12:00:00,28.636429,77.201067,SO2,5,16,9
India,Delhi,Delhi,"Mundka, Delhi - DPCC",05-04-2024 12:00:00,28.684678,77.076574,PM2.5,28,388,148
India,Delhi,Delhi,"Mundka, Delhi - DPCC",05-04-2024 12:00:00,28.684678,77.076574,NO2,18,118,51
India,Delhi,Delhi,"NSIT Dwarka, Delhi - CPCB",05-04-2024 12:00:00,28.60909,77.0325413,PM10,107,199,144
India,Delhi,Delhi,"NSIT Dwarka, Delhi - CPCB",05-04-2024 12:00:00,28.60909,77.0325413,NO2,48,71,58
India,Delhi,Delhi,"NSIT Dwarka, Delhi - CPCB",05-04-2024 12:00:00,28.60909,77.0325413,SO2,2,57,23
India,Delhi,Delhi,"Narela, Delhi - DPCC",05-04-2024 12:00:00,28.822836,77.101981,PM2.5,20,346,116
India,Delhi,Delhi,"Nehru Nagar, Delhi - DPCC",05-04-2024 12:00:00,28.567890,77.250515,PM2.5,NA,NA,NA
India,Delhi,Delhi,"Nehru Nagar, Delhi - DPCC",05-04-2024 12:00:00,28.567890,77.250515,PM10,97,198,144
India,Delhi,Delhi,"Nehru Nagar, Delhi - DPCC",05-04-2024 12:00:00,28.567890,77.250515,OZONE,3,125,34
India,Delhi,Delhi,"North Campus, DU, Delhi - IMD",05-04-2024 12:00:00,28.6573814,77.1585447,PM10,NA,NA,NA
India,Delhi,Delhi,"Okhla Phase-2, Delhi - DPCC",05-04-2024 12:00:00,28.530785,77.271255,PM10,108,209,156
India,Delhi,Delhi,"Okhla Phase-2, Delhi - DPCC",05-04-2024 12:00:00,28.530785,77.271255,CO,2,133,63
India,Delhi,Delhi,"Punjabi Bagh, Delhi - DPCC",05-04-2024 12:00:00,28.674045,77.131023,PM10,90,215,137
India,Delhi,Delhi,"Punjabi Bagh, Delhi - DPCC",05-04-2024 12:00:00,28.674045,77.131023,NH3,4,5,5
India,Delhi,Delhi,"Punjabi Bagh, Delhi - DPCC",05-04-2024 12:00:00,28.674045,77.131023,CO,32,102,47
India,Delhi,Delhi,"Pusa, Delhi - DPCC",05-04-2024 12:00:00,28.639652,77.146275,NO2,50,148,99
India,Delhi,Delhi,"R K Puram, Delhi - DPCC",05-04-2024 12:00:00,28.563262,77.186937,NH3,5,9,6
India,Delhi,Delhi,"Rohini, Delhi - DPCC",05-04-2024 12:00:00,28.732528,77.119920,SO2,8,31,16
India,Delhi,Delhi,"Shadipur, Delhi - CPCB",05-04-2024 12:00:00,28.6514781,77.1473105,OZONE,9,58,29
India,Delhi,Delhi,"Sirifort, Delhi - CPCB",05-04-2024 12:00:00,28.5504249,77.2159377,CO,9,118,32
India,Delhi,Delhi,"Sonia Vihar, Delhi - DPCC",05-04-2024 12:00:00,28.710508,77.249485,PM2.5,31,240,99
India,Delhi,Delhi,"Sonia Vihar, Delhi - DPCC",05-04-2024 12:00:00,28.710508,77.249485,PM10,82,234,139
India,Delhi,Delhi,"Sonia Vihar, Delhi - DPCC",05-04-2024 12:00:00,28.710508,77.249485,NH3,5,8,6
India,Delhi,Delhi,"Sonia Vihar, Delhi - DPCC",05-04-2024 12:00:00,28.710508,77.249485,SO2,12,30,18
India,Delhi,Delhi,"Sonia Vihar, Delhi - DPCC",05-04-2024 12:00:00,28.710508,77.249485,CO,45,110,60
India,Delhi,Delhi,"Sri Aurobindo Marg, Delhi - DPCC",05-04-2024 12:00:00,28.531346,77.190156,PM2.5,43,272,95
India,Delhi,Delhi,"Sri Aurobindo Marg, Delhi - DPCC",05-04-2024 12:00:00,28.531346,77.190156,SO2,12,28,19
India,Delhi,Delhi,"Sri Aurobindo Marg, Delhi - DPCC",05-04-2024 12:00:00,28.531346,77.190156,CO,6,78,19
India,Delhi,Delhi,"Vivek Vihar, Delhi - DPCC",05-04-2024 12:00:00,28.672342,77.315260,NH3,15,15,15
India,Delhi,Delhi,"Vivek Vihar, Delhi - DPCC",05-04-2024 12:00:00,28.672342,77.315260,OZONE,1,98,33
India,Delhi,Delhi,"Wazirpur, Delhi - DPCC",05-04-2024 12:00:00,28.699793,77.165453,PM10,113,314,192
India,Delhi,Delhi,"Wazirpur, Delhi - DPCC",05-04-2024 12:00:00,28.699793,77.165453,NO2,48,211,118
India,Gujarat,Ahmedabad,"Chandkheda, Ahmedabad - IITM",05-04-2024 12:00:00,23.107969,72.574648,PM2.5,73,196,105
India,Gujarat,Ahmedabad,"Chandkheda, Ahmedabad - IITM",05-04-2024 12:00:00,23.107969,72.574648,OZONE,4,43,14
India,Gujarat,Ahmedabad,"Gyaspur, Ahmedabad - IITM",05-04-2024 12:00:00,22.977134,72.553024,PM10,66,191,106
India,Gujarat,Ahmedabad,"Raikhad, Ahmedabad - IITM",05-04-2024 12:00:00,23.020509,72.579261,NH3,2,6,4
India,Gujarat,Ahmedabad,"Rakhial, Ahmedabad - IITM",05-04-2024 12:00:00,23.016834,72.625775,SO2,6,13,9
India,Gujarat,Ahmedabad,"Rakhial, Ahmedabad - IITM",05-04-2024 12:00:00,23.016834,72.625775,CO,18,111,25
India,Gujarat,Ahmedabad,"SAC ISRO Satellite, Ahmedabad - IITM",05-04-2024 12:00:00,23.023389,72.515201,NO2,17,17,17
India,Gujarat,Ahmedabad,"SAC ISRO Satellite, Ahmedabad - IITM",05-04-2024 12:00:00,23.023389,72.515201,CO,29,38,34
India,Gujarat,Ahmedabad,"SAC ISRO Satellite, Ahmedabad - IITM",05-04-2024 12:00:00,23.023389,72.515201,OZONE,11,20,16
India,Gujarat,Ahmedabad,"Sardar Vallabhbhai Patel Stadium, Ahmedabad - IITM",05-04-2024 12:00:00,23.043070,72.562968,NO2,38,41,40
India,Gujarat,Ankleshwar,"GIDC, Ankleshwar - GPCB",05-04-2024 12:00:00,21.613267,73.010555,PM10,47,93,72
India,Gujarat,Ankleshwar,"GIDC, Ankleshwar - GPCB",05-04-2024 12:00:00,21.613267,73.010555,CO,9,112,18
India,Gujarat,Gandhinagar,"IIPHG Lekawada, Gandhinagar - IITM",05-04-2024 12:00:00,23.243639,72.68994,NO2,33,38,36
India,Gujarat,Gandhinagar,"Sector-10, Gandhinagar - GPCB",05-04-2024 12:00:00,23.221714,72.654328,NH3,1,2,1
India,Gujarat,Gandhinagar,"Sector-10, Gandhinagar - GPCB",05-04-2024 12:00:00,23.221714,72.654328,CO,36,76,47
India,Gujarat,Nandesari,"GIDC, Nandesari - Nandesari Ind. Association",05-04-2024 12:00:00,22.410802,73.097923,SO2,4,14,10
India,Gujarat,Vapi,"Phase-1 GIDC, Vapi - GPCB",05-04-2024 12:00:00,20.362421,72.918013,NO2,6,7,7
India,Gujarat,Vapi,"Phase-1 GIDC, Vapi - GPCB",05-04-2024 12:00:00,20.362421,72.918013,SO2,51,52,51
India,Gujarat,Vatva,"Phase-4 GIDC, Vatva - GPCB",05-04-2024 12:00:00,22.969611,72.643500,CO,18,18,18
India,Haryana,Bahadurgarh,"Arya Nagar, Bahadurgarh - HSPCB",05-04-2024 12:00:00,28.6701,76.9254,NH3,11,12,11
India,Haryana,Bahadurgarh,"Arya Nagar, Bahadurgarh - HSPCB",05-04-2024 12:00:00,28.6701,76.9254,SO2,4,54,22
India,Haryana,Bhiwani,"H.B. Colony, Bhiwani - HSPCB",05-04-2024 12:00:00,28.806223,76.141105,PM10,1,438,132
India,Haryana,Bhiwani,"H.B. Colony, Bhiwani - HSPCB",05-04-2024 12:00:00,28.806223,76.141105,SO2,1,18,7
India,Haryana,Bhiwani,"H.B. Colony, Bhiwani - HSPCB",05-04-2024 12:00:00,28.806223,76.141105,OZONE,6,25,17
India,Haryana,Charkhi Dadri,"Mini Secretariat, Charkhi Dadri - HSPCB",05-04-2024 12:00:00,28.593883,76.270653,PM2.5,62,248,135
India,Haryana,Charkhi Dadri,"Mini Secretariat, Charkhi Dadri - HSPCB",05-04-2024 12:00:00,28.593883,76.270653,PM10,62,149,104
India,Haryana,Charkhi Dadri,"Mini Secretariat, Charkhi Dadri - HSPCB",05-04-2024 12:00:00,28.593883,76.270653,NO2,14,26,18
India,Haryana,Charkhi Dadri,"Mini Secretariat, Charkhi Dadri - HSPCB",05-04-2024 12:00:00,28.593883,76.270653,NH3,6,9,7
India,Haryana,Charkhi Dadri,"Mini Secretariat, Charkhi Dadri - HSPCB",05-04-2024 12:00:00,28.593883,76.270653,SO2,1,36,13
India,Haryana,Charkhi Dadri,"Mini Secretariat, Charkhi Dadri - HSPCB",05-04-2024 12:00:00,28.593883,76.270653,OZONE,13,18,16
India,Haryana,Dharuhera,"Municipal Corporation Office, Dharuhera -  HSPCB",05-04-2024 12:00:00,28.206800,76.799700,NH3,9,26,18
India,Haryana,Faridabad,"New Industrial Town, Faridabad - HSPCB",05-04-2024 12:00:00,28.39072,77.30059,PM2.5,173,344,264
India,Haryana,Faridabad,"New Industrial Town, Faridabad - HSPCB",05-04-2024 12:00:00,28.39072,77.30059,SO2,4,9,6
India,Haryana,Faridabad,"Sector 11, Faridabad - HSPCB",05-04-2024 12:00:00,28.376058,77.315741,NO2,30,32,31
India,Haryana,Faridabad,"Sector 30, Faridabad - HSPCB",05-04-2024 12:00:00,28.4417,77.3217,NO2,29,33,31
India,Haryana,Faridabad,"Sector 30, Faridabad - HSPCB",05-04-2024 12:00:00,28.4417,77.3217,SO2,12,13,12
India,Haryana,Faridabad,"Sector 30, Faridabad - HSPCB",05-04-2024 12:00:00,28.4417,77.3217,CO,56,62,58
India,Haryana,Faridabad,"Sector- 16A, Faridabad - HSPCB",05-04-2024 12:00:00,28.4088421,77.3099081,PM2.5,18,232,133
India,Haryana,Faridabad,"Sector- 16A, Faridabad - HSPCB",05-04-2024 12:00:00,28.4088421,77.3099081,NO2,14,68,46
India,Haryana,Faridabad,"Sector- 16A, Faridabad - HSPCB",05-04-2024 12:00:00,28.4088421,77.3099081,SO2,1,25,17
India,Haryana,Fatehabad,"Huda Sector, Fatehabad - HSPCB",05-04-2024 12:00:00,29.503664,75.467934,PM2.5,18,48,32
India,Haryana,Fatehabad,"Huda Sector, Fatehabad - HSPCB",05-04-2024 12:00:00,29.503664,75.467934,NH3,8,17,13
India,Haryana,Gurugram,"Sector-51, Gurugram - HSPCB",05-04-2024 12:00:00,28.4227,77.0667,PM2.5,174,374,281
India,Haryana,Gurugram,"Sector-51, Gurugram - HSPCB",05-04-2024 12:00:00,28.4227,77.0667,NO2,13,29,23
India,Haryana,Gurugram,"Teri Gram, Gurugram - HSPCB",05-04-2024 12:00:00,28.4275,77.1465,SO2,3,5,4
India,Haryana,Gurugram,"Vikas Sadan, Gurugram - HSPCB",05-04-2024 12:00:00,28.4501238,77.0263051,OZONE,8,69,23
India,Haryana,Hisar,"Urban Estate-II, Hisar - HSPCB",05-04-2024 12:00:00,29.140560,75.744941,PM10,61,157,89
India,Haryana,Hisar,"Urban Estate-II, Hisar - HSPCB",05-04-2024 12:00:00,29.140560,75.744941,NH3,8,11,10
India,Haryana,Karnal,"Sector-12, Karnal - HSPCB",05-04-2024 12:00:00,29.695300,77.002700,NO2,7,12,10
India,Haryana,Karnal,"Sector-12, Karnal - HSPCB",05-04-2024 12:00:00,29.695300,77.002700,NH3,10,13,11
India,Haryana,Kurukshetra,"Sector-7, Kurukshetra - HSPCB",05-04-2024 12:00:00,29.966942,76.875879,PM10,51,102,81
India,Haryana,Kurukshetra,"Sector-7, Kurukshetra - HSPCB",05-04-2024 12:00:00,29.966942,76.875879,NH3,3,5,5
India,Haryana,Mandikhera,"General Hospital, Mandikhera - HSPCB",05-04-2024 12:00:00,27.9002,76.9938,PM10,53,132,100
India,Haryana,Manesar,"Sector-2 IMT, Manesar - HSPCB",05-04-2024 12:00:00,28.360699,76.936090,NO2,25,29,27
India,Haryana,Narnaul,"Shastri Nagar, Narnaul - HSPCB",05-04-2024 12:00:00,28.060249,76.113115,SO2,13,13,13
India,Haryana,Panchkula,"Sector-6, Panchkula - HSPCB ",05-04-2024 12:00:00,30.7057778,76.8531805555555,PM2.5,8,30,18
India,Haryana,Panchkula,"Sector-6, Panchkula - HSPCB ",05-04-2024 12:00:00,30.7057778,76.8531805555555,CO,8,28,11
India,Haryana,Panipat,"Sector-18, Panipat - HSPCB",05-04-2024 12:00:00,29.497973,76.993331,SO2,18,19,19
India,Haryana,Panipat,"Sector-18, Panipat - HSPCB",05-04-2024 12:00:00,29.497973,76.993331,CO,24,26,25
India,Haryana,Sirsa,"F-Block, Sirsa - HSPCB",05-04-2024 12:00:00,29.536400,75.015800,PM10,45,107,68
India,Haryana,Sirsa,"F-Block, Sirsa - HSPCB",05-04-2024 12:00:00,29.536400,75.015800,CO,32,42,38
India,Haryana,Sonipat,"Murthal, Sonipat - HSPCB",05-04-2024 12:00:00,29.027200,77.062100,PM2.5,34,36,35
India,Haryana,Sonipat,"Murthal, Sonipat - HSPCB",05-04-2024 12:00:00,29.027200,77.062100,CO,12,60,25
India,Haryana,Yamuna Nagar,"Gobind Pura, Yamuna Nagar - HSPCB",05-04-2024 12:00:00,30.1480566,77.2893471,SO2,3,17,8
India,Himachal Pradesh,Baddi,"HIMUDA Complex Phase-1, Baddi - HPPCB",05-04-2024 12:00:00,30.943887,76.801991,CO,2,32,19
India,Himachal Pradesh,Baddi,"HIMUDA Complex Phase-1, Baddi - HPPCB",05-04-2024 12:00:00,30.943887,76.801991,OZONE,28,143,77
India,Jharkhand,Dhanbad,"Kalakusuma, Dhanbad - DMC",05-04-2024 12:00:00,23.811548,86.481238,PM10,116,414,184
India,Jharkhand,Dhanbad,"Kalakusuma, Dhanbad - DMC",05-04-2024 12:00:00,23.811548,86.481238,NO2,13,41,16
India,Jharkhand,Dhanbad,"Kalakusuma, Dhanbad - DMC",05-04-2024 12:00:00,23.811548,86.481238,OZONE,18,77,24
India,Karnataka,Bagalkot,"Vidayagiri, Bagalkot - KSPCB",05-04-2024 12:00:00,16.172806,75.659694,PM2.5,21,41,39
India,Karnataka,Bagalkot,"Vidayagiri, Bagalkot - KSPCB",05-04-2024 12:00:00,16.172806,75.659694,PM10,49,50,50
India,Karnataka,Bagalkot,"Vidayagiri, Bagalkot - KSPCB",05-04-2024 12:00:00,16.172806,75.659694,CO,22,55,39
India,Karnataka,Bagalkot,"Vidayagiri, Bagalkot - KSPCB",05-04-2024 12:00:00,16.172806,75.659694,OZONE,NA,NA,NA
India,Karnataka,Belgaum,"Ramteerth Nagar, Belgaum - KSPCB",05-04-2024 12:00:00,15.888653,74.541751,PM2.5,28,75,39
