country,state,city,station,last_update,latitude,longitude,pollutant_id,pollutant_min,pollutant_max,pollutant_avg
India,Andhra_Pradesh,Amaravati,"Secretariat, Amaravati - APPCB",19-03-2024 02:00:00,16.5150833,80.5181667,PM2.5,5,28,15
India,Andhra_Pradesh,Amaravati,"Secretariat, Amaravati - APPCB",19-03-2024 02:00:00,16.5150833,80.5181667,SO2,11,21,16
India,Andhra_Pradesh,Anantapur,"Gulzarpet, Anantapur - APPCB",19-03-2024 02:00:00,14.675886,77.593027,PM2.5,23,61,38
India,Andhra_Pradesh,Anantapur,"Gulzarpet, Anantapur - APPCB",19-03-2024 02:00:00,14.675886,77.593027,PM10,62,94,79
India,Andhra_Pradesh,Anantapur,"Gulzarpet, Anantapur - APPCB",19-03-2024 02:00:00,14.675886,77.593027,CO,24,45,28
India,Andhra_Pradesh,Chittoor,"Gangineni Cheruvu, Chittoor - APPCB",19-03-2024 02:00:00,13.204880,79.097889,PM10,19,70,39
India,Andhra_Pradesh,Chittoor,"Gangineni Cheruvu, Chittoor - APPCB",19-03-2024 02:00:00,13.204880,79.097889,SO2,4,12,8
India,Andhra_Pradesh,Kadapa,"Yerramukkapalli, Kadapa - APPCB",19-03-2024 02:00:00,14.465052,78.824187,PM2.5,17,75,37
India,Andhra_Pradesh,Rajamahendravaram,"Anand Kala Kshetram, Rajamahendravaram - APPCB",19-03-2024 02:00:00,16.9872867,81.7363176,CO,18,44,30
India,Andhra_Pradesh,Rajamahendravaram,"Anand Kala Kshetram, Rajamahendravaram - APPCB",19-03-2024 02:00:00,16.9872867,81.7363176,OZONE,10,28,18
India,Andhra_Pradesh,Tirupati,"Vaikuntapuram, Tirupati - APPCB",19-03-2024 02:00:00,13.615387,79.409230,SO2,NA,NA,NA
India,Andhra_Pradesh,Vijayawada,"HB Colony, Vijayawada - APPCB",19-03-2024 02:00:00,16.536107,80.594233,PM2.5,49,67,59
India,Andhra_Pradesh,Vijayawada,"HB Colony, Vijayawada - APPCB",19-03-2024 02:00:00,16.536107,80.594233,PM10,49,74,63
India,Andhra_Pradesh,Vijayawada,"HB Colony, Vijayawada - APPCB",19-03-2024 02:00:00,16.536107,80.594233,NO2,5,15,8
India,Andhra_Pradesh,Vijayawada,"HB Colony, Vijayawada - APPCB",19-03-2024 02:00:00,16.536107,80.594233,SO2,3,4,4
India,Andhra_Pradesh,Vijayawada,"HB Colony, Vijayawada - APPCB",19-03-2024 02:00:00,16.536107,80.594233,OZONE,3,37,11
India,Andhra_Pradesh,Vijayawada,"Kanuru, Vijayawada - APPCB",19-03-2024 02:00:00,16.486692,80.699436,PM2.5,46,61,54
India,Andhra_Pradesh,Vijayawada,"Kanuru, Vijayawada - APPCB",19-03-2024 02:00:00,16.486692,80.699436,PM10,50,69,60
India,Andhra_Pradesh,Vijayawada,"Kanuru, Vijayawada - APPCB",19-03-2024 02:00:00,16.486692,80.699436,NO2,14,18,15
India,Andhra_Pradesh,Vijayawada,"Kanuru, Vijayawada - APPCB",19-03-2024 02:00:00,16.486692,80.699436,NH3,1,1,1
India,Andhra_Pradesh,Vijayawada,"Rajiv Gandhi Park, Vijayawada - APPCB",19-03-2024 02:00:00,16.509717,80.612222,NO2,11,50,34
India,Andhra_Pradesh,Vijayawada,"Rajiv Nagar, Vijayawada - APPCB",19-03-2024 02:00:00,16.554731,80.649110,SO2,12,20,16
India,Andhra_Pradesh,Vijayawada,"Rajiv Nagar, Vijayawada - APPCB",19-03-2024 02:00:00,16.554731,80.649110,CO,34,34,34
India,Andhra_Pradesh,Vijayawada,"Rajiv Nagar, Vijayawada - APPCB",19-03-2024 02:00:00,16.554731,80.649110,OZONE,6,32,11
India,Andhra_Pradesh,Visakhapatnam,"GVM Corporation, Visakhapatnam - APPCB",19-03-2024 02:00:00,17.72,83.3,PM10,56,149,88
India,Andhra_Pradesh,Visakhapatnam,"GVM Corporation, Visakhapatnam - APPCB",19-03-2024 02:00:00,17.72,83.3,NH3,3,7,4
India,Andhra_Pradesh,Visakhapatnam,"GVM Corporation, Visakhapatnam - APPCB",19-03-2024 02:00:00,17.72,83.3,SO2,9,13,11
India,Arunachal_Pradesh,Naharlagun,"Naharlagun, Naharlagun - APSPCB",19-03-2024 02:00:00,27.103358,93.679645,CO,14,37,29
India,Arunachal_Pradesh,Naharlagun,"Naharlagun, Naharlagun - APSPCB",19-03-2024 02:00:00,27.103358,93.679645,OZONE,2,2,2
India,Assam,Byrnihat,"Central Academy for SFS, Byrnihat - PCBA",19-03-2024 02:00:00,26.071318,91.87488,PM2.5,97,500,314
India,Assam,Byrnihat,"Central Academy for SFS, Byrnihat - PCBA",19-03-2024 02:00:00,26.071318,91.87488,NO2,45,85,56
India,Assam,Byrnihat,"Central Academy for SFS, Byrnihat - PCBA",19-03-2024 02:00:00,26.071318,91.87488,SO2,9,17,11
India,Assam,Guwahati,"IITG, Guwahati - PCBA",19-03-2024 02:00:00,26.2028636,91.70046436,PM2.5,93,354,257
India,Assam,Guwahati,"IITG, Guwahati - PCBA",19-03-2024 02:00:00,26.2028636,91.70046436,NH3,5,5,5
India,Assam,Guwahati,"IITG, Guwahati - PCBA",19-03-2024 02:00:00,26.2028636,91.70046436,OZONE,2,40,7
India,Assam,Guwahati,"Pan Bazaar, Guwahati - PCBA",19-03-2024 02:00:00,26.187500,91.744194,NO2,2,21,9
India,Assam,Guwahati,"Railway Colony, Guwahati - PCBA",19-03-2024 02:00:00,26.181742,91.78063,CO,26,132,100
India,Assam,Guwahati,"Railway Colony, Guwahati - PCBA",19-03-2024 02:00:00,26.181742,91.78063,OZONE,1,31,15
India,Assam,Nalbari,"Bata Chowk, Nalbari - PCBA",19-03-2024 02:00:00,26.446912,91.439057,NH3,1,8,2
India,Assam,Nalbari,"Bata Chowk, Nalbari - PCBA",19-03-2024 02:00:00,26.446912,91.439057,OZONE,7,143,30
India,Assam,Silchar,"Tarapur, Silchar - PCBA",19-03-2024 02:00:00,24.82827,92.79525,PM10,34,83,52
India,Assam,Silchar,"Tarapur, Silchar - PCBA",19-03-2024 02:00:00,24.82827,92.79525,OZONE,2,4,2
India,Assam,Sivasagar,"Girls College, Sivasagar - PCBA",19-03-2024 02:00:00,26.987634,94.636574,PM2.5,38,51,45
India,Assam,Sivasagar,"Girls College, Sivasagar - PCBA",19-03-2024 02:00:00,26.987634,94.636574,PM10,41,94,58
India,Bihar,Araria,"Kharahiya Basti, Araria - BSPCB",19-03-2024 02:00:00,26.146529,87.454184,PM2.5,51,410,166
India,Bihar,Araria,"Kharahiya Basti, Araria - BSPCB",19-03-2024 02:00:00,26.146529,87.454184,PM10,84,474,188
India,Bihar,Araria,"Kharahiya Basti, Araria - BSPCB",19-03-2024 02:00:00,26.146529,87.454184,NO2,6,8,7
India,Bihar,Arrah,"New DM Office, Arrah - BSPCB",19-03-2024 02:00:00,25.5626095,84.663264,PM10,NA,NA,NA
India,Bihar,Arrah,"New DM Office, Arrah - BSPCB",19-03-2024 02:00:00,25.5626095,84.663264,NO2,NA,NA,NA
India,Bihar,Aurangabad,"Gurdeo Nagar, Aurangabad - BSPCB",19-03-2024 02:00:00,24.75746,84.366208,NH3,5,9,7
India,Bihar,Bhagalpur,"DM Office_Kachari Chowk, Bhagalpur - BSPCB",19-03-2024 02:00:00,25.251013,86.989001,NH3,8,13,11
India,Bihar,Bhagalpur,"Mayaganj, Bhagalpur - BSPCB",19-03-2024 02:00:00,25.265194,87.012947,PM2.5,113,383,249
India,Bihar,Chhapra,"Darshan Nagar, Chhapra - BSPCB",19-03-2024 02:00:00,25.7808257,84.7446768,PM2.5,123,371,266
India,Bihar,Chhapra,"Darshan Nagar, Chhapra - BSPCB",19-03-2024 02:00:00,25.7808257,84.7446768,PM10,106,295,170
India,Bihar,Chhapra,"Darshan Nagar, Chhapra - BSPCB",19-03-2024 02:00:00,25.7808257,84.7446768,CO,34,75,55
India,Bihar,Gaya,"Collectorate, Gaya - BSPCB",19-03-2024 02:00:00,24.7955,84.9994,OZONE,52,81,66
India,Bihar,Gaya,"Kareemganj, Gaya - BSPCB",19-03-2024 02:00:00,24.792403,84.992416,PM2.5,25,203,71
India,Bihar,Gaya,"Kareemganj, Gaya - BSPCB",19-03-2024 02:00:00,24.792403,84.992416,SO2,9,12,11
India,Bihar,Gaya,"SFTI Kusdihra, Gaya - BSPCB",19-03-2024 02:00:00,24.762518,84.982348,OZONE,1,112,19
India,Bihar,Hajipur,"Industrial Area, Hajipur - BSPCB",19-03-2024 02:00:00,25.697189,85.245900,SO2,7,8,8
India,Bihar,Katihar,"Mirchaibari, Katihar - BSPCB",19-03-2024 02:00:00,25.560083,87.553265,SO2,17,23,20
India,Bihar,Kishanganj,"SDM Office_Khagra, Kishanganj - BSPCB",19-03-2024 02:00:00,26.0881305,87.93840336,PM2.5,25,446,156
India,Bihar,Kishanganj,"SDM Office_Khagra, Kishanganj - BSPCB",19-03-2024 02:00:00,26.0881305,87.93840336,CO,2,26,14
India,Bihar,Manguraha,"Forest Rest House, Manguraha - BSPCB",19-03-2024 02:00:00,27.308328,84.531742,PM10,45,153,76
India,Bihar,Manguraha,"Forest Rest House, Manguraha - BSPCB",19-03-2024 02:00:00,27.308328,84.531742,NO2,6,16,11
India,Bihar,Motihari,"Gandak Colony, Motihari - BSPCB",19-03-2024 02:00:00,26.63086,84.90051,PM10,NA,NA,NA
India,Bihar,Motihari,"Gandak Colony, Motihari - BSPCB",19-03-2024 02:00:00,26.63086,84.90051,CO,6,10,8
India,Bihar,Munger,"Town Hall, Munger - BSPCB",19-03-2024 02:00:00,25.376776,86.471523,CO,NA,NA,NA
India,Bihar,Munger,"Town Hall, Munger - BSPCB",19-03-2024 02:00:00,25.376776,86.471523,OZONE,8,19,11
India,Bihar,Muzaffarpur,"Buddha Colony, Muzaffarpur - BSPCB",19-03-2024 02:00:00,26.11442,85.39813,CO,16,111,86
India,Bihar,Muzaffarpur,"MIT-Daudpur Kothi, Muzaffarpur - BSPCB",19-03-2024 02:00:00,26.1403345,85.3650192,NH3,1,10,4
India,Bihar,Muzaffarpur,"Muzaffarpur Collectorate, Muzaffarpur - BSPCB",19-03-2024 02:00:00,26.1209,85.3647,PM2.5,78,333,237
India,Bihar,Muzaffarpur,"Muzaffarpur Collectorate, Muzaffarpur - BSPCB",19-03-2024 02:00:00,26.1209,85.3647,NO2,9,13,11
India,Bihar,Muzaffarpur,"Muzaffarpur Collectorate, Muzaffarpur - BSPCB",19-03-2024 02:00:00,26.1209,85.3647,OZONE,13,80,23
India,Bihar,Patna,"Govt. High School Shikarpur, Patna - BSPCB",19-03-2024 02:00:00,25.592539,85.227158,PM2.5,151,312,227
India,Bihar,Patna,"Govt. High School Shikarpur, Patna - BSPCB",19-03-2024 02:00:00,25.592539,85.227158,OZONE,1,59,8
India,Bihar,Patna,"IGSC Planetarium Complex, Patna - BSPCB",19-03-2024 02:00:00,25.610369,85.132568,CO,8,10,8
India,Bihar,Patna,"Muradpur, Patna - BSPCB",19-03-2024 02:00:00,25.619651,85.147382,PM2.5,220,392,329
India,Bihar,Patna,"Muradpur, Patna - BSPCB",19-03-2024 02:00:00,25.619651,85.147382,NO2,8,21,15
India,Bihar,Patna,"Muradpur, Patna - BSPCB",19-03-2024 02:00:00,25.619651,85.147382,SO2,8,15,12
India,Bihar,Patna,"Muradpur, Patna - BSPCB",19-03-2024 02:00:00,25.619651,85.147382,OZONE,1,34,2
India,Bihar,Patna,"Rajbansi Nagar, Patna - BSPCB",19-03-2024 02:00:00,25.599486,85.113666,PM10,145,323,207
India,Bihar,Patna,"Rajbansi Nagar, Patna - BSPCB",19-03-2024 02:00:00,25.599486,85.113666,NO2,21,57,33
India,Bihar,Patna,"Samanpura, Patna - BSPCB",19-03-2024 02:00:00,25.596727,85.085624,OZONE,55,109,64
India,Bihar,Purnia,"Mariam Nagar, Purnia - BSPCB",19-03-2024 02:00:00,25.366336,87.117468,NO2,5,7,6
India,Bihar,Rajgir,"Dangi Tola, Rajgir - BSPCB",19-03-2024 02:00:00,25.03280,85.41948,SO2,4,4,4
India,Bihar,Rajgir,"Dangi Tola, Rajgir - BSPCB",19-03-2024 02:00:00,25.03280,85.41948,CO,9,12,10
India,Bihar,Samastipur,"DM Office_Kasipur, Samastipur - BSPCB",19-03-2024 02:00:00,25.859655,85.77944,PM2.5,35,317,177
India,Bihar,Sasaram,"Dada Peer, Sasaram - BSPCB",19-03-2024 02:00:00,24.952822,84.002396,PM10,40,171,91
India,Bihar,Sasaram,"Dada Peer, Sasaram - BSPCB",19-03-2024 02:00:00,24.952822,84.002396,NH3,9,14,11
India,Bihar,Sasaram,"Dada Peer, Sasaram - BSPCB",19-03-2024 02:00:00,24.952822,84.002396,CO,102,106,103
India,Bihar,Sasaram,"Dada Peer, Sasaram - BSPCB",19-03-2024 02:00:00,24.952822,84.002396,OZONE,5,89,27
India,Bihar,Siwan,"Chitragupta Nagar, Siwan - BSPCB",19-03-2024 02:00:00,26.2271665,84.3570427,NO2,17,87,33
India,Chandigarh,Chandigarh,"Sector-53, Chandigarh - CPCC",19-03-2024 02:00:00,30.719859,76.738637,PM10,73,287,136
India,Chandigarh,Chandigarh,"Sector-53, Chandigarh - CPCC",19-03-2024 02:00:00,30.719859,76.738637,SO2,9,26,13
India,Chhattisgarh,Bhilai,"32Bungalows, Bhilai - CECB",19-03-2024 02:00:00,21.194815,81.314770,NO2,30,37,34
India,Chhattisgarh,Bhilai,"32Bungalows, Bhilai - CECB",19-03-2024 02:00:00,21.194815,81.314770,CO,16,28,18
India,Chhattisgarh,Bhilai,"Civic Center, Bhilai - Bhilai Steel Plant",19-03-2024 02:00:00,21.185571,81.343175,OZONE,17,52,30
India,Chhattisgarh,Bilaspur,"Mangala, Bilaspur - NTPC",19-03-2024 02:00:00,22.08815,82.13737,PM2.5,7,68,25
India,Chhattisgarh,Chhal,"Nawapara SECL Colony, Chhal - CECB",19-03-2024 02:00:00,22.118125,83.140608,NO2,14,76,36
India,Chhattisgarh,Chhal,"Nawapara SECL Colony, Chhal - CECB",19-03-2024 02:00:00,22.118125,83.140608,SO2,NA,NA,NA
India,Chhattisgarh,Korba,"Urja Nagar, Korba - CECB",19-03-2024 02:00:00,22.348441,82.549611,PM10,11,60,30
India,Chhattisgarh,Kunjemura,"OP Jindal School, Kunjemura - CECB",19-03-2024 02:00:00,22.126650,83.483212,SO2,NA,NA,NA
India,Chhattisgarh,Raipur,"AIIMS, Raipur - CECB",19-03-2024 02:00:00,21.258815,81.578979,SO2,4,17,10
India,Chhattisgarh,Raipur,"Bhatagaon New ISBT, Raipur - CECB",19-03-2024 02:00:00,21.219665,81.630094,NO2,45,63,55
India,Chhattisgarh,Raipur,"Krishak Nagar, Raipur - CECB",19-03-2024 02:00:00,21.237755,81.705301,PM10,NA,NA,NA
India,Chhattisgarh,Raipur,"Krishak Nagar, Raipur - CECB",19-03-2024 02:00:00,21.237755,81.705301,NO2,NA,NA,NA
India,Chhattisgarh,Tumidih,"OP Jindal Industrial Park, Tumidih - CECB",19-03-2024 02:00:00,22.06631475,83.33820077,CO,30,46,38
India,Delhi,Delhi,"Alipur, Delhi - DPCC",19-03-2024 02:00:00,28.815329,77.153010,PM10,60,415,157
India,Delhi,Delhi,"Ashok Vihar, Delhi - DPCC",19-03-2024 02:00:00,28.695381,77.181665,PM10,108,282,198
India,Delhi,Delhi,"Ashok Vihar, Delhi - DPCC",19-03-2024 02:00:00,28.695381,77.181665,SO2,30,54,37
India,Delhi,Delhi,"Ashok Vihar, Delhi - DPCC",19-03-2024 02:00:00,28.695381,77.181665,OZONE,2,14,4
India,Delhi,Delhi,"Aya Nagar, Delhi - IMD",19-03-2024 02:00:00,28.4706914,77.1099364,CO,50,81,62
India,Delhi,Delhi,"Bawana, Delhi - DPCC",19-03-2024 02:00:00,28.776200,77.051074,PM10,103,371,235
India,Delhi,Delhi,"Bawana, Delhi - DPCC",19-03-2024 02:00:00,28.776200,77.051074,SO2,12,49,24
India,Delhi,Delhi,"Bawana, Delhi - DPCC",19-03-2024 02:00:00,28.776200,77.051074,CO,10,78,50
India,Delhi,Delhi,"CRRI Mathura Road, Delhi - IMD",19-03-2024 02:00:00,28.5512005,77.2735737,OZONE,3,90,8
India,Delhi,Delhi,"DTU, Delhi - CPCB",19-03-2024 02:00:00,28.7500499,77.1112615,PM10,83,400,226
India,Delhi,Delhi,"DTU, Delhi - CPCB",19-03-2024 02:00:00,28.7500499,77.1112615,SO2,27,29,28
India,Delhi,Delhi,"Dr. Karni Singh Shooting Range, Delhi - DPCC",19-03-2024 02:00:00,28.498571,77.264840,SO2,13,39,22
India,Delhi,Delhi,"Dwarka-Sector 8, Delhi - DPCC ",19-03-2024 02:00:00,28.5710274,77.0719006,PM2.5,58,424,248
India,Delhi,Delhi,"Dwarka-Sector 8, Delhi - DPCC ",19-03-2024 02:00:00,28.5710274,77.0719006,CO,21,125,93
India,Delhi,Delhi,"Dwarka-Sector 8, Delhi - DPCC ",19-03-2024 02:00:00,28.5710274,77.0719006,OZONE,1,81,10
India,Delhi,Delhi,"IGI Airport (T3), Delhi - IMD",19-03-2024 02:00:00,28.5627763,77.1180053,PM10,78,334,163
India,Delhi,Delhi,"IGI Airport (T3), Delhi - IMD",19-03-2024 02:00:00,28.5627763,77.1180053,CO,30,108,70
India,Delhi,Delhi,"IHBAS, Dilshad Garden, Delhi - CPCB",19-03-2024 02:00:00,28.6811736,77.3025234,NH3,4,7,6
India,Delhi,Delhi,"ITO, Delhi - CPCB",19-03-2024 02:00:00,28.628624,77.241060,NH3,2,9,5
India,Delhi,Delhi,"Jahangirpuri, Delhi - DPCC",19-03-2024 02:00:00,28.732820,77.170633,SO2,2,68,28
India,Delhi,Delhi,"Jawaharlal Nehru Stadium, Delhi - DPCC",19-03-2024 02:00:00,28.580280,77.233829,OZONE,1,205,24
India,Delhi,Delhi,"Lodhi Road, Delhi - IITM",19-03-2024 02:00:00,28.588333,77.221667,PM10,72,420,130
India,Delhi,Delhi,"Mandir Marg, Delhi - DPCC",19-03-2024 02:00:00,28.636429,77.201067,PM2.5,37,373,159
India,Delhi,Delhi,"Mundka, Delhi - DPCC",19-03-2024 02:00:00,28.684678,77.076574,PM2.5,43,476,270
India,Delhi,Delhi,"NSIT Dwarka, Delhi - CPCB",19-03-2024 02:00:00,28.60909,77.0325413,SO2,6,25,15
India,Delhi,Delhi,"Najafgarh, Delhi - DPCC",19-03-2024 02:00:00,28.570173,76.933762,NH3,11,13,12
India,Delhi,Delhi,"Nehru Nagar, Delhi - DPCC",19-03-2024 02:00:00,28.567890,77.250515,NO2,9,37,19
India,Delhi,Delhi,"New Moti Bagh, Delhi - MHUA",19-03-2024 02:00:00,28.57834,77.18400,PM2.5,3,391,199
India,Delhi,Delhi,"New Moti Bagh, Delhi - MHUA",19-03-2024 02:00:00,28.57834,77.18400,NO2,1,6,3
India,Delhi,Delhi,"Okhla Phase-2, Delhi - DPCC",19-03-2024 02:00:00,28.530785,77.271255,PM2.5,33,352,172
India,Delhi,Delhi,"Pusa, Delhi - IMD",19-03-2024 02:00:00,28.636110,77.173332,OZONE,2,43,12
India,Delhi,Delhi,"Rohini, Delhi - DPCC",19-03-2024 02:00:00,28.732528,77.119920,PM2.5,44,397,239
India,Delhi,Delhi,"Vivek Vihar, Delhi - DPCC",19-03-2024 02:00:00,28.672342,77.315260,PM10,100,210,155
India,Delhi,Delhi,"Wazirpur, Delhi - DPCC",19-03-2024 02:00:00,28.699793,77.165453,PM10,111,355,214
India,Delhi,Delhi,"Wazirpur, Delhi - DPCC",19-03-2024 02:00:00,28.699793,77.165453,NH3,8,10,9
India,Gujarat,Ahmedabad,"Chandkheda, Ahmedabad - IITM",19-03-2024 02:00:00,23.107969,72.574648,SO2,5,28,10
India,Gujarat,Ahmedabad,"Gyaspur, Ahmedabad - IITM",19-03-2024 02:00:00,22.977134,72.553024,CO,12,56,25
India,Gujarat,Ahmedabad,"Maninagar, Ahmedabad - GPCB",19-03-2024 02:00:00,23.002657,72.591912,OZONE,3,30,8
India,Gujarat,Ahmedabad,"Raikhad, Ahmedabad - IITM",19-03-2024 02:00:00,23.020509,72.579261,OZONE,14,52,24
India,Gujarat,Ahmedabad,"Rakhial, Ahmedabad - IITM",19-03-2024 02:00:00,23.016834,72.625775,NO2,17,134,39
India,Gujarat,Ahmedabad,"SAC ISRO Satellite, Ahmedabad - IITM",19-03-2024 02:00:00,23.023389,72.515201,NO2,17,17,17
India,Gujarat,Ahmedabad,"SAC ISRO Satellite, Ahmedabad - IITM",19-03-2024 02:00:00,23.023389,72.515201,SO2,1,18,5
India,Gujarat,Ahmedabad,"Sardar Vallabhbhai Patel Stadium, Ahmedabad - IITM",19-03-2024 02:00:00,23.043070,72.562968,PM2.5,62,141,94
India,Gujarat,Ahmedabad,"Sardar Vallabhbhai Patel Stadium, Ahmedabad - IITM",19-03-2024 02:00:00,23.043070,72.562968,SO2,1,28,12
India,Gujarat,Gandhinagar,"GIFT City, Gandhinagar - IITM",19-03-2024 02:00:00,23.163798,72.677768,PM10,62,114,99
India,Gujarat,Gandhinagar,"GIFT City, Gandhinagar - IITM",19-03-2024 02:00:00,23.163798,72.677768,SO2,4,8,6
India,Gujarat,Gandhinagar,"GIFT City, Gandhinagar - IITM",19-03-2024 02:00:00,23.163798,72.677768,CO,10,28,25
India,Gujarat,Gandhinagar,"IIPHG Lekawada, Gandhinagar - IITM",19-03-2024 02:00:00,23.243639,72.68994,PM2.5,31,157,69
India,Gujarat,Gandhinagar,"IIPHG Lekawada, Gandhinagar - IITM",19-03-2024 02:00:00,23.243639,72.68994,PM10,41,131,81
India,Gujarat,Gandhinagar,"IIPHG Lekawada, Gandhinagar - IITM",19-03-2024 02:00:00,23.243639,72.68994,SO2,2,9,5
India,Gujarat,Gandhinagar,"Sector-10, Gandhinagar - GPCB",19-03-2024 02:00:00,23.221714,72.654328,NH3,1,1,1
India,Gujarat,Nandesari,"GIDC, Nandesari - Nandesari Ind. Association",19-03-2024 02:00:00,22.410802,73.097923,PM2.5,67,369,189
India,Gujarat,Nandesari,"GIDC, Nandesari - Nandesari Ind. Association",19-03-2024 02:00:00,22.410802,73.097923,PM10,99,417,184
India,Gujarat,Surat,"Science Center, Surat - SMC",19-03-2024 02:00:00,21.170046,72.795405,SO2,16,23,19
India,Gujarat,Surat,"Science Center, Surat - SMC",19-03-2024 02:00:00,21.170046,72.795405,CO,44,71,62
India,Gujarat,Vatva,"Phase-4 GIDC, Vatva - GPCB",19-03-2024 02:00:00,22.969611,72.643500,PM10,54,143,82
India,Gujarat,Vatva,"Phase-4 GIDC, Vatva - GPCB",19-03-2024 02:00:00,22.969611,72.643500,SO2,7,19,11
India,Gujarat,Vatva,"Phase-4 GIDC, Vatva - GPCB",19-03-2024 02:00:00,22.969611,72.643500,OZONE,7,53,18
India,Haryana,Ambala,"Patti Mehar, Ambala - HSPCB",19-03-2024 02:00:00,30.379589,76.778328,NH3,5,12,8
India,Haryana,Ambala,"Patti Mehar, Ambala - HSPCB",19-03-2024 02:00:00,30.379589,76.778328,SO2,NA,NA,NA
India,Haryana,Bahadurgarh,"Arya Nagar, Bahadurgarh - HSPCB",19-03-2024 02:00:00,28.6701,76.9254,CO,40,62,51
India,Haryana,Ballabgarh,"Nathu Colony, Ballabgarh - HSPCB",19-03-2024 02:00:00,28.3419248,77.319699,PM2.5,81,316,188
India,Haryana,Charkhi Dadri,"Mini Secretariat, Charkhi Dadri - HSPCB",19-03-2024 02:00:00,28.593883,76.270653,PM10,58,158,108
India,Haryana,Faridabad,"New Industrial Town, Faridabad - HSPCB",19-03-2024 02:00:00,28.39072,77.30059,PM10,125,233,167
India,Haryana,Faridabad,"Sector 30, Faridabad - HSPCB",19-03-2024 02:00:00,28.4417,77.3217,SO2,2,8,5
India,Haryana,Faridabad,"Sector 30, Faridabad - HSPCB",19-03-2024 02:00:00,28.4417,77.3217,CO,28,118,89
India,Haryana,Faridabad,"Sector 30, Faridabad - HSPCB",19-03-2024 02:00:00,28.4417,77.3217,OZONE,5,61,16
India,Haryana,Fatehabad,"Huda Sector, Fatehabad - HSPCB",19-03-2024 02:00:00,29.503664,75.467934,NO2,37,38,37
India,Haryana,Gurugram,"Sector-51, Gurugram - HSPCB",19-03-2024 02:00:00,28.4227,77.0667,NH3,7,14,9
India,Haryana,Gurugram,"Teri Gram, Gurugram - HSPCB",19-03-2024 02:00:00,28.4275,77.1465,PM10,100,442,290
India,Haryana,Gurugram,"Teri Gram, Gurugram - HSPCB",19-03-2024 02:00:00,28.4275,77.1465,NH3,51,91,67
India,Haryana,Gurugram,"Vikas Sadan, Gurugram - HSPCB",19-03-2024 02:00:00,28.4501238,77.0263051,OZONE,8,69,19
India,Haryana,Hisar,"Urban Estate-II, Hisar - HSPCB",19-03-2024 02:00:00,29.140560,75.744941,CO,40,98,66
India,Haryana,Karnal,"Sector-12, Karnal - HSPCB",19-03-2024 02:00:00,29.695300,77.002700,NO2,7,12,10
India,Haryana,Karnal,"Sector-12, Karnal - HSPCB",19-03-2024 02:00:00,29.695300,77.002700,CO,28,50,39
India,Haryana,Kurukshetra,"Sector-7, Kurukshetra - HSPCB",19-03-2024 02:00:00,29.966942,76.875879,NH3,5,5,5
India,Haryana,Kurukshetra,"Sector-7, Kurukshetra - HSPCB",19-03-2024 02:00:00,29.966942,76.875879,CO,4,28,16
India,Haryana,Mandikhera,"General Hospital, Mandikhera - HSPCB",19-03-2024 02:00:00,27.9002,76.9938,PM2.5,11,52,30
India,Haryana,Manesar,"Sector-2 IMT, Manesar - HSPCB",19-03-2024 02:00:00,28.360699,76.936090,PM2.5,36,178,94
India,Haryana,Manesar,"Sector-2 IMT, Manesar - HSPCB",19-03-2024 02:00:00,28.360699,76.936090,OZONE,1,40,8
India,Haryana,Palwal,"Shyam Nagar, Palwal - HSPCB",19-03-2024 02:00:00,28.1485564,77.3320667,PM2.5,53,152,82
India,Haryana,Palwal,"Shyam Nagar, Palwal - HSPCB",19-03-2024 02:00:00,28.1485564,77.3320667,PM10,59,126,89
India,Haryana,Palwal,"Shyam Nagar, Palwal - HSPCB",19-03-2024 02:00:00,28.1485564,77.3320667,NO2,23,25,24
India,Haryana,Palwal,"Shyam Nagar, Palwal - HSPCB",19-03-2024 02:00:00,28.1485564,77.3320667,NH3,8,9,9
India,Haryana,Panchkula,"Sector-6, Panchkula - HSPCB ",19-03-2024 02:00:00,30.7057778,76.8531805555555,NO2,29,32,30
India,Haryana,Panchkula,"Sector-6, Panchkula - HSPCB ",19-03-2024 02:00:00,30.7057778,76.8531805555555,SO2,11,12,12
India,Haryana,Panipat,"Sector-18, Panipat - HSPCB",19-03-2024 02:00:00,29.497973,76.993331,PM10,84,86,85
India,Haryana,Rohtak,"MD University, Rohtak - HSPCB",19-03-2024 02:00:00,28.52123,76.37138,PM2.5,4,322,168
India,Haryana,Sirsa,"F-Block, Sirsa - HSPCB",19-03-2024 02:00:00,29.536400,75.015800,PM2.5,60,185,96
India,Haryana,Yamuna Nagar,"Gobind Pura, Yamuna Nagar - HSPCB",19-03-2024 02:00:00,30.1480566,77.2893471,NO2,11,29,19
India,Himachal Pradesh,Baddi,"HIMUDA Complex Phase-1, Baddi - HPPCB",19-03-2024 02:00:00,30.943887,76.801991,PM2.5,38,347,139
India,Jharkhand,Dhanbad,"Kalakusuma, Dhanbad - DMC",19-03-2024 02:00:00,23.811548,86.481238,PM2.5,50,83,58
India,Jharkhand,Dhanbad,"Kalakusuma, Dhanbad - DMC",19-03-2024 02:00:00,23.811548,86.481238,PM10,91,112,109
India,Jharkhand,Dhanbad,"Kalakusuma, Dhanbad - DMC",19-03-2024 02:00:00,23.811548,86.481238,CO,129,134,131
India,Jharkhand,Dhanbad,"Sardar Patel Nagar, Dhanbad - JSPCB",19-03-2024 02:00:00,23.80569,86.44268,NO2,NA,NA,NA
India,Jharkhand,Pathardih,"Mohalbani Ghat, Pathardih - DMC",19-03-2024 02:00:00,23.669880,86.411725,OZONE,6,43,12
India,Karnataka,Bengaluru,"Hombegowda Nagar, Bengaluru - KSPCB",19-03-2024 02:00:00,12.938539,77.590100,PM10,74,128,96
India,Karnataka,Bengaluru,"Hombegowda Nagar, Bengaluru - KSPCB",19-03-2024 02:00:00,12.938539,77.590100,NH3,1,2,1
India,Karnataka,Bengaluru,"Hombegowda Nagar, Bengaluru - KSPCB",19-03-2024 02:00:00,12.938539,77.590100,SO2,4,4,4
India,Karnataka,Bengaluru,"Jayanagar 5th Block, Bengaluru - KSPCB",19-03-2024 02:00:00,12.920984,77.584908,PM10,82,151,107
India,Karnataka,Bengaluru,"Jayanagar 5th Block, Bengaluru - KSPCB",19-03-2024 02:00:00,12.920984,77.584908,SO2,16,107,27
India,Karnataka,Bengaluru,"Jigani, Bengaluru - KSPCB",19-03-2024 02:00:00,12.7816279,77.6299145,PM2.5,NA,NA,NA
India,Karnataka,Bengaluru,"Jigani, Bengaluru - KSPCB",19-03-2024 02:00:00,12.7816279,77.6299145,NO2,31,32,32
India,Karnataka,Bengaluru,"Jigani, Bengaluru - KSPCB",19-03-2024 02:00:00,12.7816279,77.6299145,SO2,16,16,16
India,Karnataka,Bengaluru,"Kasturi Nagar, Bengaluru - KSPCB",19-03-2024 02:00:00,13.003872,77.664217,NH3,3,4,4
India,Karnataka,Bengaluru,"Kasturi Nagar, Bengaluru - KSPCB",19-03-2024 02:00:00,13.003872,77.664217,OZONE,4,149,85
India,Karnataka,Bengaluru,"Peenya, Bengaluru - CPCB",19-03-2024 02:00:00,13.0270199,77.494094,NO2,8,19,13
India,Karnataka,Bengaluru,"Peenya, Bengaluru - CPCB",19-03-2024 02:00:00,13.0270199,77.494094,SO2,4,8,6
India,Karnataka,Bengaluru,"RVCE-Mailasandra, Bengaluru - KSPCB",19-03-2024 02:00:00,12.921418,77.502466,SO2,10,61,15
India,Karnataka,Bengaluru,"RVCE-Mailasandra, Bengaluru - KSPCB",19-03-2024 02:00:00,12.921418,77.502466,OZONE,10,10,10
India,Karnataka,Bengaluru,"Silk Board, Bengaluru - KSPCB",19-03-2024 02:00:00,12.917348,77.622813,NO2,19,29,24
India,Karnataka,Bengaluru,"Silk Board, Bengaluru - KSPCB",19-03-2024 02:00:00,12.917348,77.622813,OZONE,29,31,30
India,Karnataka,Chamarajanagar,"Urban, Chamarajanagar - KSPCB",19-03-2024 02:00:00,11.55358,76.55521,PM10,34,64,49
India,Karnataka,Chikkaballapur,"Chikkaballapur Rural, Chikkaballapur - KSPCB",19-03-2024 02:00:00,13.428828,77.731418,PM2.5,68,194,92
India,Karnataka,Chikkamagaluru,"Kalyana Nagara, Chikkamagaluru - KSPCB",19-03-2024 02:00:00,13.328028,75.797056,PM10,32,122,55
India,Karnataka,Chikkamagaluru,"Kalyana Nagara, Chikkamagaluru - KSPCB",19-03-2024 02:00:00,13.328028,75.797056,CO,11,116,35
India,Karnataka,Davanagere,"Devaraj Urs Badavane, Davanagere - KSPCB",19-03-2024 02:00:00,14.475800,75.905200,PM2.5,42,190,67
India,Karnataka,Davanagere,"Devaraj Urs Badavane, Davanagere - KSPCB",19-03-2024 02:00:00,14.475800,75.905200,SO2,4,7,6
India,Karnataka,Dharwad,"Kalabhavan, Dharwad - KSPCB",19-03-2024 02:00:00,15.459706,75.008381,PM10,35,78,64
India,Karnataka,Dharwad,"Kalabhavan, Dharwad - KSPCB",19-03-2024 02:00:00,15.459706,75.008381,SO2,3,12,5
India,Karnataka,Dharwad,"Kalabhavan, Dharwad - KSPCB",19-03-2024 02:00:00,15.459706,75.008381,OZONE,4,39,24
India,Karnataka,Gadag,"Panchal Nagar, Gadag - KSPCB",19-03-2024 02:00:00,15.411456,75.638133,PM10,35,80,48
India,Karnataka,Gadag,"Panchal Nagar, Gadag - KSPCB",19-03-2024 02:00:00,15.411456,75.638133,NO2,4,23,13
India,Karnataka,Gadag,"Panchal Nagar, Gadag - KSPCB",19-03-2024 02:00:00,15.411456,75.638133,SO2,6,30,15
India,Karnataka,Hassan,"B.Katihalli, Hassan - KSPCB",19-03-2024 02:00:00,13.008556,76.125258,PM10,NA,NA,NA
India,Karnataka,Haveri,"Ashwini Nagar, Haveri - KSPCB",19-03-2024 02:00:00,14.791800,75.389600,NO2,24,41,32
India,Karnataka,Haveri,"Ashwini Nagar, Haveri - KSPCB",19-03-2024 02:00:00,14.791800,75.389600,CO,35,36,36
India,Karnataka,Hubballi,"Lingaraj Nagar, Hubballi - KSPCB",19-03-2024 02:00:00,15.3714823,75.1160168,CO,14,42,14
India,Karnataka,Kalaburagi,"Lal Bahadur Shastri Nagar, Kalaburagi - KSPCB",19-03-2024 02:00:00,17.321993,76.822628,NO2,11,12,11
India,Karnataka,Kalaburagi,"Lal Bahadur Shastri Nagar, Kalaburagi - KSPCB",19-03-2024 02:00:00,17.321993,76.822628,NH3,2,2,2
India,Karnataka,Kalaburagi,"Lal Bahadur Shastri Nagar, Kalaburagi - KSPCB",19-03-2024 02:00:00,17.321993,76.822628,SO2,14,17,15
India,Karnataka,Kalaburagi,"Lal Bahadur Shastri Nagar, Kalaburagi - KSPCB",19-03-2024 02:00:00,17.321993,76.822628,CO,40,54,46
India,Karnataka,Kalaburagi,"Mahatma Basaveswar Colony, Kalaburgi - KSPCB",19-03-2024 02:00:00,17.336318,76.847397,PM2.5,24,77,44
India,Karnataka,Kalaburagi,"Mahatma Basaveswar Colony, Kalaburgi - KSPCB",19-03-2024 02:00:00,17.336318,76.847397,PM10,26,92,52
India,Karnataka,Kalaburagi,"Mahatma Basaveswar Colony, Kalaburgi - KSPCB",19-03-2024 02:00:00,17.336318,76.847397,NO2,8,22,14
India,Karnataka,Kalaburagi,"Mahatma Basaveswar Colony, Kalaburgi - KSPCB",19-03-2024 02:00:00,17.336318,76.847397,NH3,2,4,3
India,Karnataka,Kalaburagi,"Mahatma Basaveswar Colony, Kalaburgi - KSPCB",19-03-2024 02:00:00,17.336318,76.847397,SO2,4,17,7
India,Karnataka,Karwar,"KHB Colony, Karwar - KSPCB",19-03-2024 02:00:00,14.816666,74.141003,PM2.5,40,293,65
India,Karnataka,Karwar,"KHB Colony, Karwar - KSPCB",19-03-2024 02:00:00,14.816666,74.141003,OZONE,21,22,21
India,Karnataka,Koppal,"Diwator Nagar, Koppal - KSPCB",19-03-2024 02:00:00,15.347630,76.181767,PM10,30,56,40
India,Karnataka,Koppal,"Diwator Nagar, Koppal - KSPCB",19-03-2024 02:00:00,15.347630,76.181767,CO,59,70,67
India,Karnataka,Madikeri,"Stuart Hill, Madikeri - KSPCB",19-03-2024 02:00:00,12.415911,75.735050,NO2,2,12,4
India,Karnataka,Madikeri,"Stuart Hill, Madikeri - KSPCB",19-03-2024 02:00:00,12.415911,75.735050,CO,2,50,31
India,Karnataka,Mysuru,"Hebbal 1st Stage, Mysuru - KSPCB",19-03-2024 02:00:00,12.21041,76.37376,PM10,31,70,51
India,Karnataka,Mysuru,"Hebbal 1st Stage, Mysuru - KSPCB",19-03-2024 02:00:00,12.21041,76.37376,NH3,1,3,2
India,Karnataka,Raichur,"Haji Colony, Raichur - KSPCB",19-03-2024 02:00:00,16.208139,77.348417,PM10,52,185,106
India,Karnataka,Raichur,"Haji Colony, Raichur - KSPCB",19-03-2024 02:00:00,16.208139,77.348417,NO2,14,46,31
India,Karnataka,Raichur,"Haji Colony, Raichur - KSPCB",19-03-2024 02:00:00,16.208139,77.348417,OZONE,10,140,59
India,Karnataka,Ramanagara,"Vijay Nagar, Ramanagara - KSPCB",19-03-2024 02:00:00,12.733409,77.298051,PM2.5,36,90,62
India,Karnataka,Ramanagara,"Vijay Nagar, Ramanagara - KSPCB",19-03-2024 02:00:00,12.733409,77.298051,PM10,39,75,57
India,Karnataka,Ramanagara,"Vijay Nagar, Ramanagara - KSPCB",19-03-2024 02:00:00,12.733409,77.298051,NO2,2,21,7
India,Karnataka,Ramanagara,"Vijay Nagar, Ramanagara - KSPCB",19-03-2024 02:00:00,12.733409,77.298051,SO2,14,30,23
India,Karnataka,Shivamogga,"Vinoba Nagara, Shivamogga - KSPCB",19-03-2024 02:00:00,13.940000,75.555917,NH3,2,4,3
India,Karnataka,Udupi,"Brahmagiri, Udupi - KSPCB",19-03-2024 02:00:00,13.34194444,74.74694444,PM2.5,36,63,52
India,Karnataka,Udupi,"Brahmagiri, Udupi - KSPCB",19-03-2024 02:00:00,13.34194444,74.74694444,CO,45,48,46
India,Karnataka,Vijayapura,"Ibrahimpur, Vijayapura - KSPCB",19-03-2024 02:00:00,16.802639,75.722694,PM10,38,40,39
India,Karnataka,Vijayapura,"Ibrahimpur, Vijayapura - KSPCB",19-03-2024 02:00:00,16.802639,75.722694,NO2,17,19,19
India,Karnataka,Yadgir,"Collector Office, Yadgir - KSPCB",19-03-2024 02:00:00,16.7602,77.1428,CO,9,30,17
India,Kerala,Kannur,"Thavakkara, Kannur - Kerala PCB",19-03-2024 02:00:00,11.875000,75.373200,NH3,1,1,1
India,Kerala,Kannur,"Thavakkara, Kannur - Kerala PCB",19-03-2024 02:00:00,11.875000,75.373200,CO,30,36,31
India,Kerala,Kollam,"Polayathode, Kollam - Kerala PCB",19-03-2024 02:00:00,8.8787,76.6073,PM10,76,118,97
India,Kerala,Kollam,"Polayathode, Kollam - Kerala PCB",19-03-2024 02:00:00,8.8787,76.6073,SO2,1,23,5
India,Kerala,Thiruvananthapuram,"Plammoodu, Thiruvananthapuram - Kerala PCB",19-03-2024 02:00:00,8.5149093,76.9435879,CO,8,48,24
India,Kerala,Thrissur,"Corporation Ground, Thrissur - Kerala PCB",19-03-2024 02:00:00,10.532400,76.215900,CO,14,36,15
India,Madhya Pradesh,Bhopal,"Idgah Hills, Bhopal - MPPCB",19-03-2024 02:00:00,23.264759,77.381568,NO2,9,62,27
India,Madhya Pradesh,Bhopal,"Idgah Hills, Bhopal - MPPCB",19-03-2024 02:00:00,23.264759,77.381568,NH3,4,6,5
India,Madhya Pradesh,Bhopal,"Idgah Hills, Bhopal - MPPCB",19-03-2024 02:00:00,23.264759,77.381568,OZONE,51,118,78
India,Madhya Pradesh,Bhopal,"Paryavaran Parisar, Bhopal - MPPCB",19-03-2024 02:00:00,23.210494,77.425409,PM2.5,48,87,63
India,Madhya Pradesh,Bhopal,"T T Nagar, Bhopal - MPPCB",19-03-2024 02:00:00,23.233584,77.400574,PM10,75,133,106
India,Madhya Pradesh,Bhopal,"T T Nagar, Bhopal - MPPCB",19-03-2024 02:00:00,23.233584,77.400574,NO2,32,52,39
India,Madhya Pradesh,Bhopal,"T T Nagar, Bhopal - MPPCB",19-03-2024 02:00:00,23.233584,77.400574,CO,18,71,37
India,Madhya Pradesh,Dewas,"Bhopal Chauraha, Dewas - MPPCB",19-03-2024 02:00:00,22.9682591,76.064118,PM10,NA,NA,NA
India,Madhya Pradesh,Gwalior,"Deen Dayal Nagar, Gwalior - MPPCB",19-03-2024 02:00:00,26.259242,78.216432,PM10,79,322,151
India,Madhya Pradesh,Gwalior,"Maharaj Bada, Gwalior - MPPCB",19-03-2024 02:00:00,26.200388,78.147714,PM2.5,33,304,106
India,Madhya Pradesh,Indore,"Chhoti Gwaltoli, Indore - MPPCB",19-03-2024 02:00:00,22.4310,75.5213,PM10,101,164,118
India,Madhya Pradesh,Indore,"Maguda Nagar, Indore - IMC",19-03-2024 02:00:00,22.7524,75.8872,NO2,5,7,6
India,Madhya Pradesh,Jabalpur,"Govindh Bhavan Colony, Jabalpur - JMC",19-03-2024 02:00:00,23.163174,79.973061,PM2.5,28,95,60
India,Madhya Pradesh,Jabalpur,"Gupteshwar, Jabalpur - JMC",19-03-2024 02:00:00,23.142888,79.916147,NO2,2,26,13
India,Madhya Pradesh,Jabalpur,"Marhatal, Jabalpur - MPPCB",19-03-2024 02:00:00,23.168606,79.932247,PM2.5,45,135,66
India,Madhya Pradesh,Jabalpur,"Marhatal, Jabalpur - MPPCB",19-03-2024 02:00:00,23.168606,79.932247,NH3,4,6,5
India,Madhya Pradesh,Jabalpur,"Marhatal, Jabalpur - MPPCB",19-03-2024 02:00:00,23.168606,79.932247,CO,38,70,52
India,Madhya Pradesh,Katni,"Gole Bazar, Katni - MPPCB",19-03-2024 02:00:00,23.50016,80.23284,PM10,75,170,112
India,Madhya Pradesh,Maihar,"Sahilara, Maihar - KJS Cements",19-03-2024 02:00:00,24.2613009,80.7231783,PM2.5,16,42,30
India,Madhya Pradesh,Maihar,"Sahilara, Maihar - KJS Cements",19-03-2024 02:00:00,24.2613009,80.7231783,PM10,30,50,42
India,Madhya Pradesh,Mandideep,"Sector-D Industrial Area, Mandideep - MPPCB",19-03-2024 02:00:00,23.108440,77.511428,SO2,17,135,69
India,Madhya Pradesh,Mandideep,"Sector-D Industrial Area, Mandideep - MPPCB",19-03-2024 02:00:00,23.108440,77.511428,OZONE,27,81,42
India,Madhya Pradesh,Pithampur,"Sector-2 Industrial Area, Pithampur - MPPCB",19-03-2024 02:00:00,22.624758,75.675238,SO2,12,16,14
India,Madhya Pradesh,Ratlam,"Shasthri Nagar, Ratlam - IPCA Lab",19-03-2024 02:00:00,23.331731,75.045981,SO2,36,45,39
India,Madhya Pradesh,Sagar,"Civil Lines, Sagar - MPPCB",19-03-2024 02:00:00,23.838586,78.759431,OZONE,46,140,72
India,Madhya Pradesh,Sagar,"Deen Dayal Nagar, Sagar - MPPCB",19-03-2024 02:00:00,23.8640158,78.80289321,PM2.5,12,33,21
India,Madhya Pradesh,Singrauli,"Suryakiran Bhawan NCL, Singrauli - MPPCB",19-03-2024 02:00:00,24.108970,82.645580,NO2,16,110,50
India,Maharashtra,Ahmednagar,"Tarakpur, Ahmednagar - MPCB",19-03-2024 02:00:00,19.10122,74.73339,NO2,21,82,43
India,Maharashtra,Ahmednagar,"Tarakpur, Ahmednagar - MPCB",19-03-2024 02:00:00,19.10122,74.73339,SO2,11,18,14
India,Maharashtra,Amravati,"Shivneri Colony, Amravati - MPCB",19-03-2024 02:00:00,20.9402359,77.7895248,CO,14,36,26
India,Maharashtra,Amravati,"Shri Shivaji Science College, Amaravati - MPCB",19-03-2024 02:00:00,20.939198,77.765701,PM10,64,122,90
India,Maharashtra,Amravati,"Shri Shivaji Science College, Amaravati - MPCB",19-03-2024 02:00:00,20.939198,77.765701,NH3,1,5,2
India,Maharashtra,Aurangabad,"MIDC Chilkalthana, Aurangabad - MPCB",19-03-2024 02:00:00,19.875620,75.387310,SO2,5,36,17
India,Maharashtra,Aurangabad,"More Chowk Waluj, Aurangabad - MPCB",19-03-2024 02:00:00,19.8389439,75.244448,NH3,1,1,1
India,Maharashtra,Aurangabad,"Rachnakar Colony, Aurangabad - MPCB",19-03-2024 02:00:00,19.863756,75.321188,OZONE,24,108,30
India,Maharashtra,Badlapur,"Katrap, Badlapur - MPCB",19-03-2024 02:00:00,19.16485,73.23409,SO2,3,15,8
India,Maharashtra,Belapur,"CBD Belapur, Belapur - MPCB",19-03-2024 02:00:00,19.0243902,73.0406721,PM2.5,43,95,63
India,Maharashtra,Belapur,"CBD Belapur, Belapur - MPCB",19-03-2024 02:00:00,19.0243902,73.0406721,PM10,46,119,86
India,Maharashtra,Belapur,"CBD Belapur, Belapur - MPCB",19-03-2024 02:00:00,19.0243902,73.0406721,NH3,13,20,16
India,Maharashtra,Bhiwandi,"Gokul Nagar, Bhiwandi - MPCB",19-03-2024 02:00:00,19.309073,73.057223,PM10,102,154,121
India,Maharashtra,Chandrapur,"Chauhan Colony, Chandrapur - MPCB",19-03-2024 02:00:00,19.962900,79.298714,PM2.5,44,119,68
India,Maharashtra,Chandrapur,"Chauhan Colony, Chandrapur - MPCB",19-03-2024 02:00:00,19.962900,79.298714,NH3,2,5,3
India,Maharashtra,Chandrapur,"MIDC Khutala, Chandrapur - MPCB",19-03-2024 02:00:00,19.9775302,79.2337086,NH3,NA,NA,NA
India,Maharashtra,Chandrapur,"MIDC Khutala, Chandrapur - MPCB",19-03-2024 02:00:00,19.9775302,79.2337086,CO,18,60,40
India,Maharashtra,Chandrapur,"MIDC Khutala, Chandrapur - MPCB",19-03-2024 02:00:00,19.9775302,79.2337086,OZONE,3,80,11
India,Maharashtra,Dhule,"Deopur, Dhule - MPCB",19-03-2024 02:00:00,20.918946,74.776388,NH3,2,34,4
India,Maharashtra,Jalgaon,"Prabhat Colony, Jalgaon - MPCB",19-03-2024 02:00:00,21.001264,75.565602,PM2.5,87,183,123
India,Maharashtra,Jalgaon,"Prabhat Colony, Jalgaon - MPCB",19-03-2024 02:00:00,21.001264,75.565602,PM10,88,125,104
India,Maharashtra,Jalgaon,"Prabhat Colony, Jalgaon - MPCB",19-03-2024 02:00:00,21.001264,75.565602,NO2,17,132,40
India,Maharashtra,Jalgaon,"Prabhat Colony, Jalgaon - MPCB",19-03-2024 02:00:00,21.001264,75.565602,NH3,1,8,6
India,Maharashtra,Jalgaon,"Prabhat Colony, Jalgaon - MPCB",19-03-2024 02:00:00,21.001264,75.565602,CO,14,48,25
India,Maharashtra,Jalna,"Old MIDC, Jalna - MPCB",19-03-2024 02:00:00,19.854616,75.905894,NO2,30,54,42
India,Maharashtra,Jalna,"Old MIDC, Jalna - MPCB",19-03-2024 02:00:00,19.854616,75.905894,CO,24,48,40
India,Maharashtra,Kalyan,"Khadakpada, Kalyan - MPCB",19-03-2024 02:00:00,19.25292,73.142019,SO2,26,35,30
India,Maharashtra,Kolhapur,"Shivaji University, Kolhapur - MPCB",19-03-2024 02:00:00,16.6870449,74.2505872,SO2,1,35,8
India,Maharashtra,Kolhapur,"Shivaji University, Kolhapur - MPCB",19-03-2024 02:00:00,16.6870449,74.2505872,CO,32,72,58
India,Maharashtra,Kolhapur,"Shivaji University, Kolhapur - MPCB",19-03-2024 02:00:00,16.6870449,74.2505872,OZONE,6,96,43
India,Maharashtra,Kolhapur,"Sinchan Bhavan, Kolhapur - MPCB",19-03-2024 02:00:00,16.7143745,74.2426398,PM2.5,NA,NA,NA
India,Maharashtra,Kolhapur,"Sinchan Bhavan, Kolhapur - MPCB",19-03-2024 02:00:00,16.7143745,74.2426398,SO2,1,19,5
India,Maharashtra,Kolhapur,"Sinchan Bhavan, Kolhapur - MPCB",19-03-2024 02:00:00,16.7143745,74.2426398,CO,12,75,25
India,Maharashtra,Mahad,"Kamble Tarf Birwadi, Mahad - MPCB",19-03-2024 02:00:00,18.1023399,73.4783687,CO,29,70,42
India,Maharashtra,Malegaon,"Mahesh Nagar, Malegaon - MPCB",19-03-2024 02:00:00,20.555712,74.529236,PM2.5,NA,NA,NA
India,Maharashtra,Mira-Bhayandar,"Bhayandar West, Mira-Bhayandar - MPCB",19-03-2024 02:00:00,19.296481,72.840923,PM10,129,196,154
India,Maharashtra,Mumbai,"Bandra Kurla Complex, Mumbai - MPCB",19-03-2024 02:00:00,19.065931,72.862131,PM2.5,59,89,74
India,Maharashtra,Mumbai,"Bandra Kurla Complex, Mumbai - MPCB",19-03-2024 02:00:00,19.065931,72.862131,CO,15,51,34
India,Maharashtra,Mumbai,"Bandra Kurla Complex, Mumbai - MPCB",19-03-2024 02:00:00,19.065931,72.862131,OZONE,12,80,58
India,Maharashtra,Mumbai,"Borivali East, Mumbai - IITM",19-03-2024 02:00:00,19.23241,72.86895,PM2.5,55,90,70
India,Maharashtra,Mumbai,"Borivali East, Mumbai - IITM",19-03-2024 02:00:00,19.23241,72.86895,NH3,2,2,2
India,Maharashtra,Mumbai,"Borivali East, Mumbai - MPCB",19-03-2024 02:00:00,19.2243333,72.8658113,SO2,NA,NA,NA
India,Maharashtra,Mumbai,"Byculla, Mumbai - BMC",19-03-2024 02:00:00,18.9767,72.8380,NO2,16,22,18
India,Maharashtra,Mumbai,"Byculla, Mumbai - BMC",19-03-2024 02:00:00,18.9767,72.8380,CO,12,27,18
India,Maharashtra,Mumbai,"Chakala-Andheri East, Mumbai - IITM",19-03-2024 02:00:00,19.11074,72.86084,CO,16,50,49
India,Maharashtra,Mumbai,"Chembur, Mumbai - MPCB",19-03-2024 02:00:00,19.0364585,72.8954371,PM2.5,69,166,98
India,Maharashtra,Mumbai,"Chhatrapati Shivaji Intl. Airport (T2), Mumbai - MPCB",19-03-2024 02:00:00,19.10078,72.87462,SO2,20,28,24
India,Maharashtra,Mumbai,"Chhatrapati Shivaji Intl. Airport (T2), Mumbai - MPCB",19-03-2024 02:00:00,19.10078,72.87462,CO,45,56,50
India,Maharashtra,Mumbai,"Colaba, Mumbai - MPCB",19-03-2024 02:00:00,18.910000,72.820000,PM10,49,74,59
India,Maharashtra,Mumbai,"Colaba, Mumbai - MPCB",19-03-2024 02:00:00,18.910000,72.820000,NH3,1,1,1
India,Maharashtra,Mumbai,"Kandivali West, Mumbai - BMC",19-03-2024 02:00:00,19.215859,72.831718,NH3,1,3,2
India,Maharashtra,Mumbai,"Kherwadi_Bandra East, Mumbai - MPCB",19-03-2024 02:00:00,19.0632143,72.8456324,NO2,10,70,25
India,Maharashtra,Mumbai,"Khindipada-Bhandup West, Mumbai - IITM",19-03-2024 02:00:00,19.1653323,72.922099,PM10,NA,NA,NA
India,Maharashtra,Mumbai,"Kurla, Mumbai - MPCB",19-03-2024 02:00:00,19.0863,72.8888,CO,12,20,16
India,Maharashtra,Mumbai,"Mazgaon, Mumbai - IITM",19-03-2024 02:00:00,18.96702,72.84214,CO,16,74,42
India,Maharashtra,Mumbai,"Navy Nagar-Colaba, Mumbai - IITM",19-03-2024 02:00:00,18.897756,72.813320,NH3,11,25,17
India,Maharashtra,Mumbai,"Sion, Mumbai - MPCB",19-03-2024 02:00:00,19.047000,72.874600,NO2,14,37,28
India,Maharashtra,Mumbai,"Vasai West, Mumbai - MPCB",19-03-2024 02:00:00,19.383200,72.820400,PM2.5,29,89,50
India,Maharashtra,Mumbai,"Vasai West, Mumbai - MPCB",19-03-2024 02:00:00,19.383200,72.820400,SO2,16,16,16
India,Maharashtra,Nagpur,"Ambazari, Nagpur - MPCB",19-03-2024 02:00:00,21.121801,79.04952,SO2,11,46,22
India,Maharashtra,Nagpur,"Mahal, Nagpur - MPCB",19-03-2024 02:00:00,21.14472,79.107595,PM2.5,51,93,73
India,Maharashtra,Nagpur,"Mahal, Nagpur - MPCB",19-03-2024 02:00:00,21.14472,79.107595,NO2,9,37,18
India,Maharashtra,Nagpur,"Mahal, Nagpur - MPCB",19-03-2024 02:00:00,21.14472,79.107595,OZONE,16,64,32
India,Maharashtra,Nagpur,"Opp GPO Civil Lines, Nagpur - MPCB",19-03-2024 02:00:00,21.152875,79.0517531,NO2,4,163,60
India,Maharashtra,Nagpur,"Opp GPO Civil Lines, Nagpur - MPCB",19-03-2024 02:00:00,21.152875,79.0517531,SO2,1,48,14
India,Maharashtra,Nagpur,"Ram Nagar, Nagpur - MPCB",19-03-2024 02:00:00,21.143383,79.048912,CO,18,48,31
India,Maharashtra,Nagpur,"Ram Nagar, Nagpur - MPCB",19-03-2024 02:00:00,21.143383,79.048912,OZONE,7,89,28
India,Maharashtra,Nanded,"Sneh Nagar, Nanded - MPCB",19-03-2024 02:00:00,19.173852,77.296291,PM2.5,90,226,155
India,Maharashtra,Nanded,"Sneh Nagar, Nanded - MPCB",19-03-2024 02:00:00,19.173852,77.296291,NO2,21,82,40
India,Maharashtra,Nanded,"Sneh Nagar, Nanded - MPCB",19-03-2024 02:00:00,19.173852,77.296291,SO2,1,5,3
India,Maharashtra,Nanded,"Sneh Nagar, Nanded - MPCB",19-03-2024 02:00:00,19.173852,77.296291,OZONE,20,123,63
India,Maharashtra,Nashik,"Gangapur Road, Nashik - MPCB",19-03-2024 02:00:00,20.0073285,73.7762427,SO2,2,9,5
India,Maharashtra,Nashik,"Gangapur Road, Nashik - MPCB",19-03-2024 02:00:00,20.0073285,73.7762427,OZONE,28,70,43
India,Maharashtra,Nashik,"MIDC Ambad, Nashik - MPCB",19-03-2024 02:00:00,19.950220,73.731480,PM10,60,87,76
India,Maharashtra,Navi Mumbai,"Kopripada-Vashi, Navi Mumbai - MPCB",19-03-2024 02:00:00,19.090337,73.014232,NO2,31,75,50
India,Maharashtra,Navi Mumbai,"Kopripada-Vashi, Navi Mumbai - MPCB",19-03-2024 02:00:00,19.090337,73.014232,SO2,4,11,7
India,Maharashtra,Navi Mumbai,"Kopripada-Vashi, Navi Mumbai - MPCB",19-03-2024 02:00:00,19.090337,73.014232,CO,12,40,21
India,Maharashtra,Navi Mumbai,"Mahape, Navi Mumbai - MPCB",19-03-2024 02:00:00,19.1135051,73.008978,SO2,26,27,26
India,Maharashtra,Navi Mumbai,"Mahape, Navi Mumbai - MPCB",19-03-2024 02:00:00,19.1135051,73.008978,OZONE,18,48,25
India,Maharashtra,Navi Mumbai,"Nerul, Navi Mumbai - MPCB",19-03-2024 02:00:00,19.008751,73.016620,NO2,13,19,15
India,Maharashtra,Navi Mumbai,"Nerul, Navi Mumbai - MPCB",19-03-2024 02:00:00,19.008751,73.016620,OZONE,29,34,29
India,Maharashtra,Navi Mumbai,"Sanpada, Navi Mumbai - MPCB",19-03-2024 02:00:00,19.0575752,73.0151367,CO,7,31,14
India,Maharashtra,Navi Mumbai,"Sanpada, Navi Mumbai - MPCB",19-03-2024 02:00:00,19.0575752,73.0151367,OZONE,2,39,27
India,Maharashtra,Navi Mumbai,"Sector-19A Nerul, Navi Mumbai - IITM",19-03-2024 02:00:00,19.044,73.0325,CO,2,52,18
India,Maharashtra,Navi Mumbai,"Sector-2E Kalamboli, Navi Mumbai - MPCB",19-03-2024 02:00:00,19.02579,73.10297,SO2,1,23,11
India,Maharashtra,Navi Mumbai,"Sector-2E Kalamboli, Navi Mumbai - MPCB",19-03-2024 02:00:00,19.02579,73.10297,CO,14,42,19
India,Maharashtra,Navi Mumbai,"Tondare-Taloja, Navi Mumbai - MPCB",19-03-2024 02:00:00,19.0630,73.1209,NO2,20,99,57
India,Maharashtra,Parbhani,"Masoom Colony, Parbhani - MPCB",19-03-2024 02:00:00,19.265594,76.761463,NH3,5,9,7
India,Maharashtra,Parbhani,"Masoom Colony, Parbhani - MPCB",19-03-2024 02:00:00,19.265594,76.761463,CO,20,48,40
India,Maharashtra,Pimpri-Chinchwad,"Gavalinagar, Pimpri Chinchwad - MPCB",19-03-2024 02:00:00,18.63673,73.82487,PM10,67,107,86
India,Maharashtra,Pimpri-Chinchwad,"Gavalinagar, Pimpri Chinchwad - MPCB",19-03-2024 02:00:00,18.63673,73.82487,NO2,10,81,39
India,Maharashtra,Pimpri-Chinchwad,"Gavalinagar, Pimpri Chinchwad - MPCB",19-03-2024 02:00:00,18.63673,73.82487,SO2,6,21,12
India,Maharashtra,Pimpri-Chinchwad,"Gavalinagar, Pimpri Chinchwad - MPCB",19-03-2024 02:00:00,18.63673,73.82487,CO,10,49,30
India,Maharashtra,Pimpri-Chinchwad,"Park Street Wakad, Pimpri Chinchwad - MPCB",19-03-2024 02:00:00,18.59051,73.77946,NH3,NA,NA,NA
India,Maharashtra,Pimpri-Chinchwad,"Park Street Wakad, Pimpri Chinchwad - MPCB",19-03-2024 02:00:00,18.59051,73.77946,OZONE,NA,NA,NA
India,Maharashtra,Pimpri-Chinchwad,"Thergaon, Pimpri Chinchwad - MPCB",19-03-2024 02:00:00,18.616318,73.765797,PM2.5,94,208,134
India,Maharashtra,Pune,"Bhosari, Pune - IITM",19-03-2024 02:00:00,18.640051,73.848956,CO,41,48,45
India,Maharashtra,Pune,"Karve Road, Pune - MPCB",19-03-2024 02:00:00,18.5011743,73.8165527,NO2,2,2,2
India,Maharashtra,Pune,"Karve Road, Pune - MPCB",19-03-2024 02:00:00,18.5011743,73.8165527,CO,54,57,57
India,Maharashtra,Pune,"Karve Road, Pune - MPCB",19-03-2024 02:00:00,18.5011743,73.8165527,OZONE,5,5,5
India,Maharashtra,Pune,"Mhada Colony, Pune - IITM",19-03-2024 02:00:00,18.573040,73.927715,NO2,1,19,10
India,Maharashtra,Pune,"Mhada Colony, Pune - IITM",19-03-2024 02:00:00,18.573040,73.927715,CO,21,94,52
India,Maharashtra,Pune,"Revenue Colony-Shivajinagar, Pune - IITM",19-03-2024 02:00:00,18.530085,73.849598,PM2.5,36,94,59
India,Maharashtra,Pune,"Revenue Colony-Shivajinagar, Pune - IITM",19-03-2024 02:00:00,18.530085,73.849598,NH3,9,19,13
India,Maharashtra,Pune,"Transport Nagar-Nigdi, Pune - IITM",19-03-2024 02:00:00,18.664282,73.763966,PM2.5,21,71,43
India,Maharashtra,Sangli,"Vijay Nagar, Sangli - MPCB",19-03-2024 02:00:00, 16.5038,74.3623,NH3,1,4,2
India,Maharashtra,Sangli,"Vijay Nagar, Sangli - MPCB",19-03-2024 02:00:00, 16.5038,74.3623,CO,21,85,34
India,Maharashtra,Solapur,"Dnyaneshwar Nagar, Solapur - MPCB",19-03-2024 02:00:00,17.6336264,75.9132495,PM10,86,246,124
India,Maharashtra,Solapur,"Dnyaneshwar Nagar, Solapur - MPCB",19-03-2024 02:00:00,17.6336264,75.9132495,NO2,11,55,25
India,Maharashtra,Solapur,"Dnyaneshwar Nagar, Solapur - MPCB",19-03-2024 02:00:00,17.6336264,75.9132495,NH3,10,28,15
India,Maharashtra,Solapur,"Ratandeep Housing Society, Solapur - MPCB",19-03-2024 02:00:00,17.65439,75.90649,CO,19,94,53
India,Maharashtra,Solapur,"Ratandeep Housing Society, Solapur - MPCB",19-03-2024 02:00:00,17.65439,75.90649,OZONE,9,99,58
India,Maharashtra,Solapur,"Solapur, Solapur - MPCB",19-03-2024 02:00:00,17.6599188,75.9063906,NO2,NA,NA,NA
India,Maharashtra,Thane,"Kasarvadavali, Thane - MPCB",19-03-2024 02:00:00,19.26777,72.97182,NO2,26,70,41
India,Maharashtra,Thane,"Kasarvadavali, Thane - MPCB",19-03-2024 02:00:00,19.26777,72.97182,NH3,7,12,8
India,Maharashtra,Thane,"Pimpleshwar Mandir, Thane - MPCB",19-03-2024 02:00:00,19.192056,72.9585188,NO2,4,24,13
India,Maharashtra,Thane,"Pimpleshwar Mandir, Thane - MPCB",19-03-2024 02:00:00,19.192056,72.9585188,NH3,3,3,3
India,Maharashtra,Thane,"Upvan Fort, Thane - MPCB",19-03-2024 02:00:00,19.222279,72.957979,NH3,14,18,16
India,Maharashtra,Thane,"Upvan Fort, Thane - MPCB",19-03-2024 02:00:00,19.222279,72.957979,CO,3,32,18
India,Maharashtra,Thane,"Upvan Fort, Thane - MPCB",19-03-2024 02:00:00,19.222279,72.957979,OZONE,24,140,56
India,Maharashtra,Ulhasnagar,"Sidhi Vinayak Nagar, Ulhasnagar - MPCB",19-03-2024 02:00:00,19.235581,73.159121,NO2,9,49,29
India,Maharashtra,Ulhasnagar,"Sidhi Vinayak Nagar, Ulhasnagar - MPCB",19-03-2024 02:00:00,19.235581,73.159121,CO,10,57,32
India,Manipur,Imphal,"DM College of Science, Imphal - Manipur PCB",19-03-2024 02:00:00,24.8207389,93.9423085,CO,6,6,6
India,Manipur,Imphal,"DM College of Science, Imphal - Manipur PCB",19-03-2024 02:00:00,24.8207389,93.9423085,OZONE,2,84,4
India,Meghalaya,Shillong,"Lumpyngngad, Shillong - Meghalaya PCB",19-03-2024 02:00:00,25.5586,91.8985,OZONE,60,116,101
India,Mizoram,Aizawl,"Sikulpuikawn, Aizawl - Mizoram PCB",19-03-2024 02:00:00,23.7176342,92.7192841,SO2,2,2,2
India,Nagaland,Kohima,"PWD Juction, Kohima - NPCB",19-03-2024 02:00:00,25.6635413,94.0989878,PM2.5,71,320,177
India,Odisha,Balasore,"Kalidaspur, Balasore - OSPCB",19-03-2024 02:00:00,21.51161,86.89088,PM2.5,23,110,54
India,Odisha,Balasore,"Kalidaspur, Balasore - OSPCB",19-03-2024 02:00:00,21.51161,86.89088,NO2,7,52,18
India,Odisha,Balasore,"Kalidaspur, Balasore - OSPCB",19-03-2024 02:00:00,21.51161,86.89088,SO2,15,21,17
India,Odisha,Balasore,"Kalidaspur, Balasore - OSPCB",19-03-2024 02:00:00,21.51161,86.89088,OZONE,4,79,30
India,Odisha,Baripada,"Meher Colony, Baripada - OSPCB",19-03-2024 02:00:00,21.941841,86.728318,CO,NA,NA,NA
India,Odisha,Bhubaneswar,"Lingraj Mandir, Bhubaneswar - OSPCB",19-03-2024 02:00:00,20.240790,85.836784,PM2.5,53,153,94
India,Odisha,Bhubaneswar,"Lingraj Mandir, Bhubaneswar - OSPCB",19-03-2024 02:00:00,20.240790,85.836784,CO,50,71,60
India,Odisha,Bhubaneswar,"Patia, Bhubaneswar - OSPCB",19-03-2024 02:00:00,20.34652,85.81630,PM2.5,20,85,48
India,Odisha,Bhubaneswar,"Patia, Bhubaneswar - OSPCB",19-03-2024 02:00:00,20.34652,85.81630,CO,76,98,84
India,Odisha,Bhubaneswar,"Patia, Bhubaneswar - OSPCB",19-03-2024 02:00:00,20.34652,85.81630,OZONE,5,136,40
India,Odisha,Bileipada,"Tata Township, Bileipada - OSPCB",19-03-2024 02:00:00,22.06156703,85.47409613,PM10,90,189,119
India,Odisha,Bileipada,"Tata Township, Bileipada - OSPCB",19-03-2024 02:00:00,22.06156703,85.47409613,NH3,11,11,11
India,Odisha,Brajrajnagar,"GM Office, Brajrajnagar - OSPCB",19-03-2024 02:00:00,21.8004996,83.8396977,PM2.5,1,118,34
India,Odisha,Brajrajnagar,"GM Office, Brajrajnagar - OSPCB",19-03-2024 02:00:00,21.8004996,83.8396977,NO2,14,22,16
India,Odisha,Cuttack,"CDA Area, Cuttack - OSPCB",19-03-2024 02:00:00,20.48891     ,85.84768     ,PM10,56,141,87
India,Odisha,Cuttack,"CDA Area, Cuttack - OSPCB",19-03-2024 02:00:00,20.48891     ,85.84768     ,NO2,11,43,20
India,Odisha,Cuttack,"CDA Area, Cuttack - OSPCB",19-03-2024 02:00:00,20.48891     ,85.84768     ,NH3,1,8,3
India,Odisha,Nayagarh,"Dabuna, Nayagarh - OSPCB",19-03-2024 02:00:00,21.847279,85.416905,PM2.5,42,94,62
India,Odisha,Nayagarh,"Dabuna, Nayagarh - OSPCB",19-03-2024 02:00:00,21.847279,85.416905,NH3,2,5,5
India,Odisha,Rourkela,"Fertilizer Township, Rourkela - OSPCB",19-03-2024 02:00:00,22.18972222,84.86277778,NO2,2,73,20
India,Odisha,Rourkela,"Raghunathpali, Rourkela - OSPCB",19-03-2024 02:00:00,22.220833,84.809444,NO2,15,93,41
India,Odisha,Rourkela,"Sector-2, Rourkela - OSPCB",19-03-2024 02:00:00,22.24500000,84.88111111,PM10,47,115,80
India,Odisha,Suakati,"OMC Colony, Suakati - OSPCB",19-03-2024 02:00:00,21.606865,85.510538,PM10,NA,NA,NA
India,Odisha,Talcher,"Talcher Coalfields,Talcher - OSPCB",19-03-2024 02:00:00,20.9360711,85.1707021,PM10,42,191,115
India,Odisha,Talcher,"Talcher Coalfields,Talcher - OSPCB",19-03-2024 02:00:00,20.9360711,85.1707021,NO2,36,60,42
India,Odisha,Talcher,"Talcher Coalfields,Talcher - OSPCB",19-03-2024 02:00:00,20.9360711,85.1707021,OZONE,2,23,14
India,Punjab,Amritsar,"Golden Temple, Amritsar - PPCB",19-03-2024 02:00:00,31.620000,74.876512,PM10,65,103,90
India,Punjab,Amritsar,"Golden Temple, Amritsar - PPCB",19-03-2024 02:00:00,31.620000,74.876512,NO2,7,66,16
India,Punjab,Jalandhar,"Civil Line, Jalandhar - PPCB",19-03-2024 02:00:00,31.321907,75.578914,PM2.5,71,189,113
India,Punjab,Jalandhar,"Civil Line, Jalandhar - PPCB",19-03-2024 02:00:00,31.321907,75.578914,OZONE,2,86,24
India,Punjab,Khanna,"Kalal Majra, Khanna - PPCB",19-03-2024 02:00:00,30.736056 ,76.209694,NO2,34,34,34
India,Punjab,Khanna,"Kalal Majra, Khanna - PPCB",19-03-2024 02:00:00,30.736056 ,76.209694,SO2,10,71,25
India,Punjab,Mandi Gobindgarh,"RIMT University, Mandi Gobindgarh - PPCB",19-03-2024 02:00:00,30.649961,76.331442,NO2,23,24,23
India,Punjab,Mandi Gobindgarh,"RIMT University, Mandi Gobindgarh - PPCB",19-03-2024 02:00:00,30.649961,76.331442,SO2,5,47,23
India,Punjab,Mandi Gobindgarh,"RIMT University, Mandi Gobindgarh - PPCB",19-03-2024 02:00:00,30.649961,76.331442,OZONE,49,52,50
India,Punjab,Patiala,"Model Town, Patiala - PPCB",19-03-2024 02:00:00,30.349388,76.366642,PM2.5,48,85,70
India,Punjab,Patiala,"Model Town, Patiala - PPCB",19-03-2024 02:00:00,30.349388,76.366642,SO2,2,53,11
India,Rajasthan,Ajmer,"Civil Lines,  Ajmer - RSPCB",19-03-2024 02:00:00,26.470859,74.646594,PM10,25,159,92
India,Rajasthan,Alwar,"Moti Doongri, Alwar - RSPCB",19-03-2024 02:00:00,27.554793,76.611536,SO2,5,57,34
India,Rajasthan,Banswara,"Rati Talai, Banswara - RSPCB",19-03-2024 02:00:00,23.555190,74.440010,OZONE,22,169,53
India,Rajasthan,Baran,"Bamboliya, Baran - RSPCB",19-03-2024 02:00:00,25.106006,76.469948,SO2,8,14,10
India,Rajasthan,Barmer,"Railway Colony, Barmer - RSPCB",19-03-2024 02:00:00,25.747299,71.393989,PM10,23,218,75
India,Rajasthan,Barmer,"Railway Colony, Barmer - RSPCB",19-03-2024 02:00:00,25.747299,71.393989,SO2,7,21,11
India,Rajasthan,Bharatpur,"Krishna Nagar, Bharatpur - RSPCB",19-03-2024 02:00:00,27.215415,77.50873,NO2,30,114,54
India,Rajasthan,Bharatpur,"Krishna Nagar, Bharatpur - RSPCB",19-03-2024 02:00:00,27.215415,77.50873,SO2,2,10,5
India,Rajasthan,Bhilwara,"Pratap Nagar, Bhilwara - RSPCB",19-03-2024 02:00:00,25.339605,74.618883,PM10,31,177,84
India,Rajasthan,Bhiwadi,"RIICO Ind. Area III, Bhiwadi - RSPCB",19-03-2024 02:00:00,28.194909,76.862296,OZONE,3,55,7
India,Rajasthan,Bikaner,"MM Ground, Bikaner - RSPCB",19-03-2024 02:00:00,28.018792,73.292658,NO2,18,107,51
India,Rajasthan,Bundi,"New Colony, Bundi - RSPCB",19-03-2024 02:00:00,25.435774,75.644272,NH3,2,3,3
India,Rajasthan,Bundi,"New Colony, Bundi - RSPCB",19-03-2024 02:00:00,25.435774,75.644272,CO,9,83,29
India,Rajasthan,Bundi,"New Colony, Bundi - RSPCB",19-03-2024 02:00:00,25.435774,75.644272,OZONE,25,151,74
India,Rajasthan,Churu,"Subash Chowk, Churu - RSPCB",19-03-2024 02:00:00,28.296139,74.961696,SO2,3,17,8
India,Rajasthan,Churu,"Subash Chowk, Churu - RSPCB",19-03-2024 02:00:00,28.296139,74.961696,OZONE,37,136,99
India,Rajasthan,Dholpur,"Raja Ganj, Dholpur - RSPCB",19-03-2024 02:00:00,26.699557,77.898881,PM10,127,319,190
India,Rajasthan,Dholpur,"Raja Ganj, Dholpur - RSPCB",19-03-2024 02:00:00,26.699557,77.898881,CO,14,50,41
India,Rajasthan,Dungarpur,"Bhoiwada, Dungarpur - RSPCB",19-03-2024 02:00:00,23.837789,73.714926,PM10,65,160,94
India,Rajasthan,Jaipur,"Adarsh Nagar, Jaipur - RSPCB",19-03-2024 02:00:00,26.902909,75.836858,CO,3,46,21
India,Rajasthan,Jaipur,"Mansarovar Sector-12, Jaipur - RSPCB",19-03-2024 02:00:00,26.843698,75.766894,SO2,2,10,6
India,Rajasthan,Jaipur,"Mansarovar Sector-12, Jaipur - RSPCB",19-03-2024 02:00:00,26.843698,75.766894,OZONE,4,10,6
India,Rajasthan,Jaipur,"Police Commissionerate, Jaipur - RSPCB",19-03-2024 02:00:00,26.9164092,75.7994901,NO2,20,107,48
India,Rajasthan,Jaipur,"Police Commissionerate, Jaipur - RSPCB",19-03-2024 02:00:00,26.9164092,75.7994901,SO2,14,26,19
India,Rajasthan,Jaipur,"RIICO Sitapura, Jaipur - RSPCB",19-03-2024 02:00:00,26.786682,75.827928,NH3,1,23,8
India,Rajasthan,Jaipur,"Shastri Nagar, Jaipur - RSPCB",19-03-2024 02:00:00,26.9502929,75.730943,CO,23,100,53
India,Rajasthan,Jalore,"Mudtra Sili, Jalore - RSPCB",19-03-2024 02:00:00,25.344694,72.626208,PM10,55,412,129
India,Rajasthan,Jalore,"Mudtra Sili, Jalore - RSPCB",19-03-2024 02:00:00,25.344694,72.626208,CO,14,113,57
India,Rajasthan,Jhalawar,"Rajlaxmi Nagar, Jhalawar - RSPCB",19-03-2024 02:00:00,24.588397,76.172782,NH3,4,6,5
India,Rajasthan,Jhalawar,"Rajlaxmi Nagar, Jhalawar - RSPCB",19-03-2024 02:00:00,24.588397,76.172782,SO2,2,17,8
India,Rajasthan,Jhunjhunu,"Indra Nagar, Jhunjhunu - RSPCB",19-03-2024 02:00:00,28.108988,75.386577,PM2.5,13,209,66
India,Rajasthan,Jhunjhunu,"Indra Nagar, Jhunjhunu - RSPCB",19-03-2024 02:00:00,28.108988,75.386577,NO2,14,70,35
India,Rajasthan,Jhunjhunu,"Indra Nagar, Jhunjhunu - RSPCB",19-03-2024 02:00:00,28.108988,75.386577,CO,16,40,27
India,Rajasthan,Jodhpur,"Jhalamand, Jodhpur - RSPCB",19-03-2024 02:00:00,26.215415,73.070156,NO2,22,53,30
India,Rajasthan,Jodhpur,"Jhalamand, Jodhpur - RSPCB",19-03-2024 02:00:00,26.215415,73.070156,NH3,2,7,4
India,Rajasthan,Jodhpur,"Samrat Ashok Udhyan, Jodhpur - RSPCB",19-03-2024 02:00:00,26.253384,72.976571,NH3,3,28,6
India,Rajasthan,Karauli,"Satyawati Vihar, Karauli - RSPCB",19-03-2024 02:00:00,26.506177,77.025989,PM10,11,103,48
India,Rajasthan,Karauli,"Satyawati Vihar, Karauli - RSPCB",19-03-2024 02:00:00,26.506177,77.025989,NH3,2,7,4
India,Rajasthan,Kota,"Dhanmandi, Kota - RSPCB",19-03-2024 02:00:00,25.164090,75.858137,PM2.5,25,309,106
India,Rajasthan,Kota,"Dhanmandi, Kota - RSPCB",19-03-2024 02:00:00,25.164090,75.858137,NO2,15,166,63
India,Rajasthan,Kota,"Nayapura, Kota - RSPCB",19-03-2024 02:00:00,25.196024,75.855668,PM2.5,22,313,85
India,Rajasthan,Kota,"Nayapura, Kota - RSPCB",19-03-2024 02:00:00,25.196024,75.855668,SO2,1,8,5
India,Rajasthan,Kota,"Nayapura, Kota - RSPCB",19-03-2024 02:00:00,25.196024,75.855668,CO,18,120,84
India,Rajasthan,Kota,"Shrinath Puram, Kota - RSPCB",19-03-2024 02:00:00,25.14389,75.821256,PM10,52,167,104
India,Rajasthan,Kota,"Shrinath Puram, Kota - RSPCB",19-03-2024 02:00:00,25.14389,75.821256,OZONE,6,82,25
India,Rajasthan,Nagaur,"Karni Colony, Nagaur - RSPCB",19-03-2024 02:00:00,27.213494,73.734444,NO2,11,40,22
India,Rajasthan,Pali,"Indira Colony Vistar, Pali - RSPCB",19-03-2024 02:00:00,25.771061, 73.340227,NO2,42,63,49
India,Rajasthan,Pali,"Indira Colony Vistar, Pali - RSPCB",19-03-2024 02:00:00,25.771061, 73.340227,NH3,1,12,6
India,Rajasthan,Rajsamand,"Dhoinda, Rajsamand - RSPCB",19-03-2024 02:00:00,25.036360,73.883502,NH3,1,1,1
India,Rajasthan,Sikar,"Radhakishan Pura, Sikar - RSPCB",19-03-2024 02:00:00,27.608912,75.153302,NO2,7,115,33
India,Rajasthan,Sirohi,"Vedhaynath Colony, Sirohi - RSPCB",19-03-2024 02:00:00,24.885261,72.857549,PM10,44,139,72
India,Rajasthan,Sri Ganganagar,"Old City, Sri Ganganagar - RSPCB",19-03-2024 02:00:00,29.931624,73.864511,PM2.5,33,342,162
India,Rajasthan,Sri Ganganagar,"Old City, Sri Ganganagar - RSPCB",19-03-2024 02:00:00,29.931624,73.864511,CO,97,122,108
India,Rajasthan,Tonk,"Shastri Nagar, Tonk - RSPCB",19-03-2024 02:00:00,26.159933,75.780517,PM2.5,20,336,90
India,Rajasthan,Udaipur,"Ashok Nagar, Udaipur - RSPCB",19-03-2024 02:00:00,24.5886166,73.6321397,OZONE,3,76,15
India,Sikkim,Gangtok,"Zero Point GICI, Gangtok - SSPCB",19-03-2024 02:00:00,27.338530,88.614099,SO2,10,11,11
India,TamilNadu,Chengalpattu,"Crescent University, Chengalpattu - TNPCB",19-03-2024 02:00:00,12.8777316,80.0834807,SO2,20,22,21
India,TamilNadu,Chennai,"Alandur Bus Depot, Chennai - CPCB",19-03-2024 02:00:00,12.9099161,80.1076538,PM10,51,103,76
India,TamilNadu,Chennai,"Alandur Bus Depot, Chennai - CPCB",19-03-2024 02:00:00,12.9099161,80.1076538,NO2,5,13,7
India,TamilNadu,Chennai,"Alandur Bus Depot, Chennai - CPCB",19-03-2024 02:00:00,12.9099161,80.1076538,CO,90,105,97
India,TamilNadu,Chennai,"Arumbakkam, Chennai - TNPCB",19-03-2024 02:00:00,13.0664,80.2112 ,PM2.5,10,48,19
India,TamilNadu,Chennai,"Kodungaiyur, Chennai - TNPCB",19-03-2024 02:00:00,13.1278,80.2642,NO2,NA,NA,NA
India,TamilNadu,Chennai,"Kodungaiyur, Chennai - TNPCB",19-03-2024 02:00:00,13.1278,80.2642,NH3,NA,NA,NA
India,TamilNadu,Chennai,"Manali, Chennai - CPCB",19-03-2024 02:00:00,13.164544,80.26285,NO2,NA,NA,NA
India,TamilNadu,Chennai,"Velachery Res. Area, Chennai - CPCB",19-03-2024 02:00:00,13.0052189,80.2398125,NH3,6,11,7
India,TamilNadu,Coimbatore,"PSG College of Arts and Science, Coimbatore - TNPCB",19-03-2024 02:00:00,11.0328,77.0349,NH3,1,1,1
India,TamilNadu,Coimbatore,"PSG College of Arts and Science, Coimbatore - TNPCB",19-03-2024 02:00:00,11.0328,77.0349,OZONE,3,4,4
India,TamilNadu,Cuddalore,"Semmandalam, Cuddalore - TNPCB",19-03-2024 02:00:00,11.7637683,79.7499835,NH3,1,3,2
India,TamilNadu,Gummidipoondi,"Anthoni Pillai Nagar, Gummidipoondi - TNPCB",19-03-2024 02:00:00,13.4127,80.1081,NO2,9,18,13
India,TamilNadu,Ooty,"Bombay Castel, Ooty - TNPCB",19-03-2024 02:00:00,11.4068288,76.7138973,PM10,NA,NA,NA
India,TamilNadu,Thoothukudi,"Meelavittan, Thoothukudi - TNPCB",19-03-2024 02:00:00,8.816428 ,78.099039,CO,2,92,32
India,TamilNadu,Tirupur,"Kumaran College, Tirupur - TNPCB",19-03-2024 02:00:00,11.0973603,77.3228673,SO2,NA,NA,NA
India,Telangana,Hyderabad,"Bollaram Industrial Area, Hyderabad - TSPCB",19-03-2024 02:00:00,17.540891,78.358528,PM2.5,NA,NA,NA
India,Telangana,Hyderabad,"Bollaram Industrial Area, Hyderabad - TSPCB",19-03-2024 02:00:00,17.540891,78.358528,SO2,3,52,10
India,Telangana,Hyderabad,"Central University, Hyderabad - TSPCB",19-03-2024 02:00:00,17.460103,78.334361,CO,8,46,33
India,Telangana,Hyderabad,"ICRISAT Patancheru, Hyderabad - TSPCB",19-03-2024 02:00:00,17.518400,78.278777,SO2,13,35,19
India,Telangana,Hyderabad,"ICRISAT Patancheru, Hyderabad - TSPCB",19-03-2024 02:00:00,17.518400,78.278777,OZONE,20,93,35
India,Telangana,Hyderabad,"IITH Kandi, Hyderabad - TSPCB",19-03-2024 02:00:00,17.585705,78.126199,PM10,47,77,62
India,Telangana,Hyderabad,"Kompally Municipal Office, Hyderabad - TSPCB",19-03-2024 02:00:00,17.544899,78.486949,PM2.5,29,99,55
India,Telangana,Hyderabad,"Nacharam_TSIIC IALA, Hyderabad - TSPCB",19-03-2024 02:00:00,17.429398,78.569354,SO2,9,107,24
India,Telangana,Hyderabad,"Nacharam_TSIIC IALA, Hyderabad - TSPCB",19-03-2024 02:00:00,17.429398,78.569354,OZONE,17,27,18
India,Telangana,Hyderabad,"New Malakpet, Hyderabad - TSPCB",19-03-2024 02:00:00,17.37206,78.50864,OZONE,2,18,9
India,Telangana,Hyderabad,"Ramachandrapuram, Hyderabad - TSPCB",19-03-2024 02:00:00,17.528544,78.286195,NO2,11,12,12
India,Telangana,Hyderabad,"Ramachandrapuram, Hyderabad - TSPCB",19-03-2024 02:00:00,17.528544,78.286195,NH3,2,3,3
India,Telangana,Hyderabad,"Ramachandrapuram, Hyderabad - TSPCB",19-03-2024 02:00:00,17.528544,78.286195,CO,10,34,16
India,Telangana,Hyderabad,"Sanathnagar, Hyderabad - TSPCB",19-03-2024 02:00:00,17.4559458,78.4332152,PM2.5,27,72,55
India,Telangana,Hyderabad,"Sanathnagar, Hyderabad - TSPCB",19-03-2024 02:00:00,17.4559458,78.4332152,NO2,17,31,28
India,Telangana,Hyderabad,"Somajiguda, Hyderabad - TSPCB",19-03-2024 02:00:00,17.417094,78.457437,PM2.5,NA,NA,NA
India,Telangana,Hyderabad,"Zoo Park, Hyderabad - TSPCB",19-03-2024 02:00:00,17.349694,78.451437,PM2.5,20,78,49
India,Tripura,Agartala,"Bardowali, Agartala - Tripura SPCB",19-03-2024 02:00:00,23.8175497,91.2726974,PM2.5,78,301,188
India,Tripura,Agartala,"Bardowali, Agartala - Tripura SPCB",19-03-2024 02:00:00,23.8175497,91.2726974,PM10,117,221,158
India,Tripura,Agartala,"Bardowali, Agartala - Tripura SPCB",19-03-2024 02:00:00,23.8175497,91.2726974,NO2,6,14,11
India,Tripura,Agartala,"Bardowali, Agartala - Tripura SPCB",19-03-2024 02:00:00,23.8175497,91.2726974,SO2,28,29,28
India,Uttar_Pradesh,Agra,"Manoharpur, Agra - UPPCB",19-03-2024 02:00:00,27.23711,78.01936,SO2,10,14,11
India,Uttar_Pradesh,Agra,"Sanjay Palace, Agra - UPPCB",19-03-2024 02:00:00,27.19865833,78.00598056,NO2,27,68,44
India,Uttar_Pradesh,Agra,"Shahjahan Garden, Agra - UPPCB",19-03-2024 02:00:00,27.169338,78.03582,PM10,42,133,92
India,Uttar_Pradesh,Agra,"Shahjahan Garden, Agra - UPPCB",19-03-2024 02:00:00,27.169338,78.03582,NO2,20,21,21
India,Uttar_Pradesh,Agra,"Shastripuram, Agra - UPPCB",19-03-2024 02:00:00,27.19862,77.92066,OZONE,1,12,4
India,Uttar_Pradesh,Baghpat,"Sardar Patel Inter College, Baghpat - UPPCB",19-03-2024 02:00:00,28.964949,77.278761,NO2,36,177,137
India,Uttar_Pradesh,Baghpat,"Sardar Patel Inter College, Baghpat - UPPCB",19-03-2024 02:00:00,28.964949,77.278761,NH3,3,16,13
India,Uttar_Pradesh,Baghpat,"Sardar Patel Inter College, Baghpat - UPPCB",19-03-2024 02:00:00,28.964949,77.278761,OZONE,1,70,18
India,Uttar_Pradesh,Bareilly,"Civil Lines, Bareilly - UPPCB",19-03-2024 02:00:00,28.359581,79.414455,NO2,NA,NA,NA
India,Uttar_Pradesh,Bareilly,"Rajendra Nagar, Bareilly - UPPCB",19-03-2024 02:00:00,28.38910936,79.42963708,OZONE,10,27,14
India,Uttar_Pradesh,Bulandshahr,"Yamunapuram, Bulandshahr - UPPCB",19-03-2024 02:00:00,28.406963,77.849831,PM2.5,40,227,87
India,Uttar_Pradesh,Bulandshahr,"Yamunapuram, Bulandshahr - UPPCB",19-03-2024 02:00:00,28.406963,77.849831,CO,16,65,35
India,Uttar_Pradesh,Bulandshahr,"Yamunapuram, Bulandshahr - UPPCB",19-03-2024 02:00:00,28.406963,77.849831,OZONE,2,150,27
India,Uttar_Pradesh,Firozabad,"Nagla Bhau, Firozabad - UPPCB",19-03-2024 02:00:00,27.168897,78.376960,NH3,2,2,2
India,Uttar_Pradesh,Firozabad,"Nagla Bhau, Firozabad - UPPCB",19-03-2024 02:00:00,27.168897,78.376960,CO,20,38,25
India,Uttar_Pradesh,Firozabad,"Vibhab Nagar, Firozabad - UPPCB",19-03-2024 02:00:00,27.1594,78.3953,PM2.5,41,250,87
India,Uttar_Pradesh,Firozabad,"Vibhab Nagar, Firozabad - UPPCB",19-03-2024 02:00:00,27.1594,78.3953,OZONE,20,43,33
India,Uttar_Pradesh,Ghaziabad,"Loni, Ghaziabad - UPPCB",19-03-2024 02:00:00,28.757294,77.278792,PM2.5,29,324,140
India,Uttar_Pradesh,Ghaziabad,"Sanjay Nagar, Ghaziabad - UPPCB",19-03-2024 02:00:00,28.685382,77.453839,PM2.5,40,287,134
India,Uttar_Pradesh,Ghaziabad,"Sanjay Nagar, Ghaziabad - UPPCB",19-03-2024 02:00:00,28.685382,77.453839,OZONE,2,96,21
India,Uttar_Pradesh,Ghaziabad,"Vasundhara, Ghaziabad - UPPCB",19-03-2024 02:00:00,28.6603346,77.3572563,PM10,66,185,116
India,Uttar_Pradesh,Ghaziabad,"Vasundhara, Ghaziabad - UPPCB",19-03-2024 02:00:00,28.6603346,77.3572563,NO2,27,138,63
India,Uttar_Pradesh,Ghaziabad,"Vasundhara, Ghaziabad - UPPCB",19-03-2024 02:00:00,28.6603346,77.3572563,SO2,1,46,21
India,Uttar_Pradesh,Gorakhpur,"Madan Mohan Malaviya University of Technology, Gorakhpur - UPPCB",19-03-2024 02:00:00,26.730136,83.433859,PM2.5,62,311,165
India,Uttar_Pradesh,Gorakhpur,"Madan Mohan Malaviya University of Technology, Gorakhpur - UPPCB",19-03-2024 02:00:00,26.730136,83.433859,CO,18,40,26
India,Uttar_Pradesh,Greater Noida,"Knowledge Park - III, Greater Noida - UPPCB",19-03-2024 02:00:00,28.47272,77.482000,PM2.5,72,342,188
India,Uttar_Pradesh,Greater Noida,"Knowledge Park - V, Greater Noida - UPPCB",19-03-2024 02:00:00,28.557054,77.453663,PM2.5,62,321,165
India,Uttar_Pradesh,Greater Noida,"Knowledge Park - V, Greater Noida - UPPCB",19-03-2024 02:00:00,28.557054,77.453663,NO2,20,43,32
India,Uttar_Pradesh,Greater Noida,"Knowledge Park - V, Greater Noida - UPPCB",19-03-2024 02:00:00,28.557054,77.453663,OZONE,2,232,36
India,Uttar_Pradesh,Hapur,"Anand Vihar, Hapur - UPPCB",19-03-2024 02:00:00,28.725645,77.749675,PM10,48,149,101
India,Uttar_Pradesh,Hapur,"Anand Vihar, Hapur - UPPCB",19-03-2024 02:00:00,28.725645,77.749675,NH3,7,9,8
India,Uttar_Pradesh,Jhansi,"Shivaji Nagar, Jhansi - UPPCB",19-03-2024 02:00:00,25.4547,78.6039,CO,9,66,41
India,Uttar_Pradesh,Kanpur,"FTI Kidwai Nagar, Kanpur - UPPCB",19-03-2024 02:00:00,26.428282,80.327067,NH3,2,5,3
India,Uttar_Pradesh,Kanpur,"FTI Kidwai Nagar, Kanpur - UPPCB",19-03-2024 02:00:00,26.428282,80.327067,SO2,23,25,24
India,Uttar_Pradesh,Kanpur,"NSI Kalyanpur, Kanpur - UPPCB",19-03-2024 02:00:00,26.509954,80.249612,PM10,24,218,130
India,Uttar_Pradesh,Kanpur,"NSI Kalyanpur, Kanpur - UPPCB",19-03-2024 02:00:00,26.509954,80.249612,NH3,1,2,1
India,Uttar_Pradesh,Kanpur,"Nehru Nagar, Kanpur - UPPCB",19-03-2024 02:00:00,26.4703136,80.3229863,NO2,22,48,40
India,Uttar_Pradesh,Kanpur,"Nehru Nagar, Kanpur - UPPCB",19-03-2024 02:00:00,26.4703136,80.3229863,SO2,5,11,10
India,Uttar_Pradesh,Khurja,"Kalindi Kunj, Khurja - UPPCB",19-03-2024 02:00:00,28.2348927,77.8683002,PM2.5,45,148,86
India,Uttar_Pradesh,Khurja,"Kalindi Kunj, Khurja - UPPCB",19-03-2024 02:00:00,28.2348927,77.8683002,NO2,3,4,3
India,Uttar_Pradesh,Khurja,"Kalindi Kunj, Khurja - UPPCB",19-03-2024 02:00:00,28.2348927,77.8683002,SO2,31,40,34
India,Uttar_Pradesh,Lucknow,"B R Ambedkar University, Lucknow - UPPCB",19-03-2024 02:00:00,26.766433,80.927299,CO,24,49,38
India,Uttar_Pradesh,Lucknow,"B R Ambedkar University, Lucknow - UPPCB",19-03-2024 02:00:00,26.766433,80.927299,OZONE,2,94,29
India,Uttar_Pradesh,Lucknow,"Gomti Nagar, Lucknow - UPPCB",19-03-2024 02:00:00,26.868120,81.005119,PM10,71,138,101
India,Uttar_Pradesh,Lucknow,"Kendriya Vidyalaya, Lucknow - CPCB",19-03-2024 02:00:00,26.906111,80.948222,PM10,92,154,119
India,Uttar_Pradesh,Lucknow,"Kukrail Picnic Spot-1, Lucknow - UPPCB",19-03-2024 02:00:00,26.90723,80.98579,PM2.5,71,215,134
India,Uttar_Pradesh,Lucknow,"Kukrail Picnic Spot-1, Lucknow - UPPCB",19-03-2024 02:00:00,26.90723,80.98579,NO2,8,9,8
India,Uttar_Pradesh,Lucknow,"Kukrail Picnic Spot-1, Lucknow - UPPCB",19-03-2024 02:00:00,26.90723,80.98579,NH3,2,2,2
India,Uttar_Pradesh,Lucknow,"Talkatora District Industries Center, Lucknow - CPCB",19-03-2024 02:00:00,26.83399722,80.8917361,NO2,45,109,67
India,Uttar_Pradesh,Meerut,"Jai Bhim Nagar, Meerut - UPPCB",19-03-2024 02:00:00,28.9535882,77.7622941,PM2.5,23,104,61
India,Uttar_Pradesh,Meerut,"Jai Bhim Nagar, Meerut - UPPCB",19-03-2024 02:00:00,28.9535882,77.7622941,CO,47,80,69
India,Uttar_Pradesh,Meerut,"Jai Bhim Nagar, Meerut - UPPCB",19-03-2024 02:00:00,28.9535882,77.7622941,OZONE,34,97,56
India,Uttar_Pradesh,Meerut,"Pallavpuram Phase 2, Meerut - UPPCB",19-03-2024 02:00:00,29.063510,77.709723,NO2,17,84,42
India,Uttar_Pradesh,Meerut,"Pallavpuram Phase 2, Meerut - UPPCB",19-03-2024 02:00:00,29.063510,77.709723,SO2,13,47,26
India,Uttar_Pradesh,Moradabad,"Buddhi Vihar, Moradabad - UPPCB",19-03-2024 02:00:00,28.83526,78.74460,PM10,54,159,109
India,Uttar_Pradesh,Moradabad,"Buddhi Vihar, Moradabad - UPPCB",19-03-2024 02:00:00,28.83526,78.74460,SO2,23,35,27
India,Uttar_Pradesh,Moradabad,"Eco Herbal Park, Moradabad - UPPCB",19-03-2024 02:00:00,28.840739,78.697531,PM10,42,113,80
India,Uttar_Pradesh,Moradabad,"Eco Herbal Park, Moradabad - UPPCB",19-03-2024 02:00:00,28.840739,78.697531,NO2,10,34,21
India,Uttar_Pradesh,Moradabad,"Eco Herbal Park, Moradabad - UPPCB",19-03-2024 02:00:00,28.840739,78.697531,SO2,9,55,24
India,Uttar_Pradesh,Moradabad,"Eco Herbal Park, Moradabad - UPPCB",19-03-2024 02:00:00,28.840739,78.697531,CO,16,102,47
India,Uttar_Pradesh,Moradabad,"Employment Office, Moradabad - UPPCB",19-03-2024 02:00:00,28.88528,78.73880,PM2.5,35,133,70
India,Uttar_Pradesh,Moradabad,"Employment Office, Moradabad - UPPCB",19-03-2024 02:00:00,28.88528,78.73880,SO2,27,30,28
India,Uttar_Pradesh,Moradabad,"Jigar Colony, Moradabad - UPPCB",19-03-2024 02:00:00,28.856664,78.772638,SO2,19,25,22
India,Uttar_Pradesh,Moradabad,"Jigar Colony, Moradabad - UPPCB",19-03-2024 02:00:00,28.856664,78.772638,CO,16,49,35
India,Uttar_Pradesh,Moradabad,"Jigar Colony, Moradabad - UPPCB",19-03-2024 02:00:00,28.856664,78.772638,OZONE,19,46,25
India,Uttar_Pradesh,Moradabad,"Kashiram Nagar, Moradabad - UPPCB",19-03-2024 02:00:00,28.849399,78.742362,PM10,63,169,117
India,Uttar_Pradesh,Moradabad,"Kashiram Nagar, Moradabad - UPPCB",19-03-2024 02:00:00,28.849399,78.742362,CO,28,44,39
India,Uttar_Pradesh,Moradabad,"Transport Nagar, Moradabad - UPPCB",19-03-2024 02:00:00,28.802625,78.753728,NO2,7,41,26
India,Uttar_Pradesh,Muzaffarnagar,"New Mandi, Muzaffarnagar - UPPCB",19-03-2024 02:00:00,29.4723508,77.7194031,PM2.5,60,321,196
India,Uttar_Pradesh,Muzaffarnagar,"New Mandi, Muzaffarnagar - UPPCB",19-03-2024 02:00:00,29.4723508,77.7194031,NO2,7,54,30
India,Uttar_Pradesh,Muzaffarnagar,"New Mandi, Muzaffarnagar - UPPCB",19-03-2024 02:00:00,29.4723508,77.7194031,SO2,18,57,35
India,Uttar_Pradesh,Noida,"Sector - 125, Noida - UPPCB",19-03-2024 02:00:00,28.5447608,77.3231257,SO2,11,29,19
India,Uttar_Pradesh,Noida,"Sector - 125, Noida - UPPCB",19-03-2024 02:00:00,28.5447608,77.3231257,CO,14,106,78
India,Uttar_Pradesh,Noida,"Sector - 62, Noida - IMD",19-03-2024 02:00:00,28.6245479,77.3577104,PM2.5,51,306,131
India,Uttar_Pradesh,Noida,"Sector-1, Noida - UPPCB",19-03-2024 02:00:00,28.5898,77.3101,PM10,104,272,176
India,Uttar_Pradesh,Noida,"Sector-116, Noida - UPPCB",19-03-2024 02:00:00,28.569230,77.393848,CO,5,106,73
India,Uttar_Pradesh,Prayagraj,"Motilal Nehru NIT, Prayagraj - UPPCB",19-03-2024 02:00:00,25.494,81.863,CO,16,76,49
India,Uttar_Pradesh,Prayagraj,"Nagar Nigam, Prayagraj - UPPCB",19-03-2024 02:00:00,25.44919916 ,81.82735986 ,NH3,4,11,7
India,Uttar_Pradesh,Varanasi,"Bhelupur, Varanasi - UPPCB",19-03-2024 02:00:00,25.301778,82.996789,NO2,8,8,8
India,Uttar_Pradesh,Varanasi,"IESD Banaras Hindu University, Varanasi - UPPCB",19-03-2024 02:00:00,25.262326,82.995408,PM2.5,NA,NA,NA
India,Uttar_Pradesh,Varanasi,"IESD Banaras Hindu University, Varanasi - UPPCB",19-03-2024 02:00:00,25.262326,82.995408,NO2,2,3,2
India,Uttar_Pradesh,Varanasi,"Maldahiya, Varanasi - UPPCB",19-03-2024 02:00:00,25.32393,82.99687,PM10,NA,NA,NA
India,Uttar_Pradesh,Vrindavan,"Omex Eternity, Vrindavan - UPPCB",19-03-2024 02:00:00,27.5714090,77.6557570,SO2,38,45,40
India,Uttar_Pradesh,Vrindavan,"Omex Eternity, Vrindavan - UPPCB",19-03-2024 02:00:00,27.5714090,77.6557570,CO,31,69,52
India,Uttarakhand,Dehradun,"Doon University, Dehradun - UKPCB",19-03-2024 02:00:00,30.269444,78.044167,PM10,59,122,85
India,Uttarakhand,Kashipur,"Govt. Girls Inter College, Kashipur - UKPCB",19-03-2024 02:00:00,29.2124114,78.9611753,NO2,5,22,10
India,Uttarakhand,Kashipur,"Govt. Girls Inter College, Kashipur - UKPCB",19-03-2024 02:00:00,29.2124114,78.9611753,SO2,7,9,8
India,Uttarakhand,Rishikesh,"Shivaji Nagar, Rishikesh - UKPCB",19-03-2024 02:00:00,30.075911,78.2859547,PM10,10,102,62
India,Uttarakhand,Rishikesh,"Shivaji Nagar, Rishikesh - UKPCB",19-03-2024 02:00:00,30.075911,78.2859547,OZONE,13,110,50
India,West_Bengal,Asansol,"Asansol Court Area, Asansol - WBPCB",19-03-2024 02:00:00,23.685297,86.945968,PM10,77,156,120
India,West_Bengal,Barrackpore,"SVSPA Campus, Barrackpore - WBPCB",19-03-2024 02:00:00,22.7605581,88.3617589,PM10,NA,NA,NA
India,West_Bengal,Durgapur,"Sidhu Kanhu Indoor Stadium, Durgapur - WBPCB",19-03-2024 02:00:00,23.5404352,87.2892225,SO2,14,37,25
India,West_Bengal,Durgapur,"Sidhu Kanhu Indoor Stadium, Durgapur - WBPCB",19-03-2024 02:00:00,23.5404352,87.2892225,CO,30,107,46
India,West_Bengal,Howrah,"Belur Math, Howrah - WBPCB",19-03-2024 02:00:00,22.629801,88.352017,CO,4,60,31
India,West_Bengal,Howrah,"Padmapukur, Howrah - WBPCB",19-03-2024 02:00:00,22.5687319,88.2797276,CO,16,62,34
India,West_Bengal,Kolkata,"Ballygunge, Kolkata - WBPCB",19-03-2024 02:00:00,22.5367507,88.3638022,PM2.5,81,140,100
India,West_Bengal,Kolkata,"Ballygunge, Kolkata - WBPCB",19-03-2024 02:00:00,22.5367507,88.3638022,NH3,10,18,14
India,West_Bengal,Kolkata,"Bidhannagar, Kolkata - WBPCB",19-03-2024 02:00:00,22.58157048,88.41002457,PM2.5,NA,NA,NA
India,West_Bengal,Kolkata,"Bidhannagar, Kolkata - WBPCB",19-03-2024 02:00:00,22.58157048,88.41002457,CO,16,98,32
India,West_Bengal,Kolkata,"Fort William, Kolkata - WBPCB",19-03-2024 02:00:00,22.556640,88.342674,PM10,57,142,109
India,West_Bengal,Kolkata,"Fort William, Kolkata - WBPCB",19-03-2024 02:00:00,22.556640,88.342674,OZONE,20,68,33
India,West_Bengal,Kolkata,"Jadavpur, Kolkata - WBPCB",19-03-2024 02:00:00,22.49929,88.36917,NH3,6,7,7
India,West_Bengal,Kolkata,"Rabindra Bharati University, Kolkata - WBPCB",19-03-2024 02:00:00,22.627847,88.380669,NO2,1,11,8
India,West_Bengal,Kolkata,"Rabindra Sarobar, Kolkata - WBPCB",19-03-2024 02:00:00,22.51106,88.35142,SO2,10,44,23
India,West_Bengal,Siliguri,"Ward-32 Bapupara, Siliguri - WBPCB",19-03-2024 02:00:00,26.6879226,88.4152495,NO2,31,159,82
India,Andhra_Pradesh,Chittoor,"Gangineni Cheruvu, Chittoor - APPCB",19-03-2024 02:00:00,13.204880,79.097889,CO,38,66,53
India,Andhra_Pradesh,Tirupati,"Tirumala, Tirupati - APPCB",19-03-2024 02:00:00,13.67,79.35,NH3,1,2,1
India,Andhra_Pradesh,Tirupati,"Tirumala, Tirupati - APPCB",19-03-2024 02:00:00,13.67,79.35,OZONE,11,61,34
India,Andhra_Pradesh,Vijayawada,"Kanuru, Vijayawada - APPCB",19-03-2024 02:00:00,16.486692,80.699436,SO2,7,12,9
India,Andhra_Pradesh,Vijayawada,"Rajiv Gandhi Park, Vijayawada - APPCB",19-03-2024 02:00:00,16.509717,80.612222,NH3,4,7,6
India,Andhra_Pradesh,Vijayawada,"Rajiv Nagar, Vijayawada - APPCB",19-03-2024 02:00:00,16.554731,80.649110,PM10,70,73,71
India,Andhra_Pradesh,Visakhapatnam,"GVM Corporation, Visakhapatnam - APPCB",19-03-2024 02:00:00,17.72,83.3,NO2,24,55,38
India,Andhra_Pradesh,Visakhapatnam,"GVM Corporation, Visakhapatnam - APPCB",19-03-2024 02:00:00,17.72,83.3,CO,12,102,30
India,Assam,Byrnihat,"Central Academy for SFS, Byrnihat - PCBA",19-03-2024 02:00:00,26.071318,91.87488,NH3,5,8,7
India,Assam,Guwahati,"IITG, Guwahati - PCBA",19-03-2024 02:00:00,26.2028636,91.70046436,PM10,107,374,191
India,Assam,Guwahati,"IITG, Guwahati - PCBA",19-03-2024 02:00:00,26.2028636,91.70046436,SO2,12,13,12
India,Assam,Guwahati,"IITG, Guwahati - PCBA",19-03-2024 02:00:00,26.2028636,91.70046436,CO,10,38,26
India,Assam,Guwahati,"LGBI Airport, Guwahati - PCBA",19-03-2024 02:00:00,26.10887,91.589544,PM10,NA,NA,NA
India,Assam,Guwahati,"LGBI Airport, Guwahati - PCBA",19-03-2024 02:00:00,26.10887,91.589544,SO2,5,13,11
India,Assam,Guwahati,"Pan Bazaar, Guwahati - PCBA",19-03-2024 02:00:00,26.187500,91.744194,SO2,82,105,95
India,Assam,Nagaon,"Christianpatty, Nagaon - PCBA",19-03-2024 02:00:00,26.349082,92.68449,NO2,19,109,45
India,Assam,Nalbari,"Bata Chowk, Nalbari - PCBA",19-03-2024 02:00:00,26.446912,91.439057,PM2.5,78,372,232
India,Assam,Nalbari,"Bata Chowk, Nalbari - PCBA",19-03-2024 02:00:00,26.446912,91.439057,PM10,101,500,198
India,Assam,Nalbari,"Bata Chowk, Nalbari - PCBA",19-03-2024 02:00:00,26.446912,91.439057,NO2,11,69,29
India,Assam,Sivasagar,"Girls College, Sivasagar - PCBA",19-03-2024 02:00:00,26.987634,94.636574,OZONE,1,37,3
India,Bihar,Araria,"Kharahiya Basti, Araria - BSPCB",19-03-2024 02:00:00,26.146529,87.454184,NH3,7,9,8
India,Bihar,Araria,"Kharahiya Basti, Araria - BSPCB",19-03-2024 02:00:00,26.146529,87.454184,OZONE,9,11,10
India,Bihar,Arrah,"New DM Office, Arrah - BSPCB",19-03-2024 02:00:00,25.5626095,84.663264,OZONE,10,29,15
India,Bihar,Aurangabad,"Gurdeo Nagar, Aurangabad - BSPCB",19-03-2024 02:00:00,24.75746,84.366208,PM2.5,NA,NA,NA
India,Bihar,Aurangabad,"Gurdeo Nagar, Aurangabad - BSPCB",19-03-2024 02:00:00,24.75746,84.366208,SO2,1,12,6
India,Bihar,Bettiah,"Kamalnath Nagar, Bettiah - BSPCB",19-03-2024 02:00:00,26.80365,84.51954,PM10,81,339,153
India,Bihar,Bhagalpur,"DM Office_Kachari Chowk, Bhagalpur - BSPCB",19-03-2024 02:00:00,25.251013,86.989001,CO,42,71,54
India,Bihar,Bhagalpur,"Mayaganj, Bhagalpur - BSPCB",19-03-2024 02:00:00,25.265194,87.012947,SO2,11,12,12
India,Bihar,Buxar,"Charitra Van, Buxar - BSPCB (Formerly known as Central Jail)",19-03-2024 02:00:00,25.567520,83.966379,OZONE,2,169,68
India,Bihar,Chhapra,"Darshan Nagar, Chhapra - BSPCB",19-03-2024 02:00:00,25.7808257,84.7446768,NH3,8,15,11
India,Bihar,Gaya,"Kareemganj, Gaya - BSPCB",19-03-2024 02:00:00,24.792403,84.992416,PM10,42,156,105
India,Bihar,Gaya,"SFTI Kusdihra, Gaya - BSPCB",19-03-2024 02:00:00,24.762518,84.982348,CO,20,56,38
India,Bihar,Hajipur,"Industrial Area, Hajipur - BSPCB",19-03-2024 02:00:00,25.697189,85.245900,CO,34,84,66
India,Bihar,Hajipur,"Industrial Area, Hajipur - BSPCB",19-03-2024 02:00:00,25.697189,85.245900,OZONE,6,60,14
India,Bihar,Katihar,"Mirchaibari, Katihar - BSPCB",19-03-2024 02:00:00,25.560083,87.553265,PM10,83,216,139
India,Bihar,Kishanganj,"SDM Office_Khagra, Kishanganj - BSPCB",19-03-2024 02:00:00,26.0881305,87.93840336,OZONE,15,33,33
India,Bihar,Manguraha,"Forest Rest House, Manguraha - BSPCB",19-03-2024 02:00:00,27.308328,84.531742,CO,58,107,74
India,Bihar,Motihari,"Gandak Colony, Motihari - BSPCB",19-03-2024 02:00:00,26.63086,84.90051,PM2.5,NA,NA,NA
India,Bihar,Motihari,"Gandak Colony, Motihari - BSPCB",19-03-2024 02:00:00,26.63086,84.90051,NO2,NA,NA,NA
India,Bihar,Motihari,"Gandak Colony, Motihari - BSPCB",19-03-2024 02:00:00,26.63086,84.90051,OZONE,43,89,52
India,Bihar,Munger,"Town Hall, Munger - BSPCB",19-03-2024 02:00:00,25.376776,86.471523,NO2,8,9,9
India,Bihar,Muzaffarpur,"Buddha Colony, Muzaffarpur - BSPCB",19-03-2024 02:00:00,26.11442,85.39813,NO2,NA,NA,NA
India,Bihar,Muzaffarpur,"Buddha Colony, Muzaffarpur - BSPCB",19-03-2024 02:00:00,26.11442,85.39813,OZONE,10,98,75
India,Bihar,Muzaffarpur,"MIT-Daudpur Kothi, Muzaffarpur - BSPCB",19-03-2024 02:00:00,26.1403345,85.3650192,SO2,4,7,6
India,Bihar,Muzaffarpur,"MIT-Daudpur Kothi, Muzaffarpur - BSPCB",19-03-2024 02:00:00,26.1403345,85.3650192,CO,27,123,90
India,Bihar,Muzaffarpur,"MIT-Daudpur Kothi, Muzaffarpur - BSPCB",19-03-2024 02:00:00,26.1403345,85.3650192,OZONE,7,94,18
India,Bihar,Patna,"DRM Office Danapur, Patna - BSPCB",19-03-2024 02:00:00,25.586562,85.043586,PM10,141,287,205
India,Bihar,Patna,"DRM Office Danapur, Patna - BSPCB",19-03-2024 02:00:00,25.586562,85.043586,SO2,7,11,8
India,Bihar,Patna,"DRM Office Danapur, Patna - BSPCB",19-03-2024 02:00:00,25.586562,85.043586,CO,18,136,72
India,Bihar,Patna,"Govt. High School Shikarpur, Patna - BSPCB",19-03-2024 02:00:00,25.592539,85.227158,PM10,160,482,230
India,Bihar,Patna,"Govt. High School Shikarpur, Patna - BSPCB",19-03-2024 02:00:00,25.592539,85.227158,NO2,18,25,22
India,Bihar,Patna,"IGSC Planetarium Complex, Patna - BSPCB",19-03-2024 02:00:00,25.610369,85.132568,PM2.5,81,333,234
India,Bihar,Patna,"IGSC Planetarium Complex, Patna - BSPCB",19-03-2024 02:00:00,25.610369,85.132568,OZONE,20,65,42
India,Bihar,Patna,"Rajbansi Nagar, Patna - BSPCB",19-03-2024 02:00:00,25.599486,85.113666,NH3,2,4,3
India,Bihar,Patna,"Rajbansi Nagar, Patna - BSPCB",19-03-2024 02:00:00,25.599486,85.113666,CO,28,118,89
India,Bihar,Patna,"Samanpura, Patna - BSPCB",19-03-2024 02:00:00,25.596727,85.085624,NO2,20,95,56
India,Bihar,Purnia,"Mariam Nagar, Purnia - BSPCB",19-03-2024 02:00:00,25.366336,87.117468,SO2,5,10,8
India,Bihar,Purnia,"Mariam Nagar, Purnia - BSPCB",19-03-2024 02:00:00,25.366336,87.117468,CO,4,106,80
India,Bihar,Purnia,"Mariam Nagar, Purnia - BSPCB",19-03-2024 02:00:00,25.366336,87.117468,OZONE,7,54,15
India,Bihar,Rajgir,"Dangi Tola, Rajgir - BSPCB",19-03-2024 02:00:00,25.03280,85.41948,NH3,1,2,1
India,Bihar,Saharsa,"Police Line, Saharsa - BSPCB",19-03-2024 02:00:00,25.892357,86.590325,PM2.5,40,305,177
India,Bihar,Saharsa,"Police Line, Saharsa - BSPCB",19-03-2024 02:00:00,25.892357,86.590325,PM10,90,267,148
India,Bihar,Saharsa,"Police Line, Saharsa - BSPCB",19-03-2024 02:00:00,25.892357,86.590325,OZONE,9,47,22
India,Bihar,Samastipur,"DM Office_Kasipur, Samastipur - BSPCB",19-03-2024 02:00:00,25.859655,85.77944,PM10,55,206,135
India,Bihar,Samastipur,"DM Office_Kasipur, Samastipur - BSPCB",19-03-2024 02:00:00,25.859655,85.77944,NH3,4,5,4
India,Bihar,Samastipur,"DM Office_Kasipur, Samastipur - BSPCB",19-03-2024 02:00:00,25.859655,85.77944,SO2,11,13,12
India,Bihar,Sasaram,"Dada Peer, Sasaram - BSPCB",19-03-2024 02:00:00,24.952822,84.002396,SO2,20,34,25
India,Bihar,Siwan,"Chitragupta Nagar, Siwan - BSPCB",19-03-2024 02:00:00,26.2271665,84.3570427,SO2,26,36,32
India,Chandigarh,Chandigarh,"Sector 22, Chandigarh - CPCC",19-03-2024 02:00:00,30.735567,76.775714,PM2.5,38,183,109
India,Chandigarh,Chandigarh,"Sector 22, Chandigarh - CPCC",19-03-2024 02:00:00,30.735567,76.775714,NO2,25,144,61
India,Chandigarh,Chandigarh,"Sector-25, Chandigarh - CPCC",19-03-2024 02:00:00,30.751462,76.762879,PM2.5,103,187,140
India,Chandigarh,Chandigarh,"Sector-25, Chandigarh - CPCC",19-03-2024 02:00:00,30.751462,76.762879,PM10,119,165,134
India,Chandigarh,Chandigarh,"Sector-25, Chandigarh - CPCC",19-03-2024 02:00:00,30.751462,76.762879,NH3,11,30,16
India,Chandigarh,Chandigarh,"Sector-25, Chandigarh - CPCC",19-03-2024 02:00:00,30.751462,76.762879,OZONE,1,54,12
India,Chhattisgarh,Bhilai,"32Bungalows, Bhilai - CECB",19-03-2024 02:00:00,21.194815,81.314770,PM2.5,22,40,31
India,Chhattisgarh,Bhilai,"32Bungalows, Bhilai - CECB",19-03-2024 02:00:00,21.194815,81.314770,NH3,6,6,6
India,Chhattisgarh,Bhilai,"32Bungalows, Bhilai - CECB",19-03-2024 02:00:00,21.194815,81.314770,SO2,4,5,4
India,Chhattisgarh,Bhilai,"Civic Center, Bhilai - Bhilai Steel Plant",19-03-2024 02:00:00,21.185571,81.343175,PM2.5,NA,NA,NA
India,Chhattisgarh,Bhilai,"Civic Center, Bhilai - Bhilai Steel Plant",19-03-2024 02:00:00,21.185571,81.343175,SO2,NA,NA,NA
India,Chhattisgarh,Bhilai,"Hathkhoj, Bhilai - CECB",19-03-2024 02:00:00,21.224231,81.408350,PM2.5,5,39,22
India,Chhattisgarh,Bhilai,"Hathkhoj, Bhilai - CECB",19-03-2024 02:00:00,21.224231,81.408350,CO,12,38,19
India,Chhattisgarh,Chhal,"Nawapara SECL Colony, Chhal - CECB",19-03-2024 02:00:00,22.118125,83.140608,NH3,1,2,2
India,Chhattisgarh,Korba,"Rampur, Korba - CECB",19-03-2024 02:00:00,22.368195,82.746431,NO2,25,46,33
India,Chhattisgarh,Korba,"Rampur, Korba - CECB",19-03-2024 02:00:00,22.368195,82.746431,SO2,4,37,11
India,Chhattisgarh,Korba,"Urja Nagar, Korba - CECB",19-03-2024 02:00:00,22.348441,82.549611,SO2,3,10,6
India,Chhattisgarh,Korba,"Urja Nagar, Korba - CECB",19-03-2024 02:00:00,22.348441,82.549611,OZONE,1,1,1
India,Chhattisgarh,Milupara,"Govt. Higher Secondary School, Milupara - CECB",19-03-2024 02:00:00,22.1910172,83.5197009,PM2.5,NA,NA,NA
India,Chhattisgarh,Milupara,"Govt. Higher Secondary School, Milupara - CECB",19-03-2024 02:00:00,22.1910172,83.5197009,NO2,NA,NA,NA
India,Chhattisgarh,Raipur,"AIIMS, Raipur - CECB",19-03-2024 02:00:00,21.258815,81.578979,NH3,5,6,6
India,Chhattisgarh,Raipur,"Bhatagaon New ISBT, Raipur - CECB",19-03-2024 02:00:00,21.219665,81.630094,PM10,26,73,39
India,Chhattisgarh,Raipur,"Krishak Nagar, Raipur - CECB",19-03-2024 02:00:00,21.237755,81.705301,PM2.5,NA,NA,NA
India,Chhattisgarh,Raipur,"Krishak Nagar, Raipur - CECB",19-03-2024 02:00:00,21.237755,81.705301,NH3,NA,NA,NA
India,Chhattisgarh,Raipur,"Krishak Nagar, Raipur - CECB",19-03-2024 02:00:00,21.237755,81.705301,SO2,NA,NA,NA
India,Chhattisgarh,Raipur,"Krishak Nagar, Raipur - CECB",19-03-2024 02:00:00,21.237755,81.705301,CO,24,30,26
India,Chhattisgarh,Raipur,"Siltara Phase-II, Raipur - CECB",19-03-2024 02:00:00,21.371751,81.664929,SO2,9,32,16
India,Chhattisgarh,Tumidih,"OP Jindal Industrial Park, Tumidih - CECB",19-03-2024 02:00:00,22.06631475,83.33820077,NO2,NA,NA,NA
India,Chhattisgarh,Tumidih,"OP Jindal Industrial Park, Tumidih - CECB",19-03-2024 02:00:00,22.06631475,83.33820077,SO2,NA,NA,NA
India,Delhi,Delhi,"Alipur, Delhi - DPCC",19-03-2024 02:00:00,28.815329,77.153010,NH3,3,9,6
India,Delhi,Delhi,"Ashok Vihar, Delhi - DPCC",19-03-2024 02:00:00,28.695381,77.181665,NH3,9,12,11
India,Delhi,Delhi,"Ashok Vihar, Delhi - DPCC",19-03-2024 02:00:00,28.695381,77.181665,CO,14,103,72
India,Delhi,Delhi,"Aya Nagar, Delhi - IMD",19-03-2024 02:00:00,28.4706914,77.1099364,PM2.5,76,354,199
India,Delhi,Delhi,"Aya Nagar, Delhi - IMD",19-03-2024 02:00:00,28.4706914,77.1099364,OZONE,4,33,10
India,Delhi,Delhi,"Bawana, Delhi - DPCC",19-03-2024 02:00:00,28.776200,77.051074,NH3,5,7,6
India,Delhi,Delhi,"Burari Crossing, Delhi - IMD",19-03-2024 02:00:00,28.7256504,77.2011573,PM10,77,340,193
India,Delhi,Delhi,"CRRI Mathura Road, Delhi - IMD",19-03-2024 02:00:00,28.5512005,77.2735737,PM2.5,8,319,167
India,Delhi,Delhi,"Chandni Chowk, Delhi - IITM",19-03-2024 02:00:00,28.656756,77.227234,NO2,15,218,50
India,Delhi,Delhi,"Chandni Chowk, Delhi - IITM",19-03-2024 02:00:00,28.656756,77.227234,NH3,2,64,17
India,Delhi,Delhi,"Dwarka-Sector 8, Delhi - DPCC ",19-03-2024 02:00:00,28.5710274,77.0719006,NO2,4,49,19
India,Delhi,Delhi,"IHBAS, Dilshad Garden, Delhi - CPCB",19-03-2024 02:00:00,28.6811736,77.3025234,CO,44,89,72
India,Delhi,Delhi,"ITO, Delhi - CPCB",19-03-2024 02:00:00,28.628624,77.241060,PM10,72,262,138
India,Delhi,Delhi,"ITO, Delhi - CPCB",19-03-2024 02:00:00,28.628624,77.241060,CO,28,105,78
India,Delhi,Delhi,"Jahangirpuri, Delhi - DPCC",19-03-2024 02:00:00,28.732820,77.170633,PM10,104,405,260
India,Delhi,Delhi,"Jahangirpuri, Delhi - DPCC",19-03-2024 02:00:00,28.732820,77.170633,OZONE,8,61,17
India,Delhi,Delhi,"Jawaharlal Nehru Stadium, Delhi - DPCC",19-03-2024 02:00:00,28.580280,77.233829,SO2,14,79,33
India,Delhi,Delhi,"Lodhi Road, Delhi - IITM",19-03-2024 02:00:00,28.588333,77.221667,PM2.5,65,404,139
India,Delhi,Delhi,"Lodhi Road, Delhi - IITM",19-03-2024 02:00:00,28.588333,77.221667,SO2,15,43,27
India,Delhi,Delhi,"Lodhi Road, Delhi - IMD",19-03-2024 02:00:00,28.5918245,77.2273074,PM2.5,23,331,114
India,Delhi,Delhi,"Lodhi Road, Delhi - IMD",19-03-2024 02:00:00,28.5918245,77.2273074,NO2,2,14,8
India,Delhi,Delhi,"Lodhi Road, Delhi - IMD",19-03-2024 02:00:00,28.5918245,77.2273074,CO,21,41,26
India,Delhi,Delhi,"Major Dhyan Chand National Stadium, Delhi - DPCC",19-03-2024 02:00:00,28.611281,77.237738,PM2.5,51,380,180
India,Delhi,Delhi,"Mandir Marg, Delhi - DPCC",19-03-2024 02:00:00,28.636429,77.201067,SO2,6,13,8
India,Delhi,Delhi,"Mandir Marg, Delhi - DPCC",19-03-2024 02:00:00,28.636429,77.201067,OZONE,1,21,10
India,Delhi,Delhi,"Mundka, Delhi - DPCC",19-03-2024 02:00:00,28.684678,77.076574,NO2,13,103,55
India,Delhi,Delhi,"Mundka, Delhi - DPCC",19-03-2024 02:00:00,28.684678,77.076574,CO,16,106,70
India,Delhi,Delhi,"Mundka, Delhi - DPCC",19-03-2024 02:00:00,28.684678,77.076574,OZONE,14,14,14
India,Delhi,Delhi,"NSIT Dwarka, Delhi - CPCB",19-03-2024 02:00:00,28.60909,77.0325413,PM10,121,449,220
India,Delhi,Delhi,"NSIT Dwarka, Delhi - CPCB",19-03-2024 02:00:00,28.60909,77.0325413,NO2,18,49,35
India,Delhi,Delhi,"NSIT Dwarka, Delhi - CPCB",19-03-2024 02:00:00,28.60909,77.0325413,CO,28,98,59
India,Delhi,Delhi,"Najafgarh, Delhi - DPCC",19-03-2024 02:00:00,28.570173,76.933762,PM2.5,37,315,152
India,Delhi,Delhi,"Najafgarh, Delhi - DPCC",19-03-2024 02:00:00,28.570173,76.933762,NO2,4,20,11
India,Delhi,Delhi,"Narela, Delhi - DPCC",19-03-2024 02:00:00,28.822836,77.101981,NO2,12,115,42
India,Delhi,Delhi,"Narela, Delhi - DPCC",19-03-2024 02:00:00,28.822836,77.101981,SO2,14,92,41
India,Delhi,Delhi,"Nehru Nagar, Delhi - DPCC",19-03-2024 02:00:00,28.567890,77.250515,PM10,95,371,194
India,Delhi,Delhi,"North Campus, DU, Delhi - IMD",19-03-2024 02:00:00,28.6573814,77.1585447,CO,3,94,69
India,Delhi,Delhi,"Okhla Phase-2, Delhi - DPCC",19-03-2024 02:00:00,28.530785,77.271255,PM10,97,309,181
India,Delhi,Delhi,"Patparganj, Delhi - DPCC",19-03-2024 02:00:00,28.623763,77.287209,NO2,33,82,60
India,Delhi,Delhi,"Punjabi Bagh, Delhi - DPCC",19-03-2024 02:00:00,28.674045,77.131023,PM2.5,40,378,204
India,Delhi,Delhi,"Pusa, Delhi - DPCC",19-03-2024 02:00:00,28.639652,77.146275,PM2.5,37,414,130
India,Delhi,Delhi,"Pusa, Delhi - DPCC",19-03-2024 02:00:00,28.639652,77.146275,PM10,98,439,192
India,Delhi,Delhi,"Pusa, Delhi - DPCC",19-03-2024 02:00:00,28.639652,77.146275,CO,10,101,48
India,Delhi,Delhi,"Pusa, Delhi - DPCC",19-03-2024 02:00:00,28.639652,77.146275,OZONE,9,68,16
India,Delhi,Delhi,"R K Puram, Delhi - DPCC",19-03-2024 02:00:00,28.563262,77.186937,NH3,2,3,3
India,Delhi,Delhi,"Rohini, Delhi - DPCC",19-03-2024 02:00:00,28.732528,77.119920,CO,15,113,73
India,Delhi,Delhi,"Sirifort, Delhi - CPCB",19-03-2024 02:00:00,28.5504249,77.2159377,NH3,NA,NA,NA
India,Delhi,Delhi,"Sonia Vihar, Delhi - DPCC",19-03-2024 02:00:00,28.710508,77.249485,SO2,13,47,20
India,Delhi,Delhi,"Sri Aurobindo Marg, Delhi - DPCC",19-03-2024 02:00:00,28.531346,77.190156,NH3,5,8,7
India,Delhi,Delhi,"Vivek Vihar, Delhi - DPCC",19-03-2024 02:00:00,28.672342,77.315260,CO,10,92,59
India,Delhi,Delhi,"Vivek Vihar, Delhi - DPCC",19-03-2024 02:00:00,28.672342,77.315260,OZONE,1,69,17
India,Delhi,Delhi,"Wazirpur, Delhi - DPCC",19-03-2024 02:00:00,28.699793,77.165453,SO2,28,106,64
India,Delhi,Delhi,"Wazirpur, Delhi - DPCC",19-03-2024 02:00:00,28.699793,77.165453,CO,6,102,53
India,Delhi,Delhi,"Wazirpur, Delhi - DPCC",19-03-2024 02:00:00,28.699793,77.165453,OZONE,3,52,11
India,Gujarat,Ahmedabad,"Chandkheda, Ahmedabad - IITM",19-03-2024 02:00:00,23.107969,72.574648,PM10,73,172,108
India,Gujarat,Ahmedabad,"Chandkheda, Ahmedabad - IITM",19-03-2024 02:00:00,23.107969,72.574648,OZONE,11,65,23
India,Gujarat,Ahmedabad,"Gyaspur, Ahmedabad - IITM",19-03-2024 02:00:00,22.977134,72.553024,PM2.5,29,269,114
India,Gujarat,Ahmedabad,"Gyaspur, Ahmedabad - IITM",19-03-2024 02:00:00,22.977134,72.553024,PM10,41,200,116
India,Gujarat,Ahmedabad,"Maninagar, Ahmedabad - GPCB",19-03-2024 02:00:00,23.002657,72.591912,PM2.5,28,91,57
India,Gujarat,Ahmedabad,"Maninagar, Ahmedabad - GPCB",19-03-2024 02:00:00,23.002657,72.591912,NO2,24,99,48
India,Gujarat,Ahmedabad,"Raikhad, Ahmedabad - IITM",19-03-2024 02:00:00,23.020509,72.579261,PM2.5,16,149,80
India,Gujarat,Ahmedabad,"Raikhad, Ahmedabad - IITM",19-03-2024 02:00:00,23.020509,72.579261,SO2,4,11,7
India,Gujarat,Ahmedabad,"SAC ISRO Satellite, Ahmedabad - IITM",19-03-2024 02:00:00,23.023389,72.515201,NH3,3,4,3
India,Gujarat,Ahmedabad,"SAC ISRO Satellite, Ahmedabad - IITM",19-03-2024 02:00:00,23.023389,72.515201,CO,27,43,42
India,Gujarat,Ahmedabad,"SVPI Airport Hansol, Ahmedabad - IITM",19-03-2024 02:00:00,23.076793,72.627874,NO2,14,19,16
India,Gujarat,Ahmedabad,"SVPI Airport Hansol, Ahmedabad - IITM",19-03-2024 02:00:00,23.076793,72.627874,NH3,4,5,4
India,Gujarat,Ahmedabad,"Sardar Vallabhbhai Patel Stadium, Ahmedabad - IITM",19-03-2024 02:00:00,23.043070,72.562968,NO2,10,18,16
India,Gujarat,Ankleshwar,"GIDC, Ankleshwar - GPCB",19-03-2024 02:00:00,21.613267,73.010555,PM2.5,52,132,77
India,Gujarat,Ankleshwar,"GIDC, Ankleshwar - GPCB",19-03-2024 02:00:00,21.613267,73.010555,NO2,36,37,37
India,Gujarat,Ankleshwar,"GIDC, Ankleshwar - GPCB",19-03-2024 02:00:00,21.613267,73.010555,OZONE,21,37,25
India,Gujarat,Gandhinagar,"GIFT City, Gandhinagar - IITM",19-03-2024 02:00:00,23.163798,72.677768,NO2,39,40,39
India,Gujarat,Gandhinagar,"IIPHG Lekawada, Gandhinagar - IITM",19-03-2024 02:00:00,23.243639,72.68994,NH3,6,7,7
India,Gujarat,Gandhinagar,"IIPHG Lekawada, Gandhinagar - IITM",19-03-2024 02:00:00,23.243639,72.68994,OZONE,13,54,26
India,Gujarat,Surat,"Science Center, Surat - SMC",19-03-2024 02:00:00,21.170046,72.795405,PM2.5,7,46,27
India,Gujarat,Vapi,"Phase-1 GIDC, Vapi - GPCB",19-03-2024 02:00:00,20.362421,72.918013,NO2,6,7,6
India,Haryana,Ambala,"Patti Mehar, Ambala - HSPCB",19-03-2024 02:00:00,30.379589,76.778328,OZONE,47,66,57
India,Haryana,Ballabgarh,"Nathu Colony, Ballabgarh - HSPCB",19-03-2024 02:00:00,28.3419248,77.319699,NO2,11,13,12
India,Haryana,Ballabgarh,"Nathu Colony, Ballabgarh - HSPCB",19-03-2024 02:00:00,28.3419248,77.319699,CO,7,106,70
India,Haryana,Bhiwani,"H.B. Colony, Bhiwani - HSPCB",19-03-2024 02:00:00,28.806223,76.141105,NO2,3,10,9
India,Haryana,Charkhi Dadri,"Mini Secretariat, Charkhi Dadri - HSPCB",19-03-2024 02:00:00,28.593883,76.270653,NO2,15,23,18
India,Haryana,Dharuhera,"Municipal Corporation Office, Dharuhera -  HSPCB",19-03-2024 02:00:00,28.206800,76.799700,NO2,44,111,72
India,Haryana,Faridabad,"New Industrial Town, Faridabad - HSPCB",19-03-2024 02:00:00,28.39072,77.30059,CO,8,40,27
India,Haryana,Faridabad,"New Industrial Town, Faridabad - HSPCB",19-03-2024 02:00:00,28.39072,77.30059,OZONE,9,219,50
India,Haryana,Faridabad,"Sector 11, Faridabad - HSPCB",19-03-2024 02:00:00,28.376058,77.315741,NH3,6,6,6
India,Haryana,Faridabad,"Sector 11, Faridabad - HSPCB",19-03-2024 02:00:00,28.376058,77.315741,SO2,5,6,6
India,Haryana,Fatehabad,"Huda Sector, Fatehabad - HSPCB",19-03-2024 02:00:00,29.503664,75.467934,SO2,3,12,8
India,Haryana,Gurugram,"Sector-51, Gurugram - HSPCB",19-03-2024 02:00:00,28.4227,77.0667,PM10,102,323,193
India,Haryana,Gurugram,"Teri Gram, Gurugram - HSPCB",19-03-2024 02:00:00,28.4275,77.1465,PM2.5,84,402,212
India,Haryana,Gurugram,"Teri Gram, Gurugram - HSPCB",19-03-2024 02:00:00,28.4275,77.1465,OZONE,13,24,15
India,Haryana,Gurugram,"Vikas Sadan, Gurugram - HSPCB",19-03-2024 02:00:00,28.4501238,77.0263051,PM2.5,98,202,141
India,Haryana,Gurugram,"Vikas Sadan, Gurugram - HSPCB",19-03-2024 02:00:00,28.4501238,77.0263051,SO2,12,61,38
India,Haryana,Hisar,"Urban Estate-II, Hisar - HSPCB",19-03-2024 02:00:00,29.140560,75.744941,PM2.5,53,144,94
India,Haryana,Hisar,"Urban Estate-II, Hisar - HSPCB",19-03-2024 02:00:00,29.140560,75.744941,PM10,73,143,109
India,Haryana,Hisar,"Urban Estate-II, Hisar - HSPCB",19-03-2024 02:00:00,29.140560,75.744941,NO2,21,30,24
India,Haryana,Jind,"Police Lines, Jind - HSPCB",19-03-2024 02:00:00,29.307814,76.337619,PM10,58,130,96
India,Haryana,Jind,"Police Lines, Jind - HSPCB",19-03-2024 02:00:00,29.307814,76.337619,NH3,2,5,4
India,Haryana,Kaithal,"Rishi Nagar, Kaithal - HSPCB",19-03-2024 02:00:00,29.8006,76.4155,NO2,24,27,25
India,Haryana,Karnal,"Sector-12, Karnal - HSPCB",19-03-2024 02:00:00,29.695300,77.002700,NH3,10,13,11
India,Haryana,Karnal,"Sector-12, Karnal - HSPCB",19-03-2024 02:00:00,29.695300,77.002700,SO2,12,13,12
India,Haryana,Karnal,"Sector-12, Karnal - HSPCB",19-03-2024 02:00:00,29.695300,77.002700,OZONE,28,39,32
India,Haryana,Kurukshetra,"Sector-7, Kurukshetra - HSPCB",19-03-2024 02:00:00,29.966942,76.875879,PM10,58,110,86
India,Haryana,Kurukshetra,"Sector-7, Kurukshetra - HSPCB",19-03-2024 02:00:00,29.966942,76.875879,SO2,1,91,22
India,Haryana,Kurukshetra,"Sector-7, Kurukshetra - HSPCB",19-03-2024 02:00:00,29.966942,76.875879,OZONE,22,68,40
India,Haryana,Mandikhera,"General Hospital, Mandikhera - HSPCB",19-03-2024 02:00:00,27.9002,76.9938,NO2,17,23,19
India,Haryana,Manesar,"Sector-2 IMT, Manesar - HSPCB",19-03-2024 02:00:00,28.360699,76.936090,PM10,36,127,84
India,Haryana,Manesar,"Sector-2 IMT, Manesar - HSPCB",19-03-2024 02:00:00,28.360699,76.936090,NH3,1,3,2
India,Haryana,Narnaul,"Shastri Nagar, Narnaul - HSPCB",19-03-2024 02:00:00,28.060249,76.113115,PM2.5,19,131,51
India,Haryana,Narnaul,"Shastri Nagar, Narnaul - HSPCB",19-03-2024 02:00:00,28.060249,76.113115,PM10,31,500,105
India,Haryana,Narnaul,"Shastri Nagar, Narnaul - HSPCB",19-03-2024 02:00:00,28.060249,76.113115,SO2,13,30,14
India,Haryana,Panchkula,"Sector-6, Panchkula - HSPCB ",19-03-2024 02:00:00,30.7057778,76.8531805555555,CO,4,14,10
India,Haryana,Panipat,"Sector-18, Panipat - HSPCB",19-03-2024 02:00:00,29.497973,76.993331,NO2,31,32,31
India,Haryana,Panipat,"Sector-18, Panipat - HSPCB",19-03-2024 02:00:00,29.497973,76.993331,NH3,2,3,2
India,Haryana,Panipat,"Sector-18, Panipat - HSPCB",19-03-2024 02:00:00,29.497973,76.993331,SO2,18,19,19
India,Haryana,Panipat,"Sector-18, Panipat - HSPCB",19-03-2024 02:00:00,29.497973,76.993331,OZONE,30,30,30
India,Haryana,Sirsa,"F-Block, Sirsa - HSPCB",19-03-2024 02:00:00,29.536400,75.015800,SO2,1,106,51
India,Haryana,Sonipat,"Murthal, Sonipat - HSPCB",19-03-2024 02:00:00,29.027200,77.062100,NH3,7,10,9
India,Haryana,Sonipat,"Murthal, Sonipat - HSPCB",19-03-2024 02:00:00,29.027200,77.062100,CO,14,22,19
India,Haryana,Yamuna Nagar,"Gobind Pura, Yamuna Nagar - HSPCB",19-03-2024 02:00:00,30.1480566,77.2893471,PM2.5,57,199,82
India,Haryana,Yamuna Nagar,"Gobind Pura, Yamuna Nagar - HSPCB",19-03-2024 02:00:00,30.1480566,77.2893471,NH3,1,6,4
India,Himachal Pradesh,Baddi,"HIMUDA Complex Phase-1, Baddi - HPPCB",19-03-2024 02:00:00,30.943887,76.801991,PM10,75,297,144
India,Himachal Pradesh,Baddi,"HIMUDA Complex Phase-1, Baddi - HPPCB",19-03-2024 02:00:00,30.943887,76.801991,NO2,10,54,29
India,Himachal Pradesh,Baddi,"HIMUDA Complex Phase-1, Baddi - HPPCB",19-03-2024 02:00:00,30.943887,76.801991,CO,16,59,34
India,Jharkhand,Dhanbad,"Kalakusuma, Dhanbad - DMC",19-03-2024 02:00:00,23.811548,86.481238,OZONE,36,36,36
India,Jharkhand,Pathardih,"Mohalbani Ghat, Pathardih - DMC",19-03-2024 02:00:00,23.669880,86.411725,PM10,50,223,106
India,Karnataka,Bengaluru,"BTM Layout, Bengaluru - CPCB",19-03-2024 02:00:00,12.9135218,77.5950804,PM10,62,96,75
India,Karnataka,Bengaluru,"BTM Layout, Bengaluru - CPCB",19-03-2024 02:00:00,12.9135218,77.5950804,OZONE,28,89,61
India,Karnataka,Bengaluru,"Bapuji Nagar, Bengaluru - KSPCB",19-03-2024 02:00:00,12.951913,77.539784,PM10,79,161,106
India,Karnataka,Bengaluru,"Bapuji Nagar, Bengaluru - KSPCB",19-03-2024 02:00:00,12.951913,77.539784,NH3,1,1,1
India,Karnataka,Bengaluru,"Bapuji Nagar, Bengaluru - KSPCB",19-03-2024 02:00:00,12.951913,77.539784,CO,36,48,45
India,Karnataka,Bengaluru,"Hebbal, Bengaluru - KSPCB",19-03-2024 02:00:00,13.029152,77.585901,SO2,NA,NA,NA
India,Karnataka,Bengaluru,"Hombegowda Nagar, Bengaluru - KSPCB",19-03-2024 02:00:00,12.938539,77.590100,PM2.5,71,244,98
India,Karnataka,Bengaluru,"Hombegowda Nagar, Bengaluru - KSPCB",19-03-2024 02:00:00,12.938539,77.590100,OZONE,4,5,4
India,Karnataka,Bengaluru,"Jayanagar 5th Block, Bengaluru - KSPCB",19-03-2024 02:00:00,12.920984,77.584908,NO2,8,19,10
India,Karnataka,Bengaluru,"Jayanagar 5th Block, Bengaluru - KSPCB",19-03-2024 02:00:00,12.920984,77.584908,CO,21,42,35
India,Karnataka,Bengaluru,"Jayanagar 5th Block, Bengaluru - KSPCB",19-03-2024 02:00:00,12.920984,77.584908,OZONE,18,19,18
India,Karnataka,Bengaluru,"Jigani, Bengaluru - KSPCB",19-03-2024 02:00:00,12.7816279,77.6299145,PM10,NA,NA,NA
India,Karnataka,Bengaluru,"Jigani, Bengaluru - KSPCB",19-03-2024 02:00:00,12.7816279,77.6299145,OZONE,29,82,74
India,Karnataka,Bengaluru,"Kasturi Nagar, Bengaluru - KSPCB",19-03-2024 02:00:00,13.003872,77.664217,NO2,16,17,17
India,Karnataka,Bengaluru,"Peenya, Bengaluru - CPCB",19-03-2024 02:00:00,13.0270199,77.494094,PM2.5,45,72,59
