country,state,city,station,last_update,latitude,longitude,pollutant_id,pollutant_min,pollutant_max,pollutant_avg
India,Andhra_Pradesh,Amaravati,"Secretariat, Amaravati - APPCB",14-02-2024 00:00:00,16.5150833,80.5181667,PM10,43,83,62
India,Andhra_Pradesh,Amaravati,"Secretariat, Amaravati - APPCB",14-02-2024 00:00:00,16.5150833,80.5181667,NO2,6,20,13
India,Andhra_Pradesh,Amaravati,"Secretariat, Amaravati - APPCB",14-02-2024 00:00:00,16.5150833,80.5181667,NH3,3,5,4
India,Andhra_Pradesh,Amaravati,"Secretariat, Amaravati - APPCB",14-02-2024 00:00:00,16.5150833,80.5181667,SO2,12,16,14
India,Andhra_Pradesh,Amaravati,"Secretariat, Amaravati - APPCB",14-02-2024 00:00:00,16.5150833,80.5181667,OZONE,4,55,43
India,Andhra_Pradesh,Chittoor,"Gangineni Cheruvu, Chittoor - APPCB",14-02-2024 00:00:00,13.204880,79.097889,PM2.5,NA,NA,NA
India,Andhra_Pradesh,Kadapa,"Yerramukkapalli, Kadapa - APPCB",14-02-2024 00:00:00,14.465052,78.824187,CO,19,56,51
India,Andhra_Pradesh,Kadapa,"Yerramukkapalli, Kadapa - APPCB",14-02-2024 00:00:00,14.465052,78.824187,OZONE,3,43,36
India,Andhra_Pradesh,Rajamahendravaram,"Anand Kala Kshetram, Rajamahendravaram - APPCB",14-02-2024 00:00:00,16.9872867,81.7363176,PM2.5,62,142,85
India,Andhra_Pradesh,Rajamahendravaram,"Anand Kala Kshetram, Rajamahendravaram - APPCB",14-02-2024 00:00:00,16.9872867,81.7363176,NH3,3,6,4
India,Andhra_Pradesh,Tirupati,"Tirumala, Tirupati - APPCB",14-02-2024 00:00:00,13.67,79.35,NO2,24,40,32
India,Andhra_Pradesh,Vijayawada,"HB Colony, Vijayawada - APPCB",14-02-2024 00:00:00,16.536107,80.594233,NH3,4,5,4
India,Andhra_Pradesh,Vijayawada,"Kanuru, Vijayawada - APPCB",14-02-2024 00:00:00,16.486692,80.699436,PM2.5,52,74,67
India,Andhra_Pradesh,Vijayawada,"Rajiv Nagar, Vijayawada - APPCB",14-02-2024 00:00:00,16.554731,80.649110,NH3,1,2,1
India,Andhra_Pradesh,Vijayawada,"Rajiv Nagar, Vijayawada - APPCB",14-02-2024 00:00:00,16.554731,80.649110,SO2,8,21,15
India,Arunachal_Pradesh,Naharlagun,"Naharlagun, Naharlagun - APSPCB",14-02-2024 00:00:00,27.103358,93.679645,PM2.5,29,500,130
India,Assam,Byrnihat,"Central Academy for SFS, Byrnihat - PCBA",14-02-2024 00:00:00,26.071318,91.87488,NH3,1,8,6
India,Assam,Guwahati,"IITG, Guwahati - PCBA",14-02-2024 00:00:00,26.2028636,91.70046436,PM10,105,500,186
India,Assam,Guwahati,"IITG, Guwahati - PCBA",14-02-2024 00:00:00,26.2028636,91.70046436,NH3,5,5,5
India,Assam,Guwahati,"Pan Bazaar, Guwahati - PCBA",14-02-2024 00:00:00,26.187500,91.744194,NO2,2,30,8
India,Assam,Guwahati,"Pan Bazaar, Guwahati - PCBA",14-02-2024 00:00:00,26.187500,91.744194,OZONE,17,18,18
India,Assam,Nalbari,"Bata Chowk, Nalbari - PCBA",14-02-2024 00:00:00,26.446912,91.439057,PM10,105,392,209
India,Assam,Silchar,"Tarapur, Silchar - PCBA",14-02-2024 00:00:00,24.82827,92.79525,NO2,22,44,34
India,Assam,Silchar,"Tarapur, Silchar - PCBA",14-02-2024 00:00:00,24.82827,92.79525,SO2,7,16,12
India,Assam,Silchar,"Tarapur, Silchar - PCBA",14-02-2024 00:00:00,24.82827,92.79525,CO,40,50,45
India,Assam,Sivasagar,"Girls College, Sivasagar - PCBA",14-02-2024 00:00:00,26.987634,94.636574,PM2.5,25,42,32
India,Assam,Sivasagar,"Girls College, Sivasagar - PCBA",14-02-2024 00:00:00,26.987634,94.636574,SO2,4,4,4
India,Bihar,Araria,"Kharahiya Basti, Araria - BSPCB",14-02-2024 00:00:00,26.146529,87.454184,PM2.5,66,488,306
India,Bihar,Araria,"Kharahiya Basti, Araria - BSPCB",14-02-2024 00:00:00,26.146529,87.454184,SO2,13,17,15
India,Bihar,Aurangabad,"Gurdeo Nagar, Aurangabad - BSPCB",14-02-2024 00:00:00,24.75746,84.366208,OZONE,1,51,1
India,Bihar,Bettiah,"Kamalnath Nagar, Bettiah - BSPCB",14-02-2024 00:00:00,26.80365,84.51954,NO2,12,18,15
India,Bihar,Bhagalpur,"DM Office_Kachari Chowk, Bhagalpur - BSPCB",14-02-2024 00:00:00,25.251013,86.989001,NO2,39,101,70
India,Bihar,Bhagalpur,"Mayaganj, Bhagalpur - BSPCB",14-02-2024 00:00:00,25.265194,87.012947,NH3,7,9,8
India,Bihar,Bhagalpur,"Mayaganj, Bhagalpur - BSPCB",14-02-2024 00:00:00,25.265194,87.012947,OZONE,13,32,27
India,Bihar,Bihar Sharif,"D M Colony, Bihar Sharif - BSPCB",14-02-2024 00:00:00,25.204762,85.514960,OZONE,3,24,9
India,Bihar,Buxar,"Charitra Van, Buxar - BSPCB (Formerly known as Central Jail)",14-02-2024 00:00:00,25.567520,83.966379,SO2,16,17,16
India,Bihar,Chhapra,"Darshan Nagar, Chhapra - BSPCB",14-02-2024 00:00:00,25.7808257,84.7446768,PM10,130,400,213
India,Bihar,Chhapra,"Darshan Nagar, Chhapra - BSPCB",14-02-2024 00:00:00,25.7808257,84.7446768,NO2,21,28,26
India,Bihar,Chhapra,"Darshan Nagar, Chhapra - BSPCB",14-02-2024 00:00:00,25.7808257,84.7446768,SO2,NA,NA,NA
India,Bihar,Gaya,"Collectorate, Gaya - BSPCB",14-02-2024 00:00:00,24.7955,84.9994,NO2,8,17,13
India,Bihar,Gaya,"Collectorate, Gaya - BSPCB",14-02-2024 00:00:00,24.7955,84.9994,SO2,5,24,14
India,Bihar,Gaya,"Kareemganj, Gaya - BSPCB",14-02-2024 00:00:00,24.792403,84.992416,NO2,27,31,30
India,Bihar,Hajipur,"Industrial Area, Hajipur - BSPCB",14-02-2024 00:00:00,25.697189,85.245900,PM2.5,74,239,132
India,Bihar,Hajipur,"Industrial Area, Hajipur - BSPCB",14-02-2024 00:00:00,25.697189,85.245900,SO2,7,9,8
India,Bihar,Hajipur,"Industrial Area, Hajipur - BSPCB",14-02-2024 00:00:00,25.697189,85.245900,OZONE,1,32,11
India,Bihar,Manguraha,"Forest Rest House, Manguraha - BSPCB",14-02-2024 00:00:00,27.308328,84.531742,CO,2,92,35
India,Bihar,Manguraha,"Forest Rest House, Manguraha - BSPCB",14-02-2024 00:00:00,27.308328,84.531742,OZONE,42,100,58
India,Bihar,Motihari,"Gandak Colony, Motihari - BSPCB",14-02-2024 00:00:00,26.63086,84.90051,CO,40,82,54
India,Bihar,Munger,"Town Hall, Munger - BSPCB",14-02-2024 00:00:00,25.376776,86.471523,PM10,99,293,160
India,Bihar,Muzaffarpur,"Buddha Colony, Muzaffarpur - BSPCB",14-02-2024 00:00:00,26.11442,85.39813,NH3,9,15,12
India,Bihar,Muzaffarpur,"MIT-Daudpur Kothi, Muzaffarpur - BSPCB",14-02-2024 00:00:00,26.1403345,85.3650192,NO2,5,8,7
India,Bihar,Muzaffarpur,"MIT-Daudpur Kothi, Muzaffarpur - BSPCB",14-02-2024 00:00:00,26.1403345,85.3650192,OZONE,6,72,32
India,Bihar,Muzaffarpur,"Muzaffarpur Collectorate, Muzaffarpur - BSPCB",14-02-2024 00:00:00,26.1209,85.3647,OZONE,11,67,37
India,Bihar,Patna,"DRM Office Danapur, Patna - BSPCB",14-02-2024 00:00:00,25.586562,85.043586,NO2,22,73,45
India,Bihar,Patna,"Muradpur, Patna - BSPCB",14-02-2024 00:00:00,25.619651,85.147382,NH3,2,6,4
India,Bihar,Patna,"Rajbansi Nagar, Patna - BSPCB",14-02-2024 00:00:00,25.599486,85.113666,SO2,13,29,21
India,Bihar,Patna,"Samanpura, Patna - BSPCB",14-02-2024 00:00:00,25.596727,85.085624,NH3,4,18,7
India,Bihar,Purnia,"Mariam Nagar, Purnia - BSPCB",14-02-2024 00:00:00,25.366336,87.117468,PM2.5,97,335,249
India,Bihar,Purnia,"Mariam Nagar, Purnia - BSPCB",14-02-2024 00:00:00,25.366336,87.117468,NO2,12,14,13
India,Bihar,Purnia,"Mariam Nagar, Purnia - BSPCB",14-02-2024 00:00:00,25.366336,87.117468,OZONE,9,20,15
India,Bihar,Sasaram,"Dada Peer, Sasaram - BSPCB",14-02-2024 00:00:00,24.952822,84.002396,CO,32,84,60
India,Bihar,Siwan,"Chitragupta Nagar, Siwan - BSPCB",14-02-2024 00:00:00,26.2271665,84.3570427,SO2,25,34,30
India,Chandigarh,Chandigarh,"Sector-25, Chandigarh - CPCC",14-02-2024 00:00:00,30.751462,76.762879,NH3,17,49,32
India,Chandigarh,Chandigarh,"Sector-53, Chandigarh - CPCC",14-02-2024 00:00:00,30.719859,76.738637,SO2,15,32,20
India,Chhattisgarh,Bhilai,"32Bungalows, Bhilai - CECB",14-02-2024 00:00:00,21.194815,81.314770,NH3,6,6,6
India,Chhattisgarh,Bhilai,"32Bungalows, Bhilai - CECB",14-02-2024 00:00:00,21.194815,81.314770,SO2,4,7,5
India,Chhattisgarh,Bhilai,"Civic Center, Bhilai - Bhilai Steel Plant",14-02-2024 00:00:00,21.185571,81.343175,PM2.5,NA,NA,NA
India,Chhattisgarh,Bhilai,"Civic Center, Bhilai - Bhilai Steel Plant",14-02-2024 00:00:00,21.185571,81.343175,CO,35,56,43
India,Chhattisgarh,Bhilai,"Hathkhoj, Bhilai - CECB",14-02-2024 00:00:00,21.224231,81.408350,PM2.5,33,113,72
India,Chhattisgarh,Bhilai,"Hathkhoj, Bhilai - CECB",14-02-2024 00:00:00,21.224231,81.408350,PM10,74,131,99
India,Chhattisgarh,Bilaspur,"Mangala, Bilaspur - NTPC",14-02-2024 00:00:00,22.08815,82.13737,NO2,20,21,20
India,Chhattisgarh,Chhal,"Nawapara SECL Colony, Chhal - CECB",14-02-2024 00:00:00,22.118125,83.140608,PM2.5,18,166,75
India,Chhattisgarh,Chhal,"Nawapara SECL Colony, Chhal - CECB",14-02-2024 00:00:00,22.118125,83.140608,SO2,11,16,13
India,Chhattisgarh,Korba,"Rampur, Korba - CECB",14-02-2024 00:00:00,22.368195,82.746431,NH3,2,4,3
India,Chhattisgarh,Korba,"Rampur, Korba - CECB",14-02-2024 00:00:00,22.368195,82.746431,SO2,6,26,12
India,Chhattisgarh,Korba,"Urja Nagar, Korba - CECB",14-02-2024 00:00:00,22.348441,82.549611,PM10,32,80,59
India,Chhattisgarh,Korba,"Urja Nagar, Korba - CECB",14-02-2024 00:00:00,22.348441,82.549611,NH3,1,12,8
India,Chhattisgarh,Kunjemura,"OP Jindal School, Kunjemura - CECB",14-02-2024 00:00:00,22.126650,83.483212,PM10,21,445,79
India,Chhattisgarh,Raipur,"AIIMS, Raipur - CECB",14-02-2024 00:00:00,21.258815,81.578979,SO2,6,27,10
India,Chhattisgarh,Raipur,"Bhatagaon New ISBT, Raipur - CECB",14-02-2024 00:00:00,21.219665,81.630094,PM10,NA,NA,NA
India,Chhattisgarh,Raipur,"Krishak Nagar, Raipur - CECB",14-02-2024 00:00:00,21.237755,81.705301,SO2,9,13,11
India,Chhattisgarh,Tumidih,"OP Jindal Industrial Park, Tumidih - CECB",14-02-2024 00:00:00,22.06631475,83.33820077,PM10,28,162,64
India,Delhi,Delhi,"Alipur, Delhi - DPCC",14-02-2024 00:00:00,28.815329,77.153010,CO,52,102,71
India,Delhi,Delhi,"Ashok Vihar, Delhi - DPCC",14-02-2024 00:00:00,28.695381,77.181665,SO2,20,31,25
India,Delhi,Delhi,"Burari Crossing, Delhi - IMD",14-02-2024 00:00:00,28.7256504,77.2011573,NO2,NA,NA,NA
India,Delhi,Delhi,"CRRI Mathura Road, Delhi - IMD",14-02-2024 00:00:00,28.5512005,77.2735737,PM10,137,370,247
India,Delhi,Delhi,"CRRI Mathura Road, Delhi - IMD",14-02-2024 00:00:00,28.5512005,77.2735737,CO,34,191,118
India,Delhi,Delhi,"Dr. Karni Singh Shooting Range, Delhi - DPCC",14-02-2024 00:00:00,28.498571,77.264840,SO2,8,24,14
India,Delhi,Delhi,"Dr. Karni Singh Shooting Range, Delhi - DPCC",14-02-2024 00:00:00,28.498571,77.264840,CO,43,118,80
India,Delhi,Delhi,"Dwarka-Sector 8, Delhi - DPCC ",14-02-2024 00:00:00,28.5710274,77.0719006,NO2,7,26,17
India,Delhi,Delhi,"IGI Airport (T3), Delhi - IMD",14-02-2024 00:00:00,28.5627763,77.1180053,PM10,154,431,324
India,Delhi,Delhi,"IHBAS, Dilshad Garden, Delhi - CPCB",14-02-2024 00:00:00,28.6811736,77.3025234,PM2.5,149,351,251
India,Delhi,Delhi,"IHBAS, Dilshad Garden, Delhi - CPCB",14-02-2024 00:00:00,28.6811736,77.3025234,OZONE,5,51,26
India,Delhi,Delhi,"ITO, Delhi - CPCB",14-02-2024 00:00:00,28.628624,77.241060,NH3,1,10,4
India,Delhi,Delhi,"Jahangirpuri, Delhi - DPCC",14-02-2024 00:00:00,28.732820,77.170633,PM10,238,500,405
India,Delhi,Delhi,"Jahangirpuri, Delhi - DPCC",14-02-2024 00:00:00,28.732820,77.170633,NH3,12,72,31
India,Delhi,Delhi,"Jawaharlal Nehru Stadium, Delhi - DPCC",14-02-2024 00:00:00,28.580280,77.233829,PM10,150,375,256
India,Delhi,Delhi,"Lodhi Road, Delhi - IITM",14-02-2024 00:00:00,28.588333,77.221667,NO2,66,136,98
India,Delhi,Delhi,"Lodhi Road, Delhi - IITM",14-02-2024 00:00:00,28.588333,77.221667,NH3,9,15,12
India,Delhi,Delhi,"Lodhi Road, Delhi - IMD",14-02-2024 00:00:00,28.5918245,77.2273074,OZONE,14,90,36
India,Delhi,Delhi,"Major Dhyan Chand National Stadium, Delhi - DPCC",14-02-2024 00:00:00,28.611281,77.237738,CO,1,130,72
India,Delhi,Delhi,"Mandir Marg, Delhi - DPCC",14-02-2024 00:00:00,28.636429,77.201067,PM10,166,413,276
India,Delhi,Delhi,"NSIT Dwarka, Delhi - CPCB",14-02-2024 00:00:00,28.60909,77.0325413,PM10,270,431,361
India,Delhi,Delhi,"NSIT Dwarka, Delhi - CPCB",14-02-2024 00:00:00,28.60909,77.0325413,CO,21,79,56
India,Delhi,Delhi,"Najafgarh, Delhi - DPCC",14-02-2024 00:00:00,28.570173,76.933762,CO,26,68,42
India,Delhi,Delhi,"Najafgarh, Delhi - DPCC",14-02-2024 00:00:00,28.570173,76.933762,OZONE,2,168,91
India,Delhi,Delhi,"Narela, Delhi - DPCC",14-02-2024 00:00:00,28.822836,77.101981,SO2,4,37,11
India,Delhi,Delhi,"Narela, Delhi - DPCC",14-02-2024 00:00:00,28.822836,77.101981,CO,36,104,59
India,Delhi,Delhi,"Nehru Nagar, Delhi - DPCC",14-02-2024 00:00:00,28.567890,77.250515,PM2.5,329,461,392
India,Delhi,Delhi,"Nehru Nagar, Delhi - DPCC",14-02-2024 00:00:00,28.567890,77.250515,NO2,12,52,29
India,Delhi,Delhi,"Nehru Nagar, Delhi - DPCC",14-02-2024 00:00:00,28.567890,77.250515,SO2,3,22,12
India,Delhi,Delhi,"New Moti Bagh, Delhi - MHUA",14-02-2024 00:00:00,28.57834,77.18400,PM2.5,239,433,357
India,Delhi,Delhi,"North Campus, DU, Delhi - IMD",14-02-2024 00:00:00,28.6573814,77.1585447,NO2,31,61,47
India,Delhi,Delhi,"Patparganj, Delhi - DPCC",14-02-2024 00:00:00,28.623763,77.287209,NH3,7,14,11
India,Delhi,Delhi,"Patparganj, Delhi - DPCC",14-02-2024 00:00:00,28.623763,77.287209,SO2,7,14,11
India,Delhi,Delhi,"Patparganj, Delhi - DPCC",14-02-2024 00:00:00,28.623763,77.287209,OZONE,1,88,34
India,Delhi,Delhi,"Punjabi Bagh, Delhi - DPCC",14-02-2024 00:00:00,28.674045,77.131023,NH3,7,15,10
India,Delhi,Delhi,"Punjabi Bagh, Delhi - DPCC",14-02-2024 00:00:00,28.674045,77.131023,SO2,3,35,20
India,Delhi,Delhi,"Pusa, Delhi - DPCC",14-02-2024 00:00:00,28.639652,77.146275,NO2,76,412,159
India,Delhi,Delhi,"Pusa, Delhi - IMD",14-02-2024 00:00:00,28.636110,77.173332,CO,NA,NA,NA
India,Delhi,Delhi,"Pusa, Delhi - IMD",14-02-2024 00:00:00,28.636110,77.173332,OZONE,NA,NA,NA
India,Delhi,Delhi,"R K Puram, Delhi - DPCC",14-02-2024 00:00:00,28.563262,77.186937,NH3,NA,NA,NA
India,Delhi,Delhi,"R K Puram, Delhi - DPCC",14-02-2024 00:00:00,28.563262,77.186937,SO2,8,58,29
India,Delhi,Delhi,"R K Puram, Delhi - DPCC",14-02-2024 00:00:00,28.563262,77.186937,CO,38,138,92
India,Delhi,Delhi,"Rohini, Delhi - DPCC",14-02-2024 00:00:00,28.732528,77.119920,NO2,30,103,62
India,Delhi,Delhi,"Shadipur, Delhi - CPCB",14-02-2024 00:00:00,28.6514781,77.1473105,NH3,1,30,18
India,Delhi,Delhi,"Sirifort, Delhi - CPCB",14-02-2024 00:00:00,28.5504249,77.2159377,PM10,52,116,95
India,Delhi,Delhi,"Sirifort, Delhi - CPCB",14-02-2024 00:00:00,28.5504249,77.2159377,CO,36,110,68
India,Delhi,Delhi,"Sonia Vihar, Delhi - DPCC",14-02-2024 00:00:00,28.710508,77.249485,NO2,34,131,75
India,Delhi,Delhi,"Sonia Vihar, Delhi - DPCC",14-02-2024 00:00:00,28.710508,77.249485,NH3,6,10,7
India,Delhi,Delhi,"Sonia Vihar, Delhi - DPCC",14-02-2024 00:00:00,28.710508,77.249485,SO2,5,19,10
India,Delhi,Delhi,"Sri Aurobindo Marg, Delhi - DPCC",14-02-2024 00:00:00,28.531346,77.190156,PM2.5,239,416,348
India,Delhi,Delhi,"Sri Aurobindo Marg, Delhi - DPCC",14-02-2024 00:00:00,28.531346,77.190156,NH3,8,11,9
India,Delhi,Delhi,"Sri Aurobindo Marg, Delhi - DPCC",14-02-2024 00:00:00,28.531346,77.190156,OZONE,2,33,15
India,Delhi,Delhi,"Vivek Vihar, Delhi - DPCC",14-02-2024 00:00:00,28.672342,77.315260,PM10,195,481,342
India,Delhi,Delhi,"Wazirpur, Delhi - DPCC",14-02-2024 00:00:00,28.699793,77.165453,PM10,290,466,412
India,Delhi,Delhi,"Wazirpur, Delhi - DPCC",14-02-2024 00:00:00,28.699793,77.165453,NH3,5,9,7
India,Delhi,Delhi,"Wazirpur, Delhi - DPCC",14-02-2024 00:00:00,28.699793,77.165453,SO2,1,59,37
India,Gujarat,Ahmedabad,"Chandkheda, Ahmedabad - IITM",14-02-2024 00:00:00,23.107969,72.574648,NO2,73,104,83
India,Gujarat,Ahmedabad,"Chandkheda, Ahmedabad - IITM",14-02-2024 00:00:00,23.107969,72.574648,OZONE,7,55,36
India,Gujarat,Ahmedabad,"Gyaspur, Ahmedabad - IITM",14-02-2024 00:00:00,22.977134,72.553024,NO2,21,26,23
India,Gujarat,Ahmedabad,"Raikhad, Ahmedabad - IITM",14-02-2024 00:00:00,23.020509,72.579261,SO2,2,12,5
India,Gujarat,Ahmedabad,"Raikhad, Ahmedabad - IITM",14-02-2024 00:00:00,23.020509,72.579261,OZONE,1,32,18
India,Gujarat,Ahmedabad,"SAC ISRO Bopal, Ahmedabad - IITM",14-02-2024 00:00:00,23.041137,72.456691,PM10,67,134,91
India,Gujarat,Ahmedabad,"Sardar Vallabhbhai Patel Stadium, Ahmedabad - IITM",14-02-2024 00:00:00,23.043070,72.562968,PM2.5,67,279,118
India,Gujarat,Ahmedabad,"Sardar Vallabhbhai Patel Stadium, Ahmedabad - IITM",14-02-2024 00:00:00,23.043070,72.562968,NH3,NA,NA,NA
India,Gujarat,Ahmedabad,"Sardar Vallabhbhai Patel Stadium, Ahmedabad - IITM",14-02-2024 00:00:00,23.043070,72.562968,CO,16,41,26
India,Gujarat,Ankleshwar,"GIDC, Ankleshwar - GPCB",14-02-2024 00:00:00,21.613267,73.010555,NO2,36,37,36
India,Gujarat,Gandhinagar,"GIFT City, Gandhinagar - IITM",14-02-2024 00:00:00,23.163798,72.677768,SO2,5,6,5
India,Gujarat,Gandhinagar,"GIFT City, Gandhinagar - IITM",14-02-2024 00:00:00,23.163798,72.677768,CO,14,32,25
India,Gujarat,Gandhinagar,"IIPHG Lekawada, Gandhinagar - IITM",14-02-2024 00:00:00,23.243639,72.68994,PM10,84,136,105
India,Gujarat,Gandhinagar,"Sector-10, Gandhinagar - GPCB",14-02-2024 00:00:00,23.221714,72.654328,SO2,5,22,7
India,Gujarat,Gandhinagar,"Sector-10, Gandhinagar - GPCB",14-02-2024 00:00:00,23.221714,72.654328,CO,16,101,37
India,Gujarat,Surat,"Science Center, Surat - SMC",14-02-2024 00:00:00,21.170046,72.795405,PM2.5,30,106,60
India,Gujarat,Vapi,"Phase-1 GIDC, Vapi - GPCB",14-02-2024 00:00:00,20.362421,72.918013,CO,102,158,68
India,Haryana,Ambala,"Patti Mehar, Ambala - HSPCB",14-02-2024 00:00:00,30.379589,76.778328,OZONE,19,41,29
India,Haryana,Bahadurgarh,"Arya Nagar, Bahadurgarh - HSPCB",14-02-2024 00:00:00,28.6701,76.9254,CO,37,56,49
India,Haryana,Ballabgarh,"Nathu Colony, Ballabgarh - HSPCB",14-02-2024 00:00:00,28.3419248,77.319699,PM10,192,500,279
India,Haryana,Ballabgarh,"Nathu Colony, Ballabgarh - HSPCB",14-02-2024 00:00:00,28.3419248,77.319699,NO2,11,13,12
India,Haryana,Bhiwani,"H.B. Colony, Bhiwani - HSPCB",14-02-2024 00:00:00,28.806223,76.141105,NH3,5,6,6
India,Haryana,Charkhi Dadri,"Mini Secretariat, Charkhi Dadri - HSPCB",14-02-2024 00:00:00,28.593883,76.270653,CO,34,104,55
India,Haryana,Charkhi Dadri,"Mini Secretariat, Charkhi Dadri - HSPCB",14-02-2024 00:00:00,28.593883,76.270653,OZONE,13,17,15
India,Haryana,Faridabad,"New Industrial Town, Faridabad - HSPCB",14-02-2024 00:00:00,28.39072,77.30059,CO,34,103,61
India,Haryana,Faridabad,"Sector 11, Faridabad - HSPCB",14-02-2024 00:00:00,28.376058,77.315741,NO2,29,32,31
India,Haryana,Faridabad,"Sector 11, Faridabad - HSPCB",14-02-2024 00:00:00,28.376058,77.315741,NH3,6,6,6
India,Haryana,Faridabad,"Sector 11, Faridabad - HSPCB",14-02-2024 00:00:00,28.376058,77.315741,CO,46,100,61
India,Haryana,Faridabad,"Sector 11, Faridabad - HSPCB",14-02-2024 00:00:00,28.376058,77.315741,OZONE,3,12,7
India,Haryana,Faridabad,"Sector 30, Faridabad - HSPCB",14-02-2024 00:00:00,28.4417,77.3217,NH3,9,9,9
India,Haryana,Faridabad,"Sector 30, Faridabad - HSPCB",14-02-2024 00:00:00,28.4417,77.3217,CO,2,127,67
India,Haryana,Faridabad,"Sector- 16A, Faridabad - HSPCB",14-02-2024 00:00:00,28.4088421,77.3099081,PM2.5,320,475,379
India,Haryana,Faridabad,"Sector- 16A, Faridabad - HSPCB",14-02-2024 00:00:00,28.4088421,77.3099081,CO,6,109,49
India,Haryana,Gurugram,"Teri Gram, Gurugram - HSPCB",14-02-2024 00:00:00,28.4275,77.1465,OZONE,10,24,10
India,Haryana,Hisar,"Urban Estate-II, Hisar - HSPCB",14-02-2024 00:00:00,29.140560,75.744941,OZONE,22,172,114
India,Haryana,Jind,"Police Lines, Jind - HSPCB",14-02-2024 00:00:00,29.307814,76.337619,NO2,8,17,12
India,Haryana,Jind,"Police Lines, Jind - HSPCB",14-02-2024 00:00:00,29.307814,76.337619,NH3,2,5,4
India,Haryana,Karnal,"Sector-12, Karnal - HSPCB",14-02-2024 00:00:00,29.695300,77.002700,PM2.5,74,147,106
India,Haryana,Karnal,"Sector-12, Karnal - HSPCB",14-02-2024 00:00:00,29.695300,77.002700,SO2,12,13,13
India,Haryana,Manesar,"Sector-2 IMT, Manesar - HSPCB",14-02-2024 00:00:00,28.360699,76.936090,NH3,7,16,8
India,Haryana,Manesar,"Sector-2 IMT, Manesar - HSPCB",14-02-2024 00:00:00,28.360699,76.936090,CO,31,98,42
India,Haryana,Narnaul,"Shastri Nagar, Narnaul - HSPCB",14-02-2024 00:00:00,28.060249,76.113115,NH3,5,18,11
India,Haryana,Narnaul,"Shastri Nagar, Narnaul - HSPCB",14-02-2024 00:00:00,28.060249,76.113115,OZONE,40,79,64
India,Haryana,Palwal,"Shyam Nagar, Palwal - HSPCB",14-02-2024 00:00:00,28.1485564,77.3320667,PM10,136,426,212
India,Haryana,Sirsa,"F-Block, Sirsa - HSPCB",14-02-2024 00:00:00,29.536400,75.015800,SO2,19,35,28
India,Haryana,Sirsa,"F-Block, Sirsa - HSPCB",14-02-2024 00:00:00,29.536400,75.015800,CO,68,104,73
India,Haryana,Sonipat,"Murthal, Sonipat - HSPCB",14-02-2024 00:00:00,29.027200,77.062100,PM2.5,174,313,241
India,Haryana,Yamuna Nagar,"Gobind Pura, Yamuna Nagar - HSPCB",14-02-2024 00:00:00,30.1480566,77.2893471,NO2,2,128,11
India,Himachal Pradesh,Baddi,"HIMUDA Complex Phase-1, Baddi - HPPCB",14-02-2024 00:00:00,30.943887,76.801991,PM10,111,385,188
India,Jharkhand,Dhanbad,"Kalakusuma, Dhanbad - DMC",14-02-2024 00:00:00,23.811548,86.481238,PM2.5,37,80,45
India,Jharkhand,Dhanbad,"Sardar Patel Nagar, Dhanbad - JSPCB",14-02-2024 00:00:00,23.80569,86.44268,PM2.5,NA,NA,NA
India,Jharkhand,Pathardih,"Mohalbani Ghat, Pathardih - DMC",14-02-2024 00:00:00,23.669880,86.411725,PM2.5,NA,NA,NA
India,Karnataka,Bagalkot,"Vidayagiri, Bagalkot - KSPCB",14-02-2024 00:00:00,16.172806,75.659694,NH3,1,2,1
India,Karnataka,Belgaum,"Ramteerth Nagar, Belgaum - KSPCB",14-02-2024 00:00:00,15.888653,74.541751,PM10,42,102,69
India,Karnataka,Belgaum,"Ramteerth Nagar, Belgaum - KSPCB",14-02-2024 00:00:00,15.888653,74.541751,SO2,8,9,8
India,Karnataka,Bengaluru,"Bapuji Nagar, Bengaluru - KSPCB",14-02-2024 00:00:00,12.951913,77.539784,PM2.5,44,131,76
India,Karnataka,Bengaluru,"Bapuji Nagar, Bengaluru - KSPCB",14-02-2024 00:00:00,12.951913,77.539784,NH3,1,1,1
India,Karnataka,Bengaluru,"Bapuji Nagar, Bengaluru - KSPCB",14-02-2024 00:00:00,12.951913,77.539784,CO,28,42,32
India,Karnataka,Bengaluru,"Hebbal, Bengaluru - KSPCB",14-02-2024 00:00:00,13.029152,77.585901,NO2,NA,NA,NA
India,Karnataka,Bengaluru,"Hebbal, Bengaluru - KSPCB",14-02-2024 00:00:00,13.029152,77.585901,CO,10,36,24
India,Karnataka,Bengaluru,"Hombegowda Nagar, Bengaluru - KSPCB",14-02-2024 00:00:00,12.938539,77.590100,NH3,1,2,2
India,Karnataka,Bengaluru,"Jigani, Bengaluru - KSPCB",14-02-2024 00:00:00,12.7816279,77.6299145,PM10,NA,NA,NA
India,Karnataka,Bengaluru,"Jigani, Bengaluru - KSPCB",14-02-2024 00:00:00,12.7816279,77.6299145,NO2,31,32,32
India,Karnataka,Bengaluru,"Jigani, Bengaluru - KSPCB",14-02-2024 00:00:00,12.7816279,77.6299145,NH3,4,4,4
India,Karnataka,Bengaluru,"Jigani, Bengaluru - KSPCB",14-02-2024 00:00:00,12.7816279,77.6299145,CO,40,119,65
India,Karnataka,Bengaluru,"Kasturi Nagar, Bengaluru - KSPCB",14-02-2024 00:00:00,13.003872,77.664217,PM10,76,128,112
India,Karnataka,Bengaluru,"Peenya, Bengaluru - CPCB",14-02-2024 00:00:00,13.0270199,77.494094,PM2.5,1,108,59
India,Karnataka,Bengaluru,"Peenya, Bengaluru - CPCB",14-02-2024 00:00:00,13.0270199,77.494094,PM10,43,65,55
India,Karnataka,Bengaluru,"Peenya, Bengaluru - CPCB",14-02-2024 00:00:00,13.0270199,77.494094,CO,26,42,35
India,Karnataka,Bengaluru,"Sanegurava Halli, Bengaluru - KSPCB",14-02-2024 00:00:00,12.990328,77.5431385,PM10,27,67,37
India,Karnataka,Bengaluru,"Sanegurava Halli, Bengaluru - KSPCB",14-02-2024 00:00:00,12.990328,77.5431385,CO,8,26,19
India,Karnataka,Bengaluru,"Shivapura_Peenya, Bengaluru - KSPCB",14-02-2024 00:00:00,13.0246342,77.5080115,NO2,15,16,15
India,Karnataka,Bengaluru,"Silk Board, Bengaluru - KSPCB",14-02-2024 00:00:00,12.917348,77.622813,NH3,1,2,2
India,Karnataka,Chamarajanagar,"Urban, Chamarajanagar - KSPCB",14-02-2024 00:00:00,11.55358,76.55521,NH3,2,5,3
India,Karnataka,Chamarajanagar,"Urban, Chamarajanagar - KSPCB",14-02-2024 00:00:00,11.55358,76.55521,CO,20,27,23
India,Karnataka,Chikkaballapur,"Chikkaballapur Rural, Chikkaballapur - KSPCB",14-02-2024 00:00:00,13.428828,77.731418,CO,12,13,13
India,Karnataka,Chikkamagaluru,"Kalyana Nagara, Chikkamagaluru - KSPCB",14-02-2024 00:00:00,13.328028,75.797056,PM10,16,86,56
India,Karnataka,Davanagere,"Devaraj Urs Badavane, Davanagere - KSPCB",14-02-2024 00:00:00,14.475800,75.905200,PM10,NA,NA,NA
India,Karnataka,Davanagere,"Devaraj Urs Badavane, Davanagere - KSPCB",14-02-2024 00:00:00,14.475800,75.905200,OZONE,18,25,24
India,Karnataka,Gadag,"Panchal Nagar, Gadag - KSPCB",14-02-2024 00:00:00,15.411456,75.638133,PM2.5,16,34,26
India,Karnataka,Gadag,"Panchal Nagar, Gadag - KSPCB",14-02-2024 00:00:00,15.411456,75.638133,OZONE,38,66,59
India,Karnataka,Hassan,"B.Katihalli, Hassan - KSPCB",14-02-2024 00:00:00,13.008556,76.125258,PM10,17,105,73
India,Karnataka,Haveri,"Ashwini Nagar, Haveri - KSPCB",14-02-2024 00:00:00,14.791800,75.389600,PM10,NA,NA,NA
India,Karnataka,Haveri,"Ashwini Nagar, Haveri - KSPCB",14-02-2024 00:00:00,14.791800,75.389600,NO2,NA,NA,NA
India,Karnataka,Haveri,"Ashwini Nagar, Haveri - KSPCB",14-02-2024 00:00:00,14.791800,75.389600,NH3,NA,NA,NA
India,Karnataka,Hubballi,"Lingaraj Nagar, Hubballi - KSPCB",14-02-2024 00:00:00,15.3714823,75.1160168,CO,28,99,58
India,Karnataka,Kalaburagi,"Lal Bahadur Shastri Nagar, Kalaburagi - KSPCB",14-02-2024 00:00:00,17.321993,76.822628,NH3,2,2,2
India,Karnataka,Kalaburagi,"Mahatma Basaveswar Colony, Kalaburgi - KSPCB",14-02-2024 00:00:00,17.336318,76.847397,PM2.5,24,56,32
India,Karnataka,Karwar,"KHB Colony, Karwar - KSPCB",14-02-2024 00:00:00,14.816666,74.141003,NO2,4,9,6
India,Karnataka,Kolar,"Tamaka Ind. Area, Kolar - KSPCB",14-02-2024 00:00:00,13.1276288,78.1570122,NO2,NA,NA,NA
India,Karnataka,Madikeri,"Stuart Hill, Madikeri - KSPCB",14-02-2024 00:00:00,12.415911,75.735050,PM2.5,17,56,37
India,Karnataka,Mangalore,"Kadri, Mangalore - KSPCB",14-02-2024 00:00:00,12.889250,74.853000,PM2.5,22,86,55
India,Karnataka,Mangalore,"Kadri, Mangalore - KSPCB",14-02-2024 00:00:00,12.889250,74.853000,NO2,6,7,6
India,Karnataka,Mysuru,"Hebbal 1st Stage, Mysuru - KSPCB",14-02-2024 00:00:00,12.21041,76.37376,PM10,40,56,50
India,Karnataka,Mysuru,"Hebbal 1st Stage, Mysuru - KSPCB",14-02-2024 00:00:00,12.21041,76.37376,SO2,2,10,4
India,Karnataka,Mysuru,"Hebbal 1st Stage, Mysuru - KSPCB",14-02-2024 00:00:00,12.21041,76.37376,OZONE,6,83,73
India,Karnataka,Raichur,"Haji Colony, Raichur - KSPCB",14-02-2024 00:00:00,16.208139,77.348417,OZONE,1,12,4
India,Karnataka,Ramanagara,"Vijay Nagar, Ramanagara - KSPCB",14-02-2024 00:00:00,12.733409,77.298051,CO,9,31,17
India,Karnataka,Shivamogga,"Vinoba Nagara, Shivamogga - KSPCB",14-02-2024 00:00:00,13.940000,75.555917,PM2.5,34,51,43
India,Karnataka,Shivamogga,"Vinoba Nagara, Shivamogga - KSPCB",14-02-2024 00:00:00,13.940000,75.555917,CO,13,44,20
India,Karnataka,Udupi,"Brahmagiri, Udupi - KSPCB",14-02-2024 00:00:00,13.34194444,74.74694444,PM10,38,90,53
India,Karnataka,Vijayapura,"Ibrahimpur, Vijayapura - KSPCB",14-02-2024 00:00:00,16.802639,75.722694,PM10,38,39,39
India,Karnataka,Vijayapura,"Ibrahimpur, Vijayapura - KSPCB",14-02-2024 00:00:00,16.802639,75.722694,NO2,17,19,19
India,Kerala,Kannur,"Thavakkara, Kannur - Kerala PCB",14-02-2024 00:00:00,11.875000,75.373200,NO2,6,7,6
India,Kerala,Kannur,"Thavakkara, Kannur - Kerala PCB",14-02-2024 00:00:00,11.875000,75.373200,SO2,5,6,5
India,Kerala,Kochi,"Vyttila, Kochi - Kerala PCB",14-02-2024 00:00:00,9.969447,76.321186,NH3,2,3,3
India,Kerala,Kochi,"Vyttila, Kochi - Kerala PCB",14-02-2024 00:00:00,9.969447,76.321186,CO,64,68,67
India,Kerala,Thiruvananthapuram,"Kariavattom, Thiruvananthapuram - Kerala PCB",14-02-2024 00:00:00,8.563700,76.886500,OZONE,27,30,29
India,Kerala,Thiruvananthapuram,"Plammoodu, Thiruvananthapuram - Kerala PCB",14-02-2024 00:00:00,8.5149093,76.9435879,OZONE,10,56,17
India,Kerala,Thrissur,"Corporation Ground, Thrissur - Kerala PCB",14-02-2024 00:00:00,10.532400,76.215900,PM2.5,47,54,51
India,Kerala,Thrissur,"Corporation Ground, Thrissur - Kerala PCB",14-02-2024 00:00:00,10.532400,76.215900,NH3,1,1,1
India,Madhya Pradesh,Bhopal,"Paryavaran Parisar, Bhopal - MPPCB",14-02-2024 00:00:00,23.210494,77.425409,NH3,8,13,10
India,Madhya Pradesh,Bhopal,"T T Nagar, Bhopal - MPPCB",14-02-2024 00:00:00,23.233584,77.400574,PM10,127,201,157
India,Madhya Pradesh,Bhopal,"T T Nagar, Bhopal - MPPCB",14-02-2024 00:00:00,23.233584,77.400574,NO2,31,80,51
India,Madhya Pradesh,Gwalior,"City Center, Gwalior - MPPCB",14-02-2024 00:00:00,26.203442,78.193251,NH3,6,8,8
India,Madhya Pradesh,Gwalior,"Maharaj Bada, Gwalior - MPPCB",14-02-2024 00:00:00,26.200388,78.147714,PM10,114,326,190
India,Madhya Pradesh,Gwalior,"Maharaj Bada, Gwalior - MPPCB",14-02-2024 00:00:00,26.200388,78.147714,CO,8,88,47
India,Madhya Pradesh,Indore,"Regional Park, Indore - IMC",14-02-2024 00:00:00,22.6780,75.8559,PM2.5,NA,NA,NA
India,Madhya Pradesh,Indore,"Regional Park, Indore - IMC",14-02-2024 00:00:00,22.6780,75.8559,SO2,39,42,40
India,Madhya Pradesh,Jabalpur,"Govindh Bhavan Colony, Jabalpur - JMC",14-02-2024 00:00:00,23.163174,79.973061,PM2.5,45,92,65
India,Madhya Pradesh,Jabalpur,"Gupteshwar, Jabalpur - JMC",14-02-2024 00:00:00,23.142888,79.916147,NO2,5,83,22
India,Madhya Pradesh,Jabalpur,"Marhatal, Jabalpur - MPPCB",14-02-2024 00:00:00,23.168606,79.932247,PM2.5,61,172,103
India,Madhya Pradesh,Jabalpur,"Marhatal, Jabalpur - MPPCB",14-02-2024 00:00:00,23.168606,79.932247,PM10,73,136,91
India,Madhya Pradesh,Jabalpur,"Marhatal, Jabalpur - MPPCB",14-02-2024 00:00:00,23.168606,79.932247,OZONE,10,45,32
India,Madhya Pradesh,Jabalpur,"Suhagi, Jabalpur - JMC",14-02-2024 00:00:00,23.218135,79.957770,PM10,NA,NA,NA
India,Madhya Pradesh,Maihar,"Sahilara, Maihar - KJS Cements",14-02-2024 00:00:00,24.2613009,80.7231783,SO2,13,16,14
India,Madhya Pradesh,Mandideep,"Sector-D Industrial Area, Mandideep - MPPCB",14-02-2024 00:00:00,23.108440,77.511428,PM2.5,113,311,240
India,Madhya Pradesh,Mandideep,"Sector-D Industrial Area, Mandideep - MPPCB",14-02-2024 00:00:00,23.108440,77.511428,SO2,32,135,96
India,Madhya Pradesh,Ratlam,"Shasthri Nagar, Ratlam - IPCA Lab",14-02-2024 00:00:00,23.331731,75.045981,PM2.5,64,258,121
India,Madhya Pradesh,Sagar,"Civil Lines, Sagar - MPPCB",14-02-2024 00:00:00,23.838586,78.759431,PM2.5,183,333,281
India,Madhya Pradesh,Sagar,"Deen Dayal Nagar, Sagar - MPPCB",14-02-2024 00:00:00,23.8640158,78.80289321,NO2,22,24,24
India,Madhya Pradesh,Singrauli,"Suryakiran Bhawan NCL, Singrauli - MPPCB",14-02-2024 00:00:00,24.108970,82.645580,OZONE,9,38,20
India,Madhya Pradesh,Ujjain,"Mahakaleshwar Temple, Ujjain - MPPCB",14-02-2024 00:00:00,23.182719 ,75.768218 ,PM10,71,132,101
India,Madhya Pradesh,Ujjain,"Mahakaleshwar Temple, Ujjain - MPPCB",14-02-2024 00:00:00,23.182719 ,75.768218 ,OZONE,83,141,121
India,Maharashtra,Ahmednagar,"Tarakpur, Ahmednagar - MPCB",14-02-2024 00:00:00,19.10122,74.73339,NO2,35,166,81
India,Maharashtra,Ahmednagar,"Tarakpur, Ahmednagar - MPCB",14-02-2024 00:00:00,19.10122,74.73339,CO,8,154,76
India,Maharashtra,Akola,"Ramdaspeth, Akola - MPCB",14-02-2024 00:00:00,20.719516,77.000253,PM10,108,472,158
India,Maharashtra,Akola,"Ramdaspeth, Akola - MPCB",14-02-2024 00:00:00,20.719516,77.000253,NO2,14,87,29
India,Maharashtra,Amravati,"Shivneri Colony, Amravati - MPCB",14-02-2024 00:00:00,20.9402359,77.7895248,NH3,1,2,2
India,Maharashtra,Amravati,"Shivneri Colony, Amravati - MPCB",14-02-2024 00:00:00,20.9402359,77.7895248,CO,16,64,42
India,Maharashtra,Amravati,"Shri Shivaji Science College, Amaravati - MPCB",14-02-2024 00:00:00,20.939198,77.765701,NO2,11,110,36
India,Maharashtra,Aurangabad,"MIDC Chilkalthana, Aurangabad - MPCB",14-02-2024 00:00:00,19.875620,75.387310,NO2,8,86,40
India,Maharashtra,Aurangabad,"Rachnakar Colony, Aurangabad - MPCB",14-02-2024 00:00:00,19.863756,75.321188,PM2.5,62,310,203
India,Maharashtra,Aurangabad,"Rachnakar Colony, Aurangabad - MPCB",14-02-2024 00:00:00,19.863756,75.321188,PM10,97,500,208
India,Maharashtra,Aurangabad,"Rachnakar Colony, Aurangabad - MPCB",14-02-2024 00:00:00,19.863756,75.321188,NH3,1,1,1
India,Maharashtra,Badlapur,"Katrap, Badlapur - MPCB",14-02-2024 00:00:00,19.16485,73.23409,NO2,2,68,47
India,Maharashtra,Badlapur,"Katrap, Badlapur - MPCB",14-02-2024 00:00:00,19.16485,73.23409,NH3,2,8,4
India,Maharashtra,Badlapur,"Katrap, Badlapur - MPCB",14-02-2024 00:00:00,19.16485,73.23409,SO2,10,54,25
India,Maharashtra,Belapur,"CBD Belapur, Belapur - MPCB",14-02-2024 00:00:00,19.0243902,73.0406721,PM10,91,132,109
India,Maharashtra,Bhiwandi,"Gokul Nagar, Bhiwandi - MPCB",14-02-2024 00:00:00,19.309073,73.057223,CO,62,104,83
India,Maharashtra,Boisar,"Khaira, Boisar - MPCB",14-02-2024 00:00:00,19.786089,72.757971,NO2,13,31,21
India,Maharashtra,Boisar,"Khaira, Boisar - MPCB",14-02-2024 00:00:00,19.786089,72.757971,SO2,1,76,20
India,Maharashtra,Chandrapur,"Chauhan Colony, Chandrapur - MPCB",14-02-2024 00:00:00,19.962900,79.298714,PM2.5,NA,NA,NA
India,Maharashtra,Chandrapur,"MIDC Khutala, Chandrapur - MPCB",14-02-2024 00:00:00,19.9775302,79.2337086,CO,16,63,26
India,Maharashtra,Dhule,"Deopur, Dhule - MPCB",14-02-2024 00:00:00,20.918946,74.776388,NO2,NA,NA,NA
India,Maharashtra,Dhule,"Deopur, Dhule - MPCB",14-02-2024 00:00:00,20.918946,74.776388,OZONE,NA,NA,NA
India,Maharashtra,Jalna,"Old MIDC, Jalna - MPCB",14-02-2024 00:00:00,19.854616,75.905894,SO2,7,9,9
India,Maharashtra,Kalyan,"Khadakpada, Kalyan - MPCB",14-02-2024 00:00:00,19.25292,73.142019,OZONE,8,37,25
India,Maharashtra,Kolhapur,"Shivaji University, Kolhapur - MPCB",14-02-2024 00:00:00,16.6870449,74.2505872,NO2,31,60,43
India,Maharashtra,Kolhapur,"Sinchan Bhavan, Kolhapur - MPCB",14-02-2024 00:00:00,16.7143745,74.2426398,PM2.5,91,339,232
India,Maharashtra,Kolhapur,"Sinchan Bhavan, Kolhapur - MPCB",14-02-2024 00:00:00,16.7143745,74.2426398,NO2,27,74,46
India,Maharashtra,Latur,"Sawe Wadi, Latur - MPCB",14-02-2024 00:00:00,18.39963,76.57452,PM2.5,58,130,86
India,Maharashtra,Latur,"Sawe Wadi, Latur - MPCB",14-02-2024 00:00:00,18.39963,76.57452,OZONE,3,62,29
India,Maharashtra,Mahad,"Kamble Tarf Birwadi, Mahad - MPCB",14-02-2024 00:00:00,18.1023399,73.4783687,OZONE,17,60,34
India,Maharashtra,Malegaon,"Mahesh Nagar, Malegaon - MPCB",14-02-2024 00:00:00,20.555712,74.529236,PM10,67,241,133
India,Maharashtra,Malegaon,"Mahesh Nagar, Malegaon - MPCB",14-02-2024 00:00:00,20.555712,74.529236,NO2,5,40,13
India,Maharashtra,Malegaon,"Mahesh Nagar, Malegaon - MPCB",14-02-2024 00:00:00,20.555712,74.529236,CO,49,51,50
India,Maharashtra,Malegaon,"Mahesh Nagar, Malegaon - MPCB",14-02-2024 00:00:00,20.555712,74.529236,OZONE,28,63,60
India,Maharashtra,Mira-Bhayandar,"Bhayandar West, Mira-Bhayandar - MPCB",14-02-2024 00:00:00,19.296481,72.840923,OZONE,1,65,48
India,Maharashtra,Mumbai,"Bandra Kurla Complex, Mumbai - MPCB",14-02-2024 00:00:00,19.065931,72.862131,NO2,19,69,47
India,Maharashtra,Mumbai,"Borivali East, Mumbai - IITM",14-02-2024 00:00:00,19.23241,72.86895,PM10,83,155,118
India,Maharashtra,Mumbai,"Borivali East, Mumbai - MPCB",14-02-2024 00:00:00,19.2243333,72.8658113,NH3,1,2,2
India,Maharashtra,Mumbai,"Byculla, Mumbai - BMC",14-02-2024 00:00:00,18.9767,72.8380,PM2.5,71,95,83
India,Maharashtra,Mumbai,"Byculla, Mumbai - BMC",14-02-2024 00:00:00,18.9767,72.8380,NO2,29,97,57
India,Maharashtra,Mumbai,"Byculla, Mumbai - BMC",14-02-2024 00:00:00,18.9767,72.8380,CO,19,46,25
India,Maharashtra,Mumbai,"Chakala-Andheri East, Mumbai - IITM",14-02-2024 00:00:00,19.11074,72.86084,PM10,90,118,106
India,Maharashtra,Mumbai,"Chembur, Mumbai - MPCB",14-02-2024 00:00:00,19.0364585,72.8954371,CO,16,62,33
India,Maharashtra,Mumbai,"Chhatrapati Shivaji Intl. Airport (T2), Mumbai - MPCB",14-02-2024 00:00:00,19.10078,72.87462,SO2,21,28,24
India,Maharashtra,Mumbai,"Chhatrapati Shivaji Intl. Airport (T2), Mumbai - MPCB",14-02-2024 00:00:00,19.10078,72.87462,CO,57,101,68
India,Maharashtra,Mumbai,"Colaba, Mumbai - MPCB",14-02-2024 00:00:00,18.910000,72.820000,NO2,NA,NA,NA
India,Maharashtra,Mumbai,"Colaba, Mumbai - MPCB",14-02-2024 00:00:00,18.910000,72.820000,OZONE,9,10,10
India,Maharashtra,Mumbai,"Ghatkopar, Mumbai - BMC",14-02-2024 00:00:00,19.083694,72.920967,SO2,1,4,2
India,Maharashtra,Mumbai,"Kandivali West, Mumbai - BMC",14-02-2024 00:00:00,19.215859,72.831718,NO2,19,73,37
India,Maharashtra,Mumbai,"Kherwadi_Bandra East, Mumbai - MPCB",14-02-2024 00:00:00,19.0632143,72.8456324,PM2.5,72,126,94
India,Maharashtra,Mumbai,"Kherwadi_Bandra East, Mumbai - MPCB",14-02-2024 00:00:00,19.0632143,72.8456324,NO2,21,116,65
India,Maharashtra,Mumbai,"Kherwadi_Bandra East, Mumbai - MPCB",14-02-2024 00:00:00,19.0632143,72.8456324,OZONE,1,49,35
India,Maharashtra,Mumbai,"Kurla, Mumbai - MPCB",14-02-2024 00:00:00,19.0863,72.8888,PM2.5,72,224,110
India,Maharashtra,Mumbai,"Kurla, Mumbai - MPCB",14-02-2024 00:00:00,19.0863,72.8888,SO2,32,32,32
India,Maharashtra,Mumbai,"Malad West, Mumbai - IITM",14-02-2024 00:00:00,19.19709,72.82204,NO2,27,49,36
India,Maharashtra,Mumbai,"Malad West, Mumbai - IITM",14-02-2024 00:00:00,19.19709,72.82204,SO2,2,22,10
India,Maharashtra,Mumbai,"Malad West, Mumbai - IITM",14-02-2024 00:00:00,19.19709,72.82204,CO,12,80,29
India,Maharashtra,Mumbai,"Mazgaon, Mumbai - IITM",14-02-2024 00:00:00,18.96702,72.84214,PM2.5,116,332,182
India,Maharashtra,Mumbai,"Mazgaon, Mumbai - IITM",14-02-2024 00:00:00,18.96702,72.84214,OZONE,10,190,99
India,Maharashtra,Mumbai,"Mindspace-Malad West, Mumbai - MPCB",14-02-2024 00:00:00,19.1878657,72.8304069,NO2,27,100,52
India,Maharashtra,Mumbai,"Mulund West, Mumbai - MPCB",14-02-2024 00:00:00,19.1750,72.9419,PM2.5,27,87,47
India,Maharashtra,Mumbai,"Mulund West, Mumbai - MPCB",14-02-2024 00:00:00,19.1750,72.9419,NH3,9,11,10
India,Maharashtra,Mumbai,"Mulund West, Mumbai - MPCB",14-02-2024 00:00:00,19.1750,72.9419,OZONE,7,7,7
India,Maharashtra,Mumbai,"Powai, Mumbai - MPCB",14-02-2024 00:00:00,19.137500,72.915056,PM10,58,138,100
India,Maharashtra,Mumbai,"Powai, Mumbai - MPCB",14-02-2024 00:00:00,19.137500,72.915056,CO,36,44,41
India,Maharashtra,Mumbai,"Powai, Mumbai - MPCB",14-02-2024 00:00:00,19.137500,72.915056,OZONE,21,61,40
India,Maharashtra,Mumbai,"Sewri, Mumbai - BMC",14-02-2024 00:00:00,19.000084,72.856730,PM2.5,NA,NA,NA
India,Maharashtra,Mumbai,"Sewri, Mumbai - BMC",14-02-2024 00:00:00,19.000084,72.856730,NH3,NA,NA,NA
India,Maharashtra,Mumbai,"Sewri, Mumbai - BMC",14-02-2024 00:00:00,19.000084,72.856730,CO,14,65,27
India,Maharashtra,Mumbai,"Shivaji Nagar, Mumbai - BMC",14-02-2024 00:00:00,19.060498,72.923356,SO2,8,30,17
India,Maharashtra,Mumbai,"Sion, Mumbai - MPCB",14-02-2024 00:00:00,19.047000,72.874600,PM2.5,57,128,77
India,Maharashtra,Mumbai,"Sion, Mumbai - MPCB",14-02-2024 00:00:00,19.047000,72.874600,NO2,17,99,53
India,Maharashtra,Mumbai,"Sion, Mumbai - MPCB",14-02-2024 00:00:00,19.047000,72.874600,CO,12,72,22
India,Maharashtra,Mumbai,"Vasai West, Mumbai - MPCB",14-02-2024 00:00:00,19.383200,72.820400,PM10,30,297,104
India,Maharashtra,Mumbai,"Vile Parle West, Mumbai - MPCB",14-02-2024 00:00:00,19.10861,72.83622,PM10,63,108,80
India,Maharashtra,Mumbai,"Vile Parle West, Mumbai - MPCB",14-02-2024 00:00:00,19.10861,72.83622,OZONE,5,6,5
India,Maharashtra,Mumbai,"Worli, Mumbai - MPCB",14-02-2024 00:00:00,18.9936162,72.8128113,OZONE,7,12,9
India,Maharashtra,Nagpur,"Ambazari, Nagpur - MPCB",14-02-2024 00:00:00,21.121801,79.04952,CO,16,84,54
India,Maharashtra,Nagpur,"Opp GPO Civil Lines, Nagpur - MPCB",14-02-2024 00:00:00,21.152875,79.0517531,PM2.5,41,172,95
India,Maharashtra,Nagpur,"Opp GPO Civil Lines, Nagpur - MPCB",14-02-2024 00:00:00,21.152875,79.0517531,OZONE,2,23,10
India,Maharashtra,Nagpur,"Ram Nagar, Nagpur - MPCB",14-02-2024 00:00:00,21.143383,79.048912,NH3,3,8,6
India,Maharashtra,Nagpur,"Ram Nagar, Nagpur - MPCB",14-02-2024 00:00:00,21.143383,79.048912,OZONE,4,61,31
India,Maharashtra,Nanded,"Sneh Nagar, Nanded - MPCB",14-02-2024 00:00:00,19.173852,77.296291,NH3,2,3,2
India,Maharashtra,Nashik,"Hirawadi, Nashik - MPCB",14-02-2024 00:00:00,20.021503,73.813844,NO2,3,73,23
India,Maharashtra,Nashik,"MIDC Ambad, Nashik - MPCB",14-02-2024 00:00:00,19.950220,73.731480,CO,17,74,30
India,Maharashtra,Nashik,"Pandav Nagari, Nashik - MPCB",14-02-2024 00:00:00,19.9591346,73.7788008,SO2,4,22,10
India,Maharashtra,Navi Mumbai,"Kopripada-Vashi, Navi Mumbai - MPCB",14-02-2024 00:00:00,19.090337,73.014232,SO2,13,41,28
India,Maharashtra,Navi Mumbai,"Kopripada-Vashi, Navi Mumbai - MPCB",14-02-2024 00:00:00,19.090337,73.014232,OZONE,12,117,57
India,Maharashtra,Navi Mumbai,"Mahape, Navi Mumbai - MPCB",14-02-2024 00:00:00,19.1135051,73.008978,PM2.5,27,227,69
India,Maharashtra,Navi Mumbai,"Mahape, Navi Mumbai - MPCB",14-02-2024 00:00:00,19.1135051,73.008978,CO,30,60,40
India,Maharashtra,Navi Mumbai,"Sanpada, Navi Mumbai - MPCB",14-02-2024 00:00:00,19.0575752,73.0151367,PM10,NA,NA,NA
India,Maharashtra,Parbhani,"Masoom Colony, Parbhani - MPCB",14-02-2024 00:00:00,19.265594,76.761463,OZONE,21,45,41
India,Maharashtra,Pimpri-Chinchwad,"Gavalinagar, Pimpri Chinchwad - MPCB",14-02-2024 00:00:00,18.63673,73.82487,PM2.5,30,230,122
India,Maharashtra,Pimpri-Chinchwad,"Gavalinagar, Pimpri Chinchwad - MPCB",14-02-2024 00:00:00,18.63673,73.82487,PM10,51,162,111
India,Maharashtra,Pimpri-Chinchwad,"Gavalinagar, Pimpri Chinchwad - MPCB",14-02-2024 00:00:00,18.63673,73.82487,NO2,19,79,51
India,Maharashtra,Pimpri-Chinchwad,"Gavalinagar, Pimpri Chinchwad - MPCB",14-02-2024 00:00:00,18.63673,73.82487,SO2,5,34,16
India,Maharashtra,Pimpri-Chinchwad,"Park Street Wakad, Pimpri Chinchwad - MPCB",14-02-2024 00:00:00,18.59051,73.77946,SO2,5,24,13
India,Maharashtra,Pune,"Alandi, Pune - IITM",14-02-2024 00:00:00,18.675076,73.892743,NO2,10,23,17
India,Maharashtra,Pune,"Karve Road, Pune - MPCB",14-02-2024 00:00:00,18.5011743,73.8165527,OZONE,1,19,5
India,Maharashtra,Pune,"Katraj Dairy, Pune - MPCB",14-02-2024 00:00:00,18.454450,73.854155,OZONE,11,31,25
India,Maharashtra,Pune,"Mhada Colony, Pune - IITM",14-02-2024 00:00:00,18.573040,73.927715,NO2,1,23,12
India,Maharashtra,Pune,"Revenue Colony-Shivajinagar, Pune - IITM",14-02-2024 00:00:00,18.530085,73.849598,PM2.5,35,338,123
India,Maharashtra,Pune,"Savitribai Phule Pune University, Pune - MPCB",14-02-2024 00:00:00,18.547056,73.826908,SO2,1,69,9
India,Maharashtra,Pune,"Savitribai Phule Pune University, Pune - MPCB",14-02-2024 00:00:00,18.547056,73.826908,CO,17,100,42
India,Maharashtra,Pune,"Transport Nagar-Nigdi, Pune - IITM",14-02-2024 00:00:00,18.664282,73.763966,PM2.5,13,267,74
India,Maharashtra,Pune,"Transport Nagar-Nigdi, Pune - IITM",14-02-2024 00:00:00,18.664282,73.763966,NO2,16,92,48
India,Maharashtra,Sangli,"Vijay Nagar, Sangli - MPCB",14-02-2024 00:00:00, 16.5038,74.3623,PM2.5,61,324,208
India,Maharashtra,Sangli,"Vijay Nagar, Sangli - MPCB",14-02-2024 00:00:00, 16.5038,74.3623,SO2,1,22,10
India,Maharashtra,Solapur,"Dnyaneshwar Nagar, Solapur - MPCB",14-02-2024 00:00:00,17.6336264,75.9132495,NH3,11,25,17
India,Maharashtra,Solapur,"Dnyaneshwar Nagar, Solapur - MPCB",14-02-2024 00:00:00,17.6336264,75.9132495,OZONE,39,99,67
India,Maharashtra,Solapur,"Solapur, Solapur - MPCB",14-02-2024 00:00:00,17.6599188,75.9063906,NO2,55,55,55
India,Maharashtra,Solapur,"Solapur, Solapur - MPCB",14-02-2024 00:00:00,17.6599188,75.9063906,SO2,31,39,35
India,Maharashtra,Thane,"Kasarvadavali, Thane - MPCB",14-02-2024 00:00:00,19.26777,72.97182,NO2,33,139,69
India,Maharashtra,Thane,"Pimpleshwar Mandir, Thane - MPCB",14-02-2024 00:00:00,19.192056,72.9585188,PM10,5,495,187
India,Maharashtra,Thane,"Pimpleshwar Mandir, Thane - MPCB",14-02-2024 00:00:00,19.192056,72.9585188,NO2,7,16,12
India,Maharashtra,Thane,"Pimpleshwar Mandir, Thane - MPCB",14-02-2024 00:00:00,19.192056,72.9585188,NH3,3,3,3
India,Maharashtra,Thane,"Pimpleshwar Mandir, Thane - MPCB",14-02-2024 00:00:00,19.192056,72.9585188,SO2,12,125,41
India,Maharashtra,Thane,"Pimpleshwar Mandir, Thane - MPCB",14-02-2024 00:00:00,19.192056,72.9585188,CO,50,118,80
India,Maharashtra,Thane,"Pimpleshwar Mandir, Thane - MPCB",14-02-2024 00:00:00,19.192056,72.9585188,OZONE,3,55,35
India,Maharashtra,Thane,"Upvan Fort, Thane - MPCB",14-02-2024 00:00:00,19.222279,72.957979,PM2.5,67,181,105
India,Maharashtra,Thane,"Upvan Fort, Thane - MPCB",14-02-2024 00:00:00,19.222279,72.957979,SO2,13,47,25
India,Maharashtra,Ulhasnagar,"Sidhi Vinayak Nagar, Ulhasnagar - MPCB",14-02-2024 00:00:00,19.235581,73.159121,PM2.5,80,304,191
India,Maharashtra,Ulhasnagar,"Sidhi Vinayak Nagar, Ulhasnagar - MPCB",14-02-2024 00:00:00,19.235581,73.159121,NH3,NA,NA,NA
India,Maharashtra,Ulhasnagar,"Sidhi Vinayak Nagar, Ulhasnagar - MPCB",14-02-2024 00:00:00,19.235581,73.159121,CO,4,90,30
India,Maharashtra,Virar,"Bolinj, Virar - MPCB",14-02-2024 00:00:00,19.4458210,72.7988231,NO2,17,62,30
India,Maharashtra,Virar,"Bolinj, Virar - MPCB",14-02-2024 00:00:00,19.4458210,72.7988231,OZONE,10,119,96
India,Manipur,Imphal,"DM College of Science, Imphal - Manipur PCB",14-02-2024 00:00:00,24.8207389,93.9423085,PM2.5,12,32,22
India,Mizoram,Aizawl,"Sikulpuikawn, Aizawl - Mizoram PCB",14-02-2024 00:00:00,23.7176342,92.7192841,SO2,2,2,2
India,Nagaland,Kohima,"PWD Juction, Kohima - NPCB",14-02-2024 00:00:00,25.6635413,94.0989878,NO2,3,4,3
India,Odisha,Angul,"Hakimapada, Angul - OSPCB",14-02-2024 00:00:00,20.832874,85.104082,NO2,9,29,16
India,Odisha,Balasore,"Kalidaspur, Balasore - OSPCB",14-02-2024 00:00:00,21.51161,86.89088,CO,58,120,109
India,Odisha,Barbil,"Forest Office, Barbil - OSPCB",14-02-2024 00:00:00,22.1166054,85.3945546,SO2,4,49,12
India,Odisha,Baripada,"Meher Colony, Baripada - OSPCB",14-02-2024 00:00:00,21.941841,86.728318,PM2.5,207,307,247
India,Odisha,Baripada,"Meher Colony, Baripada - OSPCB",14-02-2024 00:00:00,21.941841,86.728318,PM10,109,274,142
India,Odisha,Baripada,"Meher Colony, Baripada - OSPCB",14-02-2024 00:00:00,21.941841,86.728318,NO2,NA,NA,NA
India,Odisha,Baripada,"Meher Colony, Baripada - OSPCB",14-02-2024 00:00:00,21.941841,86.728318,NH3,4,4,4
India,Odisha,Baripada,"Meher Colony, Baripada - OSPCB",14-02-2024 00:00:00,21.941841,86.728318,CO,31,74,58
India,Odisha,Bhubaneswar,"Lingraj Mandir, Bhubaneswar - OSPCB",14-02-2024 00:00:00,20.240790,85.836784,SO2,4,11,7
India,Odisha,Bhubaneswar,"Patia, Bhubaneswar - OSPCB",14-02-2024 00:00:00,20.34652,85.81630,PM2.5,78,263,152
India,Odisha,Bhubaneswar,"Patia, Bhubaneswar - OSPCB",14-02-2024 00:00:00,20.34652,85.81630,PM10,101,153,125
India,Odisha,Bhubaneswar,"Patia, Bhubaneswar - OSPCB",14-02-2024 00:00:00,20.34652,85.81630,NH3,3,7,5
India,Odisha,Bhubaneswar,"Patia, Bhubaneswar - OSPCB",14-02-2024 00:00:00,20.34652,85.81630,CO,6,88,76
India,Odisha,Bileipada,"Tata Township, Bileipada - OSPCB",14-02-2024 00:00:00,22.06156703,85.47409613,NH3,NA,NA,NA
India,Odisha,Brajrajnagar,"GM Office, Brajrajnagar - OSPCB",14-02-2024 00:00:00,21.8004996,83.8396977,CO,49,102,73
India,Odisha,Byasanagar,"Ferro Chrome Colony, Byasanagar - OSPCB",14-02-2024 00:00:00,20.94185,86.11510,PM10,98,179,125
India,Odisha,Byasanagar,"Ferro Chrome Colony, Byasanagar - OSPCB",14-02-2024 00:00:00,20.94185,86.11510,CO,47,118,95
India,Odisha,Cuttack,"CDA Area, Cuttack - OSPCB",14-02-2024 00:00:00,20.48891     ,85.84768     ,NO2,17,45,27
India,Odisha,Cuttack,"CDA Area, Cuttack - OSPCB",14-02-2024 00:00:00,20.48891     ,85.84768     ,NH3,3,5,4
India,Odisha,Nayagarh,"Dabuna, Nayagarh - OSPCB",14-02-2024 00:00:00,21.847279,85.416905,PM2.5,75,233,124
India,Odisha,Nayagarh,"Dabuna, Nayagarh - OSPCB",14-02-2024 00:00:00,21.847279,85.416905,NH3,1,5,4
India,Odisha,Rairangpur,"Divisional Forest Office, Rairangpur - OSPCB",14-02-2024 00:00:00,22.265816,86.174829,NH3,5,5,5
India,Odisha,Rourkela,"Fertilizer Township, Rourkela - OSPCB",14-02-2024 00:00:00,22.18972222,84.86277778,CO,12,24,18
India,Odisha,Rourkela,"Raghunathpali, Rourkela - OSPCB",14-02-2024 00:00:00,22.220833,84.809444,NO2,19,87,48
India,Odisha,Rourkela,"Raghunathpali, Rourkela - OSPCB",14-02-2024 00:00:00,22.220833,84.809444,NH3,1,3,2
India,Odisha,Rourkela,"Raghunathpali, Rourkela - OSPCB",14-02-2024 00:00:00,22.220833,84.809444,SO2,4,12,7
India,Odisha,Suakati,"OMC Colony, Suakati - OSPCB",14-02-2024 00:00:00,21.606865,85.510538,NO2,NA,NA,NA
India,Odisha,Talcher,"Talcher Coalfields,Talcher - OSPCB",14-02-2024 00:00:00,20.9360711,85.1707021,NO2,31,37,34
India,Odisha,Talcher,"Talcher Coalfields,Talcher - OSPCB",14-02-2024 00:00:00,20.9360711,85.1707021,NH3,7,9,7
India,Odisha,Talcher,"Talcher Coalfields,Talcher - OSPCB",14-02-2024 00:00:00,20.9360711,85.1707021,SO2,11,99,28
India,Punjab,Bathinda,"Hardev Nagar, Bathinda - PPCB",14-02-2024 00:00:00,30.233011,74.907758,SO2,5,113,46
India,Punjab,Jalandhar,"Civil Line, Jalandhar - PPCB",14-02-2024 00:00:00,31.321907,75.578914,SO2,1,11,4
India,Punjab,Jalandhar,"Civil Line, Jalandhar - PPCB",14-02-2024 00:00:00,31.321907,75.578914,CO,12,100,42
India,Punjab,Jalandhar,"Civil Line, Jalandhar - PPCB",14-02-2024 00:00:00,31.321907,75.578914,OZONE,10,65,40
India,Punjab,Khanna,"Kalal Majra, Khanna - PPCB",14-02-2024 00:00:00,30.736056 ,76.209694,PM2.5,52,149,98
India,Punjab,Khanna,"Kalal Majra, Khanna - PPCB",14-02-2024 00:00:00,30.736056 ,76.209694,NH3,14,17,15
India,Punjab,Ludhiana,"Punjab Agricultural University, Ludhiana - PPCB",14-02-2024 00:00:00,30.9028,75.8086,PM10,80,169,132
India,Punjab,Mandi Gobindgarh,"RIMT University, Mandi Gobindgarh - PPCB",14-02-2024 00:00:00,30.649961,76.331442,CO,6,47,32
India,Punjab,Patiala,"Model Town, Patiala - PPCB",14-02-2024 00:00:00,30.349388,76.366642,NO2,18,25,22
India,Punjab,Patiala,"Model Town, Patiala - PPCB",14-02-2024 00:00:00,30.349388,76.366642,CO,34,96,56
India,Punjab,Rupnagar,"Ratanpura, Rupnagar - Ambuja Cements",14-02-2024 00:00:00,31.0325454,76.5623046,PM2.5,41,175,95
India,Punjab,Rupnagar,"Ratanpura, Rupnagar - Ambuja Cements",14-02-2024 00:00:00,31.0325454,76.5623046,CO,35,85,63
India,Rajasthan,Ajmer,"Civil Lines,  Ajmer - RSPCB",14-02-2024 00:00:00,26.470859,74.646594,PM2.5,60,123,87
India,Rajasthan,Ajmer,"Civil Lines,  Ajmer - RSPCB",14-02-2024 00:00:00,26.470859,74.646594,PM10,82,141,106
India,Rajasthan,Alwar,"Moti Doongri, Alwar - RSPCB",14-02-2024 00:00:00,27.554793,76.611536,NH3,6,11,8
India,Rajasthan,Alwar,"Moti Doongri, Alwar - RSPCB",14-02-2024 00:00:00,27.554793,76.611536,CO,10,104,63
India,Rajasthan,Banswara,"Rati Talai, Banswara - RSPCB",14-02-2024 00:00:00,23.555190,74.440010,SO2,NA,NA,NA
India,Rajasthan,Baran,"Bamboliya, Baran - RSPCB",14-02-2024 00:00:00,25.106006,76.469948,NH3,NA,NA,NA
India,Rajasthan,Baran,"Bamboliya, Baran - RSPCB",14-02-2024 00:00:00,25.106006,76.469948,CO,NA,NA,NA
India,Rajasthan,Bhiwadi,"RIICO Ind. Area III, Bhiwadi - RSPCB",14-02-2024 00:00:00,28.194909,76.862296,PM10,152,249,201
India,Rajasthan,Bhiwadi,"RIICO Ind. Area III, Bhiwadi - RSPCB",14-02-2024 00:00:00,28.194909,76.862296,NO2,15,44,29
India,Rajasthan,Bhiwadi,"RIICO Ind. Area III, Bhiwadi - RSPCB",14-02-2024 00:00:00,28.194909,76.862296,OZONE,29,35,31
India,Rajasthan,Jaipur,"Adarsh Nagar, Jaipur - RSPCB",14-02-2024 00:00:00,26.902909,75.836858,PM2.5,NA,NA,NA
India,Rajasthan,Jaipur,"Shastri Nagar, Jaipur - RSPCB",14-02-2024 00:00:00,26.9502929,75.730943,NH3,7,26,13
India,Rajasthan,Jodhpur,"Collectorate, Jodhpur - RSPCB",14-02-2024 00:00:00,26.268249,73.0193853,SO2,1,53,19
India,Rajasthan,Kota,"Shrinath Puram, Kota - RSPCB",14-02-2024 00:00:00,25.14389,75.821256,PM2.5,96,279,162
India,Rajasthan,Rajsamand,"Dhoinda, Rajsamand - RSPCB",14-02-2024 00:00:00,25.036360,73.883502,NH3,NA,NA,NA
India,Rajasthan,Sawai Madhopur,"Sahu Nagar, Sawai Madhopur - RSPCB",14-02-2024 00:00:00,26.031443,76.359327,CO,NA,NA,NA
India,Rajasthan,Sawai Madhopur,"Sahu Nagar, Sawai Madhopur - RSPCB",14-02-2024 00:00:00,26.031443,76.359327,OZONE,NA,NA,NA
India,Rajasthan,Udaipur,"Ashok Nagar, Udaipur - RSPCB",14-02-2024 00:00:00,24.5886166,73.6321397,PM2.5,123,308,224
India,Rajasthan,Udaipur,"Ashok Nagar, Udaipur - RSPCB",14-02-2024 00:00:00,24.5886166,73.6321397,NH3,4,7,5
India,Rajasthan,Udaipur,"Ashok Nagar, Udaipur - RSPCB",14-02-2024 00:00:00,24.5886166,73.6321397,SO2,9,34,15
India,Rajasthan,Udaipur,"Ashok Nagar, Udaipur - RSPCB",14-02-2024 00:00:00,24.5886166,73.6321397,CO,34,105,83
India,Sikkim,Gangtok,"Zero Point GICI, Gangtok - SSPCB",14-02-2024 00:00:00,27.338530,88.614099,OZONE,14,80,45
India,TamilNadu,Chengalpattu,"Crescent University, Chengalpattu - TNPCB",14-02-2024 00:00:00,12.8777316,80.0834807,CO,26,30,28
India,TamilNadu,Chennai,"Arumbakkam, Chennai - TNPCB",14-02-2024 00:00:00,13.0664,80.2112 ,PM2.5,26,88,45
India,TamilNadu,Chennai,"Arumbakkam, Chennai - TNPCB",14-02-2024 00:00:00,13.0664,80.2112 ,NO2,10,37,21
India,TamilNadu,Chennai,"Arumbakkam, Chennai - TNPCB",14-02-2024 00:00:00,13.0664,80.2112 ,NH3,1,4,3
India,TamilNadu,Chennai,"Gandhi Nagar_Ennore, Chennai - TNPCB",14-02-2024 00:00:00,13.218341,80.32027,PM2.5,NA,NA,NA
India,TamilNadu,Chennai,"Gandhi Nagar_Ennore, Chennai - TNPCB",14-02-2024 00:00:00,13.218341,80.32027,NO2,NA,NA,NA
India,TamilNadu,Chennai,"Gandhi Nagar_Ennore, Chennai - TNPCB",14-02-2024 00:00:00,13.218341,80.32027,SO2,NA,NA,NA
India,TamilNadu,Chennai,"Kodungaiyur, Chennai - TNPCB",14-02-2024 00:00:00,13.1278,80.2642,PM10,41,178,83
India,TamilNadu,Chennai,"Perungudi, Chennai - TNPCB",14-02-2024 00:00:00,12.9533,80.2357,NO2,2,14,5
India,TamilNadu,Chennai,"Perungudi, Chennai - TNPCB",14-02-2024 00:00:00,12.9533,80.2357,NH3,1,3,2
India,TamilNadu,Chennai,"Velachery Res. Area, Chennai - CPCB",14-02-2024 00:00:00,13.0052189,80.2398125,PM2.5,35,76,50
India,TamilNadu,Chennai,"Velachery Res. Area, Chennai - CPCB",14-02-2024 00:00:00,13.0052189,80.2398125,SO2,26,45,28
India,TamilNadu,Chennai,"Velachery Res. Area, Chennai - CPCB",14-02-2024 00:00:00,13.0052189,80.2398125,CO,18,130,106
India,TamilNadu,Chennai,"Velachery Res. Area, Chennai - CPCB",14-02-2024 00:00:00,13.0052189,80.2398125,OZONE,6,25,21
India,TamilNadu,Coimbatore,"PSG College of Arts and Science, Coimbatore - TNPCB",14-02-2024 00:00:00,11.0328,77.0349,PM2.5,30,137,64
India,TamilNadu,Cuddalore,"Kudikadu, Cuddalore - TNPCB",14-02-2024 00:00:00,11.6829898,79.7532099,NH3,4,8,5
India,TamilNadu,Cuddalore,"Semmandalam, Cuddalore - TNPCB",14-02-2024 00:00:00,11.7637683,79.7499835,NO2,6,36,16
India,TamilNadu,Gummidipoondi,"Anthoni Pillai Nagar, Gummidipoondi - TNPCB",14-02-2024 00:00:00,13.4127,80.1081,NO2,10,14,12
India,TamilNadu,Gummidipoondi,"Anthoni Pillai Nagar, Gummidipoondi - TNPCB",14-02-2024 00:00:00,13.4127,80.1081,SO2,2,38,16
India,TamilNadu,Kanchipuram,"Kilambi, Kanchipuram - TNPCB",14-02-2024 00:00:00,12.864618,79.659968,CO,1,198,8
India,TamilNadu,Ooty,"Bombay Castel, Ooty - TNPCB",14-02-2024 00:00:00,11.4068288,76.7138973,SO2,13,14,13
India,TamilNadu,Palkalaiperur,"Bharathidasan University, Palkalaiperur - TNPCB",14-02-2024 00:00:00,10.681158,78.741746,PM2.5,22,38,29
India,TamilNadu,Ramanathapuram,"Chalai Bazaar, Ramanathapuram - TNPCB",14-02-2024 00:00:00,9.36399,78.831977,PM2.5,20,40,30
India,TamilNadu,Thoothukudi,"Meelavittan, Thoothukudi - TNPCB",14-02-2024 00:00:00,8.816428 ,78.099039,PM10,25,68,47
India,TamilNadu,Thoothukudi,"Meelavittan, Thoothukudi - TNPCB",14-02-2024 00:00:00,8.816428 ,78.099039,OZONE,3,32,9
India,TamilNadu,Tirupur,"Kumaran College, Tirupur - TNPCB",14-02-2024 00:00:00,11.0973603,77.3228673,PM2.5,16,52,26
India,TamilNadu,Tirupur,"Kumaran College, Tirupur - TNPCB",14-02-2024 00:00:00,11.0973603,77.3228673,PM10,44,161,108
India,TamilNadu,Virudhunagar,"Collectorate Office, Virudhunagar - TNPCB",14-02-2024 00:00:00,9.559382,77.948828,PM2.5,NA,NA,NA
India,TamilNadu,Virudhunagar,"Collectorate Office, Virudhunagar - TNPCB",14-02-2024 00:00:00,9.559382,77.948828,CO,20,30,22
India,Telangana,Hyderabad,"Bollaram Industrial Area, Hyderabad - TSPCB",14-02-2024 00:00:00,17.540891,78.358528,SO2,13,19,16
India,Telangana,Hyderabad,"ECIL Kapra, Hyderabad - TSPCB",14-02-2024 00:00:00,17.470431,78.566959,NO2,7,10,8
India,Telangana,Hyderabad,"ECIL Kapra, Hyderabad - TSPCB",14-02-2024 00:00:00,17.470431,78.566959,SO2,1,10,4
India,Telangana,Hyderabad,"ICRISAT Patancheru, Hyderabad - TSPCB",14-02-2024 00:00:00,17.518400,78.278777,PM2.5,8,177,56
India,Telangana,Hyderabad,"ICRISAT Patancheru, Hyderabad - TSPCB",14-02-2024 00:00:00,17.518400,78.278777,CO,4,82,52
India,Telangana,Hyderabad,"ICRISAT Patancheru, Hyderabad - TSPCB",14-02-2024 00:00:00,17.518400,78.278777,OZONE,31,86,56
India,Telangana,Hyderabad,"IITH Kandi, Hyderabad - TSPCB",14-02-2024 00:00:00,17.585705,78.126199,NO2,NA,NA,NA
India,Telangana,Hyderabad,"Kokapet, Hyderabad - TSPCB",14-02-2024 00:00:00,17.393559,78.339194,NH3,NA,NA,NA
India,Telangana,Hyderabad,"Kokapet, Hyderabad - TSPCB",14-02-2024 00:00:00,17.393559,78.339194,SO2,NA,NA,NA
India,Telangana,Hyderabad,"Kompally Municipal Office, Hyderabad - TSPCB",14-02-2024 00:00:00,17.544899,78.486949,PM2.5,31,35,33
India,Telangana,Hyderabad,"Kompally Municipal Office, Hyderabad - TSPCB",14-02-2024 00:00:00,17.544899,78.486949,SO2,NA,NA,NA
India,Telangana,Hyderabad,"Nacharam_TSIIC IALA, Hyderabad - TSPCB",14-02-2024 00:00:00,17.429398,78.569354,CO,28,32,30
India,Telangana,Hyderabad,"Ramachandrapuram, Hyderabad - TSPCB",14-02-2024 00:00:00,17.528544,78.286195,PM10,NA,NA,NA
India,Telangana,Hyderabad,"Sanathnagar, Hyderabad - TSPCB",14-02-2024 00:00:00,17.4559458,78.4332152,CO,28,43,35
India,Telangana,Hyderabad,"Somajiguda, Hyderabad - TSPCB",14-02-2024 00:00:00,17.417094,78.457437,SO2,NA,NA,NA
India,Tripura,Agartala,"Bardowali, Agartala - Tripura SPCB",14-02-2024 00:00:00,23.8175497,91.2726974,NH3,4,8,5
India,Uttar_Pradesh,Agra,"Rohta, Agra - UPPCB",14-02-2024 00:00:00,27.106972,78.000111,PM10,45,250,90
India,Uttar_Pradesh,Agra,"Rohta, Agra - UPPCB",14-02-2024 00:00:00,27.106972,78.000111,NH3,NA,NA,NA
India,Uttar_Pradesh,Agra,"Rohta, Agra - UPPCB",14-02-2024 00:00:00,27.106972,78.000111,SO2,4,19,12
India,Uttar_Pradesh,Agra,"Rohta, Agra - UPPCB",14-02-2024 00:00:00,27.106972,78.000111,CO,8,34,16
India,Uttar_Pradesh,Agra,"Sector-3B Avas Vikas Colony, Agra - UPPCB",14-02-2024 00:00:00,27.19412,77.96237,PM10,66,115,91
India,Uttar_Pradesh,Agra,"Shahjahan Garden, Agra - UPPCB",14-02-2024 00:00:00,27.169338,78.03582,PM2.5,45,168,88
India,Uttar_Pradesh,Agra,"Shahjahan Garden, Agra - UPPCB",14-02-2024 00:00:00,27.169338,78.03582,SO2,31,45,40
India,Uttar_Pradesh,Agra,"Shastripuram, Agra - UPPCB",14-02-2024 00:00:00,27.19862,77.92066,PM10,89,148,111
India,Uttar_Pradesh,Agra,"Shastripuram, Agra - UPPCB",14-02-2024 00:00:00,27.19862,77.92066,OZONE,3,17,11
India,Uttar_Pradesh,Bareilly,"Civil Lines, Bareilly - UPPCB",14-02-2024 00:00:00,28.359581,79.414455,PM2.5,17,87,60
India,Uttar_Pradesh,Bareilly,"Civil Lines, Bareilly - UPPCB",14-02-2024 00:00:00,28.359581,79.414455,PM10,46,142,94
India,Uttar_Pradesh,Bareilly,"Civil Lines, Bareilly - UPPCB",14-02-2024 00:00:00,28.359581,79.414455,NO2,24,68,36
India,Uttar_Pradesh,Bareilly,"Civil Lines, Bareilly - UPPCB",14-02-2024 00:00:00,28.359581,79.414455,NH3,1,2,1
India,Uttar_Pradesh,Bareilly,"Civil Lines, Bareilly - UPPCB",14-02-2024 00:00:00,28.359581,79.414455,OZONE,1,18,8
India,Uttar_Pradesh,Bareilly,"Rajendra Nagar, Bareilly - UPPCB",14-02-2024 00:00:00,28.38910936,79.42963708,PM10,39,116,79
India,Uttar_Pradesh,Firozabad,"Nagla Bhau, Firozabad - UPPCB",14-02-2024 00:00:00,27.168897,78.376960,NH3,2,2,2
India,Uttar_Pradesh,Firozabad,"Vibhab Nagar, Firozabad - UPPCB",14-02-2024 00:00:00,27.1594,78.3953,NO2,NA,NA,NA
India,Uttar_Pradesh,Ghaziabad,"Indirapuram, Ghaziabad - UPPCB",14-02-2024 00:00:00,28.646233,77.358075,NO2,106,184,138
India,Uttar_Pradesh,Ghaziabad,"Indirapuram, Ghaziabad - UPPCB",14-02-2024 00:00:00,28.646233,77.358075,CO,46,168,166
India,Uttar_Pradesh,Ghaziabad,"Loni, Ghaziabad - UPPCB",14-02-2024 00:00:00,28.757294,77.278792,NH3,NA,NA,NA
India,Uttar_Pradesh,Ghaziabad,"Loni, Ghaziabad - UPPCB",14-02-2024 00:00:00,28.757294,77.278792,CO,43,125,80
India,Uttar_Pradesh,Ghaziabad,"Loni, Ghaziabad - UPPCB",14-02-2024 00:00:00,28.757294,77.278792,OZONE,1,131,57
India,Uttar_Pradesh,Ghaziabad,"Sanjay Nagar, Ghaziabad - UPPCB",14-02-2024 00:00:00,28.685382,77.453839,CO,36,130,91
India,Uttar_Pradesh,Ghaziabad,"Vasundhara, Ghaziabad - UPPCB",14-02-2024 00:00:00,28.6603346,77.3572563,NH3,11,22,16
India,Uttar_Pradesh,Gorakhpur,"Madan Mohan Malaviya University of Technology, Gorakhpur - UPPCB",14-02-2024 00:00:00,26.730136,83.433859,PM10,54,165,85
India,Uttar_Pradesh,Greater Noida,"Knowledge Park - III, Greater Noida - UPPCB",14-02-2024 00:00:00,28.47272,77.482000,PM2.5,264,456,369
India,Uttar_Pradesh,Greater Noida,"Knowledge Park - V, Greater Noida - UPPCB",14-02-2024 00:00:00,28.557054,77.453663,NO2,16,47,30
India,Uttar_Pradesh,Hapur,"Anand Vihar, Hapur - UPPCB",14-02-2024 00:00:00,28.725645,77.749675,PM10,125,365,230
India,Uttar_Pradesh,Hapur,"Anand Vihar, Hapur - UPPCB",14-02-2024 00:00:00,28.725645,77.749675,SO2,18,51,30
India,Uttar_Pradesh,Hapur,"Anand Vihar, Hapur - UPPCB",14-02-2024 00:00:00,28.725645,77.749675,CO,10,142,68
India,Uttar_Pradesh,Hapur,"Anand Vihar, Hapur - UPPCB",14-02-2024 00:00:00,28.725645,77.749675,OZONE,5,162,73
India,Uttar_Pradesh,Jhansi,"Shivaji Nagar, Jhansi - UPPCB",14-02-2024 00:00:00,25.4547,78.6039,NO2,16,23,21
India,Uttar_Pradesh,Kanpur,"FTI Kidwai Nagar, Kanpur - UPPCB",14-02-2024 00:00:00,26.428282,80.327067,PM2.5,11,135,65
India,Uttar_Pradesh,Kanpur,"FTI Kidwai Nagar, Kanpur - UPPCB",14-02-2024 00:00:00,26.428282,80.327067,PM10,10,140,74
India,Uttar_Pradesh,Kanpur,"FTI Kidwai Nagar, Kanpur - UPPCB",14-02-2024 00:00:00,26.428282,80.327067,NO2,16,36,17
India,Uttar_Pradesh,Kanpur,"NSI Kalyanpur, Kanpur - UPPCB",14-02-2024 00:00:00,26.509954,80.249612,NH3,1,2,2
India,Uttar_Pradesh,Khurja,"Kalindi Kunj, Khurja - UPPCB",14-02-2024 00:00:00,28.2348927,77.8683002,NO2,19,73,41
India,Uttar_Pradesh,Lucknow,"B R Ambedkar University, Lucknow - UPPCB",14-02-2024 00:00:00,26.766433,80.927299,PM10,69,162,98
India,Uttar_Pradesh,Lucknow,"Gomti Nagar, Lucknow - UPPCB",14-02-2024 00:00:00,26.868120,81.005119,PM2.5,13,104,44
India,Uttar_Pradesh,Lucknow,"Gomti Nagar, Lucknow - UPPCB",14-02-2024 00:00:00,26.868120,81.005119,OZONE,61,74,64
India,Uttar_Pradesh,Lucknow,"Kendriya Vidyalaya, Lucknow - CPCB",14-02-2024 00:00:00,26.906111,80.948222,PM10,100,154,119
India,Uttar_Pradesh,Lucknow,"Kendriya Vidyalaya, Lucknow - CPCB",14-02-2024 00:00:00,26.906111,80.948222,CO,28,76,49
India,Uttar_Pradesh,Lucknow,"Kukrail Picnic Spot-1, Lucknow - UPPCB",14-02-2024 00:00:00,26.90723,80.98579,CO,20,38,21
India,Uttar_Pradesh,Lucknow,"Kukrail Picnic Spot-1, Lucknow - UPPCB",14-02-2024 00:00:00,26.90723,80.98579,OZONE,1,46,23
India,Uttar_Pradesh,Lucknow,"Lalbagh, Lucknow - CPCB",14-02-2024 00:00:00,26.8458805,80.9365541,NO2,30,107,69
India,Uttar_Pradesh,Lucknow,"Talkatora District Industries Center, Lucknow - CPCB",14-02-2024 00:00:00,26.83399722,80.8917361,OZONE,2,80,34
India,Uttar_Pradesh,Meerut,"Ganga Nagar, Meerut - UPPCB",14-02-2024 00:00:00,28.999264,77.7590354,PM10,98,276,176
India,Uttar_Pradesh,Meerut,"Jai Bhim Nagar, Meerut - UPPCB",14-02-2024 00:00:00,28.9535882,77.7622941,NH3,8,12,11
India,Uttar_Pradesh,Moradabad,"Buddhi Vihar, Moradabad - UPPCB",14-02-2024 00:00:00,28.83526,78.74460,PM10,60,241,146
India,Uttar_Pradesh,Moradabad,"Employment Office, Moradabad - UPPCB",14-02-2024 00:00:00,28.88528,78.73880,PM2.5,56,194,109
India,Uttar_Pradesh,Moradabad,"Jigar Colony, Moradabad - UPPCB",14-02-2024 00:00:00,28.856664,78.772638,PM2.5,49,182,80
India,Uttar_Pradesh,Moradabad,"Jigar Colony, Moradabad - UPPCB",14-02-2024 00:00:00,28.856664,78.772638,NO2,22,25,24
India,Uttar_Pradesh,Moradabad,"Transport Nagar, Moradabad - UPPCB",14-02-2024 00:00:00,28.802625,78.753728,NO2,20,51,34
India,Uttar_Pradesh,Muzaffarnagar,"New Mandi, Muzaffarnagar - UPPCB",14-02-2024 00:00:00,29.4723508,77.7194031,OZONE,5,104,53
India,Uttar_Pradesh,Noida,"Sector - 125, Noida - UPPCB",14-02-2024 00:00:00,28.5447608,77.3231257,PM2.5,221,400,318
India,Uttar_Pradesh,Noida,"Sector - 125, Noida - UPPCB",14-02-2024 00:00:00,28.5447608,77.3231257,SO2,10,31,17
India,Uttar_Pradesh,Noida,"Sector - 62, Noida - IMD",14-02-2024 00:00:00,28.6245479,77.3577104,PM10,237,438,342
India,Uttar_Pradesh,Prayagraj,"Motilal Nehru NIT, Prayagraj - UPPCB",14-02-2024 00:00:00,25.494,81.863,PM10,55,113,86
India,Uttar_Pradesh,Prayagraj,"Motilal Nehru NIT, Prayagraj - UPPCB",14-02-2024 00:00:00,25.494,81.863,NO2,12,12,12
India,Uttar_Pradesh,Prayagraj,"Nagar Nigam, Prayagraj - UPPCB",14-02-2024 00:00:00,25.44919916 ,81.82735986 ,PM10,61,144,92
India,Uttar_Pradesh,Varanasi,"Bhelupur, Varanasi - UPPCB",14-02-2024 00:00:00,25.301778,82.996789,PM10,25,74,40
India,Uttar_Pradesh,Varanasi,"IESD Banaras Hindu University, Varanasi - UPPCB",14-02-2024 00:00:00,25.262326,82.995408,SO2,15,15,15
India,Uttarakhand,Kashipur,"Govt. Girls Inter College, Kashipur - UKPCB",14-02-2024 00:00:00,29.2124114,78.9611753,PM2.5,68,249,143
India,Uttarakhand,Kashipur,"Govt. Girls Inter College, Kashipur - UKPCB",14-02-2024 00:00:00,29.2124114,78.9611753,CO,28,107,62
India,Uttarakhand,Rishikesh,"Shivaji Nagar, Rishikesh - UKPCB",14-02-2024 00:00:00,30.075911,78.2859547,CO,18,40,29
India,West_Bengal,Barrackpore,"SVSPA Campus, Barrackpore - WBPCB",14-02-2024 00:00:00,22.7605581,88.3617589,PM2.5,154,356,293
India,West_Bengal,Barrackpore,"SVSPA Campus, Barrackpore - WBPCB",14-02-2024 00:00:00,22.7605581,88.3617589,SO2,10,13,12
India,West_Bengal,Barrackpore,"SVSPA Campus, Barrackpore - WBPCB",14-02-2024 00:00:00,22.7605581,88.3617589,OZONE,7,79,35
India,West_Bengal,Durgapur,"Sidhu Kanhu Indoor Stadium, Durgapur - WBPCB",14-02-2024 00:00:00,23.5404352,87.2892225,PM2.5,163,308,245
India,West_Bengal,Durgapur,"Sidhu Kanhu Indoor Stadium, Durgapur - WBPCB",14-02-2024 00:00:00,23.5404352,87.2892225,PM10,113,266,183
India,West_Bengal,Haldia,"Priyambada Housing Estate, Haldia - WBPCB",14-02-2024 00:00:00,22.06047,88.109737,NO2,17,82,37
India,West_Bengal,Howrah,"Belur Math, Howrah - WBPCB",14-02-2024 00:00:00,22.629801,88.352017,NO2,4,76,31
India,West_Bengal,Howrah,"Padmapukur, Howrah - WBPCB",14-02-2024 00:00:00,22.5687319,88.2797276,NO2,15,80,48
India,West_Bengal,Kolkata,"Ballygunge, Kolkata - WBPCB",14-02-2024 00:00:00,22.5367507,88.3638022,PM10,144,209,164
India,West_Bengal,Kolkata,"Ballygunge, Kolkata - WBPCB",14-02-2024 00:00:00,22.5367507,88.3638022,SO2,17,42,28
India,West_Bengal,Kolkata,"Ballygunge, Kolkata - WBPCB",14-02-2024 00:00:00,22.5367507,88.3638022,CO,31,102,64
India,West_Bengal,Kolkata,"Bidhannagar, Kolkata - WBPCB",14-02-2024 00:00:00,22.58157048,88.41002457,PM2.5,177,314,264
India,West_Bengal,Kolkata,"Fort William, Kolkata - WBPCB",14-02-2024 00:00:00,22.556640,88.342674,NO2,34,124,90
India,West_Bengal,Kolkata,"Fort William, Kolkata - WBPCB",14-02-2024 00:00:00,22.556640,88.342674,CO,30,96,45
India,West_Bengal,Kolkata,"Jadavpur, Kolkata - WBPCB",14-02-2024 00:00:00,22.49929,88.36917,PM2.5,196,307,257
India,West_Bengal,Kolkata,"Rabindra Bharati University, Kolkata - WBPCB",14-02-2024 00:00:00,22.627847,88.380669,PM10,116,469,218
India,West_Bengal,Kolkata,"Rabindra Sarobar, Kolkata - WBPCB",14-02-2024 00:00:00,22.51106,88.35142,NH3,6,19,13
India,West_Bengal,Kolkata,"Victoria, Kolkata - WBPCB",14-02-2024 00:00:00,22.5448082,88.3403691,PM2.5,164,310,243
India,West_Bengal,Kolkata,"Victoria, Kolkata - WBPCB",14-02-2024 00:00:00,22.5448082,88.3403691,PM10,130,194,160
India,West_Bengal,Kolkata,"Victoria, Kolkata - WBPCB",14-02-2024 00:00:00,22.5448082,88.3403691,CO,53,110,84
India,West_Bengal,Siliguri,"Ward-32 Bapupara, Siliguri - WBPCB",14-02-2024 00:00:00,26.6879226,88.4152495,PM2.5,47,247,100
India,Andhra_Pradesh,Anantapur,"Gulzarpet, Anantapur - APPCB",14-02-2024 00:00:00,14.675886,77.593027,PM10,NA,NA,NA
India,Andhra_Pradesh,Anantapur,"Gulzarpet, Anantapur - APPCB",14-02-2024 00:00:00,14.675886,77.593027,SO2,2,57,9
India,Andhra_Pradesh,Chittoor,"Gangineni Cheruvu, Chittoor - APPCB",14-02-2024 00:00:00,13.204880,79.097889,NH3,NA,NA,NA
India,Andhra_Pradesh,Kadapa,"Yerramukkapalli, Kadapa - APPCB",14-02-2024 00:00:00,14.465052,78.824187,PM2.5,11,64,32
India,Andhra_Pradesh,Kadapa,"Yerramukkapalli, Kadapa - APPCB",14-02-2024 00:00:00,14.465052,78.824187,NO2,NA,NA,NA
India,Andhra_Pradesh,Tirupati,"Tirumala, Tirupati - APPCB",14-02-2024 00:00:00,13.67,79.35,PM2.5,24,57,38
India,Andhra_Pradesh,Tirupati,"Tirumala, Tirupati - APPCB",14-02-2024 00:00:00,13.67,79.35,PM10,28,55,42
India,Andhra_Pradesh,Vijayawada,"HB Colony, Vijayawada - APPCB",14-02-2024 00:00:00,16.536107,80.594233,PM2.5,42,64,54
India,Andhra_Pradesh,Vijayawada,"HB Colony, Vijayawada - APPCB",14-02-2024 00:00:00,16.536107,80.594233,OZONE,29,62,44
India,Andhra_Pradesh,Vijayawada,"Kanuru, Vijayawada - APPCB",14-02-2024 00:00:00,16.486692,80.699436,OZONE,25,25,25
India,Andhra_Pradesh,Vijayawada,"Rajiv Gandhi Park, Vijayawada - APPCB",14-02-2024 00:00:00,16.509717,80.612222,NH3,4,7,6
India,Andhra_Pradesh,Vijayawada,"Rajiv Gandhi Park, Vijayawada - APPCB",14-02-2024 00:00:00,16.509717,80.612222,CO,30,34,34
India,Andhra_Pradesh,Vijayawada,"Rajiv Nagar, Vijayawada - APPCB",14-02-2024 00:00:00,16.554731,80.649110,PM10,62,109,90
India,Andhra_Pradesh,Visakhapatnam,"GVM Corporation, Visakhapatnam - APPCB",14-02-2024 00:00:00,17.72,83.3,PM2.5,48,92,72
India,Arunachal_Pradesh,Naharlagun,"Naharlagun, Naharlagun - APSPCB",14-02-2024 00:00:00,27.103358,93.679645,PM10,30,500,108
India,Assam,Byrnihat,"Central Academy for SFS, Byrnihat - PCBA",14-02-2024 00:00:00,26.071318,91.87488,SO2,11,13,12
India,Assam,Guwahati,"IITG, Guwahati - PCBA",14-02-2024 00:00:00,26.2028636,91.70046436,PM2.5,NA,NA,NA
India,Assam,Guwahati,"LGBI Airport, Guwahati - PCBA",14-02-2024 00:00:00,26.10887,91.589544,PM10,98,239,138
India,Assam,Guwahati,"LGBI Airport, Guwahati - PCBA",14-02-2024 00:00:00,26.10887,91.589544,NO2,8,78,24
India,Assam,Nagaon,"Christianpatty, Nagaon - PCBA",14-02-2024 00:00:00,26.349082,92.68449,PM10,94,427,184
India,Assam,Nagaon,"Christianpatty, Nagaon - PCBA",14-02-2024 00:00:00,26.349082,92.68449,CO,2,128,79
India,Assam,Silchar,"Tarapur, Silchar - PCBA",14-02-2024 00:00:00,24.82827,92.79525,NH3,1,1,1
India,Assam,Silchar,"Tarapur, Silchar - PCBA",14-02-2024 00:00:00,24.82827,92.79525,OZONE,2,15,2
India,Bihar,Araria,"Kharahiya Basti, Araria - BSPCB",14-02-2024 00:00:00,26.146529,87.454184,NO2,6,49,9
India,Bihar,Aurangabad,"Gurdeo Nagar, Aurangabad - BSPCB",14-02-2024 00:00:00,24.75746,84.366208,PM10,NA,NA,NA
India,Bihar,Aurangabad,"Gurdeo Nagar, Aurangabad - BSPCB",14-02-2024 00:00:00,24.75746,84.366208,NO2,NA,NA,NA
India,Bihar,Aurangabad,"Gurdeo Nagar, Aurangabad - BSPCB",14-02-2024 00:00:00,24.75746,84.366208,CO,NA,NA,NA
India,Bihar,Bettiah,"Kamalnath Nagar, Bettiah - BSPCB",14-02-2024 00:00:00,26.80365,84.51954,PM2.5,38,140,75
India,Bihar,Bettiah,"Kamalnath Nagar, Bettiah - BSPCB",14-02-2024 00:00:00,26.80365,84.51954,PM10,58,153,103
India,Bihar,Bhagalpur,"Mayaganj, Bhagalpur - BSPCB",14-02-2024 00:00:00,25.265194,87.012947,SO2,10,13,12
India,Bihar,Bhagalpur,"Mayaganj, Bhagalpur - BSPCB",14-02-2024 00:00:00,25.265194,87.012947,CO,8,10,9
India,Bihar,Bihar Sharif,"D M Colony, Bihar Sharif - BSPCB",14-02-2024 00:00:00,25.204762,85.514960,PM10,37,138,71
India,Bihar,Bihar Sharif,"D M Colony, Bihar Sharif - BSPCB",14-02-2024 00:00:00,25.204762,85.514960,SO2,1,14,7
India,Bihar,Buxar,"Charitra Van, Buxar - BSPCB (Formerly known as Central Jail)",14-02-2024 00:00:00,25.567520,83.966379,PM2.5,157,312,229
India,Bihar,Buxar,"Charitra Van, Buxar - BSPCB (Formerly known as Central Jail)",14-02-2024 00:00:00,25.567520,83.966379,OZONE,7,127,48
India,Bihar,Chhapra,"Darshan Nagar, Chhapra - BSPCB",14-02-2024 00:00:00,25.7808257,84.7446768,OZONE,1,12,3
India,Bihar,Gaya,"Collectorate, Gaya - BSPCB",14-02-2024 00:00:00,24.7955,84.9994,CO,2,35,25
India,Bihar,Gaya,"Kareemganj, Gaya - BSPCB",14-02-2024 00:00:00,24.792403,84.992416,PM10,NA,NA,NA
India,Bihar,Gaya,"Kareemganj, Gaya - BSPCB",14-02-2024 00:00:00,24.792403,84.992416,NH3,1,4,3
India,Bihar,Gaya,"Kareemganj, Gaya - BSPCB",14-02-2024 00:00:00,24.792403,84.992416,OZONE,4,48,21
India,Bihar,Gaya,"SFTI Kusdihra, Gaya - BSPCB",14-02-2024 00:00:00,24.762518,84.982348,NH3,NA,NA,NA
India,Bihar,Gaya,"SFTI Kusdihra, Gaya - BSPCB",14-02-2024 00:00:00,24.762518,84.982348,CO,75,100,87
India,Bihar,Katihar,"Mirchaibari, Katihar - BSPCB",14-02-2024 00:00:00,25.560083,87.553265,PM2.5,72,253,145
India,Bihar,Katihar,"Mirchaibari, Katihar - BSPCB",14-02-2024 00:00:00,25.560083,87.553265,NO2,15,37,22
India,Bihar,Katihar,"Mirchaibari, Katihar - BSPCB",14-02-2024 00:00:00,25.560083,87.553265,CO,NA,NA,NA
India,Bihar,Kishanganj,"SDM Office_Khagra, Kishanganj - BSPCB",14-02-2024 00:00:00,26.0881305,87.93840336,PM10,93,421,228
India,Bihar,Kishanganj,"SDM Office_Khagra, Kishanganj - BSPCB",14-02-2024 00:00:00,26.0881305,87.93840336,CO,1,14,8
India,Bihar,Manguraha,"Forest Rest House, Manguraha - BSPCB",14-02-2024 00:00:00,27.308328,84.531742,NH3,1,3,2
India,Bihar,Motihari,"Gandak Colony, Motihari - BSPCB",14-02-2024 00:00:00,26.63086,84.90051,PM2.5,80,318,207
India,Bihar,Motihari,"Gandak Colony, Motihari - BSPCB",14-02-2024 00:00:00,26.63086,84.90051,SO2,2,90,11
India,Bihar,Munger,"Town Hall, Munger - BSPCB",14-02-2024 00:00:00,25.376776,86.471523,CO,3,32,19
India,Bihar,Munger,"Town Hall, Munger - BSPCB",14-02-2024 00:00:00,25.376776,86.471523,OZONE,7,14,10
India,Bihar,Muzaffarpur,"Buddha Colony, Muzaffarpur - BSPCB",14-02-2024 00:00:00,26.11442,85.39813,PM2.5,226,417,326
India,Bihar,Muzaffarpur,"MIT-Daudpur Kothi, Muzaffarpur - BSPCB",14-02-2024 00:00:00,26.1403345,85.3650192,SO2,10,10,10
India,Bihar,Muzaffarpur,"Muzaffarpur Collectorate, Muzaffarpur - BSPCB",14-02-2024 00:00:00,26.1209,85.3647,SO2,5,12,7
India,Bihar,Muzaffarpur,"Muzaffarpur Collectorate, Muzaffarpur - BSPCB",14-02-2024 00:00:00,26.1209,85.3647,CO,25,78,49
India,Bihar,Patna,"DRM Office Danapur, Patna - BSPCB",14-02-2024 00:00:00,25.586562,85.043586,CO,43,112,87
India,Bihar,Patna,"DRM Office Danapur, Patna - BSPCB",14-02-2024 00:00:00,25.586562,85.043586,OZONE,1,53,26
India,Bihar,Patna,"Govt. High School Shikarpur, Patna - BSPCB",14-02-2024 00:00:00,25.592539,85.227158,NH3,2,4,3
India,Bihar,Patna,"Rajbansi Nagar, Patna - BSPCB",14-02-2024 00:00:00,25.599486,85.113666,NO2,34,61,46
India,Bihar,Patna,"Samanpura, Patna - BSPCB",14-02-2024 00:00:00,25.596727,85.085624,PM2.5,255,373,330
India,Bihar,Patna,"Samanpura, Patna - BSPCB",14-02-2024 00:00:00,25.596727,85.085624,NO2,34,114,53
India,Bihar,Patna,"Samanpura, Patna - BSPCB",14-02-2024 00:00:00,25.596727,85.085624,SO2,15,18,16
India,Bihar,Purnia,"Mariam Nagar, Purnia - BSPCB",14-02-2024 00:00:00,25.366336,87.117468,CO,50,103,70
India,Bihar,Rajgir,"Dangi Tola, Rajgir - BSPCB",14-02-2024 00:00:00,25.03280,85.41948,PM2.5,NA,NA,NA
India,Bihar,Rajgir,"Dangi Tola, Rajgir - BSPCB",14-02-2024 00:00:00,25.03280,85.41948,NH3,NA,NA,NA
India,Bihar,Rajgir,"Dangi Tola, Rajgir - BSPCB",14-02-2024 00:00:00,25.03280,85.41948,SO2,NA,NA,NA
India,Bihar,Saharsa,"Police Line, Saharsa - BSPCB",14-02-2024 00:00:00,25.892357,86.590325,OZONE,10,68,37
India,Bihar,Samastipur,"DM Office_Kasipur, Samastipur - BSPCB",14-02-2024 00:00:00,25.859655,85.77944,NO2,2,10,5
India,Bihar,Sasaram,"Dada Peer, Sasaram - BSPCB",14-02-2024 00:00:00,24.952822,84.002396,PM10,82,179,116
India,Bihar,Siwan,"Chitragupta Nagar, Siwan - BSPCB",14-02-2024 00:00:00,26.2271665,84.3570427,NH3,2,5,4
India,Chandigarh,Chandigarh,"Sector 22, Chandigarh - CPCC",14-02-2024 00:00:00,30.735567,76.775714,NO2,30,129,64
India,Chandigarh,Chandigarh,"Sector 22, Chandigarh - CPCC",14-02-2024 00:00:00,30.735567,76.775714,NH3,6,9,8
India,Chandigarh,Chandigarh,"Sector 22, Chandigarh - CPCC",14-02-2024 00:00:00,30.735567,76.775714,OZONE,3,177,79
India,Chandigarh,Chandigarh,"Sector-25, Chandigarh - CPCC",14-02-2024 00:00:00,30.751462,76.762879,PM10,55,206,161
India,Chandigarh,Chandigarh,"Sector-25, Chandigarh - CPCC",14-02-2024 00:00:00,30.751462,76.762879,NO2,19,60,34
India,Chandigarh,Chandigarh,"Sector-53, Chandigarh - CPCC",14-02-2024 00:00:00,30.719859,76.738637,NH3,5,9,7
India,Chhattisgarh,Bhilai,"32Bungalows, Bhilai - CECB",14-02-2024 00:00:00,21.194815,81.314770,PM2.5,34,71,52
India,Chhattisgarh,Bhilai,"32Bungalows, Bhilai - CECB",14-02-2024 00:00:00,21.194815,81.314770,NO2,16,25,20
India,Chhattisgarh,Bhilai,"Civic Center, Bhilai - Bhilai Steel Plant",14-02-2024 00:00:00,21.185571,81.343175,NO2,12,91,33
India,Chhattisgarh,Bhilai,"Hathkhoj, Bhilai - CECB",14-02-2024 00:00:00,21.224231,81.408350,NH3,6,8,7
India,Chhattisgarh,Bilaspur,"Mangala, Bilaspur - NTPC",14-02-2024 00:00:00,22.08815,82.13737,PM2.5,48,98,64
India,Chhattisgarh,Chhal,"Nawapara SECL Colony, Chhal - CECB",14-02-2024 00:00:00,22.118125,83.140608,PM10,18,142,72
India,Chhattisgarh,Chhal,"Nawapara SECL Colony, Chhal - CECB",14-02-2024 00:00:00,22.118125,83.140608,NO2,12,68,30
India,Chhattisgarh,Chhal,"Nawapara SECL Colony, Chhal - CECB",14-02-2024 00:00:00,22.118125,83.140608,NH3,2,2,2
India,Chhattisgarh,Korba,"Urja Nagar, Korba - CECB",14-02-2024 00:00:00,22.348441,82.549611,SO2,2,40,8
India,Chhattisgarh,Korba,"Urja Nagar, Korba - CECB",14-02-2024 00:00:00,22.348441,82.549611,OZONE,NA,NA,NA
India,Chhattisgarh,Milupara,"Govt. Higher Secondary School, Milupara - CECB",14-02-2024 00:00:00,22.1910172,83.5197009,NO2,16,65,32
India,Chhattisgarh,Raipur,"AIIMS, Raipur - CECB",14-02-2024 00:00:00,21.258815,81.578979,PM2.5,32,102,62
India,Chhattisgarh,Raipur,"AIIMS, Raipur - CECB",14-02-2024 00:00:00,21.258815,81.578979,PM10,34,166,89
India,Chhattisgarh,Raipur,"AIIMS, Raipur - CECB",14-02-2024 00:00:00,21.258815,81.578979,NH3,4,4,4
India,Chhattisgarh,Raipur,"Bhatagaon New ISBT, Raipur - CECB",14-02-2024 00:00:00,21.219665,81.630094,NH3,NA,NA,NA
India,Chhattisgarh,Raipur,"Krishak Nagar, Raipur - CECB",14-02-2024 00:00:00,21.237755,81.705301,CO,34,47,41
India,Chhattisgarh,Raipur,"Siltara Phase-II, Raipur - CECB",14-02-2024 00:00:00,21.371751,81.664929,PM10,34,138,83
India,Chhattisgarh,Raipur,"Siltara Phase-II, Raipur - CECB",14-02-2024 00:00:00,21.371751,81.664929,SO2,6,18,10
India,Chhattisgarh,Raipur,"Siltara Phase-II, Raipur - CECB",14-02-2024 00:00:00,21.371751,81.664929,OZONE,3,14,6
India,Delhi,Delhi,"Alipur, Delhi - DPCC",14-02-2024 00:00:00,28.815329,77.153010,OZONE,4,195,93
India,Delhi,Delhi,"Anand Vihar, Delhi - DPCC",14-02-2024 00:00:00,28.647622,77.3158090,PM2.5,314,473,400
India,Delhi,Delhi,"Anand Vihar, Delhi - DPCC",14-02-2024 00:00:00,28.647622,77.3158090,PM10,198,500,406
India,Delhi,Delhi,"Anand Vihar, Delhi - DPCC",14-02-2024 00:00:00,28.647622,77.3158090,SO2,16,49,28
India,Delhi,Delhi,"Anand Vihar, Delhi - DPCC",14-02-2024 00:00:00,28.647622,77.3158090,OZONE,18,23,20
India,Delhi,Delhi,"Ashok Vihar, Delhi - DPCC",14-02-2024 00:00:00,28.695381,77.181665,NH3,10,13,11
India,Delhi,Delhi,"Ashok Vihar, Delhi - DPCC",14-02-2024 00:00:00,28.695381,77.181665,OZONE,4,12,8
India,Delhi,Delhi,"Aya Nagar, Delhi - IMD",14-02-2024 00:00:00,28.4706914,77.1099364,PM10,18,398,247
India,Delhi,Delhi,"Bawana, Delhi - DPCC",14-02-2024 00:00:00,28.776200,77.051074,NH3,7,13,10
India,Delhi,Delhi,"Burari Crossing, Delhi - IMD",14-02-2024 00:00:00,28.7256504,77.2011573,PM10,NA,NA,NA
India,Delhi,Delhi,"Burari Crossing, Delhi - IMD",14-02-2024 00:00:00,28.7256504,77.2011573,CO,NA,NA,NA
India,Delhi,Delhi,"DTU, Delhi - CPCB",14-02-2024 00:00:00,28.7500499,77.1112615,SO2,28,29,29
India,Delhi,Delhi,"DTU, Delhi - CPCB",14-02-2024 00:00:00,28.7500499,77.1112615,CO,35,70,47
India,Delhi,Delhi,"Dwarka-Sector 8, Delhi - DPCC ",14-02-2024 00:00:00,28.5710274,77.0719006,NH3,7,12,9
India,Delhi,Delhi,"Dwarka-Sector 8, Delhi - DPCC ",14-02-2024 00:00:00,28.5710274,77.0719006,SO2,7,13,10
India,Delhi,Delhi,"IGI Airport (T3), Delhi - IMD",14-02-2024 00:00:00,28.5627763,77.1180053,PM2.5,275,408,361
India,Delhi,Delhi,"IGI Airport (T3), Delhi - IMD",14-02-2024 00:00:00,28.5627763,77.1180053,NO2,35,100,67
India,Delhi,Delhi,"IGI Airport (T3), Delhi - IMD",14-02-2024 00:00:00,28.5627763,77.1180053,CO,24,110,48
India,Delhi,Delhi,"IGI Airport (T3), Delhi - IMD",14-02-2024 00:00:00,28.5627763,77.1180053,OZONE,11,52,27
India,Delhi,Delhi,"IHBAS, Dilshad Garden, Delhi - CPCB",14-02-2024 00:00:00,28.6811736,77.3025234,NO2,12,36,24
India,Delhi,Delhi,"ITO, Delhi - CPCB",14-02-2024 00:00:00,28.628624,77.241060,NO2,3,207,91
India,Delhi,Delhi,"Jawaharlal Nehru Stadium, Delhi - DPCC",14-02-2024 00:00:00,28.580280,77.233829,NH3,10,17,14
India,Delhi,Delhi,"Lodhi Road, Delhi - IITM",14-02-2024 00:00:00,28.588333,77.221667,SO2,25,41,32
India,Delhi,Delhi,"Major Dhyan Chand National Stadium, Delhi - DPCC",14-02-2024 00:00:00,28.611281,77.237738,PM2.5,278,434,366
India,Delhi,Delhi,"Major Dhyan Chand National Stadium, Delhi - DPCC",14-02-2024 00:00:00,28.611281,77.237738,SO2,4,28,16
India,Delhi,Delhi,"Mandir Marg, Delhi - DPCC",14-02-2024 00:00:00,28.636429,77.201067,PM2.5,295,421,375
India,Delhi,Delhi,"Mandir Marg, Delhi - DPCC",14-02-2024 00:00:00,28.636429,77.201067,SO2,8,13,10
India,Delhi,Delhi,"Mandir Marg, Delhi - DPCC",14-02-2024 00:00:00,28.636429,77.201067,OZONE,2,36,17
India,Delhi,Delhi,"Mundka, Delhi - DPCC",14-02-2024 00:00:00,28.684678,77.076574,PM10,201,500,362
India,Delhi,Delhi,"Mundka, Delhi - DPCC",14-02-2024 00:00:00,28.684678,77.076574,NO2,32,120,81
India,Delhi,Delhi,"Mundka, Delhi - DPCC",14-02-2024 00:00:00,28.684678,77.076574,NH3,9,15,12
India,Delhi,Delhi,"Mundka, Delhi - DPCC",14-02-2024 00:00:00,28.684678,77.076574,CO,36,104,66
India,Delhi,Delhi,"Najafgarh, Delhi - DPCC",14-02-2024 00:00:00,28.570173,76.933762,PM2.5,183,365,311
India,Delhi,Delhi,"Najafgarh, Delhi - DPCC",14-02-2024 00:00:00,28.570173,76.933762,NO2,3,57,26
India,Delhi,Delhi,"Narela, Delhi - DPCC",14-02-2024 00:00:00,28.822836,77.101981,NH3,7,14,10
India,Delhi,Delhi,"Nehru Nagar, Delhi - DPCC",14-02-2024 00:00:00,28.567890,77.250515,PM10,185,418,320
India,Delhi,Delhi,"Okhla Phase-2, Delhi - DPCC",14-02-2024 00:00:00,28.530785,77.271255,PM2.5,309,472,381
India,Delhi,Delhi,"Okhla Phase-2, Delhi - DPCC",14-02-2024 00:00:00,28.530785,77.271255,NH3,15,21,17
India,Delhi,Delhi,"Patparganj, Delhi - DPCC",14-02-2024 00:00:00,28.623763,77.287209,CO,37,129,76
India,Delhi,Delhi,"Punjabi Bagh, Delhi - DPCC",14-02-2024 00:00:00,28.674045,77.131023,CO,6,114,71
India,Delhi,Delhi,"Pusa, Delhi - DPCC",14-02-2024 00:00:00,28.639652,77.146275,PM2.5,322,454,372
India,Delhi,Delhi,"Pusa, Delhi - DPCC",14-02-2024 00:00:00,28.639652,77.146275,CO,16,110,66
India,Delhi,Delhi,"R K Puram, Delhi - DPCC",14-02-2024 00:00:00,28.563262,77.186937,NO2,39,166,82
India,Delhi,Delhi,"R K Puram, Delhi - DPCC",14-02-2024 00:00:00,28.563262,77.186937,OZONE,8,119,48
India,Delhi,Delhi,"Rohini, Delhi - DPCC",14-02-2024 00:00:00,28.732528,77.119920,PM2.5,315,439,394
India,Delhi,Delhi,"Rohini, Delhi - DPCC",14-02-2024 00:00:00,28.732528,77.119920,CO,38,116,74
India,Delhi,Delhi,"Shadipur, Delhi - CPCB",14-02-2024 00:00:00,28.6514781,77.1473105,PM2.5,320,407,354
India,Delhi,Delhi,"Shadipur, Delhi - CPCB",14-02-2024 00:00:00,28.6514781,77.1473105,CO,17,78,50
India,Delhi,Delhi,"Sirifort, Delhi - CPCB",14-02-2024 00:00:00,28.5504249,77.2159377,SO2,34,45,39
India,Delhi,Delhi,"Sri Aurobindo Marg, Delhi - DPCC",14-02-2024 00:00:00,28.531346,77.190156,SO2,8,58,15
India,Delhi,Delhi,"Wazirpur, Delhi - DPCC",14-02-2024 00:00:00,28.699793,77.165453,OZONE,3,136,46
India,Gujarat,Ahmedabad,"Gyaspur, Ahmedabad - IITM",14-02-2024 00:00:00,22.977134,72.553024,CO,15,37,30
India,Gujarat,Ahmedabad,"Maninagar, Ahmedabad - GPCB",14-02-2024 00:00:00,23.002657,72.591912,NO2,NA,NA,NA
India,Gujarat,Ahmedabad,"Maninagar, Ahmedabad - GPCB",14-02-2024 00:00:00,23.002657,72.591912,SO2,20,65,33
India,Gujarat,Ahmedabad,"Maninagar, Ahmedabad - GPCB",14-02-2024 00:00:00,23.002657,72.591912,OZONE,10,92,59
India,Gujarat,Ahmedabad,"Raikhad, Ahmedabad - IITM",14-02-2024 00:00:00,23.020509,72.579261,PM10,108,157,128
India,Gujarat,Ahmedabad,"Rakhial, Ahmedabad - IITM",14-02-2024 00:00:00,23.016834,72.625775,NH3,3,9,6
India,Gujarat,Ahmedabad,"SAC ISRO Bopal, Ahmedabad - IITM",14-02-2024 00:00:00,23.041137,72.456691,PM2.5,70,226,108
India,Gujarat,Ahmedabad,"SAC ISRO Bopal, Ahmedabad - IITM",14-02-2024 00:00:00,23.041137,72.456691,OZONE,11,19,19
India,Gujarat,Ahmedabad,"SAC ISRO Satellite, Ahmedabad - IITM",14-02-2024 00:00:00,23.023389,72.515201,NO2,17,17,17
India,Gujarat,Ahmedabad,"SAC ISRO Satellite, Ahmedabad - IITM",14-02-2024 00:00:00,23.023389,72.515201,OZONE,8,19,16
India,Gujarat,Ahmedabad,"SVPI Airport Hansol, Ahmedabad - IITM",14-02-2024 00:00:00,23.076793,72.627874,PM2.5,39,122,59
India,Gujarat,Ahmedabad,"SVPI Airport Hansol, Ahmedabad - IITM",14-02-2024 00:00:00,23.076793,72.627874,SO2,3,5,4
India,Gujarat,Ahmedabad,"SVPI Airport Hansol, Ahmedabad - IITM",14-02-2024 00:00:00,23.076793,72.627874,CO,4,37,15
India,Gujarat,Ahmedabad,"Sardar Vallabhbhai Patel Stadium, Ahmedabad - IITM",14-02-2024 00:00:00,23.043070,72.562968,NO2,NA,NA,NA
India,Gujarat,Ahmedabad,"Sardar Vallabhbhai Patel Stadium, Ahmedabad - IITM",14-02-2024 00:00:00,23.043070,72.562968,SO2,6,10,8
India,Gujarat,Ankleshwar,"GIDC, Ankleshwar - GPCB",14-02-2024 00:00:00,21.613267,73.010555,NH3,7,7,7
India,Gujarat,Ankleshwar,"GIDC, Ankleshwar - GPCB",14-02-2024 00:00:00,21.613267,73.010555,SO2,19,103,44
India,Gujarat,Ankleshwar,"GIDC, Ankleshwar - GPCB",14-02-2024 00:00:00,21.613267,73.010555,CO,6,86,58
India,Gujarat,Gandhinagar,"GIFT City, Gandhinagar - IITM",14-02-2024 00:00:00,23.163798,72.677768,PM10,76,141,103
India,Gujarat,Gandhinagar,"GIFT City, Gandhinagar - IITM",14-02-2024 00:00:00,23.163798,72.677768,NO2,50,50,50
India,Gujarat,Gandhinagar,"IIPHG Lekawada, Gandhinagar - IITM",14-02-2024 00:00:00,23.243639,72.68994,PM2.5,71,171,99
India,Gujarat,Gandhinagar,"IIPHG Lekawada, Gandhinagar - IITM",14-02-2024 00:00:00,23.243639,72.68994,SO2,6,128,60
India,Gujarat,Gandhinagar,"IIPHG Lekawada, Gandhinagar - IITM",14-02-2024 00:00:00,23.243639,72.68994,CO,14,36,26
India,Gujarat,Gandhinagar,"Sector-10, Gandhinagar - GPCB",14-02-2024 00:00:00,23.221714,72.654328,NH3,1,2,2
India,Gujarat,Vapi,"Phase-1 GIDC, Vapi - GPCB",14-02-2024 00:00:00,20.362421,72.918013,PM10,102,343,189
India,Gujarat,Vatva,"Phase-4 GIDC, Vatva - GPCB",14-02-2024 00:00:00,22.969611,72.643500,PM10,67,107,81
India,Haryana,Ambala,"Patti Mehar, Ambala - HSPCB",14-02-2024 00:00:00,30.379589,76.778328,NO2,2,3,3
India,Haryana,Ambala,"Patti Mehar, Ambala - HSPCB",14-02-2024 00:00:00,30.379589,76.778328,NH3,8,8,8
India,Haryana,Bahadurgarh,"Arya Nagar, Bahadurgarh - HSPCB",14-02-2024 00:00:00,28.6701,76.9254,PM2.5,212,331,295
India,Haryana,Bahadurgarh,"Arya Nagar, Bahadurgarh - HSPCB",14-02-2024 00:00:00,28.6701,76.9254,PM10,148,245,178
India,Haryana,Bahadurgarh,"Arya Nagar, Bahadurgarh - HSPCB",14-02-2024 00:00:00,28.6701,76.9254,NH3,10,12,11
India,Haryana,Ballabgarh,"Nathu Colony, Ballabgarh - HSPCB",14-02-2024 00:00:00,28.3419248,77.319699,NH3,1,2,2
India,Haryana,Bhiwani,"H.B. Colony, Bhiwani - HSPCB",14-02-2024 00:00:00,28.806223,76.141105,NO2,7,11,9
India,Haryana,Bhiwani,"H.B. Colony, Bhiwani - HSPCB",14-02-2024 00:00:00,28.806223,76.141105,CO,44,80,60
India,Haryana,Bhiwani,"H.B. Colony, Bhiwani - HSPCB",14-02-2024 00:00:00,28.806223,76.141105,OZONE,13,42,18
India,Haryana,Charkhi Dadri,"Mini Secretariat, Charkhi Dadri - HSPCB",14-02-2024 00:00:00,28.593883,76.270653,PM2.5,207,328,272
India,Haryana,Charkhi Dadri,"Mini Secretariat, Charkhi Dadri - HSPCB",14-02-2024 00:00:00,28.593883,76.270653,SO2,8,17,11
India,Haryana,Faridabad,"Sector 11, Faridabad - HSPCB",14-02-2024 00:00:00,28.376058,77.315741,PM2.5,122,313,222
India,Haryana,Fatehabad,"Huda Sector, Fatehabad - HSPCB",14-02-2024 00:00:00,29.503664,75.467934,PM2.5,97,274,198
India,Haryana,Fatehabad,"Huda Sector, Fatehabad - HSPCB",14-02-2024 00:00:00,29.503664,75.467934,OZONE,20,31,24
India,Haryana,Gurugram,"Sector-51, Gurugram - HSPCB",14-02-2024 00:00:00,28.4227,77.0667,PM10,165,453,344
India,Haryana,Gurugram,"Sector-51, Gurugram - HSPCB",14-02-2024 00:00:00,28.4227,77.0667,CO,48,116,71
India,Haryana,Gurugram,"Teri Gram, Gurugram - HSPCB",14-02-2024 00:00:00,28.4275,77.1465,NH3,28,48,38
India,Haryana,Gurugram,"Teri Gram, Gurugram - HSPCB",14-02-2024 00:00:00,28.4275,77.1465,CO,43,78,48
India,Haryana,Gurugram,"Vikas Sadan, Gurugram - HSPCB",14-02-2024 00:00:00,28.4501238,77.0263051,SO2,18,35,26
India,Haryana,Jind,"Police Lines, Jind - HSPCB",14-02-2024 00:00:00,29.307814,76.337619,SO2,4,29,11
India,Haryana,Kaithal,"Rishi Nagar, Kaithal - HSPCB",14-02-2024 00:00:00,29.8006,76.4155,PM2.5,151,267,190
India,Haryana,Kurukshetra,"Sector-7, Kurukshetra - HSPCB",14-02-2024 00:00:00,29.966942,76.875879,NH3,3,5,5
India,Haryana,Manesar,"Sector-2 IMT, Manesar - HSPCB",14-02-2024 00:00:00,28.360699,76.936090,OZONE,5,52,29
India,Haryana,Narnaul,"Shastri Nagar, Narnaul - HSPCB",14-02-2024 00:00:00,28.060249,76.113115,PM10,89,167,126
India,Haryana,Narnaul,"Shastri Nagar, Narnaul - HSPCB",14-02-2024 00:00:00,28.060249,76.113115,NO2,16,58,35
India,Haryana,Sirsa,"F-Block, Sirsa - HSPCB",14-02-2024 00:00:00,29.536400,75.015800,PM10,65,133,99
India,Haryana,Yamuna Nagar,"Gobind Pura, Yamuna Nagar - HSPCB",14-02-2024 00:00:00,30.1480566,77.2893471,OZONE,5,24,15
India,Himachal Pradesh,Baddi,"HIMUDA Complex Phase-1, Baddi - HPPCB",14-02-2024 00:00:00,30.943887,76.801991,PM2.5,NA,NA,NA
India,Jharkhand,Dhanbad,"Sardar Patel Nagar, Dhanbad - JSPCB",14-02-2024 00:00:00,23.80569,86.44268,OZONE,16,16,16
India,Jharkhand,Pathardih,"Mohalbani Ghat, Pathardih - DMC",14-02-2024 00:00:00,23.669880,86.411725,PM10,NA,NA,NA
India,Karnataka,Bagalkot,"Vidayagiri, Bagalkot - KSPCB",14-02-2024 00:00:00,16.172806,75.659694,NO2,9,11,10
India,Karnataka,Belgaum,"Ramteerth Nagar, Belgaum - KSPCB",14-02-2024 00:00:00,15.888653,74.541751,PM2.5,24,120,64
India,Karnataka,Belgaum,"Ramteerth Nagar, Belgaum - KSPCB",14-02-2024 00:00:00,15.888653,74.541751,NH3,33,34,34
India,Karnataka,Belgaum,"Ramteerth Nagar, Belgaum - KSPCB",14-02-2024 00:00:00,15.888653,74.541751,OZONE,19,20,20
India,Karnataka,Bengaluru,"City Railway Station, Bengaluru - KSPCB",14-02-2024 00:00:00,12.9756843,77.5660749,PM10,66,86,74
India,Karnataka,Bengaluru,"City Railway Station, Bengaluru - KSPCB",14-02-2024 00:00:00,12.9756843,77.5660749,NO2,22,32,27
India,Karnataka,Bengaluru,"Hebbal, Bengaluru - KSPCB",14-02-2024 00:00:00,13.029152,77.585901,PM2.5,17,84,48
India,Karnataka,Bengaluru,"Jayanagar 5th Block, Bengaluru - KSPCB",14-02-2024 00:00:00,12.920984,77.584908,PM10,58,97,76
India,Karnataka,Bengaluru,"Jayanagar 5th Block, Bengaluru - KSPCB",14-02-2024 00:00:00,12.920984,77.584908,NO2,10,12,11
India,Karnataka,Bengaluru,"Jayanagar 5th Block, Bengaluru - KSPCB",14-02-2024 00:00:00,12.920984,77.584908,NH3,2,3,3
India,Karnataka,Bengaluru,"Jigani, Bengaluru - KSPCB",14-02-2024 00:00:00,12.7816279,77.6299145,PM2.5,NA,NA,NA
India,Karnataka,Bengaluru,"Jigani, Bengaluru - KSPCB",14-02-2024 00:00:00,12.7816279,77.6299145,OZONE,16,58,35
India,Karnataka,Bengaluru,"Kasturi Nagar, Bengaluru - KSPCB",14-02-2024 00:00:00,13.003872,77.664217,NO2,16,17,17
India,Karnataka,Bengaluru,"Kasturi Nagar, Bengaluru - KSPCB",14-02-2024 00:00:00,13.003872,77.664217,NH3,3,4,4
India,Karnataka,Bengaluru,"Peenya, Bengaluru - CPCB",14-02-2024 00:00:00,13.0270199,77.494094,NH3,3,3,3
India,Karnataka,Bengaluru,"Peenya, Bengaluru - CPCB",14-02-2024 00:00:00,13.0270199,77.494094,OZONE,34,98,52
India,Karnataka,Bengaluru,"Silk Board, Bengaluru - KSPCB",14-02-2024 00:00:00,12.917348,77.622813,CO,28,42,36
India,Karnataka,Bidar,"Naubad, Bidar - KSPCB",14-02-2024 00:00:00,17.930306,77.482194,NH3,3,3,3
India,Karnataka,Bidar,"Naubad, Bidar - KSPCB",14-02-2024 00:00:00,17.930306,77.482194,CO,42,80,52
India,Karnataka,Chamarajanagar,"Urban, Chamarajanagar - KSPCB",14-02-2024 00:00:00,11.55358,76.55521,NO2,24,48,32
India,Karnataka,Chamarajanagar,"Urban, Chamarajanagar - KSPCB",14-02-2024 00:00:00,11.55358,76.55521,OZONE,15,42,29
India,Karnataka,Davanagere,"Devaraj Urs Badavane, Davanagere - KSPCB",14-02-2024 00:00:00,14.475800,75.905200,CO,14,37,19
India,Karnataka,Dharwad,"Kalabhavan, Dharwad - KSPCB",14-02-2024 00:00:00,15.459706,75.008381,NH3,3,3,3
India,Karnataka,Dharwad,"Kalabhavan, Dharwad - KSPCB",14-02-2024 00:00:00,15.459706,75.008381,OZONE,2,56,26
India,Karnataka,Gadag,"Panchal Nagar, Gadag - KSPCB",14-02-2024 00:00:00,15.411456,75.638133,NO2,5,23,13
India,Karnataka,Gadag,"Panchal Nagar, Gadag - KSPCB",14-02-2024 00:00:00,15.411456,75.638133,NH3,2,3,2
India,Karnataka,Hassan,"B.Katihalli, Hassan - KSPCB",14-02-2024 00:00:00,13.008556,76.125258,PM2.5,12,85,58
India,Karnataka,Hassan,"B.Katihalli, Hassan - KSPCB",14-02-2024 00:00:00,13.008556,76.125258,SO2,5,15,10
India,Karnataka,Kalaburagi,"Lal Bahadur Shastri Nagar, Kalaburagi - KSPCB",14-02-2024 00:00:00,17.321993,76.822628,PM2.5,NA,NA,NA
India,Karnataka,Kalaburagi,"Lal Bahadur Shastri Nagar, Kalaburagi - KSPCB",14-02-2024 00:00:00,17.321993,76.822628,PM10,NA,NA,NA
India,Karnataka,Kalaburagi,"Lal Bahadur Shastri Nagar, Kalaburagi - KSPCB",14-02-2024 00:00:00,17.321993,76.822628,NO2,11,12,12
India,Karnataka,Kalaburagi,"Mahatma Basaveswar Colony, Kalaburgi - KSPCB",14-02-2024 00:00:00,17.336318,76.847397,SO2,4,10,5
India,Karnataka,Karwar,"KHB Colony, Karwar - KSPCB",14-02-2024 00:00:00,14.816666,74.141003,PM10,71,139,96
India,Karnataka,Karwar,"KHB Colony, Karwar - KSPCB",14-02-2024 00:00:00,14.816666,74.141003,SO2,18,18,18
India,Karnataka,Kolar,"Tamaka Ind. Area, Kolar - KSPCB",14-02-2024 00:00:00,13.1276288,78.1570122,CO,10,12,11
India,Karnataka,Koppal,"Diwator Nagar, Koppal - KSPCB",14-02-2024 00:00:00,15.347630,76.181767,NH3,4,7,5
India,Karnataka,Koppal,"Diwator Nagar, Koppal - KSPCB",14-02-2024 00:00:00,15.347630,76.181767,OZONE,1,46,26
India,Karnataka,Madikeri,"Stuart Hill, Madikeri - KSPCB",14-02-2024 00:00:00,12.415911,75.735050,PM10,18,58,41
India,Karnataka,Madikeri,"Stuart Hill, Madikeri - KSPCB",14-02-2024 00:00:00,12.415911,75.735050,SO2,4,4,4
India,Karnataka,Madikeri,"Stuart Hill, Madikeri - KSPCB",14-02-2024 00:00:00,12.415911,75.735050,OZONE,29,42,36
India,Karnataka,Mysuru,"Hebbal 1st Stage, Mysuru - KSPCB",14-02-2024 00:00:00,12.21041,76.37376,NO2,5,50,22
India,Karnataka,Shivamogga,"Vinoba Nagara, Shivamogga - KSPCB",14-02-2024 00:00:00,13.940000,75.555917,NH3,2,5,3
India,Karnataka,Tumakuru,"Thimmalapura, Tumakuru - KSPCB",14-02-2024 00:00:00,13.377516,77.099072,PM2.5,14,26,19
India,Karnataka,Tumakuru,"Thimmalapura, Tumakuru - KSPCB",14-02-2024 00:00:00,13.377516,77.099072,OZONE,18,57,32
India,Karnataka,Udupi,"Brahmagiri, Udupi - KSPCB",14-02-2024 00:00:00,13.34194444,74.74694444,OZONE,23,23,23
India,Karnataka,Yadgir,"Collector Office, Yadgir - KSPCB",14-02-2024 00:00:00,16.7602,77.1428,NO2,5,8,6
India,Karnataka,Yadgir,"Collector Office, Yadgir - KSPCB",14-02-2024 00:00:00,16.7602,77.1428,SO2,1,27,15
India,Karnataka,Yadgir,"Collector Office, Yadgir - KSPCB",14-02-2024 00:00:00,16.7602,77.1428,OZONE,18,19,18
India,Kerala,Eloor,"Udyogamandal, Eloor - Kerala PCB",14-02-2024 00:00:00,10.073232,76.302765,NO2,4,4,4
India,Kerala,Kannur,"Thavakkara, Kannur - Kerala PCB",14-02-2024 00:00:00,11.875000,75.373200,PM2.5,44,51,47
India,Kerala,Kollam,"Polayathode, Kollam - Kerala PCB",14-02-2024 00:00:00,8.8787,76.6073,PM2.5,61,228,117
India,Kerala,Kollam,"Polayathode, Kollam - Kerala PCB",14-02-2024 00:00:00,8.8787,76.6073,NH3,1,1,1
India,Kerala,Kollam,"Polayathode, Kollam - Kerala PCB",14-02-2024 00:00:00,8.8787,76.6073,CO,7,36,23
India,Kerala,Thiruvananthapuram,"Kariavattom, Thiruvananthapuram - Kerala PCB",14-02-2024 00:00:00,8.563700,76.886500,NO2,8,10,9
India,Kerala,Thiruvananthapuram,"Kariavattom, Thiruvananthapuram - Kerala PCB",14-02-2024 00:00:00,8.563700,76.886500,NH3,1,1,1
India,Kerala,Thiruvananthapuram,"Plammoodu, Thiruvananthapuram - Kerala PCB",14-02-2024 00:00:00,8.5149093,76.9435879,PM10,15,62,34
India,Kerala,Thrissur,"Corporation Ground, Thrissur - Kerala PCB",14-02-2024 00:00:00,10.532400,76.215900,OZONE,36,41,39
India,Madhya Pradesh,Bhopal,"Idgah Hills, Bhopal - MPPCB",14-02-2024 00:00:00,23.264759,77.381568,NO2,12,51,25
India,Madhya Pradesh,Bhopal,"Paryavaran Parisar, Bhopal - MPPCB",14-02-2024 00:00:00,23.210494,77.425409,CO,24,119,61
India,Madhya Pradesh,Dewas,"Bhopal Chauraha, Dewas - MPPCB",14-02-2024 00:00:00,22.9682591,76.064118,NH3,3,3,3
India,Madhya Pradesh,Gwalior,"City Center, Gwalior - MPPCB",14-02-2024 00:00:00,26.203442,78.193251,PM2.5,59,319,206
India,Madhya Pradesh,Gwalior,"City Center, Gwalior - MPPCB",14-02-2024 00:00:00,26.203442,78.193251,NO2,25,82,43
India,Madhya Pradesh,Gwalior,"City Center, Gwalior - MPPCB",14-02-2024 00:00:00,26.203442,78.193251,CO,24,104,75
India,Madhya Pradesh,Gwalior,"Deen Dayal Nagar, Gwalior - MPPCB",14-02-2024 00:00:00,26.259242,78.216432,SO2,17,23,19
India,Madhya Pradesh,Gwalior,"Deen Dayal Nagar, Gwalior - MPPCB",14-02-2024 00:00:00,26.259242,78.216432,CO,20,141,80
India,Madhya Pradesh,Gwalior,"Maharaj Bada, Gwalior - MPPCB",14-02-2024 00:00:00,26.200388,78.147714,PM2.5,80,318,222
India,Madhya Pradesh,Gwalior,"Maharaj Bada, Gwalior - MPPCB",14-02-2024 00:00:00,26.200388,78.147714,SO2,15,30,22
India,Madhya Pradesh,Gwalior,"Phool Bagh, Gwalior - Mondelez Ind. Food",14-02-2024 00:00:00,26.210536,78.171,NO2,4,5,4
India,Madhya Pradesh,Gwalior,"Phool Bagh, Gwalior - Mondelez Ind. Food",14-02-2024 00:00:00,26.210536,78.171,SO2,11,16,12
India,Madhya Pradesh,Indore,"Chhoti Gwaltoli, Indore - MPPCB",14-02-2024 00:00:00,22.4310,75.5213,PM2.5,87,327,230
India,Madhya Pradesh,Indore,"Chhoti Gwaltoli, Indore - MPPCB",14-02-2024 00:00:00,22.4310,75.5213,NO2,51,134,76
India,Madhya Pradesh,Indore,"Maguda Nagar, Indore - IMC",14-02-2024 00:00:00,22.7524,75.8872,PM10,64,110,87
India,Madhya Pradesh,Indore,"Regional Park, Indore - IMC",14-02-2024 00:00:00,22.6780,75.8559,PM10,33,145,67
India,Madhya Pradesh,Indore,"Regional Park, Indore - IMC",14-02-2024 00:00:00,22.6780,75.8559,CO,20,62,30
India,Madhya Pradesh,Jabalpur,"Gupteshwar, Jabalpur - JMC",14-02-2024 00:00:00,23.142888,79.916147,SO2,6,38,15
India,Madhya Pradesh,Jabalpur,"Marhatal, Jabalpur - MPPCB",14-02-2024 00:00:00,23.168606,79.932247,NH3,6,9,7
India,Madhya Pradesh,Jabalpur,"Suhagi, Jabalpur - JMC",14-02-2024 00:00:00,23.218135,79.957770,PM2.5,NA,NA,NA
India,Madhya Pradesh,Katni,"Gole Bazar, Katni - MPPCB",14-02-2024 00:00:00,23.50016,80.23284,PM10,NA,NA,NA
India,Madhya Pradesh,Maihar,"Sahilara, Maihar - KJS Cements",14-02-2024 00:00:00,24.2613009,80.7231783,PM10,34,77,55
India,Madhya Pradesh,Maihar,"Sahilara, Maihar - KJS Cements",14-02-2024 00:00:00,24.2613009,80.7231783,NO2,14,14,14
India,Madhya Pradesh,Maihar,"Sahilara, Maihar - KJS Cements",14-02-2024 00:00:00,24.2613009,80.7231783,CO,24,30,26
India,Madhya Pradesh,Pithampur,"Sector-2 Industrial Area, Pithampur - MPPCB",14-02-2024 00:00:00,22.624758,75.675238,PM10,69,211,147
India,Madhya Pradesh,Pithampur,"Sector-2 Industrial Area, Pithampur - MPPCB",14-02-2024 00:00:00,22.624758,75.675238,SO2,11,16,13
India,Madhya Pradesh,Ratlam,"Shasthri Nagar, Ratlam - IPCA Lab",14-02-2024 00:00:00,23.331731,75.045981,NO2,9,80,46
India,Madhya Pradesh,Sagar,"Civil Lines, Sagar - MPPCB",14-02-2024 00:00:00,23.838586,78.759431,NO2,13,18,15
India,Madhya Pradesh,Sagar,"Deen Dayal Nagar, Sagar - MPPCB",14-02-2024 00:00:00,23.8640158,78.80289321,PM10,68,174,98
India,Madhya Pradesh,Sagar,"Deen Dayal Nagar, Sagar - MPPCB",14-02-2024 00:00:00,23.8640158,78.80289321,SO2,4,15,8
India,Madhya Pradesh,Satna,"Bandhavgar Colony, Satna - Birla Cement",14-02-2024 00:00:00,24.58434363,80.8549414,CO,22,28,23
India,Maharashtra,Ahmednagar,"Tarakpur, Ahmednagar - MPCB",14-02-2024 00:00:00,19.10122,74.73339,PM10,65,251,132
India,Maharashtra,Ahmednagar,"Tarakpur, Ahmednagar - MPCB",14-02-2024 00:00:00,19.10122,74.73339,SO2,11,20,15
India,Maharashtra,Akola,"Ramdaspeth, Akola - MPCB",14-02-2024 00:00:00,20.719516,77.000253,SO2,6,55,15
India,Maharashtra,Amravati,"Shivneri Colony, Amravati - MPCB",14-02-2024 00:00:00,20.9402359,77.7895248,SO2,2,18,7
India,Maharashtra,Aurangabad,"MIDC Chilkalthana, Aurangabad - MPCB",14-02-2024 00:00:00,19.875620,75.387310,CO,2,61,22
India,Maharashtra,Aurangabad,"More Chowk Waluj, Aurangabad - MPCB",14-02-2024 00:00:00,19.8389439,75.244448,OZONE,2,12,6
India,Maharashtra,Aurangabad,"Rachnakar Colony, Aurangabad - MPCB",14-02-2024 00:00:00,19.863756,75.321188,OZONE,5,91,58
India,Maharashtra,Badlapur,"Katrap, Badlapur - MPCB",14-02-2024 00:00:00,19.16485,73.23409,PM2.5,6,218,125
India,Maharashtra,Badlapur,"Katrap, Badlapur - MPCB",14-02-2024 00:00:00,19.16485,73.23409,PM10,16,173,116
India,Maharashtra,Belapur,"CBD Belapur, Belapur - MPCB",14-02-2024 00:00:00,19.0243902,73.0406721,PM2.5,59,139,87
India,Maharashtra,Belapur,"CBD Belapur, Belapur - MPCB",14-02-2024 00:00:00,19.0243902,73.0406721,NO2,16,84,52
India,Maharashtra,Belapur,"CBD Belapur, Belapur - MPCB",14-02-2024 00:00:00,19.0243902,73.0406721,NH3,15,48,27
India,Maharashtra,Boisar,"Khaira, Boisar - MPCB",14-02-2024 00:00:00,19.786089,72.757971,PM2.5,86,299,172
India,Maharashtra,Chandrapur,"Chauhan Colony, Chandrapur - MPCB",14-02-2024 00:00:00,19.962900,79.298714,NH3,NA,NA,NA
