country,state,city,station,last_update,latitude,longitude,pollutant_id,pollutant_min,pollutant_max,pollutant_avg
India,Andhra_Pradesh,Chittoor,"Gangineni Cheruvu, Chittoor - APPCB",19-05-2024 16:00:00,13.204880,79.097889,OZONE,13,13,13
India,Andhra_Pradesh,Kadapa,"Yerramukkapalli, Kadapa - APPCB",19-05-2024 16:00:00,14.465052,78.824187,SO2,NA,NA,NA
India,Andhra_Pradesh,Tirupati,"Tirumala, Tirupati - APPCB",19-05-2024 16:00:00,13.67,79.35,SO2,2,10,6
India,Andhra_Pradesh,Tirupati,"Vaikuntapuram, Tirupati - APPCB",19-05-2024 16:00:00,13.615387,79.409230,OZONE,7,20,15
India,Andhra_Pradesh,Vijayawada,"Kanuru, Vijayawada - APPCB",19-05-2024 16:00:00,16.486692,80.699436,PM2.5,NA,NA,NA
India,Andhra_Pradesh,Vijayawada,"Kanuru, Vijayawada - APPCB",19-05-2024 16:00:00,16.486692,80.699436,PM10,NA,NA,NA
India,Andhra_Pradesh,Vijayawada,"Kanuru, Vijayawada - APPCB",19-05-2024 16:00:00,16.486692,80.699436,NH3,NA,NA,NA
India,Andhra_Pradesh,Vijayawada,"Kanuru, Vijayawada - APPCB",19-05-2024 16:00:00,16.486692,80.699436,CO,40,40,40
India,Andhra_Pradesh,Vijayawada,"Rajiv Nagar, Vijayawada - APPCB",19-05-2024 16:00:00,16.554731,80.649110,NO2,12,13,13
India,Andhra_Pradesh,Visakhapatnam,"GVM Corporation, Visakhapatnam - APPCB",19-05-2024 16:00:00,17.72,83.3,PM10,26,94,52
India,Arunachal_Pradesh,Naharlagun,"Naharlagun, Naharlagun - APSPCB",19-05-2024 16:00:00,27.103358,93.679645,PM10,4,40,26
India,Assam,Guwahati,"Pan Bazaar, Guwahati - PCBA",19-05-2024 16:00:00,26.187500,91.744194,SO2,NA,NA,NA
India,Assam,Nagaon,"Christianpatty, Nagaon - PCBA",19-05-2024 16:00:00,26.349082,92.68449,NO2,1,18,6
India,Assam,Nalbari,"Bata Chowk, Nalbari - PCBA",19-05-2024 16:00:00,26.446912,91.439057,SO2,9,13,12
India,Assam,Nalbari,"Bata Chowk, Nalbari - PCBA",19-05-2024 16:00:00,26.446912,91.439057,CO,21,92,91
India,Assam,Silchar,"Tarapur, Silchar - PCBA",19-05-2024 16:00:00,24.82827,92.79525,PM2.5,26,44,34
India,Bihar,Araria,"Kharahiya Basti, Araria - BSPCB",19-05-2024 16:00:00,26.146529,87.454184,NH3,6,6,6
India,Bihar,Arrah,"New DM Office, Arrah - BSPCB",19-05-2024 16:00:00,25.5626095,84.663264,NO2,NA,NA,NA
India,Bihar,Aurangabad,"Gurdeo Nagar, Aurangabad - BSPCB",19-05-2024 16:00:00,24.75746,84.366208,SO2,13,23,19
India,Bihar,Aurangabad,"Gurdeo Nagar, Aurangabad - BSPCB",19-05-2024 16:00:00,24.75746,84.366208,OZONE,31,153,85
India,Bihar,Bettiah,"Kamalnath Nagar, Bettiah - BSPCB",19-05-2024 16:00:00,26.80365,84.51954,PM2.5,48,302,125
India,Bihar,Bettiah,"Kamalnath Nagar, Bettiah - BSPCB",19-05-2024 16:00:00,26.80365,84.51954,PM10,NA,NA,NA
India,Bihar,Bettiah,"Kamalnath Nagar, Bettiah - BSPCB",19-05-2024 16:00:00,26.80365,84.51954,SO2,9,17,13
India,Bihar,Bhagalpur,"DM Office_Kachari Chowk, Bhagalpur - BSPCB",19-05-2024 16:00:00,25.251013,86.989001,SO2,31,105,58
India,Bihar,Bhagalpur,"Mayaganj, Bhagalpur - BSPCB",19-05-2024 16:00:00,25.265194,87.012947,CO,2,24,4
India,Bihar,Bhagalpur,"Mayaganj, Bhagalpur - BSPCB",19-05-2024 16:00:00,25.265194,87.012947,OZONE,12,52,36
India,Bihar,Bihar Sharif,"D M Colony, Bihar Sharif - BSPCB",19-05-2024 16:00:00,25.204762,85.514960,PM2.5,NA,NA,NA
India,Bihar,Buxar,"Charitra Van, Buxar - BSPCB (Formerly known as Central Jail)",19-05-2024 16:00:00,25.567520,83.966379,PM2.5,120,402,228
India,Bihar,Gaya,"Kareemganj, Gaya - BSPCB",19-05-2024 16:00:00,24.792403,84.992416,PM10,10,71,29
India,Bihar,Gaya,"SFTI Kusdihra, Gaya - BSPCB",19-05-2024 16:00:00,24.762518,84.982348,PM2.5,21,104,71
India,Bihar,Gaya,"SFTI Kusdihra, Gaya - BSPCB",19-05-2024 16:00:00,24.762518,84.982348,NO2,17,61,38
India,Bihar,Kishanganj,"SDM Office_Khagra, Kishanganj - BSPCB",19-05-2024 16:00:00,26.0881305,87.93840336,NH3,9,12,10
India,Bihar,Manguraha,"Forest Rest House, Manguraha - BSPCB",19-05-2024 16:00:00,27.308328,84.531742,PM10,NA,NA,NA
India,Bihar,Manguraha,"Forest Rest House, Manguraha - BSPCB",19-05-2024 16:00:00,27.308328,84.531742,OZONE,4,25,17
India,Bihar,Motihari,"Gandak Colony, Motihari - BSPCB",19-05-2024 16:00:00,26.63086,84.90051,NO2,27,47,38
India,Bihar,Motihari,"Gandak Colony, Motihari - BSPCB",19-05-2024 16:00:00,26.63086,84.90051,OZONE,11,50,36
India,Bihar,Munger,"Town Hall, Munger - BSPCB",19-05-2024 16:00:00,25.376776,86.471523,PM2.5,156,218,184
India,Bihar,Muzaffarpur,"Buddha Colony, Muzaffarpur - BSPCB",19-05-2024 16:00:00,26.11442,85.39813,PM10,77,190,121
India,Bihar,Muzaffarpur,"Buddha Colony, Muzaffarpur - BSPCB",19-05-2024 16:00:00,26.11442,85.39813,NH3,7,12,10
India,Bihar,Muzaffarpur,"MIT-Daudpur Kothi, Muzaffarpur - BSPCB",19-05-2024 16:00:00,26.1403345,85.3650192,NO2,2,5,4
India,Bihar,Muzaffarpur,"Muzaffarpur Collectorate, Muzaffarpur - BSPCB",19-05-2024 16:00:00,26.1209,85.3647,PM2.5,53,320,94
India,Bihar,Muzaffarpur,"Muzaffarpur Collectorate, Muzaffarpur - BSPCB",19-05-2024 16:00:00,26.1209,85.3647,NO2,23,49,33
India,Bihar,Muzaffarpur,"Muzaffarpur Collectorate, Muzaffarpur - BSPCB",19-05-2024 16:00:00,26.1209,85.3647,CO,28,88,33
India,Bihar,Patna,"DRM Office Danapur, Patna - BSPCB",19-05-2024 16:00:00,25.586562,85.043586,PM2.5,68,247,161
India,Bihar,Patna,"IGSC Planetarium Complex, Patna - BSPCB",19-05-2024 16:00:00,25.610369,85.132568,PM2.5,88,266,145
India,Bihar,Patna,"Muradpur, Patna - BSPCB",19-05-2024 16:00:00,25.619651,85.147382,NH3,2,6,4
India,Bihar,Patna,"Muradpur, Patna - BSPCB",19-05-2024 16:00:00,25.619651,85.147382,SO2,6,9,8
India,Bihar,Patna,"Muradpur, Patna - BSPCB",19-05-2024 16:00:00,25.619651,85.147382,CO,22,141,30
India,Bihar,Patna,"Rajbansi Nagar, Patna - BSPCB",19-05-2024 16:00:00,25.599486,85.113666,CO,2,117,19
India,Bihar,Patna,"Rajbansi Nagar, Patna - BSPCB",19-05-2024 16:00:00,25.599486,85.113666,OZONE,11,87,44
India,Bihar,Patna,"Samanpura, Patna - BSPCB",19-05-2024 16:00:00,25.596727,85.085624,NO2,2,66,20
India,Bihar,Purnia,"Mariam Nagar, Purnia - BSPCB",19-05-2024 16:00:00,25.366336,87.117468,PM2.5,12,70,44
India,Bihar,Purnia,"Mariam Nagar, Purnia - BSPCB",19-05-2024 16:00:00,25.366336,87.117468,PM10,17,101,62
India,Bihar,Purnia,"Mariam Nagar, Purnia - BSPCB",19-05-2024 16:00:00,25.366336,87.117468,NH3,4,17,10
India,Bihar,Saharsa,"Police Line, Saharsa - BSPCB",19-05-2024 16:00:00,25.892357,86.590325,PM10,38,133,76
India,Bihar,Samastipur,"DM Office_Kasipur, Samastipur - BSPCB",19-05-2024 16:00:00,25.859655,85.77944,SO2,NA,NA,NA
India,Bihar,Siwan,"Chitragupta Nagar, Siwan - BSPCB",19-05-2024 16:00:00,26.2271665,84.3570427,PM2.5,50,247,110
India,Bihar,Siwan,"Chitragupta Nagar, Siwan - BSPCB",19-05-2024 16:00:00,26.2271665,84.3570427,SO2,28,36,31
India,Chandigarh,Chandigarh,"Sector 22, Chandigarh - CPCC",19-05-2024 16:00:00,30.735567,76.775714,PM10,93,200,151
India,Chandigarh,Chandigarh,"Sector-25, Chandigarh - CPCC",19-05-2024 16:00:00,30.751462,76.762879,NH3,8,20,14
India,Chandigarh,Chandigarh,"Sector-53, Chandigarh - CPCC",19-05-2024 16:00:00,30.719859,76.738637,NH3,5,7,6
India,Chhattisgarh,Bhilai,"32Bungalows, Bhilai - CECB",19-05-2024 16:00:00,21.194815,81.314770,OZONE,6,36,19
India,Chhattisgarh,Bhilai,"Hathkhoj, Bhilai - CECB",19-05-2024 16:00:00,21.224231,81.408350,PM10,20,57,36
India,Chhattisgarh,Bhilai,"Hathkhoj, Bhilai - CECB",19-05-2024 16:00:00,21.224231,81.408350,NH3,8,9,9
India,Chhattisgarh,Bhilai,"Hathkhoj, Bhilai - CECB",19-05-2024 16:00:00,21.224231,81.408350,SO2,11,17,13
India,Chhattisgarh,Bhilai,"Hathkhoj, Bhilai - CECB",19-05-2024 16:00:00,21.224231,81.408350,CO,6,76,16
India,Chhattisgarh,Bilaspur,"Mangala, Bilaspur - NTPC",19-05-2024 16:00:00,22.08815,82.13737,PM2.5,7,44,23
India,Chhattisgarh,Chhal,"Nawapara SECL Colony, Chhal - CECB",19-05-2024 16:00:00,22.118125,83.140608,OZONE,12,96,67
India,Chhattisgarh,Korba,"Rampur, Korba - CECB",19-05-2024 16:00:00,22.368195,82.746431,PM2.5,15,35,21
India,Chhattisgarh,Kunjemura,"OP Jindal School, Kunjemura - CECB",19-05-2024 16:00:00,22.126650,83.483212,NO2,14,86,36
India,Chhattisgarh,Kunjemura,"OP Jindal School, Kunjemura - CECB",19-05-2024 16:00:00,22.126650,83.483212,CO,16,36,26
India,Chhattisgarh,Milupara,"Govt. Higher Secondary School, Milupara - CECB",19-05-2024 16:00:00,22.1910172,83.5197009,CO,16,46,24
India,Chhattisgarh,Raipur,"AIIMS, Raipur - CECB",19-05-2024 16:00:00,21.258815,81.578979,NH3,NA,NA,NA
India,Chhattisgarh,Raipur,"Bhatagaon New ISBT, Raipur - CECB",19-05-2024 16:00:00,21.219665,81.630094,PM10,8,37,20
India,Chhattisgarh,Raipur,"Krishak Nagar, Raipur - CECB",19-05-2024 16:00:00,21.237755,81.705301,PM2.5,4,30,12
India,Chhattisgarh,Raipur,"Krishak Nagar, Raipur - CECB",19-05-2024 16:00:00,21.237755,81.705301,SO2,7,26,15
India,Chhattisgarh,Raipur,"Krishak Nagar, Raipur - CECB",19-05-2024 16:00:00,21.237755,81.705301,CO,18,26,23
India,Chhattisgarh,Raipur,"Krishak Nagar, Raipur - CECB",19-05-2024 16:00:00,21.237755,81.705301,OZONE,5,70,17
India,Chhattisgarh,Raipur,"Siltara Phase-II, Raipur - CECB",19-05-2024 16:00:00,21.371751,81.664929,CO,12,32,22
India,Chhattisgarh,Raipur,"Siltara Phase-II, Raipur - CECB",19-05-2024 16:00:00,21.371751,81.664929,OZONE,3,43,14
India,Delhi,Delhi,"Alipur, Delhi - DPCC",19-05-2024 16:00:00,28.815329,77.153010,SO2,10,70,30
India,Delhi,Delhi,"Ashok Vihar, Delhi - DPCC",19-05-2024 16:00:00,28.695381,77.181665,PM10,150,380,237
India,Delhi,Delhi,"Aya Nagar, Delhi - IMD",19-05-2024 16:00:00,28.4706914,77.1099364,PM2.5,28,312,164
India,Delhi,Delhi,"Bawana, Delhi - DPCC",19-05-2024 16:00:00,28.776200,77.051074,CO,28,101,55
India,Delhi,Delhi,"CRRI Mathura Road, Delhi - IMD",19-05-2024 16:00:00,28.5512005,77.2735737,PM2.5,99,353,262
India,Delhi,Delhi,"CRRI Mathura Road, Delhi - IMD",19-05-2024 16:00:00,28.5512005,77.2735737,NO2,8,27,18
India,Delhi,Delhi,"CRRI Mathura Road, Delhi - IMD",19-05-2024 16:00:00,28.5512005,77.2735737,CO,20,112,40
India,Delhi,Delhi,"DTU, Delhi - CPCB",19-05-2024 16:00:00,28.7500499,77.1112615,CO,6,58,30
India,Delhi,Delhi,"Dr. Karni Singh Shooting Range, Delhi - DPCC",19-05-2024 16:00:00,28.498571,77.264840,NH3,6,14,8
India,Delhi,Delhi,"Dr. Karni Singh Shooting Range, Delhi - DPCC",19-05-2024 16:00:00,28.498571,77.264840,OZONE,1,277,224
India,Delhi,Delhi,"IGI Airport (T3), Delhi - IMD",19-05-2024 16:00:00,28.5627763,77.1180053,CO,20,66,41
India,Delhi,Delhi,"ITO, Delhi - CPCB",19-05-2024 16:00:00,28.628624,77.241060,PM10,104,184,138
India,Delhi,Delhi,"ITO, Delhi - CPCB",19-05-2024 16:00:00,28.628624,77.241060,NH3,4,9,6
India,Delhi,Delhi,"Jawaharlal Nehru Stadium, Delhi - DPCC",19-05-2024 16:00:00,28.580280,77.233829,PM2.5,33,304,129
India,Delhi,Delhi,"Jawaharlal Nehru Stadium, Delhi - DPCC",19-05-2024 16:00:00,28.580280,77.233829,NO2,2,40,18
India,Delhi,Delhi,"Jawaharlal Nehru Stadium, Delhi - DPCC",19-05-2024 16:00:00,28.580280,77.233829,NH3,8,11,9
India,Delhi,Delhi,"Jawaharlal Nehru Stadium, Delhi - DPCC",19-05-2024 16:00:00,28.580280,77.233829,SO2,11,61,35
India,Delhi,Delhi,"Lodhi Road, Delhi - IITM",19-05-2024 16:00:00,28.588333,77.221667,SO2,NA,NA,NA
India,Delhi,Delhi,"Major Dhyan Chand National Stadium, Delhi - DPCC",19-05-2024 16:00:00,28.611281,77.237738,PM2.5,57,332,185
India,Delhi,Delhi,"Mandir Marg, Delhi - DPCC",19-05-2024 16:00:00,28.636429,77.201067,PM10,95,243,163
India,Delhi,Delhi,"Mandir Marg, Delhi - DPCC",19-05-2024 16:00:00,28.636429,77.201067,NH3,7,11,9
India,Delhi,Delhi,"Mandir Marg, Delhi - DPCC",19-05-2024 16:00:00,28.636429,77.201067,CO,28,60,46
India,Delhi,Delhi,"Najafgarh, Delhi - DPCC",19-05-2024 16:00:00,28.570173,76.933762,NO2,8,51,23
India,Delhi,Delhi,"Najafgarh, Delhi - DPCC",19-05-2024 16:00:00,28.570173,76.933762,CO,27,90,46
India,Delhi,Delhi,"Narela, Delhi - DPCC",19-05-2024 16:00:00,28.822836,77.101981,CO,25,81,46
India,Delhi,Delhi,"Narela, Delhi - DPCC",19-05-2024 16:00:00,28.822836,77.101981,OZONE,11,234,154
India,Delhi,Delhi,"Nehru Nagar, Delhi - DPCC",19-05-2024 16:00:00,28.567890,77.250515,NO2,9,82,37
India,Delhi,Delhi,"North Campus, DU, Delhi - IMD",19-05-2024 16:00:00,28.6573814,77.1585447,OZONE,5,73,52
India,Delhi,Delhi,"Okhla Phase-2, Delhi - DPCC",19-05-2024 16:00:00,28.530785,77.271255,PM2.5,63,316,170
India,Delhi,Delhi,"Okhla Phase-2, Delhi - DPCC",19-05-2024 16:00:00,28.530785,77.271255,OZONE,4,193,119
India,Delhi,Delhi,"Patparganj, Delhi - DPCC",19-05-2024 16:00:00,28.623763,77.287209,PM10,185,437,278
India,Delhi,Delhi,"Patparganj, Delhi - DPCC",19-05-2024 16:00:00,28.623763,77.287209,NO2,7,61,27
India,Delhi,Delhi,"Pusa, Delhi - DPCC",19-05-2024 16:00:00,28.639652,77.146275,PM10,185,441,268
India,Delhi,Delhi,"Pusa, Delhi - DPCC",19-05-2024 16:00:00,28.639652,77.146275,SO2,8,102,27
India,Delhi,Delhi,"Pusa, Delhi - IMD",19-05-2024 16:00:00,28.636110,77.173332,PM2.5,NA,NA,NA
India,Delhi,Delhi,"R K Puram, Delhi - DPCC",19-05-2024 16:00:00,28.563262,77.186937,PM2.5,63,358,206
India,Delhi,Delhi,"R K Puram, Delhi - DPCC",19-05-2024 16:00:00,28.563262,77.186937,CO,16,130,79
India,Delhi,Delhi,"R K Puram, Delhi - DPCC",19-05-2024 16:00:00,28.563262,77.186937,OZONE,15,261,159
India,Delhi,Delhi,"Sirifort, Delhi - CPCB",19-05-2024 16:00:00,28.5504249,77.2159377,NO2,32,58,47
India,Delhi,Delhi,"Sonia Vihar, Delhi - DPCC",19-05-2024 16:00:00,28.710508,77.249485,NO2,15,103,47
India,Delhi,Delhi,"Sonia Vihar, Delhi - DPCC",19-05-2024 16:00:00,28.710508,77.249485,NH3,5,9,7
India,Delhi,Delhi,"Sonia Vihar, Delhi - DPCC",19-05-2024 16:00:00,28.710508,77.249485,SO2,8,57,25
India,Delhi,Delhi,"Sri Aurobindo Marg, Delhi - DPCC",19-05-2024 16:00:00,28.531346,77.190156,OZONE,3,130,84
India,Delhi,Delhi,"Vivek Vihar, Delhi - DPCC",19-05-2024 16:00:00,28.672342,77.315260,PM2.5,78,355,177
India,Delhi,Delhi,"Vivek Vihar, Delhi - DPCC",19-05-2024 16:00:00,28.672342,77.315260,PM10,171,412,263
India,Delhi,Delhi,"Vivek Vihar, Delhi - DPCC",19-05-2024 16:00:00,28.672342,77.315260,NO2,41,163,90
India,Delhi,Delhi,"Vivek Vihar, Delhi - DPCC",19-05-2024 16:00:00,28.672342,77.315260,CO,14,104,35
India,Delhi,Delhi,"Wazirpur, Delhi - DPCC",19-05-2024 16:00:00,28.699793,77.165453,PM2.5,60,378,222
India,Delhi,Delhi,"Wazirpur, Delhi - DPCC",19-05-2024 16:00:00,28.699793,77.165453,OZONE,2,234,146
India,Gujarat,Ahmedabad,"Chandkheda, Ahmedabad - IITM",19-05-2024 16:00:00,23.107969,72.574648,NO2,41,61,49
India,Gujarat,Ahmedabad,"Chandkheda, Ahmedabad - IITM",19-05-2024 16:00:00,23.107969,72.574648,CO,2,66,36
India,Gujarat,Ahmedabad,"Chandkheda, Ahmedabad - IITM",19-05-2024 16:00:00,23.107969,72.574648,OZONE,35,67,58
India,Gujarat,Ahmedabad,"Gyaspur, Ahmedabad - IITM",19-05-2024 16:00:00,22.977134,72.553024,PM10,97,205,129
India,Gujarat,Ahmedabad,"Gyaspur, Ahmedabad - IITM",19-05-2024 16:00:00,22.977134,72.553024,NO2,39,51,46
India,Gujarat,Ahmedabad,"Gyaspur, Ahmedabad - IITM",19-05-2024 16:00:00,22.977134,72.553024,SO2,1,30,21
India,Gujarat,Ahmedabad,"Gyaspur, Ahmedabad - IITM",19-05-2024 16:00:00,22.977134,72.553024,OZONE,23,144,58
India,Gujarat,Ahmedabad,"Raikhad, Ahmedabad - IITM",19-05-2024 16:00:00,23.020509,72.579261,PM10,86,146,122
India,Gujarat,Ahmedabad,"Rakhial, Ahmedabad - IITM",19-05-2024 16:00:00,23.016834,72.625775,PM2.5,49,315,104
India,Gujarat,Ahmedabad,"Rakhial, Ahmedabad - IITM",19-05-2024 16:00:00,23.016834,72.625775,CO,56,120,61
India,Gujarat,Ahmedabad,"SVPI Airport Hansol, Ahmedabad - IITM",19-05-2024 16:00:00,23.076793,72.627874,SO2,8,26,13
India,Gujarat,Ahmedabad,"Sardar Vallabhbhai Patel Stadium, Ahmedabad - IITM",19-05-2024 16:00:00,23.043070,72.562968,NO2,16,51,34
India,Gujarat,Ahmedabad,"Sardar Vallabhbhai Patel Stadium, Ahmedabad - IITM",19-05-2024 16:00:00,23.043070,72.562968,NH3,5,11,6
India,Gujarat,Ahmedabad,"Sardar Vallabhbhai Patel Stadium, Ahmedabad - IITM",19-05-2024 16:00:00,23.043070,72.562968,OZONE,19,65,47
India,Gujarat,Ankleshwar,"GIDC, Ankleshwar - GPCB",19-05-2024 16:00:00,21.613267,73.010555,CO,28,60,39
India,Gujarat,Gandhinagar,"Sector-10, Gandhinagar - GPCB",19-05-2024 16:00:00,23.221714,72.654328,PM10,52,120,80
India,Gujarat,Gandhinagar,"Sector-10, Gandhinagar - GPCB",19-05-2024 16:00:00,23.221714,72.654328,NH3,3,3,3
India,Gujarat,Gandhinagar,"Sector-10, Gandhinagar - GPCB",19-05-2024 16:00:00,23.221714,72.654328,CO,20,73,22
India,Gujarat,Vapi,"Phase-1 GIDC, Vapi - GPCB",19-05-2024 16:00:00,20.362421,72.918013,PM2.5,24,67,42
India,Gujarat,Vapi,"Phase-1 GIDC, Vapi - GPCB",19-05-2024 16:00:00,20.362421,72.918013,OZONE,1,2,2
India,Gujarat,Vatva,"Phase-4 GIDC, Vatva - GPCB",19-05-2024 16:00:00,22.969611,72.643500,CO,34,36,36
India,Haryana,Ambala,"Patti Mehar, Ambala - HSPCB",19-05-2024 16:00:00,30.379589,76.778328,PM10,88,405,162
India,Haryana,Ambala,"Patti Mehar, Ambala - HSPCB",19-05-2024 16:00:00,30.379589,76.778328,CO,30,60,47
India,Haryana,Ambala,"Patti Mehar, Ambala - HSPCB",19-05-2024 16:00:00,30.379589,76.778328,OZONE,35,57,49
India,Haryana,Ballabgarh,"Nathu Colony, Ballabgarh - HSPCB",19-05-2024 16:00:00,28.3419248,77.319699,SO2,4,60,27
India,Haryana,Ballabgarh,"Nathu Colony, Ballabgarh - HSPCB",19-05-2024 16:00:00,28.3419248,77.319699,CO,3,110,14
India,Haryana,Charkhi Dadri,"Mini Secretariat, Charkhi Dadri - HSPCB",19-05-2024 16:00:00,28.593883,76.270653,OZONE,13,16,15
India,Haryana,Dharuhera,"Municipal Corporation Office, Dharuhera -  HSPCB",19-05-2024 16:00:00,28.206800,76.799700,SO2,6,104,33
India,Haryana,Dharuhera,"Municipal Corporation Office, Dharuhera -  HSPCB",19-05-2024 16:00:00,28.206800,76.799700,OZONE,6,43,38
India,Haryana,Faridabad,"New Industrial Town, Faridabad - HSPCB",19-05-2024 16:00:00,28.39072,77.30059,OZONE,7,158,90
India,Haryana,Faridabad,"Sector 11, Faridabad - HSPCB",19-05-2024 16:00:00,28.376058,77.315741,NO2,30,32,31
India,Haryana,Faridabad,"Sector 11, Faridabad - HSPCB",19-05-2024 16:00:00,28.376058,77.315741,SO2,4,113,10
India,Haryana,Faridabad,"Sector- 16A, Faridabad - HSPCB",19-05-2024 16:00:00,28.4088421,77.3099081,CO,70,106,96
India,Haryana,Fatehabad,"Huda Sector, Fatehabad - HSPCB",19-05-2024 16:00:00,29.503664,75.467934,PM2.5,56,184,116
India,Haryana,Gurugram,"NISE Gwal Pahari, Gurugram - IMD",19-05-2024 16:00:00,28.422681,77.148944,CO,53,104,91
India,Haryana,Gurugram,"Sector-51, Gurugram - HSPCB",19-05-2024 16:00:00,28.4227,77.0667,CO,33,107,55
India,Haryana,Gurugram,"Vikas Sadan, Gurugram - HSPCB",19-05-2024 16:00:00,28.4501238,77.0263051,OZONE,8,68,50
India,Haryana,Hisar,"Urban Estate-II, Hisar - HSPCB",19-05-2024 16:00:00,29.140560,75.744941,NH3,9,11,10
India,Haryana,Hisar,"Urban Estate-II, Hisar - HSPCB",19-05-2024 16:00:00,29.140560,75.744941,SO2,3,34,12
India,Haryana,Jind,"Police Lines, Jind - HSPCB",19-05-2024 16:00:00,29.307814,76.337619,NO2,1,350,26
India,Haryana,Kaithal,"Rishi Nagar, Kaithal - HSPCB",19-05-2024 16:00:00,29.8006,76.4155,NO2,24,26,25
India,Haryana,Kaithal,"Rishi Nagar, Kaithal - HSPCB",19-05-2024 16:00:00,29.8006,76.4155,OZONE,7,16,12
India,Haryana,Karnal,"Sector-12, Karnal - HSPCB",19-05-2024 16:00:00,29.695300,77.002700,PM10,113,158,132
India,Haryana,Kurukshetra,"Sector-7, Kurukshetra - HSPCB",19-05-2024 16:00:00,29.966942,76.875879,SO2,2,3,2
India,Haryana,Mandikhera,"General Hospital, Mandikhera - HSPCB",19-05-2024 16:00:00,27.9002,76.9938,NO2,NA,NA,NA
India,Haryana,Mandikhera,"General Hospital, Mandikhera - HSPCB",19-05-2024 16:00:00,27.9002,76.9938,SO2,NA,NA,NA
India,Haryana,Manesar,"Sector-2 IMT, Manesar - HSPCB",19-05-2024 16:00:00,28.360699,76.936090,PM2.5,62,222,124
India,Haryana,Manesar,"Sector-2 IMT, Manesar - HSPCB",19-05-2024 16:00:00,28.360699,76.936090,PM10,62,140,101
India,Haryana,Narnaul,"Shastri Nagar, Narnaul - HSPCB",19-05-2024 16:00:00,28.060249,76.113115,SO2,13,48,18
India,Haryana,Palwal,"Shyam Nagar, Palwal - HSPCB",19-05-2024 16:00:00,28.1485564,77.3320667,PM10,90,136,108
India,Haryana,Panipat,"Sector-18, Panipat - HSPCB",19-05-2024 16:00:00,29.432304,76.972765,PM2.5,101,106,104
India,Haryana,Rohtak,"MD University, Rohtak - HSPCB",19-05-2024 16:00:00,28.52123,76.37138,NO2,47,55,51
India,Haryana,Sonipat,"Murthal, Sonipat - HSPCB",19-05-2024 16:00:00,29.027200,77.062100,NO2,NA,NA,NA
India,Haryana,Yamuna Nagar,"Gobind Pura, Yamuna Nagar - HSPCB",19-05-2024 16:00:00,30.1480566,77.2893471,NH3,1,6,4
India,Jharkhand,Dhanbad,"Kalakusuma, Dhanbad - DMC",19-05-2024 16:00:00,23.811548,86.481238,SO2,10,24,17
India,Jharkhand,Pathardih,"Mohalbani Ghat, Pathardih - DMC",19-05-2024 16:00:00,23.669880,86.411725,PM2.5,NA,NA,NA
India,Jharkhand,Pathardih,"Mohalbani Ghat, Pathardih - DMC",19-05-2024 16:00:00,23.669880,86.411725,CO,NA,NA,NA
India,Karnataka,Bagalkot,"Vidayagiri, Bagalkot - KSPCB",19-05-2024 16:00:00,16.172806,75.659694,PM10,45,46,46
India,Karnataka,Bagalkot,"Vidayagiri, Bagalkot - KSPCB",19-05-2024 16:00:00,16.172806,75.659694,NO2,9,12,9
India,Karnataka,Belgaum,"Ramteerth Nagar, Belgaum - KSPCB",19-05-2024 16:00:00,15.888653,74.541751,PM2.5,19,32,24
India,Karnataka,Belgaum,"Ramteerth Nagar, Belgaum - KSPCB",19-05-2024 16:00:00,15.888653,74.541751,NH3,7,12,10
India,Karnataka,Bengaluru,"Bapuji Nagar, Bengaluru - KSPCB",19-05-2024 16:00:00,12.951913,77.539784,PM10,21,94,50
India,Karnataka,Bengaluru,"Bapuji Nagar, Bengaluru - KSPCB",19-05-2024 16:00:00,12.951913,77.539784,NO2,15,16,15
India,Karnataka,Bengaluru,"Bapuji Nagar, Bengaluru - KSPCB",19-05-2024 16:00:00,12.951913,77.539784,NH3,1,1,1
India,Karnataka,Bengaluru,"Bapuji Nagar, Bengaluru - KSPCB",19-05-2024 16:00:00,12.951913,77.539784,SO2,5,8,7
India,Karnataka,Bengaluru,"Hebbal, Bengaluru - KSPCB",19-05-2024 16:00:00,13.029152,77.585901,PM2.5,7,83,36
India,Karnataka,Bengaluru,"Hebbal, Bengaluru - KSPCB",19-05-2024 16:00:00,13.029152,77.585901,NO2,5,5,5
India,Karnataka,Bengaluru,"Hebbal, Bengaluru - KSPCB",19-05-2024 16:00:00,13.029152,77.585901,NH3,1,1,1
India,Karnataka,Bengaluru,"Hombegowda Nagar, Bengaluru - KSPCB",19-05-2024 16:00:00,12.938539,77.590100,PM10,23,60,37
India,Karnataka,Bengaluru,"Hombegowda Nagar, Bengaluru - KSPCB",19-05-2024 16:00:00,12.938539,77.590100,NO2,12,23,17
India,Karnataka,Bengaluru,"Hombegowda Nagar, Bengaluru - KSPCB",19-05-2024 16:00:00,12.938539,77.590100,NH3,1,2,2
India,Karnataka,Bengaluru,"Hombegowda Nagar, Bengaluru - KSPCB",19-05-2024 16:00:00,12.938539,77.590100,SO2,2,4,3
India,Karnataka,Bengaluru,"Jayanagar 5th Block, Bengaluru - KSPCB",19-05-2024 16:00:00,12.920984,77.584908,PM10,27,72,45
India,Karnataka,Bengaluru,"Kasturi Nagar, Bengaluru - KSPCB",19-05-2024 16:00:00,13.003872,77.664217,PM10,51,52,52
India,Karnataka,Bengaluru,"RVCE-Mailasandra, Bengaluru - KSPCB",19-05-2024 16:00:00,12.921418,77.502466,PM10,13,61,44
India,Karnataka,Bengaluru,"RVCE-Mailasandra, Bengaluru - KSPCB",19-05-2024 16:00:00,12.921418,77.502466,NO2,16,17,17
India,Karnataka,Bengaluru,"Sanegurava Halli, Bengaluru - KSPCB",19-05-2024 16:00:00,12.990328,77.5431385,SO2,2,3,3
India,Karnataka,Bengaluru,"Shivapura_Peenya, Bengaluru - KSPCB",19-05-2024 16:00:00,13.0246342,77.5080115,NO2,15,16,15
India,Karnataka,Bengaluru,"Shivapura_Peenya, Bengaluru - KSPCB",19-05-2024 16:00:00,13.0246342,77.5080115,SO2,2,12,4
India,Karnataka,Bengaluru,"Silk Board, Bengaluru - KSPCB",19-05-2024 16:00:00,12.917348,77.622813,SO2,8,19,13
India,Karnataka,Bidar,"Naubad, Bidar - KSPCB",19-05-2024 16:00:00,17.930306,77.482194,PM2.5,20,52,33
India,Karnataka,Bidar,"Naubad, Bidar - KSPCB",19-05-2024 16:00:00,17.930306,77.482194,SO2,17,22,19
India,Karnataka,Chamarajanagar,"Urban, Chamarajanagar - KSPCB",19-05-2024 16:00:00,11.55358,76.55521,NH3,2,3,2
India,Karnataka,Chamarajanagar,"Urban, Chamarajanagar - KSPCB",19-05-2024 16:00:00,11.55358,76.55521,OZONE,14,32,24
India,Karnataka,Chikkaballapur,"Chikkaballapur Rural, Chikkaballapur - KSPCB",19-05-2024 16:00:00,13.428828,77.731418,CO,12,31,15
India,Karnataka,Chikkamagaluru,"Kalyana Nagara, Chikkamagaluru - KSPCB",19-05-2024 16:00:00,13.328028,75.797056,CO,11,101,33
India,Karnataka,Dharwad,"Kalabhavan, Dharwad - KSPCB",19-05-2024 16:00:00,15.459706,75.008381,NH3,2,3,3
India,Karnataka,Hassan,"B.Katihalli, Hassan - KSPCB",19-05-2024 16:00:00,13.008556,76.125258,CO,NA,NA,NA
India,Karnataka,Haveri,"Ashwini Nagar, Haveri - KSPCB",19-05-2024 16:00:00,14.791800,75.389600,NO2,NA,NA,NA
India,Karnataka,Kalaburagi,"Lal Bahadur Shastri Nagar, Kalaburagi - KSPCB",19-05-2024 16:00:00,17.321993,76.822628,SO2,NA,NA,NA
India,Karnataka,Kolar,"Tamaka Ind. Area, Kolar - KSPCB",19-05-2024 16:00:00,13.1276288,78.1570122,NH3,NA,NA,NA
India,Karnataka,Koppal,"Diwator Nagar, Koppal - KSPCB",19-05-2024 16:00:00,15.347630,76.181767,NH3,6,9,8
India,Karnataka,Madikeri,"Stuart Hill, Madikeri - KSPCB",19-05-2024 16:00:00,12.415911,75.735050,NO2,2,9,5
India,Karnataka,Madikeri,"Stuart Hill, Madikeri - KSPCB",19-05-2024 16:00:00,12.415911,75.735050,CO,2,86,30
India,Karnataka,Mangalore,"Kadri, Mangalore - KSPCB",19-05-2024 16:00:00,12.889250,74.853000,NO2,5,6,6
India,Karnataka,Mangalore,"Kadri, Mangalore - KSPCB",19-05-2024 16:00:00,12.889250,74.853000,NH3,1,2,2
India,Karnataka,Mangalore,"Kadri, Mangalore - KSPCB",19-05-2024 16:00:00,12.889250,74.853000,OZONE,30,33,32
India,Karnataka,Mysuru,"Hebbal 1st Stage, Mysuru - KSPCB",19-05-2024 16:00:00,12.21041,76.37376,PM2.5,NA,NA,NA
India,Karnataka,Mysuru,"Hebbal 1st Stage, Mysuru - KSPCB",19-05-2024 16:00:00,12.21041,76.37376,NO2,NA,NA,NA
India,Karnataka,Ramanagara,"Vijay Nagar, Ramanagara - KSPCB",19-05-2024 16:00:00,12.733409,77.298051,PM2.5,9,50,26
India,Karnataka,Ramanagara,"Vijay Nagar, Ramanagara - KSPCB",19-05-2024 16:00:00,12.733409,77.298051,CO,4,26,19
India,Karnataka,Udupi,"Brahmagiri, Udupi - KSPCB",19-05-2024 16:00:00,13.34194444,74.74694444,PM2.5,NA,NA,NA
India,Karnataka,Udupi,"Brahmagiri, Udupi - KSPCB",19-05-2024 16:00:00,13.34194444,74.74694444,PM10,NA,NA,NA
India,Karnataka,Udupi,"Brahmagiri, Udupi - KSPCB",19-05-2024 16:00:00,13.34194444,74.74694444,NO2,NA,NA,NA
India,Karnataka,Udupi,"Brahmagiri, Udupi - KSPCB",19-05-2024 16:00:00,13.34194444,74.74694444,CO,NA,NA,NA
India,Karnataka,Vijayapura,"Ibrahimpur, Vijayapura - KSPCB",19-05-2024 16:00:00,16.802639,75.722694,PM2.5,26,31,30
India,Karnataka,Yadgir,"Collector Office, Yadgir - KSPCB",19-05-2024 16:00:00,16.7602,77.1428,CO,18,37,25
India,Kerala,Kollam,"Polayathode, Kollam - Kerala PCB",19-05-2024 16:00:00,8.8787,76.6073,NO2,NA,NA,NA
India,Kerala,Thiruvananthapuram,"Kariavattom, Thiruvananthapuram - Kerala PCB",19-05-2024 16:00:00,8.563700,76.886500,PM10,82,95,89
India,Kerala,Thiruvananthapuram,"Plammoodu, Thiruvananthapuram - Kerala PCB",19-05-2024 16:00:00,8.5149093,76.9435879,NO2,7,10,9
India,Kerala,Thiruvananthapuram,"Plammoodu, Thiruvananthapuram - Kerala PCB",19-05-2024 16:00:00,8.5149093,76.9435879,SO2,8,18,11
India,Kerala,Thrissur,"Corporation Ground, Thrissur - Kerala PCB",19-05-2024 16:00:00,10.532400,76.215900,PM10,58,70,64
India,Madhya Pradesh,Bhopal,"Paryavaran Parisar, Bhopal - MPPCB",19-05-2024 16:00:00,23.210494,77.425409,PM10,49,110,78
India,Madhya Pradesh,Bhopal,"Paryavaran Parisar, Bhopal - MPPCB",19-05-2024 16:00:00,23.210494,77.425409,SO2,8,12,10
India,Madhya Pradesh,Bhopal,"T T Nagar, Bhopal - MPPCB",19-05-2024 16:00:00,23.233584,77.400574,PM2.5,32,78,50
India,Madhya Pradesh,Dewas,"Bhopal Chauraha, Dewas - MPPCB",19-05-2024 16:00:00,22.9682591,76.064118,PM2.5,23,160,51
India,Madhya Pradesh,Dewas,"Bhopal Chauraha, Dewas - MPPCB",19-05-2024 16:00:00,22.9682591,76.064118,SO2,14,38,27
India,Madhya Pradesh,Gwalior,"City Center, Gwalior - MPPCB",19-05-2024 16:00:00,26.203442,78.193251,NH3,3,11,5
India,Madhya Pradesh,Gwalior,"Deen Dayal Nagar, Gwalior - MPPCB",19-05-2024 16:00:00,26.259242,78.216432,PM2.5,44,323,156
India,Madhya Pradesh,Gwalior,"Deen Dayal Nagar, Gwalior - MPPCB",19-05-2024 16:00:00,26.259242,78.216432,SO2,6,20,13
India,Madhya Pradesh,Indore,"Chhoti Gwaltoli, Indore - MPPCB",19-05-2024 16:00:00,22.4310,75.5213,NH3,4,5,4
India,Madhya Pradesh,Indore,"Regional Park, Indore - IMC",19-05-2024 16:00:00,22.6780,75.8559,SO2,50,53,52
India,Madhya Pradesh,Indore,"Regional Park, Indore - IMC",19-05-2024 16:00:00,22.6780,75.8559,OZONE,13,29,22
India,Madhya Pradesh,Indore,"Residency Area, Indore - IMC",19-05-2024 16:00:00,22.7084,75.8815,NO2,29,48,38
India,Madhya Pradesh,Indore,"Residency Area, Indore - IMC",19-05-2024 16:00:00,22.7084,75.8815,CO,12,14,12
India,Madhya Pradesh,Indore,"Residency Area, Indore - IMC",19-05-2024 16:00:00,22.7084,75.8815,OZONE,13,26,21
India,Madhya Pradesh,Jabalpur,"Gupteshwar, Jabalpur - JMC",19-05-2024 16:00:00,23.142888,79.916147,PM2.5,29,85,45
India,Madhya Pradesh,Jabalpur,"Gupteshwar, Jabalpur - JMC",19-05-2024 16:00:00,23.142888,79.916147,NO2,7,61,16
India,Madhya Pradesh,Jabalpur,"Gupteshwar, Jabalpur - JMC",19-05-2024 16:00:00,23.142888,79.916147,OZONE,42,179,153
India,Madhya Pradesh,Jabalpur,"Marhatal, Jabalpur - MPPCB",19-05-2024 16:00:00,23.168606,79.932247,NO2,17,117,43
India,Madhya Pradesh,Jabalpur,"Marhatal, Jabalpur - MPPCB",19-05-2024 16:00:00,23.168606,79.932247,CO,22,105,40
India,Madhya Pradesh,Jabalpur,"Suhagi, Jabalpur - JMC",19-05-2024 16:00:00,23.218135,79.957770,PM10,25,225,61
India,Madhya Pradesh,Katni,"Gole Bazar, Katni - MPPCB",19-05-2024 16:00:00,23.50016,80.23284,PM2.5,20,67,40
India,Madhya Pradesh,Katni,"Gole Bazar, Katni - MPPCB",19-05-2024 16:00:00,23.50016,80.23284,NO2,26,70,36
India,Madhya Pradesh,Mandideep,"Sector-D Industrial Area, Mandideep - MPPCB",19-05-2024 16:00:00,23.108440,77.511428,SO2,NA,NA,NA
India,Madhya Pradesh,Pithampur,"Sector-2 Industrial Area, Pithampur - MPPCB",19-05-2024 16:00:00,22.624758,75.675238,NH3,2,3,3
India,Madhya Pradesh,Pithampur,"Sector-2 Industrial Area, Pithampur - MPPCB",19-05-2024 16:00:00,22.624758,75.675238,CO,24,48,44
India,Madhya Pradesh,Sagar,"Civil Lines, Sagar - MPPCB",19-05-2024 16:00:00,23.838586,78.759431,SO2,2,24,12
India,Madhya Pradesh,Sagar,"Civil Lines, Sagar - MPPCB",19-05-2024 16:00:00,23.838586,78.759431,CO,2,24,20
India,Madhya Pradesh,Satna,"Bandhavgar Colony, Satna - Birla Cement",19-05-2024 16:00:00,24.58434363,80.8549414,PM10,25,46,33
India,Madhya Pradesh,Satna,"Bandhavgar Colony, Satna - Birla Cement",19-05-2024 16:00:00,24.58434363,80.8549414,SO2,1,3,1
India,Madhya Pradesh,Ujjain,"Mahakaleshwar Temple, Ujjain - MPPCB",19-05-2024 16:00:00,23.182719 ,75.768218 ,PM10,67,122,95
India,Maharashtra,Ahmednagar,"Tarakpur, Ahmednagar - MPCB",19-05-2024 16:00:00,19.10122,74.73339,CO,30,54,37
India,Maharashtra,Akola,"Ramdaspeth, Akola - MPCB",19-05-2024 16:00:00,20.719516,77.000253,PM2.5,36,64,50
India,Maharashtra,Akola,"Ramdaspeth, Akola - MPCB",19-05-2024 16:00:00,20.719516,77.000253,PM10,37,219,89
India,Maharashtra,Akola,"Ramdaspeth, Akola - MPCB",19-05-2024 16:00:00,20.719516,77.000253,NH3,4,9,6
India,Maharashtra,Amravati,"Shivneri Colony, Amravati - MPCB",19-05-2024 16:00:00,20.9402359,77.7895248,PM10,40,82,58
India,Maharashtra,Amravati,"Shivneri Colony, Amravati - MPCB",19-05-2024 16:00:00,20.9402359,77.7895248,SO2,1,4,1
India,Maharashtra,Amravati,"Shri Shivaji Science College, Amaravati - MPCB",19-05-2024 16:00:00,20.939198,77.765701,PM10,45,91,60
India,Maharashtra,Amravati,"Shri Shivaji Science College, Amaravati - MPCB",19-05-2024 16:00:00,20.939198,77.765701,OZONE,10,76,43
India,Maharashtra,Aurangabad,"MIDC Chilkalthana, Aurangabad - MPCB",19-05-2024 16:00:00,19.875620,75.387310,CO,27,57,31
India,Maharashtra,Aurangabad,"More Chowk Waluj, Aurangabad - MPCB",19-05-2024 16:00:00,19.8389439,75.244448,SO2,NA,NA,NA
India,Maharashtra,Aurangabad,"More Chowk Waluj, Aurangabad - MPCB",19-05-2024 16:00:00,19.8389439,75.244448,OZONE,25,116,77
India,Maharashtra,Badlapur,"Katrap, Badlapur - MPCB",19-05-2024 16:00:00,19.16485,73.23409,PM2.5,46,90,63
India,Maharashtra,Badlapur,"Katrap, Badlapur - MPCB",19-05-2024 16:00:00,19.16485,73.23409,NH3,6,8,7
India,Maharashtra,Badlapur,"Katrap, Badlapur - MPCB",19-05-2024 16:00:00,19.16485,73.23409,OZONE,4,116,58
India,Maharashtra,Belapur,"CBD Belapur, Belapur - MPCB",19-05-2024 16:00:00,19.0243902,73.0406721,NH3,2,3,2
India,Maharashtra,Belapur,"CBD Belapur, Belapur - MPCB",19-05-2024 16:00:00,19.0243902,73.0406721,SO2,1,8,5
India,Maharashtra,Belapur,"CBD Belapur, Belapur - MPCB",19-05-2024 16:00:00,19.0243902,73.0406721,CO,9,15,12
India,Maharashtra,Bhiwandi,"Gokul Nagar, Bhiwandi - MPCB",19-05-2024 16:00:00,19.309073,73.057223,SO2,15,16,15
India,Maharashtra,Bhiwandi,"Gokul Nagar, Bhiwandi - MPCB",19-05-2024 16:00:00,19.309073,73.057223,CO,20,46,27
India,Maharashtra,Bhiwandi,"Gokul Nagar, Bhiwandi - MPCB",19-05-2024 16:00:00,19.309073,73.057223,OZONE,29,156,96
India,Maharashtra,Boisar,"Khaira, Boisar - MPCB",19-05-2024 16:00:00,19.786089,72.757971,SO2,2,24,17
India,Maharashtra,Chandrapur,"Chauhan Colony, Chandrapur - MPCB",19-05-2024 16:00:00,19.962900,79.298714,PM2.5,7,50,25
India,Maharashtra,Chandrapur,"Chauhan Colony, Chandrapur - MPCB",19-05-2024 16:00:00,19.962900,79.298714,PM10,NA,NA,NA
India,Maharashtra,Chandrapur,"Chauhan Colony, Chandrapur - MPCB",19-05-2024 16:00:00,19.962900,79.298714,NH3,2,7,4
India,Maharashtra,Chandrapur,"MIDC Khutala, Chandrapur - MPCB",19-05-2024 16:00:00,19.9775302,79.2337086,SO2,7,39,19
India,Maharashtra,Jalgaon,"Prabhat Colony, Jalgaon - MPCB",19-05-2024 16:00:00,21.001264,75.565602,PM10,107,218,134
India,Maharashtra,Kalyan,"Khadakpada, Kalyan - MPCB",19-05-2024 16:00:00,19.25292,73.142019,NO2,22,155,39
India,Maharashtra,Kalyan,"Khadakpada, Kalyan - MPCB",19-05-2024 16:00:00,19.25292,73.142019,NH3,1,4,1
India,Maharashtra,Kalyan,"Khadakpada, Kalyan - MPCB",19-05-2024 16:00:00,19.25292,73.142019,OZONE,9,20,15
India,Maharashtra,Kolhapur,"Shivaji University, Kolhapur - MPCB",19-05-2024 16:00:00,16.6870449,74.2505872,PM10,77,116,99
India,Maharashtra,Kolhapur,"Shivaji University, Kolhapur - MPCB",19-05-2024 16:00:00,16.6870449,74.2505872,SO2,2,5,3
India,Maharashtra,Latur,"Sawe Wadi, Latur - MPCB",19-05-2024 16:00:00,18.39963,76.57452,PM2.5,15,71,37
India,Maharashtra,Latur,"Sawe Wadi, Latur - MPCB",19-05-2024 16:00:00,18.39963,76.57452,NH3,NA,NA,NA
India,Maharashtra,Malegaon,"Mahesh Nagar, Malegaon - MPCB",19-05-2024 16:00:00,20.555712,74.529236,PM10,109,175,136
India,Maharashtra,Mira-Bhayandar,"Bhayandar West, Mira-Bhayandar - MPCB",19-05-2024 16:00:00,19.296481,72.840923,PM2.5,27,67,45
India,Maharashtra,Mira-Bhayandar,"Bhayandar West, Mira-Bhayandar - MPCB",19-05-2024 16:00:00,19.296481,72.840923,SO2,1,6,2
India,Maharashtra,Mumbai,"Bandra Kurla Complex, Mumbai - MPCB",19-05-2024 16:00:00,19.065931,72.862131,PM10,86,111,97
India,Maharashtra,Mumbai,"Bandra Kurla Complex, Mumbai - MPCB",19-05-2024 16:00:00,19.065931,72.862131,NH3,3,16,7
India,Maharashtra,Mumbai,"Bandra Kurla Complex, Mumbai - MPCB",19-05-2024 16:00:00,19.065931,72.862131,OZONE,18,58,42
India,Maharashtra,Mumbai,"Borivali East, Mumbai - IITM",19-05-2024 16:00:00,19.23241,72.86895,CO,2,48,24
India,Maharashtra,Mumbai,"Borivali East, Mumbai - MPCB",19-05-2024 16:00:00,19.2243333,72.8658113,SO2,8,19,12
India,Maharashtra,Mumbai,"Borivali East, Mumbai - MPCB",19-05-2024 16:00:00,19.2243333,72.8658113,CO,34,38,36
India,Maharashtra,Mumbai,"Byculla, Mumbai - BMC",19-05-2024 16:00:00,18.9767,72.8380,NO2,5,6,5
India,Maharashtra,Mumbai,"Chakala-Andheri East, Mumbai - IITM",19-05-2024 16:00:00,19.11074,72.86084,SO2,2,20,10
India,Maharashtra,Mumbai,"Chakala-Andheri East, Mumbai - IITM",19-05-2024 16:00:00,19.11074,72.86084,CO,1,9,3
India,Maharashtra,Mumbai,"Chembur, Mumbai - MPCB",19-05-2024 16:00:00,19.0364585,72.8954371,CO,22,36,25
India,Maharashtra,Mumbai,"Chhatrapati Shivaji Intl. Airport (T2), Mumbai - MPCB",19-05-2024 16:00:00,19.10078,72.87462,PM10,60,101,81
India,Maharashtra,Mumbai,"Chhatrapati Shivaji Intl. Airport (T2), Mumbai - MPCB",19-05-2024 16:00:00,19.10078,72.87462,SO2,17,20,19
India,Maharashtra,Mumbai,"Chhatrapati Shivaji Intl. Airport (T2), Mumbai - MPCB",19-05-2024 16:00:00,19.10078,72.87462,OZONE,4,8,6
India,Maharashtra,Mumbai,"Deonar, Mumbai - IITM",19-05-2024 16:00:00,19.04946,72.9230,NH3,9,15,13
India,Maharashtra,Mumbai,"Ghatkopar, Mumbai - BMC",19-05-2024 16:00:00,19.083694,72.920967,NO2,1,18,10
India,Maharashtra,Mumbai,"Ghatkopar, Mumbai - BMC",19-05-2024 16:00:00,19.083694,72.920967,OZONE,1,35,22
India,Maharashtra,Mumbai,"Kandivali East, Mumbai - MPCB",19-05-2024 16:00:00,19.205800,72.868200,NO2,22,106,46
India,Maharashtra,Mumbai,"Kandivali East, Mumbai - MPCB",19-05-2024 16:00:00,19.205800,72.868200,CO,31,34,32
India,Maharashtra,Mumbai,"Kherwadi_Bandra East, Mumbai - MPCB",19-05-2024 16:00:00,19.0632143,72.8456324,PM10,60,102,82
India,Maharashtra,Mumbai,"Kherwadi_Bandra East, Mumbai - MPCB",19-05-2024 16:00:00,19.0632143,72.8456324,CO,2,24,12
India,Maharashtra,Mumbai,"Khindipada-Bhandup West, Mumbai - IITM",19-05-2024 16:00:00,19.1653323,72.922099,NO2,4,21,9
India,Maharashtra,Mumbai,"Khindipada-Bhandup West, Mumbai - IITM",19-05-2024 16:00:00,19.1653323,72.922099,CO,2,21,10
India,Maharashtra,Mumbai,"Kurla, Mumbai - MPCB",19-05-2024 16:00:00,19.0863,72.8888,CO,4,48,6
India,Maharashtra,Mumbai,"Mindspace-Malad West, Mumbai - MPCB",19-05-2024 16:00:00,19.1878657,72.8304069,NO2,4,29,10
India,Maharashtra,Mumbai,"Mindspace-Malad West, Mumbai - MPCB",19-05-2024 16:00:00,19.1878657,72.8304069,SO2,5,9,6
India,Maharashtra,Mumbai,"Mulund West, Mumbai - MPCB",19-05-2024 16:00:00,19.1750,72.9419,PM10,72,117,92
India,Maharashtra,Mumbai,"Mulund West, Mumbai - MPCB",19-05-2024 16:00:00,19.1750,72.9419,NO2,20,22,20
India,Maharashtra,Mumbai,"Navy Nagar-Colaba, Mumbai - IITM",19-05-2024 16:00:00,18.897756,72.813320,NO2,115,143,132
India,Maharashtra,Mumbai,"Navy Nagar-Colaba, Mumbai - IITM",19-05-2024 16:00:00,18.897756,72.813320,SO2,NA,NA,NA
India,Maharashtra,Mumbai,"Siddharth Nagar-Worli, Mumbai - IITM",19-05-2024 16:00:00,19.000083,72.813993,CO,52,67,62
India,Maharashtra,Mumbai,"Vasai West, Mumbai - MPCB",19-05-2024 16:00:00,19.383200,72.820400,NO2,25,29,27
India,Maharashtra,Mumbai,"Vasai West, Mumbai - MPCB",19-05-2024 16:00:00,19.383200,72.820400,SO2,18,21,19
India,Maharashtra,Mumbai,"Vile Parle West, Mumbai - MPCB",19-05-2024 16:00:00,19.10861,72.83622,PM10,NA,NA,NA
India,Maharashtra,Mumbai,"Vile Parle West, Mumbai - MPCB",19-05-2024 16:00:00,19.10861,72.83622,NO2,NA,NA,NA
India,Maharashtra,Mumbai,"Vile Parle West, Mumbai - MPCB",19-05-2024 16:00:00,19.10861,72.83622,SO2,NA,NA,NA
India,Maharashtra,Mumbai,"Worli, Mumbai - MPCB",19-05-2024 16:00:00,18.9936162,72.8128113,NO2,15,17,16
India,Maharashtra,Nagpur,"Ambazari, Nagpur - MPCB",19-05-2024 16:00:00,21.121801,79.04952,NO2,5,32,11
India,Maharashtra,Nagpur,"Ambazari, Nagpur - MPCB",19-05-2024 16:00:00,21.121801,79.04952,SO2,1,24,10
India,Maharashtra,Nagpur,"Mahal, Nagpur - MPCB",19-05-2024 16:00:00,21.14472,79.107595,NH3,4,8,7
India,Maharashtra,Nagpur,"Mahal, Nagpur - MPCB",19-05-2024 16:00:00,21.14472,79.107595,SO2,12,31,22
India,Maharashtra,Nagpur,"Opp GPO Civil Lines, Nagpur - MPCB",19-05-2024 16:00:00,21.152875,79.0517531,PM10,22,91,44
India,Maharashtra,Nagpur,"Opp GPO Civil Lines, Nagpur - MPCB",19-05-2024 16:00:00,21.152875,79.0517531,SO2,5,33,12
India,Maharashtra,Nagpur,"Opp GPO Civil Lines, Nagpur - MPCB",19-05-2024 16:00:00,21.152875,79.0517531,OZONE,11,62,35
India,Maharashtra,Nanded,"Sneh Nagar, Nanded - MPCB",19-05-2024 16:00:00,19.173852,77.296291,OZONE,26,199,199
India,Maharashtra,Nashik,"Hirawadi, Nashik - MPCB",19-05-2024 16:00:00,20.021503,73.813844,CO,12,42,17
India,Maharashtra,Nashik,"MIDC Ambad, Nashik - MPCB",19-05-2024 16:00:00,19.950220,73.731480,NO2,NA,NA,NA
India,Maharashtra,Nashik,"MIDC Ambad, Nashik - MPCB",19-05-2024 16:00:00,19.950220,73.731480,NH3,NA,NA,NA
India,Maharashtra,Nashik,"MIDC Ambad, Nashik - MPCB",19-05-2024 16:00:00,19.950220,73.731480,SO2,NA,NA,NA
India,Maharashtra,Nashik,"Pandav Nagari, Nashik - MPCB",19-05-2024 16:00:00,19.9591346,73.7788008,NO2,8,23,15
India,Maharashtra,Nashik,"Pandav Nagari, Nashik - MPCB",19-05-2024 16:00:00,19.9591346,73.7788008,SO2,15,22,18
India,Maharashtra,Navi Mumbai,"Kopripada-Vashi, Navi Mumbai - MPCB",19-05-2024 16:00:00,19.090337,73.014232,PM2.5,33,98,57
India,Maharashtra,Navi Mumbai,"Kopripada-Vashi, Navi Mumbai - MPCB",19-05-2024 16:00:00,19.090337,73.014232,NH3,5,8,6
India,Maharashtra,Navi Mumbai,"Kopripada-Vashi, Navi Mumbai - MPCB",19-05-2024 16:00:00,19.090337,73.014232,SO2,NA,NA,NA
India,Maharashtra,Navi Mumbai,"Mahape, Navi Mumbai - MPCB",19-05-2024 16:00:00,19.1135051,73.008978,PM2.5,46,298,87
India,Maharashtra,Navi Mumbai,"Mahape, Navi Mumbai - MPCB",19-05-2024 16:00:00,19.1135051,73.008978,NH3,1,2,1
India,Maharashtra,Navi Mumbai,"Nerul, Navi Mumbai - MPCB",19-05-2024 16:00:00,19.008751,73.016620,PM10,73,192,100
India,Maharashtra,Navi Mumbai,"Nerul, Navi Mumbai - MPCB",19-05-2024 16:00:00,19.008751,73.016620,SO2,24,27,25
India,Maharashtra,Navi Mumbai,"Nerul, Navi Mumbai - MPCB",19-05-2024 16:00:00,19.008751,73.016620,CO,20,27,22
India,Maharashtra,Navi Mumbai,"Sanpada, Navi Mumbai - MPCB",19-05-2024 16:00:00,19.0575752,73.0151367,PM2.5,26,49,37
India,Maharashtra,Navi Mumbai,"Sanpada, Navi Mumbai - MPCB",19-05-2024 16:00:00,19.0575752,73.0151367,PM10,71,104,84
India,Maharashtra,Navi Mumbai,"Sector-19A Nerul, Navi Mumbai - IITM",19-05-2024 16:00:00,19.044,73.0325,PM2.5,NA,NA,NA
India,Maharashtra,Navi Mumbai,"Sector-19A Nerul, Navi Mumbai - IITM",19-05-2024 16:00:00,19.044,73.0325,NH3,9,22,13
India,Maharashtra,Navi Mumbai,"Sector-2E Kalamboli, Navi Mumbai - MPCB",19-05-2024 16:00:00,19.02579,73.10297,PM2.5,39,87,60
India,Maharashtra,Navi Mumbai,"Sector-2E Kalamboli, Navi Mumbai - MPCB",19-05-2024 16:00:00,19.02579,73.10297,NH3,3,5,3
India,Maharashtra,Navi Mumbai,"Sector-2E Kalamboli, Navi Mumbai - MPCB",19-05-2024 16:00:00,19.02579,73.10297,SO2,3,15,5
India,Maharashtra,Navi Mumbai,"Tondare-Taloja, Navi Mumbai - MPCB",19-05-2024 16:00:00,19.0630,73.1209,SO2,1,4,1
India,Maharashtra,Navi Mumbai,"Tondare-Taloja, Navi Mumbai - MPCB",19-05-2024 16:00:00,19.0630,73.1209,OZONE,2,42,26
India,Maharashtra,Parbhani,"Masoom Colony, Parbhani - MPCB",19-05-2024 16:00:00,19.265594,76.761463,PM2.5,34,65,51
India,Maharashtra,Parbhani,"Masoom Colony, Parbhani - MPCB",19-05-2024 16:00:00,19.265594,76.761463,CO,22,62,29
India,Maharashtra,Parbhani,"Masoom Colony, Parbhani - MPCB",19-05-2024 16:00:00,19.265594,76.761463,OZONE,15,156,156
India,Maharashtra,Pimpri-Chinchwad,"Park Street Wakad, Pimpri Chinchwad - MPCB",19-05-2024 16:00:00,18.59051,73.77946,PM2.5,113,183,146
India,Maharashtra,Pimpri-Chinchwad,"Park Street Wakad, Pimpri Chinchwad - MPCB",19-05-2024 16:00:00,18.59051,73.77946,OZONE,33,129,89
India,Maharashtra,Pune,"Alandi, Pune - IITM",19-05-2024 16:00:00,18.675076,73.892743,PM10,44,133,75
India,Maharashtra,Pune,"Karve Road, Pune - MPCB",19-05-2024 16:00:00,18.5011743,73.8165527,PM10,44,500,100
India,Maharashtra,Pune,"Karve Road, Pune - MPCB",19-05-2024 16:00:00,18.5011743,73.8165527,OZONE,23,71,56
India,Maharashtra,Pune,"Mhada Colony, Pune - IITM",19-05-2024 16:00:00,18.573040,73.927715,NO2,34,107,64
India,Maharashtra,Pune,"Savitribai Phule Pune University, Pune - MPCB",19-05-2024 16:00:00,18.547056,73.826908,PM2.5,59,93,77
India,Maharashtra,Pune,"Transport Nagar-Nigdi, Pune - IITM",19-05-2024 16:00:00,18.664282,73.763966,NO2,2,59,8
India,Maharashtra,Pune,"Transport Nagar-Nigdi, Pune - IITM",19-05-2024 16:00:00,18.664282,73.763966,OZONE,15,69,45
India,Maharashtra,Sangli,"Vijay Nagar, Sangli - MPCB",19-05-2024 16:00:00, 16.5038,74.3623,NH3,3,4,4
India,Maharashtra,Solapur,"Dnyaneshwar Nagar, Solapur - MPCB",19-05-2024 16:00:00,17.6336264,75.9132495,PM2.5,14,84,42
India,Maharashtra,Solapur,"Solapur, Solapur - MPCB",19-05-2024 16:00:00,17.6599188,75.9063906,PM2.5,NA,NA,NA
India,Maharashtra,Thane,"Kasarvadavali, Thane - MPCB",19-05-2024 16:00:00,19.26777,72.97182,PM10,45,74,59
India,Maharashtra,Thane,"Kasarvadavali, Thane - MPCB",19-05-2024 16:00:00,19.26777,72.97182,NO2,13,42,25
India,Maharashtra,Thane,"Pimpleshwar Mandir, Thane - MPCB",19-05-2024 16:00:00,19.192056,72.9585188,PM10,74,129,104
India,Maharashtra,Thane,"Pimpleshwar Mandir, Thane - MPCB",19-05-2024 16:00:00,19.192056,72.9585188,OZONE,4,61,36
India,Maharashtra,Thane,"Upvan Fort, Thane - MPCB",19-05-2024 16:00:00,19.222279,72.957979,PM2.5,NA,NA,NA
India,Maharashtra,Thane,"Upvan Fort, Thane - MPCB",19-05-2024 16:00:00,19.222279,72.957979,NO2,NA,NA,NA
India,Maharashtra,Thane,"Upvan Fort, Thane - MPCB",19-05-2024 16:00:00,19.222279,72.957979,SO2,NA,NA,NA
India,Maharashtra,Thane,"Upvan Fort, Thane - MPCB",19-05-2024 16:00:00,19.222279,72.957979,CO,NA,NA,NA
India,Maharashtra,Thane,"Upvan Fort, Thane - MPCB",19-05-2024 16:00:00,19.222279,72.957979,OZONE,NA,NA,NA
India,Maharashtra,Virar,"Bolinj, Virar - MPCB",19-05-2024 16:00:00,19.4458210,72.7988231,PM10,84,117,96
India,Maharashtra,Virar,"Bolinj, Virar - MPCB",19-05-2024 16:00:00,19.4458210,72.7988231,NH3,NA,NA,NA
India,Manipur,Imphal,"DM College of Science, Imphal - Manipur PCB",19-05-2024 16:00:00,24.8207389,93.9423085,NH3,2,2,2
India,Manipur,Imphal,"Manipur University, Imphal - Manipur PCB",19-05-2024 16:00:00,24.7524239,93.9286218,PM2.5,31,92,59
India,Manipur,Imphal,"Manipur University, Imphal - Manipur PCB",19-05-2024 16:00:00,24.7524239,93.9286218,OZONE,1,34,18
India,Meghalaya,Shillong,"Lumpyngngad, Shillong - Meghalaya PCB",19-05-2024 16:00:00,25.5586,91.8985,CO,10,15,13
India,Nagaland,Kohima,"PWD Juction, Kohima - NPCB",19-05-2024 16:00:00,25.6635413,94.0989878,PM2.5,50,99,72
India,Nagaland,Kohima,"PWD Juction, Kohima - NPCB",19-05-2024 16:00:00,25.6635413,94.0989878,PM10,51,90,69
India,Nagaland,Kohima,"PWD Juction, Kohima - NPCB",19-05-2024 16:00:00,25.6635413,94.0989878,NH3,1,1,1
India,Odisha,Angul,"Hakimapada, Angul - OSPCB",19-05-2024 16:00:00,20.832874,85.104082,PM10,7,116,50
India,Odisha,Balasore,"Kalidaspur, Balasore - OSPCB",19-05-2024 16:00:00,21.51161,86.89088,CO,6,88,65
India,Odisha,Barbil,"Forest Office, Barbil - OSPCB",19-05-2024 16:00:00,22.1166054,85.3945546,NH3,1,1,1
India,Odisha,Barbil,"Forest Office, Barbil - OSPCB",19-05-2024 16:00:00,22.1166054,85.3945546,CO,13,40,28
India,Odisha,Baripada,"Meher Colony, Baripada - OSPCB",19-05-2024 16:00:00,21.941841,86.728318,PM2.5,14,76,46
India,Odisha,Bhubaneswar,"Lingraj Mandir, Bhubaneswar - OSPCB",19-05-2024 16:00:00,20.240790,85.836784,SO2,1,14,8
India,Odisha,Bhubaneswar,"Patia, Bhubaneswar - OSPCB",19-05-2024 16:00:00,20.34652,85.81630,PM10,7,40,22
India,Odisha,Bileipada,"Tata Township, Bileipada - OSPCB",19-05-2024 16:00:00,22.06156703,85.47409613,CO,10,14,12
India,Odisha,Brajrajnagar,"GM Office, Brajrajnagar - OSPCB",19-05-2024 16:00:00,21.8004996,83.8396977,NO2,15,20,16
India,Odisha,Byasanagar,"Ferro Chrome Colony, Byasanagar - OSPCB",19-05-2024 16:00:00,20.94185,86.11510,PM10,13,126,53
India,Odisha,Byasanagar,"Ferro Chrome Colony, Byasanagar - OSPCB",19-05-2024 16:00:00,20.94185,86.11510,NH3,1,3,2
India,Odisha,Byasanagar,"Ferro Chrome Colony, Byasanagar - OSPCB",19-05-2024 16:00:00,20.94185,86.11510,OZONE,17,136,95
India,Odisha,Cuttack,"CDA Area, Cuttack - OSPCB",19-05-2024 16:00:00,20.48891     ,85.84768     ,SO2,1,8,3
India,Odisha,Keonjhar,"Jagamohanpur, Keonjhar - OSPCB",19-05-2024 16:00:00,21.643900,85.599355,PM2.5,22,72,39
India,Odisha,Keonjhar,"Jagamohanpur, Keonjhar - OSPCB",19-05-2024 16:00:00,21.643900,85.599355,OZONE,16,16,16
India,Odisha,Nayagarh,"Dabuna, Nayagarh - OSPCB",19-05-2024 16:00:00,21.847279,85.416905,NO2,7,8,7
India,Odisha,Nayagarh,"Dabuna, Nayagarh - OSPCB",19-05-2024 16:00:00,21.847279,85.416905,NH3,5,5,5
India,Odisha,Rairangpur,"Divisional Forest Office, Rairangpur - OSPCB",19-05-2024 16:00:00,22.265816,86.174829,NO2,1,2,1
India,Odisha,Rairangpur,"Divisional Forest Office, Rairangpur - OSPCB",19-05-2024 16:00:00,22.265816,86.174829,NH3,3,3,3
India,Odisha,Rourkela,"Fertilizer Township, Rourkela - OSPCB",19-05-2024 16:00:00,22.18972222,84.86277778,PM10,36,152,90
India,Odisha,Rourkela,"Fertilizer Township, Rourkela - OSPCB",19-05-2024 16:00:00,22.18972222,84.86277778,NO2,14,53,21
India,Odisha,Rourkela,"Raghunathpali, Rourkela - OSPCB",19-05-2024 16:00:00,22.220833,84.809444,CO,30,75,37
India,Odisha,Rourkela,"Sector-2, Rourkela - OSPCB",19-05-2024 16:00:00,22.24500000,84.88111111,PM2.5,33,175,74
India,Odisha,Suakati,"OMC Colony, Suakati - OSPCB",19-05-2024 16:00:00,21.606865,85.510538,NO2,5,5,5
India,Odisha,Suakati,"OMC Colony, Suakati - OSPCB",19-05-2024 16:00:00,21.606865,85.510538,SO2,3,20,9
India,Odisha,Talcher,"Talcher Coalfields,Talcher - OSPCB",19-05-2024 16:00:00,20.9360711,85.1707021,OZONE,24,26,25
India,Odisha,Tensa,"Barsua Iron Ore Mines, Tensa - OSPCB",19-05-2024 16:00:00,21.869985,85.167016,PM2.5,30,58,39
India,Odisha,Tensa,"Barsua Iron Ore Mines, Tensa - OSPCB",19-05-2024 16:00:00,21.869985,85.167016,NO2,3,18,8
India,Odisha,Tensa,"Barsua Iron Ore Mines, Tensa - OSPCB",19-05-2024 16:00:00,21.869985,85.167016,NH3,2,3,2
India,Puducherry,Puducherry,"Jawahar Nagar, Puducherry - PPCC",19-05-2024 16:00:00,11.9309,79.8027,PM2.5,2,32,9
India,Punjab,Amritsar,"Golden Temple, Amritsar - PPCB",19-05-2024 16:00:00,31.620000,74.876512,NH3,5,6,5
India,Punjab,Amritsar,"Golden Temple, Amritsar - PPCB",19-05-2024 16:00:00,31.620000,74.876512,SO2,2,107,28
India,Punjab,Bathinda,"Hardev Nagar, Bathinda - PPCB",19-05-2024 16:00:00,30.233011,74.907758,CO,4,148,22
India,Punjab,Khanna,"Kalal Majra, Khanna - PPCB",19-05-2024 16:00:00,30.736056 ,76.209694,NO2,28,29,28
India,Punjab,Ludhiana,"Punjab Agricultural University, Ludhiana - PPCB",19-05-2024 16:00:00,30.9028,75.8086,NO2,27,27,27
India,Punjab,Ludhiana,"Punjab Agricultural University, Ludhiana - PPCB",19-05-2024 16:00:00,30.9028,75.8086,NH3,5,5,5
India,Punjab,Ludhiana,"Punjab Agricultural University, Ludhiana - PPCB",19-05-2024 16:00:00,30.9028,75.8086,OZONE,11,59,45
India,Punjab,Mandi Gobindgarh,"RIMT University, Mandi Gobindgarh - PPCB",19-05-2024 16:00:00,30.649961,76.331442,PM2.5,88,385,295
India,Rajasthan,Ajmer,"Civil Lines,  Ajmer - RSPCB",19-05-2024 16:00:00,26.470859,74.646594,PM10,47,168,97
India,Rajasthan,Banswara,"Rati Talai, Banswara - RSPCB",19-05-2024 16:00:00,23.555190,74.440010,PM10,83,246,156
India,Rajasthan,Baran,"Bamboliya, Baran - RSPCB",19-05-2024 16:00:00,25.106006,76.469948,OZONE,24,117,89
India,Rajasthan,Barmer,"Railway Colony, Barmer - RSPCB",19-05-2024 16:00:00,25.747299,71.393989,SO2,1,3,2
India,Rajasthan,Barmer,"Railway Colony, Barmer - RSPCB",19-05-2024 16:00:00,25.747299,71.393989,OZONE,26,140,96
India,Rajasthan,Bharatpur,"Krishna Nagar, Bharatpur - RSPCB",19-05-2024 16:00:00,27.215415,77.50873,NH3,1,4,2
India,Rajasthan,Bharatpur,"Krishna Nagar, Bharatpur - RSPCB",19-05-2024 16:00:00,27.215415,77.50873,OZONE,14,301,183
India,Rajasthan,Bhiwadi,"RIICO Ind. Area III, Bhiwadi - RSPCB",19-05-2024 16:00:00,28.194909,76.862296,PM2.5,103,301,172
India,Rajasthan,Bhiwadi,"RIICO Ind. Area III, Bhiwadi - RSPCB",19-05-2024 16:00:00,28.194909,76.862296,NO2,9,30,18
India,Rajasthan,Bhiwadi,"RIICO Ind. Area III, Bhiwadi - RSPCB",19-05-2024 16:00:00,28.194909,76.862296,NH3,5,36,20
India,Rajasthan,Bhiwadi,"RIICO Ind. Area III, Bhiwadi - RSPCB",19-05-2024 16:00:00,28.194909,76.862296,SO2,8,21,14
India,Rajasthan,Bhiwadi,"RIICO Ind. Area III, Bhiwadi - RSPCB",19-05-2024 16:00:00,28.194909,76.862296,CO,37,116,93
India,Rajasthan,Bhiwadi,"RIICO Ind. Area III, Bhiwadi - RSPCB",19-05-2024 16:00:00,28.194909,76.862296,OZONE,8,93,60
India,Rajasthan,Bhiwadi,"Vasundhara Nagar_UIT, Bhiwadi - RSPCB",19-05-2024 16:00:00,28.207266,76.829265,NO2,8,92,48
India,Rajasthan,Bikaner,"MM Ground, Bikaner - RSPCB",19-05-2024 16:00:00,28.018792,73.292658,SO2,2,5,3
India,Rajasthan,Bundi,"New Colony, Bundi - RSPCB",19-05-2024 16:00:00,25.435774,75.644272,NH3,4,6,5
India,Rajasthan,Bundi,"New Colony, Bundi - RSPCB",19-05-2024 16:00:00,25.435774,75.644272,CO,14,90,16
India,Rajasthan,Chittorgarh,"Shastri Nagar, Chittorgarh - RSPCB",19-05-2024 16:00:00,24.892047,74.623527,SO2,3,20,8
India,Rajasthan,Dausa,"Khatikan Mohalla, Dausa - RSPCB",19-05-2024 16:00:00,26.895552,76.334753,PM10,122,249,167
India,Rajasthan,Dausa,"Khatikan Mohalla, Dausa - RSPCB",19-05-2024 16:00:00,26.895552,76.334753,NH3,2,20,8
India,Rajasthan,Dausa,"Khatikan Mohalla, Dausa - RSPCB",19-05-2024 16:00:00,26.895552,76.334753,OZONE,13,194,133
India,Rajasthan,Dholpur,"Raja Ganj, Dholpur - RSPCB",19-05-2024 16:00:00,26.699557,77.898881,NH3,5,12,8
India,Rajasthan,Dungarpur,"Bhoiwada, Dungarpur - RSPCB",19-05-2024 16:00:00,23.837789,73.714926,PM10,55,179,104
India,Rajasthan,Dungarpur,"Bhoiwada, Dungarpur - RSPCB",19-05-2024 16:00:00,23.837789,73.714926,NO2,17,36,23
India,Rajasthan,Dungarpur,"Bhoiwada, Dungarpur - RSPCB",19-05-2024 16:00:00,23.837789,73.714926,NH3,2,4,3
India,Rajasthan,Jaipur,"Mansarovar Sector-12, Jaipur - RSPCB",19-05-2024 16:00:00,26.843698,75.766894,PM10,104,412,187
India,Rajasthan,Jaipur,"Mansarovar Sector-12, Jaipur - RSPCB",19-05-2024 16:00:00,26.843698,75.766894,CO,7,106,18
India,Rajasthan,Jaipur,"Police Commissionerate, Jaipur - RSPCB",19-05-2024 16:00:00,26.9164092,75.7994901,PM2.5,65,232,134
India,Rajasthan,Jaipur,"Police Commissionerate, Jaipur - RSPCB",19-05-2024 16:00:00,26.9164092,75.7994901,PM10,95,223,147
India,Rajasthan,Jaipur,"Police Commissionerate, Jaipur - RSPCB",19-05-2024 16:00:00,26.9164092,75.7994901,SO2,5,53,19
India,Rajasthan,Jaipur,"RIICO Sitapura, Jaipur - RSPCB",19-05-2024 16:00:00,26.786682,75.827928,PM10,93,312,165
India,Rajasthan,Jaipur,"RIICO Sitapura, Jaipur - RSPCB",19-05-2024 16:00:00,26.786682,75.827928,SO2,11,47,23
India,Rajasthan,Jaipur,"Sector-2 Murlipura, Jaipur - RSPCB",19-05-2024 16:00:00,26.960669,75.771817,PM10,96,228,144
India,Rajasthan,Jaipur,"Shastri Nagar, Jaipur - RSPCB",19-05-2024 16:00:00,26.9502929,75.730943,NO2,15,114,39
India,Rajasthan,Jalore,"Mudtra Sili, Jalore - RSPCB",19-05-2024 16:00:00,25.344694,72.626208,PM10,79,173,112
India,Rajasthan,Jalore,"Mudtra Sili, Jalore - RSPCB",19-05-2024 16:00:00,25.344694,72.626208,NH3,6,10,7
India,Rajasthan,Jalore,"Mudtra Sili, Jalore - RSPCB",19-05-2024 16:00:00,25.344694,72.626208,CO,11,36,21
India,Rajasthan,Jalore,"Mudtra Sili, Jalore - RSPCB",19-05-2024 16:00:00,25.344694,72.626208,OZONE,41,158,158
India,Rajasthan,Jhalawar,"Rajlaxmi Nagar, Jhalawar - RSPCB",19-05-2024 16:00:00,24.588397,76.172782,PM2.5,18,226,57
India,Rajasthan,Jhalawar,"Rajlaxmi Nagar, Jhalawar - RSPCB",19-05-2024 16:00:00,24.588397,76.172782,CO,16,112,19
India,Rajasthan,Jhalawar,"Rajlaxmi Nagar, Jhalawar - RSPCB",19-05-2024 16:00:00,24.588397,76.172782,OZONE,8,123,101
India,Rajasthan,Jhunjhunu,"Indra Nagar, Jhunjhunu - RSPCB",19-05-2024 16:00:00,28.108988,75.386577,PM10,91,266,142
India,Rajasthan,Jhunjhunu,"Indra Nagar, Jhunjhunu - RSPCB",19-05-2024 16:00:00,28.108988,75.386577,NO2,12,51,25
India,Rajasthan,Jhunjhunu,"Indra Nagar, Jhunjhunu - RSPCB",19-05-2024 16:00:00,28.108988,75.386577,CO,16,57,27
India,Rajasthan,Jodhpur,"Collectorate, Jodhpur - RSPCB",19-05-2024 16:00:00,26.268249,73.0193853,PM10,50,197,108
India,Rajasthan,Jodhpur,"Collectorate, Jodhpur - RSPCB",19-05-2024 16:00:00,26.268249,73.0193853,SO2,8,13,11
India,Rajasthan,Jodhpur,"Jhalamand, Jodhpur - RSPCB",19-05-2024 16:00:00,26.215415,73.070156,PM10,41,227,94
India,Rajasthan,Jodhpur,"Jhalamand, Jodhpur - RSPCB",19-05-2024 16:00:00,26.215415,73.070156,NO2,2,117,21
India,Rajasthan,Jodhpur,"Jhalamand, Jodhpur - RSPCB",19-05-2024 16:00:00,26.215415,73.070156,OZONE,32,114,97
India,Rajasthan,Jodhpur,"Mandor, Jodhpur - RSPCB",19-05-2024 16:00:00,26.358805,73.047444,PM2.5,9,52,25
India,Rajasthan,Jodhpur,"Mandor, Jodhpur - RSPCB",19-05-2024 16:00:00,26.358805,73.047444,PM10,45,131,76
India,Rajasthan,Jodhpur,"Mandor, Jodhpur - RSPCB",19-05-2024 16:00:00,26.358805,73.047444,NH3,5,7,6
India,Rajasthan,Jodhpur,"Samrat Ashok Udhyan, Jodhpur - RSPCB",19-05-2024 16:00:00,26.253384,72.976571,CO,7,42,20
India,Rajasthan,Karauli,"Satyawati Vihar, Karauli - RSPCB",19-05-2024 16:00:00,26.506177,77.025989,CO,12,102,23
India,Rajasthan,Kota,"Nayapura, Kota - RSPCB",19-05-2024 16:00:00,25.196024,75.855668,PM10,66,190,99
India,Rajasthan,Kota,"Shrinath Puram, Kota - RSPCB",19-05-2024 16:00:00,25.14389,75.821256,PM2.5,35,207,87
India,Rajasthan,Kota,"Shrinath Puram, Kota - RSPCB",19-05-2024 16:00:00,25.14389,75.821256,PM10,61,122,90
India,Rajasthan,Kota,"Shrinath Puram, Kota - RSPCB",19-05-2024 16:00:00,25.14389,75.821256,NO2,9,78,33
India,Rajasthan,Sawai Madhopur,"Sahu Nagar, Sawai Madhopur - RSPCB",19-05-2024 16:00:00,26.031443,76.359327,CO,12,109,22
India,Rajasthan,Sikar,"Radhakishan Pura, Sikar - RSPCB",19-05-2024 16:00:00,27.608912,75.153302,NO2,1,110,41
India,Rajasthan,Sikar,"Radhakishan Pura, Sikar - RSPCB",19-05-2024 16:00:00,27.608912,75.153302,SO2,4,15,6
India,Rajasthan,Sirohi,"Vedhaynath Colony, Sirohi - RSPCB",19-05-2024 16:00:00,24.885261,72.857549,PM2.5,28,74,42
India,Rajasthan,Sirohi,"Vedhaynath Colony, Sirohi - RSPCB",19-05-2024 16:00:00,24.885261,72.857549,PM10,47,120,75
India,Rajasthan,Sri Ganganagar,"Old City, Sri Ganganagar - RSPCB",19-05-2024 16:00:00,29.931624,73.864511,PM10,167,416,268
India,Rajasthan,Sri Ganganagar,"Old City, Sri Ganganagar - RSPCB",19-05-2024 16:00:00,29.931624,73.864511,NO2,10,108,34
India,Rajasthan,Sri Ganganagar,"Old City, Sri Ganganagar - RSPCB",19-05-2024 16:00:00,29.931624,73.864511,NH3,14,35,22
India,Rajasthan,Sri Ganganagar,"Old City, Sri Ganganagar - RSPCB",19-05-2024 16:00:00,29.931624,73.864511,CO,10,103,44
India,Rajasthan,Tonk,"Shastri Nagar, Tonk - RSPCB",19-05-2024 16:00:00,26.159933,75.780517,CO,NA,NA,NA
India,Rajasthan,Tonk,"Shastri Nagar, Tonk - RSPCB",19-05-2024 16:00:00,26.159933,75.780517,OZONE,18,151,105
India,Rajasthan,Udaipur,"Ashok Nagar, Udaipur - RSPCB",19-05-2024 16:00:00,24.5886166,73.6321397,PM2.5,36,117,74
India,Rajasthan,Udaipur,"Ashok Nagar, Udaipur - RSPCB",19-05-2024 16:00:00,24.5886166,73.6321397,PM10,81,128,99
India,Rajasthan,Udaipur,"Ashok Nagar, Udaipur - RSPCB",19-05-2024 16:00:00,24.5886166,73.6321397,NH3,2,5,3
India,Rajasthan,Udaipur,"Ashok Nagar, Udaipur - RSPCB",19-05-2024 16:00:00,24.5886166,73.6321397,OZONE,28,75,66
India,Sikkim,Gangtok,"Zero Point GICI, Gangtok - SSPCB",19-05-2024 16:00:00,27.338530,88.614099,PM2.5,NA,NA,NA
India,Sikkim,Gangtok,"Zero Point GICI, Gangtok - SSPCB",19-05-2024 16:00:00,27.338530,88.614099,SO2,11,13,12
India,TamilNadu,Chennai,"Alandur Bus Depot, Chennai - CPCB",19-05-2024 16:00:00,12.9099161,80.1076538,PM2.5,23,23,23
India,TamilNadu,Chennai,"Alandur Bus Depot, Chennai - CPCB",19-05-2024 16:00:00,12.9099161,80.1076538,PM10,23,23,23
India,TamilNadu,Chennai,"Kodungaiyur, Chennai - TNPCB",19-05-2024 16:00:00,13.1278,80.2642,NO2,5,26,11
India,TamilNadu,Chennai,"Manali, Chennai - CPCB",19-05-2024 16:00:00,13.164544,80.26285,PM10,1,126,16
India,TamilNadu,Chennai,"Manali, Chennai - CPCB",19-05-2024 16:00:00,13.164544,80.26285,OZONE,6,25,17
India,TamilNadu,Chennai,"Perungudi, Chennai - TNPCB",19-05-2024 16:00:00,12.9533,80.2357,SO2,1,4,2
India,TamilNadu,Chennai,"Perungudi, Chennai - TNPCB",19-05-2024 16:00:00,12.9533,80.2357,CO,13,30,24
India,TamilNadu,Chennai,"Royapuram, Chennai - TNPCB",19-05-2024 16:00:00,13.1036,80.2909,NH3,1,2,1
India,TamilNadu,Chennai,"Royapuram, Chennai - TNPCB",19-05-2024 16:00:00,13.1036,80.2909,OZONE,2,27,19
India,TamilNadu,Chennai,"Velachery Res. Area, Chennai - CPCB",19-05-2024 16:00:00,13.0052189,80.2398125,PM2.5,7,24,15
India,TamilNadu,Chennai,"Velachery Res. Area, Chennai - CPCB",19-05-2024 16:00:00,13.0052189,80.2398125,CO,118,120,119
India,TamilNadu,Coimbatore,"PSG College of Arts and Science, Coimbatore - TNPCB",19-05-2024 16:00:00,11.0328,77.0349,NO2,1,5,2
India,TamilNadu,Cuddalore,"Kudikadu, Cuddalore - TNPCB",19-05-2024 16:00:00,11.6829898,79.7532099,SO2,10,10,10
India,TamilNadu,Gummidipoondi,"Anthoni Pillai Nagar, Gummidipoondi - TNPCB",19-05-2024 16:00:00,13.4127,80.1081,PM2.5,3,90,25
India,TamilNadu,Ramanathapuram,"Chalai Bazaar, Ramanathapuram - TNPCB",19-05-2024 16:00:00,9.36399,78.831977,OZONE,13,14,14
India,TamilNadu,Thoothukudi,"Meelavittan, Thoothukudi - TNPCB",19-05-2024 16:00:00,8.816428 ,78.099039,SO2,4,10,8
India,TamilNadu,Vellore,"Vasanthapuram, Vellore - TNPCB",19-05-2024 16:00:00,12.909494,79.131861,PM2.5,NA,NA,NA
India,Telangana,Hyderabad,"Bollaram Industrial Area, Hyderabad - TSPCB",19-05-2024 16:00:00,17.540891,78.358528,PM10,28,56,37
India,Telangana,Hyderabad,"Bollaram Industrial Area, Hyderabad - TSPCB",19-05-2024 16:00:00,17.540891,78.358528,SO2,7,39,17
India,Telangana,Hyderabad,"ECIL Kapra, Hyderabad - TSPCB",19-05-2024 16:00:00,17.470431,78.566959,SO2,NA,NA,NA
India,Telangana,Hyderabad,"ICRISAT Patancheru, Hyderabad - TSPCB",19-05-2024 16:00:00,17.518400,78.278777,NO2,15,18,16
India,Telangana,Hyderabad,"IITH Kandi, Hyderabad - TSPCB",19-05-2024 16:00:00,17.585705,78.126199,PM2.5,NA,NA,NA
India,Telangana,Hyderabad,"IITH Kandi, Hyderabad - TSPCB",19-05-2024 16:00:00,17.585705,78.126199,NO2,NA,NA,NA
India,Telangana,Hyderabad,"Kokapet, Hyderabad - TSPCB",19-05-2024 16:00:00,17.393559,78.339194,PM10,NA,NA,NA
India,Telangana,Hyderabad,"Kompally Municipal Office, Hyderabad - TSPCB",19-05-2024 16:00:00,17.544899,78.486949,PM2.5,39,54,44
India,Telangana,Hyderabad,"Kompally Municipal Office, Hyderabad - TSPCB",19-05-2024 16:00:00,17.544899,78.486949,NH3,5,7,6
India,Telangana,Hyderabad,"Kompally Municipal Office, Hyderabad - TSPCB",19-05-2024 16:00:00,17.544899,78.486949,SO2,7,16,12
India,Telangana,Hyderabad,"Kompally Municipal Office, Hyderabad - TSPCB",19-05-2024 16:00:00,17.544899,78.486949,CO,20,44,24
India,Telangana,Hyderabad,"New Malakpet, Hyderabad - TSPCB",19-05-2024 16:00:00,17.37206,78.50864,CO,18,48,31
India,Telangana,Hyderabad,"Ramachandrapuram, Hyderabad - TSPCB",19-05-2024 16:00:00,17.528544,78.286195,CO,NA,NA,NA
India,Telangana,Hyderabad,"Sanathnagar, Hyderabad - TSPCB",19-05-2024 16:00:00,17.4559458,78.4332152,NO2,20,324,141
India,Telangana,Hyderabad,"Sanathnagar, Hyderabad - TSPCB",19-05-2024 16:00:00,17.4559458,78.4332152,OZONE,8,188,78
India,Telangana,Hyderabad,"Zoo Park, Hyderabad - TSPCB",19-05-2024 16:00:00,17.349694,78.451437,CO,28,72,40
India,Tripura,Agartala,"Bardowali, Agartala - Tripura SPCB",19-05-2024 16:00:00,23.8175497,91.2726974,CO,6,44,11
India,Uttar_Pradesh,Agra,"Sanjay Palace, Agra - UPPCB",19-05-2024 16:00:00,27.19865833,78.00598056,PM10,31,143,82
India,Uttar_Pradesh,Agra,"Sanjay Palace, Agra - UPPCB",19-05-2024 16:00:00,27.19865833,78.00598056,OZONE,19,92,27
India,Uttar_Pradesh,Agra,"Shahjahan Garden, Agra - UPPCB",19-05-2024 16:00:00,27.169338,78.03582,PM2.5,25,133,71
India,Uttar_Pradesh,Agra,"Shahjahan Garden, Agra - UPPCB",19-05-2024 16:00:00,27.169338,78.03582,CO,18,103,36
India,Uttar_Pradesh,Agra,"Shastripuram, Agra - UPPCB",19-05-2024 16:00:00,27.19862,77.92066,PM2.5,8,168,83
India,Uttar_Pradesh,Baghpat,"Sardar Patel Inter College, Baghpat - UPPCB",19-05-2024 16:00:00,28.964949,77.278761,NH3,NA,NA,NA
India,Uttar_Pradesh,Baghpat,"Sardar Patel Inter College, Baghpat - UPPCB",19-05-2024 16:00:00,28.964949,77.278761,CO,31,101,70
India,Uttar_Pradesh,Bareilly,"Civil Lines, Bareilly - UPPCB",19-05-2024 16:00:00,28.359581,79.414455,PM10,NA,NA,NA
India,Uttar_Pradesh,Bareilly,"Civil Lines, Bareilly - UPPCB",19-05-2024 16:00:00,28.359581,79.414455,OZONE,3,30,19
India,Uttar_Pradesh,Bareilly,"Rajendra Nagar, Bareilly - UPPCB",19-05-2024 16:00:00,28.38910936,79.42963708,PM2.5,31,58,41
India,Uttar_Pradesh,Bareilly,"Rajendra Nagar, Bareilly - UPPCB",19-05-2024 16:00:00,28.38910936,79.42963708,NO2,2,7,2
India,Uttar_Pradesh,Bulandshahr,"Yamunapuram, Bulandshahr - UPPCB",19-05-2024 16:00:00,28.406963,77.849831,PM2.5,54,291,156
India,Uttar_Pradesh,Bulandshahr,"Yamunapuram, Bulandshahr - UPPCB",19-05-2024 16:00:00,28.406963,77.849831,NH3,14,22,18
India,Uttar_Pradesh,Bulandshahr,"Yamunapuram, Bulandshahr - UPPCB",19-05-2024 16:00:00,28.406963,77.849831,CO,28,98,53
India,Uttar_Pradesh,Firozabad,"Vibhab Nagar, Firozabad - UPPCB",19-05-2024 16:00:00,27.1594,78.3953,SO2,1,58,10
India,Uttar_Pradesh,Firozabad,"Vibhab Nagar, Firozabad - UPPCB",19-05-2024 16:00:00,27.1594,78.3953,OZONE,1,93,4
India,Uttar_Pradesh,Ghaziabad,"Indirapuram, Ghaziabad - UPPCB",19-05-2024 16:00:00,28.646233,77.358075,PM10,163,419,282
India,Uttar_Pradesh,Ghaziabad,"Loni, Ghaziabad - UPPCB",19-05-2024 16:00:00,28.757294,77.278792,PM2.5,49,324,167
India,Uttar_Pradesh,Ghaziabad,"Loni, Ghaziabad - UPPCB",19-05-2024 16:00:00,28.757294,77.278792,PM10,141,397,219
India,Uttar_Pradesh,Ghaziabad,"Loni, Ghaziabad - UPPCB",19-05-2024 16:00:00,28.757294,77.278792,NH3,2,7,4
India,Uttar_Pradesh,Ghaziabad,"Loni, Ghaziabad - UPPCB",19-05-2024 16:00:00,28.757294,77.278792,CO,10,75,29
India,Uttar_Pradesh,Ghaziabad,"Vasundhara, Ghaziabad - UPPCB",19-05-2024 16:00:00,28.6603346,77.3572563,OZONE,26,193,135
India,Uttar_Pradesh,Gorakhpur,"Madan Mohan Malaviya University of Technology, Gorakhpur - UPPCB",19-05-2024 16:00:00,26.730136,83.433859,SO2,23,24,23
India,Uttar_Pradesh,Greater Noida,"Knowledge Park - III, Greater Noida - UPPCB",19-05-2024 16:00:00,28.47272,77.482000,PM10,177,499,300
India,Uttar_Pradesh,Greater Noida,"Knowledge Park - V, Greater Noida - UPPCB",19-05-2024 16:00:00,28.557054,77.453663,OZONE,9,209,149
India,Uttar_Pradesh,Hapur,"Anand Vihar, Hapur - UPPCB",19-05-2024 16:00:00,28.725645,77.749675,PM10,101,184,147
India,Uttar_Pradesh,Jhansi,"Shivaji Nagar, Jhansi - UPPCB",19-05-2024 16:00:00,25.4547,78.6039,PM10,3,101,41
India,Uttar_Pradesh,Jhansi,"Shivaji Nagar, Jhansi - UPPCB",19-05-2024 16:00:00,25.4547,78.6039,SO2,16,26,19
India,Uttar_Pradesh,Jhansi,"Shivaji Nagar, Jhansi - UPPCB",19-05-2024 16:00:00,25.4547,78.6039,OZONE,4,40,33
India,Uttar_Pradesh,Kanpur,"FTI Kidwai Nagar, Kanpur - UPPCB",19-05-2024 16:00:00,26.428282,80.327067,PM2.5,56,241,121
India,Uttar_Pradesh,Kanpur,"FTI Kidwai Nagar, Kanpur - UPPCB",19-05-2024 16:00:00,26.428282,80.327067,NO2,12,13,13
India,Uttar_Pradesh,Kanpur,"FTI Kidwai Nagar, Kanpur - UPPCB",19-05-2024 16:00:00,26.428282,80.327067,CO,29,101,39
India,Uttar_Pradesh,Kanpur,"NSI Kalyanpur, Kanpur - UPPCB",19-05-2024 16:00:00,26.509954,80.249612,NO2,17,19,17
India,Uttar_Pradesh,Kanpur,"NSI Kalyanpur, Kanpur - UPPCB",19-05-2024 16:00:00,26.509954,80.249612,OZONE,2,28,13
India,Uttar_Pradesh,Kanpur,"Nehru Nagar, Kanpur - UPPCB",19-05-2024 16:00:00,26.4703136,80.3229863,NO2,3,43,21
India,Uttar_Pradesh,Khurja,"Kalindi Kunj, Khurja - UPPCB",19-05-2024 16:00:00,28.2348927,77.8683002,PM2.5,56,222,112
India,Uttar_Pradesh,Khurja,"Kalindi Kunj, Khurja - UPPCB",19-05-2024 16:00:00,28.2348927,77.8683002,NH3,1,2,2
India,Uttar_Pradesh,Khurja,"Kalindi Kunj, Khurja - UPPCB",19-05-2024 16:00:00,28.2348927,77.8683002,SO2,53,103,63
India,Uttar_Pradesh,Lucknow,"B R Ambedkar University, Lucknow - UPPCB",19-05-2024 16:00:00,26.766433,80.927299,NO2,11,12,11
India,Uttar_Pradesh,Lucknow,"B R Ambedkar University, Lucknow - UPPCB",19-05-2024 16:00:00,26.766433,80.927299,OZONE,4,89,56
India,Uttar_Pradesh,Lucknow,"Gomti Nagar, Lucknow - UPPCB",19-05-2024 16:00:00,26.868120,81.005119,PM2.5,13,225,131
India,Uttar_Pradesh,Lucknow,"Gomti Nagar, Lucknow - UPPCB",19-05-2024 16:00:00,26.868120,81.005119,PM10,23,148,112
India,Uttar_Pradesh,Lucknow,"Gomti Nagar, Lucknow - UPPCB",19-05-2024 16:00:00,26.868120,81.005119,SO2,7,19,10
India,Uttar_Pradesh,Lucknow,"Gomti Nagar, Lucknow - UPPCB",19-05-2024 16:00:00,26.868120,81.005119,CO,40,48,44
India,Uttar_Pradesh,Lucknow,"Gomti Nagar, Lucknow - UPPCB",19-05-2024 16:00:00,26.868120,81.005119,OZONE,36,46,41
India,Uttar_Pradesh,Lucknow,"Kendriya Vidyalaya, Lucknow - CPCB",19-05-2024 16:00:00,26.906111,80.948222,PM2.5,78,304,223
India,Uttar_Pradesh,Lucknow,"Kendriya Vidyalaya, Lucknow - CPCB",19-05-2024 16:00:00,26.906111,80.948222,CO,21,102,36
India,Uttar_Pradesh,Lucknow,"Kendriya Vidyalaya, Lucknow - CPCB",19-05-2024 16:00:00,26.906111,80.948222,OZONE,5,151,151
India,Uttar_Pradesh,Lucknow,"Kukrail Picnic Spot-1, Lucknow - UPPCB",19-05-2024 16:00:00,26.90723,80.98579,NH3,2,2,2
India,Uttar_Pradesh,Lucknow,"Kukrail Picnic Spot-1, Lucknow - UPPCB",19-05-2024 16:00:00,26.90723,80.98579,SO2,32,38,34
India,Uttar_Pradesh,Lucknow,"Lalbagh, Lucknow - CPCB",19-05-2024 16:00:00,26.8458805,80.9365541,PM2.5,74,316,214
India,Uttar_Pradesh,Lucknow,"Talkatora District Industries Center, Lucknow - CPCB",19-05-2024 16:00:00,26.83399722,80.8917361,PM10,133,451,229
India,Uttar_Pradesh,Lucknow,"Talkatora District Industries Center, Lucknow - CPCB",19-05-2024 16:00:00,26.83399722,80.8917361,OZONE,2,81,43
India,Uttar_Pradesh,Meerut,"Ganga Nagar, Meerut - UPPCB",19-05-2024 16:00:00,28.999264,77.7590354,SO2,1,31,16
India,Uttar_Pradesh,Meerut,"Jai Bhim Nagar, Meerut - UPPCB",19-05-2024 16:00:00,28.9535882,77.7622941,PM10,155,435,240
India,Uttar_Pradesh,Meerut,"Jai Bhim Nagar, Meerut - UPPCB",19-05-2024 16:00:00,28.9535882,77.7622941,NO2,13,82,31
India,Uttar_Pradesh,Meerut,"Pallavpuram Phase 2, Meerut - UPPCB",19-05-2024 16:00:00,29.063510,77.709723,NO2,22,116,51
India,Uttar_Pradesh,Moradabad,"Buddhi Vihar, Moradabad - UPPCB",19-05-2024 16:00:00,28.83526,78.74460,PM10,118,198,140
India,Uttar_Pradesh,Moradabad,"Buddhi Vihar, Moradabad - UPPCB",19-05-2024 16:00:00,28.83526,78.74460,CO,24,64,37
India,Uttar_Pradesh,Moradabad,"Employment Office, Moradabad - UPPCB",19-05-2024 16:00:00,28.88528,78.73880,PM10,109,284,150
India,Uttar_Pradesh,Moradabad,"Jigar Colony, Moradabad - UPPCB",19-05-2024 16:00:00,28.856664,78.772638,PM2.5,66,134,82
India,Uttar_Pradesh,Moradabad,"Jigar Colony, Moradabad - UPPCB",19-05-2024 16:00:00,28.856664,78.772638,PM10,117,179,145
India,Uttar_Pradesh,Moradabad,"Jigar Colony, Moradabad - UPPCB",19-05-2024 16:00:00,28.856664,78.772638,NO2,17,19,18
India,Uttar_Pradesh,Moradabad,"Jigar Colony, Moradabad - UPPCB",19-05-2024 16:00:00,28.856664,78.772638,OZONE,10,48,24
India,Uttar_Pradesh,Moradabad,"Kashiram Nagar, Moradabad - UPPCB",19-05-2024 16:00:00,28.849399,78.742362,NO2,12,14,12
India,Uttar_Pradesh,Moradabad,"Kashiram Nagar, Moradabad - UPPCB",19-05-2024 16:00:00,28.849399,78.742362,NH3,3,4,4
India,Uttar_Pradesh,Moradabad,"Kashiram Nagar, Moradabad - UPPCB",19-05-2024 16:00:00,28.849399,78.742362,CO,32,78,37
India,Uttar_Pradesh,Moradabad,"Transport Nagar, Moradabad - UPPCB",19-05-2024 16:00:00,28.802625,78.753728,PM2.5,NA,NA,NA
India,Uttar_Pradesh,Moradabad,"Transport Nagar, Moradabad - UPPCB",19-05-2024 16:00:00,28.802625,78.753728,OZONE,11,66,36
India,Uttar_Pradesh,Muzaffarnagar,"New Mandi, Muzaffarnagar - UPPCB",19-05-2024 16:00:00,29.4723508,77.7194031,SO2,18,57,36
India,Uttar_Pradesh,Noida,"Sector - 125, Noida - UPPCB",19-05-2024 16:00:00,28.5447608,77.3231257,OZONE,4,113,49
India,Uttar_Pradesh,Noida,"Sector-1, Noida - UPPCB",19-05-2024 16:00:00,28.5898,77.3101,OZONE,2,222,155
India,Uttar_Pradesh,Noida,"Sector-116, Noida - UPPCB",19-05-2024 16:00:00,28.569230,77.393848,CO,4,112,40
India,Uttar_Pradesh,Prayagraj,"Motilal Nehru NIT, Prayagraj - UPPCB",19-05-2024 16:00:00,25.494,81.863,OZONE,6,46,36
India,Uttar_Pradesh,Prayagraj,"Nagar Nigam, Prayagraj - UPPCB",19-05-2024 16:00:00,25.44919916 ,81.82735986 ,PM10,29,75,45
India,Uttar_Pradesh,Prayagraj,"Nagar Nigam, Prayagraj - UPPCB",19-05-2024 16:00:00,25.44919916 ,81.82735986 ,NH3,10,22,15
India,Uttar_Pradesh,Prayagraj,"Nagar Nigam, Prayagraj - UPPCB",19-05-2024 16:00:00,25.44919916 ,81.82735986 ,SO2,17,47,34
India,Uttar_Pradesh,Prayagraj,"Nagar Nigam, Prayagraj - UPPCB",19-05-2024 16:00:00,25.44919916 ,81.82735986 ,CO,14,38,17
India,Uttar_Pradesh,Varanasi,"Ardhali Bazar, Varanasi - UPPCB",19-05-2024 16:00:00,25.3505986,82.9083074,PM2.5,12,56,27
India,Uttar_Pradesh,Varanasi,"Ardhali Bazar, Varanasi - UPPCB",19-05-2024 16:00:00,25.3505986,82.9083074,PM10,17,78,37
India,Uttar_Pradesh,Varanasi,"Ardhali Bazar, Varanasi - UPPCB",19-05-2024 16:00:00,25.3505986,82.9083074,SO2,19,65,27
India,Uttar_Pradesh,Varanasi,"Bhelupur, Varanasi - UPPCB",19-05-2024 16:00:00,25.301778,82.996789,PM2.5,4,18,9
India,Uttar_Pradesh,Varanasi,"Bhelupur, Varanasi - UPPCB",19-05-2024 16:00:00,25.301778,82.996789,SO2,29,30,30
India,Uttar_Pradesh,Varanasi,"Maldahiya, Varanasi - UPPCB",19-05-2024 16:00:00,25.32393,82.99687,NO2,1,3,2
India,Uttar_Pradesh,Varanasi,"Maldahiya, Varanasi - UPPCB",19-05-2024 16:00:00,25.32393,82.99687,OZONE,1,21,15
India,Uttar_Pradesh,Vrindavan,"Omex Eternity, Vrindavan - UPPCB",19-05-2024 16:00:00,27.5714090,77.6557570,NH3,1,2,1
India,Uttar_Pradesh,Vrindavan,"Omex Eternity, Vrindavan - UPPCB",19-05-2024 16:00:00,27.5714090,77.6557570,SO2,44,53,48
India,Uttarakhand,Dehradun,"Doon University, Dehradun - UKPCB",19-05-2024 16:00:00,30.269444,78.044167,PM10,51,145,104
India,Uttarakhand,Rishikesh,"Shivaji Nagar, Rishikesh - UKPCB",19-05-2024 16:00:00,30.075911,78.2859547,NO2,11,71,26
India,Uttarakhand,Rishikesh,"Shivaji Nagar, Rishikesh - UKPCB",19-05-2024 16:00:00,30.075911,78.2859547,CO,8,63,26
India,West_Bengal,Asansol,"Asansol Court Area, Asansol - WBPCB",19-05-2024 16:00:00,23.685297,86.945968,SO2,11,19,15
India,West_Bengal,Asansol,"Asansol Court Area, Asansol - WBPCB",19-05-2024 16:00:00,23.685297,86.945968,OZONE,63,258,155
India,West_Bengal,Barrackpore,"SVSPA Campus, Barrackpore - WBPCB",19-05-2024 16:00:00,22.7605581,88.3617589,NO2,9,16,12
India,West_Bengal,Barrackpore,"SVSPA Campus, Barrackpore - WBPCB",19-05-2024 16:00:00,22.7605581,88.3617589,SO2,8,12,9
India,West_Bengal,Durgapur,"Sidhu Kanhu Indoor Stadium, Durgapur - WBPCB",19-05-2024 16:00:00,23.5404352,87.2892225,SO2,7,29,20
India,West_Bengal,Durgapur,"Sidhu Kanhu Indoor Stadium, Durgapur - WBPCB",19-05-2024 16:00:00,23.5404352,87.2892225,CO,35,69,45
India,West_Bengal,Haldia,"Priyambada Housing Estate, Haldia - WBPCB",19-05-2024 16:00:00,22.06047,88.109737,CO,16,57,27
India,West_Bengal,Haldia,"Priyambada Housing Estate, Haldia - WBPCB",19-05-2024 16:00:00,22.06047,88.109737,OZONE,24,30,27
India,West_Bengal,Howrah,"Belur Math, Howrah - WBPCB",19-05-2024 16:00:00,22.629801,88.352017,PM10,42,106,70
India,West_Bengal,Howrah,"Ghusuri, Howrah - WBPCB",19-05-2024 16:00:00,22.611968,88.347422,PM2.5,25,145,68
India,West_Bengal,Howrah,"Ghusuri, Howrah - WBPCB",19-05-2024 16:00:00,22.611968,88.347422,NO2,16,20,18
India,West_Bengal,Howrah,"Padmapukur, Howrah - WBPCB",19-05-2024 16:00:00,22.5687319,88.2797276,PM2.5,26,94,53
India,West_Bengal,Howrah,"Padmapukur, Howrah - WBPCB",19-05-2024 16:00:00,22.5687319,88.2797276,NH3,11,26,17
India,West_Bengal,Kolkata,"Ballygunge, Kolkata - WBPCB",19-05-2024 16:00:00,22.5367507,88.3638022,NH3,6,6,6
India,West_Bengal,Kolkata,"Ballygunge, Kolkata - WBPCB",19-05-2024 16:00:00,22.5367507,88.3638022,SO2,6,18,11
India,West_Bengal,Kolkata,"Ballygunge, Kolkata - WBPCB",19-05-2024 16:00:00,22.5367507,88.3638022,OZONE,20,85,53
India,West_Bengal,Kolkata,"Bidhannagar, Kolkata - WBPCB",19-05-2024 16:00:00,22.58157048,88.41002457,PM2.5,15,64,36
India,West_Bengal,Kolkata,"Bidhannagar, Kolkata - WBPCB",19-05-2024 16:00:00,22.58157048,88.41002457,PM10,23,85,51
India,West_Bengal,Kolkata,"Bidhannagar, Kolkata - WBPCB",19-05-2024 16:00:00,22.58157048,88.41002457,SO2,7,16,10
India,West_Bengal,Kolkata,"Fort William, Kolkata - WBPCB",19-05-2024 16:00:00,22.556640,88.342674,NH3,2,8,5
India,West_Bengal,Kolkata,"Jadavpur, Kolkata - WBPCB",19-05-2024 16:00:00,22.49929,88.36917,NO2,37,51,46
India,West_Bengal,Kolkata,"Victoria, Kolkata - WBPCB",19-05-2024 16:00:00,22.5448082,88.3403691,OZONE,12,59,33
India,West_Bengal,Siliguri,"Ward-32 Bapupara, Siliguri - WBPCB",19-05-2024 16:00:00,26.6879226,88.4152495,PM10,32,64,50
India,West_Bengal,Siliguri,"Ward-32 Bapupara, Siliguri - WBPCB",19-05-2024 16:00:00,26.6879226,88.4152495,NO2,21,46,29
India,West_Bengal,Siliguri,"Ward-32 Bapupara, Siliguri - WBPCB",19-05-2024 16:00:00,26.6879226,88.4152495,OZONE,25,54,46
India,Andhra_Pradesh,Amaravati,"Secretariat, Amaravati - APPCB",19-05-2024 16:00:00,16.5150833,80.5181667,NO2,5,15,10
India,Andhra_Pradesh,Anantapur,"Gulzarpet, Anantapur - APPCB",19-05-2024 16:00:00,14.675886,77.593027,NH3,4,4,4
India,Andhra_Pradesh,Anantapur,"Gulzarpet, Anantapur - APPCB",19-05-2024 16:00:00,14.675886,77.593027,CO,18,46,36
India,Andhra_Pradesh,Chittoor,"Gangineni Cheruvu, Chittoor - APPCB",19-05-2024 16:00:00,13.204880,79.097889,NO2,1,14,7
India,Andhra_Pradesh,Kadapa,"Yerramukkapalli, Kadapa - APPCB",19-05-2024 16:00:00,14.465052,78.824187,OZONE,11,33,18
India,Andhra_Pradesh,Rajamahendravaram,"Anand Kala Kshetram, Rajamahendravaram - APPCB",19-05-2024 16:00:00,16.9872867,81.7363176,SO2,11,13,12
India,Andhra_Pradesh,Tirupati,"Tirumala, Tirupati - APPCB",19-05-2024 16:00:00,13.67,79.35,PM10,9,57,28
India,Andhra_Pradesh,Tirupati,"Tirumala, Tirupati - APPCB",19-05-2024 16:00:00,13.67,79.35,NO2,15,35,24
India,Andhra_Pradesh,Tirupati,"Tirumala, Tirupati - APPCB",19-05-2024 16:00:00,13.67,79.35,NH3,1,1,1
India,Andhra_Pradesh,Tirupati,"Tirumala, Tirupati - APPCB",19-05-2024 16:00:00,13.67,79.35,OZONE,7,32,20
India,Andhra_Pradesh,Tirupati,"Vaikuntapuram, Tirupati - APPCB",19-05-2024 16:00:00,13.615387,79.409230,NH3,2,3,2
India,Andhra_Pradesh,Vijayawada,"HB Colony, Vijayawada - APPCB",19-05-2024 16:00:00,16.536107,80.594233,NO2,26,83,44
India,Andhra_Pradesh,Vijayawada,"Kanuru, Vijayawada - APPCB",19-05-2024 16:00:00,16.486692,80.699436,OZONE,29,29,29
India,Andhra_Pradesh,Vijayawada,"Rajiv Nagar, Vijayawada - APPCB",19-05-2024 16:00:00,16.554731,80.649110,OZONE,15,27,20
India,Arunachal_Pradesh,Naharlagun,"Naharlagun, Naharlagun - APSPCB",19-05-2024 16:00:00,27.103358,93.679645,CO,5,20,12
India,Assam,Guwahati,"IITG, Guwahati - PCBA",19-05-2024 16:00:00,26.2028636,91.70046436,PM2.5,18,111,48
India,Assam,Guwahati,"IITG, Guwahati - PCBA",19-05-2024 16:00:00,26.2028636,91.70046436,NH3,5,5,5
India,Assam,Guwahati,"IITG, Guwahati - PCBA",19-05-2024 16:00:00,26.2028636,91.70046436,SO2,13,13,13
India,Assam,Guwahati,"IITG, Guwahati - PCBA",19-05-2024 16:00:00,26.2028636,91.70046436,OZONE,6,35,27
India,Assam,Guwahati,"LGBI Airport, Guwahati - PCBA",19-05-2024 16:00:00,26.10887,91.589544,PM10,6,197,71
India,Assam,Guwahati,"LGBI Airport, Guwahati - PCBA",19-05-2024 16:00:00,26.10887,91.589544,NO2,9,30,18
India,Assam,Guwahati,"LGBI Airport, Guwahati - PCBA",19-05-2024 16:00:00,26.10887,91.589544,OZONE,3,77,18
India,Assam,Nagaon,"Christianpatty, Nagaon - PCBA",19-05-2024 16:00:00,26.349082,92.68449,NH3,2,2,2
India,Assam,Nalbari,"Bata Chowk, Nalbari - PCBA",19-05-2024 16:00:00,26.446912,91.439057,NH3,2,12,3
India,Assam,Nalbari,"Bata Chowk, Nalbari - PCBA",19-05-2024 16:00:00,26.446912,91.439057,OZONE,3,139,22
India,Assam,Silchar,"Tarapur, Silchar - PCBA",19-05-2024 16:00:00,24.82827,92.79525,OZONE,1,13,2
India,Assam,Sivasagar,"Girls College, Sivasagar - PCBA",19-05-2024 16:00:00,26.987634,94.636574,PM2.5,21,57,35
India,Assam,Sivasagar,"Girls College, Sivasagar - PCBA",19-05-2024 16:00:00,26.987634,94.636574,CO,21,28,22
India,Bihar,Araria,"Kharahiya Basti, Araria - BSPCB",19-05-2024 16:00:00,26.146529,87.454184,NO2,6,8,7
India,Bihar,Araria,"Kharahiya Basti, Araria - BSPCB",19-05-2024 16:00:00,26.146529,87.454184,SO2,9,17,14
India,Bihar,Aurangabad,"Gurdeo Nagar, Aurangabad - BSPCB",19-05-2024 16:00:00,24.75746,84.366208,PM10,32,117,54
India,Bihar,Bettiah,"Kamalnath Nagar, Bettiah - BSPCB",19-05-2024 16:00:00,26.80365,84.51954,NO2,27,39,32
India,Bihar,Bettiah,"Kamalnath Nagar, Bettiah - BSPCB",19-05-2024 16:00:00,26.80365,84.51954,CO,60,88,66
India,Bihar,Bhagalpur,"Mayaganj, Bhagalpur - BSPCB",19-05-2024 16:00:00,25.265194,87.012947,PM2.5,80,307,160
India,Bihar,Bhagalpur,"Mayaganj, Bhagalpur - BSPCB",19-05-2024 16:00:00,25.265194,87.012947,SO2,11,12,12
India,Bihar,Bihar Sharif,"D M Colony, Bihar Sharif - BSPCB",19-05-2024 16:00:00,25.204762,85.514960,NO2,9,10,9
India,Bihar,Buxar,"Charitra Van, Buxar - BSPCB (Formerly known as Central Jail)",19-05-2024 16:00:00,25.567520,83.966379,OZONE,6,280,280
India,Bihar,Gaya,"Collectorate, Gaya - BSPCB",19-05-2024 16:00:00,24.7955,84.9994,SO2,12,29,20
India,Bihar,Gaya,"SFTI Kusdihra, Gaya - BSPCB",19-05-2024 16:00:00,24.762518,84.982348,PM10,51,79,69
India,Bihar,Gaya,"SFTI Kusdihra, Gaya - BSPCB",19-05-2024 16:00:00,24.762518,84.982348,CO,18,32,21
India,Bihar,Gaya,"SFTI Kusdihra, Gaya - BSPCB",19-05-2024 16:00:00,24.762518,84.982348,OZONE,2,71,30
India,Bihar,Hajipur,"Industrial Area, Hajipur - BSPCB",19-05-2024 16:00:00,25.697189,85.245900,SO2,8,11,9
India,Bihar,Kishanganj,"SDM Office_Khagra, Kishanganj - BSPCB",19-05-2024 16:00:00,26.0881305,87.93840336,CO,11,12,12
India,Bihar,Manguraha,"Forest Rest House, Manguraha - BSPCB",19-05-2024 16:00:00,27.308328,84.531742,NH3,3,3,3
India,Bihar,Motihari,"Gandak Colony, Motihari - BSPCB",19-05-2024 16:00:00,26.63086,84.90051,PM10,60,222,116
India,Bihar,Motihari,"Gandak Colony, Motihari - BSPCB",19-05-2024 16:00:00,26.63086,84.90051,SO2,10,22,14
India,Bihar,Munger,"Town Hall, Munger - BSPCB",19-05-2024 16:00:00,25.376776,86.471523,OZONE,25,41,30
India,Bihar,Muzaffarpur,"Buddha Colony, Muzaffarpur - BSPCB",19-05-2024 16:00:00,26.11442,85.39813,NO2,15,43,22
India,Bihar,Muzaffarpur,"MIT-Daudpur Kothi, Muzaffarpur - BSPCB",19-05-2024 16:00:00,26.1403345,85.3650192,NH3,1,1,1
India,Bihar,Muzaffarpur,"Muzaffarpur Collectorate, Muzaffarpur - BSPCB",19-05-2024 16:00:00,26.1209,85.3647,SO2,5,7,7
India,Bihar,Muzaffarpur,"Muzaffarpur Collectorate, Muzaffarpur - BSPCB",19-05-2024 16:00:00,26.1209,85.3647,OZONE,59,97,64
India,Bihar,Patna,"DRM Office Danapur, Patna - BSPCB",19-05-2024 16:00:00,25.586562,85.043586,OZONE,8,76,42
India,Bihar,Patna,"Govt. High School Shikarpur, Patna - BSPCB",19-05-2024 16:00:00,25.592539,85.227158,PM2.5,88,230,165
India,Bihar,Patna,"Govt. High School Shikarpur, Patna - BSPCB",19-05-2024 16:00:00,25.592539,85.227158,PM10,104,179,138
India,Bihar,Patna,"Muradpur, Patna - BSPCB",19-05-2024 16:00:00,25.619651,85.147382,PM10,144,500,258
India,Bihar,Patna,"Muradpur, Patna - BSPCB",19-05-2024 16:00:00,25.619651,85.147382,OZONE,6,62,61
India,Bihar,Rajgir,"Dangi Tola, Rajgir - BSPCB",19-05-2024 16:00:00,25.03280,85.41948,PM10,22,64,42
India,Bihar,Rajgir,"Dangi Tola, Rajgir - BSPCB",19-05-2024 16:00:00,25.03280,85.41948,NO2,16,18,17
India,Bihar,Saharsa,"Police Line, Saharsa - BSPCB",19-05-2024 16:00:00,25.892357,86.590325,NO2,6,7,7
India,Bihar,Samastipur,"DM Office_Kasipur, Samastipur - BSPCB",19-05-2024 16:00:00,25.859655,85.77944,NO2,NA,NA,NA
India,Bihar,Samastipur,"DM Office_Kasipur, Samastipur - BSPCB",19-05-2024 16:00:00,25.859655,85.77944,NH3,NA,NA,NA
India,Bihar,Samastipur,"DM Office_Kasipur, Samastipur - BSPCB",19-05-2024 16:00:00,25.859655,85.77944,OZONE,1,24,16
India,Bihar,Sasaram,"Dada Peer, Sasaram - BSPCB",19-05-2024 16:00:00,24.952822,84.002396,PM10,9,68,23
India,Bihar,Sasaram,"Dada Peer, Sasaram - BSPCB",19-05-2024 16:00:00,24.952822,84.002396,NH3,9,44,20
India,Bihar,Siwan,"Chitragupta Nagar, Siwan - BSPCB",19-05-2024 16:00:00,26.2271665,84.3570427,PM10,55,271,97
India,Bihar,Siwan,"Chitragupta Nagar, Siwan - BSPCB",19-05-2024 16:00:00,26.2271665,84.3570427,NO2,6,192,33
India,Bihar,Siwan,"Chitragupta Nagar, Siwan - BSPCB",19-05-2024 16:00:00,26.2271665,84.3570427,CO,1,147,103
India,Chandigarh,Chandigarh,"Sector 22, Chandigarh - CPCC",19-05-2024 16:00:00,30.735567,76.775714,PM2.5,47,293,175
India,Chandigarh,Chandigarh,"Sector 22, Chandigarh - CPCC",19-05-2024 16:00:00,30.735567,76.775714,NO2,20,74,44
India,Chandigarh,Chandigarh,"Sector 22, Chandigarh - CPCC",19-05-2024 16:00:00,30.735567,76.775714,SO2,8,71,29
India,Chandigarh,Chandigarh,"Sector-25, Chandigarh - CPCC",19-05-2024 16:00:00,30.751462,76.762879,PM2.5,73,257,163
India,Chandigarh,Chandigarh,"Sector-53, Chandigarh - CPCC",19-05-2024 16:00:00,30.719859,76.738637,PM2.5,50,322,214
India,Chhattisgarh,Bhilai,"32Bungalows, Bhilai - CECB",19-05-2024 16:00:00,21.194815,81.314770,PM2.5,12,32,20
India,Chhattisgarh,Bhilai,"32Bungalows, Bhilai - CECB",19-05-2024 16:00:00,21.194815,81.314770,PM10,15,37,27
India,Chhattisgarh,Bhilai,"32Bungalows, Bhilai - CECB",19-05-2024 16:00:00,21.194815,81.314770,NO2,14,22,19
India,Chhattisgarh,Bhilai,"32Bungalows, Bhilai - CECB",19-05-2024 16:00:00,21.194815,81.314770,NH3,6,6,6
India,Chhattisgarh,Bhilai,"Civic Center, Bhilai - Bhilai Steel Plant",19-05-2024 16:00:00,21.185571,81.343175,OZONE,18,49,35
India,Chhattisgarh,Bilaspur,"Mangala, Bilaspur - NTPC",19-05-2024 16:00:00,22.08815,82.13737,PM10,14,52,29
India,Chhattisgarh,Bilaspur,"Mangala, Bilaspur - NTPC",19-05-2024 16:00:00,22.08815,82.13737,CO,38,52,41
India,Chhattisgarh,Chhal,"Nawapara SECL Colony, Chhal - CECB",19-05-2024 16:00:00,22.118125,83.140608,PM2.5,18,76,34
India,Chhattisgarh,Chhal,"Nawapara SECL Colony, Chhal - CECB",19-05-2024 16:00:00,22.118125,83.140608,NH3,2,2,2
India,Chhattisgarh,Chhal,"Nawapara SECL Colony, Chhal - CECB",19-05-2024 16:00:00,22.118125,83.140608,SO2,17,57,29
India,Chhattisgarh,Korba,"Rampur, Korba - CECB",19-05-2024 16:00:00,22.368195,82.746431,SO2,1,67,6
India,Chhattisgarh,Korba,"Urja Nagar, Korba - CECB",19-05-2024 16:00:00,22.348441,82.549611,SO2,1,2,1
India,Chhattisgarh,Milupara,"Govt. Higher Secondary School, Milupara - CECB",19-05-2024 16:00:00,22.1910172,83.5197009,PM2.5,6,27,18
India,Chhattisgarh,Raipur,"AIIMS, Raipur - CECB",19-05-2024 16:00:00,21.258815,81.578979,PM10,NA,NA,NA
India,Chhattisgarh,Raipur,"Bhatagaon New ISBT, Raipur - CECB",19-05-2024 16:00:00,21.219665,81.630094,NO2,3,6,4
India,Chhattisgarh,Raipur,"Siltara Phase-II, Raipur - CECB",19-05-2024 16:00:00,21.371751,81.664929,PM2.5,14,98,55
India,Delhi,Delhi,"Alipur, Delhi - DPCC",19-05-2024 16:00:00,28.815329,77.153010,NH3,6,9,7
India,Delhi,Delhi,"Anand Vihar, Delhi - DPCC",19-05-2024 16:00:00,28.647622,77.3158090,NO2,47,139,90
India,Delhi,Delhi,"Anand Vihar, Delhi - DPCC",19-05-2024 16:00:00,28.647622,77.3158090,OZONE,6,135,91
India,Delhi,Delhi,"Ashok Vihar, Delhi - DPCC",19-05-2024 16:00:00,28.695381,77.181665,PM2.5,45,333,179
India,Delhi,Delhi,"Aya Nagar, Delhi - IMD",19-05-2024 16:00:00,28.4706914,77.1099364,NO2,11,20,16
India,Delhi,Delhi,"Bawana, Delhi - DPCC",19-05-2024 16:00:00,28.776200,77.051074,PM10,177,435,280
India,Delhi,Delhi,"Bawana, Delhi - DPCC",19-05-2024 16:00:00,28.776200,77.051074,SO2,11,113,50
India,Delhi,Delhi,"Bawana, Delhi - DPCC",19-05-2024 16:00:00,28.776200,77.051074,OZONE,6,178,120
India,Delhi,Delhi,"DTU, Delhi - CPCB",19-05-2024 16:00:00,28.7500499,77.1112615,PM10,131,407,219
India,Delhi,Delhi,"DTU, Delhi - CPCB",19-05-2024 16:00:00,28.7500499,77.1112615,NH3,25,40,31
India,Delhi,Delhi,"DTU, Delhi - CPCB",19-05-2024 16:00:00,28.7500499,77.1112615,SO2,37,50,41
India,Delhi,Delhi,"Dr. Karni Singh Shooting Range, Delhi - DPCC",19-05-2024 16:00:00,28.498571,77.264840,PM10,148,340,210
India,Delhi,Delhi,"Dwarka-Sector 8, Delhi - DPCC ",19-05-2024 16:00:00,28.5710274,77.0719006,OZONE,6,114,73
India,Delhi,Delhi,"IGI Airport (T3), Delhi - IMD",19-05-2024 16:00:00,28.5627763,77.1180053,OZONE,5,78,50
India,Delhi,Delhi,"IHBAS, Dilshad Garden, Delhi - CPCB",19-05-2024 16:00:00,28.6811736,77.3025234,PM2.5,83,230,128
India,Delhi,Delhi,"ITO, Delhi - CPCB",19-05-2024 16:00:00,28.628624,77.241060,SO2,7,30,19
India,Delhi,Delhi,"ITO, Delhi - CPCB",19-05-2024 16:00:00,28.628624,77.241060,CO,2,74,24
India,Delhi,Delhi,"ITO, Delhi - CPCB",19-05-2024 16:00:00,28.628624,77.241060,OZONE,1,83,54
India,Delhi,Delhi,"Jahangirpuri, Delhi - DPCC",19-05-2024 16:00:00,28.732820,77.170633,SO2,14,93,54
India,Delhi,Delhi,"Jahangirpuri, Delhi - DPCC",19-05-2024 16:00:00,28.732820,77.170633,OZONE,6,141,96
India,Delhi,Delhi,"Lodhi Road, Delhi - IMD",19-05-2024 16:00:00,28.5918245,77.2273074,PM2.5,58,285,160
India,Delhi,Delhi,"Major Dhyan Chand National Stadium, Delhi - DPCC",19-05-2024 16:00:00,28.611281,77.237738,PM10,123,292,182
India,Delhi,Delhi,"Major Dhyan Chand National Stadium, Delhi - DPCC",19-05-2024 16:00:00,28.611281,77.237738,NH3,8,11,9
India,Delhi,Delhi,"Major Dhyan Chand National Stadium, Delhi - DPCC",19-05-2024 16:00:00,28.611281,77.237738,CO,136,163,144
India,Delhi,Delhi,"Mandir Marg, Delhi - DPCC",19-05-2024 16:00:00,28.636429,77.201067,NO2,72,143,112
India,Delhi,Delhi,"Mandir Marg, Delhi - DPCC",19-05-2024 16:00:00,28.636429,77.201067,OZONE,1,34,9
India,Delhi,Delhi,"Mundka, Delhi - DPCC",19-05-2024 16:00:00,28.684678,77.076574,PM10,207,474,368
India,Delhi,Delhi,"Mundka, Delhi - DPCC",19-05-2024 16:00:00,28.684678,77.076574,NH3,6,15,8
India,Delhi,Delhi,"Mundka, Delhi - DPCC",19-05-2024 16:00:00,28.684678,77.076574,CO,25,104,52
India,Delhi,Delhi,"Najafgarh, Delhi - DPCC",19-05-2024 16:00:00,28.570173,76.933762,PM10,105,420,216
India,Delhi,Delhi,"Najafgarh, Delhi - DPCC",19-05-2024 16:00:00,28.570173,76.933762,NH3,8,14,10
India,Delhi,Delhi,"Narela, Delhi - DPCC",19-05-2024 16:00:00,28.822836,77.101981,NO2,12,95,41
India,Delhi,Delhi,"Narela, Delhi - DPCC",19-05-2024 16:00:00,28.822836,77.101981,NH3,6,15,9
India,Delhi,Delhi,"Narela, Delhi - DPCC",19-05-2024 16:00:00,28.822836,77.101981,SO2,5,107,47
India,Delhi,Delhi,"Nehru Nagar, Delhi - DPCC",19-05-2024 16:00:00,28.567890,77.250515,PM2.5,63,334,180
India,Delhi,Delhi,"Nehru Nagar, Delhi - DPCC",19-05-2024 16:00:00,28.567890,77.250515,NH3,3,7,5
India,Delhi,Delhi,"Nehru Nagar, Delhi - DPCC",19-05-2024 16:00:00,28.567890,77.250515,CO,38,90,50
India,Delhi,Delhi,"North Campus, DU, Delhi - IMD",19-05-2024 16:00:00,28.6573814,77.1585447,PM10,144,491,225
India,Delhi,Delhi,"Patparganj, Delhi - DPCC",19-05-2024 16:00:00,28.623763,77.287209,PM2.5,92,333,204
India,Delhi,Delhi,"Patparganj, Delhi - DPCC",19-05-2024 16:00:00,28.623763,77.287209,OZONE,1,191,129
India,Delhi,Delhi,"Pusa, Delhi - DPCC",19-05-2024 16:00:00,28.639652,77.146275,NH3,5,10,8
India,Delhi,Delhi,"R K Puram, Delhi - DPCC",19-05-2024 16:00:00,28.563262,77.186937,NH3,5,35,10
India,Delhi,Delhi,"R K Puram, Delhi - DPCC",19-05-2024 16:00:00,28.563262,77.186937,SO2,3,49,23
India,Delhi,Delhi,"Rohini, Delhi - DPCC",19-05-2024 16:00:00,28.732528,77.119920,PM10,149,440,287
India,Delhi,Delhi,"Shadipur, Delhi - CPCB",19-05-2024 16:00:00,28.6514781,77.1473105,SO2,NA,NA,NA
India,Delhi,Delhi,"Sonia Vihar, Delhi - DPCC",19-05-2024 16:00:00,28.710508,77.249485,PM2.5,70,353,202
India,Delhi,Delhi,"Sonia Vihar, Delhi - DPCC",19-05-2024 16:00:00,28.710508,77.249485,CO,47,103,68
India,Delhi,Delhi,"Sri Aurobindo Marg, Delhi - DPCC",19-05-2024 16:00:00,28.531346,77.190156,CO,2,63,25
India,Delhi,Delhi,"Vivek Vihar, Delhi - DPCC",19-05-2024 16:00:00,28.672342,77.315260,OZONE,7,195,136
India,Delhi,Delhi,"Wazirpur, Delhi - DPCC",19-05-2024 16:00:00,28.699793,77.165453,NH3,8,15,12
India,Gujarat,Ahmedabad,"Chandkheda, Ahmedabad - IITM",19-05-2024 16:00:00,23.107969,72.574648,PM2.5,64,252,119
India,Gujarat,Ahmedabad,"Chandkheda, Ahmedabad - IITM",19-05-2024 16:00:00,23.107969,72.574648,SO2,3,35,13
India,Gujarat,Ahmedabad,"Raikhad, Ahmedabad - IITM",19-05-2024 16:00:00,23.020509,72.579261,PM2.5,84,247,177
India,Gujarat,Ahmedabad,"Raikhad, Ahmedabad - IITM",19-05-2024 16:00:00,23.020509,72.579261,OZONE,4,92,63
India,Gujarat,Ahmedabad,"Rakhial, Ahmedabad - IITM",19-05-2024 16:00:00,23.016834,72.625775,PM10,74,276,122
India,Gujarat,Ahmedabad,"Rakhial, Ahmedabad - IITM",19-05-2024 16:00:00,23.016834,72.625775,SO2,6,23,12
India,Gujarat,Ahmedabad,"Rakhial, Ahmedabad - IITM",19-05-2024 16:00:00,23.016834,72.625775,OZONE,2,125,87
India,Gujarat,Ahmedabad,"SVPI Airport Hansol, Ahmedabad - IITM",19-05-2024 16:00:00,23.076793,72.627874,PM2.5,47,200,90
India,Gujarat,Ahmedabad,"SVPI Airport Hansol, Ahmedabad - IITM",19-05-2024 16:00:00,23.076793,72.627874,NO2,32,44,38
India,Gujarat,Ahmedabad,"SVPI Airport Hansol, Ahmedabad - IITM",19-05-2024 16:00:00,23.076793,72.627874,CO,6,86,15
India,Gujarat,Ahmedabad,"SVPI Airport Hansol, Ahmedabad - IITM",19-05-2024 16:00:00,23.076793,72.627874,OZONE,8,64,46
India,Gujarat,Ankleshwar,"GIDC, Ankleshwar - GPCB",19-05-2024 16:00:00,21.613267,73.010555,SO2,1,26,11
India,Gujarat,Surat,"Science Center, Surat - SMC",19-05-2024 16:00:00,21.170046,72.795405,SO2,11,16,13
India,Gujarat,Vapi,"Phase-1 GIDC, Vapi - GPCB",19-05-2024 16:00:00,20.362421,72.918013,SO2,43,45,45
India,Gujarat,Vatva,"Phase-4 GIDC, Vatva - GPCB",19-05-2024 16:00:00,22.969611,72.643500,PM2.5,16,69,33
India,Gujarat,Vatva,"Phase-4 GIDC, Vatva - GPCB",19-05-2024 16:00:00,22.969611,72.643500,PM10,60,127,82
India,Gujarat,Vatva,"Phase-4 GIDC, Vatva - GPCB",19-05-2024 16:00:00,22.969611,72.643500,NO2,15,142,43
India,Haryana,Ambala,"Patti Mehar, Ambala - HSPCB",19-05-2024 16:00:00,30.379589,76.778328,SO2,NA,NA,NA
India,Haryana,Bahadurgarh,"Arya Nagar, Bahadurgarh - HSPCB",19-05-2024 16:00:00,28.6701,76.9254,PM10,138,301,214
India,Haryana,Bahadurgarh,"Arya Nagar, Bahadurgarh - HSPCB",19-05-2024 16:00:00,28.6701,76.9254,NH3,8,10,9
India,Haryana,Ballabgarh,"Nathu Colony, Ballabgarh - HSPCB",19-05-2024 16:00:00,28.3419248,77.319699,PM2.5,96,358,277
India,Haryana,Ballabgarh,"Nathu Colony, Ballabgarh - HSPCB",19-05-2024 16:00:00,28.3419248,77.319699,NO2,12,14,13
India,Haryana,Bhiwani,"H.B. Colony, Bhiwani - HSPCB",19-05-2024 16:00:00,28.806223,76.141105,PM10,66,140,120
India,Haryana,Bhiwani,"H.B. Colony, Bhiwani - HSPCB",19-05-2024 16:00:00,28.806223,76.141105,NH3,3,6,6
India,Haryana,Bhiwani,"H.B. Colony, Bhiwani - HSPCB",19-05-2024 16:00:00,28.806223,76.141105,CO,10,86,34
India,Haryana,Dharuhera,"Municipal Corporation Office, Dharuhera -  HSPCB",19-05-2024 16:00:00,28.206800,76.799700,NO2,48,111,82
India,Haryana,Dharuhera,"Municipal Corporation Office, Dharuhera -  HSPCB",19-05-2024 16:00:00,28.206800,76.799700,CO,12,64,29
India,Haryana,Faridabad,"New Industrial Town, Faridabad - HSPCB",19-05-2024 16:00:00,28.39072,77.30059,SO2,12,15,13
India,Haryana,Faridabad,"Sector 11, Faridabad - HSPCB",19-05-2024 16:00:00,28.376058,77.315741,PM2.5,187,323,252
India,Haryana,Faridabad,"Sector 11, Faridabad - HSPCB",19-05-2024 16:00:00,28.376058,77.315741,CO,26,72,35
India,Haryana,Faridabad,"Sector 30, Faridabad - HSPCB",19-05-2024 16:00:00,28.4417,77.3217,PM10,NA,NA,NA
India,Haryana,Fatehabad,"Huda Sector, Fatehabad - HSPCB",19-05-2024 16:00:00,29.503664,75.467934,PM10,103,172,139
India,Haryana,Fatehabad,"Huda Sector, Fatehabad - HSPCB",19-05-2024 16:00:00,29.503664,75.467934,NO2,29,31,30
India,Haryana,Fatehabad,"Huda Sector, Fatehabad - HSPCB",19-05-2024 16:00:00,29.503664,75.467934,CO,5,12,7
India,Haryana,Gurugram,"NISE Gwal Pahari, Gurugram - IMD",19-05-2024 16:00:00,28.422681,77.148944,NO2,NA,NA,NA
India,Haryana,Gurugram,"NISE Gwal Pahari, Gurugram - IMD",19-05-2024 16:00:00,28.422681,77.148944,OZONE,37,140,109
India,Haryana,Gurugram,"Sector-51, Gurugram - HSPCB",19-05-2024 16:00:00,28.4227,77.0667,NH3,1,2,1
India,Haryana,Gurugram,"Sector-51, Gurugram - HSPCB",19-05-2024 16:00:00,28.4227,77.0667,SO2,3,5,4
India,Haryana,Gurugram,"Teri Gram, Gurugram - HSPCB",19-05-2024 16:00:00,28.4275,77.1465,PM10,135,201,172
India,Haryana,Gurugram,"Teri Gram, Gurugram - HSPCB",19-05-2024 16:00:00,28.4275,77.1465,NO2,21,55,40
India,Haryana,Hisar,"Urban Estate-II, Hisar - HSPCB",19-05-2024 16:00:00,29.140560,75.744941,PM2.5,73,207,122
India,Haryana,Hisar,"Urban Estate-II, Hisar - HSPCB",19-05-2024 16:00:00,29.140560,75.744941,NO2,22,29,25
India,Haryana,Hisar,"Urban Estate-II, Hisar - HSPCB",19-05-2024 16:00:00,29.140560,75.744941,CO,25,52,31
India,Haryana,Kaithal,"Rishi Nagar, Kaithal - HSPCB",19-05-2024 16:00:00,29.8006,76.4155,PM10,107,183,147
India,Haryana,Kaithal,"Rishi Nagar, Kaithal - HSPCB",19-05-2024 16:00:00,29.8006,76.4155,NH3,8,8,8
India,Haryana,Kaithal,"Rishi Nagar, Kaithal - HSPCB",19-05-2024 16:00:00,29.8006,76.4155,CO,25,89,44
India,Haryana,Karnal,"Sector-12, Karnal - HSPCB",19-05-2024 16:00:00,29.695300,77.002700,NO2,7,12,10
India,Haryana,Mandikhera,"General Hospital, Mandikhera - HSPCB",19-05-2024 16:00:00,27.9002,76.9938,PM2.5,NA,NA,NA
India,Haryana,Mandikhera,"General Hospital, Mandikhera - HSPCB",19-05-2024 16:00:00,27.9002,76.9938,OZONE,NA,NA,NA
India,Haryana,Manesar,"Sector-2 IMT, Manesar - HSPCB",19-05-2024 16:00:00,28.360699,76.936090,OZONE,3,121,87
India,Haryana,Narnaul,"Shastri Nagar, Narnaul - HSPCB",19-05-2024 16:00:00,28.060249,76.113115,NH3,5,26,15
India,Haryana,Palwal,"Shyam Nagar, Palwal - HSPCB",19-05-2024 16:00:00,28.1485564,77.3320667,SO2,3,21,11
India,Haryana,Panchkula,"Sector-6, Panchkula - HSPCB ",19-05-2024 16:00:00,30.7057778,76.8531805555555,SO2,2,43,14
India,Haryana,Panchkula,"Sector-6, Panchkula - HSPCB ",19-05-2024 16:00:00,30.7057778,76.8531805555555,OZONE,29,57,44
India,Haryana,Panipat,"Sector-18, Panipat - HSPCB",19-05-2024 16:00:00,29.432304,76.972765,CO,24,26,25
India,Haryana,Rohtak,"MD University, Rohtak - HSPCB",19-05-2024 16:00:00,28.52123,76.37138,SO2,5,8,7
India,Haryana,Sonipat,"Murthal, Sonipat - HSPCB",19-05-2024 16:00:00,29.027200,77.062100,SO2,NA,NA,NA
India,Haryana,Yamuna Nagar,"Gobind Pura, Yamuna Nagar - HSPCB",19-05-2024 16:00:00,30.1480566,77.2893471,SO2,1,14,6
India,Himachal Pradesh,Baddi,"HIMUDA Complex Phase-1, Baddi - HPPCB",19-05-2024 16:00:00,30.943887,76.801991,PM2.5,57,293,168
India,Himachal Pradesh,Baddi,"HIMUDA Complex Phase-1, Baddi - HPPCB",19-05-2024 16:00:00,30.943887,76.801991,PM10,108,273,166
India,Himachal Pradesh,Baddi,"HIMUDA Complex Phase-1, Baddi - HPPCB",19-05-2024 16:00:00,30.943887,76.801991,NO2,1,115,46
India,Himachal Pradesh,Baddi,"HIMUDA Complex Phase-1, Baddi - HPPCB",19-05-2024 16:00:00,30.943887,76.801991,NH3,5,7,6
India,Jharkhand,Dhanbad,"Kalakusuma, Dhanbad - DMC",19-05-2024 16:00:00,23.811548,86.481238,OZONE,37,93,64
India,Jharkhand,Dhanbad,"Sardar Patel Nagar, Dhanbad - JSPCB",19-05-2024 16:00:00,23.80569,86.44268,SO2,3,16,10
India,Jharkhand,Dhanbad,"Sardar Patel Nagar, Dhanbad - JSPCB",19-05-2024 16:00:00,23.80569,86.44268,CO,46,169,78
India,Jharkhand,Jorapokhar,"Tata Stadium, Jorapokhar - JSPCB",19-05-2024 16:00:00,23.707909,86.414670,NH3,NA,NA,NA
India,Jharkhand,Jorapokhar,"Tata Stadium, Jorapokhar - JSPCB",19-05-2024 16:00:00,23.707909,86.414670,SO2,NA,NA,NA
India,Jharkhand,Jorapokhar,"Tata Stadium, Jorapokhar - JSPCB",19-05-2024 16:00:00,23.707909,86.414670,CO,NA,NA,NA
India,Jharkhand,Pathardih,"Mohalbani Ghat, Pathardih - DMC",19-05-2024 16:00:00,23.669880,86.411725,SO2,NA,NA,NA
India,Karnataka,Bagalkot,"Vidayagiri, Bagalkot - KSPCB",19-05-2024 16:00:00,16.172806,75.659694,PM2.5,2,37,35
India,Karnataka,Belgaum,"Ramteerth Nagar, Belgaum - KSPCB",19-05-2024 16:00:00,15.888653,74.541751,PM10,38,65,49
India,Karnataka,Belgaum,"Ramteerth Nagar, Belgaum - KSPCB",19-05-2024 16:00:00,15.888653,74.541751,OZONE,19,20,19
India,Karnataka,Bengaluru,"Hombegowda Nagar, Bengaluru - KSPCB",19-05-2024 16:00:00,12.938539,77.590100,PM2.5,15,40,25
India,Karnataka,Bengaluru,"Hombegowda Nagar, Bengaluru - KSPCB",19-05-2024 16:00:00,12.938539,77.590100,CO,17,30,23
India,Karnataka,Bengaluru,"Jayanagar 5th Block, Bengaluru - KSPCB",19-05-2024 16:00:00,12.920984,77.584908,PM2.5,23,49,38
India,Karnataka,Bengaluru,"Jayanagar 5th Block, Bengaluru - KSPCB",19-05-2024 16:00:00,12.920984,77.584908,SO2,12,21,18
India,Karnataka,Bengaluru,"Jayanagar 5th Block, Bengaluru - KSPCB",19-05-2024 16:00:00,12.920984,77.584908,CO,21,22,21
India,Karnataka,Bengaluru,"Kasturi Nagar, Bengaluru - KSPCB",19-05-2024 16:00:00,13.003872,77.664217,NO2,16,17,17
India,Karnataka,Bengaluru,"Kasturi Nagar, Bengaluru - KSPCB",19-05-2024 16:00:00,13.003872,77.664217,OZONE,4,60,39
India,Karnataka,Bengaluru,"RVCE-Mailasandra, Bengaluru - KSPCB",19-05-2024 16:00:00,12.921418,77.502466,SO2,7,7,7
India,Karnataka,Bengaluru,"RVCE-Mailasandra, Bengaluru - KSPCB",19-05-2024 16:00:00,12.921418,77.502466,CO,38,53,47
India,Karnataka,Bengaluru,"RVCE-Mailasandra, Bengaluru - KSPCB",19-05-2024 16:00:00,12.921418,77.502466,OZONE,39,39,39
India,Karnataka,Bengaluru,"Sanegurava Halli, Bengaluru - KSPCB",19-05-2024 16:00:00,12.990328,77.5431385,NO2,23,37,27
India,Karnataka,Bengaluru,"Sanegurava Halli, Bengaluru - KSPCB",19-05-2024 16:00:00,12.990328,77.5431385,CO,10,40,23
India,Karnataka,Bengaluru,"Shivapura_Peenya, Bengaluru - KSPCB",19-05-2024 16:00:00,13.0246342,77.5080115,PM10,40,93,64
India,Karnataka,Bengaluru,"Silk Board, Bengaluru - KSPCB",19-05-2024 16:00:00,12.917348,77.622813,PM2.5,21,62,37
India,Karnataka,Bengaluru,"Silk Board, Bengaluru - KSPCB",19-05-2024 16:00:00,12.917348,77.622813,NH3,NA,NA,NA
India,Karnataka,Bidar,"Naubad, Bidar - KSPCB",19-05-2024 16:00:00,17.930306,77.482194,CO,76,100,85
India,Karnataka,Chamarajanagar,"Urban, Chamarajanagar - KSPCB",19-05-2024 16:00:00,11.55358,76.55521,PM2.5,20,39,26
India,Karnataka,Chamarajanagar,"Urban, Chamarajanagar - KSPCB",19-05-2024 16:00:00,11.55358,76.55521,NO2,23,35,29
India,Karnataka,Chikkaballapur,"Chikkaballapur Rural, Chikkaballapur - KSPCB",19-05-2024 16:00:00,13.428828,77.731418,PM10,5,50,24
India,Karnataka,Chikkamagaluru,"Kalyana Nagara, Chikkamagaluru - KSPCB",19-05-2024 16:00:00,13.328028,75.797056,PM10,5,64,32
India,Karnataka,Chikkamagaluru,"Kalyana Nagara, Chikkamagaluru - KSPCB",19-05-2024 16:00:00,13.328028,75.797056,NO2,15,34,26
