country,state,city,station,last_update,latitude,longitude,pollutant_id,pollutant_min,pollutant_max,pollutant_avg
India,Andhra_Pradesh,Amaravati,"Secretariat, Amaravati - APPCB",25-02-2024 15:00:00,16.5150833,80.5181667,OZONE,9,36,26
India,Andhra_Pradesh,Anantapur,"Gulzarpet, Anantapur - APPCB",25-02-2024 15:00:00,14.675886,77.593027,PM2.5,NA,NA,NA
India,Andhra_Pradesh,Anantapur,"Gulzarpet, Anantapur - APPCB",25-02-2024 15:00:00,14.675886,77.593027,CO,30,86,36
India,Andhra_Pradesh,Chittoor,"Gangineni Cheruvu, Chittoor - APPCB",25-02-2024 15:00:00,13.204880,79.097889,SO2,7,31,13
India,Andhra_Pradesh,Rajamahendravaram,"Anand Kala Kshetram, Rajamahendravaram - APPCB",25-02-2024 15:00:00,16.9872867,81.7363176,PM2.5,37,62,50
India,Andhra_Pradesh,Rajamahendravaram,"Anand Kala Kshetram, Rajamahendravaram - APPCB",25-02-2024 15:00:00,16.9872867,81.7363176,PM10,35,76,58
India,Andhra_Pradesh,Rajamahendravaram,"Anand Kala Kshetram, Rajamahendravaram - APPCB",25-02-2024 15:00:00,16.9872867,81.7363176,NO2,8,31,16
India,Andhra_Pradesh,Rajamahendravaram,"Anand Kala Kshetram, Rajamahendravaram - APPCB",25-02-2024 15:00:00,16.9872867,81.7363176,OZONE,21,36,31
India,Andhra_Pradesh,Tirupati,"Tirumala, Tirupati - APPCB",25-02-2024 15:00:00,13.67,79.35,PM2.5,46,75,59
India,Andhra_Pradesh,Tirupati,"Tirumala, Tirupati - APPCB",25-02-2024 15:00:00,13.67,79.35,NO2,22,40,31
India,Andhra_Pradesh,Tirupati,"Vaikuntapuram, Tirupati - APPCB",25-02-2024 15:00:00,13.615387,79.409230,PM2.5,19,88,41
India,Andhra_Pradesh,Vijayawada,"HB Colony, Vijayawada - APPCB",25-02-2024 15:00:00,16.536107,80.594233,PM10,51,64,57
India,Andhra_Pradesh,Vijayawada,"HB Colony, Vijayawada - APPCB",25-02-2024 15:00:00,16.536107,80.594233,SO2,3,4,4
India,Andhra_Pradesh,Vijayawada,"Kanuru, Vijayawada - APPCB",25-02-2024 15:00:00,16.486692,80.699436,NO2,15,18,17
India,Andhra_Pradesh,Vijayawada,"Rajiv Gandhi Park, Vijayawada - APPCB",25-02-2024 15:00:00,16.509717,80.612222,PM10,37,73,52
India,Andhra_Pradesh,Vijayawada,"Rajiv Nagar, Vijayawada - APPCB",25-02-2024 15:00:00,16.554731,80.649110,PM2.5,39,430,121
India,Assam,Byrnihat,"Central Academy for SFS, Byrnihat - PCBA",25-02-2024 15:00:00,26.071318,91.87488,PM2.5,NA,NA,NA
India,Assam,Byrnihat,"Central Academy for SFS, Byrnihat - PCBA",25-02-2024 15:00:00,26.071318,91.87488,OZONE,13,24,14
India,Assam,Guwahati,"LGBI Airport, Guwahati - PCBA",25-02-2024 15:00:00,26.10887,91.589544,PM10,94,320,146
India,Assam,Guwahati,"LGBI Airport, Guwahati - PCBA",25-02-2024 15:00:00,26.10887,91.589544,OZONE,2,61,26
India,Assam,Guwahati,"Pan Bazaar, Guwahati - PCBA",25-02-2024 15:00:00,26.187500,91.744194,NO2,1,13,7
India,Assam,Guwahati,"Pan Bazaar, Guwahati - PCBA",25-02-2024 15:00:00,26.187500,91.744194,OZONE,17,18,18
India,Assam,Guwahati,"Railway Colony, Guwahati - PCBA",25-02-2024 15:00:00,26.181742,91.78063,SO2,7,15,9
India,Assam,Nagaon,"Christianpatty, Nagaon - PCBA",25-02-2024 15:00:00,26.349082,92.68449,SO2,2,27,15
India,Assam,Nalbari,"Bata Chowk, Nalbari - PCBA",25-02-2024 15:00:00,26.446912,91.439057,PM2.5,65,417,265
India,Assam,Nalbari,"Bata Chowk, Nalbari - PCBA",25-02-2024 15:00:00,26.446912,91.439057,NO2,19,41,26
India,Assam,Sivasagar,"Girls College, Sivasagar - PCBA",25-02-2024 15:00:00,26.987634,94.636574,PM2.5,14,25,18
India,Bihar,Araria,"Kharahiya Basti, Araria - BSPCB",25-02-2024 15:00:00,26.146529,87.454184,PM2.5,60,312,210
India,Bihar,Araria,"Kharahiya Basti, Araria - BSPCB",25-02-2024 15:00:00,26.146529,87.454184,SO2,11,17,14
India,Bihar,Araria,"Kharahiya Basti, Araria - BSPCB",25-02-2024 15:00:00,26.146529,87.454184,OZONE,1,10,9
India,Bihar,Arrah,"New DM Office, Arrah - BSPCB",25-02-2024 15:00:00,25.5626095,84.663264,SO2,15,22,18
India,Bihar,Arrah,"New DM Office, Arrah - BSPCB",25-02-2024 15:00:00,25.5626095,84.663264,CO,5,57,11
India,Bihar,Aurangabad,"Gurdeo Nagar, Aurangabad - BSPCB",25-02-2024 15:00:00,24.75746,84.366208,PM10,45,183,96
India,Bihar,Bettiah,"Kamalnath Nagar, Bettiah - BSPCB",25-02-2024 15:00:00,26.80365,84.51954,NH3,3,6,3
India,Bihar,Bhagalpur,"DM Office_Kachari Chowk, Bhagalpur - BSPCB",25-02-2024 15:00:00,25.251013,86.989001,OZONE,20,32,26
India,Bihar,Bhagalpur,"Mayaganj, Bhagalpur - BSPCB",25-02-2024 15:00:00,25.265194,87.012947,NH3,7,8,8
India,Bihar,Bihar Sharif,"D M Colony, Bihar Sharif - BSPCB",25-02-2024 15:00:00,25.204762,85.514960,PM2.5,12,332,82
India,Bihar,Buxar,"Charitra Van, Buxar - BSPCB (Formerly known as Central Jail)",25-02-2024 15:00:00,25.567520,83.966379,SO2,13,18,17
India,Bihar,Buxar,"Charitra Van, Buxar - BSPCB (Formerly known as Central Jail)",25-02-2024 15:00:00,25.567520,83.966379,OZONE,4,125,73
India,Bihar,Chhapra,"Darshan Nagar, Chhapra - BSPCB",25-02-2024 15:00:00,25.7808257,84.7446768,PM2.5,63,354,208
India,Bihar,Chhapra,"Darshan Nagar, Chhapra - BSPCB",25-02-2024 15:00:00,25.7808257,84.7446768,SO2,14,61,36
India,Bihar,Gaya,"Collectorate, Gaya - BSPCB",25-02-2024 15:00:00,24.7955,84.9994,PM2.5,22,306,148
India,Bihar,Gaya,"Collectorate, Gaya - BSPCB",25-02-2024 15:00:00,24.7955,84.9994,SO2,5,16,9
India,Bihar,Gaya,"Kareemganj, Gaya - BSPCB",25-02-2024 15:00:00,24.792403,84.992416,NO2,30,31,30
India,Bihar,Gaya,"SFTI Kusdihra, Gaya - BSPCB",25-02-2024 15:00:00,24.762518,84.982348,PM2.5,62,128,90
India,Bihar,Gaya,"SFTI Kusdihra, Gaya - BSPCB",25-02-2024 15:00:00,24.762518,84.982348,NH3,1,3,2
India,Bihar,Hajipur,"Industrial Area, Hajipur - BSPCB",25-02-2024 15:00:00,25.697189,85.245900,SO2,3,5,4
India,Bihar,Hajipur,"Industrial Area, Hajipur - BSPCB",25-02-2024 15:00:00,25.697189,85.245900,OZONE,1,5,2
India,Bihar,Kishanganj,"SDM Office_Khagra, Kishanganj - BSPCB",25-02-2024 15:00:00,26.0881305,87.93840336,PM10,71,183,130
India,Bihar,Kishanganj,"SDM Office_Khagra, Kishanganj - BSPCB",25-02-2024 15:00:00,26.0881305,87.93840336,OZONE,15,25,17
India,Bihar,Manguraha,"Forest Rest House, Manguraha - BSPCB",25-02-2024 15:00:00,27.308328,84.531742,PM2.5,28,315,69
India,Bihar,Manguraha,"Forest Rest House, Manguraha - BSPCB",25-02-2024 15:00:00,27.308328,84.531742,PM10,38,216,83
India,Bihar,Manguraha,"Forest Rest House, Manguraha - BSPCB",25-02-2024 15:00:00,27.308328,84.531742,NH3,1,1,1
India,Bihar,Manguraha,"Forest Rest House, Manguraha - BSPCB",25-02-2024 15:00:00,27.308328,84.531742,CO,NA,NA,NA
India,Bihar,Motihari,"Gandak Colony, Motihari - BSPCB",25-02-2024 15:00:00,26.63086,84.90051,PM10,27,132,80
India,Bihar,Motihari,"Gandak Colony, Motihari - BSPCB",25-02-2024 15:00:00,26.63086,84.90051,CO,24,129,57
India,Bihar,Motihari,"Gandak Colony, Motihari - BSPCB",25-02-2024 15:00:00,26.63086,84.90051,OZONE,36,202,188
India,Bihar,Muzaffarpur,"Buddha Colony, Muzaffarpur - BSPCB",25-02-2024 15:00:00,26.11442,85.39813,OZONE,41,86,65
India,Bihar,Muzaffarpur,"MIT-Daudpur Kothi, Muzaffarpur - BSPCB",25-02-2024 15:00:00,26.1403345,85.3650192,NO2,7,10,8
India,Bihar,Muzaffarpur,"MIT-Daudpur Kothi, Muzaffarpur - BSPCB",25-02-2024 15:00:00,26.1403345,85.3650192,SO2,9,16,10
India,Bihar,Muzaffarpur,"Muzaffarpur Collectorate, Muzaffarpur - BSPCB",25-02-2024 15:00:00,26.1209,85.3647,PM2.5,55,376,182
India,Bihar,Patna,"DRM Office Danapur, Patna - BSPCB",25-02-2024 15:00:00,25.586562,85.043586,OZONE,1,71,42
India,Bihar,Patna,"Govt. High School Shikarpur, Patna - BSPCB",25-02-2024 15:00:00,25.592539,85.227158,NH3,4,4,4
India,Bihar,Patna,"Govt. High School Shikarpur, Patna - BSPCB",25-02-2024 15:00:00,25.592539,85.227158,SO2,1,5,3
India,Bihar,Patna,"Govt. High School Shikarpur, Patna - BSPCB",25-02-2024 15:00:00,25.592539,85.227158,OZONE,48,61,52
India,Bihar,Patna,"Rajbansi Nagar, Patna - BSPCB",25-02-2024 15:00:00,25.599486,85.113666,OZONE,1,77,32
India,Bihar,Patna,"Samanpura, Patna - BSPCB",25-02-2024 15:00:00,25.596727,85.085624,PM10,108,497,280
India,Bihar,Patna,"Samanpura, Patna - BSPCB",25-02-2024 15:00:00,25.596727,85.085624,NO2,51,171,102
India,Bihar,Patna,"Samanpura, Patna - BSPCB",25-02-2024 15:00:00,25.596727,85.085624,OZONE,5,53,43
India,Bihar,Purnia,"Mariam Nagar, Purnia - BSPCB",25-02-2024 15:00:00,25.366336,87.117468,NH3,1,1,1
India,Bihar,Purnia,"Mariam Nagar, Purnia - BSPCB",25-02-2024 15:00:00,25.366336,87.117468,SO2,18,30,22
India,Bihar,Rajgir,"Dangi Tola, Rajgir - BSPCB",25-02-2024 15:00:00,25.03280,85.41948,NH3,1,3,1
India,Bihar,Saharsa,"Police Line, Saharsa - BSPCB",25-02-2024 15:00:00,25.892357,86.590325,PM10,36,175,113
India,Bihar,Saharsa,"Police Line, Saharsa - BSPCB",25-02-2024 15:00:00,25.892357,86.590325,NO2,5,9,7
India,Bihar,Samastipur,"DM Office_Kasipur, Samastipur - BSPCB",25-02-2024 15:00:00,25.859655,85.77944,OZONE,9,50,33
India,Bihar,Sasaram,"Dada Peer, Sasaram - BSPCB",25-02-2024 15:00:00,24.952822,84.002396,NH3,8,20,12
India,Bihar,Siwan,"Chitragupta Nagar, Siwan - BSPCB",25-02-2024 15:00:00,26.2271665,84.3570427,PM2.5,43,392,235
India,Chandigarh,Chandigarh,"Sector-25, Chandigarh - CPCC",25-02-2024 15:00:00,30.751462,76.762879,PM2.5,103,207,142
India,Chandigarh,Chandigarh,"Sector-25, Chandigarh - CPCC",25-02-2024 15:00:00,30.751462,76.762879,PM10,108,166,126
India,Chandigarh,Chandigarh,"Sector-25, Chandigarh - CPCC",25-02-2024 15:00:00,30.751462,76.762879,OZONE,1,45,22
India,Chhattisgarh,Bhilai,"32Bungalows, Bhilai - CECB",25-02-2024 15:00:00,21.194815,81.314770,PM10,36,101,64
India,Chhattisgarh,Bhilai,"Civic Center, Bhilai - Bhilai Steel Plant",25-02-2024 15:00:00,21.185571,81.343175,PM2.5,20,39,27
India,Chhattisgarh,Bhilai,"Civic Center, Bhilai - Bhilai Steel Plant",25-02-2024 15:00:00,21.185571,81.343175,PM10,34,100,58
India,Chhattisgarh,Chhal,"Nawapara SECL Colony, Chhal - CECB",25-02-2024 15:00:00,22.118125,83.140608,NO2,13,38,20
India,Chhattisgarh,Chhal,"Nawapara SECL Colony, Chhal - CECB",25-02-2024 15:00:00,22.118125,83.140608,SO2,14,31,20
India,Chhattisgarh,Korba,"Rampur, Korba - CECB",25-02-2024 15:00:00,22.368195,82.746431,NO2,15,46,31
India,Chhattisgarh,Korba,"Rampur, Korba - CECB",25-02-2024 15:00:00,22.368195,82.746431,NH3,1,4,3
India,Chhattisgarh,Korba,"Rampur, Korba - CECB",25-02-2024 15:00:00,22.368195,82.746431,SO2,6,23,9
India,Chhattisgarh,Korba,"Rampur, Korba - CECB",25-02-2024 15:00:00,22.368195,82.746431,CO,17,22,19
India,Chhattisgarh,Kunjemura,"OP Jindal School, Kunjemura - CECB",25-02-2024 15:00:00,22.126650,83.483212,CO,26,42,30
India,Chhattisgarh,Kunjemura,"OP Jindal School, Kunjemura - CECB",25-02-2024 15:00:00,22.126650,83.483212,OZONE,46,84,55
India,Chhattisgarh,Milupara,"Govt. Higher Secondary School, Milupara - CECB",25-02-2024 15:00:00,22.1910172,83.5197009,SO2,NA,NA,NA
India,Chhattisgarh,Milupara,"Govt. Higher Secondary School, Milupara - CECB",25-02-2024 15:00:00,22.1910172,83.5197009,OZONE,28,47,31
India,Chhattisgarh,Raipur,"AIIMS, Raipur - CECB",25-02-2024 15:00:00,21.258815,81.578979,NO2,29,55,47
India,Chhattisgarh,Raipur,"AIIMS, Raipur - CECB",25-02-2024 15:00:00,21.258815,81.578979,NH3,4,4,4
India,Chhattisgarh,Raipur,"Bhatagaon New ISBT, Raipur - CECB",25-02-2024 15:00:00,21.219665,81.630094,PM2.5,31,66,47
India,Chhattisgarh,Raipur,"Bhatagaon New ISBT, Raipur - CECB",25-02-2024 15:00:00,21.219665,81.630094,PM10,52,93,65
India,Chhattisgarh,Raipur,"Krishak Nagar, Raipur - CECB",25-02-2024 15:00:00,21.237755,81.705301,PM2.5,3,68,44
India,Chhattisgarh,Tumidih,"OP Jindal Industrial Park, Tumidih - CECB",25-02-2024 15:00:00,22.06631475,83.33820077,SO2,5,11,7
India,Delhi,Delhi,"Anand Vihar, Delhi - DPCC",25-02-2024 15:00:00,28.647622,77.3158090,PM10,112,454,239
India,Delhi,Delhi,"Anand Vihar, Delhi - DPCC",25-02-2024 15:00:00,28.647622,77.3158090,NH3,4,8,6
India,Delhi,Delhi,"Anand Vihar, Delhi - DPCC",25-02-2024 15:00:00,28.647622,77.3158090,OZONE,17,22,20
India,Delhi,Delhi,"Ashok Vihar, Delhi - DPCC",25-02-2024 15:00:00,28.695381,77.181665,NH3,2,5,4
India,Delhi,Delhi,"Ashok Vihar, Delhi - DPCC",25-02-2024 15:00:00,28.695381,77.181665,SO2,23,49,31
India,Delhi,Delhi,"Ashok Vihar, Delhi - DPCC",25-02-2024 15:00:00,28.695381,77.181665,CO,4,68,30
India,Delhi,Delhi,"Aya Nagar, Delhi - IMD",25-02-2024 15:00:00,28.4706914,77.1099364,OZONE,9,56,29
India,Delhi,Delhi,"Bawana, Delhi - DPCC",25-02-2024 15:00:00,28.776200,77.051074,OZONE,8,128,70
India,Delhi,Delhi,"Burari Crossing, Delhi - IMD",25-02-2024 15:00:00,28.7256504,77.2011573,CO,38,58,51
India,Delhi,Delhi,"Chandni Chowk, Delhi - IITM",25-02-2024 15:00:00,28.656756,77.227234,NH3,7,8,8
India,Delhi,Delhi,"Dr. Karni Singh Shooting Range, Delhi - DPCC",25-02-2024 15:00:00,28.498571,77.264840,PM2.5,35,324,197
India,Delhi,Delhi,"Dr. Karni Singh Shooting Range, Delhi - DPCC",25-02-2024 15:00:00,28.498571,77.264840,PM10,66,303,175
India,Delhi,Delhi,"Dr. Karni Singh Shooting Range, Delhi - DPCC",25-02-2024 15:00:00,28.498571,77.264840,SO2,5,17,11
India,Delhi,Delhi,"Dr. Karni Singh Shooting Range, Delhi - DPCC",25-02-2024 15:00:00,28.498571,77.264840,CO,17,113,31
India,Delhi,Delhi,"Dr. Karni Singh Shooting Range, Delhi - DPCC",25-02-2024 15:00:00,28.498571,77.264840,OZONE,1,198,175
India,Delhi,Delhi,"Dwarka-Sector 8, Delhi - DPCC ",25-02-2024 15:00:00,28.5710274,77.0719006,NO2,4,127,40
India,Delhi,Delhi,"Dwarka-Sector 8, Delhi - DPCC ",25-02-2024 15:00:00,28.5710274,77.0719006,CO,16,115,33
India,Delhi,Delhi,"IHBAS, Dilshad Garden, Delhi - CPCB",25-02-2024 15:00:00,28.6811736,77.3025234,SO2,3,41,14
India,Delhi,Delhi,"ITO, Delhi - CPCB",25-02-2024 15:00:00,28.628624,77.241060,PM2.5,61,336,224
India,Delhi,Delhi,"Jahangirpuri, Delhi - DPCC",25-02-2024 15:00:00,28.732820,77.170633,NH3,14,23,19
India,Delhi,Delhi,"Jawaharlal Nehru Stadium, Delhi - DPCC",25-02-2024 15:00:00,28.580280,77.233829,NH3,5,11,8
India,Delhi,Delhi,"Lodhi Road, Delhi - IMD",25-02-2024 15:00:00,28.5918245,77.2273074,CO,20,63,48
India,Delhi,Delhi,"Major Dhyan Chand National Stadium, Delhi - DPCC",25-02-2024 15:00:00,28.611281,77.237738,NH3,6,12,8
India,Delhi,Delhi,"Major Dhyan Chand National Stadium, Delhi - DPCC",25-02-2024 15:00:00,28.611281,77.237738,SO2,13,34,20
India,Delhi,Delhi,"Major Dhyan Chand National Stadium, Delhi - DPCC",25-02-2024 15:00:00,28.611281,77.237738,OZONE,3,181,153
India,Delhi,Delhi,"Mandir Marg, Delhi - DPCC",25-02-2024 15:00:00,28.636429,77.201067,PM2.5,58,276,150
India,Delhi,Delhi,"Mundka, Delhi - DPCC",25-02-2024 15:00:00,28.684678,77.076574,PM2.5,30,342,204
India,Delhi,Delhi,"NSIT Dwarka, Delhi - CPCB",25-02-2024 15:00:00,28.60909,77.0325413,OZONE,21,114,60
India,Delhi,Delhi,"Najafgarh, Delhi - DPCC",25-02-2024 15:00:00,28.570173,76.933762,PM2.5,NA,NA,NA
India,Delhi,Delhi,"Najafgarh, Delhi - DPCC",25-02-2024 15:00:00,28.570173,76.933762,PM10,NA,NA,NA
India,Delhi,Delhi,"Najafgarh, Delhi - DPCC",25-02-2024 15:00:00,28.570173,76.933762,SO2,NA,NA,NA
India,Delhi,Delhi,"Narela, Delhi - DPCC",25-02-2024 15:00:00,28.822836,77.101981,NH3,4,11,7
India,Delhi,Delhi,"Narela, Delhi - DPCC",25-02-2024 15:00:00,28.822836,77.101981,CO,28,83,54
India,Delhi,Delhi,"Nehru Nagar, Delhi - DPCC",25-02-2024 15:00:00,28.567890,77.250515,CO,29,132,77
India,Delhi,Delhi,"Okhla Phase-2, Delhi - DPCC",25-02-2024 15:00:00,28.530785,77.271255,OZONE,8,142,72
India,Delhi,Delhi,"Patparganj, Delhi - DPCC",25-02-2024 15:00:00,28.623763,77.287209,PM10,112,302,175
India,Delhi,Delhi,"Patparganj, Delhi - DPCC",25-02-2024 15:00:00,28.623763,77.287209,CO,10,84,28
India,Delhi,Delhi,"Pusa, Delhi - DPCC",25-02-2024 15:00:00,28.639652,77.146275,OZONE,13,105,59
India,Delhi,Delhi,"R K Puram, Delhi - DPCC",25-02-2024 15:00:00,28.563262,77.186937,SO2,7,28,16
India,Delhi,Delhi,"Shadipur, Delhi - CPCB",25-02-2024 15:00:00,28.6514781,77.1473105,CO,15,62,40
India,Delhi,Delhi,"Sirifort, Delhi - CPCB",25-02-2024 15:00:00,28.5504249,77.2159377,NH3,8,12,10
India,Delhi,Delhi,"Sirifort, Delhi - CPCB",25-02-2024 15:00:00,28.5504249,77.2159377,CO,15,110,36
India,Delhi,Delhi,"Sonia Vihar, Delhi - DPCC",25-02-2024 15:00:00,28.710508,77.249485,PM10,89,286,169
India,Delhi,Delhi,"Sonia Vihar, Delhi - DPCC",25-02-2024 15:00:00,28.710508,77.249485,CO,34,82,55
India,Delhi,Delhi,"Sri Aurobindo Marg, Delhi - DPCC",25-02-2024 15:00:00,28.531346,77.190156,PM2.5,45,287,176
India,Delhi,Delhi,"Vivek Vihar, Delhi - DPCC",25-02-2024 15:00:00,28.672342,77.315260,PM10,71,266,173
India,Delhi,Delhi,"Vivek Vihar, Delhi - DPCC",25-02-2024 15:00:00,28.672342,77.315260,NO2,31,131,73
India,Delhi,Delhi,"Vivek Vihar, Delhi - DPCC",25-02-2024 15:00:00,28.672342,77.315260,NH3,3,6,5
India,Delhi,Delhi,"Wazirpur, Delhi - DPCC",25-02-2024 15:00:00,28.699793,77.165453,NO2,42,184,114
India,Gujarat,Ahmedabad,"Chandkheda, Ahmedabad - IITM",25-02-2024 15:00:00,23.107969,72.574648,NO2,29,37,34
India,Gujarat,Ahmedabad,"Chandkheda, Ahmedabad - IITM",25-02-2024 15:00:00,23.107969,72.574648,SO2,5,14,8
India,Gujarat,Ahmedabad,"Rakhial, Ahmedabad - IITM",25-02-2024 15:00:00,23.016834,72.625775,SO2,2,12,5
India,Gujarat,Ahmedabad,"SAC ISRO Bopal, Ahmedabad - IITM",25-02-2024 15:00:00,23.041137,72.456691,NH3,3,4,3
India,Gujarat,Ahmedabad,"SAC ISRO Satellite, Ahmedabad - IITM",25-02-2024 15:00:00,23.023389,72.515201,PM10,90,106,93
India,Gujarat,Ahmedabad,"SAC ISRO Satellite, Ahmedabad - IITM",25-02-2024 15:00:00,23.023389,72.515201,NO2,17,17,17
India,Gujarat,Ahmedabad,"SVPI Airport Hansol, Ahmedabad - IITM",25-02-2024 15:00:00,23.076793,72.627874,PM10,NA,NA,NA
India,Gujarat,Ahmedabad,"SVPI Airport Hansol, Ahmedabad - IITM",25-02-2024 15:00:00,23.076793,72.627874,CO,8,52,21
India,Gujarat,Ahmedabad,"SVPI Airport Hansol, Ahmedabad - IITM",25-02-2024 15:00:00,23.076793,72.627874,OZONE,8,30,22
India,Gujarat,Ahmedabad,"Sardar Vallabhbhai Patel Stadium, Ahmedabad - IITM",25-02-2024 15:00:00,23.043070,72.562968,PM2.5,52,103,81
India,Gujarat,Ahmedabad,"Sardar Vallabhbhai Patel Stadium, Ahmedabad - IITM",25-02-2024 15:00:00,23.043070,72.562968,NH3,1,2,1
India,Gujarat,Ahmedabad,"Sardar Vallabhbhai Patel Stadium, Ahmedabad - IITM",25-02-2024 15:00:00,23.043070,72.562968,OZONE,18,27,23
India,Gujarat,Ankleshwar,"GIDC, Ankleshwar - GPCB",25-02-2024 15:00:00,21.613267,73.010555,PM10,50,120,84
India,Gujarat,Gandhinagar,"IIPHG Lekawada, Gandhinagar - IITM",25-02-2024 15:00:00,23.243639,72.68994,PM2.5,43,144,88
India,Gujarat,Gandhinagar,"Sector-10, Gandhinagar - GPCB",25-02-2024 15:00:00,23.221714,72.654328,PM2.5,13,46,28
India,Gujarat,Vapi,"Phase-1 GIDC, Vapi - GPCB",25-02-2024 15:00:00,20.362421,72.918013,SO2,45,46,46
India,Gujarat,Vapi,"Phase-1 GIDC, Vapi - GPCB",25-02-2024 15:00:00,20.362421,72.918013,OZONE,48,74,66
India,Gujarat,Vatva,"Phase-4 GIDC, Vatva - GPCB",25-02-2024 15:00:00,22.969611,72.643500,NO2,12,105,45
India,Gujarat,Vatva,"Phase-4 GIDC, Vatva - GPCB",25-02-2024 15:00:00,22.969611,72.643500,NH3,1,2,1
India,Gujarat,Vatva,"Phase-4 GIDC, Vatva - GPCB",25-02-2024 15:00:00,22.969611,72.643500,CO,48,50,49
India,Haryana,Ambala,"Patti Mehar, Ambala - HSPCB",25-02-2024 15:00:00,30.379589,76.778328,PM2.5,23,61,44
India,Haryana,Ambala,"Patti Mehar, Ambala - HSPCB",25-02-2024 15:00:00,30.379589,76.778328,SO2,1,26,10
India,Haryana,Ambala,"Patti Mehar, Ambala - HSPCB",25-02-2024 15:00:00,30.379589,76.778328,CO,30,60,49
India,Haryana,Bahadurgarh,"Arya Nagar, Bahadurgarh - HSPCB",25-02-2024 15:00:00,28.6701,76.9254,CO,42,57,49
India,Haryana,Ballabgarh,"Nathu Colony, Ballabgarh - HSPCB",25-02-2024 15:00:00,28.3419248,77.319699,PM2.5,82,302,184
India,Haryana,Ballabgarh,"Nathu Colony, Ballabgarh - HSPCB",25-02-2024 15:00:00,28.3419248,77.319699,NO2,11,13,12
India,Haryana,Bhiwani,"H.B. Colony, Bhiwani - HSPCB",25-02-2024 15:00:00,28.806223,76.141105,PM10,48,101,65
India,Haryana,Bhiwani,"H.B. Colony, Bhiwani - HSPCB",25-02-2024 15:00:00,28.806223,76.141105,NO2,4,13,9
India,Haryana,Charkhi Dadri,"Mini Secretariat, Charkhi Dadri - HSPCB",25-02-2024 15:00:00,28.593883,76.270653,PM10,46,130,81
India,Haryana,Charkhi Dadri,"Mini Secretariat, Charkhi Dadri - HSPCB",25-02-2024 15:00:00,28.593883,76.270653,CO,8,15,14
India,Haryana,Dharuhera,"Municipal Corporation Office, Dharuhera -  HSPCB",25-02-2024 15:00:00,28.206800,76.799700,CO,2,47,23
India,Haryana,Faridabad,"Sector 11, Faridabad - HSPCB",25-02-2024 15:00:00,28.376058,77.315741,PM10,101,401,191
India,Haryana,Faridabad,"Sector 11, Faridabad - HSPCB",25-02-2024 15:00:00,28.376058,77.315741,SO2,8,9,8
India,Haryana,Faridabad,"Sector 30, Faridabad - HSPCB",25-02-2024 15:00:00,28.4417,77.3217,PM2.5,135,186,158
India,Haryana,Faridabad,"Sector- 16A, Faridabad - HSPCB",25-02-2024 15:00:00,28.4088421,77.3099081,SO2,NA,NA,NA
India,Haryana,Faridabad,"Sector- 16A, Faridabad - HSPCB",25-02-2024 15:00:00,28.4088421,77.3099081,CO,3,14,3
India,Haryana,Fatehabad,"Huda Sector, Fatehabad - HSPCB",25-02-2024 15:00:00,29.503664,75.467934,NH3,9,10,10
India,Haryana,Gurugram,"Sector-51, Gurugram - HSPCB",25-02-2024 15:00:00,28.4227,77.0667,NO2,13,29,23
India,Haryana,Gurugram,"Sector-51, Gurugram - HSPCB",25-02-2024 15:00:00,28.4227,77.0667,NH3,6,14,9
India,Haryana,Gurugram,"Teri Gram, Gurugram - HSPCB",25-02-2024 15:00:00,28.4275,77.1465,NO2,28,58,44
India,Haryana,Gurugram,"Teri Gram, Gurugram - HSPCB",25-02-2024 15:00:00,28.4275,77.1465,CO,22,52,31
India,Haryana,Gurugram,"Teri Gram, Gurugram - HSPCB",25-02-2024 15:00:00,28.4275,77.1465,OZONE,10,24,10
India,Haryana,Gurugram,"Vikas Sadan, Gurugram - HSPCB",25-02-2024 15:00:00,28.4501238,77.0263051,NO2,5,26,14
India,Haryana,Gurugram,"Vikas Sadan, Gurugram - HSPCB",25-02-2024 15:00:00,28.4501238,77.0263051,SO2,20,31,26
India,Haryana,Jind,"Police Lines, Jind - HSPCB",25-02-2024 15:00:00,29.307814,76.337619,SO2,NA,NA,NA
India,Haryana,Jind,"Police Lines, Jind - HSPCB",25-02-2024 15:00:00,29.307814,76.337619,CO,6,110,68
India,Haryana,Karnal,"Sector-12, Karnal - HSPCB",25-02-2024 15:00:00,29.695300,77.002700,NO2,7,12,10
India,Haryana,Karnal,"Sector-12, Karnal - HSPCB",25-02-2024 15:00:00,29.695300,77.002700,NH3,10,13,11
India,Haryana,Kurukshetra,"Sector-7, Kurukshetra - HSPCB",25-02-2024 15:00:00,29.966942,76.875879,SO2,3,41,17
India,Haryana,Mandikhera,"General Hospital, Mandikhera - HSPCB",25-02-2024 15:00:00,27.9002,76.9938,PM10,67,116,93
India,Haryana,Mandikhera,"General Hospital, Mandikhera - HSPCB",25-02-2024 15:00:00,27.9002,76.9938,NO2,15,21,19
India,Haryana,Manesar,"Sector-2 IMT, Manesar - HSPCB",25-02-2024 15:00:00,28.360699,76.936090,SO2,NA,NA,NA
India,Haryana,Manesar,"Sector-2 IMT, Manesar - HSPCB",25-02-2024 15:00:00,28.360699,76.936090,CO,10,116,49
India,Haryana,Palwal,"Shyam Nagar, Palwal - HSPCB",25-02-2024 15:00:00,28.1485564,77.3320667,NH3,9,9,9
India,Haryana,Palwal,"Shyam Nagar, Palwal - HSPCB",25-02-2024 15:00:00,28.1485564,77.3320667,CO,22,34,31
India,Haryana,Panipat,"Sector-18, Panipat - HSPCB",25-02-2024 15:00:00,29.497973,76.993331,PM10,89,91,90
India,Haryana,Sirsa,"F-Block, Sirsa - HSPCB",25-02-2024 15:00:00,29.536400,75.015800,PM10,27,66,49
India,Haryana,Sirsa,"F-Block, Sirsa - HSPCB",25-02-2024 15:00:00,29.536400,75.015800,NH3,12,13,13
India,Haryana,Sonipat,"Murthal, Sonipat - HSPCB",25-02-2024 15:00:00,29.027200,77.062100,NH3,2,10,8
India,Haryana,Yamuna Nagar,"Gobind Pura, Yamuna Nagar - HSPCB",25-02-2024 15:00:00,30.1480566,77.2893471,PM10,49,137,92
India,Haryana,Yamuna Nagar,"Gobind Pura, Yamuna Nagar - HSPCB",25-02-2024 15:00:00,30.1480566,77.2893471,NO2,11,28,18
India,Jharkhand,Dhanbad,"Kalakusuma, Dhanbad - DMC",25-02-2024 15:00:00,23.811548,86.481238,CO,130,135,131
India,Jharkhand,Dhanbad,"Kalakusuma, Dhanbad - DMC",25-02-2024 15:00:00,23.811548,86.481238,OZONE,25,37,30
India,Jharkhand,Pathardih,"Mohalbani Ghat, Pathardih - DMC",25-02-2024 15:00:00,23.669880,86.411725,PM10,NA,NA,NA
India,Karnataka,Bagalkot,"Vidayagiri, Bagalkot - KSPCB",25-02-2024 15:00:00,16.172806,75.659694,PM2.5,25,38,36
India,Karnataka,Bagalkot,"Vidayagiri, Bagalkot - KSPCB",25-02-2024 15:00:00,16.172806,75.659694,NH3,1,2,1
India,Karnataka,Belgaum,"Ramteerth Nagar, Belgaum - KSPCB",25-02-2024 15:00:00,15.888653,74.541751,PM2.5,19,64,38
India,Karnataka,Belgaum,"Ramteerth Nagar, Belgaum - KSPCB",25-02-2024 15:00:00,15.888653,74.541751,OZONE,19,20,19
India,Karnataka,Bengaluru,"BTM Layout, Bengaluru - CPCB",25-02-2024 15:00:00,12.9135218,77.5950804,PM10,52,96,66
India,Karnataka,Bengaluru,"BTM Layout, Bengaluru - CPCB",25-02-2024 15:00:00,12.9135218,77.5950804,NH3,5,5,5
India,Karnataka,Bengaluru,"Bapuji Nagar, Bengaluru - KSPCB",25-02-2024 15:00:00,12.951913,77.539784,PM10,56,105,85
India,Karnataka,Bengaluru,"Bapuji Nagar, Bengaluru - KSPCB",25-02-2024 15:00:00,12.951913,77.539784,NO2,9,15,11
India,Karnataka,Bengaluru,"Bapuji Nagar, Bengaluru - KSPCB",25-02-2024 15:00:00,12.951913,77.539784,CO,20,41,35
India,Karnataka,Bengaluru,"Bapuji Nagar, Bengaluru - KSPCB",25-02-2024 15:00:00,12.951913,77.539784,OZONE,10,15,13
India,Karnataka,Bengaluru,"Hombegowda Nagar, Bengaluru - KSPCB",25-02-2024 15:00:00,12.938539,77.590100,NO2,34,41,37
India,Karnataka,Bengaluru,"Hombegowda Nagar, Bengaluru - KSPCB",25-02-2024 15:00:00,12.938539,77.590100,SO2,3,4,4
India,Karnataka,Bengaluru,"Hombegowda Nagar, Bengaluru - KSPCB",25-02-2024 15:00:00,12.938539,77.590100,CO,16,20,18
India,Karnataka,Bengaluru,"Hombegowda Nagar, Bengaluru - KSPCB",25-02-2024 15:00:00,12.938539,77.590100,OZONE,4,5,4
India,Karnataka,Bengaluru,"Jayanagar 5th Block, Bengaluru - KSPCB",25-02-2024 15:00:00,12.920984,77.584908,SO2,13,28,19
India,Karnataka,Bengaluru,"Jigani, Bengaluru - KSPCB",25-02-2024 15:00:00,12.7816279,77.6299145,PM2.5,54,178,88
India,Karnataka,Bengaluru,"Jigani, Bengaluru - KSPCB",25-02-2024 15:00:00,12.7816279,77.6299145,CO,50,95,69
India,Karnataka,Bengaluru,"Kasturi Nagar, Bengaluru - KSPCB",25-02-2024 15:00:00,13.003872,77.664217,PM2.5,58,151,97
India,Karnataka,Bengaluru,"Kasturi Nagar, Bengaluru - KSPCB",25-02-2024 15:00:00,13.003872,77.664217,SO2,10,10,10
India,Karnataka,Bengaluru,"Peenya, Bengaluru - CPCB",25-02-2024 15:00:00,13.0270199,77.494094,PM2.5,32,193,75
India,Karnataka,Bengaluru,"Peenya, Bengaluru - CPCB",25-02-2024 15:00:00,13.0270199,77.494094,CO,16,56,38
India,Karnataka,Bengaluru,"RVCE-Mailasandra, Bengaluru - KSPCB",25-02-2024 15:00:00,12.921418,77.502466,PM2.5,3,277,76
India,Karnataka,Bengaluru,"RVCE-Mailasandra, Bengaluru - KSPCB",25-02-2024 15:00:00,12.921418,77.502466,SO2,7,17,11
India,Karnataka,Bengaluru,"Sanegurava Halli, Bengaluru - KSPCB",25-02-2024 15:00:00,12.990328,77.5431385,PM10,35,61,42
India,Karnataka,Bengaluru,"Sanegurava Halli, Bengaluru - KSPCB",25-02-2024 15:00:00,12.990328,77.5431385,CO,8,52,20
India,Karnataka,Bengaluru,"Shivapura_Peenya, Bengaluru - KSPCB",25-02-2024 15:00:00,13.0246342,77.5080115,PM10,53,104,81
India,Karnataka,Bengaluru,"Shivapura_Peenya, Bengaluru - KSPCB",25-02-2024 15:00:00,13.0246342,77.5080115,NO2,15,16,15
India,Karnataka,Bengaluru,"Shivapura_Peenya, Bengaluru - KSPCB",25-02-2024 15:00:00,13.0246342,77.5080115,CO,22,52,31
India,Karnataka,Bengaluru,"Shivapura_Peenya, Bengaluru - KSPCB",25-02-2024 15:00:00,13.0246342,77.5080115,OZONE,53,56,54
India,Karnataka,Bengaluru,"Silk Board, Bengaluru - KSPCB",25-02-2024 15:00:00,12.917348,77.622813,NO2,NA,NA,NA
India,Karnataka,Bengaluru,"Silk Board, Bengaluru - KSPCB",25-02-2024 15:00:00,12.917348,77.622813,CO,25,45,34
India,Karnataka,Bidar,"Naubad, Bidar - KSPCB",25-02-2024 15:00:00,17.930306,77.482194,NH3,NA,NA,NA
India,Karnataka,Bidar,"Naubad, Bidar - KSPCB",25-02-2024 15:00:00,17.930306,77.482194,CO,56,56,56
India,Karnataka,Chamarajanagar,"Urban, Chamarajanagar - KSPCB",25-02-2024 15:00:00,11.55358,76.55521,CO,22,120,27
India,Karnataka,Chikkaballapur,"Chikkaballapur Rural, Chikkaballapur - KSPCB",25-02-2024 15:00:00,13.428828,77.731418,PM2.5,55,130,73
India,Karnataka,Chikkamagaluru,"Kalyana Nagara, Chikkamagaluru - KSPCB",25-02-2024 15:00:00,13.328028,75.797056,PM2.5,26,60,39
India,Karnataka,Davanagere,"Devaraj Urs Badavane, Davanagere - KSPCB",25-02-2024 15:00:00,14.475800,75.905200,NH3,1,2,1
India,Karnataka,Dharwad,"Kalabhavan, Dharwad - KSPCB",25-02-2024 15:00:00,15.459706,75.008381,NO2,4,35,22
India,Karnataka,Dharwad,"Kalabhavan, Dharwad - KSPCB",25-02-2024 15:00:00,15.459706,75.008381,SO2,3,17,7
India,Karnataka,Gadag,"Panchal Nagar, Gadag - KSPCB",25-02-2024 15:00:00,15.411456,75.638133,SO2,12,20,17
India,Karnataka,Hassan,"B.Katihalli, Hassan - KSPCB",25-02-2024 15:00:00,13.008556,76.125258,NO2,9,13,12
India,Karnataka,Hassan,"B.Katihalli, Hassan - KSPCB",25-02-2024 15:00:00,13.008556,76.125258,SO2,NA,NA,NA
India,Karnataka,Hubballi,"Lingaraj Nagar, Hubballi - KSPCB",25-02-2024 15:00:00,15.3714823,75.1160168,CO,23,66,51
India,Karnataka,Hubballi,"Lingaraj Nagar, Hubballi - KSPCB",25-02-2024 15:00:00,15.3714823,75.1160168,OZONE,15,56,39
India,Karnataka,Kalaburagi,"Mahatma Basaveswar Colony, Kalaburgi - KSPCB",25-02-2024 15:00:00,17.336318,76.847397,NO2,17,22,21
India,Karnataka,Kalaburagi,"Mahatma Basaveswar Colony, Kalaburgi - KSPCB",25-02-2024 15:00:00,17.336318,76.847397,CO,41,110,47
India,Karnataka,Karwar,"KHB Colony, Karwar - KSPCB",25-02-2024 15:00:00,14.816666,74.141003,OZONE,21,22,21
India,Karnataka,Madikeri,"Stuart Hill, Madikeri - KSPCB",25-02-2024 15:00:00,12.415911,75.735050,PM10,36,58,47
India,Karnataka,Madikeri,"Stuart Hill, Madikeri - KSPCB",25-02-2024 15:00:00,12.415911,75.735050,SO2,4,4,4
India,Karnataka,Madikeri,"Stuart Hill, Madikeri - KSPCB",25-02-2024 15:00:00,12.415911,75.735050,CO,4,34,16
India,Karnataka,Mangalore,"Kadri, Mangalore - KSPCB",25-02-2024 15:00:00,12.889250,74.853000,NO2,6,7,6
India,Karnataka,Mysuru,"Hebbal 1st Stage, Mysuru - KSPCB",25-02-2024 15:00:00,12.21041,76.37376,PM2.5,23,75,46
India,Karnataka,Mysuru,"Hebbal 1st Stage, Mysuru - KSPCB",25-02-2024 15:00:00,12.21041,76.37376,NO2,7,46,22
India,Karnataka,Raichur,"Haji Colony, Raichur - KSPCB",25-02-2024 15:00:00,16.208139,77.348417,NO2,4,48,27
India,Karnataka,Ramanagara,"Vijay Nagar, Ramanagara - KSPCB",25-02-2024 15:00:00,12.733409,77.298051,NH3,1,1,1
India,Karnataka,Shivamogga,"Vinoba Nagara, Shivamogga - KSPCB",25-02-2024 15:00:00,13.940000,75.555917,PM10,50,71,55
India,Karnataka,Shivamogga,"Vinoba Nagara, Shivamogga - KSPCB",25-02-2024 15:00:00,13.940000,75.555917,NO2,8,23,14
India,Karnataka,Shivamogga,"Vinoba Nagara, Shivamogga - KSPCB",25-02-2024 15:00:00,13.940000,75.555917,NH3,2,6,3
India,Karnataka,Udupi,"Brahmagiri, Udupi - KSPCB",25-02-2024 15:00:00,13.34194444,74.74694444,OZONE,23,24,23
India,Karnataka,Vijayapura,"Ibrahimpur, Vijayapura - KSPCB",25-02-2024 15:00:00,16.802639,75.722694,OZONE,13,16,15
India,Kerala,Kannur,"Thavakkara, Kannur - Kerala PCB",25-02-2024 15:00:00,11.875000,75.373200,PM2.5,49,65,56
India,Kerala,Kannur,"Thavakkara, Kannur - Kerala PCB",25-02-2024 15:00:00,11.875000,75.373200,NH3,1,1,1
India,Kerala,Kochi,"Vyttila, Kochi - Kerala PCB",25-02-2024 15:00:00,9.969447,76.321186,CO,58,62,60
India,Kerala,Kollam,"Polayathode, Kollam - Kerala PCB",25-02-2024 15:00:00,8.8787,76.6073,PM10,62,98,78
India,Kerala,Kollam,"Polayathode, Kollam - Kerala PCB",25-02-2024 15:00:00,8.8787,76.6073,NO2,8,9,8
India,Kerala,Thiruvananthapuram,"Kariavattom, Thiruvananthapuram - Kerala PCB",25-02-2024 15:00:00,8.563700,76.886500,NO2,8,9,9
India,Kerala,Thiruvananthapuram,"Kariavattom, Thiruvananthapuram - Kerala PCB",25-02-2024 15:00:00,8.563700,76.886500,SO2,2,16,7
India,Kerala,Thiruvananthapuram,"Plammoodu, Thiruvananthapuram - Kerala PCB",25-02-2024 15:00:00,8.5149093,76.9435879,PM10,44,103,58
India,Kerala,Thiruvananthapuram,"Plammoodu, Thiruvananthapuram - Kerala PCB",25-02-2024 15:00:00,8.5149093,76.9435879,NH3,2,2,2
India,Madhya Pradesh,Bhopal,"T T Nagar, Bhopal - MPPCB",25-02-2024 15:00:00,23.233584,77.400574,CO,8,98,19
India,Madhya Pradesh,Bhopal,"T T Nagar, Bhopal - MPPCB",25-02-2024 15:00:00,23.233584,77.400574,OZONE,7,131,95
India,Madhya Pradesh,Dewas,"Bhopal Chauraha, Dewas - MPPCB",25-02-2024 15:00:00,22.9682591,76.064118,SO2,34,52,44
India,Madhya Pradesh,Dewas,"Bhopal Chauraha, Dewas - MPPCB",25-02-2024 15:00:00,22.9682591,76.064118,CO,12,48,18
India,Madhya Pradesh,Gwalior,"City Center, Gwalior - MPPCB",25-02-2024 15:00:00,26.203442,78.193251,NH3,5,6,5
India,Madhya Pradesh,Gwalior,"City Center, Gwalior - MPPCB",25-02-2024 15:00:00,26.203442,78.193251,CO,28,52,44
India,Madhya Pradesh,Gwalior,"City Center, Gwalior - MPPCB",25-02-2024 15:00:00,26.203442,78.193251,OZONE,29,114,47
India,Madhya Pradesh,Gwalior,"Deen Dayal Nagar, Gwalior - MPPCB",25-02-2024 15:00:00,26.259242,78.216432,PM2.5,41,182,75
India,Madhya Pradesh,Gwalior,"Deen Dayal Nagar, Gwalior - MPPCB",25-02-2024 15:00:00,26.259242,78.216432,NO2,42,93,66
India,Madhya Pradesh,Gwalior,"Deen Dayal Nagar, Gwalior - MPPCB",25-02-2024 15:00:00,26.259242,78.216432,CO,56,111,82
India,Madhya Pradesh,Gwalior,"Maharaj Bada, Gwalior - MPPCB",25-02-2024 15:00:00,26.200388,78.147714,NO2,23,63,37
India,Madhya Pradesh,Gwalior,"Phool Bagh, Gwalior - Mondelez Ind. Food",25-02-2024 15:00:00,26.210536,78.171,NO2,4,5,4
India,Madhya Pradesh,Gwalior,"Phool Bagh, Gwalior - Mondelez Ind. Food",25-02-2024 15:00:00,26.210536,78.171,CO,32,36,33
India,Madhya Pradesh,Indore,"Chhoti Gwaltoli, Indore - MPPCB",25-02-2024 15:00:00,22.4310,75.5213,PM10,76,252,121
India,Madhya Pradesh,Indore,"Chhoti Gwaltoli, Indore - MPPCB",25-02-2024 15:00:00,22.4310,75.5213,NH3,1,4,3
India,Madhya Pradesh,Indore,"Chhoti Gwaltoli, Indore - MPPCB",25-02-2024 15:00:00,22.4310,75.5213,CO,44,124,53
India,Madhya Pradesh,Indore,"Maguda Nagar, Indore - IMC",25-02-2024 15:00:00,22.7524,75.8872,NO2,NA,NA,NA
India,Madhya Pradesh,Indore,"Maguda Nagar, Indore - IMC",25-02-2024 15:00:00,22.7524,75.8872,OZONE,NA,NA,NA
India,Madhya Pradesh,Indore,"Residency Area, Indore - IMC",25-02-2024 15:00:00,22.7084,75.8815,PM2.5,33,235,74
India,Madhya Pradesh,Jabalpur,"Govindh Bhavan Colony, Jabalpur - JMC",25-02-2024 15:00:00,23.163174,79.973061,PM10,32,63,46
India,Madhya Pradesh,Jabalpur,"Govindh Bhavan Colony, Jabalpur - JMC",25-02-2024 15:00:00,23.163174,79.973061,OZONE,33,131,93
India,Madhya Pradesh,Jabalpur,"Marhatal, Jabalpur - MPPCB",25-02-2024 15:00:00,23.168606,79.932247,PM10,66,114,94
India,Madhya Pradesh,Jabalpur,"Marhatal, Jabalpur - MPPCB",25-02-2024 15:00:00,23.168606,79.932247,NH3,3,4,3
India,Madhya Pradesh,Jabalpur,"Suhagi, Jabalpur - JMC",25-02-2024 15:00:00,23.218135,79.957770,NO2,43,48,46
India,Madhya Pradesh,Katni,"Gole Bazar, Katni - MPPCB",25-02-2024 15:00:00,23.50016,80.23284,SO2,17,56,30
India,Madhya Pradesh,Katni,"Gole Bazar, Katni - MPPCB",25-02-2024 15:00:00,23.50016,80.23284,CO,18,59,42
India,Madhya Pradesh,Katni,"Gole Bazar, Katni - MPPCB",25-02-2024 15:00:00,23.50016,80.23284,OZONE,42,102,68
India,Madhya Pradesh,Mandideep,"Sector-D Industrial Area, Mandideep - MPPCB",25-02-2024 15:00:00,23.108440,77.511428,PM10,62,194,102
India,Madhya Pradesh,Mandideep,"Sector-D Industrial Area, Mandideep - MPPCB",25-02-2024 15:00:00,23.108440,77.511428,NH3,8,12,11
India,Madhya Pradesh,Pithampur,"Sector-2 Industrial Area, Pithampur - MPPCB",25-02-2024 15:00:00,22.624758,75.675238,PM10,75,225,126
India,Madhya Pradesh,Pithampur,"Sector-2 Industrial Area, Pithampur - MPPCB",25-02-2024 15:00:00,22.624758,75.675238,NH3,5,8,7
India,Madhya Pradesh,Pithampur,"Sector-2 Industrial Area, Pithampur - MPPCB",25-02-2024 15:00:00,22.624758,75.675238,CO,34,75,69
India,Madhya Pradesh,Sagar,"Civil Lines, Sagar - MPPCB",25-02-2024 15:00:00,23.838586,78.759431,CO,12,22,13
India,Madhya Pradesh,Sagar,"Civil Lines, Sagar - MPPCB",25-02-2024 15:00:00,23.838586,78.759431,OZONE,46,54,51
India,Madhya Pradesh,Sagar,"Deen Dayal Nagar, Sagar - MPPCB",25-02-2024 15:00:00,23.8640158,78.80289321,PM2.5,10,30,18
India,Madhya Pradesh,Singrauli,"Suryakiran Bhawan NCL, Singrauli - MPPCB",25-02-2024 15:00:00,24.108970,82.645580,PM10,60,230,148
India,Madhya Pradesh,Singrauli,"Suryakiran Bhawan NCL, Singrauli - MPPCB",25-02-2024 15:00:00,24.108970,82.645580,NH3,3,4,3
India,Madhya Pradesh,Ujjain,"Mahakaleshwar Temple, Ujjain - MPPCB",25-02-2024 15:00:00,23.182719 ,75.768218 ,PM2.5,23,207,58
India,Madhya Pradesh,Ujjain,"Mahakaleshwar Temple, Ujjain - MPPCB",25-02-2024 15:00:00,23.182719 ,75.768218 ,PM10,49,134,75
India,Madhya Pradesh,Ujjain,"Mahakaleshwar Temple, Ujjain - MPPCB",25-02-2024 15:00:00,23.182719 ,75.768218 ,NH3,4,6,4
India,Maharashtra,Ahmednagar,"Tarakpur, Ahmednagar - MPCB",25-02-2024 15:00:00,19.10122,74.73339,PM10,61,189,105
India,Maharashtra,Ahmednagar,"Tarakpur, Ahmednagar - MPCB",25-02-2024 15:00:00,19.10122,74.73339,CO,12,92,36
India,Maharashtra,Ahmednagar,"Tarakpur, Ahmednagar - MPCB",25-02-2024 15:00:00,19.10122,74.73339,OZONE,26,191,78
India,Maharashtra,Akola,"Ramdaspeth, Akola - MPCB",25-02-2024 15:00:00,20.719516,77.000253,NH3,5,13,8
India,Maharashtra,Amravati,"Shri Shivaji Science College, Amaravati - MPCB",25-02-2024 15:00:00,20.939198,77.765701,OZONE,32,108,76
India,Maharashtra,Aurangabad,"Rachnakar Colony, Aurangabad - MPCB",25-02-2024 15:00:00,19.863756,75.321188,PM10,71,153,112
India,Maharashtra,Aurangabad,"Rachnakar Colony, Aurangabad - MPCB",25-02-2024 15:00:00,19.863756,75.321188,NH3,2,2,2
India,Maharashtra,Belapur,"CBD Belapur, Belapur - MPCB",25-02-2024 15:00:00,19.0243902,73.0406721,PM2.5,21,306,86
India,Maharashtra,Belapur,"CBD Belapur, Belapur - MPCB",25-02-2024 15:00:00,19.0243902,73.0406721,SO2,4,11,6
India,Maharashtra,Boisar,"Khaira, Boisar - MPCB",25-02-2024 15:00:00,19.786089,72.757971,NO2,NA,NA,NA
India,Maharashtra,Boisar,"Khaira, Boisar - MPCB",25-02-2024 15:00:00,19.786089,72.757971,SO2,NA,NA,NA
India,Maharashtra,Chandrapur,"Chauhan Colony, Chandrapur - MPCB",25-02-2024 15:00:00,19.962900,79.298714,PM10,NA,NA,NA
India,Maharashtra,Chandrapur,"MIDC Khutala, Chandrapur - MPCB",25-02-2024 15:00:00,19.9775302,79.2337086,SO2,NA,NA,NA
India,Maharashtra,Chandrapur,"MIDC Khutala, Chandrapur - MPCB",25-02-2024 15:00:00,19.9775302,79.2337086,CO,26,80,34
India,Maharashtra,Dhule,"Deopur, Dhule - MPCB",25-02-2024 15:00:00,20.918946,74.776388,NH3,1,12,2
India,Maharashtra,Dhule,"Deopur, Dhule - MPCB",25-02-2024 15:00:00,20.918946,74.776388,CO,10,37,18
India,Maharashtra,Dhule,"Deopur, Dhule - MPCB",25-02-2024 15:00:00,20.918946,74.776388,OZONE,17,70,44
India,Maharashtra,Jalgaon,"Prabhat Colony, Jalgaon - MPCB",25-02-2024 15:00:00,21.001264,75.565602,CO,8,16,10
India,Maharashtra,Jalna,"Old MIDC, Jalna - MPCB",25-02-2024 15:00:00,19.854616,75.905894,SO2,8,13,10
India,Maharashtra,Jalna,"Old MIDC, Jalna - MPCB",25-02-2024 15:00:00,19.854616,75.905894,CO,24,36,25
India,Maharashtra,Kalyan,"Khadakpada, Kalyan - MPCB",25-02-2024 15:00:00,19.25292,73.142019,PM2.5,17,83,42
India,Maharashtra,Kolhapur,"Sinchan Bhavan, Kolhapur - MPCB",25-02-2024 15:00:00,16.7143745,74.2426398,PM10,73,144,97
India,Maharashtra,Kolhapur,"Sinchan Bhavan, Kolhapur - MPCB",25-02-2024 15:00:00,16.7143745,74.2426398,SO2,1,11,4
India,Maharashtra,Malegaon,"Mahesh Nagar, Malegaon - MPCB",25-02-2024 15:00:00,20.555712,74.529236,CO,49,51,50
India,Maharashtra,Mira-Bhayandar,"Bhayandar West, Mira-Bhayandar - MPCB",25-02-2024 15:00:00,19.296481,72.840923,NH3,3,14,4
India,Maharashtra,Mumbai,"Bandra Kurla Complex, Mumbai - MPCB",25-02-2024 15:00:00,19.065931,72.862131,PM2.5,80,299,179
India,Maharashtra,Mumbai,"Byculla, Mumbai - BMC",25-02-2024 15:00:00,18.9767,72.8380,PM10,66,111,88
India,Maharashtra,Mumbai,"Byculla, Mumbai - BMC",25-02-2024 15:00:00,18.9767,72.8380,CO,16,71,41
India,Maharashtra,Mumbai,"Chhatrapati Shivaji Intl. Airport (T2), Mumbai - MPCB",25-02-2024 15:00:00,19.10078,72.87462,NO2,5,64,41
India,Maharashtra,Mumbai,"Chhatrapati Shivaji Intl. Airport (T2), Mumbai - MPCB",25-02-2024 15:00:00,19.10078,72.87462,NH3,1,5,3
India,Maharashtra,Mumbai,"Colaba, Mumbai - MPCB",25-02-2024 15:00:00,18.910000,72.820000,SO2,6,9,8
India,Maharashtra,Mumbai,"Ghatkopar, Mumbai - BMC",25-02-2024 15:00:00,19.083694,72.920967,PM10,85,162,118
India,Maharashtra,Mumbai,"Kandivali East, Mumbai - MPCB",25-02-2024 15:00:00,19.205800,72.868200,SO2,68,77,71
India,Maharashtra,Mumbai,"Kandivali West, Mumbai - BMC",25-02-2024 15:00:00,19.215859,72.831718,CO,11,28,18
India,Maharashtra,Mumbai,"Khindipada-Bhandup West, Mumbai - IITM",25-02-2024 15:00:00,19.1653323,72.922099,PM2.5,35,132,74
India,Maharashtra,Mumbai,"Khindipada-Bhandup West, Mumbai - IITM",25-02-2024 15:00:00,19.1653323,72.922099,NH3,2,8,5
India,Maharashtra,Mumbai,"Khindipada-Bhandup West, Mumbai - IITM",25-02-2024 15:00:00,19.1653323,72.922099,SO2,1,5,2
India,Maharashtra,Mumbai,"Mindspace-Malad West, Mumbai - MPCB",25-02-2024 15:00:00,19.1878657,72.8304069,PM10,82,113,98
India,Maharashtra,Mumbai,"Mulund West, Mumbai - MPCB",25-02-2024 15:00:00,19.1750,72.9419,PM2.5,17,39,26
India,Maharashtra,Mumbai,"Mulund West, Mumbai - MPCB",25-02-2024 15:00:00,19.1750,72.9419,SO2,15,15,15
India,Maharashtra,Mumbai,"Mulund West, Mumbai - MPCB",25-02-2024 15:00:00,19.1750,72.9419,CO,28,28,28
India,Maharashtra,Mumbai,"Mulund West, Mumbai - MPCB",25-02-2024 15:00:00,19.1750,72.9419,OZONE,7,7,7
India,Maharashtra,Mumbai,"Navy Nagar-Colaba, Mumbai - IITM",25-02-2024 15:00:00,18.897756,72.813320,PM10,102,164,126
India,Maharashtra,Mumbai,"Sewri, Mumbai - BMC",25-02-2024 15:00:00,19.000084,72.856730,CO,12,82,38
India,Maharashtra,Mumbai,"Sion, Mumbai - MPCB",25-02-2024 15:00:00,19.047000,72.874600,CO,8,87,46
India,Maharashtra,Mumbai,"Vasai West, Mumbai - MPCB",25-02-2024 15:00:00,19.383200,72.820400,CO,25,40,26
India,Maharashtra,Mumbai,"Vile Parle West, Mumbai - MPCB",25-02-2024 15:00:00,19.10861,72.83622,PM2.5,22,74,47
India,Maharashtra,Mumbai,"Worli, Mumbai - MPCB",25-02-2024 15:00:00,18.9936162,72.8128113,PM10,64,182,100
India,Maharashtra,Mumbai,"Worli, Mumbai - MPCB",25-02-2024 15:00:00,18.9936162,72.8128113,CO,30,34,32
India,Maharashtra,Mumbai,"Worli, Mumbai - MPCB",25-02-2024 15:00:00,18.9936162,72.8128113,OZONE,6,10,8
India,Maharashtra,Nagpur,"Ambazari, Nagpur - MPCB",25-02-2024 15:00:00,21.121801,79.04952,CO,10,104,19
India,Maharashtra,Nagpur,"Mahal, Nagpur - MPCB",25-02-2024 15:00:00,21.14472,79.107595,PM10,100,178,125
India,Maharashtra,Nagpur,"Ram Nagar, Nagpur - MPCB",25-02-2024 15:00:00,21.143383,79.048912,NH3,4,7,6
India,Maharashtra,Nagpur,"Ram Nagar, Nagpur - MPCB",25-02-2024 15:00:00,21.143383,79.048912,SO2,21,104,50
India,Maharashtra,Nashik,"Gangapur Road, Nashik - MPCB",25-02-2024 15:00:00,20.0073285,73.7762427,OZONE,2,68,39
India,Maharashtra,Nashik,"MIDC Ambad, Nashik - MPCB",25-02-2024 15:00:00,19.950220,73.731480,PM10,39,80,56
India,Maharashtra,Nashik,"MIDC Ambad, Nashik - MPCB",25-02-2024 15:00:00,19.950220,73.731480,NO2,9,93,27
India,Maharashtra,Nashik,"MIDC Ambad, Nashik - MPCB",25-02-2024 15:00:00,19.950220,73.731480,NH3,2,2,2
India,Maharashtra,Nashik,"Pandav Nagari, Nashik - MPCB",25-02-2024 15:00:00,19.9591346,73.7788008,PM10,50,93,68
India,Maharashtra,Nashik,"Pandav Nagari, Nashik - MPCB",25-02-2024 15:00:00,19.9591346,73.7788008,CO,8,54,23
India,Maharashtra,Navi Mumbai,"Kopripada-Vashi, Navi Mumbai - MPCB",25-02-2024 15:00:00,19.090337,73.014232,PM10,73,161,103
India,Maharashtra,Navi Mumbai,"Kopripada-Vashi, Navi Mumbai - MPCB",25-02-2024 15:00:00,19.090337,73.014232,OZONE,12,99,66
India,Maharashtra,Navi Mumbai,"Nerul, Navi Mumbai - MPCB",25-02-2024 15:00:00,19.008751,73.016620,PM10,91,308,144
India,Maharashtra,Navi Mumbai,"Nerul, Navi Mumbai - MPCB",25-02-2024 15:00:00,19.008751,73.016620,OZONE,33,43,39
India,Maharashtra,Navi Mumbai,"Tondare-Taloja, Navi Mumbai - MPCB",25-02-2024 15:00:00,19.0630,73.1209,PM2.5,50,159,86
India,Maharashtra,Navi Mumbai,"Tondare-Taloja, Navi Mumbai - MPCB",25-02-2024 15:00:00,19.0630,73.1209,NO2,19,118,65
India,Maharashtra,Parbhani,"Masoom Colony, Parbhani - MPCB",25-02-2024 15:00:00,19.265594,76.761463,PM2.5,59,86,74
India,Maharashtra,Pimpri-Chinchwad,"Park Street Wakad, Pimpri Chinchwad - MPCB",25-02-2024 15:00:00,18.59051,73.77946,PM10,116,238,151
India,Maharashtra,Pimpri-Chinchwad,"Thergaon, Pimpri Chinchwad - MPCB",25-02-2024 15:00:00,18.616318,73.765797,PM10,NA,NA,NA
India,Maharashtra,Pune,"Karve Road, Pune - MPCB",25-02-2024 15:00:00,18.5011743,73.8165527,SO2,2,69,21
India,Maharashtra,Pune,"Karve Road, Pune - MPCB",25-02-2024 15:00:00,18.5011743,73.8165527,OZONE,1,19,4
India,Maharashtra,Pune,"Mhada Colony, Pune - IITM",25-02-2024 15:00:00,18.573040,73.927715,OZONE,10,34,23
India,Maharashtra,Pune,"Revenue Colony-Shivajinagar, Pune - IITM",25-02-2024 15:00:00,18.530085,73.849598,PM2.5,59,197,102
India,Maharashtra,Pune,"Transport Nagar-Nigdi, Pune - IITM",25-02-2024 15:00:00,18.664282,73.763966,PM2.5,27,220,73
India,Maharashtra,Solapur,"Dnyaneshwar Nagar, Solapur - MPCB",25-02-2024 15:00:00,17.6336264,75.9132495,OZONE,10,118,78
India,Maharashtra,Solapur,"Ratandeep Housing Society, Solapur - MPCB",25-02-2024 15:00:00,17.65439,75.90649,PM10,80,172,117
India,Maharashtra,Solapur,"Ratandeep Housing Society, Solapur - MPCB",25-02-2024 15:00:00,17.65439,75.90649,NH3,1,8,3
India,Maharashtra,Solapur,"Ratandeep Housing Society, Solapur - MPCB",25-02-2024 15:00:00,17.65439,75.90649,CO,11,123,26
India,Maharashtra,Thane,"Kasarvadavali, Thane - MPCB",25-02-2024 15:00:00,19.26777,72.97182,SO2,7,42,15
India,Maharashtra,Thane,"Upvan Fort, Thane - MPCB",25-02-2024 15:00:00,19.222279,72.957979,NH3,10,15,12
India,Maharashtra,Thane,"Upvan Fort, Thane - MPCB",25-02-2024 15:00:00,19.222279,72.957979,CO,16,51,29
India,Maharashtra,Thane,"Upvan Fort, Thane - MPCB",25-02-2024 15:00:00,19.222279,72.957979,OZONE,27,154,81
India,Maharashtra,Ulhasnagar,"Sidhi Vinayak Nagar, Ulhasnagar - MPCB",25-02-2024 15:00:00,19.235581,73.159121,NH3,1,1,1
India,Maharashtra,Virar,"Bolinj, Virar - MPCB",25-02-2024 15:00:00,19.4458210,72.7988231,PM2.5,27,49,36
India,Maharashtra,Virar,"Bolinj, Virar - MPCB",25-02-2024 15:00:00,19.4458210,72.7988231,PM10,31,46,38
India,Maharashtra,Virar,"Bolinj, Virar - MPCB",25-02-2024 15:00:00,19.4458210,72.7988231,OZONE,56,302,88
India,Manipur,Imphal,"DM College of Science, Imphal - Manipur PCB",25-02-2024 15:00:00,24.8207389,93.9423085,NH3,2,2,2
India,Manipur,Imphal,"Manipur University, Imphal - Manipur PCB",25-02-2024 15:00:00,24.7524239,93.9286218,SO2,66,69,68
India,Manipur,Imphal,"Manipur University, Imphal - Manipur PCB",25-02-2024 15:00:00,24.7524239,93.9286218,OZONE,1,30,11
India,Meghalaya,Shillong,"Lumpyngngad, Shillong - Meghalaya PCB",25-02-2024 15:00:00,25.5586,91.8985,NO2,5,6,6
India,Meghalaya,Shillong,"Lumpyngngad, Shillong - Meghalaya PCB",25-02-2024 15:00:00,25.5586,91.8985,CO,12,32,14
India,Mizoram,Aizawl,"Sikulpuikawn, Aizawl - Mizoram PCB",25-02-2024 15:00:00,23.7176342,92.7192841,PM10,46,101,66
India,Nagaland,Kohima,"PWD Juction, Kohima - NPCB",25-02-2024 15:00:00,25.6635413,94.0989878,PM10,62,169,100
India,Nagaland,Kohima,"PWD Juction, Kohima - NPCB",25-02-2024 15:00:00,25.6635413,94.0989878,SO2,27,30,27
India,Odisha,Angul,"Hakimapada, Angul - OSPCB",25-02-2024 15:00:00,20.832874,85.104082,NO2,9,37,21
India,Odisha,Angul,"Hakimapada, Angul - OSPCB",25-02-2024 15:00:00,20.832874,85.104082,OZONE,44,146,67
India,Odisha,Balasore,"Kalidaspur, Balasore - OSPCB",25-02-2024 15:00:00,21.51161,86.89088,SO2,19,42,30
India,Odisha,Balasore,"Kalidaspur, Balasore - OSPCB",25-02-2024 15:00:00,21.51161,86.89088,CO,66,103,82
India,Odisha,Bhubaneswar,"Patia, Bhubaneswar - OSPCB",25-02-2024 15:00:00,20.34652,85.81630,PM10,94,149,126
India,Odisha,Bhubaneswar,"Patia, Bhubaneswar - OSPCB",25-02-2024 15:00:00,20.34652,85.81630,OZONE,44,108,76
India,Odisha,Bileipada,"Tata Township, Bileipada - OSPCB",25-02-2024 15:00:00,22.06156703,85.47409613,NH3,11,11,11
India,Odisha,Brajrajnagar,"GM Office, Brajrajnagar - OSPCB",25-02-2024 15:00:00,21.8004996,83.8396977,NO2,20,23,21
India,Odisha,Brajrajnagar,"GM Office, Brajrajnagar - OSPCB",25-02-2024 15:00:00,21.8004996,83.8396977,SO2,14,15,14
India,Odisha,Byasanagar,"Ferro Chrome Colony, Byasanagar - OSPCB",25-02-2024 15:00:00,20.94185,86.11510,CO,40,108,66
India,Odisha,Byasanagar,"Ferro Chrome Colony, Byasanagar - OSPCB",25-02-2024 15:00:00,20.94185,86.11510,OZONE,62,123,95
India,Odisha,Cuttack,"CDA Area, Cuttack - OSPCB",25-02-2024 15:00:00,20.48891     ,85.84768     ,PM10,97,158,124
India,Odisha,Cuttack,"CDA Area, Cuttack - OSPCB",25-02-2024 15:00:00,20.48891     ,85.84768     ,NO2,12,28,17
India,Odisha,Cuttack,"CDA Area, Cuttack - OSPCB",25-02-2024 15:00:00,20.48891     ,85.84768     ,CO,30,48,44
India,Odisha,Rairangpur,"Divisional Forest Office, Rairangpur - OSPCB",25-02-2024 15:00:00,22.265816,86.174829,CO,14,33,18
India,Odisha,Rairangpur,"Divisional Forest Office, Rairangpur - OSPCB",25-02-2024 15:00:00,22.265816,86.174829,OZONE,17,47,17
India,Odisha,Rourkela,"Fertilizer Township, Rourkela - OSPCB",25-02-2024 15:00:00,22.18972222,84.86277778,PM10,87,132,113
India,Odisha,Rourkela,"Fertilizer Township, Rourkela - OSPCB",25-02-2024 15:00:00,22.18972222,84.86277778,NO2,11,23,16
India,Odisha,Rourkela,"Sector-2, Rourkela - OSPCB",25-02-2024 15:00:00,22.24500000,84.88111111,PM2.5,NA,NA,NA
India,Odisha,Talcher,"Talcher Coalfields,Talcher - OSPCB",25-02-2024 15:00:00,20.9360711,85.1707021,OZONE,1,11,7
India,Odisha,Tensa,"Barsua Iron Ore Mines, Tensa - OSPCB",25-02-2024 15:00:00,21.869985,85.167016,OZONE,6,28,12
India,Puducherry,Puducherry,"Jawahar Nagar, Puducherry - PPCC",25-02-2024 15:00:00,11.9309,79.8027,PM2.5,25,46,33
India,Puducherry,Puducherry,"Jawahar Nagar, Puducherry - PPCC",25-02-2024 15:00:00,11.9309,79.8027,PM10,25,76,38
India,Puducherry,Puducherry,"Jawahar Nagar, Puducherry - PPCC",25-02-2024 15:00:00,11.9309,79.8027,SO2,4,10,6
India,Puducherry,Puducherry,"Jawahar Nagar, Puducherry - PPCC",25-02-2024 15:00:00,11.9309,79.8027,CO,11,46,23
India,Punjab,Bathinda,"Hardev Nagar, Bathinda - PPCB",25-02-2024 15:00:00,30.233011,74.907758,CO,6,92,37
India,Punjab,Jalandhar,"Civil Line, Jalandhar - PPCB",25-02-2024 15:00:00,31.321907,75.578914,PM10,58,167,105
India,Punjab,Jalandhar,"Civil Line, Jalandhar - PPCB",25-02-2024 15:00:00,31.321907,75.578914,SO2,3,17,6
India,Punjab,Jalandhar,"Civil Line, Jalandhar - PPCB",25-02-2024 15:00:00,31.321907,75.578914,OZONE,31,62,51
India,Punjab,Khanna,"Kalal Majra, Khanna - PPCB",25-02-2024 15:00:00,30.736056 ,76.209694,NO2,33,34,34
India,Punjab,Khanna,"Kalal Majra, Khanna - PPCB",25-02-2024 15:00:00,30.736056 ,76.209694,NH3,16,16,16
India,Punjab,Ludhiana,"Punjab Agricultural University, Ludhiana - PPCB",25-02-2024 15:00:00,30.9028,75.8086,NO2,14,22,17
India,Punjab,Mandi Gobindgarh,"RIMT University, Mandi Gobindgarh - PPCB",25-02-2024 15:00:00,30.649961,76.331442,CO,13,32,21
India,Punjab,Rupnagar,"Ratanpura, Rupnagar - Ambuja Cements",25-02-2024 15:00:00,31.0325454,76.5623046,PM10,27,358,139
India,Punjab,Rupnagar,"Ratanpura, Rupnagar - Ambuja Cements",25-02-2024 15:00:00,31.0325454,76.5623046,CO,22,50,33
India,Rajasthan,Ajmer,"Civil Lines,  Ajmer - RSPCB",25-02-2024 15:00:00,26.470859,74.646594,PM2.5,22,139,80
India,Rajasthan,Ajmer,"Civil Lines,  Ajmer - RSPCB",25-02-2024 15:00:00,26.470859,74.646594,OZONE,8,50,37
India,Rajasthan,Alwar,"Moti Doongri, Alwar - RSPCB",25-02-2024 15:00:00,27.554793,76.611536,PM10,47,102,72
India,Rajasthan,Alwar,"Moti Doongri, Alwar - RSPCB",25-02-2024 15:00:00,27.554793,76.611536,CO,14,46,31
India,Rajasthan,Banswara,"Rati Talai, Banswara - RSPCB",25-02-2024 15:00:00,23.555190,74.440010,CO,14,99,21
India,Rajasthan,Banswara,"Rati Talai, Banswara - RSPCB",25-02-2024 15:00:00,23.555190,74.440010,OZONE,5,97,62
India,Rajasthan,Baran,"Bamboliya, Baran - RSPCB",25-02-2024 15:00:00,25.106006,76.469948,NH3,3,6,4
India,Rajasthan,Baran,"Bamboliya, Baran - RSPCB",25-02-2024 15:00:00,25.106006,76.469948,SO2,7,15,11
India,Rajasthan,Barmer,"Railway Colony, Barmer - RSPCB",25-02-2024 15:00:00,25.747299,71.393989,OZONE,49,111,93
India,Rajasthan,Bharatpur,"Krishna Nagar, Bharatpur - RSPCB",25-02-2024 15:00:00,27.215415,77.50873,NO2,22,70,44
India,Rajasthan,Bhilwara,"Pratap Nagar, Bhilwara - RSPCB",25-02-2024 15:00:00,25.339605,74.618883,PM2.5,2,186,66
India,Rajasthan,Bhilwara,"Pratap Nagar, Bhilwara - RSPCB",25-02-2024 15:00:00,25.339605,74.618883,PM10,18,145,82
India,Rajasthan,Bhilwara,"Pratap Nagar, Bhilwara - RSPCB",25-02-2024 15:00:00,25.339605,74.618883,SO2,8,27,15
India,Rajasthan,Bhiwadi,"RIICO Ind. Area III, Bhiwadi - RSPCB",25-02-2024 15:00:00,28.194909,76.862296,PM2.5,57,216,121
India,Rajasthan,Bhiwadi,"RIICO Ind. Area III, Bhiwadi - RSPCB",25-02-2024 15:00:00,28.194909,76.862296,NH3,6,13,9
India,Rajasthan,Bhiwadi,"RIICO Ind. Area III, Bhiwadi - RSPCB",25-02-2024 15:00:00,28.194909,76.862296,SO2,4,24,11
India,Rajasthan,Bhiwadi,"RIICO Ind. Area III, Bhiwadi - RSPCB",25-02-2024 15:00:00,28.194909,76.862296,CO,2,110,58
India,Rajasthan,Bundi,"New Colony, Bundi - RSPCB",25-02-2024 15:00:00,25.435774,75.644272,CO,14,104,20
India,Rajasthan,Bundi,"New Colony, Bundi - RSPCB",25-02-2024 15:00:00,25.435774,75.644272,OZONE,9,135,99
India,Rajasthan,Chittorgarh,"Shastri Nagar, Chittorgarh - RSPCB",25-02-2024 15:00:00,24.892047,74.623527,NH3,3,9,6
India,Rajasthan,Chittorgarh,"Shastri Nagar, Chittorgarh - RSPCB",25-02-2024 15:00:00,24.892047,74.623527,SO2,6,26,11
India,Rajasthan,Churu,"Subash Chowk, Churu - RSPCB",25-02-2024 15:00:00,28.296139,74.961696,CO,13,52,37
India,Rajasthan,Dungarpur,"Bhoiwada, Dungarpur - RSPCB",25-02-2024 15:00:00,23.837789,73.714926,SO2,6,14,8
India,Rajasthan,Hanumangarh,"Housing Board, Hanumangarh - RSPCB",25-02-2024 15:00:00,29.610750,74.283608,CO,23,50,34
India,Rajasthan,Jaipur,"Adarsh Nagar, Jaipur - RSPCB",25-02-2024 15:00:00,26.902909,75.836858,NO2,26,69,34
India,Rajasthan,Jaipur,"Adarsh Nagar, Jaipur - RSPCB",25-02-2024 15:00:00,26.902909,75.836858,NH3,3,7,4
India,Rajasthan,Jaipur,"Adarsh Nagar, Jaipur - RSPCB",25-02-2024 15:00:00,26.902909,75.836858,CO,14,50,24
India,Rajasthan,Jaipur,"Mansarovar Sector-12, Jaipur - RSPCB",25-02-2024 15:00:00,26.843698,75.766894,NO2,24,37,29
India,Rajasthan,Jaipur,"Mansarovar Sector-12, Jaipur - RSPCB",25-02-2024 15:00:00,26.843698,75.766894,SO2,2,4,3
India,Rajasthan,Jaipur,"Police Commissionerate, Jaipur - RSPCB",25-02-2024 15:00:00,26.9164092,75.7994901,PM2.5,44,77,60
India,Rajasthan,Jaipur,"Police Commissionerate, Jaipur - RSPCB",25-02-2024 15:00:00,26.9164092,75.7994901,PM10,69,138,100
India,Rajasthan,Jaipur,"Police Commissionerate, Jaipur - RSPCB",25-02-2024 15:00:00,26.9164092,75.7994901,CO,22,64,30
India,Rajasthan,Jaipur,"Police Commissionerate, Jaipur - RSPCB",25-02-2024 15:00:00,26.9164092,75.7994901,OZONE,35,85,72
India,Rajasthan,Jaipur,"RIICO Sitapura, Jaipur - RSPCB",25-02-2024 15:00:00,26.786682,75.827928,PM2.5,42,283,126
India,Rajasthan,Jaipur,"RIICO Sitapura, Jaipur - RSPCB",25-02-2024 15:00:00,26.786682,75.827928,SO2,13,26,19
India,Rajasthan,Jaipur,"Sector-2 Murlipura, Jaipur - RSPCB",25-02-2024 15:00:00,26.960669,75.771817,NH3,2,16,5
India,Rajasthan,Jaipur,"Shastri Nagar, Jaipur - RSPCB",25-02-2024 15:00:00,26.9502929,75.730943,PM10,68,126,99
India,Rajasthan,Jaipur,"Shastri Nagar, Jaipur - RSPCB",25-02-2024 15:00:00,26.9502929,75.730943,CO,4,102,38
India,Rajasthan,Jaipur,"Shastri Nagar, Jaipur - RSPCB",25-02-2024 15:00:00,26.9502929,75.730943,OZONE,32,64,41
India,Rajasthan,Jaisalmer,"Sadar Bazar, Jaisalmer - RSPCB",25-02-2024 15:00:00,26.912329,70.909168,PM2.5,6,152,44
India,Rajasthan,Jaisalmer,"Sadar Bazar, Jaisalmer - RSPCB",25-02-2024 15:00:00,26.912329,70.909168,NO2,3,73,25
India,Rajasthan,Jaisalmer,"Sadar Bazar, Jaisalmer - RSPCB",25-02-2024 15:00:00,26.912329,70.909168,SO2,7,14,8
India,Rajasthan,Jalore,"Mudtra Sili, Jalore - RSPCB",25-02-2024 15:00:00,25.344694,72.626208,PM2.5,15,163,52
India,Rajasthan,Jalore,"Mudtra Sili, Jalore - RSPCB",25-02-2024 15:00:00,25.344694,72.626208,CO,13,104,24
India,Rajasthan,Jhalawar,"Rajlaxmi Nagar, Jhalawar - RSPCB",25-02-2024 15:00:00,24.588397,76.172782,OZONE,43,106,82
India,Rajasthan,Jhunjhunu,"Indra Nagar, Jhunjhunu - RSPCB",25-02-2024 15:00:00,28.108988,75.386577,PM2.5,29,303,113
India,Rajasthan,Jhunjhunu,"Indra Nagar, Jhunjhunu - RSPCB",25-02-2024 15:00:00,28.108988,75.386577,PM10,74,217,144
India,Rajasthan,Jhunjhunu,"Indra Nagar, Jhunjhunu - RSPCB",25-02-2024 15:00:00,28.108988,75.386577,SO2,4,11,7
India,Rajasthan,Jhunjhunu,"Indra Nagar, Jhunjhunu - RSPCB",25-02-2024 15:00:00,28.108988,75.386577,OZONE,14,98,62
India,Rajasthan,Jodhpur,"Collectorate, Jodhpur - RSPCB",25-02-2024 15:00:00,26.268249,73.0193853,PM10,28,252,97
India,Rajasthan,Jodhpur,"Collectorate, Jodhpur - RSPCB",25-02-2024 15:00:00,26.268249,73.0193853,CO,24,88,62
India,Rajasthan,Jodhpur,"Digari Kalan, Jodhpur - RSPCB",25-02-2024 15:00:00,26.295810,73.082283,PM2.5,3,83,33
India,Rajasthan,Jodhpur,"Jhalamand, Jodhpur - RSPCB",25-02-2024 15:00:00,26.215415,73.070156,OZONE,20,96,71
India,Rajasthan,Jodhpur,"Mandor, Jodhpur - RSPCB",25-02-2024 15:00:00,26.358805,73.047444,NO2,21,42,30
India,Rajasthan,Jodhpur,"Samrat Ashok Udhyan, Jodhpur - RSPCB",25-02-2024 15:00:00,26.253384,72.976571,PM2.5,3,82,39
India,Rajasthan,Jodhpur,"Samrat Ashok Udhyan, Jodhpur - RSPCB",25-02-2024 15:00:00,26.253384,72.976571,PM10,36,150,81
India,Rajasthan,Jodhpur,"Samrat Ashok Udhyan, Jodhpur - RSPCB",25-02-2024 15:00:00,26.253384,72.976571,NO2,5,65,26
India,Rajasthan,Jodhpur,"Samrat Ashok Udhyan, Jodhpur - RSPCB",25-02-2024 15:00:00,26.253384,72.976571,SO2,1,10,4
India,Rajasthan,Karauli,"Satyawati Vihar, Karauli - RSPCB",25-02-2024 15:00:00,26.506177,77.025989,PM10,59,135,83
India,Rajasthan,Karauli,"Satyawati Vihar, Karauli - RSPCB",25-02-2024 15:00:00,26.506177,77.025989,OZONE,30,68,47
India,Rajasthan,Kota,"Dhanmandi, Kota - RSPCB",25-02-2024 15:00:00,25.164090,75.858137,NH3,3,5,4
India,Rajasthan,Kota,"Dhanmandi, Kota - RSPCB",25-02-2024 15:00:00,25.164090,75.858137,SO2,8,23,13
India,Rajasthan,Kota,"Shrinath Puram, Kota - RSPCB",25-02-2024 15:00:00,25.14389,75.821256,PM10,82,176,121
India,Rajasthan,Nagaur,"Karni Colony, Nagaur - RSPCB",25-02-2024 15:00:00,27.213494,73.734444,PM2.5,19,85,45
India,Rajasthan,Nagaur,"Karni Colony, Nagaur - RSPCB",25-02-2024 15:00:00,27.213494,73.734444,PM10,66,181,116
India,Rajasthan,Nagaur,"Karni Colony, Nagaur - RSPCB",25-02-2024 15:00:00,27.213494,73.734444,NH3,6,8,7
India,Rajasthan,Nagaur,"Karni Colony, Nagaur - RSPCB",25-02-2024 15:00:00,27.213494,73.734444,CO,10,32,26
India,Rajasthan,Pali,"Indira Colony Vistar, Pali - RSPCB",25-02-2024 15:00:00,25.771061, 73.340227,NO2,19,69,40
India,Rajasthan,Pali,"Indira Colony Vistar, Pali - RSPCB",25-02-2024 15:00:00,25.771061, 73.340227,SO2,8,13,12
India,Rajasthan,Pratapgarh,"Pragati Nagar, Pratapgarh - RSPCB",25-02-2024 15:00:00,24.041198,74.780702,OZONE,60,129,95
India,Rajasthan,Rajsamand,"Dhoinda, Rajsamand - RSPCB",25-02-2024 15:00:00,25.036360,73.883502,PM2.5,NA,NA,NA
India,Rajasthan,Rajsamand,"Dhoinda, Rajsamand - RSPCB",25-02-2024 15:00:00,25.036360,73.883502,SO2,NA,NA,NA
India,Rajasthan,Rajsamand,"Dhoinda, Rajsamand - RSPCB",25-02-2024 15:00:00,25.036360,73.883502,CO,30,70,64
India,Rajasthan,Rajsamand,"Dhoinda, Rajsamand - RSPCB",25-02-2024 15:00:00,25.036360,73.883502,OZONE,36,54,43
India,Rajasthan,Sirohi,"Vedhaynath Colony, Sirohi - RSPCB",25-02-2024 15:00:00,24.885261,72.857549,NO2,6,92,41
India,Rajasthan,Sirohi,"Vedhaynath Colony, Sirohi - RSPCB",25-02-2024 15:00:00,24.885261,72.857549,SO2,8,13,10
India,Rajasthan,Sri Ganganagar,"Old City, Sri Ganganagar - RSPCB",25-02-2024 15:00:00,29.931624,73.864511,PM2.5,53,380,162
India,Rajasthan,Sri Ganganagar,"Old City, Sri Ganganagar - RSPCB",25-02-2024 15:00:00,29.931624,73.864511,PM10,145,462,275
India,Rajasthan,Tonk,"Shastri Nagar, Tonk - RSPCB",25-02-2024 15:00:00,26.159933,75.780517,PM10,68,171,103
India,Rajasthan,Tonk,"Shastri Nagar, Tonk - RSPCB",25-02-2024 15:00:00,26.159933,75.780517,CO,16,54,22
India,Rajasthan,Tonk,"Shastri Nagar, Tonk - RSPCB",25-02-2024 15:00:00,26.159933,75.780517,OZONE,39,95,70
India,Rajasthan,Udaipur,"Ashok Nagar, Udaipur - RSPCB",25-02-2024 15:00:00,24.5886166,73.6321397,NO2,43,114,80
India,Sikkim,Gangtok,"Zero Point GICI, Gangtok - SSPCB",25-02-2024 15:00:00,27.338530,88.614099,OZONE,27,93,66
India,TamilNadu,Chengalpattu,"Crescent University, Chengalpattu - TNPCB",25-02-2024 15:00:00,12.8777316,80.0834807,PM10,29,85,51
India,TamilNadu,Chengalpattu,"Crescent University, Chengalpattu - TNPCB",25-02-2024 15:00:00,12.8777316,80.0834807,OZONE,6,7,6
India,TamilNadu,Chennai,"Alandur Bus Depot, Chennai - CPCB",25-02-2024 15:00:00,12.9099161,80.1076538,NO2,11,83,23
India,TamilNadu,Chennai,"Alandur Bus Depot, Chennai - CPCB",25-02-2024 15:00:00,12.9099161,80.1076538,NH3,7,13,9
India,TamilNadu,Chennai,"Alandur Bus Depot, Chennai - CPCB",25-02-2024 15:00:00,12.9099161,80.1076538,SO2,1,7,3
India,TamilNadu,Chennai,"Gandhi Nagar_Ennore, Chennai - TNPCB",25-02-2024 15:00:00,13.218341,80.32027,PM2.5,NA,NA,NA
India,TamilNadu,Chennai,"Gandhi Nagar_Ennore, Chennai - TNPCB",25-02-2024 15:00:00,13.218341,80.32027,NO2,NA,NA,NA
India,TamilNadu,Chennai,"Gandhi Nagar_Ennore, Chennai - TNPCB",25-02-2024 15:00:00,13.218341,80.32027,SO2,NA,NA,NA
India,TamilNadu,Chennai,"Kodungaiyur, Chennai - TNPCB",25-02-2024 15:00:00,13.1278,80.2642,PM2.5,14,41,25
India,TamilNadu,Chennai,"Kodungaiyur, Chennai - TNPCB",25-02-2024 15:00:00,13.1278,80.2642,SO2,1,10,4
India,TamilNadu,Chennai,"Manali, Chennai - CPCB",25-02-2024 15:00:00,13.164544,80.26285,OZONE,10,16,14
India,TamilNadu,Chennai,"Perungudi, Chennai - TNPCB",25-02-2024 15:00:00,12.9533,80.2357,CO,6,57,25
India,TamilNadu,Chennai,"Royapuram, Chennai - TNPCB",25-02-2024 15:00:00,13.1036,80.2909,NH3,1,1,1
India,TamilNadu,Chennai,"Velachery Res. Area, Chennai - CPCB",25-02-2024 15:00:00,13.0052189,80.2398125,SO2,18,78,29
India,TamilNadu,Coimbatore,"PSG College of Arts and Science, Coimbatore - TNPCB",25-02-2024 15:00:00,11.0328,77.0349,PM2.5,NA,NA,NA
India,TamilNadu,Cuddalore,"Kudikadu, Cuddalore - TNPCB",25-02-2024 15:00:00,11.6829898,79.7532099,PM10,42,114,69
India,TamilNadu,Cuddalore,"Kudikadu, Cuddalore - TNPCB",25-02-2024 15:00:00,11.6829898,79.7532099,NH3,5,5,5
India,TamilNadu,Cuddalore,"Semmandalam, Cuddalore - TNPCB",25-02-2024 15:00:00,11.7637683,79.7499835,NO2,3,12,8
India,TamilNadu,Gummidipoondi,"Anthoni Pillai Nagar, Gummidipoondi - TNPCB",25-02-2024 15:00:00,13.4127,80.1081,PM2.5,38,367,115
India,TamilNadu,Ooty,"Bombay Castel, Ooty - TNPCB",25-02-2024 15:00:00,11.4068288,76.7138973,SO2,13,13,13
India,TamilNadu,Ooty,"Bombay Castel, Ooty - TNPCB",25-02-2024 15:00:00,11.4068288,76.7138973,CO,17,21,21
India,TamilNadu,Palkalaiperur,"Bharathidasan University, Palkalaiperur - TNPCB",25-02-2024 15:00:00,10.681158,78.741746,CO,2,10,7
India,TamilNadu,Palkalaiperur,"Bharathidasan University, Palkalaiperur - TNPCB",25-02-2024 15:00:00,10.681158,78.741746,OZONE,1,2,1
India,TamilNadu,Ramanathapuram,"Chalai Bazaar, Ramanathapuram - TNPCB",25-02-2024 15:00:00,9.36399,78.831977,NH3,1,1,1
India,TamilNadu,Thoothukudi,"Meelavittan, Thoothukudi - TNPCB",25-02-2024 15:00:00,8.816428 ,78.099039,NO2,15,31,19
India,TamilNadu,Thoothukudi,"Meelavittan, Thoothukudi - TNPCB",25-02-2024 15:00:00,8.816428 ,78.099039,CO,6,58,10
India,TamilNadu,Tirupur,"Kumaran College, Tirupur - TNPCB",25-02-2024 15:00:00,11.0973603,77.3228673,SO2,17,18,18
India,TamilNadu,Vellore,"Vasanthapuram, Vellore - TNPCB",25-02-2024 15:00:00,12.909494,79.131861,NO2,NA,NA,NA
India,TamilNadu,Vellore,"Vasanthapuram, Vellore - TNPCB",25-02-2024 15:00:00,12.909494,79.131861,NH3,NA,NA,NA
India,TamilNadu,Virudhunagar,"Collectorate Office, Virudhunagar - TNPCB",25-02-2024 15:00:00,9.559382,77.948828,CO,NA,NA,NA
India,TamilNadu,Virudhunagar,"Collectorate Office, Virudhunagar - TNPCB",25-02-2024 15:00:00,9.559382,77.948828,OZONE,NA,NA,NA
India,Telangana,Hyderabad,"Bollaram Industrial Area, Hyderabad - TSPCB",25-02-2024 15:00:00,17.540891,78.358528,PM10,49,118,81
India,Telangana,Hyderabad,"Bollaram Industrial Area, Hyderabad - TSPCB",25-02-2024 15:00:00,17.540891,78.358528,NO2,15,36,20
India,Telangana,Hyderabad,"Bollaram Industrial Area, Hyderabad - TSPCB",25-02-2024 15:00:00,17.540891,78.358528,NH3,3,6,4
India,Telangana,Hyderabad,"ICRISAT Patancheru, Hyderabad - TSPCB",25-02-2024 15:00:00,17.518400,78.278777,NO2,16,17,16
India,Telangana,Hyderabad,"IITH Kandi, Hyderabad - TSPCB",25-02-2024 15:00:00,17.585705,78.126199,PM10,NA,NA,NA
India,Telangana,Hyderabad,"IITH Kandi, Hyderabad - TSPCB",25-02-2024 15:00:00,17.585705,78.126199,NH3,NA,NA,NA
India,Telangana,Hyderabad,"IITH Kandi, Hyderabad - TSPCB",25-02-2024 15:00:00,17.585705,78.126199,OZONE,32,32,32
India,Telangana,Hyderabad,"Kompally Municipal Office, Hyderabad - TSPCB",25-02-2024 15:00:00,17.544899,78.486949,SO2,NA,NA,NA
India,Telangana,Hyderabad,"New Malakpet, Hyderabad - TSPCB",25-02-2024 15:00:00,17.37206,78.50864,NO2,16,24,20
India,Telangana,Hyderabad,"Ramachandrapuram, Hyderabad - TSPCB",25-02-2024 15:00:00,17.528544,78.286195,PM10,74,90,79
India,Telangana,Hyderabad,"Ramachandrapuram, Hyderabad - TSPCB",25-02-2024 15:00:00,17.528544,78.286195,NO2,8,11,10
India,Telangana,Hyderabad,"Sanathnagar, Hyderabad - TSPCB",25-02-2024 15:00:00,17.4559458,78.4332152,SO2,4,8,6
India,Telangana,Hyderabad,"Somajiguda, Hyderabad - TSPCB",25-02-2024 15:00:00,17.417094,78.457437,PM10,69,81,74
India,Telangana,Hyderabad,"Zoo Park, Hyderabad - TSPCB",25-02-2024 15:00:00,17.349694,78.451437,PM2.5,43,104,65
India,Telangana,Hyderabad,"Zoo Park, Hyderabad - TSPCB",25-02-2024 15:00:00,17.349694,78.451437,NO2,24,36,29
India,Telangana,Hyderabad,"Zoo Park, Hyderabad - TSPCB",25-02-2024 15:00:00,17.349694,78.451437,OZONE,16,26,21
India,Tripura,Agartala,"Bardowali, Agartala - Tripura SPCB",25-02-2024 15:00:00,23.8175497,91.2726974,NH3,3,6,3
India,Uttar_Pradesh,Agra,"Manoharpur, Agra - UPPCB",25-02-2024 15:00:00,27.23711,78.01936,NH3,1,1,1
India,Uttar_Pradesh,Agra,"Manoharpur, Agra - UPPCB",25-02-2024 15:00:00,27.23711,78.01936,OZONE,2,26,11
India,Uttar_Pradesh,Agra,"Rohta, Agra - UPPCB",25-02-2024 15:00:00,27.106972,78.000111,PM2.5,2,94,44
India,Uttar_Pradesh,Agra,"Rohta, Agra - UPPCB",25-02-2024 15:00:00,27.106972,78.000111,CO,2,13,9
India,Uttar_Pradesh,Agra,"Sector-3B Avas Vikas Colony, Agra - UPPCB",25-02-2024 15:00:00,27.19412,77.96237,NO2,12,29,20
India,Uttar_Pradesh,Agra,"Sector-3B Avas Vikas Colony, Agra - UPPCB",25-02-2024 15:00:00,27.19412,77.96237,CO,6,20,10
India,Uttar_Pradesh,Agra,"Shahjahan Garden, Agra - UPPCB",25-02-2024 15:00:00,27.169338,78.03582,PM2.5,NA,NA,NA
India,Uttar_Pradesh,Agra,"Shahjahan Garden, Agra - UPPCB",25-02-2024 15:00:00,27.169338,78.03582,PM10,NA,NA,NA
India,Uttar_Pradesh,Agra,"Shahjahan Garden, Agra - UPPCB",25-02-2024 15:00:00,27.169338,78.03582,NH3,7,9,8
India,Uttar_Pradesh,Agra,"Shastripuram, Agra - UPPCB",25-02-2024 15:00:00,27.19862,77.92066,PM10,NA,NA,NA
India,Uttar_Pradesh,Agra,"Shastripuram, Agra - UPPCB",25-02-2024 15:00:00,27.19862,77.92066,CO,2,17,14
India,Uttar_Pradesh,Agra,"Shastripuram, Agra - UPPCB",25-02-2024 15:00:00,27.19862,77.92066,OZONE,1,11,7
India,Uttar_Pradesh,Baghpat,"Sardar Patel Inter College, Baghpat - UPPCB",25-02-2024 15:00:00,28.964949,77.278761,PM10,43,142,97
India,Uttar_Pradesh,Bareilly,"Civil Lines, Bareilly - UPPCB",25-02-2024 15:00:00,28.359581,79.414455,PM2.5,12,84,45
India,Uttar_Pradesh,Bareilly,"Civil Lines, Bareilly - UPPCB",25-02-2024 15:00:00,28.359581,79.414455,SO2,40,43,41
India,Uttar_Pradesh,Bareilly,"Rajendra Nagar, Bareilly - UPPCB",25-02-2024 15:00:00,28.38910936,79.42963708,PM2.5,16,60,40
India,Uttar_Pradesh,Bareilly,"Rajendra Nagar, Bareilly - UPPCB",25-02-2024 15:00:00,28.38910936,79.42963708,CO,8,60,26
India,Uttar_Pradesh,Bulandshahr,"Yamunapuram, Bulandshahr - UPPCB",25-02-2024 15:00:00,28.406963,77.849831,PM10,42,319,132
India,Uttar_Pradesh,Bulandshahr,"Yamunapuram, Bulandshahr - UPPCB",25-02-2024 15:00:00,28.406963,77.849831,NH3,8,17,14
India,Uttar_Pradesh,Bulandshahr,"Yamunapuram, Bulandshahr - UPPCB",25-02-2024 15:00:00,28.406963,77.849831,SO2,3,81,36
India,Uttar_Pradesh,Bulandshahr,"Yamunapuram, Bulandshahr - UPPCB",25-02-2024 15:00:00,28.406963,77.849831,OZONE,6,132,78
India,Uttar_Pradesh,Firozabad,"Nagla Bhau, Firozabad - UPPCB",25-02-2024 15:00:00,27.168897,78.376960,NO2,17,17,17
India,Uttar_Pradesh,Firozabad,"Vibhab Nagar, Firozabad - UPPCB",25-02-2024 15:00:00,27.1594,78.3953,NH3,2,2,2
India,Uttar_Pradesh,Ghaziabad,"Indirapuram, Ghaziabad - UPPCB",25-02-2024 15:00:00,28.646233,77.358075,PM2.5,17,157,84
India,Uttar_Pradesh,Ghaziabad,"Indirapuram, Ghaziabad - UPPCB",25-02-2024 15:00:00,28.646233,77.358075,NO2,42,97,69
India,Uttar_Pradesh,Ghaziabad,"Indirapuram, Ghaziabad - UPPCB",25-02-2024 15:00:00,28.646233,77.358075,CO,21,90,39
India,Uttar_Pradesh,Ghaziabad,"Sanjay Nagar, Ghaziabad - UPPCB",25-02-2024 15:00:00,28.685382,77.453839,PM2.5,25,267,132
India,Uttar_Pradesh,Ghaziabad,"Vasundhara, Ghaziabad - UPPCB",25-02-2024 15:00:00,28.6603346,77.3572563,NO2,16,158,64
India,Uttar_Pradesh,Greater Noida,"Knowledge Park - III, Greater Noida - UPPCB",25-02-2024 15:00:00,28.47272,77.482000,PM2.5,18,411,246
India,Uttar_Pradesh,Greater Noida,"Knowledge Park - III, Greater Noida - UPPCB",25-02-2024 15:00:00,28.47272,77.482000,OZONE,6,138,68
India,Uttar_Pradesh,Hapur,"Anand Vihar, Hapur - UPPCB",25-02-2024 15:00:00,28.725645,77.749675,CO,22,96,37
India,Uttar_Pradesh,Hapur,"Anand Vihar, Hapur - UPPCB",25-02-2024 15:00:00,28.725645,77.749675,OZONE,9,163,63
India,Uttar_Pradesh,Kanpur,"NSI Kalyanpur, Kanpur - UPPCB",25-02-2024 15:00:00,26.509954,80.249612,PM10,55,120,88
India,Uttar_Pradesh,Kanpur,"NSI Kalyanpur, Kanpur - UPPCB",25-02-2024 15:00:00,26.509954,80.249612,NO2,10,10,10
India,Uttar_Pradesh,Kanpur,"Nehru Nagar, Kanpur - UPPCB",25-02-2024 15:00:00,26.4703136,80.3229863,PM10,25,100,64
India,Uttar_Pradesh,Kanpur,"Nehru Nagar, Kanpur - UPPCB",25-02-2024 15:00:00,26.4703136,80.3229863,NO2,15,61,37
India,Uttar_Pradesh,Khurja,"Kalindi Kunj, Khurja - UPPCB",25-02-2024 15:00:00,28.2348927,77.8683002,PM10,2,74,42
India,Uttar_Pradesh,Khurja,"Kalindi Kunj, Khurja - UPPCB",25-02-2024 15:00:00,28.2348927,77.8683002,NO2,12,29,19
India,Uttar_Pradesh,Lucknow,"B R Ambedkar University, Lucknow - UPPCB",25-02-2024 15:00:00,26.766433,80.927299,NO2,11,12,12
India,Uttar_Pradesh,Lucknow,"B R Ambedkar University, Lucknow - UPPCB",25-02-2024 15:00:00,26.766433,80.927299,SO2,26,30,27
India,Uttar_Pradesh,Lucknow,"B R Ambedkar University, Lucknow - UPPCB",25-02-2024 15:00:00,26.766433,80.927299,CO,24,68,36
India,Uttar_Pradesh,Lucknow,"Gomti Nagar, Lucknow - UPPCB",25-02-2024 15:00:00,26.868120,81.005119,CO,32,39,37
India,Uttar_Pradesh,Lucknow,"Gomti Nagar, Lucknow - UPPCB",25-02-2024 15:00:00,26.868120,81.005119,OZONE,52,71,64
India,Uttar_Pradesh,Lucknow,"Kendriya Vidyalaya, Lucknow - CPCB",25-02-2024 15:00:00,26.906111,80.948222,PM2.5,44,221,132
India,Uttar_Pradesh,Lucknow,"Kendriya Vidyalaya, Lucknow - CPCB",25-02-2024 15:00:00,26.906111,80.948222,OZONE,10,75,50
India,Uttar_Pradesh,Lucknow,"Kukrail Picnic Spot-1, Lucknow - UPPCB",25-02-2024 15:00:00,26.90723,80.98579,PM2.5,19,105,53
India,Uttar_Pradesh,Lucknow,"Kukrail Picnic Spot-1, Lucknow - UPPCB",25-02-2024 15:00:00,26.90723,80.98579,NH3,2,2,2
India,Uttar_Pradesh,Lucknow,"Kukrail Picnic Spot-1, Lucknow - UPPCB",25-02-2024 15:00:00,26.90723,80.98579,OZONE,4,59,40
India,Uttar_Pradesh,Lucknow,"Lalbagh, Lucknow - CPCB",25-02-2024 15:00:00,26.8458805,80.9365541,SO2,1,12,4
India,Uttar_Pradesh,Meerut,"Ganga Nagar, Meerut - UPPCB",25-02-2024 15:00:00,28.999264,77.7590354,NO2,14,89,42
India,Uttar_Pradesh,Meerut,"Jai Bhim Nagar, Meerut - UPPCB",25-02-2024 15:00:00,28.9535882,77.7622941,SO2,11,29,18
India,Uttar_Pradesh,Meerut,"Jai Bhim Nagar, Meerut - UPPCB",25-02-2024 15:00:00,28.9535882,77.7622941,CO,43,100,69
India,Uttar_Pradesh,Meerut,"Pallavpuram Phase 2, Meerut - UPPCB",25-02-2024 15:00:00,29.063510,77.709723,PM10,56,154,110
India,Uttar_Pradesh,Meerut,"Pallavpuram Phase 2, Meerut - UPPCB",25-02-2024 15:00:00,29.063510,77.709723,CO,23,57,44
India,Uttar_Pradesh,Meerut,"Pallavpuram Phase 2, Meerut - UPPCB",25-02-2024 15:00:00,29.063510,77.709723,OZONE,18,118,86
India,Uttar_Pradesh,Moradabad,"Buddhi Vihar, Moradabad - UPPCB",25-02-2024 15:00:00,28.83526,78.74460,PM10,26,150,90
India,Uttar_Pradesh,Moradabad,"Buddhi Vihar, Moradabad - UPPCB",25-02-2024 15:00:00,28.83526,78.74460,OZONE,11,26,19
India,Uttar_Pradesh,Moradabad,"Kashiram Nagar, Moradabad - UPPCB",25-02-2024 15:00:00,28.849399,78.742362,NO2,17,46,30
India,Uttar_Pradesh,Muzaffarnagar,"New Mandi, Muzaffarnagar - UPPCB",25-02-2024 15:00:00,29.4723508,77.7194031,CO,30,92,38
India,Uttar_Pradesh,Noida,"Sector - 125, Noida - UPPCB",25-02-2024 15:00:00,28.5447608,77.3231257,PM10,NA,NA,NA
India,Uttar_Pradesh,Noida,"Sector - 125, Noida - UPPCB",25-02-2024 15:00:00,28.5447608,77.3231257,NH3,NA,NA,NA
India,Uttar_Pradesh,Noida,"Sector - 62, Noida - IMD",25-02-2024 15:00:00,28.6245479,77.3577104,PM2.5,45,258,121
India,Uttar_Pradesh,Noida,"Sector - 62, Noida - IMD",25-02-2024 15:00:00,28.6245479,77.3577104,PM10,95,239,147
India,Uttar_Pradesh,Noida,"Sector - 62, Noida - IMD",25-02-2024 15:00:00,28.6245479,77.3577104,CO,16,28,21
India,Uttar_Pradesh,Noida,"Sector-1, Noida - UPPCB",25-02-2024 15:00:00,28.5898,77.3101,CO,14,100,27
India,Uttar_Pradesh,Noida,"Sector-116, Noida - UPPCB",25-02-2024 15:00:00,28.569230,77.393848,NH3,5,7,6
India,Uttar_Pradesh,Noida,"Sector-116, Noida - UPPCB",25-02-2024 15:00:00,28.569230,77.393848,SO2,22,38,30
India,Uttar_Pradesh,Noida,"Sector-116, Noida - UPPCB",25-02-2024 15:00:00,28.569230,77.393848,CO,8,118,33
India,Uttar_Pradesh,Noida,"Sector-116, Noida - UPPCB",25-02-2024 15:00:00,28.569230,77.393848,OZONE,3,18,9
India,Uttar_Pradesh,Prayagraj,"Jhunsi, Prayagraj - UPPCB",25-02-2024 15:00:00,25.425602,81.917152,NH3,5,5,5
India,Uttar_Pradesh,Prayagraj,"Motilal Nehru NIT, Prayagraj - UPPCB",25-02-2024 15:00:00,25.494,81.863,PM2.5,17,58,39
India,Uttar_Pradesh,Prayagraj,"Motilal Nehru NIT, Prayagraj - UPPCB",25-02-2024 15:00:00,25.494,81.863,PM10,29,144,71
India,Uttar_Pradesh,Prayagraj,"Motilal Nehru NIT, Prayagraj - UPPCB",25-02-2024 15:00:00,25.494,81.863,NH3,6,7,7
India,Uttar_Pradesh,Varanasi,"Ardhali Bazar, Varanasi - UPPCB",25-02-2024 15:00:00,25.3505986,82.9083074,CO,2,20,12
India,Uttar_Pradesh,Varanasi,"Bhelupur, Varanasi - UPPCB",25-02-2024 15:00:00,25.301778,82.996789,OZONE,1,51,34
India,Uttar_Pradesh,Varanasi,"IESD Banaras Hindu University, Varanasi - UPPCB",25-02-2024 15:00:00,25.262326,82.995408,NO2,2,3,2
India,Uttar_Pradesh,Varanasi,"IESD Banaras Hindu University, Varanasi - UPPCB",25-02-2024 15:00:00,25.262326,82.995408,SO2,15,15,15
India,Uttar_Pradesh,Varanasi,"Maldahiya, Varanasi - UPPCB",25-02-2024 15:00:00,25.32393,82.99687,OZONE,1,28,7
India,Uttar_Pradesh,Vrindavan,"Omex Eternity, Vrindavan - UPPCB",25-02-2024 15:00:00,27.5714090,77.6557570,PM2.5,16,43,28
India,Uttar_Pradesh,Vrindavan,"Omex Eternity, Vrindavan - UPPCB",25-02-2024 15:00:00,27.5714090,77.6557570,PM10,42,202,94
India,Uttarakhand,Dehradun,"Doon University, Dehradun - UKPCB",25-02-2024 15:00:00,30.269444,78.044167,OZONE,1,4,3
India,Uttarakhand,Rishikesh,"Shivaji Nagar, Rishikesh - UKPCB",25-02-2024 15:00:00,30.075911,78.2859547,PM2.5,20,50,32
India,Uttarakhand,Rishikesh,"Shivaji Nagar, Rishikesh - UKPCB",25-02-2024 15:00:00,30.075911,78.2859547,NH3,2,3,2
India,Uttarakhand,Rishikesh,"Shivaji Nagar, Rishikesh - UKPCB",25-02-2024 15:00:00,30.075911,78.2859547,OZONE,23,96,65
India,West_Bengal,Asansol,"Asansol Court Area, Asansol - WBPCB",25-02-2024 15:00:00,23.685297,86.945968,PM2.5,57,87,68
India,West_Bengal,Asansol,"Asansol Court Area, Asansol - WBPCB",25-02-2024 15:00:00,23.685297,86.945968,PM10,61,97,74
India,West_Bengal,Asansol,"Asansol Court Area, Asansol - WBPCB",25-02-2024 15:00:00,23.685297,86.945968,NH3,6,7,6
India,West_Bengal,Durgapur,"Sidhu Kanhu Indoor Stadium, Durgapur - WBPCB",25-02-2024 15:00:00,23.5404352,87.2892225,SO2,33,46,40
India,West_Bengal,Durgapur,"Sidhu Kanhu Indoor Stadium, Durgapur - WBPCB",25-02-2024 15:00:00,23.5404352,87.2892225,OZONE,10,41,30
India,West_Bengal,Howrah,"Ghusuri, Howrah - WBPCB",25-02-2024 15:00:00,22.611968,88.347422,PM2.5,82,210,141
India,West_Bengal,Howrah,"Ghusuri, Howrah - WBPCB",25-02-2024 15:00:00,22.611968,88.347422,SO2,5,7,6
India,West_Bengal,Howrah,"Ghusuri, Howrah - WBPCB",25-02-2024 15:00:00,22.611968,88.347422,OZONE,16,23,18
India,West_Bengal,Howrah,"Padmapukur, Howrah - WBPCB",25-02-2024 15:00:00,22.5687319,88.2797276,CO,20,102,63
India,West_Bengal,Kolkata,"Ballygunge, Kolkata - WBPCB",25-02-2024 15:00:00,22.5367507,88.3638022,PM10,60,139,101
India,West_Bengal,Kolkata,"Bidhannagar, Kolkata - WBPCB",25-02-2024 15:00:00,22.58157048,88.41002457,PM10,73,132,110
India,West_Bengal,Kolkata,"Bidhannagar, Kolkata - WBPCB",25-02-2024 15:00:00,22.58157048,88.41002457,SO2,8,14,10
India,West_Bengal,Kolkata,"Fort William, Kolkata - WBPCB",25-02-2024 15:00:00,22.556640,88.342674,PM2.5,53,145,90
India,West_Bengal,Kolkata,"Fort William, Kolkata - WBPCB",25-02-2024 15:00:00,22.556640,88.342674,NH3,5,7,6
India,West_Bengal,Kolkata,"Fort William, Kolkata - WBPCB",25-02-2024 15:00:00,22.556640,88.342674,CO,18,50,21
India,West_Bengal,Kolkata,"Jadavpur, Kolkata - WBPCB",25-02-2024 15:00:00,22.49929,88.36917,PM2.5,62,139,93
India,West_Bengal,Kolkata,"Rabindra Bharati University, Kolkata - WBPCB",25-02-2024 15:00:00,22.627847,88.380669,PM2.5,41,94,65
India,West_Bengal,Kolkata,"Rabindra Sarobar, Kolkata - WBPCB",25-02-2024 15:00:00,22.51106,88.35142,PM2.5,50,107,73
India,West_Bengal,Kolkata,"Rabindra Sarobar, Kolkata - WBPCB",25-02-2024 15:00:00,22.51106,88.35142,PM10,59,110,85
India,West_Bengal,Kolkata,"Rabindra Sarobar, Kolkata - WBPCB",25-02-2024 15:00:00,22.51106,88.35142,CO,11,49,12
India,West_Bengal,Kolkata,"Victoria, Kolkata - WBPCB",25-02-2024 15:00:00,22.5448082,88.3403691,PM2.5,56,184,100
India,West_Bengal,Kolkata,"Victoria, Kolkata - WBPCB",25-02-2024 15:00:00,22.5448082,88.3403691,NO2,5,13,8
India,West_Bengal,Kolkata,"Victoria, Kolkata - WBPCB",25-02-2024 15:00:00,22.5448082,88.3403691,OZONE,20,84,73
India,West_Bengal,Siliguri,"Ward-32 Bapupara, Siliguri - WBPCB",25-02-2024 15:00:00,26.6879226,88.4152495,NH3,10,17,12
India,Andhra_Pradesh,Amaravati,"Secretariat, Amaravati - APPCB",25-02-2024 15:00:00,16.5150833,80.5181667,NH3,4,5,4
India,Andhra_Pradesh,Amaravati,"Secretariat, Amaravati - APPCB",25-02-2024 15:00:00,16.5150833,80.5181667,CO,6,42,28
India,Andhra_Pradesh,Anantapur,"Gulzarpet, Anantapur - APPCB",25-02-2024 15:00:00,14.675886,77.593027,PM10,NA,NA,NA
India,Andhra_Pradesh,Anantapur,"Gulzarpet, Anantapur - APPCB",25-02-2024 15:00:00,14.675886,77.593027,OZONE,17,73,33
India,Andhra_Pradesh,Chittoor,"Gangineni Cheruvu, Chittoor - APPCB",25-02-2024 15:00:00,13.204880,79.097889,CO,22,58,51
India,Andhra_Pradesh,Kadapa,"Yerramukkapalli, Kadapa - APPCB",25-02-2024 15:00:00,14.465052,78.824187,NO2,8,8,8
India,Andhra_Pradesh,Kadapa,"Yerramukkapalli, Kadapa - APPCB",25-02-2024 15:00:00,14.465052,78.824187,SO2,2,3,2
India,Andhra_Pradesh,Tirupati,"Vaikuntapuram, Tirupati - APPCB",25-02-2024 15:00:00,13.615387,79.409230,CO,10,15,13
India,Andhra_Pradesh,Vijayawada,"HB Colony, Vijayawada - APPCB",25-02-2024 15:00:00,16.536107,80.594233,PM2.5,51,61,56
India,Andhra_Pradesh,Vijayawada,"Kanuru, Vijayawada - APPCB",25-02-2024 15:00:00,16.486692,80.699436,PM10,59,80,70
India,Andhra_Pradesh,Vijayawada,"Kanuru, Vijayawada - APPCB",25-02-2024 15:00:00,16.486692,80.699436,SO2,5,7,6
India,Andhra_Pradesh,Vijayawada,"Kanuru, Vijayawada - APPCB",25-02-2024 15:00:00,16.486692,80.699436,CO,36,66,50
India,Andhra_Pradesh,Vijayawada,"Rajiv Gandhi Park, Vijayawada - APPCB",25-02-2024 15:00:00,16.509717,80.612222,CO,31,32,31
India,Andhra_Pradesh,Vijayawada,"Rajiv Nagar, Vijayawada - APPCB",25-02-2024 15:00:00,16.554731,80.649110,PM10,48,424,108
India,Andhra_Pradesh,Visakhapatnam,"GVM Corporation, Visakhapatnam - APPCB",25-02-2024 15:00:00,17.72,83.3,NH3,3,6,4
India,Andhra_Pradesh,Visakhapatnam,"GVM Corporation, Visakhapatnam - APPCB",25-02-2024 15:00:00,17.72,83.3,CO,10,60,18
India,Andhra_Pradesh,Visakhapatnam,"GVM Corporation, Visakhapatnam - APPCB",25-02-2024 15:00:00,17.72,83.3,OZONE,9,27,15
India,Arunachal_Pradesh,Naharlagun,"Naharlagun, Naharlagun - APSPCB",25-02-2024 15:00:00,27.103358,93.679645,NO2,2,3,3
India,Arunachal_Pradesh,Naharlagun,"Naharlagun, Naharlagun - APSPCB",25-02-2024 15:00:00,27.103358,93.679645,SO2,3,4,4
India,Arunachal_Pradesh,Naharlagun,"Naharlagun, Naharlagun - APSPCB",25-02-2024 15:00:00,27.103358,93.679645,CO,12,44,18
India,Assam,Byrnihat,"Central Academy for SFS, Byrnihat - PCBA",25-02-2024 15:00:00,26.071318,91.87488,NH3,6,8,8
India,Assam,Byrnihat,"Central Academy for SFS, Byrnihat - PCBA",25-02-2024 15:00:00,26.071318,91.87488,SO2,8,18,12
India,Assam,Guwahati,"LGBI Airport, Guwahati - PCBA",25-02-2024 15:00:00,26.10887,91.589544,SO2,11,14,13
India,Assam,Guwahati,"LGBI Airport, Guwahati - PCBA",25-02-2024 15:00:00,26.10887,91.589544,CO,20,63,32
India,Assam,Guwahati,"Pan Bazaar, Guwahati - PCBA",25-02-2024 15:00:00,26.187500,91.744194,PM2.5,49,336,208
India,Assam,Guwahati,"Pan Bazaar, Guwahati - PCBA",25-02-2024 15:00:00,26.187500,91.744194,NH3,4,6,5
India,Assam,Guwahati,"Railway Colony, Guwahati - PCBA",25-02-2024 15:00:00,26.181742,91.78063,PM2.5,62,363,236
India,Assam,Guwahati,"Railway Colony, Guwahati - PCBA",25-02-2024 15:00:00,26.181742,91.78063,NO2,3,4,3
India,Assam,Nagaon,"Christianpatty, Nagaon - PCBA",25-02-2024 15:00:00,26.349082,92.68449,NH3,1,16,5
India,Assam,Silchar,"Tarapur, Silchar - PCBA",25-02-2024 15:00:00,24.82827,92.79525,PM10,47,48,48
India,Assam,Silchar,"Tarapur, Silchar - PCBA",25-02-2024 15:00:00,24.82827,92.79525,NO2,20,30,24
India,Assam,Silchar,"Tarapur, Silchar - PCBA",25-02-2024 15:00:00,24.82827,92.79525,NH3,1,1,1
India,Assam,Sivasagar,"Girls College, Sivasagar - PCBA",25-02-2024 15:00:00,26.987634,94.636574,CO,14,27,25
India,Bihar,Araria,"Kharahiya Basti, Araria - BSPCB",25-02-2024 15:00:00,26.146529,87.454184,PM10,91,336,185
India,Bihar,Arrah,"New DM Office, Arrah - BSPCB",25-02-2024 15:00:00,25.5626095,84.663264,NH3,4,9,6
India,Bihar,Aurangabad,"Gurdeo Nagar, Aurangabad - BSPCB",25-02-2024 15:00:00,24.75746,84.366208,NO2,6,8,7
India,Bihar,Aurangabad,"Gurdeo Nagar, Aurangabad - BSPCB",25-02-2024 15:00:00,24.75746,84.366208,CO,14,72,66
India,Bihar,Aurangabad,"Gurdeo Nagar, Aurangabad - BSPCB",25-02-2024 15:00:00,24.75746,84.366208,OZONE,2,45,18
India,Bihar,Bettiah,"Kamalnath Nagar, Bettiah - BSPCB",25-02-2024 15:00:00,26.80365,84.51954,PM2.5,NA,NA,NA
India,Bihar,Bettiah,"Kamalnath Nagar, Bettiah - BSPCB",25-02-2024 15:00:00,26.80365,84.51954,PM10,2,52,21
India,Bihar,Bhagalpur,"DM Office_Kachari Chowk, Bhagalpur - BSPCB",25-02-2024 15:00:00,25.251013,86.989001,PM2.5,32,355,138
India,Bihar,Bhagalpur,"Mayaganj, Bhagalpur - BSPCB",25-02-2024 15:00:00,25.265194,87.012947,NO2,3,22,9
India,Bihar,Bhagalpur,"Mayaganj, Bhagalpur - BSPCB",25-02-2024 15:00:00,25.265194,87.012947,SO2,10,13,12
India,Bihar,Chhapra,"Darshan Nagar, Chhapra - BSPCB",25-02-2024 15:00:00,25.7808257,84.7446768,CO,23,41,33
India,Bihar,Gaya,"Collectorate, Gaya - BSPCB",25-02-2024 15:00:00,24.7955,84.9994,OZONE,47,80,59
India,Bihar,Gaya,"SFTI Kusdihra, Gaya - BSPCB",25-02-2024 15:00:00,24.762518,84.982348,CO,18,54,29
India,Bihar,Hajipur,"Industrial Area, Hajipur - BSPCB",25-02-2024 15:00:00,25.697189,85.245900,NH3,4,10,7
India,Bihar,Katihar,"Mirchaibari, Katihar - BSPCB",25-02-2024 15:00:00,25.560083,87.553265,NO2,15,31,22
India,Bihar,Katihar,"Mirchaibari, Katihar - BSPCB",25-02-2024 15:00:00,25.560083,87.553265,CO,13,101,42
India,Bihar,Katihar,"Mirchaibari, Katihar - BSPCB",25-02-2024 15:00:00,25.560083,87.553265,OZONE,20,24,22
India,Bihar,Motihari,"Gandak Colony, Motihari - BSPCB",25-02-2024 15:00:00,26.63086,84.90051,NH3,7,13,10
India,Bihar,Munger,"Town Hall, Munger - BSPCB",25-02-2024 15:00:00,25.376776,86.471523,PM2.5,35,377,126
India,Bihar,Munger,"Town Hall, Munger - BSPCB",25-02-2024 15:00:00,25.376776,86.471523,NH3,1,2,2
India,Bihar,Muzaffarpur,"MIT-Daudpur Kothi, Muzaffarpur - BSPCB",25-02-2024 15:00:00,26.1403345,85.3650192,PM2.5,42,210,105
India,Bihar,Muzaffarpur,"MIT-Daudpur Kothi, Muzaffarpur - BSPCB",25-02-2024 15:00:00,26.1403345,85.3650192,PM10,62,174,125
India,Bihar,Muzaffarpur,"MIT-Daudpur Kothi, Muzaffarpur - BSPCB",25-02-2024 15:00:00,26.1403345,85.3650192,CO,1,111,25
India,Bihar,Muzaffarpur,"Muzaffarpur Collectorate, Muzaffarpur - BSPCB",25-02-2024 15:00:00,26.1209,85.3647,OZONE,17,80,30
India,Bihar,Patna,"DRM Office Danapur, Patna - BSPCB",25-02-2024 15:00:00,25.586562,85.043586,NO2,10,82,40
India,Bihar,Patna,"Govt. High School Shikarpur, Patna - BSPCB",25-02-2024 15:00:00,25.592539,85.227158,NO2,23,30,25
India,Bihar,Patna,"Govt. High School Shikarpur, Patna - BSPCB",25-02-2024 15:00:00,25.592539,85.227158,CO,28,101,43
India,Bihar,Patna,"IGSC Planetarium Complex, Patna - BSPCB",25-02-2024 15:00:00,25.610369,85.132568,PM2.5,30,267,123
India,Bihar,Patna,"IGSC Planetarium Complex, Patna - BSPCB",25-02-2024 15:00:00,25.610369,85.132568,SO2,6,7,6
India,Bihar,Patna,"IGSC Planetarium Complex, Patna - BSPCB",25-02-2024 15:00:00,25.610369,85.132568,CO,12,15,14
India,Bihar,Patna,"Muradpur, Patna - BSPCB",25-02-2024 15:00:00,25.619651,85.147382,PM2.5,64,347,191
India,Bihar,Patna,"Muradpur, Patna - BSPCB",25-02-2024 15:00:00,25.619651,85.147382,NH3,2,5,3
India,Bihar,Patna,"Rajbansi Nagar, Patna - BSPCB",25-02-2024 15:00:00,25.599486,85.113666,SO2,7,17,12
India,Bihar,Purnia,"Mariam Nagar, Purnia - BSPCB",25-02-2024 15:00:00,25.366336,87.117468,PM10,54,151,107
India,Bihar,Rajgir,"Dangi Tola, Rajgir - BSPCB",25-02-2024 15:00:00,25.03280,85.41948,SO2,4,4,4
India,Bihar,Samastipur,"DM Office_Kasipur, Samastipur - BSPCB",25-02-2024 15:00:00,25.859655,85.77944,NH3,2,4,3
India,Bihar,Sasaram,"Dada Peer, Sasaram - BSPCB",25-02-2024 15:00:00,24.952822,84.002396,PM2.5,21,308,91
India,Bihar,Sasaram,"Dada Peer, Sasaram - BSPCB",25-02-2024 15:00:00,24.952822,84.002396,NO2,13,35,20
India,Bihar,Sasaram,"Dada Peer, Sasaram - BSPCB",25-02-2024 15:00:00,24.952822,84.002396,CO,103,111,106
India,Bihar,Siwan,"Chitragupta Nagar, Siwan - BSPCB",25-02-2024 15:00:00,26.2271665,84.3570427,NH3,1,6,2
India,Bihar,Siwan,"Chitragupta Nagar, Siwan - BSPCB",25-02-2024 15:00:00,26.2271665,84.3570427,SO2,31,35,33
India,Chandigarh,Chandigarh,"Sector 22, Chandigarh - CPCC",25-02-2024 15:00:00,30.735567,76.775714,PM10,53,157,90
India,Chandigarh,Chandigarh,"Sector 22, Chandigarh - CPCC",25-02-2024 15:00:00,30.735567,76.775714,NH3,3,5,4
India,Chandigarh,Chandigarh,"Sector 22, Chandigarh - CPCC",25-02-2024 15:00:00,30.735567,76.775714,SO2,5,34,13
India,Chandigarh,Chandigarh,"Sector-25, Chandigarh - CPCC",25-02-2024 15:00:00,30.751462,76.762879,NO2,14,51,27
India,Chandigarh,Chandigarh,"Sector-53, Chandigarh - CPCC",25-02-2024 15:00:00,30.719859,76.738637,PM2.5,37,173,91
India,Chandigarh,Chandigarh,"Sector-53, Chandigarh - CPCC",25-02-2024 15:00:00,30.719859,76.738637,NO2,30,118,71
India,Chandigarh,Chandigarh,"Sector-53, Chandigarh - CPCC",25-02-2024 15:00:00,30.719859,76.738637,NH3,3,4,4
India,Chandigarh,Chandigarh,"Sector-53, Chandigarh - CPCC",25-02-2024 15:00:00,30.719859,76.738637,CO,32,108,49
India,Chhattisgarh,Bhilai,"32Bungalows, Bhilai - CECB",25-02-2024 15:00:00,21.194815,81.314770,OZONE,3,75,5
India,Chhattisgarh,Bhilai,"Hathkhoj, Bhilai - CECB",25-02-2024 15:00:00,21.224231,81.408350,NO2,8,29,22
India,Chhattisgarh,Bhilai,"Hathkhoj, Bhilai - CECB",25-02-2024 15:00:00,21.224231,81.408350,SO2,12,25,17
India,Chhattisgarh,Chhal,"Nawapara SECL Colony, Chhal - CECB",25-02-2024 15:00:00,22.118125,83.140608,PM10,34,184,66
India,Chhattisgarh,Korba,"Urja Nagar, Korba - CECB",25-02-2024 15:00:00,22.348441,82.549611,OZONE,1,2,1
India,Chhattisgarh,Kunjemura,"OP Jindal School, Kunjemura - CECB",25-02-2024 15:00:00,22.126650,83.483212,SO2,4,14,10
India,Chhattisgarh,Milupara,"Govt. Higher Secondary School, Milupara - CECB",25-02-2024 15:00:00,22.1910172,83.5197009,CO,5,45,23
India,Chhattisgarh,Raipur,"AIIMS, Raipur - CECB",25-02-2024 15:00:00,21.258815,81.578979,OZONE,1,26,2
India,Chhattisgarh,Tumidih,"OP Jindal Industrial Park, Tumidih - CECB",25-02-2024 15:00:00,22.06631475,83.33820077,NO2,7,25,13
India,Chhattisgarh,Tumidih,"OP Jindal Industrial Park, Tumidih - CECB",25-02-2024 15:00:00,22.06631475,83.33820077,CO,22,36,26
India,Delhi,Delhi,"Alipur, Delhi - DPCC",25-02-2024 15:00:00,28.815329,77.153010,PM10,45,166,112
India,Delhi,Delhi,"Alipur, Delhi - DPCC",25-02-2024 15:00:00,28.815329,77.153010,NO2,12,52,33
India,Delhi,Delhi,"Aya Nagar, Delhi - IMD",25-02-2024 15:00:00,28.4706914,77.1099364,PM2.5,24,303,152
India,Delhi,Delhi,"Aya Nagar, Delhi - IMD",25-02-2024 15:00:00,28.4706914,77.1099364,PM10,55,222,148
India,Delhi,Delhi,"Aya Nagar, Delhi - IMD",25-02-2024 15:00:00,28.4706914,77.1099364,NO2,10,65,22
India,Delhi,Delhi,"Bawana, Delhi - DPCC",25-02-2024 15:00:00,28.776200,77.051074,PM2.5,57,333,212
India,Delhi,Delhi,"Bawana, Delhi - DPCC",25-02-2024 15:00:00,28.776200,77.051074,PM10,100,277,170
India,Delhi,Delhi,"Burari Crossing, Delhi - IMD",25-02-2024 15:00:00,28.7256504,77.2011573,PM2.5,35,358,140
India,Delhi,Delhi,"Burari Crossing, Delhi - IMD",25-02-2024 15:00:00,28.7256504,77.2011573,NO2,2,9,4
India,Delhi,Delhi,"DTU, Delhi - CPCB",25-02-2024 15:00:00,28.7500499,77.1112615,NH3,11,18,14
India,Delhi,Delhi,"Dwarka-Sector 8, Delhi - DPCC ",25-02-2024 15:00:00,28.5710274,77.0719006,OZONE,1,98,40
India,Delhi,Delhi,"IGI Airport (T3), Delhi - IMD",25-02-2024 15:00:00,28.5627763,77.1180053,PM2.5,NA,NA,NA
India,Delhi,Delhi,"IGI Airport (T3), Delhi - IMD",25-02-2024 15:00:00,28.5627763,77.1180053,NO2,NA,NA,NA
India,Delhi,Delhi,"IGI Airport (T3), Delhi - IMD",25-02-2024 15:00:00,28.5627763,77.1180053,OZONE,2,65,32
India,Delhi,Delhi,"IHBAS, Dilshad Garden, Delhi - CPCB",25-02-2024 15:00:00,28.6811736,77.3025234,PM10,96,182,130
India,Delhi,Delhi,"IHBAS, Dilshad Garden, Delhi - CPCB",25-02-2024 15:00:00,28.6811736,77.3025234,NO2,19,40,29
India,Delhi,Delhi,"IHBAS, Dilshad Garden, Delhi - CPCB",25-02-2024 15:00:00,28.6811736,77.3025234,NH3,9,14,12
India,Delhi,Delhi,"IHBAS, Dilshad Garden, Delhi - CPCB",25-02-2024 15:00:00,28.6811736,77.3025234,CO,9,61,41
India,Delhi,Delhi,"IHBAS, Dilshad Garden, Delhi - CPCB",25-02-2024 15:00:00,28.6811736,77.3025234,OZONE,9,30,19
India,Delhi,Delhi,"ITO, Delhi - CPCB",25-02-2024 15:00:00,28.628624,77.241060,NO2,14,163,94
India,Delhi,Delhi,"Jahangirpuri, Delhi - DPCC",25-02-2024 15:00:00,28.732820,77.170633,PM10,72,410,197
India,Delhi,Delhi,"Jahangirpuri, Delhi - DPCC",25-02-2024 15:00:00,28.732820,77.170633,SO2,3,30,12
India,Delhi,Delhi,"Jahangirpuri, Delhi - DPCC",25-02-2024 15:00:00,28.732820,77.170633,OZONE,3,48,17
India,Delhi,Delhi,"Jawaharlal Nehru Stadium, Delhi - DPCC",25-02-2024 15:00:00,28.580280,77.233829,NO2,36,157,99
India,Delhi,Delhi,"Jawaharlal Nehru Stadium, Delhi - DPCC",25-02-2024 15:00:00,28.580280,77.233829,CO,24,116,49
India,Delhi,Delhi,"Lodhi Road, Delhi - IMD",25-02-2024 15:00:00,28.5918245,77.2273074,NO2,3,13,7
India,Delhi,Delhi,"Mandir Marg, Delhi - DPCC",25-02-2024 15:00:00,28.636429,77.201067,NO2,111,139,124
India,Delhi,Delhi,"NSIT Dwarka, Delhi - CPCB",25-02-2024 15:00:00,28.60909,77.0325413,PM2.5,131,334,260
India,Delhi,Delhi,"Narela, Delhi - DPCC",25-02-2024 15:00:00,28.822836,77.101981,NO2,13,108,42
India,Delhi,Delhi,"Narela, Delhi - DPCC",25-02-2024 15:00:00,28.822836,77.101981,OZONE,7,186,152
India,Delhi,Delhi,"Nehru Nagar, Delhi - DPCC",25-02-2024 15:00:00,28.567890,77.250515,SO2,8,27,14
India,Delhi,Delhi,"Patparganj, Delhi - DPCC",25-02-2024 15:00:00,28.623763,77.287209,PM2.5,48,282,128
India,Delhi,Delhi,"Punjabi Bagh, Delhi - DPCC",25-02-2024 15:00:00,28.674045,77.131023,PM10,94,406,182
India,Delhi,Delhi,"Pusa, Delhi - DPCC",25-02-2024 15:00:00,28.639652,77.146275,NO2,32,122,76
India,Delhi,Delhi,"Pusa, Delhi - DPCC",25-02-2024 15:00:00,28.639652,77.146275,NH3,6,9,7
India,Delhi,Delhi,"Rohini, Delhi - DPCC",25-02-2024 15:00:00,28.732528,77.119920,NO2,18,108,64
India,Delhi,Delhi,"Shadipur, Delhi - CPCB",25-02-2024 15:00:00,28.6514781,77.1473105,SO2,2,58,17
India,Delhi,Delhi,"Sirifort, Delhi - CPCB",25-02-2024 15:00:00,28.5504249,77.2159377,NO2,174,231,203
India,Delhi,Delhi,"Sonia Vihar, Delhi - DPCC",25-02-2024 15:00:00,28.710508,77.249485,NO2,29,102,61
India,Delhi,Delhi,"Sonia Vihar, Delhi - DPCC",25-02-2024 15:00:00,28.710508,77.249485,NH3,4,10,6
India,Delhi,Delhi,"Sri Aurobindo Marg, Delhi - DPCC",25-02-2024 15:00:00,28.531346,77.190156,PM10,73,274,155
India,Delhi,Delhi,"Sri Aurobindo Marg, Delhi - DPCC",25-02-2024 15:00:00,28.531346,77.190156,NO2,24,110,64
India,Delhi,Delhi,"Vivek Vihar, Delhi - DPCC",25-02-2024 15:00:00,28.672342,77.315260,SO2,24,32,26
India,Delhi,Delhi,"Vivek Vihar, Delhi - DPCC",25-02-2024 15:00:00,28.672342,77.315260,CO,4,78,27
India,Delhi,Delhi,"Wazirpur, Delhi - DPCC",25-02-2024 15:00:00,28.699793,77.165453,OZONE,15,120,63
India,Gujarat,Ahmedabad,"Chandkheda, Ahmedabad - IITM",25-02-2024 15:00:00,23.107969,72.574648,OZONE,9,60,40
India,Gujarat,Ahmedabad,"Gyaspur, Ahmedabad - IITM",25-02-2024 15:00:00,22.977134,72.553024,PM2.5,27,27,27
India,Gujarat,Ahmedabad,"Gyaspur, Ahmedabad - IITM",25-02-2024 15:00:00,22.977134,72.553024,SO2,3,3,3
India,Gujarat,Ahmedabad,"Raikhad, Ahmedabad - IITM",25-02-2024 15:00:00,23.020509,72.579261,NH3,2,3,2
India,Gujarat,Ahmedabad,"Raikhad, Ahmedabad - IITM",25-02-2024 15:00:00,23.020509,72.579261,CO,3,54,22
India,Gujarat,Ahmedabad,"Raikhad, Ahmedabad - IITM",25-02-2024 15:00:00,23.020509,72.579261,OZONE,2,76,43
India,Gujarat,Ahmedabad,"Rakhial, Ahmedabad - IITM",25-02-2024 15:00:00,23.016834,72.625775,OZONE,4,49,30
India,Gujarat,Ahmedabad,"SAC ISRO Satellite, Ahmedabad - IITM",25-02-2024 15:00:00,23.023389,72.515201,SO2,11,30,15
India,Gujarat,Ahmedabad,"SAC ISRO Satellite, Ahmedabad - IITM",25-02-2024 15:00:00,23.023389,72.515201,CO,28,34,34
India,Gujarat,Ahmedabad,"SVPI Airport Hansol, Ahmedabad - IITM",25-02-2024 15:00:00,23.076793,72.627874,PM2.5,NA,NA,NA
India,Gujarat,Ankleshwar,"GIDC, Ankleshwar - GPCB",25-02-2024 15:00:00,21.613267,73.010555,PM2.5,38,100,72
India,Gujarat,Ankleshwar,"GIDC, Ankleshwar - GPCB",25-02-2024 15:00:00,21.613267,73.010555,OZONE,21,39,31
India,Gujarat,Gandhinagar,"IIPHG Lekawada, Gandhinagar - IITM",25-02-2024 15:00:00,23.243639,72.68994,NH3,3,3,3
India,Gujarat,Gandhinagar,"Sector-10, Gandhinagar - GPCB",25-02-2024 15:00:00,23.221714,72.654328,NH3,1,2,2
India,Gujarat,Gandhinagar,"Sector-10, Gandhinagar - GPCB",25-02-2024 15:00:00,23.221714,72.654328,CO,38,82,45
India,Gujarat,Vapi,"Phase-1 GIDC, Vapi - GPCB",25-02-2024 15:00:00,20.362421,72.918013,CO,105,186,104
India,Gujarat,Vatva,"Phase-4 GIDC, Vatva - GPCB",25-02-2024 15:00:00,22.969611,72.643500,PM10,34,75,56
India,Haryana,Bahadurgarh,"Arya Nagar, Bahadurgarh - HSPCB",25-02-2024 15:00:00,28.6701,76.9254,OZONE,40,49,44
India,Haryana,Bhiwani,"H.B. Colony, Bhiwani - HSPCB",25-02-2024 15:00:00,28.806223,76.141105,PM2.5,52,121,71
India,Haryana,Bhiwani,"H.B. Colony, Bhiwani - HSPCB",25-02-2024 15:00:00,28.806223,76.141105,NH3,5,6,6
India,Haryana,Bhiwani,"H.B. Colony, Bhiwani - HSPCB",25-02-2024 15:00:00,28.806223,76.141105,SO2,5,15,11
India,Haryana,Bhiwani,"H.B. Colony, Bhiwani - HSPCB",25-02-2024 15:00:00,28.806223,76.141105,CO,2,42,34
India,Haryana,Dharuhera,"Municipal Corporation Office, Dharuhera -  HSPCB",25-02-2024 15:00:00,28.206800,76.799700,PM10,125,288,180
India,Haryana,Faridabad,"New Industrial Town, Faridabad - HSPCB",25-02-2024 15:00:00,28.39072,77.30059,PM10,4,241,79
India,Haryana,Faridabad,"New Industrial Town, Faridabad - HSPCB",25-02-2024 15:00:00,28.39072,77.30059,NH3,4,14,7
India,Haryana,Faridabad,"Sector 11, Faridabad - HSPCB",25-02-2024 15:00:00,28.376058,77.315741,PM2.5,59,241,152
India,Haryana,Faridabad,"Sector 11, Faridabad - HSPCB",25-02-2024 15:00:00,28.376058,77.315741,NH3,6,6,6
India,Haryana,Gurugram,"Sector-51, Gurugram - HSPCB",25-02-2024 15:00:00,28.4227,77.0667,SO2,2,5,4
India,Haryana,Gurugram,"Teri Gram, Gurugram - HSPCB",25-02-2024 15:00:00,28.4275,77.1465,SO2,4,5,4
India,Haryana,Hisar,"Urban Estate-II, Hisar - HSPCB",25-02-2024 15:00:00,29.140560,75.744941,PM2.5,37,248,90
India,Haryana,Jind,"Police Lines, Jind - HSPCB",25-02-2024 15:00:00,29.307814,76.337619,PM2.5,NA,NA,NA
India,Haryana,Kaithal,"Rishi Nagar, Kaithal - HSPCB",25-02-2024 15:00:00,29.8006,76.4155,NO2,NA,NA,NA
India,Haryana,Kaithal,"Rishi Nagar, Kaithal - HSPCB",25-02-2024 15:00:00,29.8006,76.4155,SO2,NA,NA,NA
India,Haryana,Kurukshetra,"Sector-7, Kurukshetra - HSPCB",25-02-2024 15:00:00,29.966942,76.875879,PM10,65,118,95
India,Haryana,Mandikhera,"General Hospital, Mandikhera - HSPCB",25-02-2024 15:00:00,27.9002,76.9938,PM2.5,32,75,52
India,Haryana,Mandikhera,"General Hospital, Mandikhera - HSPCB",25-02-2024 15:00:00,27.9002,76.9938,SO2,31,39,34
India,Haryana,Manesar,"Sector-2 IMT, Manesar - HSPCB",25-02-2024 15:00:00,28.360699,76.936090,OZONE,5,74,25
India,Haryana,Narnaul,"Shastri Nagar, Narnaul - HSPCB",25-02-2024 15:00:00,28.060249,76.113115,SO2,12,27,14
India,Haryana,Palwal,"Shyam Nagar, Palwal - HSPCB",25-02-2024 15:00:00,28.1485564,77.3320667,PM2.5,73,105,89
India,Haryana,Palwal,"Shyam Nagar, Palwal - HSPCB",25-02-2024 15:00:00,28.1485564,77.3320667,OZONE,18,52,38
India,Haryana,Rohtak,"MD University, Rohtak - HSPCB",25-02-2024 15:00:00,28.52123,76.37138,CO,23,45,32
India,Haryana,Rohtak,"MD University, Rohtak - HSPCB",25-02-2024 15:00:00,28.52123,76.37138,OZONE,45,54,49
India,Haryana,Sonipat,"Murthal, Sonipat - HSPCB",25-02-2024 15:00:00,29.027200,77.062100,PM2.5,34,87,64
India,Haryana,Sonipat,"Murthal, Sonipat - HSPCB",25-02-2024 15:00:00,29.027200,77.062100,OZONE,16,36,27
India,Haryana,Yamuna Nagar,"Gobind Pura, Yamuna Nagar - HSPCB",25-02-2024 15:00:00,30.1480566,77.2893471,SO2,1,99,11
India,Himachal Pradesh,Baddi,"HIMUDA Complex Phase-1, Baddi - HPPCB",25-02-2024 15:00:00,30.943887,76.801991,PM10,44,123,79
India,Himachal Pradesh,Baddi,"HIMUDA Complex Phase-1, Baddi - HPPCB",25-02-2024 15:00:00,30.943887,76.801991,NH3,2,4,3
India,Himachal Pradesh,Baddi,"HIMUDA Complex Phase-1, Baddi - HPPCB",25-02-2024 15:00:00,30.943887,76.801991,CO,16,28,19
India,Himachal Pradesh,Baddi,"HIMUDA Complex Phase-1, Baddi - HPPCB",25-02-2024 15:00:00,30.943887,76.801991,OZONE,64,124,98
India,Jharkhand,Dhanbad,"Kalakusuma, Dhanbad - DMC",25-02-2024 15:00:00,23.811548,86.481238,PM2.5,1,52,14
India,Jharkhand,Dhanbad,"Kalakusuma, Dhanbad - DMC",25-02-2024 15:00:00,23.811548,86.481238,NO2,13,14,14
India,Karnataka,Bengaluru,"BTM Layout, Bengaluru - CPCB",25-02-2024 15:00:00,12.9135218,77.5950804,PM2.5,35,51,42
India,Karnataka,Bengaluru,"BTM Layout, Bengaluru - CPCB",25-02-2024 15:00:00,12.9135218,77.5950804,NO2,34,36,35
India,Karnataka,Bengaluru,"Bapuji Nagar, Bengaluru - KSPCB",25-02-2024 15:00:00,12.951913,77.539784,PM2.5,37,500,175
India,Karnataka,Bengaluru,"City Railway Station, Bengaluru - KSPCB",25-02-2024 15:00:00,12.9756843,77.5660749,PM10,63,76,74
India,Karnataka,Bengaluru,"City Railway Station, Bengaluru - KSPCB",25-02-2024 15:00:00,12.9756843,77.5660749,SO2,13,13,13
India,Karnataka,Bengaluru,"Hombegowda Nagar, Bengaluru - KSPCB",25-02-2024 15:00:00,12.938539,77.590100,NH3,2,2,2
India,Karnataka,Bengaluru,"Jayanagar 5th Block, Bengaluru - KSPCB",25-02-2024 15:00:00,12.920984,77.584908,PM2.5,57,128,91
India,Karnataka,Bengaluru,"Jayanagar 5th Block, Bengaluru - KSPCB",25-02-2024 15:00:00,12.920984,77.584908,NH3,2,3,2
India,Karnataka,Bengaluru,"Kasturi Nagar, Bengaluru - KSPCB",25-02-2024 15:00:00,13.003872,77.664217,PM10,76,164,122
India,Karnataka,Bengaluru,"Peenya, Bengaluru - CPCB",25-02-2024 15:00:00,13.0270199,77.494094,PM10,39,91,64
India,Karnataka,Bengaluru,"Peenya, Bengaluru - CPCB",25-02-2024 15:00:00,13.0270199,77.494094,OZONE,53,117,86
India,Karnataka,Bengaluru,"RVCE-Mailasandra, Bengaluru - KSPCB",25-02-2024 15:00:00,12.921418,77.502466,CO,32,51,46
India,Karnataka,Bengaluru,"Sanegurava Halli, Bengaluru - KSPCB",25-02-2024 15:00:00,12.990328,77.5431385,SO2,2,3,3
India,Karnataka,Bengaluru,"Silk Board, Bengaluru - KSPCB",25-02-2024 15:00:00,12.917348,77.622813,SO2,5,12,8
India,Karnataka,Bidar,"Naubad, Bidar - KSPCB",25-02-2024 15:00:00,17.930306,77.482194,PM2.5,NA,NA,NA
India,Karnataka,Chamarajanagar,"Urban, Chamarajanagar - KSPCB",25-02-2024 15:00:00,11.55358,76.55521,PM10,44,55,48
India,Karnataka,Chamarajanagar,"Urban, Chamarajanagar - KSPCB",25-02-2024 15:00:00,11.55358,76.55521,NO2,23,43,33
India,Karnataka,Chikkamagaluru,"Kalyana Nagara, Chikkamagaluru - KSPCB",25-02-2024 15:00:00,13.328028,75.797056,PM10,17,62,37
India,Karnataka,Chikkamagaluru,"Kalyana Nagara, Chikkamagaluru - KSPCB",25-02-2024 15:00:00,13.328028,75.797056,SO2,1,5,2
India,Karnataka,Dharwad,"Kalabhavan, Dharwad - KSPCB",25-02-2024 15:00:00,15.459706,75.008381,NH3,3,3,3
