country,state,city,station,last_update,latitude,longitude,pollutant_id,pollutant_min,pollutant_max,pollutant_avg
India,Andhra_Pradesh,Amaravati,"Secretariat, Amaravati - APPCB",02-06-2024 12:00:00,16.5150833,80.5181667,NO2,3,8,5
India,Andhra_Pradesh,Amaravati,"Secretariat, Amaravati - APPCB",02-06-2024 12:00:00,16.5150833,80.5181667,CO,10,126,38
India,Andhra_Pradesh,Anantapur,"Gulzarpet, Anantapur - APPCB",02-06-2024 12:00:00,14.675886,77.593027,SO2,5,12,7
India,Andhra_Pradesh,Chittoor,"Gangineni Cheruvu, Chittoor - APPCB",02-06-2024 12:00:00,13.204880,79.097889,CO,20,25,22
India,Andhra_Pradesh,Chittoor,"Gangineni Cheruvu, Chittoor - APPCB",02-06-2024 12:00:00,13.204880,79.097889,OZONE,10,21,10
India,Andhra_Pradesh,Kadapa,"Yerramukkapalli, Kadapa - APPCB",02-06-2024 12:00:00,14.465052,78.824187,PM10,NA,NA,NA
India,Andhra_Pradesh,Rajamahendravaram,"Anand Kala Kshetram, Rajamahendravaram - APPCB",02-06-2024 12:00:00,16.9872867,81.7363176,OZONE,26,152,87
India,Andhra_Pradesh,Tirupati,"Tirumala, Tirupati - APPCB",02-06-2024 12:00:00,13.67,79.35,PM10,41,103,66
India,Andhra_Pradesh,Tirupati,"Tirumala, Tirupati - APPCB",02-06-2024 12:00:00,13.67,79.35,SO2,8,14,11
India,Andhra_Pradesh,Tirupati,"Tirumala, Tirupati - APPCB",02-06-2024 12:00:00,13.67,79.35,CO,41,58,46
India,Andhra_Pradesh,Tirupati,"Vaikuntapuram, Tirupati - APPCB",02-06-2024 12:00:00,13.615387,79.409230,PM2.5,NA,NA,NA
India,Andhra_Pradesh,Tirupati,"Vaikuntapuram, Tirupati - APPCB",02-06-2024 12:00:00,13.615387,79.409230,NH3,NA,NA,NA
India,Andhra_Pradesh,Vijayawada,"HB Colony, Vijayawada - APPCB",02-06-2024 12:00:00,16.536107,80.594233,PM10,45,131,66
India,Andhra_Pradesh,Vijayawada,"HB Colony, Vijayawada - APPCB",02-06-2024 12:00:00,16.536107,80.594233,NO2,12,16,14
India,Andhra_Pradesh,Vijayawada,"Kanuru, Vijayawada - APPCB",02-06-2024 12:00:00,16.486692,80.699436,NO2,NA,NA,NA
India,Andhra_Pradesh,Vijayawada,"Rajiv Gandhi Park, Vijayawada - APPCB",02-06-2024 12:00:00,16.509717,80.612222,SO2,7,8,7
India,Andhra_Pradesh,Vijayawada,"Rajiv Nagar, Vijayawada - APPCB",02-06-2024 12:00:00,16.554731,80.649110,CO,38,38,38
India,Assam,Byrnihat,"Central Academy for SFS, Byrnihat - PCBA",02-06-2024 12:00:00,26.071318,91.87488,PM10,NA,NA,NA
India,Assam,Guwahati,"IITG, Guwahati - PCBA",02-06-2024 12:00:00,26.2028636,91.70046436,PM2.5,14,60,38
India,Assam,Guwahati,"LGBI Airport, Guwahati - PCBA",02-06-2024 12:00:00,26.10887,91.589544,NH3,NA,NA,NA
India,Assam,Guwahati,"LGBI Airport, Guwahati - PCBA",02-06-2024 12:00:00,26.10887,91.589544,SO2,NA,NA,NA
India,Assam,Guwahati,"Railway Colony, Guwahati - PCBA",02-06-2024 12:00:00,26.181742,91.78063,PM10,22,61,38
India,Assam,Guwahati,"Railway Colony, Guwahati - PCBA",02-06-2024 12:00:00,26.181742,91.78063,NO2,3,3,3
India,Assam,Guwahati,"Railway Colony, Guwahati - PCBA",02-06-2024 12:00:00,26.181742,91.78063,SO2,8,16,12
India,Assam,Guwahati,"Railway Colony, Guwahati - PCBA",02-06-2024 12:00:00,26.181742,91.78063,OZONE,3,11,7
India,Assam,Nagaon,"Christianpatty, Nagaon - PCBA",02-06-2024 12:00:00,26.349082,92.68449,NH3,NA,NA,NA
India,Assam,Nalbari,"Bata Chowk, Nalbari - PCBA",02-06-2024 12:00:00,26.446912,91.439057,PM10,NA,NA,NA
India,Assam,Silchar,"Tarapur, Silchar - PCBA",02-06-2024 12:00:00,24.82827,92.79525,CO,20,57,54
India,Assam,Sivasagar,"Girls College, Sivasagar - PCBA",02-06-2024 12:00:00,26.987634,94.636574,PM2.5,34,36,35
India,Bihar,Araria,"Kharahiya Basti, Araria - BSPCB",02-06-2024 12:00:00,26.146529,87.454184,CO,12,26,19
India,Bihar,Araria,"Kharahiya Basti, Araria - BSPCB",02-06-2024 12:00:00,26.146529,87.454184,OZONE,1,9,7
India,Bihar,Arrah,"New DM Office, Arrah - BSPCB",02-06-2024 12:00:00,25.5626095,84.663264,NO2,NA,NA,NA
India,Bihar,Aurangabad,"Gurdeo Nagar, Aurangabad - BSPCB",02-06-2024 12:00:00,24.75746,84.366208,OZONE,26,137,46
India,Bihar,Bettiah,"Kamalnath Nagar, Bettiah - BSPCB",02-06-2024 12:00:00,26.80365,84.51954,NH3,23,32,27
India,Bihar,Bhagalpur,"DM Office_Kachari Chowk, Bhagalpur - BSPCB",02-06-2024 12:00:00,25.251013,86.989001,NO2,29,46,36
India,Bihar,Bhagalpur,"DM Office_Kachari Chowk, Bhagalpur - BSPCB",02-06-2024 12:00:00,25.251013,86.989001,NH3,4,7,5
India,Bihar,Bhagalpur,"Mayaganj, Bhagalpur - BSPCB",02-06-2024 12:00:00,25.265194,87.012947,PM2.5,18,210,71
India,Bihar,Bhagalpur,"Mayaganj, Bhagalpur - BSPCB",02-06-2024 12:00:00,25.265194,87.012947,SO2,11,12,12
India,Bihar,Bihar Sharif,"D M Colony, Bihar Sharif - BSPCB",02-06-2024 12:00:00,25.204762,85.514960,NO2,11,12,11
India,Bihar,Bihar Sharif,"D M Colony, Bihar Sharif - BSPCB",02-06-2024 12:00:00,25.204762,85.514960,SO2,2,16,9
India,Bihar,Buxar,"Charitra Van, Buxar - BSPCB (Formerly known as Central Jail)",02-06-2024 12:00:00,25.567520,83.966379,PM2.5,NA,NA,NA
India,Bihar,Buxar,"Charitra Van, Buxar - BSPCB (Formerly known as Central Jail)",02-06-2024 12:00:00,25.567520,83.966379,CO,NA,NA,NA
India,Bihar,Gaya,"Collectorate, Gaya - BSPCB",02-06-2024 12:00:00,24.7955,84.9994,CO,124,139,128
India,Bihar,Gaya,"Kareemganj, Gaya - BSPCB",02-06-2024 12:00:00,24.792403,84.992416,PM10,18,120,49
India,Bihar,Gaya,"SFTI Kusdihra, Gaya - BSPCB",02-06-2024 12:00:00,24.762518,84.982348,PM2.5,NA,NA,NA
India,Bihar,Gaya,"SFTI Kusdihra, Gaya - BSPCB",02-06-2024 12:00:00,24.762518,84.982348,NO2,NA,NA,NA
India,Bihar,Manguraha,"Forest Rest House, Manguraha - BSPCB",02-06-2024 12:00:00,27.308328,84.531742,PM2.5,NA,NA,NA
India,Bihar,Manguraha,"Forest Rest House, Manguraha - BSPCB",02-06-2024 12:00:00,27.308328,84.531742,NH3,NA,NA,NA
India,Bihar,Manguraha,"Forest Rest House, Manguraha - BSPCB",02-06-2024 12:00:00,27.308328,84.531742,OZONE,NA,NA,NA
India,Bihar,Motihari,"Gandak Colony, Motihari - BSPCB",02-06-2024 12:00:00,26.63086,84.90051,CO,17,44,39
India,Bihar,Munger,"Town Hall, Munger - BSPCB",02-06-2024 12:00:00,25.376776,86.471523,PM2.5,30,150,78
India,Bihar,Munger,"Town Hall, Munger - BSPCB",02-06-2024 12:00:00,25.376776,86.471523,CO,44,94,50
India,Bihar,Muzaffarpur,"MIT-Daudpur Kothi, Muzaffarpur - BSPCB",02-06-2024 12:00:00,26.1403345,85.3650192,NH3,1,1,1
India,Bihar,Muzaffarpur,"MIT-Daudpur Kothi, Muzaffarpur - BSPCB",02-06-2024 12:00:00,26.1403345,85.3650192,SO2,5,7,7
India,Bihar,Patna,"DRM Office Danapur, Patna - BSPCB",02-06-2024 12:00:00,25.586562,85.043586,NO2,13,19,17
India,Bihar,Patna,"DRM Office Danapur, Patna - BSPCB",02-06-2024 12:00:00,25.586562,85.043586,SO2,1,7,2
India,Bihar,Patna,"Govt. High School Shikarpur, Patna - BSPCB",02-06-2024 12:00:00,25.592539,85.227158,PM2.5,25,75,46
India,Bihar,Patna,"Govt. High School Shikarpur, Patna - BSPCB",02-06-2024 12:00:00,25.592539,85.227158,PM10,53,122,84
India,Bihar,Patna,"Muradpur, Patna - BSPCB",02-06-2024 12:00:00,25.619651,85.147382,PM10,89,175,132
India,Bihar,Patna,"Muradpur, Patna - BSPCB",02-06-2024 12:00:00,25.619651,85.147382,OZONE,5,61,12
India,Bihar,Patna,"Samanpura, Patna - BSPCB",02-06-2024 12:00:00,25.596727,85.085624,NH3,7,15,10
India,Bihar,Siwan,"Chitragupta Nagar, Siwan - BSPCB",02-06-2024 12:00:00,26.2271665,84.3570427,PM10,NA,NA,NA
India,Bihar,Siwan,"Chitragupta Nagar, Siwan - BSPCB",02-06-2024 12:00:00,26.2271665,84.3570427,NO2,NA,NA,NA
India,Bihar,Siwan,"Chitragupta Nagar, Siwan - BSPCB",02-06-2024 12:00:00,26.2271665,84.3570427,NH3,NA,NA,NA
India,Chandigarh,Chandigarh,"Sector-25, Chandigarh - CPCC",02-06-2024 12:00:00,30.751462,76.762879,PM2.5,160,255,203
India,Chandigarh,Chandigarh,"Sector-25, Chandigarh - CPCC",02-06-2024 12:00:00,30.751462,76.762879,NH3,9,17,12
India,Chandigarh,Chandigarh,"Sector-53, Chandigarh - CPCC",02-06-2024 12:00:00,30.719859,76.738637,PM2.5,65,193,116
India,Chhattisgarh,Bhilai,"32Bungalows, Bhilai - CECB",02-06-2024 12:00:00,21.194815,81.314770,NO2,12,21,16
India,Chhattisgarh,Bhilai,"32Bungalows, Bhilai - CECB",02-06-2024 12:00:00,21.194815,81.314770,CO,12,34,25
India,Chhattisgarh,Bhilai,"Civic Center, Bhilai - Bhilai Steel Plant",02-06-2024 12:00:00,21.185571,81.343175,PM10,48,105,63
India,Chhattisgarh,Bhilai,"Civic Center, Bhilai - Bhilai Steel Plant",02-06-2024 12:00:00,21.185571,81.343175,SO2,8,12,10
India,Chhattisgarh,Bhilai,"Hathkhoj, Bhilai - CECB",02-06-2024 12:00:00,21.224231,81.408350,OZONE,25,51,34
India,Chhattisgarh,Bilaspur,"Mangala, Bilaspur - NTPC",02-06-2024 12:00:00,22.08815,82.13737,CO,32,38,33
India,Chhattisgarh,Chhal,"Nawapara SECL Colony, Chhal - CECB",02-06-2024 12:00:00,22.118125,83.140608,PM10,NA,NA,NA
India,Chhattisgarh,Chhal,"Nawapara SECL Colony, Chhal - CECB",02-06-2024 12:00:00,22.118125,83.140608,NO2,NA,NA,NA
India,Chhattisgarh,Korba,"Rampur, Korba - CECB",02-06-2024 12:00:00,22.368195,82.746431,NO2,23,91,37
India,Chhattisgarh,Korba,"Rampur, Korba - CECB",02-06-2024 12:00:00,22.368195,82.746431,NH3,1,2,2
India,Chhattisgarh,Korba,"Rampur, Korba - CECB",02-06-2024 12:00:00,22.368195,82.746431,SO2,9,68,23
India,Chhattisgarh,Kunjemura,"OP Jindal School, Kunjemura - CECB",02-06-2024 12:00:00,22.126650,83.483212,PM10,26,76,45
India,Chhattisgarh,Milupara,"Govt. Higher Secondary School, Milupara - CECB",02-06-2024 12:00:00,22.1910172,83.5197009,OZONE,14,49,20
India,Chhattisgarh,Raipur,"AIIMS, Raipur - CECB",02-06-2024 12:00:00,21.258815,81.578979,PM10,65,104,81
India,Chhattisgarh,Raipur,"AIIMS, Raipur - CECB",02-06-2024 12:00:00,21.258815,81.578979,OZONE,6,50,10
India,Chhattisgarh,Raipur,"Bhatagaon New ISBT, Raipur - CECB",02-06-2024 12:00:00,21.219665,81.630094,NH3,2,2,2
India,Chhattisgarh,Raipur,"Bhatagaon New ISBT, Raipur - CECB",02-06-2024 12:00:00,21.219665,81.630094,CO,16,34,22
India,Chhattisgarh,Raipur,"Krishak Nagar, Raipur - CECB",02-06-2024 12:00:00,21.237755,81.705301,PM10,34,109,57
India,Chhattisgarh,Raipur,"Krishak Nagar, Raipur - CECB",02-06-2024 12:00:00,21.237755,81.705301,OZONE,8,41,19
India,Chhattisgarh,Raipur,"Siltara Phase-II, Raipur - CECB",02-06-2024 12:00:00,21.371751,81.664929,NH3,3,3,3
India,Delhi,Delhi,"Alipur, Delhi - DPCC",02-06-2024 12:00:00,28.815329,77.153010,PM2.5,20,87,54
India,Delhi,Delhi,"Alipur, Delhi - DPCC",02-06-2024 12:00:00,28.815329,77.153010,NO2,4,49,17
India,Delhi,Delhi,"Anand Vihar, Delhi - DPCC",02-06-2024 12:00:00,28.647622,77.3158090,NH3,6,11,8
India,Delhi,Delhi,"Anand Vihar, Delhi - DPCC",02-06-2024 12:00:00,28.647622,77.3158090,SO2,3,48,19
India,Delhi,Delhi,"Ashok Vihar, Delhi - DPCC",02-06-2024 12:00:00,28.695381,77.181665,NH3,13,18,16
India,Delhi,Delhi,"Bawana, Delhi - DPCC",02-06-2024 12:00:00,28.776200,77.051074,PM2.5,60,273,99
India,Delhi,Delhi,"Bawana, Delhi - DPCC",02-06-2024 12:00:00,28.776200,77.051074,NO2,7,39,22
India,Delhi,Delhi,"Burari Crossing, Delhi - IMD",02-06-2024 12:00:00,28.7256504,77.2011573,PM2.5,NA,NA,NA
India,Delhi,Delhi,"CRRI Mathura Road, Delhi - IMD",02-06-2024 12:00:00,28.5512005,77.2735737,NO2,NA,NA,NA
India,Delhi,Delhi,"Chandni Chowk, Delhi - IITM",02-06-2024 12:00:00,28.656756,77.227234,PM10,129,469,184
India,Delhi,Delhi,"Chandni Chowk, Delhi - IITM",02-06-2024 12:00:00,28.656756,77.227234,CO,52,72,57
India,Delhi,Delhi,"DTU, Delhi - CPCB",02-06-2024 12:00:00,28.7500499,77.1112615,SO2,38,44,41
India,Delhi,Delhi,"Dr. Karni Singh Shooting Range, Delhi - DPCC",02-06-2024 12:00:00,28.498571,77.264840,PM2.5,52,177,92
India,Delhi,Delhi,"Dr. Karni Singh Shooting Range, Delhi - DPCC",02-06-2024 12:00:00,28.498571,77.264840,CO,22,49,28
India,Delhi,Delhi,"Dr. Karni Singh Shooting Range, Delhi - DPCC",02-06-2024 12:00:00,28.498571,77.264840,OZONE,28,221,221
India,Delhi,Delhi,"Dwarka-Sector 8, Delhi - DPCC ",02-06-2024 12:00:00,28.5710274,77.0719006,PM2.5,37,130,61
India,Delhi,Delhi,"IHBAS, Dilshad Garden, Delhi - CPCB",02-06-2024 12:00:00,28.6811736,77.3025234,PM10,87,361,140
India,Delhi,Delhi,"ITO, Delhi - CPCB",02-06-2024 12:00:00,28.628624,77.241060,PM2.5,75,388,135
India,Delhi,Delhi,"ITO, Delhi - CPCB",02-06-2024 12:00:00,28.628624,77.241060,PM10,54,368,105
India,Delhi,Delhi,"ITO, Delhi - CPCB",02-06-2024 12:00:00,28.628624,77.241060,SO2,NA,NA,NA
India,Delhi,Delhi,"ITO, Delhi - CPCB",02-06-2024 12:00:00,28.628624,77.241060,OZONE,2,76,20
India,Delhi,Delhi,"Jahangirpuri, Delhi - DPCC",02-06-2024 12:00:00,28.732820,77.170633,NH3,NA,NA,NA
India,Delhi,Delhi,"Jahangirpuri, Delhi - DPCC",02-06-2024 12:00:00,28.732820,77.170633,SO2,NA,NA,NA
India,Delhi,Delhi,"Jahangirpuri, Delhi - DPCC",02-06-2024 12:00:00,28.732820,77.170633,CO,NA,NA,NA
India,Delhi,Delhi,"Lodhi Road, Delhi - IITM",02-06-2024 12:00:00,28.588333,77.221667,PM2.5,48,316,107
India,Delhi,Delhi,"Lodhi Road, Delhi - IITM",02-06-2024 12:00:00,28.588333,77.221667,NO2,3,55,26
India,Delhi,Delhi,"Lodhi Road, Delhi - IITM",02-06-2024 12:00:00,28.588333,77.221667,SO2,12,36,20
India,Delhi,Delhi,"Major Dhyan Chand National Stadium, Delhi - DPCC",02-06-2024 12:00:00,28.611281,77.237738,OZONE,1,274,211
India,Delhi,Delhi,"Mandir Marg, Delhi - DPCC",02-06-2024 12:00:00,28.636429,77.201067,PM2.5,3,210,66
India,Delhi,Delhi,"Mandir Marg, Delhi - DPCC",02-06-2024 12:00:00,28.636429,77.201067,SO2,6,22,15
India,Delhi,Delhi,"Mundka, Delhi - DPCC",02-06-2024 12:00:00,28.684678,77.076574,CO,38,66,54
India,Delhi,Delhi,"NSIT Dwarka, Delhi - CPCB",02-06-2024 12:00:00,28.60909,77.0325413,NO2,45,61,55
India,Delhi,Delhi,"NSIT Dwarka, Delhi - CPCB",02-06-2024 12:00:00,28.60909,77.0325413,NH3,12,13,13
India,Delhi,Delhi,"NSIT Dwarka, Delhi - CPCB",02-06-2024 12:00:00,28.60909,77.0325413,CO,37,58,45
India,Delhi,Delhi,"Najafgarh, Delhi - DPCC",02-06-2024 12:00:00,28.570173,76.933762,SO2,9,22,18
India,Delhi,Delhi,"Narela, Delhi - DPCC",02-06-2024 12:00:00,28.822836,77.101981,PM2.5,48,93,66
India,Delhi,Delhi,"Nehru Nagar, Delhi - DPCC",02-06-2024 12:00:00,28.567890,77.250515,PM2.5,20,97,51
India,Delhi,Delhi,"North Campus, DU, Delhi - IMD",02-06-2024 12:00:00,28.6573814,77.1585447,PM10,96,462,176
India,Delhi,Delhi,"North Campus, DU, Delhi - IMD",02-06-2024 12:00:00,28.6573814,77.1585447,NO2,12,40,21
India,Delhi,Delhi,"North Campus, DU, Delhi - IMD",02-06-2024 12:00:00,28.6573814,77.1585447,OZONE,15,56,25
India,Delhi,Delhi,"Okhla Phase-2, Delhi - DPCC",02-06-2024 12:00:00,28.530785,77.271255,OZONE,12,157,33
India,Delhi,Delhi,"Patparganj, Delhi - DPCC",02-06-2024 12:00:00,28.623763,77.287209,PM10,119,299,177
India,Delhi,Delhi,"Patparganj, Delhi - DPCC",02-06-2024 12:00:00,28.623763,77.287209,CO,24,43,35
India,Delhi,Delhi,"Punjabi Bagh, Delhi - DPCC",02-06-2024 12:00:00,28.674045,77.131023,NH3,5,7,6
India,Delhi,Delhi,"Punjabi Bagh, Delhi - DPCC",02-06-2024 12:00:00,28.674045,77.131023,CO,36,50,44
India,Delhi,Delhi,"Pusa, Delhi - DPCC",02-06-2024 12:00:00,28.639652,77.146275,NH3,5,7,6
India,Delhi,Delhi,"Pusa, Delhi - DPCC",02-06-2024 12:00:00,28.639652,77.146275,CO,16,42,29
India,Delhi,Delhi,"Pusa, Delhi - IMD",02-06-2024 12:00:00,28.636110,77.173332,CO,68,84,82
India,Delhi,Delhi,"R K Puram, Delhi - DPCC",02-06-2024 12:00:00,28.563262,77.186937,PM2.5,50,223,91
India,Delhi,Delhi,"Rohini, Delhi - DPCC",02-06-2024 12:00:00,28.732528,77.119920,PM2.5,33,98,66
India,Delhi,Delhi,"Shadipur, Delhi - CPCB",02-06-2024 12:00:00,28.6514781,77.1473105,NO2,63,253,125
India,Delhi,Delhi,"Shadipur, Delhi - CPCB",02-06-2024 12:00:00,28.6514781,77.1473105,OZONE,15,50,22
India,Delhi,Delhi,"Sirifort, Delhi - CPCB",02-06-2024 12:00:00,28.5504249,77.2159377,PM10,92,472,154
India,Delhi,Delhi,"Sirifort, Delhi - CPCB",02-06-2024 12:00:00,28.5504249,77.2159377,SO2,41,46,43
India,Delhi,Delhi,"Sirifort, Delhi - CPCB",02-06-2024 12:00:00,28.5504249,77.2159377,CO,10,22,16
India,Delhi,Delhi,"Sonia Vihar, Delhi - DPCC",02-06-2024 12:00:00,28.710508,77.249485,SO2,9,37,17
India,Delhi,Delhi,"Vivek Vihar, Delhi - DPCC",02-06-2024 12:00:00,28.672342,77.315260,CO,60,80,66
India,Delhi,Delhi,"Vivek Vihar, Delhi - DPCC",02-06-2024 12:00:00,28.672342,77.315260,OZONE,4,136,42
India,Gujarat,Ahmedabad,"Chandkheda, Ahmedabad - IITM",02-06-2024 12:00:00,23.107969,72.574648,PM2.5,50,92,67
India,Gujarat,Ahmedabad,"Chandkheda, Ahmedabad - IITM",02-06-2024 12:00:00,23.107969,72.574648,CO,27,28,28
India,Gujarat,Ahmedabad,"Maninagar, Ahmedabad - GPCB",02-06-2024 12:00:00,23.002657,72.591912,PM2.5,2,82,40
India,Gujarat,Ahmedabad,"Sardar Vallabhbhai Patel Stadium, Ahmedabad - IITM",02-06-2024 12:00:00,23.043070,72.562968,PM2.5,56,99,72
India,Gujarat,Ahmedabad,"Sardar Vallabhbhai Patel Stadium, Ahmedabad - IITM",02-06-2024 12:00:00,23.043070,72.562968,NH3,6,6,6
India,Gujarat,Gandhinagar,"GIFT City, Gandhinagar - IITM",02-06-2024 12:00:00,23.163798,72.677768,NO2,NA,NA,NA
India,Gujarat,Gandhinagar,"GIFT City, Gandhinagar - IITM",02-06-2024 12:00:00,23.163798,72.677768,CO,32,40,34
India,Gujarat,Gandhinagar,"Sector-10, Gandhinagar - GPCB",02-06-2024 12:00:00,23.221714,72.654328,PM10,NA,NA,NA
India,Gujarat,Gandhinagar,"Sector-10, Gandhinagar - GPCB",02-06-2024 12:00:00,23.221714,72.654328,SO2,4,4,4
India,Gujarat,Gandhinagar,"Sector-10, Gandhinagar - GPCB",02-06-2024 12:00:00,23.221714,72.654328,CO,9,20,14
India,Gujarat,Vapi,"Phase-1 GIDC, Vapi - GPCB",02-06-2024 12:00:00,20.362421,72.918013,PM2.5,NA,NA,NA
India,Gujarat,Vatva,"Phase-4 GIDC, Vatva - GPCB",02-06-2024 12:00:00,22.969611,72.643500,NO2,24,91,43
India,Haryana,Ambala,"Patti Mehar, Ambala - HSPCB",02-06-2024 12:00:00,30.379589,76.778328,PM10,69,110,85
India,Haryana,Bahadurgarh,"Arya Nagar, Bahadurgarh - HSPCB",02-06-2024 12:00:00,28.6701,76.9254,NO2,20,28,23
India,Haryana,Ballabgarh,"Nathu Colony, Ballabgarh - HSPCB",02-06-2024 12:00:00,28.3419248,77.319699,NH3,1,2,2
India,Haryana,Ballabgarh,"Nathu Colony, Ballabgarh - HSPCB",02-06-2024 12:00:00,28.3419248,77.319699,OZONE,16,40,23
India,Haryana,Charkhi Dadri,"Mini Secretariat, Charkhi Dadri - HSPCB",02-06-2024 12:00:00,28.593883,76.270653,PM2.5,57,198,102
India,Haryana,Charkhi Dadri,"Mini Secretariat, Charkhi Dadri - HSPCB",02-06-2024 12:00:00,28.593883,76.270653,SO2,1,38,21
India,Haryana,Charkhi Dadri,"Mini Secretariat, Charkhi Dadri - HSPCB",02-06-2024 12:00:00,28.593883,76.270653,OZONE,13,17,15
India,Haryana,Dharuhera,"Municipal Corporation Office, Dharuhera -  HSPCB",02-06-2024 12:00:00,28.206800,76.799700,CO,14,116,19
India,Haryana,Faridabad,"New Industrial Town, Faridabad - HSPCB",02-06-2024 12:00:00,28.39072,77.30059,NO2,NA,NA,NA
India,Haryana,Faridabad,"New Industrial Town, Faridabad - HSPCB",02-06-2024 12:00:00,28.39072,77.30059,NH3,NA,NA,NA
India,Haryana,Faridabad,"Sector 30, Faridabad - HSPCB",02-06-2024 12:00:00,28.4417,77.3217,NO2,NA,NA,NA
India,Haryana,Faridabad,"Sector 30, Faridabad - HSPCB",02-06-2024 12:00:00,28.4417,77.3217,SO2,NA,NA,NA
India,Haryana,Faridabad,"Sector- 16A, Faridabad - HSPCB",02-06-2024 12:00:00,28.4088421,77.3099081,PM2.5,NA,NA,NA
India,Haryana,Faridabad,"Sector- 16A, Faridabad - HSPCB",02-06-2024 12:00:00,28.4088421,77.3099081,SO2,NA,NA,NA
India,Haryana,Faridabad,"Sector- 16A, Faridabad - HSPCB",02-06-2024 12:00:00,28.4088421,77.3099081,CO,NA,NA,NA
India,Haryana,Fatehabad,"Huda Sector, Fatehabad - HSPCB",02-06-2024 12:00:00,29.503664,75.467934,NH3,9,11,10
India,Haryana,Fatehabad,"Huda Sector, Fatehabad - HSPCB",02-06-2024 12:00:00,29.503664,75.467934,SO2,1,15,7
India,Haryana,Gurugram,"NISE Gwal Pahari, Gurugram - IMD",02-06-2024 12:00:00,28.422681,77.148944,PM10,NA,NA,NA
India,Haryana,Gurugram,"NISE Gwal Pahari, Gurugram - IMD",02-06-2024 12:00:00,28.422681,77.148944,CO,108,110,109
India,Haryana,Gurugram,"NISE Gwal Pahari, Gurugram - IMD",02-06-2024 12:00:00,28.422681,77.148944,OZONE,8,58,13
India,Haryana,Gurugram,"Sector-51, Gurugram - HSPCB",02-06-2024 12:00:00,28.4227,77.0667,PM2.5,66,127,86
India,Haryana,Gurugram,"Sector-51, Gurugram - HSPCB",02-06-2024 12:00:00,28.4227,77.0667,NO2,13,29,22
India,Haryana,Gurugram,"Sector-51, Gurugram - HSPCB",02-06-2024 12:00:00,28.4227,77.0667,CO,31,42,36
India,Haryana,Gurugram,"Teri Gram, Gurugram - HSPCB",02-06-2024 12:00:00,28.4275,77.1465,PM2.5,NA,NA,NA
India,Haryana,Gurugram,"Teri Gram, Gurugram - HSPCB",02-06-2024 12:00:00,28.4275,77.1465,CO,4,30,13
India,Haryana,Gurugram,"Vikas Sadan, Gurugram - HSPCB",02-06-2024 12:00:00,28.4501238,77.0263051,NO2,7,25,17
India,Haryana,Jind,"Police Lines, Jind - HSPCB",02-06-2024 12:00:00,29.307814,76.337619,NO2,NA,NA,NA
India,Haryana,Kaithal,"Rishi Nagar, Kaithal - HSPCB",02-06-2024 12:00:00,29.8006,76.4155,OZONE,13,28,19
India,Haryana,Karnal,"Sector-12, Karnal - HSPCB",02-06-2024 12:00:00,29.695300,77.002700,NH3,10,13,11
India,Haryana,Karnal,"Sector-12, Karnal - HSPCB",02-06-2024 12:00:00,29.695300,77.002700,SO2,12,13,12
India,Haryana,Kurukshetra,"Sector-7, Kurukshetra - HSPCB",02-06-2024 12:00:00,29.966942,76.875879,CO,2,29,20
India,Haryana,Narnaul,"Shastri Nagar, Narnaul - HSPCB",02-06-2024 12:00:00,28.060249,76.113115,PM2.5,NA,NA,NA
India,Haryana,Narnaul,"Shastri Nagar, Narnaul - HSPCB",02-06-2024 12:00:00,28.060249,76.113115,CO,11,23,18
India,Haryana,Narnaul,"Shastri Nagar, Narnaul - HSPCB",02-06-2024 12:00:00,28.060249,76.113115,OZONE,33,49,47
India,Haryana,Palwal,"Shyam Nagar, Palwal - HSPCB",02-06-2024 12:00:00,28.1485564,77.3320667,CO,14,32,26
India,Haryana,Panipat,"Sector-18, Panipat - HSPCB",02-06-2024 12:00:00,29.432304,76.972765,NH3,2,3,2
India,Haryana,Panipat,"Sector-18, Panipat - HSPCB",02-06-2024 12:00:00,29.432304,76.972765,CO,24,26,25
India,Haryana,Rohtak,"MD University, Rohtak - HSPCB",02-06-2024 12:00:00,28.52123,76.37138,PM2.5,45,355,165
India,Himachal Pradesh,Baddi,"HIMUDA Complex Phase-1, Baddi - HPPCB",02-06-2024 12:00:00,30.943887,76.801991,NH3,4,7,6
India,Jammu_and_Kashmir,Srinagar,"Rajbagh, Srinagar - JKSPCB",02-06-2024 12:00:00,34.066206,74.819820,PM2.5,NA,NA,NA
India,Jammu_and_Kashmir,Srinagar,"Rajbagh, Srinagar - JKSPCB",02-06-2024 12:00:00,34.066206,74.819820,CO,20,25,21
India,Jammu_and_Kashmir,Srinagar,"Rajbagh, Srinagar - JKSPCB",02-06-2024 12:00:00,34.066206,74.819820,OZONE,6,29,7
India,Jharkhand,Dhanbad,"Sardar Patel Nagar, Dhanbad - JSPCB",02-06-2024 12:00:00,23.80569,86.44268,NO2,NA,NA,NA
India,Karnataka,Bagalkot,"Vidayagiri, Bagalkot - KSPCB",02-06-2024 12:00:00,16.172806,75.659694,PM2.5,19,37,36
India,Karnataka,Belgaum,"Ramteerth Nagar, Belgaum - KSPCB",02-06-2024 12:00:00,15.888653,74.541751,PM2.5,10,18,14
India,Karnataka,Belgaum,"Ramteerth Nagar, Belgaum - KSPCB",02-06-2024 12:00:00,15.888653,74.541751,PM10,20,35,27
India,Karnataka,Belgaum,"Ramteerth Nagar, Belgaum - KSPCB",02-06-2024 12:00:00,15.888653,74.541751,NH3,6,10,8
India,Karnataka,Belgaum,"Ramteerth Nagar, Belgaum - KSPCB",02-06-2024 12:00:00,15.888653,74.541751,SO2,9,9,9
India,Karnataka,Belgaum,"Ramteerth Nagar, Belgaum - KSPCB",02-06-2024 12:00:00,15.888653,74.541751,CO,34,59,52
India,Karnataka,Bengaluru,"Bapuji Nagar, Bengaluru - KSPCB",02-06-2024 12:00:00,12.951913,77.539784,OZONE,23,32,26
India,Karnataka,Bengaluru,"Hebbal, Bengaluru - KSPCB",02-06-2024 12:00:00,13.029152,77.585901,PM2.5,5,50,18
India,Karnataka,Bengaluru,"Hebbal, Bengaluru - KSPCB",02-06-2024 12:00:00,13.029152,77.585901,PM10,12,68,32
India,Karnataka,Bengaluru,"Hebbal, Bengaluru - KSPCB",02-06-2024 12:00:00,13.029152,77.585901,NH3,1,1,1
India,Karnataka,Bengaluru,"Hebbal, Bengaluru - KSPCB",02-06-2024 12:00:00,13.029152,77.585901,OZONE,7,89,17
India,Karnataka,Bengaluru,"Hombegowda Nagar, Bengaluru - KSPCB",02-06-2024 12:00:00,12.938539,77.590100,PM10,11,66,32
India,Karnataka,Bengaluru,"Hombegowda Nagar, Bengaluru - KSPCB",02-06-2024 12:00:00,12.938539,77.590100,SO2,2,4,3
India,Karnataka,Bengaluru,"Jigani, Bengaluru - KSPCB",02-06-2024 12:00:00,12.7816279,77.6299145,PM2.5,NA,NA,NA
India,Karnataka,Bengaluru,"Jigani, Bengaluru - KSPCB",02-06-2024 12:00:00,12.7816279,77.6299145,SO2,NA,NA,NA
India,Karnataka,Bengaluru,"Jigani, Bengaluru - KSPCB",02-06-2024 12:00:00,12.7816279,77.6299145,OZONE,22,52,32
India,Karnataka,Bengaluru,"Peenya, Bengaluru - CPCB",02-06-2024 12:00:00,13.0270199,77.494094,PM10,42,55,49
India,Karnataka,Bengaluru,"RVCE-Mailasandra, Bengaluru - KSPCB",02-06-2024 12:00:00,12.921418,77.502466,NO2,16,17,17
India,Karnataka,Bengaluru,"RVCE-Mailasandra, Bengaluru - KSPCB",02-06-2024 12:00:00,12.921418,77.502466,SO2,7,8,8
India,Karnataka,Bengaluru,"RVCE-Mailasandra, Bengaluru - KSPCB",02-06-2024 12:00:00,12.921418,77.502466,CO,26,56,36
India,Karnataka,Bengaluru,"RVCE-Mailasandra, Bengaluru - KSPCB",02-06-2024 12:00:00,12.921418,77.502466,OZONE,39,39,39
India,Karnataka,Bengaluru,"Sanegurava Halli, Bengaluru - KSPCB",02-06-2024 12:00:00,12.990328,77.5431385,PM10,35,83,44
India,Karnataka,Bengaluru,"Shivapura_Peenya, Bengaluru - KSPCB",02-06-2024 12:00:00,13.0246342,77.5080115,SO2,2,8,4
India,Karnataka,Bengaluru,"Silk Board, Bengaluru - KSPCB",02-06-2024 12:00:00,12.917348,77.622813,PM10,23,142,62
India,Karnataka,Bengaluru,"Silk Board, Bengaluru - KSPCB",02-06-2024 12:00:00,12.917348,77.622813,SO2,2,12,7
India,Karnataka,Bidar,"Naubad, Bidar - KSPCB",02-06-2024 12:00:00,17.930306,77.482194,NH3,NA,NA,NA
India,Karnataka,Chikkaballapur,"Chikkaballapur Rural, Chikkaballapur - KSPCB",02-06-2024 12:00:00,13.428828,77.731418,PM2.5,9,52,26
India,Karnataka,Chikkamagaluru,"Kalyana Nagara, Chikkamagaluru - KSPCB",02-06-2024 12:00:00,13.328028,75.797056,OZONE,20,35,20
India,Karnataka,Davanagere,"Devaraj Urs Badavane, Davanagere - KSPCB",02-06-2024 12:00:00,14.475800,75.905200,PM10,24,69,42
India,Karnataka,Davanagere,"Devaraj Urs Badavane, Davanagere - KSPCB",02-06-2024 12:00:00,14.475800,75.905200,NO2,10,15,12
India,Karnataka,Davanagere,"Devaraj Urs Badavane, Davanagere - KSPCB",02-06-2024 12:00:00,14.475800,75.905200,CO,19,20,20
India,Karnataka,Gadag,"Panchal Nagar, Gadag - KSPCB",02-06-2024 12:00:00,15.411456,75.638133,NH3,1,3,2
India,Karnataka,Gadag,"Panchal Nagar, Gadag - KSPCB",02-06-2024 12:00:00,15.411456,75.638133,SO2,9,19,13
India,Karnataka,Haveri,"Ashwini Nagar, Haveri - KSPCB",02-06-2024 12:00:00,14.791800,75.389600,PM2.5,16,85,48
India,Karnataka,Haveri,"Ashwini Nagar, Haveri - KSPCB",02-06-2024 12:00:00,14.791800,75.389600,NO2,NA,NA,NA
India,Karnataka,Haveri,"Ashwini Nagar, Haveri - KSPCB",02-06-2024 12:00:00,14.791800,75.389600,NH3,NA,NA,NA
India,Karnataka,Hubballi,"Lingaraj Nagar, Hubballi - KSPCB",02-06-2024 12:00:00,15.3714823,75.1160168,PM2.5,26,72,40
India,Karnataka,Hubballi,"Lingaraj Nagar, Hubballi - KSPCB",02-06-2024 12:00:00,15.3714823,75.1160168,OZONE,8,40,13
India,Karnataka,Kalaburagi,"Lal Bahadur Shastri Nagar, Kalaburagi - KSPCB",02-06-2024 12:00:00,17.321993,76.822628,PM2.5,NA,NA,NA
India,Karnataka,Kalaburagi,"Lal Bahadur Shastri Nagar, Kalaburagi - KSPCB",02-06-2024 12:00:00,17.321993,76.822628,NH3,2,2,2
India,Karnataka,Kalaburagi,"Lal Bahadur Shastri Nagar, Kalaburagi - KSPCB",02-06-2024 12:00:00,17.321993,76.822628,CO,44,46,44
India,Karnataka,Kolar,"Tamaka Ind. Area, Kolar - KSPCB",02-06-2024 12:00:00,13.1276288,78.1570122,NH3,NA,NA,NA
India,Karnataka,Madikeri,"Stuart Hill, Madikeri - KSPCB",02-06-2024 12:00:00,12.415911,75.735050,SO2,4,4,4
India,Karnataka,Mangalore,"Kadri, Mangalore - KSPCB",02-06-2024 12:00:00,12.889250,74.853000,PM10,NA,NA,NA
India,Karnataka,Mangalore,"Kadri, Mangalore - KSPCB",02-06-2024 12:00:00,12.889250,74.853000,NO2,NA,NA,NA
India,Karnataka,Mysuru,"Hebbal 1st Stage, Mysuru - KSPCB",02-06-2024 12:00:00,12.21041,76.37376,PM2.5,9,56,22
India,Karnataka,Mysuru,"Hebbal 1st Stage, Mysuru - KSPCB",02-06-2024 12:00:00,12.21041,76.37376,PM10,21,68,39
India,Karnataka,Raichur,"Haji Colony, Raichur - KSPCB",02-06-2024 12:00:00,16.208139,77.348417,NH3,2,4,3
India,Karnataka,Ramanagara,"Vijay Nagar, Ramanagara - KSPCB",02-06-2024 12:00:00,12.733409,77.298051,NO2,8,45,14
India,Karnataka,Ramanagara,"Vijay Nagar, Ramanagara - KSPCB",02-06-2024 12:00:00,12.733409,77.298051,CO,12,42,28
India,Karnataka,Udupi,"Brahmagiri, Udupi - KSPCB",02-06-2024 12:00:00,13.34194444,74.74694444,CO,50,53,52
India,Karnataka,Yadgir,"Collector Office, Yadgir - KSPCB",02-06-2024 12:00:00,16.7602,77.1428,PM10,46,105,67
India,Karnataka,Yadgir,"Collector Office, Yadgir - KSPCB",02-06-2024 12:00:00,16.7602,77.1428,NO2,7,21,13
India,Karnataka,Yadgir,"Collector Office, Yadgir - KSPCB",02-06-2024 12:00:00,16.7602,77.1428,SO2,5,52,20
India,Kerala,Kollam,"Polayathode, Kollam - Kerala PCB",02-06-2024 12:00:00,8.8787,76.6073,PM10,NA,NA,NA
India,Kerala,Thiruvananthapuram,"Kariavattom, Thiruvananthapuram - Kerala PCB",02-06-2024 12:00:00,8.563700,76.886500,NO2,6,7,6
India,Kerala,Thiruvananthapuram,"Kariavattom, Thiruvananthapuram - Kerala PCB",02-06-2024 12:00:00,8.563700,76.886500,CO,18,32,21
India,Kerala,Thiruvananthapuram,"Plammoodu, Thiruvananthapuram - Kerala PCB",02-06-2024 12:00:00,8.5149093,76.9435879,NO2,8,11,9
India,Kerala,Thiruvananthapuram,"Plammoodu, Thiruvananthapuram - Kerala PCB",02-06-2024 12:00:00,8.5149093,76.9435879,SO2,5,12,9
India,Kerala,Thiruvananthapuram,"Plammoodu, Thiruvananthapuram - Kerala PCB",02-06-2024 12:00:00,8.5149093,76.9435879,CO,11,26,20
India,Kerala,Thiruvananthapuram,"Plammoodu, Thiruvananthapuram - Kerala PCB",02-06-2024 12:00:00,8.5149093,76.9435879,OZONE,5,25,16
India,Kerala,Thrissur,"Corporation Ground, Thrissur - Kerala PCB",02-06-2024 12:00:00,10.532400,76.215900,CO,14,103,50
India,Madhya Pradesh,Bhopal,"Idgah Hills, Bhopal - MPPCB",02-06-2024 12:00:00,23.264759,77.381568,NO2,15,31,19
India,Madhya Pradesh,Bhopal,"T T Nagar, Bhopal - MPPCB",02-06-2024 12:00:00,23.233584,77.400574,PM10,72,106,92
India,Madhya Pradesh,Bhopal,"T T Nagar, Bhopal - MPPCB",02-06-2024 12:00:00,23.233584,77.400574,NO2,17,66,25
India,Madhya Pradesh,Gwalior,"City Center, Gwalior - MPPCB",02-06-2024 12:00:00,26.203442,78.193251,PM2.5,18,72,50
India,Madhya Pradesh,Gwalior,"Deen Dayal Nagar, Gwalior - MPPCB",02-06-2024 12:00:00,26.259242,78.216432,CO,46,72,64
India,Madhya Pradesh,Gwalior,"Maharaj Bada, Gwalior - MPPCB",02-06-2024 12:00:00,26.200388,78.147714,PM2.5,NA,NA,NA
India,Madhya Pradesh,Gwalior,"Maharaj Bada, Gwalior - MPPCB",02-06-2024 12:00:00,26.200388,78.147714,NH3,3,5,4
India,Madhya Pradesh,Gwalior,"Maharaj Bada, Gwalior - MPPCB",02-06-2024 12:00:00,26.200388,78.147714,OZONE,71,300,96
India,Madhya Pradesh,Gwalior,"Phool Bagh, Gwalior - Mondelez Ind. Food",02-06-2024 12:00:00,26.210536,78.171,SO2,23,30,27
India,Madhya Pradesh,Indore,"Chhoti Gwaltoli, Indore - MPPCB",02-06-2024 12:00:00,22.4310,75.5213,NO2,35,57,42
India,Madhya Pradesh,Indore,"Chhoti Gwaltoli, Indore - MPPCB",02-06-2024 12:00:00,22.4310,75.5213,OZONE,25,70,36
India,Madhya Pradesh,Indore,"Residency Area, Indore - IMC",02-06-2024 12:00:00,22.7084,75.8815,PM10,45,63,54
India,Madhya Pradesh,Indore,"Residency Area, Indore - IMC",02-06-2024 12:00:00,22.7084,75.8815,NH3,NA,NA,NA
India,Madhya Pradesh,Jabalpur,"Govindh Bhavan Colony, Jabalpur - JMC",02-06-2024 12:00:00,23.163174,79.973061,PM10,82,129,105
India,Madhya Pradesh,Jabalpur,"Govindh Bhavan Colony, Jabalpur - JMC",02-06-2024 12:00:00,23.163174,79.973061,NO2,3,48,16
India,Madhya Pradesh,Jabalpur,"Govindh Bhavan Colony, Jabalpur - JMC",02-06-2024 12:00:00,23.163174,79.973061,SO2,11,17,14
India,Madhya Pradesh,Jabalpur,"Marhatal, Jabalpur - MPPCB",02-06-2024 12:00:00,23.168606,79.932247,SO2,16,23,18
India,Madhya Pradesh,Jabalpur,"Suhagi, Jabalpur - JMC",02-06-2024 12:00:00,23.218135,79.957770,NO2,40,45,42
India,Madhya Pradesh,Jabalpur,"Suhagi, Jabalpur - JMC",02-06-2024 12:00:00,23.218135,79.957770,NH3,2,2,2
India,Madhya Pradesh,Katni,"Gole Bazar, Katni - MPPCB",02-06-2024 12:00:00,23.50016,80.23284,NO2,27,46,38
India,Madhya Pradesh,Katni,"Gole Bazar, Katni - MPPCB",02-06-2024 12:00:00,23.50016,80.23284,NH3,3,5,4
India,Madhya Pradesh,Katni,"Gole Bazar, Katni - MPPCB",02-06-2024 12:00:00,23.50016,80.23284,OZONE,29,150,62
India,Madhya Pradesh,Pithampur,"Sector-2 Industrial Area, Pithampur - MPPCB",02-06-2024 12:00:00,22.624758,75.675238,NO2,3,19,12
India,Madhya Pradesh,Sagar,"Civil Lines, Sagar - MPPCB",02-06-2024 12:00:00,23.838586,78.759431,NO2,6,25,11
India,Madhya Pradesh,Sagar,"Deen Dayal Nagar, Sagar - MPPCB",02-06-2024 12:00:00,23.8640158,78.80289321,NO2,20,24,23
India,Madhya Pradesh,Sagar,"Deen Dayal Nagar, Sagar - MPPCB",02-06-2024 12:00:00,23.8640158,78.80289321,CO,46,64,60
India,Madhya Pradesh,Singrauli,"Suryakiran Bhawan NCL, Singrauli - MPPCB",02-06-2024 12:00:00,24.108970,82.645580,NO2,NA,NA,NA
India,Madhya Pradesh,Ujjain,"Mahakaleshwar Temple, Ujjain - MPPCB",02-06-2024 12:00:00,23.182719 ,75.768218 ,CO,14,33,21
India,Maharashtra,Ahmednagar,"Tarakpur, Ahmednagar - MPCB",02-06-2024 12:00:00,19.10122,74.73339,NH3,6,9,7
India,Maharashtra,Ahmednagar,"Tarakpur, Ahmednagar - MPCB",02-06-2024 12:00:00,19.10122,74.73339,CO,32,45,37
India,Maharashtra,Akola,"Ramdaspeth, Akola - MPCB",02-06-2024 12:00:00,20.719516,77.000253,NO2,9,22,12
India,Maharashtra,Amravati,"Shri Shivaji Science College, Amaravati - MPCB",02-06-2024 12:00:00,20.939198,77.765701,OZONE,17,65,32
India,Maharashtra,Aurangabad,"MIDC Chilkalthana, Aurangabad - MPCB",02-06-2024 12:00:00,19.875620,75.387310,NO2,NA,NA,NA
India,Maharashtra,Aurangabad,"MIDC Chilkalthana, Aurangabad - MPCB",02-06-2024 12:00:00,19.875620,75.387310,CO,42,60,53
India,Maharashtra,Aurangabad,"More Chowk Waluj, Aurangabad - MPCB",02-06-2024 12:00:00,19.8389439,75.244448,NO2,40,48,43
India,Maharashtra,Aurangabad,"More Chowk Waluj, Aurangabad - MPCB",02-06-2024 12:00:00,19.8389439,75.244448,SO2,1,16,5
India,Maharashtra,Aurangabad,"More Chowk Waluj, Aurangabad - MPCB",02-06-2024 12:00:00,19.8389439,75.244448,CO,1,136,22
India,Maharashtra,Aurangabad,"Rachnakar Colony, Aurangabad - MPCB",02-06-2024 12:00:00,19.863756,75.321188,NH3,2,3,2
India,Maharashtra,Badlapur,"Katrap, Badlapur - MPCB",02-06-2024 12:00:00,19.16485,73.23409,SO2,12,22,19
India,Maharashtra,Belapur,"CBD Belapur, Belapur - MPCB",02-06-2024 12:00:00,19.0243902,73.0406721,OZONE,12,58,21
India,Maharashtra,Bhiwandi,"Gokul Nagar, Bhiwandi - MPCB",02-06-2024 12:00:00,19.309073,73.057223,OZONE,17,99,26
India,Maharashtra,Boisar,"Khaira, Boisar - MPCB",02-06-2024 12:00:00,19.786089,72.757971,PM2.5,1,143,43
India,Maharashtra,Chandrapur,"Chauhan Colony, Chandrapur - MPCB",02-06-2024 12:00:00,19.962900,79.298714,PM10,86,144,109
India,Maharashtra,Chandrapur,"Chauhan Colony, Chandrapur - MPCB",02-06-2024 12:00:00,19.962900,79.298714,CO,24,40,26
India,Maharashtra,Chandrapur,"MIDC Khutala, Chandrapur - MPCB",02-06-2024 12:00:00,19.9775302,79.2337086,PM2.5,32,77,57
India,Maharashtra,Chandrapur,"MIDC Khutala, Chandrapur - MPCB",02-06-2024 12:00:00,19.9775302,79.2337086,NH3,6,15,11
India,Maharashtra,Chandrapur,"MIDC Khutala, Chandrapur - MPCB",02-06-2024 12:00:00,19.9775302,79.2337086,CO,14,80,52
India,Maharashtra,Dhule,"Deopur, Dhule - MPCB",02-06-2024 12:00:00,20.918946,74.776388,CO,12,30,27
India,Maharashtra,Dhule,"Deopur, Dhule - MPCB",02-06-2024 12:00:00,20.918946,74.776388,OZONE,22,78,36
India,Maharashtra,Jalgaon,"Prabhat Colony, Jalgaon - MPCB",02-06-2024 12:00:00,21.001264,75.565602,OZONE,7,150,12
India,Maharashtra,Kalyan,"Khadakpada, Kalyan - MPCB",02-06-2024 12:00:00,19.25292,73.142019,PM2.5,NA,NA,NA
India,Maharashtra,Kalyan,"Khadakpada, Kalyan - MPCB",02-06-2024 12:00:00,19.25292,73.142019,NH3,NA,NA,NA
India,Maharashtra,Kolhapur,"Shivaji University, Kolhapur - MPCB",02-06-2024 12:00:00,16.6870449,74.2505872,PM2.5,38,80,56
India,Maharashtra,Kolhapur,"Sinchan Bhavan, Kolhapur - MPCB",02-06-2024 12:00:00,16.7143745,74.2426398,NO2,4,10,6
India,Maharashtra,Kolhapur,"Sinchan Bhavan, Kolhapur - MPCB",02-06-2024 12:00:00,16.7143745,74.2426398,NH3,7,8,7
India,Maharashtra,Latur,"Sawe Wadi, Latur - MPCB",02-06-2024 12:00:00,18.39963,76.57452,NO2,6,23,13
India,Maharashtra,Mira-Bhayandar,"Bhayandar West, Mira-Bhayandar - MPCB",02-06-2024 12:00:00,19.296481,72.840923,NO2,16,27,19
India,Maharashtra,Mira-Bhayandar,"Bhayandar West, Mira-Bhayandar - MPCB",02-06-2024 12:00:00,19.296481,72.840923,NH3,4,4,4
India,Maharashtra,Mumbai,"Bandra Kurla Complex, Mumbai - MPCB",02-06-2024 12:00:00,19.065931,72.862131,PM10,65,98,82
India,Maharashtra,Mumbai,"Byculla, Mumbai - BMC",02-06-2024 12:00:00,18.9767,72.8380,PM10,15,36,24
India,Maharashtra,Mumbai,"Byculla, Mumbai - BMC",02-06-2024 12:00:00,18.9767,72.8380,OZONE,18,29,23
India,Maharashtra,Mumbai,"Chakala-Andheri East, Mumbai - IITM",02-06-2024 12:00:00,19.11074,72.86084,NO2,27,34,30
India,Maharashtra,Mumbai,"Chakala-Andheri East, Mumbai - IITM",02-06-2024 12:00:00,19.11074,72.86084,OZONE,14,32,22
India,Maharashtra,Mumbai,"Chembur, Mumbai - MPCB",02-06-2024 12:00:00,19.0364585,72.8954371,PM2.5,16,53,29
India,Maharashtra,Mumbai,"Chembur, Mumbai - MPCB",02-06-2024 12:00:00,19.0364585,72.8954371,NH3,6,9,7
India,Maharashtra,Mumbai,"Colaba, Mumbai - MPCB",02-06-2024 12:00:00,18.910000,72.820000,PM10,44,72,55
India,Maharashtra,Mumbai,"Deonar, Mumbai - IITM",02-06-2024 12:00:00,19.04946,72.9230,SO2,NA,NA,NA
India,Maharashtra,Mumbai,"Kandivali East, Mumbai - MPCB",02-06-2024 12:00:00,19.205800,72.868200,PM10,38,133,70
India,Maharashtra,Mumbai,"Kandivali East, Mumbai - MPCB",02-06-2024 12:00:00,19.205800,72.868200,NH3,3,8,5
India,Maharashtra,Mumbai,"Kandivali East, Mumbai - MPCB",02-06-2024 12:00:00,19.205800,72.868200,OZONE,25,31,30
India,Maharashtra,Mumbai,"Kandivali West, Mumbai - BMC",02-06-2024 12:00:00,19.215859,72.831718,PM2.5,7,23,12
India,Maharashtra,Mumbai,"Kherwadi_Bandra East, Mumbai - MPCB",02-06-2024 12:00:00,19.0632143,72.8456324,OZONE,NA,NA,NA
India,Maharashtra,Mumbai,"Khindipada-Bhandup West, Mumbai - IITM",02-06-2024 12:00:00,19.1653323,72.922099,NH3,8,12,10
India,Maharashtra,Mumbai,"Kurla, Mumbai - MPCB",02-06-2024 12:00:00,19.0863,72.8888,PM10,79,100,91
India,Maharashtra,Mumbai,"Kurla, Mumbai - MPCB",02-06-2024 12:00:00,19.0863,72.8888,OZONE,27,28,28
India,Maharashtra,Mumbai,"Navy Nagar-Colaba, Mumbai - IITM",02-06-2024 12:00:00,18.897756,72.813320,SO2,2,11,5
India,Maharashtra,Mumbai,"Powai, Mumbai - MPCB",02-06-2024 12:00:00,19.137500,72.915056,PM2.5,15,37,20
India,Maharashtra,Mumbai,"Powai, Mumbai - MPCB",02-06-2024 12:00:00,19.137500,72.915056,NH3,2,3,2
India,Maharashtra,Mumbai,"Siddharth Nagar-Worli, Mumbai - IITM",02-06-2024 12:00:00,19.000083,72.813993,NH3,4,5,4
India,Maharashtra,Mumbai,"Sion, Mumbai - MPCB",02-06-2024 12:00:00,19.047000,72.874600,PM2.5,15,43,28
India,Maharashtra,Mumbai,"Vile Parle West, Mumbai - MPCB",02-06-2024 12:00:00,19.10861,72.83622,NO2,6,8,7
India,Maharashtra,Mumbai,"Worli, Mumbai - MPCB",02-06-2024 12:00:00,18.9936162,72.8128113,NO2,13,13,13
India,Maharashtra,Mumbai,"Worli, Mumbai - MPCB",02-06-2024 12:00:00,18.9936162,72.8128113,OZONE,4,9,6
India,Maharashtra,Nagpur,"Mahal, Nagpur - MPCB",02-06-2024 12:00:00,21.14472,79.107595,OZONE,13,137,46
India,Maharashtra,Nagpur,"Opp GPO Civil Lines, Nagpur - MPCB",02-06-2024 12:00:00,21.152875,79.0517531,NH3,2,6,4
India,Maharashtra,Nanded,"Sneh Nagar, Nanded - MPCB",02-06-2024 12:00:00,19.173852,77.296291,NH3,1,2,2
India,Maharashtra,Nashik,"Gangapur Road, Nashik - MPCB",02-06-2024 12:00:00,20.0073285,73.7762427,PM2.5,NA,NA,NA
India,Maharashtra,Nashik,"Hirawadi, Nashik - MPCB",02-06-2024 12:00:00,20.021503,73.813844,NO2,13,34,19
India,Maharashtra,Navi Mumbai,"Kopripada-Vashi, Navi Mumbai - MPCB",02-06-2024 12:00:00,19.090337,73.014232,NO2,29,62,42
India,Maharashtra,Navi Mumbai,"Kopripada-Vashi, Navi Mumbai - MPCB",02-06-2024 12:00:00,19.090337,73.014232,NH3,3,4,4
India,Maharashtra,Navi Mumbai,"Mahape, Navi Mumbai - MPCB",02-06-2024 12:00:00,19.1135051,73.008978,PM10,48,185,86
India,Maharashtra,Navi Mumbai,"Mahape, Navi Mumbai - MPCB",02-06-2024 12:00:00,19.1135051,73.008978,OZONE,7,27,10
India,Maharashtra,Navi Mumbai,"Nerul, Navi Mumbai - MPCB",02-06-2024 12:00:00,19.008751,73.016620,OZONE,12,16,15
India,Maharashtra,Navi Mumbai,"Sector-19A Nerul, Navi Mumbai - IITM",02-06-2024 12:00:00,19.044,73.0325,NH3,13,56,28
India,Maharashtra,Navi Mumbai,"Sector-2E Kalamboli, Navi Mumbai - MPCB",02-06-2024 12:00:00,19.02579,73.10297,NH3,1,2,2
India,Maharashtra,Navi Mumbai,"Sector-2E Kalamboli, Navi Mumbai - MPCB",02-06-2024 12:00:00,19.02579,73.10297,SO2,3,13,7
India,Maharashtra,Navi Mumbai,"Sector-2E Kalamboli, Navi Mumbai - MPCB",02-06-2024 12:00:00,19.02579,73.10297,OZONE,2,53,13
India,Maharashtra,Navi Mumbai,"Tondare-Taloja, Navi Mumbai - MPCB",02-06-2024 12:00:00,19.0630,73.1209,PM10,42,77,64
India,Maharashtra,Parbhani,"Masoom Colony, Parbhani - MPCB",02-06-2024 12:00:00,19.265594,76.761463,PM2.5,7,126,50
India,Maharashtra,Parbhani,"Masoom Colony, Parbhani - MPCB",02-06-2024 12:00:00,19.265594,76.761463,NO2,13,31,16
India,Maharashtra,Pimpri-Chinchwad,"Gavalinagar, Pimpri Chinchwad - MPCB",02-06-2024 12:00:00,18.63673,73.82487,PM2.5,16,32,24
India,Maharashtra,Pimpri-Chinchwad,"Gavalinagar, Pimpri Chinchwad - MPCB",02-06-2024 12:00:00,18.63673,73.82487,PM10,34,51,42
India,Maharashtra,Pimpri-Chinchwad,"Gavalinagar, Pimpri Chinchwad - MPCB",02-06-2024 12:00:00,18.63673,73.82487,NO2,5,11,7
India,Maharashtra,Pimpri-Chinchwad,"Gavalinagar, Pimpri Chinchwad - MPCB",02-06-2024 12:00:00,18.63673,73.82487,NH3,1,1,1
India,Maharashtra,Pimpri-Chinchwad,"Gavalinagar, Pimpri Chinchwad - MPCB",02-06-2024 12:00:00,18.63673,73.82487,SO2,1,3,2
India,Maharashtra,Pimpri-Chinchwad,"Gavalinagar, Pimpri Chinchwad - MPCB",02-06-2024 12:00:00,18.63673,73.82487,CO,6,12,9
India,Maharashtra,Pune,"Alandi, Pune - IITM",02-06-2024 12:00:00,18.675076,73.892743,CO,39,48,44
India,Maharashtra,Pune,"Alandi, Pune - IITM",02-06-2024 12:00:00,18.675076,73.892743,OZONE,26,114,40
India,Maharashtra,Pune,"Bhosari, Pune - IITM",02-06-2024 12:00:00,18.640051,73.848956,PM2.5,16,29,22
India,Maharashtra,Pune,"Bhosari, Pune - IITM",02-06-2024 12:00:00,18.640051,73.848956,NO2,7,24,14
India,Maharashtra,Pune,"Hadapsar, Pune - IITM",02-06-2024 12:00:00,18.501793,73.927532,PM2.5,39,88,66
India,Maharashtra,Pune,"Karve Road, Pune - MPCB",02-06-2024 12:00:00,18.5011743,73.8165527,NO2,1,103,9
India,Maharashtra,Pune,"Revenue Colony-Shivajinagar, Pune - IITM",02-06-2024 12:00:00,18.530085,73.849598,CO,14,52,22
India,Maharashtra,Pune,"Savitribai Phule Pune University, Pune - MPCB",02-06-2024 12:00:00,18.547056,73.826908,PM10,NA,NA,NA
India,Maharashtra,Pune,"Savitribai Phule Pune University, Pune - MPCB",02-06-2024 12:00:00,18.547056,73.826908,NH3,NA,NA,NA
India,Maharashtra,Sangli,"Vijay Nagar, Sangli - MPCB",02-06-2024 12:00:00, 16.5038,74.3623,PM2.5,19,38,26
India,Maharashtra,Solapur,"Dnyaneshwar Nagar, Solapur - MPCB",02-06-2024 12:00:00,17.6336264,75.9132495,PM2.5,15,138,49
India,Maharashtra,Solapur,"Dnyaneshwar Nagar, Solapur - MPCB",02-06-2024 12:00:00,17.6336264,75.9132495,PM10,42,93,71
India,Maharashtra,Solapur,"Dnyaneshwar Nagar, Solapur - MPCB",02-06-2024 12:00:00,17.6336264,75.9132495,CO,17,26,22
India,Maharashtra,Solapur,"Ratandeep Housing Society, Solapur - MPCB",02-06-2024 12:00:00,17.65439,75.90649,CO,11,32,16
India,Maharashtra,Thane,"Kasarvadavali, Thane - MPCB",02-06-2024 12:00:00,19.26777,72.97182,PM2.5,11,43,24
India,Maharashtra,Thane,"Kasarvadavali, Thane - MPCB",02-06-2024 12:00:00,19.26777,72.97182,OZONE,12,63,15
India,Maharashtra,Thane,"Pimpleshwar Mandir, Thane - MPCB",02-06-2024 12:00:00,19.192056,72.9585188,PM10,50,89,66
India,Maharashtra,Thane,"Pimpleshwar Mandir, Thane - MPCB",02-06-2024 12:00:00,19.192056,72.9585188,SO2,1,8,3
India,Maharashtra,Thane,"Pimpleshwar Mandir, Thane - MPCB",02-06-2024 12:00:00,19.192056,72.9585188,CO,13,62,42
India,Maharashtra,Thane,"Upvan Fort, Thane - MPCB",02-06-2024 12:00:00,19.222279,72.957979,OZONE,9,83,19
India,Maharashtra,Ulhasnagar,"Sidhi Vinayak Nagar, Ulhasnagar - MPCB",02-06-2024 12:00:00,19.235581,73.159121,OZONE,7,101,21
India,Maharashtra,Virar,"Bolinj, Virar - MPCB",02-06-2024 12:00:00,19.4458210,72.7988231,PM10,47,102,64
India,Maharashtra,Virar,"Bolinj, Virar - MPCB",02-06-2024 12:00:00,19.4458210,72.7988231,NO2,8,25,16
India,Meghalaya,Shillong,"Lumpyngngad, Shillong - Meghalaya PCB",02-06-2024 12:00:00,25.5586,91.8985,NO2,1,1,1
India,Meghalaya,Shillong,"Lumpyngngad, Shillong - Meghalaya PCB",02-06-2024 12:00:00,25.5586,91.8985,SO2,35,38,36
India,Odisha,Angul,"Hakimapada, Angul - OSPCB",02-06-2024 12:00:00,20.832874,85.104082,PM2.5,25,207,71
India,Odisha,Balasore,"Kalidaspur, Balasore - OSPCB",02-06-2024 12:00:00,21.51161,86.89088,OZONE,16,42,22
India,Odisha,Barbil,"Forest Office, Barbil - OSPCB",02-06-2024 12:00:00,22.1166054,85.3945546,PM10,56,140,102
India,Odisha,Barbil,"Forest Office, Barbil - OSPCB",02-06-2024 12:00:00,22.1166054,85.3945546,CO,22,57,35
India,Odisha,Baripada,"Meher Colony, Baripada - OSPCB",02-06-2024 12:00:00,21.941841,86.728318,PM10,35,66,51
India,Odisha,Baripada,"Meher Colony, Baripada - OSPCB",02-06-2024 12:00:00,21.941841,86.728318,OZONE,57,94,63
India,Odisha,Bhubaneswar,"Lingraj Mandir, Bhubaneswar - OSPCB",02-06-2024 12:00:00,20.240790,85.836784,PM10,38,88,56
India,Odisha,Bhubaneswar,"Patia, Bhubaneswar - OSPCB",02-06-2024 12:00:00,20.34652,85.81630,PM2.5,30,55,40
India,Odisha,Bhubaneswar,"Patia, Bhubaneswar - OSPCB",02-06-2024 12:00:00,20.34652,85.81630,NO2,5,44,9
India,Odisha,Bileipada,"Tata Township, Bileipada - OSPCB",02-06-2024 12:00:00,22.06156703,85.47409613,PM10,58,121,98
India,Odisha,Bileipada,"Tata Township, Bileipada - OSPCB",02-06-2024 12:00:00,22.06156703,85.47409613,NH3,12,12,12
India,Odisha,Brajrajnagar,"GM Office, Brajrajnagar - OSPCB",02-06-2024 12:00:00,21.8004996,83.8396977,PM10,NA,NA,NA
India,Odisha,Brajrajnagar,"GM Office, Brajrajnagar - OSPCB",02-06-2024 12:00:00,21.8004996,83.8396977,NO2,NA,NA,NA
India,Odisha,Brajrajnagar,"GM Office, Brajrajnagar - OSPCB",02-06-2024 12:00:00,21.8004996,83.8396977,NH3,NA,NA,NA
India,Odisha,Byasanagar,"Ferro Chrome Colony, Byasanagar - OSPCB",02-06-2024 12:00:00,20.94185,86.11510,OZONE,9,71,41
India,Odisha,Cuttack,"CDA Area, Cuttack - OSPCB",02-06-2024 12:00:00,20.48891     ,85.84768     ,PM2.5,12,68,29
India,Odisha,Keonjhar,"Jagamohanpur, Keonjhar - OSPCB",02-06-2024 12:00:00,21.643900,85.599355,SO2,NA,NA,NA
India,Odisha,Keonjhar,"Jagamohanpur, Keonjhar - OSPCB",02-06-2024 12:00:00,21.643900,85.599355,OZONE,2,8,3
India,Odisha,Nayagarh,"Dabuna, Nayagarh - OSPCB",02-06-2024 12:00:00,21.847279,85.416905,PM2.5,NA,NA,NA
India,Odisha,Nayagarh,"Dabuna, Nayagarh - OSPCB",02-06-2024 12:00:00,21.847279,85.416905,SO2,NA,NA,NA
India,Odisha,Rairangpur,"Divisional Forest Office, Rairangpur - OSPCB",02-06-2024 12:00:00,22.265816,86.174829,CO,11,19,15
India,Odisha,Suakati,"OMC Colony, Suakati - OSPCB",02-06-2024 12:00:00,21.606865,85.510538,NH3,5,5,5
India,Odisha,Suakati,"OMC Colony, Suakati - OSPCB",02-06-2024 12:00:00,21.606865,85.510538,CO,9,16,10
India,Odisha,Talcher,"Talcher Coalfields,Talcher - OSPCB",02-06-2024 12:00:00,20.9360711,85.1707021,PM2.5,NA,NA,NA
India,Odisha,Tensa,"Barsua Iron Ore Mines, Tensa - OSPCB",02-06-2024 12:00:00,21.869985,85.167016,PM2.5,35,68,50
India,Puducherry,Puducherry,"Jawahar Nagar, Puducherry - PPCC",02-06-2024 12:00:00,11.9309,79.8027,CO,NA,NA,NA
India,Punjab,Amritsar,"Golden Temple, Amritsar - PPCB",02-06-2024 12:00:00,31.620000,74.876512,PM2.5,88,306,170
India,Punjab,Amritsar,"Golden Temple, Amritsar - PPCB",02-06-2024 12:00:00,31.620000,74.876512,PM10,113,143,124
India,Punjab,Amritsar,"Golden Temple, Amritsar - PPCB",02-06-2024 12:00:00,31.620000,74.876512,SO2,9,23,14
India,Punjab,Bathinda,"Hardev Nagar, Bathinda - PPCB",02-06-2024 12:00:00,30.233011,74.907758,PM2.5,84,500,173
India,Punjab,Bathinda,"Hardev Nagar, Bathinda - PPCB",02-06-2024 12:00:00,30.233011,74.907758,SO2,14,43,26
India,Punjab,Jalandhar,"Civil Line, Jalandhar - PPCB",02-06-2024 12:00:00,31.321907,75.578914,SO2,8,9,9
India,Punjab,Khanna,"Kalal Majra, Khanna - PPCB",02-06-2024 12:00:00,30.736056 ,76.209694,SO2,NA,NA,NA
India,Punjab,Ludhiana,"Punjab Agricultural University, Ludhiana - PPCB",02-06-2024 12:00:00,30.9028,75.8086,CO,26,46,34
India,Punjab,Mandi Gobindgarh,"RIMT University, Mandi Gobindgarh - PPCB",02-06-2024 12:00:00,30.649961,76.331442,PM2.5,83,368,216
India,Punjab,Patiala,"Model Town, Patiala - PPCB",02-06-2024 12:00:00,30.349388,76.366642,PM10,109,192,138
India,Punjab,Patiala,"Model Town, Patiala - PPCB",02-06-2024 12:00:00,30.349388,76.366642,NO2,19,26,23
India,Punjab,Rupnagar,"Ratanpura, Rupnagar - Ambuja Cements",02-06-2024 12:00:00,31.0325454,76.5623046,PM10,89,301,161
India,Rajasthan,Ajmer,"Civil Lines,  Ajmer - RSPCB",02-06-2024 12:00:00,26.470859,74.646594,NH3,5,5,5
India,Rajasthan,Ajmer,"Civil Lines,  Ajmer - RSPCB",02-06-2024 12:00:00,26.470859,74.646594,SO2,2,24,10
India,Rajasthan,Ajmer,"Civil Lines,  Ajmer - RSPCB",02-06-2024 12:00:00,26.470859,74.646594,CO,10,50,31
India,Rajasthan,Banswara,"Rati Talai, Banswara - RSPCB",02-06-2024 12:00:00,23.555190,74.440010,NO2,7,18,11
India,Rajasthan,Banswara,"Rati Talai, Banswara - RSPCB",02-06-2024 12:00:00,23.555190,74.440010,CO,22,40,31
India,Rajasthan,Baran,"Bamboliya, Baran - RSPCB",02-06-2024 12:00:00,25.106006,76.469948,PM2.5,NA,NA,NA
India,Rajasthan,Baran,"Bamboliya, Baran - RSPCB",02-06-2024 12:00:00,25.106006,76.469948,PM10,61,120,91
India,Rajasthan,Bharatpur,"Krishna Nagar, Bharatpur - RSPCB",02-06-2024 12:00:00,27.215415,77.50873,NH3,1,3,2
India,Rajasthan,Bhilwara,"Pratap Nagar, Bhilwara - RSPCB",02-06-2024 12:00:00,25.339605,74.618883,CO,24,32,29
India,Rajasthan,Bhiwadi,"RIICO Ind. Area III, Bhiwadi - RSPCB",02-06-2024 12:00:00,28.194909,76.862296,NH3,4,11,8
India,Rajasthan,Bhiwadi,"RIICO Ind. Area III, Bhiwadi - RSPCB",02-06-2024 12:00:00,28.194909,76.862296,SO2,19,40,26
India,Rajasthan,Bhiwadi,"RIICO Ind. Area III, Bhiwadi - RSPCB",02-06-2024 12:00:00,28.194909,76.862296,OZONE,10,87,27
India,Rajasthan,Bikaner,"MM Ground, Bikaner - RSPCB",02-06-2024 12:00:00,28.018792,73.292658,CO,11,23,15
India,Rajasthan,Bundi,"New Colony, Bundi - RSPCB",02-06-2024 12:00:00,25.435774,75.644272,PM10,53,137,97
India,Rajasthan,Chittorgarh,"Shastri Nagar, Chittorgarh - RSPCB",02-06-2024 12:00:00,24.892047,74.623527,NO2,NA,NA,NA
India,Rajasthan,Churu,"Subash Chowk, Churu - RSPCB",02-06-2024 12:00:00,28.296139,74.961696,CO,2,16,8
India,Rajasthan,Dholpur,"Raja Ganj, Dholpur - RSPCB",02-06-2024 12:00:00,26.699557,77.898881,PM10,61,172,109
India,Rajasthan,Dungarpur,"Bhoiwada, Dungarpur - RSPCB",02-06-2024 12:00:00,23.837789,73.714926,PM10,NA,NA,NA
India,Rajasthan,Dungarpur,"Bhoiwada, Dungarpur - RSPCB",02-06-2024 12:00:00,23.837789,73.714926,OZONE,17,68,27
India,Rajasthan,Jaipur,"Mansarovar Sector-12, Jaipur - RSPCB",02-06-2024 12:00:00,26.843698,75.766894,PM2.5,15,52,32
India,Rajasthan,Jaipur,"Police Commissionerate, Jaipur - RSPCB",02-06-2024 12:00:00,26.9164092,75.7994901,PM2.5,61,238,103
India,Rajasthan,Jaipur,"Police Commissionerate, Jaipur - RSPCB",02-06-2024 12:00:00,26.9164092,75.7994901,NH3,6,11,8
India,Rajasthan,Jaipur,"RIICO Sitapura, Jaipur - RSPCB",02-06-2024 12:00:00,26.786682,75.827928,PM2.5,20,83,45
India,Rajasthan,Jaipur,"RIICO Sitapura, Jaipur - RSPCB",02-06-2024 12:00:00,26.786682,75.827928,PM10,40,128,89
India,Rajasthan,Jaipur,"RIICO Sitapura, Jaipur - RSPCB",02-06-2024 12:00:00,26.786682,75.827928,NO2,15,61,34
India,Rajasthan,Jaipur,"RIICO Sitapura, Jaipur - RSPCB",02-06-2024 12:00:00,26.786682,75.827928,SO2,7,12,8
India,Rajasthan,Jaipur,"Sector-2 Murlipura, Jaipur - RSPCB",02-06-2024 12:00:00,26.960669,75.771817,SO2,8,16,11
India,Rajasthan,Jaipur,"Sector-2 Murlipura, Jaipur - RSPCB",02-06-2024 12:00:00,26.960669,75.771817,OZONE,13,77,47
India,Rajasthan,Jaipur,"Shastri Nagar, Jaipur - RSPCB",02-06-2024 12:00:00,26.9502929,75.730943,NO2,10,47,20
India,Rajasthan,Jaipur,"Shastri Nagar, Jaipur - RSPCB",02-06-2024 12:00:00,26.9502929,75.730943,CO,18,48,35
India,Rajasthan,Jaisalmer,"Sadar Bazar, Jaisalmer - RSPCB",02-06-2024 12:00:00,26.912329,70.909168,CO,24,40,32
India,Rajasthan,Jhalawar,"Rajlaxmi Nagar, Jhalawar - RSPCB",02-06-2024 12:00:00,24.588397,76.172782,PM10,70,129,101
India,Rajasthan,Jhunjhunu,"Indra Nagar, Jhunjhunu - RSPCB",02-06-2024 12:00:00,28.108988,75.386577,CO,2,28,17
India,Rajasthan,Jodhpur,"Collectorate, Jodhpur - RSPCB",02-06-2024 12:00:00,26.268249,73.0193853,PM10,82,424,153
India,Rajasthan,Jodhpur,"Collectorate, Jodhpur - RSPCB",02-06-2024 12:00:00,26.268249,73.0193853,SO2,2,29,12
India,Rajasthan,Jodhpur,"Digari Kalan, Jodhpur - RSPCB",02-06-2024 12:00:00,26.295810,73.082283,PM10,94,178,120
India,Rajasthan,Jodhpur,"Mandor, Jodhpur - RSPCB",02-06-2024 12:00:00,26.358805,73.047444,PM10,66,101,80
India,Rajasthan,Jodhpur,"Mandor, Jodhpur - RSPCB",02-06-2024 12:00:00,26.358805,73.047444,NH3,3,7,4
India,Rajasthan,Jodhpur,"Mandor, Jodhpur - RSPCB",02-06-2024 12:00:00,26.358805,73.047444,CO,14,20,15
India,Rajasthan,Jodhpur,"Mandor, Jodhpur - RSPCB",02-06-2024 12:00:00,26.358805,73.047444,OZONE,27,80,40
India,Rajasthan,Kota,"Dhanmandi, Kota - RSPCB",02-06-2024 12:00:00,25.164090,75.858137,NO2,10,45,21
India,Rajasthan,Kota,"Nayapura, Kota - RSPCB",02-06-2024 12:00:00,25.196024,75.855668,NH3,2,3,3
India,Rajasthan,Kota,"Nayapura, Kota - RSPCB",02-06-2024 12:00:00,25.196024,75.855668,SO2,4,18,7
India,Rajasthan,Kota,"Shrinath Puram, Kota - RSPCB",02-06-2024 12:00:00,25.14389,75.821256,PM2.5,56,189,91
India,Rajasthan,Kota,"Shrinath Puram, Kota - RSPCB",02-06-2024 12:00:00,25.14389,75.821256,NO2,12,32,20
India,Rajasthan,Kota,"Shrinath Puram, Kota - RSPCB",02-06-2024 12:00:00,25.14389,75.821256,CO,27,72,48
India,Rajasthan,Nagaur,"Karni Colony, Nagaur - RSPCB",02-06-2024 12:00:00,27.213494,73.734444,NH3,5,22,12
India,Rajasthan,Pali,"Indira Colony Vistar, Pali - RSPCB",02-06-2024 12:00:00,25.771061, 73.340227,PM2.5,51,143,103
India,Rajasthan,Pali,"Indira Colony Vistar, Pali - RSPCB",02-06-2024 12:00:00,25.771061, 73.340227,NH3,6,11,8
India,Rajasthan,Pratapgarh,"Pragati Nagar, Pratapgarh - RSPCB",02-06-2024 12:00:00,24.041198,74.780702,NH3,4,7,5
India,Rajasthan,Pratapgarh,"Pragati Nagar, Pratapgarh - RSPCB",02-06-2024 12:00:00,24.041198,74.780702,SO2,1,9,4
India,Rajasthan,Rajsamand,"Dhoinda, Rajsamand - RSPCB",02-06-2024 12:00:00,25.036360,73.883502,CO,8,22,16
India,Rajasthan,Sawai Madhopur,"Sahu Nagar, Sawai Madhopur - RSPCB",02-06-2024 12:00:00,26.031443,76.359327,PM2.5,27,74,47
India,Rajasthan,Sawai Madhopur,"Sahu Nagar, Sawai Madhopur - RSPCB",02-06-2024 12:00:00,26.031443,76.359327,NH3,9,17,11
India,Rajasthan,Sawai Madhopur,"Sahu Nagar, Sawai Madhopur - RSPCB",02-06-2024 12:00:00,26.031443,76.359327,SO2,2,9,6
India,Rajasthan,Sikar,"Radhakishan Pura, Sikar - RSPCB",02-06-2024 12:00:00,27.608912,75.153302,PM10,37,152,72
India,Rajasthan,Sikar,"Radhakishan Pura, Sikar - RSPCB",02-06-2024 12:00:00,27.608912,75.153302,NH3,4,12,7
India,Rajasthan,Sikar,"Radhakishan Pura, Sikar - RSPCB",02-06-2024 12:00:00,27.608912,75.153302,CO,19,29,27
India,Rajasthan,Sirohi,"Vedhaynath Colony, Sirohi - RSPCB",02-06-2024 12:00:00,24.885261,72.857549,NH3,6,9,8
India,Rajasthan,Sri Ganganagar,"Old City, Sri Ganganagar - RSPCB",02-06-2024 12:00:00,29.931624,73.864511,CO,6,92,31
India,Rajasthan,Sri Ganganagar,"Old City, Sri Ganganagar - RSPCB",02-06-2024 12:00:00,29.931624,73.864511,OZONE,27,66,49
India,Rajasthan,Udaipur,"Ashok Nagar, Udaipur - RSPCB",02-06-2024 12:00:00,24.5886166,73.6321397,PM2.5,52,132,83
India,Rajasthan,Udaipur,"Ashok Nagar, Udaipur - RSPCB",02-06-2024 12:00:00,24.5886166,73.6321397,CO,12,50,23
India,Sikkim,Gangtok,"Zero Point GICI, Gangtok - SSPCB",02-06-2024 12:00:00,27.338530,88.614099,NO2,1,7,2
India,TamilNadu,Chennai,"Alandur Bus Depot, Chennai - CPCB",02-06-2024 12:00:00,12.9099161,80.1076538,SO2,1,14,2
India,TamilNadu,Chennai,"Alandur Bus Depot, Chennai - CPCB",02-06-2024 12:00:00,12.9099161,80.1076538,CO,60,65,63
India,TamilNadu,Chennai,"Kodungaiyur, Chennai - TNPCB",02-06-2024 12:00:00,13.1278,80.2642,PM2.5,6,40,23
India,TamilNadu,Chennai,"Kodungaiyur, Chennai - TNPCB",02-06-2024 12:00:00,13.1278,80.2642,NH3,3,8,5
India,TamilNadu,Chennai,"Manali, Chennai - CPCB",02-06-2024 12:00:00,13.164544,80.26285,NH3,NA,NA,NA
India,TamilNadu,Chennai,"Perungudi, Chennai - TNPCB",02-06-2024 12:00:00,12.9533,80.2357,PM10,44,146,82
India,TamilNadu,Chennai,"Perungudi, Chennai - TNPCB",02-06-2024 12:00:00,12.9533,80.2357,NH3,2,3,3
India,TamilNadu,Chennai,"Perungudi, Chennai - TNPCB",02-06-2024 12:00:00,12.9533,80.2357,CO,16,56,35
India,TamilNadu,Chennai,"Perungudi, Chennai - TNPCB",02-06-2024 12:00:00,12.9533,80.2357,OZONE,3,10,9
India,TamilNadu,Coimbatore,"PSG College of Arts and Science, Coimbatore - TNPCB",02-06-2024 12:00:00,11.0328,77.0349,OZONE,4,5,4
India,TamilNadu,Cuddalore,"Kudikadu, Cuddalore - TNPCB",02-06-2024 12:00:00,11.6829898,79.7532099,PM2.5,13,63,37
India,TamilNadu,Cuddalore,"Semmandalam, Cuddalore - TNPCB",02-06-2024 12:00:00,11.7637683,79.7499835,NH3,NA,NA,NA
India,TamilNadu,Ramanathapuram,"Chalai Bazaar, Ramanathapuram - TNPCB",02-06-2024 12:00:00,9.36399,78.831977,PM2.5,NA,NA,NA
India,TamilNadu,Ramanathapuram,"Chalai Bazaar, Ramanathapuram - TNPCB",02-06-2024 12:00:00,9.36399,78.831977,PM10,NA,NA,NA
India,TamilNadu,Thoothukudi,"Meelavittan, Thoothukudi - TNPCB",02-06-2024 12:00:00,8.816428 ,78.099039,PM10,32,98,58
India,Telangana,Hyderabad,"Bollaram Industrial Area, Hyderabad - TSPCB",02-06-2024 12:00:00,17.540891,78.358528,PM2.5,26,88,58
India,Telangana,Hyderabad,"Bollaram Industrial Area, Hyderabad - TSPCB",02-06-2024 12:00:00,17.540891,78.358528,PM10,77,140,107
India,Telangana,Hyderabad,"Central University, Hyderabad - TSPCB",02-06-2024 12:00:00,17.460103,78.334361,SO2,5,12,7
India,Telangana,Hyderabad,"Central University, Hyderabad - TSPCB",02-06-2024 12:00:00,17.460103,78.334361,OZONE,3,4,3
India,Telangana,Hyderabad,"ICRISAT Patancheru, Hyderabad - TSPCB",02-06-2024 12:00:00,17.518400,78.278777,NH3,2,2,2
India,Telangana,Hyderabad,"IITH Kandi, Hyderabad - TSPCB",02-06-2024 12:00:00,17.585705,78.126199,SO2,NA,NA,NA
India,Telangana,Hyderabad,"IITH Kandi, Hyderabad - TSPCB",02-06-2024 12:00:00,17.585705,78.126199,CO,21,34,21
India,Telangana,Hyderabad,"Kokapet, Hyderabad - TSPCB",02-06-2024 12:00:00,17.393559,78.339194,NO2,10,10,10
India,Telangana,Hyderabad,"Kokapet, Hyderabad - TSPCB",02-06-2024 12:00:00,17.393559,78.339194,NH3,2,2,2
India,Telangana,Hyderabad,"Kompally Municipal Office, Hyderabad - TSPCB",02-06-2024 12:00:00,17.544899,78.486949,NO2,7,7,7
India,Telangana,Hyderabad,"Kompally Municipal Office, Hyderabad - TSPCB",02-06-2024 12:00:00,17.544899,78.486949,NH3,NA,NA,NA
India,Telangana,Hyderabad,"New Malakpet, Hyderabad - TSPCB",02-06-2024 12:00:00,17.37206,78.50864,SO2,NA,NA,NA
India,Telangana,Hyderabad,"Ramachandrapuram, Hyderabad - TSPCB",02-06-2024 12:00:00,17.528544,78.286195,PM2.5,31,39,33
India,Telangana,Hyderabad,"Ramachandrapuram, Hyderabad - TSPCB",02-06-2024 12:00:00,17.528544,78.286195,PM10,72,83,76
India,Telangana,Hyderabad,"Sanathnagar, Hyderabad - TSPCB",02-06-2024 12:00:00,17.4559458,78.4332152,PM2.5,35,77,55
India,Telangana,Hyderabad,"Sanathnagar, Hyderabad - TSPCB",02-06-2024 12:00:00,17.4559458,78.4332152,NO2,29,34,30
India,Tripura,Agartala,"Bardowali, Agartala - Tripura SPCB",02-06-2024 12:00:00,23.8175497,91.2726974,NH3,1,2,2
India,Tripura,Agartala,"Bardowali, Agartala - Tripura SPCB",02-06-2024 12:00:00,23.8175497,91.2726974,OZONE,1,18,4
India,Uttar_Pradesh,Agra,"Manoharpur, Agra - UPPCB",02-06-2024 12:00:00,27.23711,78.01936,PM10,21,66,34
India,Uttar_Pradesh,Agra,"Rohta, Agra - UPPCB",02-06-2024 12:00:00,27.106972,78.000111,PM2.5,NA,NA,NA
India,Uttar_Pradesh,Agra,"Sanjay Palace, Agra - UPPCB",02-06-2024 12:00:00,27.19865833,78.00598056,PM2.5,9,42,24
India,Uttar_Pradesh,Agra,"Sanjay Palace, Agra - UPPCB",02-06-2024 12:00:00,27.19865833,78.00598056,CO,2,32,15
India,Uttar_Pradesh,Agra,"Sector-3B Avas Vikas Colony, Agra - UPPCB",02-06-2024 12:00:00,27.19412,77.96237,PM10,29,94,58
India,Uttar_Pradesh,Agra,"Sector-3B Avas Vikas Colony, Agra - UPPCB",02-06-2024 12:00:00,27.19412,77.96237,NH3,8,43,20
India,Uttar_Pradesh,Agra,"Sector-3B Avas Vikas Colony, Agra - UPPCB",02-06-2024 12:00:00,27.19412,77.96237,SO2,12,24,16
India,Uttar_Pradesh,Agra,"Sector-3B Avas Vikas Colony, Agra - UPPCB",02-06-2024 12:00:00,27.19412,77.96237,OZONE,10,17,12
India,Uttar_Pradesh,Agra,"Shahjahan Garden, Agra - UPPCB",02-06-2024 12:00:00,27.169338,78.03582,PM10,51,136,90
India,Uttar_Pradesh,Agra,"Shahjahan Garden, Agra - UPPCB",02-06-2024 12:00:00,27.169338,78.03582,OZONE,1,25,4
India,Uttar_Pradesh,Agra,"Shastripuram, Agra - UPPCB",02-06-2024 12:00:00,27.19862,77.92066,NO2,34,71,38
India,Uttar_Pradesh,Agra,"Shastripuram, Agra - UPPCB",02-06-2024 12:00:00,27.19862,77.92066,NH3,NA,NA,NA
India,Uttar_Pradesh,Agra,"Shastripuram, Agra - UPPCB",02-06-2024 12:00:00,27.19862,77.92066,OZONE,1,16,6
India,Uttar_Pradesh,Baghpat,"Sardar Patel Inter College, Baghpat - UPPCB",02-06-2024 12:00:00,28.964949,77.278761,PM10,91,225,159
India,Uttar_Pradesh,Bareilly,"Civil Lines, Bareilly - UPPCB",02-06-2024 12:00:00,28.359581,79.414455,PM10,NA,NA,NA
India,Uttar_Pradesh,Bareilly,"Rajendra Nagar, Bareilly - UPPCB",02-06-2024 12:00:00,28.38910936,79.42963708,NH3,1,1,1
India,Uttar_Pradesh,Bulandshahr,"Yamunapuram, Bulandshahr - UPPCB",02-06-2024 12:00:00,28.406963,77.849831,NO2,14,70,37
India,Uttar_Pradesh,Firozabad,"Nagla Bhau, Firozabad - UPPCB",02-06-2024 12:00:00,27.168897,78.376960,SO2,17,29,19
India,Uttar_Pradesh,Firozabad,"Nagla Bhau, Firozabad - UPPCB",02-06-2024 12:00:00,27.168897,78.376960,CO,8,28,28
India,Uttar_Pradesh,Firozabad,"Vibhab Nagar, Firozabad - UPPCB",02-06-2024 12:00:00,27.1594,78.3953,PM2.5,NA,NA,NA
India,Uttar_Pradesh,Firozabad,"Vibhab Nagar, Firozabad - UPPCB",02-06-2024 12:00:00,27.1594,78.3953,PM10,NA,NA,NA
India,Uttar_Pradesh,Ghaziabad,"Loni, Ghaziabad - UPPCB",02-06-2024 12:00:00,28.757294,77.278792,PM2.5,35,305,87
India,Uttar_Pradesh,Ghaziabad,"Loni, Ghaziabad - UPPCB",02-06-2024 12:00:00,28.757294,77.278792,NO2,4,70,34
India,Uttar_Pradesh,Ghaziabad,"Sanjay Nagar, Ghaziabad - UPPCB",02-06-2024 12:00:00,28.685382,77.453839,NH3,NA,NA,NA
India,Uttar_Pradesh,Gorakhpur,"Madan Mohan Malaviya University of Technology, Gorakhpur - UPPCB",02-06-2024 12:00:00,26.730136,83.433859,PM2.5,40,90,69
India,Uttar_Pradesh,Gorakhpur,"Madan Mohan Malaviya University of Technology, Gorakhpur - UPPCB",02-06-2024 12:00:00,26.730136,83.433859,NH3,1,1,1
India,Uttar_Pradesh,Gorakhpur,"Madan Mohan Malaviya University of Technology, Gorakhpur - UPPCB",02-06-2024 12:00:00,26.730136,83.433859,CO,4,14,5
India,Uttar_Pradesh,Greater Noida,"Knowledge Park - III, Greater Noida - UPPCB",02-06-2024 12:00:00,28.47272,77.482000,SO2,2,18,10
India,Uttar_Pradesh,Greater Noida,"Knowledge Park - III, Greater Noida - UPPCB",02-06-2024 12:00:00,28.47272,77.482000,OZONE,12,211,58
India,Uttar_Pradesh,Hapur,"Anand Vihar, Hapur - UPPCB",02-06-2024 12:00:00,28.725645,77.749675,CO,20,70,62
India,Uttar_Pradesh,Hapur,"Anand Vihar, Hapur - UPPCB",02-06-2024 12:00:00,28.725645,77.749675,OZONE,5,28,9
India,Uttar_Pradesh,Jhansi,"Shivaji Nagar, Jhansi - UPPCB",02-06-2024 12:00:00,25.4547,78.6039,CO,8,12,11
India,Uttar_Pradesh,Kanpur,"FTI Kidwai Nagar, Kanpur - UPPCB",02-06-2024 12:00:00,26.428282,80.327067,CO,28,36,30
India,Uttar_Pradesh,Kanpur,"NSI Kalyanpur, Kanpur - UPPCB",02-06-2024 12:00:00,26.509954,80.249612,PM10,90,465,141
India,Uttar_Pradesh,Kanpur,"Nehru Nagar, Kanpur - UPPCB",02-06-2024 12:00:00,26.4703136,80.3229863,NO2,2,50,37
India,Uttar_Pradesh,Kanpur,"Nehru Nagar, Kanpur - UPPCB",02-06-2024 12:00:00,26.4703136,80.3229863,CO,3,84,59
India,Uttar_Pradesh,Lucknow,"B R Ambedkar University, Lucknow - UPPCB",02-06-2024 12:00:00,26.766433,80.927299,NO2,11,12,11
India,Uttar_Pradesh,Lucknow,"B R Ambedkar University, Lucknow - UPPCB",02-06-2024 12:00:00,26.766433,80.927299,NH3,9,13,11
India,Uttar_Pradesh,Lucknow,"B R Ambedkar University, Lucknow - UPPCB",02-06-2024 12:00:00,26.766433,80.927299,CO,28,40,31
India,Uttar_Pradesh,Lucknow,"Gomti Nagar, Lucknow - UPPCB",02-06-2024 12:00:00,26.868120,81.005119,SO2,5,15,11
India,Uttar_Pradesh,Lucknow,"Gomti Nagar, Lucknow - UPPCB",02-06-2024 12:00:00,26.868120,81.005119,CO,40,46,41
India,Uttar_Pradesh,Lucknow,"Kendriya Vidyalaya, Lucknow - CPCB",02-06-2024 12:00:00,26.906111,80.948222,NO2,6,12,8
India,Uttar_Pradesh,Lucknow,"Kukrail Picnic Spot-1, Lucknow - UPPCB",02-06-2024 12:00:00,26.90723,80.98579,PM2.5,NA,NA,NA
India,Uttar_Pradesh,Lucknow,"Lalbagh, Lucknow - CPCB",02-06-2024 12:00:00,26.8458805,80.9365541,NO2,26,27,26
India,Uttar_Pradesh,Lucknow,"Talkatora District Industries Center, Lucknow - CPCB",02-06-2024 12:00:00,26.83399722,80.8917361,PM2.5,128,262,203
India,Uttar_Pradesh,Lucknow,"Talkatora District Industries Center, Lucknow - CPCB",02-06-2024 12:00:00,26.83399722,80.8917361,OZONE,2,81,12
India,Uttar_Pradesh,Meerut,"Ganga Nagar, Meerut - UPPCB",02-06-2024 12:00:00,28.999264,77.7590354,PM10,100,194,153
India,Uttar_Pradesh,Meerut,"Ganga Nagar, Meerut - UPPCB",02-06-2024 12:00:00,28.999264,77.7590354,NH3,8,12,10
India,Uttar_Pradesh,Meerut,"Jai Bhim Nagar, Meerut - UPPCB",02-06-2024 12:00:00,28.9535882,77.7622941,NH3,7,16,11
India,Uttar_Pradesh,Meerut,"Jai Bhim Nagar, Meerut - UPPCB",02-06-2024 12:00:00,28.9535882,77.7622941,SO2,6,15,12
India,Uttar_Pradesh,Meerut,"Jai Bhim Nagar, Meerut - UPPCB",02-06-2024 12:00:00,28.9535882,77.7622941,CO,13,42,34
India,Uttar_Pradesh,Meerut,"Jai Bhim Nagar, Meerut - UPPCB",02-06-2024 12:00:00,28.9535882,77.7622941,OZONE,10,108,29
India,Uttar_Pradesh,Meerut,"Pallavpuram Phase 2, Meerut - UPPCB",02-06-2024 12:00:00,29.063510,77.709723,NO2,10,36,22
India,Uttar_Pradesh,Meerut,"Pallavpuram Phase 2, Meerut - UPPCB",02-06-2024 12:00:00,29.063510,77.709723,CO,14,42,36
India,Uttar_Pradesh,Moradabad,"Buddhi Vihar, Moradabad - UPPCB",02-06-2024 12:00:00,28.83526,78.74460,PM2.5,39,94,62
India,Uttar_Pradesh,Moradabad,"Buddhi Vihar, Moradabad - UPPCB",02-06-2024 12:00:00,28.83526,78.74460,NH3,3,3,3
India,Uttar_Pradesh,Moradabad,"Eco Herbal Park, Moradabad - UPPCB",02-06-2024 12:00:00,28.840739,78.697531,PM2.5,38,168,59
India,Uttar_Pradesh,Moradabad,"Eco Herbal Park, Moradabad - UPPCB",02-06-2024 12:00:00,28.840739,78.697531,OZONE,28,172,50
India,Uttar_Pradesh,Moradabad,"Employment Office, Moradabad - UPPCB",02-06-2024 12:00:00,28.88528,78.73880,SO2,19,37,23
India,Uttar_Pradesh,Moradabad,"Jigar Colony, Moradabad - UPPCB",02-06-2024 12:00:00,28.856664,78.772638,SO2,15,22,20
India,Uttar_Pradesh,Moradabad,"Kashiram Nagar, Moradabad - UPPCB",02-06-2024 12:00:00,28.849399,78.742362,PM2.5,45,133,74
India,Uttar_Pradesh,Moradabad,"Kashiram Nagar, Moradabad - UPPCB",02-06-2024 12:00:00,28.849399,78.742362,NH3,4,4,4
India,Uttar_Pradesh,Moradabad,"Kashiram Nagar, Moradabad - UPPCB",02-06-2024 12:00:00,28.849399,78.742362,CO,24,30,28
India,Uttar_Pradesh,Moradabad,"Transport Nagar, Moradabad - UPPCB",02-06-2024 12:00:00,28.802625,78.753728,PM10,NA,NA,NA
India,Uttar_Pradesh,Muzaffarnagar,"New Mandi, Muzaffarnagar - UPPCB",02-06-2024 12:00:00,29.4723508,77.7194031,PM10,197,405,292
India,Uttar_Pradesh,Muzaffarnagar,"New Mandi, Muzaffarnagar - UPPCB",02-06-2024 12:00:00,29.4723508,77.7194031,NO2,9,29,17
India,Uttar_Pradesh,Noida,"Sector - 62, Noida - IMD",02-06-2024 12:00:00,28.6245479,77.3577104,PM2.5,45,181,79
India,Uttar_Pradesh,Noida,"Sector-1, Noida - UPPCB",02-06-2024 12:00:00,28.5898,77.3101,PM10,110,330,162
India,Uttar_Pradesh,Noida,"Sector-1, Noida - UPPCB",02-06-2024 12:00:00,28.5898,77.3101,NH3,5,12,8
India,Uttar_Pradesh,Noida,"Sector-1, Noida - UPPCB",02-06-2024 12:00:00,28.5898,77.3101,CO,12,48,33
India,Uttar_Pradesh,Noida,"Sector-116, Noida - UPPCB",02-06-2024 12:00:00,28.569230,77.393848,NO2,NA,NA,NA
India,Uttar_Pradesh,Prayagraj,"Jhunsi, Prayagraj - UPPCB",02-06-2024 12:00:00,25.425602,81.917152,SO2,30,31,30
India,Uttar_Pradesh,Prayagraj,"Motilal Nehru NIT, Prayagraj - UPPCB",02-06-2024 12:00:00,25.494,81.863,PM2.5,16,58,36
India,Uttar_Pradesh,Prayagraj,"Motilal Nehru NIT, Prayagraj - UPPCB",02-06-2024 12:00:00,25.494,81.863,NO2,11,12,12
India,Uttar_Pradesh,Prayagraj,"Nagar Nigam, Prayagraj - UPPCB",02-06-2024 12:00:00,25.44919916 ,81.82735986 ,PM10,43,139,89
India,Uttar_Pradesh,Varanasi,"Ardhali Bazar, Varanasi - UPPCB",02-06-2024 12:00:00,25.3505986,82.9083074,PM10,23,67,48
India,Uttar_Pradesh,Varanasi,"IESD Banaras Hindu University, Varanasi - UPPCB",02-06-2024 12:00:00,25.262326,82.995408,SO2,20,21,21
India,Uttar_Pradesh,Varanasi,"IESD Banaras Hindu University, Varanasi - UPPCB",02-06-2024 12:00:00,25.262326,82.995408,OZONE,NA,NA,NA
India,Uttar_Pradesh,Varanasi,"Maldahiya, Varanasi - UPPCB",02-06-2024 12:00:00,25.32393,82.99687,PM10,23,87,32
India,Uttar_Pradesh,Varanasi,"Maldahiya, Varanasi - UPPCB",02-06-2024 12:00:00,25.32393,82.99687,NO2,1,2,2
India,Uttar_Pradesh,Vrindavan,"Omex Eternity, Vrindavan - UPPCB",02-06-2024 12:00:00,27.5714090,77.6557570,PM2.5,12,197,43
India,Uttarakhand,Dehradun,"Doon University, Dehradun - UKPCB",02-06-2024 12:00:00,30.269444,78.044167,PM10,51,164,94
India,Uttarakhand,Kashipur,"Govt. Girls Inter College, Kashipur - UKPCB",02-06-2024 12:00:00,29.2124114,78.9611753,PM10,70,156,115
India,Uttarakhand,Kashipur,"Govt. Girls Inter College, Kashipur - UKPCB",02-06-2024 12:00:00,29.2124114,78.9611753,NH3,1,6,3
India,Uttarakhand,Rishikesh,"Shivaji Nagar, Rishikesh - UKPCB",02-06-2024 12:00:00,30.075911,78.2859547,PM2.5,26,174,79
India,Uttarakhand,Rishikesh,"Shivaji Nagar, Rishikesh - UKPCB",02-06-2024 12:00:00,30.075911,78.2859547,NO2,12,37,23
India,Uttarakhand,Rishikesh,"Shivaji Nagar, Rishikesh - UKPCB",02-06-2024 12:00:00,30.075911,78.2859547,NH3,2,8,4
India,Uttarakhand,Rishikesh,"Shivaji Nagar, Rishikesh - UKPCB",02-06-2024 12:00:00,30.075911,78.2859547,CO,16,44,32
India,West_Bengal,Asansol,"Asansol Court Area, Asansol - WBPCB",02-06-2024 12:00:00,23.685297,86.945968,NH3,10,14,12
India,West_Bengal,Asansol,"Asansol Court Area, Asansol - WBPCB",02-06-2024 12:00:00,23.685297,86.945968,SO2,10,14,12
India,West_Bengal,Asansol,"Asansol Court Area, Asansol - WBPCB",02-06-2024 12:00:00,23.685297,86.945968,OZONE,11,85,21
India,West_Bengal,Barrackpore,"SVSPA Campus, Barrackpore - WBPCB",02-06-2024 12:00:00,22.7605581,88.3617589,NO2,1,19,7
India,West_Bengal,Barrackpore,"SVSPA Campus, Barrackpore - WBPCB",02-06-2024 12:00:00,22.7605581,88.3617589,SO2,4,6,5
India,West_Bengal,Barrackpore,"SVSPA Campus, Barrackpore - WBPCB",02-06-2024 12:00:00,22.7605581,88.3617589,CO,16,28,22
India,West_Bengal,Durgapur,"PCBL Residential Complex, Durgapur - WBPCB",02-06-2024 12:00:00,23.5087640,87.3544400,PM2.5,50,318,108
India,West_Bengal,Durgapur,"PCBL Residential Complex, Durgapur - WBPCB",02-06-2024 12:00:00,23.5087640,87.3544400,SO2,8,20,10
India,West_Bengal,Durgapur,"Sidhu Kanhu Indoor Stadium, Durgapur - WBPCB",02-06-2024 12:00:00,23.5404352,87.2892225,SO2,10,34,21
India,West_Bengal,Haldia,"Priyambada Housing Estate, Haldia - WBPCB",02-06-2024 12:00:00,22.06047,88.109737,PM10,23,69,50
India,West_Bengal,Haldia,"Priyambada Housing Estate, Haldia - WBPCB",02-06-2024 12:00:00,22.06047,88.109737,OZONE,23,30,27
India,West_Bengal,Howrah,"Belur Math, Howrah - WBPCB",02-06-2024 12:00:00,22.629801,88.352017,PM2.5,36,101,52
India,West_Bengal,Howrah,"Ghusuri, Howrah - WBPCB",02-06-2024 12:00:00,22.611968,88.347422,PM2.5,NA,NA,NA
India,West_Bengal,Howrah,"Ghusuri, Howrah - WBPCB",02-06-2024 12:00:00,22.611968,88.347422,SO2,3,5,4
India,West_Bengal,Howrah,"Padmapukur, Howrah - WBPCB",02-06-2024 12:00:00,22.5687319,88.2797276,NH3,7,13,9
India,West_Bengal,Howrah,"Padmapukur, Howrah - WBPCB",02-06-2024 12:00:00,22.5687319,88.2797276,SO2,5,48,16
India,West_Bengal,Kolkata,"Ballygunge, Kolkata - WBPCB",02-06-2024 12:00:00,22.5367507,88.3638022,CO,8,12,10
India,West_Bengal,Kolkata,"Bidhannagar, Kolkata - WBPCB",02-06-2024 12:00:00,22.58157048,88.41002457,OZONE,9,30,17
India,West_Bengal,Kolkata,"Fort William, Kolkata - WBPCB",02-06-2024 12:00:00,22.556640,88.342674,PM2.5,51,72,60
India,West_Bengal,Kolkata,"Rabindra Bharati University, Kolkata - WBPCB",02-06-2024 12:00:00,22.627847,88.380669,CO,22,28,25
India,West_Bengal,Kolkata,"Rabindra Sarobar, Kolkata - WBPCB",02-06-2024 12:00:00,22.51106,88.35142,NH3,7,9,8
India,West_Bengal,Siliguri,"Ward-32 Bapupara, Siliguri - WBPCB",02-06-2024 12:00:00,26.6879226,88.4152495,CO,20,34,29
India,Andhra_Pradesh,Amaravati,"Secretariat, Amaravati - APPCB",02-06-2024 12:00:00,16.5150833,80.5181667,NH3,4,4,4
India,Andhra_Pradesh,Amaravati,"Secretariat, Amaravati - APPCB",02-06-2024 12:00:00,16.5150833,80.5181667,SO2,10,14,12
India,Andhra_Pradesh,Amaravati,"Secretariat, Amaravati - APPCB",02-06-2024 12:00:00,16.5150833,80.5181667,OZONE,28,51,34
India,Andhra_Pradesh,Anantapur,"Gulzarpet, Anantapur - APPCB",02-06-2024 12:00:00,14.675886,77.593027,PM10,24,233,65
India,Andhra_Pradesh,Chittoor,"Gangineni Cheruvu, Chittoor - APPCB",02-06-2024 12:00:00,13.204880,79.097889,PM2.5,NA,NA,NA
India,Andhra_Pradesh,Chittoor,"Gangineni Cheruvu, Chittoor - APPCB",02-06-2024 12:00:00,13.204880,79.097889,PM10,NA,NA,NA
India,Andhra_Pradesh,Chittoor,"Gangineni Cheruvu, Chittoor - APPCB",02-06-2024 12:00:00,13.204880,79.097889,NO2,NA,NA,NA
India,Andhra_Pradesh,Chittoor,"Gangineni Cheruvu, Chittoor - APPCB",02-06-2024 12:00:00,13.204880,79.097889,SO2,NA,NA,NA
India,Andhra_Pradesh,Kadapa,"Yerramukkapalli, Kadapa - APPCB",02-06-2024 12:00:00,14.465052,78.824187,NH3,NA,NA,NA
India,Andhra_Pradesh,Kadapa,"Yerramukkapalli, Kadapa - APPCB",02-06-2024 12:00:00,14.465052,78.824187,CO,NA,NA,NA
India,Andhra_Pradesh,Rajamahendravaram,"Anand Kala Kshetram, Rajamahendravaram - APPCB",02-06-2024 12:00:00,16.9872867,81.7363176,PM10,41,66,51
India,Andhra_Pradesh,Rajamahendravaram,"Anand Kala Kshetram, Rajamahendravaram - APPCB",02-06-2024 12:00:00,16.9872867,81.7363176,NO2,NA,NA,NA
India,Andhra_Pradesh,Rajamahendravaram,"Anand Kala Kshetram, Rajamahendravaram - APPCB",02-06-2024 12:00:00,16.9872867,81.7363176,CO,4,54,11
India,Andhra_Pradesh,Tirupati,"Vaikuntapuram, Tirupati - APPCB",02-06-2024 12:00:00,13.615387,79.409230,PM10,NA,NA,NA
India,Andhra_Pradesh,Tirupati,"Vaikuntapuram, Tirupati - APPCB",02-06-2024 12:00:00,13.615387,79.409230,CO,10,17,12
India,Andhra_Pradesh,Vijayawada,"HB Colony, Vijayawada - APPCB",02-06-2024 12:00:00,16.536107,80.594233,SO2,6,6,6
India,Andhra_Pradesh,Vijayawada,"HB Colony, Vijayawada - APPCB",02-06-2024 12:00:00,16.536107,80.594233,CO,33,33,33
India,Andhra_Pradesh,Vijayawada,"Kanuru, Vijayawada - APPCB",02-06-2024 12:00:00,16.486692,80.699436,PM2.5,NA,NA,NA
India,Andhra_Pradesh,Vijayawada,"Rajiv Gandhi Park, Vijayawada - APPCB",02-06-2024 12:00:00,16.509717,80.612222,CO,36,37,36
India,Andhra_Pradesh,Vijayawada,"Rajiv Gandhi Park, Vijayawada - APPCB",02-06-2024 12:00:00,16.509717,80.612222,OZONE,23,65,31
India,Andhra_Pradesh,Vijayawada,"Rajiv Nagar, Vijayawada - APPCB",02-06-2024 12:00:00,16.554731,80.649110,PM2.5,47,78,50
India,Andhra_Pradesh,Vijayawada,"Rajiv Nagar, Vijayawada - APPCB",02-06-2024 12:00:00,16.554731,80.649110,NH3,1,2,2
India,Andhra_Pradesh,Vijayawada,"Rajiv Nagar, Vijayawada - APPCB",02-06-2024 12:00:00,16.554731,80.649110,SO2,12,18,15
India,Andhra_Pradesh,Visakhapatnam,"GVM Corporation, Visakhapatnam - APPCB",02-06-2024 12:00:00,17.72,83.3,SO2,8,16,11
India,Assam,Guwahati,"IITG, Guwahati - PCBA",02-06-2024 12:00:00,26.2028636,91.70046436,NO2,NA,NA,NA
India,Assam,Guwahati,"LGBI Airport, Guwahati - PCBA",02-06-2024 12:00:00,26.10887,91.589544,PM2.5,NA,NA,NA
India,Assam,Guwahati,"LGBI Airport, Guwahati - PCBA",02-06-2024 12:00:00,26.10887,91.589544,OZONE,22,35,22
India,Assam,Guwahati,"Pan Bazaar, Guwahati - PCBA",02-06-2024 12:00:00,26.187500,91.744194,PM2.5,15,36,24
India,Assam,Guwahati,"Pan Bazaar, Guwahati - PCBA",02-06-2024 12:00:00,26.187500,91.744194,SO2,33,49,39
India,Assam,Guwahati,"Pan Bazaar, Guwahati - PCBA",02-06-2024 12:00:00,26.187500,91.744194,CO,16,22,21
India,Assam,Guwahati,"Pan Bazaar, Guwahati - PCBA",02-06-2024 12:00:00,26.187500,91.744194,OZONE,16,17,17
India,Assam,Nagaon,"Christianpatty, Nagaon - PCBA",02-06-2024 12:00:00,26.349082,92.68449,PM10,NA,NA,NA
India,Assam,Nagaon,"Christianpatty, Nagaon - PCBA",02-06-2024 12:00:00,26.349082,92.68449,NO2,NA,NA,NA
India,Assam,Nagaon,"Christianpatty, Nagaon - PCBA",02-06-2024 12:00:00,26.349082,92.68449,OZONE,9,181,61
India,Assam,Nalbari,"Bata Chowk, Nalbari - PCBA",02-06-2024 12:00:00,26.446912,91.439057,NO2,NA,NA,NA
India,Assam,Silchar,"Tarapur, Silchar - PCBA",02-06-2024 12:00:00,24.82827,92.79525,NO2,14,15,14
India,Assam,Silchar,"Tarapur, Silchar - PCBA",02-06-2024 12:00:00,24.82827,92.79525,SO2,1,9,3
India,Assam,Sivasagar,"Girls College, Sivasagar - PCBA",02-06-2024 12:00:00,26.987634,94.636574,SO2,5,8,6
India,Assam,Sivasagar,"Girls College, Sivasagar - PCBA",02-06-2024 12:00:00,26.987634,94.636574,CO,6,11,7
India,Assam,Sivasagar,"Girls College, Sivasagar - PCBA",02-06-2024 12:00:00,26.987634,94.636574,OZONE,1,9,3
India,Bihar,Araria,"Kharahiya Basti, Araria - BSPCB",02-06-2024 12:00:00,26.146529,87.454184,NO2,NA,NA,NA
India,Bihar,Arrah,"New DM Office, Arrah - BSPCB",02-06-2024 12:00:00,25.5626095,84.663264,CO,16,22,18
India,Bihar,Arrah,"New DM Office, Arrah - BSPCB",02-06-2024 12:00:00,25.5626095,84.663264,OZONE,5,52,22
India,Bihar,Aurangabad,"Gurdeo Nagar, Aurangabad - BSPCB",02-06-2024 12:00:00,24.75746,84.366208,CO,16,24,20
India,Bihar,Bettiah,"Kamalnath Nagar, Bettiah - BSPCB",02-06-2024 12:00:00,26.80365,84.51954,PM2.5,NA,NA,NA
India,Bihar,Bettiah,"Kamalnath Nagar, Bettiah - BSPCB",02-06-2024 12:00:00,26.80365,84.51954,NO2,26,36,33
India,Bihar,Bettiah,"Kamalnath Nagar, Bettiah - BSPCB",02-06-2024 12:00:00,26.80365,84.51954,OZONE,5,15,8
India,Bihar,Bhagalpur,"Mayaganj, Bhagalpur - BSPCB",02-06-2024 12:00:00,25.265194,87.012947,NO2,3,11,7
India,Bihar,Bhagalpur,"Mayaganj, Bhagalpur - BSPCB",02-06-2024 12:00:00,25.265194,87.012947,OZONE,11,32,16
India,Bihar,Buxar,"Charitra Van, Buxar - BSPCB (Formerly known as Central Jail)",02-06-2024 12:00:00,25.567520,83.966379,SO2,NA,NA,NA
India,Bihar,Chhapra,"Darshan Nagar, Chhapra - BSPCB",02-06-2024 12:00:00,25.7808257,84.7446768,NH3,5,10,6
India,Bihar,Chhapra,"Darshan Nagar, Chhapra - BSPCB",02-06-2024 12:00:00,25.7808257,84.7446768,SO2,13,26,18
India,Bihar,Gaya,"Kareemganj, Gaya - BSPCB",02-06-2024 12:00:00,24.792403,84.992416,PM2.5,15,107,40
India,Bihar,Gaya,"Kareemganj, Gaya - BSPCB",02-06-2024 12:00:00,24.792403,84.992416,CO,22,22,22
India,Bihar,Gaya,"Kareemganj, Gaya - BSPCB",02-06-2024 12:00:00,24.792403,84.992416,OZONE,11,43,19
India,Bihar,Gaya,"SFTI Kusdihra, Gaya - BSPCB",02-06-2024 12:00:00,24.762518,84.982348,NH3,NA,NA,NA
India,Bihar,Gaya,"SFTI Kusdihra, Gaya - BSPCB",02-06-2024 12:00:00,24.762518,84.982348,SO2,NA,NA,NA
India,Bihar,Gaya,"SFTI Kusdihra, Gaya - BSPCB",02-06-2024 12:00:00,24.762518,84.982348,CO,14,29,20
India,Bihar,Hajipur,"Industrial Area, Hajipur - BSPCB",02-06-2024 12:00:00,25.697189,85.245900,NH3,11,14,12
India,Bihar,Hajipur,"Industrial Area, Hajipur - BSPCB",02-06-2024 12:00:00,25.697189,85.245900,SO2,6,7,7
India,Bihar,Katihar,"Mirchaibari, Katihar - BSPCB",02-06-2024 12:00:00,25.560083,87.553265,PM2.5,NA,NA,NA
India,Bihar,Katihar,"Mirchaibari, Katihar - BSPCB",02-06-2024 12:00:00,25.560083,87.553265,CO,22,47,42
India,Bihar,Kishanganj,"SDM Office_Khagra, Kishanganj - BSPCB",02-06-2024 12:00:00,26.0881305,87.93840336,CO,4,5,5
India,Bihar,Manguraha,"Forest Rest House, Manguraha - BSPCB",02-06-2024 12:00:00,27.308328,84.531742,NO2,NA,NA,NA
India,Bihar,Motihari,"Gandak Colony, Motihari - BSPCB",02-06-2024 12:00:00,26.63086,84.90051,OZONE,17,66,26
India,Bihar,Munger,"Town Hall, Munger - BSPCB",02-06-2024 12:00:00,25.376776,86.471523,NO2,4,6,5
India,Bihar,Muzaffarpur,"Buddha Colony, Muzaffarpur - BSPCB",02-06-2024 12:00:00,26.11442,85.39813,SO2,2,5,3
India,Bihar,Muzaffarpur,"MIT-Daudpur Kothi, Muzaffarpur - BSPCB",02-06-2024 12:00:00,26.1403345,85.3650192,PM10,NA,NA,NA
India,Bihar,Muzaffarpur,"Muzaffarpur Collectorate, Muzaffarpur - BSPCB",02-06-2024 12:00:00,26.1209,85.3647,OZONE,23,45,45
India,Bihar,Patna,"DRM Office Danapur, Patna - BSPCB",02-06-2024 12:00:00,25.586562,85.043586,PM2.5,35,110,71
India,Bihar,Patna,"DRM Office Danapur, Patna - BSPCB",02-06-2024 12:00:00,25.586562,85.043586,PM10,60,124,95
India,Bihar,Patna,"DRM Office Danapur, Patna - BSPCB",02-06-2024 12:00:00,25.586562,85.043586,CO,20,30,24
India,Bihar,Patna,"IGSC Planetarium Complex, Patna - BSPCB",02-06-2024 12:00:00,25.610369,85.132568,NO2,13,13,13
India,Bihar,Patna,"Muradpur, Patna - BSPCB",02-06-2024 12:00:00,25.619651,85.147382,PM2.5,36,166,91
India,Bihar,Patna,"Muradpur, Patna - BSPCB",02-06-2024 12:00:00,25.619651,85.147382,SO2,5,7,6
India,Bihar,Patna,"Rajbansi Nagar, Patna - BSPCB",02-06-2024 12:00:00,25.599486,85.113666,PM2.5,58,125,84
India,Bihar,Patna,"Rajbansi Nagar, Patna - BSPCB",02-06-2024 12:00:00,25.599486,85.113666,PM10,63,121,92
India,Bihar,Patna,"Rajbansi Nagar, Patna - BSPCB",02-06-2024 12:00:00,25.599486,85.113666,CO,26,40,32
India,Bihar,Rajgir,"Dangi Tola, Rajgir - BSPCB",02-06-2024 12:00:00,25.03280,85.41948,NO2,11,17,14
India,Bihar,Rajgir,"Dangi Tola, Rajgir - BSPCB",02-06-2024 12:00:00,25.03280,85.41948,NH3,1,2,2
India,Bihar,Saharsa,"Police Line, Saharsa - BSPCB",02-06-2024 12:00:00,25.892357,86.590325,NO2,6,7,7
India,Bihar,Saharsa,"Police Line, Saharsa - BSPCB",02-06-2024 12:00:00,25.892357,86.590325,SO2,16,17,16
India,Bihar,Samastipur,"DM Office_Kasipur, Samastipur - BSPCB",02-06-2024 12:00:00,25.859655,85.77944,NO2,4,26,6
India,Bihar,Sasaram,"Dada Peer, Sasaram - BSPCB",02-06-2024 12:00:00,24.952822,84.002396,NO2,9,56,24
India,Bihar,Sasaram,"Dada Peer, Sasaram - BSPCB",02-06-2024 12:00:00,24.952822,84.002396,NH3,4,18,9
India,Bihar,Sasaram,"Dada Peer, Sasaram - BSPCB",02-06-2024 12:00:00,24.952822,84.002396,SO2,16,24,22
India,Bihar,Siwan,"Chitragupta Nagar, Siwan - BSPCB",02-06-2024 12:00:00,26.2271665,84.3570427,SO2,NA,NA,NA
India,Bihar,Siwan,"Chitragupta Nagar, Siwan - BSPCB",02-06-2024 12:00:00,26.2271665,84.3570427,CO,92,118,110
India,Chandigarh,Chandigarh,"Sector 22, Chandigarh - CPCC",02-06-2024 12:00:00,30.735567,76.775714,NH3,7,29,13
India,Chandigarh,Chandigarh,"Sector 22, Chandigarh - CPCC",02-06-2024 12:00:00,30.735567,76.775714,SO2,8,35,18
India,Chandigarh,Chandigarh,"Sector 22, Chandigarh - CPCC",02-06-2024 12:00:00,30.735567,76.775714,CO,28,51,37
India,Chandigarh,Chandigarh,"Sector-25, Chandigarh - CPCC",02-06-2024 12:00:00,30.751462,76.762879,PM10,125,403,172
India,Chandigarh,Chandigarh,"Sector-25, Chandigarh - CPCC",02-06-2024 12:00:00,30.751462,76.762879,NO2,5,20,11
India,Chandigarh,Chandigarh,"Sector-53, Chandigarh - CPCC",02-06-2024 12:00:00,30.719859,76.738637,NO2,8,64,28
India,Chhattisgarh,Bhilai,"Civic Center, Bhilai - Bhilai Steel Plant",02-06-2024 12:00:00,21.185571,81.343175,OZONE,19,64,32
India,Chhattisgarh,Bhilai,"Hathkhoj, Bhilai - CECB",02-06-2024 12:00:00,21.224231,81.408350,PM10,65,121,90
India,Chhattisgarh,Bhilai,"Hathkhoj, Bhilai - CECB",02-06-2024 12:00:00,21.224231,81.408350,NO2,6,26,12
India,Chhattisgarh,Bhilai,"Hathkhoj, Bhilai - CECB",02-06-2024 12:00:00,21.224231,81.408350,NH3,9,9,9
India,Chhattisgarh,Bhilai,"Hathkhoj, Bhilai - CECB",02-06-2024 12:00:00,21.224231,81.408350,CO,12,54,27
India,Chhattisgarh,Bilaspur,"Mangala, Bilaspur - NTPC",02-06-2024 12:00:00,22.08815,82.13737,PM2.5,31,61,46
India,Chhattisgarh,Bilaspur,"Mangala, Bilaspur - NTPC",02-06-2024 12:00:00,22.08815,82.13737,NO2,13,16,14
India,Chhattisgarh,Bilaspur,"Mangala, Bilaspur - NTPC",02-06-2024 12:00:00,22.08815,82.13737,SO2,8,14,11
India,Chhattisgarh,Chhal,"Nawapara SECL Colony, Chhal - CECB",02-06-2024 12:00:00,22.118125,83.140608,CO,NA,NA,NA
India,Chhattisgarh,Korba,"Rampur, Korba - CECB",02-06-2024 12:00:00,22.368195,82.746431,OZONE,9,40,11
India,Chhattisgarh,Korba,"Urja Nagar, Korba - CECB",02-06-2024 12:00:00,22.348441,82.549611,SO2,NA,NA,NA
India,Chhattisgarh,Kunjemura,"OP Jindal School, Kunjemura - CECB",02-06-2024 12:00:00,22.126650,83.483212,PM2.5,23,52,36
India,Chhattisgarh,Kunjemura,"OP Jindal School, Kunjemura - CECB",02-06-2024 12:00:00,22.126650,83.483212,NH3,1,3,2
India,Chhattisgarh,Kunjemura,"OP Jindal School, Kunjemura - CECB",02-06-2024 12:00:00,22.126650,83.483212,SO2,NA,NA,NA
India,Chhattisgarh,Milupara,"Govt. Higher Secondary School, Milupara - CECB",02-06-2024 12:00:00,22.1910172,83.5197009,PM10,27,132,64
India,Chhattisgarh,Milupara,"Govt. Higher Secondary School, Milupara - CECB",02-06-2024 12:00:00,22.1910172,83.5197009,SO2,9,74,34
India,Chhattisgarh,Raipur,"AIIMS, Raipur - CECB",02-06-2024 12:00:00,21.258815,81.578979,CO,19,32,26
India,Chhattisgarh,Raipur,"Bhatagaon New ISBT, Raipur - CECB",02-06-2024 12:00:00,21.219665,81.630094,PM2.5,26,63,37
India,Chhattisgarh,Raipur,"Bhatagaon New ISBT, Raipur - CECB",02-06-2024 12:00:00,21.219665,81.630094,SO2,1,3,2
India,Chhattisgarh,Raipur,"Krishak Nagar, Raipur - CECB",02-06-2024 12:00:00,21.237755,81.705301,PM2.5,30,83,41
India,Chhattisgarh,Raipur,"Krishak Nagar, Raipur - CECB",02-06-2024 12:00:00,21.237755,81.705301,SO2,12,26,15
India,Chhattisgarh,Raipur,"Siltara Phase-II, Raipur - CECB",02-06-2024 12:00:00,21.371751,81.664929,PM2.5,37,95,59
India,Chhattisgarh,Tumidih,"OP Jindal Industrial Park, Tumidih - CECB",02-06-2024 12:00:00,22.06631475,83.33820077,OZONE,12,92,24
India,Delhi,Delhi,"Alipur, Delhi - DPCC",02-06-2024 12:00:00,28.815329,77.153010,SO2,8,24,16
India,Delhi,Delhi,"Anand Vihar, Delhi - DPCC",02-06-2024 12:00:00,28.647622,77.3158090,NO2,37,117,69
India,Delhi,Delhi,"Ashok Vihar, Delhi - DPCC",02-06-2024 12:00:00,28.695381,77.181665,PM10,NA,NA,NA
India,Delhi,Delhi,"Ashok Vihar, Delhi - DPCC",02-06-2024 12:00:00,28.695381,77.181665,NO2,13,85,35
India,Delhi,Delhi,"Aya Nagar, Delhi - IMD",02-06-2024 12:00:00,28.4706914,77.1099364,PM10,85,439,135
India,Delhi,Delhi,"Aya Nagar, Delhi - IMD",02-06-2024 12:00:00,28.4706914,77.1099364,OZONE,1,58,15
India,Delhi,Delhi,"Burari Crossing, Delhi - IMD",02-06-2024 12:00:00,28.7256504,77.2011573,PM10,NA,NA,NA
India,Delhi,Delhi,"Burari Crossing, Delhi - IMD",02-06-2024 12:00:00,28.7256504,77.2011573,OZONE,7,85,32
India,Delhi,Delhi,"Chandni Chowk, Delhi - IITM",02-06-2024 12:00:00,28.656756,77.227234,SO2,20,67,39
India,Delhi,Delhi,"DTU, Delhi - CPCB",02-06-2024 12:00:00,28.7500499,77.1112615,NO2,35,38,36
India,Delhi,Delhi,"DTU, Delhi - CPCB",02-06-2024 12:00:00,28.7500499,77.1112615,CO,2,60,42
India,Delhi,Delhi,"DTU, Delhi - CPCB",02-06-2024 12:00:00,28.7500499,77.1112615,OZONE,35,111,53
India,Delhi,Delhi,"IGI Airport (T3), Delhi - IMD",02-06-2024 12:00:00,28.5627763,77.1180053,PM10,74,407,114
India,Delhi,Delhi,"IGI Airport (T3), Delhi - IMD",02-06-2024 12:00:00,28.5627763,77.1180053,OZONE,2,68,14
India,Delhi,Delhi,"ITO, Delhi - CPCB",02-06-2024 12:00:00,28.628624,77.241060,NH3,6,8,7
India,Delhi,Delhi,"Jahangirpuri, Delhi - DPCC",02-06-2024 12:00:00,28.732820,77.170633,PM10,NA,NA,NA
India,Delhi,Delhi,"Jahangirpuri, Delhi - DPCC",02-06-2024 12:00:00,28.732820,77.170633,OZONE,NA,NA,NA
India,Delhi,Delhi,"Jawaharlal Nehru Stadium, Delhi - DPCC",02-06-2024 12:00:00,28.580280,77.233829,NH3,6,7,6
India,Delhi,Delhi,"Lodhi Road, Delhi - IMD",02-06-2024 12:00:00,28.5918245,77.2273074,PM2.5,4,155,61
India,Delhi,Delhi,"Lodhi Road, Delhi - IMD",02-06-2024 12:00:00,28.5918245,77.2273074,PM10,51,408,135
India,Delhi,Delhi,"Lodhi Road, Delhi - IMD",02-06-2024 12:00:00,28.5918245,77.2273074,NO2,4,11,6
India,Delhi,Delhi,"Mandir Marg, Delhi - DPCC",02-06-2024 12:00:00,28.636429,77.201067,PM10,39,465,132
India,Delhi,Delhi,"Mandir Marg, Delhi - DPCC",02-06-2024 12:00:00,28.636429,77.201067,CO,18,46,38
India,Delhi,Delhi,"Mandir Marg, Delhi - DPCC",02-06-2024 12:00:00,28.636429,77.201067,OZONE,12,122,42
India,Delhi,Delhi,"Najafgarh, Delhi - DPCC",02-06-2024 12:00:00,28.570173,76.933762,PM2.5,22,80,42
India,Delhi,Delhi,"Najafgarh, Delhi - DPCC",02-06-2024 12:00:00,28.570173,76.933762,CO,38,57,46
India,Delhi,Delhi,"Nehru Nagar, Delhi - DPCC",02-06-2024 12:00:00,28.567890,77.250515,CO,44,67,58
India,Delhi,Delhi,"Okhla Phase-2, Delhi - DPCC",02-06-2024 12:00:00,28.530785,77.271255,PM2.5,33,120,55
India,Delhi,Delhi,"Okhla Phase-2, Delhi - DPCC",02-06-2024 12:00:00,28.530785,77.271255,NO2,21,78,53
India,Delhi,Delhi,"Okhla Phase-2, Delhi - DPCC",02-06-2024 12:00:00,28.530785,77.271255,NH3,9,13,11
India,Delhi,Delhi,"Okhla Phase-2, Delhi - DPCC",02-06-2024 12:00:00,28.530785,77.271255,SO2,6,15,10
India,Delhi,Delhi,"Pusa, Delhi - DPCC",02-06-2024 12:00:00,28.639652,77.146275,PM10,108,500,207
India,Delhi,Delhi,"Pusa, Delhi - IMD",02-06-2024 12:00:00,28.636110,77.173332,PM10,78,494,159
India,Delhi,Delhi,"R K Puram, Delhi - DPCC",02-06-2024 12:00:00,28.563262,77.186937,PM10,101,500,167
India,Delhi,Delhi,"R K Puram, Delhi - DPCC",02-06-2024 12:00:00,28.563262,77.186937,NH3,6,26,11
India,Delhi,Delhi,"Rohini, Delhi - DPCC",02-06-2024 12:00:00,28.732528,77.119920,PM10,120,435,201
India,Delhi,Delhi,"Rohini, Delhi - DPCC",02-06-2024 12:00:00,28.732528,77.119920,NO2,9,98,38
India,Delhi,Delhi,"Rohini, Delhi - DPCC",02-06-2024 12:00:00,28.732528,77.119920,OZONE,6,154,41
India,Delhi,Delhi,"Shadipur, Delhi - CPCB",02-06-2024 12:00:00,28.6514781,77.1473105,PM2.5,NA,NA,NA
India,Delhi,Delhi,"Sirifort, Delhi - CPCB",02-06-2024 12:00:00,28.5504249,77.2159377,OZONE,3,32,10
India,Delhi,Delhi,"Sonia Vihar, Delhi - DPCC",02-06-2024 12:00:00,28.710508,77.249485,PM2.5,50,290,106
India,Delhi,Delhi,"Sonia Vihar, Delhi - DPCC",02-06-2024 12:00:00,28.710508,77.249485,PM10,108,438,165
India,Delhi,Delhi,"Sonia Vihar, Delhi - DPCC",02-06-2024 12:00:00,28.710508,77.249485,NO2,15,76,34
India,Delhi,Delhi,"Sonia Vihar, Delhi - DPCC",02-06-2024 12:00:00,28.710508,77.249485,CO,4,38,24
India,Delhi,Delhi,"Sonia Vihar, Delhi - DPCC",02-06-2024 12:00:00,28.710508,77.249485,OZONE,6,134,39
India,Delhi,Delhi,"Sri Aurobindo Marg, Delhi - DPCC",02-06-2024 12:00:00,28.531346,77.190156,NO2,6,70,32
India,Delhi,Delhi,"Vivek Vihar, Delhi - DPCC",02-06-2024 12:00:00,28.672342,77.315260,PM10,117,332,179
India,Delhi,Delhi,"Wazirpur, Delhi - DPCC",02-06-2024 12:00:00,28.699793,77.165453,PM10,108,498,170
India,Gujarat,Ahmedabad,"Chandkheda, Ahmedabad - IITM",02-06-2024 12:00:00,23.107969,72.574648,PM10,53,100,70
India,Gujarat,Ahmedabad,"Chandkheda, Ahmedabad - IITM",02-06-2024 12:00:00,23.107969,72.574648,NO2,NA,NA,NA
India,Gujarat,Ahmedabad,"Chandkheda, Ahmedabad - IITM",02-06-2024 12:00:00,23.107969,72.574648,OZONE,4,161,161
India,Gujarat,Ahmedabad,"Gyaspur, Ahmedabad - IITM",02-06-2024 12:00:00,22.977134,72.553024,NO2,42,54,47
India,Gujarat,Ahmedabad,"Gyaspur, Ahmedabad - IITM",02-06-2024 12:00:00,22.977134,72.553024,SO2,26,29,28
India,Gujarat,Ahmedabad,"Gyaspur, Ahmedabad - IITM",02-06-2024 12:00:00,22.977134,72.553024,CO,32,36,34
India,Gujarat,Ahmedabad,"Gyaspur, Ahmedabad - IITM",02-06-2024 12:00:00,22.977134,72.553024,OZONE,20,22,21
India,Gujarat,Ahmedabad,"Maninagar, Ahmedabad - GPCB",02-06-2024 12:00:00,23.002657,72.591912,NO2,32,53,41
India,Gujarat,Ahmedabad,"Raikhad, Ahmedabad - IITM",02-06-2024 12:00:00,23.020509,72.579261,CO,39,53,42
India,Gujarat,Ahmedabad,"SVPI Airport Hansol, Ahmedabad - IITM",02-06-2024 12:00:00,23.076793,72.627874,CO,8,16,9
India,Gujarat,Ahmedabad,"Sardar Vallabhbhai Patel Stadium, Ahmedabad - IITM",02-06-2024 12:00:00,23.043070,72.562968,SO2,22,32,27
India,Gujarat,Ahmedabad,"Sardar Vallabhbhai Patel Stadium, Ahmedabad - IITM",02-06-2024 12:00:00,23.043070,72.562968,CO,48,51,49
India,Gujarat,Ahmedabad,"Sardar Vallabhbhai Patel Stadium, Ahmedabad - IITM",02-06-2024 12:00:00,23.043070,72.562968,OZONE,13,45,20
India,Gujarat,Ankleshwar,"GIDC, Ankleshwar - GPCB",02-06-2024 12:00:00,21.613267,73.010555,OZONE,21,30,25
India,Gujarat,Gandhinagar,"GIFT City, Gandhinagar - IITM",02-06-2024 12:00:00,23.163798,72.677768,NH3,NA,NA,NA
India,Gujarat,Gandhinagar,"GIFT City, Gandhinagar - IITM",02-06-2024 12:00:00,23.163798,72.677768,OZONE,20,72,30
India,Gujarat,Gandhinagar,"Sector-10, Gandhinagar - GPCB",02-06-2024 12:00:00,23.221714,72.654328,PM2.5,NA,NA,NA
India,Gujarat,Gandhinagar,"Sector-10, Gandhinagar - GPCB",02-06-2024 12:00:00,23.221714,72.654328,NH3,1,2,2
India,Gujarat,Gandhinagar,"Sector-10, Gandhinagar - GPCB",02-06-2024 12:00:00,23.221714,72.654328,OZONE,20,47,27
India,Gujarat,Vatva,"Phase-4 GIDC, Vatva - GPCB",02-06-2024 12:00:00,22.969611,72.643500,PM10,55,77,65
India,Gujarat,Vatva,"Phase-4 GIDC, Vatva - GPCB",02-06-2024 12:00:00,22.969611,72.643500,NH3,14,20,17
India,Haryana,Ambala,"Patti Mehar, Ambala - HSPCB",02-06-2024 12:00:00,30.379589,76.778328,OZONE,48,69,55
India,Haryana,Bahadurgarh,"Arya Nagar, Bahadurgarh - HSPCB",02-06-2024 12:00:00,28.6701,76.9254,PM2.5,69,250,108
India,Haryana,Bahadurgarh,"Arya Nagar, Bahadurgarh - HSPCB",02-06-2024 12:00:00,28.6701,76.9254,SO2,12,37,22
India,Haryana,Ballabgarh,"Nathu Colony, Ballabgarh - HSPCB",02-06-2024 12:00:00,28.3419248,77.319699,PM2.5,68,220,111
India,Haryana,Ballabgarh,"Nathu Colony, Ballabgarh - HSPCB",02-06-2024 12:00:00,28.3419248,77.319699,PM10,78,478,148
India,Haryana,Ballabgarh,"Nathu Colony, Ballabgarh - HSPCB",02-06-2024 12:00:00,28.3419248,77.319699,SO2,4,17,8
India,Haryana,Ballabgarh,"Nathu Colony, Ballabgarh - HSPCB",02-06-2024 12:00:00,28.3419248,77.319699,CO,6,32,21
India,Haryana,Bhiwani,"H.B. Colony, Bhiwani - HSPCB",02-06-2024 12:00:00,28.806223,76.141105,PM2.5,NA,NA,NA
India,Haryana,Bhiwani,"H.B. Colony, Bhiwani - HSPCB",02-06-2024 12:00:00,28.806223,76.141105,SO2,NA,NA,NA
India,Haryana,Bhiwani,"H.B. Colony, Bhiwani - HSPCB",02-06-2024 12:00:00,28.806223,76.141105,CO,25,147,58
India,Haryana,Dharuhera,"Municipal Corporation Office, Dharuhera -  HSPCB",02-06-2024 12:00:00,28.206800,76.799700,OZONE,15,45,24
India,Haryana,Faridabad,"Sector 11, Faridabad - HSPCB",02-06-2024 12:00:00,28.376058,77.315741,PM2.5,103,500,210
India,Haryana,Faridabad,"Sector 11, Faridabad - HSPCB",02-06-2024 12:00:00,28.376058,77.315741,NH3,6,6,6
India,Haryana,Faridabad,"Sector 11, Faridabad - HSPCB",02-06-2024 12:00:00,28.376058,77.315741,OZONE,7,31,10
India,Haryana,Faridabad,"Sector 30, Faridabad - HSPCB",02-06-2024 12:00:00,28.4417,77.3217,NH3,NA,NA,NA
India,Haryana,Faridabad,"Sector 30, Faridabad - HSPCB",02-06-2024 12:00:00,28.4417,77.3217,OZONE,NA,NA,NA
India,Haryana,Faridabad,"Sector- 16A, Faridabad - HSPCB",02-06-2024 12:00:00,28.4088421,77.3099081,OZONE,NA,NA,NA
India,Haryana,Fatehabad,"Huda Sector, Fatehabad - HSPCB",02-06-2024 12:00:00,29.503664,75.467934,NO2,29,32,30
India,Haryana,Gurugram,"Sector-51, Gurugram - HSPCB",02-06-2024 12:00:00,28.4227,77.0667,SO2,2,3,3
India,Haryana,Hisar,"Urban Estate-II, Hisar - HSPCB",02-06-2024 12:00:00,29.140560,75.744941,PM10,NA,NA,NA
India,Haryana,Hisar,"Urban Estate-II, Hisar - HSPCB",02-06-2024 12:00:00,29.140560,75.744941,NH3,NA,NA,NA
India,Haryana,Jind,"Police Lines, Jind - HSPCB",02-06-2024 12:00:00,29.307814,76.337619,PM10,78,158,104
India,Haryana,Jind,"Police Lines, Jind - HSPCB",02-06-2024 12:00:00,29.307814,76.337619,SO2,NA,NA,NA
India,Haryana,Kaithal,"Rishi Nagar, Kaithal - HSPCB",02-06-2024 12:00:00,29.8006,76.4155,PM2.5,70,140,88
India,Haryana,Karnal,"Sector-12, Karnal - HSPCB",02-06-2024 12:00:00,29.695300,77.002700,PM10,60,218,141
India,Haryana,Karnal,"Sector-12, Karnal - HSPCB",02-06-2024 12:00:00,29.695300,77.002700,OZONE,29,60,31
India,Haryana,Kurukshetra,"Sector-7, Kurukshetra - HSPCB",02-06-2024 12:00:00,29.966942,76.875879,SO2,2,3,2
India,Haryana,Manesar,"Sector-2 IMT, Manesar - HSPCB",02-06-2024 12:00:00,28.360699,76.936090,PM2.5,NA,NA,NA
India,Haryana,Manesar,"Sector-2 IMT, Manesar - HSPCB",02-06-2024 12:00:00,28.360699,76.936090,NO2,17,26,21
India,Haryana,Manesar,"Sector-2 IMT, Manesar - HSPCB",02-06-2024 12:00:00,28.360699,76.936090,NH3,1,5,4
India,Haryana,Manesar,"Sector-2 IMT, Manesar - HSPCB",02-06-2024 12:00:00,28.360699,76.936090,SO2,NA,NA,NA
India,Haryana,Manesar,"Sector-2 IMT, Manesar - HSPCB",02-06-2024 12:00:00,28.360699,76.936090,OZONE,12,70,35
India,Haryana,Palwal,"Shyam Nagar, Palwal - HSPCB",02-06-2024 12:00:00,28.1485564,77.3320667,PM10,NA,NA,NA
India,Haryana,Palwal,"Shyam Nagar, Palwal - HSPCB",02-06-2024 12:00:00,28.1485564,77.3320667,SO2,NA,NA,NA
India,Haryana,Panchkula,"Sector-6, Panchkula - HSPCB ",02-06-2024 12:00:00,30.7057778,76.8531805555555,CO,2,17,16
India,Haryana,Panchkula,"Sector-6, Panchkula - HSPCB ",02-06-2024 12:00:00,30.7057778,76.8531805555555,OZONE,32,63,40
India,Haryana,Rohtak,"MD University, Rohtak - HSPCB",02-06-2024 12:00:00,28.52123,76.37138,OZONE,46,53,48
India,Haryana,Sirsa,"F-Block, Sirsa - HSPCB",02-06-2024 12:00:00,29.536400,75.015800,NH3,12,13,13
India,Haryana,Sonipat,"Murthal, Sonipat - HSPCB",02-06-2024 12:00:00,29.027200,77.062100,NH3,NA,NA,NA
India,Haryana,Sonipat,"Murthal, Sonipat - HSPCB",02-06-2024 12:00:00,29.027200,77.062100,CO,25,26,26
India,Himachal Pradesh,Baddi,"HIMUDA Complex Phase-1, Baddi - HPPCB",02-06-2024 12:00:00,30.943887,76.801991,CO,16,70,50
India,Jammu_and_Kashmir,Srinagar,"Rajbagh, Srinagar - JKSPCB",02-06-2024 12:00:00,34.066206,74.819820,SO2,NA,NA,NA
India,Karnataka,Bagalkot,"Vidayagiri, Bagalkot - KSPCB",02-06-2024 12:00:00,16.172806,75.659694,PM10,42,44,42
India,Karnataka,Bagalkot,"Vidayagiri, Bagalkot - KSPCB",02-06-2024 12:00:00,16.172806,75.659694,NO2,9,11,9
India,Karnataka,Belgaum,"Ramteerth Nagar, Belgaum - KSPCB",02-06-2024 12:00:00,15.888653,74.541751,OZONE,15,30,20
India,Karnataka,Bengaluru,"Bapuji Nagar, Bengaluru - KSPCB",02-06-2024 12:00:00,12.951913,77.539784,NO2,14,16,15
India,Karnataka,Bengaluru,"Bapuji Nagar, Bengaluru - KSPCB",02-06-2024 12:00:00,12.951913,77.539784,CO,18,51,38
India,Karnataka,Bengaluru,"Hombegowda Nagar, Bengaluru - KSPCB",02-06-2024 12:00:00,12.938539,77.590100,NO2,11,23,17
India,Karnataka,Bengaluru,"Jayanagar 5th Block, Bengaluru - KSPCB",02-06-2024 12:00:00,12.920984,77.584908,NH3,NA,NA,NA
India,Karnataka,Bengaluru,"Jayanagar 5th Block, Bengaluru - KSPCB",02-06-2024 12:00:00,12.920984,77.584908,OZONE,NA,NA,NA
India,Karnataka,Bengaluru,"Jigani, Bengaluru - KSPCB",02-06-2024 12:00:00,12.7816279,77.6299145,PM10,NA,NA,NA
India,Karnataka,Bengaluru,"Sanegurava Halli, Bengaluru - KSPCB",02-06-2024 12:00:00,12.990328,77.5431385,NO2,22,28,24
India,Karnataka,Bengaluru,"Shivapura_Peenya, Bengaluru - KSPCB",02-06-2024 12:00:00,13.0246342,77.5080115,NO2,15,16,16
India,Karnataka,Bengaluru,"Shivapura_Peenya, Bengaluru - KSPCB",02-06-2024 12:00:00,13.0246342,77.5080115,NH3,4,4,4
India,Karnataka,Bengaluru,"Shivapura_Peenya, Bengaluru - KSPCB",02-06-2024 12:00:00,13.0246342,77.5080115,CO,18,45,21
India,Karnataka,Bengaluru,"Silk Board, Bengaluru - KSPCB",02-06-2024 12:00:00,12.917348,77.622813,PM2.5,4,64,35
India,Karnataka,Bidar,"Naubad, Bidar - KSPCB",02-06-2024 12:00:00,17.930306,77.482194,PM2.5,NA,NA,NA
India,Karnataka,Bidar,"Naubad, Bidar - KSPCB",02-06-2024 12:00:00,17.930306,77.482194,SO2,NA,NA,NA
India,Karnataka,Chamarajanagar,"Urban, Chamarajanagar - KSPCB",02-06-2024 12:00:00,11.55358,76.55521,NO2,23,29,28
India,Karnataka,Chamarajanagar,"Urban, Chamarajanagar - KSPCB",02-06-2024 12:00:00,11.55358,76.55521,OZONE,14,36,20
India,Karnataka,Chikkaballapur,"Chikkaballapur Rural, Chikkaballapur - KSPCB",02-06-2024 12:00:00,13.428828,77.731418,NO2,5,10,7
India,Karnataka,Chikkaballapur,"Chikkaballapur Rural, Chikkaballapur - KSPCB",02-06-2024 12:00:00,13.428828,77.731418,SO2,18,26,22
India,Karnataka,Chikkaballapur,"Chikkaballapur Rural, Chikkaballapur - KSPCB",02-06-2024 12:00:00,13.428828,77.731418,CO,12,20,15
India,Karnataka,Chikkaballapur,"Chikkaballapur Rural, Chikkaballapur - KSPCB",02-06-2024 12:00:00,13.428828,77.731418,OZONE,24,25,25
India,Karnataka,Chikkamagaluru,"Kalyana Nagara, Chikkamagaluru - KSPCB",02-06-2024 12:00:00,13.328028,75.797056,PM2.5,14,49,26
India,Karnataka,Chikkamagaluru,"Kalyana Nagara, Chikkamagaluru - KSPCB",02-06-2024 12:00:00,13.328028,75.797056,NH3,2,4,3
India,Karnataka,Davanagere,"Devaraj Urs Badavane, Davanagere - KSPCB",02-06-2024 12:00:00,14.475800,75.905200,PM2.5,7,42,26
India,Karnataka,Dharwad,"Kalabhavan, Dharwad - KSPCB",02-06-2024 12:00:00,15.459706,75.008381,SO2,1,8,3
India,Karnataka,Gadag,"Panchal Nagar, Gadag - KSPCB",02-06-2024 12:00:00,15.411456,75.638133,NO2,8,38,16
India,Karnataka,Gadag,"Panchal Nagar, Gadag - KSPCB",02-06-2024 12:00:00,15.411456,75.638133,OZONE,5,9,8
India,Karnataka,Haveri,"Ashwini Nagar, Haveri - KSPCB",02-06-2024 12:00:00,14.791800,75.389600,CO,32,38,36
India,Karnataka,Kalaburagi,"Lal Bahadur Shastri Nagar, Kalaburagi - KSPCB",02-06-2024 12:00:00,17.321993,76.822628,NO2,10,12,11
India,Karnataka,Kalaburagi,"Mahatma Basaveswar Colony, Kalaburgi - KSPCB",02-06-2024 12:00:00,17.336318,76.847397,PM10,25,66,44
India,Karnataka,Kalaburagi,"Mahatma Basaveswar Colony, Kalaburgi - KSPCB",02-06-2024 12:00:00,17.336318,76.847397,CO,26,54,27
India,Karnataka,Kalaburagi,"Mahatma Basaveswar Colony, Kalaburgi - KSPCB",02-06-2024 12:00:00,17.336318,76.847397,OZONE,19,69,28
India,Karnataka,Karwar,"KHB Colony, Karwar - KSPCB",02-06-2024 12:00:00,14.816666,74.141003,PM2.5,3,39,17
