country,state,city,station,last_update,latitude,longitude,pollutant_id,pollutant_min,pollutant_max,pollutant_avg
India,Andhra_Pradesh,Anantapur,"Gulzarpet, Anantapur - APPCB",05-02-2024 04:00:00,14.675886,77.593027,PM2.5,39,90,53
India,Andhra_Pradesh,Chittoor,"Gangineni Cheruvu, Chittoor - APPCB",05-02-2024 04:00:00,13.204880,79.097889,NO2,5,18,9
India,Andhra_Pradesh,Chittoor,"Gangineni Cheruvu, Chittoor - APPCB",05-02-2024 04:00:00,13.204880,79.097889,SO2,4,91,29
India,Andhra_Pradesh,Chittoor,"Gangineni Cheruvu, Chittoor - APPCB",05-02-2024 04:00:00,13.204880,79.097889,CO,14,26,19
India,Andhra_Pradesh,Chittoor,"Gangineni Cheruvu, Chittoor - APPCB",05-02-2024 04:00:00,13.204880,79.097889,OZONE,8,139,46
India,Andhra_Pradesh,Kadapa,"Yerramukkapalli, Kadapa - APPCB",05-02-2024 04:00:00,14.465052,78.824187,CO,12,17,13
India,Andhra_Pradesh,Rajamahendravaram,"Anand Kala Kshetram, Rajamahendravaram - APPCB",05-02-2024 04:00:00,16.9872867,81.7363176,NH3,5,9,7
India,Andhra_Pradesh,Rajamahendravaram,"Anand Kala Kshetram, Rajamahendravaram - APPCB",05-02-2024 04:00:00,16.9872867,81.7363176,CO,6,40,15
India,Andhra_Pradesh,Tirupati,"Tirumala, Tirupati - APPCB",05-02-2024 04:00:00,13.67,79.35,PM2.5,51,97,71
India,Andhra_Pradesh,Tirupati,"Tirumala, Tirupati - APPCB",05-02-2024 04:00:00,13.67,79.35,OZONE,NA,NA,NA
India,Andhra_Pradesh,Tirupati,"Vaikuntapuram, Tirupati - APPCB",05-02-2024 04:00:00,13.615387,79.409230,PM2.5,NA,NA,NA
India,Andhra_Pradesh,Vijayawada,"HB Colony, Vijayawada - APPCB",05-02-2024 04:00:00,16.536107,80.594233,CO,NA,NA,NA
India,Andhra_Pradesh,Vijayawada,"Kanuru, Vijayawada - APPCB",05-02-2024 04:00:00,16.486692,80.699436,CO,NA,NA,NA
India,Andhra_Pradesh,Vijayawada,"Rajiv Gandhi Park, Vijayawada - APPCB",05-02-2024 04:00:00,16.509717,80.612222,SO2,4,7,6
India,Andhra_Pradesh,Vijayawada,"Rajiv Gandhi Park, Vijayawada - APPCB",05-02-2024 04:00:00,16.509717,80.612222,OZONE,1,61,5
India,Andhra_Pradesh,Vijayawada,"Rajiv Nagar, Vijayawada - APPCB",05-02-2024 04:00:00,16.554731,80.649110,CO,22,68,35
India,Andhra_Pradesh,Vijayawada,"Rajiv Nagar, Vijayawada - APPCB",05-02-2024 04:00:00,16.554731,80.649110,OZONE,4,41,11
India,Arunachal_Pradesh,Naharlagun,"Naharlagun, Naharlagun - APSPCB",05-02-2024 04:00:00,27.103358,93.679645,SO2,3,3,3
India,Assam,Byrnihat,"Central Academy for SFS, Byrnihat - PCBA",05-02-2024 04:00:00,26.071318,91.87488,PM10,90,500,302
India,Assam,Byrnihat,"Central Academy for SFS, Byrnihat - PCBA",05-02-2024 04:00:00,26.071318,91.87488,OZONE,12,15,13
India,Assam,Guwahati,"LGBI Airport, Guwahati - PCBA",05-02-2024 04:00:00,26.10887,91.589544,NO2,NA,NA,NA
India,Assam,Guwahati,"LGBI Airport, Guwahati - PCBA",05-02-2024 04:00:00,26.10887,91.589544,NH3,1,12,2
India,Assam,Guwahati,"LGBI Airport, Guwahati - PCBA",05-02-2024 04:00:00,26.10887,91.589544,CO,33,74,55
India,Assam,Guwahati,"Railway Colony, Guwahati - PCBA",05-02-2024 04:00:00,26.181742,91.78063,NO2,3,3,3
India,Assam,Guwahati,"Railway Colony, Guwahati - PCBA",05-02-2024 04:00:00,26.181742,91.78063,OZONE,9,40,24
India,Assam,Nagaon,"Christianpatty, Nagaon - PCBA",05-02-2024 04:00:00,26.349082,92.68449,NH3,1,2,1
India,Assam,Nalbari,"Bata Chowk, Nalbari - PCBA",05-02-2024 04:00:00,26.446912,91.439057,PM10,64,289,133
India,Assam,Nalbari,"Bata Chowk, Nalbari - PCBA",05-02-2024 04:00:00,26.446912,91.439057,NH3,1,4,2
India,Assam,Nalbari,"Bata Chowk, Nalbari - PCBA",05-02-2024 04:00:00,26.446912,91.439057,SO2,5,13,9
India,Assam,Silchar,"Tarapur, Silchar - PCBA",05-02-2024 04:00:00,24.82827,92.79525,NH3,1,1,1
India,Assam,Silchar,"Tarapur, Silchar - PCBA",05-02-2024 04:00:00,24.82827,92.79525,OZONE,NA,NA,NA
India,Bihar,Araria,"Kharahiya Basti, Araria - BSPCB",05-02-2024 04:00:00,26.146529,87.454184,PM10,143,473,332
India,Bihar,Bettiah,"Kamalnath Nagar, Bettiah - BSPCB",05-02-2024 04:00:00,26.80365,84.51954,PM10,43,430,129
India,Bihar,Bettiah,"Kamalnath Nagar, Bettiah - BSPCB",05-02-2024 04:00:00,26.80365,84.51954,SO2,6,17,12
India,Bihar,Bettiah,"Kamalnath Nagar, Bettiah - BSPCB",05-02-2024 04:00:00,26.80365,84.51954,CO,76,78,77
India,Bihar,Bhagalpur,"DM Office_Kachari Chowk, Bhagalpur - BSPCB",05-02-2024 04:00:00,25.251013,86.989001,PM2.5,110,356,245
India,Bihar,Bhagalpur,"DM Office_Kachari Chowk, Bhagalpur - BSPCB",05-02-2024 04:00:00,25.251013,86.989001,PM10,111,226,156
India,Bihar,Bhagalpur,"DM Office_Kachari Chowk, Bhagalpur - BSPCB",05-02-2024 04:00:00,25.251013,86.989001,NO2,56,91,73
India,Bihar,Bhagalpur,"Mayaganj, Bhagalpur - BSPCB",05-02-2024 04:00:00,25.265194,87.012947,CO,8,10,9
India,Bihar,Bihar Sharif,"D M Colony, Bihar Sharif - BSPCB",05-02-2024 04:00:00,25.204762,85.514960,PM2.5,42,300,155
India,Bihar,Bihar Sharif,"D M Colony, Bihar Sharif - BSPCB",05-02-2024 04:00:00,25.204762,85.514960,NH3,2,2,2
India,Bihar,Buxar,"Charitra Van, Buxar - BSPCB (Formerly known as Central Jail)",05-02-2024 04:00:00,25.567520,83.966379,SO2,NA,NA,NA
India,Bihar,Chhapra,"Darshan Nagar, Chhapra - BSPCB",05-02-2024 04:00:00,25.7808257,84.7446768,OZONE,2,18,3
India,Bihar,Gaya,"Collectorate, Gaya - BSPCB",05-02-2024 04:00:00,24.7955,84.9994,NO2,NA,NA,NA
India,Bihar,Gaya,"Collectorate, Gaya - BSPCB",05-02-2024 04:00:00,24.7955,84.9994,OZONE,NA,NA,NA
India,Bihar,Gaya,"Kareemganj, Gaya - BSPCB",05-02-2024 04:00:00,24.792403,84.992416,PM10,63,193,109
India,Bihar,Gaya,"SFTI Kusdihra, Gaya - BSPCB",05-02-2024 04:00:00,24.762518,84.982348,OZONE,6,104,29
India,Bihar,Manguraha,"Forest Rest House, Manguraha - BSPCB",05-02-2024 04:00:00,27.308328,84.531742,CO,2,11,6
India,Bihar,Motihari,"Gandak Colony, Motihari - BSPCB",05-02-2024 04:00:00,26.63086,84.90051,PM2.5,80,310,208
India,Bihar,Munger,"Town Hall, Munger - BSPCB",05-02-2024 04:00:00,25.376776,86.471523,NO2,8,10,9
India,Bihar,Munger,"Town Hall, Munger - BSPCB",05-02-2024 04:00:00,25.376776,86.471523,SO2,38,57,50
India,Bihar,Muzaffarpur,"Buddha Colony, Muzaffarpur - BSPCB",05-02-2024 04:00:00,26.11442,85.39813,PM2.5,265,418,323
India,Bihar,Muzaffarpur,"Buddha Colony, Muzaffarpur - BSPCB",05-02-2024 04:00:00,26.11442,85.39813,PM10,182,453,262
India,Bihar,Muzaffarpur,"Buddha Colony, Muzaffarpur - BSPCB",05-02-2024 04:00:00,26.11442,85.39813,NH3,10,16,13
India,Bihar,Muzaffarpur,"MIT-Daudpur Kothi, Muzaffarpur - BSPCB",05-02-2024 04:00:00,26.1403345,85.3650192,PM2.5,103,431,284
India,Bihar,Muzaffarpur,"Muzaffarpur Collectorate, Muzaffarpur - BSPCB",05-02-2024 04:00:00,26.1209,85.3647,PM2.5,157,318,241
India,Bihar,Patna,"Govt. High School Shikarpur, Patna - BSPCB",05-02-2024 04:00:00,25.592539,85.227158,SO2,3,6,4
India,Bihar,Patna,"IGSC Planetarium Complex, Patna - BSPCB",05-02-2024 04:00:00,25.610369,85.132568,PM2.5,22,304,102
India,Bihar,Patna,"Muradpur, Patna - BSPCB",05-02-2024 04:00:00,25.619651,85.147382,PM2.5,83,302,166
India,Bihar,Patna,"Rajbansi Nagar, Patna - BSPCB",05-02-2024 04:00:00,25.599486,85.113666,PM2.5,NA,NA,NA
India,Bihar,Patna,"Rajbansi Nagar, Patna - BSPCB",05-02-2024 04:00:00,25.599486,85.113666,CO,NA,NA,NA
India,Bihar,Patna,"Samanpura, Patna - BSPCB",05-02-2024 04:00:00,25.596727,85.085624,PM2.5,89,500,247
India,Bihar,Purnia,"Mariam Nagar, Purnia - BSPCB",05-02-2024 04:00:00,25.366336,87.117468,NH3,1,1,1
India,Bihar,Rajgir,"Dangi Tola, Rajgir - BSPCB",05-02-2024 04:00:00,25.03280,85.41948,SO2,4,4,4
India,Bihar,Saharsa,"Police Line, Saharsa - BSPCB",05-02-2024 04:00:00,25.892357,86.590325,PM2.5,123,358,287
India,Bihar,Saharsa,"Police Line, Saharsa - BSPCB",05-02-2024 04:00:00,25.892357,86.590325,PM10,117,196,156
India,Bihar,Saharsa,"Police Line, Saharsa - BSPCB",05-02-2024 04:00:00,25.892357,86.590325,SO2,NA,NA,NA
India,Bihar,Samastipur,"DM Office_Kasipur, Samastipur - BSPCB",05-02-2024 04:00:00,25.859655,85.77944,NO2,2,7,5
India,Bihar,Sasaram,"Dada Peer, Sasaram - BSPCB",05-02-2024 04:00:00,24.952822,84.002396,NH3,4,12,7
India,Chandigarh,Chandigarh,"Sector 22, Chandigarh - CPCC",05-02-2024 04:00:00,30.735567,76.775714,PM10,44,174,89
India,Chandigarh,Chandigarh,"Sector 22, Chandigarh - CPCC",05-02-2024 04:00:00,30.735567,76.775714,NO2,24,84,46
India,Chandigarh,Chandigarh,"Sector 22, Chandigarh - CPCC",05-02-2024 04:00:00,30.735567,76.775714,SO2,6,28,12
India,Chandigarh,Chandigarh,"Sector 22, Chandigarh - CPCC",05-02-2024 04:00:00,30.735567,76.775714,CO,41,73,49
India,Chandigarh,Chandigarh,"Sector-25, Chandigarh - CPCC",05-02-2024 04:00:00,30.751462,76.762879,PM2.5,90,208,121
India,Chandigarh,Chandigarh,"Sector-25, Chandigarh - CPCC",05-02-2024 04:00:00,30.751462,76.762879,SO2,6,11,8
India,Chandigarh,Chandigarh,"Sector-25, Chandigarh - CPCC",05-02-2024 04:00:00,30.751462,76.762879,CO,24,51,31
India,Chhattisgarh,Bhilai,"32Bungalows, Bhilai - CECB",05-02-2024 04:00:00,21.194815,81.314770,NO2,16,29,22
India,Chhattisgarh,Bhilai,"Civic Center, Bhilai - Bhilai Steel Plant",05-02-2024 04:00:00,21.185571,81.343175,PM2.5,29,74,44
India,Chhattisgarh,Bhilai,"Hathkhoj, Bhilai - CECB",05-02-2024 04:00:00,21.224231,81.408350,NO2,27,60,39
India,Chhattisgarh,Bilaspur,"Mangala, Bilaspur - NTPC",05-02-2024 04:00:00,22.08815,82.13737,PM10,31,117,67
India,Chhattisgarh,Bilaspur,"Mangala, Bilaspur - NTPC",05-02-2024 04:00:00,22.08815,82.13737,NO2,15,17,16
India,Chhattisgarh,Chhal,"Nawapara SECL Colony, Chhal - CECB",05-02-2024 04:00:00,22.118125,83.140608,NH3,2,2,2
India,Chhattisgarh,Chhal,"Nawapara SECL Colony, Chhal - CECB",05-02-2024 04:00:00,22.118125,83.140608,SO2,12,58,24
India,Chhattisgarh,Milupara,"Govt. Higher Secondary School, Milupara - CECB",05-02-2024 04:00:00,22.1910172,83.5197009,PM2.5,16,50,30
India,Chhattisgarh,Raipur,"AIIMS, Raipur - CECB",05-02-2024 04:00:00,21.258815,81.578979,CO,24,54,36
India,Chhattisgarh,Raipur,"Bhatagaon New ISBT, Raipur - CECB",05-02-2024 04:00:00,21.219665,81.630094,SO2,NA,NA,NA
India,Chhattisgarh,Raipur,"Krishak Nagar, Raipur - CECB",05-02-2024 04:00:00,21.237755,81.705301,PM2.5,22,70,42
India,Chhattisgarh,Raipur,"Krishak Nagar, Raipur - CECB",05-02-2024 04:00:00,21.237755,81.705301,CO,26,54,34
India,Delhi,Delhi,"Alipur, Delhi - DPCC",05-02-2024 04:00:00,28.815329,77.153010,PM10,76,141,107
India,Delhi,Delhi,"Alipur, Delhi - DPCC",05-02-2024 04:00:00,28.815329,77.153010,NO2,23,52,38
India,Delhi,Delhi,"Alipur, Delhi - DPCC",05-02-2024 04:00:00,28.815329,77.153010,SO2,7,16,10
India,Delhi,Delhi,"Ashok Vihar, Delhi - DPCC",05-02-2024 04:00:00,28.695381,77.181665,OZONE,4,7,5
India,Delhi,Delhi,"Bawana, Delhi - DPCC",05-02-2024 04:00:00,28.776200,77.051074,CO,44,100,70
India,Delhi,Delhi,"CRRI Mathura Road, Delhi - IMD",05-02-2024 04:00:00,28.5512005,77.2735737,PM10,70,200,111
India,Delhi,Delhi,"Dr. Karni Singh Shooting Range, Delhi - DPCC",05-02-2024 04:00:00,28.498571,77.264840,NO2,27,105,60
India,Delhi,Delhi,"Dr. Karni Singh Shooting Range, Delhi - DPCC",05-02-2024 04:00:00,28.498571,77.264840,CO,34,105,48
India,Delhi,Delhi,"Dwarka-Sector 8, Delhi - DPCC ",05-02-2024 04:00:00,28.5710274,77.0719006,NO2,35,111,65
India,Delhi,Delhi,"Dwarka-Sector 8, Delhi - DPCC ",05-02-2024 04:00:00,28.5710274,77.0719006,SO2,1,8,3
India,Delhi,Delhi,"Dwarka-Sector 8, Delhi - DPCC ",05-02-2024 04:00:00,28.5710274,77.0719006,OZONE,2,21,4
India,Delhi,Delhi,"IGI Airport (T3), Delhi - IMD",05-02-2024 04:00:00,28.5627763,77.1180053,PM2.5,92,305,191
India,Delhi,Delhi,"IHBAS, Dilshad Garden, Delhi - CPCB",05-02-2024 04:00:00,28.6811736,77.3025234,NO2,5,22,14
India,Delhi,Delhi,"ITO, Delhi - CPCB",05-02-2024 04:00:00,28.628624,77.241060,CO,32,90,53
India,Delhi,Delhi,"Jawaharlal Nehru Stadium, Delhi - DPCC",05-02-2024 04:00:00,28.580280,77.233829,PM10,95,251,142
India,Delhi,Delhi,"Lodhi Road, Delhi - IITM",05-02-2024 04:00:00,28.588333,77.221667,CO,66,70,69
India,Delhi,Delhi,"Lodhi Road, Delhi - IITM",05-02-2024 04:00:00,28.588333,77.221667,OZONE,15,16,16
India,Delhi,Delhi,"Mundka, Delhi - DPCC",05-02-2024 04:00:00,28.684678,77.076574,SO2,6,17,9
India,Delhi,Delhi,"Najafgarh, Delhi - DPCC",05-02-2024 04:00:00,28.570173,76.933762,PM10,85,146,104
India,Delhi,Delhi,"Najafgarh, Delhi - DPCC",05-02-2024 04:00:00,28.570173,76.933762,CO,21,62,27
India,Delhi,Delhi,"Narela, Delhi - DPCC",05-02-2024 04:00:00,28.822836,77.101981,NO2,23,74,46
India,Delhi,Delhi,"Narela, Delhi - DPCC",05-02-2024 04:00:00,28.822836,77.101981,OZONE,9,75,14
India,Delhi,Delhi,"Nehru Nagar, Delhi - DPCC",05-02-2024 04:00:00,28.567890,77.250515,PM10,123,262,158
India,Delhi,Delhi,"Nehru Nagar, Delhi - DPCC",05-02-2024 04:00:00,28.567890,77.250515,NH3,12,31,20
India,Delhi,Delhi,"Nehru Nagar, Delhi - DPCC",05-02-2024 04:00:00,28.567890,77.250515,SO2,5,12,7
India,Delhi,Delhi,"Okhla Phase-2, Delhi - DPCC",05-02-2024 04:00:00,28.530785,77.271255,PM10,128,330,158
India,Delhi,Delhi,"Patparganj, Delhi - DPCC",05-02-2024 04:00:00,28.623763,77.287209,OZONE,2,9,3
India,Delhi,Delhi,"Punjabi Bagh, Delhi - DPCC",05-02-2024 04:00:00,28.674045,77.131023,SO2,NA,NA,NA
India,Delhi,Delhi,"Punjabi Bagh, Delhi - DPCC",05-02-2024 04:00:00,28.674045,77.131023,OZONE,8,10,8
India,Delhi,Delhi,"Pusa, Delhi - DPCC",05-02-2024 04:00:00,28.639652,77.146275,NH3,16,35,26
India,Delhi,Delhi,"Pusa, Delhi - DPCC",05-02-2024 04:00:00,28.639652,77.146275,OZONE,13,42,16
India,Delhi,Delhi,"Rohini, Delhi - DPCC",05-02-2024 04:00:00,28.732528,77.119920,CO,28,78,47
India,Delhi,Delhi,"Sirifort, Delhi - CPCB",05-02-2024 04:00:00,28.5504249,77.2159377,NO2,105,173,137
India,Delhi,Delhi,"Sirifort, Delhi - CPCB",05-02-2024 04:00:00,28.5504249,77.2159377,SO2,31,41,33
India,Delhi,Delhi,"Sonia Vihar, Delhi - DPCC",05-02-2024 04:00:00,28.710508,77.249485,CO,42,106,75
India,Delhi,Delhi,"Sri Aurobindo Marg, Delhi - DPCC",05-02-2024 04:00:00,28.531346,77.190156,OZONE,1,12,3
India,Delhi,Delhi,"Vivek Vihar, Delhi - DPCC",05-02-2024 04:00:00,28.672342,77.315260,CO,23,96,42
India,Delhi,Delhi,"Wazirpur, Delhi - DPCC",05-02-2024 04:00:00,28.699793,77.165453,NH3,4,6,4
India,Delhi,Delhi,"Wazirpur, Delhi - DPCC",05-02-2024 04:00:00,28.699793,77.165453,SO2,6,58,33
India,Gujarat,Ahmedabad,"Chandkheda, Ahmedabad - IITM",05-02-2024 04:00:00,23.107969,72.574648,OZONE,12,27,16
India,Gujarat,Ahmedabad,"Gyaspur, Ahmedabad - IITM",05-02-2024 04:00:00,22.977134,72.553024,PM10,58,408,133
India,Gujarat,Ahmedabad,"Gyaspur, Ahmedabad - IITM",05-02-2024 04:00:00,22.977134,72.553024,NO2,12,23,16
India,Gujarat,Ahmedabad,"Raikhad, Ahmedabad - IITM",05-02-2024 04:00:00,23.020509,72.579261,PM2.5,56,234,102
India,Gujarat,Ahmedabad,"Raikhad, Ahmedabad - IITM",05-02-2024 04:00:00,23.020509,72.579261,PM10,51,131,83
India,Gujarat,Ahmedabad,"Raikhad, Ahmedabad - IITM",05-02-2024 04:00:00,23.020509,72.579261,OZONE,13,26,16
India,Gujarat,Ahmedabad,"Rakhial, Ahmedabad - IITM",05-02-2024 04:00:00,23.016834,72.625775,PM2.5,44,201,95
India,Gujarat,Ahmedabad,"Rakhial, Ahmedabad - IITM",05-02-2024 04:00:00,23.016834,72.625775,PM10,54,154,100
India,Gujarat,Ahmedabad,"Rakhial, Ahmedabad - IITM",05-02-2024 04:00:00,23.016834,72.625775,CO,6,64,34
India,Gujarat,Ahmedabad,"Rakhial, Ahmedabad - IITM",05-02-2024 04:00:00,23.016834,72.625775,OZONE,1,64,9
India,Gujarat,Ahmedabad,"SAC ISRO Bopal, Ahmedabad - IITM",05-02-2024 04:00:00,23.041137,72.456691,OZONE,8,21,12
India,Gujarat,Ahmedabad,"SAC ISRO Satellite, Ahmedabad - IITM",05-02-2024 04:00:00,23.023389,72.515201,PM10,76,116,95
India,Gujarat,Ahmedabad,"SVPI Airport Hansol, Ahmedabad - IITM",05-02-2024 04:00:00,23.076793,72.627874,PM2.5,90,248,152
India,Gujarat,Ahmedabad,"SVPI Airport Hansol, Ahmedabad - IITM",05-02-2024 04:00:00,23.076793,72.627874,CO,44,100,58
India,Gujarat,Ahmedabad,"Sardar Vallabhbhai Patel Stadium, Ahmedabad - IITM",05-02-2024 04:00:00,23.043070,72.562968,PM2.5,65,318,164
India,Gujarat,Ahmedabad,"Sardar Vallabhbhai Patel Stadium, Ahmedabad - IITM",05-02-2024 04:00:00,23.043070,72.562968,PM10,75,231,137
India,Gujarat,Gandhinagar,"GIFT City, Gandhinagar - IITM",05-02-2024 04:00:00,23.163798,72.677768,NH3,2,3,2
India,Gujarat,Gandhinagar,"Sector-10, Gandhinagar - GPCB",05-02-2024 04:00:00,23.221714,72.654328,PM10,40,127,89
India,Gujarat,Surat,"Science Center, Surat - SMC",05-02-2024 04:00:00,21.170046,72.795405,PM10,24,114,69
India,Gujarat,Surat,"Science Center, Surat - SMC",05-02-2024 04:00:00,21.170046,72.795405,NO2,8,22,12
India,Gujarat,Surat,"Science Center, Surat - SMC",05-02-2024 04:00:00,21.170046,72.795405,CO,57,101,83
India,Gujarat,Vapi,"Phase-1 GIDC, Vapi - GPCB",05-02-2024 04:00:00,20.362421,72.918013,CO,1,189,135
India,Haryana,Ambala,"Patti Mehar, Ambala - HSPCB",05-02-2024 04:00:00,30.379589,76.778328,PM2.5,6,47,29
India,Haryana,Ambala,"Patti Mehar, Ambala - HSPCB",05-02-2024 04:00:00,30.379589,76.778328,PM10,32,71,43
India,Haryana,Ambala,"Patti Mehar, Ambala - HSPCB",05-02-2024 04:00:00,30.379589,76.778328,NH3,11,11,11
India,Haryana,Ballabgarh,"Nathu Colony, Ballabgarh - HSPCB",05-02-2024 04:00:00,28.3419248,77.319699,CO,2,60,19
India,Haryana,Ballabgarh,"Nathu Colony, Ballabgarh - HSPCB",05-02-2024 04:00:00,28.3419248,77.319699,OZONE,5,13,7
India,Haryana,Bhiwani,"H.B. Colony, Bhiwani - HSPCB",05-02-2024 04:00:00,28.806223,76.141105,NO2,7,12,9
India,Haryana,Bhiwani,"H.B. Colony, Bhiwani - HSPCB",05-02-2024 04:00:00,28.806223,76.141105,SO2,7,13,10
India,Haryana,Bhiwani,"H.B. Colony, Bhiwani - HSPCB",05-02-2024 04:00:00,28.806223,76.141105,OZONE,7,61,13
India,Haryana,Charkhi Dadri,"Mini Secretariat, Charkhi Dadri - HSPCB",05-02-2024 04:00:00,28.593883,76.270653,NH3,3,6,5
India,Haryana,Charkhi Dadri,"Mini Secretariat, Charkhi Dadri - HSPCB",05-02-2024 04:00:00,28.593883,76.270653,CO,12,48,35
India,Haryana,Dharuhera,"Municipal Corporation Office, Dharuhera -  HSPCB",05-02-2024 04:00:00,28.206800,76.799700,PM2.5,51,194,83
India,Haryana,Dharuhera,"Municipal Corporation Office, Dharuhera -  HSPCB",05-02-2024 04:00:00,28.206800,76.799700,NH3,9,26,19
India,Haryana,Faridabad,"New Industrial Town, Faridabad - HSPCB",05-02-2024 04:00:00,28.39072,77.30059,PM10,107,387,153
India,Haryana,Faridabad,"Sector 11, Faridabad - HSPCB",05-02-2024 04:00:00,28.376058,77.315741,PM2.5,48,217,98
India,Haryana,Faridabad,"Sector 30, Faridabad - HSPCB",05-02-2024 04:00:00,28.4417,77.3217,PM2.5,105,205,165
India,Haryana,Faridabad,"Sector 30, Faridabad - HSPCB",05-02-2024 04:00:00,28.4417,77.3217,PM10,104,139,125
India,Haryana,Faridabad,"Sector 30, Faridabad - HSPCB",05-02-2024 04:00:00,28.4417,77.3217,NO2,29,33,31
India,Haryana,Faridabad,"Sector 30, Faridabad - HSPCB",05-02-2024 04:00:00,28.4417,77.3217,NH3,9,9,9
India,Haryana,Faridabad,"Sector 30, Faridabad - HSPCB",05-02-2024 04:00:00,28.4417,77.3217,SO2,3,106,10
India,Haryana,Faridabad,"Sector- 16A, Faridabad - HSPCB",05-02-2024 04:00:00,28.4088421,77.3099081,SO2,14,45,24
India,Haryana,Faridabad,"Sector- 16A, Faridabad - HSPCB",05-02-2024 04:00:00,28.4088421,77.3099081,CO,6,90,33
India,Haryana,Gurugram,"NISE Gwal Pahari, Gurugram - IMD",05-02-2024 04:00:00,28.422681,77.148944,PM2.5,80,307,159
India,Haryana,Gurugram,"Sector-51, Gurugram - HSPCB",05-02-2024 04:00:00,28.4227,77.0667,PM2.5,17,376,276
India,Haryana,Gurugram,"Sector-51, Gurugram - HSPCB",05-02-2024 04:00:00,28.4227,77.0667,PM10,40,239,156
India,Haryana,Gurugram,"Teri Gram, Gurugram - HSPCB",05-02-2024 04:00:00,28.4275,77.1465,OZONE,10,24,12
India,Haryana,Gurugram,"Vikas Sadan, Gurugram - HSPCB",05-02-2024 04:00:00,28.4501238,77.0263051,PM2.5,100,310,201
India,Haryana,Gurugram,"Vikas Sadan, Gurugram - HSPCB",05-02-2024 04:00:00,28.4501238,77.0263051,NO2,5,25,14
India,Haryana,Gurugram,"Vikas Sadan, Gurugram - HSPCB",05-02-2024 04:00:00,28.4501238,77.0263051,SO2,19,31,25
India,Haryana,Hisar,"Urban Estate-II, Hisar - HSPCB",05-02-2024 04:00:00,29.140560,75.744941,SO2,NA,NA,NA
India,Haryana,Jind,"Police Lines, Jind - HSPCB",05-02-2024 04:00:00,29.307814,76.337619,NH3,2,6,3
India,Haryana,Kaithal,"Rishi Nagar, Kaithal - HSPCB",05-02-2024 04:00:00,29.8006,76.4155,PM2.5,62,86,74
India,Haryana,Kaithal,"Rishi Nagar, Kaithal - HSPCB",05-02-2024 04:00:00,29.8006,76.4155,OZONE,1,12,4
India,Haryana,Mandikhera,"General Hospital, Mandikhera - HSPCB",05-02-2024 04:00:00,27.9002,76.9938,OZONE,20,34,28
India,Haryana,Narnaul,"Shastri Nagar, Narnaul - HSPCB",05-02-2024 04:00:00,28.060249,76.113115,NH3,5,18,12
India,Haryana,Narnaul,"Shastri Nagar, Narnaul - HSPCB",05-02-2024 04:00:00,28.060249,76.113115,SO2,10,47,23
India,Haryana,Palwal,"Shyam Nagar, Palwal - HSPCB",05-02-2024 04:00:00,28.1485564,77.3320667,PM10,47,64,60
India,Haryana,Palwal,"Shyam Nagar, Palwal - HSPCB",05-02-2024 04:00:00,28.1485564,77.3320667,NH3,2,3,3
India,Haryana,Panipat,"Sector-18, Panipat - HSPCB",05-02-2024 04:00:00,29.497973,76.993331,PM10,86,92,89
India,Haryana,Rohtak,"MD University, Rohtak - HSPCB",05-02-2024 04:00:00,28.52123,76.37138,PM2.5,66,145,104
India,Haryana,Rohtak,"MD University, Rohtak - HSPCB",05-02-2024 04:00:00,28.52123,76.37138,NO2,47,54,51
India,Haryana,Sonipat,"Murthal, Sonipat - HSPCB",05-02-2024 04:00:00,29.027200,77.062100,OZONE,17,35,18
India,Haryana,Yamuna Nagar,"Gobind Pura, Yamuna Nagar - HSPCB",05-02-2024 04:00:00,30.1480566,77.2893471,SO2,2,100,20
India,Haryana,Yamuna Nagar,"Gobind Pura, Yamuna Nagar - HSPCB",05-02-2024 04:00:00,30.1480566,77.2893471,OZONE,6,27,8
India,Himachal Pradesh,Baddi,"HIMUDA Complex Phase-1, Baddi - HPPCB",05-02-2024 04:00:00,30.943887,76.801991,NO2,15,32,22
India,Himachal Pradesh,Baddi,"HIMUDA Complex Phase-1, Baddi - HPPCB",05-02-2024 04:00:00,30.943887,76.801991,NH3,3,4,3
India,Jharkhand,Dhanbad,"Kalakusuma, Dhanbad - DMC",05-02-2024 04:00:00,23.811548,86.481238,PM10,NA,NA,NA
India,Jharkhand,Dhanbad,"Kalakusuma, Dhanbad - DMC",05-02-2024 04:00:00,23.811548,86.481238,SO2,NA,NA,NA
India,Jharkhand,Dhanbad,"Kalakusuma, Dhanbad - DMC",05-02-2024 04:00:00,23.811548,86.481238,OZONE,29,47,39
India,Karnataka,Belgaum,"Ramteerth Nagar, Belgaum - KSPCB",05-02-2024 04:00:00,15.888653,74.541751,PM2.5,36,104,66
India,Karnataka,Belgaum,"Ramteerth Nagar, Belgaum - KSPCB",05-02-2024 04:00:00,15.888653,74.541751,SO2,8,9,8
India,Karnataka,Belgaum,"Ramteerth Nagar, Belgaum - KSPCB",05-02-2024 04:00:00,15.888653,74.541751,CO,44,61,49
India,Karnataka,Bengaluru,"BTM Layout, Bengaluru - CPCB",05-02-2024 04:00:00,12.9135218,77.5950804,NH3,NA,NA,NA
India,Karnataka,Bengaluru,"Bapuji Nagar, Bengaluru - KSPCB",05-02-2024 04:00:00,12.951913,77.539784,NO2,9,12,11
India,Karnataka,Bengaluru,"Bapuji Nagar, Bengaluru - KSPCB",05-02-2024 04:00:00,12.951913,77.539784,CO,31,40,38
India,Karnataka,Bengaluru,"Hebbal, Bengaluru - KSPCB",05-02-2024 04:00:00,13.029152,77.585901,NO2,NA,NA,NA
India,Karnataka,Bengaluru,"Hombegowda Nagar, Bengaluru - KSPCB",05-02-2024 04:00:00,12.938539,77.590100,PM2.5,40,68,54
India,Karnataka,Bengaluru,"Hombegowda Nagar, Bengaluru - KSPCB",05-02-2024 04:00:00,12.938539,77.590100,NH3,2,2,2
India,Karnataka,Bengaluru,"Jigani, Bengaluru - KSPCB",05-02-2024 04:00:00,12.7816279,77.6299145,NO2,35,36,35
India,Karnataka,Bengaluru,"Kasturi Nagar, Bengaluru - KSPCB",05-02-2024 04:00:00,13.003872,77.664217,PM10,81,156,118
India,Karnataka,Bengaluru,"Kasturi Nagar, Bengaluru - KSPCB",05-02-2024 04:00:00,13.003872,77.664217,OZONE,45,112,70
India,Karnataka,Bengaluru,"Peenya, Bengaluru - CPCB",05-02-2024 04:00:00,13.0270199,77.494094,NO2,8,12,10
India,Karnataka,Bengaluru,"Peenya, Bengaluru - CPCB",05-02-2024 04:00:00,13.0270199,77.494094,SO2,10,19,15
India,Karnataka,Bengaluru,"RVCE-Mailasandra, Bengaluru - KSPCB",05-02-2024 04:00:00,12.921418,77.502466,PM2.5,NA,NA,NA
India,Karnataka,Bengaluru,"RVCE-Mailasandra, Bengaluru - KSPCB",05-02-2024 04:00:00,12.921418,77.502466,NO2,NA,NA,NA
India,Karnataka,Bengaluru,"RVCE-Mailasandra, Bengaluru - KSPCB",05-02-2024 04:00:00,12.921418,77.502466,OZONE,NA,NA,NA
India,Karnataka,Bengaluru,"Sanegurava Halli, Bengaluru - KSPCB",05-02-2024 04:00:00,12.990328,77.5431385,CO,NA,NA,NA
India,Karnataka,Bengaluru,"Shivapura_Peenya, Bengaluru - KSPCB",05-02-2024 04:00:00,13.0246342,77.5080115,PM2.5,28,102,62
India,Karnataka,Bengaluru,"Silk Board, Bengaluru - KSPCB",05-02-2024 04:00:00,12.917348,77.622813,OZONE,29,31,30
India,Karnataka,Chamarajanagar,"Urban, Chamarajanagar - KSPCB",05-02-2024 04:00:00,11.55358,76.55521,NH3,2,3,2
India,Karnataka,Chamarajanagar,"Urban, Chamarajanagar - KSPCB",05-02-2024 04:00:00,11.55358,76.55521,SO2,2,8,5
India,Karnataka,Chikkaballapur,"Chikkaballapur Rural, Chikkaballapur - KSPCB",05-02-2024 04:00:00,13.428828,77.731418,SO2,NA,NA,NA
India,Karnataka,Chikkaballapur,"Chikkaballapur Rural, Chikkaballapur - KSPCB",05-02-2024 04:00:00,13.428828,77.731418,CO,NA,NA,NA
India,Karnataka,Chikkamagaluru,"Kalyana Nagara, Chikkamagaluru - KSPCB",05-02-2024 04:00:00,13.328028,75.797056,NH3,3,5,3
India,Karnataka,Chikkamagaluru,"Kalyana Nagara, Chikkamagaluru - KSPCB",05-02-2024 04:00:00,13.328028,75.797056,OZONE,17,57,22
India,Karnataka,Davanagere,"Devaraj Urs Badavane, Davanagere - KSPCB",05-02-2024 04:00:00,14.475800,75.905200,NO2,10,14,12
India,Karnataka,Dharwad,"Kalabhavan, Dharwad - KSPCB",05-02-2024 04:00:00,15.459706,75.008381,PM10,54,137,104
India,Karnataka,Gadag,"Panchal Nagar, Gadag - KSPCB",05-02-2024 04:00:00,15.411456,75.638133,NH3,2,3,2
India,Karnataka,Gadag,"Panchal Nagar, Gadag - KSPCB",05-02-2024 04:00:00,15.411456,75.638133,OZONE,37,84,46
India,Karnataka,Haveri,"Ashwini Nagar, Haveri - KSPCB",05-02-2024 04:00:00,14.791800,75.389600,CO,NA,NA,NA
India,Karnataka,Hubballi,"Lingaraj Nagar, Hubballi - KSPCB",05-02-2024 04:00:00,15.3714823,75.1160168,NO2,16,16,16
India,Karnataka,Kalaburagi,"Lal Bahadur Shastri Nagar, Kalaburagi - KSPCB",05-02-2024 04:00:00,17.321993,76.822628,NH3,2,2,2
India,Karnataka,Kalaburagi,"Lal Bahadur Shastri Nagar, Kalaburagi - KSPCB",05-02-2024 04:00:00,17.321993,76.822628,SO2,16,19,18
India,Karnataka,Kalaburagi,"Lal Bahadur Shastri Nagar, Kalaburagi - KSPCB",05-02-2024 04:00:00,17.321993,76.822628,CO,36,44,40
India,Karnataka,Kalaburagi,"Mahatma Basaveswar Colony, Kalaburgi - KSPCB",05-02-2024 04:00:00,17.336318,76.847397,PM10,20,108,56
India,Karnataka,Kalaburagi,"Mahatma Basaveswar Colony, Kalaburgi - KSPCB",05-02-2024 04:00:00,17.336318,76.847397,SO2,3,27,5
India,Karnataka,Kolar,"Tamaka Ind. Area, Kolar - KSPCB",05-02-2024 04:00:00,13.1276288,78.1570122,CO,11,14,12
India,Karnataka,Kolar,"Tamaka Ind. Area, Kolar - KSPCB",05-02-2024 04:00:00,13.1276288,78.1570122,OZONE,15,21,17
India,Karnataka,Mangalore,"Kadri, Mangalore - KSPCB",05-02-2024 04:00:00,12.889250,74.853000,CO,28,36,35
India,Karnataka,Mysuru,"Hebbal 1st Stage, Mysuru - KSPCB",05-02-2024 04:00:00,12.21041,76.37376,PM2.5,36,54,46
India,Karnataka,Mysuru,"Hebbal 1st Stage, Mysuru - KSPCB",05-02-2024 04:00:00,12.21041,76.37376,SO2,1,5,3
India,Karnataka,Mysuru,"Hebbal 1st Stage, Mysuru - KSPCB",05-02-2024 04:00:00,12.21041,76.37376,OZONE,5,86,18
India,Karnataka,Raichur,"Haji Colony, Raichur - KSPCB",05-02-2024 04:00:00,16.208139,77.348417,PM10,NA,NA,NA
India,Karnataka,Ramanagara,"Vijay Nagar, Ramanagara - KSPCB",05-02-2024 04:00:00,12.733409,77.298051,SO2,25,32,27
India,Karnataka,Ramanagara,"Vijay Nagar, Ramanagara - KSPCB",05-02-2024 04:00:00,12.733409,77.298051,CO,4,16,10
India,Karnataka,Shivamogga,"Vinoba Nagara, Shivamogga - KSPCB",05-02-2024 04:00:00,13.940000,75.555917,OZONE,7,82,14
India,Karnataka,Tumakuru,"Thimmalapura, Tumakuru - KSPCB",05-02-2024 04:00:00,13.377516,77.099072,SO2,8,13,10
India,Karnataka,Tumakuru,"Thimmalapura, Tumakuru - KSPCB",05-02-2024 04:00:00,13.377516,77.099072,OZONE,8,56,33
India,Karnataka,Udupi,"Brahmagiri, Udupi - KSPCB",05-02-2024 04:00:00,13.34194444,74.74694444,PM10,22,81,40
India,Karnataka,Udupi,"Brahmagiri, Udupi - KSPCB",05-02-2024 04:00:00,13.34194444,74.74694444,NO2,13,14,14
India,Karnataka,Udupi,"Brahmagiri, Udupi - KSPCB",05-02-2024 04:00:00,13.34194444,74.74694444,NH3,1,2,2
India,Karnataka,Vijayapura,"Ibrahimpur, Vijayapura - KSPCB",05-02-2024 04:00:00,16.802639,75.722694,NH3,2,2,2
India,Karnataka,Yadgir,"Collector Office, Yadgir - KSPCB",05-02-2024 04:00:00,16.7602,77.1428,SO2,NA,NA,NA
India,Kerala,Eloor,"Udyogamandal, Eloor - Kerala PCB",05-02-2024 04:00:00,10.073232,76.302765,PM10,35,49,41
India,Kerala,Kannur,"Thavakkara, Kannur - Kerala PCB",05-02-2024 04:00:00,11.875000,75.373200,PM10,54,66,62
India,Kerala,Kollam,"Polayathode, Kollam - Kerala PCB",05-02-2024 04:00:00,8.8787,76.6073,NH3,1,1,1
India,Kerala,Thiruvananthapuram,"Kariavattom, Thiruvananthapuram - Kerala PCB",05-02-2024 04:00:00,8.563700,76.886500,NO2,8,9,9
India,Kerala,Thiruvananthapuram,"Kariavattom, Thiruvananthapuram - Kerala PCB",05-02-2024 04:00:00,8.563700,76.886500,OZONE,26,32,29
India,Kerala,Thiruvananthapuram,"Plammoodu, Thiruvananthapuram - Kerala PCB",05-02-2024 04:00:00,8.5149093,76.9435879,NH3,2,2,2
India,Kerala,Thiruvananthapuram,"Plammoodu, Thiruvananthapuram - Kerala PCB",05-02-2024 04:00:00,8.5149093,76.9435879,OZONE,3,55,22
India,Kerala,Thrissur,"Corporation Ground, Thrissur - Kerala PCB",05-02-2024 04:00:00,10.532400,76.215900,SO2,1,21,8
India,Madhya Pradesh,Bhopal,"Paryavaran Parisar, Bhopal - MPPCB",05-02-2024 04:00:00,23.210494,77.425409,PM2.5,37,277,96
India,Madhya Pradesh,Bhopal,"Paryavaran Parisar, Bhopal - MPPCB",05-02-2024 04:00:00,23.210494,77.425409,PM10,50,186,100
India,Madhya Pradesh,Bhopal,"T T Nagar, Bhopal - MPPCB",05-02-2024 04:00:00,23.233584,77.400574,PM10,70,138,104
India,Madhya Pradesh,Gwalior,"City Center, Gwalior - MPPCB",05-02-2024 04:00:00,26.203442,78.193251,NO2,16,51,28
India,Madhya Pradesh,Gwalior,"Deen Dayal Nagar, Gwalior - MPPCB",05-02-2024 04:00:00,26.259242,78.216432,PM10,69,211,121
India,Madhya Pradesh,Gwalior,"Maharaj Bada, Gwalior - MPPCB",05-02-2024 04:00:00,26.200388,78.147714,PM2.5,20,187,78
India,Madhya Pradesh,Gwalior,"Phool Bagh, Gwalior - Mondelez Ind. Food",05-02-2024 04:00:00,26.210536,78.171,PM2.5,10,102,64
India,Madhya Pradesh,Gwalior,"Phool Bagh, Gwalior - Mondelez Ind. Food",05-02-2024 04:00:00,26.210536,78.171,SO2,9,12,11
India,Madhya Pradesh,Indore,"Chhoti Gwaltoli, Indore - MPPCB",05-02-2024 04:00:00,22.4310,75.5213,CO,42,104,99
India,Madhya Pradesh,Indore,"Regional Park, Indore - IMC",05-02-2024 04:00:00,22.6780,75.8559,PM10,NA,NA,NA
India,Madhya Pradesh,Indore,"Regional Park, Indore - IMC",05-02-2024 04:00:00,22.6780,75.8559,NO2,7,9,8
India,Madhya Pradesh,Indore,"Regional Park, Indore - IMC",05-02-2024 04:00:00,22.6780,75.8559,CO,17,23,22
India,Madhya Pradesh,Jabalpur,"Govindh Bhavan Colony, Jabalpur - JMC",05-02-2024 04:00:00,23.163174,79.973061,CO,17,42,29
India,Madhya Pradesh,Jabalpur,"Govindh Bhavan Colony, Jabalpur - JMC",05-02-2024 04:00:00,23.163174,79.973061,OZONE,8,109,21
India,Madhya Pradesh,Jabalpur,"Gupteshwar, Jabalpur - JMC",05-02-2024 04:00:00,23.142888,79.916147,OZONE,2,99,24
India,Madhya Pradesh,Jabalpur,"Marhatal, Jabalpur - MPPCB",05-02-2024 04:00:00,23.168606,79.932247,PM2.5,30,141,77
India,Madhya Pradesh,Jabalpur,"Marhatal, Jabalpur - MPPCB",05-02-2024 04:00:00,23.168606,79.932247,NO2,16,98,37
India,Madhya Pradesh,Jabalpur,"Marhatal, Jabalpur - MPPCB",05-02-2024 04:00:00,23.168606,79.932247,SO2,11,19,14
India,Madhya Pradesh,Jabalpur,"Suhagi, Jabalpur - JMC",05-02-2024 04:00:00,23.218135,79.957770,PM2.5,32,250,70
India,Madhya Pradesh,Jabalpur,"Suhagi, Jabalpur - JMC",05-02-2024 04:00:00,23.218135,79.957770,NO2,40,50,46
India,Madhya Pradesh,Katni,"Gole Bazar, Katni - MPPCB",05-02-2024 04:00:00,23.50016,80.23284,PM2.5,31,85,57
India,Madhya Pradesh,Katni,"Gole Bazar, Katni - MPPCB",05-02-2024 04:00:00,23.50016,80.23284,OZONE,27,76,44
India,Madhya Pradesh,Maihar,"Sahilara, Maihar - KJS Cements",05-02-2024 04:00:00,24.2613009,80.7231783,PM10,22,59,42
India,Madhya Pradesh,Mandideep,"Sector-D Industrial Area, Mandideep - MPPCB",05-02-2024 04:00:00,23.108440,77.511428,PM2.5,45,407,133
India,Madhya Pradesh,Mandideep,"Sector-D Industrial Area, Mandideep - MPPCB",05-02-2024 04:00:00,23.108440,77.511428,NO2,50,178,101
India,Madhya Pradesh,Mandideep,"Sector-D Industrial Area, Mandideep - MPPCB",05-02-2024 04:00:00,23.108440,77.511428,SO2,18,120,46
India,Madhya Pradesh,Mandideep,"Sector-D Industrial Area, Mandideep - MPPCB",05-02-2024 04:00:00,23.108440,77.511428,CO,2,64,33
India,Madhya Pradesh,Pithampur,"Sector-2 Industrial Area, Pithampur - MPPCB",05-02-2024 04:00:00,22.624758,75.675238,PM2.5,25,324,86
India,Madhya Pradesh,Pithampur,"Sector-2 Industrial Area, Pithampur - MPPCB",05-02-2024 04:00:00,22.624758,75.675238,NO2,7,46,18
India,Madhya Pradesh,Sagar,"Civil Lines, Sagar - MPPCB",05-02-2024 04:00:00,23.838586,78.759431,SO2,2,7,5
India,Madhya Pradesh,Sagar,"Deen Dayal Nagar, Sagar - MPPCB",05-02-2024 04:00:00,23.8640158,78.80289321,PM2.5,19,39,27
India,Madhya Pradesh,Satna,"Bandhavgar Colony, Satna - Birla Cement",05-02-2024 04:00:00,24.58434363,80.8549414,NO2,7,13,10
India,Madhya Pradesh,Ujjain,"Mahakaleshwar Temple, Ujjain - MPPCB",05-02-2024 04:00:00,23.182719 ,75.768218 ,NO2,4,43,21
India,Maharashtra,Ahmednagar,"Tarakpur, Ahmednagar - MPCB",05-02-2024 04:00:00,19.10122,74.73339,NH3,3,5,4
India,Maharashtra,Ahmednagar,"Tarakpur, Ahmednagar - MPCB",05-02-2024 04:00:00,19.10122,74.73339,CO,20,125,95
India,Maharashtra,Akola,"Ramdaspeth, Akola - MPCB",05-02-2024 04:00:00,20.719516,77.000253,PM2.5,58,350,151
India,Maharashtra,Akola,"Ramdaspeth, Akola - MPCB",05-02-2024 04:00:00,20.719516,77.000253,SO2,2,15,10
India,Maharashtra,Amravati,"Shivneri Colony, Amravati - MPCB",05-02-2024 04:00:00,20.9402359,77.7895248,PM10,85,147,115
India,Maharashtra,Amravati,"Shri Shivaji Science College, Amaravati - MPCB",05-02-2024 04:00:00,20.939198,77.765701,PM10,NA,NA,NA
India,Maharashtra,Aurangabad,"Rachnakar Colony, Aurangabad - MPCB",05-02-2024 04:00:00,19.863756,75.321188,NO2,14,124,61
India,Maharashtra,Aurangabad,"Rachnakar Colony, Aurangabad - MPCB",05-02-2024 04:00:00,19.863756,75.321188,NH3,1,1,1
India,Maharashtra,Badlapur,"Katrap, Badlapur - MPCB",05-02-2024 04:00:00,19.16485,73.23409,NH3,2,5,3
India,Maharashtra,Chandrapur,"Chauhan Colony, Chandrapur - MPCB",05-02-2024 04:00:00,19.962900,79.298714,NO2,14,55,25
India,Maharashtra,Chandrapur,"MIDC Khutala, Chandrapur - MPCB",05-02-2024 04:00:00,19.9775302,79.2337086,NH3,NA,NA,NA
India,Maharashtra,Chandrapur,"MIDC Khutala, Chandrapur - MPCB",05-02-2024 04:00:00,19.9775302,79.2337086,SO2,NA,NA,NA
India,Maharashtra,Dhule,"Deopur, Dhule - MPCB",05-02-2024 04:00:00,20.918946,74.776388,SO2,1,41,11
India,Maharashtra,Dhule,"Deopur, Dhule - MPCB",05-02-2024 04:00:00,20.918946,74.776388,OZONE,6,77,31
India,Maharashtra,Jalgaon,"Prabhat Colony, Jalgaon - MPCB",05-02-2024 04:00:00,21.001264,75.565602,NO2,11,126,59
India,Maharashtra,Jalna,"Old MIDC, Jalna - MPCB",05-02-2024 04:00:00,19.854616,75.905894,OZONE,18,159,20
India,Maharashtra,Kalyan,"Khadakpada, Kalyan - MPCB",05-02-2024 04:00:00,19.25292,73.142019,PM10,94,197,131
India,Maharashtra,Kolhapur,"Shivaji University, Kolhapur - MPCB",05-02-2024 04:00:00,16.6870449,74.2505872,OZONE,3,106,17
India,Maharashtra,Kolhapur,"Sinchan Bhavan, Kolhapur - MPCB",05-02-2024 04:00:00,16.7143745,74.2426398,SO2,1,12,4
India,Maharashtra,Kolhapur,"Sinchan Bhavan, Kolhapur - MPCB",05-02-2024 04:00:00,16.7143745,74.2426398,CO,6,83,29
India,Maharashtra,Kolhapur,"Sinchan Bhavan, Kolhapur - MPCB",05-02-2024 04:00:00,16.7143745,74.2426398,OZONE,13,148,65
India,Maharashtra,Latur,"Sawe Wadi, Latur - MPCB",05-02-2024 04:00:00,18.39963,76.57452,NO2,11,79,35
India,Maharashtra,Mahad,"Kamble Tarf Birwadi, Mahad - MPCB",05-02-2024 04:00:00,18.1023399,73.4783687,PM2.5,15,228,41
India,Maharashtra,Mahad,"Kamble Tarf Birwadi, Mahad - MPCB",05-02-2024 04:00:00,18.1023399,73.4783687,NO2,27,30,29
India,Maharashtra,Mahad,"Kamble Tarf Birwadi, Mahad - MPCB",05-02-2024 04:00:00,18.1023399,73.4783687,NH3,4,5,5
India,Maharashtra,Malegaon,"Mahesh Nagar, Malegaon - MPCB",05-02-2024 04:00:00,20.555712,74.529236,PM10,64,500,146
India,Maharashtra,Malegaon,"Mahesh Nagar, Malegaon - MPCB",05-02-2024 04:00:00,20.555712,74.529236,CO,18,150,51
India,Maharashtra,Malegaon,"Mahesh Nagar, Malegaon - MPCB",05-02-2024 04:00:00,20.555712,74.529236,OZONE,15,81,27
India,Maharashtra,Mumbai,"Bandra Kurla Complex, Mumbai - MPCB",05-02-2024 04:00:00,19.065931,72.862131,PM2.5,172,326,277
India,Maharashtra,Mumbai,"Bandra Kurla Complex, Mumbai - MPCB",05-02-2024 04:00:00,19.065931,72.862131,NH3,13,54,26
India,Maharashtra,Mumbai,"Bandra Kurla Complex, Mumbai - MPCB",05-02-2024 04:00:00,19.065931,72.862131,OZONE,1,103,7
India,Maharashtra,Mumbai,"Byculla, Mumbai - BMC",05-02-2024 04:00:00,18.9767,72.8380,PM2.5,97,199,149
India,Maharashtra,Mumbai,"Byculla, Mumbai - BMC",05-02-2024 04:00:00,18.9767,72.8380,NH3,2,7,4
India,Maharashtra,Mumbai,"Byculla, Mumbai - BMC",05-02-2024 04:00:00,18.9767,72.8380,CO,23,108,77
India,Maharashtra,Mumbai,"Chakala-Andheri East, Mumbai - IITM",05-02-2024 04:00:00,19.11074,72.86084,CO,66,142,125
India,Maharashtra,Mumbai,"Chhatrapati Shivaji Intl. Airport (T2), Mumbai - MPCB",05-02-2024 04:00:00,19.10078,72.87462,PM10,82,137,112
India,Maharashtra,Mumbai,"Chhatrapati Shivaji Intl. Airport (T2), Mumbai - MPCB",05-02-2024 04:00:00,19.10078,72.87462,NH3,5,7,6
India,Maharashtra,Mumbai,"Chhatrapati Shivaji Intl. Airport (T2), Mumbai - MPCB",05-02-2024 04:00:00,19.10078,72.87462,OZONE,1,34,2
India,Maharashtra,Mumbai,"Ghatkopar, Mumbai - BMC",05-02-2024 04:00:00,19.083694,72.920967,OZONE,4,45,7
India,Maharashtra,Mumbai,"Kandivali West, Mumbai - BMC",05-02-2024 04:00:00,19.215859,72.831718,NO2,24,119,64
India,Maharashtra,Mumbai,"Kandivali West, Mumbai - BMC",05-02-2024 04:00:00,19.215859,72.831718,NH3,NA,NA,NA
India,Maharashtra,Mumbai,"Kandivali West, Mumbai - BMC",05-02-2024 04:00:00,19.215859,72.831718,SO2,3,11,6
India,Maharashtra,Mumbai,"Kherwadi_Bandra East, Mumbai - MPCB",05-02-2024 04:00:00,19.0632143,72.8456324,SO2,11,58,27
India,Maharashtra,Mumbai,"Kherwadi_Bandra East, Mumbai - MPCB",05-02-2024 04:00:00,19.0632143,72.8456324,CO,12,119,85
India,Maharashtra,Mumbai,"Kurla, Mumbai - MPCB",05-02-2024 04:00:00,19.0863,72.8888,NO2,14,46,32
India,Maharashtra,Mumbai,"Kurla, Mumbai - MPCB",05-02-2024 04:00:00,19.0863,72.8888,NH3,3,4,4
India,Maharashtra,Mumbai,"Kurla, Mumbai - MPCB",05-02-2024 04:00:00,19.0863,72.8888,OZONE,29,48,29
India,Maharashtra,Mumbai,"Malad West, Mumbai - IITM",05-02-2024 04:00:00,19.19709,72.82204,OZONE,1,82,5
India,Maharashtra,Mumbai,"Mazgaon, Mumbai - IITM",05-02-2024 04:00:00,18.96702,72.84214,PM2.5,171,293,224
India,Maharashtra,Mumbai,"Mazgaon, Mumbai - IITM",05-02-2024 04:00:00,18.96702,72.84214,PM10,138,173,153
India,Maharashtra,Mumbai,"Mazgaon, Mumbai - IITM",05-02-2024 04:00:00,18.96702,72.84214,NO2,110,319,196
India,Maharashtra,Mumbai,"Mindspace-Malad West, Mumbai - MPCB",05-02-2024 04:00:00,19.1878657,72.8304069,PM10,120,159,139
India,Maharashtra,Mumbai,"Mindspace-Malad West, Mumbai - MPCB",05-02-2024 04:00:00,19.1878657,72.8304069,SO2,3,18,9
India,Maharashtra,Mumbai,"Mulund West, Mumbai - MPCB",05-02-2024 04:00:00,19.1750,72.9419,NH3,9,11,10
India,Maharashtra,Mumbai,"Navy Nagar-Colaba, Mumbai - IITM",05-02-2024 04:00:00,18.897756,72.813320,PM10,119,413,171
India,Maharashtra,Mumbai,"Sewri, Mumbai - BMC",05-02-2024 04:00:00,19.000084,72.856730,NH3,3,24,11
India,Maharashtra,Mumbai,"Sewri, Mumbai - BMC",05-02-2024 04:00:00,19.000084,72.856730,SO2,6,43,18
India,Maharashtra,Mumbai,"Shivaji Nagar, Mumbai - BMC",05-02-2024 04:00:00,19.060498,72.923356,NH3,3,7,6
India,Maharashtra,Mumbai,"Siddharth Nagar-Worli, Mumbai - IITM",05-02-2024 04:00:00,19.000083,72.813993,CO,62,109,93
India,Maharashtra,Mumbai,"Sion, Mumbai - MPCB",05-02-2024 04:00:00,19.047000,72.874600,CO,20,112,78
India,Maharashtra,Mumbai,"Vasai West, Mumbai - MPCB",05-02-2024 04:00:00,19.383200,72.820400,PM10,52,161,105
India,Maharashtra,Mumbai,"Vasai West, Mumbai - MPCB",05-02-2024 04:00:00,19.383200,72.820400,CO,21,106,79
India,Maharashtra,Mumbai,"Vile Parle West, Mumbai - MPCB",05-02-2024 04:00:00,19.10861,72.83622,PM10,78,134,100
India,Maharashtra,Mumbai,"Vile Parle West, Mumbai - MPCB",05-02-2024 04:00:00,19.10861,72.83622,OZONE,6,16,6
India,Maharashtra,Mumbai,"Worli, Mumbai - MPCB",05-02-2024 04:00:00,18.9936162,72.8128113,NO2,16,21,19
India,Maharashtra,Mumbai,"Worli, Mumbai - MPCB",05-02-2024 04:00:00,18.9936162,72.8128113,NH3,1,1,1
India,Maharashtra,Nagpur,"Opp GPO Civil Lines, Nagpur - MPCB",05-02-2024 04:00:00,21.152875,79.0517531,OZONE,3,102,5
India,Maharashtra,Nanded,"Sneh Nagar, Nanded - MPCB",05-02-2024 04:00:00,19.173852,77.296291,OZONE,2,149,52
India,Maharashtra,Nashik,"Gangapur Road, Nashik - MPCB",05-02-2024 04:00:00,20.0073285,73.7762427,PM10,65,158,101
India,Maharashtra,Nashik,"Hirawadi, Nashik - MPCB",05-02-2024 04:00:00,20.021503,73.813844,NH3,1,3,2
India,Maharashtra,Nashik,"MIDC Ambad, Nashik - MPCB",05-02-2024 04:00:00,19.950220,73.731480,PM2.5,72,158,100
India,Maharashtra,Nashik,"MIDC Ambad, Nashik - MPCB",05-02-2024 04:00:00,19.950220,73.731480,NO2,14,84,36
India,Maharashtra,Nashik,"MIDC Ambad, Nashik - MPCB",05-02-2024 04:00:00,19.950220,73.731480,NH3,2,2,2
India,Maharashtra,Nashik,"MIDC Ambad, Nashik - MPCB",05-02-2024 04:00:00,19.950220,73.731480,CO,39,70,58
India,Maharashtra,Navi Mumbai,"Kopripada-Vashi, Navi Mumbai - MPCB",05-02-2024 04:00:00,19.090337,73.014232,CO,16,100,75
India,Maharashtra,Navi Mumbai,"Mahape, Navi Mumbai - MPCB",05-02-2024 04:00:00,19.1135051,73.008978,PM2.5,43,268,90
India,Maharashtra,Navi Mumbai,"Mahape, Navi Mumbai - MPCB",05-02-2024 04:00:00,19.1135051,73.008978,OZONE,23,53,37
India,Maharashtra,Navi Mumbai,"Nerul, Navi Mumbai - MPCB",05-02-2024 04:00:00,19.008751,73.016620,PM2.5,76,220,121
India,Maharashtra,Navi Mumbai,"Sanpada, Navi Mumbai - MPCB",05-02-2024 04:00:00,19.0575752,73.0151367,PM2.5,NA,NA,NA
India,Maharashtra,Navi Mumbai,"Sanpada, Navi Mumbai - MPCB",05-02-2024 04:00:00,19.0575752,73.0151367,NH3,12,62,30
India,Maharashtra,Navi Mumbai,"Sector-19A Nerul, Navi Mumbai - IITM",05-02-2024 04:00:00,19.044,73.0325,NO2,NA,NA,NA
India,Maharashtra,Navi Mumbai,"Sector-19A Nerul, Navi Mumbai - IITM",05-02-2024 04:00:00,19.044,73.0325,NH3,NA,NA,NA
India,Maharashtra,Navi Mumbai,"Sector-19A Nerul, Navi Mumbai - IITM",05-02-2024 04:00:00,19.044,73.0325,CO,68,115,107
India,Maharashtra,Navi Mumbai,"Tondare-Taloja, Navi Mumbai - MPCB",05-02-2024 04:00:00,19.0630,73.1209,PM2.5,115,283,180
India,Maharashtra,Navi Mumbai,"Tondare-Taloja, Navi Mumbai - MPCB",05-02-2024 04:00:00,19.0630,73.1209,OZONE,2,184,6
India,Maharashtra,Pimpri-Chinchwad,"Park Street Wakad, Pimpri Chinchwad - MPCB",05-02-2024 04:00:00,18.59051,73.77946,PM2.5,95,312,177
India,Maharashtra,Pimpri-Chinchwad,"Thergaon, Pimpri Chinchwad - MPCB",05-02-2024 04:00:00,18.616318,73.765797,PM2.5,267,351,303
India,Maharashtra,Pimpri-Chinchwad,"Thergaon, Pimpri Chinchwad - MPCB",05-02-2024 04:00:00,18.616318,73.765797,NH3,3,24,10
India,Maharashtra,Pimpri-Chinchwad,"Thergaon, Pimpri Chinchwad - MPCB",05-02-2024 04:00:00,18.616318,73.765797,CO,21,108,71
India,Maharashtra,Pimpri-Chinchwad,"Thergaon, Pimpri Chinchwad - MPCB",05-02-2024 04:00:00,18.616318,73.765797,OZONE,1,253,38
India,Maharashtra,Pune,"Alandi, Pune - IITM",05-02-2024 04:00:00,18.675076,73.892743,NO2,11,31,19
India,Maharashtra,Pune,"Bhosari, Pune - IITM",05-02-2024 04:00:00,18.640051,73.848956,NO2,15,20,18
India,Maharashtra,Pune,"Katraj Dairy, Pune - MPCB",05-02-2024 04:00:00,18.454450,73.854155,NH3,1,7,4
India,Maharashtra,Pune,"Katraj Dairy, Pune - MPCB",05-02-2024 04:00:00,18.454450,73.854155,CO,44,103,91
India,Maharashtra,Pune,"Mhada Colony, Pune - IITM",05-02-2024 04:00:00,18.573040,73.927715,CO,44,92,71
India,Maharashtra,Pune,"Revenue Colony-Shivajinagar, Pune - IITM",05-02-2024 04:00:00,18.530085,73.849598,PM10,80,152,111
India,Maharashtra,Pune,"Transport Nagar-Nigdi, Pune - IITM",05-02-2024 04:00:00,18.664282,73.763966,PM2.5,28,188,99
India,Maharashtra,Sangli,"Vijay Nagar, Sangli - MPCB",05-02-2024 04:00:00, 16.5038,74.3623,NH3,2,5,3
India,Maharashtra,Sangli,"Vijay Nagar, Sangli - MPCB",05-02-2024 04:00:00, 16.5038,74.3623,SO2,NA,NA,NA
India,Maharashtra,Sangli,"Vijay Nagar, Sangli - MPCB",05-02-2024 04:00:00, 16.5038,74.3623,OZONE,1,66,11
India,Maharashtra,Solapur,"Dnyaneshwar Nagar, Solapur - MPCB",05-02-2024 04:00:00,17.6336264,75.9132495,SO2,1,35,10
India,Maharashtra,Solapur,"Ratandeep Housing Society, Solapur - MPCB",05-02-2024 04:00:00,17.65439,75.90649,PM2.5,70,200,114
India,Maharashtra,Solapur,"Ratandeep Housing Society, Solapur - MPCB",05-02-2024 04:00:00,17.65439,75.90649,NO2,15,129,50
India,Maharashtra,Solapur,"Ratandeep Housing Society, Solapur - MPCB",05-02-2024 04:00:00,17.65439,75.90649,SO2,6,100,26
India,Maharashtra,Thane,"Kasarvadavali, Thane - MPCB",05-02-2024 04:00:00,19.26777,72.97182,PM2.5,89,420,294
India,Maharashtra,Thane,"Pimpleshwar Mandir, Thane - MPCB",05-02-2024 04:00:00,19.192056,72.9585188,PM10,NA,NA,NA
India,Maharashtra,Thane,"Pimpleshwar Mandir, Thane - MPCB",05-02-2024 04:00:00,19.192056,72.9585188,SO2,NA,NA,NA
India,Maharashtra,Ulhasnagar,"Sidhi Vinayak Nagar, Ulhasnagar - MPCB",05-02-2024 04:00:00,19.235581,73.159121,PM10,97,190,135
India,Maharashtra,Virar,"Bolinj, Virar - MPCB",05-02-2024 04:00:00,19.4458210,72.7988231,NH3,NA,NA,NA
India,Maharashtra,Virar,"Bolinj, Virar - MPCB",05-02-2024 04:00:00,19.4458210,72.7988231,OZONE,2,109,28
India,Manipur,Imphal,"DM College of Science, Imphal - Manipur PCB",05-02-2024 04:00:00,24.8207389,93.9423085,NH3,2,2,2
India,Meghalaya,Shillong,"Lumpyngngad, Shillong - Meghalaya PCB",05-02-2024 04:00:00,25.5586,91.8985,PM10,43,135,90
India,Meghalaya,Shillong,"Lumpyngngad, Shillong - Meghalaya PCB",05-02-2024 04:00:00,25.5586,91.8985,NH3,1,1,1
India,Nagaland,Kohima,"PWD Juction, Kohima - NPCB",05-02-2024 04:00:00,25.6635413,94.0989878,PM10,86,220,114
India,Odisha,Angul,"Hakimapada, Angul - OSPCB",05-02-2024 04:00:00,20.832874,85.104082,PM2.5,87,473,205
India,Odisha,Angul,"Hakimapada, Angul - OSPCB",05-02-2024 04:00:00,20.832874,85.104082,NH3,1,6,3
India,Odisha,Angul,"Hakimapada, Angul - OSPCB",05-02-2024 04:00:00,20.832874,85.104082,OZONE,3,302,25
India,Odisha,Balasore,"Kalidaspur, Balasore - OSPCB",05-02-2024 04:00:00,21.51161,86.89088,PM2.5,55,227,122
India,Odisha,Balasore,"Kalidaspur, Balasore - OSPCB",05-02-2024 04:00:00,21.51161,86.89088,NO2,6,26,15
India,Odisha,Barbil,"Forest Office, Barbil - OSPCB",05-02-2024 04:00:00,22.1166054,85.3945546,NH3,4,5,4
India,Odisha,Baripada,"Meher Colony, Baripada - OSPCB",05-02-2024 04:00:00,21.941841,86.728318,SO2,5,7,6
India,Odisha,Baripada,"Meher Colony, Baripada - OSPCB",05-02-2024 04:00:00,21.941841,86.728318,CO,13,52,45
India,Odisha,Bhubaneswar,"Patia, Bhubaneswar - OSPCB",05-02-2024 04:00:00,20.34652,85.81630,PM10,72,186,109
India,Odisha,Bhubaneswar,"Patia, Bhubaneswar - OSPCB",05-02-2024 04:00:00,20.34652,85.81630,NO2,8,31,17
India,Odisha,Cuttack,"CDA Area, Cuttack - OSPCB",05-02-2024 04:00:00,20.48891     ,85.84768     ,CO,29,64,41
India,Odisha,Keonjhar,"Jagamohanpur, Keonjhar - OSPCB",05-02-2024 04:00:00,21.643900,85.599355,OZONE,1,23,5
India,Odisha,Nayagarh,"Dabuna, Nayagarh - OSPCB",05-02-2024 04:00:00,21.847279,85.416905,OZONE,1,12,2
India,Odisha,Rourkela,"Raghunathpali, Rourkela - OSPCB",05-02-2024 04:00:00,22.220833,84.809444,NH3,1,2,1
India,Odisha,Suakati,"OMC Colony, Suakati - OSPCB",05-02-2024 04:00:00,21.606865,85.510538,PM2.5,69,125,89
India,Odisha,Suakati,"OMC Colony, Suakati - OSPCB",05-02-2024 04:00:00,21.606865,85.510538,PM10,99,130,110
India,Odisha,Suakati,"OMC Colony, Suakati - OSPCB",05-02-2024 04:00:00,21.606865,85.510538,CO,1,20,16
India,Odisha,Suakati,"OMC Colony, Suakati - OSPCB",05-02-2024 04:00:00,21.606865,85.510538,OZONE,35,133,61
India,Puducherry,Puducherry,"Jawahar Nagar, Puducherry - PPCC",05-02-2024 04:00:00,11.9309,79.8027,PM2.5,9,45,18
India,Puducherry,Puducherry,"Jawahar Nagar, Puducherry - PPCC",05-02-2024 04:00:00,11.9309,79.8027,CO,15,38,26
India,Punjab,Bathinda,"Hardev Nagar, Bathinda - PPCB",05-02-2024 04:00:00,30.233011,74.907758,PM2.5,26,92,61
India,Punjab,Bathinda,"Hardev Nagar, Bathinda - PPCB",05-02-2024 04:00:00,30.233011,74.907758,NO2,30,34,32
India,Punjab,Bathinda,"Hardev Nagar, Bathinda - PPCB",05-02-2024 04:00:00,30.233011,74.907758,CO,2,58,33
India,Punjab,Jalandhar,"Civil Line, Jalandhar - PPCB",05-02-2024 04:00:00,31.321907,75.578914,NO2,12,14,13
India,Punjab,Jalandhar,"Civil Line, Jalandhar - PPCB",05-02-2024 04:00:00,31.321907,75.578914,NH3,2,3,2
India,Punjab,Jalandhar,"Civil Line, Jalandhar - PPCB",05-02-2024 04:00:00,31.321907,75.578914,SO2,2,4,3
India,Punjab,Khanna,"Kalal Majra, Khanna - PPCB",05-02-2024 04:00:00,30.736056 ,76.209694,CO,14,29,16
India,Punjab,Ludhiana,"Punjab Agricultural University, Ludhiana - PPCB",05-02-2024 04:00:00,30.9028,75.8086,PM2.5,31,87,63
India,Punjab,Mandi Gobindgarh,"RIMT University, Mandi Gobindgarh - PPCB",05-02-2024 04:00:00,30.649961,76.331442,NH3,2,2,2
India,Punjab,Patiala,"Model Town, Patiala - PPCB",05-02-2024 04:00:00,30.349388,76.366642,SO2,1,14,6
India,Punjab,Rupnagar,"Ratanpura, Rupnagar - Ambuja Cements",05-02-2024 04:00:00,31.0325454,76.5623046,PM2.5,NA,NA,NA
India,Punjab,Rupnagar,"Ratanpura, Rupnagar - Ambuja Cements",05-02-2024 04:00:00,31.0325454,76.5623046,CO,NA,NA,NA
India,Rajasthan,Ajmer,"Civil Lines,  Ajmer - RSPCB",05-02-2024 04:00:00,26.470859,74.646594,SO2,11,18,14
India,Rajasthan,Ajmer,"Civil Lines,  Ajmer - RSPCB",05-02-2024 04:00:00,26.470859,74.646594,OZONE,4,52,22
India,Rajasthan,Alwar,"Moti Doongri, Alwar - RSPCB",05-02-2024 04:00:00,27.554793,76.611536,PM10,55,95,72
India,Rajasthan,Banswara,"Rati Talai, Banswara - RSPCB",05-02-2024 04:00:00,23.555190,74.440010,PM10,61,272,138
India,Rajasthan,Baran,"Bamboliya, Baran - RSPCB",05-02-2024 04:00:00,25.106006,76.469948,PM10,59,130,108
India,Rajasthan,Barmer,"Railway Colony, Barmer - RSPCB",05-02-2024 04:00:00,25.747299,71.393989,NO2,14,21,16
India,Rajasthan,Barmer,"Railway Colony, Barmer - RSPCB",05-02-2024 04:00:00,25.747299,71.393989,NH3,8,17,12
India,Rajasthan,Bharatpur,"Krishna Nagar, Bharatpur - RSPCB",05-02-2024 04:00:00,27.215415,77.50873,PM2.5,25,56,36
India,Rajasthan,Bhilwara,"Pratap Nagar, Bhilwara - RSPCB",05-02-2024 04:00:00,25.339605,74.618883,NH3,NA,NA,NA
India,Rajasthan,Bhiwadi,"RIICO Ind. Area III, Bhiwadi - RSPCB",05-02-2024 04:00:00,28.194909,76.862296,SO2,6,22,13
India,Rajasthan,Bundi,"New Colony, Bundi - RSPCB",05-02-2024 04:00:00,25.435774,75.644272,PM2.5,47,308,156
India,Rajasthan,Bundi,"New Colony, Bundi - RSPCB",05-02-2024 04:00:00,25.435774,75.644272,NO2,13,55,31
India,Rajasthan,Churu,"Subash Chowk, Churu - RSPCB",05-02-2024 04:00:00,28.296139,74.961696,NO2,8,39,22
India,Rajasthan,Churu,"Subash Chowk, Churu - RSPCB",05-02-2024 04:00:00,28.296139,74.961696,SO2,12,16,14
India,Rajasthan,Churu,"Subash Chowk, Churu - RSPCB",05-02-2024 04:00:00,28.296139,74.961696,CO,20,62,30
India,Rajasthan,Dausa,"Khatikan Mohalla, Dausa - RSPCB",05-02-2024 04:00:00,26.895552,76.334753,PM10,53,128,99
India,Rajasthan,Dausa,"Khatikan Mohalla, Dausa - RSPCB",05-02-2024 04:00:00,26.895552,76.334753,SO2,2,24,11
India,Rajasthan,Dungarpur,"Bhoiwada, Dungarpur - RSPCB",05-02-2024 04:00:00,23.837789,73.714926,NH3,8,9,8
India,Rajasthan,Hanumangarh,"Housing Board, Hanumangarh - RSPCB",05-02-2024 04:00:00,29.610750,74.283608,PM10,76,250,134
India,Rajasthan,Jaipur,"Adarsh Nagar, Jaipur - RSPCB",05-02-2024 04:00:00,26.902909,75.836858,PM2.5,33,139,79
India,Rajasthan,Jaipur,"Mansarovar Sector-12, Jaipur - RSPCB",05-02-2024 04:00:00,26.843698,75.766894,NH3,1,6,2
India,Rajasthan,Jaipur,"Mansarovar Sector-12, Jaipur - RSPCB",05-02-2024 04:00:00,26.843698,75.766894,OZONE,2,27,5
India,Rajasthan,Jaipur,"Police Commissionerate, Jaipur - RSPCB",05-02-2024 04:00:00,26.9164092,75.7994901,OZONE,13,60,23
India,Rajasthan,Jaipur,"RIICO Sitapura, Jaipur - RSPCB",05-02-2024 04:00:00,26.786682,75.827928,PM10,40,331,138
India,Rajasthan,Jaipur,"RIICO Sitapura, Jaipur - RSPCB",05-02-2024 04:00:00,26.786682,75.827928,NO2,28,73,45
India,Rajasthan,Jaipur,"RIICO Sitapura, Jaipur - RSPCB",05-02-2024 04:00:00,26.786682,75.827928,CO,5,101,14
India,Rajasthan,Jaipur,"RIICO Sitapura, Jaipur - RSPCB",05-02-2024 04:00:00,26.786682,75.827928,OZONE,7,51,12
India,Rajasthan,Jaipur,"Sector-2 Murlipura, Jaipur - RSPCB",05-02-2024 04:00:00,26.960669,75.771817,PM2.5,38,250,117
India,Rajasthan,Jaipur,"Sector-2 Murlipura, Jaipur - RSPCB",05-02-2024 04:00:00,26.960669,75.771817,SO2,5,12,8
India,Rajasthan,Jaipur,"Sector-2 Murlipura, Jaipur - RSPCB",05-02-2024 04:00:00,26.960669,75.771817,OZONE,8,74,25
India,Rajasthan,Jaisalmer,"Sadar Bazar, Jaisalmer - RSPCB",05-02-2024 04:00:00,26.912329,70.909168,NH3,11,17,15
India,Rajasthan,Jalore,"Mudtra Sili, Jalore - RSPCB",05-02-2024 04:00:00,25.344694,72.626208,PM2.5,42,77,58
India,Rajasthan,Jalore,"Mudtra Sili, Jalore - RSPCB",05-02-2024 04:00:00,25.344694,72.626208,NH3,4,9,7
India,Rajasthan,Jalore,"Mudtra Sili, Jalore - RSPCB",05-02-2024 04:00:00,25.344694,72.626208,CO,14,42,26
India,Rajasthan,Jhunjhunu,"Indra Nagar, Jhunjhunu - RSPCB",05-02-2024 04:00:00,28.108988,75.386577,NH3,17,24,21
India,Rajasthan,Jodhpur,"Collectorate, Jodhpur - RSPCB",05-02-2024 04:00:00,26.268249,73.0193853,CO,26,88,55
India,Rajasthan,Jodhpur,"Collectorate, Jodhpur - RSPCB",05-02-2024 04:00:00,26.268249,73.0193853,OZONE,36,74,45
India,Rajasthan,Jodhpur,"Digari Kalan, Jodhpur - RSPCB",05-02-2024 04:00:00,26.295810,73.082283,PM10,35,164,76
India,Rajasthan,Jodhpur,"Digari Kalan, Jodhpur - RSPCB",05-02-2024 04:00:00,26.295810,73.082283,SO2,3,7,4
India,Rajasthan,Jodhpur,"Jhalamand, Jodhpur - RSPCB",05-02-2024 04:00:00,26.215415,73.070156,OZONE,2,56,6
India,Rajasthan,Jodhpur,"Samrat Ashok Udhyan, Jodhpur - RSPCB",05-02-2024 04:00:00,26.253384,72.976571,SO2,3,16,7
India,Rajasthan,Jodhpur,"Samrat Ashok Udhyan, Jodhpur - RSPCB",05-02-2024 04:00:00,26.253384,72.976571,CO,30,64,35
India,Rajasthan,Jodhpur,"Samrat Ashok Udhyan, Jodhpur - RSPCB",05-02-2024 04:00:00,26.253384,72.976571,OZONE,11,64,27
India,Rajasthan,Karauli,"Satyawati Vihar, Karauli - RSPCB",05-02-2024 04:00:00,26.506177,77.025989,NO2,15,46,29
India,Rajasthan,Kota,"Dhanmandi, Kota - RSPCB",05-02-2024 04:00:00,25.164090,75.858137,NO2,29,116,54
India,Rajasthan,Kota,"Dhanmandi, Kota - RSPCB",05-02-2024 04:00:00,25.164090,75.858137,CO,30,108,37
India,Rajasthan,Kota,"Nayapura, Kota - RSPCB",05-02-2024 04:00:00,25.196024,75.855668,PM10,72,244,142
India,Rajasthan,Kota,"Nayapura, Kota - RSPCB",05-02-2024 04:00:00,25.196024,75.855668,NH3,11,17,13
India,Rajasthan,Kota,"Shrinath Puram, Kota - RSPCB",05-02-2024 04:00:00,25.14389,75.821256,SO2,7,35,13
India,Rajasthan,Nagaur,"Karni Colony, Nagaur - RSPCB",05-02-2024 04:00:00,27.213494,73.734444,PM2.5,37,126,61
India,Rajasthan,Nagaur,"Karni Colony, Nagaur - RSPCB",05-02-2024 04:00:00,27.213494,73.734444,NO2,12,30,19
India,Rajasthan,Nagaur,"Karni Colony, Nagaur - RSPCB",05-02-2024 04:00:00,27.213494,73.734444,SO2,1,5,3
India,Rajasthan,Pali,"Indira Colony Vistar, Pali - RSPCB",05-02-2024 04:00:00,25.771061, 73.340227,NO2,18,70,40
India,Rajasthan,Rajsamand,"Dhoinda, Rajsamand - RSPCB",05-02-2024 04:00:00,25.036360,73.883502,SO2,NA,NA,NA
India,Rajasthan,Rajsamand,"Dhoinda, Rajsamand - RSPCB",05-02-2024 04:00:00,25.036360,73.883502,OZONE,7,41,14
India,Rajasthan,Sawai Madhopur,"Sahu Nagar, Sawai Madhopur - RSPCB",05-02-2024 04:00:00,26.031443,76.359327,NO2,6,27,14
India,Rajasthan,Sikar,"Radhakishan Pura, Sikar - RSPCB",05-02-2024 04:00:00,27.608912,75.153302,PM2.5,42,187,78
India,Rajasthan,Sikar,"Radhakishan Pura, Sikar - RSPCB",05-02-2024 04:00:00,27.608912,75.153302,NH3,8,16,11
India,Rajasthan,Sirohi,"Vedhaynath Colony, Sirohi - RSPCB",05-02-2024 04:00:00,24.885261,72.857549,NO2,9,41,20
India,Rajasthan,Sri Ganganagar,"Old City, Sri Ganganagar - RSPCB",05-02-2024 04:00:00,29.931624,73.864511,PM10,82,221,132
India,Rajasthan,Sri Ganganagar,"Old City, Sri Ganganagar - RSPCB",05-02-2024 04:00:00,29.931624,73.864511,NO2,23,70,42
India,Rajasthan,Sri Ganganagar,"Old City, Sri Ganganagar - RSPCB",05-02-2024 04:00:00,29.931624,73.864511,CO,6,105,59
India,Rajasthan,Udaipur,"Ashok Nagar, Udaipur - RSPCB",05-02-2024 04:00:00,24.5886166,73.6321397,PM10,81,185,105
India,Sikkim,Gangtok,"Zero Point GICI, Gangtok - SSPCB",05-02-2024 04:00:00,27.338530,88.614099,PM10,32,62,48
India,Sikkim,Gangtok,"Zero Point GICI, Gangtok - SSPCB",05-02-2024 04:00:00,27.338530,88.614099,CO,20,34,24
India,Sikkim,Gangtok,"Zero Point GICI, Gangtok - SSPCB",05-02-2024 04:00:00,27.338530,88.614099,OZONE,20,46,27
India,TamilNadu,Chengalpattu,"Crescent University, Chengalpattu - TNPCB",05-02-2024 04:00:00,12.8777316,80.0834807,PM10,NA,NA,NA
India,TamilNadu,Chennai,"Arumbakkam, Chennai - TNPCB",05-02-2024 04:00:00,13.0664,80.2112 ,PM10,21,109,44
India,TamilNadu,Chennai,"Arumbakkam, Chennai - TNPCB",05-02-2024 04:00:00,13.0664,80.2112 ,NH3,1,4,3
India,TamilNadu,Chennai,"Gandhi Nagar_Ennore, Chennai - TNPCB",05-02-2024 04:00:00,13.218341,80.32027,PM10,20,92,30
India,TamilNadu,Chennai,"Gandhi Nagar_Ennore, Chennai - TNPCB",05-02-2024 04:00:00,13.218341,80.32027,NH3,2,5,4
India,TamilNadu,Chennai,"Kodungaiyur, Chennai - TNPCB",05-02-2024 04:00:00,13.1278,80.2642,PM2.5,5,49,17
India,TamilNadu,Chennai,"Manali, Chennai - CPCB",05-02-2024 04:00:00,13.164544,80.26285,NO2,10,14,11
India,TamilNadu,Chennai,"Perungudi, Chennai - TNPCB",05-02-2024 04:00:00,12.9533,80.2357,SO2,1,6,3
India,TamilNadu,Chennai,"Perungudi, Chennai - TNPCB",05-02-2024 04:00:00,12.9533,80.2357,CO,6,36,27
India,TamilNadu,Chennai,"Royapuram, Chennai - TNPCB",05-02-2024 04:00:00,13.1036,80.2909,PM2.5,11,41,19
India,TamilNadu,Chennai,"Royapuram, Chennai - TNPCB",05-02-2024 04:00:00,13.1036,80.2909,NH3,1,1,1
India,TamilNadu,Chennai,"Velachery Res. Area, Chennai - CPCB",05-02-2024 04:00:00,13.0052189,80.2398125,PM2.5,21,60,37
India,TamilNadu,Chennai,"Velachery Res. Area, Chennai - CPCB",05-02-2024 04:00:00,13.0052189,80.2398125,SO2,2,100,28
India,TamilNadu,Coimbatore,"PSG College of Arts and Science, Coimbatore - TNPCB",05-02-2024 04:00:00,11.0328,77.0349,NH3,1,1,1
India,TamilNadu,Cuddalore,"Kudikadu, Cuddalore - TNPCB",05-02-2024 04:00:00,11.6829898,79.7532099,PM10,16,74,36
India,TamilNadu,Cuddalore,"Semmandalam, Cuddalore - TNPCB",05-02-2024 04:00:00,11.7637683,79.7499835,PM2.5,3,74,23
India,TamilNadu,Cuddalore,"Semmandalam, Cuddalore - TNPCB",05-02-2024 04:00:00,11.7637683,79.7499835,PM10,3,56,17
India,TamilNadu,Cuddalore,"Semmandalam, Cuddalore - TNPCB",05-02-2024 04:00:00,11.7637683,79.7499835,OZONE,1,2,2
India,TamilNadu,Salem,"Sona College of Technology, Salem - TNPCB",05-02-2024 04:00:00,11.679111,78.125052,SO2,NA,NA,NA
India,TamilNadu,Thoothukudi,"Meelavittan, Thoothukudi - TNPCB",05-02-2024 04:00:00,8.816428 ,78.099039,CO,6,93,34
India,TamilNadu,Tirupur,"Kumaran College, Tirupur - TNPCB",05-02-2024 04:00:00,11.0973603,77.3228673,NH3,NA,NA,NA
India,TamilNadu,Vellore,"Vasanthapuram, Vellore - TNPCB",05-02-2024 04:00:00,12.909494,79.131861,SO2,NA,NA,NA
India,TamilNadu,Virudhunagar,"Collectorate Office, Virudhunagar - TNPCB",05-02-2024 04:00:00,9.559382,77.948828,PM10,17,61,34
India,TamilNadu,Virudhunagar,"Collectorate Office, Virudhunagar - TNPCB",05-02-2024 04:00:00,9.559382,77.948828,CO,20,27,24
India,Telangana,Hyderabad,"Central University, Hyderabad - TSPCB",05-02-2024 04:00:00,17.460103,78.334361,PM2.5,32,72,47
India,Telangana,Hyderabad,"Central University, Hyderabad - TSPCB",05-02-2024 04:00:00,17.460103,78.334361,SO2,4,11,8
India,Telangana,Hyderabad,"ECIL Kapra, Hyderabad - TSPCB",05-02-2024 04:00:00,17.470431,78.566959,PM2.5,41,42,41
India,Telangana,Hyderabad,"ECIL Kapra, Hyderabad - TSPCB",05-02-2024 04:00:00,17.470431,78.566959,NO2,9,14,12
India,Telangana,Hyderabad,"IITH Kandi, Hyderabad - TSPCB",05-02-2024 04:00:00,17.585705,78.126199,PM10,59,88,70
India,Telangana,Hyderabad,"IITH Kandi, Hyderabad - TSPCB",05-02-2024 04:00:00,17.585705,78.126199,NH3,3,3,3
India,Telangana,Hyderabad,"IITH Kandi, Hyderabad - TSPCB",05-02-2024 04:00:00,17.585705,78.126199,OZONE,44,44,44
India,Telangana,Hyderabad,"Kokapet, Hyderabad - TSPCB",05-02-2024 04:00:00,17.393559,78.339194,PM2.5,NA,NA,NA
India,Telangana,Hyderabad,"New Malakpet, Hyderabad - TSPCB",05-02-2024 04:00:00,17.37206,78.50864,PM2.5,18,39,28
India,Telangana,Hyderabad,"New Malakpet, Hyderabad - TSPCB",05-02-2024 04:00:00,17.37206,78.50864,PM10,57,72,62
India,Telangana,Hyderabad,"New Malakpet, Hyderabad - TSPCB",05-02-2024 04:00:00,17.37206,78.50864,CO,14,36,23
India,Telangana,Hyderabad,"Sanathnagar, Hyderabad - TSPCB",05-02-2024 04:00:00,17.4559458,78.4332152,NO2,39,389,136
India,Tripura,Agartala,"Bardowali, Agartala - Tripura SPCB",05-02-2024 04:00:00,23.8175497,91.2726974,NO2,8,35,19
India,Uttar_Pradesh,Agra,"Rohta, Agra - UPPCB",05-02-2024 04:00:00,27.106972,78.000111,SO2,NA,NA,NA
India,Uttar_Pradesh,Agra,"Rohta, Agra - UPPCB",05-02-2024 04:00:00,27.106972,78.000111,CO,NA,NA,NA
India,Uttar_Pradesh,Agra,"Rohta, Agra - UPPCB",05-02-2024 04:00:00,27.106972,78.000111,OZONE,NA,NA,NA
India,Uttar_Pradesh,Agra,"Sanjay Palace, Agra - UPPCB",05-02-2024 04:00:00,27.19865833,78.00598056,SO2,4,23,11
India,Uttar_Pradesh,Agra,"Sanjay Palace, Agra - UPPCB",05-02-2024 04:00:00,27.19865833,78.00598056,OZONE,13,45,21
India,Uttar_Pradesh,Agra,"Shastripuram, Agra - UPPCB",05-02-2024 04:00:00,27.19862,77.92066,PM2.5,NA,NA,NA
India,Uttar_Pradesh,Agra,"Shastripuram, Agra - UPPCB",05-02-2024 04:00:00,27.19862,77.92066,NO2,31,89,35
India,Uttar_Pradesh,Agra,"Shastripuram, Agra - UPPCB",05-02-2024 04:00:00,27.19862,77.92066,OZONE,3,10,5
India,Uttar_Pradesh,Baghpat,"Sardar Patel Inter College, Baghpat - UPPCB",05-02-2024 04:00:00,28.964949,77.278761,NH3,2,5,3
India,Uttar_Pradesh,Bareilly,"Civil Lines, Bareilly - UPPCB",05-02-2024 04:00:00,28.359581,79.414455,PM2.5,NA,NA,NA
India,Uttar_Pradesh,Bareilly,"Rajendra Nagar, Bareilly - UPPCB",05-02-2024 04:00:00,28.38910936,79.42963708,PM2.5,28,61,38
India,Uttar_Pradesh,Bulandshahr,"Yamunapuram, Bulandshahr - UPPCB",05-02-2024 04:00:00,28.406963,77.849831,PM10,70,197,106
India,Uttar_Pradesh,Bulandshahr,"Yamunapuram, Bulandshahr - UPPCB",05-02-2024 04:00:00,28.406963,77.849831,SO2,8,49,30
India,Uttar_Pradesh,Bulandshahr,"Yamunapuram, Bulandshahr - UPPCB",05-02-2024 04:00:00,28.406963,77.849831,CO,6,114,28
India,Uttar_Pradesh,Firozabad,"Nagla Bhau, Firozabad - UPPCB",05-02-2024 04:00:00,27.168897,78.376960,PM10,20,62,40
India,Uttar_Pradesh,Firozabad,"Nagla Bhau, Firozabad - UPPCB",05-02-2024 04:00:00,27.168897,78.376960,SO2,12,17,15
India,Uttar_Pradesh,Firozabad,"Nagla Bhau, Firozabad - UPPCB",05-02-2024 04:00:00,27.168897,78.376960,CO,10,20,15
India,Uttar_Pradesh,Firozabad,"Vibhab Nagar, Firozabad - UPPCB",05-02-2024 04:00:00,27.1594,78.3953,OZONE,NA,NA,NA
India,Uttar_Pradesh,Ghaziabad,"Indirapuram, Ghaziabad - UPPCB",05-02-2024 04:00:00,28.646233,77.358075,PM2.5,48,198,86
India,Uttar_Pradesh,Ghaziabad,"Indirapuram, Ghaziabad - UPPCB",05-02-2024 04:00:00,28.646233,77.358075,SO2,11,17,14
India,Uttar_Pradesh,Ghaziabad,"Indirapuram, Ghaziabad - UPPCB",05-02-2024 04:00:00,28.646233,77.358075,OZONE,6,21,10
India,Uttar_Pradesh,Ghaziabad,"Loni, Ghaziabad - UPPCB",05-02-2024 04:00:00,28.757294,77.278792,PM10,76,179,121
India,Uttar_Pradesh,Ghaziabad,"Sanjay Nagar, Ghaziabad - UPPCB",05-02-2024 04:00:00,28.685382,77.453839,PM10,64,178,99
India,Uttar_Pradesh,Ghaziabad,"Sanjay Nagar, Ghaziabad - UPPCB",05-02-2024 04:00:00,28.685382,77.453839,CO,1,66,33
India,Uttar_Pradesh,Ghaziabad,"Vasundhara, Ghaziabad - UPPCB",05-02-2024 04:00:00,28.6603346,77.3572563,PM10,50,161,90
India,Uttar_Pradesh,Ghaziabad,"Vasundhara, Ghaziabad - UPPCB",05-02-2024 04:00:00,28.6603346,77.3572563,NO2,17,90,45
India,Uttar_Pradesh,Ghaziabad,"Vasundhara, Ghaziabad - UPPCB",05-02-2024 04:00:00,28.6603346,77.3572563,NH3,10,26,15
India,Uttar_Pradesh,Gorakhpur,"Madan Mohan Malaviya University of Technology, Gorakhpur - UPPCB",05-02-2024 04:00:00,26.730136,83.433859,NH3,2,3,2
India,Uttar_Pradesh,Gorakhpur,"Madan Mohan Malaviya University of Technology, Gorakhpur - UPPCB",05-02-2024 04:00:00,26.730136,83.433859,SO2,37,38,38
India,Uttar_Pradesh,Greater Noida,"Knowledge Park - III, Greater Noida - UPPCB",05-02-2024 04:00:00,28.47272,77.482000,PM2.5,187,345,272
India,Uttar_Pradesh,Greater Noida,"Knowledge Park - III, Greater Noida - UPPCB",05-02-2024 04:00:00,28.47272,77.482000,NO2,27,146,62
India,Uttar_Pradesh,Greater Noida,"Knowledge Park - V, Greater Noida - UPPCB",05-02-2024 04:00:00,28.557054,77.453663,SO2,10,16,12
India,Uttar_Pradesh,Hapur,"Anand Vihar, Hapur - UPPCB",05-02-2024 04:00:00,28.725645,77.749675,CO,13,40,32
India,Uttar_Pradesh,Jhansi,"Shivaji Nagar, Jhansi - UPPCB",05-02-2024 04:00:00,25.4547,78.6039,PM2.5,39,79,61
India,Uttar_Pradesh,Jhansi,"Shivaji Nagar, Jhansi - UPPCB",05-02-2024 04:00:00,25.4547,78.6039,CO,22,37,23
India,Uttar_Pradesh,Kanpur,"FTI Kidwai Nagar, Kanpur - UPPCB",05-02-2024 04:00:00,26.428282,80.327067,OZONE,3,5,4
India,Uttar_Pradesh,Kanpur,"NSI Kalyanpur, Kanpur - UPPCB",05-02-2024 04:00:00,26.509954,80.249612,PM10,74,105,90
India,Uttar_Pradesh,Kanpur,"NSI Kalyanpur, Kanpur - UPPCB",05-02-2024 04:00:00,26.509954,80.249612,NO2,16,16,16
India,Uttar_Pradesh,Kanpur,"Nehru Nagar, Kanpur - UPPCB",05-02-2024 04:00:00,26.4703136,80.3229863,PM2.5,52,92,70
India,Uttar_Pradesh,Kanpur,"Nehru Nagar, Kanpur - UPPCB",05-02-2024 04:00:00,26.4703136,80.3229863,NO2,24,58,39
India,Uttar_Pradesh,Khurja,"Kalindi Kunj, Khurja - UPPCB",05-02-2024 04:00:00,28.2348927,77.8683002,PM10,4,81,34
India,Uttar_Pradesh,Khurja,"Kalindi Kunj, Khurja - UPPCB",05-02-2024 04:00:00,28.2348927,77.8683002,NO2,17,29,20
India,Uttar_Pradesh,Lucknow,"B R Ambedkar University, Lucknow - UPPCB",05-02-2024 04:00:00,26.766433,80.927299,SO2,14,25,23
India,Uttar_Pradesh,Lucknow,"B R Ambedkar University, Lucknow - UPPCB",05-02-2024 04:00:00,26.766433,80.927299,CO,14,32,29
India,Uttar_Pradesh,Lucknow,"Gomti Nagar, Lucknow - UPPCB",05-02-2024 04:00:00,26.868120,81.005119,PM2.5,3,51,14
India,Uttar_Pradesh,Lucknow,"Kendriya Vidyalaya, Lucknow - CPCB",05-02-2024 04:00:00,26.906111,80.948222,CO,2,48,26
India,Uttar_Pradesh,Lucknow,"Kukrail Picnic Spot-1, Lucknow - UPPCB",05-02-2024 04:00:00,26.90723,80.98579,PM10,37,76,47
India,Uttar_Pradesh,Lucknow,"Lalbagh, Lucknow - CPCB",05-02-2024 04:00:00,26.8458805,80.9365541,PM2.5,45,121,84
India,Uttar_Pradesh,Lucknow,"Lalbagh, Lucknow - CPCB",05-02-2024 04:00:00,26.8458805,80.9365541,NO2,23,48,32
India,Uttar_Pradesh,Lucknow,"Lalbagh, Lucknow - CPCB",05-02-2024 04:00:00,26.8458805,80.9365541,NH3,10,13,11
India,Uttar_Pradesh,Lucknow,"Talkatora District Industries Center, Lucknow - CPCB",05-02-2024 04:00:00,26.83399722,80.8917361,SO2,5,18,12
India,Uttar_Pradesh,Lucknow,"Talkatora District Industries Center, Lucknow - CPCB",05-02-2024 04:00:00,26.83399722,80.8917361,OZONE,2,61,11
India,Uttar_Pradesh,Meerut,"Ganga Nagar, Meerut - UPPCB",05-02-2024 04:00:00,28.999264,77.7590354,CO,12,26,21
India,Uttar_Pradesh,Meerut,"Jai Bhim Nagar, Meerut - UPPCB",05-02-2024 04:00:00,28.9535882,77.7622941,PM2.5,NA,NA,NA
India,Uttar_Pradesh,Meerut,"Jai Bhim Nagar, Meerut - UPPCB",05-02-2024 04:00:00,28.9535882,77.7622941,PM10,NA,NA,NA
India,Uttar_Pradesh,Moradabad,"Buddhi Vihar, Moradabad - UPPCB",05-02-2024 04:00:00,28.83526,78.74460,PM2.5,26,58,40
India,Uttar_Pradesh,Moradabad,"Buddhi Vihar, Moradabad - UPPCB",05-02-2024 04:00:00,28.83526,78.74460,PM10,39,74,58
India,Uttar_Pradesh,Moradabad,"Eco Herbal Park, Moradabad - UPPCB",05-02-2024 04:00:00,28.840739,78.697531,PM2.5,42,90,60
India,Uttar_Pradesh,Moradabad,"Jigar Colony, Moradabad - UPPCB",05-02-2024 04:00:00,28.856664,78.772638,PM2.5,33,61,49
India,Uttar_Pradesh,Moradabad,"Kashiram Nagar, Moradabad - UPPCB",05-02-2024 04:00:00,28.849399,78.742362,PM2.5,30,71,45
India,Uttar_Pradesh,Moradabad,"Kashiram Nagar, Moradabad - UPPCB",05-02-2024 04:00:00,28.849399,78.742362,NH3,4,4,4
India,Uttar_Pradesh,Moradabad,"Transport Nagar, Moradabad - UPPCB",05-02-2024 04:00:00,28.802625,78.753728,PM2.5,34,69,51
India,Uttar_Pradesh,Moradabad,"Transport Nagar, Moradabad - UPPCB",05-02-2024 04:00:00,28.802625,78.753728,PM10,39,75,52
India,Uttar_Pradesh,Moradabad,"Transport Nagar, Moradabad - UPPCB",05-02-2024 04:00:00,28.802625,78.753728,NH3,6,6,6
India,Uttar_Pradesh,Moradabad,"Transport Nagar, Moradabad - UPPCB",05-02-2024 04:00:00,28.802625,78.753728,CO,40,42,40
India,Uttar_Pradesh,Muzaffarnagar,"New Mandi, Muzaffarnagar - UPPCB",05-02-2024 04:00:00,29.4723508,77.7194031,OZONE,14,53,25
India,Uttar_Pradesh,Noida,"Sector - 125, Noida - UPPCB",05-02-2024 04:00:00,28.5447608,77.3231257,PM2.5,79,248,140
India,Uttar_Pradesh,Noida,"Sector - 125, Noida - UPPCB",05-02-2024 04:00:00,28.5447608,77.3231257,PM10,60,119,98
India,Uttar_Pradesh,Noida,"Sector - 62, Noida - IMD",05-02-2024 04:00:00,28.6245479,77.3577104,PM2.5,79,326,164
India,Uttar_Pradesh,Noida,"Sector-1, Noida - UPPCB",05-02-2024 04:00:00,28.5898,77.3101,NO2,40,80,67
India,Uttar_Pradesh,Noida,"Sector-1, Noida - UPPCB",05-02-2024 04:00:00,28.5898,77.3101,NH3,7,15,13
India,Uttar_Pradesh,Noida,"Sector-1, Noida - UPPCB",05-02-2024 04:00:00,28.5898,77.3101,CO,14,110,30
India,Uttar_Pradesh,Prayagraj,"Jhunsi, Prayagraj - UPPCB",05-02-2024 04:00:00,25.425602,81.917152,NH3,5,5,5
India,Uttar_Pradesh,Prayagraj,"Motilal Nehru NIT, Prayagraj - UPPCB",05-02-2024 04:00:00,25.494,81.863,CO,16,37,30
India,Uttar_Pradesh,Prayagraj,"Nagar Nigam, Prayagraj - UPPCB",05-02-2024 04:00:00,25.44919916 ,81.82735986 ,CO,10,36,25
India,Uttar_Pradesh,Varanasi,"Ardhali Bazar, Varanasi - UPPCB",05-02-2024 04:00:00,25.3505986,82.9083074,PM10,12,45,25
India,Uttar_Pradesh,Varanasi,"Ardhali Bazar, Varanasi - UPPCB",05-02-2024 04:00:00,25.3505986,82.9083074,OZONE,17,21,20
India,Uttar_Pradesh,Varanasi,"Bhelupur, Varanasi - UPPCB",05-02-2024 04:00:00,25.301778,82.996789,PM2.5,12,48,27
India,Uttar_Pradesh,Varanasi,"Bhelupur, Varanasi - UPPCB",05-02-2024 04:00:00,25.301778,82.996789,NH3,1,2,2
India,Uttar_Pradesh,Varanasi,"Bhelupur, Varanasi - UPPCB",05-02-2024 04:00:00,25.301778,82.996789,CO,12,48,35
India,Uttar_Pradesh,Varanasi,"IESD Banaras Hindu University, Varanasi - UPPCB",05-02-2024 04:00:00,25.262326,82.995408,PM2.5,9,33,20
India,Uttar_Pradesh,Vrindavan,"Omex Eternity, Vrindavan - UPPCB",05-02-2024 04:00:00,27.5714090,77.6557570,PM2.5,19,36,28
India,Uttar_Pradesh,Vrindavan,"Omex Eternity, Vrindavan - UPPCB",05-02-2024 04:00:00,27.5714090,77.6557570,NH3,4,4,4
India,Uttar_Pradesh,Vrindavan,"Omex Eternity, Vrindavan - UPPCB",05-02-2024 04:00:00,27.5714090,77.6557570,CO,3,44,8
India,Uttarakhand,Dehradun,"Doon University, Dehradun - UKPCB",05-02-2024 04:00:00,30.269444,78.044167,PM2.5,25,125,50
India,Uttarakhand,Dehradun,"Doon University, Dehradun - UKPCB",05-02-2024 04:00:00,30.269444,78.044167,PM10,22,74,40
India,Uttarakhand,Dehradun,"Doon University, Dehradun - UKPCB",05-02-2024 04:00:00,30.269444,78.044167,NO2,1,7,3
India,Uttarakhand,Dehradun,"Doon University, Dehradun - UKPCB",05-02-2024 04:00:00,30.269444,78.044167,OZONE,3,4,3
India,Uttarakhand,Kashipur,"Govt. Girls Inter College, Kashipur - UKPCB",05-02-2024 04:00:00,29.2124114,78.9611753,PM10,27,82,60
India,West_Bengal,Durgapur,"Sidhu Kanhu Indoor Stadium, Durgapur - WBPCB",05-02-2024 04:00:00,23.5404352,87.2892225,PM2.5,77,294,149
India,West_Bengal,Durgapur,"Sidhu Kanhu Indoor Stadium, Durgapur - WBPCB",05-02-2024 04:00:00,23.5404352,87.2892225,SO2,18,66,33
India,West_Bengal,Durgapur,"Sidhu Kanhu Indoor Stadium, Durgapur - WBPCB",05-02-2024 04:00:00,23.5404352,87.2892225,CO,29,69,43
India,West_Bengal,Haldia,"Priyambada Housing Estate, Haldia - WBPCB",05-02-2024 04:00:00,22.06047,88.109737,NO2,16,56,28
India,West_Bengal,Haldia,"Priyambada Housing Estate, Haldia - WBPCB",05-02-2024 04:00:00,22.06047,88.109737,NH3,3,5,4
India,West_Bengal,Howrah,"Belur Math, Howrah - WBPCB",05-02-2024 04:00:00,22.629801,88.352017,CO,3,101,54
India,West_Bengal,Howrah,"Ghusuri, Howrah - WBPCB",05-02-2024 04:00:00,22.611968,88.347422,PM2.5,138,350,269
India,West_Bengal,Howrah,"Ghusuri, Howrah - WBPCB",05-02-2024 04:00:00,22.611968,88.347422,PM10,111,171,144
India,West_Bengal,Howrah,"Ghusuri, Howrah - WBPCB",05-02-2024 04:00:00,22.611968,88.347422,NH3,7,12,9
India,West_Bengal,Kolkata,"Ballygunge, Kolkata - WBPCB",05-02-2024 04:00:00,22.5367507,88.3638022,CO,8,106,56
India,West_Bengal,Kolkata,"Bidhannagar, Kolkata - WBPCB",05-02-2024 04:00:00,22.58157048,88.41002457,PM2.5,90,270,180
India,West_Bengal,Kolkata,"Fort William, Kolkata - WBPCB",05-02-2024 04:00:00,22.556640,88.342674,NO2,24,192,80
India,West_Bengal,Kolkata,"Fort William, Kolkata - WBPCB",05-02-2024 04:00:00,22.556640,88.342674,OZONE,12,85,16
India,West_Bengal,Kolkata,"Jadavpur, Kolkata - WBPCB",05-02-2024 04:00:00,22.49929,88.36917,NH3,2,6,4
India,West_Bengal,Kolkata,"Jadavpur, Kolkata - WBPCB",05-02-2024 04:00:00,22.49929,88.36917,CO,12,105,71
India,West_Bengal,Kolkata,"Rabindra Bharati University, Kolkata - WBPCB",05-02-2024 04:00:00,22.627847,88.380669,PM10,91,175,131
India,West_Bengal,Kolkata,"Rabindra Sarobar, Kolkata - WBPCB",05-02-2024 04:00:00,22.51106,88.35142,NH3,3,11,5
India,West_Bengal,Kolkata,"Victoria, Kolkata - WBPCB",05-02-2024 04:00:00,22.5448082,88.3403691,CO,34,113,91
India,West_Bengal,Siliguri,"Ward-32 Bapupara, Siliguri - WBPCB",05-02-2024 04:00:00,26.6879226,88.4152495,PM10,85,246,122
India,Andhra_Pradesh,Amaravati,"Secretariat, Amaravati - APPCB",05-02-2024 04:00:00,16.5150833,80.5181667,PM2.5,25,73,45
India,Andhra_Pradesh,Amaravati,"Secretariat, Amaravati - APPCB",05-02-2024 04:00:00,16.5150833,80.5181667,OZONE,6,40,11
India,Andhra_Pradesh,Anantapur,"Gulzarpet, Anantapur - APPCB",05-02-2024 04:00:00,14.675886,77.593027,CO,26,60,31
India,Andhra_Pradesh,Chittoor,"Gangineni Cheruvu, Chittoor - APPCB",05-02-2024 04:00:00,13.204880,79.097889,PM2.5,36,89,66
India,Andhra_Pradesh,Chittoor,"Gangineni Cheruvu, Chittoor - APPCB",05-02-2024 04:00:00,13.204880,79.097889,NH3,1,2,1
India,Andhra_Pradesh,Tirupati,"Tirumala, Tirupati - APPCB",05-02-2024 04:00:00,13.67,79.35,CO,28,54,43
India,Andhra_Pradesh,Vijayawada,"HB Colony, Vijayawada - APPCB",05-02-2024 04:00:00,16.536107,80.594233,NH3,NA,NA,NA
India,Andhra_Pradesh,Vijayawada,"HB Colony, Vijayawada - APPCB",05-02-2024 04:00:00,16.536107,80.594233,SO2,NA,NA,NA
India,Andhra_Pradesh,Vijayawada,"Kanuru, Vijayawada - APPCB",05-02-2024 04:00:00,16.486692,80.699436,PM10,NA,NA,NA
India,Andhra_Pradesh,Vijayawada,"Kanuru, Vijayawada - APPCB",05-02-2024 04:00:00,16.486692,80.699436,OZONE,NA,NA,NA
India,Assam,Byrnihat,"Central Academy for SFS, Byrnihat - PCBA",05-02-2024 04:00:00,26.071318,91.87488,NH3,3,9,6
India,Assam,Guwahati,"IITG, Guwahati - PCBA",05-02-2024 04:00:00,26.2028636,91.70046436,PM2.5,98,306,183
India,Assam,Guwahati,"IITG, Guwahati - PCBA",05-02-2024 04:00:00,26.2028636,91.70046436,NH3,5,5,5
India,Assam,Guwahati,"IITG, Guwahati - PCBA",05-02-2024 04:00:00,26.2028636,91.70046436,OZONE,5,27,7
India,Assam,Guwahati,"LGBI Airport, Guwahati - PCBA",05-02-2024 04:00:00,26.10887,91.589544,PM2.5,72,328,182
India,Assam,Guwahati,"Pan Bazaar, Guwahati - PCBA",05-02-2024 04:00:00,26.187500,91.744194,PM10,67,159,110
India,Assam,Guwahati,"Railway Colony, Guwahati - PCBA",05-02-2024 04:00:00,26.181742,91.78063,PM2.5,67,336,167
India,Assam,Guwahati,"Railway Colony, Guwahati - PCBA",05-02-2024 04:00:00,26.181742,91.78063,SO2,19,25,22
India,Assam,Silchar,"Tarapur, Silchar - PCBA",05-02-2024 04:00:00,24.82827,92.79525,PM2.5,28,53,37
India,Assam,Silchar,"Tarapur, Silchar - PCBA",05-02-2024 04:00:00,24.82827,92.79525,PM10,50,51,50
India,Assam,Silchar,"Tarapur, Silchar - PCBA",05-02-2024 04:00:00,24.82827,92.79525,NO2,33,50,40
India,Assam,Sivasagar,"Girls College, Sivasagar - PCBA",05-02-2024 04:00:00,26.987634,94.636574,SO2,5,5,5
India,Assam,Sivasagar,"Girls College, Sivasagar - PCBA",05-02-2024 04:00:00,26.987634,94.636574,OZONE,1,3,1
India,Bihar,Araria,"Kharahiya Basti, Araria - BSPCB",05-02-2024 04:00:00,26.146529,87.454184,NH3,6,10,8
India,Bihar,Arrah,"New DM Office, Arrah - BSPCB",05-02-2024 04:00:00,25.5626095,84.663264,PM2.5,47,237,123
India,Bihar,Arrah,"New DM Office, Arrah - BSPCB",05-02-2024 04:00:00,25.5626095,84.663264,PM10,71,149,108
India,Bihar,Arrah,"New DM Office, Arrah - BSPCB",05-02-2024 04:00:00,25.5626095,84.663264,NO2,9,45,21
India,Bihar,Arrah,"New DM Office, Arrah - BSPCB",05-02-2024 04:00:00,25.5626095,84.663264,OZONE,14,30,15
India,Bihar,Aurangabad,"Gurdeo Nagar, Aurangabad - BSPCB",05-02-2024 04:00:00,24.75746,84.366208,SO2,NA,NA,NA
India,Bihar,Bettiah,"Kamalnath Nagar, Bettiah - BSPCB",05-02-2024 04:00:00,26.80365,84.51954,OZONE,NA,NA,NA
India,Bihar,Bhagalpur,"DM Office_Kachari Chowk, Bhagalpur - BSPCB",05-02-2024 04:00:00,25.251013,86.989001,SO2,3,24,15
India,Bihar,Bhagalpur,"Mayaganj, Bhagalpur - BSPCB",05-02-2024 04:00:00,25.265194,87.012947,PM2.5,103,379,292
India,Bihar,Bhagalpur,"Mayaganj, Bhagalpur - BSPCB",05-02-2024 04:00:00,25.265194,87.012947,PM10,75,225,153
India,Bihar,Bhagalpur,"Mayaganj, Bhagalpur - BSPCB",05-02-2024 04:00:00,25.265194,87.012947,OZONE,23,58,36
India,Bihar,Bihar Sharif,"D M Colony, Bihar Sharif - BSPCB",05-02-2024 04:00:00,25.204762,85.514960,OZONE,8,59,16
India,Bihar,Buxar,"Charitra Van, Buxar - BSPCB (Formerly known as Central Jail)",05-02-2024 04:00:00,25.567520,83.966379,PM2.5,100,439,317
India,Bihar,Buxar,"Charitra Van, Buxar - BSPCB (Formerly known as Central Jail)",05-02-2024 04:00:00,25.567520,83.966379,NH3,1,2,2
India,Bihar,Buxar,"Charitra Van, Buxar - BSPCB (Formerly known as Central Jail)",05-02-2024 04:00:00,25.567520,83.966379,CO,39,83,66
India,Bihar,Chhapra,"Darshan Nagar, Chhapra - BSPCB",05-02-2024 04:00:00,25.7808257,84.7446768,PM10,105,180,132
India,Bihar,Chhapra,"Darshan Nagar, Chhapra - BSPCB",05-02-2024 04:00:00,25.7808257,84.7446768,NO2,18,31,24
India,Bihar,Chhapra,"Darshan Nagar, Chhapra - BSPCB",05-02-2024 04:00:00,25.7808257,84.7446768,NH3,9,15,12
India,Bihar,Chhapra,"Darshan Nagar, Chhapra - BSPCB",05-02-2024 04:00:00,25.7808257,84.7446768,CO,26,47,32
India,Bihar,Gaya,"Kareemganj, Gaya - BSPCB",05-02-2024 04:00:00,24.792403,84.992416,NO2,29,31,30
India,Bihar,Gaya,"Kareemganj, Gaya - BSPCB",05-02-2024 04:00:00,24.792403,84.992416,SO2,6,11,8
India,Bihar,Gaya,"Kareemganj, Gaya - BSPCB",05-02-2024 04:00:00,24.792403,84.992416,OZONE,5,25,17
India,Bihar,Hajipur,"Industrial Area, Hajipur - BSPCB",05-02-2024 04:00:00,25.697189,85.245900,PM10,104,242,158
India,Bihar,Hajipur,"Industrial Area, Hajipur - BSPCB",05-02-2024 04:00:00,25.697189,85.245900,SO2,2,12,7
India,Bihar,Hajipur,"Industrial Area, Hajipur - BSPCB",05-02-2024 04:00:00,25.697189,85.245900,OZONE,1,2,1
India,Bihar,Katihar,"Mirchaibari, Katihar - BSPCB",05-02-2024 04:00:00,25.560083,87.553265,NO2,9,35,17
India,Bihar,Katihar,"Mirchaibari, Katihar - BSPCB",05-02-2024 04:00:00,25.560083,87.553265,NH3,2,4,3
India,Bihar,Kishanganj,"SDM Office_Khagra, Kishanganj - BSPCB",05-02-2024 04:00:00,26.0881305,87.93840336,NO2,NA,NA,NA
India,Bihar,Kishanganj,"SDM Office_Khagra, Kishanganj - BSPCB",05-02-2024 04:00:00,26.0881305,87.93840336,NH3,NA,NA,NA
India,Bihar,Kishanganj,"SDM Office_Khagra, Kishanganj - BSPCB",05-02-2024 04:00:00,26.0881305,87.93840336,SO2,NA,NA,NA
India,Bihar,Kishanganj,"SDM Office_Khagra, Kishanganj - BSPCB",05-02-2024 04:00:00,26.0881305,87.93840336,CO,NA,NA,NA
India,Bihar,Kishanganj,"SDM Office_Khagra, Kishanganj - BSPCB",05-02-2024 04:00:00,26.0881305,87.93840336,OZONE,NA,NA,NA
India,Bihar,Motihari,"Gandak Colony, Motihari - BSPCB",05-02-2024 04:00:00,26.63086,84.90051,NH3,7,13,9
India,Bihar,Motihari,"Gandak Colony, Motihari - BSPCB",05-02-2024 04:00:00,26.63086,84.90051,SO2,NA,NA,NA
India,Bihar,Motihari,"Gandak Colony, Motihari - BSPCB",05-02-2024 04:00:00,26.63086,84.90051,CO,24,72,54
India,Bihar,Munger,"Town Hall, Munger - BSPCB",05-02-2024 04:00:00,25.376776,86.471523,CO,43,186,140
India,Bihar,Munger,"Town Hall, Munger - BSPCB",05-02-2024 04:00:00,25.376776,86.471523,OZONE,9,104,11
India,Bihar,Muzaffarpur,"Buddha Colony, Muzaffarpur - BSPCB",05-02-2024 04:00:00,26.11442,85.39813,NO2,33,75,47
India,Bihar,Muzaffarpur,"Buddha Colony, Muzaffarpur - BSPCB",05-02-2024 04:00:00,26.11442,85.39813,SO2,6,22,10
India,Bihar,Muzaffarpur,"Buddha Colony, Muzaffarpur - BSPCB",05-02-2024 04:00:00,26.11442,85.39813,OZONE,38,85,54
India,Bihar,Muzaffarpur,"Muzaffarpur Collectorate, Muzaffarpur - BSPCB",05-02-2024 04:00:00,26.1209,85.3647,CO,16,62,18
India,Bihar,Patna,"DRM Office Danapur, Patna - BSPCB",05-02-2024 04:00:00,25.586562,85.043586,PM10,122,176,152
India,Bihar,Patna,"DRM Office Danapur, Patna - BSPCB",05-02-2024 04:00:00,25.586562,85.043586,NO2,16,52,32
India,Bihar,Patna,"DRM Office Danapur, Patna - BSPCB",05-02-2024 04:00:00,25.586562,85.043586,SO2,7,9,8
India,Bihar,Patna,"Govt. High School Shikarpur, Patna - BSPCB",05-02-2024 04:00:00,25.592539,85.227158,PM10,110,163,145
India,Bihar,Patna,"Govt. High School Shikarpur, Patna - BSPCB",05-02-2024 04:00:00,25.592539,85.227158,NO2,18,26,23
India,Bihar,Patna,"Govt. High School Shikarpur, Patna - BSPCB",05-02-2024 04:00:00,25.592539,85.227158,NH3,3,5,4
India,Bihar,Patna,"IGSC Planetarium Complex, Patna - BSPCB",05-02-2024 04:00:00,25.610369,85.132568,OZONE,4,21,14
India,Bihar,Patna,"Muradpur, Patna - BSPCB",05-02-2024 04:00:00,25.619651,85.147382,NH3,3,4,3
India,Bihar,Patna,"Rajbansi Nagar, Patna - BSPCB",05-02-2024 04:00:00,25.599486,85.113666,NO2,NA,NA,NA
India,Bihar,Patna,"Samanpura, Patna - BSPCB",05-02-2024 04:00:00,25.596727,85.085624,SO2,15,17,16
India,Bihar,Patna,"Samanpura, Patna - BSPCB",05-02-2024 04:00:00,25.596727,85.085624,CO,47,131,102
India,Bihar,Purnia,"Mariam Nagar, Purnia - BSPCB",05-02-2024 04:00:00,25.366336,87.117468,NO2,12,14,13
India,Bihar,Purnia,"Mariam Nagar, Purnia - BSPCB",05-02-2024 04:00:00,25.366336,87.117468,SO2,17,23,20
India,Bihar,Purnia,"Mariam Nagar, Purnia - BSPCB",05-02-2024 04:00:00,25.366336,87.117468,CO,5,96,75
India,Bihar,Purnia,"Mariam Nagar, Purnia - BSPCB",05-02-2024 04:00:00,25.366336,87.117468,OZONE,10,26,11
India,Bihar,Rajgir,"Dangi Tola, Rajgir - BSPCB",05-02-2024 04:00:00,25.03280,85.41948,PM10,58,151,112
India,Bihar,Rajgir,"Dangi Tola, Rajgir - BSPCB",05-02-2024 04:00:00,25.03280,85.41948,OZONE,21,24,23
India,Bihar,Samastipur,"DM Office_Kasipur, Samastipur - BSPCB",05-02-2024 04:00:00,25.859655,85.77944,PM10,109,179,145
India,Bihar,Samastipur,"DM Office_Kasipur, Samastipur - BSPCB",05-02-2024 04:00:00,25.859655,85.77944,NH3,3,5,5
India,Bihar,Samastipur,"DM Office_Kasipur, Samastipur - BSPCB",05-02-2024 04:00:00,25.859655,85.77944,CO,14,30,24
India,Bihar,Sasaram,"Dada Peer, Sasaram - BSPCB",05-02-2024 04:00:00,24.952822,84.002396,PM10,18,117,81
India,Bihar,Sasaram,"Dada Peer, Sasaram - BSPCB",05-02-2024 04:00:00,24.952822,84.002396,SO2,20,23,21
India,Bihar,Sasaram,"Dada Peer, Sasaram - BSPCB",05-02-2024 04:00:00,24.952822,84.002396,OZONE,3,6,4
India,Bihar,Siwan,"Chitragupta Nagar, Siwan - BSPCB",05-02-2024 04:00:00,26.2271665,84.3570427,NO2,NA,NA,NA
India,Chandigarh,Chandigarh,"Sector-25, Chandigarh - CPCC",05-02-2024 04:00:00,30.751462,76.762879,NO2,8,27,18
India,Chandigarh,Chandigarh,"Sector-25, Chandigarh - CPCC",05-02-2024 04:00:00,30.751462,76.762879,NH3,11,21,15
India,Chandigarh,Chandigarh,"Sector-53, Chandigarh - CPCC",05-02-2024 04:00:00,30.719859,76.738637,PM10,46,133,83
India,Chandigarh,Chandigarh,"Sector-53, Chandigarh - CPCC",05-02-2024 04:00:00,30.719859,76.738637,NH3,5,8,6
India,Chandigarh,Chandigarh,"Sector-53, Chandigarh - CPCC",05-02-2024 04:00:00,30.719859,76.738637,SO2,NA,NA,NA
India,Chhattisgarh,Bhilai,"32Bungalows, Bhilai - CECB",05-02-2024 04:00:00,21.194815,81.314770,NH3,6,6,6
India,Chhattisgarh,Bhilai,"32Bungalows, Bhilai - CECB",05-02-2024 04:00:00,21.194815,81.314770,OZONE,4,11,4
India,Chhattisgarh,Bhilai,"Civic Center, Bhilai - Bhilai Steel Plant",05-02-2024 04:00:00,21.185571,81.343175,PM10,48,96,68
India,Chhattisgarh,Bhilai,"Civic Center, Bhilai - Bhilai Steel Plant",05-02-2024 04:00:00,21.185571,81.343175,NO2,9,27,14
India,Chhattisgarh,Bhilai,"Civic Center, Bhilai - Bhilai Steel Plant",05-02-2024 04:00:00,21.185571,81.343175,SO2,5,12,9
India,Chhattisgarh,Bhilai,"Civic Center, Bhilai - Bhilai Steel Plant",05-02-2024 04:00:00,21.185571,81.343175,CO,20,60,36
India,Chhattisgarh,Bhilai,"Civic Center, Bhilai - Bhilai Steel Plant",05-02-2024 04:00:00,21.185571,81.343175,OZONE,8,64,10
India,Chhattisgarh,Bhilai,"Hathkhoj, Bhilai - CECB",05-02-2024 04:00:00,21.224231,81.408350,PM2.5,22,221,76
India,Chhattisgarh,Bhilai,"Hathkhoj, Bhilai - CECB",05-02-2024 04:00:00,21.224231,81.408350,PM10,54,166,101
India,Chhattisgarh,Bilaspur,"Mangala, Bilaspur - NTPC",05-02-2024 04:00:00,22.08815,82.13737,CO,31,40,36
India,Chhattisgarh,Chhal,"Nawapara SECL Colony, Chhal - CECB",05-02-2024 04:00:00,22.118125,83.140608,PM10,31,141,71
India,Chhattisgarh,Kunjemura,"OP Jindal School, Kunjemura - CECB",05-02-2024 04:00:00,22.126650,83.483212,PM2.5,27,60,45
India,Chhattisgarh,Milupara,"Govt. Higher Secondary School, Milupara - CECB",05-02-2024 04:00:00,22.1910172,83.5197009,SO2,NA,NA,NA
India,Chhattisgarh,Milupara,"Govt. Higher Secondary School, Milupara - CECB",05-02-2024 04:00:00,22.1910172,83.5197009,CO,5,38,6
India,Chhattisgarh,Raipur,"AIIMS, Raipur - CECB",05-02-2024 04:00:00,21.258815,81.578979,NO2,44,78,56
India,Chhattisgarh,Raipur,"Bhatagaon New ISBT, Raipur - CECB",05-02-2024 04:00:00,21.219665,81.630094,CO,24,98,62
India,Chhattisgarh,Raipur,"Krishak Nagar, Raipur - CECB",05-02-2024 04:00:00,21.237755,81.705301,NO2,17,36,27
India,Chhattisgarh,Raipur,"Siltara Phase-II, Raipur - CECB",05-02-2024 04:00:00,21.371751,81.664929,PM2.5,43,67,51
India,Chhattisgarh,Raipur,"Siltara Phase-II, Raipur - CECB",05-02-2024 04:00:00,21.371751,81.664929,NH3,2,3,3
India,Delhi,Delhi,"Alipur, Delhi - DPCC",05-02-2024 04:00:00,28.815329,77.153010,PM2.5,97,303,191
India,Delhi,Delhi,"Ashok Vihar, Delhi - DPCC",05-02-2024 04:00:00,28.695381,77.181665,PM10,106,276,147
India,Delhi,Delhi,"Ashok Vihar, Delhi - DPCC",05-02-2024 04:00:00,28.695381,77.181665,SO2,22,32,26
India,Delhi,Delhi,"Bawana, Delhi - DPCC",05-02-2024 04:00:00,28.776200,77.051074,PM2.5,193,342,301
India,Delhi,Delhi,"Bawana, Delhi - DPCC",05-02-2024 04:00:00,28.776200,77.051074,PM10,109,203,159
India,Delhi,Delhi,"Bawana, Delhi - DPCC",05-02-2024 04:00:00,28.776200,77.051074,NH3,6,12,10
India,Delhi,Delhi,"DTU, Delhi - CPCB",05-02-2024 04:00:00,28.7500499,77.1112615,NH3,14,27,17
India,Delhi,Delhi,"Dr. Karni Singh Shooting Range, Delhi - DPCC",05-02-2024 04:00:00,28.498571,77.264840,PM10,95,192,137
India,Delhi,Delhi,"Dr. Karni Singh Shooting Range, Delhi - DPCC",05-02-2024 04:00:00,28.498571,77.264840,NH3,11,12,12
India,Delhi,Delhi,"Dr. Karni Singh Shooting Range, Delhi - DPCC",05-02-2024 04:00:00,28.498571,77.264840,SO2,6,9,7
India,Delhi,Delhi,"Dr. Karni Singh Shooting Range, Delhi - DPCC",05-02-2024 04:00:00,28.498571,77.264840,OZONE,3,62,13
India,Delhi,Delhi,"Dwarka-Sector 8, Delhi - DPCC ",05-02-2024 04:00:00,28.5710274,77.0719006,PM2.5,132,346,247
India,Delhi,Delhi,"IGI Airport (T3), Delhi - IMD",05-02-2024 04:00:00,28.5627763,77.1180053,PM10,87,220,139
India,Delhi,Delhi,"IHBAS, Dilshad Garden, Delhi - CPCB",05-02-2024 04:00:00,28.6811736,77.3025234,CO,8,124,68
India,Delhi,Delhi,"ITO, Delhi - CPCB",05-02-2024 04:00:00,28.628624,77.241060,NO2,20,114,59
India,Delhi,Delhi,"Jahangirpuri, Delhi - DPCC",05-02-2024 04:00:00,28.732820,77.170633,OZONE,5,29,6
India,Delhi,Delhi,"Jawaharlal Nehru Stadium, Delhi - DPCC",05-02-2024 04:00:00,28.580280,77.233829,SO2,1,10,5
India,Delhi,Delhi,"Lodhi Road, Delhi - IITM",05-02-2024 04:00:00,28.588333,77.221667,SO2,20,36,27
India,Delhi,Delhi,"Lodhi Road, Delhi - IMD",05-02-2024 04:00:00,28.5918245,77.2273074,PM2.5,59,301,129
India,Delhi,Delhi,"Lodhi Road, Delhi - IMD",05-02-2024 04:00:00,28.5918245,77.2273074,PM10,95,203,126
India,Delhi,Delhi,"Lodhi Road, Delhi - IMD",05-02-2024 04:00:00,28.5918245,77.2273074,CO,49,98,53
India,Delhi,Delhi,"Major Dhyan Chand National Stadium, Delhi - DPCC",05-02-2024 04:00:00,28.611281,77.237738,PM10,102,245,136
India,Delhi,Delhi,"Major Dhyan Chand National Stadium, Delhi - DPCC",05-02-2024 04:00:00,28.611281,77.237738,NH3,11,14,12
India,Delhi,Delhi,"Major Dhyan Chand National Stadium, Delhi - DPCC",05-02-2024 04:00:00,28.611281,77.237738,CO,10,46,41
India,Delhi,Delhi,"Mundka, Delhi - DPCC",05-02-2024 04:00:00,28.684678,77.076574,PM2.5,197,376,309
India,Delhi,Delhi,"Mundka, Delhi - DPCC",05-02-2024 04:00:00,28.684678,77.076574,PM10,132,407,185
India,Delhi,Delhi,"Mundka, Delhi - DPCC",05-02-2024 04:00:00,28.684678,77.076574,NO2,62,144,96
India,Delhi,Delhi,"NSIT Dwarka, Delhi - CPCB",05-02-2024 04:00:00,28.60909,77.0325413,PM2.5,73,328,165
India,Delhi,Delhi,"NSIT Dwarka, Delhi - CPCB",05-02-2024 04:00:00,28.60909,77.0325413,PM10,87,227,130
India,Delhi,Delhi,"NSIT Dwarka, Delhi - CPCB",05-02-2024 04:00:00,28.60909,77.0325413,SO2,10,17,14
India,Delhi,Delhi,"NSIT Dwarka, Delhi - CPCB",05-02-2024 04:00:00,28.60909,77.0325413,CO,27,106,61
India,Delhi,Delhi,"NSIT Dwarka, Delhi - CPCB",05-02-2024 04:00:00,28.60909,77.0325413,OZONE,20,38,21
India,Delhi,Delhi,"Okhla Phase-2, Delhi - DPCC",05-02-2024 04:00:00,28.530785,77.271255,PM2.5,178,325,270
India,Delhi,Delhi,"Okhla Phase-2, Delhi - DPCC",05-02-2024 04:00:00,28.530785,77.271255,NH3,11,19,15
India,Delhi,Delhi,"Okhla Phase-2, Delhi - DPCC",05-02-2024 04:00:00,28.530785,77.271255,OZONE,10,34,13
India,Delhi,Delhi,"Patparganj, Delhi - DPCC",05-02-2024 04:00:00,28.623763,77.287209,PM2.5,81,335,171
India,Delhi,Delhi,"Patparganj, Delhi - DPCC",05-02-2024 04:00:00,28.623763,77.287209,CO,4,57,29
India,Delhi,Delhi,"Punjabi Bagh, Delhi - DPCC",05-02-2024 04:00:00,28.674045,77.131023,PM2.5,134,404,284
India,Delhi,Delhi,"Punjabi Bagh, Delhi - DPCC",05-02-2024 04:00:00,28.674045,77.131023,PM10,116,307,154
India,Delhi,Delhi,"Pusa, Delhi - DPCC",05-02-2024 04:00:00,28.639652,77.146275,CO,4,54,35
India,Delhi,Delhi,"Pusa, Delhi - IMD",05-02-2024 04:00:00,28.636110,77.173332,NO2,26,74,46
India,Delhi,Delhi,"R K Puram, Delhi - DPCC",05-02-2024 04:00:00,28.563262,77.186937,PM10,86,223,147
India,Delhi,Delhi,"R K Puram, Delhi - DPCC",05-02-2024 04:00:00,28.563262,77.186937,SO2,3,26,14
India,Delhi,Delhi,"R K Puram, Delhi - DPCC",05-02-2024 04:00:00,28.563262,77.186937,CO,22,98,41
India,Delhi,Delhi,"Rohini, Delhi - DPCC",05-02-2024 04:00:00,28.732528,77.119920,NO2,34,94,65
India,Delhi,Delhi,"Rohini, Delhi - DPCC",05-02-2024 04:00:00,28.732528,77.119920,OZONE,2,39,3
India,Delhi,Delhi,"Shadipur, Delhi - CPCB",05-02-2024 04:00:00,28.6514781,77.1473105,NH3,9,17,13
India,Delhi,Delhi,"Sirifort, Delhi - CPCB",05-02-2024 04:00:00,28.5504249,77.2159377,CO,22,108,32
India,Delhi,Delhi,"Vivek Vihar, Delhi - DPCC",05-02-2024 04:00:00,28.672342,77.315260,PM2.5,161,368,272
India,Delhi,Delhi,"Vivek Vihar, Delhi - DPCC",05-02-2024 04:00:00,28.672342,77.315260,PM10,89,278,142
India,Delhi,Delhi,"Wazirpur, Delhi - DPCC",05-02-2024 04:00:00,28.699793,77.165453,PM10,117,308,189
India,Gujarat,Ahmedabad,"Chandkheda, Ahmedabad - IITM",05-02-2024 04:00:00,23.107969,72.574648,PM10,74,171,113
India,Gujarat,Ahmedabad,"Gyaspur, Ahmedabad - IITM",05-02-2024 04:00:00,22.977134,72.553024,OZONE,10,28,15
India,Gujarat,Ahmedabad,"Maninagar, Ahmedabad - GPCB",05-02-2024 04:00:00,23.002657,72.591912,PM10,58,209,101
India,Gujarat,Ahmedabad,"Maninagar, Ahmedabad - GPCB",05-02-2024 04:00:00,23.002657,72.591912,OZONE,5,123,34
India,Gujarat,Ahmedabad,"SAC ISRO Satellite, Ahmedabad - IITM",05-02-2024 04:00:00,23.023389,72.515201,PM2.5,94,191,143
India,Gujarat,Ahmedabad,"SAC ISRO Satellite, Ahmedabad - IITM",05-02-2024 04:00:00,23.023389,72.515201,NH3,3,3,3
India,Gujarat,Ankleshwar,"GIDC, Ankleshwar - GPCB",05-02-2024 04:00:00,21.613267,73.010555,OZONE,15,32,23
India,Gujarat,Gandhinagar,"GIFT City, Gandhinagar - IITM",05-02-2024 04:00:00,23.163798,72.677768,PM10,77,170,112
India,Gujarat,Gandhinagar,"GIFT City, Gandhinagar - IITM",05-02-2024 04:00:00,23.163798,72.677768,CO,13,35,24
India,Gujarat,Gandhinagar,"IIPHG Lekawada, Gandhinagar - IITM",05-02-2024 04:00:00,23.243639,72.68994,CO,40,64,43
India,Gujarat,Gandhinagar,"IIPHG Lekawada, Gandhinagar - IITM",05-02-2024 04:00:00,23.243639,72.68994,OZONE,7,25,10
India,Gujarat,Gandhinagar,"Sector-10, Gandhinagar - GPCB",05-02-2024 04:00:00,23.221714,72.654328,NH3,2,2,2
India,Gujarat,Vapi,"Phase-1 GIDC, Vapi - GPCB",05-02-2024 04:00:00,20.362421,72.918013,PM2.5,72,349,224
India,Gujarat,Vapi,"Phase-1 GIDC, Vapi - GPCB",05-02-2024 04:00:00,20.362421,72.918013,SO2,44,45,44
India,Gujarat,Vatva,"Phase-4 GIDC, Vatva - GPCB",05-02-2024 04:00:00,22.969611,72.643500,NH3,1,2,2
India,Haryana,Dharuhera,"Municipal Corporation Office, Dharuhera -  HSPCB",05-02-2024 04:00:00,28.206800,76.799700,SO2,11,14,12
India,Haryana,Faridabad,"Sector 11, Faridabad - HSPCB",05-02-2024 04:00:00,28.376058,77.315741,SO2,8,14,9
India,Haryana,Faridabad,"Sector 11, Faridabad - HSPCB",05-02-2024 04:00:00,28.376058,77.315741,CO,30,62,35
India,Haryana,Faridabad,"Sector 11, Faridabad - HSPCB",05-02-2024 04:00:00,28.376058,77.315741,OZONE,3,12,4
India,Haryana,Faridabad,"Sector- 16A, Faridabad - HSPCB",05-02-2024 04:00:00,28.4088421,77.3099081,PM2.5,98,323,215
India,Haryana,Gurugram,"NISE Gwal Pahari, Gurugram - IMD",05-02-2024 04:00:00,28.422681,77.148944,NO2,8,32,16
India,Haryana,Gurugram,"NISE Gwal Pahari, Gurugram - IMD",05-02-2024 04:00:00,28.422681,77.148944,OZONE,1,35,9
India,Haryana,Gurugram,"Teri Gram, Gurugram - HSPCB",05-02-2024 04:00:00,28.4275,77.1465,PM2.5,148,318,242
India,Haryana,Hisar,"Urban Estate-II, Hisar - HSPCB",05-02-2024 04:00:00,29.140560,75.744941,PM10,41,79,66
India,Haryana,Hisar,"Urban Estate-II, Hisar - HSPCB",05-02-2024 04:00:00,29.140560,75.744941,NH3,2,8,4
India,Haryana,Jind,"Police Lines, Jind - HSPCB",05-02-2024 04:00:00,29.307814,76.337619,PM2.5,52,98,70
India,Haryana,Jind,"Police Lines, Jind - HSPCB",05-02-2024 04:00:00,29.307814,76.337619,PM10,37,112,68
India,Haryana,Jind,"Police Lines, Jind - HSPCB",05-02-2024 04:00:00,29.307814,76.337619,CO,2,159,56
India,Haryana,Karnal,"Sector-12, Karnal - HSPCB",05-02-2024 04:00:00,29.695300,77.002700,NH3,10,13,11
India,Haryana,Karnal,"Sector-12, Karnal - HSPCB",05-02-2024 04:00:00,29.695300,77.002700,SO2,12,13,13
India,Haryana,Kurukshetra,"Sector-7, Kurukshetra - HSPCB",05-02-2024 04:00:00,29.966942,76.875879,NO2,10,11,10
India,Haryana,Kurukshetra,"Sector-7, Kurukshetra - HSPCB",05-02-2024 04:00:00,29.966942,76.875879,CO,15,40,29
India,Haryana,Narnaul,"Shastri Nagar, Narnaul - HSPCB",05-02-2024 04:00:00,28.060249,76.113115,CO,6,28,10
India,Haryana,Narnaul,"Shastri Nagar, Narnaul - HSPCB",05-02-2024 04:00:00,28.060249,76.113115,OZONE,3,64,50
India,Haryana,Panchkula,"Sector-6, Panchkula - HSPCB ",05-02-2024 04:00:00,30.7057778,76.8531805555555,SO2,11,12,12
India,Haryana,Panipat,"Sector-18, Panipat - HSPCB",05-02-2024 04:00:00,29.497973,76.993331,PM2.5,129,136,133
India,Haryana,Panipat,"Sector-18, Panipat - HSPCB",05-02-2024 04:00:00,29.497973,76.993331,OZONE,30,33,31
India,Haryana,Rohtak,"MD University, Rohtak - HSPCB",05-02-2024 04:00:00,28.52123,76.37138,CO,1,62,34
India,Haryana,Rohtak,"MD University, Rohtak - HSPCB",05-02-2024 04:00:00,28.52123,76.37138,OZONE,44,55,48
India,Haryana,Sirsa,"F-Block, Sirsa - HSPCB",05-02-2024 04:00:00,29.536400,75.015800,CO,72,88,81
India,Haryana,Sirsa,"F-Block, Sirsa - HSPCB",05-02-2024 04:00:00,29.536400,75.015800,OZONE,17,33,23
India,Haryana,Sonipat,"Murthal, Sonipat - HSPCB",05-02-2024 04:00:00,29.027200,77.062100,NH3,7,10,9
India,Haryana,Yamuna Nagar,"Gobind Pura, Yamuna Nagar - HSPCB",05-02-2024 04:00:00,30.1480566,77.2893471,PM2.5,1,355,93
India,Haryana,Yamuna Nagar,"Gobind Pura, Yamuna Nagar - HSPCB",05-02-2024 04:00:00,30.1480566,77.2893471,NO2,3,5,5
India,Jharkhand,Dhanbad,"Kalakusuma, Dhanbad - DMC",05-02-2024 04:00:00,23.811548,86.481238,NO2,NA,NA,NA
India,Karnataka,Bagalkot,"Vidayagiri, Bagalkot - KSPCB",05-02-2024 04:00:00,16.172806,75.659694,PM2.5,16,30,29
India,Karnataka,Bagalkot,"Vidayagiri, Bagalkot - KSPCB",05-02-2024 04:00:00,16.172806,75.659694,NO2,10,11,10
India,Karnataka,Bagalkot,"Vidayagiri, Bagalkot - KSPCB",05-02-2024 04:00:00,16.172806,75.659694,SO2,NA,NA,NA
India,Karnataka,Bagalkot,"Vidayagiri, Bagalkot - KSPCB",05-02-2024 04:00:00,16.172806,75.659694,CO,20,54,42
India,Karnataka,Bagalkot,"Vidayagiri, Bagalkot - KSPCB",05-02-2024 04:00:00,16.172806,75.659694,OZONE,NA,NA,NA
India,Karnataka,Belgaum,"Ramteerth Nagar, Belgaum - KSPCB",05-02-2024 04:00:00,15.888653,74.541751,PM10,55,105,71
India,Karnataka,Bengaluru,"BTM Layout, Bengaluru - CPCB",05-02-2024 04:00:00,12.9135218,77.5950804,CO,NA,NA,NA
India,Karnataka,Bengaluru,"BTM Layout, Bengaluru - CPCB",05-02-2024 04:00:00,12.9135218,77.5950804,OZONE,NA,NA,NA
India,Karnataka,Bengaluru,"City Railway Station, Bengaluru - KSPCB",05-02-2024 04:00:00,12.9756843,77.5660749,PM10,NA,NA,NA
India,Karnataka,Bengaluru,"City Railway Station, Bengaluru - KSPCB",05-02-2024 04:00:00,12.9756843,77.5660749,SO2,NA,NA,NA
India,Karnataka,Bengaluru,"Hombegowda Nagar, Bengaluru - KSPCB",05-02-2024 04:00:00,12.938539,77.590100,PM10,60,102,82
India,Karnataka,Bengaluru,"Jigani, Bengaluru - KSPCB",05-02-2024 04:00:00,12.7816279,77.6299145,NH3,3,3,3
India,Karnataka,Bengaluru,"Jigani, Bengaluru - KSPCB",05-02-2024 04:00:00,12.7816279,77.6299145,SO2,11,11,11
India,Karnataka,Bengaluru,"Sanegurava Halli, Bengaluru - KSPCB",05-02-2024 04:00:00,12.990328,77.5431385,PM10,NA,NA,NA
India,Karnataka,Bengaluru,"Sanegurava Halli, Bengaluru - KSPCB",05-02-2024 04:00:00,12.990328,77.5431385,SO2,NA,NA,NA
India,Karnataka,Bengaluru,"Silk Board, Bengaluru - KSPCB",05-02-2024 04:00:00,12.917348,77.622813,PM2.5,45,90,62
India,Karnataka,Bengaluru,"Silk Board, Bengaluru - KSPCB",05-02-2024 04:00:00,12.917348,77.622813,NO2,20,26,23
India,Karnataka,Bengaluru,"Silk Board, Bengaluru - KSPCB",05-02-2024 04:00:00,12.917348,77.622813,CO,32,40,37
India,Karnataka,Bidar,"Naubad, Bidar - KSPCB",05-02-2024 04:00:00,17.930306,77.482194,OZONE,52,52,52
India,Karnataka,Chamarajanagar,"Urban, Chamarajanagar - KSPCB",05-02-2024 04:00:00,11.55358,76.55521,PM2.5,20,46,32
India,Karnataka,Chamarajanagar,"Urban, Chamarajanagar - KSPCB",05-02-2024 04:00:00,11.55358,76.55521,CO,20,24,20
India,Karnataka,Chikkaballapur,"Chikkaballapur Rural, Chikkaballapur - KSPCB",05-02-2024 04:00:00,13.428828,77.731418,PM2.5,NA,NA,NA
India,Karnataka,Chikkamagaluru,"Kalyana Nagara, Chikkamagaluru - KSPCB",05-02-2024 04:00:00,13.328028,75.797056,NO2,3,30,18
India,Karnataka,Chikkamagaluru,"Kalyana Nagara, Chikkamagaluru - KSPCB",05-02-2024 04:00:00,13.328028,75.797056,SO2,2,24,5
India,Karnataka,Chikkamagaluru,"Kalyana Nagara, Chikkamagaluru - KSPCB",05-02-2024 04:00:00,13.328028,75.797056,CO,3,116,26
India,Karnataka,Davanagere,"Devaraj Urs Badavane, Davanagere - KSPCB",05-02-2024 04:00:00,14.475800,75.905200,PM10,48,93,69
India,Karnataka,Davanagere,"Devaraj Urs Badavane, Davanagere - KSPCB",05-02-2024 04:00:00,14.475800,75.905200,SO2,1,7,4
India,Karnataka,Dharwad,"Kalabhavan, Dharwad - KSPCB",05-02-2024 04:00:00,15.459706,75.008381,SO2,3,9,6
India,Karnataka,Kalaburagi,"Mahatma Basaveswar Colony, Kalaburgi - KSPCB",05-02-2024 04:00:00,17.336318,76.847397,NH3,2,3,3
India,Karnataka,Karwar,"KHB Colony, Karwar - KSPCB",05-02-2024 04:00:00,14.816666,74.141003,NO2,4,11,6
India,Karnataka,Karwar,"KHB Colony, Karwar - KSPCB",05-02-2024 04:00:00,14.816666,74.141003,OZONE,21,22,21
India,Karnataka,Madikeri,"Stuart Hill, Madikeri - KSPCB",05-02-2024 04:00:00,12.415911,75.735050,PM2.5,39,67,51
India,Karnataka,Mangalore,"Kadri, Mangalore - KSPCB",05-02-2024 04:00:00,12.889250,74.853000,NH3,3,3,3
India,Karnataka,Mangalore,"Kadri, Mangalore - KSPCB",05-02-2024 04:00:00,12.889250,74.853000,OZONE,30,31,31
India,Karnataka,Mysuru,"Hebbal 1st Stage, Mysuru - KSPCB",05-02-2024 04:00:00,12.21041,76.37376,PM10,53,73,64
India,Karnataka,Raichur,"Haji Colony, Raichur - KSPCB",05-02-2024 04:00:00,16.208139,77.348417,NO2,NA,NA,NA
India,Karnataka,Raichur,"Haji Colony, Raichur - KSPCB",05-02-2024 04:00:00,16.208139,77.348417,NH3,NA,NA,NA
India,Karnataka,Udupi,"Brahmagiri, Udupi - KSPCB",05-02-2024 04:00:00,13.34194444,74.74694444,CO,40,49,44
India,Karnataka,Vijayapura,"Ibrahimpur, Vijayapura - KSPCB",05-02-2024 04:00:00,16.802639,75.722694,PM10,38,40,39
India,Karnataka,Vijayapura,"Ibrahimpur, Vijayapura - KSPCB",05-02-2024 04:00:00,16.802639,75.722694,NO2,17,19,19
India,Karnataka,Vijayapura,"Ibrahimpur, Vijayapura - KSPCB",05-02-2024 04:00:00,16.802639,75.722694,OZONE,13,16,15
India,Karnataka,Yadgir,"Collector Office, Yadgir - KSPCB",05-02-2024 04:00:00,16.7602,77.1428,PM2.5,NA,NA,NA
