country,state,city,station,last_update,latitude,longitude,pollutant_id,pollutant_min,pollutant_max,pollutant_avg
India,Andhra_Pradesh,Amaravati,"Secretariat, Amaravati - APPCB",29-04-2024 06:00:00,16.5150833,80.5181667,PM10,20,60,38
India,Andhra_Pradesh,Amaravati,"Secretariat, Amaravati - APPCB",29-04-2024 06:00:00,16.5150833,80.5181667,NO2,4,8,6
India,Andhra_Pradesh,Kadapa,"Yerramukkapalli, Kadapa - APPCB",29-04-2024 06:00:00,14.465052,78.824187,NO2,NA,NA,NA
India,Andhra_Pradesh,Tirupati,"Tirumala, Tirupati - APPCB",29-04-2024 06:00:00,13.67,79.35,PM10,13,102,50
India,Andhra_Pradesh,Tirupati,"Tirumala, Tirupati - APPCB",29-04-2024 06:00:00,13.67,79.35,NO2,12,35,25
India,Andhra_Pradesh,Tirupati,"Tirumala, Tirupati - APPCB",29-04-2024 06:00:00,13.67,79.35,OZONE,16,79,20
India,Andhra_Pradesh,Vijayawada,"Kanuru, Vijayawada - APPCB",29-04-2024 06:00:00,16.486692,80.699436,PM2.5,NA,NA,NA
India,Andhra_Pradesh,Vijayawada,"Kanuru, Vijayawada - APPCB",29-04-2024 06:00:00,16.486692,80.699436,PM10,NA,NA,NA
India,Andhra_Pradesh,Vijayawada,"Kanuru, Vijayawada - APPCB",29-04-2024 06:00:00,16.486692,80.699436,CO,NA,NA,NA
India,Andhra_Pradesh,Vijayawada,"Rajiv Nagar, Vijayawada - APPCB",29-04-2024 06:00:00,16.554731,80.649110,PM2.5,43,47,44
India,Assam,Byrnihat,"Central Academy for SFS, Byrnihat - PCBA",29-04-2024 06:00:00,26.071318,91.87488,NH3,6,11,10
India,Assam,Guwahati,"IITG, Guwahati - PCBA",29-04-2024 06:00:00,26.2028636,91.70046436,SO2,11,13,12
India,Assam,Guwahati,"IITG, Guwahati - PCBA",29-04-2024 06:00:00,26.2028636,91.70046436,CO,9,12,10
India,Assam,Guwahati,"LGBI Airport, Guwahati - PCBA",29-04-2024 06:00:00,26.10887,91.589544,NO2,29,75,52
India,Assam,Guwahati,"LGBI Airport, Guwahati - PCBA",29-04-2024 06:00:00,26.10887,91.589544,NH3,3,6,4
India,Assam,Guwahati,"LGBI Airport, Guwahati - PCBA",29-04-2024 06:00:00,26.10887,91.589544,OZONE,4,18,13
India,Assam,Guwahati,"Pan Bazaar, Guwahati - PCBA",29-04-2024 06:00:00,26.187500,91.744194,PM2.5,14,62,38
India,Assam,Guwahati,"Pan Bazaar, Guwahati - PCBA",29-04-2024 06:00:00,26.187500,91.744194,PM10,17,196,65
India,Assam,Guwahati,"Pan Bazaar, Guwahati - PCBA",29-04-2024 06:00:00,26.187500,91.744194,NO2,NA,NA,NA
India,Assam,Guwahati,"Pan Bazaar, Guwahati - PCBA",29-04-2024 06:00:00,26.187500,91.744194,OZONE,17,17,17
India,Assam,Nagaon,"Christianpatty, Nagaon - PCBA",29-04-2024 06:00:00,26.349082,92.68449,PM2.5,55,87,67
India,Assam,Nagaon,"Christianpatty, Nagaon - PCBA",29-04-2024 06:00:00,26.349082,92.68449,NO2,1,10,4
India,Assam,Nagaon,"Christianpatty, Nagaon - PCBA",29-04-2024 06:00:00,26.349082,92.68449,OZONE,8,82,52
India,Assam,Nalbari,"Bata Chowk, Nalbari - PCBA",29-04-2024 06:00:00,26.446912,91.439057,NH3,NA,NA,NA
India,Assam,Nalbari,"Bata Chowk, Nalbari - PCBA",29-04-2024 06:00:00,26.446912,91.439057,CO,46,94,78
India,Assam,Silchar,"Tarapur, Silchar - PCBA",29-04-2024 06:00:00,24.82827,92.79525,PM2.5,NA,NA,NA
India,Assam,Silchar,"Tarapur, Silchar - PCBA",29-04-2024 06:00:00,24.82827,92.79525,NO2,NA,NA,NA
India,Assam,Silchar,"Tarapur, Silchar - PCBA",29-04-2024 06:00:00,24.82827,92.79525,NH3,NA,NA,NA
India,Assam,Sivasagar,"Girls College, Sivasagar - PCBA",29-04-2024 06:00:00,26.987634,94.636574,CO,12,20,15
India,Assam,Sivasagar,"Girls College, Sivasagar - PCBA",29-04-2024 06:00:00,26.987634,94.636574,OZONE,1,14,3
India,Bihar,Araria,"Kharahiya Basti, Araria - BSPCB",29-04-2024 06:00:00,26.146529,87.454184,PM10,NA,NA,NA
India,Bihar,Aurangabad,"Gurdeo Nagar, Aurangabad - BSPCB",29-04-2024 06:00:00,24.75746,84.366208,NO2,4,9,5
India,Bihar,Aurangabad,"Gurdeo Nagar, Aurangabad - BSPCB",29-04-2024 06:00:00,24.75746,84.366208,NH3,9,46,19
India,Bihar,Aurangabad,"Gurdeo Nagar, Aurangabad - BSPCB",29-04-2024 06:00:00,24.75746,84.366208,SO2,NA,NA,NA
India,Bihar,Bettiah,"Kamalnath Nagar, Bettiah - BSPCB",29-04-2024 06:00:00,26.80365,84.51954,CO,62,64,63
India,Bihar,Bhagalpur,"DM Office_Kachari Chowk, Bhagalpur - BSPCB",29-04-2024 06:00:00,25.251013,86.989001,CO,32,68,49
India,Bihar,Bhagalpur,"Mayaganj, Bhagalpur - BSPCB",29-04-2024 06:00:00,25.265194,87.012947,NH3,8,10,9
India,Bihar,Bhagalpur,"Mayaganj, Bhagalpur - BSPCB",29-04-2024 06:00:00,25.265194,87.012947,SO2,11,12,12
India,Bihar,Bhagalpur,"Mayaganj, Bhagalpur - BSPCB",29-04-2024 06:00:00,25.265194,87.012947,OZONE,14,109,46
India,Bihar,Chhapra,"Darshan Nagar, Chhapra - BSPCB",29-04-2024 06:00:00,25.7808257,84.7446768,OZONE,1,3,1
India,Bihar,Gaya,"Kareemganj, Gaya - BSPCB",29-04-2024 06:00:00,24.792403,84.992416,PM10,19,84,56
India,Bihar,Gaya,"Kareemganj, Gaya - BSPCB",29-04-2024 06:00:00,24.792403,84.992416,NH3,2,6,4
India,Bihar,Gaya,"Kareemganj, Gaya - BSPCB",29-04-2024 06:00:00,24.792403,84.992416,SO2,3,12,9
India,Bihar,Gaya,"SFTI Kusdihra, Gaya - BSPCB",29-04-2024 06:00:00,24.762518,84.982348,SO2,8,11,9
India,Bihar,Katihar,"Mirchaibari, Katihar - BSPCB",29-04-2024 06:00:00,25.560083,87.553265,NO2,20,31,25
India,Bihar,Katihar,"Mirchaibari, Katihar - BSPCB",29-04-2024 06:00:00,25.560083,87.553265,OZONE,11,19,12
India,Bihar,Manguraha,"Forest Rest House, Manguraha - BSPCB",29-04-2024 06:00:00,27.308328,84.531742,PM10,NA,NA,NA
India,Bihar,Manguraha,"Forest Rest House, Manguraha - BSPCB",29-04-2024 06:00:00,27.308328,84.531742,CO,NA,NA,NA
India,Bihar,Motihari,"Gandak Colony, Motihari - BSPCB",29-04-2024 06:00:00,26.63086,84.90051,SO2,6,17,10
India,Bihar,Munger,"Town Hall, Munger - BSPCB",29-04-2024 06:00:00,25.376776,86.471523,SO2,NA,NA,NA
India,Bihar,Munger,"Town Hall, Munger - BSPCB",29-04-2024 06:00:00,25.376776,86.471523,CO,NA,NA,NA
India,Bihar,Muzaffarpur,"Buddha Colony, Muzaffarpur - BSPCB",29-04-2024 06:00:00,26.11442,85.39813,OZONE,15,38,20
India,Bihar,Muzaffarpur,"MIT-Daudpur Kothi, Muzaffarpur - BSPCB",29-04-2024 06:00:00,26.1403345,85.3650192,PM2.5,70,309,131
India,Bihar,Muzaffarpur,"MIT-Daudpur Kothi, Muzaffarpur - BSPCB",29-04-2024 06:00:00,26.1403345,85.3650192,CO,12,104,46
India,Bihar,Muzaffarpur,"Muzaffarpur Collectorate, Muzaffarpur - BSPCB",29-04-2024 06:00:00,26.1209,85.3647,SO2,6,8,6
India,Bihar,Patna,"DRM Office Danapur, Patna - BSPCB",29-04-2024 06:00:00,25.586562,85.043586,NO2,5,71,32
India,Bihar,Patna,"DRM Office Danapur, Patna - BSPCB",29-04-2024 06:00:00,25.586562,85.043586,CO,10,54,41
India,Bihar,Patna,"Muradpur, Patna - BSPCB",29-04-2024 06:00:00,25.619651,85.147382,PM10,214,321,261
India,Bihar,Patna,"Rajbansi Nagar, Patna - BSPCB",29-04-2024 06:00:00,25.599486,85.113666,SO2,6,23,15
India,Bihar,Patna,"Rajbansi Nagar, Patna - BSPCB",29-04-2024 06:00:00,25.599486,85.113666,OZONE,17,96,28
India,Bihar,Patna,"Samanpura, Patna - BSPCB",29-04-2024 06:00:00,25.596727,85.085624,CO,30,107,87
India,Bihar,Rajgir,"Dangi Tola, Rajgir - BSPCB",29-04-2024 06:00:00,25.03280,85.41948,PM2.5,NA,NA,NA
India,Bihar,Rajgir,"Dangi Tola, Rajgir - BSPCB",29-04-2024 06:00:00,25.03280,85.41948,SO2,2,5,4
India,Bihar,Saharsa,"Police Line, Saharsa - BSPCB",29-04-2024 06:00:00,25.892357,86.590325,NH3,9,10,9
India,Bihar,Saharsa,"Police Line, Saharsa - BSPCB",29-04-2024 06:00:00,25.892357,86.590325,OZONE,20,51,24
India,Bihar,Samastipur,"DM Office_Kasipur, Samastipur - BSPCB",29-04-2024 06:00:00,25.859655,85.77944,SO2,10,54,19
India,Bihar,Samastipur,"DM Office_Kasipur, Samastipur - BSPCB",29-04-2024 06:00:00,25.859655,85.77944,OZONE,15,46,26
India,Bihar,Sasaram,"Dada Peer, Sasaram - BSPCB",29-04-2024 06:00:00,24.952822,84.002396,PM2.5,14,60,34
India,Bihar,Siwan,"Chitragupta Nagar, Siwan - BSPCB",29-04-2024 06:00:00,26.2271665,84.3570427,NO2,9,38,20
India,Chandigarh,Chandigarh,"Sector 22, Chandigarh - CPCC",29-04-2024 06:00:00,30.735567,76.775714,OZONE,17,161,67
India,Chandigarh,Chandigarh,"Sector-25, Chandigarh - CPCC",29-04-2024 06:00:00,30.751462,76.762879,PM10,85,433,149
India,Chandigarh,Chandigarh,"Sector-25, Chandigarh - CPCC",29-04-2024 06:00:00,30.751462,76.762879,NO2,2,41,15
India,Chandigarh,Chandigarh,"Sector-25, Chandigarh - CPCC",29-04-2024 06:00:00,30.751462,76.762879,SO2,8,21,12
India,Chandigarh,Chandigarh,"Sector-53, Chandigarh - CPCC",29-04-2024 06:00:00,30.719859,76.738637,OZONE,11,61,25
India,Chhattisgarh,Bhilai,"Civic Center, Bhilai - Bhilai Steel Plant",29-04-2024 06:00:00,21.185571,81.343175,PM2.5,20,47,35
India,Chhattisgarh,Bhilai,"Hathkhoj, Bhilai - CECB",29-04-2024 06:00:00,21.224231,81.408350,CO,14,106,59
India,Chhattisgarh,Chhal,"Nawapara SECL Colony, Chhal - CECB",29-04-2024 06:00:00,22.118125,83.140608,SO2,1,23,10
India,Chhattisgarh,Chhal,"Nawapara SECL Colony, Chhal - CECB",29-04-2024 06:00:00,22.118125,83.140608,CO,20,56,26
India,Chhattisgarh,Milupara,"Govt. Higher Secondary School, Milupara - CECB",29-04-2024 06:00:00,22.1910172,83.5197009,PM10,NA,NA,NA
India,Chhattisgarh,Raipur,"AIIMS, Raipur - CECB",29-04-2024 06:00:00,21.258815,81.578979,NH3,6,6,6
India,Chhattisgarh,Raipur,"Bhatagaon New ISBT, Raipur - CECB",29-04-2024 06:00:00,21.219665,81.630094,NH3,2,2,2
India,Chhattisgarh,Raipur,"Krishak Nagar, Raipur - CECB",29-04-2024 06:00:00,21.237755,81.705301,NH3,NA,NA,NA
India,Chhattisgarh,Raipur,"Krishak Nagar, Raipur - CECB",29-04-2024 06:00:00,21.237755,81.705301,SO2,12,50,22
India,Chhattisgarh,Raipur,"Siltara Phase-II, Raipur - CECB",29-04-2024 06:00:00,21.371751,81.664929,PM2.5,34,233,93
India,Chhattisgarh,Raipur,"Siltara Phase-II, Raipur - CECB",29-04-2024 06:00:00,21.371751,81.664929,NH3,3,3,3
India,Delhi,Delhi,"Alipur, Delhi - DPCC",29-04-2024 06:00:00,28.815329,77.153010,CO,36,71,63
India,Delhi,Delhi,"Anand Vihar, Delhi - DPCC",29-04-2024 06:00:00,28.647622,77.3158090,PM2.5,NA,NA,NA
India,Delhi,Delhi,"Anand Vihar, Delhi - DPCC",29-04-2024 06:00:00,28.647622,77.3158090,NH3,NA,NA,NA
India,Delhi,Delhi,"Anand Vihar, Delhi - DPCC",29-04-2024 06:00:00,28.647622,77.3158090,CO,30,101,80
India,Delhi,Delhi,"Burari Crossing, Delhi - IMD",29-04-2024 06:00:00,28.7256504,77.2011573,PM2.5,68,327,184
India,Delhi,Delhi,"CRRI Mathura Road, Delhi - IMD",29-04-2024 06:00:00,28.5512005,77.2735737,PM10,114,347,193
India,Delhi,Delhi,"DTU, Delhi - CPCB",29-04-2024 06:00:00,28.7500499,77.1112615,NO2,3,12,7
India,Delhi,Delhi,"DTU, Delhi - CPCB",29-04-2024 06:00:00,28.7500499,77.1112615,NH3,11,14,13
India,Delhi,Delhi,"DTU, Delhi - CPCB",29-04-2024 06:00:00,28.7500499,77.1112615,SO2,34,41,37
India,Delhi,Delhi,"Dr. Karni Singh Shooting Range, Delhi - DPCC",29-04-2024 06:00:00,28.498571,77.264840,CO,26,101,78
India,Delhi,Delhi,"Dwarka-Sector 8, Delhi - DPCC ",29-04-2024 06:00:00,28.5710274,77.0719006,PM10,136,366,199
India,Delhi,Delhi,"Dwarka-Sector 8, Delhi - DPCC ",29-04-2024 06:00:00,28.5710274,77.0719006,NH3,3,4,3
India,Delhi,Delhi,"IGI Airport (T3), Delhi - IMD",29-04-2024 06:00:00,28.5627763,77.1180053,PM2.5,46,229,114
India,Delhi,Delhi,"IGI Airport (T3), Delhi - IMD",29-04-2024 06:00:00,28.5627763,77.1180053,OZONE,6,60,9
India,Delhi,Delhi,"IHBAS, Dilshad Garden, Delhi - CPCB",29-04-2024 06:00:00,28.6811736,77.3025234,PM2.5,69,209,102
India,Delhi,Delhi,"IHBAS, Dilshad Garden, Delhi - CPCB",29-04-2024 06:00:00,28.6811736,77.3025234,PM10,108,175,141
India,Delhi,Delhi,"ITO, Delhi - CPCB",29-04-2024 06:00:00,28.628624,77.241060,PM2.5,46,267,132
India,Delhi,Delhi,"Jahangirpuri, Delhi - DPCC",29-04-2024 06:00:00,28.732820,77.170633,OZONE,5,89,14
India,Delhi,Delhi,"Jawaharlal Nehru Stadium, Delhi - DPCC",29-04-2024 06:00:00,28.580280,77.233829,PM10,107,172,131
India,Delhi,Delhi,"Lodhi Road, Delhi - IITM",29-04-2024 06:00:00,28.588333,77.221667,CO,58,67,66
India,Delhi,Delhi,"Lodhi Road, Delhi - IMD",29-04-2024 06:00:00,28.5918245,77.2273074,PM10,101,168,133
India,Delhi,Delhi,"Lodhi Road, Delhi - IMD",29-04-2024 06:00:00,28.5918245,77.2273074,CO,10,36,34
India,Delhi,Delhi,"Lodhi Road, Delhi - IMD",29-04-2024 06:00:00,28.5918245,77.2273074,OZONE,6,59,10
India,Delhi,Delhi,"Mandir Marg, Delhi - DPCC",29-04-2024 06:00:00,28.636429,77.201067,PM2.5,30,216,100
India,Delhi,Delhi,"Mandir Marg, Delhi - DPCC",29-04-2024 06:00:00,28.636429,77.201067,NO2,90,113,102
India,Delhi,Delhi,"Mundka, Delhi - DPCC",29-04-2024 06:00:00,28.684678,77.076574,PM2.5,40,387,178
India,Delhi,Delhi,"NSIT Dwarka, Delhi - CPCB",29-04-2024 06:00:00,28.60909,77.0325413,PM10,157,328,225
India,Delhi,Delhi,"NSIT Dwarka, Delhi - CPCB",29-04-2024 06:00:00,28.60909,77.0325413,NH3,9,13,11
India,Delhi,Delhi,"Najafgarh, Delhi - DPCC",29-04-2024 06:00:00,28.570173,76.933762,NO2,21,150,70
India,Delhi,Delhi,"Narela, Delhi - DPCC",29-04-2024 06:00:00,28.822836,77.101981,CO,29,74,59
India,Delhi,Delhi,"New Moti Bagh, Delhi - MHUA",29-04-2024 06:00:00,28.57834,77.18400,PM2.5,32,313,144
India,Delhi,Delhi,"Patparganj, Delhi - DPCC",29-04-2024 06:00:00,28.623763,77.287209,NO2,27,67,41
India,Delhi,Delhi,"Patparganj, Delhi - DPCC",29-04-2024 06:00:00,28.623763,77.287209,NH3,6,10,8
India,Delhi,Delhi,"Punjabi Bagh, Delhi - DPCC",29-04-2024 06:00:00,28.674045,77.131023,PM2.5,53,308,165
India,Delhi,Delhi,"Pusa, Delhi - DPCC",29-04-2024 06:00:00,28.639652,77.146275,NO2,50,132,94
India,Delhi,Delhi,"Rohini, Delhi - DPCC",29-04-2024 06:00:00,28.732528,77.119920,PM10,113,439,207
India,Delhi,Delhi,"Rohini, Delhi - DPCC",29-04-2024 06:00:00,28.732528,77.119920,NO2,10,107,49
India,Delhi,Delhi,"Rohini, Delhi - DPCC",29-04-2024 06:00:00,28.732528,77.119920,OZONE,4,154,27
India,Delhi,Delhi,"Shadipur, Delhi - CPCB",29-04-2024 06:00:00,28.6514781,77.1473105,SO2,9,36,21
India,Delhi,Delhi,"Sonia Vihar, Delhi - DPCC",29-04-2024 06:00:00,28.710508,77.249485,NO2,NA,NA,NA
India,Delhi,Delhi,"Sonia Vihar, Delhi - DPCC",29-04-2024 06:00:00,28.710508,77.249485,NH3,NA,NA,NA
India,Delhi,Delhi,"Sri Aurobindo Marg, Delhi - DPCC",29-04-2024 06:00:00,28.531346,77.190156,PM2.5,47,197,90
India,Delhi,Delhi,"Vivek Vihar, Delhi - DPCC",29-04-2024 06:00:00,28.672342,77.315260,NH3,15,16,16
India,Delhi,Delhi,"Wazirpur, Delhi - DPCC",29-04-2024 06:00:00,28.699793,77.165453,NO2,6,48,24
India,Gujarat,Ahmedabad,"Chandkheda, Ahmedabad - IITM",29-04-2024 06:00:00,23.107969,72.574648,PM2.5,60,338,130
India,Gujarat,Ahmedabad,"Chandkheda, Ahmedabad - IITM",29-04-2024 06:00:00,23.107969,72.574648,NO2,15,29,23
India,Gujarat,Ahmedabad,"Gyaspur, Ahmedabad - IITM",29-04-2024 06:00:00,22.977134,72.553024,PM10,76,136,107
India,Gujarat,Ahmedabad,"Gyaspur, Ahmedabad - IITM",29-04-2024 06:00:00,22.977134,72.553024,NH3,2,19,9
India,Gujarat,Ahmedabad,"Gyaspur, Ahmedabad - IITM",29-04-2024 06:00:00,22.977134,72.553024,SO2,7,21,12
India,Gujarat,Ahmedabad,"Maninagar, Ahmedabad - GPCB",29-04-2024 06:00:00,23.002657,72.591912,OZONE,9,50,22
India,Gujarat,Ahmedabad,"Raikhad, Ahmedabad - IITM",29-04-2024 06:00:00,23.020509,72.579261,NO2,43,50,46
India,Gujarat,Ahmedabad,"Raikhad, Ahmedabad - IITM",29-04-2024 06:00:00,23.020509,72.579261,NH3,5,5,5
India,Gujarat,Ahmedabad,"Rakhial, Ahmedabad - IITM",29-04-2024 06:00:00,23.016834,72.625775,SO2,3,30,13
India,Gujarat,Ahmedabad,"Rakhial, Ahmedabad - IITM",29-04-2024 06:00:00,23.016834,72.625775,OZONE,6,40,10
India,Gujarat,Ahmedabad,"SAC ISRO Satellite, Ahmedabad - IITM",29-04-2024 06:00:00,23.023389,72.515201,SO2,2,15,6
India,Gujarat,Ahmedabad,"SAC ISRO Satellite, Ahmedabad - IITM",29-04-2024 06:00:00,23.023389,72.515201,OZONE,14,63,25
India,Gujarat,Ahmedabad,"SVPI Airport Hansol, Ahmedabad - IITM",29-04-2024 06:00:00,23.076793,72.627874,PM2.5,82,301,150
India,Gujarat,Ahmedabad,"SVPI Airport Hansol, Ahmedabad - IITM",29-04-2024 06:00:00,23.076793,72.627874,NO2,18,27,22
India,Gujarat,Ahmedabad,"Sardar Vallabhbhai Patel Stadium, Ahmedabad - IITM",29-04-2024 06:00:00,23.043070,72.562968,NO2,16,37,26
India,Gujarat,Gandhinagar,"Sector-10, Gandhinagar - GPCB",29-04-2024 06:00:00,23.221714,72.654328,PM2.5,25,73,44
India,Gujarat,Gandhinagar,"Sector-10, Gandhinagar - GPCB",29-04-2024 06:00:00,23.221714,72.654328,SO2,5,6,6
India,Gujarat,Nandesari,"GIDC, Nandesari - Nandesari Ind. Association",29-04-2024 06:00:00,22.410802,73.097923,SO2,NA,NA,NA
India,Gujarat,Vapi,"Phase-1 GIDC, Vapi - GPCB",29-04-2024 06:00:00,20.362421,72.918013,OZONE,57,77,70
India,Haryana,Ambala,"Patti Mehar, Ambala - HSPCB",29-04-2024 06:00:00,30.379589,76.778328,PM2.5,35,77,58
India,Haryana,Bahadurgarh,"Arya Nagar, Bahadurgarh - HSPCB",29-04-2024 06:00:00,28.6701,76.9254,SO2,14,110,31
India,Haryana,Bahadurgarh,"Arya Nagar, Bahadurgarh - HSPCB",29-04-2024 06:00:00,28.6701,76.9254,CO,87,102,99
India,Haryana,Bahadurgarh,"Arya Nagar, Bahadurgarh - HSPCB",29-04-2024 06:00:00,28.6701,76.9254,OZONE,32,42,38
India,Haryana,Ballabgarh,"Nathu Colony, Ballabgarh - HSPCB",29-04-2024 06:00:00,28.3419248,77.319699,PM10,120,202,159
India,Haryana,Charkhi Dadri,"Mini Secretariat, Charkhi Dadri - HSPCB",29-04-2024 06:00:00,28.593883,76.270653,OZONE,13,18,15
India,Haryana,Dharuhera,"Municipal Corporation Office, Dharuhera -  HSPCB",29-04-2024 06:00:00,28.206800,76.799700,PM2.5,56,284,171
India,Haryana,Dharuhera,"Municipal Corporation Office, Dharuhera -  HSPCB",29-04-2024 06:00:00,28.206800,76.799700,NO2,45,101,63
India,Haryana,Dharuhera,"Municipal Corporation Office, Dharuhera -  HSPCB",29-04-2024 06:00:00,28.206800,76.799700,CO,8,52,45
India,Haryana,Faridabad,"New Industrial Town, Faridabad - HSPCB",29-04-2024 06:00:00,28.39072,77.30059,PM10,132,264,180
India,Haryana,Faridabad,"Sector 11, Faridabad - HSPCB",29-04-2024 06:00:00,28.376058,77.315741,PM2.5,187,384,284
India,Haryana,Faridabad,"Sector 11, Faridabad - HSPCB",29-04-2024 06:00:00,28.376058,77.315741,PM10,170,452,239
India,Haryana,Faridabad,"Sector 30, Faridabad - HSPCB",29-04-2024 06:00:00,28.4417,77.3217,PM2.5,90,101,96
India,Haryana,Faridabad,"Sector 30, Faridabad - HSPCB",29-04-2024 06:00:00,28.4417,77.3217,NO2,29,32,31
India,Haryana,Faridabad,"Sector 30, Faridabad - HSPCB",29-04-2024 06:00:00,28.4417,77.3217,NH3,9,9,9
India,Haryana,Faridabad,"Sector 30, Faridabad - HSPCB",29-04-2024 06:00:00,28.4417,77.3217,OZONE,10,10,10
India,Haryana,Faridabad,"Sector- 16A, Faridabad - HSPCB",29-04-2024 06:00:00,28.4088421,77.3099081,PM2.5,43,203,105
India,Haryana,Fatehabad,"Huda Sector, Fatehabad - HSPCB",29-04-2024 06:00:00,29.503664,75.467934,CO,5,14,8
India,Haryana,Gurugram,"Sector-51, Gurugram - HSPCB",29-04-2024 06:00:00,28.4227,77.0667,NO2,13,29,23
India,Haryana,Gurugram,"Teri Gram, Gurugram - HSPCB",29-04-2024 06:00:00,28.4275,77.1465,PM10,NA,NA,NA
India,Haryana,Gurugram,"Vikas Sadan, Gurugram - HSPCB",29-04-2024 06:00:00,28.4501238,77.0263051,SO2,27,46,35
India,Haryana,Jind,"Police Lines, Jind - HSPCB",29-04-2024 06:00:00,29.307814,76.337619,PM10,62,117,89
India,Haryana,Jind,"Police Lines, Jind - HSPCB",29-04-2024 06:00:00,29.307814,76.337619,SO2,4,46,14
India,Haryana,Jind,"Police Lines, Jind - HSPCB",29-04-2024 06:00:00,29.307814,76.337619,OZONE,13,24,14
India,Haryana,Karnal,"Sector-12, Karnal - HSPCB",29-04-2024 06:00:00,29.695300,77.002700,SO2,12,13,13
India,Haryana,Kurukshetra,"Sector-7, Kurukshetra - HSPCB",29-04-2024 06:00:00,29.966942,76.875879,CO,7,40,20
India,Haryana,Manesar,"Sector-2 IMT, Manesar - HSPCB",29-04-2024 06:00:00,28.360699,76.936090,CO,13,55,42
India,Haryana,Narnaul,"Shastri Nagar, Narnaul - HSPCB",29-04-2024 06:00:00,28.060249,76.113115,PM10,97,148,120
India,Haryana,Narnaul,"Shastri Nagar, Narnaul - HSPCB",29-04-2024 06:00:00,28.060249,76.113115,SO2,13,13,13
India,Haryana,Panchkula,"Sector-6, Panchkula - HSPCB ",29-04-2024 06:00:00,30.7057778,76.8531805555555,CO,7,16,8
India,Haryana,Panipat,"Sector-18, Panipat - HSPCB",29-04-2024 06:00:00,29.497973,76.993331,PM2.5,128,132,130
India,Haryana,Panipat,"Sector-18, Panipat - HSPCB",29-04-2024 06:00:00,29.497973,76.993331,NO2,31,32,31
India,Haryana,Panipat,"Sector-18, Panipat - HSPCB",29-04-2024 06:00:00,29.497973,76.993331,NH3,2,3,3
India,Haryana,Panipat,"Sector-18, Panipat - HSPCB",29-04-2024 06:00:00,29.497973,76.993331,CO,24,26,25
India,Haryana,Rohtak,"MD University, Rohtak - HSPCB",29-04-2024 06:00:00,28.52123,76.37138,PM2.5,4,351,109
India,Haryana,Rohtak,"MD University, Rohtak - HSPCB",29-04-2024 06:00:00,28.52123,76.37138,CO,2,73,50
India,Haryana,Sirsa,"F-Block, Sirsa - HSPCB",29-04-2024 06:00:00,29.536400,75.015800,PM2.5,6,470,96
India,Haryana,Sirsa,"F-Block, Sirsa - HSPCB",29-04-2024 06:00:00,29.536400,75.015800,SO2,5,9,7
India,Haryana,Sonipat,"Murthal, Sonipat - HSPCB",29-04-2024 06:00:00,29.027200,77.062100,PM10,79,107,85
India,Haryana,Yamuna Nagar,"Gobind Pura, Yamuna Nagar - HSPCB",29-04-2024 06:00:00,30.1480566,77.2893471,SO2,NA,NA,NA
India,Haryana,Yamuna Nagar,"Gobind Pura, Yamuna Nagar - HSPCB",29-04-2024 06:00:00,30.1480566,77.2893471,CO,NA,NA,NA
India,Haryana,Yamuna Nagar,"Gobind Pura, Yamuna Nagar - HSPCB",29-04-2024 06:00:00,30.1480566,77.2893471,OZONE,NA,NA,NA
India,Jharkhand,Dhanbad,"Kalakusuma, Dhanbad - DMC",29-04-2024 06:00:00,23.811548,86.481238,PM2.5,5,18,12
India,Jharkhand,Dhanbad,"Kalakusuma, Dhanbad - DMC",29-04-2024 06:00:00,23.811548,86.481238,PM10,114,118,116
India,Karnataka,Bagalkot,"Vidayagiri, Bagalkot - KSPCB",29-04-2024 06:00:00,16.172806,75.659694,PM2.5,25,37,36
India,Karnataka,Bagalkot,"Vidayagiri, Bagalkot - KSPCB",29-04-2024 06:00:00,16.172806,75.659694,CO,13,52,36
India,Karnataka,Belgaum,"Ramteerth Nagar, Belgaum - KSPCB",29-04-2024 06:00:00,15.888653,74.541751,PM2.5,18,35,27
India,Karnataka,Belgaum,"Ramteerth Nagar, Belgaum - KSPCB",29-04-2024 06:00:00,15.888653,74.541751,CO,34,50,43
India,Karnataka,Belgaum,"Ramteerth Nagar, Belgaum - KSPCB",29-04-2024 06:00:00,15.888653,74.541751,OZONE,19,20,19
India,Karnataka,Bengaluru,"BTM Layout, Bengaluru - CPCB",29-04-2024 06:00:00,12.9135218,77.5950804,PM2.5,33,41,36
India,Karnataka,Bengaluru,"Bapuji Nagar, Bengaluru - KSPCB",29-04-2024 06:00:00,12.951913,77.539784,PM2.5,42,143,78
India,Karnataka,Bengaluru,"Hombegowda Nagar, Bengaluru - KSPCB",29-04-2024 06:00:00,12.938539,77.590100,PM10,40,87,60
India,Karnataka,Bengaluru,"Hombegowda Nagar, Bengaluru - KSPCB",29-04-2024 06:00:00,12.938539,77.590100,CO,23,37,28
India,Karnataka,Bengaluru,"Jayanagar 5th Block, Bengaluru - KSPCB",29-04-2024 06:00:00,12.920984,77.584908,NO2,4,22,6
India,Karnataka,Bengaluru,"Jayanagar 5th Block, Bengaluru - KSPCB",29-04-2024 06:00:00,12.920984,77.584908,SO2,12,28,18
India,Karnataka,Bengaluru,"Kasturi Nagar, Bengaluru - KSPCB",29-04-2024 06:00:00,13.003872,77.664217,NH3,3,4,4
India,Karnataka,Bengaluru,"Kasturi Nagar, Bengaluru - KSPCB",29-04-2024 06:00:00,13.003872,77.664217,SO2,10,10,10
India,Karnataka,Bengaluru,"Peenya, Bengaluru - CPCB",29-04-2024 06:00:00,13.0270199,77.494094,CO,31,40,34
India,Karnataka,Bengaluru,"Peenya, Bengaluru - CPCB",29-04-2024 06:00:00,13.0270199,77.494094,OZONE,11,54,18
India,Karnataka,Bengaluru,"RVCE-Mailasandra, Bengaluru - KSPCB",29-04-2024 06:00:00,12.921418,77.502466,SO2,8,11,9
India,Karnataka,Bengaluru,"RVCE-Mailasandra, Bengaluru - KSPCB",29-04-2024 06:00:00,12.921418,77.502466,OZONE,39,39,39
India,Karnataka,Bengaluru,"Shivapura_Peenya, Bengaluru - KSPCB",29-04-2024 06:00:00,13.0246342,77.5080115,CO,20,41,28
India,Karnataka,Bengaluru,"Silk Board, Bengaluru - KSPCB",29-04-2024 06:00:00,12.917348,77.622813,CO,3,47,11
India,Karnataka,Chamarajanagar,"Urban, Chamarajanagar - KSPCB",29-04-2024 06:00:00,11.55358,76.55521,NH3,2,3,3
India,Karnataka,Chamarajanagar,"Urban, Chamarajanagar - KSPCB",29-04-2024 06:00:00,11.55358,76.55521,OZONE,14,38,15
India,Karnataka,Chikkaballapur,"Chikkaballapur Rural, Chikkaballapur - KSPCB",29-04-2024 06:00:00,13.428828,77.731418,CO,18,36,21
India,Karnataka,Chikkamagaluru,"Kalyana Nagara, Chikkamagaluru - KSPCB",29-04-2024 06:00:00,13.328028,75.797056,NO2,18,31,23
India,Karnataka,Chikkamagaluru,"Kalyana Nagara, Chikkamagaluru - KSPCB",29-04-2024 06:00:00,13.328028,75.797056,SO2,NA,NA,NA
India,Karnataka,Davanagere,"Devaraj Urs Badavane, Davanagere - KSPCB",29-04-2024 06:00:00,14.475800,75.905200,PM2.5,32,324,82
India,Karnataka,Dharwad,"Kalabhavan, Dharwad - KSPCB",29-04-2024 06:00:00,15.459706,75.008381,NO2,7,25,15
India,Karnataka,Gadag,"Panchal Nagar, Gadag - KSPCB",29-04-2024 06:00:00,15.411456,75.638133,SO2,12,19,14
India,Karnataka,Gadag,"Panchal Nagar, Gadag - KSPCB",29-04-2024 06:00:00,15.411456,75.638133,CO,46,60,50
India,Karnataka,Haveri,"Ashwini Nagar, Haveri - KSPCB",29-04-2024 06:00:00,14.791800,75.389600,PM2.5,NA,NA,NA
India,Karnataka,Haveri,"Ashwini Nagar, Haveri - KSPCB",29-04-2024 06:00:00,14.791800,75.389600,NO2,NA,NA,NA
India,Karnataka,Hubballi,"Deshpande Nagar, Hubballi - KSPCB",29-04-2024 06:00:00,15.351773,75.140726,NH3,5,7,6
India,Karnataka,Hubballi,"Deshpande Nagar, Hubballi - KSPCB",29-04-2024 06:00:00,15.351773,75.140726,OZONE,1,13,3
India,Karnataka,Hubballi,"Lingaraj Nagar, Hubballi - KSPCB",29-04-2024 06:00:00,15.3714823,75.1160168,PM2.5,34,53,45
India,Karnataka,Hubballi,"Lingaraj Nagar, Hubballi - KSPCB",29-04-2024 06:00:00,15.3714823,75.1160168,NO2,6,6,6
India,Karnataka,Kalaburagi,"Lal Bahadur Shastri Nagar, Kalaburagi - KSPCB",29-04-2024 06:00:00,17.321993,76.822628,PM10,19,121,51
India,Karnataka,Kalaburagi,"Mahatma Basaveswar Colony, Kalaburgi - KSPCB",29-04-2024 06:00:00,17.336318,76.847397,CO,33,96,40
India,Karnataka,Karwar,"KHB Colony, Karwar - KSPCB",29-04-2024 06:00:00,14.816666,74.141003,PM10,42,77,61
India,Karnataka,Karwar,"KHB Colony, Karwar - KSPCB",29-04-2024 06:00:00,14.816666,74.141003,NH3,1,6,2
India,Karnataka,Karwar,"KHB Colony, Karwar - KSPCB",29-04-2024 06:00:00,14.816666,74.141003,OZONE,21,22,22
India,Karnataka,Kolar,"Tamaka Ind. Area, Kolar - KSPCB",29-04-2024 06:00:00,13.1276288,78.1570122,NH3,NA,NA,NA
India,Karnataka,Koppal,"Diwator Nagar, Koppal - KSPCB",29-04-2024 06:00:00,15.347630,76.181767,PM2.5,16,89,37
India,Karnataka,Koppal,"Diwator Nagar, Koppal - KSPCB",29-04-2024 06:00:00,15.347630,76.181767,NH3,6,9,8
India,Karnataka,Madikeri,"Stuart Hill, Madikeri - KSPCB",29-04-2024 06:00:00,12.415911,75.735050,NO2,2,13,4
India,Karnataka,Madikeri,"Stuart Hill, Madikeri - KSPCB",29-04-2024 06:00:00,12.415911,75.735050,SO2,4,4,4
India,Karnataka,Madikeri,"Stuart Hill, Madikeri - KSPCB",29-04-2024 06:00:00,12.415911,75.735050,OZONE,22,46,29
India,Karnataka,Mangalore,"Kadri, Mangalore - KSPCB",29-04-2024 06:00:00,12.889250,74.853000,NH3,1,2,2
India,Karnataka,Mysuru,"Hebbal 1st Stage, Mysuru - KSPCB",29-04-2024 06:00:00,12.21041,76.37376,NO2,18,32,21
India,Karnataka,Shivamogga,"Vinoba Nagara, Shivamogga - KSPCB",29-04-2024 06:00:00,13.940000,75.555917,PM10,34,72,54
India,Karnataka,Shivamogga,"Vinoba Nagara, Shivamogga - KSPCB",29-04-2024 06:00:00,13.940000,75.555917,OZONE,32,77,56
India,Karnataka,Tumakuru,"Thimmalapura, Tumakuru - KSPCB",29-04-2024 06:00:00,13.377516,77.099072,OZONE,10,56,30
India,Karnataka,Vijayapura,"Ibrahimpur, Vijayapura - KSPCB",29-04-2024 06:00:00,16.802639,75.722694,PM2.5,26,31,30
India,Karnataka,Vijayapura,"Ibrahimpur, Vijayapura - KSPCB",29-04-2024 06:00:00,16.802639,75.722694,OZONE,14,15,15
India,Karnataka,Yadgir,"Collector Office, Yadgir - KSPCB",29-04-2024 06:00:00,16.7602,77.1428,SO2,4,91,26
India,Kerala,Eloor,"Udyogamandal, Eloor - Kerala PCB",29-04-2024 06:00:00,10.073232,76.302765,SO2,1,9,3
India,Kerala,Kannur,"Thavakkara, Kannur - Kerala PCB",29-04-2024 06:00:00,11.875000,75.373200,PM10,61,101,74
India,Kerala,Thiruvananthapuram,"Plammoodu, Thiruvananthapuram - Kerala PCB",29-04-2024 06:00:00,8.5149093,76.9435879,NH3,1,1,1
India,Kerala,Thrissur,"Corporation Ground, Thrissur - Kerala PCB",29-04-2024 06:00:00,10.532400,76.215900,NO2,7,8,7
India,Kerala,Thrissur,"Corporation Ground, Thrissur - Kerala PCB",29-04-2024 06:00:00,10.532400,76.215900,SO2,1,6,1
India,Madhya Pradesh,Bhopal,"Idgah Hills, Bhopal - MPPCB",29-04-2024 06:00:00,23.264759,77.381568,NH3,4,5,4
India,Madhya Pradesh,Bhopal,"Idgah Hills, Bhopal - MPPCB",29-04-2024 06:00:00,23.264759,77.381568,SO2,14,19,16
India,Madhya Pradesh,Bhopal,"Paryavaran Parisar, Bhopal - MPPCB",29-04-2024 06:00:00,23.210494,77.425409,PM10,46,137,81
India,Madhya Pradesh,Bhopal,"Paryavaran Parisar, Bhopal - MPPCB",29-04-2024 06:00:00,23.210494,77.425409,SO2,8,10,9
India,Madhya Pradesh,Bhopal,"T T Nagar, Bhopal - MPPCB",29-04-2024 06:00:00,23.233584,77.400574,PM10,54,118,89
India,Madhya Pradesh,Dewas,"Bhopal Chauraha, Dewas - MPPCB",29-04-2024 06:00:00,22.9682591,76.064118,PM2.5,25,194,69
India,Madhya Pradesh,Gwalior,"City Center, Gwalior - MPPCB",29-04-2024 06:00:00,26.203442,78.193251,PM2.5,22,112,66
India,Madhya Pradesh,Gwalior,"City Center, Gwalior - MPPCB",29-04-2024 06:00:00,26.203442,78.193251,NH3,1,6,4
India,Madhya Pradesh,Gwalior,"Deen Dayal Nagar, Gwalior - MPPCB",29-04-2024 06:00:00,26.259242,78.216432,SO2,13,17,15
India,Madhya Pradesh,Gwalior,"Deen Dayal Nagar, Gwalior - MPPCB",29-04-2024 06:00:00,26.259242,78.216432,OZONE,22,168,45
India,Madhya Pradesh,Gwalior,"Maharaj Bada, Gwalior - MPPCB",29-04-2024 06:00:00,26.200388,78.147714,PM10,36,436,171
India,Madhya Pradesh,Gwalior,"Maharaj Bada, Gwalior - MPPCB",29-04-2024 06:00:00,26.200388,78.147714,NO2,13,114,53
India,Madhya Pradesh,Gwalior,"Phool Bagh, Gwalior - Mondelez Ind. Food",29-04-2024 06:00:00,26.210536,78.171,PM2.5,64,260,143
India,Madhya Pradesh,Gwalior,"Phool Bagh, Gwalior - Mondelez Ind. Food",29-04-2024 06:00:00,26.210536,78.171,SO2,25,36,30
India,Madhya Pradesh,Indore,"Chhoti Gwaltoli, Indore - MPPCB",29-04-2024 06:00:00,22.4310,75.5213,NH3,2,5,3
India,Madhya Pradesh,Indore,"Maguda Nagar, Indore - IMC",29-04-2024 06:00:00,22.7524,75.8872,PM2.5,31,248,80
India,Madhya Pradesh,Indore,"Maguda Nagar, Indore - IMC",29-04-2024 06:00:00,22.7524,75.8872,CO,26,44,39
India,Madhya Pradesh,Indore,"Maguda Nagar, Indore - IMC",29-04-2024 06:00:00,22.7524,75.8872,OZONE,36,40,37
India,Madhya Pradesh,Indore,"Regional Park, Indore - IMC",29-04-2024 06:00:00,22.6780,75.8559,PM2.5,33,98,63
India,Madhya Pradesh,Indore,"Regional Park, Indore - IMC",29-04-2024 06:00:00,22.6780,75.8559,OZONE,7,18,10
India,Madhya Pradesh,Indore,"Residency Area, Indore - IMC",29-04-2024 06:00:00,22.7084,75.8815,PM2.5,27,109,50
India,Madhya Pradesh,Indore,"Residency Area, Indore - IMC",29-04-2024 06:00:00,22.7084,75.8815,NH3,NA,NA,NA
India,Madhya Pradesh,Jabalpur,"Gupteshwar, Jabalpur - JMC",29-04-2024 06:00:00,23.142888,79.916147,PM2.5,22,96,58
India,Madhya Pradesh,Jabalpur,"Marhatal, Jabalpur - MPPCB",29-04-2024 06:00:00,23.168606,79.932247,NH3,NA,NA,NA
India,Madhya Pradesh,Jabalpur,"Suhagi, Jabalpur - JMC",29-04-2024 06:00:00,23.218135,79.957770,PM10,44,194,94
India,Madhya Pradesh,Katni,"Gole Bazar, Katni - MPPCB",29-04-2024 06:00:00,23.50016,80.23284,SO2,13,120,54
India,Madhya Pradesh,Katni,"Gole Bazar, Katni - MPPCB",29-04-2024 06:00:00,23.50016,80.23284,CO,26,155,107
India,Madhya Pradesh,Katni,"Gole Bazar, Katni - MPPCB",29-04-2024 06:00:00,23.50016,80.23284,OZONE,22,100,34
India,Madhya Pradesh,Mandideep,"Sector-D Industrial Area, Mandideep - MPPCB",29-04-2024 06:00:00,23.108440,77.511428,PM10,25,102,60
India,Madhya Pradesh,Mandideep,"Sector-D Industrial Area, Mandideep - MPPCB",29-04-2024 06:00:00,23.108440,77.511428,NO2,8,59,30
India,Madhya Pradesh,Mandideep,"Sector-D Industrial Area, Mandideep - MPPCB",29-04-2024 06:00:00,23.108440,77.511428,SO2,3,120,39
India,Madhya Pradesh,Mandideep,"Sector-D Industrial Area, Mandideep - MPPCB",29-04-2024 06:00:00,23.108440,77.511428,CO,8,90,50
India,Madhya Pradesh,Mandideep,"Sector-D Industrial Area, Mandideep - MPPCB",29-04-2024 06:00:00,23.108440,77.511428,OZONE,7,44,12
India,Madhya Pradesh,Ratlam,"Shasthri Nagar, Ratlam - IPCA Lab",29-04-2024 06:00:00,23.331731,75.045981,NO2,12,39,22
India,Madhya Pradesh,Ratlam,"Shasthri Nagar, Ratlam - IPCA Lab",29-04-2024 06:00:00,23.331731,75.045981,SO2,35,38,36
India,Madhya Pradesh,Sagar,"Civil Lines, Sagar - MPPCB",29-04-2024 06:00:00,23.838586,78.759431,SO2,2,10,6
India,Madhya Pradesh,Singrauli,"Suryakiran Bhawan NCL, Singrauli - MPPCB",29-04-2024 06:00:00,24.108970,82.645580,PM2.5,25,347,75
India,Madhya Pradesh,Singrauli,"Suryakiran Bhawan NCL, Singrauli - MPPCB",29-04-2024 06:00:00,24.108970,82.645580,OZONE,10,79,41
India,Maharashtra,Ahmednagar,"Tarakpur, Ahmednagar - MPCB",29-04-2024 06:00:00,19.10122,74.73339,NO2,19,130,51
India,Maharashtra,Ahmednagar,"Tarakpur, Ahmednagar - MPCB",29-04-2024 06:00:00,19.10122,74.73339,NH3,2,5,4
India,Maharashtra,Ahmednagar,"Tarakpur, Ahmednagar - MPCB",29-04-2024 06:00:00,19.10122,74.73339,SO2,1,16,9
India,Maharashtra,Amravati,"Shivneri Colony, Amravati - MPCB",29-04-2024 06:00:00,20.9402359,77.7895248,NO2,2,20,10
India,Maharashtra,Amravati,"Shivneri Colony, Amravati - MPCB",29-04-2024 06:00:00,20.9402359,77.7895248,CO,15,26,19
India,Maharashtra,Amravati,"Shri Shivaji Science College, Amaravati - MPCB",29-04-2024 06:00:00,20.939198,77.765701,NO2,4,44,16
India,Maharashtra,Amravati,"Shri Shivaji Science College, Amaravati - MPCB",29-04-2024 06:00:00,20.939198,77.765701,NH3,3,5,4
India,Maharashtra,Aurangabad,"More Chowk Waluj, Aurangabad - MPCB",29-04-2024 06:00:00,19.8389439,75.244448,NH3,9,10,9
India,Maharashtra,Aurangabad,"Rachnakar Colony, Aurangabad - MPCB",29-04-2024 06:00:00,19.863756,75.321188,NH3,1,1,1
India,Maharashtra,Badlapur,"Katrap, Badlapur - MPCB",29-04-2024 06:00:00,19.16485,73.23409,PM2.5,66,117,86
India,Maharashtra,Belapur,"CBD Belapur, Belapur - MPCB",29-04-2024 06:00:00,19.0243902,73.0406721,NH3,2,3,2
India,Maharashtra,Boisar,"Khaira, Boisar - MPCB",29-04-2024 06:00:00,19.786089,72.757971,PM2.5,1,247,75
India,Maharashtra,Chandrapur,"Chauhan Colony, Chandrapur - MPCB",29-04-2024 06:00:00,19.962900,79.298714,OZONE,45,58,53
India,Maharashtra,Dhule,"Deopur, Dhule - MPCB",29-04-2024 06:00:00,20.918946,74.776388,NH3,9,14,10
India,Maharashtra,Dhule,"Deopur, Dhule - MPCB",29-04-2024 06:00:00,20.918946,74.776388,CO,13,34,20
India,Maharashtra,Jalgaon,"Prabhat Colony, Jalgaon - MPCB",29-04-2024 06:00:00,21.001264,75.565602,NO2,9,150,53
India,Maharashtra,Jalgaon,"Prabhat Colony, Jalgaon - MPCB",29-04-2024 06:00:00,21.001264,75.565602,SO2,1,18,8
India,Maharashtra,Jalna,"Old MIDC, Jalna - MPCB",29-04-2024 06:00:00,19.854616,75.905894,SO2,NA,NA,NA
India,Maharashtra,Kolhapur,"Shivaji University, Kolhapur - MPCB",29-04-2024 06:00:00,16.6870449,74.2505872,PM10,NA,NA,NA
India,Maharashtra,Kolhapur,"Shivaji University, Kolhapur - MPCB",29-04-2024 06:00:00,16.6870449,74.2505872,SO2,4,12,6
India,Maharashtra,Kolhapur,"Shivaji University, Kolhapur - MPCB",29-04-2024 06:00:00,16.6870449,74.2505872,OZONE,25,150,55
India,Maharashtra,Kolhapur,"Sinchan Bhavan, Kolhapur - MPCB",29-04-2024 06:00:00,16.7143745,74.2426398,NH3,7,8,7
India,Maharashtra,Latur,"Sawe Wadi, Latur - MPCB",29-04-2024 06:00:00,18.39963,76.57452,PM2.5,45,263,116
India,Maharashtra,Latur,"Sawe Wadi, Latur - MPCB",29-04-2024 06:00:00,18.39963,76.57452,OZONE,1,137,70
India,Maharashtra,Mahad,"Kamble Tarf Birwadi, Mahad - MPCB",29-04-2024 06:00:00,18.1023399,73.4783687,CO,27,62,40
India,Maharashtra,Malegaon,"Mahesh Nagar, Malegaon - MPCB",29-04-2024 06:00:00,20.555712,74.529236,CO,9,63,18
India,Maharashtra,Mira-Bhayandar,"Bhayandar West, Mira-Bhayandar - MPCB",29-04-2024 06:00:00,19.296481,72.840923,SO2,3,19,10
India,Maharashtra,Mumbai,"Bandra Kurla Complex, Mumbai - MPCB",29-04-2024 06:00:00,19.065931,72.862131,PM10,66,207,113
India,Maharashtra,Mumbai,"Bandra Kurla Complex, Mumbai - MPCB",29-04-2024 06:00:00,19.065931,72.862131,SO2,4,9,5
India,Maharashtra,Mumbai,"Borivali East, Mumbai - IITM",29-04-2024 06:00:00,19.23241,72.86895,NH3,3,6,4
India,Maharashtra,Mumbai,"Borivali East, Mumbai - IITM",29-04-2024 06:00:00,19.23241,72.86895,CO,12,63,22
India,Maharashtra,Mumbai,"Borivali East, Mumbai - MPCB",29-04-2024 06:00:00,19.2243333,72.8658113,NH3,1,3,2
India,Maharashtra,Mumbai,"Byculla, Mumbai - BMC",29-04-2024 06:00:00,18.9767,72.8380,PM2.5,19,52,31
India,Maharashtra,Mumbai,"Chakala-Andheri East, Mumbai - IITM",29-04-2024 06:00:00,19.11074,72.86084,SO2,14,71,32
India,Maharashtra,Mumbai,"Chakala-Andheri East, Mumbai - IITM",29-04-2024 06:00:00,19.11074,72.86084,CO,19,50,44
India,Maharashtra,Mumbai,"Chhatrapati Shivaji Intl. Airport (T2), Mumbai - MPCB",29-04-2024 06:00:00,19.10078,72.87462,PM10,83,257,139
India,Maharashtra,Mumbai,"Colaba, Mumbai - MPCB",29-04-2024 06:00:00,18.910000,72.820000,PM10,80,177,111
India,Maharashtra,Mumbai,"Colaba, Mumbai - MPCB",29-04-2024 06:00:00,18.910000,72.820000,SO2,11,12,12
India,Maharashtra,Mumbai,"Ghatkopar, Mumbai - BMC",29-04-2024 06:00:00,19.083694,72.920967,CO,1,36,11
India,Maharashtra,Mumbai,"Kandivali East, Mumbai - MPCB",29-04-2024 06:00:00,19.205800,72.868200,PM2.5,12,161,60
India,Maharashtra,Mumbai,"Kandivali West, Mumbai - BMC",29-04-2024 06:00:00,19.215859,72.831718,NO2,5,27,16
India,Maharashtra,Mumbai,"Kandivali West, Mumbai - BMC",29-04-2024 06:00:00,19.215859,72.831718,NH3,1,3,2
India,Maharashtra,Mumbai,"Kandivali West, Mumbai - BMC",29-04-2024 06:00:00,19.215859,72.831718,OZONE,27,214,51
India,Maharashtra,Mumbai,"Kherwadi_Bandra East, Mumbai - MPCB",29-04-2024 06:00:00,19.0632143,72.8456324,PM2.5,42,95,70
India,Maharashtra,Mumbai,"Kherwadi_Bandra East, Mumbai - MPCB",29-04-2024 06:00:00,19.0632143,72.8456324,NH3,4,17,6
India,Maharashtra,Mumbai,"Kherwadi_Bandra East, Mumbai - MPCB",29-04-2024 06:00:00,19.0632143,72.8456324,OZONE,2,225,58
India,Maharashtra,Mumbai,"Khindipada-Bhandup West, Mumbai - IITM",29-04-2024 06:00:00,19.1653323,72.922099,SO2,1,25,9
India,Maharashtra,Mumbai,"Khindipada-Bhandup West, Mumbai - IITM",29-04-2024 06:00:00,19.1653323,72.922099,CO,27,48,36
India,Maharashtra,Mumbai,"Kurla, Mumbai - MPCB",29-04-2024 06:00:00,19.0863,72.8888,NH3,NA,NA,NA
India,Maharashtra,Mumbai,"Kurla, Mumbai - MPCB",29-04-2024 06:00:00,19.0863,72.8888,SO2,NA,NA,NA
India,Maharashtra,Mumbai,"Kurla, Mumbai - MPCB",29-04-2024 06:00:00,19.0863,72.8888,CO,NA,NA,NA
India,Maharashtra,Mumbai,"Mulund West, Mumbai - MPCB",29-04-2024 06:00:00,19.1750,72.9419,SO2,13,14,13
India,Maharashtra,Mumbai,"Navy Nagar-Colaba, Mumbai - IITM",29-04-2024 06:00:00,18.897756,72.813320,NO2,56,80,68
India,Maharashtra,Mumbai,"Powai, Mumbai - MPCB",29-04-2024 06:00:00,19.137500,72.915056,SO2,36,133,49
India,Maharashtra,Mumbai,"Powai, Mumbai - MPCB",29-04-2024 06:00:00,19.137500,72.915056,OZONE,35,97,53
India,Maharashtra,Mumbai,"Sewri, Mumbai - BMC",29-04-2024 06:00:00,19.000084,72.856730,PM2.5,13,169,97
India,Maharashtra,Mumbai,"Shivaji Nagar, Mumbai - BMC",29-04-2024 06:00:00,19.060498,72.923356,SO2,2,36,19
India,Maharashtra,Mumbai,"Siddharth Nagar-Worli, Mumbai - IITM",29-04-2024 06:00:00,19.000083,72.813993,OZONE,42,219,87
India,Maharashtra,Mumbai,"Sion, Mumbai - MPCB",29-04-2024 06:00:00,19.047000,72.874600,OZONE,49,68,55
India,Maharashtra,Mumbai,"Vasai West, Mumbai - MPCB",29-04-2024 06:00:00,19.383200,72.820400,SO2,16,16,16
India,Maharashtra,Mumbai,"Vasai West, Mumbai - MPCB",29-04-2024 06:00:00,19.383200,72.820400,CO,30,46,36
India,Maharashtra,Mumbai,"Vile Parle West, Mumbai - MPCB",29-04-2024 06:00:00,19.10861,72.83622,NO2,7,15,10
India,Maharashtra,Mumbai,"Vile Parle West, Mumbai - MPCB",29-04-2024 06:00:00,19.10861,72.83622,SO2,14,15,14
India,Maharashtra,Mumbai,"Vile Parle West, Mumbai - MPCB",29-04-2024 06:00:00,19.10861,72.83622,CO,46,46,46
India,Maharashtra,Mumbai,"Vile Parle West, Mumbai - MPCB",29-04-2024 06:00:00,19.10861,72.83622,OZONE,3,3,3
India,Maharashtra,Mumbai,"Worli, Mumbai - MPCB",29-04-2024 06:00:00,18.9936162,72.8128113,NO2,15,16,16
India,Maharashtra,Mumbai,"Worli, Mumbai - MPCB",29-04-2024 06:00:00,18.9936162,72.8128113,CO,30,30,30
India,Maharashtra,Nagpur,"Ambazari, Nagpur - MPCB",29-04-2024 06:00:00,21.121801,79.04952,NO2,7,64,28
India,Maharashtra,Nagpur,"Mahal, Nagpur - MPCB",29-04-2024 06:00:00,21.14472,79.107595,SO2,25,83,50
India,Maharashtra,Nagpur,"Mahal, Nagpur - MPCB",29-04-2024 06:00:00,21.14472,79.107595,OZONE,11,89,19
India,Maharashtra,Nagpur,"Opp GPO Civil Lines, Nagpur - MPCB",29-04-2024 06:00:00,21.152875,79.0517531,SO2,9,122,32
India,Maharashtra,Nagpur,"Opp GPO Civil Lines, Nagpur - MPCB",29-04-2024 06:00:00,21.152875,79.0517531,CO,10,105,75
India,Maharashtra,Nagpur,"Opp GPO Civil Lines, Nagpur - MPCB",29-04-2024 06:00:00,21.152875,79.0517531,OZONE,2,94,7
India,Maharashtra,Nanded,"Sneh Nagar, Nanded - MPCB",29-04-2024 06:00:00,19.173852,77.296291,PM10,79,151,97
India,Maharashtra,Nashik,"Hirawadi, Nashik - MPCB",29-04-2024 06:00:00,20.021503,73.813844,PM2.5,14,75,51
India,Maharashtra,Nashik,"Hirawadi, Nashik - MPCB",29-04-2024 06:00:00,20.021503,73.813844,PM10,56,90,75
India,Maharashtra,Nashik,"MIDC Ambad, Nashik - MPCB",29-04-2024 06:00:00,19.950220,73.731480,PM2.5,30,66,47
India,Maharashtra,Nashik,"MIDC Ambad, Nashik - MPCB",29-04-2024 06:00:00,19.950220,73.731480,PM10,49,84,66
India,Maharashtra,Nashik,"MIDC Ambad, Nashik - MPCB",29-04-2024 06:00:00,19.950220,73.731480,SO2,13,34,23
India,Maharashtra,Nashik,"MIDC Ambad, Nashik - MPCB",29-04-2024 06:00:00,19.950220,73.731480,CO,18,36,23
India,Maharashtra,Nashik,"Pandav Nagari, Nashik - MPCB",29-04-2024 06:00:00,19.9591346,73.7788008,NO2,4,25,13
India,Maharashtra,Nashik,"Pandav Nagari, Nashik - MPCB",29-04-2024 06:00:00,19.9591346,73.7788008,SO2,16,49,34
India,Maharashtra,Navi Mumbai,"Mahape, Navi Mumbai - MPCB",29-04-2024 06:00:00,19.1135051,73.008978,PM10,105,215,145
India,Maharashtra,Navi Mumbai,"Mahape, Navi Mumbai - MPCB",29-04-2024 06:00:00,19.1135051,73.008978,OZONE,43,65,53
India,Maharashtra,Navi Mumbai,"Nerul, Navi Mumbai - MPCB",29-04-2024 06:00:00,19.008751,73.016620,CO,28,46,38
India,Maharashtra,Navi Mumbai,"Sanpada, Navi Mumbai - MPCB",29-04-2024 06:00:00,19.0575752,73.0151367,SO2,1,19,5
India,Maharashtra,Navi Mumbai,"Sector-19A Nerul, Navi Mumbai - IITM",29-04-2024 06:00:00,19.044,73.0325,PM2.5,59,174,109
India,Maharashtra,Navi Mumbai,"Sector-19A Nerul, Navi Mumbai - IITM",29-04-2024 06:00:00,19.044,73.0325,SO2,8,34,22
India,Maharashtra,Navi Mumbai,"Tondare-Taloja, Navi Mumbai - MPCB",29-04-2024 06:00:00,19.0630,73.1209,PM2.5,50,102,77
India,Maharashtra,Navi Mumbai,"Tondare-Taloja, Navi Mumbai - MPCB",29-04-2024 06:00:00,19.0630,73.1209,CO,7,47,28
India,Maharashtra,Pimpri-Chinchwad,"Gavalinagar, Pimpri Chinchwad - MPCB",29-04-2024 06:00:00,18.63673,73.82487,PM2.5,70,97,81
India,Maharashtra,Pimpri-Chinchwad,"Gavalinagar, Pimpri Chinchwad - MPCB",29-04-2024 06:00:00,18.63673,73.82487,PM10,96,118,105
India,Maharashtra,Pimpri-Chinchwad,"Gavalinagar, Pimpri Chinchwad - MPCB",29-04-2024 06:00:00,18.63673,73.82487,OZONE,13,175,67
India,Maharashtra,Pimpri-Chinchwad,"Park Street Wakad, Pimpri Chinchwad - MPCB",29-04-2024 06:00:00,18.59051,73.77946,PM2.5,45,200,87
India,Maharashtra,Pimpri-Chinchwad,"Park Street Wakad, Pimpri Chinchwad - MPCB",29-04-2024 06:00:00,18.59051,73.77946,PM10,55,177,105
India,Maharashtra,Pimpri-Chinchwad,"Park Street Wakad, Pimpri Chinchwad - MPCB",29-04-2024 06:00:00,18.59051,73.77946,OZONE,2,111,38
India,Maharashtra,Pimpri-Chinchwad,"Thergaon, Pimpri Chinchwad - MPCB",29-04-2024 06:00:00,18.616318,73.765797,PM10,95,122,107
India,Maharashtra,Pimpri-Chinchwad,"Thergaon, Pimpri Chinchwad - MPCB",29-04-2024 06:00:00,18.616318,73.765797,SO2,2,9,5
India,Maharashtra,Pune,"Alandi, Pune - IITM",29-04-2024 06:00:00,18.675076,73.892743,PM10,58,143,100
India,Maharashtra,Pune,"Alandi, Pune - IITM",29-04-2024 06:00:00,18.675076,73.892743,OZONE,5,75,37
India,Maharashtra,Pune,"Bhosari, Pune - IITM",29-04-2024 06:00:00,18.640051,73.848956,CO,NA,NA,NA
India,Maharashtra,Pune,"Karve Road, Pune - MPCB",29-04-2024 06:00:00,18.5011743,73.8165527,SO2,13,30,19
India,Maharashtra,Pune,"Karve Road, Pune - MPCB",29-04-2024 06:00:00,18.5011743,73.8165527,OZONE,72,207,129
India,Maharashtra,Pune,"Katraj Dairy, Pune - MPCB",29-04-2024 06:00:00,18.454450,73.854155,SO2,4,12,7
India,Maharashtra,Pune,"Revenue Colony-Shivajinagar, Pune - IITM",29-04-2024 06:00:00,18.530085,73.849598,OZONE,1,60,18
India,Maharashtra,Pune,"Savitribai Phule Pune University, Pune - MPCB",29-04-2024 06:00:00,18.547056,73.826908,PM2.5,56,123,88
India,Maharashtra,Pune,"Savitribai Phule Pune University, Pune - MPCB",29-04-2024 06:00:00,18.547056,73.826908,OZONE,1,191,41
India,Maharashtra,Pune,"Transport Nagar-Nigdi, Pune - IITM",29-04-2024 06:00:00,18.664282,73.763966,PM10,58,109,82
India,Maharashtra,Sangli,"Vijay Nagar, Sangli - MPCB",29-04-2024 06:00:00, 16.5038,74.3623,NO2,9,50,18
India,Maharashtra,Sangli,"Vijay Nagar, Sangli - MPCB",29-04-2024 06:00:00, 16.5038,74.3623,NH3,1,3,2
India,Maharashtra,Solapur,"Dnyaneshwar Nagar, Solapur - MPCB",29-04-2024 06:00:00,17.6336264,75.9132495,NH3,2,19,10
India,Maharashtra,Solapur,"Ratandeep Housing Society, Solapur - MPCB",29-04-2024 06:00:00,17.65439,75.90649,PM2.5,78,236,128
India,Maharashtra,Solapur,"Ratandeep Housing Society, Solapur - MPCB",29-04-2024 06:00:00,17.65439,75.90649,OZONE,1,157,40
India,Maharashtra,Virar,"Bolinj, Virar - MPCB",29-04-2024 06:00:00,19.4458210,72.7988231,PM2.5,42,93,68
India,Maharashtra,Virar,"Bolinj, Virar - MPCB",29-04-2024 06:00:00,19.4458210,72.7988231,NH3,9,9,9
India,Manipur,Imphal,"DM College of Science, Imphal - Manipur PCB",29-04-2024 06:00:00,24.8207389,93.9423085,NH3,NA,NA,NA
India,Manipur,Imphal,"DM College of Science, Imphal - Manipur PCB",29-04-2024 06:00:00,24.8207389,93.9423085,CO,6,7,6
India,Manipur,Imphal,"DM College of Science, Imphal - Manipur PCB",29-04-2024 06:00:00,24.8207389,93.9423085,OZONE,2,65,2
India,Odisha,Angul,"Hakimapada, Angul - OSPCB",29-04-2024 06:00:00,20.832874,85.104082,PM2.5,67,308,163
India,Odisha,Angul,"Hakimapada, Angul - OSPCB",29-04-2024 06:00:00,20.832874,85.104082,SO2,18,110,39
India,Odisha,Angul,"Hakimapada, Angul - OSPCB",29-04-2024 06:00:00,20.832874,85.104082,OZONE,8,223,23
India,Odisha,Balasore,"Kalidaspur, Balasore - OSPCB",29-04-2024 06:00:00,21.51161,86.89088,NO2,18,106,34
India,Odisha,Barbil,"Forest Office, Barbil - OSPCB",29-04-2024 06:00:00,22.1166054,85.3945546,PM2.5,45,328,113
India,Odisha,Baripada,"Meher Colony, Baripada - OSPCB",29-04-2024 06:00:00,21.941841,86.728318,PM2.5,NA,NA,NA
India,Odisha,Baripada,"Meher Colony, Baripada - OSPCB",29-04-2024 06:00:00,21.941841,86.728318,SO2,NA,NA,NA
India,Odisha,Baripada,"Meher Colony, Baripada - OSPCB",29-04-2024 06:00:00,21.941841,86.728318,CO,NA,NA,NA
India,Odisha,Bhubaneswar,"Patia, Bhubaneswar - OSPCB",29-04-2024 06:00:00,20.34652,85.81630,CO,39,100,78
India,Odisha,Brajrajnagar,"GM Office, Brajrajnagar - OSPCB",29-04-2024 06:00:00,21.8004996,83.8396977,NO2,15,16,15
India,Odisha,Byasanagar,"Ferro Chrome Colony, Byasanagar - OSPCB",29-04-2024 06:00:00,20.94185,86.11510,PM10,100,157,126
India,Odisha,Byasanagar,"Ferro Chrome Colony, Byasanagar - OSPCB",29-04-2024 06:00:00,20.94185,86.11510,SO2,6,74,26
India,Odisha,Byasanagar,"Ferro Chrome Colony, Byasanagar - OSPCB",29-04-2024 06:00:00,20.94185,86.11510,OZONE,2,301,70
India,Odisha,Cuttack,"CDA Area, Cuttack - OSPCB",29-04-2024 06:00:00,20.48891     ,85.84768     ,PM10,74,159,106
India,Odisha,Keonjhar,"Jagamohanpur, Keonjhar - OSPCB",29-04-2024 06:00:00,21.643900,85.599355,NH3,2,4,4
India,Odisha,Keonjhar,"Jagamohanpur, Keonjhar - OSPCB",29-04-2024 06:00:00,21.643900,85.599355,CO,40,80,66
India,Odisha,Nayagarh,"Dabuna, Nayagarh - OSPCB",29-04-2024 06:00:00,21.847279,85.416905,NO2,3,3,3
India,Odisha,Nayagarh,"Dabuna, Nayagarh - OSPCB",29-04-2024 06:00:00,21.847279,85.416905,CO,12,49,22
India,Odisha,Rourkela,"Fertilizer Township, Rourkela - OSPCB",29-04-2024 06:00:00,22.18972222,84.86277778,PM10,77,246,133
India,Odisha,Rourkela,"Raghunathpali, Rourkela - OSPCB",29-04-2024 06:00:00,22.220833,84.809444,SO2,11,69,25
India,Odisha,Suakati,"OMC Colony, Suakati - OSPCB",29-04-2024 06:00:00,21.606865,85.510538,SO2,8,39,22
India,Odisha,Suakati,"OMC Colony, Suakati - OSPCB",29-04-2024 06:00:00,21.606865,85.510538,CO,14,21,16
India,Odisha,Suakati,"OMC Colony, Suakati - OSPCB",29-04-2024 06:00:00,21.606865,85.510538,OZONE,6,167,44
India,Odisha,Tensa,"Barsua Iron Ore Mines, Tensa - OSPCB",29-04-2024 06:00:00,21.869985,85.167016,NH3,1,2,2
India,Odisha,Tensa,"Barsua Iron Ore Mines, Tensa - OSPCB",29-04-2024 06:00:00,21.869985,85.167016,SO2,NA,NA,NA
India,Puducherry,Puducherry,"Jawahar Nagar, Puducherry - PPCC",29-04-2024 06:00:00,11.9309,79.8027,CO,15,40,21
India,Punjab,Bathinda,"Hardev Nagar, Bathinda - PPCB",29-04-2024 06:00:00,30.233011,74.907758,NO2,32,33,33
India,Punjab,Jalandhar,"Civil Line, Jalandhar - PPCB",29-04-2024 06:00:00,31.321907,75.578914,PM2.5,34,95,60
India,Punjab,Jalandhar,"Civil Line, Jalandhar - PPCB",29-04-2024 06:00:00,31.321907,75.578914,CO,14,98,33
India,Punjab,Khanna,"Kalal Majra, Khanna - PPCB",29-04-2024 06:00:00,30.736056 ,76.209694,PM2.5,44,163,85
India,Punjab,Khanna,"Kalal Majra, Khanna - PPCB",29-04-2024 06:00:00,30.736056 ,76.209694,NO2,40,40,40
India,Punjab,Khanna,"Kalal Majra, Khanna - PPCB",29-04-2024 06:00:00,30.736056 ,76.209694,NH3,16,16,16
India,Punjab,Ludhiana,"Punjab Agricultural University, Ludhiana - PPCB",29-04-2024 06:00:00,30.9028,75.8086,PM10,36,97,59
India,Punjab,Ludhiana,"Punjab Agricultural University, Ludhiana - PPCB",29-04-2024 06:00:00,30.9028,75.8086,NO2,12,13,13
India,Punjab,Ludhiana,"Punjab Agricultural University, Ludhiana - PPCB",29-04-2024 06:00:00,30.9028,75.8086,SO2,5,34,14
India,Punjab,Ludhiana,"Punjab Agricultural University, Ludhiana - PPCB",29-04-2024 06:00:00,30.9028,75.8086,OZONE,14,47,26
India,Punjab,Mandi Gobindgarh,"RIMT University, Mandi Gobindgarh - PPCB",29-04-2024 06:00:00,30.649961,76.331442,NH3,6,6,6
India,Punjab,Mandi Gobindgarh,"RIMT University, Mandi Gobindgarh - PPCB",29-04-2024 06:00:00,30.649961,76.331442,SO2,3,21,8
India,Punjab,Patiala,"Model Town, Patiala - PPCB",29-04-2024 06:00:00,30.349388,76.366642,PM2.5,54,134,75
India,Punjab,Patiala,"Model Town, Patiala - PPCB",29-04-2024 06:00:00,30.349388,76.366642,NH3,6,7,6
India,Rajasthan,Ajmer,"Civil Lines,  Ajmer - RSPCB",29-04-2024 06:00:00,26.470859,74.646594,PM10,62,138,104
India,Rajasthan,Ajmer,"Civil Lines,  Ajmer - RSPCB",29-04-2024 06:00:00,26.470859,74.646594,NO2,10,13,12
India,Rajasthan,Ajmer,"Civil Lines,  Ajmer - RSPCB",29-04-2024 06:00:00,26.470859,74.646594,CO,5,107,53
India,Rajasthan,Ajmer,"Civil Lines,  Ajmer - RSPCB",29-04-2024 06:00:00,26.470859,74.646594,OZONE,9,225,105
India,Rajasthan,Baran,"Bamboliya, Baran - RSPCB",29-04-2024 06:00:00,25.106006,76.469948,NH3,2,20,6
India,Rajasthan,Baran,"Bamboliya, Baran - RSPCB",29-04-2024 06:00:00,25.106006,76.469948,CO,11,121,53
India,Rajasthan,Barmer,"Railway Colony, Barmer - RSPCB",29-04-2024 06:00:00,25.747299,71.393989,CO,66,86,70
India,Rajasthan,Bhiwadi,"RIICO Ind. Area III, Bhiwadi - RSPCB",29-04-2024 06:00:00,28.194909,76.862296,PM2.5,96,353,251
India,Rajasthan,Bikaner,"MM Ground, Bikaner - RSPCB",29-04-2024 06:00:00,28.018792,73.292658,PM2.5,18,81,41
India,Rajasthan,Bundi,"New Colony, Bundi - RSPCB",29-04-2024 06:00:00,25.435774,75.644272,PM2.5,11,96,40
India,Rajasthan,Bundi,"New Colony, Bundi - RSPCB",29-04-2024 06:00:00,25.435774,75.644272,PM10,59,198,118
India,Rajasthan,Bundi,"New Colony, Bundi - RSPCB",29-04-2024 06:00:00,25.435774,75.644272,SO2,3,14,6
India,Rajasthan,Dausa,"Khatikan Mohalla, Dausa - RSPCB",29-04-2024 06:00:00,26.895552,76.334753,PM10,NA,NA,NA
India,Rajasthan,Dausa,"Khatikan Mohalla, Dausa - RSPCB",29-04-2024 06:00:00,26.895552,76.334753,CO,NA,NA,NA
India,Rajasthan,Dausa,"Khatikan Mohalla, Dausa - RSPCB",29-04-2024 06:00:00,26.895552,76.334753,OZONE,NA,NA,NA
India,Rajasthan,Dungarpur,"Bhoiwada, Dungarpur - RSPCB",29-04-2024 06:00:00,23.837789,73.714926,PM2.5,15,58,30
India,Rajasthan,Dungarpur,"Bhoiwada, Dungarpur - RSPCB",29-04-2024 06:00:00,23.837789,73.714926,CO,12,27,21
India,Rajasthan,Dungarpur,"Bhoiwada, Dungarpur - RSPCB",29-04-2024 06:00:00,23.837789,73.714926,OZONE,15,72,43
India,Rajasthan,Jaipur,"Adarsh Nagar, Jaipur - RSPCB",29-04-2024 06:00:00,26.902909,75.836858,NO2,16,135,66
India,Rajasthan,Jaipur,"Adarsh Nagar, Jaipur - RSPCB",29-04-2024 06:00:00,26.902909,75.836858,SO2,15,27,21
India,Rajasthan,Jaipur,"Mansarovar Sector-12, Jaipur - RSPCB",29-04-2024 06:00:00,26.843698,75.766894,NO2,4,137,65
India,Rajasthan,Jaipur,"Police Commissionerate, Jaipur - RSPCB",29-04-2024 06:00:00,26.9164092,75.7994901,NO2,14,120,60
India,Rajasthan,Jaipur,"Police Commissionerate, Jaipur - RSPCB",29-04-2024 06:00:00,26.9164092,75.7994901,NH3,6,9,8
India,Rajasthan,Jaipur,"Police Commissionerate, Jaipur - RSPCB",29-04-2024 06:00:00,26.9164092,75.7994901,OZONE,11,109,12
India,Rajasthan,Jaipur,"RIICO Sitapura, Jaipur - RSPCB",29-04-2024 06:00:00,26.786682,75.827928,PM2.5,38,248,115
India,Rajasthan,Jaipur,"RIICO Sitapura, Jaipur - RSPCB",29-04-2024 06:00:00,26.786682,75.827928,SO2,10,29,16
India,Rajasthan,Jaipur,"RIICO Sitapura, Jaipur - RSPCB",29-04-2024 06:00:00,26.786682,75.827928,OZONE,20,55,35
India,Rajasthan,Jaipur,"Sector-2 Murlipura, Jaipur - RSPCB",29-04-2024 06:00:00,26.960669,75.771817,PM10,110,338,199
India,Rajasthan,Jaipur,"Shastri Nagar, Jaipur - RSPCB",29-04-2024 06:00:00,26.9502929,75.730943,NH3,6,38,17
India,Rajasthan,Jaisalmer,"Sadar Bazar, Jaisalmer - RSPCB",29-04-2024 06:00:00,26.912329,70.909168,PM2.5,24,52,35
India,Rajasthan,Jaisalmer,"Sadar Bazar, Jaisalmer - RSPCB",29-04-2024 06:00:00,26.912329,70.909168,NO2,16,43,26
India,Rajasthan,Jaisalmer,"Sadar Bazar, Jaisalmer - RSPCB",29-04-2024 06:00:00,26.912329,70.909168,OZONE,58,99,77
India,Rajasthan,Jalore,"Mudtra Sili, Jalore - RSPCB",29-04-2024 06:00:00,25.344694,72.626208,NH3,3,5,4
India,Rajasthan,Jalore,"Mudtra Sili, Jalore - RSPCB",29-04-2024 06:00:00,25.344694,72.626208,CO,8,30,10
India,Rajasthan,Jhalawar,"Rajlaxmi Nagar, Jhalawar - RSPCB",29-04-2024 06:00:00,24.588397,76.172782,PM2.5,12,144,38
India,Rajasthan,Jhalawar,"Rajlaxmi Nagar, Jhalawar - RSPCB",29-04-2024 06:00:00,24.588397,76.172782,NO2,16,96,33
India,Rajasthan,Jhalawar,"Rajlaxmi Nagar, Jhalawar - RSPCB",29-04-2024 06:00:00,24.588397,76.172782,OZONE,1,92,48
India,Rajasthan,Jhunjhunu,"Indra Nagar, Jhunjhunu - RSPCB",29-04-2024 06:00:00,28.108988,75.386577,PM2.5,23,124,59
India,Rajasthan,Jhunjhunu,"Indra Nagar, Jhunjhunu - RSPCB",29-04-2024 06:00:00,28.108988,75.386577,PM10,87,243,139
India,Rajasthan,Jhunjhunu,"Indra Nagar, Jhunjhunu - RSPCB",29-04-2024 06:00:00,28.108988,75.386577,NH3,6,10,7
India,Rajasthan,Jhunjhunu,"Indra Nagar, Jhunjhunu - RSPCB",29-04-2024 06:00:00,28.108988,75.386577,OZONE,3,46,16
India,Rajasthan,Jodhpur,"Collectorate, Jodhpur - RSPCB",29-04-2024 06:00:00,26.268249,73.0193853,PM10,77,291,159
India,Rajasthan,Jodhpur,"Collectorate, Jodhpur - RSPCB",29-04-2024 06:00:00,26.268249,73.0193853,NO2,3,84,29
India,Rajasthan,Jodhpur,"Collectorate, Jodhpur - RSPCB",29-04-2024 06:00:00,26.268249,73.0193853,OZONE,6,123,49
India,Rajasthan,Jodhpur,"Digari Kalan, Jodhpur - RSPCB",29-04-2024 06:00:00,26.295810,73.082283,PM2.5,14,110,46
India,Rajasthan,Jodhpur,"Digari Kalan, Jodhpur - RSPCB",29-04-2024 06:00:00,26.295810,73.082283,CO,8,44,27
India,Rajasthan,Jodhpur,"Jhalamand, Jodhpur - RSPCB",29-04-2024 06:00:00,26.215415,73.070156,NH3,4,9,6
India,Rajasthan,Jodhpur,"Mandor, Jodhpur - RSPCB",29-04-2024 06:00:00,26.358805,73.047444,CO,12,36,23
India,Rajasthan,Jodhpur,"Mandor, Jodhpur - RSPCB",29-04-2024 06:00:00,26.358805,73.047444,OZONE,14,108,70
India,Rajasthan,Jodhpur,"Samrat Ashok Udhyan, Jodhpur - RSPCB",29-04-2024 06:00:00,26.253384,72.976571,PM10,53,168,110
India,Rajasthan,Jodhpur,"Samrat Ashok Udhyan, Jodhpur - RSPCB",29-04-2024 06:00:00,26.253384,72.976571,NO2,2,45,12
India,Rajasthan,Karauli,"Satyawati Vihar, Karauli - RSPCB",29-04-2024 06:00:00,26.506177,77.025989,PM2.5,37,97,60
India,Rajasthan,Karauli,"Satyawati Vihar, Karauli - RSPCB",29-04-2024 06:00:00,26.506177,77.025989,PM10,108,257,151
India,Rajasthan,Kota,"Dhanmandi, Kota - RSPCB",29-04-2024 06:00:00,25.164090,75.858137,PM2.5,NA,NA,NA
India,Rajasthan,Kota,"Nayapura, Kota - RSPCB",29-04-2024 06:00:00,25.196024,75.855668,NO2,17,111,48
India,Rajasthan,Kota,"Shrinath Puram, Kota - RSPCB",29-04-2024 06:00:00,25.14389,75.821256,NH3,5,14,8
India,Rajasthan,Nagaur,"Karni Colony, Nagaur - RSPCB",29-04-2024 06:00:00,27.213494,73.734444,NO2,7,42,18
India,Rajasthan,Nagaur,"Karni Colony, Nagaur - RSPCB",29-04-2024 06:00:00,27.213494,73.734444,OZONE,40,84,59
India,Rajasthan,Pali,"Indira Colony Vistar, Pali - RSPCB",29-04-2024 06:00:00,25.771061, 73.340227,PM10,101,159,126
India,Rajasthan,Pali,"Indira Colony Vistar, Pali - RSPCB",29-04-2024 06:00:00,25.771061, 73.340227,NO2,18,69,40
India,Rajasthan,Pali,"Indira Colony Vistar, Pali - RSPCB",29-04-2024 06:00:00,25.771061, 73.340227,OZONE,34,72,48
India,Rajasthan,Pratapgarh,"Pragati Nagar, Pratapgarh - RSPCB",29-04-2024 06:00:00,24.041198,74.780702,SO2,3,8,5
India,Rajasthan,Rajsamand,"Dhoinda, Rajsamand - RSPCB",29-04-2024 06:00:00,25.036360,73.883502,PM10,27,116,50
India,Rajasthan,Sawai Madhopur,"Sahu Nagar, Sawai Madhopur - RSPCB",29-04-2024 06:00:00,26.031443,76.359327,CO,1,68,31
India,Rajasthan,Sikar,"Radhakishan Pura, Sikar - RSPCB",29-04-2024 06:00:00,27.608912,75.153302,NH3,4,8,6
India,Rajasthan,Sirohi,"Vedhaynath Colony, Sirohi - RSPCB",29-04-2024 06:00:00,24.885261,72.857549,NO2,4,46,11
India,Rajasthan,Sri Ganganagar,"Old City, Sri Ganganagar - RSPCB",29-04-2024 06:00:00,29.931624,73.864511,SO2,2,15,6
India,Rajasthan,Sri Ganganagar,"Old City, Sri Ganganagar - RSPCB",29-04-2024 06:00:00,29.931624,73.864511,CO,40,80,55
India,Rajasthan,Tonk,"Shastri Nagar, Tonk - RSPCB",29-04-2024 06:00:00,26.159933,75.780517,PM2.5,23,237,71
India,TamilNadu,Chennai,"Alandur Bus Depot, Chennai - CPCB",29-04-2024 06:00:00,12.9099161,80.1076538,NH3,6,29,9
India,TamilNadu,Chennai,"Arumbakkam, Chennai - TNPCB",29-04-2024 06:00:00,13.0664,80.2112 ,PM2.5,3,30,13
India,TamilNadu,Chennai,"Arumbakkam, Chennai - TNPCB",29-04-2024 06:00:00,13.0664,80.2112 ,SO2,1,7,3
India,TamilNadu,Chennai,"Manali, Chennai - CPCB",29-04-2024 06:00:00,13.164544,80.26285,PM10,29,71,52
India,TamilNadu,Chennai,"Perungudi, Chennai - TNPCB",29-04-2024 06:00:00,12.9533,80.2357,CO,10,89,19
India,TamilNadu,Chennai,"Perungudi, Chennai - TNPCB",29-04-2024 06:00:00,12.9533,80.2357,OZONE,3,5,3
India,TamilNadu,Chennai,"Velachery Res. Area, Chennai - CPCB",29-04-2024 06:00:00,13.0052189,80.2398125,PM2.5,17,31,24
India,TamilNadu,Cuddalore,"Kudikadu, Cuddalore - TNPCB",29-04-2024 06:00:00,11.6829898,79.7532099,NH3,4,4,4
India,TamilNadu,Cuddalore,"Kudikadu, Cuddalore - TNPCB",29-04-2024 06:00:00,11.6829898,79.7532099,SO2,8,9,8
India,TamilNadu,Gummidipoondi,"Anthoni Pillai Nagar, Gummidipoondi - TNPCB",29-04-2024 06:00:00,13.4127,80.1081,PM10,27,109,54
India,TamilNadu,Ooty,"Bombay Castel, Ooty - TNPCB",29-04-2024 06:00:00,11.4068288,76.7138973,PM10,19,100,45
India,TamilNadu,Ooty,"Bombay Castel, Ooty - TNPCB",29-04-2024 06:00:00,11.4068288,76.7138973,SO2,13,13,13
India,TamilNadu,Palkalaiperur,"Bharathidasan University, Palkalaiperur - TNPCB",29-04-2024 06:00:00,10.681158,78.741746,PM10,6,26,11
India,TamilNadu,Palkalaiperur,"Bharathidasan University, Palkalaiperur - TNPCB",29-04-2024 06:00:00,10.681158,78.741746,CO,2,12,5
India,TamilNadu,Salem,"Sona College of Technology, Salem - TNPCB",29-04-2024 06:00:00,11.679111,78.125052,PM2.5,10,53,24
India,TamilNadu,Salem,"Sona College of Technology, Salem - TNPCB",29-04-2024 06:00:00,11.679111,78.125052,SO2,101,101,101
India,TamilNadu,Thoothukudi,"Meelavittan, Thoothukudi - TNPCB",29-04-2024 06:00:00,8.816428 ,78.099039,SO2,NA,NA,NA
India,TamilNadu,Virudhunagar,"Collectorate Office, Virudhunagar - TNPCB",29-04-2024 06:00:00,9.559382,77.948828,PM10,17,46,30
India,TamilNadu,Virudhunagar,"Collectorate Office, Virudhunagar - TNPCB",29-04-2024 06:00:00,9.559382,77.948828,SO2,7,47,10
India,Telangana,Hyderabad,"Bollaram Industrial Area, Hyderabad - TSPCB",29-04-2024 06:00:00,17.540891,78.358528,NH3,2,2,2
India,Telangana,Hyderabad,"Central University, Hyderabad - TSPCB",29-04-2024 06:00:00,17.460103,78.334361,CO,14,32,24
India,Telangana,Hyderabad,"ICRISAT Patancheru, Hyderabad - TSPCB",29-04-2024 06:00:00,17.518400,78.278777,OZONE,41,144,52
India,Telangana,Hyderabad,"IITH Kandi, Hyderabad - TSPCB",29-04-2024 06:00:00,17.585705,78.126199,NH3,5,6,5
India,Telangana,Hyderabad,"Kompally Municipal Office, Hyderabad - TSPCB",29-04-2024 06:00:00,17.544899,78.486949,NO2,8,9,8
India,Telangana,Hyderabad,"Nacharam_TSIIC IALA, Hyderabad - TSPCB",29-04-2024 06:00:00,17.429398,78.569354,PM10,62,74,65
India,Telangana,Hyderabad,"Nacharam_TSIIC IALA, Hyderabad - TSPCB",29-04-2024 06:00:00,17.429398,78.569354,SO2,7,22,16
India,Telangana,Hyderabad,"Nacharam_TSIIC IALA, Hyderabad - TSPCB",29-04-2024 06:00:00,17.429398,78.569354,OZONE,16,57,57
India,Telangana,Hyderabad,"New Malakpet, Hyderabad - TSPCB",29-04-2024 06:00:00,17.37206,78.50864,SO2,9,14,11
India,Telangana,Hyderabad,"Ramachandrapuram, Hyderabad - TSPCB",29-04-2024 06:00:00,17.528544,78.286195,PM10,NA,NA,NA
India,Telangana,Hyderabad,"Ramachandrapuram, Hyderabad - TSPCB",29-04-2024 06:00:00,17.528544,78.286195,OZONE,NA,NA,NA
India,Telangana,Hyderabad,"Sanathnagar, Hyderabad - TSPCB",29-04-2024 06:00:00,17.4559458,78.4332152,CO,41,54,49
India,Telangana,Hyderabad,"Zoo Park, Hyderabad - TSPCB",29-04-2024 06:00:00,17.349694,78.451437,NO2,26,47,35
India,Telangana,Hyderabad,"Zoo Park, Hyderabad - TSPCB",29-04-2024 06:00:00,17.349694,78.451437,SO2,2,9,4
India,Tripura,Agartala,"Bardowali, Agartala - Tripura SPCB",29-04-2024 06:00:00,23.8175497,91.2726974,PM10,90,130,110
India,Uttar_Pradesh,Agra,"Manoharpur, Agra - UPPCB",29-04-2024 06:00:00,27.23711,78.01936,PM10,20,91,50
India,Uttar_Pradesh,Agra,"Shahjahan Garden, Agra - UPPCB",29-04-2024 06:00:00,27.169338,78.03582,SO2,18,28,21
India,Uttar_Pradesh,Agra,"Shastripuram, Agra - UPPCB",29-04-2024 06:00:00,27.19862,77.92066,NH3,1,7,3
India,Uttar_Pradesh,Baghpat,"Sardar Patel Inter College, Baghpat - UPPCB",29-04-2024 06:00:00,28.964949,77.278761,PM2.5,34,201,108
India,Uttar_Pradesh,Bareilly,"Civil Lines, Bareilly - UPPCB",29-04-2024 06:00:00,28.359581,79.414455,SO2,49,56,53
India,Uttar_Pradesh,Firozabad,"Nagla Bhau, Firozabad - UPPCB",29-04-2024 06:00:00,27.168897,78.376960,CO,NA,NA,NA
India,Uttar_Pradesh,Ghaziabad,"Indirapuram, Ghaziabad - UPPCB",29-04-2024 06:00:00,28.646233,77.358075,NH3,5,7,6
India,Uttar_Pradesh,Ghaziabad,"Loni, Ghaziabad - UPPCB",29-04-2024 06:00:00,28.757294,77.278792,SO2,6,82,38
India,Uttar_Pradesh,Ghaziabad,"Sanjay Nagar, Ghaziabad - UPPCB",29-04-2024 06:00:00,28.685382,77.453839,NO2,22,113,59
India,Uttar_Pradesh,Ghaziabad,"Vasundhara, Ghaziabad - UPPCB",29-04-2024 06:00:00,28.6603346,77.3572563,PM2.5,18,142,67
India,Uttar_Pradesh,Greater Noida,"Knowledge Park - III, Greater Noida - UPPCB",29-04-2024 06:00:00,28.47272,77.482000,PM2.5,45,323,191
India,Uttar_Pradesh,Greater Noida,"Knowledge Park - III, Greater Noida - UPPCB",29-04-2024 06:00:00,28.47272,77.482000,NO2,18,117,66
India,Uttar_Pradesh,Greater Noida,"Knowledge Park - V, Greater Noida - UPPCB",29-04-2024 06:00:00,28.557054,77.453663,CO,45,116,87
India,Uttar_Pradesh,Hapur,"Anand Vihar, Hapur - UPPCB",29-04-2024 06:00:00,28.725645,77.749675,PM10,NA,NA,NA
India,Uttar_Pradesh,Hapur,"Anand Vihar, Hapur - UPPCB",29-04-2024 06:00:00,28.725645,77.749675,NO2,NA,NA,NA
India,Uttar_Pradesh,Kanpur,"FTI Kidwai Nagar, Kanpur - UPPCB",29-04-2024 06:00:00,26.428282,80.327067,SO2,25,34,30
India,Uttar_Pradesh,Kanpur,"FTI Kidwai Nagar, Kanpur - UPPCB",29-04-2024 06:00:00,26.428282,80.327067,CO,24,42,41
India,Uttar_Pradesh,Kanpur,"NSI Kalyanpur, Kanpur - UPPCB",29-04-2024 06:00:00,26.509954,80.249612,PM2.5,46,124,79
India,Uttar_Pradesh,Kanpur,"NSI Kalyanpur, Kanpur - UPPCB",29-04-2024 06:00:00,26.509954,80.249612,PM10,118,175,147
India,Uttar_Pradesh,Kanpur,"NSI Kalyanpur, Kanpur - UPPCB",29-04-2024 06:00:00,26.509954,80.249612,NH3,1,2,1
India,Uttar_Pradesh,Kanpur,"NSI Kalyanpur, Kanpur - UPPCB",29-04-2024 06:00:00,26.509954,80.249612,SO2,20,24,21
India,Uttar_Pradesh,Kanpur,"NSI Kalyanpur, Kanpur - UPPCB",29-04-2024 06:00:00,26.509954,80.249612,OZONE,28,59,51
India,Uttar_Pradesh,Kanpur,"Nehru Nagar, Kanpur - UPPCB",29-04-2024 06:00:00,26.4703136,80.3229863,PM10,30,139,70
India,Uttar_Pradesh,Kanpur,"Nehru Nagar, Kanpur - UPPCB",29-04-2024 06:00:00,26.4703136,80.3229863,NO2,25,48,38
India,Uttar_Pradesh,Lucknow,"B R Ambedkar University, Lucknow - UPPCB",29-04-2024 06:00:00,26.766433,80.927299,PM2.5,53,155,85
India,Uttar_Pradesh,Lucknow,"Gomti Nagar, Lucknow - UPPCB",29-04-2024 06:00:00,26.868120,81.005119,CO,40,46,41
India,Uttar_Pradesh,Lucknow,"Lalbagh, Lucknow - CPCB",29-04-2024 06:00:00,26.8458805,80.9365541,NO2,10,33,20
India,Uttar_Pradesh,Lucknow,"Lalbagh, Lucknow - CPCB",29-04-2024 06:00:00,26.8458805,80.9365541,CO,18,113,45
India,Uttar_Pradesh,Lucknow,"Talkatora District Industries Center, Lucknow - CPCB",29-04-2024 06:00:00,26.83399722,80.8917361,NO2,35,76,51
India,Uttar_Pradesh,Lucknow,"Talkatora District Industries Center, Lucknow - CPCB",29-04-2024 06:00:00,26.83399722,80.8917361,NH3,9,18,14
India,Uttar_Pradesh,Meerut,"Ganga Nagar, Meerut - UPPCB",29-04-2024 06:00:00,28.999264,77.7590354,NH3,6,10,8
India,Uttar_Pradesh,Meerut,"Jai Bhim Nagar, Meerut - UPPCB",29-04-2024 06:00:00,28.9535882,77.7622941,PM2.5,24,287,105
India,Uttar_Pradesh,Meerut,"Jai Bhim Nagar, Meerut - UPPCB",29-04-2024 06:00:00,28.9535882,77.7622941,PM10,69,194,119
India,Uttar_Pradesh,Meerut,"Jai Bhim Nagar, Meerut - UPPCB",29-04-2024 06:00:00,28.9535882,77.7622941,NO2,40,76,55
India,Uttar_Pradesh,Meerut,"Pallavpuram Phase 2, Meerut - UPPCB",29-04-2024 06:00:00,29.063510,77.709723,PM10,102,439,174
India,Uttar_Pradesh,Meerut,"Pallavpuram Phase 2, Meerut - UPPCB",29-04-2024 06:00:00,29.063510,77.709723,NO2,11,152,51
India,Uttar_Pradesh,Meerut,"Pallavpuram Phase 2, Meerut - UPPCB",29-04-2024 06:00:00,29.063510,77.709723,SO2,3,61,26
India,Uttar_Pradesh,Meerut,"Pallavpuram Phase 2, Meerut - UPPCB",29-04-2024 06:00:00,29.063510,77.709723,CO,24,97,59
India,Uttar_Pradesh,Moradabad,"Buddhi Vihar, Moradabad - UPPCB",29-04-2024 06:00:00,28.83526,78.74460,OZONE,16,42,20
India,Uttar_Pradesh,Moradabad,"Eco Herbal Park, Moradabad - UPPCB",29-04-2024 06:00:00,28.840739,78.697531,NH3,5,10,7
India,Uttar_Pradesh,Moradabad,"Eco Herbal Park, Moradabad - UPPCB",29-04-2024 06:00:00,28.840739,78.697531,CO,4,42,21
India,Uttar_Pradesh,Moradabad,"Eco Herbal Park, Moradabad - UPPCB",29-04-2024 06:00:00,28.840739,78.697531,OZONE,23,223,55
India,Uttar_Pradesh,Moradabad,"Jigar Colony, Moradabad - UPPCB",29-04-2024 06:00:00,28.856664,78.772638,PM10,82,152,113
India,Uttar_Pradesh,Moradabad,"Kashiram Nagar, Moradabad - UPPCB",29-04-2024 06:00:00,28.849399,78.742362,SO2,33,48,41
India,Uttar_Pradesh,Moradabad,"Kashiram Nagar, Moradabad - UPPCB",29-04-2024 06:00:00,28.849399,78.742362,OZONE,12,74,24
India,Uttar_Pradesh,Muzaffarnagar,"New Mandi, Muzaffarnagar - UPPCB",29-04-2024 06:00:00,29.4723508,77.7194031,PM2.5,53,323,149
India,Uttar_Pradesh,Muzaffarnagar,"New Mandi, Muzaffarnagar - UPPCB",29-04-2024 06:00:00,29.4723508,77.7194031,PM10,110,260,171
India,Uttar_Pradesh,Muzaffarnagar,"New Mandi, Muzaffarnagar - UPPCB",29-04-2024 06:00:00,29.4723508,77.7194031,NO2,16,50,30
India,Uttar_Pradesh,Muzaffarnagar,"New Mandi, Muzaffarnagar - UPPCB",29-04-2024 06:00:00,29.4723508,77.7194031,OZONE,12,92,25
India,Uttar_Pradesh,Noida,"Sector - 125, Noida - UPPCB",29-04-2024 06:00:00,28.5447608,77.3231257,NH3,4,13,10
India,Uttar_Pradesh,Noida,"Sector - 62, Noida - IMD",29-04-2024 06:00:00,28.6245479,77.3577104,PM10,136,276,195
India,Uttar_Pradesh,Noida,"Sector-1, Noida - UPPCB",29-04-2024 06:00:00,28.5898,77.3101,PM2.5,28,244,120
India,Uttar_Pradesh,Noida,"Sector-1, Noida - UPPCB",29-04-2024 06:00:00,28.5898,77.3101,PM10,126,259,185
India,Uttar_Pradesh,Noida,"Sector-1, Noida - UPPCB",29-04-2024 06:00:00,28.5898,77.3101,NO2,29,104,67
India,Uttar_Pradesh,Noida,"Sector-1, Noida - UPPCB",29-04-2024 06:00:00,28.5898,77.3101,SO2,7,61,27
India,Uttar_Pradesh,Noida,"Sector-1, Noida - UPPCB",29-04-2024 06:00:00,28.5898,77.3101,OZONE,9,171,33
India,Uttar_Pradesh,Noida,"Sector-116, Noida - UPPCB",29-04-2024 06:00:00,28.569230,77.393848,NO2,16,103,53
India,Uttar_Pradesh,Noida,"Sector-116, Noida - UPPCB",29-04-2024 06:00:00,28.569230,77.393848,SO2,7,63,36
India,Uttar_Pradesh,Prayagraj,"Jhunsi, Prayagraj - UPPCB",29-04-2024 06:00:00,25.425602,81.917152,PM2.5,15,66,44
India,Uttar_Pradesh,Prayagraj,"Jhunsi, Prayagraj - UPPCB",29-04-2024 06:00:00,25.425602,81.917152,NH3,5,5,5
India,Uttar_Pradesh,Prayagraj,"Jhunsi, Prayagraj - UPPCB",29-04-2024 06:00:00,25.425602,81.917152,SO2,30,32,31
India,Uttar_Pradesh,Prayagraj,"Jhunsi, Prayagraj - UPPCB",29-04-2024 06:00:00,25.425602,81.917152,CO,4,31,21
India,Uttar_Pradesh,Prayagraj,"Nagar Nigam, Prayagraj - UPPCB",29-04-2024 06:00:00,25.44919916 ,81.82735986 ,PM2.5,37,72,50
India,Uttar_Pradesh,Prayagraj,"Nagar Nigam, Prayagraj - UPPCB",29-04-2024 06:00:00,25.44919916 ,81.82735986 ,PM10,39,166,101
India,Uttar_Pradesh,Varanasi,"Ardhali Bazar, Varanasi - UPPCB",29-04-2024 06:00:00,25.3505986,82.9083074,NO2,17,33,22
India,Uttar_Pradesh,Varanasi,"Ardhali Bazar, Varanasi - UPPCB",29-04-2024 06:00:00,25.3505986,82.9083074,OZONE,30,37,35
India,Uttar_Pradesh,Varanasi,"Bhelupur, Varanasi - UPPCB",29-04-2024 06:00:00,25.301778,82.996789,PM10,29,53,37
India,Uttar_Pradesh,Varanasi,"Bhelupur, Varanasi - UPPCB",29-04-2024 06:00:00,25.301778,82.996789,OZONE,4,44,11
India,Uttar_Pradesh,Varanasi,"IESD Banaras Hindu University, Varanasi - UPPCB",29-04-2024 06:00:00,25.262326,82.995408,PM2.5,NA,NA,NA
India,Uttar_Pradesh,Varanasi,"IESD Banaras Hindu University, Varanasi - UPPCB",29-04-2024 06:00:00,25.262326,82.995408,PM10,22,49,33
India,Uttar_Pradesh,Vrindavan,"Omex Eternity, Vrindavan - UPPCB",29-04-2024 06:00:00,27.5714090,77.6557570,NH3,1,2,1
India,Uttarakhand,Dehradun,"Doon University, Dehradun - UKPCB",29-04-2024 06:00:00,30.269444,78.044167,NO2,1,8,3
India,Uttarakhand,Dehradun,"Doon University, Dehradun - UKPCB",29-04-2024 06:00:00,30.269444,78.044167,CO,12,37,21
India,Uttarakhand,Kashipur,"Govt. Girls Inter College, Kashipur - UKPCB",29-04-2024 06:00:00,29.2124114,78.9611753,NH3,7,12,10
India,Uttarakhand,Kashipur,"Govt. Girls Inter College, Kashipur - UKPCB",29-04-2024 06:00:00,29.2124114,78.9611753,SO2,5,9,8
India,Uttarakhand,Rishikesh,"Shivaji Nagar, Rishikesh - UKPCB",29-04-2024 06:00:00,30.075911,78.2859547,OZONE,21,104,35
India,West_Bengal,Barrackpore,"SVSPA Campus, Barrackpore - WBPCB",29-04-2024 06:00:00,22.7605581,88.3617589,OZONE,15,85,29
India,West_Bengal,Durgapur,"PCBL Residential Complex, Durgapur - WBPCB",29-04-2024 06:00:00,23.5087640,87.3544400,NO2,16,107,44
India,West_Bengal,Durgapur,"PCBL Residential Complex, Durgapur - WBPCB",29-04-2024 06:00:00,23.5087640,87.3544400,NH3,1,3,2
India,West_Bengal,Durgapur,"PCBL Residential Complex, Durgapur - WBPCB",29-04-2024 06:00:00,23.5087640,87.3544400,CO,24,104,31
India,West_Bengal,Durgapur,"Sidhu Kanhu Indoor Stadium, Durgapur - WBPCB",29-04-2024 06:00:00,23.5404352,87.2892225,NO2,15,46,29
India,West_Bengal,Durgapur,"Sidhu Kanhu Indoor Stadium, Durgapur - WBPCB",29-04-2024 06:00:00,23.5404352,87.2892225,CO,20,121,47
India,West_Bengal,Howrah,"Ghusuri, Howrah - WBPCB",29-04-2024 06:00:00,22.611968,88.347422,NH3,3,3,3
India,West_Bengal,Howrah,"Ghusuri, Howrah - WBPCB",29-04-2024 06:00:00,22.611968,88.347422,OZONE,14,25,17
India,West_Bengal,Howrah,"Padmapukur, Howrah - WBPCB",29-04-2024 06:00:00,22.5687319,88.2797276,PM10,64,109,83
India,West_Bengal,Howrah,"Padmapukur, Howrah - WBPCB",29-04-2024 06:00:00,22.5687319,88.2797276,OZONE,9,58,18
India,West_Bengal,Kolkata,"Ballygunge, Kolkata - WBPCB",29-04-2024 06:00:00,22.5367507,88.3638022,PM2.5,45,80,61
India,West_Bengal,Kolkata,"Ballygunge, Kolkata - WBPCB",29-04-2024 06:00:00,22.5367507,88.3638022,NH3,6,9,8
India,West_Bengal,Kolkata,"Fort William, Kolkata - WBPCB",29-04-2024 06:00:00,22.556640,88.342674,PM10,68,105,83
India,West_Bengal,Kolkata,"Fort William, Kolkata - WBPCB",29-04-2024 06:00:00,22.556640,88.342674,NO2,13,85,27
India,West_Bengal,Kolkata,"Fort William, Kolkata - WBPCB",29-04-2024 06:00:00,22.556640,88.342674,SO2,8,34,14
India,West_Bengal,Kolkata,"Fort William, Kolkata - WBPCB",29-04-2024 06:00:00,22.556640,88.342674,CO,12,33,20
India,West_Bengal,Kolkata,"Jadavpur, Kolkata - WBPCB",29-04-2024 06:00:00,22.49929,88.36917,PM2.5,31,62,50
India,West_Bengal,Kolkata,"Jadavpur, Kolkata - WBPCB",29-04-2024 06:00:00,22.49929,88.36917,NO2,19,29,23
India,West_Bengal,Kolkata,"Jadavpur, Kolkata - WBPCB",29-04-2024 06:00:00,22.49929,88.36917,CO,NA,NA,NA
India,West_Bengal,Kolkata,"Rabindra Bharati University, Kolkata - WBPCB",29-04-2024 06:00:00,22.627847,88.380669,NO2,34,37,35
India,West_Bengal,Kolkata,"Rabindra Bharati University, Kolkata - WBPCB",29-04-2024 06:00:00,22.627847,88.380669,NH3,17,18,18
India,West_Bengal,Kolkata,"Rabindra Bharati University, Kolkata - WBPCB",29-04-2024 06:00:00,22.627847,88.380669,SO2,4,9,8
India,West_Bengal,Kolkata,"Victoria, Kolkata - WBPCB",29-04-2024 06:00:00,22.5448082,88.3403691,NO2,18,22,20
India,West_Bengal,Kolkata,"Victoria, Kolkata - WBPCB",29-04-2024 06:00:00,22.5448082,88.3403691,NH3,4,4,4
India,West_Bengal,Kolkata,"Victoria, Kolkata - WBPCB",29-04-2024 06:00:00,22.5448082,88.3403691,OZONE,21,69,29
India,West_Bengal,Siliguri,"Ward-32 Bapupara, Siliguri - WBPCB",29-04-2024 06:00:00,26.6879226,88.4152495,PM2.5,NA,NA,NA
India,West_Bengal,Siliguri,"Ward-32 Bapupara, Siliguri - WBPCB",29-04-2024 06:00:00,26.6879226,88.4152495,PM10,52,220,104
India,Andhra_Pradesh,Amaravati,"Secretariat, Amaravati - APPCB",29-04-2024 06:00:00,16.5150833,80.5181667,NH3,4,4,4
India,Andhra_Pradesh,Amaravati,"Secretariat, Amaravati - APPCB",29-04-2024 06:00:00,16.5150833,80.5181667,CO,2,67,12
India,Andhra_Pradesh,Amaravati,"Secretariat, Amaravati - APPCB",29-04-2024 06:00:00,16.5150833,80.5181667,OZONE,2,76,5
India,Andhra_Pradesh,Anantapur,"Gulzarpet, Anantapur - APPCB",29-04-2024 06:00:00,14.675886,77.593027,NO2,12,13,12
India,Andhra_Pradesh,Anantapur,"Gulzarpet, Anantapur - APPCB",29-04-2024 06:00:00,14.675886,77.593027,CO,28,38,31
India,Andhra_Pradesh,Chittoor,"Gangineni Cheruvu, Chittoor - APPCB",29-04-2024 06:00:00,13.204880,79.097889,SO2,5,73,22
India,Andhra_Pradesh,Rajamahendravaram,"Anand Kala Kshetram, Rajamahendravaram - APPCB",29-04-2024 06:00:00,16.9872867,81.7363176,NH3,4,4,4
India,Andhra_Pradesh,Vijayawada,"Kanuru, Vijayawada - APPCB",29-04-2024 06:00:00,16.486692,80.699436,NO2,NA,NA,NA
India,Andhra_Pradesh,Vijayawada,"Kanuru, Vijayawada - APPCB",29-04-2024 06:00:00,16.486692,80.699436,OZONE,NA,NA,NA
India,Andhra_Pradesh,Vijayawada,"Rajiv Nagar, Vijayawada - APPCB",29-04-2024 06:00:00,16.554731,80.649110,SO2,10,20,14
India,Andhra_Pradesh,Visakhapatnam,"GVM Corporation, Visakhapatnam - APPCB",29-04-2024 06:00:00,17.72,83.3,PM2.5,28,98,54
India,Andhra_Pradesh,Visakhapatnam,"GVM Corporation, Visakhapatnam - APPCB",29-04-2024 06:00:00,17.72,83.3,PM10,58,158,98
India,Andhra_Pradesh,Visakhapatnam,"GVM Corporation, Visakhapatnam - APPCB",29-04-2024 06:00:00,17.72,83.3,NH3,3,6,4
India,Andhra_Pradesh,Visakhapatnam,"GVM Corporation, Visakhapatnam - APPCB",29-04-2024 06:00:00,17.72,83.3,CO,1,58,29
India,Assam,Byrnihat,"Central Academy for SFS, Byrnihat - PCBA",29-04-2024 06:00:00,26.071318,91.87488,PM2.5,25,374,109
India,Assam,Byrnihat,"Central Academy for SFS, Byrnihat - PCBA",29-04-2024 06:00:00,26.071318,91.87488,PM10,27,401,102
India,Assam,Byrnihat,"Central Academy for SFS, Byrnihat - PCBA",29-04-2024 06:00:00,26.071318,91.87488,NO2,46,121,71
India,Assam,Byrnihat,"Central Academy for SFS, Byrnihat - PCBA",29-04-2024 06:00:00,26.071318,91.87488,CO,34,94,52
India,Assam,Byrnihat,"Central Academy for SFS, Byrnihat - PCBA",29-04-2024 06:00:00,26.071318,91.87488,OZONE,7,122,23
India,Assam,Guwahati,"LGBI Airport, Guwahati - PCBA",29-04-2024 06:00:00,26.10887,91.589544,PM2.5,20,197,77
India,Assam,Guwahati,"Pan Bazaar, Guwahati - PCBA",29-04-2024 06:00:00,26.187500,91.744194,NH3,3,5,3
India,Assam,Guwahati,"Railway Colony, Guwahati - PCBA",29-04-2024 06:00:00,26.181742,91.78063,CO,12,27,14
India,Assam,Nalbari,"Bata Chowk, Nalbari - PCBA",29-04-2024 06:00:00,26.446912,91.439057,PM10,27,131,85
India,Assam,Nalbari,"Bata Chowk, Nalbari - PCBA",29-04-2024 06:00:00,26.446912,91.439057,SO2,10,13,11
India,Assam,Silchar,"Tarapur, Silchar - PCBA",29-04-2024 06:00:00,24.82827,92.79525,PM10,NA,NA,NA
India,Assam,Sivasagar,"Girls College, Sivasagar - PCBA",29-04-2024 06:00:00,26.987634,94.636574,PM2.5,28,46,38
India,Bihar,Araria,"Kharahiya Basti, Araria - BSPCB",29-04-2024 06:00:00,26.146529,87.454184,OZONE,1,10,9
India,Bihar,Arrah,"New DM Office, Arrah - BSPCB",29-04-2024 06:00:00,25.5626095,84.663264,NO2,3,62,17
India,Bihar,Arrah,"New DM Office, Arrah - BSPCB",29-04-2024 06:00:00,25.5626095,84.663264,OZONE,8,36,16
India,Bihar,Aurangabad,"Gurdeo Nagar, Aurangabad - BSPCB",29-04-2024 06:00:00,24.75746,84.366208,PM10,NA,NA,NA
India,Bihar,Aurangabad,"Gurdeo Nagar, Aurangabad - BSPCB",29-04-2024 06:00:00,24.75746,84.366208,OZONE,5,71,29
India,Bihar,Bettiah,"Kamalnath Nagar, Bettiah - BSPCB",29-04-2024 06:00:00,26.80365,84.51954,NH3,3,6,5
India,Bihar,Bhagalpur,"DM Office_Kachari Chowk, Bhagalpur - BSPCB",29-04-2024 06:00:00,25.251013,86.989001,PM2.5,47,170,88
India,Bihar,Bhagalpur,"DM Office_Kachari Chowk, Bhagalpur - BSPCB",29-04-2024 06:00:00,25.251013,86.989001,NO2,38,107,80
India,Bihar,Bhagalpur,"DM Office_Kachari Chowk, Bhagalpur - BSPCB",29-04-2024 06:00:00,25.251013,86.989001,OZONE,43,52,47
India,Bihar,Bhagalpur,"Mayaganj, Bhagalpur - BSPCB",29-04-2024 06:00:00,25.265194,87.012947,PM2.5,65,220,91
India,Bihar,Bhagalpur,"Mayaganj, Bhagalpur - BSPCB",29-04-2024 06:00:00,25.265194,87.012947,PM10,57,127,74
India,Bihar,Bihar Sharif,"D M Colony, Bihar Sharif - BSPCB",29-04-2024 06:00:00,25.204762,85.514960,NO2,NA,NA,NA
India,Bihar,Bihar Sharif,"D M Colony, Bihar Sharif - BSPCB",29-04-2024 06:00:00,25.204762,85.514960,NH3,NA,NA,NA
India,Bihar,Bihar Sharif,"D M Colony, Bihar Sharif - BSPCB",29-04-2024 06:00:00,25.204762,85.514960,CO,40,62,56
India,Bihar,Buxar,"Charitra Van, Buxar - BSPCB (Formerly known as Central Jail)",29-04-2024 06:00:00,25.567520,83.966379,NO2,1,1,1
India,Bihar,Chhapra,"Darshan Nagar, Chhapra - BSPCB",29-04-2024 06:00:00,25.7808257,84.7446768,PM2.5,75,160,120
India,Bihar,Chhapra,"Darshan Nagar, Chhapra - BSPCB",29-04-2024 06:00:00,25.7808257,84.7446768,SO2,2,26,10
India,Bihar,Gaya,"Collectorate, Gaya - BSPCB",29-04-2024 06:00:00,24.7955,84.9994,NO2,1,4,2
India,Bihar,Gaya,"Collectorate, Gaya - BSPCB",29-04-2024 06:00:00,24.7955,84.9994,SO2,1,17,11
India,Bihar,Gaya,"Collectorate, Gaya - BSPCB",29-04-2024 06:00:00,24.7955,84.9994,CO,12,47,29
India,Bihar,Gaya,"SFTI Kusdihra, Gaya - BSPCB",29-04-2024 06:00:00,24.762518,84.982348,CO,17,40,25
India,Bihar,Gaya,"SFTI Kusdihra, Gaya - BSPCB",29-04-2024 06:00:00,24.762518,84.982348,OZONE,3,83,23
India,Bihar,Hajipur,"Industrial Area, Hajipur - BSPCB",29-04-2024 06:00:00,25.697189,85.245900,PM2.5,54,96,82
India,Bihar,Hajipur,"Industrial Area, Hajipur - BSPCB",29-04-2024 06:00:00,25.697189,85.245900,SO2,5,9,8
India,Bihar,Katihar,"Mirchaibari, Katihar - BSPCB",29-04-2024 06:00:00,25.560083,87.553265,PM10,102,201,137
India,Bihar,Katihar,"Mirchaibari, Katihar - BSPCB",29-04-2024 06:00:00,25.560083,87.553265,SO2,17,22,20
India,Bihar,Kishanganj,"SDM Office_Khagra, Kishanganj - BSPCB",29-04-2024 06:00:00,26.0881305,87.93840336,PM2.5,73,240,124
India,Bihar,Kishanganj,"SDM Office_Khagra, Kishanganj - BSPCB",29-04-2024 06:00:00,26.0881305,87.93840336,NH3,9,11,10
India,Bihar,Kishanganj,"SDM Office_Khagra, Kishanganj - BSPCB",29-04-2024 06:00:00,26.0881305,87.93840336,CO,5,6,6
India,Bihar,Motihari,"Gandak Colony, Motihari - BSPCB",29-04-2024 06:00:00,26.63086,84.90051,PM2.5,25,217,80
India,Bihar,Munger,"Town Hall, Munger - BSPCB",29-04-2024 06:00:00,25.376776,86.471523,PM2.5,NA,NA,NA
India,Bihar,Muzaffarpur,"Buddha Colony, Muzaffarpur - BSPCB",29-04-2024 06:00:00,26.11442,85.39813,SO2,6,14,10
India,Bihar,Muzaffarpur,"Muzaffarpur Collectorate, Muzaffarpur - BSPCB",29-04-2024 06:00:00,26.1209,85.3647,NO2,NA,NA,NA
India,Bihar,Muzaffarpur,"Muzaffarpur Collectorate, Muzaffarpur - BSPCB",29-04-2024 06:00:00,26.1209,85.3647,OZONE,56,84,61
India,Bihar,Patna,"DRM Office Danapur, Patna - BSPCB",29-04-2024 06:00:00,25.586562,85.043586,PM10,136,180,155
India,Bihar,Patna,"DRM Office Danapur, Patna - BSPCB",29-04-2024 06:00:00,25.586562,85.043586,SO2,13,34,20
India,Bihar,Patna,"Govt. High School Shikarpur, Patna - BSPCB",29-04-2024 06:00:00,25.592539,85.227158,NO2,17,22,19
India,Bihar,Patna,"Govt. High School Shikarpur, Patna - BSPCB",29-04-2024 06:00:00,25.592539,85.227158,NH3,5,5,5
India,Bihar,Patna,"IGSC Planetarium Complex, Patna - BSPCB",29-04-2024 06:00:00,25.610369,85.132568,SO2,NA,NA,NA
India,Bihar,Patna,"Muradpur, Patna - BSPCB",29-04-2024 06:00:00,25.619651,85.147382,NH3,2,4,3
India,Bihar,Patna,"Rajbansi Nagar, Patna - BSPCB",29-04-2024 06:00:00,25.599486,85.113666,CO,19,64,42
India,Bihar,Patna,"Samanpura, Patna - BSPCB",29-04-2024 06:00:00,25.596727,85.085624,PM2.5,130,343,255
India,Bihar,Patna,"Samanpura, Patna - BSPCB",29-04-2024 06:00:00,25.596727,85.085624,PM10,212,435,271
India,Bihar,Patna,"Samanpura, Patna - BSPCB",29-04-2024 06:00:00,25.596727,85.085624,NH3,11,17,14
India,Bihar,Patna,"Samanpura, Patna - BSPCB",29-04-2024 06:00:00,25.596727,85.085624,OZONE,7,106,26
India,Bihar,Saharsa,"Police Line, Saharsa - BSPCB",29-04-2024 06:00:00,25.892357,86.590325,NO2,6,8,7
India,Bihar,Samastipur,"DM Office_Kasipur, Samastipur - BSPCB",29-04-2024 06:00:00,25.859655,85.77944,PM10,89,178,119
India,Bihar,Samastipur,"DM Office_Kasipur, Samastipur - BSPCB",29-04-2024 06:00:00,25.859655,85.77944,NH3,2,4,3
India,Bihar,Siwan,"Chitragupta Nagar, Siwan - BSPCB",29-04-2024 06:00:00,26.2271665,84.3570427,PM10,NA,NA,NA
India,Chandigarh,Chandigarh,"Sector 22, Chandigarh - CPCC",29-04-2024 06:00:00,30.735567,76.775714,SO2,6,32,15
India,Chandigarh,Chandigarh,"Sector 22, Chandigarh - CPCC",29-04-2024 06:00:00,30.735567,76.775714,CO,32,60,51
India,Chandigarh,Chandigarh,"Sector-53, Chandigarh - CPCC",29-04-2024 06:00:00,30.719859,76.738637,PM10,75,278,112
India,Chhattisgarh,Bhilai,"32Bungalows, Bhilai - CECB",29-04-2024 06:00:00,21.194815,81.314770,SO2,14,18,15
India,Chhattisgarh,Bhilai,"32Bungalows, Bhilai - CECB",29-04-2024 06:00:00,21.194815,81.314770,OZONE,5,23,6
India,Chhattisgarh,Bhilai,"Civic Center, Bhilai - Bhilai Steel Plant",29-04-2024 06:00:00,21.185571,81.343175,PM10,23,96,58
India,Chhattisgarh,Bhilai,"Civic Center, Bhilai - Bhilai Steel Plant",29-04-2024 06:00:00,21.185571,81.343175,NO2,11,16,13
India,Chhattisgarh,Bhilai,"Civic Center, Bhilai - Bhilai Steel Plant",29-04-2024 06:00:00,21.185571,81.343175,CO,20,68,49
India,Chhattisgarh,Bhilai,"Civic Center, Bhilai - Bhilai Steel Plant",29-04-2024 06:00:00,21.185571,81.343175,OZONE,7,57,8
India,Chhattisgarh,Bhilai,"Hathkhoj, Bhilai - CECB",29-04-2024 06:00:00,21.224231,81.408350,NH3,7,8,8
India,Chhattisgarh,Bhilai,"Hathkhoj, Bhilai - CECB",29-04-2024 06:00:00,21.224231,81.408350,SO2,4,35,19
India,Chhattisgarh,Bilaspur,"Mangala, Bilaspur - NTPC",29-04-2024 06:00:00,22.08815,82.13737,NO2,NA,NA,NA
India,Chhattisgarh,Bilaspur,"Mangala, Bilaspur - NTPC",29-04-2024 06:00:00,22.08815,82.13737,SO2,NA,NA,NA
India,Chhattisgarh,Chhal,"Nawapara SECL Colony, Chhal - CECB",29-04-2024 06:00:00,22.118125,83.140608,OZONE,1,63,6
India,Chhattisgarh,Korba,"Rampur, Korba - CECB",29-04-2024 06:00:00,22.368195,82.746431,PM2.5,21,55,40
India,Chhattisgarh,Korba,"Urja Nagar, Korba - CECB",29-04-2024 06:00:00,22.348441,82.549611,NH3,2,16,6
India,Chhattisgarh,Milupara,"Govt. Higher Secondary School, Milupara - CECB",29-04-2024 06:00:00,22.1910172,83.5197009,NO2,20,85,45
India,Chhattisgarh,Milupara,"Govt. Higher Secondary School, Milupara - CECB",29-04-2024 06:00:00,22.1910172,83.5197009,SO2,NA,NA,NA
India,Chhattisgarh,Raipur,"AIIMS, Raipur - CECB",29-04-2024 06:00:00,21.258815,81.578979,SO2,7,32,18
India,Chhattisgarh,Raipur,"Bhatagaon New ISBT, Raipur - CECB",29-04-2024 06:00:00,21.219665,81.630094,NO2,36,57,43
India,Chhattisgarh,Raipur,"Krishak Nagar, Raipur - CECB",29-04-2024 06:00:00,21.237755,81.705301,PM10,35,109,67
India,Chhattisgarh,Raipur,"Krishak Nagar, Raipur - CECB",29-04-2024 06:00:00,21.237755,81.705301,CO,28,54,45
India,Chhattisgarh,Raipur,"Siltara Phase-II, Raipur - CECB",29-04-2024 06:00:00,21.371751,81.664929,SO2,1,88,15
India,Delhi,Delhi,"Alipur, Delhi - DPCC",29-04-2024 06:00:00,28.815329,77.153010,PM2.5,37,312,135
India,Delhi,Delhi,"Alipur, Delhi - DPCC",29-04-2024 06:00:00,28.815329,77.153010,NH3,4,10,7
India,Delhi,Delhi,"Alipur, Delhi - DPCC",29-04-2024 06:00:00,28.815329,77.153010,SO2,12,32,21
India,Delhi,Delhi,"Alipur, Delhi - DPCC",29-04-2024 06:00:00,28.815329,77.153010,OZONE,2,156,16
India,Delhi,Delhi,"Anand Vihar, Delhi - DPCC",29-04-2024 06:00:00,28.647622,77.3158090,SO2,NA,NA,NA
India,Delhi,Delhi,"Ashok Vihar, Delhi - DPCC",29-04-2024 06:00:00,28.695381,77.181665,PM10,122,307,191
India,Delhi,Delhi,"Ashok Vihar, Delhi - DPCC",29-04-2024 06:00:00,28.695381,77.181665,NO2,5,100,51
India,Delhi,Delhi,"Ashok Vihar, Delhi - DPCC",29-04-2024 06:00:00,28.695381,77.181665,SO2,21,53,36
India,Delhi,Delhi,"Aya Nagar, Delhi - IMD",29-04-2024 06:00:00,28.4706914,77.1099364,PM2.5,75,276,150
India,Delhi,Delhi,"Aya Nagar, Delhi - IMD",29-04-2024 06:00:00,28.4706914,77.1099364,NO2,27,46,34
India,Delhi,Delhi,"Bawana, Delhi - DPCC",29-04-2024 06:00:00,28.776200,77.051074,PM2.5,38,382,188
India,Delhi,Delhi,"Bawana, Delhi - DPCC",29-04-2024 06:00:00,28.776200,77.051074,PM10,119,426,260
India,Delhi,Delhi,"Bawana, Delhi - DPCC",29-04-2024 06:00:00,28.776200,77.051074,OZONE,10,139,23
India,Delhi,Delhi,"Burari Crossing, Delhi - IMD",29-04-2024 06:00:00,28.7256504,77.2011573,CO,20,51,45
India,Delhi,Delhi,"Chandni Chowk, Delhi - IITM",29-04-2024 06:00:00,28.656756,77.227234,NO2,200,379,297
India,Delhi,Delhi,"DTU, Delhi - CPCB",29-04-2024 06:00:00,28.7500499,77.1112615,PM2.5,62,318,168
India,Delhi,Delhi,"Dr. Karni Singh Shooting Range, Delhi - DPCC",29-04-2024 06:00:00,28.498571,77.264840,PM10,123,330,189
India,Delhi,Delhi,"Dr. Karni Singh Shooting Range, Delhi - DPCC",29-04-2024 06:00:00,28.498571,77.264840,NH3,6,9,7
India,Delhi,Delhi,"Dwarka-Sector 8, Delhi - DPCC ",29-04-2024 06:00:00,28.5710274,77.0719006,PM2.5,40,188,108
India,Delhi,Delhi,"IGI Airport (T3), Delhi - IMD",29-04-2024 06:00:00,28.5627763,77.1180053,PM10,116,400,189
India,Delhi,Delhi,"IGI Airport (T3), Delhi - IMD",29-04-2024 06:00:00,28.5627763,77.1180053,NO2,3,12,8
India,Delhi,Delhi,"IGI Airport (T3), Delhi - IMD",29-04-2024 06:00:00,28.5627763,77.1180053,CO,28,102,84
India,Delhi,Delhi,"Jahangirpuri, Delhi - DPCC",29-04-2024 06:00:00,28.732820,77.170633,PM10,127,343,202
India,Delhi,Delhi,"Jahangirpuri, Delhi - DPCC",29-04-2024 06:00:00,28.732820,77.170633,NO2,31,135,82
India,Delhi,Delhi,"Jawaharlal Nehru Stadium, Delhi - DPCC",29-04-2024 06:00:00,28.580280,77.233829,NH3,9,11,10
India,Delhi,Delhi,"Najafgarh, Delhi - DPCC",29-04-2024 06:00:00,28.570173,76.933762,PM2.5,33,323,138
India,Delhi,Delhi,"Najafgarh, Delhi - DPCC",29-04-2024 06:00:00,28.570173,76.933762,CO,40,78,65
India,Delhi,Delhi,"Narela, Delhi - DPCC",29-04-2024 06:00:00,28.822836,77.101981,NO2,6,90,40
India,Delhi,Delhi,"Nehru Nagar, Delhi - DPCC",29-04-2024 06:00:00,28.567890,77.250515,OZONE,2,184,7
India,Delhi,Delhi,"Okhla Phase-2, Delhi - DPCC",29-04-2024 06:00:00,28.530785,77.271255,PM2.5,39,308,130
India,Delhi,Delhi,"Okhla Phase-2, Delhi - DPCC",29-04-2024 06:00:00,28.530785,77.271255,PM10,115,456,214
India,Delhi,Delhi,"Patparganj, Delhi - DPCC",29-04-2024 06:00:00,28.623763,77.287209,PM2.5,37,290,103
India,Delhi,Delhi,"Patparganj, Delhi - DPCC",29-04-2024 06:00:00,28.623763,77.287209,SO2,1,10,5
India,Delhi,Delhi,"Patparganj, Delhi - DPCC",29-04-2024 06:00:00,28.623763,77.287209,CO,49,98,84
India,Delhi,Delhi,"Punjabi Bagh, Delhi - DPCC",29-04-2024 06:00:00,28.674045,77.131023,CO,37,96,63
India,Delhi,Delhi,"Punjabi Bagh, Delhi - DPCC",29-04-2024 06:00:00,28.674045,77.131023,OZONE,2,42,3
India,Delhi,Delhi,"Pusa, Delhi - DPCC",29-04-2024 06:00:00,28.639652,77.146275,PM10,121,299,180
India,Delhi,Delhi,"Pusa, Delhi - DPCC",29-04-2024 06:00:00,28.639652,77.146275,NH3,6,8,7
India,Delhi,Delhi,"Pusa, Delhi - DPCC",29-04-2024 06:00:00,28.639652,77.146275,CO,20,85,53
India,Delhi,Delhi,"Pusa, Delhi - IMD",29-04-2024 06:00:00,28.636110,77.173332,PM10,130,271,173
India,Delhi,Delhi,"Pusa, Delhi - IMD",29-04-2024 06:00:00,28.636110,77.173332,NO2,5,30,16
India,Delhi,Delhi,"R K Puram, Delhi - DPCC",29-04-2024 06:00:00,28.563262,77.186937,PM2.5,60,263,133
India,Delhi,Delhi,"R K Puram, Delhi - DPCC",29-04-2024 06:00:00,28.563262,77.186937,CO,4,118,104
India,Delhi,Delhi,"Rohini, Delhi - DPCC",29-04-2024 06:00:00,28.732528,77.119920,NH3,7,14,10
India,Delhi,Delhi,"Rohini, Delhi - DPCC",29-04-2024 06:00:00,28.732528,77.119920,SO2,8,32,19
India,Delhi,Delhi,"Rohini, Delhi - DPCC",29-04-2024 06:00:00,28.732528,77.119920,CO,16,68,57
India,Delhi,Delhi,"Shadipur, Delhi - CPCB",29-04-2024 06:00:00,28.6514781,77.1473105,NH3,5,7,6
India,Delhi,Delhi,"Shadipur, Delhi - CPCB",29-04-2024 06:00:00,28.6514781,77.1473105,CO,19,36,26
India,Delhi,Delhi,"Shadipur, Delhi - CPCB",29-04-2024 06:00:00,28.6514781,77.1473105,OZONE,61,113,91
India,Delhi,Delhi,"Sonia Vihar, Delhi - DPCC",29-04-2024 06:00:00,28.710508,77.249485,PM10,NA,NA,NA
India,Delhi,Delhi,"Sonia Vihar, Delhi - DPCC",29-04-2024 06:00:00,28.710508,77.249485,SO2,NA,NA,NA
India,Delhi,Delhi,"Vivek Vihar, Delhi - DPCC",29-04-2024 06:00:00,28.672342,77.315260,PM2.5,30,319,148
India,Delhi,Delhi,"Vivek Vihar, Delhi - DPCC",29-04-2024 06:00:00,28.672342,77.315260,OZONE,1,118,16
India,Delhi,Delhi,"Wazirpur, Delhi - DPCC",29-04-2024 06:00:00,28.699793,77.165453,OZONE,6,152,12
India,Gujarat,Ahmedabad,"Chandkheda, Ahmedabad - IITM",29-04-2024 06:00:00,23.107969,72.574648,PM10,67,237,111
India,Gujarat,Ahmedabad,"Chandkheda, Ahmedabad - IITM",29-04-2024 06:00:00,23.107969,72.574648,OZONE,10,56,18
India,Gujarat,Ahmedabad,"Maninagar, Ahmedabad - GPCB",29-04-2024 06:00:00,23.002657,72.591912,NO2,22,73,37
India,Gujarat,Ahmedabad,"Rakhial, Ahmedabad - IITM",29-04-2024 06:00:00,23.016834,72.625775,PM2.5,71,182,110
India,Gujarat,Ahmedabad,"Rakhial, Ahmedabad - IITM",29-04-2024 06:00:00,23.016834,72.625775,NO2,63,111,90
India,Gujarat,Ahmedabad,"Rakhial, Ahmedabad - IITM",29-04-2024 06:00:00,23.016834,72.625775,CO,30,88,52
India,Gujarat,Ahmedabad,"SAC ISRO Satellite, Ahmedabad - IITM",29-04-2024 06:00:00,23.023389,72.515201,PM2.5,83,135,123
India,Gujarat,Ankleshwar,"GIDC, Ankleshwar - GPCB",29-04-2024 06:00:00,21.613267,73.010555,NO2,NA,NA,NA
India,Gujarat,Surat,"Science Center, Surat - SMC",29-04-2024 06:00:00,21.170046,72.795405,SO2,1,7,4
India,Gujarat,Vapi,"Phase-1 GIDC, Vapi - GPCB",29-04-2024 06:00:00,20.362421,72.918013,PM2.5,35,156,71
India,Gujarat,Vapi,"Phase-1 GIDC, Vapi - GPCB",29-04-2024 06:00:00,20.362421,72.918013,NO2,6,7,7
India,Gujarat,Vapi,"Phase-1 GIDC, Vapi - GPCB",29-04-2024 06:00:00,20.362421,72.918013,NH3,2,2,2
India,Gujarat,Vapi,"Phase-1 GIDC, Vapi - GPCB",29-04-2024 06:00:00,20.362421,72.918013,SO2,53,54,53
India,Gujarat,Vatva,"Phase-4 GIDC, Vatva - GPCB",29-04-2024 06:00:00,22.969611,72.643500,PM2.5,31,85,49
India,Gujarat,Vatva,"Phase-4 GIDC, Vatva - GPCB",29-04-2024 06:00:00,22.969611,72.643500,PM10,59,130,93
India,Gujarat,Vatva,"Phase-4 GIDC, Vatva - GPCB",29-04-2024 06:00:00,22.969611,72.643500,SO2,1,65,20
India,Gujarat,Vatva,"Phase-4 GIDC, Vatva - GPCB",29-04-2024 06:00:00,22.969611,72.643500,OZONE,12,69,22
India,Haryana,Ambala,"Patti Mehar, Ambala - HSPCB",29-04-2024 06:00:00,30.379589,76.778328,PM10,32,103,62
India,Haryana,Ambala,"Patti Mehar, Ambala - HSPCB",29-04-2024 06:00:00,30.379589,76.778328,NO2,3,4,4
India,Haryana,Bahadurgarh,"Arya Nagar, Bahadurgarh - HSPCB",29-04-2024 06:00:00,28.6701,76.9254,PM10,98,246,155
India,Haryana,Bahadurgarh,"Arya Nagar, Bahadurgarh - HSPCB",29-04-2024 06:00:00,28.6701,76.9254,NO2,20,26,23
India,Haryana,Ballabgarh,"Nathu Colony, Ballabgarh - HSPCB",29-04-2024 06:00:00,28.3419248,77.319699,NH3,1,3,2
India,Haryana,Ballabgarh,"Nathu Colony, Ballabgarh - HSPCB",29-04-2024 06:00:00,28.3419248,77.319699,SO2,1,29,13
India,Haryana,Ballabgarh,"Nathu Colony, Ballabgarh - HSPCB",29-04-2024 06:00:00,28.3419248,77.319699,OZONE,3,31,11
India,Haryana,Bhiwani,"H.B. Colony, Bhiwani - HSPCB",29-04-2024 06:00:00,28.806223,76.141105,PM2.5,10,240,124
India,Haryana,Bhiwani,"H.B. Colony, Bhiwani - HSPCB",29-04-2024 06:00:00,28.806223,76.141105,NO2,5,11,9
India,Haryana,Bhiwani,"H.B. Colony, Bhiwani - HSPCB",29-04-2024 06:00:00,28.806223,76.141105,CO,2,141,41
India,Haryana,Dharuhera,"Municipal Corporation Office, Dharuhera -  HSPCB",29-04-2024 06:00:00,28.206800,76.799700,SO2,5,101,37
India,Haryana,Faridabad,"New Industrial Town, Faridabad - HSPCB",29-04-2024 06:00:00,28.39072,77.30059,NO2,11,21,15
India,Haryana,Faridabad,"Sector 11, Faridabad - HSPCB",29-04-2024 06:00:00,28.376058,77.315741,NO2,31,32,32
India,Haryana,Faridabad,"Sector- 16A, Faridabad - HSPCB",29-04-2024 06:00:00,28.4088421,77.3099081,NO2,8,30,18
India,Haryana,Gurugram,"Sector-51, Gurugram - HSPCB",29-04-2024 06:00:00,28.4227,77.0667,SO2,2,103,8
India,Haryana,Gurugram,"Sector-51, Gurugram - HSPCB",29-04-2024 06:00:00,28.4227,77.0667,OZONE,27,67,42
India,Haryana,Gurugram,"Teri Gram, Gurugram - HSPCB",29-04-2024 06:00:00,28.4275,77.1465,NO2,NA,NA,NA
India,Haryana,Gurugram,"Vikas Sadan, Gurugram - HSPCB",29-04-2024 06:00:00,28.4501238,77.0263051,NO2,5,24,14
India,Haryana,Gurugram,"Vikas Sadan, Gurugram - HSPCB",29-04-2024 06:00:00,28.4501238,77.0263051,CO,55,149,102
India,Haryana,Gurugram,"Vikas Sadan, Gurugram - HSPCB",29-04-2024 06:00:00,28.4501238,77.0263051,OZONE,7,68,9
India,Haryana,Hisar,"Urban Estate-II, Hisar - HSPCB",29-04-2024 06:00:00,29.140560,75.744941,PM2.5,62,113,82
India,Haryana,Hisar,"Urban Estate-II, Hisar - HSPCB",29-04-2024 06:00:00,29.140560,75.744941,SO2,7,44,20
India,Haryana,Hisar,"Urban Estate-II, Hisar - HSPCB",29-04-2024 06:00:00,29.140560,75.744941,CO,20,40,25
India,Haryana,Jind,"Police Lines, Jind - HSPCB",29-04-2024 06:00:00,29.307814,76.337619,NH3,2,5,4
India,Haryana,Kaithal,"Rishi Nagar, Kaithal - HSPCB",29-04-2024 06:00:00,29.8006,76.4155,PM2.5,33,95,62
India,Haryana,Kaithal,"Rishi Nagar, Kaithal - HSPCB",29-04-2024 06:00:00,29.8006,76.4155,NH3,8,8,8
India,Haryana,Kaithal,"Rishi Nagar, Kaithal - HSPCB",29-04-2024 06:00:00,29.8006,76.4155,SO2,39,83,50
India,Haryana,Kaithal,"Rishi Nagar, Kaithal - HSPCB",29-04-2024 06:00:00,29.8006,76.4155,OZONE,8,16,10
India,Haryana,Karnal,"Sector-12, Karnal - HSPCB",29-04-2024 06:00:00,29.695300,77.002700,PM2.5,45,259,149
India,Haryana,Karnal,"Sector-12, Karnal - HSPCB",29-04-2024 06:00:00,29.695300,77.002700,NH3,10,13,11
India,Haryana,Kurukshetra,"Sector-7, Kurukshetra - HSPCB",29-04-2024 06:00:00,29.966942,76.875879,NO2,10,10,10
India,Haryana,Kurukshetra,"Sector-7, Kurukshetra - HSPCB",29-04-2024 06:00:00,29.966942,76.875879,OZONE,1,64,20
India,Haryana,Mandikhera,"General Hospital, Mandikhera - HSPCB",29-04-2024 06:00:00,27.9002,76.9938,OZONE,21,34,26
India,Haryana,Manesar,"Sector-2 IMT, Manesar - HSPCB",29-04-2024 06:00:00,28.360699,76.936090,NH3,1,3,2
India,Haryana,Manesar,"Sector-2 IMT, Manesar - HSPCB",29-04-2024 06:00:00,28.360699,76.936090,OZONE,1,94,3
India,Haryana,Narnaul,"Shastri Nagar, Narnaul - HSPCB",29-04-2024 06:00:00,28.060249,76.113115,CO,10,54,46
India,Haryana,Palwal,"Shyam Nagar, Palwal - HSPCB",29-04-2024 06:00:00,28.1485564,77.3320667,PM2.5,37,101,70
India,Haryana,Panchkula,"Sector-6, Panchkula - HSPCB ",29-04-2024 06:00:00,30.7057778,76.8531805555555,PM2.5,17,246,99
India,Haryana,Panchkula,"Sector-6, Panchkula - HSPCB ",29-04-2024 06:00:00,30.7057778,76.8531805555555,SO2,2,2,2
India,Haryana,Panipat,"Sector-18, Panipat - HSPCB",29-04-2024 06:00:00,29.497973,76.993331,SO2,18,19,19
India,Haryana,Panipat,"Sector-18, Panipat - HSPCB",29-04-2024 06:00:00,29.497973,76.993331,OZONE,30,30,30
India,Haryana,Sirsa,"F-Block, Sirsa - HSPCB",29-04-2024 06:00:00,29.536400,75.015800,CO,58,101,68
India,Haryana,Sonipat,"Murthal, Sonipat - HSPCB",29-04-2024 06:00:00,29.027200,77.062100,CO,4,106,28
India,Haryana,Yamuna Nagar,"Gobind Pura, Yamuna Nagar - HSPCB",29-04-2024 06:00:00,30.1480566,77.2893471,PM10,NA,NA,NA
India,Haryana,Yamuna Nagar,"Gobind Pura, Yamuna Nagar - HSPCB",29-04-2024 06:00:00,30.1480566,77.2893471,NH3,NA,NA,NA
India,Himachal Pradesh,Baddi,"HIMUDA Complex Phase-1, Baddi - HPPCB",29-04-2024 06:00:00,30.943887,76.801991,PM10,31,295,107
India,Himachal Pradesh,Baddi,"HIMUDA Complex Phase-1, Baddi - HPPCB",29-04-2024 06:00:00,30.943887,76.801991,NO2,4,22,10
India,Karnataka,Belgaum,"Ramteerth Nagar, Belgaum - KSPCB",29-04-2024 06:00:00,15.888653,74.541751,NO2,1,46,26
India,Karnataka,Bengaluru,"BTM Layout, Bengaluru - CPCB",29-04-2024 06:00:00,12.9135218,77.5950804,NH3,4,4,4
India,Karnataka,Bengaluru,"BTM Layout, Bengaluru - CPCB",29-04-2024 06:00:00,12.9135218,77.5950804,SO2,9,9,9
India,Karnataka,Bengaluru,"Bapuji Nagar, Bengaluru - KSPCB",29-04-2024 06:00:00,12.951913,77.539784,PM10,35,109,62
India,Karnataka,Bengaluru,"Hebbal, Bengaluru - KSPCB",29-04-2024 06:00:00,13.029152,77.585901,PM2.5,15,70,44
India,Karnataka,Bengaluru,"Hebbal, Bengaluru - KSPCB",29-04-2024 06:00:00,13.029152,77.585901,CO,5,42,13
India,Karnataka,Bengaluru,"Hombegowda Nagar, Bengaluru - KSPCB",29-04-2024 06:00:00,12.938539,77.590100,NH3,1,1,1
India,Karnataka,Bengaluru,"Jayanagar 5th Block, Bengaluru - KSPCB",29-04-2024 06:00:00,12.920984,77.584908,PM2.5,32,135,66
India,Karnataka,Bengaluru,"Kasturi Nagar, Bengaluru - KSPCB",29-04-2024 06:00:00,13.003872,77.664217,PM2.5,50,92,64
India,Karnataka,Bengaluru,"RVCE-Mailasandra, Bengaluru - KSPCB",29-04-2024 06:00:00,12.921418,77.502466,PM10,50,109,74
India,Karnataka,Bengaluru,"RVCE-Mailasandra, Bengaluru - KSPCB",29-04-2024 06:00:00,12.921418,77.502466,CO,26,48,35
India,Karnataka,Bengaluru,"Sanegurava Halli, Bengaluru - KSPCB",29-04-2024 06:00:00,12.990328,77.5431385,SO2,2,3,3
India,Karnataka,Bengaluru,"Sanegurava Halli, Bengaluru - KSPCB",29-04-2024 06:00:00,12.990328,77.5431385,CO,6,22,12
India,Karnataka,Bengaluru,"Shivapura_Peenya, Bengaluru - KSPCB",29-04-2024 06:00:00,13.0246342,77.5080115,SO2,2,36,16
India,Karnataka,Bengaluru,"Silk Board, Bengaluru - KSPCB",29-04-2024 06:00:00,12.917348,77.622813,PM2.5,40,88,54
India,Karnataka,Bengaluru,"Silk Board, Bengaluru - KSPCB",29-04-2024 06:00:00,12.917348,77.622813,SO2,1,19,6
India,Karnataka,Bidar,"Naubad, Bidar - KSPCB",29-04-2024 06:00:00,17.930306,77.482194,NO2,7,8,7
India,Karnataka,Chamarajanagar,"Urban, Chamarajanagar - KSPCB",29-04-2024 06:00:00,11.55358,76.55521,PM2.5,20,43,32
India,Karnataka,Chamarajanagar,"Urban, Chamarajanagar - KSPCB",29-04-2024 06:00:00,11.55358,76.55521,PM10,35,55,45
India,Karnataka,Chamarajanagar,"Urban, Chamarajanagar - KSPCB",29-04-2024 06:00:00,11.55358,76.55521,SO2,2,6,4
India,Karnataka,Chikkaballapur,"Chikkaballapur Rural, Chikkaballapur - KSPCB",29-04-2024 06:00:00,13.428828,77.731418,PM10,37,106,58
India,Karnataka,Chikkaballapur,"Chikkaballapur Rural, Chikkaballapur - KSPCB",29-04-2024 06:00:00,13.428828,77.731418,NH3,1,1,1
India,Karnataka,Chikkaballapur,"Chikkaballapur Rural, Chikkaballapur - KSPCB",29-04-2024 06:00:00,13.428828,77.731418,SO2,17,30,22
India,Karnataka,Chikkamagaluru,"Kalyana Nagara, Chikkamagaluru - KSPCB",29-04-2024 06:00:00,13.328028,75.797056,PM2.5,4,80,46
India,Karnataka,Chikkamagaluru,"Kalyana Nagara, Chikkamagaluru - KSPCB",29-04-2024 06:00:00,13.328028,75.797056,OZONE,12,65,13
India,Karnataka,Davanagere,"Devaraj Urs Badavane, Davanagere - KSPCB",29-04-2024 06:00:00,14.475800,75.905200,OZONE,20,23,20
India,Karnataka,Dharwad,"Kalabhavan, Dharwad - KSPCB",29-04-2024 06:00:00,15.459706,75.008381,PM10,74,138,100
India,Karnataka,Dharwad,"Kalabhavan, Dharwad - KSPCB",29-04-2024 06:00:00,15.459706,75.008381,NH3,3,3,3
India,Karnataka,Gadag,"Panchal Nagar, Gadag - KSPCB",29-04-2024 06:00:00,15.411456,75.638133,PM2.5,8,47,28
India,Karnataka,Gadag,"Panchal Nagar, Gadag - KSPCB",29-04-2024 06:00:00,15.411456,75.638133,NO2,5,23,14
India,Karnataka,Gadag,"Panchal Nagar, Gadag - KSPCB",29-04-2024 06:00:00,15.411456,75.638133,OZONE,28,90,37
India,Karnataka,Haveri,"Ashwini Nagar, Haveri - KSPCB",29-04-2024 06:00:00,14.791800,75.389600,PM10,NA,NA,NA
India,Karnataka,Haveri,"Ashwini Nagar, Haveri - KSPCB",29-04-2024 06:00:00,14.791800,75.389600,OZONE,18,19,19
India,Karnataka,Hubballi,"Deshpande Nagar, Hubballi - KSPCB",29-04-2024 06:00:00,15.351773,75.140726,NO2,26,27,27
India,Karnataka,Hubballi,"Lingaraj Nagar, Hubballi - KSPCB",29-04-2024 06:00:00,15.3714823,75.1160168,OZONE,25,87,29
