country,state,city,station,last_update,latitude,longitude,pollutant_id,pollutant_min,pollutant_max,pollutant_avg
India,Andhra_Pradesh,Anantapur,"Gulzarpet, Anantapur - APPCB",07-05-2024 06:00:00,14.675886,77.593027,PM2.5,31,53,42
India,Andhra_Pradesh,Anantapur,"Gulzarpet, Anantapur - APPCB",07-05-2024 06:00:00,14.675886,77.593027,CO,25,102,30
India,Andhra_Pradesh,Chittoor,"Gangineni Cheruvu, Chittoor - APPCB",07-05-2024 06:00:00,13.204880,79.097889,CO,NA,NA,NA
India,Andhra_Pradesh,Kadapa,"Yerramukkapalli, Kadapa - APPCB",07-05-2024 06:00:00,14.465052,78.824187,NO2,12,13,13
India,Andhra_Pradesh,Kadapa,"Yerramukkapalli, Kadapa - APPCB",07-05-2024 06:00:00,14.465052,78.824187,SO2,2,3,2
India,Andhra_Pradesh,Tirupati,"Tirumala, Tirupati - APPCB",07-05-2024 06:00:00,13.67,79.35,CO,36,57,40
India,Andhra_Pradesh,Tirupati,"Vaikuntapuram, Tirupati - APPCB",07-05-2024 06:00:00,13.615387,79.409230,PM2.5,15,340,81
India,Andhra_Pradesh,Tirupati,"Vaikuntapuram, Tirupati - APPCB",07-05-2024 06:00:00,13.615387,79.409230,CO,10,16,13
India,Andhra_Pradesh,Vijayawada,"HB Colony, Vijayawada - APPCB",07-05-2024 06:00:00,16.536107,80.594233,PM2.5,41,116,55
India,Andhra_Pradesh,Vijayawada,"Kanuru, Vijayawada - APPCB",07-05-2024 06:00:00,16.486692,80.699436,PM10,58,81,68
India,Andhra_Pradesh,Vijayawada,"Rajiv Gandhi Park, Vijayawada - APPCB",07-05-2024 06:00:00,16.509717,80.612222,NH3,2,5,4
India,Andhra_Pradesh,Visakhapatnam,"GVM Corporation, Visakhapatnam - APPCB",07-05-2024 06:00:00,17.72,83.3,PM2.5,13,55,36
India,Arunachal_Pradesh,Naharlagun,"Naharlagun, Naharlagun - APSPCB",07-05-2024 06:00:00,27.103358,93.679645,SO2,4,4,4
India,Assam,Byrnihat,"Central Academy for SFS, Byrnihat - PCBA",07-05-2024 06:00:00,26.071318,91.87488,PM2.5,27,82,50
India,Assam,Byrnihat,"Central Academy for SFS, Byrnihat - PCBA",07-05-2024 06:00:00,26.071318,91.87488,PM10,27,87,53
India,Assam,Guwahati,"IITG, Guwahati - PCBA",07-05-2024 06:00:00,26.2028636,91.70046436,NH3,5,5,5
India,Assam,Guwahati,"IITG, Guwahati - PCBA",07-05-2024 06:00:00,26.2028636,91.70046436,SO2,14,15,14
India,Assam,Guwahati,"LGBI Airport, Guwahati - PCBA",07-05-2024 06:00:00,26.10887,91.589544,NH3,6,11,8
India,Assam,Guwahati,"Pan Bazaar, Guwahati - PCBA",07-05-2024 06:00:00,26.187500,91.744194,PM10,NA,NA,NA
India,Assam,Guwahati,"Pan Bazaar, Guwahati - PCBA",07-05-2024 06:00:00,26.187500,91.744194,NO2,NA,NA,NA
India,Assam,Guwahati,"Railway Colony, Guwahati - PCBA",07-05-2024 06:00:00,26.181742,91.78063,CO,14,28,15
India,Assam,Nagaon,"Christianpatty, Nagaon - PCBA",07-05-2024 06:00:00,26.349082,92.68449,CO,41,60,46
India,Assam,Nalbari,"Bata Chowk, Nalbari - PCBA",07-05-2024 06:00:00,26.446912,91.439057,SO2,7,13,11
India,Assam,Silchar,"Tarapur, Silchar - PCBA",07-05-2024 06:00:00,24.82827,92.79525,SO2,3,6,5
India,Bihar,Araria,"Kharahiya Basti, Araria - BSPCB",07-05-2024 06:00:00,26.146529,87.454184,CO,NA,NA,NA
India,Bihar,Aurangabad,"Gurdeo Nagar, Aurangabad - BSPCB",07-05-2024 06:00:00,24.75746,84.366208,NO2,3,13,5
India,Bihar,Aurangabad,"Gurdeo Nagar, Aurangabad - BSPCB",07-05-2024 06:00:00,24.75746,84.366208,NH3,3,49,21
India,Bihar,Bhagalpur,"DM Office_Kachari Chowk, Bhagalpur - BSPCB",07-05-2024 06:00:00,25.251013,86.989001,NO2,47,76,59
India,Bihar,Bhagalpur,"DM Office_Kachari Chowk, Bhagalpur - BSPCB",07-05-2024 06:00:00,25.251013,86.989001,CO,30,82,40
India,Bihar,Bhagalpur,"Mayaganj, Bhagalpur - BSPCB",07-05-2024 06:00:00,25.265194,87.012947,NO2,4,10,7
India,Bihar,Bhagalpur,"Mayaganj, Bhagalpur - BSPCB",07-05-2024 06:00:00,25.265194,87.012947,SO2,11,12,12
India,Bihar,Bhagalpur,"Mayaganj, Bhagalpur - BSPCB",07-05-2024 06:00:00,25.265194,87.012947,CO,8,9,9
India,Bihar,Bihar Sharif,"D M Colony, Bihar Sharif - BSPCB",07-05-2024 06:00:00,25.204762,85.514960,PM2.5,23,217,67
India,Bihar,Bihar Sharif,"D M Colony, Bihar Sharif - BSPCB",07-05-2024 06:00:00,25.204762,85.514960,CO,54,59,56
India,Bihar,Bihar Sharif,"D M Colony, Bihar Sharif - BSPCB",07-05-2024 06:00:00,25.204762,85.514960,OZONE,53,85,61
India,Bihar,Buxar,"Charitra Van, Buxar - BSPCB (Formerly known as Central Jail)",07-05-2024 06:00:00,25.567520,83.966379,PM2.5,NA,NA,NA
India,Bihar,Buxar,"Charitra Van, Buxar - BSPCB (Formerly known as Central Jail)",07-05-2024 06:00:00,25.567520,83.966379,NO2,1,1,1
India,Bihar,Buxar,"Charitra Van, Buxar - BSPCB (Formerly known as Central Jail)",07-05-2024 06:00:00,25.567520,83.966379,OZONE,6,142,54
India,Bihar,Gaya,"Kareemganj, Gaya - BSPCB",07-05-2024 06:00:00,24.792403,84.992416,SO2,8,11,10
India,Bihar,Gaya,"SFTI Kusdihra, Gaya - BSPCB",07-05-2024 06:00:00,24.762518,84.982348,CO,28,44,32
India,Bihar,Gaya,"SFTI Kusdihra, Gaya - BSPCB",07-05-2024 06:00:00,24.762518,84.982348,OZONE,1,95,11
India,Bihar,Hajipur,"Industrial Area, Hajipur - BSPCB",07-05-2024 06:00:00,25.697189,85.245900,NO2,59,64,61
India,Bihar,Katihar,"Mirchaibari, Katihar - BSPCB",07-05-2024 06:00:00,25.560083,87.553265,NH3,4,8,6
India,Bihar,Kishanganj,"SDM Office_Khagra, Kishanganj - BSPCB",07-05-2024 06:00:00,26.0881305,87.93840336,NO2,26,28,28
India,Bihar,Manguraha,"Forest Rest House, Manguraha - BSPCB",07-05-2024 06:00:00,27.308328,84.531742,NO2,12,22,18
India,Bihar,Motihari,"Gandak Colony, Motihari - BSPCB",07-05-2024 06:00:00,26.63086,84.90051,OZONE,5,53,24
India,Bihar,Munger,"Town Hall, Munger - BSPCB",07-05-2024 06:00:00,25.376776,86.471523,SO2,19,31,24
India,Bihar,Munger,"Town Hall, Munger - BSPCB",07-05-2024 06:00:00,25.376776,86.471523,CO,48,86,56
India,Bihar,Munger,"Town Hall, Munger - BSPCB",07-05-2024 06:00:00,25.376776,86.471523,OZONE,28,42,30
India,Bihar,Muzaffarpur,"Buddha Colony, Muzaffarpur - BSPCB",07-05-2024 06:00:00,26.11442,85.39813,OZONE,25,38,27
India,Bihar,Muzaffarpur,"MIT-Daudpur Kothi, Muzaffarpur - BSPCB",07-05-2024 06:00:00,26.1403345,85.3650192,SO2,4,4,4
India,Bihar,Muzaffarpur,"MIT-Daudpur Kothi, Muzaffarpur - BSPCB",07-05-2024 06:00:00,26.1403345,85.3650192,CO,16,74,39
India,Bihar,Patna,"DRM Office Danapur, Patna - BSPCB",07-05-2024 06:00:00,25.586562,85.043586,SO2,6,12,9
India,Bihar,Patna,"Govt. High School Shikarpur, Patna - BSPCB",07-05-2024 06:00:00,25.592539,85.227158,PM2.5,53,152,108
India,Bihar,Patna,"Govt. High School Shikarpur, Patna - BSPCB",07-05-2024 06:00:00,25.592539,85.227158,CO,34,47,36
India,Bihar,Patna,"IGSC Planetarium Complex, Patna - BSPCB",07-05-2024 06:00:00,25.610369,85.132568,PM2.5,60,158,98
India,Bihar,Patna,"Muradpur, Patna - BSPCB",07-05-2024 06:00:00,25.619651,85.147382,NO2,19,105,37
India,Bihar,Patna,"Muradpur, Patna - BSPCB",07-05-2024 06:00:00,25.619651,85.147382,SO2,4,10,6
India,Bihar,Patna,"Rajbansi Nagar, Patna - BSPCB",07-05-2024 06:00:00,25.599486,85.113666,PM10,126,399,167
India,Bihar,Patna,"Samanpura, Patna - BSPCB",07-05-2024 06:00:00,25.596727,85.085624,PM2.5,NA,NA,NA
India,Bihar,Patna,"Samanpura, Patna - BSPCB",07-05-2024 06:00:00,25.596727,85.085624,PM10,120,200,169
India,Bihar,Purnia,"Mariam Nagar, Purnia - BSPCB",07-05-2024 06:00:00,25.366336,87.117468,NH3,2,12,8
India,Bihar,Samastipur,"DM Office_Kasipur, Samastipur - BSPCB",07-05-2024 06:00:00,25.859655,85.77944,PM2.5,22,283,76
India,Bihar,Samastipur,"DM Office_Kasipur, Samastipur - BSPCB",07-05-2024 06:00:00,25.859655,85.77944,NH3,2,4,3
India,Bihar,Samastipur,"DM Office_Kasipur, Samastipur - BSPCB",07-05-2024 06:00:00,25.859655,85.77944,CO,21,22,22
India,Bihar,Sasaram,"Dada Peer, Sasaram - BSPCB",07-05-2024 06:00:00,24.952822,84.002396,PM10,71,156,100
India,Bihar,Siwan,"Chitragupta Nagar, Siwan - BSPCB",07-05-2024 06:00:00,26.2271665,84.3570427,NH3,1,2,2
India,Chandigarh,Chandigarh,"Sector-53, Chandigarh - CPCC",07-05-2024 06:00:00,30.719859,76.738637,NO2,7,102,45
India,Chandigarh,Chandigarh,"Sector-53, Chandigarh - CPCC",07-05-2024 06:00:00,30.719859,76.738637,OZONE,9,74,14
India,Chhattisgarh,Bhilai,"32Bungalows, Bhilai - CECB",07-05-2024 06:00:00,21.194815,81.314770,NO2,14,29,23
India,Chhattisgarh,Bhilai,"Civic Center, Bhilai - Bhilai Steel Plant",07-05-2024 06:00:00,21.185571,81.343175,PM2.5,10,45,32
India,Chhattisgarh,Bhilai,"Civic Center, Bhilai - Bhilai Steel Plant",07-05-2024 06:00:00,21.185571,81.343175,NO2,11,15,13
India,Chhattisgarh,Bhilai,"Hathkhoj, Bhilai - CECB",07-05-2024 06:00:00,21.224231,81.408350,SO2,21,60,33
India,Chhattisgarh,Bhilai,"Hathkhoj, Bhilai - CECB",07-05-2024 06:00:00,21.224231,81.408350,OZONE,19,31,24
India,Chhattisgarh,Bilaspur,"Mangala, Bilaspur - NTPC",07-05-2024 06:00:00,22.08815,82.13737,PM2.5,41,76,52
India,Chhattisgarh,Korba,"Rampur, Korba - CECB",07-05-2024 06:00:00,22.368195,82.746431,CO,12,79,30
India,Chhattisgarh,Kunjemura,"OP Jindal School, Kunjemura - CECB",07-05-2024 06:00:00,22.126650,83.483212,NO2,15,120,44
India,Chhattisgarh,Kunjemura,"OP Jindal School, Kunjemura - CECB",07-05-2024 06:00:00,22.126650,83.483212,NH3,1,7,3
India,Chhattisgarh,Kunjemura,"OP Jindal School, Kunjemura - CECB",07-05-2024 06:00:00,22.126650,83.483212,CO,22,100,42
India,Chhattisgarh,Milupara,"Govt. Higher Secondary School, Milupara - CECB",07-05-2024 06:00:00,22.1910172,83.5197009,OZONE,7,18,11
India,Chhattisgarh,Raipur,"AIIMS, Raipur - CECB",07-05-2024 06:00:00,21.258815,81.578979,PM2.5,NA,NA,NA
India,Chhattisgarh,Raipur,"AIIMS, Raipur - CECB",07-05-2024 06:00:00,21.258815,81.578979,SO2,6,27,12
India,Chhattisgarh,Raipur,"Krishak Nagar, Raipur - CECB",07-05-2024 06:00:00,21.237755,81.705301,NH3,NA,NA,NA
India,Chhattisgarh,Raipur,"Krishak Nagar, Raipur - CECB",07-05-2024 06:00:00,21.237755,81.705301,CO,20,38,28
India,Chhattisgarh,Raipur,"Siltara Phase-II, Raipur - CECB",07-05-2024 06:00:00,21.371751,81.664929,OZONE,4,31,6
India,Chhattisgarh,Tumidih,"OP Jindal Industrial Park, Tumidih - CECB",07-05-2024 06:00:00,22.06631475,83.33820077,PM10,NA,NA,NA
India,Chhattisgarh,Tumidih,"OP Jindal Industrial Park, Tumidih - CECB",07-05-2024 06:00:00,22.06631475,83.33820077,OZONE,NA,NA,NA
India,Delhi,Delhi,"Alipur, Delhi - DPCC",07-05-2024 06:00:00,28.815329,77.153010,PM10,124,481,273
India,Delhi,Delhi,"Alipur, Delhi - DPCC",07-05-2024 06:00:00,28.815329,77.153010,NO2,7,124,44
India,Delhi,Delhi,"Alipur, Delhi - DPCC",07-05-2024 06:00:00,28.815329,77.153010,SO2,11,70,27
India,Delhi,Delhi,"Anand Vihar, Delhi - DPCC",07-05-2024 06:00:00,28.647622,77.3158090,PM2.5,35,389,257
India,Delhi,Delhi,"Anand Vihar, Delhi - DPCC",07-05-2024 06:00:00,28.647622,77.3158090,NO2,61,174,114
India,Delhi,Delhi,"Anand Vihar, Delhi - DPCC",07-05-2024 06:00:00,28.647622,77.3158090,NH3,4,16,8
India,Delhi,Delhi,"Ashok Vihar, Delhi - DPCC",07-05-2024 06:00:00,28.695381,77.181665,PM2.5,67,370,231
India,Delhi,Delhi,"Ashok Vihar, Delhi - DPCC",07-05-2024 06:00:00,28.695381,77.181665,PM10,154,434,282
India,Delhi,Delhi,"Ashok Vihar, Delhi - DPCC",07-05-2024 06:00:00,28.695381,77.181665,CO,40,131,77
India,Delhi,Delhi,"Ashok Vihar, Delhi - DPCC",07-05-2024 06:00:00,28.695381,77.181665,OZONE,3,168,6
India,Delhi,Delhi,"Burari Crossing, Delhi - IMD",07-05-2024 06:00:00,28.7256504,77.2011573,NO2,12,15,13
India,Delhi,Delhi,"Chandni Chowk, Delhi - IITM",07-05-2024 06:00:00,28.656756,77.227234,CO,2,103,51
India,Delhi,Delhi,"DTU, Delhi - CPCB",07-05-2024 06:00:00,28.7500499,77.1112615,PM10,141,442,267
India,Delhi,Delhi,"DTU, Delhi - CPCB",07-05-2024 06:00:00,28.7500499,77.1112615,NH3,1,11,4
India,Delhi,Delhi,"Dwarka-Sector 8, Delhi - DPCC ",07-05-2024 06:00:00,28.5710274,77.0719006,OZONE,2,73,2
India,Delhi,Delhi,"IHBAS, Dilshad Garden, Delhi - CPCB",07-05-2024 06:00:00,28.6811736,77.3025234,SO2,3,11,6
India,Delhi,Delhi,"ITO, Delhi - CPCB",07-05-2024 06:00:00,28.628624,77.241060,NH3,2,8,5
India,Delhi,Delhi,"ITO, Delhi - CPCB",07-05-2024 06:00:00,28.628624,77.241060,CO,36,131,103
India,Delhi,Delhi,"Jahangirpuri, Delhi - DPCC",07-05-2024 06:00:00,28.732820,77.170633,NO2,37,228,116
India,Delhi,Delhi,"Jawaharlal Nehru Stadium, Delhi - DPCC",07-05-2024 06:00:00,28.580280,77.233829,SO2,9,68,35
India,Delhi,Delhi,"Lodhi Road, Delhi - IITM",07-05-2024 06:00:00,28.588333,77.221667,PM2.5,65,226,122
India,Delhi,Delhi,"Lodhi Road, Delhi - IITM",07-05-2024 06:00:00,28.588333,77.221667,PM10,NA,NA,NA
India,Delhi,Delhi,"Major Dhyan Chand National Stadium, Delhi - DPCC",07-05-2024 06:00:00,28.611281,77.237738,NO2,22,194,105
India,Delhi,Delhi,"Mundka, Delhi - DPCC",07-05-2024 06:00:00,28.684678,77.076574,PM2.5,75,486,295
India,Delhi,Delhi,"Mundka, Delhi - DPCC",07-05-2024 06:00:00,28.684678,77.076574,NO2,18,142,66
India,Delhi,Delhi,"Mundka, Delhi - DPCC",07-05-2024 06:00:00,28.684678,77.076574,CO,29,109,101
India,Delhi,Delhi,"Mundka, Delhi - DPCC",07-05-2024 06:00:00,28.684678,77.076574,OZONE,12,190,23
India,Delhi,Delhi,"NSIT Dwarka, Delhi - CPCB",07-05-2024 06:00:00,28.60909,77.0325413,NH3,13,28,18
India,Delhi,Delhi,"NSIT Dwarka, Delhi - CPCB",07-05-2024 06:00:00,28.60909,77.0325413,CO,22,76,41
India,Delhi,Delhi,"Najafgarh, Delhi - DPCC",07-05-2024 06:00:00,28.570173,76.933762,PM2.5,48,435,234
India,Delhi,Delhi,"Najafgarh, Delhi - DPCC",07-05-2024 06:00:00,28.570173,76.933762,PM10,115,426,260
India,Delhi,Delhi,"Najafgarh, Delhi - DPCC",07-05-2024 06:00:00,28.570173,76.933762,NO2,24,120,60
India,Delhi,Delhi,"Najafgarh, Delhi - DPCC",07-05-2024 06:00:00,28.570173,76.933762,OZONE,15,140,22
India,Delhi,Delhi,"Narela, Delhi - DPCC",07-05-2024 06:00:00,28.822836,77.101981,PM2.5,68,432,251
India,Delhi,Delhi,"Narela, Delhi - DPCC",07-05-2024 06:00:00,28.822836,77.101981,NO2,10,117,51
India,Delhi,Delhi,"Narela, Delhi - DPCC",07-05-2024 06:00:00,28.822836,77.101981,NH3,4,9,6
India,Delhi,Delhi,"Narela, Delhi - DPCC",07-05-2024 06:00:00,28.822836,77.101981,SO2,8,102,36
India,Delhi,Delhi,"Nehru Nagar, Delhi - DPCC",07-05-2024 06:00:00,28.567890,77.250515,NO2,8,29,17
India,Delhi,Delhi,"North Campus, DU, Delhi - IMD",07-05-2024 06:00:00,28.6573814,77.1585447,OZONE,4,52,5
India,Delhi,Delhi,"Okhla Phase-2, Delhi - DPCC",07-05-2024 06:00:00,28.530785,77.271255,PM10,162,414,276
India,Delhi,Delhi,"Punjabi Bagh, Delhi - DPCC",07-05-2024 06:00:00,28.674045,77.131023,OZONE,1,57,3
India,Delhi,Delhi,"Pusa, Delhi - DPCC",07-05-2024 06:00:00,28.639652,77.146275,PM2.5,68,406,202
India,Delhi,Delhi,"Shadipur, Delhi - CPCB",07-05-2024 06:00:00,28.6514781,77.1473105,PM2.5,322,500,389
India,Delhi,Delhi,"Sirifort, Delhi - CPCB",07-05-2024 06:00:00,28.5504249,77.2159377,NH3,17,19,18
India,Delhi,Delhi,"Sirifort, Delhi - CPCB",07-05-2024 06:00:00,28.5504249,77.2159377,CO,10,146,119
India,Delhi,Delhi,"Sonia Vihar, Delhi - DPCC",07-05-2024 06:00:00,28.710508,77.249485,NO2,14,116,59
India,Delhi,Delhi,"Sonia Vihar, Delhi - DPCC",07-05-2024 06:00:00,28.710508,77.249485,NH3,4,9,6
India,Delhi,Delhi,"Sri Aurobindo Marg, Delhi - DPCC",07-05-2024 06:00:00,28.531346,77.190156,NH3,5,9,7
India,Delhi,Delhi,"Wazirpur, Delhi - DPCC",07-05-2024 06:00:00,28.699793,77.165453,PM10,148,451,284
India,Delhi,Delhi,"Wazirpur, Delhi - DPCC",07-05-2024 06:00:00,28.699793,77.165453,NH3,6,16,12
India,Delhi,Delhi,"Wazirpur, Delhi - DPCC",07-05-2024 06:00:00,28.699793,77.165453,SO2,11,63,30
India,Gujarat,Ahmedabad,"Gyaspur, Ahmedabad - IITM",07-05-2024 06:00:00,22.977134,72.553024,PM2.5,NA,NA,NA
India,Gujarat,Ahmedabad,"Maninagar, Ahmedabad - GPCB",07-05-2024 06:00:00,23.002657,72.591912,NO2,33,103,51
India,Gujarat,Ahmedabad,"Maninagar, Ahmedabad - GPCB",07-05-2024 06:00:00,23.002657,72.591912,SO2,15,124,60
India,Gujarat,Ahmedabad,"Maninagar, Ahmedabad - GPCB",07-05-2024 06:00:00,23.002657,72.591912,CO,64,107,78
India,Gujarat,Ahmedabad,"Raikhad, Ahmedabad - IITM",07-05-2024 06:00:00,23.020509,72.579261,SO2,4,7,6
India,Gujarat,Ahmedabad,"Rakhial, Ahmedabad - IITM",07-05-2024 06:00:00,23.016834,72.625775,NO2,20,70,32
India,Gujarat,Ahmedabad,"Rakhial, Ahmedabad - IITM",07-05-2024 06:00:00,23.016834,72.625775,NH3,10,32,18
India,Gujarat,Ahmedabad,"Rakhial, Ahmedabad - IITM",07-05-2024 06:00:00,23.016834,72.625775,OZONE,5,75,14
India,Gujarat,Ahmedabad,"SAC ISRO Satellite, Ahmedabad - IITM",07-05-2024 06:00:00,23.023389,72.515201,OZONE,5,17,8
India,Gujarat,Ahmedabad,"SVPI Airport Hansol, Ahmedabad - IITM",07-05-2024 06:00:00,23.076793,72.627874,NH3,7,8,7
India,Gujarat,Ahmedabad,"Sardar Vallabhbhai Patel Stadium, Ahmedabad - IITM",07-05-2024 06:00:00,23.043070,72.562968,SO2,1,15,6
India,Gujarat,Ahmedabad,"Sardar Vallabhbhai Patel Stadium, Ahmedabad - IITM",07-05-2024 06:00:00,23.043070,72.562968,CO,25,54,38
India,Gujarat,Nandesari,"GIDC, Nandesari - Nandesari Ind. Association",07-05-2024 06:00:00,22.410802,73.097923,PM2.5,53,305,152
India,Gujarat,Vatva,"Phase-4 GIDC, Vatva - GPCB",07-05-2024 06:00:00,22.969611,72.643500,PM10,93,93,93
India,Gujarat,Vatva,"Phase-4 GIDC, Vatva - GPCB",07-05-2024 06:00:00,22.969611,72.643500,SO2,3,50,16
India,Haryana,Ambala,"Patti Mehar, Ambala - HSPCB",07-05-2024 06:00:00,30.379589,76.778328,PM10,61,102,84
India,Haryana,Ambala,"Patti Mehar, Ambala - HSPCB",07-05-2024 06:00:00,30.379589,76.778328,NH3,8,8,8
India,Haryana,Bahadurgarh,"Arya Nagar, Bahadurgarh - HSPCB",07-05-2024 06:00:00,28.6701,76.9254,NO2,20,26,22
India,Haryana,Bahadurgarh,"Arya Nagar, Bahadurgarh - HSPCB",07-05-2024 06:00:00,28.6701,76.9254,NH3,8,10,9
India,Haryana,Ballabgarh,"Nathu Colony, Ballabgarh - HSPCB",07-05-2024 06:00:00,28.3419248,77.319699,PM2.5,95,362,255
India,Haryana,Ballabgarh,"Nathu Colony, Ballabgarh - HSPCB",07-05-2024 06:00:00,28.3419248,77.319699,CO,12,120,70
India,Haryana,Dharuhera,"Municipal Corporation Office, Dharuhera -  HSPCB",07-05-2024 06:00:00,28.206800,76.799700,OZONE,3,38,5
India,Haryana,Faridabad,"New Industrial Town, Faridabad - HSPCB",07-05-2024 06:00:00,28.39072,77.30059,CO,2,108,80
India,Haryana,Faridabad,"Sector 11, Faridabad - HSPCB",07-05-2024 06:00:00,28.376058,77.315741,PM2.5,72,430,276
India,Haryana,Faridabad,"Sector 30, Faridabad - HSPCB",07-05-2024 06:00:00,28.4417,77.3217,CO,54,56,55
India,Haryana,Faridabad,"Sector- 16A, Faridabad - HSPCB",07-05-2024 06:00:00,28.4088421,77.3099081,OZONE,14,14,14
India,Haryana,Gurugram,"NISE Gwal Pahari, Gurugram - IMD",07-05-2024 06:00:00,28.422681,77.148944,PM2.5,NA,NA,NA
India,Haryana,Gurugram,"NISE Gwal Pahari, Gurugram - IMD",07-05-2024 06:00:00,28.422681,77.148944,NO2,NA,NA,NA
India,Haryana,Gurugram,"Sector-51, Gurugram - HSPCB",07-05-2024 06:00:00,28.4227,77.0667,NH3,6,14,9
India,Haryana,Gurugram,"Sector-51, Gurugram - HSPCB",07-05-2024 06:00:00,28.4227,77.0667,CO,34,114,110
India,Haryana,Gurugram,"Sector-51, Gurugram - HSPCB",07-05-2024 06:00:00,28.4227,77.0667,OZONE,27,67,42
India,Haryana,Gurugram,"Vikas Sadan, Gurugram - HSPCB",07-05-2024 06:00:00,28.4501238,77.0263051,PM2.5,74,334,232
India,Haryana,Gurugram,"Vikas Sadan, Gurugram - HSPCB",07-05-2024 06:00:00,28.4501238,77.0263051,SO2,28,59,39
India,Haryana,Gurugram,"Vikas Sadan, Gurugram - HSPCB",07-05-2024 06:00:00,28.4501238,77.0263051,CO,55,152,101
India,Haryana,Hisar,"Urban Estate-II, Hisar - HSPCB",07-05-2024 06:00:00,29.140560,75.744941,OZONE,36,178,54
India,Haryana,Jind,"Police Lines, Jind - HSPCB",07-05-2024 06:00:00,29.307814,76.337619,PM2.5,67,201,118
India,Haryana,Jind,"Police Lines, Jind - HSPCB",07-05-2024 06:00:00,29.307814,76.337619,PM10,102,176,135
India,Haryana,Kaithal,"Rishi Nagar, Kaithal - HSPCB",07-05-2024 06:00:00,29.8006,76.4155,SO2,18,119,45
India,Haryana,Karnal,"Sector-12, Karnal - HSPCB",07-05-2024 06:00:00,29.695300,77.002700,PM10,84,138,111
India,Haryana,Mandikhera,"General Hospital, Mandikhera - HSPCB",07-05-2024 06:00:00,27.9002,76.9938,NH3,17,19,18
India,Haryana,Mandikhera,"General Hospital, Mandikhera - HSPCB",07-05-2024 06:00:00,27.9002,76.9938,SO2,30,38,34
India,Haryana,Manesar,"Sector-2 IMT, Manesar - HSPCB",07-05-2024 06:00:00,28.360699,76.936090,SO2,6,50,14
India,Haryana,Narnaul,"Shastri Nagar, Narnaul - HSPCB",07-05-2024 06:00:00,28.060249,76.113115,NO2,15,82,48
India,Haryana,Narnaul,"Shastri Nagar, Narnaul - HSPCB",07-05-2024 06:00:00,28.060249,76.113115,OZONE,27,50,41
India,Haryana,Panchkula,"Sector-6, Panchkula - HSPCB ",07-05-2024 06:00:00,30.7057778,76.8531805555555,CO,6,16,15
India,Haryana,Panipat,"Sector-18, Panipat - HSPCB",07-05-2024 06:00:00,29.497973,76.993331,PM2.5,90,93,92
India,Haryana,Panipat,"Sector-18, Panipat - HSPCB",07-05-2024 06:00:00,29.497973,76.993331,NH3,2,3,2
India,Haryana,Rohtak,"MD University, Rohtak - HSPCB",07-05-2024 06:00:00,28.52123,76.37138,SO2,6,8,7
India,Haryana,Rohtak,"MD University, Rohtak - HSPCB",07-05-2024 06:00:00,28.52123,76.37138,OZONE,43,56,49
India,Haryana,Sonipat,"Murthal, Sonipat - HSPCB",07-05-2024 06:00:00,29.027200,77.062100,NH3,7,10,9
India,Haryana,Sonipat,"Murthal, Sonipat - HSPCB",07-05-2024 06:00:00,29.027200,77.062100,OZONE,17,35,19
India,Jammu_and_Kashmir,Srinagar,"Rajbagh, Srinagar - JKSPCB",07-05-2024 06:00:00,34.066206,74.819820,SO2,NA,NA,NA
India,Jharkhand,Dhanbad,"Sardar Patel Nagar, Dhanbad - JSPCB",07-05-2024 06:00:00,23.80569,86.44268,NO2,14,70,39
India,Karnataka,Bagalkot,"Vidayagiri, Bagalkot - KSPCB",07-05-2024 06:00:00,16.172806,75.659694,SO2,8,10,9
India,Karnataka,Belgaum,"Ramteerth Nagar, Belgaum - KSPCB",07-05-2024 06:00:00,15.888653,74.541751,NH3,1,6,4
India,Karnataka,Bengaluru,"BTM Layout, Bengaluru - CPCB",07-05-2024 06:00:00,12.9135218,77.5950804,PM10,56,95,74
India,Karnataka,Bengaluru,"Bapuji Nagar, Bengaluru - KSPCB",07-05-2024 06:00:00,12.951913,77.539784,NH3,1,1,1
India,Karnataka,Bengaluru,"Hebbal, Bengaluru - KSPCB",07-05-2024 06:00:00,13.029152,77.585901,SO2,18,22,20
India,Karnataka,Bengaluru,"Hebbal, Bengaluru - KSPCB",07-05-2024 06:00:00,13.029152,77.585901,CO,8,48,20
India,Karnataka,Bengaluru,"Hombegowda Nagar, Bengaluru - KSPCB",07-05-2024 06:00:00,12.938539,77.590100,PM2.5,9,94,44
India,Karnataka,Bengaluru,"Kasturi Nagar, Bengaluru - KSPCB",07-05-2024 06:00:00,13.003872,77.664217,NO2,16,17,16
India,Karnataka,Bengaluru,"Peenya, Bengaluru - CPCB",07-05-2024 06:00:00,13.0270199,77.494094,CO,28,53,35
India,Karnataka,Bengaluru,"RVCE-Mailasandra, Bengaluru - KSPCB",07-05-2024 06:00:00,12.921418,77.502466,NO2,16,17,17
India,Karnataka,Bidar,"Naubad, Bidar - KSPCB",07-05-2024 06:00:00,17.930306,77.482194,NO2,7,12,8
India,Karnataka,Bidar,"Naubad, Bidar - KSPCB",07-05-2024 06:00:00,17.930306,77.482194,CO,62,121,87
India,Karnataka,Bidar,"Naubad, Bidar - KSPCB",07-05-2024 06:00:00,17.930306,77.482194,OZONE,8,46,33
India,Karnataka,Chamarajanagar,"Urban, Chamarajanagar - KSPCB",07-05-2024 06:00:00,11.55358,76.55521,PM2.5,33,49,41
India,Karnataka,Chamarajanagar,"Urban, Chamarajanagar - KSPCB",07-05-2024 06:00:00,11.55358,76.55521,NO2,28,35,34
India,Karnataka,Chikkaballapur,"Chikkaballapur Rural, Chikkaballapur - KSPCB",07-05-2024 06:00:00,13.428828,77.731418,PM10,18,129,81
India,Karnataka,Chikkaballapur,"Chikkaballapur Rural, Chikkaballapur - KSPCB",07-05-2024 06:00:00,13.428828,77.731418,OZONE,24,25,25
India,Karnataka,Davanagere,"Devaraj Urs Badavane, Davanagere - KSPCB",07-05-2024 06:00:00,14.475800,75.905200,CO,16,24,20
India,Karnataka,Dharwad,"Kalabhavan, Dharwad - KSPCB",07-05-2024 06:00:00,15.459706,75.008381,NO2,9,16,14
India,Karnataka,Dharwad,"Kalabhavan, Dharwad - KSPCB",07-05-2024 06:00:00,15.459706,75.008381,SO2,2,7,3
India,Karnataka,Dharwad,"Kalabhavan, Dharwad - KSPCB",07-05-2024 06:00:00,15.459706,75.008381,OZONE,2,14,2
India,Karnataka,Gadag,"Panchal Nagar, Gadag - KSPCB",07-05-2024 06:00:00,15.411456,75.638133,NO2,4,27,14
India,Karnataka,Haveri,"Ashwini Nagar, Haveri - KSPCB",07-05-2024 06:00:00,14.791800,75.389600,PM2.5,27,58,46
India,Karnataka,Haveri,"Ashwini Nagar, Haveri - KSPCB",07-05-2024 06:00:00,14.791800,75.389600,NO2,26,43,33
India,Karnataka,Haveri,"Ashwini Nagar, Haveri - KSPCB",07-05-2024 06:00:00,14.791800,75.389600,SO2,14,14,14
India,Karnataka,Kalaburagi,"Lal Bahadur Shastri Nagar, Kalaburagi - KSPCB",07-05-2024 06:00:00,17.321993,76.822628,PM10,39,117,73
India,Karnataka,Kalaburagi,"Lal Bahadur Shastri Nagar, Kalaburagi - KSPCB",07-05-2024 06:00:00,17.321993,76.822628,SO2,23,106,27
India,Karnataka,Karwar,"KHB Colony, Karwar - KSPCB",07-05-2024 06:00:00,14.816666,74.141003,NH3,1,6,1
India,Karnataka,Kolar,"Tamaka Ind. Area, Kolar - KSPCB",07-05-2024 06:00:00,13.1276288,78.1570122,NH3,NA,NA,NA
India,Karnataka,Koppal,"Diwator Nagar, Koppal - KSPCB",07-05-2024 06:00:00,15.347630,76.181767,PM10,17,72,32
India,Karnataka,Koppal,"Diwator Nagar, Koppal - KSPCB",07-05-2024 06:00:00,15.347630,76.181767,NH3,4,10,8
India,Karnataka,Koppal,"Diwator Nagar, Koppal - KSPCB",07-05-2024 06:00:00,15.347630,76.181767,CO,64,90,65
India,Karnataka,Koppal,"Diwator Nagar, Koppal - KSPCB",07-05-2024 06:00:00,15.347630,76.181767,OZONE,27,68,38
India,Karnataka,Madikeri,"Stuart Hill, Madikeri - KSPCB",07-05-2024 06:00:00,12.415911,75.735050,PM2.5,18,40,29
India,Karnataka,Mangalore,"Kadri, Mangalore - KSPCB",07-05-2024 06:00:00,12.889250,74.853000,CO,34,41,37
India,Karnataka,Raichur,"Haji Colony, Raichur - KSPCB",07-05-2024 06:00:00,16.208139,77.348417,NH3,1,3,2
India,Karnataka,Raichur,"Haji Colony, Raichur - KSPCB",07-05-2024 06:00:00,16.208139,77.348417,SO2,77,96,86
India,Karnataka,Ramanagara,"Vijay Nagar, Ramanagara - KSPCB",07-05-2024 06:00:00,12.733409,77.298051,OZONE,26,30,27
India,Karnataka,Shivamogga,"Vinoba Nagara, Shivamogga - KSPCB",07-05-2024 06:00:00,13.940000,75.555917,NO2,10,17,14
India,Karnataka,Tumakuru,"Thimmalapura, Tumakuru - KSPCB",07-05-2024 06:00:00,13.377516,77.099072,PM2.5,12,253,96
India,Karnataka,Tumakuru,"Thimmalapura, Tumakuru - KSPCB",07-05-2024 06:00:00,13.377516,77.099072,NO2,NA,NA,NA
India,Karnataka,Udupi,"Brahmagiri, Udupi - KSPCB",07-05-2024 06:00:00,13.34194444,74.74694444,PM2.5,16,55,35
India,Karnataka,Udupi,"Brahmagiri, Udupi - KSPCB",07-05-2024 06:00:00,13.34194444,74.74694444,NO2,28,30,29
India,Karnataka,Udupi,"Brahmagiri, Udupi - KSPCB",07-05-2024 06:00:00,13.34194444,74.74694444,OZONE,23,24,23
India,Karnataka,Vijayapura,"Ibrahimpur, Vijayapura - KSPCB",07-05-2024 06:00:00,16.802639,75.722694,PM2.5,26,31,30
India,Karnataka,Vijayapura,"Ibrahimpur, Vijayapura - KSPCB",07-05-2024 06:00:00,16.802639,75.722694,OZONE,13,16,15
India,Kerala,Eloor,"Udyogamandal, Eloor - Kerala PCB",07-05-2024 06:00:00,10.073232,76.302765,CO,5,91,17
India,Kerala,Kannur,"Thavakkara, Kannur - Kerala PCB",07-05-2024 06:00:00,11.875000,75.373200,NO2,6,7,6
India,Kerala,Kollam,"Polayathode, Kollam - Kerala PCB",07-05-2024 06:00:00,8.8787,76.6073,PM2.5,98,151,118
India,Kerala,Thiruvananthapuram,"Kariavattom, Thiruvananthapuram - Kerala PCB",07-05-2024 06:00:00,8.563700,76.886500,OZONE,28,33,30
India,Kerala,Thrissur,"Corporation Ground, Thrissur - Kerala PCB",07-05-2024 06:00:00,10.532400,76.215900,NH3,NA,NA,NA
India,Kerala,Thrissur,"Corporation Ground, Thrissur - Kerala PCB",07-05-2024 06:00:00,10.532400,76.215900,CO,14,70,36
India,Madhya Pradesh,Bhopal,"Idgah Hills, Bhopal - MPPCB",07-05-2024 06:00:00,23.264759,77.381568,NH3,5,6,5
India,Madhya Pradesh,Bhopal,"Paryavaran Parisar, Bhopal - MPPCB",07-05-2024 06:00:00,23.210494,77.425409,NO2,8,65,19
India,Madhya Pradesh,Bhopal,"Paryavaran Parisar, Bhopal - MPPCB",07-05-2024 06:00:00,23.210494,77.425409,SO2,8,12,9
India,Madhya Pradesh,Bhopal,"T T Nagar, Bhopal - MPPCB",07-05-2024 06:00:00,23.233584,77.400574,PM2.5,16,50,32
India,Madhya Pradesh,Bhopal,"T T Nagar, Bhopal - MPPCB",07-05-2024 06:00:00,23.233584,77.400574,PM10,71,112,94
India,Madhya Pradesh,Dewas,"Bhopal Chauraha, Dewas - MPPCB",07-05-2024 06:00:00,22.9682591,76.064118,PM2.5,10,61,34
India,Madhya Pradesh,Dewas,"Bhopal Chauraha, Dewas - MPPCB",07-05-2024 06:00:00,22.9682591,76.064118,NH3,3,3,3
India,Madhya Pradesh,Dewas,"Bhopal Chauraha, Dewas - MPPCB",07-05-2024 06:00:00,22.9682591,76.064118,CO,11,46,23
India,Madhya Pradesh,Gwalior,"City Center, Gwalior - MPPCB",07-05-2024 06:00:00,26.203442,78.193251,PM2.5,54,182,112
India,Madhya Pradesh,Gwalior,"City Center, Gwalior - MPPCB",07-05-2024 06:00:00,26.203442,78.193251,NO2,8,108,40
India,Madhya Pradesh,Gwalior,"City Center, Gwalior - MPPCB",07-05-2024 06:00:00,26.203442,78.193251,NH3,1,7,5
India,Madhya Pradesh,Gwalior,"City Center, Gwalior - MPPCB",07-05-2024 06:00:00,26.203442,78.193251,CO,12,124,62
India,Madhya Pradesh,Gwalior,"Deen Dayal Nagar, Gwalior - MPPCB",07-05-2024 06:00:00,26.259242,78.216432,PM10,91,238,159
India,Madhya Pradesh,Gwalior,"Maharaj Bada, Gwalior - MPPCB",07-05-2024 06:00:00,26.200388,78.147714,PM2.5,40,123,87
India,Madhya Pradesh,Gwalior,"Phool Bagh, Gwalior - Mondelez Ind. Food",07-05-2024 06:00:00,26.210536,78.171,SO2,22,30,25
India,Madhya Pradesh,Indore,"Chhoti Gwaltoli, Indore - MPPCB",07-05-2024 06:00:00,22.4310,75.5213,NH3,3,5,4
India,Madhya Pradesh,Indore,"Chhoti Gwaltoli, Indore - MPPCB",07-05-2024 06:00:00,22.4310,75.5213,CO,16,78,51
India,Madhya Pradesh,Indore,"Maguda Nagar, Indore - IMC",07-05-2024 06:00:00,22.7524,75.8872,OZONE,36,49,37
India,Madhya Pradesh,Indore,"Regional Park, Indore - IMC",07-05-2024 06:00:00,22.6780,75.8559,NH3,1,1,1
India,Madhya Pradesh,Indore,"Residency Area, Indore - IMC",07-05-2024 06:00:00,22.7084,75.8815,PM2.5,23,91,48
India,Madhya Pradesh,Indore,"Residency Area, Indore - IMC",07-05-2024 06:00:00,22.7084,75.8815,CO,12,16,15
India,Madhya Pradesh,Jabalpur,"Marhatal, Jabalpur - MPPCB",07-05-2024 06:00:00,23.168606,79.932247,PM2.5,18,54,35
India,Madhya Pradesh,Jabalpur,"Marhatal, Jabalpur - MPPCB",07-05-2024 06:00:00,23.168606,79.932247,PM10,72,110,93
India,Madhya Pradesh,Jabalpur,"Suhagi, Jabalpur - JMC",07-05-2024 06:00:00,23.218135,79.957770,SO2,13,16,15
India,Madhya Pradesh,Jabalpur,"Suhagi, Jabalpur - JMC",07-05-2024 06:00:00,23.218135,79.957770,CO,30,50,43
India,Madhya Pradesh,Katni,"Gole Bazar, Katni - MPPCB",07-05-2024 06:00:00,23.50016,80.23284,PM2.5,20,71,42
India,Madhya Pradesh,Pithampur,"Sector-2 Industrial Area, Pithampur - MPPCB",07-05-2024 06:00:00,22.624758,75.675238,PM2.5,21,248,65
India,Madhya Pradesh,Pithampur,"Sector-2 Industrial Area, Pithampur - MPPCB",07-05-2024 06:00:00,22.624758,75.675238,NO2,5,22,12
India,Madhya Pradesh,Pithampur,"Sector-2 Industrial Area, Pithampur - MPPCB",07-05-2024 06:00:00,22.624758,75.675238,SO2,11,14,12
India,Madhya Pradesh,Sagar,"Civil Lines, Sagar - MPPCB",07-05-2024 06:00:00,23.838586,78.759431,OZONE,27,142,67
India,Madhya Pradesh,Satna,"Bandhavgar Colony, Satna - Birla Cement",07-05-2024 06:00:00,24.58434363,80.8549414,SO2,5,6,5
India,Madhya Pradesh,Satna,"Bandhavgar Colony, Satna - Birla Cement",07-05-2024 06:00:00,24.58434363,80.8549414,OZONE,13,17,17
India,Madhya Pradesh,Singrauli,"Suryakiran Bhawan NCL, Singrauli - MPPCB",07-05-2024 06:00:00,24.108970,82.645580,OZONE,13,76,39
India,Madhya Pradesh,Ujjain,"Mahakaleshwar Temple, Ujjain - MPPCB",07-05-2024 06:00:00,23.182719 ,75.768218 ,PM2.5,18,62,28
India,Madhya Pradesh,Ujjain,"Mahakaleshwar Temple, Ujjain - MPPCB",07-05-2024 06:00:00,23.182719 ,75.768218 ,SO2,10,23,15
India,Madhya Pradesh,Ujjain,"Mahakaleshwar Temple, Ujjain - MPPCB",07-05-2024 06:00:00,23.182719 ,75.768218 ,OZONE,59,115,105
India,Maharashtra,Amravati,"Shivneri Colony, Amravati - MPCB",07-05-2024 06:00:00,20.9402359,77.7895248,OZONE,2,73,19
India,Maharashtra,Amravati,"Shri Shivaji Science College, Amaravati - MPCB",07-05-2024 06:00:00,20.939198,77.765701,CO,10,52,29
India,Maharashtra,Aurangabad,"MIDC Chilkalthana, Aurangabad - MPCB",07-05-2024 06:00:00,19.875620,75.387310,CO,30,50,38
India,Maharashtra,Aurangabad,"More Chowk Waluj, Aurangabad - MPCB",07-05-2024 06:00:00,19.8389439,75.244448,NO2,39,47,44
India,Maharashtra,Aurangabad,"Rachnakar Colony, Aurangabad - MPCB",07-05-2024 06:00:00,19.863756,75.321188,PM2.5,92,168,124
India,Maharashtra,Badlapur,"Katrap, Badlapur - MPCB",07-05-2024 06:00:00,19.16485,73.23409,PM2.5,27,117,49
India,Maharashtra,Badlapur,"Katrap, Badlapur - MPCB",07-05-2024 06:00:00,19.16485,73.23409,SO2,5,11,7
India,Maharashtra,Belapur,"CBD Belapur, Belapur - MPCB",07-05-2024 06:00:00,19.0243902,73.0406721,PM10,33,75,56
India,Maharashtra,Boisar,"Khaira, Boisar - MPCB",07-05-2024 06:00:00,19.786089,72.757971,PM2.5,24,124,69
India,Maharashtra,Chandrapur,"Chauhan Colony, Chandrapur - MPCB",07-05-2024 06:00:00,19.962900,79.298714,NH3,1,2,1
India,Maharashtra,Chandrapur,"Chauhan Colony, Chandrapur - MPCB",07-05-2024 06:00:00,19.962900,79.298714,SO2,14,125,61
India,Maharashtra,Chandrapur,"Chauhan Colony, Chandrapur - MPCB",07-05-2024 06:00:00,19.962900,79.298714,OZONE,49,115,65
India,Maharashtra,Dhule,"Deopur, Dhule - MPCB",07-05-2024 06:00:00,20.918946,74.776388,SO2,14,26,20
India,Maharashtra,Jalgaon,"Prabhat Colony, Jalgaon - MPCB",07-05-2024 06:00:00,21.001264,75.565602,PM10,67,156,106
India,Maharashtra,Jalgaon,"Prabhat Colony, Jalgaon - MPCB",07-05-2024 06:00:00,21.001264,75.565602,CO,10,20,18
India,Maharashtra,Jalgaon,"Prabhat Colony, Jalgaon - MPCB",07-05-2024 06:00:00,21.001264,75.565602,OZONE,18,147,27
India,Maharashtra,Jalna,"Old MIDC, Jalna - MPCB",07-05-2024 06:00:00,19.854616,75.905894,PM2.5,45,60,53
India,Maharashtra,Kalyan,"Khadakpada, Kalyan - MPCB",07-05-2024 06:00:00,19.25292,73.142019,NH3,1,1,1
India,Maharashtra,Kalyan,"Khadakpada, Kalyan - MPCB",07-05-2024 06:00:00,19.25292,73.142019,SO2,23,30,27
India,Maharashtra,Kolhapur,"Shivaji University, Kolhapur - MPCB",07-05-2024 06:00:00,16.6870449,74.2505872,PM2.5,18,185,90
India,Maharashtra,Kolhapur,"Shivaji University, Kolhapur - MPCB",07-05-2024 06:00:00,16.6870449,74.2505872,NO2,15,34,24
India,Maharashtra,Kolhapur,"Shivaji University, Kolhapur - MPCB",07-05-2024 06:00:00,16.6870449,74.2505872,NH3,3,5,4
India,Maharashtra,Kolhapur,"Shivaji University, Kolhapur - MPCB",07-05-2024 06:00:00,16.6870449,74.2505872,SO2,1,4,2
India,Maharashtra,Kolhapur,"Shivaji University, Kolhapur - MPCB",07-05-2024 06:00:00,16.6870449,74.2505872,OZONE,16,90,37
India,Maharashtra,Kolhapur,"Sinchan Bhavan, Kolhapur - MPCB",07-05-2024 06:00:00,16.7143745,74.2426398,NO2,6,19,11
India,Maharashtra,Kolhapur,"Sinchan Bhavan, Kolhapur - MPCB",07-05-2024 06:00:00,16.7143745,74.2426398,OZONE,15,108,33
India,Maharashtra,Latur,"Sawe Wadi, Latur - MPCB",07-05-2024 06:00:00,18.39963,76.57452,PM10,32,154,72
India,Maharashtra,Mahad,"Kamble Tarf Birwadi, Mahad - MPCB",07-05-2024 06:00:00,18.1023399,73.4783687,PM2.5,35,193,71
India,Maharashtra,Mahad,"Kamble Tarf Birwadi, Mahad - MPCB",07-05-2024 06:00:00,18.1023399,73.4783687,NO2,10,54,23
India,Maharashtra,Mahad,"Kamble Tarf Birwadi, Mahad - MPCB",07-05-2024 06:00:00,18.1023399,73.4783687,NH3,2,19,6
India,Maharashtra,Malegaon,"Mahesh Nagar, Malegaon - MPCB",07-05-2024 06:00:00,20.555712,74.529236,CO,14,31,21
India,Maharashtra,Mira-Bhayandar,"Bhayandar West, Mira-Bhayandar - MPCB",07-05-2024 06:00:00,19.296481,72.840923,CO,14,22,17
India,Maharashtra,Mumbai,"Bandra Kurla Complex, Mumbai - MPCB",07-05-2024 06:00:00,19.065931,72.862131,PM10,47,74,66
India,Maharashtra,Mumbai,"Borivali East, Mumbai - IITM",07-05-2024 06:00:00,19.23241,72.86895,NH3,2,5,4
India,Maharashtra,Mumbai,"Borivali East, Mumbai - MPCB",07-05-2024 06:00:00,19.2243333,72.8658113,NO2,3,11,7
India,Maharashtra,Mumbai,"Byculla, Mumbai - BMC",07-05-2024 06:00:00,18.9767,72.8380,SO2,1,2,1
India,Maharashtra,Mumbai,"Byculla, Mumbai - BMC",07-05-2024 06:00:00,18.9767,72.8380,CO,8,12,10
India,Maharashtra,Mumbai,"Chhatrapati Shivaji Intl. Airport (T2), Mumbai - MPCB",07-05-2024 06:00:00,19.10078,72.87462,PM10,50,96,68
India,Maharashtra,Mumbai,"Chhatrapati Shivaji Intl. Airport (T2), Mumbai - MPCB",07-05-2024 06:00:00,19.10078,72.87462,OZONE,4,5,4
India,Maharashtra,Mumbai,"Colaba, Mumbai - MPCB",07-05-2024 06:00:00,18.910000,72.820000,PM10,43,68,51
India,Maharashtra,Mumbai,"Colaba, Mumbai - MPCB",07-05-2024 06:00:00,18.910000,72.820000,CO,12,13,12
India,Maharashtra,Mumbai,"Deonar, Mumbai - IITM",07-05-2024 06:00:00,19.04946,72.9230,PM10,36,95,75
India,Maharashtra,Mumbai,"Ghatkopar, Mumbai - BMC",07-05-2024 06:00:00,19.083694,72.920967,PM2.5,9,36,16
India,Maharashtra,Mumbai,"Ghatkopar, Mumbai - BMC",07-05-2024 06:00:00,19.083694,72.920967,OZONE,1,17,7
India,Maharashtra,Mumbai,"Kandivali East, Mumbai - MPCB",07-05-2024 06:00:00,19.205800,72.868200,CO,30,33,31
India,Maharashtra,Mumbai,"Kandivali East, Mumbai - MPCB",07-05-2024 06:00:00,19.205800,72.868200,OZONE,30,31,30
India,Maharashtra,Mumbai,"Kandivali West, Mumbai - BMC",07-05-2024 06:00:00,19.215859,72.831718,NO2,5,28,9
India,Maharashtra,Mumbai,"Kandivali West, Mumbai - BMC",07-05-2024 06:00:00,19.215859,72.831718,CO,6,13,10
India,Maharashtra,Mumbai,"Kherwadi_Bandra East, Mumbai - MPCB",07-05-2024 06:00:00,19.0632143,72.8456324,PM2.5,9,36,20
India,Maharashtra,Mumbai,"Kurla, Mumbai - MPCB",07-05-2024 06:00:00,19.0863,72.8888,PM2.5,19,243,77
India,Maharashtra,Mumbai,"Kurla, Mumbai - MPCB",07-05-2024 06:00:00,19.0863,72.8888,NO2,11,16,14
India,Maharashtra,Mumbai,"Kurla, Mumbai - MPCB",07-05-2024 06:00:00,19.0863,72.8888,OZONE,27,29,28
India,Maharashtra,Mumbai,"Mulund West, Mumbai - MPCB",07-05-2024 06:00:00,19.1750,72.9419,CO,41,42,42
India,Maharashtra,Mumbai,"Navy Nagar-Colaba, Mumbai - IITM",07-05-2024 06:00:00,18.897756,72.813320,NH3,4,5,5
India,Maharashtra,Mumbai,"Powai, Mumbai - MPCB",07-05-2024 06:00:00,19.137500,72.915056,PM2.5,14,27,21
India,Maharashtra,Mumbai,"Powai, Mumbai - MPCB",07-05-2024 06:00:00,19.137500,72.915056,CO,30,37,33
India,Maharashtra,Mumbai,"Sewri, Mumbai - BMC",07-05-2024 06:00:00,19.000084,72.856730,SO2,NA,NA,NA
India,Maharashtra,Mumbai,"Siddharth Nagar-Worli, Mumbai - IITM",07-05-2024 06:00:00,19.000083,72.813993,NO2,14,148,34
India,Maharashtra,Mumbai,"Siddharth Nagar-Worli, Mumbai - IITM",07-05-2024 06:00:00,19.000083,72.813993,NH3,5,25,7
India,Maharashtra,Mumbai,"Vasai West, Mumbai - MPCB",07-05-2024 06:00:00,19.383200,72.820400,PM2.5,NA,NA,NA
India,Maharashtra,Mumbai,"Vasai West, Mumbai - MPCB",07-05-2024 06:00:00,19.383200,72.820400,NO2,NA,NA,NA
India,Maharashtra,Mumbai,"Worli, Mumbai - MPCB",07-05-2024 06:00:00,18.9936162,72.8128113,PM2.5,9,22,16
India,Maharashtra,Mumbai,"Worli, Mumbai - MPCB",07-05-2024 06:00:00,18.9936162,72.8128113,NO2,16,16,16
India,Maharashtra,Nagpur,"Ambazari, Nagpur - MPCB",07-05-2024 06:00:00,21.121801,79.04952,CO,3,36,20
India,Maharashtra,Nagpur,"Opp GPO Civil Lines, Nagpur - MPCB",07-05-2024 06:00:00,21.152875,79.0517531,PM2.5,15,78,44
India,Maharashtra,Nashik,"Gangapur Road, Nashik - MPCB",07-05-2024 06:00:00,20.0073285,73.7762427,NO2,1,11,4
India,Maharashtra,Nashik,"Gangapur Road, Nashik - MPCB",07-05-2024 06:00:00,20.0073285,73.7762427,NH3,1,2,1
India,Maharashtra,Nashik,"MIDC Ambad, Nashik - MPCB",07-05-2024 06:00:00,19.950220,73.731480,CO,18,32,23
India,Maharashtra,Nashik,"Pandav Nagari, Nashik - MPCB",07-05-2024 06:00:00,19.9591346,73.7788008,NO2,7,32,12
India,Maharashtra,Navi Mumbai,"Kopripada-Vashi, Navi Mumbai - MPCB",07-05-2024 06:00:00,19.090337,73.014232,NH3,4,10,5
India,Maharashtra,Navi Mumbai,"Mahape, Navi Mumbai - MPCB",07-05-2024 06:00:00,19.1135051,73.008978,PM10,48,305,112
India,Maharashtra,Navi Mumbai,"Mahape, Navi Mumbai - MPCB",07-05-2024 06:00:00,19.1135051,73.008978,NO2,NA,NA,NA
India,Maharashtra,Navi Mumbai,"Mahape, Navi Mumbai - MPCB",07-05-2024 06:00:00,19.1135051,73.008978,CO,107,111,108
India,Maharashtra,Navi Mumbai,"Nerul, Navi Mumbai - MPCB",07-05-2024 06:00:00,19.008751,73.016620,PM10,70,155,119
India,Maharashtra,Navi Mumbai,"Nerul, Navi Mumbai - MPCB",07-05-2024 06:00:00,19.008751,73.016620,SO2,17,24,21
India,Maharashtra,Navi Mumbai,"Tondare-Taloja, Navi Mumbai - MPCB",07-05-2024 06:00:00,19.0630,73.1209,PM2.5,27,49,35
India,Maharashtra,Parbhani,"Masoom Colony, Parbhani - MPCB",07-05-2024 06:00:00,19.265594,76.761463,CO,8,68,34
India,Maharashtra,Pimpri-Chinchwad,"Gavalinagar, Pimpri Chinchwad - MPCB",07-05-2024 06:00:00,18.63673,73.82487,NH3,1,3,2
India,Maharashtra,Pimpri-Chinchwad,"Gavalinagar, Pimpri Chinchwad - MPCB",07-05-2024 06:00:00,18.63673,73.82487,SO2,6,14,10
India,Maharashtra,Pimpri-Chinchwad,"Park Street Wakad, Pimpri Chinchwad - MPCB",07-05-2024 06:00:00,18.59051,73.77946,PM10,25,65,43
India,Maharashtra,Pimpri-Chinchwad,"Thergaon, Pimpri Chinchwad - MPCB",07-05-2024 06:00:00,18.616318,73.765797,PM10,24,72,52
India,Maharashtra,Pimpri-Chinchwad,"Thergaon, Pimpri Chinchwad - MPCB",07-05-2024 06:00:00,18.616318,73.765797,NO2,19,45,27
India,Maharashtra,Pimpri-Chinchwad,"Thergaon, Pimpri Chinchwad - MPCB",07-05-2024 06:00:00,18.616318,73.765797,NH3,2,5,3
India,Maharashtra,Pimpri-Chinchwad,"Thergaon, Pimpri Chinchwad - MPCB",07-05-2024 06:00:00,18.616318,73.765797,SO2,2,5,2
India,Maharashtra,Pimpri-Chinchwad,"Thergaon, Pimpri Chinchwad - MPCB",07-05-2024 06:00:00,18.616318,73.765797,OZONE,19,120,37
India,Maharashtra,Pune,"Bhosari, Pune - IITM",07-05-2024 06:00:00,18.640051,73.848956,PM10,33,78,56
India,Maharashtra,Pune,"Revenue Colony-Shivajinagar, Pune - IITM",07-05-2024 06:00:00,18.530085,73.849598,PM10,39,67,53
India,Maharashtra,Pune,"Savitribai Phule Pune University, Pune - MPCB",07-05-2024 06:00:00,18.547056,73.826908,NH3,2,8,3
India,Maharashtra,Pune,"Savitribai Phule Pune University, Pune - MPCB",07-05-2024 06:00:00,18.547056,73.826908,OZONE,11,111,36
India,Maharashtra,Pune,"Transport Nagar-Nigdi, Pune - IITM",07-05-2024 06:00:00,18.664282,73.763966,PM10,42,106,65
India,Maharashtra,Sangli,"Vijay Nagar, Sangli - MPCB",07-05-2024 06:00:00, 16.5038,74.3623,PM10,38,77,57
India,Maharashtra,Sangli,"Vijay Nagar, Sangli - MPCB",07-05-2024 06:00:00, 16.5038,74.3623,CO,8,26,11
India,Maharashtra,Solapur,"Ratandeep Housing Society, Solapur - MPCB",07-05-2024 06:00:00,17.65439,75.90649,PM10,80,108,93
India,Maharashtra,Solapur,"Ratandeep Housing Society, Solapur - MPCB",07-05-2024 06:00:00,17.65439,75.90649,NH3,5,10,7
India,Maharashtra,Solapur,"Solapur, Solapur - MPCB",07-05-2024 06:00:00,17.6599188,75.9063906,SO2,102,107,105
India,Maharashtra,Thane,"Pimpleshwar Mandir, Thane - MPCB",07-05-2024 06:00:00,19.192056,72.9585188,PM10,57,106,78
India,Maharashtra,Thane,"Pimpleshwar Mandir, Thane - MPCB",07-05-2024 06:00:00,19.192056,72.9585188,NO2,1,18,8
India,Maharashtra,Thane,"Pimpleshwar Mandir, Thane - MPCB",07-05-2024 06:00:00,19.192056,72.9585188,CO,6,102,26
India,Maharashtra,Thane,"Upvan Fort, Thane - MPCB",07-05-2024 06:00:00,19.222279,72.957979,SO2,7,12,10
India,Maharashtra,Ulhasnagar,"Sidhi Vinayak Nagar, Ulhasnagar - MPCB",07-05-2024 06:00:00,19.235581,73.159121,SO2,8,13,10
India,Maharashtra,Ulhasnagar,"Sidhi Vinayak Nagar, Ulhasnagar - MPCB",07-05-2024 06:00:00,19.235581,73.159121,OZONE,1,99,11
India,Maharashtra,Virar,"Bolinj, Virar - MPCB",07-05-2024 06:00:00,19.4458210,72.7988231,PM10,45,74,56
India,Mizoram,Aizawl,"Sikulpuikawn, Aizawl - Mizoram PCB",07-05-2024 06:00:00,23.7176342,92.7192841,CO,6,22,8
India,Odisha,Angul,"Hakimapada, Angul - OSPCB",07-05-2024 06:00:00,20.832874,85.104082,NH3,NA,NA,NA
India,Odisha,Angul,"Hakimapada, Angul - OSPCB",07-05-2024 06:00:00,20.832874,85.104082,CO,18,106,43
India,Odisha,Balasore,"Kalidaspur, Balasore - OSPCB",07-05-2024 06:00:00,21.51161,86.89088,PM2.5,8,55,25
India,Odisha,Balasore,"Kalidaspur, Balasore - OSPCB",07-05-2024 06:00:00,21.51161,86.89088,CO,41,107,61
India,Odisha,Barbil,"Forest Office, Barbil - OSPCB",07-05-2024 06:00:00,22.1166054,85.3945546,PM2.5,43,368,131
India,Odisha,Barbil,"Forest Office, Barbil - OSPCB",07-05-2024 06:00:00,22.1166054,85.3945546,PM10,74,477,196
India,Odisha,Barbil,"Forest Office, Barbil - OSPCB",07-05-2024 06:00:00,22.1166054,85.3945546,CO,22,94,34
India,Odisha,Barbil,"Forest Office, Barbil - OSPCB",07-05-2024 06:00:00,22.1166054,85.3945546,OZONE,11,300,57
India,Odisha,Baripada,"Meher Colony, Baripada - OSPCB",07-05-2024 06:00:00,21.941841,86.728318,SO2,NA,NA,NA
India,Odisha,Baripada,"Meher Colony, Baripada - OSPCB",07-05-2024 06:00:00,21.941841,86.728318,OZONE,NA,NA,NA
India,Odisha,Bhubaneswar,"Lingraj Mandir, Bhubaneswar - OSPCB",07-05-2024 06:00:00,20.240790,85.836784,PM2.5,25,92,51
India,Odisha,Bhubaneswar,"Lingraj Mandir, Bhubaneswar - OSPCB",07-05-2024 06:00:00,20.240790,85.836784,PM10,25,418,82
India,Odisha,Bhubaneswar,"Lingraj Mandir, Bhubaneswar - OSPCB",07-05-2024 06:00:00,20.240790,85.836784,CO,26,85,48
India,Odisha,Bileipada,"Tata Township, Bileipada - OSPCB",07-05-2024 06:00:00,22.06156703,85.47409613,NO2,6,13,10
India,Odisha,Byasanagar,"Ferro Chrome Colony, Byasanagar - OSPCB",07-05-2024 06:00:00,20.94185,86.11510,NH3,1,5,2
India,Odisha,Byasanagar,"Ferro Chrome Colony, Byasanagar - OSPCB",07-05-2024 06:00:00,20.94185,86.11510,SO2,5,22,10
India,Odisha,Cuttack,"CDA Area, Cuttack - OSPCB",07-05-2024 06:00:00,20.48891     ,85.84768     ,PM2.5,10,80,35
India,Odisha,Cuttack,"CDA Area, Cuttack - OSPCB",07-05-2024 06:00:00,20.48891     ,85.84768     ,CO,17,24,19
India,Odisha,Nayagarh,"Dabuna, Nayagarh - OSPCB",07-05-2024 06:00:00,21.847279,85.416905,NH3,4,4,4
India,Odisha,Rourkela,"Fertilizer Township, Rourkela - OSPCB",07-05-2024 06:00:00,22.18972222,84.86277778,PM2.5,97,123,106
India,Odisha,Rourkela,"Raghunathpali, Rourkela - OSPCB",07-05-2024 06:00:00,22.220833,84.809444,PM2.5,26,337,153
India,Odisha,Suakati,"OMC Colony, Suakati - OSPCB",07-05-2024 06:00:00,21.606865,85.510538,PM2.5,64,146,100
India,Odisha,Talcher,"Talcher Coalfields,Talcher - OSPCB",07-05-2024 06:00:00,20.9360711,85.1707021,PM2.5,15,133,61
India,Odisha,Talcher,"Talcher Coalfields,Talcher - OSPCB",07-05-2024 06:00:00,20.9360711,85.1707021,CO,35,59,41
India,Punjab,Amritsar,"Golden Temple, Amritsar - PPCB",07-05-2024 06:00:00,31.620000,74.876512,NH3,4,36,7
India,Punjab,Amritsar,"Golden Temple, Amritsar - PPCB",07-05-2024 06:00:00,31.620000,74.876512,SO2,6,31,16
India,Punjab,Jalandhar,"Civil Line, Jalandhar - PPCB",07-05-2024 06:00:00,31.321907,75.578914,NO2,40,45,43
India,Punjab,Jalandhar,"Civil Line, Jalandhar - PPCB",07-05-2024 06:00:00,31.321907,75.578914,NH3,2,5,3
India,Punjab,Ludhiana,"Punjab Agricultural University, Ludhiana - PPCB",07-05-2024 06:00:00,30.9028,75.8086,CO,2,98,48
India,Punjab,Ludhiana,"Punjab Agricultural University, Ludhiana - PPCB",07-05-2024 06:00:00,30.9028,75.8086,OZONE,15,61,20
India,Punjab,Mandi Gobindgarh,"RIMT University, Mandi Gobindgarh - PPCB",07-05-2024 06:00:00,30.649961,76.331442,NH3,6,6,6
India,Punjab,Mandi Gobindgarh,"RIMT University, Mandi Gobindgarh - PPCB",07-05-2024 06:00:00,30.649961,76.331442,OZONE,49,51,49
India,Punjab,Rupnagar,"Ratanpura, Rupnagar - Ambuja Cements",07-05-2024 06:00:00,31.0325454,76.5623046,CO,24,46,30
India,Rajasthan,Alwar,"Moti Doongri, Alwar - RSPCB",07-05-2024 06:00:00,27.554793,76.611536,OZONE,8,61,19
India,Rajasthan,Banswara,"Rati Talai, Banswara - RSPCB",07-05-2024 06:00:00,23.555190,74.440010,PM10,94,148,119
India,Rajasthan,Baran,"Bamboliya, Baran - RSPCB",07-05-2024 06:00:00,25.106006,76.469948,PM10,112,176,139
India,Rajasthan,Baran,"Bamboliya, Baran - RSPCB",07-05-2024 06:00:00,25.106006,76.469948,OZONE,12,176,52
India,Rajasthan,Barmer,"Railway Colony, Barmer - RSPCB",07-05-2024 06:00:00,25.747299,71.393989,PM2.5,19,51,34
India,Rajasthan,Barmer,"Railway Colony, Barmer - RSPCB",07-05-2024 06:00:00,25.747299,71.393989,PM10,100,172,128
India,Rajasthan,Barmer,"Railway Colony, Barmer - RSPCB",07-05-2024 06:00:00,25.747299,71.393989,NO2,2,12,4
India,Rajasthan,Barmer,"Railway Colony, Barmer - RSPCB",07-05-2024 06:00:00,25.747299,71.393989,NH3,3,57,18
India,Rajasthan,Bharatpur,"Krishna Nagar, Bharatpur - RSPCB",07-05-2024 06:00:00,27.215415,77.50873,CO,18,86,57
India,Rajasthan,Bharatpur,"Krishna Nagar, Bharatpur - RSPCB",07-05-2024 06:00:00,27.215415,77.50873,OZONE,2,150,25
India,Rajasthan,Bhilwara,"Pratap Nagar, Bhilwara - RSPCB",07-05-2024 06:00:00,25.339605,74.618883,PM10,28,167,75
India,Rajasthan,Bhiwadi,"RIICO Ind. Area III, Bhiwadi - RSPCB",07-05-2024 06:00:00,28.194909,76.862296,PM2.5,86,349,219
India,Rajasthan,Bhiwadi,"RIICO Ind. Area III, Bhiwadi - RSPCB",07-05-2024 06:00:00,28.194909,76.862296,NH3,6,28,14
India,Rajasthan,Bhiwadi,"RIICO Ind. Area III, Bhiwadi - RSPCB",07-05-2024 06:00:00,28.194909,76.862296,SO2,17,52,31
India,Rajasthan,Bikaner,"MM Ground, Bikaner - RSPCB",07-05-2024 06:00:00,28.018792,73.292658,PM2.5,19,111,62
India,Rajasthan,Bikaner,"MM Ground, Bikaner - RSPCB",07-05-2024 06:00:00,28.018792,73.292658,NO2,36,107,59
India,Rajasthan,Bikaner,"MM Ground, Bikaner - RSPCB",07-05-2024 06:00:00,28.018792,73.292658,NH3,10,14,12
India,Rajasthan,Bikaner,"MM Ground, Bikaner - RSPCB",07-05-2024 06:00:00,28.018792,73.292658,CO,16,108,48
India,Rajasthan,Bundi,"New Colony, Bundi - RSPCB",07-05-2024 06:00:00,25.435774,75.644272,PM10,75,500,138
India,Rajasthan,Chittorgarh,"Shastri Nagar, Chittorgarh - RSPCB",07-05-2024 06:00:00,24.892047,74.623527,CO,12,64,23
India,Rajasthan,Chittorgarh,"Shastri Nagar, Chittorgarh - RSPCB",07-05-2024 06:00:00,24.892047,74.623527,OZONE,14,165,56
India,Rajasthan,Dausa,"Khatikan Mohalla, Dausa - RSPCB",07-05-2024 06:00:00,26.895552,76.334753,NO2,47,142,74
India,Rajasthan,Dausa,"Khatikan Mohalla, Dausa - RSPCB",07-05-2024 06:00:00,26.895552,76.334753,SO2,2,23,6
India,Rajasthan,Dausa,"Khatikan Mohalla, Dausa - RSPCB",07-05-2024 06:00:00,26.895552,76.334753,OZONE,11,193,46
India,Rajasthan,Dholpur,"Raja Ganj, Dholpur - RSPCB",07-05-2024 06:00:00,26.699557,77.898881,PM2.5,38,312,120
India,Rajasthan,Dungarpur,"Bhoiwada, Dungarpur - RSPCB",07-05-2024 06:00:00,23.837789,73.714926,PM2.5,13,50,29
India,Rajasthan,Dungarpur,"Bhoiwada, Dungarpur - RSPCB",07-05-2024 06:00:00,23.837789,73.714926,OZONE,21,70,45
India,Rajasthan,Jaipur,"Adarsh Nagar, Jaipur - RSPCB",07-05-2024 06:00:00,26.902909,75.836858,SO2,7,19,13
India,Rajasthan,Jaipur,"Police Commissionerate, Jaipur - RSPCB",07-05-2024 06:00:00,26.9164092,75.7994901,NO2,17,119,68
India,Rajasthan,Jaipur,"Police Commissionerate, Jaipur - RSPCB",07-05-2024 06:00:00,26.9164092,75.7994901,NH3,5,11,8
India,Rajasthan,Jaipur,"Police Commissionerate, Jaipur - RSPCB",07-05-2024 06:00:00,26.9164092,75.7994901,CO,20,107,66
India,Rajasthan,Jaipur,"Police Commissionerate, Jaipur - RSPCB",07-05-2024 06:00:00,26.9164092,75.7994901,OZONE,10,119,11
India,Rajasthan,Jaipur,"RIICO Sitapura, Jaipur - RSPCB",07-05-2024 06:00:00,26.786682,75.827928,SO2,13,35,18
India,Rajasthan,Jaipur,"RIICO Sitapura, Jaipur - RSPCB",07-05-2024 06:00:00,26.786682,75.827928,CO,16,108,77
India,Rajasthan,Jaipur,"Sector-2 Murlipura, Jaipur - RSPCB",07-05-2024 06:00:00,26.960669,75.771817,CO,28,107,67
India,Rajasthan,Jaipur,"Shastri Nagar, Jaipur - RSPCB",07-05-2024 06:00:00,26.9502929,75.730943,NO2,22,83,49
India,Rajasthan,Jaipur,"Shastri Nagar, Jaipur - RSPCB",07-05-2024 06:00:00,26.9502929,75.730943,CO,2,101,48
India,Rajasthan,Jalore,"Mudtra Sili, Jalore - RSPCB",07-05-2024 06:00:00,25.344694,72.626208,PM2.5,27,60,41
India,Rajasthan,Jhalawar,"Rajlaxmi Nagar, Jhalawar - RSPCB",07-05-2024 06:00:00,24.588397,76.172782,NH3,1,3,2
India,Rajasthan,Jhunjhunu,"Indra Nagar, Jhunjhunu - RSPCB",07-05-2024 06:00:00,28.108988,75.386577,NO2,13,83,35
India,Rajasthan,Jhunjhunu,"Indra Nagar, Jhunjhunu - RSPCB",07-05-2024 06:00:00,28.108988,75.386577,SO2,4,11,6
India,Rajasthan,Jodhpur,"Collectorate, Jodhpur - RSPCB",07-05-2024 06:00:00,26.268249,73.0193853,SO2,1,21,11
India,Rajasthan,Jodhpur,"Collectorate, Jodhpur - RSPCB",07-05-2024 06:00:00,26.268249,73.0193853,CO,8,160,65
India,Rajasthan,Jodhpur,"Collectorate, Jodhpur - RSPCB",07-05-2024 06:00:00,26.268249,73.0193853,OZONE,1,127,42
India,Rajasthan,Jodhpur,"Digari Kalan, Jodhpur - RSPCB",07-05-2024 06:00:00,26.295810,73.082283,PM2.5,18,138,45
India,Rajasthan,Jodhpur,"Digari Kalan, Jodhpur - RSPCB",07-05-2024 06:00:00,26.295810,73.082283,PM10,75,318,134
India,Rajasthan,Jodhpur,"Digari Kalan, Jodhpur - RSPCB",07-05-2024 06:00:00,26.295810,73.082283,NH3,2,10,4
India,Rajasthan,Jodhpur,"Jhalamand, Jodhpur - RSPCB",07-05-2024 06:00:00,26.215415,73.070156,PM2.5,20,314,75
India,Rajasthan,Jodhpur,"Jhalamand, Jodhpur - RSPCB",07-05-2024 06:00:00,26.215415,73.070156,CO,3,98,39
India,Rajasthan,Jodhpur,"Mandor, Jodhpur - RSPCB",07-05-2024 06:00:00,26.358805,73.047444,PM10,83,208,127
India,Rajasthan,Jodhpur,"Samrat Ashok Udhyan, Jodhpur - RSPCB",07-05-2024 06:00:00,26.253384,72.976571,PM2.5,18,229,52
India,Rajasthan,Kota,"Dhanmandi, Kota - RSPCB",07-05-2024 06:00:00,25.164090,75.858137,NH3,3,9,4
India,Rajasthan,Kota,"Nayapura, Kota - RSPCB",07-05-2024 06:00:00,25.196024,75.855668,SO2,7,21,12
India,Rajasthan,Kota,"Shrinath Puram, Kota - RSPCB",07-05-2024 06:00:00,25.14389,75.821256,NH3,6,17,10
India,Rajasthan,Nagaur,"Karni Colony, Nagaur - RSPCB",07-05-2024 06:00:00,27.213494,73.734444,CO,12,74,52
India,Rajasthan,Pali,"Indira Colony Vistar, Pali - RSPCB",07-05-2024 06:00:00,25.771061, 73.340227,NH3,6,17,12
India,Rajasthan,Rajsamand,"Dhoinda, Rajsamand - RSPCB",07-05-2024 06:00:00,25.036360,73.883502,CO,23,76,64
India,Rajasthan,Sawai Madhopur,"Sahu Nagar, Sawai Madhopur - RSPCB",07-05-2024 06:00:00,26.031443,76.359327,NO2,4,51,19
India,Rajasthan,Sawai Madhopur,"Sahu Nagar, Sawai Madhopur - RSPCB",07-05-2024 06:00:00,26.031443,76.359327,SO2,1,12,3
India,Rajasthan,Sawai Madhopur,"Sahu Nagar, Sawai Madhopur - RSPCB",07-05-2024 06:00:00,26.031443,76.359327,CO,1,81,52
India,Rajasthan,Sawai Madhopur,"Sahu Nagar, Sawai Madhopur - RSPCB",07-05-2024 06:00:00,26.031443,76.359327,OZONE,2,170,14
India,Rajasthan,Sikar,"Radhakishan Pura, Sikar - RSPCB",07-05-2024 06:00:00,27.608912,75.153302,NO2,8,77,34
India,Rajasthan,Sikar,"Radhakishan Pura, Sikar - RSPCB",07-05-2024 06:00:00,27.608912,75.153302,CO,2,120,72
India,Rajasthan,Sirohi,"Vedhaynath Colony, Sirohi - RSPCB",07-05-2024 06:00:00,24.885261,72.857549,PM2.5,27,49,37
India,Rajasthan,Sirohi,"Vedhaynath Colony, Sirohi - RSPCB",07-05-2024 06:00:00,24.885261,72.857549,OZONE,23,113,61
India,Rajasthan,Sri Ganganagar,"Old City, Sri Ganganagar - RSPCB",07-05-2024 06:00:00,29.931624,73.864511,PM2.5,NA,NA,NA
India,Rajasthan,Tonk,"Shastri Nagar, Tonk - RSPCB",07-05-2024 06:00:00,26.159933,75.780517,SO2,2,20,13
India,Rajasthan,Tonk,"Shastri Nagar, Tonk - RSPCB",07-05-2024 06:00:00,26.159933,75.780517,CO,2,102,52
India,Rajasthan,Udaipur,"Ashok Nagar, Udaipur - RSPCB",07-05-2024 06:00:00,24.5886166,73.6321397,NO2,66,126,102
India,Sikkim,Gangtok,"Zero Point GICI, Gangtok - SSPCB",07-05-2024 06:00:00,27.338530,88.614099,PM2.5,23,39,30
India,Sikkim,Gangtok,"Zero Point GICI, Gangtok - SSPCB",07-05-2024 06:00:00,27.338530,88.614099,CO,14,28,17
India,Sikkim,Gangtok,"Zero Point GICI, Gangtok - SSPCB",07-05-2024 06:00:00,27.338530,88.614099,OZONE,22,76,28
India,TamilNadu,Ariyalur,"Keelapalur, Ariyalur - TNPCB",07-05-2024 06:00:00,11.06825,79.07033,NO2,4,6,5
India,TamilNadu,Ariyalur,"Keelapalur, Ariyalur - TNPCB",07-05-2024 06:00:00,11.06825,79.07033,NH3,1,2,2
India,TamilNadu,Chennai,"Alandur Bus Depot, Chennai - CPCB",07-05-2024 06:00:00,12.9099161,80.1076538,CO,52,106,95
India,TamilNadu,Chennai,"Kodungaiyur, Chennai - TNPCB",07-05-2024 06:00:00,13.1278,80.2642,PM2.5,5,34,19
India,TamilNadu,Chennai,"Kodungaiyur, Chennai - TNPCB",07-05-2024 06:00:00,13.1278,80.2642,NH3,3,5,4
India,TamilNadu,Chennai,"Velachery Res. Area, Chennai - CPCB",07-05-2024 06:00:00,13.0052189,80.2398125,CO,1,110,2
India,TamilNadu,Coimbatore,"PSG College of Arts and Science, Coimbatore - TNPCB",07-05-2024 06:00:00,11.0328,77.0349,NO2,2,3,2
India,TamilNadu,Cuddalore,"Kudikadu, Cuddalore - TNPCB",07-05-2024 06:00:00,11.6829898,79.7532099,PM2.5,40,137,85
India,TamilNadu,Cuddalore,"Kudikadu, Cuddalore - TNPCB",07-05-2024 06:00:00,11.6829898,79.7532099,NH3,3,5,3
India,TamilNadu,Gummidipoondi,"Anthoni Pillai Nagar, Gummidipoondi - TNPCB",07-05-2024 06:00:00,13.4127,80.1081,SO2,2,30,11
India,TamilNadu,Palkalaiperur,"Bharathidasan University, Palkalaiperur - TNPCB",07-05-2024 06:00:00,10.681158,78.741746,OZONE,1,3,1
India,TamilNadu,Ramanathapuram,"Chalai Bazaar, Ramanathapuram - TNPCB",07-05-2024 06:00:00,9.36399,78.831977,PM2.5,17,47,27
India,TamilNadu,Ramanathapuram,"Chalai Bazaar, Ramanathapuram - TNPCB",07-05-2024 06:00:00,9.36399,78.831977,NH3,1,1,1
India,TamilNadu,Ramanathapuram,"Chalai Bazaar, Ramanathapuram - TNPCB",07-05-2024 06:00:00,9.36399,78.831977,SO2,7,11,9
India,TamilNadu,Salem,"Sona College of Technology, Salem - TNPCB",07-05-2024 06:00:00,11.679111,78.125052,SO2,8,117,55
India,TamilNadu,Vellore,"Vasanthapuram, Vellore - TNPCB",07-05-2024 06:00:00,12.909494,79.131861,PM10,35,103,82
India,TamilNadu,Vellore,"Vasanthapuram, Vellore - TNPCB",07-05-2024 06:00:00,12.909494,79.131861,NH3,1,1,1
India,TamilNadu,Virudhunagar,"Collectorate Office, Virudhunagar - TNPCB",07-05-2024 06:00:00,9.559382,77.948828,PM10,NA,NA,NA
India,TamilNadu,Virudhunagar,"Collectorate Office, Virudhunagar - TNPCB",07-05-2024 06:00:00,9.559382,77.948828,SO2,NA,NA,NA
India,TamilNadu,Virudhunagar,"Collectorate Office, Virudhunagar - TNPCB",07-05-2024 06:00:00,9.559382,77.948828,CO,NA,NA,NA
India,Telangana,Hyderabad,"Central University, Hyderabad - TSPCB",07-05-2024 06:00:00,17.460103,78.334361,NH3,2,7,5
India,Telangana,Hyderabad,"Central University, Hyderabad - TSPCB",07-05-2024 06:00:00,17.460103,78.334361,CO,15,28,23
India,Telangana,Hyderabad,"ECIL Kapra, Hyderabad - TSPCB",07-05-2024 06:00:00,17.470431,78.566959,SO2,1,19,9
India,Telangana,Hyderabad,"ICRISAT Patancheru, Hyderabad - TSPCB",07-05-2024 06:00:00,17.518400,78.278777,NO2,15,17,16
India,Telangana,Hyderabad,"Kokapet, Hyderabad - TSPCB",07-05-2024 06:00:00,17.393559,78.339194,NH3,2,2,2
India,Telangana,Hyderabad,"Nacharam_TSIIC IALA, Hyderabad - TSPCB",07-05-2024 06:00:00,17.429398,78.569354,NO2,10,11,10
India,Telangana,Hyderabad,"New Malakpet, Hyderabad - TSPCB",07-05-2024 06:00:00,17.37206,78.50864,NH3,3,3,3
India,Telangana,Hyderabad,"Sanathnagar, Hyderabad - TSPCB",07-05-2024 06:00:00,17.4559458,78.4332152,SO2,13,65,29
India,Telangana,Hyderabad,"Zoo Park, Hyderabad - TSPCB",07-05-2024 06:00:00,17.349694,78.451437,PM2.5,38,113,76
India,Telangana,Hyderabad,"Zoo Park, Hyderabad - TSPCB",07-05-2024 06:00:00,17.349694,78.451437,PM10,61,156,122
India,Uttar_Pradesh,Agra,"Manoharpur, Agra - UPPCB",07-05-2024 06:00:00,27.23711,78.01936,SO2,5,42,16
India,Uttar_Pradesh,Agra,"Rohta, Agra - UPPCB",07-05-2024 06:00:00,27.106972,78.000111,PM10,18,122,64
India,Uttar_Pradesh,Agra,"Sanjay Palace, Agra - UPPCB",07-05-2024 06:00:00,27.19865833,78.00598056,CO,4,79,41
India,Uttar_Pradesh,Agra,"Sector-3B Avas Vikas Colony, Agra - UPPCB",07-05-2024 06:00:00,27.19412,77.96237,NH3,6,18,11
India,Uttar_Pradesh,Agra,"Sector-3B Avas Vikas Colony, Agra - UPPCB",07-05-2024 06:00:00,27.19412,77.96237,CO,8,28,23
India,Uttar_Pradesh,Agra,"Shahjahan Garden, Agra - UPPCB",07-05-2024 06:00:00,27.169338,78.03582,PM2.5,28,225,65
India,Uttar_Pradesh,Agra,"Shastripuram, Agra - UPPCB",07-05-2024 06:00:00,27.19862,77.92066,NO2,31,79,40
India,Uttar_Pradesh,Agra,"Shastripuram, Agra - UPPCB",07-05-2024 06:00:00,27.19862,77.92066,SO2,11,19,16
India,Uttar_Pradesh,Baghpat,"Sardar Patel Inter College, Baghpat - UPPCB",07-05-2024 06:00:00,28.964949,77.278761,NO2,NA,NA,NA
India,Uttar_Pradesh,Bareilly,"Civil Lines, Bareilly - UPPCB",07-05-2024 06:00:00,28.359581,79.414455,PM2.5,NA,NA,NA
India,Uttar_Pradesh,Bareilly,"Civil Lines, Bareilly - UPPCB",07-05-2024 06:00:00,28.359581,79.414455,SO2,NA,NA,NA
India,Uttar_Pradesh,Bareilly,"Rajendra Nagar, Bareilly - UPPCB",07-05-2024 06:00:00,28.38910936,79.42963708,NO2,2,2,2
India,Uttar_Pradesh,Bulandshahr,"Yamunapuram, Bulandshahr - UPPCB",07-05-2024 06:00:00,28.406963,77.849831,CO,24,106,82
India,Uttar_Pradesh,Bulandshahr,"Yamunapuram, Bulandshahr - UPPCB",07-05-2024 06:00:00,28.406963,77.849831,OZONE,2,124,6
India,Uttar_Pradesh,Firozabad,"Nagla Bhau, Firozabad - UPPCB",07-05-2024 06:00:00,27.168897,78.376960,OZONE,16,22,17
India,Uttar_Pradesh,Ghaziabad,"Indirapuram, Ghaziabad - UPPCB",07-05-2024 06:00:00,28.646233,77.358075,NO2,25,90,63
India,Uttar_Pradesh,Ghaziabad,"Sanjay Nagar, Ghaziabad - UPPCB",07-05-2024 06:00:00,28.685382,77.453839,PM2.5,60,377,204
India,Uttar_Pradesh,Ghaziabad,"Sanjay Nagar, Ghaziabad - UPPCB",07-05-2024 06:00:00,28.685382,77.453839,NO2,25,145,83
India,Uttar_Pradesh,Ghaziabad,"Vasundhara, Ghaziabad - UPPCB",07-05-2024 06:00:00,28.6603346,77.3572563,PM2.5,40,324,168
India,Uttar_Pradesh,Ghaziabad,"Vasundhara, Ghaziabad - UPPCB",07-05-2024 06:00:00,28.6603346,77.3572563,PM10,112,293,186
India,Uttar_Pradesh,Ghaziabad,"Vasundhara, Ghaziabad - UPPCB",07-05-2024 06:00:00,28.6603346,77.3572563,OZONE,29,255,75
India,Uttar_Pradesh,Gorakhpur,"Madan Mohan Malaviya University of Technology, Gorakhpur - UPPCB",07-05-2024 06:00:00,26.730136,83.433859,PM2.5,49,104,69
India,Uttar_Pradesh,Gorakhpur,"Madan Mohan Malaviya University of Technology, Gorakhpur - UPPCB",07-05-2024 06:00:00,26.730136,83.433859,SO2,37,41,39
India,Uttar_Pradesh,Greater Noida,"Knowledge Park - III, Greater Noida - UPPCB",07-05-2024 06:00:00,28.47272,77.482000,NH3,1,9,4
India,Uttar_Pradesh,Hapur,"Anand Vihar, Hapur - UPPCB",07-05-2024 06:00:00,28.725645,77.749675,PM2.5,22,305,149
India,Uttar_Pradesh,Hapur,"Anand Vihar, Hapur - UPPCB",07-05-2024 06:00:00,28.725645,77.749675,NO2,5,64,26
India,Uttar_Pradesh,Hapur,"Anand Vihar, Hapur - UPPCB",07-05-2024 06:00:00,28.725645,77.749675,CO,24,40,38
India,Uttar_Pradesh,Khurja,"Kalindi Kunj, Khurja - UPPCB",07-05-2024 06:00:00,28.2348927,77.8683002,NO2,3,4,3
India,Uttar_Pradesh,Khurja,"Kalindi Kunj, Khurja - UPPCB",07-05-2024 06:00:00,28.2348927,77.8683002,NH3,1,2,1
India,Uttar_Pradesh,Lucknow,"B R Ambedkar University, Lucknow - UPPCB",07-05-2024 06:00:00,26.766433,80.927299,PM2.5,47,313,122
India,Uttar_Pradesh,Lucknow,"Gomti Nagar, Lucknow - UPPCB",07-05-2024 06:00:00,26.868120,81.005119,SO2,5,17,9
India,Uttar_Pradesh,Lucknow,"Gomti Nagar, Lucknow - UPPCB",07-05-2024 06:00:00,26.868120,81.005119,OZONE,33,43,35
India,Uttar_Pradesh,Lucknow,"Kendriya Vidyalaya, Lucknow - CPCB",07-05-2024 06:00:00,26.906111,80.948222,PM10,151,241,188
India,Uttar_Pradesh,Lucknow,"Kendriya Vidyalaya, Lucknow - CPCB",07-05-2024 06:00:00,26.906111,80.948222,NO2,2,37,13
India,Uttar_Pradesh,Lucknow,"Kukrail Picnic Spot-1, Lucknow - UPPCB",07-05-2024 06:00:00,26.90723,80.98579,PM2.5,60,319,160
India,Uttar_Pradesh,Lucknow,"Kukrail Picnic Spot-1, Lucknow - UPPCB",07-05-2024 06:00:00,26.90723,80.98579,CO,20,40,30
India,Uttar_Pradesh,Lucknow,"Lalbagh, Lucknow - CPCB",07-05-2024 06:00:00,26.8458805,80.9365541,NH3,19,23,20
India,Uttar_Pradesh,Lucknow,"Talkatora District Industries Center, Lucknow - CPCB",07-05-2024 06:00:00,26.83399722,80.8917361,CO,6,54,30
India,Uttar_Pradesh,Lucknow,"Talkatora District Industries Center, Lucknow - CPCB",07-05-2024 06:00:00,26.83399722,80.8917361,OZONE,2,80,7
India,Uttar_Pradesh,Meerut,"Ganga Nagar, Meerut - UPPCB",07-05-2024 06:00:00,28.999264,77.7590354,CO,26,105,75
India,Uttar_Pradesh,Meerut,"Jai Bhim Nagar, Meerut - UPPCB",07-05-2024 06:00:00,28.9535882,77.7622941,SO2,4,67,13
India,Uttar_Pradesh,Moradabad,"Buddhi Vihar, Moradabad - UPPCB",07-05-2024 06:00:00,28.83526,78.74460,PM10,89,265,146
India,Uttar_Pradesh,Moradabad,"Eco Herbal Park, Moradabad - UPPCB",07-05-2024 06:00:00,28.840739,78.697531,PM2.5,33,257,93
India,Uttar_Pradesh,Moradabad,"Eco Herbal Park, Moradabad - UPPCB",07-05-2024 06:00:00,28.840739,78.697531,NO2,10,75,40
India,Uttar_Pradesh,Moradabad,"Employment Office, Moradabad - UPPCB",07-05-2024 06:00:00,28.88528,78.73880,PM2.5,36,147,71
India,Uttar_Pradesh,Moradabad,"Employment Office, Moradabad - UPPCB",07-05-2024 06:00:00,28.88528,78.73880,CO,13,75,55
India,Uttar_Pradesh,Moradabad,"Jigar Colony, Moradabad - UPPCB",07-05-2024 06:00:00,28.856664,78.772638,NH3,6,6,6
India,Uttar_Pradesh,Moradabad,"Kashiram Nagar, Moradabad - UPPCB",07-05-2024 06:00:00,28.849399,78.742362,CO,20,64,54
India,Uttar_Pradesh,Moradabad,"Transport Nagar, Moradabad - UPPCB",07-05-2024 06:00:00,28.802625,78.753728,PM2.5,28,165,89
India,Uttar_Pradesh,Moradabad,"Transport Nagar, Moradabad - UPPCB",07-05-2024 06:00:00,28.802625,78.753728,NH3,5,5,5
India,Uttar_Pradesh,Moradabad,"Transport Nagar, Moradabad - UPPCB",07-05-2024 06:00:00,28.802625,78.753728,OZONE,9,52,12
India,Uttar_Pradesh,Muzaffarnagar,"New Mandi, Muzaffarnagar - UPPCB",07-05-2024 06:00:00,29.4723508,77.7194031,PM10,136,308,210
India,Uttar_Pradesh,Noida,"Sector - 125, Noida - UPPCB",07-05-2024 06:00:00,28.5447608,77.3231257,SO2,18,92,34
India,Uttar_Pradesh,Noida,"Sector - 62, Noida - IMD",07-05-2024 06:00:00,28.6245479,77.3577104,OZONE,NA,NA,NA
India,Uttar_Pradesh,Noida,"Sector-1, Noida - UPPCB",07-05-2024 06:00:00,28.5898,77.3101,PM2.5,66,363,221
India,Uttar_Pradesh,Noida,"Sector-1, Noida - UPPCB",07-05-2024 06:00:00,28.5898,77.3101,PM10,160,403,281
India,Uttar_Pradesh,Noida,"Sector-1, Noida - UPPCB",07-05-2024 06:00:00,28.5898,77.3101,CO,34,125,103
India,Uttar_Pradesh,Noida,"Sector-116, Noida - UPPCB",07-05-2024 06:00:00,28.569230,77.393848,PM2.5,72,385,226
India,Uttar_Pradesh,Noida,"Sector-116, Noida - UPPCB",07-05-2024 06:00:00,28.569230,77.393848,PM10,157,435,294
India,Uttar_Pradesh,Noida,"Sector-116, Noida - UPPCB",07-05-2024 06:00:00,28.569230,77.393848,SO2,10,66,33
India,Uttar_Pradesh,Noida,"Sector-116, Noida - UPPCB",07-05-2024 06:00:00,28.569230,77.393848,OZONE,3,136,7
India,Uttar_Pradesh,Prayagraj,"Jhunsi, Prayagraj - UPPCB",07-05-2024 06:00:00,25.425602,81.917152,NH3,5,5,5
India,Uttar_Pradesh,Prayagraj,"Jhunsi, Prayagraj - UPPCB",07-05-2024 06:00:00,25.425602,81.917152,OZONE,1,81,23
India,Uttar_Pradesh,Prayagraj,"Nagar Nigam, Prayagraj - UPPCB",07-05-2024 06:00:00,25.44919916 ,81.82735986 ,OZONE,11,12,12
India,Uttar_Pradesh,Varanasi,"Ardhali Bazar, Varanasi - UPPCB",07-05-2024 06:00:00,25.3505986,82.9083074,NO2,12,19,15
India,Uttar_Pradesh,Varanasi,"Ardhali Bazar, Varanasi - UPPCB",07-05-2024 06:00:00,25.3505986,82.9083074,SO2,14,22,17
India,Uttar_Pradesh,Varanasi,"Bhelupur, Varanasi - UPPCB",07-05-2024 06:00:00,25.301778,82.996789,PM10,26,61,42
India,Uttar_Pradesh,Varanasi,"Bhelupur, Varanasi - UPPCB",07-05-2024 06:00:00,25.301778,82.996789,NO2,6,8,8
India,Uttar_Pradesh,Varanasi,"Bhelupur, Varanasi - UPPCB",07-05-2024 06:00:00,25.301778,82.996789,SO2,28,29,28
India,Uttar_Pradesh,Varanasi,"Maldahiya, Varanasi - UPPCB",07-05-2024 06:00:00,25.32393,82.99687,NO2,1,2,2
India,Uttar_Pradesh,Vrindavan,"Omex Eternity, Vrindavan - UPPCB",07-05-2024 06:00:00,27.5714090,77.6557570,CO,24,88,67
India,Uttarakhand,Dehradun,"Doon University, Dehradun - UKPCB",07-05-2024 06:00:00,30.269444,78.044167,NO2,1,9,3
India,Uttarakhand,Kashipur,"Govt. Girls Inter College, Kashipur - UKPCB",07-05-2024 06:00:00,29.2124114,78.9611753,PM10,50,156,119
India,Uttarakhand,Kashipur,"Govt. Girls Inter College, Kashipur - UKPCB",07-05-2024 06:00:00,29.2124114,78.9611753,OZONE,18,106,26
India,Uttarakhand,Rishikesh,"Shivaji Nagar, Rishikesh - UKPCB",07-05-2024 06:00:00,30.075911,78.2859547,PM2.5,96,304,203
India,Uttarakhand,Rishikesh,"Shivaji Nagar, Rishikesh - UKPCB",07-05-2024 06:00:00,30.075911,78.2859547,CO,16,75,46
India,West_Bengal,Asansol,"Asansol Court Area, Asansol - WBPCB",07-05-2024 06:00:00,23.685297,86.945968,NO2,26,43,33
India,West_Bengal,Asansol,"Asansol Court Area, Asansol - WBPCB",07-05-2024 06:00:00,23.685297,86.945968,OZONE,22,99,28
India,West_Bengal,Barrackpore,"SVSPA Campus, Barrackpore - WBPCB",07-05-2024 06:00:00,22.7605581,88.3617589,NO2,3,14,7
India,West_Bengal,Durgapur,"PCBL Residential Complex, Durgapur - WBPCB",07-05-2024 06:00:00,23.5087640,87.3544400,PM2.5,43,201,91
India,West_Bengal,Durgapur,"PCBL Residential Complex, Durgapur - WBPCB",07-05-2024 06:00:00,23.5087640,87.3544400,PM10,36,188,104
India,West_Bengal,Durgapur,"PCBL Residential Complex, Durgapur - WBPCB",07-05-2024 06:00:00,23.5087640,87.3544400,NH3,2,5,2
India,West_Bengal,Durgapur,"Sidhu Kanhu Indoor Stadium, Durgapur - WBPCB",07-05-2024 06:00:00,23.5404352,87.2892225,NO2,11,31,22
India,West_Bengal,Durgapur,"Sidhu Kanhu Indoor Stadium, Durgapur - WBPCB",07-05-2024 06:00:00,23.5404352,87.2892225,NH3,6,8,7
India,West_Bengal,Haldia,"Priyambada Housing Estate, Haldia - WBPCB",07-05-2024 06:00:00,22.06047,88.109737,PM2.5,8,30,16
India,West_Bengal,Howrah,"Belur Math, Howrah - WBPCB",07-05-2024 06:00:00,22.629801,88.352017,NO2,2,15,8
India,West_Bengal,Howrah,"Belur Math, Howrah - WBPCB",07-05-2024 06:00:00,22.629801,88.352017,NH3,1,4,1
India,West_Bengal,Howrah,"Ghusuri, Howrah - WBPCB",07-05-2024 06:00:00,22.611968,88.347422,SO2,3,7,5
India,West_Bengal,Howrah,"Ghusuri, Howrah - WBPCB",07-05-2024 06:00:00,22.611968,88.347422,CO,12,22,17
India,West_Bengal,Howrah,"Padmapukur, Howrah - WBPCB",07-05-2024 06:00:00,22.5687319,88.2797276,PM10,NA,NA,NA
India,West_Bengal,Kolkata,"Ballygunge, Kolkata - WBPCB",07-05-2024 06:00:00,22.5367507,88.3638022,SO2,2,11,7
India,West_Bengal,Kolkata,"Jadavpur, Kolkata - WBPCB",07-05-2024 06:00:00,22.49929,88.36917,PM10,19,54,38
India,West_Bengal,Kolkata,"Jadavpur, Kolkata - WBPCB",07-05-2024 06:00:00,22.49929,88.36917,SO2,3,6,4
India,West_Bengal,Kolkata,"Rabindra Bharati University, Kolkata - WBPCB",07-05-2024 06:00:00,22.627847,88.380669,OZONE,4,287,12
India,West_Bengal,Kolkata,"Victoria, Kolkata - WBPCB",07-05-2024 06:00:00,22.5448082,88.3403691,SO2,5,10,7
India,West_Bengal,Kolkata,"Victoria, Kolkata - WBPCB",07-05-2024 06:00:00,22.5448082,88.3403691,OZONE,18,45,37
India,Andhra_Pradesh,Amaravati,"Secretariat, Amaravati - APPCB",07-05-2024 06:00:00,16.5150833,80.5181667,SO2,7,9,8
India,Andhra_Pradesh,Amaravati,"Secretariat, Amaravati - APPCB",07-05-2024 06:00:00,16.5150833,80.5181667,OZONE,20,64,23
India,Andhra_Pradesh,Anantapur,"Gulzarpet, Anantapur - APPCB",07-05-2024 06:00:00,14.675886,77.593027,PM10,78,123,96
India,Andhra_Pradesh,Chittoor,"Gangineni Cheruvu, Chittoor - APPCB",07-05-2024 06:00:00,13.204880,79.097889,SO2,NA,NA,NA
India,Andhra_Pradesh,Rajamahendravaram,"Anand Kala Kshetram, Rajamahendravaram - APPCB",07-05-2024 06:00:00,16.9872867,81.7363176,PM2.5,8,52,26
India,Andhra_Pradesh,Rajamahendravaram,"Anand Kala Kshetram, Rajamahendravaram - APPCB",07-05-2024 06:00:00,16.9872867,81.7363176,PM10,22,69,43
India,Andhra_Pradesh,Rajamahendravaram,"Anand Kala Kshetram, Rajamahendravaram - APPCB",07-05-2024 06:00:00,16.9872867,81.7363176,NH3,1,5,3
India,Andhra_Pradesh,Tirupati,"Tirumala, Tirupati - APPCB",07-05-2024 06:00:00,13.67,79.35,PM2.5,41,80,57
India,Andhra_Pradesh,Tirupati,"Tirumala, Tirupati - APPCB",07-05-2024 06:00:00,13.67,79.35,NO2,13,75,30
India,Andhra_Pradesh,Tirupati,"Tirumala, Tirupati - APPCB",07-05-2024 06:00:00,13.67,79.35,NH3,1,3,1
India,Andhra_Pradesh,Tirupati,"Tirumala, Tirupati - APPCB",07-05-2024 06:00:00,13.67,79.35,SO2,1,9,3
India,Andhra_Pradesh,Tirupati,"Vaikuntapuram, Tirupati - APPCB",07-05-2024 06:00:00,13.615387,79.409230,PM10,15,239,61
India,Andhra_Pradesh,Tirupati,"Vaikuntapuram, Tirupati - APPCB",07-05-2024 06:00:00,13.615387,79.409230,NH3,2,3,2
India,Andhra_Pradesh,Vijayawada,"Kanuru, Vijayawada - APPCB",07-05-2024 06:00:00,16.486692,80.699436,CO,38,40,40
India,Andhra_Pradesh,Vijayawada,"Rajiv Gandhi Park, Vijayawada - APPCB",07-05-2024 06:00:00,16.509717,80.612222,SO2,5,8,7
India,Arunachal_Pradesh,Naharlagun,"Naharlagun, Naharlagun - APSPCB",07-05-2024 06:00:00,27.103358,93.679645,PM2.5,11,60,41
India,Arunachal_Pradesh,Naharlagun,"Naharlagun, Naharlagun - APSPCB",07-05-2024 06:00:00,27.103358,93.679645,NO2,3,3,3
India,Arunachal_Pradesh,Naharlagun,"Naharlagun, Naharlagun - APSPCB",07-05-2024 06:00:00,27.103358,93.679645,CO,10,24,19
India,Arunachal_Pradesh,Naharlagun,"Naharlagun, Naharlagun - APSPCB",07-05-2024 06:00:00,27.103358,93.679645,OZONE,2,2,2
India,Assam,Byrnihat,"Central Academy for SFS, Byrnihat - PCBA",07-05-2024 06:00:00,26.071318,91.87488,NO2,22,51,32
India,Assam,Byrnihat,"Central Academy for SFS, Byrnihat - PCBA",07-05-2024 06:00:00,26.071318,91.87488,SO2,5,25,12
India,Assam,Byrnihat,"Central Academy for SFS, Byrnihat - PCBA",07-05-2024 06:00:00,26.071318,91.87488,CO,16,38,23
India,Assam,Guwahati,"IITG, Guwahati - PCBA",07-05-2024 06:00:00,26.2028636,91.70046436,PM10,32,69,44
India,Assam,Guwahati,"LGBI Airport, Guwahati - PCBA",07-05-2024 06:00:00,26.10887,91.589544,PM2.5,7,273,58
India,Assam,Guwahati,"LGBI Airport, Guwahati - PCBA",07-05-2024 06:00:00,26.10887,91.589544,CO,47,52,49
India,Assam,Guwahati,"LGBI Airport, Guwahati - PCBA",07-05-2024 06:00:00,26.10887,91.589544,OZONE,9,25,16
India,Assam,Guwahati,"Railway Colony, Guwahati - PCBA",07-05-2024 06:00:00,26.181742,91.78063,NO2,3,4,3
India,Assam,Guwahati,"Railway Colony, Guwahati - PCBA",07-05-2024 06:00:00,26.181742,91.78063,SO2,6,10,8
India,Assam,Nagaon,"Christianpatty, Nagaon - PCBA",07-05-2024 06:00:00,26.349082,92.68449,PM2.5,57,85,67
India,Assam,Nagaon,"Christianpatty, Nagaon - PCBA",07-05-2024 06:00:00,26.349082,92.68449,NO2,1,24,6
India,Assam,Nagaon,"Christianpatty, Nagaon - PCBA",07-05-2024 06:00:00,26.349082,92.68449,NH3,1,4,2
India,Assam,Nalbari,"Bata Chowk, Nalbari - PCBA",07-05-2024 06:00:00,26.446912,91.439057,PM2.5,22,75,51
India,Assam,Nalbari,"Bata Chowk, Nalbari - PCBA",07-05-2024 06:00:00,26.446912,91.439057,OZONE,1,131,2
India,Assam,Silchar,"Tarapur, Silchar - PCBA",07-05-2024 06:00:00,24.82827,92.79525,CO,14,44,34
India,Assam,Sivasagar,"Girls College, Sivasagar - PCBA",07-05-2024 06:00:00,26.987634,94.636574,PM10,29,70,57
India,Assam,Sivasagar,"Girls College, Sivasagar - PCBA",07-05-2024 06:00:00,26.987634,94.636574,NH3,2,4,2
India,Assam,Sivasagar,"Girls College, Sivasagar - PCBA",07-05-2024 06:00:00,26.987634,94.636574,OZONE,1,19,1
India,Bihar,Araria,"Kharahiya Basti, Araria - BSPCB",07-05-2024 06:00:00,26.146529,87.454184,PM2.5,NA,NA,NA
India,Bihar,Arrah,"New DM Office, Arrah - BSPCB",07-05-2024 06:00:00,25.5626095,84.663264,NO2,1,3,1
India,Bihar,Arrah,"New DM Office, Arrah - BSPCB",07-05-2024 06:00:00,25.5626095,84.663264,SO2,8,64,27
India,Bihar,Aurangabad,"Gurdeo Nagar, Aurangabad - BSPCB",07-05-2024 06:00:00,24.75746,84.366208,SO2,NA,NA,NA
India,Bihar,Aurangabad,"Gurdeo Nagar, Aurangabad - BSPCB",07-05-2024 06:00:00,24.75746,84.366208,OZONE,11,151,39
India,Bihar,Bettiah,"Kamalnath Nagar, Bettiah - BSPCB",07-05-2024 06:00:00,26.80365,84.51954,PM2.5,40,303,133
India,Bihar,Bettiah,"Kamalnath Nagar, Bettiah - BSPCB",07-05-2024 06:00:00,26.80365,84.51954,PM10,45,188,110
India,Bihar,Bettiah,"Kamalnath Nagar, Bettiah - BSPCB",07-05-2024 06:00:00,26.80365,84.51954,SO2,8,21,15
India,Bihar,Bhagalpur,"DM Office_Kachari Chowk, Bhagalpur - BSPCB",07-05-2024 06:00:00,25.251013,86.989001,NH3,6,10,8
India,Bihar,Bhagalpur,"Mayaganj, Bhagalpur - BSPCB",07-05-2024 06:00:00,25.265194,87.012947,PM2.5,68,147,97
India,Bihar,Bhagalpur,"Mayaganj, Bhagalpur - BSPCB",07-05-2024 06:00:00,25.265194,87.012947,PM10,60,105,81
India,Bihar,Buxar,"Charitra Van, Buxar - BSPCB (Formerly known as Central Jail)",07-05-2024 06:00:00,25.567520,83.966379,NH3,3,3,3
India,Bihar,Buxar,"Charitra Van, Buxar - BSPCB (Formerly known as Central Jail)",07-05-2024 06:00:00,25.567520,83.966379,SO2,5,13,9
India,Bihar,Chhapra,"Darshan Nagar, Chhapra - BSPCB",07-05-2024 06:00:00,25.7808257,84.7446768,PM2.5,35,97,68
India,Bihar,Chhapra,"Darshan Nagar, Chhapra - BSPCB",07-05-2024 06:00:00,25.7808257,84.7446768,NO2,14,23,18
India,Bihar,Chhapra,"Darshan Nagar, Chhapra - BSPCB",07-05-2024 06:00:00,25.7808257,84.7446768,OZONE,1,13,1
India,Bihar,Gaya,"Collectorate, Gaya - BSPCB",07-05-2024 06:00:00,24.7955,84.9994,SO2,5,26,11
India,Bihar,Gaya,"SFTI Kusdihra, Gaya - BSPCB",07-05-2024 06:00:00,24.762518,84.982348,PM2.5,49,177,87
India,Bihar,Hajipur,"Industrial Area, Hajipur - BSPCB",07-05-2024 06:00:00,25.697189,85.245900,NH3,8,8,8
India,Bihar,Kishanganj,"SDM Office_Khagra, Kishanganj - BSPCB",07-05-2024 06:00:00,26.0881305,87.93840336,PM2.5,20,85,48
India,Bihar,Kishanganj,"SDM Office_Khagra, Kishanganj - BSPCB",07-05-2024 06:00:00,26.0881305,87.93840336,NH3,8,9,9
India,Bihar,Munger,"Town Hall, Munger - BSPCB",07-05-2024 06:00:00,25.376776,86.471523,PM10,30,194,106
India,Bihar,Munger,"Town Hall, Munger - BSPCB",07-05-2024 06:00:00,25.376776,86.471523,NO2,4,6,5
India,Bihar,Munger,"Town Hall, Munger - BSPCB",07-05-2024 06:00:00,25.376776,86.471523,NH3,2,3,3
India,Bihar,Muzaffarpur,"Buddha Colony, Muzaffarpur - BSPCB",07-05-2024 06:00:00,26.11442,85.39813,PM2.5,57,247,144
India,Bihar,Muzaffarpur,"Buddha Colony, Muzaffarpur - BSPCB",07-05-2024 06:00:00,26.11442,85.39813,SO2,4,9,7
India,Bihar,Muzaffarpur,"MIT-Daudpur Kothi, Muzaffarpur - BSPCB",07-05-2024 06:00:00,26.1403345,85.3650192,PM2.5,32,209,87
India,Bihar,Muzaffarpur,"MIT-Daudpur Kothi, Muzaffarpur - BSPCB",07-05-2024 06:00:00,26.1403345,85.3650192,NO2,4,6,5
India,Bihar,Muzaffarpur,"MIT-Daudpur Kothi, Muzaffarpur - BSPCB",07-05-2024 06:00:00,26.1403345,85.3650192,OZONE,20,44,27
India,Bihar,Muzaffarpur,"Muzaffarpur Collectorate, Muzaffarpur - BSPCB",07-05-2024 06:00:00,26.1209,85.3647,NO2,27,44,33
India,Bihar,Muzaffarpur,"Muzaffarpur Collectorate, Muzaffarpur - BSPCB",07-05-2024 06:00:00,26.1209,85.3647,CO,40,71,71
India,Bihar,Patna,"IGSC Planetarium Complex, Patna - BSPCB",07-05-2024 06:00:00,25.610369,85.132568,NO2,11,11,11
India,Bihar,Patna,"IGSC Planetarium Complex, Patna - BSPCB",07-05-2024 06:00:00,25.610369,85.132568,OZONE,42,59,45
India,Bihar,Patna,"Rajbansi Nagar, Patna - BSPCB",07-05-2024 06:00:00,25.599486,85.113666,PM2.5,46,99,77
India,Bihar,Patna,"Rajbansi Nagar, Patna - BSPCB",07-05-2024 06:00:00,25.599486,85.113666,SO2,5,14,10
India,Bihar,Patna,"Rajbansi Nagar, Patna - BSPCB",07-05-2024 06:00:00,25.599486,85.113666,OZONE,33,53,34
India,Bihar,Patna,"Samanpura, Patna - BSPCB",07-05-2024 06:00:00,25.596727,85.085624,NO2,9,124,19
India,Bihar,Rajgir,"Dangi Tola, Rajgir - BSPCB",07-05-2024 06:00:00,25.03280,85.41948,NH3,1,5,3
India,Bihar,Saharsa,"Police Line, Saharsa - BSPCB",07-05-2024 06:00:00,25.892357,86.590325,OZONE,4,60,28
India,Bihar,Sasaram,"Dada Peer, Sasaram - BSPCB",07-05-2024 06:00:00,24.952822,84.002396,PM2.5,26,66,38
India,Bihar,Sasaram,"Dada Peer, Sasaram - BSPCB",07-05-2024 06:00:00,24.952822,84.002396,NO2,18,63,40
India,Bihar,Siwan,"Chitragupta Nagar, Siwan - BSPCB",07-05-2024 06:00:00,26.2271665,84.3570427,NO2,8,24,14
India,Bihar,Siwan,"Chitragupta Nagar, Siwan - BSPCB",07-05-2024 06:00:00,26.2271665,84.3570427,SO2,18,35,30
India,Chandigarh,Chandigarh,"Sector 22, Chandigarh - CPCC",07-05-2024 06:00:00,30.735567,76.775714,CO,36,82,70
India,Chandigarh,Chandigarh,"Sector 22, Chandigarh - CPCC",07-05-2024 06:00:00,30.735567,76.775714,OZONE,3,179,33
India,Chandigarh,Chandigarh,"Sector-25, Chandigarh - CPCC",07-05-2024 06:00:00,30.751462,76.762879,PM2.5,92,167,119
India,Chandigarh,Chandigarh,"Sector-25, Chandigarh - CPCC",07-05-2024 06:00:00,30.751462,76.762879,NO2,3,45,15
India,Chandigarh,Chandigarh,"Sector-25, Chandigarh - CPCC",07-05-2024 06:00:00,30.751462,76.762879,OZONE,2,67,5
India,Chandigarh,Chandigarh,"Sector-53, Chandigarh - CPCC",07-05-2024 06:00:00,30.719859,76.738637,PM2.5,42,253,133
India,Chandigarh,Chandigarh,"Sector-53, Chandigarh - CPCC",07-05-2024 06:00:00,30.719859,76.738637,SO2,12,24,19
India,Chhattisgarh,Bhilai,"32Bungalows, Bhilai - CECB",07-05-2024 06:00:00,21.194815,81.314770,PM10,56,105,85
India,Chhattisgarh,Bhilai,"Civic Center, Bhilai - Bhilai Steel Plant",07-05-2024 06:00:00,21.185571,81.343175,SO2,7,11,10
India,Chhattisgarh,Bhilai,"Hathkhoj, Bhilai - CECB",07-05-2024 06:00:00,21.224231,81.408350,NO2,11,42,21
India,Chhattisgarh,Chhal,"Nawapara SECL Colony, Chhal - CECB",07-05-2024 06:00:00,22.118125,83.140608,NO2,16,56,26
India,Chhattisgarh,Chhal,"Nawapara SECL Colony, Chhal - CECB",07-05-2024 06:00:00,22.118125,83.140608,NH3,2,2,2
India,Chhattisgarh,Korba,"Rampur, Korba - CECB",07-05-2024 06:00:00,22.368195,82.746431,PM10,37,171,73
India,Chhattisgarh,Korba,"Rampur, Korba - CECB",07-05-2024 06:00:00,22.368195,82.746431,SO2,14,78,28
India,Chhattisgarh,Korba,"Urja Nagar, Korba - CECB",07-05-2024 06:00:00,22.348441,82.549611,NH3,3,15,6
India,Chhattisgarh,Kunjemura,"OP Jindal School, Kunjemura - CECB",07-05-2024 06:00:00,22.126650,83.483212,PM2.5,40,183,88
India,Chhattisgarh,Milupara,"Govt. Higher Secondary School, Milupara - CECB",07-05-2024 06:00:00,22.1910172,83.5197009,NO2,16,71,40
India,Chhattisgarh,Milupara,"Govt. Higher Secondary School, Milupara - CECB",07-05-2024 06:00:00,22.1910172,83.5197009,CO,9,65,40
India,Chhattisgarh,Raipur,"AIIMS, Raipur - CECB",07-05-2024 06:00:00,21.258815,81.578979,OZONE,8,42,13
India,Chhattisgarh,Raipur,"Bhatagaon New ISBT, Raipur - CECB",07-05-2024 06:00:00,21.219665,81.630094,PM2.5,21,37,31
India,Chhattisgarh,Raipur,"Bhatagaon New ISBT, Raipur - CECB",07-05-2024 06:00:00,21.219665,81.630094,NH3,3,3,3
India,Chhattisgarh,Raipur,"Krishak Nagar, Raipur - CECB",07-05-2024 06:00:00,21.237755,81.705301,PM10,40,57,49
India,Chhattisgarh,Raipur,"Krishak Nagar, Raipur - CECB",07-05-2024 06:00:00,21.237755,81.705301,OZONE,5,27,11
India,Chhattisgarh,Raipur,"Siltara Phase-II, Raipur - CECB",07-05-2024 06:00:00,21.371751,81.664929,PM10,72,199,130
India,Chhattisgarh,Raipur,"Siltara Phase-II, Raipur - CECB",07-05-2024 06:00:00,21.371751,81.664929,NO2,35,83,56
India,Delhi,Delhi,"Anand Vihar, Delhi - DPCC",07-05-2024 06:00:00,28.647622,77.3158090,PM10,165,500,340
India,Delhi,Delhi,"Anand Vihar, Delhi - DPCC",07-05-2024 06:00:00,28.647622,77.3158090,CO,59,152,134
India,Delhi,Delhi,"Bawana, Delhi - DPCC",07-05-2024 06:00:00,28.776200,77.051074,PM2.5,80,409,257
India,Delhi,Delhi,"Bawana, Delhi - DPCC",07-05-2024 06:00:00,28.776200,77.051074,SO2,9,74,29
India,Delhi,Delhi,"Burari Crossing, Delhi - IMD",07-05-2024 06:00:00,28.7256504,77.2011573,CO,25,95,77
India,Delhi,Delhi,"Chandni Chowk, Delhi - IITM",07-05-2024 06:00:00,28.656756,77.227234,PM2.5,251,368,316
India,Delhi,Delhi,"Chandni Chowk, Delhi - IITM",07-05-2024 06:00:00,28.656756,77.227234,PM10,168,409,284
India,Delhi,Delhi,"Dwarka-Sector 8, Delhi - DPCC ",07-05-2024 06:00:00,28.5710274,77.0719006,PM10,162,500,359
India,Delhi,Delhi,"Dwarka-Sector 8, Delhi - DPCC ",07-05-2024 06:00:00,28.5710274,77.0719006,NH3,NA,NA,NA
India,Delhi,Delhi,"Dwarka-Sector 8, Delhi - DPCC ",07-05-2024 06:00:00,28.5710274,77.0719006,SO2,1,36,18
India,Delhi,Delhi,"IHBAS, Dilshad Garden, Delhi - CPCB",07-05-2024 06:00:00,28.6811736,77.3025234,PM2.5,76,245,130
India,Delhi,Delhi,"IHBAS, Dilshad Garden, Delhi - CPCB",07-05-2024 06:00:00,28.6811736,77.3025234,NH3,6,11,9
India,Delhi,Delhi,"Jahangirpuri, Delhi - DPCC",07-05-2024 06:00:00,28.732820,77.170633,PM2.5,73,445,267
India,Delhi,Delhi,"Jahangirpuri, Delhi - DPCC",07-05-2024 06:00:00,28.732820,77.170633,CO,42,142,101
India,Delhi,Delhi,"Jawaharlal Nehru Stadium, Delhi - DPCC",07-05-2024 06:00:00,28.580280,77.233829,NH3,6,12,8
India,Delhi,Delhi,"Lodhi Road, Delhi - IITM",07-05-2024 06:00:00,28.588333,77.221667,NO2,52,140,98
India,Delhi,Delhi,"Lodhi Road, Delhi - IITM",07-05-2024 06:00:00,28.588333,77.221667,OZONE,NA,NA,NA
India,Delhi,Delhi,"Lodhi Road, Delhi - IMD",07-05-2024 06:00:00,28.5918245,77.2273074,PM2.5,59,347,183
India,Delhi,Delhi,"Lodhi Road, Delhi - IMD",07-05-2024 06:00:00,28.5918245,77.2273074,NO2,3,16,8
India,Delhi,Delhi,"Major Dhyan Chand National Stadium, Delhi - DPCC",07-05-2024 06:00:00,28.611281,77.237738,NH3,6,9,7
India,Delhi,Delhi,"NSIT Dwarka, Delhi - CPCB",07-05-2024 06:00:00,28.60909,77.0325413,PM10,161,485,311
India,Delhi,Delhi,"Najafgarh, Delhi - DPCC",07-05-2024 06:00:00,28.570173,76.933762,NH3,6,13,9
India,Delhi,Delhi,"Najafgarh, Delhi - DPCC",07-05-2024 06:00:00,28.570173,76.933762,SO2,8,21,15
India,Delhi,Delhi,"Nehru Nagar, Delhi - DPCC",07-05-2024 06:00:00,28.567890,77.250515,NH3,2,3,3
India,Delhi,Delhi,"North Campus, DU, Delhi - IMD",07-05-2024 06:00:00,28.6573814,77.1585447,PM2.5,98,360,247
India,Delhi,Delhi,"Okhla Phase-2, Delhi - DPCC",07-05-2024 06:00:00,28.530785,77.271255,NH3,7,13,10
India,Delhi,Delhi,"Okhla Phase-2, Delhi - DPCC",07-05-2024 06:00:00,28.530785,77.271255,SO2,10,30,17
India,Delhi,Delhi,"Okhla Phase-2, Delhi - DPCC",07-05-2024 06:00:00,28.530785,77.271255,OZONE,1,133,3
India,Delhi,Delhi,"Punjabi Bagh, Delhi - DPCC",07-05-2024 06:00:00,28.674045,77.131023,PM10,150,424,274
India,Delhi,Delhi,"Pusa, Delhi - IMD",07-05-2024 06:00:00,28.636110,77.173332,PM10,172,430,260
India,Delhi,Delhi,"Rohini, Delhi - DPCC",07-05-2024 06:00:00,28.732528,77.119920,PM2.5,63,416,242
India,Delhi,Delhi,"Rohini, Delhi - DPCC",07-05-2024 06:00:00,28.732528,77.119920,PM10,146,455,301
India,Delhi,Delhi,"Rohini, Delhi - DPCC",07-05-2024 06:00:00,28.732528,77.119920,NH3,9,17,12
India,Delhi,Delhi,"Rohini, Delhi - DPCC",07-05-2024 06:00:00,28.732528,77.119920,CO,23,130,89
India,Delhi,Delhi,"Shadipur, Delhi - CPCB",07-05-2024 06:00:00,28.6514781,77.1473105,CO,44,102,73
India,Delhi,Delhi,"Shadipur, Delhi - CPCB",07-05-2024 06:00:00,28.6514781,77.1473105,OZONE,14,49,18
India,Delhi,Delhi,"Sirifort, Delhi - CPCB",07-05-2024 06:00:00,28.5504249,77.2159377,SO2,12,33,20
India,Delhi,Delhi,"Sonia Vihar, Delhi - DPCC",07-05-2024 06:00:00,28.710508,77.249485,PM2.5,59,404,232
India,Delhi,Delhi,"Sonia Vihar, Delhi - DPCC",07-05-2024 06:00:00,28.710508,77.249485,SO2,11,51,22
India,Delhi,Delhi,"Wazirpur, Delhi - DPCC",07-05-2024 06:00:00,28.699793,77.165453,NO2,31,149,78
India,Delhi,Delhi,"Wazirpur, Delhi - DPCC",07-05-2024 06:00:00,28.699793,77.165453,OZONE,14,228,16
India,Gujarat,Ahmedabad,"Chandkheda, Ahmedabad - IITM",07-05-2024 06:00:00,23.107969,72.574648,PM2.5,45,300,102
India,Gujarat,Ahmedabad,"Chandkheda, Ahmedabad - IITM",07-05-2024 06:00:00,23.107969,72.574648,PM10,50,171,89
India,Gujarat,Ahmedabad,"Chandkheda, Ahmedabad - IITM",07-05-2024 06:00:00,23.107969,72.574648,NO2,48,52,49
India,Gujarat,Ahmedabad,"Gyaspur, Ahmedabad - IITM",07-05-2024 06:00:00,22.977134,72.553024,NH3,NA,NA,NA
India,Gujarat,Ahmedabad,"Gyaspur, Ahmedabad - IITM",07-05-2024 06:00:00,22.977134,72.553024,SO2,NA,NA,NA
India,Gujarat,Ahmedabad,"Gyaspur, Ahmedabad - IITM",07-05-2024 06:00:00,22.977134,72.553024,CO,24,60,55
India,Gujarat,Ahmedabad,"Maninagar, Ahmedabad - GPCB",07-05-2024 06:00:00,23.002657,72.591912,PM10,67,289,110
India,Gujarat,Ahmedabad,"Raikhad, Ahmedabad - IITM",07-05-2024 06:00:00,23.020509,72.579261,CO,16,45,32
India,Gujarat,Ahmedabad,"Rakhial, Ahmedabad - IITM",07-05-2024 06:00:00,23.016834,72.625775,CO,7,82,27
India,Gujarat,Ahmedabad,"SAC ISRO Satellite, Ahmedabad - IITM",07-05-2024 06:00:00,23.023389,72.515201,NO2,32,32,32
India,Gujarat,Ahmedabad,"SAC ISRO Satellite, Ahmedabad - IITM",07-05-2024 06:00:00,23.023389,72.515201,CO,49,51,50
India,Gujarat,Ankleshwar,"GIDC, Ankleshwar - GPCB",07-05-2024 06:00:00,21.613267,73.010555,PM2.5,31,91,55
India,Gujarat,Gandhinagar,"Sector-10, Gandhinagar - GPCB",07-05-2024 06:00:00,23.221714,72.654328,OZONE,3,38,14
India,Gujarat,Surat,"Science Center, Surat - SMC",07-05-2024 06:00:00,21.170046,72.795405,PM2.5,NA,NA,NA
India,Gujarat,Surat,"Science Center, Surat - SMC",07-05-2024 06:00:00,21.170046,72.795405,NO2,27,53,38
India,Gujarat,Vapi,"Phase-1 GIDC, Vapi - GPCB",07-05-2024 06:00:00,20.362421,72.918013,NH3,NA,NA,NA
India,Gujarat,Vatva,"Phase-4 GIDC, Vatva - GPCB",07-05-2024 06:00:00,22.969611,72.643500,NH3,12,18,14
India,Haryana,Ambala,"Patti Mehar, Ambala - HSPCB",07-05-2024 06:00:00,30.379589,76.778328,PM2.5,37,114,67
India,Haryana,Ambala,"Patti Mehar, Ambala - HSPCB",07-05-2024 06:00:00,30.379589,76.778328,CO,30,60,45
India,Haryana,Ambala,"Patti Mehar, Ambala - HSPCB",07-05-2024 06:00:00,30.379589,76.778328,OZONE,26,40,30
India,Haryana,Bahadurgarh,"Arya Nagar, Bahadurgarh - HSPCB",07-05-2024 06:00:00,28.6701,76.9254,PM2.5,71,396,245
India,Haryana,Bahadurgarh,"Arya Nagar, Bahadurgarh - HSPCB",07-05-2024 06:00:00,28.6701,76.9254,PM10,133,410,239
India,Haryana,Bahadurgarh,"Arya Nagar, Bahadurgarh - HSPCB",07-05-2024 06:00:00,28.6701,76.9254,CO,87,102,97
India,Haryana,Ballabgarh,"Nathu Colony, Ballabgarh - HSPCB",07-05-2024 06:00:00,28.3419248,77.319699,OZONE,1,22,2
India,Haryana,Bhiwani,"H.B. Colony, Bhiwani - HSPCB",07-05-2024 06:00:00,28.806223,76.141105,SO2,2,92,18
India,Haryana,Charkhi Dadri,"Mini Secretariat, Charkhi Dadri - HSPCB",07-05-2024 06:00:00,28.593883,76.270653,SO2,27,108,50
India,Haryana,Faridabad,"New Industrial Town, Faridabad - HSPCB",07-05-2024 06:00:00,28.39072,77.30059,PM10,4,490,287
India,Haryana,Faridabad,"New Industrial Town, Faridabad - HSPCB",07-05-2024 06:00:00,28.39072,77.30059,NH3,1,8,4
India,Haryana,Faridabad,"Sector 11, Faridabad - HSPCB",07-05-2024 06:00:00,28.376058,77.315741,PM10,123,496,307
India,Haryana,Faridabad,"Sector 11, Faridabad - HSPCB",07-05-2024 06:00:00,28.376058,77.315741,NO2,30,32,31
India,Haryana,Faridabad,"Sector 30, Faridabad - HSPCB",07-05-2024 06:00:00,28.4417,77.3217,OZONE,58,62,60
India,Haryana,Faridabad,"Sector- 16A, Faridabad - HSPCB",07-05-2024 06:00:00,28.4088421,77.3099081,PM2.5,59,322,169
India,Haryana,Fatehabad,"Huda Sector, Fatehabad - HSPCB",07-05-2024 06:00:00,29.503664,75.467934,NH3,10,11,10
India,Haryana,Fatehabad,"Huda Sector, Fatehabad - HSPCB",07-05-2024 06:00:00,29.503664,75.467934,SO2,11,11,11
India,Haryana,Fatehabad,"Huda Sector, Fatehabad - HSPCB",07-05-2024 06:00:00,29.503664,75.467934,CO,5,28,10
India,Haryana,Gurugram,"Sector-51, Gurugram - HSPCB",07-05-2024 06:00:00,28.4227,77.0667,PM2.5,174,500,384
India,Haryana,Gurugram,"Sector-51, Gurugram - HSPCB",07-05-2024 06:00:00,28.4227,77.0667,NO2,13,29,23
India,Haryana,Gurugram,"Teri Gram, Gurugram - HSPCB",07-05-2024 06:00:00,28.4275,77.1465,PM10,179,366,241
India,Haryana,Gurugram,"Teri Gram, Gurugram - HSPCB",07-05-2024 06:00:00,28.4275,77.1465,NH3,24,44,33
India,Haryana,Hisar,"Urban Estate-II, Hisar - HSPCB",07-05-2024 06:00:00,29.140560,75.744941,NH3,6,12,10
India,Haryana,Hisar,"Urban Estate-II, Hisar - HSPCB",07-05-2024 06:00:00,29.140560,75.744941,CO,25,52,34
India,Haryana,Kaithal,"Rishi Nagar, Kaithal - HSPCB",07-05-2024 06:00:00,29.8006,76.4155,PM2.5,47,208,110
India,Haryana,Karnal,"Sector-12, Karnal - HSPCB",07-05-2024 06:00:00,29.695300,77.002700,NH3,10,13,11
India,Haryana,Karnal,"Sector-12, Karnal - HSPCB",07-05-2024 06:00:00,29.695300,77.002700,SO2,12,13,13
India,Haryana,Karnal,"Sector-12, Karnal - HSPCB",07-05-2024 06:00:00,29.695300,77.002700,CO,25,60,39
India,Haryana,Kurukshetra,"Sector-7, Kurukshetra - HSPCB",07-05-2024 06:00:00,29.966942,76.875879,NH3,4,5,5
India,Haryana,Mandikhera,"General Hospital, Mandikhera - HSPCB",07-05-2024 06:00:00,27.9002,76.9938,PM2.5,18,78,48
India,Haryana,Mandikhera,"General Hospital, Mandikhera - HSPCB",07-05-2024 06:00:00,27.9002,76.9938,PM10,70,132,108
India,Haryana,Manesar,"Sector-2 IMT, Manesar - HSPCB",07-05-2024 06:00:00,28.360699,76.936090,NH3,11,51,28
India,Haryana,Narnaul,"Shastri Nagar, Narnaul - HSPCB",07-05-2024 06:00:00,28.060249,76.113115,SO2,13,41,18
India,Haryana,Palwal,"Shyam Nagar, Palwal - HSPCB",07-05-2024 06:00:00,28.1485564,77.3320667,OZONE,6,55,10
India,Haryana,Panipat,"Sector-18, Panipat - HSPCB",07-05-2024 06:00:00,29.497973,76.993331,PM10,79,81,80
India,Haryana,Panipat,"Sector-18, Panipat - HSPCB",07-05-2024 06:00:00,29.497973,76.993331,CO,24,26,25
India,Haryana,Rohtak,"MD University, Rohtak - HSPCB",07-05-2024 06:00:00,28.52123,76.37138,CO,2,102,38
India,Haryana,Sirsa,"F-Block, Sirsa - HSPCB",07-05-2024 06:00:00,29.536400,75.015800,NH3,11,13,12
India,Haryana,Sonipat,"Murthal, Sonipat - HSPCB",07-05-2024 06:00:00,29.027200,77.062100,PM2.5,33,34,34
India,Haryana,Sonipat,"Murthal, Sonipat - HSPCB",07-05-2024 06:00:00,29.027200,77.062100,PM10,86,88,87
India,Haryana,Sonipat,"Murthal, Sonipat - HSPCB",07-05-2024 06:00:00,29.027200,77.062100,SO2,12,29,20
India,Haryana,Yamuna Nagar,"Gobind Pura, Yamuna Nagar - HSPCB",07-05-2024 06:00:00,30.1480566,77.2893471,PM10,102,178,124
India,Haryana,Yamuna Nagar,"Gobind Pura, Yamuna Nagar - HSPCB",07-05-2024 06:00:00,30.1480566,77.2893471,SO2,1,21,6
India,Himachal Pradesh,Baddi,"HIMUDA Complex Phase-1, Baddi - HPPCB",07-05-2024 06:00:00,30.943887,76.801991,CO,5,45,30
India,Jharkhand,Dhanbad,"Kalakusuma, Dhanbad - DMC",07-05-2024 06:00:00,23.811548,86.481238,NO2,21,78,51
India,Jharkhand,Dhanbad,"Kalakusuma, Dhanbad - DMC",07-05-2024 06:00:00,23.811548,86.481238,SO2,9,46,19
India,Jharkhand,Dhanbad,"Sardar Patel Nagar, Dhanbad - JSPCB",07-05-2024 06:00:00,23.80569,86.44268,SO2,3,38,13
India,Jharkhand,Dhanbad,"Sardar Patel Nagar, Dhanbad - JSPCB",07-05-2024 06:00:00,23.80569,86.44268,CO,1,104,78
India,Karnataka,Bagalkot,"Vidayagiri, Bagalkot - KSPCB",07-05-2024 06:00:00,16.172806,75.659694,PM10,45,46,46
India,Karnataka,Belgaum,"Ramteerth Nagar, Belgaum - KSPCB",07-05-2024 06:00:00,15.888653,74.541751,NO2,1,37,17
India,Karnataka,Bengaluru,"BTM Layout, Bengaluru - CPCB",07-05-2024 06:00:00,12.9135218,77.5950804,PM2.5,33,99,43
India,Karnataka,Bengaluru,"BTM Layout, Bengaluru - CPCB",07-05-2024 06:00:00,12.9135218,77.5950804,OZONE,4,68,4
India,Karnataka,Bengaluru,"Bapuji Nagar, Bengaluru - KSPCB",07-05-2024 06:00:00,12.951913,77.539784,CO,17,78,36
India,Karnataka,Bengaluru,"Hebbal, Bengaluru - KSPCB",07-05-2024 06:00:00,13.029152,77.585901,PM10,29,110,80
India,Karnataka,Bengaluru,"Hombegowda Nagar, Bengaluru - KSPCB",07-05-2024 06:00:00,12.938539,77.590100,CO,21,47,30
India,Karnataka,Bengaluru,"Hombegowda Nagar, Bengaluru - KSPCB",07-05-2024 06:00:00,12.938539,77.590100,OZONE,28,89,56
India,Karnataka,Bengaluru,"Peenya, Bengaluru - CPCB",07-05-2024 06:00:00,13.0270199,77.494094,PM10,43,76,59
India,Karnataka,Bengaluru,"RVCE-Mailasandra, Bengaluru - KSPCB",07-05-2024 06:00:00,12.921418,77.502466,OZONE,39,39,39
India,Karnataka,Bengaluru,"Sanegurava Halli, Bengaluru - KSPCB",07-05-2024 06:00:00,12.990328,77.5431385,PM10,35,123,59
India,Karnataka,Bengaluru,"Shivapura_Peenya, Bengaluru - KSPCB",07-05-2024 06:00:00,13.0246342,77.5080115,PM10,41,117,70
India,Karnataka,Bengaluru,"Shivapura_Peenya, Bengaluru - KSPCB",07-05-2024 06:00:00,13.0246342,77.5080115,NO2,15,16,15
India,Karnataka,Bengaluru,"Silk Board, Bengaluru - KSPCB",07-05-2024 06:00:00,12.917348,77.622813,PM2.5,14,202,96
India,Karnataka,Bengaluru,"Silk Board, Bengaluru - KSPCB",07-05-2024 06:00:00,12.917348,77.622813,NH3,1,1,1
India,Karnataka,Chamarajanagar,"Urban, Chamarajanagar - KSPCB",07-05-2024 06:00:00,11.55358,76.55521,NH3,3,3,3
India,Karnataka,Chamarajanagar,"Urban, Chamarajanagar - KSPCB",07-05-2024 06:00:00,11.55358,76.55521,CO,22,121,42
India,Karnataka,Chikkaballapur,"Chikkaballapur Rural, Chikkaballapur - KSPCB",07-05-2024 06:00:00,13.428828,77.731418,NO2,6,10,8
India,Karnataka,Chikkamagaluru,"Kalyana Nagara, Chikkamagaluru - KSPCB",07-05-2024 06:00:00,13.328028,75.797056,PM10,7,101,65
India,Karnataka,Chikkamagaluru,"Kalyana Nagara, Chikkamagaluru - KSPCB",07-05-2024 06:00:00,13.328028,75.797056,NH3,2,4,3
India,Karnataka,Davanagere,"Devaraj Urs Badavane, Davanagere - KSPCB",07-05-2024 06:00:00,14.475800,75.905200,NH3,1,2,2
India,Karnataka,Davanagere,"Devaraj Urs Badavane, Davanagere - KSPCB",07-05-2024 06:00:00,14.475800,75.905200,SO2,1,6,4
India,Karnataka,Dharwad,"Kalabhavan, Dharwad - KSPCB",07-05-2024 06:00:00,15.459706,75.008381,PM2.5,33,95,62
India,Karnataka,Dharwad,"Kalabhavan, Dharwad - KSPCB",07-05-2024 06:00:00,15.459706,75.008381,CO,10,49,22
India,Karnataka,Gadag,"Panchal Nagar, Gadag - KSPCB",07-05-2024 06:00:00,15.411456,75.638133,PM10,28,47,40
India,Karnataka,Hassan,"B.Katihalli, Hassan - KSPCB",07-05-2024 06:00:00,13.008556,76.125258,PM2.5,NA,NA,NA
India,Karnataka,Hassan,"B.Katihalli, Hassan - KSPCB",07-05-2024 06:00:00,13.008556,76.125258,SO2,NA,NA,NA
India,Karnataka,Hubballi,"Lingaraj Nagar, Hubballi - KSPCB",07-05-2024 06:00:00,15.3714823,75.1160168,NH3,2,2,2
India,Karnataka,Kalaburagi,"Lal Bahadur Shastri Nagar, Kalaburagi - KSPCB",07-05-2024 06:00:00,17.321993,76.822628,NH3,1,2,2
India,Karnataka,Kalaburagi,"Mahatma Basaveswar Colony, Kalaburgi - KSPCB",07-05-2024 06:00:00,17.336318,76.847397,PM2.5,19,75,40
India,Karnataka,Karwar,"KHB Colony, Karwar - KSPCB",07-05-2024 06:00:00,14.816666,74.141003,PM2.5,22,53,37
India,Karnataka,Karwar,"KHB Colony, Karwar - KSPCB",07-05-2024 06:00:00,14.816666,74.141003,PM10,27,62,44
India,Karnataka,Kolar,"Tamaka Ind. Area, Kolar - KSPCB",07-05-2024 06:00:00,13.1276288,78.1570122,OZONE,12,14,12
India,Karnataka,Koppal,"Diwator Nagar, Koppal - KSPCB",07-05-2024 06:00:00,15.347630,76.181767,PM2.5,19,56,31
India,Karnataka,Koppal,"Diwator Nagar, Koppal - KSPCB",07-05-2024 06:00:00,15.347630,76.181767,NO2,12,64,44
India,Karnataka,Madikeri,"Stuart Hill, Madikeri - KSPCB",07-05-2024 06:00:00,12.415911,75.735050,CO,2,156,31
India,Karnataka,Mysuru,"Hebbal 1st Stage, Mysuru - KSPCB",07-05-2024 06:00:00,12.21041,76.37376,PM10,31,81,50
India,Karnataka,Mysuru,"Hebbal 1st Stage, Mysuru - KSPCB",07-05-2024 06:00:00,12.21041,76.37376,SO2,1,7,3
India,Karnataka,Mysuru,"Hebbal 1st Stage, Mysuru - KSPCB",07-05-2024 06:00:00,12.21041,76.37376,OZONE,16,116,24
India,Karnataka,Raichur,"Haji Colony, Raichur - KSPCB",07-05-2024 06:00:00,16.208139,77.348417,CO,96,116,100
India,Karnataka,Ramanagara,"Vijay Nagar, Ramanagara - KSPCB",07-05-2024 06:00:00,12.733409,77.298051,PM2.5,NA,NA,NA
India,Karnataka,Ramanagara,"Vijay Nagar, Ramanagara - KSPCB",07-05-2024 06:00:00,12.733409,77.298051,NH3,NA,NA,NA
India,Karnataka,Ramanagara,"Vijay Nagar, Ramanagara - KSPCB",07-05-2024 06:00:00,12.733409,77.298051,CO,NA,NA,NA
India,Karnataka,Shivamogga,"Vinoba Nagara, Shivamogga - KSPCB",07-05-2024 06:00:00,13.940000,75.555917,PM10,40,80,61
India,Karnataka,Shivamogga,"Vinoba Nagara, Shivamogga - KSPCB",07-05-2024 06:00:00,13.940000,75.555917,SO2,2,11,6
India,Karnataka,Tumakuru,"Thimmalapura, Tumakuru - KSPCB",07-05-2024 06:00:00,13.377516,77.099072,OZONE,15,45,29
India,Karnataka,Udupi,"Brahmagiri, Udupi - KSPCB",07-05-2024 06:00:00,13.34194444,74.74694444,PM10,25,88,56
India,Karnataka,Udupi,"Brahmagiri, Udupi - KSPCB",07-05-2024 06:00:00,13.34194444,74.74694444,NH3,1,1,1
India,Karnataka,Udupi,"Brahmagiri, Udupi - KSPCB",07-05-2024 06:00:00,13.34194444,74.74694444,SO2,8,12,11
India,Karnataka,Yadgir,"Collector Office, Yadgir - KSPCB",07-05-2024 06:00:00,16.7602,77.1428,PM2.5,46,93,61
India,Karnataka,Yadgir,"Collector Office, Yadgir - KSPCB",07-05-2024 06:00:00,16.7602,77.1428,NO2,6,10,7
India,Kerala,Eloor,"Udyogamandal, Eloor - Kerala PCB",07-05-2024 06:00:00,10.073232,76.302765,SO2,1,27,5
India,Kerala,Kollam,"Polayathode, Kollam - Kerala PCB",07-05-2024 06:00:00,8.8787,76.6073,NH3,1,1,1
India,Kerala,Kollam,"Polayathode, Kollam - Kerala PCB",07-05-2024 06:00:00,8.8787,76.6073,CO,14,18,16
India,Kerala,Thiruvananthapuram,"Kariavattom, Thiruvananthapuram - Kerala PCB",07-05-2024 06:00:00,8.563700,76.886500,CO,18,39,19
India,Kerala,Thiruvananthapuram,"Plammoodu, Thiruvananthapuram - Kerala PCB",07-05-2024 06:00:00,8.5149093,76.9435879,PM2.5,7,37,18
India,Kerala,Thiruvananthapuram,"Plammoodu, Thiruvananthapuram - Kerala PCB",07-05-2024 06:00:00,8.5149093,76.9435879,NH3,1,1,1
India,Kerala,Thiruvananthapuram,"Plammoodu, Thiruvananthapuram - Kerala PCB",07-05-2024 06:00:00,8.5149093,76.9435879,OZONE,5,68,24
India,Madhya Pradesh,Bhopal,"Idgah Hills, Bhopal - MPPCB",07-05-2024 06:00:00,23.264759,77.381568,PM10,75,127,96
India,Madhya Pradesh,Bhopal,"Idgah Hills, Bhopal - MPPCB",07-05-2024 06:00:00,23.264759,77.381568,NO2,20,54,33
India,Madhya Pradesh,Dewas,"Bhopal Chauraha, Dewas - MPPCB",07-05-2024 06:00:00,22.9682591,76.064118,PM10,20,69,43
India,Madhya Pradesh,Gwalior,"City Center, Gwalior - MPPCB",07-05-2024 06:00:00,26.203442,78.193251,SO2,15,114,38
India,Madhya Pradesh,Gwalior,"Deen Dayal Nagar, Gwalior - MPPCB",07-05-2024 06:00:00,26.259242,78.216432,PM2.5,60,317,176
India,Madhya Pradesh,Gwalior,"Deen Dayal Nagar, Gwalior - MPPCB",07-05-2024 06:00:00,26.259242,78.216432,NO2,13,81,47
India,Madhya Pradesh,Gwalior,"Deen Dayal Nagar, Gwalior - MPPCB",07-05-2024 06:00:00,26.259242,78.216432,OZONE,22,233,52
India,Madhya Pradesh,Gwalior,"Maharaj Bada, Gwalior - MPPCB",07-05-2024 06:00:00,26.200388,78.147714,NO2,19,114,43
India,Madhya Pradesh,Gwalior,"Maharaj Bada, Gwalior - MPPCB",07-05-2024 06:00:00,26.200388,78.147714,NH3,3,19,7
India,Madhya Pradesh,Gwalior,"Phool Bagh, Gwalior - Mondelez Ind. Food",07-05-2024 06:00:00,26.210536,78.171,PM2.5,NA,NA,NA
India,Madhya Pradesh,Gwalior,"Phool Bagh, Gwalior - Mondelez Ind. Food",07-05-2024 06:00:00,26.210536,78.171,CO,66,90,80
India,Madhya Pradesh,Indore,"Chhoti Gwaltoli, Indore - MPPCB",07-05-2024 06:00:00,22.4310,75.5213,NO2,47,108,63
India,Madhya Pradesh,Indore,"Maguda Nagar, Indore - IMC",07-05-2024 06:00:00,22.7524,75.8872,CO,20,28,27
India,Madhya Pradesh,Indore,"Regional Park, Indore - IMC",07-05-2024 06:00:00,22.6780,75.8559,OZONE,9,22,11
India,Madhya Pradesh,Indore,"Residency Area, Indore - IMC",07-05-2024 06:00:00,22.7084,75.8815,NO2,34,51,41
India,Madhya Pradesh,Indore,"Residency Area, Indore - IMC",07-05-2024 06:00:00,22.7084,75.8815,OZONE,9,16,12
India,Madhya Pradesh,Jabalpur,"Govindh Bhavan Colony, Jabalpur - JMC",07-05-2024 06:00:00,23.163174,79.973061,SO2,5,29,18
