country,state,city,station,last_update,latitude,longitude,pollutant_id,pollutant_min,pollutant_max,pollutant_avg
India,Andhra_Pradesh,Amaravati,"Secretariat, Amaravati - APPCB",09-06-2024 23:00:00,16.5150833,80.5181667,NO2,4,9,6
India,Andhra_Pradesh,Amaravati,"Secretariat, Amaravati - APPCB",09-06-2024 23:00:00,16.5150833,80.5181667,NH3,3,4,4
India,Andhra_Pradesh,Amaravati,"Secretariat, Amaravati - APPCB",09-06-2024 23:00:00,16.5150833,80.5181667,OZONE,21,32,28
India,Andhra_Pradesh,Anantapur,"Gulzarpet, Anantapur - APPCB",09-06-2024 23:00:00,14.675886,77.593027,PM10,NA,NA,NA
India,Andhra_Pradesh,Kadapa,"Yerramukkapalli, Kadapa - APPCB",09-06-2024 23:00:00,14.465052,78.824187,PM10,NA,NA,NA
India,Andhra_Pradesh,Rajamahendravaram,"Anand Kala Kshetram, Rajamahendravaram - APPCB",09-06-2024 23:00:00,16.9872867,81.7363176,PM10,15,49,28
India,Andhra_Pradesh,Rajamahendravaram,"Anand Kala Kshetram, Rajamahendravaram - APPCB",09-06-2024 23:00:00,16.9872867,81.7363176,NO2,8,27,15
India,Andhra_Pradesh,Tirupati,"Tirumala, Tirupati - APPCB",09-06-2024 23:00:00,13.67,79.35,PM10,16,70,34
India,Andhra_Pradesh,Tirupati,"Tirumala, Tirupati - APPCB",09-06-2024 23:00:00,13.67,79.35,SO2,2,8,5
India,Andhra_Pradesh,Vijayawada,"HB Colony, Vijayawada - APPCB",09-06-2024 23:00:00,16.536107,80.594233,PM10,47,77,56
India,Andhra_Pradesh,Vijayawada,"HB Colony, Vijayawada - APPCB",09-06-2024 23:00:00,16.536107,80.594233,OZONE,19,30,26
India,Andhra_Pradesh,Vijayawada,"Rajiv Gandhi Park, Vijayawada - APPCB",09-06-2024 23:00:00,16.509717,80.612222,NO2,19,24,22
India,Andhra_Pradesh,Vijayawada,"Rajiv Nagar, Vijayawada - APPCB",09-06-2024 23:00:00,16.554731,80.649110,PM2.5,47,49,48
India,Andhra_Pradesh,Vijayawada,"Rajiv Nagar, Vijayawada - APPCB",09-06-2024 23:00:00,16.554731,80.649110,NO2,10,10,10
India,Andhra_Pradesh,Visakhapatnam,"GVM Corporation, Visakhapatnam - APPCB",09-06-2024 23:00:00,17.72,83.3,PM2.5,29,67,45
India,Arunachal_Pradesh,Naharlagun,"Naharlagun, Naharlagun - APSPCB",09-06-2024 23:00:00,27.103358,93.679645,OZONE,3,3,3
India,Assam,Byrnihat,"Central Academy for SFS, Byrnihat - PCBA",09-06-2024 23:00:00,26.071318,91.87488,PM2.5,33,363,181
India,Assam,Byrnihat,"Central Academy for SFS, Byrnihat - PCBA",09-06-2024 23:00:00,26.071318,91.87488,NH3,18,21,19
India,Assam,Byrnihat,"Central Academy for SFS, Byrnihat - PCBA",09-06-2024 23:00:00,26.071318,91.87488,OZONE,23,128,23
India,Assam,Guwahati,"IITG, Guwahati - PCBA",09-06-2024 23:00:00,26.2028636,91.70046436,PM10,24,107,62
India,Assam,Guwahati,"IITG, Guwahati - PCBA",09-06-2024 23:00:00,26.2028636,91.70046436,SO2,13,14,13
India,Assam,Guwahati,"Railway Colony, Guwahati - PCBA",09-06-2024 23:00:00,26.181742,91.78063,PM2.5,23,327,96
India,Assam,Guwahati,"Railway Colony, Guwahati - PCBA",09-06-2024 23:00:00,26.181742,91.78063,CO,22,82,41
India,Assam,Nagaon,"Christianpatty, Nagaon - PCBA",09-06-2024 23:00:00,26.349082,92.68449,PM2.5,32,500,177
India,Assam,Nagaon,"Christianpatty, Nagaon - PCBA",09-06-2024 23:00:00,26.349082,92.68449,SO2,8,10,10
India,Assam,Nagaon,"Christianpatty, Nagaon - PCBA",09-06-2024 23:00:00,26.349082,92.68449,CO,38,58,47
India,Assam,Nalbari,"Bata Chowk, Nalbari - PCBA",09-06-2024 23:00:00,26.446912,91.439057,PM2.5,12,240,71
India,Assam,Nalbari,"Bata Chowk, Nalbari - PCBA",09-06-2024 23:00:00,26.446912,91.439057,CO,12,54,29
India,Assam,Silchar,"Tarapur, Silchar - PCBA",09-06-2024 23:00:00,24.82827,92.79525,OZONE,NA,NA,NA
India,Assam,Sivasagar,"Girls College, Sivasagar - PCBA",09-06-2024 23:00:00,26.987634,94.636574,NH3,1,3,2
India,Bihar,Arrah,"New DM Office, Arrah - BSPCB",09-06-2024 23:00:00,25.5626095,84.663264,CO,NA,NA,NA
India,Bihar,Aurangabad,"Gurdeo Nagar, Aurangabad - BSPCB",09-06-2024 23:00:00,24.75746,84.366208,SO2,9,23,16
India,Bihar,Bhagalpur,"DM Office_Kachari Chowk, Bhagalpur - BSPCB",09-06-2024 23:00:00,25.251013,86.989001,NH3,3,6,4
India,Bihar,Bihar Sharif,"D M Colony, Bihar Sharif - BSPCB",09-06-2024 23:00:00,25.204762,85.514960,CO,22,29,28
India,Bihar,Buxar,"Charitra Van, Buxar - BSPCB (Formerly known as Central Jail)",09-06-2024 23:00:00,25.567520,83.966379,CO,34,104,76
India,Bihar,Buxar,"Charitra Van, Buxar - BSPCB (Formerly known as Central Jail)",09-06-2024 23:00:00,25.567520,83.966379,OZONE,8,178,101
India,Bihar,Chhapra,"Darshan Nagar, Chhapra - BSPCB",09-06-2024 23:00:00,25.7808257,84.7446768,PM10,89,171,119
India,Bihar,Gaya,"Kareemganj, Gaya - BSPCB",09-06-2024 23:00:00,24.792403,84.992416,PM2.5,40,240,119
India,Bihar,Gaya,"Kareemganj, Gaya - BSPCB",09-06-2024 23:00:00,24.792403,84.992416,NH3,3,19,8
India,Bihar,Gaya,"Kareemganj, Gaya - BSPCB",09-06-2024 23:00:00,24.792403,84.992416,SO2,10,10,10
India,Bihar,Gaya,"Kareemganj, Gaya - BSPCB",09-06-2024 23:00:00,24.792403,84.992416,CO,22,23,23
India,Bihar,Gaya,"SFTI Kusdihra, Gaya - BSPCB",09-06-2024 23:00:00,24.762518,84.982348,PM10,51,114,93
India,Bihar,Gaya,"SFTI Kusdihra, Gaya - BSPCB",09-06-2024 23:00:00,24.762518,84.982348,NH3,3,7,5
India,Bihar,Gaya,"SFTI Kusdihra, Gaya - BSPCB",09-06-2024 23:00:00,24.762518,84.982348,CO,10,56,24
India,Bihar,Hajipur,"Industrial Area, Hajipur - BSPCB",09-06-2024 23:00:00,25.697189,85.245900,PM2.5,205,292,240
India,Bihar,Hajipur,"Industrial Area, Hajipur - BSPCB",09-06-2024 23:00:00,25.697189,85.245900,PM10,117,208,152
India,Bihar,Hajipur,"Industrial Area, Hajipur - BSPCB",09-06-2024 23:00:00,25.697189,85.245900,NH3,10,15,12
India,Bihar,Kishanganj,"SDM Office_Khagra, Kishanganj - BSPCB",09-06-2024 23:00:00,26.0881305,87.93840336,PM2.5,NA,NA,NA
India,Bihar,Kishanganj,"SDM Office_Khagra, Kishanganj - BSPCB",09-06-2024 23:00:00,26.0881305,87.93840336,NO2,43,45,44
India,Bihar,Kishanganj,"SDM Office_Khagra, Kishanganj - BSPCB",09-06-2024 23:00:00,26.0881305,87.93840336,NH3,6,8,7
India,Bihar,Manguraha,"Forest Rest House, Manguraha - BSPCB",09-06-2024 23:00:00,27.308328,84.531742,NO2,15,26,20
India,Bihar,Munger,"Town Hall, Munger - BSPCB",09-06-2024 23:00:00,25.376776,86.471523,OZONE,26,34,29
India,Bihar,Muzaffarpur,"Buddha Colony, Muzaffarpur - BSPCB",09-06-2024 23:00:00,26.11442,85.39813,NO2,16,37,22
India,Bihar,Muzaffarpur,"MIT-Daudpur Kothi, Muzaffarpur - BSPCB",09-06-2024 23:00:00,26.1403345,85.3650192,NH3,NA,NA,NA
India,Bihar,Patna,"Govt. High School Shikarpur, Patna - BSPCB",09-06-2024 23:00:00,25.592539,85.227158,NH3,4,5,5
India,Bihar,Patna,"Govt. High School Shikarpur, Patna - BSPCB",09-06-2024 23:00:00,25.592539,85.227158,CO,20,57,42
India,Bihar,Patna,"Muradpur, Patna - BSPCB",09-06-2024 23:00:00,25.619651,85.147382,CO,15,98,58
India,Bihar,Patna,"Muradpur, Patna - BSPCB",09-06-2024 23:00:00,25.619651,85.147382,OZONE,5,62,33
India,Bihar,Patna,"Rajbansi Nagar, Patna - BSPCB",09-06-2024 23:00:00,25.599486,85.113666,OZONE,16,83,59
India,Bihar,Patna,"Samanpura, Patna - BSPCB",09-06-2024 23:00:00,25.596727,85.085624,PM2.5,86,311,191
India,Bihar,Patna,"Samanpura, Patna - BSPCB",09-06-2024 23:00:00,25.596727,85.085624,NH3,6,17,9
India,Bihar,Patna,"Samanpura, Patna - BSPCB",09-06-2024 23:00:00,25.596727,85.085624,CO,30,78,55
India,Bihar,Sasaram,"Dada Peer, Sasaram - BSPCB",09-06-2024 23:00:00,24.952822,84.002396,CO,46,101,73
India,Bihar,Siwan,"Chitragupta Nagar, Siwan - BSPCB",09-06-2024 23:00:00,26.2271665,84.3570427,PM10,NA,NA,NA
India,Bihar,Siwan,"Chitragupta Nagar, Siwan - BSPCB",09-06-2024 23:00:00,26.2271665,84.3570427,NO2,5,52,15
India,Bihar,Siwan,"Chitragupta Nagar, Siwan - BSPCB",09-06-2024 23:00:00,26.2271665,84.3570427,CO,94,153,133
India,Chandigarh,Chandigarh,"Sector-25, Chandigarh - CPCC",09-06-2024 23:00:00,30.751462,76.762879,NO2,NA,NA,NA
India,Chandigarh,Chandigarh,"Sector-25, Chandigarh - CPCC",09-06-2024 23:00:00,30.751462,76.762879,CO,18,40,24
India,Chandigarh,Chandigarh,"Sector-53, Chandigarh - CPCC",09-06-2024 23:00:00,30.719859,76.738637,PM10,50,173,111
India,Chandigarh,Chandigarh,"Sector-53, Chandigarh - CPCC",09-06-2024 23:00:00,30.719859,76.738637,OZONE,25,71,55
India,Chhattisgarh,Bhilai,"Civic Center, Bhilai - Bhilai Steel Plant",09-06-2024 23:00:00,21.185571,81.343175,NO2,7,8,8
India,Chhattisgarh,Bhilai,"Civic Center, Bhilai - Bhilai Steel Plant",09-06-2024 23:00:00,21.185571,81.343175,SO2,10,12,10
India,Chhattisgarh,Chhal,"Nawapara SECL Colony, Chhal - CECB",09-06-2024 23:00:00,22.118125,83.140608,NO2,15,39,26
India,Chhattisgarh,Korba,"Rampur, Korba - CECB",09-06-2024 23:00:00,22.368195,82.746431,CO,NA,NA,NA
India,Chhattisgarh,Korba,"Rampur, Korba - CECB",09-06-2024 23:00:00,22.368195,82.746431,OZONE,NA,NA,NA
India,Chhattisgarh,Korba,"Urja Nagar, Korba - CECB",09-06-2024 23:00:00,22.348441,82.549611,NO2,32,49,42
India,Chhattisgarh,Korba,"Urja Nagar, Korba - CECB",09-06-2024 23:00:00,22.348441,82.549611,SO2,6,7,7
India,Chhattisgarh,Kunjemura,"OP Jindal School, Kunjemura - CECB",09-06-2024 23:00:00,22.126650,83.483212,NH3,1,3,2
India,Chhattisgarh,Milupara,"Govt. Higher Secondary School, Milupara - CECB",09-06-2024 23:00:00,22.1910172,83.5197009,SO2,NA,NA,NA
India,Chhattisgarh,Raipur,"AIIMS, Raipur - CECB",09-06-2024 23:00:00,21.258815,81.578979,OZONE,3,41,14
India,Chhattisgarh,Raipur,"Bhatagaon New ISBT, Raipur - CECB",09-06-2024 23:00:00,21.219665,81.630094,PM2.5,12,32,22
India,Chhattisgarh,Raipur,"Bhatagaon New ISBT, Raipur - CECB",09-06-2024 23:00:00,21.219665,81.630094,NH3,2,2,2
India,Chhattisgarh,Raipur,"Bhatagaon New ISBT, Raipur - CECB",09-06-2024 23:00:00,21.219665,81.630094,SO2,1,2,2
India,Chhattisgarh,Raipur,"Bhatagaon New ISBT, Raipur - CECB",09-06-2024 23:00:00,21.219665,81.630094,OZONE,3,9,6
India,Chhattisgarh,Raipur,"Krishak Nagar, Raipur - CECB",09-06-2024 23:00:00,21.237755,81.705301,NO2,5,5,5
India,Chhattisgarh,Raipur,"Siltara Phase-II, Raipur - CECB",09-06-2024 23:00:00,21.371751,81.664929,PM2.5,26,311,82
India,Chhattisgarh,Raipur,"Siltara Phase-II, Raipur - CECB",09-06-2024 23:00:00,21.371751,81.664929,NO2,18,65,29
India,Chhattisgarh,Raipur,"Siltara Phase-II, Raipur - CECB",09-06-2024 23:00:00,21.371751,81.664929,OZONE,3,47,14
India,Delhi,Delhi,"Alipur, Delhi - DPCC",09-06-2024 23:00:00,28.815329,77.153010,PM2.5,18,143,58
India,Delhi,Delhi,"Alipur, Delhi - DPCC",09-06-2024 23:00:00,28.815329,77.153010,PM10,85,191,145
India,Delhi,Delhi,"Alipur, Delhi - DPCC",09-06-2024 23:00:00,28.815329,77.153010,OZONE,68,275,208
India,Delhi,Delhi,"Anand Vihar, Delhi - DPCC",09-06-2024 23:00:00,28.647622,77.3158090,NO2,74,123,92
India,Delhi,Delhi,"Aya Nagar, Delhi - IMD",09-06-2024 23:00:00,28.4706914,77.1099364,NO2,3,14,10
India,Delhi,Delhi,"Bawana, Delhi - DPCC",09-06-2024 23:00:00,28.776200,77.051074,CO,24,60,37
India,Delhi,Delhi,"Burari Crossing, Delhi - IMD",09-06-2024 23:00:00,28.7256504,77.2011573,NO2,12,12,12
India,Delhi,Delhi,"CRRI Mathura Road, Delhi - IMD",09-06-2024 23:00:00,28.5512005,77.2735737,PM10,93,196,151
India,Delhi,Delhi,"CRRI Mathura Road, Delhi - IMD",09-06-2024 23:00:00,28.5512005,77.2735737,NO2,11,42,24
India,Delhi,Delhi,"CRRI Mathura Road, Delhi - IMD",09-06-2024 23:00:00,28.5512005,77.2735737,CO,19,103,52
India,Delhi,Delhi,"Chandni Chowk, Delhi - IITM",09-06-2024 23:00:00,28.656756,77.227234,OZONE,1,10,7
India,Delhi,Delhi,"DTU, Delhi - CPCB",09-06-2024 23:00:00,28.7500499,77.1112615,PM10,83,208,142
India,Delhi,Delhi,"DTU, Delhi - CPCB",09-06-2024 23:00:00,28.7500499,77.1112615,CO,26,54,35
India,Delhi,Delhi,"Dwarka-Sector 8, Delhi - DPCC ",09-06-2024 23:00:00,28.5710274,77.0719006,OZONE,8,143,92
India,Delhi,Delhi,"IGI Airport (T3), Delhi - IMD",09-06-2024 23:00:00,28.5627763,77.1180053,CO,36,62,45
India,Delhi,Delhi,"IGI Airport (T3), Delhi - IMD",09-06-2024 23:00:00,28.5627763,77.1180053,OZONE,3,57,30
India,Delhi,Delhi,"IHBAS, Dilshad Garden, Delhi - CPCB",09-06-2024 23:00:00,28.6811736,77.3025234,PM10,105,153,128
India,Delhi,Delhi,"IHBAS, Dilshad Garden, Delhi - CPCB",09-06-2024 23:00:00,28.6811736,77.3025234,CO,17,89,56
India,Delhi,Delhi,"IHBAS, Dilshad Garden, Delhi - CPCB",09-06-2024 23:00:00,28.6811736,77.3025234,OZONE,20,42,33
India,Delhi,Delhi,"Jahangirpuri, Delhi - DPCC",09-06-2024 23:00:00,28.732820,77.170633,CO,36,102,65
India,Delhi,Delhi,"Jawaharlal Nehru Stadium, Delhi - DPCC",09-06-2024 23:00:00,28.580280,77.233829,PM2.5,13,77,44
India,Delhi,Delhi,"Jawaharlal Nehru Stadium, Delhi - DPCC",09-06-2024 23:00:00,28.580280,77.233829,OZONE,4,238,139
India,Delhi,Delhi,"Lodhi Road, Delhi - IITM",09-06-2024 23:00:00,28.588333,77.221667,NO2,NA,NA,NA
India,Delhi,Delhi,"Major Dhyan Chand National Stadium, Delhi - DPCC",09-06-2024 23:00:00,28.611281,77.237738,NH3,5,7,6
India,Delhi,Delhi,"Major Dhyan Chand National Stadium, Delhi - DPCC",09-06-2024 23:00:00,28.611281,77.237738,CO,44,105,66
India,Delhi,Delhi,"Mandir Marg, Delhi - DPCC",09-06-2024 23:00:00,28.636429,77.201067,OZONE,31,117,83
India,Delhi,Delhi,"Mundka, Delhi - DPCC",09-06-2024 23:00:00,28.684678,77.076574,OZONE,41,166,123
India,Delhi,Delhi,"NSIT Dwarka, Delhi - CPCB",09-06-2024 23:00:00,28.60909,77.0325413,CO,40,67,58
India,Delhi,Delhi,"Najafgarh, Delhi - DPCC",09-06-2024 23:00:00,28.570173,76.933762,CO,36,64,39
India,Delhi,Delhi,"Narela, Delhi - DPCC",09-06-2024 23:00:00,28.822836,77.101981,OZONE,37,150,111
India,Delhi,Delhi,"Nehru Nagar, Delhi - DPCC",09-06-2024 23:00:00,28.567890,77.250515,PM2.5,27,197,78
India,Delhi,Delhi,"North Campus, DU, Delhi - IMD",09-06-2024 23:00:00,28.6573814,77.1585447,CO,59,112,86
India,Delhi,Delhi,"Okhla Phase-2, Delhi - DPCC",09-06-2024 23:00:00,28.530785,77.271255,OZONE,4,112,61
India,Delhi,Delhi,"Punjabi Bagh, Delhi - DPCC",09-06-2024 23:00:00,28.674045,77.131023,PM2.5,23,213,101
India,Delhi,Delhi,"Punjabi Bagh, Delhi - DPCC",09-06-2024 23:00:00,28.674045,77.131023,NO2,11,98,35
India,Delhi,Delhi,"Punjabi Bagh, Delhi - DPCC",09-06-2024 23:00:00,28.674045,77.131023,SO2,3,50,30
India,Delhi,Delhi,"Pusa, Delhi - DPCC",09-06-2024 23:00:00,28.639652,77.146275,PM2.5,18,150,73
India,Delhi,Delhi,"Pusa, Delhi - DPCC",09-06-2024 23:00:00,28.639652,77.146275,NO2,42,158,78
India,Delhi,Delhi,"Pusa, Delhi - DPCC",09-06-2024 23:00:00,28.639652,77.146275,CO,24,110,62
India,Delhi,Delhi,"Pusa, Delhi - IMD",09-06-2024 23:00:00,28.636110,77.173332,PM10,91,171,134
India,Delhi,Delhi,"Pusa, Delhi - IMD",09-06-2024 23:00:00,28.636110,77.173332,NO2,23,37,26
India,Delhi,Delhi,"R K Puram, Delhi - DPCC",09-06-2024 23:00:00,28.563262,77.186937,PM2.5,39,241,106
India,Delhi,Delhi,"Sonia Vihar, Delhi - DPCC",09-06-2024 23:00:00,28.710508,77.249485,PM10,94,193,147
India,Delhi,Delhi,"Sonia Vihar, Delhi - DPCC",09-06-2024 23:00:00,28.710508,77.249485,NH3,4,8,6
India,Delhi,Delhi,"Sonia Vihar, Delhi - DPCC",09-06-2024 23:00:00,28.710508,77.249485,CO,2,40,13
India,Delhi,Delhi,"Sri Aurobindo Marg, Delhi - DPCC",09-06-2024 23:00:00,28.531346,77.190156,NH3,NA,NA,NA
India,Delhi,Delhi,"Vivek Vihar, Delhi - DPCC",09-06-2024 23:00:00,28.672342,77.315260,NO2,NA,NA,NA
India,Delhi,Delhi,"Wazirpur, Delhi - DPCC",09-06-2024 23:00:00,28.699793,77.165453,NO2,28,69,40
India,Gujarat,Ahmedabad,"Chandkheda, Ahmedabad - IITM",09-06-2024 23:00:00,23.107969,72.574648,PM2.5,63,259,93
India,Gujarat,Ahmedabad,"Chandkheda, Ahmedabad - IITM",09-06-2024 23:00:00,23.107969,72.574648,SO2,11,22,18
India,Gujarat,Ahmedabad,"Chandkheda, Ahmedabad - IITM",09-06-2024 23:00:00,23.107969,72.574648,OZONE,3,25,14
India,Gujarat,Ahmedabad,"Gyaspur, Ahmedabad - IITM",09-06-2024 23:00:00,22.977134,72.553024,PM10,86,162,109
India,Gujarat,Ahmedabad,"Gyaspur, Ahmedabad - IITM",09-06-2024 23:00:00,22.977134,72.553024,NH3,6,7,7
India,Gujarat,Ahmedabad,"Maninagar, Ahmedabad - GPCB",09-06-2024 23:00:00,23.002657,72.591912,PM10,68,367,118
India,Gujarat,Ahmedabad,"Rakhial, Ahmedabad - IITM",09-06-2024 23:00:00,23.016834,72.625775,PM2.5,42,330,64
India,Gujarat,Ahmedabad,"Rakhial, Ahmedabad - IITM",09-06-2024 23:00:00,23.016834,72.625775,OZONE,8,61,46
India,Gujarat,Ahmedabad,"SVPI Airport Hansol, Ahmedabad - IITM",09-06-2024 23:00:00,23.076793,72.627874,OZONE,7,60,43
India,Gujarat,Ahmedabad,"Sardar Vallabhbhai Patel Stadium, Ahmedabad - IITM",09-06-2024 23:00:00,23.043070,72.562968,PM2.5,27,217,86
India,Gujarat,Ahmedabad,"Sardar Vallabhbhai Patel Stadium, Ahmedabad - IITM",09-06-2024 23:00:00,23.043070,72.562968,CO,48,51,49
India,Gujarat,Ankleshwar,"GIDC, Ankleshwar - GPCB",09-06-2024 23:00:00,21.613267,73.010555,NH3,2,3,3
India,Gujarat,Gandhinagar,"GIFT City, Gandhinagar - IITM",09-06-2024 23:00:00,23.163798,72.677768,PM10,55,500,115
India,Gujarat,Gandhinagar,"GIFT City, Gandhinagar - IITM",09-06-2024 23:00:00,23.163798,72.677768,OZONE,9,51,39
India,Gujarat,Gandhinagar,"Sector-10, Gandhinagar - GPCB",09-06-2024 23:00:00,23.221714,72.654328,PM2.5,28,54,40
India,Gujarat,Nandesari,"GIDC, Nandesari - Nandesari Ind. Association",09-06-2024 23:00:00,22.410802,73.097923,PM10,66,222,125
India,Gujarat,Surat,"Science Center, Surat - SMC",09-06-2024 23:00:00,21.170046,72.795405,PM10,NA,NA,NA
India,Gujarat,Surat,"Science Center, Surat - SMC",09-06-2024 23:00:00,21.170046,72.795405,NO2,19,32,26
India,Gujarat,Vapi,"Phase-1 GIDC, Vapi - GPCB",09-06-2024 23:00:00,20.362421,72.918013,SO2,45,46,46
India,Gujarat,Vatva,"Phase-4 GIDC, Vatva - GPCB",09-06-2024 23:00:00,22.969611,72.643500,NO2,24,83,38
India,Gujarat,Vatva,"Phase-4 GIDC, Vatva - GPCB",09-06-2024 23:00:00,22.969611,72.643500,SO2,1,55,9
India,Haryana,Ambala,"Patti Mehar, Ambala - HSPCB",09-06-2024 23:00:00,30.379589,76.778328,NO2,8,20,14
India,Haryana,Ambala,"Patti Mehar, Ambala - HSPCB",09-06-2024 23:00:00,30.379589,76.778328,OZONE,32,45,36
India,Haryana,Bahadurgarh,"Arya Nagar, Bahadurgarh - HSPCB",09-06-2024 23:00:00,28.6701,76.9254,PM10,95,176,133
India,Haryana,Bahadurgarh,"Arya Nagar, Bahadurgarh - HSPCB",09-06-2024 23:00:00,28.6701,76.9254,SO2,2,35,13
India,Haryana,Bahadurgarh,"Arya Nagar, Bahadurgarh - HSPCB",09-06-2024 23:00:00,28.6701,76.9254,CO,89,103,99
India,Haryana,Ballabgarh,"Nathu Colony, Ballabgarh - HSPCB",09-06-2024 23:00:00,28.3419248,77.319699,SO2,5,25,11
India,Haryana,Ballabgarh,"Nathu Colony, Ballabgarh - HSPCB",09-06-2024 23:00:00,28.3419248,77.319699,OZONE,12,40,27
India,Haryana,Bhiwani,"H.B. Colony, Bhiwani - HSPCB",09-06-2024 23:00:00,28.806223,76.141105,CO,25,66,51
India,Haryana,Dharuhera,"Municipal Corporation Office, Dharuhera -  HSPCB",09-06-2024 23:00:00,28.206800,76.799700,NH3,9,26,19
India,Haryana,Faridabad,"New Industrial Town, Faridabad - HSPCB",09-06-2024 23:00:00,28.39072,77.30059,PM2.5,218,328,289
India,Haryana,Faridabad,"New Industrial Town, Faridabad - HSPCB",09-06-2024 23:00:00,28.39072,77.30059,PM10,139,211,168
India,Haryana,Faridabad,"Sector 11, Faridabad - HSPCB",09-06-2024 23:00:00,28.376058,77.315741,PM2.5,130,296,193
India,Haryana,Faridabad,"Sector 11, Faridabad - HSPCB",09-06-2024 23:00:00,28.376058,77.315741,NO2,30,33,31
India,Haryana,Faridabad,"Sector 30, Faridabad - HSPCB",09-06-2024 23:00:00,28.4417,77.3217,PM2.5,NA,NA,NA
India,Haryana,Faridabad,"Sector- 16A, Faridabad - HSPCB",09-06-2024 23:00:00,28.4088421,77.3099081,NO2,NA,NA,NA
India,Haryana,Fatehabad,"Huda Sector, Fatehabad - HSPCB",09-06-2024 23:00:00,29.503664,75.467934,PM10,86,114,98
India,Haryana,Gurugram,"Sector-51, Gurugram - HSPCB",09-06-2024 23:00:00,28.4227,77.0667,PM10,137,260,185
India,Haryana,Gurugram,"Teri Gram, Gurugram - HSPCB",09-06-2024 23:00:00,28.4275,77.1465,PM10,77,139,109
India,Haryana,Gurugram,"Teri Gram, Gurugram - HSPCB",09-06-2024 23:00:00,28.4275,77.1465,SO2,3,5,4
India,Haryana,Gurugram,"Vikas Sadan, Gurugram - HSPCB",09-06-2024 23:00:00,28.4501238,77.0263051,SO2,9,81,29
India,Haryana,Gurugram,"Vikas Sadan, Gurugram - HSPCB",09-06-2024 23:00:00,28.4501238,77.0263051,OZONE,8,68,35
India,Haryana,Hisar,"Urban Estate-II, Hisar - HSPCB",09-06-2024 23:00:00,29.140560,75.744941,PM10,65,91,78
India,Haryana,Hisar,"Urban Estate-II, Hisar - HSPCB",09-06-2024 23:00:00,29.140560,75.744941,NH3,4,4,4
India,Haryana,Hisar,"Urban Estate-II, Hisar - HSPCB",09-06-2024 23:00:00,29.140560,75.744941,CO,25,40,30
India,Haryana,Jind,"Police Lines, Jind - HSPCB",09-06-2024 23:00:00,29.307814,76.337619,PM10,74,119,98
India,Haryana,Jind,"Police Lines, Jind - HSPCB",09-06-2024 23:00:00,29.307814,76.337619,NO2,5,88,25
India,Haryana,Karnal,"Sector-12, Karnal - HSPCB",09-06-2024 23:00:00,29.695300,77.002700,PM2.5,45,93,70
India,Haryana,Karnal,"Sector-12, Karnal - HSPCB",09-06-2024 23:00:00,29.695300,77.002700,PM10,67,103,87
India,Haryana,Karnal,"Sector-12, Karnal - HSPCB",09-06-2024 23:00:00,29.695300,77.002700,NH3,10,13,11
India,Haryana,Kurukshetra,"Sector-7, Kurukshetra - HSPCB",09-06-2024 23:00:00,29.966942,76.875879,PM2.5,54,119,84
India,Haryana,Kurukshetra,"Sector-7, Kurukshetra - HSPCB",09-06-2024 23:00:00,29.966942,76.875879,PM10,74,143,111
India,Haryana,Kurukshetra,"Sector-7, Kurukshetra - HSPCB",09-06-2024 23:00:00,29.966942,76.875879,NH3,5,5,5
India,Haryana,Mandikhera,"General Hospital, Mandikhera - HSPCB",09-06-2024 23:00:00,27.9002,76.9938,NO2,20,25,22
India,Haryana,Mandikhera,"General Hospital, Mandikhera - HSPCB",09-06-2024 23:00:00,27.9002,76.9938,CO,20,32,22
India,Haryana,Manesar,"Sector-2 IMT, Manesar - HSPCB",09-06-2024 23:00:00,28.360699,76.936090,SO2,NA,NA,NA
India,Haryana,Palwal,"Shyam Nagar, Palwal - HSPCB",09-06-2024 23:00:00,28.1485564,77.3320667,SO2,5,19,10
India,Haryana,Rohtak,"MD University, Rohtak - HSPCB",09-06-2024 23:00:00,28.52123,76.37138,SO2,6,8,7
India,Haryana,Rohtak,"MD University, Rohtak - HSPCB",09-06-2024 23:00:00,28.52123,76.37138,CO,1,102,39
India,Haryana,Sirsa,"F-Block, Sirsa - HSPCB",09-06-2024 23:00:00,29.536400,75.015800,OZONE,8,73,22
India,Haryana,Sonipat,"Murthal, Sonipat - HSPCB",09-06-2024 23:00:00,29.027200,77.062100,NH3,7,10,9
India,Haryana,Yamuna Nagar,"Gobind Pura, Yamuna Nagar - HSPCB",09-06-2024 23:00:00,30.1480566,77.2893471,PM10,79,123,107
India,Haryana,Yamuna Nagar,"Gobind Pura, Yamuna Nagar - HSPCB",09-06-2024 23:00:00,30.1480566,77.2893471,NH3,1,6,4
India,Jharkhand,Dhanbad,"Kalakusuma, Dhanbad - DMC",09-06-2024 23:00:00,23.811548,86.481238,NO2,105,432,257
India,Jharkhand,Dhanbad,"Sardar Patel Nagar, Dhanbad - JSPCB",09-06-2024 23:00:00,23.80569,86.44268,NO2,99,429,251
India,Jharkhand,Dhanbad,"Sardar Patel Nagar, Dhanbad - JSPCB",09-06-2024 23:00:00,23.80569,86.44268,OZONE,17,27,23
India,Karnataka,Bagalkot,"Vidayagiri, Bagalkot - KSPCB",09-06-2024 23:00:00,16.172806,75.659694,NH3,NA,NA,NA
India,Karnataka,Bengaluru,"Bapuji Nagar, Bengaluru - KSPCB",09-06-2024 23:00:00,12.951913,77.539784,NO2,14,17,16
India,Karnataka,Bengaluru,"Hebbal, Bengaluru - KSPCB",09-06-2024 23:00:00,13.029152,77.585901,SO2,14,26,22
India,Karnataka,Bengaluru,"Hombegowda Nagar, Bengaluru - KSPCB",09-06-2024 23:00:00,12.938539,77.590100,NO2,8,17,11
India,Karnataka,Bengaluru,"Jayanagar 5th Block, Bengaluru - KSPCB",09-06-2024 23:00:00,12.920984,77.584908,PM2.5,3,33,13
India,Karnataka,Bengaluru,"Jayanagar 5th Block, Bengaluru - KSPCB",09-06-2024 23:00:00,12.920984,77.584908,PM10,6,46,22
India,Karnataka,Bengaluru,"Jayanagar 5th Block, Bengaluru - KSPCB",09-06-2024 23:00:00,12.920984,77.584908,NO2,7,18,10
India,Karnataka,Bengaluru,"Jigani, Bengaluru - KSPCB",09-06-2024 23:00:00,12.7816279,77.6299145,PM2.5,39,41,40
India,Karnataka,Bengaluru,"Jigani, Bengaluru - KSPCB",09-06-2024 23:00:00,12.7816279,77.6299145,SO2,12,12,12
India,Karnataka,Bengaluru,"Kasturi Nagar, Bengaluru - KSPCB",09-06-2024 23:00:00,13.003872,77.664217,NO2,16,17,17
India,Karnataka,Bengaluru,"Kasturi Nagar, Bengaluru - KSPCB",09-06-2024 23:00:00,13.003872,77.664217,SO2,10,10,10
India,Karnataka,Bengaluru,"Kasturi Nagar, Bengaluru - KSPCB",09-06-2024 23:00:00,13.003872,77.664217,OZONE,39,39,39
India,Karnataka,Bengaluru,"Peenya, Bengaluru - CPCB",09-06-2024 23:00:00,13.0270199,77.494094,PM2.5,33,51,40
India,Karnataka,Bengaluru,"Peenya, Bengaluru - CPCB",09-06-2024 23:00:00,13.0270199,77.494094,NH3,3,4,3
India,Karnataka,Bengaluru,"RVCE-Mailasandra, Bengaluru - KSPCB",09-06-2024 23:00:00,12.921418,77.502466,NO2,NA,NA,NA
India,Karnataka,Bengaluru,"Sanegurava Halli, Bengaluru - KSPCB",09-06-2024 23:00:00,12.990328,77.5431385,NO2,20,26,23
India,Karnataka,Bengaluru,"Shivapura_Peenya, Bengaluru - KSPCB",09-06-2024 23:00:00,13.0246342,77.5080115,PM2.5,11,42,26
India,Karnataka,Bengaluru,"Shivapura_Peenya, Bengaluru - KSPCB",09-06-2024 23:00:00,13.0246342,77.5080115,SO2,3,6,4
India,Karnataka,Bengaluru,"Shivapura_Peenya, Bengaluru - KSPCB",09-06-2024 23:00:00,13.0246342,77.5080115,OZONE,53,56,55
India,Karnataka,Bengaluru,"Silk Board, Bengaluru - KSPCB",09-06-2024 23:00:00,12.917348,77.622813,SO2,9,18,14
India,Karnataka,Bidar,"Naubad, Bidar - KSPCB",09-06-2024 23:00:00,17.930306,77.482194,PM10,27,44,36
India,Karnataka,Chamarajanagar,"Urban, Chamarajanagar - KSPCB",09-06-2024 23:00:00,11.55358,76.55521,OZONE,25,27,26
India,Karnataka,Chikkaballapur,"Chikkaballapur Rural, Chikkaballapur - KSPCB",09-06-2024 23:00:00,13.428828,77.731418,NO2,4,8,6
India,Karnataka,Chikkamagaluru,"Kalyana Nagara, Chikkamagaluru - KSPCB",09-06-2024 23:00:00,13.328028,75.797056,CO,11,18,14
India,Karnataka,Chikkamagaluru,"Kalyana Nagara, Chikkamagaluru - KSPCB",09-06-2024 23:00:00,13.328028,75.797056,OZONE,15,26,19
India,Karnataka,Dharwad,"Kalabhavan, Dharwad - KSPCB",09-06-2024 23:00:00,15.459706,75.008381,PM2.5,4,34,20
India,Karnataka,Dharwad,"Kalabhavan, Dharwad - KSPCB",09-06-2024 23:00:00,15.459706,75.008381,PM10,6,48,28
India,Karnataka,Gadag,"Panchal Nagar, Gadag - KSPCB",09-06-2024 23:00:00,15.411456,75.638133,PM2.5,NA,NA,NA
India,Karnataka,Gadag,"Panchal Nagar, Gadag - KSPCB",09-06-2024 23:00:00,15.411456,75.638133,SO2,11,21,14
India,Karnataka,Hassan,"B.Katihalli, Hassan - KSPCB",09-06-2024 23:00:00,13.008556,76.125258,NO2,NA,NA,NA
India,Karnataka,Hassan,"B.Katihalli, Hassan - KSPCB",09-06-2024 23:00:00,13.008556,76.125258,SO2,NA,NA,NA
India,Karnataka,Haveri,"Ashwini Nagar, Haveri - KSPCB",09-06-2024 23:00:00,14.791800,75.389600,PM2.5,3,28,12
India,Karnataka,Hubballi,"Lingaraj Nagar, Hubballi - KSPCB",09-06-2024 23:00:00,15.3714823,75.1160168,NO2,9,18,13
India,Karnataka,Kalaburagi,"Lal Bahadur Shastri Nagar, Kalaburagi - KSPCB",09-06-2024 23:00:00,17.321993,76.822628,PM2.5,6,54,21
India,Karnataka,Kalaburagi,"Mahatma Basaveswar Colony, Kalaburgi - KSPCB",09-06-2024 23:00:00,17.336318,76.847397,NH3,2,3,2
India,Karnataka,Kalaburagi,"Mahatma Basaveswar Colony, Kalaburgi - KSPCB",09-06-2024 23:00:00,17.336318,76.847397,OZONE,4,15,6
India,Karnataka,Kolar,"Tamaka Ind. Area, Kolar - KSPCB",09-06-2024 23:00:00,13.1276288,78.1570122,CO,8,12,8
India,Karnataka,Madikeri,"Stuart Hill, Madikeri - KSPCB",09-06-2024 23:00:00,12.415911,75.735050,PM10,4,29,17
India,Karnataka,Madikeri,"Stuart Hill, Madikeri - KSPCB",09-06-2024 23:00:00,12.415911,75.735050,NH3,NA,NA,NA
India,Karnataka,Madikeri,"Stuart Hill, Madikeri - KSPCB",09-06-2024 23:00:00,12.415911,75.735050,SO2,4,4,4
India,Karnataka,Madikeri,"Stuart Hill, Madikeri - KSPCB",09-06-2024 23:00:00,12.415911,75.735050,CO,6,57,23
India,Karnataka,Mysuru,"Hebbal 1st Stage, Mysuru - KSPCB",09-06-2024 23:00:00,12.21041,76.37376,PM10,21,39,27
India,Karnataka,Mysuru,"Hebbal 1st Stage, Mysuru - KSPCB",09-06-2024 23:00:00,12.21041,76.37376,CO,2,18,13
India,Karnataka,Raichur,"Haji Colony, Raichur - KSPCB",09-06-2024 23:00:00,16.208139,77.348417,PM10,9,49,27
India,Karnataka,Raichur,"Haji Colony, Raichur - KSPCB",09-06-2024 23:00:00,16.208139,77.348417,CO,98,106,104
India,Karnataka,Ramanagara,"Vijay Nagar, Ramanagara - KSPCB",09-06-2024 23:00:00,12.733409,77.298051,PM2.5,2,21,9
India,Karnataka,Ramanagara,"Vijay Nagar, Ramanagara - KSPCB",09-06-2024 23:00:00,12.733409,77.298051,PM10,8,26,17
India,Karnataka,Ramanagara,"Vijay Nagar, Ramanagara - KSPCB",09-06-2024 23:00:00,12.733409,77.298051,OZONE,28,30,29
India,Karnataka,Shivamogga,"Vinoba Nagara, Shivamogga - KSPCB",09-06-2024 23:00:00,13.940000,75.555917,NO2,9,77,23
India,Karnataka,Tumakuru,"Thimmalapura, Tumakuru - KSPCB",09-06-2024 23:00:00,13.377516,77.099072,SO2,7,9,7
India,Karnataka,Udupi,"Brahmagiri, Udupi - KSPCB",09-06-2024 23:00:00,13.34194444,74.74694444,NO2,27,29,28
India,Karnataka,Yadgir,"Collector Office, Yadgir - KSPCB",09-06-2024 23:00:00,16.7602,77.1428,NH3,NA,NA,NA
India,Karnataka,Yadgir,"Collector Office, Yadgir - KSPCB",09-06-2024 23:00:00,16.7602,77.1428,CO,NA,NA,NA
India,Kerala,Kannur,"Thavakkara, Kannur - Kerala PCB",09-06-2024 23:00:00,11.875000,75.373200,PM10,52,64,56
India,Kerala,Kannur,"Thavakkara, Kannur - Kerala PCB",09-06-2024 23:00:00,11.875000,75.373200,NO2,5,5,5
India,Kerala,Kollam,"Polayathode, Kollam - Kerala PCB",09-06-2024 23:00:00,8.8787,76.6073,PM2.5,5,73,34
India,Kerala,Kollam,"Polayathode, Kollam - Kerala PCB",09-06-2024 23:00:00,8.8787,76.6073,SO2,1,5,2
India,Kerala,Kollam,"Polayathode, Kollam - Kerala PCB",09-06-2024 23:00:00,8.8787,76.6073,OZONE,28,35,33
India,Kerala,Thiruvananthapuram,"Plammoodu, Thiruvananthapuram - Kerala PCB",09-06-2024 23:00:00,8.5149093,76.9435879,PM2.5,NA,NA,NA
India,Kerala,Thrissur,"Corporation Ground, Thrissur - Kerala PCB",09-06-2024 23:00:00,10.532400,76.215900,NH3,NA,NA,NA
India,Kerala,Thrissur,"Corporation Ground, Thrissur - Kerala PCB",09-06-2024 23:00:00,10.532400,76.215900,SO2,NA,NA,NA
India,Madhya Pradesh,Bhopal,"Idgah Hills, Bhopal - MPPCB",09-06-2024 23:00:00,23.264759,77.381568,NO2,8,53,24
India,Madhya Pradesh,Bhopal,"Idgah Hills, Bhopal - MPPCB",09-06-2024 23:00:00,23.264759,77.381568,CO,12,50,27
India,Madhya Pradesh,Bhopal,"Idgah Hills, Bhopal - MPPCB",09-06-2024 23:00:00,23.264759,77.381568,OZONE,13,109,73
India,Madhya Pradesh,Bhopal,"Paryavaran Parisar, Bhopal - MPPCB",09-06-2024 23:00:00,23.210494,77.425409,NO2,12,55,23
India,Madhya Pradesh,Bhopal,"Paryavaran Parisar, Bhopal - MPPCB",09-06-2024 23:00:00,23.210494,77.425409,CO,4,52,27
India,Madhya Pradesh,Bhopal,"T T Nagar, Bhopal - MPPCB",09-06-2024 23:00:00,23.233584,77.400574,NH3,4,10,8
India,Madhya Pradesh,Dewas,"Bhopal Chauraha, Dewas - MPPCB",09-06-2024 23:00:00,22.9682591,76.064118,SO2,18,45,31
India,Madhya Pradesh,Gwalior,"City Center, Gwalior - MPPCB",09-06-2024 23:00:00,26.203442,78.193251,PM2.5,38,140,80
India,Madhya Pradesh,Gwalior,"City Center, Gwalior - MPPCB",09-06-2024 23:00:00,26.203442,78.193251,PM10,78,227,142
India,Madhya Pradesh,Gwalior,"City Center, Gwalior - MPPCB",09-06-2024 23:00:00,26.203442,78.193251,CO,24,52,38
India,Madhya Pradesh,Gwalior,"Maharaj Bada, Gwalior - MPPCB",09-06-2024 23:00:00,26.200388,78.147714,NH3,3,17,6
India,Madhya Pradesh,Gwalior,"Maharaj Bada, Gwalior - MPPCB",09-06-2024 23:00:00,26.200388,78.147714,OZONE,24,179,123
India,Madhya Pradesh,Indore,"Chhoti Gwaltoli, Indore - MPPCB",09-06-2024 23:00:00,22.4310,75.5213,NH3,5,7,6
India,Madhya Pradesh,Indore,"Maguda Nagar, Indore - IMC",09-06-2024 23:00:00,22.7524,75.8872,CO,NA,NA,NA
India,Madhya Pradesh,Indore,"Regional Park, Indore - IMC",09-06-2024 23:00:00,22.6780,75.8559,CO,22,40,25
India,Madhya Pradesh,Indore,"Residency Area, Indore - IMC",09-06-2024 23:00:00,22.7084,75.8815,SO2,30,73,42
India,Madhya Pradesh,Jabalpur,"Govindh Bhavan Colony, Jabalpur - JMC",09-06-2024 23:00:00,23.163174,79.973061,NO2,3,17,8
India,Madhya Pradesh,Jabalpur,"Govindh Bhavan Colony, Jabalpur - JMC",09-06-2024 23:00:00,23.163174,79.973061,OZONE,49,96,78
India,Madhya Pradesh,Jabalpur,"Gupteshwar, Jabalpur - JMC",09-06-2024 23:00:00,23.142888,79.916147,PM10,47,122,78
India,Madhya Pradesh,Jabalpur,"Suhagi, Jabalpur - JMC",09-06-2024 23:00:00,23.218135,79.957770,PM10,NA,NA,NA
India,Madhya Pradesh,Katni,"Gole Bazar, Katni - MPPCB",09-06-2024 23:00:00,23.50016,80.23284,CO,26,67,29
India,Madhya Pradesh,Mandideep,"Sector-D Industrial Area, Mandideep - MPPCB",09-06-2024 23:00:00,23.108440,77.511428,OZONE,11,48,39
India,Madhya Pradesh,Pithampur,"Sector-2 Industrial Area, Pithampur - MPPCB",09-06-2024 23:00:00,22.624758,75.675238,SO2,9,14,12
India,Madhya Pradesh,Pithampur,"Sector-2 Industrial Area, Pithampur - MPPCB",09-06-2024 23:00:00,22.624758,75.675238,CO,32,66,37
India,Madhya Pradesh,Pithampur,"Sector-2 Industrial Area, Pithampur - MPPCB",09-06-2024 23:00:00,22.624758,75.675238,OZONE,9,58,38
India,Madhya Pradesh,Ratlam,"Shasthri Nagar, Ratlam - IPCA Lab",09-06-2024 23:00:00,23.331731,75.045981,SO2,28,35,30
India,Madhya Pradesh,Sagar,"Civil Lines, Sagar - MPPCB",09-06-2024 23:00:00,23.838586,78.759431,CO,2,40,23
India,Madhya Pradesh,Sagar,"Civil Lines, Sagar - MPPCB",09-06-2024 23:00:00,23.838586,78.759431,OZONE,52,162,124
India,Madhya Pradesh,Satna,"Bandhavgar Colony, Satna - Birla Cement",09-06-2024 23:00:00,24.58434363,80.8549414,NO2,26,54,33
India,Madhya Pradesh,Singrauli,"Suryakiran Bhawan NCL, Singrauli - MPPCB",09-06-2024 23:00:00,24.108970,82.645580,PM10,42,405,133
India,Madhya Pradesh,Singrauli,"Suryakiran Bhawan NCL, Singrauli - MPPCB",09-06-2024 23:00:00,24.108970,82.645580,OZONE,1,76,39
India,Madhya Pradesh,Ujjain,"Mahakaleshwar Temple, Ujjain - MPPCB",09-06-2024 23:00:00,23.182719 ,75.768218 ,PM2.5,56,138,86
India,Madhya Pradesh,Ujjain,"Mahakaleshwar Temple, Ujjain - MPPCB",09-06-2024 23:00:00,23.182719 ,75.768218 ,PM10,72,128,105
India,Madhya Pradesh,Ujjain,"Mahakaleshwar Temple, Ujjain - MPPCB",09-06-2024 23:00:00,23.182719 ,75.768218 ,CO,8,24,17
India,Madhya Pradesh,Ujjain,"Mahakaleshwar Temple, Ujjain - MPPCB",09-06-2024 23:00:00,23.182719 ,75.768218 ,OZONE,70,74,73
India,Maharashtra,Ahmednagar,"Tarakpur, Ahmednagar - MPCB",09-06-2024 23:00:00,19.10122,74.73339,PM10,NA,NA,NA
India,Maharashtra,Ahmednagar,"Tarakpur, Ahmednagar - MPCB",09-06-2024 23:00:00,19.10122,74.73339,NH3,NA,NA,NA
India,Maharashtra,Akola,"Ramdaspeth, Akola - MPCB",09-06-2024 23:00:00,20.719516,77.000253,OZONE,15,67,39
India,Maharashtra,Amravati,"Shivneri Colony, Amravati - MPCB",09-06-2024 23:00:00,20.9402359,77.7895248,SO2,4,10,5
India,Maharashtra,Amravati,"Shri Shivaji Science College, Amaravati - MPCB",09-06-2024 23:00:00,20.939198,77.765701,OZONE,39,91,67
India,Maharashtra,Aurangabad,"MIDC Chilkalthana, Aurangabad - MPCB",09-06-2024 23:00:00,19.875620,75.387310,SO2,2,9,4
India,Maharashtra,Aurangabad,"MIDC Chilkalthana, Aurangabad - MPCB",09-06-2024 23:00:00,19.875620,75.387310,OZONE,6,72,36
India,Maharashtra,Badlapur,"Katrap, Badlapur - MPCB",09-06-2024 23:00:00,19.16485,73.23409,PM2.5,20,216,88
India,Maharashtra,Belapur,"CBD Belapur, Belapur - MPCB",09-06-2024 23:00:00,19.0243902,73.0406721,PM2.5,26,56,41
India,Maharashtra,Bhiwandi,"Gokul Nagar, Bhiwandi - MPCB",09-06-2024 23:00:00,19.309073,73.057223,NH3,1,3,2
India,Maharashtra,Chandrapur,"Chauhan Colony, Chandrapur - MPCB",09-06-2024 23:00:00,19.962900,79.298714,NH3,2,3,2
India,Maharashtra,Chandrapur,"Chauhan Colony, Chandrapur - MPCB",09-06-2024 23:00:00,19.962900,79.298714,OZONE,1,4,2
India,Maharashtra,Chandrapur,"MIDC Khutala, Chandrapur - MPCB",09-06-2024 23:00:00,19.9775302,79.2337086,NH3,6,18,9
India,Maharashtra,Dhule,"Deopur, Dhule - MPCB",09-06-2024 23:00:00,20.918946,74.776388,CO,20,30,22
India,Maharashtra,Jalgaon,"Prabhat Colony, Jalgaon - MPCB",09-06-2024 23:00:00,21.001264,75.565602,PM10,36,417,107
India,Maharashtra,Jalna,"Old MIDC, Jalna - MPCB",09-06-2024 23:00:00,19.854616,75.905894,PM2.5,20,58,33
India,Maharashtra,Jalna,"Old MIDC, Jalna - MPCB",09-06-2024 23:00:00,19.854616,75.905894,PM10,25,66,42
India,Maharashtra,Jalna,"Old MIDC, Jalna - MPCB",09-06-2024 23:00:00,19.854616,75.905894,NO2,23,29,26
India,Maharashtra,Jalna,"Old MIDC, Jalna - MPCB",09-06-2024 23:00:00,19.854616,75.905894,SO2,5,7,6
India,Maharashtra,Jalna,"Old MIDC, Jalna - MPCB",09-06-2024 23:00:00,19.854616,75.905894,OZONE,1,34,6
India,Maharashtra,Kalyan,"Khadakpada, Kalyan - MPCB",09-06-2024 23:00:00,19.25292,73.142019,CO,12,18,15
India,Maharashtra,Kolhapur,"Shivaji University, Kolhapur - MPCB",09-06-2024 23:00:00,16.6870449,74.2505872,SO2,1,2,1
India,Maharashtra,Kolhapur,"Shivaji University, Kolhapur - MPCB",09-06-2024 23:00:00,16.6870449,74.2505872,CO,40,66,48
India,Maharashtra,Kolhapur,"Sinchan Bhavan, Kolhapur - MPCB",09-06-2024 23:00:00,16.7143745,74.2426398,SO2,1,2,1
India,Maharashtra,Latur,"Sawe Wadi, Latur - MPCB",09-06-2024 23:00:00,18.39963,76.57452,NH3,16,17,17
India,Maharashtra,Mahad,"Kamble Tarf Birwadi, Mahad - MPCB",09-06-2024 23:00:00,18.1023399,73.4783687,PM10,17,42,32
India,Maharashtra,Mahad,"Kamble Tarf Birwadi, Mahad - MPCB",09-06-2024 23:00:00,18.1023399,73.4783687,NO2,9,37,18
India,Maharashtra,Malegaon,"Mahesh Nagar, Malegaon - MPCB",09-06-2024 23:00:00,20.555712,74.529236,NO2,16,53,31
India,Maharashtra,Malegaon,"Mahesh Nagar, Malegaon - MPCB",09-06-2024 23:00:00,20.555712,74.529236,NH3,1,10,4
India,Maharashtra,Malegaon,"Mahesh Nagar, Malegaon - MPCB",09-06-2024 23:00:00,20.555712,74.529236,OZONE,15,179,89
India,Maharashtra,Mumbai,"Borivali East, Mumbai - IITM",09-06-2024 23:00:00,19.23241,72.86895,PM10,23,74,45
India,Maharashtra,Mumbai,"Borivali East, Mumbai - IITM",09-06-2024 23:00:00,19.23241,72.86895,NO2,20,51,32
India,Maharashtra,Mumbai,"Borivali East, Mumbai - IITM",09-06-2024 23:00:00,19.23241,72.86895,CO,41,70,61
India,Maharashtra,Mumbai,"Borivali East, Mumbai - MPCB",09-06-2024 23:00:00,19.2243333,72.8658113,CO,36,38,38
India,Maharashtra,Mumbai,"Byculla, Mumbai - BMC",09-06-2024 23:00:00,18.9767,72.8380,SO2,1,2,1
India,Maharashtra,Mumbai,"Byculla, Mumbai - BMC",09-06-2024 23:00:00,18.9767,72.8380,OZONE,2,55,32
India,Maharashtra,Mumbai,"Chembur, Mumbai - MPCB",09-06-2024 23:00:00,19.0364585,72.8954371,SO2,1,4,1
India,Maharashtra,Mumbai,"Chembur, Mumbai - MPCB",09-06-2024 23:00:00,19.0364585,72.8954371,OZONE,1,98,48
India,Maharashtra,Mumbai,"Chhatrapati Shivaji Intl. Airport (T2), Mumbai - MPCB",09-06-2024 23:00:00,19.10078,72.87462,SO2,16,20,18
India,Maharashtra,Mumbai,"Deonar, Mumbai - IITM",09-06-2024 23:00:00,19.04946,72.9230,NO2,5,12,8
India,Maharashtra,Mumbai,"Deonar, Mumbai - IITM",09-06-2024 23:00:00,19.04946,72.9230,NH3,6,7,7
India,Maharashtra,Mumbai,"Ghatkopar, Mumbai - BMC",09-06-2024 23:00:00,19.083694,72.920967,PM10,7,38,22
India,Maharashtra,Mumbai,"Ghatkopar, Mumbai - BMC",09-06-2024 23:00:00,19.083694,72.920967,NO2,NA,NA,NA
India,Maharashtra,Mumbai,"Ghatkopar, Mumbai - BMC",09-06-2024 23:00:00,19.083694,72.920967,NH3,NA,NA,NA
India,Maharashtra,Mumbai,"Ghatkopar, Mumbai - BMC",09-06-2024 23:00:00,19.083694,72.920967,OZONE,1,10,5
India,Maharashtra,Mumbai,"Kandivali East, Mumbai - MPCB",09-06-2024 23:00:00,19.205800,72.868200,NO2,13,38,24
India,Maharashtra,Mumbai,"Kandivali East, Mumbai - MPCB",09-06-2024 23:00:00,19.205800,72.868200,NH3,1,3,1
India,Maharashtra,Mumbai,"Kandivali East, Mumbai - MPCB",09-06-2024 23:00:00,19.205800,72.868200,CO,32,35,34
India,Maharashtra,Mumbai,"Kandivali East, Mumbai - MPCB",09-06-2024 23:00:00,19.205800,72.868200,OZONE,20,31,30
India,Maharashtra,Mumbai,"Khindipada-Bhandup West, Mumbai - IITM",09-06-2024 23:00:00,19.1653323,72.922099,OZONE,NA,NA,NA
India,Maharashtra,Mumbai,"Kurla, Mumbai - MPCB",09-06-2024 23:00:00,19.0863,72.8888,PM10,87,112,97
India,Maharashtra,Mumbai,"Mindspace-Malad West, Mumbai - MPCB",09-06-2024 23:00:00,19.1878657,72.8304069,CO,20,32,23
India,Maharashtra,Mumbai,"Mulund West, Mumbai - MPCB",09-06-2024 23:00:00,19.1750,72.9419,OZONE,7,8,7
India,Maharashtra,Mumbai,"Powai, Mumbai - MPCB",09-06-2024 23:00:00,19.137500,72.915056,SO2,14,15,14
India,Maharashtra,Mumbai,"Sewri, Mumbai - BMC",09-06-2024 23:00:00,19.000084,72.856730,PM10,17,43,26
India,Maharashtra,Mumbai,"Sewri, Mumbai - BMC",09-06-2024 23:00:00,19.000084,72.856730,NH3,1,3,2
India,Maharashtra,Mumbai,"Sewri, Mumbai - BMC",09-06-2024 23:00:00,19.000084,72.856730,CO,10,44,21
India,Maharashtra,Mumbai,"Sion, Mumbai - MPCB",09-06-2024 23:00:00,19.047000,72.874600,NH3,5,8,7
India,Maharashtra,Mumbai,"Sion, Mumbai - MPCB",09-06-2024 23:00:00,19.047000,72.874600,CO,48,67,53
India,Maharashtra,Mumbai,"Sion, Mumbai - MPCB",09-06-2024 23:00:00,19.047000,72.874600,OZONE,44,61,58
India,Maharashtra,Mumbai,"Vasai West, Mumbai - MPCB",09-06-2024 23:00:00,19.383200,72.820400,NO2,25,103,33
India,Maharashtra,Mumbai,"Vile Parle West, Mumbai - MPCB",09-06-2024 23:00:00,19.10861,72.83622,PM2.5,NA,NA,NA
India,Maharashtra,Mumbai,"Worli, Mumbai - MPCB",09-06-2024 23:00:00,18.9936162,72.8128113,SO2,12,12,12
India,Maharashtra,Nagpur,"Ambazari, Nagpur - MPCB",09-06-2024 23:00:00,21.121801,79.04952,PM10,63,116,87
India,Maharashtra,Nagpur,"Ambazari, Nagpur - MPCB",09-06-2024 23:00:00,21.121801,79.04952,NO2,7,52,23
India,Maharashtra,Nagpur,"Mahal, Nagpur - MPCB",09-06-2024 23:00:00,21.14472,79.107595,PM10,61,103,82
India,Maharashtra,Nagpur,"Mahal, Nagpur - MPCB",09-06-2024 23:00:00,21.14472,79.107595,SO2,4,46,17
India,Maharashtra,Nagpur,"Mahal, Nagpur - MPCB",09-06-2024 23:00:00,21.14472,79.107595,CO,24,86,51
India,Maharashtra,Nanded,"Sneh Nagar, Nanded - MPCB",09-06-2024 23:00:00,19.173852,77.296291,SO2,1,15,9
India,Maharashtra,Nashik,"Gangapur Road, Nashik - MPCB",09-06-2024 23:00:00,20.0073285,73.7762427,PM10,47,86,66
India,Maharashtra,Nashik,"Gangapur Road, Nashik - MPCB",09-06-2024 23:00:00,20.0073285,73.7762427,SO2,8,14,11
India,Maharashtra,Nashik,"MIDC Ambad, Nashik - MPCB",09-06-2024 23:00:00,19.950220,73.731480,NH3,4,5,4
India,Maharashtra,Nashik,"Pandav Nagari, Nashik - MPCB",09-06-2024 23:00:00,19.9591346,73.7788008,PM2.5,29,68,52
India,Maharashtra,Nashik,"Pandav Nagari, Nashik - MPCB",09-06-2024 23:00:00,19.9591346,73.7788008,NH3,3,5,4
India,Maharashtra,Navi Mumbai,"Kopripada-Vashi, Navi Mumbai - MPCB",09-06-2024 23:00:00,19.090337,73.014232,PM2.5,13,42,23
India,Maharashtra,Navi Mumbai,"Mahape, Navi Mumbai - MPCB",09-06-2024 23:00:00,19.1135051,73.008978,PM2.5,NA,NA,NA
India,Maharashtra,Navi Mumbai,"Mahape, Navi Mumbai - MPCB",09-06-2024 23:00:00,19.1135051,73.008978,NO2,NA,NA,NA
India,Maharashtra,Navi Mumbai,"Nerul, Navi Mumbai - MPCB",09-06-2024 23:00:00,19.008751,73.016620,PM10,16,68,40
India,Maharashtra,Navi Mumbai,"Nerul, Navi Mumbai - MPCB",09-06-2024 23:00:00,19.008751,73.016620,NH3,3,4,4
India,Maharashtra,Navi Mumbai,"Nerul, Navi Mumbai - MPCB",09-06-2024 23:00:00,19.008751,73.016620,CO,13,20,16
India,Maharashtra,Navi Mumbai,"Nerul, Navi Mumbai - MPCB",09-06-2024 23:00:00,19.008751,73.016620,OZONE,18,27,22
India,Maharashtra,Navi Mumbai,"Sector-19A Nerul, Navi Mumbai - IITM",09-06-2024 23:00:00,19.044,73.0325,CO,3,56,40
India,Maharashtra,Navi Mumbai,"Sector-2E Kalamboli, Navi Mumbai - MPCB",09-06-2024 23:00:00,19.02579,73.10297,SO2,1,6,4
India,Maharashtra,Parbhani,"Masoom Colony, Parbhani - MPCB",09-06-2024 23:00:00,19.265594,76.761463,PM10,45,91,62
India,Maharashtra,Parbhani,"Masoom Colony, Parbhani - MPCB",09-06-2024 23:00:00,19.265594,76.761463,NH3,3,7,5
India,Maharashtra,Pimpri-Chinchwad,"Gavalinagar, Pimpri Chinchwad - MPCB",09-06-2024 23:00:00,18.63673,73.82487,PM10,37,64,49
India,Maharashtra,Pimpri-Chinchwad,"Gavalinagar, Pimpri Chinchwad - MPCB",09-06-2024 23:00:00,18.63673,73.82487,NO2,1,17,5
India,Maharashtra,Pune,"Alandi, Pune - IITM",09-06-2024 23:00:00,18.675076,73.892743,PM2.5,16,304,50
India,Maharashtra,Pune,"Bhosari, Pune - IITM",09-06-2024 23:00:00,18.640051,73.848956,NO2,5,11,7
India,Maharashtra,Pune,"Hadapsar, Pune - IITM",09-06-2024 23:00:00,18.501793,73.927532,NO2,24,47,39
India,Maharashtra,Pune,"Karve Road, Pune - MPCB",09-06-2024 23:00:00,18.5011743,73.8165527,NO2,NA,NA,NA
India,Maharashtra,Pune,"Karve Road, Pune - MPCB",09-06-2024 23:00:00,18.5011743,73.8165527,SO2,NA,NA,NA
India,Maharashtra,Pune,"Karve Road, Pune - MPCB",09-06-2024 23:00:00,18.5011743,73.8165527,OZONE,NA,NA,NA
India,Maharashtra,Pune,"Mhada Colony, Pune - IITM",09-06-2024 23:00:00,18.573040,73.927715,NO2,NA,NA,NA
India,Maharashtra,Pune,"Mhada Colony, Pune - IITM",09-06-2024 23:00:00,18.573040,73.927715,OZONE,6,79,32
India,Maharashtra,Sangli,"Vijay Nagar, Sangli - MPCB",09-06-2024 23:00:00, 16.5038,74.3623,NO2,6,25,13
India,Maharashtra,Sangli,"Vijay Nagar, Sangli - MPCB",09-06-2024 23:00:00, 16.5038,74.3623,NH3,1,2,2
India,Maharashtra,Sangli,"Vijay Nagar, Sangli - MPCB",09-06-2024 23:00:00, 16.5038,74.3623,CO,12,28,15
India,Maharashtra,Solapur,"Dnyaneshwar Nagar, Solapur - MPCB",09-06-2024 23:00:00,17.6336264,75.9132495,NH3,19,25,21
India,Maharashtra,Solapur,"Dnyaneshwar Nagar, Solapur - MPCB",09-06-2024 23:00:00,17.6336264,75.9132495,CO,20,38,26
India,Maharashtra,Thane,"Kasarvadavali, Thane - MPCB",09-06-2024 23:00:00,19.26777,72.97182,PM10,14,39,29
India,Maharashtra,Thane,"Kasarvadavali, Thane - MPCB",09-06-2024 23:00:00,19.26777,72.97182,NO2,9,41,22
India,Maharashtra,Thane,"Upvan Fort, Thane - MPCB",09-06-2024 23:00:00,19.222279,72.957979,OZONE,26,102,58
India,Maharashtra,Ulhasnagar,"Sidhi Vinayak Nagar, Ulhasnagar - MPCB",09-06-2024 23:00:00,19.235581,73.159121,NO2,18,34,27
India,Maharashtra,Ulhasnagar,"Sidhi Vinayak Nagar, Ulhasnagar - MPCB",09-06-2024 23:00:00,19.235581,73.159121,CO,14,49,36
India,Maharashtra,Virar,"Bolinj, Virar - MPCB",09-06-2024 23:00:00,19.4458210,72.7988231,NH3,9,9,9
India,Maharashtra,Virar,"Bolinj, Virar - MPCB",09-06-2024 23:00:00,19.4458210,72.7988231,SO2,NA,NA,NA
India,Manipur,Imphal,"Manipur University, Imphal - Manipur PCB",09-06-2024 23:00:00,24.7524239,93.9286218,NO2,6,13,8
India,Meghalaya,Shillong,"Lumpyngngad, Shillong - Meghalaya PCB",09-06-2024 23:00:00,25.5586,91.8985,PM10,NA,NA,NA
India,Meghalaya,Shillong,"Lumpyngngad, Shillong - Meghalaya PCB",09-06-2024 23:00:00,25.5586,91.8985,OZONE,1,28,4
India,Mizoram,Aizawl,"Sikulpuikawn, Aizawl - Mizoram PCB",09-06-2024 23:00:00,23.7176342,92.7192841,SO2,2,3,2
India,Mizoram,Aizawl,"Sikulpuikawn, Aizawl - Mizoram PCB",09-06-2024 23:00:00,23.7176342,92.7192841,OZONE,9,35,15
India,Odisha,Angul,"Hakimapada, Angul - OSPCB",09-06-2024 23:00:00,20.832874,85.104082,PM2.5,42,123,66
India,Odisha,Angul,"Hakimapada, Angul - OSPCB",09-06-2024 23:00:00,20.832874,85.104082,OZONE,18,92,78
India,Odisha,Barbil,"Forest Office, Barbil - OSPCB",09-06-2024 23:00:00,22.1166054,85.3945546,NH3,2,3,3
India,Odisha,Barbil,"Forest Office, Barbil - OSPCB",09-06-2024 23:00:00,22.1166054,85.3945546,OZONE,64,262,182
India,Odisha,Bileipada,"Tata Township, Bileipada - OSPCB",09-06-2024 23:00:00,22.06156703,85.47409613,OZONE,44,97,76
India,Odisha,Brajrajnagar,"GM Office, Brajrajnagar - OSPCB",09-06-2024 23:00:00,21.8004996,83.8396977,PM2.5,28,102,55
India,Odisha,Brajrajnagar,"GM Office, Brajrajnagar - OSPCB",09-06-2024 23:00:00,21.8004996,83.8396977,NH3,11,11,11
India,Odisha,Byasanagar,"Ferro Chrome Colony, Byasanagar - OSPCB",09-06-2024 23:00:00,20.94185,86.11510,SO2,NA,NA,NA
India,Odisha,Keonjhar,"Jagamohanpur, Keonjhar - OSPCB",09-06-2024 23:00:00,21.643900,85.599355,CO,8,106,14
India,Odisha,Nayagarh,"Dabuna, Nayagarh - OSPCB",09-06-2024 23:00:00,21.847279,85.416905,SO2,2,18,6
India,Odisha,Nayagarh,"Dabuna, Nayagarh - OSPCB",09-06-2024 23:00:00,21.847279,85.416905,OZONE,18,46,41
India,Odisha,Rairangpur,"Divisional Forest Office, Rairangpur - OSPCB",09-06-2024 23:00:00,22.265816,86.174829,PM10,82,126,100
India,Odisha,Rairangpur,"Divisional Forest Office, Rairangpur - OSPCB",09-06-2024 23:00:00,22.265816,86.174829,NO2,2,3,2
India,Odisha,Suakati,"OMC Colony, Suakati - OSPCB",09-06-2024 23:00:00,21.606865,85.510538,CO,16,20,20
India,Odisha,Talcher,"Talcher Coalfields,Talcher - OSPCB",09-06-2024 23:00:00,20.9360711,85.1707021,PM2.5,12,304,93
India,Odisha,Talcher,"Talcher Coalfields,Talcher - OSPCB",09-06-2024 23:00:00,20.9360711,85.1707021,NO2,19,28,22
India,Odisha,Talcher,"Talcher Coalfields,Talcher - OSPCB",09-06-2024 23:00:00,20.9360711,85.1707021,OZONE,23,35,26
India,Odisha,Tensa,"Barsua Iron Ore Mines, Tensa - OSPCB",09-06-2024 23:00:00,21.869985,85.167016,PM2.5,58,76,66
India,Odisha,Tensa,"Barsua Iron Ore Mines, Tensa - OSPCB",09-06-2024 23:00:00,21.869985,85.167016,SO2,NA,NA,NA
India,Odisha,Tensa,"Barsua Iron Ore Mines, Tensa - OSPCB",09-06-2024 23:00:00,21.869985,85.167016,OZONE,99,301,217
India,Punjab,Amritsar,"Golden Temple, Amritsar - PPCB",09-06-2024 23:00:00,31.620000,74.876512,SO2,5,15,12
India,Punjab,Bathinda,"Hardev Nagar, Bathinda - PPCB",09-06-2024 23:00:00,30.233011,74.907758,PM2.5,NA,NA,NA
India,Punjab,Bathinda,"Hardev Nagar, Bathinda - PPCB",09-06-2024 23:00:00,30.233011,74.907758,CO,3,140,22
India,Punjab,Jalandhar,"Civil Line, Jalandhar - PPCB",09-06-2024 23:00:00,31.321907,75.578914,OZONE,22,105,51
India,Punjab,Khanna,"Kalal Majra, Khanna - PPCB",09-06-2024 23:00:00,30.736056 ,76.209694,PM2.5,22,202,88
India,Punjab,Khanna,"Kalal Majra, Khanna - PPCB",09-06-2024 23:00:00,30.736056 ,76.209694,PM10,107,163,135
India,Punjab,Khanna,"Kalal Majra, Khanna - PPCB",09-06-2024 23:00:00,30.736056 ,76.209694,NH3,12,13,13
India,Punjab,Ludhiana,"Punjab Agricultural University, Ludhiana - PPCB",09-06-2024 23:00:00,30.9028,75.8086,PM2.5,70,158,109
India,Punjab,Ludhiana,"Punjab Agricultural University, Ludhiana - PPCB",09-06-2024 23:00:00,30.9028,75.8086,SO2,9,16,12
India,Punjab,Patiala,"Model Town, Patiala - PPCB",09-06-2024 23:00:00,30.349388,76.366642,PM2.5,50,115,78
India,Punjab,Patiala,"Model Town, Patiala - PPCB",09-06-2024 23:00:00,30.349388,76.366642,CO,13,28,19
India,Rajasthan,Ajmer,"Civil Lines,  Ajmer - RSPCB",09-06-2024 23:00:00,26.470859,74.646594,SO2,8,22,15
India,Rajasthan,Banswara,"Rati Talai, Banswara - RSPCB",09-06-2024 23:00:00,23.555190,74.440010,PM10,43,141,91
India,Rajasthan,Banswara,"Rati Talai, Banswara - RSPCB",09-06-2024 23:00:00,23.555190,74.440010,NO2,9,28,16
India,Rajasthan,Banswara,"Rati Talai, Banswara - RSPCB",09-06-2024 23:00:00,23.555190,74.440010,OZONE,42,112,92
India,Rajasthan,Baran,"Bamboliya, Baran - RSPCB",09-06-2024 23:00:00,25.106006,76.469948,NH3,3,5,4
India,Rajasthan,Barmer,"Railway Colony, Barmer - RSPCB",09-06-2024 23:00:00,25.747299,71.393989,PM10,38,161,77
India,Rajasthan,Barmer,"Railway Colony, Barmer - RSPCB",09-06-2024 23:00:00,25.747299,71.393989,NH3,8,23,16
India,Rajasthan,Bharatpur,"Krishna Nagar, Bharatpur - RSPCB",09-06-2024 23:00:00,27.215415,77.50873,PM2.5,41,201,89
India,Rajasthan,Bhilwara,"Pratap Nagar, Bhilwara - RSPCB",09-06-2024 23:00:00,25.339605,74.618883,PM2.5,17,117,40
India,Rajasthan,Bhiwadi,"RIICO Ind. Area III, Bhiwadi - RSPCB",09-06-2024 23:00:00,28.194909,76.862296,CO,3,62,35
India,Rajasthan,Bhiwadi,"Vasundhara Nagar_UIT, Bhiwadi - RSPCB",09-06-2024 23:00:00,28.207266,76.829265,NO2,9,55,25
India,Rajasthan,Bhiwadi,"Vasundhara Nagar_UIT, Bhiwadi - RSPCB",09-06-2024 23:00:00,28.207266,76.829265,SO2,5,27,12
India,Rajasthan,Bundi,"New Colony, Bundi - RSPCB",09-06-2024 23:00:00,25.435774,75.644272,OZONE,14,119,83
India,Rajasthan,Dholpur,"Raja Ganj, Dholpur - RSPCB",09-06-2024 23:00:00,26.699557,77.898881,PM10,114,375,188
India,Rajasthan,Dholpur,"Raja Ganj, Dholpur - RSPCB",09-06-2024 23:00:00,26.699557,77.898881,NO2,9,251,37
India,Rajasthan,Dungarpur,"Bhoiwada, Dungarpur - RSPCB",09-06-2024 23:00:00,23.837789,73.714926,PM2.5,10,87,40
India,Rajasthan,Dungarpur,"Bhoiwada, Dungarpur - RSPCB",09-06-2024 23:00:00,23.837789,73.714926,CO,9,54,32
India,Rajasthan,Hanumangarh,"Housing Board, Hanumangarh - RSPCB",09-06-2024 23:00:00,29.610750,74.283608,NO2,1,31,9
India,Rajasthan,Hanumangarh,"Housing Board, Hanumangarh - RSPCB",09-06-2024 23:00:00,29.610750,74.283608,SO2,5,18,11
India,Rajasthan,Hanumangarh,"Housing Board, Hanumangarh - RSPCB",09-06-2024 23:00:00,29.610750,74.283608,OZONE,14,71,53
India,Rajasthan,Jaipur,"Adarsh Nagar, Jaipur - RSPCB",09-06-2024 23:00:00,26.902909,75.836858,CO,22,81,42
India,Rajasthan,Jaipur,"Adarsh Nagar, Jaipur - RSPCB",09-06-2024 23:00:00,26.902909,75.836858,OZONE,23,82,60
India,Rajasthan,Jaipur,"Mansarovar Sector-12, Jaipur - RSPCB",09-06-2024 23:00:00,26.843698,75.766894,NO2,9,48,29
India,Rajasthan,Jaipur,"Police Commissionerate, Jaipur - RSPCB",09-06-2024 23:00:00,26.9164092,75.7994901,NO2,NA,NA,NA
India,Rajasthan,Jaipur,"Police Commissionerate, Jaipur - RSPCB",09-06-2024 23:00:00,26.9164092,75.7994901,SO2,17,24,21
India,Rajasthan,Jaipur,"Police Commissionerate, Jaipur - RSPCB",09-06-2024 23:00:00,26.9164092,75.7994901,CO,3,59,41
India,Rajasthan,Jaipur,"Shastri Nagar, Jaipur - RSPCB",09-06-2024 23:00:00,26.9502929,75.730943,NO2,11,79,31
India,Rajasthan,Jalore,"Mudtra Sili, Jalore - RSPCB",09-06-2024 23:00:00,25.344694,72.626208,PM2.5,32,60,46
India,Rajasthan,Jalore,"Mudtra Sili, Jalore - RSPCB",09-06-2024 23:00:00,25.344694,72.626208,OZONE,42,91,65
India,Rajasthan,Jhunjhunu,"Indra Nagar, Jhunjhunu - RSPCB",09-06-2024 23:00:00,28.108988,75.386577,PM10,83,212,121
India,Rajasthan,Jhunjhunu,"Indra Nagar, Jhunjhunu - RSPCB",09-06-2024 23:00:00,28.108988,75.386577,NH3,22,35,28
India,Rajasthan,Jodhpur,"Collectorate, Jodhpur - RSPCB",09-06-2024 23:00:00,26.268249,73.0193853,NO2,1,22,10
India,Rajasthan,Jodhpur,"Digari Kalan, Jodhpur - RSPCB",09-06-2024 23:00:00,26.295810,73.082283,NH3,2,5,3
India,Rajasthan,Jodhpur,"Jhalamand, Jodhpur - RSPCB",09-06-2024 23:00:00,26.215415,73.070156,PM10,35,191,86
India,Rajasthan,Jodhpur,"Mandor, Jodhpur - RSPCB",09-06-2024 23:00:00,26.358805,73.047444,PM2.5,11,54,26
India,Rajasthan,Jodhpur,"Samrat Ashok Udhyan, Jodhpur - RSPCB",09-06-2024 23:00:00,26.253384,72.976571,PM10,67,333,133
India,Rajasthan,Jodhpur,"Samrat Ashok Udhyan, Jodhpur - RSPCB",09-06-2024 23:00:00,26.253384,72.976571,NO2,1,35,9
India,Rajasthan,Jodhpur,"Samrat Ashok Udhyan, Jodhpur - RSPCB",09-06-2024 23:00:00,26.253384,72.976571,CO,8,32,15
India,Rajasthan,Jodhpur,"Samrat Ashok Udhyan, Jodhpur - RSPCB",09-06-2024 23:00:00,26.253384,72.976571,OZONE,52,87,73
India,Rajasthan,Karauli,"Satyawati Vihar, Karauli - RSPCB",09-06-2024 23:00:00,26.506177,77.025989,SO2,7,19,15
India,Rajasthan,Kota,"Dhanmandi, Kota - RSPCB",09-06-2024 23:00:00,25.164090,75.858137,SO2,6,21,8
India,Rajasthan,Kota,"Dhanmandi, Kota - RSPCB",09-06-2024 23:00:00,25.164090,75.858137,CO,11,70,30
India,Rajasthan,Kota,"Dhanmandi, Kota - RSPCB",09-06-2024 23:00:00,25.164090,75.858137,OZONE,2,100,58
India,Rajasthan,Kota,"Nayapura, Kota - RSPCB",09-06-2024 23:00:00,25.196024,75.855668,NO2,10,99,27
India,Rajasthan,Kota,"Nayapura, Kota - RSPCB",09-06-2024 23:00:00,25.196024,75.855668,OZONE,4,126,69
India,Rajasthan,Kota,"Shrinath Puram, Kota - RSPCB",09-06-2024 23:00:00,25.14389,75.821256,SO2,3,123,36
India,Rajasthan,Nagaur,"Karni Colony, Nagaur - RSPCB",09-06-2024 23:00:00,27.213494,73.734444,NO2,NA,NA,NA
India,Rajasthan,Nagaur,"Karni Colony, Nagaur - RSPCB",09-06-2024 23:00:00,27.213494,73.734444,SO2,NA,NA,NA
India,Rajasthan,Pali,"Indira Colony Vistar, Pali - RSPCB",09-06-2024 23:00:00,25.771061, 73.340227,PM10,90,224,128
India,Rajasthan,Pali,"Indira Colony Vistar, Pali - RSPCB",09-06-2024 23:00:00,25.771061, 73.340227,NO2,23,43,32
India,Rajasthan,Pali,"Indira Colony Vistar, Pali - RSPCB",09-06-2024 23:00:00,25.771061, 73.340227,SO2,4,9,7
India,Rajasthan,Pali,"Indira Colony Vistar, Pali - RSPCB",09-06-2024 23:00:00,25.771061, 73.340227,CO,2,82,37
India,Rajasthan,Pratapgarh,"Pragati Nagar, Pratapgarh - RSPCB",09-06-2024 23:00:00,24.041198,74.780702,PM10,24,82,51
India,Rajasthan,Pratapgarh,"Pragati Nagar, Pratapgarh - RSPCB",09-06-2024 23:00:00,24.041198,74.780702,OZONE,55,145,118
India,Rajasthan,Rajsamand,"Dhoinda, Rajsamand - RSPCB",09-06-2024 23:00:00,25.036360,73.883502,PM2.5,12,65,23
India,Rajasthan,Rajsamand,"Dhoinda, Rajsamand - RSPCB",09-06-2024 23:00:00,25.036360,73.883502,PM10,30,115,58
India,Rajasthan,Rajsamand,"Dhoinda, Rajsamand - RSPCB",09-06-2024 23:00:00,25.036360,73.883502,CO,8,56,23
India,Rajasthan,Sawai Madhopur,"Sahu Nagar, Sawai Madhopur - RSPCB",09-06-2024 23:00:00,26.031443,76.359327,CO,38,79,52
India,Rajasthan,Sikar,"Radhakishan Pura, Sikar - RSPCB",09-06-2024 23:00:00,27.608912,75.153302,NH3,4,10,7
India,Rajasthan,Sikar,"Radhakishan Pura, Sikar - RSPCB",09-06-2024 23:00:00,27.608912,75.153302,OZONE,30,98,77
India,Rajasthan,Sirohi,"Vedhaynath Colony, Sirohi - RSPCB",09-06-2024 23:00:00,24.885261,72.857549,SO2,3,118,25
India,Rajasthan,Sri Ganganagar,"Old City, Sri Ganganagar - RSPCB",09-06-2024 23:00:00,29.931624,73.864511,PM2.5,47,308,121
India,TamilNadu,Ariyalur,"Keelapalur, Ariyalur - TNPCB",09-06-2024 23:00:00,11.06825,79.07033,NO2,10,12,11
India,TamilNadu,Chennai,"Alandur Bus Depot, Chennai - CPCB",09-06-2024 23:00:00,12.9099161,80.1076538,SO2,1,8,3
India,TamilNadu,Chennai,"Arumbakkam, Chennai - TNPCB",09-06-2024 23:00:00,13.0664,80.2112 ,PM10,14,72,39
India,TamilNadu,Chennai,"Manali, Chennai - CPCB",09-06-2024 23:00:00,13.164544,80.26285,NO2,7,8,7
India,TamilNadu,Chennai,"Manali, Chennai - CPCB",09-06-2024 23:00:00,13.164544,80.26285,CO,84,106,96
India,TamilNadu,Chennai,"Perungudi, Chennai - TNPCB",09-06-2024 23:00:00,12.9533,80.2357,PM2.5,2,54,20
India,TamilNadu,Chennai,"Perungudi, Chennai - TNPCB",09-06-2024 23:00:00,12.9533,80.2357,SO2,1,7,5
India,TamilNadu,Chennai,"Perungudi, Chennai - TNPCB",09-06-2024 23:00:00,12.9533,80.2357,CO,18,49,35
India,TamilNadu,Chennai,"Velachery Res. Area, Chennai - CPCB",09-06-2024 23:00:00,13.0052189,80.2398125,SO2,14,109,32
India,TamilNadu,Coimbatore,"PSG College of Arts and Science, Coimbatore - TNPCB",09-06-2024 23:00:00,11.0328,77.0349,CO,6,12,10
India,TamilNadu,Cuddalore,"Kudikadu, Cuddalore - TNPCB",09-06-2024 23:00:00,11.6829898,79.7532099,PM10,11,52,24
India,TamilNadu,Cuddalore,"Semmandalam, Cuddalore - TNPCB",09-06-2024 23:00:00,11.7637683,79.7499835,PM2.5,12,49,24
India,TamilNadu,Cuddalore,"Semmandalam, Cuddalore - TNPCB",09-06-2024 23:00:00,11.7637683,79.7499835,NO2,25,33,29
India,TamilNadu,Gummidipoondi,"Anthoni Pillai Nagar, Gummidipoondi - TNPCB",09-06-2024 23:00:00,13.4127,80.1081,PM2.5,2,88,38
India,TamilNadu,Ramanathapuram,"Chalai Bazaar, Ramanathapuram - TNPCB",09-06-2024 23:00:00,9.36399,78.831977,NH3,1,1,1
India,TamilNadu,Ramanathapuram,"Chalai Bazaar, Ramanathapuram - TNPCB",09-06-2024 23:00:00,9.36399,78.831977,OZONE,13,14,14
India,TamilNadu,Salem,"Sona College of Technology, Salem - TNPCB",09-06-2024 23:00:00,11.679111,78.125052,NH3,1,1,1
India,TamilNadu,Thoothukudi,"Meelavittan, Thoothukudi - TNPCB",09-06-2024 23:00:00,8.816428 ,78.099039,PM10,27,80,37
India,TamilNadu,Tirupur,"Kumaran College, Tirupur - TNPCB",09-06-2024 23:00:00,11.0973603,77.3228673,SO2,NA,NA,NA
India,Telangana,Hyderabad,"Bollaram Industrial Area, Hyderabad - TSPCB",09-06-2024 23:00:00,17.540891,78.358528,SO2,6,21,16
India,Telangana,Hyderabad,"Bollaram Industrial Area, Hyderabad - TSPCB",09-06-2024 23:00:00,17.540891,78.358528,CO,1,104,11
India,Telangana,Hyderabad,"Bollaram Industrial Area, Hyderabad - TSPCB",09-06-2024 23:00:00,17.540891,78.358528,OZONE,30,36,35
India,Telangana,Hyderabad,"Central University, Hyderabad - TSPCB",09-06-2024 23:00:00,17.460103,78.334361,SO2,3,9,6
India,Telangana,Hyderabad,"ICRISAT Patancheru, Hyderabad - TSPCB",09-06-2024 23:00:00,17.518400,78.278777,PM2.5,NA,NA,NA
India,Telangana,Hyderabad,"ICRISAT Patancheru, Hyderabad - TSPCB",09-06-2024 23:00:00,17.518400,78.278777,PM10,2,17,7
India,Telangana,Hyderabad,"ICRISAT Patancheru, Hyderabad - TSPCB",09-06-2024 23:00:00,17.518400,78.278777,NO2,3,12,8
India,Telangana,Hyderabad,"ICRISAT Patancheru, Hyderabad - TSPCB",09-06-2024 23:00:00,17.518400,78.278777,NH3,1,2,1
India,Telangana,Hyderabad,"ICRISAT Patancheru, Hyderabad - TSPCB",09-06-2024 23:00:00,17.518400,78.278777,OZONE,6,25,23
India,Telangana,Hyderabad,"Nacharam_TSIIC IALA, Hyderabad - TSPCB",09-06-2024 23:00:00,17.429398,78.569354,PM10,57,75,67
India,Telangana,Hyderabad,"Nacharam_TSIIC IALA, Hyderabad - TSPCB",09-06-2024 23:00:00,17.429398,78.569354,SO2,8,22,14
India,Telangana,Hyderabad,"New Malakpet, Hyderabad - TSPCB",09-06-2024 23:00:00,17.37206,78.50864,PM10,NA,NA,NA
India,Telangana,Hyderabad,"New Malakpet, Hyderabad - TSPCB",09-06-2024 23:00:00,17.37206,78.50864,NO2,NA,NA,NA
India,Telangana,Hyderabad,"Ramachandrapuram, Hyderabad - TSPCB",09-06-2024 23:00:00,17.528544,78.286195,NH3,4,4,4
India,Telangana,Hyderabad,"Ramachandrapuram, Hyderabad - TSPCB",09-06-2024 23:00:00,17.528544,78.286195,CO,32,33,32
India,Telangana,Hyderabad,"Sanathnagar, Hyderabad - TSPCB",09-06-2024 23:00:00,17.4559458,78.4332152,PM2.5,21,51,30
India,Telangana,Hyderabad,"Zoo Park, Hyderabad - TSPCB",09-06-2024 23:00:00,17.349694,78.451437,NO2,13,19,15
India,Tripura,Agartala,"Bardowali, Agartala - Tripura SPCB",09-06-2024 23:00:00,23.8175497,91.2726974,OZONE,4,16,10
India,Uttar_Pradesh,Agra,"Manoharpur, Agra - UPPCB",09-06-2024 23:00:00,27.23711,78.01936,NH3,1,2,2
India,Uttar_Pradesh,Agra,"Manoharpur, Agra - UPPCB",09-06-2024 23:00:00,27.23711,78.01936,OZONE,3,73,47
India,Uttar_Pradesh,Agra,"Rohta, Agra - UPPCB",09-06-2024 23:00:00,27.106972,78.000111,CO,6,31,12
India,Uttar_Pradesh,Agra,"Rohta, Agra - UPPCB",09-06-2024 23:00:00,27.106972,78.000111,OZONE,15,18,16
India,Uttar_Pradesh,Agra,"Sector-3B Avas Vikas Colony, Agra - UPPCB",09-06-2024 23:00:00,27.19412,77.96237,NO2,41,44,43
India,Uttar_Pradesh,Agra,"Shahjahan Garden, Agra - UPPCB",09-06-2024 23:00:00,27.169338,78.03582,CO,12,55,20
India,Uttar_Pradesh,Baghpat,"Sardar Patel Inter College, Baghpat - UPPCB",09-06-2024 23:00:00,28.964949,77.278761,PM10,96,277,173
India,Uttar_Pradesh,Bareilly,"Rajendra Nagar, Bareilly - UPPCB",09-06-2024 23:00:00,28.38910936,79.42963708,PM10,44,78,64
India,Uttar_Pradesh,Bulandshahr,"Yamunapuram, Bulandshahr - UPPCB",09-06-2024 23:00:00,28.406963,77.849831,NH3,8,16,12
India,Uttar_Pradesh,Bulandshahr,"Yamunapuram, Bulandshahr - UPPCB",09-06-2024 23:00:00,28.406963,77.849831,CO,18,96,42
India,Uttar_Pradesh,Firozabad,"Nagla Bhau, Firozabad - UPPCB",09-06-2024 23:00:00,27.168897,78.376960,PM2.5,20,54,37
India,Uttar_Pradesh,Firozabad,"Nagla Bhau, Firozabad - UPPCB",09-06-2024 23:00:00,27.168897,78.376960,OZONE,16,24,19
India,Uttar_Pradesh,Firozabad,"Vibhab Nagar, Firozabad - UPPCB",09-06-2024 23:00:00,27.1594,78.3953,PM10,54,113,86
India,Uttar_Pradesh,Firozabad,"Vibhab Nagar, Firozabad - UPPCB",09-06-2024 23:00:00,27.1594,78.3953,NO2,14,14,14
India,Uttar_Pradesh,Ghaziabad,"Indirapuram, Ghaziabad - UPPCB",09-06-2024 23:00:00,28.646233,77.358075,PM2.5,24,182,68
India,Uttar_Pradesh,Ghaziabad,"Indirapuram, Ghaziabad - UPPCB",09-06-2024 23:00:00,28.646233,77.358075,CO,34,71,49
India,Uttar_Pradesh,Ghaziabad,"Loni, Ghaziabad - UPPCB",09-06-2024 23:00:00,28.757294,77.278792,PM2.5,26,80,52
India,Uttar_Pradesh,Ghaziabad,"Loni, Ghaziabad - UPPCB",09-06-2024 23:00:00,28.757294,77.278792,NO2,8,54,26
India,Uttar_Pradesh,Ghaziabad,"Loni, Ghaziabad - UPPCB",09-06-2024 23:00:00,28.757294,77.278792,NH3,1,4,2
India,Uttar_Pradesh,Ghaziabad,"Loni, Ghaziabad - UPPCB",09-06-2024 23:00:00,28.757294,77.278792,OZONE,9,54,40
India,Uttar_Pradesh,Ghaziabad,"Sanjay Nagar, Ghaziabad - UPPCB",09-06-2024 23:00:00,28.685382,77.453839,NO2,20,138,52
India,Uttar_Pradesh,Ghaziabad,"Vasundhara, Ghaziabad - UPPCB",09-06-2024 23:00:00,28.6603346,77.3572563,SO2,2,23,12
India,Uttar_Pradesh,Ghaziabad,"Vasundhara, Ghaziabad - UPPCB",09-06-2024 23:00:00,28.6603346,77.3572563,OZONE,31,193,109
India,Uttar_Pradesh,Greater Noida,"Knowledge Park - V, Greater Noida - UPPCB",09-06-2024 23:00:00,28.557054,77.453663,PM2.5,15,305,92
India,Uttar_Pradesh,Greater Noida,"Knowledge Park - V, Greater Noida - UPPCB",09-06-2024 23:00:00,28.557054,77.453663,NO2,34,59,41
India,Uttar_Pradesh,Greater Noida,"Knowledge Park - V, Greater Noida - UPPCB",09-06-2024 23:00:00,28.557054,77.453663,CO,13,97,38
India,Uttar_Pradesh,Hapur,"Anand Vihar, Hapur - UPPCB",09-06-2024 23:00:00,28.725645,77.749675,NH3,11,17,14
India,Uttar_Pradesh,Kanpur,"FTI Kidwai Nagar, Kanpur - UPPCB",09-06-2024 23:00:00,26.428282,80.327067,PM2.5,53,175,93
India,Uttar_Pradesh,Kanpur,"FTI Kidwai Nagar, Kanpur - UPPCB",09-06-2024 23:00:00,26.428282,80.327067,NO2,12,12,12
India,Uttar_Pradesh,Kanpur,"FTI Kidwai Nagar, Kanpur - UPPCB",09-06-2024 23:00:00,26.428282,80.327067,NH3,1,3,2
India,Uttar_Pradesh,Kanpur,"FTI Kidwai Nagar, Kanpur - UPPCB",09-06-2024 23:00:00,26.428282,80.327067,SO2,13,14,13
India,Uttar_Pradesh,Kanpur,"FTI Kidwai Nagar, Kanpur - UPPCB",09-06-2024 23:00:00,26.428282,80.327067,OZONE,16,54,36
India,Uttar_Pradesh,Kanpur,"NSI Kalyanpur, Kanpur - UPPCB",09-06-2024 23:00:00,26.509954,80.249612,NH3,1,1,1
India,Uttar_Pradesh,Kanpur,"NSI Kalyanpur, Kanpur - UPPCB",09-06-2024 23:00:00,26.509954,80.249612,CO,30,68,42
India,Uttar_Pradesh,Kanpur,"Nehru Nagar, Kanpur - UPPCB",09-06-2024 23:00:00,26.4703136,80.3229863,PM2.5,25,91,60
India,Uttar_Pradesh,Lucknow,"B R Ambedkar University, Lucknow - UPPCB",09-06-2024 23:00:00,26.766433,80.927299,PM10,NA,NA,NA
India,Uttar_Pradesh,Lucknow,"B R Ambedkar University, Lucknow - UPPCB",09-06-2024 23:00:00,26.766433,80.927299,SO2,14,21,17
India,Uttar_Pradesh,Lucknow,"Gomti Nagar, Lucknow - UPPCB",09-06-2024 23:00:00,26.868120,81.005119,NO2,10,12,11
India,Uttar_Pradesh,Lucknow,"Gomti Nagar, Lucknow - UPPCB",09-06-2024 23:00:00,26.868120,81.005119,SO2,5,16,10
India,Uttar_Pradesh,Lucknow,"Gomti Nagar, Lucknow - UPPCB",09-06-2024 23:00:00,26.868120,81.005119,CO,40,47,45
India,Uttar_Pradesh,Lucknow,"Kendriya Vidyalaya, Lucknow - CPCB",09-06-2024 23:00:00,26.906111,80.948222,SO2,6,10,8
India,Uttar_Pradesh,Lucknow,"Kukrail Picnic Spot-1, Lucknow - UPPCB",09-06-2024 23:00:00,26.90723,80.98579,NH3,2,2,2
India,Uttar_Pradesh,Lucknow,"Kukrail Picnic Spot-1, Lucknow - UPPCB",09-06-2024 23:00:00,26.90723,80.98579,SO2,33,39,35
India,Uttar_Pradesh,Lucknow,"Lalbagh, Lucknow - CPCB",09-06-2024 23:00:00,26.8458805,80.9365541,NO2,26,27,26
India,Uttar_Pradesh,Lucknow,"Talkatora District Industries Center, Lucknow - CPCB",09-06-2024 23:00:00,26.83399722,80.8917361,NO2,23,38,30
India,Uttar_Pradesh,Meerut,"Ganga Nagar, Meerut - UPPCB",09-06-2024 23:00:00,28.999264,77.7590354,NO2,13,73,30
India,Uttar_Pradesh,Meerut,"Jai Bhim Nagar, Meerut - UPPCB",09-06-2024 23:00:00,28.9535882,77.7622941,SO2,7,18,11
India,Uttar_Pradesh,Meerut,"Jai Bhim Nagar, Meerut - UPPCB",09-06-2024 23:00:00,28.9535882,77.7622941,CO,4,42,23
India,Uttar_Pradesh,Meerut,"Pallavpuram Phase 2, Meerut - UPPCB",09-06-2024 23:00:00,29.063510,77.709723,SO2,14,50,31
India,Uttar_Pradesh,Meerut,"Pallavpuram Phase 2, Meerut - UPPCB",09-06-2024 23:00:00,29.063510,77.709723,CO,16,56,33
India,Uttar_Pradesh,Meerut,"Pallavpuram Phase 2, Meerut - UPPCB",09-06-2024 23:00:00,29.063510,77.709723,OZONE,9,78,54
India,Uttar_Pradesh,Moradabad,"Buddhi Vihar, Moradabad - UPPCB",09-06-2024 23:00:00,28.83526,78.74460,PM2.5,25,84,46
India,Uttar_Pradesh,Moradabad,"Buddhi Vihar, Moradabad - UPPCB",09-06-2024 23:00:00,28.83526,78.74460,PM10,70,191,111
India,Uttar_Pradesh,Moradabad,"Buddhi Vihar, Moradabad - UPPCB",09-06-2024 23:00:00,28.83526,78.74460,SO2,23,39,30
India,Uttar_Pradesh,Moradabad,"Employment Office, Moradabad - UPPCB",09-06-2024 23:00:00,28.88528,78.73880,PM2.5,15,66,40
India,Uttar_Pradesh,Moradabad,"Kashiram Nagar, Moradabad - UPPCB",09-06-2024 23:00:00,28.849399,78.742362,CO,22,48,33
India,Uttar_Pradesh,Muzaffarnagar,"New Mandi, Muzaffarnagar - UPPCB",09-06-2024 23:00:00,29.4723508,77.7194031,PM10,108,200,154
India,Uttar_Pradesh,Noida,"Sector - 125, Noida - UPPCB",09-06-2024 23:00:00,28.5447608,77.3231257,PM10,105,285,163
India,Uttar_Pradesh,Noida,"Sector - 125, Noida - UPPCB",09-06-2024 23:00:00,28.5447608,77.3231257,CO,22,89,41
India,Uttar_Pradesh,Noida,"Sector-1, Noida - UPPCB",09-06-2024 23:00:00,28.5898,77.3101,PM10,126,219,165
India,Uttar_Pradesh,Noida,"Sector-116, Noida - UPPCB",09-06-2024 23:00:00,28.569230,77.393848,NO2,21,144,54
India,Uttar_Pradesh,Prayagraj,"Jhunsi, Prayagraj - UPPCB",09-06-2024 23:00:00,25.425602,81.917152,PM10,58,182,101
India,Uttar_Pradesh,Prayagraj,"Motilal Nehru NIT, Prayagraj - UPPCB",09-06-2024 23:00:00,25.494,81.863,OZONE,3,91,60
India,Uttar_Pradesh,Varanasi,"Ardhali Bazar, Varanasi - UPPCB",09-06-2024 23:00:00,25.3505986,82.9083074,SO2,43,69,48
India,Uttar_Pradesh,Varanasi,"Bhelupur, Varanasi - UPPCB",09-06-2024 23:00:00,25.301778,82.996789,NH3,1,2,1
India,Uttar_Pradesh,Varanasi,"Bhelupur, Varanasi - UPPCB",09-06-2024 23:00:00,25.301778,82.996789,OZONE,1,35,18
India,Uttar_Pradesh,Varanasi,"IESD Banaras Hindu University, Varanasi - UPPCB",09-06-2024 23:00:00,25.262326,82.995408,NH3,NA,NA,NA
India,Uttar_Pradesh,Varanasi,"IESD Banaras Hindu University, Varanasi - UPPCB",09-06-2024 23:00:00,25.262326,82.995408,CO,NA,NA,NA
India,Uttar_Pradesh,Varanasi,"IESD Banaras Hindu University, Varanasi - UPPCB",09-06-2024 23:00:00,25.262326,82.995408,OZONE,NA,NA,NA
India,Uttar_Pradesh,Vrindavan,"Omex Eternity, Vrindavan - UPPCB",09-06-2024 23:00:00,27.5714090,77.6557570,PM10,36,195,104
India,Uttarakhand,Dehradun,"Doon University, Dehradun - UKPCB",09-06-2024 23:00:00,30.269444,78.044167,SO2,2,5,3
India,Uttarakhand,Dehradun,"Doon University, Dehradun - UKPCB",09-06-2024 23:00:00,30.269444,78.044167,OZONE,45,168,131
India,Uttarakhand,Rishikesh,"Shivaji Nagar, Rishikesh - UKPCB",09-06-2024 23:00:00,30.075911,78.2859547,PM2.5,NA,NA,NA
India,Uttarakhand,Rishikesh,"Shivaji Nagar, Rishikesh - UKPCB",09-06-2024 23:00:00,30.075911,78.2859547,CO,14,47,29
India,Uttarakhand,Rishikesh,"Shivaji Nagar, Rishikesh - UKPCB",09-06-2024 23:00:00,30.075911,78.2859547,OZONE,14,130,69
India,West_Bengal,Asansol,"Asansol Court Area, Asansol - WBPCB",09-06-2024 23:00:00,23.685297,86.945968,PM10,105,187,153
India,West_Bengal,Asansol,"Asansol Court Area, Asansol - WBPCB",09-06-2024 23:00:00,23.685297,86.945968,SO2,8,17,12
India,West_Bengal,Barrackpore,"SVSPA Campus, Barrackpore - WBPCB",09-06-2024 23:00:00,22.7605581,88.3617589,PM10,49,115,82
India,West_Bengal,Barrackpore,"SVSPA Campus, Barrackpore - WBPCB",09-06-2024 23:00:00,22.7605581,88.3617589,SO2,5,10,7
India,West_Bengal,Durgapur,"PCBL Residential Complex, Durgapur - WBPCB",09-06-2024 23:00:00,23.5087640,87.3544400,PM10,94,270,151
India,West_Bengal,Durgapur,"PCBL Residential Complex, Durgapur - WBPCB",09-06-2024 23:00:00,23.5087640,87.3544400,OZONE,28,166,80
India,West_Bengal,Haldia,"Priyambada Housing Estate, Haldia - WBPCB",09-06-2024 23:00:00,22.06047,88.109737,NH3,7,17,13
India,West_Bengal,Howrah,"Ghusuri, Howrah - WBPCB",09-06-2024 23:00:00,22.611968,88.347422,CO,11,20,19
India,West_Bengal,Howrah,"Padmapukur, Howrah - WBPCB",09-06-2024 23:00:00,22.5687319,88.2797276,PM10,67,101,79
India,West_Bengal,Howrah,"Padmapukur, Howrah - WBPCB",09-06-2024 23:00:00,22.5687319,88.2797276,NO2,24,48,30
India,West_Bengal,Howrah,"Padmapukur, Howrah - WBPCB",09-06-2024 23:00:00,22.5687319,88.2797276,NH3,6,9,7
India,West_Bengal,Howrah,"Padmapukur, Howrah - WBPCB",09-06-2024 23:00:00,22.5687319,88.2797276,SO2,6,70,22
India,West_Bengal,Kolkata,"Ballygunge, Kolkata - WBPCB",09-06-2024 23:00:00,22.5367507,88.3638022,PM2.5,20,69,45
India,West_Bengal,Kolkata,"Ballygunge, Kolkata - WBPCB",09-06-2024 23:00:00,22.5367507,88.3638022,SO2,3,8,6
India,West_Bengal,Kolkata,"Bidhannagar, Kolkata - WBPCB",09-06-2024 23:00:00,22.58157048,88.41002457,PM10,45,87,66
India,West_Bengal,Kolkata,"Fort William, Kolkata - WBPCB",09-06-2024 23:00:00,22.556640,88.342674,NO2,12,26,17
India,West_Bengal,Kolkata,"Fort William, Kolkata - WBPCB",09-06-2024 23:00:00,22.556640,88.342674,NH3,1,1,1
India,West_Bengal,Kolkata,"Fort William, Kolkata - WBPCB",09-06-2024 23:00:00,22.556640,88.342674,CO,12,24,22
India,West_Bengal,Kolkata,"Jadavpur, Kolkata - WBPCB",09-06-2024 23:00:00,22.49929,88.36917,SO2,7,8,7
India,West_Bengal,Kolkata,"Rabindra Bharati University, Kolkata - WBPCB",09-06-2024 23:00:00,22.627847,88.380669,PM10,38,87,61
India,West_Bengal,Kolkata,"Rabindra Bharati University, Kolkata - WBPCB",09-06-2024 23:00:00,22.627847,88.380669,OZONE,11,36,31
India,West_Bengal,Siliguri,"Ward-32 Bapupara, Siliguri - WBPCB",09-06-2024 23:00:00,26.6879226,88.4152495,OZONE,16,18,17
India,Andhra_Pradesh,Amaravati,"Secretariat, Amaravati - APPCB",09-06-2024 23:00:00,16.5150833,80.5181667,PM10,6,28,12
India,Andhra_Pradesh,Anantapur,"Gulzarpet, Anantapur - APPCB",09-06-2024 23:00:00,14.675886,77.593027,OZONE,8,24,18
India,Andhra_Pradesh,Chittoor,"Gangineni Cheruvu, Chittoor - APPCB",09-06-2024 23:00:00,13.204880,79.097889,PM2.5,NA,NA,NA
India,Andhra_Pradesh,Rajamahendravaram,"Anand Kala Kshetram, Rajamahendravaram - APPCB",09-06-2024 23:00:00,16.9872867,81.7363176,OZONE,27,53,41
India,Andhra_Pradesh,Tirupati,"Vaikuntapuram, Tirupati - APPCB",09-06-2024 23:00:00,13.615387,79.409230,SO2,7,8,8
India,Andhra_Pradesh,Vijayawada,"HB Colony, Vijayawada - APPCB",09-06-2024 23:00:00,16.536107,80.594233,SO2,6,8,7
India,Andhra_Pradesh,Vijayawada,"Kanuru, Vijayawada - APPCB",09-06-2024 23:00:00,16.486692,80.699436,SO2,6,8,7
India,Andhra_Pradesh,Vijayawada,"Rajiv Gandhi Park, Vijayawada - APPCB",09-06-2024 23:00:00,16.509717,80.612222,OZONE,29,53,42
India,Andhra_Pradesh,Visakhapatnam,"GVM Corporation, Visakhapatnam - APPCB",09-06-2024 23:00:00,17.72,83.3,NH3,3,9,4
India,Andhra_Pradesh,Visakhapatnam,"GVM Corporation, Visakhapatnam - APPCB",09-06-2024 23:00:00,17.72,83.3,CO,2,52,34
India,Arunachal_Pradesh,Naharlagun,"Naharlagun, Naharlagun - APSPCB",09-06-2024 23:00:00,27.103358,93.679645,PM2.5,25,64,39
India,Assam,Byrnihat,"Central Academy for SFS, Byrnihat - PCBA",09-06-2024 23:00:00,26.071318,91.87488,PM10,36,304,135
India,Assam,Byrnihat,"Central Academy for SFS, Byrnihat - PCBA",09-06-2024 23:00:00,26.071318,91.87488,CO,3,18,8
India,Assam,Guwahati,"IITG, Guwahati - PCBA",09-06-2024 23:00:00,26.2028636,91.70046436,NH3,5,5,5
India,Assam,Guwahati,"LGBI Airport, Guwahati - PCBA",09-06-2024 23:00:00,26.10887,91.589544,PM10,18,255,90
India,Assam,Guwahati,"Railway Colony, Guwahati - PCBA",09-06-2024 23:00:00,26.181742,91.78063,NO2,3,3,3
India,Assam,Nagaon,"Christianpatty, Nagaon - PCBA",09-06-2024 23:00:00,26.349082,92.68449,NH3,1,35,6
India,Assam,Nalbari,"Bata Chowk, Nalbari - PCBA",09-06-2024 23:00:00,26.446912,91.439057,NH3,1,1,1
India,Assam,Silchar,"Tarapur, Silchar - PCBA",09-06-2024 23:00:00,24.82827,92.79525,PM10,40,63,47
India,Assam,Silchar,"Tarapur, Silchar - PCBA",09-06-2024 23:00:00,24.82827,92.79525,NH3,1,1,1
India,Assam,Silchar,"Tarapur, Silchar - PCBA",09-06-2024 23:00:00,24.82827,92.79525,SO2,1,4,2
India,Assam,Sivasagar,"Girls College, Sivasagar - PCBA",09-06-2024 23:00:00,26.987634,94.636574,PM2.5,31,65,39
India,Assam,Sivasagar,"Girls College, Sivasagar - PCBA",09-06-2024 23:00:00,26.987634,94.636574,PM10,47,78,60
India,Assam,Sivasagar,"Girls College, Sivasagar - PCBA",09-06-2024 23:00:00,26.987634,94.636574,OZONE,1,9,4
India,Bihar,Arrah,"New DM Office, Arrah - BSPCB",09-06-2024 23:00:00,25.5626095,84.663264,NH3,NA,NA,NA
India,Bihar,Aurangabad,"Gurdeo Nagar, Aurangabad - BSPCB",09-06-2024 23:00:00,24.75746,84.366208,NO2,3,19,7
India,Bihar,Aurangabad,"Gurdeo Nagar, Aurangabad - BSPCB",09-06-2024 23:00:00,24.75746,84.366208,OZONE,26,103,61
India,Bihar,Bhagalpur,"DM Office_Kachari Chowk, Bhagalpur - BSPCB",09-06-2024 23:00:00,25.251013,86.989001,SO2,NA,NA,NA
India,Bihar,Bhagalpur,"DM Office_Kachari Chowk, Bhagalpur - BSPCB",09-06-2024 23:00:00,25.251013,86.989001,CO,30,84,69
India,Bihar,Buxar,"Charitra Van, Buxar - BSPCB (Formerly known as Central Jail)",09-06-2024 23:00:00,25.567520,83.966379,SO2,2,4,3
India,Bihar,Gaya,"Collectorate, Gaya - BSPCB",09-06-2024 23:00:00,24.7955,84.9994,NO2,3,5,4
India,Bihar,Gaya,"SFTI Kusdihra, Gaya - BSPCB",09-06-2024 23:00:00,24.762518,84.982348,NO2,6,88,28
India,Bihar,Hajipur,"Industrial Area, Hajipur - BSPCB",09-06-2024 23:00:00,25.697189,85.245900,NO2,12,39,23
India,Bihar,Hajipur,"Industrial Area, Hajipur - BSPCB",09-06-2024 23:00:00,25.697189,85.245900,SO2,5,6,6
India,Bihar,Hajipur,"Industrial Area, Hajipur - BSPCB",09-06-2024 23:00:00,25.697189,85.245900,CO,27,40,31
India,Bihar,Katihar,"Mirchaibari, Katihar - BSPCB",09-06-2024 23:00:00,25.560083,87.553265,SO2,9,14,11
India,Bihar,Katihar,"Mirchaibari, Katihar - BSPCB",09-06-2024 23:00:00,25.560083,87.553265,OZONE,4,10,5
India,Bihar,Kishanganj,"SDM Office_Khagra, Kishanganj - BSPCB",09-06-2024 23:00:00,26.0881305,87.93840336,SO2,6,7,6
India,Bihar,Manguraha,"Forest Rest House, Manguraha - BSPCB",09-06-2024 23:00:00,27.308328,84.531742,PM10,NA,NA,NA
India,Bihar,Manguraha,"Forest Rest House, Manguraha - BSPCB",09-06-2024 23:00:00,27.308328,84.531742,NH3,2,3,3
India,Bihar,Munger,"Town Hall, Munger - BSPCB",09-06-2024 23:00:00,25.376776,86.471523,NH3,2,3,3
India,Bihar,Muzaffarpur,"Buddha Colony, Muzaffarpur - BSPCB",09-06-2024 23:00:00,26.11442,85.39813,PM2.5,87,222,149
India,Bihar,Muzaffarpur,"Buddha Colony, Muzaffarpur - BSPCB",09-06-2024 23:00:00,26.11442,85.39813,PM10,102,164,132
India,Bihar,Muzaffarpur,"Muzaffarpur Collectorate, Muzaffarpur - BSPCB",09-06-2024 23:00:00,26.1209,85.3647,PM2.5,NA,NA,NA
India,Bihar,Muzaffarpur,"Muzaffarpur Collectorate, Muzaffarpur - BSPCB",09-06-2024 23:00:00,26.1209,85.3647,OZONE,121,122,121
India,Bihar,Patna,"DRM Office Danapur, Patna - BSPCB",09-06-2024 23:00:00,25.586562,85.043586,PM2.5,175,338,259
India,Bihar,Patna,"DRM Office Danapur, Patna - BSPCB",09-06-2024 23:00:00,25.586562,85.043586,NO2,9,13,11
India,Bihar,Patna,"DRM Office Danapur, Patna - BSPCB",09-06-2024 23:00:00,25.586562,85.043586,CO,15,52,30
India,Bihar,Patna,"Govt. High School Shikarpur, Patna - BSPCB",09-06-2024 23:00:00,25.592539,85.227158,PM10,97,237,149
India,Bihar,Patna,"IGSC Planetarium Complex, Patna - BSPCB",09-06-2024 23:00:00,25.610369,85.132568,NO2,13,13,13
India,Bihar,Patna,"Rajbansi Nagar, Patna - BSPCB",09-06-2024 23:00:00,25.599486,85.113666,NO2,8,42,18
India,Bihar,Patna,"Rajbansi Nagar, Patna - BSPCB",09-06-2024 23:00:00,25.599486,85.113666,SO2,5,16,8
India,Bihar,Patna,"Rajbansi Nagar, Patna - BSPCB",09-06-2024 23:00:00,25.599486,85.113666,CO,17,45,33
India,Bihar,Patna,"Samanpura, Patna - BSPCB",09-06-2024 23:00:00,25.596727,85.085624,NO2,7,25,12
India,Bihar,Rajgir,"Dangi Tola, Rajgir - BSPCB",09-06-2024 23:00:00,25.03280,85.41948,PM10,58,190,101
India,Bihar,Saharsa,"Police Line, Saharsa - BSPCB",09-06-2024 23:00:00,25.892357,86.590325,PM2.5,NA,NA,NA
India,Bihar,Saharsa,"Police Line, Saharsa - BSPCB",09-06-2024 23:00:00,25.892357,86.590325,PM10,NA,NA,NA
India,Bihar,Saharsa,"Police Line, Saharsa - BSPCB",09-06-2024 23:00:00,25.892357,86.590325,SO2,16,17,16
India,Bihar,Saharsa,"Police Line, Saharsa - BSPCB",09-06-2024 23:00:00,25.892357,86.590325,CO,54,55,55
India,Bihar,Saharsa,"Police Line, Saharsa - BSPCB",09-06-2024 23:00:00,25.892357,86.590325,OZONE,16,101,35
India,Bihar,Samastipur,"DM Office_Kasipur, Samastipur - BSPCB",09-06-2024 23:00:00,25.859655,85.77944,SO2,42,81,66
India,Bihar,Sasaram,"Dada Peer, Sasaram - BSPCB",09-06-2024 23:00:00,24.952822,84.002396,PM10,32,106,70
India,Bihar,Sasaram,"Dada Peer, Sasaram - BSPCB",09-06-2024 23:00:00,24.952822,84.002396,NO2,3,34,20
India,Bihar,Sasaram,"Dada Peer, Sasaram - BSPCB",09-06-2024 23:00:00,24.952822,84.002396,NH3,3,13,8
India,Bihar,Sasaram,"Dada Peer, Sasaram - BSPCB",09-06-2024 23:00:00,24.952822,84.002396,SO2,NA,NA,NA
India,Bihar,Sasaram,"Dada Peer, Sasaram - BSPCB",09-06-2024 23:00:00,24.952822,84.002396,OZONE,8,72,41
India,Bihar,Siwan,"Chitragupta Nagar, Siwan - BSPCB",09-06-2024 23:00:00,26.2271665,84.3570427,NH3,1,5,1
India,Chandigarh,Chandigarh,"Sector 22, Chandigarh - CPCC",09-06-2024 23:00:00,30.735567,76.775714,PM2.5,17,110,60
India,Chandigarh,Chandigarh,"Sector 22, Chandigarh - CPCC",09-06-2024 23:00:00,30.735567,76.775714,NO2,14,57,28
India,Chandigarh,Chandigarh,"Sector 22, Chandigarh - CPCC",09-06-2024 23:00:00,30.735567,76.775714,NH3,6,15,9
India,Chandigarh,Chandigarh,"Sector 22, Chandigarh - CPCC",09-06-2024 23:00:00,30.735567,76.775714,CO,28,48,34
India,Chandigarh,Chandigarh,"Sector-25, Chandigarh - CPCC",09-06-2024 23:00:00,30.751462,76.762879,NH3,NA,NA,NA
India,Chandigarh,Chandigarh,"Sector-25, Chandigarh - CPCC",09-06-2024 23:00:00,30.751462,76.762879,SO2,NA,NA,NA
India,Chandigarh,Chandigarh,"Sector-25, Chandigarh - CPCC",09-06-2024 23:00:00,30.751462,76.762879,OZONE,16,58,33
India,Chandigarh,Chandigarh,"Sector-53, Chandigarh - CPCC",09-06-2024 23:00:00,30.719859,76.738637,NO2,11,75,29
India,Chhattisgarh,Bhilai,"32Bungalows, Bhilai - CECB",09-06-2024 23:00:00,21.194815,81.314770,NO2,10,18,14
India,Chhattisgarh,Bhilai,"32Bungalows, Bhilai - CECB",09-06-2024 23:00:00,21.194815,81.314770,NH3,6,7,6
India,Chhattisgarh,Bhilai,"Civic Center, Bhilai - Bhilai Steel Plant",09-06-2024 23:00:00,21.185571,81.343175,PM2.5,20,51,28
India,Chhattisgarh,Bhilai,"Civic Center, Bhilai - Bhilai Steel Plant",09-06-2024 23:00:00,21.185571,81.343175,PM10,16,98,37
India,Chhattisgarh,Bhilai,"Civic Center, Bhilai - Bhilai Steel Plant",09-06-2024 23:00:00,21.185571,81.343175,OZONE,18,63,42
India,Chhattisgarh,Bilaspur,"Mangala, Bilaspur - NTPC",09-06-2024 23:00:00,22.08815,82.13737,PM10,27,82,45
India,Chhattisgarh,Korba,"Rampur, Korba - CECB",09-06-2024 23:00:00,22.368195,82.746431,PM2.5,NA,NA,NA
India,Chhattisgarh,Kunjemura,"OP Jindal School, Kunjemura - CECB",09-06-2024 23:00:00,22.126650,83.483212,SO2,1,8,4
India,Chhattisgarh,Milupara,"Govt. Higher Secondary School, Milupara - CECB",09-06-2024 23:00:00,22.1910172,83.5197009,PM2.5,NA,NA,NA
India,Chhattisgarh,Milupara,"Govt. Higher Secondary School, Milupara - CECB",09-06-2024 23:00:00,22.1910172,83.5197009,OZONE,18,79,48
India,Chhattisgarh,Raipur,"AIIMS, Raipur - CECB",09-06-2024 23:00:00,21.258815,81.578979,PM10,23,65,40
India,Chhattisgarh,Raipur,"AIIMS, Raipur - CECB",09-06-2024 23:00:00,21.258815,81.578979,CO,17,32,25
India,Chhattisgarh,Raipur,"Bhatagaon New ISBT, Raipur - CECB",09-06-2024 23:00:00,21.219665,81.630094,CO,14,40,27
India,Chhattisgarh,Raipur,"Krishak Nagar, Raipur - CECB",09-06-2024 23:00:00,21.237755,81.705301,PM2.5,11,35,22
India,Chhattisgarh,Raipur,"Krishak Nagar, Raipur - CECB",09-06-2024 23:00:00,21.237755,81.705301,CO,5,24,23
India,Chhattisgarh,Raipur,"Siltara Phase-II, Raipur - CECB",09-06-2024 23:00:00,21.371751,81.664929,NH3,3,3,3
India,Delhi,Delhi,"Anand Vihar, Delhi - DPCC",09-06-2024 23:00:00,28.647622,77.3158090,PM2.5,8,240,99
India,Delhi,Delhi,"Anand Vihar, Delhi - DPCC",09-06-2024 23:00:00,28.647622,77.3158090,OZONE,82,168,129
India,Delhi,Delhi,"Ashok Vihar, Delhi - DPCC",09-06-2024 23:00:00,28.695381,77.181665,PM10,84,163,126
India,Delhi,Delhi,"Aya Nagar, Delhi - IMD",09-06-2024 23:00:00,28.4706914,77.1099364,CO,64,112,80
India,Delhi,Delhi,"Bawana, Delhi - DPCC",09-06-2024 23:00:00,28.776200,77.051074,NO2,8,61,27
India,Delhi,Delhi,"Bawana, Delhi - DPCC",09-06-2024 23:00:00,28.776200,77.051074,OZONE,27,174,121
India,Delhi,Delhi,"Chandni Chowk, Delhi - IITM",09-06-2024 23:00:00,28.656756,77.227234,SO2,3,50,30
India,Delhi,Delhi,"Chandni Chowk, Delhi - IITM",09-06-2024 23:00:00,28.656756,77.227234,CO,52,70,58
India,Delhi,Delhi,"DTU, Delhi - CPCB",09-06-2024 23:00:00,28.7500499,77.1112615,NO2,33,35,34
India,Delhi,Delhi,"DTU, Delhi - CPCB",09-06-2024 23:00:00,28.7500499,77.1112615,NH3,17,18,18
India,Delhi,Delhi,"Dr. Karni Singh Shooting Range, Delhi - DPCC",09-06-2024 23:00:00,28.498571,77.264840,NH3,4,6,5
India,Delhi,Delhi,"Dwarka-Sector 8, Delhi - DPCC ",09-06-2024 23:00:00,28.5710274,77.0719006,SO2,11,68,25
India,Delhi,Delhi,"IHBAS, Dilshad Garden, Delhi - CPCB",09-06-2024 23:00:00,28.6811736,77.3025234,PM2.5,83,302,165
India,Delhi,Delhi,"IHBAS, Dilshad Garden, Delhi - CPCB",09-06-2024 23:00:00,28.6811736,77.3025234,SO2,3,77,37
India,Delhi,Delhi,"ITO, Delhi - CPCB",09-06-2024 23:00:00,28.628624,77.241060,NH3,6,7,7
India,Delhi,Delhi,"ITO, Delhi - CPCB",09-06-2024 23:00:00,28.628624,77.241060,OZONE,2,63,40
India,Delhi,Delhi,"Jawaharlal Nehru Stadium, Delhi - DPCC",09-06-2024 23:00:00,28.580280,77.233829,NO2,12,134,44
India,Delhi,Delhi,"Jawaharlal Nehru Stadium, Delhi - DPCC",09-06-2024 23:00:00,28.580280,77.233829,SO2,13,41,24
India,Delhi,Delhi,"Jawaharlal Nehru Stadium, Delhi - DPCC",09-06-2024 23:00:00,28.580280,77.233829,CO,1,157,49
India,Delhi,Delhi,"Lodhi Road, Delhi - IITM",09-06-2024 23:00:00,28.588333,77.221667,PM2.5,NA,NA,NA
India,Delhi,Delhi,"Major Dhyan Chand National Stadium, Delhi - DPCC",09-06-2024 23:00:00,28.611281,77.237738,SO2,10,33,19
India,Delhi,Delhi,"Mundka, Delhi - DPCC",09-06-2024 23:00:00,28.684678,77.076574,SO2,6,52,26
India,Delhi,Delhi,"Mundka, Delhi - DPCC",09-06-2024 23:00:00,28.684678,77.076574,CO,31,60,42
India,Delhi,Delhi,"NSIT Dwarka, Delhi - CPCB",09-06-2024 23:00:00,28.60909,77.0325413,NH3,3,7,6
India,Delhi,Delhi,"Najafgarh, Delhi - DPCC",09-06-2024 23:00:00,28.570173,76.933762,SO2,4,41,22
India,Delhi,Delhi,"Najafgarh, Delhi - DPCC",09-06-2024 23:00:00,28.570173,76.933762,OZONE,20,126,99
India,Delhi,Delhi,"Narela, Delhi - DPCC",09-06-2024 23:00:00,28.822836,77.101981,PM10,113,270,176
India,Delhi,Delhi,"Okhla Phase-2, Delhi - DPCC",09-06-2024 23:00:00,28.530785,77.271255,PM2.5,22,103,59
India,Delhi,Delhi,"Patparganj, Delhi - DPCC",09-06-2024 23:00:00,28.623763,77.287209,NH3,6,8,7
India,Delhi,Delhi,"Patparganj, Delhi - DPCC",09-06-2024 23:00:00,28.623763,77.287209,OZONE,2,235,134
India,Delhi,Delhi,"Punjabi Bagh, Delhi - DPCC",09-06-2024 23:00:00,28.674045,77.131023,NH3,3,5,4
India,Delhi,Delhi,"Punjabi Bagh, Delhi - DPCC",09-06-2024 23:00:00,28.674045,77.131023,CO,24,68,47
India,Delhi,Delhi,"Punjabi Bagh, Delhi - DPCC",09-06-2024 23:00:00,28.674045,77.131023,OZONE,19,130,71
India,Delhi,Delhi,"Pusa, Delhi - IMD",09-06-2024 23:00:00,28.636110,77.173332,PM2.5,6,242,106
India,Delhi,Delhi,"R K Puram, Delhi - DPCC",09-06-2024 23:00:00,28.563262,77.186937,PM10,100,203,146
India,Delhi,Delhi,"Rohini, Delhi - DPCC",09-06-2024 23:00:00,28.732528,77.119920,PM2.5,18,316,98
India,Delhi,Delhi,"Rohini, Delhi - DPCC",09-06-2024 23:00:00,28.732528,77.119920,NH3,5,36,15
India,Delhi,Delhi,"Rohini, Delhi - DPCC",09-06-2024 23:00:00,28.732528,77.119920,OZONE,40,209,140
India,Delhi,Delhi,"Shadipur, Delhi - CPCB",09-06-2024 23:00:00,28.6514781,77.1473105,NO2,42,75,53
India,Delhi,Delhi,"Sirifort, Delhi - CPCB",09-06-2024 23:00:00,28.5504249,77.2159377,PM10,95,395,161
India,Delhi,Delhi,"Sri Aurobindo Marg, Delhi - DPCC",09-06-2024 23:00:00,28.531346,77.190156,PM10,103,173,143
India,Delhi,Delhi,"Sri Aurobindo Marg, Delhi - DPCC",09-06-2024 23:00:00,28.531346,77.190156,OZONE,5,67,35
India,Delhi,Delhi,"Vivek Vihar, Delhi - DPCC",09-06-2024 23:00:00,28.672342,77.315260,CO,54,103,78
India,Delhi,Delhi,"Wazirpur, Delhi - DPCC",09-06-2024 23:00:00,28.699793,77.165453,PM10,91,179,141
India,Delhi,Delhi,"Wazirpur, Delhi - DPCC",09-06-2024 23:00:00,28.699793,77.165453,SO2,7,47,25
India,Gujarat,Ahmedabad,"Chandkheda, Ahmedabad - IITM",09-06-2024 23:00:00,23.107969,72.574648,NO2,78,104,100
India,Gujarat,Ahmedabad,"Maninagar, Ahmedabad - GPCB",09-06-2024 23:00:00,23.002657,72.591912,NO2,24,53,33
India,Gujarat,Ahmedabad,"Maninagar, Ahmedabad - GPCB",09-06-2024 23:00:00,23.002657,72.591912,SO2,10,131,61
India,Gujarat,Ahmedabad,"SVPI Airport Hansol, Ahmedabad - IITM",09-06-2024 23:00:00,23.076793,72.627874,PM2.5,49,391,124
India,Gujarat,Ahmedabad,"SVPI Airport Hansol, Ahmedabad - IITM",09-06-2024 23:00:00,23.076793,72.627874,PM10,74,280,110
India,Gujarat,Ahmedabad,"SVPI Airport Hansol, Ahmedabad - IITM",09-06-2024 23:00:00,23.076793,72.627874,NO2,30,44,37
India,Gujarat,Ahmedabad,"SVPI Airport Hansol, Ahmedabad - IITM",09-06-2024 23:00:00,23.076793,72.627874,CO,3,16,11
India,Gujarat,Ahmedabad,"Sardar Vallabhbhai Patel Stadium, Ahmedabad - IITM",09-06-2024 23:00:00,23.043070,72.562968,NH3,6,6,6
India,Gujarat,Ahmedabad,"Sardar Vallabhbhai Patel Stadium, Ahmedabad - IITM",09-06-2024 23:00:00,23.043070,72.562968,OZONE,13,50,38
India,Gujarat,Ankleshwar,"GIDC, Ankleshwar - GPCB",09-06-2024 23:00:00,21.613267,73.010555,OZONE,16,31,29
India,Gujarat,Gandhinagar,"GIFT City, Gandhinagar - IITM",09-06-2024 23:00:00,23.163798,72.677768,NO2,39,47,43
India,Gujarat,Surat,"Science Center, Surat - SMC",09-06-2024 23:00:00,21.170046,72.795405,SO2,10,13,12
India,Haryana,Bahadurgarh,"Arya Nagar, Bahadurgarh - HSPCB",09-06-2024 23:00:00,28.6701,76.9254,PM2.5,50,182,103
India,Haryana,Ballabgarh,"Nathu Colony, Ballabgarh - HSPCB",09-06-2024 23:00:00,28.3419248,77.319699,NH3,1,2,2
India,Haryana,Ballabgarh,"Nathu Colony, Ballabgarh - HSPCB",09-06-2024 23:00:00,28.3419248,77.319699,CO,4,113,42
India,Haryana,Bhiwani,"H.B. Colony, Bhiwani - HSPCB",09-06-2024 23:00:00,28.806223,76.141105,PM10,63,104,92
India,Haryana,Dharuhera,"Municipal Corporation Office, Dharuhera -  HSPCB",09-06-2024 23:00:00,28.206800,76.799700,PM10,132,225,170
India,Haryana,Dharuhera,"Municipal Corporation Office, Dharuhera -  HSPCB",09-06-2024 23:00:00,28.206800,76.799700,NO2,44,110,71
India,Haryana,Dharuhera,"Municipal Corporation Office, Dharuhera -  HSPCB",09-06-2024 23:00:00,28.206800,76.799700,SO2,6,15,9
India,Haryana,Dharuhera,"Municipal Corporation Office, Dharuhera -  HSPCB",09-06-2024 23:00:00,28.206800,76.799700,OZONE,6,53,31
India,Haryana,Faridabad,"New Industrial Town, Faridabad - HSPCB",09-06-2024 23:00:00,28.39072,77.30059,NO2,NA,NA,NA
India,Haryana,Faridabad,"New Industrial Town, Faridabad - HSPCB",09-06-2024 23:00:00,28.39072,77.30059,NH3,NA,NA,NA
India,Haryana,Faridabad,"Sector 11, Faridabad - HSPCB",09-06-2024 23:00:00,28.376058,77.315741,NH3,6,6,6
India,Haryana,Faridabad,"Sector 11, Faridabad - HSPCB",09-06-2024 23:00:00,28.376058,77.315741,CO,28,58,38
India,Haryana,Fatehabad,"Huda Sector, Fatehabad - HSPCB",09-06-2024 23:00:00,29.503664,75.467934,SO2,10,14,12
India,Haryana,Gurugram,"Teri Gram, Gurugram - HSPCB",09-06-2024 23:00:00,28.4275,77.1465,OZONE,12,18,12
India,Haryana,Hisar,"Urban Estate-II, Hisar - HSPCB",09-06-2024 23:00:00,29.140560,75.744941,PM2.5,49,70,57
India,Haryana,Hisar,"Urban Estate-II, Hisar - HSPCB",09-06-2024 23:00:00,29.140560,75.744941,OZONE,68,151,126
India,Haryana,Jind,"Police Lines, Jind - HSPCB",09-06-2024 23:00:00,29.307814,76.337619,NH3,1,7,2
India,Haryana,Jind,"Police Lines, Jind - HSPCB",09-06-2024 23:00:00,29.307814,76.337619,CO,2,63,15
India,Haryana,Kaithal,"Rishi Nagar, Kaithal - HSPCB",09-06-2024 23:00:00,29.8006,76.4155,NO2,24,26,25
India,Haryana,Kaithal,"Rishi Nagar, Kaithal - HSPCB",09-06-2024 23:00:00,29.8006,76.4155,CO,2,18,7
India,Haryana,Karnal,"Sector-12, Karnal - HSPCB",09-06-2024 23:00:00,29.695300,77.002700,OZONE,23,34,30
India,Haryana,Kurukshetra,"Sector-7, Kurukshetra - HSPCB",09-06-2024 23:00:00,29.966942,76.875879,CO,2,21,9
India,Haryana,Kurukshetra,"Sector-7, Kurukshetra - HSPCB",09-06-2024 23:00:00,29.966942,76.875879,OZONE,77,185,156
India,Haryana,Manesar,"Sector-2 IMT, Manesar - HSPCB",09-06-2024 23:00:00,28.360699,76.936090,NH3,2,4,3
India,Haryana,Narnaul,"Shastri Nagar, Narnaul - HSPCB",09-06-2024 23:00:00,28.060249,76.113115,NO2,15,85,48
India,Haryana,Narnaul,"Shastri Nagar, Narnaul - HSPCB",09-06-2024 23:00:00,28.060249,76.113115,SO2,12,13,12
India,Haryana,Panipat,"Sector-18, Panipat - HSPCB",09-06-2024 23:00:00,29.432304,76.972765,PM2.5,185,188,186
India,Haryana,Panipat,"Sector-18, Panipat - HSPCB",09-06-2024 23:00:00,29.432304,76.972765,PM10,104,104,104
India,Haryana,Rohtak,"MD University, Rohtak - HSPCB",09-06-2024 23:00:00,28.52123,76.37138,OZONE,45,56,51
India,Haryana,Yamuna Nagar,"Gobind Pura, Yamuna Nagar - HSPCB",09-06-2024 23:00:00,30.1480566,77.2893471,CO,45,104,103
India,Himachal Pradesh,Baddi,"HIMUDA Complex Phase-1, Baddi - HPPCB",09-06-2024 23:00:00,30.943887,76.801991,PM2.5,13,253,112
India,Himachal Pradesh,Baddi,"HIMUDA Complex Phase-1, Baddi - HPPCB",09-06-2024 23:00:00,30.943887,76.801991,PM10,69,196,132
India,Jammu_and_Kashmir,Srinagar,"Rajbagh, Srinagar - JKSPCB",09-06-2024 23:00:00,34.066206,74.819820,SO2,NA,NA,NA
India,Jammu_and_Kashmir,Srinagar,"Rajbagh, Srinagar - JKSPCB",09-06-2024 23:00:00,34.066206,74.819820,CO,NA,NA,NA
India,Jharkhand,Dhanbad,"Sardar Patel Nagar, Dhanbad - JSPCB",09-06-2024 23:00:00,23.80569,86.44268,CO,82,194,167
India,Karnataka,Bagalkot,"Vidayagiri, Bagalkot - KSPCB",09-06-2024 23:00:00,16.172806,75.659694,CO,32,46,39
India,Karnataka,Belgaum,"Ramteerth Nagar, Belgaum - KSPCB",09-06-2024 23:00:00,15.888653,74.541751,NH3,NA,NA,NA
India,Karnataka,Belgaum,"Ramteerth Nagar, Belgaum - KSPCB",09-06-2024 23:00:00,15.888653,74.541751,SO2,NA,NA,NA
India,Karnataka,Belgaum,"Ramteerth Nagar, Belgaum - KSPCB",09-06-2024 23:00:00,15.888653,74.541751,OZONE,19,22,19
India,Karnataka,Bengaluru,"Bapuji Nagar, Bengaluru - KSPCB",09-06-2024 23:00:00,12.951913,77.539784,PM10,11,199,53
India,Karnataka,Bengaluru,"Hebbal, Bengaluru - KSPCB",09-06-2024 23:00:00,13.029152,77.585901,NH3,1,1,1
India,Karnataka,Bengaluru,"Hebbal, Bengaluru - KSPCB",09-06-2024 23:00:00,13.029152,77.585901,CO,8,24,20
India,Karnataka,Bengaluru,"Hombegowda Nagar, Bengaluru - KSPCB",09-06-2024 23:00:00,12.938539,77.590100,PM2.5,4,17,10
India,Karnataka,Bengaluru,"Hombegowda Nagar, Bengaluru - KSPCB",09-06-2024 23:00:00,12.938539,77.590100,CO,10,18,16
India,Karnataka,Bengaluru,"Hombegowda Nagar, Bengaluru - KSPCB",09-06-2024 23:00:00,12.938539,77.590100,OZONE,13,32,21
India,Karnataka,Bengaluru,"Peenya, Bengaluru - CPCB",09-06-2024 23:00:00,13.0270199,77.494094,SO2,13,16,14
India,Karnataka,Bengaluru,"Sanegurava Halli, Bengaluru - KSPCB",09-06-2024 23:00:00,12.990328,77.5431385,SO2,2,3,3
India,Karnataka,Bengaluru,"Sanegurava Halli, Bengaluru - KSPCB",09-06-2024 23:00:00,12.990328,77.5431385,CO,11,29,22
India,Karnataka,Bidar,"Naubad, Bidar - KSPCB",09-06-2024 23:00:00,17.930306,77.482194,NO2,7,8,8
India,Karnataka,Bidar,"Naubad, Bidar - KSPCB",09-06-2024 23:00:00,17.930306,77.482194,CO,82,90,88
India,Karnataka,Bidar,"Naubad, Bidar - KSPCB",09-06-2024 23:00:00,17.930306,77.482194,OZONE,7,31,21
India,Karnataka,Chamarajanagar,"Urban, Chamarajanagar - KSPCB",09-06-2024 23:00:00,11.55358,76.55521,PM2.5,29,36,35
India,Karnataka,Chikkaballapur,"Chikkaballapur Rural, Chikkaballapur - KSPCB",09-06-2024 23:00:00,13.428828,77.731418,PM2.5,2,29,13
India,Karnataka,Chikkamagaluru,"Kalyana Nagara, Chikkamagaluru - KSPCB",09-06-2024 23:00:00,13.328028,75.797056,PM10,20,78,31
India,Karnataka,Dharwad,"Kalabhavan, Dharwad - KSPCB",09-06-2024 23:00:00,15.459706,75.008381,NH3,3,3,3
India,Karnataka,Gadag,"Panchal Nagar, Gadag - KSPCB",09-06-2024 23:00:00,15.411456,75.638133,OZONE,6,11,7
India,Karnataka,Hassan,"B.Katihalli, Hassan - KSPCB",09-06-2024 23:00:00,13.008556,76.125258,PM10,NA,NA,NA
India,Karnataka,Haveri,"Ashwini Nagar, Haveri - KSPCB",09-06-2024 23:00:00,14.791800,75.389600,PM10,NA,NA,NA
India,Karnataka,Haveri,"Ashwini Nagar, Haveri - KSPCB",09-06-2024 23:00:00,14.791800,75.389600,NH3,2,3,3
India,Karnataka,Hubballi,"Lingaraj Nagar, Hubballi - KSPCB",09-06-2024 23:00:00,15.3714823,75.1160168,PM2.5,27,46,40
India,Karnataka,Kalaburagi,"Lal Bahadur Shastri Nagar, Kalaburagi - KSPCB",09-06-2024 23:00:00,17.321993,76.822628,CO,36,38,37
India,Karnataka,Kalaburagi,"Lal Bahadur Shastri Nagar, Kalaburagi - KSPCB",09-06-2024 23:00:00,17.321993,76.822628,OZONE,1,11,2
India,Karnataka,Kalaburagi,"Mahatma Basaveswar Colony, Kalaburgi - KSPCB",09-06-2024 23:00:00,17.336318,76.847397,PM10,19,39,25
India,Karnataka,Koppal,"Diwator Nagar, Koppal - KSPCB",09-06-2024 23:00:00,15.347630,76.181767,CO,6,6,6
India,Karnataka,Koppal,"Diwator Nagar, Koppal - KSPCB",09-06-2024 23:00:00,15.347630,76.181767,OZONE,15,27,24
India,Karnataka,Madikeri,"Stuart Hill, Madikeri - KSPCB",09-06-2024 23:00:00,12.415911,75.735050,NO2,1,5,2
India,Karnataka,Mangalore,"Kadri, Mangalore - KSPCB",09-06-2024 23:00:00,12.889250,74.853000,PM10,32,72,54
India,Karnataka,Mangalore,"Kadri, Mangalore - KSPCB",09-06-2024 23:00:00,12.889250,74.853000,CO,34,40,36
India,Karnataka,Mangalore,"Kadri, Mangalore - KSPCB",09-06-2024 23:00:00,12.889250,74.853000,OZONE,31,32,31
India,Karnataka,Mysuru,"Hebbal 1st Stage, Mysuru - KSPCB",09-06-2024 23:00:00,12.21041,76.37376,OZONE,12,51,35
India,Karnataka,Shivamogga,"Vinoba Nagara, Shivamogga - KSPCB",09-06-2024 23:00:00,13.940000,75.555917,SO2,2,9,5
India,Karnataka,Shivamogga,"Vinoba Nagara, Shivamogga - KSPCB",09-06-2024 23:00:00,13.940000,75.555917,CO,10,36,17
India,Karnataka,Vijayapura,"Ibrahimpur, Vijayapura - KSPCB",09-06-2024 23:00:00,16.802639,75.722694,PM2.5,25,31,30
India,Karnataka,Yadgir,"Collector Office, Yadgir - KSPCB",09-06-2024 23:00:00,16.7602,77.1428,NO2,NA,NA,NA
India,Kerala,Kollam,"Polayathode, Kollam - Kerala PCB",09-06-2024 23:00:00,8.8787,76.6073,CO,14,17,15
India,Kerala,Thiruvananthapuram,"Plammoodu, Thiruvananthapuram - Kerala PCB",09-06-2024 23:00:00,8.5149093,76.9435879,PM10,1,43,16
India,Kerala,Thiruvananthapuram,"Plammoodu, Thiruvananthapuram - Kerala PCB",09-06-2024 23:00:00,8.5149093,76.9435879,NH3,1,1,1
India,Kerala,Thiruvananthapuram,"Plammoodu, Thiruvananthapuram - Kerala PCB",09-06-2024 23:00:00,8.5149093,76.9435879,SO2,3,15,8
India,Kerala,Thiruvananthapuram,"Plammoodu, Thiruvananthapuram - Kerala PCB",09-06-2024 23:00:00,8.5149093,76.9435879,CO,6,32,16
India,Madhya Pradesh,Bhopal,"Idgah Hills, Bhopal - MPPCB",09-06-2024 23:00:00,23.264759,77.381568,PM2.5,42,123,65
India,Madhya Pradesh,Bhopal,"Idgah Hills, Bhopal - MPPCB",09-06-2024 23:00:00,23.264759,77.381568,NH3,5,7,6
India,Madhya Pradesh,Bhopal,"Paryavaran Parisar, Bhopal - MPPCB",09-06-2024 23:00:00,23.210494,77.425409,PM2.5,32,75,49
India,Madhya Pradesh,Dewas,"Bhopal Chauraha, Dewas - MPPCB",09-06-2024 23:00:00,22.9682591,76.064118,CO,28,52,34
India,Madhya Pradesh,Gwalior,"City Center, Gwalior - MPPCB",09-06-2024 23:00:00,26.203442,78.193251,NH3,2,4,2
India,Madhya Pradesh,Gwalior,"Deen Dayal Nagar, Gwalior - MPPCB",09-06-2024 23:00:00,26.259242,78.216432,PM2.5,39,187,84
India,Madhya Pradesh,Gwalior,"Deen Dayal Nagar, Gwalior - MPPCB",09-06-2024 23:00:00,26.259242,78.216432,PM10,97,421,208
India,Madhya Pradesh,Gwalior,"Deen Dayal Nagar, Gwalior - MPPCB",09-06-2024 23:00:00,26.259242,78.216432,NO2,8,82,22
India,Madhya Pradesh,Gwalior,"Deen Dayal Nagar, Gwalior - MPPCB",09-06-2024 23:00:00,26.259242,78.216432,CO,23,94,77
India,Madhya Pradesh,Gwalior,"Phool Bagh, Gwalior - Mondelez Ind. Food",09-06-2024 23:00:00,26.210536,78.171,PM10,26,147,87
India,Madhya Pradesh,Indore,"Chhoti Gwaltoli, Indore - MPPCB",09-06-2024 23:00:00,22.4310,75.5213,NO2,47,122,67
India,Madhya Pradesh,Indore,"Maguda Nagar, Indore - IMC",09-06-2024 23:00:00,22.7524,75.8872,NO2,NA,NA,NA
India,Madhya Pradesh,Indore,"Regional Park, Indore - IMC",09-06-2024 23:00:00,22.6780,75.8559,PM2.5,37,122,58
India,Madhya Pradesh,Indore,"Residency Area, Indore - IMC",09-06-2024 23:00:00,22.7084,75.8815,PM10,NA,NA,NA
India,Madhya Pradesh,Indore,"Residency Area, Indore - IMC",09-06-2024 23:00:00,22.7084,75.8815,OZONE,5,23,13
India,Madhya Pradesh,Jabalpur,"Marhatal, Jabalpur - MPPCB",09-06-2024 23:00:00,23.168606,79.932247,CO,38,74,52
India,Madhya Pradesh,Jabalpur,"Suhagi, Jabalpur - JMC",09-06-2024 23:00:00,23.218135,79.957770,PM2.5,NA,NA,NA
India,Madhya Pradesh,Jabalpur,"Suhagi, Jabalpur - JMC",09-06-2024 23:00:00,23.218135,79.957770,SO2,NA,NA,NA
India,Madhya Pradesh,Katni,"Gole Bazar, Katni - MPPCB",09-06-2024 23:00:00,23.50016,80.23284,NO2,20,57,30
India,Madhya Pradesh,Katni,"Gole Bazar, Katni - MPPCB",09-06-2024 23:00:00,23.50016,80.23284,OZONE,46,129,92
India,Madhya Pradesh,Maihar,"Sahilara, Maihar - KJS Cements",09-06-2024 23:00:00,24.2613009,80.7231783,PM2.5,1,153,69
India,Madhya Pradesh,Maihar,"Sahilara, Maihar - KJS Cements",09-06-2024 23:00:00,24.2613009,80.7231783,NO2,11,22,17
India,Madhya Pradesh,Maihar,"Sahilara, Maihar - KJS Cements",09-06-2024 23:00:00,24.2613009,80.7231783,SO2,12,13,13
India,Madhya Pradesh,Mandideep,"Sector-D Industrial Area, Mandideep - MPPCB",09-06-2024 23:00:00,23.108440,77.511428,SO2,10,23,14
India,Madhya Pradesh,Sagar,"Civil Lines, Sagar - MPPCB",09-06-2024 23:00:00,23.838586,78.759431,PM2.5,30,80,52
India,Madhya Pradesh,Sagar,"Civil Lines, Sagar - MPPCB",09-06-2024 23:00:00,23.838586,78.759431,NH3,4,6,5
India,Madhya Pradesh,Satna,"Bandhavgar Colony, Satna - Birla Cement",09-06-2024 23:00:00,24.58434363,80.8549414,OZONE,22,87,53
India,Madhya Pradesh,Ujjain,"Mahakaleshwar Temple, Ujjain - MPPCB",09-06-2024 23:00:00,23.182719 ,75.768218 ,SO2,3,9,6
India,Maharashtra,Ahmednagar,"Tarakpur, Ahmednagar - MPCB",09-06-2024 23:00:00,19.10122,74.73339,SO2,NA,NA,NA
India,Maharashtra,Akola,"Ramdaspeth, Akola - MPCB",09-06-2024 23:00:00,20.719516,77.000253,NH3,3,15,7
India,Maharashtra,Amravati,"Shivneri Colony, Amravati - MPCB",09-06-2024 23:00:00,20.9402359,77.7895248,NO2,7,45,17
India,Maharashtra,Amravati,"Shivneri Colony, Amravati - MPCB",09-06-2024 23:00:00,20.9402359,77.7895248,NH3,3,8,5
India,Maharashtra,Amravati,"Shivneri Colony, Amravati - MPCB",09-06-2024 23:00:00,20.9402359,77.7895248,CO,6,42,25
India,Maharashtra,Amravati,"Shri Shivaji Science College, Amaravati - MPCB",09-06-2024 23:00:00,20.939198,77.765701,NO2,5,24,10
India,Maharashtra,Amravati,"Shri Shivaji Science College, Amaravati - MPCB",09-06-2024 23:00:00,20.939198,77.765701,SO2,6,10,6
India,Maharashtra,Aurangabad,"MIDC Chilkalthana, Aurangabad - MPCB",09-06-2024 23:00:00,19.875620,75.387310,PM2.5,35,200,86
