country,state,city,station,last_update,latitude,longitude,pollutant_id,pollutant_min,pollutant_max,pollutant_avg
India,Andhra_Pradesh,Anantapur,"Gulzarpet, Anantapur - APPCB",07-04-2024 16:00:00,14.675886,77.593027,PM2.5,NA,NA,NA
India,Andhra_Pradesh,Anantapur,"Gulzarpet, Anantapur - APPCB",07-04-2024 16:00:00,14.675886,77.593027,PM10,NA,NA,NA
India,Andhra_Pradesh,Anantapur,"Gulzarpet, Anantapur - APPCB",07-04-2024 16:00:00,14.675886,77.593027,CO,30,110,46
India,Andhra_Pradesh,Rajamahendravaram,"Anand Kala Kshetram, Rajamahendravaram - APPCB",07-04-2024 16:00:00,16.9872867,81.7363176,PM2.5,14,64,39
India,Andhra_Pradesh,Tirupati,"Tirumala, Tirupati - APPCB",07-04-2024 16:00:00,13.67,79.35,NO2,16,54,27
India,Andhra_Pradesh,Vijayawada,"HB Colony, Vijayawada - APPCB",07-04-2024 16:00:00,16.536107,80.594233,PM2.5,37,71,47
India,Andhra_Pradesh,Vijayawada,"Kanuru, Vijayawada - APPCB",07-04-2024 16:00:00,16.486692,80.699436,PM10,NA,NA,NA
India,Andhra_Pradesh,Vijayawada,"Kanuru, Vijayawada - APPCB",07-04-2024 16:00:00,16.486692,80.699436,SO2,NA,NA,NA
India,Andhra_Pradesh,Vijayawada,"Rajiv Gandhi Park, Vijayawada - APPCB",07-04-2024 16:00:00,16.509717,80.612222,SO2,4,85,12
India,Andhra_Pradesh,Vijayawada,"Rajiv Nagar, Vijayawada - APPCB",07-04-2024 16:00:00,16.554731,80.649110,PM10,61,67,64
India,Andhra_Pradesh,Visakhapatnam,"GVM Corporation, Visakhapatnam - APPCB",07-04-2024 16:00:00,17.72,83.3,NO2,19,60,40
India,Andhra_Pradesh,Visakhapatnam,"GVM Corporation, Visakhapatnam - APPCB",07-04-2024 16:00:00,17.72,83.3,NH3,3,6,4
India,Assam,Byrnihat,"Central Academy for SFS, Byrnihat - PCBA",07-04-2024 16:00:00,26.071318,91.87488,PM10,NA,NA,NA
India,Assam,Guwahati,"LGBI Airport, Guwahati - PCBA",07-04-2024 16:00:00,26.10887,91.589544,PM2.5,43,233,141
India,Assam,Guwahati,"LGBI Airport, Guwahati - PCBA",07-04-2024 16:00:00,26.10887,91.589544,NH3,1,9,6
India,Assam,Guwahati,"LGBI Airport, Guwahati - PCBA",07-04-2024 16:00:00,26.10887,91.589544,SO2,5,14,10
India,Assam,Guwahati,"LGBI Airport, Guwahati - PCBA",07-04-2024 16:00:00,26.10887,91.589544,OZONE,1,163,3
India,Assam,Guwahati,"Pan Bazaar, Guwahati - PCBA",07-04-2024 16:00:00,26.187500,91.744194,PM2.5,75,190,132
India,Assam,Guwahati,"Pan Bazaar, Guwahati - PCBA",07-04-2024 16:00:00,26.187500,91.744194,NO2,1,12,4
India,Assam,Guwahati,"Pan Bazaar, Guwahati - PCBA",07-04-2024 16:00:00,26.187500,91.744194,CO,22,108,33
India,Assam,Nagaon,"Christianpatty, Nagaon - PCBA",07-04-2024 16:00:00,26.349082,92.68449,NO2,5,33,13
India,Assam,Nagaon,"Christianpatty, Nagaon - PCBA",07-04-2024 16:00:00,26.349082,92.68449,SO2,NA,NA,NA
India,Assam,Nalbari,"Bata Chowk, Nalbari - PCBA",07-04-2024 16:00:00,26.446912,91.439057,PM10,125,282,177
India,Assam,Silchar,"Tarapur, Silchar - PCBA",07-04-2024 16:00:00,24.82827,92.79525,NO2,NA,NA,NA
India,Assam,Silchar,"Tarapur, Silchar - PCBA",07-04-2024 16:00:00,24.82827,92.79525,SO2,NA,NA,NA
India,Assam,Sivasagar,"Girls College, Sivasagar - PCBA",07-04-2024 16:00:00,26.987634,94.636574,PM2.5,40,80,54
India,Assam,Sivasagar,"Girls College, Sivasagar - PCBA",07-04-2024 16:00:00,26.987634,94.636574,NO2,7,14,10
India,Assam,Sivasagar,"Girls College, Sivasagar - PCBA",07-04-2024 16:00:00,26.987634,94.636574,SO2,3,8,5
India,Bihar,Arrah,"New DM Office, Arrah - BSPCB",07-04-2024 16:00:00,25.5626095,84.663264,PM2.5,NA,NA,NA
India,Bihar,Arrah,"New DM Office, Arrah - BSPCB",07-04-2024 16:00:00,25.5626095,84.663264,OZONE,8,39,16
India,Bihar,Aurangabad,"Gurdeo Nagar, Aurangabad - BSPCB",07-04-2024 16:00:00,24.75746,84.366208,NH3,5,7,6
India,Bihar,Bettiah,"Kamalnath Nagar, Bettiah - BSPCB",07-04-2024 16:00:00,26.80365,84.51954,PM2.5,58,207,94
India,Bihar,Bettiah,"Kamalnath Nagar, Bettiah - BSPCB",07-04-2024 16:00:00,26.80365,84.51954,CO,62,72,63
India,Bihar,Bihar Sharif,"D M Colony, Bihar Sharif - BSPCB",07-04-2024 16:00:00,25.204762,85.514960,SO2,2,11,7
India,Bihar,Chhapra,"Darshan Nagar, Chhapra - BSPCB",07-04-2024 16:00:00,25.7808257,84.7446768,NH3,8,14,11
India,Bihar,Chhapra,"Darshan Nagar, Chhapra - BSPCB",07-04-2024 16:00:00,25.7808257,84.7446768,CO,40,72,52
India,Bihar,Chhapra,"Darshan Nagar, Chhapra - BSPCB",07-04-2024 16:00:00,25.7808257,84.7446768,OZONE,1,5,3
India,Bihar,Gaya,"Collectorate, Gaya - BSPCB",07-04-2024 16:00:00,24.7955,84.9994,OZONE,57,78,67
India,Bihar,Gaya,"Kareemganj, Gaya - BSPCB",07-04-2024 16:00:00,24.792403,84.992416,PM2.5,12,103,52
India,Bihar,Gaya,"Kareemganj, Gaya - BSPCB",07-04-2024 16:00:00,24.792403,84.992416,NO2,28,31,30
India,Bihar,Gaya,"SFTI Kusdihra, Gaya - BSPCB",07-04-2024 16:00:00,24.762518,84.982348,PM2.5,52,96,73
India,Bihar,Katihar,"Mirchaibari, Katihar - BSPCB",07-04-2024 16:00:00,25.560083,87.553265,NO2,21,37,32
India,Bihar,Katihar,"Mirchaibari, Katihar - BSPCB",07-04-2024 16:00:00,25.560083,87.553265,NH3,6,10,9
India,Bihar,Kishanganj,"SDM Office_Khagra, Kishanganj - BSPCB",07-04-2024 16:00:00,26.0881305,87.93840336,CO,4,7,5
India,Bihar,Manguraha,"Forest Rest House, Manguraha - BSPCB",07-04-2024 16:00:00,27.308328,84.531742,PM10,NA,NA,NA
India,Bihar,Manguraha,"Forest Rest House, Manguraha - BSPCB",07-04-2024 16:00:00,27.308328,84.531742,NH3,1,4,2
India,Bihar,Motihari,"Gandak Colony, Motihari - BSPCB",07-04-2024 16:00:00,26.63086,84.90051,PM2.5,28,68,48
India,Bihar,Motihari,"Gandak Colony, Motihari - BSPCB",07-04-2024 16:00:00,26.63086,84.90051,NH3,7,18,13
India,Bihar,Motihari,"Gandak Colony, Motihari - BSPCB",07-04-2024 16:00:00,26.63086,84.90051,SO2,3,18,11
India,Bihar,Motihari,"Gandak Colony, Motihari - BSPCB",07-04-2024 16:00:00,26.63086,84.90051,OZONE,32,156,156
India,Bihar,Muzaffarpur,"MIT-Daudpur Kothi, Muzaffarpur - BSPCB",07-04-2024 16:00:00,26.1403345,85.3650192,PM2.5,82,290,149
India,Bihar,Muzaffarpur,"MIT-Daudpur Kothi, Muzaffarpur - BSPCB",07-04-2024 16:00:00,26.1403345,85.3650192,SO2,11,18,13
India,Bihar,Muzaffarpur,"Muzaffarpur Collectorate, Muzaffarpur - BSPCB",07-04-2024 16:00:00,26.1209,85.3647,PM2.5,43,190,98
India,Bihar,Muzaffarpur,"Muzaffarpur Collectorate, Muzaffarpur - BSPCB",07-04-2024 16:00:00,26.1209,85.3647,SO2,7,18,9
India,Bihar,Patna,"DRM Office Danapur, Patna - BSPCB",07-04-2024 16:00:00,25.586562,85.043586,NH3,3,3,3
India,Bihar,Patna,"DRM Office Danapur, Patna - BSPCB",07-04-2024 16:00:00,25.586562,85.043586,CO,24,89,35
India,Bihar,Patna,"DRM Office Danapur, Patna - BSPCB",07-04-2024 16:00:00,25.586562,85.043586,OZONE,8,50,42
India,Bihar,Patna,"IGSC Planetarium Complex, Patna - BSPCB",07-04-2024 16:00:00,25.610369,85.132568,PM2.5,45,198,102
India,Bihar,Patna,"IGSC Planetarium Complex, Patna - BSPCB",07-04-2024 16:00:00,25.610369,85.132568,CO,12,14,13
India,Bihar,Patna,"Muradpur, Patna - BSPCB",07-04-2024 16:00:00,25.619651,85.147382,NH3,2,5,3
India,Bihar,Patna,"Rajbansi Nagar, Patna - BSPCB",07-04-2024 16:00:00,25.599486,85.113666,OZONE,5,120,82
India,Bihar,Patna,"Samanpura, Patna - BSPCB",07-04-2024 16:00:00,25.596727,85.085624,PM2.5,NA,NA,NA
India,Bihar,Patna,"Samanpura, Patna - BSPCB",07-04-2024 16:00:00,25.596727,85.085624,PM10,NA,NA,NA
India,Bihar,Patna,"Samanpura, Patna - BSPCB",07-04-2024 16:00:00,25.596727,85.085624,NH3,NA,NA,NA
India,Bihar,Rajgir,"Dangi Tola, Rajgir - BSPCB",07-04-2024 16:00:00,25.03280,85.41948,PM10,26,95,51
India,Bihar,Rajgir,"Dangi Tola, Rajgir - BSPCB",07-04-2024 16:00:00,25.03280,85.41948,NO2,18,25,20
India,Bihar,Sasaram,"Dada Peer, Sasaram - BSPCB",07-04-2024 16:00:00,24.952822,84.002396,NH3,7,14,9
India,Bihar,Sasaram,"Dada Peer, Sasaram - BSPCB",07-04-2024 16:00:00,24.952822,84.002396,CO,100,131,107
India,Bihar,Siwan,"Chitragupta Nagar, Siwan - BSPCB",07-04-2024 16:00:00,26.2271665,84.3570427,NO2,12,44,22
India,Chandigarh,Chandigarh,"Sector 22, Chandigarh - CPCC",07-04-2024 16:00:00,30.735567,76.775714,SO2,6,61,20
India,Chandigarh,Chandigarh,"Sector 22, Chandigarh - CPCC",07-04-2024 16:00:00,30.735567,76.775714,OZONE,12,175,98
India,Chandigarh,Chandigarh,"Sector-25, Chandigarh - CPCC",07-04-2024 16:00:00,30.751462,76.762879,OZONE,3,49,34
India,Chandigarh,Chandigarh,"Sector-53, Chandigarh - CPCC",07-04-2024 16:00:00,30.719859,76.738637,PM2.5,25,200,87
India,Chandigarh,Chandigarh,"Sector-53, Chandigarh - CPCC",07-04-2024 16:00:00,30.719859,76.738637,NO2,7,63,28
India,Chandigarh,Chandigarh,"Sector-53, Chandigarh - CPCC",07-04-2024 16:00:00,30.719859,76.738637,SO2,9,54,19
India,Chhattisgarh,Chhal,"Nawapara SECL Colony, Chhal - CECB",07-04-2024 16:00:00,22.118125,83.140608,PM2.5,58,302,201
India,Chhattisgarh,Chhal,"Nawapara SECL Colony, Chhal - CECB",07-04-2024 16:00:00,22.118125,83.140608,SO2,19,52,29
India,Chhattisgarh,Chhal,"Nawapara SECL Colony, Chhal - CECB",07-04-2024 16:00:00,22.118125,83.140608,CO,20,101,41
India,Chhattisgarh,Chhal,"Nawapara SECL Colony, Chhal - CECB",07-04-2024 16:00:00,22.118125,83.140608,OZONE,3,15,7
India,Chhattisgarh,Korba,"Rampur, Korba - CECB",07-04-2024 16:00:00,22.368195,82.746431,PM10,64,403,117
India,Chhattisgarh,Korba,"Urja Nagar, Korba - CECB",07-04-2024 16:00:00,22.348441,82.549611,PM10,28,91,56
India,Chhattisgarh,Kunjemura,"OP Jindal School, Kunjemura - CECB",07-04-2024 16:00:00,22.126650,83.483212,PM2.5,31,151,99
India,Chhattisgarh,Kunjemura,"OP Jindal School, Kunjemura - CECB",07-04-2024 16:00:00,22.126650,83.483212,CO,22,100,38
India,Chhattisgarh,Milupara,"Govt. Higher Secondary School, Milupara - CECB",07-04-2024 16:00:00,22.1910172,83.5197009,PM10,NA,NA,NA
India,Chhattisgarh,Raipur,"Bhatagaon New ISBT, Raipur - CECB",07-04-2024 16:00:00,21.219665,81.630094,PM10,45,117,81
India,Chhattisgarh,Raipur,"Bhatagaon New ISBT, Raipur - CECB",07-04-2024 16:00:00,21.219665,81.630094,NH3,2,3,2
India,Chhattisgarh,Raipur,"Siltara Phase-II, Raipur - CECB",07-04-2024 16:00:00,21.371751,81.664929,SO2,NA,NA,NA
India,Chhattisgarh,Tumidih,"OP Jindal Industrial Park, Tumidih - CECB",07-04-2024 16:00:00,22.06631475,83.33820077,OZONE,7,62,51
India,Delhi,Delhi,"Alipur, Delhi - DPCC",07-04-2024 16:00:00,28.815329,77.153010,CO,24,64,36
India,Delhi,Delhi,"Alipur, Delhi - DPCC",07-04-2024 16:00:00,28.815329,77.153010,OZONE,2,143,115
India,Delhi,Delhi,"Anand Vihar, Delhi - DPCC",07-04-2024 16:00:00,28.647622,77.3158090,NO2,56,175,93
India,Delhi,Delhi,"Ashok Vihar, Delhi - DPCC",07-04-2024 16:00:00,28.695381,77.181665,SO2,16,100,40
India,Delhi,Delhi,"Ashok Vihar, Delhi - DPCC",07-04-2024 16:00:00,28.695381,77.181665,CO,6,58,20
India,Delhi,Delhi,"Bawana, Delhi - DPCC",07-04-2024 16:00:00,28.776200,77.051074,CO,38,70,48
India,Delhi,Delhi,"Burari Crossing, Delhi - IMD",07-04-2024 16:00:00,28.7256504,77.2011573,CO,16,32,24
India,Delhi,Delhi,"CRRI Mathura Road, Delhi - IMD",07-04-2024 16:00:00,28.5512005,77.2735737,PM10,93,277,173
India,Delhi,Delhi,"Chandni Chowk, Delhi - IITM",07-04-2024 16:00:00,28.656756,77.227234,PM2.5,133,352,223
India,Delhi,Delhi,"DTU, Delhi - CPCB",07-04-2024 16:00:00,28.7500499,77.1112615,NO2,8,32,18
India,Delhi,Delhi,"DTU, Delhi - CPCB",07-04-2024 16:00:00,28.7500499,77.1112615,SO2,32,39,34
India,Delhi,Delhi,"Dr. Karni Singh Shooting Range, Delhi - DPCC",07-04-2024 16:00:00,28.498571,77.264840,NO2,24,147,81
India,Delhi,Delhi,"Dr. Karni Singh Shooting Range, Delhi - DPCC",07-04-2024 16:00:00,28.498571,77.264840,NH3,4,6,5
India,Delhi,Delhi,"Dr. Karni Singh Shooting Range, Delhi - DPCC",07-04-2024 16:00:00,28.498571,77.264840,CO,20,105,30
India,Delhi,Delhi,"Dwarka-Sector 8, Delhi - DPCC ",07-04-2024 16:00:00,28.5710274,77.0719006,SO2,6,76,25
India,Delhi,Delhi,"IGI Airport (T3), Delhi - IMD",07-04-2024 16:00:00,28.5627763,77.1180053,NO2,25,71,45
India,Delhi,Delhi,"IGI Airport (T3), Delhi - IMD",07-04-2024 16:00:00,28.5627763,77.1180053,OZONE,1,53,30
India,Delhi,Delhi,"ITO, Delhi - CPCB",07-04-2024 16:00:00,28.628624,77.241060,PM2.5,28,351,106
India,Delhi,Delhi,"Jahangirpuri, Delhi - DPCC",07-04-2024 16:00:00,28.732820,77.170633,PM2.5,30,459,243
India,Delhi,Delhi,"Jahangirpuri, Delhi - DPCC",07-04-2024 16:00:00,28.732820,77.170633,PM10,111,493,310
India,Delhi,Delhi,"Jahangirpuri, Delhi - DPCC",07-04-2024 16:00:00,28.732820,77.170633,NO2,11,126,76
India,Delhi,Delhi,"Lodhi Road, Delhi - IITM",07-04-2024 16:00:00,28.588333,77.221667,PM10,NA,NA,NA
India,Delhi,Delhi,"Lodhi Road, Delhi - IMD",07-04-2024 16:00:00,28.5918245,77.2273074,PM10,56,223,112
India,Delhi,Delhi,"Major Dhyan Chand National Stadium, Delhi - DPCC",07-04-2024 16:00:00,28.611281,77.237738,PM2.5,28,376,122
India,Delhi,Delhi,"Mandir Marg, Delhi - DPCC",07-04-2024 16:00:00,28.636429,77.201067,SO2,1,14,6
India,Delhi,Delhi,"Mundka, Delhi - DPCC",07-04-2024 16:00:00,28.684678,77.076574,PM2.5,NA,NA,NA
India,Delhi,Delhi,"Mundka, Delhi - DPCC",07-04-2024 16:00:00,28.684678,77.076574,CO,32,44,36
India,Delhi,Delhi,"NSIT Dwarka, Delhi - CPCB",07-04-2024 16:00:00,28.60909,77.0325413,NH3,6,12,9
India,Delhi,Delhi,"NSIT Dwarka, Delhi - CPCB",07-04-2024 16:00:00,28.60909,77.0325413,OZONE,7,83,59
India,Delhi,Delhi,"Narela, Delhi - DPCC",07-04-2024 16:00:00,28.822836,77.101981,SO2,7,125,48
India,Delhi,Delhi,"Nehru Nagar, Delhi - DPCC",07-04-2024 16:00:00,28.567890,77.250515,CO,52,65,59
India,Delhi,Delhi,"Patparganj, Delhi - DPCC",07-04-2024 16:00:00,28.623763,77.287209,NO2,13,68,40
India,Delhi,Delhi,"Patparganj, Delhi - DPCC",07-04-2024 16:00:00,28.623763,77.287209,NH3,6,8,7
India,Delhi,Delhi,"Punjabi Bagh, Delhi - DPCC",07-04-2024 16:00:00,28.674045,77.131023,PM2.5,23,400,188
India,Delhi,Delhi,"Punjabi Bagh, Delhi - DPCC",07-04-2024 16:00:00,28.674045,77.131023,CO,26,66,38
India,Delhi,Delhi,"Pusa, Delhi - DPCC",07-04-2024 16:00:00,28.639652,77.146275,PM10,95,403,192
India,Delhi,Delhi,"Pusa, Delhi - DPCC",07-04-2024 16:00:00,28.639652,77.146275,OZONE,9,76,61
India,Delhi,Delhi,"Pusa, Delhi - IMD",07-04-2024 16:00:00,28.636110,77.173332,NO2,12,26,19
India,Delhi,Delhi,"Pusa, Delhi - IMD",07-04-2024 16:00:00,28.636110,77.173332,CO,62,86,76
India,Delhi,Delhi,"R K Puram, Delhi - DPCC",07-04-2024 16:00:00,28.563262,77.186937,OZONE,5,189,8
India,Delhi,Delhi,"Rohini, Delhi - DPCC",07-04-2024 16:00:00,28.732528,77.119920,SO2,7,108,29
India,Delhi,Delhi,"Rohini, Delhi - DPCC",07-04-2024 16:00:00,28.732528,77.119920,CO,11,72,25
India,Delhi,Delhi,"Rohini, Delhi - DPCC",07-04-2024 16:00:00,28.732528,77.119920,OZONE,3,126,93
India,Delhi,Delhi,"Shadipur, Delhi - CPCB",07-04-2024 16:00:00,28.6514781,77.1473105,OZONE,8,60,40
India,Delhi,Delhi,"Sirifort, Delhi - CPCB",07-04-2024 16:00:00,28.5504249,77.2159377,SO2,21,56,28
India,Delhi,Delhi,"Sonia Vihar, Delhi - DPCC",07-04-2024 16:00:00,28.710508,77.249485,PM2.5,19,366,138
India,Delhi,Delhi,"Sonia Vihar, Delhi - DPCC",07-04-2024 16:00:00,28.710508,77.249485,NH3,4,7,5
India,Delhi,Delhi,"Sonia Vihar, Delhi - DPCC",07-04-2024 16:00:00,28.710508,77.249485,OZONE,9,67,53
India,Delhi,Delhi,"Sri Aurobindo Marg, Delhi - DPCC",07-04-2024 16:00:00,28.531346,77.190156,PM10,82,276,133
India,Delhi,Delhi,"Sri Aurobindo Marg, Delhi - DPCC",07-04-2024 16:00:00,28.531346,77.190156,NH3,4,8,6
India,Delhi,Delhi,"Sri Aurobindo Marg, Delhi - DPCC",07-04-2024 16:00:00,28.531346,77.190156,OZONE,10,115,87
India,Gujarat,Ahmedabad,"Chandkheda, Ahmedabad - IITM",07-04-2024 16:00:00,23.107969,72.574648,OZONE,16,50,39
India,Gujarat,Ahmedabad,"Gyaspur, Ahmedabad - IITM",07-04-2024 16:00:00,22.977134,72.553024,PM2.5,58,162,88
India,Gujarat,Ahmedabad,"Gyaspur, Ahmedabad - IITM",07-04-2024 16:00:00,22.977134,72.553024,CO,2,26,8
India,Gujarat,Ahmedabad,"Rakhial, Ahmedabad - IITM",07-04-2024 16:00:00,23.016834,72.625775,SO2,3,87,17
India,Gujarat,Ahmedabad,"Rakhial, Ahmedabad - IITM",07-04-2024 16:00:00,23.016834,72.625775,OZONE,7,70,41
India,Gujarat,Ahmedabad,"SAC ISRO Satellite, Ahmedabad - IITM",07-04-2024 16:00:00,23.023389,72.515201,PM2.5,97,165,115
India,Gujarat,Ahmedabad,"SAC ISRO Satellite, Ahmedabad - IITM",07-04-2024 16:00:00,23.023389,72.515201,NH3,3,3,3
India,Gujarat,Ahmedabad,"SAC ISRO Satellite, Ahmedabad - IITM",07-04-2024 16:00:00,23.023389,72.515201,CO,28,34,32
India,Gujarat,Ahmedabad,"SVPI Airport Hansol, Ahmedabad - IITM",07-04-2024 16:00:00,23.076793,72.627874,PM10,70,106,90
India,Gujarat,Ahmedabad,"SVPI Airport Hansol, Ahmedabad - IITM",07-04-2024 16:00:00,23.076793,72.627874,SO2,4,30,10
India,Gujarat,Ahmedabad,"SVPI Airport Hansol, Ahmedabad - IITM",07-04-2024 16:00:00,23.076793,72.627874,CO,10,32,14
India,Gujarat,Ahmedabad,"Sardar Vallabhbhai Patel Stadium, Ahmedabad - IITM",07-04-2024 16:00:00,23.043070,72.562968,CO,32,52,38
India,Gujarat,Ankleshwar,"GIDC, Ankleshwar - GPCB",07-04-2024 16:00:00,21.613267,73.010555,SO2,5,120,47
India,Gujarat,Ankleshwar,"GIDC, Ankleshwar - GPCB",07-04-2024 16:00:00,21.613267,73.010555,OZONE,19,40,29
India,Gujarat,Gandhinagar,"IIPHG Lekawada, Gandhinagar - IITM",07-04-2024 16:00:00,23.243639,72.68994,PM10,51,86,68
India,Gujarat,Gandhinagar,"IIPHG Lekawada, Gandhinagar - IITM",07-04-2024 16:00:00,23.243639,72.68994,SO2,8,8,8
India,Gujarat,Gandhinagar,"Sector-10, Gandhinagar - GPCB",07-04-2024 16:00:00,23.221714,72.654328,CO,13,77,18
India,Gujarat,Nandesari,"GIDC, Nandesari - Nandesari Ind. Association",07-04-2024 16:00:00,22.410802,73.097923,PM10,77,345,165
India,Gujarat,Nandesari,"GIDC, Nandesari - Nandesari Ind. Association",07-04-2024 16:00:00,22.410802,73.097923,NO2,3,34,19
India,Gujarat,Nandesari,"GIDC, Nandesari - Nandesari Ind. Association",07-04-2024 16:00:00,22.410802,73.097923,SO2,3,15,10
India,Gujarat,Surat,"Science Center, Surat - SMC",07-04-2024 16:00:00,21.170046,72.795405,PM10,25,62,38
India,Gujarat,Surat,"Science Center, Surat - SMC",07-04-2024 16:00:00,21.170046,72.795405,SO2,1,8,5
India,Gujarat,Surat,"Science Center, Surat - SMC",07-04-2024 16:00:00,21.170046,72.795405,CO,26,78,30
India,Gujarat,Vapi,"Phase-1 GIDC, Vapi - GPCB",07-04-2024 16:00:00,20.362421,72.918013,PM10,52,189,85
India,Gujarat,Vapi,"Phase-1 GIDC, Vapi - GPCB",07-04-2024 16:00:00,20.362421,72.918013,NH3,2,2,2
India,Gujarat,Vatva,"Phase-4 GIDC, Vatva - GPCB",07-04-2024 16:00:00,22.969611,72.643500,PM10,52,114,71
India,Haryana,Ambala,"Patti Mehar, Ambala - HSPCB",07-04-2024 16:00:00,30.379589,76.778328,PM2.5,24,95,61
India,Haryana,Ambala,"Patti Mehar, Ambala - HSPCB",07-04-2024 16:00:00,30.379589,76.778328,PM10,31,134,103
India,Haryana,Ambala,"Patti Mehar, Ambala - HSPCB",07-04-2024 16:00:00,30.379589,76.778328,NO2,8,20,14
India,Haryana,Ambala,"Patti Mehar, Ambala - HSPCB",07-04-2024 16:00:00,30.379589,76.778328,SO2,20,57,35
India,Haryana,Bahadurgarh,"Arya Nagar, Bahadurgarh - HSPCB",07-04-2024 16:00:00,28.6701,76.9254,PM10,77,264,139
India,Haryana,Bhiwani,"H.B. Colony, Bhiwani - HSPCB",07-04-2024 16:00:00,28.806223,76.141105,PM2.5,53,201,116
India,Haryana,Bhiwani,"H.B. Colony, Bhiwani - HSPCB",07-04-2024 16:00:00,28.806223,76.141105,NH3,6,6,6
India,Haryana,Dharuhera,"Municipal Corporation Office, Dharuhera -  HSPCB",07-04-2024 16:00:00,28.206800,76.799700,OZONE,3,36,29
India,Haryana,Faridabad,"Sector 30, Faridabad - HSPCB",07-04-2024 16:00:00,28.4417,77.3217,PM2.5,91,101,96
India,Haryana,Faridabad,"Sector 30, Faridabad - HSPCB",07-04-2024 16:00:00,28.4417,77.3217,CO,57,62,60
India,Haryana,Faridabad,"Sector- 16A, Faridabad - HSPCB",07-04-2024 16:00:00,28.4088421,77.3099081,CO,22,44,34
India,Haryana,Fatehabad,"Huda Sector, Fatehabad - HSPCB",07-04-2024 16:00:00,29.503664,75.467934,PM2.5,25,91,58
India,Haryana,Fatehabad,"Huda Sector, Fatehabad - HSPCB",07-04-2024 16:00:00,29.503664,75.467934,NH3,12,13,13
India,Haryana,Fatehabad,"Huda Sector, Fatehabad - HSPCB",07-04-2024 16:00:00,29.503664,75.467934,OZONE,87,98,90
India,Haryana,Gurugram,"Sector-51, Gurugram - HSPCB",07-04-2024 16:00:00,28.4227,77.0667,PM10,94,193,137
India,Haryana,Gurugram,"Sector-51, Gurugram - HSPCB",07-04-2024 16:00:00,28.4227,77.0667,CO,27,70,35
India,Haryana,Gurugram,"Teri Gram, Gurugram - HSPCB",07-04-2024 16:00:00,28.4275,77.1465,PM2.5,89,365,213
India,Haryana,Gurugram,"Teri Gram, Gurugram - HSPCB",07-04-2024 16:00:00,28.4275,77.1465,OZONE,11,29,11
India,Haryana,Hisar,"Urban Estate-II, Hisar - HSPCB",07-04-2024 16:00:00,29.140560,75.744941,PM10,67,151,101
India,Haryana,Karnal,"Sector-12, Karnal - HSPCB",07-04-2024 16:00:00,29.695300,77.002700,PM2.5,16,34,24
India,Haryana,Kurukshetra,"Sector-7, Kurukshetra - HSPCB",07-04-2024 16:00:00,29.966942,76.875879,NO2,10,10,10
India,Haryana,Mandikhera,"General Hospital, Mandikhera - HSPCB",07-04-2024 16:00:00,27.9002,76.9938,PM10,50,158,93
India,Haryana,Manesar,"Sector-2 IMT, Manesar - HSPCB",07-04-2024 16:00:00,28.360699,76.936090,PM2.5,33,164,72
India,Haryana,Manesar,"Sector-2 IMT, Manesar - HSPCB",07-04-2024 16:00:00,28.360699,76.936090,PM10,33,120,67
India,Haryana,Palwal,"Shyam Nagar, Palwal - HSPCB",07-04-2024 16:00:00,28.1485564,77.3320667,SO2,3,14,9
India,Haryana,Panipat,"Sector-18, Panipat - HSPCB",07-04-2024 16:00:00,29.497973,76.993331,PM10,69,71,70
India,Haryana,Panipat,"Sector-18, Panipat - HSPCB",07-04-2024 16:00:00,29.497973,76.993331,SO2,18,19,19
India,Haryana,Sirsa,"F-Block, Sirsa - HSPCB",07-04-2024 16:00:00,29.536400,75.015800,PM10,51,142,98
India,Haryana,Sirsa,"F-Block, Sirsa - HSPCB",07-04-2024 16:00:00,29.536400,75.015800,NO2,9,10,10
India,Haryana,Sirsa,"F-Block, Sirsa - HSPCB",07-04-2024 16:00:00,29.536400,75.015800,NH3,12,14,13
India,Haryana,Sonipat,"Murthal, Sonipat - HSPCB",07-04-2024 16:00:00,29.027200,77.062100,NO2,37,44,40
India,Haryana,Yamuna Nagar,"Gobind Pura, Yamuna Nagar - HSPCB",07-04-2024 16:00:00,30.1480566,77.2893471,NO2,11,29,18
India,Himachal Pradesh,Baddi,"HIMUDA Complex Phase-1, Baddi - HPPCB",07-04-2024 16:00:00,30.943887,76.801991,PM2.5,10,187,80
India,Himachal Pradesh,Baddi,"HIMUDA Complex Phase-1, Baddi - HPPCB",07-04-2024 16:00:00,30.943887,76.801991,PM10,44,160,112
India,Jharkhand,Dhanbad,"Kalakusuma, Dhanbad - DMC",07-04-2024 16:00:00,23.811548,86.481238,PM10,107,344,313
India,Jharkhand,Dhanbad,"Kalakusuma, Dhanbad - DMC",07-04-2024 16:00:00,23.811548,86.481238,CO,128,134,131
India,Karnataka,Bagalkot,"Vidayagiri, Bagalkot - KSPCB",07-04-2024 16:00:00,16.172806,75.659694,PM10,49,50,50
India,Karnataka,Belgaum,"Ramteerth Nagar, Belgaum - KSPCB",07-04-2024 16:00:00,15.888653,74.541751,CO,27,42,33
India,Karnataka,Bengaluru,"Bapuji Nagar, Bengaluru - KSPCB",07-04-2024 16:00:00,12.951913,77.539784,NH3,1,1,1
India,Karnataka,Bengaluru,"Hombegowda Nagar, Bengaluru - KSPCB",07-04-2024 16:00:00,12.938539,77.590100,NH3,1,2,1
India,Karnataka,Bengaluru,"Hombegowda Nagar, Bengaluru - KSPCB",07-04-2024 16:00:00,12.938539,77.590100,CO,9,16,12
India,Karnataka,Bengaluru,"RVCE-Mailasandra, Bengaluru - KSPCB",07-04-2024 16:00:00,12.921418,77.502466,PM2.5,25,244,106
India,Karnataka,Bengaluru,"Sanegurava Halli, Bengaluru - KSPCB",07-04-2024 16:00:00,12.990328,77.5431385,PM10,35,66,48
India,Karnataka,Bengaluru,"Sanegurava Halli, Bengaluru - KSPCB",07-04-2024 16:00:00,12.990328,77.5431385,CO,4,30,15
India,Karnataka,Bengaluru,"Shivapura_Peenya, Bengaluru - KSPCB",07-04-2024 16:00:00,13.0246342,77.5080115,NH3,4,4,4
India,Karnataka,Bengaluru,"Silk Board, Bengaluru - KSPCB",07-04-2024 16:00:00,12.917348,77.622813,PM10,38,87,64
India,Karnataka,Bidar,"Naubad, Bidar - KSPCB",07-04-2024 16:00:00,17.930306,77.482194,CO,64,88,72
India,Karnataka,Bidar,"Naubad, Bidar - KSPCB",07-04-2024 16:00:00,17.930306,77.482194,OZONE,26,54,42
India,Karnataka,Chikkaballapur,"Chikkaballapur Rural, Chikkaballapur - KSPCB",07-04-2024 16:00:00,13.428828,77.731418,NH3,1,1,1
India,Karnataka,Chikkamagaluru,"Kalyana Nagara, Chikkamagaluru - KSPCB",07-04-2024 16:00:00,13.328028,75.797056,CO,11,112,42
India,Karnataka,Davanagere,"Devaraj Urs Badavane, Davanagere - KSPCB",07-04-2024 16:00:00,14.475800,75.905200,CO,17,27,18
India,Karnataka,Dharwad,"Kalabhavan, Dharwad - KSPCB",07-04-2024 16:00:00,15.459706,75.008381,NH3,3,3,3
India,Karnataka,Gadag,"Panchal Nagar, Gadag - KSPCB",07-04-2024 16:00:00,15.411456,75.638133,NH3,2,4,2
India,Karnataka,Hassan,"B.Katihalli, Hassan - KSPCB",07-04-2024 16:00:00,13.008556,76.125258,NO2,NA,NA,NA
India,Karnataka,Hubballi,"Deshpande Nagar, Hubballi - KSPCB",07-04-2024 16:00:00,15.351773,75.140726,PM10,NA,NA,NA
India,Karnataka,Hubballi,"Deshpande Nagar, Hubballi - KSPCB",07-04-2024 16:00:00,15.351773,75.140726,CO,1,14,7
India,Karnataka,Hubballi,"Deshpande Nagar, Hubballi - KSPCB",07-04-2024 16:00:00,15.351773,75.140726,OZONE,2,5,3
India,Karnataka,Hubballi,"Lingaraj Nagar, Hubballi - KSPCB",07-04-2024 16:00:00,15.3714823,75.1160168,PM2.5,35,58,47
India,Karnataka,Hubballi,"Lingaraj Nagar, Hubballi - KSPCB",07-04-2024 16:00:00,15.3714823,75.1160168,SO2,1,13,3
India,Karnataka,Kalaburagi,"Lal Bahadur Shastri Nagar, Kalaburagi - KSPCB",07-04-2024 16:00:00,17.321993,76.822628,SO2,14,15,15
India,Karnataka,Karwar,"KHB Colony, Karwar - KSPCB",07-04-2024 16:00:00,14.816666,74.141003,PM2.5,45,88,65
India,Karnataka,Karwar,"KHB Colony, Karwar - KSPCB",07-04-2024 16:00:00,14.816666,74.141003,PM10,53,100,75
India,Karnataka,Karwar,"KHB Colony, Karwar - KSPCB",07-04-2024 16:00:00,14.816666,74.141003,NO2,1,26,4
India,Karnataka,Karwar,"KHB Colony, Karwar - KSPCB",07-04-2024 16:00:00,14.816666,74.141003,SO2,18,20,19
India,Karnataka,Kolar,"Tamaka Ind. Area, Kolar - KSPCB",07-04-2024 16:00:00,13.1276288,78.1570122,OZONE,14,15,14
India,Karnataka,Koppal,"Diwator Nagar, Koppal - KSPCB",07-04-2024 16:00:00,15.347630,76.181767,PM2.5,NA,NA,NA
India,Karnataka,Mangalore,"Kadri, Mangalore - KSPCB",07-04-2024 16:00:00,12.889250,74.853000,CO,42,50,46
India,Karnataka,Mysuru,"Hebbal 1st Stage, Mysuru - KSPCB",07-04-2024 16:00:00,12.21041,76.37376,NH3,1,3,2
India,Karnataka,Ramanagara,"Vijay Nagar, Ramanagara - KSPCB",07-04-2024 16:00:00,12.733409,77.298051,SO2,17,34,25
India,Karnataka,Shivamogga,"Vinoba Nagara, Shivamogga - KSPCB",07-04-2024 16:00:00,13.940000,75.555917,PM2.5,26,58,44
India,Karnataka,Shivamogga,"Vinoba Nagara, Shivamogga - KSPCB",07-04-2024 16:00:00,13.940000,75.555917,PM10,39,75,61
India,Karnataka,Vijayapura,"Ibrahimpur, Vijayapura - KSPCB",07-04-2024 16:00:00,16.802639,75.722694,NH3,2,2,2
India,Karnataka,Vijayapura,"Ibrahimpur, Vijayapura - KSPCB",07-04-2024 16:00:00,16.802639,75.722694,OZONE,14,16,15
India,Karnataka,Yadgir,"Collector Office, Yadgir - KSPCB",07-04-2024 16:00:00,16.7602,77.1428,PM10,62,96,78
India,Karnataka,Yadgir,"Collector Office, Yadgir - KSPCB",07-04-2024 16:00:00,16.7602,77.1428,NO2,6,11,7
India,Karnataka,Yadgir,"Collector Office, Yadgir - KSPCB",07-04-2024 16:00:00,16.7602,77.1428,CO,12,30,30
India,Karnataka,Yadgir,"Collector Office, Yadgir - KSPCB",07-04-2024 16:00:00,16.7602,77.1428,OZONE,18,20,20
India,Kerala,Eloor,"Udyogamandal, Eloor - Kerala PCB",07-04-2024 16:00:00,10.073232,76.302765,PM2.5,26,50,36
India,Kerala,Eloor,"Udyogamandal, Eloor - Kerala PCB",07-04-2024 16:00:00,10.073232,76.302765,OZONE,10,18,14
India,Kerala,Kollam,"Polayathode, Kollam - Kerala PCB",07-04-2024 16:00:00,8.8787,76.6073,PM2.5,57,277,153
India,Kerala,Thiruvananthapuram,"Plammoodu, Thiruvananthapuram - Kerala PCB",07-04-2024 16:00:00,8.5149093,76.9435879,PM10,32,75,56
India,Kerala,Thiruvananthapuram,"Plammoodu, Thiruvananthapuram - Kerala PCB",07-04-2024 16:00:00,8.5149093,76.9435879,NO2,7,10,9
India,Kerala,Thiruvananthapuram,"Plammoodu, Thiruvananthapuram - Kerala PCB",07-04-2024 16:00:00,8.5149093,76.9435879,NH3,1,1,1
India,Madhya Pradesh,Bhopal,"Idgah Hills, Bhopal - MPPCB",07-04-2024 16:00:00,23.264759,77.381568,NO2,23,70,38
India,Madhya Pradesh,Bhopal,"Paryavaran Parisar, Bhopal - MPPCB",07-04-2024 16:00:00,23.210494,77.425409,NH3,9,11,9
India,Madhya Pradesh,Bhopal,"T T Nagar, Bhopal - MPPCB",07-04-2024 16:00:00,23.233584,77.400574,PM10,83,185,123
India,Madhya Pradesh,Dewas,"Bhopal Chauraha, Dewas - MPPCB",07-04-2024 16:00:00,22.9682591,76.064118,OZONE,21,75,57
India,Madhya Pradesh,Gwalior,"City Center, Gwalior - MPPCB",07-04-2024 16:00:00,26.203442,78.193251,PM10,34,178,102
India,Madhya Pradesh,Gwalior,"City Center, Gwalior - MPPCB",07-04-2024 16:00:00,26.203442,78.193251,NO2,8,86,29
India,Madhya Pradesh,Gwalior,"Deen Dayal Nagar, Gwalior - MPPCB",07-04-2024 16:00:00,26.259242,78.216432,OZONE,15,213,119
India,Madhya Pradesh,Gwalior,"Maharaj Bada, Gwalior - MPPCB",07-04-2024 16:00:00,26.200388,78.147714,NH3,2,35,10
India,Madhya Pradesh,Indore,"Chhoti Gwaltoli, Indore - MPPCB",07-04-2024 16:00:00,22.4310,75.5213,NO2,46,121,72
India,Madhya Pradesh,Indore,"Regional Park, Indore - IMC",07-04-2024 16:00:00,22.6780,75.8559,SO2,36,41,39
India,Madhya Pradesh,Indore,"Residency Area, Indore - IMC",07-04-2024 16:00:00,22.7084,75.8815,PM10,44,156,85
India,Madhya Pradesh,Indore,"Residency Area, Indore - IMC",07-04-2024 16:00:00,22.7084,75.8815,SO2,27,31,29
India,Madhya Pradesh,Jabalpur,"Govindh Bhavan Colony, Jabalpur - JMC",07-04-2024 16:00:00,23.163174,79.973061,NO2,10,66,29
India,Madhya Pradesh,Jabalpur,"Marhatal, Jabalpur - MPPCB",07-04-2024 16:00:00,23.168606,79.932247,PM10,94,188,137
India,Madhya Pradesh,Jabalpur,"Marhatal, Jabalpur - MPPCB",07-04-2024 16:00:00,23.168606,79.932247,NO2,7,74,25
India,Madhya Pradesh,Jabalpur,"Marhatal, Jabalpur - MPPCB",07-04-2024 16:00:00,23.168606,79.932247,SO2,9,30,11
India,Madhya Pradesh,Katni,"Gole Bazar, Katni - MPPCB",07-04-2024 16:00:00,23.50016,80.23284,NO2,31,132,79
India,Madhya Pradesh,Ratlam,"Shasthri Nagar, Ratlam - IPCA Lab",07-04-2024 16:00:00,23.331731,75.045981,PM2.5,13,276,69
India,Madhya Pradesh,Ratlam,"Shasthri Nagar, Ratlam - IPCA Lab",07-04-2024 16:00:00,23.331731,75.045981,NO2,11,53,29
India,Madhya Pradesh,Sagar,"Civil Lines, Sagar - MPPCB",07-04-2024 16:00:00,23.838586,78.759431,PM2.5,22,67,47
India,Madhya Pradesh,Sagar,"Deen Dayal Nagar, Sagar - MPPCB",07-04-2024 16:00:00,23.8640158,78.80289321,NO2,20,24,24
India,Madhya Pradesh,Ujjain,"Mahakaleshwar Temple, Ujjain - MPPCB",07-04-2024 16:00:00,23.182719 ,75.768218 ,PM10,62,287,138
India,Madhya Pradesh,Ujjain,"Mahakaleshwar Temple, Ujjain - MPPCB",07-04-2024 16:00:00,23.182719 ,75.768218 ,NO2,10,92,38
India,Madhya Pradesh,Ujjain,"Mahakaleshwar Temple, Ujjain - MPPCB",07-04-2024 16:00:00,23.182719 ,75.768218 ,NH3,3,10,6
India,Maharashtra,Ahmednagar,"Tarakpur, Ahmednagar - MPCB",07-04-2024 16:00:00,19.10122,74.73339,PM2.5,38,94,67
India,Maharashtra,Ahmednagar,"Tarakpur, Ahmednagar - MPCB",07-04-2024 16:00:00,19.10122,74.73339,PM10,70,134,93
India,Maharashtra,Ahmednagar,"Tarakpur, Ahmednagar - MPCB",07-04-2024 16:00:00,19.10122,74.73339,NH3,2,6,4
India,Maharashtra,Ahmednagar,"Tarakpur, Ahmednagar - MPCB",07-04-2024 16:00:00,19.10122,74.73339,SO2,11,17,13
India,Maharashtra,Akola,"Ramdaspeth, Akola - MPCB",07-04-2024 16:00:00,20.719516,77.000253,PM10,48,212,96
India,Maharashtra,Akola,"Ramdaspeth, Akola - MPCB",07-04-2024 16:00:00,20.719516,77.000253,OZONE,2,116,87
India,Maharashtra,Amravati,"Shivneri Colony, Amravati - MPCB",07-04-2024 16:00:00,20.9402359,77.7895248,CO,10,56,17
India,Maharashtra,Aurangabad,"More Chowk Waluj, Aurangabad - MPCB",07-04-2024 16:00:00,19.8389439,75.244448,PM10,29,87,54
India,Maharashtra,Belapur,"CBD Belapur, Belapur - MPCB",07-04-2024 16:00:00,19.0243902,73.0406721,OZONE,7,139,82
India,Maharashtra,Bhiwandi,"Gokul Nagar, Bhiwandi - MPCB",07-04-2024 16:00:00,19.309073,73.057223,SO2,20,36,25
India,Maharashtra,Chandrapur,"Chauhan Colony, Chandrapur - MPCB",07-04-2024 16:00:00,19.962900,79.298714,PM2.5,43,181,102
India,Maharashtra,Chandrapur,"Chauhan Colony, Chandrapur - MPCB",07-04-2024 16:00:00,19.962900,79.298714,SO2,8,72,22
India,Maharashtra,Chandrapur,"MIDC Khutala, Chandrapur - MPCB",07-04-2024 16:00:00,19.9775302,79.2337086,PM10,56,188,110
India,Maharashtra,Chandrapur,"MIDC Khutala, Chandrapur - MPCB",07-04-2024 16:00:00,19.9775302,79.2337086,NO2,30,97,60
India,Maharashtra,Dhule,"Deopur, Dhule - MPCB",07-04-2024 16:00:00,20.918946,74.776388,NH3,4,13,6
India,Maharashtra,Jalna,"Old MIDC, Jalna - MPCB",07-04-2024 16:00:00,19.854616,75.905894,OZONE,8,118,38
India,Maharashtra,Kalyan,"Khadakpada, Kalyan - MPCB",07-04-2024 16:00:00,19.25292,73.142019,PM10,78,209,103
India,Maharashtra,Kolhapur,"Shivaji University, Kolhapur - MPCB",07-04-2024 16:00:00,16.6870449,74.2505872,PM10,123,194,154
India,Maharashtra,Kolhapur,"Sinchan Bhavan, Kolhapur - MPCB",07-04-2024 16:00:00,16.7143745,74.2426398,SO2,1,18,8
India,Maharashtra,Latur,"Sawe Wadi, Latur - MPCB",07-04-2024 16:00:00,18.39963,76.57452,PM2.5,38,96,71
India,Maharashtra,Latur,"Sawe Wadi, Latur - MPCB",07-04-2024 16:00:00,18.39963,76.57452,SO2,7,14,10
India,Maharashtra,Mahad,"Kamble Tarf Birwadi, Mahad - MPCB",07-04-2024 16:00:00,18.1023399,73.4783687,NH3,8,8,8
India,Maharashtra,Mahad,"Kamble Tarf Birwadi, Mahad - MPCB",07-04-2024 16:00:00,18.1023399,73.4783687,CO,23,28,25
India,Maharashtra,Malegaon,"Mahesh Nagar, Malegaon - MPCB",07-04-2024 16:00:00,20.555712,74.529236,PM10,90,253,137
India,Maharashtra,Mira-Bhayandar,"Bhayandar West, Mira-Bhayandar - MPCB",07-04-2024 16:00:00,19.296481,72.840923,CO,40,40,40
India,Maharashtra,Mira-Bhayandar,"Bhayandar West, Mira-Bhayandar - MPCB",07-04-2024 16:00:00,19.296481,72.840923,OZONE,79,81,80
India,Maharashtra,Mumbai,"Bandra Kurla Complex, Mumbai - MPCB",07-04-2024 16:00:00,19.065931,72.862131,PM10,NA,NA,NA
India,Maharashtra,Mumbai,"Bandra Kurla Complex, Mumbai - MPCB",07-04-2024 16:00:00,19.065931,72.862131,CO,NA,NA,NA
India,Maharashtra,Mumbai,"Borivali East, Mumbai - IITM",07-04-2024 16:00:00,19.23241,72.86895,PM10,67,112,93
India,Maharashtra,Mumbai,"Borivali East, Mumbai - MPCB",07-04-2024 16:00:00,19.2243333,72.8658113,SO2,6,12,7
India,Maharashtra,Mumbai,"Byculla, Mumbai - BMC",07-04-2024 16:00:00,18.9767,72.8380,NH3,3,3,3
India,Maharashtra,Mumbai,"Byculla, Mumbai - BMC",07-04-2024 16:00:00,18.9767,72.8380,SO2,2,13,7
India,Maharashtra,Mumbai,"Chakala-Andheri East, Mumbai - IITM",07-04-2024 16:00:00,19.11074,72.86084,NH3,13,35,19
India,Maharashtra,Mumbai,"Chembur, Mumbai - MPCB",07-04-2024 16:00:00,19.0364585,72.8954371,NO2,17,77,41
India,Maharashtra,Mumbai,"Chembur, Mumbai - MPCB",07-04-2024 16:00:00,19.0364585,72.8954371,SO2,2,11,5
India,Maharashtra,Mumbai,"Chhatrapati Shivaji Intl. Airport (T2), Mumbai - MPCB",07-04-2024 16:00:00,19.10078,72.87462,NH3,1,49,11
India,Maharashtra,Mumbai,"Chhatrapati Shivaji Intl. Airport (T2), Mumbai - MPCB",07-04-2024 16:00:00,19.10078,72.87462,CO,46,74,51
India,Maharashtra,Mumbai,"Colaba, Mumbai - MPCB",07-04-2024 16:00:00,18.910000,72.820000,PM2.5,36,92,60
India,Maharashtra,Mumbai,"Colaba, Mumbai - MPCB",07-04-2024 16:00:00,18.910000,72.820000,PM10,56,145,83
India,Maharashtra,Mumbai,"Ghatkopar, Mumbai - BMC",07-04-2024 16:00:00,19.083694,72.920967,PM10,44,108,76
India,Maharashtra,Mumbai,"Kandivali East, Mumbai - MPCB",07-04-2024 16:00:00,19.205800,72.868200,PM2.5,44,212,71
India,Maharashtra,Mumbai,"Kandivali East, Mumbai - MPCB",07-04-2024 16:00:00,19.205800,72.868200,PM10,65,253,110
India,Maharashtra,Mumbai,"Kandivali West, Mumbai - BMC",07-04-2024 16:00:00,19.215859,72.831718,NO2,11,33,18
India,Maharashtra,Mumbai,"Kherwadi_Bandra East, Mumbai - MPCB",07-04-2024 16:00:00,19.0632143,72.8456324,PM10,72,142,100
India,Maharashtra,Mumbai,"Kherwadi_Bandra East, Mumbai - MPCB",07-04-2024 16:00:00,19.0632143,72.8456324,SO2,7,22,13
India,Maharashtra,Mumbai,"Khindipada-Bhandup West, Mumbai - IITM",07-04-2024 16:00:00,19.1653323,72.922099,PM10,42,116,73
India,Maharashtra,Mumbai,"Khindipada-Bhandup West, Mumbai - IITM",07-04-2024 16:00:00,19.1653323,72.922099,NH3,5,8,6
India,Maharashtra,Mumbai,"Khindipada-Bhandup West, Mumbai - IITM",07-04-2024 16:00:00,19.1653323,72.922099,CO,2,35,2
India,Maharashtra,Mumbai,"Mindspace-Malad West, Mumbai - MPCB",07-04-2024 16:00:00,19.1878657,72.8304069,PM2.5,44,78,58
India,Maharashtra,Mumbai,"Mindspace-Malad West, Mumbai - MPCB",07-04-2024 16:00:00,19.1878657,72.8304069,NO2,17,98,36
India,Maharashtra,Mumbai,"Mindspace-Malad West, Mumbai - MPCB",07-04-2024 16:00:00,19.1878657,72.8304069,SO2,8,17,12
India,Maharashtra,Mumbai,"Mulund West, Mumbai - MPCB",07-04-2024 16:00:00,19.1750,72.9419,NO2,20,23,21
India,Maharashtra,Mumbai,"Powai, Mumbai - MPCB",07-04-2024 16:00:00,19.137500,72.915056,SO2,32,44,35
India,Maharashtra,Mumbai,"Powai, Mumbai - MPCB",07-04-2024 16:00:00,19.137500,72.915056,OZONE,37,93,63
India,Maharashtra,Mumbai,"Shivaji Nagar, Mumbai - BMC",07-04-2024 16:00:00,19.060498,72.923356,NH3,3,8,4
India,Maharashtra,Mumbai,"Sion, Mumbai - MPCB",07-04-2024 16:00:00,19.047000,72.874600,CO,10,27,14
India,Maharashtra,Mumbai,"Sion, Mumbai - MPCB",07-04-2024 16:00:00,19.047000,72.874600,OZONE,24,32,28
India,Maharashtra,Mumbai,"Vile Parle West, Mumbai - MPCB",07-04-2024 16:00:00,19.10861,72.83622,PM2.5,43,85,58
India,Maharashtra,Mumbai,"Vile Parle West, Mumbai - MPCB",07-04-2024 16:00:00,19.10861,72.83622,OZONE,3,3,3
India,Maharashtra,Nagpur,"Ambazari, Nagpur - MPCB",07-04-2024 16:00:00,21.121801,79.04952,NO2,12,70,34
India,Maharashtra,Nagpur,"Mahal, Nagpur - MPCB",07-04-2024 16:00:00,21.14472,79.107595,OZONE,4,68,39
India,Maharashtra,Nagpur,"Opp GPO Civil Lines, Nagpur - MPCB",07-04-2024 16:00:00,21.152875,79.0517531,SO2,3,37,15
India,Maharashtra,Nanded,"Sneh Nagar, Nanded - MPCB",07-04-2024 16:00:00,19.173852,77.296291,PM10,48,118,87
India,Maharashtra,Nanded,"Sneh Nagar, Nanded - MPCB",07-04-2024 16:00:00,19.173852,77.296291,OZONE,NA,NA,NA
India,Maharashtra,Nashik,"Gangapur Road, Nashik - MPCB",07-04-2024 16:00:00,20.0073285,73.7762427,NO2,14,25,18
India,Maharashtra,Nashik,"Hirawadi, Nashik - MPCB",07-04-2024 16:00:00,20.021503,73.813844,PM2.5,6,56,38
India,Maharashtra,Nashik,"Hirawadi, Nashik - MPCB",07-04-2024 16:00:00,20.021503,73.813844,NO2,1,51,16
India,Maharashtra,Nashik,"MIDC Ambad, Nashik - MPCB",07-04-2024 16:00:00,19.950220,73.731480,NO2,2,14,9
India,Maharashtra,Nashik,"Pandav Nagari, Nashik - MPCB",07-04-2024 16:00:00,19.9591346,73.7788008,OZONE,16,93,67
India,Maharashtra,Navi Mumbai,"Kopripada-Vashi, Navi Mumbai - MPCB",07-04-2024 16:00:00,19.090337,73.014232,PM2.5,31,73,48
India,Maharashtra,Navi Mumbai,"Kopripada-Vashi, Navi Mumbai - MPCB",07-04-2024 16:00:00,19.090337,73.014232,OZONE,5,82,53
India,Maharashtra,Navi Mumbai,"Mahape, Navi Mumbai - MPCB",07-04-2024 16:00:00,19.1135051,73.008978,PM2.5,21,181,73
India,Maharashtra,Navi Mumbai,"Mahape, Navi Mumbai - MPCB",07-04-2024 16:00:00,19.1135051,73.008978,NO2,37,39,38
India,Maharashtra,Navi Mumbai,"Mahape, Navi Mumbai - MPCB",07-04-2024 16:00:00,19.1135051,73.008978,SO2,26,27,27
India,Maharashtra,Navi Mumbai,"Mahape, Navi Mumbai - MPCB",07-04-2024 16:00:00,19.1135051,73.008978,CO,45,72,50
India,Maharashtra,Navi Mumbai,"Sanpada, Navi Mumbai - MPCB",07-04-2024 16:00:00,19.0575752,73.0151367,OZONE,1,151,76
India,Maharashtra,Navi Mumbai,"Sector-19A Nerul, Navi Mumbai - IITM",07-04-2024 16:00:00,19.044,73.0325,PM2.5,69,217,106
India,Maharashtra,Navi Mumbai,"Sector-19A Nerul, Navi Mumbai - IITM",07-04-2024 16:00:00,19.044,73.0325,OZONE,6,168,85
India,Maharashtra,Navi Mumbai,"Sector-2E Kalamboli, Navi Mumbai - MPCB",07-04-2024 16:00:00,19.02579,73.10297,PM2.5,50,112,73
India,Maharashtra,Navi Mumbai,"Sector-2E Kalamboli, Navi Mumbai - MPCB",07-04-2024 16:00:00,19.02579,73.10297,PM10,68,243,122
India,Maharashtra,Navi Mumbai,"Sector-2E Kalamboli, Navi Mumbai - MPCB",07-04-2024 16:00:00,19.02579,73.10297,OZONE,4,99,50
India,Maharashtra,Parbhani,"Masoom Colony, Parbhani - MPCB",07-04-2024 16:00:00,19.265594,76.761463,PM2.5,45,191,109
India,Maharashtra,Pimpri-Chinchwad,"Park Street Wakad, Pimpri Chinchwad - MPCB",07-04-2024 16:00:00,18.59051,73.77946,PM2.5,185,368,278
India,Maharashtra,Pune,"Karve Road, Pune - MPCB",07-04-2024 16:00:00,18.5011743,73.8165527,OZONE,7,7,7
India,Maharashtra,Pune,"Katraj Dairy, Pune - MPCB",07-04-2024 16:00:00,18.454450,73.854155,PM10,47,105,85
India,Maharashtra,Pune,"Katraj Dairy, Pune - MPCB",07-04-2024 16:00:00,18.454450,73.854155,NH3,2,6,3
India,Maharashtra,Pune,"Katraj Dairy, Pune - MPCB",07-04-2024 16:00:00,18.454450,73.854155,SO2,2,9,5
India,Maharashtra,Pune,"Mhada Colony, Pune - IITM",07-04-2024 16:00:00,18.573040,73.927715,PM2.5,19,82,58
India,Maharashtra,Pune,"Mhada Colony, Pune - IITM",07-04-2024 16:00:00,18.573040,73.927715,NO2,1,16,10
India,Maharashtra,Pune,"Revenue Colony-Shivajinagar, Pune - IITM",07-04-2024 16:00:00,18.530085,73.849598,PM2.5,15,52,30
India,Maharashtra,Pune,"Revenue Colony-Shivajinagar, Pune - IITM",07-04-2024 16:00:00,18.530085,73.849598,NO2,73,135,100
India,Maharashtra,Pune,"Revenue Colony-Shivajinagar, Pune - IITM",07-04-2024 16:00:00,18.530085,73.849598,NH3,9,17,12
India,Maharashtra,Pune,"Revenue Colony-Shivajinagar, Pune - IITM",07-04-2024 16:00:00,18.530085,73.849598,OZONE,1,52,33
India,Maharashtra,Pune,"Savitribai Phule Pune University, Pune - MPCB",07-04-2024 16:00:00,18.547056,73.826908,NO2,1,33,17
India,Maharashtra,Pune,"Savitribai Phule Pune University, Pune - MPCB",07-04-2024 16:00:00,18.547056,73.826908,NH3,1,2,1
India,Maharashtra,Solapur,"Dnyaneshwar Nagar, Solapur - MPCB",07-04-2024 16:00:00,17.6336264,75.9132495,CO,12,38,17
India,Maharashtra,Solapur,"Ratandeep Housing Society, Solapur - MPCB",07-04-2024 16:00:00,17.65439,75.90649,PM10,66,108,85
India,Maharashtra,Solapur,"Solapur, Solapur - MPCB",07-04-2024 16:00:00,17.6599188,75.9063906,PM2.5,131,141,133
India,Maharashtra,Solapur,"Solapur, Solapur - MPCB",07-04-2024 16:00:00,17.6599188,75.9063906,NO2,54,55,55
India,Maharashtra,Thane,"Kasarvadavali, Thane - MPCB",07-04-2024 16:00:00,19.26777,72.97182,NO2,23,72,42
India,Maharashtra,Thane,"Pimpleshwar Mandir, Thane - MPCB",07-04-2024 16:00:00,19.192056,72.9585188,NH3,1,9,4
India,Maharashtra,Thane,"Upvan Fort, Thane - MPCB",07-04-2024 16:00:00,19.222279,72.957979,PM2.5,39,76,58
India,Maharashtra,Thane,"Upvan Fort, Thane - MPCB",07-04-2024 16:00:00,19.222279,72.957979,OZONE,24,123,72
India,Maharashtra,Ulhasnagar,"Sidhi Vinayak Nagar, Ulhasnagar - MPCB",07-04-2024 16:00:00,19.235581,73.159121,NO2,6,42,18
India,Maharashtra,Ulhasnagar,"Sidhi Vinayak Nagar, Ulhasnagar - MPCB",07-04-2024 16:00:00,19.235581,73.159121,CO,6,129,9
India,Maharashtra,Ulhasnagar,"Sidhi Vinayak Nagar, Ulhasnagar - MPCB",07-04-2024 16:00:00,19.235581,73.159121,OZONE,4,103,79
India,Maharashtra,Virar,"Bolinj, Virar - MPCB",07-04-2024 16:00:00,19.4458210,72.7988231,SO2,7,22,14
India,Manipur,Imphal,"DM College of Science, Imphal - Manipur PCB",07-04-2024 16:00:00,24.8207389,93.9423085,NH3,2,2,2
India,Manipur,Imphal,"Manipur University, Imphal - Manipur PCB",07-04-2024 16:00:00,24.7524239,93.9286218,OZONE,2,55,39
India,Meghalaya,Shillong,"Lumpyngngad, Shillong - Meghalaya PCB",07-04-2024 16:00:00,25.5586,91.8985,SO2,40,47,42
India,Mizoram,Aizawl,"Sikulpuikawn, Aizawl - Mizoram PCB",07-04-2024 16:00:00,23.7176342,92.7192841,PM10,86,151,118
India,Mizoram,Aizawl,"Sikulpuikawn, Aizawl - Mizoram PCB",07-04-2024 16:00:00,23.7176342,92.7192841,NH3,5,8,6
India,Nagaland,Kohima,"PWD Juction, Kohima - NPCB",07-04-2024 16:00:00,25.6635413,94.0989878,OZONE,14,37,24
India,Odisha,Balasore,"Kalidaspur, Balasore - OSPCB",07-04-2024 16:00:00,21.51161,86.89088,NH3,1,3,2
India,Odisha,Balasore,"Kalidaspur, Balasore - OSPCB",07-04-2024 16:00:00,21.51161,86.89088,CO,36,105,86
India,Odisha,Barbil,"Forest Office, Barbil - OSPCB",07-04-2024 16:00:00,22.1166054,85.3945546,NH3,1,1,1
India,Odisha,Barbil,"Forest Office, Barbil - OSPCB",07-04-2024 16:00:00,22.1166054,85.3945546,OZONE,4,302,123
India,Odisha,Baripada,"Meher Colony, Baripada - OSPCB",07-04-2024 16:00:00,21.941841,86.728318,PM2.5,11,304,120
India,Odisha,Baripada,"Meher Colony, Baripada - OSPCB",07-04-2024 16:00:00,21.941841,86.728318,PM10,78,122,98
India,Odisha,Baripada,"Meher Colony, Baripada - OSPCB",07-04-2024 16:00:00,21.941841,86.728318,CO,21,43,36
India,Odisha,Bhubaneswar,"Patia, Bhubaneswar - OSPCB",07-04-2024 16:00:00,20.34652,85.81630,OZONE,9,124,78
India,Odisha,Bileipada,"Tata Township, Bileipada - OSPCB",07-04-2024 16:00:00,22.06156703,85.47409613,PM10,141,379,261
India,Odisha,Bileipada,"Tata Township, Bileipada - OSPCB",07-04-2024 16:00:00,22.06156703,85.47409613,CO,22,90,39
India,Odisha,Brajrajnagar,"GM Office, Brajrajnagar - OSPCB",07-04-2024 16:00:00,21.8004996,83.8396977,PM2.5,28,192,82
India,Odisha,Cuttack,"CDA Area, Cuttack - OSPCB",07-04-2024 16:00:00,20.48891     ,85.84768     ,PM10,39,133,75
India,Odisha,Cuttack,"CDA Area, Cuttack - OSPCB",07-04-2024 16:00:00,20.48891     ,85.84768     ,NH3,3,9,4
India,Odisha,Cuttack,"CDA Area, Cuttack - OSPCB",07-04-2024 16:00:00,20.48891     ,85.84768     ,CO,18,38,32
India,Odisha,Keonjhar,"Jagamohanpur, Keonjhar - OSPCB",07-04-2024 16:00:00,21.643900,85.599355,PM10,106,164,131
India,Odisha,Rairangpur,"Divisional Forest Office, Rairangpur - OSPCB",07-04-2024 16:00:00,22.265816,86.174829,PM2.5,67,149,100
India,Odisha,Rairangpur,"Divisional Forest Office, Rairangpur - OSPCB",07-04-2024 16:00:00,22.265816,86.174829,PM10,63,142,102
India,Odisha,Rourkela,"Raghunathpali, Rourkela - OSPCB",07-04-2024 16:00:00,22.220833,84.809444,NH3,1,3,2
India,Odisha,Rourkela,"Sector-2, Rourkela - OSPCB",07-04-2024 16:00:00,22.24500000,84.88111111,PM10,NA,NA,NA
India,Odisha,Suakati,"OMC Colony, Suakati - OSPCB",07-04-2024 16:00:00,21.606865,85.510538,PM10,96,169,136
India,Odisha,Suakati,"OMC Colony, Suakati - OSPCB",07-04-2024 16:00:00,21.606865,85.510538,NH3,4,5,4
India,Odisha,Suakati,"OMC Colony, Suakati - OSPCB",07-04-2024 16:00:00,21.606865,85.510538,CO,20,27,22
India,Odisha,Talcher,"Talcher Coalfields,Talcher - OSPCB",07-04-2024 16:00:00,20.9360711,85.1707021,CO,NA,NA,NA
India,Odisha,Tensa,"Barsua Iron Ore Mines, Tensa - OSPCB",07-04-2024 16:00:00,21.869985,85.167016,PM10,109,246,140
India,Punjab,Amritsar,"Golden Temple, Amritsar - PPCB",07-04-2024 16:00:00,31.620000,74.876512,NO2,10,47,26
India,Punjab,Amritsar,"Golden Temple, Amritsar - PPCB",07-04-2024 16:00:00,31.620000,74.876512,OZONE,49,63,57
India,Punjab,Bathinda,"Hardev Nagar, Bathinda - PPCB",07-04-2024 16:00:00,30.233011,74.907758,NO2,25,28,27
India,Punjab,Jalandhar,"Civil Line, Jalandhar - PPCB",07-04-2024 16:00:00,31.321907,75.578914,PM2.5,42,88,65
India,Punjab,Jalandhar,"Civil Line, Jalandhar - PPCB",07-04-2024 16:00:00,31.321907,75.578914,OZONE,34,95,69
India,Punjab,Mandi Gobindgarh,"RIMT University, Mandi Gobindgarh - PPCB",07-04-2024 16:00:00,30.649961,76.331442,NH3,NA,NA,NA
India,Punjab,Patiala,"Model Town, Patiala - PPCB",07-04-2024 16:00:00,30.349388,76.366642,NH3,5,5,5
India,Punjab,Patiala,"Model Town, Patiala - PPCB",07-04-2024 16:00:00,30.349388,76.366642,CO,17,36,25
India,Punjab,Rupnagar,"Ratanpura, Rupnagar - Ambuja Cements",07-04-2024 16:00:00,31.0325454,76.5623046,PM2.5,26,213,85
India,Punjab,Rupnagar,"Ratanpura, Rupnagar - Ambuja Cements",07-04-2024 16:00:00,31.0325454,76.5623046,SO2,6,13,10
India,Punjab,Rupnagar,"Ratanpura, Rupnagar - Ambuja Cements",07-04-2024 16:00:00,31.0325454,76.5623046,CO,26,54,35
India,Rajasthan,Ajmer,"Civil Lines,  Ajmer - RSPCB",07-04-2024 16:00:00,26.470859,74.646594,SO2,4,15,9
India,Rajasthan,Alwar,"Moti Doongri, Alwar - RSPCB",07-04-2024 16:00:00,27.554793,76.611536,PM10,51,125,83
India,Rajasthan,Alwar,"Moti Doongri, Alwar - RSPCB",07-04-2024 16:00:00,27.554793,76.611536,NH3,4,9,6
India,Rajasthan,Alwar,"Moti Doongri, Alwar - RSPCB",07-04-2024 16:00:00,27.554793,76.611536,CO,4,68,33
India,Rajasthan,Banswara,"Rati Talai, Banswara - RSPCB",07-04-2024 16:00:00,23.555190,74.440010,PM2.5,22,114,64
India,Rajasthan,Banswara,"Rati Talai, Banswara - RSPCB",07-04-2024 16:00:00,23.555190,74.440010,NH3,3,4,4
India,Rajasthan,Barmer,"Railway Colony, Barmer - RSPCB",07-04-2024 16:00:00,25.747299,71.393989,PM2.5,14,42,24
India,Rajasthan,Barmer,"Railway Colony, Barmer - RSPCB",07-04-2024 16:00:00,25.747299,71.393989,NH3,6,13,10
India,Rajasthan,Barmer,"Railway Colony, Barmer - RSPCB",07-04-2024 16:00:00,25.747299,71.393989,CO,7,32,13
India,Rajasthan,Barmer,"Railway Colony, Barmer - RSPCB",07-04-2024 16:00:00,25.747299,71.393989,OZONE,60,120,97
India,Rajasthan,Bharatpur,"Krishna Nagar, Bharatpur - RSPCB",07-04-2024 16:00:00,27.215415,77.50873,CO,10,133,50
India,Rajasthan,Bhiwadi,"RIICO Ind. Area III, Bhiwadi - RSPCB",07-04-2024 16:00:00,28.194909,76.862296,PM10,111,227,176
India,Rajasthan,Bhiwadi,"RIICO Ind. Area III, Bhiwadi - RSPCB",07-04-2024 16:00:00,28.194909,76.862296,SO2,8,38,19
India,Rajasthan,Bhiwadi,"Vasundhara Nagar_UIT, Bhiwadi - RSPCB",07-04-2024 16:00:00,28.207266,76.829265,NO2,13,68,33
India,Rajasthan,Bhiwadi,"Vasundhara Nagar_UIT, Bhiwadi - RSPCB",07-04-2024 16:00:00,28.207266,76.829265,NH3,7,17,12
India,Rajasthan,Bikaner,"MM Ground, Bikaner - RSPCB",07-04-2024 16:00:00,28.018792,73.292658,PM10,74,280,149
India,Rajasthan,Bikaner,"MM Ground, Bikaner - RSPCB",07-04-2024 16:00:00,28.018792,73.292658,NH3,11,17,14
India,Rajasthan,Bikaner,"MM Ground, Bikaner - RSPCB",07-04-2024 16:00:00,28.018792,73.292658,CO,17,89,47
India,Rajasthan,Bundi,"New Colony, Bundi - RSPCB",07-04-2024 16:00:00,25.435774,75.644272,PM2.5,22,92,45
India,Rajasthan,Bundi,"New Colony, Bundi - RSPCB",07-04-2024 16:00:00,25.435774,75.644272,NH3,3,3,3
India,Rajasthan,Bundi,"New Colony, Bundi - RSPCB",07-04-2024 16:00:00,25.435774,75.644272,SO2,3,8,5
India,Rajasthan,Bundi,"New Colony, Bundi - RSPCB",07-04-2024 16:00:00,25.435774,75.644272,CO,8,44,15
India,Rajasthan,Chittorgarh,"Shastri Nagar, Chittorgarh - RSPCB",07-04-2024 16:00:00,24.892047,74.623527,CO,16,50,32
India,Rajasthan,Chittorgarh,"Shastri Nagar, Chittorgarh - RSPCB",07-04-2024 16:00:00,24.892047,74.623527,OZONE,21,147,108
India,Rajasthan,Churu,"Subash Chowk, Churu - RSPCB",07-04-2024 16:00:00,28.296139,74.961696,NO2,10,85,35
India,Rajasthan,Churu,"Subash Chowk, Churu - RSPCB",07-04-2024 16:00:00,28.296139,74.961696,CO,10,36,18
India,Rajasthan,Churu,"Subash Chowk, Churu - RSPCB",07-04-2024 16:00:00,28.296139,74.961696,OZONE,26,154,152
India,Rajasthan,Dausa,"Khatikan Mohalla, Dausa - RSPCB",07-04-2024 16:00:00,26.895552,76.334753,PM10,82,270,129
India,Rajasthan,Dausa,"Khatikan Mohalla, Dausa - RSPCB",07-04-2024 16:00:00,26.895552,76.334753,NO2,31,106,60
India,Rajasthan,Dausa,"Khatikan Mohalla, Dausa - RSPCB",07-04-2024 16:00:00,26.895552,76.334753,NH3,3,9,5
India,Rajasthan,Dungarpur,"Bhoiwada, Dungarpur - RSPCB",07-04-2024 16:00:00,23.837789,73.714926,CO,24,70,35
India,Rajasthan,Jaipur,"Adarsh Nagar, Jaipur - RSPCB",07-04-2024 16:00:00,26.902909,75.836858,PM10,54,112,76
India,Rajasthan,Jaipur,"Mansarovar Sector-12, Jaipur - RSPCB",07-04-2024 16:00:00,26.843698,75.766894,NO2,10,133,43
India,Rajasthan,Jaipur,"Police Commissionerate, Jaipur - RSPCB",07-04-2024 16:00:00,26.9164092,75.7994901,PM2.5,56,125,79
India,Rajasthan,Jaipur,"Police Commissionerate, Jaipur - RSPCB",07-04-2024 16:00:00,26.9164092,75.7994901,CO,24,86,35
India,Rajasthan,Jaipur,"Sector-2 Murlipura, Jaipur - RSPCB",07-04-2024 16:00:00,26.960669,75.771817,NH3,3,18,8
India,Rajasthan,Jaipur,"Sector-2 Murlipura, Jaipur - RSPCB",07-04-2024 16:00:00,26.960669,75.771817,CO,28,101,44
India,Rajasthan,Jaisalmer,"Sadar Bazar, Jaisalmer - RSPCB",07-04-2024 16:00:00,26.912329,70.909168,PM2.5,8,326,63
India,Rajasthan,Jaisalmer,"Sadar Bazar, Jaisalmer - RSPCB",07-04-2024 16:00:00,26.912329,70.909168,OZONE,2,114,93
India,Rajasthan,Jalore,"Mudtra Sili, Jalore - RSPCB",07-04-2024 16:00:00,25.344694,72.626208,PM10,85,231,124
India,Rajasthan,Jalore,"Mudtra Sili, Jalore - RSPCB",07-04-2024 16:00:00,25.344694,72.626208,SO2,3,13,6
India,Rajasthan,Jhalawar,"Rajlaxmi Nagar, Jhalawar - RSPCB",07-04-2024 16:00:00,24.588397,76.172782,NH3,3,7,5
India,Rajasthan,Jhalawar,"Rajlaxmi Nagar, Jhalawar - RSPCB",07-04-2024 16:00:00,24.588397,76.172782,OZONE,11,108,90
India,Rajasthan,Jhunjhunu,"Indra Nagar, Jhunjhunu - RSPCB",07-04-2024 16:00:00,28.108988,75.386577,PM2.5,7,71,38
India,Rajasthan,Jhunjhunu,"Indra Nagar, Jhunjhunu - RSPCB",07-04-2024 16:00:00,28.108988,75.386577,CO,1,40,18
India,Rajasthan,Jodhpur,"Mandor, Jodhpur - RSPCB",07-04-2024 16:00:00,26.358805,73.047444,NO2,27,107,52
India,Rajasthan,Jodhpur,"Samrat Ashok Udhyan, Jodhpur - RSPCB",07-04-2024 16:00:00,26.253384,72.976571,PM2.5,3,146,49
India,Rajasthan,Jodhpur,"Samrat Ashok Udhyan, Jodhpur - RSPCB",07-04-2024 16:00:00,26.253384,72.976571,SO2,4,22,9
India,Rajasthan,Karauli,"Satyawati Vihar, Karauli - RSPCB",07-04-2024 16:00:00,26.506177,77.025989,SO2,17,54,25
India,Rajasthan,Karauli,"Satyawati Vihar, Karauli - RSPCB",07-04-2024 16:00:00,26.506177,77.025989,OZONE,3,39,27
India,Rajasthan,Kota,"Dhanmandi, Kota - RSPCB",07-04-2024 16:00:00,25.164090,75.858137,OZONE,2,132,111
India,Rajasthan,Kota,"Nayapura, Kota - RSPCB",07-04-2024 16:00:00,25.196024,75.855668,OZONE,3,150,129
India,Rajasthan,Kota,"Shrinath Puram, Kota - RSPCB",07-04-2024 16:00:00,25.14389,75.821256,NH3,6,14,9
India,Rajasthan,Nagaur,"Karni Colony, Nagaur - RSPCB",07-04-2024 16:00:00,27.213494,73.734444,CO,8,30,19
India,Rajasthan,Nagaur,"Karni Colony, Nagaur - RSPCB",07-04-2024 16:00:00,27.213494,73.734444,OZONE,62,81,75
India,Rajasthan,Pali,"Indira Colony Vistar, Pali - RSPCB",07-04-2024 16:00:00,25.771061, 73.340227,NO2,18,32,25
India,Rajasthan,Pali,"Indira Colony Vistar, Pali - RSPCB",07-04-2024 16:00:00,25.771061, 73.340227,OZONE,9,63,43
India,Rajasthan,Pratapgarh,"Pragati Nagar, Pratapgarh - RSPCB",07-04-2024 16:00:00,24.041198,74.780702,PM10,64,173,98
India,Rajasthan,Rajsamand,"Dhoinda, Rajsamand - RSPCB",07-04-2024 16:00:00,25.036360,73.883502,CO,56,78,68
India,Rajasthan,Sawai Madhopur,"Sahu Nagar, Sawai Madhopur - RSPCB",07-04-2024 16:00:00,26.031443,76.359327,NH3,1,13,7
India,Rajasthan,Sawai Madhopur,"Sahu Nagar, Sawai Madhopur - RSPCB",07-04-2024 16:00:00,26.031443,76.359327,CO,10,104,26
India,Rajasthan,Sawai Madhopur,"Sahu Nagar, Sawai Madhopur - RSPCB",07-04-2024 16:00:00,26.031443,76.359327,OZONE,7,122,102
India,Rajasthan,Sikar,"Radhakishan Pura, Sikar - RSPCB",07-04-2024 16:00:00,27.608912,75.153302,NO2,7,56,18
India,Rajasthan,Sikar,"Radhakishan Pura, Sikar - RSPCB",07-04-2024 16:00:00,27.608912,75.153302,SO2,1,7,4
India,Rajasthan,Sirohi,"Vedhaynath Colony, Sirohi - RSPCB",07-04-2024 16:00:00,24.885261,72.857549,PM2.5,36,97,60
India,Rajasthan,Sirohi,"Vedhaynath Colony, Sirohi - RSPCB",07-04-2024 16:00:00,24.885261,72.857549,CO,12,36,22
India,Rajasthan,Sri Ganganagar,"Old City, Sri Ganganagar - RSPCB",07-04-2024 16:00:00,29.931624,73.864511,PM2.5,12,336,153
India,Rajasthan,Sri Ganganagar,"Old City, Sri Ganganagar - RSPCB",07-04-2024 16:00:00,29.931624,73.864511,NH3,2,34,14
India,Rajasthan,Sri Ganganagar,"Old City, Sri Ganganagar - RSPCB",07-04-2024 16:00:00,29.931624,73.864511,SO2,2,24,8
India,Rajasthan,Sri Ganganagar,"Old City, Sri Ganganagar - RSPCB",07-04-2024 16:00:00,29.931624,73.864511,CO,9,125,55
India,Rajasthan,Tonk,"Shastri Nagar, Tonk - RSPCB",07-04-2024 16:00:00,26.159933,75.780517,NO2,5,50,28
India,Rajasthan,Tonk,"Shastri Nagar, Tonk - RSPCB",07-04-2024 16:00:00,26.159933,75.780517,CO,6,37,12
India,Rajasthan,Udaipur,"Ashok Nagar, Udaipur - RSPCB",07-04-2024 16:00:00,24.5886166,73.6321397,NO2,63,123,98
India,Rajasthan,Udaipur,"Ashok Nagar, Udaipur - RSPCB",07-04-2024 16:00:00,24.5886166,73.6321397,NH3,6,8,7
India,Rajasthan,Udaipur,"Ashok Nagar, Udaipur - RSPCB",07-04-2024 16:00:00,24.5886166,73.6321397,SO2,5,15,9
India,Sikkim,Gangtok,"Zero Point GICI, Gangtok - SSPCB",07-04-2024 16:00:00,27.338530,88.614099,PM10,49,78,63
India,Sikkim,Gangtok,"Zero Point GICI, Gangtok - SSPCB",07-04-2024 16:00:00,27.338530,88.614099,NO2,1,12,3
India,Sikkim,Gangtok,"Zero Point GICI, Gangtok - SSPCB",07-04-2024 16:00:00,27.338530,88.614099,OZONE,42,107,66
India,TamilNadu,Ariyalur,"Keelapalur, Ariyalur - TNPCB",07-04-2024 16:00:00,11.06825,79.07033,PM2.5,NA,NA,NA
India,TamilNadu,Chennai,"Alandur Bus Depot, Chennai - CPCB",07-04-2024 16:00:00,12.9099161,80.1076538,PM10,31,54,43
India,TamilNadu,Chennai,"Alandur Bus Depot, Chennai - CPCB",07-04-2024 16:00:00,12.9099161,80.1076538,NO2,6,12,7
India,TamilNadu,Chennai,"Alandur Bus Depot, Chennai - CPCB",07-04-2024 16:00:00,12.9099161,80.1076538,CO,52,104,81
India,TamilNadu,Chennai,"Kodungaiyur, Chennai - TNPCB",07-04-2024 16:00:00,13.1278,80.2642,PM10,27,104,55
India,TamilNadu,Chennai,"Kodungaiyur, Chennai - TNPCB",07-04-2024 16:00:00,13.1278,80.2642,OZONE,5,6,6
India,TamilNadu,Chennai,"Royapuram, Chennai - TNPCB",07-04-2024 16:00:00,13.1036,80.2909,NO2,7,21,12
India,TamilNadu,Cuddalore,"Semmandalam, Cuddalore - TNPCB",07-04-2024 16:00:00,11.7637683,79.7499835,PM2.5,NA,NA,NA
India,TamilNadu,Cuddalore,"Semmandalam, Cuddalore - TNPCB",07-04-2024 16:00:00,11.7637683,79.7499835,OZONE,1,2,2
India,TamilNadu,Gummidipoondi,"Anthoni Pillai Nagar, Gummidipoondi - TNPCB",07-04-2024 16:00:00,13.4127,80.1081,PM2.5,39,268,102
India,TamilNadu,Ramanathapuram,"Chalai Bazaar, Ramanathapuram - TNPCB",07-04-2024 16:00:00,9.36399,78.831977,PM10,22,47,33
India,TamilNadu,Ramanathapuram,"Chalai Bazaar, Ramanathapuram - TNPCB",07-04-2024 16:00:00,9.36399,78.831977,SO2,5,9,8
India,TamilNadu,Ramanathapuram,"Chalai Bazaar, Ramanathapuram - TNPCB",07-04-2024 16:00:00,9.36399,78.831977,CO,1,6,4
India,TamilNadu,Thoothukudi,"Meelavittan, Thoothukudi - TNPCB",07-04-2024 16:00:00,8.816428 ,78.099039,SO2,7,56,22
India,TamilNadu,Tirupur,"Kumaran College, Tirupur - TNPCB",07-04-2024 16:00:00,11.0973603,77.3228673,NH3,NA,NA,NA
India,TamilNadu,Tirupur,"Kumaran College, Tirupur - TNPCB",07-04-2024 16:00:00,11.0973603,77.3228673,OZONE,6,7,7
India,TamilNadu,Vellore,"Vasanthapuram, Vellore - TNPCB",07-04-2024 16:00:00,12.909494,79.131861,NH3,1,1,1
India,Telangana,Hyderabad,"Bollaram Industrial Area, Hyderabad - TSPCB",07-04-2024 16:00:00,17.540891,78.358528,NO2,20,53,32
India,Telangana,Hyderabad,"Bollaram Industrial Area, Hyderabad - TSPCB",07-04-2024 16:00:00,17.540891,78.358528,SO2,15,97,33
India,Telangana,Hyderabad,"Bollaram Industrial Area, Hyderabad - TSPCB",07-04-2024 16:00:00,17.540891,78.358528,OZONE,35,36,36
India,Telangana,Hyderabad,"Central University, Hyderabad - TSPCB",07-04-2024 16:00:00,17.460103,78.334361,PM10,58,133,87
India,Telangana,Hyderabad,"ICRISAT Patancheru, Hyderabad - TSPCB",07-04-2024 16:00:00,17.518400,78.278777,NH3,2,2,2
India,Telangana,Hyderabad,"ICRISAT Patancheru, Hyderabad - TSPCB",07-04-2024 16:00:00,17.518400,78.278777,CO,32,121,43
India,Telangana,Hyderabad,"Kokapet, Hyderabad - TSPCB",07-04-2024 16:00:00,17.393559,78.339194,OZONE,2,10,8
India,Telangana,Hyderabad,"Kompally Municipal Office, Hyderabad - TSPCB",07-04-2024 16:00:00,17.544899,78.486949,NO2,NA,NA,NA
India,Telangana,Hyderabad,"Kompally Municipal Office, Hyderabad - TSPCB",07-04-2024 16:00:00,17.544899,78.486949,OZONE,24,99,75
India,Telangana,Hyderabad,"New Malakpet, Hyderabad - TSPCB",07-04-2024 16:00:00,17.37206,78.50864,PM10,75,88,81
India,Telangana,Hyderabad,"New Malakpet, Hyderabad - TSPCB",07-04-2024 16:00:00,17.37206,78.50864,NH3,3,4,4
India,Telangana,Hyderabad,"Ramachandrapuram, Hyderabad - TSPCB",07-04-2024 16:00:00,17.528544,78.286195,NO2,7,10,9
India,Telangana,Hyderabad,"Somajiguda, Hyderabad - TSPCB",07-04-2024 16:00:00,17.417094,78.457437,NO2,NA,NA,NA
India,Telangana,Hyderabad,"Somajiguda, Hyderabad - TSPCB",07-04-2024 16:00:00,17.417094,78.457437,CO,NA,NA,NA
India,Telangana,Hyderabad,"Somajiguda, Hyderabad - TSPCB",07-04-2024 16:00:00,17.417094,78.457437,OZONE,NA,NA,NA
India,Telangana,Hyderabad,"Zoo Park, Hyderabad - TSPCB",07-04-2024 16:00:00,17.349694,78.451437,OZONE,18,40,34
India,Tripura,Agartala,"Bardowali, Agartala - Tripura SPCB",07-04-2024 16:00:00,23.8175497,91.2726974,NO2,5,11,8
India,Tripura,Agartala,"Bardowali, Agartala - Tripura SPCB",07-04-2024 16:00:00,23.8175497,91.2726974,OZONE,2,25,11
India,Uttar_Pradesh,Agra,"Manoharpur, Agra - UPPCB",07-04-2024 16:00:00,27.23711,78.01936,NH3,1,3,2
India,Uttar_Pradesh,Agra,"Rohta, Agra - UPPCB",07-04-2024 16:00:00,27.106972,78.000111,NO2,2,2,2
India,Uttar_Pradesh,Agra,"Rohta, Agra - UPPCB",07-04-2024 16:00:00,27.106972,78.000111,CO,5,34,13
India,Uttar_Pradesh,Agra,"Sanjay Palace, Agra - UPPCB",07-04-2024 16:00:00,27.19865833,78.00598056,CO,6,149,31
India,Uttar_Pradesh,Agra,"Sector-3B Avas Vikas Colony, Agra - UPPCB",07-04-2024 16:00:00,27.19412,77.96237,PM2.5,7,115,39
India,Uttar_Pradesh,Agra,"Sector-3B Avas Vikas Colony, Agra - UPPCB",07-04-2024 16:00:00,27.19412,77.96237,PM10,29,209,81
India,Uttar_Pradesh,Agra,"Shahjahan Garden, Agra - UPPCB",07-04-2024 16:00:00,27.169338,78.03582,PM2.5,NA,NA,NA
India,Uttar_Pradesh,Agra,"Shahjahan Garden, Agra - UPPCB",07-04-2024 16:00:00,27.169338,78.03582,NO2,NA,NA,NA
India,Uttar_Pradesh,Agra,"Shahjahan Garden, Agra - UPPCB",07-04-2024 16:00:00,27.169338,78.03582,CO,12,14,12
India,Uttar_Pradesh,Baghpat,"Sardar Patel Inter College, Baghpat - UPPCB",07-04-2024 16:00:00,28.964949,77.278761,PM2.5,21,102,59
India,Uttar_Pradesh,Bareilly,"Rajendra Nagar, Bareilly - UPPCB",07-04-2024 16:00:00,28.38910936,79.42963708,SO2,43,47,45
India,Uttar_Pradesh,Bulandshahr,"Yamunapuram, Bulandshahr - UPPCB",07-04-2024 16:00:00,28.406963,77.849831,CO,18,82,35
India,Uttar_Pradesh,Firozabad,"Nagla Bhau, Firozabad - UPPCB",07-04-2024 16:00:00,27.168897,78.376960,PM10,14,125,46
India,Uttar_Pradesh,Firozabad,"Nagla Bhau, Firozabad - UPPCB",07-04-2024 16:00:00,27.168897,78.376960,OZONE,16,23,17
India,Uttar_Pradesh,Firozabad,"Vibhab Nagar, Firozabad - UPPCB",07-04-2024 16:00:00,27.1594,78.3953,NO2,14,14,14
India,Uttar_Pradesh,Ghaziabad,"Indirapuram, Ghaziabad - UPPCB",07-04-2024 16:00:00,28.646233,77.358075,PM10,79,191,140
India,Uttar_Pradesh,Ghaziabad,"Loni, Ghaziabad - UPPCB",07-04-2024 16:00:00,28.757294,77.278792,PM2.5,18,333,144
India,Uttar_Pradesh,Ghaziabad,"Vasundhara, Ghaziabad - UPPCB",07-04-2024 16:00:00,28.6603346,77.3572563,PM2.5,16,173,89
India,Uttar_Pradesh,Ghaziabad,"Vasundhara, Ghaziabad - UPPCB",07-04-2024 16:00:00,28.6603346,77.3572563,NH3,11,24,17
India,Uttar_Pradesh,Gorakhpur,"Madan Mohan Malaviya University of Technology, Gorakhpur - UPPCB",07-04-2024 16:00:00,26.730136,83.433859,PM2.5,38,189,90
India,Uttar_Pradesh,Gorakhpur,"Madan Mohan Malaviya University of Technology, Gorakhpur - UPPCB",07-04-2024 16:00:00,26.730136,83.433859,PM10,58,126,99
India,Uttar_Pradesh,Gorakhpur,"Madan Mohan Malaviya University of Technology, Gorakhpur - UPPCB",07-04-2024 16:00:00,26.730136,83.433859,NO2,2,2,2
India,Uttar_Pradesh,Gorakhpur,"Madan Mohan Malaviya University of Technology, Gorakhpur - UPPCB",07-04-2024 16:00:00,26.730136,83.433859,SO2,38,48,42
India,Uttar_Pradesh,Gorakhpur,"Madan Mohan Malaviya University of Technology, Gorakhpur - UPPCB",07-04-2024 16:00:00,26.730136,83.433859,OZONE,5,71,59
India,Uttar_Pradesh,Jhansi,"Shivaji Nagar, Jhansi - UPPCB",07-04-2024 16:00:00,25.4547,78.6039,NO2,2,64,26
India,Uttar_Pradesh,Kanpur,"FTI Kidwai Nagar, Kanpur - UPPCB",07-04-2024 16:00:00,26.428282,80.327067,OZONE,3,11,8
India,Uttar_Pradesh,Kanpur,"NSI Kalyanpur, Kanpur - UPPCB",07-04-2024 16:00:00,26.509954,80.249612,SO2,18,23,20
India,Uttar_Pradesh,Kanpur,"Nehru Nagar, Kanpur - UPPCB",07-04-2024 16:00:00,26.4703136,80.3229863,PM10,7,110,51
India,Uttar_Pradesh,Khurja,"Kalindi Kunj, Khurja - UPPCB",07-04-2024 16:00:00,28.2348927,77.8683002,CO,32,62,51
India,Uttar_Pradesh,Lucknow,"B R Ambedkar University, Lucknow - UPPCB",07-04-2024 16:00:00,26.766433,80.927299,SO2,31,41,34
India,Uttar_Pradesh,Lucknow,"B R Ambedkar University, Lucknow - UPPCB",07-04-2024 16:00:00,26.766433,80.927299,OZONE,21,85,72
India,Uttar_Pradesh,Lucknow,"Gomti Nagar, Lucknow - UPPCB",07-04-2024 16:00:00,26.868120,81.005119,PM2.5,28,182,100
India,Uttar_Pradesh,Lucknow,"Gomti Nagar, Lucknow - UPPCB",07-04-2024 16:00:00,26.868120,81.005119,SO2,4,17,11
India,Uttar_Pradesh,Lucknow,"Kendriya Vidyalaya, Lucknow - CPCB",07-04-2024 16:00:00,26.906111,80.948222,PM2.5,31,102,72
India,Uttar_Pradesh,Lucknow,"Kendriya Vidyalaya, Lucknow - CPCB",07-04-2024 16:00:00,26.906111,80.948222,OZONE,25,64,54
India,Uttar_Pradesh,Lucknow,"Kukrail Picnic Spot-1, Lucknow - UPPCB",07-04-2024 16:00:00,26.90723,80.98579,PM10,44,152,95
India,Uttar_Pradesh,Lucknow,"Kukrail Picnic Spot-1, Lucknow - UPPCB",07-04-2024 16:00:00,26.90723,80.98579,NO2,8,9,8
India,Uttar_Pradesh,Meerut,"Pallavpuram Phase 2, Meerut - UPPCB",07-04-2024 16:00:00,29.063510,77.709723,NO2,14,76,42
India,Uttar_Pradesh,Meerut,"Pallavpuram Phase 2, Meerut - UPPCB",07-04-2024 16:00:00,29.063510,77.709723,OZONE,23,99,80
India,Uttar_Pradesh,Moradabad,"Eco Herbal Park, Moradabad - UPPCB",07-04-2024 16:00:00,28.840739,78.697531,PM10,38,120,80
India,Uttar_Pradesh,Moradabad,"Eco Herbal Park, Moradabad - UPPCB",07-04-2024 16:00:00,28.840739,78.697531,CO,32,107,55
India,Uttar_Pradesh,Moradabad,"Employment Office, Moradabad - UPPCB",07-04-2024 16:00:00,28.88528,78.73880,NO2,16,24,19
India,Uttar_Pradesh,Moradabad,"Employment Office, Moradabad - UPPCB",07-04-2024 16:00:00,28.88528,78.73880,OZONE,1,84,32
India,Uttar_Pradesh,Moradabad,"Jigar Colony, Moradabad - UPPCB",07-04-2024 16:00:00,28.856664,78.772638,NH3,3,6,4
India,Uttar_Pradesh,Moradabad,"Kashiram Nagar, Moradabad - UPPCB",07-04-2024 16:00:00,28.849399,78.742362,OZONE,17,139,50
India,Uttar_Pradesh,Moradabad,"Transport Nagar, Moradabad - UPPCB",07-04-2024 16:00:00,28.802625,78.753728,PM2.5,10,126,47
India,Uttar_Pradesh,Moradabad,"Transport Nagar, Moradabad - UPPCB",07-04-2024 16:00:00,28.802625,78.753728,PM10,37,119,78
India,Uttar_Pradesh,Moradabad,"Transport Nagar, Moradabad - UPPCB",07-04-2024 16:00:00,28.802625,78.753728,CO,39,42,40
India,Uttar_Pradesh,Muzaffarnagar,"New Mandi, Muzaffarnagar - UPPCB",07-04-2024 16:00:00,29.4723508,77.7194031,NO2,20,57,31
India,Uttar_Pradesh,Muzaffarnagar,"New Mandi, Muzaffarnagar - UPPCB",07-04-2024 16:00:00,29.4723508,77.7194031,NH3,9,11,10
India,Uttar_Pradesh,Noida,"Sector - 125, Noida - UPPCB",07-04-2024 16:00:00,28.5447608,77.3231257,NH3,3,23,12
India,Uttar_Pradesh,Noida,"Sector - 62, Noida - IMD",07-04-2024 16:00:00,28.6245479,77.3577104,PM2.5,9,248,93
India,Uttar_Pradesh,Noida,"Sector-1, Noida - UPPCB",07-04-2024 16:00:00,28.5898,77.3101,OZONE,1,160,112
India,Uttar_Pradesh,Noida,"Sector-116, Noida - UPPCB",07-04-2024 16:00:00,28.569230,77.393848,SO2,19,61,34
India,Uttar_Pradesh,Noida,"Sector-116, Noida - UPPCB",07-04-2024 16:00:00,28.569230,77.393848,CO,44,104,67
India,Uttar_Pradesh,Noida,"Sector-116, Noida - UPPCB",07-04-2024 16:00:00,28.569230,77.393848,OZONE,2,47,30
India,Uttar_Pradesh,Prayagraj,"Motilal Nehru NIT, Prayagraj - UPPCB",07-04-2024 16:00:00,25.494,81.863,PM10,34,122,69
India,Uttar_Pradesh,Prayagraj,"Motilal Nehru NIT, Prayagraj - UPPCB",07-04-2024 16:00:00,25.494,81.863,NO2,12,12,12
India,Uttar_Pradesh,Prayagraj,"Motilal Nehru NIT, Prayagraj - UPPCB",07-04-2024 16:00:00,25.494,81.863,OZONE,5,45,27
India,Uttar_Pradesh,Prayagraj,"Nagar Nigam, Prayagraj - UPPCB",07-04-2024 16:00:00,25.44919916 ,81.82735986 ,NO2,5,5,5
India,Uttar_Pradesh,Varanasi,"Ardhali Bazar, Varanasi - UPPCB",07-04-2024 16:00:00,25.3505986,82.9083074,PM10,14,61,32
India,Uttar_Pradesh,Varanasi,"Ardhali Bazar, Varanasi - UPPCB",07-04-2024 16:00:00,25.3505986,82.9083074,OZONE,11,16,13
India,Uttar_Pradesh,Varanasi,"Bhelupur, Varanasi - UPPCB",07-04-2024 16:00:00,25.301778,82.996789,PM10,22,58,36
India,Uttar_Pradesh,Varanasi,"Bhelupur, Varanasi - UPPCB",07-04-2024 16:00:00,25.301778,82.996789,NO2,8,8,8
India,Uttar_Pradesh,Varanasi,"IESD Banaras Hindu University, Varanasi - UPPCB",07-04-2024 16:00:00,25.262326,82.995408,NH3,1,3,2
India,Uttar_Pradesh,Varanasi,"Maldahiya, Varanasi - UPPCB",07-04-2024 16:00:00,25.32393,82.99687,NH3,1,1,1
India,Uttarakhand,Dehradun,"Doon University, Dehradun - UKPCB",07-04-2024 16:00:00,30.269444,78.044167,PM10,43,125,76
India,Uttarakhand,Dehradun,"Doon University, Dehradun - UKPCB",07-04-2024 16:00:00,30.269444,78.044167,OZONE,54,139,104
India,Uttarakhand,Kashipur,"Govt. Girls Inter College, Kashipur - UKPCB",07-04-2024 16:00:00,29.2124114,78.9611753,PM10,45,159,90
India,Uttarakhand,Rishikesh,"Shivaji Nagar, Rishikesh - UKPCB",07-04-2024 16:00:00,30.075911,78.2859547,OZONE,21,144,88
India,West_Bengal,Asansol,"Asansol Court Area, Asansol - WBPCB",07-04-2024 16:00:00,23.685297,86.945968,PM10,118,194,146
India,West_Bengal,Asansol,"Asansol Court Area, Asansol - WBPCB",07-04-2024 16:00:00,23.685297,86.945968,NH3,4,8,6
India,West_Bengal,Barrackpore,"SVSPA Campus, Barrackpore - WBPCB",07-04-2024 16:00:00,22.7605581,88.3617589,PM10,46,135,98
India,West_Bengal,Durgapur,"PCBL Residential Complex, Durgapur - WBPCB",07-04-2024 16:00:00,23.5087640,87.3544400,PM2.5,127,392,239
India,West_Bengal,Durgapur,"PCBL Residential Complex, Durgapur - WBPCB",07-04-2024 16:00:00,23.5087640,87.3544400,NH3,2,3,2
India,West_Bengal,Durgapur,"PCBL Residential Complex, Durgapur - WBPCB",07-04-2024 16:00:00,23.5087640,87.3544400,CO,102,120,106
India,West_Bengal,Durgapur,"Sidhu Kanhu Indoor Stadium, Durgapur - WBPCB",07-04-2024 16:00:00,23.5404352,87.2892225,PM2.5,98,259,179
India,West_Bengal,Howrah,"Belur Math, Howrah - WBPCB",07-04-2024 16:00:00,22.629801,88.352017,PM2.5,48,107,72
India,West_Bengal,Howrah,"Belur Math, Howrah - WBPCB",07-04-2024 16:00:00,22.629801,88.352017,NO2,7,23,14
India,West_Bengal,Howrah,"Belur Math, Howrah - WBPCB",07-04-2024 16:00:00,22.629801,88.352017,CO,6,60,25
India,West_Bengal,Howrah,"Ghusuri, Howrah - WBPCB",07-04-2024 16:00:00,22.611968,88.347422,NH3,2,4,3
India,West_Bengal,Howrah,"Ghusuri, Howrah - WBPCB",07-04-2024 16:00:00,22.611968,88.347422,SO2,4,7,5
India,West_Bengal,Howrah,"Ghusuri, Howrah - WBPCB",07-04-2024 16:00:00,22.611968,88.347422,CO,2,26,17
India,West_Bengal,Kolkata,"Ballygunge, Kolkata - WBPCB",07-04-2024 16:00:00,22.5367507,88.3638022,NO2,11,63,23
India,West_Bengal,Kolkata,"Ballygunge, Kolkata - WBPCB",07-04-2024 16:00:00,22.5367507,88.3638022,SO2,7,10,8
India,West_Bengal,Kolkata,"Fort William, Kolkata - WBPCB",07-04-2024 16:00:00,22.556640,88.342674,SO2,7,13,8
India,West_Bengal,Kolkata,"Rabindra Bharati University, Kolkata - WBPCB",07-04-2024 16:00:00,22.627847,88.380669,NH3,14,16,15
India,West_Bengal,Kolkata,"Rabindra Bharati University, Kolkata - WBPCB",07-04-2024 16:00:00,22.627847,88.380669,SO2,4,11,6
India,West_Bengal,Kolkata,"Rabindra Bharati University, Kolkata - WBPCB",07-04-2024 16:00:00,22.627847,88.380669,OZONE,26,73,37
India,West_Bengal,Kolkata,"Victoria, Kolkata - WBPCB",07-04-2024 16:00:00,22.5448082,88.3403691,PM10,66,114,82
India,West_Bengal,Kolkata,"Victoria, Kolkata - WBPCB",07-04-2024 16:00:00,22.5448082,88.3403691,NH3,2,2,2
India,West_Bengal,Siliguri,"Ward-32 Bapupara, Siliguri - WBPCB",07-04-2024 16:00:00,26.6879226,88.4152495,NO2,26,129,51
India,West_Bengal,Siliguri,"Ward-32 Bapupara, Siliguri - WBPCB",07-04-2024 16:00:00,26.6879226,88.4152495,NH3,1,11,8
India,West_Bengal,Siliguri,"Ward-32 Bapupara, Siliguri - WBPCB",07-04-2024 16:00:00,26.6879226,88.4152495,CO,26,104,30
India,West_Bengal,Siliguri,"Ward-32 Bapupara, Siliguri - WBPCB",07-04-2024 16:00:00,26.6879226,88.4152495,OZONE,8,75,51
India,Andhra_Pradesh,Amaravati,"Secretariat, Amaravati - APPCB",07-04-2024 16:00:00,16.5150833,80.5181667,PM2.5,18,78,44
India,Andhra_Pradesh,Anantapur,"Gulzarpet, Anantapur - APPCB",07-04-2024 16:00:00,14.675886,77.593027,SO2,4,9,6
India,Andhra_Pradesh,Chittoor,"Gangineni Cheruvu, Chittoor - APPCB",07-04-2024 16:00:00,13.204880,79.097889,PM2.5,NA,NA,NA
India,Andhra_Pradesh,Chittoor,"Gangineni Cheruvu, Chittoor - APPCB",07-04-2024 16:00:00,13.204880,79.097889,PM10,NA,NA,NA
India,Andhra_Pradesh,Kadapa,"Yerramukkapalli, Kadapa - APPCB",07-04-2024 16:00:00,14.465052,78.824187,SO2,2,3,2
India,Andhra_Pradesh,Kadapa,"Yerramukkapalli, Kadapa - APPCB",07-04-2024 16:00:00,14.465052,78.824187,CO,10,32,20
India,Andhra_Pradesh,Rajamahendravaram,"Anand Kala Kshetram, Rajamahendravaram - APPCB",07-04-2024 16:00:00,16.9872867,81.7363176,PM10,34,112,59
India,Andhra_Pradesh,Rajamahendravaram,"Anand Kala Kshetram, Rajamahendravaram - APPCB",07-04-2024 16:00:00,16.9872867,81.7363176,NO2,8,32,19
India,Andhra_Pradesh,Rajamahendravaram,"Anand Kala Kshetram, Rajamahendravaram - APPCB",07-04-2024 16:00:00,16.9872867,81.7363176,OZONE,17,35,27
India,Andhra_Pradesh,Tirupati,"Tirumala, Tirupati - APPCB",07-04-2024 16:00:00,13.67,79.35,PM10,28,96,55
India,Andhra_Pradesh,Tirupati,"Tirumala, Tirupati - APPCB",07-04-2024 16:00:00,13.67,79.35,NH3,1,1,1
India,Andhra_Pradesh,Tirupati,"Vaikuntapuram, Tirupati - APPCB",07-04-2024 16:00:00,13.615387,79.409230,SO2,4,5,5
India,Andhra_Pradesh,Vijayawada,"HB Colony, Vijayawada - APPCB",07-04-2024 16:00:00,16.536107,80.594233,PM10,41,111,65
India,Andhra_Pradesh,Vijayawada,"HB Colony, Vijayawada - APPCB",07-04-2024 16:00:00,16.536107,80.594233,NH3,4,4,4
India,Andhra_Pradesh,Vijayawada,"HB Colony, Vijayawada - APPCB",07-04-2024 16:00:00,16.536107,80.594233,CO,37,38,38
India,Andhra_Pradesh,Vijayawada,"Kanuru, Vijayawada - APPCB",07-04-2024 16:00:00,16.486692,80.699436,NO2,NA,NA,NA
India,Andhra_Pradesh,Vijayawada,"Kanuru, Vijayawada - APPCB",07-04-2024 16:00:00,16.486692,80.699436,OZONE,28,28,28
India,Andhra_Pradesh,Vijayawada,"Rajiv Gandhi Park, Vijayawada - APPCB",07-04-2024 16:00:00,16.509717,80.612222,PM2.5,35,73,56
India,Andhra_Pradesh,Vijayawada,"Rajiv Gandhi Park, Vijayawada - APPCB",07-04-2024 16:00:00,16.509717,80.612222,PM10,35,84,61
India,Andhra_Pradesh,Vijayawada,"Rajiv Nagar, Vijayawada - APPCB",07-04-2024 16:00:00,16.554731,80.649110,SO2,13,25,19
India,Andhra_Pradesh,Vijayawada,"Rajiv Nagar, Vijayawada - APPCB",07-04-2024 16:00:00,16.554731,80.649110,CO,44,44,44
India,Andhra_Pradesh,Visakhapatnam,"GVM Corporation, Visakhapatnam - APPCB",07-04-2024 16:00:00,17.72,83.3,SO2,12,16,14
India,Andhra_Pradesh,Visakhapatnam,"GVM Corporation, Visakhapatnam - APPCB",07-04-2024 16:00:00,17.72,83.3,CO,9,54,19
India,Arunachal_Pradesh,Naharlagun,"Naharlagun, Naharlagun - APSPCB",07-04-2024 16:00:00,27.103358,93.679645,PM10,58,87,71
India,Assam,Byrnihat,"Central Academy for SFS, Byrnihat - PCBA",07-04-2024 16:00:00,26.071318,91.87488,NH3,NA,NA,NA
India,Assam,Byrnihat,"Central Academy for SFS, Byrnihat - PCBA",07-04-2024 16:00:00,26.071318,91.87488,OZONE,11,23,21
India,Assam,Guwahati,"IITG, Guwahati - PCBA",07-04-2024 16:00:00,26.2028636,91.70046436,PM2.5,80,334,192
India,Assam,Guwahati,"IITG, Guwahati - PCBA",07-04-2024 16:00:00,26.2028636,91.70046436,NO2,1,14,5
India,Assam,Guwahati,"IITG, Guwahati - PCBA",07-04-2024 16:00:00,26.2028636,91.70046436,SO2,11,16,13
India,Assam,Guwahati,"IITG, Guwahati - PCBA",07-04-2024 16:00:00,26.2028636,91.70046436,CO,8,27,13
India,Assam,Guwahati,"IITG, Guwahati - PCBA",07-04-2024 16:00:00,26.2028636,91.70046436,OZONE,5,54,40
India,Assam,Guwahati,"LGBI Airport, Guwahati - PCBA",07-04-2024 16:00:00,26.10887,91.589544,NO2,18,92,63
India,Assam,Guwahati,"Railway Colony, Guwahati - PCBA",07-04-2024 16:00:00,26.181742,91.78063,OZONE,1,30,23
India,Assam,Nagaon,"Christianpatty, Nagaon - PCBA",07-04-2024 16:00:00,26.349082,92.68449,PM10,84,125,102
India,Assam,Nalbari,"Bata Chowk, Nalbari - PCBA",07-04-2024 16:00:00,26.446912,91.439057,SO2,NA,NA,NA
India,Assam,Nalbari,"Bata Chowk, Nalbari - PCBA",07-04-2024 16:00:00,26.446912,91.439057,CO,88,134,116
India,Assam,Silchar,"Tarapur, Silchar - PCBA",07-04-2024 16:00:00,24.82827,92.79525,PM10,NA,NA,NA
India,Assam,Silchar,"Tarapur, Silchar - PCBA",07-04-2024 16:00:00,24.82827,92.79525,OZONE,1,11,4
India,Assam,Sivasagar,"Girls College, Sivasagar - PCBA",07-04-2024 16:00:00,26.987634,94.636574,CO,7,10,8
India,Bihar,Arrah,"New DM Office, Arrah - BSPCB",07-04-2024 16:00:00,25.5626095,84.663264,NO2,NA,NA,NA
India,Bihar,Arrah,"New DM Office, Arrah - BSPCB",07-04-2024 16:00:00,25.5626095,84.663264,CO,5,19,12
India,Bihar,Aurangabad,"Gurdeo Nagar, Aurangabad - BSPCB",07-04-2024 16:00:00,24.75746,84.366208,PM2.5,NA,NA,NA
India,Bihar,Bettiah,"Kamalnath Nagar, Bettiah - BSPCB",07-04-2024 16:00:00,26.80365,84.51954,NH3,3,10,3
India,Bihar,Bettiah,"Kamalnath Nagar, Bettiah - BSPCB",07-04-2024 16:00:00,26.80365,84.51954,SO2,12,20,16
India,Bihar,Bhagalpur,"DM Office_Kachari Chowk, Bhagalpur - BSPCB",07-04-2024 16:00:00,25.251013,86.989001,OZONE,44,51,47
India,Bihar,Bhagalpur,"Mayaganj, Bhagalpur - BSPCB",07-04-2024 16:00:00,25.265194,87.012947,NH3,7,9,8
India,Bihar,Buxar,"Charitra Van, Buxar - BSPCB (Formerly known as Central Jail)",07-04-2024 16:00:00,25.567520,83.966379,PM2.5,22,95,59
India,Bihar,Chhapra,"Darshan Nagar, Chhapra - BSPCB",07-04-2024 16:00:00,25.7808257,84.7446768,NO2,22,32,26
India,Bihar,Chhapra,"Darshan Nagar, Chhapra - BSPCB",07-04-2024 16:00:00,25.7808257,84.7446768,SO2,2,11,4
India,Bihar,Gaya,"Kareemganj, Gaya - BSPCB",07-04-2024 16:00:00,24.792403,84.992416,NH3,1,6,3
India,Bihar,Gaya,"Kareemganj, Gaya - BSPCB",07-04-2024 16:00:00,24.792403,84.992416,OZONE,2,36,13
India,Bihar,Gaya,"SFTI Kusdihra, Gaya - BSPCB",07-04-2024 16:00:00,24.762518,84.982348,PM10,73,104,88
India,Bihar,Hajipur,"Industrial Area, Hajipur - BSPCB",07-04-2024 16:00:00,25.697189,85.245900,PM10,125,314,210
India,Bihar,Katihar,"Mirchaibari, Katihar - BSPCB",07-04-2024 16:00:00,25.560083,87.553265,PM2.5,20,75,46
India,Bihar,Katihar,"Mirchaibari, Katihar - BSPCB",07-04-2024 16:00:00,25.560083,87.553265,SO2,17,25,19
India,Bihar,Katihar,"Mirchaibari, Katihar - BSPCB",07-04-2024 16:00:00,25.560083,87.553265,CO,8,64,46
India,Bihar,Manguraha,"Forest Rest House, Manguraha - BSPCB",07-04-2024 16:00:00,27.308328,84.531742,CO,38,101,76
India,Bihar,Motihari,"Gandak Colony, Motihari - BSPCB",07-04-2024 16:00:00,26.63086,84.90051,PM10,28,65,46
India,Bihar,Motihari,"Gandak Colony, Motihari - BSPCB",07-04-2024 16:00:00,26.63086,84.90051,CO,2,51,13
India,Bihar,Munger,"Town Hall, Munger - BSPCB",07-04-2024 16:00:00,25.376776,86.471523,OZONE,28,61,32
India,Bihar,Muzaffarpur,"MIT-Daudpur Kothi, Muzaffarpur - BSPCB",07-04-2024 16:00:00,26.1403345,85.3650192,CO,16,40,26
India,Bihar,Muzaffarpur,"MIT-Daudpur Kothi, Muzaffarpur - BSPCB",07-04-2024 16:00:00,26.1403345,85.3650192,OZONE,32,84,64
India,Bihar,Muzaffarpur,"Muzaffarpur Collectorate, Muzaffarpur - BSPCB",07-04-2024 16:00:00,26.1209,85.3647,OZONE,57,126,80
India,Bihar,Patna,"Govt. High School Shikarpur, Patna - BSPCB",07-04-2024 16:00:00,25.592539,85.227158,NH3,5,5,5
India,Bihar,Patna,"Govt. High School Shikarpur, Patna - BSPCB",07-04-2024 16:00:00,25.592539,85.227158,OZONE,1,59,44
India,Bihar,Patna,"Muradpur, Patna - BSPCB",07-04-2024 16:00:00,25.619651,85.147382,NO2,10,19,14
India,Bihar,Patna,"Muradpur, Patna - BSPCB",07-04-2024 16:00:00,25.619651,85.147382,OZONE,5,82,63
India,Bihar,Patna,"Rajbansi Nagar, Patna - BSPCB",07-04-2024 16:00:00,25.599486,85.113666,SO2,3,16,10
India,Bihar,Purnia,"Mariam Nagar, Purnia - BSPCB",07-04-2024 16:00:00,25.366336,87.117468,PM10,115,218,145
India,Bihar,Rajgir,"Dangi Tola, Rajgir - BSPCB",07-04-2024 16:00:00,25.03280,85.41948,PM2.5,23,85,46
India,Bihar,Rajgir,"Dangi Tola, Rajgir - BSPCB",07-04-2024 16:00:00,25.03280,85.41948,OZONE,29,42,34
India,Bihar,Samastipur,"DM Office_Kasipur, Samastipur - BSPCB",07-04-2024 16:00:00,25.859655,85.77944,PM10,NA,NA,NA
India,Bihar,Sasaram,"Dada Peer, Sasaram - BSPCB",07-04-2024 16:00:00,24.952822,84.002396,NO2,7,27,15
India,Bihar,Siwan,"Chitragupta Nagar, Siwan - BSPCB",07-04-2024 16:00:00,26.2271665,84.3570427,PM10,NA,NA,NA
India,Bihar,Siwan,"Chitragupta Nagar, Siwan - BSPCB",07-04-2024 16:00:00,26.2271665,84.3570427,SO2,9,34,30
India,Chandigarh,Chandigarh,"Sector-53, Chandigarh - CPCC",07-04-2024 16:00:00,30.719859,76.738637,NH3,4,7,5
India,Chandigarh,Chandigarh,"Sector-53, Chandigarh - CPCC",07-04-2024 16:00:00,30.719859,76.738637,CO,35,70,42
India,Chhattisgarh,Bhilai,"Civic Center, Bhilai - Bhilai Steel Plant",07-04-2024 16:00:00,21.185571,81.343175,PM10,37,71,58
India,Chhattisgarh,Bhilai,"Civic Center, Bhilai - Bhilai Steel Plant",07-04-2024 16:00:00,21.185571,81.343175,OZONE,8,59,37
India,Chhattisgarh,Bhilai,"Hathkhoj, Bhilai - CECB",07-04-2024 16:00:00,21.224231,81.408350,PM10,67,169,103
India,Chhattisgarh,Bilaspur,"Mangala, Bilaspur - NTPC",07-04-2024 16:00:00,22.08815,82.13737,PM10,49,93,71
India,Chhattisgarh,Bilaspur,"Mangala, Bilaspur - NTPC",07-04-2024 16:00:00,22.08815,82.13737,SO2,16,22,18
India,Chhattisgarh,Chhal,"Nawapara SECL Colony, Chhal - CECB",07-04-2024 16:00:00,22.118125,83.140608,NO2,17,79,42
India,Chhattisgarh,Korba,"Rampur, Korba - CECB",07-04-2024 16:00:00,22.368195,82.746431,PM2.5,28,78,54
India,Chhattisgarh,Korba,"Rampur, Korba - CECB",07-04-2024 16:00:00,22.368195,82.746431,NO2,19,49,43
India,Chhattisgarh,Korba,"Rampur, Korba - CECB",07-04-2024 16:00:00,22.368195,82.746431,CO,12,50,45
India,Chhattisgarh,Kunjemura,"OP Jindal School, Kunjemura - CECB",07-04-2024 16:00:00,22.126650,83.483212,SO2,10,51,22
India,Chhattisgarh,Raipur,"AIIMS, Raipur - CECB",07-04-2024 16:00:00,21.258815,81.578979,NH3,5,6,5
India,Chhattisgarh,Raipur,"AIIMS, Raipur - CECB",07-04-2024 16:00:00,21.258815,81.578979,SO2,5,35,13
India,Chhattisgarh,Raipur,"Krishak Nagar, Raipur - CECB",07-04-2024 16:00:00,21.237755,81.705301,PM10,38,156,93
India,Delhi,Delhi,"Alipur, Delhi - DPCC",07-04-2024 16:00:00,28.815329,77.153010,PM10,58,377,156
India,Delhi,Delhi,"Alipur, Delhi - DPCC",07-04-2024 16:00:00,28.815329,77.153010,NO2,6,92,43
India,Delhi,Delhi,"Alipur, Delhi - DPCC",07-04-2024 16:00:00,28.815329,77.153010,SO2,9,103,30
India,Delhi,Delhi,"Anand Vihar, Delhi - DPCC",07-04-2024 16:00:00,28.647622,77.3158090,PM2.5,27,373,153
India,Delhi,Delhi,"Anand Vihar, Delhi - DPCC",07-04-2024 16:00:00,28.647622,77.3158090,PM10,105,438,213
India,Delhi,Delhi,"Anand Vihar, Delhi - DPCC",07-04-2024 16:00:00,28.647622,77.3158090,NH3,1,6,2
India,Delhi,Delhi,"Ashok Vihar, Delhi - DPCC",07-04-2024 16:00:00,28.695381,77.181665,PM10,102,389,167
India,Delhi,Delhi,"Ashok Vihar, Delhi - DPCC",07-04-2024 16:00:00,28.695381,77.181665,NH3,1,11,5
India,Delhi,Delhi,"Aya Nagar, Delhi - IMD",07-04-2024 16:00:00,28.4706914,77.1099364,PM2.5,42,334,169
India,Delhi,Delhi,"Aya Nagar, Delhi - IMD",07-04-2024 16:00:00,28.4706914,77.1099364,PM10,75,255,146
India,Delhi,Delhi,"Aya Nagar, Delhi - IMD",07-04-2024 16:00:00,28.4706914,77.1099364,NO2,11,22,16
India,Delhi,Delhi,"Bawana, Delhi - DPCC",07-04-2024 16:00:00,28.776200,77.051074,NH3,4,6,5
India,Delhi,Delhi,"Burari Crossing, Delhi - IMD",07-04-2024 16:00:00,28.7256504,77.2011573,NO2,NA,NA,NA
India,Delhi,Delhi,"CRRI Mathura Road, Delhi - IMD",07-04-2024 16:00:00,28.5512005,77.2735737,CO,22,92,47
India,Delhi,Delhi,"CRRI Mathura Road, Delhi - IMD",07-04-2024 16:00:00,28.5512005,77.2735737,OZONE,1,72,51
India,Delhi,Delhi,"Chandni Chowk, Delhi - IITM",07-04-2024 16:00:00,28.656756,77.227234,SO2,21,56,40
India,Delhi,Delhi,"DTU, Delhi - CPCB",07-04-2024 16:00:00,28.7500499,77.1112615,OZONE,28,136,28
India,Delhi,Delhi,"Dr. Karni Singh Shooting Range, Delhi - DPCC",07-04-2024 16:00:00,28.498571,77.264840,PM10,77,283,143
India,Delhi,Delhi,"Dr. Karni Singh Shooting Range, Delhi - DPCC",07-04-2024 16:00:00,28.498571,77.264840,SO2,20,58,32
India,Delhi,Delhi,"Dwarka-Sector 8, Delhi - DPCC ",07-04-2024 16:00:00,28.5710274,77.0719006,PM2.5,30,429,182
India,Delhi,Delhi,"Dwarka-Sector 8, Delhi - DPCC ",07-04-2024 16:00:00,28.5710274,77.0719006,NO2,7,54,30
India,Delhi,Delhi,"Dwarka-Sector 8, Delhi - DPCC ",07-04-2024 16:00:00,28.5710274,77.0719006,CO,39,98,58
India,Delhi,Delhi,"IGI Airport (T3), Delhi - IMD",07-04-2024 16:00:00,28.5627763,77.1180053,PM10,48,282,142
India,Delhi,Delhi,"IHBAS, Dilshad Garden, Delhi - CPCB",07-04-2024 16:00:00,28.6811736,77.3025234,PM2.5,110,274,152
India,Delhi,Delhi,"IHBAS, Dilshad Garden, Delhi - CPCB",07-04-2024 16:00:00,28.6811736,77.3025234,PM10,84,167,132
India,Delhi,Delhi,"IHBAS, Dilshad Garden, Delhi - CPCB",07-04-2024 16:00:00,28.6811736,77.3025234,SO2,4,47,24
India,Delhi,Delhi,"Jahangirpuri, Delhi - DPCC",07-04-2024 16:00:00,28.732820,77.170633,NH3,7,19,13
India,Delhi,Delhi,"Jahangirpuri, Delhi - DPCC",07-04-2024 16:00:00,28.732820,77.170633,OZONE,6,61,49
India,Delhi,Delhi,"Jawaharlal Nehru Stadium, Delhi - DPCC",07-04-2024 16:00:00,28.580280,77.233829,NH3,5,11,7
India,Delhi,Delhi,"Jawaharlal Nehru Stadium, Delhi - DPCC",07-04-2024 16:00:00,28.580280,77.233829,SO2,3,108,26
India,Delhi,Delhi,"Lodhi Road, Delhi - IMD",07-04-2024 16:00:00,28.5918245,77.2273074,OZONE,9,38,28
India,Delhi,Delhi,"Major Dhyan Chand National Stadium, Delhi - DPCC",07-04-2024 16:00:00,28.611281,77.237738,SO2,14,80,23
India,Delhi,Delhi,"Mandir Marg, Delhi - DPCC",07-04-2024 16:00:00,28.636429,77.201067,PM2.5,22,328,85
India,Delhi,Delhi,"Mandir Marg, Delhi - DPCC",07-04-2024 16:00:00,28.636429,77.201067,NH3,5,6,5
India,Delhi,Delhi,"Mundka, Delhi - DPCC",07-04-2024 16:00:00,28.684678,77.076574,NH3,NA,NA,NA
India,Delhi,Delhi,"NSIT Dwarka, Delhi - CPCB",07-04-2024 16:00:00,28.60909,77.0325413,SO2,8,94,35
India,Delhi,Delhi,"Nehru Nagar, Delhi - DPCC",07-04-2024 16:00:00,28.567890,77.250515,PM10,64,274,135
India,Delhi,Delhi,"Nehru Nagar, Delhi - DPCC",07-04-2024 16:00:00,28.567890,77.250515,OZONE,2,154,114
India,Delhi,Delhi,"North Campus, DU, Delhi - IMD",07-04-2024 16:00:00,28.6573814,77.1585447,NO2,8,42,26
India,Delhi,Delhi,"Patparganj, Delhi - DPCC",07-04-2024 16:00:00,28.623763,77.287209,PM2.5,15,376,130
India,Delhi,Delhi,"Patparganj, Delhi - DPCC",07-04-2024 16:00:00,28.623763,77.287209,SO2,8,17,11
India,Delhi,Delhi,"Patparganj, Delhi - DPCC",07-04-2024 16:00:00,28.623763,77.287209,CO,2,54,15
India,Delhi,Delhi,"Pusa, Delhi - DPCC",07-04-2024 16:00:00,28.639652,77.146275,NH3,5,11,8
India,Delhi,Delhi,"Pusa, Delhi - IMD",07-04-2024 16:00:00,28.636110,77.173332,OZONE,3,50,37
India,Delhi,Delhi,"R K Puram, Delhi - DPCC",07-04-2024 16:00:00,28.563262,77.186937,PM2.5,33,375,164
India,Delhi,Delhi,"R K Puram, Delhi - DPCC",07-04-2024 16:00:00,28.563262,77.186937,CO,16,115,35
India,Delhi,Delhi,"Rohini, Delhi - DPCC",07-04-2024 16:00:00,28.732528,77.119920,NO2,9,102,50
India,Delhi,Delhi,"Shadipur, Delhi - CPCB",07-04-2024 16:00:00,28.6514781,77.1473105,SO2,12,39,22
India,Delhi,Delhi,"Shadipur, Delhi - CPCB",07-04-2024 16:00:00,28.6514781,77.1473105,CO,NA,NA,NA
India,Delhi,Delhi,"Sirifort, Delhi - CPCB",07-04-2024 16:00:00,28.5504249,77.2159377,NO2,42,68,57
India,Delhi,Delhi,"Sirifort, Delhi - CPCB",07-04-2024 16:00:00,28.5504249,77.2159377,NH3,3,11,8
India,Delhi,Delhi,"Sonia Vihar, Delhi - DPCC",07-04-2024 16:00:00,28.710508,77.249485,SO2,9,107,24
India,Delhi,Delhi,"Sri Aurobindo Marg, Delhi - DPCC",07-04-2024 16:00:00,28.531346,77.190156,SO2,13,109,26
India,Delhi,Delhi,"Vivek Vihar, Delhi - DPCC",07-04-2024 16:00:00,28.672342,77.315260,PM2.5,23,341,131
India,Delhi,Delhi,"Wazirpur, Delhi - DPCC",07-04-2024 16:00:00,28.699793,77.165453,CO,26,100,48
India,Gujarat,Ahmedabad,"Chandkheda, Ahmedabad - IITM",07-04-2024 16:00:00,23.107969,72.574648,NO2,4,35,12
India,Gujarat,Ahmedabad,"Chandkheda, Ahmedabad - IITM",07-04-2024 16:00:00,23.107969,72.574648,SO2,6,16,9
India,Gujarat,Ahmedabad,"Gyaspur, Ahmedabad - IITM",07-04-2024 16:00:00,22.977134,72.553024,PM10,65,133,93
India,Gujarat,Ahmedabad,"Gyaspur, Ahmedabad - IITM",07-04-2024 16:00:00,22.977134,72.553024,NH3,9,13,11
India,Gujarat,Ahmedabad,"Maninagar, Ahmedabad - GPCB",07-04-2024 16:00:00,23.002657,72.591912,NO2,22,74,33
India,Gujarat,Ahmedabad,"Raikhad, Ahmedabad - IITM",07-04-2024 16:00:00,23.020509,72.579261,PM10,51,105,87
India,Gujarat,Ahmedabad,"Rakhial, Ahmedabad - IITM",07-04-2024 16:00:00,23.016834,72.625775,NO2,12,52,26
India,Gujarat,Ahmedabad,"Rakhial, Ahmedabad - IITM",07-04-2024 16:00:00,23.016834,72.625775,CO,4,68,15
India,Gujarat,Ahmedabad,"SAC ISRO Satellite, Ahmedabad - IITM",07-04-2024 16:00:00,23.023389,72.515201,NO2,17,17,17
India,Gujarat,Ahmedabad,"SAC ISRO Satellite, Ahmedabad - IITM",07-04-2024 16:00:00,23.023389,72.515201,OZONE,14,20,18
India,Gujarat,Ahmedabad,"SVPI Airport Hansol, Ahmedabad - IITM",07-04-2024 16:00:00,23.076793,72.627874,NO2,14,19,16
India,Gujarat,Ahmedabad,"SVPI Airport Hansol, Ahmedabad - IITM",07-04-2024 16:00:00,23.076793,72.627874,OZONE,6,34,26
India,Gujarat,Gandhinagar,"IIPHG Lekawada, Gandhinagar - IITM",07-04-2024 16:00:00,23.243639,72.68994,PM2.5,41,68,55
India,Gujarat,Gandhinagar,"IIPHG Lekawada, Gandhinagar - IITM",07-04-2024 16:00:00,23.243639,72.68994,NH3,6,7,7
India,Gujarat,Gandhinagar,"IIPHG Lekawada, Gandhinagar - IITM",07-04-2024 16:00:00,23.243639,72.68994,CO,14,27,18
India,Gujarat,Gandhinagar,"Sector-10, Gandhinagar - GPCB",07-04-2024 16:00:00,23.221714,72.654328,NO2,18,28,21
India,Gujarat,Surat,"Science Center, Surat - SMC",07-04-2024 16:00:00,21.170046,72.795405,NO2,40,65,49
India,Gujarat,Vapi,"Phase-1 GIDC, Vapi - GPCB",07-04-2024 16:00:00,20.362421,72.918013,SO2,51,52,52
India,Haryana,Bahadurgarh,"Arya Nagar, Bahadurgarh - HSPCB",07-04-2024 16:00:00,28.6701,76.9254,NH3,10,12,11
India,Haryana,Bahadurgarh,"Arya Nagar, Bahadurgarh - HSPCB",07-04-2024 16:00:00,28.6701,76.9254,OZONE,39,48,44
India,Haryana,Ballabgarh,"Nathu Colony, Ballabgarh - HSPCB",07-04-2024 16:00:00,28.3419248,77.319699,PM2.5,58,351,174
India,Haryana,Bhiwani,"H.B. Colony, Bhiwani - HSPCB",07-04-2024 16:00:00,28.806223,76.141105,SO2,2,19,9
India,Haryana,Bhiwani,"H.B. Colony, Bhiwani - HSPCB",07-04-2024 16:00:00,28.806223,76.141105,CO,18,46,33
India,Haryana,Charkhi Dadri,"Mini Secretariat, Charkhi Dadri - HSPCB",07-04-2024 16:00:00,28.593883,76.270653,PM10,60,178,123
India,Haryana,Dharuhera,"Municipal Corporation Office, Dharuhera -  HSPCB",07-04-2024 16:00:00,28.206800,76.799700,NO2,43,111,70
India,Haryana,Dharuhera,"Municipal Corporation Office, Dharuhera -  HSPCB",07-04-2024 16:00:00,28.206800,76.799700,NH3,9,27,19
India,Haryana,Faridabad,"New Industrial Town, Faridabad - HSPCB",07-04-2024 16:00:00,28.39072,77.30059,PM2.5,116,403,210
India,Haryana,Faridabad,"New Industrial Town, Faridabad - HSPCB",07-04-2024 16:00:00,28.39072,77.30059,NH3,2,4,3
India,Haryana,Faridabad,"Sector 30, Faridabad - HSPCB",07-04-2024 16:00:00,28.4417,77.3217,NH3,9,9,9
India,Haryana,Faridabad,"Sector 30, Faridabad - HSPCB",07-04-2024 16:00:00,28.4417,77.3217,SO2,12,13,13
India,Haryana,Faridabad,"Sector- 16A, Faridabad - HSPCB",07-04-2024 16:00:00,28.4088421,77.3099081,PM2.5,NA,NA,NA
India,Haryana,Fatehabad,"Huda Sector, Fatehabad - HSPCB",07-04-2024 16:00:00,29.503664,75.467934,PM10,60,109,84
India,Haryana,Gurugram,"Sector-51, Gurugram - HSPCB",07-04-2024 16:00:00,28.4227,77.0667,PM2.5,119,337,247
India,Haryana,Gurugram,"Teri Gram, Gurugram - HSPCB",07-04-2024 16:00:00,28.4275,77.1465,SO2,2,6,4
India,Haryana,Gurugram,"Vikas Sadan, Gurugram - HSPCB",07-04-2024 16:00:00,28.4501238,77.0263051,PM2.5,71,374,170
India,Haryana,Hisar,"Urban Estate-II, Hisar - HSPCB",07-04-2024 16:00:00,29.140560,75.744941,NO2,16,28,23
India,Haryana,Hisar,"Urban Estate-II, Hisar - HSPCB",07-04-2024 16:00:00,29.140560,75.744941,NH3,5,11,9
India,Haryana,Hisar,"Urban Estate-II, Hisar - HSPCB",07-04-2024 16:00:00,29.140560,75.744941,OZONE,13,162,161
India,Haryana,Jind,"Police Lines, Jind - HSPCB",07-04-2024 16:00:00,29.307814,76.337619,SO2,2,128,27
India,Haryana,Karnal,"Sector-12, Karnal - HSPCB",07-04-2024 16:00:00,29.695300,77.002700,PM10,46,95,62
India,Haryana,Karnal,"Sector-12, Karnal - HSPCB",07-04-2024 16:00:00,29.695300,77.002700,NH3,10,13,11
India,Haryana,Kurukshetra,"Sector-7, Kurukshetra - HSPCB",07-04-2024 16:00:00,29.966942,76.875879,PM10,56,83,71
India,Haryana,Kurukshetra,"Sector-7, Kurukshetra - HSPCB",07-04-2024 16:00:00,29.966942,76.875879,SO2,2,105,33
India,Haryana,Kurukshetra,"Sector-7, Kurukshetra - HSPCB",07-04-2024 16:00:00,29.966942,76.875879,CO,7,24,14
India,Haryana,Mandikhera,"General Hospital, Mandikhera - HSPCB",07-04-2024 16:00:00,27.9002,76.9938,OZONE,22,32,27
India,Haryana,Manesar,"Sector-2 IMT, Manesar - HSPCB",07-04-2024 16:00:00,28.360699,76.936090,NO2,11,24,19
India,Haryana,Manesar,"Sector-2 IMT, Manesar - HSPCB",07-04-2024 16:00:00,28.360699,76.936090,CO,16,92,40
India,Haryana,Narnaul,"Shastri Nagar, Narnaul - HSPCB",07-04-2024 16:00:00,28.060249,76.113115,SO2,12,13,13
India,Haryana,Narnaul,"Shastri Nagar, Narnaul - HSPCB",07-04-2024 16:00:00,28.060249,76.113115,CO,9,38,25
India,Haryana,Palwal,"Shyam Nagar, Palwal - HSPCB",07-04-2024 16:00:00,28.1485564,77.3320667,PM2.5,51,71,60
India,Haryana,Palwal,"Shyam Nagar, Palwal - HSPCB",07-04-2024 16:00:00,28.1485564,77.3320667,PM10,70,120,90
India,Haryana,Panchkula,"Sector-6, Panchkula - HSPCB ",07-04-2024 16:00:00,30.7057778,76.8531805555555,CO,1,12,9
India,Haryana,Panipat,"Sector-18, Panipat - HSPCB",07-04-2024 16:00:00,29.497973,76.993331,PM2.5,49,51,50
India,Haryana,Panipat,"Sector-18, Panipat - HSPCB",07-04-2024 16:00:00,29.497973,76.993331,CO,24,26,25
India,Himachal Pradesh,Baddi,"HIMUDA Complex Phase-1, Baddi - HPPCB",07-04-2024 16:00:00,30.943887,76.801991,SO2,9,109,48
India,Himachal Pradesh,Baddi,"HIMUDA Complex Phase-1, Baddi - HPPCB",07-04-2024 16:00:00,30.943887,76.801991,OZONE,35,160,127
India,Jharkhand,Dhanbad,"Kalakusuma, Dhanbad - DMC",07-04-2024 16:00:00,23.811548,86.481238,OZONE,22,28,22
India,Karnataka,Bagalkot,"Vidayagiri, Bagalkot - KSPCB",07-04-2024 16:00:00,16.172806,75.659694,NO2,9,11,9
India,Karnataka,Bagalkot,"Vidayagiri, Bagalkot - KSPCB",07-04-2024 16:00:00,16.172806,75.659694,CO,20,59,43
India,Karnataka,Bengaluru,"BTM Layout, Bengaluru - CPCB",07-04-2024 16:00:00,12.9135218,77.5950804,PM2.5,28,64,44
India,Karnataka,Bengaluru,"BTM Layout, Bengaluru - CPCB",07-04-2024 16:00:00,12.9135218,77.5950804,CO,46,48,47
India,Karnataka,Bengaluru,"Bapuji Nagar, Bengaluru - KSPCB",07-04-2024 16:00:00,12.951913,77.539784,PM10,60,109,79
India,Karnataka,Bengaluru,"Hebbal, Bengaluru - KSPCB",07-04-2024 16:00:00,13.029152,77.585901,SO2,NA,NA,NA
India,Karnataka,Bengaluru,"Hebbal, Bengaluru - KSPCB",07-04-2024 16:00:00,13.029152,77.585901,CO,12,36,12
India,Karnataka,Bengaluru,"Hombegowda Nagar, Bengaluru - KSPCB",07-04-2024 16:00:00,12.938539,77.590100,PM10,53,94,70
India,Karnataka,Bengaluru,"Hombegowda Nagar, Bengaluru - KSPCB",07-04-2024 16:00:00,12.938539,77.590100,NO2,9,26,17
India,Karnataka,Bengaluru,"Hombegowda Nagar, Bengaluru - KSPCB",07-04-2024 16:00:00,12.938539,77.590100,OZONE,4,5,4
India,Karnataka,Bengaluru,"Jigani, Bengaluru - KSPCB",07-04-2024 16:00:00,12.7816279,77.6299145,PM2.5,11,203,45
India,Karnataka,Bengaluru,"Jigani, Bengaluru - KSPCB",07-04-2024 16:00:00,12.7816279,77.6299145,OZONE,11,78,51
India,Karnataka,Bengaluru,"Kasturi Nagar, Bengaluru - KSPCB",07-04-2024 16:00:00,13.003872,77.664217,PM2.5,65,172,100
India,Karnataka,Bengaluru,"Kasturi Nagar, Bengaluru - KSPCB",07-04-2024 16:00:00,13.003872,77.664217,NH3,3,4,4
India,Karnataka,Bengaluru,"RVCE-Mailasandra, Bengaluru - KSPCB",07-04-2024 16:00:00,12.921418,77.502466,SO2,8,16,10
India,Karnataka,Bengaluru,"RVCE-Mailasandra, Bengaluru - KSPCB",07-04-2024 16:00:00,12.921418,77.502466,CO,28,62,36
India,Karnataka,Bengaluru,"Sanegurava Halli, Bengaluru - KSPCB",07-04-2024 16:00:00,12.990328,77.5431385,NO2,22,49,30
India,Karnataka,Bengaluru,"Silk Board, Bengaluru - KSPCB",07-04-2024 16:00:00,12.917348,77.622813,NO2,18,21,19
India,Karnataka,Bidar,"Naubad, Bidar - KSPCB",07-04-2024 16:00:00,17.930306,77.482194,NH3,2,3,3
India,Karnataka,Chamarajanagar,"Urban, Chamarajanagar - KSPCB",07-04-2024 16:00:00,11.55358,76.55521,PM2.5,26,40,32
India,Karnataka,Chamarajanagar,"Urban, Chamarajanagar - KSPCB",07-04-2024 16:00:00,11.55358,76.55521,OZONE,15,27,19
India,Karnataka,Chikkaballapur,"Chikkaballapur Rural, Chikkaballapur - KSPCB",07-04-2024 16:00:00,13.428828,77.731418,SO2,16,31,23
India,Karnataka,Chikkaballapur,"Chikkaballapur Rural, Chikkaballapur - KSPCB",07-04-2024 16:00:00,13.428828,77.731418,OZONE,25,26,26
India,Karnataka,Chikkamagaluru,"Kalyana Nagara, Chikkamagaluru - KSPCB",07-04-2024 16:00:00,13.328028,75.797056,PM2.5,3,38,18
India,Karnataka,Chikkamagaluru,"Kalyana Nagara, Chikkamagaluru - KSPCB",07-04-2024 16:00:00,13.328028,75.797056,NH3,3,5,3
India,Karnataka,Chikkamagaluru,"Kalyana Nagara, Chikkamagaluru - KSPCB",07-04-2024 16:00:00,13.328028,75.797056,SO2,1,10,3
India,Karnataka,Dharwad,"Kalabhavan, Dharwad - KSPCB",07-04-2024 16:00:00,15.459706,75.008381,PM10,51,142,103
India,Karnataka,Dharwad,"Kalabhavan, Dharwad - KSPCB",07-04-2024 16:00:00,15.459706,75.008381,SO2,3,10,4
India,Karnataka,Dharwad,"Kalabhavan, Dharwad - KSPCB",07-04-2024 16:00:00,15.459706,75.008381,OZONE,2,44,6
India,Karnataka,Gadag,"Panchal Nagar, Gadag - KSPCB",07-04-2024 16:00:00,15.411456,75.638133,PM10,45,62,53
India,Karnataka,Hassan,"B.Katihalli, Hassan - KSPCB",07-04-2024 16:00:00,13.008556,76.125258,PM10,NA,NA,NA
India,Karnataka,Hassan,"B.Katihalli, Hassan - KSPCB",07-04-2024 16:00:00,13.008556,76.125258,NH3,NA,NA,NA
India,Karnataka,Hassan,"B.Katihalli, Hassan - KSPCB",07-04-2024 16:00:00,13.008556,76.125258,SO2,NA,NA,NA
India,Karnataka,Hassan,"B.Katihalli, Hassan - KSPCB",07-04-2024 16:00:00,13.008556,76.125258,OZONE,NA,NA,NA
India,Karnataka,Haveri,"Ashwini Nagar, Haveri - KSPCB",07-04-2024 16:00:00,14.791800,75.389600,NH3,3,3,3
India,Karnataka,Haveri,"Ashwini Nagar, Haveri - KSPCB",07-04-2024 16:00:00,14.791800,75.389600,SO2,14,14,14
India,Karnataka,Haveri,"Ashwini Nagar, Haveri - KSPCB",07-04-2024 16:00:00,14.791800,75.389600,CO,36,40,37
India,Karnataka,Haveri,"Ashwini Nagar, Haveri - KSPCB",07-04-2024 16:00:00,14.791800,75.389600,OZONE,18,33,20
India,Karnataka,Kalaburagi,"Lal Bahadur Shastri Nagar, Kalaburagi - KSPCB",07-04-2024 16:00:00,17.321993,76.822628,PM10,40,115,81
India,Karnataka,Kalaburagi,"Lal Bahadur Shastri Nagar, Kalaburagi - KSPCB",07-04-2024 16:00:00,17.321993,76.822628,NO2,11,12,11
India,Karnataka,Kalaburagi,"Mahatma Basaveswar Colony, Kalaburgi - KSPCB",07-04-2024 16:00:00,17.336318,76.847397,NO2,10,18,14
India,Karnataka,Kalaburagi,"Mahatma Basaveswar Colony, Kalaburgi - KSPCB",07-04-2024 16:00:00,17.336318,76.847397,OZONE,2,14,10
India,Karnataka,Kolar,"Tamaka Ind. Area, Kolar - KSPCB",07-04-2024 16:00:00,13.1276288,78.1570122,PM2.5,NA,NA,NA
India,Karnataka,Kolar,"Tamaka Ind. Area, Kolar - KSPCB",07-04-2024 16:00:00,13.1276288,78.1570122,CO,6,6,6
India,Karnataka,Koppal,"Diwator Nagar, Koppal - KSPCB",07-04-2024 16:00:00,15.347630,76.181767,NH3,NA,NA,NA
India,Karnataka,Madikeri,"Stuart Hill, Madikeri - KSPCB",07-04-2024 16:00:00,12.415911,75.735050,PM10,29,237,50
India,Karnataka,Mysuru,"Hebbal 1st Stage, Mysuru - KSPCB",07-04-2024 16:00:00,12.21041,76.37376,PM2.5,20,48,31
India,Karnataka,Mysuru,"Hebbal 1st Stage, Mysuru - KSPCB",07-04-2024 16:00:00,12.21041,76.37376,PM10,37,55,47
India,Karnataka,Shivamogga,"Vinoba Nagara, Shivamogga - KSPCB",07-04-2024 16:00:00,13.940000,75.555917,NH3,2,3,3
India,Karnataka,Shivamogga,"Vinoba Nagara, Shivamogga - KSPCB",07-04-2024 16:00:00,13.940000,75.555917,SO2,4,12,8
India,Karnataka,Tumakuru,"Thimmalapura, Tumakuru - KSPCB",07-04-2024 16:00:00,13.377516,77.099072,PM10,NA,NA,NA
India,Karnataka,Tumakuru,"Thimmalapura, Tumakuru - KSPCB",07-04-2024 16:00:00,13.377516,77.099072,NO2,NA,NA,NA
India,Karnataka,Yadgir,"Collector Office, Yadgir - KSPCB",07-04-2024 16:00:00,16.7602,77.1428,SO2,NA,NA,NA
India,Kerala,Kollam,"Polayathode, Kollam - Kerala PCB",07-04-2024 16:00:00,8.8787,76.6073,NO2,8,9,8
India,Madhya Pradesh,Bhopal,"Idgah Hills, Bhopal - MPPCB",07-04-2024 16:00:00,23.264759,77.381568,PM10,81,170,121
India,Madhya Pradesh,Bhopal,"Paryavaran Parisar, Bhopal - MPPCB",07-04-2024 16:00:00,23.210494,77.425409,NO2,12,87,33
India,Madhya Pradesh,Bhopal,"Paryavaran Parisar, Bhopal - MPPCB",07-04-2024 16:00:00,23.210494,77.425409,CO,4,65,18
India,Madhya Pradesh,Bhopal,"T T Nagar, Bhopal - MPPCB",07-04-2024 16:00:00,23.233584,77.400574,NH3,3,8,6
India,Madhya Pradesh,Dewas,"Bhopal Chauraha, Dewas - MPPCB",07-04-2024 16:00:00,22.9682591,76.064118,NH3,3,3,3
India,Madhya Pradesh,Gwalior,"City Center, Gwalior - MPPCB",07-04-2024 16:00:00,26.203442,78.193251,NH3,6,12,8
India,Madhya Pradesh,Gwalior,"City Center, Gwalior - MPPCB",07-04-2024 16:00:00,26.203442,78.193251,CO,14,110,45
India,Madhya Pradesh,Gwalior,"City Center, Gwalior - MPPCB",07-04-2024 16:00:00,26.203442,78.193251,OZONE,9,63,53
India,Madhya Pradesh,Gwalior,"Deen Dayal Nagar, Gwalior - MPPCB",07-04-2024 16:00:00,26.259242,78.216432,NH3,1,5,4
India,Madhya Pradesh,Gwalior,"Deen Dayal Nagar, Gwalior - MPPCB",07-04-2024 16:00:00,26.259242,78.216432,SO2,13,18,15
India,Madhya Pradesh,Gwalior,"Deen Dayal Nagar, Gwalior - MPPCB",07-04-2024 16:00:00,26.259242,78.216432,CO,43,43,43
India,Madhya Pradesh,Gwalior,"Maharaj Bada, Gwalior - MPPCB",07-04-2024 16:00:00,26.200388,78.147714,PM2.5,22,220,85
India,Madhya Pradesh,Indore,"Chhoti Gwaltoli, Indore - MPPCB",07-04-2024 16:00:00,22.4310,75.5213,NH3,1,5,4
India,Madhya Pradesh,Indore,"Maguda Nagar, Indore - IMC",07-04-2024 16:00:00,22.7524,75.8872,NH3,1,1,1
India,Madhya Pradesh,Indore,"Residency Area, Indore - IMC",07-04-2024 16:00:00,22.7084,75.8815,CO,14,18,15
India,Madhya Pradesh,Indore,"Residency Area, Indore - IMC",07-04-2024 16:00:00,22.7084,75.8815,OZONE,10,22,17
