country,state,city,station,last_update,latitude,longitude,pollutant_id,pollutant_min,pollutant_max,pollutant_avg
India,Andhra_Pradesh,Amaravati,"Secretariat, Amaravati - APPCB",03-06-2024 10:00:00,16.5150833,80.5181667,CO,10,136,40
India,Andhra_Pradesh,Anantapur,"Gulzarpet, Anantapur - APPCB",03-06-2024 10:00:00,14.675886,77.593027,PM2.5,20,45,32
India,Andhra_Pradesh,Chittoor,"Gangineni Cheruvu, Chittoor - APPCB",03-06-2024 10:00:00,13.204880,79.097889,PM10,NA,NA,NA
India,Andhra_Pradesh,Rajamahendravaram,"Anand Kala Kshetram, Rajamahendravaram - APPCB",03-06-2024 10:00:00,16.9872867,81.7363176,PM10,12,77,48
India,Andhra_Pradesh,Rajamahendravaram,"Anand Kala Kshetram, Rajamahendravaram - APPCB",03-06-2024 10:00:00,16.9872867,81.7363176,SO2,11,12,12
India,Andhra_Pradesh,Tirupati,"Tirumala, Tirupati - APPCB",03-06-2024 10:00:00,13.67,79.35,NO2,10,38,25
India,Andhra_Pradesh,Tirupati,"Vaikuntapuram, Tirupati - APPCB",03-06-2024 10:00:00,13.615387,79.409230,PM10,2,81,21
India,Andhra_Pradesh,Vijayawada,"HB Colony, Vijayawada - APPCB",03-06-2024 10:00:00,16.536107,80.594233,NO2,13,25,17
India,Andhra_Pradesh,Vijayawada,"Rajiv Gandhi Park, Vijayawada - APPCB",03-06-2024 10:00:00,16.509717,80.612222,PM2.5,50,75,60
India,Andhra_Pradesh,Vijayawada,"Rajiv Nagar, Vijayawada - APPCB",03-06-2024 10:00:00,16.554731,80.649110,NH3,2,2,2
India,Andhra_Pradesh,Vijayawada,"Rajiv Nagar, Vijayawada - APPCB",03-06-2024 10:00:00,16.554731,80.649110,SO2,14,22,17
India,Andhra_Pradesh,Visakhapatnam,"GVM Corporation, Visakhapatnam - APPCB",03-06-2024 10:00:00,17.72,83.3,NO2,NA,NA,NA
India,Assam,Nalbari,"Bata Chowk, Nalbari - PCBA",03-06-2024 10:00:00,26.446912,91.439057,NO2,7,14,11
India,Assam,Nalbari,"Bata Chowk, Nalbari - PCBA",03-06-2024 10:00:00,26.446912,91.439057,CO,14,44,39
India,Assam,Nalbari,"Bata Chowk, Nalbari - PCBA",03-06-2024 10:00:00,26.446912,91.439057,OZONE,16,85,32
India,Assam,Silchar,"Tarapur, Silchar - PCBA",03-06-2024 10:00:00,24.82827,92.79525,NO2,14,14,14
India,Assam,Sivasagar,"Girls College, Sivasagar - PCBA",03-06-2024 10:00:00,26.987634,94.636574,PM2.5,28,50,35
India,Bihar,Araria,"Kharahiya Basti, Araria - BSPCB",03-06-2024 10:00:00,26.146529,87.454184,NH3,6,7,7
India,Bihar,Arrah,"New DM Office, Arrah - BSPCB",03-06-2024 10:00:00,25.5626095,84.663264,PM10,22,81,52
India,Bihar,Arrah,"New DM Office, Arrah - BSPCB",03-06-2024 10:00:00,25.5626095,84.663264,NO2,8,13,10
India,Bihar,Bettiah,"Kamalnath Nagar, Bettiah - BSPCB",03-06-2024 10:00:00,26.80365,84.51954,NO2,25,32,30
India,Bihar,Bettiah,"Kamalnath Nagar, Bettiah - BSPCB",03-06-2024 10:00:00,26.80365,84.51954,CO,56,72,67
India,Bihar,Bhagalpur,"DM Office_Kachari Chowk, Bhagalpur - BSPCB",03-06-2024 10:00:00,25.251013,86.989001,CO,26,82,65
India,Bihar,Bhagalpur,"DM Office_Kachari Chowk, Bhagalpur - BSPCB",03-06-2024 10:00:00,25.251013,86.989001,OZONE,43,52,47
India,Bihar,Bhagalpur,"Mayaganj, Bhagalpur - BSPCB",03-06-2024 10:00:00,25.265194,87.012947,CO,18,39,22
India,Bihar,Buxar,"Charitra Van, Buxar - BSPCB (Formerly known as Central Jail)",03-06-2024 10:00:00,25.567520,83.966379,PM10,NA,NA,NA
India,Bihar,Buxar,"Charitra Van, Buxar - BSPCB (Formerly known as Central Jail)",03-06-2024 10:00:00,25.567520,83.966379,NH3,NA,NA,NA
India,Bihar,Buxar,"Charitra Van, Buxar - BSPCB (Formerly known as Central Jail)",03-06-2024 10:00:00,25.567520,83.966379,SO2,NA,NA,NA
India,Bihar,Chhapra,"Darshan Nagar, Chhapra - BSPCB",03-06-2024 10:00:00,25.7808257,84.7446768,PM10,31,81,58
India,Bihar,Gaya,"Collectorate, Gaya - BSPCB",03-06-2024 10:00:00,24.7955,84.9994,OZONE,54,83,66
India,Bihar,Gaya,"Kareemganj, Gaya - BSPCB",03-06-2024 10:00:00,24.792403,84.992416,PM10,23,110,61
India,Bihar,Gaya,"SFTI Kusdihra, Gaya - BSPCB",03-06-2024 10:00:00,24.762518,84.982348,NH3,1,5,3
India,Bihar,Hajipur,"Industrial Area, Hajipur - BSPCB",03-06-2024 10:00:00,25.697189,85.245900,PM10,65,130,99
India,Bihar,Katihar,"Mirchaibari, Katihar - BSPCB",03-06-2024 10:00:00,25.560083,87.553265,PM10,NA,NA,NA
India,Bihar,Manguraha,"Forest Rest House, Manguraha - BSPCB",03-06-2024 10:00:00,27.308328,84.531742,PM2.5,NA,NA,NA
India,Bihar,Motihari,"Gandak Colony, Motihari - BSPCB",03-06-2024 10:00:00,26.63086,84.90051,OZONE,15,47,29
India,Bihar,Munger,"Town Hall, Munger - BSPCB",03-06-2024 10:00:00,25.376776,86.471523,NO2,4,6,5
India,Bihar,Munger,"Town Hall, Munger - BSPCB",03-06-2024 10:00:00,25.376776,86.471523,SO2,23,36,30
India,Bihar,Muzaffarpur,"Buddha Colony, Muzaffarpur - BSPCB",03-06-2024 10:00:00,26.11442,85.39813,PM2.5,47,109,66
India,Bihar,Muzaffarpur,"Buddha Colony, Muzaffarpur - BSPCB",03-06-2024 10:00:00,26.11442,85.39813,SO2,2,5,3
India,Bihar,Muzaffarpur,"Buddha Colony, Muzaffarpur - BSPCB",03-06-2024 10:00:00,26.11442,85.39813,CO,14,38,21
India,Bihar,Patna,"DRM Office Danapur, Patna - BSPCB",03-06-2024 10:00:00,25.586562,85.043586,SO2,1,5,2
India,Bihar,Patna,"DRM Office Danapur, Patna - BSPCB",03-06-2024 10:00:00,25.586562,85.043586,OZONE,15,56,22
India,Bihar,Patna,"IGSC Planetarium Complex, Patna - BSPCB",03-06-2024 10:00:00,25.610369,85.132568,PM2.5,55,149,88
India,Bihar,Patna,"Muradpur, Patna - BSPCB",03-06-2024 10:00:00,25.619651,85.147382,SO2,5,8,6
India,Bihar,Patna,"Muradpur, Patna - BSPCB",03-06-2024 10:00:00,25.619651,85.147382,OZONE,5,61,6
India,Bihar,Patna,"Samanpura, Patna - BSPCB",03-06-2024 10:00:00,25.596727,85.085624,PM2.5,63,112,81
India,Bihar,Rajgir,"Dangi Tola, Rajgir - BSPCB",03-06-2024 10:00:00,25.03280,85.41948,NO2,11,15,13
India,Bihar,Rajgir,"Dangi Tola, Rajgir - BSPCB",03-06-2024 10:00:00,25.03280,85.41948,NH3,1,2,2
India,Bihar,Saharsa,"Police Line, Saharsa - BSPCB",03-06-2024 10:00:00,25.892357,86.590325,PM10,36,101,58
India,Bihar,Saharsa,"Police Line, Saharsa - BSPCB",03-06-2024 10:00:00,25.892357,86.590325,NH3,9,9,9
India,Bihar,Samastipur,"DM Office_Kasipur, Samastipur - BSPCB",03-06-2024 10:00:00,25.859655,85.77944,SO2,NA,NA,NA
India,Bihar,Samastipur,"DM Office_Kasipur, Samastipur - BSPCB",03-06-2024 10:00:00,25.859655,85.77944,OZONE,NA,NA,NA
India,Bihar,Sasaram,"Dada Peer, Sasaram - BSPCB",03-06-2024 10:00:00,24.952822,84.002396,NO2,9,49,28
India,Bihar,Sasaram,"Dada Peer, Sasaram - BSPCB",03-06-2024 10:00:00,24.952822,84.002396,OZONE,17,75,30
India,Bihar,Siwan,"Chitragupta Nagar, Siwan - BSPCB",03-06-2024 10:00:00,26.2271665,84.3570427,PM10,NA,NA,NA
India,Bihar,Siwan,"Chitragupta Nagar, Siwan - BSPCB",03-06-2024 10:00:00,26.2271665,84.3570427,OZONE,18,75,30
India,Chandigarh,Chandigarh,"Sector-25, Chandigarh - CPCC",03-06-2024 10:00:00,30.751462,76.762879,NO2,3,25,13
India,Chandigarh,Chandigarh,"Sector-25, Chandigarh - CPCC",03-06-2024 10:00:00,30.751462,76.762879,CO,18,40,33
India,Chandigarh,Chandigarh,"Sector-53, Chandigarh - CPCC",03-06-2024 10:00:00,30.719859,76.738637,PM10,128,300,183
India,Chhattisgarh,Bhilai,"32Bungalows, Bhilai - CECB",03-06-2024 10:00:00,21.194815,81.314770,SO2,7,16,11
India,Chhattisgarh,Bhilai,"Civic Center, Bhilai - Bhilai Steel Plant",03-06-2024 10:00:00,21.185571,81.343175,CO,13,65,45
India,Chhattisgarh,Bhilai,"Civic Center, Bhilai - Bhilai Steel Plant",03-06-2024 10:00:00,21.185571,81.343175,OZONE,27,70,38
India,Chhattisgarh,Bhilai,"Hathkhoj, Bhilai - CECB",03-06-2024 10:00:00,21.224231,81.408350,OZONE,31,51,34
India,Chhattisgarh,Korba,"Rampur, Korba - CECB",03-06-2024 10:00:00,22.368195,82.746431,PM10,NA,NA,NA
India,Chhattisgarh,Korba,"Rampur, Korba - CECB",03-06-2024 10:00:00,22.368195,82.746431,SO2,NA,NA,NA
India,Chhattisgarh,Kunjemura,"OP Jindal School, Kunjemura - CECB",03-06-2024 10:00:00,22.126650,83.483212,PM10,22,220,53
India,Chhattisgarh,Milupara,"Govt. Higher Secondary School, Milupara - CECB",03-06-2024 10:00:00,22.1910172,83.5197009,PM10,NA,NA,NA
India,Chhattisgarh,Raipur,"Bhatagaon New ISBT, Raipur - CECB",03-06-2024 10:00:00,21.219665,81.630094,PM2.5,14,48,31
India,Chhattisgarh,Raipur,"Siltara Phase-II, Raipur - CECB",03-06-2024 10:00:00,21.371751,81.664929,SO2,1,30,8
India,Chhattisgarh,Raipur,"Siltara Phase-II, Raipur - CECB",03-06-2024 10:00:00,21.371751,81.664929,CO,6,26,9
India,Chhattisgarh,Tumidih,"OP Jindal Industrial Park, Tumidih - CECB",03-06-2024 10:00:00,22.06631475,83.33820077,PM10,NA,NA,NA
India,Chhattisgarh,Tumidih,"OP Jindal Industrial Park, Tumidih - CECB",03-06-2024 10:00:00,22.06631475,83.33820077,NO2,NA,NA,NA
India,Delhi,Delhi,"Alipur, Delhi - DPCC",03-06-2024 10:00:00,28.815329,77.153010,PM2.5,23,107,57
India,Delhi,Delhi,"Alipur, Delhi - DPCC",03-06-2024 10:00:00,28.815329,77.153010,CO,40,60,53
India,Delhi,Delhi,"Anand Vihar, Delhi - DPCC",03-06-2024 10:00:00,28.647622,77.3158090,PM10,NA,NA,NA
India,Delhi,Delhi,"Anand Vihar, Delhi - DPCC",03-06-2024 10:00:00,28.647622,77.3158090,NO2,NA,NA,NA
India,Delhi,Delhi,"Anand Vihar, Delhi - DPCC",03-06-2024 10:00:00,28.647622,77.3158090,NH3,NA,NA,NA
India,Delhi,Delhi,"Anand Vihar, Delhi - DPCC",03-06-2024 10:00:00,28.647622,77.3158090,CO,102,103,102
India,Delhi,Delhi,"Anand Vihar, Delhi - DPCC",03-06-2024 10:00:00,28.647622,77.3158090,OZONE,25,51,25
India,Delhi,Delhi,"Ashok Vihar, Delhi - DPCC",03-06-2024 10:00:00,28.695381,77.181665,PM10,79,194,119
India,Delhi,Delhi,"Burari Crossing, Delhi - IMD",03-06-2024 10:00:00,28.7256504,77.2011573,NO2,15,17,16
India,Delhi,Delhi,"CRRI Mathura Road, Delhi - IMD",03-06-2024 10:00:00,28.5512005,77.2735737,OZONE,4,52,12
India,Delhi,Delhi,"DTU, Delhi - CPCB",03-06-2024 10:00:00,28.7500499,77.1112615,PM2.5,65,239,114
India,Delhi,Delhi,"DTU, Delhi - CPCB",03-06-2024 10:00:00,28.7500499,77.1112615,PM10,101,500,152
India,Delhi,Delhi,"DTU, Delhi - CPCB",03-06-2024 10:00:00,28.7500499,77.1112615,NH3,12,14,12
India,Delhi,Delhi,"DTU, Delhi - CPCB",03-06-2024 10:00:00,28.7500499,77.1112615,OZONE,44,119,52
India,Delhi,Delhi,"Dr. Karni Singh Shooting Range, Delhi - DPCC",03-06-2024 10:00:00,28.498571,77.264840,NH3,5,7,6
India,Delhi,Delhi,"Dwarka-Sector 8, Delhi - DPCC ",03-06-2024 10:00:00,28.5710274,77.0719006,SO2,10,30,15
India,Delhi,Delhi,"ITO, Delhi - CPCB",03-06-2024 10:00:00,28.628624,77.241060,PM10,35,103,66
India,Delhi,Delhi,"ITO, Delhi - CPCB",03-06-2024 10:00:00,28.628624,77.241060,NO2,53,78,61
India,Delhi,Delhi,"Jawaharlal Nehru Stadium, Delhi - DPCC",03-06-2024 10:00:00,28.580280,77.233829,PM10,75,175,112
India,Delhi,Delhi,"Lodhi Road, Delhi - IITM",03-06-2024 10:00:00,28.588333,77.221667,PM2.5,25,457,104
India,Delhi,Delhi,"Lodhi Road, Delhi - IMD",03-06-2024 10:00:00,28.5918245,77.2273074,PM10,76,139,106
India,Delhi,Delhi,"Lodhi Road, Delhi - IMD",03-06-2024 10:00:00,28.5918245,77.2273074,OZONE,54,89,61
India,Delhi,Delhi,"Major Dhyan Chand National Stadium, Delhi - DPCC",03-06-2024 10:00:00,28.611281,77.237738,NO2,11,119,35
India,Delhi,Delhi,"Mundka, Delhi - DPCC",03-06-2024 10:00:00,28.684678,77.076574,NO2,37,92,62
India,Delhi,Delhi,"NSIT Dwarka, Delhi - CPCB",03-06-2024 10:00:00,28.60909,77.0325413,PM10,118,244,158
India,Delhi,Delhi,"NSIT Dwarka, Delhi - CPCB",03-06-2024 10:00:00,28.60909,77.0325413,NO2,37,65,53
India,Delhi,Delhi,"Narela, Delhi - DPCC",03-06-2024 10:00:00,28.822836,77.101981,PM2.5,47,139,73
India,Delhi,Delhi,"Nehru Nagar, Delhi - DPCC",03-06-2024 10:00:00,28.567890,77.250515,CO,50,85,59
India,Delhi,Delhi,"North Campus, DU, Delhi - IMD",03-06-2024 10:00:00,28.6573814,77.1585447,PM2.5,39,244,104
India,Delhi,Delhi,"North Campus, DU, Delhi - IMD",03-06-2024 10:00:00,28.6573814,77.1585447,PM10,16,232,132
India,Delhi,Delhi,"Patparganj, Delhi - DPCC",03-06-2024 10:00:00,28.623763,77.287209,PM2.5,NA,NA,NA
India,Delhi,Delhi,"Patparganj, Delhi - DPCC",03-06-2024 10:00:00,28.623763,77.287209,PM10,NA,NA,NA
India,Delhi,Delhi,"Patparganj, Delhi - DPCC",03-06-2024 10:00:00,28.623763,77.287209,CO,NA,NA,NA
India,Delhi,Delhi,"Punjabi Bagh, Delhi - DPCC",03-06-2024 10:00:00,28.674045,77.131023,PM2.5,13,203,96
India,Delhi,Delhi,"Punjabi Bagh, Delhi - DPCC",03-06-2024 10:00:00,28.674045,77.131023,SO2,6,53,31
India,Delhi,Delhi,"Pusa, Delhi - DPCC",03-06-2024 10:00:00,28.639652,77.146275,NH3,3,7,6
India,Delhi,Delhi,"Pusa, Delhi - DPCC",03-06-2024 10:00:00,28.639652,77.146275,CO,2,108,34
India,Delhi,Delhi,"Pusa, Delhi - DPCC",03-06-2024 10:00:00,28.639652,77.146275,OZONE,17,112,31
India,Delhi,Delhi,"R K Puram, Delhi - DPCC",03-06-2024 10:00:00,28.563262,77.186937,SO2,4,50,24
India,Delhi,Delhi,"R K Puram, Delhi - DPCC",03-06-2024 10:00:00,28.563262,77.186937,CO,2,79,40
India,Delhi,Delhi,"Rohini, Delhi - DPCC",03-06-2024 10:00:00,28.732528,77.119920,CO,13,86,23
India,Delhi,Delhi,"Sirifort, Delhi - CPCB",03-06-2024 10:00:00,28.5504249,77.2159377,NO2,35,61,46
India,Delhi,Delhi,"Sirifort, Delhi - CPCB",03-06-2024 10:00:00,28.5504249,77.2159377,OZONE,10,58,19
India,Delhi,Delhi,"Sri Aurobindo Marg, Delhi - DPCC",03-06-2024 10:00:00,28.531346,77.190156,PM10,95,173,122
India,Delhi,Delhi,"Vivek Vihar, Delhi - DPCC",03-06-2024 10:00:00,28.672342,77.315260,CO,60,90,66
India,Delhi,Delhi,"Vivek Vihar, Delhi - DPCC",03-06-2024 10:00:00,28.672342,77.315260,OZONE,18,136,30
India,Delhi,Delhi,"Wazirpur, Delhi - DPCC",03-06-2024 10:00:00,28.699793,77.165453,PM2.5,33,170,83
India,Delhi,Delhi,"Wazirpur, Delhi - DPCC",03-06-2024 10:00:00,28.699793,77.165453,OZONE,8,50,12
India,Gujarat,Ahmedabad,"Chandkheda, Ahmedabad - IITM",03-06-2024 10:00:00,23.107969,72.574648,PM10,53,102,78
India,Gujarat,Ahmedabad,"Gyaspur, Ahmedabad - IITM",03-06-2024 10:00:00,22.977134,72.553024,NH3,4,7,6
India,Gujarat,Ahmedabad,"Maninagar, Ahmedabad - GPCB",03-06-2024 10:00:00,23.002657,72.591912,OZONE,12,108,20
India,Gujarat,Ahmedabad,"Raikhad, Ahmedabad - IITM",03-06-2024 10:00:00,23.020509,72.579261,PM10,101,248,164
India,Gujarat,Ahmedabad,"Raikhad, Ahmedabad - IITM",03-06-2024 10:00:00,23.020509,72.579261,SO2,18,22,20
India,Gujarat,Ahmedabad,"Raikhad, Ahmedabad - IITM",03-06-2024 10:00:00,23.020509,72.579261,CO,36,61,38
India,Gujarat,Ankleshwar,"GIDC, Ankleshwar - GPCB",03-06-2024 10:00:00,21.613267,73.010555,CO,22,115,73
India,Gujarat,Ankleshwar,"GIDC, Ankleshwar - GPCB",03-06-2024 10:00:00,21.613267,73.010555,OZONE,22,30,25
India,Gujarat,Gandhinagar,"Sector-10, Gandhinagar - GPCB",03-06-2024 10:00:00,23.221714,72.654328,OZONE,24,56,29
India,Gujarat,Vapi,"Phase-1 GIDC, Vapi - GPCB",03-06-2024 10:00:00,20.362421,72.918013,PM10,NA,NA,NA
India,Gujarat,Vatva,"Phase-4 GIDC, Vatva - GPCB",03-06-2024 10:00:00,22.969611,72.643500,PM10,47,83,61
India,Haryana,Ambala,"Patti Mehar, Ambala - HSPCB",03-06-2024 10:00:00,30.379589,76.778328,NO2,7,20,14
India,Haryana,Ambala,"Patti Mehar, Ambala - HSPCB",03-06-2024 10:00:00,30.379589,76.778328,CO,30,62,43
India,Haryana,Bahadurgarh,"Arya Nagar, Bahadurgarh - HSPCB",03-06-2024 10:00:00,28.6701,76.9254,NO2,20,26,23
India,Haryana,Ballabgarh,"Nathu Colony, Ballabgarh - HSPCB",03-06-2024 10:00:00,28.3419248,77.319699,PM2.5,37,98,71
India,Haryana,Bhiwani,"H.B. Colony, Bhiwani - HSPCB",03-06-2024 10:00:00,28.806223,76.141105,NO2,1,13,8
India,Haryana,Bhiwani,"H.B. Colony, Bhiwani - HSPCB",03-06-2024 10:00:00,28.806223,76.141105,CO,25,96,60
India,Haryana,Charkhi Dadri,"Mini Secretariat, Charkhi Dadri - HSPCB",03-06-2024 10:00:00,28.593883,76.270653,CO,33,112,68
India,Haryana,Dharuhera,"Municipal Corporation Office, Dharuhera -  HSPCB",03-06-2024 10:00:00,28.206800,76.799700,OZONE,12,52,12
India,Haryana,Faridabad,"New Industrial Town, Faridabad - HSPCB",03-06-2024 10:00:00,28.39072,77.30059,CO,3,34,7
India,Haryana,Faridabad,"New Industrial Town, Faridabad - HSPCB",03-06-2024 10:00:00,28.39072,77.30059,OZONE,27,161,48
India,Haryana,Faridabad,"Sector 30, Faridabad - HSPCB",03-06-2024 10:00:00,28.4417,77.3217,PM2.5,202,251,232
India,Haryana,Faridabad,"Sector 30, Faridabad - HSPCB",03-06-2024 10:00:00,28.4417,77.3217,NH3,4,4,4
India,Haryana,Fatehabad,"Huda Sector, Fatehabad - HSPCB",03-06-2024 10:00:00,29.503664,75.467934,NO2,29,31,30
India,Haryana,Fatehabad,"Huda Sector, Fatehabad - HSPCB",03-06-2024 10:00:00,29.503664,75.467934,SO2,1,18,9
India,Haryana,Gurugram,"Sector-51, Gurugram - HSPCB",03-06-2024 10:00:00,28.4227,77.0667,PM2.5,67,119,89
India,Haryana,Gurugram,"Sector-51, Gurugram - HSPCB",03-06-2024 10:00:00,28.4227,77.0667,NH3,6,14,9
India,Haryana,Gurugram,"Sector-51, Gurugram - HSPCB",03-06-2024 10:00:00,28.4227,77.0667,SO2,2,4,3
India,Haryana,Gurugram,"Sector-51, Gurugram - HSPCB",03-06-2024 10:00:00,28.4227,77.0667,OZONE,29,38,30
India,Haryana,Jind,"Police Lines, Jind - HSPCB",03-06-2024 10:00:00,29.307814,76.337619,SO2,3,65,12
India,Haryana,Kaithal,"Rishi Nagar, Kaithal - HSPCB",03-06-2024 10:00:00,29.8006,76.4155,NO2,24,26,25
India,Haryana,Kaithal,"Rishi Nagar, Kaithal - HSPCB",03-06-2024 10:00:00,29.8006,76.4155,NH3,8,8,8
India,Haryana,Kaithal,"Rishi Nagar, Kaithal - HSPCB",03-06-2024 10:00:00,29.8006,76.4155,SO2,1,26,15
India,Haryana,Kaithal,"Rishi Nagar, Kaithal - HSPCB",03-06-2024 10:00:00,29.8006,76.4155,CO,12,52,14
India,Haryana,Karnal,"Sector-12, Karnal - HSPCB",03-06-2024 10:00:00,29.695300,77.002700,PM2.5,150,199,175
India,Haryana,Kurukshetra,"Sector-7, Kurukshetra - HSPCB",03-06-2024 10:00:00,29.966942,76.875879,PM2.5,134,303,225
India,Haryana,Kurukshetra,"Sector-7, Kurukshetra - HSPCB",03-06-2024 10:00:00,29.966942,76.875879,NO2,10,10,10
India,Haryana,Kurukshetra,"Sector-7, Kurukshetra - HSPCB",03-06-2024 10:00:00,29.966942,76.875879,NH3,3,5,5
India,Haryana,Kurukshetra,"Sector-7, Kurukshetra - HSPCB",03-06-2024 10:00:00,29.966942,76.875879,SO2,2,3,2
India,Haryana,Manesar,"Sector-2 IMT, Manesar - HSPCB",03-06-2024 10:00:00,28.360699,76.936090,PM10,34,85,56
India,Haryana,Manesar,"Sector-2 IMT, Manesar - HSPCB",03-06-2024 10:00:00,28.360699,76.936090,NH3,2,4,4
India,Haryana,Narnaul,"Shastri Nagar, Narnaul - HSPCB",03-06-2024 10:00:00,28.060249,76.113115,CO,10,102,57
India,Haryana,Palwal,"Shyam Nagar, Palwal - HSPCB",03-06-2024 10:00:00,28.1485564,77.3320667,NH3,8,9,9
India,Haryana,Palwal,"Shyam Nagar, Palwal - HSPCB",03-06-2024 10:00:00,28.1485564,77.3320667,OZONE,12,61,35
India,Haryana,Panchkula,"Sector-6, Panchkula - HSPCB ",03-06-2024 10:00:00,30.7057778,76.8531805555555,SO2,2,20,5
India,Haryana,Panchkula,"Sector-6, Panchkula - HSPCB ",03-06-2024 10:00:00,30.7057778,76.8531805555555,CO,2,34,33
India,Haryana,Panipat,"Sector-18, Panipat - HSPCB",03-06-2024 10:00:00,29.432304,76.972765,SO2,18,19,19
India,Haryana,Panipat,"Sector-18, Panipat - HSPCB",03-06-2024 10:00:00,29.432304,76.972765,CO,24,26,25
India,Haryana,Panipat,"Sector-18, Panipat - HSPCB",03-06-2024 10:00:00,29.432304,76.972765,OZONE,30,31,30
India,Haryana,Rohtak,"MD University, Rohtak - HSPCB",03-06-2024 10:00:00,28.52123,76.37138,CO,1,47,44
India,Haryana,Sirsa,"F-Block, Sirsa - HSPCB",03-06-2024 10:00:00,29.536400,75.015800,NO2,9,10,10
India,Haryana,Sirsa,"F-Block, Sirsa - HSPCB",03-06-2024 10:00:00,29.536400,75.015800,NH3,12,13,13
India,Haryana,Sirsa,"F-Block, Sirsa - HSPCB",03-06-2024 10:00:00,29.536400,75.015800,SO2,9,16,12
India,Haryana,Yamuna Nagar,"Gobind Pura, Yamuna Nagar - HSPCB",03-06-2024 10:00:00,30.1480566,77.2893471,CO,62,64,63
India,Himachal Pradesh,Baddi,"HIMUDA Complex Phase-1, Baddi - HPPCB",03-06-2024 10:00:00,30.943887,76.801991,PM2.5,52,332,169
India,Himachal Pradesh,Baddi,"HIMUDA Complex Phase-1, Baddi - HPPCB",03-06-2024 10:00:00,30.943887,76.801991,PM10,143,283,202
India,Karnataka,Belgaum,"Ramteerth Nagar, Belgaum - KSPCB",03-06-2024 10:00:00,15.888653,74.541751,PM10,23,41,32
India,Karnataka,Belgaum,"Ramteerth Nagar, Belgaum - KSPCB",03-06-2024 10:00:00,15.888653,74.541751,SO2,9,10,9
India,Karnataka,Belgaum,"Ramteerth Nagar, Belgaum - KSPCB",03-06-2024 10:00:00,15.888653,74.541751,CO,42,58,51
India,Karnataka,Bengaluru,"Bapuji Nagar, Bengaluru - KSPCB",03-06-2024 10:00:00,12.951913,77.539784,PM2.5,7,137,28
India,Karnataka,Bengaluru,"Bapuji Nagar, Bengaluru - KSPCB",03-06-2024 10:00:00,12.951913,77.539784,SO2,4,8,6
India,Karnataka,Bengaluru,"Hebbal, Bengaluru - KSPCB",03-06-2024 10:00:00,13.029152,77.585901,PM2.5,2,30,15
India,Karnataka,Bengaluru,"Hebbal, Bengaluru - KSPCB",03-06-2024 10:00:00,13.029152,77.585901,NH3,1,1,1
India,Karnataka,Bengaluru,"Jigani, Bengaluru - KSPCB",03-06-2024 10:00:00,12.7816279,77.6299145,PM10,NA,NA,NA
India,Karnataka,Bengaluru,"Kasturi Nagar, Bengaluru - KSPCB",03-06-2024 10:00:00,13.003872,77.664217,NO2,16,17,17
India,Karnataka,Bengaluru,"Kasturi Nagar, Bengaluru - KSPCB",03-06-2024 10:00:00,13.003872,77.664217,NH3,3,4,4
India,Karnataka,Bengaluru,"Kasturi Nagar, Bengaluru - KSPCB",03-06-2024 10:00:00,13.003872,77.664217,OZONE,7,63,22
India,Karnataka,Bengaluru,"Peenya, Bengaluru - CPCB",03-06-2024 10:00:00,13.0270199,77.494094,PM10,41,54,48
India,Karnataka,Bengaluru,"Peenya, Bengaluru - CPCB",03-06-2024 10:00:00,13.0270199,77.494094,SO2,12,17,15
India,Karnataka,Bengaluru,"RVCE-Mailasandra, Bengaluru - KSPCB",03-06-2024 10:00:00,12.921418,77.502466,OZONE,39,39,39
India,Karnataka,Bengaluru,"Sanegurava Halli, Bengaluru - KSPCB",03-06-2024 10:00:00,12.990328,77.5431385,SO2,2,3,3
India,Karnataka,Bengaluru,"Sanegurava Halli, Bengaluru - KSPCB",03-06-2024 10:00:00,12.990328,77.5431385,CO,18,106,59
India,Karnataka,Bengaluru,"Shivapura_Peenya, Bengaluru - KSPCB",03-06-2024 10:00:00,13.0246342,77.5080115,NO2,15,16,15
India,Karnataka,Bengaluru,"Silk Board, Bengaluru - KSPCB",03-06-2024 10:00:00,12.917348,77.622813,SO2,NA,NA,NA
India,Karnataka,Chikkamagaluru,"Kalyana Nagara, Chikkamagaluru - KSPCB",03-06-2024 10:00:00,13.328028,75.797056,PM2.5,14,34,23
India,Karnataka,Chikkamagaluru,"Kalyana Nagara, Chikkamagaluru - KSPCB",03-06-2024 10:00:00,13.328028,75.797056,PM10,21,220,43
India,Karnataka,Chikkamagaluru,"Kalyana Nagara, Chikkamagaluru - KSPCB",03-06-2024 10:00:00,13.328028,75.797056,SO2,1,8,3
India,Karnataka,Chikkamagaluru,"Kalyana Nagara, Chikkamagaluru - KSPCB",03-06-2024 10:00:00,13.328028,75.797056,CO,11,130,13
India,Karnataka,Davanagere,"Devaraj Urs Badavane, Davanagere - KSPCB",03-06-2024 10:00:00,14.475800,75.905200,OZONE,19,20,19
India,Karnataka,Gadag,"Panchal Nagar, Gadag - KSPCB",03-06-2024 10:00:00,15.411456,75.638133,NO2,5,26,12
India,Karnataka,Gadag,"Panchal Nagar, Gadag - KSPCB",03-06-2024 10:00:00,15.411456,75.638133,CO,42,54,48
India,Karnataka,Haveri,"Ashwini Nagar, Haveri - KSPCB",03-06-2024 10:00:00,14.791800,75.389600,PM2.5,10,34,24
India,Karnataka,Hubballi,"Lingaraj Nagar, Hubballi - KSPCB",03-06-2024 10:00:00,15.3714823,75.1160168,PM2.5,28,65,48
India,Karnataka,Hubballi,"Lingaraj Nagar, Hubballi - KSPCB",03-06-2024 10:00:00,15.3714823,75.1160168,NH3,2,4,3
India,Karnataka,Hubballi,"Lingaraj Nagar, Hubballi - KSPCB",03-06-2024 10:00:00,15.3714823,75.1160168,SO2,1,25,4
India,Karnataka,Kalaburagi,"Mahatma Basaveswar Colony, Kalaburgi - KSPCB",03-06-2024 10:00:00,17.336318,76.847397,NO2,10,16,13
India,Karnataka,Kalaburagi,"Mahatma Basaveswar Colony, Kalaburgi - KSPCB",03-06-2024 10:00:00,17.336318,76.847397,SO2,1,10,6
India,Karnataka,Karwar,"KHB Colony, Karwar - KSPCB",03-06-2024 10:00:00,14.816666,74.141003,NO2,1,11,3
India,Karnataka,Kolar,"Tamaka Ind. Area, Kolar - KSPCB",03-06-2024 10:00:00,13.1276288,78.1570122,PM10,NA,NA,NA
India,Karnataka,Kolar,"Tamaka Ind. Area, Kolar - KSPCB",03-06-2024 10:00:00,13.1276288,78.1570122,NH3,NA,NA,NA
India,Karnataka,Kolar,"Tamaka Ind. Area, Kolar - KSPCB",03-06-2024 10:00:00,13.1276288,78.1570122,OZONE,23,37,30
India,Karnataka,Koppal,"Diwator Nagar, Koppal - KSPCB",03-06-2024 10:00:00,15.347630,76.181767,PM2.5,NA,NA,NA
India,Karnataka,Madikeri,"Stuart Hill, Madikeri - KSPCB",03-06-2024 10:00:00,12.415911,75.735050,SO2,4,4,4
India,Karnataka,Mangalore,"Kadri, Mangalore - KSPCB",03-06-2024 10:00:00,12.889250,74.853000,PM10,45,74,57
India,Karnataka,Mangalore,"Kadri, Mangalore - KSPCB",03-06-2024 10:00:00,12.889250,74.853000,NH3,2,2,2
India,Karnataka,Mysuru,"Hebbal 1st Stage, Mysuru - KSPCB",03-06-2024 10:00:00,12.21041,76.37376,PM10,20,50,35
India,Karnataka,Mysuru,"Hebbal 1st Stage, Mysuru - KSPCB",03-06-2024 10:00:00,12.21041,76.37376,CO,6,40,24
India,Karnataka,Raichur,"Haji Colony, Raichur - KSPCB",03-06-2024 10:00:00,16.208139,77.348417,PM10,NA,NA,NA
India,Karnataka,Raichur,"Haji Colony, Raichur - KSPCB",03-06-2024 10:00:00,16.208139,77.348417,CO,NA,NA,NA
India,Karnataka,Ramanagara,"Vijay Nagar, Ramanagara - KSPCB",03-06-2024 10:00:00,12.733409,77.298051,NH3,NA,NA,NA
India,Karnataka,Ramanagara,"Vijay Nagar, Ramanagara - KSPCB",03-06-2024 10:00:00,12.733409,77.298051,OZONE,18,36,27
India,Karnataka,Shivamogga,"Vinoba Nagara, Shivamogga - KSPCB",03-06-2024 10:00:00,13.940000,75.555917,SO2,2,10,5
India,Karnataka,Tumakuru,"Thimmalapura, Tumakuru - KSPCB",03-06-2024 10:00:00,13.377516,77.099072,PM2.5,20,38,30
India,Karnataka,Udupi,"Brahmagiri, Udupi - KSPCB",03-06-2024 10:00:00,13.34194444,74.74694444,NO2,27,29,27
India,Karnataka,Yadgir,"Collector Office, Yadgir - KSPCB",03-06-2024 10:00:00,16.7602,77.1428,PM2.5,NA,NA,NA
India,Karnataka,Yadgir,"Collector Office, Yadgir - KSPCB",03-06-2024 10:00:00,16.7602,77.1428,PM10,NA,NA,NA
India,Karnataka,Yadgir,"Collector Office, Yadgir - KSPCB",03-06-2024 10:00:00,16.7602,77.1428,NO2,NA,NA,NA
India,Kerala,Kannur,"Thavakkara, Kannur - Kerala PCB",03-06-2024 10:00:00,11.875000,75.373200,CO,60,74,67
India,Kerala,Kollam,"Polayathode, Kollam - Kerala PCB",03-06-2024 10:00:00,8.8787,76.6073,PM10,48,75,61
India,Kerala,Kollam,"Polayathode, Kollam - Kerala PCB",03-06-2024 10:00:00,8.8787,76.6073,OZONE,30,33,30
India,Kerala,Thiruvananthapuram,"Kariavattom, Thiruvananthapuram - Kerala PCB",03-06-2024 10:00:00,8.563700,76.886500,PM2.5,40,47,44
India,Kerala,Thiruvananthapuram,"Kariavattom, Thiruvananthapuram - Kerala PCB",03-06-2024 10:00:00,8.563700,76.886500,NO2,6,7,6
India,Kerala,Thiruvananthapuram,"Kariavattom, Thiruvananthapuram - Kerala PCB",03-06-2024 10:00:00,8.563700,76.886500,CO,18,54,31
India,Kerala,Thiruvananthapuram,"Plammoodu, Thiruvananthapuram - Kerala PCB",03-06-2024 10:00:00,8.5149093,76.9435879,NO2,8,10,9
India,Madhya Pradesh,Bhopal,"Idgah Hills, Bhopal - MPPCB",03-06-2024 10:00:00,23.264759,77.381568,PM10,92,196,126
India,Madhya Pradesh,Bhopal,"Idgah Hills, Bhopal - MPPCB",03-06-2024 10:00:00,23.264759,77.381568,OZONE,31,86,48
India,Madhya Pradesh,Bhopal,"Paryavaran Parisar, Bhopal - MPPCB",03-06-2024 10:00:00,23.210494,77.425409,CO,2,107,24
India,Madhya Pradesh,Bhopal,"Paryavaran Parisar, Bhopal - MPPCB",03-06-2024 10:00:00,23.210494,77.425409,OZONE,51,109,62
India,Madhya Pradesh,Bhopal,"T T Nagar, Bhopal - MPPCB",03-06-2024 10:00:00,23.233584,77.400574,SO2,9,17,13
India,Madhya Pradesh,Dewas,"Bhopal Chauraha, Dewas - MPPCB",03-06-2024 10:00:00,22.9682591,76.064118,PM2.5,23,62,35
India,Madhya Pradesh,Gwalior,"Deen Dayal Nagar, Gwalior - MPPCB",03-06-2024 10:00:00,26.259242,78.216432,CO,51,65,57
India,Madhya Pradesh,Gwalior,"Maharaj Bada, Gwalior - MPPCB",03-06-2024 10:00:00,26.200388,78.147714,NH3,2,16,6
India,Madhya Pradesh,Gwalior,"Maharaj Bada, Gwalior - MPPCB",03-06-2024 10:00:00,26.200388,78.147714,SO2,7,36,17
India,Madhya Pradesh,Gwalior,"Maharaj Bada, Gwalior - MPPCB",03-06-2024 10:00:00,26.200388,78.147714,CO,NA,NA,NA
India,Madhya Pradesh,Gwalior,"Phool Bagh, Gwalior - Mondelez Ind. Food",03-06-2024 10:00:00,26.210536,78.171,PM2.5,29,260,140
India,Madhya Pradesh,Indore,"Chhoti Gwaltoli, Indore - MPPCB",03-06-2024 10:00:00,22.4310,75.5213,NH3,NA,NA,NA
India,Madhya Pradesh,Indore,"Chhoti Gwaltoli, Indore - MPPCB",03-06-2024 10:00:00,22.4310,75.5213,SO2,NA,NA,NA
India,Madhya Pradesh,Indore,"Maguda Nagar, Indore - IMC",03-06-2024 10:00:00,22.7524,75.8872,NO2,3,5,4
India,Madhya Pradesh,Indore,"Maguda Nagar, Indore - IMC",03-06-2024 10:00:00,22.7524,75.8872,OZONE,2,12,3
India,Madhya Pradesh,Jabalpur,"Govindh Bhavan Colony, Jabalpur - JMC",03-06-2024 10:00:00,23.163174,79.973061,NO2,5,32,17
India,Madhya Pradesh,Jabalpur,"Govindh Bhavan Colony, Jabalpur - JMC",03-06-2024 10:00:00,23.163174,79.973061,NH3,3,3,3
India,Madhya Pradesh,Jabalpur,"Govindh Bhavan Colony, Jabalpur - JMC",03-06-2024 10:00:00,23.163174,79.973061,SO2,13,61,26
India,Madhya Pradesh,Jabalpur,"Gupteshwar, Jabalpur - JMC",03-06-2024 10:00:00,23.142888,79.916147,NO2,7,68,21
India,Madhya Pradesh,Jabalpur,"Marhatal, Jabalpur - MPPCB",03-06-2024 10:00:00,23.168606,79.932247,PM10,75,131,107
India,Madhya Pradesh,Jabalpur,"Suhagi, Jabalpur - JMC",03-06-2024 10:00:00,23.218135,79.957770,SO2,13,18,16
India,Madhya Pradesh,Katni,"Gole Bazar, Katni - MPPCB",03-06-2024 10:00:00,23.50016,80.23284,PM10,57,111,81
India,Madhya Pradesh,Maihar,"Sahilara, Maihar - KJS Cements",03-06-2024 10:00:00,24.2613009,80.7231783,SO2,13,13,13
India,Madhya Pradesh,Mandideep,"Sector-D Industrial Area, Mandideep - MPPCB",03-06-2024 10:00:00,23.108440,77.511428,CO,30,82,43
India,Madhya Pradesh,Singrauli,"Suryakiran Bhawan NCL, Singrauli - MPPCB",03-06-2024 10:00:00,24.108970,82.645580,PM10,57,158,102
India,Madhya Pradesh,Singrauli,"Suryakiran Bhawan NCL, Singrauli - MPPCB",03-06-2024 10:00:00,24.108970,82.645580,NH3,3,5,4
India,Madhya Pradesh,Ujjain,"Mahakaleshwar Temple, Ujjain - MPPCB",03-06-2024 10:00:00,23.182719 ,75.768218 ,NO2,14,32,19
India,Maharashtra,Ahmednagar,"Tarakpur, Ahmednagar - MPCB",03-06-2024 10:00:00,19.10122,74.73339,NH3,2,11,6
India,Maharashtra,Ahmednagar,"Tarakpur, Ahmednagar - MPCB",03-06-2024 10:00:00,19.10122,74.73339,SO2,17,22,20
India,Maharashtra,Akola,"Ramdaspeth, Akola - MPCB",03-06-2024 10:00:00,20.719516,77.000253,SO2,14,31,20
India,Maharashtra,Amravati,"Shri Shivaji Science College, Amaravati - MPCB",03-06-2024 10:00:00,20.939198,77.765701,NO2,4,27,11
India,Maharashtra,Amravati,"Shri Shivaji Science College, Amaravati - MPCB",03-06-2024 10:00:00,20.939198,77.765701,SO2,4,8,5
India,Maharashtra,Amravati,"Shri Shivaji Science College, Amaravati - MPCB",03-06-2024 10:00:00,20.939198,77.765701,OZONE,21,68,30
India,Maharashtra,Aurangabad,"More Chowk Waluj, Aurangabad - MPCB",03-06-2024 10:00:00,19.8389439,75.244448,NH3,9,10,9
India,Maharashtra,Aurangabad,"Rachnakar Colony, Aurangabad - MPCB",03-06-2024 10:00:00,19.863756,75.321188,PM10,60,155,104
India,Maharashtra,Badlapur,"Katrap, Badlapur - MPCB",03-06-2024 10:00:00,19.16485,73.23409,NH3,1,4,2
India,Maharashtra,Badlapur,"Katrap, Badlapur - MPCB",03-06-2024 10:00:00,19.16485,73.23409,SO2,7,20,13
India,Maharashtra,Bhiwandi,"Gokul Nagar, Bhiwandi - MPCB",03-06-2024 10:00:00,19.309073,73.057223,SO2,9,21,15
India,Maharashtra,Boisar,"Khaira, Boisar - MPCB",03-06-2024 10:00:00,19.786089,72.757971,PM2.5,11,167,64
India,Maharashtra,Boisar,"Khaira, Boisar - MPCB",03-06-2024 10:00:00,19.786089,72.757971,PM10,24,132,81
India,Maharashtra,Chandrapur,"Chauhan Colony, Chandrapur - MPCB",03-06-2024 10:00:00,19.962900,79.298714,NO2,11,33,20
India,Maharashtra,Chandrapur,"MIDC Khutala, Chandrapur - MPCB",03-06-2024 10:00:00,19.9775302,79.2337086,NH3,7,17,10
India,Maharashtra,Chandrapur,"MIDC Khutala, Chandrapur - MPCB",03-06-2024 10:00:00,19.9775302,79.2337086,CO,12,52,32
India,Maharashtra,Chandrapur,"MIDC Khutala, Chandrapur - MPCB",03-06-2024 10:00:00,19.9775302,79.2337086,OZONE,9,64,29
India,Maharashtra,Dhule,"Deopur, Dhule - MPCB",03-06-2024 10:00:00,20.918946,74.776388,OZONE,19,161,25
India,Maharashtra,Jalgaon,"Prabhat Colony, Jalgaon - MPCB",03-06-2024 10:00:00,21.001264,75.565602,PM10,55,174,107
India,Maharashtra,Kolhapur,"Shivaji University, Kolhapur - MPCB",03-06-2024 10:00:00,16.6870449,74.2505872,NH3,2,4,3
India,Maharashtra,Kolhapur,"Shivaji University, Kolhapur - MPCB",03-06-2024 10:00:00,16.6870449,74.2505872,CO,44,64,52
India,Maharashtra,Kolhapur,"Shivaji University, Kolhapur - MPCB",03-06-2024 10:00:00,16.6870449,74.2505872,OZONE,12,58,22
India,Maharashtra,Kolhapur,"Sinchan Bhavan, Kolhapur - MPCB",03-06-2024 10:00:00,16.7143745,74.2426398,PM2.5,21,34,27
India,Maharashtra,Kolhapur,"Sinchan Bhavan, Kolhapur - MPCB",03-06-2024 10:00:00,16.7143745,74.2426398,PM10,32,55,42
India,Maharashtra,Latur,"Sawe Wadi, Latur - MPCB",03-06-2024 10:00:00,18.39963,76.57452,PM10,50,102,71
India,Maharashtra,Latur,"Sawe Wadi, Latur - MPCB",03-06-2024 10:00:00,18.39963,76.57452,CO,4,72,17
India,Maharashtra,Malegaon,"Mahesh Nagar, Malegaon - MPCB",03-06-2024 10:00:00,20.555712,74.529236,PM10,69,126,96
India,Maharashtra,Malegaon,"Mahesh Nagar, Malegaon - MPCB",03-06-2024 10:00:00,20.555712,74.529236,SO2,5,13,9
India,Maharashtra,Mumbai,"Bandra Kurla Complex, Mumbai - MPCB",03-06-2024 10:00:00,19.065931,72.862131,PM10,59,92,73
India,Maharashtra,Mumbai,"Bandra Kurla Complex, Mumbai - MPCB",03-06-2024 10:00:00,19.065931,72.862131,NO2,4,12,6
India,Maharashtra,Mumbai,"Bandra Kurla Complex, Mumbai - MPCB",03-06-2024 10:00:00,19.065931,72.862131,CO,32,53,43
India,Maharashtra,Mumbai,"Borivali East, Mumbai - MPCB",03-06-2024 10:00:00,19.2243333,72.8658113,SO2,11,27,15
India,Maharashtra,Mumbai,"Borivali East, Mumbai - MPCB",03-06-2024 10:00:00,19.2243333,72.8658113,CO,34,38,36
India,Maharashtra,Mumbai,"Byculla, Mumbai - BMC",03-06-2024 10:00:00,18.9767,72.8380,PM2.5,6,20,14
India,Maharashtra,Mumbai,"Byculla, Mumbai - BMC",03-06-2024 10:00:00,18.9767,72.8380,NO2,17,20,19
India,Maharashtra,Mumbai,"Byculla, Mumbai - BMC",03-06-2024 10:00:00,18.9767,72.8380,SO2,NA,NA,NA
India,Maharashtra,Mumbai,"Chakala-Andheri East, Mumbai - IITM",03-06-2024 10:00:00,19.11074,72.86084,PM2.5,12,72,31
India,Maharashtra,Mumbai,"Chakala-Andheri East, Mumbai - IITM",03-06-2024 10:00:00,19.11074,72.86084,NO2,26,36,30
India,Maharashtra,Mumbai,"Chembur, Mumbai - MPCB",03-06-2024 10:00:00,19.0364585,72.8954371,PM2.5,20,59,31
India,Maharashtra,Mumbai,"Chhatrapati Shivaji Intl. Airport (T2), Mumbai - MPCB",03-06-2024 10:00:00,19.10078,72.87462,SO2,13,22,18
India,Maharashtra,Mumbai,"Colaba, Mumbai - MPCB",03-06-2024 10:00:00,18.910000,72.820000,PM2.5,21,76,43
India,Maharashtra,Mumbai,"Deonar, Mumbai - IITM",03-06-2024 10:00:00,19.04946,72.9230,NO2,5,10,6
India,Maharashtra,Mumbai,"Deonar, Mumbai - IITM",03-06-2024 10:00:00,19.04946,72.9230,SO2,9,30,17
India,Maharashtra,Mumbai,"Ghatkopar, Mumbai - BMC",03-06-2024 10:00:00,19.083694,72.920967,NH3,1,22,12
India,Maharashtra,Mumbai,"Kandivali East, Mumbai - MPCB",03-06-2024 10:00:00,19.205800,72.868200,CO,30,34,33
India,Maharashtra,Mumbai,"Kherwadi_Bandra East, Mumbai - MPCB",03-06-2024 10:00:00,19.0632143,72.8456324,NO2,1,9,5
India,Maharashtra,Mumbai,"Kherwadi_Bandra East, Mumbai - MPCB",03-06-2024 10:00:00,19.0632143,72.8456324,CO,6,16,8
India,Maharashtra,Mumbai,"Khindipada-Bhandup West, Mumbai - IITM",03-06-2024 10:00:00,19.1653323,72.922099,PM2.5,13,61,34
India,Maharashtra,Mumbai,"Khindipada-Bhandup West, Mumbai - IITM",03-06-2024 10:00:00,19.1653323,72.922099,PM10,13,72,38
India,Maharashtra,Mumbai,"Khindipada-Bhandup West, Mumbai - IITM",03-06-2024 10:00:00,19.1653323,72.922099,NO2,4,9,5
India,Maharashtra,Mumbai,"Khindipada-Bhandup West, Mumbai - IITM",03-06-2024 10:00:00,19.1653323,72.922099,OZONE,5,20,7
India,Maharashtra,Mumbai,"Mindspace-Malad West, Mumbai - MPCB",03-06-2024 10:00:00,19.1878657,72.8304069,PM10,26,53,40
India,Maharashtra,Mumbai,"Navy Nagar-Colaba, Mumbai - IITM",03-06-2024 10:00:00,18.897756,72.813320,PM2.5,19,39,27
India,Maharashtra,Mumbai,"Navy Nagar-Colaba, Mumbai - IITM",03-06-2024 10:00:00,18.897756,72.813320,PM10,37,70,51
India,Maharashtra,Mumbai,"Navy Nagar-Colaba, Mumbai - IITM",03-06-2024 10:00:00,18.897756,72.813320,NO2,46,57,51
India,Maharashtra,Mumbai,"Navy Nagar-Colaba, Mumbai - IITM",03-06-2024 10:00:00,18.897756,72.813320,CO,32,39,36
India,Maharashtra,Mumbai,"Powai, Mumbai - MPCB",03-06-2024 10:00:00,19.137500,72.915056,OZONE,1,10,1
India,Maharashtra,Mumbai,"Sewri, Mumbai - BMC",03-06-2024 10:00:00,19.000084,72.856730,NO2,NA,NA,NA
India,Maharashtra,Mumbai,"Siddharth Nagar-Worli, Mumbai - IITM",03-06-2024 10:00:00,19.000083,72.813993,PM10,33,85,69
India,Maharashtra,Mumbai,"Sion, Mumbai - MPCB",03-06-2024 10:00:00,19.047000,72.874600,PM2.5,26,47,38
India,Maharashtra,Mumbai,"Sion, Mumbai - MPCB",03-06-2024 10:00:00,19.047000,72.874600,PM10,46,116,69
India,Maharashtra,Mumbai,"Sion, Mumbai - MPCB",03-06-2024 10:00:00,19.047000,72.874600,CO,46,52,47
India,Maharashtra,Mumbai,"Vasai West, Mumbai - MPCB",03-06-2024 10:00:00,19.383200,72.820400,NO2,25,28,27
India,Maharashtra,Mumbai,"Worli, Mumbai - MPCB",03-06-2024 10:00:00,18.9936162,72.8128113,CO,24,24,24
India,Maharashtra,Nagpur,"Ambazari, Nagpur - MPCB",03-06-2024 10:00:00,21.121801,79.04952,CO,12,103,23
India,Maharashtra,Nagpur,"Ambazari, Nagpur - MPCB",03-06-2024 10:00:00,21.121801,79.04952,OZONE,4,91,34
India,Maharashtra,Nagpur,"Mahal, Nagpur - MPCB",03-06-2024 10:00:00,21.14472,79.107595,PM10,55,139,88
India,Maharashtra,Nagpur,"Mahal, Nagpur - MPCB",03-06-2024 10:00:00,21.14472,79.107595,NH3,3,10,5
India,Maharashtra,Nagpur,"Opp GPO Civil Lines, Nagpur - MPCB",03-06-2024 10:00:00,21.152875,79.0517531,NH3,3,10,4
India,Maharashtra,Nagpur,"Opp GPO Civil Lines, Nagpur - MPCB",03-06-2024 10:00:00,21.152875,79.0517531,CO,12,96,19
India,Maharashtra,Nanded,"Sneh Nagar, Nanded - MPCB",03-06-2024 10:00:00,19.173852,77.296291,CO,2,40,12
India,Maharashtra,Nashik,"Gangapur Road, Nashik - MPCB",03-06-2024 10:00:00,20.0073285,73.7762427,CO,5,39,26
India,Maharashtra,Nashik,"Hirawadi, Nashik - MPCB",03-06-2024 10:00:00,20.021503,73.813844,SO2,15,24,20
India,Maharashtra,Nashik,"Hirawadi, Nashik - MPCB",03-06-2024 10:00:00,20.021503,73.813844,CO,10,16,12
India,Maharashtra,Nashik,"MIDC Ambad, Nashik - MPCB",03-06-2024 10:00:00,19.950220,73.731480,NO2,14,38,22
India,Maharashtra,Nashik,"Pandav Nagari, Nashik - MPCB",03-06-2024 10:00:00,19.9591346,73.7788008,PM10,39,66,52
India,Maharashtra,Nashik,"Pandav Nagari, Nashik - MPCB",03-06-2024 10:00:00,19.9591346,73.7788008,NH3,2,4,3
India,Maharashtra,Nashik,"Pandav Nagari, Nashik - MPCB",03-06-2024 10:00:00,19.9591346,73.7788008,CO,7,10,8
India,Maharashtra,Navi Mumbai,"Kopripada-Vashi, Navi Mumbai - MPCB",03-06-2024 10:00:00,19.090337,73.014232,NO2,18,67,39
India,Maharashtra,Navi Mumbai,"Mahape, Navi Mumbai - MPCB",03-06-2024 10:00:00,19.1135051,73.008978,NH3,2,2,2
India,Maharashtra,Navi Mumbai,"Nerul, Navi Mumbai - MPCB",03-06-2024 10:00:00,19.008751,73.016620,CO,10,14,12
India,Maharashtra,Navi Mumbai,"Sanpada, Navi Mumbai - MPCB",03-06-2024 10:00:00,19.0575752,73.0151367,CO,8,12,8
India,Maharashtra,Navi Mumbai,"Sector-19A Nerul, Navi Mumbai - IITM",03-06-2024 10:00:00,19.044,73.0325,PM10,NA,NA,NA
India,Maharashtra,Navi Mumbai,"Sector-19A Nerul, Navi Mumbai - IITM",03-06-2024 10:00:00,19.044,73.0325,NH3,18,66,34
India,Maharashtra,Navi Mumbai,"Sector-2E Kalamboli, Navi Mumbai - MPCB",03-06-2024 10:00:00,19.02579,73.10297,PM2.5,20,120,70
India,Maharashtra,Navi Mumbai,"Sector-2E Kalamboli, Navi Mumbai - MPCB",03-06-2024 10:00:00,19.02579,73.10297,NO2,11,26,19
India,Maharashtra,Parbhani,"Masoom Colony, Parbhani - MPCB",03-06-2024 10:00:00,19.265594,76.761463,PM2.5,12,94,56
India,Maharashtra,Pimpri-Chinchwad,"Gavalinagar, Pimpri Chinchwad - MPCB",03-06-2024 10:00:00,18.63673,73.82487,PM2.5,20,42,31
India,Maharashtra,Pimpri-Chinchwad,"Gavalinagar, Pimpri Chinchwad - MPCB",03-06-2024 10:00:00,18.63673,73.82487,NH3,1,3,1
India,Maharashtra,Pune,"Alandi, Pune - IITM",03-06-2024 10:00:00,18.675076,73.892743,PM10,34,79,53
India,Maharashtra,Pune,"Alandi, Pune - IITM",03-06-2024 10:00:00,18.675076,73.892743,OZONE,9,124,25
India,Maharashtra,Pune,"Bhosari, Pune - IITM",03-06-2024 10:00:00,18.640051,73.848956,CO,38,64,46
India,Maharashtra,Pune,"Hadapsar, Pune - IITM",03-06-2024 10:00:00,18.501793,73.927532,OZONE,4,22,8
India,Maharashtra,Pune,"Karve Road, Pune - MPCB",03-06-2024 10:00:00,18.5011743,73.8165527,CO,1,62,25
India,Maharashtra,Pune,"Mhada Colony, Pune - IITM",03-06-2024 10:00:00,18.573040,73.927715,PM10,45,94,68
India,Maharashtra,Pune,"Mhada Colony, Pune - IITM",03-06-2024 10:00:00,18.573040,73.927715,NO2,29,63,48
India,Maharashtra,Pune,"Mhada Colony, Pune - IITM",03-06-2024 10:00:00,18.573040,73.927715,OZONE,2,68,4
India,Maharashtra,Pune,"Savitribai Phule Pune University, Pune - MPCB",03-06-2024 10:00:00,18.547056,73.826908,PM2.5,NA,NA,NA
India,Maharashtra,Pune,"Savitribai Phule Pune University, Pune - MPCB",03-06-2024 10:00:00,18.547056,73.826908,PM10,NA,NA,NA
India,Maharashtra,Sangli,"Vijay Nagar, Sangli - MPCB",03-06-2024 10:00:00, 16.5038,74.3623,PM2.5,14,34,25
India,Maharashtra,Sangli,"Vijay Nagar, Sangli - MPCB",03-06-2024 10:00:00, 16.5038,74.3623,NO2,7,16,11
India,Maharashtra,Sangli,"Vijay Nagar, Sangli - MPCB",03-06-2024 10:00:00, 16.5038,74.3623,NH3,3,4,4
India,Maharashtra,Solapur,"Dnyaneshwar Nagar, Solapur - MPCB",03-06-2024 10:00:00,17.6336264,75.9132495,NO2,4,29,11
India,Maharashtra,Solapur,"Ratandeep Housing Society, Solapur - MPCB",03-06-2024 10:00:00,17.65439,75.90649,PM10,44,117,89
India,Maharashtra,Solapur,"Ratandeep Housing Society, Solapur - MPCB",03-06-2024 10:00:00,17.65439,75.90649,NO2,1,54,14
India,Maharashtra,Solapur,"Solapur, Solapur - MPCB",03-06-2024 10:00:00,17.6599188,75.9063906,NO2,55,56,55
India,Maharashtra,Solapur,"Solapur, Solapur - MPCB",03-06-2024 10:00:00,17.6599188,75.9063906,SO2,106,111,108
India,Maharashtra,Thane,"Pimpleshwar Mandir, Thane - MPCB",03-06-2024 10:00:00,19.192056,72.9585188,PM10,68,105,83
India,Maharashtra,Thane,"Pimpleshwar Mandir, Thane - MPCB",03-06-2024 10:00:00,19.192056,72.9585188,NO2,10,27,17
India,Maharashtra,Ulhasnagar,"Sidhi Vinayak Nagar, Ulhasnagar - MPCB",03-06-2024 10:00:00,19.235581,73.159121,SO2,8,29,16
India,Maharashtra,Ulhasnagar,"Sidhi Vinayak Nagar, Ulhasnagar - MPCB",03-06-2024 10:00:00,19.235581,73.159121,CO,12,42,23
India,Maharashtra,Virar,"Bolinj, Virar - MPCB",03-06-2024 10:00:00,19.4458210,72.7988231,PM2.5,21,74,41
India,Maharashtra,Virar,"Bolinj, Virar - MPCB",03-06-2024 10:00:00,19.4458210,72.7988231,NH3,9,9,9
India,Manipur,Imphal,"Manipur University, Imphal - Manipur PCB",03-06-2024 10:00:00,24.7524239,93.9286218,PM2.5,26,54,37
India,Meghalaya,Shillong,"Lumpyngngad, Shillong - Meghalaya PCB",03-06-2024 10:00:00,25.5586,91.8985,CO,4,16,8
India,Mizoram,Aizawl,"Sikulpuikawn, Aizawl - Mizoram PCB",03-06-2024 10:00:00,23.7176342,92.7192841,CO,9,14,10
India,Nagaland,Kohima,"PWD Juction, Kohima - NPCB",03-06-2024 10:00:00,25.6635413,94.0989878,NO2,3,6,3
India,Nagaland,Kohima,"PWD Juction, Kohima - NPCB",03-06-2024 10:00:00,25.6635413,94.0989878,NH3,NA,NA,NA
India,Nagaland,Kohima,"PWD Juction, Kohima - NPCB",03-06-2024 10:00:00,25.6635413,94.0989878,CO,4,15,10
India,Odisha,Angul,"Hakimapada, Angul - OSPCB",03-06-2024 10:00:00,20.832874,85.104082,PM10,3,138,69
India,Odisha,Balasore,"Kalidaspur, Balasore - OSPCB",03-06-2024 10:00:00,21.51161,86.89088,PM2.5,NA,NA,NA
India,Odisha,Barbil,"Forest Office, Barbil - OSPCB",03-06-2024 10:00:00,22.1166054,85.3945546,PM2.5,25,73,47
India,Odisha,Baripada,"Meher Colony, Baripada - OSPCB",03-06-2024 10:00:00,21.941841,86.728318,PM10,33,73,51
India,Odisha,Baripada,"Meher Colony, Baripada - OSPCB",03-06-2024 10:00:00,21.941841,86.728318,NO2,1,10,5
India,Odisha,Baripada,"Meher Colony, Baripada - OSPCB",03-06-2024 10:00:00,21.941841,86.728318,NH3,2,3,2
India,Odisha,Baripada,"Meher Colony, Baripada - OSPCB",03-06-2024 10:00:00,21.941841,86.728318,CO,10,30,15
India,Odisha,Bhubaneswar,"Lingraj Mandir, Bhubaneswar - OSPCB",03-06-2024 10:00:00,20.240790,85.836784,PM10,NA,NA,NA
India,Odisha,Bhubaneswar,"Lingraj Mandir, Bhubaneswar - OSPCB",03-06-2024 10:00:00,20.240790,85.836784,CO,52,65,58
India,Odisha,Bileipada,"Tata Township, Bileipada - OSPCB",03-06-2024 10:00:00,22.06156703,85.47409613,PM2.5,43,91,62
India,Odisha,Bileipada,"Tata Township, Bileipada - OSPCB",03-06-2024 10:00:00,22.06156703,85.47409613,NO2,4,7,6
India,Odisha,Bileipada,"Tata Township, Bileipada - OSPCB",03-06-2024 10:00:00,22.06156703,85.47409613,SO2,23,36,27
India,Odisha,Brajrajnagar,"GM Office, Brajrajnagar - OSPCB",03-06-2024 10:00:00,21.8004996,83.8396977,NO2,NA,NA,NA
India,Odisha,Brajrajnagar,"GM Office, Brajrajnagar - OSPCB",03-06-2024 10:00:00,21.8004996,83.8396977,OZONE,NA,NA,NA
India,Odisha,Byasanagar,"Ferro Chrome Colony, Byasanagar - OSPCB",03-06-2024 10:00:00,20.94185,86.11510,SO2,3,82,14
India,Odisha,Nayagarh,"Dabuna, Nayagarh - OSPCB",03-06-2024 10:00:00,21.847279,85.416905,PM2.5,36,81,57
India,Odisha,Nayagarh,"Dabuna, Nayagarh - OSPCB",03-06-2024 10:00:00,21.847279,85.416905,SO2,1,4,2
India,Odisha,Nayagarh,"Dabuna, Nayagarh - OSPCB",03-06-2024 10:00:00,21.847279,85.416905,CO,12,20,15
India,Odisha,Nayagarh,"Dabuna, Nayagarh - OSPCB",03-06-2024 10:00:00,21.847279,85.416905,OZONE,14,26,19
India,Odisha,Rairangpur,"Divisional Forest Office, Rairangpur - OSPCB",03-06-2024 10:00:00,22.265816,86.174829,PM10,41,74,60
India,Odisha,Rairangpur,"Divisional Forest Office, Rairangpur - OSPCB",03-06-2024 10:00:00,22.265816,86.174829,NH3,4,4,4
India,Odisha,Rairangpur,"Divisional Forest Office, Rairangpur - OSPCB",03-06-2024 10:00:00,22.265816,86.174829,CO,10,23,12
India,Odisha,Rourkela,"Fertilizer Township, Rourkela - OSPCB",03-06-2024 10:00:00,22.18972222,84.86277778,PM10,NA,NA,NA
India,Odisha,Rourkela,"Sector-2, Rourkela - OSPCB",03-06-2024 10:00:00,22.24500000,84.88111111,PM2.5,34,217,83
India,Odisha,Suakati,"OMC Colony, Suakati - OSPCB",03-06-2024 10:00:00,21.606865,85.510538,NO2,6,12,10
India,Odisha,Suakati,"OMC Colony, Suakati - OSPCB",03-06-2024 10:00:00,21.606865,85.510538,CO,9,10,9
India,Odisha,Tensa,"Barsua Iron Ore Mines, Tensa - OSPCB",03-06-2024 10:00:00,21.869985,85.167016,NH3,1,2,1
India,Odisha,Tensa,"Barsua Iron Ore Mines, Tensa - OSPCB",03-06-2024 10:00:00,21.869985,85.167016,OZONE,3,169,19
India,Punjab,Amritsar,"Golden Temple, Amritsar - PPCB",03-06-2024 10:00:00,31.620000,74.876512,PM2.5,27,308,129
India,Punjab,Amritsar,"Golden Temple, Amritsar - PPCB",03-06-2024 10:00:00,31.620000,74.876512,NO2,30,176,96
India,Punjab,Khanna,"Kalal Majra, Khanna - PPCB",03-06-2024 10:00:00,30.736056 ,76.209694,NH3,12,13,12
India,Punjab,Ludhiana,"Punjab Agricultural University, Ludhiana - PPCB",03-06-2024 10:00:00,30.9028,75.8086,NO2,23,25,23
India,Punjab,Ludhiana,"Punjab Agricultural University, Ludhiana - PPCB",03-06-2024 10:00:00,30.9028,75.8086,NH3,6,6,6
India,Punjab,Mandi Gobindgarh,"RIMT University, Mandi Gobindgarh - PPCB",03-06-2024 10:00:00,30.649961,76.331442,PM2.5,212,453,349
India,Punjab,Mandi Gobindgarh,"RIMT University, Mandi Gobindgarh - PPCB",03-06-2024 10:00:00,30.649961,76.331442,SO2,NA,NA,NA
India,Punjab,Patiala,"Model Town, Patiala - PPCB",03-06-2024 10:00:00,30.349388,76.366642,PM10,107,179,142
India,Punjab,Patiala,"Model Town, Patiala - PPCB",03-06-2024 10:00:00,30.349388,76.366642,CO,10,45,18
India,Punjab,Rupnagar,"Ratanpura, Rupnagar - Ambuja Cements",03-06-2024 10:00:00,31.0325454,76.5623046,CO,20,50,27
India,Rajasthan,Banswara,"Rati Talai, Banswara - RSPCB",03-06-2024 10:00:00,23.555190,74.440010,PM10,74,154,110
India,Rajasthan,Baran,"Bamboliya, Baran - RSPCB",03-06-2024 10:00:00,25.106006,76.469948,OZONE,60,108,72
India,Rajasthan,Barmer,"Railway Colony, Barmer - RSPCB",03-06-2024 10:00:00,25.747299,71.393989,PM10,116,279,183
India,Rajasthan,Barmer,"Railway Colony, Barmer - RSPCB",03-06-2024 10:00:00,25.747299,71.393989,CO,6,20,11
India,Rajasthan,Bharatpur,"Krishna Nagar, Bharatpur - RSPCB",03-06-2024 10:00:00,27.215415,77.50873,NH3,1,2,2
India,Rajasthan,Bharatpur,"Krishna Nagar, Bharatpur - RSPCB",03-06-2024 10:00:00,27.215415,77.50873,SO2,1,3,2
India,Rajasthan,Bhiwadi,"RIICO Ind. Area III, Bhiwadi - RSPCB",03-06-2024 10:00:00,28.194909,76.862296,NO2,24,33,28
India,Rajasthan,Bhiwadi,"RIICO Ind. Area III, Bhiwadi - RSPCB",03-06-2024 10:00:00,28.194909,76.862296,OZONE,10,88,22
India,Rajasthan,Chittorgarh,"Shastri Nagar, Chittorgarh - RSPCB",03-06-2024 10:00:00,24.892047,74.623527,PM10,86,378,122
India,Rajasthan,Chittorgarh,"Shastri Nagar, Chittorgarh - RSPCB",03-06-2024 10:00:00,24.892047,74.623527,SO2,5,27,10
India,Rajasthan,Churu,"Subash Chowk, Churu - RSPCB",03-06-2024 10:00:00,28.296139,74.961696,CO,14,46,42
India,Rajasthan,Dausa,"Khatikan Mohalla, Dausa - RSPCB",03-06-2024 10:00:00,26.895552,76.334753,NO2,NA,NA,NA
India,Rajasthan,Dausa,"Khatikan Mohalla, Dausa - RSPCB",03-06-2024 10:00:00,26.895552,76.334753,NH3,1,6,2
India,Rajasthan,Dausa,"Khatikan Mohalla, Dausa - RSPCB",03-06-2024 10:00:00,26.895552,76.334753,SO2,5,9,7
India,Rajasthan,Dungarpur,"Bhoiwada, Dungarpur - RSPCB",03-06-2024 10:00:00,23.837789,73.714926,PM2.5,38,80,52
India,Rajasthan,Dungarpur,"Bhoiwada, Dungarpur - RSPCB",03-06-2024 10:00:00,23.837789,73.714926,NH3,1,3,2
India,Rajasthan,Dungarpur,"Bhoiwada, Dungarpur - RSPCB",03-06-2024 10:00:00,23.837789,73.714926,SO2,1,10,3
India,Rajasthan,Hanumangarh,"Housing Board, Hanumangarh - RSPCB",03-06-2024 10:00:00,29.610750,74.283608,NO2,2,47,10
India,Rajasthan,Jaipur,"Mansarovar Sector-12, Jaipur - RSPCB",03-06-2024 10:00:00,26.843698,75.766894,SO2,NA,NA,NA
India,Rajasthan,Jaipur,"Police Commissionerate, Jaipur - RSPCB",03-06-2024 10:00:00,26.9164092,75.7994901,PM2.5,44,235,95
India,Rajasthan,Jaipur,"RIICO Sitapura, Jaipur - RSPCB",03-06-2024 10:00:00,26.786682,75.827928,PM2.5,9,57,34
India,Rajasthan,Jaipur,"Sector-2 Murlipura, Jaipur - RSPCB",03-06-2024 10:00:00,26.960669,75.771817,CO,48,79,66
India,Rajasthan,Jaisalmer,"Sadar Bazar, Jaisalmer - RSPCB",03-06-2024 10:00:00,26.912329,70.909168,PM10,123,235,169
India,Rajasthan,Jaisalmer,"Sadar Bazar, Jaisalmer - RSPCB",03-06-2024 10:00:00,26.912329,70.909168,SO2,1,4,3
India,Rajasthan,Jhalawar,"Rajlaxmi Nagar, Jhalawar - RSPCB",03-06-2024 10:00:00,24.588397,76.172782,PM2.5,20,49,34
India,Rajasthan,Jhalawar,"Rajlaxmi Nagar, Jhalawar - RSPCB",03-06-2024 10:00:00,24.588397,76.172782,NO2,13,33,21
India,Rajasthan,Jhunjhunu,"Indra Nagar, Jhunjhunu - RSPCB",03-06-2024 10:00:00,28.108988,75.386577,PM10,33,144,87
India,Rajasthan,Jhunjhunu,"Indra Nagar, Jhunjhunu - RSPCB",03-06-2024 10:00:00,28.108988,75.386577,NO2,15,36,21
India,Rajasthan,Jhunjhunu,"Indra Nagar, Jhunjhunu - RSPCB",03-06-2024 10:00:00,28.108988,75.386577,CO,18,32,29
India,Rajasthan,Jodhpur,"Digari Kalan, Jodhpur - RSPCB",03-06-2024 10:00:00,26.295810,73.082283,SO2,2,4,3
India,Rajasthan,Jodhpur,"Jhalamand, Jodhpur - RSPCB",03-06-2024 10:00:00,26.215415,73.070156,PM10,28,461,90
India,Rajasthan,Jodhpur,"Jhalamand, Jodhpur - RSPCB",03-06-2024 10:00:00,26.215415,73.070156,NH3,2,5,4
India,Rajasthan,Jodhpur,"Jhalamand, Jodhpur - RSPCB",03-06-2024 10:00:00,26.215415,73.070156,OZONE,23,61,40
India,Rajasthan,Jodhpur,"Mandor, Jodhpur - RSPCB",03-06-2024 10:00:00,26.358805,73.047444,PM2.5,12,79,33
India,Rajasthan,Jodhpur,"Mandor, Jodhpur - RSPCB",03-06-2024 10:00:00,26.358805,73.047444,NO2,16,44,24
India,Rajasthan,Jodhpur,"Mandor, Jodhpur - RSPCB",03-06-2024 10:00:00,26.358805,73.047444,SO2,3,5,4
India,Rajasthan,Jodhpur,"Samrat Ashok Udhyan, Jodhpur - RSPCB",03-06-2024 10:00:00,26.253384,72.976571,NH3,2,3,3
India,Rajasthan,Karauli,"Satyawati Vihar, Karauli - RSPCB",03-06-2024 10:00:00,26.506177,77.025989,PM2.5,17,57,37
India,Rajasthan,Karauli,"Satyawati Vihar, Karauli - RSPCB",03-06-2024 10:00:00,26.506177,77.025989,NH3,3,5,4
India,Rajasthan,Karauli,"Satyawati Vihar, Karauli - RSPCB",03-06-2024 10:00:00,26.506177,77.025989,SO2,11,25,18
India,Rajasthan,Kota,"Dhanmandi, Kota - RSPCB",03-06-2024 10:00:00,25.164090,75.858137,PM2.5,17,128,43
India,Rajasthan,Kota,"Dhanmandi, Kota - RSPCB",03-06-2024 10:00:00,25.164090,75.858137,NO2,14,70,27
India,Rajasthan,Kota,"Dhanmandi, Kota - RSPCB",03-06-2024 10:00:00,25.164090,75.858137,SO2,1,42,15
India,Rajasthan,Kota,"Dhanmandi, Kota - RSPCB",03-06-2024 10:00:00,25.164090,75.858137,OZONE,4,129,34
India,Rajasthan,Nagaur,"Karni Colony, Nagaur - RSPCB",03-06-2024 10:00:00,27.213494,73.734444,NO2,6,23,11
India,Rajasthan,Pali,"Indira Colony Vistar, Pali - RSPCB",03-06-2024 10:00:00,25.771061, 73.340227,SO2,6,10,8
India,Rajasthan,Pali,"Indira Colony Vistar, Pali - RSPCB",03-06-2024 10:00:00,25.771061, 73.340227,OZONE,28,55,33
India,Rajasthan,Pratapgarh,"Pragati Nagar, Pratapgarh - RSPCB",03-06-2024 10:00:00,24.041198,74.780702,PM2.5,15,31,22
India,Rajasthan,Pratapgarh,"Pragati Nagar, Pratapgarh - RSPCB",03-06-2024 10:00:00,24.041198,74.780702,PM10,45,110,74
India,Rajasthan,Pratapgarh,"Pragati Nagar, Pratapgarh - RSPCB",03-06-2024 10:00:00,24.041198,74.780702,SO2,2,8,4
India,Rajasthan,Rajsamand,"Dhoinda, Rajsamand - RSPCB",03-06-2024 10:00:00,25.036360,73.883502,PM2.5,10,53,23
India,Rajasthan,Rajsamand,"Dhoinda, Rajsamand - RSPCB",03-06-2024 10:00:00,25.036360,73.883502,CO,10,24,16
India,Rajasthan,Rajsamand,"Dhoinda, Rajsamand - RSPCB",03-06-2024 10:00:00,25.036360,73.883502,OZONE,42,106,60
India,Rajasthan,Sawai Madhopur,"Sahu Nagar, Sawai Madhopur - RSPCB",03-06-2024 10:00:00,26.031443,76.359327,PM2.5,21,75,41
India,Rajasthan,Sawai Madhopur,"Sahu Nagar, Sawai Madhopur - RSPCB",03-06-2024 10:00:00,26.031443,76.359327,NH3,7,19,12
India,Rajasthan,Sikar,"Radhakishan Pura, Sikar - RSPCB",03-06-2024 10:00:00,27.608912,75.153302,PM2.5,19,57,35
India,Rajasthan,Sikar,"Radhakishan Pura, Sikar - RSPCB",03-06-2024 10:00:00,27.608912,75.153302,NH3,7,12,9
India,Rajasthan,Sri Ganganagar,"Old City, Sri Ganganagar - RSPCB",03-06-2024 10:00:00,29.931624,73.864511,PM2.5,81,332,203
India,Rajasthan,Sri Ganganagar,"Old City, Sri Ganganagar - RSPCB",03-06-2024 10:00:00,29.931624,73.864511,NH3,NA,NA,NA
India,Rajasthan,Sri Ganganagar,"Old City, Sri Ganganagar - RSPCB",03-06-2024 10:00:00,29.931624,73.864511,OZONE,1,157,47
India,Rajasthan,Tonk,"Shastri Nagar, Tonk - RSPCB",03-06-2024 10:00:00,26.159933,75.780517,PM2.5,NA,NA,NA
India,Rajasthan,Tonk,"Shastri Nagar, Tonk - RSPCB",03-06-2024 10:00:00,26.159933,75.780517,PM10,NA,NA,NA
India,Rajasthan,Udaipur,"Ashok Nagar, Udaipur - RSPCB",03-06-2024 10:00:00,24.5886166,73.6321397,NO2,8,78,32
India,Rajasthan,Udaipur,"Ashok Nagar, Udaipur - RSPCB",03-06-2024 10:00:00,24.5886166,73.6321397,OZONE,26,49,38
India,TamilNadu,Ariyalur,"Keelapalur, Ariyalur - TNPCB",03-06-2024 10:00:00,11.06825,79.07033,PM10,6,80,38
India,TamilNadu,Chennai,"Alandur Bus Depot, Chennai - CPCB",03-06-2024 10:00:00,12.9099161,80.1076538,SO2,1,10,2
India,TamilNadu,Chennai,"Alandur Bus Depot, Chennai - CPCB",03-06-2024 10:00:00,12.9099161,80.1076538,CO,60,66,62
India,TamilNadu,Chennai,"Alandur Bus Depot, Chennai - CPCB",03-06-2024 10:00:00,12.9099161,80.1076538,OZONE,4,16,6
India,TamilNadu,Chennai,"Kodungaiyur, Chennai - TNPCB",03-06-2024 10:00:00,13.1278,80.2642,NO2,8,22,14
India,TamilNadu,Chennai,"Manali, Chennai - CPCB",03-06-2024 10:00:00,13.164544,80.26285,PM2.5,60,194,111
India,TamilNadu,Chennai,"Manali, Chennai - CPCB",03-06-2024 10:00:00,13.164544,80.26285,SO2,4,8,6
India,TamilNadu,Chennai,"Manali, Chennai - CPCB",03-06-2024 10:00:00,13.164544,80.26285,CO,96,106,102
India,TamilNadu,Coimbatore,"PSG College of Arts and Science, Coimbatore - TNPCB",03-06-2024 10:00:00,11.0328,77.0349,NH3,1,1,1
India,TamilNadu,Coimbatore,"PSG College of Arts and Science, Coimbatore - TNPCB",03-06-2024 10:00:00,11.0328,77.0349,OZONE,3,5,4
India,TamilNadu,Cuddalore,"Kudikadu, Cuddalore - TNPCB",03-06-2024 10:00:00,11.6829898,79.7532099,NH3,3,3,3
India,TamilNadu,Cuddalore,"Kudikadu, Cuddalore - TNPCB",03-06-2024 10:00:00,11.6829898,79.7532099,SO2,9,11,10
India,TamilNadu,Gummidipoondi,"Anthoni Pillai Nagar, Gummidipoondi - TNPCB",03-06-2024 10:00:00,13.4127,80.1081,SO2,1,48,12
India,TamilNadu,Ooty,"Bombay Castel, Ooty - TNPCB",03-06-2024 10:00:00,11.4068288,76.7138973,NO2,NA,NA,NA
India,TamilNadu,Ooty,"Bombay Castel, Ooty - TNPCB",03-06-2024 10:00:00,11.4068288,76.7138973,CO,22,22,22
India,TamilNadu,Ooty,"Bombay Castel, Ooty - TNPCB",03-06-2024 10:00:00,11.4068288,76.7138973,OZONE,5,5,5
India,TamilNadu,Ramanathapuram,"Chalai Bazaar, Ramanathapuram - TNPCB",03-06-2024 10:00:00,9.36399,78.831977,PM2.5,NA,NA,NA
India,TamilNadu,Ramanathapuram,"Chalai Bazaar, Ramanathapuram - TNPCB",03-06-2024 10:00:00,9.36399,78.831977,PM10,NA,NA,NA
India,TamilNadu,Ramanathapuram,"Chalai Bazaar, Ramanathapuram - TNPCB",03-06-2024 10:00:00,9.36399,78.831977,NH3,NA,NA,NA
India,Telangana,Hyderabad,"Central University, Hyderabad - TSPCB",03-06-2024 10:00:00,17.460103,78.334361,SO2,4,12,8
India,Telangana,Hyderabad,"ICRISAT Patancheru, Hyderabad - TSPCB",03-06-2024 10:00:00,17.518400,78.278777,NO2,15,17,16
India,Telangana,Hyderabad,"ICRISAT Patancheru, Hyderabad - TSPCB",03-06-2024 10:00:00,17.518400,78.278777,NH3,2,2,2
India,Telangana,Hyderabad,"IITH Kandi, Hyderabad - TSPCB",03-06-2024 10:00:00,17.585705,78.126199,OZONE,NA,NA,NA
India,Telangana,Hyderabad,"Nacharam_TSIIC IALA, Hyderabad - TSPCB",03-06-2024 10:00:00,17.429398,78.569354,CO,20,38,22
India,Telangana,Hyderabad,"New Malakpet, Hyderabad - TSPCB",03-06-2024 10:00:00,17.37206,78.50864,SO2,5,20,18
India,Telangana,Hyderabad,"Somajiguda, Hyderabad - TSPCB",03-06-2024 10:00:00,17.417094,78.457437,SO2,16,19,17
India,Tripura,Agartala,"Bardowali, Agartala - Tripura SPCB",03-06-2024 10:00:00,23.8175497,91.2726974,NO2,2,7,5
India,Uttar_Pradesh,Agra,"Manoharpur, Agra - UPPCB",03-06-2024 10:00:00,27.23711,78.01936,PM2.5,20,79,41
India,Uttar_Pradesh,Agra,"Manoharpur, Agra - UPPCB",03-06-2024 10:00:00,27.23711,78.01936,PM10,15,58,30
India,Uttar_Pradesh,Agra,"Rohta, Agra - UPPCB",03-06-2024 10:00:00,27.106972,78.000111,PM2.5,9,49,30
India,Uttar_Pradesh,Agra,"Sanjay Palace, Agra - UPPCB",03-06-2024 10:00:00,27.19865833,78.00598056,SO2,2,12,7
India,Uttar_Pradesh,Agra,"Sanjay Palace, Agra - UPPCB",03-06-2024 10:00:00,27.19865833,78.00598056,CO,1,94,11
India,Uttar_Pradesh,Agra,"Sector-3B Avas Vikas Colony, Agra - UPPCB",03-06-2024 10:00:00,27.19412,77.96237,SO2,12,19,15
India,Uttar_Pradesh,Agra,"Shastripuram, Agra - UPPCB",03-06-2024 10:00:00,27.19862,77.92066,PM2.5,7,78,32
India,Uttar_Pradesh,Agra,"Shastripuram, Agra - UPPCB",03-06-2024 10:00:00,27.19862,77.92066,SO2,5,6,6
India,Uttar_Pradesh,Baghpat,"Sardar Patel Inter College, Baghpat - UPPCB",03-06-2024 10:00:00,28.964949,77.278761,NO2,20,40,26
India,Uttar_Pradesh,Baghpat,"Sardar Patel Inter College, Baghpat - UPPCB",03-06-2024 10:00:00,28.964949,77.278761,CO,44,93,52
India,Uttar_Pradesh,Bareilly,"Civil Lines, Bareilly - UPPCB",03-06-2024 10:00:00,28.359581,79.414455,PM2.5,14,34,21
India,Uttar_Pradesh,Bareilly,"Rajendra Nagar, Bareilly - UPPCB",03-06-2024 10:00:00,28.38910936,79.42963708,PM2.5,24,37,30
India,Uttar_Pradesh,Bareilly,"Rajendra Nagar, Bareilly - UPPCB",03-06-2024 10:00:00,28.38910936,79.42963708,NH3,1,7,1
India,Uttar_Pradesh,Bareilly,"Rajendra Nagar, Bareilly - UPPCB",03-06-2024 10:00:00,28.38910936,79.42963708,SO2,47,59,52
India,Uttar_Pradesh,Bareilly,"Rajendra Nagar, Bareilly - UPPCB",03-06-2024 10:00:00,28.38910936,79.42963708,CO,2,77,17
India,Uttar_Pradesh,Bulandshahr,"Yamunapuram, Bulandshahr - UPPCB",03-06-2024 10:00:00,28.406963,77.849831,PM2.5,43,103,62
India,Uttar_Pradesh,Bulandshahr,"Yamunapuram, Bulandshahr - UPPCB",03-06-2024 10:00:00,28.406963,77.849831,NH3,10,15,13
India,Uttar_Pradesh,Firozabad,"Nagla Bhau, Firozabad - UPPCB",03-06-2024 10:00:00,27.168897,78.376960,PM2.5,13,162,42
India,Uttar_Pradesh,Firozabad,"Nagla Bhau, Firozabad - UPPCB",03-06-2024 10:00:00,27.168897,78.376960,PM10,21,130,63
India,Uttar_Pradesh,Firozabad,"Nagla Bhau, Firozabad - UPPCB",03-06-2024 10:00:00,27.168897,78.376960,NH3,2,2,2
India,Uttar_Pradesh,Firozabad,"Nagla Bhau, Firozabad - UPPCB",03-06-2024 10:00:00,27.168897,78.376960,OZONE,16,19,17
India,Uttar_Pradesh,Ghaziabad,"Indirapuram, Ghaziabad - UPPCB",03-06-2024 10:00:00,28.646233,77.358075,NO2,30,74,48
India,Uttar_Pradesh,Ghaziabad,"Indirapuram, Ghaziabad - UPPCB",03-06-2024 10:00:00,28.646233,77.358075,CO,32,70,42
India,Uttar_Pradesh,Ghaziabad,"Loni, Ghaziabad - UPPCB",03-06-2024 10:00:00,28.757294,77.278792,OZONE,2,52,6
India,Uttar_Pradesh,Ghaziabad,"Sanjay Nagar, Ghaziabad - UPPCB",03-06-2024 10:00:00,28.685382,77.453839,NO2,NA,NA,NA
India,Uttar_Pradesh,Ghaziabad,"Vasundhara, Ghaziabad - UPPCB",03-06-2024 10:00:00,28.6603346,77.3572563,CO,24,80,39
India,Uttar_Pradesh,Ghaziabad,"Vasundhara, Ghaziabad - UPPCB",03-06-2024 10:00:00,28.6603346,77.3572563,OZONE,22,126,36
India,Uttar_Pradesh,Gorakhpur,"Madan Mohan Malaviya University of Technology, Gorakhpur - UPPCB",03-06-2024 10:00:00,26.730136,83.433859,NO2,11,11,11
India,Uttar_Pradesh,Gorakhpur,"Madan Mohan Malaviya University of Technology, Gorakhpur - UPPCB",03-06-2024 10:00:00,26.730136,83.433859,NH3,1,1,1
India,Uttar_Pradesh,Gorakhpur,"Madan Mohan Malaviya University of Technology, Gorakhpur - UPPCB",03-06-2024 10:00:00,26.730136,83.433859,CO,2,20,9
India,Uttar_Pradesh,Greater Noida,"Knowledge Park - III, Greater Noida - UPPCB",03-06-2024 10:00:00,28.47272,77.482000,PM10,110,296,154
India,Uttar_Pradesh,Hapur,"Anand Vihar, Hapur - UPPCB",03-06-2024 10:00:00,28.725645,77.749675,PM2.5,26,97,52
India,Uttar_Pradesh,Hapur,"Anand Vihar, Hapur - UPPCB",03-06-2024 10:00:00,28.725645,77.749675,CO,28,70,46
India,Uttar_Pradesh,Jhansi,"Shivaji Nagar, Jhansi - UPPCB",03-06-2024 10:00:00,25.4547,78.6039,PM2.5,34,97,58
India,Uttar_Pradesh,Jhansi,"Shivaji Nagar, Jhansi - UPPCB",03-06-2024 10:00:00,25.4547,78.6039,PM10,34,99,59
India,Uttar_Pradesh,Kanpur,"FTI Kidwai Nagar, Kanpur - UPPCB",03-06-2024 10:00:00,26.428282,80.327067,OZONE,18,53,21
India,Uttar_Pradesh,Kanpur,"NSI Kalyanpur, Kanpur - UPPCB",03-06-2024 10:00:00,26.509954,80.249612,PM2.5,8,98,72
India,Uttar_Pradesh,Kanpur,"NSI Kalyanpur, Kanpur - UPPCB",03-06-2024 10:00:00,26.509954,80.249612,CO,30,47,44
India,Uttar_Pradesh,Khurja,"Kalindi Kunj, Khurja - UPPCB",03-06-2024 10:00:00,28.2348927,77.8683002,NO2,5,21,17
India,Uttar_Pradesh,Lucknow,"Gomti Nagar, Lucknow - UPPCB",03-06-2024 10:00:00,26.868120,81.005119,PM10,64,127,96
India,Uttar_Pradesh,Lucknow,"Kendriya Vidyalaya, Lucknow - CPCB",03-06-2024 10:00:00,26.906111,80.948222,PM2.5,98,198,142
India,Uttar_Pradesh,Lucknow,"Kendriya Vidyalaya, Lucknow - CPCB",03-06-2024 10:00:00,26.906111,80.948222,OZONE,19,93,36
India,Uttar_Pradesh,Lucknow,"Kukrail Picnic Spot-1, Lucknow - UPPCB",03-06-2024 10:00:00,26.90723,80.98579,NH3,2,2,2
India,Uttar_Pradesh,Lucknow,"Lalbagh, Lucknow - CPCB",03-06-2024 10:00:00,26.8458805,80.9365541,OZONE,24,160,41
India,Uttar_Pradesh,Lucknow,"Talkatora District Industries Center, Lucknow - CPCB",03-06-2024 10:00:00,26.83399722,80.8917361,PM2.5,130,266,188
India,Uttar_Pradesh,Lucknow,"Talkatora District Industries Center, Lucknow - CPCB",03-06-2024 10:00:00,26.83399722,80.8917361,PM10,123,167,137
India,Uttar_Pradesh,Lucknow,"Talkatora District Industries Center, Lucknow - CPCB",03-06-2024 10:00:00,26.83399722,80.8917361,NH3,7,16,11
India,Uttar_Pradesh,Meerut,"Ganga Nagar, Meerut - UPPCB",03-06-2024 10:00:00,28.999264,77.7590354,PM2.5,32,82,50
India,Uttar_Pradesh,Meerut,"Ganga Nagar, Meerut - UPPCB",03-06-2024 10:00:00,28.999264,77.7590354,PM10,86,195,138
India,Uttar_Pradesh,Meerut,"Ganga Nagar, Meerut - UPPCB",03-06-2024 10:00:00,28.999264,77.7590354,NO2,14,49,24
India,Uttar_Pradesh,Meerut,"Ganga Nagar, Meerut - UPPCB",03-06-2024 10:00:00,28.999264,77.7590354,NH3,7,21,10
India,Uttar_Pradesh,Meerut,"Jai Bhim Nagar, Meerut - UPPCB",03-06-2024 10:00:00,28.9535882,77.7622941,SO2,8,12,10
India,Uttar_Pradesh,Meerut,"Pallavpuram Phase 2, Meerut - UPPCB",03-06-2024 10:00:00,29.063510,77.709723,PM2.5,35,84,56
India,Uttar_Pradesh,Moradabad,"Buddhi Vihar, Moradabad - UPPCB",03-06-2024 10:00:00,28.83526,78.74460,NO2,23,23,23
India,Uttar_Pradesh,Moradabad,"Eco Herbal Park, Moradabad - UPPCB",03-06-2024 10:00:00,28.840739,78.697531,NO2,9,86,38
India,Uttar_Pradesh,Moradabad,"Eco Herbal Park, Moradabad - UPPCB",03-06-2024 10:00:00,28.840739,78.697531,CO,20,72,42
India,Uttar_Pradesh,Moradabad,"Employment Office, Moradabad - UPPCB",03-06-2024 10:00:00,28.88528,78.73880,NO2,17,17,17
India,Uttar_Pradesh,Moradabad,"Kashiram Nagar, Moradabad - UPPCB",03-06-2024 10:00:00,28.849399,78.742362,PM10,85,243,137
India,Uttar_Pradesh,Moradabad,"Kashiram Nagar, Moradabad - UPPCB",03-06-2024 10:00:00,28.849399,78.742362,CO,23,70,37
India,Uttar_Pradesh,Moradabad,"Transport Nagar, Moradabad - UPPCB",03-06-2024 10:00:00,28.802625,78.753728,NO2,4,5,4
India,Uttar_Pradesh,Moradabad,"Transport Nagar, Moradabad - UPPCB",03-06-2024 10:00:00,28.802625,78.753728,OZONE,4,39,9
India,Uttar_Pradesh,Muzaffarnagar,"New Mandi, Muzaffarnagar - UPPCB",03-06-2024 10:00:00,29.4723508,77.7194031,PM10,157,419,262
India,Uttar_Pradesh,Noida,"Sector - 125, Noida - UPPCB",03-06-2024 10:00:00,28.5447608,77.3231257,PM2.5,49,153,70
India,Uttar_Pradesh,Noida,"Sector - 125, Noida - UPPCB",03-06-2024 10:00:00,28.5447608,77.3231257,PM10,104,435,174
India,Uttar_Pradesh,Noida,"Sector - 125, Noida - UPPCB",03-06-2024 10:00:00,28.5447608,77.3231257,SO2,1,24,14
India,Uttar_Pradesh,Noida,"Sector - 125, Noida - UPPCB",03-06-2024 10:00:00,28.5447608,77.3231257,CO,24,48,40
India,Uttar_Pradesh,Noida,"Sector - 62, Noida - IMD",03-06-2024 10:00:00,28.6245479,77.3577104,PM10,116,193,149
India,Uttar_Pradesh,Noida,"Sector-1, Noida - UPPCB",03-06-2024 10:00:00,28.5898,77.3101,NO2,13,65,37
India,Uttar_Pradesh,Noida,"Sector-116, Noida - UPPCB",03-06-2024 10:00:00,28.569230,77.393848,SO2,10,35,22
India,Uttar_Pradesh,Noida,"Sector-116, Noida - UPPCB",03-06-2024 10:00:00,28.569230,77.393848,OZONE,36,181,47
India,Uttar_Pradesh,Prayagraj,"Jhunsi, Prayagraj - UPPCB",03-06-2024 10:00:00,25.425602,81.917152,NH3,5,5,5
India,Uttar_Pradesh,Prayagraj,"Motilal Nehru NIT, Prayagraj - UPPCB",03-06-2024 10:00:00,25.494,81.863,PM2.5,16,61,30
India,Uttar_Pradesh,Prayagraj,"Motilal Nehru NIT, Prayagraj - UPPCB",03-06-2024 10:00:00,25.494,81.863,NH3,6,7,7
India,Uttar_Pradesh,Prayagraj,"Motilal Nehru NIT, Prayagraj - UPPCB",03-06-2024 10:00:00,25.494,81.863,CO,17,40,27
India,Uttar_Pradesh,Prayagraj,"Nagar Nigam, Prayagraj - UPPCB",03-06-2024 10:00:00,25.44919916 ,81.82735986 ,NO2,5,5,5
India,Uttar_Pradesh,Prayagraj,"Nagar Nigam, Prayagraj - UPPCB",03-06-2024 10:00:00,25.44919916 ,81.82735986 ,CO,16,36,22
India,Uttar_Pradesh,Prayagraj,"Nagar Nigam, Prayagraj - UPPCB",03-06-2024 10:00:00,25.44919916 ,81.82735986 ,OZONE,10,12,11
India,Uttar_Pradesh,Varanasi,"Ardhali Bazar, Varanasi - UPPCB",03-06-2024 10:00:00,25.3505986,82.9083074,CO,27,45,34
India,Uttar_Pradesh,Varanasi,"Bhelupur, Varanasi - UPPCB",03-06-2024 10:00:00,25.301778,82.996789,NO2,6,8,8
India,Uttar_Pradesh,Varanasi,"Bhelupur, Varanasi - UPPCB",03-06-2024 10:00:00,25.301778,82.996789,NH3,1,1,1
India,Uttar_Pradesh,Varanasi,"Bhelupur, Varanasi - UPPCB",03-06-2024 10:00:00,25.301778,82.996789,SO2,30,32,31
India,Uttar_Pradesh,Varanasi,"IESD Banaras Hindu University, Varanasi - UPPCB",03-06-2024 10:00:00,25.262326,82.995408,SO2,20,22,21
India,Uttar_Pradesh,Varanasi,"Maldahiya, Varanasi - UPPCB",03-06-2024 10:00:00,25.32393,82.99687,NO2,1,2,2
India,Uttar_Pradesh,Vrindavan,"Omex Eternity, Vrindavan - UPPCB",03-06-2024 10:00:00,27.5714090,77.6557570,PM2.5,18,68,34
India,Uttarakhand,Kashipur,"Govt. Girls Inter College, Kashipur - UKPCB",03-06-2024 10:00:00,29.2124114,78.9611753,SO2,8,12,10
India,West_Bengal,Haldia,"Priyambada Housing Estate, Haldia - WBPCB",03-06-2024 10:00:00,22.06047,88.109737,PM2.5,14,32,19
India,West_Bengal,Howrah,"Padmapukur, Howrah - WBPCB",03-06-2024 10:00:00,22.5687319,88.2797276,NO2,21,36,28
India,West_Bengal,Howrah,"Padmapukur, Howrah - WBPCB",03-06-2024 10:00:00,22.5687319,88.2797276,CO,3,110,38
India,West_Bengal,Kolkata,"Ballygunge, Kolkata - WBPCB",03-06-2024 10:00:00,22.5367507,88.3638022,PM10,27,57,45
India,West_Bengal,Kolkata,"Bidhannagar, Kolkata - WBPCB",03-06-2024 10:00:00,22.58157048,88.41002457,PM2.5,24,40,32
India,West_Bengal,Kolkata,"Fort William, Kolkata - WBPCB",03-06-2024 10:00:00,22.556640,88.342674,NH3,1,1,1
India,West_Bengal,Kolkata,"Fort William, Kolkata - WBPCB",03-06-2024 10:00:00,22.556640,88.342674,SO2,4,10,5
India,West_Bengal,Kolkata,"Fort William, Kolkata - WBPCB",03-06-2024 10:00:00,22.556640,88.342674,CO,16,22,18
India,West_Bengal,Kolkata,"Jadavpur, Kolkata - WBPCB",03-06-2024 10:00:00,22.49929,88.36917,NO2,12,13,12
India,West_Bengal,Kolkata,"Jadavpur, Kolkata - WBPCB",03-06-2024 10:00:00,22.49929,88.36917,NH3,5,6,5
India,West_Bengal,Kolkata,"Jadavpur, Kolkata - WBPCB",03-06-2024 10:00:00,22.49929,88.36917,CO,7,18,15
India,West_Bengal,Kolkata,"Rabindra Bharati University, Kolkata - WBPCB",03-06-2024 10:00:00,22.627847,88.380669,OZONE,62,305,108
India,West_Bengal,Kolkata,"Rabindra Sarobar, Kolkata - WBPCB",03-06-2024 10:00:00,22.51106,88.35142,CO,18,24,21
India,West_Bengal,Kolkata,"Rabindra Sarobar, Kolkata - WBPCB",03-06-2024 10:00:00,22.51106,88.35142,OZONE,14,29,23
India,West_Bengal,Kolkata,"Victoria, Kolkata - WBPCB",03-06-2024 10:00:00,22.5448082,88.3403691,PM2.5,18,39,30
India,West_Bengal,Kolkata,"Victoria, Kolkata - WBPCB",03-06-2024 10:00:00,22.5448082,88.3403691,CO,20,33,25
India,Andhra_Pradesh,Amaravati,"Secretariat, Amaravati - APPCB",03-06-2024 10:00:00,16.5150833,80.5181667,PM2.5,22,80,46
India,Andhra_Pradesh,Amaravati,"Secretariat, Amaravati - APPCB",03-06-2024 10:00:00,16.5150833,80.5181667,PM10,17,123,58
India,Andhra_Pradesh,Anantapur,"Gulzarpet, Anantapur - APPCB",03-06-2024 10:00:00,14.675886,77.593027,PM10,26,63,50
India,Andhra_Pradesh,Anantapur,"Gulzarpet, Anantapur - APPCB",03-06-2024 10:00:00,14.675886,77.593027,NO2,12,13,12
India,Andhra_Pradesh,Kadapa,"Yerramukkapalli, Kadapa - APPCB",03-06-2024 10:00:00,14.465052,78.824187,PM2.5,32,59,34
India,Andhra_Pradesh,Kadapa,"Yerramukkapalli, Kadapa - APPCB",03-06-2024 10:00:00,14.465052,78.824187,PM10,29,63,32
India,Andhra_Pradesh,Kadapa,"Yerramukkapalli, Kadapa - APPCB",03-06-2024 10:00:00,14.465052,78.824187,CO,5,22,11
India,Andhra_Pradesh,Kadapa,"Yerramukkapalli, Kadapa - APPCB",03-06-2024 10:00:00,14.465052,78.824187,OZONE,24,65,65
India,Andhra_Pradesh,Tirupati,"Tirumala, Tirupati - APPCB",03-06-2024 10:00:00,13.67,79.35,PM2.5,27,91,51
India,Andhra_Pradesh,Tirupati,"Tirumala, Tirupati - APPCB",03-06-2024 10:00:00,13.67,79.35,SO2,1,11,6
India,Andhra_Pradesh,Vijayawada,"HB Colony, Vijayawada - APPCB",03-06-2024 10:00:00,16.536107,80.594233,SO2,6,8,6
India,Andhra_Pradesh,Vijayawada,"HB Colony, Vijayawada - APPCB",03-06-2024 10:00:00,16.536107,80.594233,CO,33,35,34
India,Andhra_Pradesh,Vijayawada,"Rajiv Gandhi Park, Vijayawada - APPCB",03-06-2024 10:00:00,16.509717,80.612222,NH3,2,6,5
India,Andhra_Pradesh,Visakhapatnam,"GVM Corporation, Visakhapatnam - APPCB",03-06-2024 10:00:00,17.72,83.3,PM2.5,NA,NA,NA
India,Assam,Byrnihat,"Central Academy for SFS, Byrnihat - PCBA",03-06-2024 10:00:00,26.071318,91.87488,NO2,4,53,20
India,Assam,Guwahati,"IITG, Guwahati - PCBA",03-06-2024 10:00:00,26.2028636,91.70046436,PM2.5,11,43,27
India,Assam,Guwahati,"IITG, Guwahati - PCBA",03-06-2024 10:00:00,26.2028636,91.70046436,OZONE,17,48,31
India,Assam,Guwahati,"Pan Bazaar, Guwahati - PCBA",03-06-2024 10:00:00,26.187500,91.744194,PM2.5,5,29,17
India,Assam,Guwahati,"Pan Bazaar, Guwahati - PCBA",03-06-2024 10:00:00,26.187500,91.744194,SO2,30,45,38
India,Assam,Nagaon,"Christianpatty, Nagaon - PCBA",03-06-2024 10:00:00,26.349082,92.68449,PM2.5,60,322,156
India,Assam,Nagaon,"Christianpatty, Nagaon - PCBA",03-06-2024 10:00:00,26.349082,92.68449,PM10,66,190,112
India,Assam,Nagaon,"Christianpatty, Nagaon - PCBA",03-06-2024 10:00:00,26.349082,92.68449,NO2,1,10,3
India,Assam,Nagaon,"Christianpatty, Nagaon - PCBA",03-06-2024 10:00:00,26.349082,92.68449,CO,38,65,45
India,Assam,Nalbari,"Bata Chowk, Nalbari - PCBA",03-06-2024 10:00:00,26.446912,91.439057,PM10,9,98,37
India,Assam,Nalbari,"Bata Chowk, Nalbari - PCBA",03-06-2024 10:00:00,26.446912,91.439057,SO2,5,9,7
India,Assam,Silchar,"Tarapur, Silchar - PCBA",03-06-2024 10:00:00,24.82827,92.79525,SO2,NA,NA,NA
India,Bihar,Araria,"Kharahiya Basti, Araria - BSPCB",03-06-2024 10:00:00,26.146529,87.454184,CO,14,31,28
India,Bihar,Arrah,"New DM Office, Arrah - BSPCB",03-06-2024 10:00:00,25.5626095,84.663264,SO2,2,33,13
India,Bihar,Arrah,"New DM Office, Arrah - BSPCB",03-06-2024 10:00:00,25.5626095,84.663264,CO,14,26,20
India,Bihar,Aurangabad,"Gurdeo Nagar, Aurangabad - BSPCB",03-06-2024 10:00:00,24.75746,84.366208,NO2,2,21,8
India,Bihar,Bettiah,"Kamalnath Nagar, Bettiah - BSPCB",03-06-2024 10:00:00,26.80365,84.51954,SO2,8,19,15
India,Bihar,Bettiah,"Kamalnath Nagar, Bettiah - BSPCB",03-06-2024 10:00:00,26.80365,84.51954,OZONE,1,17,7
India,Bihar,Bhagalpur,"DM Office_Kachari Chowk, Bhagalpur - BSPCB",03-06-2024 10:00:00,25.251013,86.989001,PM2.5,NA,NA,NA
India,Bihar,Bhagalpur,"DM Office_Kachari Chowk, Bhagalpur - BSPCB",03-06-2024 10:00:00,25.251013,86.989001,SO2,NA,NA,NA
India,Bihar,Bhagalpur,"Mayaganj, Bhagalpur - BSPCB",03-06-2024 10:00:00,25.265194,87.012947,PM2.5,42,257,140
India,Bihar,Bhagalpur,"Mayaganj, Bhagalpur - BSPCB",03-06-2024 10:00:00,25.265194,87.012947,SO2,11,12,12
India,Bihar,Chhapra,"Darshan Nagar, Chhapra - BSPCB",03-06-2024 10:00:00,25.7808257,84.7446768,SO2,13,23,17
India,Bihar,Gaya,"Collectorate, Gaya - BSPCB",03-06-2024 10:00:00,24.7955,84.9994,PM2.5,35,301,111
India,Bihar,Gaya,"Kareemganj, Gaya - BSPCB",03-06-2024 10:00:00,24.792403,84.992416,SO2,10,10,10
India,Bihar,Gaya,"Kareemganj, Gaya - BSPCB",03-06-2024 10:00:00,24.792403,84.992416,CO,22,22,22
India,Bihar,Gaya,"SFTI Kusdihra, Gaya - BSPCB",03-06-2024 10:00:00,24.762518,84.982348,PM10,66,101,81
India,Bihar,Gaya,"SFTI Kusdihra, Gaya - BSPCB",03-06-2024 10:00:00,24.762518,84.982348,NO2,3,13,10
India,Bihar,Katihar,"Mirchaibari, Katihar - BSPCB",03-06-2024 10:00:00,25.560083,87.553265,NO2,3,4,4
India,Bihar,Kishanganj,"SDM Office_Khagra, Kishanganj - BSPCB",03-06-2024 10:00:00,26.0881305,87.93840336,PM10,41,120,68
India,Bihar,Kishanganj,"SDM Office_Khagra, Kishanganj - BSPCB",03-06-2024 10:00:00,26.0881305,87.93840336,SO2,6,6,6
India,Bihar,Kishanganj,"SDM Office_Khagra, Kishanganj - BSPCB",03-06-2024 10:00:00,26.0881305,87.93840336,CO,5,5,5
India,Bihar,Kishanganj,"SDM Office_Khagra, Kishanganj - BSPCB",03-06-2024 10:00:00,26.0881305,87.93840336,OZONE,51,60,54
India,Bihar,Motihari,"Gandak Colony, Motihari - BSPCB",03-06-2024 10:00:00,26.63086,84.90051,PM2.5,23,83,48
India,Bihar,Motihari,"Gandak Colony, Motihari - BSPCB",03-06-2024 10:00:00,26.63086,84.90051,SO2,8,20,12
India,Bihar,Motihari,"Gandak Colony, Motihari - BSPCB",03-06-2024 10:00:00,26.63086,84.90051,CO,8,40,12
India,Bihar,Muzaffarpur,"Buddha Colony, Muzaffarpur - BSPCB",03-06-2024 10:00:00,26.11442,85.39813,NH3,3,9,6
India,Bihar,Muzaffarpur,"Muzaffarpur Collectorate, Muzaffarpur - BSPCB",03-06-2024 10:00:00,26.1209,85.3647,OZONE,22,45,29
India,Bihar,Patna,"DRM Office Danapur, Patna - BSPCB",03-06-2024 10:00:00,25.586562,85.043586,CO,22,38,29
India,Bihar,Patna,"Govt. High School Shikarpur, Patna - BSPCB",03-06-2024 10:00:00,25.592539,85.227158,PM10,60,106,81
India,Bihar,Patna,"Govt. High School Shikarpur, Patna - BSPCB",03-06-2024 10:00:00,25.592539,85.227158,NO2,34,36,35
India,Bihar,Patna,"Govt. High School Shikarpur, Patna - BSPCB",03-06-2024 10:00:00,25.592539,85.227158,NH3,5,5,5
India,Bihar,Patna,"IGSC Planetarium Complex, Patna - BSPCB",03-06-2024 10:00:00,25.610369,85.132568,NO2,13,13,13
India,Bihar,Patna,"IGSC Planetarium Complex, Patna - BSPCB",03-06-2024 10:00:00,25.610369,85.132568,SO2,4,5,5
India,Bihar,Patna,"IGSC Planetarium Complex, Patna - BSPCB",03-06-2024 10:00:00,25.610369,85.132568,CO,11,14,12
India,Bihar,Patna,"Muradpur, Patna - BSPCB",03-06-2024 10:00:00,25.619651,85.147382,PM10,115,212,158
India,Bihar,Patna,"Rajbansi Nagar, Patna - BSPCB",03-06-2024 10:00:00,25.599486,85.113666,SO2,2,15,8
India,Bihar,Patna,"Samanpura, Patna - BSPCB",03-06-2024 10:00:00,25.596727,85.085624,NO2,8,20,12
India,Bihar,Saharsa,"Police Line, Saharsa - BSPCB",03-06-2024 10:00:00,25.892357,86.590325,NO2,6,8,7
India,Bihar,Samastipur,"DM Office_Kasipur, Samastipur - BSPCB",03-06-2024 10:00:00,25.859655,85.77944,NH3,NA,NA,NA
India,Bihar,Samastipur,"DM Office_Kasipur, Samastipur - BSPCB",03-06-2024 10:00:00,25.859655,85.77944,CO,NA,NA,NA
India,Bihar,Siwan,"Chitragupta Nagar, Siwan - BSPCB",03-06-2024 10:00:00,26.2271665,84.3570427,SO2,1,35,28
India,Chandigarh,Chandigarh,"Sector 22, Chandigarh - CPCC",03-06-2024 10:00:00,30.735567,76.775714,PM10,129,304,186
India,Chandigarh,Chandigarh,"Sector 22, Chandigarh - CPCC",03-06-2024 10:00:00,30.735567,76.775714,NO2,21,63,42
India,Chandigarh,Chandigarh,"Sector-25, Chandigarh - CPCC",03-06-2024 10:00:00,30.751462,76.762879,NH3,8,21,13
India,Chandigarh,Chandigarh,"Sector-25, Chandigarh - CPCC",03-06-2024 10:00:00,30.751462,76.762879,SO2,11,28,16
India,Chhattisgarh,Bhilai,"Hathkhoj, Bhilai - CECB",03-06-2024 10:00:00,21.224231,81.408350,NO2,6,15,9
India,Chhattisgarh,Bilaspur,"Mangala, Bilaspur - NTPC",03-06-2024 10:00:00,22.08815,82.13737,PM2.5,27,68,46
India,Chhattisgarh,Korba,"Rampur, Korba - CECB",03-06-2024 10:00:00,22.368195,82.746431,CO,NA,NA,NA
India,Chhattisgarh,Kunjemura,"OP Jindal School, Kunjemura - CECB",03-06-2024 10:00:00,22.126650,83.483212,PM2.5,21,88,39
India,Chhattisgarh,Kunjemura,"OP Jindal School, Kunjemura - CECB",03-06-2024 10:00:00,22.126650,83.483212,OZONE,7,50,12
India,Chhattisgarh,Milupara,"Govt. Higher Secondary School, Milupara - CECB",03-06-2024 10:00:00,22.1910172,83.5197009,NO2,NA,NA,NA
India,Chhattisgarh,Milupara,"Govt. Higher Secondary School, Milupara - CECB",03-06-2024 10:00:00,22.1910172,83.5197009,CO,NA,NA,NA
India,Chhattisgarh,Raipur,"AIIMS, Raipur - CECB",03-06-2024 10:00:00,21.258815,81.578979,CO,NA,NA,NA
India,Chhattisgarh,Raipur,"AIIMS, Raipur - CECB",03-06-2024 10:00:00,21.258815,81.578979,OZONE,NA,NA,NA
India,Chhattisgarh,Raipur,"Bhatagaon New ISBT, Raipur - CECB",03-06-2024 10:00:00,21.219665,81.630094,CO,13,27,14
India,Chhattisgarh,Raipur,"Siltara Phase-II, Raipur - CECB",03-06-2024 10:00:00,21.371751,81.664929,PM10,24,178,73
India,Chhattisgarh,Raipur,"Siltara Phase-II, Raipur - CECB",03-06-2024 10:00:00,21.371751,81.664929,NH3,3,3,3
India,Chhattisgarh,Raipur,"Siltara Phase-II, Raipur - CECB",03-06-2024 10:00:00,21.371751,81.664929,OZONE,4,37,5
India,Chhattisgarh,Tumidih,"OP Jindal Industrial Park, Tumidih - CECB",03-06-2024 10:00:00,22.06631475,83.33820077,OZONE,NA,NA,NA
India,Delhi,Delhi,"Alipur, Delhi - DPCC",03-06-2024 10:00:00,28.815329,77.153010,PM10,101,210,133
India,Delhi,Delhi,"Alipur, Delhi - DPCC",03-06-2024 10:00:00,28.815329,77.153010,NO2,4,19,11
India,Delhi,Delhi,"Anand Vihar, Delhi - DPCC",03-06-2024 10:00:00,28.647622,77.3158090,PM2.5,NA,NA,NA
India,Delhi,Delhi,"Aya Nagar, Delhi - IMD",03-06-2024 10:00:00,28.4706914,77.1099364,OZONE,8,58,19
India,Delhi,Delhi,"Bawana, Delhi - DPCC",03-06-2024 10:00:00,28.776200,77.051074,PM10,109,218,149
India,Delhi,Delhi,"Bawana, Delhi - DPCC",03-06-2024 10:00:00,28.776200,77.051074,OZONE,10,129,23
India,Delhi,Delhi,"Chandni Chowk, Delhi - IITM",03-06-2024 10:00:00,28.656756,77.227234,PM2.5,NA,NA,NA
India,Delhi,Delhi,"Chandni Chowk, Delhi - IITM",03-06-2024 10:00:00,28.656756,77.227234,CO,52,66,63
India,Delhi,Delhi,"Dr. Karni Singh Shooting Range, Delhi - DPCC",03-06-2024 10:00:00,28.498571,77.264840,PM10,84,177,119
India,Delhi,Delhi,"Dwarka-Sector 8, Delhi - DPCC ",03-06-2024 10:00:00,28.5710274,77.0719006,NO2,11,68,27
India,Delhi,Delhi,"IGI Airport (T3), Delhi - IMD",03-06-2024 10:00:00,28.5627763,77.1180053,PM10,83,140,99
India,Delhi,Delhi,"IHBAS, Dilshad Garden, Delhi - CPCB",03-06-2024 10:00:00,28.6811736,77.3025234,CO,8,82,24
India,Delhi,Delhi,"IHBAS, Dilshad Garden, Delhi - CPCB",03-06-2024 10:00:00,28.6811736,77.3025234,OZONE,15,39,36
India,Delhi,Delhi,"Jawaharlal Nehru Stadium, Delhi - DPCC",03-06-2024 10:00:00,28.580280,77.233829,OZONE,36,249,59
India,Delhi,Delhi,"Lodhi Road, Delhi - IITM",03-06-2024 10:00:00,28.588333,77.221667,PM10,20,325,76
India,Delhi,Delhi,"Lodhi Road, Delhi - IMD",03-06-2024 10:00:00,28.5918245,77.2273074,NO2,3,11,6
India,Delhi,Delhi,"Major Dhyan Chand National Stadium, Delhi - DPCC",03-06-2024 10:00:00,28.611281,77.237738,PM10,70,169,104
India,Delhi,Delhi,"Major Dhyan Chand National Stadium, Delhi - DPCC",03-06-2024 10:00:00,28.611281,77.237738,NH3,6,9,7
India,Delhi,Delhi,"Mundka, Delhi - DPCC",03-06-2024 10:00:00,28.684678,77.076574,NH3,7,11,9
India,Delhi,Delhi,"Mundka, Delhi - DPCC",03-06-2024 10:00:00,28.684678,77.076574,CO,38,65,54
India,Delhi,Delhi,"Najafgarh, Delhi - DPCC",03-06-2024 10:00:00,28.570173,76.933762,OZONE,15,123,30
India,Delhi,Delhi,"Narela, Delhi - DPCC",03-06-2024 10:00:00,28.822836,77.101981,OZONE,36,120,44
India,Delhi,Delhi,"Nehru Nagar, Delhi - DPCC",03-06-2024 10:00:00,28.567890,77.250515,NO2,4,48,18
India,Delhi,Delhi,"Nehru Nagar, Delhi - DPCC",03-06-2024 10:00:00,28.567890,77.250515,NH3,2,7,5
India,Delhi,Delhi,"Nehru Nagar, Delhi - DPCC",03-06-2024 10:00:00,28.567890,77.250515,SO2,5,11,6
India,Delhi,Delhi,"Nehru Nagar, Delhi - DPCC",03-06-2024 10:00:00,28.567890,77.250515,OZONE,39,267,65
India,Delhi,Delhi,"North Campus, DU, Delhi - IMD",03-06-2024 10:00:00,28.6573814,77.1585447,OZONE,21,57,25
India,Delhi,Delhi,"Okhla Phase-2, Delhi - DPCC",03-06-2024 10:00:00,28.530785,77.271255,NH3,9,16,12
India,Delhi,Delhi,"Okhla Phase-2, Delhi - DPCC",03-06-2024 10:00:00,28.530785,77.271255,CO,38,101,55
India,Delhi,Delhi,"Patparganj, Delhi - DPCC",03-06-2024 10:00:00,28.623763,77.287209,NO2,NA,NA,NA
India,Delhi,Delhi,"Patparganj, Delhi - DPCC",03-06-2024 10:00:00,28.623763,77.287209,NH3,NA,NA,NA
India,Delhi,Delhi,"Punjabi Bagh, Delhi - DPCC",03-06-2024 10:00:00,28.674045,77.131023,NO2,6,51,19
India,Delhi,Delhi,"Punjabi Bagh, Delhi - DPCC",03-06-2024 10:00:00,28.674045,77.131023,NH3,5,7,6
India,Delhi,Delhi,"Punjabi Bagh, Delhi - DPCC",03-06-2024 10:00:00,28.674045,77.131023,CO,38,55,43
India,Delhi,Delhi,"Pusa, Delhi - DPCC",03-06-2024 10:00:00,28.639652,77.146275,PM2.5,33,97,54
India,Delhi,Delhi,"Pusa, Delhi - DPCC",03-06-2024 10:00:00,28.639652,77.146275,PM10,96,315,150
India,Delhi,Delhi,"Pusa, Delhi - IMD",03-06-2024 10:00:00,28.636110,77.173332,NO2,12,21,15
India,Delhi,Delhi,"R K Puram, Delhi - DPCC",03-06-2024 10:00:00,28.563262,77.186937,PM10,89,193,128
India,Delhi,Delhi,"R K Puram, Delhi - DPCC",03-06-2024 10:00:00,28.563262,77.186937,NH3,4,26,9
India,Delhi,Delhi,"Rohini, Delhi - DPCC",03-06-2024 10:00:00,28.732528,77.119920,PM2.5,40,253,89
India,Delhi,Delhi,"Rohini, Delhi - DPCC",03-06-2024 10:00:00,28.732528,77.119920,OZONE,18,166,41
India,Delhi,Delhi,"Shadipur, Delhi - CPCB",03-06-2024 10:00:00,28.6514781,77.1473105,PM2.5,NA,NA,NA
India,Delhi,Delhi,"Shadipur, Delhi - CPCB",03-06-2024 10:00:00,28.6514781,77.1473105,NO2,80,190,119
India,Delhi,Delhi,"Sonia Vihar, Delhi - DPCC",03-06-2024 10:00:00,28.710508,77.249485,NH3,5,10,7
India,Delhi,Delhi,"Sonia Vihar, Delhi - DPCC",03-06-2024 10:00:00,28.710508,77.249485,SO2,12,26,19
India,Delhi,Delhi,"Sonia Vihar, Delhi - DPCC",03-06-2024 10:00:00,28.710508,77.249485,CO,5,52,11
India,Delhi,Delhi,"Sonia Vihar, Delhi - DPCC",03-06-2024 10:00:00,28.710508,77.249485,OZONE,27,156,41
India,Delhi,Delhi,"Sri Aurobindo Marg, Delhi - DPCC",03-06-2024 10:00:00,28.531346,77.190156,OZONE,6,137,35
India,Delhi,Delhi,"Vivek Vihar, Delhi - DPCC",03-06-2024 10:00:00,28.672342,77.315260,SO2,11,33,19
India,Gujarat,Ahmedabad,"Gyaspur, Ahmedabad - IITM",03-06-2024 10:00:00,22.977134,72.553024,SO2,27,28,27
India,Gujarat,Ahmedabad,"Gyaspur, Ahmedabad - IITM",03-06-2024 10:00:00,22.977134,72.553024,CO,28,38,29
India,Gujarat,Ahmedabad,"Maninagar, Ahmedabad - GPCB",03-06-2024 10:00:00,23.002657,72.591912,CO,60,102,81
India,Gujarat,Ahmedabad,"Raikhad, Ahmedabad - IITM",03-06-2024 10:00:00,23.020509,72.579261,NO2,60,61,61
India,Gujarat,Ahmedabad,"SVPI Airport Hansol, Ahmedabad - IITM",03-06-2024 10:00:00,23.076793,72.627874,PM2.5,29,69,46
India,Gujarat,Ahmedabad,"SVPI Airport Hansol, Ahmedabad - IITM",03-06-2024 10:00:00,23.076793,72.627874,NH3,5,6,5
India,Gujarat,Ahmedabad,"Sardar Vallabhbhai Patel Stadium, Ahmedabad - IITM",03-06-2024 10:00:00,23.043070,72.562968,PM10,70,113,96
India,Gujarat,Gandhinagar,"Sector-10, Gandhinagar - GPCB",03-06-2024 10:00:00,23.221714,72.654328,NH3,1,2,2
India,Gujarat,Gandhinagar,"Sector-10, Gandhinagar - GPCB",03-06-2024 10:00:00,23.221714,72.654328,CO,10,22,15
India,Gujarat,Vapi,"Phase-1 GIDC, Vapi - GPCB",03-06-2024 10:00:00,20.362421,72.918013,PM2.5,NA,NA,NA
India,Haryana,Ambala,"Patti Mehar, Ambala - HSPCB",03-06-2024 10:00:00,30.379589,76.778328,PM10,51,112,86
India,Haryana,Bahadurgarh,"Arya Nagar, Bahadurgarh - HSPCB",03-06-2024 10:00:00,28.6701,76.9254,PM10,96,140,115
India,Haryana,Bahadurgarh,"Arya Nagar, Bahadurgarh - HSPCB",03-06-2024 10:00:00,28.6701,76.9254,SO2,14,72,28
India,Haryana,Bhiwani,"H.B. Colony, Bhiwani - HSPCB",03-06-2024 10:00:00,28.806223,76.141105,PM2.5,64,159,100
India,Haryana,Bhiwani,"H.B. Colony, Bhiwani - HSPCB",03-06-2024 10:00:00,28.806223,76.141105,PM10,53,110,78
India,Haryana,Bhiwani,"H.B. Colony, Bhiwani - HSPCB",03-06-2024 10:00:00,28.806223,76.141105,NH3,4,6,6
India,Haryana,Charkhi Dadri,"Mini Secretariat, Charkhi Dadri - HSPCB",03-06-2024 10:00:00,28.593883,76.270653,OZONE,14,18,16
India,Haryana,Dharuhera,"Municipal Corporation Office, Dharuhera -  HSPCB",03-06-2024 10:00:00,28.206800,76.799700,PM2.5,81,128,101
India,Haryana,Dharuhera,"Municipal Corporation Office, Dharuhera -  HSPCB",03-06-2024 10:00:00,28.206800,76.799700,NH3,9,26,21
India,Haryana,Dharuhera,"Municipal Corporation Office, Dharuhera -  HSPCB",03-06-2024 10:00:00,28.206800,76.799700,CO,14,42,26
India,Haryana,Faridabad,"New Industrial Town, Faridabad - HSPCB",03-06-2024 10:00:00,28.39072,77.30059,PM2.5,70,311,146
India,Haryana,Faridabad,"Sector 11, Faridabad - HSPCB",03-06-2024 10:00:00,28.376058,77.315741,PM10,NA,NA,NA
India,Haryana,Faridabad,"Sector 11, Faridabad - HSPCB",03-06-2024 10:00:00,28.376058,77.315741,NH3,6,6,6
India,Haryana,Faridabad,"Sector 11, Faridabad - HSPCB",03-06-2024 10:00:00,28.376058,77.315741,SO2,4,114,18
India,Haryana,Faridabad,"Sector 30, Faridabad - HSPCB",03-06-2024 10:00:00,28.4417,77.3217,PM10,115,123,120
India,Haryana,Faridabad,"Sector 30, Faridabad - HSPCB",03-06-2024 10:00:00,28.4417,77.3217,SO2,5,6,5
India,Haryana,Faridabad,"Sector 30, Faridabad - HSPCB",03-06-2024 10:00:00,28.4417,77.3217,OZONE,16,51,27
India,Haryana,Gurugram,"NISE Gwal Pahari, Gurugram - IMD",03-06-2024 10:00:00,28.422681,77.148944,NO2,25,48,37
India,Haryana,Gurugram,"NISE Gwal Pahari, Gurugram - IMD",03-06-2024 10:00:00,28.422681,77.148944,CO,108,110,110
India,Haryana,Gurugram,"Teri Gram, Gurugram - HSPCB",03-06-2024 10:00:00,28.4275,77.1465,PM2.5,NA,NA,NA
India,Haryana,Gurugram,"Teri Gram, Gurugram - HSPCB",03-06-2024 10:00:00,28.4275,77.1465,OZONE,18,135,76
India,Haryana,Gurugram,"Vikas Sadan, Gurugram - HSPCB",03-06-2024 10:00:00,28.4501238,77.0263051,PM2.5,76,500,249
India,Haryana,Gurugram,"Vikas Sadan, Gurugram - HSPCB",03-06-2024 10:00:00,28.4501238,77.0263051,CO,54,151,102
India,Haryana,Jind,"Police Lines, Jind - HSPCB",03-06-2024 10:00:00,29.307814,76.337619,PM10,73,156,116
India,Haryana,Kaithal,"Rishi Nagar, Kaithal - HSPCB",03-06-2024 10:00:00,29.8006,76.4155,PM2.5,58,107,78
India,Haryana,Karnal,"Sector-12, Karnal - HSPCB",03-06-2024 10:00:00,29.695300,77.002700,NH3,10,13,11
India,Haryana,Karnal,"Sector-12, Karnal - HSPCB",03-06-2024 10:00:00,29.695300,77.002700,OZONE,29,32,30
India,Haryana,Kurukshetra,"Sector-7, Kurukshetra - HSPCB",03-06-2024 10:00:00,29.966942,76.875879,CO,6,25,11
India,Haryana,Kurukshetra,"Sector-7, Kurukshetra - HSPCB",03-06-2024 10:00:00,29.966942,76.875879,OZONE,55,96,74
India,Haryana,Mandikhera,"General Hospital, Mandikhera - HSPCB",03-06-2024 10:00:00,27.9002,76.9938,PM2.5,18,63,29
India,Haryana,Manesar,"Sector-2 IMT, Manesar - HSPCB",03-06-2024 10:00:00,28.360699,76.936090,CO,10,122,24
India,Haryana,Palwal,"Shyam Nagar, Palwal - HSPCB",03-06-2024 10:00:00,28.1485564,77.3320667,PM2.5,46,60,52
India,Haryana,Panchkula,"Sector-6, Panchkula - HSPCB ",03-06-2024 10:00:00,30.7057778,76.8531805555555,OZONE,31,68,39
India,Haryana,Panipat,"Sector-18, Panipat - HSPCB",03-06-2024 10:00:00,29.432304,76.972765,PM10,101,102,101
India,Haryana,Yamuna Nagar,"Gobind Pura, Yamuna Nagar - HSPCB",03-06-2024 10:00:00,30.1480566,77.2893471,OZONE,43,46,44
India,Himachal Pradesh,Baddi,"HIMUDA Complex Phase-1, Baddi - HPPCB",03-06-2024 10:00:00,30.943887,76.801991,NO2,10,50,26
India,Himachal Pradesh,Baddi,"HIMUDA Complex Phase-1, Baddi - HPPCB",03-06-2024 10:00:00,30.943887,76.801991,SO2,15,136,60
India,Himachal Pradesh,Baddi,"HIMUDA Complex Phase-1, Baddi - HPPCB",03-06-2024 10:00:00,30.943887,76.801991,CO,24,60,34
India,Himachal Pradesh,Baddi,"HIMUDA Complex Phase-1, Baddi - HPPCB",03-06-2024 10:00:00,30.943887,76.801991,OZONE,63,269,161
India,Jammu_and_Kashmir,Srinagar,"Rajbagh, Srinagar - JKSPCB",03-06-2024 10:00:00,34.066206,74.819820,PM10,NA,NA,NA
India,Karnataka,Bagalkot,"Vidayagiri, Bagalkot - KSPCB",03-06-2024 10:00:00,16.172806,75.659694,PM2.5,25,37,36
India,Karnataka,Bagalkot,"Vidayagiri, Bagalkot - KSPCB",03-06-2024 10:00:00,16.172806,75.659694,SO2,9,9,9
India,Karnataka,Belgaum,"Ramteerth Nagar, Belgaum - KSPCB",03-06-2024 10:00:00,15.888653,74.541751,OZONE,15,20,18
India,Karnataka,Bengaluru,"Bapuji Nagar, Bengaluru - KSPCB",03-06-2024 10:00:00,12.951913,77.539784,NH3,1,1,1
India,Karnataka,Bengaluru,"Bapuji Nagar, Bengaluru - KSPCB",03-06-2024 10:00:00,12.951913,77.539784,OZONE,22,29,25
India,Karnataka,Bengaluru,"Hebbal, Bengaluru - KSPCB",03-06-2024 10:00:00,13.029152,77.585901,NO2,4,5,5
India,Karnataka,Bengaluru,"Hombegowda Nagar, Bengaluru - KSPCB",03-06-2024 10:00:00,12.938539,77.590100,NO2,10,31,18
India,Karnataka,Bengaluru,"Hombegowda Nagar, Bengaluru - KSPCB",03-06-2024 10:00:00,12.938539,77.590100,SO2,2,4,3
India,Karnataka,Bengaluru,"Jigani, Bengaluru - KSPCB",03-06-2024 10:00:00,12.7816279,77.6299145,PM2.5,NA,NA,NA
India,Karnataka,Bengaluru,"Jigani, Bengaluru - KSPCB",03-06-2024 10:00:00,12.7816279,77.6299145,OZONE,23,55,31
India,Karnataka,Bengaluru,"Kasturi Nagar, Bengaluru - KSPCB",03-06-2024 10:00:00,13.003872,77.664217,PM2.5,7,500,46
India,Karnataka,Bengaluru,"Kasturi Nagar, Bengaluru - KSPCB",03-06-2024 10:00:00,13.003872,77.664217,CO,24,25,25
India,Karnataka,Bengaluru,"Peenya, Bengaluru - CPCB",03-06-2024 10:00:00,13.0270199,77.494094,OZONE,15,47,19
India,Karnataka,Bengaluru,"Shivapura_Peenya, Bengaluru - KSPCB",03-06-2024 10:00:00,13.0246342,77.5080115,NH3,4,4,4
India,Karnataka,Chamarajanagar,"Urban, Chamarajanagar - KSPCB",03-06-2024 10:00:00,11.55358,76.55521,PM10,34,53,43
India,Karnataka,Chikkaballapur,"Chikkaballapur Rural, Chikkaballapur - KSPCB",03-06-2024 10:00:00,13.428828,77.731418,PM10,8,41,23
India,Karnataka,Chikkaballapur,"Chikkaballapur Rural, Chikkaballapur - KSPCB",03-06-2024 10:00:00,13.428828,77.731418,NH3,1,1,1
India,Karnataka,Chikkaballapur,"Chikkaballapur Rural, Chikkaballapur - KSPCB",03-06-2024 10:00:00,13.428828,77.731418,SO2,20,25,22
India,Karnataka,Chikkaballapur,"Chikkaballapur Rural, Chikkaballapur - KSPCB",03-06-2024 10:00:00,13.428828,77.731418,OZONE,24,25,25
India,Karnataka,Dharwad,"Kalabhavan, Dharwad - KSPCB",03-06-2024 10:00:00,15.459706,75.008381,PM10,38,90,63
India,Karnataka,Hubballi,"Lingaraj Nagar, Hubballi - KSPCB",03-06-2024 10:00:00,15.3714823,75.1160168,PM10,65,82,76
India,Karnataka,Hubballi,"Lingaraj Nagar, Hubballi - KSPCB",03-06-2024 10:00:00,15.3714823,75.1160168,NO2,13,21,16
India,Karnataka,Hubballi,"Lingaraj Nagar, Hubballi - KSPCB",03-06-2024 10:00:00,15.3714823,75.1160168,OZONE,8,39,10
India,Karnataka,Koppal,"Diwator Nagar, Koppal - KSPCB",03-06-2024 10:00:00,15.347630,76.181767,NO2,32,63,47
India,Karnataka,Koppal,"Diwator Nagar, Koppal - KSPCB",03-06-2024 10:00:00,15.347630,76.181767,NH3,6,9,8
India,Karnataka,Madikeri,"Stuart Hill, Madikeri - KSPCB",03-06-2024 10:00:00,12.415911,75.735050,PM2.5,21,45,33
India,Karnataka,Madikeri,"Stuart Hill, Madikeri - KSPCB",03-06-2024 10:00:00,12.415911,75.735050,NH3,1,2,1
India,Karnataka,Madikeri,"Stuart Hill, Madikeri - KSPCB",03-06-2024 10:00:00,12.415911,75.735050,CO,7,153,42
India,Karnataka,Mangalore,"Kadri, Mangalore - KSPCB",03-06-2024 10:00:00,12.889250,74.853000,PM2.5,NA,NA,NA
India,Karnataka,Mysuru,"Hebbal 1st Stage, Mysuru - KSPCB",03-06-2024 10:00:00,12.21041,76.37376,OZONE,7,64,13
India,Karnataka,Ramanagara,"Vijay Nagar, Ramanagara - KSPCB",03-06-2024 10:00:00,12.733409,77.298051,PM10,NA,NA,NA
India,Karnataka,Ramanagara,"Vijay Nagar, Ramanagara - KSPCB",03-06-2024 10:00:00,12.733409,77.298051,CO,8,107,47
India,Karnataka,Shivamogga,"Vinoba Nagara, Shivamogga - KSPCB",03-06-2024 10:00:00,13.940000,75.555917,PM2.5,27,54,42
India,Karnataka,Tumakuru,"Thimmalapura, Tumakuru - KSPCB",03-06-2024 10:00:00,13.377516,77.099072,CO,28,34,31
India,Karnataka,Vijayapura,"Ibrahimpur, Vijayapura - KSPCB",03-06-2024 10:00:00,16.802639,75.722694,CO,NA,NA,NA
India,Karnataka,Yadgir,"Collector Office, Yadgir - KSPCB",03-06-2024 10:00:00,16.7602,77.1428,NH3,NA,NA,NA
India,Karnataka,Yadgir,"Collector Office, Yadgir - KSPCB",03-06-2024 10:00:00,16.7602,77.1428,OZONE,NA,NA,NA
India,Kerala,Kannur,"Thavakkara, Kannur - Kerala PCB",03-06-2024 10:00:00,11.875000,75.373200,NO2,4,6,5
India,Kerala,Kannur,"Thavakkara, Kannur - Kerala PCB",03-06-2024 10:00:00,11.875000,75.373200,SO2,NA,NA,NA
India,Kerala,Kollam,"Polayathode, Kollam - Kerala PCB",03-06-2024 10:00:00,8.8787,76.6073,NO2,8,9,8
India,Kerala,Kollam,"Polayathode, Kollam - Kerala PCB",03-06-2024 10:00:00,8.8787,76.6073,CO,14,17,16
India,Kerala,Thiruvananthapuram,"Kariavattom, Thiruvananthapuram - Kerala PCB",03-06-2024 10:00:00,8.563700,76.886500,OZONE,36,36,36
India,Kerala,Thiruvananthapuram,"Plammoodu, Thiruvananthapuram - Kerala PCB",03-06-2024 10:00:00,8.5149093,76.9435879,PM10,10,42,24
India,Kerala,Thiruvananthapuram,"Plammoodu, Thiruvananthapuram - Kerala PCB",03-06-2024 10:00:00,8.5149093,76.9435879,NH3,1,1,1
India,Kerala,Thiruvananthapuram,"Plammoodu, Thiruvananthapuram - Kerala PCB",03-06-2024 10:00:00,8.5149093,76.9435879,SO2,6,10,8
India,Kerala,Thrissur,"Corporation Ground, Thrissur - Kerala PCB",03-06-2024 10:00:00,10.532400,76.215900,OZONE,25,32,29
India,Madhya Pradesh,Bhopal,"Idgah Hills, Bhopal - MPPCB",03-06-2024 10:00:00,23.264759,77.381568,NH3,4,5,4
India,Madhya Pradesh,Bhopal,"Idgah Hills, Bhopal - MPPCB",03-06-2024 10:00:00,23.264759,77.381568,CO,8,48,12
India,Madhya Pradesh,Bhopal,"Paryavaran Parisar, Bhopal - MPPCB",03-06-2024 10:00:00,23.210494,77.425409,NO2,12,62,22
India,Madhya Pradesh,Bhopal,"Paryavaran Parisar, Bhopal - MPPCB",03-06-2024 10:00:00,23.210494,77.425409,SO2,5,14,10
India,Madhya Pradesh,Bhopal,"T T Nagar, Bhopal - MPPCB",03-06-2024 10:00:00,23.233584,77.400574,NO2,19,36,24
India,Madhya Pradesh,Bhopal,"T T Nagar, Bhopal - MPPCB",03-06-2024 10:00:00,23.233584,77.400574,NH3,7,9,8
India,Madhya Pradesh,Bhopal,"T T Nagar, Bhopal - MPPCB",03-06-2024 10:00:00,23.233584,77.400574,OZONE,36,85,59
India,Madhya Pradesh,Dewas,"Bhopal Chauraha, Dewas - MPPCB",03-06-2024 10:00:00,22.9682591,76.064118,NO2,11,14,13
India,Madhya Pradesh,Dewas,"Bhopal Chauraha, Dewas - MPPCB",03-06-2024 10:00:00,22.9682591,76.064118,SO2,20,37,29
India,Madhya Pradesh,Dewas,"Bhopal Chauraha, Dewas - MPPCB",03-06-2024 10:00:00,22.9682591,76.064118,OZONE,12,31,17
India,Madhya Pradesh,Gwalior,"City Center, Gwalior - MPPCB",03-06-2024 10:00:00,26.203442,78.193251,PM2.5,18,88,48
India,Madhya Pradesh,Gwalior,"City Center, Gwalior - MPPCB",03-06-2024 10:00:00,26.203442,78.193251,CO,27,56,36
India,Madhya Pradesh,Gwalior,"Deen Dayal Nagar, Gwalior - MPPCB",03-06-2024 10:00:00,26.259242,78.216432,PM10,48,210,115
India,Madhya Pradesh,Gwalior,"Deen Dayal Nagar, Gwalior - MPPCB",03-06-2024 10:00:00,26.259242,78.216432,NO2,15,75,37
India,Madhya Pradesh,Gwalior,"Deen Dayal Nagar, Gwalior - MPPCB",03-06-2024 10:00:00,26.259242,78.216432,SO2,15,19,17
India,Madhya Pradesh,Gwalior,"Maharaj Bada, Gwalior - MPPCB",03-06-2024 10:00:00,26.200388,78.147714,NO2,15,97,37
India,Madhya Pradesh,Indore,"Maguda Nagar, Indore - IMC",03-06-2024 10:00:00,22.7524,75.8872,PM2.5,41,73,53
India,Madhya Pradesh,Indore,"Maguda Nagar, Indore - IMC",03-06-2024 10:00:00,22.7524,75.8872,NH3,1,3,2
India,Madhya Pradesh,Indore,"Regional Park, Indore - IMC",03-06-2024 10:00:00,22.6780,75.8559,NH3,1,4,2
India,Madhya Pradesh,Indore,"Residency Area, Indore - IMC",03-06-2024 10:00:00,22.7084,75.8815,NH3,NA,NA,NA
India,Madhya Pradesh,Jabalpur,"Gupteshwar, Jabalpur - JMC",03-06-2024 10:00:00,23.142888,79.916147,PM2.5,43,78,60
India,Madhya Pradesh,Jabalpur,"Gupteshwar, Jabalpur - JMC",03-06-2024 10:00:00,23.142888,79.916147,OZONE,15,73,41
India,Madhya Pradesh,Jabalpur,"Marhatal, Jabalpur - MPPCB",03-06-2024 10:00:00,23.168606,79.932247,PM2.5,41,113,68
India,Madhya Pradesh,Jabalpur,"Marhatal, Jabalpur - MPPCB",03-06-2024 10:00:00,23.168606,79.932247,NO2,12,61,30
India,Madhya Pradesh,Jabalpur,"Marhatal, Jabalpur - MPPCB",03-06-2024 10:00:00,23.168606,79.932247,OZONE,10,52,37
India,Madhya Pradesh,Katni,"Gole Bazar, Katni - MPPCB",03-06-2024 10:00:00,23.50016,80.23284,PM2.5,33,58,43
India,Madhya Pradesh,Maihar,"Sahilara, Maihar - KJS Cements",03-06-2024 10:00:00,24.2613009,80.7231783,CO,42,58,56
India,Madhya Pradesh,Pithampur,"Sector-2 Industrial Area, Pithampur - MPPCB",03-06-2024 10:00:00,22.624758,75.675238,PM10,76,115,91
India,Madhya Pradesh,Ratlam,"Shasthri Nagar, Ratlam - IPCA Lab",03-06-2024 10:00:00,23.331731,75.045981,PM2.5,29,62,44
India,Madhya Pradesh,Sagar,"Civil Lines, Sagar - MPPCB",03-06-2024 10:00:00,23.838586,78.759431,SO2,2,12,5
India,Madhya Pradesh,Sagar,"Civil Lines, Sagar - MPPCB",03-06-2024 10:00:00,23.838586,78.759431,CO,15,26,20
India,Madhya Pradesh,Sagar,"Deen Dayal Nagar, Sagar - MPPCB",03-06-2024 10:00:00,23.8640158,78.80289321,PM10,29,64,46
India,Madhya Pradesh,Sagar,"Deen Dayal Nagar, Sagar - MPPCB",03-06-2024 10:00:00,23.8640158,78.80289321,SO2,10,12,11
India,Madhya Pradesh,Sagar,"Deen Dayal Nagar, Sagar - MPPCB",03-06-2024 10:00:00,23.8640158,78.80289321,CO,58,64,60
India,Madhya Pradesh,Ujjain,"Mahakaleshwar Temple, Ujjain - MPPCB",03-06-2024 10:00:00,23.182719 ,75.768218 ,PM2.5,44,84,57
India,Madhya Pradesh,Ujjain,"Mahakaleshwar Temple, Ujjain - MPPCB",03-06-2024 10:00:00,23.182719 ,75.768218 ,NH3,4,5,4
India,Madhya Pradesh,Ujjain,"Mahakaleshwar Temple, Ujjain - MPPCB",03-06-2024 10:00:00,23.182719 ,75.768218 ,CO,15,35,29
India,Maharashtra,Ahmednagar,"Tarakpur, Ahmednagar - MPCB",03-06-2024 10:00:00,19.10122,74.73339,CO,36,57,45
India,Maharashtra,Akola,"Ramdaspeth, Akola - MPCB",03-06-2024 10:00:00,20.719516,77.000253,PM2.5,17,143,54
India,Maharashtra,Akola,"Ramdaspeth, Akola - MPCB",03-06-2024 10:00:00,20.719516,77.000253,NH3,3,10,5
India,Maharashtra,Akola,"Ramdaspeth, Akola - MPCB",03-06-2024 10:00:00,20.719516,77.000253,CO,30,124,35
India,Maharashtra,Amravati,"Shivneri Colony, Amravati - MPCB",03-06-2024 10:00:00,20.9402359,77.7895248,CO,14,26,19
India,Maharashtra,Amravati,"Shri Shivaji Science College, Amaravati - MPCB",03-06-2024 10:00:00,20.939198,77.765701,NH3,1,2,2
India,Maharashtra,Badlapur,"Katrap, Badlapur - MPCB",03-06-2024 10:00:00,19.16485,73.23409,CO,24,36,31
India,Maharashtra,Badlapur,"Katrap, Badlapur - MPCB",03-06-2024 10:00:00,19.16485,73.23409,OZONE,15,89,18
India,Maharashtra,Belapur,"CBD Belapur, Belapur - MPCB",03-06-2024 10:00:00,19.0243902,73.0406721,NO2,25,78,41
India,Maharashtra,Belapur,"CBD Belapur, Belapur - MPCB",03-06-2024 10:00:00,19.0243902,73.0406721,CO,8,18,10
India,Maharashtra,Bhiwandi,"Gokul Nagar, Bhiwandi - MPCB",03-06-2024 10:00:00,19.309073,73.057223,NO2,5,49,27
India,Maharashtra,Bhiwandi,"Gokul Nagar, Bhiwandi - MPCB",03-06-2024 10:00:00,19.309073,73.057223,OZONE,11,90,16
India,Maharashtra,Boisar,"Khaira, Boisar - MPCB",03-06-2024 10:00:00,19.786089,72.757971,NH3,2,13,7
India,Maharashtra,Boisar,"Khaira, Boisar - MPCB",03-06-2024 10:00:00,19.786089,72.757971,OZONE,60,66,63
India,Maharashtra,Chandrapur,"MIDC Khutala, Chandrapur - MPCB",03-06-2024 10:00:00,19.9775302,79.2337086,NO2,9,41,18
India,Maharashtra,Dhule,"Deopur, Dhule - MPCB",03-06-2024 10:00:00,20.918946,74.776388,SO2,1,29,11
India,Maharashtra,Jalgaon,"Prabhat Colony, Jalgaon - MPCB",03-06-2024 10:00:00,21.001264,75.565602,PM2.5,39,122,72
India,Maharashtra,Jalgaon,"Prabhat Colony, Jalgaon - MPCB",03-06-2024 10:00:00,21.001264,75.565602,SO2,7,17,10
India,Maharashtra,Jalna,"Old MIDC, Jalna - MPCB",03-06-2024 10:00:00,19.854616,75.905894,PM10,40,90,70
India,Maharashtra,Kalyan,"Khadakpada, Kalyan - MPCB",03-06-2024 10:00:00,19.25292,73.142019,NO2,22,32,27
India,Maharashtra,Kalyan,"Khadakpada, Kalyan - MPCB",03-06-2024 10:00:00,19.25292,73.142019,SO2,20,28,24
India,Maharashtra,Kolhapur,"Shivaji University, Kolhapur - MPCB",03-06-2024 10:00:00,16.6870449,74.2505872,NO2,10,22,17
India,Maharashtra,Kolhapur,"Sinchan Bhavan, Kolhapur - MPCB",03-06-2024 10:00:00,16.7143745,74.2426398,CO,10,18,12
