country,state,city,station,last_update,latitude,longitude,pollutant_id,pollutant_min,pollutant_max,pollutant_avg
India,Andhra_Pradesh,Amaravati,"Secretariat, Amaravati - APPCB",28-01-2024 06:00:00,16.5150833,80.5181667,NO2,10,38,18
India,Andhra_Pradesh,Amaravati,"Secretariat, Amaravati - APPCB",28-01-2024 06:00:00,16.5150833,80.5181667,CO,30,56,46
India,Andhra_Pradesh,Anantapur,"Gulzarpet, Anantapur - APPCB",28-01-2024 06:00:00,14.675886,77.593027,PM10,41,92,68
India,Andhra_Pradesh,Anantapur,"Gulzarpet, Anantapur - APPCB",28-01-2024 06:00:00,14.675886,77.593027,SO2,3,16,8
India,Andhra_Pradesh,Chittoor,"Gangineni Cheruvu, Chittoor - APPCB",28-01-2024 06:00:00,13.204880,79.097889,NO2,2,17,7
India,Andhra_Pradesh,Tirupati,"Tirumala, Tirupati - APPCB",28-01-2024 06:00:00,13.67,79.35,SO2,2,6,4
India,Andhra_Pradesh,Tirupati,"Tirumala, Tirupati - APPCB",28-01-2024 06:00:00,13.67,79.35,CO,42,54,46
India,Andhra_Pradesh,Visakhapatnam,"GVM Corporation, Visakhapatnam - APPCB",28-01-2024 06:00:00,17.72,83.3,PM2.5,123,213,164
India,Andhra_Pradesh,Visakhapatnam,"GVM Corporation, Visakhapatnam - APPCB",28-01-2024 06:00:00,17.72,83.3,NO2,15,48,33
India,Andhra_Pradesh,Visakhapatnam,"GVM Corporation, Visakhapatnam - APPCB",28-01-2024 06:00:00,17.72,83.3,OZONE,9,50,12
India,Arunachal_Pradesh,Naharlagun,"Naharlagun, Naharlagun - APSPCB",28-01-2024 06:00:00,27.103358,93.679645,PM10,NA,NA,NA
India,Assam,Byrnihat,"Central Academy for SFS, Byrnihat - PCBA",28-01-2024 06:00:00,26.071318,91.87488,PM2.5,NA,NA,NA
India,Assam,Byrnihat,"Central Academy for SFS, Byrnihat - PCBA",28-01-2024 06:00:00,26.071318,91.87488,PM10,NA,NA,NA
India,Assam,Byrnihat,"Central Academy for SFS, Byrnihat - PCBA",28-01-2024 06:00:00,26.071318,91.87488,OZONE,6,8,6
India,Assam,Guwahati,"LGBI Airport, Guwahati - PCBA",28-01-2024 06:00:00,26.10887,91.589544,CO,52,74,68
India,Assam,Guwahati,"LGBI Airport, Guwahati - PCBA",28-01-2024 06:00:00,26.10887,91.589544,OZONE,1,64,1
India,Assam,Guwahati,"Railway Colony, Guwahati - PCBA",28-01-2024 06:00:00,26.181742,91.78063,CO,23,115,108
India,Assam,Nagaon,"Christianpatty, Nagaon - PCBA",28-01-2024 06:00:00,26.349082,92.68449,NH3,1,6,3
India,Assam,Nalbari,"Bata Chowk, Nalbari - PCBA",28-01-2024 06:00:00,26.446912,91.439057,PM2.5,63,358,222
India,Assam,Nalbari,"Bata Chowk, Nalbari - PCBA",28-01-2024 06:00:00,26.446912,91.439057,PM10,63,213,125
India,Assam,Silchar,"Tarapur, Silchar - PCBA",28-01-2024 06:00:00,24.82827,92.79525,SO2,5,12,9
India,Assam,Sivasagar,"Girls College, Sivasagar - PCBA",28-01-2024 06:00:00,26.987634,94.636574,PM10,17,80,47
India,Bihar,Araria,"Kharahiya Basti, Araria - BSPCB",28-01-2024 06:00:00,26.146529,87.454184,PM10,114,481,285
India,Bihar,Arrah,"New DM Office, Arrah - BSPCB",28-01-2024 06:00:00,25.5626095,84.663264,NO2,15,70,32
India,Bihar,Aurangabad,"Gurdeo Nagar, Aurangabad - BSPCB",28-01-2024 06:00:00,24.75746,84.366208,PM2.5,95,322,175
India,Bihar,Aurangabad,"Gurdeo Nagar, Aurangabad - BSPCB",28-01-2024 06:00:00,24.75746,84.366208,OZONE,2,79,17
India,Bihar,Bhagalpur,"DM Office_Kachari Chowk, Bhagalpur - BSPCB",28-01-2024 06:00:00,25.251013,86.989001,SO2,6,72,26
India,Bihar,Bhagalpur,"Mayaganj, Bhagalpur - BSPCB",28-01-2024 06:00:00,25.265194,87.012947,OZONE,25,79,32
India,Bihar,Bihar Sharif,"D M Colony, Bihar Sharif - BSPCB",28-01-2024 06:00:00,25.204762,85.514960,NH3,NA,NA,NA
India,Bihar,Bihar Sharif,"D M Colony, Bihar Sharif - BSPCB",28-01-2024 06:00:00,25.204762,85.514960,SO2,NA,NA,NA
India,Bihar,Bihar Sharif,"D M Colony, Bihar Sharif - BSPCB",28-01-2024 06:00:00,25.204762,85.514960,OZONE,4,37,7
India,Bihar,Gaya,"Kareemganj, Gaya - BSPCB",28-01-2024 06:00:00,24.792403,84.992416,NO2,30,31,30
India,Bihar,Gaya,"SFTI Kusdihra, Gaya - BSPCB",28-01-2024 06:00:00,24.762518,84.982348,PM2.5,58,279,130
India,Bihar,Gaya,"SFTI Kusdihra, Gaya - BSPCB",28-01-2024 06:00:00,24.762518,84.982348,NH3,4,6,5
India,Bihar,Gaya,"SFTI Kusdihra, Gaya - BSPCB",28-01-2024 06:00:00,24.762518,84.982348,SO2,2,18,7
India,Bihar,Hajipur,"Industrial Area, Hajipur - BSPCB",28-01-2024 06:00:00,25.697189,85.245900,CO,62,102,100
India,Bihar,Katihar,"Mirchaibari, Katihar - BSPCB",28-01-2024 06:00:00,25.560083,87.553265,NO2,18,37,23
India,Bihar,Katihar,"Mirchaibari, Katihar - BSPCB",28-01-2024 06:00:00,25.560083,87.553265,CO,19,34,23
India,Bihar,Kishanganj,"SDM Office_Khagra, Kishanganj - BSPCB",28-01-2024 06:00:00,26.0881305,87.93840336,OZONE,34,43,42
India,Bihar,Motihari,"Gandak Colony, Motihari - BSPCB",28-01-2024 06:00:00,26.63086,84.90051,SO2,1,8,4
India,Bihar,Munger,"Town Hall, Munger - BSPCB",28-01-2024 06:00:00,25.376776,86.471523,PM2.5,52,352,192
India,Bihar,Munger,"Town Hall, Munger - BSPCB",28-01-2024 06:00:00,25.376776,86.471523,PM10,62,330,170
India,Bihar,Muzaffarpur,"Buddha Colony, Muzaffarpur - BSPCB",28-01-2024 06:00:00,26.11442,85.39813,PM2.5,128,400,299
India,Bihar,Muzaffarpur,"Buddha Colony, Muzaffarpur - BSPCB",28-01-2024 06:00:00,26.11442,85.39813,NH3,17,23,20
India,Bihar,Muzaffarpur,"Buddha Colony, Muzaffarpur - BSPCB",28-01-2024 06:00:00,26.11442,85.39813,CO,102,138,120
India,Bihar,Muzaffarpur,"Muzaffarpur Collectorate, Muzaffarpur - BSPCB",28-01-2024 06:00:00,26.1209,85.3647,NO2,4,13,8
India,Bihar,Patna,"DRM Office Danapur, Patna - BSPCB",28-01-2024 06:00:00,25.586562,85.043586,SO2,6,10,8
India,Bihar,Patna,"Govt. High School Shikarpur, Patna - BSPCB",28-01-2024 06:00:00,25.592539,85.227158,NH3,3,6,5
India,Bihar,Patna,"Govt. High School Shikarpur, Patna - BSPCB",28-01-2024 06:00:00,25.592539,85.227158,OZONE,9,54,13
India,Bihar,Patna,"Muradpur, Patna - BSPCB",28-01-2024 06:00:00,25.619651,85.147382,PM10,233,500,360
India,Bihar,Patna,"Muradpur, Patna - BSPCB",28-01-2024 06:00:00,25.619651,85.147382,NO2,5,21,10
India,Bihar,Patna,"Muradpur, Patna - BSPCB",28-01-2024 06:00:00,25.619651,85.147382,SO2,1,13,9
India,Bihar,Patna,"Rajbansi Nagar, Patna - BSPCB",28-01-2024 06:00:00,25.599486,85.113666,PM10,154,416,265
India,Bihar,Patna,"Rajbansi Nagar, Patna - BSPCB",28-01-2024 06:00:00,25.599486,85.113666,NH3,5,8,6
India,Bihar,Purnia,"Mariam Nagar, Purnia - BSPCB",28-01-2024 06:00:00,25.366336,87.117468,SO2,17,22,20
India,Bihar,Purnia,"Mariam Nagar, Purnia - BSPCB",28-01-2024 06:00:00,25.366336,87.117468,CO,51,115,103
India,Bihar,Rajgir,"Dangi Tola, Rajgir - BSPCB",28-01-2024 06:00:00,25.03280,85.41948,PM2.5,95,353,287
India,Bihar,Rajgir,"Dangi Tola, Rajgir - BSPCB",28-01-2024 06:00:00,25.03280,85.41948,NH3,1,2,1
India,Bihar,Rajgir,"Dangi Tola, Rajgir - BSPCB",28-01-2024 06:00:00,25.03280,85.41948,SO2,4,5,4
India,Bihar,Saharsa,"Police Line, Saharsa - BSPCB",28-01-2024 06:00:00,25.892357,86.590325,CO,6,33,18
India,Bihar,Saharsa,"Police Line, Saharsa - BSPCB",28-01-2024 06:00:00,25.892357,86.590325,OZONE,10,46,10
India,Bihar,Sasaram,"Dada Peer, Sasaram - BSPCB",28-01-2024 06:00:00,24.952822,84.002396,CO,30,93,61
India,Chandigarh,Chandigarh,"Sector-25, Chandigarh - CPCC",28-01-2024 06:00:00,30.751462,76.762879,NO2,10,39,22
India,Chandigarh,Chandigarh,"Sector-53, Chandigarh - CPCC",28-01-2024 06:00:00,30.719859,76.738637,OZONE,3,58,9
India,Chhattisgarh,Bhilai,"32Bungalows, Bhilai - CECB",28-01-2024 06:00:00,21.194815,81.314770,NO2,21,34,28
India,Chhattisgarh,Bhilai,"Civic Center, Bhilai - Bhilai Steel Plant",28-01-2024 06:00:00,21.185571,81.343175,NH3,NA,NA,NA
India,Chhattisgarh,Bilaspur,"Mangala, Bilaspur - NTPC",28-01-2024 06:00:00,22.08815,82.13737,PM2.5,45,130,81
India,Chhattisgarh,Bilaspur,"Mangala, Bilaspur - NTPC",28-01-2024 06:00:00,22.08815,82.13737,PM10,NA,NA,NA
India,Chhattisgarh,Chhal,"Nawapara SECL Colony, Chhal - CECB",28-01-2024 06:00:00,22.118125,83.140608,NO2,19,66,33
India,Chhattisgarh,Korba,"Rampur, Korba - CECB",28-01-2024 06:00:00,22.368195,82.746431,PM10,29,153,64
India,Chhattisgarh,Korba,"Urja Nagar, Korba - CECB",28-01-2024 06:00:00,22.348441,82.549611,NH3,NA,NA,NA
India,Chhattisgarh,Korba,"Urja Nagar, Korba - CECB",28-01-2024 06:00:00,22.348441,82.549611,SO2,3,9,6
India,Chhattisgarh,Kunjemura,"OP Jindal School, Kunjemura - CECB",28-01-2024 06:00:00,22.126650,83.483212,PM2.5,50,219,87
India,Chhattisgarh,Milupara,"Govt. Higher Secondary School, Milupara - CECB",28-01-2024 06:00:00,22.1910172,83.5197009,PM10,26,143,51
India,Chhattisgarh,Raipur,"Bhatagaon New ISBT, Raipur - CECB",28-01-2024 06:00:00,21.219665,81.630094,SO2,1,1,1
India,Chhattisgarh,Raipur,"Krishak Nagar, Raipur - CECB",28-01-2024 06:00:00,21.237755,81.705301,SO2,7,11,10
India,Delhi,Delhi,"Alipur, Delhi - DPCC",28-01-2024 06:00:00,28.815329,77.153010,PM10,107,290,203
India,Delhi,Delhi,"Alipur, Delhi - DPCC",28-01-2024 06:00:00,28.815329,77.153010,OZONE,4,103,4
India,Delhi,Delhi,"Anand Vihar, Delhi - DPCC",28-01-2024 06:00:00,28.647622,77.3158090,SO2,NA,NA,NA
India,Delhi,Delhi,"Aya Nagar, Delhi - IMD",28-01-2024 06:00:00,28.4706914,77.1099364,PM2.5,83,371,228
India,Delhi,Delhi,"CRRI Mathura Road, Delhi - IMD",28-01-2024 06:00:00,28.5512005,77.2735737,OZONE,3,29,6
India,Delhi,Delhi,"DTU, Delhi - CPCB",28-01-2024 06:00:00,28.7500499,77.1112615,NH3,13,38,19
India,Delhi,Delhi,"Dr. Karni Singh Shooting Range, Delhi - DPCC",28-01-2024 06:00:00,28.498571,77.264840,OZONE,2,152,6
India,Delhi,Delhi,"IHBAS, Dilshad Garden, Delhi - CPCB",28-01-2024 06:00:00,28.6811736,77.3025234,NH3,NA,NA,NA
India,Delhi,Delhi,"IHBAS, Dilshad Garden, Delhi - CPCB",28-01-2024 06:00:00,28.6811736,77.3025234,CO,NA,NA,NA
India,Delhi,Delhi,"IHBAS, Dilshad Garden, Delhi - CPCB",28-01-2024 06:00:00,28.6811736,77.3025234,OZONE,NA,NA,NA
India,Delhi,Delhi,"Jahangirpuri, Delhi - DPCC",28-01-2024 06:00:00,28.732820,77.170633,NH3,14,22,17
India,Delhi,Delhi,"Jahangirpuri, Delhi - DPCC",28-01-2024 06:00:00,28.732820,77.170633,CO,38,139,115
India,Delhi,Delhi,"Lodhi Road, Delhi - IITM",28-01-2024 06:00:00,28.588333,77.221667,PM10,NA,NA,NA
India,Delhi,Delhi,"Lodhi Road, Delhi - IITM",28-01-2024 06:00:00,28.588333,77.221667,NH3,NA,NA,NA
India,Delhi,Delhi,"Lodhi Road, Delhi - IMD",28-01-2024 06:00:00,28.5918245,77.2273074,PM2.5,118,363,266
India,Delhi,Delhi,"Major Dhyan Chand National Stadium, Delhi - DPCC",28-01-2024 06:00:00,28.611281,77.237738,CO,22,126,113
India,Delhi,Delhi,"Najafgarh, Delhi - DPCC",28-01-2024 06:00:00,28.570173,76.933762,PM10,103,179,145
India,Delhi,Delhi,"Najafgarh, Delhi - DPCC",28-01-2024 06:00:00,28.570173,76.933762,OZONE,3,153,7
India,Delhi,Delhi,"Narela, Delhi - DPCC",28-01-2024 06:00:00,28.822836,77.101981,PM10,125,310,209
India,Delhi,Delhi,"Nehru Nagar, Delhi - DPCC",28-01-2024 06:00:00,28.567890,77.250515,CO,6,135,81
India,Delhi,Delhi,"Patparganj, Delhi - DPCC",28-01-2024 06:00:00,28.623763,77.287209,PM10,149,468,299
India,Delhi,Delhi,"Punjabi Bagh, Delhi - DPCC",28-01-2024 06:00:00,28.674045,77.131023,PM10,140,430,294
India,Delhi,Delhi,"Punjabi Bagh, Delhi - DPCC",28-01-2024 06:00:00,28.674045,77.131023,NH3,5,9,7
India,Delhi,Delhi,"Punjabi Bagh, Delhi - DPCC",28-01-2024 06:00:00,28.674045,77.131023,CO,42,60,52
India,Delhi,Delhi,"Pusa, Delhi - DPCC",28-01-2024 06:00:00,28.639652,77.146275,PM10,212,450,328
India,Delhi,Delhi,"Pusa, Delhi - DPCC",28-01-2024 06:00:00,28.639652,77.146275,NH3,20,29,25
India,Delhi,Delhi,"Rohini, Delhi - DPCC",28-01-2024 06:00:00,28.732528,77.119920,PM10,124,452,288
India,Delhi,Delhi,"Rohini, Delhi - DPCC",28-01-2024 06:00:00,28.732528,77.119920,NH3,7,11,9
India,Delhi,Delhi,"Rohini, Delhi - DPCC",28-01-2024 06:00:00,28.732528,77.119920,SO2,4,25,13
India,Delhi,Delhi,"Shadipur, Delhi - CPCB",28-01-2024 06:00:00,28.6514781,77.1473105,NH3,13,30,20
India,Delhi,Delhi,"Shadipur, Delhi - CPCB",28-01-2024 06:00:00,28.6514781,77.1473105,CO,37,102,61
India,Delhi,Delhi,"Sirifort, Delhi - CPCB",28-01-2024 06:00:00,28.5504249,77.2159377,NH3,6,11,8
India,Delhi,Delhi,"Sirifort, Delhi - CPCB",28-01-2024 06:00:00,28.5504249,77.2159377,CO,20,126,118
India,Delhi,Delhi,"Sri Aurobindo Marg, Delhi - DPCC",28-01-2024 06:00:00,28.531346,77.190156,PM2.5,147,365,289
India,Delhi,Delhi,"Vivek Vihar, Delhi - DPCC",28-01-2024 06:00:00,28.672342,77.315260,SO2,7,8,8
India,Gujarat,Ahmedabad,"Chandkheda, Ahmedabad - IITM",28-01-2024 06:00:00,23.107969,72.574648,PM2.5,57,292,140
India,Gujarat,Ahmedabad,"Chandkheda, Ahmedabad - IITM",28-01-2024 06:00:00,23.107969,72.574648,NO2,21,33,26
India,Gujarat,Ahmedabad,"Gyaspur, Ahmedabad - IITM",28-01-2024 06:00:00,22.977134,72.553024,PM10,86,193,111
India,Gujarat,Ahmedabad,"Gyaspur, Ahmedabad - IITM",28-01-2024 06:00:00,22.977134,72.553024,NH3,3,4,3
India,Gujarat,Ahmedabad,"Raikhad, Ahmedabad - IITM",28-01-2024 06:00:00,23.020509,72.579261,NO2,11,13,12
India,Gujarat,Ahmedabad,"SAC ISRO Bopal, Ahmedabad - IITM",28-01-2024 06:00:00,23.041137,72.456691,PM2.5,74,308,184
India,Gujarat,Ahmedabad,"SAC ISRO Bopal, Ahmedabad - IITM",28-01-2024 06:00:00,23.041137,72.456691,NO2,11,14,13
India,Gujarat,Ahmedabad,"SAC ISRO Bopal, Ahmedabad - IITM",28-01-2024 06:00:00,23.041137,72.456691,CO,22,35,24
India,Gujarat,Ahmedabad,"SAC ISRO Satellite, Ahmedabad - IITM",28-01-2024 06:00:00,23.023389,72.515201,NO2,14,17,16
India,Gujarat,Ahmedabad,"SAC ISRO Satellite, Ahmedabad - IITM",28-01-2024 06:00:00,23.023389,72.515201,SO2,5,12,8
India,Gujarat,Ahmedabad,"SAC ISRO Satellite, Ahmedabad - IITM",28-01-2024 06:00:00,23.023389,72.515201,CO,27,50,35
India,Gujarat,Ahmedabad,"SAC ISRO Satellite, Ahmedabad - IITM",28-01-2024 06:00:00,23.023389,72.515201,OZONE,2,21,4
India,Gujarat,Ahmedabad,"Sardar Vallabhbhai Patel Stadium, Ahmedabad - IITM",28-01-2024 06:00:00,23.043070,72.562968,SO2,NA,NA,NA
India,Gujarat,Ankleshwar,"GIDC, Ankleshwar - GPCB",28-01-2024 06:00:00,21.613267,73.010555,PM2.5,62,150,113
India,Gujarat,Ankleshwar,"GIDC, Ankleshwar - GPCB",28-01-2024 06:00:00,21.613267,73.010555,SO2,24,139,87
India,Gujarat,Gandhinagar,"GIFT City, Gandhinagar - IITM",28-01-2024 06:00:00,23.163798,72.677768,SO2,5,8,6
India,Gujarat,Gandhinagar,"GIFT City, Gandhinagar - IITM",28-01-2024 06:00:00,23.163798,72.677768,CO,30,41,40
India,Gujarat,Gandhinagar,"IIPHG Lekawada, Gandhinagar - IITM",28-01-2024 06:00:00,23.243639,72.68994,PM2.5,76,303,161
India,Gujarat,Gandhinagar,"IIPHG Lekawada, Gandhinagar - IITM",28-01-2024 06:00:00,23.243639,72.68994,CO,37,66,49
India,Gujarat,Vapi,"Phase-1 GIDC, Vapi - GPCB",28-01-2024 06:00:00,20.362421,72.918013,PM10,NA,NA,NA
India,Gujarat,Vapi,"Phase-1 GIDC, Vapi - GPCB",28-01-2024 06:00:00,20.362421,72.918013,OZONE,NA,NA,NA
India,Gujarat,Vatva,"Phase-4 GIDC, Vatva - GPCB",28-01-2024 06:00:00,22.969611,72.643500,NH3,1,2,2
India,Gujarat,Vatva,"Phase-4 GIDC, Vatva - GPCB",28-01-2024 06:00:00,22.969611,72.643500,OZONE,5,15,5
India,Haryana,Ambala,"Patti Mehar, Ambala - HSPCB",28-01-2024 06:00:00,30.379589,76.778328,PM2.5,51,169,106
India,Haryana,Ambala,"Patti Mehar, Ambala - HSPCB",28-01-2024 06:00:00,30.379589,76.778328,CO,30,60,44
India,Haryana,Bhiwani,"H.B. Colony, Bhiwani - HSPCB",28-01-2024 06:00:00,28.806223,76.141105,PM2.5,116,356,216
India,Haryana,Bhiwani,"H.B. Colony, Bhiwani - HSPCB",28-01-2024 06:00:00,28.806223,76.141105,NO2,33,34,33
India,Haryana,Charkhi Dadri,"Mini Secretariat, Charkhi Dadri - HSPCB",28-01-2024 06:00:00,28.593883,76.270653,NH3,4,7,6
India,Haryana,Charkhi Dadri,"Mini Secretariat, Charkhi Dadri - HSPCB",28-01-2024 06:00:00,28.593883,76.270653,OZONE,14,18,16
India,Haryana,Dharuhera,"Municipal Corporation Office, Dharuhera -  HSPCB",28-01-2024 06:00:00,28.206800,76.799700,OZONE,1,68,4
India,Haryana,Faridabad,"Sector 11, Faridabad - HSPCB",28-01-2024 06:00:00,28.376058,77.315741,PM2.5,19,327,190
India,Haryana,Faridabad,"Sector 11, Faridabad - HSPCB",28-01-2024 06:00:00,28.376058,77.315741,PM10,110,442,189
India,Haryana,Faridabad,"Sector 11, Faridabad - HSPCB",28-01-2024 06:00:00,28.376058,77.315741,NO2,30,32,32
India,Haryana,Faridabad,"Sector 11, Faridabad - HSPCB",28-01-2024 06:00:00,28.376058,77.315741,OZONE,3,25,4
India,Haryana,Faridabad,"Sector 30, Faridabad - HSPCB",28-01-2024 06:00:00,28.4417,77.3217,NH3,9,9,9
India,Haryana,Faridabad,"Sector 30, Faridabad - HSPCB",28-01-2024 06:00:00,28.4417,77.3217,OZONE,3,31,3
India,Haryana,Faridabad,"Sector- 16A, Faridabad - HSPCB",28-01-2024 06:00:00,28.4088421,77.3099081,NO2,14,109,64
India,Haryana,Gurugram,"NISE Gwal Pahari, Gurugram - IMD",28-01-2024 06:00:00,28.422681,77.148944,OZONE,1,54,2
India,Haryana,Gurugram,"Sector-51, Gurugram - HSPCB",28-01-2024 06:00:00,28.4227,77.0667,PM10,98,445,256
India,Haryana,Gurugram,"Teri Gram, Gurugram - HSPCB",28-01-2024 06:00:00,28.4275,77.1465,SO2,1,4,3
India,Haryana,Gurugram,"Vikas Sadan, Gurugram - HSPCB",28-01-2024 06:00:00,28.4501238,77.0263051,PM2.5,64,319,190
India,Haryana,Gurugram,"Vikas Sadan, Gurugram - HSPCB",28-01-2024 06:00:00,28.4501238,77.0263051,OZONE,8,69,10
India,Haryana,Hisar,"Urban Estate-II, Hisar - HSPCB",28-01-2024 06:00:00,29.140560,75.744941,PM2.5,71,305,177
India,Haryana,Kaithal,"Rishi Nagar, Kaithal - HSPCB",28-01-2024 06:00:00,29.8006,76.4155,SO2,1,23,8
India,Haryana,Karnal,"Sector-12, Karnal - HSPCB",28-01-2024 06:00:00,29.695300,77.002700,PM10,78,108,93
India,Haryana,Karnal,"Sector-12, Karnal - HSPCB",28-01-2024 06:00:00,29.695300,77.002700,OZONE,24,32,31
India,Haryana,Kurukshetra,"Sector-7, Kurukshetra - HSPCB",28-01-2024 06:00:00,29.966942,76.875879,PM2.5,117,271,168
India,Haryana,Mandikhera,"General Hospital, Mandikhera - HSPCB",28-01-2024 06:00:00,27.9002,76.9938,PM2.5,6,34,15
India,Haryana,Mandikhera,"General Hospital, Mandikhera - HSPCB",28-01-2024 06:00:00,27.9002,76.9938,CO,23,105,48
India,Haryana,Manesar,"Sector-2 IMT, Manesar - HSPCB",28-01-2024 06:00:00,28.360699,76.936090,PM10,84,257,163
India,Haryana,Narnaul,"Shastri Nagar, Narnaul - HSPCB",28-01-2024 06:00:00,28.060249,76.113115,SO2,13,70,17
India,Haryana,Panipat,"Sector-18, Panipat - HSPCB",28-01-2024 06:00:00,29.497973,76.993331,NO2,28,59,35
India,Haryana,Panipat,"Sector-18, Panipat - HSPCB",28-01-2024 06:00:00,29.497973,76.993331,OZONE,28,62,58
India,Haryana,Sirsa,"F-Block, Sirsa - HSPCB",28-01-2024 06:00:00,29.536400,75.015800,NO2,10,10,10
India,Haryana,Sirsa,"F-Block, Sirsa - HSPCB",28-01-2024 06:00:00,29.536400,75.015800,SO2,19,32,28
India,Haryana,Sirsa,"F-Block, Sirsa - HSPCB",28-01-2024 06:00:00,29.536400,75.015800,OZONE,19,75,24
India,Haryana,Sonipat,"Murthal, Sonipat - HSPCB",28-01-2024 06:00:00,29.027200,77.062100,PM2.5,92,234,167
India,Haryana,Sonipat,"Murthal, Sonipat - HSPCB",28-01-2024 06:00:00,29.027200,77.062100,NO2,37,44,40
India,Haryana,Sonipat,"Murthal, Sonipat - HSPCB",28-01-2024 06:00:00,29.027200,77.062100,OZONE,16,36,19
India,Himachal Pradesh,Baddi,"HIMUDA Complex Phase-1, Baddi - HPPCB",28-01-2024 06:00:00,30.943887,76.801991,PM2.5,32,332,172
India,Himachal Pradesh,Baddi,"HIMUDA Complex Phase-1, Baddi - HPPCB",28-01-2024 06:00:00,30.943887,76.801991,PM10,105,253,146
India,Himachal Pradesh,Baddi,"HIMUDA Complex Phase-1, Baddi - HPPCB",28-01-2024 06:00:00,30.943887,76.801991,NO2,12,47,33
India,Himachal Pradesh,Baddi,"HIMUDA Complex Phase-1, Baddi - HPPCB",28-01-2024 06:00:00,30.943887,76.801991,CO,12,50,37
India,Jharkhand,Dhanbad,"Kalakusuma, Dhanbad - DMC",28-01-2024 06:00:00,23.811548,86.481238,PM10,NA,NA,NA
India,Jharkhand,Dhanbad,"Sardar Patel Nagar, Dhanbad - JSPCB",28-01-2024 06:00:00,23.80569,86.44268,CO,105,165,165
India,Karnataka,Bagalkot,"Vidayagiri, Bagalkot - KSPCB",28-01-2024 06:00:00,16.172806,75.659694,OZONE,14,35,25
India,Karnataka,Belgaum,"Ramteerth Nagar, Belgaum - KSPCB",28-01-2024 06:00:00,15.888653,74.541751,CO,40,66,56
India,Karnataka,Bengaluru,"BTM Layout, Bengaluru - CPCB",28-01-2024 06:00:00,12.9135218,77.5950804,NO2,NA,NA,NA
India,Karnataka,Bengaluru,"Bapuji Nagar, Bengaluru - KSPCB",28-01-2024 06:00:00,12.951913,77.539784,PM10,52,102,79
India,Karnataka,Bengaluru,"City Railway Station, Bengaluru - KSPCB",28-01-2024 06:00:00,12.9756843,77.5660749,SO2,NA,NA,NA
India,Karnataka,Bengaluru,"Hebbal, Bengaluru - KSPCB",28-01-2024 06:00:00,13.029152,77.585901,SO2,9,21,15
India,Karnataka,Bengaluru,"Hebbal, Bengaluru - KSPCB",28-01-2024 06:00:00,13.029152,77.585901,OZONE,8,49,20
India,Karnataka,Bengaluru,"Hombegowda Nagar, Bengaluru - KSPCB",28-01-2024 06:00:00,12.938539,77.590100,PM2.5,29,57,39
India,Karnataka,Bengaluru,"Hombegowda Nagar, Bengaluru - KSPCB",28-01-2024 06:00:00,12.938539,77.590100,PM10,43,86,58
India,Karnataka,Bengaluru,"Hombegowda Nagar, Bengaluru - KSPCB",28-01-2024 06:00:00,12.938539,77.590100,CO,14,26,18
India,Karnataka,Bengaluru,"Jayanagar 5th Block, Bengaluru - KSPCB",28-01-2024 06:00:00,12.920984,77.584908,PM2.5,46,91,62
India,Karnataka,Bengaluru,"Jayanagar 5th Block, Bengaluru - KSPCB",28-01-2024 06:00:00,12.920984,77.584908,PM10,35,166,82
India,Karnataka,Bengaluru,"Jayanagar 5th Block, Bengaluru - KSPCB",28-01-2024 06:00:00,12.920984,77.584908,OZONE,18,19,19
India,Karnataka,Bengaluru,"Kasturi Nagar, Bengaluru - KSPCB",28-01-2024 06:00:00,13.003872,77.664217,PM2.5,43,81,66
India,Karnataka,Bengaluru,"Kasturi Nagar, Bengaluru - KSPCB",28-01-2024 06:00:00,13.003872,77.664217,NO2,16,17,17
India,Karnataka,Bengaluru,"Kasturi Nagar, Bengaluru - KSPCB",28-01-2024 06:00:00,13.003872,77.664217,CO,24,26,25
India,Karnataka,Bengaluru,"Kasturi Nagar, Bengaluru - KSPCB",28-01-2024 06:00:00,13.003872,77.664217,OZONE,30,79,47
India,Karnataka,Bengaluru,"RVCE-Mailasandra, Bengaluru - KSPCB",28-01-2024 06:00:00,12.921418,77.502466,PM2.5,55,85,69
India,Karnataka,Bengaluru,"RVCE-Mailasandra, Bengaluru - KSPCB",28-01-2024 06:00:00,12.921418,77.502466,PM10,74,117,103
India,Karnataka,Bengaluru,"RVCE-Mailasandra, Bengaluru - KSPCB",28-01-2024 06:00:00,12.921418,77.502466,NH3,4,4,4
India,Karnataka,Bengaluru,"RVCE-Mailasandra, Bengaluru - KSPCB",28-01-2024 06:00:00,12.921418,77.502466,SO2,4,5,4
India,Karnataka,Bengaluru,"RVCE-Mailasandra, Bengaluru - KSPCB",28-01-2024 06:00:00,12.921418,77.502466,OZONE,39,44,40
India,Karnataka,Bengaluru,"Silk Board, Bengaluru - KSPCB",28-01-2024 06:00:00,12.917348,77.622813,OZONE,29,31,30
India,Karnataka,Bidar,"Naubad, Bidar - KSPCB",28-01-2024 06:00:00,17.930306,77.482194,PM2.5,105,195,151
India,Karnataka,Chamarajanagar,"Urban, Chamarajanagar - KSPCB",28-01-2024 06:00:00,11.55358,76.55521,PM10,34,46,41
India,Karnataka,Chamarajanagar,"Urban, Chamarajanagar - KSPCB",28-01-2024 06:00:00,11.55358,76.55521,SO2,2,6,4
India,Karnataka,Chamarajanagar,"Urban, Chamarajanagar - KSPCB",28-01-2024 06:00:00,11.55358,76.55521,CO,21,50,50
India,Karnataka,Chamarajanagar,"Urban, Chamarajanagar - KSPCB",28-01-2024 06:00:00,11.55358,76.55521,OZONE,14,27,15
India,Karnataka,Chikkaballapur,"Chikkaballapur Rural, Chikkaballapur - KSPCB",28-01-2024 06:00:00,13.428828,77.731418,NO2,6,13,9
India,Karnataka,Chikkaballapur,"Chikkaballapur Rural, Chikkaballapur - KSPCB",28-01-2024 06:00:00,13.428828,77.731418,NH3,1,1,1
India,Karnataka,Chikkamagaluru,"Kalyana Nagara, Chikkamagaluru - KSPCB",28-01-2024 06:00:00,13.328028,75.797056,PM10,25,75,53
India,Karnataka,Chikkamagaluru,"Kalyana Nagara, Chikkamagaluru - KSPCB",28-01-2024 06:00:00,13.328028,75.797056,CO,11,98,24
India,Karnataka,Davanagere,"Devaraj Urs Badavane, Davanagere - KSPCB",28-01-2024 06:00:00,14.475800,75.905200,NO2,9,13,11
India,Karnataka,Davanagere,"Devaraj Urs Badavane, Davanagere - KSPCB",28-01-2024 06:00:00,14.475800,75.905200,NH3,1,1,1
India,Karnataka,Davanagere,"Devaraj Urs Badavane, Davanagere - KSPCB",28-01-2024 06:00:00,14.475800,75.905200,SO2,1,5,3
India,Karnataka,Davanagere,"Devaraj Urs Badavane, Davanagere - KSPCB",28-01-2024 06:00:00,14.475800,75.905200,OZONE,18,28,24
India,Karnataka,Dharwad,"Kalabhavan, Dharwad - KSPCB",28-01-2024 06:00:00,15.459706,75.008381,NO2,12,31,25
India,Karnataka,Dharwad,"Kalabhavan, Dharwad - KSPCB",28-01-2024 06:00:00,15.459706,75.008381,CO,30,132,59
India,Karnataka,Gadag,"Panchal Nagar, Gadag - KSPCB",28-01-2024 06:00:00,15.411456,75.638133,PM10,NA,NA,NA
India,Karnataka,Gadag,"Panchal Nagar, Gadag - KSPCB",28-01-2024 06:00:00,15.411456,75.638133,SO2,NA,NA,NA
India,Karnataka,Gadag,"Panchal Nagar, Gadag - KSPCB",28-01-2024 06:00:00,15.411456,75.638133,CO,NA,NA,NA
India,Karnataka,Haveri,"Ashwini Nagar, Haveri - KSPCB",28-01-2024 06:00:00,14.791800,75.389600,OZONE,19,21,19
India,Karnataka,Hubballi,"Lingaraj Nagar, Hubballi - KSPCB",28-01-2024 06:00:00,15.3714823,75.1160168,CO,40,98,50
India,Karnataka,Kalaburagi,"Mahatma Basaveswar Colony, Kalaburgi - KSPCB",28-01-2024 06:00:00,17.336318,76.847397,PM2.5,24,34,30
India,Karnataka,Karwar,"KHB Colony, Karwar - KSPCB",28-01-2024 06:00:00,14.816666,74.141003,NO2,3,7,5
India,Karnataka,Karwar,"KHB Colony, Karwar - KSPCB",28-01-2024 06:00:00,14.816666,74.141003,NH3,1,2,2
India,Karnataka,Karwar,"KHB Colony, Karwar - KSPCB",28-01-2024 06:00:00,14.816666,74.141003,OZONE,21,22,21
India,Karnataka,Koppal,"Diwator Nagar, Koppal - KSPCB",28-01-2024 06:00:00,15.347630,76.181767,PM2.5,17,62,36
India,Karnataka,Mangalore,"Kadri, Mangalore - KSPCB",28-01-2024 06:00:00,12.889250,74.853000,NH3,2,3,3
India,Karnataka,Mysuru,"Hebbal 1st Stage, Mysuru - KSPCB",28-01-2024 06:00:00,12.21041,76.37376,PM2.5,25,51,39
India,Karnataka,Mysuru,"Hebbal 1st Stage, Mysuru - KSPCB",28-01-2024 06:00:00,12.21041,76.37376,CO,13,50,26
India,Karnataka,Ramanagara,"Vijay Nagar, Ramanagara - KSPCB",28-01-2024 06:00:00,12.733409,77.298051,NO2,NA,NA,NA
India,Karnataka,Shivamogga,"Vinoba Nagara, Shivamogga - KSPCB",28-01-2024 06:00:00,13.940000,75.555917,SO2,3,10,7
India,Karnataka,Udupi,"Brahmagiri, Udupi - KSPCB",28-01-2024 06:00:00,13.34194444,74.74694444,OZONE,22,24,23
India,Karnataka,Vijayapura,"Ibrahimpur, Vijayapura - KSPCB",28-01-2024 06:00:00,16.802639,75.722694,CO,20,132,20
India,Karnataka,Yadgir,"Collector Office, Yadgir - KSPCB",28-01-2024 06:00:00,16.7602,77.1428,PM10,51,112,78
India,Karnataka,Yadgir,"Collector Office, Yadgir - KSPCB",28-01-2024 06:00:00,16.7602,77.1428,NH3,1,1,1
India,Karnataka,Yadgir,"Collector Office, Yadgir - KSPCB",28-01-2024 06:00:00,16.7602,77.1428,SO2,6,54,19
India,Kerala,Eloor,"Udyogamandal, Eloor - Kerala PCB",28-01-2024 06:00:00,10.073232,76.302765,OZONE,4,15,4
India,Kerala,Kollam,"Polayathode, Kollam - Kerala PCB",28-01-2024 06:00:00,8.8787,76.6073,NO2,NA,NA,NA
India,Kerala,Thiruvananthapuram,"Kariavattom, Thiruvananthapuram - Kerala PCB",28-01-2024 06:00:00,8.563700,76.886500,PM2.5,74,87,78
India,Kerala,Thiruvananthapuram,"Kariavattom, Thiruvananthapuram - Kerala PCB",28-01-2024 06:00:00,8.563700,76.886500,SO2,3,10,7
India,Kerala,Thrissur,"Corporation Ground, Thrissur - Kerala PCB",28-01-2024 06:00:00,10.532400,76.215900,PM2.5,47,55,51
India,Kerala,Thrissur,"Corporation Ground, Thrissur - Kerala PCB",28-01-2024 06:00:00,10.532400,76.215900,PM10,56,65,59
India,Madhya Pradesh,Bhopal,"T T Nagar, Bhopal - MPPCB",28-01-2024 06:00:00,23.233584,77.400574,NO2,47,91,64
India,Madhya Pradesh,Dewas,"Bhopal Chauraha, Dewas - MPPCB",28-01-2024 06:00:00,22.9682591,76.064118,PM2.5,NA,NA,NA
India,Madhya Pradesh,Dewas,"Bhopal Chauraha, Dewas - MPPCB",28-01-2024 06:00:00,22.9682591,76.064118,PM10,NA,NA,NA
India,Madhya Pradesh,Dewas,"Bhopal Chauraha, Dewas - MPPCB",28-01-2024 06:00:00,22.9682591,76.064118,NO2,NA,NA,NA
India,Madhya Pradesh,Dewas,"Bhopal Chauraha, Dewas - MPPCB",28-01-2024 06:00:00,22.9682591,76.064118,SO2,NA,NA,NA
India,Madhya Pradesh,Gwalior,"City Center, Gwalior - MPPCB",28-01-2024 06:00:00,26.203442,78.193251,NO2,21,93,44
India,Madhya Pradesh,Gwalior,"Deen Dayal Nagar, Gwalior - MPPCB",28-01-2024 06:00:00,26.259242,78.216432,PM2.5,44,432,305
India,Madhya Pradesh,Gwalior,"Maharaj Bada, Gwalior - MPPCB",28-01-2024 06:00:00,26.200388,78.147714,PM10,97,500,197
India,Madhya Pradesh,Gwalior,"Phool Bagh, Gwalior - Mondelez Ind. Food",28-01-2024 06:00:00,26.210536,78.171,NO2,4,5,4
India,Madhya Pradesh,Gwalior,"Phool Bagh, Gwalior - Mondelez Ind. Food",28-01-2024 06:00:00,26.210536,78.171,CO,34,68,43
India,Madhya Pradesh,Indore,"Chhoti Gwaltoli, Indore - MPPCB",28-01-2024 06:00:00,22.4310,75.5213,PM2.5,48,356,177
India,Madhya Pradesh,Indore,"Chhoti Gwaltoli, Indore - MPPCB",28-01-2024 06:00:00,22.4310,75.5213,NH3,1,6,3
India,Madhya Pradesh,Indore,"Chhoti Gwaltoli, Indore - MPPCB",28-01-2024 06:00:00,22.4310,75.5213,SO2,12,20,15
India,Madhya Pradesh,Indore,"Chhoti Gwaltoli, Indore - MPPCB",28-01-2024 06:00:00,22.4310,75.5213,OZONE,10,117,11
India,Madhya Pradesh,Indore,"Maguda Nagar, Indore - IMC",28-01-2024 06:00:00,22.7524,75.8872,CO,18,54,47
India,Madhya Pradesh,Indore,"Maguda Nagar, Indore - IMC",28-01-2024 06:00:00,22.7524,75.8872,OZONE,28,42,39
India,Madhya Pradesh,Indore,"Regional Park, Indore - IMC",28-01-2024 06:00:00,22.6780,75.8559,PM2.5,NA,NA,NA
India,Madhya Pradesh,Indore,"Regional Park, Indore - IMC",28-01-2024 06:00:00,22.6780,75.8559,NO2,7,13,10
India,Madhya Pradesh,Indore,"Residency Area, Indore - IMC",28-01-2024 06:00:00,22.7084,75.8815,PM10,29,191,86
India,Madhya Pradesh,Jabalpur,"Govindh Bhavan Colony, Jabalpur - JMC",28-01-2024 06:00:00,23.163174,79.973061,OZONE,6,136,12
India,Madhya Pradesh,Jabalpur,"Gupteshwar, Jabalpur - JMC",28-01-2024 06:00:00,23.142888,79.916147,PM2.5,35,190,83
India,Madhya Pradesh,Jabalpur,"Gupteshwar, Jabalpur - JMC",28-01-2024 06:00:00,23.142888,79.916147,NO2,11,114,39
India,Madhya Pradesh,Jabalpur,"Suhagi, Jabalpur - JMC",28-01-2024 06:00:00,23.218135,79.957770,NO2,36,42,40
India,Madhya Pradesh,Pithampur,"Sector-2 Industrial Area, Pithampur - MPPCB",28-01-2024 06:00:00,22.624758,75.675238,PM2.5,33,162,85
India,Madhya Pradesh,Pithampur,"Sector-2 Industrial Area, Pithampur - MPPCB",28-01-2024 06:00:00,22.624758,75.675238,CO,43,103,68
India,Madhya Pradesh,Pithampur,"Sector-2 Industrial Area, Pithampur - MPPCB",28-01-2024 06:00:00,22.624758,75.675238,OZONE,19,58,37
India,Madhya Pradesh,Ratlam,"Shasthri Nagar, Ratlam - IPCA Lab",28-01-2024 06:00:00,23.331731,75.045981,SO2,13,16,14
India,Madhya Pradesh,Sagar,"Civil Lines, Sagar - MPPCB",28-01-2024 06:00:00,23.838586,78.759431,PM10,55,164,94
India,Madhya Pradesh,Sagar,"Civil Lines, Sagar - MPPCB",28-01-2024 06:00:00,23.838586,78.759431,NO2,11,22,14
India,Madhya Pradesh,Sagar,"Civil Lines, Sagar - MPPCB",28-01-2024 06:00:00,23.838586,78.759431,OZONE,38,45,41
India,Madhya Pradesh,Satna,"Bandhavgar Colony, Satna - Birla Cement",28-01-2024 06:00:00,24.58434363,80.8549414,CO,20,62,42
India,Madhya Pradesh,Singrauli,"Suryakiran Bhawan NCL, Singrauli - MPPCB",28-01-2024 06:00:00,24.108970,82.645580,PM2.5,95,355,218
India,Madhya Pradesh,Singrauli,"Suryakiran Bhawan NCL, Singrauli - MPPCB",28-01-2024 06:00:00,24.108970,82.645580,NO2,3,14,8
India,Madhya Pradesh,Singrauli,"Suryakiran Bhawan NCL, Singrauli - MPPCB",28-01-2024 06:00:00,24.108970,82.645580,CO,16,114,57
India,Madhya Pradesh,Ujjain,"Mahakaleshwar Temple, Ujjain - MPPCB",28-01-2024 06:00:00,23.182719 ,75.768218 ,PM10,38,153,95
India,Madhya Pradesh,Ujjain,"Mahakaleshwar Temple, Ujjain - MPPCB",28-01-2024 06:00:00,23.182719 ,75.768218 ,NO2,7,113,46
India,Madhya Pradesh,Ujjain,"Mahakaleshwar Temple, Ujjain - MPPCB",28-01-2024 06:00:00,23.182719 ,75.768218 ,SO2,6,17,11
India,Maharashtra,Amravati,"Shri Shivaji Science College, Amaravati - MPCB",28-01-2024 06:00:00,20.939198,77.765701,PM10,90,393,138
India,Maharashtra,Aurangabad,"MIDC Chilkalthana, Aurangabad - MPCB",28-01-2024 06:00:00,19.875620,75.387310,NH3,3,4,4
India,Maharashtra,Aurangabad,"MIDC Chilkalthana, Aurangabad - MPCB",28-01-2024 06:00:00,19.875620,75.387310,OZONE,32,43,39
India,Maharashtra,Aurangabad,"Rachnakar Colony, Aurangabad - MPCB",28-01-2024 06:00:00,19.863756,75.321188,NH3,1,1,1
India,Maharashtra,Badlapur,"Katrap, Badlapur - MPCB",28-01-2024 06:00:00,19.16485,73.23409,PM10,105,401,191
India,Maharashtra,Bhiwandi,"Gokul Nagar, Bhiwandi - MPCB",28-01-2024 06:00:00,19.309073,73.057223,CO,24,104,89
India,Maharashtra,Chandrapur,"Chauhan Colony, Chandrapur - MPCB",28-01-2024 06:00:00,19.962900,79.298714,PM2.5,88,312,185
India,Maharashtra,Chandrapur,"Chauhan Colony, Chandrapur - MPCB",28-01-2024 06:00:00,19.962900,79.298714,NH3,2,2,2
India,Maharashtra,Jalgaon,"Prabhat Colony, Jalgaon - MPCB",28-01-2024 06:00:00,21.001264,75.565602,NH3,6,10,9
India,Maharashtra,Jalna,"Old MIDC, Jalna - MPCB",28-01-2024 06:00:00,19.854616,75.905894,OZONE,19,141,33
India,Maharashtra,Kalyan,"Khadakpada, Kalyan - MPCB",28-01-2024 06:00:00,19.25292,73.142019,SO2,14,115,44
India,Maharashtra,Kalyan,"Khadakpada, Kalyan - MPCB",28-01-2024 06:00:00,19.25292,73.142019,CO,9,100,58
India,Maharashtra,Kolhapur,"Shivaji University, Kolhapur - MPCB",28-01-2024 06:00:00,16.6870449,74.2505872,PM10,87,232,144
India,Maharashtra,Kolhapur,"Shivaji University, Kolhapur - MPCB",28-01-2024 06:00:00,16.6870449,74.2505872,SO2,2,16,6
India,Maharashtra,Kolhapur,"Sinchan Bhavan, Kolhapur - MPCB",28-01-2024 06:00:00,16.7143745,74.2426398,PM10,104,356,170
India,Maharashtra,Kolhapur,"Sinchan Bhavan, Kolhapur - MPCB",28-01-2024 06:00:00,16.7143745,74.2426398,NH3,7,8,7
India,Maharashtra,Kolhapur,"Sinchan Bhavan, Kolhapur - MPCB",28-01-2024 06:00:00,16.7143745,74.2426398,CO,26,110,87
India,Maharashtra,Kolhapur,"Sinchan Bhavan, Kolhapur - MPCB",28-01-2024 06:00:00,16.7143745,74.2426398,OZONE,2,131,4
India,Maharashtra,Latur,"Sawe Wadi, Latur - MPCB",28-01-2024 06:00:00,18.39963,76.57452,NO2,NA,NA,NA
India,Maharashtra,Latur,"Sawe Wadi, Latur - MPCB",28-01-2024 06:00:00,18.39963,76.57452,NH3,NA,NA,NA
India,Maharashtra,Mahad,"Kamble Tarf Birwadi, Mahad - MPCB",28-01-2024 06:00:00,18.1023399,73.4783687,NH3,4,5,5
India,Maharashtra,Malegaon,"Mahesh Nagar, Malegaon - MPCB",28-01-2024 06:00:00,20.555712,74.529236,SO2,7,30,15
India,Maharashtra,Mira-Bhayandar,"Bhayandar West, Mira-Bhayandar - MPCB",28-01-2024 06:00:00,19.296481,72.840923,PM2.5,1,195,82
India,Maharashtra,Mumbai,"Bandra Kurla Complex, Mumbai - MPCB",28-01-2024 06:00:00,19.065931,72.862131,NO2,21,62,40
India,Maharashtra,Mumbai,"Byculla, Mumbai - BMC",28-01-2024 06:00:00,18.9767,72.8380,NO2,51,98,73
India,Maharashtra,Mumbai,"Byculla, Mumbai - BMC",28-01-2024 06:00:00,18.9767,72.8380,CO,22,95,56
India,Maharashtra,Mumbai,"Chakala-Andheri East, Mumbai - IITM",28-01-2024 06:00:00,19.11074,72.86084,NH3,NA,NA,NA
India,Maharashtra,Mumbai,"Chembur, Mumbai - MPCB",28-01-2024 06:00:00,19.0364585,72.8954371,PM2.5,74,128,99
India,Maharashtra,Mumbai,"Chembur, Mumbai - MPCB",28-01-2024 06:00:00,19.0364585,72.8954371,NH3,1,4,2
India,Maharashtra,Mumbai,"Chhatrapati Shivaji Intl. Airport (T2), Mumbai - MPCB",28-01-2024 06:00:00,19.10078,72.87462,SO2,21,37,28
India,Maharashtra,Mumbai,"Chhatrapati Shivaji Intl. Airport (T2), Mumbai - MPCB",28-01-2024 06:00:00,19.10078,72.87462,OZONE,1,22,1
India,Maharashtra,Mumbai,"Deonar, Mumbai - IITM",28-01-2024 06:00:00,19.04946,72.9230,OZONE,NA,NA,NA
India,Maharashtra,Mumbai,"Ghatkopar, Mumbai - BMC",28-01-2024 06:00:00,19.083694,72.920967,PM2.5,60,128,87
India,Maharashtra,Mumbai,"Kandivali East, Mumbai - MPCB",28-01-2024 06:00:00,19.205800,72.868200,SO2,5,87,34
India,Maharashtra,Mumbai,"Kandivali West, Mumbai - BMC",28-01-2024 06:00:00,19.215859,72.831718,NH3,NA,NA,NA
India,Maharashtra,Mumbai,"Kherwadi_Bandra East, Mumbai - MPCB",28-01-2024 06:00:00,19.0632143,72.8456324,PM2.5,60,143,81
India,Maharashtra,Mumbai,"Kherwadi_Bandra East, Mumbai - MPCB",28-01-2024 06:00:00,19.0632143,72.8456324,SO2,22,51,32
India,Maharashtra,Mumbai,"Kherwadi_Bandra East, Mumbai - MPCB",28-01-2024 06:00:00,19.0632143,72.8456324,CO,16,117,104
India,Maharashtra,Mumbai,"Kurla, Mumbai - MPCB",28-01-2024 06:00:00,19.0863,72.8888,PM10,65,138,87
India,Maharashtra,Mumbai,"Kurla, Mumbai - MPCB",28-01-2024 06:00:00,19.0863,72.8888,NO2,16,44,31
India,Maharashtra,Mumbai,"Mazgaon, Mumbai - IITM",28-01-2024 06:00:00,18.96702,72.84214,SO2,4,28,17
India,Maharashtra,Mumbai,"Mulund West, Mumbai - MPCB",28-01-2024 06:00:00,19.1750,72.9419,NH3,9,10,10
India,Maharashtra,Mumbai,"Mulund West, Mumbai - MPCB",28-01-2024 06:00:00,19.1750,72.9419,OZONE,7,7,7
India,Maharashtra,Mumbai,"Navy Nagar-Colaba, Mumbai - IITM",28-01-2024 06:00:00,18.897756,72.813320,PM2.5,67,184,119
India,Maharashtra,Mumbai,"Powai, Mumbai - MPCB",28-01-2024 06:00:00,19.137500,72.915056,CO,36,47,38
India,Maharashtra,Mumbai,"Powai, Mumbai - MPCB",28-01-2024 06:00:00,19.137500,72.915056,OZONE,21,40,24
India,Maharashtra,Mumbai,"Sewri, Mumbai - BMC",28-01-2024 06:00:00,19.000084,72.856730,NO2,68,149,100
India,Maharashtra,Mumbai,"Sewri, Mumbai - BMC",28-01-2024 06:00:00,19.000084,72.856730,NH3,2,13,8
India,Maharashtra,Mumbai,"Sewri, Mumbai - BMC",28-01-2024 06:00:00,19.000084,72.856730,SO2,6,47,16
India,Maharashtra,Mumbai,"Shivaji Nagar, Mumbai - BMC",28-01-2024 06:00:00,19.060498,72.923356,PM10,101,296,138
India,Maharashtra,Mumbai,"Shivaji Nagar, Mumbai - BMC",28-01-2024 06:00:00,19.060498,72.923356,SO2,7,28,17
India,Maharashtra,Mumbai,"Siddharth Nagar-Worli, Mumbai - IITM",28-01-2024 06:00:00,19.000083,72.813993,PM10,116,208,145
India,Maharashtra,Mumbai,"Sion, Mumbai - MPCB",28-01-2024 06:00:00,19.047000,72.874600,SO2,36,42,39
India,Maharashtra,Mumbai,"Sion, Mumbai - MPCB",28-01-2024 06:00:00,19.047000,72.874600,OZONE,10,17,12
India,Maharashtra,Mumbai,"Vasai West, Mumbai - MPCB",28-01-2024 06:00:00,19.383200,72.820400,PM2.5,22,90,48
India,Maharashtra,Mumbai,"Vasai West, Mumbai - MPCB",28-01-2024 06:00:00,19.383200,72.820400,SO2,25,27,26
India,Maharashtra,Mumbai,"Vasai West, Mumbai - MPCB",28-01-2024 06:00:00,19.383200,72.820400,OZONE,6,69,13
India,Maharashtra,Mumbai,"Vile Parle West, Mumbai - MPCB",28-01-2024 06:00:00,19.10861,72.83622,OZONE,7,22,8
India,Maharashtra,Mumbai,"Worli, Mumbai - MPCB",28-01-2024 06:00:00,18.9936162,72.8128113,PM2.5,36,160,60
India,Maharashtra,Mumbai,"Worli, Mumbai - MPCB",28-01-2024 06:00:00,18.9936162,72.8128113,PM10,76,137,106
India,Maharashtra,Nagpur,"Ambazari, Nagpur - MPCB",28-01-2024 06:00:00,21.121801,79.04952,CO,12,108,86
India,Maharashtra,Nagpur,"Opp GPO Civil Lines, Nagpur - MPCB",28-01-2024 06:00:00,21.152875,79.0517531,PM10,99,182,130
India,Maharashtra,Nagpur,"Opp GPO Civil Lines, Nagpur - MPCB",28-01-2024 06:00:00,21.152875,79.0517531,CO,16,122,79
India,Maharashtra,Nagpur,"Ram Nagar, Nagpur - MPCB",28-01-2024 06:00:00,21.143383,79.048912,NH3,5,6,5
India,Maharashtra,Nagpur,"Ram Nagar, Nagpur - MPCB",28-01-2024 06:00:00,21.143383,79.048912,SO2,8,138,39
India,Maharashtra,Nagpur,"Ram Nagar, Nagpur - MPCB",28-01-2024 06:00:00,21.143383,79.048912,OZONE,14,80,23
India,Maharashtra,Nanded,"Sneh Nagar, Nanded - MPCB",28-01-2024 06:00:00,19.173852,77.296291,NH3,1,2,2
India,Maharashtra,Nanded,"Sneh Nagar, Nanded - MPCB",28-01-2024 06:00:00,19.173852,77.296291,OZONE,23,130,78
India,Maharashtra,Nashik,"Gangapur Road, Nashik - MPCB",28-01-2024 06:00:00,20.0073285,73.7762427,PM2.5,77,321,175
India,Maharashtra,Nashik,"Gangapur Road, Nashik - MPCB",28-01-2024 06:00:00,20.0073285,73.7762427,OZONE,1,83,2
India,Maharashtra,Nashik,"Hirawadi, Nashik - MPCB",28-01-2024 06:00:00,20.021503,73.813844,NH3,1,2,1
India,Maharashtra,Nashik,"Pandav Nagari, Nashik - MPCB",28-01-2024 06:00:00,19.9591346,73.7788008,PM10,91,191,134
India,Maharashtra,Navi Mumbai,"Kopripada-Vashi, Navi Mumbai - MPCB",28-01-2024 06:00:00,19.090337,73.014232,SO2,22,67,37
India,Maharashtra,Navi Mumbai,"Kopripada-Vashi, Navi Mumbai - MPCB",28-01-2024 06:00:00,19.090337,73.014232,OZONE,1,143,1
India,Maharashtra,Navi Mumbai,"Mahape, Navi Mumbai - MPCB",28-01-2024 06:00:00,19.1135051,73.008978,NO2,37,38,38
India,Maharashtra,Navi Mumbai,"Mahape, Navi Mumbai - MPCB",28-01-2024 06:00:00,19.1135051,73.008978,SO2,26,26,26
India,Maharashtra,Navi Mumbai,"Mahape, Navi Mumbai - MPCB",28-01-2024 06:00:00,19.1135051,73.008978,CO,28,75,57
India,Maharashtra,Navi Mumbai,"Nerul, Navi Mumbai - MPCB",28-01-2024 06:00:00,19.008751,73.016620,PM2.5,36,173,84
India,Maharashtra,Navi Mumbai,"Nerul, Navi Mumbai - MPCB",28-01-2024 06:00:00,19.008751,73.016620,CO,54,93,78
India,Maharashtra,Navi Mumbai,"Sanpada, Navi Mumbai - MPCB",28-01-2024 06:00:00,19.0575752,73.0151367,SO2,6,55,20
India,Maharashtra,Navi Mumbai,"Sector-19A Nerul, Navi Mumbai - IITM",28-01-2024 06:00:00,19.044,73.0325,PM10,130,361,226
India,Maharashtra,Navi Mumbai,"Tondare-Taloja, Navi Mumbai - MPCB",28-01-2024 06:00:00,19.0630,73.1209,NH3,3,15,7
India,Maharashtra,Navi Mumbai,"Tondare-Taloja, Navi Mumbai - MPCB",28-01-2024 06:00:00,19.0630,73.1209,OZONE,1,125,8
India,Maharashtra,Parbhani,"Masoom Colony, Parbhani - MPCB",28-01-2024 06:00:00,19.265594,76.761463,PM2.5,81,194,128
India,Maharashtra,Pimpri-Chinchwad,"Gavalinagar, Pimpri Chinchwad - MPCB",28-01-2024 06:00:00,18.63673,73.82487,PM2.5,89,342,232
India,Maharashtra,Pimpri-Chinchwad,"Park Street Wakad, Pimpri Chinchwad - MPCB",28-01-2024 06:00:00,18.59051,73.77946,NO2,70,152,109
India,Maharashtra,Pune,"Alandi, Pune - IITM",28-01-2024 06:00:00,18.675076,73.892743,PM2.5,60,284,139
India,Maharashtra,Pune,"Alandi, Pune - IITM",28-01-2024 06:00:00,18.675076,73.892743,PM10,59,149,108
India,Maharashtra,Pune,"Alandi, Pune - IITM",28-01-2024 06:00:00,18.675076,73.892743,CO,29,96,55
India,Maharashtra,Pune,"Bhosari, Pune - IITM",28-01-2024 06:00:00,18.640051,73.848956,PM2.5,64,284,144
India,Maharashtra,Pune,"Karve Road, Pune - MPCB",28-01-2024 06:00:00,18.5011743,73.8165527,PM10,115,145,127
India,Maharashtra,Pune,"Karve Road, Pune - MPCB",28-01-2024 06:00:00,18.5011743,73.8165527,NO2,2,2,2
India,Maharashtra,Pune,"Karve Road, Pune - MPCB",28-01-2024 06:00:00,18.5011743,73.8165527,CO,60,82,62
India,Maharashtra,Pune,"Katraj Dairy, Pune - MPCB",28-01-2024 06:00:00,18.454450,73.854155,PM2.5,57,166,112
India,Maharashtra,Pune,"Katraj Dairy, Pune - MPCB",28-01-2024 06:00:00,18.454450,73.854155,NO2,34,55,46
India,Maharashtra,Pune,"Katraj Dairy, Pune - MPCB",28-01-2024 06:00:00,18.454450,73.854155,CO,46,104,93
India,Maharashtra,Pune,"Mhada Colony, Pune - IITM",28-01-2024 06:00:00,18.573040,73.927715,NO2,5,55,32
India,Maharashtra,Pune,"Mhada Colony, Pune - IITM",28-01-2024 06:00:00,18.573040,73.927715,CO,35,89,53
India,Maharashtra,Pune,"Savitribai Phule Pune University, Pune - MPCB",28-01-2024 06:00:00,18.547056,73.826908,NO2,12,58,34
India,Maharashtra,Pune,"Transport Nagar-Nigdi, Pune - IITM",28-01-2024 06:00:00,18.664282,73.763966,CO,26,84,53
India,Maharashtra,Solapur,"Ratandeep Housing Society, Solapur - MPCB",28-01-2024 06:00:00,17.65439,75.90649,PM2.5,76,190,124
India,Maharashtra,Solapur,"Solapur, Solapur - MPCB",28-01-2024 06:00:00,17.6599188,75.9063906,NO2,46,55,52
India,Maharashtra,Solapur,"Solapur, Solapur - MPCB",28-01-2024 06:00:00,17.6599188,75.9063906,OZONE,33,77,35
India,Maharashtra,Ulhasnagar,"Sidhi Vinayak Nagar, Ulhasnagar - MPCB",28-01-2024 06:00:00,19.235581,73.159121,PM2.5,66,307,175
India,Maharashtra,Ulhasnagar,"Sidhi Vinayak Nagar, Ulhasnagar - MPCB",28-01-2024 06:00:00,19.235581,73.159121,SO2,8,58,24
India,Maharashtra,Ulhasnagar,"Sidhi Vinayak Nagar, Ulhasnagar - MPCB",28-01-2024 06:00:00,19.235581,73.159121,CO,10,151,89
India,Maharashtra,Ulhasnagar,"Sidhi Vinayak Nagar, Ulhasnagar - MPCB",28-01-2024 06:00:00,19.235581,73.159121,OZONE,1,116,2
India,Maharashtra,Virar,"Bolinj, Virar - MPCB",28-01-2024 06:00:00,19.4458210,72.7988231,NH3,4,12,6
India,Manipur,Imphal,"DM College of Science, Imphal - Manipur PCB",28-01-2024 06:00:00,24.8207389,93.9423085,PM2.5,21,66,36
India,Manipur,Imphal,"Manipur University, Imphal - Manipur PCB",28-01-2024 06:00:00,24.7524239,93.9286218,SO2,60,65,63
India,Meghalaya,Shillong,"JN Stadium, Shillong - Meghalaya PCB",28-01-2024 06:00:00,25.5803419,91.8942571,NH3,2,4,3
India,Meghalaya,Shillong,"JN Stadium, Shillong - Meghalaya PCB",28-01-2024 06:00:00,25.5803419,91.8942571,SO2,28,32,29
India,Meghalaya,Shillong,"Lumpyngngad, Shillong - Meghalaya PCB",28-01-2024 06:00:00,25.5586,91.8985,PM10,50,115,80
India,Mizoram,Aizawl,"Sikulpuikawn, Aizawl - Mizoram PCB",28-01-2024 06:00:00,23.7176342,92.7192841,SO2,2,2,2
India,Nagaland,Kohima,"PWD Juction, Kohima - NPCB",28-01-2024 06:00:00,25.6635413,94.0989878,NH3,NA,NA,NA
India,Nagaland,Kohima,"PWD Juction, Kohima - NPCB",28-01-2024 06:00:00,25.6635413,94.0989878,OZONE,9,19,11
India,Odisha,Angul,"Hakimapada, Angul - OSPCB",28-01-2024 06:00:00,20.832874,85.104082,OZONE,2,184,15
India,Odisha,Barbil,"Forest Office, Barbil - OSPCB",28-01-2024 06:00:00,22.1166054,85.3945546,SO2,3,30,12
India,Odisha,Baripada,"Meher Colony, Baripada - OSPCB",28-01-2024 06:00:00,21.941841,86.728318,OZONE,9,41,10
India,Odisha,Bileipada,"Tata Township, Bileipada - OSPCB",28-01-2024 06:00:00,22.06156703,85.47409613,PM10,85,428,210
India,Odisha,Bileipada,"Tata Township, Bileipada - OSPCB",28-01-2024 06:00:00,22.06156703,85.47409613,NO2,7,13,10
India,Odisha,Bileipada,"Tata Township, Bileipada - OSPCB",28-01-2024 06:00:00,22.06156703,85.47409613,NH3,11,11,11
India,Odisha,Bileipada,"Tata Township, Bileipada - OSPCB",28-01-2024 06:00:00,22.06156703,85.47409613,SO2,35,67,44
India,Odisha,Brajrajnagar,"GM Office, Brajrajnagar - OSPCB",28-01-2024 06:00:00,21.8004996,83.8396977,PM10,37,274,116
India,Odisha,Byasanagar,"Ferro Chrome Colony, Byasanagar - OSPCB",28-01-2024 06:00:00,20.94185,86.11510,PM2.5,110,307,220
India,Odisha,Cuttack,"CDA Area, Cuttack - OSPCB",28-01-2024 06:00:00,20.48891     ,85.84768     ,PM10,110,277,168
India,Odisha,Cuttack,"CDA Area, Cuttack - OSPCB",28-01-2024 06:00:00,20.48891     ,85.84768     ,SO2,8,54,19
India,Odisha,Nayagarh,"Dabuna, Nayagarh - OSPCB",28-01-2024 06:00:00,21.847279,85.416905,PM2.5,NA,NA,NA
India,Odisha,Nayagarh,"Dabuna, Nayagarh - OSPCB",28-01-2024 06:00:00,21.847279,85.416905,SO2,NA,NA,NA
India,Odisha,Rourkela,"Fertilizer Township, Rourkela - OSPCB",28-01-2024 06:00:00,22.18972222,84.86277778,PM2.5,47,231,114
India,Odisha,Rourkela,"Fertilizer Township, Rourkela - OSPCB",28-01-2024 06:00:00,22.18972222,84.86277778,NO2,3,40,18
India,Odisha,Rourkela,"Raghunathpali, Rourkela - OSPCB",28-01-2024 06:00:00,22.220833,84.809444,PM2.5,113,283,202
India,Odisha,Rourkela,"Raghunathpali, Rourkela - OSPCB",28-01-2024 06:00:00,22.220833,84.809444,PM10,104,213,145
India,Odisha,Rourkela,"Raghunathpali, Rourkela - OSPCB",28-01-2024 06:00:00,22.220833,84.809444,CO,32,86,46
India,Odisha,Rourkela,"Sector-2, Rourkela - OSPCB",28-01-2024 06:00:00,22.24500000,84.88111111,NO2,33,34,33
India,Odisha,Suakati,"OMC Colony, Suakati - OSPCB",28-01-2024 06:00:00,21.606865,85.510538,NO2,NA,NA,NA
India,Odisha,Suakati,"OMC Colony, Suakati - OSPCB",28-01-2024 06:00:00,21.606865,85.510538,CO,15,30,22
India,Odisha,Suakati,"OMC Colony, Suakati - OSPCB",28-01-2024 06:00:00,21.606865,85.510538,OZONE,30,183,52
India,Odisha,Talcher,"Talcher Coalfields,Talcher - OSPCB",28-01-2024 06:00:00,20.9360711,85.1707021,NH3,7,7,7
India,Odisha,Talcher,"Talcher Coalfields,Talcher - OSPCB",28-01-2024 06:00:00,20.9360711,85.1707021,CO,36,129,72
India,Odisha,Tensa,"Barsua Iron Ore Mines, Tensa - OSPCB",28-01-2024 06:00:00,21.869985,85.167016,PM10,82,123,102
India,Odisha,Tensa,"Barsua Iron Ore Mines, Tensa - OSPCB",28-01-2024 06:00:00,21.869985,85.167016,NO2,69,102,83
India,Odisha,Tensa,"Barsua Iron Ore Mines, Tensa - OSPCB",28-01-2024 06:00:00,21.869985,85.167016,OZONE,2,23,14
India,Puducherry,Puducherry,"Jawahar Nagar, Puducherry - PPCC",28-01-2024 06:00:00,11.9309,79.8027,NH3,2,3,2
India,Punjab,Amritsar,"Golden Temple, Amritsar - PPCB",28-01-2024 06:00:00,31.620000,74.876512,PM2.5,71,223,140
India,Punjab,Amritsar,"Golden Temple, Amritsar - PPCB",28-01-2024 06:00:00,31.620000,74.876512,NH3,4,9,5
India,Punjab,Amritsar,"Golden Temple, Amritsar - PPCB",28-01-2024 06:00:00,31.620000,74.876512,SO2,17,31,24
India,Punjab,Amritsar,"Golden Temple, Amritsar - PPCB",28-01-2024 06:00:00,31.620000,74.876512,CO,28,50,34
India,Punjab,Amritsar,"Golden Temple, Amritsar - PPCB",28-01-2024 06:00:00,31.620000,74.876512,OZONE,24,32,29
India,Punjab,Jalandhar,"Civil Line, Jalandhar - PPCB",28-01-2024 06:00:00,31.321907,75.578914,PM10,89,255,146
India,Punjab,Khanna,"Kalal Majra, Khanna - PPCB",28-01-2024 06:00:00,30.736056 ,76.209694,CO,2,22,10
India,Punjab,Ludhiana,"Punjab Agricultural University, Ludhiana - PPCB",28-01-2024 06:00:00,30.9028,75.8086,NH3,5,6,5
India,Punjab,Ludhiana,"Punjab Agricultural University, Ludhiana - PPCB",28-01-2024 06:00:00,30.9028,75.8086,CO,24,104,54
India,Punjab,Mandi Gobindgarh,"RIMT University, Mandi Gobindgarh - PPCB",28-01-2024 06:00:00,30.649961,76.331442,PM2.5,201,371,307
India,Punjab,Mandi Gobindgarh,"RIMT University, Mandi Gobindgarh - PPCB",28-01-2024 06:00:00,30.649961,76.331442,PM10,142,337,213
India,Punjab,Patiala,"Model Town, Patiala - PPCB",28-01-2024 06:00:00,30.349388,76.366642,SO2,1,57,14
India,Punjab,Rupnagar,"Ratanpura, Rupnagar - Ambuja Cements",28-01-2024 06:00:00,31.0325454,76.5623046,PM2.5,29,348,170
India,Rajasthan,Ajmer,"Civil Lines,  Ajmer - RSPCB",28-01-2024 06:00:00,26.470859,74.646594,PM10,64,173,111
India,Rajasthan,Ajmer,"Civil Lines,  Ajmer - RSPCB",28-01-2024 06:00:00,26.470859,74.646594,CO,6,110,49
India,Rajasthan,Banswara,"Rati Talai, Banswara - RSPCB",28-01-2024 06:00:00,23.555190,74.440010,PM10,66,300,123
India,Rajasthan,Banswara,"Rati Talai, Banswara - RSPCB",28-01-2024 06:00:00,23.555190,74.440010,NO2,10,116,34
India,Rajasthan,Baran,"Bamboliya, Baran - RSPCB",28-01-2024 06:00:00,25.106006,76.469948,PM2.5,59,328,158
India,Rajasthan,Barmer,"Railway Colony, Barmer - RSPCB",28-01-2024 06:00:00,25.747299,71.393989,NO2,13,77,28
India,Rajasthan,Barmer,"Railway Colony, Barmer - RSPCB",28-01-2024 06:00:00,25.747299,71.393989,CO,22,111,45
India,Rajasthan,Bharatpur,"Krishna Nagar, Bharatpur - RSPCB",28-01-2024 06:00:00,27.215415,77.50873,PM2.5,NA,NA,NA
India,Rajasthan,Bharatpur,"Krishna Nagar, Bharatpur - RSPCB",28-01-2024 06:00:00,27.215415,77.50873,NH3,NA,NA,NA
India,Rajasthan,Bhilwara,"Pratap Nagar, Bhilwara - RSPCB",28-01-2024 06:00:00,25.339605,74.618883,OZONE,2,105,11
India,Rajasthan,Bhiwadi,"RIICO Ind. Area III, Bhiwadi - RSPCB",28-01-2024 06:00:00,28.194909,76.862296,CO,8,113,27
India,Rajasthan,Bikaner,"MM Ground, Bikaner - RSPCB",28-01-2024 06:00:00,28.018792,73.292658,NH3,14,19,16
India,Rajasthan,Bikaner,"MM Ground, Bikaner - RSPCB",28-01-2024 06:00:00,28.018792,73.292658,OZONE,5,89,29
India,Rajasthan,Bundi,"New Colony, Bundi - RSPCB",28-01-2024 06:00:00,25.435774,75.644272,CO,30,109,68
India,Rajasthan,Chittorgarh,"Shastri Nagar, Chittorgarh - RSPCB",28-01-2024 06:00:00,24.892047,74.623527,PM2.5,13,375,244
India,Rajasthan,Dholpur,"Raja Ganj, Dholpur - RSPCB",28-01-2024 06:00:00,26.699557,77.898881,PM2.5,25,444,206
India,Rajasthan,Dungarpur,"Bhoiwada, Dungarpur - RSPCB",28-01-2024 06:00:00,23.837789,73.714926,NO2,22,64,38
India,Rajasthan,Jaipur,"Adarsh Nagar, Jaipur - RSPCB",28-01-2024 06:00:00,26.902909,75.836858,PM2.5,59,291,123
India,Rajasthan,Jaipur,"Adarsh Nagar, Jaipur - RSPCB",28-01-2024 06:00:00,26.902909,75.836858,NO2,32,143,83
India,Rajasthan,Jaipur,"Adarsh Nagar, Jaipur - RSPCB",28-01-2024 06:00:00,26.902909,75.836858,OZONE,9,90,33
India,Rajasthan,Jaipur,"Police Commissionerate, Jaipur - RSPCB",28-01-2024 06:00:00,26.9164092,75.7994901,OZONE,9,99,15
India,Rajasthan,Jaipur,"RIICO Sitapura, Jaipur - RSPCB",28-01-2024 06:00:00,26.786682,75.827928,CO,40,108,94
India,Rajasthan,Jaipur,"Sector-2 Murlipura, Jaipur - RSPCB",28-01-2024 06:00:00,26.960669,75.771817,CO,22,133,90
India,Rajasthan,Jaipur,"Shastri Nagar, Jaipur - RSPCB",28-01-2024 06:00:00,26.9502929,75.730943,SO2,11,27,20
India,Rajasthan,Jaipur,"Shastri Nagar, Jaipur - RSPCB",28-01-2024 06:00:00,26.9502929,75.730943,CO,21,136,69
India,Rajasthan,Jaisalmer,"Sadar Bazar, Jaisalmer - RSPCB",28-01-2024 06:00:00,26.912329,70.909168,PM2.5,218,400,326
India,Rajasthan,Jaisalmer,"Sadar Bazar, Jaisalmer - RSPCB",28-01-2024 06:00:00,26.912329,70.909168,CO,11,119,57
India,Rajasthan,Jaisalmer,"Sadar Bazar, Jaisalmer - RSPCB",28-01-2024 06:00:00,26.912329,70.909168,OZONE,2,122,21
India,Rajasthan,Jalore,"Mudtra Sili, Jalore - RSPCB",28-01-2024 06:00:00,25.344694,72.626208,PM2.5,66,301,181
India,Rajasthan,Jalore,"Mudtra Sili, Jalore - RSPCB",28-01-2024 06:00:00,25.344694,72.626208,PM10,114,361,191
India,Rajasthan,Jalore,"Mudtra Sili, Jalore - RSPCB",28-01-2024 06:00:00,25.344694,72.626208,NO2,12,126,60
India,Rajasthan,Jhalawar,"Rajlaxmi Nagar, Jhalawar - RSPCB",28-01-2024 06:00:00,24.588397,76.172782,OZONE,1,114,4
India,Rajasthan,Jhunjhunu,"Indra Nagar, Jhunjhunu - RSPCB",28-01-2024 06:00:00,28.108988,75.386577,OZONE,6,126,42
India,Rajasthan,Jodhpur,"Collectorate, Jodhpur - RSPCB",28-01-2024 06:00:00,26.268249,73.0193853,SO2,NA,NA,NA
India,Rajasthan,Jodhpur,"Digari Kalan, Jodhpur - RSPCB",28-01-2024 06:00:00,26.295810,73.082283,CO,17,107,69
India,Rajasthan,Jodhpur,"Digari Kalan, Jodhpur - RSPCB",28-01-2024 06:00:00,26.295810,73.082283,OZONE,2,144,10
India,Rajasthan,Jodhpur,"Jhalamand, Jodhpur - RSPCB",28-01-2024 06:00:00,26.215415,73.070156,PM2.5,27,328,151
India,Rajasthan,Jodhpur,"Mandor, Jodhpur - RSPCB",28-01-2024 06:00:00,26.358805,73.047444,PM2.5,50,239,115
India,Rajasthan,Jodhpur,"Mandor, Jodhpur - RSPCB",28-01-2024 06:00:00,26.358805,73.047444,NH3,5,18,9
India,Rajasthan,Jodhpur,"Samrat Ashok Udhyan, Jodhpur - RSPCB",28-01-2024 06:00:00,26.253384,72.976571,OZONE,16,192,46
India,Rajasthan,Karauli,"Satyawati Vihar, Karauli - RSPCB",28-01-2024 06:00:00,26.506177,77.025989,CO,16,103,62
India,Rajasthan,Kota,"Dhanmandi, Kota - RSPCB",28-01-2024 06:00:00,25.164090,75.858137,PM10,120,414,230
India,Rajasthan,Kota,"Dhanmandi, Kota - RSPCB",28-01-2024 06:00:00,25.164090,75.858137,NO2,31,135,71
India,Rajasthan,Kota,"Dhanmandi, Kota - RSPCB",28-01-2024 06:00:00,25.164090,75.858137,NH3,6,11,7
India,Rajasthan,Kota,"Dhanmandi, Kota - RSPCB",28-01-2024 06:00:00,25.164090,75.858137,SO2,2,93,17
India,Rajasthan,Kota,"Shrinath Puram, Kota - RSPCB",28-01-2024 06:00:00,25.14389,75.821256,PM10,102,187,129
India,Rajasthan,Kota,"Shrinath Puram, Kota - RSPCB",28-01-2024 06:00:00,25.14389,75.821256,NH3,7,14,10
India,Rajasthan,Kota,"Shrinath Puram, Kota - RSPCB",28-01-2024 06:00:00,25.14389,75.821256,CO,6,38,19
India,Rajasthan,Pali,"Indira Colony Vistar, Pali - RSPCB",28-01-2024 06:00:00,25.771061, 73.340227,NO2,18,58,28
India,Rajasthan,Pali,"Indira Colony Vistar, Pali - RSPCB",28-01-2024 06:00:00,25.771061, 73.340227,OZONE,5,270,41
India,Rajasthan,Pratapgarh,"Pragati Nagar, Pratapgarh - RSPCB",28-01-2024 06:00:00,24.041198,74.780702,SO2,1,8,4
India,Rajasthan,Pratapgarh,"Pragati Nagar, Pratapgarh - RSPCB",28-01-2024 06:00:00,24.041198,74.780702,CO,2,14,5
India,Rajasthan,Sirohi,"Vedhaynath Colony, Sirohi - RSPCB",28-01-2024 06:00:00,24.885261,72.857549,PM10,35,154,88
India,Rajasthan,Sri Ganganagar,"Old City, Sri Ganganagar - RSPCB",28-01-2024 06:00:00,29.931624,73.864511,NO2,28,180,65
India,Rajasthan,Udaipur,"Ashok Nagar, Udaipur - RSPCB",28-01-2024 06:00:00,24.5886166,73.6321397,OZONE,10,14,12
India,Sikkim,Gangtok,"Zero Point GICI, Gangtok - SSPCB",28-01-2024 06:00:00,27.338530,88.614099,SO2,9,10,9
India,Sikkim,Gangtok,"Zero Point GICI, Gangtok - SSPCB",28-01-2024 06:00:00,27.338530,88.614099,OZONE,18,77,21
India,TamilNadu,Ariyalur,"Keelapalur, Ariyalur - TNPCB",28-01-2024 06:00:00,11.06825,79.07033,NO2,10,39,17
India,TamilNadu,Chennai,"Alandur Bus Depot, Chennai - CPCB",28-01-2024 06:00:00,12.9099161,80.1076538,NH3,7,13,8
India,TamilNadu,Chennai,"Gandhi Nagar_Ennore, Chennai - TNPCB",28-01-2024 06:00:00,13.218341,80.32027,NH3,NA,NA,NA
India,TamilNadu,Chennai,"Gandhi Nagar_Ennore, Chennai - TNPCB",28-01-2024 06:00:00,13.218341,80.32027,SO2,NA,NA,NA
India,TamilNadu,Chennai,"Kodungaiyur, Chennai - TNPCB",28-01-2024 06:00:00,13.1278,80.2642,SO2,1,31,8
India,TamilNadu,Chennai,"Kodungaiyur, Chennai - TNPCB",28-01-2024 06:00:00,13.1278,80.2642,CO,23,40,32
India,TamilNadu,Chennai,"Manali, Chennai - CPCB",28-01-2024 06:00:00,13.164544,80.26285,PM10,33,82,58
India,TamilNadu,Chennai,"Royapuram, Chennai - TNPCB",28-01-2024 06:00:00,13.1036,80.2909,PM2.5,28,131,48
India,TamilNadu,Chennai,"Royapuram, Chennai - TNPCB",28-01-2024 06:00:00,13.1036,80.2909,PM10,36,120,54
India,TamilNadu,Chennai,"Velachery Res. Area, Chennai - CPCB",28-01-2024 06:00:00,13.0052189,80.2398125,NH3,NA,NA,NA
India,TamilNadu,Cuddalore,"Semmandalam, Cuddalore - TNPCB",28-01-2024 06:00:00,11.7637683,79.7499835,NO2,3,28,13
India,TamilNadu,Gummidipoondi,"Anthoni Pillai Nagar, Gummidipoondi - TNPCB",28-01-2024 06:00:00,13.4127,80.1081,NO2,10,16,12
India,TamilNadu,Kanchipuram,"Kilambi, Kanchipuram - TNPCB",28-01-2024 06:00:00,12.864618,79.659968,PM2.5,NA,NA,NA
India,TamilNadu,Palkalaiperur,"Bharathidasan University, Palkalaiperur - TNPCB",28-01-2024 06:00:00,10.681158,78.741746,PM2.5,25,43,35
India,TamilNadu,Ramanathapuram,"Chalai Bazaar, Ramanathapuram - TNPCB",28-01-2024 06:00:00,9.36399,78.831977,CO,8,18,12
India,TamilNadu,Salem,"Sona College of Technology, Salem - TNPCB",28-01-2024 06:00:00,11.679111,78.125052,SO2,NA,NA,NA
India,TamilNadu,Thoothukudi,"Meelavittan, Thoothukudi - TNPCB",28-01-2024 06:00:00,8.816428 ,78.099039,PM10,29,58,39
India,TamilNadu,Tirupur,"Kumaran College, Tirupur - TNPCB",28-01-2024 06:00:00,11.0973603,77.3228673,PM2.5,20,290,42
India,TamilNadu,Vellore,"Vasanthapuram, Vellore - TNPCB",28-01-2024 06:00:00,12.909494,79.131861,SO2,14,15,15
India,TamilNadu,Vellore,"Vasanthapuram, Vellore - TNPCB",28-01-2024 06:00:00,12.909494,79.131861,OZONE,1,2,1
India,Telangana,Hyderabad,"ECIL Kapra, Hyderabad - TSPCB",28-01-2024 06:00:00,17.470431,78.566959,NO2,6,12,11
India,Telangana,Hyderabad,"ECIL Kapra, Hyderabad - TSPCB",28-01-2024 06:00:00,17.470431,78.566959,NH3,5,7,7
India,Telangana,Hyderabad,"ICRISAT Patancheru, Hyderabad - TSPCB",28-01-2024 06:00:00,17.518400,78.278777,PM10,58,145,92
India,Telangana,Hyderabad,"ICRISAT Patancheru, Hyderabad - TSPCB",28-01-2024 06:00:00,17.518400,78.278777,NH3,2,2,2
India,Telangana,Hyderabad,"IITH Kandi, Hyderabad - TSPCB",28-01-2024 06:00:00,17.585705,78.126199,PM10,NA,NA,NA
India,Telangana,Hyderabad,"IITH Kandi, Hyderabad - TSPCB",28-01-2024 06:00:00,17.585705,78.126199,NH3,NA,NA,NA
India,Telangana,Hyderabad,"Kompally Municipal Office, Hyderabad - TSPCB",28-01-2024 06:00:00,17.544899,78.486949,NO2,6,12,7
India,Telangana,Hyderabad,"Kompally Municipal Office, Hyderabad - TSPCB",28-01-2024 06:00:00,17.544899,78.486949,SO2,2,12,7
India,Telangana,Hyderabad,"Kompally Municipal Office, Hyderabad - TSPCB",28-01-2024 06:00:00,17.544899,78.486949,CO,4,61,40
India,Telangana,Hyderabad,"Nacharam_TSIIC IALA, Hyderabad - TSPCB",28-01-2024 06:00:00,17.429398,78.569354,PM2.5,42,100,65
India,Telangana,Hyderabad,"New Malakpet, Hyderabad - TSPCB",28-01-2024 06:00:00,17.37206,78.50864,NH3,2,2,2
India,Telangana,Hyderabad,"New Malakpet, Hyderabad - TSPCB",28-01-2024 06:00:00,17.37206,78.50864,SO2,NA,NA,NA
India,Telangana,Hyderabad,"New Malakpet, Hyderabad - TSPCB",28-01-2024 06:00:00,17.37206,78.50864,CO,16,40,24
India,Telangana,Hyderabad,"Ramachandrapuram, Hyderabad - TSPCB",28-01-2024 06:00:00,17.528544,78.286195,NH3,NA,NA,NA
India,Telangana,Hyderabad,"Ramachandrapuram, Hyderabad - TSPCB",28-01-2024 06:00:00,17.528544,78.286195,CO,10,48,41
India,Telangana,Hyderabad,"Zoo Park, Hyderabad - TSPCB",28-01-2024 06:00:00,17.349694,78.451437,PM10,56,140,102
India,Telangana,Hyderabad,"Zoo Park, Hyderabad - TSPCB",28-01-2024 06:00:00,17.349694,78.451437,NH3,1,1,1
India,Telangana,Hyderabad,"Zoo Park, Hyderabad - TSPCB",28-01-2024 06:00:00,17.349694,78.451437,CO,42,96,73
India,Uttar_Pradesh,Agra,"Manoharpur, Agra - UPPCB",28-01-2024 06:00:00,27.23711,78.01936,SO2,23,27,25
India,Uttar_Pradesh,Agra,"Manoharpur, Agra - UPPCB",28-01-2024 06:00:00,27.23711,78.01936,OZONE,3,16,3
India,Uttar_Pradesh,Agra,"Rohta, Agra - UPPCB",28-01-2024 06:00:00,27.106972,78.000111,NH3,2,2,2
India,Uttar_Pradesh,Agra,"Sanjay Palace, Agra - UPPCB",28-01-2024 06:00:00,27.19865833,78.00598056,SO2,NA,NA,NA
India,Uttar_Pradesh,Agra,"Sanjay Palace, Agra - UPPCB",28-01-2024 06:00:00,27.19865833,78.00598056,OZONE,NA,NA,NA
India,Uttar_Pradesh,Agra,"Sector-3B Avas Vikas Colony, Agra - UPPCB",28-01-2024 06:00:00,27.19412,77.96237,NO2,21,164,78
India,Uttar_Pradesh,Agra,"Sector-3B Avas Vikas Colony, Agra - UPPCB",28-01-2024 06:00:00,27.19412,77.96237,NH3,5,9,7
India,Uttar_Pradesh,Agra,"Sector-3B Avas Vikas Colony, Agra - UPPCB",28-01-2024 06:00:00,27.19412,77.96237,SO2,14,24,18
India,Uttar_Pradesh,Agra,"Shahjahan Garden, Agra - UPPCB",28-01-2024 06:00:00,27.169338,78.03582,PM10,49,206,96
India,Uttar_Pradesh,Agra,"Shastripuram, Agra - UPPCB",28-01-2024 06:00:00,27.19862,77.92066,CO,3,50,37
India,Uttar_Pradesh,Baghpat,"Sardar Patel Inter College, Baghpat - UPPCB",28-01-2024 06:00:00,28.964949,77.278761,PM10,103,180,133
India,Uttar_Pradesh,Baghpat,"Sardar Patel Inter College, Baghpat - UPPCB",28-01-2024 06:00:00,28.964949,77.278761,CO,28,100,79
India,Uttar_Pradesh,Bareilly,"Rajendra Nagar, Bareilly - UPPCB",28-01-2024 06:00:00,28.38910936,79.42963708,SO2,40,41,40
India,Uttar_Pradesh,Bulandshahr,"Yamunapuram, Bulandshahr - UPPCB",28-01-2024 06:00:00,28.406963,77.849831,PM10,102,233,161
India,Uttar_Pradesh,Bulandshahr,"Yamunapuram, Bulandshahr - UPPCB",28-01-2024 06:00:00,28.406963,77.849831,NH3,5,18,9
India,Uttar_Pradesh,Bulandshahr,"Yamunapuram, Bulandshahr - UPPCB",28-01-2024 06:00:00,28.406963,77.849831,CO,9,110,74
India,Uttar_Pradesh,Ghaziabad,"Indirapuram, Ghaziabad - UPPCB",28-01-2024 06:00:00,28.646233,77.358075,NO2,88,218,120
India,Uttar_Pradesh,Ghaziabad,"Loni, Ghaziabad - UPPCB",28-01-2024 06:00:00,28.757294,77.278792,PM10,136,395,229
India,Uttar_Pradesh,Ghaziabad,"Loni, Ghaziabad - UPPCB",28-01-2024 06:00:00,28.757294,77.278792,CO,14,114,106
India,Uttar_Pradesh,Ghaziabad,"Vasundhara, Ghaziabad - UPPCB",28-01-2024 06:00:00,28.6603346,77.3572563,PM2.5,73,366,261
India,Uttar_Pradesh,Ghaziabad,"Vasundhara, Ghaziabad - UPPCB",28-01-2024 06:00:00,28.6603346,77.3572563,PM10,132,267,179
India,Uttar_Pradesh,Ghaziabad,"Vasundhara, Ghaziabad - UPPCB",28-01-2024 06:00:00,28.6603346,77.3572563,NH3,9,22,13
India,Uttar_Pradesh,Ghaziabad,"Vasundhara, Ghaziabad - UPPCB",28-01-2024 06:00:00,28.6603346,77.3572563,CO,2,153,152
India,Uttar_Pradesh,Gorakhpur,"Madan Mohan Malaviya University of Technology, Gorakhpur - UPPCB",28-01-2024 06:00:00,26.730136,83.433859,NH3,1,2,2
India,Uttar_Pradesh,Greater Noida,"Knowledge Park - III, Greater Noida - UPPCB",28-01-2024 06:00:00,28.47272,77.482000,PM2.5,NA,NA,NA
India,Uttar_Pradesh,Greater Noida,"Knowledge Park - III, Greater Noida - UPPCB",28-01-2024 06:00:00,28.47272,77.482000,CO,47,119,104
India,Uttar_Pradesh,Greater Noida,"Knowledge Park - III, Greater Noida - UPPCB",28-01-2024 06:00:00,28.47272,77.482000,OZONE,6,54,7
India,Uttar_Pradesh,Greater Noida,"Knowledge Park - V, Greater Noida - UPPCB",28-01-2024 06:00:00,28.557054,77.453663,OZONE,2,101,2
India,Uttar_Pradesh,Hapur,"Anand Vihar, Hapur - UPPCB",28-01-2024 06:00:00,28.725645,77.749675,OZONE,10,57,12
India,Uttar_Pradesh,Jhansi,"Shivaji Nagar, Jhansi - UPPCB",28-01-2024 06:00:00,25.4547,78.6039,PM10,52,199,117
India,Uttar_Pradesh,Jhansi,"Shivaji Nagar, Jhansi - UPPCB",28-01-2024 06:00:00,25.4547,78.6039,CO,28,96,72
India,Uttar_Pradesh,Kanpur,"FTI Kidwai Nagar, Kanpur - UPPCB",28-01-2024 06:00:00,26.428282,80.327067,PM2.5,8,308,94
India,Uttar_Pradesh,Kanpur,"FTI Kidwai Nagar, Kanpur - UPPCB",28-01-2024 06:00:00,26.428282,80.327067,PM10,12,277,110
India,Uttar_Pradesh,Kanpur,"FTI Kidwai Nagar, Kanpur - UPPCB",28-01-2024 06:00:00,26.428282,80.327067,NO2,14,306,28
India,Uttar_Pradesh,Kanpur,"NSI Kalyanpur, Kanpur - UPPCB",28-01-2024 06:00:00,26.509954,80.249612,OZONE,15,33,18
India,Uttar_Pradesh,Kanpur,"Nehru Nagar, Kanpur - UPPCB",28-01-2024 06:00:00,26.4703136,80.3229863,PM10,67,426,166
India,Uttar_Pradesh,Khurja,"Kalindi Kunj, Khurja - UPPCB",28-01-2024 06:00:00,28.2348927,77.8683002,OZONE,22,29,27
India,Uttar_Pradesh,Lucknow,"B R Ambedkar University, Lucknow - UPPCB",28-01-2024 06:00:00,26.766433,80.927299,PM2.5,43,330,127
India,Uttar_Pradesh,Lucknow,"B R Ambedkar University, Lucknow - UPPCB",28-01-2024 06:00:00,26.766433,80.927299,NO2,11,12,12
India,Uttar_Pradesh,Lucknow,"B R Ambedkar University, Lucknow - UPPCB",28-01-2024 06:00:00,26.766433,80.927299,SO2,23,28,25
India,Uttar_Pradesh,Lucknow,"Gomti Nagar, Lucknow - UPPCB",28-01-2024 06:00:00,26.868120,81.005119,OZONE,38,60,44
India,Uttar_Pradesh,Lucknow,"Kendriya Vidyalaya, Lucknow - CPCB",28-01-2024 06:00:00,26.906111,80.948222,SO2,5,10,8
India,Uttar_Pradesh,Lucknow,"Kukrail Picnic Spot-1, Lucknow - UPPCB",28-01-2024 06:00:00,26.90723,80.98579,PM2.5,37,263,130
India,Uttar_Pradesh,Lucknow,"Kukrail Picnic Spot-1, Lucknow - UPPCB",28-01-2024 06:00:00,26.90723,80.98579,CO,24,64,52
India,Uttar_Pradesh,Lucknow,"Lalbagh, Lucknow - CPCB",28-01-2024 06:00:00,26.8458805,80.9365541,PM10,150,500,237
India,Uttar_Pradesh,Lucknow,"Lalbagh, Lucknow - CPCB",28-01-2024 06:00:00,26.8458805,80.9365541,OZONE,2,27,3
India,Uttar_Pradesh,Lucknow,"Talkatora District Industries Center, Lucknow - CPCB",28-01-2024 06:00:00,26.83399722,80.8917361,NO2,74,132,91
India,Uttar_Pradesh,Meerut,"Ganga Nagar, Meerut - UPPCB",28-01-2024 06:00:00,28.999264,77.7590354,NO2,19,58,35
India,Uttar_Pradesh,Meerut,"Ganga Nagar, Meerut - UPPCB",28-01-2024 06:00:00,28.999264,77.7590354,SO2,2,18,11
India,Uttar_Pradesh,Meerut,"Jai Bhim Nagar, Meerut - UPPCB",28-01-2024 06:00:00,28.9535882,77.7622941,NO2,21,78,42
India,Uttar_Pradesh,Meerut,"Jai Bhim Nagar, Meerut - UPPCB",28-01-2024 06:00:00,28.9535882,77.7622941,SO2,5,14,9
India,Uttar_Pradesh,Meerut,"Jai Bhim Nagar, Meerut - UPPCB",28-01-2024 06:00:00,28.9535882,77.7622941,CO,28,106,80
India,Uttar_Pradesh,Meerut,"Pallavpuram Phase 2, Meerut - UPPCB",28-01-2024 06:00:00,29.063510,77.709723,NH3,6,11,9
India,Uttar_Pradesh,Moradabad,"Eco Herbal Park, Moradabad - UPPCB",28-01-2024 06:00:00,28.840739,78.697531,PM2.5,101,323,230
India,Uttar_Pradesh,Moradabad,"Eco Herbal Park, Moradabad - UPPCB",28-01-2024 06:00:00,28.840739,78.697531,NO2,19,50,30
India,Uttar_Pradesh,Moradabad,"Eco Herbal Park, Moradabad - UPPCB",28-01-2024 06:00:00,28.840739,78.697531,NH3,3,44,7
India,Uttar_Pradesh,Moradabad,"Employment Office, Moradabad - UPPCB",28-01-2024 06:00:00,28.88528,78.73880,PM2.5,70,208,131
India,Uttar_Pradesh,Moradabad,"Jigar Colony, Moradabad - UPPCB",28-01-2024 06:00:00,28.856664,78.772638,NH3,5,5,5
India,Uttar_Pradesh,Moradabad,"Jigar Colony, Moradabad - UPPCB",28-01-2024 06:00:00,28.856664,78.772638,CO,52,70,59
India,Uttar_Pradesh,Moradabad,"Kashiram Nagar, Moradabad - UPPCB",28-01-2024 06:00:00,28.849399,78.742362,NO2,21,34,27
India,Uttar_Pradesh,Moradabad,"Kashiram Nagar, Moradabad - UPPCB",28-01-2024 06:00:00,28.849399,78.742362,SO2,23,31,28
India,Uttar_Pradesh,Moradabad,"Kashiram Nagar, Moradabad - UPPCB",28-01-2024 06:00:00,28.849399,78.742362,OZONE,15,83,16
India,Uttar_Pradesh,Moradabad,"Transport Nagar, Moradabad - UPPCB",28-01-2024 06:00:00,28.802625,78.753728,OZONE,15,22,17
India,Uttar_Pradesh,Noida,"Sector - 125, Noida - UPPCB",28-01-2024 06:00:00,28.5447608,77.3231257,PM2.5,73,411,260
India,Uttar_Pradesh,Noida,"Sector-116, Noida - UPPCB",28-01-2024 06:00:00,28.569230,77.393848,NH3,8,25,13
India,Uttar_Pradesh,Prayagraj,"Jhunsi, Prayagraj - UPPCB",28-01-2024 06:00:00,25.425602,81.917152,PM2.5,37,262,111
India,Uttar_Pradesh,Prayagraj,"Motilal Nehru NIT, Prayagraj - UPPCB",28-01-2024 06:00:00,25.494,81.863,NH3,5,7,6
India,Uttar_Pradesh,Prayagraj,"Nagar Nigam, Prayagraj - UPPCB",28-01-2024 06:00:00,25.44919916 ,81.82735986 ,NO2,9,9,9
India,Uttar_Pradesh,Prayagraj,"Nagar Nigam, Prayagraj - UPPCB",28-01-2024 06:00:00,25.44919916 ,81.82735986 ,SO2,28,55,43
India,Uttar_Pradesh,Varanasi,"Ardhali Bazar, Varanasi - UPPCB",28-01-2024 06:00:00,25.3505986,82.9083074,OZONE,17,34,25
India,Uttar_Pradesh,Varanasi,"Maldahiya, Varanasi - UPPCB",28-01-2024 06:00:00,25.32393,82.99687,OZONE,3,23,4
India,Uttar_Pradesh,Vrindavan,"Omex Eternity, Vrindavan - UPPCB",28-01-2024 06:00:00,27.5714090,77.6557570,SO2,NA,NA,NA
India,Uttarakhand,Dehradun,"Doon University, Dehradun - UKPCB",28-01-2024 06:00:00,30.269444,78.044167,NO2,2,12,5
India,Uttarakhand,Dehradun,"Doon University, Dehradun - UKPCB",28-01-2024 06:00:00,30.269444,78.044167,CO,30,75,53
India,Uttarakhand,Kashipur,"Govt. Girls Inter College, Kashipur - UKPCB",28-01-2024 06:00:00,29.2124114,78.9611753,OZONE,1,4,2
India,Uttarakhand,Rishikesh,"Shivaji Nagar, Rishikesh - UKPCB",28-01-2024 06:00:00,30.075911,78.2859547,SO2,4,5,4
India,West_Bengal,Barrackpore,"SVSPA Campus, Barrackpore - WBPCB",28-01-2024 06:00:00,22.7605581,88.3617589,PM2.5,NA,NA,NA
India,West_Bengal,Durgapur,"Sidhu Kanhu Indoor Stadium, Durgapur - WBPCB",28-01-2024 06:00:00,23.5404352,87.2892225,CO,30,94,38
India,West_Bengal,Howrah,"Belur Math, Howrah - WBPCB",28-01-2024 06:00:00,22.629801,88.352017,PM2.5,72,316,176
India,West_Bengal,Howrah,"Belur Math, Howrah - WBPCB",28-01-2024 06:00:00,22.629801,88.352017,PM10,83,317,144
India,West_Bengal,Howrah,"Ghusuri, Howrah - WBPCB",28-01-2024 06:00:00,22.611968,88.347422,PM10,109,392,158
India,West_Bengal,Howrah,"Ghusuri, Howrah - WBPCB",28-01-2024 06:00:00,22.611968,88.347422,NO2,24,100,44
India,West_Bengal,Kolkata,"Bidhannagar, Kolkata - WBPCB",28-01-2024 06:00:00,22.58157048,88.41002457,NH3,9,18,12
India,West_Bengal,Kolkata,"Rabindra Bharati University, Kolkata - WBPCB",28-01-2024 06:00:00,22.627847,88.380669,OZONE,1,60,3
India,West_Bengal,Kolkata,"Rabindra Sarobar, Kolkata - WBPCB",28-01-2024 06:00:00,22.51106,88.35142,PM10,96,155,117
India,West_Bengal,Kolkata,"Victoria, Kolkata - WBPCB",28-01-2024 06:00:00,22.5448082,88.3403691,PM2.5,80,343,204
India,West_Bengal,Kolkata,"Victoria, Kolkata - WBPCB",28-01-2024 06:00:00,22.5448082,88.3403691,OZONE,4,97,7
India,Andhra_Pradesh,Amaravati,"Secretariat, Amaravati - APPCB",28-01-2024 06:00:00,16.5150833,80.5181667,SO2,11,59,18
India,Andhra_Pradesh,Kadapa,"Yerramukkapalli, Kadapa - APPCB",28-01-2024 06:00:00,14.465052,78.824187,PM10,NA,NA,NA
India,Andhra_Pradesh,Kadapa,"Yerramukkapalli, Kadapa - APPCB",28-01-2024 06:00:00,14.465052,78.824187,SO2,NA,NA,NA
India,Andhra_Pradesh,Kadapa,"Yerramukkapalli, Kadapa - APPCB",28-01-2024 06:00:00,14.465052,78.824187,OZONE,23,49,35
India,Andhra_Pradesh,Rajamahendravaram,"Anand Kala Kshetram, Rajamahendravaram - APPCB",28-01-2024 06:00:00,16.9872867,81.7363176,PM10,103,134,116
India,Andhra_Pradesh,Tirupati,"Vaikuntapuram, Tirupati - APPCB",28-01-2024 06:00:00,13.615387,79.409230,NO2,NA,NA,NA
India,Andhra_Pradesh,Tirupati,"Vaikuntapuram, Tirupati - APPCB",28-01-2024 06:00:00,13.615387,79.409230,SO2,NA,NA,NA
India,Arunachal_Pradesh,Naharlagun,"Naharlagun, Naharlagun - APSPCB",28-01-2024 06:00:00,27.103358,93.679645,CO,11,52,27
India,Arunachal_Pradesh,Naharlagun,"Naharlagun, Naharlagun - APSPCB",28-01-2024 06:00:00,27.103358,93.679645,OZONE,2,2,2
India,Assam,Byrnihat,"Central Academy for SFS, Byrnihat - PCBA",28-01-2024 06:00:00,26.071318,91.87488,SO2,8,17,11
India,Assam,Byrnihat,"Central Academy for SFS, Byrnihat - PCBA",28-01-2024 06:00:00,26.071318,91.87488,CO,78,191,114
India,Assam,Nagaon,"Christianpatty, Nagaon - PCBA",28-01-2024 06:00:00,26.349082,92.68449,NO2,12,26,18
India,Assam,Nagaon,"Christianpatty, Nagaon - PCBA",28-01-2024 06:00:00,26.349082,92.68449,SO2,1,33,10
India,Assam,Nagaon,"Christianpatty, Nagaon - PCBA",28-01-2024 06:00:00,26.349082,92.68449,CO,4,119,63
India,Assam,Nalbari,"Bata Chowk, Nalbari - PCBA",28-01-2024 06:00:00,26.446912,91.439057,SO2,5,16,8
India,Assam,Nalbari,"Bata Chowk, Nalbari - PCBA",28-01-2024 06:00:00,26.446912,91.439057,OZONE,8,87,10
India,Assam,Silchar,"Tarapur, Silchar - PCBA",28-01-2024 06:00:00,24.82827,92.79525,CO,32,47,41
India,Assam,Sivasagar,"Girls College, Sivasagar - PCBA",28-01-2024 06:00:00,26.987634,94.636574,NO2,19,32,24
India,Assam,Sivasagar,"Girls College, Sivasagar - PCBA",28-01-2024 06:00:00,26.987634,94.636574,NH3,3,3,3
India,Assam,Sivasagar,"Girls College, Sivasagar - PCBA",28-01-2024 06:00:00,26.987634,94.636574,CO,8,52,42
India,Assam,Sivasagar,"Girls College, Sivasagar - PCBA",28-01-2024 06:00:00,26.987634,94.636574,OZONE,1,4,1
India,Bihar,Aurangabad,"Gurdeo Nagar, Aurangabad - BSPCB",28-01-2024 06:00:00,24.75746,84.366208,NH3,6,10,8
India,Bihar,Aurangabad,"Gurdeo Nagar, Aurangabad - BSPCB",28-01-2024 06:00:00,24.75746,84.366208,CO,36,130,104
India,Bihar,Bettiah,"Kamalnath Nagar, Bettiah - BSPCB",28-01-2024 06:00:00,26.80365,84.51954,NO2,NA,NA,NA
India,Bihar,Bhagalpur,"DM Office_Kachari Chowk, Bhagalpur - BSPCB",28-01-2024 06:00:00,25.251013,86.989001,CO,38,78,63
India,Bihar,Bhagalpur,"Mayaganj, Bhagalpur - BSPCB",28-01-2024 06:00:00,25.265194,87.012947,PM10,122,374,239
India,Bihar,Bhagalpur,"Mayaganj, Bhagalpur - BSPCB",28-01-2024 06:00:00,25.265194,87.012947,CO,8,10,9
India,Bihar,Chhapra,"Darshan Nagar, Chhapra - BSPCB",28-01-2024 06:00:00,25.7808257,84.7446768,OZONE,1,4,1
India,Bihar,Gaya,"Collectorate, Gaya - BSPCB",28-01-2024 06:00:00,24.7955,84.9994,NO2,17,24,19
India,Bihar,Gaya,"Collectorate, Gaya - BSPCB",28-01-2024 06:00:00,24.7955,84.9994,SO2,16,55,24
India,Bihar,Gaya,"Kareemganj, Gaya - BSPCB",28-01-2024 06:00:00,24.792403,84.992416,OZONE,8,30,19
India,Bihar,Gaya,"SFTI Kusdihra, Gaya - BSPCB",28-01-2024 06:00:00,24.762518,84.982348,PM10,86,133,106
India,Bihar,Hajipur,"Industrial Area, Hajipur - BSPCB",28-01-2024 06:00:00,25.697189,85.245900,SO2,5,8,7
India,Bihar,Katihar,"Mirchaibari, Katihar - BSPCB",28-01-2024 06:00:00,25.560083,87.553265,PM10,129,376,195
India,Bihar,Katihar,"Mirchaibari, Katihar - BSPCB",28-01-2024 06:00:00,25.560083,87.553265,SO2,17,23,20
India,Bihar,Kishanganj,"SDM Office_Khagra, Kishanganj - BSPCB",28-01-2024 06:00:00,26.0881305,87.93840336,PM2.5,NA,NA,NA
India,Bihar,Kishanganj,"SDM Office_Khagra, Kishanganj - BSPCB",28-01-2024 06:00:00,26.0881305,87.93840336,NH3,NA,NA,NA
India,Bihar,Kishanganj,"SDM Office_Khagra, Kishanganj - BSPCB",28-01-2024 06:00:00,26.0881305,87.93840336,CO,9,28,16
India,Bihar,Motihari,"Gandak Colony, Motihari - BSPCB",28-01-2024 06:00:00,26.63086,84.90051,PM10,64,241,135
India,Bihar,Muzaffarpur,"Buddha Colony, Muzaffarpur - BSPCB",28-01-2024 06:00:00,26.11442,85.39813,SO2,7,14,9
India,Bihar,Muzaffarpur,"MIT-Daudpur Kothi, Muzaffarpur - BSPCB",28-01-2024 06:00:00,26.1403345,85.3650192,PM10,85,266,147
India,Bihar,Muzaffarpur,"MIT-Daudpur Kothi, Muzaffarpur - BSPCB",28-01-2024 06:00:00,26.1403345,85.3650192,NO2,5,9,7
India,Bihar,Muzaffarpur,"MIT-Daudpur Kothi, Muzaffarpur - BSPCB",28-01-2024 06:00:00,26.1403345,85.3650192,CO,7,88,43
India,Bihar,Muzaffarpur,"Muzaffarpur Collectorate, Muzaffarpur - BSPCB",28-01-2024 06:00:00,26.1209,85.3647,PM2.5,79,409,226
India,Bihar,Patna,"DRM Office Danapur, Patna - BSPCB",28-01-2024 06:00:00,25.586562,85.043586,NH3,4,5,4
India,Bihar,Patna,"DRM Office Danapur, Patna - BSPCB",28-01-2024 06:00:00,25.586562,85.043586,CO,14,113,108
India,Bihar,Patna,"DRM Office Danapur, Patna - BSPCB",28-01-2024 06:00:00,25.586562,85.043586,OZONE,1,54,3
India,Bihar,Patna,"Govt. High School Shikarpur, Patna - BSPCB",28-01-2024 06:00:00,25.592539,85.227158,NO2,12,30,21
India,Bihar,Patna,"IGSC Planetarium Complex, Patna - BSPCB",28-01-2024 06:00:00,25.610369,85.132568,SO2,7,7,7
India,Bihar,Patna,"IGSC Planetarium Complex, Patna - BSPCB",28-01-2024 06:00:00,25.610369,85.132568,CO,14,15,14
India,Bihar,Patna,"Rajbansi Nagar, Patna - BSPCB",28-01-2024 06:00:00,25.599486,85.113666,PM2.5,162,362,274
India,Bihar,Patna,"Rajbansi Nagar, Patna - BSPCB",28-01-2024 06:00:00,25.599486,85.113666,CO,29,78,65
India,Bihar,Patna,"Samanpura, Patna - BSPCB",28-01-2024 06:00:00,25.596727,85.085624,NO2,NA,NA,NA
India,Bihar,Patna,"Samanpura, Patna - BSPCB",28-01-2024 06:00:00,25.596727,85.085624,SO2,NA,NA,NA
India,Bihar,Patna,"Samanpura, Patna - BSPCB",28-01-2024 06:00:00,25.596727,85.085624,OZONE,NA,NA,NA
India,Bihar,Purnia,"Mariam Nagar, Purnia - BSPCB",28-01-2024 06:00:00,25.366336,87.117468,PM2.5,98,359,239
India,Bihar,Purnia,"Mariam Nagar, Purnia - BSPCB",28-01-2024 06:00:00,25.366336,87.117468,NO2,12,13,13
India,Bihar,Rajgir,"Dangi Tola, Rajgir - BSPCB",28-01-2024 06:00:00,25.03280,85.41948,PM10,108,187,153
India,Bihar,Saharsa,"Police Line, Saharsa - BSPCB",28-01-2024 06:00:00,25.892357,86.590325,PM2.5,NA,NA,NA
India,Bihar,Saharsa,"Police Line, Saharsa - BSPCB",28-01-2024 06:00:00,25.892357,86.590325,NH3,9,9,9
India,Bihar,Samastipur,"DM Office_Kasipur, Samastipur - BSPCB",28-01-2024 06:00:00,25.859655,85.77944,CO,NA,NA,NA
India,Bihar,Siwan,"Chitragupta Nagar, Siwan - BSPCB",28-01-2024 06:00:00,26.2271665,84.3570427,OZONE,2,66,5
India,Chandigarh,Chandigarh,"Sector 22, Chandigarh - CPCC",28-01-2024 06:00:00,30.735567,76.775714,NH3,4,10,6
India,Chandigarh,Chandigarh,"Sector 22, Chandigarh - CPCC",28-01-2024 06:00:00,30.735567,76.775714,CO,40,70,64
India,Chandigarh,Chandigarh,"Sector-25, Chandigarh - CPCC",28-01-2024 06:00:00,30.751462,76.762879,PM10,137,212,152
India,Chandigarh,Chandigarh,"Sector-53, Chandigarh - CPCC",28-01-2024 06:00:00,30.719859,76.738637,PM10,121,296,164
India,Chhattisgarh,Bhilai,"32Bungalows, Bhilai - CECB",28-01-2024 06:00:00,21.194815,81.314770,PM2.5,36,101,67
India,Chhattisgarh,Bhilai,"Civic Center, Bhilai - Bhilai Steel Plant",28-01-2024 06:00:00,21.185571,81.343175,PM2.5,NA,NA,NA
India,Chhattisgarh,Bhilai,"Civic Center, Bhilai - Bhilai Steel Plant",28-01-2024 06:00:00,21.185571,81.343175,CO,NA,NA,NA
India,Chhattisgarh,Bhilai,"Civic Center, Bhilai - Bhilai Steel Plant",28-01-2024 06:00:00,21.185571,81.343175,OZONE,NA,NA,NA
India,Chhattisgarh,Bhilai,"Hathkhoj, Bhilai - CECB",28-01-2024 06:00:00,21.224231,81.408350,NH3,5,8,7
India,Chhattisgarh,Kunjemura,"OP Jindal School, Kunjemura - CECB",28-01-2024 06:00:00,22.126650,83.483212,NO2,38,114,76
India,Chhattisgarh,Kunjemura,"OP Jindal School, Kunjemura - CECB",28-01-2024 06:00:00,22.126650,83.483212,SO2,1,86,25
India,Chhattisgarh,Milupara,"Govt. Higher Secondary School, Milupara - CECB",28-01-2024 06:00:00,22.1910172,83.5197009,NH3,1,2,2
India,Chhattisgarh,Milupara,"Govt. Higher Secondary School, Milupara - CECB",28-01-2024 06:00:00,22.1910172,83.5197009,SO2,9,70,24
India,Chhattisgarh,Raipur,"AIIMS, Raipur - CECB",28-01-2024 06:00:00,21.258815,81.578979,PM2.5,34,187,79
India,Chhattisgarh,Raipur,"AIIMS, Raipur - CECB",28-01-2024 06:00:00,21.258815,81.578979,SO2,7,10,8
India,Chhattisgarh,Raipur,"Bhatagaon New ISBT, Raipur - CECB",28-01-2024 06:00:00,21.219665,81.630094,NH3,2,6,3
India,Chhattisgarh,Raipur,"Krishak Nagar, Raipur - CECB",28-01-2024 06:00:00,21.237755,81.705301,NO2,32,45,40
India,Chhattisgarh,Raipur,"Krishak Nagar, Raipur - CECB",28-01-2024 06:00:00,21.237755,81.705301,NH3,1,1,1
India,Chhattisgarh,Raipur,"Krishak Nagar, Raipur - CECB",28-01-2024 06:00:00,21.237755,81.705301,CO,42,80,67
India,Chhattisgarh,Raipur,"Siltara Phase-II, Raipur - CECB",28-01-2024 06:00:00,21.371751,81.664929,NO2,2,39,20
India,Chhattisgarh,Raipur,"Siltara Phase-II, Raipur - CECB",28-01-2024 06:00:00,21.371751,81.664929,CO,28,74,69
India,Delhi,Delhi,"Anand Vihar, Delhi - DPCC",28-01-2024 06:00:00,28.647622,77.3158090,CO,NA,NA,NA
India,Delhi,Delhi,"Ashok Vihar, Delhi - DPCC",28-01-2024 06:00:00,28.695381,77.181665,PM2.5,86,396,285
India,Delhi,Delhi,"Ashok Vihar, Delhi - DPCC",28-01-2024 06:00:00,28.695381,77.181665,SO2,9,26,20
India,Delhi,Delhi,"Ashok Vihar, Delhi - DPCC",28-01-2024 06:00:00,28.695381,77.181665,OZONE,4,16,4
India,Delhi,Delhi,"Aya Nagar, Delhi - IMD",28-01-2024 06:00:00,28.4706914,77.1099364,PM10,97,285,181
India,Delhi,Delhi,"Bawana, Delhi - DPCC",28-01-2024 06:00:00,28.776200,77.051074,PM2.5,130,436,333
India,Delhi,Delhi,"Bawana, Delhi - DPCC",28-01-2024 06:00:00,28.776200,77.051074,CO,36,104,83
India,Delhi,Delhi,"Burari Crossing, Delhi - IMD",28-01-2024 06:00:00,28.7256504,77.2011573,CO,74,102,83
India,Delhi,Delhi,"CRRI Mathura Road, Delhi - IMD",28-01-2024 06:00:00,28.5512005,77.2735737,PM10,133,420,250
India,Delhi,Delhi,"DTU, Delhi - CPCB",28-01-2024 06:00:00,28.7500499,77.1112615,PM2.5,56,251,165
India,Delhi,Delhi,"Dwarka-Sector 8, Delhi - DPCC ",28-01-2024 06:00:00,28.5710274,77.0719006,SO2,4,17,9
India,Delhi,Delhi,"Dwarka-Sector 8, Delhi - DPCC ",28-01-2024 06:00:00,28.5710274,77.0719006,CO,24,163,129
India,Delhi,Delhi,"IGI Airport (T3), Delhi - IMD",28-01-2024 06:00:00,28.5627763,77.1180053,PM2.5,130,401,292
India,Delhi,Delhi,"IGI Airport (T3), Delhi - IMD",28-01-2024 06:00:00,28.5627763,77.1180053,NO2,9,46,29
India,Delhi,Delhi,"IGI Airport (T3), Delhi - IMD",28-01-2024 06:00:00,28.5627763,77.1180053,CO,36,107,86
India,Delhi,Delhi,"ITO, Delhi - CPCB",28-01-2024 06:00:00,28.628624,77.241060,SO2,10,28,19
India,Delhi,Delhi,"ITO, Delhi - CPCB",28-01-2024 06:00:00,28.628624,77.241060,CO,24,157,124
India,Delhi,Delhi,"Jahangirpuri, Delhi - DPCC",28-01-2024 06:00:00,28.732820,77.170633,OZONE,4,122,4
India,Delhi,Delhi,"Jawaharlal Nehru Stadium, Delhi - DPCC",28-01-2024 06:00:00,28.580280,77.233829,PM2.5,126,431,306
India,Delhi,Delhi,"Jawaharlal Nehru Stadium, Delhi - DPCC",28-01-2024 06:00:00,28.580280,77.233829,SO2,2,41,12
India,Delhi,Delhi,"Jawaharlal Nehru Stadium, Delhi - DPCC",28-01-2024 06:00:00,28.580280,77.233829,CO,30,142,131
India,Delhi,Delhi,"Jawaharlal Nehru Stadium, Delhi - DPCC",28-01-2024 06:00:00,28.580280,77.233829,OZONE,2,98,5
India,Delhi,Delhi,"Lodhi Road, Delhi - IITM",28-01-2024 06:00:00,28.588333,77.221667,PM2.5,NA,NA,NA
India,Delhi,Delhi,"Lodhi Road, Delhi - IITM",28-01-2024 06:00:00,28.588333,77.221667,SO2,NA,NA,NA
India,Delhi,Delhi,"Lodhi Road, Delhi - IMD",28-01-2024 06:00:00,28.5918245,77.2273074,CO,79,114,113
India,Delhi,Delhi,"Major Dhyan Chand National Stadium, Delhi - DPCC",28-01-2024 06:00:00,28.611281,77.237738,PM10,118,308,205
India,Delhi,Delhi,"Major Dhyan Chand National Stadium, Delhi - DPCC",28-01-2024 06:00:00,28.611281,77.237738,NH3,8,14,11
India,Delhi,Delhi,"Mandir Marg, Delhi - DPCC",28-01-2024 06:00:00,28.636429,77.201067,NO2,78,121,109
India,Delhi,Delhi,"Mundka, Delhi - DPCC",28-01-2024 06:00:00,28.684678,77.076574,NO2,39,120,82
India,Delhi,Delhi,"NSIT Dwarka, Delhi - CPCB",28-01-2024 06:00:00,28.60909,77.0325413,PM2.5,156,445,323
India,Delhi,Delhi,"NSIT Dwarka, Delhi - CPCB",28-01-2024 06:00:00,28.60909,77.0325413,NO2,24,68,38
India,Delhi,Delhi,"NSIT Dwarka, Delhi - CPCB",28-01-2024 06:00:00,28.60909,77.0325413,OZONE,20,88,21
India,Delhi,Delhi,"Najafgarh, Delhi - DPCC",28-01-2024 06:00:00,28.570173,76.933762,NO2,6,48,18
India,Delhi,Delhi,"Narela, Delhi - DPCC",28-01-2024 06:00:00,28.822836,77.101981,PM2.5,91,369,294
India,Delhi,Delhi,"Narela, Delhi - DPCC",28-01-2024 06:00:00,28.822836,77.101981,NH3,7,10,9
India,Delhi,Delhi,"Narela, Delhi - DPCC",28-01-2024 06:00:00,28.822836,77.101981,SO2,4,26,11
India,Delhi,Delhi,"Narela, Delhi - DPCC",28-01-2024 06:00:00,28.822836,77.101981,OZONE,4,157,8
India,Delhi,Delhi,"Nehru Nagar, Delhi - DPCC",28-01-2024 06:00:00,28.567890,77.250515,PM2.5,222,500,387
India,Delhi,Delhi,"North Campus, DU, Delhi - IMD",28-01-2024 06:00:00,28.6573814,77.1585447,PM10,NA,NA,NA
India,Delhi,Delhi,"North Campus, DU, Delhi - IMD",28-01-2024 06:00:00,28.6573814,77.1585447,CO,NA,NA,NA
India,Delhi,Delhi,"Okhla Phase-2, Delhi - DPCC",28-01-2024 06:00:00,28.530785,77.271255,NO2,79,187,123
India,Delhi,Delhi,"Okhla Phase-2, Delhi - DPCC",28-01-2024 06:00:00,28.530785,77.271255,NH3,16,21,18
India,Delhi,Delhi,"Patparganj, Delhi - DPCC",28-01-2024 06:00:00,28.623763,77.287209,PM2.5,98,465,334
India,Delhi,Delhi,"Patparganj, Delhi - DPCC",28-01-2024 06:00:00,28.623763,77.287209,OZONE,1,15,9
India,Delhi,Delhi,"Punjabi Bagh, Delhi - DPCC",28-01-2024 06:00:00,28.674045,77.131023,NO2,39,79,62
India,Delhi,Delhi,"Punjabi Bagh, Delhi - DPCC",28-01-2024 06:00:00,28.674045,77.131023,OZONE,9,68,11
India,Delhi,Delhi,"Pusa, Delhi - DPCC",28-01-2024 06:00:00,28.639652,77.146275,PM2.5,204,409,343
India,Delhi,Delhi,"Pusa, Delhi - DPCC",28-01-2024 06:00:00,28.639652,77.146275,CO,20,132,106
India,Delhi,Delhi,"Pusa, Delhi - IMD",28-01-2024 06:00:00,28.636110,77.173332,PM10,NA,NA,NA
India,Delhi,Delhi,"Pusa, Delhi - IMD",28-01-2024 06:00:00,28.636110,77.173332,NO2,NA,NA,NA
India,Delhi,Delhi,"R K Puram, Delhi - DPCC",28-01-2024 06:00:00,28.563262,77.186937,NO2,24,117,56
India,Delhi,Delhi,"R K Puram, Delhi - DPCC",28-01-2024 06:00:00,28.563262,77.186937,NH3,5,10,7
India,Delhi,Delhi,"Rohini, Delhi - DPCC",28-01-2024 06:00:00,28.732528,77.119920,PM2.5,107,461,343
India,Delhi,Delhi,"Sirifort, Delhi - CPCB",28-01-2024 06:00:00,28.5504249,77.2159377,OZONE,7,56,27
India,Delhi,Delhi,"Sonia Vihar, Delhi - DPCC",28-01-2024 06:00:00,28.710508,77.249485,SO2,5,15,10
India,Delhi,Delhi,"Sri Aurobindo Marg, Delhi - DPCC",28-01-2024 06:00:00,28.531346,77.190156,NO2,19,82,46
India,Delhi,Delhi,"Sri Aurobindo Marg, Delhi - DPCC",28-01-2024 06:00:00,28.531346,77.190156,CO,11,106,91
India,Delhi,Delhi,"Sri Aurobindo Marg, Delhi - DPCC",28-01-2024 06:00:00,28.531346,77.190156,OZONE,2,28,4
India,Delhi,Delhi,"Vivek Vihar, Delhi - DPCC",28-01-2024 06:00:00,28.672342,77.315260,PM10,167,417,292
India,Delhi,Delhi,"Vivek Vihar, Delhi - DPCC",28-01-2024 06:00:00,28.672342,77.315260,NH3,4,9,6
India,Gujarat,Ahmedabad,"Chandkheda, Ahmedabad - IITM",28-01-2024 06:00:00,23.107969,72.574648,OZONE,13,26,15
India,Gujarat,Ahmedabad,"Gyaspur, Ahmedabad - IITM",28-01-2024 06:00:00,22.977134,72.553024,NO2,15,23,22
India,Gujarat,Ahmedabad,"Gyaspur, Ahmedabad - IITM",28-01-2024 06:00:00,22.977134,72.553024,CO,4,18,14
India,Gujarat,Ahmedabad,"Maninagar, Ahmedabad - GPCB",28-01-2024 06:00:00,23.002657,72.591912,NO2,22,132,64
India,Gujarat,Ahmedabad,"Maninagar, Ahmedabad - GPCB",28-01-2024 06:00:00,23.002657,72.591912,OZONE,1,74,4
India,Gujarat,Ahmedabad,"Raikhad, Ahmedabad - IITM",28-01-2024 06:00:00,23.020509,72.579261,PM10,14,390,144
India,Gujarat,Ahmedabad,"Raikhad, Ahmedabad - IITM",28-01-2024 06:00:00,23.020509,72.579261,NH3,3,4,3
India,Gujarat,Ahmedabad,"Raikhad, Ahmedabad - IITM",28-01-2024 06:00:00,23.020509,72.579261,CO,12,101,77
India,Gujarat,Ahmedabad,"Raikhad, Ahmedabad - IITM",28-01-2024 06:00:00,23.020509,72.579261,OZONE,9,13,10
India,Gujarat,Ahmedabad,"SVPI Airport Hansol, Ahmedabad - IITM",28-01-2024 06:00:00,23.076793,72.627874,NO2,12,18,16
India,Gujarat,Ahmedabad,"Sardar Vallabhbhai Patel Stadium, Ahmedabad - IITM",28-01-2024 06:00:00,23.043070,72.562968,PM2.5,66,332,161
India,Gujarat,Ahmedabad,"Sardar Vallabhbhai Patel Stadium, Ahmedabad - IITM",28-01-2024 06:00:00,23.043070,72.562968,PM10,84,289,137
India,Gujarat,Ankleshwar,"GIDC, Ankleshwar - GPCB",28-01-2024 06:00:00,21.613267,73.010555,NO2,33,34,34
India,Gujarat,Vapi,"Phase-1 GIDC, Vapi - GPCB",28-01-2024 06:00:00,20.362421,72.918013,SO2,NA,NA,NA
India,Gujarat,Vatva,"Phase-4 GIDC, Vatva - GPCB",28-01-2024 06:00:00,22.969611,72.643500,CO,38,40,39
India,Haryana,Ambala,"Patti Mehar, Ambala - HSPCB",28-01-2024 06:00:00,30.379589,76.778328,NO2,8,22,14
India,Haryana,Bahadurgarh,"Arya Nagar, Bahadurgarh - HSPCB",28-01-2024 06:00:00,28.6701,76.9254,PM10,125,313,184
India,Haryana,Bahadurgarh,"Arya Nagar, Bahadurgarh - HSPCB",28-01-2024 06:00:00,28.6701,76.9254,NO2,33,38,36
India,Haryana,Charkhi Dadri,"Mini Secretariat, Charkhi Dadri - HSPCB",28-01-2024 06:00:00,28.593883,76.270653,PM10,12,158,88
India,Haryana,Dharuhera,"Municipal Corporation Office, Dharuhera -  HSPCB",28-01-2024 06:00:00,28.206800,76.799700,NO2,45,112,68
India,Haryana,Faridabad,"Sector 30, Faridabad - HSPCB",28-01-2024 06:00:00,28.4417,77.3217,CO,50,136,92
India,Haryana,Faridabad,"Sector- 16A, Faridabad - HSPCB",28-01-2024 06:00:00,28.4088421,77.3099081,PM2.5,127,499,384
India,Haryana,Faridabad,"Sector- 16A, Faridabad - HSPCB",28-01-2024 06:00:00,28.4088421,77.3099081,OZONE,14,14,14
India,Haryana,Fatehabad,"Huda Sector, Fatehabad - HSPCB",28-01-2024 06:00:00,29.503664,75.467934,NH3,9,10,10
India,Haryana,Gurugram,"NISE Gwal Pahari, Gurugram - IMD",28-01-2024 06:00:00,28.422681,77.148944,NO2,2,179,39
India,Haryana,Gurugram,"Sector-51, Gurugram - HSPCB",28-01-2024 06:00:00,28.4227,77.0667,NH3,7,14,9
India,Haryana,Gurugram,"Sector-51, Gurugram - HSPCB",28-01-2024 06:00:00,28.4227,77.0667,CO,30,124,113
India,Haryana,Gurugram,"Teri Gram, Gurugram - HSPCB",28-01-2024 06:00:00,28.4275,77.1465,PM2.5,53,383,249
India,Haryana,Hisar,"Urban Estate-II, Hisar - HSPCB",28-01-2024 06:00:00,29.140560,75.744941,OZONE,5,29,5
India,Haryana,Jind,"Police Lines, Jind - HSPCB",28-01-2024 06:00:00,29.307814,76.337619,OZONE,3,22,8
India,Haryana,Karnal,"Sector-12, Karnal - HSPCB",28-01-2024 06:00:00,29.695300,77.002700,PM2.5,98,98,98
India,Haryana,Karnal,"Sector-12, Karnal - HSPCB",28-01-2024 06:00:00,29.695300,77.002700,SO2,12,13,12
India,Haryana,Kurukshetra,"Sector-7, Kurukshetra - HSPCB",28-01-2024 06:00:00,29.966942,76.875879,NO2,9,251,21
India,Haryana,Kurukshetra,"Sector-7, Kurukshetra - HSPCB",28-01-2024 06:00:00,29.966942,76.875879,OZONE,1,64,15
India,Haryana,Manesar,"Sector-2 IMT, Manesar - HSPCB",28-01-2024 06:00:00,28.360699,76.936090,PM2.5,66,320,202
India,Haryana,Manesar,"Sector-2 IMT, Manesar - HSPCB",28-01-2024 06:00:00,28.360699,76.936090,NH3,4,14,9
India,Haryana,Manesar,"Sector-2 IMT, Manesar - HSPCB",28-01-2024 06:00:00,28.360699,76.936090,SO2,NA,NA,NA
India,Haryana,Manesar,"Sector-2 IMT, Manesar - HSPCB",28-01-2024 06:00:00,28.360699,76.936090,CO,5,84,54
India,Haryana,Palwal,"Shyam Nagar, Palwal - HSPCB",28-01-2024 06:00:00,28.1485564,77.3320667,NH3,2,3,3
India,Haryana,Panchkula,"Sector-6, Panchkula - HSPCB ",28-01-2024 06:00:00,30.7057778,76.8531805555555,PM2.5,31,109,68
India,Haryana,Panipat,"Sector-18, Panipat - HSPCB",28-01-2024 06:00:00,29.497973,76.993331,CO,22,52,48
India,Haryana,Rohtak,"MD University, Rohtak - HSPCB",28-01-2024 06:00:00,28.52123,76.37138,SO2,1,31,7
India,Haryana,Rohtak,"MD University, Rohtak - HSPCB",28-01-2024 06:00:00,28.52123,76.37138,OZONE,45,53,49
India,Haryana,Sirsa,"F-Block, Sirsa - HSPCB",28-01-2024 06:00:00,29.536400,75.015800,PM2.5,49,244,130
India,Haryana,Sonipat,"Murthal, Sonipat - HSPCB",28-01-2024 06:00:00,29.027200,77.062100,CO,20,36,26
India,Himachal Pradesh,Baddi,"HIMUDA Complex Phase-1, Baddi - HPPCB",28-01-2024 06:00:00,30.943887,76.801991,OZONE,12,86,19
India,Karnataka,Bagalkot,"Vidayagiri, Bagalkot - KSPCB",28-01-2024 06:00:00,16.172806,75.659694,NH3,1,2,1
India,Karnataka,Bagalkot,"Vidayagiri, Bagalkot - KSPCB",28-01-2024 06:00:00,16.172806,75.659694,SO2,9,11,9
India,Karnataka,Bengaluru,"Bapuji Nagar, Bengaluru - KSPCB",28-01-2024 06:00:00,12.951913,77.539784,OZONE,7,11,10
India,Karnataka,Bengaluru,"Hebbal, Bengaluru - KSPCB",28-01-2024 06:00:00,13.029152,77.585901,PM10,41,106,64
India,Karnataka,Bengaluru,"Hebbal, Bengaluru - KSPCB",28-01-2024 06:00:00,13.029152,77.585901,NH3,1,1,1
India,Karnataka,Bengaluru,"Hombegowda Nagar, Bengaluru - KSPCB",28-01-2024 06:00:00,12.938539,77.590100,NH3,2,3,2
India,Karnataka,Bengaluru,"Jigani, Bengaluru - KSPCB",28-01-2024 06:00:00,12.7816279,77.6299145,PM2.5,7,92,45
India,Karnataka,Bengaluru,"Jigani, Bengaluru - KSPCB",28-01-2024 06:00:00,12.7816279,77.6299145,NH3,4,4,4
India,Karnataka,Bengaluru,"Peenya, Bengaluru - CPCB",28-01-2024 06:00:00,13.0270199,77.494094,PM10,39,97,70
India,Karnataka,Bengaluru,"Peenya, Bengaluru - CPCB",28-01-2024 06:00:00,13.0270199,77.494094,NH3,5,5,5
India,Karnataka,Bengaluru,"Peenya, Bengaluru - CPCB",28-01-2024 06:00:00,13.0270199,77.494094,SO2,13,19,16
India,Karnataka,Bengaluru,"Peenya, Bengaluru - CPCB",28-01-2024 06:00:00,13.0270199,77.494094,CO,18,60,24
India,Karnataka,Bengaluru,"Peenya, Bengaluru - CPCB",28-01-2024 06:00:00,13.0270199,77.494094,OZONE,40,43,41
India,Karnataka,Bengaluru,"RVCE-Mailasandra, Bengaluru - KSPCB",28-01-2024 06:00:00,12.921418,77.502466,NO2,31,31,31
India,Karnataka,Bengaluru,"RVCE-Mailasandra, Bengaluru - KSPCB",28-01-2024 06:00:00,12.921418,77.502466,CO,38,62,44
India,Karnataka,Bengaluru,"Sanegurava Halli, Bengaluru - KSPCB",28-01-2024 06:00:00,12.990328,77.5431385,NO2,NA,NA,NA
India,Karnataka,Bengaluru,"Sanegurava Halli, Bengaluru - KSPCB",28-01-2024 06:00:00,12.990328,77.5431385,SO2,NA,NA,NA
India,Karnataka,Bengaluru,"Sanegurava Halli, Bengaluru - KSPCB",28-01-2024 06:00:00,12.990328,77.5431385,CO,NA,NA,NA
India,Karnataka,Bidar,"Naubad, Bidar - KSPCB",28-01-2024 06:00:00,17.930306,77.482194,SO2,16,19,17
India,Karnataka,Chamarajanagar,"Urban, Chamarajanagar - KSPCB",28-01-2024 06:00:00,11.55358,76.55521,NH3,1,2,1
India,Karnataka,Chikkaballapur,"Chikkaballapur Rural, Chikkaballapur - KSPCB",28-01-2024 06:00:00,13.428828,77.731418,PM10,33,117,56
India,Karnataka,Chikkaballapur,"Chikkaballapur Rural, Chikkaballapur - KSPCB",28-01-2024 06:00:00,13.428828,77.731418,CO,NA,NA,NA
India,Karnataka,Gadag,"Panchal Nagar, Gadag - KSPCB",28-01-2024 06:00:00,15.411456,75.638133,PM2.5,NA,NA,NA
India,Karnataka,Gadag,"Panchal Nagar, Gadag - KSPCB",28-01-2024 06:00:00,15.411456,75.638133,OZONE,NA,NA,NA
India,Karnataka,Haveri,"Ashwini Nagar, Haveri - KSPCB",28-01-2024 06:00:00,14.791800,75.389600,CO,32,34,34
India,Karnataka,Hubballi,"Deshpande Nagar, Hubballi - KSPCB",28-01-2024 06:00:00,15.351773,75.140726,PM2.5,NA,NA,NA
India,Karnataka,Hubballi,"Deshpande Nagar, Hubballi - KSPCB",28-01-2024 06:00:00,15.351773,75.140726,PM10,NA,NA,NA
India,Karnataka,Hubballi,"Lingaraj Nagar, Hubballi - KSPCB",28-01-2024 06:00:00,15.3714823,75.1160168,NO2,16,16,16
India,Karnataka,Kalaburagi,"Mahatma Basaveswar Colony, Kalaburgi - KSPCB",28-01-2024 06:00:00,17.336318,76.847397,PM10,37,58,44
India,Karnataka,Kalaburagi,"Mahatma Basaveswar Colony, Kalaburgi - KSPCB",28-01-2024 06:00:00,17.336318,76.847397,NH3,2,4,3
India,Karnataka,Karwar,"KHB Colony, Karwar - KSPCB",28-01-2024 06:00:00,14.816666,74.141003,SO2,18,18,18
India,Karnataka,Kolar,"Tamaka Ind. Area, Kolar - KSPCB",28-01-2024 06:00:00,13.1276288,78.1570122,NH3,6,9,7
India,Karnataka,Koppal,"Diwator Nagar, Koppal - KSPCB",28-01-2024 06:00:00,15.347630,76.181767,NO2,1,28,13
India,Karnataka,Koppal,"Diwator Nagar, Koppal - KSPCB",28-01-2024 06:00:00,15.347630,76.181767,NH3,3,7,5
India,Karnataka,Koppal,"Diwator Nagar, Koppal - KSPCB",28-01-2024 06:00:00,15.347630,76.181767,CO,92,112,105
India,Karnataka,Madikeri,"Stuart Hill, Madikeri - KSPCB",28-01-2024 06:00:00,12.415911,75.735050,NH3,NA,NA,NA
India,Karnataka,Madikeri,"Stuart Hill, Madikeri - KSPCB",28-01-2024 06:00:00,12.415911,75.735050,SO2,4,4,4
India,Karnataka,Madikeri,"Stuart Hill, Madikeri - KSPCB",28-01-2024 06:00:00,12.415911,75.735050,OZONE,24,49,29
India,Karnataka,Mangalore,"Kadri, Mangalore - KSPCB",28-01-2024 06:00:00,12.889250,74.853000,OZONE,31,31,31
India,Karnataka,Mysuru,"Hebbal 1st Stage, Mysuru - KSPCB",28-01-2024 06:00:00,12.21041,76.37376,PM10,38,69,55
India,Karnataka,Mysuru,"Hebbal 1st Stage, Mysuru - KSPCB",28-01-2024 06:00:00,12.21041,76.37376,NO2,7,39,23
India,Karnataka,Mysuru,"Hebbal 1st Stage, Mysuru - KSPCB",28-01-2024 06:00:00,12.21041,76.37376,OZONE,6,70,17
India,Karnataka,Ramanagara,"Vijay Nagar, Ramanagara - KSPCB",28-01-2024 06:00:00,12.733409,77.298051,OZONE,NA,NA,NA
India,Karnataka,Tumakuru,"Thimmalapura, Tumakuru - KSPCB",28-01-2024 06:00:00,13.377516,77.099072,PM10,NA,NA,NA
India,Karnataka,Tumakuru,"Thimmalapura, Tumakuru - KSPCB",28-01-2024 06:00:00,13.377516,77.099072,SO2,NA,NA,NA
India,Karnataka,Udupi,"Brahmagiri, Udupi - KSPCB",28-01-2024 06:00:00,13.34194444,74.74694444,SO2,20,26,22
India,Karnataka,Vijayapura,"Ibrahimpur, Vijayapura - KSPCB",28-01-2024 06:00:00,16.802639,75.722694,SO2,NA,NA,NA
India,Karnataka,Yadgir,"Collector Office, Yadgir - KSPCB",28-01-2024 06:00:00,16.7602,77.1428,PM2.5,55,103,78
India,Kerala,Eloor,"Udyogamandal, Eloor - Kerala PCB",28-01-2024 06:00:00,10.073232,76.302765,PM2.5,29,62,41
India,Kerala,Kollam,"Polayathode, Kollam - Kerala PCB",28-01-2024 06:00:00,8.8787,76.6073,SO2,NA,NA,NA
India,Kerala,Thiruvananthapuram,"Plammoodu, Thiruvananthapuram - Kerala PCB",28-01-2024 06:00:00,8.5149093,76.9435879,PM2.5,20,80,35
India,Kerala,Thrissur,"Corporation Ground, Thrissur - Kerala PCB",28-01-2024 06:00:00,10.532400,76.215900,CO,14,125,53
India,Madhya Pradesh,Bhopal,"Idgah Hills, Bhopal - MPPCB",28-01-2024 06:00:00,23.264759,77.381568,SO2,11,28,19
India,Madhya Pradesh,Bhopal,"Paryavaran Parisar, Bhopal - MPPCB",28-01-2024 06:00:00,23.210494,77.425409,PM2.5,40,430,218
India,Madhya Pradesh,Bhopal,"Paryavaran Parisar, Bhopal - MPPCB",28-01-2024 06:00:00,23.210494,77.425409,SO2,21,27,23
India,Madhya Pradesh,Bhopal,"T T Nagar, Bhopal - MPPCB",28-01-2024 06:00:00,23.233584,77.400574,PM10,91,162,126
India,Madhya Pradesh,Bhopal,"T T Nagar, Bhopal - MPPCB",28-01-2024 06:00:00,23.233584,77.400574,OZONE,20,121,47
India,Madhya Pradesh,Gwalior,"City Center, Gwalior - MPPCB",28-01-2024 06:00:00,26.203442,78.193251,PM2.5,41,410,215
India,Madhya Pradesh,Gwalior,"City Center, Gwalior - MPPCB",28-01-2024 06:00:00,26.203442,78.193251,CO,4,125,35
India,Madhya Pradesh,Gwalior,"Deen Dayal Nagar, Gwalior - MPPCB",28-01-2024 06:00:00,26.259242,78.216432,NH3,11,18,14
India,Madhya Pradesh,Gwalior,"Deen Dayal Nagar, Gwalior - MPPCB",28-01-2024 06:00:00,26.259242,78.216432,CO,38,74,61
India,Madhya Pradesh,Gwalior,"Deen Dayal Nagar, Gwalior - MPPCB",28-01-2024 06:00:00,26.259242,78.216432,OZONE,8,150,10
India,Madhya Pradesh,Gwalior,"Phool Bagh, Gwalior - Mondelez Ind. Food",28-01-2024 06:00:00,26.210536,78.171,SO2,11,22,13
India,Madhya Pradesh,Indore,"Maguda Nagar, Indore - IMC",28-01-2024 06:00:00,22.7524,75.8872,PM10,41,192,100
India,Madhya Pradesh,Indore,"Residency Area, Indore - IMC",28-01-2024 06:00:00,22.7084,75.8815,PM2.5,33,264,96
India,Madhya Pradesh,Jabalpur,"Govindh Bhavan Colony, Jabalpur - JMC",28-01-2024 06:00:00,23.163174,79.973061,PM2.5,38,95,58
India,Madhya Pradesh,Jabalpur,"Govindh Bhavan Colony, Jabalpur - JMC",28-01-2024 06:00:00,23.163174,79.973061,NO2,10,29,18
India,Madhya Pradesh,Jabalpur,"Govindh Bhavan Colony, Jabalpur - JMC",28-01-2024 06:00:00,23.163174,79.973061,CO,24,43,36
India,Madhya Pradesh,Jabalpur,"Gupteshwar, Jabalpur - JMC",28-01-2024 06:00:00,23.142888,79.916147,NH3,1,1,1
India,Madhya Pradesh,Jabalpur,"Gupteshwar, Jabalpur - JMC",28-01-2024 06:00:00,23.142888,79.916147,SO2,5,19,10
India,Madhya Pradesh,Jabalpur,"Gupteshwar, Jabalpur - JMC",28-01-2024 06:00:00,23.142888,79.916147,CO,30,114,59
India,Madhya Pradesh,Jabalpur,"Marhatal, Jabalpur - MPPCB",28-01-2024 06:00:00,23.168606,79.932247,PM10,94,429,191
India,Madhya Pradesh,Jabalpur,"Suhagi, Jabalpur - JMC",28-01-2024 06:00:00,23.218135,79.957770,PM2.5,50,336,144
India,Madhya Pradesh,Jabalpur,"Suhagi, Jabalpur - JMC",28-01-2024 06:00:00,23.218135,79.957770,OZONE,6,200,14
India,Madhya Pradesh,Katni,"Gole Bazar, Katni - MPPCB",28-01-2024 06:00:00,23.50016,80.23284,PM2.5,25,318,121
India,Madhya Pradesh,Katni,"Gole Bazar, Katni - MPPCB",28-01-2024 06:00:00,23.50016,80.23284,NO2,20,127,67
India,Madhya Pradesh,Katni,"Gole Bazar, Katni - MPPCB",28-01-2024 06:00:00,23.50016,80.23284,OZONE,3,103,4
India,Madhya Pradesh,Maihar,"Sahilara, Maihar - KJS Cements",28-01-2024 06:00:00,24.2613009,80.7231783,PM10,19,53,38
India,Madhya Pradesh,Maihar,"Sahilara, Maihar - KJS Cements",28-01-2024 06:00:00,24.2613009,80.7231783,NO2,14,14,14
India,Madhya Pradesh,Maihar,"Sahilara, Maihar - KJS Cements",28-01-2024 06:00:00,24.2613009,80.7231783,SO2,13,16,14
India,Madhya Pradesh,Maihar,"Sahilara, Maihar - KJS Cements",28-01-2024 06:00:00,24.2613009,80.7231783,CO,26,44,38
India,Madhya Pradesh,Sagar,"Deen Dayal Nagar, Sagar - MPPCB",28-01-2024 06:00:00,23.8640158,78.80289321,PM2.5,15,94,45
India,Madhya Pradesh,Satna,"Bandhavgar Colony, Satna - Birla Cement",28-01-2024 06:00:00,24.58434363,80.8549414,SO2,3,7,5
India,Madhya Pradesh,Singrauli,"Suryakiran Bhawan NCL, Singrauli - MPPCB",28-01-2024 06:00:00,24.108970,82.645580,OZONE,2,66,11
India,Madhya Pradesh,Ujjain,"Mahakaleshwar Temple, Ujjain - MPPCB",28-01-2024 06:00:00,23.182719 ,75.768218 ,CO,15,114,95
India,Maharashtra,Ahmednagar,"Tarakpur, Ahmednagar - MPCB",28-01-2024 06:00:00,19.10122,74.73339,NO2,37,155,78
India,Maharashtra,Ahmednagar,"Tarakpur, Ahmednagar - MPCB",28-01-2024 06:00:00,19.10122,74.73339,NH3,3,4,4
India,Maharashtra,Ahmednagar,"Tarakpur, Ahmednagar - MPCB",28-01-2024 06:00:00,19.10122,74.73339,SO2,11,16,13
India,Maharashtra,Akola,"Ramdaspeth, Akola - MPCB",28-01-2024 06:00:00,20.719516,77.000253,NO2,17,122,49
India,Maharashtra,Akola,"Ramdaspeth, Akola - MPCB",28-01-2024 06:00:00,20.719516,77.000253,SO2,1,53,16
India,Maharashtra,Amravati,"Shivneri Colony, Amravati - MPCB",28-01-2024 06:00:00,20.9402359,77.7895248,SO2,15,75,34
India,Maharashtra,Amravati,"Shri Shivaji Science College, Amaravati - MPCB",28-01-2024 06:00:00,20.939198,77.765701,CO,38,103,61
India,Maharashtra,Aurangabad,"MIDC Chilkalthana, Aurangabad - MPCB",28-01-2024 06:00:00,19.875620,75.387310,NO2,9,215,56
India,Maharashtra,Badlapur,"Katrap, Badlapur - MPCB",28-01-2024 06:00:00,19.16485,73.23409,PM2.5,98,304,197
