country,state,city,station,last_update,latitude,longitude,pollutant_id,pollutant_min,pollutant_max,pollutant_avg
India,Andhra_Pradesh,Amaravati,"Secretariat, Amaravati - APPCB",22-06-2024 21:00:00,16.5150833,80.5181667,CO,4,46,24
India,Andhra_Pradesh,Amaravati,"Secretariat, Amaravati - APPCB",22-06-2024 21:00:00,16.5150833,80.5181667,OZONE,5,41,31
India,Andhra_Pradesh,Anantapur,"Gulzarpet, Anantapur - APPCB",22-06-2024 21:00:00,14.675886,77.593027,NH3,4,4,4
India,Andhra_Pradesh,Chittoor,"Gangineni Cheruvu, Chittoor - APPCB",22-06-2024 21:00:00,13.204880,79.097889,PM2.5,NA,NA,NA
India,Andhra_Pradesh,Chittoor,"Gangineni Cheruvu, Chittoor - APPCB",22-06-2024 21:00:00,13.204880,79.097889,NO2,NA,NA,NA
India,Andhra_Pradesh,Kadapa,"Yerramukkapalli, Kadapa - APPCB",22-06-2024 21:00:00,14.465052,78.824187,PM2.5,NA,NA,NA
India,Andhra_Pradesh,Kadapa,"Yerramukkapalli, Kadapa - APPCB",22-06-2024 21:00:00,14.465052,78.824187,NH3,NA,NA,NA
India,Andhra_Pradesh,Tirupati,"Vaikuntapuram, Tirupati - APPCB",22-06-2024 21:00:00,13.615387,79.409230,PM2.5,64,243,91
India,Andhra_Pradesh,Tirupati,"Vaikuntapuram, Tirupati - APPCB",22-06-2024 21:00:00,13.615387,79.409230,NO2,15,24,16
India,Andhra_Pradesh,Vijayawada,"HB Colony, Vijayawada - APPCB",22-06-2024 21:00:00,16.536107,80.594233,PM2.5,30,60,41
India,Andhra_Pradesh,Vijayawada,"Rajiv Gandhi Park, Vijayawada - APPCB",22-06-2024 21:00:00,16.509717,80.612222,PM10,46,90,62
India,Andhra_Pradesh,Vijayawada,"Rajiv Gandhi Park, Vijayawada - APPCB",22-06-2024 21:00:00,16.509717,80.612222,NH3,3,7,5
India,Andhra_Pradesh,Vijayawada,"Rajiv Gandhi Park, Vijayawada - APPCB",22-06-2024 21:00:00,16.509717,80.612222,SO2,8,54,16
India,Andhra_Pradesh,Vijayawada,"Rajiv Gandhi Park, Vijayawada - APPCB",22-06-2024 21:00:00,16.509717,80.612222,CO,38,42,40
India,Andhra_Pradesh,Vijayawada,"Rajiv Gandhi Park, Vijayawada - APPCB",22-06-2024 21:00:00,16.509717,80.612222,OZONE,33,33,33
India,Andhra_Pradesh,Vijayawada,"Rajiv Nagar, Vijayawada - APPCB",22-06-2024 21:00:00,16.554731,80.649110,PM10,53,73,59
India,Assam,Byrnihat,"Central Academy for SFS, Byrnihat - PCBA",22-06-2024 21:00:00,26.071318,91.87488,NO2,NA,NA,NA
India,Assam,Guwahati,"IITG, Guwahati - PCBA",22-06-2024 21:00:00,26.2028636,91.70046436,NO2,NA,NA,NA
India,Assam,Guwahati,"Pan Bazaar, Guwahati - PCBA",22-06-2024 21:00:00,26.187500,91.744194,NH3,NA,NA,NA
India,Assam,Guwahati,"Pan Bazaar, Guwahati - PCBA",22-06-2024 21:00:00,26.187500,91.744194,SO2,41,60,49
India,Assam,Nagaon,"Christianpatty, Nagaon - PCBA",22-06-2024 21:00:00,26.349082,92.68449,PM10,16,42,22
India,Assam,Nalbari,"Bata Chowk, Nalbari - PCBA",22-06-2024 21:00:00,26.446912,91.439057,NH3,1,2,1
India,Assam,Nalbari,"Bata Chowk, Nalbari - PCBA",22-06-2024 21:00:00,26.446912,91.439057,OZONE,7,37,25
India,Assam,Silchar,"Tarapur, Silchar - PCBA",22-06-2024 21:00:00,24.82827,92.79525,SO2,1,11,2
India,Assam,Sivasagar,"Girls College, Sivasagar - PCBA",22-06-2024 21:00:00,26.987634,94.636574,SO2,6,8,7
India,Bihar,Arrah,"New DM Office, Arrah - BSPCB",22-06-2024 21:00:00,25.5626095,84.663264,NO2,9,14,12
India,Bihar,Arrah,"New DM Office, Arrah - BSPCB",22-06-2024 21:00:00,25.5626095,84.663264,NH3,2,3,3
India,Bihar,Arrah,"New DM Office, Arrah - BSPCB",22-06-2024 21:00:00,25.5626095,84.663264,CO,12,27,19
India,Bihar,Aurangabad,"Gurdeo Nagar, Aurangabad - BSPCB",22-06-2024 21:00:00,24.75746,84.366208,PM2.5,NA,NA,NA
India,Bihar,Aurangabad,"Gurdeo Nagar, Aurangabad - BSPCB",22-06-2024 21:00:00,24.75746,84.366208,PM10,NA,NA,NA
India,Bihar,Aurangabad,"Gurdeo Nagar, Aurangabad - BSPCB",22-06-2024 21:00:00,24.75746,84.366208,NO2,2,10,6
India,Bihar,Bettiah,"Kamalnath Nagar, Bettiah - BSPCB",22-06-2024 21:00:00,26.80365,84.51954,PM10,NA,NA,NA
India,Bihar,Bettiah,"Kamalnath Nagar, Bettiah - BSPCB",22-06-2024 21:00:00,26.80365,84.51954,SO2,11,26,16
India,Bihar,Bhagalpur,"DM Office_Kachari Chowk, Bhagalpur - BSPCB",22-06-2024 21:00:00,25.251013,86.989001,NO2,25,54,35
India,Bihar,Bhagalpur,"DM Office_Kachari Chowk, Bhagalpur - BSPCB",22-06-2024 21:00:00,25.251013,86.989001,CO,43,84,69
India,Bihar,Bhagalpur,"Mayaganj, Bhagalpur - BSPCB",22-06-2024 21:00:00,25.265194,87.012947,PM2.5,110,394,228
India,Bihar,Bhagalpur,"Mayaganj, Bhagalpur - BSPCB",22-06-2024 21:00:00,25.265194,87.012947,PM10,83,267,125
India,Bihar,Bihar Sharif,"D M Colony, Bihar Sharif - BSPCB",22-06-2024 21:00:00,25.204762,85.514960,NH3,1,1,1
India,Bihar,Chhapra,"Darshan Nagar, Chhapra - BSPCB",22-06-2024 21:00:00,25.7808257,84.7446768,NO2,NA,NA,NA
India,Bihar,Chhapra,"Darshan Nagar, Chhapra - BSPCB",22-06-2024 21:00:00,25.7808257,84.7446768,NH3,6,12,9
India,Bihar,Gaya,"Kareemganj, Gaya - BSPCB",22-06-2024 21:00:00,24.792403,84.992416,SO2,13,13,13
India,Bihar,Gaya,"Kareemganj, Gaya - BSPCB",22-06-2024 21:00:00,24.792403,84.992416,CO,30,30,30
India,Bihar,Gaya,"SFTI Kusdihra, Gaya - BSPCB",22-06-2024 21:00:00,24.762518,84.982348,SO2,7,10,9
India,Bihar,Hajipur,"Industrial Area, Hajipur - BSPCB",22-06-2024 21:00:00,25.697189,85.245900,OZONE,19,158,113
India,Bihar,Katihar,"Mirchaibari, Katihar - BSPCB",22-06-2024 21:00:00,25.560083,87.553265,SO2,6,13,10
India,Bihar,Katihar,"Mirchaibari, Katihar - BSPCB",22-06-2024 21:00:00,25.560083,87.553265,CO,16,36,21
India,Bihar,Kishanganj,"SDM Office_Khagra, Kishanganj - BSPCB",22-06-2024 21:00:00,26.0881305,87.93840336,CO,4,8,6
India,Bihar,Manguraha,"Forest Rest House, Manguraha - BSPCB",22-06-2024 21:00:00,27.308328,84.531742,PM2.5,NA,NA,NA
India,Bihar,Manguraha,"Forest Rest House, Manguraha - BSPCB",22-06-2024 21:00:00,27.308328,84.531742,PM10,NA,NA,NA
India,Bihar,Motihari,"Gandak Colony, Motihari - BSPCB",22-06-2024 21:00:00,26.63086,84.90051,NO2,12,26,18
India,Bihar,Munger,"Town Hall, Munger - BSPCB",22-06-2024 21:00:00,25.376776,86.471523,PM2.5,NA,NA,NA
India,Bihar,Munger,"Town Hall, Munger - BSPCB",22-06-2024 21:00:00,25.376776,86.471523,PM10,NA,NA,NA
India,Bihar,Munger,"Town Hall, Munger - BSPCB",22-06-2024 21:00:00,25.376776,86.471523,CO,82,101,97
India,Bihar,Muzaffarpur,"Buddha Colony, Muzaffarpur - BSPCB",22-06-2024 21:00:00,26.11442,85.39813,PM10,57,97,77
India,Bihar,Muzaffarpur,"Buddha Colony, Muzaffarpur - BSPCB",22-06-2024 21:00:00,26.11442,85.39813,SO2,1,5,3
India,Bihar,Patna,"DRM Office Danapur, Patna - BSPCB",22-06-2024 21:00:00,25.586562,85.043586,SO2,1,6,4
India,Bihar,Patna,"Govt. High School Shikarpur, Patna - BSPCB",22-06-2024 21:00:00,25.592539,85.227158,NO2,33,36,34
India,Bihar,Patna,"Govt. High School Shikarpur, Patna - BSPCB",22-06-2024 21:00:00,25.592539,85.227158,SO2,8,11,10
India,Bihar,Patna,"Govt. High School Shikarpur, Patna - BSPCB",22-06-2024 21:00:00,25.592539,85.227158,CO,36,62,49
India,Bihar,Patna,"Samanpura, Patna - BSPCB",22-06-2024 21:00:00,25.596727,85.085624,SO2,2,7,3
India,Bihar,Rajgir,"Dangi Tola, Rajgir - BSPCB",22-06-2024 21:00:00,25.03280,85.41948,PM2.5,33,87,58
India,Bihar,Rajgir,"Dangi Tola, Rajgir - BSPCB",22-06-2024 21:00:00,25.03280,85.41948,PM10,38,96,64
India,Bihar,Rajgir,"Dangi Tola, Rajgir - BSPCB",22-06-2024 21:00:00,25.03280,85.41948,NO2,13,15,15
India,Bihar,Rajgir,"Dangi Tola, Rajgir - BSPCB",22-06-2024 21:00:00,25.03280,85.41948,SO2,4,4,4
India,Bihar,Samastipur,"DM Office_Kasipur, Samastipur - BSPCB",22-06-2024 21:00:00,25.859655,85.77944,PM10,8,34,14
India,Bihar,Samastipur,"DM Office_Kasipur, Samastipur - BSPCB",22-06-2024 21:00:00,25.859655,85.77944,NH3,3,3,3
India,Bihar,Samastipur,"DM Office_Kasipur, Samastipur - BSPCB",22-06-2024 21:00:00,25.859655,85.77944,CO,102,112,104
India,Bihar,Sasaram,"Dada Peer, Sasaram - BSPCB",22-06-2024 21:00:00,24.952822,84.002396,CO,40,82,65
India,Bihar,Siwan,"Chitragupta Nagar, Siwan - BSPCB",22-06-2024 21:00:00,26.2271665,84.3570427,SO2,4,33,20
India,Chandigarh,Chandigarh,"Sector 22, Chandigarh - CPCC",22-06-2024 21:00:00,30.735567,76.775714,PM10,109,189,131
India,Chandigarh,Chandigarh,"Sector 22, Chandigarh - CPCC",22-06-2024 21:00:00,30.735567,76.775714,OZONE,25,305,151
India,Chandigarh,Chandigarh,"Sector-25, Chandigarh - CPCC",22-06-2024 21:00:00,30.751462,76.762879,NO2,10,34,19
India,Chandigarh,Chandigarh,"Sector-25, Chandigarh - CPCC",22-06-2024 21:00:00,30.751462,76.762879,NH3,11,21,16
India,Chandigarh,Chandigarh,"Sector-25, Chandigarh - CPCC",22-06-2024 21:00:00,30.751462,76.762879,OZONE,5,53,44
India,Chandigarh,Chandigarh,"Sector-53, Chandigarh - CPCC",22-06-2024 21:00:00,30.719859,76.738637,PM10,109,165,128
India,Chhattisgarh,Korba,"Rampur, Korba - CECB",22-06-2024 21:00:00,22.368195,82.746431,PM10,NA,NA,NA
India,Chhattisgarh,Korba,"Rampur, Korba - CECB",22-06-2024 21:00:00,22.368195,82.746431,SO2,NA,NA,NA
India,Chhattisgarh,Korba,"Urja Nagar, Korba - CECB",22-06-2024 21:00:00,22.348441,82.549611,SO2,2,12,10
India,Chhattisgarh,Kunjemura,"OP Jindal School, Kunjemura - CECB",22-06-2024 21:00:00,22.126650,83.483212,CO,20,33,28
India,Chhattisgarh,Kunjemura,"OP Jindal School, Kunjemura - CECB",22-06-2024 21:00:00,22.126650,83.483212,OZONE,5,20,14
India,Chhattisgarh,Raipur,"Krishak Nagar, Raipur - CECB",22-06-2024 21:00:00,21.237755,81.705301,NO2,5,5,5
India,Chhattisgarh,Raipur,"Krishak Nagar, Raipur - CECB",22-06-2024 21:00:00,21.237755,81.705301,SO2,9,16,11
India,Chhattisgarh,Tumidih,"OP Jindal Industrial Park, Tumidih - CECB",22-06-2024 21:00:00,22.06631475,83.33820077,OZONE,15,42,29
India,Delhi,Delhi,"Alipur, Delhi - DPCC",22-06-2024 21:00:00,28.815329,77.153010,SO2,7,30,15
India,Delhi,Delhi,"Anand Vihar, Delhi - DPCC",22-06-2024 21:00:00,28.647622,77.3158090,PM10,129,430,236
India,Delhi,Delhi,"Anand Vihar, Delhi - DPCC",22-06-2024 21:00:00,28.647622,77.3158090,NH3,4,7,5
India,Delhi,Delhi,"Anand Vihar, Delhi - DPCC",22-06-2024 21:00:00,28.647622,77.3158090,SO2,19,23,21
India,Delhi,Delhi,"Anand Vihar, Delhi - DPCC",22-06-2024 21:00:00,28.647622,77.3158090,OZONE,74,108,93
India,Delhi,Delhi,"Ashok Vihar, Delhi - DPCC",22-06-2024 21:00:00,28.695381,77.181665,PM2.5,93,370,208
India,Delhi,Delhi,"Ashok Vihar, Delhi - DPCC",22-06-2024 21:00:00,28.695381,77.181665,OZONE,12,142,82
India,Delhi,Delhi,"Aya Nagar, Delhi - IMD",22-06-2024 21:00:00,28.4706914,77.1099364,PM2.5,NA,NA,NA
India,Delhi,Delhi,"Aya Nagar, Delhi - IMD",22-06-2024 21:00:00,28.4706914,77.1099364,PM10,83,165,129
India,Delhi,Delhi,"Bawana, Delhi - DPCC",22-06-2024 21:00:00,28.776200,77.051074,PM10,118,455,190
India,Delhi,Delhi,"Bawana, Delhi - DPCC",22-06-2024 21:00:00,28.776200,77.051074,NO2,12,294,44
India,Delhi,Delhi,"Bawana, Delhi - DPCC",22-06-2024 21:00:00,28.776200,77.051074,NH3,8,33,17
India,Delhi,Delhi,"CRRI Mathura Road, Delhi - IMD",22-06-2024 21:00:00,28.5512005,77.2735737,NO2,11,43,24
India,Delhi,Delhi,"CRRI Mathura Road, Delhi - IMD",22-06-2024 21:00:00,28.5512005,77.2735737,CO,30,80,36
India,Delhi,Delhi,"Dr. Karni Singh Shooting Range, Delhi - DPCC",22-06-2024 21:00:00,28.498571,77.264840,NO2,25,106,55
India,Delhi,Delhi,"Dwarka-Sector 8, Delhi - DPCC ",22-06-2024 21:00:00,28.5710274,77.0719006,PM10,NA,NA,NA
India,Delhi,Delhi,"IHBAS, Dilshad Garden, Delhi - CPCB",22-06-2024 21:00:00,28.6811736,77.3025234,NO2,NA,NA,NA
India,Delhi,Delhi,"IHBAS, Dilshad Garden, Delhi - CPCB",22-06-2024 21:00:00,28.6811736,77.3025234,SO2,NA,NA,NA
India,Delhi,Delhi,"IHBAS, Dilshad Garden, Delhi - CPCB",22-06-2024 21:00:00,28.6811736,77.3025234,CO,8,26,17
India,Delhi,Delhi,"ITO, Delhi - CPCB",22-06-2024 21:00:00,28.628624,77.241060,NO2,15,85,39
India,Delhi,Delhi,"ITO, Delhi - CPCB",22-06-2024 21:00:00,28.628624,77.241060,SO2,10,28,19
India,Delhi,Delhi,"Jawaharlal Nehru Stadium, Delhi - DPCC",22-06-2024 21:00:00,28.580280,77.233829,SO2,7,25,17
India,Delhi,Delhi,"Major Dhyan Chand National Stadium, Delhi - DPCC",22-06-2024 21:00:00,28.611281,77.237738,CO,20,76,38
India,Delhi,Delhi,"Mandir Marg, Delhi - DPCC",22-06-2024 21:00:00,28.636429,77.201067,NH3,4,8,5
India,Delhi,Delhi,"Mundka, Delhi - DPCC",22-06-2024 21:00:00,28.684678,77.076574,NH3,6,28,15
India,Delhi,Delhi,"NSIT Dwarka, Delhi - CPCB",22-06-2024 21:00:00,28.60909,77.0325413,PM10,NA,NA,NA
India,Delhi,Delhi,"NSIT Dwarka, Delhi - CPCB",22-06-2024 21:00:00,28.60909,77.0325413,SO2,6,23,16
India,Delhi,Delhi,"Nehru Nagar, Delhi - DPCC",22-06-2024 21:00:00,28.567890,77.250515,CO,53,94,68
India,Delhi,Delhi,"Nehru Nagar, Delhi - DPCC",22-06-2024 21:00:00,28.567890,77.250515,OZONE,4,141,82
India,Delhi,Delhi,"Okhla Phase-2, Delhi - DPCC",22-06-2024 21:00:00,28.530785,77.271255,PM2.5,63,337,137
India,Delhi,Delhi,"Patparganj, Delhi - DPCC",22-06-2024 21:00:00,28.623763,77.287209,PM2.5,70,341,111
India,Delhi,Delhi,"Patparganj, Delhi - DPCC",22-06-2024 21:00:00,28.623763,77.287209,NH3,6,10,7
India,Delhi,Delhi,"Punjabi Bagh, Delhi - DPCC",22-06-2024 21:00:00,28.674045,77.131023,PM10,103,177,134
India,Delhi,Delhi,"Punjabi Bagh, Delhi - DPCC",22-06-2024 21:00:00,28.674045,77.131023,NO2,14,67,41
India,Delhi,Delhi,"Pusa, Delhi - DPCC",22-06-2024 21:00:00,28.639652,77.146275,NH3,NA,NA,NA
India,Delhi,Delhi,"Pusa, Delhi - IMD",22-06-2024 21:00:00,28.636110,77.173332,PM10,NA,NA,NA
India,Delhi,Delhi,"R K Puram, Delhi - DPCC",22-06-2024 21:00:00,28.563262,77.186937,NO2,8,133,62
India,Delhi,Delhi,"Rohini, Delhi - DPCC",22-06-2024 21:00:00,28.732528,77.119920,CO,24,96,30
India,Delhi,Delhi,"Rohini, Delhi - DPCC",22-06-2024 21:00:00,28.732528,77.119920,OZONE,5,52,39
India,Delhi,Delhi,"Sonia Vihar, Delhi - DPCC",22-06-2024 21:00:00,28.710508,77.249485,CO,14,88,22
India,Delhi,Delhi,"Sri Aurobindo Marg, Delhi - DPCC",22-06-2024 21:00:00,28.531346,77.190156,PM10,113,250,161
India,Delhi,Delhi,"Sri Aurobindo Marg, Delhi - DPCC",22-06-2024 21:00:00,28.531346,77.190156,SO2,8,15,11
India,Delhi,Delhi,"Sri Aurobindo Marg, Delhi - DPCC",22-06-2024 21:00:00,28.531346,77.190156,OZONE,2,119,60
India,Delhi,Delhi,"Vivek Vihar, Delhi - DPCC",22-06-2024 21:00:00,28.672342,77.315260,OZONE,1,86,61
India,Delhi,Delhi,"Wazirpur, Delhi - DPCC",22-06-2024 21:00:00,28.699793,77.165453,NO2,40,117,76
India,Gujarat,Ahmedabad,"Gyaspur, Ahmedabad - IITM",22-06-2024 21:00:00,22.977134,72.553024,OZONE,7,45,30
India,Gujarat,Ahmedabad,"Rakhial, Ahmedabad - IITM",22-06-2024 21:00:00,23.016834,72.625775,SO2,12,31,24
India,Gujarat,Ahmedabad,"Sardar Vallabhbhai Patel Stadium, Ahmedabad - IITM",22-06-2024 21:00:00,23.043070,72.562968,PM10,40,133,88
India,Gujarat,Ahmedabad,"Sardar Vallabhbhai Patel Stadium, Ahmedabad - IITM",22-06-2024 21:00:00,23.043070,72.562968,OZONE,10,25,21
India,Gujarat,Ankleshwar,"GIDC, Ankleshwar - GPCB",22-06-2024 21:00:00,21.613267,73.010555,PM2.5,27,70,52
India,Gujarat,Ankleshwar,"GIDC, Ankleshwar - GPCB",22-06-2024 21:00:00,21.613267,73.010555,NO2,26,58,37
India,Gujarat,Gandhinagar,"GIFT City, Gandhinagar - IITM",22-06-2024 21:00:00,23.163798,72.677768,PM2.5,44,142,77
India,Gujarat,Gandhinagar,"GIFT City, Gandhinagar - IITM",22-06-2024 21:00:00,23.163798,72.677768,SO2,7,15,12
India,Gujarat,Gandhinagar,"Sector-10, Gandhinagar - GPCB",22-06-2024 21:00:00,23.221714,72.654328,PM2.5,21,52,36
India,Gujarat,Gandhinagar,"Sector-10, Gandhinagar - GPCB",22-06-2024 21:00:00,23.221714,72.654328,PM10,21,86,46
India,Gujarat,Gandhinagar,"Sector-10, Gandhinagar - GPCB",22-06-2024 21:00:00,23.221714,72.654328,NH3,2,2,2
India,Gujarat,Nandesari,"GIDC, Nandesari - Nandesari Ind. Association",22-06-2024 21:00:00,22.410802,73.097923,NO2,1,19,5
India,Gujarat,Nandesari,"GIDC, Nandesari - Nandesari Ind. Association",22-06-2024 21:00:00,22.410802,73.097923,SO2,1,22,10
India,Gujarat,Surat,"Science Center, Surat - SMC",22-06-2024 21:00:00,21.170046,72.795405,PM10,NA,NA,NA
India,Gujarat,Surat,"Science Center, Surat - SMC",22-06-2024 21:00:00,21.170046,72.795405,NO2,20,33,26
India,Gujarat,Vapi,"Phase-1 GIDC, Vapi - GPCB",22-06-2024 21:00:00,20.362421,72.918013,PM2.5,10,47,25
India,Gujarat,Vapi,"Phase-1 GIDC, Vapi - GPCB",22-06-2024 21:00:00,20.362421,72.918013,PM10,25,93,49
India,Gujarat,Vapi,"Phase-1 GIDC, Vapi - GPCB",22-06-2024 21:00:00,20.362421,72.918013,NH3,2,2,2
India,Gujarat,Vatva,"Phase-4 GIDC, Vatva - GPCB",22-06-2024 21:00:00,22.969611,72.643500,PM10,43,110,84
India,Haryana,Ambala,"Patti Mehar, Ambala - HSPCB",22-06-2024 21:00:00,30.379589,76.778328,SO2,NA,NA,NA
India,Haryana,Bahadurgarh,"Arya Nagar, Bahadurgarh - HSPCB",22-06-2024 21:00:00,28.6701,76.9254,CO,88,102,98
India,Haryana,Ballabgarh,"Nathu Colony, Ballabgarh - HSPCB",22-06-2024 21:00:00,28.3419248,77.319699,NO2,12,13,13
India,Haryana,Ballabgarh,"Nathu Colony, Ballabgarh - HSPCB",22-06-2024 21:00:00,28.3419248,77.319699,NH3,1,2,2
India,Haryana,Charkhi Dadri,"Mini Secretariat, Charkhi Dadri - HSPCB",22-06-2024 21:00:00,28.593883,76.270653,PM2.5,71,230,130
India,Haryana,Charkhi Dadri,"Mini Secretariat, Charkhi Dadri - HSPCB",22-06-2024 21:00:00,28.593883,76.270653,NO2,14,22,18
India,Haryana,Dharuhera,"Municipal Corporation Office, Dharuhera -  HSPCB",22-06-2024 21:00:00,28.206800,76.799700,CO,17,38,28
India,Haryana,Faridabad,"New Industrial Town, Faridabad - HSPCB",22-06-2024 21:00:00,28.39072,77.30059,NO2,16,20,18
India,Haryana,Faridabad,"New Industrial Town, Faridabad - HSPCB",22-06-2024 21:00:00,28.39072,77.30059,NH3,1,4,2
India,Haryana,Faridabad,"Sector 11, Faridabad - HSPCB",22-06-2024 21:00:00,28.376058,77.315741,PM10,102,142,119
India,Haryana,Faridabad,"Sector 11, Faridabad - HSPCB",22-06-2024 21:00:00,28.376058,77.315741,NH3,6,6,6
India,Haryana,Faridabad,"Sector 30, Faridabad - HSPCB",22-06-2024 21:00:00,28.4417,77.3217,NH3,9,9,9
India,Haryana,Faridabad,"Sector 30, Faridabad - HSPCB",22-06-2024 21:00:00,28.4417,77.3217,SO2,5,58,11
India,Haryana,Faridabad,"Sector- 16A, Faridabad - HSPCB",22-06-2024 21:00:00,28.4088421,77.3099081,PM2.5,NA,NA,NA
India,Haryana,Faridabad,"Sector- 16A, Faridabad - HSPCB",22-06-2024 21:00:00,28.4088421,77.3099081,SO2,23,29,26
India,Haryana,Gurugram,"Sector-51, Gurugram - HSPCB",22-06-2024 21:00:00,28.4227,77.0667,PM2.5,65,235,115
India,Haryana,Gurugram,"Sector-51, Gurugram - HSPCB",22-06-2024 21:00:00,28.4227,77.0667,NO2,13,29,23
India,Haryana,Gurugram,"Vikas Sadan, Gurugram - HSPCB",22-06-2024 21:00:00,28.4501238,77.0263051,SO2,7,118,47
India,Haryana,Gurugram,"Vikas Sadan, Gurugram - HSPCB",22-06-2024 21:00:00,28.4501238,77.0263051,CO,49,129,104
India,Haryana,Hisar,"Urban Estate-II, Hisar - HSPCB",22-06-2024 21:00:00,29.140560,75.744941,SO2,1,28,9
India,Haryana,Kaithal,"Rishi Nagar, Kaithal - HSPCB",22-06-2024 21:00:00,29.8006,76.4155,SO2,5,23,9
India,Haryana,Kaithal,"Rishi Nagar, Kaithal - HSPCB",22-06-2024 21:00:00,29.8006,76.4155,CO,6,26,11
India,Haryana,Kurukshetra,"Sector-7, Kurukshetra - HSPCB",22-06-2024 21:00:00,29.966942,76.875879,PM2.5,87,209,134
India,Haryana,Kurukshetra,"Sector-7, Kurukshetra - HSPCB",22-06-2024 21:00:00,29.966942,76.875879,CO,6,30,12
India,Haryana,Mandikhera,"General Hospital, Mandikhera - HSPCB",22-06-2024 21:00:00,27.9002,76.9938,NH3,16,19,18
India,Haryana,Mandikhera,"General Hospital, Mandikhera - HSPCB",22-06-2024 21:00:00,27.9002,76.9938,CO,17,40,33
India,Haryana,Manesar,"Sector-2 IMT, Manesar - HSPCB",22-06-2024 21:00:00,28.360699,76.936090,PM2.5,100,251,154
India,Haryana,Manesar,"Sector-2 IMT, Manesar - HSPCB",22-06-2024 21:00:00,28.360699,76.936090,NO2,14,23,18
India,Haryana,Manesar,"Sector-2 IMT, Manesar - HSPCB",22-06-2024 21:00:00,28.360699,76.936090,CO,10,24,13
India,Haryana,Manesar,"Sector-2 IMT, Manesar - HSPCB",22-06-2024 21:00:00,28.360699,76.936090,OZONE,11,110,74
India,Haryana,Narnaul,"Shastri Nagar, Narnaul - HSPCB",22-06-2024 21:00:00,28.060249,76.113115,SO2,47,48,47
India,Haryana,Narnaul,"Shastri Nagar, Narnaul - HSPCB",22-06-2024 21:00:00,28.060249,76.113115,CO,12,39,16
India,Haryana,Palwal,"Shyam Nagar, Palwal - HSPCB",22-06-2024 21:00:00,28.1485564,77.3320667,PM10,46,114,76
India,Haryana,Panipat,"Sector-18, Panipat - HSPCB",22-06-2024 21:00:00,29.432304,76.972765,PM10,110,110,110
India,Haryana,Panipat,"Sector-18, Panipat - HSPCB",22-06-2024 21:00:00,29.432304,76.972765,NH3,2,3,2
India,Haryana,Sirsa,"F-Block, Sirsa - HSPCB",22-06-2024 21:00:00,29.536400,75.015800,NO2,9,11,10
India,Haryana,Sirsa,"F-Block, Sirsa - HSPCB",22-06-2024 21:00:00,29.536400,75.015800,NH3,12,13,12
India,Haryana,Yamuna Nagar,"Gobind Pura, Yamuna Nagar - HSPCB",22-06-2024 21:00:00,30.1480566,77.2893471,PM2.5,NA,NA,NA
India,Haryana,Yamuna Nagar,"Gobind Pura, Yamuna Nagar - HSPCB",22-06-2024 21:00:00,30.1480566,77.2893471,NO2,NA,NA,NA
India,Himachal Pradesh,Baddi,"HIMUDA Complex Phase-1, Baddi - HPPCB",22-06-2024 21:00:00,30.943887,76.801991,PM2.5,65,290,120
India,Himachal Pradesh,Baddi,"HIMUDA Complex Phase-1, Baddi - HPPCB",22-06-2024 21:00:00,30.943887,76.801991,PM10,76,202,135
India,Karnataka,Belgaum,"Ramteerth Nagar, Belgaum - KSPCB",22-06-2024 21:00:00,15.888653,74.541751,SO2,NA,NA,NA
India,Karnataka,Belgaum,"Ramteerth Nagar, Belgaum - KSPCB",22-06-2024 21:00:00,15.888653,74.541751,CO,46,58,52
India,Karnataka,Bengaluru,"Bapuji Nagar, Bengaluru - KSPCB",22-06-2024 21:00:00,12.951913,77.539784,NH3,1,1,1
India,Karnataka,Bengaluru,"Bapuji Nagar, Bengaluru - KSPCB",22-06-2024 21:00:00,12.951913,77.539784,SO2,4,7,6
India,Karnataka,Bengaluru,"Bapuji Nagar, Bengaluru - KSPCB",22-06-2024 21:00:00,12.951913,77.539784,CO,21,135,65
India,Karnataka,Bengaluru,"City Railway Station, Bengaluru - KSPCB",22-06-2024 21:00:00,12.9756843,77.5660749,CO,54,86,66
India,Karnataka,Bengaluru,"Hebbal, Bengaluru - KSPCB",22-06-2024 21:00:00,13.029152,77.585901,NH3,1,1,1
India,Karnataka,Bengaluru,"Hombegowda Nagar, Bengaluru - KSPCB",22-06-2024 21:00:00,12.938539,77.590100,PM2.5,14,26,20
India,Karnataka,Bengaluru,"Hombegowda Nagar, Bengaluru - KSPCB",22-06-2024 21:00:00,12.938539,77.590100,PM10,20,40,30
India,Karnataka,Bengaluru,"Jigani, Bengaluru - KSPCB",22-06-2024 21:00:00,12.7816279,77.6299145,PM2.5,37,38,38
India,Karnataka,Bengaluru,"Kasturi Nagar, Bengaluru - KSPCB",22-06-2024 21:00:00,13.003872,77.664217,CO,24,26,25
India,Karnataka,Bengaluru,"Kasturi Nagar, Bengaluru - KSPCB",22-06-2024 21:00:00,13.003872,77.664217,OZONE,39,39,39
India,Karnataka,Bengaluru,"RVCE-Mailasandra, Bengaluru - KSPCB",22-06-2024 21:00:00,12.921418,77.502466,SO2,7,12,10
India,Karnataka,Chikkamagaluru,"Kalyana Nagara, Chikkamagaluru - KSPCB",22-06-2024 21:00:00,13.328028,75.797056,PM2.5,14,46,23
India,Karnataka,Chikkamagaluru,"Kalyana Nagara, Chikkamagaluru - KSPCB",22-06-2024 21:00:00,13.328028,75.797056,PM10,24,61,37
India,Karnataka,Chikkamagaluru,"Kalyana Nagara, Chikkamagaluru - KSPCB",22-06-2024 21:00:00,13.328028,75.797056,NO2,18,32,23
India,Karnataka,Chikkamagaluru,"Kalyana Nagara, Chikkamagaluru - KSPCB",22-06-2024 21:00:00,13.328028,75.797056,OZONE,9,30,27
India,Karnataka,Davanagere,"Devaraj Urs Badavane, Davanagere - KSPCB",22-06-2024 21:00:00,14.475800,75.905200,PM2.5,7,37,21
India,Karnataka,Davanagere,"Devaraj Urs Badavane, Davanagere - KSPCB",22-06-2024 21:00:00,14.475800,75.905200,NH3,1,2,1
India,Karnataka,Davanagere,"Devaraj Urs Badavane, Davanagere - KSPCB",22-06-2024 21:00:00,14.475800,75.905200,SO2,5,8,6
India,Karnataka,Gadag,"Panchal Nagar, Gadag - KSPCB",22-06-2024 21:00:00,15.411456,75.638133,NH3,1,3,2
India,Karnataka,Gadag,"Panchal Nagar, Gadag - KSPCB",22-06-2024 21:00:00,15.411456,75.638133,SO2,4,19,14
India,Karnataka,Hassan,"B.Katihalli, Hassan - KSPCB",22-06-2024 21:00:00,13.008556,76.125258,PM2.5,18,48,41
India,Karnataka,Haveri,"Ashwini Nagar, Haveri - KSPCB",22-06-2024 21:00:00,14.791800,75.389600,NO2,17,72,37
India,Karnataka,Hubballi,"Lingaraj Nagar, Hubballi - KSPCB",22-06-2024 21:00:00,15.3714823,75.1160168,SO2,1,3,2
India,Karnataka,Karwar,"KHB Colony, Karwar - KSPCB",22-06-2024 21:00:00,14.816666,74.141003,PM10,12,34,24
India,Karnataka,Kolar,"Tamaka Ind. Area, Kolar - KSPCB",22-06-2024 21:00:00,13.1276288,78.1570122,SO2,NA,NA,NA
India,Karnataka,Koppal,"Diwator Nagar, Koppal - KSPCB",22-06-2024 21:00:00,15.347630,76.181767,PM10,NA,NA,NA
India,Karnataka,Koppal,"Diwator Nagar, Koppal - KSPCB",22-06-2024 21:00:00,15.347630,76.181767,SO2,NA,NA,NA
India,Karnataka,Madikeri,"Stuart Hill, Madikeri - KSPCB",22-06-2024 21:00:00,12.415911,75.735050,PM2.5,10,30,21
India,Karnataka,Madikeri,"Stuart Hill, Madikeri - KSPCB",22-06-2024 21:00:00,12.415911,75.735050,NH3,NA,NA,NA
India,Karnataka,Mysuru,"Hebbal 1st Stage, Mysuru - KSPCB",22-06-2024 21:00:00,12.21041,76.37376,PM10,24,48,32
India,Karnataka,Mysuru,"Hebbal 1st Stage, Mysuru - KSPCB",22-06-2024 21:00:00,12.21041,76.37376,NO2,9,34,21
India,Karnataka,Mysuru,"Hebbal 1st Stage, Mysuru - KSPCB",22-06-2024 21:00:00,12.21041,76.37376,SO2,1,3,2
India,Karnataka,Mysuru,"Hebbal 1st Stage, Mysuru - KSPCB",22-06-2024 21:00:00,12.21041,76.37376,OZONE,12,56,41
India,Karnataka,Raichur,"Haji Colony, Raichur - KSPCB",22-06-2024 21:00:00,16.208139,77.348417,SO2,61,75,70
India,Karnataka,Shivamogga,"Vinoba Nagara, Shivamogga - KSPCB",22-06-2024 21:00:00,13.940000,75.555917,PM10,40,74,48
India,Karnataka,Udupi,"Brahmagiri, Udupi - KSPCB",22-06-2024 21:00:00,13.34194444,74.74694444,PM10,NA,NA,NA
India,Karnataka,Vijayapura,"Ibrahimpur, Vijayapura - KSPCB",22-06-2024 21:00:00,16.802639,75.722694,PM2.5,26,31,30
India,Karnataka,Vijayapura,"Ibrahimpur, Vijayapura - KSPCB",22-06-2024 21:00:00,16.802639,75.722694,CO,105,105,105
India,Karnataka,Yadgir,"Collector Office, Yadgir - KSPCB",22-06-2024 21:00:00,16.7602,77.1428,NO2,5,15,8
India,Kerala,Eloor,"Udyogamandal, Eloor - Kerala PCB",22-06-2024 21:00:00,10.073232,76.302765,PM10,25,45,30
India,Kerala,Eloor,"Udyogamandal, Eloor - Kerala PCB",22-06-2024 21:00:00,10.073232,76.302765,NO2,5,6,5
India,Kerala,Eloor,"Udyogamandal, Eloor - Kerala PCB",22-06-2024 21:00:00,10.073232,76.302765,CO,7,72,36
India,Kerala,Kannur,"Thavakkara, Kannur - Kerala PCB",22-06-2024 21:00:00,11.875000,75.373200,PM10,38,48,42
India,Kerala,Kollam,"Polayathode, Kollam - Kerala PCB",22-06-2024 21:00:00,8.8787,76.6073,SO2,NA,NA,NA
India,Kerala,Thiruvananthapuram,"Plammoodu, Thiruvananthapuram - Kerala PCB",22-06-2024 21:00:00,8.5149093,76.9435879,CO,15,34,22
India,Kerala,Thiruvananthapuram,"Plammoodu, Thiruvananthapuram - Kerala PCB",22-06-2024 21:00:00,8.5149093,76.9435879,OZONE,6,50,11
India,Kerala,Thrissur,"Corporation Ground, Thrissur - Kerala PCB",22-06-2024 21:00:00,10.532400,76.215900,OZONE,28,32,30
India,Madhya Pradesh,Bhopal,"Paryavaran Parisar, Bhopal - MPPCB",22-06-2024 21:00:00,23.210494,77.425409,OZONE,7,60,48
India,Madhya Pradesh,Bhopal,"T T Nagar, Bhopal - MPPCB",22-06-2024 21:00:00,23.233584,77.400574,NO2,23,40,30
India,Madhya Pradesh,Gwalior,"City Center, Gwalior - MPPCB",22-06-2024 21:00:00,26.203442,78.193251,NH3,2,3,3
India,Madhya Pradesh,Gwalior,"Maharaj Bada, Gwalior - MPPCB",22-06-2024 21:00:00,26.200388,78.147714,PM2.5,8,47,27
India,Madhya Pradesh,Gwalior,"Maharaj Bada, Gwalior - MPPCB",22-06-2024 21:00:00,26.200388,78.147714,OZONE,40,126,101
India,Madhya Pradesh,Indore,"Chhoti Gwaltoli, Indore - MPPCB",22-06-2024 21:00:00,22.4310,75.5213,PM2.5,25,58,45
India,Madhya Pradesh,Indore,"Chhoti Gwaltoli, Indore - MPPCB",22-06-2024 21:00:00,22.4310,75.5213,OZONE,8,61,46
India,Madhya Pradesh,Indore,"Maguda Nagar, Indore - IMC",22-06-2024 21:00:00,22.7524,75.8872,PM10,31,75,46
India,Madhya Pradesh,Indore,"Maguda Nagar, Indore - IMC",22-06-2024 21:00:00,22.7524,75.8872,NH3,1,1,1
India,Madhya Pradesh,Indore,"Regional Park, Indore - IMC",22-06-2024 21:00:00,22.6780,75.8559,CO,20,22,21
India,Madhya Pradesh,Indore,"Residency Area, Indore - IMC",22-06-2024 21:00:00,22.7084,75.8815,PM2.5,26,46,35
India,Madhya Pradesh,Jabalpur,"Govindh Bhavan Colony, Jabalpur - JMC",22-06-2024 21:00:00,23.163174,79.973061,NH3,4,4,4
India,Madhya Pradesh,Jabalpur,"Marhatal, Jabalpur - MPPCB",22-06-2024 21:00:00,23.168606,79.932247,PM10,10,67,36
India,Madhya Pradesh,Jabalpur,"Marhatal, Jabalpur - MPPCB",22-06-2024 21:00:00,23.168606,79.932247,NO2,5,46,17
India,Madhya Pradesh,Jabalpur,"Marhatal, Jabalpur - MPPCB",22-06-2024 21:00:00,23.168606,79.932247,NH3,4,7,5
India,Madhya Pradesh,Jabalpur,"Marhatal, Jabalpur - MPPCB",22-06-2024 21:00:00,23.168606,79.932247,OZONE,20,87,64
India,Madhya Pradesh,Maihar,"Sahilara, Maihar - KJS Cements",22-06-2024 21:00:00,24.2613009,80.7231783,NO2,11,13,12
India,Madhya Pradesh,Maihar,"Sahilara, Maihar - KJS Cements",22-06-2024 21:00:00,24.2613009,80.7231783,SO2,9,11,10
India,Madhya Pradesh,Pithampur,"Sector-2 Industrial Area, Pithampur - MPPCB",22-06-2024 21:00:00,22.624758,75.675238,PM2.5,38,137,66
India,Madhya Pradesh,Pithampur,"Sector-2 Industrial Area, Pithampur - MPPCB",22-06-2024 21:00:00,22.624758,75.675238,OZONE,20,95,78
India,Madhya Pradesh,Sagar,"Civil Lines, Sagar - MPPCB",22-06-2024 21:00:00,23.838586,78.759431,PM2.5,7,63,26
India,Madhya Pradesh,Sagar,"Civil Lines, Sagar - MPPCB",22-06-2024 21:00:00,23.838586,78.759431,PM10,10,77,32
India,Madhya Pradesh,Sagar,"Civil Lines, Sagar - MPPCB",22-06-2024 21:00:00,23.838586,78.759431,NH3,5,7,6
India,Madhya Pradesh,Satna,"Bandhavgar Colony, Satna - Birla Cement",22-06-2024 21:00:00,24.58434363,80.8549414,PM2.5,2,26,11
India,Madhya Pradesh,Satna,"Bandhavgar Colony, Satna - Birla Cement",22-06-2024 21:00:00,24.58434363,80.8549414,PM10,27,48,31
India,Madhya Pradesh,Satna,"Bandhavgar Colony, Satna - Birla Cement",22-06-2024 21:00:00,24.58434363,80.8549414,CO,38,120,76
India,Madhya Pradesh,Singrauli,"Suryakiran Bhawan NCL, Singrauli - MPPCB",22-06-2024 21:00:00,24.108970,82.645580,PM2.5,9,50,26
India,Madhya Pradesh,Singrauli,"Suryakiran Bhawan NCL, Singrauli - MPPCB",22-06-2024 21:00:00,24.108970,82.645580,CO,66,98,88
India,Madhya Pradesh,Ujjain,"Mahakaleshwar Temple, Ujjain - MPPCB",22-06-2024 21:00:00,23.182719 ,75.768218 ,NH3,3,6,5
India,Maharashtra,Ahmednagar,"Tarakpur, Ahmednagar - MPCB",22-06-2024 21:00:00,19.10122,74.73339,PM10,NA,NA,NA
India,Maharashtra,Ahmednagar,"Tarakpur, Ahmednagar - MPCB",22-06-2024 21:00:00,19.10122,74.73339,SO2,NA,NA,NA
India,Maharashtra,Akola,"Ramdaspeth, Akola - MPCB",22-06-2024 21:00:00,20.719516,77.000253,PM2.5,32,82,44
India,Maharashtra,Akola,"Ramdaspeth, Akola - MPCB",22-06-2024 21:00:00,20.719516,77.000253,NO2,6,33,13
India,Maharashtra,Amravati,"Shivneri Colony, Amravati - MPCB",22-06-2024 21:00:00,20.9402359,77.7895248,PM2.5,23,47,36
India,Maharashtra,Amravati,"Shivneri Colony, Amravati - MPCB",22-06-2024 21:00:00,20.9402359,77.7895248,SO2,2,3,2
India,Maharashtra,Amravati,"Shivneri Colony, Amravati - MPCB",22-06-2024 21:00:00,20.9402359,77.7895248,CO,11,26,21
India,Maharashtra,Amravati,"Shri Shivaji Science College, Amaravati - MPCB",22-06-2024 21:00:00,20.939198,77.765701,PM10,33,70,47
India,Maharashtra,Aurangabad,"MIDC Chilkalthana, Aurangabad - MPCB",22-06-2024 21:00:00,19.875620,75.387310,PM2.5,NA,NA,NA
India,Maharashtra,Aurangabad,"MIDC Chilkalthana, Aurangabad - MPCB",22-06-2024 21:00:00,19.875620,75.387310,NH3,NA,NA,NA
India,Maharashtra,Aurangabad,"MIDC Chilkalthana, Aurangabad - MPCB",22-06-2024 21:00:00,19.875620,75.387310,OZONE,20,49,42
India,Maharashtra,Badlapur,"Katrap, Badlapur - MPCB",22-06-2024 21:00:00,19.16485,73.23409,NH3,NA,NA,NA
India,Maharashtra,Belapur,"CBD Belapur, Belapur - MPCB",22-06-2024 21:00:00,19.0243902,73.0406721,NO2,39,162,65
India,Maharashtra,Bhiwandi,"Gokul Nagar, Bhiwandi - MPCB",22-06-2024 21:00:00,19.309073,73.057223,NO2,9,40,24
India,Maharashtra,Bhiwandi,"Gokul Nagar, Bhiwandi - MPCB",22-06-2024 21:00:00,19.309073,73.057223,SO2,7,14,10
India,Maharashtra,Boisar,"Khaira, Boisar - MPCB",22-06-2024 21:00:00,19.786089,72.757971,PM10,9,413,109
India,Maharashtra,Boisar,"Khaira, Boisar - MPCB",22-06-2024 21:00:00,19.786089,72.757971,NH3,1,6,3
India,Maharashtra,Chandrapur,"MIDC Khutala, Chandrapur - MPCB",22-06-2024 21:00:00,19.9775302,79.2337086,SO2,NA,NA,NA
India,Maharashtra,Chandrapur,"MIDC Khutala, Chandrapur - MPCB",22-06-2024 21:00:00,19.9775302,79.2337086,CO,14,48,28
India,Maharashtra,Chandrapur,"MIDC Khutala, Chandrapur - MPCB",22-06-2024 21:00:00,19.9775302,79.2337086,OZONE,7,40,25
India,Maharashtra,Dhule,"Deopur, Dhule - MPCB",22-06-2024 21:00:00,20.918946,74.776388,PM10,46,106,69
India,Maharashtra,Dhule,"Deopur, Dhule - MPCB",22-06-2024 21:00:00,20.918946,74.776388,NO2,6,18,10
India,Maharashtra,Jalgaon,"Prabhat Colony, Jalgaon - MPCB",22-06-2024 21:00:00,21.001264,75.565602,PM10,25,318,83
India,Maharashtra,Jalgaon,"Prabhat Colony, Jalgaon - MPCB",22-06-2024 21:00:00,21.001264,75.565602,NH3,7,11,9
India,Maharashtra,Jalgaon,"Prabhat Colony, Jalgaon - MPCB",22-06-2024 21:00:00,21.001264,75.565602,OZONE,29,105,68
India,Maharashtra,Kalyan,"Khadakpada, Kalyan - MPCB",22-06-2024 21:00:00,19.25292,73.142019,CO,12,20,16
India,Maharashtra,Kolhapur,"Shivaji University, Kolhapur - MPCB",22-06-2024 21:00:00,16.6870449,74.2505872,NO2,21,33,27
India,Maharashtra,Kolhapur,"Shivaji University, Kolhapur - MPCB",22-06-2024 21:00:00,16.6870449,74.2505872,NH3,4,6,5
India,Maharashtra,Kolhapur,"Shivaji University, Kolhapur - MPCB",22-06-2024 21:00:00,16.6870449,74.2505872,OZONE,14,51,34
India,Maharashtra,Kolhapur,"Sinchan Bhavan, Kolhapur - MPCB",22-06-2024 21:00:00,16.7143745,74.2426398,NO2,1,8,4
India,Maharashtra,Kolhapur,"Sinchan Bhavan, Kolhapur - MPCB",22-06-2024 21:00:00,16.7143745,74.2426398,NH3,7,8,7
India,Maharashtra,Mahad,"Kamble Tarf Birwadi, Mahad - MPCB",22-06-2024 21:00:00,18.1023399,73.4783687,PM10,33,51,42
India,Maharashtra,Mahad,"Kamble Tarf Birwadi, Mahad - MPCB",22-06-2024 21:00:00,18.1023399,73.4783687,NO2,5,33,14
India,Maharashtra,Malegaon,"Mahesh Nagar, Malegaon - MPCB",22-06-2024 21:00:00,20.555712,74.529236,PM10,58,116,86
India,Maharashtra,Malegaon,"Mahesh Nagar, Malegaon - MPCB",22-06-2024 21:00:00,20.555712,74.529236,SO2,6,11,9
India,Maharashtra,Mira-Bhayandar,"Bhayandar West, Mira-Bhayandar - MPCB",22-06-2024 21:00:00,19.296481,72.840923,PM10,35,62,44
India,Maharashtra,Mira-Bhayandar,"Bhayandar West, Mira-Bhayandar - MPCB",22-06-2024 21:00:00,19.296481,72.840923,CO,16,66,26
India,Maharashtra,Mumbai,"Bandra Kurla Complex, Mumbai - MPCB",22-06-2024 21:00:00,19.065931,72.862131,NO2,7,93,22
India,Maharashtra,Mumbai,"Bandra Kurla Complex, Mumbai - MPCB",22-06-2024 21:00:00,19.065931,72.862131,NH3,3,15,10
India,Maharashtra,Mumbai,"Borivali East, Mumbai - IITM",22-06-2024 21:00:00,19.23241,72.86895,NO2,6,27,12
India,Maharashtra,Mumbai,"Borivali East, Mumbai - IITM",22-06-2024 21:00:00,19.23241,72.86895,OZONE,8,59,21
India,Maharashtra,Mumbai,"Byculla, Mumbai - BMC",22-06-2024 21:00:00,18.9767,72.8380,NH3,9,9,9
India,Maharashtra,Mumbai,"Byculla, Mumbai - BMC",22-06-2024 21:00:00,18.9767,72.8380,CO,5,35,19
India,Maharashtra,Mumbai,"Byculla, Mumbai - BMC",22-06-2024 21:00:00,18.9767,72.8380,OZONE,3,30,16
India,Maharashtra,Mumbai,"Chakala-Andheri East, Mumbai - IITM",22-06-2024 21:00:00,19.11074,72.86084,NO2,27,72,40
India,Maharashtra,Mumbai,"Chhatrapati Shivaji Intl. Airport (T2), Mumbai - MPCB",22-06-2024 21:00:00,19.10078,72.87462,NO2,NA,NA,NA
India,Maharashtra,Mumbai,"Chhatrapati Shivaji Intl. Airport (T2), Mumbai - MPCB",22-06-2024 21:00:00,19.10078,72.87462,SO2,NA,NA,NA
India,Maharashtra,Mumbai,"Chhatrapati Shivaji Intl. Airport (T2), Mumbai - MPCB",22-06-2024 21:00:00,19.10078,72.87462,OZONE,11,11,11
India,Maharashtra,Mumbai,"Colaba, Mumbai - MPCB",22-06-2024 21:00:00,18.910000,72.820000,CO,12,15,14
India,Maharashtra,Mumbai,"Deonar, Mumbai - IITM",22-06-2024 21:00:00,19.04946,72.9230,PM10,23,83,44
India,Maharashtra,Mumbai,"Ghatkopar, Mumbai - BMC",22-06-2024 21:00:00,19.083694,72.920967,OZONE,11,27,18
India,Maharashtra,Mumbai,"Kandivali West, Mumbai - BMC",22-06-2024 21:00:00,19.215859,72.831718,NO2,10,48,24
India,Maharashtra,Mumbai,"Kherwadi_Bandra East, Mumbai - MPCB",22-06-2024 21:00:00,19.0632143,72.8456324,OZONE,2,32,16
India,Maharashtra,Mumbai,"Khindipada-Bhandup West, Mumbai - IITM",22-06-2024 21:00:00,19.1653323,72.922099,PM10,5,39,19
India,Maharashtra,Mumbai,"Kurla, Mumbai - MPCB",22-06-2024 21:00:00,19.0863,72.8888,NO2,10,13,11
India,Maharashtra,Mumbai,"Kurla, Mumbai - MPCB",22-06-2024 21:00:00,19.0863,72.8888,CO,6,36,18
India,Maharashtra,Mumbai,"Kurla, Mumbai - MPCB",22-06-2024 21:00:00,19.0863,72.8888,OZONE,28,29,28
India,Maharashtra,Mumbai,"Mindspace-Malad West, Mumbai - MPCB",22-06-2024 21:00:00,19.1878657,72.8304069,OZONE,8,30,20
India,Maharashtra,Mumbai,"Navy Nagar-Colaba, Mumbai - IITM",22-06-2024 21:00:00,18.897756,72.813320,PM10,NA,NA,NA
India,Maharashtra,Mumbai,"Powai, Mumbai - MPCB",22-06-2024 21:00:00,19.137500,72.915056,NO2,11,18,14
India,Maharashtra,Mumbai,"Powai, Mumbai - MPCB",22-06-2024 21:00:00,19.137500,72.915056,NH3,2,3,3
India,Maharashtra,Mumbai,"Powai, Mumbai - MPCB",22-06-2024 21:00:00,19.137500,72.915056,CO,40,48,44
India,Maharashtra,Mumbai,"Powai, Mumbai - MPCB",22-06-2024 21:00:00,19.137500,72.915056,OZONE,5,6,5
India,Maharashtra,Mumbai,"Sewri, Mumbai - BMC",22-06-2024 21:00:00,19.000084,72.856730,OZONE,4,83,24
India,Maharashtra,Mumbai,"Siddharth Nagar-Worli, Mumbai - IITM",22-06-2024 21:00:00,19.000083,72.813993,PM10,37,68,53
India,Maharashtra,Mumbai,"Siddharth Nagar-Worli, Mumbai - IITM",22-06-2024 21:00:00,19.000083,72.813993,CO,38,84,53
India,Maharashtra,Mumbai,"Sion, Mumbai - MPCB",22-06-2024 21:00:00,19.047000,72.874600,NH3,8,15,10
India,Maharashtra,Mumbai,"Sion, Mumbai - MPCB",22-06-2024 21:00:00,19.047000,72.874600,SO2,23,26,25
India,Maharashtra,Mumbai,"Vasai West, Mumbai - MPCB",22-06-2024 21:00:00,19.383200,72.820400,NO2,25,29,27
India,Maharashtra,Mumbai,"Vile Parle West, Mumbai - MPCB",22-06-2024 21:00:00,19.10861,72.83622,SO2,14,15,15
India,Maharashtra,Mumbai,"Vile Parle West, Mumbai - MPCB",22-06-2024 21:00:00,19.10861,72.83622,OZONE,11,14,13
India,Maharashtra,Mumbai,"Worli, Mumbai - MPCB",22-06-2024 21:00:00,18.9936162,72.8128113,CO,24,26,25
India,Maharashtra,Nagpur,"Ambazari, Nagpur - MPCB",22-06-2024 21:00:00,21.121801,79.04952,PM2.5,14,52,27
India,Maharashtra,Nagpur,"Ambazari, Nagpur - MPCB",22-06-2024 21:00:00,21.121801,79.04952,NH3,2,10,3
India,Maharashtra,Nagpur,"Opp GPO Civil Lines, Nagpur - MPCB",22-06-2024 21:00:00,21.152875,79.0517531,PM2.5,14,64,30
India,Maharashtra,Nagpur,"Ram Nagar, Nagpur - MPCB",22-06-2024 21:00:00,21.143383,79.048912,PM2.5,15,41,25
India,Maharashtra,Nashik,"Gangapur Road, Nashik - MPCB",22-06-2024 21:00:00,20.0073285,73.7762427,NO2,6,12,9
India,Maharashtra,Nashik,"Gangapur Road, Nashik - MPCB",22-06-2024 21:00:00,20.0073285,73.7762427,SO2,5,16,11
India,Maharashtra,Nashik,"Gangapur Road, Nashik - MPCB",22-06-2024 21:00:00,20.0073285,73.7762427,OZONE,7,46,38
India,Maharashtra,Nashik,"MIDC Ambad, Nashik - MPCB",22-06-2024 21:00:00,19.950220,73.731480,OZONE,17,40,36
India,Maharashtra,Nashik,"Pandav Nagari, Nashik - MPCB",22-06-2024 21:00:00,19.9591346,73.7788008,NH3,3,8,5
India,Maharashtra,Nashik,"Pandav Nagari, Nashik - MPCB",22-06-2024 21:00:00,19.9591346,73.7788008,CO,9,15,13
India,Maharashtra,Navi Mumbai,"Kopripada-Vashi, Navi Mumbai - MPCB",22-06-2024 21:00:00,19.090337,73.014232,PM2.5,14,49,28
India,Maharashtra,Navi Mumbai,"Kopripada-Vashi, Navi Mumbai - MPCB",22-06-2024 21:00:00,19.090337,73.014232,NH3,5,15,9
India,Maharashtra,Navi Mumbai,"Mahape, Navi Mumbai - MPCB",22-06-2024 21:00:00,19.1135051,73.008978,PM10,26,103,53
India,Maharashtra,Navi Mumbai,"Nerul, Navi Mumbai - MPCB",22-06-2024 21:00:00,19.008751,73.016620,PM2.5,16,67,28
India,Maharashtra,Navi Mumbai,"Nerul, Navi Mumbai - MPCB",22-06-2024 21:00:00,19.008751,73.016620,NO2,29,43,35
India,Maharashtra,Navi Mumbai,"Nerul, Navi Mumbai - MPCB",22-06-2024 21:00:00,19.008751,73.016620,NH3,5,7,5
India,Maharashtra,Navi Mumbai,"Sanpada, Navi Mumbai - MPCB",22-06-2024 21:00:00,19.0575752,73.0151367,NO2,16,62,29
India,Maharashtra,Navi Mumbai,"Sanpada, Navi Mumbai - MPCB",22-06-2024 21:00:00,19.0575752,73.0151367,CO,8,38,14
India,Maharashtra,Navi Mumbai,"Sector-2E Kalamboli, Navi Mumbai - MPCB",22-06-2024 21:00:00,19.02579,73.10297,NO2,14,56,27
India,Maharashtra,Navi Mumbai,"Sector-2E Kalamboli, Navi Mumbai - MPCB",22-06-2024 21:00:00,19.02579,73.10297,NH3,1,2,1
India,Maharashtra,Navi Mumbai,"Tondare-Taloja, Navi Mumbai - MPCB",22-06-2024 21:00:00,19.0630,73.1209,NH3,1,10,5
India,Maharashtra,Pimpri-Chinchwad,"Gavalinagar, Pimpri Chinchwad - MPCB",22-06-2024 21:00:00,18.63673,73.82487,PM10,26,54,37
India,Maharashtra,Pune,"Alandi, Pune - IITM",22-06-2024 21:00:00,18.675076,73.892743,PM10,11,67,38
India,Maharashtra,Pune,"Alandi, Pune - IITM",22-06-2024 21:00:00,18.675076,73.892743,OZONE,24,92,68
India,Maharashtra,Pune,"Bhosari, Pune - IITM",22-06-2024 21:00:00,18.640051,73.848956,PM10,12,75,39
India,Maharashtra,Pune,"Hadapsar, Pune - IITM",22-06-2024 21:00:00,18.501793,73.927532,PM10,24,104,63
India,Maharashtra,Pune,"Karve Road, Pune - MPCB",22-06-2024 21:00:00,18.5011743,73.8165527,PM10,2,105,47
India,Maharashtra,Pune,"Karve Road, Pune - MPCB",22-06-2024 21:00:00,18.5011743,73.8165527,SO2,2,17,8
India,Maharashtra,Pune,"Savitribai Phule Pune University, Pune - MPCB",22-06-2024 21:00:00,18.547056,73.826908,PM10,30,83,60
India,Maharashtra,Pune,"Savitribai Phule Pune University, Pune - MPCB",22-06-2024 21:00:00,18.547056,73.826908,NO2,15,22,18
India,Maharashtra,Pune,"Transport Nagar-Nigdi, Pune - IITM",22-06-2024 21:00:00,18.664282,73.763966,NO2,20,23,21
India,Maharashtra,Pune,"Transport Nagar-Nigdi, Pune - IITM",22-06-2024 21:00:00,18.664282,73.763966,CO,10,41,20
India,Maharashtra,Sangli,"Vijay Nagar, Sangli - MPCB",22-06-2024 21:00:00, 16.5038,74.3623,PM2.5,15,32,21
India,Maharashtra,Sangli,"Vijay Nagar, Sangli - MPCB",22-06-2024 21:00:00, 16.5038,74.3623,SO2,10,16,13
India,Maharashtra,Sangli,"Vijay Nagar, Sangli - MPCB",22-06-2024 21:00:00, 16.5038,74.3623,OZONE,4,38,31
India,Maharashtra,Solapur,"Ratandeep Housing Society, Solapur - MPCB",22-06-2024 21:00:00,17.65439,75.90649,NO2,1,8,3
India,Maharashtra,Solapur,"Solapur, Solapur - MPCB",22-06-2024 21:00:00,17.6599188,75.9063906,PM2.5,33,65,52
India,Maharashtra,Solapur,"Solapur, Solapur - MPCB",22-06-2024 21:00:00,17.6599188,75.9063906,PM10,60,94,80
India,Maharashtra,Solapur,"Solapur, Solapur - MPCB",22-06-2024 21:00:00,17.6599188,75.9063906,NO2,55,55,55
India,Maharashtra,Thane,"Kasarvadavali, Thane - MPCB",22-06-2024 21:00:00,19.26777,72.97182,SO2,4,6,5
India,Maharashtra,Thane,"Kasarvadavali, Thane - MPCB",22-06-2024 21:00:00,19.26777,72.97182,CO,8,22,17
India,Maharashtra,Thane,"Pimpleshwar Mandir, Thane - MPCB",22-06-2024 21:00:00,19.192056,72.9585188,SO2,NA,NA,NA
India,Maharashtra,Thane,"Upvan Fort, Thane - MPCB",22-06-2024 21:00:00,19.222279,72.957979,NH3,NA,NA,NA
India,Maharashtra,Ulhasnagar,"Sidhi Vinayak Nagar, Ulhasnagar - MPCB",22-06-2024 21:00:00,19.235581,73.159121,SO2,6,13,9
India,Maharashtra,Ulhasnagar,"Sidhi Vinayak Nagar, Ulhasnagar - MPCB",22-06-2024 21:00:00,19.235581,73.159121,OZONE,6,49,28
India,Manipur,Imphal,"DM College of Science, Imphal - Manipur PCB",22-06-2024 21:00:00,24.8207389,93.9423085,CO,NA,NA,NA
India,Manipur,Imphal,"Manipur University, Imphal - Manipur PCB",22-06-2024 21:00:00,24.7524239,93.9286218,OZONE,1,6,4
India,Meghalaya,Shillong,"Lumpyngngad, Shillong - Meghalaya PCB",22-06-2024 21:00:00,25.5586,91.8985,SO2,36,36,36
India,Meghalaya,Shillong,"Lumpyngngad, Shillong - Meghalaya PCB",22-06-2024 21:00:00,25.5586,91.8985,CO,2,19,10
India,Mizoram,Aizawl,"Sikulpuikawn, Aizawl - Mizoram PCB",22-06-2024 21:00:00,23.7176342,92.7192841,SO2,2,3,3
India,Nagaland,Kohima,"PWD Juction, Kohima - NPCB",22-06-2024 21:00:00,25.6635413,94.0989878,PM10,26,96,58
India,Nagaland,Kohima,"PWD Juction, Kohima - NPCB",22-06-2024 21:00:00,25.6635413,94.0989878,NO2,3,7,3
India,Odisha,Angul,"Hakimapada, Angul - OSPCB",22-06-2024 21:00:00,20.832874,85.104082,SO2,3,113,28
India,Odisha,Balasore,"Kalidaspur, Balasore - OSPCB",22-06-2024 21:00:00,21.51161,86.89088,PM10,22,73,49
India,Odisha,Balasore,"Kalidaspur, Balasore - OSPCB",22-06-2024 21:00:00,21.51161,86.89088,SO2,14,21,15
India,Odisha,Baripada,"Meher Colony, Baripada - OSPCB",22-06-2024 21:00:00,21.941841,86.728318,OZONE,54,116,97
India,Odisha,Bhubaneswar,"Lingraj Mandir, Bhubaneswar - OSPCB",22-06-2024 21:00:00,20.240790,85.836784,NH3,NA,NA,NA
India,Odisha,Bhubaneswar,"Lingraj Mandir, Bhubaneswar - OSPCB",22-06-2024 21:00:00,20.240790,85.836784,OZONE,12,51,33
India,Odisha,Bhubaneswar,"Patia, Bhubaneswar - OSPCB",22-06-2024 21:00:00,20.34652,85.81630,PM2.5,5,38,17
India,Odisha,Bhubaneswar,"Patia, Bhubaneswar - OSPCB",22-06-2024 21:00:00,20.34652,85.81630,PM10,10,452,50
India,Odisha,Brajrajnagar,"GM Office, Brajrajnagar - OSPCB",22-06-2024 21:00:00,21.8004996,83.8396977,NH3,16,18,16
India,Odisha,Brajrajnagar,"GM Office, Brajrajnagar - OSPCB",22-06-2024 21:00:00,21.8004996,83.8396977,OZONE,4,272,272
India,Odisha,Byasanagar,"Ferro Chrome Colony, Byasanagar - OSPCB",22-06-2024 21:00:00,20.94185,86.11510,PM2.5,3,45,23
India,Odisha,Cuttack,"CDA Area, Cuttack - OSPCB",22-06-2024 21:00:00,20.48891     ,85.84768     ,NO2,6,28,15
India,Odisha,Cuttack,"CDA Area, Cuttack - OSPCB",22-06-2024 21:00:00,20.48891     ,85.84768     ,OZONE,8,47,33
India,Odisha,Keonjhar,"Jagamohanpur, Keonjhar - OSPCB",22-06-2024 21:00:00,21.643900,85.599355,SO2,NA,NA,NA
India,Odisha,Rairangpur,"Divisional Forest Office, Rairangpur - OSPCB",22-06-2024 21:00:00,22.265816,86.174829,PM2.5,12,45,31
India,Odisha,Rairangpur,"Divisional Forest Office, Rairangpur - OSPCB",22-06-2024 21:00:00,22.265816,86.174829,PM10,20,79,47
India,Odisha,Rairangpur,"Divisional Forest Office, Rairangpur - OSPCB",22-06-2024 21:00:00,22.265816,86.174829,SO2,15,15,15
India,Odisha,Rairangpur,"Divisional Forest Office, Rairangpur - OSPCB",22-06-2024 21:00:00,22.265816,86.174829,OZONE,6,24,16
India,Odisha,Rourkela,"Fertilizer Township, Rourkela - OSPCB",22-06-2024 21:00:00,22.18972222,84.86277778,NO2,NA,NA,NA
India,Odisha,Rourkela,"Sector-2, Rourkela - OSPCB",22-06-2024 21:00:00,22.24500000,84.88111111,CO,13,38,18
India,Odisha,Suakati,"OMC Colony, Suakati - OSPCB",22-06-2024 21:00:00,21.606865,85.510538,PM2.5,33,63,49
India,Odisha,Suakati,"OMC Colony, Suakati - OSPCB",22-06-2024 21:00:00,21.606865,85.510538,CO,12,16,12
India,Odisha,Tensa,"Barsua Iron Ore Mines, Tensa - OSPCB",22-06-2024 21:00:00,21.869985,85.167016,NO2,28,43,33
India,Odisha,Tensa,"Barsua Iron Ore Mines, Tensa - OSPCB",22-06-2024 21:00:00,21.869985,85.167016,NH3,3,3,3
India,Puducherry,Puducherry,"Jawahar Nagar, Puducherry - PPCC",22-06-2024 21:00:00,11.9309,79.8027,NO2,6,38,13
India,Punjab,Amritsar,"Golden Temple, Amritsar - PPCB",22-06-2024 21:00:00,31.620000,74.876512,PM2.5,80,210,150
India,Punjab,Amritsar,"Golden Temple, Amritsar - PPCB",22-06-2024 21:00:00,31.620000,74.876512,OZONE,42,60,51
India,Punjab,Bathinda,"Hardev Nagar, Bathinda - PPCB",22-06-2024 21:00:00,30.233011,74.907758,CO,2,125,36
India,Punjab,Khanna,"Kalal Majra, Khanna - PPCB",22-06-2024 21:00:00,30.736056 ,76.209694,PM10,50,129,110
India,Punjab,Khanna,"Kalal Majra, Khanna - PPCB",22-06-2024 21:00:00,30.736056 ,76.209694,NO2,32,32,32
India,Punjab,Khanna,"Kalal Majra, Khanna - PPCB",22-06-2024 21:00:00,30.736056 ,76.209694,SO2,7,31,11
India,Punjab,Khanna,"Kalal Majra, Khanna - PPCB",22-06-2024 21:00:00,30.736056 ,76.209694,CO,34,46,37
India,Punjab,Ludhiana,"Punjab Agricultural University, Ludhiana - PPCB",22-06-2024 21:00:00,30.9028,75.8086,NH3,4,28,7
India,Punjab,Ludhiana,"Punjab Agricultural University, Ludhiana - PPCB",22-06-2024 21:00:00,30.9028,75.8086,SO2,7,11,10
India,Punjab,Patiala,"Model Town, Patiala - PPCB",22-06-2024 21:00:00,30.349388,76.366642,SO2,19,68,30
India,Punjab,Patiala,"Model Town, Patiala - PPCB",22-06-2024 21:00:00,30.349388,76.366642,OZONE,24,86,72
India,Punjab,Rupnagar,"Ratanpura, Rupnagar - Ambuja Cements",22-06-2024 21:00:00,31.0325454,76.5623046,PM2.5,19,48,33
India,Punjab,Rupnagar,"Ratanpura, Rupnagar - Ambuja Cements",22-06-2024 21:00:00,31.0325454,76.5623046,NO2,1,3,2
India,Rajasthan,Alwar,"Moti Doongri, Alwar - RSPCB",22-06-2024 21:00:00,27.554793,76.611536,PM10,NA,NA,NA
India,Rajasthan,Banswara,"Rati Talai, Banswara - RSPCB",22-06-2024 21:00:00,23.555190,74.440010,PM2.5,13,132,67
India,Rajasthan,Banswara,"Rati Talai, Banswara - RSPCB",22-06-2024 21:00:00,23.555190,74.440010,SO2,10,13,11
India,Rajasthan,Baran,"Bamboliya, Baran - RSPCB",22-06-2024 21:00:00,25.106006,76.469948,PM10,24,92,57
India,Rajasthan,Baran,"Bamboliya, Baran - RSPCB",22-06-2024 21:00:00,25.106006,76.469948,NH3,3,7,5
India,Rajasthan,Baran,"Bamboliya, Baran - RSPCB",22-06-2024 21:00:00,25.106006,76.469948,CO,16,36,21
India,Rajasthan,Barmer,"Railway Colony, Barmer - RSPCB",22-06-2024 21:00:00,25.747299,71.393989,SO2,NA,NA,NA
India,Rajasthan,Bharatpur,"Krishna Nagar, Bharatpur - RSPCB",22-06-2024 21:00:00,27.215415,77.50873,CO,12,59,41
India,Rajasthan,Bhilwara,"Pratap Nagar, Bhilwara - RSPCB",22-06-2024 21:00:00,25.339605,74.618883,PM10,31,105,62
India,Rajasthan,Bhiwadi,"RIICO Ind. Area III, Bhiwadi - RSPCB",22-06-2024 21:00:00,28.194909,76.862296,SO2,2,29,13
India,Rajasthan,Bundi,"New Colony, Bundi - RSPCB",22-06-2024 21:00:00,25.435774,75.644272,OZONE,5,90,75
India,Rajasthan,Churu,"Subash Chowk, Churu - RSPCB",22-06-2024 21:00:00,28.296139,74.961696,SO2,4,5,4
India,Rajasthan,Dausa,"Khatikan Mohalla, Dausa - RSPCB",22-06-2024 21:00:00,26.895552,76.334753,PM10,26,132,84
India,Rajasthan,Dholpur,"Raja Ganj, Dholpur - RSPCB",22-06-2024 21:00:00,26.699557,77.898881,CO,8,20,14
India,Rajasthan,Dungarpur,"Bhoiwada, Dungarpur - RSPCB",22-06-2024 21:00:00,23.837789,73.714926,PM10,42,114,79
India,Rajasthan,Dungarpur,"Bhoiwada, Dungarpur - RSPCB",22-06-2024 21:00:00,23.837789,73.714926,CO,3,53,31
India,Rajasthan,Hanumangarh,"Housing Board, Hanumangarh - RSPCB",22-06-2024 21:00:00,29.610750,74.283608,PM10,62,180,104
India,Rajasthan,Jaipur,"Adarsh Nagar, Jaipur - RSPCB",22-06-2024 21:00:00,26.902909,75.836858,PM2.5,46,143,72
India,Rajasthan,Jaipur,"Mansarovar Sector-12, Jaipur - RSPCB",22-06-2024 21:00:00,26.843698,75.766894,CO,12,41,18
India,Rajasthan,Jaipur,"Police Commissionerate, Jaipur - RSPCB",22-06-2024 21:00:00,26.9164092,75.7994901,PM10,50,145,90
India,Rajasthan,Jaipur,"RIICO Sitapura, Jaipur - RSPCB",22-06-2024 21:00:00,26.786682,75.827928,PM2.5,17,77,40
India,Rajasthan,Jaipur,"Sector-2 Murlipura, Jaipur - RSPCB",22-06-2024 21:00:00,26.960669,75.771817,PM2.5,16,123,43
India,Rajasthan,Jaipur,"Sector-2 Murlipura, Jaipur - RSPCB",22-06-2024 21:00:00,26.960669,75.771817,PM10,20,126,72
India,Rajasthan,Jaipur,"Sector-2 Murlipura, Jaipur - RSPCB",22-06-2024 21:00:00,26.960669,75.771817,OZONE,3,138,102
India,Rajasthan,Jaisalmer,"Sadar Bazar, Jaisalmer - RSPCB",22-06-2024 21:00:00,26.912329,70.909168,SO2,3,4,4
India,Rajasthan,Jaisalmer,"Sadar Bazar, Jaisalmer - RSPCB",22-06-2024 21:00:00,26.912329,70.909168,OZONE,36,80,67
India,Rajasthan,Jalore,"Mudtra Sili, Jalore - RSPCB",22-06-2024 21:00:00,25.344694,72.626208,NH3,2,9,4
India,Rajasthan,Jhalawar,"Rajlaxmi Nagar, Jhalawar - RSPCB",22-06-2024 21:00:00,24.588397,76.172782,CO,23,40,31
India,Rajasthan,Jhunjhunu,"Indra Nagar, Jhunjhunu - RSPCB",22-06-2024 21:00:00,28.108988,75.386577,NO2,22,76,33
India,Rajasthan,Jhunjhunu,"Indra Nagar, Jhunjhunu - RSPCB",22-06-2024 21:00:00,28.108988,75.386577,SO2,2,4,3
India,Rajasthan,Jhunjhunu,"Indra Nagar, Jhunjhunu - RSPCB",22-06-2024 21:00:00,28.108988,75.386577,OZONE,6,141,125
India,Rajasthan,Jodhpur,"Collectorate, Jodhpur - RSPCB",22-06-2024 21:00:00,26.268249,73.0193853,OZONE,20,67,54
India,Rajasthan,Jodhpur,"Jhalamand, Jodhpur - RSPCB",22-06-2024 21:00:00,26.215415,73.070156,CO,18,28,23
India,Rajasthan,Jodhpur,"Jhalamand, Jodhpur - RSPCB",22-06-2024 21:00:00,26.215415,73.070156,OZONE,75,124,107
India,Rajasthan,Jodhpur,"Mandor, Jodhpur - RSPCB",22-06-2024 21:00:00,26.358805,73.047444,PM2.5,24,56,37
India,Rajasthan,Jodhpur,"Mandor, Jodhpur - RSPCB",22-06-2024 21:00:00,26.358805,73.047444,OZONE,54,76,70
India,Rajasthan,Jodhpur,"Samrat Ashok Udhyan, Jodhpur - RSPCB",22-06-2024 21:00:00,26.253384,72.976571,PM10,42,325,132
India,Rajasthan,Jodhpur,"Samrat Ashok Udhyan, Jodhpur - RSPCB",22-06-2024 21:00:00,26.253384,72.976571,NO2,2,15,6
India,Rajasthan,Karauli,"Satyawati Vihar, Karauli - RSPCB",22-06-2024 21:00:00,26.506177,77.025989,PM10,19,125,53
India,Rajasthan,Karauli,"Satyawati Vihar, Karauli - RSPCB",22-06-2024 21:00:00,26.506177,77.025989,CO,1,21,3
India,Rajasthan,Kota,"Dhanmandi, Kota - RSPCB",22-06-2024 21:00:00,25.164090,75.858137,NO2,15,116,42
India,Rajasthan,Kota,"Nayapura, Kota - RSPCB",22-06-2024 21:00:00,25.196024,75.855668,CO,14,94,36
India,Rajasthan,Kota,"Shrinath Puram, Kota - RSPCB",22-06-2024 21:00:00,25.14389,75.821256,PM2.5,23,98,56
India,Rajasthan,Kota,"Shrinath Puram, Kota - RSPCB",22-06-2024 21:00:00,25.14389,75.821256,PM10,42,113,72
India,Rajasthan,Kota,"Shrinath Puram, Kota - RSPCB",22-06-2024 21:00:00,25.14389,75.821256,CO,5,101,45
India,Rajasthan,Nagaur,"Karni Colony, Nagaur - RSPCB",22-06-2024 21:00:00,27.213494,73.734444,NO2,NA,NA,NA
India,Rajasthan,Nagaur,"Karni Colony, Nagaur - RSPCB",22-06-2024 21:00:00,27.213494,73.734444,NH3,NA,NA,NA
India,Rajasthan,Nagaur,"Karni Colony, Nagaur - RSPCB",22-06-2024 21:00:00,27.213494,73.734444,SO2,NA,NA,NA
India,Rajasthan,Sawai Madhopur,"Sahu Nagar, Sawai Madhopur - RSPCB",22-06-2024 21:00:00,26.031443,76.359327,PM2.5,12,53,24
India,Rajasthan,Sawai Madhopur,"Sahu Nagar, Sawai Madhopur - RSPCB",22-06-2024 21:00:00,26.031443,76.359327,PM10,17,111,44
India,Rajasthan,Sikar,"Radhakishan Pura, Sikar - RSPCB",22-06-2024 21:00:00,27.608912,75.153302,PM2.5,27,77,48
India,Rajasthan,Sirohi,"Vedhaynath Colony, Sirohi - RSPCB",22-06-2024 21:00:00,24.885261,72.857549,SO2,2,7,5
India,Rajasthan,Sirohi,"Vedhaynath Colony, Sirohi - RSPCB",22-06-2024 21:00:00,24.885261,72.857549,CO,9,36,32
India,Rajasthan,Sri Ganganagar,"Old City, Sri Ganganagar - RSPCB",22-06-2024 21:00:00,29.931624,73.864511,OZONE,5,61,50
India,Rajasthan,Tonk,"Shastri Nagar, Tonk - RSPCB",22-06-2024 21:00:00,26.159933,75.780517,SO2,1,3,2
India,Rajasthan,Tonk,"Shastri Nagar, Tonk - RSPCB",22-06-2024 21:00:00,26.159933,75.780517,CO,13,25,20
India,Rajasthan,Tonk,"Shastri Nagar, Tonk - RSPCB",22-06-2024 21:00:00,26.159933,75.780517,OZONE,8,82,67
India,Rajasthan,Udaipur,"Ashok Nagar, Udaipur - RSPCB",22-06-2024 21:00:00,24.5886166,73.6321397,SO2,2,18,8
India,Sikkim,Gangtok,"Zero Point GICI, Gangtok - SSPCB",22-06-2024 21:00:00,27.338530,88.614099,NO2,NA,NA,NA
India,Sikkim,Gangtok,"Zero Point GICI, Gangtok - SSPCB",22-06-2024 21:00:00,27.338530,88.614099,OZONE,19,54,35
India,TamilNadu,Ariyalur,"Keelapalur, Ariyalur - TNPCB",22-06-2024 21:00:00,11.06825,79.07033,NH3,1,2,1
India,TamilNadu,Chennai,"Kodungaiyur, Chennai - TNPCB",22-06-2024 21:00:00,13.1278,80.2642,OZONE,26,52,46
India,TamilNadu,Chennai,"Manali, Chennai - CPCB",22-06-2024 21:00:00,13.164544,80.26285,OZONE,6,13,7
India,TamilNadu,Chennai,"Perungudi, Chennai - TNPCB",22-06-2024 21:00:00,12.9533,80.2357,NH3,3,4,4
India,TamilNadu,Chennai,"Perungudi, Chennai - TNPCB",22-06-2024 21:00:00,12.9533,80.2357,SO2,2,10,6
India,TamilNadu,Chennai,"Velachery Res. Area, Chennai - CPCB",22-06-2024 21:00:00,13.0052189,80.2398125,NH3,13,18,16
India,TamilNadu,Chennai,"Velachery Res. Area, Chennai - CPCB",22-06-2024 21:00:00,13.0052189,80.2398125,CO,55,56,55
India,TamilNadu,Cuddalore,"Kudikadu, Cuddalore - TNPCB",22-06-2024 21:00:00,11.6829898,79.7532099,SO2,10,11,11
India,TamilNadu,Cuddalore,"Semmandalam, Cuddalore - TNPCB",22-06-2024 21:00:00,11.7637683,79.7499835,OZONE,1,1,1
India,TamilNadu,Gummidipoondi,"Anthoni Pillai Nagar, Gummidipoondi - TNPCB",22-06-2024 21:00:00,13.4127,80.1081,NH3,1,3,2
India,TamilNadu,Ooty,"Bombay Castel, Ooty - TNPCB",22-06-2024 21:00:00,11.4068288,76.7138973,SO2,NA,NA,NA
India,TamilNadu,Ramanathapuram,"Chalai Bazaar, Ramanathapuram - TNPCB",22-06-2024 21:00:00,9.36399,78.831977,PM10,12,31,22
India,TamilNadu,Virudhunagar,"Collectorate Office, Virudhunagar - TNPCB",22-06-2024 21:00:00,9.559382,77.948828,OZONE,6,6,6
India,Telangana,Hyderabad,"Bollaram Industrial Area, Hyderabad - TSPCB",22-06-2024 21:00:00,17.540891,78.358528,PM2.5,23,67,39
India,Telangana,Hyderabad,"Bollaram Industrial Area, Hyderabad - TSPCB",22-06-2024 21:00:00,17.540891,78.358528,CO,2,95,38
India,Telangana,Hyderabad,"Central University, Hyderabad - TSPCB",22-06-2024 21:00:00,17.460103,78.334361,PM10,23,72,45
India,Telangana,Hyderabad,"Central University, Hyderabad - TSPCB",22-06-2024 21:00:00,17.460103,78.334361,NO2,10,28,21
India,Telangana,Hyderabad,"ICRISAT Patancheru, Hyderabad - TSPCB",22-06-2024 21:00:00,17.518400,78.278777,PM2.5,3,32,16
India,Telangana,Hyderabad,"ICRISAT Patancheru, Hyderabad - TSPCB",22-06-2024 21:00:00,17.518400,78.278777,CO,2,52,15
India,Telangana,Hyderabad,"IITH Kandi, Hyderabad - TSPCB",22-06-2024 21:00:00,17.585705,78.126199,NH3,6,8,6
India,Telangana,Hyderabad,"IITH Kandi, Hyderabad - TSPCB",22-06-2024 21:00:00,17.585705,78.126199,OZONE,25,41,30
India,Telangana,Hyderabad,"Kokapet, Hyderabad - TSPCB",22-06-2024 21:00:00,17.393559,78.339194,PM2.5,52,94,72
India,Telangana,Hyderabad,"New Malakpet, Hyderabad - TSPCB",22-06-2024 21:00:00,17.37206,78.50864,NO2,13,22,16
India,Telangana,Hyderabad,"New Malakpet, Hyderabad - TSPCB",22-06-2024 21:00:00,17.37206,78.50864,NH3,2,3,2
India,Uttar_Pradesh,Agra,"Manoharpur, Agra - UPPCB",22-06-2024 21:00:00,27.23711,78.01936,PM2.5,29,70,43
India,Uttar_Pradesh,Agra,"Rohta, Agra - UPPCB",22-06-2024 21:00:00,27.106972,78.000111,NH3,2,2,2
India,Uttar_Pradesh,Agra,"Sanjay Palace, Agra - UPPCB",22-06-2024 21:00:00,27.19865833,78.00598056,PM10,9,99,39
India,Uttar_Pradesh,Agra,"Sanjay Palace, Agra - UPPCB",22-06-2024 21:00:00,27.19865833,78.00598056,NO2,1,7,3
India,Uttar_Pradesh,Agra,"Sector-3B Avas Vikas Colony, Agra - UPPCB",22-06-2024 21:00:00,27.19412,77.96237,NH3,11,14,12
India,Uttar_Pradesh,Agra,"Shahjahan Garden, Agra - UPPCB",22-06-2024 21:00:00,27.169338,78.03582,NO2,19,32,20
India,Uttar_Pradesh,Agra,"Shahjahan Garden, Agra - UPPCB",22-06-2024 21:00:00,27.169338,78.03582,OZONE,1,193,4
India,Uttar_Pradesh,Agra,"Shastripuram, Agra - UPPCB",22-06-2024 21:00:00,27.19862,77.92066,SO2,14,14,14
India,Uttar_Pradesh,Firozabad,"Vibhab Nagar, Firozabad - UPPCB",22-06-2024 21:00:00,27.1594,78.3953,PM2.5,NA,NA,NA
India,Uttar_Pradesh,Firozabad,"Vibhab Nagar, Firozabad - UPPCB",22-06-2024 21:00:00,27.1594,78.3953,CO,16,20,19
India,Uttar_Pradesh,Ghaziabad,"Indirapuram, Ghaziabad - UPPCB",22-06-2024 21:00:00,28.646233,77.358075,CO,10,98,41
India,Uttar_Pradesh,Ghaziabad,"Loni, Ghaziabad - UPPCB",22-06-2024 21:00:00,28.757294,77.278792,PM2.5,110,420,254
India,Uttar_Pradesh,Ghaziabad,"Loni, Ghaziabad - UPPCB",22-06-2024 21:00:00,28.757294,77.278792,NH3,1,9,4
India,Uttar_Pradesh,Ghaziabad,"Sanjay Nagar, Ghaziabad - UPPCB",22-06-2024 21:00:00,28.685382,77.453839,PM2.5,50,314,107
India,Uttar_Pradesh,Ghaziabad,"Sanjay Nagar, Ghaziabad - UPPCB",22-06-2024 21:00:00,28.685382,77.453839,PM10,94,317,144
India,Uttar_Pradesh,Greater Noida,"Knowledge Park - V, Greater Noida - UPPCB",22-06-2024 21:00:00,28.557054,77.453663,NO2,16,44,25
India,Uttar_Pradesh,Greater Noida,"Knowledge Park - V, Greater Noida - UPPCB",22-06-2024 21:00:00,28.557054,77.453663,OZONE,2,232,149
India,Uttar_Pradesh,Hapur,"Anand Vihar, Hapur - UPPCB",22-06-2024 21:00:00,28.725645,77.749675,CO,28,66,37
India,Uttar_Pradesh,Jhansi,"Shivaji Nagar, Jhansi - UPPCB",22-06-2024 21:00:00,25.4547,78.6039,PM2.5,29,72,51
India,Uttar_Pradesh,Jhansi,"Shivaji Nagar, Jhansi - UPPCB",22-06-2024 21:00:00,25.4547,78.6039,SO2,18,22,20
India,Uttar_Pradesh,Kanpur,"NSI Kalyanpur, Kanpur - UPPCB",22-06-2024 21:00:00,26.509954,80.249612,PM10,NA,NA,NA
India,Uttar_Pradesh,Kanpur,"NSI Kalyanpur, Kanpur - UPPCB",22-06-2024 21:00:00,26.509954,80.249612,NO2,13,17,16
India,Uttar_Pradesh,Kanpur,"NSI Kalyanpur, Kanpur - UPPCB",22-06-2024 21:00:00,26.509954,80.249612,SO2,17,28,21
India,Uttar_Pradesh,Kanpur,"NSI Kalyanpur, Kanpur - UPPCB",22-06-2024 21:00:00,26.509954,80.249612,CO,34,44,37
India,Uttar_Pradesh,Kanpur,"NSI Kalyanpur, Kanpur - UPPCB",22-06-2024 21:00:00,26.509954,80.249612,OZONE,6,43,31
India,Uttar_Pradesh,Kanpur,"Nehru Nagar, Kanpur - UPPCB",22-06-2024 21:00:00,26.4703136,80.3229863,PM10,38,74,51
India,Uttar_Pradesh,Khurja,"Kalindi Kunj, Khurja - UPPCB",22-06-2024 21:00:00,28.2348927,77.8683002,NH3,1,2,1
India,Uttar_Pradesh,Lucknow,"B R Ambedkar University, Lucknow - UPPCB",22-06-2024 21:00:00,26.766433,80.927299,PM10,37,100,67
India,Uttar_Pradesh,Lucknow,"B R Ambedkar University, Lucknow - UPPCB",22-06-2024 21:00:00,26.766433,80.927299,SO2,14,14,14
India,Uttar_Pradesh,Lucknow,"Gomti Nagar, Lucknow - UPPCB",22-06-2024 21:00:00,26.868120,81.005119,NO2,10,11,10
India,Uttar_Pradesh,Lucknow,"Kendriya Vidyalaya, Lucknow - CPCB",22-06-2024 21:00:00,26.906111,80.948222,NH3,3,17,12
India,Uttar_Pradesh,Lucknow,"Kukrail Picnic Spot-1, Lucknow - UPPCB",22-06-2024 21:00:00,26.90723,80.98579,PM10,19,71,40
India,Uttar_Pradesh,Lucknow,"Kukrail Picnic Spot-1, Lucknow - UPPCB",22-06-2024 21:00:00,26.90723,80.98579,NH3,2,2,2
India,Uttar_Pradesh,Lucknow,"Kukrail Picnic Spot-1, Lucknow - UPPCB",22-06-2024 21:00:00,26.90723,80.98579,OZONE,18,30,27
India,Uttar_Pradesh,Lucknow,"Lalbagh, Lucknow - CPCB",22-06-2024 21:00:00,26.8458805,80.9365541,NH3,24,32,28
India,Uttar_Pradesh,Meerut,"Ganga Nagar, Meerut - UPPCB",22-06-2024 21:00:00,28.999264,77.7590354,PM2.5,30,120,59
India,Uttar_Pradesh,Meerut,"Ganga Nagar, Meerut - UPPCB",22-06-2024 21:00:00,28.999264,77.7590354,PM10,62,162,107
India,Uttar_Pradesh,Meerut,"Pallavpuram Phase 2, Meerut - UPPCB",22-06-2024 21:00:00,29.063510,77.709723,PM2.5,33,153,75
India,Uttar_Pradesh,Meerut,"Pallavpuram Phase 2, Meerut - UPPCB",22-06-2024 21:00:00,29.063510,77.709723,CO,22,84,39
India,Uttar_Pradesh,Moradabad,"Buddhi Vihar, Moradabad - UPPCB",22-06-2024 21:00:00,28.83526,78.74460,OZONE,2,25,15
India,Uttar_Pradesh,Moradabad,"Eco Herbal Park, Moradabad - UPPCB",22-06-2024 21:00:00,28.840739,78.697531,PM10,20,80,58
India,Uttar_Pradesh,Moradabad,"Eco Herbal Park, Moradabad - UPPCB",22-06-2024 21:00:00,28.840739,78.697531,OZONE,5,115,83
India,Uttar_Pradesh,Moradabad,"Employment Office, Moradabad - UPPCB",22-06-2024 21:00:00,28.88528,78.73880,PM2.5,34,65,49
India,Uttar_Pradesh,Moradabad,"Employment Office, Moradabad - UPPCB",22-06-2024 21:00:00,28.88528,78.73880,PM10,30,106,76
India,Uttar_Pradesh,Moradabad,"Employment Office, Moradabad - UPPCB",22-06-2024 21:00:00,28.88528,78.73880,OZONE,20,75,54
India,Uttar_Pradesh,Moradabad,"Jigar Colony, Moradabad - UPPCB",22-06-2024 21:00:00,28.856664,78.772638,NH3,6,6,6
India,Uttar_Pradesh,Moradabad,"Kashiram Nagar, Moradabad - UPPCB",22-06-2024 21:00:00,28.849399,78.742362,PM2.5,NA,NA,NA
India,Uttar_Pradesh,Moradabad,"Kashiram Nagar, Moradabad - UPPCB",22-06-2024 21:00:00,28.849399,78.742362,CO,18,38,26
India,Uttar_Pradesh,Noida,"Sector - 125, Noida - UPPCB",22-06-2024 21:00:00,28.5447608,77.3231257,PM2.5,92,332,160
India,Uttar_Pradesh,Noida,"Sector - 125, Noida - UPPCB",22-06-2024 21:00:00,28.5447608,77.3231257,OZONE,2,17,11
India,Uttar_Pradesh,Noida,"Sector-1, Noida - UPPCB",22-06-2024 21:00:00,28.5898,77.3101,NO2,16,106,55
India,Uttar_Pradesh,Noida,"Sector-116, Noida - UPPCB",22-06-2024 21:00:00,28.569230,77.393848,NO2,21,104,48
India,Uttar_Pradesh,Noida,"Sector-116, Noida - UPPCB",22-06-2024 21:00:00,28.569230,77.393848,OZONE,2,168,118
India,Uttar_Pradesh,Prayagraj,"Motilal Nehru NIT, Prayagraj - UPPCB",22-06-2024 21:00:00,25.494,81.863,NH3,7,7,7
India,Uttar_Pradesh,Varanasi,"Bhelupur, Varanasi - UPPCB",22-06-2024 21:00:00,25.301778,82.996789,PM2.5,NA,NA,NA
India,Uttar_Pradesh,Varanasi,"Bhelupur, Varanasi - UPPCB",22-06-2024 21:00:00,25.301778,82.996789,OZONE,2,18,12
India,Uttar_Pradesh,Varanasi,"IESD Banaras Hindu University, Varanasi - UPPCB",22-06-2024 21:00:00,25.262326,82.995408,PM2.5,8,20,10
India,Uttar_Pradesh,Varanasi,"IESD Banaras Hindu University, Varanasi - UPPCB",22-06-2024 21:00:00,25.262326,82.995408,PM10,16,41,21
India,Uttar_Pradesh,Varanasi,"IESD Banaras Hindu University, Varanasi - UPPCB",22-06-2024 21:00:00,25.262326,82.995408,NH3,1,3,2
India,Uttar_Pradesh,Varanasi,"IESD Banaras Hindu University, Varanasi - UPPCB",22-06-2024 21:00:00,25.262326,82.995408,CO,2,11,5
India,Uttar_Pradesh,Varanasi,"Maldahiya, Varanasi - UPPCB",22-06-2024 21:00:00,25.32393,82.99687,PM2.5,23,60,30
India,Uttar_Pradesh,Varanasi,"Maldahiya, Varanasi - UPPCB",22-06-2024 21:00:00,25.32393,82.99687,NH3,1,1,1
India,Uttar_Pradesh,Vrindavan,"Omex Eternity, Vrindavan - UPPCB",22-06-2024 21:00:00,27.5714090,77.6557570,PM2.5,24,98,47
India,Uttar_Pradesh,Vrindavan,"Omex Eternity, Vrindavan - UPPCB",22-06-2024 21:00:00,27.5714090,77.6557570,NO2,12,12,12
India,Uttar_Pradesh,Vrindavan,"Omex Eternity, Vrindavan - UPPCB",22-06-2024 21:00:00,27.5714090,77.6557570,NH3,1,2,2
India,Uttar_Pradesh,Vrindavan,"Omex Eternity, Vrindavan - UPPCB",22-06-2024 21:00:00,27.5714090,77.6557570,SO2,44,46,45
India,Uttar_Pradesh,Vrindavan,"Omex Eternity, Vrindavan - UPPCB",22-06-2024 21:00:00,27.5714090,77.6557570,CO,28,48,38
India,Uttarakhand,Dehradun,"Doon University, Dehradun - UKPCB",22-06-2024 21:00:00,30.269444,78.044167,PM2.5,22,72,52
India,Uttarakhand,Dehradun,"Doon University, Dehradun - UKPCB",22-06-2024 21:00:00,30.269444,78.044167,SO2,1,1,1
India,Uttarakhand,Dehradun,"Doon University, Dehradun - UKPCB",22-06-2024 21:00:00,30.269444,78.044167,CO,24,35,26
India,Uttarakhand,Kashipur,"Govt. Girls Inter College, Kashipur - UKPCB",22-06-2024 21:00:00,29.2124114,78.9611753,PM2.5,20,75,46
India,Uttarakhand,Rishikesh,"Shivaji Nagar, Rishikesh - UKPCB",22-06-2024 21:00:00,30.075911,78.2859547,PM2.5,12,63,36
India,West_Bengal,Asansol,"Asansol Court Area, Asansol - WBPCB",22-06-2024 21:00:00,23.685297,86.945968,PM2.5,71,227,130
India,West_Bengal,Asansol,"Asansol Court Area, Asansol - WBPCB",22-06-2024 21:00:00,23.685297,86.945968,PM10,51,139,107
India,West_Bengal,Asansol,"Mahabir Colliery, Asansol - WBPCB",22-06-2024 21:00:00,23.6181830,87.1057180,NH3,NA,NA,NA
India,West_Bengal,Barrackpore,"SVSPA Campus, Barrackpore - WBPCB",22-06-2024 21:00:00,22.7605581,88.3617589,CO,18,50,24
India,West_Bengal,Barrackpore,"SVSPA Campus, Barrackpore - WBPCB",22-06-2024 21:00:00,22.7605581,88.3617589,OZONE,4,38,28
India,West_Bengal,Haldia,"Priyambada Housing Estate, Haldia - WBPCB",22-06-2024 21:00:00,22.06047,88.109737,PM2.5,15,30,20
India,West_Bengal,Haldia,"Priyambada Housing Estate, Haldia - WBPCB",22-06-2024 21:00:00,22.06047,88.109737,PM10,22,51,36
India,West_Bengal,Howrah,"Botanical Garden, Howrah - WBPCB",22-06-2024 21:00:00,22.554954,88.292568,PM2.5,6,75,35
India,West_Bengal,Howrah,"Botanical Garden, Howrah - WBPCB",22-06-2024 21:00:00,22.554954,88.292568,SO2,4,6,5
India,West_Bengal,Howrah,"Botanical Garden, Howrah - WBPCB",22-06-2024 21:00:00,22.554954,88.292568,OZONE,14,57,39
India,West_Bengal,Howrah,"Ghusuri, Howrah - WBPCB",22-06-2024 21:00:00,22.611968,88.347422,PM2.5,24,53,35
India,West_Bengal,Howrah,"Ghusuri, Howrah - WBPCB",22-06-2024 21:00:00,22.611968,88.347422,OZONE,12,23,19
India,West_Bengal,Kolkata,"Fort William, Kolkata - WBPCB",22-06-2024 21:00:00,22.556640,88.342674,NH3,3,4,4
India,West_Bengal,Kolkata,"Fort William, Kolkata - WBPCB",22-06-2024 21:00:00,22.556640,88.342674,OZONE,9,19,15
India,West_Bengal,Kolkata,"Jadavpur, Kolkata - WBPCB",22-06-2024 21:00:00,22.49929,88.36917,OZONE,4,28,18
India,West_Bengal,Kolkata,"Rabindra Bharati University, Kolkata - WBPCB",22-06-2024 21:00:00,22.627847,88.380669,SO2,10,15,12
India,West_Bengal,Kolkata,"Rabindra Bharati University, Kolkata - WBPCB",22-06-2024 21:00:00,22.627847,88.380669,CO,24,42,29
India,West_Bengal,Kolkata,"Rabindra Sarobar, Kolkata - WBPCB",22-06-2024 21:00:00,22.51106,88.35142,OZONE,21,37,29
India,West_Bengal,Kolkata,"Victoria, Kolkata - WBPCB",22-06-2024 21:00:00,22.5448082,88.3403691,PM2.5,21,59,32
India,West_Bengal,Kolkata,"Victoria, Kolkata - WBPCB",22-06-2024 21:00:00,22.5448082,88.3403691,PM10,40,63,49
India,West_Bengal,Siliguri,"Ward-32 Bapupara, Siliguri - WBPCB",22-06-2024 21:00:00,26.6879226,88.4152495,PM10,41,105,60
India,West_Bengal,Siliguri,"Ward-32 Bapupara, Siliguri - WBPCB",22-06-2024 21:00:00,26.6879226,88.4152495,CO,15,102,28
India,Andhra_Pradesh,Amaravati,"Secretariat, Amaravati - APPCB",22-06-2024 21:00:00,16.5150833,80.5181667,PM10,20,62,33
India,Andhra_Pradesh,Anantapur,"Gulzarpet, Anantapur - APPCB",22-06-2024 21:00:00,14.675886,77.593027,PM10,51,94,74
India,Andhra_Pradesh,Anantapur,"Gulzarpet, Anantapur - APPCB",22-06-2024 21:00:00,14.675886,77.593027,OZONE,1,16,13
India,Andhra_Pradesh,Chittoor,"Gangineni Cheruvu, Chittoor - APPCB",22-06-2024 21:00:00,13.204880,79.097889,PM10,NA,NA,NA
India,Andhra_Pradesh,Chittoor,"Gangineni Cheruvu, Chittoor - APPCB",22-06-2024 21:00:00,13.204880,79.097889,SO2,NA,NA,NA
India,Andhra_Pradesh,Kadapa,"Yerramukkapalli, Kadapa - APPCB",22-06-2024 21:00:00,14.465052,78.824187,NO2,NA,NA,NA
India,Andhra_Pradesh,Rajamahendravaram,"Anand Kala Kshetram, Rajamahendravaram - APPCB",22-06-2024 21:00:00,16.9872867,81.7363176,NO2,4,68,23
India,Andhra_Pradesh,Tirupati,"Tirumala, Tirupati - APPCB",22-06-2024 21:00:00,13.67,79.35,CO,12,28,22
India,Andhra_Pradesh,Tirupati,"Vaikuntapuram, Tirupati - APPCB",22-06-2024 21:00:00,13.615387,79.409230,PM10,67,145,87
India,Andhra_Pradesh,Tirupati,"Vaikuntapuram, Tirupati - APPCB",22-06-2024 21:00:00,13.615387,79.409230,SO2,7,8,8
India,Andhra_Pradesh,Tirupati,"Vaikuntapuram, Tirupati - APPCB",22-06-2024 21:00:00,13.615387,79.409230,CO,10,16,13
India,Andhra_Pradesh,Tirupati,"Vaikuntapuram, Tirupati - APPCB",22-06-2024 21:00:00,13.615387,79.409230,OZONE,6,32,13
India,Andhra_Pradesh,Vijayawada,"Kanuru, Vijayawada - APPCB",22-06-2024 21:00:00,16.486692,80.699436,PM2.5,52,147,75
India,Andhra_Pradesh,Vijayawada,"Rajiv Gandhi Park, Vijayawada - APPCB",22-06-2024 21:00:00,16.509717,80.612222,PM2.5,58,129,81
India,Andhra_Pradesh,Vijayawada,"Rajiv Gandhi Park, Vijayawada - APPCB",22-06-2024 21:00:00,16.509717,80.612222,NO2,27,50,37
India,Andhra_Pradesh,Vijayawada,"Rajiv Nagar, Vijayawada - APPCB",22-06-2024 21:00:00,16.554731,80.649110,NO2,10,10,10
India,Andhra_Pradesh,Vijayawada,"Rajiv Nagar, Vijayawada - APPCB",22-06-2024 21:00:00,16.554731,80.649110,OZONE,12,259,23
India,Andhra_Pradesh,Visakhapatnam,"GVM Corporation, Visakhapatnam - APPCB",22-06-2024 21:00:00,17.72,83.3,PM2.5,24,60,38
India,Andhra_Pradesh,Visakhapatnam,"GVM Corporation, Visakhapatnam - APPCB",22-06-2024 21:00:00,17.72,83.3,PM10,49,122,81
India,Andhra_Pradesh,Visakhapatnam,"GVM Corporation, Visakhapatnam - APPCB",22-06-2024 21:00:00,17.72,83.3,NO2,13,70,52
India,Assam,Byrnihat,"Central Academy for SFS, Byrnihat - PCBA",22-06-2024 21:00:00,26.071318,91.87488,NH3,NA,NA,NA
India,Assam,Guwahati,"IITG, Guwahati - PCBA",22-06-2024 21:00:00,26.2028636,91.70046436,PM2.5,NA,NA,NA
India,Assam,Guwahati,"LGBI Airport, Guwahati - PCBA",22-06-2024 21:00:00,26.10887,91.589544,CO,36,83,47
India,Assam,Guwahati,"Pan Bazaar, Guwahati - PCBA",22-06-2024 21:00:00,26.187500,91.744194,OZONE,17,18,17
India,Assam,Guwahati,"Railway Colony, Guwahati - PCBA",22-06-2024 21:00:00,26.181742,91.78063,SO2,2,2,2
India,Assam,Nagaon,"Christianpatty, Nagaon - PCBA",22-06-2024 21:00:00,26.349082,92.68449,SO2,6,15,11
India,Assam,Nagaon,"Christianpatty, Nagaon - PCBA",22-06-2024 21:00:00,26.349082,92.68449,OZONE,3,67,21
India,Assam,Nalbari,"Bata Chowk, Nalbari - PCBA",22-06-2024 21:00:00,26.446912,91.439057,PM2.5,NA,NA,NA
India,Assam,Nalbari,"Bata Chowk, Nalbari - PCBA",22-06-2024 21:00:00,26.446912,91.439057,CO,8,39,29
India,Assam,Silchar,"Tarapur, Silchar - PCBA",22-06-2024 21:00:00,24.82827,92.79525,CO,21,34,25
India,Assam,Sivasagar,"Girls College, Sivasagar - PCBA",22-06-2024 21:00:00,26.987634,94.636574,NH3,NA,NA,NA
India,Assam,Sivasagar,"Girls College, Sivasagar - PCBA",22-06-2024 21:00:00,26.987634,94.636574,OZONE,1,11,6
India,Bihar,Arrah,"New DM Office, Arrah - BSPCB",22-06-2024 21:00:00,25.5626095,84.663264,PM10,27,103,67
India,Bihar,Bhagalpur,"DM Office_Kachari Chowk, Bhagalpur - BSPCB",22-06-2024 21:00:00,25.251013,86.989001,PM2.5,82,237,146
India,Bihar,Bhagalpur,"DM Office_Kachari Chowk, Bhagalpur - BSPCB",22-06-2024 21:00:00,25.251013,86.989001,OZONE,44,49,47
India,Bihar,Bhagalpur,"Mayaganj, Bhagalpur - BSPCB",22-06-2024 21:00:00,25.265194,87.012947,CO,18,41,22
India,Bihar,Bhagalpur,"Mayaganj, Bhagalpur - BSPCB",22-06-2024 21:00:00,25.265194,87.012947,OZONE,5,31,24
India,Bihar,Bihar Sharif,"D M Colony, Bihar Sharif - BSPCB",22-06-2024 21:00:00,25.204762,85.514960,CO,26,30,29
India,Bihar,Buxar,"Charitra Van, Buxar - BSPCB (Formerly known as Central Jail)",22-06-2024 21:00:00,25.567520,83.966379,PM2.5,65,150,104
India,Bihar,Buxar,"Charitra Van, Buxar - BSPCB (Formerly known as Central Jail)",22-06-2024 21:00:00,25.567520,83.966379,PM10,109,202,140
India,Bihar,Chhapra,"Darshan Nagar, Chhapra - BSPCB",22-06-2024 21:00:00,25.7808257,84.7446768,PM10,38,94,63
India,Bihar,Gaya,"Collectorate, Gaya - BSPCB",22-06-2024 21:00:00,24.7955,84.9994,SO2,2,11,6
India,Bihar,Gaya,"SFTI Kusdihra, Gaya - BSPCB",22-06-2024 21:00:00,24.762518,84.982348,PM10,21,48,36
India,Bihar,Gaya,"SFTI Kusdihra, Gaya - BSPCB",22-06-2024 21:00:00,24.762518,84.982348,NO2,18,26,21
India,Bihar,Gaya,"SFTI Kusdihra, Gaya - BSPCB",22-06-2024 21:00:00,24.762518,84.982348,CO,21,43,32
India,Bihar,Hajipur,"Industrial Area, Hajipur - BSPCB",22-06-2024 21:00:00,25.697189,85.245900,NO2,9,27,18
India,Bihar,Katihar,"Mirchaibari, Katihar - BSPCB",22-06-2024 21:00:00,25.560083,87.553265,PM10,33,140,74
India,Bihar,Kishanganj,"SDM Office_Khagra, Kishanganj - BSPCB",22-06-2024 21:00:00,26.0881305,87.93840336,NO2,30,58,49
India,Bihar,Kishanganj,"SDM Office_Khagra, Kishanganj - BSPCB",22-06-2024 21:00:00,26.0881305,87.93840336,NH3,6,7,6
India,Bihar,Manguraha,"Forest Rest House, Manguraha - BSPCB",22-06-2024 21:00:00,27.308328,84.531742,NO2,13,18,16
India,Bihar,Munger,"Town Hall, Munger - BSPCB",22-06-2024 21:00:00,25.376776,86.471523,NO2,NA,NA,NA
India,Bihar,Muzaffarpur,"Buddha Colony, Muzaffarpur - BSPCB",22-06-2024 21:00:00,26.11442,85.39813,PM2.5,51,83,67
India,Bihar,Muzaffarpur,"MIT-Daudpur Kothi, Muzaffarpur - BSPCB",22-06-2024 21:00:00,26.1403345,85.3650192,NH3,12,13,12
India,Bihar,Muzaffarpur,"MIT-Daudpur Kothi, Muzaffarpur - BSPCB",22-06-2024 21:00:00,26.1403345,85.3650192,CO,8,102,68
India,Bihar,Muzaffarpur,"Muzaffarpur Collectorate, Muzaffarpur - BSPCB",22-06-2024 21:00:00,26.1209,85.3647,NO2,25,38,34
India,Bihar,Patna,"DRM Office Danapur, Patna - BSPCB",22-06-2024 21:00:00,25.586562,85.043586,NH3,2,3,3
India,Bihar,Patna,"IGSC Planetarium Complex, Patna - BSPCB",22-06-2024 21:00:00,25.610369,85.132568,SO2,6,8,7
India,Bihar,Patna,"Muradpur, Patna - BSPCB",22-06-2024 21:00:00,25.619651,85.147382,OZONE,5,62,45
India,Bihar,Patna,"Rajbansi Nagar, Patna - BSPCB",22-06-2024 21:00:00,25.599486,85.113666,PM10,63,115,90
India,Bihar,Patna,"Rajbansi Nagar, Patna - BSPCB",22-06-2024 21:00:00,25.599486,85.113666,CO,25,35,31
India,Bihar,Purnia,"Mariam Nagar, Purnia - BSPCB",22-06-2024 21:00:00,25.366336,87.117468,PM2.5,NA,NA,NA
India,Bihar,Purnia,"Mariam Nagar, Purnia - BSPCB",22-06-2024 21:00:00,25.366336,87.117468,SO2,6,15,9
India,Bihar,Rajgir,"Dangi Tola, Rajgir - BSPCB",22-06-2024 21:00:00,25.03280,85.41948,CO,38,38,38
India,Bihar,Sasaram,"Dada Peer, Sasaram - BSPCB",22-06-2024 21:00:00,24.952822,84.002396,NH3,2,12,8
India,Chandigarh,Chandigarh,"Sector 22, Chandigarh - CPCC",22-06-2024 21:00:00,30.735567,76.775714,NO2,25,69,41
India,Chandigarh,Chandigarh,"Sector 22, Chandigarh - CPCC",22-06-2024 21:00:00,30.735567,76.775714,SO2,9,88,21
India,Chandigarh,Chandigarh,"Sector-25, Chandigarh - CPCC",22-06-2024 21:00:00,30.751462,76.762879,PM2.5,134,201,162
India,Chandigarh,Chandigarh,"Sector-25, Chandigarh - CPCC",22-06-2024 21:00:00,30.751462,76.762879,CO,17,30,22
India,Chandigarh,Chandigarh,"Sector-53, Chandigarh - CPCC",22-06-2024 21:00:00,30.719859,76.738637,SO2,4,30,10
India,Chhattisgarh,Bhilai,"32Bungalows, Bhilai - CECB",22-06-2024 21:00:00,21.194815,81.314770,PM10,18,40,26
India,Chhattisgarh,Bhilai,"32Bungalows, Bhilai - CECB",22-06-2024 21:00:00,21.194815,81.314770,NH3,8,9,9
India,Chhattisgarh,Bhilai,"32Bungalows, Bhilai - CECB",22-06-2024 21:00:00,21.194815,81.314770,CO,11,14,12
India,Chhattisgarh,Bhilai,"Civic Center, Bhilai - Bhilai Steel Plant",22-06-2024 21:00:00,21.185571,81.343175,PM2.5,14,26,17
India,Chhattisgarh,Bhilai,"Civic Center, Bhilai - Bhilai Steel Plant",22-06-2024 21:00:00,21.185571,81.343175,SO2,8,33,12
India,Chhattisgarh,Bhilai,"Hathkhoj, Bhilai - CECB",22-06-2024 21:00:00,21.224231,81.408350,CO,4,331,12
India,Chhattisgarh,Bilaspur,"Mangala, Bilaspur - NTPC",22-06-2024 21:00:00,22.08815,82.13737,CO,33,49,38
India,Chhattisgarh,Chhal,"Nawapara SECL Colony, Chhal - CECB",22-06-2024 21:00:00,22.118125,83.140608,NO2,NA,NA,NA
India,Chhattisgarh,Chhal,"Nawapara SECL Colony, Chhal - CECB",22-06-2024 21:00:00,22.118125,83.140608,NH3,NA,NA,NA
India,Chhattisgarh,Chhal,"Nawapara SECL Colony, Chhal - CECB",22-06-2024 21:00:00,22.118125,83.140608,SO2,NA,NA,NA
India,Chhattisgarh,Chhal,"Nawapara SECL Colony, Chhal - CECB",22-06-2024 21:00:00,22.118125,83.140608,OZONE,20,112,44
India,Chhattisgarh,Korba,"Urja Nagar, Korba - CECB",22-06-2024 21:00:00,22.348441,82.549611,PM2.5,1,80,21
India,Chhattisgarh,Korba,"Urja Nagar, Korba - CECB",22-06-2024 21:00:00,22.348441,82.549611,NO2,33,45,40
India,Chhattisgarh,Kunjemura,"OP Jindal School, Kunjemura - CECB",22-06-2024 21:00:00,22.126650,83.483212,PM10,13,61,35
India,Chhattisgarh,Kunjemura,"OP Jindal School, Kunjemura - CECB",22-06-2024 21:00:00,22.126650,83.483212,NH3,2,4,3
India,Chhattisgarh,Milupara,"Govt. Higher Secondary School, Milupara - CECB",22-06-2024 21:00:00,22.1910172,83.5197009,OZONE,39,46,44
India,Chhattisgarh,Raipur,"AIIMS, Raipur - CECB",22-06-2024 21:00:00,21.258815,81.578979,PM2.5,5,23,14
India,Chhattisgarh,Raipur,"AIIMS, Raipur - CECB",22-06-2024 21:00:00,21.258815,81.578979,PM10,9,33,22
India,Chhattisgarh,Raipur,"Bhatagaon New ISBT, Raipur - CECB",22-06-2024 21:00:00,21.219665,81.630094,PM2.5,2,20,11
India,Chhattisgarh,Raipur,"Bhatagaon New ISBT, Raipur - CECB",22-06-2024 21:00:00,21.219665,81.630094,PM10,7,39,19
India,Chhattisgarh,Raipur,"Bhatagaon New ISBT, Raipur - CECB",22-06-2024 21:00:00,21.219665,81.630094,NO2,4,4,4
India,Chhattisgarh,Raipur,"Bhatagaon New ISBT, Raipur - CECB",22-06-2024 21:00:00,21.219665,81.630094,CO,10,20,20
India,Chhattisgarh,Raipur,"Krishak Nagar, Raipur - CECB",22-06-2024 21:00:00,21.237755,81.705301,PM10,4,23,13
India,Chhattisgarh,Raipur,"Siltara Phase-II, Raipur - CECB",22-06-2024 21:00:00,21.371751,81.664929,CO,32,39,34
India,Delhi,Delhi,"Aya Nagar, Delhi - IMD",22-06-2024 21:00:00,28.4706914,77.1099364,NO2,13,39,27
India,Delhi,Delhi,"Aya Nagar, Delhi - IMD",22-06-2024 21:00:00,28.4706914,77.1099364,OZONE,7,74,42
India,Delhi,Delhi,"Bawana, Delhi - DPCC",22-06-2024 21:00:00,28.776200,77.051074,CO,30,89,38
India,Delhi,Delhi,"Burari Crossing, Delhi - IMD",22-06-2024 21:00:00,28.7256504,77.2011573,NO2,NA,NA,NA
India,Delhi,Delhi,"CRRI Mathura Road, Delhi - IMD",22-06-2024 21:00:00,28.5512005,77.2735737,PM2.5,78,150,109
India,Delhi,Delhi,"Chandni Chowk, Delhi - IITM",22-06-2024 21:00:00,28.656756,77.227234,PM2.5,86,378,299
India,Delhi,Delhi,"Chandni Chowk, Delhi - IITM",22-06-2024 21:00:00,28.656756,77.227234,NH3,2,2,2
India,Delhi,Delhi,"Chandni Chowk, Delhi - IITM",22-06-2024 21:00:00,28.656756,77.227234,CO,52,86,77
India,Delhi,Delhi,"DTU, Delhi - CPCB",22-06-2024 21:00:00,28.7500499,77.1112615,NH3,17,20,18
India,Delhi,Delhi,"Dr. Karni Singh Shooting Range, Delhi - DPCC",22-06-2024 21:00:00,28.498571,77.264840,PM10,78,252,150
India,Delhi,Delhi,"Dr. Karni Singh Shooting Range, Delhi - DPCC",22-06-2024 21:00:00,28.498571,77.264840,NH3,6,17,10
India,Delhi,Delhi,"Dwarka-Sector 8, Delhi - DPCC ",22-06-2024 21:00:00,28.5710274,77.0719006,NO2,20,88,46
India,Delhi,Delhi,"Dwarka-Sector 8, Delhi - DPCC ",22-06-2024 21:00:00,28.5710274,77.0719006,SO2,10,13,12
India,Delhi,Delhi,"Jahangirpuri, Delhi - DPCC",22-06-2024 21:00:00,28.732820,77.170633,NO2,13,53,31
India,Delhi,Delhi,"Jawaharlal Nehru Stadium, Delhi - DPCC",22-06-2024 21:00:00,28.580280,77.233829,PM10,101,222,136
India,Delhi,Delhi,"Mandir Marg, Delhi - DPCC",22-06-2024 21:00:00,28.636429,77.201067,PM10,78,179,129
India,Delhi,Delhi,"Mundka, Delhi - DPCC",22-06-2024 21:00:00,28.684678,77.076574,PM2.5,75,447,186
India,Delhi,Delhi,"Mundka, Delhi - DPCC",22-06-2024 21:00:00,28.684678,77.076574,PM10,131,500,234
India,Delhi,Delhi,"NSIT Dwarka, Delhi - CPCB",22-06-2024 21:00:00,28.60909,77.0325413,OZONE,9,41,28
India,Delhi,Delhi,"Najafgarh, Delhi - DPCC",22-06-2024 21:00:00,28.570173,76.933762,PM2.5,83,417,201
India,Delhi,Delhi,"Nehru Nagar, Delhi - DPCC",22-06-2024 21:00:00,28.567890,77.250515,NO2,13,58,37
India,Delhi,Delhi,"New Moti Bagh, Delhi - MHUA",22-06-2024 21:00:00,28.57834,77.18400,PM2.5,94,500,272
India,Delhi,Delhi,"North Campus, DU, Delhi - IMD",22-06-2024 21:00:00,28.6573814,77.1585447,PM2.5,39,379,199
India,Delhi,Delhi,"Patparganj, Delhi - DPCC",22-06-2024 21:00:00,28.623763,77.287209,PM10,135,422,179
India,Delhi,Delhi,"Patparganj, Delhi - DPCC",22-06-2024 21:00:00,28.623763,77.287209,SO2,7,22,14
India,Delhi,Delhi,"Patparganj, Delhi - DPCC",22-06-2024 21:00:00,28.623763,77.287209,OZONE,2,134,82
India,Delhi,Delhi,"Punjabi Bagh, Delhi - DPCC",22-06-2024 21:00:00,28.674045,77.131023,OZONE,4,93,70
India,Delhi,Delhi,"Pusa, Delhi - DPCC",22-06-2024 21:00:00,28.639652,77.146275,NO2,NA,NA,NA
India,Delhi,Delhi,"Pusa, Delhi - IMD",22-06-2024 21:00:00,28.636110,77.173332,CO,52,86,54
India,Delhi,Delhi,"R K Puram, Delhi - DPCC",22-06-2024 21:00:00,28.563262,77.186937,NH3,2,21,9
India,Delhi,Delhi,"Rohini, Delhi - DPCC",22-06-2024 21:00:00,28.732528,77.119920,PM2.5,83,408,208
India,Delhi,Delhi,"Shadipur, Delhi - CPCB",22-06-2024 21:00:00,28.6514781,77.1473105,NO2,45,180,64
India,Delhi,Delhi,"Shadipur, Delhi - CPCB",22-06-2024 21:00:00,28.6514781,77.1473105,OZONE,13,59,28
India,Delhi,Delhi,"Sirifort, Delhi - CPCB",22-06-2024 21:00:00,28.5504249,77.2159377,NO2,14,52,36
India,Delhi,Delhi,"Sirifort, Delhi - CPCB",22-06-2024 21:00:00,28.5504249,77.2159377,NH3,20,23,22
India,Delhi,Delhi,"Sonia Vihar, Delhi - DPCC",22-06-2024 21:00:00,28.710508,77.249485,PM10,101,239,163
India,Delhi,Delhi,"Sonia Vihar, Delhi - DPCC",22-06-2024 21:00:00,28.710508,77.249485,NH3,8,22,15
India,Delhi,Delhi,"Sonia Vihar, Delhi - DPCC",22-06-2024 21:00:00,28.710508,77.249485,SO2,4,17,8
India,Delhi,Delhi,"Sri Aurobindo Marg, Delhi - DPCC",22-06-2024 21:00:00,28.531346,77.190156,PM2.5,89,349,174
India,Delhi,Delhi,"Vivek Vihar, Delhi - DPCC",22-06-2024 21:00:00,28.672342,77.315260,PM10,109,414,176
India,Delhi,Delhi,"Vivek Vihar, Delhi - DPCC",22-06-2024 21:00:00,28.672342,77.315260,NH3,18,18,18
India,Gujarat,Ahmedabad,"Chandkheda, Ahmedabad - IITM",22-06-2024 21:00:00,23.107969,72.574648,SO2,5,14,10
India,Gujarat,Ahmedabad,"Gyaspur, Ahmedabad - IITM",22-06-2024 21:00:00,22.977134,72.553024,PM10,40,165,105
India,Gujarat,Ahmedabad,"Gyaspur, Ahmedabad - IITM",22-06-2024 21:00:00,22.977134,72.553024,NH3,4,6,5
India,Gujarat,Ahmedabad,"Rakhial, Ahmedabad - IITM",22-06-2024 21:00:00,23.016834,72.625775,PM2.5,40,144,87
India,Gujarat,Ahmedabad,"Rakhial, Ahmedabad - IITM",22-06-2024 21:00:00,23.016834,72.625775,PM10,46,134,94
India,Gujarat,Ahmedabad,"Rakhial, Ahmedabad - IITM",22-06-2024 21:00:00,23.016834,72.625775,NH3,9,16,13
India,Gujarat,Ankleshwar,"GIDC, Ankleshwar - GPCB",22-06-2024 21:00:00,21.613267,73.010555,PM10,41,94,72
India,Gujarat,Gandhinagar,"GIFT City, Gandhinagar - IITM",22-06-2024 21:00:00,23.163798,72.677768,OZONE,6,67,56
India,Gujarat,Gandhinagar,"Sector-10, Gandhinagar - GPCB",22-06-2024 21:00:00,23.221714,72.654328,OZONE,19,20,19
India,Gujarat,Nandesari,"GIDC, Nandesari - Nandesari Ind. Association",22-06-2024 21:00:00,22.410802,73.097923,PM2.5,76,186,120
India,Gujarat,Surat,"Science Center, Surat - SMC",22-06-2024 21:00:00,21.170046,72.795405,PM2.5,NA,NA,NA
India,Gujarat,Surat,"Science Center, Surat - SMC",22-06-2024 21:00:00,21.170046,72.795405,CO,66,72,70
India,Gujarat,Vapi,"Phase-1 GIDC, Vapi - GPCB",22-06-2024 21:00:00,20.362421,72.918013,NO2,6,7,7
India,Gujarat,Vapi,"Phase-1 GIDC, Vapi - GPCB",22-06-2024 21:00:00,20.362421,72.918013,SO2,45,51,47
India,Gujarat,Vatva,"Phase-4 GIDC, Vatva - GPCB",22-06-2024 21:00:00,22.969611,72.643500,PM2.5,12,49,32
India,Haryana,Bahadurgarh,"Arya Nagar, Bahadurgarh - HSPCB",22-06-2024 21:00:00,28.6701,76.9254,SO2,NA,NA,NA
India,Haryana,Bahadurgarh,"Arya Nagar, Bahadurgarh - HSPCB",22-06-2024 21:00:00,28.6701,76.9254,OZONE,34,42,37
India,Haryana,Bhiwani,"H.B. Colony, Bhiwani - HSPCB",22-06-2024 21:00:00,28.806223,76.141105,NO2,2,11,8
India,Haryana,Bhiwani,"H.B. Colony, Bhiwani - HSPCB",22-06-2024 21:00:00,28.806223,76.141105,OZONE,24,113,47
India,Haryana,Charkhi Dadri,"Mini Secretariat, Charkhi Dadri - HSPCB",22-06-2024 21:00:00,28.593883,76.270653,PM10,57,121,89
India,Haryana,Charkhi Dadri,"Mini Secretariat, Charkhi Dadri - HSPCB",22-06-2024 21:00:00,28.593883,76.270653,SO2,14,23,19
India,Haryana,Dharuhera,"Municipal Corporation Office, Dharuhera -  HSPCB",22-06-2024 21:00:00,28.206800,76.799700,NH3,NA,NA,NA
India,Haryana,Dharuhera,"Municipal Corporation Office, Dharuhera -  HSPCB",22-06-2024 21:00:00,28.206800,76.799700,SO2,NA,NA,NA
India,Haryana,Dharuhera,"Municipal Corporation Office, Dharuhera -  HSPCB",22-06-2024 21:00:00,28.206800,76.799700,OZONE,50,98,74
India,Haryana,Faridabad,"New Industrial Town, Faridabad - HSPCB",22-06-2024 21:00:00,28.39072,77.30059,PM2.5,59,110,79
India,Haryana,Faridabad,"New Industrial Town, Faridabad - HSPCB",22-06-2024 21:00:00,28.39072,77.30059,PM10,101,153,123
India,Haryana,Faridabad,"Sector 30, Faridabad - HSPCB",22-06-2024 21:00:00,28.4417,77.3217,PM10,150,158,154
India,Haryana,Faridabad,"Sector 30, Faridabad - HSPCB",22-06-2024 21:00:00,28.4417,77.3217,NO2,29,33,31
India,Haryana,Fatehabad,"Huda Sector, Fatehabad - HSPCB",22-06-2024 21:00:00,29.503664,75.467934,PM10,NA,NA,NA
India,Haryana,Gurugram,"NISE Gwal Pahari, Gurugram - IMD",22-06-2024 21:00:00,28.422681,77.148944,PM2.5,NA,NA,NA
India,Haryana,Gurugram,"NISE Gwal Pahari, Gurugram - IMD",22-06-2024 21:00:00,28.422681,77.148944,CO,23,42,28
India,Haryana,Gurugram,"Sector-51, Gurugram - HSPCB",22-06-2024 21:00:00,28.4227,77.0667,CO,32,61,41
India,Haryana,Gurugram,"Teri Gram, Gurugram - HSPCB",22-06-2024 21:00:00,28.4275,77.1465,PM10,NA,NA,NA
India,Haryana,Gurugram,"Teri Gram, Gurugram - HSPCB",22-06-2024 21:00:00,28.4275,77.1465,NO2,NA,NA,NA
India,Haryana,Gurugram,"Teri Gram, Gurugram - HSPCB",22-06-2024 21:00:00,28.4275,77.1465,SO2,NA,NA,NA
India,Haryana,Gurugram,"Vikas Sadan, Gurugram - HSPCB",22-06-2024 21:00:00,28.4501238,77.0263051,PM2.5,2,436,148
India,Haryana,Hisar,"Urban Estate-II, Hisar - HSPCB",22-06-2024 21:00:00,29.140560,75.744941,PM10,60,109,88
India,Haryana,Jind,"Police Lines, Jind - HSPCB",22-06-2024 21:00:00,29.307814,76.337619,PM2.5,39,68,55
India,Haryana,Jind,"Police Lines, Jind - HSPCB",22-06-2024 21:00:00,29.307814,76.337619,NO2,9,17,11
India,Haryana,Jind,"Police Lines, Jind - HSPCB",22-06-2024 21:00:00,29.307814,76.337619,CO,2,50,13
India,Haryana,Jind,"Police Lines, Jind - HSPCB",22-06-2024 21:00:00,29.307814,76.337619,OZONE,28,84,81
India,Haryana,Kaithal,"Rishi Nagar, Kaithal - HSPCB",22-06-2024 21:00:00,29.8006,76.4155,PM10,92,125,112
India,Haryana,Kaithal,"Rishi Nagar, Kaithal - HSPCB",22-06-2024 21:00:00,29.8006,76.4155,OZONE,28,63,54
India,Haryana,Karnal,"Sector-12, Karnal - HSPCB",22-06-2024 21:00:00,29.695300,77.002700,PM10,73,119,92
India,Haryana,Kurukshetra,"Sector-7, Kurukshetra - HSPCB",22-06-2024 21:00:00,29.966942,76.875879,SO2,2,3,3
India,Haryana,Mandikhera,"General Hospital, Mandikhera - HSPCB",22-06-2024 21:00:00,27.9002,76.9938,PM10,50,500,149
India,Haryana,Mandikhera,"General Hospital, Mandikhera - HSPCB",22-06-2024 21:00:00,27.9002,76.9938,NO2,19,23,21
India,Haryana,Narnaul,"Shastri Nagar, Narnaul - HSPCB",22-06-2024 21:00:00,28.060249,76.113115,NO2,15,87,48
India,Haryana,Panipat,"Sector-18, Panipat - HSPCB",22-06-2024 21:00:00,29.432304,76.972765,OZONE,30,30,30
India,Haryana,Rohtak,"MD University, Rohtak - HSPCB",22-06-2024 21:00:00,28.52123,76.37138,NO2,48,62,52
India,Haryana,Sonipat,"Murthal, Sonipat - HSPCB",22-06-2024 21:00:00,29.027200,77.062100,NO2,37,44,40
India,Haryana,Sonipat,"Murthal, Sonipat - HSPCB",22-06-2024 21:00:00,29.027200,77.062100,NH3,7,10,9
India,Karnataka,Belgaum,"Ramteerth Nagar, Belgaum - KSPCB",22-06-2024 21:00:00,15.888653,74.541751,OZONE,19,20,20
India,Karnataka,Bengaluru,"Bapuji Nagar, Bengaluru - KSPCB",22-06-2024 21:00:00,12.951913,77.539784,PM10,28,65,44
India,Karnataka,Bengaluru,"Hebbal, Bengaluru - KSPCB",22-06-2024 21:00:00,13.029152,77.585901,PM2.5,4,55,21
India,Karnataka,Bengaluru,"Hebbal, Bengaluru - KSPCB",22-06-2024 21:00:00,13.029152,77.585901,NO2,5,6,5
India,Karnataka,Bengaluru,"Hebbal, Bengaluru - KSPCB",22-06-2024 21:00:00,13.029152,77.585901,CO,6,22,16
India,Karnataka,Bengaluru,"Hebbal, Bengaluru - KSPCB",22-06-2024 21:00:00,13.029152,77.585901,OZONE,4,12,6
India,Karnataka,Bengaluru,"Hombegowda Nagar, Bengaluru - KSPCB",22-06-2024 21:00:00,12.938539,77.590100,NO2,9,21,13
India,Karnataka,Bengaluru,"Hombegowda Nagar, Bengaluru - KSPCB",22-06-2024 21:00:00,12.938539,77.590100,SO2,3,4,4
India,Karnataka,Bengaluru,"Jayanagar 5th Block, Bengaluru - KSPCB",22-06-2024 21:00:00,12.920984,77.584908,PM2.5,15,37,26
India,Karnataka,Bengaluru,"Jigani, Bengaluru - KSPCB",22-06-2024 21:00:00,12.7816279,77.6299145,SO2,8,9,9
India,Karnataka,Bengaluru,"Jigani, Bengaluru - KSPCB",22-06-2024 21:00:00,12.7816279,77.6299145,CO,27,40,32
India,Karnataka,Bengaluru,"Kasturi Nagar, Bengaluru - KSPCB",22-06-2024 21:00:00,13.003872,77.664217,PM2.5,31,43,37
India,Karnataka,Bengaluru,"RVCE-Mailasandra, Bengaluru - KSPCB",22-06-2024 21:00:00,12.921418,77.502466,PM2.5,27,71,45
India,Karnataka,Bengaluru,"RVCE-Mailasandra, Bengaluru - KSPCB",22-06-2024 21:00:00,12.921418,77.502466,NO2,16,17,17
India,Karnataka,Bengaluru,"Sanegurava Halli, Bengaluru - KSPCB",22-06-2024 21:00:00,12.990328,77.5431385,SO2,2,7,4
India,Karnataka,Bengaluru,"Sanegurava Halli, Bengaluru - KSPCB",22-06-2024 21:00:00,12.990328,77.5431385,CO,12,36,18
India,Karnataka,Bengaluru,"Shivapura_Peenya, Bengaluru - KSPCB",22-06-2024 21:00:00,13.0246342,77.5080115,PM2.5,27,66,45
India,Karnataka,Bengaluru,"Shivapura_Peenya, Bengaluru - KSPCB",22-06-2024 21:00:00,13.0246342,77.5080115,NH3,4,4,4
India,Karnataka,Bengaluru,"Shivapura_Peenya, Bengaluru - KSPCB",22-06-2024 21:00:00,13.0246342,77.5080115,OZONE,53,56,54
India,Karnataka,Bengaluru,"Silk Board, Bengaluru - KSPCB",22-06-2024 21:00:00,12.917348,77.622813,PM10,86,143,108
India,Karnataka,Bengaluru,"Silk Board, Bengaluru - KSPCB",22-06-2024 21:00:00,12.917348,77.622813,SO2,NA,NA,NA
India,Karnataka,Chamarajanagar,"Urban, Chamarajanagar - KSPCB",22-06-2024 21:00:00,11.55358,76.55521,NH3,2,2,2
India,Karnataka,Chikkaballapur,"Chikkaballapur Rural, Chikkaballapur - KSPCB",22-06-2024 21:00:00,13.428828,77.731418,PM2.5,18,32,22
India,Karnataka,Chikkaballapur,"Chikkaballapur Rural, Chikkaballapur - KSPCB",22-06-2024 21:00:00,13.428828,77.731418,NH3,1,1,1
India,Karnataka,Chikkaballapur,"Chikkaballapur Rural, Chikkaballapur - KSPCB",22-06-2024 21:00:00,13.428828,77.731418,CO,5,23,7
India,Karnataka,Davanagere,"Devaraj Urs Badavane, Davanagere - KSPCB",22-06-2024 21:00:00,14.475800,75.905200,NO2,9,12,10
India,Karnataka,Davanagere,"Devaraj Urs Badavane, Davanagere - KSPCB",22-06-2024 21:00:00,14.475800,75.905200,CO,18,19,18
India,Karnataka,Dharwad,"Kalabhavan, Dharwad - KSPCB",22-06-2024 21:00:00,15.459706,75.008381,SO2,1,4,1
India,Karnataka,Dharwad,"Kalabhavan, Dharwad - KSPCB",22-06-2024 21:00:00,15.459706,75.008381,OZONE,24,31,26
India,Karnataka,Gadag,"Panchal Nagar, Gadag - KSPCB",22-06-2024 21:00:00,15.411456,75.638133,PM10,25,30,26
India,Karnataka,Gadag,"Panchal Nagar, Gadag - KSPCB",22-06-2024 21:00:00,15.411456,75.638133,CO,45,52,50
India,Karnataka,Gadag,"Panchal Nagar, Gadag - KSPCB",22-06-2024 21:00:00,15.411456,75.638133,OZONE,5,8,6
India,Karnataka,Hassan,"B.Katihalli, Hassan - KSPCB",22-06-2024 21:00:00,13.008556,76.125258,NO2,13,27,21
India,Karnataka,Hassan,"B.Katihalli, Hassan - KSPCB",22-06-2024 21:00:00,13.008556,76.125258,NH3,1,3,2
India,Karnataka,Hassan,"B.Katihalli, Hassan - KSPCB",22-06-2024 21:00:00,13.008556,76.125258,CO,8,38,29
India,Karnataka,Haveri,"Ashwini Nagar, Haveri - KSPCB",22-06-2024 21:00:00,14.791800,75.389600,NH3,2,5,3
India,Karnataka,Kalaburagi,"Mahatma Basaveswar Colony, Kalaburgi - KSPCB",22-06-2024 21:00:00,17.336318,76.847397,NO2,8,16,11
India,Karnataka,Karwar,"KHB Colony, Karwar - KSPCB",22-06-2024 21:00:00,14.816666,74.141003,PM2.5,8,28,19
India,Karnataka,Karwar,"KHB Colony, Karwar - KSPCB",22-06-2024 21:00:00,14.816666,74.141003,NO2,NA,NA,NA
India,Karnataka,Kolar,"Tamaka Ind. Area, Kolar - KSPCB",22-06-2024 21:00:00,13.1276288,78.1570122,OZONE,13,14,13
India,Karnataka,Koppal,"Diwator Nagar, Koppal - KSPCB",22-06-2024 21:00:00,15.347630,76.181767,NO2,NA,NA,NA
India,Karnataka,Koppal,"Diwator Nagar, Koppal - KSPCB",22-06-2024 21:00:00,15.347630,76.181767,NH3,NA,NA,NA
India,Karnataka,Koppal,"Diwator Nagar, Koppal - KSPCB",22-06-2024 21:00:00,15.347630,76.181767,CO,4,4,4
India,Karnataka,Madikeri,"Stuart Hill, Madikeri - KSPCB",22-06-2024 21:00:00,12.415911,75.735050,NO2,1,4,2
India,Karnataka,Madikeri,"Stuart Hill, Madikeri - KSPCB",22-06-2024 21:00:00,12.415911,75.735050,SO2,4,4,4
India,Karnataka,Madikeri,"Stuart Hill, Madikeri - KSPCB",22-06-2024 21:00:00,12.415911,75.735050,OZONE,14,27,18
India,Karnataka,Mangalore,"Kadri, Mangalore - KSPCB",22-06-2024 21:00:00,12.889250,74.853000,PM10,37,67,52
India,Karnataka,Mangalore,"Kadri, Mangalore - KSPCB",22-06-2024 21:00:00,12.889250,74.853000,NO2,5,6,6
India,Karnataka,Mangalore,"Kadri, Mangalore - KSPCB",22-06-2024 21:00:00,12.889250,74.853000,CO,6,45,30
India,Karnataka,Mysuru,"Hebbal 1st Stage, Mysuru - KSPCB",22-06-2024 21:00:00,12.21041,76.37376,CO,2,31,21
India,Karnataka,Raichur,"Haji Colony, Raichur - KSPCB",22-06-2024 21:00:00,16.208139,77.348417,NH3,2,3,3
India,Karnataka,Raichur,"Haji Colony, Raichur - KSPCB",22-06-2024 21:00:00,16.208139,77.348417,CO,96,104,102
India,Karnataka,Shivamogga,"Vinoba Nagara, Shivamogga - KSPCB",22-06-2024 21:00:00,13.940000,75.555917,PM2.5,31,57,36
India,Karnataka,Tumakuru,"Thimmalapura, Tumakuru - KSPCB",22-06-2024 21:00:00,13.377516,77.099072,PM2.5,20,56,32
India,Karnataka,Tumakuru,"Thimmalapura, Tumakuru - KSPCB",22-06-2024 21:00:00,13.377516,77.099072,CO,29,34,31
India,Karnataka,Udupi,"Brahmagiri, Udupi - KSPCB",22-06-2024 21:00:00,13.34194444,74.74694444,PM2.5,NA,NA,NA
India,Karnataka,Udupi,"Brahmagiri, Udupi - KSPCB",22-06-2024 21:00:00,13.34194444,74.74694444,SO2,NA,NA,NA
India,Karnataka,Vijayapura,"Ibrahimpur, Vijayapura - KSPCB",22-06-2024 21:00:00,16.802639,75.722694,NO2,17,19,19
India,Karnataka,Vijayapura,"Ibrahimpur, Vijayapura - KSPCB",22-06-2024 21:00:00,16.802639,75.722694,OZONE,13,16,15
India,Karnataka,Yadgir,"Collector Office, Yadgir - KSPCB",22-06-2024 21:00:00,16.7602,77.1428,PM2.5,10,18,15
India,Karnataka,Yadgir,"Collector Office, Yadgir - KSPCB",22-06-2024 21:00:00,16.7602,77.1428,SO2,8,28,13
India,Karnataka,Yadgir,"Collector Office, Yadgir - KSPCB",22-06-2024 21:00:00,16.7602,77.1428,CO,10,19,17
India,Kerala,Kollam,"Polayathode, Kollam - Kerala PCB",22-06-2024 21:00:00,8.8787,76.6073,CO,13,18,15
India,Kerala,Kollam,"Polayathode, Kollam - Kerala PCB",22-06-2024 21:00:00,8.8787,76.6073,OZONE,30,35,32
India,Kerala,Thiruvananthapuram,"Kariavattom, Thiruvananthapuram - Kerala PCB",22-06-2024 21:00:00,8.563700,76.886500,PM10,51,60,56
India,Kerala,Thrissur,"Corporation Ground, Thrissur - Kerala PCB",22-06-2024 21:00:00,10.532400,76.215900,NO2,7,8,7
India,Kerala,Thrissur,"Corporation Ground, Thrissur - Kerala PCB",22-06-2024 21:00:00,10.532400,76.215900,NH3,1,1,1
India,Kerala,Thrissur,"Corporation Ground, Thrissur - Kerala PCB",22-06-2024 21:00:00,10.532400,76.215900,SO2,1,3,1
India,Kerala,Thrissur,"Corporation Ground, Thrissur - Kerala PCB",22-06-2024 21:00:00,10.532400,76.215900,CO,14,52,14
India,Madhya Pradesh,Bhopal,"Idgah Hills, Bhopal - MPPCB",22-06-2024 21:00:00,23.264759,77.381568,PM2.5,NA,NA,NA
India,Madhya Pradesh,Bhopal,"Paryavaran Parisar, Bhopal - MPPCB",22-06-2024 21:00:00,23.210494,77.425409,SO2,5,10,8
India,Madhya Pradesh,Bhopal,"Paryavaran Parisar, Bhopal - MPPCB",22-06-2024 21:00:00,23.210494,77.425409,CO,11,59,29
India,Madhya Pradesh,Damoh,"Shrivastav Colony, Damoh - MPPCB",22-06-2024 21:00:00,23.81748678,79.446246,SO2,32,34,33
India,Madhya Pradesh,Dewas,"Bhopal Chauraha, Dewas - MPPCB",22-06-2024 21:00:00,22.9682591,76.064118,PM2.5,39,85,57
India,Madhya Pradesh,Dewas,"Bhopal Chauraha, Dewas - MPPCB",22-06-2024 21:00:00,22.9682591,76.064118,OZONE,3,31,23
India,Madhya Pradesh,Gwalior,"City Center, Gwalior - MPPCB",22-06-2024 21:00:00,26.203442,78.193251,CO,34,53,45
India,Madhya Pradesh,Gwalior,"Deen Dayal Nagar, Gwalior - MPPCB",22-06-2024 21:00:00,26.259242,78.216432,PM2.5,18,207,55
India,Madhya Pradesh,Gwalior,"Deen Dayal Nagar, Gwalior - MPPCB",22-06-2024 21:00:00,26.259242,78.216432,NH3,4,13,8
India,Madhya Pradesh,Gwalior,"Maharaj Bada, Gwalior - MPPCB",22-06-2024 21:00:00,26.200388,78.147714,NO2,15,40,26
India,Madhya Pradesh,Gwalior,"Maharaj Bada, Gwalior - MPPCB",22-06-2024 21:00:00,26.200388,78.147714,CO,1,46,23
India,Madhya Pradesh,Gwalior,"Phool Bagh, Gwalior - Mondelez Ind. Food",22-06-2024 21:00:00,26.210536,78.171,PM10,28,139,77
India,Madhya Pradesh,Gwalior,"Phool Bagh, Gwalior - Mondelez Ind. Food",22-06-2024 21:00:00,26.210536,78.171,SO2,21,28,24
India,Madhya Pradesh,Indore,"Chhoti Gwaltoli, Indore - MPPCB",22-06-2024 21:00:00,22.4310,75.5213,NH3,3,5,4
India,Madhya Pradesh,Indore,"Chhoti Gwaltoli, Indore - MPPCB",22-06-2024 21:00:00,22.4310,75.5213,CO,91,113,100
India,Madhya Pradesh,Indore,"Maguda Nagar, Indore - IMC",22-06-2024 21:00:00,22.7524,75.8872,CO,19,31,21
India,Madhya Pradesh,Indore,"Maguda Nagar, Indore - IMC",22-06-2024 21:00:00,22.7524,75.8872,OZONE,1,4,3
India,Madhya Pradesh,Indore,"Regional Park, Indore - IMC",22-06-2024 21:00:00,22.6780,75.8559,NH3,NA,NA,NA
India,Madhya Pradesh,Indore,"Regional Park, Indore - IMC",22-06-2024 21:00:00,22.6780,75.8559,SO2,36,38,37
India,Madhya Pradesh,Indore,"Residency Area, Indore - IMC",22-06-2024 21:00:00,22.7084,75.8815,SO2,20,27,23
India,Madhya Pradesh,Indore,"Residency Area, Indore - IMC",22-06-2024 21:00:00,22.7084,75.8815,CO,10,12,11
India,Madhya Pradesh,Indore,"Residency Area, Indore - IMC",22-06-2024 21:00:00,22.7084,75.8815,OZONE,7,17,13
India,Madhya Pradesh,Jabalpur,"Govindh Bhavan Colony, Jabalpur - JMC",22-06-2024 21:00:00,23.163174,79.973061,CO,11,18,13
India,Madhya Pradesh,Jabalpur,"Gupteshwar, Jabalpur - JMC",22-06-2024 21:00:00,23.142888,79.916147,PM10,39,48,42
India,Madhya Pradesh,Jabalpur,"Gupteshwar, Jabalpur - JMC",22-06-2024 21:00:00,23.142888,79.916147,NO2,13,30,19
India,Madhya Pradesh,Jabalpur,"Gupteshwar, Jabalpur - JMC",22-06-2024 21:00:00,23.142888,79.916147,NH3,4,4,4
India,Madhya Pradesh,Jabalpur,"Gupteshwar, Jabalpur - JMC",22-06-2024 21:00:00,23.142888,79.916147,OZONE,27,93,76
India,Madhya Pradesh,Jabalpur,"Suhagi, Jabalpur - JMC",22-06-2024 21:00:00,23.218135,79.957770,PM10,NA,NA,NA
India,Madhya Pradesh,Katni,"Gole Bazar, Katni - MPPCB",22-06-2024 21:00:00,23.50016,80.23284,OZONE,4,31,18
India,Madhya Pradesh,Mandideep,"Sector-D Industrial Area, Mandideep - MPPCB",22-06-2024 21:00:00,23.108440,77.511428,NO2,NA,NA,NA
India,Madhya Pradesh,Pithampur,"Sector-2 Industrial Area, Pithampur - MPPCB",22-06-2024 21:00:00,22.624758,75.675238,SO2,14,41,23
India,Madhya Pradesh,Ratlam,"Shasthri Nagar, Ratlam - IPCA Lab",22-06-2024 21:00:00,23.331731,75.045981,PM10,50,163,111
India,Madhya Pradesh,Sagar,"Civil Lines, Sagar - MPPCB",22-06-2024 21:00:00,23.838586,78.759431,SO2,2,8,5
India,Madhya Pradesh,Sagar,"Civil Lines, Sagar - MPPCB",22-06-2024 21:00:00,23.838586,78.759431,CO,9,40,29
India,Madhya Pradesh,Sagar,"Deen Dayal Nagar, Sagar - MPPCB",22-06-2024 21:00:00,23.8640158,78.80289321,PM10,23,67,36
India,Madhya Pradesh,Sagar,"Deen Dayal Nagar, Sagar - MPPCB",22-06-2024 21:00:00,23.8640158,78.80289321,SO2,11,14,13
India,Madhya Pradesh,Singrauli,"Suryakiran Bhawan NCL, Singrauli - MPPCB",22-06-2024 21:00:00,24.108970,82.645580,SO2,33,134,84
India,Madhya Pradesh,Ujjain,"Mahakaleshwar Temple, Ujjain - MPPCB",22-06-2024 21:00:00,23.182719 ,75.768218 ,PM10,58,126,89
India,Madhya Pradesh,Ujjain,"Mahakaleshwar Temple, Ujjain - MPPCB",22-06-2024 21:00:00,23.182719 ,75.768218 ,OZONE,51,68,61
