country,state,city,station,last_update,latitude,longitude,pollutant_id,pollutant_min,pollutant_max,pollutant_avg
India,Andhra_Pradesh,Amaravati,"Secretariat, Amaravati - APPCB",20-03-2024 00:00:00,16.5150833,80.5181667,SO2,12,20,16
India,Andhra_Pradesh,Amaravati,"Secretariat, Amaravati - APPCB",20-03-2024 00:00:00,16.5150833,80.5181667,OZONE,1,56,34
India,Andhra_Pradesh,Anantapur,"Gulzarpet, Anantapur - APPCB",20-03-2024 00:00:00,14.675886,77.593027,NH3,NA,NA,NA
India,Andhra_Pradesh,Anantapur,"Gulzarpet, Anantapur - APPCB",20-03-2024 00:00:00,14.675886,77.593027,OZONE,17,64,43
India,Andhra_Pradesh,Chittoor,"Gangineni Cheruvu, Chittoor - APPCB",20-03-2024 00:00:00,13.204880,79.097889,PM2.5,NA,NA,NA
India,Andhra_Pradesh,Chittoor,"Gangineni Cheruvu, Chittoor - APPCB",20-03-2024 00:00:00,13.204880,79.097889,NO2,NA,NA,NA
India,Andhra_Pradesh,Chittoor,"Gangineni Cheruvu, Chittoor - APPCB",20-03-2024 00:00:00,13.204880,79.097889,NH3,NA,NA,NA
India,Andhra_Pradesh,Chittoor,"Gangineni Cheruvu, Chittoor - APPCB",20-03-2024 00:00:00,13.204880,79.097889,SO2,NA,NA,NA
India,Andhra_Pradesh,Chittoor,"Gangineni Cheruvu, Chittoor - APPCB",20-03-2024 00:00:00,13.204880,79.097889,CO,50,62,56
India,Andhra_Pradesh,Kadapa,"Yerramukkapalli, Kadapa - APPCB",20-03-2024 00:00:00,14.465052,78.824187,PM10,25,114,54
India,Andhra_Pradesh,Tirupati,"Tirumala, Tirupati - APPCB",20-03-2024 00:00:00,13.67,79.35,NH3,1,1,1
India,Andhra_Pradesh,Tirupati,"Tirumala, Tirupati - APPCB",20-03-2024 00:00:00,13.67,79.35,SO2,3,13,7
India,Andhra_Pradesh,Tirupati,"Vaikuntapuram, Tirupati - APPCB",20-03-2024 00:00:00,13.615387,79.409230,NH3,2,3,3
India,Andhra_Pradesh,Vijayawada,"HB Colony, Vijayawada - APPCB",20-03-2024 00:00:00,16.536107,80.594233,NO2,5,12,7
India,Andhra_Pradesh,Vijayawada,"HB Colony, Vijayawada - APPCB",20-03-2024 00:00:00,16.536107,80.594233,NH3,4,4,4
India,Andhra_Pradesh,Vijayawada,"HB Colony, Vijayawada - APPCB",20-03-2024 00:00:00,16.536107,80.594233,OZONE,4,36,22
India,Andhra_Pradesh,Vijayawada,"Rajiv Gandhi Park, Vijayawada - APPCB",20-03-2024 00:00:00,16.509717,80.612222,PM10,31,85,57
India,Andhra_Pradesh,Vijayawada,"Rajiv Gandhi Park, Vijayawada - APPCB",20-03-2024 00:00:00,16.509717,80.612222,NH3,5,7,6
India,Andhra_Pradesh,Vijayawada,"Rajiv Nagar, Vijayawada - APPCB",20-03-2024 00:00:00,16.554731,80.649110,PM10,62,73,68
India,Andhra_Pradesh,Vijayawada,"Rajiv Nagar, Vijayawada - APPCB",20-03-2024 00:00:00,16.554731,80.649110,SO2,10,17,14
India,Andhra_Pradesh,Visakhapatnam,"GVM Corporation, Visakhapatnam - APPCB",20-03-2024 00:00:00,17.72,83.3,PM10,62,141,98
India,Arunachal_Pradesh,Naharlagun,"Naharlagun, Naharlagun - APSPCB",20-03-2024 00:00:00,27.103358,93.679645,PM2.5,44,365,142
India,Arunachal_Pradesh,Naharlagun,"Naharlagun, Naharlagun - APSPCB",20-03-2024 00:00:00,27.103358,93.679645,PM10,44,326,114
India,Assam,Byrnihat,"Central Academy for SFS, Byrnihat - PCBA",20-03-2024 00:00:00,26.071318,91.87488,PM2.5,150,500,361
India,Assam,Byrnihat,"Central Academy for SFS, Byrnihat - PCBA",20-03-2024 00:00:00,26.071318,91.87488,PM10,108,500,285
India,Assam,Guwahati,"IITG, Guwahati - PCBA",20-03-2024 00:00:00,26.2028636,91.70046436,PM10,157,379,244
India,Assam,Guwahati,"LGBI Airport, Guwahati - PCBA",20-03-2024 00:00:00,26.10887,91.589544,PM2.5,309,406,356
India,Assam,Guwahati,"Pan Bazaar, Guwahati - PCBA",20-03-2024 00:00:00,26.187500,91.744194,PM2.5,204,348,302
India,Assam,Guwahati,"Pan Bazaar, Guwahati - PCBA",20-03-2024 00:00:00,26.187500,91.744194,PM10,179,295,234
India,Assam,Guwahati,"Railway Colony, Guwahati - PCBA",20-03-2024 00:00:00,26.181742,91.78063,CO,40,104,74
India,Assam,Nagaon,"Christianpatty, Nagaon - PCBA",20-03-2024 00:00:00,26.349082,92.68449,PM2.5,28,153,88
India,Assam,Nagaon,"Christianpatty, Nagaon - PCBA",20-03-2024 00:00:00,26.349082,92.68449,OZONE,4,130,65
India,Assam,Nalbari,"Bata Chowk, Nalbari - PCBA",20-03-2024 00:00:00,26.446912,91.439057,PM2.5,150,359,258
India,Assam,Nalbari,"Bata Chowk, Nalbari - PCBA",20-03-2024 00:00:00,26.446912,91.439057,NH3,1,4,2
India,Assam,Sivasagar,"Girls College, Sivasagar - PCBA",20-03-2024 00:00:00,26.987634,94.636574,PM10,43,87,62
India,Assam,Sivasagar,"Girls College, Sivasagar - PCBA",20-03-2024 00:00:00,26.987634,94.636574,OZONE,1,12,5
India,Bihar,Araria,"Kharahiya Basti, Araria - BSPCB",20-03-2024 00:00:00,26.146529,87.454184,PM10,106,235,156
India,Bihar,Araria,"Kharahiya Basti, Araria - BSPCB",20-03-2024 00:00:00,26.146529,87.454184,OZONE,6,11,9
India,Bihar,Arrah,"New DM Office, Arrah - BSPCB",20-03-2024 00:00:00,25.5626095,84.663264,PM2.5,18,230,112
India,Bihar,Arrah,"New DM Office, Arrah - BSPCB",20-03-2024 00:00:00,25.5626095,84.663264,SO2,15,21,18
India,Bihar,Aurangabad,"Gurdeo Nagar, Aurangabad - BSPCB",20-03-2024 00:00:00,24.75746,84.366208,CO,31,70,52
India,Bihar,Bettiah,"Kamalnath Nagar, Bettiah - BSPCB",20-03-2024 00:00:00,26.80365,84.51954,PM2.5,NA,NA,NA
India,Bihar,Bhagalpur,"DM Office_Kachari Chowk, Bhagalpur - BSPCB",20-03-2024 00:00:00,25.251013,86.989001,PM10,98,223,149
India,Bihar,Bhagalpur,"DM Office_Kachari Chowk, Bhagalpur - BSPCB",20-03-2024 00:00:00,25.251013,86.989001,NH3,9,16,12
India,Bihar,Bhagalpur,"DM Office_Kachari Chowk, Bhagalpur - BSPCB",20-03-2024 00:00:00,25.251013,86.989001,OZONE,38,59,45
India,Bihar,Bhagalpur,"Mayaganj, Bhagalpur - BSPCB",20-03-2024 00:00:00,25.265194,87.012947,SO2,11,12,12
India,Bihar,Bhagalpur,"Mayaganj, Bhagalpur - BSPCB",20-03-2024 00:00:00,25.265194,87.012947,OZONE,10,48,13
India,Bihar,Bihar Sharif,"D M Colony, Bihar Sharif - BSPCB",20-03-2024 00:00:00,25.204762,85.514960,NH3,2,2,2
India,Bihar,Bihar Sharif,"D M Colony, Bihar Sharif - BSPCB",20-03-2024 00:00:00,25.204762,85.514960,OZONE,4,4,4
India,Bihar,Buxar,"Charitra Van, Buxar - BSPCB (Formerly known as Central Jail)",20-03-2024 00:00:00,25.567520,83.966379,OZONE,7,154,95
India,Bihar,Chhapra,"Darshan Nagar, Chhapra - BSPCB",20-03-2024 00:00:00,25.7808257,84.7446768,PM2.5,87,373,272
India,Bihar,Chhapra,"Darshan Nagar, Chhapra - BSPCB",20-03-2024 00:00:00,25.7808257,84.7446768,SO2,9,57,28
India,Bihar,Gaya,"Collectorate, Gaya - BSPCB",20-03-2024 00:00:00,24.7955,84.9994,PM2.5,31,187,97
India,Bihar,Gaya,"Kareemganj, Gaya - BSPCB",20-03-2024 00:00:00,24.792403,84.992416,PM10,31,129,77
India,Bihar,Gaya,"Kareemganj, Gaya - BSPCB",20-03-2024 00:00:00,24.792403,84.992416,NO2,23,31,30
India,Bihar,Gaya,"SFTI Kusdihra, Gaya - BSPCB",20-03-2024 00:00:00,24.762518,84.982348,NH3,1,6,2
India,Bihar,Hajipur,"Industrial Area, Hajipur - BSPCB",20-03-2024 00:00:00,25.697189,85.245900,OZONE,5,49,22
India,Bihar,Katihar,"Mirchaibari, Katihar - BSPCB",20-03-2024 00:00:00,25.560083,87.553265,PM10,92,216,134
India,Bihar,Katihar,"Mirchaibari, Katihar - BSPCB",20-03-2024 00:00:00,25.560083,87.553265,NO2,17,35,28
India,Bihar,Kishanganj,"SDM Office_Khagra, Kishanganj - BSPCB",20-03-2024 00:00:00,26.0881305,87.93840336,PM10,146,308,216
India,Bihar,Kishanganj,"SDM Office_Khagra, Kishanganj - BSPCB",20-03-2024 00:00:00,26.0881305,87.93840336,SO2,26,46,38
India,Bihar,Kishanganj,"SDM Office_Khagra, Kishanganj - BSPCB",20-03-2024 00:00:00,26.0881305,87.93840336,CO,2,14,10
India,Bihar,Munger,"Town Hall, Munger - BSPCB",20-03-2024 00:00:00,25.376776,86.471523,PM10,93,500,209
India,Bihar,Munger,"Town Hall, Munger - BSPCB",20-03-2024 00:00:00,25.376776,86.471523,SO2,3,29,19
India,Bihar,Muzaffarpur,"Buddha Colony, Muzaffarpur - BSPCB",20-03-2024 00:00:00,26.11442,85.39813,PM2.5,235,339,308
India,Bihar,Muzaffarpur,"Buddha Colony, Muzaffarpur - BSPCB",20-03-2024 00:00:00,26.11442,85.39813,NH3,15,33,20
India,Bihar,Muzaffarpur,"Buddha Colony, Muzaffarpur - BSPCB",20-03-2024 00:00:00,26.11442,85.39813,SO2,2,17,10
India,Bihar,Muzaffarpur,"Buddha Colony, Muzaffarpur - BSPCB",20-03-2024 00:00:00,26.11442,85.39813,CO,40,82,64
India,Bihar,Muzaffarpur,"MIT-Daudpur Kothi, Muzaffarpur - BSPCB",20-03-2024 00:00:00,26.1403345,85.3650192,PM2.5,183,359,299
India,Bihar,Patna,"DRM Office Danapur, Patna - BSPCB",20-03-2024 00:00:00,25.586562,85.043586,PM2.5,51,288,185
India,Bihar,Patna,"DRM Office Danapur, Patna - BSPCB",20-03-2024 00:00:00,25.586562,85.043586,NO2,17,90,43
India,Bihar,Patna,"DRM Office Danapur, Patna - BSPCB",20-03-2024 00:00:00,25.586562,85.043586,SO2,7,10,8
India,Bihar,Patna,"Govt. High School Shikarpur, Patna - BSPCB",20-03-2024 00:00:00,25.592539,85.227158,NO2,21,28,23
India,Bihar,Patna,"IGSC Planetarium Complex, Patna - BSPCB",20-03-2024 00:00:00,25.610369,85.132568,CO,8,13,12
India,Bihar,Patna,"Muradpur, Patna - BSPCB",20-03-2024 00:00:00,25.619651,85.147382,NO2,12,21,16
India,Bihar,Patna,"Muradpur, Patna - BSPCB",20-03-2024 00:00:00,25.619651,85.147382,NH3,3,5,4
India,Bihar,Patna,"Samanpura, Patna - BSPCB",20-03-2024 00:00:00,25.596727,85.085624,SO2,15,16,16
India,Bihar,Purnia,"Mariam Nagar, Purnia - BSPCB",20-03-2024 00:00:00,25.366336,87.117468,PM10,125,203,159
India,Bihar,Purnia,"Mariam Nagar, Purnia - BSPCB",20-03-2024 00:00:00,25.366336,87.117468,OZONE,9,39,17
India,Bihar,Saharsa,"Police Line, Saharsa - BSPCB",20-03-2024 00:00:00,25.892357,86.590325,SO2,16,16,16
India,Bihar,Saharsa,"Police Line, Saharsa - BSPCB",20-03-2024 00:00:00,25.892357,86.590325,CO,11,105,59
India,Bihar,Samastipur,"DM Office_Kasipur, Samastipur - BSPCB",20-03-2024 00:00:00,25.859655,85.77944,NH3,2,5,4
India,Bihar,Sasaram,"Dada Peer, Sasaram - BSPCB",20-03-2024 00:00:00,24.952822,84.002396,PM2.5,22,73,42
India,Bihar,Siwan,"Chitragupta Nagar, Siwan - BSPCB",20-03-2024 00:00:00,26.2271665,84.3570427,PM2.5,113,344,252
India,Bihar,Siwan,"Chitragupta Nagar, Siwan - BSPCB",20-03-2024 00:00:00,26.2271665,84.3570427,NO2,13,53,27
India,Bihar,Siwan,"Chitragupta Nagar, Siwan - BSPCB",20-03-2024 00:00:00,26.2271665,84.3570427,SO2,3,36,29
India,Chandigarh,Chandigarh,"Sector 22, Chandigarh - CPCC",20-03-2024 00:00:00,30.735567,76.775714,OZONE,3,160,68
India,Chandigarh,Chandigarh,"Sector-53, Chandigarh - CPCC",20-03-2024 00:00:00,30.719859,76.738637,PM2.5,43,277,142
India,Chhattisgarh,Bhilai,"32Bungalows, Bhilai - CECB",20-03-2024 00:00:00,21.194815,81.314770,PM2.5,19,40,28
India,Chhattisgarh,Bhilai,"32Bungalows, Bhilai - CECB",20-03-2024 00:00:00,21.194815,81.314770,CO,16,44,23
India,Chhattisgarh,Bhilai,"Civic Center, Bhilai - Bhilai Steel Plant",20-03-2024 00:00:00,21.185571,81.343175,NO2,15,15,15
India,Chhattisgarh,Bhilai,"Civic Center, Bhilai - Bhilai Steel Plant",20-03-2024 00:00:00,21.185571,81.343175,OZONE,17,47,32
India,Chhattisgarh,Bhilai,"Hathkhoj, Bhilai - CECB",20-03-2024 00:00:00,21.224231,81.408350,NO2,18,53,29
India,Chhattisgarh,Chhal,"Nawapara SECL Colony, Chhal - CECB",20-03-2024 00:00:00,22.118125,83.140608,NH3,NA,NA,NA
India,Chhattisgarh,Chhal,"Nawapara SECL Colony, Chhal - CECB",20-03-2024 00:00:00,22.118125,83.140608,OZONE,1,71,2
India,Chhattisgarh,Korba,"Urja Nagar, Korba - CECB",20-03-2024 00:00:00,22.348441,82.549611,CO,25,51,29
India,Chhattisgarh,Kunjemura,"OP Jindal School, Kunjemura - CECB",20-03-2024 00:00:00,22.126650,83.483212,PM10,14,79,37
India,Chhattisgarh,Kunjemura,"OP Jindal School, Kunjemura - CECB",20-03-2024 00:00:00,22.126650,83.483212,NH3,2,3,2
India,Chhattisgarh,Kunjemura,"OP Jindal School, Kunjemura - CECB",20-03-2024 00:00:00,22.126650,83.483212,SO2,4,6,5
India,Chhattisgarh,Kunjemura,"OP Jindal School, Kunjemura - CECB",20-03-2024 00:00:00,22.126650,83.483212,CO,16,60,23
India,Chhattisgarh,Milupara,"Govt. Higher Secondary School, Milupara - CECB",20-03-2024 00:00:00,22.1910172,83.5197009,CO,5,32,23
India,Chhattisgarh,Milupara,"Govt. Higher Secondary School, Milupara - CECB",20-03-2024 00:00:00,22.1910172,83.5197009,OZONE,5,24,16
India,Chhattisgarh,Raipur,"AIIMS, Raipur - CECB",20-03-2024 00:00:00,21.258815,81.578979,NO2,42,54,48
India,Chhattisgarh,Raipur,"Bhatagaon New ISBT, Raipur - CECB",20-03-2024 00:00:00,21.219665,81.630094,NH3,NA,NA,NA
India,Chhattisgarh,Raipur,"Bhatagaon New ISBT, Raipur - CECB",20-03-2024 00:00:00,21.219665,81.630094,SO2,NA,NA,NA
India,Chhattisgarh,Raipur,"Siltara Phase-II, Raipur - CECB",20-03-2024 00:00:00,21.371751,81.664929,PM2.5,15,43,28
India,Delhi,Delhi,"Alipur, Delhi - DPCC",20-03-2024 00:00:00,28.815329,77.153010,PM10,81,415,234
India,Delhi,Delhi,"Alipur, Delhi - DPCC",20-03-2024 00:00:00,28.815329,77.153010,SO2,15,101,29
India,Delhi,Delhi,"Ashok Vihar, Delhi - DPCC",20-03-2024 00:00:00,28.695381,77.181665,PM2.5,42,393,200
India,Delhi,Delhi,"Ashok Vihar, Delhi - DPCC",20-03-2024 00:00:00,28.695381,77.181665,NO2,15,130,69
India,Delhi,Delhi,"Ashok Vihar, Delhi - DPCC",20-03-2024 00:00:00,28.695381,77.181665,OZONE,1,36,13
India,Delhi,Delhi,"Aya Nagar, Delhi - IMD",20-03-2024 00:00:00,28.4706914,77.1099364,PM10,104,301,182
India,Delhi,Delhi,"Bawana, Delhi - DPCC",20-03-2024 00:00:00,28.776200,77.051074,PM10,106,425,264
India,Delhi,Delhi,"Bawana, Delhi - DPCC",20-03-2024 00:00:00,28.776200,77.051074,OZONE,3,110,68
India,Delhi,Delhi,"Burari Crossing, Delhi - IMD",20-03-2024 00:00:00,28.7256504,77.2011573,NO2,4,5,4
India,Delhi,Delhi,"Burari Crossing, Delhi - IMD",20-03-2024 00:00:00,28.7256504,77.2011573,CO,42,81,46
India,Delhi,Delhi,"CRRI Mathura Road, Delhi - IMD",20-03-2024 00:00:00,28.5512005,77.2735737,CO,54,132,77
India,Delhi,Delhi,"Chandni Chowk, Delhi - IITM",20-03-2024 00:00:00,28.656756,77.227234,PM10,113,270,168
India,Delhi,Delhi,"DTU, Delhi - CPCB",20-03-2024 00:00:00,28.7500499,77.1112615,SO2,27,30,28
India,Delhi,Delhi,"Dr. Karni Singh Shooting Range, Delhi - DPCC",20-03-2024 00:00:00,28.498571,77.264840,OZONE,2,259,65
India,Delhi,Delhi,"Dwarka-Sector 8, Delhi - DPCC ",20-03-2024 00:00:00,28.5710274,77.0719006,PM10,120,478,298
India,Delhi,Delhi,"IGI Airport (T3), Delhi - IMD",20-03-2024 00:00:00,28.5627763,77.1180053,NO2,28,72,51
India,Delhi,Delhi,"ITO, Delhi - CPCB",20-03-2024 00:00:00,28.628624,77.241060,NO2,12,165,83
India,Delhi,Delhi,"ITO, Delhi - CPCB",20-03-2024 00:00:00,28.628624,77.241060,NH3,2,9,5
India,Delhi,Delhi,"Jawaharlal Nehru Stadium, Delhi - DPCC",20-03-2024 00:00:00,28.580280,77.233829,PM2.5,39,328,140
India,Delhi,Delhi,"Jawaharlal Nehru Stadium, Delhi - DPCC",20-03-2024 00:00:00,28.580280,77.233829,PM10,89,278,160
India,Delhi,Delhi,"Jawaharlal Nehru Stadium, Delhi - DPCC",20-03-2024 00:00:00,28.580280,77.233829,SO2,15,73,40
India,Delhi,Delhi,"Jawaharlal Nehru Stadium, Delhi - DPCC",20-03-2024 00:00:00,28.580280,77.233829,CO,18,116,53
India,Delhi,Delhi,"Lodhi Road, Delhi - IITM",20-03-2024 00:00:00,28.588333,77.221667,PM10,65,396,138
India,Delhi,Delhi,"Lodhi Road, Delhi - IITM",20-03-2024 00:00:00,28.588333,77.221667,NO2,55,129,89
India,Delhi,Delhi,"Lodhi Road, Delhi - IITM",20-03-2024 00:00:00,28.588333,77.221667,NH3,8,11,10
India,Delhi,Delhi,"Lodhi Road, Delhi - IITM",20-03-2024 00:00:00,28.588333,77.221667,OZONE,15,20,17
India,Delhi,Delhi,"Lodhi Road, Delhi - IMD",20-03-2024 00:00:00,28.5918245,77.2273074,PM10,87,194,122
India,Delhi,Delhi,"Major Dhyan Chand National Stadium, Delhi - DPCC",20-03-2024 00:00:00,28.611281,77.237738,SO2,9,37,21
India,Delhi,Delhi,"Mandir Marg, Delhi - DPCC",20-03-2024 00:00:00,28.636429,77.201067,NO2,87,197,154
India,Delhi,Delhi,"Mandir Marg, Delhi - DPCC",20-03-2024 00:00:00,28.636429,77.201067,OZONE,1,117,19
India,Delhi,Delhi,"Mundka, Delhi - DPCC",20-03-2024 00:00:00,28.684678,77.076574,NO2,15,103,59
India,Delhi,Delhi,"NSIT Dwarka, Delhi - CPCB",20-03-2024 00:00:00,28.60909,77.0325413,NH3,6,23,12
India,Delhi,Delhi,"NSIT Dwarka, Delhi - CPCB",20-03-2024 00:00:00,28.60909,77.0325413,CO,28,100,51
India,Delhi,Delhi,"Najafgarh, Delhi - DPCC",20-03-2024 00:00:00,28.570173,76.933762,NO2,4,24,13
India,Delhi,Delhi,"Narela, Delhi - DPCC",20-03-2024 00:00:00,28.822836,77.101981,PM2.5,48,441,256
India,Delhi,Delhi,"Narela, Delhi - DPCC",20-03-2024 00:00:00,28.822836,77.101981,PM10,85,411,237
India,Delhi,Delhi,"Narela, Delhi - DPCC",20-03-2024 00:00:00,28.822836,77.101981,CO,38,91,66
India,Delhi,Delhi,"New Moti Bagh, Delhi - MHUA",20-03-2024 00:00:00,28.57834,77.18400,PM2.5,54,352,195
India,Delhi,Delhi,"North Campus, DU, Delhi - IMD",20-03-2024 00:00:00,28.6573814,77.1585447,PM10,99,372,196
India,Delhi,Delhi,"North Campus, DU, Delhi - IMD",20-03-2024 00:00:00,28.6573814,77.1585447,CO,5,121,66
India,Delhi,Delhi,"Okhla Phase-2, Delhi - DPCC",20-03-2024 00:00:00,28.530785,77.271255,PM10,110,404,203
India,Delhi,Delhi,"Okhla Phase-2, Delhi - DPCC",20-03-2024 00:00:00,28.530785,77.271255,CO,48,116,76
India,Delhi,Delhi,"Okhla Phase-2, Delhi - DPCC",20-03-2024 00:00:00,28.530785,77.271255,OZONE,10,179,68
India,Delhi,Delhi,"Patparganj, Delhi - DPCC",20-03-2024 00:00:00,28.623763,77.287209,SO2,17,20,18
India,Delhi,Delhi,"Patparganj, Delhi - DPCC",20-03-2024 00:00:00,28.623763,77.287209,OZONE,3,169,69
India,Delhi,Delhi,"Punjabi Bagh, Delhi - DPCC",20-03-2024 00:00:00,28.674045,77.131023,NO2,18,36,24
India,Delhi,Delhi,"Punjabi Bagh, Delhi - DPCC",20-03-2024 00:00:00,28.674045,77.131023,SO2,22,35,31
India,Delhi,Delhi,"Pusa, Delhi - DPCC",20-03-2024 00:00:00,28.639652,77.146275,PM10,125,414,203
India,Delhi,Delhi,"Pusa, Delhi - DPCC",20-03-2024 00:00:00,28.639652,77.146275,OZONE,9,104,34
India,Delhi,Delhi,"Pusa, Delhi - IMD",20-03-2024 00:00:00,28.636110,77.173332,PM2.5,45,392,268
India,Delhi,Delhi,"R K Puram, Delhi - DPCC",20-03-2024 00:00:00,28.563262,77.186937,OZONE,9,244,69
India,Delhi,Delhi,"Rohini, Delhi - DPCC",20-03-2024 00:00:00,28.732528,77.119920,PM10,90,405,249
India,Delhi,Delhi,"Rohini, Delhi - DPCC",20-03-2024 00:00:00,28.732528,77.119920,NH3,7,14,9
India,Delhi,Delhi,"Rohini, Delhi - DPCC",20-03-2024 00:00:00,28.732528,77.119920,OZONE,2,115,57
India,Delhi,Delhi,"Shadipur, Delhi - CPCB",20-03-2024 00:00:00,28.6514781,77.1473105,SO2,8,39,19
India,Delhi,Delhi,"Shadipur, Delhi - CPCB",20-03-2024 00:00:00,28.6514781,77.1473105,OZONE,12,179,48
India,Delhi,Delhi,"Sirifort, Delhi - CPCB",20-03-2024 00:00:00,28.5504249,77.2159377,PM10,95,332,174
India,Delhi,Delhi,"Sonia Vihar, Delhi - DPCC",20-03-2024 00:00:00,28.710508,77.249485,NO2,19,92,54
India,Delhi,Delhi,"Sonia Vihar, Delhi - DPCC",20-03-2024 00:00:00,28.710508,77.249485,OZONE,21,197,112
India,Delhi,Delhi,"Sri Aurobindo Marg, Delhi - DPCC",20-03-2024 00:00:00,28.531346,77.190156,SO2,9,30,16
India,Delhi,Delhi,"Wazirpur, Delhi - DPCC",20-03-2024 00:00:00,28.699793,77.165453,CO,6,117,67
India,Gujarat,Ahmedabad,"Chandkheda, Ahmedabad - IITM",20-03-2024 00:00:00,23.107969,72.574648,PM10,77,202,119
India,Gujarat,Ahmedabad,"Chandkheda, Ahmedabad - IITM",20-03-2024 00:00:00,23.107969,72.574648,NO2,24,32,28
India,Gujarat,Ahmedabad,"Chandkheda, Ahmedabad - IITM",20-03-2024 00:00:00,23.107969,72.574648,NH3,15,15,15
India,Gujarat,Ahmedabad,"Gyaspur, Ahmedabad - IITM",20-03-2024 00:00:00,22.977134,72.553024,CO,1,101,54
India,Gujarat,Ahmedabad,"Gyaspur, Ahmedabad - IITM",20-03-2024 00:00:00,22.977134,72.553024,OZONE,8,80,39
India,Gujarat,Ahmedabad,"Maninagar, Ahmedabad - GPCB",20-03-2024 00:00:00,23.002657,72.591912,PM2.5,27,306,95
India,Gujarat,Ahmedabad,"Raikhad, Ahmedabad - IITM",20-03-2024 00:00:00,23.020509,72.579261,PM2.5,43,149,90
India,Gujarat,Ahmedabad,"Raikhad, Ahmedabad - IITM",20-03-2024 00:00:00,23.020509,72.579261,OZONE,13,59,29
India,Gujarat,Ahmedabad,"Rakhial, Ahmedabad - IITM",20-03-2024 00:00:00,23.016834,72.625775,PM2.5,33,356,161
India,Gujarat,Ahmedabad,"SAC ISRO Satellite, Ahmedabad - IITM",20-03-2024 00:00:00,23.023389,72.515201,SO2,1,19,6
India,Gujarat,Ahmedabad,"SAC ISRO Satellite, Ahmedabad - IITM",20-03-2024 00:00:00,23.023389,72.515201,CO,23,43,30
India,Gujarat,Ahmedabad,"SAC ISRO Satellite, Ahmedabad - IITM",20-03-2024 00:00:00,23.023389,72.515201,OZONE,10,24,14
India,Gujarat,Ahmedabad,"Sardar Vallabhbhai Patel Stadium, Ahmedabad - IITM",20-03-2024 00:00:00,23.043070,72.562968,CO,26,111,68
India,Gujarat,Ankleshwar,"GIDC, Ankleshwar - GPCB",20-03-2024 00:00:00,21.613267,73.010555,PM2.5,46,139,82
India,Gujarat,Ankleshwar,"GIDC, Ankleshwar - GPCB",20-03-2024 00:00:00,21.613267,73.010555,PM10,60,120,86
India,Gujarat,Ankleshwar,"GIDC, Ankleshwar - GPCB",20-03-2024 00:00:00,21.613267,73.010555,NO2,36,37,37
India,Gujarat,Ankleshwar,"GIDC, Ankleshwar - GPCB",20-03-2024 00:00:00,21.613267,73.010555,OZONE,20,39,28
India,Gujarat,Gandhinagar,"IIPHG Lekawada, Gandhinagar - IITM",20-03-2024 00:00:00,23.243639,72.68994,SO2,2,11,7
India,Gujarat,Surat,"Science Center, Surat - SMC",20-03-2024 00:00:00,21.170046,72.795405,CO,50,72,64
India,Gujarat,Vapi,"Phase-1 GIDC, Vapi - GPCB",20-03-2024 00:00:00,20.362421,72.918013,CO,60,197,82
India,Gujarat,Vapi,"Phase-1 GIDC, Vapi - GPCB",20-03-2024 00:00:00,20.362421,72.918013,OZONE,1,2,1
India,Gujarat,Vatva,"Phase-4 GIDC, Vatva - GPCB",20-03-2024 00:00:00,22.969611,72.643500,NO2,39,354,133
India,Gujarat,Vatva,"Phase-4 GIDC, Vatva - GPCB",20-03-2024 00:00:00,22.969611,72.643500,OZONE,7,62,32
India,Haryana,Ambala,"Patti Mehar, Ambala - HSPCB",20-03-2024 00:00:00,30.379589,76.778328,PM10,37,155,60
India,Haryana,Ambala,"Patti Mehar, Ambala - HSPCB",20-03-2024 00:00:00,30.379589,76.778328,NH3,5,12,9
India,Haryana,Ambala,"Patti Mehar, Ambala - HSPCB",20-03-2024 00:00:00,30.379589,76.778328,SO2,4,105,52
India,Haryana,Bahadurgarh,"Arya Nagar, Bahadurgarh - HSPCB",20-03-2024 00:00:00,28.6701,76.9254,PM10,76,223,138
India,Haryana,Bhiwani,"H.B. Colony, Bhiwani - HSPCB",20-03-2024 00:00:00,28.806223,76.141105,PM2.5,14,230,58
India,Haryana,Charkhi Dadri,"Mini Secretariat, Charkhi Dadri - HSPCB",20-03-2024 00:00:00,28.593883,76.270653,PM2.5,70,309,146
India,Haryana,Charkhi Dadri,"Mini Secretariat, Charkhi Dadri - HSPCB",20-03-2024 00:00:00,28.593883,76.270653,OZONE,13,17,15
India,Haryana,Dharuhera,"Municipal Corporation Office, Dharuhera -  HSPCB",20-03-2024 00:00:00,28.206800,76.799700,SO2,15,66,25
India,Haryana,Faridabad,"New Industrial Town, Faridabad - HSPCB",20-03-2024 00:00:00,28.39072,77.30059,PM2.5,164,394,286
India,Haryana,Faridabad,"New Industrial Town, Faridabad - HSPCB",20-03-2024 00:00:00,28.39072,77.30059,PM10,121,419,209
India,Haryana,Faridabad,"New Industrial Town, Faridabad - HSPCB",20-03-2024 00:00:00,28.39072,77.30059,CO,12,51,26
India,Haryana,Faridabad,"Sector 11, Faridabad - HSPCB",20-03-2024 00:00:00,28.376058,77.315741,NH3,6,6,6
India,Haryana,Faridabad,"Sector 30, Faridabad - HSPCB",20-03-2024 00:00:00,28.4417,77.3217,SO2,2,29,6
India,Haryana,Faridabad,"Sector 30, Faridabad - HSPCB",20-03-2024 00:00:00,28.4417,77.3217,OZONE,5,117,28
India,Haryana,Fatehabad,"Huda Sector, Fatehabad - HSPCB",20-03-2024 00:00:00,29.503664,75.467934,PM2.5,37,165,85
India,Haryana,Fatehabad,"Huda Sector, Fatehabad - HSPCB",20-03-2024 00:00:00,29.503664,75.467934,PM10,68,126,102
India,Haryana,Fatehabad,"Huda Sector, Fatehabad - HSPCB",20-03-2024 00:00:00,29.503664,75.467934,NH3,12,14,13
India,Haryana,Gurugram,"Sector-51, Gurugram - HSPCB",20-03-2024 00:00:00,28.4227,77.0667,NO2,13,29,23
India,Haryana,Gurugram,"Sector-51, Gurugram - HSPCB",20-03-2024 00:00:00,28.4227,77.0667,OZONE,27,67,56
India,Haryana,Gurugram,"Vikas Sadan, Gurugram - HSPCB",20-03-2024 00:00:00,28.4501238,77.0263051,NO2,5,25,14
India,Haryana,Hisar,"Urban Estate-II, Hisar - HSPCB",20-03-2024 00:00:00,29.140560,75.744941,PM2.5,36,202,104
India,Haryana,Hisar,"Urban Estate-II, Hisar - HSPCB",20-03-2024 00:00:00,29.140560,75.744941,SO2,3,90,47
India,Haryana,Hisar,"Urban Estate-II, Hisar - HSPCB",20-03-2024 00:00:00,29.140560,75.744941,CO,40,62,51
India,Haryana,Hisar,"Urban Estate-II, Hisar - HSPCB",20-03-2024 00:00:00,29.140560,75.744941,OZONE,23,151,108
India,Haryana,Jind,"Police Lines, Jind - HSPCB",20-03-2024 00:00:00,29.307814,76.337619,NO2,7,15,11
India,Haryana,Jind,"Police Lines, Jind - HSPCB",20-03-2024 00:00:00,29.307814,76.337619,OZONE,2,28,20
India,Haryana,Kaithal,"Rishi Nagar, Kaithal - HSPCB",20-03-2024 00:00:00,29.8006,76.4155,PM10,92,185,133
India,Haryana,Karnal,"Sector-12, Karnal - HSPCB",20-03-2024 00:00:00,29.695300,77.002700,PM2.5,72,126,96
India,Haryana,Karnal,"Sector-12, Karnal - HSPCB",20-03-2024 00:00:00,29.695300,77.002700,SO2,12,13,13
India,Haryana,Kurukshetra,"Sector-7, Kurukshetra - HSPCB",20-03-2024 00:00:00,29.966942,76.875879,NH3,5,5,5
India,Haryana,Mandikhera,"General Hospital, Mandikhera - HSPCB",20-03-2024 00:00:00,27.9002,76.9938,NO2,16,23,19
India,Haryana,Manesar,"Sector-2 IMT, Manesar - HSPCB",20-03-2024 00:00:00,28.360699,76.936090,PM2.5,47,198,110
India,Haryana,Manesar,"Sector-2 IMT, Manesar - HSPCB",20-03-2024 00:00:00,28.360699,76.936090,PM10,48,133,92
India,Haryana,Narnaul,"Shastri Nagar, Narnaul - HSPCB",20-03-2024 00:00:00,28.060249,76.113115,NO2,12,75,35
India,Haryana,Narnaul,"Shastri Nagar, Narnaul - HSPCB",20-03-2024 00:00:00,28.060249,76.113115,SO2,13,14,13
India,Haryana,Narnaul,"Shastri Nagar, Narnaul - HSPCB",20-03-2024 00:00:00,28.060249,76.113115,CO,8,14,9
India,Haryana,Palwal,"Shyam Nagar, Palwal - HSPCB",20-03-2024 00:00:00,28.1485564,77.3320667,PM10,76,155,103
India,Haryana,Palwal,"Shyam Nagar, Palwal - HSPCB",20-03-2024 00:00:00,28.1485564,77.3320667,NO2,23,24,24
India,Haryana,Palwal,"Shyam Nagar, Palwal - HSPCB",20-03-2024 00:00:00,28.1485564,77.3320667,NH3,8,9,9
India,Haryana,Palwal,"Shyam Nagar, Palwal - HSPCB",20-03-2024 00:00:00,28.1485564,77.3320667,CO,26,37,31
India,Haryana,Palwal,"Shyam Nagar, Palwal - HSPCB",20-03-2024 00:00:00,28.1485564,77.3320667,OZONE,6,56,21
India,Haryana,Rohtak,"MD University, Rohtak - HSPCB",20-03-2024 00:00:00,28.52123,76.37138,NO2,45,54,51
India,Haryana,Rohtak,"MD University, Rohtak - HSPCB",20-03-2024 00:00:00,28.52123,76.37138,SO2,5,9,6
India,Haryana,Sonipat,"Murthal, Sonipat - HSPCB",20-03-2024 00:00:00,29.027200,77.062100,PM2.5,48,88,67
India,Haryana,Sonipat,"Murthal, Sonipat - HSPCB",20-03-2024 00:00:00,29.027200,77.062100,CO,2,25,20
India,Haryana,Yamuna Nagar,"Gobind Pura, Yamuna Nagar - HSPCB",20-03-2024 00:00:00,30.1480566,77.2893471,NO2,11,28,18
India,Haryana,Yamuna Nagar,"Gobind Pura, Yamuna Nagar - HSPCB",20-03-2024 00:00:00,30.1480566,77.2893471,NH3,1,6,4
India,Himachal Pradesh,Baddi,"HIMUDA Complex Phase-1, Baddi - HPPCB",20-03-2024 00:00:00,30.943887,76.801991,SO2,11,44,23
India,Jharkhand,Dhanbad,"Kalakusuma, Dhanbad - DMC",20-03-2024 00:00:00,23.811548,86.481238,PM10,96,130,111
India,Jharkhand,Dhanbad,"Kalakusuma, Dhanbad - DMC",20-03-2024 00:00:00,23.811548,86.481238,NO2,13,62,24
India,Jharkhand,Dhanbad,"Kalakusuma, Dhanbad - DMC",20-03-2024 00:00:00,23.811548,86.481238,CO,128,134,132
India,Jharkhand,Dhanbad,"Sardar Patel Nagar, Dhanbad - JSPCB",20-03-2024 00:00:00,23.80569,86.44268,NO2,NA,NA,NA
India,Jharkhand,Pathardih,"Mohalbani Ghat, Pathardih - DMC",20-03-2024 00:00:00,23.669880,86.411725,SO2,NA,NA,NA
India,Jharkhand,Pathardih,"Mohalbani Ghat, Pathardih - DMC",20-03-2024 00:00:00,23.669880,86.411725,CO,72,157,83
India,Karnataka,Bengaluru,"BTM Layout, Bengaluru - CPCB",20-03-2024 00:00:00,12.9135218,77.5950804,PM2.5,37,80,57
India,Karnataka,Bengaluru,"BTM Layout, Bengaluru - CPCB",20-03-2024 00:00:00,12.9135218,77.5950804,CO,42,50,49
India,Karnataka,Bengaluru,"Bapuji Nagar, Bengaluru - KSPCB",20-03-2024 00:00:00,12.951913,77.539784,PM2.5,NA,NA,NA
India,Karnataka,Bengaluru,"Bapuji Nagar, Bengaluru - KSPCB",20-03-2024 00:00:00,12.951913,77.539784,SO2,NA,NA,NA
India,Karnataka,Bengaluru,"Hebbal, Bengaluru - KSPCB",20-03-2024 00:00:00,13.029152,77.585901,CO,8,56,26
India,Karnataka,Bengaluru,"Hebbal, Bengaluru - KSPCB",20-03-2024 00:00:00,13.029152,77.585901,OZONE,12,141,26
India,Karnataka,Bengaluru,"Hombegowda Nagar, Bengaluru - KSPCB",20-03-2024 00:00:00,12.938539,77.590100,OZONE,4,5,4
India,Karnataka,Bengaluru,"Jayanagar 5th Block, Bengaluru - KSPCB",20-03-2024 00:00:00,12.920984,77.584908,SO2,17,107,32
India,Karnataka,Bengaluru,"Jayanagar 5th Block, Bengaluru - KSPCB",20-03-2024 00:00:00,12.920984,77.584908,CO,28,62,43
India,Karnataka,Bengaluru,"Jigani, Bengaluru - KSPCB",20-03-2024 00:00:00,12.7816279,77.6299145,NH3,NA,NA,NA
India,Karnataka,Bengaluru,"Kasturi Nagar, Bengaluru - KSPCB",20-03-2024 00:00:00,13.003872,77.664217,NO2,16,17,17
India,Karnataka,Bengaluru,"RVCE-Mailasandra, Bengaluru - KSPCB",20-03-2024 00:00:00,12.921418,77.502466,PM10,64,500,208
India,Karnataka,Bengaluru,"RVCE-Mailasandra, Bengaluru - KSPCB",20-03-2024 00:00:00,12.921418,77.502466,SO2,9,61,19
India,Karnataka,Bengaluru,"RVCE-Mailasandra, Bengaluru - KSPCB",20-03-2024 00:00:00,12.921418,77.502466,CO,28,37,32
India,Karnataka,Bengaluru,"Shivapura_Peenya, Bengaluru - KSPCB",20-03-2024 00:00:00,13.0246342,77.5080115,PM10,77,116,93
India,Karnataka,Bidar,"Naubad, Bidar - KSPCB",20-03-2024 00:00:00,17.930306,77.482194,NO2,NA,NA,NA
India,Karnataka,Bidar,"Naubad, Bidar - KSPCB",20-03-2024 00:00:00,17.930306,77.482194,SO2,NA,NA,NA
India,Karnataka,Bidar,"Naubad, Bidar - KSPCB",20-03-2024 00:00:00,17.930306,77.482194,CO,50,85,68
India,Karnataka,Chamarajanagar,"Urban, Chamarajanagar - KSPCB",20-03-2024 00:00:00,11.55358,76.55521,CO,19,48,23
India,Karnataka,Chikkaballapur,"Chikkaballapur Rural, Chikkaballapur - KSPCB",20-03-2024 00:00:00,13.428828,77.731418,NH3,1,14,2
India,Karnataka,Chikkaballapur,"Chikkaballapur Rural, Chikkaballapur - KSPCB",20-03-2024 00:00:00,13.428828,77.731418,SO2,16,76,34
India,Karnataka,Chikkaballapur,"Chikkaballapur Rural, Chikkaballapur - KSPCB",20-03-2024 00:00:00,13.428828,77.731418,OZONE,25,26,26
India,Karnataka,Chikkamagaluru,"Kalyana Nagara, Chikkamagaluru - KSPCB",20-03-2024 00:00:00,13.328028,75.797056,PM10,17,88,51
India,Karnataka,Chikkamagaluru,"Kalyana Nagara, Chikkamagaluru - KSPCB",20-03-2024 00:00:00,13.328028,75.797056,NH3,3,5,4
India,Karnataka,Davanagere,"Devaraj Urs Badavane, Davanagere - KSPCB",20-03-2024 00:00:00,14.475800,75.905200,PM10,59,190,86
India,Karnataka,Davanagere,"Devaraj Urs Badavane, Davanagere - KSPCB",20-03-2024 00:00:00,14.475800,75.905200,NH3,NA,NA,NA
India,Karnataka,Dharwad,"Kalabhavan, Dharwad - KSPCB",20-03-2024 00:00:00,15.459706,75.008381,NO2,7,29,17
India,Karnataka,Hassan,"B.Katihalli, Hassan - KSPCB",20-03-2024 00:00:00,13.008556,76.125258,SO2,NA,NA,NA
India,Karnataka,Haveri,"Ashwini Nagar, Haveri - KSPCB",20-03-2024 00:00:00,14.791800,75.389600,PM2.5,NA,NA,NA
India,Karnataka,Haveri,"Ashwini Nagar, Haveri - KSPCB",20-03-2024 00:00:00,14.791800,75.389600,CO,36,36,36
India,Karnataka,Hubballi,"Deshpande Nagar, Hubballi - KSPCB",20-03-2024 00:00:00,15.351773,75.140726,PM10,46,132,98
India,Karnataka,Hubballi,"Deshpande Nagar, Hubballi - KSPCB",20-03-2024 00:00:00,15.351773,75.140726,NO2,26,28,27
India,Karnataka,Kalaburagi,"Lal Bahadur Shastri Nagar, Kalaburagi - KSPCB",20-03-2024 00:00:00,17.321993,76.822628,PM2.5,36,223,90
India,Karnataka,Kalaburagi,"Lal Bahadur Shastri Nagar, Kalaburagi - KSPCB",20-03-2024 00:00:00,17.321993,76.822628,PM10,46,148,90
India,Karnataka,Kalaburagi,"Lal Bahadur Shastri Nagar, Kalaburagi - KSPCB",20-03-2024 00:00:00,17.321993,76.822628,NH3,2,2,2
India,Karnataka,Kalaburagi,"Mahatma Basaveswar Colony, Kalaburgi - KSPCB",20-03-2024 00:00:00,17.336318,76.847397,SO2,5,23,9
India,Karnataka,Karwar,"KHB Colony, Karwar - KSPCB",20-03-2024 00:00:00,14.816666,74.141003,NO2,3,38,10
India,Karnataka,Karwar,"KHB Colony, Karwar - KSPCB",20-03-2024 00:00:00,14.816666,74.141003,OZONE,21,22,21
India,Karnataka,Kolar,"Tamaka Ind. Area, Kolar - KSPCB",20-03-2024 00:00:00,13.1276288,78.1570122,NH3,6,32,18
India,Karnataka,Kolar,"Tamaka Ind. Area, Kolar - KSPCB",20-03-2024 00:00:00,13.1276288,78.1570122,OZONE,12,14,13
India,Karnataka,Koppal,"Diwator Nagar, Koppal - KSPCB",20-03-2024 00:00:00,15.347630,76.181767,CO,64,78,73
India,Karnataka,Madikeri,"Stuart Hill, Madikeri - KSPCB",20-03-2024 00:00:00,12.415911,75.735050,PM10,34,60,49
India,Karnataka,Madikeri,"Stuart Hill, Madikeri - KSPCB",20-03-2024 00:00:00,12.415911,75.735050,OZONE,24,51,43
India,Karnataka,Mangalore,"Kadri, Mangalore - KSPCB",20-03-2024 00:00:00,12.889250,74.853000,PM2.5,43,86,57
India,Karnataka,Mysuru,"Hebbal 1st Stage, Mysuru - KSPCB",20-03-2024 00:00:00,12.21041,76.37376,NH3,1,3,2
India,Karnataka,Mysuru,"Hebbal 1st Stage, Mysuru - KSPCB",20-03-2024 00:00:00,12.21041,76.37376,SO2,2,8,4
India,Karnataka,Ramanagara,"Vijay Nagar, Ramanagara - KSPCB",20-03-2024 00:00:00,12.733409,77.298051,PM2.5,NA,NA,NA
India,Karnataka,Shivamogga,"Vinoba Nagara, Shivamogga - KSPCB",20-03-2024 00:00:00,13.940000,75.555917,NO2,10,31,15
India,Karnataka,Tumakuru,"Thimmalapura, Tumakuru - KSPCB",20-03-2024 00:00:00,13.377516,77.099072,PM2.5,NA,NA,NA
India,Karnataka,Tumakuru,"Thimmalapura, Tumakuru - KSPCB",20-03-2024 00:00:00,13.377516,77.099072,SO2,NA,NA,NA
India,Karnataka,Udupi,"Brahmagiri, Udupi - KSPCB",20-03-2024 00:00:00,13.34194444,74.74694444,NO2,28,32,30
India,Karnataka,Vijayapura,"Ibrahimpur, Vijayapura - KSPCB",20-03-2024 00:00:00,16.802639,75.722694,NH3,2,2,2
India,Karnataka,Yadgir,"Collector Office, Yadgir - KSPCB",20-03-2024 00:00:00,16.7602,77.1428,NO2,5,13,6
India,Karnataka,Yadgir,"Collector Office, Yadgir - KSPCB",20-03-2024 00:00:00,16.7602,77.1428,CO,13,30,22
India,Kerala,Thiruvananthapuram,"Kariavattom, Thiruvananthapuram - Kerala PCB",20-03-2024 00:00:00,8.563700,76.886500,NH3,1,1,1
India,Kerala,Thiruvananthapuram,"Kariavattom, Thiruvananthapuram - Kerala PCB",20-03-2024 00:00:00,8.563700,76.886500,SO2,1,16,7
India,Kerala,Thiruvananthapuram,"Kariavattom, Thiruvananthapuram - Kerala PCB",20-03-2024 00:00:00,8.563700,76.886500,CO,18,40,25
India,Kerala,Thiruvananthapuram,"Plammoodu, Thiruvananthapuram - Kerala PCB",20-03-2024 00:00:00,8.5149093,76.9435879,NO2,8,10,9
India,Kerala,Thiruvananthapuram,"Plammoodu, Thiruvananthapuram - Kerala PCB",20-03-2024 00:00:00,8.5149093,76.9435879,NH3,2,2,2
India,Madhya Pradesh,Bhopal,"Idgah Hills, Bhopal - MPPCB",20-03-2024 00:00:00,23.264759,77.381568,CO,19,42,29
India,Madhya Pradesh,Bhopal,"Paryavaran Parisar, Bhopal - MPPCB",20-03-2024 00:00:00,23.210494,77.425409,CO,19,56,43
India,Madhya Pradesh,Bhopal,"T T Nagar, Bhopal - MPPCB",20-03-2024 00:00:00,23.233584,77.400574,SO2,21,38,31
India,Madhya Pradesh,Bhopal,"T T Nagar, Bhopal - MPPCB",20-03-2024 00:00:00,23.233584,77.400574,CO,14,90,54
India,Madhya Pradesh,Dewas,"Bhopal Chauraha, Dewas - MPPCB",20-03-2024 00:00:00,22.9682591,76.064118,NH3,NA,NA,NA
India,Madhya Pradesh,Dewas,"Bhopal Chauraha, Dewas - MPPCB",20-03-2024 00:00:00,22.9682591,76.064118,SO2,NA,NA,NA
India,Madhya Pradesh,Dewas,"Bhopal Chauraha, Dewas - MPPCB",20-03-2024 00:00:00,22.9682591,76.064118,OZONE,17,138,54
India,Madhya Pradesh,Gwalior,"Deen Dayal Nagar, Gwalior - MPPCB",20-03-2024 00:00:00,26.259242,78.216432,PM2.5,29,325,137
India,Madhya Pradesh,Gwalior,"Maharaj Bada, Gwalior - MPPCB",20-03-2024 00:00:00,26.200388,78.147714,PM10,109,243,155
India,Madhya Pradesh,Gwalior,"Maharaj Bada, Gwalior - MPPCB",20-03-2024 00:00:00,26.200388,78.147714,NO2,17,76,41
India,Madhya Pradesh,Gwalior,"Maharaj Bada, Gwalior - MPPCB",20-03-2024 00:00:00,26.200388,78.147714,NH3,4,15,5
India,Madhya Pradesh,Indore,"Chhoti Gwaltoli, Indore - MPPCB",20-03-2024 00:00:00,22.4310,75.5213,PM10,69,261,122
India,Madhya Pradesh,Indore,"Maguda Nagar, Indore - IMC",20-03-2024 00:00:00,22.7524,75.8872,NH3,1,1,1
India,Madhya Pradesh,Indore,"Maguda Nagar, Indore - IMC",20-03-2024 00:00:00,22.7524,75.8872,OZONE,36,46,39
India,Madhya Pradesh,Jabalpur,"Govindh Bhavan Colony, Jabalpur - JMC",20-03-2024 00:00:00,23.163174,79.973061,OZONE,8,91,55
India,Madhya Pradesh,Jabalpur,"Gupteshwar, Jabalpur - JMC",20-03-2024 00:00:00,23.142888,79.916147,CO,10,47,26
India,Madhya Pradesh,Katni,"Gole Bazar, Katni - MPPCB",20-03-2024 00:00:00,23.50016,80.23284,PM2.5,41,76,59
India,Madhya Pradesh,Katni,"Gole Bazar, Katni - MPPCB",20-03-2024 00:00:00,23.50016,80.23284,NO2,29,74,41
India,Madhya Pradesh,Katni,"Gole Bazar, Katni - MPPCB",20-03-2024 00:00:00,23.50016,80.23284,NH3,2,5,4
India,Madhya Pradesh,Katni,"Gole Bazar, Katni - MPPCB",20-03-2024 00:00:00,23.50016,80.23284,SO2,8,36,24
India,Madhya Pradesh,Katni,"Gole Bazar, Katni - MPPCB",20-03-2024 00:00:00,23.50016,80.23284,CO,20,49,33
India,Madhya Pradesh,Maihar,"Sahilara, Maihar - KJS Cements",20-03-2024 00:00:00,24.2613009,80.7231783,PM2.5,14,44,32
India,Madhya Pradesh,Maihar,"Sahilara, Maihar - KJS Cements",20-03-2024 00:00:00,24.2613009,80.7231783,SO2,19,34,24
India,Madhya Pradesh,Mandideep,"Sector-D Industrial Area, Mandideep - MPPCB",20-03-2024 00:00:00,23.108440,77.511428,SO2,8,135,66
India,Madhya Pradesh,Mandideep,"Sector-D Industrial Area, Mandideep - MPPCB",20-03-2024 00:00:00,23.108440,77.511428,CO,11,90,37
India,Madhya Pradesh,Pithampur,"Sector-2 Industrial Area, Pithampur - MPPCB",20-03-2024 00:00:00,22.624758,75.675238,PM10,119,296,171
India,Madhya Pradesh,Pithampur,"Sector-2 Industrial Area, Pithampur - MPPCB",20-03-2024 00:00:00,22.624758,75.675238,SO2,11,16,13
India,Madhya Pradesh,Sagar,"Deen Dayal Nagar, Sagar - MPPCB",20-03-2024 00:00:00,23.8640158,78.80289321,PM10,23,455,67
India,Madhya Pradesh,Sagar,"Deen Dayal Nagar, Sagar - MPPCB",20-03-2024 00:00:00,23.8640158,78.80289321,SO2,10,14,11
India,Madhya Pradesh,Sagar,"Deen Dayal Nagar, Sagar - MPPCB",20-03-2024 00:00:00,23.8640158,78.80289321,CO,44,70,63
India,Madhya Pradesh,Ujjain,"Mahakaleshwar Temple, Ujjain - MPPCB",20-03-2024 00:00:00,23.182719 ,75.768218 ,OZONE,131,165,155
India,Maharashtra,Akola,"Ramdaspeth, Akola - MPCB",20-03-2024 00:00:00,20.719516,77.000253,PM2.5,23,98,67
India,Maharashtra,Akola,"Ramdaspeth, Akola - MPCB",20-03-2024 00:00:00,20.719516,77.000253,NH3,4,9,6
India,Maharashtra,Akola,"Ramdaspeth, Akola - MPCB",20-03-2024 00:00:00,20.719516,77.000253,SO2,9,22,14
India,Maharashtra,Akola,"Ramdaspeth, Akola - MPCB",20-03-2024 00:00:00,20.719516,77.000253,CO,24,106,44
India,Maharashtra,Amravati,"Shivneri Colony, Amravati - MPCB",20-03-2024 00:00:00,20.9402359,77.7895248,PM2.5,62,99,80
India,Maharashtra,Aurangabad,"MIDC Chilkalthana, Aurangabad - MPCB",20-03-2024 00:00:00,19.875620,75.387310,PM10,100,136,116
India,Maharashtra,Aurangabad,"MIDC Chilkalthana, Aurangabad - MPCB",20-03-2024 00:00:00,19.875620,75.387310,NH3,3,4,4
India,Maharashtra,Aurangabad,"More Chowk Waluj, Aurangabad - MPCB",20-03-2024 00:00:00,19.8389439,75.244448,PM10,NA,NA,NA
India,Maharashtra,Aurangabad,"Rachnakar Colony, Aurangabad - MPCB",20-03-2024 00:00:00,19.863756,75.321188,NO2,14,23,19
India,Maharashtra,Aurangabad,"Rachnakar Colony, Aurangabad - MPCB",20-03-2024 00:00:00,19.863756,75.321188,OZONE,17,99,62
India,Maharashtra,Badlapur,"Katrap, Badlapur - MPCB",20-03-2024 00:00:00,19.16485,73.23409,NO2,1,10,4
India,Maharashtra,Badlapur,"Katrap, Badlapur - MPCB",20-03-2024 00:00:00,19.16485,73.23409,SO2,2,16,9
India,Maharashtra,Chandrapur,"Chauhan Colony, Chandrapur - MPCB",20-03-2024 00:00:00,19.962900,79.298714,PM10,33,99,55
India,Maharashtra,Chandrapur,"Chauhan Colony, Chandrapur - MPCB",20-03-2024 00:00:00,19.962900,79.298714,NO2,11,21,16
India,Maharashtra,Chandrapur,"Chauhan Colony, Chandrapur - MPCB",20-03-2024 00:00:00,19.962900,79.298714,SO2,1,25,4
India,Maharashtra,Chandrapur,"MIDC Khutala, Chandrapur - MPCB",20-03-2024 00:00:00,19.9775302,79.2337086,OZONE,3,82,25
India,Maharashtra,Dhule,"Deopur, Dhule - MPCB",20-03-2024 00:00:00,20.918946,74.776388,NH3,1,9,4
India,Maharashtra,Jalgaon,"Prabhat Colony, Jalgaon - MPCB",20-03-2024 00:00:00,21.001264,75.565602,CO,13,33,23
India,Maharashtra,Jalna,"Old MIDC, Jalna - MPCB",20-03-2024 00:00:00,19.854616,75.905894,PM2.5,62,292,160
India,Maharashtra,Jalna,"Old MIDC, Jalna - MPCB",20-03-2024 00:00:00,19.854616,75.905894,OZONE,4,172,88
India,Maharashtra,Kalyan,"Khadakpada, Kalyan - MPCB",20-03-2024 00:00:00,19.25292,73.142019,PM10,89,284,132
India,Maharashtra,Kalyan,"Khadakpada, Kalyan - MPCB",20-03-2024 00:00:00,19.25292,73.142019,NH3,1,2,1
India,Maharashtra,Kalyan,"Khadakpada, Kalyan - MPCB",20-03-2024 00:00:00,19.25292,73.142019,SO2,25,55,31
India,Maharashtra,Kalyan,"Khadakpada, Kalyan - MPCB",20-03-2024 00:00:00,19.25292,73.142019,CO,16,36,22
India,Maharashtra,Kolhapur,"Shivaji University, Kolhapur - MPCB",20-03-2024 00:00:00,16.6870449,74.2505872,CO,15,97,65
India,Maharashtra,Kolhapur,"Shivaji University, Kolhapur - MPCB",20-03-2024 00:00:00,16.6870449,74.2505872,OZONE,14,137,73
India,Maharashtra,Kolhapur,"Sinchan Bhavan, Kolhapur - MPCB",20-03-2024 00:00:00,16.7143745,74.2426398,PM10,NA,NA,NA
India,Maharashtra,Kolhapur,"Sinchan Bhavan, Kolhapur - MPCB",20-03-2024 00:00:00,16.7143745,74.2426398,CO,18,53,30
India,Maharashtra,Kolhapur,"Sinchan Bhavan, Kolhapur - MPCB",20-03-2024 00:00:00,16.7143745,74.2426398,OZONE,30,187,147
India,Maharashtra,Latur,"Sawe Wadi, Latur - MPCB",20-03-2024 00:00:00,18.39963,76.57452,SO2,NA,NA,NA
India,Maharashtra,Malegaon,"Mahesh Nagar, Malegaon - MPCB",20-03-2024 00:00:00,20.555712,74.529236,NO2,7,22,11
India,Maharashtra,Malegaon,"Mahesh Nagar, Malegaon - MPCB",20-03-2024 00:00:00,20.555712,74.529236,SO2,5,41,12
India,Maharashtra,Mira-Bhayandar,"Bhayandar West, Mira-Bhayandar - MPCB",20-03-2024 00:00:00,19.296481,72.840923,PM2.5,84,316,154
India,Maharashtra,Mira-Bhayandar,"Bhayandar West, Mira-Bhayandar - MPCB",20-03-2024 00:00:00,19.296481,72.840923,NH3,3,7,5
India,Maharashtra,Mira-Bhayandar,"Bhayandar West, Mira-Bhayandar - MPCB",20-03-2024 00:00:00,19.296481,72.840923,OZONE,4,136,77
India,Maharashtra,Mumbai,"Bandra Kurla Complex, Mumbai - MPCB",20-03-2024 00:00:00,19.065931,72.862131,OZONE,7,145,72
India,Maharashtra,Mumbai,"Borivali East, Mumbai - IITM",20-03-2024 00:00:00,19.23241,72.86895,NO2,45,78,56
India,Maharashtra,Mumbai,"Borivali East, Mumbai - IITM",20-03-2024 00:00:00,19.23241,72.86895,OZONE,20,167,84
India,Maharashtra,Mumbai,"Borivali East, Mumbai - MPCB",20-03-2024 00:00:00,19.2243333,72.8658113,PM2.5,NA,NA,NA
India,Maharashtra,Mumbai,"Borivali East, Mumbai - MPCB",20-03-2024 00:00:00,19.2243333,72.8658113,NH3,NA,NA,NA
India,Maharashtra,Mumbai,"Chakala-Andheri East, Mumbai - IITM",20-03-2024 00:00:00,19.11074,72.86084,OZONE,17,112,48
India,Maharashtra,Mumbai,"Chembur, Mumbai - MPCB",20-03-2024 00:00:00,19.0364585,72.8954371,PM10,77,145,109
India,Maharashtra,Mumbai,"Chhatrapati Shivaji Intl. Airport (T2), Mumbai - MPCB",20-03-2024 00:00:00,19.10078,72.87462,NO2,7,54,32
India,Maharashtra,Mumbai,"Chhatrapati Shivaji Intl. Airport (T2), Mumbai - MPCB",20-03-2024 00:00:00,19.10078,72.87462,CO,42,76,56
India,Maharashtra,Mumbai,"Chhatrapati Shivaji Intl. Airport (T2), Mumbai - MPCB",20-03-2024 00:00:00,19.10078,72.87462,OZONE,5,19,12
India,Maharashtra,Mumbai,"Colaba, Mumbai - MPCB",20-03-2024 00:00:00,18.910000,72.820000,CO,13,16,14
India,Maharashtra,Mumbai,"Colaba, Mumbai - MPCB",20-03-2024 00:00:00,18.910000,72.820000,OZONE,7,12,9
India,Maharashtra,Mumbai,"Ghatkopar, Mumbai - BMC",20-03-2024 00:00:00,19.083694,72.920967,PM2.5,41,85,56
India,Maharashtra,Mumbai,"Kandivali West, Mumbai - BMC",20-03-2024 00:00:00,19.215859,72.831718,PM2.5,46,79,62
India,Maharashtra,Mumbai,"Kandivali West, Mumbai - BMC",20-03-2024 00:00:00,19.215859,72.831718,PM10,47,88,67
India,Maharashtra,Mumbai,"Kandivali West, Mumbai - BMC",20-03-2024 00:00:00,19.215859,72.831718,SO2,1,4,1
India,Maharashtra,Mumbai,"Kandivali West, Mumbai - BMC",20-03-2024 00:00:00,19.215859,72.831718,OZONE,2,56,35
India,Maharashtra,Mumbai,"Khindipada-Bhandup West, Mumbai - IITM",20-03-2024 00:00:00,19.1653323,72.922099,SO2,NA,NA,NA
India,Maharashtra,Mumbai,"Kurla, Mumbai - MPCB",20-03-2024 00:00:00,19.0863,72.8888,NH3,2,8,4
India,Maharashtra,Mumbai,"Kurla, Mumbai - MPCB",20-03-2024 00:00:00,19.0863,72.8888,SO2,32,32,32
India,Maharashtra,Mumbai,"Navy Nagar-Colaba, Mumbai - IITM",20-03-2024 00:00:00,18.897756,72.813320,PM2.5,71,159,95
India,Maharashtra,Mumbai,"Navy Nagar-Colaba, Mumbai - IITM",20-03-2024 00:00:00,18.897756,72.813320,NH3,12,21,15
India,Maharashtra,Mumbai,"Navy Nagar-Colaba, Mumbai - IITM",20-03-2024 00:00:00,18.897756,72.813320,SO2,4,15,8
India,Maharashtra,Mumbai,"Navy Nagar-Colaba, Mumbai - IITM",20-03-2024 00:00:00,18.897756,72.813320,OZONE,42,197,130
India,Maharashtra,Mumbai,"Powai, Mumbai - MPCB",20-03-2024 00:00:00,19.137500,72.915056,SO2,31,40,34
India,Maharashtra,Mumbai,"Sewri, Mumbai - BMC",20-03-2024 00:00:00,19.000084,72.856730,PM10,71,117,93
India,Maharashtra,Mumbai,"Sewri, Mumbai - BMC",20-03-2024 00:00:00,19.000084,72.856730,NH3,5,10,8
India,Maharashtra,Mumbai,"Sewri, Mumbai - BMC",20-03-2024 00:00:00,19.000084,72.856730,CO,18,44,27
India,Maharashtra,Mumbai,"Shivaji Nagar, Mumbai - BMC",20-03-2024 00:00:00,19.060498,72.923356,PM2.5,NA,NA,NA
India,Maharashtra,Mumbai,"Shivaji Nagar, Mumbai - BMC",20-03-2024 00:00:00,19.060498,72.923356,PM10,NA,NA,NA
India,Maharashtra,Mumbai,"Sion, Mumbai - MPCB",20-03-2024 00:00:00,19.047000,72.874600,PM2.5,36,93,52
India,Maharashtra,Mumbai,"Sion, Mumbai - MPCB",20-03-2024 00:00:00,19.047000,72.874600,NO2,14,60,33
India,Maharashtra,Mumbai,"Sion, Mumbai - MPCB",20-03-2024 00:00:00,19.047000,72.874600,CO,10,42,20
India,Maharashtra,Mumbai,"Sion, Mumbai - MPCB",20-03-2024 00:00:00,19.047000,72.874600,OZONE,13,34,17
India,Maharashtra,Mumbai,"Vasai West, Mumbai - MPCB",20-03-2024 00:00:00,19.383200,72.820400,NO2,26,28,27
India,Maharashtra,Mumbai,"Vile Parle West, Mumbai - MPCB",20-03-2024 00:00:00,19.10861,72.83622,SO2,13,14,14
India,Maharashtra,Mumbai,"Worli, Mumbai - MPCB",20-03-2024 00:00:00,18.9936162,72.8128113,NO2,14,15,14
India,Maharashtra,Nagpur,"Ambazari, Nagpur - MPCB",20-03-2024 00:00:00,21.121801,79.04952,CO,12,70,37
India,Maharashtra,Nagpur,"Mahal, Nagpur - MPCB",20-03-2024 00:00:00,21.14472,79.107595,CO,18,68,57
India,Maharashtra,Nagpur,"Opp GPO Civil Lines, Nagpur - MPCB",20-03-2024 00:00:00,21.152875,79.0517531,NH3,6,34,8
India,Maharashtra,Nagpur,"Ram Nagar, Nagpur - MPCB",20-03-2024 00:00:00,21.143383,79.048912,SO2,1,93,19
India,Maharashtra,Nanded,"Sneh Nagar, Nanded - MPCB",20-03-2024 00:00:00,19.173852,77.296291,NO2,24,126,42
India,Maharashtra,Nanded,"Sneh Nagar, Nanded - MPCB",20-03-2024 00:00:00,19.173852,77.296291,SO2,4,6,5
India,Maharashtra,Nashik,"Gangapur Road, Nashik - MPCB",20-03-2024 00:00:00,20.0073285,73.7762427,PM2.5,56,123,78
India,Maharashtra,Nashik,"Gangapur Road, Nashik - MPCB",20-03-2024 00:00:00,20.0073285,73.7762427,SO2,1,8,4
India,Maharashtra,Nashik,"MIDC Ambad, Nashik - MPCB",20-03-2024 00:00:00,19.950220,73.731480,SO2,4,22,11
India,Maharashtra,Nashik,"MIDC Ambad, Nashik - MPCB",20-03-2024 00:00:00,19.950220,73.731480,OZONE,8,51,33
India,Maharashtra,Nashik,"Pandav Nagari, Nashik - MPCB",20-03-2024 00:00:00,19.9591346,73.7788008,PM2.5,26,66,51
India,Maharashtra,Navi Mumbai,"Kopripada-Vashi, Navi Mumbai - MPCB",20-03-2024 00:00:00,19.090337,73.014232,PM2.5,4,335,114
India,Maharashtra,Navi Mumbai,"Mahape, Navi Mumbai - MPCB",20-03-2024 00:00:00,19.1135051,73.008978,PM2.5,38,212,89
India,Maharashtra,Navi Mumbai,"Mahape, Navi Mumbai - MPCB",20-03-2024 00:00:00,19.1135051,73.008978,PM10,100,436,170
India,Maharashtra,Navi Mumbai,"Nerul, Navi Mumbai - MPCB",20-03-2024 00:00:00,19.008751,73.016620,PM10,114,313,172
India,Maharashtra,Navi Mumbai,"Nerul, Navi Mumbai - MPCB",20-03-2024 00:00:00,19.008751,73.016620,NO2,13,22,16
India,Maharashtra,Navi Mumbai,"Nerul, Navi Mumbai - MPCB",20-03-2024 00:00:00,19.008751,73.016620,CO,24,42,31
India,Maharashtra,Navi Mumbai,"Sanpada, Navi Mumbai - MPCB",20-03-2024 00:00:00,19.0575752,73.0151367,SO2,1,33,10
India,Maharashtra,Navi Mumbai,"Sector-19A Nerul, Navi Mumbai - IITM",20-03-2024 00:00:00,19.044,73.0325,CO,1,90,44
India,Maharashtra,Navi Mumbai,"Sector-2E Kalamboli, Navi Mumbai - MPCB",20-03-2024 00:00:00,19.02579,73.10297,PM2.5,39,76,49
India,Maharashtra,Navi Mumbai,"Sector-2E Kalamboli, Navi Mumbai - MPCB",20-03-2024 00:00:00,19.02579,73.10297,SO2,NA,NA,NA
India,Maharashtra,Navi Mumbai,"Sector-2E Kalamboli, Navi Mumbai - MPCB",20-03-2024 00:00:00,19.02579,73.10297,OZONE,4,77,32
India,Maharashtra,Parbhani,"Masoom Colony, Parbhani - MPCB",20-03-2024 00:00:00,19.265594,76.761463,SO2,8,43,17
India,Maharashtra,Parbhani,"Masoom Colony, Parbhani - MPCB",20-03-2024 00:00:00,19.265594,76.761463,CO,20,59,32
India,Maharashtra,Pimpri-Chinchwad,"Gavalinagar, Pimpri Chinchwad - MPCB",20-03-2024 00:00:00,18.63673,73.82487,PM2.5,46,98,72
India,Maharashtra,Pimpri-Chinchwad,"Park Street Wakad, Pimpri Chinchwad - MPCB",20-03-2024 00:00:00,18.59051,73.77946,PM2.5,81,193,143
India,Maharashtra,Pimpri-Chinchwad,"Park Street Wakad, Pimpri Chinchwad - MPCB",20-03-2024 00:00:00,18.59051,73.77946,CO,3,50,19
India,Maharashtra,Pune,"Bhosari, Pune - IITM",20-03-2024 00:00:00,18.640051,73.848956,PM2.5,11,83,46
India,Maharashtra,Pune,"Bhosari, Pune - IITM",20-03-2024 00:00:00,18.640051,73.848956,CO,42,48,45
India,Maharashtra,Pune,"Bhosari, Pune - IITM",20-03-2024 00:00:00,18.640051,73.848956,OZONE,21,98,58
India,Maharashtra,Pune,"Karve Road, Pune - MPCB",20-03-2024 00:00:00,18.5011743,73.8165527,PM10,111,123,114
India,Maharashtra,Pune,"Karve Road, Pune - MPCB",20-03-2024 00:00:00,18.5011743,73.8165527,CO,57,66,64
India,Maharashtra,Pune,"Katraj Dairy, Pune - MPCB",20-03-2024 00:00:00,18.454450,73.854155,NH3,3,7,5
India,Maharashtra,Pune,"Katraj Dairy, Pune - MPCB",20-03-2024 00:00:00,18.454450,73.854155,SO2,2,8,5
India,Maharashtra,Pune,"Katraj Dairy, Pune - MPCB",20-03-2024 00:00:00,18.454450,73.854155,CO,28,104,63
India,Maharashtra,Pune,"Katraj Dairy, Pune - MPCB",20-03-2024 00:00:00,18.454450,73.854155,OZONE,24,53,35
India,Maharashtra,Pune,"Mhada Colony, Pune - IITM",20-03-2024 00:00:00,18.573040,73.927715,NO2,3,18,12
India,Maharashtra,Pune,"Revenue Colony-Shivajinagar, Pune - IITM",20-03-2024 00:00:00,18.530085,73.849598,PM10,36,114,70
India,Maharashtra,Pune,"Revenue Colony-Shivajinagar, Pune - IITM",20-03-2024 00:00:00,18.530085,73.849598,SO2,52,115,88
India,Maharashtra,Pune,"Revenue Colony-Shivajinagar, Pune - IITM",20-03-2024 00:00:00,18.530085,73.849598,CO,107,116,113
India,Maharashtra,Pune,"Savitribai Phule Pune University, Pune - MPCB",20-03-2024 00:00:00,18.547056,73.826908,NO2,1,32,11
India,Maharashtra,Pune,"Savitribai Phule Pune University, Pune - MPCB",20-03-2024 00:00:00,18.547056,73.826908,OZONE,2,229,98
India,Maharashtra,Pune,"Transport Nagar-Nigdi, Pune - IITM",20-03-2024 00:00:00,18.664282,73.763966,OZONE,17,61,43
India,Maharashtra,Sangli,"Vijay Nagar, Sangli - MPCB",20-03-2024 00:00:00, 16.5038,74.3623,NH3,1,3,2
India,Maharashtra,Sangli,"Vijay Nagar, Sangli - MPCB",20-03-2024 00:00:00, 16.5038,74.3623,OZONE,13,59,42
India,Maharashtra,Solapur,"Dnyaneshwar Nagar, Solapur - MPCB",20-03-2024 00:00:00,17.6336264,75.9132495,PM2.5,87,203,148
India,Maharashtra,Solapur,"Solapur, Solapur - MPCB",20-03-2024 00:00:00,17.6599188,75.9063906,NO2,53,54,54
India,Maharashtra,Solapur,"Solapur, Solapur - MPCB",20-03-2024 00:00:00,17.6599188,75.9063906,SO2,101,103,102
India,Maharashtra,Thane,"Kasarvadavali, Thane - MPCB",20-03-2024 00:00:00,19.26777,72.97182,NO2,NA,NA,NA
India,Maharashtra,Thane,"Pimpleshwar Mandir, Thane - MPCB",20-03-2024 00:00:00,19.192056,72.9585188,NO2,6,20,11
India,Maharashtra,Thane,"Pimpleshwar Mandir, Thane - MPCB",20-03-2024 00:00:00,19.192056,72.9585188,NH3,3,3,3
India,Maharashtra,Thane,"Pimpleshwar Mandir, Thane - MPCB",20-03-2024 00:00:00,19.192056,72.9585188,CO,12,107,68
India,Maharashtra,Thane,"Upvan Fort, Thane - MPCB",20-03-2024 00:00:00,19.222279,72.957979,PM2.5,71,225,115
India,Maharashtra,Thane,"Upvan Fort, Thane - MPCB",20-03-2024 00:00:00,19.222279,72.957979,CO,5,57,21
India,Maharashtra,Ulhasnagar,"Sidhi Vinayak Nagar, Ulhasnagar - MPCB",20-03-2024 00:00:00,19.235581,73.159121,PM10,88,152,113
India,Maharashtra,Ulhasnagar,"Sidhi Vinayak Nagar, Ulhasnagar - MPCB",20-03-2024 00:00:00,19.235581,73.159121,OZONE,2,95,46
India,Maharashtra,Virar,"Bolinj, Virar - MPCB",20-03-2024 00:00:00,19.4458210,72.7988231,SO2,3,19,9
India,Manipur,Imphal,"DM College of Science, Imphal - Manipur PCB",20-03-2024 00:00:00,24.8207389,93.9423085,PM2.5,48,85,61
India,Manipur,Imphal,"DM College of Science, Imphal - Manipur PCB",20-03-2024 00:00:00,24.8207389,93.9423085,OZONE,1,9,4
India,Manipur,Imphal,"Manipur University, Imphal - Manipur PCB",20-03-2024 00:00:00,24.7524239,93.9286218,SO2,77,83,80
India,Meghalaya,Shillong,"Lumpyngngad, Shillong - Meghalaya PCB",20-03-2024 00:00:00,25.5586,91.8985,PM2.5,62,300,154
India,Mizoram,Aizawl,"Sikulpuikawn, Aizawl - Mizoram PCB",20-03-2024 00:00:00,23.7176342,92.7192841,NO2,1,17,2
India,Nagaland,Kohima,"PWD Juction, Kohima - NPCB",20-03-2024 00:00:00,25.6635413,94.0989878,NH3,1,1,1
India,Odisha,Angul,"Hakimapada, Angul - OSPCB",20-03-2024 00:00:00,20.832874,85.104082,PM2.5,10,461,85
India,Odisha,Angul,"Hakimapada, Angul - OSPCB",20-03-2024 00:00:00,20.832874,85.104082,PM10,11,371,87
India,Odisha,Angul,"Hakimapada, Angul - OSPCB",20-03-2024 00:00:00,20.832874,85.104082,SO2,12,126,46
India,Odisha,Angul,"Hakimapada, Angul - OSPCB",20-03-2024 00:00:00,20.832874,85.104082,CO,2,139,52
India,Odisha,Angul,"Hakimapada, Angul - OSPCB",20-03-2024 00:00:00,20.832874,85.104082,OZONE,12,93,44
India,Odisha,Balasore,"Kalidaspur, Balasore - OSPCB",20-03-2024 00:00:00,21.51161,86.89088,OZONE,10,61,35
India,Odisha,Barbil,"Forest Office, Barbil - OSPCB",20-03-2024 00:00:00,22.1166054,85.3945546,NH3,4,5,4
India,Odisha,Bhubaneswar,"Lingraj Mandir, Bhubaneswar - OSPCB",20-03-2024 00:00:00,20.240790,85.836784,CO,48,103,71
India,Odisha,Bhubaneswar,"Patia, Bhubaneswar - OSPCB",20-03-2024 00:00:00,20.34652,85.81630,PM2.5,7,58,37
India,Odisha,Bhubaneswar,"Patia, Bhubaneswar - OSPCB",20-03-2024 00:00:00,20.34652,85.81630,OZONE,15,76,36
India,Odisha,Brajrajnagar,"GM Office, Brajrajnagar - OSPCB",20-03-2024 00:00:00,21.8004996,83.8396977,NO2,13,31,15
India,Odisha,Brajrajnagar,"GM Office, Brajrajnagar - OSPCB",20-03-2024 00:00:00,21.8004996,83.8396977,CO,46,99,86
India,Odisha,Byasanagar,"Ferro Chrome Colony, Byasanagar - OSPCB",20-03-2024 00:00:00,20.94185,86.11510,SO2,4,52,9
India,Odisha,Cuttack,"CDA Area, Cuttack - OSPCB",20-03-2024 00:00:00,20.48891     ,85.84768     ,NO2,12,50,28
India,Odisha,Cuttack,"CDA Area, Cuttack - OSPCB",20-03-2024 00:00:00,20.48891     ,85.84768     ,OZONE,11,72,34
India,Odisha,Nayagarh,"Dabuna, Nayagarh - OSPCB",20-03-2024 00:00:00,21.847279,85.416905,PM2.5,25,77,39
India,Odisha,Nayagarh,"Dabuna, Nayagarh - OSPCB",20-03-2024 00:00:00,21.847279,85.416905,NH3,4,5,5
India,Odisha,Rairangpur,"Divisional Forest Office, Rairangpur - OSPCB",20-03-2024 00:00:00,22.265816,86.174829,PM2.5,32,48,39
India,Odisha,Rairangpur,"Divisional Forest Office, Rairangpur - OSPCB",20-03-2024 00:00:00,22.265816,86.174829,PM10,46,68,55
India,Odisha,Rairangpur,"Divisional Forest Office, Rairangpur - OSPCB",20-03-2024 00:00:00,22.265816,86.174829,CO,11,18,16
India,Odisha,Rairangpur,"Divisional Forest Office, Rairangpur - OSPCB",20-03-2024 00:00:00,22.265816,86.174829,OZONE,11,33,25
India,Odisha,Rourkela,"Fertilizer Township, Rourkela - OSPCB",20-03-2024 00:00:00,22.18972222,84.86277778,PM10,NA,NA,NA
India,Odisha,Rourkela,"Raghunathpali, Rourkela - OSPCB",20-03-2024 00:00:00,22.220833,84.809444,NO2,15,85,33
India,Odisha,Rourkela,"Sector-2, Rourkela - OSPCB",20-03-2024 00:00:00,22.24500000,84.88111111,PM10,38,103,64
India,Odisha,Talcher,"Talcher Coalfields,Talcher - OSPCB",20-03-2024 00:00:00,20.9360711,85.1707021,PM10,35,191,68
India,Odisha,Talcher,"Talcher Coalfields,Talcher - OSPCB",20-03-2024 00:00:00,20.9360711,85.1707021,NH3,7,7,7
India,Puducherry,Puducherry,"Jawahar Nagar, Puducherry - PPCC",20-03-2024 00:00:00,11.9309,79.8027,PM10,9,124,58
India,Punjab,Amritsar,"Golden Temple, Amritsar - PPCB",20-03-2024 00:00:00,31.620000,74.876512,PM2.5,47,81,60
India,Punjab,Amritsar,"Golden Temple, Amritsar - PPCB",20-03-2024 00:00:00,31.620000,74.876512,NO2,9,123,25
India,Punjab,Amritsar,"Golden Temple, Amritsar - PPCB",20-03-2024 00:00:00,31.620000,74.876512,SO2,7,40,20
India,Punjab,Bathinda,"Hardev Nagar, Bathinda - PPCB",20-03-2024 00:00:00,30.233011,74.907758,PM2.5,25,134,63
India,Punjab,Bathinda,"Hardev Nagar, Bathinda - PPCB",20-03-2024 00:00:00,30.233011,74.907758,PM10,27,168,90
India,Punjab,Jalandhar,"Civil Line, Jalandhar - PPCB",20-03-2024 00:00:00,31.321907,75.578914,PM10,81,164,121
India,Punjab,Khanna,"Kalal Majra, Khanna - PPCB",20-03-2024 00:00:00,30.736056 ,76.209694,PM2.5,55,121,81
India,Punjab,Ludhiana,"Punjab Agricultural University, Ludhiana - PPCB",20-03-2024 00:00:00,30.9028,75.8086,NH3,4,5,5
India,Punjab,Ludhiana,"Punjab Agricultural University, Ludhiana - PPCB",20-03-2024 00:00:00,30.9028,75.8086,CO,8,105,41
India,Punjab,Patiala,"Model Town, Patiala - PPCB",20-03-2024 00:00:00,30.349388,76.366642,SO2,2,101,20
India,Punjab,Rupnagar,"Ratanpura, Rupnagar - Ambuja Cements",20-03-2024 00:00:00,31.0325454,76.5623046,CO,30,64,39
India,Rajasthan,Ajmer,"Civil Lines,  Ajmer - RSPCB",20-03-2024 00:00:00,26.470859,74.646594,PM10,49,154,95
India,Rajasthan,Ajmer,"Civil Lines,  Ajmer - RSPCB",20-03-2024 00:00:00,26.470859,74.646594,SO2,8,25,17
India,Rajasthan,Ajmer,"Civil Lines,  Ajmer - RSPCB",20-03-2024 00:00:00,26.470859,74.646594,OZONE,17,97,68
India,Rajasthan,Baran,"Bamboliya, Baran - RSPCB",20-03-2024 00:00:00,25.106006,76.469948,NO2,6,135,44
India,Rajasthan,Barmer,"Railway Colony, Barmer - RSPCB",20-03-2024 00:00:00,25.747299,71.393989,PM10,41,211,87
India,Rajasthan,Bharatpur,"Krishna Nagar, Bharatpur - RSPCB",20-03-2024 00:00:00,27.215415,77.50873,NO2,38,114,61
India,Rajasthan,Bhilwara,"Pratap Nagar, Bhilwara - RSPCB",20-03-2024 00:00:00,25.339605,74.618883,PM2.5,42,295,138
India,Rajasthan,Bhilwara,"Pratap Nagar, Bhilwara - RSPCB",20-03-2024 00:00:00,25.339605,74.618883,NH3,1,1,1
India,Rajasthan,Bhiwadi,"RIICO Ind. Area III, Bhiwadi - RSPCB",20-03-2024 00:00:00,28.194909,76.862296,NH3,1,10,6
India,Rajasthan,Bhiwadi,"RIICO Ind. Area III, Bhiwadi - RSPCB",20-03-2024 00:00:00,28.194909,76.862296,CO,78,107,105
India,Rajasthan,Bhiwadi,"Vasundhara Nagar_UIT, Bhiwadi - RSPCB",20-03-2024 00:00:00,28.207266,76.829265,PM2.5,NA,NA,NA
India,Rajasthan,Bikaner,"MM Ground, Bikaner - RSPCB",20-03-2024 00:00:00,28.018792,73.292658,PM2.5,26,136,56
India,Rajasthan,Bikaner,"MM Ground, Bikaner - RSPCB",20-03-2024 00:00:00,28.018792,73.292658,CO,18,94,40
India,Rajasthan,Bundi,"New Colony, Bundi - RSPCB",20-03-2024 00:00:00,25.435774,75.644272,PM2.5,10,107,37
India,Rajasthan,Bundi,"New Colony, Bundi - RSPCB",20-03-2024 00:00:00,25.435774,75.644272,NO2,7,88,26
India,Rajasthan,Churu,"Subash Chowk, Churu - RSPCB",20-03-2024 00:00:00,28.296139,74.961696,SO2,4,17,10
India,Rajasthan,Dholpur,"Raja Ganj, Dholpur - RSPCB",20-03-2024 00:00:00,26.699557,77.898881,PM10,80,272,162
India,Rajasthan,Dungarpur,"Bhoiwada, Dungarpur - RSPCB",20-03-2024 00:00:00,23.837789,73.714926,PM10,52,141,84
India,Rajasthan,Jaipur,"Adarsh Nagar, Jaipur - RSPCB",20-03-2024 00:00:00,26.902909,75.836858,CO,2,44,13
India,Rajasthan,Jaipur,"Mansarovar Sector-12, Jaipur - RSPCB",20-03-2024 00:00:00,26.843698,75.766894,PM10,58,192,106
India,Rajasthan,Jaipur,"Mansarovar Sector-12, Jaipur - RSPCB",20-03-2024 00:00:00,26.843698,75.766894,SO2,4,9,6
India,Rajasthan,Jaipur,"Police Commissionerate, Jaipur - RSPCB",20-03-2024 00:00:00,26.9164092,75.7994901,PM2.5,42,90,66
India,Rajasthan,Jaipur,"Police Commissionerate, Jaipur - RSPCB",20-03-2024 00:00:00,26.9164092,75.7994901,NO2,19,74,37
India,Rajasthan,Jaipur,"Police Commissionerate, Jaipur - RSPCB",20-03-2024 00:00:00,26.9164092,75.7994901,NH3,6,9,7
India,Rajasthan,Jaipur,"RIICO Sitapura, Jaipur - RSPCB",20-03-2024 00:00:00,26.786682,75.827928,NO2,12,105,36
India,Rajasthan,Jaipur,"Sector-2 Murlipura, Jaipur - RSPCB",20-03-2024 00:00:00,26.960669,75.771817,NH3,2,12,6
India,Rajasthan,Jaipur,"Shastri Nagar, Jaipur - RSPCB",20-03-2024 00:00:00,26.9502929,75.730943,NH3,1,12,5
India,Rajasthan,Jaipur,"Shastri Nagar, Jaipur - RSPCB",20-03-2024 00:00:00,26.9502929,75.730943,SO2,NA,NA,NA
India,Rajasthan,Jalore,"Mudtra Sili, Jalore - RSPCB",20-03-2024 00:00:00,25.344694,72.626208,OZONE,1,128,108
India,Rajasthan,Jodhpur,"Collectorate, Jodhpur - RSPCB",20-03-2024 00:00:00,26.268249,73.0193853,PM2.5,43,248,137
India,Rajasthan,Jodhpur,"Digari Kalan, Jodhpur - RSPCB",20-03-2024 00:00:00,26.295810,73.082283,NH3,5,13,8
India,Rajasthan,Jodhpur,"Digari Kalan, Jodhpur - RSPCB",20-03-2024 00:00:00,26.295810,73.082283,OZONE,4,119,58
India,Rajasthan,Jodhpur,"Jhalamand, Jodhpur - RSPCB",20-03-2024 00:00:00,26.215415,73.070156,OZONE,17,87,56
India,Rajasthan,Jodhpur,"Samrat Ashok Udhyan, Jodhpur - RSPCB",20-03-2024 00:00:00,26.253384,72.976571,NH3,4,9,6
India,Rajasthan,Karauli,"Satyawati Vihar, Karauli - RSPCB",20-03-2024 00:00:00,26.506177,77.025989,NO2,11,40,22
India,Rajasthan,Karauli,"Satyawati Vihar, Karauli - RSPCB",20-03-2024 00:00:00,26.506177,77.025989,CO,7,40,10
India,Rajasthan,Kota,"Nayapura, Kota - RSPCB",20-03-2024 00:00:00,25.196024,75.855668,PM10,74,362,160
India,Rajasthan,Kota,"Shrinath Puram, Kota - RSPCB",20-03-2024 00:00:00,25.14389,75.821256,PM2.5,74,319,155
India,Rajasthan,Kota,"Shrinath Puram, Kota - RSPCB",20-03-2024 00:00:00,25.14389,75.821256,NH3,3,6,5
India,Rajasthan,Pali,"Indira Colony Vistar, Pali - RSPCB",20-03-2024 00:00:00,25.771061, 73.340227,NO2,39,69,50
India,Rajasthan,Pratapgarh,"Pragati Nagar, Pratapgarh - RSPCB",20-03-2024 00:00:00,24.041198,74.780702,PM2.5,11,79,39
India,Rajasthan,Rajsamand,"Dhoinda, Rajsamand - RSPCB",20-03-2024 00:00:00,25.036360,73.883502,NO2,1,38,15
India,Rajasthan,Rajsamand,"Dhoinda, Rajsamand - RSPCB",20-03-2024 00:00:00,25.036360,73.883502,NH3,1,1,1
India,Rajasthan,Sirohi,"Vedhaynath Colony, Sirohi - RSPCB",20-03-2024 00:00:00,24.885261,72.857549,PM2.5,24,249,66
India,Rajasthan,Sirohi,"Vedhaynath Colony, Sirohi - RSPCB",20-03-2024 00:00:00,24.885261,72.857549,SO2,4,52,10
India,Rajasthan,Sri Ganganagar,"Old City, Sri Ganganagar - RSPCB",20-03-2024 00:00:00,29.931624,73.864511,NO2,46,176,100
India,Rajasthan,Sri Ganganagar,"Old City, Sri Ganganagar - RSPCB",20-03-2024 00:00:00,29.931624,73.864511,NH3,6,33,15
India,Rajasthan,Sri Ganganagar,"Old City, Sri Ganganagar - RSPCB",20-03-2024 00:00:00,29.931624,73.864511,OZONE,3,65,27
India,Rajasthan,Udaipur,"Ashok Nagar, Udaipur - RSPCB",20-03-2024 00:00:00,24.5886166,73.6321397,PM10,55,138,99
India,Rajasthan,Udaipur,"Ashok Nagar, Udaipur - RSPCB",20-03-2024 00:00:00,24.5886166,73.6321397,CO,16,107,66
India,Sikkim,Gangtok,"Zero Point GICI, Gangtok - SSPCB",20-03-2024 00:00:00,27.338530,88.614099,NO2,1,11,4
India,Sikkim,Gangtok,"Zero Point GICI, Gangtok - SSPCB",20-03-2024 00:00:00,27.338530,88.614099,CO,34,66,58
India,TamilNadu,Ariyalur,"Keelapalur, Ariyalur - TNPCB",20-03-2024 00:00:00,11.06825,79.07033,PM2.5,26,128,69
India,TamilNadu,Ariyalur,"Keelapalur, Ariyalur - TNPCB",20-03-2024 00:00:00,11.06825,79.07033,PM10,34,78,53
India,TamilNadu,Chengalpattu,"Crescent University, Chengalpattu - TNPCB",20-03-2024 00:00:00,12.8777316,80.0834807,PM10,16,80,33
India,TamilNadu,Chengalpattu,"Crescent University, Chengalpattu - TNPCB",20-03-2024 00:00:00,12.8777316,80.0834807,CO,26,30,28
India,TamilNadu,Chengalpattu,"Crescent University, Chengalpattu - TNPCB",20-03-2024 00:00:00,12.8777316,80.0834807,OZONE,6,6,6
India,TamilNadu,Chennai,"Alandur Bus Depot, Chennai - CPCB",20-03-2024 00:00:00,12.9099161,80.1076538,NO2,4,23,8
India,TamilNadu,Chennai,"Alandur Bus Depot, Chennai - CPCB",20-03-2024 00:00:00,12.9099161,80.1076538,SO2,2,5,3
India,TamilNadu,Chennai,"Arumbakkam, Chennai - TNPCB",20-03-2024 00:00:00,13.0664,80.2112 ,PM10,NA,NA,NA
India,TamilNadu,Chennai,"Arumbakkam, Chennai - TNPCB",20-03-2024 00:00:00,13.0664,80.2112 ,NH3,2,6,4
India,TamilNadu,Chennai,"Kodungaiyur, Chennai - TNPCB",20-03-2024 00:00:00,13.1278,80.2642,NO2,7,23,12
India,TamilNadu,Chennai,"Kodungaiyur, Chennai - TNPCB",20-03-2024 00:00:00,13.1278,80.2642,CO,13,38,32
India,TamilNadu,Chennai,"Manali, Chennai - CPCB",20-03-2024 00:00:00,13.164544,80.26285,PM2.5,18,62,38
India,TamilNadu,Chennai,"Manali, Chennai - CPCB",20-03-2024 00:00:00,13.164544,80.26285,SO2,3,64,11
India,TamilNadu,Chennai,"Manali, Chennai - CPCB",20-03-2024 00:00:00,13.164544,80.26285,OZONE,6,15,13
India,TamilNadu,Chennai,"Perungudi, Chennai - TNPCB",20-03-2024 00:00:00,12.9533,80.2357,SO2,NA,NA,NA
India,TamilNadu,Chennai,"Royapuram, Chennai - TNPCB",20-03-2024 00:00:00,13.1036,80.2909,NH3,1,2,1
India,TamilNadu,Chennai,"Royapuram, Chennai - TNPCB",20-03-2024 00:00:00,13.1036,80.2909,CO,16,27,23
India,TamilNadu,Chennai,"Velachery Res. Area, Chennai - CPCB",20-03-2024 00:00:00,13.0052189,80.2398125,OZONE,4,10,6
India,TamilNadu,Coimbatore,"PSG College of Arts and Science, Coimbatore - TNPCB",20-03-2024 00:00:00,11.0328,77.0349,PM2.5,33,107,66
India,TamilNadu,Coimbatore,"PSG College of Arts and Science, Coimbatore - TNPCB",20-03-2024 00:00:00,11.0328,77.0349,CO,5,6,6
India,TamilNadu,Cuddalore,"Kudikadu, Cuddalore - TNPCB",20-03-2024 00:00:00,11.6829898,79.7532099,PM2.5,17,87,62
India,TamilNadu,Cuddalore,"Kudikadu, Cuddalore - TNPCB",20-03-2024 00:00:00,11.6829898,79.7532099,SO2,12,14,13
India,TamilNadu,Cuddalore,"Semmandalam, Cuddalore - TNPCB",20-03-2024 00:00:00,11.7637683,79.7499835,PM10,2,74,44
India,TamilNadu,Gummidipoondi,"Anthoni Pillai Nagar, Gummidipoondi - TNPCB",20-03-2024 00:00:00,13.4127,80.1081,SO2,2,101,17
India,TamilNadu,Ooty,"Bombay Castel, Ooty - TNPCB",20-03-2024 00:00:00,11.4068288,76.7138973,NO2,4,113,29
India,TamilNadu,Ooty,"Bombay Castel, Ooty - TNPCB",20-03-2024 00:00:00,11.4068288,76.7138973,CO,21,22,22
India,TamilNadu,Palkalaiperur,"Bharathidasan University, Palkalaiperur - TNPCB",20-03-2024 00:00:00,10.681158,78.741746,PM2.5,NA,NA,NA
India,TamilNadu,Palkalaiperur,"Bharathidasan University, Palkalaiperur - TNPCB",20-03-2024 00:00:00,10.681158,78.741746,CO,4,14,7
India,TamilNadu,Palkalaiperur,"Bharathidasan University, Palkalaiperur - TNPCB",20-03-2024 00:00:00,10.681158,78.741746,OZONE,1,1,1
India,TamilNadu,Salem,"Sona College of Technology, Salem - TNPCB",20-03-2024 00:00:00,11.679111,78.125052,NH3,NA,NA,NA
India,TamilNadu,Thoothukudi,"Meelavittan, Thoothukudi - TNPCB",20-03-2024 00:00:00,8.816428 ,78.099039,PM10,26,163,63
India,TamilNadu,Thoothukudi,"Meelavittan, Thoothukudi - TNPCB",20-03-2024 00:00:00,8.816428 ,78.099039,CO,1,36,13
India,TamilNadu,Tirupur,"Kumaran College, Tirupur - TNPCB",20-03-2024 00:00:00,11.0973603,77.3228673,PM2.5,22,67,39
India,TamilNadu,Tirupur,"Kumaran College, Tirupur - TNPCB",20-03-2024 00:00:00,11.0973603,77.3228673,OZONE,7,7,7
India,Telangana,Hyderabad,"Central University, Hyderabad - TSPCB",20-03-2024 00:00:00,17.460103,78.334361,NO2,20,42,31
India,Telangana,Hyderabad,"Central University, Hyderabad - TSPCB",20-03-2024 00:00:00,17.460103,78.334361,SO2,6,12,9
India,Telangana,Hyderabad,"ICRISAT Patancheru, Hyderabad - TSPCB",20-03-2024 00:00:00,17.518400,78.278777,NH3,2,2,2
India,Telangana,Hyderabad,"ICRISAT Patancheru, Hyderabad - TSPCB",20-03-2024 00:00:00,17.518400,78.278777,SO2,18,31,23
India,Telangana,Hyderabad,"ICRISAT Patancheru, Hyderabad - TSPCB",20-03-2024 00:00:00,17.518400,78.278777,OZONE,9,93,75
India,Telangana,Hyderabad,"Kokapet, Hyderabad - TSPCB",20-03-2024 00:00:00,17.393559,78.339194,NO2,10,10,10
India,Telangana,Hyderabad,"Kokapet, Hyderabad - TSPCB",20-03-2024 00:00:00,17.393559,78.339194,NH3,2,2,2
India,Telangana,Hyderabad,"Kompally Municipal Office, Hyderabad - TSPCB",20-03-2024 00:00:00,17.544899,78.486949,NO2,8,11,9
India,Telangana,Hyderabad,"Kompally Municipal Office, Hyderabad - TSPCB",20-03-2024 00:00:00,17.544899,78.486949,SO2,8,22,13
India,Telangana,Hyderabad,"Kompally Municipal Office, Hyderabad - TSPCB",20-03-2024 00:00:00,17.544899,78.486949,CO,24,42,32
India,Telangana,Hyderabad,"Kompally Municipal Office, Hyderabad - TSPCB",20-03-2024 00:00:00,17.544899,78.486949,OZONE,5,107,41
India,Telangana,Hyderabad,"Nacharam_TSIIC IALA, Hyderabad - TSPCB",20-03-2024 00:00:00,17.429398,78.569354,PM10,58,76,69
India,Telangana,Hyderabad,"Nacharam_TSIIC IALA, Hyderabad - TSPCB",20-03-2024 00:00:00,17.429398,78.569354,OZONE,17,44,40
India,Telangana,Hyderabad,"New Malakpet, Hyderabad - TSPCB",20-03-2024 00:00:00,17.37206,78.50864,PM2.5,10,178,57
India,Telangana,Hyderabad,"New Malakpet, Hyderabad - TSPCB",20-03-2024 00:00:00,17.37206,78.50864,PM10,54,114,76
India,Telangana,Hyderabad,"Sanathnagar, Hyderabad - TSPCB",20-03-2024 00:00:00,17.4559458,78.4332152,NO2,24,31,28
India,Tripura,Agartala,"Bardowali, Agartala - Tripura SPCB",20-03-2024 00:00:00,23.8175497,91.2726974,PM2.5,120,370,214
India,Tripura,Agartala,"Bardowali, Agartala - Tripura SPCB",20-03-2024 00:00:00,23.8175497,91.2726974,NH3,3,4,4
India,Uttar_Pradesh,Agra,"Manoharpur, Agra - UPPCB",20-03-2024 00:00:00,27.23711,78.01936,OZONE,2,35,21
India,Uttar_Pradesh,Agra,"Rohta, Agra - UPPCB",20-03-2024 00:00:00,27.106972,78.000111,SO2,4,19,11
India,Uttar_Pradesh,Agra,"Sanjay Palace, Agra - UPPCB",20-03-2024 00:00:00,27.19865833,78.00598056,NO2,29,68,44
India,Uttar_Pradesh,Agra,"Sector-3B Avas Vikas Colony, Agra - UPPCB",20-03-2024 00:00:00,27.19412,77.96237,NO2,6,34,15
India,Uttar_Pradesh,Agra,"Shahjahan Garden, Agra - UPPCB",20-03-2024 00:00:00,27.169338,78.03582,SO2,46,57,52
India,Uttar_Pradesh,Baghpat,"Sardar Patel Inter College, Baghpat - UPPCB",20-03-2024 00:00:00,28.964949,77.278761,NO2,53,204,159
India,Uttar_Pradesh,Baghpat,"Sardar Patel Inter College, Baghpat - UPPCB",20-03-2024 00:00:00,28.964949,77.278761,SO2,11,122,61
India,Uttar_Pradesh,Bareilly,"Rajendra Nagar, Bareilly - UPPCB",20-03-2024 00:00:00,28.38910936,79.42963708,PM2.5,26,67,45
India,Uttar_Pradesh,Bareilly,"Rajendra Nagar, Bareilly - UPPCB",20-03-2024 00:00:00,28.38910936,79.42963708,NO2,16,57,34
India,Uttar_Pradesh,Bareilly,"Rajendra Nagar, Bareilly - UPPCB",20-03-2024 00:00:00,28.38910936,79.42963708,SO2,43,45,43
India,Uttar_Pradesh,Bulandshahr,"Yamunapuram, Bulandshahr - UPPCB",20-03-2024 00:00:00,28.406963,77.849831,PM2.5,43,209,100
India,Uttar_Pradesh,Bulandshahr,"Yamunapuram, Bulandshahr - UPPCB",20-03-2024 00:00:00,28.406963,77.849831,NO2,7,152,78
India,Uttar_Pradesh,Bulandshahr,"Yamunapuram, Bulandshahr - UPPCB",20-03-2024 00:00:00,28.406963,77.849831,CO,17,92,40
India,Uttar_Pradesh,Firozabad,"Nagla Bhau, Firozabad - UPPCB",20-03-2024 00:00:00,27.168897,78.376960,PM2.5,21,187,65
India,Uttar_Pradesh,Firozabad,"Nagla Bhau, Firozabad - UPPCB",20-03-2024 00:00:00,27.168897,78.376960,NO2,17,17,17
India,Uttar_Pradesh,Firozabad,"Nagla Bhau, Firozabad - UPPCB",20-03-2024 00:00:00,27.168897,78.376960,NH3,2,2,2
India,Uttar_Pradesh,Ghaziabad,"Indirapuram, Ghaziabad - UPPCB",20-03-2024 00:00:00,28.646233,77.358075,SO2,10,19,15
India,Uttar_Pradesh,Ghaziabad,"Indirapuram, Ghaziabad - UPPCB",20-03-2024 00:00:00,28.646233,77.358075,CO,1,94,49
India,Uttar_Pradesh,Ghaziabad,"Loni, Ghaziabad - UPPCB",20-03-2024 00:00:00,28.757294,77.278792,PM2.5,38,379,179
India,Uttar_Pradesh,Ghaziabad,"Loni, Ghaziabad - UPPCB",20-03-2024 00:00:00,28.757294,77.278792,CO,30,99,63
India,Uttar_Pradesh,Ghaziabad,"Loni, Ghaziabad - UPPCB",20-03-2024 00:00:00,28.757294,77.278792,OZONE,2,215,120
India,Uttar_Pradesh,Ghaziabad,"Sanjay Nagar, Ghaziabad - UPPCB",20-03-2024 00:00:00,28.685382,77.453839,SO2,26,77,48
India,Uttar_Pradesh,Ghaziabad,"Sanjay Nagar, Ghaziabad - UPPCB",20-03-2024 00:00:00,28.685382,77.453839,CO,NA,NA,NA
India,Uttar_Pradesh,Ghaziabad,"Vasundhara, Ghaziabad - UPPCB",20-03-2024 00:00:00,28.6603346,77.3572563,CO,16,174,68
India,Uttar_Pradesh,Gorakhpur,"Madan Mohan Malaviya University of Technology, Gorakhpur - UPPCB",20-03-2024 00:00:00,26.730136,83.433859,PM10,75,162,117
India,Uttar_Pradesh,Greater Noida,"Knowledge Park - III, Greater Noida - UPPCB",20-03-2024 00:00:00,28.47272,77.482000,NO2,32,129,80
India,Uttar_Pradesh,Greater Noida,"Knowledge Park - V, Greater Noida - UPPCB",20-03-2024 00:00:00,28.557054,77.453663,CO,4,69,20
India,Uttar_Pradesh,Jhansi,"Shivaji Nagar, Jhansi - UPPCB",20-03-2024 00:00:00,25.4547,78.6039,PM2.5,11,500,64
India,Uttar_Pradesh,Jhansi,"Shivaji Nagar, Jhansi - UPPCB",20-03-2024 00:00:00,25.4547,78.6039,NO2,3,41,18
India,Uttar_Pradesh,Kanpur,"Nehru Nagar, Kanpur - UPPCB",20-03-2024 00:00:00,26.4703136,80.3229863,NO2,19,41,32
India,Uttar_Pradesh,Kanpur,"Nehru Nagar, Kanpur - UPPCB",20-03-2024 00:00:00,26.4703136,80.3229863,SO2,5,10,8
India,Uttar_Pradesh,Khurja,"Kalindi Kunj, Khurja - UPPCB",20-03-2024 00:00:00,28.2348927,77.8683002,PM10,16,136,79
India,Uttar_Pradesh,Khurja,"Kalindi Kunj, Khurja - UPPCB",20-03-2024 00:00:00,28.2348927,77.8683002,CO,31,72,49
India,Uttar_Pradesh,Lucknow,"B R Ambedkar University, Lucknow - UPPCB",20-03-2024 00:00:00,26.766433,80.927299,NO2,11,12,12
India,Uttar_Pradesh,Lucknow,"B R Ambedkar University, Lucknow - UPPCB",20-03-2024 00:00:00,26.766433,80.927299,NH3,5,8,6
India,Uttar_Pradesh,Lucknow,"Gomti Nagar, Lucknow - UPPCB",20-03-2024 00:00:00,26.868120,81.005119,CO,35,43,40
India,Uttar_Pradesh,Lucknow,"Kendriya Vidyalaya, Lucknow - CPCB",20-03-2024 00:00:00,26.906111,80.948222,PM2.5,48,207,106
India,Uttar_Pradesh,Lucknow,"Kendriya Vidyalaya, Lucknow - CPCB",20-03-2024 00:00:00,26.906111,80.948222,SO2,4,8,6
India,Uttar_Pradesh,Lucknow,"Kukrail Picnic Spot-1, Lucknow - UPPCB",20-03-2024 00:00:00,26.90723,80.98579,NO2,8,9,8
India,Uttar_Pradesh,Lucknow,"Lalbagh, Lucknow - CPCB",20-03-2024 00:00:00,26.8458805,80.9365541,PM10,115,249,158
India,Uttar_Pradesh,Lucknow,"Lalbagh, Lucknow - CPCB",20-03-2024 00:00:00,26.8458805,80.9365541,SO2,1,23,9
India,Uttar_Pradesh,Lucknow,"Talkatora District Industries Center, Lucknow - CPCB",20-03-2024 00:00:00,26.83399722,80.8917361,OZONE,2,81,34
India,Uttar_Pradesh,Meerut,"Ganga Nagar, Meerut - UPPCB",20-03-2024 00:00:00,28.999264,77.7590354,SO2,23,64,38
India,Uttar_Pradesh,Meerut,"Jai Bhim Nagar, Meerut - UPPCB",20-03-2024 00:00:00,28.9535882,77.7622941,PM2.5,38,316,110
India,Uttar_Pradesh,Meerut,"Jai Bhim Nagar, Meerut - UPPCB",20-03-2024 00:00:00,28.9535882,77.7622941,NH3,5,9,6
India,Uttar_Pradesh,Meerut,"Jai Bhim Nagar, Meerut - UPPCB",20-03-2024 00:00:00,28.9535882,77.7622941,OZONE,1,114,82
India,Uttar_Pradesh,Meerut,"Pallavpuram Phase 2, Meerut - UPPCB",20-03-2024 00:00:00,29.063510,77.709723,PM2.5,42,312,151
India,Uttar_Pradesh,Meerut,"Pallavpuram Phase 2, Meerut - UPPCB",20-03-2024 00:00:00,29.063510,77.709723,NO2,14,94,53
India,Uttar_Pradesh,Meerut,"Pallavpuram Phase 2, Meerut - UPPCB",20-03-2024 00:00:00,29.063510,77.709723,NH3,12,16,13
India,Uttar_Pradesh,Moradabad,"Buddhi Vihar, Moradabad - UPPCB",20-03-2024 00:00:00,28.83526,78.74460,PM10,56,245,124
India,Uttar_Pradesh,Moradabad,"Eco Herbal Park, Moradabad - UPPCB",20-03-2024 00:00:00,28.840739,78.697531,NH3,2,42,7
India,Uttar_Pradesh,Moradabad,"Eco Herbal Park, Moradabad - UPPCB",20-03-2024 00:00:00,28.840739,78.697531,CO,15,104,41
India,Uttar_Pradesh,Moradabad,"Employment Office, Moradabad - UPPCB",20-03-2024 00:00:00,28.88528,78.73880,PM10,60,229,122
India,Uttar_Pradesh,Moradabad,"Employment Office, Moradabad - UPPCB",20-03-2024 00:00:00,28.88528,78.73880,NH3,3,4,4
India,Uttar_Pradesh,Moradabad,"Jigar Colony, Moradabad - UPPCB",20-03-2024 00:00:00,28.856664,78.772638,NO2,21,27,24
India,Uttar_Pradesh,Moradabad,"Kashiram Nagar, Moradabad - UPPCB",20-03-2024 00:00:00,28.849399,78.742362,CO,30,62,47
India,Uttar_Pradesh,Moradabad,"Transport Nagar, Moradabad - UPPCB",20-03-2024 00:00:00,28.802625,78.753728,PM10,62,173,102
India,Uttar_Pradesh,Muzaffarnagar,"New Mandi, Muzaffarnagar - UPPCB",20-03-2024 00:00:00,29.4723508,77.7194031,SO2,13,63,32
India,Uttar_Pradesh,Muzaffarnagar,"New Mandi, Muzaffarnagar - UPPCB",20-03-2024 00:00:00,29.4723508,77.7194031,OZONE,15,134,81
India,Uttar_Pradesh,Noida,"Sector-116, Noida - UPPCB",20-03-2024 00:00:00,28.569230,77.393848,PM10,112,300,172
India,Uttar_Pradesh,Prayagraj,"Jhunsi, Prayagraj - UPPCB",20-03-2024 00:00:00,25.425602,81.917152,NO2,6,6,6
India,Uttar_Pradesh,Prayagraj,"Nagar Nigam, Prayagraj - UPPCB",20-03-2024 00:00:00,25.44919916 ,81.82735986 ,PM10,69,209,123
India,Uttar_Pradesh,Prayagraj,"Nagar Nigam, Prayagraj - UPPCB",20-03-2024 00:00:00,25.44919916 ,81.82735986 ,CO,15,85,42
India,Uttar_Pradesh,Varanasi,"Ardhali Bazar, Varanasi - UPPCB",20-03-2024 00:00:00,25.3505986,82.9083074,PM2.5,11,61,30
India,Uttar_Pradesh,Varanasi,"IESD Banaras Hindu University, Varanasi - UPPCB",20-03-2024 00:00:00,25.262326,82.995408,NO2,2,3,2
India,Uttar_Pradesh,Vrindavan,"Omex Eternity, Vrindavan - UPPCB",20-03-2024 00:00:00,27.5714090,77.6557570,CO,33,81,41
India,Uttarakhand,Kashipur,"Govt. Girls Inter College, Kashipur - UKPCB",20-03-2024 00:00:00,29.2124114,78.9611753,NH3,4,20,9
India,Uttarakhand,Rishikesh,"Shivaji Nagar, Rishikesh - UKPCB",20-03-2024 00:00:00,30.075911,78.2859547,PM2.5,25,79,50
India,Uttarakhand,Rishikesh,"Shivaji Nagar, Rishikesh - UKPCB",20-03-2024 00:00:00,30.075911,78.2859547,PM10,42,98,66
India,Uttarakhand,Rishikesh,"Shivaji Nagar, Rishikesh - UKPCB",20-03-2024 00:00:00,30.075911,78.2859547,NO2,8,28,12
India,West_Bengal,Asansol,"Asansol Court Area, Asansol - WBPCB",20-03-2024 00:00:00,23.685297,86.945968,OZONE,12,25,21
India,West_Bengal,Durgapur,"Sidhu Kanhu Indoor Stadium, Durgapur - WBPCB",20-03-2024 00:00:00,23.5404352,87.2892225,OZONE,4,45,19
India,West_Bengal,Haldia,"Priyambada Housing Estate, Haldia - WBPCB",20-03-2024 00:00:00,22.06047,88.109737,NH3,4,5,4
India,West_Bengal,Haldia,"Priyambada Housing Estate, Haldia - WBPCB",20-03-2024 00:00:00,22.06047,88.109737,CO,22,41,26
India,West_Bengal,Howrah,"Belur Math, Howrah - WBPCB",20-03-2024 00:00:00,22.629801,88.352017,PM2.5,41,218,85
India,West_Bengal,Howrah,"Belur Math, Howrah - WBPCB",20-03-2024 00:00:00,22.629801,88.352017,CO,2,44,23
India,West_Bengal,Kolkata,"Bidhannagar, Kolkata - WBPCB",20-03-2024 00:00:00,22.58157048,88.41002457,OZONE,12,107,52
India,West_Bengal,Kolkata,"Fort William, Kolkata - WBPCB",20-03-2024 00:00:00,22.556640,88.342674,NO2,26,81,47
India,West_Bengal,Kolkata,"Rabindra Bharati University, Kolkata - WBPCB",20-03-2024 00:00:00,22.627847,88.380669,NO2,1,21,12
India,West_Bengal,Kolkata,"Rabindra Bharati University, Kolkata - WBPCB",20-03-2024 00:00:00,22.627847,88.380669,CO,28,64,38
India,West_Bengal,Kolkata,"Rabindra Sarobar, Kolkata - WBPCB",20-03-2024 00:00:00,22.51106,88.35142,SO2,18,75,31
India,West_Bengal,Kolkata,"Rabindra Sarobar, Kolkata - WBPCB",20-03-2024 00:00:00,22.51106,88.35142,CO,12,40,27
India,West_Bengal,Kolkata,"Victoria, Kolkata - WBPCB",20-03-2024 00:00:00,22.5448082,88.3403691,CO,18,40,29
India,West_Bengal,Siliguri,"Ward-32 Bapupara, Siliguri - WBPCB",20-03-2024 00:00:00,26.6879226,88.4152495,PM2.5,93,409,233
India,West_Bengal,Siliguri,"Ward-32 Bapupara, Siliguri - WBPCB",20-03-2024 00:00:00,26.6879226,88.4152495,OZONE,13,74,32
India,Andhra_Pradesh,Amaravati,"Secretariat, Amaravati - APPCB",20-03-2024 00:00:00,16.5150833,80.5181667,PM2.5,10,62,30
India,Andhra_Pradesh,Amaravati,"Secretariat, Amaravati - APPCB",20-03-2024 00:00:00,16.5150833,80.5181667,PM10,22,111,47
India,Andhra_Pradesh,Amaravati,"Secretariat, Amaravati - APPCB",20-03-2024 00:00:00,16.5150833,80.5181667,NH3,4,5,5
India,Andhra_Pradesh,Anantapur,"Gulzarpet, Anantapur - APPCB",20-03-2024 00:00:00,14.675886,77.593027,CO,24,86,50
India,Andhra_Pradesh,Chittoor,"Gangineni Cheruvu, Chittoor - APPCB",20-03-2024 00:00:00,13.204880,79.097889,PM10,NA,NA,NA
India,Andhra_Pradesh,Kadapa,"Yerramukkapalli, Kadapa - APPCB",20-03-2024 00:00:00,14.465052,78.824187,SO2,1,3,2
India,Andhra_Pradesh,Rajamahendravaram,"Anand Kala Kshetram, Rajamahendravaram - APPCB",20-03-2024 00:00:00,16.9872867,81.7363176,PM10,33,95,67
India,Andhra_Pradesh,Rajamahendravaram,"Anand Kala Kshetram, Rajamahendravaram - APPCB",20-03-2024 00:00:00,16.9872867,81.7363176,SO2,10,12,11
India,Andhra_Pradesh,Rajamahendravaram,"Anand Kala Kshetram, Rajamahendravaram - APPCB",20-03-2024 00:00:00,16.9872867,81.7363176,OZONE,11,29,20
India,Andhra_Pradesh,Tirupati,"Tirumala, Tirupati - APPCB",20-03-2024 00:00:00,13.67,79.35,CO,20,34,27
India,Andhra_Pradesh,Tirupati,"Vaikuntapuram, Tirupati - APPCB",20-03-2024 00:00:00,13.615387,79.409230,OZONE,8,48,35
India,Andhra_Pradesh,Vijayawada,"HB Colony, Vijayawada - APPCB",20-03-2024 00:00:00,16.536107,80.594233,PM2.5,58,91,67
India,Andhra_Pradesh,Vijayawada,"HB Colony, Vijayawada - APPCB",20-03-2024 00:00:00,16.536107,80.594233,PM10,62,107,74
India,Andhra_Pradesh,Vijayawada,"Kanuru, Vijayawada - APPCB",20-03-2024 00:00:00,16.486692,80.699436,PM2.5,52,77,61
India,Andhra_Pradesh,Vijayawada,"Kanuru, Vijayawada - APPCB",20-03-2024 00:00:00,16.486692,80.699436,NH3,1,1,1
India,Andhra_Pradesh,Vijayawada,"Kanuru, Vijayawada - APPCB",20-03-2024 00:00:00,16.486692,80.699436,SO2,7,12,9
India,Andhra_Pradesh,Vijayawada,"Rajiv Gandhi Park, Vijayawada - APPCB",20-03-2024 00:00:00,16.509717,80.612222,CO,33,54,40
India,Andhra_Pradesh,Vijayawada,"Rajiv Gandhi Park, Vijayawada - APPCB",20-03-2024 00:00:00,16.509717,80.612222,OZONE,7,64,31
India,Andhra_Pradesh,Visakhapatnam,"GVM Corporation, Visakhapatnam - APPCB",20-03-2024 00:00:00,17.72,83.3,PM2.5,32,89,61
India,Andhra_Pradesh,Visakhapatnam,"GVM Corporation, Visakhapatnam - APPCB",20-03-2024 00:00:00,17.72,83.3,NH3,4,9,5
India,Assam,Guwahati,"LGBI Airport, Guwahati - PCBA",20-03-2024 00:00:00,26.10887,91.589544,SO2,12,13,13
India,Assam,Guwahati,"Pan Bazaar, Guwahati - PCBA",20-03-2024 00:00:00,26.187500,91.744194,NH3,6,10,8
India,Assam,Guwahati,"Railway Colony, Guwahati - PCBA",20-03-2024 00:00:00,26.181742,91.78063,PM10,143,479,249
India,Assam,Guwahati,"Railway Colony, Guwahati - PCBA",20-03-2024 00:00:00,26.181742,91.78063,NO2,3,5,3
India,Assam,Nalbari,"Bata Chowk, Nalbari - PCBA",20-03-2024 00:00:00,26.446912,91.439057,SO2,9,13,11
India,Assam,Silchar,"Tarapur, Silchar - PCBA",20-03-2024 00:00:00,24.82827,92.79525,SO2,4,25,10
India,Assam,Sivasagar,"Girls College, Sivasagar - PCBA",20-03-2024 00:00:00,26.987634,94.636574,NH3,2,2,2
India,Assam,Sivasagar,"Girls College, Sivasagar - PCBA",20-03-2024 00:00:00,26.987634,94.636574,SO2,3,10,5
India,Bihar,Aurangabad,"Gurdeo Nagar, Aurangabad - BSPCB",20-03-2024 00:00:00,24.75746,84.366208,SO2,1,12,7
India,Bihar,Bettiah,"Kamalnath Nagar, Bettiah - BSPCB",20-03-2024 00:00:00,26.80365,84.51954,OZONE,2,22,4
India,Bihar,Bhagalpur,"DM Office_Kachari Chowk, Bhagalpur - BSPCB",20-03-2024 00:00:00,25.251013,86.989001,PM2.5,70,320,148
India,Bihar,Bhagalpur,"DM Office_Kachari Chowk, Bhagalpur - BSPCB",20-03-2024 00:00:00,25.251013,86.989001,CO,32,75,49
India,Bihar,Bhagalpur,"Mayaganj, Bhagalpur - BSPCB",20-03-2024 00:00:00,25.265194,87.012947,CO,8,10,9
India,Bihar,Bihar Sharif,"D M Colony, Bihar Sharif - BSPCB",20-03-2024 00:00:00,25.204762,85.514960,NO2,9,11,10
India,Bihar,Bihar Sharif,"D M Colony, Bihar Sharif - BSPCB",20-03-2024 00:00:00,25.204762,85.514960,CO,9,67,41
India,Bihar,Buxar,"Charitra Van, Buxar - BSPCB (Formerly known as Central Jail)",20-03-2024 00:00:00,25.567520,83.966379,NH3,NA,NA,NA
India,Bihar,Chhapra,"Darshan Nagar, Chhapra - BSPCB",20-03-2024 00:00:00,25.7808257,84.7446768,NO2,19,32,25
India,Bihar,Chhapra,"Darshan Nagar, Chhapra - BSPCB",20-03-2024 00:00:00,25.7808257,84.7446768,CO,37,69,54
India,Bihar,Chhapra,"Darshan Nagar, Chhapra - BSPCB",20-03-2024 00:00:00,25.7808257,84.7446768,OZONE,4,23,12
India,Bihar,Gaya,"Collectorate, Gaya - BSPCB",20-03-2024 00:00:00,24.7955,84.9994,CO,22,71,54
India,Bihar,Gaya,"Collectorate, Gaya - BSPCB",20-03-2024 00:00:00,24.7955,84.9994,OZONE,40,85,69
India,Bihar,Gaya,"Kareemganj, Gaya - BSPCB",20-03-2024 00:00:00,24.792403,84.992416,CO,14,108,41
India,Bihar,Gaya,"SFTI Kusdihra, Gaya - BSPCB",20-03-2024 00:00:00,24.762518,84.982348,PM2.5,61,198,101
India,Bihar,Gaya,"SFTI Kusdihra, Gaya - BSPCB",20-03-2024 00:00:00,24.762518,84.982348,NO2,14,72,34
India,Bihar,Hajipur,"Industrial Area, Hajipur - BSPCB",20-03-2024 00:00:00,25.697189,85.245900,NO2,45,72,55
India,Bihar,Katihar,"Mirchaibari, Katihar - BSPCB",20-03-2024 00:00:00,25.560083,87.553265,NH3,8,10,9
India,Bihar,Katihar,"Mirchaibari, Katihar - BSPCB",20-03-2024 00:00:00,25.560083,87.553265,CO,48,107,71
India,Bihar,Kishanganj,"SDM Office_Khagra, Kishanganj - BSPCB",20-03-2024 00:00:00,26.0881305,87.93840336,NO2,38,46,42
India,Bihar,Manguraha,"Forest Rest House, Manguraha - BSPCB",20-03-2024 00:00:00,27.308328,84.531742,NH3,1,2,2
India,Bihar,Motihari,"Gandak Colony, Motihari - BSPCB",20-03-2024 00:00:00,26.63086,84.90051,NO2,62,97,81
India,Bihar,Motihari,"Gandak Colony, Motihari - BSPCB",20-03-2024 00:00:00,26.63086,84.90051,SO2,NA,NA,NA
India,Bihar,Munger,"Town Hall, Munger - BSPCB",20-03-2024 00:00:00,25.376776,86.471523,NH3,1,2,2
India,Bihar,Munger,"Town Hall, Munger - BSPCB",20-03-2024 00:00:00,25.376776,86.471523,CO,2,8,5
India,Bihar,Muzaffarpur,"Buddha Colony, Muzaffarpur - BSPCB",20-03-2024 00:00:00,26.11442,85.39813,NO2,26,54,38
India,Bihar,Muzaffarpur,"Buddha Colony, Muzaffarpur - BSPCB",20-03-2024 00:00:00,26.11442,85.39813,OZONE,52,107,64
India,Bihar,Muzaffarpur,"MIT-Daudpur Kothi, Muzaffarpur - BSPCB",20-03-2024 00:00:00,26.1403345,85.3650192,OZONE,10,73,32
India,Bihar,Patna,"DRM Office Danapur, Patna - BSPCB",20-03-2024 00:00:00,25.586562,85.043586,NH3,3,3,3
India,Bihar,Patna,"Govt. High School Shikarpur, Patna - BSPCB",20-03-2024 00:00:00,25.592539,85.227158,PM10,89,378,180
India,Bihar,Patna,"Govt. High School Shikarpur, Patna - BSPCB",20-03-2024 00:00:00,25.592539,85.227158,OZONE,1,60,21
India,Bihar,Patna,"IGSC Planetarium Complex, Patna - BSPCB",20-03-2024 00:00:00,25.610369,85.132568,PM2.5,60,320,211
India,Bihar,Patna,"Muradpur, Patna - BSPCB",20-03-2024 00:00:00,25.619651,85.147382,PM2.5,98,362,305
India,Bihar,Patna,"Muradpur, Patna - BSPCB",20-03-2024 00:00:00,25.619651,85.147382,PM10,95,435,278
India,Bihar,Patna,"Samanpura, Patna - BSPCB",20-03-2024 00:00:00,25.596727,85.085624,NH3,6,16,9
India,Bihar,Patna,"Samanpura, Patna - BSPCB",20-03-2024 00:00:00,25.596727,85.085624,OZONE,19,92,36
India,Bihar,Purnia,"Mariam Nagar, Purnia - BSPCB",20-03-2024 00:00:00,25.366336,87.117468,NH3,2,2,2
India,Bihar,Saharsa,"Police Line, Saharsa - BSPCB",20-03-2024 00:00:00,25.892357,86.590325,PM2.5,62,386,225
India,Bihar,Sasaram,"Dada Peer, Sasaram - BSPCB",20-03-2024 00:00:00,24.952822,84.002396,SO2,20,24,21
India,Bihar,Siwan,"Chitragupta Nagar, Siwan - BSPCB",20-03-2024 00:00:00,26.2271665,84.3570427,PM10,135,237,172
India,Bihar,Siwan,"Chitragupta Nagar, Siwan - BSPCB",20-03-2024 00:00:00,26.2271665,84.3570427,NH3,1,5,3
India,Chandigarh,Chandigarh,"Sector 22, Chandigarh - CPCC",20-03-2024 00:00:00,30.735567,76.775714,NO2,22,132,60
India,Chandigarh,Chandigarh,"Sector-25, Chandigarh - CPCC",20-03-2024 00:00:00,30.751462,76.762879,CO,15,62,35
India,Chandigarh,Chandigarh,"Sector-53, Chandigarh - CPCC",20-03-2024 00:00:00,30.719859,76.738637,SO2,9,31,13
India,Chandigarh,Chandigarh,"Sector-53, Chandigarh - CPCC",20-03-2024 00:00:00,30.719859,76.738637,OZONE,4,76,38
India,Chhattisgarh,Bhilai,"32Bungalows, Bhilai - CECB",20-03-2024 00:00:00,21.194815,81.314770,SO2,3,5,4
India,Chhattisgarh,Bhilai,"Hathkhoj, Bhilai - CECB",20-03-2024 00:00:00,21.224231,81.408350,SO2,10,14,11
India,Chhattisgarh,Bhilai,"Hathkhoj, Bhilai - CECB",20-03-2024 00:00:00,21.224231,81.408350,OZONE,31,42,38
India,Chhattisgarh,Bilaspur,"Mangala, Bilaspur - NTPC",20-03-2024 00:00:00,22.08815,82.13737,NO2,NA,NA,NA
India,Chhattisgarh,Bilaspur,"Mangala, Bilaspur - NTPC",20-03-2024 00:00:00,22.08815,82.13737,SO2,NA,NA,NA
India,Chhattisgarh,Chhal,"Nawapara SECL Colony, Chhal - CECB",20-03-2024 00:00:00,22.118125,83.140608,PM2.5,NA,NA,NA
India,Chhattisgarh,Korba,"Rampur, Korba - CECB",20-03-2024 00:00:00,22.368195,82.746431,NO2,23,52,31
India,Chhattisgarh,Kunjemura,"OP Jindal School, Kunjemura - CECB",20-03-2024 00:00:00,22.126650,83.483212,NO2,7,45,22
India,Chhattisgarh,Milupara,"Govt. Higher Secondary School, Milupara - CECB",20-03-2024 00:00:00,22.1910172,83.5197009,PM10,19,32,27
India,Chhattisgarh,Raipur,"Bhatagaon New ISBT, Raipur - CECB",20-03-2024 00:00:00,21.219665,81.630094,NO2,NA,NA,NA
India,Chhattisgarh,Raipur,"Krishak Nagar, Raipur - CECB",20-03-2024 00:00:00,21.237755,81.705301,PM10,NA,NA,NA
India,Chhattisgarh,Raipur,"Krishak Nagar, Raipur - CECB",20-03-2024 00:00:00,21.237755,81.705301,SO2,NA,NA,NA
India,Chhattisgarh,Tumidih,"OP Jindal Industrial Park, Tumidih - CECB",20-03-2024 00:00:00,22.06631475,83.33820077,PM10,NA,NA,NA
India,Chhattisgarh,Tumidih,"OP Jindal Industrial Park, Tumidih - CECB",20-03-2024 00:00:00,22.06631475,83.33820077,NO2,NA,NA,NA
India,Chhattisgarh,Tumidih,"OP Jindal Industrial Park, Tumidih - CECB",20-03-2024 00:00:00,22.06631475,83.33820077,NH3,NA,NA,NA
India,Delhi,Delhi,"Alipur, Delhi - DPCC",20-03-2024 00:00:00,28.815329,77.153010,PM2.5,48,413,235
India,Delhi,Delhi,"Alipur, Delhi - DPCC",20-03-2024 00:00:00,28.815329,77.153010,CO,40,104,50
India,Delhi,Delhi,"Bawana, Delhi - DPCC",20-03-2024 00:00:00,28.776200,77.051074,NO2,11,84,47
India,Delhi,Delhi,"Bawana, Delhi - DPCC",20-03-2024 00:00:00,28.776200,77.051074,CO,41,96,62
India,Delhi,Delhi,"Burari Crossing, Delhi - IMD",20-03-2024 00:00:00,28.7256504,77.2011573,PM2.5,47,423,230
India,Delhi,Delhi,"Burari Crossing, Delhi - IMD",20-03-2024 00:00:00,28.7256504,77.2011573,OZONE,20,58,36
India,Delhi,Delhi,"Chandni Chowk, Delhi - IITM",20-03-2024 00:00:00,28.656756,77.227234,SO2,26,56,41
India,Delhi,Delhi,"Chandni Chowk, Delhi - IITM",20-03-2024 00:00:00,28.656756,77.227234,CO,42,114,104
India,Delhi,Delhi,"Dr. Karni Singh Shooting Range, Delhi - DPCC",20-03-2024 00:00:00,28.498571,77.264840,PM10,108,345,174
India,Delhi,Delhi,"Dwarka-Sector 8, Delhi - DPCC ",20-03-2024 00:00:00,28.5710274,77.0719006,NH3,2,6,3
India,Delhi,Delhi,"Dwarka-Sector 8, Delhi - DPCC ",20-03-2024 00:00:00,28.5710274,77.0719006,CO,26,114,59
India,Delhi,Delhi,"IGI Airport (T3), Delhi - IMD",20-03-2024 00:00:00,28.5627763,77.1180053,PM10,82,363,192
India,Delhi,Delhi,"ITO, Delhi - CPCB",20-03-2024 00:00:00,28.628624,77.241060,PM2.5,53,407,201
India,Delhi,Delhi,"ITO, Delhi - CPCB",20-03-2024 00:00:00,28.628624,77.241060,SO2,4,30,17
India,Delhi,Delhi,"ITO, Delhi - CPCB",20-03-2024 00:00:00,28.628624,77.241060,OZONE,11,92,43
India,Delhi,Delhi,"Jahangirpuri, Delhi - DPCC",20-03-2024 00:00:00,28.732820,77.170633,CO,40,109,76
India,Delhi,Delhi,"Jawaharlal Nehru Stadium, Delhi - DPCC",20-03-2024 00:00:00,28.580280,77.233829,NO2,26,151,89
India,Delhi,Delhi,"Jawaharlal Nehru Stadium, Delhi - DPCC",20-03-2024 00:00:00,28.580280,77.233829,OZONE,1,246,93
India,Delhi,Delhi,"Lodhi Road, Delhi - IMD",20-03-2024 00:00:00,28.5918245,77.2273074,PM2.5,52,448,219
India,Delhi,Delhi,"Mandir Marg, Delhi - DPCC",20-03-2024 00:00:00,28.636429,77.201067,PM10,69,231,137
India,Delhi,Delhi,"Mandir Marg, Delhi - DPCC",20-03-2024 00:00:00,28.636429,77.201067,NH3,6,13,8
India,Delhi,Delhi,"Mandir Marg, Delhi - DPCC",20-03-2024 00:00:00,28.636429,77.201067,SO2,6,14,8
India,Delhi,Delhi,"Mundka, Delhi - DPCC",20-03-2024 00:00:00,28.684678,77.076574,PM2.5,52,476,267
India,Delhi,Delhi,"Mundka, Delhi - DPCC",20-03-2024 00:00:00,28.684678,77.076574,NH3,4,6,5
India,Delhi,Delhi,"Mundka, Delhi - DPCC",20-03-2024 00:00:00,28.684678,77.076574,SO2,10,109,37
India,Delhi,Delhi,"Mundka, Delhi - DPCC",20-03-2024 00:00:00,28.684678,77.076574,OZONE,14,14,14
India,Delhi,Delhi,"NSIT Dwarka, Delhi - CPCB",20-03-2024 00:00:00,28.60909,77.0325413,PM2.5,96,407,278
India,Delhi,Delhi,"NSIT Dwarka, Delhi - CPCB",20-03-2024 00:00:00,28.60909,77.0325413,NO2,27,48,36
India,Delhi,Delhi,"NSIT Dwarka, Delhi - CPCB",20-03-2024 00:00:00,28.60909,77.0325413,SO2,2,34,15
India,Delhi,Delhi,"Najafgarh, Delhi - DPCC",20-03-2024 00:00:00,28.570173,76.933762,NH3,10,13,12
India,Delhi,Delhi,"Najafgarh, Delhi - DPCC",20-03-2024 00:00:00,28.570173,76.933762,OZONE,5,175,105
India,Delhi,Delhi,"Narela, Delhi - DPCC",20-03-2024 00:00:00,28.822836,77.101981,OZONE,2,152,79
India,Delhi,Delhi,"Nehru Nagar, Delhi - DPCC",20-03-2024 00:00:00,28.567890,77.250515,PM10,121,351,213
India,Delhi,Delhi,"Nehru Nagar, Delhi - DPCC",20-03-2024 00:00:00,28.567890,77.250515,NH3,6,11,9
India,Delhi,Delhi,"New Moti Bagh, Delhi - MHUA",20-03-2024 00:00:00,28.57834,77.18400,CO,18,103,35
India,Delhi,Delhi,"Okhla Phase-2, Delhi - DPCC",20-03-2024 00:00:00,28.530785,77.271255,NH3,7,13,9
India,Delhi,Delhi,"Patparganj, Delhi - DPCC",20-03-2024 00:00:00,28.623763,77.287209,NH3,6,13,9
India,Delhi,Delhi,"Punjabi Bagh, Delhi - DPCC",20-03-2024 00:00:00,28.674045,77.131023,PM10,95,406,207
India,Delhi,Delhi,"Punjabi Bagh, Delhi - DPCC",20-03-2024 00:00:00,28.674045,77.131023,OZONE,2,38,10
India,Delhi,Delhi,"Pusa, Delhi - DPCC",20-03-2024 00:00:00,28.639652,77.146275,PM2.5,57,329,162
India,Delhi,Delhi,"Pusa, Delhi - DPCC",20-03-2024 00:00:00,28.639652,77.146275,NH3,7,12,10
India,Delhi,Delhi,"R K Puram, Delhi - DPCC",20-03-2024 00:00:00,28.563262,77.186937,PM2.5,68,394,211
India,Delhi,Delhi,"Rohini, Delhi - DPCC",20-03-2024 00:00:00,28.732528,77.119920,PM2.5,47,411,241
India,Delhi,Delhi,"Shadipur, Delhi - CPCB",20-03-2024 00:00:00,28.6514781,77.1473105,CO,36,63,45
India,Delhi,Delhi,"Sonia Vihar, Delhi - DPCC",20-03-2024 00:00:00,28.710508,77.249485,SO2,12,43,20
India,Delhi,Delhi,"Sri Aurobindo Marg, Delhi - DPCC",20-03-2024 00:00:00,28.531346,77.190156,PM2.5,57,345,156
India,Delhi,Delhi,"Vivek Vihar, Delhi - DPCC",20-03-2024 00:00:00,28.672342,77.315260,NO2,28,104,63
India,Delhi,Delhi,"Vivek Vihar, Delhi - DPCC",20-03-2024 00:00:00,28.672342,77.315260,NH3,NA,NA,NA
India,Delhi,Delhi,"Vivek Vihar, Delhi - DPCC",20-03-2024 00:00:00,28.672342,77.315260,CO,7,92,16
India,Delhi,Delhi,"Wazirpur, Delhi - DPCC",20-03-2024 00:00:00,28.699793,77.165453,SO2,19,118,66
India,Gujarat,Ahmedabad,"Chandkheda, Ahmedabad - IITM",20-03-2024 00:00:00,23.107969,72.574648,CO,2,108,59
India,Gujarat,Ahmedabad,"Gyaspur, Ahmedabad - IITM",20-03-2024 00:00:00,22.977134,72.553024,NH3,9,10,10
India,Gujarat,Ahmedabad,"Gyaspur, Ahmedabad - IITM",20-03-2024 00:00:00,22.977134,72.553024,SO2,6,41,14
India,Gujarat,Ahmedabad,"Maninagar, Ahmedabad - GPCB",20-03-2024 00:00:00,23.002657,72.591912,CO,36,106,70
India,Gujarat,Ahmedabad,"Maninagar, Ahmedabad - GPCB",20-03-2024 00:00:00,23.002657,72.591912,OZONE,4,28,15
India,Gujarat,Ahmedabad,"Raikhad, Ahmedabad - IITM",20-03-2024 00:00:00,23.020509,72.579261,PM10,46,107,81
India,Gujarat,Ahmedabad,"Rakhial, Ahmedabad - IITM",20-03-2024 00:00:00,23.016834,72.625775,NO2,16,87,45
India,Gujarat,Ahmedabad,"Rakhial, Ahmedabad - IITM",20-03-2024 00:00:00,23.016834,72.625775,CO,4,102,50
India,Gujarat,Ahmedabad,"Rakhial, Ahmedabad - IITM",20-03-2024 00:00:00,23.016834,72.625775,OZONE,3,70,33
India,Gujarat,Ahmedabad,"SAC ISRO Satellite, Ahmedabad - IITM",20-03-2024 00:00:00,23.023389,72.515201,PM10,90,108,103
India,Gujarat,Ahmedabad,"SVPI Airport Hansol, Ahmedabad - IITM",20-03-2024 00:00:00,23.076793,72.627874,PM2.5,43,183,105
India,Gujarat,Ahmedabad,"SVPI Airport Hansol, Ahmedabad - IITM",20-03-2024 00:00:00,23.076793,72.627874,NO2,15,19,17
India,Gujarat,Ahmedabad,"SVPI Airport Hansol, Ahmedabad - IITM",20-03-2024 00:00:00,23.076793,72.627874,SO2,2,5,3
India,Gujarat,Ahmedabad,"SVPI Airport Hansol, Ahmedabad - IITM",20-03-2024 00:00:00,23.076793,72.627874,OZONE,1,38,15
India,Gujarat,Ahmedabad,"Sardar Vallabhbhai Patel Stadium, Ahmedabad - IITM",20-03-2024 00:00:00,23.043070,72.562968,NO2,4,17,15
India,Gujarat,Ankleshwar,"GIDC, Ankleshwar - GPCB",20-03-2024 00:00:00,21.613267,73.010555,CO,46,113,68
India,Gujarat,Gandhinagar,"IIPHG Lekawada, Gandhinagar - IITM",20-03-2024 00:00:00,23.243639,72.68994,PM2.5,33,194,90
India,Gujarat,Gandhinagar,"IIPHG Lekawada, Gandhinagar - IITM",20-03-2024 00:00:00,23.243639,72.68994,NO2,37,70,46
India,Gujarat,Gandhinagar,"IIPHG Lekawada, Gandhinagar - IITM",20-03-2024 00:00:00,23.243639,72.68994,OZONE,10,52,26
India,Gujarat,Gandhinagar,"Sector-10, Gandhinagar - GPCB",20-03-2024 00:00:00,23.221714,72.654328,OZONE,3,33,8
India,Gujarat,Nandesari,"GIDC, Nandesari - Nandesari Ind. Association",20-03-2024 00:00:00,22.410802,73.097923,NO2,2,70,23
India,Gujarat,Nandesari,"GIDC, Nandesari - Nandesari Ind. Association",20-03-2024 00:00:00,22.410802,73.097923,SO2,2,15,10
India,Gujarat,Surat,"Science Center, Surat - SMC",20-03-2024 00:00:00,21.170046,72.795405,PM10,25,101,47
India,Gujarat,Surat,"Science Center, Surat - SMC",20-03-2024 00:00:00,21.170046,72.795405,NO2,29,45,35
India,Gujarat,Vapi,"Phase-1 GIDC, Vapi - GPCB",20-03-2024 00:00:00,20.362421,72.918013,PM2.5,46,135,80
India,Gujarat,Vatva,"Phase-4 GIDC, Vatva - GPCB",20-03-2024 00:00:00,22.969611,72.643500,NH3,2,7,4
India,Haryana,Ambala,"Patti Mehar, Ambala - HSPCB",20-03-2024 00:00:00,30.379589,76.778328,NO2,8,21,14
India,Haryana,Bahadurgarh,"Arya Nagar, Bahadurgarh - HSPCB",20-03-2024 00:00:00,28.6701,76.9254,NH3,10,13,11
India,Haryana,Ballabgarh,"Nathu Colony, Ballabgarh - HSPCB",20-03-2024 00:00:00,28.3419248,77.319699,PM2.5,48,367,259
India,Haryana,Ballabgarh,"Nathu Colony, Ballabgarh - HSPCB",20-03-2024 00:00:00,28.3419248,77.319699,NH3,1,2,1
India,Haryana,Bhiwani,"H.B. Colony, Bhiwani - HSPCB",20-03-2024 00:00:00,28.806223,76.141105,NO2,6,13,9
India,Haryana,Bhiwani,"H.B. Colony, Bhiwani - HSPCB",20-03-2024 00:00:00,28.806223,76.141105,SO2,1,76,19
India,Haryana,Bhiwani,"H.B. Colony, Bhiwani - HSPCB",20-03-2024 00:00:00,28.806223,76.141105,CO,9,60,37
India,Haryana,Dharuhera,"Municipal Corporation Office, Dharuhera -  HSPCB",20-03-2024 00:00:00,28.206800,76.799700,PM10,123,422,223
India,Haryana,Dharuhera,"Municipal Corporation Office, Dharuhera -  HSPCB",20-03-2024 00:00:00,28.206800,76.799700,NO2,43,111,71
India,Haryana,Faridabad,"New Industrial Town, Faridabad - HSPCB",20-03-2024 00:00:00,28.39072,77.30059,SO2,11,36,22
India,Haryana,Faridabad,"Sector 11, Faridabad - HSPCB",20-03-2024 00:00:00,28.376058,77.315741,PM10,127,458,234
India,Haryana,Faridabad,"Sector 11, Faridabad - HSPCB",20-03-2024 00:00:00,28.376058,77.315741,NO2,30,33,32
India,Haryana,Faridabad,"Sector 11, Faridabad - HSPCB",20-03-2024 00:00:00,28.376058,77.315741,OZONE,3,69,22
India,Haryana,Faridabad,"Sector- 16A, Faridabad - HSPCB",20-03-2024 00:00:00,28.4088421,77.3099081,NO2,4,25,11
India,Haryana,Faridabad,"Sector- 16A, Faridabad - HSPCB",20-03-2024 00:00:00,28.4088421,77.3099081,SO2,17,26,22
India,Haryana,Faridabad,"Sector- 16A, Faridabad - HSPCB",20-03-2024 00:00:00,28.4088421,77.3099081,OZONE,14,14,14
India,Haryana,Gurugram,"Sector-51, Gurugram - HSPCB",20-03-2024 00:00:00,28.4227,77.0667,PM10,105,323,205
India,Haryana,Gurugram,"Sector-51, Gurugram - HSPCB",20-03-2024 00:00:00,28.4227,77.0667,NH3,7,14,9
India,Haryana,Jind,"Police Lines, Jind - HSPCB",20-03-2024 00:00:00,29.307814,76.337619,NH3,2,5,4
India,Haryana,Jind,"Police Lines, Jind - HSPCB",20-03-2024 00:00:00,29.307814,76.337619,SO2,12,60,23
India,Haryana,Kaithal,"Rishi Nagar, Kaithal - HSPCB",20-03-2024 00:00:00,29.8006,76.4155,PM2.5,50,150,83
India,Haryana,Kaithal,"Rishi Nagar, Kaithal - HSPCB",20-03-2024 00:00:00,29.8006,76.4155,NO2,24,26,25
India,Haryana,Kaithal,"Rishi Nagar, Kaithal - HSPCB",20-03-2024 00:00:00,29.8006,76.4155,OZONE,13,27,20
India,Haryana,Karnal,"Sector-12, Karnal - HSPCB",20-03-2024 00:00:00,29.695300,77.002700,NH3,10,13,11
India,Haryana,Kurukshetra,"Sector-7, Kurukshetra - HSPCB",20-03-2024 00:00:00,29.966942,76.875879,PM2.5,49,137,82
India,Haryana,Mandikhera,"General Hospital, Mandikhera - HSPCB",20-03-2024 00:00:00,27.9002,76.9938,PM2.5,17,63,32
India,Haryana,Mandikhera,"General Hospital, Mandikhera - HSPCB",20-03-2024 00:00:00,27.9002,76.9938,CO,10,35,14
India,Haryana,Manesar,"Sector-2 IMT, Manesar - HSPCB",20-03-2024 00:00:00,28.360699,76.936090,NO2,17,30,24
India,Haryana,Manesar,"Sector-2 IMT, Manesar - HSPCB",20-03-2024 00:00:00,28.360699,76.936090,NH3,1,4,2
India,Haryana,Manesar,"Sector-2 IMT, Manesar - HSPCB",20-03-2024 00:00:00,28.360699,76.936090,SO2,3,11,6
India,Haryana,Manesar,"Sector-2 IMT, Manesar - HSPCB",20-03-2024 00:00:00,28.360699,76.936090,OZONE,1,43,27
India,Haryana,Narnaul,"Shastri Nagar, Narnaul - HSPCB",20-03-2024 00:00:00,28.060249,76.113115,OZONE,32,62,38
India,Haryana,Palwal,"Shyam Nagar, Palwal - HSPCB",20-03-2024 00:00:00,28.1485564,77.3320667,PM2.5,61,104,78
India,Haryana,Panchkula,"Sector-6, Panchkula - HSPCB ",20-03-2024 00:00:00,30.7057778,76.8531805555555,PM2.5,28,111,56
India,Haryana,Panchkula,"Sector-6, Panchkula - HSPCB ",20-03-2024 00:00:00,30.7057778,76.8531805555555,NO2,28,30,29
India,Haryana,Panipat,"Sector-18, Panipat - HSPCB",20-03-2024 00:00:00,29.497973,76.993331,NO2,31,32,31
India,Haryana,Panipat,"Sector-18, Panipat - HSPCB",20-03-2024 00:00:00,29.497973,76.993331,NH3,2,3,3
India,Haryana,Rohtak,"MD University, Rohtak - HSPCB",20-03-2024 00:00:00,28.52123,76.37138,PM2.5,9,360,221
India,Haryana,Sirsa,"F-Block, Sirsa - HSPCB",20-03-2024 00:00:00,29.536400,75.015800,PM10,69,330,119
