country,state,city,station,last_update,latitude,longitude,pollutant_id,pollutant_min,pollutant_max,pollutant_avg
India,Andhra_Pradesh,Amaravati,"Secretariat, Amaravati - APPCB",24-07-2024 15:00:00,16.5150833,80.5181667,SO2,16,22,18
India,Andhra_Pradesh,Anantapur,"Gulzarpet, Anantapur - APPCB",24-07-2024 15:00:00,14.675886,77.593027,NH3,4,4,4
India,Andhra_Pradesh,Chittoor,"Gangineni Cheruvu, Chittoor - APPCB",24-07-2024 15:00:00,13.204880,79.097889,NH3,3,4,3
India,Andhra_Pradesh,Rajamahendravaram,"Anand Kala Kshetram, Rajamahendravaram - APPCB",24-07-2024 15:00:00,16.9872867,81.7363176,OZONE,5,6,6
India,Andhra_Pradesh,Tirupati,"Tirumala, Tirupati - APPCB",24-07-2024 15:00:00,13.67,79.35,PM2.5,5,16,8
India,Andhra_Pradesh,Tirupati,"Tirumala, Tirupati - APPCB",24-07-2024 15:00:00,13.67,79.35,OZONE,15,22,19
India,Andhra_Pradesh,Tirupati,"Vaikuntapuram, Tirupati - APPCB",24-07-2024 15:00:00,13.615387,79.409230,PM2.5,63,179,86
India,Andhra_Pradesh,Tirupati,"Vaikuntapuram, Tirupati - APPCB",24-07-2024 15:00:00,13.615387,79.409230,NO2,13,27,17
India,Andhra_Pradesh,Vijayawada,"HB Colony, Vijayawada - APPCB",24-07-2024 15:00:00,16.536107,80.594233,SO2,6,7,6
India,Andhra_Pradesh,Vijayawada,"Kanuru, Vijayawada - APPCB",24-07-2024 15:00:00,16.486692,80.699436,PM2.5,33,42,40
India,Andhra_Pradesh,Vijayawada,"Kanuru, Vijayawada - APPCB",24-07-2024 15:00:00,16.486692,80.699436,PM10,34,47,40
India,Andhra_Pradesh,Vijayawada,"Kanuru, Vijayawada - APPCB",24-07-2024 15:00:00,16.486692,80.699436,NO2,28,28,28
India,Andhra_Pradesh,Vijayawada,"Rajiv Gandhi Park, Vijayawada - APPCB",24-07-2024 15:00:00,16.509717,80.612222,CO,38,38,38
India,Andhra_Pradesh,Visakhapatnam,"GVM Corporation, Visakhapatnam - APPCB",24-07-2024 15:00:00,17.72,83.3,NO2,34,47,41
India,Andhra_Pradesh,Visakhapatnam,"GVM Corporation, Visakhapatnam - APPCB",24-07-2024 15:00:00,17.72,83.3,SO2,3,15,9
India,Arunachal_Pradesh,Naharlagun,"Naharlagun, Naharlagun - APSPCB",24-07-2024 15:00:00,27.103358,93.679645,PM2.5,10,51,27
India,Assam,Guwahati,"IITG, Guwahati - PCBA",24-07-2024 15:00:00,26.2028636,91.70046436,PM2.5,1,38,16
India,Assam,Guwahati,"IITG, Guwahati - PCBA",24-07-2024 15:00:00,26.2028636,91.70046436,PM10,23,63,41
India,Assam,Guwahati,"LGBI Airport, Guwahati - PCBA",24-07-2024 15:00:00,26.10887,91.589544,CO,34,61,43
India,Assam,Guwahati,"LGBI Airport, Guwahati - PCBA",24-07-2024 15:00:00,26.10887,91.589544,OZONE,21,25,23
India,Assam,Guwahati,"Railway Colony, Guwahati - PCBA",24-07-2024 15:00:00,26.181742,91.78063,NO2,3,4,3
India,Assam,Nagaon,"Christianpatty, Nagaon - PCBA",24-07-2024 15:00:00,26.349082,92.68449,PM10,15,109,20
India,Assam,Silchar,"Tarapur, Silchar - PCBA",24-07-2024 15:00:00,24.82827,92.79525,PM2.5,34,46,40
India,Assam,Silchar,"Tarapur, Silchar - PCBA",24-07-2024 15:00:00,24.82827,92.79525,CO,20,30,25
India,Bihar,Araria,"Kharahiya Basti, Araria - BSPCB",24-07-2024 15:00:00,26.146529,87.454184,PM2.5,NA,NA,NA
India,Bihar,Araria,"Kharahiya Basti, Araria - BSPCB",24-07-2024 15:00:00,26.146529,87.454184,SO2,12,17,15
India,Bihar,Aurangabad,"Gurdeo Nagar, Aurangabad - BSPCB",24-07-2024 15:00:00,24.75746,84.366208,OZONE,14,50,29
India,Bihar,Bhagalpur,"DM Office_Kachari Chowk, Bhagalpur - BSPCB",24-07-2024 15:00:00,25.251013,86.989001,PM10,19,68,38
India,Bihar,Bhagalpur,"DM Office_Kachari Chowk, Bhagalpur - BSPCB",24-07-2024 15:00:00,25.251013,86.989001,CO,34,103,61
India,Bihar,Bhagalpur,"Mayaganj, Bhagalpur - BSPCB",24-07-2024 15:00:00,25.265194,87.012947,SO2,13,52,33
India,Bihar,Bihar Sharif,"D M Colony, Bihar Sharif - BSPCB",24-07-2024 15:00:00,25.204762,85.514960,PM2.5,10,38,19
India,Bihar,Chhapra,"Darshan Nagar, Chhapra - BSPCB",24-07-2024 15:00:00,25.7808257,84.7446768,PM2.5,7,27,18
India,Bihar,Chhapra,"Darshan Nagar, Chhapra - BSPCB",24-07-2024 15:00:00,25.7808257,84.7446768,PM10,8,35,23
India,Bihar,Chhapra,"Darshan Nagar, Chhapra - BSPCB",24-07-2024 15:00:00,25.7808257,84.7446768,NO2,NA,NA,NA
India,Bihar,Chhapra,"Darshan Nagar, Chhapra - BSPCB",24-07-2024 15:00:00,25.7808257,84.7446768,NH3,7,17,11
India,Bihar,Gaya,"Kareemganj, Gaya - BSPCB",24-07-2024 15:00:00,24.792403,84.992416,PM10,20,140,50
India,Bihar,Gaya,"Kareemganj, Gaya - BSPCB",24-07-2024 15:00:00,24.792403,84.992416,NO2,5,9,7
India,Bihar,Gaya,"Kareemganj, Gaya - BSPCB",24-07-2024 15:00:00,24.792403,84.992416,CO,32,67,43
India,Bihar,Gaya,"SFTI Kusdihra, Gaya - BSPCB",24-07-2024 15:00:00,24.762518,84.982348,NO2,10,22,14
India,Bihar,Gaya,"SFTI Kusdihra, Gaya - BSPCB",24-07-2024 15:00:00,24.762518,84.982348,SO2,8,11,9
India,Bihar,Gaya,"SFTI Kusdihra, Gaya - BSPCB",24-07-2024 15:00:00,24.762518,84.982348,CO,22,27,26
India,Bihar,Gaya,"SFTI Kusdihra, Gaya - BSPCB",24-07-2024 15:00:00,24.762518,84.982348,OZONE,2,67,38
India,Bihar,Hajipur,"Industrial Area, Hajipur - BSPCB",24-07-2024 15:00:00,25.697189,85.245900,PM2.5,16,55,35
India,Bihar,Katihar,"Mirchaibari, Katihar - BSPCB",24-07-2024 15:00:00,25.560083,87.553265,OZONE,4,4,4
India,Bihar,Kishanganj,"SDM Office_Khagra, Kishanganj - BSPCB",24-07-2024 15:00:00,26.0881305,87.93840336,PM10,NA,NA,NA
India,Bihar,Kishanganj,"SDM Office_Khagra, Kishanganj - BSPCB",24-07-2024 15:00:00,26.0881305,87.93840336,NO2,66,70,69
India,Bihar,Kishanganj,"SDM Office_Khagra, Kishanganj - BSPCB",24-07-2024 15:00:00,26.0881305,87.93840336,SO2,4,26,13
India,Bihar,Manguraha,"Forest Rest House, Manguraha - BSPCB",24-07-2024 15:00:00,27.308328,84.531742,SO2,NA,NA,NA
India,Bihar,Motihari,"Gandak Colony, Motihari - BSPCB",24-07-2024 15:00:00,26.63086,84.90051,NO2,4,13,8
India,Bihar,Motihari,"Gandak Colony, Motihari - BSPCB",24-07-2024 15:00:00,26.63086,84.90051,SO2,5,112,31
India,Bihar,Munger,"Town Hall, Munger - BSPCB",24-07-2024 15:00:00,25.376776,86.471523,CO,77,86,82
India,Bihar,Munger,"Town Hall, Munger - BSPCB",24-07-2024 15:00:00,25.376776,86.471523,OZONE,2,6,3
India,Bihar,Muzaffarpur,"Buddha Colony, Muzaffarpur - BSPCB",24-07-2024 15:00:00,26.11442,85.39813,PM2.5,19,43,33
India,Bihar,Muzaffarpur,"Buddha Colony, Muzaffarpur - BSPCB",24-07-2024 15:00:00,26.11442,85.39813,NO2,13,21,16
India,Bihar,Muzaffarpur,"Buddha Colony, Muzaffarpur - BSPCB",24-07-2024 15:00:00,26.11442,85.39813,OZONE,33,63,50
India,Bihar,Muzaffarpur,"MIT-Daudpur Kothi, Muzaffarpur - BSPCB",24-07-2024 15:00:00,26.1403345,85.3650192,PM2.5,NA,NA,NA
India,Bihar,Muzaffarpur,"MIT-Daudpur Kothi, Muzaffarpur - BSPCB",24-07-2024 15:00:00,26.1403345,85.3650192,CO,6,108,70
India,Bihar,Muzaffarpur,"MIT-Daudpur Kothi, Muzaffarpur - BSPCB",24-07-2024 15:00:00,26.1403345,85.3650192,OZONE,21,56,31
India,Bihar,Patna,"Govt. High School Shikarpur, Patna - BSPCB",24-07-2024 15:00:00,25.592539,85.227158,OZONE,48,52,50
India,Bihar,Patna,"Muradpur, Patna - BSPCB",24-07-2024 15:00:00,25.619651,85.147382,PM10,29,71,48
India,Bihar,Patna,"Rajbansi Nagar, Patna - BSPCB",24-07-2024 15:00:00,25.599486,85.113666,NH3,2,4,3
India,Bihar,Patna,"Samanpura, Patna - BSPCB",24-07-2024 15:00:00,25.596727,85.085624,OZONE,27,69,53
India,Bihar,Rajgir,"Dangi Tola, Rajgir - BSPCB",24-07-2024 15:00:00,25.03280,85.41948,NO2,2,4,3
India,Bihar,Rajgir,"Dangi Tola, Rajgir - BSPCB",24-07-2024 15:00:00,25.03280,85.41948,NH3,1,2,1
India,Bihar,Samastipur,"DM Office_Kasipur, Samastipur - BSPCB",24-07-2024 15:00:00,25.859655,85.77944,OZONE,1,34,14
India,Bihar,Siwan,"Chitragupta Nagar, Siwan - BSPCB",24-07-2024 15:00:00,26.2271665,84.3570427,NO2,17,63,29
India,Bihar,Siwan,"Chitragupta Nagar, Siwan - BSPCB",24-07-2024 15:00:00,26.2271665,84.3570427,NH3,2,9,4
India,Chandigarh,Chandigarh,"Sector-53, Chandigarh - CPCC",24-07-2024 15:00:00,30.719859,76.738637,SO2,8,26,15
India,Chandigarh,Chandigarh,"Sector-53, Chandigarh - CPCC",24-07-2024 15:00:00,30.719859,76.738637,CO,29,102,38
India,Chhattisgarh,Bilaspur,"Mangala, Bilaspur - NTPC",24-07-2024 15:00:00,22.08815,82.13737,SO2,7,14,10
India,Chhattisgarh,Chhal,"Nawapara SECL Colony, Chhal - CECB",24-07-2024 15:00:00,22.118125,83.140608,PM2.5,NA,NA,NA
India,Chhattisgarh,Chhal,"Nawapara SECL Colony, Chhal - CECB",24-07-2024 15:00:00,22.118125,83.140608,NH3,2,2,2
India,Chhattisgarh,Chhal,"Nawapara SECL Colony, Chhal - CECB",24-07-2024 15:00:00,22.118125,83.140608,CO,32,74,39
India,Chhattisgarh,Korba,"Rampur, Korba - CECB",24-07-2024 15:00:00,22.368195,82.746431,PM2.5,NA,NA,NA
India,Chhattisgarh,Korba,"Rampur, Korba - CECB",24-07-2024 15:00:00,22.368195,82.746431,PM10,NA,NA,NA
India,Chhattisgarh,Korba,"Rampur, Korba - CECB",24-07-2024 15:00:00,22.368195,82.746431,NH3,1,1,1
India,Chhattisgarh,Korba,"Rampur, Korba - CECB",24-07-2024 15:00:00,22.368195,82.746431,OZONE,4,5,4
India,Chhattisgarh,Korba,"Urja Nagar, Korba - CECB",24-07-2024 15:00:00,22.348441,82.549611,CO,9,26,23
India,Chhattisgarh,Raipur,"Bhatagaon New ISBT, Raipur - CECB",24-07-2024 15:00:00,21.219665,81.630094,NH3,2,2,2
India,Chhattisgarh,Raipur,"Bhatagaon New ISBT, Raipur - CECB",24-07-2024 15:00:00,21.219665,81.630094,CO,8,18,14
India,Chhattisgarh,Raipur,"Krishak Nagar, Raipur - CECB",24-07-2024 15:00:00,21.237755,81.705301,SO2,7,15,11
India,Chhattisgarh,Raipur,"Krishak Nagar, Raipur - CECB",24-07-2024 15:00:00,21.237755,81.705301,OZONE,3,4,4
India,Delhi,Delhi,"Alipur, Delhi - DPCC",24-07-2024 15:00:00,28.815329,77.153010,NO2,20,53,29
India,Delhi,Delhi,"Alipur, Delhi - DPCC",24-07-2024 15:00:00,28.815329,77.153010,CO,8,22,12
India,Delhi,Delhi,"Ashok Vihar, Delhi - DPCC",24-07-2024 15:00:00,28.695381,77.181665,PM10,18,123,74
India,Delhi,Delhi,"Burari Crossing, Delhi - IMD",24-07-2024 15:00:00,28.7256504,77.2011573,PM2.5,9,265,87
India,Delhi,Delhi,"Burari Crossing, Delhi - IMD",24-07-2024 15:00:00,28.7256504,77.2011573,NO2,8,16,15
India,Delhi,Delhi,"Burari Crossing, Delhi - IMD",24-07-2024 15:00:00,28.7256504,77.2011573,CO,19,40,28
India,Delhi,Delhi,"Chandni Chowk, Delhi - IITM",24-07-2024 15:00:00,28.656756,77.227234,CO,20,57,32
India,Delhi,Delhi,"DTU, Delhi - CPCB",24-07-2024 15:00:00,28.7500499,77.1112615,PM10,20,126,71
India,Delhi,Delhi,"DTU, Delhi - CPCB",24-07-2024 15:00:00,28.7500499,77.1112615,OZONE,1,106,16
India,Delhi,Delhi,"Dr. Karni Singh Shooting Range, Delhi - DPCC",24-07-2024 15:00:00,28.498571,77.264840,NO2,21,34,26
India,Delhi,Delhi,"Dr. Karni Singh Shooting Range, Delhi - DPCC",24-07-2024 15:00:00,28.498571,77.264840,NH3,6,16,10
India,Delhi,Delhi,"Dr. Karni Singh Shooting Range, Delhi - DPCC",24-07-2024 15:00:00,28.498571,77.264840,OZONE,2,82,27
India,Delhi,Delhi,"Dwarka-Sector 8, Delhi - DPCC ",24-07-2024 15:00:00,28.5710274,77.0719006,PM2.5,20,147,80
India,Delhi,Delhi,"IHBAS, Dilshad Garden, Delhi - CPCB",24-07-2024 15:00:00,28.6811736,77.3025234,PM2.5,45,107,57
India,Delhi,Delhi,"IHBAS, Dilshad Garden, Delhi - CPCB",24-07-2024 15:00:00,28.6811736,77.3025234,PM10,42,104,65
India,Delhi,Delhi,"IHBAS, Dilshad Garden, Delhi - CPCB",24-07-2024 15:00:00,28.6811736,77.3025234,CO,22,91,72
India,Delhi,Delhi,"ITO, Delhi - CPCB",24-07-2024 15:00:00,28.628624,77.241060,CO,27,108,50
India,Delhi,Delhi,"ITO, Delhi - CPCB",24-07-2024 15:00:00,28.628624,77.241060,OZONE,6,49,26
India,Delhi,Delhi,"Jawaharlal Nehru Stadium, Delhi - DPCC",24-07-2024 15:00:00,28.580280,77.233829,NH3,8,20,10
India,Delhi,Delhi,"Mandir Marg, Delhi - DPCC",24-07-2024 15:00:00,28.636429,77.201067,PM2.5,10,113,61
India,Delhi,Delhi,"NSIT Dwarka, Delhi - CPCB",24-07-2024 15:00:00,28.60909,77.0325413,NO2,26,35,30
India,Delhi,Delhi,"NSIT Dwarka, Delhi - CPCB",24-07-2024 15:00:00,28.60909,77.0325413,CO,22,68,46
India,Delhi,Delhi,"Narela, Delhi - DPCC",24-07-2024 15:00:00,28.822836,77.101981,PM10,18,166,79
India,Delhi,Delhi,"Narela, Delhi - DPCC",24-07-2024 15:00:00,28.822836,77.101981,CO,42,60,49
India,Delhi,Delhi,"Okhla Phase-2, Delhi - DPCC",24-07-2024 15:00:00,28.530785,77.271255,PM10,9,170,94
India,Delhi,Delhi,"Patparganj, Delhi - DPCC",24-07-2024 15:00:00,28.623763,77.287209,NH3,6,12,8
India,Delhi,Delhi,"Punjabi Bagh, Delhi - DPCC",24-07-2024 15:00:00,28.674045,77.131023,PM2.5,30,197,99
India,Delhi,Delhi,"Punjabi Bagh, Delhi - DPCC",24-07-2024 15:00:00,28.674045,77.131023,CO,12,80,40
India,Delhi,Delhi,"Pusa, Delhi - DPCC",24-07-2024 15:00:00,28.639652,77.146275,PM2.5,15,113,69
India,Delhi,Delhi,"Pusa, Delhi - DPCC",24-07-2024 15:00:00,28.639652,77.146275,PM10,24,161,88
India,Delhi,Delhi,"Shadipur, Delhi - CPCB",24-07-2024 15:00:00,28.6514781,77.1473105,OZONE,4,15,7
India,Delhi,Delhi,"Sirifort, Delhi - CPCB",24-07-2024 15:00:00,28.5504249,77.2159377,PM10,14,169,87
India,Delhi,Delhi,"Sirifort, Delhi - CPCB",24-07-2024 15:00:00,28.5504249,77.2159377,OZONE,17,61,29
India,Delhi,Delhi,"Sonia Vihar, Delhi - DPCC",24-07-2024 15:00:00,28.710508,77.249485,PM10,33,193,103
India,Delhi,Delhi,"Sonia Vihar, Delhi - DPCC",24-07-2024 15:00:00,28.710508,77.249485,NH3,10,14,12
India,Delhi,Delhi,"Sonia Vihar, Delhi - DPCC",24-07-2024 15:00:00,28.710508,77.249485,CO,28,100,46
India,Delhi,Delhi,"Sri Aurobindo Marg, Delhi - DPCC",24-07-2024 15:00:00,28.531346,77.190156,OZONE,28,43,29
India,Delhi,Delhi,"Wazirpur, Delhi - DPCC",24-07-2024 15:00:00,28.699793,77.165453,PM10,21,142,83
India,Delhi,Delhi,"Wazirpur, Delhi - DPCC",24-07-2024 15:00:00,28.699793,77.165453,NO2,28,104,63
India,Delhi,Delhi,"Wazirpur, Delhi - DPCC",24-07-2024 15:00:00,28.699793,77.165453,NH3,16,34,25
India,Delhi,Delhi,"Wazirpur, Delhi - DPCC",24-07-2024 15:00:00,28.699793,77.165453,OZONE,4,11,7
India,Gujarat,Ahmedabad,"Chandkheda, Ahmedabad - IITM",24-07-2024 15:00:00,23.107969,72.574648,OZONE,8,39,19
India,Gujarat,Ahmedabad,"Gyaspur, Ahmedabad - IITM",24-07-2024 15:00:00,22.977134,72.553024,PM10,40,53,44
India,Gujarat,Ahmedabad,"Raikhad, Ahmedabad - IITM",24-07-2024 15:00:00,23.020509,72.579261,PM2.5,12,66,27
India,Gujarat,Ahmedabad,"Raikhad, Ahmedabad - IITM",24-07-2024 15:00:00,23.020509,72.579261,NH3,7,9,8
India,Gujarat,Ahmedabad,"Rakhial, Ahmedabad - IITM",24-07-2024 15:00:00,23.016834,72.625775,NH3,4,11,7
India,Gujarat,Ahmedabad,"Rakhial, Ahmedabad - IITM",24-07-2024 15:00:00,23.016834,72.625775,CO,28,40,31
India,Gujarat,Ahmedabad,"Rakhial, Ahmedabad - IITM",24-07-2024 15:00:00,23.016834,72.625775,OZONE,6,37,19
India,Gujarat,Ahmedabad,"SVPI Airport Hansol, Ahmedabad - IITM",24-07-2024 15:00:00,23.076793,72.627874,CO,14,26,17
India,Gujarat,Ahmedabad,"Sardar Vallabhbhai Patel Stadium, Ahmedabad - IITM",24-07-2024 15:00:00,23.043070,72.562968,PM10,12,89,34
India,Gujarat,Ankleshwar,"GIDC, Ankleshwar - GPCB",24-07-2024 15:00:00,21.613267,73.010555,PM10,NA,NA,NA
India,Gujarat,Ankleshwar,"GIDC, Ankleshwar - GPCB",24-07-2024 15:00:00,21.613267,73.010555,NO2,NA,NA,NA
India,Gujarat,Gandhinagar,"GIFT City, Gandhinagar - IITM",24-07-2024 15:00:00,23.163798,72.677768,NH3,1,5,3
India,Gujarat,Gandhinagar,"GIFT City, Gandhinagar - IITM",24-07-2024 15:00:00,23.163798,72.677768,SO2,8,15,12
India,Gujarat,Gandhinagar,"GIFT City, Gandhinagar - IITM",24-07-2024 15:00:00,23.163798,72.677768,OZONE,11,38,19
India,Gujarat,Surat,"Science Center, Surat - SMC",24-07-2024 15:00:00,21.170046,72.795405,PM2.5,2,36,17
India,Gujarat,Vapi,"Phase-1 GIDC, Vapi - GPCB",24-07-2024 15:00:00,20.362421,72.918013,SO2,51,52,51
India,Gujarat,Vapi,"Phase-1 GIDC, Vapi - GPCB",24-07-2024 15:00:00,20.362421,72.918013,OZONE,4,4,4
India,Gujarat,Vatva,"Phase-4 GIDC, Vatva - GPCB",24-07-2024 15:00:00,22.969611,72.643500,PM2.5,14,55,32
India,Gujarat,Vatva,"Phase-4 GIDC, Vatva - GPCB",24-07-2024 15:00:00,22.969611,72.643500,NO2,1,7,3
India,Haryana,Ambala,"Patti Mehar, Ambala - HSPCB",24-07-2024 15:00:00,30.379589,76.778328,PM2.5,35,96,63
India,Haryana,Ambala,"Patti Mehar, Ambala - HSPCB",24-07-2024 15:00:00,30.379589,76.778328,PM10,34,143,66
India,Haryana,Ambala,"Patti Mehar, Ambala - HSPCB",24-07-2024 15:00:00,30.379589,76.778328,OZONE,29,49,37
India,Haryana,Ballabgarh,"Nathu Colony, Ballabgarh - HSPCB",24-07-2024 15:00:00,28.3419248,77.319699,PM10,35,110,79
India,Haryana,Ballabgarh,"Nathu Colony, Ballabgarh - HSPCB",24-07-2024 15:00:00,28.3419248,77.319699,NH3,1,2,1
India,Haryana,Bhiwani,"H.B. Colony, Bhiwani - HSPCB",24-07-2024 15:00:00,28.806223,76.141105,SO2,4,19,11
India,Haryana,Dharuhera,"Municipal Corporation Office, Dharuhera -  HSPCB",24-07-2024 15:00:00,28.206800,76.799700,NO2,15,50,38
India,Haryana,Dharuhera,"Municipal Corporation Office, Dharuhera -  HSPCB",24-07-2024 15:00:00,28.206800,76.799700,NH3,9,26,21
India,Haryana,Faridabad,"New Industrial Town, Faridabad - HSPCB",24-07-2024 15:00:00,28.39072,77.30059,PM10,32,133,88
India,Haryana,Faridabad,"Sector 11, Faridabad - HSPCB",24-07-2024 15:00:00,28.376058,77.315741,PM10,47,149,95
India,Haryana,Faridabad,"Sector 30, Faridabad - HSPCB",24-07-2024 15:00:00,28.4417,77.3217,SO2,2,3,3
India,Haryana,Faridabad,"Sector 30, Faridabad - HSPCB",24-07-2024 15:00:00,28.4417,77.3217,OZONE,8,13,8
India,Haryana,Faridabad,"Sector- 16A, Faridabad - HSPCB",24-07-2024 15:00:00,28.4088421,77.3099081,NO2,NA,NA,NA
India,Haryana,Faridabad,"Sector- 16A, Faridabad - HSPCB",24-07-2024 15:00:00,28.4088421,77.3099081,CO,12,71,68
India,Haryana,Fatehabad,"Huda Sector, Fatehabad - HSPCB",24-07-2024 15:00:00,29.503664,75.467934,PM2.5,NA,NA,NA
India,Haryana,Gurugram,"Sector-51, Gurugram - HSPCB",24-07-2024 15:00:00,28.4227,77.0667,NH3,7,14,9
India,Haryana,Gurugram,"Sector-51, Gurugram - HSPCB",24-07-2024 15:00:00,28.4227,77.0667,CO,28,49,39
India,Haryana,Gurugram,"Teri Gram, Gurugram - HSPCB",24-07-2024 15:00:00,28.4275,77.1465,SO2,4,5,4
India,Haryana,Gurugram,"Vikas Sadan, Gurugram - HSPCB",24-07-2024 15:00:00,28.4501238,77.0263051,PM2.5,7,78,45
India,Haryana,Gurugram,"Vikas Sadan, Gurugram - HSPCB",24-07-2024 15:00:00,28.4501238,77.0263051,OZONE,8,68,43
India,Haryana,Hisar,"Urban Estate-II, Hisar - HSPCB",24-07-2024 15:00:00,29.140560,75.744941,NO2,10,16,11
India,Haryana,Jind,"Police Lines, Jind - HSPCB",24-07-2024 15:00:00,29.307814,76.337619,PM10,NA,NA,NA
India,Haryana,Jind,"Police Lines, Jind - HSPCB",24-07-2024 15:00:00,29.307814,76.337619,CO,7,92,46
India,Haryana,Mandikhera,"General Hospital, Mandikhera - HSPCB",24-07-2024 15:00:00,27.9002,76.9938,SO2,30,39,34
India,Haryana,Narnaul,"Shastri Nagar, Narnaul - HSPCB",24-07-2024 15:00:00,28.060249,76.113115,NH3,5,10,8
India,Haryana,Palwal,"Shyam Nagar, Palwal - HSPCB",24-07-2024 15:00:00,28.1485564,77.3320667,NO2,23,24,24
India,Haryana,Palwal,"Shyam Nagar, Palwal - HSPCB",24-07-2024 15:00:00,28.1485564,77.3320667,SO2,8,23,16
India,Haryana,Panipat,"Sector-18, Panipat - HSPCB",24-07-2024 15:00:00,29.432304,76.972765,PM10,61,68,66
India,Haryana,Panipat,"Sector-18, Panipat - HSPCB",24-07-2024 15:00:00,29.432304,76.972765,SO2,18,19,19
India,Haryana,Rohtak,"MD University, Rohtak - HSPCB",24-07-2024 15:00:00,28.52123,76.37138,OZONE,45,55,49
India,Haryana,Sirsa,"F-Block, Sirsa - HSPCB",24-07-2024 15:00:00,29.536400,75.015800,OZONE,14,65,41
India,Haryana,Sonipat,"Murthal, Sonipat - HSPCB",24-07-2024 15:00:00,29.027200,77.062100,PM10,NA,NA,NA
India,Haryana,Sonipat,"Murthal, Sonipat - HSPCB",24-07-2024 15:00:00,29.027200,77.062100,CO,24,25,24
India,Haryana,Yamuna Nagar,"Gobind Pura, Yamuna Nagar - HSPCB",24-07-2024 15:00:00,30.1480566,77.2893471,SO2,1,9,4
India,Jharkhand,Jorapokhar,"Tata Stadium, Jorapokhar - JSPCB",24-07-2024 15:00:00,23.707909,86.414670,NO2,NA,NA,NA
India,Jharkhand,Jorapokhar,"Tata Stadium, Jorapokhar - JSPCB",24-07-2024 15:00:00,23.707909,86.414670,NH3,NA,NA,NA
India,Jharkhand,Pathardih,"Mohalbani Ghat, Pathardih - DMC",24-07-2024 15:00:00,23.669880,86.411725,SO2,NA,NA,NA
India,Jharkhand,Pathardih,"Mohalbani Ghat, Pathardih - DMC",24-07-2024 15:00:00,23.669880,86.411725,OZONE,23,131,55
India,Karnataka,Bagalkot,"Vidayagiri, Bagalkot - KSPCB",24-07-2024 15:00:00,16.172806,75.659694,OZONE,NA,NA,NA
India,Karnataka,Bengaluru,"Hebbal, Bengaluru - KSPCB",24-07-2024 15:00:00,13.029152,77.585901,PM2.5,9,28,21
India,Karnataka,Bengaluru,"Hebbal, Bengaluru - KSPCB",24-07-2024 15:00:00,13.029152,77.585901,PM10,15,43,27
India,Karnataka,Bengaluru,"Hebbal, Bengaluru - KSPCB",24-07-2024 15:00:00,13.029152,77.585901,SO2,10,16,13
India,Karnataka,Bengaluru,"Jigani, Bengaluru - KSPCB",24-07-2024 15:00:00,12.7816279,77.6299145,PM10,NA,NA,NA
India,Karnataka,Bengaluru,"Jigani, Bengaluru - KSPCB",24-07-2024 15:00:00,12.7816279,77.6299145,NO2,33,36,35
India,Karnataka,Bengaluru,"Jigani, Bengaluru - KSPCB",24-07-2024 15:00:00,12.7816279,77.6299145,OZONE,26,29,28
India,Karnataka,Bengaluru,"RVCE-Mailasandra, Bengaluru - KSPCB",24-07-2024 15:00:00,12.921418,77.502466,PM2.5,33,80,50
India,Karnataka,Bengaluru,"RVCE-Mailasandra, Bengaluru - KSPCB",24-07-2024 15:00:00,12.921418,77.502466,PM10,45,71,59
India,Karnataka,Bengaluru,"RVCE-Mailasandra, Bengaluru - KSPCB",24-07-2024 15:00:00,12.921418,77.502466,NO2,16,17,17
India,Karnataka,Bengaluru,"RVCE-Mailasandra, Bengaluru - KSPCB",24-07-2024 15:00:00,12.921418,77.502466,CO,34,48,42
India,Karnataka,Bidar,"Naubad, Bidar - KSPCB",24-07-2024 15:00:00,17.930306,77.482194,PM10,8,22,13
India,Karnataka,Chamarajanagar,"Urban, Chamarajanagar - KSPCB",24-07-2024 15:00:00,11.55358,76.55521,NH3,1,3,2
India,Karnataka,Chikkamagaluru,"Kalyana Nagara, Chikkamagaluru - KSPCB",24-07-2024 15:00:00,13.328028,75.797056,OZONE,15,42,26
India,Karnataka,Davanagere,"Devaraj Urs Badavane, Davanagere - KSPCB",24-07-2024 15:00:00,14.475800,75.905200,NO2,8,10,9
India,Karnataka,Dharwad,"Kalabhavan, Dharwad - KSPCB",24-07-2024 15:00:00,15.459706,75.008381,CO,12,54,31
India,Karnataka,Hassan,"B.Katihalli, Hassan - KSPCB",24-07-2024 15:00:00,13.008556,76.125258,PM10,6,79,36
India,Karnataka,Hassan,"B.Katihalli, Hassan - KSPCB",24-07-2024 15:00:00,13.008556,76.125258,NH3,1,4,2
India,Karnataka,Haveri,"Ashwini Nagar, Haveri - KSPCB",24-07-2024 15:00:00,14.791800,75.389600,SO2,11,22,18
India,Karnataka,Haveri,"Ashwini Nagar, Haveri - KSPCB",24-07-2024 15:00:00,14.791800,75.389600,CO,36,39,38
India,Karnataka,Hubballi,"Lingaraj Nagar, Hubballi - KSPCB",24-07-2024 15:00:00,15.3714823,75.1160168,NH3,2,4,3
India,Karnataka,Hubballi,"Lingaraj Nagar, Hubballi - KSPCB",24-07-2024 15:00:00,15.3714823,75.1160168,OZONE,13,19,18
India,Karnataka,Kalaburagi,"Lal Bahadur Shastri Nagar, Kalaburagi - KSPCB",24-07-2024 15:00:00,17.321993,76.822628,PM2.5,23,70,35
India,Karnataka,Kalaburagi,"Lal Bahadur Shastri Nagar, Kalaburagi - KSPCB",24-07-2024 15:00:00,17.321993,76.822628,PM10,22,79,38
India,Karnataka,Kalaburagi,"Lal Bahadur Shastri Nagar, Kalaburagi - KSPCB",24-07-2024 15:00:00,17.321993,76.822628,NH3,2,3,3
India,Karnataka,Karwar,"KHB Colony, Karwar - KSPCB",24-07-2024 15:00:00,14.816666,74.141003,PM2.5,8,66,20
India,Karnataka,Kolar,"Tamaka Ind. Area, Kolar - KSPCB",24-07-2024 15:00:00,13.1276288,78.1570122,NO2,1,15,5
India,Karnataka,Kolar,"Tamaka Ind. Area, Kolar - KSPCB",24-07-2024 15:00:00,13.1276288,78.1570122,NH3,9,15,12
India,Karnataka,Kolar,"Tamaka Ind. Area, Kolar - KSPCB",24-07-2024 15:00:00,13.1276288,78.1570122,CO,6,13,9
India,Karnataka,Koppal,"Diwator Nagar, Koppal - KSPCB",24-07-2024 15:00:00,15.347630,76.181767,PM10,4,11,6
India,Karnataka,Koppal,"Diwator Nagar, Koppal - KSPCB",24-07-2024 15:00:00,15.347630,76.181767,SO2,30,31,30
India,Karnataka,Koppal,"Diwator Nagar, Koppal - KSPCB",24-07-2024 15:00:00,15.347630,76.181767,CO,4,4,4
India,Karnataka,Madikeri,"Stuart Hill, Madikeri - KSPCB",24-07-2024 15:00:00,12.415911,75.735050,NO2,1,5,2
India,Karnataka,Mangalore,"Kadri, Mangalore - KSPCB",24-07-2024 15:00:00,12.889250,74.853000,NO2,6,7,6
India,Karnataka,Mangalore,"Kadri, Mangalore - KSPCB",24-07-2024 15:00:00,12.889250,74.853000,NH3,2,2,2
India,Karnataka,Mangalore,"Kadri, Mangalore - KSPCB",24-07-2024 15:00:00,12.889250,74.853000,SO2,NA,NA,NA
India,Karnataka,Mysuru,"Hebbal 1st Stage, Mysuru - KSPCB",24-07-2024 15:00:00,12.21041,76.37376,OZONE,10,46,26
India,Karnataka,Raichur,"Haji Colony, Raichur - KSPCB",24-07-2024 15:00:00,16.208139,77.348417,NO2,3,16,8
India,Karnataka,Raichur,"Haji Colony, Raichur - KSPCB",24-07-2024 15:00:00,16.208139,77.348417,NH3,3,4,4
India,Karnataka,Ramanagara,"Vijay Nagar, Ramanagara - KSPCB",24-07-2024 15:00:00,12.733409,77.298051,PM2.5,7,19,12
India,Karnataka,Ramanagara,"Vijay Nagar, Ramanagara - KSPCB",24-07-2024 15:00:00,12.733409,77.298051,NO2,6,18,8
India,Karnataka,Ramanagara,"Vijay Nagar, Ramanagara - KSPCB",24-07-2024 15:00:00,12.733409,77.298051,SO2,14,26,20
India,Karnataka,Ramanagara,"Vijay Nagar, Ramanagara - KSPCB",24-07-2024 15:00:00,12.733409,77.298051,OZONE,27,30,29
India,Karnataka,Shivamogga,"Vinoba Nagara, Shivamogga - KSPCB",24-07-2024 15:00:00,13.940000,75.555917,PM2.5,16,39,26
India,Karnataka,Shivamogga,"Vinoba Nagara, Shivamogga - KSPCB",24-07-2024 15:00:00,13.940000,75.555917,PM10,27,61,42
India,Karnataka,Tumakuru,"Thimmalapura, Tumakuru - KSPCB",24-07-2024 15:00:00,13.377516,77.099072,PM10,44,110,65
India,Karnataka,Udupi,"Brahmagiri, Udupi - KSPCB",24-07-2024 15:00:00,13.34194444,74.74694444,PM10,3,57,18
India,Karnataka,Vijayapura,"Ibrahimpur, Vijayapura - KSPCB",24-07-2024 15:00:00,16.802639,75.722694,PM10,39,40,40
India,Karnataka,Vijayapura,"Ibrahimpur, Vijayapura - KSPCB",24-07-2024 15:00:00,16.802639,75.722694,NO2,17,19,19
India,Karnataka,Vijayapura,"Ibrahimpur, Vijayapura - KSPCB",24-07-2024 15:00:00,16.802639,75.722694,OZONE,14,16,15
India,Karnataka,Yadgir,"Collector Office, Yadgir - KSPCB",24-07-2024 15:00:00,16.7602,77.1428,CO,8,23,14
India,Kerala,Eloor,"Udyogamandal, Eloor - Kerala PCB",24-07-2024 15:00:00,10.073232,76.302765,OZONE,10,11,10
India,Kerala,Kannur,"Thavakkara, Kannur - Kerala PCB",24-07-2024 15:00:00,11.875000,75.373200,OZONE,29,32,30
India,Kerala,Kollam,"Polayathode, Kollam - Kerala PCB",24-07-2024 15:00:00,8.8787,76.6073,SO2,NA,NA,NA
India,Kerala,Thiruvananthapuram,"Kariavattom, Thiruvananthapuram - Kerala PCB",24-07-2024 15:00:00,8.563700,76.886500,NO2,5,6,6
India,Kerala,Thiruvananthapuram,"Kariavattom, Thiruvananthapuram - Kerala PCB",24-07-2024 15:00:00,8.563700,76.886500,SO2,2,11,6
India,Kerala,Thiruvananthapuram,"Plammoodu, Thiruvananthapuram - Kerala PCB",24-07-2024 15:00:00,8.5149093,76.9435879,NO2,4,33,19
India,Madhya Pradesh,Bhopal,"Idgah Hills, Bhopal - MPPCB",24-07-2024 15:00:00,23.264759,77.381568,NO2,6,25,13
India,Madhya Pradesh,Bhopal,"Idgah Hills, Bhopal - MPPCB",24-07-2024 15:00:00,23.264759,77.381568,CO,2,46,23
India,Madhya Pradesh,Bhopal,"T T Nagar, Bhopal - MPPCB",24-07-2024 15:00:00,23.233584,77.400574,SO2,4,26,13
India,Madhya Pradesh,Dewas,"Bhopal Chauraha, Dewas - MPPCB",24-07-2024 15:00:00,22.9682591,76.064118,PM10,18,50,30
India,Madhya Pradesh,Dewas,"Bhopal Chauraha, Dewas - MPPCB",24-07-2024 15:00:00,22.9682591,76.064118,OZONE,28,40,32
India,Madhya Pradesh,Gwalior,"City Center, Gwalior - MPPCB",24-07-2024 15:00:00,26.203442,78.193251,OZONE,41,139,98
India,Madhya Pradesh,Gwalior,"Deen Dayal Nagar, Gwalior - MPPCB",24-07-2024 15:00:00,26.259242,78.216432,CO,35,40,37
India,Madhya Pradesh,Gwalior,"Maharaj Bada, Gwalior - MPPCB",24-07-2024 15:00:00,26.200388,78.147714,NH3,NA,NA,NA
India,Madhya Pradesh,Gwalior,"Maharaj Bada, Gwalior - MPPCB",24-07-2024 15:00:00,26.200388,78.147714,SO2,NA,NA,NA
India,Madhya Pradesh,Indore,"Maguda Nagar, Indore - IMC",24-07-2024 15:00:00,22.7524,75.8872,PM10,NA,NA,NA
India,Madhya Pradesh,Indore,"Regional Park, Indore - IMC",24-07-2024 15:00:00,22.6780,75.8559,OZONE,6,8,7
India,Madhya Pradesh,Indore,"Residency Area, Indore - IMC",24-07-2024 15:00:00,22.7084,75.8815,OZONE,9,10,10
India,Madhya Pradesh,Jabalpur,"Gupteshwar, Jabalpur - JMC",24-07-2024 15:00:00,23.142888,79.916147,PM2.5,13,47,24
India,Madhya Pradesh,Jabalpur,"Gupteshwar, Jabalpur - JMC",24-07-2024 15:00:00,23.142888,79.916147,OZONE,15,21,17
India,Madhya Pradesh,Jabalpur,"Marhatal, Jabalpur - MPPCB",24-07-2024 15:00:00,23.168606,79.932247,PM2.5,7,37,19
India,Madhya Pradesh,Jabalpur,"Suhagi, Jabalpur - JMC",24-07-2024 15:00:00,23.218135,79.957770,CO,36,54,44
India,Madhya Pradesh,Jabalpur,"Suhagi, Jabalpur - JMC",24-07-2024 15:00:00,23.218135,79.957770,OZONE,5,10,8
India,Madhya Pradesh,Katni,"Gole Bazar, Katni - MPPCB",24-07-2024 15:00:00,23.50016,80.23284,PM10,13,62,24
India,Madhya Pradesh,Maihar,"Sahilara, Maihar - KJS Cements",24-07-2024 15:00:00,24.2613009,80.7231783,PM2.5,1,46,13
India,Madhya Pradesh,Maihar,"Sahilara, Maihar - KJS Cements",24-07-2024 15:00:00,24.2613009,80.7231783,NO2,7,8,7
India,Madhya Pradesh,Mandideep,"Sector-D Industrial Area, Mandideep - MPPCB",24-07-2024 15:00:00,23.108440,77.511428,NH3,6,6,6
India,Madhya Pradesh,Mandideep,"Sector-D Industrial Area, Mandideep - MPPCB",24-07-2024 15:00:00,23.108440,77.511428,OZONE,22,31,25
India,Madhya Pradesh,Pithampur,"Sector-2 Industrial Area, Pithampur - MPPCB",24-07-2024 15:00:00,22.624758,75.675238,NO2,3,18,9
India,Madhya Pradesh,Pithampur,"Sector-2 Industrial Area, Pithampur - MPPCB",24-07-2024 15:00:00,22.624758,75.675238,OZONE,28,43,35
India,Madhya Pradesh,Ratlam,"Shasthri Nagar, Ratlam - IPCA Lab",24-07-2024 15:00:00,23.331731,75.045981,PM10,5,34,22
India,Madhya Pradesh,Sagar,"Civil Lines, Sagar - MPPCB",24-07-2024 15:00:00,23.838586,78.759431,PM2.5,6,47,18
India,Madhya Pradesh,Sagar,"Civil Lines, Sagar - MPPCB",24-07-2024 15:00:00,23.838586,78.759431,NH3,3,5,4
India,Madhya Pradesh,Sagar,"Civil Lines, Sagar - MPPCB",24-07-2024 15:00:00,23.838586,78.759431,OZONE,2,71,27
India,Madhya Pradesh,Sagar,"Deen Dayal Nagar, Sagar - MPPCB",24-07-2024 15:00:00,23.8640158,78.80289321,PM10,15,41,25
India,Madhya Pradesh,Satna,"Bandhavgar Colony, Satna - Birla Cement",24-07-2024 15:00:00,24.58434363,80.8549414,CO,16,103,32
India,Madhya Pradesh,Ujjain,"Mahakaleshwar Temple, Ujjain - MPPCB",24-07-2024 15:00:00,23.182719 ,75.768218 ,NH3,4,4,4
India,Madhya Pradesh,Ujjain,"Mahakaleshwar Temple, Ujjain - MPPCB",24-07-2024 15:00:00,23.182719 ,75.768218 ,SO2,3,6,5
India,Maharashtra,Ahmednagar,"Tarakpur, Ahmednagar - MPCB",24-07-2024 15:00:00,19.10122,74.73339,PM10,13,50,28
India,Maharashtra,Ahmednagar,"Tarakpur, Ahmednagar - MPCB",24-07-2024 15:00:00,19.10122,74.73339,CO,18,88,48
India,Maharashtra,Akola,"Ramdaspeth, Akola - MPCB",24-07-2024 15:00:00,20.719516,77.000253,OZONE,5,14,8
India,Maharashtra,Amravati,"Shivneri Colony, Amravati - MPCB",24-07-2024 15:00:00,20.9402359,77.7895248,OZONE,7,16,8
India,Maharashtra,Aurangabad,"MIDC Chilkalthana, Aurangabad - MPCB",24-07-2024 15:00:00,19.875620,75.387310,SO2,1,2,1
India,Maharashtra,Aurangabad,"More Chowk Waluj, Aurangabad - MPCB",24-07-2024 15:00:00,19.8389439,75.244448,PM10,23,51,32
India,Maharashtra,Aurangabad,"More Chowk Waluj, Aurangabad - MPCB",24-07-2024 15:00:00,19.8389439,75.244448,NO2,15,22,17
India,Maharashtra,Aurangabad,"More Chowk Waluj, Aurangabad - MPCB",24-07-2024 15:00:00,19.8389439,75.244448,NH3,2,3,2
India,Maharashtra,Badlapur,"Katrap, Badlapur - MPCB",24-07-2024 15:00:00,19.16485,73.23409,SO2,5,11,8
India,Maharashtra,Badlapur,"Katrap, Badlapur - MPCB",24-07-2024 15:00:00,19.16485,73.23409,CO,10,18,13
India,Maharashtra,Bhiwandi,"Gokul Nagar, Bhiwandi - MPCB",24-07-2024 15:00:00,19.309073,73.057223,NO2,5,18,9
India,Maharashtra,Boisar,"Khaira, Boisar - MPCB",24-07-2024 15:00:00,19.786089,72.757971,PM2.5,31,57,42
India,Maharashtra,Boisar,"Khaira, Boisar - MPCB",24-07-2024 15:00:00,19.786089,72.757971,NO2,13,31,21
India,Maharashtra,Boisar,"Khaira, Boisar - MPCB",24-07-2024 15:00:00,19.786089,72.757971,SO2,1,2,1
India,Maharashtra,Chandrapur,"MIDC Khutala, Chandrapur - MPCB",24-07-2024 15:00:00,19.9775302,79.2337086,PM10,NA,NA,NA
India,Maharashtra,Chandrapur,"MIDC Khutala, Chandrapur - MPCB",24-07-2024 15:00:00,19.9775302,79.2337086,OZONE,2,10,4
India,Maharashtra,Kalyan,"Khadakpada, Kalyan - MPCB",24-07-2024 15:00:00,19.25292,73.142019,SO2,8,14,12
India,Maharashtra,Kalyan,"Khadakpada, Kalyan - MPCB",24-07-2024 15:00:00,19.25292,73.142019,OZONE,7,10,9
India,Maharashtra,Kolhapur,"Shivaji University, Kolhapur - MPCB",24-07-2024 15:00:00,16.6870449,74.2505872,PM10,21,42,33
India,Maharashtra,Kolhapur,"Shivaji University, Kolhapur - MPCB",24-07-2024 15:00:00,16.6870449,74.2505872,NO2,8,18,12
India,Maharashtra,Kolhapur,"Shivaji University, Kolhapur - MPCB",24-07-2024 15:00:00,16.6870449,74.2505872,OZONE,16,27,23
India,Maharashtra,Latur,"Sawe Wadi, Latur - MPCB",24-07-2024 15:00:00,18.39963,76.57452,PM2.5,8,30,17
India,Maharashtra,Latur,"Sawe Wadi, Latur - MPCB",24-07-2024 15:00:00,18.39963,76.57452,OZONE,12,24,16
India,Maharashtra,Mira-Bhayandar,"Bhayandar West, Mira-Bhayandar - MPCB",24-07-2024 15:00:00,19.296481,72.840923,NO2,2,3,3
India,Maharashtra,Mira-Bhayandar,"Bhayandar West, Mira-Bhayandar - MPCB",24-07-2024 15:00:00,19.296481,72.840923,SO2,3,5,4
India,Maharashtra,Mira-Bhayandar,"Bhayandar West, Mira-Bhayandar - MPCB",24-07-2024 15:00:00,19.296481,72.840923,CO,10,12,12
India,Maharashtra,Mumbai,"Bandra Kurla Complex, Mumbai - MPCB",24-07-2024 15:00:00,19.065931,72.862131,OZONE,10,30,17
India,Maharashtra,Mumbai,"Byculla, Mumbai - BMC",24-07-2024 15:00:00,18.9767,72.8380,CO,6,18,13
India,Maharashtra,Mumbai,"Chembur, Mumbai - MPCB",24-07-2024 15:00:00,19.0364585,72.8954371,OZONE,13,30,22
India,Maharashtra,Mumbai,"Chhatrapati Shivaji Intl. Airport (T2), Mumbai - MPCB",24-07-2024 15:00:00,19.10078,72.87462,PM2.5,13,33,25
India,Maharashtra,Mumbai,"Chhatrapati Shivaji Intl. Airport (T2), Mumbai - MPCB",24-07-2024 15:00:00,19.10078,72.87462,SO2,14,19,15
India,Maharashtra,Mumbai,"Deonar, Mumbai - IITM",24-07-2024 15:00:00,19.04946,72.9230,PM2.5,5,38,18
India,Maharashtra,Mumbai,"Deonar, Mumbai - IITM",24-07-2024 15:00:00,19.04946,72.9230,NO2,8,12,10
India,Maharashtra,Mumbai,"Ghatkopar, Mumbai - BMC",24-07-2024 15:00:00,19.083694,72.920967,CO,11,24,18
India,Maharashtra,Mumbai,"Kandivali West, Mumbai - BMC",24-07-2024 15:00:00,19.215859,72.831718,CO,4,17,10
India,Maharashtra,Mumbai,"Kandivali West, Mumbai - BMC",24-07-2024 15:00:00,19.215859,72.831718,OZONE,4,16,13
India,Maharashtra,Mumbai,"Khindipada-Bhandup West, Mumbai - IITM",24-07-2024 15:00:00,19.1653323,72.922099,CO,9,15,13
India,Maharashtra,Mumbai,"Khindipada-Bhandup West, Mumbai - IITM",24-07-2024 15:00:00,19.1653323,72.922099,OZONE,8,13,11
India,Maharashtra,Mumbai,"Kurla, Mumbai - MPCB",24-07-2024 15:00:00,19.0863,72.8888,SO2,32,32,32
India,Maharashtra,Mumbai,"Malad West, Mumbai - IITM",24-07-2024 15:00:00,19.19709,72.82204,NH3,2,4,2
India,Maharashtra,Mumbai,"Malad West, Mumbai - IITM",24-07-2024 15:00:00,19.19709,72.82204,CO,2,2,2
India,Maharashtra,Mumbai,"Mazgaon, Mumbai - IITM",24-07-2024 15:00:00,18.96702,72.84214,PM10,NA,NA,NA
India,Maharashtra,Mumbai,"Mazgaon, Mumbai - IITM",24-07-2024 15:00:00,18.96702,72.84214,SO2,NA,NA,NA
India,Maharashtra,Mumbai,"Mindspace-Malad West, Mumbai - MPCB",24-07-2024 15:00:00,19.1878657,72.8304069,NO2,6,10,8
India,Maharashtra,Mumbai,"Mindspace-Malad West, Mumbai - MPCB",24-07-2024 15:00:00,19.1878657,72.8304069,SO2,1,4,2
India,Maharashtra,Mumbai,"Mindspace-Malad West, Mumbai - MPCB",24-07-2024 15:00:00,19.1878657,72.8304069,CO,18,26,23
India,Maharashtra,Mumbai,"Mindspace-Malad West, Mumbai - MPCB",24-07-2024 15:00:00,19.1878657,72.8304069,OZONE,13,26,22
India,Maharashtra,Mumbai,"Navy Nagar-Colaba, Mumbai - IITM",24-07-2024 15:00:00,18.897756,72.813320,SO2,1,11,4
India,Maharashtra,Mumbai,"Powai, Mumbai - MPCB",24-07-2024 15:00:00,19.137500,72.915056,SO2,NA,NA,NA
India,Maharashtra,Mumbai,"Powai, Mumbai - MPCB",24-07-2024 15:00:00,19.137500,72.915056,CO,16,19,19
India,Maharashtra,Mumbai,"Shivaji Nagar, Mumbai - BMC",24-07-2024 15:00:00,19.060498,72.923356,NO2,2,29,20
India,Maharashtra,Mumbai,"Sion, Mumbai - MPCB",24-07-2024 15:00:00,19.047000,72.874600,NH3,1,1,1
India,Maharashtra,Mumbai,"Vasai West, Mumbai - MPCB",24-07-2024 15:00:00,19.383200,72.820400,NO2,NA,NA,NA
India,Maharashtra,Mumbai,"Vasai West, Mumbai - MPCB",24-07-2024 15:00:00,19.383200,72.820400,NH3,NA,NA,NA
India,Maharashtra,Mumbai,"Vasai West, Mumbai - MPCB",24-07-2024 15:00:00,19.383200,72.820400,CO,10,14,14
India,Maharashtra,Mumbai,"Vile Parle West, Mumbai - MPCB",24-07-2024 15:00:00,19.10861,72.83622,NH3,11,11,11
India,Maharashtra,Mumbai,"Worli, Mumbai - MPCB",24-07-2024 15:00:00,18.9936162,72.8128113,CO,NA,NA,NA
India,Maharashtra,Nagpur,"Ambazari, Nagpur - MPCB",24-07-2024 15:00:00,21.121801,79.04952,PM10,29,54,42
India,Maharashtra,Nagpur,"Opp GPO Civil Lines, Nagpur - MPCB",24-07-2024 15:00:00,21.152875,79.0517531,PM10,7,62,24
India,Maharashtra,Nagpur,"Opp GPO Civil Lines, Nagpur - MPCB",24-07-2024 15:00:00,21.152875,79.0517531,OZONE,2,4,3
India,Maharashtra,Nashik,"Gangapur Road, Nashik - MPCB",24-07-2024 15:00:00,20.0073285,73.7762427,PM2.5,10,21,16
India,Maharashtra,Nashik,"Gangapur Road, Nashik - MPCB",24-07-2024 15:00:00,20.0073285,73.7762427,SO2,3,15,10
India,Maharashtra,Nashik,"Gangapur Road, Nashik - MPCB",24-07-2024 15:00:00,20.0073285,73.7762427,OZONE,7,64,23
India,Maharashtra,Nashik,"Pandav Nagari, Nashik - MPCB",24-07-2024 15:00:00,19.9591346,73.7788008,PM2.5,17,54,26
India,Maharashtra,Nashik,"Pandav Nagari, Nashik - MPCB",24-07-2024 15:00:00,19.9591346,73.7788008,PM10,18,57,27
India,Maharashtra,Nashik,"Pandav Nagari, Nashik - MPCB",24-07-2024 15:00:00,19.9591346,73.7788008,NO2,14,39,25
India,Maharashtra,Nashik,"Pandav Nagari, Nashik - MPCB",24-07-2024 15:00:00,19.9591346,73.7788008,NH3,2,4,3
India,Maharashtra,Navi Mumbai,"Kopripada-Vashi, Navi Mumbai - MPCB",24-07-2024 15:00:00,19.090337,73.014232,SO2,13,15,14
India,Maharashtra,Navi Mumbai,"Mahape, Navi Mumbai - MPCB",24-07-2024 15:00:00,19.1135051,73.008978,NO2,33,36,34
India,Maharashtra,Navi Mumbai,"Mahape, Navi Mumbai - MPCB",24-07-2024 15:00:00,19.1135051,73.008978,OZONE,8,14,11
India,Maharashtra,Navi Mumbai,"Nerul, Navi Mumbai - MPCB",24-07-2024 15:00:00,19.008751,73.016620,NO2,14,18,16
India,Maharashtra,Navi Mumbai,"Nerul, Navi Mumbai - MPCB",24-07-2024 15:00:00,19.008751,73.016620,NH3,2,3,2
India,Maharashtra,Navi Mumbai,"Nerul, Navi Mumbai - MPCB",24-07-2024 15:00:00,19.008751,73.016620,SO2,6,6,6
India,Maharashtra,Navi Mumbai,"Sanpada, Navi Mumbai - MPCB",24-07-2024 15:00:00,19.0575752,73.0151367,PM10,26,60,40
India,Maharashtra,Navi Mumbai,"Sector-19A Nerul, Navi Mumbai - IITM",24-07-2024 15:00:00,19.044,73.0325,CO,50,66,58
India,Maharashtra,Navi Mumbai,"Sector-2E Kalamboli, Navi Mumbai - MPCB",24-07-2024 15:00:00,19.02579,73.10297,OZONE,4,14,11
India,Maharashtra,Pimpri-Chinchwad,"Gavalinagar, Pimpri Chinchwad - MPCB",24-07-2024 15:00:00,18.63673,73.82487,NO2,7,33,19
India,Maharashtra,Pimpri-Chinchwad,"Gavalinagar, Pimpri Chinchwad - MPCB",24-07-2024 15:00:00,18.63673,73.82487,SO2,1,3,2
India,Maharashtra,Pimpri-Chinchwad,"Gavalinagar, Pimpri Chinchwad - MPCB",24-07-2024 15:00:00,18.63673,73.82487,CO,4,34,16
India,Maharashtra,Pimpri-Chinchwad,"Park Street Wakad, Pimpri Chinchwad - MPCB",24-07-2024 15:00:00,18.59051,73.77946,SO2,1,2,2
India,Maharashtra,Pune,"Bhumkar Nagar, Pune - IITM",24-07-2024 15:00:00,18.605770,73.749976,PM2.5,7,23,11
India,Maharashtra,Pune,"Bhumkar Nagar, Pune - IITM",24-07-2024 15:00:00,18.605770,73.749976,PM10,14,38,26
India,Maharashtra,Pune,"Bhumkar Nagar, Pune - IITM",24-07-2024 15:00:00,18.605770,73.749976,NO2,30,63,37
India,Maharashtra,Pune,"Katraj Dairy, Pune - MPCB",24-07-2024 15:00:00,18.454450,73.854155,PM10,28,28,28
India,Maharashtra,Pune,"Panchawati_Pashan, Pune - IITM",24-07-2024 15:00:00,18.536457,73.805454,PM10,10,42,20
India,Maharashtra,Pune,"Revenue Colony-Shivajinagar, Pune - IITM",24-07-2024 15:00:00,18.530085,73.849598,CO,22,52,39
India,Maharashtra,Pune,"Savitribai Phule Pune University, Pune - MPCB",24-07-2024 15:00:00,18.547056,73.826908,SO2,2,5,3
India,Maharashtra,Pune,"Savitribai Phule Pune University, Pune - MPCB",24-07-2024 15:00:00,18.547056,73.826908,OZONE,6,31,19
India,Maharashtra,Solapur,"Ratandeep Housing Society, Solapur - MPCB",24-07-2024 15:00:00,17.65439,75.90649,CO,10,44,35
India,Maharashtra,Solapur,"Solapur, Solapur - MPCB",24-07-2024 15:00:00,17.6599188,75.9063906,PM2.5,26,54,48
India,Maharashtra,Solapur,"Solapur, Solapur - MPCB",24-07-2024 15:00:00,17.6599188,75.9063906,NO2,54,54,54
India,Maharashtra,Thane,"Kasarvadavali, Thane - MPCB",24-07-2024 15:00:00,19.26777,72.97182,PM2.5,17,36,24
India,Maharashtra,Thane,"Kasarvadavali, Thane - MPCB",24-07-2024 15:00:00,19.26777,72.97182,OZONE,5,14,9
India,Maharashtra,Thane,"Pimpleshwar Mandir, Thane - MPCB",24-07-2024 15:00:00,19.192056,72.9585188,NH3,4,4,4
India,Maharashtra,Thane,"Pimpleshwar Mandir, Thane - MPCB",24-07-2024 15:00:00,19.192056,72.9585188,SO2,1,10,3
India,Maharashtra,Thane,"Upvan Fort, Thane - MPCB",24-07-2024 15:00:00,19.222279,72.957979,NH3,2,4,3
India,Maharashtra,Ulhasnagar,"Sidhi Vinayak Nagar, Ulhasnagar - MPCB",24-07-2024 15:00:00,19.235581,73.159121,PM2.5,17,39,29
India,Maharashtra,Ulhasnagar,"Sidhi Vinayak Nagar, Ulhasnagar - MPCB",24-07-2024 15:00:00,19.235581,73.159121,NH3,3,4,4
India,Maharashtra,Ulhasnagar,"Sidhi Vinayak Nagar, Ulhasnagar - MPCB",24-07-2024 15:00:00,19.235581,73.159121,OZONE,10,16,14
India,Maharashtra,Virar,"Bolinj, Virar - MPCB",24-07-2024 15:00:00,19.4458210,72.7988231,SO2,1,3,2
India,Maharashtra,Virar,"Bolinj, Virar - MPCB",24-07-2024 15:00:00,19.4458210,72.7988231,CO,8,66,40
India,Manipur,Imphal,"DM College of Science, Imphal - Manipur PCB",24-07-2024 15:00:00,24.8207389,93.9423085,NO2,7,7,7
India,Meghalaya,Shillong,"Lumpyngngad, Shillong - Meghalaya PCB",24-07-2024 15:00:00,25.5586,91.8985,SO2,NA,NA,NA
India,Mizoram,Aizawl,"Sikulpuikawn, Aizawl - Mizoram PCB",24-07-2024 15:00:00,23.7176342,92.7192841,PM10,2,29,14
India,Mizoram,Aizawl,"Sikulpuikawn, Aizawl - Mizoram PCB",24-07-2024 15:00:00,23.7176342,92.7192841,NO2,1,2,1
India,Mizoram,Aizawl,"Sikulpuikawn, Aizawl - Mizoram PCB",24-07-2024 15:00:00,23.7176342,92.7192841,NH3,1,2,1
India,Odisha,Balasore,"Kalidaspur, Balasore - OSPCB",24-07-2024 15:00:00,21.51161,86.89088,PM2.5,10,63,35
India,Odisha,Balasore,"Kalidaspur, Balasore - OSPCB",24-07-2024 15:00:00,21.51161,86.89088,CO,1,145,110
India,Odisha,Balasore,"Kalidaspur, Balasore - OSPCB",24-07-2024 15:00:00,21.51161,86.89088,OZONE,7,55,29
India,Odisha,Barbil,"Forest Office, Barbil - OSPCB",24-07-2024 15:00:00,22.1166054,85.3945546,PM2.5,2,62,16
India,Odisha,Barbil,"Forest Office, Barbil - OSPCB",24-07-2024 15:00:00,22.1166054,85.3945546,CO,2,24,19
India,Odisha,Baripada,"Meher Colony, Baripada - OSPCB",24-07-2024 15:00:00,21.941841,86.728318,NO2,1,30,13
India,Odisha,Baripada,"Meher Colony, Baripada - OSPCB",24-07-2024 15:00:00,21.941841,86.728318,NH3,1,3,2
India,Odisha,Bhubaneswar,"Patia, Bhubaneswar - OSPCB",24-07-2024 15:00:00,20.34652,85.81630,PM10,19,48,34
India,Odisha,Bhubaneswar,"Patia, Bhubaneswar - OSPCB",24-07-2024 15:00:00,20.34652,85.81630,CO,16,28,19
India,Odisha,Bileipada,"Tata Township, Bileipada - OSPCB",24-07-2024 15:00:00,22.06156703,85.47409613,NH3,12,12,12
India,Odisha,Bileipada,"Tata Township, Bileipada - OSPCB",24-07-2024 15:00:00,22.06156703,85.47409613,OZONE,24,25,25
India,Odisha,Cuttack,"CDA Area, Cuttack - OSPCB",24-07-2024 15:00:00,20.48891     ,85.84768     ,SO2,1,4,2
India,Odisha,Keonjhar,"Jagamohanpur, Keonjhar - OSPCB",24-07-2024 15:00:00,21.643900,85.599355,NO2,13,21,16
India,Odisha,Nayagarh,"Dabuna, Nayagarh - OSPCB",24-07-2024 15:00:00,21.847279,85.416905,PM2.5,12,23,15
India,Odisha,Nayagarh,"Dabuna, Nayagarh - OSPCB",24-07-2024 15:00:00,21.847279,85.416905,CO,6,13,7
India,Odisha,Rairangpur,"Divisional Forest Office, Rairangpur - OSPCB",24-07-2024 15:00:00,22.265816,86.174829,PM10,24,72,34
India,Odisha,Rairangpur,"Divisional Forest Office, Rairangpur - OSPCB",24-07-2024 15:00:00,22.265816,86.174829,CO,25,46,43
India,Odisha,Suakati,"OMC Colony, Suakati - OSPCB",24-07-2024 15:00:00,21.606865,85.510538,PM10,NA,NA,NA
India,Odisha,Suakati,"OMC Colony, Suakati - OSPCB",24-07-2024 15:00:00,21.606865,85.510538,OZONE,14,21,20
India,Odisha,Tensa,"Barsua Iron Ore Mines, Tensa - OSPCB",24-07-2024 15:00:00,21.869985,85.167016,PM10,24,25,24
India,Punjab,Amritsar,"Golden Temple, Amritsar - PPCB",24-07-2024 15:00:00,31.620000,74.876512,PM10,45,104,72
India,Punjab,Amritsar,"Golden Temple, Amritsar - PPCB",24-07-2024 15:00:00,31.620000,74.876512,NH3,4,5,4
India,Punjab,Bathinda,"Hardev Nagar, Bathinda - PPCB",24-07-2024 15:00:00,30.233011,74.907758,CO,2,80,39
India,Punjab,Khanna,"Kalal Majra, Khanna - PPCB",24-07-2024 15:00:00,30.736056 ,76.209694,PM10,41,120,67
India,Punjab,Khanna,"Kalal Majra, Khanna - PPCB",24-07-2024 15:00:00,30.736056 ,76.209694,CO,25,40,36
India,Punjab,Khanna,"Kalal Majra, Khanna - PPCB",24-07-2024 15:00:00,30.736056 ,76.209694,OZONE,27,53,36
India,Punjab,Ludhiana,"Punjab Agricultural University, Ludhiana - PPCB",24-07-2024 15:00:00,30.9028,75.8086,PM2.5,40,171,75
India,Punjab,Ludhiana,"Punjab Agricultural University, Ludhiana - PPCB",24-07-2024 15:00:00,30.9028,75.8086,CO,8,102,52
India,Rajasthan,Ajmer,"Civil Lines,  Ajmer - RSPCB",24-07-2024 15:00:00,26.470859,74.646594,SO2,4,16,10
India,Rajasthan,Ajmer,"Civil Lines,  Ajmer - RSPCB",24-07-2024 15:00:00,26.470859,74.646594,CO,14,64,27
India,Rajasthan,Alwar,"Moti Doongri, Alwar - RSPCB",24-07-2024 15:00:00,27.554793,76.611536,PM2.5,18,52,34
India,Rajasthan,Banswara,"Rati Talai, Banswara - RSPCB",24-07-2024 15:00:00,23.555190,74.440010,SO2,28,40,38
India,Rajasthan,Baran,"Bamboliya, Baran - RSPCB",24-07-2024 15:00:00,25.106006,76.469948,NH3,3,5,4
India,Rajasthan,Baran,"Bamboliya, Baran - RSPCB",24-07-2024 15:00:00,25.106006,76.469948,OZONE,28,50,34
India,Rajasthan,Barmer,"Railway Colony, Barmer - RSPCB",24-07-2024 15:00:00,25.747299,71.393989,PM2.5,2,23,13
India,Rajasthan,Bharatpur,"Krishna Nagar, Bharatpur - RSPCB",24-07-2024 15:00:00,27.215415,77.50873,NO2,8,32,16
India,Rajasthan,Bhilwara,"Pratap Nagar, Bhilwara - RSPCB",24-07-2024 15:00:00,25.339605,74.618883,NH3,2,3,2
India,Rajasthan,Bhiwadi,"RIICO Ind. Area III, Bhiwadi - RSPCB",24-07-2024 15:00:00,28.194909,76.862296,SO2,7,22,12
India,Rajasthan,Bhiwadi,"RIICO Ind. Area III, Bhiwadi - RSPCB",24-07-2024 15:00:00,28.194909,76.862296,OZONE,10,48,34
India,Rajasthan,Dungarpur,"Bhoiwada, Dungarpur - RSPCB",24-07-2024 15:00:00,23.837789,73.714926,PM2.5,3,305,34
India,Rajasthan,Dungarpur,"Bhoiwada, Dungarpur - RSPCB",24-07-2024 15:00:00,23.837789,73.714926,NO2,4,7,5
India,Rajasthan,Dungarpur,"Bhoiwada, Dungarpur - RSPCB",24-07-2024 15:00:00,23.837789,73.714926,CO,62,108,83
India,Rajasthan,Dungarpur,"Bhoiwada, Dungarpur - RSPCB",24-07-2024 15:00:00,23.837789,73.714926,OZONE,12,44,20
India,Rajasthan,Hanumangarh,"Housing Board, Hanumangarh - RSPCB",24-07-2024 15:00:00,29.610750,74.283608,OZONE,22,64,45
India,Rajasthan,Jaipur,"Police Commissionerate, Jaipur - RSPCB",24-07-2024 15:00:00,26.9164092,75.7994901,PM10,1,83,62
India,Rajasthan,Jaipur,"Police Commissionerate, Jaipur - RSPCB",24-07-2024 15:00:00,26.9164092,75.7994901,NO2,10,42,25
India,Rajasthan,Jaipur,"RIICO Sitapura, Jaipur - RSPCB",24-07-2024 15:00:00,26.786682,75.827928,PM2.5,24,84,44
India,Rajasthan,Jaipur,"RIICO Sitapura, Jaipur - RSPCB",24-07-2024 15:00:00,26.786682,75.827928,PM10,30,102,54
India,Rajasthan,Jaipur,"RIICO Sitapura, Jaipur - RSPCB",24-07-2024 15:00:00,26.786682,75.827928,NH3,1,6,3
India,Rajasthan,Jaipur,"Sector-2 Murlipura, Jaipur - RSPCB",24-07-2024 15:00:00,26.960669,75.771817,SO2,2,6,4
India,Rajasthan,Jaipur,"Shastri Nagar, Jaipur - RSPCB",24-07-2024 15:00:00,26.9502929,75.730943,PM2.5,34,85,56
India,Rajasthan,Jaisalmer,"Sadar Bazar, Jaisalmer - RSPCB",24-07-2024 15:00:00,26.912329,70.909168,PM10,22,110,58
India,Rajasthan,Jaisalmer,"Sadar Bazar, Jaisalmer - RSPCB",24-07-2024 15:00:00,26.912329,70.909168,NH3,1,19,2
India,Rajasthan,Jaisalmer,"Sadar Bazar, Jaisalmer - RSPCB",24-07-2024 15:00:00,26.912329,70.909168,SO2,1,9,5
India,Rajasthan,Jaisalmer,"Sadar Bazar, Jaisalmer - RSPCB",24-07-2024 15:00:00,26.912329,70.909168,CO,16,30,20
India,Rajasthan,Jalore,"Mudtra Sili, Jalore - RSPCB",24-07-2024 15:00:00,25.344694,72.626208,PM10,19,91,55
India,Rajasthan,Jalore,"Mudtra Sili, Jalore - RSPCB",24-07-2024 15:00:00,25.344694,72.626208,NH3,3,8,4
India,Rajasthan,Jalore,"Mudtra Sili, Jalore - RSPCB",24-07-2024 15:00:00,25.344694,72.626208,SO2,7,15,8
India,Rajasthan,Jhalawar,"Rajlaxmi Nagar, Jhalawar - RSPCB",24-07-2024 15:00:00,24.588397,76.172782,PM2.5,16,51,35
India,Rajasthan,Jhalawar,"Rajlaxmi Nagar, Jhalawar - RSPCB",24-07-2024 15:00:00,24.588397,76.172782,OZONE,19,37,24
India,Rajasthan,Jhunjhunu,"Indra Nagar, Jhunjhunu - RSPCB",24-07-2024 15:00:00,28.108988,75.386577,PM10,14,413,81
India,Rajasthan,Jhunjhunu,"Indra Nagar, Jhunjhunu - RSPCB",24-07-2024 15:00:00,28.108988,75.386577,NH3,10,23,13
India,Rajasthan,Jhunjhunu,"Indra Nagar, Jhunjhunu - RSPCB",24-07-2024 15:00:00,28.108988,75.386577,SO2,4,7,5
India,Rajasthan,Jodhpur,"Jhalamand, Jodhpur - RSPCB",24-07-2024 15:00:00,26.215415,73.070156,PM10,40,129,68
India,Rajasthan,Jodhpur,"Mandor, Jodhpur - RSPCB",24-07-2024 15:00:00,26.358805,73.047444,NH3,5,7,6
India,Rajasthan,Kota,"Dhanmandi, Kota - RSPCB",24-07-2024 15:00:00,25.164090,75.858137,PM10,3,48,23
India,Rajasthan,Kota,"Shrinath Puram, Kota - RSPCB",24-07-2024 15:00:00,25.14389,75.821256,CO,NA,NA,NA
India,Rajasthan,Nagaur,"Karni Colony, Nagaur - RSPCB",24-07-2024 15:00:00,27.213494,73.734444,NO2,6,19,9
India,Rajasthan,Pali,"Indira Colony Vistar, Pali - RSPCB",24-07-2024 15:00:00,25.771061, 73.340227,SO2,5,11,9
India,Rajasthan,Pali,"Indira Colony Vistar, Pali - RSPCB",24-07-2024 15:00:00,25.771061, 73.340227,OZONE,10,63,25
India,Rajasthan,Pratapgarh,"Pragati Nagar, Pratapgarh - RSPCB",24-07-2024 15:00:00,24.041198,74.780702,CO,8,21,15
India,Rajasthan,Pratapgarh,"Pragati Nagar, Pratapgarh - RSPCB",24-07-2024 15:00:00,24.041198,74.780702,OZONE,23,42,31
India,Rajasthan,Rajsamand,"Dhoinda, Rajsamand - RSPCB",24-07-2024 15:00:00,25.036360,73.883502,PM10,35,60,45
India,Rajasthan,Rajsamand,"Dhoinda, Rajsamand - RSPCB",24-07-2024 15:00:00,25.036360,73.883502,CO,30,92,61
India,Rajasthan,Sawai Madhopur,"Sahu Nagar, Sawai Madhopur - RSPCB",24-07-2024 15:00:00,26.031443,76.359327,CO,36,78,43
India,Rajasthan,Sikar,"Radhakishan Pura, Sikar - RSPCB",24-07-2024 15:00:00,27.608912,75.153302,NH3,10,16,12
India,Rajasthan,Sikar,"Radhakishan Pura, Sikar - RSPCB",24-07-2024 15:00:00,27.608912,75.153302,OZONE,15,61,41
India,Rajasthan,Sirohi,"Vedhaynath Colony, Sirohi - RSPCB",24-07-2024 15:00:00,24.885261,72.857549,PM10,14,54,31
India,Rajasthan,Sri Ganganagar,"Old City, Sri Ganganagar - RSPCB",24-07-2024 15:00:00,29.931624,73.864511,PM2.5,23,190,66
India,Rajasthan,Sri Ganganagar,"Old City, Sri Ganganagar - RSPCB",24-07-2024 15:00:00,29.931624,73.864511,PM10,19,360,127
India,Rajasthan,Sri Ganganagar,"Old City, Sri Ganganagar - RSPCB",24-07-2024 15:00:00,29.931624,73.864511,NO2,31,83,57
India,Rajasthan,Sri Ganganagar,"Old City, Sri Ganganagar - RSPCB",24-07-2024 15:00:00,29.931624,73.864511,NH3,9,60,16
India,Rajasthan,Sri Ganganagar,"Old City, Sri Ganganagar - RSPCB",24-07-2024 15:00:00,29.931624,73.864511,SO2,NA,NA,NA
India,Rajasthan,Sri Ganganagar,"Old City, Sri Ganganagar - RSPCB",24-07-2024 15:00:00,29.931624,73.864511,CO,12,96,30
India,Rajasthan,Sri Ganganagar,"Old City, Sri Ganganagar - RSPCB",24-07-2024 15:00:00,29.931624,73.864511,OZONE,11,220,51
India,Rajasthan,Tonk,"Shastri Nagar, Tonk - RSPCB",24-07-2024 15:00:00,26.159933,75.780517,PM2.5,17,60,33
India,Rajasthan,Tonk,"Shastri Nagar, Tonk - RSPCB",24-07-2024 15:00:00,26.159933,75.780517,NO2,5,18,10
India,Rajasthan,Tonk,"Shastri Nagar, Tonk - RSPCB",24-07-2024 15:00:00,26.159933,75.780517,SO2,2,11,5
India,TamilNadu,Ariyalur,"Keelapalur, Ariyalur - TNPCB",24-07-2024 15:00:00,11.06825,79.07033,PM2.5,7,21,13
India,TamilNadu,Chennai,"Alandur Bus Depot, Chennai - CPCB",24-07-2024 15:00:00,12.9099161,80.1076538,PM10,23,435,91
India,TamilNadu,Chennai,"Alandur Bus Depot, Chennai - CPCB",24-07-2024 15:00:00,12.9099161,80.1076538,SO2,1,8,3
India,TamilNadu,Chennai,"Kodungaiyur, Chennai - TNPCB",24-07-2024 15:00:00,13.1278,80.2642,NO2,NA,NA,NA
India,TamilNadu,Chennai,"Manali, Chennai - CPCB",24-07-2024 15:00:00,13.164544,80.26285,NO2,7,8,7
India,TamilNadu,Chennai,"Velachery Res. Area, Chennai - CPCB",24-07-2024 15:00:00,13.0052189,80.2398125,CO,55,58,56
India,TamilNadu,Palkalaiperur,"Bharathidasan University, Palkalaiperur - TNPCB",24-07-2024 15:00:00,10.681158,78.741746,OZONE,1,1,1
India,TamilNadu,Ramanathapuram,"Chalai Bazaar, Ramanathapuram - TNPCB",24-07-2024 15:00:00,9.36399,78.831977,OZONE,13,14,14
India,TamilNadu,Vellore,"Vasanthapuram, Vellore - TNPCB",24-07-2024 15:00:00,12.909494,79.131861,PM2.5,NA,NA,NA
India,TamilNadu,Vellore,"Vasanthapuram, Vellore - TNPCB",24-07-2024 15:00:00,12.909494,79.131861,NO2,NA,NA,NA
India,Telangana,Hyderabad,"Central University, Hyderabad - TSPCB",24-07-2024 15:00:00,17.460103,78.334361,NH3,2,5,4
India,Telangana,Hyderabad,"Central University, Hyderabad - TSPCB",24-07-2024 15:00:00,17.460103,78.334361,CO,7,21,11
India,Telangana,Hyderabad,"ECIL Kapra, Hyderabad - TSPCB",24-07-2024 15:00:00,17.470431,78.566959,PM10,39,56,45
India,Telangana,Hyderabad,"ECIL Kapra, Hyderabad - TSPCB",24-07-2024 15:00:00,17.470431,78.566959,CO,12,57,27
India,Telangana,Hyderabad,"IDA Pashamylaram, Hyderabad - TSPCB",24-07-2024 15:00:00,17.5316895,78.218939,PM2.5,NA,NA,NA
India,Telangana,Hyderabad,"IDA Pashamylaram, Hyderabad - TSPCB",24-07-2024 15:00:00,17.5316895,78.218939,PM10,NA,NA,NA
India,Telangana,Hyderabad,"IDA Pashamylaram, Hyderabad - TSPCB",24-07-2024 15:00:00,17.5316895,78.218939,SO2,NA,NA,NA
India,Telangana,Hyderabad,"Kompally Municipal Office, Hyderabad - TSPCB",24-07-2024 15:00:00,17.544899,78.486949,CO,6,8,7
India,Telangana,Hyderabad,"Nacharam_TSIIC IALA, Hyderabad - TSPCB",24-07-2024 15:00:00,17.429398,78.569354,OZONE,11,43,24
India,Telangana,Hyderabad,"New Malakpet, Hyderabad - TSPCB",24-07-2024 15:00:00,17.37206,78.50864,NO2,7,14,10
India,Telangana,Hyderabad,"Ramachandrapuram, Hyderabad - TSPCB",24-07-2024 15:00:00,17.528544,78.286195,PM2.5,NA,NA,NA
India,Telangana,Hyderabad,"Ramachandrapuram, Hyderabad - TSPCB",24-07-2024 15:00:00,17.528544,78.286195,CO,21,24,24
India,Telangana,Hyderabad,"Ramachandrapuram, Hyderabad - TSPCB",24-07-2024 15:00:00,17.528544,78.286195,OZONE,35,64,38
India,Telangana,Hyderabad,"Somajiguda, Hyderabad - TSPCB",24-07-2024 15:00:00,17.417094,78.457437,CO,18,48,34
India,Telangana,Hyderabad,"Zoo Park, Hyderabad - TSPCB",24-07-2024 15:00:00,17.349694,78.451437,OZONE,16,21,18
India,Uttar_Pradesh,Agra,"Manoharpur, Agra - UPPCB",24-07-2024 15:00:00,27.23711,78.01936,NH3,2,2,2
India,Uttar_Pradesh,Agra,"Manoharpur, Agra - UPPCB",24-07-2024 15:00:00,27.23711,78.01936,OZONE,14,21,18
India,Uttar_Pradesh,Agra,"Rohta, Agra - UPPCB",24-07-2024 15:00:00,27.106972,78.000111,NH3,1,2,2
India,Uttar_Pradesh,Agra,"Rohta, Agra - UPPCB",24-07-2024 15:00:00,27.106972,78.000111,CO,6,9,8
India,Uttar_Pradesh,Agra,"Shahjahan Garden, Agra - UPPCB",24-07-2024 15:00:00,27.169338,78.03582,NO2,19,21,21
India,Uttar_Pradesh,Agra,"Shastripuram, Agra - UPPCB",24-07-2024 15:00:00,27.19862,77.92066,NH3,2,4,3
India,Uttar_Pradesh,Baghpat,"Sardar Patel Inter College, Baghpat - UPPCB",24-07-2024 15:00:00,28.964949,77.278761,PM10,13,70,40
India,Uttar_Pradesh,Baghpat,"Sardar Patel Inter College, Baghpat - UPPCB",24-07-2024 15:00:00,28.964949,77.278761,NH3,1,1,1
India,Uttar_Pradesh,Baghpat,"Sardar Patel Inter College, Baghpat - UPPCB",24-07-2024 15:00:00,28.964949,77.278761,CO,32,100,53
India,Uttar_Pradesh,Bareilly,"Civil Lines, Bareilly - UPPCB",24-07-2024 15:00:00,28.359581,79.414455,PM2.5,6,13,9
India,Uttar_Pradesh,Bareilly,"Rajendra Nagar, Bareilly - UPPCB",24-07-2024 15:00:00,28.38910936,79.42963708,SO2,19,19,19
India,Uttar_Pradesh,Bulandshahr,"Yamunapuram, Bulandshahr - UPPCB",24-07-2024 15:00:00,28.406963,77.849831,NO2,10,40,18
India,Uttar_Pradesh,Bulandshahr,"Yamunapuram, Bulandshahr - UPPCB",24-07-2024 15:00:00,28.406963,77.849831,NH3,11,23,17
India,Uttar_Pradesh,Bulandshahr,"Yamunapuram, Bulandshahr - UPPCB",24-07-2024 15:00:00,28.406963,77.849831,SO2,5,47,18
India,Uttar_Pradesh,Firozabad,"Nagla Bhau, Firozabad - UPPCB",24-07-2024 15:00:00,27.168897,78.376960,NO2,17,17,17
India,Uttar_Pradesh,Firozabad,"Nagla Bhau, Firozabad - UPPCB",24-07-2024 15:00:00,27.168897,78.376960,CO,22,28,23
India,Uttar_Pradesh,Firozabad,"Vibhab Nagar, Firozabad - UPPCB",24-07-2024 15:00:00,27.1594,78.3953,NH3,2,2,2
India,Uttar_Pradesh,Firozabad,"Vibhab Nagar, Firozabad - UPPCB",24-07-2024 15:00:00,27.1594,78.3953,SO2,2,12,5
India,Uttar_Pradesh,Ghaziabad,"Indirapuram, Ghaziabad - UPPCB",24-07-2024 15:00:00,28.646233,77.358075,PM10,22,143,92
India,Uttar_Pradesh,Ghaziabad,"Indirapuram, Ghaziabad - UPPCB",24-07-2024 15:00:00,28.646233,77.358075,NO2,36,71,49
India,Uttar_Pradesh,Ghaziabad,"Indirapuram, Ghaziabad - UPPCB",24-07-2024 15:00:00,28.646233,77.358075,CO,18,42,28
India,Uttar_Pradesh,Ghaziabad,"Vasundhara, Ghaziabad - UPPCB",24-07-2024 15:00:00,28.6603346,77.3572563,NO2,11,49,27
India,Uttar_Pradesh,Ghaziabad,"Vasundhara, Ghaziabad - UPPCB",24-07-2024 15:00:00,28.6603346,77.3572563,NH3,5,6,6
India,Uttar_Pradesh,Gorakhpur,"Madan Mohan Malaviya University of Technology, Gorakhpur - UPPCB",24-07-2024 15:00:00,26.730136,83.433859,NH3,1,1,1
India,Uttar_Pradesh,Gorakhpur,"Madan Mohan Malaviya University of Technology, Gorakhpur - UPPCB",24-07-2024 15:00:00,26.730136,83.433859,OZONE,12,12,12
India,Uttar_Pradesh,Greater Noida,"Knowledge Park - III, Greater Noida - UPPCB",24-07-2024 15:00:00,28.47272,77.482000,OZONE,8,61,27
India,Uttar_Pradesh,Greater Noida,"Knowledge Park - V, Greater Noida - UPPCB",24-07-2024 15:00:00,28.557054,77.453663,OZONE,9,93,44
India,Uttar_Pradesh,Hapur,"Anand Vihar, Hapur - UPPCB",24-07-2024 15:00:00,28.725645,77.749675,PM2.5,16,68,36
India,Uttar_Pradesh,Hapur,"Anand Vihar, Hapur - UPPCB",24-07-2024 15:00:00,28.725645,77.749675,PM10,13,101,44
India,Uttar_Pradesh,Hapur,"Anand Vihar, Hapur - UPPCB",24-07-2024 15:00:00,28.725645,77.749675,NO2,9,37,19
India,Uttar_Pradesh,Hapur,"Anand Vihar, Hapur - UPPCB",24-07-2024 15:00:00,28.725645,77.749675,OZONE,10,146,37
India,Uttar_Pradesh,Jhansi,"Shivaji Nagar, Jhansi - UPPCB",24-07-2024 15:00:00,25.4547,78.6039,NH3,5,6,6
India,Uttar_Pradesh,Kanpur,"FTI Kidwai Nagar, Kanpur - UPPCB",24-07-2024 15:00:00,26.428282,80.327067,SO2,NA,NA,NA
India,Uttar_Pradesh,Kanpur,"NSI Kalyanpur, Kanpur - UPPCB",24-07-2024 15:00:00,26.509954,80.249612,OZONE,17,57,34
India,Uttar_Pradesh,Kanpur,"Nehru Nagar, Kanpur - UPPCB",24-07-2024 15:00:00,26.4703136,80.3229863,SO2,7,11,9
India,Uttar_Pradesh,Khurja,"Kalindi Kunj, Khurja - UPPCB",24-07-2024 15:00:00,28.2348927,77.8683002,SO2,18,47,23
India,Uttar_Pradesh,Khurja,"Kalindi Kunj, Khurja - UPPCB",24-07-2024 15:00:00,28.2348927,77.8683002,OZONE,11,28,17
India,Uttar_Pradesh,Lucknow,"B R Ambedkar University, Lucknow - UPPCB",24-07-2024 15:00:00,26.766433,80.927299,PM2.5,10,48,31
India,Uttar_Pradesh,Lucknow,"B R Ambedkar University, Lucknow - UPPCB",24-07-2024 15:00:00,26.766433,80.927299,PM10,28,56,45
India,Uttar_Pradesh,Lucknow,"B R Ambedkar University, Lucknow - UPPCB",24-07-2024 15:00:00,26.766433,80.927299,NO2,6,7,7
India,Uttar_Pradesh,Lucknow,"B R Ambedkar University, Lucknow - UPPCB",24-07-2024 15:00:00,26.766433,80.927299,NH3,3,3,3
India,Uttar_Pradesh,Lucknow,"B R Ambedkar University, Lucknow - UPPCB",24-07-2024 15:00:00,26.766433,80.927299,SO2,13,14,13
India,Uttar_Pradesh,Lucknow,"Kendriya Vidyalaya, Lucknow - CPCB",24-07-2024 15:00:00,26.906111,80.948222,CO,12,34,25
India,Uttar_Pradesh,Lucknow,"Kukrail Picnic Spot-1, Lucknow - UPPCB",24-07-2024 15:00:00,26.90723,80.98579,PM2.5,NA,NA,NA
India,Uttar_Pradesh,Lucknow,"Kukrail Picnic Spot-1, Lucknow - UPPCB",24-07-2024 15:00:00,26.90723,80.98579,CO,12,18,14
India,Uttar_Pradesh,Lucknow,"Kukrail Picnic Spot-1, Lucknow - UPPCB",24-07-2024 15:00:00,26.90723,80.98579,OZONE,2,23,12
India,Uttar_Pradesh,Lucknow,"Lalbagh, Lucknow - CPCB",24-07-2024 15:00:00,26.8458805,80.9365541,OZONE,5,17,10
India,Uttar_Pradesh,Lucknow,"Talkatora District Industries Center, Lucknow - CPCB",24-07-2024 15:00:00,26.83399722,80.8917361,SO2,5,12,9
India,Uttar_Pradesh,Meerut,"Ganga Nagar, Meerut - UPPCB",24-07-2024 15:00:00,28.999264,77.7590354,PM2.5,7,40,20
India,Uttar_Pradesh,Moradabad,"Eco Herbal Park, Moradabad - UPPCB",24-07-2024 15:00:00,28.840739,78.697531,PM10,8,94,38
India,Uttar_Pradesh,Moradabad,"Eco Herbal Park, Moradabad - UPPCB",24-07-2024 15:00:00,28.840739,78.697531,NH3,6,15,10
India,Uttar_Pradesh,Moradabad,"Employment Office, Moradabad - UPPCB",24-07-2024 15:00:00,28.88528,78.73880,PM2.5,24,46,34
India,Uttar_Pradesh,Moradabad,"Jigar Colony, Moradabad - UPPCB",24-07-2024 15:00:00,28.856664,78.772638,NO2,10,19,17
India,Uttar_Pradesh,Moradabad,"Jigar Colony, Moradabad - UPPCB",24-07-2024 15:00:00,28.856664,78.772638,SO2,7,10,8
India,Uttar_Pradesh,Moradabad,"Jigar Colony, Moradabad - UPPCB",24-07-2024 15:00:00,28.856664,78.772638,CO,2,52,30
India,Uttar_Pradesh,Noida,"Sector - 125, Noida - UPPCB",24-07-2024 15:00:00,28.5447608,77.3231257,PM10,9,84,32
India,Uttar_Pradesh,Noida,"Sector - 62, Noida - IMD",24-07-2024 15:00:00,28.6245479,77.3577104,CO,14,42,19
India,Uttar_Pradesh,Noida,"Sector-1, Noida - UPPCB",24-07-2024 15:00:00,28.5898,77.3101,PM10,47,126,86
India,Uttar_Pradesh,Noida,"Sector-1, Noida - UPPCB",24-07-2024 15:00:00,28.5898,77.3101,NH3,3,15,8
India,Uttar_Pradesh,Noida,"Sector-116, Noida - UPPCB",24-07-2024 15:00:00,28.569230,77.393848,NH3,6,16,11
India,Uttar_Pradesh,Prayagraj,"Jhunsi, Prayagraj - UPPCB",24-07-2024 15:00:00,25.425602,81.917152,OZONE,1,20,10
India,Uttar_Pradesh,Prayagraj,"Motilal Nehru NIT, Prayagraj - UPPCB",24-07-2024 15:00:00,25.494,81.863,PM2.5,7,15,11
India,Uttar_Pradesh,Prayagraj,"Motilal Nehru NIT, Prayagraj - UPPCB",24-07-2024 15:00:00,25.494,81.863,NH3,6,7,7
India,Uttar_Pradesh,Prayagraj,"Motilal Nehru NIT, Prayagraj - UPPCB",24-07-2024 15:00:00,25.494,81.863,OZONE,7,26,16
India,Uttar_Pradesh,Varanasi,"Maldahiya, Varanasi - UPPCB",24-07-2024 15:00:00,25.32393,82.99687,SO2,26,28,26
India,Uttar_Pradesh,Varanasi,"Maldahiya, Varanasi - UPPCB",24-07-2024 15:00:00,25.32393,82.99687,OZONE,2,7,4
India,Uttar_Pradesh,Vrindavan,"Omex Eternity, Vrindavan - UPPCB",24-07-2024 15:00:00,27.5714090,77.6557570,PM2.5,7,21,13
India,Uttar_Pradesh,Vrindavan,"Omex Eternity, Vrindavan - UPPCB",24-07-2024 15:00:00,27.5714090,77.6557570,NH3,2,2,2
India,Uttarakhand,Dehradun,"Doon University, Dehradun - UKPCB",24-07-2024 15:00:00,30.269444,78.044167,PM2.5,1,38,18
India,Uttarakhand,Dehradun,"Doon University, Dehradun - UKPCB",24-07-2024 15:00:00,30.269444,78.044167,CO,26,33,30
India,Uttarakhand,Kashipur,"Govt. Girls Inter College, Kashipur - UKPCB",24-07-2024 15:00:00,29.2124114,78.9611753,OZONE,3,20,8
India,Uttarakhand,Rishikesh,"Shivaji Nagar, Rishikesh - UKPCB",24-07-2024 15:00:00,30.075911,78.2859547,CO,11,60,32
India,Uttarakhand,Rishikesh,"Shivaji Nagar, Rishikesh - UKPCB",24-07-2024 15:00:00,30.075911,78.2859547,OZONE,10,43,28
India,West_Bengal,Asansol,"Asansol Court Area, Asansol - WBPCB",24-07-2024 15:00:00,23.685297,86.945968,PM10,30,83,49
India,West_Bengal,Asansol,"Asansol Court Area, Asansol - WBPCB",24-07-2024 15:00:00,23.685297,86.945968,NO2,25,54,35
India,West_Bengal,Asansol,"Asansol Court Area, Asansol - WBPCB",24-07-2024 15:00:00,23.685297,86.945968,NH3,6,35,9
India,West_Bengal,Asansol,"Asansol Court Area, Asansol - WBPCB",24-07-2024 15:00:00,23.685297,86.945968,SO2,10,14,13
India,West_Bengal,Asansol,"Evelyn Lodge, Asansol - WBPCB",24-07-2024 15:00:00,23.6979360,86.9443950,PM10,17,108,44
India,West_Bengal,Asansol,"Evelyn Lodge, Asansol - WBPCB",24-07-2024 15:00:00,23.6979360,86.9443950,NH3,1,2,1
India,West_Bengal,Asansol,"Evelyn Lodge, Asansol - WBPCB",24-07-2024 15:00:00,23.6979360,86.9443950,CO,10,30,19
India,West_Bengal,Asansol,"Mahabir Colliery, Asansol - WBPCB",24-07-2024 15:00:00,23.6181830,87.1057180,PM2.5,20,160,48
India,West_Bengal,Durgapur,"PCBL Residential Complex, Durgapur - WBPCB",24-07-2024 15:00:00,23.5087640,87.3544400,CO,40,87,60
India,West_Bengal,Durgapur,"Sidhu Kanhu Indoor Stadium, Durgapur - WBPCB",24-07-2024 15:00:00,23.5404352,87.2892225,PM2.5,23,154,67
India,West_Bengal,Durgapur,"Sidhu Kanhu Indoor Stadium, Durgapur - WBPCB",24-07-2024 15:00:00,23.5404352,87.2892225,CO,17,68,32
India,West_Bengal,Durgapur,"Sidhu Kanhu Indoor Stadium, Durgapur - WBPCB",24-07-2024 15:00:00,23.5404352,87.2892225,OZONE,1,22,8
India,West_Bengal,Haldia,"Priyambada Housing Estate, Haldia - WBPCB",24-07-2024 15:00:00,22.06047,88.109737,SO2,12,13,12
India,West_Bengal,Haldia,"Priyambada Housing Estate, Haldia - WBPCB",24-07-2024 15:00:00,22.06047,88.109737,CO,28,34,31
India,West_Bengal,Howrah,"Belur Math, Howrah - WBPCB",24-07-2024 15:00:00,22.629801,88.352017,PM2.5,14,32,26
India,West_Bengal,Howrah,"Belur Math, Howrah - WBPCB",24-07-2024 15:00:00,22.629801,88.352017,NH3,5,6,5
India,West_Bengal,Howrah,"Botanical Garden, Howrah - WBPCB",24-07-2024 15:00:00,22.554954,88.292568,CO,28,34,32
India,West_Bengal,Howrah,"Ghusuri, Howrah - WBPCB",24-07-2024 15:00:00,22.611968,88.347422,PM10,32,75,48
India,West_Bengal,Howrah,"Ghusuri, Howrah - WBPCB",24-07-2024 15:00:00,22.611968,88.347422,CO,8,20,15
India,West_Bengal,Howrah,"Padmapukur, Howrah - WBPCB",24-07-2024 15:00:00,22.5687319,88.2797276,PM2.5,17,59,39
India,West_Bengal,Kolkata,"Ballygunge, Kolkata - WBPCB",24-07-2024 15:00:00,22.5367507,88.3638022,PM10,26,52,36
India,West_Bengal,Kolkata,"Ballygunge, Kolkata - WBPCB",24-07-2024 15:00:00,22.5367507,88.3638022,NO2,16,98,27
India,West_Bengal,Kolkata,"Bidhannagar, Kolkata - WBPCB",24-07-2024 15:00:00,22.58157048,88.41002457,PM2.5,24,46,34
India,West_Bengal,Kolkata,"Bidhannagar, Kolkata - WBPCB",24-07-2024 15:00:00,22.58157048,88.41002457,PM10,26,48,37
India,West_Bengal,Kolkata,"Fort William, Kolkata - WBPCB",24-07-2024 15:00:00,22.556640,88.342674,NO2,19,40,26
India,West_Bengal,Kolkata,"Jadavpur, Kolkata - WBPCB",24-07-2024 15:00:00,22.49929,88.36917,OZONE,7,33,9
India,West_Bengal,Kolkata,"Rabindra Bharati University, Kolkata - WBPCB",24-07-2024 15:00:00,22.627847,88.380669,CO,26,34,29
India,West_Bengal,Kolkata,"Rabindra Sarobar, Kolkata - WBPCB",24-07-2024 15:00:00,22.51106,88.35142,PM2.5,24,41,31
India,West_Bengal,Kolkata,"Rabindra Sarobar, Kolkata - WBPCB",24-07-2024 15:00:00,22.51106,88.35142,NH3,5,7,6
India,West_Bengal,Kolkata,"Rabindra Sarobar, Kolkata - WBPCB",24-07-2024 15:00:00,22.51106,88.35142,OZONE,9,32,17
India,West_Bengal,Siliguri,"Ward-32 Bapupara, Siliguri - WBPCB",24-07-2024 15:00:00,26.6879226,88.4152495,PM10,26,51,38
India,Andhra_Pradesh,Amaravati,"Secretariat, Amaravati - APPCB",24-07-2024 15:00:00,16.5150833,80.5181667,CO,21,44,29
India,Andhra_Pradesh,Chittoor,"Gangineni Cheruvu, Chittoor - APPCB",24-07-2024 15:00:00,13.204880,79.097889,PM2.5,23,86,48
India,Andhra_Pradesh,Chittoor,"Gangineni Cheruvu, Chittoor - APPCB",24-07-2024 15:00:00,13.204880,79.097889,SO2,5,6,6
India,Andhra_Pradesh,Chittoor,"Gangineni Cheruvu, Chittoor - APPCB",24-07-2024 15:00:00,13.204880,79.097889,CO,23,35,29
India,Andhra_Pradesh,Kadapa,"Yerramukkapalli, Kadapa - APPCB",24-07-2024 15:00:00,14.465052,78.824187,PM10,34,52,45
India,Andhra_Pradesh,Kadapa,"Yerramukkapalli, Kadapa - APPCB",24-07-2024 15:00:00,14.465052,78.824187,NH3,1,1,1
India,Andhra_Pradesh,Kadapa,"Yerramukkapalli, Kadapa - APPCB",24-07-2024 15:00:00,14.465052,78.824187,SO2,1,2,2
India,Andhra_Pradesh,Rajamahendravaram,"Anand Kala Kshetram, Rajamahendravaram - APPCB",24-07-2024 15:00:00,16.9872867,81.7363176,NH3,1,8,3
India,Andhra_Pradesh,Rajamahendravaram,"Anand Kala Kshetram, Rajamahendravaram - APPCB",24-07-2024 15:00:00,16.9872867,81.7363176,SO2,10,12,12
India,Andhra_Pradesh,Rajamahendravaram,"Anand Kala Kshetram, Rajamahendravaram - APPCB",24-07-2024 15:00:00,16.9872867,81.7363176,CO,7,42,26
India,Andhra_Pradesh,Tirupati,"Tirumala, Tirupati - APPCB",24-07-2024 15:00:00,13.67,79.35,NO2,10,21,15
India,Andhra_Pradesh,Tirupati,"Tirumala, Tirupati - APPCB",24-07-2024 15:00:00,13.67,79.35,CO,9,22,14
India,Andhra_Pradesh,Tirupati,"Vaikuntapuram, Tirupati - APPCB",24-07-2024 15:00:00,13.615387,79.409230,PM10,63,126,83
India,Andhra_Pradesh,Tirupati,"Vaikuntapuram, Tirupati - APPCB",24-07-2024 15:00:00,13.615387,79.409230,NH3,2,3,2
India,Andhra_Pradesh,Vijayawada,"HB Colony, Vijayawada - APPCB",24-07-2024 15:00:00,16.536107,80.594233,PM10,41,73,49
India,Andhra_Pradesh,Vijayawada,"HB Colony, Vijayawada - APPCB",24-07-2024 15:00:00,16.536107,80.594233,OZONE,9,18,12
India,Andhra_Pradesh,Vijayawada,"Rajiv Gandhi Park, Vijayawada - APPCB",24-07-2024 15:00:00,16.509717,80.612222,PM2.5,34,58,44
India,Andhra_Pradesh,Visakhapatnam,"GVM Corporation, Visakhapatnam - APPCB",24-07-2024 15:00:00,17.72,83.3,CO,2,60,20
India,Andhra_Pradesh,Visakhapatnam,"GVM Corporation, Visakhapatnam - APPCB",24-07-2024 15:00:00,17.72,83.3,OZONE,11,22,14
India,Arunachal_Pradesh,Naharlagun,"Naharlagun, Naharlagun - APSPCB",24-07-2024 15:00:00,27.103358,93.679645,NO2,3,3,3
India,Arunachal_Pradesh,Naharlagun,"Naharlagun, Naharlagun - APSPCB",24-07-2024 15:00:00,27.103358,93.679645,OZONE,3,3,3
India,Assam,Byrnihat,"Central Academy for SFS, Byrnihat - PCBA",24-07-2024 15:00:00,26.071318,91.87488,NH3,NA,NA,NA
India,Assam,Guwahati,"IITG, Guwahati - PCBA",24-07-2024 15:00:00,26.2028636,91.70046436,SO2,14,16,15
India,Assam,Guwahati,"LGBI Airport, Guwahati - PCBA",24-07-2024 15:00:00,26.10887,91.589544,NO2,1,23,11
India,Assam,Guwahati,"Pan Bazaar, Guwahati - PCBA",24-07-2024 15:00:00,26.187500,91.744194,NO2,NA,NA,NA
India,Assam,Guwahati,"Railway Colony, Guwahati - PCBA",24-07-2024 15:00:00,26.181742,91.78063,SO2,3,3,3
India,Assam,Nalbari,"Bata Chowk, Nalbari - PCBA",24-07-2024 15:00:00,26.446912,91.439057,PM2.5,NA,NA,NA
India,Assam,Nalbari,"Bata Chowk, Nalbari - PCBA",24-07-2024 15:00:00,26.446912,91.439057,NO2,NA,NA,NA
India,Assam,Nalbari,"Bata Chowk, Nalbari - PCBA",24-07-2024 15:00:00,26.446912,91.439057,CO,25,52,25
India,Assam,Nalbari,"Bata Chowk, Nalbari - PCBA",24-07-2024 15:00:00,26.446912,91.439057,OZONE,13,36,16
India,Assam,Sivasagar,"Girls College, Sivasagar - PCBA",24-07-2024 15:00:00,26.987634,94.636574,PM10,47,59,53
India,Bihar,Araria,"Kharahiya Basti, Araria - BSPCB",24-07-2024 15:00:00,26.146529,87.454184,PM10,25,411,92
India,Bihar,Araria,"Kharahiya Basti, Araria - BSPCB",24-07-2024 15:00:00,26.146529,87.454184,NO2,6,7,7
India,Bihar,Araria,"Kharahiya Basti, Araria - BSPCB",24-07-2024 15:00:00,26.146529,87.454184,OZONE,6,28,18
India,Bihar,Aurangabad,"Gurdeo Nagar, Aurangabad - BSPCB",24-07-2024 15:00:00,24.75746,84.366208,PM2.5,22,143,77
India,Bihar,Aurangabad,"Gurdeo Nagar, Aurangabad - BSPCB",24-07-2024 15:00:00,24.75746,84.366208,CO,24,28,27
India,Bihar,Bettiah,"Kamalnath Nagar, Bettiah - BSPCB",24-07-2024 15:00:00,26.80365,84.51954,NO2,NA,NA,NA
India,Bihar,Bettiah,"Kamalnath Nagar, Bettiah - BSPCB",24-07-2024 15:00:00,26.80365,84.51954,OZONE,NA,NA,NA
India,Bihar,Bhagalpur,"DM Office_Kachari Chowk, Bhagalpur - BSPCB",24-07-2024 15:00:00,25.251013,86.989001,OZONE,42,49,46
India,Bihar,Bhagalpur,"Mayaganj, Bhagalpur - BSPCB",24-07-2024 15:00:00,25.265194,87.012947,NO2,6,7,7
India,Bihar,Bhagalpur,"Mayaganj, Bhagalpur - BSPCB",24-07-2024 15:00:00,25.265194,87.012947,NH3,7,8,8
India,Bihar,Buxar,"Charitra Van, Buxar - BSPCB (Formerly known as Central Jail)",24-07-2024 15:00:00,25.567520,83.966379,NH3,1,1,1
India,Bihar,Gaya,"Collectorate, Gaya - BSPCB",24-07-2024 15:00:00,24.7955,84.9994,SO2,4,12,9
India,Bihar,Gaya,"SFTI Kusdihra, Gaya - BSPCB",24-07-2024 15:00:00,24.762518,84.982348,PM10,26,55,36
India,Bihar,Kishanganj,"SDM Office_Khagra, Kishanganj - BSPCB",24-07-2024 15:00:00,26.0881305,87.93840336,PM2.5,NA,NA,NA
India,Bihar,Manguraha,"Forest Rest House, Manguraha - BSPCB",24-07-2024 15:00:00,27.308328,84.531742,PM10,2,22,10
India,Bihar,Manguraha,"Forest Rest House, Manguraha - BSPCB",24-07-2024 15:00:00,27.308328,84.531742,OZONE,1,5,3
India,Bihar,Motihari,"Gandak Colony, Motihari - BSPCB",24-07-2024 15:00:00,26.63086,84.90051,CO,2,8,5
India,Bihar,Munger,"Town Hall, Munger - BSPCB",24-07-2024 15:00:00,25.376776,86.471523,SO2,17,30,25
India,Bihar,Muzaffarpur,"Buddha Colony, Muzaffarpur - BSPCB",24-07-2024 15:00:00,26.11442,85.39813,PM10,15,35,26
India,Bihar,Muzaffarpur,"Buddha Colony, Muzaffarpur - BSPCB",24-07-2024 15:00:00,26.11442,85.39813,NH3,2,5,4
India,Bihar,Muzaffarpur,"Buddha Colony, Muzaffarpur - BSPCB",24-07-2024 15:00:00,26.11442,85.39813,CO,34,43,35
India,Bihar,Muzaffarpur,"MIT-Daudpur Kothi, Muzaffarpur - BSPCB",24-07-2024 15:00:00,26.1403345,85.3650192,NO2,4,5,5
India,Bihar,Muzaffarpur,"Muzaffarpur Collectorate, Muzaffarpur - BSPCB",24-07-2024 15:00:00,26.1209,85.3647,PM2.5,11,61,26
India,Bihar,Muzaffarpur,"Muzaffarpur Collectorate, Muzaffarpur - BSPCB",24-07-2024 15:00:00,26.1209,85.3647,NO2,29,35,33
India,Bihar,Muzaffarpur,"Muzaffarpur Collectorate, Muzaffarpur - BSPCB",24-07-2024 15:00:00,26.1209,85.3647,OZONE,16,54,32
India,Bihar,Patna,"DRM Office Danapur, Patna - BSPCB",24-07-2024 15:00:00,25.586562,85.043586,NH3,2,3,3
India,Bihar,Patna,"Govt. High School Shikarpur, Patna - BSPCB",24-07-2024 15:00:00,25.592539,85.227158,PM10,41,76,59
India,Bihar,Patna,"Govt. High School Shikarpur, Patna - BSPCB",24-07-2024 15:00:00,25.592539,85.227158,CO,36,60,45
India,Bihar,Patna,"IGSC Planetarium Complex, Patna - BSPCB",24-07-2024 15:00:00,25.610369,85.132568,PM2.5,18,55,36
India,Bihar,Patna,"Muradpur, Patna - BSPCB",24-07-2024 15:00:00,25.619651,85.147382,SO2,5,6,5
India,Bihar,Patna,"Muradpur, Patna - BSPCB",24-07-2024 15:00:00,25.619651,85.147382,CO,28,62,42
India,Bihar,Purnia,"Mariam Nagar, Purnia - BSPCB",24-07-2024 15:00:00,25.366336,87.117468,NO2,5,6,5
India,Bihar,Saharsa,"Police Line, Saharsa - BSPCB",24-07-2024 15:00:00,25.892357,86.590325,PM2.5,NA,NA,NA
India,Bihar,Saharsa,"Police Line, Saharsa - BSPCB",24-07-2024 15:00:00,25.892357,86.590325,SO2,15,17,16
India,Bihar,Saharsa,"Police Line, Saharsa - BSPCB",24-07-2024 15:00:00,25.892357,86.590325,CO,49,56,52
India,Bihar,Saharsa,"Police Line, Saharsa - BSPCB",24-07-2024 15:00:00,25.892357,86.590325,OZONE,2,70,36
India,Bihar,Samastipur,"DM Office_Kasipur, Samastipur - BSPCB",24-07-2024 15:00:00,25.859655,85.77944,PM10,32,114,55
India,Bihar,Sasaram,"Dada Peer, Sasaram - BSPCB",24-07-2024 15:00:00,24.952822,84.002396,NO2,9,10,9
India,Bihar,Siwan,"Chitragupta Nagar, Siwan - BSPCB",24-07-2024 15:00:00,26.2271665,84.3570427,OZONE,1,14,3
India,Chandigarh,Chandigarh,"Sector 22, Chandigarh - CPCC",24-07-2024 15:00:00,30.735567,76.775714,PM2.5,18,83,43
India,Chandigarh,Chandigarh,"Sector 22, Chandigarh - CPCC",24-07-2024 15:00:00,30.735567,76.775714,CO,30,64,38
India,Chandigarh,Chandigarh,"Sector-25, Chandigarh - CPCC",24-07-2024 15:00:00,30.751462,76.762879,PM10,45,76,63
India,Chandigarh,Chandigarh,"Sector-25, Chandigarh - CPCC",24-07-2024 15:00:00,30.751462,76.762879,NO2,16,61,26
India,Chandigarh,Chandigarh,"Sector-25, Chandigarh - CPCC",24-07-2024 15:00:00,30.751462,76.762879,SO2,4,9,6
India,Chandigarh,Chandigarh,"Sector-53, Chandigarh - CPCC",24-07-2024 15:00:00,30.719859,76.738637,NO2,10,95,30
India,Chhattisgarh,Bhilai,"32Bungalows, Bhilai - CECB",24-07-2024 15:00:00,21.194815,81.314770,PM2.5,NA,NA,NA
India,Chhattisgarh,Bhilai,"32Bungalows, Bhilai - CECB",24-07-2024 15:00:00,21.194815,81.314770,PM10,NA,NA,NA
India,Chhattisgarh,Bhilai,"32Bungalows, Bhilai - CECB",24-07-2024 15:00:00,21.194815,81.314770,NO2,7,9,7
India,Chhattisgarh,Bhilai,"32Bungalows, Bhilai - CECB",24-07-2024 15:00:00,21.194815,81.314770,OZONE,6,11,7
India,Chhattisgarh,Bhilai,"Civic Center, Bhilai - Bhilai Steel Plant",24-07-2024 15:00:00,21.185571,81.343175,NH3,3,4,4
India,Chhattisgarh,Bhilai,"Civic Center, Bhilai - Bhilai Steel Plant",24-07-2024 15:00:00,21.185571,81.343175,SO2,8,12,10
India,Chhattisgarh,Bhilai,"Hathkhoj, Bhilai - CECB",24-07-2024 15:00:00,21.224231,81.408350,NH3,9,10,10
India,Chhattisgarh,Bhilai,"Hathkhoj, Bhilai - CECB",24-07-2024 15:00:00,21.224231,81.408350,OZONE,11,18,12
India,Chhattisgarh,Bilaspur,"Mangala, Bilaspur - NTPC",24-07-2024 15:00:00,22.08815,82.13737,PM2.5,4,16,8
India,Chhattisgarh,Korba,"Rampur, Korba - CECB",24-07-2024 15:00:00,22.368195,82.746431,SO2,5,8,7
India,Chhattisgarh,Korba,"Rampur, Korba - CECB",24-07-2024 15:00:00,22.368195,82.746431,CO,10,33,29
India,Chhattisgarh,Korba,"Urja Nagar, Korba - CECB",24-07-2024 15:00:00,22.348441,82.549611,NH3,NA,NA,NA
India,Chhattisgarh,Korba,"Urja Nagar, Korba - CECB",24-07-2024 15:00:00,22.348441,82.549611,SO2,7,11,9
India,Chhattisgarh,Raipur,"AIIMS, Raipur - CECB",24-07-2024 15:00:00,21.258815,81.578979,NO2,6,16,9
India,Chhattisgarh,Raipur,"AIIMS, Raipur - CECB",24-07-2024 15:00:00,21.258815,81.578979,SO2,2,7,3
India,Chhattisgarh,Raipur,"AIIMS, Raipur - CECB",24-07-2024 15:00:00,21.258815,81.578979,OZONE,1,2,1
India,Chhattisgarh,Raipur,"Bhatagaon New ISBT, Raipur - CECB",24-07-2024 15:00:00,21.219665,81.630094,SO2,4,6,5
India,Chhattisgarh,Tumidih,"OP Jindal Industrial Park, Tumidih - CECB",24-07-2024 15:00:00,22.06631475,83.33820077,PM2.5,NA,NA,NA
India,Chhattisgarh,Tumidih,"OP Jindal Industrial Park, Tumidih - CECB",24-07-2024 15:00:00,22.06631475,83.33820077,PM10,NA,NA,NA
India,Chhattisgarh,Tumidih,"OP Jindal Industrial Park, Tumidih - CECB",24-07-2024 15:00:00,22.06631475,83.33820077,NO2,11,31,17
India,Chhattisgarh,Tumidih,"OP Jindal Industrial Park, Tumidih - CECB",24-07-2024 15:00:00,22.06631475,83.33820077,NH3,1,2,2
India,Chhattisgarh,Tumidih,"OP Jindal Industrial Park, Tumidih - CECB",24-07-2024 15:00:00,22.06631475,83.33820077,SO2,5,6,5
India,Chhattisgarh,Tumidih,"OP Jindal Industrial Park, Tumidih - CECB",24-07-2024 15:00:00,22.06631475,83.33820077,CO,12,16,14
India,Delhi,Delhi,"Alipur, Delhi - DPCC",24-07-2024 15:00:00,28.815329,77.153010,NH3,6,11,8
India,Delhi,Delhi,"Alipur, Delhi - DPCC",24-07-2024 15:00:00,28.815329,77.153010,OZONE,1,31,22
India,Delhi,Delhi,"Anand Vihar, Delhi - DPCC",24-07-2024 15:00:00,28.647622,77.3158090,OZONE,4,179,64
India,Delhi,Delhi,"Ashok Vihar, Delhi - DPCC",24-07-2024 15:00:00,28.695381,77.181665,NO2,20,90,47
India,Delhi,Delhi,"Ashok Vihar, Delhi - DPCC",24-07-2024 15:00:00,28.695381,77.181665,NH3,6,10,8
India,Delhi,Delhi,"Ashok Vihar, Delhi - DPCC",24-07-2024 15:00:00,28.695381,77.181665,OZONE,10,71,36
India,Delhi,Delhi,"Aya Nagar, Delhi - IMD",24-07-2024 15:00:00,28.4706914,77.1099364,PM10,4,129,64
India,Delhi,Delhi,"Aya Nagar, Delhi - IMD",24-07-2024 15:00:00,28.4706914,77.1099364,NO2,6,79,14
India,Delhi,Delhi,"Aya Nagar, Delhi - IMD",24-07-2024 15:00:00,28.4706914,77.1099364,CO,28,102,34
India,Delhi,Delhi,"Aya Nagar, Delhi - IMD",24-07-2024 15:00:00,28.4706914,77.1099364,OZONE,5,55,6
India,Delhi,Delhi,"Bawana, Delhi - DPCC",24-07-2024 15:00:00,28.776200,77.051074,PM2.5,20,167,76
India,Delhi,Delhi,"Bawana, Delhi - DPCC",24-07-2024 15:00:00,28.776200,77.051074,CO,30,78,40
India,Delhi,Delhi,"CRRI Mathura Road, Delhi - IMD",24-07-2024 15:00:00,28.5512005,77.2735737,PM10,17,128,85
India,Delhi,Delhi,"CRRI Mathura Road, Delhi - IMD",24-07-2024 15:00:00,28.5512005,77.2735737,OZONE,7,64,26
India,Delhi,Delhi,"Chandni Chowk, Delhi - IITM",24-07-2024 15:00:00,28.656756,77.227234,PM10,27,129,89
India,Delhi,Delhi,"Chandni Chowk, Delhi - IITM",24-07-2024 15:00:00,28.656756,77.227234,NH3,10,11,11
India,Delhi,Delhi,"DTU, Delhi - CPCB",24-07-2024 15:00:00,28.7500499,77.1112615,NO2,56,71,60
India,Delhi,Delhi,"Dwarka-Sector 8, Delhi - DPCC ",24-07-2024 15:00:00,28.5710274,77.0719006,PM10,23,201,94
India,Delhi,Delhi,"Dwarka-Sector 8, Delhi - DPCC ",24-07-2024 15:00:00,28.5710274,77.0719006,OZONE,8,59,21
India,Delhi,Delhi,"IGI Airport (T3), Delhi - IMD",24-07-2024 15:00:00,28.5627763,77.1180053,PM10,16,166,81
India,Delhi,Delhi,"IGI Airport (T3), Delhi - IMD",24-07-2024 15:00:00,28.5627763,77.1180053,NO2,21,49,31
India,Delhi,Delhi,"IGI Airport (T3), Delhi - IMD",24-07-2024 15:00:00,28.5627763,77.1180053,CO,17,44,31
India,Delhi,Delhi,"IHBAS, Dilshad Garden, Delhi - CPCB",24-07-2024 15:00:00,28.6811736,77.3025234,NO2,17,35,24
India,Delhi,Delhi,"ITO, Delhi - CPCB",24-07-2024 15:00:00,28.628624,77.241060,NO2,70,258,139
India,Delhi,Delhi,"ITO, Delhi - CPCB",24-07-2024 15:00:00,28.628624,77.241060,NH3,18,30,23
India,Delhi,Delhi,"Jawaharlal Nehru Stadium, Delhi - DPCC",24-07-2024 15:00:00,28.580280,77.233829,NO2,24,83,47
India,Delhi,Delhi,"Lodhi Road, Delhi - IMD",24-07-2024 15:00:00,28.5918245,77.2273074,NO2,NA,NA,NA
India,Delhi,Delhi,"Major Dhyan Chand National Stadium, Delhi - DPCC",24-07-2024 15:00:00,28.611281,77.237738,PM2.5,10,123,70
India,Delhi,Delhi,"Major Dhyan Chand National Stadium, Delhi - DPCC",24-07-2024 15:00:00,28.611281,77.237738,SO2,3,12,8
India,Delhi,Delhi,"Major Dhyan Chand National Stadium, Delhi - DPCC",24-07-2024 15:00:00,28.611281,77.237738,CO,24,98,52
India,Delhi,Delhi,"Mandir Marg, Delhi - DPCC",24-07-2024 15:00:00,28.636429,77.201067,SO2,6,15,10
India,Delhi,Delhi,"Mundka, Delhi - DPCC",24-07-2024 15:00:00,28.684678,77.076574,PM2.5,28,140,74
India,Delhi,Delhi,"Mundka, Delhi - DPCC",24-07-2024 15:00:00,28.684678,77.076574,NO2,38,138,76
India,Delhi,Delhi,"Mundka, Delhi - DPCC",24-07-2024 15:00:00,28.684678,77.076574,NH3,3,61,8
India,Delhi,Delhi,"NSIT Dwarka, Delhi - CPCB",24-07-2024 15:00:00,28.60909,77.0325413,PM10,40,123,88
India,Delhi,Delhi,"Nehru Nagar, Delhi - DPCC",24-07-2024 15:00:00,28.567890,77.250515,NO2,9,73,36
India,Delhi,Delhi,"North Campus, DU, Delhi - IMD",24-07-2024 15:00:00,28.6573814,77.1585447,PM10,14,160,75
India,Delhi,Delhi,"North Campus, DU, Delhi - IMD",24-07-2024 15:00:00,28.6573814,77.1585447,NO2,4,8,7
India,Delhi,Delhi,"North Campus, DU, Delhi - IMD",24-07-2024 15:00:00,28.6573814,77.1585447,CO,26,74,35
India,Delhi,Delhi,"Okhla Phase-2, Delhi - DPCC",24-07-2024 15:00:00,28.530785,77.271255,PM2.5,13,120,63
India,Delhi,Delhi,"Okhla Phase-2, Delhi - DPCC",24-07-2024 15:00:00,28.530785,77.271255,OZONE,5,97,40
India,Delhi,Delhi,"Patparganj, Delhi - DPCC",24-07-2024 15:00:00,28.623763,77.287209,PM2.5,13,133,74
India,Delhi,Delhi,"Patparganj, Delhi - DPCC",24-07-2024 15:00:00,28.623763,77.287209,NO2,19,88,41
India,Delhi,Delhi,"Patparganj, Delhi - DPCC",24-07-2024 15:00:00,28.623763,77.287209,SO2,3,7,5
India,Delhi,Delhi,"Patparganj, Delhi - DPCC",24-07-2024 15:00:00,28.623763,77.287209,OZONE,3,96,31
India,Delhi,Delhi,"Punjabi Bagh, Delhi - DPCC",24-07-2024 15:00:00,28.674045,77.131023,NO2,12,56,31
India,Delhi,Delhi,"Punjabi Bagh, Delhi - DPCC",24-07-2024 15:00:00,28.674045,77.131023,SO2,17,46,33
India,Delhi,Delhi,"Pusa, Delhi - DPCC",24-07-2024 15:00:00,28.639652,77.146275,NH3,6,10,8
India,Delhi,Delhi,"R K Puram, Delhi - DPCC",24-07-2024 15:00:00,28.563262,77.186937,SO2,7,26,18
India,Delhi,Delhi,"Rohini, Delhi - DPCC",24-07-2024 15:00:00,28.732528,77.119920,PM2.5,23,203,93
India,Delhi,Delhi,"Rohini, Delhi - DPCC",24-07-2024 15:00:00,28.732528,77.119920,NO2,20,164,52
India,Delhi,Delhi,"Shadipur, Delhi - CPCB",24-07-2024 15:00:00,28.6514781,77.1473105,NH3,14,17,15
India,Delhi,Delhi,"Shadipur, Delhi - CPCB",24-07-2024 15:00:00,28.6514781,77.1473105,SO2,2,35,16
India,Delhi,Delhi,"Sirifort, Delhi - CPCB",24-07-2024 15:00:00,28.5504249,77.2159377,NO2,5,59,37
India,Delhi,Delhi,"Sri Aurobindo Marg, Delhi - DPCC",24-07-2024 15:00:00,28.531346,77.190156,PM2.5,13,91,54
India,Delhi,Delhi,"Sri Aurobindo Marg, Delhi - DPCC",24-07-2024 15:00:00,28.531346,77.190156,NH3,6,10,7
India,Delhi,Delhi,"Sri Aurobindo Marg, Delhi - DPCC",24-07-2024 15:00:00,28.531346,77.190156,SO2,7,18,12
India,Delhi,Delhi,"Vivek Vihar, Delhi - DPCC",24-07-2024 15:00:00,28.672342,77.315260,PM2.5,18,323,79
India,Delhi,Delhi,"Vivek Vihar, Delhi - DPCC",24-07-2024 15:00:00,28.672342,77.315260,CO,49,96,66
India,Delhi,Delhi,"Wazirpur, Delhi - DPCC",24-07-2024 15:00:00,28.699793,77.165453,PM2.5,23,207,96
India,Delhi,Delhi,"Wazirpur, Delhi - DPCC",24-07-2024 15:00:00,28.699793,77.165453,SO2,5,17,10
India,Delhi,Delhi,"Wazirpur, Delhi - DPCC",24-07-2024 15:00:00,28.699793,77.165453,CO,3,66,30
India,Gujarat,Ahmedabad,"Chandkheda, Ahmedabad - IITM",24-07-2024 15:00:00,23.107969,72.574648,PM2.5,11,35,22
India,Gujarat,Ahmedabad,"Chandkheda, Ahmedabad - IITM",24-07-2024 15:00:00,23.107969,72.574648,NO2,26,45,33
India,Gujarat,Ahmedabad,"Chandkheda, Ahmedabad - IITM",24-07-2024 15:00:00,23.107969,72.574648,NH3,7,10,9
India,Gujarat,Ahmedabad,"Gyaspur, Ahmedabad - IITM",24-07-2024 15:00:00,22.977134,72.553024,SO2,15,19,17
India,Gujarat,Ahmedabad,"Maninagar, Ahmedabad - GPCB",24-07-2024 15:00:00,23.002657,72.591912,PM2.5,17,65,44
India,Gujarat,Ahmedabad,"Maninagar, Ahmedabad - GPCB",24-07-2024 15:00:00,23.002657,72.591912,OZONE,17,26,22
India,Gujarat,Ahmedabad,"Raikhad, Ahmedabad - IITM",24-07-2024 15:00:00,23.020509,72.579261,CO,18,42,31
India,Gujarat,Ahmedabad,"Rakhial, Ahmedabad - IITM",24-07-2024 15:00:00,23.016834,72.625775,PM10,16,91,35
India,Gujarat,Ahmedabad,"Rakhial, Ahmedabad - IITM",24-07-2024 15:00:00,23.016834,72.625775,SO2,6,17,15
India,Gujarat,Ahmedabad,"SVPI Airport Hansol, Ahmedabad - IITM",24-07-2024 15:00:00,23.076793,72.627874,SO2,5,13,9
India,Gujarat,Ahmedabad,"Sardar Vallabhbhai Patel Stadium, Ahmedabad - IITM",24-07-2024 15:00:00,23.043070,72.562968,SO2,15,17,16
India,Gujarat,Ahmedabad,"Sardar Vallabhbhai Patel Stadium, Ahmedabad - IITM",24-07-2024 15:00:00,23.043070,72.562968,OZONE,7,34,18
India,Gujarat,Gandhinagar,"GIFT City, Gandhinagar - IITM",24-07-2024 15:00:00,23.163798,72.677768,PM10,22,89,36
India,Gujarat,Gandhinagar,"GIFT City, Gandhinagar - IITM",24-07-2024 15:00:00,23.163798,72.677768,CO,12,28,17
India,Gujarat,Gandhinagar,"Sector-10, Gandhinagar - GPCB",24-07-2024 15:00:00,23.221714,72.654328,PM10,NA,NA,NA
India,Gujarat,Gandhinagar,"Sector-10, Gandhinagar - GPCB",24-07-2024 15:00:00,23.221714,72.654328,NO2,10,10,10
India,Gujarat,Gandhinagar,"Sector-10, Gandhinagar - GPCB",24-07-2024 15:00:00,23.221714,72.654328,OZONE,10,10,10
India,Gujarat,Vapi,"Phase-1 GIDC, Vapi - GPCB",24-07-2024 15:00:00,20.362421,72.918013,PM2.5,13,31,20
India,Gujarat,Vapi,"Phase-1 GIDC, Vapi - GPCB",24-07-2024 15:00:00,20.362421,72.918013,PM10,26,64,34
India,Gujarat,Vapi,"Phase-1 GIDC, Vapi - GPCB",24-07-2024 15:00:00,20.362421,72.918013,NH3,10,10,10
India,Gujarat,Vatva,"Phase-4 GIDC, Vatva - GPCB",24-07-2024 15:00:00,22.969611,72.643500,NH3,3,4,3
India,Haryana,Ambala,"Patti Mehar, Ambala - HSPCB",24-07-2024 15:00:00,30.379589,76.778328,NO2,8,20,14
India,Haryana,Ballabgarh,"Nathu Colony, Ballabgarh - HSPCB",24-07-2024 15:00:00,28.3419248,77.319699,PM2.5,18,89,57
India,Haryana,Bhiwani,"H.B. Colony, Bhiwani - HSPCB",24-07-2024 15:00:00,28.806223,76.141105,PM2.5,12,54,23
India,Haryana,Bhiwani,"H.B. Colony, Bhiwani - HSPCB",24-07-2024 15:00:00,28.806223,76.141105,OZONE,17,36,31
India,Haryana,Charkhi Dadri,"Mini Secretariat, Charkhi Dadri - HSPCB",24-07-2024 15:00:00,28.593883,76.270653,PM2.5,9,451,66
India,Haryana,Charkhi Dadri,"Mini Secretariat, Charkhi Dadri - HSPCB",24-07-2024 15:00:00,28.593883,76.270653,CO,8,90,37
India,Haryana,Dharuhera,"Municipal Corporation Office, Dharuhera -  HSPCB",24-07-2024 15:00:00,28.206800,76.799700,PM10,18,90,46
India,Haryana,Dharuhera,"Municipal Corporation Office, Dharuhera -  HSPCB",24-07-2024 15:00:00,28.206800,76.799700,CO,32,58,46
India,Haryana,Faridabad,"Sector 11, Faridabad - HSPCB",24-07-2024 15:00:00,28.376058,77.315741,NO2,30,32,31
India,Haryana,Faridabad,"Sector 11, Faridabad - HSPCB",24-07-2024 15:00:00,28.376058,77.315741,CO,28,40,33
India,Haryana,Faridabad,"Sector 11, Faridabad - HSPCB",24-07-2024 15:00:00,28.376058,77.315741,OZONE,7,38,18
India,Haryana,Faridabad,"Sector- 16A, Faridabad - HSPCB",24-07-2024 15:00:00,28.4088421,77.3099081,SO2,NA,NA,NA
India,Haryana,Gurugram,"Teri Gram, Gurugram - HSPCB",24-07-2024 15:00:00,28.4275,77.1465,OZONE,13,21,16
India,Haryana,Jind,"Police Lines, Jind - HSPCB",24-07-2024 15:00:00,29.307814,76.337619,NO2,NA,NA,NA
India,Haryana,Jind,"Police Lines, Jind - HSPCB",24-07-2024 15:00:00,29.307814,76.337619,OZONE,62,168,126
India,Haryana,Kaithal,"Rishi Nagar, Kaithal - HSPCB",24-07-2024 15:00:00,29.8006,76.4155,PM10,30,98,61
India,Haryana,Kaithal,"Rishi Nagar, Kaithal - HSPCB",24-07-2024 15:00:00,29.8006,76.4155,OZONE,51,78,60
India,Haryana,Kurukshetra,"Sector-7, Kurukshetra - HSPCB",24-07-2024 15:00:00,29.966942,76.875879,PM2.5,22,57,39
India,Haryana,Kurukshetra,"Sector-7, Kurukshetra - HSPCB",24-07-2024 15:00:00,29.966942,76.875879,CO,8,26,20
India,Haryana,Mandikhera,"General Hospital, Mandikhera - HSPCB",24-07-2024 15:00:00,27.9002,76.9938,NH3,16,20,18
India,Haryana,Manesar,"Sector-2 IMT, Manesar - HSPCB",24-07-2024 15:00:00,28.360699,76.936090,NO2,21,22,21
India,Haryana,Narnaul,"Shastri Nagar, Narnaul - HSPCB",24-07-2024 15:00:00,28.060249,76.113115,PM10,11,49,32
India,Haryana,Narnaul,"Shastri Nagar, Narnaul - HSPCB",24-07-2024 15:00:00,28.060249,76.113115,SO2,NA,NA,NA
India,Haryana,Panchkula,"Sector-6, Panchkula - HSPCB ",24-07-2024 15:00:00,30.7057778,76.8531805555555,NO2,NA,NA,NA
India,Haryana,Panchkula,"Sector-6, Panchkula - HSPCB ",24-07-2024 15:00:00,30.7057778,76.8531805555555,SO2,NA,NA,NA
India,Haryana,Rohtak,"MD University, Rohtak - HSPCB",24-07-2024 15:00:00,28.52123,76.37138,CO,37,50,45
India,Haryana,Sonipat,"Murthal, Sonipat - HSPCB",24-07-2024 15:00:00,29.027200,77.062100,OZONE,34,35,34
India,Haryana,Yamuna Nagar,"Gobind Pura, Yamuna Nagar - HSPCB",24-07-2024 15:00:00,30.1480566,77.2893471,PM2.5,24,83,45
India,Haryana,Yamuna Nagar,"Gobind Pura, Yamuna Nagar - HSPCB",24-07-2024 15:00:00,30.1480566,77.2893471,PM10,32,107,60
India,Haryana,Yamuna Nagar,"Gobind Pura, Yamuna Nagar - HSPCB",24-07-2024 15:00:00,30.1480566,77.2893471,OZONE,13,27,16
India,Jammu_and_Kashmir,Srinagar,"Rajbagh, Srinagar - JKSPCB",24-07-2024 15:00:00,34.066206,74.819820,CO,NA,NA,NA
India,Jharkhand,Jorapokhar,"Tata Stadium, Jorapokhar - JSPCB",24-07-2024 15:00:00,23.707909,86.414670,PM10,NA,NA,NA
India,Jharkhand,Pathardih,"Mohalbani Ghat, Pathardih - DMC",24-07-2024 15:00:00,23.669880,86.411725,PM10,NA,NA,NA
India,Jharkhand,Pathardih,"Mohalbani Ghat, Pathardih - DMC",24-07-2024 15:00:00,23.669880,86.411725,NO2,NA,NA,NA
India,Karnataka,Bagalkot,"Vidayagiri, Bagalkot - KSPCB",24-07-2024 15:00:00,16.172806,75.659694,PM2.5,27,41,39
India,Karnataka,Bagalkot,"Vidayagiri, Bagalkot - KSPCB",24-07-2024 15:00:00,16.172806,75.659694,PM10,53,54,54
India,Karnataka,Bagalkot,"Vidayagiri, Bagalkot - KSPCB",24-07-2024 15:00:00,16.172806,75.659694,NH3,2,2,2
India,Karnataka,Belgaum,"Ramteerth Nagar, Belgaum - KSPCB",24-07-2024 15:00:00,15.888653,74.541751,PM2.5,9,28,17
India,Karnataka,Belgaum,"Ramteerth Nagar, Belgaum - KSPCB",24-07-2024 15:00:00,15.888653,74.541751,SO2,9,15,9
India,Karnataka,Bengaluru,"Bapuji Nagar, Bengaluru - KSPCB",24-07-2024 15:00:00,12.951913,77.539784,NO2,14,16,15
India,Karnataka,Bengaluru,"Hebbal, Bengaluru - KSPCB",24-07-2024 15:00:00,13.029152,77.585901,CO,10,28,18
India,Karnataka,Bengaluru,"Hombegowda Nagar, Bengaluru - KSPCB",24-07-2024 15:00:00,12.938539,77.590100,PM2.5,2,16,10
India,Karnataka,Bengaluru,"Hombegowda Nagar, Bengaluru - KSPCB",24-07-2024 15:00:00,12.938539,77.590100,PM10,3,24,14
India,Karnataka,Bengaluru,"Hombegowda Nagar, Bengaluru - KSPCB",24-07-2024 15:00:00,12.938539,77.590100,SO2,2,4,3
India,Karnataka,Bengaluru,"Hombegowda Nagar, Bengaluru - KSPCB",24-07-2024 15:00:00,12.938539,77.590100,CO,11,20,17
India,Karnataka,Bengaluru,"Hombegowda Nagar, Bengaluru - KSPCB",24-07-2024 15:00:00,12.938539,77.590100,OZONE,7,18,12
India,Karnataka,Bengaluru,"Peenya, Bengaluru - CPCB",24-07-2024 15:00:00,13.0270199,77.494094,OZONE,10,33,17
India,Karnataka,Bengaluru,"Shivapura_Peenya, Bengaluru - KSPCB",24-07-2024 15:00:00,13.0246342,77.5080115,NO2,15,16,15
India,Karnataka,Bengaluru,"Shivapura_Peenya, Bengaluru - KSPCB",24-07-2024 15:00:00,13.0246342,77.5080115,OZONE,53,56,54
India,Karnataka,Bengaluru,"Silk Board, Bengaluru - KSPCB",24-07-2024 15:00:00,12.917348,77.622813,PM10,13,118,64
India,Karnataka,Bengaluru,"Silk Board, Bengaluru - KSPCB",24-07-2024 15:00:00,12.917348,77.622813,NO2,10,43,24
India,Karnataka,Bidar,"Naubad, Bidar - KSPCB",24-07-2024 15:00:00,17.930306,77.482194,NH3,5,6,6
India,Karnataka,Chamarajanagar,"Urban, Chamarajanagar - KSPCB",24-07-2024 15:00:00,11.55358,76.55521,CO,19,38,28
India,Karnataka,Chamarajanagar,"Urban, Chamarajanagar - KSPCB",24-07-2024 15:00:00,11.55358,76.55521,OZONE,14,39,27
India,Karnataka,Chikkamagaluru,"Kalyana Nagara, Chikkamagaluru - KSPCB",24-07-2024 15:00:00,13.328028,75.797056,PM2.5,4,16,10
India,Karnataka,Chikkamagaluru,"Kalyana Nagara, Chikkamagaluru - KSPCB",24-07-2024 15:00:00,13.328028,75.797056,NH3,2,4,3
India,Karnataka,Chikkamagaluru,"Kalyana Nagara, Chikkamagaluru - KSPCB",24-07-2024 15:00:00,13.328028,75.797056,SO2,1,12,4
India,Karnataka,Davanagere,"Devaraj Urs Badavane, Davanagere - KSPCB",24-07-2024 15:00:00,14.475800,75.905200,NH3,1,3,2
India,Karnataka,Dharwad,"Kalabhavan, Dharwad - KSPCB",24-07-2024 15:00:00,15.459706,75.008381,NH3,2,5,3
India,Karnataka,Dharwad,"Kalabhavan, Dharwad - KSPCB",24-07-2024 15:00:00,15.459706,75.008381,SO2,2,5,3
India,Karnataka,Gadag,"Panchal Nagar, Gadag - KSPCB",24-07-2024 15:00:00,15.411456,75.638133,PM2.5,2,13,7
India,Karnataka,Gadag,"Panchal Nagar, Gadag - KSPCB",24-07-2024 15:00:00,15.411456,75.638133,CO,45,50,47
India,Karnataka,Hassan,"B.Katihalli, Hassan - KSPCB",24-07-2024 15:00:00,13.008556,76.125258,CO,10,24,22
India,Karnataka,Haveri,"Ashwini Nagar, Haveri - KSPCB",24-07-2024 15:00:00,14.791800,75.389600,NH3,NA,NA,NA
India,Karnataka,Haveri,"Ashwini Nagar, Haveri - KSPCB",24-07-2024 15:00:00,14.791800,75.389600,OZONE,19,31,22
India,Karnataka,Hubballi,"Lingaraj Nagar, Hubballi - KSPCB",24-07-2024 15:00:00,15.3714823,75.1160168,PM2.5,26,41,31
India,Karnataka,Hubballi,"Lingaraj Nagar, Hubballi - KSPCB",24-07-2024 15:00:00,15.3714823,75.1160168,SO2,1,3,1
India,Karnataka,Karwar,"KHB Colony, Karwar - KSPCB",24-07-2024 15:00:00,14.816666,74.141003,CO,8,8,8
India,Karnataka,Karwar,"KHB Colony, Karwar - KSPCB",24-07-2024 15:00:00,14.816666,74.141003,OZONE,21,23,21
India,Karnataka,Kolar,"Tamaka Ind. Area, Kolar - KSPCB",24-07-2024 15:00:00,13.1276288,78.1570122,SO2,70,88,71
India,Karnataka,Kolar,"Tamaka Ind. Area, Kolar - KSPCB",24-07-2024 15:00:00,13.1276288,78.1570122,OZONE,16,33,25
India,Karnataka,Koppal,"Diwator Nagar, Koppal - KSPCB",24-07-2024 15:00:00,15.347630,76.181767,OZONE,9,18,14
India,Karnataka,Madikeri,"Stuart Hill, Madikeri - KSPCB",24-07-2024 15:00:00,12.415911,75.735050,NH3,1,2,1
India,Karnataka,Mysuru,"Hebbal 1st Stage, Mysuru - KSPCB",24-07-2024 15:00:00,12.21041,76.37376,PM10,22,57,32
India,Karnataka,Ramanagara,"Vijay Nagar, Ramanagara - KSPCB",24-07-2024 15:00:00,12.733409,77.298051,NH3,2,4,3
India,Karnataka,Shivamogga,"Vinoba Nagara, Shivamogga - KSPCB",24-07-2024 15:00:00,13.940000,75.555917,SO2,2,8,5
India,Karnataka,Shivamogga,"Vinoba Nagara, Shivamogga - KSPCB",24-07-2024 15:00:00,13.940000,75.555917,OZONE,9,51,33
India,Karnataka,Tumakuru,"Thimmalapura, Tumakuru - KSPCB",24-07-2024 15:00:00,13.377516,77.099072,PM2.5,17,61,32
India,Karnataka,Tumakuru,"Thimmalapura, Tumakuru - KSPCB",24-07-2024 15:00:00,13.377516,77.099072,NH3,2,3,2
India,Karnataka,Udupi,"Brahmagiri, Udupi - KSPCB",24-07-2024 15:00:00,13.34194444,74.74694444,NH3,2,3,2
India,Kerala,Eloor,"Udyogamandal, Eloor - Kerala PCB",24-07-2024 15:00:00,10.073232,76.302765,SO2,1,3,1
India,Kerala,Eloor,"Udyogamandal, Eloor - Kerala PCB",24-07-2024 15:00:00,10.073232,76.302765,CO,20,114,76
India,Kerala,Kollam,"Polayathode, Kollam - Kerala PCB",24-07-2024 15:00:00,8.8787,76.6073,NH3,NA,NA,NA
India,Kerala,Thiruvananthapuram,"Kariavattom, Thiruvananthapuram - Kerala PCB",24-07-2024 15:00:00,8.563700,76.886500,PM2.5,31,36,34
India,Kerala,Thiruvananthapuram,"Kariavattom, Thiruvananthapuram - Kerala PCB",24-07-2024 15:00:00,8.563700,76.886500,NH3,1,1,1
India,Kerala,Thiruvananthapuram,"Plammoodu, Thiruvananthapuram - Kerala PCB",24-07-2024 15:00:00,8.5149093,76.9435879,PM2.5,2,27,10
India,Madhya Pradesh,Bhopal,"Idgah Hills, Bhopal - MPPCB",24-07-2024 15:00:00,23.264759,77.381568,PM2.5,10,43,21
India,Madhya Pradesh,Bhopal,"Paryavaran Parisar, Bhopal - MPPCB",24-07-2024 15:00:00,23.210494,77.425409,PM10,7,40,23
India,Madhya Pradesh,Bhopal,"T T Nagar, Bhopal - MPPCB",24-07-2024 15:00:00,23.233584,77.400574,CO,15,46,42
India,Madhya Pradesh,Dewas,"Bhopal Chauraha, Dewas - MPPCB",24-07-2024 15:00:00,22.9682591,76.064118,PM2.5,8,35,19
India,Madhya Pradesh,Dewas,"Bhopal Chauraha, Dewas - MPPCB",24-07-2024 15:00:00,22.9682591,76.064118,SO2,12,81,48
India,Madhya Pradesh,Gwalior,"City Center, Gwalior - MPPCB",24-07-2024 15:00:00,26.203442,78.193251,NO2,12,21,16
India,Madhya Pradesh,Gwalior,"City Center, Gwalior - MPPCB",24-07-2024 15:00:00,26.203442,78.193251,SO2,8,37,24
India,Madhya Pradesh,Gwalior,"Deen Dayal Nagar, Gwalior - MPPCB",24-07-2024 15:00:00,26.259242,78.216432,SO2,12,14,13
India,Madhya Pradesh,Gwalior,"Maharaj Bada, Gwalior - MPPCB",24-07-2024 15:00:00,26.200388,78.147714,NO2,NA,NA,NA
India,Madhya Pradesh,Indore,"Chhoti Gwaltoli, Indore - MPPCB",24-07-2024 15:00:00,22.4310,75.5213,SO2,12,14,13
India,Madhya Pradesh,Indore,"Maguda Nagar, Indore - IMC",24-07-2024 15:00:00,22.7524,75.8872,PM2.5,1,409,39
India,Madhya Pradesh,Indore,"Maguda Nagar, Indore - IMC",24-07-2024 15:00:00,22.7524,75.8872,CO,14,18,16
India,Madhya Pradesh,Indore,"Regional Park, Indore - IMC",24-07-2024 15:00:00,22.6780,75.8559,SO2,41,42,41
India,Madhya Pradesh,Indore,"Regional Park, Indore - IMC",24-07-2024 15:00:00,22.6780,75.8559,CO,18,22,19
India,Madhya Pradesh,Indore,"Residency Area, Indore - IMC",24-07-2024 15:00:00,22.7084,75.8815,CO,8,10,9
India,Madhya Pradesh,Jabalpur,"Marhatal, Jabalpur - MPPCB",24-07-2024 15:00:00,23.168606,79.932247,PM10,8,30,19
India,Madhya Pradesh,Jabalpur,"Marhatal, Jabalpur - MPPCB",24-07-2024 15:00:00,23.168606,79.932247,SO2,15,27,23
India,Madhya Pradesh,Jabalpur,"Marhatal, Jabalpur - MPPCB",24-07-2024 15:00:00,23.168606,79.932247,OZONE,3,16,14
India,Madhya Pradesh,Jabalpur,"Suhagi, Jabalpur - JMC",24-07-2024 15:00:00,23.218135,79.957770,PM10,16,21,18
India,Madhya Pradesh,Jabalpur,"Suhagi, Jabalpur - JMC",24-07-2024 15:00:00,23.218135,79.957770,NH3,2,3,2
India,Madhya Pradesh,Jabalpur,"Suhagi, Jabalpur - JMC",24-07-2024 15:00:00,23.218135,79.957770,SO2,1,13,7
India,Madhya Pradesh,Katni,"Gole Bazar, Katni - MPPCB",24-07-2024 15:00:00,23.50016,80.23284,PM2.5,13,52,22
India,Madhya Pradesh,Katni,"Gole Bazar, Katni - MPPCB",24-07-2024 15:00:00,23.50016,80.23284,CO,12,20,15
India,Madhya Pradesh,Maihar,"Sahilara, Maihar - KJS Cements",24-07-2024 15:00:00,24.2613009,80.7231783,PM10,NA,NA,NA
India,Madhya Pradesh,Pithampur,"Sector-2 Industrial Area, Pithampur - MPPCB",24-07-2024 15:00:00,22.624758,75.675238,PM2.5,15,56,26
India,Madhya Pradesh,Sagar,"Civil Lines, Sagar - MPPCB",24-07-2024 15:00:00,23.838586,78.759431,PM10,1,59,22
India,Madhya Pradesh,Sagar,"Deen Dayal Nagar, Sagar - MPPCB",24-07-2024 15:00:00,23.8640158,78.80289321,SO2,11,15,13
India,Madhya Pradesh,Satna,"Bandhavgar Colony, Satna - Birla Cement",24-07-2024 15:00:00,24.58434363,80.8549414,PM2.5,18,48,20
India,Madhya Pradesh,Ujjain,"Mahakaleshwar Temple, Ujjain - MPPCB",24-07-2024 15:00:00,23.182719 ,75.768218 ,PM2.5,12,38,25
India,Madhya Pradesh,Ujjain,"Mahakaleshwar Temple, Ujjain - MPPCB",24-07-2024 15:00:00,23.182719 ,75.768218 ,NO2,5,9,7
India,Maharashtra,Ahmednagar,"Tarakpur, Ahmednagar - MPCB",24-07-2024 15:00:00,19.10122,74.73339,NH3,5,8,7
India,Maharashtra,Ahmednagar,"Tarakpur, Ahmednagar - MPCB",24-07-2024 15:00:00,19.10122,74.73339,SO2,9,13,11
India,Maharashtra,Akola,"Ramdaspeth, Akola - MPCB",24-07-2024 15:00:00,20.719516,77.000253,PM2.5,10,44,26
India,Maharashtra,Akola,"Ramdaspeth, Akola - MPCB",24-07-2024 15:00:00,20.719516,77.000253,SO2,8,18,14
India,Maharashtra,Akola,"Ramdaspeth, Akola - MPCB",24-07-2024 15:00:00,20.719516,77.000253,CO,20,39,33
India,Maharashtra,Amravati,"Shivneri Colony, Amravati - MPCB",24-07-2024 15:00:00,20.9402359,77.7895248,PM2.5,6,23,14
India,Maharashtra,Amravati,"Shivneri Colony, Amravati - MPCB",24-07-2024 15:00:00,20.9402359,77.7895248,PM10,13,29,19
India,Maharashtra,Amravati,"Shivneri Colony, Amravati - MPCB",24-07-2024 15:00:00,20.9402359,77.7895248,NO2,5,15,8
India,Maharashtra,Amravati,"Shri Shivaji Science College, Amaravati - MPCB",24-07-2024 15:00:00,20.939198,77.765701,NO2,4,10,6
India,Maharashtra,Aurangabad,"More Chowk Waluj, Aurangabad - MPCB",24-07-2024 15:00:00,19.8389439,75.244448,OZONE,7,34,28
India,Maharashtra,Badlapur,"Katrap, Badlapur - MPCB",24-07-2024 15:00:00,19.16485,73.23409,OZONE,10,19,15
India,Maharashtra,Belapur,"CBD Belapur, Belapur - MPCB",24-07-2024 15:00:00,19.0243902,73.0406721,PM10,21,49,31
