country,state,city,station,last_update,latitude,longitude,pollutant_id,pollutant_min,pollutant_max,pollutant_avg
India,Andhra_Pradesh,Amaravati,"Secretariat, Amaravati - APPCB",13-04-2024 21:00:00,16.5150833,80.5181667,PM10,38,95,62
India,Andhra_Pradesh,Anantapur,"Gulzarpet, Anantapur - APPCB",13-04-2024 21:00:00,14.675886,77.593027,CO,19,50,43
India,Andhra_Pradesh,Anantapur,"Gulzarpet, Anantapur - APPCB",13-04-2024 21:00:00,14.675886,77.593027,OZONE,4,34,29
India,Andhra_Pradesh,Chittoor,"Gangineni Cheruvu, Chittoor - APPCB",13-04-2024 21:00:00,13.204880,79.097889,CO,3,32,10
India,Andhra_Pradesh,Rajamahendravaram,"Anand Kala Kshetram, Rajamahendravaram - APPCB",13-04-2024 21:00:00,16.9872867,81.7363176,PM10,56,108,71
India,Andhra_Pradesh,Rajamahendravaram,"Anand Kala Kshetram, Rajamahendravaram - APPCB",13-04-2024 21:00:00,16.9872867,81.7363176,SO2,11,12,11
India,Andhra_Pradesh,Tirupati,"Tirumala, Tirupati - APPCB",13-04-2024 21:00:00,13.67,79.35,OZONE,11,58,46
India,Andhra_Pradesh,Tirupati,"Vaikuntapuram, Tirupati - APPCB",13-04-2024 21:00:00,13.615387,79.409230,PM10,NA,NA,NA
India,Andhra_Pradesh,Vijayawada,"Rajiv Gandhi Park, Vijayawada - APPCB",13-04-2024 21:00:00,16.509717,80.612222,NH3,1,7,6
India,Andhra_Pradesh,Vijayawada,"Rajiv Gandhi Park, Vijayawada - APPCB",13-04-2024 21:00:00,16.509717,80.612222,SO2,4,10,6
India,Andhra_Pradesh,Visakhapatnam,"GVM Corporation, Visakhapatnam - APPCB",13-04-2024 21:00:00,17.72,83.3,PM10,70,177,101
India,Arunachal_Pradesh,Naharlagun,"Naharlagun, Naharlagun - APSPCB",13-04-2024 21:00:00,27.103358,93.679645,PM10,57,117,81
India,Assam,Byrnihat,"Central Academy for SFS, Byrnihat - PCBA",13-04-2024 21:00:00,26.071318,91.87488,PM2.5,47,500,291
India,Assam,Guwahati,"LGBI Airport, Guwahati - PCBA",13-04-2024 21:00:00,26.10887,91.589544,PM2.5,97,401,295
India,Assam,Guwahati,"Pan Bazaar, Guwahati - PCBA",13-04-2024 21:00:00,26.187500,91.744194,NO2,1,10,2
India,Assam,Nagaon,"Christianpatty, Nagaon - PCBA",13-04-2024 21:00:00,26.349082,92.68449,CO,30,81,46
India,Assam,Nagaon,"Christianpatty, Nagaon - PCBA",13-04-2024 21:00:00,26.349082,92.68449,OZONE,32,148,97
India,Assam,Nalbari,"Bata Chowk, Nalbari - PCBA",13-04-2024 21:00:00,26.446912,91.439057,NH3,1,2,1
India,Assam,Silchar,"Tarapur, Silchar - PCBA",13-04-2024 21:00:00,24.82827,92.79525,PM2.5,NA,NA,NA
India,Assam,Silchar,"Tarapur, Silchar - PCBA",13-04-2024 21:00:00,24.82827,92.79525,NH3,1,1,1
India,Assam,Silchar,"Tarapur, Silchar - PCBA",13-04-2024 21:00:00,24.82827,92.79525,CO,24,34,28
India,Assam,Sivasagar,"Girls College, Sivasagar - PCBA",13-04-2024 21:00:00,26.987634,94.636574,PM10,42,85,64
India,Bihar,Araria,"Kharahiya Basti, Araria - BSPCB",13-04-2024 21:00:00,26.146529,87.454184,CO,21,34,32
India,Bihar,Aurangabad,"Gurdeo Nagar, Aurangabad - BSPCB",13-04-2024 21:00:00,24.75746,84.366208,NO2,4,5,5
India,Bihar,Aurangabad,"Gurdeo Nagar, Aurangabad - BSPCB",13-04-2024 21:00:00,24.75746,84.366208,OZONE,12,86,57
India,Bihar,Bettiah,"Kamalnath Nagar, Bettiah - BSPCB",13-04-2024 21:00:00,26.80365,84.51954,PM10,83,159,122
India,Bihar,Bhagalpur,"Mayaganj, Bhagalpur - BSPCB",13-04-2024 21:00:00,25.265194,87.012947,PM10,75,195,139
India,Bihar,Bhagalpur,"Mayaganj, Bhagalpur - BSPCB",13-04-2024 21:00:00,25.265194,87.012947,OZONE,9,54,36
India,Bihar,Bihar Sharif,"D M Colony, Bihar Sharif - BSPCB",13-04-2024 21:00:00,25.204762,85.514960,PM10,NA,NA,NA
India,Bihar,Bihar Sharif,"D M Colony, Bihar Sharif - BSPCB",13-04-2024 21:00:00,25.204762,85.514960,NO2,9,10,9
India,Bihar,Bihar Sharif,"D M Colony, Bihar Sharif - BSPCB",13-04-2024 21:00:00,25.204762,85.514960,NH3,2,2,2
India,Bihar,Bihar Sharif,"D M Colony, Bihar Sharif - BSPCB",13-04-2024 21:00:00,25.204762,85.514960,OZONE,8,70,30
India,Bihar,Buxar,"Charitra Van, Buxar - BSPCB (Formerly known as Central Jail)",13-04-2024 21:00:00,25.567520,83.966379,PM2.5,NA,NA,NA
India,Bihar,Chhapra,"Darshan Nagar, Chhapra - BSPCB",13-04-2024 21:00:00,25.7808257,84.7446768,NH3,7,17,13
India,Bihar,Chhapra,"Darshan Nagar, Chhapra - BSPCB",13-04-2024 21:00:00,25.7808257,84.7446768,CO,44,69,62
India,Bihar,Gaya,"Kareemganj, Gaya - BSPCB",13-04-2024 21:00:00,24.792403,84.992416,PM10,36,180,74
India,Bihar,Gaya,"SFTI Kusdihra, Gaya - BSPCB",13-04-2024 21:00:00,24.762518,84.982348,OZONE,10,137,91
India,Bihar,Hajipur,"Industrial Area, Hajipur - BSPCB",13-04-2024 21:00:00,25.697189,85.245900,NH3,8,11,10
India,Bihar,Katihar,"Mirchaibari, Katihar - BSPCB",13-04-2024 21:00:00,25.560083,87.553265,CO,92,94,41
India,Bihar,Kishanganj,"SDM Office_Khagra, Kishanganj - BSPCB",13-04-2024 21:00:00,26.0881305,87.93840336,NH3,9,10,10
India,Bihar,Manguraha,"Forest Rest House, Manguraha - BSPCB",13-04-2024 21:00:00,27.308328,84.531742,PM2.5,50,173,67
India,Bihar,Manguraha,"Forest Rest House, Manguraha - BSPCB",13-04-2024 21:00:00,27.308328,84.531742,CO,8,67,57
India,Bihar,Motihari,"Gandak Colony, Motihari - BSPCB",13-04-2024 21:00:00,26.63086,84.90051,NO2,35,117,91
India,Bihar,Munger,"Town Hall, Munger - BSPCB",13-04-2024 21:00:00,25.376776,86.471523,PM2.5,NA,NA,NA
India,Bihar,Munger,"Town Hall, Munger - BSPCB",13-04-2024 21:00:00,25.376776,86.471523,PM10,NA,NA,NA
India,Bihar,Muzaffarpur,"Buddha Colony, Muzaffarpur - BSPCB",13-04-2024 21:00:00,26.11442,85.39813,SO2,7,14,10
India,Bihar,Muzaffarpur,"Buddha Colony, Muzaffarpur - BSPCB",13-04-2024 21:00:00,26.11442,85.39813,CO,30,68,43
India,Bihar,Muzaffarpur,"MIT-Daudpur Kothi, Muzaffarpur - BSPCB",13-04-2024 21:00:00,26.1403345,85.3650192,PM2.5,NA,NA,NA
India,Bihar,Muzaffarpur,"MIT-Daudpur Kothi, Muzaffarpur - BSPCB",13-04-2024 21:00:00,26.1403345,85.3650192,OZONE,21,59,56
India,Bihar,Muzaffarpur,"Muzaffarpur Collectorate, Muzaffarpur - BSPCB",13-04-2024 21:00:00,26.1209,85.3647,NO2,7,404,61
India,Bihar,Patna,"DRM Office Danapur, Patna - BSPCB",13-04-2024 21:00:00,25.586562,85.043586,OZONE,1,58,40
India,Bihar,Patna,"Govt. High School Shikarpur, Patna - BSPCB",13-04-2024 21:00:00,25.592539,85.227158,NO2,20,26,23
India,Bihar,Patna,"Govt. High School Shikarpur, Patna - BSPCB",13-04-2024 21:00:00,25.592539,85.227158,CO,42,84,56
India,Bihar,Patna,"IGSC Planetarium Complex, Patna - BSPCB",13-04-2024 21:00:00,25.610369,85.132568,PM2.5,122,358,274
India,Bihar,Rajgir,"Dangi Tola, Rajgir - BSPCB",13-04-2024 21:00:00,25.03280,85.41948,PM2.5,15,100,43
India,Bihar,Rajgir,"Dangi Tola, Rajgir - BSPCB",13-04-2024 21:00:00,25.03280,85.41948,CO,26,45,31
India,Bihar,Saharsa,"Police Line, Saharsa - BSPCB",13-04-2024 21:00:00,25.892357,86.590325,PM2.5,NA,NA,NA
India,Bihar,Samastipur,"DM Office_Kasipur, Samastipur - BSPCB",13-04-2024 21:00:00,25.859655,85.77944,PM10,NA,NA,NA
India,Bihar,Samastipur,"DM Office_Kasipur, Samastipur - BSPCB",13-04-2024 21:00:00,25.859655,85.77944,SO2,NA,NA,NA
India,Bihar,Sasaram,"Dada Peer, Sasaram - BSPCB",13-04-2024 21:00:00,24.952822,84.002396,NH3,8,14,10
India,Bihar,Siwan,"Chitragupta Nagar, Siwan - BSPCB",13-04-2024 21:00:00,26.2271665,84.3570427,PM10,79,183,121
India,Bihar,Siwan,"Chitragupta Nagar, Siwan - BSPCB",13-04-2024 21:00:00,26.2271665,84.3570427,NO2,15,230,49
India,Chandigarh,Chandigarh,"Sector 22, Chandigarh - CPCC",13-04-2024 21:00:00,30.735567,76.775714,OZONE,8,193,135
India,Chandigarh,Chandigarh,"Sector-25, Chandigarh - CPCC",13-04-2024 21:00:00,30.751462,76.762879,NH3,11,34,18
India,Chandigarh,Chandigarh,"Sector-53, Chandigarh - CPCC",13-04-2024 21:00:00,30.719859,76.738637,OZONE,11,62,42
India,Chhattisgarh,Bhilai,"32Bungalows, Bhilai - CECB",13-04-2024 21:00:00,21.194815,81.314770,PM2.5,16,42,33
India,Chhattisgarh,Bhilai,"32Bungalows, Bhilai - CECB",13-04-2024 21:00:00,21.194815,81.314770,NO2,26,32,29
India,Chhattisgarh,Bhilai,"32Bungalows, Bhilai - CECB",13-04-2024 21:00:00,21.194815,81.314770,SO2,4,6,5
India,Chhattisgarh,Bhilai,"Hathkhoj, Bhilai - CECB",13-04-2024 21:00:00,21.224231,81.408350,PM2.5,26,81,50
India,Chhattisgarh,Bhilai,"Hathkhoj, Bhilai - CECB",13-04-2024 21:00:00,21.224231,81.408350,NH3,7,8,7
India,Chhattisgarh,Bilaspur,"Mangala, Bilaspur - NTPC",13-04-2024 21:00:00,22.08815,82.13737,NO2,16,19,18
India,Chhattisgarh,Chhal,"Nawapara SECL Colony, Chhal - CECB",13-04-2024 21:00:00,22.118125,83.140608,PM10,57,114,85
India,Chhattisgarh,Korba,"Rampur, Korba - CECB",13-04-2024 21:00:00,22.368195,82.746431,PM2.5,29,51,36
India,Chhattisgarh,Kunjemura,"OP Jindal School, Kunjemura - CECB",13-04-2024 21:00:00,22.126650,83.483212,PM2.5,39,128,68
India,Chhattisgarh,Kunjemura,"OP Jindal School, Kunjemura - CECB",13-04-2024 21:00:00,22.126650,83.483212,PM10,45,314,125
India,Chhattisgarh,Milupara,"Govt. Higher Secondary School, Milupara - CECB",13-04-2024 21:00:00,22.1910172,83.5197009,NH3,NA,NA,NA
India,Chhattisgarh,Raipur,"AIIMS, Raipur - CECB",13-04-2024 21:00:00,21.258815,81.578979,PM10,26,125,72
India,Chhattisgarh,Raipur,"AIIMS, Raipur - CECB",13-04-2024 21:00:00,21.258815,81.578979,NO2,19,32,24
India,Chhattisgarh,Raipur,"AIIMS, Raipur - CECB",13-04-2024 21:00:00,21.258815,81.578979,NH3,6,6,6
India,Chhattisgarh,Raipur,"Siltara Phase-II, Raipur - CECB",13-04-2024 21:00:00,21.371751,81.664929,NH3,3,3,3
India,Chhattisgarh,Raipur,"Siltara Phase-II, Raipur - CECB",13-04-2024 21:00:00,21.371751,81.664929,SO2,7,41,15
India,Chhattisgarh,Tumidih,"OP Jindal Industrial Park, Tumidih - CECB",13-04-2024 21:00:00,22.06631475,83.33820077,PM2.5,38,283,96
India,Delhi,Delhi,"Alipur, Delhi - DPCC",13-04-2024 21:00:00,28.815329,77.153010,PM10,43,460,189
India,Delhi,Delhi,"Alipur, Delhi - DPCC",13-04-2024 21:00:00,28.815329,77.153010,NH3,5,8,7
India,Delhi,Delhi,"Anand Vihar, Delhi - DPCC",13-04-2024 21:00:00,28.647622,77.3158090,PM2.5,NA,NA,NA
India,Delhi,Delhi,"Anand Vihar, Delhi - DPCC",13-04-2024 21:00:00,28.647622,77.3158090,NH3,NA,NA,NA
India,Delhi,Delhi,"Ashok Vihar, Delhi - DPCC",13-04-2024 21:00:00,28.695381,77.181665,PM2.5,40,244,100
India,Delhi,Delhi,"Aya Nagar, Delhi - IMD",13-04-2024 21:00:00,28.4706914,77.1099364,PM2.5,52,258,150
India,Delhi,Delhi,"Bawana, Delhi - DPCC",13-04-2024 21:00:00,28.776200,77.051074,PM2.5,64,338,166
India,Delhi,Delhi,"Burari Crossing, Delhi - IMD",13-04-2024 21:00:00,28.7256504,77.2011573,PM10,73,439,191
India,Delhi,Delhi,"Chandni Chowk, Delhi - IITM",13-04-2024 21:00:00,28.656756,77.227234,NO2,NA,NA,NA
India,Delhi,Delhi,"DTU, Delhi - CPCB",13-04-2024 21:00:00,28.7500499,77.1112615,NH3,14,33,21
India,Delhi,Delhi,"DTU, Delhi - CPCB",13-04-2024 21:00:00,28.7500499,77.1112615,SO2,34,41,35
India,Delhi,Delhi,"Dr. Karni Singh Shooting Range, Delhi - DPCC",13-04-2024 21:00:00,28.498571,77.264840,PM10,69,486,178
India,Delhi,Delhi,"Dr. Karni Singh Shooting Range, Delhi - DPCC",13-04-2024 21:00:00,28.498571,77.264840,NO2,12,118,45
India,Delhi,Delhi,"Dwarka-Sector 8, Delhi - DPCC ",13-04-2024 21:00:00,28.5710274,77.0719006,PM10,127,461,231
India,Delhi,Delhi,"ITO, Delhi - CPCB",13-04-2024 21:00:00,28.628624,77.241060,NH3,2,12,7
India,Delhi,Delhi,"Jahangirpuri, Delhi - DPCC",13-04-2024 21:00:00,28.732820,77.170633,NO2,38,152,81
India,Delhi,Delhi,"Jawaharlal Nehru Stadium, Delhi - DPCC",13-04-2024 21:00:00,28.580280,77.233829,CO,34,106,47
India,Delhi,Delhi,"Lodhi Road, Delhi - IMD",13-04-2024 21:00:00,28.5918245,77.2273074,PM10,NA,NA,NA
India,Delhi,Delhi,"Major Dhyan Chand National Stadium, Delhi - DPCC",13-04-2024 21:00:00,28.611281,77.237738,PM10,84,203,137
India,Delhi,Delhi,"NSIT Dwarka, Delhi - CPCB",13-04-2024 21:00:00,28.60909,77.0325413,PM2.5,82,323,218
India,Delhi,Delhi,"NSIT Dwarka, Delhi - CPCB",13-04-2024 21:00:00,28.60909,77.0325413,NO2,26,76,47
India,Delhi,Delhi,"NSIT Dwarka, Delhi - CPCB",13-04-2024 21:00:00,28.60909,77.0325413,SO2,6,47,20
India,Delhi,Delhi,"NSIT Dwarka, Delhi - CPCB",13-04-2024 21:00:00,28.60909,77.0325413,OZONE,3,77,30
India,Delhi,Delhi,"Najafgarh, Delhi - DPCC",13-04-2024 21:00:00,28.570173,76.933762,OZONE,4,216,120
India,Delhi,Delhi,"Narela, Delhi - DPCC",13-04-2024 21:00:00,28.822836,77.101981,NO2,19,129,70
India,Delhi,Delhi,"Nehru Nagar, Delhi - DPCC",13-04-2024 21:00:00,28.567890,77.250515,CO,49,66,55
India,Delhi,Delhi,"North Campus, DU, Delhi - IMD",13-04-2024 21:00:00,28.6573814,77.1585447,OZONE,5,48,27
India,Delhi,Delhi,"Okhla Phase-2, Delhi - DPCC",13-04-2024 21:00:00,28.530785,77.271255,CO,20,124,61
India,Delhi,Delhi,"Punjabi Bagh, Delhi - DPCC",13-04-2024 21:00:00,28.674045,77.131023,PM10,111,267,168
India,Delhi,Delhi,"Punjabi Bagh, Delhi - DPCC",13-04-2024 21:00:00,28.674045,77.131023,NH3,4,5,5
India,Delhi,Delhi,"Punjabi Bagh, Delhi - DPCC",13-04-2024 21:00:00,28.674045,77.131023,SO2,2,35,23
India,Delhi,Delhi,"Pusa, Delhi - DPCC",13-04-2024 21:00:00,28.639652,77.146275,PM2.5,48,163,85
India,Delhi,Delhi,"Pusa, Delhi - DPCC",13-04-2024 21:00:00,28.639652,77.146275,SO2,3,33,19
India,Delhi,Delhi,"Pusa, Delhi - DPCC",13-04-2024 21:00:00,28.639652,77.146275,CO,7,110,38
India,Delhi,Delhi,"Pusa, Delhi - IMD",13-04-2024 21:00:00,28.636110,77.173332,PM2.5,5,308,185
India,Delhi,Delhi,"R K Puram, Delhi - DPCC",13-04-2024 21:00:00,28.563262,77.186937,NO2,19,136,68
India,Delhi,Delhi,"Rohini, Delhi - DPCC",13-04-2024 21:00:00,28.732528,77.119920,PM2.5,36,314,134
India,Delhi,Delhi,"Sirifort, Delhi - CPCB",13-04-2024 21:00:00,28.5504249,77.2159377,CO,16,107,31
India,Delhi,Delhi,"Sonia Vihar, Delhi - DPCC",13-04-2024 21:00:00,28.710508,77.249485,PM10,69,409,220
India,Delhi,Delhi,"Sonia Vihar, Delhi - DPCC",13-04-2024 21:00:00,28.710508,77.249485,SO2,9,49,19
India,Delhi,Delhi,"Sri Aurobindo Marg, Delhi - DPCC",13-04-2024 21:00:00,28.531346,77.190156,SO2,10,21,16
India,Delhi,Delhi,"Vivek Vihar, Delhi - DPCC",13-04-2024 21:00:00,28.672342,77.315260,NO2,30,140,77
India,Delhi,Delhi,"Vivek Vihar, Delhi - DPCC",13-04-2024 21:00:00,28.672342,77.315260,OZONE,1,121,76
India,Delhi,Delhi,"Wazirpur, Delhi - DPCC",13-04-2024 21:00:00,28.699793,77.165453,NO2,NA,NA,NA
India,Gujarat,Ahmedabad,"Chandkheda, Ahmedabad - IITM",13-04-2024 21:00:00,23.107969,72.574648,NO2,NA,NA,NA
India,Gujarat,Ahmedabad,"Gyaspur, Ahmedabad - IITM",13-04-2024 21:00:00,22.977134,72.553024,NO2,40,103,76
India,Gujarat,Ahmedabad,"Gyaspur, Ahmedabad - IITM",13-04-2024 21:00:00,22.977134,72.553024,CO,2,14,6
India,Gujarat,Ahmedabad,"Maninagar, Ahmedabad - GPCB",13-04-2024 21:00:00,23.002657,72.591912,PM10,41,170,98
India,Gujarat,Ahmedabad,"Maninagar, Ahmedabad - GPCB",13-04-2024 21:00:00,23.002657,72.591912,SO2,NA,NA,NA
India,Gujarat,Ahmedabad,"SAC ISRO Satellite, Ahmedabad - IITM",13-04-2024 21:00:00,23.023389,72.515201,NO2,17,17,17
India,Gujarat,Ahmedabad,"SAC ISRO Satellite, Ahmedabad - IITM",13-04-2024 21:00:00,23.023389,72.515201,CO,38,40,38
India,Gujarat,Ahmedabad,"SAC ISRO Satellite, Ahmedabad - IITM",13-04-2024 21:00:00,23.023389,72.515201,OZONE,13,26,23
India,Gujarat,Gandhinagar,"Sector-10, Gandhinagar - GPCB",13-04-2024 21:00:00,23.221714,72.654328,NO2,11,20,17
India,Gujarat,Gandhinagar,"Sector-10, Gandhinagar - GPCB",13-04-2024 21:00:00,23.221714,72.654328,NH3,1,2,1
India,Gujarat,Gandhinagar,"Sector-10, Gandhinagar - GPCB",13-04-2024 21:00:00,23.221714,72.654328,OZONE,5,82,55
India,Gujarat,Nandesari,"GIDC, Nandesari - Nandesari Ind. Association",13-04-2024 21:00:00,22.410802,73.097923,PM10,NA,NA,NA
India,Gujarat,Surat,"Science Center, Surat - SMC",13-04-2024 21:00:00,21.170046,72.795405,NO2,21,39,30
India,Gujarat,Vatva,"Phase-4 GIDC, Vatva - GPCB",13-04-2024 21:00:00,22.969611,72.643500,PM10,66,103,81
India,Gujarat,Vatva,"Phase-4 GIDC, Vatva - GPCB",13-04-2024 21:00:00,22.969611,72.643500,SO2,11,39,22
India,Haryana,Ambala,"Patti Mehar, Ambala - HSPCB",13-04-2024 21:00:00,30.379589,76.778328,PM2.5,50,77,61
India,Haryana,Bahadurgarh,"Arya Nagar, Bahadurgarh - HSPCB",13-04-2024 21:00:00,28.6701,76.9254,PM2.5,40,190,118
India,Haryana,Bahadurgarh,"Arya Nagar, Bahadurgarh - HSPCB",13-04-2024 21:00:00,28.6701,76.9254,NH3,10,12,11
India,Haryana,Bahadurgarh,"Arya Nagar, Bahadurgarh - HSPCB",13-04-2024 21:00:00,28.6701,76.9254,SO2,NA,NA,NA
India,Haryana,Ballabgarh,"Nathu Colony, Ballabgarh - HSPCB",13-04-2024 21:00:00,28.3419248,77.319699,PM2.5,59,316,195
India,Haryana,Bhiwani,"H.B. Colony, Bhiwani - HSPCB",13-04-2024 21:00:00,28.806223,76.141105,NO2,1,12,8
India,Haryana,Charkhi Dadri,"Mini Secretariat, Charkhi Dadri - HSPCB",13-04-2024 21:00:00,28.593883,76.270653,NH3,6,8,7
India,Haryana,Charkhi Dadri,"Mini Secretariat, Charkhi Dadri - HSPCB",13-04-2024 21:00:00,28.593883,76.270653,SO2,2,38,19
India,Haryana,Dharuhera,"Municipal Corporation Office, Dharuhera -  HSPCB",13-04-2024 21:00:00,28.206800,76.799700,NO2,NA,NA,NA
India,Haryana,Dharuhera,"Municipal Corporation Office, Dharuhera -  HSPCB",13-04-2024 21:00:00,28.206800,76.799700,CO,26,106,30
India,Haryana,Faridabad,"New Industrial Town, Faridabad - HSPCB",13-04-2024 21:00:00,28.39072,77.30059,NO2,4,27,16
India,Haryana,Faridabad,"New Industrial Town, Faridabad - HSPCB",13-04-2024 21:00:00,28.39072,77.30059,NH3,2,6,5
India,Haryana,Faridabad,"Sector 30, Faridabad - HSPCB",13-04-2024 21:00:00,28.4417,77.3217,PM10,137,148,143
India,Haryana,Faridabad,"Sector 30, Faridabad - HSPCB",13-04-2024 21:00:00,28.4417,77.3217,SO2,12,13,12
India,Haryana,Faridabad,"Sector- 16A, Faridabad - HSPCB",13-04-2024 21:00:00,28.4088421,77.3099081,NO2,7,43,25
India,Haryana,Fatehabad,"Huda Sector, Fatehabad - HSPCB",13-04-2024 21:00:00,29.503664,75.467934,SO2,10,11,11
India,Haryana,Fatehabad,"Huda Sector, Fatehabad - HSPCB",13-04-2024 21:00:00,29.503664,75.467934,OZONE,24,59,45
India,Haryana,Gurugram,"Sector-51, Gurugram - HSPCB",13-04-2024 21:00:00,28.4227,77.0667,OZONE,27,67,56
India,Haryana,Gurugram,"Teri Gram, Gurugram - HSPCB",13-04-2024 21:00:00,28.4275,77.1465,SO2,2,6,4
India,Haryana,Gurugram,"Teri Gram, Gurugram - HSPCB",13-04-2024 21:00:00,28.4275,77.1465,OZONE,21,39,34
India,Haryana,Gurugram,"Vikas Sadan, Gurugram - HSPCB",13-04-2024 21:00:00,28.4501238,77.0263051,NO2,5,26,14
India,Haryana,Gurugram,"Vikas Sadan, Gurugram - HSPCB",13-04-2024 21:00:00,28.4501238,77.0263051,CO,54,148,110
India,Haryana,Jind,"Police Lines, Jind - HSPCB",13-04-2024 21:00:00,29.307814,76.337619,PM2.5,50,204,101
India,Haryana,Jind,"Police Lines, Jind - HSPCB",13-04-2024 21:00:00,29.307814,76.337619,SO2,5,62,23
India,Haryana,Karnal,"Sector-12, Karnal - HSPCB",13-04-2024 21:00:00,29.695300,77.002700,CO,26,100,32
India,Haryana,Mandikhera,"General Hospital, Mandikhera - HSPCB",13-04-2024 21:00:00,27.9002,76.9938,NO2,19,24,21
India,Haryana,Manesar,"Sector-2 IMT, Manesar - HSPCB",13-04-2024 21:00:00,28.360699,76.936090,NH3,NA,NA,NA
India,Haryana,Manesar,"Sector-2 IMT, Manesar - HSPCB",13-04-2024 21:00:00,28.360699,76.936090,SO2,1,11,6
India,Haryana,Narnaul,"Shastri Nagar, Narnaul - HSPCB",13-04-2024 21:00:00,28.060249,76.113115,SO2,13,45,21
India,Haryana,Palwal,"Shyam Nagar, Palwal - HSPCB",13-04-2024 21:00:00,28.1485564,77.3320667,SO2,1,18,8
India,Haryana,Palwal,"Shyam Nagar, Palwal - HSPCB",13-04-2024 21:00:00,28.1485564,77.3320667,CO,22,35,25
India,Haryana,Panchkula,"Sector-6, Panchkula - HSPCB ",13-04-2024 21:00:00,30.7057778,76.8531805555555,OZONE,46,70,62
India,Haryana,Panipat,"Sector-18, Panipat - HSPCB",13-04-2024 21:00:00,29.497973,76.993331,NH3,2,3,3
India,Haryana,Rohtak,"MD University, Rohtak - HSPCB",13-04-2024 21:00:00,28.52123,76.37138,CO,NA,NA,NA
India,Haryana,Rohtak,"MD University, Rohtak - HSPCB",13-04-2024 21:00:00,28.52123,76.37138,OZONE,45,54,50
India,Haryana,Yamuna Nagar,"Gobind Pura, Yamuna Nagar - HSPCB",13-04-2024 21:00:00,30.1480566,77.2893471,CO,32,102,58
India,Himachal Pradesh,Baddi,"HIMUDA Complex Phase-1, Baddi - HPPCB",13-04-2024 21:00:00,30.943887,76.801991,PM2.5,33,187,76
India,Himachal Pradesh,Baddi,"HIMUDA Complex Phase-1, Baddi - HPPCB",13-04-2024 21:00:00,30.943887,76.801991,NH3,3,6,4
India,Jharkhand,Dhanbad,"Kalakusuma, Dhanbad - DMC",13-04-2024 21:00:00,23.811548,86.481238,NO2,13,65,19
India,Jharkhand,Dhanbad,"Kalakusuma, Dhanbad - DMC",13-04-2024 21:00:00,23.811548,86.481238,SO2,NA,NA,NA
India,Jharkhand,Dhanbad,"Sardar Patel Nagar, Dhanbad - JSPCB",13-04-2024 21:00:00,23.80569,86.44268,NO2,NA,NA,NA
India,Karnataka,Bagalkot,"Vidayagiri, Bagalkot - KSPCB",13-04-2024 21:00:00,16.172806,75.659694,CO,25,55,37
India,Karnataka,Bengaluru,"Bapuji Nagar, Bengaluru - KSPCB",13-04-2024 21:00:00,12.951913,77.539784,PM2.5,31,95,62
India,Karnataka,Bengaluru,"Bapuji Nagar, Bengaluru - KSPCB",13-04-2024 21:00:00,12.951913,77.539784,NH3,1,1,1
India,Karnataka,Bengaluru,"Hebbal, Bengaluru - KSPCB",13-04-2024 21:00:00,13.029152,77.585901,OZONE,7,73,27
India,Karnataka,Bengaluru,"Hombegowda Nagar, Bengaluru - KSPCB",13-04-2024 21:00:00,12.938539,77.590100,PM10,26,72,50
India,Karnataka,Bengaluru,"Hombegowda Nagar, Bengaluru - KSPCB",13-04-2024 21:00:00,12.938539,77.590100,NO2,8,19,12
India,Karnataka,Bengaluru,"Hombegowda Nagar, Bengaluru - KSPCB",13-04-2024 21:00:00,12.938539,77.590100,SO2,4,5,4
India,Karnataka,Bengaluru,"Hombegowda Nagar, Bengaluru - KSPCB",13-04-2024 21:00:00,12.938539,77.590100,CO,8,16,13
India,Karnataka,Bengaluru,"Jayanagar 5th Block, Bengaluru - KSPCB",13-04-2024 21:00:00,12.920984,77.584908,NO2,4,8,5
India,Karnataka,Bengaluru,"Kasturi Nagar, Bengaluru - KSPCB",13-04-2024 21:00:00,13.003872,77.664217,NO2,16,17,17
India,Karnataka,Bengaluru,"Kasturi Nagar, Bengaluru - KSPCB",13-04-2024 21:00:00,13.003872,77.664217,CO,22,26,25
India,Karnataka,Bengaluru,"Peenya, Bengaluru - CPCB",13-04-2024 21:00:00,13.0270199,77.494094,PM2.5,16,45,32
India,Karnataka,Bengaluru,"Peenya, Bengaluru - CPCB",13-04-2024 21:00:00,13.0270199,77.494094,NO2,30,44,37
India,Karnataka,Bengaluru,"Peenya, Bengaluru - CPCB",13-04-2024 21:00:00,13.0270199,77.494094,OZONE,10,41,31
India,Karnataka,Bengaluru,"RVCE-Mailasandra, Bengaluru - KSPCB",13-04-2024 21:00:00,12.921418,77.502466,SO2,7,16,11
India,Karnataka,Bengaluru,"Sanegurava Halli, Bengaluru - KSPCB",13-04-2024 21:00:00,12.990328,77.5431385,PM10,35,57,41
India,Karnataka,Bengaluru,"Shivapura_Peenya, Bengaluru - KSPCB",13-04-2024 21:00:00,13.0246342,77.5080115,NH3,4,4,4
India,Karnataka,Bidar,"Naubad, Bidar - KSPCB",13-04-2024 21:00:00,17.930306,77.482194,NO2,7,8,8
India,Karnataka,Bidar,"Naubad, Bidar - KSPCB",13-04-2024 21:00:00,17.930306,77.482194,SO2,12,23,17
India,Karnataka,Chamarajanagar,"Urban, Chamarajanagar - KSPCB",13-04-2024 21:00:00,11.55358,76.55521,NO2,23,29,29
India,Karnataka,Chikkaballapur,"Chikkaballapur Rural, Chikkaballapur - KSPCB",13-04-2024 21:00:00,13.428828,77.731418,CO,10,18,13
India,Karnataka,Chikkamagaluru,"Kalyana Nagara, Chikkamagaluru - KSPCB",13-04-2024 21:00:00,13.328028,75.797056,NO2,15,31,26
India,Karnataka,Chikkamagaluru,"Kalyana Nagara, Chikkamagaluru - KSPCB",13-04-2024 21:00:00,13.328028,75.797056,SO2,1,3,1
India,Karnataka,Davanagere,"Devaraj Urs Badavane, Davanagere - KSPCB",13-04-2024 21:00:00,14.475800,75.905200,CO,19,20,20
India,Karnataka,Dharwad,"Kalabhavan, Dharwad - KSPCB",13-04-2024 21:00:00,15.459706,75.008381,CO,27,102,60
India,Karnataka,Dharwad,"Kalabhavan, Dharwad - KSPCB",13-04-2024 21:00:00,15.459706,75.008381,OZONE,2,60,35
India,Karnataka,Gadag,"Panchal Nagar, Gadag - KSPCB",13-04-2024 21:00:00,15.411456,75.638133,NH3,1,3,2
India,Karnataka,Haveri,"Ashwini Nagar, Haveri - KSPCB",13-04-2024 21:00:00,14.791800,75.389600,PM2.5,40,88,53
India,Karnataka,Haveri,"Ashwini Nagar, Haveri - KSPCB",13-04-2024 21:00:00,14.791800,75.389600,OZONE,18,24,21
India,Karnataka,Hubballi,"Deshpande Nagar, Hubballi - KSPCB",13-04-2024 21:00:00,15.351773,75.140726,NO2,26,27,27
India,Karnataka,Kalaburagi,"Lal Bahadur Shastri Nagar, Kalaburagi - KSPCB",13-04-2024 21:00:00,17.321993,76.822628,PM2.5,1,30,18
India,Karnataka,Kalaburagi,"Lal Bahadur Shastri Nagar, Kalaburagi - KSPCB",13-04-2024 21:00:00,17.321993,76.822628,SO2,13,32,18
India,Karnataka,Kalaburagi,"Lal Bahadur Shastri Nagar, Kalaburagi - KSPCB",13-04-2024 21:00:00,17.321993,76.822628,CO,43,50,44
India,Karnataka,Kalaburagi,"Mahatma Basaveswar Colony, Kalaburgi - KSPCB",13-04-2024 21:00:00,17.336318,76.847397,PM2.5,27,60,38
India,Karnataka,Kalaburagi,"Mahatma Basaveswar Colony, Kalaburgi - KSPCB",13-04-2024 21:00:00,17.336318,76.847397,NO2,10,17,14
India,Karnataka,Kalaburagi,"Mahatma Basaveswar Colony, Kalaburgi - KSPCB",13-04-2024 21:00:00,17.336318,76.847397,SO2,5,21,14
India,Karnataka,Karwar,"KHB Colony, Karwar - KSPCB",13-04-2024 21:00:00,14.816666,74.141003,PM10,33,92,52
India,Karnataka,Karwar,"KHB Colony, Karwar - KSPCB",13-04-2024 21:00:00,14.816666,74.141003,NO2,2,19,6
India,Karnataka,Madikeri,"Stuart Hill, Madikeri - KSPCB",13-04-2024 21:00:00,12.415911,75.735050,PM2.5,31,51,40
India,Karnataka,Mysuru,"Hebbal 1st Stage, Mysuru - KSPCB",13-04-2024 21:00:00,12.21041,76.37376,CO,4,24,17
India,Karnataka,Mysuru,"Hebbal 1st Stage, Mysuru - KSPCB",13-04-2024 21:00:00,12.21041,76.37376,OZONE,14,99,75
India,Karnataka,Ramanagara,"Vijay Nagar, Ramanagara - KSPCB",13-04-2024 21:00:00,12.733409,77.298051,NO2,1,7,3
India,Karnataka,Ramanagara,"Vijay Nagar, Ramanagara - KSPCB",13-04-2024 21:00:00,12.733409,77.298051,SO2,24,38,32
India,Karnataka,Ramanagara,"Vijay Nagar, Ramanagara - KSPCB",13-04-2024 21:00:00,12.733409,77.298051,OZONE,28,34,30
India,Karnataka,Shivamogga,"Vinoba Nagara, Shivamogga - KSPCB",13-04-2024 21:00:00,13.940000,75.555917,PM2.5,38,42,40
India,Karnataka,Shivamogga,"Vinoba Nagara, Shivamogga - KSPCB",13-04-2024 21:00:00,13.940000,75.555917,SO2,9,12,10
India,Karnataka,Tumakuru,"Thimmalapura, Tumakuru - KSPCB",13-04-2024 21:00:00,13.377516,77.099072,PM10,79,155,115
India,Karnataka,Tumakuru,"Thimmalapura, Tumakuru - KSPCB",13-04-2024 21:00:00,13.377516,77.099072,NO2,17,36,26
India,Karnataka,Tumakuru,"Thimmalapura, Tumakuru - KSPCB",13-04-2024 21:00:00,13.377516,77.099072,SO2,7,17,11
India,Karnataka,Tumakuru,"Thimmalapura, Tumakuru - KSPCB",13-04-2024 21:00:00,13.377516,77.099072,OZONE,12,49,40
India,Karnataka,Vijayapura,"Ibrahimpur, Vijayapura - KSPCB",13-04-2024 21:00:00,16.802639,75.722694,PM10,41,43,42
India,Karnataka,Vijayapura,"Ibrahimpur, Vijayapura - KSPCB",13-04-2024 21:00:00,16.802639,75.722694,NO2,17,19,19
India,Karnataka,Vijayapura,"Ibrahimpur, Vijayapura - KSPCB",13-04-2024 21:00:00,16.802639,75.722694,CO,128,128,128
India,Karnataka,Yadgir,"Collector Office, Yadgir - KSPCB",13-04-2024 21:00:00,16.7602,77.1428,CO,12,37,26
India,Kerala,Kollam,"Polayathode, Kollam - Kerala PCB",13-04-2024 21:00:00,8.8787,76.6073,SO2,NA,NA,NA
India,Kerala,Thiruvananthapuram,"Kariavattom, Thiruvananthapuram - Kerala PCB",13-04-2024 21:00:00,8.563700,76.886500,PM10,76,89,86
India,Kerala,Thiruvananthapuram,"Kariavattom, Thiruvananthapuram - Kerala PCB",13-04-2024 21:00:00,8.563700,76.886500,NO2,8,10,9
India,Kerala,Thiruvananthapuram,"Kariavattom, Thiruvananthapuram - Kerala PCB",13-04-2024 21:00:00,8.563700,76.886500,OZONE,26,31,30
India,Madhya Pradesh,Bhopal,"Paryavaran Parisar, Bhopal - MPPCB",13-04-2024 21:00:00,23.210494,77.425409,PM2.5,23,60,38
India,Madhya Pradesh,Bhopal,"T T Nagar, Bhopal - MPPCB",13-04-2024 21:00:00,23.233584,77.400574,PM2.5,22,52,40
India,Madhya Pradesh,Bhopal,"T T Nagar, Bhopal - MPPCB",13-04-2024 21:00:00,23.233584,77.400574,CO,7,53,19
India,Madhya Pradesh,Gwalior,"City Center, Gwalior - MPPCB",13-04-2024 21:00:00,26.203442,78.193251,PM10,28,146,57
India,Madhya Pradesh,Gwalior,"Deen Dayal Nagar, Gwalior - MPPCB",13-04-2024 21:00:00,26.259242,78.216432,PM2.5,38,87,55
India,Madhya Pradesh,Gwalior,"Deen Dayal Nagar, Gwalior - MPPCB",13-04-2024 21:00:00,26.259242,78.216432,PM10,45,215,106
India,Madhya Pradesh,Gwalior,"Maharaj Bada, Gwalior - MPPCB",13-04-2024 21:00:00,26.200388,78.147714,PM2.5,25,60,42
India,Madhya Pradesh,Gwalior,"Maharaj Bada, Gwalior - MPPCB",13-04-2024 21:00:00,26.200388,78.147714,OZONE,57,124,99
India,Madhya Pradesh,Indore,"Chhoti Gwaltoli, Indore - MPPCB",13-04-2024 21:00:00,22.4310,75.5213,PM10,NA,NA,NA
India,Madhya Pradesh,Indore,"Chhoti Gwaltoli, Indore - MPPCB",13-04-2024 21:00:00,22.4310,75.5213,CO,1,149,94
India,Madhya Pradesh,Jabalpur,"Gupteshwar, Jabalpur - JMC",13-04-2024 21:00:00,23.142888,79.916147,NH3,6,7,6
India,Madhya Pradesh,Jabalpur,"Marhatal, Jabalpur - MPPCB",13-04-2024 21:00:00,23.168606,79.932247,PM2.5,17,84,51
India,Madhya Pradesh,Jabalpur,"Marhatal, Jabalpur - MPPCB",13-04-2024 21:00:00,23.168606,79.932247,SO2,9,15,10
India,Madhya Pradesh,Jabalpur,"Suhagi, Jabalpur - JMC",13-04-2024 21:00:00,23.218135,79.957770,NO2,39,45,42
India,Madhya Pradesh,Katni,"Gole Bazar, Katni - MPPCB",13-04-2024 21:00:00,23.50016,80.23284,CO,9,52,26
India,Madhya Pradesh,Maihar,"Sahilara, Maihar - KJS Cements",13-04-2024 21:00:00,24.2613009,80.7231783,PM10,16,78,43
India,Madhya Pradesh,Maihar,"Sahilara, Maihar - KJS Cements",13-04-2024 21:00:00,24.2613009,80.7231783,CO,73,84,75
India,Madhya Pradesh,Mandideep,"Sector-D Industrial Area, Mandideep - MPPCB",13-04-2024 21:00:00,23.108440,77.511428,PM2.5,22,112,54
India,Madhya Pradesh,Mandideep,"Sector-D Industrial Area, Mandideep - MPPCB",13-04-2024 21:00:00,23.108440,77.511428,NO2,14,53,26
India,Madhya Pradesh,Pithampur,"Sector-2 Industrial Area, Pithampur - MPPCB",13-04-2024 21:00:00,22.624758,75.675238,NO2,6,15,10
India,Madhya Pradesh,Pithampur,"Sector-2 Industrial Area, Pithampur - MPPCB",13-04-2024 21:00:00,22.624758,75.675238,CO,26,108,65
India,Madhya Pradesh,Pithampur,"Sector-2 Industrial Area, Pithampur - MPPCB",13-04-2024 21:00:00,22.624758,75.675238,OZONE,30,71,60
India,Madhya Pradesh,Ratlam,"Shasthri Nagar, Ratlam - IPCA Lab",13-04-2024 21:00:00,23.331731,75.045981,PM2.5,18,88,56
India,Madhya Pradesh,Sagar,"Civil Lines, Sagar - MPPCB",13-04-2024 21:00:00,23.838586,78.759431,CO,10,32,24
India,Madhya Pradesh,Sagar,"Deen Dayal Nagar, Sagar - MPPCB",13-04-2024 21:00:00,23.8640158,78.80289321,NO2,23,24,24
India,Madhya Pradesh,Sagar,"Deen Dayal Nagar, Sagar - MPPCB",13-04-2024 21:00:00,23.8640158,78.80289321,SO2,10,16,12
India,Madhya Pradesh,Satna,"Bandhavgar Colony, Satna - Birla Cement",13-04-2024 21:00:00,24.58434363,80.8549414,PM2.5,13,65,37
India,Madhya Pradesh,Satna,"Bandhavgar Colony, Satna - Birla Cement",13-04-2024 21:00:00,24.58434363,80.8549414,PM10,27,60,40
India,Madhya Pradesh,Singrauli,"Suryakiran Bhawan NCL, Singrauli - MPPCB",13-04-2024 21:00:00,24.108970,82.645580,PM2.5,30,351,128
India,Madhya Pradesh,Singrauli,"Suryakiran Bhawan NCL, Singrauli - MPPCB",13-04-2024 21:00:00,24.108970,82.645580,SO2,40,103,57
India,Maharashtra,Akola,"Ramdaspeth, Akola - MPCB",13-04-2024 21:00:00,20.719516,77.000253,CO,16,52,25
India,Maharashtra,Amravati,"Shri Shivaji Science College, Amaravati - MPCB",13-04-2024 21:00:00,20.939198,77.765701,CO,18,44,31
India,Maharashtra,Aurangabad,"MIDC Chilkalthana, Aurangabad - MPCB",13-04-2024 21:00:00,19.875620,75.387310,SO2,NA,NA,NA
India,Maharashtra,Aurangabad,"MIDC Chilkalthana, Aurangabad - MPCB",13-04-2024 21:00:00,19.875620,75.387310,OZONE,24,103,90
India,Maharashtra,Aurangabad,"More Chowk Waluj, Aurangabad - MPCB",13-04-2024 21:00:00,19.8389439,75.244448,NH3,9,10,9
India,Maharashtra,Aurangabad,"Rachnakar Colony, Aurangabad - MPCB",13-04-2024 21:00:00,19.863756,75.321188,PM10,37,112,69
India,Maharashtra,Badlapur,"Katrap, Badlapur - MPCB",13-04-2024 21:00:00,19.16485,73.23409,SO2,5,16,9
India,Maharashtra,Badlapur,"Katrap, Badlapur - MPCB",13-04-2024 21:00:00,19.16485,73.23409,OZONE,2,197,104
India,Maharashtra,Belapur,"CBD Belapur, Belapur - MPCB",13-04-2024 21:00:00,19.0243902,73.0406721,PM2.5,40,72,53
India,Maharashtra,Bhiwandi,"Gokul Nagar, Bhiwandi - MPCB",13-04-2024 21:00:00,19.309073,73.057223,NH3,3,5,4
India,Maharashtra,Bhiwandi,"Gokul Nagar, Bhiwandi - MPCB",13-04-2024 21:00:00,19.309073,73.057223,SO2,18,28,21
India,Maharashtra,Boisar,"Khaira, Boisar - MPCB",13-04-2024 21:00:00,19.786089,72.757971,NH3,5,10,7
India,Maharashtra,Boisar,"Khaira, Boisar - MPCB",13-04-2024 21:00:00,19.786089,72.757971,CO,8,52,18
India,Maharashtra,Chandrapur,"Chauhan Colony, Chandrapur - MPCB",13-04-2024 21:00:00,19.962900,79.298714,NH3,3,5,3
India,Maharashtra,Chandrapur,"Chauhan Colony, Chandrapur - MPCB",13-04-2024 21:00:00,19.962900,79.298714,CO,24,26,25
India,Maharashtra,Chandrapur,"MIDC Khutala, Chandrapur - MPCB",13-04-2024 21:00:00,19.9775302,79.2337086,NH3,1,2,1
India,Maharashtra,Chandrapur,"MIDC Khutala, Chandrapur - MPCB",13-04-2024 21:00:00,19.9775302,79.2337086,SO2,19,23,21
India,Maharashtra,Dhule,"Deopur, Dhule - MPCB",13-04-2024 21:00:00,20.918946,74.776388,PM10,106,164,133
India,Maharashtra,Dhule,"Deopur, Dhule - MPCB",13-04-2024 21:00:00,20.918946,74.776388,SO2,17,29,23
India,Maharashtra,Jalgaon,"Prabhat Colony, Jalgaon - MPCB",13-04-2024 21:00:00,21.001264,75.565602,CO,12,52,35
India,Maharashtra,Jalna,"Old MIDC, Jalna - MPCB",13-04-2024 21:00:00,19.854616,75.905894,PM10,14,48,30
India,Maharashtra,Jalna,"Old MIDC, Jalna - MPCB",13-04-2024 21:00:00,19.854616,75.905894,NH3,6,8,7
India,Maharashtra,Jalna,"Old MIDC, Jalna - MPCB",13-04-2024 21:00:00,19.854616,75.905894,SO2,1,6,5
India,Maharashtra,Kalyan,"Khadakpada, Kalyan - MPCB",13-04-2024 21:00:00,19.25292,73.142019,SO2,25,31,27
India,Maharashtra,Kolhapur,"Shivaji University, Kolhapur - MPCB",13-04-2024 21:00:00,16.6870449,74.2505872,NO2,NA,NA,NA
India,Maharashtra,Kolhapur,"Shivaji University, Kolhapur - MPCB",13-04-2024 21:00:00,16.6870449,74.2505872,CO,36,56,48
India,Maharashtra,Kolhapur,"Sinchan Bhavan, Kolhapur - MPCB",13-04-2024 21:00:00,16.7143745,74.2426398,PM2.5,47,89,64
India,Maharashtra,Kolhapur,"Sinchan Bhavan, Kolhapur - MPCB",13-04-2024 21:00:00,16.7143745,74.2426398,SO2,1,8,3
India,Maharashtra,Latur,"Sawe Wadi, Latur - MPCB",13-04-2024 21:00:00,18.39963,76.57452,PM10,27,81,46
India,Maharashtra,Latur,"Sawe Wadi, Latur - MPCB",13-04-2024 21:00:00,18.39963,76.57452,CO,11,66,39
India,Maharashtra,Mahad,"Kamble Tarf Birwadi, Mahad - MPCB",13-04-2024 21:00:00,18.1023399,73.4783687,PM10,47,88,67
India,Maharashtra,Mahad,"Kamble Tarf Birwadi, Mahad - MPCB",13-04-2024 21:00:00,18.1023399,73.4783687,NO2,15,43,24
India,Maharashtra,Malegaon,"Mahesh Nagar, Malegaon - MPCB",13-04-2024 21:00:00,20.555712,74.529236,NO2,2,17,7
India,Maharashtra,Malegaon,"Mahesh Nagar, Malegaon - MPCB",13-04-2024 21:00:00,20.555712,74.529236,NH3,3,16,6
India,Maharashtra,Mira-Bhayandar,"Bhayandar West, Mira-Bhayandar - MPCB",13-04-2024 21:00:00,19.296481,72.840923,PM2.5,34,87,57
India,Maharashtra,Mumbai,"Bandra Kurla Complex, Mumbai - MPCB",13-04-2024 21:00:00,19.065931,72.862131,SO2,NA,NA,NA
India,Maharashtra,Mumbai,"Borivali East, Mumbai - IITM",13-04-2024 21:00:00,19.23241,72.86895,PM2.5,24,49,36
India,Maharashtra,Mumbai,"Borivali East, Mumbai - IITM",13-04-2024 21:00:00,19.23241,72.86895,PM10,31,78,57
India,Maharashtra,Mumbai,"Borivali East, Mumbai - MPCB",13-04-2024 21:00:00,19.2243333,72.8658113,NH3,1,2,1
India,Maharashtra,Mumbai,"Borivali East, Mumbai - MPCB",13-04-2024 21:00:00,19.2243333,72.8658113,CO,2,62,36
India,Maharashtra,Mumbai,"Byculla, Mumbai - BMC",13-04-2024 21:00:00,18.9767,72.8380,CO,10,22,12
India,Maharashtra,Mumbai,"Chakala-Andheri East, Mumbai - IITM",13-04-2024 21:00:00,19.11074,72.86084,CO,12,50,26
India,Maharashtra,Mumbai,"Chakala-Andheri East, Mumbai - IITM",13-04-2024 21:00:00,19.11074,72.86084,OZONE,16,61,37
India,Maharashtra,Mumbai,"Chembur, Mumbai - MPCB",13-04-2024 21:00:00,19.0364585,72.8954371,NH3,1,4,3
India,Maharashtra,Mumbai,"Chhatrapati Shivaji Intl. Airport (T2), Mumbai - MPCB",13-04-2024 21:00:00,19.10078,72.87462,PM10,52,109,73
India,Maharashtra,Mumbai,"Colaba, Mumbai - MPCB",13-04-2024 21:00:00,18.910000,72.820000,PM10,46,95,61
India,Maharashtra,Mumbai,"Kandivali East, Mumbai - MPCB",13-04-2024 21:00:00,19.205800,72.868200,PM10,30,160,70
India,Maharashtra,Mumbai,"Kandivali East, Mumbai - MPCB",13-04-2024 21:00:00,19.205800,72.868200,NH3,4,20,6
India,Maharashtra,Mumbai,"Kandivali East, Mumbai - MPCB",13-04-2024 21:00:00,19.205800,72.868200,OZONE,30,31,30
India,Maharashtra,Mumbai,"Kandivali West, Mumbai - BMC",13-04-2024 21:00:00,19.215859,72.831718,PM10,20,38,27
India,Maharashtra,Mumbai,"Kurla, Mumbai - MPCB",13-04-2024 21:00:00,19.0863,72.8888,PM2.5,12,92,38
India,Maharashtra,Mumbai,"Kurla, Mumbai - MPCB",13-04-2024 21:00:00,19.0863,72.8888,NH3,2,2,2
India,Maharashtra,Mumbai,"Mazgaon, Mumbai - IITM",13-04-2024 21:00:00,18.96702,72.84214,CO,20,60,28
India,Maharashtra,Mumbai,"Mindspace-Malad West, Mumbai - MPCB",13-04-2024 21:00:00,19.1878657,72.8304069,OZONE,7,49,35
India,Maharashtra,Mumbai,"Mulund West, Mumbai - MPCB",13-04-2024 21:00:00,19.1750,72.9419,PM2.5,32,72,49
India,Maharashtra,Mumbai,"Navy Nagar-Colaba, Mumbai - IITM",13-04-2024 21:00:00,18.897756,72.813320,NO2,13,36,19
India,Maharashtra,Mumbai,"Navy Nagar-Colaba, Mumbai - IITM",13-04-2024 21:00:00,18.897756,72.813320,SO2,1,6,3
India,Maharashtra,Mumbai,"Powai, Mumbai - MPCB",13-04-2024 21:00:00,19.137500,72.915056,PM2.5,18,38,27
India,Maharashtra,Mumbai,"Powai, Mumbai - MPCB",13-04-2024 21:00:00,19.137500,72.915056,NH3,1,1,1
India,Maharashtra,Mumbai,"Powai, Mumbai - MPCB",13-04-2024 21:00:00,19.137500,72.915056,SO2,32,42,35
India,Maharashtra,Mumbai,"Powai, Mumbai - MPCB",13-04-2024 21:00:00,19.137500,72.915056,OZONE,21,85,55
India,Maharashtra,Mumbai,"Sewri, Mumbai - BMC",13-04-2024 21:00:00,19.000084,72.856730,PM10,25,58,47
India,Maharashtra,Mumbai,"Sewri, Mumbai - BMC",13-04-2024 21:00:00,19.000084,72.856730,CO,10,28,16
India,Maharashtra,Mumbai,"Shivaji Nagar, Mumbai - BMC",13-04-2024 21:00:00,19.060498,72.923356,OZONE,2,59,30
India,Maharashtra,Mumbai,"Siddharth Nagar-Worli, Mumbai - IITM",13-04-2024 21:00:00,19.000083,72.813993,PM2.5,33,142,81
India,Maharashtra,Mumbai,"Sion, Mumbai - MPCB",13-04-2024 21:00:00,19.047000,72.874600,PM2.5,27,48,36
India,Maharashtra,Mumbai,"Sion, Mumbai - MPCB",13-04-2024 21:00:00,19.047000,72.874600,NH3,NA,NA,NA
India,Maharashtra,Mumbai,"Sion, Mumbai - MPCB",13-04-2024 21:00:00,19.047000,72.874600,SO2,34,37,35
India,Maharashtra,Mumbai,"Vasai West, Mumbai - MPCB",13-04-2024 21:00:00,19.383200,72.820400,PM10,47,112,70
India,Maharashtra,Mumbai,"Vile Parle West, Mumbai - MPCB",13-04-2024 21:00:00,19.10861,72.83622,NH3,11,11,11
India,Maharashtra,Mumbai,"Worli, Mumbai - MPCB",13-04-2024 21:00:00,18.9936162,72.8128113,SO2,11,11,11
India,Maharashtra,Mumbai,"Worli, Mumbai - MPCB",13-04-2024 21:00:00,18.9936162,72.8128113,OZONE,7,12,9
India,Maharashtra,Nagpur,"Ambazari, Nagpur - MPCB",13-04-2024 21:00:00,21.121801,79.04952,NH3,NA,NA,NA
India,Maharashtra,Nagpur,"Mahal, Nagpur - MPCB",13-04-2024 21:00:00,21.14472,79.107595,CO,19,131,45
India,Maharashtra,Nagpur,"Opp GPO Civil Lines, Nagpur - MPCB",13-04-2024 21:00:00,21.152875,79.0517531,NO2,12,121,50
India,Maharashtra,Nanded,"Sneh Nagar, Nanded - MPCB",13-04-2024 21:00:00,19.173852,77.296291,OZONE,23,76,51
India,Maharashtra,Nashik,"Gangapur Road, Nashik - MPCB",13-04-2024 21:00:00,20.0073285,73.7762427,NH3,1,2,1
India,Maharashtra,Nashik,"MIDC Ambad, Nashik - MPCB",13-04-2024 21:00:00,19.950220,73.731480,PM2.5,22,61,42
India,Maharashtra,Nashik,"MIDC Ambad, Nashik - MPCB",13-04-2024 21:00:00,19.950220,73.731480,OZONE,7,133,78
India,Maharashtra,Nashik,"Pandav Nagari, Nashik - MPCB",13-04-2024 21:00:00,19.9591346,73.7788008,PM2.5,29,62,49
India,Maharashtra,Navi Mumbai,"Kopripada-Vashi, Navi Mumbai - MPCB",13-04-2024 21:00:00,19.090337,73.014232,CO,10,40,14
India,Maharashtra,Navi Mumbai,"Mahape, Navi Mumbai - MPCB",13-04-2024 21:00:00,19.1135051,73.008978,PM2.5,35,261,81
India,Maharashtra,Navi Mumbai,"Mahape, Navi Mumbai - MPCB",13-04-2024 21:00:00,19.1135051,73.008978,SO2,24,25,24
India,Maharashtra,Navi Mumbai,"Mahape, Navi Mumbai - MPCB",13-04-2024 21:00:00,19.1135051,73.008978,OZONE,49,74,61
India,Maharashtra,Navi Mumbai,"Nerul, Navi Mumbai - MPCB",13-04-2024 21:00:00,19.008751,73.016620,PM10,66,344,130
India,Maharashtra,Navi Mumbai,"Nerul, Navi Mumbai - MPCB",13-04-2024 21:00:00,19.008751,73.016620,SO2,20,24,23
India,Maharashtra,Navi Mumbai,"Sanpada, Navi Mumbai - MPCB",13-04-2024 21:00:00,19.0575752,73.0151367,PM10,41,117,75
India,Maharashtra,Navi Mumbai,"Sanpada, Navi Mumbai - MPCB",13-04-2024 21:00:00,19.0575752,73.0151367,NO2,19,45,30
India,Maharashtra,Navi Mumbai,"Sector-19A Nerul, Navi Mumbai - IITM",13-04-2024 21:00:00,19.044,73.0325,NH3,5,8,7
India,Maharashtra,Navi Mumbai,"Tondare-Taloja, Navi Mumbai - MPCB",13-04-2024 21:00:00,19.0630,73.1209,PM2.5,44,81,56
India,Maharashtra,Navi Mumbai,"Tondare-Taloja, Navi Mumbai - MPCB",13-04-2024 21:00:00,19.0630,73.1209,PM10,78,120,102
India,Maharashtra,Parbhani,"Masoom Colony, Parbhani - MPCB",13-04-2024 21:00:00,19.265594,76.761463,PM10,31,115,64
India,Maharashtra,Parbhani,"Masoom Colony, Parbhani - MPCB",13-04-2024 21:00:00,19.265594,76.761463,NO2,17,45,26
India,Maharashtra,Parbhani,"Masoom Colony, Parbhani - MPCB",13-04-2024 21:00:00,19.265594,76.761463,CO,2,18,10
India,Maharashtra,Pimpri-Chinchwad,"Gavalinagar, Pimpri Chinchwad - MPCB",13-04-2024 21:00:00,18.63673,73.82487,NO2,10,85,36
India,Maharashtra,Pimpri-Chinchwad,"Gavalinagar, Pimpri Chinchwad - MPCB",13-04-2024 21:00:00,18.63673,73.82487,NH3,1,9,3
India,Maharashtra,Pimpri-Chinchwad,"Gavalinagar, Pimpri Chinchwad - MPCB",13-04-2024 21:00:00,18.63673,73.82487,SO2,3,22,11
India,Maharashtra,Pimpri-Chinchwad,"Gavalinagar, Pimpri Chinchwad - MPCB",13-04-2024 21:00:00,18.63673,73.82487,CO,8,50,17
India,Maharashtra,Pimpri-Chinchwad,"Gavalinagar, Pimpri Chinchwad - MPCB",13-04-2024 21:00:00,18.63673,73.82487,OZONE,1,272,133
India,Maharashtra,Pimpri-Chinchwad,"Park Street Wakad, Pimpri Chinchwad - MPCB",13-04-2024 21:00:00,18.59051,73.77946,PM2.5,32,59,45
India,Maharashtra,Pimpri-Chinchwad,"Thergaon, Pimpri Chinchwad - MPCB",13-04-2024 21:00:00,18.616318,73.765797,PM2.5,79,207,122
India,Maharashtra,Pimpri-Chinchwad,"Thergaon, Pimpri Chinchwad - MPCB",13-04-2024 21:00:00,18.616318,73.765797,NH3,2,8,5
India,Maharashtra,Pimpri-Chinchwad,"Thergaon, Pimpri Chinchwad - MPCB",13-04-2024 21:00:00,18.616318,73.765797,SO2,1,5,2
India,Maharashtra,Pimpri-Chinchwad,"Thergaon, Pimpri Chinchwad - MPCB",13-04-2024 21:00:00,18.616318,73.765797,CO,16,45,27
India,Maharashtra,Pimpri-Chinchwad,"Thergaon, Pimpri Chinchwad - MPCB",13-04-2024 21:00:00,18.616318,73.765797,OZONE,1,198,81
India,Maharashtra,Pune,"Bhosari, Pune - IITM",13-04-2024 21:00:00,18.640051,73.848956,PM2.5,17,65,39
India,Maharashtra,Pune,"Mhada Colony, Pune - IITM",13-04-2024 21:00:00,18.573040,73.927715,PM10,17,88,55
India,Maharashtra,Pune,"Mhada Colony, Pune - IITM",13-04-2024 21:00:00,18.573040,73.927715,CO,12,82,32
India,Maharashtra,Pune,"Revenue Colony-Shivajinagar, Pune - IITM",13-04-2024 21:00:00,18.530085,73.849598,NO2,54,149,107
India,Maharashtra,Pune,"Revenue Colony-Shivajinagar, Pune - IITM",13-04-2024 21:00:00,18.530085,73.849598,CO,105,118,114
India,Maharashtra,Pune,"Transport Nagar-Nigdi, Pune - IITM",13-04-2024 21:00:00,18.664282,73.763966,NO2,12,15,13
India,Maharashtra,Sangli,"Vijay Nagar, Sangli - MPCB",13-04-2024 21:00:00, 16.5038,74.3623,PM10,54,95,74
India,Maharashtra,Solapur,"Ratandeep Housing Society, Solapur - MPCB",13-04-2024 21:00:00,17.65439,75.90649,NO2,9,44,21
India,Maharashtra,Solapur,"Ratandeep Housing Society, Solapur - MPCB",13-04-2024 21:00:00,17.65439,75.90649,SO2,1,11,3
India,Maharashtra,Solapur,"Solapur, Solapur - MPCB",13-04-2024 21:00:00,17.6599188,75.9063906,PM10,127,149,135
India,Maharashtra,Thane,"Kasarvadavali, Thane - MPCB",13-04-2024 21:00:00,19.26777,72.97182,PM2.5,NA,NA,NA
India,Maharashtra,Thane,"Kasarvadavali, Thane - MPCB",13-04-2024 21:00:00,19.26777,72.97182,NH3,NA,NA,NA
India,Maharashtra,Thane,"Pimpleshwar Mandir, Thane - MPCB",13-04-2024 21:00:00,19.192056,72.9585188,NO2,1,6,2
India,Maharashtra,Thane,"Pimpleshwar Mandir, Thane - MPCB",13-04-2024 21:00:00,19.192056,72.9585188,NH3,1,2,2
India,Maharashtra,Thane,"Upvan Fort, Thane - MPCB",13-04-2024 21:00:00,19.222279,72.957979,PM2.5,27,72,46
India,Maharashtra,Thane,"Upvan Fort, Thane - MPCB",13-04-2024 21:00:00,19.222279,72.957979,NH3,7,11,9
India,Maharashtra,Thane,"Upvan Fort, Thane - MPCB",13-04-2024 21:00:00,19.222279,72.957979,SO2,3,11,6
India,Maharashtra,Ulhasnagar,"Sidhi Vinayak Nagar, Ulhasnagar - MPCB",13-04-2024 21:00:00,19.235581,73.159121,PM10,60,96,80
India,Manipur,Imphal,"DM College of Science, Imphal - Manipur PCB",13-04-2024 21:00:00,24.8207389,93.9423085,CO,6,7,7
India,Manipur,Imphal,"Manipur University, Imphal - Manipur PCB",13-04-2024 21:00:00,24.7524239,93.9286218,CO,11,30,16
India,Nagaland,Kohima,"PWD Juction, Kohima - NPCB",13-04-2024 21:00:00,25.6635413,94.0989878,NO2,3,4,3
India,Odisha,Angul,"Hakimapada, Angul - OSPCB",13-04-2024 21:00:00,20.832874,85.104082,SO2,14,118,51
India,Odisha,Baripada,"Meher Colony, Baripada - OSPCB",13-04-2024 21:00:00,21.941841,86.728318,PM2.5,7,274,169
India,Odisha,Bhubaneswar,"Lingraj Mandir, Bhubaneswar - OSPCB",13-04-2024 21:00:00,20.240790,85.836784,OZONE,3,4,4
India,Odisha,Byasanagar,"Ferro Chrome Colony, Byasanagar - OSPCB",13-04-2024 21:00:00,20.94185,86.11510,PM2.5,57,277,125
India,Odisha,Byasanagar,"Ferro Chrome Colony, Byasanagar - OSPCB",13-04-2024 21:00:00,20.94185,86.11510,NO2,10,53,22
India,Odisha,Byasanagar,"Ferro Chrome Colony, Byasanagar - OSPCB",13-04-2024 21:00:00,20.94185,86.11510,CO,60,104,96
India,Odisha,Cuttack,"CDA Area, Cuttack - OSPCB",13-04-2024 21:00:00,20.48891     ,85.84768     ,NH3,2,2,2
India,Odisha,Cuttack,"CDA Area, Cuttack - OSPCB",13-04-2024 21:00:00,20.48891     ,85.84768     ,SO2,1,47,32
India,Odisha,Keonjhar,"Jagamohanpur, Keonjhar - OSPCB",13-04-2024 21:00:00,21.643900,85.599355,CO,12,79,54
India,Odisha,Nayagarh,"Dabuna, Nayagarh - OSPCB",13-04-2024 21:00:00,21.847279,85.416905,PM10,NA,NA,NA
India,Odisha,Nayagarh,"Dabuna, Nayagarh - OSPCB",13-04-2024 21:00:00,21.847279,85.416905,NH3,5,5,5
India,Odisha,Nayagarh,"Dabuna, Nayagarh - OSPCB",13-04-2024 21:00:00,21.847279,85.416905,SO2,4,17,8
India,Odisha,Rairangpur,"Divisional Forest Office, Rairangpur - OSPCB",13-04-2024 21:00:00,22.265816,86.174829,PM2.5,64,169,96
India,Odisha,Rairangpur,"Divisional Forest Office, Rairangpur - OSPCB",13-04-2024 21:00:00,22.265816,86.174829,CO,13,36,19
India,Odisha,Rairangpur,"Divisional Forest Office, Rairangpur - OSPCB",13-04-2024 21:00:00,22.265816,86.174829,OZONE,32,84,72
India,Odisha,Rourkela,"Raghunathpali, Rourkela - OSPCB",13-04-2024 21:00:00,22.220833,84.809444,PM10,65,166,120
India,Odisha,Rourkela,"Raghunathpali, Rourkela - OSPCB",13-04-2024 21:00:00,22.220833,84.809444,SO2,NA,NA,NA
India,Odisha,Rourkela,"Sector-2, Rourkela - OSPCB",13-04-2024 21:00:00,22.24500000,84.88111111,CO,12,59,25
India,Odisha,Suakati,"OMC Colony, Suakati - OSPCB",13-04-2024 21:00:00,21.606865,85.510538,NH3,2,5,4
India,Odisha,Talcher,"Talcher Coalfields,Talcher - OSPCB",13-04-2024 21:00:00,20.9360711,85.1707021,PM2.5,77,325,173
India,Odisha,Talcher,"Talcher Coalfields,Talcher - OSPCB",13-04-2024 21:00:00,20.9360711,85.1707021,NH3,3,4,3
India,Odisha,Talcher,"Talcher Coalfields,Talcher - OSPCB",13-04-2024 21:00:00,20.9360711,85.1707021,CO,42,123,71
India,Odisha,Tensa,"Barsua Iron Ore Mines, Tensa - OSPCB",13-04-2024 21:00:00,21.869985,85.167016,PM2.5,46,75,60
India,Odisha,Tensa,"Barsua Iron Ore Mines, Tensa - OSPCB",13-04-2024 21:00:00,21.869985,85.167016,PM10,60,96,72
India,Odisha,Tensa,"Barsua Iron Ore Mines, Tensa - OSPCB",13-04-2024 21:00:00,21.869985,85.167016,NO2,14,57,30
India,Punjab,Amritsar,"Golden Temple, Amritsar - PPCB",13-04-2024 21:00:00,31.620000,74.876512,PM10,80,113,95
India,Punjab,Amritsar,"Golden Temple, Amritsar - PPCB",13-04-2024 21:00:00,31.620000,74.876512,SO2,8,93,26
India,Punjab,Bathinda,"Hardev Nagar, Bathinda - PPCB",13-04-2024 21:00:00,30.233011,74.907758,PM10,71,182,124
India,Punjab,Khanna,"Kalal Majra, Khanna - PPCB",13-04-2024 21:00:00,30.736056 ,76.209694,PM2.5,48,123,80
India,Punjab,Ludhiana,"Punjab Agricultural University, Ludhiana - PPCB",13-04-2024 21:00:00,30.9028,75.8086,PM10,80,175,117
India,Punjab,Ludhiana,"Punjab Agricultural University, Ludhiana - PPCB",13-04-2024 21:00:00,30.9028,75.8086,CO,40,70,58
India,Punjab,Mandi Gobindgarh,"RIMT University, Mandi Gobindgarh - PPCB",13-04-2024 21:00:00,30.649961,76.331442,CO,12,47,24
India,Punjab,Patiala,"Model Town, Patiala - PPCB",13-04-2024 21:00:00,30.349388,76.366642,NO2,21,27,24
India,Punjab,Patiala,"Model Town, Patiala - PPCB",13-04-2024 21:00:00,30.349388,76.366642,SO2,3,104,33
India,Punjab,Patiala,"Model Town, Patiala - PPCB",13-04-2024 21:00:00,30.349388,76.366642,CO,26,50,32
India,Punjab,Patiala,"Model Town, Patiala - PPCB",13-04-2024 21:00:00,30.349388,76.366642,OZONE,29,106,66
India,Punjab,Rupnagar,"Ratanpura, Rupnagar - Ambuja Cements",13-04-2024 21:00:00,31.0325454,76.5623046,CO,19,67,27
India,Rajasthan,Ajmer,"Civil Lines,  Ajmer - RSPCB",13-04-2024 21:00:00,26.470859,74.646594,PM10,51,120,79
India,Rajasthan,Ajmer,"Civil Lines,  Ajmer - RSPCB",13-04-2024 21:00:00,26.470859,74.646594,NH3,5,6,5
India,Rajasthan,Ajmer,"Civil Lines,  Ajmer - RSPCB",13-04-2024 21:00:00,26.470859,74.646594,OZONE,39,113,67
India,Rajasthan,Alwar,"Moti Doongri, Alwar - RSPCB",13-04-2024 21:00:00,27.554793,76.611536,PM10,64,130,91
India,Rajasthan,Baran,"Bamboliya, Baran - RSPCB",13-04-2024 21:00:00,25.106006,76.469948,CO,20,30,25
India,Rajasthan,Barmer,"Railway Colony, Barmer - RSPCB",13-04-2024 21:00:00,25.747299,71.393989,NO2,8,24,12
India,Rajasthan,Barmer,"Railway Colony, Barmer - RSPCB",13-04-2024 21:00:00,25.747299,71.393989,NH3,7,19,13
India,Rajasthan,Bharatpur,"Krishna Nagar, Bharatpur - RSPCB",13-04-2024 21:00:00,27.215415,77.50873,NO2,19,91,44
India,Rajasthan,Bhilwara,"Pratap Nagar, Bhilwara - RSPCB",13-04-2024 21:00:00,25.339605,74.618883,NO2,13,120,29
India,Rajasthan,Bhilwara,"Pratap Nagar, Bhilwara - RSPCB",13-04-2024 21:00:00,25.339605,74.618883,OZONE,8,72,65
India,Rajasthan,Bhiwadi,"RIICO Ind. Area III, Bhiwadi - RSPCB",13-04-2024 21:00:00,28.194909,76.862296,PM10,108,287,185
India,Rajasthan,Bhiwadi,"RIICO Ind. Area III, Bhiwadi - RSPCB",13-04-2024 21:00:00,28.194909,76.862296,CO,18,145,59
India,Rajasthan,Bikaner,"MM Ground, Bikaner - RSPCB",13-04-2024 21:00:00,28.018792,73.292658,PM2.5,27,63,42
India,Rajasthan,Bikaner,"MM Ground, Bikaner - RSPCB",13-04-2024 21:00:00,28.018792,73.292658,NO2,25,79,43
India,Rajasthan,Bikaner,"MM Ground, Bikaner - RSPCB",13-04-2024 21:00:00,28.018792,73.292658,NH3,10,16,12
India,Rajasthan,Bundi,"New Colony, Bundi - RSPCB",13-04-2024 21:00:00,25.435774,75.644272,NO2,11,58,19
India,Rajasthan,Bundi,"New Colony, Bundi - RSPCB",13-04-2024 21:00:00,25.435774,75.644272,NH3,3,5,4
India,Rajasthan,Bundi,"New Colony, Bundi - RSPCB",13-04-2024 21:00:00,25.435774,75.644272,SO2,7,24,11
India,Rajasthan,Bundi,"New Colony, Bundi - RSPCB",13-04-2024 21:00:00,25.435774,75.644272,CO,16,48,26
India,Rajasthan,Bundi,"New Colony, Bundi - RSPCB",13-04-2024 21:00:00,25.435774,75.644272,OZONE,48,129,105
India,Rajasthan,Chittorgarh,"Shastri Nagar, Chittorgarh - RSPCB",13-04-2024 21:00:00,24.892047,74.623527,PM10,55,129,86
India,Rajasthan,Chittorgarh,"Shastri Nagar, Chittorgarh - RSPCB",13-04-2024 21:00:00,24.892047,74.623527,NO2,15,91,32
India,Rajasthan,Chittorgarh,"Shastri Nagar, Chittorgarh - RSPCB",13-04-2024 21:00:00,24.892047,74.623527,CO,2,50,8
India,Rajasthan,Chittorgarh,"Shastri Nagar, Chittorgarh - RSPCB",13-04-2024 21:00:00,24.892047,74.623527,OZONE,28,113,97
India,Rajasthan,Churu,"Subash Chowk, Churu - RSPCB",13-04-2024 21:00:00,28.296139,74.961696,PM2.5,27,103,55
India,Rajasthan,Churu,"Subash Chowk, Churu - RSPCB",13-04-2024 21:00:00,28.296139,74.961696,PM10,57,426,151
India,Rajasthan,Churu,"Subash Chowk, Churu - RSPCB",13-04-2024 21:00:00,28.296139,74.961696,NO2,14,123,44
India,Rajasthan,Churu,"Subash Chowk, Churu - RSPCB",13-04-2024 21:00:00,28.296139,74.961696,CO,8,95,16
India,Rajasthan,Dausa,"Khatikan Mohalla, Dausa - RSPCB",13-04-2024 21:00:00,26.895552,76.334753,NH3,4,11,6
India,Rajasthan,Dausa,"Khatikan Mohalla, Dausa - RSPCB",13-04-2024 21:00:00,26.895552,76.334753,OZONE,20,83,65
India,Rajasthan,Dholpur,"Raja Ganj, Dholpur - RSPCB",13-04-2024 21:00:00,26.699557,77.898881,PM10,59,177,112
India,Rajasthan,Dholpur,"Raja Ganj, Dholpur - RSPCB",13-04-2024 21:00:00,26.699557,77.898881,SO2,4,6,5
India,Rajasthan,Dholpur,"Raja Ganj, Dholpur - RSPCB",13-04-2024 21:00:00,26.699557,77.898881,OZONE,13,32,26
India,Rajasthan,Hanumangarh,"Housing Board, Hanumangarh - RSPCB",13-04-2024 21:00:00,29.610750,74.283608,NH3,6,16,11
India,Rajasthan,Hanumangarh,"Housing Board, Hanumangarh - RSPCB",13-04-2024 21:00:00,29.610750,74.283608,CO,43,75,61
India,Rajasthan,Jaipur,"Adarsh Nagar, Jaipur - RSPCB",13-04-2024 21:00:00,26.902909,75.836858,PM2.5,44,229,77
India,Rajasthan,Jaipur,"Police Commissionerate, Jaipur - RSPCB",13-04-2024 21:00:00,26.9164092,75.7994901,SO2,10,34,20
India,Rajasthan,Jaipur,"Police Commissionerate, Jaipur - RSPCB",13-04-2024 21:00:00,26.9164092,75.7994901,CO,10,72,31
India,Rajasthan,Jaipur,"RIICO Sitapura, Jaipur - RSPCB",13-04-2024 21:00:00,26.786682,75.827928,PM10,53,268,115
India,Rajasthan,Jaipur,"Sector-2 Murlipura, Jaipur - RSPCB",13-04-2024 21:00:00,26.960669,75.771817,NO2,24,72,39
India,Rajasthan,Jaipur,"Sector-2 Murlipura, Jaipur - RSPCB",13-04-2024 21:00:00,26.960669,75.771817,CO,52,69,57
India,Rajasthan,Jaipur,"Shastri Nagar, Jaipur - RSPCB",13-04-2024 21:00:00,26.9502929,75.730943,PM10,73,341,119
India,Rajasthan,Jaisalmer,"Sadar Bazar, Jaisalmer - RSPCB",13-04-2024 21:00:00,26.912329,70.909168,SO2,3,8,4
India,Rajasthan,Jhalawar,"Rajlaxmi Nagar, Jhalawar - RSPCB",13-04-2024 21:00:00,24.588397,76.172782,PM10,36,114,60
India,Rajasthan,Jhalawar,"Rajlaxmi Nagar, Jhalawar - RSPCB",13-04-2024 21:00:00,24.588397,76.172782,NO2,15,27,18
India,Rajasthan,Jhalawar,"Rajlaxmi Nagar, Jhalawar - RSPCB",13-04-2024 21:00:00,24.588397,76.172782,NH3,4,6,5
India,Rajasthan,Jhalawar,"Rajlaxmi Nagar, Jhalawar - RSPCB",13-04-2024 21:00:00,24.588397,76.172782,SO2,3,46,10
India,Rajasthan,Jhalawar,"Rajlaxmi Nagar, Jhalawar - RSPCB",13-04-2024 21:00:00,24.588397,76.172782,CO,22,30,25
India,Rajasthan,Jhunjhunu,"Indra Nagar, Jhunjhunu - RSPCB",13-04-2024 21:00:00,28.108988,75.386577,PM2.5,33,187,77
India,Rajasthan,Jhunjhunu,"Indra Nagar, Jhunjhunu - RSPCB",13-04-2024 21:00:00,28.108988,75.386577,SO2,3,10,6
India,Rajasthan,Jodhpur,"Collectorate, Jodhpur - RSPCB",13-04-2024 21:00:00,26.268249,73.0193853,SO2,3,14,9
India,Rajasthan,Jodhpur,"Digari Kalan, Jodhpur - RSPCB",13-04-2024 21:00:00,26.295810,73.082283,SO2,4,10,6
India,Rajasthan,Jodhpur,"Jhalamand, Jodhpur - RSPCB",13-04-2024 21:00:00,26.215415,73.070156,OZONE,46,88,84
India,Rajasthan,Jodhpur,"Mandor, Jodhpur - RSPCB",13-04-2024 21:00:00,26.358805,73.047444,SO2,3,45,7
India,Rajasthan,Jodhpur,"Samrat Ashok Udhyan, Jodhpur - RSPCB",13-04-2024 21:00:00,26.253384,72.976571,PM10,74,381,135
India,Rajasthan,Jodhpur,"Samrat Ashok Udhyan, Jodhpur - RSPCB",13-04-2024 21:00:00,26.253384,72.976571,NO2,5,43,18
India,Rajasthan,Jodhpur,"Samrat Ashok Udhyan, Jodhpur - RSPCB",13-04-2024 21:00:00,26.253384,72.976571,SO2,5,18,10
India,Rajasthan,Karauli,"Satyawati Vihar, Karauli - RSPCB",13-04-2024 21:00:00,26.506177,77.025989,OZONE,45,128,111
India,Rajasthan,Kota,"Dhanmandi, Kota - RSPCB",13-04-2024 21:00:00,25.164090,75.858137,NO2,5,112,29
India,Rajasthan,Kota,"Shrinath Puram, Kota - RSPCB",13-04-2024 21:00:00,25.14389,75.821256,OZONE,18,80,65
India,Rajasthan,Nagaur,"Karni Colony, Nagaur - RSPCB",13-04-2024 21:00:00,27.213494,73.734444,PM2.5,25,350,164
India,Rajasthan,Nagaur,"Karni Colony, Nagaur - RSPCB",13-04-2024 21:00:00,27.213494,73.734444,SO2,2,11,6
India,Rajasthan,Pali,"Indira Colony Vistar, Pali - RSPCB",13-04-2024 21:00:00,25.771061, 73.340227,PM10,69,227,107
India,Rajasthan,Pali,"Indira Colony Vistar, Pali - RSPCB",13-04-2024 21:00:00,25.771061, 73.340227,SO2,7,11,9
India,Rajasthan,Pratapgarh,"Pragati Nagar, Pratapgarh - RSPCB",13-04-2024 21:00:00,24.041198,74.780702,NH3,5,8,6
India,Rajasthan,Pratapgarh,"Pragati Nagar, Pratapgarh - RSPCB",13-04-2024 21:00:00,24.041198,74.780702,OZONE,40,123,107
India,Rajasthan,Rajsamand,"Dhoinda, Rajsamand - RSPCB",13-04-2024 21:00:00,25.036360,73.883502,NO2,4,28,17
India,Rajasthan,Sawai Madhopur,"Sahu Nagar, Sawai Madhopur - RSPCB",13-04-2024 21:00:00,26.031443,76.359327,NH3,4,15,10
India,Rajasthan,Sikar,"Radhakishan Pura, Sikar - RSPCB",13-04-2024 21:00:00,27.608912,75.153302,OZONE,39,151,101
India,Rajasthan,Sri Ganganagar,"Old City, Sri Ganganagar - RSPCB",13-04-2024 21:00:00,29.931624,73.864511,PM10,53,500,267
India,Rajasthan,Udaipur,"Ashok Nagar, Udaipur - RSPCB",13-04-2024 21:00:00,24.5886166,73.6321397,OZONE,6,67,59
India,Sikkim,Gangtok,"Zero Point GICI, Gangtok - SSPCB",13-04-2024 21:00:00,27.338530,88.614099,NO2,1,5,1
India,Sikkim,Gangtok,"Zero Point GICI, Gangtok - SSPCB",13-04-2024 21:00:00,27.338530,88.614099,NH3,1,1,1
India,TamilNadu,Ariyalur,"Keelapalur, Ariyalur - TNPCB",13-04-2024 21:00:00,11.06825,79.07033,PM10,NA,NA,NA
India,TamilNadu,Ariyalur,"Keelapalur, Ariyalur - TNPCB",13-04-2024 21:00:00,11.06825,79.07033,NO2,NA,NA,NA
India,TamilNadu,Chennai,"Alandur Bus Depot, Chennai - CPCB",13-04-2024 21:00:00,12.9099161,80.1076538,PM2.5,33,55,39
India,TamilNadu,Chennai,"Alandur Bus Depot, Chennai - CPCB",13-04-2024 21:00:00,12.9099161,80.1076538,NO2,6,19,10
India,TamilNadu,Chennai,"Alandur Bus Depot, Chennai - CPCB",13-04-2024 21:00:00,12.9099161,80.1076538,NH3,1,39,8
India,TamilNadu,Chennai,"Alandur Bus Depot, Chennai - CPCB",13-04-2024 21:00:00,12.9099161,80.1076538,CO,64,107,73
India,TamilNadu,Chennai,"Arumbakkam, Chennai - TNPCB",13-04-2024 21:00:00,13.0664,80.2112 ,PM10,22,83,45
India,TamilNadu,Chennai,"Kodungaiyur, Chennai - TNPCB",13-04-2024 21:00:00,13.1278,80.2642,PM2.5,NA,NA,NA
India,TamilNadu,Chennai,"Kodungaiyur, Chennai - TNPCB",13-04-2024 21:00:00,13.1278,80.2642,CO,20,39,32
India,TamilNadu,Chennai,"Manali, Chennai - CPCB",13-04-2024 21:00:00,13.164544,80.26285,PM10,32,96,62
India,TamilNadu,Chennai,"Perungudi, Chennai - TNPCB",13-04-2024 21:00:00,12.9533,80.2357,PM2.5,19,67,33
India,TamilNadu,Chennai,"Perungudi, Chennai - TNPCB",13-04-2024 21:00:00,12.9533,80.2357,PM10,23,100,52
India,TamilNadu,Chennai,"Perungudi, Chennai - TNPCB",13-04-2024 21:00:00,12.9533,80.2357,NO2,3,16,5
India,TamilNadu,Chennai,"Perungudi, Chennai - TNPCB",13-04-2024 21:00:00,12.9533,80.2357,NH3,2,4,2
India,TamilNadu,Chennai,"Royapuram, Chennai - TNPCB",13-04-2024 21:00:00,13.1036,80.2909,NO2,9,24,16
India,TamilNadu,Chennai,"Royapuram, Chennai - TNPCB",13-04-2024 21:00:00,13.1036,80.2909,CO,18,35,28
India,TamilNadu,Cuddalore,"Kudikadu, Cuddalore - TNPCB",13-04-2024 21:00:00,11.6829898,79.7532099,NO2,3,5,4
India,TamilNadu,Gummidipoondi,"Anthoni Pillai Nagar, Gummidipoondi - TNPCB",13-04-2024 21:00:00,13.4127,80.1081,PM2.5,28,317,89
India,TamilNadu,Gummidipoondi,"Anthoni Pillai Nagar, Gummidipoondi - TNPCB",13-04-2024 21:00:00,13.4127,80.1081,SO2,3,77,20
India,TamilNadu,Ooty,"Bombay Castel, Ooty - TNPCB",13-04-2024 21:00:00,11.4068288,76.7138973,PM2.5,NA,NA,NA
India,TamilNadu,Ramanathapuram,"Chalai Bazaar, Ramanathapuram - TNPCB",13-04-2024 21:00:00,9.36399,78.831977,OZONE,13,14,14
India,TamilNadu,Thoothukudi,"Meelavittan, Thoothukudi - TNPCB",13-04-2024 21:00:00,8.816428 ,78.099039,SO2,NA,NA,NA
India,TamilNadu,Tirupur,"Kumaran College, Tirupur - TNPCB",13-04-2024 21:00:00,11.0973603,77.3228673,OZONE,7,7,7
India,TamilNadu,Vellore,"Vasanthapuram, Vellore - TNPCB",13-04-2024 21:00:00,12.909494,79.131861,PM2.5,NA,NA,NA
India,TamilNadu,Vellore,"Vasanthapuram, Vellore - TNPCB",13-04-2024 21:00:00,12.909494,79.131861,NH3,NA,NA,NA
India,TamilNadu,Virudhunagar,"Collectorate Office, Virudhunagar - TNPCB",13-04-2024 21:00:00,9.559382,77.948828,PM10,7,90,33
India,TamilNadu,Virudhunagar,"Collectorate Office, Virudhunagar - TNPCB",13-04-2024 21:00:00,9.559382,77.948828,NH3,6,6,6
India,Telangana,Hyderabad,"Bollaram Industrial Area, Hyderabad - TSPCB",13-04-2024 21:00:00,17.540891,78.358528,PM2.5,31,70,45
India,Telangana,Hyderabad,"Bollaram Industrial Area, Hyderabad - TSPCB",13-04-2024 21:00:00,17.540891,78.358528,PM10,27,86,54
India,Telangana,Hyderabad,"Bollaram Industrial Area, Hyderabad - TSPCB",13-04-2024 21:00:00,17.540891,78.358528,SO2,13,26,16
India,Telangana,Hyderabad,"Central University, Hyderabad - TSPCB",13-04-2024 21:00:00,17.460103,78.334361,PM2.5,15,43,26
India,Telangana,Hyderabad,"Central University, Hyderabad - TSPCB",13-04-2024 21:00:00,17.460103,78.334361,NO2,21,31,26
India,Telangana,Hyderabad,"Central University, Hyderabad - TSPCB",13-04-2024 21:00:00,17.460103,78.334361,NH3,4,5,4
India,Telangana,Hyderabad,"Central University, Hyderabad - TSPCB",13-04-2024 21:00:00,17.460103,78.334361,CO,14,38,27
India,Telangana,Hyderabad,"ECIL Kapra, Hyderabad - TSPCB",13-04-2024 21:00:00,17.470431,78.566959,OZONE,21,62,52
India,Telangana,Hyderabad,"ICRISAT Patancheru, Hyderabad - TSPCB",13-04-2024 21:00:00,17.518400,78.278777,NH3,2,2,2
India,Telangana,Hyderabad,"ICRISAT Patancheru, Hyderabad - TSPCB",13-04-2024 21:00:00,17.518400,78.278777,SO2,10,46,21
India,Telangana,Hyderabad,"ICRISAT Patancheru, Hyderabad - TSPCB",13-04-2024 21:00:00,17.518400,78.278777,CO,30,69,45
India,Telangana,Hyderabad,"Kompally Municipal Office, Hyderabad - TSPCB",13-04-2024 21:00:00,17.544899,78.486949,PM2.5,NA,NA,NA
India,Telangana,Hyderabad,"Nacharam_TSIIC IALA, Hyderabad - TSPCB",13-04-2024 21:00:00,17.429398,78.569354,OZONE,45,69,51
India,Telangana,Hyderabad,"New Malakpet, Hyderabad - TSPCB",13-04-2024 21:00:00,17.37206,78.50864,NO2,13,31,21
India,Telangana,Hyderabad,"Ramachandrapuram, Hyderabad - TSPCB",13-04-2024 21:00:00,17.528544,78.286195,PM10,77,93,86
India,Telangana,Hyderabad,"Sanathnagar, Hyderabad - TSPCB",13-04-2024 21:00:00,17.4559458,78.4332152,PM2.5,37,65,51
India,Telangana,Hyderabad,"Sanathnagar, Hyderabad - TSPCB",13-04-2024 21:00:00,17.4559458,78.4332152,SO2,4,8,6
India,Telangana,Hyderabad,"Zoo Park, Hyderabad - TSPCB",13-04-2024 21:00:00,17.349694,78.451437,PM10,34,156,118
India,Telangana,Hyderabad,"Zoo Park, Hyderabad - TSPCB",13-04-2024 21:00:00,17.349694,78.451437,CO,30,79,53
India,Telangana,Hyderabad,"Zoo Park, Hyderabad - TSPCB",13-04-2024 21:00:00,17.349694,78.451437,OZONE,17,66,28
India,Uttar_Pradesh,Agra,"Manoharpur, Agra - UPPCB",13-04-2024 21:00:00,27.23711,78.01936,NH3,3,3,3
India,Uttar_Pradesh,Agra,"Sanjay Palace, Agra - UPPCB",13-04-2024 21:00:00,27.19865833,78.00598056,OZONE,37,79,55
India,Uttar_Pradesh,Agra,"Shahjahan Garden, Agra - UPPCB",13-04-2024 21:00:00,27.169338,78.03582,PM2.5,20,53,35
India,Uttar_Pradesh,Agra,"Shahjahan Garden, Agra - UPPCB",13-04-2024 21:00:00,27.169338,78.03582,NO2,24,26,25
India,Uttar_Pradesh,Agra,"Shahjahan Garden, Agra - UPPCB",13-04-2024 21:00:00,27.169338,78.03582,SO2,29,48,39
India,Uttar_Pradesh,Agra,"Shastripuram, Agra - UPPCB",13-04-2024 21:00:00,27.19862,77.92066,PM2.5,5,59,33
India,Uttar_Pradesh,Baghpat,"Sardar Patel Inter College, Baghpat - UPPCB",13-04-2024 21:00:00,28.964949,77.278761,NO2,21,95,44
India,Uttar_Pradesh,Bareilly,"Civil Lines, Bareilly - UPPCB",13-04-2024 21:00:00,28.359581,79.414455,PM2.5,4,19,8
India,Uttar_Pradesh,Bareilly,"Rajendra Nagar, Bareilly - UPPCB",13-04-2024 21:00:00,28.38910936,79.42963708,NO2,2,2,2
India,Uttar_Pradesh,Bulandshahr,"Yamunapuram, Bulandshahr - UPPCB",13-04-2024 21:00:00,28.406963,77.849831,PM10,82,297,131
India,Uttar_Pradesh,Bulandshahr,"Yamunapuram, Bulandshahr - UPPCB",13-04-2024 21:00:00,28.406963,77.849831,OZONE,15,93,71
India,Uttar_Pradesh,Firozabad,"Nagla Bhau, Firozabad - UPPCB",13-04-2024 21:00:00,27.168897,78.376960,PM2.5,14,112,38
India,Uttar_Pradesh,Firozabad,"Nagla Bhau, Firozabad - UPPCB",13-04-2024 21:00:00,27.168897,78.376960,NH3,2,2,2
India,Uttar_Pradesh,Ghaziabad,"Indirapuram, Ghaziabad - UPPCB",13-04-2024 21:00:00,28.646233,77.358075,PM10,121,446,199
India,Uttar_Pradesh,Ghaziabad,"Indirapuram, Ghaziabad - UPPCB",13-04-2024 21:00:00,28.646233,77.358075,NO2,48,92,65
India,Uttar_Pradesh,Ghaziabad,"Indirapuram, Ghaziabad - UPPCB",13-04-2024 21:00:00,28.646233,77.358075,CO,8,74,34
India,Uttar_Pradesh,Ghaziabad,"Loni, Ghaziabad - UPPCB",13-04-2024 21:00:00,28.757294,77.278792,PM10,103,423,191
India,Uttar_Pradesh,Ghaziabad,"Sanjay Nagar, Ghaziabad - UPPCB",13-04-2024 21:00:00,28.685382,77.453839,OZONE,6,104,78
India,Uttar_Pradesh,Ghaziabad,"Vasundhara, Ghaziabad - UPPCB",13-04-2024 21:00:00,28.6603346,77.3572563,PM10,78,232,119
India,Uttar_Pradesh,Ghaziabad,"Vasundhara, Ghaziabad - UPPCB",13-04-2024 21:00:00,28.6603346,77.3572563,NO2,10,118,54
India,Uttar_Pradesh,Gorakhpur,"Madan Mohan Malaviya University of Technology, Gorakhpur - UPPCB",13-04-2024 21:00:00,26.730136,83.433859,PM2.5,52,287,162
India,Uttar_Pradesh,Greater Noida,"Knowledge Park - V, Greater Noida - UPPCB",13-04-2024 21:00:00,28.557054,77.453663,PM2.5,42,343,207
India,Uttar_Pradesh,Greater Noida,"Knowledge Park - V, Greater Noida - UPPCB",13-04-2024 21:00:00,28.557054,77.453663,NO2,27,54,39
India,Uttar_Pradesh,Greater Noida,"Knowledge Park - V, Greater Noida - UPPCB",13-04-2024 21:00:00,28.557054,77.453663,OZONE,3,167,113
India,Uttar_Pradesh,Hapur,"Anand Vihar, Hapur - UPPCB",13-04-2024 21:00:00,28.725645,77.749675,PM10,72,244,130
India,Uttar_Pradesh,Jhansi,"Shivaji Nagar, Jhansi - UPPCB",13-04-2024 21:00:00,25.4547,78.6039,PM10,2,51,21
India,Uttar_Pradesh,Kanpur,"FTI Kidwai Nagar, Kanpur - UPPCB",13-04-2024 21:00:00,26.428282,80.327067,PM10,NA,NA,NA
India,Uttar_Pradesh,Kanpur,"NSI Kalyanpur, Kanpur - UPPCB",13-04-2024 21:00:00,26.509954,80.249612,PM10,55,123,77
India,Uttar_Pradesh,Kanpur,"NSI Kalyanpur, Kanpur - UPPCB",13-04-2024 21:00:00,26.509954,80.249612,NO2,13,14,14
India,Uttar_Pradesh,Kanpur,"NSI Kalyanpur, Kanpur - UPPCB",13-04-2024 21:00:00,26.509954,80.249612,SO2,18,80,25
India,Uttar_Pradesh,Kanpur,"Nehru Nagar, Kanpur - UPPCB",13-04-2024 21:00:00,26.4703136,80.3229863,CO,38,66,56
India,Uttar_Pradesh,Khurja,"Kalindi Kunj, Khurja - UPPCB",13-04-2024 21:00:00,28.2348927,77.8683002,SO2,45,70,54
India,Uttar_Pradesh,Lucknow,"B R Ambedkar University, Lucknow - UPPCB",13-04-2024 21:00:00,26.766433,80.927299,NO2,11,12,11
India,Uttar_Pradesh,Lucknow,"B R Ambedkar University, Lucknow - UPPCB",13-04-2024 21:00:00,26.766433,80.927299,SO2,31,36,33
India,Uttar_Pradesh,Lucknow,"B R Ambedkar University, Lucknow - UPPCB",13-04-2024 21:00:00,26.766433,80.927299,OZONE,5,86,68
India,Uttar_Pradesh,Lucknow,"Kendriya Vidyalaya, Lucknow - CPCB",13-04-2024 21:00:00,26.906111,80.948222,CO,23,74,38
India,Uttar_Pradesh,Lucknow,"Kendriya Vidyalaya, Lucknow - CPCB",13-04-2024 21:00:00,26.906111,80.948222,OZONE,8,87,61
India,Uttar_Pradesh,Lucknow,"Kukrail Picnic Spot-1, Lucknow - UPPCB",13-04-2024 21:00:00,26.90723,80.98579,PM2.5,36,149,69
India,Uttar_Pradesh,Lucknow,"Kukrail Picnic Spot-1, Lucknow - UPPCB",13-04-2024 21:00:00,26.90723,80.98579,SO2,24,27,26
India,Uttar_Pradesh,Lucknow,"Kukrail Picnic Spot-1, Lucknow - UPPCB",13-04-2024 21:00:00,26.90723,80.98579,OZONE,1,44,37
India,Uttar_Pradesh,Lucknow,"Lalbagh, Lucknow - CPCB",13-04-2024 21:00:00,26.8458805,80.9365541,NO2,1,14,7
India,Uttar_Pradesh,Lucknow,"Lalbagh, Lucknow - CPCB",13-04-2024 21:00:00,26.8458805,80.9365541,NH3,27,32,29
India,Uttar_Pradesh,Lucknow,"Talkatora District Industries Center, Lucknow - CPCB",13-04-2024 21:00:00,26.83399722,80.8917361,SO2,1,11,4
India,Uttar_Pradesh,Meerut,"Ganga Nagar, Meerut - UPPCB",13-04-2024 21:00:00,28.999264,77.7590354,OZONE,34,167,134
India,Uttar_Pradesh,Meerut,"Pallavpuram Phase 2, Meerut - UPPCB",13-04-2024 21:00:00,29.063510,77.709723,OZONE,20,112,93
India,Uttar_Pradesh,Moradabad,"Buddhi Vihar, Moradabad - UPPCB",13-04-2024 21:00:00,28.83526,78.74460,PM10,50,168,117
India,Uttar_Pradesh,Moradabad,"Buddhi Vihar, Moradabad - UPPCB",13-04-2024 21:00:00,28.83526,78.74460,NO2,23,23,23
India,Uttar_Pradesh,Moradabad,"Buddhi Vihar, Moradabad - UPPCB",13-04-2024 21:00:00,28.83526,78.74460,NH3,2,2,2
India,Uttar_Pradesh,Moradabad,"Employment Office, Moradabad - UPPCB",13-04-2024 21:00:00,28.88528,78.73880,SO2,29,63,35
India,Uttar_Pradesh,Moradabad,"Kashiram Nagar, Moradabad - UPPCB",13-04-2024 21:00:00,28.849399,78.742362,PM10,61,194,120
India,Uttar_Pradesh,Moradabad,"Kashiram Nagar, Moradabad - UPPCB",13-04-2024 21:00:00,28.849399,78.742362,NH3,4,4,4
India,Uttar_Pradesh,Moradabad,"Kashiram Nagar, Moradabad - UPPCB",13-04-2024 21:00:00,28.849399,78.742362,SO2,35,47,39
India,Uttar_Pradesh,Moradabad,"Kashiram Nagar, Moradabad - UPPCB",13-04-2024 21:00:00,28.849399,78.742362,CO,24,90,37
India,Uttar_Pradesh,Moradabad,"Kashiram Nagar, Moradabad - UPPCB",13-04-2024 21:00:00,28.849399,78.742362,OZONE,17,119,75
India,Uttar_Pradesh,Noida,"Sector-1, Noida - UPPCB",13-04-2024 21:00:00,28.5898,77.3101,PM2.5,40,282,142
India,Uttar_Pradesh,Noida,"Sector-1, Noida - UPPCB",13-04-2024 21:00:00,28.5898,77.3101,SO2,7,27,16
India,Uttar_Pradesh,Noida,"Sector-1, Noida - UPPCB",13-04-2024 21:00:00,28.5898,77.3101,OZONE,2,172,124
India,Uttar_Pradesh,Noida,"Sector-116, Noida - UPPCB",13-04-2024 21:00:00,28.569230,77.393848,CO,23,103,67
India,Uttar_Pradesh,Prayagraj,"Jhunsi, Prayagraj - UPPCB",13-04-2024 21:00:00,25.425602,81.917152,PM2.5,14,89,30
India,Uttar_Pradesh,Prayagraj,"Jhunsi, Prayagraj - UPPCB",13-04-2024 21:00:00,25.425602,81.917152,CO,6,109,37
India,Uttar_Pradesh,Prayagraj,"Motilal Nehru NIT, Prayagraj - UPPCB",13-04-2024 21:00:00,25.494,81.863,NO2,12,12,12
India,Uttar_Pradesh,Prayagraj,"Motilal Nehru NIT, Prayagraj - UPPCB",13-04-2024 21:00:00,25.494,81.863,CO,5,26,12
India,Uttar_Pradesh,Varanasi,"Ardhali Bazar, Varanasi - UPPCB",13-04-2024 21:00:00,25.3505986,82.9083074,NO2,17,37,25
India,Uttar_Pradesh,Varanasi,"Ardhali Bazar, Varanasi - UPPCB",13-04-2024 21:00:00,25.3505986,82.9083074,CO,10,22,19
India,Uttar_Pradesh,Varanasi,"Bhelupur, Varanasi - UPPCB",13-04-2024 21:00:00,25.301778,82.996789,NH3,1,2,2
India,Uttar_Pradesh,Varanasi,"IESD Banaras Hindu University, Varanasi - UPPCB",13-04-2024 21:00:00,25.262326,82.995408,PM2.5,NA,NA,NA
India,Uttar_Pradesh,Varanasi,"IESD Banaras Hindu University, Varanasi - UPPCB",13-04-2024 21:00:00,25.262326,82.995408,CO,5,17,9
India,Uttar_Pradesh,Varanasi,"Maldahiya, Varanasi - UPPCB",13-04-2024 21:00:00,25.32393,82.99687,PM10,15,59,28
India,Uttar_Pradesh,Varanasi,"Maldahiya, Varanasi - UPPCB",13-04-2024 21:00:00,25.32393,82.99687,NH3,1,3,1
India,Uttar_Pradesh,Vrindavan,"Omex Eternity, Vrindavan - UPPCB",13-04-2024 21:00:00,27.5714090,77.6557570,PM2.5,16,54,29
India,Uttar_Pradesh,Vrindavan,"Omex Eternity, Vrindavan - UPPCB",13-04-2024 21:00:00,27.5714090,77.6557570,NO2,2,3,3
India,Uttar_Pradesh,Vrindavan,"Omex Eternity, Vrindavan - UPPCB",13-04-2024 21:00:00,27.5714090,77.6557570,NH3,1,3,2
India,Uttarakhand,Kashipur,"Govt. Girls Inter College, Kashipur - UKPCB",13-04-2024 21:00:00,29.2124114,78.9611753,CO,20,85,40
India,Uttarakhand,Kashipur,"Govt. Girls Inter College, Kashipur - UKPCB",13-04-2024 21:00:00,29.2124114,78.9611753,OZONE,11,86,69
India,West_Bengal,Asansol,"Asansol Court Area, Asansol - WBPCB",13-04-2024 21:00:00,23.685297,86.945968,OZONE,12,28,26
India,West_Bengal,Barrackpore,"SVSPA Campus, Barrackpore - WBPCB",13-04-2024 21:00:00,22.7605581,88.3617589,NO2,10,47,23
India,West_Bengal,Barrackpore,"SVSPA Campus, Barrackpore - WBPCB",13-04-2024 21:00:00,22.7605581,88.3617589,NH3,3,6,4
India,West_Bengal,Barrackpore,"SVSPA Campus, Barrackpore - WBPCB",13-04-2024 21:00:00,22.7605581,88.3617589,SO2,8,24,13
India,West_Bengal,Haldia,"Priyambada Housing Estate, Haldia - WBPCB",13-04-2024 21:00:00,22.06047,88.109737,NO2,17,75,27
India,West_Bengal,Howrah,"Ghusuri, Howrah - WBPCB",13-04-2024 21:00:00,22.611968,88.347422,OZONE,11,32,25
India,West_Bengal,Howrah,"Padmapukur, Howrah - WBPCB",13-04-2024 21:00:00,22.5687319,88.2797276,SO2,14,53,28
India,West_Bengal,Howrah,"Padmapukur, Howrah - WBPCB",13-04-2024 21:00:00,22.5687319,88.2797276,OZONE,26,97,75
India,West_Bengal,Kolkata,"Ballygunge, Kolkata - WBPCB",13-04-2024 21:00:00,22.5367507,88.3638022,NO2,16,88,42
India,West_Bengal,Kolkata,"Ballygunge, Kolkata - WBPCB",13-04-2024 21:00:00,22.5367507,88.3638022,NH3,6,10,8
India,West_Bengal,Kolkata,"Bidhannagar, Kolkata - WBPCB",13-04-2024 21:00:00,22.58157048,88.41002457,PM2.5,61,96,80
India,West_Bengal,Kolkata,"Fort William, Kolkata - WBPCB",13-04-2024 21:00:00,22.556640,88.342674,PM2.5,89,128,99
India,West_Bengal,Kolkata,"Jadavpur, Kolkata - WBPCB",13-04-2024 21:00:00,22.49929,88.36917,NH3,1,2,2
India,West_Bengal,Kolkata,"Rabindra Bharati University, Kolkata - WBPCB",13-04-2024 21:00:00,22.627847,88.380669,NH3,16,19,17
India,West_Bengal,Kolkata,"Rabindra Bharati University, Kolkata - WBPCB",13-04-2024 21:00:00,22.627847,88.380669,OZONE,6,107,82
India,West_Bengal,Kolkata,"Rabindra Sarobar, Kolkata - WBPCB",13-04-2024 21:00:00,22.51106,88.35142,NO2,12,69,38
India,West_Bengal,Kolkata,"Victoria, Kolkata - WBPCB",13-04-2024 21:00:00,22.5448082,88.3403691,NO2,5,10,8
India,West_Bengal,Kolkata,"Victoria, Kolkata - WBPCB",13-04-2024 21:00:00,22.5448082,88.3403691,CO,72,104,79
India,West_Bengal,Kolkata,"Victoria, Kolkata - WBPCB",13-04-2024 21:00:00,22.5448082,88.3403691,OZONE,9,86,66
India,West_Bengal,Siliguri,"Ward-32 Bapupara, Siliguri - WBPCB",13-04-2024 21:00:00,26.6879226,88.4152495,CO,18,62,38
India,Andhra_Pradesh,Amaravati,"Secretariat, Amaravati - APPCB",13-04-2024 21:00:00,16.5150833,80.5181667,OZONE,19,56,41
India,Andhra_Pradesh,Chittoor,"Gangineni Cheruvu, Chittoor - APPCB",13-04-2024 21:00:00,13.204880,79.097889,PM2.5,18,312,74
India,Andhra_Pradesh,Chittoor,"Gangineni Cheruvu, Chittoor - APPCB",13-04-2024 21:00:00,13.204880,79.097889,OZONE,54,98,93
India,Andhra_Pradesh,Kadapa,"Yerramukkapalli, Kadapa - APPCB",13-04-2024 21:00:00,14.465052,78.824187,PM10,NA,NA,NA
India,Andhra_Pradesh,Kadapa,"Yerramukkapalli, Kadapa - APPCB",13-04-2024 21:00:00,14.465052,78.824187,NO2,NA,NA,NA
India,Andhra_Pradesh,Kadapa,"Yerramukkapalli, Kadapa - APPCB",13-04-2024 21:00:00,14.465052,78.824187,SO2,NA,NA,NA
India,Andhra_Pradesh,Rajamahendravaram,"Anand Kala Kshetram, Rajamahendravaram - APPCB",13-04-2024 21:00:00,16.9872867,81.7363176,PM2.5,49,91,62
India,Andhra_Pradesh,Tirupati,"Tirumala, Tirupati - APPCB",13-04-2024 21:00:00,13.67,79.35,PM10,31,92,53
India,Andhra_Pradesh,Tirupati,"Tirumala, Tirupati - APPCB",13-04-2024 21:00:00,13.67,79.35,NO2,20,36,27
India,Andhra_Pradesh,Tirupati,"Tirumala, Tirupati - APPCB",13-04-2024 21:00:00,13.67,79.35,NH3,1,1,1
India,Andhra_Pradesh,Vijayawada,"HB Colony, Vijayawada - APPCB",13-04-2024 21:00:00,16.536107,80.594233,NO2,3,27,9
India,Andhra_Pradesh,Vijayawada,"Rajiv Nagar, Vijayawada - APPCB",13-04-2024 21:00:00,16.554731,80.649110,PM10,59,90,65
India,Andhra_Pradesh,Vijayawada,"Rajiv Nagar, Vijayawada - APPCB",13-04-2024 21:00:00,16.554731,80.649110,CO,40,40,40
India,Andhra_Pradesh,Vijayawada,"Rajiv Nagar, Vijayawada - APPCB",13-04-2024 21:00:00,16.554731,80.649110,OZONE,5,26,14
India,Andhra_Pradesh,Visakhapatnam,"GVM Corporation, Visakhapatnam - APPCB",13-04-2024 21:00:00,17.72,83.3,NO2,7,92,34
India,Arunachal_Pradesh,Naharlagun,"Naharlagun, Naharlagun - APSPCB",13-04-2024 21:00:00,27.103358,93.679645,SO2,4,4,4
India,Arunachal_Pradesh,Naharlagun,"Naharlagun, Naharlagun - APSPCB",13-04-2024 21:00:00,27.103358,93.679645,CO,14,28,18
India,Assam,Byrnihat,"Central Academy for SFS, Byrnihat - PCBA",13-04-2024 21:00:00,26.071318,91.87488,NO2,49,133,80
India,Assam,Guwahati,"LGBI Airport, Guwahati - PCBA",13-04-2024 21:00:00,26.10887,91.589544,NO2,24,107,58
India,Assam,Guwahati,"LGBI Airport, Guwahati - PCBA",13-04-2024 21:00:00,26.10887,91.589544,OZONE,2,23,8
India,Assam,Guwahati,"Pan Bazaar, Guwahati - PCBA",13-04-2024 21:00:00,26.187500,91.744194,SO2,33,60,42
India,Assam,Nagaon,"Christianpatty, Nagaon - PCBA",13-04-2024 21:00:00,26.349082,92.68449,PM2.5,67,167,91
India,Assam,Nagaon,"Christianpatty, Nagaon - PCBA",13-04-2024 21:00:00,26.349082,92.68449,NO2,3,57,15
India,Assam,Nalbari,"Bata Chowk, Nalbari - PCBA",13-04-2024 21:00:00,26.446912,91.439057,SO2,1,3,2
India,Assam,Nalbari,"Bata Chowk, Nalbari - PCBA",13-04-2024 21:00:00,26.446912,91.439057,OZONE,46,188,132
India,Assam,Sivasagar,"Girls College, Sivasagar - PCBA",13-04-2024 21:00:00,26.987634,94.636574,PM2.5,35,48,41
India,Assam,Sivasagar,"Girls College, Sivasagar - PCBA",13-04-2024 21:00:00,26.987634,94.636574,NO2,15,24,19
India,Assam,Sivasagar,"Girls College, Sivasagar - PCBA",13-04-2024 21:00:00,26.987634,94.636574,OZONE,1,8,6
India,Bihar,Araria,"Kharahiya Basti, Araria - BSPCB",13-04-2024 21:00:00,26.146529,87.454184,PM2.5,51,309,110
India,Bihar,Araria,"Kharahiya Basti, Araria - BSPCB",13-04-2024 21:00:00,26.146529,87.454184,NO2,6,8,7
India,Bihar,Araria,"Kharahiya Basti, Araria - BSPCB",13-04-2024 21:00:00,26.146529,87.454184,OZONE,8,11,11
India,Bihar,Arrah,"New DM Office, Arrah - BSPCB",13-04-2024 21:00:00,25.5626095,84.663264,CO,6,18,11
India,Bihar,Aurangabad,"Gurdeo Nagar, Aurangabad - BSPCB",13-04-2024 21:00:00,24.75746,84.366208,PM10,26,115,61
India,Bihar,Aurangabad,"Gurdeo Nagar, Aurangabad - BSPCB",13-04-2024 21:00:00,24.75746,84.366208,NH3,3,7,6
India,Bihar,Aurangabad,"Gurdeo Nagar, Aurangabad - BSPCB",13-04-2024 21:00:00,24.75746,84.366208,CO,34,78,59
India,Bihar,Bettiah,"Kamalnath Nagar, Bettiah - BSPCB",13-04-2024 21:00:00,26.80365,84.51954,NH3,3,3,3
India,Bihar,Bhagalpur,"DM Office_Kachari Chowk, Bhagalpur - BSPCB",13-04-2024 21:00:00,25.251013,86.989001,CO,33,88,54
India,Bihar,Bhagalpur,"Mayaganj, Bhagalpur - BSPCB",13-04-2024 21:00:00,25.265194,87.012947,NH3,6,8,7
India,Bihar,Chhapra,"Darshan Nagar, Chhapra - BSPCB",13-04-2024 21:00:00,25.7808257,84.7446768,NO2,20,34,26
India,Bihar,Gaya,"Collectorate, Gaya - BSPCB",13-04-2024 21:00:00,24.7955,84.9994,PM2.5,45,313,124
India,Bihar,Gaya,"Collectorate, Gaya - BSPCB",13-04-2024 21:00:00,24.7955,84.9994,CO,61,193,107
India,Bihar,Gaya,"Collectorate, Gaya - BSPCB",13-04-2024 21:00:00,24.7955,84.9994,OZONE,41,75,57
India,Bihar,Gaya,"SFTI Kusdihra, Gaya - BSPCB",13-04-2024 21:00:00,24.762518,84.982348,PM2.5,24,115,64
India,Bihar,Gaya,"SFTI Kusdihra, Gaya - BSPCB",13-04-2024 21:00:00,24.762518,84.982348,NO2,18,58,38
India,Bihar,Hajipur,"Industrial Area, Hajipur - BSPCB",13-04-2024 21:00:00,25.697189,85.245900,PM10,135,410,266
India,Bihar,Katihar,"Mirchaibari, Katihar - BSPCB",13-04-2024 21:00:00,25.560083,87.553265,NH3,5,9,7
India,Bihar,Kishanganj,"SDM Office_Khagra, Kishanganj - BSPCB",13-04-2024 21:00:00,26.0881305,87.93840336,PM2.5,45,277,108
India,Bihar,Kishanganj,"SDM Office_Khagra, Kishanganj - BSPCB",13-04-2024 21:00:00,26.0881305,87.93840336,PM10,115,435,203
India,Bihar,Kishanganj,"SDM Office_Khagra, Kishanganj - BSPCB",13-04-2024 21:00:00,26.0881305,87.93840336,SO2,1,5,2
India,Bihar,Motihari,"Gandak Colony, Motihari - BSPCB",13-04-2024 21:00:00,26.63086,84.90051,PM10,35,68,50
India,Bihar,Motihari,"Gandak Colony, Motihari - BSPCB",13-04-2024 21:00:00,26.63086,84.90051,SO2,5,20,10
India,Bihar,Muzaffarpur,"Buddha Colony, Muzaffarpur - BSPCB",13-04-2024 21:00:00,26.11442,85.39813,PM2.5,166,312,241
India,Bihar,Muzaffarpur,"Buddha Colony, Muzaffarpur - BSPCB",13-04-2024 21:00:00,26.11442,85.39813,NO2,11,46,29
India,Bihar,Muzaffarpur,"Buddha Colony, Muzaffarpur - BSPCB",13-04-2024 21:00:00,26.11442,85.39813,NH3,4,7,6
India,Bihar,Muzaffarpur,"MIT-Daudpur Kothi, Muzaffarpur - BSPCB",13-04-2024 21:00:00,26.1403345,85.3650192,NH3,3,4,4
India,Bihar,Muzaffarpur,"Muzaffarpur Collectorate, Muzaffarpur - BSPCB",13-04-2024 21:00:00,26.1209,85.3647,SO2,7,19,12
India,Bihar,Patna,"DRM Office Danapur, Patna - BSPCB",13-04-2024 21:00:00,25.586562,85.043586,PM2.5,144,314,227
India,Bihar,Patna,"DRM Office Danapur, Patna - BSPCB",13-04-2024 21:00:00,25.586562,85.043586,SO2,4,7,6
India,Bihar,Patna,"IGSC Planetarium Complex, Patna - BSPCB",13-04-2024 21:00:00,25.610369,85.132568,CO,12,13,12
India,Bihar,Patna,"Muradpur, Patna - BSPCB",13-04-2024 21:00:00,25.619651,85.147382,CO,34,114,60
India,Bihar,Patna,"Samanpura, Patna - BSPCB",13-04-2024 21:00:00,25.596727,85.085624,PM2.5,173,382,293
India,Bihar,Patna,"Samanpura, Patna - BSPCB",13-04-2024 21:00:00,25.596727,85.085624,NO2,20,77,43
India,Bihar,Purnia,"Mariam Nagar, Purnia - BSPCB",13-04-2024 21:00:00,25.366336,87.117468,PM10,105,342,162
India,Bihar,Purnia,"Mariam Nagar, Purnia - BSPCB",13-04-2024 21:00:00,25.366336,87.117468,NO2,2,386,31
India,Bihar,Rajgir,"Dangi Tola, Rajgir - BSPCB",13-04-2024 21:00:00,25.03280,85.41948,NH3,2,2,2
India,Bihar,Saharsa,"Police Line, Saharsa - BSPCB",13-04-2024 21:00:00,25.892357,86.590325,PM10,NA,NA,NA
India,Bihar,Saharsa,"Police Line, Saharsa - BSPCB",13-04-2024 21:00:00,25.892357,86.590325,OZONE,1,131,22
India,Bihar,Samastipur,"DM Office_Kasipur, Samastipur - BSPCB",13-04-2024 21:00:00,25.859655,85.77944,NH3,3,5,3
India,Bihar,Sasaram,"Dada Peer, Sasaram - BSPCB",13-04-2024 21:00:00,24.952822,84.002396,SO2,22,23,23
India,Bihar,Siwan,"Chitragupta Nagar, Siwan - BSPCB",13-04-2024 21:00:00,26.2271665,84.3570427,NH3,1,57,8
India,Chandigarh,Chandigarh,"Sector 22, Chandigarh - CPCC",13-04-2024 21:00:00,30.735567,76.775714,NH3,7,16,10
India,Chandigarh,Chandigarh,"Sector 22, Chandigarh - CPCC",13-04-2024 21:00:00,30.735567,76.775714,CO,27,68,39
India,Chandigarh,Chandigarh,"Sector-25, Chandigarh - CPCC",13-04-2024 21:00:00,30.751462,76.762879,CO,22,46,23
India,Chandigarh,Chandigarh,"Sector-53, Chandigarh - CPCC",13-04-2024 21:00:00,30.719859,76.738637,PM2.5,67,270,150
India,Chandigarh,Chandigarh,"Sector-53, Chandigarh - CPCC",13-04-2024 21:00:00,30.719859,76.738637,CO,39,108,68
India,Chhattisgarh,Bhilai,"Civic Center, Bhilai - Bhilai Steel Plant",13-04-2024 21:00:00,21.185571,81.343175,PM10,22,56,39
India,Chhattisgarh,Bhilai,"Hathkhoj, Bhilai - CECB",13-04-2024 21:00:00,21.224231,81.408350,SO2,9,14,11
India,Chhattisgarh,Bilaspur,"Mangala, Bilaspur - NTPC",13-04-2024 21:00:00,22.08815,82.13737,SO2,3,16,10
India,Chhattisgarh,Chhal,"Nawapara SECL Colony, Chhal - CECB",13-04-2024 21:00:00,22.118125,83.140608,SO2,12,30,18
India,Chhattisgarh,Chhal,"Nawapara SECL Colony, Chhal - CECB",13-04-2024 21:00:00,22.118125,83.140608,OZONE,1,95,73
India,Chhattisgarh,Korba,"Rampur, Korba - CECB",13-04-2024 21:00:00,22.368195,82.746431,NH3,1,1,1
India,Chhattisgarh,Korba,"Rampur, Korba - CECB",13-04-2024 21:00:00,22.368195,82.746431,OZONE,2,36,14
India,Chhattisgarh,Korba,"Urja Nagar, Korba - CECB",13-04-2024 21:00:00,22.348441,82.549611,CO,16,114,24
India,Chhattisgarh,Kunjemura,"OP Jindal School, Kunjemura - CECB",13-04-2024 21:00:00,22.126650,83.483212,CO,26,62,31
India,Chhattisgarh,Milupara,"Govt. Higher Secondary School, Milupara - CECB",13-04-2024 21:00:00,22.1910172,83.5197009,PM10,37,103,50
India,Chhattisgarh,Raipur,"AIIMS, Raipur - CECB",13-04-2024 21:00:00,21.258815,81.578979,SO2,3,7,5
India,Chhattisgarh,Raipur,"Siltara Phase-II, Raipur - CECB",13-04-2024 21:00:00,21.371751,81.664929,OZONE,3,18,6
India,Chhattisgarh,Tumidih,"OP Jindal Industrial Park, Tumidih - CECB",13-04-2024 21:00:00,22.06631475,83.33820077,NO2,7,43,21
India,Chhattisgarh,Tumidih,"OP Jindal Industrial Park, Tumidih - CECB",13-04-2024 21:00:00,22.06631475,83.33820077,SO2,5,10,7
India,Chhattisgarh,Tumidih,"OP Jindal Industrial Park, Tumidih - CECB",13-04-2024 21:00:00,22.06631475,83.33820077,CO,18,71,27
India,Delhi,Delhi,"Alipur, Delhi - DPCC",13-04-2024 21:00:00,28.815329,77.153010,PM2.5,40,312,155
India,Delhi,Delhi,"Anand Vihar, Delhi - DPCC",13-04-2024 21:00:00,28.647622,77.3158090,OZONE,NA,NA,NA
India,Delhi,Delhi,"Ashok Vihar, Delhi - DPCC",13-04-2024 21:00:00,28.695381,77.181665,PM10,69,415,181
India,Delhi,Delhi,"Ashok Vihar, Delhi - DPCC",13-04-2024 21:00:00,28.695381,77.181665,OZONE,2,75,23
India,Delhi,Delhi,"Aya Nagar, Delhi - IMD",13-04-2024 21:00:00,28.4706914,77.1099364,CO,74,121,104
India,Delhi,Delhi,"Aya Nagar, Delhi - IMD",13-04-2024 21:00:00,28.4706914,77.1099364,OZONE,21,39,33
India,Delhi,Delhi,"Bawana, Delhi - DPCC",13-04-2024 21:00:00,28.776200,77.051074,NO2,18,121,55
India,Delhi,Delhi,"Bawana, Delhi - DPCC",13-04-2024 21:00:00,28.776200,77.051074,SO2,6,28,14
India,Delhi,Delhi,"Burari Crossing, Delhi - IMD",13-04-2024 21:00:00,28.7256504,77.2011573,PM2.5,23,479,213
India,Delhi,Delhi,"Burari Crossing, Delhi - IMD",13-04-2024 21:00:00,28.7256504,77.2011573,NO2,15,25,20
India,Delhi,Delhi,"Burari Crossing, Delhi - IMD",13-04-2024 21:00:00,28.7256504,77.2011573,CO,4,69,13
India,Delhi,Delhi,"CRRI Mathura Road, Delhi - IMD",13-04-2024 21:00:00,28.5512005,77.2735737,OZONE,2,86,45
India,Delhi,Delhi,"Chandni Chowk, Delhi - IITM",13-04-2024 21:00:00,28.656756,77.227234,OZONE,3,6,6
India,Delhi,Delhi,"DTU, Delhi - CPCB",13-04-2024 21:00:00,28.7500499,77.1112615,CO,28,106,34
India,Delhi,Delhi,"Dwarka-Sector 8, Delhi - DPCC ",13-04-2024 21:00:00,28.5710274,77.0719006,OZONE,2,81,72
India,Delhi,Delhi,"IGI Airport (T3), Delhi - IMD",13-04-2024 21:00:00,28.5627763,77.1180053,CO,20,100,29
India,Delhi,Delhi,"ITO, Delhi - CPCB",13-04-2024 21:00:00,28.628624,77.241060,PM10,77,199,126
India,Delhi,Delhi,"ITO, Delhi - CPCB",13-04-2024 21:00:00,28.628624,77.241060,NO2,25,224,120
India,Delhi,Delhi,"ITO, Delhi - CPCB",13-04-2024 21:00:00,28.628624,77.241060,SO2,4,26,15
India,Delhi,Delhi,"ITO, Delhi - CPCB",13-04-2024 21:00:00,28.628624,77.241060,CO,20,130,50
India,Delhi,Delhi,"Jahangirpuri, Delhi - DPCC",13-04-2024 21:00:00,28.732820,77.170633,PM10,97,500,219
India,Delhi,Delhi,"Jawaharlal Nehru Stadium, Delhi - DPCC",13-04-2024 21:00:00,28.580280,77.233829,NO2,40,168,82
India,Delhi,Delhi,"Lodhi Road, Delhi - IITM",13-04-2024 21:00:00,28.588333,77.221667,PM2.5,308,418,347
India,Delhi,Delhi,"Major Dhyan Chand National Stadium, Delhi - DPCC",13-04-2024 21:00:00,28.611281,77.237738,SO2,13,27,19
India,Delhi,Delhi,"Major Dhyan Chand National Stadium, Delhi - DPCC",13-04-2024 21:00:00,28.611281,77.237738,OZONE,2,181,111
India,Delhi,Delhi,"Mandir Marg, Delhi - DPCC",13-04-2024 21:00:00,28.636429,77.201067,PM10,63,250,112
India,Delhi,Delhi,"Mandir Marg, Delhi - DPCC",13-04-2024 21:00:00,28.636429,77.201067,NO2,106,127,116
India,Delhi,Delhi,"Mundka, Delhi - DPCC",13-04-2024 21:00:00,28.684678,77.076574,PM2.5,30,334,142
India,Delhi,Delhi,"Mundka, Delhi - DPCC",13-04-2024 21:00:00,28.684678,77.076574,PM10,40,490,212
India,Delhi,Delhi,"Mundka, Delhi - DPCC",13-04-2024 21:00:00,28.684678,77.076574,CO,31,102,37
India,Delhi,Delhi,"Najafgarh, Delhi - DPCC",13-04-2024 21:00:00,28.570173,76.933762,CO,20,78,23
India,Delhi,Delhi,"Narela, Delhi - DPCC",13-04-2024 21:00:00,28.822836,77.101981,NH3,6,12,8
India,Delhi,Delhi,"Nehru Nagar, Delhi - DPCC",13-04-2024 21:00:00,28.567890,77.250515,NO2,9,17,13
India,Delhi,Delhi,"North Campus, DU, Delhi - IMD",13-04-2024 21:00:00,28.6573814,77.1585447,PM2.5,NA,NA,NA
India,Delhi,Delhi,"North Campus, DU, Delhi - IMD",13-04-2024 21:00:00,28.6573814,77.1585447,PM10,NA,NA,NA
India,Delhi,Delhi,"North Campus, DU, Delhi - IMD",13-04-2024 21:00:00,28.6573814,77.1585447,CO,72,102,85
India,Delhi,Delhi,"Okhla Phase-2, Delhi - DPCC",13-04-2024 21:00:00,28.530785,77.271255,PM2.5,40,301,150
India,Delhi,Delhi,"Okhla Phase-2, Delhi - DPCC",13-04-2024 21:00:00,28.530785,77.271255,PM10,92,402,228
India,Delhi,Delhi,"Okhla Phase-2, Delhi - DPCC",13-04-2024 21:00:00,28.530785,77.271255,OZONE,10,93,65
India,Delhi,Delhi,"Patparganj, Delhi - DPCC",13-04-2024 21:00:00,28.623763,77.287209,PM10,123,413,215
India,Delhi,Delhi,"Patparganj, Delhi - DPCC",13-04-2024 21:00:00,28.623763,77.287209,NH3,9,14,11
India,Delhi,Delhi,"Patparganj, Delhi - DPCC",13-04-2024 21:00:00,28.623763,77.287209,CO,50,107,68
India,Delhi,Delhi,"Punjabi Bagh, Delhi - DPCC",13-04-2024 21:00:00,28.674045,77.131023,PM2.5,17,272,138
India,Delhi,Delhi,"Punjabi Bagh, Delhi - DPCC",13-04-2024 21:00:00,28.674045,77.131023,OZONE,2,39,22
India,Delhi,Delhi,"Pusa, Delhi - DPCC",13-04-2024 21:00:00,28.639652,77.146275,NO2,15,172,97
India,Delhi,Delhi,"R K Puram, Delhi - DPCC",13-04-2024 21:00:00,28.563262,77.186937,OZONE,3,183,99
India,Delhi,Delhi,"Rohini, Delhi - DPCC",13-04-2024 21:00:00,28.732528,77.119920,PM10,61,442,201
India,Delhi,Delhi,"Rohini, Delhi - DPCC",13-04-2024 21:00:00,28.732528,77.119920,CO,32,121,34
India,Delhi,Delhi,"Shadipur, Delhi - CPCB",13-04-2024 21:00:00,28.6514781,77.1473105,NO2,43,105,69
India,Delhi,Delhi,"Sonia Vihar, Delhi - DPCC",13-04-2024 21:00:00,28.710508,77.249485,NO2,24,129,70
India,Delhi,Delhi,"Sri Aurobindo Marg, Delhi - DPCC",13-04-2024 21:00:00,28.531346,77.190156,NH3,8,14,9
India,Delhi,Delhi,"Vivek Vihar, Delhi - DPCC",13-04-2024 21:00:00,28.672342,77.315260,PM2.5,58,310,147
India,Delhi,Delhi,"Vivek Vihar, Delhi - DPCC",13-04-2024 21:00:00,28.672342,77.315260,CO,14,102,28
India,Delhi,Delhi,"Wazirpur, Delhi - DPCC",13-04-2024 21:00:00,28.699793,77.165453,OZONE,5,123,71
India,Gujarat,Ahmedabad,"Chandkheda, Ahmedabad - IITM",13-04-2024 21:00:00,23.107969,72.574648,NH3,NA,NA,NA
India,Gujarat,Ahmedabad,"Gyaspur, Ahmedabad - IITM",13-04-2024 21:00:00,22.977134,72.553024,PM10,69,115,102
India,Gujarat,Ahmedabad,"Gyaspur, Ahmedabad - IITM",13-04-2024 21:00:00,22.977134,72.553024,NH3,10,11,5
India,Gujarat,Ahmedabad,"Gyaspur, Ahmedabad - IITM",13-04-2024 21:00:00,22.977134,72.553024,OZONE,3,15,10
India,Gujarat,Ahmedabad,"Raikhad, Ahmedabad - IITM",13-04-2024 21:00:00,23.020509,72.579261,NO2,68,133,101
India,Gujarat,Ahmedabad,"Raikhad, Ahmedabad - IITM",13-04-2024 21:00:00,23.020509,72.579261,SO2,10,108,35
India,Gujarat,Ahmedabad,"Raikhad, Ahmedabad - IITM",13-04-2024 21:00:00,23.020509,72.579261,CO,1,47,7
India,Gujarat,Ahmedabad,"Rakhial, Ahmedabad - IITM",13-04-2024 21:00:00,23.016834,72.625775,SO2,7,52,21
India,Gujarat,Ahmedabad,"SAC ISRO Satellite, Ahmedabad - IITM",13-04-2024 21:00:00,23.023389,72.515201,PM2.5,122,126,124
India,Gujarat,Ahmedabad,"Sardar Vallabhbhai Patel Stadium, Ahmedabad - IITM",13-04-2024 21:00:00,23.043070,72.562968,NH3,7,7,7
India,Gujarat,Ahmedabad,"Sardar Vallabhbhai Patel Stadium, Ahmedabad - IITM",13-04-2024 21:00:00,23.043070,72.562968,CO,35,54,44
India,Gujarat,Ahmedabad,"Sardar Vallabhbhai Patel Stadium, Ahmedabad - IITM",13-04-2024 21:00:00,23.043070,72.562968,OZONE,7,18,13
India,Gujarat,Ankleshwar,"GIDC, Ankleshwar - GPCB",13-04-2024 21:00:00,21.613267,73.010555,PM2.5,37,73,54
India,Gujarat,Ankleshwar,"GIDC, Ankleshwar - GPCB",13-04-2024 21:00:00,21.613267,73.010555,CO,66,93,75
India,Gujarat,Ankleshwar,"GIDC, Ankleshwar - GPCB",13-04-2024 21:00:00,21.613267,73.010555,OZONE,21,37,30
India,Gujarat,Gandhinagar,"IIPHG Lekawada, Gandhinagar - IITM",13-04-2024 21:00:00,23.243639,72.68994,CO,14,36,22
India,Gujarat,Gandhinagar,"Sector-10, Gandhinagar - GPCB",13-04-2024 21:00:00,23.221714,72.654328,SO2,4,14,5
India,Gujarat,Gandhinagar,"Sector-10, Gandhinagar - GPCB",13-04-2024 21:00:00,23.221714,72.654328,CO,26,56,29
India,Gujarat,Nandesari,"GIDC, Nandesari - Nandesari Ind. Association",13-04-2024 21:00:00,22.410802,73.097923,PM2.5,NA,NA,NA
India,Gujarat,Vatva,"Phase-4 GIDC, Vatva - GPCB",13-04-2024 21:00:00,22.969611,72.643500,PM2.5,45,72,57
India,Gujarat,Vatva,"Phase-4 GIDC, Vatva - GPCB",13-04-2024 21:00:00,22.969611,72.643500,OZONE,6,30,28
India,Haryana,Bahadurgarh,"Arya Nagar, Bahadurgarh - HSPCB",13-04-2024 21:00:00,28.6701,76.9254,CO,34,62,48
India,Haryana,Bahadurgarh,"Arya Nagar, Bahadurgarh - HSPCB",13-04-2024 21:00:00,28.6701,76.9254,OZONE,35,52,43
India,Haryana,Charkhi Dadri,"Mini Secretariat, Charkhi Dadri - HSPCB",13-04-2024 21:00:00,28.593883,76.270653,NO2,15,25,18
India,Haryana,Dharuhera,"Municipal Corporation Office, Dharuhera -  HSPCB",13-04-2024 21:00:00,28.206800,76.799700,PM2.5,NA,NA,NA
India,Haryana,Faridabad,"Sector 11, Faridabad - HSPCB",13-04-2024 21:00:00,28.376058,77.315741,NH3,6,6,6
India,Haryana,Faridabad,"Sector 11, Faridabad - HSPCB",13-04-2024 21:00:00,28.376058,77.315741,CO,32,48,36
India,Haryana,Faridabad,"Sector- 16A, Faridabad - HSPCB",13-04-2024 21:00:00,28.4088421,77.3099081,SO2,6,24,20
India,Haryana,Faridabad,"Sector- 16A, Faridabad - HSPCB",13-04-2024 21:00:00,28.4088421,77.3099081,CO,4,38,8
India,Haryana,Fatehabad,"Huda Sector, Fatehabad - HSPCB",13-04-2024 21:00:00,29.503664,75.467934,CO,5,14,6
India,Haryana,Gurugram,"Sector-51, Gurugram - HSPCB",13-04-2024 21:00:00,28.4227,77.0667,PM2.5,166,417,339
India,Haryana,Gurugram,"Vikas Sadan, Gurugram - HSPCB",13-04-2024 21:00:00,28.4501238,77.0263051,PM2.5,27,500,191
India,Haryana,Hisar,"Urban Estate-II, Hisar - HSPCB",13-04-2024 21:00:00,29.140560,75.744941,PM2.5,50,219,124
India,Haryana,Hisar,"Urban Estate-II, Hisar - HSPCB",13-04-2024 21:00:00,29.140560,75.744941,NH3,9,13,10
India,Haryana,Hisar,"Urban Estate-II, Hisar - HSPCB",13-04-2024 21:00:00,29.140560,75.744941,SO2,12,79,42
India,Haryana,Hisar,"Urban Estate-II, Hisar - HSPCB",13-04-2024 21:00:00,29.140560,75.744941,OZONE,27,158,119
India,Haryana,Jind,"Police Lines, Jind - HSPCB",13-04-2024 21:00:00,29.307814,76.337619,PM10,74,166,117
India,Haryana,Kaithal,"Rishi Nagar, Kaithal - HSPCB",13-04-2024 21:00:00,29.8006,76.4155,PM10,150,421,203
India,Haryana,Kaithal,"Rishi Nagar, Kaithal - HSPCB",13-04-2024 21:00:00,29.8006,76.4155,SO2,10,98,27
India,Haryana,Karnal,"Sector-12, Karnal - HSPCB",13-04-2024 21:00:00,29.695300,77.002700,PM10,86,438,139
India,Haryana,Karnal,"Sector-12, Karnal - HSPCB",13-04-2024 21:00:00,29.695300,77.002700,SO2,12,13,12
India,Haryana,Kurukshetra,"Sector-7, Kurukshetra - HSPCB",13-04-2024 21:00:00,29.966942,76.875879,PM10,87,167,120
India,Haryana,Kurukshetra,"Sector-7, Kurukshetra - HSPCB",13-04-2024 21:00:00,29.966942,76.875879,SO2,1,140,31
India,Haryana,Kurukshetra,"Sector-7, Kurukshetra - HSPCB",13-04-2024 21:00:00,29.966942,76.875879,CO,16,50,21
India,Haryana,Mandikhera,"General Hospital, Mandikhera - HSPCB",13-04-2024 21:00:00,27.9002,76.9938,PM2.5,34,132,67
India,Haryana,Narnaul,"Shastri Nagar, Narnaul - HSPCB",13-04-2024 21:00:00,28.060249,76.113115,NO2,12,75,35
India,Haryana,Palwal,"Shyam Nagar, Palwal - HSPCB",13-04-2024 21:00:00,28.1485564,77.3320667,PM10,72,330,147
India,Haryana,Panipat,"Sector-18, Panipat - HSPCB",13-04-2024 21:00:00,29.497973,76.993331,SO2,18,19,19
India,Haryana,Sonipat,"Murthal, Sonipat - HSPCB",13-04-2024 21:00:00,29.027200,77.062100,PM10,112,114,113
India,Haryana,Sonipat,"Murthal, Sonipat - HSPCB",13-04-2024 21:00:00,29.027200,77.062100,NO2,37,44,40
India,Haryana,Sonipat,"Murthal, Sonipat - HSPCB",13-04-2024 21:00:00,29.027200,77.062100,OZONE,16,35,31
India,Haryana,Yamuna Nagar,"Gobind Pura, Yamuna Nagar - HSPCB",13-04-2024 21:00:00,30.1480566,77.2893471,PM2.5,66,327,128
India,Haryana,Yamuna Nagar,"Gobind Pura, Yamuna Nagar - HSPCB",13-04-2024 21:00:00,30.1480566,77.2893471,NH3,1,6,4
India,Haryana,Yamuna Nagar,"Gobind Pura, Yamuna Nagar - HSPCB",13-04-2024 21:00:00,30.1480566,77.2893471,SO2,2,26,8
India,Himachal Pradesh,Baddi,"HIMUDA Complex Phase-1, Baddi - HPPCB",13-04-2024 21:00:00,30.943887,76.801991,CO,13,51,23
India,Himachal Pradesh,Baddi,"HIMUDA Complex Phase-1, Baddi - HPPCB",13-04-2024 21:00:00,30.943887,76.801991,OZONE,71,264,182
India,Jharkhand,Dhanbad,"Kalakusuma, Dhanbad - DMC",13-04-2024 21:00:00,23.811548,86.481238,CO,126,134,132
India,Jharkhand,Dhanbad,"Sardar Patel Nagar, Dhanbad - JSPCB",13-04-2024 21:00:00,23.80569,86.44268,CO,34,153,82
India,Jharkhand,Pathardih,"Mohalbani Ghat, Pathardih - DMC",13-04-2024 21:00:00,23.669880,86.411725,PM2.5,NA,NA,NA
India,Jharkhand,Pathardih,"Mohalbani Ghat, Pathardih - DMC",13-04-2024 21:00:00,23.669880,86.411725,NO2,NA,NA,NA
India,Karnataka,Bagalkot,"Vidayagiri, Bagalkot - KSPCB",13-04-2024 21:00:00,16.172806,75.659694,PM10,49,50,50
India,Karnataka,Bagalkot,"Vidayagiri, Bagalkot - KSPCB",13-04-2024 21:00:00,16.172806,75.659694,NO2,9,11,9
India,Karnataka,Bagalkot,"Vidayagiri, Bagalkot - KSPCB",13-04-2024 21:00:00,16.172806,75.659694,SO2,NA,NA,NA
India,Karnataka,Bengaluru,"BTM Layout, Bengaluru - CPCB",13-04-2024 21:00:00,12.9135218,77.5950804,NH3,5,6,5
India,Karnataka,Bengaluru,"Bapuji Nagar, Bengaluru - KSPCB",13-04-2024 21:00:00,12.951913,77.539784,NO2,10,11,11
India,Karnataka,Bengaluru,"Bapuji Nagar, Bengaluru - KSPCB",13-04-2024 21:00:00,12.951913,77.539784,OZONE,26,31,29
India,Karnataka,Bengaluru,"Hebbal, Bengaluru - KSPCB",13-04-2024 21:00:00,13.029152,77.585901,PM2.5,23,70,41
India,Karnataka,Bengaluru,"Hombegowda Nagar, Bengaluru - KSPCB",13-04-2024 21:00:00,12.938539,77.590100,PM2.5,17,48,33
India,Karnataka,Bengaluru,"Jayanagar 5th Block, Bengaluru - KSPCB",13-04-2024 21:00:00,12.920984,77.584908,PM2.5,NA,NA,NA
India,Karnataka,Bengaluru,"Kasturi Nagar, Bengaluru - KSPCB",13-04-2024 21:00:00,13.003872,77.664217,PM2.5,46,124,75
India,Karnataka,Bengaluru,"Kasturi Nagar, Bengaluru - KSPCB",13-04-2024 21:00:00,13.003872,77.664217,NH3,3,4,4
India,Karnataka,Bengaluru,"Kasturi Nagar, Bengaluru - KSPCB",13-04-2024 21:00:00,13.003872,77.664217,OZONE,14,75,65
India,Karnataka,Bengaluru,"Peenya, Bengaluru - CPCB",13-04-2024 21:00:00,13.0270199,77.494094,PM10,20,56,40
India,Karnataka,Bengaluru,"Peenya, Bengaluru - CPCB",13-04-2024 21:00:00,13.0270199,77.494094,NH3,3,4,3
India,Karnataka,Bengaluru,"RVCE-Mailasandra, Bengaluru - KSPCB",13-04-2024 21:00:00,12.921418,77.502466,PM2.5,42,143,93
India,Karnataka,Bengaluru,"RVCE-Mailasandra, Bengaluru - KSPCB",13-04-2024 21:00:00,12.921418,77.502466,PM10,48,161,93
India,Karnataka,Bengaluru,"Sanegurava Halli, Bengaluru - KSPCB",13-04-2024 21:00:00,12.990328,77.5431385,SO2,1,3,2
India,Karnataka,Bengaluru,"Shivapura_Peenya, Bengaluru - KSPCB",13-04-2024 21:00:00,13.0246342,77.5080115,CO,24,36,29
India,Karnataka,Bengaluru,"Shivapura_Peenya, Bengaluru - KSPCB",13-04-2024 21:00:00,13.0246342,77.5080115,OZONE,53,55,54
India,Karnataka,Bengaluru,"Silk Board, Bengaluru - KSPCB",13-04-2024 21:00:00,12.917348,77.622813,PM2.5,12,70,41
India,Karnataka,Bengaluru,"Silk Board, Bengaluru - KSPCB",13-04-2024 21:00:00,12.917348,77.622813,NO2,NA,NA,NA
India,Karnataka,Bengaluru,"Silk Board, Bengaluru - KSPCB",13-04-2024 21:00:00,12.917348,77.622813,NH3,NA,NA,NA
India,Karnataka,Bengaluru,"Silk Board, Bengaluru - KSPCB",13-04-2024 21:00:00,12.917348,77.622813,OZONE,19,25,20
India,Karnataka,Chamarajanagar,"Urban, Chamarajanagar - KSPCB",13-04-2024 21:00:00,11.55358,76.55521,PM10,44,46,45
India,Karnataka,Chamarajanagar,"Urban, Chamarajanagar - KSPCB",13-04-2024 21:00:00,11.55358,76.55521,OZONE,25,27,26
India,Karnataka,Chikkaballapur,"Chikkaballapur Rural, Chikkaballapur - KSPCB",13-04-2024 21:00:00,13.428828,77.731418,PM2.5,10,45,30
India,Karnataka,Chikkamagaluru,"Kalyana Nagara, Chikkamagaluru - KSPCB",13-04-2024 21:00:00,13.328028,75.797056,PM2.5,NA,NA,NA
India,Karnataka,Chikkamagaluru,"Kalyana Nagara, Chikkamagaluru - KSPCB",13-04-2024 21:00:00,13.328028,75.797056,CO,8,61,10
India,Karnataka,Davanagere,"Devaraj Urs Badavane, Davanagere - KSPCB",13-04-2024 21:00:00,14.475800,75.905200,NH3,1,2,1
India,Karnataka,Dharwad,"Kalabhavan, Dharwad - KSPCB",13-04-2024 21:00:00,15.459706,75.008381,PM2.5,35,115,67
India,Karnataka,Dharwad,"Kalabhavan, Dharwad - KSPCB",13-04-2024 21:00:00,15.459706,75.008381,SO2,2,8,4
India,Karnataka,Gadag,"Panchal Nagar, Gadag - KSPCB",13-04-2024 21:00:00,15.411456,75.638133,NO2,5,24,14
India,Karnataka,Gadag,"Panchal Nagar, Gadag - KSPCB",13-04-2024 21:00:00,15.411456,75.638133,OZONE,32,77,66
India,Karnataka,Haveri,"Ashwini Nagar, Haveri - KSPCB",13-04-2024 21:00:00,14.791800,75.389600,NO2,24,39,32
India,Karnataka,Hubballi,"Deshpande Nagar, Hubballi - KSPCB",13-04-2024 21:00:00,15.351773,75.140726,PM2.5,29,48,39
India,Karnataka,Hubballi,"Deshpande Nagar, Hubballi - KSPCB",13-04-2024 21:00:00,15.351773,75.140726,CO,2,14,11
India,Karnataka,Hubballi,"Lingaraj Nagar, Hubballi - KSPCB",13-04-2024 21:00:00,15.3714823,75.1160168,PM2.5,NA,NA,NA
India,Karnataka,Hubballi,"Lingaraj Nagar, Hubballi - KSPCB",13-04-2024 21:00:00,15.3714823,75.1160168,PM10,NA,NA,NA
India,Karnataka,Hubballi,"Lingaraj Nagar, Hubballi - KSPCB",13-04-2024 21:00:00,15.3714823,75.1160168,NO2,NA,NA,NA
India,Karnataka,Hubballi,"Lingaraj Nagar, Hubballi - KSPCB",13-04-2024 21:00:00,15.3714823,75.1160168,NH3,NA,NA,NA
India,Karnataka,Kalaburagi,"Mahatma Basaveswar Colony, Kalaburgi - KSPCB",13-04-2024 21:00:00,17.336318,76.847397,PM10,36,76,50
India,Karnataka,Karwar,"KHB Colony, Karwar - KSPCB",13-04-2024 21:00:00,14.816666,74.141003,OZONE,21,22,22
India,Karnataka,Kolar,"Tamaka Ind. Area, Kolar - KSPCB",13-04-2024 21:00:00,13.1276288,78.1570122,NH3,14,27,22
India,Karnataka,Koppal,"Diwator Nagar, Koppal - KSPCB",13-04-2024 21:00:00,15.347630,76.181767,PM2.5,NA,NA,NA
India,Karnataka,Koppal,"Diwator Nagar, Koppal - KSPCB",13-04-2024 21:00:00,15.347630,76.181767,CO,106,110,109
India,Karnataka,Madikeri,"Stuart Hill, Madikeri - KSPCB",13-04-2024 21:00:00,12.415911,75.735050,NO2,3,9,5
