country,state,city,station,last_update,latitude,longitude,pollutant_id,pollutant_min,pollutant_max,pollutant_avg
India,Andhra_Pradesh,Anantapur,"Gulzarpet, Anantapur - APPCB",08-05-2024 15:00:00,14.675886,77.593027,PM2.5,NA,NA,NA
India,Andhra_Pradesh,Chittoor,"Gangineni Cheruvu, Chittoor - APPCB",08-05-2024 15:00:00,13.204880,79.097889,NO2,NA,NA,NA
India,Andhra_Pradesh,Rajamahendravaram,"Anand Kala Kshetram, Rajamahendravaram - APPCB",08-05-2024 15:00:00,16.9872867,81.7363176,CO,4,54,18
India,Andhra_Pradesh,Rajamahendravaram,"Anand Kala Kshetram, Rajamahendravaram - APPCB",08-05-2024 15:00:00,16.9872867,81.7363176,OZONE,4,81,50
India,Andhra_Pradesh,Tirupati,"Vaikuntapuram, Tirupati - APPCB",08-05-2024 15:00:00,13.615387,79.409230,CO,10,14,12
India,Andhra_Pradesh,Vijayawada,"HB Colony, Vijayawada - APPCB",08-05-2024 15:00:00,16.536107,80.594233,SO2,2,6,4
India,Andhra_Pradesh,Vijayawada,"Kanuru, Vijayawada - APPCB",08-05-2024 15:00:00,16.486692,80.699436,OZONE,29,29,29
India,Andhra_Pradesh,Vijayawada,"Rajiv Gandhi Park, Vijayawada - APPCB",08-05-2024 15:00:00,16.509717,80.612222,SO2,1,11,8
India,Andhra_Pradesh,Visakhapatnam,"GVM Corporation, Visakhapatnam - APPCB",08-05-2024 15:00:00,17.72,83.3,PM2.5,31,87,57
India,Andhra_Pradesh,Visakhapatnam,"GVM Corporation, Visakhapatnam - APPCB",08-05-2024 15:00:00,17.72,83.3,NH3,3,6,3
India,Andhra_Pradesh,Visakhapatnam,"GVM Corporation, Visakhapatnam - APPCB",08-05-2024 15:00:00,17.72,83.3,OZONE,9,13,11
India,Arunachal_Pradesh,Naharlagun,"Naharlagun, Naharlagun - APSPCB",08-05-2024 15:00:00,27.103358,93.679645,PM10,9,51,26
India,Assam,Guwahati,"IITG, Guwahati - PCBA",08-05-2024 15:00:00,26.2028636,91.70046436,PM2.5,NA,NA,NA
India,Assam,Guwahati,"IITG, Guwahati - PCBA",08-05-2024 15:00:00,26.2028636,91.70046436,PM10,22,74,49
India,Assam,Guwahati,"IITG, Guwahati - PCBA",08-05-2024 15:00:00,26.2028636,91.70046436,OZONE,3,41,18
India,Assam,Guwahati,"Pan Bazaar, Guwahati - PCBA",08-05-2024 15:00:00,26.187500,91.744194,CO,23,56,28
India,Assam,Nagaon,"Christianpatty, Nagaon - PCBA",08-05-2024 15:00:00,26.349082,92.68449,PM2.5,60,170,88
India,Assam,Nagaon,"Christianpatty, Nagaon - PCBA",08-05-2024 15:00:00,26.349082,92.68449,NO2,3,54,15
India,Assam,Nagaon,"Christianpatty, Nagaon - PCBA",08-05-2024 15:00:00,26.349082,92.68449,OZONE,2,85,59
India,Assam,Silchar,"Tarapur, Silchar - PCBA",08-05-2024 15:00:00,24.82827,92.79525,PM2.5,25,41,35
India,Assam,Sivasagar,"Girls College, Sivasagar - PCBA",08-05-2024 15:00:00,26.987634,94.636574,PM10,46,96,69
India,Bihar,Araria,"Kharahiya Basti, Araria - BSPCB",08-05-2024 15:00:00,26.146529,87.454184,PM10,NA,NA,NA
India,Bihar,Arrah,"New DM Office, Arrah - BSPCB",08-05-2024 15:00:00,25.5626095,84.663264,SO2,8,44,22
India,Bihar,Arrah,"New DM Office, Arrah - BSPCB",08-05-2024 15:00:00,25.5626095,84.663264,OZONE,9,177,36
India,Bihar,Bhagalpur,"DM Office_Kachari Chowk, Bhagalpur - BSPCB",08-05-2024 15:00:00,25.251013,86.989001,NO2,39,82,63
India,Bihar,Bhagalpur,"Mayaganj, Bhagalpur - BSPCB",08-05-2024 15:00:00,25.265194,87.012947,PM10,NA,NA,NA
India,Bihar,Bihar Sharif,"D M Colony, Bihar Sharif - BSPCB",08-05-2024 15:00:00,25.204762,85.514960,NH3,2,2,2
India,Bihar,Buxar,"Charitra Van, Buxar - BSPCB (Formerly known as Central Jail)",08-05-2024 15:00:00,25.567520,83.966379,OZONE,10,188,122
India,Bihar,Gaya,"Collectorate, Gaya - BSPCB",08-05-2024 15:00:00,24.7955,84.9994,SO2,3,20,9
India,Bihar,Gaya,"Kareemganj, Gaya - BSPCB",08-05-2024 15:00:00,24.792403,84.992416,PM10,4,38,16
India,Bihar,Gaya,"SFTI Kusdihra, Gaya - BSPCB",08-05-2024 15:00:00,24.762518,84.982348,PM2.5,18,258,59
India,Bihar,Gaya,"SFTI Kusdihra, Gaya - BSPCB",08-05-2024 15:00:00,24.762518,84.982348,PM10,24,128,47
India,Bihar,Gaya,"SFTI Kusdihra, Gaya - BSPCB",08-05-2024 15:00:00,24.762518,84.982348,NH3,3,8,6
India,Bihar,Hajipur,"Industrial Area, Hajipur - BSPCB",08-05-2024 15:00:00,25.697189,85.245900,PM2.5,16,90,41
India,Bihar,Katihar,"Mirchaibari, Katihar - BSPCB",08-05-2024 15:00:00,25.560083,87.553265,NH3,3,26,7
India,Bihar,Kishanganj,"SDM Office_Khagra, Kishanganj - BSPCB",08-05-2024 15:00:00,26.0881305,87.93840336,PM2.5,15,70,39
India,Bihar,Kishanganj,"SDM Office_Khagra, Kishanganj - BSPCB",08-05-2024 15:00:00,26.0881305,87.93840336,PM10,43,145,96
India,Bihar,Kishanganj,"SDM Office_Khagra, Kishanganj - BSPCB",08-05-2024 15:00:00,26.0881305,87.93840336,NH3,8,9,9
India,Bihar,Motihari,"Gandak Colony, Motihari - BSPCB",08-05-2024 15:00:00,26.63086,84.90051,SO2,NA,NA,NA
India,Bihar,Motihari,"Gandak Colony, Motihari - BSPCB",08-05-2024 15:00:00,26.63086,84.90051,OZONE,3,31,17
India,Bihar,Munger,"Town Hall, Munger - BSPCB",08-05-2024 15:00:00,25.376776,86.471523,SO2,15,34,27
India,Bihar,Munger,"Town Hall, Munger - BSPCB",08-05-2024 15:00:00,25.376776,86.471523,OZONE,24,45,31
India,Bihar,Muzaffarpur,"Buddha Colony, Muzaffarpur - BSPCB",08-05-2024 15:00:00,26.11442,85.39813,NH3,15,22,17
India,Bihar,Muzaffarpur,"Buddha Colony, Muzaffarpur - BSPCB",08-05-2024 15:00:00,26.11442,85.39813,OZONE,15,45,33
India,Bihar,Patna,"DRM Office Danapur, Patna - BSPCB",08-05-2024 15:00:00,25.586562,85.043586,SO2,3,9,6
India,Bihar,Patna,"DRM Office Danapur, Patna - BSPCB",08-05-2024 15:00:00,25.586562,85.043586,CO,27,38,32
India,Bihar,Patna,"Govt. High School Shikarpur, Patna - BSPCB",08-05-2024 15:00:00,25.592539,85.227158,NH3,5,5,5
India,Bihar,Patna,"Govt. High School Shikarpur, Patna - BSPCB",08-05-2024 15:00:00,25.592539,85.227158,OZONE,1,59,39
India,Bihar,Patna,"Samanpura, Patna - BSPCB",08-05-2024 15:00:00,25.596727,85.085624,OZONE,35,108,65
India,Bihar,Purnia,"Mariam Nagar, Purnia - BSPCB",08-05-2024 15:00:00,25.366336,87.117468,SO2,6,15,11
India,Bihar,Purnia,"Mariam Nagar, Purnia - BSPCB",08-05-2024 15:00:00,25.366336,87.117468,OZONE,1,60,19
India,Bihar,Rajgir,"Dangi Tola, Rajgir - BSPCB",08-05-2024 15:00:00,25.03280,85.41948,OZONE,32,50,34
India,Bihar,Saharsa,"Police Line, Saharsa - BSPCB",08-05-2024 15:00:00,25.892357,86.590325,PM10,6,112,34
India,Bihar,Sasaram,"Dada Peer, Sasaram - BSPCB",08-05-2024 15:00:00,24.952822,84.002396,NH3,6,18,12
India,Bihar,Siwan,"Chitragupta Nagar, Siwan - BSPCB",08-05-2024 15:00:00,26.2271665,84.3570427,NH3,1,2,2
India,Chandigarh,Chandigarh,"Sector-25, Chandigarh - CPCC",08-05-2024 15:00:00,30.751462,76.762879,PM2.5,123,173,152
India,Chandigarh,Chandigarh,"Sector-25, Chandigarh - CPCC",08-05-2024 15:00:00,30.751462,76.762879,PM10,124,199,152
India,Chandigarh,Chandigarh,"Sector-53, Chandigarh - CPCC",08-05-2024 15:00:00,30.719859,76.738637,OZONE,6,87,59
India,Chhattisgarh,Bhilai,"Civic Center, Bhilai - Bhilai Steel Plant",08-05-2024 15:00:00,21.185571,81.343175,OZONE,12,62,42
India,Chhattisgarh,Bilaspur,"Mangala, Bilaspur - NTPC",08-05-2024 15:00:00,22.08815,82.13737,NO2,13,18,15
India,Chhattisgarh,Chhal,"Nawapara SECL Colony, Chhal - CECB",08-05-2024 15:00:00,22.118125,83.140608,PM2.5,NA,NA,NA
India,Chhattisgarh,Chhal,"Nawapara SECL Colony, Chhal - CECB",08-05-2024 15:00:00,22.118125,83.140608,PM10,NA,NA,NA
India,Chhattisgarh,Korba,"Rampur, Korba - CECB",08-05-2024 15:00:00,22.368195,82.746431,NO2,21,59,44
India,Chhattisgarh,Raipur,"AIIMS, Raipur - CECB",08-05-2024 15:00:00,21.258815,81.578979,NH3,6,6,6
India,Chhattisgarh,Raipur,"AIIMS, Raipur - CECB",08-05-2024 15:00:00,21.258815,81.578979,CO,13,32,29
India,Chhattisgarh,Raipur,"Bhatagaon New ISBT, Raipur - CECB",08-05-2024 15:00:00,21.219665,81.630094,CO,9,18,15
India,Chhattisgarh,Raipur,"Krishak Nagar, Raipur - CECB",08-05-2024 15:00:00,21.237755,81.705301,CO,18,37,30
India,Chhattisgarh,Raipur,"Siltara Phase-II, Raipur - CECB",08-05-2024 15:00:00,21.371751,81.664929,NO2,24,49,42
India,Chhattisgarh,Raipur,"Siltara Phase-II, Raipur - CECB",08-05-2024 15:00:00,21.371751,81.664929,NH3,3,3,3
India,Chhattisgarh,Tumidih,"OP Jindal Industrial Park, Tumidih - CECB",08-05-2024 15:00:00,22.06631475,83.33820077,PM10,NA,NA,NA
India,Delhi,Delhi,"Alipur, Delhi - DPCC",08-05-2024 15:00:00,28.815329,77.153010,NH3,6,11,8
India,Delhi,Delhi,"Alipur, Delhi - DPCC",08-05-2024 15:00:00,28.815329,77.153010,CO,43,84,47
India,Delhi,Delhi,"Alipur, Delhi - DPCC",08-05-2024 15:00:00,28.815329,77.153010,OZONE,4,167,56
India,Delhi,Delhi,"Anand Vihar, Delhi - DPCC",08-05-2024 15:00:00,28.647622,77.3158090,NO2,32,126,63
India,Delhi,Delhi,"Anand Vihar, Delhi - DPCC",08-05-2024 15:00:00,28.647622,77.3158090,OZONE,5,147,21
India,Delhi,Delhi,"Ashok Vihar, Delhi - DPCC",08-05-2024 15:00:00,28.695381,77.181665,SO2,21,41,27
India,Delhi,Delhi,"Aya Nagar, Delhi - IMD",08-05-2024 15:00:00,28.4706914,77.1099364,PM2.5,6,374,137
India,Delhi,Delhi,"Aya Nagar, Delhi - IMD",08-05-2024 15:00:00,28.4706914,77.1099364,NO2,11,22,17
India,Delhi,Delhi,"Bawana, Delhi - DPCC",08-05-2024 15:00:00,28.776200,77.051074,PM10,185,424,295
India,Delhi,Delhi,"Bawana, Delhi - DPCC",08-05-2024 15:00:00,28.776200,77.051074,SO2,8,23,15
India,Delhi,Delhi,"Burari Crossing, Delhi - IMD",08-05-2024 15:00:00,28.7256504,77.2011573,OZONE,17,122,40
India,Delhi,Delhi,"DTU, Delhi - CPCB",08-05-2024 15:00:00,28.7500499,77.1112615,NO2,16,41,34
India,Delhi,Delhi,"Dr. Karni Singh Shooting Range, Delhi - DPCC",08-05-2024 15:00:00,28.498571,77.264840,PM2.5,91,304,165
India,Delhi,Delhi,"Dr. Karni Singh Shooting Range, Delhi - DPCC",08-05-2024 15:00:00,28.498571,77.264840,NH3,6,17,10
India,Delhi,Delhi,"Dr. Karni Singh Shooting Range, Delhi - DPCC",08-05-2024 15:00:00,28.498571,77.264840,SO2,15,38,22
India,Delhi,Delhi,"Dr. Karni Singh Shooting Range, Delhi - DPCC",08-05-2024 15:00:00,28.498571,77.264840,OZONE,26,199,191
India,Delhi,Delhi,"Dwarka-Sector 8, Delhi - DPCC ",08-05-2024 15:00:00,28.5710274,77.0719006,PM10,186,286,235
India,Delhi,Delhi,"Dwarka-Sector 8, Delhi - DPCC ",08-05-2024 15:00:00,28.5710274,77.0719006,CO,57,103,69
India,Delhi,Delhi,"IGI Airport (T3), Delhi - IMD",08-05-2024 15:00:00,28.5627763,77.1180053,NO2,34,125,68
India,Delhi,Delhi,"IHBAS, Dilshad Garden, Delhi - CPCB",08-05-2024 15:00:00,28.6811736,77.3025234,NO2,28,47,40
India,Delhi,Delhi,"ITO, Delhi - CPCB",08-05-2024 15:00:00,28.628624,77.241060,NO2,12,156,66
India,Delhi,Delhi,"ITO, Delhi - CPCB",08-05-2024 15:00:00,28.628624,77.241060,NH3,1,6,4
India,Delhi,Delhi,"ITO, Delhi - CPCB",08-05-2024 15:00:00,28.628624,77.241060,SO2,10,31,18
India,Delhi,Delhi,"ITO, Delhi - CPCB",08-05-2024 15:00:00,28.628624,77.241060,OZONE,12,92,19
India,Delhi,Delhi,"Jahangirpuri, Delhi - DPCC",08-05-2024 15:00:00,28.732820,77.170633,SO2,8,54,34
India,Delhi,Delhi,"Jahangirpuri, Delhi - DPCC",08-05-2024 15:00:00,28.732820,77.170633,CO,52,109,65
India,Delhi,Delhi,"Lodhi Road, Delhi - IITM",08-05-2024 15:00:00,28.588333,77.221667,NO2,10,78,28
India,Delhi,Delhi,"Major Dhyan Chand National Stadium, Delhi - DPCC",08-05-2024 15:00:00,28.611281,77.237738,PM2.5,95,302,169
India,Delhi,Delhi,"Mundka, Delhi - DPCC",08-05-2024 15:00:00,28.684678,77.076574,NH3,4,18,8
India,Delhi,Delhi,"NSIT Dwarka, Delhi - CPCB",08-05-2024 15:00:00,28.60909,77.0325413,NH3,14,28,20
India,Delhi,Delhi,"Najafgarh, Delhi - DPCC",08-05-2024 15:00:00,28.570173,76.933762,PM2.5,57,290,123
India,Delhi,Delhi,"Najafgarh, Delhi - DPCC",08-05-2024 15:00:00,28.570173,76.933762,PM10,102,215,167
India,Delhi,Delhi,"Najafgarh, Delhi - DPCC",08-05-2024 15:00:00,28.570173,76.933762,NH3,6,12,8
India,Delhi,Delhi,"Najafgarh, Delhi - DPCC",08-05-2024 15:00:00,28.570173,76.933762,SO2,9,19,14
India,Delhi,Delhi,"Narela, Delhi - DPCC",08-05-2024 15:00:00,28.822836,77.101981,NO2,13,87,40
India,Delhi,Delhi,"Nehru Nagar, Delhi - DPCC",08-05-2024 15:00:00,28.567890,77.250515,CO,48,57,53
India,Delhi,Delhi,"Okhla Phase-2, Delhi - DPCC",08-05-2024 15:00:00,28.530785,77.271255,PM2.5,85,230,130
India,Delhi,Delhi,"Okhla Phase-2, Delhi - DPCC",08-05-2024 15:00:00,28.530785,77.271255,OZONE,28,150,59
India,Delhi,Delhi,"Patparganj, Delhi - DPCC",08-05-2024 15:00:00,28.623763,77.287209,PM2.5,103,293,193
India,Delhi,Delhi,"Patparganj, Delhi - DPCC",08-05-2024 15:00:00,28.623763,77.287209,PM10,199,500,284
India,Delhi,Delhi,"Punjabi Bagh, Delhi - DPCC",08-05-2024 15:00:00,28.674045,77.131023,PM2.5,95,309,211
India,Delhi,Delhi,"Punjabi Bagh, Delhi - DPCC",08-05-2024 15:00:00,28.674045,77.131023,CO,29,101,39
India,Delhi,Delhi,"Punjabi Bagh, Delhi - DPCC",08-05-2024 15:00:00,28.674045,77.131023,OZONE,4,69,18
India,Delhi,Delhi,"Pusa, Delhi - IMD",08-05-2024 15:00:00,28.636110,77.173332,PM10,173,278,228
India,Delhi,Delhi,"R K Puram, Delhi - DPCC",08-05-2024 15:00:00,28.563262,77.186937,NH3,1,4,2
India,Delhi,Delhi,"Rohini, Delhi - DPCC",08-05-2024 15:00:00,28.732528,77.119920,SO2,4,24,14
India,Delhi,Delhi,"Rohini, Delhi - DPCC",08-05-2024 15:00:00,28.732528,77.119920,CO,27,105,45
India,Delhi,Delhi,"Shadipur, Delhi - CPCB",08-05-2024 15:00:00,28.6514781,77.1473105,NH3,10,15,13
India,Delhi,Delhi,"Sonia Vihar, Delhi - DPCC",08-05-2024 15:00:00,28.710508,77.249485,PM2.5,93,332,165
India,Delhi,Delhi,"Sonia Vihar, Delhi - DPCC",08-05-2024 15:00:00,28.710508,77.249485,SO2,14,35,23
India,Delhi,Delhi,"Sonia Vihar, Delhi - DPCC",08-05-2024 15:00:00,28.710508,77.249485,CO,60,103,64
India,Delhi,Delhi,"Sonia Vihar, Delhi - DPCC",08-05-2024 15:00:00,28.710508,77.249485,OZONE,8,165,36
India,Delhi,Delhi,"Wazirpur, Delhi - DPCC",08-05-2024 15:00:00,28.699793,77.165453,PM2.5,127,313,193
India,Delhi,Delhi,"Wazirpur, Delhi - DPCC",08-05-2024 15:00:00,28.699793,77.165453,SO2,7,28,17
India,Delhi,Delhi,"Wazirpur, Delhi - DPCC",08-05-2024 15:00:00,28.699793,77.165453,CO,80,111,84
India,Gujarat,Ahmedabad,"Chandkheda, Ahmedabad - IITM",08-05-2024 15:00:00,23.107969,72.574648,NO2,42,53,47
India,Gujarat,Ahmedabad,"Gyaspur, Ahmedabad - IITM",08-05-2024 15:00:00,22.977134,72.553024,SO2,NA,NA,NA
India,Gujarat,Ahmedabad,"Rakhial, Ahmedabad - IITM",08-05-2024 15:00:00,23.016834,72.625775,PM10,35,443,123
India,Gujarat,Ahmedabad,"Rakhial, Ahmedabad - IITM",08-05-2024 15:00:00,23.016834,72.625775,NH3,8,49,22
India,Gujarat,Ahmedabad,"SVPI Airport Hansol, Ahmedabad - IITM",08-05-2024 15:00:00,23.076793,72.627874,PM2.5,47,149,87
India,Gujarat,Ahmedabad,"SVPI Airport Hansol, Ahmedabad - IITM",08-05-2024 15:00:00,23.076793,72.627874,CO,49,88,62
India,Gujarat,Ahmedabad,"Sardar Vallabhbhai Patel Stadium, Ahmedabad - IITM",08-05-2024 15:00:00,23.043070,72.562968,PM10,73,129,104
India,Gujarat,Ahmedabad,"Sardar Vallabhbhai Patel Stadium, Ahmedabad - IITM",08-05-2024 15:00:00,23.043070,72.562968,SO2,1,17,8
India,Gujarat,Ankleshwar,"GIDC, Ankleshwar - GPCB",08-05-2024 15:00:00,21.613267,73.010555,PM10,29,202,62
India,Gujarat,Ankleshwar,"GIDC, Ankleshwar - GPCB",08-05-2024 15:00:00,21.613267,73.010555,NH3,6,6,6
India,Gujarat,Gandhinagar,"Sector-10, Gandhinagar - GPCB",08-05-2024 15:00:00,23.221714,72.654328,CO,32,59,38
India,Gujarat,Nandesari,"GIDC, Nandesari - Nandesari Ind. Association",08-05-2024 15:00:00,22.410802,73.097923,PM10,72,176,117
India,Gujarat,Vatva,"Phase-4 GIDC, Vatva - GPCB",08-05-2024 15:00:00,22.969611,72.643500,PM10,93,93,93
India,Haryana,Ambala,"Patti Mehar, Ambala - HSPCB",08-05-2024 15:00:00,30.379589,76.778328,PM10,43,101,75
India,Haryana,Ambala,"Patti Mehar, Ambala - HSPCB",08-05-2024 15:00:00,30.379589,76.778328,NO2,4,21,13
India,Haryana,Ambala,"Patti Mehar, Ambala - HSPCB",08-05-2024 15:00:00,30.379589,76.778328,CO,30,60,49
India,Haryana,Ballabgarh,"Nathu Colony, Ballabgarh - HSPCB",08-05-2024 15:00:00,28.3419248,77.319699,SO2,4,130,43
India,Haryana,Bhiwani,"H.B. Colony, Bhiwani - HSPCB",08-05-2024 15:00:00,28.806223,76.141105,NH3,6,6,6
India,Haryana,Charkhi Dadri,"Mini Secretariat, Charkhi Dadri - HSPCB",08-05-2024 15:00:00,28.593883,76.270653,PM2.5,61,373,252
India,Haryana,Charkhi Dadri,"Mini Secretariat, Charkhi Dadri - HSPCB",08-05-2024 15:00:00,28.593883,76.270653,NO2,14,25,18
India,Haryana,Dharuhera,"Municipal Corporation Office, Dharuhera -  HSPCB",08-05-2024 15:00:00,28.206800,76.799700,PM10,108,382,187
India,Haryana,Dharuhera,"Municipal Corporation Office, Dharuhera -  HSPCB",08-05-2024 15:00:00,28.206800,76.799700,NH3,9,26,19
India,Haryana,Dharuhera,"Municipal Corporation Office, Dharuhera -  HSPCB",08-05-2024 15:00:00,28.206800,76.799700,SO2,3,16,7
India,Haryana,Faridabad,"New Industrial Town, Faridabad - HSPCB",08-05-2024 15:00:00,28.39072,77.30059,NH3,3,5,4
India,Haryana,Faridabad,"New Industrial Town, Faridabad - HSPCB",08-05-2024 15:00:00,28.39072,77.30059,OZONE,36,229,134
India,Haryana,Faridabad,"Sector 11, Faridabad - HSPCB",08-05-2024 15:00:00,28.376058,77.315741,CO,29,48,35
India,Haryana,Gurugram,"NISE Gwal Pahari, Gurugram - IMD",08-05-2024 15:00:00,28.422681,77.148944,PM2.5,NA,NA,NA
India,Haryana,Gurugram,"NISE Gwal Pahari, Gurugram - IMD",08-05-2024 15:00:00,28.422681,77.148944,NO2,NA,NA,NA
India,Haryana,Gurugram,"Sector-51, Gurugram - HSPCB",08-05-2024 15:00:00,28.4227,77.0667,PM2.5,NA,NA,NA
India,Haryana,Gurugram,"Sector-51, Gurugram - HSPCB",08-05-2024 15:00:00,28.4227,77.0667,SO2,NA,NA,NA
India,Haryana,Gurugram,"Teri Gram, Gurugram - HSPCB",08-05-2024 15:00:00,28.4275,77.1465,SO2,5,7,6
India,Haryana,Gurugram,"Vikas Sadan, Gurugram - HSPCB",08-05-2024 15:00:00,28.4501238,77.0263051,PM2.5,50,153,97
India,Haryana,Gurugram,"Vikas Sadan, Gurugram - HSPCB",08-05-2024 15:00:00,28.4501238,77.0263051,NO2,5,26,14
India,Haryana,Gurugram,"Vikas Sadan, Gurugram - HSPCB",08-05-2024 15:00:00,28.4501238,77.0263051,CO,54,150,110
India,Haryana,Hisar,"Urban Estate-II, Hisar - HSPCB",08-05-2024 15:00:00,29.140560,75.744941,OZONE,26,221,47
India,Haryana,Jind,"Police Lines, Jind - HSPCB",08-05-2024 15:00:00,29.307814,76.337619,NH3,2,33,5
India,Haryana,Kaithal,"Rishi Nagar, Kaithal - HSPCB",08-05-2024 15:00:00,29.8006,76.4155,NO2,24,26,25
India,Haryana,Karnal,"Sector-12, Karnal - HSPCB",08-05-2024 15:00:00,29.695300,77.002700,CO,28,57,35
India,Haryana,Kurukshetra,"Sector-7, Kurukshetra - HSPCB",08-05-2024 15:00:00,29.966942,76.875879,NO2,8,231,20
India,Haryana,Kurukshetra,"Sector-7, Kurukshetra - HSPCB",08-05-2024 15:00:00,29.966942,76.875879,SO2,2,3,2
India,Haryana,Manesar,"Sector-2 IMT, Manesar - HSPCB",08-05-2024 15:00:00,28.360699,76.936090,NO2,NA,NA,NA
India,Haryana,Manesar,"Sector-2 IMT, Manesar - HSPCB",08-05-2024 15:00:00,28.360699,76.936090,NH3,NA,NA,NA
India,Haryana,Palwal,"Shyam Nagar, Palwal - HSPCB",08-05-2024 15:00:00,28.1485564,77.3320667,SO2,1,19,7
India,Haryana,Palwal,"Shyam Nagar, Palwal - HSPCB",08-05-2024 15:00:00,28.1485564,77.3320667,OZONE,15,120,28
India,Haryana,Panchkula,"Sector-6, Panchkula - HSPCB ",08-05-2024 15:00:00,30.7057778,76.8531805555555,CO,4,15,11
India,Haryana,Panchkula,"Sector-6, Panchkula - HSPCB ",08-05-2024 15:00:00,30.7057778,76.8531805555555,OZONE,42,61,50
India,Haryana,Panipat,"Sector-18, Panipat - HSPCB",08-05-2024 15:00:00,29.497973,76.993331,NO2,31,32,31
India,Haryana,Panipat,"Sector-18, Panipat - HSPCB",08-05-2024 15:00:00,29.497973,76.993331,OZONE,30,30,30
India,Haryana,Rohtak,"MD University, Rohtak - HSPCB",08-05-2024 15:00:00,28.52123,76.37138,NO2,44,57,51
India,Haryana,Sirsa,"F-Block, Sirsa - HSPCB",08-05-2024 15:00:00,29.536400,75.015800,PM2.5,20,305,163
India,Haryana,Sirsa,"F-Block, Sirsa - HSPCB",08-05-2024 15:00:00,29.536400,75.015800,PM10,69,221,149
India,Haryana,Sirsa,"F-Block, Sirsa - HSPCB",08-05-2024 15:00:00,29.536400,75.015800,OZONE,20,94,65
India,Haryana,Sonipat,"Murthal, Sonipat - HSPCB",08-05-2024 15:00:00,29.027200,77.062100,PM10,NA,NA,NA
India,Haryana,Sonipat,"Murthal, Sonipat - HSPCB",08-05-2024 15:00:00,29.027200,77.062100,CO,12,52,20
India,Haryana,Yamuna Nagar,"Gobind Pura, Yamuna Nagar - HSPCB",08-05-2024 15:00:00,30.1480566,77.2893471,PM10,130,384,176
India,Haryana,Yamuna Nagar,"Gobind Pura, Yamuna Nagar - HSPCB",08-05-2024 15:00:00,30.1480566,77.2893471,NH3,1,6,4
India,Haryana,Yamuna Nagar,"Gobind Pura, Yamuna Nagar - HSPCB",08-05-2024 15:00:00,30.1480566,77.2893471,OZONE,21,36,28
India,Himachal Pradesh,Baddi,"HIMUDA Complex Phase-1, Baddi - HPPCB",08-05-2024 15:00:00,30.943887,76.801991,NH3,3,7,5
India,Jharkhand,Dhanbad,"Kalakusuma, Dhanbad - DMC",08-05-2024 15:00:00,23.811548,86.481238,SO2,NA,NA,NA
India,Jharkhand,Dhanbad,"Sardar Patel Nagar, Dhanbad - JSPCB",08-05-2024 15:00:00,23.80569,86.44268,PM2.5,NA,NA,NA
India,Jharkhand,Pathardih,"Mohalbani Ghat, Pathardih - DMC",08-05-2024 15:00:00,23.669880,86.411725,CO,124,124,124
India,Karnataka,Bagalkot,"Vidayagiri, Bagalkot - KSPCB",08-05-2024 15:00:00,16.172806,75.659694,OZONE,10,42,21
India,Karnataka,Bengaluru,"BTM Layout, Bengaluru - CPCB",08-05-2024 15:00:00,12.9135218,77.5950804,OZONE,15,42,28
India,Karnataka,Bengaluru,"Hebbal, Bengaluru - KSPCB",08-05-2024 15:00:00,13.029152,77.585901,PM2.5,20,82,44
India,Karnataka,Bengaluru,"Hombegowda Nagar, Bengaluru - KSPCB",08-05-2024 15:00:00,12.938539,77.590100,NO2,11,46,22
India,Karnataka,Bengaluru,"Hombegowda Nagar, Bengaluru - KSPCB",08-05-2024 15:00:00,12.938539,77.590100,NH3,2,4,2
India,Karnataka,Bengaluru,"Jayanagar 5th Block, Bengaluru - KSPCB",08-05-2024 15:00:00,12.920984,77.584908,NH3,1,3,2
India,Karnataka,Bengaluru,"Jayanagar 5th Block, Bengaluru - KSPCB",08-05-2024 15:00:00,12.920984,77.584908,SO2,8,35,20
India,Karnataka,Bengaluru,"Kasturi Nagar, Bengaluru - KSPCB",08-05-2024 15:00:00,13.003872,77.664217,PM2.5,7,7,7
India,Karnataka,Bengaluru,"Kasturi Nagar, Bengaluru - KSPCB",08-05-2024 15:00:00,13.003872,77.664217,PM10,10,10,10
India,Karnataka,Bengaluru,"Kasturi Nagar, Bengaluru - KSPCB",08-05-2024 15:00:00,13.003872,77.664217,NH3,4,4,4
India,Karnataka,Bengaluru,"Kasturi Nagar, Bengaluru - KSPCB",08-05-2024 15:00:00,13.003872,77.664217,OZONE,7,105,73
India,Karnataka,Bengaluru,"Peenya, Bengaluru - CPCB",08-05-2024 15:00:00,13.0270199,77.494094,NH3,3,5,4
India,Karnataka,Bengaluru,"Peenya, Bengaluru - CPCB",08-05-2024 15:00:00,13.0270199,77.494094,SO2,10,13,11
India,Karnataka,Bengaluru,"Peenya, Bengaluru - CPCB",08-05-2024 15:00:00,13.0270199,77.494094,CO,30,48,36
India,Karnataka,Bengaluru,"Shivapura_Peenya, Bengaluru - KSPCB",08-05-2024 15:00:00,13.0246342,77.5080115,PM10,NA,NA,NA
India,Karnataka,Bengaluru,"Shivapura_Peenya, Bengaluru - KSPCB",08-05-2024 15:00:00,13.0246342,77.5080115,NH3,4,4,4
India,Karnataka,Bengaluru,"Shivapura_Peenya, Bengaluru - KSPCB",08-05-2024 15:00:00,13.0246342,77.5080115,CO,20,60,29
India,Karnataka,Bengaluru,"Silk Board, Bengaluru - KSPCB",08-05-2024 15:00:00,12.917348,77.622813,PM2.5,23,500,127
India,Karnataka,Bengaluru,"Silk Board, Bengaluru - KSPCB",08-05-2024 15:00:00,12.917348,77.622813,NH3,1,1,1
India,Karnataka,Bidar,"Naubad, Bidar - KSPCB",08-05-2024 15:00:00,17.930306,77.482194,CO,69,88,79
India,Karnataka,Chamarajanagar,"Urban, Chamarajanagar - KSPCB",08-05-2024 15:00:00,11.55358,76.55521,PM2.5,29,52,33
India,Karnataka,Chamarajanagar,"Urban, Chamarajanagar - KSPCB",08-05-2024 15:00:00,11.55358,76.55521,PM10,44,65,48
India,Karnataka,Chamarajanagar,"Urban, Chamarajanagar - KSPCB",08-05-2024 15:00:00,11.55358,76.55521,NO2,27,40,30
India,Karnataka,Chamarajanagar,"Urban, Chamarajanagar - KSPCB",08-05-2024 15:00:00,11.55358,76.55521,SO2,2,9,5
India,Karnataka,Chikkaballapur,"Chikkaballapur Rural, Chikkaballapur - KSPCB",08-05-2024 15:00:00,13.428828,77.731418,CO,12,30,14
India,Karnataka,Chikkaballapur,"Chikkaballapur Rural, Chikkaballapur - KSPCB",08-05-2024 15:00:00,13.428828,77.731418,OZONE,27,28,27
India,Karnataka,Chikkamagaluru,"Kalyana Nagara, Chikkamagaluru - KSPCB",08-05-2024 15:00:00,13.328028,75.797056,SO2,NA,NA,NA
India,Karnataka,Chikkamagaluru,"Kalyana Nagara, Chikkamagaluru - KSPCB",08-05-2024 15:00:00,13.328028,75.797056,OZONE,13,67,39
India,Karnataka,Davanagere,"Devaraj Urs Badavane, Davanagere - KSPCB",08-05-2024 15:00:00,14.475800,75.905200,CO,16,18,17
India,Karnataka,Dharwad,"Kalabhavan, Dharwad - KSPCB",08-05-2024 15:00:00,15.459706,75.008381,OZONE,2,4,2
India,Karnataka,Gadag,"Panchal Nagar, Gadag - KSPCB",08-05-2024 15:00:00,15.411456,75.638133,PM2.5,7,32,18
India,Karnataka,Haveri,"Ashwini Nagar, Haveri - KSPCB",08-05-2024 15:00:00,14.791800,75.389600,PM2.5,28,47,33
India,Karnataka,Haveri,"Ashwini Nagar, Haveri - KSPCB",08-05-2024 15:00:00,14.791800,75.389600,OZONE,29,47,33
India,Karnataka,Hubballi,"Deshpande Nagar, Hubballi - KSPCB",08-05-2024 15:00:00,15.351773,75.140726,SO2,7,9,7
India,Karnataka,Hubballi,"Lingaraj Nagar, Hubballi - KSPCB",08-05-2024 15:00:00,15.3714823,75.1160168,OZONE,21,69,38
India,Karnataka,Kalaburagi,"Mahatma Basaveswar Colony, Kalaburgi - KSPCB",08-05-2024 15:00:00,17.336318,76.847397,OZONE,11,35,16
India,Karnataka,Karwar,"KHB Colony, Karwar - KSPCB",08-05-2024 15:00:00,14.816666,74.141003,PM2.5,15,36,29
India,Karnataka,Kolar,"Tamaka Ind. Area, Kolar - KSPCB",08-05-2024 15:00:00,13.1276288,78.1570122,SO2,NA,NA,NA
India,Karnataka,Koppal,"Diwator Nagar, Koppal - KSPCB",08-05-2024 15:00:00,15.347630,76.181767,PM2.5,10,28,18
India,Karnataka,Koppal,"Diwator Nagar, Koppal - KSPCB",08-05-2024 15:00:00,15.347630,76.181767,NO2,28,64,48
India,Karnataka,Koppal,"Diwator Nagar, Koppal - KSPCB",08-05-2024 15:00:00,15.347630,76.181767,OZONE,23,54,37
India,Karnataka,Madikeri,"Stuart Hill, Madikeri - KSPCB",08-05-2024 15:00:00,12.415911,75.735050,PM10,14,36,26
India,Karnataka,Mangalore,"Kadri, Mangalore - KSPCB",08-05-2024 15:00:00,12.889250,74.853000,PM2.5,10,36,22
India,Karnataka,Mangalore,"Kadri, Mangalore - KSPCB",08-05-2024 15:00:00,12.889250,74.853000,CO,34,40,38
India,Karnataka,Mangalore,"Kadri, Mangalore - KSPCB",08-05-2024 15:00:00,12.889250,74.853000,OZONE,31,33,32
India,Karnataka,Mysuru,"Hebbal 1st Stage, Mysuru - KSPCB",08-05-2024 15:00:00,12.21041,76.37376,OZONE,15,104,41
India,Karnataka,Raichur,"Haji Colony, Raichur - KSPCB",08-05-2024 15:00:00,16.208139,77.348417,PM2.5,6,50,22
India,Karnataka,Raichur,"Haji Colony, Raichur - KSPCB",08-05-2024 15:00:00,16.208139,77.348417,NH3,1,27,4
India,Karnataka,Ramanagara,"Vijay Nagar, Ramanagara - KSPCB",08-05-2024 15:00:00,12.733409,77.298051,SO2,27,42,35
India,Karnataka,Udupi,"Brahmagiri, Udupi - KSPCB",08-05-2024 15:00:00,13.34194444,74.74694444,OZONE,23,24,23
India,Karnataka,Vijayapura,"Ibrahimpur, Vijayapura - KSPCB",08-05-2024 15:00:00,16.802639,75.722694,PM2.5,26,31,30
India,Kerala,Kannur,"Thavakkara, Kannur - Kerala PCB",08-05-2024 15:00:00,11.875000,75.373200,NO2,6,7,6
India,Kerala,Kannur,"Thavakkara, Kannur - Kerala PCB",08-05-2024 15:00:00,11.875000,75.373200,SO2,1,3,1
India,Kerala,Kollam,"Polayathode, Kollam - Kerala PCB",08-05-2024 15:00:00,8.8787,76.6073,PM2.5,101,298,164
India,Kerala,Kollam,"Polayathode, Kollam - Kerala PCB",08-05-2024 15:00:00,8.8787,76.6073,SO2,1,52,10
India,Kerala,Thiruvananthapuram,"Plammoodu, Thiruvananthapuram - Kerala PCB",08-05-2024 15:00:00,8.5149093,76.9435879,PM10,25,67,45
India,Kerala,Thrissur,"Corporation Ground, Thrissur - Kerala PCB",08-05-2024 15:00:00,10.532400,76.215900,CO,14,94,36
India,Madhya Pradesh,Bhopal,"Idgah Hills, Bhopal - MPPCB",08-05-2024 15:00:00,23.264759,77.381568,PM2.5,25,45,37
India,Madhya Pradesh,Bhopal,"Idgah Hills, Bhopal - MPPCB",08-05-2024 15:00:00,23.264759,77.381568,NH3,4,7,6
India,Madhya Pradesh,Bhopal,"Idgah Hills, Bhopal - MPPCB",08-05-2024 15:00:00,23.264759,77.381568,OZONE,37,109,71
India,Madhya Pradesh,Bhopal,"T T Nagar, Bhopal - MPPCB",08-05-2024 15:00:00,23.233584,77.400574,PM2.5,28,56,42
India,Madhya Pradesh,Bhopal,"T T Nagar, Bhopal - MPPCB",08-05-2024 15:00:00,23.233584,77.400574,SO2,8,24,18
India,Madhya Pradesh,Bhopal,"T T Nagar, Bhopal - MPPCB",08-05-2024 15:00:00,23.233584,77.400574,OZONE,40,108,60
India,Madhya Pradesh,Dewas,"Bhopal Chauraha, Dewas - MPPCB",08-05-2024 15:00:00,22.9682591,76.064118,PM2.5,NA,NA,NA
India,Madhya Pradesh,Dewas,"Bhopal Chauraha, Dewas - MPPCB",08-05-2024 15:00:00,22.9682591,76.064118,NO2,NA,NA,NA
India,Madhya Pradesh,Gwalior,"City Center, Gwalior - MPPCB",08-05-2024 15:00:00,26.203442,78.193251,NO2,8,68,15
India,Madhya Pradesh,Gwalior,"City Center, Gwalior - MPPCB",08-05-2024 15:00:00,26.203442,78.193251,NH3,1,6,4
India,Madhya Pradesh,Gwalior,"Deen Dayal Nagar, Gwalior - MPPCB",08-05-2024 15:00:00,26.259242,78.216432,PM2.5,52,206,117
India,Madhya Pradesh,Gwalior,"Deen Dayal Nagar, Gwalior - MPPCB",08-05-2024 15:00:00,26.259242,78.216432,NH3,6,24,12
India,Madhya Pradesh,Gwalior,"Deen Dayal Nagar, Gwalior - MPPCB",08-05-2024 15:00:00,26.259242,78.216432,OZONE,34,233,91
India,Madhya Pradesh,Gwalior,"Maharaj Bada, Gwalior - MPPCB",08-05-2024 15:00:00,26.200388,78.147714,CO,1,135,65
India,Madhya Pradesh,Gwalior,"Phool Bagh, Gwalior - Mondelez Ind. Food",08-05-2024 15:00:00,26.210536,78.171,PM2.5,82,230,142
India,Madhya Pradesh,Indore,"Regional Park, Indore - IMC",08-05-2024 15:00:00,22.6780,75.8559,PM2.5,20,77,50
India,Madhya Pradesh,Indore,"Residency Area, Indore - IMC",08-05-2024 15:00:00,22.7084,75.8815,PM2.5,NA,NA,NA
India,Madhya Pradesh,Indore,"Residency Area, Indore - IMC",08-05-2024 15:00:00,22.7084,75.8815,PM10,39,84,57
India,Madhya Pradesh,Jabalpur,"Gupteshwar, Jabalpur - JMC",08-05-2024 15:00:00,23.142888,79.916147,PM10,24,137,59
India,Madhya Pradesh,Jabalpur,"Marhatal, Jabalpur - MPPCB",08-05-2024 15:00:00,23.168606,79.932247,NH3,2,7,4
India,Madhya Pradesh,Jabalpur,"Marhatal, Jabalpur - MPPCB",08-05-2024 15:00:00,23.168606,79.932247,CO,34,57,49
India,Madhya Pradesh,Jabalpur,"Suhagi, Jabalpur - JMC",08-05-2024 15:00:00,23.218135,79.957770,PM2.5,20,55,35
India,Madhya Pradesh,Jabalpur,"Suhagi, Jabalpur - JMC",08-05-2024 15:00:00,23.218135,79.957770,PM10,22,128,65
India,Madhya Pradesh,Jabalpur,"Suhagi, Jabalpur - JMC",08-05-2024 15:00:00,23.218135,79.957770,NO2,38,42,40
India,Madhya Pradesh,Jabalpur,"Suhagi, Jabalpur - JMC",08-05-2024 15:00:00,23.218135,79.957770,NH3,3,4,4
India,Madhya Pradesh,Jabalpur,"Suhagi, Jabalpur - JMC",08-05-2024 15:00:00,23.218135,79.957770,OZONE,46,158,94
India,Madhya Pradesh,Katni,"Gole Bazar, Katni - MPPCB",08-05-2024 15:00:00,23.50016,80.23284,PM10,NA,NA,NA
India,Madhya Pradesh,Katni,"Gole Bazar, Katni - MPPCB",08-05-2024 15:00:00,23.50016,80.23284,NO2,NA,NA,NA
India,Madhya Pradesh,Katni,"Gole Bazar, Katni - MPPCB",08-05-2024 15:00:00,23.50016,80.23284,SO2,NA,NA,NA
India,Madhya Pradesh,Mandideep,"Sector-D Industrial Area, Mandideep - MPPCB",08-05-2024 15:00:00,23.108440,77.511428,SO2,9,133,36
India,Madhya Pradesh,Sagar,"Deen Dayal Nagar, Sagar - MPPCB",08-05-2024 15:00:00,23.8640158,78.80289321,PM2.5,13,58,31
India,Madhya Pradesh,Satna,"Bandhavgar Colony, Satna - Birla Cement",08-05-2024 15:00:00,24.58434363,80.8549414,PM2.5,9,30,18
India,Madhya Pradesh,Satna,"Bandhavgar Colony, Satna - Birla Cement",08-05-2024 15:00:00,24.58434363,80.8549414,NO2,4,4,4
India,Madhya Pradesh,Satna,"Bandhavgar Colony, Satna - Birla Cement",08-05-2024 15:00:00,24.58434363,80.8549414,SO2,4,7,4
India,Madhya Pradesh,Satna,"Bandhavgar Colony, Satna - Birla Cement",08-05-2024 15:00:00,24.58434363,80.8549414,OZONE,14,27,22
India,Madhya Pradesh,Singrauli,"Suryakiran Bhawan NCL, Singrauli - MPPCB",08-05-2024 15:00:00,24.108970,82.645580,CO,61,114,88
India,Madhya Pradesh,Ujjain,"Mahakaleshwar Temple, Ujjain - MPPCB",08-05-2024 15:00:00,23.182719 ,75.768218 ,PM2.5,NA,NA,NA
India,Maharashtra,Ahmednagar,"Tarakpur, Ahmednagar - MPCB",08-05-2024 15:00:00,19.10122,74.73339,NH3,NA,NA,NA
India,Maharashtra,Akola,"Ramdaspeth, Akola - MPCB",08-05-2024 15:00:00,20.719516,77.000253,PM2.5,26,87,48
India,Maharashtra,Akola,"Ramdaspeth, Akola - MPCB",08-05-2024 15:00:00,20.719516,77.000253,CO,18,58,23
India,Maharashtra,Amravati,"Shivneri Colony, Amravati - MPCB",08-05-2024 15:00:00,20.9402359,77.7895248,NH3,2,6,4
India,Maharashtra,Amravati,"Shri Shivaji Science College, Amaravati - MPCB",08-05-2024 15:00:00,20.939198,77.765701,PM10,31,500,87
India,Maharashtra,Amravati,"Shri Shivaji Science College, Amaravati - MPCB",08-05-2024 15:00:00,20.939198,77.765701,CO,12,20,18
India,Maharashtra,Amravati,"Shri Shivaji Science College, Amaravati - MPCB",08-05-2024 15:00:00,20.939198,77.765701,OZONE,26,81,39
India,Maharashtra,Aurangabad,"More Chowk Waluj, Aurangabad - MPCB",08-05-2024 15:00:00,19.8389439,75.244448,PM10,34,81,51
India,Maharashtra,Badlapur,"Katrap, Badlapur - MPCB",08-05-2024 15:00:00,19.16485,73.23409,PM2.5,28,60,46
India,Maharashtra,Badlapur,"Katrap, Badlapur - MPCB",08-05-2024 15:00:00,19.16485,73.23409,SO2,5,8,6
India,Maharashtra,Badlapur,"Katrap, Badlapur - MPCB",08-05-2024 15:00:00,19.16485,73.23409,CO,14,37,26
India,Maharashtra,Belapur,"CBD Belapur, Belapur - MPCB",08-05-2024 15:00:00,19.0243902,73.0406721,CO,8,20,15
India,Maharashtra,Belapur,"CBD Belapur, Belapur - MPCB",08-05-2024 15:00:00,19.0243902,73.0406721,OZONE,61,244,161
India,Maharashtra,Bhiwandi,"Gokul Nagar, Bhiwandi - MPCB",08-05-2024 15:00:00,19.309073,73.057223,SO2,3,17,11
India,Maharashtra,Bhiwandi,"Gokul Nagar, Bhiwandi - MPCB",08-05-2024 15:00:00,19.309073,73.057223,CO,17,39,26
India,Maharashtra,Boisar,"Khaira, Boisar - MPCB",08-05-2024 15:00:00,19.786089,72.757971,SO2,1,26,10
India,Maharashtra,Chandrapur,"Chauhan Colony, Chandrapur - MPCB",08-05-2024 15:00:00,19.962900,79.298714,OZONE,8,52,25
India,Maharashtra,Dhule,"Deopur, Dhule - MPCB",08-05-2024 15:00:00,20.918946,74.776388,SO2,1,22,7
India,Maharashtra,Jalgaon,"Prabhat Colony, Jalgaon - MPCB",08-05-2024 15:00:00,21.001264,75.565602,OZONE,15,137,54
India,Maharashtra,Jalna,"Old MIDC, Jalna - MPCB",08-05-2024 15:00:00,19.854616,75.905894,CO,22,38,26
India,Maharashtra,Kalyan,"Khadakpada, Kalyan - MPCB",08-05-2024 15:00:00,19.25292,73.142019,NH3,1,1,1
India,Maharashtra,Kolhapur,"Shivaji University, Kolhapur - MPCB",08-05-2024 15:00:00,16.6870449,74.2505872,PM2.5,61,137,97
India,Maharashtra,Kolhapur,"Shivaji University, Kolhapur - MPCB",08-05-2024 15:00:00,16.6870449,74.2505872,PM10,76,141,109
India,Maharashtra,Kolhapur,"Shivaji University, Kolhapur - MPCB",08-05-2024 15:00:00,16.6870449,74.2505872,OZONE,14,123,48
India,Maharashtra,Kolhapur,"Sinchan Bhavan, Kolhapur - MPCB",08-05-2024 15:00:00,16.7143745,74.2426398,PM2.5,NA,NA,NA
India,Maharashtra,Kolhapur,"Sinchan Bhavan, Kolhapur - MPCB",08-05-2024 15:00:00,16.7143745,74.2426398,CO,10,26,18
India,Maharashtra,Kolhapur,"Sinchan Bhavan, Kolhapur - MPCB",08-05-2024 15:00:00,16.7143745,74.2426398,OZONE,13,156,48
India,Maharashtra,Latur,"Sawe Wadi, Latur - MPCB",08-05-2024 15:00:00,18.39963,76.57452,NO2,17,82,29
India,Maharashtra,Mahad,"Kamble Tarf Birwadi, Mahad - MPCB",08-05-2024 15:00:00,18.1023399,73.4783687,OZONE,5,32,12
India,Maharashtra,Malegaon,"Mahesh Nagar, Malegaon - MPCB",08-05-2024 15:00:00,20.555712,74.529236,SO2,2,6,3
India,Maharashtra,Mira-Bhayandar,"Bhayandar West, Mira-Bhayandar - MPCB",08-05-2024 15:00:00,19.296481,72.840923,NO2,3,16,5
India,Maharashtra,Mira-Bhayandar,"Bhayandar West, Mira-Bhayandar - MPCB",08-05-2024 15:00:00,19.296481,72.840923,NH3,2,4,3
India,Maharashtra,Mira-Bhayandar,"Bhayandar West, Mira-Bhayandar - MPCB",08-05-2024 15:00:00,19.296481,72.840923,CO,18,32,23
India,Maharashtra,Mumbai,"Borivali East, Mumbai - IITM",08-05-2024 15:00:00,19.23241,72.86895,PM10,38,79,60
India,Maharashtra,Mumbai,"Borivali East, Mumbai - IITM",08-05-2024 15:00:00,19.23241,72.86895,NH3,3,5,4
India,Maharashtra,Mumbai,"Borivali East, Mumbai - IITM",08-05-2024 15:00:00,19.23241,72.86895,OZONE,16,85,40
India,Maharashtra,Mumbai,"Borivali East, Mumbai - MPCB",08-05-2024 15:00:00,19.2243333,72.8658113,PM2.5,7,28,14
India,Maharashtra,Mumbai,"Byculla, Mumbai - BMC",08-05-2024 15:00:00,18.9767,72.8380,NO2,5,8,6
India,Maharashtra,Mumbai,"Chakala-Andheri East, Mumbai - IITM",08-05-2024 15:00:00,19.11074,72.86084,NO2,27,61,42
India,Maharashtra,Mumbai,"Chhatrapati Shivaji Intl. Airport (T2), Mumbai - MPCB",08-05-2024 15:00:00,19.10078,72.87462,SO2,15,24,19
India,Maharashtra,Mumbai,"Colaba, Mumbai - MPCB",08-05-2024 15:00:00,18.910000,72.820000,NO2,18,20,19
India,Maharashtra,Mumbai,"Colaba, Mumbai - MPCB",08-05-2024 15:00:00,18.910000,72.820000,NH3,1,1,1
India,Maharashtra,Mumbai,"Colaba, Mumbai - MPCB",08-05-2024 15:00:00,18.910000,72.820000,SO2,10,11,10
India,Maharashtra,Mumbai,"Deonar, Mumbai - IITM",08-05-2024 15:00:00,19.04946,72.9230,PM2.5,NA,NA,NA
India,Maharashtra,Mumbai,"Deonar, Mumbai - IITM",08-05-2024 15:00:00,19.04946,72.9230,PM10,NA,NA,NA
India,Maharashtra,Mumbai,"Deonar, Mumbai - IITM",08-05-2024 15:00:00,19.04946,72.9230,NO2,NA,NA,NA
India,Maharashtra,Mumbai,"Ghatkopar, Mumbai - BMC",08-05-2024 15:00:00,19.083694,72.920967,PM10,29,51,40
India,Maharashtra,Mumbai,"Ghatkopar, Mumbai - BMC",08-05-2024 15:00:00,19.083694,72.920967,NH3,2,5,3
India,Maharashtra,Mumbai,"Ghatkopar, Mumbai - BMC",08-05-2024 15:00:00,19.083694,72.920967,CO,4,12,7
India,Maharashtra,Mumbai,"Kandivali East, Mumbai - MPCB",08-05-2024 15:00:00,19.205800,72.868200,PM2.5,18,85,31
India,Maharashtra,Mumbai,"Kandivali East, Mumbai - MPCB",08-05-2024 15:00:00,19.205800,72.868200,PM10,46,174,88
India,Maharashtra,Mumbai,"Kandivali East, Mumbai - MPCB",08-05-2024 15:00:00,19.205800,72.868200,NO2,26,49,37
India,Maharashtra,Mumbai,"Kandivali West, Mumbai - BMC",08-05-2024 15:00:00,19.215859,72.831718,OZONE,14,37,25
India,Maharashtra,Mumbai,"Khindipada-Bhandup West, Mumbai - IITM",08-05-2024 15:00:00,19.1653323,72.922099,NO2,3,6,4
India,Maharashtra,Mumbai,"Kurla, Mumbai - MPCB",08-05-2024 15:00:00,19.0863,72.8888,CO,1,10,5
India,Maharashtra,Mumbai,"Mulund West, Mumbai - MPCB",08-05-2024 15:00:00,19.1750,72.9419,NO2,15,16,15
India,Maharashtra,Mumbai,"Mulund West, Mumbai - MPCB",08-05-2024 15:00:00,19.1750,72.9419,CO,42,42,42
India,Maharashtra,Mumbai,"Powai, Mumbai - MPCB",08-05-2024 15:00:00,19.137500,72.915056,PM10,45,99,74
India,Maharashtra,Mumbai,"Powai, Mumbai - MPCB",08-05-2024 15:00:00,19.137500,72.915056,NH3,1,2,1
India,Maharashtra,Mumbai,"Sewri, Mumbai - BMC",08-05-2024 15:00:00,19.000084,72.856730,PM10,NA,NA,NA
India,Maharashtra,Mumbai,"Sewri, Mumbai - BMC",08-05-2024 15:00:00,19.000084,72.856730,OZONE,7,42,33
India,Maharashtra,Mumbai,"Siddharth Nagar-Worli, Mumbai - IITM",08-05-2024 15:00:00,19.000083,72.813993,CO,62,80,71
India,Maharashtra,Mumbai,"Sion, Mumbai - MPCB",08-05-2024 15:00:00,19.047000,72.874600,SO2,32,34,33
India,Maharashtra,Mumbai,"Sion, Mumbai - MPCB",08-05-2024 15:00:00,19.047000,72.874600,CO,70,75,73
India,Maharashtra,Mumbai,"Sion, Mumbai - MPCB",08-05-2024 15:00:00,19.047000,72.874600,OZONE,63,77,71
India,Maharashtra,Mumbai,"Vasai West, Mumbai - MPCB",08-05-2024 15:00:00,19.383200,72.820400,PM2.5,15,69,31
India,Maharashtra,Nagpur,"Ambazari, Nagpur - MPCB",08-05-2024 15:00:00,21.121801,79.04952,SO2,5,38,15
India,Maharashtra,Nagpur,"Mahal, Nagpur - MPCB",08-05-2024 15:00:00,21.14472,79.107595,PM2.5,21,176,58
India,Maharashtra,Nagpur,"Mahal, Nagpur - MPCB",08-05-2024 15:00:00,21.14472,79.107595,OZONE,11,71,34
India,Maharashtra,Nashik,"Gangapur Road, Nashik - MPCB",08-05-2024 15:00:00,20.0073285,73.7762427,PM2.5,27,55,42
India,Maharashtra,Nashik,"Gangapur Road, Nashik - MPCB",08-05-2024 15:00:00,20.0073285,73.7762427,NO2,1,6,1
India,Maharashtra,Nashik,"Hirawadi, Nashik - MPCB",08-05-2024 15:00:00,20.021503,73.813844,PM2.5,14,79,35
India,Maharashtra,Nashik,"Hirawadi, Nashik - MPCB",08-05-2024 15:00:00,20.021503,73.813844,SO2,11,22,17
India,Maharashtra,Navi Mumbai,"Kopripada-Vashi, Navi Mumbai - MPCB",08-05-2024 15:00:00,19.090337,73.014232,PM2.5,31,85,46
India,Maharashtra,Navi Mumbai,"Nerul, Navi Mumbai - MPCB",08-05-2024 15:00:00,19.008751,73.016620,NH3,2,2,2
India,Maharashtra,Navi Mumbai,"Nerul, Navi Mumbai - MPCB",08-05-2024 15:00:00,19.008751,73.016620,CO,15,20,19
India,Maharashtra,Navi Mumbai,"Sanpada, Navi Mumbai - MPCB",08-05-2024 15:00:00,19.0575752,73.0151367,PM10,49,111,76
India,Maharashtra,Navi Mumbai,"Sanpada, Navi Mumbai - MPCB",08-05-2024 15:00:00,19.0575752,73.0151367,NO2,3,18,8
India,Maharashtra,Navi Mumbai,"Sector-19A Nerul, Navi Mumbai - IITM",08-05-2024 15:00:00,19.044,73.0325,SO2,NA,NA,NA
India,Maharashtra,Navi Mumbai,"Sector-2E Kalamboli, Navi Mumbai - MPCB",08-05-2024 15:00:00,19.02579,73.10297,NH3,1,4,3
India,Maharashtra,Navi Mumbai,"Sector-2E Kalamboli, Navi Mumbai - MPCB",08-05-2024 15:00:00,19.02579,73.10297,CO,2,15,8
India,Maharashtra,Navi Mumbai,"Sector-2E Kalamboli, Navi Mumbai - MPCB",08-05-2024 15:00:00,19.02579,73.10297,OZONE,2,53,27
India,Maharashtra,Navi Mumbai,"Tondare-Taloja, Navi Mumbai - MPCB",08-05-2024 15:00:00,19.0630,73.1209,NO2,15,50,31
India,Maharashtra,Navi Mumbai,"Tondare-Taloja, Navi Mumbai - MPCB",08-05-2024 15:00:00,19.0630,73.1209,NH3,3,6,4
India,Maharashtra,Navi Mumbai,"Tondare-Taloja, Navi Mumbai - MPCB",08-05-2024 15:00:00,19.0630,73.1209,OZONE,1,56,30
India,Maharashtra,Parbhani,"Masoom Colony, Parbhani - MPCB",08-05-2024 15:00:00,19.265594,76.761463,PM2.5,23,75,51
India,Maharashtra,Parbhani,"Masoom Colony, Parbhani - MPCB",08-05-2024 15:00:00,19.265594,76.761463,PM10,26,377,94
India,Maharashtra,Pimpri-Chinchwad,"Gavalinagar, Pimpri Chinchwad - MPCB",08-05-2024 15:00:00,18.63673,73.82487,NO2,9,41,18
India,Maharashtra,Pimpri-Chinchwad,"Gavalinagar, Pimpri Chinchwad - MPCB",08-05-2024 15:00:00,18.63673,73.82487,NH3,1,3,2
India,Maharashtra,Pimpri-Chinchwad,"Gavalinagar, Pimpri Chinchwad - MPCB",08-05-2024 15:00:00,18.63673,73.82487,CO,6,29,19
India,Maharashtra,Pimpri-Chinchwad,"Gavalinagar, Pimpri Chinchwad - MPCB",08-05-2024 15:00:00,18.63673,73.82487,OZONE,1,164,164
India,Maharashtra,Pimpri-Chinchwad,"Park Street Wakad, Pimpri Chinchwad - MPCB",08-05-2024 15:00:00,18.59051,73.77946,PM10,42,107,82
India,Maharashtra,Pimpri-Chinchwad,"Park Street Wakad, Pimpri Chinchwad - MPCB",08-05-2024 15:00:00,18.59051,73.77946,SO2,1,10,3
India,Maharashtra,Pune,"Karve Road, Pune - MPCB",08-05-2024 15:00:00,18.5011743,73.8165527,PM10,NA,NA,NA
India,Maharashtra,Pune,"Karve Road, Pune - MPCB",08-05-2024 15:00:00,18.5011743,73.8165527,NO2,NA,NA,NA
India,Maharashtra,Pune,"Katraj Dairy, Pune - MPCB",08-05-2024 15:00:00,18.454450,73.854155,PM2.5,34,46,39
India,Maharashtra,Pune,"Revenue Colony-Shivajinagar, Pune - IITM",08-05-2024 15:00:00,18.530085,73.849598,NO2,98,225,167
India,Maharashtra,Pune,"Revenue Colony-Shivajinagar, Pune - IITM",08-05-2024 15:00:00,18.530085,73.849598,SO2,81,133,115
India,Maharashtra,Pune,"Revenue Colony-Shivajinagar, Pune - IITM",08-05-2024 15:00:00,18.530085,73.849598,OZONE,5,67,32
India,Maharashtra,Pune,"Savitribai Phule Pune University, Pune - MPCB",08-05-2024 15:00:00,18.547056,73.826908,CO,10,22,17
India,Maharashtra,Pune,"Transport Nagar-Nigdi, Pune - IITM",08-05-2024 15:00:00,18.664282,73.763966,OZONE,1,84,40
India,Maharashtra,Sangli,"Vijay Nagar, Sangli - MPCB",08-05-2024 15:00:00, 16.5038,74.3623,PM2.5,17,52,31
India,Maharashtra,Sangli,"Vijay Nagar, Sangli - MPCB",08-05-2024 15:00:00, 16.5038,74.3623,NO2,7,23,12
India,Maharashtra,Sangli,"Vijay Nagar, Sangli - MPCB",08-05-2024 15:00:00, 16.5038,74.3623,OZONE,16,126,43
India,Maharashtra,Solapur,"Ratandeep Housing Society, Solapur - MPCB",08-05-2024 15:00:00,17.65439,75.90649,PM10,49,115,80
India,Maharashtra,Solapur,"Solapur, Solapur - MPCB",08-05-2024 15:00:00,17.6599188,75.9063906,NO2,54,55,55
India,Maharashtra,Solapur,"Solapur, Solapur - MPCB",08-05-2024 15:00:00,17.6599188,75.9063906,SO2,103,106,104
India,Maharashtra,Thane,"Kasarvadavali, Thane - MPCB",08-05-2024 15:00:00,19.26777,72.97182,PM2.5,20,53,36
India,Maharashtra,Thane,"Kasarvadavali, Thane - MPCB",08-05-2024 15:00:00,19.26777,72.97182,NH3,4,7,5
India,Maharashtra,Thane,"Kasarvadavali, Thane - MPCB",08-05-2024 15:00:00,19.26777,72.97182,SO2,1,2,1
India,Maharashtra,Thane,"Kasarvadavali, Thane - MPCB",08-05-2024 15:00:00,19.26777,72.97182,CO,4,32,13
India,Maharashtra,Thane,"Pimpleshwar Mandir, Thane - MPCB",08-05-2024 15:00:00,19.192056,72.9585188,PM10,49,118,86
India,Maharashtra,Thane,"Upvan Fort, Thane - MPCB",08-05-2024 15:00:00,19.222279,72.957979,PM2.5,17,63,33
India,Maharashtra,Thane,"Upvan Fort, Thane - MPCB",08-05-2024 15:00:00,19.222279,72.957979,NH3,4,6,5
India,Maharashtra,Thane,"Upvan Fort, Thane - MPCB",08-05-2024 15:00:00,19.222279,72.957979,SO2,1,9,6
India,Maharashtra,Ulhasnagar,"Sidhi Vinayak Nagar, Ulhasnagar - MPCB",08-05-2024 15:00:00,19.235581,73.159121,SO2,9,15,11
India,Maharashtra,Ulhasnagar,"Sidhi Vinayak Nagar, Ulhasnagar - MPCB",08-05-2024 15:00:00,19.235581,73.159121,OZONE,5,183,85
India,Maharashtra,Virar,"Bolinj, Virar - MPCB",08-05-2024 15:00:00,19.4458210,72.7988231,PM10,51,84,68
India,Maharashtra,Virar,"Bolinj, Virar - MPCB",08-05-2024 15:00:00,19.4458210,72.7988231,OZONE,12,47,33
India,Manipur,Imphal,"DM College of Science, Imphal - Manipur PCB",08-05-2024 15:00:00,24.8207389,93.9423085,NO2,NA,NA,NA
India,Manipur,Imphal,"DM College of Science, Imphal - Manipur PCB",08-05-2024 15:00:00,24.8207389,93.9423085,SO2,NA,NA,NA
India,Manipur,Imphal,"Manipur University, Imphal - Manipur PCB",08-05-2024 15:00:00,24.7524239,93.9286218,CO,10,11,10
India,Manipur,Imphal,"Manipur University, Imphal - Manipur PCB",08-05-2024 15:00:00,24.7524239,93.9286218,OZONE,14,24,19
India,Mizoram,Aizawl,"Sikulpuikawn, Aizawl - Mizoram PCB",08-05-2024 15:00:00,23.7176342,92.7192841,NO2,1,3,1
India,Mizoram,Aizawl,"Sikulpuikawn, Aizawl - Mizoram PCB",08-05-2024 15:00:00,23.7176342,92.7192841,OZONE,4,28,13
India,Odisha,Angul,"Hakimapada, Angul - OSPCB",08-05-2024 15:00:00,20.832874,85.104082,PM2.5,45,500,128
India,Odisha,Angul,"Hakimapada, Angul - OSPCB",08-05-2024 15:00:00,20.832874,85.104082,SO2,10,130,48
India,Odisha,Angul,"Hakimapada, Angul - OSPCB",08-05-2024 15:00:00,20.832874,85.104082,CO,2,100,44
India,Odisha,Barbil,"Forest Office, Barbil - OSPCB",08-05-2024 15:00:00,22.1166054,85.3945546,SO2,7,38,15
India,Odisha,Barbil,"Forest Office, Barbil - OSPCB",08-05-2024 15:00:00,22.1166054,85.3945546,OZONE,16,241,241
India,Odisha,Baripada,"Meher Colony, Baripada - OSPCB",08-05-2024 15:00:00,21.941841,86.728318,NO2,NA,NA,NA
India,Odisha,Bhubaneswar,"Lingraj Mandir, Bhubaneswar - OSPCB",08-05-2024 15:00:00,20.240790,85.836784,NH3,2,4,2
India,Odisha,Bhubaneswar,"Lingraj Mandir, Bhubaneswar - OSPCB",08-05-2024 15:00:00,20.240790,85.836784,CO,43,80,61
India,Odisha,Bileipada,"Tata Township, Bileipada - OSPCB",08-05-2024 15:00:00,22.06156703,85.47409613,NH3,11,12,12
India,Odisha,Brajrajnagar,"GM Office, Brajrajnagar - OSPCB",08-05-2024 15:00:00,21.8004996,83.8396977,NO2,15,18,16
India,Odisha,Byasanagar,"Ferro Chrome Colony, Byasanagar - OSPCB",08-05-2024 15:00:00,20.94185,86.11510,PM2.5,7,45,25
India,Odisha,Byasanagar,"Ferro Chrome Colony, Byasanagar - OSPCB",08-05-2024 15:00:00,20.94185,86.11510,PM10,26,67,44
India,Odisha,Cuttack,"CDA Area, Cuttack - OSPCB",08-05-2024 15:00:00,20.48891     ,85.84768     ,NO2,13,62,30
India,Odisha,Cuttack,"CDA Area, Cuttack - OSPCB",08-05-2024 15:00:00,20.48891     ,85.84768     ,CO,1,34,9
India,Odisha,Keonjhar,"Jagamohanpur, Keonjhar - OSPCB",08-05-2024 15:00:00,21.643900,85.599355,PM10,64,118,93
India,Odisha,Keonjhar,"Jagamohanpur, Keonjhar - OSPCB",08-05-2024 15:00:00,21.643900,85.599355,NH3,NA,NA,NA
India,Odisha,Nayagarh,"Dabuna, Nayagarh - OSPCB",08-05-2024 15:00:00,21.847279,85.416905,NO2,2,3,2
India,Odisha,Rourkela,"Fertilizer Township, Rourkela - OSPCB",08-05-2024 15:00:00,22.18972222,84.86277778,PM2.5,98,122,106
India,Odisha,Rourkela,"Raghunathpali, Rourkela - OSPCB",08-05-2024 15:00:00,22.220833,84.809444,PM2.5,NA,NA,NA
India,Odisha,Rourkela,"Raghunathpali, Rourkela - OSPCB",08-05-2024 15:00:00,22.220833,84.809444,SO2,NA,NA,NA
India,Odisha,Rourkela,"Raghunathpali, Rourkela - OSPCB",08-05-2024 15:00:00,22.220833,84.809444,CO,24,42,29
India,Odisha,Rourkela,"Sector-2, Rourkela - OSPCB",08-05-2024 15:00:00,22.24500000,84.88111111,CO,16,36,28
India,Odisha,Suakati,"OMC Colony, Suakati - OSPCB",08-05-2024 15:00:00,21.606865,85.510538,PM2.5,54,96,75
India,Odisha,Suakati,"OMC Colony, Suakati - OSPCB",08-05-2024 15:00:00,21.606865,85.510538,NO2,NA,NA,NA
India,Odisha,Suakati,"OMC Colony, Suakati - OSPCB",08-05-2024 15:00:00,21.606865,85.510538,NH3,NA,NA,NA
India,Odisha,Suakati,"OMC Colony, Suakati - OSPCB",08-05-2024 15:00:00,21.606865,85.510538,SO2,2,44,11
India,Odisha,Talcher,"Talcher Coalfields,Talcher - OSPCB",08-05-2024 15:00:00,20.9360711,85.1707021,NO2,15,30,18
India,Odisha,Talcher,"Talcher Coalfields,Talcher - OSPCB",08-05-2024 15:00:00,20.9360711,85.1707021,NH3,3,4,3
India,Odisha,Talcher,"Talcher Coalfields,Talcher - OSPCB",08-05-2024 15:00:00,20.9360711,85.1707021,CO,13,64,45
India,Odisha,Tensa,"Barsua Iron Ore Mines, Tensa - OSPCB",08-05-2024 15:00:00,21.869985,85.167016,PM2.5,20,59,44
India,Puducherry,Puducherry,"Jawahar Nagar, Puducherry - PPCC",08-05-2024 15:00:00,11.9309,79.8027,NH3,2,6,4
India,Punjab,Bathinda,"Hardev Nagar, Bathinda - PPCB",08-05-2024 15:00:00,30.233011,74.907758,PM10,46,350,159
India,Punjab,Bathinda,"Hardev Nagar, Bathinda - PPCB",08-05-2024 15:00:00,30.233011,74.907758,NO2,25,32,28
India,Punjab,Khanna,"Kalal Majra, Khanna - PPCB",08-05-2024 15:00:00,30.736056 ,76.209694,PM2.5,43,184,120
India,Punjab,Khanna,"Kalal Majra, Khanna - PPCB",08-05-2024 15:00:00,30.736056 ,76.209694,OZONE,41,47,46
India,Punjab,Rupnagar,"Ratanpura, Rupnagar - Ambuja Cements",08-05-2024 15:00:00,31.0325454,76.5623046,CO,18,43,35
India,Rajasthan,Ajmer,"Civil Lines,  Ajmer - RSPCB",08-05-2024 15:00:00,26.470859,74.646594,PM2.5,44,180,86
India,Rajasthan,Ajmer,"Civil Lines,  Ajmer - RSPCB",08-05-2024 15:00:00,26.470859,74.646594,NH3,11,16,14
India,Rajasthan,Ajmer,"Civil Lines,  Ajmer - RSPCB",08-05-2024 15:00:00,26.470859,74.646594,SO2,4,31,12
India,Rajasthan,Ajmer,"Civil Lines,  Ajmer - RSPCB",08-05-2024 15:00:00,26.470859,74.646594,OZONE,4,125,66
India,Rajasthan,Alwar,"Moti Doongri, Alwar - RSPCB",08-05-2024 15:00:00,27.554793,76.611536,NO2,29,61,40
India,Rajasthan,Alwar,"Moti Doongri, Alwar - RSPCB",08-05-2024 15:00:00,27.554793,76.611536,NH3,3,9,5
India,Rajasthan,Alwar,"Moti Doongri, Alwar - RSPCB",08-05-2024 15:00:00,27.554793,76.611536,OZONE,17,42,19
India,Rajasthan,Banswara,"Rati Talai, Banswara - RSPCB",08-05-2024 15:00:00,23.555190,74.440010,PM10,76,195,125
India,Rajasthan,Banswara,"Rati Talai, Banswara - RSPCB",08-05-2024 15:00:00,23.555190,74.440010,CO,30,56,38
India,Rajasthan,Baran,"Bamboliya, Baran - RSPCB",08-05-2024 15:00:00,25.106006,76.469948,PM10,95,169,130
India,Rajasthan,Baran,"Bamboliya, Baran - RSPCB",08-05-2024 15:00:00,25.106006,76.469948,OZONE,18,161,77
India,Rajasthan,Barmer,"Railway Colony, Barmer - RSPCB",08-05-2024 15:00:00,25.747299,71.393989,NH3,6,27,14
India,Rajasthan,Bharatpur,"Krishna Nagar, Bharatpur - RSPCB",08-05-2024 15:00:00,27.215415,77.50873,CO,30,56,50
India,Rajasthan,Bhilwara,"Pratap Nagar, Bhilwara - RSPCB",08-05-2024 15:00:00,25.339605,74.618883,NO2,10,126,39
India,Rajasthan,Bhiwadi,"RIICO Ind. Area III, Bhiwadi - RSPCB",08-05-2024 15:00:00,28.194909,76.862296,PM2.5,84,214,131
India,Rajasthan,Bhiwadi,"RIICO Ind. Area III, Bhiwadi - RSPCB",08-05-2024 15:00:00,28.194909,76.862296,PM10,103,228,154
India,Rajasthan,Bhiwadi,"RIICO Ind. Area III, Bhiwadi - RSPCB",08-05-2024 15:00:00,28.194909,76.862296,SO2,31,54,37
India,Rajasthan,Bhiwadi,"Vasundhara Nagar_UIT, Bhiwadi - RSPCB",08-05-2024 15:00:00,28.207266,76.829265,PM10,114,402,268
India,Rajasthan,Bhiwadi,"Vasundhara Nagar_UIT, Bhiwadi - RSPCB",08-05-2024 15:00:00,28.207266,76.829265,SO2,3,41,17
India,Rajasthan,Bikaner,"MM Ground, Bikaner - RSPCB",08-05-2024 15:00:00,28.018792,73.292658,OZONE,21,93,68
India,Rajasthan,Bundi,"New Colony, Bundi - RSPCB",08-05-2024 15:00:00,25.435774,75.644272,PM10,74,342,145
India,Rajasthan,Chittorgarh,"Shastri Nagar, Chittorgarh - RSPCB",08-05-2024 15:00:00,24.892047,74.623527,SO2,2,10,4
India,Rajasthan,Chittorgarh,"Shastri Nagar, Chittorgarh - RSPCB",08-05-2024 15:00:00,24.892047,74.623527,CO,8,72,12
India,Rajasthan,Dausa,"Khatikan Mohalla, Dausa - RSPCB",08-05-2024 15:00:00,26.895552,76.334753,PM2.5,38,301,113
India,Rajasthan,Dausa,"Khatikan Mohalla, Dausa - RSPCB",08-05-2024 15:00:00,26.895552,76.334753,NO2,22,114,45
India,Rajasthan,Dholpur,"Raja Ganj, Dholpur - RSPCB",08-05-2024 15:00:00,26.699557,77.898881,NO2,26,67,32
India,Rajasthan,Dungarpur,"Bhoiwada, Dungarpur - RSPCB",08-05-2024 15:00:00,23.837789,73.714926,PM2.5,17,48,32
India,Rajasthan,Dungarpur,"Bhoiwada, Dungarpur - RSPCB",08-05-2024 15:00:00,23.837789,73.714926,NO2,13,25,18
India,Rajasthan,Dungarpur,"Bhoiwada, Dungarpur - RSPCB",08-05-2024 15:00:00,23.837789,73.714926,CO,12,22,14
India,Rajasthan,Dungarpur,"Bhoiwada, Dungarpur - RSPCB",08-05-2024 15:00:00,23.837789,73.714926,OZONE,22,72,36
India,Rajasthan,Hanumangarh,"Housing Board, Hanumangarh - RSPCB",08-05-2024 15:00:00,29.610750,74.283608,CO,29,77,55
India,Rajasthan,Jaipur,"Adarsh Nagar, Jaipur - RSPCB",08-05-2024 15:00:00,26.902909,75.836858,NH3,3,12,5
India,Rajasthan,Jaipur,"Adarsh Nagar, Jaipur - RSPCB",08-05-2024 15:00:00,26.902909,75.836858,OZONE,5,115,78
India,Rajasthan,Jaipur,"Mansarovar Sector-12, Jaipur - RSPCB",08-05-2024 15:00:00,26.843698,75.766894,PM10,98,290,173
India,Rajasthan,Jaipur,"Police Commissionerate, Jaipur - RSPCB",08-05-2024 15:00:00,26.9164092,75.7994901,PM10,89,192,147
India,Rajasthan,Jaipur,"Police Commissionerate, Jaipur - RSPCB",08-05-2024 15:00:00,26.9164092,75.7994901,NO2,15,76,31
India,Rajasthan,Jaipur,"Police Commissionerate, Jaipur - RSPCB",08-05-2024 15:00:00,26.9164092,75.7994901,CO,5,105,35
India,Rajasthan,Jaipur,"RIICO Sitapura, Jaipur - RSPCB",08-05-2024 15:00:00,26.786682,75.827928,SO2,9,29,17
India,Rajasthan,Jaipur,"RIICO Sitapura, Jaipur - RSPCB",08-05-2024 15:00:00,26.786682,75.827928,OZONE,4,94,43
India,Rajasthan,Jaipur,"Shastri Nagar, Jaipur - RSPCB",08-05-2024 15:00:00,26.9502929,75.730943,NH3,5,17,10
India,Rajasthan,Jaisalmer,"Sadar Bazar, Jaisalmer - RSPCB",08-05-2024 15:00:00,26.912329,70.909168,NH3,3,12,7
India,Rajasthan,Jalore,"Mudtra Sili, Jalore - RSPCB",08-05-2024 15:00:00,25.344694,72.626208,PM2.5,28,53,39
India,Rajasthan,Jalore,"Mudtra Sili, Jalore - RSPCB",08-05-2024 15:00:00,25.344694,72.626208,PM10,82,159,107
India,Rajasthan,Jhalawar,"Rajlaxmi Nagar, Jhalawar - RSPCB",08-05-2024 15:00:00,24.588397,76.172782,PM2.5,22,173,62
India,Rajasthan,Jhunjhunu,"Indra Nagar, Jhunjhunu - RSPCB",08-05-2024 15:00:00,28.108988,75.386577,NO2,13,57,27
India,Rajasthan,Jhunjhunu,"Indra Nagar, Jhunjhunu - RSPCB",08-05-2024 15:00:00,28.108988,75.386577,CO,12,46,32
India,Rajasthan,Jodhpur,"Jhalamand, Jodhpur - RSPCB",08-05-2024 15:00:00,26.215415,73.070156,PM10,51,484,167
India,Rajasthan,Jodhpur,"Jhalamand, Jodhpur - RSPCB",08-05-2024 15:00:00,26.215415,73.070156,NO2,2,118,34
India,Rajasthan,Jodhpur,"Jhalamand, Jodhpur - RSPCB",08-05-2024 15:00:00,26.215415,73.070156,SO2,4,28,11
India,Rajasthan,Jodhpur,"Jhalamand, Jodhpur - RSPCB",08-05-2024 15:00:00,26.215415,73.070156,OZONE,2,96,61
India,Rajasthan,Jodhpur,"Mandor, Jodhpur - RSPCB",08-05-2024 15:00:00,26.358805,73.047444,PM10,75,244,140
India,Rajasthan,Jodhpur,"Mandor, Jodhpur - RSPCB",08-05-2024 15:00:00,26.358805,73.047444,OZONE,25,91,65
India,Rajasthan,Jodhpur,"Samrat Ashok Udhyan, Jodhpur - RSPCB",08-05-2024 15:00:00,26.253384,72.976571,PM10,58,339,142
India,Rajasthan,Jodhpur,"Samrat Ashok Udhyan, Jodhpur - RSPCB",08-05-2024 15:00:00,26.253384,72.976571,OZONE,7,89,68
India,Rajasthan,Karauli,"Satyawati Vihar, Karauli - RSPCB",08-05-2024 15:00:00,26.506177,77.025989,NH3,4,22,8
India,Rajasthan,Kota,"Dhanmandi, Kota - RSPCB",08-05-2024 15:00:00,25.164090,75.858137,PM2.5,29,306,98
India,Rajasthan,Kota,"Dhanmandi, Kota - RSPCB",08-05-2024 15:00:00,25.164090,75.858137,NH3,3,9,5
India,Rajasthan,Kota,"Nayapura, Kota - RSPCB",08-05-2024 15:00:00,25.196024,75.855668,NO2,14,145,68
India,Rajasthan,Kota,"Nayapura, Kota - RSPCB",08-05-2024 15:00:00,25.196024,75.855668,OZONE,6,162,162
India,Rajasthan,Kota,"Shrinath Puram, Kota - RSPCB",08-05-2024 15:00:00,25.14389,75.821256,NO2,8,129,48
India,Rajasthan,Nagaur,"Karni Colony, Nagaur - RSPCB",08-05-2024 15:00:00,27.213494,73.734444,PM2.5,17,106,51
India,Rajasthan,Nagaur,"Karni Colony, Nagaur - RSPCB",08-05-2024 15:00:00,27.213494,73.734444,SO2,2,12,4
India,Rajasthan,Nagaur,"Karni Colony, Nagaur - RSPCB",08-05-2024 15:00:00,27.213494,73.734444,CO,10,49,27
India,Rajasthan,Pali,"Indira Colony Vistar, Pali - RSPCB",08-05-2024 15:00:00,25.771061, 73.340227,PM2.5,41,313,139
India,Rajasthan,Sikar,"Radhakishan Pura, Sikar - RSPCB",08-05-2024 15:00:00,27.608912,75.153302,PM10,94,280,161
India,Rajasthan,Sri Ganganagar,"Old City, Sri Ganganagar - RSPCB",08-05-2024 15:00:00,29.931624,73.864511,NO2,23,131,70
India,Rajasthan,Sri Ganganagar,"Old City, Sri Ganganagar - RSPCB",08-05-2024 15:00:00,29.931624,73.864511,OZONE,3,85,62
India,Rajasthan,Tonk,"Shastri Nagar, Tonk - RSPCB",08-05-2024 15:00:00,26.159933,75.780517,NO2,NA,NA,NA
India,Rajasthan,Tonk,"Shastri Nagar, Tonk - RSPCB",08-05-2024 15:00:00,26.159933,75.780517,NH3,NA,NA,NA
India,Rajasthan,Udaipur,"Ashok Nagar, Udaipur - RSPCB",08-05-2024 15:00:00,24.5886166,73.6321397,NO2,8,57,22
India,Rajasthan,Udaipur,"Ashok Nagar, Udaipur - RSPCB",08-05-2024 15:00:00,24.5886166,73.6321397,CO,4,111,22
India,Rajasthan,Udaipur,"Ashok Nagar, Udaipur - RSPCB",08-05-2024 15:00:00,24.5886166,73.6321397,OZONE,29,87,48
India,Sikkim,Gangtok,"Zero Point GICI, Gangtok - SSPCB",08-05-2024 15:00:00,27.338530,88.614099,PM2.5,11,20,15
India,Sikkim,Gangtok,"Zero Point GICI, Gangtok - SSPCB",08-05-2024 15:00:00,27.338530,88.614099,NO2,1,5,2
India,Sikkim,Gangtok,"Zero Point GICI, Gangtok - SSPCB",08-05-2024 15:00:00,27.338530,88.614099,OZONE,18,65,41
India,TamilNadu,Ariyalur,"Keelapalur, Ariyalur - TNPCB",08-05-2024 15:00:00,11.06825,79.07033,PM2.5,28,75,37
India,TamilNadu,Chennai,"Alandur Bus Depot, Chennai - CPCB",08-05-2024 15:00:00,12.9099161,80.1076538,NH3,8,20,10
India,TamilNadu,Chennai,"Kodungaiyur, Chennai - TNPCB",08-05-2024 15:00:00,13.1278,80.2642,OZONE,12,99,70
India,TamilNadu,Chennai,"Manali, Chennai - CPCB",08-05-2024 15:00:00,13.164544,80.26285,PM10,5,50,22
India,TamilNadu,Chennai,"Manali, Chennai - CPCB",08-05-2024 15:00:00,13.164544,80.26285,SO2,2,10,5
India,TamilNadu,Chennai,"Perungudi, Chennai - TNPCB",08-05-2024 15:00:00,12.9533,80.2357,PM2.5,2,34,19
India,TamilNadu,Chennai,"Perungudi, Chennai - TNPCB",08-05-2024 15:00:00,12.9533,80.2357,PM10,6,103,47
India,TamilNadu,Chennai,"Perungudi, Chennai - TNPCB",08-05-2024 15:00:00,12.9533,80.2357,NO2,2,10,5
India,TamilNadu,Chennai,"Royapuram, Chennai - TNPCB",08-05-2024 15:00:00,13.1036,80.2909,OZONE,9,11,9
India,TamilNadu,Chennai,"Velachery Res. Area, Chennai - CPCB",08-05-2024 15:00:00,13.0052189,80.2398125,PM2.5,15,37,25
India,TamilNadu,Chennai,"Velachery Res. Area, Chennai - CPCB",08-05-2024 15:00:00,13.0052189,80.2398125,NO2,12,27,17
India,TamilNadu,Chennai,"Velachery Res. Area, Chennai - CPCB",08-05-2024 15:00:00,13.0052189,80.2398125,NH3,10,17,13
India,TamilNadu,Cuddalore,"Semmandalam, Cuddalore - TNPCB",08-05-2024 15:00:00,11.7637683,79.7499835,PM10,NA,NA,NA
India,TamilNadu,Cuddalore,"Semmandalam, Cuddalore - TNPCB",08-05-2024 15:00:00,11.7637683,79.7499835,NH3,2,3,2
India,TamilNadu,Ooty,"Bombay Castel, Ooty - TNPCB",08-05-2024 15:00:00,11.4068288,76.7138973,PM2.5,13,157,74
India,TamilNadu,Ooty,"Bombay Castel, Ooty - TNPCB",08-05-2024 15:00:00,11.4068288,76.7138973,PM10,25,179,92
India,TamilNadu,Palkalaiperur,"Bharathidasan University, Palkalaiperur - TNPCB",08-05-2024 15:00:00,10.681158,78.741746,PM10,27,67,43
India,TamilNadu,Palkalaiperur,"Bharathidasan University, Palkalaiperur - TNPCB",08-05-2024 15:00:00,10.681158,78.741746,CO,1,11,4
India,TamilNadu,Palkalaiperur,"Bharathidasan University, Palkalaiperur - TNPCB",08-05-2024 15:00:00,10.681158,78.741746,OZONE,1,6,2
India,TamilNadu,Ramanathapuram,"Chalai Bazaar, Ramanathapuram - TNPCB",08-05-2024 15:00:00,9.36399,78.831977,SO2,7,11,8
India,TamilNadu,Salem,"Sona College of Technology, Salem - TNPCB",08-05-2024 15:00:00,11.679111,78.125052,CO,40,50,47
India,TamilNadu,Tirupur,"Kumaran College, Tirupur - TNPCB",08-05-2024 15:00:00,11.0973603,77.3228673,SO2,NA,NA,NA
India,Telangana,Hyderabad,"Central University, Hyderabad - TSPCB",08-05-2024 15:00:00,17.460103,78.334361,NO2,13,38,21
India,Telangana,Hyderabad,"Central University, Hyderabad - TSPCB",08-05-2024 15:00:00,17.460103,78.334361,NH3,2,6,3
India,Telangana,Hyderabad,"Central University, Hyderabad - TSPCB",08-05-2024 15:00:00,17.460103,78.334361,OZONE,3,4,3
India,Telangana,Hyderabad,"ICRISAT Patancheru, Hyderabad - TSPCB",08-05-2024 15:00:00,17.518400,78.278777,NO2,14,17,16
India,Telangana,Hyderabad,"ICRISAT Patancheru, Hyderabad - TSPCB",08-05-2024 15:00:00,17.518400,78.278777,SO2,1,27,17
India,Telangana,Hyderabad,"ICRISAT Patancheru, Hyderabad - TSPCB",08-05-2024 15:00:00,17.518400,78.278777,CO,13,84,39
India,Telangana,Hyderabad,"IITH Kandi, Hyderabad - TSPCB",08-05-2024 15:00:00,17.585705,78.126199,SO2,NA,NA,NA
India,Telangana,Hyderabad,"Kokapet, Hyderabad - TSPCB",08-05-2024 15:00:00,17.393559,78.339194,NO2,NA,NA,NA
India,Telangana,Hyderabad,"Kokapet, Hyderabad - TSPCB",08-05-2024 15:00:00,17.393559,78.339194,SO2,NA,NA,NA
India,Telangana,Hyderabad,"Kompally Municipal Office, Hyderabad - TSPCB",08-05-2024 15:00:00,17.544899,78.486949,PM10,NA,NA,NA
India,Telangana,Hyderabad,"Nacharam_TSIIC IALA, Hyderabad - TSPCB",08-05-2024 15:00:00,17.429398,78.569354,NO2,11,16,15
India,Telangana,Hyderabad,"Nacharam_TSIIC IALA, Hyderabad - TSPCB",08-05-2024 15:00:00,17.429398,78.569354,SO2,5,31,15
India,Telangana,Hyderabad,"Nacharam_TSIIC IALA, Hyderabad - TSPCB",08-05-2024 15:00:00,17.429398,78.569354,CO,26,38,35
India,Telangana,Hyderabad,"New Malakpet, Hyderabad - TSPCB",08-05-2024 15:00:00,17.37206,78.50864,NO2,NA,NA,NA
India,Telangana,Hyderabad,"New Malakpet, Hyderabad - TSPCB",08-05-2024 15:00:00,17.37206,78.50864,SO2,NA,NA,NA
India,Telangana,Hyderabad,"New Malakpet, Hyderabad - TSPCB",08-05-2024 15:00:00,17.37206,78.50864,OZONE,21,49,34
India,Telangana,Hyderabad,"Ramachandrapuram, Hyderabad - TSPCB",08-05-2024 15:00:00,17.528544,78.286195,CO,10,10,10
India,Telangana,Hyderabad,"Ramachandrapuram, Hyderabad - TSPCB",08-05-2024 15:00:00,17.528544,78.286195,OZONE,69,108,79
India,Telangana,Hyderabad,"Sanathnagar, Hyderabad - TSPCB",08-05-2024 15:00:00,17.4559458,78.4332152,NO2,25,54,30
India,Telangana,Hyderabad,"Sanathnagar, Hyderabad - TSPCB",08-05-2024 15:00:00,17.4559458,78.4332152,CO,28,42,31
India,Telangana,Hyderabad,"Sanathnagar, Hyderabad - TSPCB",08-05-2024 15:00:00,17.4559458,78.4332152,OZONE,12,36,18
India,Telangana,Hyderabad,"Somajiguda, Hyderabad - TSPCB",08-05-2024 15:00:00,17.417094,78.457437,PM2.5,NA,NA,NA
India,Telangana,Hyderabad,"Somajiguda, Hyderabad - TSPCB",08-05-2024 15:00:00,17.417094,78.457437,CO,40,48,44
India,Telangana,Hyderabad,"Zoo Park, Hyderabad - TSPCB",08-05-2024 15:00:00,17.349694,78.451437,PM2.5,13,70,25
India,Telangana,Hyderabad,"Zoo Park, Hyderabad - TSPCB",08-05-2024 15:00:00,17.349694,78.451437,OZONE,15,78,32
India,Tripura,Agartala,"Bardowali, Agartala - Tripura SPCB",08-05-2024 15:00:00,23.8175497,91.2726974,CO,18,83,29
India,Uttar_Pradesh,Agra,"Manoharpur, Agra - UPPCB",08-05-2024 15:00:00,27.23711,78.01936,PM2.5,33,107,64
India,Uttar_Pradesh,Agra,"Rohta, Agra - UPPCB",08-05-2024 15:00:00,27.106972,78.000111,PM10,18,119,46
India,Uttar_Pradesh,Agra,"Rohta, Agra - UPPCB",08-05-2024 15:00:00,27.106972,78.000111,NO2,7,7,7
India,Uttar_Pradesh,Agra,"Sanjay Palace, Agra - UPPCB",08-05-2024 15:00:00,27.19865833,78.00598056,PM2.5,10,39,27
India,Uttar_Pradesh,Agra,"Sanjay Palace, Agra - UPPCB",08-05-2024 15:00:00,27.19865833,78.00598056,OZONE,62,262,157
India,Uttar_Pradesh,Agra,"Sector-3B Avas Vikas Colony, Agra - UPPCB",08-05-2024 15:00:00,27.19412,77.96237,CO,10,15,12
India,Uttar_Pradesh,Agra,"Shahjahan Garden, Agra - UPPCB",08-05-2024 15:00:00,27.169338,78.03582,PM2.5,NA,NA,NA
India,Uttar_Pradesh,Agra,"Shahjahan Garden, Agra - UPPCB",08-05-2024 15:00:00,27.169338,78.03582,CO,10,20,16
India,Uttar_Pradesh,Agra,"Shahjahan Garden, Agra - UPPCB",08-05-2024 15:00:00,27.169338,78.03582,OZONE,2,30,15
India,Uttar_Pradesh,Bareilly,"Rajendra Nagar, Bareilly - UPPCB",08-05-2024 15:00:00,28.38910936,79.42963708,PM2.5,15,33,22
India,Uttar_Pradesh,Bareilly,"Rajendra Nagar, Bareilly - UPPCB",08-05-2024 15:00:00,28.38910936,79.42963708,NO2,1,2,2
India,Uttar_Pradesh,Bareilly,"Rajendra Nagar, Bareilly - UPPCB",08-05-2024 15:00:00,28.38910936,79.42963708,CO,10,24,11
India,Uttar_Pradesh,Bareilly,"Rajendra Nagar, Bareilly - UPPCB",08-05-2024 15:00:00,28.38910936,79.42963708,OZONE,4,51,4
India,Uttar_Pradesh,Bulandshahr,"Yamunapuram, Bulandshahr - UPPCB",08-05-2024 15:00:00,28.406963,77.849831,PM10,98,155,128
India,Uttar_Pradesh,Bulandshahr,"Yamunapuram, Bulandshahr - UPPCB",08-05-2024 15:00:00,28.406963,77.849831,NH3,15,34,20
India,Uttar_Pradesh,Bulandshahr,"Yamunapuram, Bulandshahr - UPPCB",08-05-2024 15:00:00,28.406963,77.849831,CO,24,52,31
India,Uttar_Pradesh,Firozabad,"Nagla Bhau, Firozabad - UPPCB",08-05-2024 15:00:00,27.168897,78.376960,CO,17,28,26
India,Uttar_Pradesh,Firozabad,"Nagla Bhau, Firozabad - UPPCB",08-05-2024 15:00:00,27.168897,78.376960,OZONE,17,20,19
India,Uttar_Pradesh,Ghaziabad,"Loni, Ghaziabad - UPPCB",08-05-2024 15:00:00,28.757294,77.278792,CO,11,68,46
India,Uttar_Pradesh,Ghaziabad,"Sanjay Nagar, Ghaziabad - UPPCB",08-05-2024 15:00:00,28.685382,77.453839,PM2.5,55,224,101
India,Uttar_Pradesh,Ghaziabad,"Sanjay Nagar, Ghaziabad - UPPCB",08-05-2024 15:00:00,28.685382,77.453839,SO2,14,50,27
India,Uttar_Pradesh,Ghaziabad,"Vasundhara, Ghaziabad - UPPCB",08-05-2024 15:00:00,28.6603346,77.3572563,OZONE,12,124,15
India,Uttar_Pradesh,Gorakhpur,"Madan Mohan Malaviya University of Technology, Gorakhpur - UPPCB",08-05-2024 15:00:00,26.730136,83.433859,PM10,42,75,62
India,Uttar_Pradesh,Greater Noida,"Knowledge Park - III, Greater Noida - UPPCB",08-05-2024 15:00:00,28.47272,77.482000,PM10,167,294,222
India,Uttar_Pradesh,Greater Noida,"Knowledge Park - III, Greater Noida - UPPCB",08-05-2024 15:00:00,28.47272,77.482000,NO2,20,73,40
India,Uttar_Pradesh,Greater Noida,"Knowledge Park - V, Greater Noida - UPPCB",08-05-2024 15:00:00,28.557054,77.453663,NH3,4,9,6
India,Uttar_Pradesh,Hapur,"Anand Vihar, Hapur - UPPCB",08-05-2024 15:00:00,28.725645,77.749675,NH3,5,10,6
India,Uttar_Pradesh,Hapur,"Anand Vihar, Hapur - UPPCB",08-05-2024 15:00:00,28.725645,77.749675,SO2,8,18,12
India,Uttar_Pradesh,Kanpur,"NSI Kalyanpur, Kanpur - UPPCB",08-05-2024 15:00:00,26.509954,80.249612,PM2.5,67,181,95
India,Uttar_Pradesh,Kanpur,"NSI Kalyanpur, Kanpur - UPPCB",08-05-2024 15:00:00,26.509954,80.249612,SO2,20,26,23
India,Uttar_Pradesh,Kanpur,"Nehru Nagar, Kanpur - UPPCB",08-05-2024 15:00:00,26.4703136,80.3229863,NO2,21,52,40
India,Uttar_Pradesh,Khurja,"Kalindi Kunj, Khurja - UPPCB",08-05-2024 15:00:00,28.2348927,77.8683002,PM2.5,55,160,88
India,Uttar_Pradesh,Lucknow,"B R Ambedkar University, Lucknow - UPPCB",08-05-2024 15:00:00,26.766433,80.927299,NH3,6,8,6
India,Uttar_Pradesh,Lucknow,"B R Ambedkar University, Lucknow - UPPCB",08-05-2024 15:00:00,26.766433,80.927299,CO,26,30,27
India,Uttar_Pradesh,Lucknow,"Kendriya Vidyalaya, Lucknow - CPCB",08-05-2024 15:00:00,26.906111,80.948222,PM10,71,199,133
India,Uttar_Pradesh,Lucknow,"Kukrail Picnic Spot-1, Lucknow - UPPCB",08-05-2024 15:00:00,26.90723,80.98579,CO,16,21,16
India,Uttar_Pradesh,Meerut,"Ganga Nagar, Meerut - UPPCB",08-05-2024 15:00:00,28.999264,77.7590354,NH3,7,25,14
India,Uttar_Pradesh,Meerut,"Jai Bhim Nagar, Meerut - UPPCB",08-05-2024 15:00:00,28.9535882,77.7622941,OZONE,8,147,76
India,Uttar_Pradesh,Moradabad,"Buddhi Vihar, Moradabad - UPPCB",08-05-2024 15:00:00,28.83526,78.74460,CO,23,35,24
India,Uttar_Pradesh,Moradabad,"Employment Office, Moradabad - UPPCB",08-05-2024 15:00:00,28.88528,78.73880,NO2,17,17,17
India,Uttar_Pradesh,Moradabad,"Employment Office, Moradabad - UPPCB",08-05-2024 15:00:00,28.88528,78.73880,SO2,29,38,32
India,Uttar_Pradesh,Moradabad,"Jigar Colony, Moradabad - UPPCB",08-05-2024 15:00:00,28.856664,78.772638,NH3,6,6,6
India,Uttar_Pradesh,Moradabad,"Jigar Colony, Moradabad - UPPCB",08-05-2024 15:00:00,28.856664,78.772638,OZONE,52,181,65
India,Uttar_Pradesh,Moradabad,"Kashiram Nagar, Moradabad - UPPCB",08-05-2024 15:00:00,28.849399,78.742362,PM10,76,179,120
India,Uttar_Pradesh,Moradabad,"Kashiram Nagar, Moradabad - UPPCB",08-05-2024 15:00:00,28.849399,78.742362,NH3,4,4,4
India,Uttar_Pradesh,Moradabad,"Kashiram Nagar, Moradabad - UPPCB",08-05-2024 15:00:00,28.849399,78.742362,CO,14,49,28
India,Uttar_Pradesh,Moradabad,"Transport Nagar, Moradabad - UPPCB",08-05-2024 15:00:00,28.802625,78.753728,NO2,2,13,7
India,Uttar_Pradesh,Muzaffarnagar,"New Mandi, Muzaffarnagar - UPPCB",08-05-2024 15:00:00,29.4723508,77.7194031,NH3,10,13,12
India,Uttar_Pradesh,Noida,"Sector-1, Noida - UPPCB",08-05-2024 15:00:00,28.5898,77.3101,SO2,6,37,16
India,Uttar_Pradesh,Prayagraj,"Jhunsi, Prayagraj - UPPCB",08-05-2024 15:00:00,25.425602,81.917152,SO2,30,32,31
India,Uttar_Pradesh,Prayagraj,"Motilal Nehru NIT, Prayagraj - UPPCB",08-05-2024 15:00:00,25.494,81.863,SO2,18,38,27
India,Uttar_Pradesh,Prayagraj,"Nagar Nigam, Prayagraj - UPPCB",08-05-2024 15:00:00,25.44919916 ,81.82735986 ,PM2.5,38,71,49
India,Uttar_Pradesh,Varanasi,"Ardhali Bazar, Varanasi - UPPCB",08-05-2024 15:00:00,25.3505986,82.9083074,OZONE,32,37,34
India,Uttar_Pradesh,Varanasi,"Bhelupur, Varanasi - UPPCB",08-05-2024 15:00:00,25.301778,82.996789,NO2,7,8,8
India,Uttar_Pradesh,Varanasi,"Bhelupur, Varanasi - UPPCB",08-05-2024 15:00:00,25.301778,82.996789,SO2,28,29,28
India,Uttar_Pradesh,Varanasi,"IESD Banaras Hindu University, Varanasi - UPPCB",08-05-2024 15:00:00,25.262326,82.995408,PM2.5,NA,NA,NA
India,Uttar_Pradesh,Varanasi,"IESD Banaras Hindu University, Varanasi - UPPCB",08-05-2024 15:00:00,25.262326,82.995408,NO2,2,3,2
India,Uttar_Pradesh,Varanasi,"IESD Banaras Hindu University, Varanasi - UPPCB",08-05-2024 15:00:00,25.262326,82.995408,CO,3,8,5
India,Uttar_Pradesh,Varanasi,"Maldahiya, Varanasi - UPPCB",08-05-2024 15:00:00,25.32393,82.99687,NH3,NA,NA,NA
India,Uttar_Pradesh,Varanasi,"Maldahiya, Varanasi - UPPCB",08-05-2024 15:00:00,25.32393,82.99687,OZONE,6,19,7
India,Uttar_Pradesh,Vrindavan,"Omex Eternity, Vrindavan - UPPCB",08-05-2024 15:00:00,27.5714090,77.6557570,SO2,42,46,44
India,Uttarakhand,Kashipur,"Govt. Girls Inter College, Kashipur - UKPCB",08-05-2024 15:00:00,29.2124114,78.9611753,NO2,21,36,28
India,Uttarakhand,Rishikesh,"Shivaji Nagar, Rishikesh - UKPCB",08-05-2024 15:00:00,30.075911,78.2859547,PM2.5,57,143,93
India,West_Bengal,Asansol,"Asansol Court Area, Asansol - WBPCB",08-05-2024 15:00:00,23.685297,86.945968,PM10,55,206,98
India,West_Bengal,Asansol,"Asansol Court Area, Asansol - WBPCB",08-05-2024 15:00:00,23.685297,86.945968,SO2,1,16,9
India,West_Bengal,Barrackpore,"SVSPA Campus, Barrackpore - WBPCB",08-05-2024 15:00:00,22.7605581,88.3617589,PM10,14,108,46
India,West_Bengal,Durgapur,"Sidhu Kanhu Indoor Stadium, Durgapur - WBPCB",08-05-2024 15:00:00,23.5404352,87.2892225,CO,25,48,28
India,West_Bengal,Haldia,"Priyambada Housing Estate, Haldia - WBPCB",08-05-2024 15:00:00,22.06047,88.109737,PM10,9,46,23
India,West_Bengal,Howrah,"Belur Math, Howrah - WBPCB",08-05-2024 15:00:00,22.629801,88.352017,SO2,2,9,7
India,West_Bengal,Howrah,"Padmapukur, Howrah - WBPCB",08-05-2024 15:00:00,22.5687319,88.2797276,PM10,25,57,41
India,West_Bengal,Kolkata,"Ballygunge, Kolkata - WBPCB",08-05-2024 15:00:00,22.5367507,88.3638022,PM2.5,9,35,19
India,West_Bengal,Kolkata,"Ballygunge, Kolkata - WBPCB",08-05-2024 15:00:00,22.5367507,88.3638022,OZONE,42,79,60
India,West_Bengal,Kolkata,"Bidhannagar, Kolkata - WBPCB",08-05-2024 15:00:00,22.58157048,88.41002457,OZONE,25,71,49
India,West_Bengal,Kolkata,"Fort William, Kolkata - WBPCB",08-05-2024 15:00:00,22.556640,88.342674,OZONE,20,61,50
India,West_Bengal,Kolkata,"Jadavpur, Kolkata - WBPCB",08-05-2024 15:00:00,22.49929,88.36917,NH3,16,24,22
India,West_Bengal,Kolkata,"Rabindra Bharati University, Kolkata - WBPCB",08-05-2024 15:00:00,22.627847,88.380669,PM2.5,11,42,25
India,West_Bengal,Kolkata,"Victoria, Kolkata - WBPCB",08-05-2024 15:00:00,22.5448082,88.3403691,PM10,23,59,39
India,West_Bengal,Kolkata,"Victoria, Kolkata - WBPCB",08-05-2024 15:00:00,22.5448082,88.3403691,NO2,23,42,28
India,West_Bengal,Kolkata,"Victoria, Kolkata - WBPCB",08-05-2024 15:00:00,22.5448082,88.3403691,CO,10,46,14
India,West_Bengal,Kolkata,"Victoria, Kolkata - WBPCB",08-05-2024 15:00:00,22.5448082,88.3403691,OZONE,26,54,42
India,West_Bengal,Siliguri,"Ward-32 Bapupara, Siliguri - WBPCB",08-05-2024 15:00:00,26.6879226,88.4152495,CO,17,44,27
India,Andhra_Pradesh,Amaravati,"Secretariat, Amaravati - APPCB",08-05-2024 15:00:00,16.5150833,80.5181667,SO2,10,18,13
India,Andhra_Pradesh,Anantapur,"Gulzarpet, Anantapur - APPCB",08-05-2024 15:00:00,14.675886,77.593027,NH3,NA,NA,NA
India,Andhra_Pradesh,Chittoor,"Gangineni Cheruvu, Chittoor - APPCB",08-05-2024 15:00:00,13.204880,79.097889,SO2,NA,NA,NA
India,Andhra_Pradesh,Kadapa,"Yerramukkapalli, Kadapa - APPCB",08-05-2024 15:00:00,14.465052,78.824187,PM10,NA,NA,NA
India,Andhra_Pradesh,Kadapa,"Yerramukkapalli, Kadapa - APPCB",08-05-2024 15:00:00,14.465052,78.824187,NO2,NA,NA,NA
India,Andhra_Pradesh,Kadapa,"Yerramukkapalli, Kadapa - APPCB",08-05-2024 15:00:00,14.465052,78.824187,SO2,NA,NA,NA
India,Andhra_Pradesh,Tirupati,"Tirumala, Tirupati - APPCB",08-05-2024 15:00:00,13.67,79.35,SO2,1,6,3
India,Andhra_Pradesh,Tirupati,"Tirumala, Tirupati - APPCB",08-05-2024 15:00:00,13.67,79.35,OZONE,18,66,47
India,Andhra_Pradesh,Tirupati,"Vaikuntapuram, Tirupati - APPCB",08-05-2024 15:00:00,13.615387,79.409230,SO2,NA,NA,NA
India,Andhra_Pradesh,Vijayawada,"Kanuru, Vijayawada - APPCB",08-05-2024 15:00:00,16.486692,80.699436,PM10,53,80,61
India,Andhra_Pradesh,Vijayawada,"Kanuru, Vijayawada - APPCB",08-05-2024 15:00:00,16.486692,80.699436,NH3,1,1,1
India,Andhra_Pradesh,Vijayawada,"Rajiv Gandhi Park, Vijayawada - APPCB",08-05-2024 15:00:00,16.509717,80.612222,PM2.5,41,152,71
India,Andhra_Pradesh,Vijayawada,"Rajiv Gandhi Park, Vijayawada - APPCB",08-05-2024 15:00:00,16.509717,80.612222,OZONE,20,312,64
India,Andhra_Pradesh,Visakhapatnam,"GVM Corporation, Visakhapatnam - APPCB",08-05-2024 15:00:00,17.72,83.3,NO2,32,79,58
India,Arunachal_Pradesh,Naharlagun,"Naharlagun, Naharlagun - APSPCB",08-05-2024 15:00:00,27.103358,93.679645,NO2,3,3,3
India,Arunachal_Pradesh,Naharlagun,"Naharlagun, Naharlagun - APSPCB",08-05-2024 15:00:00,27.103358,93.679645,OZONE,2,2,2
India,Assam,Guwahati,"IITG, Guwahati - PCBA",08-05-2024 15:00:00,26.2028636,91.70046436,NO2,1,3,1
India,Assam,Guwahati,"IITG, Guwahati - PCBA",08-05-2024 15:00:00,26.2028636,91.70046436,SO2,13,15,15
India,Assam,Guwahati,"LGBI Airport, Guwahati - PCBA",08-05-2024 15:00:00,26.10887,91.589544,PM2.5,17,308,77
India,Assam,Guwahati,"LGBI Airport, Guwahati - PCBA",08-05-2024 15:00:00,26.10887,91.589544,PM10,27,153,88
India,Assam,Guwahati,"LGBI Airport, Guwahati - PCBA",08-05-2024 15:00:00,26.10887,91.589544,OZONE,8,25,14
India,Assam,Guwahati,"Pan Bazaar, Guwahati - PCBA",08-05-2024 15:00:00,26.187500,91.744194,PM2.5,26,70,41
India,Assam,Guwahati,"Railway Colony, Guwahati - PCBA",08-05-2024 15:00:00,26.181742,91.78063,PM2.5,26,225,74
India,Assam,Guwahati,"Railway Colony, Guwahati - PCBA",08-05-2024 15:00:00,26.181742,91.78063,PM10,26,146,67
India,Assam,Guwahati,"Railway Colony, Guwahati - PCBA",08-05-2024 15:00:00,26.181742,91.78063,SO2,5,10,8
India,Assam,Guwahati,"Railway Colony, Guwahati - PCBA",08-05-2024 15:00:00,26.181742,91.78063,CO,14,92,21
India,Assam,Nalbari,"Bata Chowk, Nalbari - PCBA",08-05-2024 15:00:00,26.446912,91.439057,PM10,48,159,83
India,Assam,Silchar,"Tarapur, Silchar - PCBA",08-05-2024 15:00:00,24.82827,92.79525,NH3,1,1,1
India,Assam,Sivasagar,"Girls College, Sivasagar - PCBA",08-05-2024 15:00:00,26.987634,94.636574,NH3,2,3,2
India,Bihar,Aurangabad,"Gurdeo Nagar, Aurangabad - BSPCB",08-05-2024 15:00:00,24.75746,84.366208,NO2,NA,NA,NA
India,Bihar,Bettiah,"Kamalnath Nagar, Bettiah - BSPCB",08-05-2024 15:00:00,26.80365,84.51954,SO2,9,24,16
India,Bihar,Bettiah,"Kamalnath Nagar, Bettiah - BSPCB",08-05-2024 15:00:00,26.80365,84.51954,OZONE,1,8,4
India,Bihar,Bhagalpur,"DM Office_Kachari Chowk, Bhagalpur - BSPCB",08-05-2024 15:00:00,25.251013,86.989001,PM2.5,NA,NA,NA
India,Bihar,Bhagalpur,"DM Office_Kachari Chowk, Bhagalpur - BSPCB",08-05-2024 15:00:00,25.251013,86.989001,NH3,5,10,8
India,Bihar,Bhagalpur,"Mayaganj, Bhagalpur - BSPCB",08-05-2024 15:00:00,25.265194,87.012947,CO,8,10,9
India,Bihar,Bhagalpur,"Mayaganj, Bhagalpur - BSPCB",08-05-2024 15:00:00,25.265194,87.012947,OZONE,9,42,16
India,Bihar,Chhapra,"Darshan Nagar, Chhapra - BSPCB",08-05-2024 15:00:00,25.7808257,84.7446768,NH3,8,18,13
India,Bihar,Chhapra,"Darshan Nagar, Chhapra - BSPCB",08-05-2024 15:00:00,25.7808257,84.7446768,SO2,18,30,23
India,Bihar,Chhapra,"Darshan Nagar, Chhapra - BSPCB",08-05-2024 15:00:00,25.7808257,84.7446768,CO,28,60,39
India,Bihar,Gaya,"Kareemganj, Gaya - BSPCB",08-05-2024 15:00:00,24.792403,84.992416,PM2.5,NA,NA,NA
India,Bihar,Gaya,"Kareemganj, Gaya - BSPCB",08-05-2024 15:00:00,24.792403,84.992416,NO2,30,31,30
India,Bihar,Gaya,"SFTI Kusdihra, Gaya - BSPCB",08-05-2024 15:00:00,24.762518,84.982348,NO2,23,45,33
India,Bihar,Hajipur,"Industrial Area, Hajipur - BSPCB",08-05-2024 15:00:00,25.697189,85.245900,NH3,7,8,8
India,Bihar,Katihar,"Mirchaibari, Katihar - BSPCB",08-05-2024 15:00:00,25.560083,87.553265,OZONE,11,23,14
India,Bihar,Motihari,"Gandak Colony, Motihari - BSPCB",08-05-2024 15:00:00,26.63086,84.90051,PM2.5,NA,NA,NA
India,Bihar,Motihari,"Gandak Colony, Motihari - BSPCB",08-05-2024 15:00:00,26.63086,84.90051,NO2,33,92,68
India,Bihar,Munger,"Town Hall, Munger - BSPCB",08-05-2024 15:00:00,25.376776,86.471523,PM2.5,8,223,51
India,Bihar,Muzaffarpur,"Buddha Colony, Muzaffarpur - BSPCB",08-05-2024 15:00:00,26.11442,85.39813,PM2.5,26,242,64
India,Bihar,Muzaffarpur,"Buddha Colony, Muzaffarpur - BSPCB",08-05-2024 15:00:00,26.11442,85.39813,SO2,3,8,5
India,Bihar,Muzaffarpur,"MIT-Daudpur Kothi, Muzaffarpur - BSPCB",08-05-2024 15:00:00,26.1403345,85.3650192,CO,5,105,32
India,Bihar,Muzaffarpur,"MIT-Daudpur Kothi, Muzaffarpur - BSPCB",08-05-2024 15:00:00,26.1403345,85.3650192,OZONE,8,41,23
India,Bihar,Muzaffarpur,"Muzaffarpur Collectorate, Muzaffarpur - BSPCB",08-05-2024 15:00:00,26.1209,85.3647,PM2.5,13,153,50
India,Bihar,Muzaffarpur,"Muzaffarpur Collectorate, Muzaffarpur - BSPCB",08-05-2024 15:00:00,26.1209,85.3647,NO2,33,34,33
India,Bihar,Muzaffarpur,"Muzaffarpur Collectorate, Muzaffarpur - BSPCB",08-05-2024 15:00:00,26.1209,85.3647,SO2,7,12,9
India,Bihar,Muzaffarpur,"Muzaffarpur Collectorate, Muzaffarpur - BSPCB",08-05-2024 15:00:00,26.1209,85.3647,CO,24,62,37
India,Bihar,Patna,"IGSC Planetarium Complex, Patna - BSPCB",08-05-2024 15:00:00,25.610369,85.132568,SO2,4,6,5
India,Bihar,Patna,"Muradpur, Patna - BSPCB",08-05-2024 15:00:00,25.619651,85.147382,PM2.5,27,323,128
India,Bihar,Patna,"Muradpur, Patna - BSPCB",08-05-2024 15:00:00,25.619651,85.147382,NO2,21,128,52
India,Bihar,Patna,"Muradpur, Patna - BSPCB",08-05-2024 15:00:00,25.619651,85.147382,OZONE,NA,NA,NA
India,Bihar,Patna,"Rajbansi Nagar, Patna - BSPCB",08-05-2024 15:00:00,25.599486,85.113666,PM10,15,282,126
India,Bihar,Patna,"Rajbansi Nagar, Patna - BSPCB",08-05-2024 15:00:00,25.599486,85.113666,SO2,1,19,9
India,Bihar,Patna,"Rajbansi Nagar, Patna - BSPCB",08-05-2024 15:00:00,25.599486,85.113666,OZONE,26,66,37
India,Bihar,Patna,"Samanpura, Patna - BSPCB",08-05-2024 15:00:00,25.596727,85.085624,NO2,10,85,19
India,Bihar,Patna,"Samanpura, Patna - BSPCB",08-05-2024 15:00:00,25.596727,85.085624,SO2,5,16,8
India,Bihar,Rajgir,"Dangi Tola, Rajgir - BSPCB",08-05-2024 15:00:00,25.03280,85.41948,NH3,2,3,3
India,Bihar,Saharsa,"Police Line, Saharsa - BSPCB",08-05-2024 15:00:00,25.892357,86.590325,CO,52,54,52
India,Bihar,Samastipur,"DM Office_Kasipur, Samastipur - BSPCB",08-05-2024 15:00:00,25.859655,85.77944,PM2.5,12,68,34
India,Bihar,Samastipur,"DM Office_Kasipur, Samastipur - BSPCB",08-05-2024 15:00:00,25.859655,85.77944,PM10,11,126,45
India,Bihar,Samastipur,"DM Office_Kasipur, Samastipur - BSPCB",08-05-2024 15:00:00,25.859655,85.77944,OZONE,1,10,4
India,Bihar,Siwan,"Chitragupta Nagar, Siwan - BSPCB",08-05-2024 15:00:00,26.2271665,84.3570427,PM2.5,NA,NA,NA
India,Bihar,Siwan,"Chitragupta Nagar, Siwan - BSPCB",08-05-2024 15:00:00,26.2271665,84.3570427,SO2,20,35,32
India,Bihar,Siwan,"Chitragupta Nagar, Siwan - BSPCB",08-05-2024 15:00:00,26.2271665,84.3570427,OZONE,13,95,56
India,Chandigarh,Chandigarh,"Sector 22, Chandigarh - CPCC",08-05-2024 15:00:00,30.735567,76.775714,PM10,83,241,149
India,Chandigarh,Chandigarh,"Sector-25, Chandigarh - CPCC",08-05-2024 15:00:00,30.751462,76.762879,NO2,5,59,19
India,Chandigarh,Chandigarh,"Sector-53, Chandigarh - CPCC",08-05-2024 15:00:00,30.719859,76.738637,PM10,75,345,185
India,Chandigarh,Chandigarh,"Sector-53, Chandigarh - CPCC",08-05-2024 15:00:00,30.719859,76.738637,CO,30,127,46
India,Chhattisgarh,Bhilai,"Civic Center, Bhilai - Bhilai Steel Plant",08-05-2024 15:00:00,21.185571,81.343175,PM10,15,139,33
India,Chhattisgarh,Bhilai,"Hathkhoj, Bhilai - CECB",08-05-2024 15:00:00,21.224231,81.408350,PM2.5,6,39,19
India,Chhattisgarh,Bhilai,"Hathkhoj, Bhilai - CECB",08-05-2024 15:00:00,21.224231,81.408350,OZONE,21,35,28
India,Chhattisgarh,Bilaspur,"Mangala, Bilaspur - NTPC",08-05-2024 15:00:00,22.08815,82.13737,PM10,20,85,33
India,Chhattisgarh,Bilaspur,"Mangala, Bilaspur - NTPC",08-05-2024 15:00:00,22.08815,82.13737,SO2,8,17,14
India,Chhattisgarh,Bilaspur,"Mangala, Bilaspur - NTPC",08-05-2024 15:00:00,22.08815,82.13737,CO,41,49,46
India,Chhattisgarh,Chhal,"Nawapara SECL Colony, Chhal - CECB",08-05-2024 15:00:00,22.118125,83.140608,NO2,NA,NA,NA
India,Chhattisgarh,Chhal,"Nawapara SECL Colony, Chhal - CECB",08-05-2024 15:00:00,22.118125,83.140608,CO,10,36,23
India,Chhattisgarh,Korba,"Urja Nagar, Korba - CECB",08-05-2024 15:00:00,22.348441,82.549611,NO2,29,84,70
India,Chhattisgarh,Korba,"Urja Nagar, Korba - CECB",08-05-2024 15:00:00,22.348441,82.549611,CO,24,44,32
India,Chhattisgarh,Kunjemura,"OP Jindal School, Kunjemura - CECB",08-05-2024 15:00:00,22.126650,83.483212,PM2.5,21,75,47
India,Chhattisgarh,Kunjemura,"OP Jindal School, Kunjemura - CECB",08-05-2024 15:00:00,22.126650,83.483212,PM10,27,131,74
India,Chhattisgarh,Kunjemura,"OP Jindal School, Kunjemura - CECB",08-05-2024 15:00:00,22.126650,83.483212,NH3,2,4,3
India,Chhattisgarh,Raipur,"AIIMS, Raipur - CECB",08-05-2024 15:00:00,21.258815,81.578979,PM2.5,11,33,22
India,Chhattisgarh,Raipur,"AIIMS, Raipur - CECB",08-05-2024 15:00:00,21.258815,81.578979,SO2,3,10,5
India,Chhattisgarh,Raipur,"Bhatagaon New ISBT, Raipur - CECB",08-05-2024 15:00:00,21.219665,81.630094,NO2,23,34,29
India,Chhattisgarh,Raipur,"Bhatagaon New ISBT, Raipur - CECB",08-05-2024 15:00:00,21.219665,81.630094,OZONE,3,18,6
India,Chhattisgarh,Raipur,"Krishak Nagar, Raipur - CECB",08-05-2024 15:00:00,21.237755,81.705301,PM2.5,11,24,16
India,Chhattisgarh,Raipur,"Siltara Phase-II, Raipur - CECB",08-05-2024 15:00:00,21.371751,81.664929,PM10,28,104,62
India,Chhattisgarh,Tumidih,"OP Jindal Industrial Park, Tumidih - CECB",08-05-2024 15:00:00,22.06631475,83.33820077,NH3,1,2,1
India,Delhi,Delhi,"Alipur, Delhi - DPCC",08-05-2024 15:00:00,28.815329,77.153010,SO2,14,28,20
India,Delhi,Delhi,"Bawana, Delhi - DPCC",08-05-2024 15:00:00,28.776200,77.051074,NO2,22,84,38
India,Delhi,Delhi,"Bawana, Delhi - DPCC",08-05-2024 15:00:00,28.776200,77.051074,CO,26,81,33
India,Delhi,Delhi,"Burari Crossing, Delhi - IMD",08-05-2024 15:00:00,28.7256504,77.2011573,PM10,161,342,216
India,Delhi,Delhi,"Burari Crossing, Delhi - IMD",08-05-2024 15:00:00,28.7256504,77.2011573,NO2,12,14,13
India,Delhi,Delhi,"CRRI Mathura Road, Delhi - IMD",08-05-2024 15:00:00,28.5512005,77.2735737,PM10,NA,NA,NA
India,Delhi,Delhi,"CRRI Mathura Road, Delhi - IMD",08-05-2024 15:00:00,28.5512005,77.2735737,CO,10,12,11
India,Delhi,Delhi,"Chandni Chowk, Delhi - IITM",08-05-2024 15:00:00,28.656756,77.227234,PM2.5,251,345,302
India,Delhi,Delhi,"Chandni Chowk, Delhi - IITM",08-05-2024 15:00:00,28.656756,77.227234,PM10,190,371,262
India,Delhi,Delhi,"Chandni Chowk, Delhi - IITM",08-05-2024 15:00:00,28.656756,77.227234,NO2,23,263,70
India,Delhi,Delhi,"Chandni Chowk, Delhi - IITM",08-05-2024 15:00:00,28.656756,77.227234,SO2,2,30,14
India,Delhi,Delhi,"Chandni Chowk, Delhi - IITM",08-05-2024 15:00:00,28.656756,77.227234,OZONE,10,15,12
India,Delhi,Delhi,"DTU, Delhi - CPCB",08-05-2024 15:00:00,28.7500499,77.1112615,CO,34,96,44
India,Delhi,Delhi,"Dr. Karni Singh Shooting Range, Delhi - DPCC",08-05-2024 15:00:00,28.498571,77.264840,NO2,17,85,35
India,Delhi,Delhi,"Dwarka-Sector 8, Delhi - DPCC ",08-05-2024 15:00:00,28.5710274,77.0719006,NH3,1,2,1
India,Delhi,Delhi,"Dwarka-Sector 8, Delhi - DPCC ",08-05-2024 15:00:00,28.5710274,77.0719006,SO2,2,12,6
India,Delhi,Delhi,"IHBAS, Dilshad Garden, Delhi - CPCB",08-05-2024 15:00:00,28.6811736,77.3025234,CO,8,44,25
India,Delhi,Delhi,"IHBAS, Dilshad Garden, Delhi - CPCB",08-05-2024 15:00:00,28.6811736,77.3025234,OZONE,12,21,15
India,Delhi,Delhi,"ITO, Delhi - CPCB",08-05-2024 15:00:00,28.628624,77.241060,PM10,144,196,167
India,Delhi,Delhi,"ITO, Delhi - CPCB",08-05-2024 15:00:00,28.628624,77.241060,CO,38,101,55
India,Delhi,Delhi,"Jahangirpuri, Delhi - DPCC",08-05-2024 15:00:00,28.732820,77.170633,PM2.5,98,318,186
India,Delhi,Delhi,"Jahangirpuri, Delhi - DPCC",08-05-2024 15:00:00,28.732820,77.170633,PM10,178,414,269
India,Delhi,Delhi,"Jawaharlal Nehru Stadium, Delhi - DPCC",08-05-2024 15:00:00,28.580280,77.233829,PM2.5,64,191,105
India,Delhi,Delhi,"Jawaharlal Nehru Stadium, Delhi - DPCC",08-05-2024 15:00:00,28.580280,77.233829,PM10,153,272,191
India,Delhi,Delhi,"Jawaharlal Nehru Stadium, Delhi - DPCC",08-05-2024 15:00:00,28.580280,77.233829,SO2,14,36,21
India,Delhi,Delhi,"Jawaharlal Nehru Stadium, Delhi - DPCC",08-05-2024 15:00:00,28.580280,77.233829,OZONE,6,276,66
India,Delhi,Delhi,"Lodhi Road, Delhi - IMD",08-05-2024 15:00:00,28.5918245,77.2273074,OZONE,13,80,32
India,Delhi,Delhi,"Mundka, Delhi - DPCC",08-05-2024 15:00:00,28.684678,77.076574,PM10,193,405,258
India,Delhi,Delhi,"Mundka, Delhi - DPCC",08-05-2024 15:00:00,28.684678,77.076574,SO2,5,33,12
India,Delhi,Delhi,"Mundka, Delhi - DPCC",08-05-2024 15:00:00,28.684678,77.076574,CO,42,101,53
India,Delhi,Delhi,"NSIT Dwarka, Delhi - CPCB",08-05-2024 15:00:00,28.60909,77.0325413,NO2,13,34,24
India,Delhi,Delhi,"Narela, Delhi - DPCC",08-05-2024 15:00:00,28.822836,77.101981,PM2.5,86,333,196
India,Delhi,Delhi,"Narela, Delhi - DPCC",08-05-2024 15:00:00,28.822836,77.101981,PM10,196,433,312
India,Delhi,Delhi,"Narela, Delhi - DPCC",08-05-2024 15:00:00,28.822836,77.101981,OZONE,26,221,59
India,Delhi,Delhi,"North Campus, DU, Delhi - IMD",08-05-2024 15:00:00,28.6573814,77.1585447,CO,84,127,95
India,Delhi,Delhi,"Okhla Phase-2, Delhi - DPCC",08-05-2024 15:00:00,28.530785,77.271255,PM10,183,364,232
India,Delhi,Delhi,"Okhla Phase-2, Delhi - DPCC",08-05-2024 15:00:00,28.530785,77.271255,NO2,28,99,51
India,Delhi,Delhi,"Patparganj, Delhi - DPCC",08-05-2024 15:00:00,28.623763,77.287209,NH3,8,12,10
India,Delhi,Delhi,"Patparganj, Delhi - DPCC",08-05-2024 15:00:00,28.623763,77.287209,SO2,2,7,4
India,Delhi,Delhi,"Punjabi Bagh, Delhi - DPCC",08-05-2024 15:00:00,28.674045,77.131023,NO2,29,87,54
India,Delhi,Delhi,"Pusa, Delhi - DPCC",08-05-2024 15:00:00,28.639652,77.146275,PM2.5,78,277,132
India,Delhi,Delhi,"Pusa, Delhi - DPCC",08-05-2024 15:00:00,28.639652,77.146275,SO2,8,25,14
India,Delhi,Delhi,"Pusa, Delhi - IMD",08-05-2024 15:00:00,28.636110,77.173332,PM2.5,92,317,243
India,Delhi,Delhi,"Pusa, Delhi - IMD",08-05-2024 15:00:00,28.636110,77.173332,CO,44,80,49
India,Delhi,Delhi,"R K Puram, Delhi - DPCC",08-05-2024 15:00:00,28.563262,77.186937,PM10,159,241,203
India,Delhi,Delhi,"R K Puram, Delhi - DPCC",08-05-2024 15:00:00,28.563262,77.186937,NO2,1,8,4
India,Delhi,Delhi,"R K Puram, Delhi - DPCC",08-05-2024 15:00:00,28.563262,77.186937,CO,16,50,19
India,Delhi,Delhi,"Sirifort, Delhi - CPCB",08-05-2024 15:00:00,28.5504249,77.2159377,PM10,151,315,186
India,Delhi,Delhi,"Sirifort, Delhi - CPCB",08-05-2024 15:00:00,28.5504249,77.2159377,NO2,41,45,43
India,Delhi,Delhi,"Sirifort, Delhi - CPCB",08-05-2024 15:00:00,28.5504249,77.2159377,NH3,19,20,19
India,Delhi,Delhi,"Vivek Vihar, Delhi - DPCC",08-05-2024 15:00:00,28.672342,77.315260,PM2.5,94,321,166
India,Delhi,Delhi,"Vivek Vihar, Delhi - DPCC",08-05-2024 15:00:00,28.672342,77.315260,SO2,31,85,46
India,Delhi,Delhi,"Wazirpur, Delhi - DPCC",08-05-2024 15:00:00,28.699793,77.165453,NH3,14,17,15
India,Gujarat,Ahmedabad,"Chandkheda, Ahmedabad - IITM",08-05-2024 15:00:00,23.107969,72.574648,SO2,1,9,4
India,Gujarat,Ahmedabad,"Chandkheda, Ahmedabad - IITM",08-05-2024 15:00:00,23.107969,72.574648,OZONE,3,7,6
India,Gujarat,Ahmedabad,"Gyaspur, Ahmedabad - IITM",08-05-2024 15:00:00,22.977134,72.553024,CO,35,54,37
India,Gujarat,Ahmedabad,"Gyaspur, Ahmedabad - IITM",08-05-2024 15:00:00,22.977134,72.553024,OZONE,NA,NA,NA
India,Gujarat,Ahmedabad,"Maninagar, Ahmedabad - GPCB",08-05-2024 15:00:00,23.002657,72.591912,PM2.5,24,75,47
India,Gujarat,Ahmedabad,"Maninagar, Ahmedabad - GPCB",08-05-2024 15:00:00,23.002657,72.591912,NO2,33,54,43
India,Gujarat,Ahmedabad,"Maninagar, Ahmedabad - GPCB",08-05-2024 15:00:00,23.002657,72.591912,SO2,1,110,61
India,Gujarat,Ahmedabad,"Raikhad, Ahmedabad - IITM",08-05-2024 15:00:00,23.020509,72.579261,NH3,2,3,3
India,Gujarat,Ahmedabad,"Raikhad, Ahmedabad - IITM",08-05-2024 15:00:00,23.020509,72.579261,OZONE,2,34,15
India,Gujarat,Ahmedabad,"Rakhial, Ahmedabad - IITM",08-05-2024 15:00:00,23.016834,72.625775,SO2,2,5,3
India,Gujarat,Ahmedabad,"Rakhial, Ahmedabad - IITM",08-05-2024 15:00:00,23.016834,72.625775,OZONE,7,56,22
India,Gujarat,Ahmedabad,"SVPI Airport Hansol, Ahmedabad - IITM",08-05-2024 15:00:00,23.076793,72.627874,PM10,97,140,115
India,Gujarat,Ahmedabad,"Sardar Vallabhbhai Patel Stadium, Ahmedabad - IITM",08-05-2024 15:00:00,23.043070,72.562968,NO2,12,20,16
India,Gujarat,Ahmedabad,"Sardar Vallabhbhai Patel Stadium, Ahmedabad - IITM",08-05-2024 15:00:00,23.043070,72.562968,CO,24,48,37
India,Gujarat,Ahmedabad,"Sardar Vallabhbhai Patel Stadium, Ahmedabad - IITM",08-05-2024 15:00:00,23.043070,72.562968,OZONE,23,43,29
India,Gujarat,Ankleshwar,"GIDC, Ankleshwar - GPCB",08-05-2024 15:00:00,21.613267,73.010555,SO2,NA,NA,NA
India,Gujarat,Ankleshwar,"GIDC, Ankleshwar - GPCB",08-05-2024 15:00:00,21.613267,73.010555,CO,30,103,72
India,Gujarat,Gandhinagar,"Sector-10, Gandhinagar - GPCB",08-05-2024 15:00:00,23.221714,72.654328,NH3,1,1,1
India,Gujarat,Gandhinagar,"Sector-10, Gandhinagar - GPCB",08-05-2024 15:00:00,23.221714,72.654328,SO2,5,5,5
India,Gujarat,Vapi,"Phase-1 GIDC, Vapi - GPCB",08-05-2024 15:00:00,20.362421,72.918013,SO2,19,36,33
India,Gujarat,Vatva,"Phase-4 GIDC, Vatva - GPCB",08-05-2024 15:00:00,22.969611,72.643500,NO2,30,75,42
India,Gujarat,Vatva,"Phase-4 GIDC, Vatva - GPCB",08-05-2024 15:00:00,22.969611,72.643500,SO2,6,49,17
India,Haryana,Ambala,"Patti Mehar, Ambala - HSPCB",08-05-2024 15:00:00,30.379589,76.778328,NH3,5,12,8
India,Haryana,Ambala,"Patti Mehar, Ambala - HSPCB",08-05-2024 15:00:00,30.379589,76.778328,SO2,10,47,36
India,Haryana,Bahadurgarh,"Arya Nagar, Bahadurgarh - HSPCB",08-05-2024 15:00:00,28.6701,76.9254,PM10,130,361,212
India,Haryana,Bahadurgarh,"Arya Nagar, Bahadurgarh - HSPCB",08-05-2024 15:00:00,28.6701,76.9254,CO,84,102,96
India,Haryana,Ballabgarh,"Nathu Colony, Ballabgarh - HSPCB",08-05-2024 15:00:00,28.3419248,77.319699,PM10,111,350,192
India,Haryana,Dharuhera,"Municipal Corporation Office, Dharuhera -  HSPCB",08-05-2024 15:00:00,28.206800,76.799700,NO2,45,114,67
India,Haryana,Faridabad,"New Industrial Town, Faridabad - HSPCB",08-05-2024 15:00:00,28.39072,77.30059,NO2,9,22,15
India,Haryana,Faridabad,"New Industrial Town, Faridabad - HSPCB",08-05-2024 15:00:00,28.39072,77.30059,SO2,7,9,8
India,Haryana,Faridabad,"Sector 30, Faridabad - HSPCB",08-05-2024 15:00:00,28.4417,77.3217,PM2.5,251,305,283
India,Haryana,Fatehabad,"Huda Sector, Fatehabad - HSPCB",08-05-2024 15:00:00,29.503664,75.467934,PM2.5,58,383,241
India,Haryana,Fatehabad,"Huda Sector, Fatehabad - HSPCB",08-05-2024 15:00:00,29.503664,75.467934,NO2,29,38,32
India,Haryana,Fatehabad,"Huda Sector, Fatehabad - HSPCB",08-05-2024 15:00:00,29.503664,75.467934,OZONE,20,68,54
India,Haryana,Gurugram,"Teri Gram, Gurugram - HSPCB",08-05-2024 15:00:00,28.4275,77.1465,PM2.5,79,352,239
India,Haryana,Gurugram,"Teri Gram, Gurugram - HSPCB",08-05-2024 15:00:00,28.4275,77.1465,NH3,24,37,29
India,Haryana,Gurugram,"Vikas Sadan, Gurugram - HSPCB",08-05-2024 15:00:00,28.4501238,77.0263051,OZONE,7,68,40
India,Haryana,Hisar,"Urban Estate-II, Hisar - HSPCB",08-05-2024 15:00:00,29.140560,75.744941,PM2.5,66,356,227
India,Haryana,Jind,"Police Lines, Jind - HSPCB",08-05-2024 15:00:00,29.307814,76.337619,PM2.5,71,306,200
India,Haryana,Jind,"Police Lines, Jind - HSPCB",08-05-2024 15:00:00,29.307814,76.337619,PM10,80,236,173
India,Haryana,Jind,"Police Lines, Jind - HSPCB",08-05-2024 15:00:00,29.307814,76.337619,SO2,11,105,29
India,Haryana,Jind,"Police Lines, Jind - HSPCB",08-05-2024 15:00:00,29.307814,76.337619,CO,2,66,41
India,Haryana,Kaithal,"Rishi Nagar, Kaithal - HSPCB",08-05-2024 15:00:00,29.8006,76.4155,PM2.5,63,273,161
India,Haryana,Kaithal,"Rishi Nagar, Kaithal - HSPCB",08-05-2024 15:00:00,29.8006,76.4155,PM10,94,192,165
India,Haryana,Kaithal,"Rishi Nagar, Kaithal - HSPCB",08-05-2024 15:00:00,29.8006,76.4155,CO,1,76,34
India,Haryana,Karnal,"Sector-12, Karnal - HSPCB",08-05-2024 15:00:00,29.695300,77.002700,PM10,124,165,138
India,Haryana,Karnal,"Sector-12, Karnal - HSPCB",08-05-2024 15:00:00,29.695300,77.002700,OZONE,28,35,31
India,Haryana,Kurukshetra,"Sector-7, Kurukshetra - HSPCB",08-05-2024 15:00:00,29.966942,76.875879,PM2.5,86,314,203
India,Haryana,Mandikhera,"General Hospital, Mandikhera - HSPCB",08-05-2024 15:00:00,27.9002,76.9938,PM10,82,154,125
India,Haryana,Mandikhera,"General Hospital, Mandikhera - HSPCB",08-05-2024 15:00:00,27.9002,76.9938,SO2,29,38,34
India,Haryana,Mandikhera,"General Hospital, Mandikhera - HSPCB",08-05-2024 15:00:00,27.9002,76.9938,CO,18,44,36
India,Haryana,Manesar,"Sector-2 IMT, Manesar - HSPCB",08-05-2024 15:00:00,28.360699,76.936090,PM10,107,134,124
India,Haryana,Narnaul,"Shastri Nagar, Narnaul - HSPCB",08-05-2024 15:00:00,28.060249,76.113115,OZONE,31,49,43
India,Haryana,Panchkula,"Sector-6, Panchkula - HSPCB ",08-05-2024 15:00:00,30.7057778,76.8531805555555,NO2,9,11,10
India,Haryana,Sirsa,"F-Block, Sirsa - HSPCB",08-05-2024 15:00:00,29.536400,75.015800,NO2,9,11,10
India,Haryana,Sonipat,"Murthal, Sonipat - HSPCB",08-05-2024 15:00:00,29.027200,77.062100,NO2,37,44,40
India,Haryana,Sonipat,"Murthal, Sonipat - HSPCB",08-05-2024 15:00:00,29.027200,77.062100,SO2,13,29,20
India,Haryana,Yamuna Nagar,"Gobind Pura, Yamuna Nagar - HSPCB",08-05-2024 15:00:00,30.1480566,77.2893471,PM2.5,119,353,192
India,Haryana,Yamuna Nagar,"Gobind Pura, Yamuna Nagar - HSPCB",08-05-2024 15:00:00,30.1480566,77.2893471,NO2,11,28,18
India,Haryana,Yamuna Nagar,"Gobind Pura, Yamuna Nagar - HSPCB",08-05-2024 15:00:00,30.1480566,77.2893471,SO2,2,105,12
India,Himachal Pradesh,Baddi,"HIMUDA Complex Phase-1, Baddi - HPPCB",08-05-2024 15:00:00,30.943887,76.801991,SO2,9,70,28
India,Himachal Pradesh,Baddi,"HIMUDA Complex Phase-1, Baddi - HPPCB",08-05-2024 15:00:00,30.943887,76.801991,CO,17,70,28
India,Himachal Pradesh,Baddi,"HIMUDA Complex Phase-1, Baddi - HPPCB",08-05-2024 15:00:00,30.943887,76.801991,OZONE,92,263,183
India,Jharkhand,Dhanbad,"Kalakusuma, Dhanbad - DMC",08-05-2024 15:00:00,23.811548,86.481238,NO2,18,30,27
India,Jharkhand,Dhanbad,"Sardar Patel Nagar, Dhanbad - JSPCB",08-05-2024 15:00:00,23.80569,86.44268,NO2,NA,NA,NA
India,Jharkhand,Pathardih,"Mohalbani Ghat, Pathardih - DMC",08-05-2024 15:00:00,23.669880,86.411725,NO2,NA,NA,NA
India,Karnataka,Belgaum,"Ramteerth Nagar, Belgaum - KSPCB",08-05-2024 15:00:00,15.888653,74.541751,NH3,1,5,3
India,Karnataka,Belgaum,"Ramteerth Nagar, Belgaum - KSPCB",08-05-2024 15:00:00,15.888653,74.541751,SO2,8,9,8
India,Karnataka,Bengaluru,"BTM Layout, Bengaluru - CPCB",08-05-2024 15:00:00,12.9135218,77.5950804,PM10,NA,NA,NA
India,Karnataka,Bengaluru,"BTM Layout, Bengaluru - CPCB",08-05-2024 15:00:00,12.9135218,77.5950804,NH3,NA,NA,NA
India,Karnataka,Bengaluru,"BTM Layout, Bengaluru - CPCB",08-05-2024 15:00:00,12.9135218,77.5950804,CO,32,60,43
India,Karnataka,Bengaluru,"Bapuji Nagar, Bengaluru - KSPCB",08-05-2024 15:00:00,12.951913,77.539784,PM2.5,NA,NA,NA
India,Karnataka,Bengaluru,"Bapuji Nagar, Bengaluru - KSPCB",08-05-2024 15:00:00,12.951913,77.539784,SO2,6,10,8
India,Karnataka,Bengaluru,"Hebbal, Bengaluru - KSPCB",08-05-2024 15:00:00,13.029152,77.585901,NO2,5,5,5
India,Karnataka,Bengaluru,"Hebbal, Bengaluru - KSPCB",08-05-2024 15:00:00,13.029152,77.585901,CO,9,60,22
India,Karnataka,Bengaluru,"Hombegowda Nagar, Bengaluru - KSPCB",08-05-2024 15:00:00,12.938539,77.590100,CO,14,77,28
India,Karnataka,Bengaluru,"Jayanagar 5th Block, Bengaluru - KSPCB",08-05-2024 15:00:00,12.920984,77.584908,PM2.5,13,77,46
India,Karnataka,Bengaluru,"Peenya, Bengaluru - CPCB",08-05-2024 15:00:00,13.0270199,77.494094,PM2.5,33,59,43
India,Karnataka,Bengaluru,"Peenya, Bengaluru - CPCB",08-05-2024 15:00:00,13.0270199,77.494094,OZONE,18,68,43
India,Karnataka,Bengaluru,"RVCE-Mailasandra, Bengaluru - KSPCB",08-05-2024 15:00:00,12.921418,77.502466,NO2,16,17,17
India,Karnataka,Bengaluru,"Sanegurava Halli, Bengaluru - KSPCB",08-05-2024 15:00:00,12.990328,77.5431385,SO2,1,3,2
India,Karnataka,Bengaluru,"Sanegurava Halli, Bengaluru - KSPCB",08-05-2024 15:00:00,12.990328,77.5431385,CO,6,46,15
India,Karnataka,Bengaluru,"Shivapura_Peenya, Bengaluru - KSPCB",08-05-2024 15:00:00,13.0246342,77.5080115,PM2.5,NA,NA,NA
India,Karnataka,Bengaluru,"Silk Board, Bengaluru - KSPCB",08-05-2024 15:00:00,12.917348,77.622813,NO2,9,26,16
India,Karnataka,Bengaluru,"Silk Board, Bengaluru - KSPCB",08-05-2024 15:00:00,12.917348,77.622813,SO2,1,10,6
India,Karnataka,Bengaluru,"Silk Board, Bengaluru - KSPCB",08-05-2024 15:00:00,12.917348,77.622813,CO,10,18,13
India,Karnataka,Bidar,"Naubad, Bidar - KSPCB",08-05-2024 15:00:00,17.930306,77.482194,OZONE,27,52,39
India,Karnataka,Dharwad,"Kalabhavan, Dharwad - KSPCB",08-05-2024 15:00:00,15.459706,75.008381,SO2,1,3,2
India,Karnataka,Gadag,"Panchal Nagar, Gadag - KSPCB",08-05-2024 15:00:00,15.411456,75.638133,OZONE,25,71,45
India,Karnataka,Hassan,"B.Katihalli, Hassan - KSPCB",08-05-2024 15:00:00,13.008556,76.125258,NO2,NA,NA,NA
India,Karnataka,Hassan,"B.Katihalli, Hassan - KSPCB",08-05-2024 15:00:00,13.008556,76.125258,NH3,NA,NA,NA
India,Karnataka,Haveri,"Ashwini Nagar, Haveri - KSPCB",08-05-2024 15:00:00,14.791800,75.389600,SO2,14,14,14
India,Karnataka,Haveri,"Ashwini Nagar, Haveri - KSPCB",08-05-2024 15:00:00,14.791800,75.389600,CO,36,38,37
India,Karnataka,Hubballi,"Deshpande Nagar, Hubballi - KSPCB",08-05-2024 15:00:00,15.351773,75.140726,NO2,27,27,27
India,Karnataka,Hubballi,"Lingaraj Nagar, Hubballi - KSPCB",08-05-2024 15:00:00,15.3714823,75.1160168,NO2,10,10,10
India,Karnataka,Hubballi,"Lingaraj Nagar, Hubballi - KSPCB",08-05-2024 15:00:00,15.3714823,75.1160168,SO2,1,26,3
India,Karnataka,Kalaburagi,"Lal Bahadur Shastri Nagar, Kalaburagi - KSPCB",08-05-2024 15:00:00,17.321993,76.822628,PM10,NA,NA,NA
India,Karnataka,Kalaburagi,"Lal Bahadur Shastri Nagar, Kalaburagi - KSPCB",08-05-2024 15:00:00,17.321993,76.822628,NH3,1,3,2
India,Karnataka,Kalaburagi,"Lal Bahadur Shastri Nagar, Kalaburagi - KSPCB",08-05-2024 15:00:00,17.321993,76.822628,OZONE,38,84,55
India,Karnataka,Kalaburagi,"Mahatma Basaveswar Colony, Kalaburgi - KSPCB",08-05-2024 15:00:00,17.336318,76.847397,PM2.5,31,59,40
India,Karnataka,Kalaburagi,"Mahatma Basaveswar Colony, Kalaburgi - KSPCB",08-05-2024 15:00:00,17.336318,76.847397,NH3,3,4,4
India,Karnataka,Karwar,"KHB Colony, Karwar - KSPCB",08-05-2024 15:00:00,14.816666,74.141003,PM10,20,43,35
India,Karnataka,Karwar,"KHB Colony, Karwar - KSPCB",08-05-2024 15:00:00,14.816666,74.141003,OZONE,21,22,21
India,Karnataka,Kolar,"Tamaka Ind. Area, Kolar - KSPCB",08-05-2024 15:00:00,13.1276288,78.1570122,NO2,NA,NA,NA
India,Karnataka,Kolar,"Tamaka Ind. Area, Kolar - KSPCB",08-05-2024 15:00:00,13.1276288,78.1570122,OZONE,12,83,76
India,Karnataka,Koppal,"Diwator Nagar, Koppal - KSPCB",08-05-2024 15:00:00,15.347630,76.181767,SO2,28,28,28
India,Karnataka,Madikeri,"Stuart Hill, Madikeri - KSPCB",08-05-2024 15:00:00,12.415911,75.735050,CO,4,138,26
India,Karnataka,Mysuru,"Hebbal 1st Stage, Mysuru - KSPCB",08-05-2024 15:00:00,12.21041,76.37376,SO2,1,4,2
India,Karnataka,Mysuru,"Hebbal 1st Stage, Mysuru - KSPCB",08-05-2024 15:00:00,12.21041,76.37376,CO,5,54,16
India,Karnataka,Raichur,"Haji Colony, Raichur - KSPCB",08-05-2024 15:00:00,16.208139,77.348417,OZONE,3,16,4
