country,state,city,station,last_update,latitude,longitude,pollutant_id,pollutant_min,pollutant_max,pollutant_avg
India,Andhra_Pradesh,Anantapur,"Gulzarpet, Anantapur - APPCB",27-03-2024 22:00:00,14.675886,77.593027,PM2.5,17,79,44
India,Andhra_Pradesh,Chittoor,"Gangineni Cheruvu, Chittoor - APPCB",27-03-2024 22:00:00,13.204880,79.097889,PM10,27,116,69
India,Andhra_Pradesh,Chittoor,"Gangineni Cheruvu, Chittoor - APPCB",27-03-2024 22:00:00,13.204880,79.097889,NH3,1,3,1
India,Andhra_Pradesh,Kadapa,"Yerramukkapalli, Kadapa - APPCB",27-03-2024 22:00:00,14.465052,78.824187,PM10,12,52,25
India,Andhra_Pradesh,Kadapa,"Yerramukkapalli, Kadapa - APPCB",27-03-2024 22:00:00,14.465052,78.824187,CO,11,22,18
India,Andhra_Pradesh,Tirupati,"Tirumala, Tirupati - APPCB",27-03-2024 22:00:00,13.67,79.35,NH3,1,1,1
India,Andhra_Pradesh,Tirupati,"Tirumala, Tirupati - APPCB",27-03-2024 22:00:00,13.67,79.35,SO2,2,12,7
India,Andhra_Pradesh,Tirupati,"Vaikuntapuram, Tirupati - APPCB",27-03-2024 22:00:00,13.615387,79.409230,SO2,4,5,5
India,Andhra_Pradesh,Tirupati,"Vaikuntapuram, Tirupati - APPCB",27-03-2024 22:00:00,13.615387,79.409230,CO,9,14,12
India,Andhra_Pradesh,Vijayawada,"HB Colony, Vijayawada - APPCB",27-03-2024 22:00:00,16.536107,80.594233,NO2,5,13,8
India,Andhra_Pradesh,Vijayawada,"HB Colony, Vijayawada - APPCB",27-03-2024 22:00:00,16.536107,80.594233,NH3,4,4,4
India,Andhra_Pradesh,Vijayawada,"HB Colony, Vijayawada - APPCB",27-03-2024 22:00:00,16.536107,80.594233,SO2,3,5,4
India,Andhra_Pradesh,Vijayawada,"HB Colony, Vijayawada - APPCB",27-03-2024 22:00:00,16.536107,80.594233,OZONE,4,25,16
India,Andhra_Pradesh,Vijayawada,"Kanuru, Vijayawada - APPCB",27-03-2024 22:00:00,16.486692,80.699436,PM10,54,77,67
India,Andhra_Pradesh,Vijayawada,"Kanuru, Vijayawada - APPCB",27-03-2024 22:00:00,16.486692,80.699436,NH3,1,1,1
India,Andhra_Pradesh,Vijayawada,"Rajiv Gandhi Park, Vijayawada - APPCB",27-03-2024 22:00:00,16.509717,80.612222,SO2,4,7,6
India,Andhra_Pradesh,Vijayawada,"Rajiv Nagar, Vijayawada - APPCB",27-03-2024 22:00:00,16.554731,80.649110,SO2,13,23,17
India,Andhra_Pradesh,Visakhapatnam,"GVM Corporation, Visakhapatnam - APPCB",27-03-2024 22:00:00,17.72,83.3,PM10,47,160,97
India,Arunachal_Pradesh,Naharlagun,"Naharlagun, Naharlagun - APSPCB",27-03-2024 22:00:00,27.103358,93.679645,NO2,3,3,3
India,Assam,Byrnihat,"Central Academy for SFS, Byrnihat - PCBA",27-03-2024 22:00:00,26.071318,91.87488,OZONE,8,28,13
India,Assam,Nagaon,"Christianpatty, Nagaon - PCBA",27-03-2024 22:00:00,26.349082,92.68449,SO2,4,89,25
India,Assam,Nagaon,"Christianpatty, Nagaon - PCBA",27-03-2024 22:00:00,26.349082,92.68449,OZONE,12,61,34
India,Assam,Nalbari,"Bata Chowk, Nalbari - PCBA",27-03-2024 22:00:00,26.446912,91.439057,NH3,1,2,2
India,Assam,Sivasagar,"Girls College, Sivasagar - PCBA",27-03-2024 22:00:00,26.987634,94.636574,PM10,44,70,52
India,Assam,Sivasagar,"Girls College, Sivasagar - PCBA",27-03-2024 22:00:00,26.987634,94.636574,NH3,1,1,1
India,Assam,Sivasagar,"Girls College, Sivasagar - PCBA",27-03-2024 22:00:00,26.987634,94.636574,OZONE,1,34,5
India,Bihar,Arrah,"New DM Office, Arrah - BSPCB",27-03-2024 22:00:00,25.5626095,84.663264,NH3,5,7,6
India,Bihar,Arrah,"New DM Office, Arrah - BSPCB",27-03-2024 22:00:00,25.5626095,84.663264,SO2,15,24,19
India,Bihar,Aurangabad,"Gurdeo Nagar, Aurangabad - BSPCB",27-03-2024 22:00:00,24.75746,84.366208,PM2.5,NA,NA,NA
India,Bihar,Bettiah,"Kamalnath Nagar, Bettiah - BSPCB",27-03-2024 22:00:00,26.80365,84.51954,SO2,11,19,16
India,Bihar,Bhagalpur,"Mayaganj, Bhagalpur - BSPCB",27-03-2024 22:00:00,25.265194,87.012947,PM2.5,80,306,168
India,Bihar,Bhagalpur,"Mayaganj, Bhagalpur - BSPCB",27-03-2024 22:00:00,25.265194,87.012947,PM10,58,139,95
India,Bihar,Buxar,"Charitra Van, Buxar - BSPCB (Formerly known as Central Jail)",27-03-2024 22:00:00,25.567520,83.966379,PM2.5,NA,NA,NA
India,Bihar,Buxar,"Charitra Van, Buxar - BSPCB (Formerly known as Central Jail)",27-03-2024 22:00:00,25.567520,83.966379,PM10,NA,NA,NA
India,Bihar,Buxar,"Charitra Van, Buxar - BSPCB (Formerly known as Central Jail)",27-03-2024 22:00:00,25.567520,83.966379,NH3,1,2,1
India,Bihar,Buxar,"Charitra Van, Buxar - BSPCB (Formerly known as Central Jail)",27-03-2024 22:00:00,25.567520,83.966379,SO2,14,19,18
India,Bihar,Chhapra,"Darshan Nagar, Chhapra - BSPCB",27-03-2024 22:00:00,25.7808257,84.7446768,PM2.5,57,243,107
India,Bihar,Chhapra,"Darshan Nagar, Chhapra - BSPCB",27-03-2024 22:00:00,25.7808257,84.7446768,NO2,14,26,20
India,Bihar,Gaya,"Collectorate, Gaya - BSPCB",27-03-2024 22:00:00,24.7955,84.9994,PM2.5,32,167,67
India,Bihar,Gaya,"Kareemganj, Gaya - BSPCB",27-03-2024 22:00:00,24.792403,84.992416,PM2.5,7,95,34
India,Bihar,Gaya,"Kareemganj, Gaya - BSPCB",27-03-2024 22:00:00,24.792403,84.992416,SO2,7,10,8
India,Bihar,Gaya,"Kareemganj, Gaya - BSPCB",27-03-2024 22:00:00,24.792403,84.992416,CO,4,92,45
India,Bihar,Gaya,"Kareemganj, Gaya - BSPCB",27-03-2024 22:00:00,24.792403,84.992416,OZONE,4,42,15
India,Bihar,Gaya,"SFTI Kusdihra, Gaya - BSPCB",27-03-2024 22:00:00,24.762518,84.982348,PM10,52,77,63
India,Bihar,Gaya,"SFTI Kusdihra, Gaya - BSPCB",27-03-2024 22:00:00,24.762518,84.982348,NH3,1,7,3
India,Bihar,Hajipur,"Industrial Area, Hajipur - BSPCB",27-03-2024 22:00:00,25.697189,85.245900,OZONE,4,49,34
India,Bihar,Motihari,"Gandak Colony, Motihari - BSPCB",27-03-2024 22:00:00,26.63086,84.90051,CO,2,28,16
India,Bihar,Muzaffarpur,"Buddha Colony, Muzaffarpur - BSPCB",27-03-2024 22:00:00,26.11442,85.39813,PM2.5,49,128,72
India,Bihar,Muzaffarpur,"Buddha Colony, Muzaffarpur - BSPCB",27-03-2024 22:00:00,26.11442,85.39813,CO,12,24,17
India,Bihar,Muzaffarpur,"MIT-Daudpur Kothi, Muzaffarpur - BSPCB",27-03-2024 22:00:00,26.1403345,85.3650192,PM10,59,149,90
India,Bihar,Muzaffarpur,"MIT-Daudpur Kothi, Muzaffarpur - BSPCB",27-03-2024 22:00:00,26.1403345,85.3650192,NH3,2,6,3
India,Bihar,Muzaffarpur,"Muzaffarpur Collectorate, Muzaffarpur - BSPCB",27-03-2024 22:00:00,26.1209,85.3647,SO2,4,13,8
India,Bihar,Muzaffarpur,"Muzaffarpur Collectorate, Muzaffarpur - BSPCB",27-03-2024 22:00:00,26.1209,85.3647,OZONE,13,100,61
India,Bihar,Patna,"DRM Office Danapur, Patna - BSPCB",27-03-2024 22:00:00,25.586562,85.043586,PM10,81,125,92
India,Bihar,Patna,"Govt. High School Shikarpur, Patna - BSPCB",27-03-2024 22:00:00,25.592539,85.227158,NH3,5,6,5
India,Bihar,Patna,"Govt. High School Shikarpur, Patna - BSPCB",27-03-2024 22:00:00,25.592539,85.227158,OZONE,1,58,33
India,Bihar,Patna,"IGSC Planetarium Complex, Patna - BSPCB",27-03-2024 22:00:00,25.610369,85.132568,NO2,14,14,14
India,Bihar,Patna,"Muradpur, Patna - BSPCB",27-03-2024 22:00:00,25.619651,85.147382,CO,7,58,33
India,Bihar,Patna,"Muradpur, Patna - BSPCB",27-03-2024 22:00:00,25.619651,85.147382,OZONE,3,28,18
India,Bihar,Patna,"Rajbansi Nagar, Patna - BSPCB",27-03-2024 22:00:00,25.599486,85.113666,PM2.5,43,136,76
India,Bihar,Patna,"Rajbansi Nagar, Patna - BSPCB",27-03-2024 22:00:00,25.599486,85.113666,OZONE,8,87,58
India,Bihar,Patna,"Samanpura, Patna - BSPCB",27-03-2024 22:00:00,25.596727,85.085624,PM2.5,51,217,125
India,Bihar,Patna,"Samanpura, Patna - BSPCB",27-03-2024 22:00:00,25.596727,85.085624,NO2,23,37,31
India,Bihar,Patna,"Samanpura, Patna - BSPCB",27-03-2024 22:00:00,25.596727,85.085624,OZONE,37,54,45
India,Bihar,Purnia,"Mariam Nagar, Purnia - BSPCB",27-03-2024 22:00:00,25.366336,87.117468,OZONE,3,18,11
India,Bihar,Rajgir,"Dangi Tola, Rajgir - BSPCB",27-03-2024 22:00:00,25.03280,85.41948,OZONE,20,27,22
India,Bihar,Saharsa,"Police Line, Saharsa - BSPCB",27-03-2024 22:00:00,25.892357,86.590325,NO2,6,8,7
India,Bihar,Saharsa,"Police Line, Saharsa - BSPCB",27-03-2024 22:00:00,25.892357,86.590325,NH3,9,9,9
India,Bihar,Saharsa,"Police Line, Saharsa - BSPCB",27-03-2024 22:00:00,25.892357,86.590325,CO,17,45,35
India,Bihar,Sasaram,"Dada Peer, Sasaram - BSPCB",27-03-2024 22:00:00,24.952822,84.002396,PM10,28,81,50
India,Bihar,Sasaram,"Dada Peer, Sasaram - BSPCB",27-03-2024 22:00:00,24.952822,84.002396,SO2,14,25,22
India,Bihar,Siwan,"Chitragupta Nagar, Siwan - BSPCB",27-03-2024 22:00:00,26.2271665,84.3570427,PM10,NA,NA,NA
India,Bihar,Siwan,"Chitragupta Nagar, Siwan - BSPCB",27-03-2024 22:00:00,26.2271665,84.3570427,CO,11,104,43
India,Chandigarh,Chandigarh,"Sector 22, Chandigarh - CPCC",27-03-2024 22:00:00,30.735567,76.775714,PM10,74,159,112
India,Chandigarh,Chandigarh,"Sector 22, Chandigarh - CPCC",27-03-2024 22:00:00,30.735567,76.775714,SO2,9,22,16
India,Chandigarh,Chandigarh,"Sector-25, Chandigarh - CPCC",27-03-2024 22:00:00,30.751462,76.762879,PM10,106,147,133
India,Chandigarh,Chandigarh,"Sector-25, Chandigarh - CPCC",27-03-2024 22:00:00,30.751462,76.762879,NO2,6,24,14
India,Chhattisgarh,Bhilai,"32Bungalows, Bhilai - CECB",27-03-2024 22:00:00,21.194815,81.314770,SO2,5,14,7
India,Chhattisgarh,Bhilai,"Hathkhoj, Bhilai - CECB",27-03-2024 22:00:00,21.224231,81.408350,SO2,12,25,17
India,Chhattisgarh,Bhilai,"Hathkhoj, Bhilai - CECB",27-03-2024 22:00:00,21.224231,81.408350,CO,17,72,35
India,Chhattisgarh,Bilaspur,"Mangala, Bilaspur - NTPC",27-03-2024 22:00:00,22.08815,82.13737,PM10,33,90,57
India,Chhattisgarh,Bilaspur,"Mangala, Bilaspur - NTPC",27-03-2024 22:00:00,22.08815,82.13737,NO2,16,20,18
India,Chhattisgarh,Bilaspur,"Mangala, Bilaspur - NTPC",27-03-2024 22:00:00,22.08815,82.13737,SO2,4,17,12
India,Chhattisgarh,Korba,"Rampur, Korba - CECB",27-03-2024 22:00:00,22.368195,82.746431,NO2,26,36,31
India,Chhattisgarh,Kunjemura,"OP Jindal School, Kunjemura - CECB",27-03-2024 22:00:00,22.126650,83.483212,CO,26,72,43
India,Chhattisgarh,Milupara,"Govt. Higher Secondary School, Milupara - CECB",27-03-2024 22:00:00,22.1910172,83.5197009,NH3,1,2,1
India,Chhattisgarh,Milupara,"Govt. Higher Secondary School, Milupara - CECB",27-03-2024 22:00:00,22.1910172,83.5197009,OZONE,1,34,25
India,Chhattisgarh,Raipur,"AIIMS, Raipur - CECB",27-03-2024 22:00:00,21.258815,81.578979,PM2.5,35,96,56
India,Chhattisgarh,Raipur,"Siltara Phase-II, Raipur - CECB",27-03-2024 22:00:00,21.371751,81.664929,NO2,35,73,47
India,Chhattisgarh,Raipur,"Siltara Phase-II, Raipur - CECB",27-03-2024 22:00:00,21.371751,81.664929,NH3,3,3,3
India,Chhattisgarh,Tumidih,"OP Jindal Industrial Park, Tumidih - CECB",27-03-2024 22:00:00,22.06631475,83.33820077,PM10,54,196,93
India,Chhattisgarh,Tumidih,"OP Jindal Industrial Park, Tumidih - CECB",27-03-2024 22:00:00,22.06631475,83.33820077,NO2,10,33,17
India,Delhi,Delhi,"Anand Vihar, Delhi - DPCC",27-03-2024 22:00:00,28.647622,77.3158090,PM2.5,NA,NA,NA
India,Delhi,Delhi,"Anand Vihar, Delhi - DPCC",27-03-2024 22:00:00,28.647622,77.3158090,SO2,NA,NA,NA
India,Delhi,Delhi,"Ashok Vihar, Delhi - DPCC",27-03-2024 22:00:00,28.695381,77.181665,SO2,20,47,29
India,Delhi,Delhi,"Aya Nagar, Delhi - IMD",27-03-2024 22:00:00,28.4706914,77.1099364,NO2,16,26,20
India,Delhi,Delhi,"Bawana, Delhi - DPCC",27-03-2024 22:00:00,28.776200,77.051074,PM2.5,37,416,193
India,Delhi,Delhi,"Burari Crossing, Delhi - IMD",27-03-2024 22:00:00,28.7256504,77.2011573,PM2.5,38,266,100
India,Delhi,Delhi,"Burari Crossing, Delhi - IMD",27-03-2024 22:00:00,28.7256504,77.2011573,PM10,81,195,130
India,Delhi,Delhi,"Burari Crossing, Delhi - IMD",27-03-2024 22:00:00,28.7256504,77.2011573,CO,46,62,50
India,Delhi,Delhi,"Burari Crossing, Delhi - IMD",27-03-2024 22:00:00,28.7256504,77.2011573,OZONE,23,49,39
India,Delhi,Delhi,"CRRI Mathura Road, Delhi - IMD",27-03-2024 22:00:00,28.5512005,77.2735737,OZONE,2,73,31
India,Delhi,Delhi,"Chandni Chowk, Delhi - IITM",27-03-2024 22:00:00,28.656756,77.227234,SO2,NA,NA,NA
India,Delhi,Delhi,"DTU, Delhi - CPCB",27-03-2024 22:00:00,28.7500499,77.1112615,NH3,8,23,12
India,Delhi,Delhi,"DTU, Delhi - CPCB",27-03-2024 22:00:00,28.7500499,77.1112615,OZONE,26,95,66
India,Delhi,Delhi,"Dr. Karni Singh Shooting Range, Delhi - DPCC",27-03-2024 22:00:00,28.498571,77.264840,NO2,30,136,82
India,Delhi,Delhi,"Dr. Karni Singh Shooting Range, Delhi - DPCC",27-03-2024 22:00:00,28.498571,77.264840,NH3,6,8,7
India,Delhi,Delhi,"Dr. Karni Singh Shooting Range, Delhi - DPCC",27-03-2024 22:00:00,28.498571,77.264840,OZONE,1,210,115
India,Delhi,Delhi,"Dwarka-Sector 8, Delhi - DPCC ",27-03-2024 22:00:00,28.5710274,77.0719006,NO2,12,81,43
India,Delhi,Delhi,"Dwarka-Sector 8, Delhi - DPCC ",27-03-2024 22:00:00,28.5710274,77.0719006,SO2,3,18,10
India,Delhi,Delhi,"IHBAS, Dilshad Garden, Delhi - CPCB",27-03-2024 22:00:00,28.6811736,77.3025234,CO,27,103,89
India,Delhi,Delhi,"ITO, Delhi - CPCB",27-03-2024 22:00:00,28.628624,77.241060,NH3,3,10,6
India,Delhi,Delhi,"ITO, Delhi - CPCB",27-03-2024 22:00:00,28.628624,77.241060,SO2,9,30,20
India,Delhi,Delhi,"ITO, Delhi - CPCB",27-03-2024 22:00:00,28.628624,77.241060,CO,18,105,34
India,Delhi,Delhi,"Jahangirpuri, Delhi - DPCC",27-03-2024 22:00:00,28.732820,77.170633,PM10,115,442,200
India,Delhi,Delhi,"Jahangirpuri, Delhi - DPCC",27-03-2024 22:00:00,28.732820,77.170633,SO2,1,57,19
India,Delhi,Delhi,"Jahangirpuri, Delhi - DPCC",27-03-2024 22:00:00,28.732820,77.170633,CO,42,104,70
India,Delhi,Delhi,"Lodhi Road, Delhi - IITM",27-03-2024 22:00:00,28.588333,77.221667,OZONE,15,29,22
India,Delhi,Delhi,"Lodhi Road, Delhi - IMD",27-03-2024 22:00:00,28.5918245,77.2273074,PM2.5,45,129,88
India,Delhi,Delhi,"Major Dhyan Chand National Stadium, Delhi - DPCC",27-03-2024 22:00:00,28.611281,77.237738,NH3,6,8,7
India,Delhi,Delhi,"Mandir Marg, Delhi - DPCC",27-03-2024 22:00:00,28.636429,77.201067,CO,49,100,59
India,Delhi,Delhi,"Mundka, Delhi - DPCC",27-03-2024 22:00:00,28.684678,77.076574,NO2,21,98,60
India,Delhi,Delhi,"NSIT Dwarka, Delhi - CPCB",27-03-2024 22:00:00,28.60909,77.0325413,NH3,9,19,13
India,Delhi,Delhi,"Najafgarh, Delhi - DPCC",27-03-2024 22:00:00,28.570173,76.933762,PM10,48,340,133
India,Delhi,Delhi,"Najafgarh, Delhi - DPCC",27-03-2024 22:00:00,28.570173,76.933762,OZONE,7,110,85
India,Delhi,Delhi,"Narela, Delhi - DPCC",27-03-2024 22:00:00,28.822836,77.101981,SO2,12,53,25
India,Delhi,Delhi,"Nehru Nagar, Delhi - DPCC",27-03-2024 22:00:00,28.567890,77.250515,NO2,8,40,17
India,Delhi,Delhi,"New Moti Bagh, Delhi - MHUA",27-03-2024 22:00:00,28.57834,77.18400,NO2,1,24,6
India,Delhi,Delhi,"North Campus, DU, Delhi - IMD",27-03-2024 22:00:00,28.6573814,77.1585447,NO2,15,36,26
India,Delhi,Delhi,"Okhla Phase-2, Delhi - DPCC",27-03-2024 22:00:00,28.530785,77.271255,NO2,42,350,147
India,Delhi,Delhi,"Patparganj, Delhi - DPCC",27-03-2024 22:00:00,28.623763,77.287209,PM10,103,424,178
India,Delhi,Delhi,"Patparganj, Delhi - DPCC",27-03-2024 22:00:00,28.623763,77.287209,NO2,29,61,41
India,Delhi,Delhi,"Patparganj, Delhi - DPCC",27-03-2024 22:00:00,28.623763,77.287209,NH3,5,11,7
India,Delhi,Delhi,"Punjabi Bagh, Delhi - DPCC",27-03-2024 22:00:00,28.674045,77.131023,NO2,35,70,49
India,Delhi,Delhi,"Punjabi Bagh, Delhi - DPCC",27-03-2024 22:00:00,28.674045,77.131023,CO,12,95,22
India,Delhi,Delhi,"Pusa, Delhi - DPCC",27-03-2024 22:00:00,28.639652,77.146275,NO2,69,139,106
India,Delhi,Delhi,"Pusa, Delhi - DPCC",27-03-2024 22:00:00,28.639652,77.146275,NH3,5,12,9
India,Delhi,Delhi,"Pusa, Delhi - IMD",27-03-2024 22:00:00,28.636110,77.173332,PM10,99,215,157
India,Delhi,Delhi,"Pusa, Delhi - IMD",27-03-2024 22:00:00,28.636110,77.173332,CO,58,102,64
India,Delhi,Delhi,"R K Puram, Delhi - DPCC",27-03-2024 22:00:00,28.563262,77.186937,PM10,103,202,136
India,Delhi,Delhi,"Shadipur, Delhi - CPCB",27-03-2024 22:00:00,28.6514781,77.1473105,PM2.5,122,364,254
India,Delhi,Delhi,"Shadipur, Delhi - CPCB",27-03-2024 22:00:00,28.6514781,77.1473105,PM10,124,417,227
India,Delhi,Delhi,"Sirifort, Delhi - CPCB",27-03-2024 22:00:00,28.5504249,77.2159377,NH3,NA,NA,NA
India,Delhi,Delhi,"Sirifort, Delhi - CPCB",27-03-2024 22:00:00,28.5504249,77.2159377,CO,17,102,26
India,Delhi,Delhi,"Sonia Vihar, Delhi - DPCC",27-03-2024 22:00:00,28.710508,77.249485,PM10,74,192,144
India,Delhi,Delhi,"Sri Aurobindo Marg, Delhi - DPCC",27-03-2024 22:00:00,28.531346,77.190156,SO2,8,27,15
India,Delhi,Delhi,"Vivek Vihar, Delhi - DPCC",27-03-2024 22:00:00,28.672342,77.315260,CO,18,105,37
India,Delhi,Delhi,"Wazirpur, Delhi - DPCC",27-03-2024 22:00:00,28.699793,77.165453,NH3,9,10,9
India,Delhi,Delhi,"Wazirpur, Delhi - DPCC",27-03-2024 22:00:00,28.699793,77.165453,OZONE,5,86,43
India,Gujarat,Ahmedabad,"Chandkheda, Ahmedabad - IITM",27-03-2024 22:00:00,23.107969,72.574648,PM10,56,183,95
India,Gujarat,Ahmedabad,"Gyaspur, Ahmedabad - IITM",27-03-2024 22:00:00,22.977134,72.553024,PM10,101,430,168
India,Gujarat,Ahmedabad,"Gyaspur, Ahmedabad - IITM",27-03-2024 22:00:00,22.977134,72.553024,NO2,17,46,33
India,Gujarat,Ahmedabad,"Gyaspur, Ahmedabad - IITM",27-03-2024 22:00:00,22.977134,72.553024,CO,20,64,33
India,Gujarat,Ahmedabad,"Maninagar, Ahmedabad - GPCB",27-03-2024 22:00:00,23.002657,72.591912,PM2.5,57,332,142
India,Gujarat,Ahmedabad,"Maninagar, Ahmedabad - GPCB",27-03-2024 22:00:00,23.002657,72.591912,PM10,75,324,137
India,Gujarat,Ahmedabad,"Raikhad, Ahmedabad - IITM",27-03-2024 22:00:00,23.020509,72.579261,NO2,16,149,54
India,Gujarat,Ahmedabad,"Raikhad, Ahmedabad - IITM",27-03-2024 22:00:00,23.020509,72.579261,NH3,1,6,4
India,Gujarat,Ahmedabad,"SAC ISRO Satellite, Ahmedabad - IITM",27-03-2024 22:00:00,23.023389,72.515201,PM10,106,107,107
India,Gujarat,Ankleshwar,"GIDC, Ankleshwar - GPCB",27-03-2024 22:00:00,21.613267,73.010555,NH3,6,7,7
India,Gujarat,Ankleshwar,"GIDC, Ankleshwar - GPCB",27-03-2024 22:00:00,21.613267,73.010555,SO2,7,37,19
India,Gujarat,Gandhinagar,"GIFT City, Gandhinagar - IITM",27-03-2024 22:00:00,23.163798,72.677768,PM10,59,138,97
India,Gujarat,Gandhinagar,"GIFT City, Gandhinagar - IITM",27-03-2024 22:00:00,23.163798,72.677768,NH3,4,4,4
India,Gujarat,Gandhinagar,"GIFT City, Gandhinagar - IITM",27-03-2024 22:00:00,23.163798,72.677768,OZONE,6,42,27
India,Gujarat,Gandhinagar,"IIPHG Lekawada, Gandhinagar - IITM",27-03-2024 22:00:00,23.243639,72.68994,CO,22,25,23
India,Gujarat,Nandesari,"GIDC, Nandesari - Nandesari Ind. Association",27-03-2024 22:00:00,22.410802,73.097923,PM10,105,436,241
India,Gujarat,Nandesari,"GIDC, Nandesari - Nandesari Ind. Association",27-03-2024 22:00:00,22.410802,73.097923,NO2,5,51,21
India,Gujarat,Surat,"Science Center, Surat - SMC",27-03-2024 22:00:00,21.170046,72.795405,PM10,26,469,110
India,Gujarat,Vatva,"Phase-4 GIDC, Vatva - GPCB",27-03-2024 22:00:00,22.969611,72.643500,PM2.5,63,235,111
India,Gujarat,Vatva,"Phase-4 GIDC, Vatva - GPCB",27-03-2024 22:00:00,22.969611,72.643500,PM10,72,133,95
India,Gujarat,Vatva,"Phase-4 GIDC, Vatva - GPCB",27-03-2024 22:00:00,22.969611,72.643500,SO2,14,63,29
India,Haryana,Ambala,"Patti Mehar, Ambala - HSPCB",27-03-2024 22:00:00,30.379589,76.778328,PM10,42,64,51
India,Haryana,Ambala,"Patti Mehar, Ambala - HSPCB",27-03-2024 22:00:00,30.379589,76.778328,OZONE,25,35,28
India,Haryana,Bahadurgarh,"Arya Nagar, Bahadurgarh - HSPCB",27-03-2024 22:00:00,28.6701,76.9254,SO2,19,65,37
India,Haryana,Ballabgarh,"Nathu Colony, Ballabgarh - HSPCB",27-03-2024 22:00:00,28.3419248,77.319699,PM2.5,65,350,230
India,Haryana,Bhiwani,"H.B. Colony, Bhiwani - HSPCB",27-03-2024 22:00:00,28.806223,76.141105,PM2.5,64,500,119
India,Haryana,Bhiwani,"H.B. Colony, Bhiwani - HSPCB",27-03-2024 22:00:00,28.806223,76.141105,SO2,1,85,15
India,Haryana,Bhiwani,"H.B. Colony, Bhiwani - HSPCB",27-03-2024 22:00:00,28.806223,76.141105,CO,2,52,19
India,Haryana,Bhiwani,"H.B. Colony, Bhiwani - HSPCB",27-03-2024 22:00:00,28.806223,76.141105,OZONE,14,86,28
India,Haryana,Charkhi Dadri,"Mini Secretariat, Charkhi Dadri - HSPCB",27-03-2024 22:00:00,28.593883,76.270653,NO2,15,22,18
India,Haryana,Faridabad,"New Industrial Town, Faridabad - HSPCB",27-03-2024 22:00:00,28.39072,77.30059,NH3,10,11,10
India,Haryana,Faridabad,"New Industrial Town, Faridabad - HSPCB",27-03-2024 22:00:00,28.39072,77.30059,OZONE,18,91,26
India,Haryana,Faridabad,"Sector 11, Faridabad - HSPCB",27-03-2024 22:00:00,28.376058,77.315741,PM2.5,211,252,235
India,Haryana,Faridabad,"Sector 11, Faridabad - HSPCB",27-03-2024 22:00:00,28.376058,77.315741,CO,35,64,43
India,Haryana,Faridabad,"Sector 30, Faridabad - HSPCB",27-03-2024 22:00:00,28.4417,77.3217,PM10,136,148,143
India,Haryana,Faridabad,"Sector 30, Faridabad - HSPCB",27-03-2024 22:00:00,28.4417,77.3217,NH3,9,9,9
India,Haryana,Faridabad,"Sector- 16A, Faridabad - HSPCB",27-03-2024 22:00:00,28.4088421,77.3099081,CO,6,68,27
India,Haryana,Fatehabad,"Huda Sector, Fatehabad - HSPCB",27-03-2024 22:00:00,29.503664,75.467934,PM10,38,85,63
India,Haryana,Fatehabad,"Huda Sector, Fatehabad - HSPCB",27-03-2024 22:00:00,29.503664,75.467934,CO,6,9,7
India,Haryana,Fatehabad,"Huda Sector, Fatehabad - HSPCB",27-03-2024 22:00:00,29.503664,75.467934,OZONE,85,122,95
India,Haryana,Gurugram,"Sector-51, Gurugram - HSPCB",27-03-2024 22:00:00,28.4227,77.0667,NH3,6,14,9
India,Haryana,Gurugram,"Teri Gram, Gurugram - HSPCB",27-03-2024 22:00:00,28.4275,77.1465,OZONE,13,18,15
India,Haryana,Gurugram,"Vikas Sadan, Gurugram - HSPCB",27-03-2024 22:00:00,28.4501238,77.0263051,SO2,29,54,41
India,Haryana,Hisar,"Urban Estate-II, Hisar - HSPCB",27-03-2024 22:00:00,29.140560,75.744941,NO2,21,25,22
India,Haryana,Kaithal,"Rishi Nagar, Kaithal - HSPCB",27-03-2024 22:00:00,29.8006,76.4155,PM2.5,46,93,62
India,Haryana,Kaithal,"Rishi Nagar, Kaithal - HSPCB",27-03-2024 22:00:00,29.8006,76.4155,NH3,8,8,8
India,Haryana,Kaithal,"Rishi Nagar, Kaithal - HSPCB",27-03-2024 22:00:00,29.8006,76.4155,SO2,1,41,19
India,Haryana,Karnal,"Sector-12, Karnal - HSPCB",27-03-2024 22:00:00,29.695300,77.002700,PM2.5,58,75,67
India,Haryana,Karnal,"Sector-12, Karnal - HSPCB",27-03-2024 22:00:00,29.695300,77.002700,PM10,44,74,60
India,Haryana,Karnal,"Sector-12, Karnal - HSPCB",27-03-2024 22:00:00,29.695300,77.002700,SO2,12,13,12
India,Haryana,Kurukshetra,"Sector-7, Kurukshetra - HSPCB",27-03-2024 22:00:00,29.966942,76.875879,SO2,3,132,38
India,Haryana,Mandikhera,"General Hospital, Mandikhera - HSPCB",27-03-2024 22:00:00,27.9002,76.9938,NH3,17,19,18
India,Haryana,Manesar,"Sector-2 IMT, Manesar - HSPCB",27-03-2024 22:00:00,28.360699,76.936090,NO2,20,26,22
India,Haryana,Palwal,"Shyam Nagar, Palwal - HSPCB",27-03-2024 22:00:00,28.1485564,77.3320667,PM10,58,170,96
India,Haryana,Palwal,"Shyam Nagar, Palwal - HSPCB",27-03-2024 22:00:00,28.1485564,77.3320667,NH3,9,9,9
India,Haryana,Panipat,"Sector-18, Panipat - HSPCB",27-03-2024 22:00:00,29.497973,76.993331,PM2.5,88,93,92
India,Haryana,Rohtak,"MD University, Rohtak - HSPCB",27-03-2024 22:00:00,28.52123,76.37138,CO,25,62,44
India,Haryana,Sonipat,"Murthal, Sonipat - HSPCB",27-03-2024 22:00:00,29.027200,77.062100,SO2,12,29,20
India,Haryana,Yamuna Nagar,"Gobind Pura, Yamuna Nagar - HSPCB",27-03-2024 22:00:00,30.1480566,77.2893471,CO,38,95,43
India,Jharkhand,Dhanbad,"Kalakusuma, Dhanbad - DMC",27-03-2024 22:00:00,23.811548,86.481238,NO2,13,39,16
India,Karnataka,Bengaluru,"BTM Layout, Bengaluru - CPCB",27-03-2024 22:00:00,12.9135218,77.5950804,SO2,9,9,9
India,Karnataka,Bengaluru,"Hebbal, Bengaluru - KSPCB",27-03-2024 22:00:00,13.029152,77.585901,SO2,NA,NA,NA
India,Karnataka,Bengaluru,"Hebbal, Bengaluru - KSPCB",27-03-2024 22:00:00,13.029152,77.585901,CO,4,33,19
India,Karnataka,Bengaluru,"Hebbal, Bengaluru - KSPCB",27-03-2024 22:00:00,13.029152,77.585901,OZONE,8,59,16
India,Karnataka,Bengaluru,"Hombegowda Nagar, Bengaluru - KSPCB",27-03-2024 22:00:00,12.938539,77.590100,PM10,43,91,69
India,Karnataka,Bengaluru,"Hombegowda Nagar, Bengaluru - KSPCB",27-03-2024 22:00:00,12.938539,77.590100,NO2,11,24,18
India,Karnataka,Bengaluru,"Jayanagar 5th Block, Bengaluru - KSPCB",27-03-2024 22:00:00,12.920984,77.584908,NH3,4,5,4
India,Karnataka,Bengaluru,"Jayanagar 5th Block, Bengaluru - KSPCB",27-03-2024 22:00:00,12.920984,77.584908,SO2,16,30,21
India,Karnataka,Bengaluru,"Jigani, Bengaluru - KSPCB",27-03-2024 22:00:00,12.7816279,77.6299145,OZONE,NA,NA,NA
India,Karnataka,Bengaluru,"Peenya, Bengaluru - CPCB",27-03-2024 22:00:00,13.0270199,77.494094,PM10,36,69,54
India,Karnataka,Bengaluru,"Peenya, Bengaluru - CPCB",27-03-2024 22:00:00,13.0270199,77.494094,OZONE,22,97,62
India,Karnataka,Bengaluru,"RVCE-Mailasandra, Bengaluru - KSPCB",27-03-2024 22:00:00,12.921418,77.502466,CO,36,55,46
India,Karnataka,Bengaluru,"Shivapura_Peenya, Bengaluru - KSPCB",27-03-2024 22:00:00,13.0246342,77.5080115,PM2.5,21,106,59
India,Karnataka,Bengaluru,"Shivapura_Peenya, Bengaluru - KSPCB",27-03-2024 22:00:00,13.0246342,77.5080115,NH3,4,4,4
India,Karnataka,Bengaluru,"Silk Board, Bengaluru - KSPCB",27-03-2024 22:00:00,12.917348,77.622813,SO2,5,11,9
India,Karnataka,Bengaluru,"Silk Board, Bengaluru - KSPCB",27-03-2024 22:00:00,12.917348,77.622813,CO,7,31,18
India,Karnataka,Bidar,"Naubad, Bidar - KSPCB",27-03-2024 22:00:00,17.930306,77.482194,NO2,7,8,8
India,Karnataka,Bidar,"Naubad, Bidar - KSPCB",27-03-2024 22:00:00,17.930306,77.482194,NH3,3,3,3
India,Karnataka,Bidar,"Naubad, Bidar - KSPCB",27-03-2024 22:00:00,17.930306,77.482194,SO2,14,21,17
India,Karnataka,Chikkaballapur,"Chikkaballapur Rural, Chikkaballapur - KSPCB",27-03-2024 22:00:00,13.428828,77.731418,SO2,10,15,12
India,Karnataka,Chikkaballapur,"Chikkaballapur Rural, Chikkaballapur - KSPCB",27-03-2024 22:00:00,13.428828,77.731418,OZONE,25,27,26
India,Karnataka,Chikkamagaluru,"Kalyana Nagara, Chikkamagaluru - KSPCB",27-03-2024 22:00:00,13.328028,75.797056,OZONE,16,56,45
India,Karnataka,Davanagere,"Devaraj Urs Badavane, Davanagere - KSPCB",27-03-2024 22:00:00,14.475800,75.905200,NH3,NA,NA,NA
India,Karnataka,Dharwad,"Kalabhavan, Dharwad - KSPCB",27-03-2024 22:00:00,15.459706,75.008381,PM10,31,61,37
India,Karnataka,Dharwad,"Kalabhavan, Dharwad - KSPCB",27-03-2024 22:00:00,15.459706,75.008381,NO2,4,38,19
India,Karnataka,Dharwad,"Kalabhavan, Dharwad - KSPCB",27-03-2024 22:00:00,15.459706,75.008381,NH3,2,3,3
India,Karnataka,Dharwad,"Kalabhavan, Dharwad - KSPCB",27-03-2024 22:00:00,15.459706,75.008381,SO2,1,16,3
India,Karnataka,Gadag,"Panchal Nagar, Gadag - KSPCB",27-03-2024 22:00:00,15.411456,75.638133,PM2.5,28,58,39
India,Karnataka,Gadag,"Panchal Nagar, Gadag - KSPCB",27-03-2024 22:00:00,15.411456,75.638133,NO2,4,20,13
India,Karnataka,Gadag,"Panchal Nagar, Gadag - KSPCB",27-03-2024 22:00:00,15.411456,75.638133,SO2,NA,NA,NA
India,Karnataka,Hassan,"B.Katihalli, Hassan - KSPCB",27-03-2024 22:00:00,13.008556,76.125258,PM2.5,67,90,73
India,Karnataka,Haveri,"Ashwini Nagar, Haveri - KSPCB",27-03-2024 22:00:00,14.791800,75.389600,PM2.5,32,137,56
India,Karnataka,Hubballi,"Lingaraj Nagar, Hubballi - KSPCB",27-03-2024 22:00:00,15.3714823,75.1160168,PM10,45,76,55
India,Karnataka,Hubballi,"Lingaraj Nagar, Hubballi - KSPCB",27-03-2024 22:00:00,15.3714823,75.1160168,OZONE,10,46,35
India,Karnataka,Kalaburagi,"Lal Bahadur Shastri Nagar, Kalaburagi - KSPCB",27-03-2024 22:00:00,17.321993,76.822628,PM10,34,92,60
India,Karnataka,Kalaburagi,"Mahatma Basaveswar Colony, Kalaburgi - KSPCB",27-03-2024 22:00:00,17.336318,76.847397,SO2,6,30,11
India,Karnataka,Kalaburagi,"Mahatma Basaveswar Colony, Kalaburgi - KSPCB",27-03-2024 22:00:00,17.336318,76.847397,CO,36,49,42
India,Karnataka,Karwar,"KHB Colony, Karwar - KSPCB",27-03-2024 22:00:00,14.816666,74.141003,NO2,2,74,19
India,Karnataka,Karwar,"KHB Colony, Karwar - KSPCB",27-03-2024 22:00:00,14.816666,74.141003,SO2,14,19,18
India,Karnataka,Koppal,"Diwator Nagar, Koppal - KSPCB",27-03-2024 22:00:00,15.347630,76.181767,NO2,NA,NA,NA
India,Karnataka,Mangalore,"Kadri, Mangalore - KSPCB",27-03-2024 22:00:00,12.889250,74.853000,PM10,37,63,50
India,Karnataka,Mangalore,"Kadri, Mangalore - KSPCB",27-03-2024 22:00:00,12.889250,74.853000,NH3,2,2,2
India,Karnataka,Mangalore,"Kadri, Mangalore - KSPCB",27-03-2024 22:00:00,12.889250,74.853000,CO,39,48,41
India,Karnataka,Raichur,"Haji Colony, Raichur - KSPCB",27-03-2024 22:00:00,16.208139,77.348417,PM2.5,12,58,27
India,Karnataka,Raichur,"Haji Colony, Raichur - KSPCB",27-03-2024 22:00:00,16.208139,77.348417,NH3,1,3,2
India,Karnataka,Ramanagara,"Vijay Nagar, Ramanagara - KSPCB",27-03-2024 22:00:00,12.733409,77.298051,NO2,2,12,5
India,Karnataka,Shivamogga,"Vinoba Nagara, Shivamogga - KSPCB",27-03-2024 22:00:00,13.940000,75.555917,OZONE,9,62,40
India,Karnataka,Tumakuru,"Thimmalapura, Tumakuru - KSPCB",27-03-2024 22:00:00,13.377516,77.099072,PM2.5,NA,NA,NA
India,Karnataka,Tumakuru,"Thimmalapura, Tumakuru - KSPCB",27-03-2024 22:00:00,13.377516,77.099072,PM10,NA,NA,NA
India,Karnataka,Udupi,"Brahmagiri, Udupi - KSPCB",27-03-2024 22:00:00,13.34194444,74.74694444,PM2.5,33,93,51
India,Karnataka,Udupi,"Brahmagiri, Udupi - KSPCB",27-03-2024 22:00:00,13.34194444,74.74694444,PM10,52,132,80
India,Karnataka,Vijayapura,"Ibrahimpur, Vijayapura - KSPCB",27-03-2024 22:00:00,16.802639,75.722694,PM2.5,26,31,30
India,Karnataka,Vijayapura,"Ibrahimpur, Vijayapura - KSPCB",27-03-2024 22:00:00,16.802639,75.722694,NO2,17,19,19
India,Karnataka,Yadgir,"Collector Office, Yadgir - KSPCB",27-03-2024 22:00:00,16.7602,77.1428,PM2.5,40,87,62
India,Karnataka,Yadgir,"Collector Office, Yadgir - KSPCB",27-03-2024 22:00:00,16.7602,77.1428,SO2,11,44,21
India,Kerala,Eloor,"Udyogamandal, Eloor - Kerala PCB",27-03-2024 22:00:00,10.073232,76.302765,NH3,1,1,1
India,Kerala,Eloor,"Udyogamandal, Eloor - Kerala PCB",27-03-2024 22:00:00,10.073232,76.302765,OZONE,10,26,16
India,Kerala,Kannur,"Thavakkara, Kannur - Kerala PCB",27-03-2024 22:00:00,11.875000,75.373200,PM10,65,77,70
India,Kerala,Kannur,"Thavakkara, Kannur - Kerala PCB",27-03-2024 22:00:00,11.875000,75.373200,CO,30,36,33
India,Kerala,Thiruvananthapuram,"Kariavattom, Thiruvananthapuram - Kerala PCB",27-03-2024 22:00:00,8.563700,76.886500,NO2,8,9,9
India,Kerala,Thiruvananthapuram,"Kariavattom, Thiruvananthapuram - Kerala PCB",27-03-2024 22:00:00,8.563700,76.886500,NH3,1,1,1
India,Kerala,Thiruvananthapuram,"Kariavattom, Thiruvananthapuram - Kerala PCB",27-03-2024 22:00:00,8.563700,76.886500,SO2,4,15,8
India,Kerala,Thrissur,"Corporation Ground, Thrissur - Kerala PCB",27-03-2024 22:00:00,10.532400,76.215900,NH3,NA,NA,NA
India,Madhya Pradesh,Bhopal,"Idgah Hills, Bhopal - MPPCB",27-03-2024 22:00:00,23.264759,77.381568,NO2,16,74,30
India,Madhya Pradesh,Bhopal,"Paryavaran Parisar, Bhopal - MPPCB",27-03-2024 22:00:00,23.210494,77.425409,NH3,7,12,8
India,Madhya Pradesh,Bhopal,"T T Nagar, Bhopal - MPPCB",27-03-2024 22:00:00,23.233584,77.400574,NO2,35,119,57
India,Madhya Pradesh,Gwalior,"Deen Dayal Nagar, Gwalior - MPPCB",27-03-2024 22:00:00,26.259242,78.216432,NH3,8,20,11
India,Madhya Pradesh,Gwalior,"Maharaj Bada, Gwalior - MPPCB",27-03-2024 22:00:00,26.200388,78.147714,CO,42,154,99
India,Madhya Pradesh,Indore,"Chhoti Gwaltoli, Indore - MPPCB",27-03-2024 22:00:00,22.4310,75.5213,PM10,79,257,126
India,Madhya Pradesh,Jabalpur,"Gupteshwar, Jabalpur - JMC",27-03-2024 22:00:00,23.142888,79.916147,PM10,45,143,79
India,Madhya Pradesh,Jabalpur,"Gupteshwar, Jabalpur - JMC",27-03-2024 22:00:00,23.142888,79.916147,NH3,6,16,9
India,Madhya Pradesh,Jabalpur,"Marhatal, Jabalpur - MPPCB",27-03-2024 22:00:00,23.168606,79.932247,CO,28,152,91
India,Madhya Pradesh,Jabalpur,"Suhagi, Jabalpur - JMC",27-03-2024 22:00:00,23.218135,79.957770,OZONE,2,132,55
India,Madhya Pradesh,Katni,"Gole Bazar, Katni - MPPCB",27-03-2024 22:00:00,23.50016,80.23284,NH3,2,8,4
India,Madhya Pradesh,Katni,"Gole Bazar, Katni - MPPCB",27-03-2024 22:00:00,23.50016,80.23284,OZONE,3,94,62
India,Madhya Pradesh,Mandideep,"Sector-D Industrial Area, Mandideep - MPPCB",27-03-2024 22:00:00,23.108440,77.511428,CO,16,87,40
India,Madhya Pradesh,Pithampur,"Sector-2 Industrial Area, Pithampur - MPPCB",27-03-2024 22:00:00,22.624758,75.675238,NO2,13,29,18
India,Madhya Pradesh,Pithampur,"Sector-2 Industrial Area, Pithampur - MPPCB",27-03-2024 22:00:00,22.624758,75.675238,NH3,1,13,7
India,Madhya Pradesh,Sagar,"Civil Lines, Sagar - MPPCB",27-03-2024 22:00:00,23.838586,78.759431,PM10,60,125,81
India,Madhya Pradesh,Sagar,"Civil Lines, Sagar - MPPCB",27-03-2024 22:00:00,23.838586,78.759431,SO2,6,14,9
India,Madhya Pradesh,Sagar,"Deen Dayal Nagar, Sagar - MPPCB",27-03-2024 22:00:00,23.8640158,78.80289321,PM2.5,8,24,17
India,Madhya Pradesh,Satna,"Bandhavgar Colony, Satna - Birla Cement",27-03-2024 22:00:00,24.58434363,80.8549414,PM2.5,3,33,17
India,Madhya Pradesh,Satna,"Bandhavgar Colony, Satna - Birla Cement",27-03-2024 22:00:00,24.58434363,80.8549414,OZONE,57,87,65
India,Madhya Pradesh,Singrauli,"Suryakiran Bhawan NCL, Singrauli - MPPCB",27-03-2024 22:00:00,24.108970,82.645580,NO2,9,62,31
India,Madhya Pradesh,Ujjain,"Mahakaleshwar Temple, Ujjain - MPPCB",27-03-2024 22:00:00,23.182719 ,75.768218 ,NH3,5,10,8
India,Madhya Pradesh,Ujjain,"Mahakaleshwar Temple, Ujjain - MPPCB",27-03-2024 22:00:00,23.182719 ,75.768218 ,OZONE,121,144,136
India,Maharashtra,Ahmednagar,"Tarakpur, Ahmednagar - MPCB",27-03-2024 22:00:00,19.10122,74.73339,OZONE,35,217,140
India,Maharashtra,Akola,"Ramdaspeth, Akola - MPCB",27-03-2024 22:00:00,20.719516,77.000253,SO2,8,32,16
India,Maharashtra,Amravati,"Shri Shivaji Science College, Amaravati - MPCB",27-03-2024 22:00:00,20.939198,77.765701,NO2,6,101,21
India,Maharashtra,Aurangabad,"MIDC Chilkalthana, Aurangabad - MPCB",27-03-2024 22:00:00,19.875620,75.387310,NH3,3,4,4
India,Maharashtra,Aurangabad,"More Chowk Waluj, Aurangabad - MPCB",27-03-2024 22:00:00,19.8389439,75.244448,OZONE,10,111,68
India,Maharashtra,Aurangabad,"Rachnakar Colony, Aurangabad - MPCB",27-03-2024 22:00:00,19.863756,75.321188,NO2,17,136,63
India,Maharashtra,Aurangabad,"Rachnakar Colony, Aurangabad - MPCB",27-03-2024 22:00:00,19.863756,75.321188,SO2,16,62,31
India,Maharashtra,Badlapur,"Katrap, Badlapur - MPCB",27-03-2024 22:00:00,19.16485,73.23409,PM10,85,156,118
India,Maharashtra,Badlapur,"Katrap, Badlapur - MPCB",27-03-2024 22:00:00,19.16485,73.23409,NO2,4,113,28
India,Maharashtra,Belapur,"CBD Belapur, Belapur - MPCB",27-03-2024 22:00:00,19.0243902,73.0406721,PM10,68,141,95
India,Maharashtra,Belapur,"CBD Belapur, Belapur - MPCB",27-03-2024 22:00:00,19.0243902,73.0406721,SO2,1,15,4
India,Maharashtra,Boisar,"Khaira, Boisar - MPCB",27-03-2024 22:00:00,19.786089,72.757971,OZONE,13,192,21
India,Maharashtra,Chandrapur,"Chauhan Colony, Chandrapur - MPCB",27-03-2024 22:00:00,19.962900,79.298714,PM10,NA,NA,NA
India,Maharashtra,Chandrapur,"Chauhan Colony, Chandrapur - MPCB",27-03-2024 22:00:00,19.962900,79.298714,SO2,12,42,21
India,Maharashtra,Chandrapur,"MIDC Khutala, Chandrapur - MPCB",27-03-2024 22:00:00,19.9775302,79.2337086,PM2.5,20,112,69
India,Maharashtra,Dhule,"Deopur, Dhule - MPCB",27-03-2024 22:00:00,20.918946,74.776388,OZONE,22,143,91
India,Maharashtra,Jalna,"Old MIDC, Jalna - MPCB",27-03-2024 22:00:00,19.854616,75.905894,NH3,NA,NA,NA
India,Maharashtra,Kalyan,"Khadakpada, Kalyan - MPCB",27-03-2024 22:00:00,19.25292,73.142019,PM2.5,29,84,46
India,Maharashtra,Kolhapur,"Shivaji University, Kolhapur - MPCB",27-03-2024 22:00:00,16.6870449,74.2505872,PM10,32,161,93
India,Maharashtra,Kolhapur,"Sinchan Bhavan, Kolhapur - MPCB",27-03-2024 22:00:00,16.7143745,74.2426398,NO2,12,56,27
India,Maharashtra,Kolhapur,"Sinchan Bhavan, Kolhapur - MPCB",27-03-2024 22:00:00,16.7143745,74.2426398,OZONE,25,214,133
India,Maharashtra,Mahad,"Kamble Tarf Birwadi, Mahad - MPCB",27-03-2024 22:00:00,18.1023399,73.4783687,PM2.5,47,97,65
India,Maharashtra,Mahad,"Kamble Tarf Birwadi, Mahad - MPCB",27-03-2024 22:00:00,18.1023399,73.4783687,CO,14,73,43
India,Maharashtra,Malegaon,"Mahesh Nagar, Malegaon - MPCB",27-03-2024 22:00:00,20.555712,74.529236,PM10,82,283,113
India,Maharashtra,Malegaon,"Mahesh Nagar, Malegaon - MPCB",27-03-2024 22:00:00,20.555712,74.529236,NH3,1,11,5
India,Maharashtra,Mira-Bhayandar,"Bhayandar West, Mira-Bhayandar - MPCB",27-03-2024 22:00:00,19.296481,72.840923,PM2.5,31,79,56
India,Maharashtra,Mira-Bhayandar,"Bhayandar West, Mira-Bhayandar - MPCB",27-03-2024 22:00:00,19.296481,72.840923,NO2,4,33,14
India,Maharashtra,Mira-Bhayandar,"Bhayandar West, Mira-Bhayandar - MPCB",27-03-2024 22:00:00,19.296481,72.840923,NH3,4,7,5
India,Maharashtra,Mira-Bhayandar,"Bhayandar West, Mira-Bhayandar - MPCB",27-03-2024 22:00:00,19.296481,72.840923,CO,10,30,10
India,Maharashtra,Mumbai,"Bandra Kurla Complex, Mumbai - MPCB",27-03-2024 22:00:00,19.065931,72.862131,NO2,4,22,11
India,Maharashtra,Mumbai,"Bandra Kurla Complex, Mumbai - MPCB",27-03-2024 22:00:00,19.065931,72.862131,OZONE,8,51,46
India,Maharashtra,Mumbai,"Borivali East, Mumbai - IITM",27-03-2024 22:00:00,19.23241,72.86895,PM10,58,122,80
India,Maharashtra,Mumbai,"Borivali East, Mumbai - MPCB",27-03-2024 22:00:00,19.2243333,72.8658113,PM10,34,111,54
India,Maharashtra,Mumbai,"Borivali East, Mumbai - MPCB",27-03-2024 22:00:00,19.2243333,72.8658113,NO2,5,44,13
India,Maharashtra,Mumbai,"Byculla, Mumbai - BMC",27-03-2024 22:00:00,18.9767,72.8380,PM10,26,63,47
India,Maharashtra,Mumbai,"Byculla, Mumbai - BMC",27-03-2024 22:00:00,18.9767,72.8380,SO2,1,17,3
India,Maharashtra,Mumbai,"Chakala-Andheri East, Mumbai - IITM",27-03-2024 22:00:00,19.11074,72.86084,OZONE,12,58,37
India,Maharashtra,Mumbai,"Chembur, Mumbai - MPCB",27-03-2024 22:00:00,19.0364585,72.8954371,PM2.5,48,92,62
India,Maharashtra,Mumbai,"Chembur, Mumbai - MPCB",27-03-2024 22:00:00,19.0364585,72.8954371,NO2,18,72,36
India,Maharashtra,Mumbai,"Chhatrapati Shivaji Intl. Airport (T2), Mumbai - MPCB",27-03-2024 22:00:00,19.10078,72.87462,PM2.5,14,72,30
India,Maharashtra,Mumbai,"Chhatrapati Shivaji Intl. Airport (T2), Mumbai - MPCB",27-03-2024 22:00:00,19.10078,72.87462,NH3,1,4,2
India,Maharashtra,Mumbai,"Colaba, Mumbai - MPCB",27-03-2024 22:00:00,18.910000,72.820000,PM2.5,11,45,23
India,Maharashtra,Mumbai,"Colaba, Mumbai - MPCB",27-03-2024 22:00:00,18.910000,72.820000,OZONE,6,12,11
India,Maharashtra,Mumbai,"Kandivali East, Mumbai - MPCB",27-03-2024 22:00:00,19.205800,72.868200,PM10,48,407,111
India,Maharashtra,Mumbai,"Kandivali East, Mumbai - MPCB",27-03-2024 22:00:00,19.205800,72.868200,CO,41,107,44
India,Maharashtra,Mumbai,"Kandivali West, Mumbai - BMC",27-03-2024 22:00:00,19.215859,72.831718,PM2.5,4,58,36
India,Maharashtra,Mumbai,"Kandivali West, Mumbai - BMC",27-03-2024 22:00:00,19.215859,72.831718,NO2,9,58,22
India,Maharashtra,Mumbai,"Khindipada-Bhandup West, Mumbai - IITM",27-03-2024 22:00:00,19.1653323,72.922099,NO2,18,44,35
India,Maharashtra,Mumbai,"Khindipada-Bhandup West, Mumbai - IITM",27-03-2024 22:00:00,19.1653323,72.922099,NH3,3,6,5
India,Maharashtra,Mumbai,"Kurla, Mumbai - MPCB",27-03-2024 22:00:00,19.0863,72.8888,NO2,13,27,19
India,Maharashtra,Mumbai,"Kurla, Mumbai - MPCB",27-03-2024 22:00:00,19.0863,72.8888,SO2,32,32,32
India,Maharashtra,Mumbai,"Kurla, Mumbai - MPCB",27-03-2024 22:00:00,19.0863,72.8888,CO,6,32,9
India,Maharashtra,Mumbai,"Mazgaon, Mumbai - IITM",27-03-2024 22:00:00,18.96702,72.84214,PM2.5,44,330,109
India,Maharashtra,Mumbai,"Mazgaon, Mumbai - IITM",27-03-2024 22:00:00,18.96702,72.84214,CO,6,111,11
India,Maharashtra,Mumbai,"Mulund West, Mumbai - MPCB",27-03-2024 22:00:00,19.1750,72.9419,SO2,13,13,13
India,Maharashtra,Mumbai,"Powai, Mumbai - MPCB",27-03-2024 22:00:00,19.137500,72.915056,NO2,19,47,26
India,Maharashtra,Mumbai,"Powai, Mumbai - MPCB",27-03-2024 22:00:00,19.137500,72.915056,NH3,1,1,1
India,Maharashtra,Mumbai,"Powai, Mumbai - MPCB",27-03-2024 22:00:00,19.137500,72.915056,CO,30,38,34
India,Maharashtra,Mumbai,"Sewri, Mumbai - BMC",27-03-2024 22:00:00,19.000084,72.856730,NH3,3,9,6
India,Maharashtra,Mumbai,"Sewri, Mumbai - BMC",27-03-2024 22:00:00,19.000084,72.856730,OZONE,6,25,18
India,Maharashtra,Mumbai,"Shivaji Nagar, Mumbai - BMC",27-03-2024 22:00:00,19.060498,72.923356,PM10,67,113,93
India,Maharashtra,Mumbai,"Sion, Mumbai - MPCB",27-03-2024 22:00:00,19.047000,72.874600,CO,7,38,11
India,Maharashtra,Mumbai,"Vasai West, Mumbai - MPCB",27-03-2024 22:00:00,19.383200,72.820400,PM10,40,113,76
India,Maharashtra,Mumbai,"Vile Parle West, Mumbai - MPCB",27-03-2024 22:00:00,19.10861,72.83622,PM10,56,123,81
India,Maharashtra,Mumbai,"Vile Parle West, Mumbai - MPCB",27-03-2024 22:00:00,19.10861,72.83622,NO2,NA,NA,NA
India,Maharashtra,Mumbai,"Worli, Mumbai - MPCB",27-03-2024 22:00:00,18.9936162,72.8128113,PM10,17,39,28
India,Maharashtra,Mumbai,"Worli, Mumbai - MPCB",27-03-2024 22:00:00,18.9936162,72.8128113,OZONE,8,12,10
India,Maharashtra,Nagpur,"Ambazari, Nagpur - MPCB",27-03-2024 22:00:00,21.121801,79.04952,PM10,88,159,116
India,Maharashtra,Nagpur,"Ambazari, Nagpur - MPCB",27-03-2024 22:00:00,21.121801,79.04952,NO2,23,123,52
India,Maharashtra,Nagpur,"Mahal, Nagpur - MPCB",27-03-2024 22:00:00,21.14472,79.107595,NO2,NA,NA,NA
India,Maharashtra,Nagpur,"Opp GPO Civil Lines, Nagpur - MPCB",27-03-2024 22:00:00,21.152875,79.0517531,NO2,33,185,78
India,Maharashtra,Nagpur,"Ram Nagar, Nagpur - MPCB",27-03-2024 22:00:00,21.143383,79.048912,PM2.5,62,185,126
India,Maharashtra,Nagpur,"Ram Nagar, Nagpur - MPCB",27-03-2024 22:00:00,21.143383,79.048912,OZONE,12,74,54
India,Maharashtra,Nanded,"Sneh Nagar, Nanded - MPCB",27-03-2024 22:00:00,19.173852,77.296291,PM10,90,158,120
India,Maharashtra,Nanded,"Sneh Nagar, Nanded - MPCB",27-03-2024 22:00:00,19.173852,77.296291,CO,32,39,36
India,Maharashtra,Nanded,"Sneh Nagar, Nanded - MPCB",27-03-2024 22:00:00,19.173852,77.296291,OZONE,28,139,107
India,Maharashtra,Nashik,"Gangapur Road, Nashik - MPCB",27-03-2024 22:00:00,20.0073285,73.7762427,SO2,NA,NA,NA
India,Maharashtra,Nashik,"Gangapur Road, Nashik - MPCB",27-03-2024 22:00:00,20.0073285,73.7762427,CO,22,24,23
India,Maharashtra,Nashik,"MIDC Ambad, Nashik - MPCB",27-03-2024 22:00:00,19.950220,73.731480,PM10,70,92,80
India,Maharashtra,Nashik,"Pandav Nagari, Nashik - MPCB",27-03-2024 22:00:00,19.9591346,73.7788008,CO,12,41,17
India,Maharashtra,Navi Mumbai,"Mahape, Navi Mumbai - MPCB",27-03-2024 22:00:00,19.1135051,73.008978,SO2,26,27,27
India,Maharashtra,Navi Mumbai,"Nerul, Navi Mumbai - MPCB",27-03-2024 22:00:00,19.008751,73.016620,SO2,9,10,10
India,Maharashtra,Navi Mumbai,"Sector-19A Nerul, Navi Mumbai - IITM",27-03-2024 22:00:00,19.044,73.0325,PM2.5,57,133,81
India,Maharashtra,Navi Mumbai,"Sector-19A Nerul, Navi Mumbai - IITM",27-03-2024 22:00:00,19.044,73.0325,PM10,69,126,92
India,Maharashtra,Navi Mumbai,"Sector-19A Nerul, Navi Mumbai - IITM",27-03-2024 22:00:00,19.044,73.0325,NO2,26,69,49
India,Maharashtra,Navi Mumbai,"Sector-19A Nerul, Navi Mumbai - IITM",27-03-2024 22:00:00,19.044,73.0325,OZONE,1,54,20
India,Maharashtra,Parbhani,"Masoom Colony, Parbhani - MPCB",27-03-2024 22:00:00,19.265594,76.761463,PM2.5,23,323,179
India,Maharashtra,Pimpri-Chinchwad,"Gavalinagar, Pimpri Chinchwad - MPCB",27-03-2024 22:00:00,18.63673,73.82487,PM2.5,62,155,85
India,Maharashtra,Pimpri-Chinchwad,"Gavalinagar, Pimpri Chinchwad - MPCB",27-03-2024 22:00:00,18.63673,73.82487,SO2,10,29,15
India,Maharashtra,Pimpri-Chinchwad,"Park Street Wakad, Pimpri Chinchwad - MPCB",27-03-2024 22:00:00,18.59051,73.77946,SO2,9,37,18
India,Maharashtra,Pimpri-Chinchwad,"Park Street Wakad, Pimpri Chinchwad - MPCB",27-03-2024 22:00:00,18.59051,73.77946,CO,22,66,27
India,Maharashtra,Pune,"Bhosari, Pune - IITM",27-03-2024 22:00:00,18.640051,73.848956,PM10,74,120,95
India,Maharashtra,Pune,"Karve Road, Pune - MPCB",27-03-2024 22:00:00,18.5011743,73.8165527,SO2,19,20,20
India,Maharashtra,Pune,"Katraj Dairy, Pune - MPCB",27-03-2024 22:00:00,18.454450,73.854155,SO2,1,9,2
India,Maharashtra,Pune,"Revenue Colony-Shivajinagar, Pune - IITM",27-03-2024 22:00:00,18.530085,73.849598,PM2.5,49,84,71
India,Maharashtra,Pune,"Revenue Colony-Shivajinagar, Pune - IITM",27-03-2024 22:00:00,18.530085,73.849598,PM10,53,99,79
India,Maharashtra,Pune,"Revenue Colony-Shivajinagar, Pune - IITM",27-03-2024 22:00:00,18.530085,73.849598,CO,109,118,115
India,Maharashtra,Pune,"Revenue Colony-Shivajinagar, Pune - IITM",27-03-2024 22:00:00,18.530085,73.849598,OZONE,1,62,44
India,Maharashtra,Pune,"Savitribai Phule Pune University, Pune - MPCB",27-03-2024 22:00:00,18.547056,73.826908,NO2,1,24,7
India,Maharashtra,Pune,"Savitribai Phule Pune University, Pune - MPCB",27-03-2024 22:00:00,18.547056,73.826908,OZONE,13,303,211
India,Maharashtra,Sangli,"Vijay Nagar, Sangli - MPCB",27-03-2024 22:00:00, 16.5038,74.3623,SO2,8,28,14
India,Maharashtra,Sangli,"Vijay Nagar, Sangli - MPCB",27-03-2024 22:00:00, 16.5038,74.3623,CO,17,75,24
India,Maharashtra,Solapur,"Dnyaneshwar Nagar, Solapur - MPCB",27-03-2024 22:00:00,17.6336264,75.9132495,SO2,5,35,14
India,Maharashtra,Solapur,"Ratandeep Housing Society, Solapur - MPCB",27-03-2024 22:00:00,17.65439,75.90649,NO2,9,41,24
India,Maharashtra,Solapur,"Ratandeep Housing Society, Solapur - MPCB",27-03-2024 22:00:00,17.65439,75.90649,SO2,6,57,20
India,Maharashtra,Thane,"Kasarvadavali, Thane - MPCB",27-03-2024 22:00:00,19.26777,72.97182,PM2.5,52,103,75
India,Maharashtra,Thane,"Kasarvadavali, Thane - MPCB",27-03-2024 22:00:00,19.26777,72.97182,NO2,28,100,50
India,Maharashtra,Thane,"Kasarvadavali, Thane - MPCB",27-03-2024 22:00:00,19.26777,72.97182,SO2,2,14,5
India,Maharashtra,Thane,"Kasarvadavali, Thane - MPCB",27-03-2024 22:00:00,19.26777,72.97182,OZONE,2,69,36
India,Maharashtra,Thane,"Pimpleshwar Mandir, Thane - MPCB",27-03-2024 22:00:00,19.192056,72.9585188,PM10,42,449,164
India,Maharashtra,Thane,"Pimpleshwar Mandir, Thane - MPCB",27-03-2024 22:00:00,19.192056,72.9585188,NO2,NA,NA,NA
India,Maharashtra,Thane,"Pimpleshwar Mandir, Thane - MPCB",27-03-2024 22:00:00,19.192056,72.9585188,CO,36,110,73
India,Maharashtra,Thane,"Upvan Fort, Thane - MPCB",27-03-2024 22:00:00,19.222279,72.957979,SO2,5,29,10
India,Maharashtra,Ulhasnagar,"Sidhi Vinayak Nagar, Ulhasnagar - MPCB",27-03-2024 22:00:00,19.235581,73.159121,PM10,116,149,130
India,Maharashtra,Virar,"Bolinj, Virar - MPCB",27-03-2024 22:00:00,19.4458210,72.7988231,PM10,61,159,102
India,Maharashtra,Virar,"Bolinj, Virar - MPCB",27-03-2024 22:00:00,19.4458210,72.7988231,NO2,6,58,27
India,Manipur,Imphal,"DM College of Science, Imphal - Manipur PCB",27-03-2024 22:00:00,24.8207389,93.9423085,PM10,10,99,30
India,Manipur,Imphal,"DM College of Science, Imphal - Manipur PCB",27-03-2024 22:00:00,24.8207389,93.9423085,NH3,2,2,2
India,Manipur,Imphal,"DM College of Science, Imphal - Manipur PCB",27-03-2024 22:00:00,24.8207389,93.9423085,SO2,88,94,91
India,Manipur,Imphal,"DM College of Science, Imphal - Manipur PCB",27-03-2024 22:00:00,24.8207389,93.9423085,OZONE,1,4,3
India,Manipur,Imphal,"Manipur University, Imphal - Manipur PCB",27-03-2024 22:00:00,24.7524239,93.9286218,NO2,7,36,12
India,Manipur,Imphal,"Manipur University, Imphal - Manipur PCB",27-03-2024 22:00:00,24.7524239,93.9286218,NH3,NA,NA,NA
India,Meghalaya,Shillong,"Lumpyngngad, Shillong - Meghalaya PCB",27-03-2024 22:00:00,25.5586,91.8985,SO2,37,40,38
India,Mizoram,Aizawl,"Sikulpuikawn, Aizawl - Mizoram PCB",27-03-2024 22:00:00,23.7176342,92.7192841,PM2.5,39,88,62
India,Mizoram,Aizawl,"Sikulpuikawn, Aizawl - Mizoram PCB",27-03-2024 22:00:00,23.7176342,92.7192841,NO2,1,2,1
India,Nagaland,Kohima,"PWD Juction, Kohima - NPCB",27-03-2024 22:00:00,25.6635413,94.0989878,PM10,24,106,61
India,Nagaland,Kohima,"PWD Juction, Kohima - NPCB",27-03-2024 22:00:00,25.6635413,94.0989878,NH3,1,1,1
India,Nagaland,Kohima,"PWD Juction, Kohima - NPCB",27-03-2024 22:00:00,25.6635413,94.0989878,SO2,30,31,30
India,Nagaland,Kohima,"PWD Juction, Kohima - NPCB",27-03-2024 22:00:00,25.6635413,94.0989878,OZONE,8,39,26
India,Odisha,Angul,"Hakimapada, Angul - OSPCB",27-03-2024 22:00:00,20.832874,85.104082,OZONE,9,224,142
India,Odisha,Balasore,"Kalidaspur, Balasore - OSPCB",27-03-2024 22:00:00,21.51161,86.89088,PM10,42,146,85
India,Odisha,Balasore,"Kalidaspur, Balasore - OSPCB",27-03-2024 22:00:00,21.51161,86.89088,NO2,8,32,15
India,Odisha,Barbil,"Forest Office, Barbil - OSPCB",27-03-2024 22:00:00,22.1166054,85.3945546,OZONE,17,211,146
India,Odisha,Baripada,"Meher Colony, Baripada - OSPCB",27-03-2024 22:00:00,21.941841,86.728318,PM2.5,59,180,105
India,Odisha,Bileipada,"Tata Township, Bileipada - OSPCB",27-03-2024 22:00:00,22.06156703,85.47409613,PM2.5,20,238,152
India,Odisha,Bileipada,"Tata Township, Bileipada - OSPCB",27-03-2024 22:00:00,22.06156703,85.47409613,NO2,8,13,10
India,Odisha,Bileipada,"Tata Township, Bileipada - OSPCB",27-03-2024 22:00:00,22.06156703,85.47409613,CO,24,92,32
India,Odisha,Brajrajnagar,"GM Office, Brajrajnagar - OSPCB",27-03-2024 22:00:00,21.8004996,83.8396977,CO,71,103,79
India,Odisha,Brajrajnagar,"GM Office, Brajrajnagar - OSPCB",27-03-2024 22:00:00,21.8004996,83.8396977,OZONE,19,20,19
India,Odisha,Byasanagar,"Ferro Chrome Colony, Byasanagar - OSPCB",27-03-2024 22:00:00,20.94185,86.11510,PM10,29,105,66
India,Odisha,Byasanagar,"Ferro Chrome Colony, Byasanagar - OSPCB",27-03-2024 22:00:00,20.94185,86.11510,CO,70,88,84
India,Odisha,Rairangpur,"Divisional Forest Office, Rairangpur - OSPCB",27-03-2024 22:00:00,22.265816,86.174829,PM2.5,60,142,85
India,Odisha,Rairangpur,"Divisional Forest Office, Rairangpur - OSPCB",27-03-2024 22:00:00,22.265816,86.174829,PM10,75,127,98
India,Odisha,Rourkela,"Fertilizer Township, Rourkela - OSPCB",27-03-2024 22:00:00,22.18972222,84.86277778,PM2.5,NA,NA,NA
India,Odisha,Rourkela,"Raghunathpali, Rourkela - OSPCB",27-03-2024 22:00:00,22.220833,84.809444,OZONE,19,150,88
India,Odisha,Rourkela,"Sector-2, Rourkela - OSPCB",27-03-2024 22:00:00,22.24500000,84.88111111,PM10,85,156,115
India,Odisha,Rourkela,"Sector-2, Rourkela - OSPCB",27-03-2024 22:00:00,22.24500000,84.88111111,CO,18,101,41
India,Odisha,Talcher,"Talcher Coalfields,Talcher - OSPCB",27-03-2024 22:00:00,20.9360711,85.1707021,PM10,27,180,87
India,Odisha,Talcher,"Talcher Coalfields,Talcher - OSPCB",27-03-2024 22:00:00,20.9360711,85.1707021,NH3,4,5,5
India,Odisha,Talcher,"Talcher Coalfields,Talcher - OSPCB",27-03-2024 22:00:00,20.9360711,85.1707021,CO,8,56,48
India,Odisha,Tensa,"Barsua Iron Ore Mines, Tensa - OSPCB",27-03-2024 22:00:00,21.869985,85.167016,PM10,90,127,107
India,Odisha,Tensa,"Barsua Iron Ore Mines, Tensa - OSPCB",27-03-2024 22:00:00,21.869985,85.167016,SO2,NA,NA,NA
India,Puducherry,Puducherry,"Jawahar Nagar, Puducherry - PPCC",27-03-2024 22:00:00,11.9309,79.8027,PM10,13,134,44
India,Puducherry,Puducherry,"Jawahar Nagar, Puducherry - PPCC",27-03-2024 22:00:00,11.9309,79.8027,NO2,2,23,9
India,Punjab,Amritsar,"Golden Temple, Amritsar - PPCB",27-03-2024 22:00:00,31.620000,74.876512,PM10,79,156,106
India,Punjab,Amritsar,"Golden Temple, Amritsar - PPCB",27-03-2024 22:00:00,31.620000,74.876512,OZONE,46,65,54
India,Punjab,Jalandhar,"Civil Line, Jalandhar - PPCB",27-03-2024 22:00:00,31.321907,75.578914,CO,26,64,43
India,Punjab,Khanna,"Kalal Majra, Khanna - PPCB",27-03-2024 22:00:00,30.736056 ,76.209694,PM10,51,98,74
India,Punjab,Ludhiana,"Punjab Agricultural University, Ludhiana - PPCB",27-03-2024 22:00:00,30.9028,75.8086,NH3,4,5,4
India,Rajasthan,Ajmer,"Civil Lines,  Ajmer - RSPCB",27-03-2024 22:00:00,26.470859,74.646594,SO2,11,16,13
India,Rajasthan,Alwar,"Moti Doongri, Alwar - RSPCB",27-03-2024 22:00:00,27.554793,76.611536,NH3,4,13,7
India,Rajasthan,Banswara,"Rati Talai, Banswara - RSPCB",27-03-2024 22:00:00,23.555190,74.440010,CO,15,109,64
India,Rajasthan,Baran,"Bamboliya, Baran - RSPCB",27-03-2024 22:00:00,25.106006,76.469948,CO,10,59,22
India,Rajasthan,Baran,"Bamboliya, Baran - RSPCB",27-03-2024 22:00:00,25.106006,76.469948,OZONE,20,114,88
India,Rajasthan,Barmer,"Railway Colony, Barmer - RSPCB",27-03-2024 22:00:00,25.747299,71.393989,OZONE,32,70,61
India,Rajasthan,Bharatpur,"Krishna Nagar, Bharatpur - RSPCB",27-03-2024 22:00:00,27.215415,77.50873,NO2,12,84,42
India,Rajasthan,Bharatpur,"Krishna Nagar, Bharatpur - RSPCB",27-03-2024 22:00:00,27.215415,77.50873,NH3,6,17,10
India,Rajasthan,Bharatpur,"Krishna Nagar, Bharatpur - RSPCB",27-03-2024 22:00:00,27.215415,77.50873,SO2,7,16,11
India,Rajasthan,Bhilwara,"Pratap Nagar, Bhilwara - RSPCB",27-03-2024 22:00:00,25.339605,74.618883,SO2,NA,NA,NA
India,Rajasthan,Bhilwara,"Pratap Nagar, Bhilwara - RSPCB",27-03-2024 22:00:00,25.339605,74.618883,OZONE,15,80,55
India,Rajasthan,Bhiwadi,"RIICO Ind. Area III, Bhiwadi - RSPCB",27-03-2024 22:00:00,28.194909,76.862296,SO2,NA,NA,NA
India,Rajasthan,Bhiwadi,"Vasundhara Nagar_UIT, Bhiwadi - RSPCB",27-03-2024 22:00:00,28.207266,76.829265,PM10,81,416,194
India,Rajasthan,Bikaner,"MM Ground, Bikaner - RSPCB",27-03-2024 22:00:00,28.018792,73.292658,SO2,2,12,7
India,Rajasthan,Bikaner,"MM Ground, Bikaner - RSPCB",27-03-2024 22:00:00,28.018792,73.292658,OZONE,4,62,46
India,Rajasthan,Bundi,"New Colony, Bundi - RSPCB",27-03-2024 22:00:00,25.435774,75.644272,SO2,6,15,10
India,Rajasthan,Bundi,"New Colony, Bundi - RSPCB",27-03-2024 22:00:00,25.435774,75.644272,CO,10,117,48
India,Rajasthan,Chittorgarh,"Shastri Nagar, Chittorgarh - RSPCB",27-03-2024 22:00:00,24.892047,74.623527,NO2,7,119,58
India,Rajasthan,Churu,"Subash Chowk, Churu - RSPCB",27-03-2024 22:00:00,28.296139,74.961696,SO2,6,27,9
India,Rajasthan,Churu,"Subash Chowk, Churu - RSPCB",27-03-2024 22:00:00,28.296139,74.961696,OZONE,75,152,121
India,Rajasthan,Dausa,"Khatikan Mohalla, Dausa - RSPCB",27-03-2024 22:00:00,26.895552,76.334753,SO2,10,15,12
India,Rajasthan,Dholpur,"Raja Ganj, Dholpur - RSPCB",27-03-2024 22:00:00,26.699557,77.898881,PM10,98,259,137
India,Rajasthan,Dholpur,"Raja Ganj, Dholpur - RSPCB",27-03-2024 22:00:00,26.699557,77.898881,NH3,10,17,12
India,Rajasthan,Hanumangarh,"Housing Board, Hanumangarh - RSPCB",27-03-2024 22:00:00,29.610750,74.283608,OZONE,13,79,50
India,Rajasthan,Jaipur,"Mansarovar Sector-12, Jaipur - RSPCB",27-03-2024 22:00:00,26.843698,75.766894,PM2.5,33,146,75
India,Rajasthan,Jaipur,"Mansarovar Sector-12, Jaipur - RSPCB",27-03-2024 22:00:00,26.843698,75.766894,OZONE,59,93,70
India,Rajasthan,Jaipur,"RIICO Sitapura, Jaipur - RSPCB",27-03-2024 22:00:00,26.786682,75.827928,PM2.5,46,313,141
India,Rajasthan,Jaipur,"Sector-2 Murlipura, Jaipur - RSPCB",27-03-2024 22:00:00,26.960669,75.771817,PM2.5,37,81,59
India,Rajasthan,Jaipur,"Sector-2 Murlipura, Jaipur - RSPCB",27-03-2024 22:00:00,26.960669,75.771817,OZONE,4,51,22
India,Rajasthan,Jaipur,"Shastri Nagar, Jaipur - RSPCB",27-03-2024 22:00:00,26.9502929,75.730943,NH3,1,24,7
India,Rajasthan,Jaipur,"Shastri Nagar, Jaipur - RSPCB",27-03-2024 22:00:00,26.9502929,75.730943,OZONE,25,84,66
India,Rajasthan,Jaisalmer,"Sadar Bazar, Jaisalmer - RSPCB",27-03-2024 22:00:00,26.912329,70.909168,PM10,79,169,112
India,Rajasthan,Jalore,"Mudtra Sili, Jalore - RSPCB",27-03-2024 22:00:00,25.344694,72.626208,SO2,4,9,7
India,Rajasthan,Jalore,"Mudtra Sili, Jalore - RSPCB",27-03-2024 22:00:00,25.344694,72.626208,OZONE,28,88,69
India,Rajasthan,Jhalawar,"Rajlaxmi Nagar, Jhalawar - RSPCB",27-03-2024 22:00:00,24.588397,76.172782,PM2.5,29,128,46
India,Rajasthan,Jhalawar,"Rajlaxmi Nagar, Jhalawar - RSPCB",27-03-2024 22:00:00,24.588397,76.172782,NO2,21,82,41
India,Rajasthan,Jhunjhunu,"Indra Nagar, Jhunjhunu - RSPCB",27-03-2024 22:00:00,28.108988,75.386577,PM10,69,231,120
India,Rajasthan,Jodhpur,"Collectorate, Jodhpur - RSPCB",27-03-2024 22:00:00,26.268249,73.0193853,PM2.5,35,305,119
India,Rajasthan,Jodhpur,"Digari Kalan, Jodhpur - RSPCB",27-03-2024 22:00:00,26.295810,73.082283,SO2,4,8,6
India,Rajasthan,Jodhpur,"Jhalamand, Jodhpur - RSPCB",27-03-2024 22:00:00,26.215415,73.070156,NO2,33,47,39
India,Rajasthan,Jodhpur,"Jhalamand, Jodhpur - RSPCB",27-03-2024 22:00:00,26.215415,73.070156,NH3,4,15,9
India,Rajasthan,Jodhpur,"Mandor, Jodhpur - RSPCB",27-03-2024 22:00:00,26.358805,73.047444,NO2,18,105,45
India,Rajasthan,Jodhpur,"Mandor, Jodhpur - RSPCB",27-03-2024 22:00:00,26.358805,73.047444,OZONE,2,112,66
India,Rajasthan,Jodhpur,"Samrat Ashok Udhyan, Jodhpur - RSPCB",27-03-2024 22:00:00,26.253384,72.976571,PM10,90,301,144
India,Rajasthan,Jodhpur,"Samrat Ashok Udhyan, Jodhpur - RSPCB",27-03-2024 22:00:00,26.253384,72.976571,SO2,1,17,5
India,Rajasthan,Karauli,"Satyawati Vihar, Karauli - RSPCB",27-03-2024 22:00:00,26.506177,77.025989,PM10,15,69,36
India,Rajasthan,Karauli,"Satyawati Vihar, Karauli - RSPCB",27-03-2024 22:00:00,26.506177,77.025989,SO2,4,14,8
India,Rajasthan,Kota,"Dhanmandi, Kota - RSPCB",27-03-2024 22:00:00,25.164090,75.858137,NH3,3,6,5
India,Rajasthan,Kota,"Dhanmandi, Kota - RSPCB",27-03-2024 22:00:00,25.164090,75.858137,SO2,3,54,15
India,Rajasthan,Kota,"Dhanmandi, Kota - RSPCB",27-03-2024 22:00:00,25.164090,75.858137,CO,15,112,62
India,Rajasthan,Kota,"Nayapura, Kota - RSPCB",27-03-2024 22:00:00,25.196024,75.855668,PM2.5,29,174,83
India,Rajasthan,Kota,"Nayapura, Kota - RSPCB",27-03-2024 22:00:00,25.196024,75.855668,SO2,5,18,9
India,Rajasthan,Kota,"Nayapura, Kota - RSPCB",27-03-2024 22:00:00,25.196024,75.855668,OZONE,1,164,85
India,Rajasthan,Pali,"Indira Colony Vistar, Pali - RSPCB",27-03-2024 22:00:00,25.771061, 73.340227,CO,40,79,62
India,Rajasthan,Pratapgarh,"Pragati Nagar, Pratapgarh - RSPCB",27-03-2024 22:00:00,24.041198,74.780702,CO,12,88,27
India,Rajasthan,Rajsamand,"Dhoinda, Rajsamand - RSPCB",27-03-2024 22:00:00,25.036360,73.883502,PM10,53,159,86
India,Rajasthan,Rajsamand,"Dhoinda, Rajsamand - RSPCB",27-03-2024 22:00:00,25.036360,73.883502,CO,50,100,55
India,Rajasthan,Sawai Madhopur,"Sahu Nagar, Sawai Madhopur - RSPCB",27-03-2024 22:00:00,26.031443,76.359327,PM10,60,195,95
India,Rajasthan,Sawai Madhopur,"Sahu Nagar, Sawai Madhopur - RSPCB",27-03-2024 22:00:00,26.031443,76.359327,CO,15,120,34
India,Rajasthan,Sikar,"Radhakishan Pura, Sikar - RSPCB",27-03-2024 22:00:00,27.608912,75.153302,PM2.5,NA,NA,NA
India,Rajasthan,Sikar,"Radhakishan Pura, Sikar - RSPCB",27-03-2024 22:00:00,27.608912,75.153302,PM10,NA,NA,NA
India,Rajasthan,Sirohi,"Vedhaynath Colony, Sirohi - RSPCB",27-03-2024 22:00:00,24.885261,72.857549,NO2,6,46,19
India,Rajasthan,Sirohi,"Vedhaynath Colony, Sirohi - RSPCB",27-03-2024 22:00:00,24.885261,72.857549,CO,12,45,16
India,Rajasthan,Sirohi,"Vedhaynath Colony, Sirohi - RSPCB",27-03-2024 22:00:00,24.885261,72.857549,OZONE,27,94,77
India,Rajasthan,Sri Ganganagar,"Old City, Sri Ganganagar - RSPCB",27-03-2024 22:00:00,29.931624,73.864511,OZONE,16,40,37
India,Rajasthan,Udaipur,"Ashok Nagar, Udaipur - RSPCB",27-03-2024 22:00:00,24.5886166,73.6321397,NO2,95,153,120
India,Rajasthan,Udaipur,"Ashok Nagar, Udaipur - RSPCB",27-03-2024 22:00:00,24.5886166,73.6321397,CO,1,119,76
India,Sikkim,Gangtok,"Zero Point GICI, Gangtok - SSPCB",27-03-2024 22:00:00,27.338530,88.614099,PM2.5,NA,NA,NA
India,Sikkim,Gangtok,"Zero Point GICI, Gangtok - SSPCB",27-03-2024 22:00:00,27.338530,88.614099,CO,10,18,14
India,TamilNadu,Chengalpattu,"Crescent University, Chengalpattu - TNPCB",27-03-2024 22:00:00,12.8777316,80.0834807,CO,25,32,26
India,TamilNadu,Chengalpattu,"Crescent University, Chengalpattu - TNPCB",27-03-2024 22:00:00,12.8777316,80.0834807,OZONE,5,6,6
India,TamilNadu,Chennai,"Arumbakkam, Chennai - TNPCB",27-03-2024 22:00:00,13.0664,80.2112 ,NO2,NA,NA,NA
India,TamilNadu,Chennai,"Kodungaiyur, Chennai - TNPCB",27-03-2024 22:00:00,13.1278,80.2642,PM2.5,6,35,19
India,TamilNadu,Chennai,"Manali, Chennai - CPCB",27-03-2024 22:00:00,13.164544,80.26285,SO2,4,45,10
India,TamilNadu,Chennai,"Perungudi, Chennai - TNPCB",27-03-2024 22:00:00,12.9533,80.2357,OZONE,3,7,5
India,TamilNadu,Chennai,"Velachery Res. Area, Chennai - CPCB",27-03-2024 22:00:00,13.0052189,80.2398125,CO,10,105,46
India,TamilNadu,Coimbatore,"PSG College of Arts and Science, Coimbatore - TNPCB",27-03-2024 22:00:00,11.0328,77.0349,NH3,1,1,1
India,TamilNadu,Cuddalore,"Semmandalam, Cuddalore - TNPCB",27-03-2024 22:00:00,11.7637683,79.7499835,PM2.5,12,70,26
India,TamilNadu,Cuddalore,"Semmandalam, Cuddalore - TNPCB",27-03-2024 22:00:00,11.7637683,79.7499835,OZONE,1,3,2
India,TamilNadu,Gummidipoondi,"Anthoni Pillai Nagar, Gummidipoondi - TNPCB",27-03-2024 22:00:00,13.4127,80.1081,SO2,3,109,46
India,TamilNadu,Kanchipuram,"Kilambi, Kanchipuram - TNPCB",27-03-2024 22:00:00,12.864618,79.659968,PM2.5,NA,NA,NA
India,TamilNadu,Kanchipuram,"Kilambi, Kanchipuram - TNPCB",27-03-2024 22:00:00,12.864618,79.659968,CO,22,22,22
India,TamilNadu,Ooty,"Bombay Castel, Ooty - TNPCB",27-03-2024 22:00:00,11.4068288,76.7138973,PM2.5,NA,NA,NA
India,TamilNadu,Ooty,"Bombay Castel, Ooty - TNPCB",27-03-2024 22:00:00,11.4068288,76.7138973,PM10,NA,NA,NA
India,TamilNadu,Ooty,"Bombay Castel, Ooty - TNPCB",27-03-2024 22:00:00,11.4068288,76.7138973,OZONE,5,5,5
India,TamilNadu,Palkalaiperur,"Bharathidasan University, Palkalaiperur - TNPCB",27-03-2024 22:00:00,10.681158,78.741746,OZONE,1,1,1
India,Telangana,Hyderabad,"Bollaram Industrial Area, Hyderabad - TSPCB",27-03-2024 22:00:00,17.540891,78.358528,PM10,52,124,86
India,Telangana,Hyderabad,"Bollaram Industrial Area, Hyderabad - TSPCB",27-03-2024 22:00:00,17.540891,78.358528,SO2,5,50,12
India,Telangana,Hyderabad,"ECIL Kapra, Hyderabad - TSPCB",27-03-2024 22:00:00,17.470431,78.566959,PM10,54,124,72
India,Telangana,Hyderabad,"ECIL Kapra, Hyderabad - TSPCB",27-03-2024 22:00:00,17.470431,78.566959,NH3,4,7,6
India,Telangana,Hyderabad,"ECIL Kapra, Hyderabad - TSPCB",27-03-2024 22:00:00,17.470431,78.566959,OZONE,6,148,78
India,Telangana,Hyderabad,"ICRISAT Patancheru, Hyderabad - TSPCB",27-03-2024 22:00:00,17.518400,78.278777,SO2,13,31,20
India,Telangana,Hyderabad,"ICRISAT Patancheru, Hyderabad - TSPCB",27-03-2024 22:00:00,17.518400,78.278777,CO,23,68,47
India,Telangana,Hyderabad,"Kompally Municipal Office, Hyderabad - TSPCB",27-03-2024 22:00:00,17.544899,78.486949,NO2,10,13,12
India,Telangana,Hyderabad,"Kompally Municipal Office, Hyderabad - TSPCB",27-03-2024 22:00:00,17.544899,78.486949,SO2,7,21,13
India,Telangana,Hyderabad,"Nacharam_TSIIC IALA, Hyderabad - TSPCB",27-03-2024 22:00:00,17.429398,78.569354,SO2,17,23,20
India,Telangana,Hyderabad,"New Malakpet, Hyderabad - TSPCB",27-03-2024 22:00:00,17.37206,78.50864,PM10,51,114,71
India,Telangana,Hyderabad,"New Malakpet, Hyderabad - TSPCB",27-03-2024 22:00:00,17.37206,78.50864,NO2,19,29,23
India,Telangana,Hyderabad,"Ramachandrapuram, Hyderabad - TSPCB",27-03-2024 22:00:00,17.528544,78.286195,NO2,NA,NA,NA
India,Telangana,Hyderabad,"Sanathnagar, Hyderabad - TSPCB",27-03-2024 22:00:00,17.4559458,78.4332152,SO2,3,12,6
India,Telangana,Hyderabad,"Sanathnagar, Hyderabad - TSPCB",27-03-2024 22:00:00,17.4559458,78.4332152,OZONE,NA,NA,NA
India,Telangana,Hyderabad,"Zoo Park, Hyderabad - TSPCB",27-03-2024 22:00:00,17.349694,78.451437,NH3,1,1,1
India,Uttar_Pradesh,Agra,"Manoharpur, Agra - UPPCB",27-03-2024 22:00:00,27.23711,78.01936,NH3,1,2,1
India,Uttar_Pradesh,Agra,"Manoharpur, Agra - UPPCB",27-03-2024 22:00:00,27.23711,78.01936,SO2,17,31,23
India,Uttar_Pradesh,Agra,"Manoharpur, Agra - UPPCB",27-03-2024 22:00:00,27.23711,78.01936,CO,8,23,9
India,Uttar_Pradesh,Agra,"Rohta, Agra - UPPCB",27-03-2024 22:00:00,27.106972,78.000111,NH3,1,1,1
India,Uttar_Pradesh,Agra,"Rohta, Agra - UPPCB",27-03-2024 22:00:00,27.106972,78.000111,CO,8,38,19
India,Uttar_Pradesh,Agra,"Rohta, Agra - UPPCB",27-03-2024 22:00:00,27.106972,78.000111,OZONE,15,18,16
India,Uttar_Pradesh,Agra,"Sector-3B Avas Vikas Colony, Agra - UPPCB",27-03-2024 22:00:00,27.19412,77.96237,SO2,22,26,24
India,Uttar_Pradesh,Agra,"Shahjahan Garden, Agra - UPPCB",27-03-2024 22:00:00,27.169338,78.03582,PM10,NA,NA,NA
India,Uttar_Pradesh,Agra,"Shahjahan Garden, Agra - UPPCB",27-03-2024 22:00:00,27.169338,78.03582,NH3,NA,NA,NA
India,Uttar_Pradesh,Agra,"Shahjahan Garden, Agra - UPPCB",27-03-2024 22:00:00,27.169338,78.03582,OZONE,9,33,15
India,Uttar_Pradesh,Agra,"Shastripuram, Agra - UPPCB",27-03-2024 22:00:00,27.19862,77.92066,PM2.5,3,119,64
India,Uttar_Pradesh,Agra,"Shastripuram, Agra - UPPCB",27-03-2024 22:00:00,27.19862,77.92066,SO2,13,20,16
India,Uttar_Pradesh,Baghpat,"Sardar Patel Inter College, Baghpat - UPPCB",27-03-2024 22:00:00,28.964949,77.278761,PM2.5,30,104,65
India,Uttar_Pradesh,Baghpat,"Sardar Patel Inter College, Baghpat - UPPCB",27-03-2024 22:00:00,28.964949,77.278761,SO2,15,71,47
India,Uttar_Pradesh,Bareilly,"Civil Lines, Bareilly - UPPCB",27-03-2024 22:00:00,28.359581,79.414455,SO2,NA,NA,NA
India,Uttar_Pradesh,Bareilly,"Civil Lines, Bareilly - UPPCB",27-03-2024 22:00:00,28.359581,79.414455,OZONE,1,19,2
India,Uttar_Pradesh,Bareilly,"Rajendra Nagar, Bareilly - UPPCB",27-03-2024 22:00:00,28.38910936,79.42963708,PM10,47,96,72
India,Uttar_Pradesh,Bulandshahr,"Yamunapuram, Bulandshahr - UPPCB",27-03-2024 22:00:00,28.406963,77.849831,NO2,17,92,47
India,Uttar_Pradesh,Bulandshahr,"Yamunapuram, Bulandshahr - UPPCB",27-03-2024 22:00:00,28.406963,77.849831,CO,26,62,35
India,Uttar_Pradesh,Bulandshahr,"Yamunapuram, Bulandshahr - UPPCB",27-03-2024 22:00:00,28.406963,77.849831,OZONE,5,82,48
India,Uttar_Pradesh,Firozabad,"Nagla Bhau, Firozabad - UPPCB",27-03-2024 22:00:00,27.168897,78.376960,NO2,13,17,17
India,Uttar_Pradesh,Firozabad,"Vibhab Nagar, Firozabad - UPPCB",27-03-2024 22:00:00,27.1594,78.3953,PM10,22,73,45
India,Uttar_Pradesh,Firozabad,"Vibhab Nagar, Firozabad - UPPCB",27-03-2024 22:00:00,27.1594,78.3953,OZONE,24,169,76
India,Uttar_Pradesh,Ghaziabad,"Indirapuram, Ghaziabad - UPPCB",27-03-2024 22:00:00,28.646233,77.358075,PM2.5,24,220,85
India,Uttar_Pradesh,Ghaziabad,"Indirapuram, Ghaziabad - UPPCB",27-03-2024 22:00:00,28.646233,77.358075,NO2,31,72,55
India,Uttar_Pradesh,Ghaziabad,"Indirapuram, Ghaziabad - UPPCB",27-03-2024 22:00:00,28.646233,77.358075,CO,4,92,19
India,Uttar_Pradesh,Ghaziabad,"Indirapuram, Ghaziabad - UPPCB",27-03-2024 22:00:00,28.646233,77.358075,OZONE,1,46,29
India,Uttar_Pradesh,Ghaziabad,"Loni, Ghaziabad - UPPCB",27-03-2024 22:00:00,28.757294,77.278792,NH3,2,7,4
India,Uttar_Pradesh,Ghaziabad,"Loni, Ghaziabad - UPPCB",27-03-2024 22:00:00,28.757294,77.278792,CO,12,88,54
India,Uttar_Pradesh,Ghaziabad,"Vasundhara, Ghaziabad - UPPCB",27-03-2024 22:00:00,28.6603346,77.3572563,PM10,82,151,118
India,Uttar_Pradesh,Gorakhpur,"Madan Mohan Malaviya University of Technology, Gorakhpur - UPPCB",27-03-2024 22:00:00,26.730136,83.433859,SO2,34,40,36
India,Uttar_Pradesh,Greater Noida,"Knowledge Park - III, Greater Noida - UPPCB",27-03-2024 22:00:00,28.47272,77.482000,OZONE,5,131,73
India,Uttar_Pradesh,Greater Noida,"Knowledge Park - V, Greater Noida - UPPCB",27-03-2024 22:00:00,28.557054,77.453663,PM10,112,339,187
India,Uttar_Pradesh,Greater Noida,"Knowledge Park - V, Greater Noida - UPPCB",27-03-2024 22:00:00,28.557054,77.453663,SO2,9,36,22
India,Uttar_Pradesh,Hapur,"Anand Vihar, Hapur - UPPCB",27-03-2024 22:00:00,28.725645,77.749675,PM2.5,41,96,68
India,Uttar_Pradesh,Jhansi,"Shivaji Nagar, Jhansi - UPPCB",27-03-2024 22:00:00,25.4547,78.6039,PM10,10,46,26
India,Uttar_Pradesh,Jhansi,"Shivaji Nagar, Jhansi - UPPCB",27-03-2024 22:00:00,25.4547,78.6039,CO,10,81,38
India,Uttar_Pradesh,Jhansi,"Shivaji Nagar, Jhansi - UPPCB",27-03-2024 22:00:00,25.4547,78.6039,OZONE,1,22,13
India,Uttar_Pradesh,Kanpur,"FTI Kidwai Nagar, Kanpur - UPPCB",27-03-2024 22:00:00,26.428282,80.327067,PM2.5,45,154,92
India,Uttar_Pradesh,Kanpur,"FTI Kidwai Nagar, Kanpur - UPPCB",27-03-2024 22:00:00,26.428282,80.327067,PM10,69,375,125
India,Uttar_Pradesh,Kanpur,"FTI Kidwai Nagar, Kanpur - UPPCB",27-03-2024 22:00:00,26.428282,80.327067,NO2,20,21,21
India,Uttar_Pradesh,Kanpur,"FTI Kidwai Nagar, Kanpur - UPPCB",27-03-2024 22:00:00,26.428282,80.327067,NH3,3,4,3
India,Uttar_Pradesh,Kanpur,"NSI Kalyanpur, Kanpur - UPPCB",27-03-2024 22:00:00,26.509954,80.249612,PM2.5,41,201,87
India,Uttar_Pradesh,Kanpur,"NSI Kalyanpur, Kanpur - UPPCB",27-03-2024 22:00:00,26.509954,80.249612,PM10,72,129,96
India,Uttar_Pradesh,Kanpur,"NSI Kalyanpur, Kanpur - UPPCB",27-03-2024 22:00:00,26.509954,80.249612,NO2,10,18,14
India,Uttar_Pradesh,Kanpur,"NSI Kalyanpur, Kanpur - UPPCB",27-03-2024 22:00:00,26.509954,80.249612,CO,36,72,48
India,Uttar_Pradesh,Kanpur,"Nehru Nagar, Kanpur - UPPCB",27-03-2024 22:00:00,26.4703136,80.3229863,NO2,24,43,35
India,Uttar_Pradesh,Kanpur,"Nehru Nagar, Kanpur - UPPCB",27-03-2024 22:00:00,26.4703136,80.3229863,SO2,6,10,8
India,Uttar_Pradesh,Khurja,"Kalindi Kunj, Khurja - UPPCB",27-03-2024 22:00:00,28.2348927,77.8683002,PM10,36,138,84
India,Uttar_Pradesh,Khurja,"Kalindi Kunj, Khurja - UPPCB",27-03-2024 22:00:00,28.2348927,77.8683002,NH3,1,2,1
India,Uttar_Pradesh,Lucknow,"B R Ambedkar University, Lucknow - UPPCB",27-03-2024 22:00:00,26.766433,80.927299,NO2,11,12,11
India,Uttar_Pradesh,Lucknow,"Gomti Nagar, Lucknow - UPPCB",27-03-2024 22:00:00,26.868120,81.005119,PM2.5,72,301,161
India,Uttar_Pradesh,Lucknow,"Gomti Nagar, Lucknow - UPPCB",27-03-2024 22:00:00,26.868120,81.005119,SO2,4,17,10
India,Uttar_Pradesh,Lucknow,"Kendriya Vidyalaya, Lucknow - CPCB",27-03-2024 22:00:00,26.906111,80.948222,PM2.5,48,123,81
India,Uttar_Pradesh,Lucknow,"Kendriya Vidyalaya, Lucknow - CPCB",27-03-2024 22:00:00,26.906111,80.948222,SO2,3,8,5
India,Uttar_Pradesh,Lucknow,"Kendriya Vidyalaya, Lucknow - CPCB",27-03-2024 22:00:00,26.906111,80.948222,CO,4,102,43
India,Uttar_Pradesh,Lucknow,"Kukrail Picnic Spot-1, Lucknow - UPPCB",27-03-2024 22:00:00,26.90723,80.98579,NO2,8,9,8
India,Uttar_Pradesh,Lucknow,"Kukrail Picnic Spot-1, Lucknow - UPPCB",27-03-2024 22:00:00,26.90723,80.98579,SO2,34,45,37
India,Uttar_Pradesh,Lucknow,"Talkatora District Industries Center, Lucknow - CPCB",27-03-2024 22:00:00,26.83399722,80.8917361,NO2,44,91,66
India,Uttar_Pradesh,Lucknow,"Talkatora District Industries Center, Lucknow - CPCB",27-03-2024 22:00:00,26.83399722,80.8917361,NH3,10,33,20
India,Uttar_Pradesh,Lucknow,"Talkatora District Industries Center, Lucknow - CPCB",27-03-2024 22:00:00,26.83399722,80.8917361,OZONE,2,80,40
India,Uttar_Pradesh,Meerut,"Ganga Nagar, Meerut - UPPCB",27-03-2024 22:00:00,28.999264,77.7590354,PM10,86,140,110
India,Uttar_Pradesh,Meerut,"Ganga Nagar, Meerut - UPPCB",27-03-2024 22:00:00,28.999264,77.7590354,CO,30,64,38
India,Uttar_Pradesh,Meerut,"Jai Bhim Nagar, Meerut - UPPCB",27-03-2024 22:00:00,28.9535882,77.7622941,PM2.5,28,92,59
India,Uttar_Pradesh,Meerut,"Jai Bhim Nagar, Meerut - UPPCB",27-03-2024 22:00:00,28.9535882,77.7622941,NO2,13,52,28
India,Uttar_Pradesh,Meerut,"Jai Bhim Nagar, Meerut - UPPCB",27-03-2024 22:00:00,28.9535882,77.7622941,SO2,14,25,18
India,Uttar_Pradesh,Moradabad,"Buddhi Vihar, Moradabad - UPPCB",27-03-2024 22:00:00,28.83526,78.74460,NO2,17,23,23
India,Uttar_Pradesh,Moradabad,"Buddhi Vihar, Moradabad - UPPCB",27-03-2024 22:00:00,28.83526,78.74460,NH3,1,2,2
India,Uttar_Pradesh,Moradabad,"Buddhi Vihar, Moradabad - UPPCB",27-03-2024 22:00:00,28.83526,78.74460,OZONE,12,36,27
India,Uttar_Pradesh,Moradabad,"Eco Herbal Park, Moradabad - UPPCB",27-03-2024 22:00:00,28.840739,78.697531,PM2.5,38,98,74
India,Uttar_Pradesh,Moradabad,"Eco Herbal Park, Moradabad - UPPCB",27-03-2024 22:00:00,28.840739,78.697531,NH3,3,17,6
India,Uttar_Pradesh,Moradabad,"Eco Herbal Park, Moradabad - UPPCB",27-03-2024 22:00:00,28.840739,78.697531,CO,26,94,54
India,Uttar_Pradesh,Moradabad,"Employment Office, Moradabad - UPPCB",27-03-2024 22:00:00,28.88528,78.73880,CO,16,36,26
India,Uttar_Pradesh,Moradabad,"Jigar Colony, Moradabad - UPPCB",27-03-2024 22:00:00,28.856664,78.772638,PM2.5,44,84,63
India,Uttar_Pradesh,Moradabad,"Kashiram Nagar, Moradabad - UPPCB",27-03-2024 22:00:00,28.849399,78.742362,PM10,79,149,125
India,Uttar_Pradesh,Moradabad,"Kashiram Nagar, Moradabad - UPPCB",27-03-2024 22:00:00,28.849399,78.742362,SO2,27,42,33
India,Uttar_Pradesh,Moradabad,"Transport Nagar, Moradabad - UPPCB",27-03-2024 22:00:00,28.802625,78.753728,OZONE,14,38,28
India,Uttar_Pradesh,Noida,"Sector - 125, Noida - UPPCB",27-03-2024 22:00:00,28.5447608,77.3231257,PM2.5,23,138,79
India,Uttar_Pradesh,Noida,"Sector - 125, Noida - UPPCB",27-03-2024 22:00:00,28.5447608,77.3231257,PM10,64,334,140
India,Uttar_Pradesh,Noida,"Sector - 125, Noida - UPPCB",27-03-2024 22:00:00,28.5447608,77.3231257,NH3,4,20,9
India,Uttar_Pradesh,Noida,"Sector - 62, Noida - IMD",27-03-2024 22:00:00,28.6245479,77.3577104,PM2.5,46,291,134
India,Uttar_Pradesh,Noida,"Sector-1, Noida - UPPCB",27-03-2024 22:00:00,28.5898,77.3101,SO2,8,35,17
India,Uttar_Pradesh,Noida,"Sector-116, Noida - UPPCB",27-03-2024 22:00:00,28.569230,77.393848,PM2.5,34,275,129
India,Uttar_Pradesh,Prayagraj,"Motilal Nehru NIT, Prayagraj - UPPCB",27-03-2024 22:00:00,25.494,81.863,OZONE,5,48,28
India,Uttar_Pradesh,Prayagraj,"Nagar Nigam, Prayagraj - UPPCB",27-03-2024 22:00:00,25.44919916 ,81.82735986 ,PM10,23,161,99
India,Uttar_Pradesh,Prayagraj,"Nagar Nigam, Prayagraj - UPPCB",27-03-2024 22:00:00,25.44919916 ,81.82735986 ,NO2,5,5,5
India,Uttar_Pradesh,Varanasi,"Ardhali Bazar, Varanasi - UPPCB",27-03-2024 22:00:00,25.3505986,82.9083074,NO2,3,44,14
India,Uttar_Pradesh,Varanasi,"Ardhali Bazar, Varanasi - UPPCB",27-03-2024 22:00:00,25.3505986,82.9083074,SO2,2,28,9
India,Uttar_Pradesh,Varanasi,"Bhelupur, Varanasi - UPPCB",27-03-2024 22:00:00,25.301778,82.996789,NO2,8,8,8
India,Uttar_Pradesh,Varanasi,"Bhelupur, Varanasi - UPPCB",27-03-2024 22:00:00,25.301778,82.996789,SO2,25,27,26
India,Uttar_Pradesh,Varanasi,"IESD Banaras Hindu University, Varanasi - UPPCB",27-03-2024 22:00:00,25.262326,82.995408,SO2,14,15,14
India,Uttar_Pradesh,Varanasi,"Maldahiya, Varanasi - UPPCB",27-03-2024 22:00:00,25.32393,82.99687,CO,12,123,52
India,Uttar_Pradesh,Vrindavan,"Omex Eternity, Vrindavan - UPPCB",27-03-2024 22:00:00,27.5714090,77.6557570,NO2,2,3,3
India,Uttarakhand,Rishikesh,"Shivaji Nagar, Rishikesh - UKPCB",27-03-2024 22:00:00,30.075911,78.2859547,PM2.5,12,44,27
India,Uttarakhand,Rishikesh,"Shivaji Nagar, Rishikesh - UKPCB",27-03-2024 22:00:00,30.075911,78.2859547,PM10,51,91,74
India,Uttarakhand,Rishikesh,"Shivaji Nagar, Rishikesh - UKPCB",27-03-2024 22:00:00,30.075911,78.2859547,NH3,2,4,3
India,West_Bengal,Asansol,"Asansol Court Area, Asansol - WBPCB",27-03-2024 22:00:00,23.685297,86.945968,OZONE,13,37,30
India,West_Bengal,Barrackpore,"SVSPA Campus, Barrackpore - WBPCB",27-03-2024 22:00:00,22.7605581,88.3617589,OZONE,5,69,59
India,West_Bengal,Durgapur,"Sidhu Kanhu Indoor Stadium, Durgapur - WBPCB",27-03-2024 22:00:00,23.5404352,87.2892225,PM10,80,157,111
India,West_Bengal,Durgapur,"Sidhu Kanhu Indoor Stadium, Durgapur - WBPCB",27-03-2024 22:00:00,23.5404352,87.2892225,NH3,3,4,4
India,West_Bengal,Haldia,"Priyambada Housing Estate, Haldia - WBPCB",27-03-2024 22:00:00,22.06047,88.109737,CO,16,32,19
India,West_Bengal,Howrah,"Belur Math, Howrah - WBPCB",27-03-2024 22:00:00,22.629801,88.352017,PM2.5,34,75,53
India,West_Bengal,Howrah,"Belur Math, Howrah - WBPCB",27-03-2024 22:00:00,22.629801,88.352017,NO2,8,21,13
India,West_Bengal,Howrah,"Belur Math, Howrah - WBPCB",27-03-2024 22:00:00,22.629801,88.352017,SO2,3,9,8
India,West_Bengal,Howrah,"Belur Math, Howrah - WBPCB",27-03-2024 22:00:00,22.629801,88.352017,OZONE,7,58,38
India,West_Bengal,Howrah,"Ghusuri, Howrah - WBPCB",27-03-2024 22:00:00,22.611968,88.347422,NO2,1,11,6
India,West_Bengal,Howrah,"Ghusuri, Howrah - WBPCB",27-03-2024 22:00:00,22.611968,88.347422,OZONE,14,28,21
India,West_Bengal,Howrah,"Padmapukur, Howrah - WBPCB",27-03-2024 22:00:00,22.5687319,88.2797276,NO2,6,8,7
India,West_Bengal,Howrah,"Padmapukur, Howrah - WBPCB",27-03-2024 22:00:00,22.5687319,88.2797276,NH3,1,2,1
India,West_Bengal,Kolkata,"Bidhannagar, Kolkata - WBPCB",27-03-2024 22:00:00,22.58157048,88.41002457,PM2.5,31,67,46
India,West_Bengal,Kolkata,"Bidhannagar, Kolkata - WBPCB",27-03-2024 22:00:00,22.58157048,88.41002457,OZONE,14,138,83
India,West_Bengal,Kolkata,"Fort William, Kolkata - WBPCB",27-03-2024 22:00:00,22.556640,88.342674,PM10,51,103,74
India,West_Bengal,Kolkata,"Fort William, Kolkata - WBPCB",27-03-2024 22:00:00,22.556640,88.342674,CO,14,31,26
India,West_Bengal,Kolkata,"Jadavpur, Kolkata - WBPCB",27-03-2024 22:00:00,22.49929,88.36917,NH3,2,3,3
India,West_Bengal,Kolkata,"Jadavpur, Kolkata - WBPCB",27-03-2024 22:00:00,22.49929,88.36917,CO,13,32,24
India,West_Bengal,Kolkata,"Jadavpur, Kolkata - WBPCB",27-03-2024 22:00:00,22.49929,88.36917,OZONE,16,96,61
India,West_Bengal,Kolkata,"Rabindra Bharati University, Kolkata - WBPCB",27-03-2024 22:00:00,22.627847,88.380669,OZONE,10,64,48
India,West_Bengal,Kolkata,"Rabindra Sarobar, Kolkata - WBPCB",27-03-2024 22:00:00,22.51106,88.35142,NH3,3,6,5
India,West_Bengal,Kolkata,"Victoria, Kolkata - WBPCB",27-03-2024 22:00:00,22.5448082,88.3403691,PM2.5,28,126,53
India,Andhra_Pradesh,Amaravati,"Secretariat, Amaravati - APPCB",27-03-2024 22:00:00,16.5150833,80.5181667,NH3,4,5,5
India,Andhra_Pradesh,Amaravati,"Secretariat, Amaravati - APPCB",27-03-2024 22:00:00,16.5150833,80.5181667,CO,5,114,40
India,Andhra_Pradesh,Amaravati,"Secretariat, Amaravati - APPCB",27-03-2024 22:00:00,16.5150833,80.5181667,OZONE,6,35,23
India,Andhra_Pradesh,Anantapur,"Gulzarpet, Anantapur - APPCB",27-03-2024 22:00:00,14.675886,77.593027,PM10,60,96,74
India,Andhra_Pradesh,Anantapur,"Gulzarpet, Anantapur - APPCB",27-03-2024 22:00:00,14.675886,77.593027,CO,24,46,34
India,Andhra_Pradesh,Chittoor,"Gangineni Cheruvu, Chittoor - APPCB",27-03-2024 22:00:00,13.204880,79.097889,OZONE,7,78,59
India,Andhra_Pradesh,Rajamahendravaram,"Anand Kala Kshetram, Rajamahendravaram - APPCB",27-03-2024 22:00:00,16.9872867,81.7363176,PM10,28,87,49
India,Andhra_Pradesh,Rajamahendravaram,"Anand Kala Kshetram, Rajamahendravaram - APPCB",27-03-2024 22:00:00,16.9872867,81.7363176,OZONE,10,26,20
India,Andhra_Pradesh,Tirupati,"Tirumala, Tirupati - APPCB",27-03-2024 22:00:00,13.67,79.35,OZONE,17,53,41
India,Andhra_Pradesh,Tirupati,"Vaikuntapuram, Tirupati - APPCB",27-03-2024 22:00:00,13.615387,79.409230,PM2.5,13,83,44
India,Andhra_Pradesh,Tirupati,"Vaikuntapuram, Tirupati - APPCB",27-03-2024 22:00:00,13.615387,79.409230,NO2,15,22,18
India,Andhra_Pradesh,Tirupati,"Vaikuntapuram, Tirupati - APPCB",27-03-2024 22:00:00,13.615387,79.409230,NH3,2,4,3
India,Andhra_Pradesh,Tirupati,"Vaikuntapuram, Tirupati - APPCB",27-03-2024 22:00:00,13.615387,79.409230,OZONE,1,42,29
India,Andhra_Pradesh,Vijayawada,"HB Colony, Vijayawada - APPCB",27-03-2024 22:00:00,16.536107,80.594233,PM2.5,47,66,54
India,Andhra_Pradesh,Vijayawada,"HB Colony, Vijayawada - APPCB",27-03-2024 22:00:00,16.536107,80.594233,PM10,47,72,56
India,Andhra_Pradesh,Vijayawada,"Kanuru, Vijayawada - APPCB",27-03-2024 22:00:00,16.486692,80.699436,PM2.5,49,67,59
India,Andhra_Pradesh,Vijayawada,"Rajiv Gandhi Park, Vijayawada - APPCB",27-03-2024 22:00:00,16.509717,80.612222,PM2.5,41,61,50
India,Andhra_Pradesh,Vijayawada,"Rajiv Nagar, Vijayawada - APPCB",27-03-2024 22:00:00,16.554731,80.649110,NH3,NA,NA,NA
India,Andhra_Pradesh,Visakhapatnam,"GVM Corporation, Visakhapatnam - APPCB",27-03-2024 22:00:00,17.72,83.3,PM2.5,22,143,60
India,Andhra_Pradesh,Visakhapatnam,"GVM Corporation, Visakhapatnam - APPCB",27-03-2024 22:00:00,17.72,83.3,NO2,34,50,42
India,Andhra_Pradesh,Visakhapatnam,"GVM Corporation, Visakhapatnam - APPCB",27-03-2024 22:00:00,17.72,83.3,NH3,3,5,3
India,Andhra_Pradesh,Visakhapatnam,"GVM Corporation, Visakhapatnam - APPCB",27-03-2024 22:00:00,17.72,83.3,SO2,9,15,12
India,Arunachal_Pradesh,Naharlagun,"Naharlagun, Naharlagun - APSPCB",27-03-2024 22:00:00,27.103358,93.679645,SO2,4,4,4
India,Arunachal_Pradesh,Naharlagun,"Naharlagun, Naharlagun - APSPCB",27-03-2024 22:00:00,27.103358,93.679645,OZONE,2,2,2
India,Assam,Byrnihat,"Central Academy for SFS, Byrnihat - PCBA",27-03-2024 22:00:00,26.071318,91.87488,NO2,45,116,70
India,Assam,Guwahati,"IITG, Guwahati - PCBA",27-03-2024 22:00:00,26.2028636,91.70046436,NO2,1,2,1
India,Assam,Guwahati,"LGBI Airport, Guwahati - PCBA",27-03-2024 22:00:00,26.10887,91.589544,PM2.5,38,358,107
India,Assam,Guwahati,"LGBI Airport, Guwahati - PCBA",27-03-2024 22:00:00,26.10887,91.589544,CO,23,94,61
India,Assam,Nagaon,"Christianpatty, Nagaon - PCBA",27-03-2024 22:00:00,26.349082,92.68449,NO2,10,47,20
India,Assam,Nagaon,"Christianpatty, Nagaon - PCBA",27-03-2024 22:00:00,26.349082,92.68449,CO,26,70,53
India,Assam,Nalbari,"Bata Chowk, Nalbari - PCBA",27-03-2024 22:00:00,26.446912,91.439057,NO2,4,25,10
India,Assam,Silchar,"Tarapur, Silchar - PCBA",27-03-2024 22:00:00,24.82827,92.79525,PM2.5,12,29,24
India,Assam,Silchar,"Tarapur, Silchar - PCBA",27-03-2024 22:00:00,24.82827,92.79525,CO,23,46,42
India,Bihar,Araria,"Kharahiya Basti, Araria - BSPCB",27-03-2024 22:00:00,26.146529,87.454184,NO2,4,10,7
India,Bihar,Araria,"Kharahiya Basti, Araria - BSPCB",27-03-2024 22:00:00,26.146529,87.454184,OZONE,1,10,8
India,Bihar,Arrah,"New DM Office, Arrah - BSPCB",27-03-2024 22:00:00,25.5626095,84.663264,NO2,2,31,13
India,Bihar,Arrah,"New DM Office, Arrah - BSPCB",27-03-2024 22:00:00,25.5626095,84.663264,OZONE,14,46,15
India,Bihar,Aurangabad,"Gurdeo Nagar, Aurangabad - BSPCB",27-03-2024 22:00:00,24.75746,84.366208,NO2,3,5,5
India,Bihar,Aurangabad,"Gurdeo Nagar, Aurangabad - BSPCB",27-03-2024 22:00:00,24.75746,84.366208,NH3,5,27,7
India,Bihar,Bettiah,"Kamalnath Nagar, Bettiah - BSPCB",27-03-2024 22:00:00,26.80365,84.51954,PM10,45,165,82
India,Bihar,Bettiah,"Kamalnath Nagar, Bettiah - BSPCB",27-03-2024 22:00:00,26.80365,84.51954,NO2,8,8,8
India,Bihar,Bettiah,"Kamalnath Nagar, Bettiah - BSPCB",27-03-2024 22:00:00,26.80365,84.51954,CO,62,74,64
India,Bihar,Bhagalpur,"Mayaganj, Bhagalpur - BSPCB",27-03-2024 22:00:00,25.265194,87.012947,SO2,11,12,12
India,Bihar,Bihar Sharif,"D M Colony, Bihar Sharif - BSPCB",27-03-2024 22:00:00,25.204762,85.514960,OZONE,NA,NA,NA
India,Bihar,Gaya,"Collectorate, Gaya - BSPCB",27-03-2024 22:00:00,24.7955,84.9994,NO2,1,4,3
India,Bihar,Gaya,"Kareemganj, Gaya - BSPCB",27-03-2024 22:00:00,24.792403,84.992416,NO2,30,31,30
India,Bihar,Hajipur,"Industrial Area, Hajipur - BSPCB",27-03-2024 22:00:00,25.697189,85.245900,PM2.5,24,72,41
India,Bihar,Hajipur,"Industrial Area, Hajipur - BSPCB",27-03-2024 22:00:00,25.697189,85.245900,CO,28,44,33
India,Bihar,Katihar,"Mirchaibari, Katihar - BSPCB",27-03-2024 22:00:00,25.560083,87.553265,PM2.5,18,50,25
India,Bihar,Kishanganj,"SDM Office_Khagra, Kishanganj - BSPCB",27-03-2024 22:00:00,26.0881305,87.93840336,PM2.5,NA,NA,NA
India,Bihar,Kishanganj,"SDM Office_Khagra, Kishanganj - BSPCB",27-03-2024 22:00:00,26.0881305,87.93840336,PM10,NA,NA,NA
India,Bihar,Manguraha,"Forest Rest House, Manguraha - BSPCB",27-03-2024 22:00:00,27.308328,84.531742,OZONE,1,95,24
India,Bihar,Motihari,"Gandak Colony, Motihari - BSPCB",27-03-2024 22:00:00,26.63086,84.90051,PM10,13,79,27
India,Bihar,Motihari,"Gandak Colony, Motihari - BSPCB",27-03-2024 22:00:00,26.63086,84.90051,OZONE,20,40,28
India,Bihar,Munger,"Town Hall, Munger - BSPCB",27-03-2024 22:00:00,25.376776,86.471523,PM10,36,111,80
India,Bihar,Munger,"Town Hall, Munger - BSPCB",27-03-2024 22:00:00,25.376776,86.471523,NH3,1,2,2
India,Bihar,Munger,"Town Hall, Munger - BSPCB",27-03-2024 22:00:00,25.376776,86.471523,OZONE,27,31,29
India,Bihar,Muzaffarpur,"Muzaffarpur Collectorate, Muzaffarpur - BSPCB",27-03-2024 22:00:00,26.1209,85.3647,PM2.5,31,147,58
India,Bihar,Patna,"DRM Office Danapur, Patna - BSPCB",27-03-2024 22:00:00,25.586562,85.043586,NH3,2,3,3
India,Bihar,Patna,"DRM Office Danapur, Patna - BSPCB",27-03-2024 22:00:00,25.586562,85.043586,SO2,6,8,7
India,Bihar,Patna,"IGSC Planetarium Complex, Patna - BSPCB",27-03-2024 22:00:00,25.610369,85.132568,CO,12,13,12
India,Bihar,Patna,"Muradpur, Patna - BSPCB",27-03-2024 22:00:00,25.619651,85.147382,PM2.5,82,289,146
India,Bihar,Patna,"Rajbansi Nagar, Patna - BSPCB",27-03-2024 22:00:00,25.599486,85.113666,NH3,4,10,5
India,Bihar,Patna,"Samanpura, Patna - BSPCB",27-03-2024 22:00:00,25.596727,85.085624,NH3,7,10,9
India,Bihar,Purnia,"Mariam Nagar, Purnia - BSPCB",27-03-2024 22:00:00,25.366336,87.117468,PM2.5,15,70,29
India,Bihar,Purnia,"Mariam Nagar, Purnia - BSPCB",27-03-2024 22:00:00,25.366336,87.117468,NH3,2,2,2
India,Bihar,Rajgir,"Dangi Tola, Rajgir - BSPCB",27-03-2024 22:00:00,25.03280,85.41948,PM10,32,258,100
India,Bihar,Rajgir,"Dangi Tola, Rajgir - BSPCB",27-03-2024 22:00:00,25.03280,85.41948,NO2,1,1,1
India,Bihar,Rajgir,"Dangi Tola, Rajgir - BSPCB",27-03-2024 22:00:00,25.03280,85.41948,CO,9,11,10
India,Bihar,Saharsa,"Police Line, Saharsa - BSPCB",27-03-2024 22:00:00,25.892357,86.590325,PM2.5,23,100,43
India,Bihar,Saharsa,"Police Line, Saharsa - BSPCB",27-03-2024 22:00:00,25.892357,86.590325,PM10,29,122,54
India,Bihar,Saharsa,"Police Line, Saharsa - BSPCB",27-03-2024 22:00:00,25.892357,86.590325,SO2,16,16,16
India,Bihar,Saharsa,"Police Line, Saharsa - BSPCB",27-03-2024 22:00:00,25.892357,86.590325,OZONE,8,86,37
India,Bihar,Samastipur,"DM Office_Kasipur, Samastipur - BSPCB",27-03-2024 22:00:00,25.859655,85.77944,OZONE,8,12,9
India,Bihar,Sasaram,"Dada Peer, Sasaram - BSPCB",27-03-2024 22:00:00,24.952822,84.002396,PM2.5,18,72,37
India,Bihar,Sasaram,"Dada Peer, Sasaram - BSPCB",27-03-2024 22:00:00,24.952822,84.002396,CO,86,132,103
India,Bihar,Siwan,"Chitragupta Nagar, Siwan - BSPCB",27-03-2024 22:00:00,26.2271665,84.3570427,NO2,7,36,14
India,Bihar,Siwan,"Chitragupta Nagar, Siwan - BSPCB",27-03-2024 22:00:00,26.2271665,84.3570427,SO2,15,35,31
India,Chandigarh,Chandigarh,"Sector 22, Chandigarh - CPCC",27-03-2024 22:00:00,30.735567,76.775714,CO,28,60,34
India,Chandigarh,Chandigarh,"Sector-25, Chandigarh - CPCC",27-03-2024 22:00:00,30.751462,76.762879,NH3,13,18,15
India,Chandigarh,Chandigarh,"Sector-53, Chandigarh - CPCC",27-03-2024 22:00:00,30.719859,76.738637,PM2.5,42,223,125
India,Chandigarh,Chandigarh,"Sector-53, Chandigarh - CPCC",27-03-2024 22:00:00,30.719859,76.738637,NO2,9,35,22
India,Chandigarh,Chandigarh,"Sector-53, Chandigarh - CPCC",27-03-2024 22:00:00,30.719859,76.738637,NH3,6,8,7
India,Chhattisgarh,Bhilai,"32Bungalows, Bhilai - CECB",27-03-2024 22:00:00,21.194815,81.314770,PM10,41,104,70
India,Chhattisgarh,Bhilai,"Civic Center, Bhilai - Bhilai Steel Plant",27-03-2024 22:00:00,21.185571,81.343175,NH3,5,5,5
India,Chhattisgarh,Bhilai,"Civic Center, Bhilai - Bhilai Steel Plant",27-03-2024 22:00:00,21.185571,81.343175,CO,14,57,35
India,Chhattisgarh,Bhilai,"Civic Center, Bhilai - Bhilai Steel Plant",27-03-2024 22:00:00,21.185571,81.343175,OZONE,10,72,51
India,Chhattisgarh,Bhilai,"Hathkhoj, Bhilai - CECB",27-03-2024 22:00:00,21.224231,81.408350,NH3,7,8,8
India,Chhattisgarh,Chhal,"Nawapara SECL Colony, Chhal - CECB",27-03-2024 22:00:00,22.118125,83.140608,PM2.5,69,174,93
India,Chhattisgarh,Chhal,"Nawapara SECL Colony, Chhal - CECB",27-03-2024 22:00:00,22.118125,83.140608,NO2,22,72,34
India,Chhattisgarh,Korba,"Rampur, Korba - CECB",27-03-2024 22:00:00,22.368195,82.746431,NH3,2,3,2
India,Chhattisgarh,Korba,"Urja Nagar, Korba - CECB",27-03-2024 22:00:00,22.348441,82.549611,PM2.5,2,10,5
India,Chhattisgarh,Korba,"Urja Nagar, Korba - CECB",27-03-2024 22:00:00,22.348441,82.549611,PM10,11,383,86
India,Chhattisgarh,Korba,"Urja Nagar, Korba - CECB",27-03-2024 22:00:00,22.348441,82.549611,NH3,1,9,5
India,Chhattisgarh,Korba,"Urja Nagar, Korba - CECB",27-03-2024 22:00:00,22.348441,82.549611,SO2,1,75,13
India,Chhattisgarh,Korba,"Urja Nagar, Korba - CECB",27-03-2024 22:00:00,22.348441,82.549611,OZONE,1,83,26
India,Chhattisgarh,Kunjemura,"OP Jindal School, Kunjemura - CECB",27-03-2024 22:00:00,22.126650,83.483212,PM10,70,243,136
India,Chhattisgarh,Milupara,"Govt. Higher Secondary School, Milupara - CECB",27-03-2024 22:00:00,22.1910172,83.5197009,NO2,17,48,30
India,Chhattisgarh,Milupara,"Govt. Higher Secondary School, Milupara - CECB",27-03-2024 22:00:00,22.1910172,83.5197009,CO,20,47,29
India,Chhattisgarh,Raipur,"AIIMS, Raipur - CECB",27-03-2024 22:00:00,21.258815,81.578979,PM10,46,132,79
India,Chhattisgarh,Raipur,"AIIMS, Raipur - CECB",27-03-2024 22:00:00,21.258815,81.578979,OZONE,1,50,26
India,Chhattisgarh,Raipur,"Bhatagaon New ISBT, Raipur - CECB",27-03-2024 22:00:00,21.219665,81.630094,NH3,2,3,2
India,Chhattisgarh,Raipur,"Siltara Phase-II, Raipur - CECB",27-03-2024 22:00:00,21.371751,81.664929,PM2.5,57,98,76
India,Chhattisgarh,Raipur,"Siltara Phase-II, Raipur - CECB",27-03-2024 22:00:00,21.371751,81.664929,PM10,54,173,95
India,Chhattisgarh,Tumidih,"OP Jindal Industrial Park, Tumidih - CECB",27-03-2024 22:00:00,22.06631475,83.33820077,OZONE,9,106,80
India,Delhi,Delhi,"Anand Vihar, Delhi - DPCC",27-03-2024 22:00:00,28.647622,77.3158090,NO2,NA,NA,NA
India,Delhi,Delhi,"Anand Vihar, Delhi - DPCC",27-03-2024 22:00:00,28.647622,77.3158090,CO,6,68,25
India,Delhi,Delhi,"Ashok Vihar, Delhi - DPCC",27-03-2024 22:00:00,28.695381,77.181665,PM2.5,32,307,112
India,Delhi,Delhi,"Aya Nagar, Delhi - IMD",27-03-2024 22:00:00,28.4706914,77.1099364,PM10,96,187,146
India,Delhi,Delhi,"Bawana, Delhi - DPCC",27-03-2024 22:00:00,28.776200,77.051074,NO2,14,65,33
India,Delhi,Delhi,"Burari Crossing, Delhi - IMD",27-03-2024 22:00:00,28.7256504,77.2011573,NO2,2,8,6
India,Delhi,Delhi,"Chandni Chowk, Delhi - IITM",27-03-2024 22:00:00,28.656756,77.227234,PM2.5,NA,NA,NA
India,Delhi,Delhi,"DTU, Delhi - CPCB",27-03-2024 22:00:00,28.7500499,77.1112615,PM2.5,49,316,169
India,Delhi,Delhi,"Dr. Karni Singh Shooting Range, Delhi - DPCC",27-03-2024 22:00:00,28.498571,77.264840,SO2,18,34,22
India,Delhi,Delhi,"IGI Airport (T3), Delhi - IMD",27-03-2024 22:00:00,28.5627763,77.1180053,PM2.5,30,278,117
India,Delhi,Delhi,"IGI Airport (T3), Delhi - IMD",27-03-2024 22:00:00,28.5627763,77.1180053,PM10,62,291,144
India,Delhi,Delhi,"ITO, Delhi - CPCB",27-03-2024 22:00:00,28.628624,77.241060,PM2.5,17,302,172
India,Delhi,Delhi,"ITO, Delhi - CPCB",27-03-2024 22:00:00,28.628624,77.241060,PM10,22,169,122
India,Delhi,Delhi,"ITO, Delhi - CPCB",27-03-2024 22:00:00,28.628624,77.241060,OZONE,17,94,49
India,Delhi,Delhi,"Jahangirpuri, Delhi - DPCC",27-03-2024 22:00:00,28.732820,77.170633,PM2.5,35,332,151
India,Delhi,Delhi,"Jahangirpuri, Delhi - DPCC",27-03-2024 22:00:00,28.732820,77.170633,NO2,30,111,79
India,Delhi,Delhi,"Lodhi Road, Delhi - IITM",27-03-2024 22:00:00,28.588333,77.221667,PM2.5,64,500,242
India,Delhi,Delhi,"Lodhi Road, Delhi - IITM",27-03-2024 22:00:00,28.588333,77.221667,NO2,65,123,90
India,Delhi,Delhi,"Lodhi Road, Delhi - IITM",27-03-2024 22:00:00,28.588333,77.221667,NH3,8,13,10
India,Delhi,Delhi,"Major Dhyan Chand National Stadium, Delhi - DPCC",27-03-2024 22:00:00,28.611281,77.237738,PM2.5,47,234,121
India,Delhi,Delhi,"Mandir Marg, Delhi - DPCC",27-03-2024 22:00:00,28.636429,77.201067,PM2.5,41,232,94
India,Delhi,Delhi,"Mandir Marg, Delhi - DPCC",27-03-2024 22:00:00,28.636429,77.201067,PM10,65,143,100
India,Delhi,Delhi,"Mundka, Delhi - DPCC",27-03-2024 22:00:00,28.684678,77.076574,PM2.5,45,411,222
India,Delhi,Delhi,"NSIT Dwarka, Delhi - CPCB",27-03-2024 22:00:00,28.60909,77.0325413,SO2,4,45,23
India,Delhi,Delhi,"Najafgarh, Delhi - DPCC",27-03-2024 22:00:00,28.570173,76.933762,NO2,3,22,12
India,Delhi,Delhi,"Narela, Delhi - DPCC",27-03-2024 22:00:00,28.822836,77.101981,PM2.5,28,426,168
India,Delhi,Delhi,"Narela, Delhi - DPCC",27-03-2024 22:00:00,28.822836,77.101981,OZONE,7,70,49
India,Delhi,Delhi,"Nehru Nagar, Delhi - DPCC",27-03-2024 22:00:00,28.567890,77.250515,PM2.5,35,196,102
India,Delhi,Delhi,"Nehru Nagar, Delhi - DPCC",27-03-2024 22:00:00,28.567890,77.250515,CO,38,94,69
India,Delhi,Delhi,"New Moti Bagh, Delhi - MHUA",27-03-2024 22:00:00,28.57834,77.18400,CO,15,107,21
India,Delhi,Delhi,"North Campus, DU, Delhi - IMD",27-03-2024 22:00:00,28.6573814,77.1585447,CO,2,98,54
India,Delhi,Delhi,"Okhla Phase-2, Delhi - DPCC",27-03-2024 22:00:00,28.530785,77.271255,PM10,108,411,184
India,Delhi,Delhi,"Patparganj, Delhi - DPCC",27-03-2024 22:00:00,28.623763,77.287209,OZONE,6,89,47
India,Delhi,Delhi,"Punjabi Bagh, Delhi - DPCC",27-03-2024 22:00:00,28.674045,77.131023,SO2,20,28,23
India,Delhi,Delhi,"Punjabi Bagh, Delhi - DPCC",27-03-2024 22:00:00,28.674045,77.131023,OZONE,9,46,27
India,Delhi,Delhi,"Pusa, Delhi - DPCC",27-03-2024 22:00:00,28.639652,77.146275,PM10,111,402,177
India,Delhi,Delhi,"Pusa, Delhi - DPCC",27-03-2024 22:00:00,28.639652,77.146275,SO2,9,37,22
India,Delhi,Delhi,"Pusa, Delhi - DPCC",27-03-2024 22:00:00,28.639652,77.146275,CO,2,78,43
India,Delhi,Delhi,"Pusa, Delhi - DPCC",27-03-2024 22:00:00,28.639652,77.146275,OZONE,10,86,43
India,Delhi,Delhi,"Pusa, Delhi - IMD",27-03-2024 22:00:00,28.636110,77.173332,PM2.5,49,332,204
India,Delhi,Delhi,"Pusa, Delhi - IMD",27-03-2024 22:00:00,28.636110,77.173332,OZONE,1,38,28
India,Delhi,Delhi,"Rohini, Delhi - DPCC",27-03-2024 22:00:00,28.732528,77.119920,NO2,12,87,48
India,Delhi,Delhi,"Shadipur, Delhi - CPCB",27-03-2024 22:00:00,28.6514781,77.1473105,SO2,2,29,17
India,Delhi,Delhi,"Sirifort, Delhi - CPCB",27-03-2024 22:00:00,28.5504249,77.2159377,PM10,8,355,145
India,Delhi,Delhi,"Sirifort, Delhi - CPCB",27-03-2024 22:00:00,28.5504249,77.2159377,OZONE,3,27,14
India,Delhi,Delhi,"Sri Aurobindo Marg, Delhi - DPCC",27-03-2024 22:00:00,28.531346,77.190156,NH3,7,11,8
India,Delhi,Delhi,"Vivek Vihar, Delhi - DPCC",27-03-2024 22:00:00,28.672342,77.315260,SO2,31,85,43
India,Delhi,Delhi,"Vivek Vihar, Delhi - DPCC",27-03-2024 22:00:00,28.672342,77.315260,OZONE,1,77,44
India,Delhi,Delhi,"Wazirpur, Delhi - DPCC",27-03-2024 22:00:00,28.699793,77.165453,PM2.5,29,325,126
India,Delhi,Delhi,"Wazirpur, Delhi - DPCC",27-03-2024 22:00:00,28.699793,77.165453,PM10,101,218,156
India,Delhi,Delhi,"Wazirpur, Delhi - DPCC",27-03-2024 22:00:00,28.699793,77.165453,NO2,56,162,112
India,Gujarat,Ahmedabad,"Chandkheda, Ahmedabad - IITM",27-03-2024 22:00:00,23.107969,72.574648,NH3,1,19,3
India,Gujarat,Ahmedabad,"Chandkheda, Ahmedabad - IITM",27-03-2024 22:00:00,23.107969,72.574648,CO,2,84,28
India,Gujarat,Ahmedabad,"Gyaspur, Ahmedabad - IITM",27-03-2024 22:00:00,22.977134,72.553024,PM2.5,87,414,200
India,Gujarat,Ahmedabad,"Raikhad, Ahmedabad - IITM",27-03-2024 22:00:00,23.020509,72.579261,PM2.5,43,328,150
India,Gujarat,Ahmedabad,"Rakhial, Ahmedabad - IITM",27-03-2024 22:00:00,23.016834,72.625775,NO2,18,77,38
India,Gujarat,Ahmedabad,"SVPI Airport Hansol, Ahmedabad - IITM",27-03-2024 22:00:00,23.076793,72.627874,SO2,NA,NA,NA
India,Gujarat,Ahmedabad,"SVPI Airport Hansol, Ahmedabad - IITM",27-03-2024 22:00:00,23.076793,72.627874,OZONE,10,52,33
India,Gujarat,Ahmedabad,"Sardar Vallabhbhai Patel Stadium, Ahmedabad - IITM",27-03-2024 22:00:00,23.043070,72.562968,PM10,85,188,114
India,Gujarat,Ahmedabad,"Sardar Vallabhbhai Patel Stadium, Ahmedabad - IITM",27-03-2024 22:00:00,23.043070,72.562968,NH3,6,6,6
India,Gujarat,Ahmedabad,"Sardar Vallabhbhai Patel Stadium, Ahmedabad - IITM",27-03-2024 22:00:00,23.043070,72.562968,CO,29,107,70
India,Gujarat,Ankleshwar,"GIDC, Ankleshwar - GPCB",27-03-2024 22:00:00,21.613267,73.010555,PM10,54,80,69
India,Gujarat,Ankleshwar,"GIDC, Ankleshwar - GPCB",27-03-2024 22:00:00,21.613267,73.010555,OZONE,26,43,36
India,Gujarat,Gandhinagar,"GIFT City, Gandhinagar - IITM",27-03-2024 22:00:00,23.163798,72.677768,CO,6,26,11
India,Gujarat,Gandhinagar,"IIPHG Lekawada, Gandhinagar - IITM",27-03-2024 22:00:00,23.243639,72.68994,OZONE,10,56,35
India,Gujarat,Gandhinagar,"Sector-10, Gandhinagar - GPCB",27-03-2024 22:00:00,23.221714,72.654328,PM2.5,20,70,43
India,Gujarat,Gandhinagar,"Sector-10, Gandhinagar - GPCB",27-03-2024 22:00:00,23.221714,72.654328,OZONE,2,127,10
India,Gujarat,Vapi,"Phase-1 GIDC, Vapi - GPCB",27-03-2024 22:00:00,20.362421,72.918013,PM2.5,27,126,64
India,Gujarat,Vapi,"Phase-1 GIDC, Vapi - GPCB",27-03-2024 22:00:00,20.362421,72.918013,OZONE,NA,NA,NA
India,Haryana,Ambala,"Patti Mehar, Ambala - HSPCB",27-03-2024 22:00:00,30.379589,76.778328,NH3,5,12,9
India,Haryana,Bahadurgarh,"Arya Nagar, Bahadurgarh - HSPCB",27-03-2024 22:00:00,28.6701,76.9254,OZONE,39,52,47
India,Haryana,Ballabgarh,"Nathu Colony, Ballabgarh - HSPCB",27-03-2024 22:00:00,28.3419248,77.319699,SO2,9,34,21
India,Haryana,Bhiwani,"H.B. Colony, Bhiwani - HSPCB",27-03-2024 22:00:00,28.806223,76.141105,NH3,5,6,6
India,Haryana,Charkhi Dadri,"Mini Secretariat, Charkhi Dadri - HSPCB",27-03-2024 22:00:00,28.593883,76.270653,PM10,49,209,104
India,Haryana,Charkhi Dadri,"Mini Secretariat, Charkhi Dadri - HSPCB",27-03-2024 22:00:00,28.593883,76.270653,OZONE,13,17,15
India,Haryana,Dharuhera,"Municipal Corporation Office, Dharuhera -  HSPCB",27-03-2024 22:00:00,28.206800,76.799700,PM2.5,38,241,108
India,Haryana,Dharuhera,"Municipal Corporation Office, Dharuhera -  HSPCB",27-03-2024 22:00:00,28.206800,76.799700,PM10,109,270,163
India,Haryana,Dharuhera,"Municipal Corporation Office, Dharuhera -  HSPCB",27-03-2024 22:00:00,28.206800,76.799700,NO2,45,111,71
India,Haryana,Dharuhera,"Municipal Corporation Office, Dharuhera -  HSPCB",27-03-2024 22:00:00,28.206800,76.799700,CO,84,109,94
India,Haryana,Faridabad,"New Industrial Town, Faridabad - HSPCB",27-03-2024 22:00:00,28.39072,77.30059,CO,5,46,10
India,Haryana,Faridabad,"Sector 11, Faridabad - HSPCB",27-03-2024 22:00:00,28.376058,77.315741,PM10,132,405,211
India,Haryana,Faridabad,"Sector 30, Faridabad - HSPCB",27-03-2024 22:00:00,28.4417,77.3217,NO2,29,33,31
India,Haryana,Faridabad,"Sector- 16A, Faridabad - HSPCB",27-03-2024 22:00:00,28.4088421,77.3099081,SO2,1,26,20
India,Haryana,Fatehabad,"Huda Sector, Fatehabad - HSPCB",27-03-2024 22:00:00,29.503664,75.467934,NO2,37,54,39
India,Haryana,Fatehabad,"Huda Sector, Fatehabad - HSPCB",27-03-2024 22:00:00,29.503664,75.467934,SO2,10,11,11
India,Haryana,Gurugram,"Sector-51, Gurugram - HSPCB",27-03-2024 22:00:00,28.4227,77.0667,SO2,3,4,4
India,Haryana,Gurugram,"Teri Gram, Gurugram - HSPCB",27-03-2024 22:00:00,28.4275,77.1465,NO2,27,48,37
India,Haryana,Gurugram,"Vikas Sadan, Gurugram - HSPCB",27-03-2024 22:00:00,28.4501238,77.0263051,CO,54,150,113
India,Haryana,Jind,"Police Lines, Jind - HSPCB",27-03-2024 22:00:00,29.307814,76.337619,NO2,6,16,11
India,Haryana,Jind,"Police Lines, Jind - HSPCB",27-03-2024 22:00:00,29.307814,76.337619,SO2,3,16,7
India,Haryana,Jind,"Police Lines, Jind - HSPCB",27-03-2024 22:00:00,29.307814,76.337619,CO,2,129,18
India,Haryana,Jind,"Police Lines, Jind - HSPCB",27-03-2024 22:00:00,29.307814,76.337619,OZONE,14,25,24
India,Haryana,Kaithal,"Rishi Nagar, Kaithal - HSPCB",27-03-2024 22:00:00,29.8006,76.4155,PM10,61,110,86
India,Haryana,Kaithal,"Rishi Nagar, Kaithal - HSPCB",27-03-2024 22:00:00,29.8006,76.4155,OZONE,13,28,18
India,Haryana,Karnal,"Sector-12, Karnal - HSPCB",27-03-2024 22:00:00,29.695300,77.002700,CO,22,40,31
India,Haryana,Mandikhera,"General Hospital, Mandikhera - HSPCB",27-03-2024 22:00:00,27.9002,76.9938,PM2.5,18,81,37
India,Haryana,Mandikhera,"General Hospital, Mandikhera - HSPCB",27-03-2024 22:00:00,27.9002,76.9938,CO,18,96,23
India,Haryana,Manesar,"Sector-2 IMT, Manesar - HSPCB",27-03-2024 22:00:00,28.360699,76.936090,PM10,42,127,84
India,Haryana,Manesar,"Sector-2 IMT, Manesar - HSPCB",27-03-2024 22:00:00,28.360699,76.936090,NH3,1,3,2
India,Haryana,Palwal,"Shyam Nagar, Palwal - HSPCB",27-03-2024 22:00:00,28.1485564,77.3320667,SO2,10,24,17
India,Haryana,Palwal,"Shyam Nagar, Palwal - HSPCB",27-03-2024 22:00:00,28.1485564,77.3320667,OZONE,5,47,25
India,Haryana,Panchkula,"Sector-6, Panchkula - HSPCB ",27-03-2024 22:00:00,30.7057778,76.8531805555555,SO2,NA,NA,NA
India,Haryana,Panipat,"Sector-18, Panipat - HSPCB",27-03-2024 22:00:00,29.497973,76.993331,PM10,63,66,65
India,Haryana,Panipat,"Sector-18, Panipat - HSPCB",27-03-2024 22:00:00,29.497973,76.993331,NO2,31,32,31
India,Haryana,Panipat,"Sector-18, Panipat - HSPCB",27-03-2024 22:00:00,29.497973,76.993331,CO,24,26,25
India,Haryana,Rohtak,"MD University, Rohtak - HSPCB",27-03-2024 22:00:00,28.52123,76.37138,SO2,5,8,6
India,Haryana,Rohtak,"MD University, Rohtak - HSPCB",27-03-2024 22:00:00,28.52123,76.37138,OZONE,45,55,49
India,Haryana,Sirsa,"F-Block, Sirsa - HSPCB",27-03-2024 22:00:00,29.536400,75.015800,SO2,1,75,27
India,Haryana,Sirsa,"F-Block, Sirsa - HSPCB",27-03-2024 22:00:00,29.536400,75.015800,OZONE,32,94,43
India,Haryana,Sonipat,"Murthal, Sonipat - HSPCB",27-03-2024 22:00:00,29.027200,77.062100,NO2,37,44,40
India,Haryana,Yamuna Nagar,"Gobind Pura, Yamuna Nagar - HSPCB",27-03-2024 22:00:00,30.1480566,77.2893471,PM2.5,NA,NA,NA
India,Haryana,Yamuna Nagar,"Gobind Pura, Yamuna Nagar - HSPCB",27-03-2024 22:00:00,30.1480566,77.2893471,OZONE,24,35,29
India,Himachal Pradesh,Baddi,"HIMUDA Complex Phase-1, Baddi - HPPCB",27-03-2024 22:00:00,30.943887,76.801991,NH3,4,7,6
India,Jharkhand,Dhanbad,"Kalakusuma, Dhanbad - DMC",27-03-2024 22:00:00,23.811548,86.481238,CO,128,133,132
India,Jharkhand,Dhanbad,"Kalakusuma, Dhanbad - DMC",27-03-2024 22:00:00,23.811548,86.481238,OZONE,22,88,46
India,Jharkhand,Dhanbad,"Sardar Patel Nagar, Dhanbad - JSPCB",27-03-2024 22:00:00,23.80569,86.44268,PM2.5,NA,NA,NA
India,Jharkhand,Dhanbad,"Sardar Patel Nagar, Dhanbad - JSPCB",27-03-2024 22:00:00,23.80569,86.44268,SO2,NA,NA,NA
India,Karnataka,Bagalkot,"Vidayagiri, Bagalkot - KSPCB",27-03-2024 22:00:00,16.172806,75.659694,PM10,45,46,46
India,Karnataka,Bagalkot,"Vidayagiri, Bagalkot - KSPCB",27-03-2024 22:00:00,16.172806,75.659694,OZONE,25,44,39
India,Karnataka,Bengaluru,"BTM Layout, Bengaluru - CPCB",27-03-2024 22:00:00,12.9135218,77.5950804,PM2.5,29,61,46
India,Karnataka,Bengaluru,"BTM Layout, Bengaluru - CPCB",27-03-2024 22:00:00,12.9135218,77.5950804,OZONE,21,120,64
India,Karnataka,Bengaluru,"Bapuji Nagar, Bengaluru - KSPCB",27-03-2024 22:00:00,12.951913,77.539784,PM2.5,60,122,93
India,Karnataka,Bengaluru,"Bapuji Nagar, Bengaluru - KSPCB",27-03-2024 22:00:00,12.951913,77.539784,CO,31,62,46
