country,state,city,station,last_update,latitude,longitude,pollutant_id,pollutant_min,pollutant_max,pollutant_avg
India,Andhra_Pradesh,Amaravati,"Secretariat, Amaravati - APPCB",07-03-2024 20:00:00,16.5150833,80.5181667,SO2,13,18,15
India,Andhra_Pradesh,Amaravati,"Secretariat, Amaravati - APPCB",07-03-2024 20:00:00,16.5150833,80.5181667,CO,15,54,35
India,Andhra_Pradesh,Chittoor,"Gangineni Cheruvu, Chittoor - APPCB",07-03-2024 20:00:00,13.204880,79.097889,SO2,NA,NA,NA
India,Andhra_Pradesh,Rajamahendravaram,"Anand Kala Kshetram, Rajamahendravaram - APPCB",07-03-2024 20:00:00,16.9872867,81.7363176,OZONE,13,26,24
India,Andhra_Pradesh,Tirupati,"Tirumala, Tirupati - APPCB",07-03-2024 20:00:00,13.67,79.35,PM2.5,29,176,60
India,Andhra_Pradesh,Tirupati,"Tirumala, Tirupati - APPCB",07-03-2024 20:00:00,13.67,79.35,PM10,40,132,69
India,Andhra_Pradesh,Tirupati,"Tirumala, Tirupati - APPCB",07-03-2024 20:00:00,13.67,79.35,OZONE,19,58,45
India,Andhra_Pradesh,Vijayawada,"HB Colony, Vijayawada - APPCB",07-03-2024 20:00:00,16.536107,80.594233,NO2,6,21,11
India,Andhra_Pradesh,Vijayawada,"HB Colony, Vijayawada - APPCB",07-03-2024 20:00:00,16.536107,80.594233,CO,32,42,38
India,Andhra_Pradesh,Vijayawada,"Kanuru, Vijayawada - APPCB",07-03-2024 20:00:00,16.486692,80.699436,NO2,NA,NA,NA
India,Andhra_Pradesh,Vijayawada,"Rajiv Nagar, Vijayawada - APPCB",07-03-2024 20:00:00,16.554731,80.649110,PM10,69,122,76
India,Andhra_Pradesh,Vijayawada,"Rajiv Nagar, Vijayawada - APPCB",07-03-2024 20:00:00,16.554731,80.649110,NH3,1,1,1
India,Andhra_Pradesh,Vijayawada,"Rajiv Nagar, Vijayawada - APPCB",07-03-2024 20:00:00,16.554731,80.649110,OZONE,7,32,23
India,Andhra_Pradesh,Visakhapatnam,"GVM Corporation, Visakhapatnam - APPCB",07-03-2024 20:00:00,17.72,83.3,SO2,10,16,13
India,Arunachal_Pradesh,Naharlagun,"Naharlagun, Naharlagun - APSPCB",07-03-2024 20:00:00,27.103358,93.679645,PM10,32,119,74
India,Arunachal_Pradesh,Naharlagun,"Naharlagun, Naharlagun - APSPCB",07-03-2024 20:00:00,27.103358,93.679645,SO2,4,4,4
India,Assam,Byrnihat,"Central Academy for SFS, Byrnihat - PCBA",07-03-2024 20:00:00,26.071318,91.87488,PM10,93,491,281
India,Assam,Byrnihat,"Central Academy for SFS, Byrnihat - PCBA",07-03-2024 20:00:00,26.071318,91.87488,NH3,4,8,7
India,Assam,Guwahati,"IITG, Guwahati - PCBA",07-03-2024 20:00:00,26.2028636,91.70046436,CO,9,20,13
India,Assam,Guwahati,"LGBI Airport, Guwahati - PCBA",07-03-2024 20:00:00,26.10887,91.589544,PM2.5,87,280,152
India,Assam,Guwahati,"LGBI Airport, Guwahati - PCBA",07-03-2024 20:00:00,26.10887,91.589544,PM10,111,239,155
India,Assam,Guwahati,"LGBI Airport, Guwahati - PCBA",07-03-2024 20:00:00,26.10887,91.589544,SO2,12,14,14
India,Assam,Guwahati,"Pan Bazaar, Guwahati - PCBA",07-03-2024 20:00:00,26.187500,91.744194,PM2.5,64,208,120
India,Assam,Guwahati,"Pan Bazaar, Guwahati - PCBA",07-03-2024 20:00:00,26.187500,91.744194,NH3,4,6,5
India,Assam,Guwahati,"Pan Bazaar, Guwahati - PCBA",07-03-2024 20:00:00,26.187500,91.744194,CO,25,80,38
India,Assam,Guwahati,"Pan Bazaar, Guwahati - PCBA",07-03-2024 20:00:00,26.187500,91.744194,OZONE,18,19,18
India,Assam,Guwahati,"Railway Colony, Guwahati - PCBA",07-03-2024 20:00:00,26.181742,91.78063,CO,21,104,39
India,Assam,Nagaon,"Christianpatty, Nagaon - PCBA",07-03-2024 20:00:00,26.349082,92.68449,PM10,84,381,160
India,Assam,Nalbari,"Bata Chowk, Nalbari - PCBA",07-03-2024 20:00:00,26.446912,91.439057,PM2.5,80,297,187
India,Assam,Nalbari,"Bata Chowk, Nalbari - PCBA",07-03-2024 20:00:00,26.446912,91.439057,CO,48,109,95
India,Assam,Silchar,"Tarapur, Silchar - PCBA",07-03-2024 20:00:00,24.82827,92.79525,SO2,1,16,6
India,Assam,Silchar,"Tarapur, Silchar - PCBA",07-03-2024 20:00:00,24.82827,92.79525,OZONE,1,21,9
India,Assam,Sivasagar,"Girls College, Sivasagar - PCBA",07-03-2024 20:00:00,26.987634,94.636574,NO2,7,28,19
India,Assam,Sivasagar,"Girls College, Sivasagar - PCBA",07-03-2024 20:00:00,26.987634,94.636574,OZONE,1,47,15
India,Bihar,Arrah,"New DM Office, Arrah - BSPCB",07-03-2024 20:00:00,25.5626095,84.663264,CO,2,21,9
India,Bihar,Aurangabad,"Gurdeo Nagar, Aurangabad - BSPCB",07-03-2024 20:00:00,24.75746,84.366208,PM2.5,20,147,61
India,Bihar,Aurangabad,"Gurdeo Nagar, Aurangabad - BSPCB",07-03-2024 20:00:00,24.75746,84.366208,NH3,5,10,7
India,Bihar,Aurangabad,"Gurdeo Nagar, Aurangabad - BSPCB",07-03-2024 20:00:00,24.75746,84.366208,CO,64,74,66
India,Bihar,Bettiah,"Kamalnath Nagar, Bettiah - BSPCB",07-03-2024 20:00:00,26.80365,84.51954,PM2.5,70,233,111
India,Bihar,Bettiah,"Kamalnath Nagar, Bettiah - BSPCB",07-03-2024 20:00:00,26.80365,84.51954,NO2,32,43,37
India,Bihar,Bettiah,"Kamalnath Nagar, Bettiah - BSPCB",07-03-2024 20:00:00,26.80365,84.51954,OZONE,4,17,14
India,Bihar,Bhagalpur,"DM Office_Kachari Chowk, Bhagalpur - BSPCB",07-03-2024 20:00:00,25.251013,86.989001,NH3,8,9,9
India,Bihar,Bhagalpur,"DM Office_Kachari Chowk, Bhagalpur - BSPCB",07-03-2024 20:00:00,25.251013,86.989001,CO,50,100,62
India,Bihar,Bhagalpur,"DM Office_Kachari Chowk, Bhagalpur - BSPCB",07-03-2024 20:00:00,25.251013,86.989001,OZONE,22,46,32
India,Bihar,Bhagalpur,"Mayaganj, Bhagalpur - BSPCB",07-03-2024 20:00:00,25.265194,87.012947,CO,8,11,9
India,Bihar,Bihar Sharif,"D M Colony, Bihar Sharif - BSPCB",07-03-2024 20:00:00,25.204762,85.514960,PM10,16,89,45
India,Bihar,Bihar Sharif,"D M Colony, Bihar Sharif - BSPCB",07-03-2024 20:00:00,25.204762,85.514960,NO2,8,10,9
India,Bihar,Chhapra,"Darshan Nagar, Chhapra - BSPCB",07-03-2024 20:00:00,25.7808257,84.7446768,PM2.5,58,270,126
India,Bihar,Chhapra,"Darshan Nagar, Chhapra - BSPCB",07-03-2024 20:00:00,25.7808257,84.7446768,PM10,58,153,101
India,Bihar,Chhapra,"Darshan Nagar, Chhapra - BSPCB",07-03-2024 20:00:00,25.7808257,84.7446768,CO,28,60,47
India,Bihar,Gaya,"Collectorate, Gaya - BSPCB",07-03-2024 20:00:00,24.7955,84.9994,NO2,1,3,2
India,Bihar,Gaya,"Kareemganj, Gaya - BSPCB",07-03-2024 20:00:00,24.792403,84.992416,PM2.5,12,103,51
India,Bihar,Gaya,"SFTI Kusdihra, Gaya - BSPCB",07-03-2024 20:00:00,24.762518,84.982348,PM2.5,24,74,54
India,Bihar,Gaya,"SFTI Kusdihra, Gaya - BSPCB",07-03-2024 20:00:00,24.762518,84.982348,PM10,30,62,49
India,Bihar,Hajipur,"Industrial Area, Hajipur - BSPCB",07-03-2024 20:00:00,25.697189,85.245900,NH3,13,17,14
India,Bihar,Hajipur,"Industrial Area, Hajipur - BSPCB",07-03-2024 20:00:00,25.697189,85.245900,SO2,5,8,7
India,Bihar,Katihar,"Mirchaibari, Katihar - BSPCB",07-03-2024 20:00:00,25.560083,87.553265,PM2.5,35,227,107
India,Bihar,Kishanganj,"SDM Office_Khagra, Kishanganj - BSPCB",07-03-2024 20:00:00,26.0881305,87.93840336,PM10,NA,NA,NA
India,Bihar,Manguraha,"Forest Rest House, Manguraha - BSPCB",07-03-2024 20:00:00,27.308328,84.531742,NO2,8,17,12
India,Bihar,Motihari,"Gandak Colony, Motihari - BSPCB",07-03-2024 20:00:00,26.63086,84.90051,NH3,9,16,12
India,Bihar,Munger,"Town Hall, Munger - BSPCB",07-03-2024 20:00:00,25.376776,86.471523,OZONE,8,26,18
India,Bihar,Muzaffarpur,"Buddha Colony, Muzaffarpur - BSPCB",07-03-2024 20:00:00,26.11442,85.39813,PM2.5,106,211,162
India,Bihar,Muzaffarpur,"Buddha Colony, Muzaffarpur - BSPCB",07-03-2024 20:00:00,26.11442,85.39813,CO,12,32,16
India,Bihar,Patna,"IGSC Planetarium Complex, Patna - BSPCB",07-03-2024 20:00:00,25.610369,85.132568,NO2,14,14,14
India,Bihar,Patna,"Muradpur, Patna - BSPCB",07-03-2024 20:00:00,25.619651,85.147382,PM10,127,194,154
India,Bihar,Patna,"Rajbansi Nagar, Patna - BSPCB",07-03-2024 20:00:00,25.599486,85.113666,NH3,3,4,4
India,Bihar,Patna,"Rajbansi Nagar, Patna - BSPCB",07-03-2024 20:00:00,25.599486,85.113666,CO,10,166,32
India,Bihar,Patna,"Samanpura, Patna - BSPCB",07-03-2024 20:00:00,25.596727,85.085624,NO2,24,107,55
India,Bihar,Purnia,"Mariam Nagar, Purnia - BSPCB",07-03-2024 20:00:00,25.366336,87.117468,SO2,15,21,19
India,Bihar,Purnia,"Mariam Nagar, Purnia - BSPCB",07-03-2024 20:00:00,25.366336,87.117468,CO,2,60,18
India,Bihar,Rajgir,"Dangi Tola, Rajgir - BSPCB",07-03-2024 20:00:00,25.03280,85.41948,NH3,1,1,1
India,Bihar,Saharsa,"Police Line, Saharsa - BSPCB",07-03-2024 20:00:00,25.892357,86.590325,PM2.5,27,107,65
India,Bihar,Saharsa,"Police Line, Saharsa - BSPCB",07-03-2024 20:00:00,25.892357,86.590325,OZONE,20,59,50
India,Bihar,Samastipur,"DM Office_Kasipur, Samastipur - BSPCB",07-03-2024 20:00:00,25.859655,85.77944,OZONE,9,43,36
India,Bihar,Sasaram,"Dada Peer, Sasaram - BSPCB",07-03-2024 20:00:00,24.952822,84.002396,NO2,10,26,16
India,Bihar,Sasaram,"Dada Peer, Sasaram - BSPCB",07-03-2024 20:00:00,24.952822,84.002396,SO2,21,27,23
India,Bihar,Siwan,"Chitragupta Nagar, Siwan - BSPCB",07-03-2024 20:00:00,26.2271665,84.3570427,NH3,1,6,2
India,Bihar,Siwan,"Chitragupta Nagar, Siwan - BSPCB",07-03-2024 20:00:00,26.2271665,84.3570427,CO,15,142,121
India,Bihar,Siwan,"Chitragupta Nagar, Siwan - BSPCB",07-03-2024 20:00:00,26.2271665,84.3570427,OZONE,22,104,78
India,Chandigarh,Chandigarh,"Sector 22, Chandigarh - CPCC",07-03-2024 20:00:00,30.735567,76.775714,PM2.5,30,237,140
India,Chandigarh,Chandigarh,"Sector 22, Chandigarh - CPCC",07-03-2024 20:00:00,30.735567,76.775714,PM10,41,217,116
India,Chandigarh,Chandigarh,"Sector 22, Chandigarh - CPCC",07-03-2024 20:00:00,30.735567,76.775714,NH3,4,7,6
India,Chandigarh,Chandigarh,"Sector-25, Chandigarh - CPCC",07-03-2024 20:00:00,30.751462,76.762879,NH3,11,29,17
India,Chandigarh,Chandigarh,"Sector-25, Chandigarh - CPCC",07-03-2024 20:00:00,30.751462,76.762879,CO,13,58,16
India,Chhattisgarh,Bhilai,"32Bungalows, Bhilai - CECB",07-03-2024 20:00:00,21.194815,81.314770,PM10,33,75,51
India,Chhattisgarh,Bhilai,"32Bungalows, Bhilai - CECB",07-03-2024 20:00:00,21.194815,81.314770,NH3,6,6,6
India,Chhattisgarh,Bhilai,"Civic Center, Bhilai - Bhilai Steel Plant",07-03-2024 20:00:00,21.185571,81.343175,PM2.5,NA,NA,NA
India,Chhattisgarh,Bhilai,"Civic Center, Bhilai - Bhilai Steel Plant",07-03-2024 20:00:00,21.185571,81.343175,NO2,NA,NA,NA
India,Chhattisgarh,Bhilai,"Civic Center, Bhilai - Bhilai Steel Plant",07-03-2024 20:00:00,21.185571,81.343175,SO2,NA,NA,NA
India,Chhattisgarh,Bhilai,"Hathkhoj, Bhilai - CECB",07-03-2024 20:00:00,21.224231,81.408350,PM2.5,20,82,49
India,Chhattisgarh,Bhilai,"Hathkhoj, Bhilai - CECB",07-03-2024 20:00:00,21.224231,81.408350,NH3,8,9,8
India,Chhattisgarh,Bhilai,"Hathkhoj, Bhilai - CECB",07-03-2024 20:00:00,21.224231,81.408350,OZONE,35,47,44
India,Chhattisgarh,Chhal,"Nawapara SECL Colony, Chhal - CECB",07-03-2024 20:00:00,22.118125,83.140608,PM2.5,37,100,56
India,Chhattisgarh,Chhal,"Nawapara SECL Colony, Chhal - CECB",07-03-2024 20:00:00,22.118125,83.140608,SO2,13,23,16
India,Chhattisgarh,Korba,"Rampur, Korba - CECB",07-03-2024 20:00:00,22.368195,82.746431,SO2,8,25,14
India,Chhattisgarh,Korba,"Urja Nagar, Korba - CECB",07-03-2024 20:00:00,22.348441,82.549611,PM2.5,12,36,20
India,Chhattisgarh,Korba,"Urja Nagar, Korba - CECB",07-03-2024 20:00:00,22.348441,82.549611,PM10,26,68,38
India,Chhattisgarh,Korba,"Urja Nagar, Korba - CECB",07-03-2024 20:00:00,22.348441,82.549611,NO2,59,70,64
India,Chhattisgarh,Korba,"Urja Nagar, Korba - CECB",07-03-2024 20:00:00,22.348441,82.549611,CO,20,29,22
India,Chhattisgarh,Kunjemura,"OP Jindal School, Kunjemura - CECB",07-03-2024 20:00:00,22.126650,83.483212,SO2,7,21,12
India,Chhattisgarh,Kunjemura,"OP Jindal School, Kunjemura - CECB",07-03-2024 20:00:00,22.126650,83.483212,CO,21,38,30
India,Chhattisgarh,Milupara,"Govt. Higher Secondary School, Milupara - CECB",07-03-2024 20:00:00,22.1910172,83.5197009,PM10,27,80,42
India,Chhattisgarh,Milupara,"Govt. Higher Secondary School, Milupara - CECB",07-03-2024 20:00:00,22.1910172,83.5197009,NO2,12,61,20
India,Chhattisgarh,Raipur,"AIIMS, Raipur - CECB",07-03-2024 20:00:00,21.258815,81.578979,NO2,54,78,71
India,Chhattisgarh,Raipur,"AIIMS, Raipur - CECB",07-03-2024 20:00:00,21.258815,81.578979,CO,28,66,37
India,Chhattisgarh,Raipur,"Bhatagaon New ISBT, Raipur - CECB",07-03-2024 20:00:00,21.219665,81.630094,PM10,46,103,67
India,Chhattisgarh,Raipur,"Bhatagaon New ISBT, Raipur - CECB",07-03-2024 20:00:00,21.219665,81.630094,NH3,3,3,3
India,Chhattisgarh,Raipur,"Krishak Nagar, Raipur - CECB",07-03-2024 20:00:00,21.237755,81.705301,PM10,NA,NA,NA
India,Chhattisgarh,Raipur,"Krishak Nagar, Raipur - CECB",07-03-2024 20:00:00,21.237755,81.705301,CO,26,48,30
India,Chhattisgarh,Raipur,"Krishak Nagar, Raipur - CECB",07-03-2024 20:00:00,21.237755,81.705301,OZONE,6,31,17
India,Chhattisgarh,Raipur,"Siltara Phase-II, Raipur - CECB",07-03-2024 20:00:00,21.371751,81.664929,PM10,30,186,81
India,Chhattisgarh,Raipur,"Siltara Phase-II, Raipur - CECB",07-03-2024 20:00:00,21.371751,81.664929,NH3,3,3,3
India,Chhattisgarh,Tumidih,"OP Jindal Industrial Park, Tumidih - CECB",07-03-2024 20:00:00,22.06631475,83.33820077,PM2.5,24,56,36
India,Chhattisgarh,Tumidih,"OP Jindal Industrial Park, Tumidih - CECB",07-03-2024 20:00:00,22.06631475,83.33820077,PM10,18,191,54
India,Delhi,Delhi,"Alipur, Delhi - DPCC",07-03-2024 20:00:00,28.815329,77.153010,PM10,68,294,154
India,Delhi,Delhi,"Alipur, Delhi - DPCC",07-03-2024 20:00:00,28.815329,77.153010,NO2,16,90,52
India,Delhi,Delhi,"Alipur, Delhi - DPCC",07-03-2024 20:00:00,28.815329,77.153010,CO,26,84,36
India,Delhi,Delhi,"Anand Vihar, Delhi - DPCC",07-03-2024 20:00:00,28.647622,77.3158090,NO2,73,143,108
India,Delhi,Delhi,"Anand Vihar, Delhi - DPCC",07-03-2024 20:00:00,28.647622,77.3158090,OZONE,11,49,33
India,Delhi,Delhi,"Ashok Vihar, Delhi - DPCC",07-03-2024 20:00:00,28.695381,77.181665,PM2.5,43,315,163
India,Delhi,Delhi,"Ashok Vihar, Delhi - DPCC",07-03-2024 20:00:00,28.695381,77.181665,NO2,15,109,62
India,Delhi,Delhi,"Ashok Vihar, Delhi - DPCC",07-03-2024 20:00:00,28.695381,77.181665,OZONE,4,16,13
India,Delhi,Delhi,"Aya Nagar, Delhi - IMD",07-03-2024 20:00:00,28.4706914,77.1099364,PM10,78,173,128
India,Delhi,Delhi,"Burari Crossing, Delhi - IMD",07-03-2024 20:00:00,28.7256504,77.2011573,PM2.5,51,362,173
India,Delhi,Delhi,"Burari Crossing, Delhi - IMD",07-03-2024 20:00:00,28.7256504,77.2011573,NO2,11,17,13
India,Delhi,Delhi,"CRRI Mathura Road, Delhi - IMD",07-03-2024 20:00:00,28.5512005,77.2735737,CO,12,92,31
India,Delhi,Delhi,"Chandni Chowk, Delhi - IITM",07-03-2024 20:00:00,28.656756,77.227234,PM10,81,430,159
India,Delhi,Delhi,"DTU, Delhi - CPCB",07-03-2024 20:00:00,28.7500499,77.1112615,PM2.5,41,174,68
India,Delhi,Delhi,"Dwarka-Sector 8, Delhi - DPCC ",07-03-2024 20:00:00,28.5710274,77.0719006,PM10,117,430,190
India,Delhi,Delhi,"IGI Airport (T3), Delhi - IMD",07-03-2024 20:00:00,28.5627763,77.1180053,PM10,64,214,122
India,Delhi,Delhi,"IHBAS, Dilshad Garden, Delhi - CPCB",07-03-2024 20:00:00,28.6811736,77.3025234,PM10,98,138,119
India,Delhi,Delhi,"IHBAS, Dilshad Garden, Delhi - CPCB",07-03-2024 20:00:00,28.6811736,77.3025234,NH3,3,10,8
India,Delhi,Delhi,"IHBAS, Dilshad Garden, Delhi - CPCB",07-03-2024 20:00:00,28.6811736,77.3025234,SO2,10,27,18
India,Delhi,Delhi,"IHBAS, Dilshad Garden, Delhi - CPCB",07-03-2024 20:00:00,28.6811736,77.3025234,OZONE,12,29,25
India,Delhi,Delhi,"ITO, Delhi - CPCB",07-03-2024 20:00:00,28.628624,77.241060,PM10,18,210,135
India,Delhi,Delhi,"ITO, Delhi - CPCB",07-03-2024 20:00:00,28.628624,77.241060,SO2,13,27,16
India,Delhi,Delhi,"ITO, Delhi - CPCB",07-03-2024 20:00:00,28.628624,77.241060,OZONE,14,69,54
India,Delhi,Delhi,"Jahangirpuri, Delhi - DPCC",07-03-2024 20:00:00,28.732820,77.170633,PM10,115,410,242
India,Delhi,Delhi,"Jawaharlal Nehru Stadium, Delhi - DPCC",07-03-2024 20:00:00,28.580280,77.233829,PM10,85,173,133
India,Delhi,Delhi,"Jawaharlal Nehru Stadium, Delhi - DPCC",07-03-2024 20:00:00,28.580280,77.233829,SO2,8,33,20
India,Delhi,Delhi,"Jawaharlal Nehru Stadium, Delhi - DPCC",07-03-2024 20:00:00,28.580280,77.233829,OZONE,1,175,124
India,Delhi,Delhi,"Lodhi Road, Delhi - IITM",07-03-2024 20:00:00,28.588333,77.221667,SO2,22,38,27
India,Delhi,Delhi,"Major Dhyan Chand National Stadium, Delhi - DPCC",07-03-2024 20:00:00,28.611281,77.237738,PM10,58,174,124
India,Delhi,Delhi,"Mundka, Delhi - DPCC",07-03-2024 20:00:00,28.684678,77.076574,PM2.5,53,452,241
India,Delhi,Delhi,"Mundka, Delhi - DPCC",07-03-2024 20:00:00,28.684678,77.076574,PM10,115,500,235
India,Delhi,Delhi,"NSIT Dwarka, Delhi - CPCB",07-03-2024 20:00:00,28.60909,77.0325413,PM2.5,119,404,272
India,Delhi,Delhi,"NSIT Dwarka, Delhi - CPCB",07-03-2024 20:00:00,28.60909,77.0325413,PM10,116,320,168
India,Delhi,Delhi,"NSIT Dwarka, Delhi - CPCB",07-03-2024 20:00:00,28.60909,77.0325413,OZONE,18,110,80
India,Delhi,Delhi,"Najafgarh, Delhi - DPCC",07-03-2024 20:00:00,28.570173,76.933762,PM10,56,260,134
India,Delhi,Delhi,"Najafgarh, Delhi - DPCC",07-03-2024 20:00:00,28.570173,76.933762,NO2,7,27,16
India,Delhi,Delhi,"Najafgarh, Delhi - DPCC",07-03-2024 20:00:00,28.570173,76.933762,NH3,10,13,12
India,Delhi,Delhi,"Narela, Delhi - DPCC",07-03-2024 20:00:00,28.822836,77.101981,NH3,5,7,6
India,Delhi,Delhi,"Narela, Delhi - DPCC",07-03-2024 20:00:00,28.822836,77.101981,CO,44,94,54
India,Delhi,Delhi,"Nehru Nagar, Delhi - DPCC",07-03-2024 20:00:00,28.567890,77.250515,OZONE,2,191,142
India,Delhi,Delhi,"Okhla Phase-2, Delhi - DPCC",07-03-2024 20:00:00,28.530785,77.271255,CO,20,98,44
India,Delhi,Delhi,"Patparganj, Delhi - DPCC",07-03-2024 20:00:00,28.623763,77.287209,CO,9,58,19
India,Delhi,Delhi,"Pusa, Delhi - DPCC",07-03-2024 20:00:00,28.639652,77.146275,NO2,14,164,107
India,Delhi,Delhi,"Pusa, Delhi - DPCC",07-03-2024 20:00:00,28.639652,77.146275,SO2,9,26,15
India,Delhi,Delhi,"R K Puram, Delhi - DPCC",07-03-2024 20:00:00,28.563262,77.186937,PM10,98,202,148
India,Delhi,Delhi,"Shadipur, Delhi - CPCB",07-03-2024 20:00:00,28.6514781,77.1473105,PM2.5,61,334,223
India,Delhi,Delhi,"Shadipur, Delhi - CPCB",07-03-2024 20:00:00,28.6514781,77.1473105,PM10,120,266,177
India,Delhi,Delhi,"Shadipur, Delhi - CPCB",07-03-2024 20:00:00,28.6514781,77.1473105,NH3,3,10,7
India,Delhi,Delhi,"Sonia Vihar, Delhi - DPCC",07-03-2024 20:00:00,28.710508,77.249485,NO2,24,106,57
India,Delhi,Delhi,"Sonia Vihar, Delhi - DPCC",07-03-2024 20:00:00,28.710508,77.249485,CO,47,88,53
India,Delhi,Delhi,"Sri Aurobindo Marg, Delhi - DPCC",07-03-2024 20:00:00,28.531346,77.190156,NH3,5,8,6
India,Delhi,Delhi,"Sri Aurobindo Marg, Delhi - DPCC",07-03-2024 20:00:00,28.531346,77.190156,SO2,9,23,14
India,Delhi,Delhi,"Sri Aurobindo Marg, Delhi - DPCC",07-03-2024 20:00:00,28.531346,77.190156,CO,9,57,18
India,Delhi,Delhi,"Wazirpur, Delhi - DPCC",07-03-2024 20:00:00,28.699793,77.165453,PM10,125,355,198
India,Gujarat,Ahmedabad,"Chandkheda, Ahmedabad - IITM",07-03-2024 20:00:00,23.107969,72.574648,NO2,NA,NA,NA
India,Gujarat,Ahmedabad,"Maninagar, Ahmedabad - GPCB",07-03-2024 20:00:00,23.002657,72.591912,CO,32,68,46
India,Gujarat,Ahmedabad,"Raikhad, Ahmedabad - IITM",07-03-2024 20:00:00,23.020509,72.579261,PM10,23,68,44
India,Gujarat,Ahmedabad,"Raikhad, Ahmedabad - IITM",07-03-2024 20:00:00,23.020509,72.579261,NH3,1,2,1
India,Gujarat,Ahmedabad,"Raikhad, Ahmedabad - IITM",07-03-2024 20:00:00,23.020509,72.579261,CO,18,96,42
India,Gujarat,Ahmedabad,"Rakhial, Ahmedabad - IITM",07-03-2024 20:00:00,23.016834,72.625775,NO2,25,108,56
India,Gujarat,Ahmedabad,"SAC ISRO Bopal, Ahmedabad - IITM",07-03-2024 20:00:00,23.041137,72.456691,NO2,NA,NA,NA
India,Gujarat,Ahmedabad,"SAC ISRO Bopal, Ahmedabad - IITM",07-03-2024 20:00:00,23.041137,72.456691,SO2,NA,NA,NA
India,Gujarat,Ahmedabad,"SAC ISRO Satellite, Ahmedabad - IITM",07-03-2024 20:00:00,23.023389,72.515201,PM2.5,NA,NA,NA
India,Gujarat,Ahmedabad,"SAC ISRO Satellite, Ahmedabad - IITM",07-03-2024 20:00:00,23.023389,72.515201,NO2,NA,NA,NA
India,Gujarat,Ahmedabad,"SAC ISRO Satellite, Ahmedabad - IITM",07-03-2024 20:00:00,23.023389,72.515201,SO2,NA,NA,NA
India,Gujarat,Ahmedabad,"Sardar Vallabhbhai Patel Stadium, Ahmedabad - IITM",07-03-2024 20:00:00,23.043070,72.562968,PM2.5,61,379,144
India,Gujarat,Ahmedabad,"Sardar Vallabhbhai Patel Stadium, Ahmedabad - IITM",07-03-2024 20:00:00,23.043070,72.562968,PM10,75,406,136
India,Gujarat,Ahmedabad,"Sardar Vallabhbhai Patel Stadium, Ahmedabad - IITM",07-03-2024 20:00:00,23.043070,72.562968,NH3,1,2,1
India,Gujarat,Ankleshwar,"GIDC, Ankleshwar - GPCB",07-03-2024 20:00:00,21.613267,73.010555,CO,72,108,85
India,Gujarat,Gandhinagar,"GIFT City, Gandhinagar - IITM",07-03-2024 20:00:00,23.163798,72.677768,PM2.5,NA,NA,NA
India,Gujarat,Gandhinagar,"Sector-10, Gandhinagar - GPCB",07-03-2024 20:00:00,23.221714,72.654328,PM10,21,107,68
India,Gujarat,Gandhinagar,"Sector-10, Gandhinagar - GPCB",07-03-2024 20:00:00,23.221714,72.654328,OZONE,2,19,10
India,Gujarat,Nandesari,"GIDC, Nandesari - Nandesari Ind. Association",07-03-2024 20:00:00,22.410802,73.097923,SO2,2,14,7
India,Gujarat,Vapi,"Phase-1 GIDC, Vapi - GPCB",07-03-2024 20:00:00,20.362421,72.918013,NH3,8,11,9
India,Gujarat,Vapi,"Phase-1 GIDC, Vapi - GPCB",07-03-2024 20:00:00,20.362421,72.918013,OZONE,1,8,4
India,Gujarat,Vatva,"Phase-4 GIDC, Vatva - GPCB",07-03-2024 20:00:00,22.969611,72.643500,NH3,1,2,1
India,Haryana,Ambala,"Patti Mehar, Ambala - HSPCB",07-03-2024 20:00:00,30.379589,76.778328,PM10,35,108,62
India,Haryana,Bahadurgarh,"Arya Nagar, Bahadurgarh - HSPCB",07-03-2024 20:00:00,28.6701,76.9254,PM10,68,206,123
India,Haryana,Bahadurgarh,"Arya Nagar, Bahadurgarh - HSPCB",07-03-2024 20:00:00,28.6701,76.9254,SO2,12,20,14
India,Haryana,Bahadurgarh,"Arya Nagar, Bahadurgarh - HSPCB",07-03-2024 20:00:00,28.6701,76.9254,OZONE,36,50,42
India,Haryana,Ballabgarh,"Nathu Colony, Ballabgarh - HSPCB",07-03-2024 20:00:00,28.3419248,77.319699,NO2,12,13,12
India,Haryana,Ballabgarh,"Nathu Colony, Ballabgarh - HSPCB",07-03-2024 20:00:00,28.3419248,77.319699,CO,6,115,24
India,Haryana,Bhiwani,"H.B. Colony, Bhiwani - HSPCB",07-03-2024 20:00:00,28.806223,76.141105,SO2,5,71,13
India,Haryana,Charkhi Dadri,"Mini Secretariat, Charkhi Dadri - HSPCB",07-03-2024 20:00:00,28.593883,76.270653,CO,18,26,19
India,Haryana,Dharuhera,"Municipal Corporation Office, Dharuhera -  HSPCB",07-03-2024 20:00:00,28.206800,76.799700,NO2,44,112,70
India,Haryana,Dharuhera,"Municipal Corporation Office, Dharuhera -  HSPCB",07-03-2024 20:00:00,28.206800,76.799700,CO,14,57,20
India,Haryana,Faridabad,"New Industrial Town, Faridabad - HSPCB",07-03-2024 20:00:00,28.39072,77.30059,NO2,15,29,20
India,Haryana,Faridabad,"New Industrial Town, Faridabad - HSPCB",07-03-2024 20:00:00,28.39072,77.30059,CO,14,43,19
India,Haryana,Faridabad,"Sector 11, Faridabad - HSPCB",07-03-2024 20:00:00,28.376058,77.315741,NO2,30,33,32
India,Haryana,Faridabad,"Sector 11, Faridabad - HSPCB",07-03-2024 20:00:00,28.376058,77.315741,OZONE,3,7,6
India,Haryana,Faridabad,"Sector 30, Faridabad - HSPCB",07-03-2024 20:00:00,28.4417,77.3217,NH3,9,9,9
India,Haryana,Faridabad,"Sector 30, Faridabad - HSPCB",07-03-2024 20:00:00,28.4417,77.3217,SO2,2,7,4
India,Haryana,Fatehabad,"Huda Sector, Fatehabad - HSPCB",07-03-2024 20:00:00,29.503664,75.467934,PM2.5,33,112,67
India,Haryana,Fatehabad,"Huda Sector, Fatehabad - HSPCB",07-03-2024 20:00:00,29.503664,75.467934,NH3,13,14,13
India,Haryana,Gurugram,"Sector-51, Gurugram - HSPCB",07-03-2024 20:00:00,28.4227,77.0667,PM2.5,110,371,266
India,Haryana,Gurugram,"Sector-51, Gurugram - HSPCB",07-03-2024 20:00:00,28.4227,77.0667,NH3,6,14,9
India,Haryana,Gurugram,"Sector-51, Gurugram - HSPCB",07-03-2024 20:00:00,28.4227,77.0667,SO2,2,4,4
India,Haryana,Gurugram,"Vikas Sadan, Gurugram - HSPCB",07-03-2024 20:00:00,28.4501238,77.0263051,SO2,35,54,41
India,Haryana,Gurugram,"Vikas Sadan, Gurugram - HSPCB",07-03-2024 20:00:00,28.4501238,77.0263051,CO,54,140,95
India,Haryana,Hisar,"Urban Estate-II, Hisar - HSPCB",07-03-2024 20:00:00,29.140560,75.744941,PM2.5,32,322,130
India,Haryana,Hisar,"Urban Estate-II, Hisar - HSPCB",07-03-2024 20:00:00,29.140560,75.744941,PM10,46,218,100
India,Haryana,Hisar,"Urban Estate-II, Hisar - HSPCB",07-03-2024 20:00:00,29.140560,75.744941,OZONE,19,152,131
India,Haryana,Karnal,"Sector-12, Karnal - HSPCB",07-03-2024 20:00:00,29.695300,77.002700,PM10,49,89,68
India,Haryana,Karnal,"Sector-12, Karnal - HSPCB",07-03-2024 20:00:00,29.695300,77.002700,OZONE,30,40,33
India,Haryana,Kurukshetra,"Sector-7, Kurukshetra - HSPCB",07-03-2024 20:00:00,29.966942,76.875879,PM2.5,34,82,59
India,Haryana,Mandikhera,"General Hospital, Mandikhera - HSPCB",07-03-2024 20:00:00,27.9002,76.9938,PM2.5,13,62,39
India,Haryana,Mandikhera,"General Hospital, Mandikhera - HSPCB",07-03-2024 20:00:00,27.9002,76.9938,NO2,17,22,19
India,Haryana,Manesar,"Sector-2 IMT, Manesar - HSPCB",07-03-2024 20:00:00,28.360699,76.936090,NH3,1,1,1
India,Haryana,Manesar,"Sector-2 IMT, Manesar - HSPCB",07-03-2024 20:00:00,28.360699,76.936090,OZONE,1,54,43
India,Haryana,Narnaul,"Shastri Nagar, Narnaul - HSPCB",07-03-2024 20:00:00,28.060249,76.113115,NO2,16,58,35
India,Haryana,Narnaul,"Shastri Nagar, Narnaul - HSPCB",07-03-2024 20:00:00,28.060249,76.113115,NH3,5,18,11
India,Haryana,Narnaul,"Shastri Nagar, Narnaul - HSPCB",07-03-2024 20:00:00,28.060249,76.113115,CO,8,20,8
India,Haryana,Palwal,"Shyam Nagar, Palwal - HSPCB",07-03-2024 20:00:00,28.1485564,77.3320667,NH3,NA,NA,NA
India,Haryana,Palwal,"Shyam Nagar, Palwal - HSPCB",07-03-2024 20:00:00,28.1485564,77.3320667,OZONE,5,48,29
India,Haryana,Panchkula,"Sector-6, Panchkula - HSPCB ",07-03-2024 20:00:00,30.7057778,76.8531805555555,SO2,12,12,12
India,Haryana,Sirsa,"F-Block, Sirsa - HSPCB",07-03-2024 20:00:00,29.536400,75.015800,NH3,12,13,13
India,Haryana,Yamuna Nagar,"Gobind Pura, Yamuna Nagar - HSPCB",07-03-2024 20:00:00,30.1480566,77.2893471,PM2.5,47,106,67
India,Haryana,Yamuna Nagar,"Gobind Pura, Yamuna Nagar - HSPCB",07-03-2024 20:00:00,30.1480566,77.2893471,NH3,1,6,4
India,Himachal Pradesh,Baddi,"HIMUDA Complex Phase-1, Baddi - HPPCB",07-03-2024 20:00:00,30.943887,76.801991,NH3,NA,NA,NA
India,Himachal Pradesh,Baddi,"HIMUDA Complex Phase-1, Baddi - HPPCB",07-03-2024 20:00:00,30.943887,76.801991,OZONE,56,105,94
India,Jharkhand,Dhanbad,"Kalakusuma, Dhanbad - DMC",07-03-2024 20:00:00,23.811548,86.481238,SO2,14,127,100
India,Jharkhand,Dhanbad,"Kalakusuma, Dhanbad - DMC",07-03-2024 20:00:00,23.811548,86.481238,OZONE,10,16,12
India,Jharkhand,Dhanbad,"Sardar Patel Nagar, Dhanbad - JSPCB",07-03-2024 20:00:00,23.80569,86.44268,PM10,NA,NA,NA
India,Jharkhand,Dhanbad,"Sardar Patel Nagar, Dhanbad - JSPCB",07-03-2024 20:00:00,23.80569,86.44268,SO2,NA,NA,NA
India,Jharkhand,Dhanbad,"Sardar Patel Nagar, Dhanbad - JSPCB",07-03-2024 20:00:00,23.80569,86.44268,OZONE,10,22,22
India,Jharkhand,Pathardih,"Mohalbani Ghat, Pathardih - DMC",07-03-2024 20:00:00,23.669880,86.411725,OZONE,9,22,22
India,Karnataka,Bagalkot,"Vidayagiri, Bagalkot - KSPCB",07-03-2024 20:00:00,16.172806,75.659694,PM2.5,25,37,36
India,Karnataka,Belgaum,"Ramteerth Nagar, Belgaum - KSPCB",07-03-2024 20:00:00,15.888653,74.541751,PM10,24,81,51
India,Karnataka,Bengaluru,"BTM Layout, Bengaluru - CPCB",07-03-2024 20:00:00,12.9135218,77.5950804,PM2.5,NA,NA,NA
India,Karnataka,Bengaluru,"BTM Layout, Bengaluru - CPCB",07-03-2024 20:00:00,12.9135218,77.5950804,NO2,NA,NA,NA
India,Karnataka,Bengaluru,"Bapuji Nagar, Bengaluru - KSPCB",07-03-2024 20:00:00,12.951913,77.539784,NO2,10,11,11
India,Karnataka,Bengaluru,"Bapuji Nagar, Bengaluru - KSPCB",07-03-2024 20:00:00,12.951913,77.539784,NH3,1,1,1
India,Karnataka,Bengaluru,"Hebbal, Bengaluru - KSPCB",07-03-2024 20:00:00,13.029152,77.585901,PM10,68,167,115
India,Karnataka,Bengaluru,"Hebbal, Bengaluru - KSPCB",07-03-2024 20:00:00,13.029152,77.585901,SO2,7,22,17
India,Karnataka,Bengaluru,"Hombegowda Nagar, Bengaluru - KSPCB",07-03-2024 20:00:00,12.938539,77.590100,SO2,3,4,4
India,Karnataka,Bengaluru,"Hombegowda Nagar, Bengaluru - KSPCB",07-03-2024 20:00:00,12.938539,77.590100,OZONE,4,5,4
India,Karnataka,Bengaluru,"Jayanagar 5th Block, Bengaluru - KSPCB",07-03-2024 20:00:00,12.920984,77.584908,PM10,87,409,126
India,Karnataka,Bengaluru,"Jayanagar 5th Block, Bengaluru - KSPCB",07-03-2024 20:00:00,12.920984,77.584908,SO2,16,37,23
India,Karnataka,Bengaluru,"Jayanagar 5th Block, Bengaluru - KSPCB",07-03-2024 20:00:00,12.920984,77.584908,CO,5,97,42
India,Karnataka,Bengaluru,"Jigani, Bengaluru - KSPCB",07-03-2024 20:00:00,12.7816279,77.6299145,PM2.5,30,278,141
India,Karnataka,Bengaluru,"Jigani, Bengaluru - KSPCB",07-03-2024 20:00:00,12.7816279,77.6299145,NO2,31,32,32
India,Karnataka,Bengaluru,"Jigani, Bengaluru - KSPCB",07-03-2024 20:00:00,12.7816279,77.6299145,CO,51,90,63
India,Karnataka,Bengaluru,"Kasturi Nagar, Bengaluru - KSPCB",07-03-2024 20:00:00,13.003872,77.664217,PM2.5,48,285,148
India,Karnataka,Bengaluru,"Kasturi Nagar, Bengaluru - KSPCB",07-03-2024 20:00:00,13.003872,77.664217,OZONE,5,188,139
India,Karnataka,Bengaluru,"Peenya, Bengaluru - CPCB",07-03-2024 20:00:00,13.0270199,77.494094,PM10,34,82,51
India,Karnataka,Bengaluru,"Peenya, Bengaluru - CPCB",07-03-2024 20:00:00,13.0270199,77.494094,NO2,15,29,22
India,Karnataka,Bengaluru,"Peenya, Bengaluru - CPCB",07-03-2024 20:00:00,13.0270199,77.494094,OZONE,48,197,132
India,Karnataka,Bengaluru,"RVCE-Mailasandra, Bengaluru - KSPCB",07-03-2024 20:00:00,12.921418,77.502466,CO,39,104,54
India,Karnataka,Bengaluru,"Shivapura_Peenya, Bengaluru - KSPCB",07-03-2024 20:00:00,13.0246342,77.5080115,PM10,66,108,88
India,Karnataka,Bengaluru,"Shivapura_Peenya, Bengaluru - KSPCB",07-03-2024 20:00:00,13.0246342,77.5080115,NH3,4,4,4
India,Karnataka,Bengaluru,"Silk Board, Bengaluru - KSPCB",07-03-2024 20:00:00,12.917348,77.622813,PM2.5,50,161,98
India,Karnataka,Bengaluru,"Silk Board, Bengaluru - KSPCB",07-03-2024 20:00:00,12.917348,77.622813,NO2,NA,NA,NA
India,Karnataka,Chamarajanagar,"Urban, Chamarajanagar - KSPCB",07-03-2024 20:00:00,11.55358,76.55521,NO2,19,34,28
India,Karnataka,Chikkamagaluru,"Kalyana Nagara, Chikkamagaluru - KSPCB",07-03-2024 20:00:00,13.328028,75.797056,NO2,17,35,26
India,Karnataka,Chikkamagaluru,"Kalyana Nagara, Chikkamagaluru - KSPCB",07-03-2024 20:00:00,13.328028,75.797056,NH3,3,6,4
India,Karnataka,Davanagere,"Devaraj Urs Badavane, Davanagere - KSPCB",07-03-2024 20:00:00,14.475800,75.905200,PM2.5,24,55,37
India,Karnataka,Dharwad,"Kalabhavan, Dharwad - KSPCB",07-03-2024 20:00:00,15.459706,75.008381,PM2.5,42,90,61
India,Karnataka,Dharwad,"Kalabhavan, Dharwad - KSPCB",07-03-2024 20:00:00,15.459706,75.008381,OZONE,7,47,34
India,Karnataka,Gadag,"Panchal Nagar, Gadag - KSPCB",07-03-2024 20:00:00,15.411456,75.638133,PM10,27,47,38
India,Karnataka,Gadag,"Panchal Nagar, Gadag - KSPCB",07-03-2024 20:00:00,15.411456,75.638133,SO2,15,20,17
India,Karnataka,Haveri,"Ashwini Nagar, Haveri - KSPCB",07-03-2024 20:00:00,14.791800,75.389600,CO,36,36,36
India,Karnataka,Hubballi,"Lingaraj Nagar, Hubballi - KSPCB",07-03-2024 20:00:00,15.3714823,75.1160168,PM10,24,71,48
India,Karnataka,Hubballi,"Lingaraj Nagar, Hubballi - KSPCB",07-03-2024 20:00:00,15.3714823,75.1160168,NO2,7,16,13
India,Karnataka,Kalaburagi,"Lal Bahadur Shastri Nagar, Kalaburagi - KSPCB",07-03-2024 20:00:00,17.321993,76.822628,NO2,11,12,12
India,Karnataka,Kalaburagi,"Mahatma Basaveswar Colony, Kalaburgi - KSPCB",07-03-2024 20:00:00,17.336318,76.847397,PM2.5,28,68,43
India,Karnataka,Kalaburagi,"Mahatma Basaveswar Colony, Kalaburgi - KSPCB",07-03-2024 20:00:00,17.336318,76.847397,SO2,4,13,8
India,Karnataka,Kalaburagi,"Mahatma Basaveswar Colony, Kalaburgi - KSPCB",07-03-2024 20:00:00,17.336318,76.847397,CO,34,71,40
India,Karnataka,Karwar,"KHB Colony, Karwar - KSPCB",07-03-2024 20:00:00,14.816666,74.141003,PM10,38,130,60
India,Karnataka,Karwar,"KHB Colony, Karwar - KSPCB",07-03-2024 20:00:00,14.816666,74.141003,CO,7,8,7
India,Karnataka,Kolar,"Tamaka Ind. Area, Kolar - KSPCB",07-03-2024 20:00:00,13.1276288,78.1570122,NH3,4,30,12
India,Karnataka,Kolar,"Tamaka Ind. Area, Kolar - KSPCB",07-03-2024 20:00:00,13.1276288,78.1570122,CO,18,69,60
India,Karnataka,Kolar,"Tamaka Ind. Area, Kolar - KSPCB",07-03-2024 20:00:00,13.1276288,78.1570122,OZONE,7,12,10
India,Karnataka,Koppal,"Diwator Nagar, Koppal - KSPCB",07-03-2024 20:00:00,15.347630,76.181767,NO2,3,38,14
India,Karnataka,Madikeri,"Stuart Hill, Madikeri - KSPCB",07-03-2024 20:00:00,12.415911,75.735050,CO,6,127,20
India,Karnataka,Mangalore,"Kadri, Mangalore - KSPCB",07-03-2024 20:00:00,12.889250,74.853000,CO,34,42,39
India,Karnataka,Mysuru,"Hebbal 1st Stage, Mysuru - KSPCB",07-03-2024 20:00:00,12.21041,76.37376,PM10,48,81,63
India,Karnataka,Mysuru,"Hebbal 1st Stage, Mysuru - KSPCB",07-03-2024 20:00:00,12.21041,76.37376,NH3,1,3,2
India,Karnataka,Mysuru,"Hebbal 1st Stage, Mysuru - KSPCB",07-03-2024 20:00:00,12.21041,76.37376,CO,3,66,26
India,Karnataka,Raichur,"Haji Colony, Raichur - KSPCB",07-03-2024 20:00:00,16.208139,77.348417,PM10,64,209,105
India,Karnataka,Raichur,"Haji Colony, Raichur - KSPCB",07-03-2024 20:00:00,16.208139,77.348417,CO,84,120,95
India,Karnataka,Ramanagara,"Vijay Nagar, Ramanagara - KSPCB",07-03-2024 20:00:00,12.733409,77.298051,PM10,30,72,51
India,Karnataka,Shivamogga,"Vinoba Nagara, Shivamogga - KSPCB",07-03-2024 20:00:00,13.940000,75.555917,NO2,7,19,13
India,Karnataka,Shivamogga,"Vinoba Nagara, Shivamogga - KSPCB",07-03-2024 20:00:00,13.940000,75.555917,SO2,2,13,6
India,Karnataka,Shivamogga,"Vinoba Nagara, Shivamogga - KSPCB",07-03-2024 20:00:00,13.940000,75.555917,OZONE,21,86,74
India,Karnataka,Udupi,"Brahmagiri, Udupi - KSPCB",07-03-2024 20:00:00,13.34194444,74.74694444,SO2,13,17,16
India,Karnataka,Vijayapura,"Ibrahimpur, Vijayapura - KSPCB",07-03-2024 20:00:00,16.802639,75.722694,PM10,38,40,39
India,Karnataka,Yadgir,"Collector Office, Yadgir - KSPCB",07-03-2024 20:00:00,16.7602,77.1428,OZONE,18,20,19
India,Kerala,Eloor,"Udyogamandal, Eloor - Kerala PCB",07-03-2024 20:00:00,10.073232,76.302765,CO,6,124,89
India,Kerala,Kannur,"Thavakkara, Kannur - Kerala PCB",07-03-2024 20:00:00,11.875000,75.373200,NO2,6,7,6
India,Kerala,Kochi,"Vyttila, Kochi - Kerala PCB",07-03-2024 20:00:00,9.969447,76.321186,PM10,36,116,67
India,Kerala,Kollam,"Polayathode, Kollam - Kerala PCB",07-03-2024 20:00:00,8.8787,76.6073,PM2.5,43,167,88
India,Kerala,Kollam,"Polayathode, Kollam - Kerala PCB",07-03-2024 20:00:00,8.8787,76.6073,SO2,1,21,4
India,Kerala,Thiruvananthapuram,"Plammoodu, Thiruvananthapuram - Kerala PCB",07-03-2024 20:00:00,8.5149093,76.9435879,PM2.5,17,153,54
India,Kerala,Thrissur,"Corporation Ground, Thrissur - Kerala PCB",07-03-2024 20:00:00,10.532400,76.215900,PM2.5,44,51,47
India,Madhya Pradesh,Bhopal,"Idgah Hills, Bhopal - MPPCB",07-03-2024 20:00:00,23.264759,77.381568,PM10,57,131,93
India,Madhya Pradesh,Bhopal,"Idgah Hills, Bhopal - MPPCB",07-03-2024 20:00:00,23.264759,77.381568,NO2,12,63,27
India,Madhya Pradesh,Bhopal,"Paryavaran Parisar, Bhopal - MPPCB",07-03-2024 20:00:00,23.210494,77.425409,PM10,52,219,104
India,Madhya Pradesh,Bhopal,"T T Nagar, Bhopal - MPPCB",07-03-2024 20:00:00,23.233584,77.400574,CO,16,101,35
India,Madhya Pradesh,Dewas,"Bhopal Chauraha, Dewas - MPPCB",07-03-2024 20:00:00,22.9682591,76.064118,PM10,45,159,98
India,Madhya Pradesh,Dewas,"Bhopal Chauraha, Dewas - MPPCB",07-03-2024 20:00:00,22.9682591,76.064118,OZONE,16,68,32
India,Madhya Pradesh,Gwalior,"City Center, Gwalior - MPPCB",07-03-2024 20:00:00,26.203442,78.193251,PM2.5,38,302,142
India,Madhya Pradesh,Gwalior,"City Center, Gwalior - MPPCB",07-03-2024 20:00:00,26.203442,78.193251,NH3,1,12,9
India,Madhya Pradesh,Gwalior,"Deen Dayal Nagar, Gwalior - MPPCB",07-03-2024 20:00:00,26.259242,78.216432,PM2.5,29,342,165
India,Madhya Pradesh,Gwalior,"Maharaj Bada, Gwalior - MPPCB",07-03-2024 20:00:00,26.200388,78.147714,NO2,22,122,52
India,Madhya Pradesh,Indore,"Chhoti Gwaltoli, Indore - MPPCB",07-03-2024 20:00:00,22.4310,75.5213,NH3,1,4,3
India,Madhya Pradesh,Indore,"Chhoti Gwaltoli, Indore - MPPCB",07-03-2024 20:00:00,22.4310,75.5213,OZONE,15,113,77
India,Madhya Pradesh,Indore,"Residency Area, Indore - IMC",07-03-2024 20:00:00,22.7084,75.8815,SO2,22,26,24
India,Madhya Pradesh,Indore,"Residency Area, Indore - IMC",07-03-2024 20:00:00,22.7084,75.8815,OZONE,10,22,18
India,Madhya Pradesh,Jabalpur,"Govindh Bhavan Colony, Jabalpur - JMC",07-03-2024 20:00:00,23.163174,79.973061,NO2,7,28,12
India,Madhya Pradesh,Jabalpur,"Govindh Bhavan Colony, Jabalpur - JMC",07-03-2024 20:00:00,23.163174,79.973061,CO,11,26,15
India,Madhya Pradesh,Jabalpur,"Gupteshwar, Jabalpur - JMC",07-03-2024 20:00:00,23.142888,79.916147,CO,6,96,26
India,Madhya Pradesh,Jabalpur,"Marhatal, Jabalpur - MPPCB",07-03-2024 20:00:00,23.168606,79.932247,SO2,4,9,8
India,Madhya Pradesh,Jabalpur,"Suhagi, Jabalpur - JMC",07-03-2024 20:00:00,23.218135,79.957770,PM10,26,172,88
India,Madhya Pradesh,Jabalpur,"Suhagi, Jabalpur - JMC",07-03-2024 20:00:00,23.218135,79.957770,SO2,8,10,8
India,Madhya Pradesh,Jabalpur,"Suhagi, Jabalpur - JMC",07-03-2024 20:00:00,23.218135,79.957770,OZONE,20,150,106
India,Madhya Pradesh,Katni,"Gole Bazar, Katni - MPPCB",07-03-2024 20:00:00,23.50016,80.23284,OZONE,56,131,104
India,Madhya Pradesh,Mandideep,"Sector-D Industrial Area, Mandideep - MPPCB",07-03-2024 20:00:00,23.108440,77.511428,PM2.5,53,291,139
India,Madhya Pradesh,Mandideep,"Sector-D Industrial Area, Mandideep - MPPCB",07-03-2024 20:00:00,23.108440,77.511428,SO2,14,133,65
India,Madhya Pradesh,Pithampur,"Sector-2 Industrial Area, Pithampur - MPPCB",07-03-2024 20:00:00,22.624758,75.675238,NO2,8,22,13
India,Madhya Pradesh,Pithampur,"Sector-2 Industrial Area, Pithampur - MPPCB",07-03-2024 20:00:00,22.624758,75.675238,NH3,6,10,8
India,Madhya Pradesh,Pithampur,"Sector-2 Industrial Area, Pithampur - MPPCB",07-03-2024 20:00:00,22.624758,75.675238,SO2,10,21,13
India,Madhya Pradesh,Pithampur,"Sector-2 Industrial Area, Pithampur - MPPCB",07-03-2024 20:00:00,22.624758,75.675238,CO,30,78,63
India,Madhya Pradesh,Sagar,"Civil Lines, Sagar - MPPCB",07-03-2024 20:00:00,23.838586,78.759431,PM2.5,27,72,50
India,Madhya Pradesh,Satna,"Bandhavgar Colony, Satna - Birla Cement",07-03-2024 20:00:00,24.58434363,80.8549414,PM10,36,110,63
India,Madhya Pradesh,Satna,"Bandhavgar Colony, Satna - Birla Cement",07-03-2024 20:00:00,24.58434363,80.8549414,SO2,1,12,2
India,Madhya Pradesh,Satna,"Bandhavgar Colony, Satna - Birla Cement",07-03-2024 20:00:00,24.58434363,80.8549414,OZONE,58,88,77
India,Madhya Pradesh,Singrauli,"Suryakiran Bhawan NCL, Singrauli - MPPCB",07-03-2024 20:00:00,24.108970,82.645580,CO,108,143,131
India,Maharashtra,Ahmednagar,"Tarakpur, Ahmednagar - MPCB",07-03-2024 20:00:00,19.10122,74.73339,NO2,25,149,60
India,Maharashtra,Amravati,"Shri Shivaji Science College, Amaravati - MPCB",07-03-2024 20:00:00,20.939198,77.765701,PM2.5,52,135,78
India,Maharashtra,Amravati,"Shri Shivaji Science College, Amaravati - MPCB",07-03-2024 20:00:00,20.939198,77.765701,NO2,7,59,26
India,Maharashtra,Aurangabad,"MIDC Chilkalthana, Aurangabad - MPCB",07-03-2024 20:00:00,19.875620,75.387310,SO2,7,107,18
India,Maharashtra,Aurangabad,"MIDC Chilkalthana, Aurangabad - MPCB",07-03-2024 20:00:00,19.875620,75.387310,OZONE,70,86,80
India,Maharashtra,Aurangabad,"More Chowk Waluj, Aurangabad - MPCB",07-03-2024 20:00:00,19.8389439,75.244448,NH3,1,1,1
India,Maharashtra,Aurangabad,"Rachnakar Colony, Aurangabad - MPCB",07-03-2024 20:00:00,19.863756,75.321188,PM10,76,136,104
India,Maharashtra,Aurangabad,"Rachnakar Colony, Aurangabad - MPCB",07-03-2024 20:00:00,19.863756,75.321188,NH3,1,2,1
India,Maharashtra,Aurangabad,"Rachnakar Colony, Aurangabad - MPCB",07-03-2024 20:00:00,19.863756,75.321188,CO,10,62,18
India,Maharashtra,Badlapur,"Katrap, Badlapur - MPCB",07-03-2024 20:00:00,19.16485,73.23409,PM10,49,214,132
India,Maharashtra,Badlapur,"Katrap, Badlapur - MPCB",07-03-2024 20:00:00,19.16485,73.23409,NH3,1,6,4
India,Maharashtra,Belapur,"CBD Belapur, Belapur - MPCB",07-03-2024 20:00:00,19.0243902,73.0406721,PM2.5,37,165,108
India,Maharashtra,Bhiwandi,"Gokul Nagar, Bhiwandi - MPCB",07-03-2024 20:00:00,19.309073,73.057223,NH3,4,10,6
India,Maharashtra,Bhiwandi,"Gokul Nagar, Bhiwandi - MPCB",07-03-2024 20:00:00,19.309073,73.057223,SO2,4,63,14
India,Maharashtra,Boisar,"Khaira, Boisar - MPCB",07-03-2024 20:00:00,19.786089,72.757971,NH3,NA,NA,NA
India,Maharashtra,Boisar,"Khaira, Boisar - MPCB",07-03-2024 20:00:00,19.786089,72.757971,CO,14,28,23
India,Maharashtra,Boisar,"Khaira, Boisar - MPCB",07-03-2024 20:00:00,19.786089,72.757971,OZONE,78,106,95
India,Maharashtra,Chandrapur,"Chauhan Colony, Chandrapur - MPCB",07-03-2024 20:00:00,19.962900,79.298714,NH3,2,4,3
India,Maharashtra,Chandrapur,"Chauhan Colony, Chandrapur - MPCB",07-03-2024 20:00:00,19.962900,79.298714,SO2,9,122,28
India,Maharashtra,Chandrapur,"Chauhan Colony, Chandrapur - MPCB",07-03-2024 20:00:00,19.962900,79.298714,CO,23,86,38
India,Maharashtra,Chandrapur,"MIDC Khutala, Chandrapur - MPCB",07-03-2024 20:00:00,19.9775302,79.2337086,SO2,NA,NA,NA
India,Maharashtra,Dhule,"Deopur, Dhule - MPCB",07-03-2024 20:00:00,20.918946,74.776388,NO2,6,46,16
India,Maharashtra,Jalgaon,"Prabhat Colony, Jalgaon - MPCB",07-03-2024 20:00:00,21.001264,75.565602,PM2.5,92,264,164
India,Maharashtra,Jalgaon,"Prabhat Colony, Jalgaon - MPCB",07-03-2024 20:00:00,21.001264,75.565602,NO2,17,104,37
India,Maharashtra,Jalgaon,"Prabhat Colony, Jalgaon - MPCB",07-03-2024 20:00:00,21.001264,75.565602,NH3,1,16,3
India,Maharashtra,Jalgaon,"Prabhat Colony, Jalgaon - MPCB",07-03-2024 20:00:00,21.001264,75.565602,OZONE,12,137,96
India,Maharashtra,Jalna,"Old MIDC, Jalna - MPCB",07-03-2024 20:00:00,19.854616,75.905894,NH3,6,8,7
India,Maharashtra,Jalna,"Old MIDC, Jalna - MPCB",07-03-2024 20:00:00,19.854616,75.905894,CO,20,34,24
India,Maharashtra,Kalyan,"Khadakpada, Kalyan - MPCB",07-03-2024 20:00:00,19.25292,73.142019,NH3,1,2,1
India,Maharashtra,Kolhapur,"Shivaji University, Kolhapur - MPCB",07-03-2024 20:00:00,16.6870449,74.2505872,PM10,76,222,108
India,Maharashtra,Kolhapur,"Shivaji University, Kolhapur - MPCB",07-03-2024 20:00:00,16.6870449,74.2505872,NH3,4,13,7
India,Maharashtra,Kolhapur,"Shivaji University, Kolhapur - MPCB",07-03-2024 20:00:00,16.6870449,74.2505872,CO,48,104,61
India,Maharashtra,Kolhapur,"Sinchan Bhavan, Kolhapur - MPCB",07-03-2024 20:00:00,16.7143745,74.2426398,CO,4,53,27
India,Maharashtra,Latur,"Sawe Wadi, Latur - MPCB",07-03-2024 20:00:00,18.39963,76.57452,PM2.5,14,130,68
India,Maharashtra,Mahad,"Kamble Tarf Birwadi, Mahad - MPCB",07-03-2024 20:00:00,18.1023399,73.4783687,SO2,7,111,30
India,Maharashtra,Mahad,"Kamble Tarf Birwadi, Mahad - MPCB",07-03-2024 20:00:00,18.1023399,73.4783687,OZONE,14,194,78
India,Maharashtra,Malegaon,"Mahesh Nagar, Malegaon - MPCB",07-03-2024 20:00:00,20.555712,74.529236,PM2.5,53,262,152
India,Maharashtra,Malegaon,"Mahesh Nagar, Malegaon - MPCB",07-03-2024 20:00:00,20.555712,74.529236,NH3,2,7,3
India,Maharashtra,Mira-Bhayandar,"Bhayandar West, Mira-Bhayandar - MPCB",07-03-2024 20:00:00,19.296481,72.840923,PM2.5,91,308,195
India,Maharashtra,Mira-Bhayandar,"Bhayandar West, Mira-Bhayandar - MPCB",07-03-2024 20:00:00,19.296481,72.840923,NH3,3,8,5
India,Maharashtra,Mumbai,"Bandra Kurla Complex, Mumbai - MPCB",07-03-2024 20:00:00,19.065931,72.862131,SO2,1,18,7
India,Maharashtra,Mumbai,"Bandra Kurla Complex, Mumbai - MPCB",07-03-2024 20:00:00,19.065931,72.862131,OZONE,2,76,69
India,Maharashtra,Mumbai,"Borivali East, Mumbai - MPCB",07-03-2024 20:00:00,19.2243333,72.8658113,NO2,8,59,20
India,Maharashtra,Mumbai,"Byculla, Mumbai - BMC",07-03-2024 20:00:00,18.9767,72.8380,NO2,23,91,52
India,Maharashtra,Mumbai,"Byculla, Mumbai - BMC",07-03-2024 20:00:00,18.9767,72.8380,SO2,4,38,13
India,Maharashtra,Mumbai,"Chakala-Andheri East, Mumbai - IITM",07-03-2024 20:00:00,19.11074,72.86084,SO2,5,39,20
India,Maharashtra,Mumbai,"Chembur, Mumbai - MPCB",07-03-2024 20:00:00,19.0364585,72.8954371,SO2,3,26,9
India,Maharashtra,Mumbai,"Colaba, Mumbai - MPCB",07-03-2024 20:00:00,18.910000,72.820000,NO2,18,28,22
India,Maharashtra,Mumbai,"Ghatkopar, Mumbai - BMC",07-03-2024 20:00:00,19.083694,72.920967,PM2.5,33,117,74
India,Maharashtra,Mumbai,"Ghatkopar, Mumbai - BMC",07-03-2024 20:00:00,19.083694,72.920967,OZONE,1,46,46
India,Maharashtra,Mumbai,"Kherwadi_Bandra East, Mumbai - MPCB",07-03-2024 20:00:00,19.0632143,72.8456324,SO2,11,43,19
India,Maharashtra,Mumbai,"Khindipada-Bhandup West, Mumbai - IITM",07-03-2024 20:00:00,19.1653323,72.922099,PM10,42,193,110
India,Maharashtra,Mumbai,"Khindipada-Bhandup West, Mumbai - IITM",07-03-2024 20:00:00,19.1653323,72.922099,NH3,10,42,16
India,Maharashtra,Mumbai,"Khindipada-Bhandup West, Mumbai - IITM",07-03-2024 20:00:00,19.1653323,72.922099,SO2,1,5,2
India,Maharashtra,Mumbai,"Kurla, Mumbai - MPCB",07-03-2024 20:00:00,19.0863,72.8888,PM2.5,40,219,98
India,Maharashtra,Mumbai,"Kurla, Mumbai - MPCB",07-03-2024 20:00:00,19.0863,72.8888,NO2,16,21,18
India,Maharashtra,Mumbai,"Kurla, Mumbai - MPCB",07-03-2024 20:00:00,19.0863,72.8888,NH3,2,2,2
India,Maharashtra,Mumbai,"Navy Nagar-Colaba, Mumbai - IITM",07-03-2024 20:00:00,18.897756,72.813320,SO2,5,112,34
India,Maharashtra,Mumbai,"Sewri, Mumbai - BMC",07-03-2024 20:00:00,19.000084,72.856730,SO2,6,49,16
India,Maharashtra,Mumbai,"Siddharth Nagar-Worli, Mumbai - IITM",07-03-2024 20:00:00,19.000083,72.813993,PM10,NA,NA,NA
India,Maharashtra,Mumbai,"Siddharth Nagar-Worli, Mumbai - IITM",07-03-2024 20:00:00,19.000083,72.813993,NH3,NA,NA,NA
India,Maharashtra,Mumbai,"Sion, Mumbai - MPCB",07-03-2024 20:00:00,19.047000,72.874600,NO2,23,100,54
India,Maharashtra,Mumbai,"Sion, Mumbai - MPCB",07-03-2024 20:00:00,19.047000,72.874600,NH3,1,2,1
India,Maharashtra,Mumbai,"Vasai West, Mumbai - MPCB",07-03-2024 20:00:00,19.383200,72.820400,SO2,16,29,25
India,Maharashtra,Mumbai,"Vasai West, Mumbai - MPCB",07-03-2024 20:00:00,19.383200,72.820400,OZONE,19,100,69
India,Maharashtra,Mumbai,"Vile Parle West, Mumbai - MPCB",07-03-2024 20:00:00,19.10861,72.83622,NO2,4,37,14
India,Maharashtra,Mumbai,"Vile Parle West, Mumbai - MPCB",07-03-2024 20:00:00,19.10861,72.83622,OZONE,4,4,4
India,Maharashtra,Nagpur,"Ambazari, Nagpur - MPCB",07-03-2024 20:00:00,21.121801,79.04952,PM2.5,38,86,65
India,Maharashtra,Nagpur,"Ambazari, Nagpur - MPCB",07-03-2024 20:00:00,21.121801,79.04952,NO2,1,93,29
India,Maharashtra,Nagpur,"Ambazari, Nagpur - MPCB",07-03-2024 20:00:00,21.121801,79.04952,NH3,3,5,3
India,Maharashtra,Nagpur,"Opp GPO Civil Lines, Nagpur - MPCB",07-03-2024 20:00:00,21.152875,79.0517531,PM10,46,124,85
India,Maharashtra,Nanded,"Sneh Nagar, Nanded - MPCB",07-03-2024 20:00:00,19.173852,77.296291,NH3,1,2,1
India,Maharashtra,Nanded,"Sneh Nagar, Nanded - MPCB",07-03-2024 20:00:00,19.173852,77.296291,CO,30,42,35
India,Maharashtra,Nashik,"Gangapur Road, Nashik - MPCB",07-03-2024 20:00:00,20.0073285,73.7762427,OZONE,11,58,40
India,Maharashtra,Nashik,"Hirawadi, Nashik - MPCB",07-03-2024 20:00:00,20.021503,73.813844,OZONE,12,161,56
India,Maharashtra,Nashik,"Pandav Nagari, Nashik - MPCB",07-03-2024 20:00:00,19.9591346,73.7788008,NH3,4,5,5
India,Maharashtra,Nashik,"Pandav Nagari, Nashik - MPCB",07-03-2024 20:00:00,19.9591346,73.7788008,OZONE,34,89,50
India,Maharashtra,Navi Mumbai,"Kopripada-Vashi, Navi Mumbai - MPCB",07-03-2024 20:00:00,19.090337,73.014232,PM2.5,30,306,138
India,Maharashtra,Navi Mumbai,"Kopripada-Vashi, Navi Mumbai - MPCB",07-03-2024 20:00:00,19.090337,73.014232,NH3,3,65,19
India,Maharashtra,Navi Mumbai,"Kopripada-Vashi, Navi Mumbai - MPCB",07-03-2024 20:00:00,19.090337,73.014232,SO2,10,72,37
India,Maharashtra,Navi Mumbai,"Mahape, Navi Mumbai - MPCB",07-03-2024 20:00:00,19.1135051,73.008978,NH3,3,5,3
India,Maharashtra,Navi Mumbai,"Nerul, Navi Mumbai - MPCB",07-03-2024 20:00:00,19.008751,73.016620,PM2.5,48,290,157
India,Maharashtra,Navi Mumbai,"Sanpada, Navi Mumbai - MPCB",07-03-2024 20:00:00,19.0575752,73.0151367,NO2,2,32,12
India,Maharashtra,Navi Mumbai,"Sanpada, Navi Mumbai - MPCB",07-03-2024 20:00:00,19.0575752,73.0151367,OZONE,1,146,75
India,Maharashtra,Navi Mumbai,"Sector-19A Nerul, Navi Mumbai - IITM",07-03-2024 20:00:00,19.044,73.0325,SO2,19,49,34
India,Maharashtra,Navi Mumbai,"Sector-19A Nerul, Navi Mumbai - IITM",07-03-2024 20:00:00,19.044,73.0325,CO,4,100,16
India,Maharashtra,Navi Mumbai,"Tondare-Taloja, Navi Mumbai - MPCB",07-03-2024 20:00:00,19.0630,73.1209,PM10,89,328,182
India,Maharashtra,Navi Mumbai,"Tondare-Taloja, Navi Mumbai - MPCB",07-03-2024 20:00:00,19.0630,73.1209,SO2,26,82,46
India,Maharashtra,Parbhani,"Masoom Colony, Parbhani - MPCB",07-03-2024 20:00:00,19.265594,76.761463,PM2.5,51,128,76
India,Maharashtra,Pimpri-Chinchwad,"Gavalinagar, Pimpri Chinchwad - MPCB",07-03-2024 20:00:00,18.63673,73.82487,CO,11,101,16
India,Maharashtra,Pimpri-Chinchwad,"Thergaon, Pimpri Chinchwad - MPCB",07-03-2024 20:00:00,18.616318,73.765797,SO2,5,21,11
India,Maharashtra,Pune,"Bhosari, Pune - IITM",07-03-2024 20:00:00,18.640051,73.848956,NO2,13,15,14
India,Maharashtra,Pune,"Bhosari, Pune - IITM",07-03-2024 20:00:00,18.640051,73.848956,OZONE,2,112,73
India,Maharashtra,Pune,"Katraj Dairy, Pune - MPCB",07-03-2024 20:00:00,18.454450,73.854155,PM2.5,NA,NA,NA
India,Maharashtra,Pune,"Katraj Dairy, Pune - MPCB",07-03-2024 20:00:00,18.454450,73.854155,NO2,NA,NA,NA
India,Maharashtra,Pune,"Katraj Dairy, Pune - MPCB",07-03-2024 20:00:00,18.454450,73.854155,SO2,NA,NA,NA
India,Maharashtra,Pune,"Katraj Dairy, Pune - MPCB",07-03-2024 20:00:00,18.454450,73.854155,OZONE,26,41,34
India,Maharashtra,Pune,"Mhada Colony, Pune - IITM",07-03-2024 20:00:00,18.573040,73.927715,PM2.5,35,121,76
India,Maharashtra,Pune,"Revenue Colony-Shivajinagar, Pune - IITM",07-03-2024 20:00:00,18.530085,73.849598,PM2.5,49,132,78
India,Maharashtra,Pune,"Revenue Colony-Shivajinagar, Pune - IITM",07-03-2024 20:00:00,18.530085,73.849598,SO2,58,110,87
India,Maharashtra,Pune,"Savitribai Phule Pune University, Pune - MPCB",07-03-2024 20:00:00,18.547056,73.826908,NH3,1,8,3
India,Maharashtra,Pune,"Savitribai Phule Pune University, Pune - MPCB",07-03-2024 20:00:00,18.547056,73.826908,SO2,2,13,6
India,Maharashtra,Sangli,"Vijay Nagar, Sangli - MPCB",07-03-2024 20:00:00, 16.5038,74.3623,NH3,1,3,2
India,Maharashtra,Sangli,"Vijay Nagar, Sangli - MPCB",07-03-2024 20:00:00, 16.5038,74.3623,SO2,7,38,17
India,Maharashtra,Solapur,"Dnyaneshwar Nagar, Solapur - MPCB",07-03-2024 20:00:00,17.6336264,75.9132495,PM10,69,287,133
India,Maharashtra,Solapur,"Dnyaneshwar Nagar, Solapur - MPCB",07-03-2024 20:00:00,17.6336264,75.9132495,NO2,8,132,40
India,Maharashtra,Solapur,"Ratandeep Housing Society, Solapur - MPCB",07-03-2024 20:00:00,17.65439,75.90649,NH3,10,23,13
India,Maharashtra,Solapur,"Solapur, Solapur - MPCB",07-03-2024 20:00:00,17.6599188,75.9063906,OZONE,58,67,64
India,Maharashtra,Thane,"Kasarvadavali, Thane - MPCB",07-03-2024 20:00:00,19.26777,72.97182,OZONE,3,160,134
India,Maharashtra,Thane,"Upvan Fort, Thane - MPCB",07-03-2024 20:00:00,19.222279,72.957979,PM10,77,165,113
India,Maharashtra,Ulhasnagar,"Sidhi Vinayak Nagar, Ulhasnagar - MPCB",07-03-2024 20:00:00,19.235581,73.159121,NO2,10,94,54
India,Maharashtra,Virar,"Bolinj, Virar - MPCB",07-03-2024 20:00:00,19.4458210,72.7988231,SO2,10,30,20
India,Manipur,Imphal,"DM College of Science, Imphal - Manipur PCB",07-03-2024 20:00:00,24.8207389,93.9423085,NO2,7,8,8
India,Meghalaya,Shillong,"Lumpyngngad, Shillong - Meghalaya PCB",07-03-2024 20:00:00,25.5586,91.8985,PM10,30,129,87
India,Meghalaya,Shillong,"Lumpyngngad, Shillong - Meghalaya PCB",07-03-2024 20:00:00,25.5586,91.8985,OZONE,55,90,74
India,Mizoram,Aizawl,"Sikulpuikawn, Aizawl - Mizoram PCB",07-03-2024 20:00:00,23.7176342,92.7192841,NH3,NA,NA,NA
India,Mizoram,Aizawl,"Sikulpuikawn, Aizawl - Mizoram PCB",07-03-2024 20:00:00,23.7176342,92.7192841,CO,10,17,14
India,Nagaland,Kohima,"PWD Juction, Kohima - NPCB",07-03-2024 20:00:00,25.6635413,94.0989878,PM2.5,65,304,132
India,Nagaland,Kohima,"PWD Juction, Kohima - NPCB",07-03-2024 20:00:00,25.6635413,94.0989878,CO,10,38,22
India,Odisha,Angul,"Hakimapada, Angul - OSPCB",07-03-2024 20:00:00,20.832874,85.104082,OZONE,10,132,87
India,Odisha,Barbil,"Forest Office, Barbil - OSPCB",07-03-2024 20:00:00,22.1166054,85.3945546,PM10,87,328,183
India,Odisha,Barbil,"Forest Office, Barbil - OSPCB",07-03-2024 20:00:00,22.1166054,85.3945546,NO2,4,11,8
India,Odisha,Bhubaneswar,"Lingraj Mandir, Bhubaneswar - OSPCB",07-03-2024 20:00:00,20.240790,85.836784,SO2,2,5,3
India,Odisha,Bhubaneswar,"Patia, Bhubaneswar - OSPCB",07-03-2024 20:00:00,20.34652,85.81630,NO2,7,42,17
India,Odisha,Bhubaneswar,"Patia, Bhubaneswar - OSPCB",07-03-2024 20:00:00,20.34652,85.81630,SO2,3,6,4
India,Odisha,Bileipada,"Tata Township, Bileipada - OSPCB",07-03-2024 20:00:00,22.06156703,85.47409613,CO,18,34,27
India,Odisha,Brajrajnagar,"GM Office, Brajrajnagar - OSPCB",07-03-2024 20:00:00,21.8004996,83.8396977,PM2.5,13,203,53
India,Odisha,Brajrajnagar,"GM Office, Brajrajnagar - OSPCB",07-03-2024 20:00:00,21.8004996,83.8396977,PM10,19,174,61
India,Odisha,Brajrajnagar,"GM Office, Brajrajnagar - OSPCB",07-03-2024 20:00:00,21.8004996,83.8396977,OZONE,19,21,19
India,Odisha,Byasanagar,"Ferro Chrome Colony, Byasanagar - OSPCB",07-03-2024 20:00:00,20.94185,86.11510,PM10,77,121,99
India,Odisha,Byasanagar,"Ferro Chrome Colony, Byasanagar - OSPCB",07-03-2024 20:00:00,20.94185,86.11510,NO2,10,20,14
India,Odisha,Nayagarh,"Dabuna, Nayagarh - OSPCB",07-03-2024 20:00:00,21.847279,85.416905,SO2,2,9,4
India,Odisha,Suakati,"OMC Colony, Suakati - OSPCB",07-03-2024 20:00:00,21.606865,85.510538,PM2.5,20,134,101
India,Odisha,Suakati,"OMC Colony, Suakati - OSPCB",07-03-2024 20:00:00,21.606865,85.510538,NO2,NA,NA,NA
India,Odisha,Suakati,"OMC Colony, Suakati - OSPCB",07-03-2024 20:00:00,21.606865,85.510538,OZONE,22,322,95
India,Odisha,Talcher,"Talcher Coalfields,Talcher - OSPCB",07-03-2024 20:00:00,20.9360711,85.1707021,NO2,38,42,40
India,Odisha,Tensa,"Barsua Iron Ore Mines, Tensa - OSPCB",07-03-2024 20:00:00,21.869985,85.167016,CO,14,28,21
India,Puducherry,Puducherry,"Jawahar Nagar, Puducherry - PPCC",07-03-2024 20:00:00,11.9309,79.8027,SO2,3,10,7
India,Punjab,Amritsar,"Golden Temple, Amritsar - PPCB",07-03-2024 20:00:00,31.620000,74.876512,PM10,73,155,103
India,Punjab,Amritsar,"Golden Temple, Amritsar - PPCB",07-03-2024 20:00:00,31.620000,74.876512,OZONE,27,34,31
India,Punjab,Bathinda,"Hardev Nagar, Bathinda - PPCB",07-03-2024 20:00:00,30.233011,74.907758,CO,2,97,19
India,Punjab,Khanna,"Kalal Majra, Khanna - PPCB",07-03-2024 20:00:00,30.736056 ,76.209694,SO2,4,24,11
India,Punjab,Khanna,"Kalal Majra, Khanna - PPCB",07-03-2024 20:00:00,30.736056 ,76.209694,CO,27,44,32
India,Punjab,Ludhiana,"Punjab Agricultural University, Ludhiana - PPCB",07-03-2024 20:00:00,30.9028,75.8086,SO2,7,31,12
India,Punjab,Patiala,"Model Town, Patiala - PPCB",07-03-2024 20:00:00,30.349388,76.366642,NO2,11,27,19
India,Punjab,Rupnagar,"Ratanpura, Rupnagar - Ambuja Cements",07-03-2024 20:00:00,31.0325454,76.5623046,CO,26,68,42
India,Rajasthan,Alwar,"Moti Doongri, Alwar - RSPCB",07-03-2024 20:00:00,27.554793,76.611536,NH3,5,8,6
India,Rajasthan,Alwar,"Moti Doongri, Alwar - RSPCB",07-03-2024 20:00:00,27.554793,76.611536,CO,7,82,33
India,Rajasthan,Banswara,"Rati Talai, Banswara - RSPCB",07-03-2024 20:00:00,23.555190,74.440010,CO,14,98,32
India,Rajasthan,Baran,"Bamboliya, Baran - RSPCB",07-03-2024 20:00:00,25.106006,76.469948,CO,28,78,64
India,Rajasthan,Barmer,"Railway Colony, Barmer - RSPCB",07-03-2024 20:00:00,25.747299,71.393989,SO2,6,105,14
India,Rajasthan,Bhilwara,"Pratap Nagar, Bhilwara - RSPCB",07-03-2024 20:00:00,25.339605,74.618883,CO,15,80,25
India,Rajasthan,Bhiwadi,"RIICO Ind. Area III, Bhiwadi - RSPCB",07-03-2024 20:00:00,28.194909,76.862296,NH3,6,16,9
India,Rajasthan,Bikaner,"MM Ground, Bikaner - RSPCB",07-03-2024 20:00:00,28.018792,73.292658,PM2.5,25,316,88
India,Rajasthan,Bikaner,"MM Ground, Bikaner - RSPCB",07-03-2024 20:00:00,28.018792,73.292658,PM10,75,429,175
India,Rajasthan,Bikaner,"MM Ground, Bikaner - RSPCB",07-03-2024 20:00:00,28.018792,73.292658,SO2,1,13,4
India,Rajasthan,Bikaner,"MM Ground, Bikaner - RSPCB",07-03-2024 20:00:00,28.018792,73.292658,OZONE,1,90,81
India,Rajasthan,Bundi,"New Colony, Bundi - RSPCB",07-03-2024 20:00:00,25.435774,75.644272,PM2.5,34,163,69
India,Rajasthan,Bundi,"New Colony, Bundi - RSPCB",07-03-2024 20:00:00,25.435774,75.644272,PM10,55,202,111
India,Rajasthan,Churu,"Subash Chowk, Churu - RSPCB",07-03-2024 20:00:00,28.296139,74.961696,NO2,8,45,22
India,Rajasthan,Churu,"Subash Chowk, Churu - RSPCB",07-03-2024 20:00:00,28.296139,74.961696,SO2,5,20,12
India,Rajasthan,Churu,"Subash Chowk, Churu - RSPCB",07-03-2024 20:00:00,28.296139,74.961696,OZONE,54,118,104
India,Rajasthan,Dausa,"Khatikan Mohalla, Dausa - RSPCB",07-03-2024 20:00:00,26.895552,76.334753,PM10,104,162,124
India,Rajasthan,Dungarpur,"Bhoiwada, Dungarpur - RSPCB",07-03-2024 20:00:00,23.837789,73.714926,PM2.5,27,72,47
India,Rajasthan,Dungarpur,"Bhoiwada, Dungarpur - RSPCB",07-03-2024 20:00:00,23.837789,73.714926,CO,7,78,20
India,Rajasthan,Hanumangarh,"Housing Board, Hanumangarh - RSPCB",07-03-2024 20:00:00,29.610750,74.283608,PM2.5,55,332,206
India,Rajasthan,Hanumangarh,"Housing Board, Hanumangarh - RSPCB",07-03-2024 20:00:00,29.610750,74.283608,NO2,21,110,43
India,Rajasthan,Hanumangarh,"Housing Board, Hanumangarh - RSPCB",07-03-2024 20:00:00,29.610750,74.283608,CO,14,104,22
India,Rajasthan,Jaipur,"Adarsh Nagar, Jaipur - RSPCB",07-03-2024 20:00:00,26.902909,75.836858,PM10,51,132,85
India,Rajasthan,Jaipur,"Mansarovar Sector-12, Jaipur - RSPCB",07-03-2024 20:00:00,26.843698,75.766894,NO2,NA,NA,NA
India,Rajasthan,Jaipur,"Mansarovar Sector-12, Jaipur - RSPCB",07-03-2024 20:00:00,26.843698,75.766894,NH3,NA,NA,NA
India,Rajasthan,Jaipur,"Mansarovar Sector-12, Jaipur - RSPCB",07-03-2024 20:00:00,26.843698,75.766894,SO2,NA,NA,NA
India,Rajasthan,Jaipur,"Mansarovar Sector-12, Jaipur - RSPCB",07-03-2024 20:00:00,26.843698,75.766894,CO,6,79,42
India,Rajasthan,Jaipur,"Police Commissionerate, Jaipur - RSPCB",07-03-2024 20:00:00,26.9164092,75.7994901,PM10,74,185,116
India,Rajasthan,Jaipur,"Police Commissionerate, Jaipur - RSPCB",07-03-2024 20:00:00,26.9164092,75.7994901,NO2,23,108,61
India,Rajasthan,Jaipur,"Police Commissionerate, Jaipur - RSPCB",07-03-2024 20:00:00,26.9164092,75.7994901,SO2,14,26,19
India,Rajasthan,Jaipur,"Police Commissionerate, Jaipur - RSPCB",07-03-2024 20:00:00,26.9164092,75.7994901,CO,26,200,82
India,Rajasthan,Jaipur,"RIICO Sitapura, Jaipur - RSPCB",07-03-2024 20:00:00,26.786682,75.827928,CO,9,115,38
India,Rajasthan,Jaipur,"RIICO Sitapura, Jaipur - RSPCB",07-03-2024 20:00:00,26.786682,75.827928,OZONE,1,98,70
India,Rajasthan,Jaipur,"Sector-2 Murlipura, Jaipur - RSPCB",07-03-2024 20:00:00,26.960669,75.771817,PM10,67,199,128
India,Rajasthan,Jaipur,"Sector-2 Murlipura, Jaipur - RSPCB",07-03-2024 20:00:00,26.960669,75.771817,NO2,10,34,19
India,Rajasthan,Jaipur,"Sector-2 Murlipura, Jaipur - RSPCB",07-03-2024 20:00:00,26.960669,75.771817,CO,4,106,32
India,Rajasthan,Jaipur,"Shastri Nagar, Jaipur - RSPCB",07-03-2024 20:00:00,26.9502929,75.730943,CO,20,88,37
India,Rajasthan,Jaisalmer,"Sadar Bazar, Jaisalmer - RSPCB",07-03-2024 20:00:00,26.912329,70.909168,OZONE,38,102,92
India,Rajasthan,Jalore,"Mudtra Sili, Jalore - RSPCB",07-03-2024 20:00:00,25.344694,72.626208,NO2,13,124,58
India,Rajasthan,Jhalawar,"Rajlaxmi Nagar, Jhalawar - RSPCB",07-03-2024 20:00:00,24.588397,76.172782,PM10,44,170,96
India,Rajasthan,Jhalawar,"Rajlaxmi Nagar, Jhalawar - RSPCB",07-03-2024 20:00:00,24.588397,76.172782,SO2,9,33,16
India,Rajasthan,Jhalawar,"Rajlaxmi Nagar, Jhalawar - RSPCB",07-03-2024 20:00:00,24.588397,76.172782,CO,28,82,32
India,Rajasthan,Jodhpur,"Collectorate, Jodhpur - RSPCB",07-03-2024 20:00:00,26.268249,73.0193853,CO,24,94,59
India,Rajasthan,Jodhpur,"Digari Kalan, Jodhpur - RSPCB",07-03-2024 20:00:00,26.295810,73.082283,CO,12,71,15
India,Rajasthan,Jodhpur,"Jhalamand, Jodhpur - RSPCB",07-03-2024 20:00:00,26.215415,73.070156,NO2,29,62,39
India,Rajasthan,Jodhpur,"Jhalamand, Jodhpur - RSPCB",07-03-2024 20:00:00,26.215415,73.070156,OZONE,25,85,61
India,Rajasthan,Jodhpur,"Mandor, Jodhpur - RSPCB",07-03-2024 20:00:00,26.358805,73.047444,NO2,17,57,33
India,Rajasthan,Jodhpur,"Samrat Ashok Udhyan, Jodhpur - RSPCB",07-03-2024 20:00:00,26.253384,72.976571,PM2.5,7,321,67
India,Rajasthan,Karauli,"Satyawati Vihar, Karauli - RSPCB",07-03-2024 20:00:00,26.506177,77.025989,NO2,NA,NA,NA
India,Rajasthan,Kota,"Nayapura, Kota - RSPCB",07-03-2024 20:00:00,25.196024,75.855668,CO,18,120,38
India,Rajasthan,Kota,"Shrinath Puram, Kota - RSPCB",07-03-2024 20:00:00,25.14389,75.821256,NH3,8,22,12
India,Rajasthan,Kota,"Shrinath Puram, Kota - RSPCB",07-03-2024 20:00:00,25.14389,75.821256,SO2,6,24,11
India,Rajasthan,Nagaur,"Karni Colony, Nagaur - RSPCB",07-03-2024 20:00:00,27.213494,73.734444,PM10,51,490,184
India,Rajasthan,Pali,"Indira Colony Vistar, Pali - RSPCB",07-03-2024 20:00:00,25.771061, 73.340227,PM10,53,132,91
India,Rajasthan,Pali,"Indira Colony Vistar, Pali - RSPCB",07-03-2024 20:00:00,25.771061, 73.340227,NH3,6,17,14
India,Rajasthan,Rajsamand,"Dhoinda, Rajsamand - RSPCB",07-03-2024 20:00:00,25.036360,73.883502,PM10,26,115,63
India,Rajasthan,Rajsamand,"Dhoinda, Rajsamand - RSPCB",07-03-2024 20:00:00,25.036360,73.883502,NH3,4,4,4
India,Rajasthan,Sawai Madhopur,"Sahu Nagar, Sawai Madhopur - RSPCB",07-03-2024 20:00:00,26.031443,76.359327,PM10,50,125,82
India,Rajasthan,Sikar,"Radhakishan Pura, Sikar - RSPCB",07-03-2024 20:00:00,27.608912,75.153302,OZONE,6,117,103
India,Rajasthan,Sirohi,"Vedhaynath Colony, Sirohi - RSPCB",07-03-2024 20:00:00,24.885261,72.857549,NH3,3,10,6
India,Rajasthan,Sirohi,"Vedhaynath Colony, Sirohi - RSPCB",07-03-2024 20:00:00,24.885261,72.857549,SO2,9,20,12
India,Rajasthan,Sri Ganganagar,"Old City, Sri Ganganagar - RSPCB",07-03-2024 20:00:00,29.931624,73.864511,CO,56,135,78
India,Rajasthan,Sri Ganganagar,"Old City, Sri Ganganagar - RSPCB",07-03-2024 20:00:00,29.931624,73.864511,OZONE,2,108,79
India,Rajasthan,Tonk,"Shastri Nagar, Tonk - RSPCB",07-03-2024 20:00:00,26.159933,75.780517,CO,10,46,25
India,Rajasthan,Tonk,"Shastri Nagar, Tonk - RSPCB",07-03-2024 20:00:00,26.159933,75.780517,OZONE,9,97,48
India,Rajasthan,Udaipur,"Ashok Nagar, Udaipur - RSPCB",07-03-2024 20:00:00,24.5886166,73.6321397,NO2,66,132,92
India,Rajasthan,Udaipur,"Ashok Nagar, Udaipur - RSPCB",07-03-2024 20:00:00,24.5886166,73.6321397,CO,14,80,43
India,Sikkim,Gangtok,"Zero Point GICI, Gangtok - SSPCB",07-03-2024 20:00:00,27.338530,88.614099,PM2.5,29,39,35
India,TamilNadu,Ariyalur,"Keelapalur, Ariyalur - TNPCB",07-03-2024 20:00:00,11.06825,79.07033,PM10,NA,NA,NA
India,TamilNadu,Chengalpattu,"Crescent University, Chengalpattu - TNPCB",07-03-2024 20:00:00,12.8777316,80.0834807,SO2,24,27,25
India,TamilNadu,Chengalpattu,"Crescent University, Chengalpattu - TNPCB",07-03-2024 20:00:00,12.8777316,80.0834807,OZONE,6,6,6
India,TamilNadu,Chennai,"Arumbakkam, Chennai - TNPCB",07-03-2024 20:00:00,13.0664,80.2112 ,PM2.5,30,73,43
India,TamilNadu,Chennai,"Arumbakkam, Chennai - TNPCB",07-03-2024 20:00:00,13.0664,80.2112 ,PM10,41,116,70
India,TamilNadu,Chennai,"Kodungaiyur, Chennai - TNPCB",07-03-2024 20:00:00,13.1278,80.2642,NH3,3,5,4
India,TamilNadu,Chennai,"Manali, Chennai - CPCB",07-03-2024 20:00:00,13.164544,80.26285,SO2,3,16,8
India,TamilNadu,Chennai,"Manali, Chennai - CPCB",07-03-2024 20:00:00,13.164544,80.26285,OZONE,6,9,6
India,TamilNadu,Chennai,"Perungudi, Chennai - TNPCB",07-03-2024 20:00:00,12.9533,80.2357,NO2,4,11,7
India,TamilNadu,Chennai,"Perungudi, Chennai - TNPCB",07-03-2024 20:00:00,12.9533,80.2357,OZONE,3,7,7
India,TamilNadu,Chennai,"Velachery Res. Area, Chennai - CPCB",07-03-2024 20:00:00,13.0052189,80.2398125,PM10,65,111,86
India,TamilNadu,Chennai,"Velachery Res. Area, Chennai - CPCB",07-03-2024 20:00:00,13.0052189,80.2398125,NH3,3,45,15
India,TamilNadu,Coimbatore,"PSG College of Arts and Science, Coimbatore - TNPCB",07-03-2024 20:00:00,11.0328,77.0349,NH3,NA,NA,NA
India,TamilNadu,Coimbatore,"PSG College of Arts and Science, Coimbatore - TNPCB",07-03-2024 20:00:00,11.0328,77.0349,SO2,NA,NA,NA
India,TamilNadu,Cuddalore,"Kudikadu, Cuddalore - TNPCB",07-03-2024 20:00:00,11.6829898,79.7532099,SO2,NA,NA,NA
India,TamilNadu,Cuddalore,"Semmandalam, Cuddalore - TNPCB",07-03-2024 20:00:00,11.7637683,79.7499835,PM2.5,14,179,60
India,TamilNadu,Cuddalore,"Semmandalam, Cuddalore - TNPCB",07-03-2024 20:00:00,11.7637683,79.7499835,PM10,10,103,42
India,TamilNadu,Ooty,"Bombay Castel, Ooty - TNPCB",07-03-2024 20:00:00,11.4068288,76.7138973,NH3,NA,NA,NA
India,TamilNadu,Ooty,"Bombay Castel, Ooty - TNPCB",07-03-2024 20:00:00,11.4068288,76.7138973,CO,19,21,21
India,TamilNadu,Thoothukudi,"Meelavittan, Thoothukudi - TNPCB",07-03-2024 20:00:00,8.816428 ,78.099039,SO2,8,17,12
India,TamilNadu,Vellore,"Vasanthapuram, Vellore - TNPCB",07-03-2024 20:00:00,12.909494,79.131861,CO,17,20,18
India,Telangana,Hyderabad,"Bollaram Industrial Area, Hyderabad - TSPCB",07-03-2024 20:00:00,17.540891,78.358528,PM10,80,147,111
India,Telangana,Hyderabad,"Bollaram Industrial Area, Hyderabad - TSPCB",07-03-2024 20:00:00,17.540891,78.358528,NH3,2,10,3
India,Telangana,Hyderabad,"Central University, Hyderabad - TSPCB",07-03-2024 20:00:00,17.460103,78.334361,NH3,2,13,6
India,Telangana,Hyderabad,"ECIL Kapra, Hyderabad - TSPCB",07-03-2024 20:00:00,17.470431,78.566959,PM10,63,82,72
India,Telangana,Hyderabad,"ECIL Kapra, Hyderabad - TSPCB",07-03-2024 20:00:00,17.470431,78.566959,CO,21,50,33
India,Telangana,Hyderabad,"ICRISAT Patancheru, Hyderabad - TSPCB",07-03-2024 20:00:00,17.518400,78.278777,OZONE,11,126,115
India,Telangana,Hyderabad,"Kokapet, Hyderabad - TSPCB",07-03-2024 20:00:00,17.393559,78.339194,SO2,7,11,10
India,Telangana,Hyderabad,"Kompally Municipal Office, Hyderabad - TSPCB",07-03-2024 20:00:00,17.544899,78.486949,NH3,NA,NA,NA
India,Telangana,Hyderabad,"Kompally Municipal Office, Hyderabad - TSPCB",07-03-2024 20:00:00,17.544899,78.486949,CO,4,84,29
India,Telangana,Hyderabad,"Kompally Municipal Office, Hyderabad - TSPCB",07-03-2024 20:00:00,17.544899,78.486949,OZONE,1,148,121
India,Telangana,Hyderabad,"Somajiguda, Hyderabad - TSPCB",07-03-2024 20:00:00,17.417094,78.457437,CO,8,57,30
India,Telangana,Hyderabad,"Zoo Park, Hyderabad - TSPCB",07-03-2024 20:00:00,17.349694,78.451437,PM2.5,41,93,67
India,Tripura,Agartala,"Bardowali, Agartala - Tripura SPCB",07-03-2024 20:00:00,23.8175497,91.2726974,OZONE,1,46,23
India,Uttar_Pradesh,Agra,"Manoharpur, Agra - UPPCB",07-03-2024 20:00:00,27.23711,78.01936,SO2,14,17,15
India,Uttar_Pradesh,Agra,"Rohta, Agra - UPPCB",07-03-2024 20:00:00,27.106972,78.000111,NH3,2,2,2
India,Uttar_Pradesh,Agra,"Rohta, Agra - UPPCB",07-03-2024 20:00:00,27.106972,78.000111,SO2,1,15,7
India,Uttar_Pradesh,Agra,"Rohta, Agra - UPPCB",07-03-2024 20:00:00,27.106972,78.000111,OZONE,18,22,20
India,Uttar_Pradesh,Agra,"Sanjay Palace, Agra - UPPCB",07-03-2024 20:00:00,27.19865833,78.00598056,CO,2,89,52
India,Uttar_Pradesh,Agra,"Sector-3B Avas Vikas Colony, Agra - UPPCB",07-03-2024 20:00:00,27.19412,77.96237,NH3,2,5,4
India,Uttar_Pradesh,Agra,"Shahjahan Garden, Agra - UPPCB",07-03-2024 20:00:00,27.169338,78.03582,PM2.5,27,324,180
India,Uttar_Pradesh,Agra,"Shahjahan Garden, Agra - UPPCB",07-03-2024 20:00:00,27.169338,78.03582,PM10,42,196,118
India,Uttar_Pradesh,Agra,"Shastripuram, Agra - UPPCB",07-03-2024 20:00:00,27.19862,77.92066,NH3,1,10,1
India,Uttar_Pradesh,Baghpat,"Sardar Patel Inter College, Baghpat - UPPCB",07-03-2024 20:00:00,28.964949,77.278761,PM2.5,31,208,81
India,Uttar_Pradesh,Bareilly,"Civil Lines, Bareilly - UPPCB",07-03-2024 20:00:00,28.359581,79.414455,PM10,36,80,58
India,Uttar_Pradesh,Firozabad,"Nagla Bhau, Firozabad - UPPCB",07-03-2024 20:00:00,27.168897,78.376960,NH3,2,2,2
India,Uttar_Pradesh,Ghaziabad,"Indirapuram, Ghaziabad - UPPCB",07-03-2024 20:00:00,28.646233,77.358075,PM2.5,28,286,100
India,Uttar_Pradesh,Ghaziabad,"Indirapuram, Ghaziabad - UPPCB",07-03-2024 20:00:00,28.646233,77.358075,NO2,35,80,59
India,Uttar_Pradesh,Ghaziabad,"Indirapuram, Ghaziabad - UPPCB",07-03-2024 20:00:00,28.646233,77.358075,OZONE,7,77,55
India,Uttar_Pradesh,Ghaziabad,"Loni, Ghaziabad - UPPCB",07-03-2024 20:00:00,28.757294,77.278792,PM10,90,197,132
India,Uttar_Pradesh,Ghaziabad,"Sanjay Nagar, Ghaziabad - UPPCB",07-03-2024 20:00:00,28.685382,77.453839,NO2,NA,NA,NA
India,Uttar_Pradesh,Ghaziabad,"Sanjay Nagar, Ghaziabad - UPPCB",07-03-2024 20:00:00,28.685382,77.453839,CO,18,78,44
India,Uttar_Pradesh,Ghaziabad,"Vasundhara, Ghaziabad - UPPCB",07-03-2024 20:00:00,28.6603346,77.3572563,CO,1,69,32
India,Uttar_Pradesh,Gorakhpur,"Madan Mohan Malaviya University of Technology, Gorakhpur - UPPCB",07-03-2024 20:00:00,26.730136,83.433859,PM2.5,58,200,111
India,Uttar_Pradesh,Gorakhpur,"Madan Mohan Malaviya University of Technology, Gorakhpur - UPPCB",07-03-2024 20:00:00,26.730136,83.433859,CO,17,26,22
India,Uttar_Pradesh,Gorakhpur,"Madan Mohan Malaviya University of Technology, Gorakhpur - UPPCB",07-03-2024 20:00:00,26.730136,83.433859,OZONE,18,56,47
India,Uttar_Pradesh,Greater Noida,"Knowledge Park - III, Greater Noida - UPPCB",07-03-2024 20:00:00,28.47272,77.482000,CO,35,88,47
India,Uttar_Pradesh,Greater Noida,"Knowledge Park - III, Greater Noida - UPPCB",07-03-2024 20:00:00,28.47272,77.482000,OZONE,1,186,133
India,Uttar_Pradesh,Greater Noida,"Knowledge Park - V, Greater Noida - UPPCB",07-03-2024 20:00:00,28.557054,77.453663,PM2.5,41,279,130
India,Uttar_Pradesh,Greater Noida,"Knowledge Park - V, Greater Noida - UPPCB",07-03-2024 20:00:00,28.557054,77.453663,OZONE,7,172,112
India,Uttar_Pradesh,Jhansi,"Shivaji Nagar, Jhansi - UPPCB",07-03-2024 20:00:00,25.4547,78.6039,PM2.5,22,478,85
India,Uttar_Pradesh,Jhansi,"Shivaji Nagar, Jhansi - UPPCB",07-03-2024 20:00:00,25.4547,78.6039,PM10,18,435,73
India,Uttar_Pradesh,Jhansi,"Shivaji Nagar, Jhansi - UPPCB",07-03-2024 20:00:00,25.4547,78.6039,OZONE,1,35,15
India,Uttar_Pradesh,Kanpur,"FTI Kidwai Nagar, Kanpur - UPPCB",07-03-2024 20:00:00,26.428282,80.327067,PM2.5,12,83,60
India,Uttar_Pradesh,Kanpur,"NSI Kalyanpur, Kanpur - UPPCB",07-03-2024 20:00:00,26.509954,80.249612,PM2.5,33,92,65
India,Uttar_Pradesh,Kanpur,"NSI Kalyanpur, Kanpur - UPPCB",07-03-2024 20:00:00,26.509954,80.249612,PM10,61,150,102
India,Uttar_Pradesh,Khurja,"Kalindi Kunj, Khurja - UPPCB",07-03-2024 20:00:00,28.2348927,77.8683002,CO,26,57,42
India,Uttar_Pradesh,Lucknow,"Gomti Nagar, Lucknow - UPPCB",07-03-2024 20:00:00,26.868120,81.005119,PM2.5,40,136,73
India,Uttar_Pradesh,Lucknow,"Gomti Nagar, Lucknow - UPPCB",07-03-2024 20:00:00,26.868120,81.005119,OZONE,26,37,35
India,Uttar_Pradesh,Lucknow,"Kukrail Picnic Spot-1, Lucknow - UPPCB",07-03-2024 20:00:00,26.90723,80.98579,PM10,34,75,53
India,Uttar_Pradesh,Lucknow,"Kukrail Picnic Spot-1, Lucknow - UPPCB",07-03-2024 20:00:00,26.90723,80.98579,NH3,2,2,2
India,Uttar_Pradesh,Lucknow,"Lalbagh, Lucknow - CPCB",07-03-2024 20:00:00,26.8458805,80.9365541,PM2.5,5,109,72
India,Uttar_Pradesh,Lucknow,"Lalbagh, Lucknow - CPCB",07-03-2024 20:00:00,26.8458805,80.9365541,CO,29,82,42
India,Uttar_Pradesh,Lucknow,"Lalbagh, Lucknow - CPCB",07-03-2024 20:00:00,26.8458805,80.9365541,OZONE,21,73,61
India,Uttar_Pradesh,Lucknow,"Talkatora District Industries Center, Lucknow - CPCB",07-03-2024 20:00:00,26.83399722,80.8917361,NO2,21,48,35
India,Uttar_Pradesh,Meerut,"Ganga Nagar, Meerut - UPPCB",07-03-2024 20:00:00,28.999264,77.7590354,SO2,19,43,28
India,Uttar_Pradesh,Meerut,"Jai Bhim Nagar, Meerut - UPPCB",07-03-2024 20:00:00,28.9535882,77.7622941,PM2.5,36,98,62
India,Uttar_Pradesh,Meerut,"Pallavpuram Phase 2, Meerut - UPPCB",07-03-2024 20:00:00,29.063510,77.709723,PM2.5,34,205,91
India,Uttar_Pradesh,Moradabad,"Buddhi Vihar, Moradabad - UPPCB",07-03-2024 20:00:00,28.83526,78.74460,NH3,2,2,2
India,Uttar_Pradesh,Moradabad,"Eco Herbal Park, Moradabad - UPPCB",07-03-2024 20:00:00,28.840739,78.697531,SO2,3,39,20
India,Uttar_Pradesh,Moradabad,"Employment Office, Moradabad - UPPCB",07-03-2024 20:00:00,28.88528,78.73880,PM10,58,150,90
India,Uttar_Pradesh,Moradabad,"Employment Office, Moradabad - UPPCB",07-03-2024 20:00:00,28.88528,78.73880,SO2,25,33,27
India,Uttar_Pradesh,Moradabad,"Employment Office, Moradabad - UPPCB",07-03-2024 20:00:00,28.88528,78.73880,OZONE,14,79,46
India,Uttar_Pradesh,Moradabad,"Jigar Colony, Moradabad - UPPCB",07-03-2024 20:00:00,28.856664,78.772638,CO,5,41,20
India,Uttar_Pradesh,Moradabad,"Kashiram Nagar, Moradabad - UPPCB",07-03-2024 20:00:00,28.849399,78.742362,CO,26,42,30
India,Uttar_Pradesh,Moradabad,"Transport Nagar, Moradabad - UPPCB",07-03-2024 20:00:00,28.802625,78.753728,PM2.5,22,87,51
India,Uttar_Pradesh,Moradabad,"Transport Nagar, Moradabad - UPPCB",07-03-2024 20:00:00,28.802625,78.753728,PM10,41,95,63
India,Uttar_Pradesh,Muzaffarnagar,"New Mandi, Muzaffarnagar - UPPCB",07-03-2024 20:00:00,29.4723508,77.7194031,PM2.5,42,339,177
India,Uttar_Pradesh,Muzaffarnagar,"New Mandi, Muzaffarnagar - UPPCB",07-03-2024 20:00:00,29.4723508,77.7194031,NO2,8,10,9
India,Uttar_Pradesh,Muzaffarnagar,"New Mandi, Muzaffarnagar - UPPCB",07-03-2024 20:00:00,29.4723508,77.7194031,NH3,4,5,4
India,Uttar_Pradesh,Muzaffarnagar,"New Mandi, Muzaffarnagar - UPPCB",07-03-2024 20:00:00,29.4723508,77.7194031,SO2,20,63,34
India,Uttar_Pradesh,Noida,"Sector - 62, Noida - IMD",07-03-2024 20:00:00,28.6245479,77.3577104,CO,18,30,20
India,Uttar_Pradesh,Noida,"Sector - 62, Noida - IMD",07-03-2024 20:00:00,28.6245479,77.3577104,OZONE,2,33,24
India,Uttar_Pradesh,Noida,"Sector-1, Noida - UPPCB",07-03-2024 20:00:00,28.5898,77.3101,NH3,2,5,3
India,Uttar_Pradesh,Noida,"Sector-1, Noida - UPPCB",07-03-2024 20:00:00,28.5898,77.3101,SO2,5,20,10
India,Uttar_Pradesh,Noida,"Sector-1, Noida - UPPCB",07-03-2024 20:00:00,28.5898,77.3101,OZONE,1,143,102
India,Uttar_Pradesh,Noida,"Sector-116, Noida - UPPCB",07-03-2024 20:00:00,28.569230,77.393848,NO2,25,89,55
India,Uttar_Pradesh,Noida,"Sector-116, Noida - UPPCB",07-03-2024 20:00:00,28.569230,77.393848,SO2,19,51,36
India,Uttar_Pradesh,Prayagraj,"Motilal Nehru NIT, Prayagraj - UPPCB",07-03-2024 20:00:00,25.494,81.863,PM2.5,14,50,32
India,Uttar_Pradesh,Prayagraj,"Motilal Nehru NIT, Prayagraj - UPPCB",07-03-2024 20:00:00,25.494,81.863,PM10,26,138,65
India,Uttar_Pradesh,Prayagraj,"Motilal Nehru NIT, Prayagraj - UPPCB",07-03-2024 20:00:00,25.494,81.863,NH3,6,7,6
India,Uttar_Pradesh,Prayagraj,"Motilal Nehru NIT, Prayagraj - UPPCB",07-03-2024 20:00:00,25.494,81.863,SO2,18,21,19
India,Uttar_Pradesh,Varanasi,"Ardhali Bazar, Varanasi - UPPCB",07-03-2024 20:00:00,25.3505986,82.9083074,PM2.5,9,30,21
India,Uttar_Pradesh,Varanasi,"Ardhali Bazar, Varanasi - UPPCB",07-03-2024 20:00:00,25.3505986,82.9083074,CO,6,15,9
India,Uttar_Pradesh,Varanasi,"Ardhali Bazar, Varanasi - UPPCB",07-03-2024 20:00:00,25.3505986,82.9083074,OZONE,22,26,23
India,Uttar_Pradesh,Varanasi,"Bhelupur, Varanasi - UPPCB",07-03-2024 20:00:00,25.301778,82.996789,PM2.5,5,16,10
India,Uttar_Pradesh,Varanasi,"Bhelupur, Varanasi - UPPCB",07-03-2024 20:00:00,25.301778,82.996789,NO2,8,8,8
India,Uttar_Pradesh,Varanasi,"IESD Banaras Hindu University, Varanasi - UPPCB",07-03-2024 20:00:00,25.262326,82.995408,PM10,15,39,27
India,Uttar_Pradesh,Varanasi,"IESD Banaras Hindu University, Varanasi - UPPCB",07-03-2024 20:00:00,25.262326,82.995408,NO2,2,2,2
India,Uttar_Pradesh,Vrindavan,"Omex Eternity, Vrindavan - UPPCB",07-03-2024 20:00:00,27.5714090,77.6557570,NH3,2,3,2
India,Uttar_Pradesh,Vrindavan,"Omex Eternity, Vrindavan - UPPCB",07-03-2024 20:00:00,27.5714090,77.6557570,OZONE,29,32,31
India,Uttarakhand,Dehradun,"Doon University, Dehradun - UKPCB",07-03-2024 20:00:00,30.269444,78.044167,PM10,56,108,84
India,Uttarakhand,Dehradun,"Doon University, Dehradun - UKPCB",07-03-2024 20:00:00,30.269444,78.044167,CO,28,44,30
India,Uttarakhand,Rishikesh,"Shivaji Nagar, Rishikesh - UKPCB",07-03-2024 20:00:00,30.075911,78.2859547,NO2,8,37,16
India,Uttarakhand,Rishikesh,"Shivaji Nagar, Rishikesh - UKPCB",07-03-2024 20:00:00,30.075911,78.2859547,SO2,3,5,4
India,West_Bengal,Asansol,"Asansol Court Area, Asansol - WBPCB",07-03-2024 20:00:00,23.685297,86.945968,PM2.5,76,247,123
India,West_Bengal,Barrackpore,"SVSPA Campus, Barrackpore - WBPCB",07-03-2024 20:00:00,22.7605581,88.3617589,NH3,1,8,3
India,West_Bengal,Durgapur,"Sidhu Kanhu Indoor Stadium, Durgapur - WBPCB",07-03-2024 20:00:00,23.5404352,87.2892225,SO2,13,46,25
India,West_Bengal,Haldia,"Priyambada Housing Estate, Haldia - WBPCB",07-03-2024 20:00:00,22.06047,88.109737,OZONE,8,47,30
India,West_Bengal,Howrah,"Belur Math, Howrah - WBPCB",07-03-2024 20:00:00,22.629801,88.352017,SO2,8,19,15
India,West_Bengal,Howrah,"Belur Math, Howrah - WBPCB",07-03-2024 20:00:00,22.629801,88.352017,CO,3,54,17
India,West_Bengal,Howrah,"Belur Math, Howrah - WBPCB",07-03-2024 20:00:00,22.629801,88.352017,OZONE,4,84,61
India,West_Bengal,Howrah,"Ghusuri, Howrah - WBPCB",07-03-2024 20:00:00,22.611968,88.347422,PM2.5,126,277,198
India,West_Bengal,Howrah,"Ghusuri, Howrah - WBPCB",07-03-2024 20:00:00,22.611968,88.347422,PM10,81,464,155
India,West_Bengal,Howrah,"Ghusuri, Howrah - WBPCB",07-03-2024 20:00:00,22.611968,88.347422,NO2,24,100,44
India,West_Bengal,Howrah,"Ghusuri, Howrah - WBPCB",07-03-2024 20:00:00,22.611968,88.347422,NH3,7,12,9
India,West_Bengal,Howrah,"Ghusuri, Howrah - WBPCB",07-03-2024 20:00:00,22.611968,88.347422,CO,2,52,13
India,West_Bengal,Howrah,"Padmapukur, Howrah - WBPCB",07-03-2024 20:00:00,22.5687319,88.2797276,PM10,NA,NA,NA
India,West_Bengal,Howrah,"Padmapukur, Howrah - WBPCB",07-03-2024 20:00:00,22.5687319,88.2797276,NO2,NA,NA,NA
India,West_Bengal,Kolkata,"Ballygunge, Kolkata - WBPCB",07-03-2024 20:00:00,22.5367507,88.3638022,PM10,102,138,120
India,West_Bengal,Kolkata,"Ballygunge, Kolkata - WBPCB",07-03-2024 20:00:00,22.5367507,88.3638022,SO2,6,38,22
India,West_Bengal,Kolkata,"Bidhannagar, Kolkata - WBPCB",07-03-2024 20:00:00,22.58157048,88.41002457,PM10,91,162,117
India,West_Bengal,Kolkata,"Bidhannagar, Kolkata - WBPCB",07-03-2024 20:00:00,22.58157048,88.41002457,SO2,1,12,5
India,West_Bengal,Kolkata,"Fort William, Kolkata - WBPCB",07-03-2024 20:00:00,22.556640,88.342674,PM2.5,76,217,125
India,West_Bengal,Kolkata,"Fort William, Kolkata - WBPCB",07-03-2024 20:00:00,22.556640,88.342674,PM10,111,174,131
India,West_Bengal,Kolkata,"Fort William, Kolkata - WBPCB",07-03-2024 20:00:00,22.556640,88.342674,NO2,46,154,97
India,West_Bengal,Kolkata,"Fort William, Kolkata - WBPCB",07-03-2024 20:00:00,22.556640,88.342674,OZONE,20,92,70
India,West_Bengal,Kolkata,"Jadavpur, Kolkata - WBPCB",07-03-2024 20:00:00,22.49929,88.36917,PM10,99,158,122
India,West_Bengal,Kolkata,"Rabindra Bharati University, Kolkata - WBPCB",07-03-2024 20:00:00,22.627847,88.380669,NH3,7,8,7
India,West_Bengal,Kolkata,"Rabindra Bharati University, Kolkata - WBPCB",07-03-2024 20:00:00,22.627847,88.380669,SO2,11,49,23
India,West_Bengal,Kolkata,"Rabindra Bharati University, Kolkata - WBPCB",07-03-2024 20:00:00,22.627847,88.380669,CO,26,77,36
India,West_Bengal,Kolkata,"Rabindra Sarobar, Kolkata - WBPCB",07-03-2024 20:00:00,22.51106,88.35142,NO2,58,154,80
India,West_Bengal,Kolkata,"Rabindra Sarobar, Kolkata - WBPCB",07-03-2024 20:00:00,22.51106,88.35142,CO,18,60,23
India,West_Bengal,Siliguri,"Ward-32 Bapupara, Siliguri - WBPCB",07-03-2024 20:00:00,26.6879226,88.4152495,SO2,12,21,15
India,Andhra_Pradesh,Amaravati,"Secretariat, Amaravati - APPCB",07-03-2024 20:00:00,16.5150833,80.5181667,NO2,6,23,12
India,Andhra_Pradesh,Amaravati,"Secretariat, Amaravati - APPCB",07-03-2024 20:00:00,16.5150833,80.5181667,OZONE,2,66,56
India,Andhra_Pradesh,Chittoor,"Gangineni Cheruvu, Chittoor - APPCB",07-03-2024 20:00:00,13.204880,79.097889,PM10,NA,NA,NA
India,Andhra_Pradesh,Chittoor,"Gangineni Cheruvu, Chittoor - APPCB",07-03-2024 20:00:00,13.204880,79.097889,NO2,NA,NA,NA
India,Andhra_Pradesh,Kadapa,"Yerramukkapalli, Kadapa - APPCB",07-03-2024 20:00:00,14.465052,78.824187,NO2,8,8,8
India,Andhra_Pradesh,Rajamahendravaram,"Anand Kala Kshetram, Rajamahendravaram - APPCB",07-03-2024 20:00:00,16.9872867,81.7363176,PM2.5,45,88,62
India,Andhra_Pradesh,Rajamahendravaram,"Anand Kala Kshetram, Rajamahendravaram - APPCB",07-03-2024 20:00:00,16.9872867,81.7363176,SO2,3,22,9
India,Andhra_Pradesh,Rajamahendravaram,"Anand Kala Kshetram, Rajamahendravaram - APPCB",07-03-2024 20:00:00,16.9872867,81.7363176,CO,2,48,32
India,Andhra_Pradesh,Tirupati,"Tirumala, Tirupati - APPCB",07-03-2024 20:00:00,13.67,79.35,NO2,18,46,29
India,Andhra_Pradesh,Tirupati,"Tirumala, Tirupati - APPCB",07-03-2024 20:00:00,13.67,79.35,NH3,1,6,2
India,Andhra_Pradesh,Tirupati,"Vaikuntapuram, Tirupati - APPCB",07-03-2024 20:00:00,13.615387,79.409230,CO,10,16,13
India,Andhra_Pradesh,Tirupati,"Vaikuntapuram, Tirupati - APPCB",07-03-2024 20:00:00,13.615387,79.409230,OZONE,2,52,43
India,Andhra_Pradesh,Vijayawada,"HB Colony, Vijayawada - APPCB",07-03-2024 20:00:00,16.536107,80.594233,PM10,56,101,72
India,Andhra_Pradesh,Vijayawada,"HB Colony, Vijayawada - APPCB",07-03-2024 20:00:00,16.536107,80.594233,NH3,4,4,4
India,Andhra_Pradesh,Vijayawada,"Rajiv Gandhi Park, Vijayawada - APPCB",07-03-2024 20:00:00,16.509717,80.612222,CO,34,38,38
India,Andhra_Pradesh,Vijayawada,"Rajiv Gandhi Park, Vijayawada - APPCB",07-03-2024 20:00:00,16.509717,80.612222,OZONE,1,62,47
India,Andhra_Pradesh,Vijayawada,"Rajiv Nagar, Vijayawada - APPCB",07-03-2024 20:00:00,16.554731,80.649110,CO,34,38,35
India,Andhra_Pradesh,Visakhapatnam,"GVM Corporation, Visakhapatnam - APPCB",07-03-2024 20:00:00,17.72,83.3,PM2.5,32,110,66
India,Andhra_Pradesh,Visakhapatnam,"GVM Corporation, Visakhapatnam - APPCB",07-03-2024 20:00:00,17.72,83.3,CO,4,36,15
India,Assam,Byrnihat,"Central Academy for SFS, Byrnihat - PCBA",07-03-2024 20:00:00,26.071318,91.87488,OZONE,5,18,14
India,Assam,Guwahati,"IITG, Guwahati - PCBA",07-03-2024 20:00:00,26.2028636,91.70046436,NH3,5,5,5
India,Assam,Guwahati,"LGBI Airport, Guwahati - PCBA",07-03-2024 20:00:00,26.10887,91.589544,NO2,9,83,25
India,Assam,Guwahati,"Pan Bazaar, Guwahati - PCBA",07-03-2024 20:00:00,26.187500,91.744194,PM10,117,253,160
India,Assam,Guwahati,"Railway Colony, Guwahati - PCBA",07-03-2024 20:00:00,26.181742,91.78063,NO2,3,4,3
India,Assam,Nagaon,"Christianpatty, Nagaon - PCBA",07-03-2024 20:00:00,26.349082,92.68449,NH3,1,20,5
India,Assam,Nagaon,"Christianpatty, Nagaon - PCBA",07-03-2024 20:00:00,26.349082,92.68449,OZONE,3,139,92
India,Assam,Silchar,"Tarapur, Silchar - PCBA",07-03-2024 20:00:00,24.82827,92.79525,CO,33,48,41
India,Assam,Sivasagar,"Girls College, Sivasagar - PCBA",07-03-2024 20:00:00,26.987634,94.636574,SO2,3,6,5
India,Bihar,Arrah,"New DM Office, Arrah - BSPCB",07-03-2024 20:00:00,25.5626095,84.663264,NH3,3,5,4
India,Bihar,Arrah,"New DM Office, Arrah - BSPCB",07-03-2024 20:00:00,25.5626095,84.663264,SO2,15,21,18
India,Bihar,Aurangabad,"Gurdeo Nagar, Aurangabad - BSPCB",07-03-2024 20:00:00,24.75746,84.366208,NO2,4,5,5
India,Bihar,Bhagalpur,"DM Office_Kachari Chowk, Bhagalpur - BSPCB",07-03-2024 20:00:00,25.251013,86.989001,PM2.5,52,213,84
India,Bihar,Bhagalpur,"Mayaganj, Bhagalpur - BSPCB",07-03-2024 20:00:00,25.265194,87.012947,SO2,NA,NA,NA
India,Bihar,Bihar Sharif,"D M Colony, Bihar Sharif - BSPCB",07-03-2024 20:00:00,25.204762,85.514960,CO,10,60,34
India,Bihar,Bihar Sharif,"D M Colony, Bihar Sharif - BSPCB",07-03-2024 20:00:00,25.204762,85.514960,OZONE,NA,NA,NA
India,Bihar,Chhapra,"Darshan Nagar, Chhapra - BSPCB",07-03-2024 20:00:00,25.7808257,84.7446768,NH3,7,11,9
India,Bihar,Chhapra,"Darshan Nagar, Chhapra - BSPCB",07-03-2024 20:00:00,25.7808257,84.7446768,OZONE,11,42,31
India,Bihar,Gaya,"Collectorate, Gaya - BSPCB",07-03-2024 20:00:00,24.7955,84.9994,SO2,6,29,12
India,Bihar,Gaya,"Collectorate, Gaya - BSPCB",07-03-2024 20:00:00,24.7955,84.9994,OZONE,48,85,60
India,Bihar,Gaya,"Kareemganj, Gaya - BSPCB",07-03-2024 20:00:00,24.792403,84.992416,CO,13,108,41
India,Bihar,Gaya,"Kareemganj, Gaya - BSPCB",07-03-2024 20:00:00,24.792403,84.992416,OZONE,4,27,7
India,Bihar,Hajipur,"Industrial Area, Hajipur - BSPCB",07-03-2024 20:00:00,25.697189,85.245900,OZONE,1,38,17
India,Bihar,Katihar,"Mirchaibari, Katihar - BSPCB",07-03-2024 20:00:00,25.560083,87.553265,NO2,9,28,17
India,Bihar,Katihar,"Mirchaibari, Katihar - BSPCB",07-03-2024 20:00:00,25.560083,87.553265,CO,4,110,107
India,Bihar,Kishanganj,"SDM Office_Khagra, Kishanganj - BSPCB",07-03-2024 20:00:00,26.0881305,87.93840336,NH3,NA,NA,NA
India,Bihar,Manguraha,"Forest Rest House, Manguraha - BSPCB",07-03-2024 20:00:00,27.308328,84.531742,PM10,38,125,75
India,Bihar,Munger,"Town Hall, Munger - BSPCB",07-03-2024 20:00:00,25.376776,86.471523,PM10,70,222,109
India,Bihar,Munger,"Town Hall, Munger - BSPCB",07-03-2024 20:00:00,25.376776,86.471523,CO,56,66,61
India,Bihar,Muzaffarpur,"Buddha Colony, Muzaffarpur - BSPCB",07-03-2024 20:00:00,26.11442,85.39813,NH3,8,25,13
India,Bihar,Muzaffarpur,"MIT-Daudpur Kothi, Muzaffarpur - BSPCB",07-03-2024 20:00:00,26.1403345,85.3650192,NO2,6,8,7
India,Bihar,Muzaffarpur,"Muzaffarpur Collectorate, Muzaffarpur - BSPCB",07-03-2024 20:00:00,26.1209,85.3647,SO2,6,17,10
India,Bihar,Muzaffarpur,"Muzaffarpur Collectorate, Muzaffarpur - BSPCB",07-03-2024 20:00:00,26.1209,85.3647,OZONE,11,108,76
India,Bihar,Patna,"DRM Office Danapur, Patna - BSPCB",07-03-2024 20:00:00,25.586562,85.043586,CO,26,102,36
India,Bihar,Patna,"DRM Office Danapur, Patna - BSPCB",07-03-2024 20:00:00,25.586562,85.043586,OZONE,1,60,48
India,Bihar,Patna,"Govt. High School Shikarpur, Patna - BSPCB",07-03-2024 20:00:00,25.592539,85.227158,PM10,130,178,151
India,Bihar,Patna,"Govt. High School Shikarpur, Patna - BSPCB",07-03-2024 20:00:00,25.592539,85.227158,CO,27,54,33
India,Bihar,Patna,"IGSC Planetarium Complex, Patna - BSPCB",07-03-2024 20:00:00,25.610369,85.132568,OZONE,3,24,20
India,Bihar,Patna,"Rajbansi Nagar, Patna - BSPCB",07-03-2024 20:00:00,25.599486,85.113666,PM2.5,48,95,72
India,Bihar,Patna,"Rajbansi Nagar, Patna - BSPCB",07-03-2024 20:00:00,25.599486,85.113666,NO2,16,38,25
India,Bihar,Patna,"Samanpura, Patna - BSPCB",07-03-2024 20:00:00,25.596727,85.085624,SO2,15,17,16
India,Bihar,Purnia,"Mariam Nagar, Purnia - BSPCB",07-03-2024 20:00:00,25.366336,87.117468,PM2.5,28,213,86
India,Bihar,Purnia,"Mariam Nagar, Purnia - BSPCB",07-03-2024 20:00:00,25.366336,87.117468,PM10,57,140,92
India,Bihar,Purnia,"Mariam Nagar, Purnia - BSPCB",07-03-2024 20:00:00,25.366336,87.117468,OZONE,28,93,71
India,Bihar,Rajgir,"Dangi Tola, Rajgir - BSPCB",07-03-2024 20:00:00,25.03280,85.41948,PM2.5,22,95,52
India,Bihar,Rajgir,"Dangi Tola, Rajgir - BSPCB",07-03-2024 20:00:00,25.03280,85.41948,CO,10,11,10
India,Bihar,Samastipur,"DM Office_Kasipur, Samastipur - BSPCB",07-03-2024 20:00:00,25.859655,85.77944,PM10,34,119,75
India,Bihar,Samastipur,"DM Office_Kasipur, Samastipur - BSPCB",07-03-2024 20:00:00,25.859655,85.77944,NO2,NA,NA,NA
India,Bihar,Sasaram,"Dada Peer, Sasaram - BSPCB",07-03-2024 20:00:00,24.952822,84.002396,PM2.5,21,91,54
India,Bihar,Sasaram,"Dada Peer, Sasaram - BSPCB",07-03-2024 20:00:00,24.952822,84.002396,PM10,33,110,65
India,Bihar,Siwan,"Chitragupta Nagar, Siwan - BSPCB",07-03-2024 20:00:00,26.2271665,84.3570427,PM2.5,NA,NA,NA
India,Chandigarh,Chandigarh,"Sector 22, Chandigarh - CPCC",07-03-2024 20:00:00,30.735567,76.775714,OZONE,2,142,108
India,Chandigarh,Chandigarh,"Sector-25, Chandigarh - CPCC",07-03-2024 20:00:00,30.751462,76.762879,NO2,8,45,18
India,Chandigarh,Chandigarh,"Sector-53, Chandigarh - CPCC",07-03-2024 20:00:00,30.719859,76.738637,PM2.5,30,324,163
India,Chandigarh,Chandigarh,"Sector-53, Chandigarh - CPCC",07-03-2024 20:00:00,30.719859,76.738637,NH3,4,5,4
India,Chandigarh,Chandigarh,"Sector-53, Chandigarh - CPCC",07-03-2024 20:00:00,30.719859,76.738637,OZONE,3,64,57
India,Chhattisgarh,Bhilai,"Civic Center, Bhilai - Bhilai Steel Plant",07-03-2024 20:00:00,21.185571,81.343175,NH3,NA,NA,NA
India,Chhattisgarh,Bhilai,"Civic Center, Bhilai - Bhilai Steel Plant",07-03-2024 20:00:00,21.185571,81.343175,OZONE,NA,NA,NA
India,Chhattisgarh,Bilaspur,"Mangala, Bilaspur - NTPC",07-03-2024 20:00:00,22.08815,82.13737,PM10,27,98,47
India,Chhattisgarh,Korba,"Rampur, Korba - CECB",07-03-2024 20:00:00,22.368195,82.746431,PM2.5,22,36,30
India,Chhattisgarh,Korba,"Rampur, Korba - CECB",07-03-2024 20:00:00,22.368195,82.746431,PM10,20,109,42
India,Chhattisgarh,Kunjemura,"OP Jindal School, Kunjemura - CECB",07-03-2024 20:00:00,22.126650,83.483212,PM10,21,176,59
India,Chhattisgarh,Kunjemura,"OP Jindal School, Kunjemura - CECB",07-03-2024 20:00:00,22.126650,83.483212,NH3,1,2,2
India,Chhattisgarh,Milupara,"Govt. Higher Secondary School, Milupara - CECB",07-03-2024 20:00:00,22.1910172,83.5197009,NH3,1,2,1
India,Chhattisgarh,Milupara,"Govt. Higher Secondary School, Milupara - CECB",07-03-2024 20:00:00,22.1910172,83.5197009,CO,18,44,28
India,Chhattisgarh,Raipur,"AIIMS, Raipur - CECB",07-03-2024 20:00:00,21.258815,81.578979,SO2,4,20,8
India,Chhattisgarh,Raipur,"AIIMS, Raipur - CECB",07-03-2024 20:00:00,21.258815,81.578979,OZONE,1,13,6
India,Chhattisgarh,Raipur,"Bhatagaon New ISBT, Raipur - CECB",07-03-2024 20:00:00,21.219665,81.630094,PM2.5,30,60,42
India,Chhattisgarh,Raipur,"Krishak Nagar, Raipur - CECB",07-03-2024 20:00:00,21.237755,81.705301,SO2,NA,NA,NA
India,Chhattisgarh,Raipur,"Siltara Phase-II, Raipur - CECB",07-03-2024 20:00:00,21.371751,81.664929,NO2,50,71,59
India,Chhattisgarh,Tumidih,"OP Jindal Industrial Park, Tumidih - CECB",07-03-2024 20:00:00,22.06631475,83.33820077,NO2,8,48,19
India,Delhi,Delhi,"Alipur, Delhi - DPCC",07-03-2024 20:00:00,28.815329,77.153010,PM2.5,40,307,140
India,Delhi,Delhi,"Anand Vihar, Delhi - DPCC",07-03-2024 20:00:00,28.647622,77.3158090,PM2.5,80,322,209
India,Delhi,Delhi,"Anand Vihar, Delhi - DPCC",07-03-2024 20:00:00,28.647622,77.3158090,PM10,117,325,182
India,Delhi,Delhi,"Aya Nagar, Delhi - IMD",07-03-2024 20:00:00,28.4706914,77.1099364,NO2,24,38,30
India,Delhi,Delhi,"Bawana, Delhi - DPCC",07-03-2024 20:00:00,28.776200,77.051074,NO2,13,80,39
India,Delhi,Delhi,"Bawana, Delhi - DPCC",07-03-2024 20:00:00,28.776200,77.051074,CO,16,60,21
India,Delhi,Delhi,"Bawana, Delhi - DPCC",07-03-2024 20:00:00,28.776200,77.051074,OZONE,3,112,87
India,Delhi,Delhi,"Burari Crossing, Delhi - IMD",07-03-2024 20:00:00,28.7256504,77.2011573,PM10,98,402,198
India,Delhi,Delhi,"CRRI Mathura Road, Delhi - IMD",07-03-2024 20:00:00,28.5512005,77.2735737,PM10,78,210,134
India,Delhi,Delhi,"Chandni Chowk, Delhi - IITM",07-03-2024 20:00:00,28.656756,77.227234,PM2.5,144,323,250
India,Delhi,Delhi,"Chandni Chowk, Delhi - IITM",07-03-2024 20:00:00,28.656756,77.227234,CO,133,146,136
India,Delhi,Delhi,"Dwarka-Sector 8, Delhi - DPCC ",07-03-2024 20:00:00,28.5710274,77.0719006,NH3,6,8,7
India,Delhi,Delhi,"IGI Airport (T3), Delhi - IMD",07-03-2024 20:00:00,28.5627763,77.1180053,PM2.5,27,326,136
India,Delhi,Delhi,"IGI Airport (T3), Delhi - IMD",07-03-2024 20:00:00,28.5627763,77.1180053,NO2,22,64,46
India,Delhi,Delhi,"IHBAS, Dilshad Garden, Delhi - CPCB",07-03-2024 20:00:00,28.6811736,77.3025234,PM2.5,56,241,117
India,Delhi,Delhi,"ITO, Delhi - CPCB",07-03-2024 20:00:00,28.628624,77.241060,PM2.5,22,323,193
India,Delhi,Delhi,"Jahangirpuri, Delhi - DPCC",07-03-2024 20:00:00,28.732820,77.170633,SO2,1,31,10
India,Delhi,Delhi,"Jahangirpuri, Delhi - DPCC",07-03-2024 20:00:00,28.732820,77.170633,CO,47,140,60
India,Delhi,Delhi,"Jawaharlal Nehru Stadium, Delhi - DPCC",07-03-2024 20:00:00,28.580280,77.233829,NH3,5,8,6
India,Delhi,Delhi,"Lodhi Road, Delhi - IITM",07-03-2024 20:00:00,28.588333,77.221667,OZONE,15,18,17
India,Delhi,Delhi,"Major Dhyan Chand National Stadium, Delhi - DPCC",07-03-2024 20:00:00,28.611281,77.237738,SO2,6,19,11
India,Delhi,Delhi,"Mandir Marg, Delhi - DPCC",07-03-2024 20:00:00,28.636429,77.201067,SO2,5,14,9
India,Delhi,Delhi,"Mundka, Delhi - DPCC",07-03-2024 20:00:00,28.684678,77.076574,NO2,25,121,72
India,Delhi,Delhi,"Mundka, Delhi - DPCC",07-03-2024 20:00:00,28.684678,77.076574,OZONE,42,55,50
India,Delhi,Delhi,"NSIT Dwarka, Delhi - CPCB",07-03-2024 20:00:00,28.60909,77.0325413,NH3,8,19,11
India,Delhi,Delhi,"NSIT Dwarka, Delhi - CPCB",07-03-2024 20:00:00,28.60909,77.0325413,CO,28,76,44
India,Delhi,Delhi,"Najafgarh, Delhi - DPCC",07-03-2024 20:00:00,28.570173,76.933762,CO,1,73,3
India,Delhi,Delhi,"Narela, Delhi - DPCC",07-03-2024 20:00:00,28.822836,77.101981,OZONE,3,135,109
India,Delhi,Delhi,"Nehru Nagar, Delhi - DPCC",07-03-2024 20:00:00,28.567890,77.250515,NO2,12,31,21
India,Delhi,Delhi,"Nehru Nagar, Delhi - DPCC",07-03-2024 20:00:00,28.567890,77.250515,NH3,7,12,9
India,Delhi,Delhi,"New Moti Bagh, Delhi - MHUA",07-03-2024 20:00:00,28.57834,77.18400,PM2.5,45,319,187
India,Delhi,Delhi,"North Campus, DU, Delhi - IMD",07-03-2024 20:00:00,28.6573814,77.1585447,PM2.5,NA,NA,NA
India,Delhi,Delhi,"Okhla Phase-2, Delhi - DPCC",07-03-2024 20:00:00,28.530785,77.271255,NO2,40,165,101
India,Delhi,Delhi,"Okhla Phase-2, Delhi - DPCC",07-03-2024 20:00:00,28.530785,77.271255,NH3,5,7,6
India,Delhi,Delhi,"Okhla Phase-2, Delhi - DPCC",07-03-2024 20:00:00,28.530785,77.271255,SO2,9,16,12
India,Delhi,Delhi,"Patparganj, Delhi - DPCC",07-03-2024 20:00:00,28.623763,77.287209,PM10,103,197,153
India,Delhi,Delhi,"Patparganj, Delhi - DPCC",07-03-2024 20:00:00,28.623763,77.287209,SO2,16,20,18
India,Delhi,Delhi,"Punjabi Bagh, Delhi - DPCC",07-03-2024 20:00:00,28.674045,77.131023,PM2.5,39,321,188
India,Delhi,Delhi,"Punjabi Bagh, Delhi - DPCC",07-03-2024 20:00:00,28.674045,77.131023,PM10,94,215,140
India,Delhi,Delhi,"Punjabi Bagh, Delhi - DPCC",07-03-2024 20:00:00,28.674045,77.131023,SO2,NA,NA,NA
India,Delhi,Delhi,"Pusa, Delhi - DPCC",07-03-2024 20:00:00,28.639652,77.146275,PM10,124,312,179
India,Delhi,Delhi,"Pusa, Delhi - DPCC",07-03-2024 20:00:00,28.639652,77.146275,CO,71,130,85
India,Delhi,Delhi,"Pusa, Delhi - DPCC",07-03-2024 20:00:00,28.639652,77.146275,OZONE,9,74,47
India,Delhi,Delhi,"Pusa, Delhi - IMD",07-03-2024 20:00:00,28.636110,77.173332,PM2.5,NA,NA,NA
India,Delhi,Delhi,"R K Puram, Delhi - DPCC",07-03-2024 20:00:00,28.563262,77.186937,NO2,19,85,49
India,Delhi,Delhi,"R K Puram, Delhi - DPCC",07-03-2024 20:00:00,28.563262,77.186937,SO2,10,39,20
India,Delhi,Delhi,"Rohini, Delhi - DPCC",07-03-2024 20:00:00,28.732528,77.119920,PM10,82,231,155
India,Delhi,Delhi,"Rohini, Delhi - DPCC",07-03-2024 20:00:00,28.732528,77.119920,NH3,6,9,7
India,Delhi,Delhi,"Rohini, Delhi - DPCC",07-03-2024 20:00:00,28.732528,77.119920,OZONE,3,132,98
India,Delhi,Delhi,"Shadipur, Delhi - CPCB",07-03-2024 20:00:00,28.6514781,77.1473105,SO2,3,25,14
India,Delhi,Delhi,"Sirifort, Delhi - CPCB",07-03-2024 20:00:00,28.5504249,77.2159377,NO2,126,200,174
India,Delhi,Delhi,"Sri Aurobindo Marg, Delhi - DPCC",07-03-2024 20:00:00,28.531346,77.190156,PM2.5,47,250,131
India,Delhi,Delhi,"Sri Aurobindo Marg, Delhi - DPCC",07-03-2024 20:00:00,28.531346,77.190156,NO2,21,112,51
India,Delhi,Delhi,"Sri Aurobindo Marg, Delhi - DPCC",07-03-2024 20:00:00,28.531346,77.190156,OZONE,1,44,34
India,Delhi,Delhi,"Vivek Vihar, Delhi - DPCC",07-03-2024 20:00:00,28.672342,77.315260,NH3,4,7,5
India,Delhi,Delhi,"Vivek Vihar, Delhi - DPCC",07-03-2024 20:00:00,28.672342,77.315260,SO2,26,45,33
India,Delhi,Delhi,"Wazirpur, Delhi - DPCC",07-03-2024 20:00:00,28.699793,77.165453,PM2.5,58,374,195
India,Gujarat,Ahmedabad,"Gyaspur, Ahmedabad - IITM",07-03-2024 20:00:00,22.977134,72.553024,NH3,4,4,4
India,Gujarat,Ahmedabad,"Maninagar, Ahmedabad - GPCB",07-03-2024 20:00:00,23.002657,72.591912,PM10,63,147,100
India,Gujarat,Ahmedabad,"Maninagar, Ahmedabad - GPCB",07-03-2024 20:00:00,23.002657,72.591912,OZONE,8,46,37
India,Gujarat,Ahmedabad,"Raikhad, Ahmedabad - IITM",07-03-2024 20:00:00,23.020509,72.579261,PM2.5,26,78,51
India,Gujarat,Ahmedabad,"Rakhial, Ahmedabad - IITM",07-03-2024 20:00:00,23.016834,72.625775,SO2,3,17,7
India,Gujarat,Ahmedabad,"SAC ISRO Bopal, Ahmedabad - IITM",07-03-2024 20:00:00,23.041137,72.456691,PM2.5,NA,NA,NA
India,Gujarat,Ahmedabad,"SAC ISRO Bopal, Ahmedabad - IITM",07-03-2024 20:00:00,23.041137,72.456691,PM10,NA,NA,NA
India,Gujarat,Ahmedabad,"SAC ISRO Bopal, Ahmedabad - IITM",07-03-2024 20:00:00,23.041137,72.456691,CO,NA,NA,NA
India,Gujarat,Ahmedabad,"SAC ISRO Bopal, Ahmedabad - IITM",07-03-2024 20:00:00,23.041137,72.456691,OZONE,NA,NA,NA
India,Gujarat,Ahmedabad,"SAC ISRO Satellite, Ahmedabad - IITM",07-03-2024 20:00:00,23.023389,72.515201,NH3,NA,NA,NA
India,Gujarat,Ahmedabad,"SAC ISRO Satellite, Ahmedabad - IITM",07-03-2024 20:00:00,23.023389,72.515201,CO,NA,NA,NA
India,Gujarat,Ahmedabad,"SVPI Airport Hansol, Ahmedabad - IITM",07-03-2024 20:00:00,23.076793,72.627874,PM2.5,NA,NA,NA
India,Gujarat,Ahmedabad,"SVPI Airport Hansol, Ahmedabad - IITM",07-03-2024 20:00:00,23.076793,72.627874,NH3,NA,NA,NA
India,Gujarat,Ankleshwar,"GIDC, Ankleshwar - GPCB",07-03-2024 20:00:00,21.613267,73.010555,PM10,46,118,94
India,Gujarat,Ankleshwar,"GIDC, Ankleshwar - GPCB",07-03-2024 20:00:00,21.613267,73.010555,NH3,7,7,7
India,Gujarat,Gandhinagar,"IIPHG Lekawada, Gandhinagar - IITM",07-03-2024 20:00:00,23.243639,72.68994,PM2.5,62,276,187
India,Gujarat,Gandhinagar,"IIPHG Lekawada, Gandhinagar - IITM",07-03-2024 20:00:00,23.243639,72.68994,SO2,11,11,11
India,Gujarat,Gandhinagar,"Sector-10, Gandhinagar - GPCB",07-03-2024 20:00:00,23.221714,72.654328,NO2,8,25,16
India,Gujarat,Surat,"Science Center, Surat - SMC",07-03-2024 20:00:00,21.170046,72.795405,PM2.5,27,199,76
India,Gujarat,Surat,"Science Center, Surat - SMC",07-03-2024 20:00:00,21.170046,72.795405,NO2,8,45,31
India,Gujarat,Vapi,"Phase-1 GIDC, Vapi - GPCB",07-03-2024 20:00:00,20.362421,72.918013,PM10,60,212,123
India,Gujarat,Vapi,"Phase-1 GIDC, Vapi - GPCB",07-03-2024 20:00:00,20.362421,72.918013,CO,1,169,167
India,Gujarat,Vatva,"Phase-4 GIDC, Vatva - GPCB",07-03-2024 20:00:00,22.969611,72.643500,PM2.5,63,288,126
India,Gujarat,Vatva,"Phase-4 GIDC, Vatva - GPCB",07-03-2024 20:00:00,22.969611,72.643500,SO2,3,14,6
India,Haryana,Ambala,"Patti Mehar, Ambala - HSPCB",07-03-2024 20:00:00,30.379589,76.778328,PM2.5,33,101,58
India,Haryana,Bahadurgarh,"Arya Nagar, Bahadurgarh - HSPCB",07-03-2024 20:00:00,28.6701,76.9254,NH3,11,12,11
India,Haryana,Bhiwani,"H.B. Colony, Bhiwani - HSPCB",07-03-2024 20:00:00,28.806223,76.141105,PM10,31,153,89
India,Haryana,Bhiwani,"H.B. Colony, Bhiwani - HSPCB",07-03-2024 20:00:00,28.806223,76.141105,CO,19,50,39
India,Haryana,Bhiwani,"H.B. Colony, Bhiwani - HSPCB",07-03-2024 20:00:00,28.806223,76.141105,OZONE,3,17,5
India,Haryana,Faridabad,"Sector 30, Faridabad - HSPCB",07-03-2024 20:00:00,28.4417,77.3217,NO2,30,32,31
India,Haryana,Faridabad,"Sector 30, Faridabad - HSPCB",07-03-2024 20:00:00,28.4417,77.3217,CO,12,108,34
India,Haryana,Fatehabad,"Huda Sector, Fatehabad - HSPCB",07-03-2024 20:00:00,29.503664,75.467934,NO2,37,39,38
India,Haryana,Fatehabad,"Huda Sector, Fatehabad - HSPCB",07-03-2024 20:00:00,29.503664,75.467934,SO2,1,15,7
India,Haryana,Gurugram,"Teri Gram, Gurugram - HSPCB",07-03-2024 20:00:00,28.4275,77.1465,NO2,25,49,42
India,Haryana,Gurugram,"Vikas Sadan, Gurugram - HSPCB",07-03-2024 20:00:00,28.4501238,77.0263051,NO2,5,24,14
India,Haryana,Gurugram,"Vikas Sadan, Gurugram - HSPCB",07-03-2024 20:00:00,28.4501238,77.0263051,OZONE,7,68,50
India,Haryana,Hisar,"Urban Estate-II, Hisar - HSPCB",07-03-2024 20:00:00,29.140560,75.744941,NO2,24,100,37
India,Haryana,Hisar,"Urban Estate-II, Hisar - HSPCB",07-03-2024 20:00:00,29.140560,75.744941,NH3,10,40,15
India,Haryana,Hisar,"Urban Estate-II, Hisar - HSPCB",07-03-2024 20:00:00,29.140560,75.744941,CO,40,113,62
India,Haryana,Jind,"Police Lines, Jind - HSPCB",07-03-2024 20:00:00,29.307814,76.337619,PM2.5,35,135,69
India,Haryana,Jind,"Police Lines, Jind - HSPCB",07-03-2024 20:00:00,29.307814,76.337619,PM10,58,109,83
India,Haryana,Jind,"Police Lines, Jind - HSPCB",07-03-2024 20:00:00,29.307814,76.337619,OZONE,3,18,16
India,Haryana,Karnal,"Sector-12, Karnal - HSPCB",07-03-2024 20:00:00,29.695300,77.002700,PM2.5,81,140,101
India,Haryana,Karnal,"Sector-12, Karnal - HSPCB",07-03-2024 20:00:00,29.695300,77.002700,CO,12,40,28
India,Haryana,Kurukshetra,"Sector-7, Kurukshetra - HSPCB",07-03-2024 20:00:00,29.966942,76.875879,SO2,NA,NA,NA
India,Haryana,Kurukshetra,"Sector-7, Kurukshetra - HSPCB",07-03-2024 20:00:00,29.966942,76.875879,OZONE,26,71,62
India,Haryana,Mandikhera,"General Hospital, Mandikhera - HSPCB",07-03-2024 20:00:00,27.9002,76.9938,CO,16,50,22
India,Haryana,Manesar,"Sector-2 IMT, Manesar - HSPCB",07-03-2024 20:00:00,28.360699,76.936090,NO2,14,20,17
India,Haryana,Manesar,"Sector-2 IMT, Manesar - HSPCB",07-03-2024 20:00:00,28.360699,76.936090,SO2,6,12,9
India,Haryana,Narnaul,"Shastri Nagar, Narnaul - HSPCB",07-03-2024 20:00:00,28.060249,76.113115,PM2.5,24,235,56
India,Haryana,Narnaul,"Shastri Nagar, Narnaul - HSPCB",07-03-2024 20:00:00,28.060249,76.113115,SO2,12,46,16
India,Haryana,Narnaul,"Shastri Nagar, Narnaul - HSPCB",07-03-2024 20:00:00,28.060249,76.113115,OZONE,27,54,38
India,Haryana,Palwal,"Shyam Nagar, Palwal - HSPCB",07-03-2024 20:00:00,28.1485564,77.3320667,PM10,NA,NA,NA
India,Haryana,Palwal,"Shyam Nagar, Palwal - HSPCB",07-03-2024 20:00:00,28.1485564,77.3320667,NO2,NA,NA,NA
India,Haryana,Panchkula,"Sector-6, Panchkula - HSPCB ",07-03-2024 20:00:00,30.7057778,76.8531805555555,PM2.5,28,81,48
