country,state,city,station,last_update,latitude,longitude,pollutant_id,pollutant_min,pollutant_max,pollutant_avg
India,Andhra_Pradesh,Amaravati,"Secretariat, Amaravati - APPCB",27-05-2024 01:00:00,16.5150833,80.5181667,CO,9,40,26
India,Andhra_Pradesh,Anantapur,"Gulzarpet, Anantapur - APPCB",27-05-2024 01:00:00,14.675886,77.593027,NH3,NA,NA,NA
India,Andhra_Pradesh,Anantapur,"Gulzarpet, Anantapur - APPCB",27-05-2024 01:00:00,14.675886,77.593027,OZONE,5,21,15
India,Andhra_Pradesh,Chittoor,"Gangineni Cheruvu, Chittoor - APPCB",27-05-2024 01:00:00,13.204880,79.097889,PM10,32,105,62
India,Andhra_Pradesh,Kadapa,"Yerramukkapalli, Kadapa - APPCB",27-05-2024 01:00:00,14.465052,78.824187,PM10,29,84,41
India,Andhra_Pradesh,Kadapa,"Yerramukkapalli, Kadapa - APPCB",27-05-2024 01:00:00,14.465052,78.824187,OZONE,13,51,24
India,Andhra_Pradesh,Tirupati,"Tirumala, Tirupati - APPCB",27-05-2024 01:00:00,13.67,79.35,NH3,1,2,1
India,Andhra_Pradesh,Tirupati,"Tirumala, Tirupati - APPCB",27-05-2024 01:00:00,13.67,79.35,SO2,2,11,6
India,Andhra_Pradesh,Tirupati,"Vaikuntapuram, Tirupati - APPCB",27-05-2024 01:00:00,13.615387,79.409230,NH3,2,3,2
India,Andhra_Pradesh,Vijayawada,"HB Colony, Vijayawada - APPCB",27-05-2024 01:00:00,16.536107,80.594233,PM10,66,72,69
India,Andhra_Pradesh,Vijayawada,"HB Colony, Vijayawada - APPCB",27-05-2024 01:00:00,16.536107,80.594233,NO2,18,42,23
India,Andhra_Pradesh,Vijayawada,"HB Colony, Vijayawada - APPCB",27-05-2024 01:00:00,16.536107,80.594233,CO,38,38,38
India,Andhra_Pradesh,Vijayawada,"Kanuru, Vijayawada - APPCB",27-05-2024 01:00:00,16.486692,80.699436,PM10,69,90,78
India,Andhra_Pradesh,Vijayawada,"Rajiv Gandhi Park, Vijayawada - APPCB",27-05-2024 01:00:00,16.509717,80.612222,PM2.5,47,76,63
India,Andhra_Pradesh,Vijayawada,"Rajiv Nagar, Vijayawada - APPCB",27-05-2024 01:00:00,16.554731,80.649110,NH3,2,3,2
India,Andhra_Pradesh,Vijayawada,"Rajiv Nagar, Vijayawada - APPCB",27-05-2024 01:00:00,16.554731,80.649110,SO2,10,19,15
India,Andhra_Pradesh,Visakhapatnam,"GVM Corporation, Visakhapatnam - APPCB",27-05-2024 01:00:00,17.72,83.3,PM2.5,64,214,111
India,Andhra_Pradesh,Visakhapatnam,"GVM Corporation, Visakhapatnam - APPCB",27-05-2024 01:00:00,17.72,83.3,NO2,39,79,53
India,Assam,Byrnihat,"Central Academy for SFS, Byrnihat - PCBA",27-05-2024 01:00:00,26.071318,91.87488,NH3,18,24,21
India,Assam,Byrnihat,"Central Academy for SFS, Byrnihat - PCBA",27-05-2024 01:00:00,26.071318,91.87488,SO2,10,44,17
India,Assam,Guwahati,"LGBI Airport, Guwahati - PCBA",27-05-2024 01:00:00,26.10887,91.589544,NO2,9,46,21
India,Assam,Guwahati,"LGBI Airport, Guwahati - PCBA",27-05-2024 01:00:00,26.10887,91.589544,SO2,7,9,8
India,Assam,Guwahati,"Pan Bazaar, Guwahati - PCBA",27-05-2024 01:00:00,26.187500,91.744194,NO2,1,2,1
India,Assam,Guwahati,"Pan Bazaar, Guwahati - PCBA",27-05-2024 01:00:00,26.187500,91.744194,OZONE,17,18,18
India,Assam,Guwahati,"Railway Colony, Guwahati - PCBA",27-05-2024 01:00:00,26.181742,91.78063,PM10,14,93,50
India,Assam,Nagaon,"Christianpatty, Nagaon - PCBA",27-05-2024 01:00:00,26.349082,92.68449,PM2.5,48,137,68
India,Assam,Nagaon,"Christianpatty, Nagaon - PCBA",27-05-2024 01:00:00,26.349082,92.68449,SO2,3,16,9
India,Assam,Nagaon,"Christianpatty, Nagaon - PCBA",27-05-2024 01:00:00,26.349082,92.68449,CO,40,80,72
India,Assam,Silchar,"Tarapur, Silchar - PCBA",27-05-2024 01:00:00,24.82827,92.79525,NO2,14,14,14
India,Assam,Silchar,"Tarapur, Silchar - PCBA",27-05-2024 01:00:00,24.82827,92.79525,SO2,NA,NA,NA
India,Assam,Sivasagar,"Girls College, Sivasagar - PCBA",27-05-2024 01:00:00,26.987634,94.636574,PM10,45,66,55
India,Assam,Sivasagar,"Girls College, Sivasagar - PCBA",27-05-2024 01:00:00,26.987634,94.636574,NH3,2,3,2
India,Assam,Sivasagar,"Girls College, Sivasagar - PCBA",27-05-2024 01:00:00,26.987634,94.636574,SO2,8,10,9
India,Assam,Sivasagar,"Girls College, Sivasagar - PCBA",27-05-2024 01:00:00,26.987634,94.636574,OZONE,1,9,3
India,Bihar,Araria,"Kharahiya Basti, Araria - BSPCB",27-05-2024 01:00:00,26.146529,87.454184,OZONE,4,10,8
India,Bihar,Arrah,"New DM Office, Arrah - BSPCB",27-05-2024 01:00:00,25.5626095,84.663264,NH3,5,10,7
India,Bihar,Arrah,"New DM Office, Arrah - BSPCB",27-05-2024 01:00:00,25.5626095,84.663264,SO2,1,36,12
India,Bihar,Aurangabad,"Gurdeo Nagar, Aurangabad - BSPCB",27-05-2024 01:00:00,24.75746,84.366208,PM2.5,NA,NA,NA
India,Bihar,Aurangabad,"Gurdeo Nagar, Aurangabad - BSPCB",27-05-2024 01:00:00,24.75746,84.366208,PM10,33,97,54
India,Bihar,Bettiah,"Kamalnath Nagar, Bettiah - BSPCB",27-05-2024 01:00:00,26.80365,84.51954,PM2.5,NA,NA,NA
India,Bihar,Bettiah,"Kamalnath Nagar, Bettiah - BSPCB",27-05-2024 01:00:00,26.80365,84.51954,NO2,25,31,28
India,Bihar,Bhagalpur,"Mayaganj, Bhagalpur - BSPCB",27-05-2024 01:00:00,25.265194,87.012947,NO2,3,11,7
India,Bihar,Bhagalpur,"Mayaganj, Bhagalpur - BSPCB",27-05-2024 01:00:00,25.265194,87.012947,CO,5,26,13
India,Bihar,Bihar Sharif,"D M Colony, Bihar Sharif - BSPCB",27-05-2024 01:00:00,25.204762,85.514960,PM10,34,140,86
India,Bihar,Bihar Sharif,"D M Colony, Bihar Sharif - BSPCB",27-05-2024 01:00:00,25.204762,85.514960,NH3,3,5,4
India,Bihar,Gaya,"Collectorate, Gaya - BSPCB",27-05-2024 01:00:00,24.7955,84.9994,NO2,3,5,4
India,Bihar,Hajipur,"Industrial Area, Hajipur - BSPCB",27-05-2024 01:00:00,25.697189,85.245900,PM2.5,66,352,209
India,Bihar,Katihar,"Mirchaibari, Katihar - BSPCB",27-05-2024 01:00:00,25.560083,87.553265,OZONE,5,6,6
India,Bihar,Kishanganj,"SDM Office_Khagra, Kishanganj - BSPCB",27-05-2024 01:00:00,26.0881305,87.93840336,PM10,80,404,142
India,Bihar,Kishanganj,"SDM Office_Khagra, Kishanganj - BSPCB",27-05-2024 01:00:00,26.0881305,87.93840336,SO2,8,14,14
India,Bihar,Kishanganj,"SDM Office_Khagra, Kishanganj - BSPCB",27-05-2024 01:00:00,26.0881305,87.93840336,CO,7,10,10
India,Bihar,Manguraha,"Forest Rest House, Manguraha - BSPCB",27-05-2024 01:00:00,27.308328,84.531742,NO2,NA,NA,NA
India,Bihar,Manguraha,"Forest Rest House, Manguraha - BSPCB",27-05-2024 01:00:00,27.308328,84.531742,CO,28,64,45
India,Bihar,Manguraha,"Forest Rest House, Manguraha - BSPCB",27-05-2024 01:00:00,27.308328,84.531742,OZONE,2,26,9
India,Bihar,Motihari,"Gandak Colony, Motihari - BSPCB",27-05-2024 01:00:00,26.63086,84.90051,PM2.5,33,90,58
India,Bihar,Motihari,"Gandak Colony, Motihari - BSPCB",27-05-2024 01:00:00,26.63086,84.90051,NH3,1,8,5
India,Bihar,Munger,"Town Hall, Munger - BSPCB",27-05-2024 01:00:00,25.376776,86.471523,PM10,50,107,76
India,Bihar,Munger,"Town Hall, Munger - BSPCB",27-05-2024 01:00:00,25.376776,86.471523,NO2,4,6,5
India,Bihar,Munger,"Town Hall, Munger - BSPCB",27-05-2024 01:00:00,25.376776,86.471523,CO,51,104,56
India,Bihar,Muzaffarpur,"MIT-Daudpur Kothi, Muzaffarpur - BSPCB",27-05-2024 01:00:00,26.1403345,85.3650192,PM2.5,NA,NA,NA
India,Bihar,Muzaffarpur,"MIT-Daudpur Kothi, Muzaffarpur - BSPCB",27-05-2024 01:00:00,26.1403345,85.3650192,PM10,NA,NA,NA
India,Bihar,Muzaffarpur,"MIT-Daudpur Kothi, Muzaffarpur - BSPCB",27-05-2024 01:00:00,26.1403345,85.3650192,NO2,4,6,5
India,Bihar,Muzaffarpur,"Muzaffarpur Collectorate, Muzaffarpur - BSPCB",27-05-2024 01:00:00,26.1209,85.3647,PM2.5,46,162,79
India,Bihar,Muzaffarpur,"Muzaffarpur Collectorate, Muzaffarpur - BSPCB",27-05-2024 01:00:00,26.1209,85.3647,OZONE,42,132,132
India,Bihar,Patna,"DRM Office Danapur, Patna - BSPCB",27-05-2024 01:00:00,25.586562,85.043586,PM10,78,120,106
India,Bihar,Patna,"Govt. High School Shikarpur, Patna - BSPCB",27-05-2024 01:00:00,25.592539,85.227158,NO2,21,24,23
India,Bihar,Patna,"Govt. High School Shikarpur, Patna - BSPCB",27-05-2024 01:00:00,25.592539,85.227158,SO2,8,11,10
India,Bihar,Patna,"Govt. High School Shikarpur, Patna - BSPCB",27-05-2024 01:00:00,25.592539,85.227158,OZONE,1,59,14
India,Bihar,Patna,"IGSC Planetarium Complex, Patna - BSPCB",27-05-2024 01:00:00,25.610369,85.132568,PM2.5,51,191,99
India,Bihar,Patna,"IGSC Planetarium Complex, Patna - BSPCB",27-05-2024 01:00:00,25.610369,85.132568,NO2,9,10,10
India,Bihar,Patna,"IGSC Planetarium Complex, Patna - BSPCB",27-05-2024 01:00:00,25.610369,85.132568,CO,13,18,15
India,Bihar,Patna,"Muradpur, Patna - BSPCB",27-05-2024 01:00:00,25.619651,85.147382,SO2,4,9,6
India,Bihar,Patna,"Muradpur, Patna - BSPCB",27-05-2024 01:00:00,25.619651,85.147382,CO,26,81,43
India,Bihar,Patna,"Muradpur, Patna - BSPCB",27-05-2024 01:00:00,25.619651,85.147382,OZONE,5,62,20
India,Bihar,Patna,"Rajbansi Nagar, Patna - BSPCB",27-05-2024 01:00:00,25.599486,85.113666,NO2,8,27,17
India,Bihar,Patna,"Rajbansi Nagar, Patna - BSPCB",27-05-2024 01:00:00,25.599486,85.113666,SO2,5,10,8
India,Bihar,Patna,"Rajbansi Nagar, Patna - BSPCB",27-05-2024 01:00:00,25.599486,85.113666,OZONE,19,59,33
India,Bihar,Patna,"Samanpura, Patna - BSPCB",27-05-2024 01:00:00,25.596727,85.085624,OZONE,39,110,65
India,Bihar,Purnia,"Mariam Nagar, Purnia - BSPCB",27-05-2024 01:00:00,25.366336,87.117468,SO2,9,18,13
India,Bihar,Rajgir,"Dangi Tola, Rajgir - BSPCB",27-05-2024 01:00:00,25.03280,85.41948,OZONE,30,39,33
India,Bihar,Saharsa,"Police Line, Saharsa - BSPCB",27-05-2024 01:00:00,25.892357,86.590325,CO,54,56,55
India,Bihar,Samastipur,"DM Office_Kasipur, Samastipur - BSPCB",27-05-2024 01:00:00,25.859655,85.77944,SO2,44,64,55
India,Bihar,Sasaram,"Dada Peer, Sasaram - BSPCB",27-05-2024 01:00:00,24.952822,84.002396,NH3,6,31,14
India,Bihar,Siwan,"Chitragupta Nagar, Siwan - BSPCB",27-05-2024 01:00:00,26.2271665,84.3570427,PM2.5,NA,NA,NA
India,Bihar,Siwan,"Chitragupta Nagar, Siwan - BSPCB",27-05-2024 01:00:00,26.2271665,84.3570427,OZONE,4,65,33
India,Chandigarh,Chandigarh,"Sector-25, Chandigarh - CPCC",27-05-2024 01:00:00,30.751462,76.762879,SO2,5,40,12
India,Chhattisgarh,Bhilai,"32Bungalows, Bhilai - CECB",27-05-2024 01:00:00,21.194815,81.314770,PM10,64,120,89
India,Chhattisgarh,Bhilai,"Civic Center, Bhilai - Bhilai Steel Plant",27-05-2024 01:00:00,21.185571,81.343175,PM2.5,NA,NA,NA
India,Chhattisgarh,Bhilai,"Civic Center, Bhilai - Bhilai Steel Plant",27-05-2024 01:00:00,21.185571,81.343175,CO,29,60,44
India,Chhattisgarh,Bhilai,"Hathkhoj, Bhilai - CECB",27-05-2024 01:00:00,21.224231,81.408350,PM10,61,147,94
India,Chhattisgarh,Bhilai,"Hathkhoj, Bhilai - CECB",27-05-2024 01:00:00,21.224231,81.408350,NH3,8,9,9
India,Chhattisgarh,Bilaspur,"Mangala, Bilaspur - NTPC",27-05-2024 01:00:00,22.08815,82.13737,NO2,21,24,22
India,Chhattisgarh,Bilaspur,"Mangala, Bilaspur - NTPC",27-05-2024 01:00:00,22.08815,82.13737,CO,46,50,47
India,Chhattisgarh,Chhal,"Nawapara SECL Colony, Chhal - CECB",27-05-2024 01:00:00,22.118125,83.140608,NO2,8,38,18
India,Chhattisgarh,Korba,"Rampur, Korba - CECB",27-05-2024 01:00:00,22.368195,82.746431,PM2.5,28,64,47
India,Chhattisgarh,Korba,"Rampur, Korba - CECB",27-05-2024 01:00:00,22.368195,82.746431,CO,8,22,17
India,Chhattisgarh,Korba,"Urja Nagar, Korba - CECB",27-05-2024 01:00:00,22.348441,82.549611,CO,14,56,29
India,Chhattisgarh,Kunjemura,"OP Jindal School, Kunjemura - CECB",27-05-2024 01:00:00,22.126650,83.483212,NH3,1,3,2
India,Chhattisgarh,Raipur,"Bhatagaon New ISBT, Raipur - CECB",27-05-2024 01:00:00,21.219665,81.630094,OZONE,3,8,4
India,Chhattisgarh,Raipur,"Krishak Nagar, Raipur - CECB",27-05-2024 01:00:00,21.237755,81.705301,PM10,48,85,59
India,Chhattisgarh,Raipur,"Krishak Nagar, Raipur - CECB",27-05-2024 01:00:00,21.237755,81.705301,NO2,8,8,8
India,Chhattisgarh,Raipur,"Siltara Phase-II, Raipur - CECB",27-05-2024 01:00:00,21.371751,81.664929,PM10,70,178,107
India,Chhattisgarh,Raipur,"Siltara Phase-II, Raipur - CECB",27-05-2024 01:00:00,21.371751,81.664929,NO2,22,77,40
India,Chhattisgarh,Raipur,"Siltara Phase-II, Raipur - CECB",27-05-2024 01:00:00,21.371751,81.664929,NH3,3,3,3
India,Chhattisgarh,Raipur,"Siltara Phase-II, Raipur - CECB",27-05-2024 01:00:00,21.371751,81.664929,OZONE,3,57,22
India,Delhi,Delhi,"Alipur, Delhi - DPCC",27-05-2024 01:00:00,28.815329,77.153010,PM10,100,335,185
India,Delhi,Delhi,"Alipur, Delhi - DPCC",27-05-2024 01:00:00,28.815329,77.153010,CO,44,86,67
India,Delhi,Delhi,"Anand Vihar, Delhi - DPCC",27-05-2024 01:00:00,28.647622,77.3158090,NH3,3,7,5
India,Delhi,Delhi,"Anand Vihar, Delhi - DPCC",27-05-2024 01:00:00,28.647622,77.3158090,SO2,23,70,33
India,Delhi,Delhi,"Ashok Vihar, Delhi - DPCC",27-05-2024 01:00:00,28.695381,77.181665,NH3,4,18,13
India,Delhi,Delhi,"Aya Nagar, Delhi - IMD",27-05-2024 01:00:00,28.4706914,77.1099364,PM2.5,10,368,166
India,Delhi,Delhi,"Aya Nagar, Delhi - IMD",27-05-2024 01:00:00,28.4706914,77.1099364,PM10,65,181,130
India,Delhi,Delhi,"Bawana, Delhi - DPCC",27-05-2024 01:00:00,28.776200,77.051074,PM10,125,406,232
India,Delhi,Delhi,"CRRI Mathura Road, Delhi - IMD",27-05-2024 01:00:00,28.5512005,77.2735737,PM2.5,46,302,150
India,Delhi,Delhi,"Chandni Chowk, Delhi - IITM",27-05-2024 01:00:00,28.656756,77.227234,PM2.5,276,373,326
India,Delhi,Delhi,"Chandni Chowk, Delhi - IITM",27-05-2024 01:00:00,28.656756,77.227234,NO2,10,51,18
India,Delhi,Delhi,"Dr. Karni Singh Shooting Range, Delhi - DPCC",27-05-2024 01:00:00,28.498571,77.264840,NO2,23,134,65
India,Delhi,Delhi,"Dwarka-Sector 8, Delhi - DPCC ",27-05-2024 01:00:00,28.5710274,77.0719006,PM10,116,463,248
India,Delhi,Delhi,"IGI Airport (T3), Delhi - IMD",27-05-2024 01:00:00,28.5627763,77.1180053,CO,19,68,43
India,Delhi,Delhi,"IGI Airport (T3), Delhi - IMD",27-05-2024 01:00:00,28.5627763,77.1180053,OZONE,4,59,21
India,Delhi,Delhi,"IHBAS, Dilshad Garden, Delhi - CPCB",27-05-2024 01:00:00,28.6811736,77.3025234,SO2,3,35,22
India,Delhi,Delhi,"IHBAS, Dilshad Garden, Delhi - CPCB",27-05-2024 01:00:00,28.6811736,77.3025234,OZONE,18,23,22
India,Delhi,Delhi,"ITO, Delhi - CPCB",27-05-2024 01:00:00,28.628624,77.241060,NH3,3,8,6
India,Delhi,Delhi,"Jawaharlal Nehru Stadium, Delhi - DPCC",27-05-2024 01:00:00,28.580280,77.233829,PM10,89,243,138
India,Delhi,Delhi,"Lodhi Road, Delhi - IITM",27-05-2024 01:00:00,28.588333,77.221667,NO2,3,127,52
India,Delhi,Delhi,"Lodhi Road, Delhi - IMD",27-05-2024 01:00:00,28.5918245,77.2273074,PM10,89,170,122
India,Delhi,Delhi,"Lodhi Road, Delhi - IMD",27-05-2024 01:00:00,28.5918245,77.2273074,CO,14,60,36
India,Delhi,Delhi,"Lodhi Road, Delhi - IMD",27-05-2024 01:00:00,28.5918245,77.2273074,OZONE,16,73,37
India,Delhi,Delhi,"Major Dhyan Chand National Stadium, Delhi - DPCC",27-05-2024 01:00:00,28.611281,77.237738,PM2.5,60,314,162
India,Delhi,Delhi,"Major Dhyan Chand National Stadium, Delhi - DPCC",27-05-2024 01:00:00,28.611281,77.237738,NO2,13,193,82
India,Delhi,Delhi,"Major Dhyan Chand National Stadium, Delhi - DPCC",27-05-2024 01:00:00,28.611281,77.237738,SO2,13,45,22
India,Delhi,Delhi,"Major Dhyan Chand National Stadium, Delhi - DPCC",27-05-2024 01:00:00,28.611281,77.237738,OZONE,1,274,81
India,Delhi,Delhi,"Mandir Marg, Delhi - DPCC",27-05-2024 01:00:00,28.636429,77.201067,NH3,3,6,5
India,Delhi,Delhi,"Mandir Marg, Delhi - DPCC",27-05-2024 01:00:00,28.636429,77.201067,OZONE,11,132,67
India,Delhi,Delhi,"Mundka, Delhi - DPCC",27-05-2024 01:00:00,28.684678,77.076574,CO,30,108,55
India,Delhi,Delhi,"NSIT Dwarka, Delhi - CPCB",27-05-2024 01:00:00,28.60909,77.0325413,NH3,10,11,10
India,Delhi,Delhi,"NSIT Dwarka, Delhi - CPCB",27-05-2024 01:00:00,28.60909,77.0325413,OZONE,10,95,37
India,Delhi,Delhi,"Najafgarh, Delhi - DPCC",27-05-2024 01:00:00,28.570173,76.933762,PM2.5,23,318,105
India,Delhi,Delhi,"Najafgarh, Delhi - DPCC",27-05-2024 01:00:00,28.570173,76.933762,OZONE,16,111,71
India,Delhi,Delhi,"Narela, Delhi - DPCC",27-05-2024 01:00:00,28.822836,77.101981,PM2.5,60,376,159
India,Delhi,Delhi,"Narela, Delhi - DPCC",27-05-2024 01:00:00,28.822836,77.101981,NH3,4,12,7
India,Delhi,Delhi,"Narela, Delhi - DPCC",27-05-2024 01:00:00,28.822836,77.101981,SO2,14,116,44
India,Delhi,Delhi,"New Moti Bagh, Delhi - MHUA",27-05-2024 01:00:00,28.57834,77.18400,NO2,6,50,23
India,Delhi,Delhi,"Okhla Phase-2, Delhi - DPCC",27-05-2024 01:00:00,28.530785,77.271255,PM2.5,40,310,118
India,Delhi,Delhi,"Okhla Phase-2, Delhi - DPCC",27-05-2024 01:00:00,28.530785,77.271255,PM10,112,403,189
India,Delhi,Delhi,"Okhla Phase-2, Delhi - DPCC",27-05-2024 01:00:00,28.530785,77.271255,CO,39,134,107
India,Delhi,Delhi,"Okhla Phase-2, Delhi - DPCC",27-05-2024 01:00:00,28.530785,77.271255,OZONE,4,158,58
India,Delhi,Delhi,"Patparganj, Delhi - DPCC",27-05-2024 01:00:00,28.623763,77.287209,NH3,5,8,6
India,Delhi,Delhi,"Pusa, Delhi - IMD",27-05-2024 01:00:00,28.636110,77.173332,PM10,NA,NA,NA
India,Delhi,Delhi,"Rohini, Delhi - DPCC",27-05-2024 01:00:00,28.732528,77.119920,NH3,7,14,11
India,Delhi,Delhi,"Rohini, Delhi - DPCC",27-05-2024 01:00:00,28.732528,77.119920,CO,8,119,62
India,Delhi,Delhi,"Rohini, Delhi - DPCC",27-05-2024 01:00:00,28.732528,77.119920,OZONE,6,208,74
India,Delhi,Delhi,"Shadipur, Delhi - CPCB",27-05-2024 01:00:00,28.6514781,77.1473105,PM2.5,106,500,285
India,Delhi,Delhi,"Shadipur, Delhi - CPCB",27-05-2024 01:00:00,28.6514781,77.1473105,CO,49,110,76
India,Delhi,Delhi,"Sirifort, Delhi - CPCB",27-05-2024 01:00:00,28.5504249,77.2159377,PM10,120,500,213
India,Delhi,Delhi,"Sirifort, Delhi - CPCB",27-05-2024 01:00:00,28.5504249,77.2159377,CO,12,120,67
India,Delhi,Delhi,"Sirifort, Delhi - CPCB",27-05-2024 01:00:00,28.5504249,77.2159377,OZONE,6,115,32
India,Delhi,Delhi,"Sonia Vihar, Delhi - DPCC",27-05-2024 01:00:00,28.710508,77.249485,NH3,5,8,7
India,Delhi,Delhi,"Sri Aurobindo Marg, Delhi - DPCC",27-05-2024 01:00:00,28.531346,77.190156,NO2,7,104,44
India,Delhi,Delhi,"Sri Aurobindo Marg, Delhi - DPCC",27-05-2024 01:00:00,28.531346,77.190156,OZONE,2,168,63
India,Gujarat,Ahmedabad,"Chandkheda, Ahmedabad - IITM",27-05-2024 01:00:00,23.107969,72.574648,NO2,42,54,50
India,Gujarat,Ahmedabad,"Gyaspur, Ahmedabad - IITM",27-05-2024 01:00:00,22.977134,72.553024,PM10,93,165,131
India,Gujarat,Ahmedabad,"Gyaspur, Ahmedabad - IITM",27-05-2024 01:00:00,22.977134,72.553024,NO2,NA,NA,NA
India,Gujarat,Ahmedabad,"Maninagar, Ahmedabad - GPCB",27-05-2024 01:00:00,23.002657,72.591912,NO2,NA,NA,NA
India,Gujarat,Ahmedabad,"Maninagar, Ahmedabad - GPCB",27-05-2024 01:00:00,23.002657,72.591912,CO,NA,NA,NA
India,Gujarat,Ahmedabad,"Raikhad, Ahmedabad - IITM",27-05-2024 01:00:00,23.020509,72.579261,NO2,31,216,55
India,Gujarat,Ahmedabad,"Raikhad, Ahmedabad - IITM",27-05-2024 01:00:00,23.020509,72.579261,NH3,5,14,8
India,Gujarat,Ahmedabad,"SVPI Airport Hansol, Ahmedabad - IITM",27-05-2024 01:00:00,23.076793,72.627874,NH3,4,6,5
India,Gujarat,Ahmedabad,"SVPI Airport Hansol, Ahmedabad - IITM",27-05-2024 01:00:00,23.076793,72.627874,OZONE,23,58,45
India,Gujarat,Ahmedabad,"Sardar Vallabhbhai Patel Stadium, Ahmedabad - IITM",27-05-2024 01:00:00,23.043070,72.562968,PM2.5,71,132,95
India,Gujarat,Ahmedabad,"Sardar Vallabhbhai Patel Stadium, Ahmedabad - IITM",27-05-2024 01:00:00,23.043070,72.562968,NO2,31,104,46
India,Gujarat,Ankleshwar,"GIDC, Ankleshwar - GPCB",27-05-2024 01:00:00,21.613267,73.010555,SO2,NA,NA,NA
India,Gujarat,Ankleshwar,"GIDC, Ankleshwar - GPCB",27-05-2024 01:00:00,21.613267,73.010555,CO,NA,NA,NA
India,Gujarat,Gandhinagar,"Sector-10, Gandhinagar - GPCB",27-05-2024 01:00:00,23.221714,72.654328,NO2,13,14,14
India,Gujarat,Gandhinagar,"Sector-10, Gandhinagar - GPCB",27-05-2024 01:00:00,23.221714,72.654328,OZONE,6,67,34
India,Gujarat,Nandesari,"GIDC, Nandesari - Nandesari Ind. Association",27-05-2024 01:00:00,22.410802,73.097923,PM10,75,180,124
India,Gujarat,Surat,"Science Center, Surat - SMC",27-05-2024 01:00:00,21.170046,72.795405,SO2,11,13,12
India,Gujarat,Vapi,"Phase-1 GIDC, Vapi - GPCB",27-05-2024 01:00:00,20.362421,72.918013,NO2,6,7,6
India,Gujarat,Vapi,"Phase-1 GIDC, Vapi - GPCB",27-05-2024 01:00:00,20.362421,72.918013,SO2,45,46,46
India,Gujarat,Vatva,"Phase-4 GIDC, Vatva - GPCB",27-05-2024 01:00:00,22.969611,72.643500,PM2.5,35,67,46
India,Haryana,Ambala,"Patti Mehar, Ambala - HSPCB",27-05-2024 01:00:00,30.379589,76.778328,NH3,5,12,8
India,Haryana,Ballabgarh,"Nathu Colony, Ballabgarh - HSPCB",27-05-2024 01:00:00,28.3419248,77.319699,PM10,102,363,170
India,Haryana,Charkhi Dadri,"Mini Secretariat, Charkhi Dadri - HSPCB",27-05-2024 01:00:00,28.593883,76.270653,NH3,6,9,7
India,Haryana,Faridabad,"New Industrial Town, Faridabad - HSPCB",27-05-2024 01:00:00,28.39072,77.30059,PM2.5,138,500,304
India,Haryana,Faridabad,"New Industrial Town, Faridabad - HSPCB",27-05-2024 01:00:00,28.39072,77.30059,PM10,113,500,215
India,Haryana,Faridabad,"Sector- 16A, Faridabad - HSPCB",27-05-2024 01:00:00,28.4088421,77.3099081,NO2,1,24,11
India,Haryana,Faridabad,"Sector- 16A, Faridabad - HSPCB",27-05-2024 01:00:00,28.4088421,77.3099081,SO2,20,28,25
India,Haryana,Gurugram,"NISE Gwal Pahari, Gurugram - IMD",27-05-2024 01:00:00,28.422681,77.148944,PM2.5,NA,NA,NA
India,Haryana,Gurugram,"Sector-51, Gurugram - HSPCB",27-05-2024 01:00:00,28.4227,77.0667,NO2,13,29,23
India,Haryana,Gurugram,"Sector-51, Gurugram - HSPCB",27-05-2024 01:00:00,28.4227,77.0667,NH3,7,14,9
India,Haryana,Gurugram,"Teri Gram, Gurugram - HSPCB",27-05-2024 01:00:00,28.4275,77.1465,PM2.5,89,216,154
India,Haryana,Gurugram,"Teri Gram, Gurugram - HSPCB",27-05-2024 01:00:00,28.4275,77.1465,SO2,5,7,5
India,Haryana,Gurugram,"Vikas Sadan, Gurugram - HSPCB",27-05-2024 01:00:00,28.4501238,77.0263051,NO2,4,25,14
India,Haryana,Gurugram,"Vikas Sadan, Gurugram - HSPCB",27-05-2024 01:00:00,28.4501238,77.0263051,SO2,9,103,30
India,Haryana,Hisar,"Urban Estate-II, Hisar - HSPCB",27-05-2024 01:00:00,29.140560,75.744941,PM10,68,124,99
India,Haryana,Jind,"Police Lines, Jind - HSPCB",27-05-2024 01:00:00,29.307814,76.337619,NH3,NA,NA,NA
India,Haryana,Kaithal,"Rishi Nagar, Kaithal - HSPCB",27-05-2024 01:00:00,29.8006,76.4155,OZONE,18,32,23
India,Haryana,Karnal,"Sector-12, Karnal - HSPCB",27-05-2024 01:00:00,29.695300,77.002700,PM2.5,58,128,89
India,Haryana,Karnal,"Sector-12, Karnal - HSPCB",27-05-2024 01:00:00,29.695300,77.002700,OZONE,27,35,31
India,Haryana,Mandikhera,"General Hospital, Mandikhera - HSPCB",27-05-2024 01:00:00,27.9002,76.9938,SO2,30,38,34
India,Haryana,Mandikhera,"General Hospital, Mandikhera - HSPCB",27-05-2024 01:00:00,27.9002,76.9938,OZONE,23,33,27
India,Haryana,Manesar,"Sector-2 IMT, Manesar - HSPCB",27-05-2024 01:00:00,28.360699,76.936090,SO2,NA,NA,NA
India,Haryana,Narnaul,"Shastri Nagar, Narnaul - HSPCB",27-05-2024 01:00:00,28.060249,76.113115,PM10,103,137,114
India,Haryana,Narnaul,"Shastri Nagar, Narnaul - HSPCB",27-05-2024 01:00:00,28.060249,76.113115,CO,13,46,23
India,Haryana,Palwal,"Shyam Nagar, Palwal - HSPCB",27-05-2024 01:00:00,28.1485564,77.3320667,PM2.5,48,95,67
India,Haryana,Palwal,"Shyam Nagar, Palwal - HSPCB",27-05-2024 01:00:00,28.1485564,77.3320667,PM10,77,120,101
India,Haryana,Palwal,"Shyam Nagar, Palwal - HSPCB",27-05-2024 01:00:00,28.1485564,77.3320667,NH3,8,9,9
India,Haryana,Palwal,"Shyam Nagar, Palwal - HSPCB",27-05-2024 01:00:00,28.1485564,77.3320667,CO,20,47,33
India,Haryana,Panchkula,"Sector-6, Panchkula - HSPCB ",27-05-2024 01:00:00,30.7057778,76.8531805555555,PM2.5,71,299,159
India,Haryana,Panchkula,"Sector-6, Panchkula - HSPCB ",27-05-2024 01:00:00,30.7057778,76.8531805555555,NO2,9,11,10
India,Haryana,Rohtak,"MD University, Rohtak - HSPCB",27-05-2024 01:00:00,28.52123,76.37138,PM2.5,41,369,142
India,Haryana,Sirsa,"F-Block, Sirsa - HSPCB",27-05-2024 01:00:00,29.536400,75.015800,PM10,52,83,68
India,Haryana,Sirsa,"F-Block, Sirsa - HSPCB",27-05-2024 01:00:00,29.536400,75.015800,NH3,12,13,12
India,Haryana,Sirsa,"F-Block, Sirsa - HSPCB",27-05-2024 01:00:00,29.536400,75.015800,CO,58,78,65
India,Haryana,Sonipat,"Murthal, Sonipat - HSPCB",27-05-2024 01:00:00,29.027200,77.062100,PM10,98,161,120
India,Haryana,Yamuna Nagar,"Gobind Pura, Yamuna Nagar - HSPCB",27-05-2024 01:00:00,30.1480566,77.2893471,PM10,101,129,113
India,Haryana,Yamuna Nagar,"Gobind Pura, Yamuna Nagar - HSPCB",27-05-2024 01:00:00,30.1480566,77.2893471,NO2,11,21,16
India,Jharkhand,Dhanbad,"Kalakusuma, Dhanbad - DMC",27-05-2024 01:00:00,23.811548,86.481238,PM2.5,NA,NA,NA
India,Jharkhand,Dhanbad,"Kalakusuma, Dhanbad - DMC",27-05-2024 01:00:00,23.811548,86.481238,CO,128,135,131
India,Jharkhand,Dhanbad,"Kalakusuma, Dhanbad - DMC",27-05-2024 01:00:00,23.811548,86.481238,OZONE,31,55,41
India,Karnataka,Bagalkot,"Vidayagiri, Bagalkot - KSPCB",27-05-2024 01:00:00,16.172806,75.659694,NH3,1,2,1
India,Karnataka,Belgaum,"Ramteerth Nagar, Belgaum - KSPCB",27-05-2024 01:00:00,15.888653,74.541751,CO,36,54,38
India,Karnataka,Bengaluru,"Kasturi Nagar, Bengaluru - KSPCB",27-05-2024 01:00:00,13.003872,77.664217,OZONE,10,43,21
India,Karnataka,Bengaluru,"Shivapura_Peenya, Bengaluru - KSPCB",27-05-2024 01:00:00,13.0246342,77.5080115,PM2.5,40,101,66
India,Karnataka,Bengaluru,"Silk Board, Bengaluru - KSPCB",27-05-2024 01:00:00,12.917348,77.622813,PM2.5,15,51,35
India,Karnataka,Bengaluru,"Silk Board, Bengaluru - KSPCB",27-05-2024 01:00:00,12.917348,77.622813,PM10,76,164,113
India,Karnataka,Bidar,"Naubad, Bidar - KSPCB",27-05-2024 01:00:00,17.930306,77.482194,SO2,16,20,18
India,Karnataka,Chamarajanagar,"Urban, Chamarajanagar - KSPCB",27-05-2024 01:00:00,11.55358,76.55521,OZONE,15,27,24
India,Karnataka,Chikkaballapur,"Chikkaballapur Rural, Chikkaballapur - KSPCB",27-05-2024 01:00:00,13.428828,77.731418,NH3,1,1,1
India,Karnataka,Chikkamagaluru,"Kalyana Nagara, Chikkamagaluru - KSPCB",27-05-2024 01:00:00,13.328028,75.797056,PM2.5,27,58,42
India,Karnataka,Chikkamagaluru,"Kalyana Nagara, Chikkamagaluru - KSPCB",27-05-2024 01:00:00,13.328028,75.797056,PM10,41,109,61
India,Karnataka,Chikkamagaluru,"Kalyana Nagara, Chikkamagaluru - KSPCB",27-05-2024 01:00:00,13.328028,75.797056,NO2,14,32,20
India,Karnataka,Davanagere,"Devaraj Urs Badavane, Davanagere - KSPCB",27-05-2024 01:00:00,14.475800,75.905200,PM2.5,14,58,34
India,Karnataka,Dharwad,"Kalabhavan, Dharwad - KSPCB",27-05-2024 01:00:00,15.459706,75.008381,PM2.5,27,80,51
India,Karnataka,Dharwad,"Kalabhavan, Dharwad - KSPCB",27-05-2024 01:00:00,15.459706,75.008381,CO,16,36,27
India,Karnataka,Gadag,"Panchal Nagar, Gadag - KSPCB",27-05-2024 01:00:00,15.411456,75.638133,PM10,26,39,32
India,Karnataka,Gadag,"Panchal Nagar, Gadag - KSPCB",27-05-2024 01:00:00,15.411456,75.638133,NH3,1,3,2
India,Karnataka,Hubballi,"Deshpande Nagar, Hubballi - KSPCB",27-05-2024 01:00:00,15.351773,75.140726,PM10,NA,NA,NA
India,Karnataka,Hubballi,"Deshpande Nagar, Hubballi - KSPCB",27-05-2024 01:00:00,15.351773,75.140726,CO,NA,NA,NA
India,Karnataka,Kalaburagi,"Lal Bahadur Shastri Nagar, Kalaburagi - KSPCB",27-05-2024 01:00:00,17.321993,76.822628,SO2,7,13,9
India,Karnataka,Karwar,"KHB Colony, Karwar - KSPCB",27-05-2024 01:00:00,14.816666,74.141003,SO2,23,24,23
India,Karnataka,Madikeri,"Stuart Hill, Madikeri - KSPCB",27-05-2024 01:00:00,12.415911,75.735050,PM10,26,59,43
India,Karnataka,Madikeri,"Stuart Hill, Madikeri - KSPCB",27-05-2024 01:00:00,12.415911,75.735050,NO2,1,4,2
India,Karnataka,Mysuru,"Hebbal 1st Stage, Mysuru - KSPCB",27-05-2024 01:00:00,12.21041,76.37376,NH3,NA,NA,NA
India,Karnataka,Raichur,"Haji Colony, Raichur - KSPCB",27-05-2024 01:00:00,16.208139,77.348417,SO2,57,82,74
India,Karnataka,Ramanagara,"Vijay Nagar, Ramanagara - KSPCB",27-05-2024 01:00:00,12.733409,77.298051,PM2.5,23,57,34
India,Karnataka,Shivamogga,"Vinoba Nagara, Shivamogga - KSPCB",27-05-2024 01:00:00,13.940000,75.555917,PM2.5,28,50,39
India,Karnataka,Shivamogga,"Vinoba Nagara, Shivamogga - KSPCB",27-05-2024 01:00:00,13.940000,75.555917,NO2,NA,NA,NA
India,Karnataka,Shivamogga,"Vinoba Nagara, Shivamogga - KSPCB",27-05-2024 01:00:00,13.940000,75.555917,OZONE,4,21,10
India,Karnataka,Tumakuru,"Thimmalapura, Tumakuru - KSPCB",27-05-2024 01:00:00,13.377516,77.099072,PM2.5,21,57,39
India,Karnataka,Tumakuru,"Thimmalapura, Tumakuru - KSPCB",27-05-2024 01:00:00,13.377516,77.099072,CO,30,34,32
India,Karnataka,Udupi,"Brahmagiri, Udupi - KSPCB",27-05-2024 01:00:00,13.34194444,74.74694444,PM2.5,NA,NA,NA
India,Karnataka,Udupi,"Brahmagiri, Udupi - KSPCB",27-05-2024 01:00:00,13.34194444,74.74694444,NO2,NA,NA,NA
India,Karnataka,Udupi,"Brahmagiri, Udupi - KSPCB",27-05-2024 01:00:00,13.34194444,74.74694444,NH3,NA,NA,NA
India,Karnataka,Yadgir,"Collector Office, Yadgir - KSPCB",27-05-2024 01:00:00,16.7602,77.1428,NH3,1,3,2
India,Kerala,Kollam,"Polayathode, Kollam - Kerala PCB",27-05-2024 01:00:00,8.8787,76.6073,PM2.5,29,76,52
India,Kerala,Kollam,"Polayathode, Kollam - Kerala PCB",27-05-2024 01:00:00,8.8787,76.6073,OZONE,29,34,31
India,Kerala,Thiruvananthapuram,"Kariavattom, Thiruvananthapuram - Kerala PCB",27-05-2024 01:00:00,8.563700,76.886500,OZONE,28,33,29
India,Kerala,Thiruvananthapuram,"Plammoodu, Thiruvananthapuram - Kerala PCB",27-05-2024 01:00:00,8.5149093,76.9435879,PM2.5,2,33,17
India,Madhya Pradesh,Bhopal,"Idgah Hills, Bhopal - MPPCB",27-05-2024 01:00:00,23.264759,77.381568,PM10,68,144,104
India,Madhya Pradesh,Bhopal,"Idgah Hills, Bhopal - MPPCB",27-05-2024 01:00:00,23.264759,77.381568,NO2,7,72,28
India,Madhya Pradesh,Bhopal,"Idgah Hills, Bhopal - MPPCB",27-05-2024 01:00:00,23.264759,77.381568,NH3,5,7,6
India,Madhya Pradesh,Bhopal,"Idgah Hills, Bhopal - MPPCB",27-05-2024 01:00:00,23.264759,77.381568,OZONE,22,139,81
India,Madhya Pradesh,Bhopal,"Paryavaran Parisar, Bhopal - MPPCB",27-05-2024 01:00:00,23.210494,77.425409,NH3,3,6,4
India,Madhya Pradesh,Bhopal,"Paryavaran Parisar, Bhopal - MPPCB",27-05-2024 01:00:00,23.210494,77.425409,CO,4,44,27
India,Madhya Pradesh,Bhopal,"T T Nagar, Bhopal - MPPCB",27-05-2024 01:00:00,23.233584,77.400574,NO2,39,107,65
India,Madhya Pradesh,Bhopal,"T T Nagar, Bhopal - MPPCB",27-05-2024 01:00:00,23.233584,77.400574,OZONE,22,115,64
India,Madhya Pradesh,Dewas,"Bhopal Chauraha, Dewas - MPPCB",27-05-2024 01:00:00,22.9682591,76.064118,PM10,42,63,54
India,Madhya Pradesh,Dewas,"Bhopal Chauraha, Dewas - MPPCB",27-05-2024 01:00:00,22.9682591,76.064118,SO2,23,32,27
India,Madhya Pradesh,Gwalior,"City Center, Gwalior - MPPCB",27-05-2024 01:00:00,26.203442,78.193251,PM10,87,265,130
India,Madhya Pradesh,Gwalior,"City Center, Gwalior - MPPCB",27-05-2024 01:00:00,26.203442,78.193251,SO2,6,138,49
India,Madhya Pradesh,Gwalior,"Deen Dayal Nagar, Gwalior - MPPCB",27-05-2024 01:00:00,26.259242,78.216432,NO2,10,98,44
India,Madhya Pradesh,Gwalior,"Maharaj Bada, Gwalior - MPPCB",27-05-2024 01:00:00,26.200388,78.147714,NH3,3,27,7
India,Madhya Pradesh,Indore,"Maguda Nagar, Indore - IMC",27-05-2024 01:00:00,22.7524,75.8872,NO2,3,6,5
India,Madhya Pradesh,Indore,"Regional Park, Indore - IMC",27-05-2024 01:00:00,22.6780,75.8559,NH3,1,3,2
India,Madhya Pradesh,Indore,"Regional Park, Indore - IMC",27-05-2024 01:00:00,22.6780,75.8559,CO,24,44,26
India,Madhya Pradesh,Indore,"Residency Area, Indore - IMC",27-05-2024 01:00:00,22.7084,75.8815,NH3,NA,NA,NA
India,Madhya Pradesh,Indore,"Residency Area, Indore - IMC",27-05-2024 01:00:00,22.7084,75.8815,OZONE,9,22,14
India,Madhya Pradesh,Jabalpur,"Govindh Bhavan Colony, Jabalpur - JMC",27-05-2024 01:00:00,23.163174,79.973061,NH3,3,5,4
India,Madhya Pradesh,Jabalpur,"Govindh Bhavan Colony, Jabalpur - JMC",27-05-2024 01:00:00,23.163174,79.973061,SO2,14,28,18
India,Madhya Pradesh,Jabalpur,"Marhatal, Jabalpur - MPPCB",27-05-2024 01:00:00,23.168606,79.932247,PM2.5,38,158,76
India,Madhya Pradesh,Jabalpur,"Marhatal, Jabalpur - MPPCB",27-05-2024 01:00:00,23.168606,79.932247,NH3,3,5,4
India,Madhya Pradesh,Jabalpur,"Suhagi, Jabalpur - JMC",27-05-2024 01:00:00,23.218135,79.957770,PM2.5,32,190,99
India,Madhya Pradesh,Jabalpur,"Suhagi, Jabalpur - JMC",27-05-2024 01:00:00,23.218135,79.957770,SO2,13,18,16
India,Madhya Pradesh,Jabalpur,"Suhagi, Jabalpur - JMC",27-05-2024 01:00:00,23.218135,79.957770,CO,12,95,68
India,Madhya Pradesh,Maihar,"Sahilara, Maihar - KJS Cements",27-05-2024 01:00:00,24.2613009,80.7231783,SO2,13,16,14
India,Madhya Pradesh,Pithampur,"Sector-2 Industrial Area, Pithampur - MPPCB",27-05-2024 01:00:00,22.624758,75.675238,NO2,5,21,9
India,Madhya Pradesh,Pithampur,"Sector-2 Industrial Area, Pithampur - MPPCB",27-05-2024 01:00:00,22.624758,75.675238,NH3,2,2,2
India,Madhya Pradesh,Sagar,"Civil Lines, Sagar - MPPCB",27-05-2024 01:00:00,23.838586,78.759431,SO2,2,10,5
India,Madhya Pradesh,Sagar,"Deen Dayal Nagar, Sagar - MPPCB",27-05-2024 01:00:00,23.8640158,78.80289321,CO,58,66,60
India,Madhya Pradesh,Satna,"Bandhavgar Colony, Satna - Birla Cement",27-05-2024 01:00:00,24.58434363,80.8549414,NO2,31,55,43
India,Madhya Pradesh,Ujjain,"Mahakaleshwar Temple, Ujjain - MPPCB",27-05-2024 01:00:00,23.182719 ,75.768218 ,PM2.5,NA,NA,NA
India,Maharashtra,Ahmednagar,"Tarakpur, Ahmednagar - MPCB",27-05-2024 01:00:00,19.10122,74.73339,NO2,NA,NA,NA
India,Maharashtra,Amravati,"Shivneri Colony, Amravati - MPCB",27-05-2024 01:00:00,20.9402359,77.7895248,PM10,77,138,115
India,Maharashtra,Aurangabad,"MIDC Chilkalthana, Aurangabad - MPCB",27-05-2024 01:00:00,19.875620,75.387310,SO2,1,11,5
India,Maharashtra,Aurangabad,"More Chowk Waluj, Aurangabad - MPCB",27-05-2024 01:00:00,19.8389439,75.244448,PM10,36,104,58
India,Maharashtra,Aurangabad,"More Chowk Waluj, Aurangabad - MPCB",27-05-2024 01:00:00,19.8389439,75.244448,SO2,5,9,7
India,Maharashtra,Aurangabad,"More Chowk Waluj, Aurangabad - MPCB",27-05-2024 01:00:00,19.8389439,75.244448,OZONE,28,73,54
India,Maharashtra,Badlapur,"Katrap, Badlapur - MPCB",27-05-2024 01:00:00,19.16485,73.23409,NH3,3,5,4
India,Maharashtra,Badlapur,"Katrap, Badlapur - MPCB",27-05-2024 01:00:00,19.16485,73.23409,SO2,8,15,12
India,Maharashtra,Belapur,"CBD Belapur, Belapur - MPCB",27-05-2024 01:00:00,19.0243902,73.0406721,PM2.5,41,66,50
India,Maharashtra,Bhiwandi,"Gokul Nagar, Bhiwandi - MPCB",27-05-2024 01:00:00,19.309073,73.057223,SO2,12,21,14
India,Maharashtra,Boisar,"Khaira, Boisar - MPCB",27-05-2024 01:00:00,19.786089,72.757971,PM2.5,14,197,76
India,Maharashtra,Boisar,"Khaira, Boisar - MPCB",27-05-2024 01:00:00,19.786089,72.757971,PM10,66,124,98
India,Maharashtra,Boisar,"Khaira, Boisar - MPCB",27-05-2024 01:00:00,19.786089,72.757971,NH3,2,16,9
India,Maharashtra,Boisar,"Khaira, Boisar - MPCB",27-05-2024 01:00:00,19.786089,72.757971,SO2,38,52,47
India,Maharashtra,Chandrapur,"Chauhan Colony, Chandrapur - MPCB",27-05-2024 01:00:00,19.962900,79.298714,PM2.5,72,170,113
India,Maharashtra,Chandrapur,"Chauhan Colony, Chandrapur - MPCB",27-05-2024 01:00:00,19.962900,79.298714,NO2,12,42,21
India,Maharashtra,Chandrapur,"MIDC Khutala, Chandrapur - MPCB",27-05-2024 01:00:00,19.9775302,79.2337086,PM2.5,31,91,54
India,Maharashtra,Chandrapur,"MIDC Khutala, Chandrapur - MPCB",27-05-2024 01:00:00,19.9775302,79.2337086,NO2,12,51,27
India,Maharashtra,Chandrapur,"MIDC Khutala, Chandrapur - MPCB",27-05-2024 01:00:00,19.9775302,79.2337086,CO,28,67,39
India,Maharashtra,Dhule,"Deopur, Dhule - MPCB",27-05-2024 01:00:00,20.918946,74.776388,PM2.5,20,94,69
India,Maharashtra,Dhule,"Deopur, Dhule - MPCB",27-05-2024 01:00:00,20.918946,74.776388,SO2,NA,NA,NA
India,Maharashtra,Dhule,"Deopur, Dhule - MPCB",27-05-2024 01:00:00,20.918946,74.776388,CO,10,50,32
India,Maharashtra,Dhule,"Deopur, Dhule - MPCB",27-05-2024 01:00:00,20.918946,74.776388,OZONE,10,68,37
India,Maharashtra,Jalna,"Old MIDC, Jalna - MPCB",27-05-2024 01:00:00,19.854616,75.905894,PM2.5,33,62,49
India,Maharashtra,Kalyan,"Khadakpada, Kalyan - MPCB",27-05-2024 01:00:00,19.25292,73.142019,PM2.5,NA,NA,NA
India,Maharashtra,Latur,"Sawe Wadi, Latur - MPCB",27-05-2024 01:00:00,18.39963,76.57452,NO2,9,141,26
India,Maharashtra,Malegaon,"Mahesh Nagar, Malegaon - MPCB",27-05-2024 01:00:00,20.555712,74.529236,NO2,14,110,32
India,Maharashtra,Malegaon,"Mahesh Nagar, Malegaon - MPCB",27-05-2024 01:00:00,20.555712,74.529236,CO,11,38,27
India,Maharashtra,Mira-Bhayandar,"Bhayandar West, Mira-Bhayandar - MPCB",27-05-2024 01:00:00,19.296481,72.840923,NH3,2,2,2
India,Maharashtra,Mumbai,"Bandra Kurla Complex, Mumbai - MPCB",27-05-2024 01:00:00,19.065931,72.862131,NH3,7,19,10
India,Maharashtra,Mumbai,"Bandra Kurla Complex, Mumbai - MPCB",27-05-2024 01:00:00,19.065931,72.862131,CO,28,42,36
India,Maharashtra,Mumbai,"Borivali East, Mumbai - MPCB",27-05-2024 01:00:00,19.2243333,72.8658113,PM2.5,10,20,14
India,Maharashtra,Mumbai,"Borivali East, Mumbai - MPCB",27-05-2024 01:00:00,19.2243333,72.8658113,PM10,35,66,48
India,Maharashtra,Mumbai,"Borivali East, Mumbai - MPCB",27-05-2024 01:00:00,19.2243333,72.8658113,SO2,9,19,14
India,Maharashtra,Mumbai,"Borivali East, Mumbai - MPCB",27-05-2024 01:00:00,19.2243333,72.8658113,CO,34,38,37
India,Maharashtra,Mumbai,"Chembur, Mumbai - MPCB",27-05-2024 01:00:00,19.0364585,72.8954371,PM10,47,63,55
India,Maharashtra,Mumbai,"Chembur, Mumbai - MPCB",27-05-2024 01:00:00,19.0364585,72.8954371,CO,1,6,4
India,Maharashtra,Mumbai,"Chhatrapati Shivaji Intl. Airport (T2), Mumbai - MPCB",27-05-2024 01:00:00,19.10078,72.87462,OZONE,11,11,11
India,Maharashtra,Mumbai,"Deonar, Mumbai - IITM",27-05-2024 01:00:00,19.04946,72.9230,OZONE,18,51,29
India,Maharashtra,Mumbai,"Kandivali East, Mumbai - MPCB",27-05-2024 01:00:00,19.205800,72.868200,NO2,18,104,30
India,Maharashtra,Mumbai,"Kandivali East, Mumbai - MPCB",27-05-2024 01:00:00,19.205800,72.868200,NH3,3,26,6
India,Maharashtra,Mumbai,"Kherwadi_Bandra East, Mumbai - MPCB",27-05-2024 01:00:00,19.0632143,72.8456324,PM2.5,19,53,34
India,Maharashtra,Mumbai,"Kherwadi_Bandra East, Mumbai - MPCB",27-05-2024 01:00:00,19.0632143,72.8456324,PM10,46,70,58
India,Maharashtra,Mumbai,"Kurla, Mumbai - MPCB",27-05-2024 01:00:00,19.0863,72.8888,CO,4,24,15
India,Maharashtra,Mumbai,"Mazgaon, Mumbai - IITM",27-05-2024 01:00:00,18.96702,72.84214,OZONE,23,55,33
India,Maharashtra,Mumbai,"Mindspace-Malad West, Mumbai - MPCB",27-05-2024 01:00:00,19.1878657,72.8304069,NH3,7,8,7
India,Maharashtra,Mumbai,"Mindspace-Malad West, Mumbai - MPCB",27-05-2024 01:00:00,19.1878657,72.8304069,OZONE,3,18,12
India,Maharashtra,Mumbai,"Navy Nagar-Colaba, Mumbai - IITM",27-05-2024 01:00:00,18.897756,72.813320,PM2.5,22,53,37
India,Maharashtra,Mumbai,"Navy Nagar-Colaba, Mumbai - IITM",27-05-2024 01:00:00,18.897756,72.813320,NH3,14,17,16
India,Maharashtra,Mumbai,"Powai, Mumbai - MPCB",27-05-2024 01:00:00,19.137500,72.915056,OZONE,10,33,17
India,Maharashtra,Mumbai,"Sewri, Mumbai - BMC",27-05-2024 01:00:00,19.000084,72.856730,OZONE,16,40,29
India,Maharashtra,Mumbai,"Siddharth Nagar-Worli, Mumbai - IITM",27-05-2024 01:00:00,19.000083,72.813993,NH3,5,5,5
India,Maharashtra,Mumbai,"Siddharth Nagar-Worli, Mumbai - IITM",27-05-2024 01:00:00,19.000083,72.813993,OZONE,29,55,46
India,Maharashtra,Mumbai,"Sion, Mumbai - MPCB",27-05-2024 01:00:00,19.047000,72.874600,NO2,66,82,71
India,Maharashtra,Mumbai,"Vasai West, Mumbai - MPCB",27-05-2024 01:00:00,19.383200,72.820400,OZONE,19,29,22
India,Maharashtra,Mumbai,"Vile Parle West, Mumbai - MPCB",27-05-2024 01:00:00,19.10861,72.83622,PM2.5,NA,NA,NA
India,Maharashtra,Mumbai,"Vile Parle West, Mumbai - MPCB",27-05-2024 01:00:00,19.10861,72.83622,PM10,NA,NA,NA
India,Maharashtra,Mumbai,"Vile Parle West, Mumbai - MPCB",27-05-2024 01:00:00,19.10861,72.83622,NO2,NA,NA,NA
India,Maharashtra,Mumbai,"Vile Parle West, Mumbai - MPCB",27-05-2024 01:00:00,19.10861,72.83622,OZONE,NA,NA,NA
India,Maharashtra,Mumbai,"Worli, Mumbai - MPCB",27-05-2024 01:00:00,18.9936162,72.8128113,SO2,12,12,12
India,Maharashtra,Nagpur,"Mahal, Nagpur - MPCB",27-05-2024 01:00:00,21.14472,79.107595,PM10,102,157,125
India,Maharashtra,Nagpur,"Mahal, Nagpur - MPCB",27-05-2024 01:00:00,21.14472,79.107595,OZONE,8,124,41
India,Maharashtra,Nagpur,"Opp GPO Civil Lines, Nagpur - MPCB",27-05-2024 01:00:00,21.152875,79.0517531,PM2.5,81,278,156
India,Maharashtra,Nagpur,"Opp GPO Civil Lines, Nagpur - MPCB",27-05-2024 01:00:00,21.152875,79.0517531,SO2,5,42,15
India,Maharashtra,Nanded,"Sneh Nagar, Nanded - MPCB",27-05-2024 01:00:00,19.173852,77.296291,NH3,NA,NA,NA
India,Maharashtra,Nanded,"Sneh Nagar, Nanded - MPCB",27-05-2024 01:00:00,19.173852,77.296291,CO,39,42,40
India,Maharashtra,Nashik,"Gangapur Road, Nashik - MPCB",27-05-2024 01:00:00,20.0073285,73.7762427,NH3,1,2,1
India,Maharashtra,Nashik,"Gangapur Road, Nashik - MPCB",27-05-2024 01:00:00,20.0073285,73.7762427,SO2,2,9,6
India,Maharashtra,Nashik,"Hirawadi, Nashik - MPCB",27-05-2024 01:00:00,20.021503,73.813844,PM2.5,27,52,36
India,Maharashtra,Nashik,"Hirawadi, Nashik - MPCB",27-05-2024 01:00:00,20.021503,73.813844,CO,16,44,22
India,Maharashtra,Nashik,"Pandav Nagari, Nashik - MPCB",27-05-2024 01:00:00,19.9591346,73.7788008,PM2.5,33,58,45
India,Maharashtra,Nashik,"Pandav Nagari, Nashik - MPCB",27-05-2024 01:00:00,19.9591346,73.7788008,NO2,11,21,15
India,Maharashtra,Nashik,"Pandav Nagari, Nashik - MPCB",27-05-2024 01:00:00,19.9591346,73.7788008,SO2,5,11,7
India,Maharashtra,Navi Mumbai,"Mahape, Navi Mumbai - MPCB",27-05-2024 01:00:00,19.1135051,73.008978,PM10,NA,NA,NA
India,Maharashtra,Navi Mumbai,"Mahape, Navi Mumbai - MPCB",27-05-2024 01:00:00,19.1135051,73.008978,SO2,NA,NA,NA
India,Maharashtra,Navi Mumbai,"Mahape, Navi Mumbai - MPCB",27-05-2024 01:00:00,19.1135051,73.008978,OZONE,40,51,41
India,Maharashtra,Navi Mumbai,"Nerul, Navi Mumbai - MPCB",27-05-2024 01:00:00,19.008751,73.016620,PM2.5,39,73,51
India,Maharashtra,Navi Mumbai,"Sector-19A Nerul, Navi Mumbai - IITM",27-05-2024 01:00:00,19.044,73.0325,NH3,13,24,17
India,Maharashtra,Navi Mumbai,"Sector-2E Kalamboli, Navi Mumbai - MPCB",27-05-2024 01:00:00,19.02579,73.10297,NH3,2,3,2
India,Maharashtra,Navi Mumbai,"Tondare-Taloja, Navi Mumbai - MPCB",27-05-2024 01:00:00,19.0630,73.1209,NH3,1,4,3
India,Maharashtra,Navi Mumbai,"Tondare-Taloja, Navi Mumbai - MPCB",27-05-2024 01:00:00,19.0630,73.1209,OZONE,4,21,7
India,Maharashtra,Parbhani,"Masoom Colony, Parbhani - MPCB",27-05-2024 01:00:00,19.265594,76.761463,NO2,16,34,21
India,Maharashtra,Parbhani,"Masoom Colony, Parbhani - MPCB",27-05-2024 01:00:00,19.265594,76.761463,NH3,NA,NA,NA
India,Maharashtra,Pimpri-Chinchwad,"Gavalinagar, Pimpri Chinchwad - MPCB",27-05-2024 01:00:00,18.63673,73.82487,PM2.5,32,52,41
India,Maharashtra,Pimpri-Chinchwad,"Gavalinagar, Pimpri Chinchwad - MPCB",27-05-2024 01:00:00,18.63673,73.82487,SO2,1,4,2
India,Maharashtra,Pimpri-Chinchwad,"Park Street Wakad, Pimpri Chinchwad - MPCB",27-05-2024 01:00:00,18.59051,73.77946,NO2,10,24,18
India,Maharashtra,Pimpri-Chinchwad,"Thergaon, Pimpri Chinchwad - MPCB",27-05-2024 01:00:00,18.616318,73.765797,NO2,7,21,13
India,Maharashtra,Pimpri-Chinchwad,"Thergaon, Pimpri Chinchwad - MPCB",27-05-2024 01:00:00,18.616318,73.765797,CO,14,26,19
India,Maharashtra,Pimpri-Chinchwad,"Thergaon, Pimpri Chinchwad - MPCB",27-05-2024 01:00:00,18.616318,73.765797,OZONE,20,64,58
India,Maharashtra,Pune,"Hadapsar, Pune - IITM",27-05-2024 01:00:00,18.501793,73.927532,PM2.5,71,379,247
India,Maharashtra,Pune,"Karve Road, Pune - MPCB",27-05-2024 01:00:00,18.5011743,73.8165527,NO2,1,10,6
India,Maharashtra,Pune,"Mhada Colony, Pune - IITM",27-05-2024 01:00:00,18.573040,73.927715,PM2.5,NA,NA,NA
India,Maharashtra,Pune,"Revenue Colony-Shivajinagar, Pune - IITM",27-05-2024 01:00:00,18.530085,73.849598,PM2.5,56,87,64
India,Maharashtra,Pune,"Savitribai Phule Pune University, Pune - MPCB",27-05-2024 01:00:00,18.547056,73.826908,NH3,4,4,4
India,Maharashtra,Solapur,"Dnyaneshwar Nagar, Solapur - MPCB",27-05-2024 01:00:00,17.6336264,75.9132495,PM10,30,77,44
India,Maharashtra,Solapur,"Ratandeep Housing Society, Solapur - MPCB",27-05-2024 01:00:00,17.65439,75.90649,OZONE,23,125,75
India,Maharashtra,Solapur,"Solapur, Solapur - MPCB",27-05-2024 01:00:00,17.6599188,75.9063906,PM10,61,121,105
India,Maharashtra,Solapur,"Solapur, Solapur - MPCB",27-05-2024 01:00:00,17.6599188,75.9063906,SO2,103,106,104
India,Maharashtra,Thane,"Kasarvadavali, Thane - MPCB",27-05-2024 01:00:00,19.26777,72.97182,NH3,3,5,4
India,Maharashtra,Thane,"Pimpleshwar Mandir, Thane - MPCB",27-05-2024 01:00:00,19.192056,72.9585188,SO2,1,10,4
India,Maharashtra,Thane,"Pimpleshwar Mandir, Thane - MPCB",27-05-2024 01:00:00,19.192056,72.9585188,CO,2,74,32
India,Maharashtra,Thane,"Upvan Fort, Thane - MPCB",27-05-2024 01:00:00,19.222279,72.957979,OZONE,15,36,23
India,Maharashtra,Virar,"Bolinj, Virar - MPCB",27-05-2024 01:00:00,19.4458210,72.7988231,OZONE,26,43,30
India,Manipur,Imphal,"DM College of Science, Imphal - Manipur PCB",27-05-2024 01:00:00,24.8207389,93.9423085,PM2.5,1,5,2
India,Manipur,Imphal,"DM College of Science, Imphal - Manipur PCB",27-05-2024 01:00:00,24.8207389,93.9423085,PM10,1,11,4
India,Meghalaya,Shillong,"Lumpyngngad, Shillong - Meghalaya PCB",27-05-2024 01:00:00,25.5586,91.8985,PM2.5,NA,NA,NA
India,Meghalaya,Shillong,"Lumpyngngad, Shillong - Meghalaya PCB",27-05-2024 01:00:00,25.5586,91.8985,CO,2,10,6
India,Mizoram,Aizawl,"Sikulpuikawn, Aizawl - Mizoram PCB",27-05-2024 01:00:00,23.7176342,92.7192841,SO2,2,3,2
India,Nagaland,Kohima,"PWD Juction, Kohima - NPCB",27-05-2024 01:00:00,25.6635413,94.0989878,PM10,3,29,16
India,Odisha,Balasore,"Kalidaspur, Balasore - OSPCB",27-05-2024 01:00:00,21.51161,86.89088,PM2.5,NA,NA,NA
India,Odisha,Balasore,"Kalidaspur, Balasore - OSPCB",27-05-2024 01:00:00,21.51161,86.89088,NO2,5,12,9
India,Odisha,Balasore,"Kalidaspur, Balasore - OSPCB",27-05-2024 01:00:00,21.51161,86.89088,CO,26,82,61
India,Odisha,Balasore,"Kalidaspur, Balasore - OSPCB",27-05-2024 01:00:00,21.51161,86.89088,OZONE,14,36,30
India,Odisha,Barbil,"Forest Office, Barbil - OSPCB",27-05-2024 01:00:00,22.1166054,85.3945546,PM2.5,15,107,44
India,Odisha,Baripada,"Meher Colony, Baripada - OSPCB",27-05-2024 01:00:00,21.941841,86.728318,NH3,1,3,2
India,Odisha,Bhubaneswar,"Lingraj Mandir, Bhubaneswar - OSPCB",27-05-2024 01:00:00,20.240790,85.836784,PM10,3,110,42
India,Odisha,Byasanagar,"Ferro Chrome Colony, Byasanagar - OSPCB",27-05-2024 01:00:00,20.94185,86.11510,NO2,6,15,10
India,Odisha,Byasanagar,"Ferro Chrome Colony, Byasanagar - OSPCB",27-05-2024 01:00:00,20.94185,86.11510,NH3,1,2,2
India,Odisha,Keonjhar,"Jagamohanpur, Keonjhar - OSPCB",27-05-2024 01:00:00,21.643900,85.599355,PM10,38,95,59
India,Odisha,Nayagarh,"Dabuna, Nayagarh - OSPCB",27-05-2024 01:00:00,21.847279,85.416905,OZONE,11,19,15
India,Odisha,Rourkela,"Fertilizer Township, Rourkela - OSPCB",27-05-2024 01:00:00,22.18972222,84.86277778,PM10,50,124,91
India,Odisha,Rourkela,"Fertilizer Township, Rourkela - OSPCB",27-05-2024 01:00:00,22.18972222,84.86277778,SO2,11,15,14
India,Odisha,Rourkela,"Raghunathpali, Rourkela - OSPCB",27-05-2024 01:00:00,22.220833,84.809444,PM10,32,144,66
India,Odisha,Rourkela,"Raghunathpali, Rourkela - OSPCB",27-05-2024 01:00:00,22.220833,84.809444,NO2,13,65,25
India,Odisha,Rourkela,"Raghunathpali, Rourkela - OSPCB",27-05-2024 01:00:00,22.220833,84.809444,SO2,7,7,7
India,Odisha,Suakati,"OMC Colony, Suakati - OSPCB",27-05-2024 01:00:00,21.606865,85.510538,PM10,36,62,47
India,Odisha,Suakati,"OMC Colony, Suakati - OSPCB",27-05-2024 01:00:00,21.606865,85.510538,NH3,5,5,5
India,Odisha,Talcher,"Talcher Coalfields,Talcher - OSPCB",27-05-2024 01:00:00,20.9360711,85.1707021,PM10,26,190,88
India,Odisha,Tensa,"Barsua Iron Ore Mines, Tensa - OSPCB",27-05-2024 01:00:00,21.869985,85.167016,OZONE,55,190,87
India,Puducherry,Puducherry,"Jawahar Nagar, Puducherry - PPCC",27-05-2024 01:00:00,11.9309,79.8027,OZONE,39,84,56
India,Punjab,Amritsar,"Golden Temple, Amritsar - PPCB",27-05-2024 01:00:00,31.620000,74.876512,PM10,90,144,111
India,Punjab,Amritsar,"Golden Temple, Amritsar - PPCB",27-05-2024 01:00:00,31.620000,74.876512,NH3,5,18,7
India,Punjab,Jalandhar,"Civil Line, Jalandhar - PPCB",27-05-2024 01:00:00,31.321907,75.578914,PM10,101,189,142
India,Punjab,Jalandhar,"Civil Line, Jalandhar - PPCB",27-05-2024 01:00:00,31.321907,75.578914,SO2,8,14,10
India,Punjab,Khanna,"Kalal Majra, Khanna - PPCB",27-05-2024 01:00:00,30.736056 ,76.209694,CO,28,118,58
India,Punjab,Ludhiana,"Punjab Agricultural University, Ludhiana - PPCB",27-05-2024 01:00:00,30.9028,75.8086,PM10,79,133,111
India,Punjab,Ludhiana,"Punjab Agricultural University, Ludhiana - PPCB",27-05-2024 01:00:00,30.9028,75.8086,NO2,19,19,19
India,Punjab,Ludhiana,"Punjab Agricultural University, Ludhiana - PPCB",27-05-2024 01:00:00,30.9028,75.8086,SO2,7,30,15
India,Punjab,Mandi Gobindgarh,"RIMT University, Mandi Gobindgarh - PPCB",27-05-2024 01:00:00,30.649961,76.331442,NO2,18,29,27
India,Punjab,Mandi Gobindgarh,"RIMT University, Mandi Gobindgarh - PPCB",27-05-2024 01:00:00,30.649961,76.331442,NH3,6,6,6
India,Punjab,Patiala,"Model Town, Patiala - PPCB",27-05-2024 01:00:00,30.349388,76.366642,PM10,111,177,124
India,Punjab,Patiala,"Model Town, Patiala - PPCB",27-05-2024 01:00:00,30.349388,76.366642,NH3,6,7,7
India,Punjab,Patiala,"Model Town, Patiala - PPCB",27-05-2024 01:00:00,30.349388,76.366642,SO2,4,43,17
India,Punjab,Patiala,"Model Town, Patiala - PPCB",27-05-2024 01:00:00,30.349388,76.366642,CO,12,44,25
India,Rajasthan,Ajmer,"Civil Lines,  Ajmer - RSPCB",27-05-2024 01:00:00,26.470859,74.646594,CO,5,104,14
India,Rajasthan,Alwar,"Moti Doongri, Alwar - RSPCB",27-05-2024 01:00:00,27.554793,76.611536,NH3,2,16,5
India,Rajasthan,Alwar,"Moti Doongri, Alwar - RSPCB",27-05-2024 01:00:00,27.554793,76.611536,OZONE,14,82,42
India,Rajasthan,Banswara,"Rati Talai, Banswara - RSPCB",27-05-2024 01:00:00,23.555190,74.440010,NO2,11,23,16
India,Rajasthan,Baran,"Bamboliya, Baran - RSPCB",27-05-2024 01:00:00,25.106006,76.469948,PM2.5,7,150,56
India,Rajasthan,Barmer,"Railway Colony, Barmer - RSPCB",27-05-2024 01:00:00,25.747299,71.393989,PM2.5,27,141,52
India,Rajasthan,Barmer,"Railway Colony, Barmer - RSPCB",27-05-2024 01:00:00,25.747299,71.393989,NO2,4,10,7
India,Rajasthan,Bharatpur,"Krishna Nagar, Bharatpur - RSPCB",27-05-2024 01:00:00,27.215415,77.50873,SO2,3,10,6
India,Rajasthan,Bhiwadi,"RIICO Ind. Area III, Bhiwadi - RSPCB",27-05-2024 01:00:00,28.194909,76.862296,NO2,23,37,28
India,Rajasthan,Bhiwadi,"Vasundhara Nagar_UIT, Bhiwadi - RSPCB",27-05-2024 01:00:00,28.207266,76.829265,PM2.5,23,390,165
India,Rajasthan,Bhiwadi,"Vasundhara Nagar_UIT, Bhiwadi - RSPCB",27-05-2024 01:00:00,28.207266,76.829265,NH3,9,44,19
India,Rajasthan,Bikaner,"MM Ground, Bikaner - RSPCB",27-05-2024 01:00:00,28.018792,73.292658,SO2,2,9,5
India,Rajasthan,Bundi,"New Colony, Bundi - RSPCB",27-05-2024 01:00:00,25.435774,75.644272,PM2.5,37,153,65
India,Rajasthan,Dausa,"Khatikan Mohalla, Dausa - RSPCB",27-05-2024 01:00:00,26.895552,76.334753,PM2.5,32,220,81
India,Rajasthan,Dausa,"Khatikan Mohalla, Dausa - RSPCB",27-05-2024 01:00:00,26.895552,76.334753,OZONE,11,182,88
India,Rajasthan,Dholpur,"Raja Ganj, Dholpur - RSPCB",27-05-2024 01:00:00,26.699557,77.898881,NO2,24,92,47
India,Rajasthan,Dholpur,"Raja Ganj, Dholpur - RSPCB",27-05-2024 01:00:00,26.699557,77.898881,CO,3,77,20
India,Rajasthan,Hanumangarh,"Housing Board, Hanumangarh - RSPCB",27-05-2024 01:00:00,29.610750,74.283608,NO2,5,54,26
India,Rajasthan,Jaipur,"Adarsh Nagar, Jaipur - RSPCB",27-05-2024 01:00:00,26.902909,75.836858,PM2.5,65,250,134
India,Rajasthan,Jaipur,"Adarsh Nagar, Jaipur - RSPCB",27-05-2024 01:00:00,26.902909,75.836858,SO2,1,38,13
India,Rajasthan,Jaipur,"Adarsh Nagar, Jaipur - RSPCB",27-05-2024 01:00:00,26.902909,75.836858,OZONE,9,117,41
India,Rajasthan,Jaipur,"Mansarovar Sector-12, Jaipur - RSPCB",27-05-2024 01:00:00,26.843698,75.766894,NO2,8,152,47
India,Rajasthan,Jaipur,"Mansarovar Sector-12, Jaipur - RSPCB",27-05-2024 01:00:00,26.843698,75.766894,NH3,4,40,11
India,Rajasthan,Jaipur,"Mansarovar Sector-12, Jaipur - RSPCB",27-05-2024 01:00:00,26.843698,75.766894,SO2,1,12,5
India,Rajasthan,Jaipur,"Police Commissionerate, Jaipur - RSPCB",27-05-2024 01:00:00,26.9164092,75.7994901,NH3,3,9,6
India,Rajasthan,Jaipur,"Police Commissionerate, Jaipur - RSPCB",27-05-2024 01:00:00,26.9164092,75.7994901,SO2,NA,NA,NA
India,Rajasthan,Jaipur,"RIICO Sitapura, Jaipur - RSPCB",27-05-2024 01:00:00,26.786682,75.827928,CO,32,136,71
India,Rajasthan,Jaipur,"Sector-2 Murlipura, Jaipur - RSPCB",27-05-2024 01:00:00,26.960669,75.771817,PM10,102,293,150
India,Rajasthan,Jaipur,"Sector-2 Murlipura, Jaipur - RSPCB",27-05-2024 01:00:00,26.960669,75.771817,NO2,10,85,26
India,Rajasthan,Jaipur,"Sector-2 Murlipura, Jaipur - RSPCB",27-05-2024 01:00:00,26.960669,75.771817,NH3,1,15,4
India,Rajasthan,Jaipur,"Sector-2 Murlipura, Jaipur - RSPCB",27-05-2024 01:00:00,26.960669,75.771817,SO2,8,38,18
India,Rajasthan,Jaipur,"Shastri Nagar, Jaipur - RSPCB",27-05-2024 01:00:00,26.9502929,75.730943,NH3,5,38,11
India,Rajasthan,Jaisalmer,"Sadar Bazar, Jaisalmer - RSPCB",27-05-2024 01:00:00,26.912329,70.909168,NO2,4,42,16
India,Rajasthan,Jaisalmer,"Sadar Bazar, Jaisalmer - RSPCB",27-05-2024 01:00:00,26.912329,70.909168,NH3,1,23,8
India,Rajasthan,Jaisalmer,"Sadar Bazar, Jaisalmer - RSPCB",27-05-2024 01:00:00,26.912329,70.909168,SO2,2,3,2
India,Rajasthan,Jhalawar,"Rajlaxmi Nagar, Jhalawar - RSPCB",27-05-2024 01:00:00,24.588397,76.172782,NO2,21,60,35
India,Rajasthan,Jhalawar,"Rajlaxmi Nagar, Jhalawar - RSPCB",27-05-2024 01:00:00,24.588397,76.172782,NH3,1,3,2
India,Rajasthan,Jhunjhunu,"Indra Nagar, Jhunjhunu - RSPCB",27-05-2024 01:00:00,28.108988,75.386577,OZONE,15,173,64
India,Rajasthan,Jodhpur,"Collectorate, Jodhpur - RSPCB",27-05-2024 01:00:00,26.268249,73.0193853,NO2,24,26,25
India,Rajasthan,Jodhpur,"Digari Kalan, Jodhpur - RSPCB",27-05-2024 01:00:00,26.295810,73.082283,NO2,7,56,20
India,Rajasthan,Jodhpur,"Jhalamand, Jodhpur - RSPCB",27-05-2024 01:00:00,26.215415,73.070156,PM10,74,241,113
India,Rajasthan,Jodhpur,"Mandor, Jodhpur - RSPCB",27-05-2024 01:00:00,26.358805,73.047444,OZONE,24,95,82
India,Rajasthan,Jodhpur,"Samrat Ashok Udhyan, Jodhpur - RSPCB",27-05-2024 01:00:00,26.253384,72.976571,PM2.5,26,158,49
India,Rajasthan,Jodhpur,"Samrat Ashok Udhyan, Jodhpur - RSPCB",27-05-2024 01:00:00,26.253384,72.976571,PM10,89,172,125
India,Rajasthan,Jodhpur,"Samrat Ashok Udhyan, Jodhpur - RSPCB",27-05-2024 01:00:00,26.253384,72.976571,NO2,3,17,8
India,Rajasthan,Jodhpur,"Samrat Ashok Udhyan, Jodhpur - RSPCB",27-05-2024 01:00:00,26.253384,72.976571,NH3,3,23,8
India,Rajasthan,Karauli,"Satyawati Vihar, Karauli - RSPCB",27-05-2024 01:00:00,26.506177,77.025989,SO2,4,10,7
India,Rajasthan,Karauli,"Satyawati Vihar, Karauli - RSPCB",27-05-2024 01:00:00,26.506177,77.025989,OZONE,27,157,99
India,Rajasthan,Kota,"Dhanmandi, Kota - RSPCB",27-05-2024 01:00:00,25.164090,75.858137,NO2,18,102,43
India,Rajasthan,Kota,"Dhanmandi, Kota - RSPCB",27-05-2024 01:00:00,25.164090,75.858137,CO,12,56,32
India,Rajasthan,Kota,"Dhanmandi, Kota - RSPCB",27-05-2024 01:00:00,25.164090,75.858137,OZONE,27,116,72
India,Rajasthan,Kota,"Nayapura, Kota - RSPCB",27-05-2024 01:00:00,25.196024,75.855668,NH3,2,14,5
India,Rajasthan,Kota,"Shrinath Puram, Kota - RSPCB",27-05-2024 01:00:00,25.14389,75.821256,PM2.5,33,130,73
India,Rajasthan,Kota,"Shrinath Puram, Kota - RSPCB",27-05-2024 01:00:00,25.14389,75.821256,CO,28,62,38
India,Rajasthan,Kota,"Shrinath Puram, Kota - RSPCB",27-05-2024 01:00:00,25.14389,75.821256,OZONE,20,75,58
India,Rajasthan,Nagaur,"Karni Colony, Nagaur - RSPCB",27-05-2024 01:00:00,27.213494,73.734444,OZONE,27,80,61
India,Rajasthan,Pali,"Indira Colony Vistar, Pali - RSPCB",27-05-2024 01:00:00,25.771061, 73.340227,PM2.5,67,254,127
India,Rajasthan,Pali,"Indira Colony Vistar, Pali - RSPCB",27-05-2024 01:00:00,25.771061, 73.340227,SO2,4,7,6
India,Rajasthan,Rajsamand,"Dhoinda, Rajsamand - RSPCB",27-05-2024 01:00:00,25.036360,73.883502,NO2,1,32,10
India,Rajasthan,Sawai Madhopur,"Sahu Nagar, Sawai Madhopur - RSPCB",27-05-2024 01:00:00,26.031443,76.359327,SO2,2,12,8
India,Rajasthan,Sirohi,"Vedhaynath Colony, Sirohi - RSPCB",27-05-2024 01:00:00,24.885261,72.857549,NO2,2,14,5
India,Rajasthan,Sri Ganganagar,"Old City, Sri Ganganagar - RSPCB",27-05-2024 01:00:00,29.931624,73.864511,PM10,145,440,264
India,Rajasthan,Udaipur,"Ashok Nagar, Udaipur - RSPCB",27-05-2024 01:00:00,24.5886166,73.6321397,PM10,97,134,112
India,Rajasthan,Udaipur,"Ashok Nagar, Udaipur - RSPCB",27-05-2024 01:00:00,24.5886166,73.6321397,SO2,1,56,11
India,TamilNadu,Chennai,"Alandur Bus Depot, Chennai - CPCB",27-05-2024 01:00:00,12.9099161,80.1076538,SO2,2,6,4
India,TamilNadu,Chennai,"Manali, Chennai - CPCB",27-05-2024 01:00:00,13.164544,80.26285,PM2.5,NA,NA,NA
India,TamilNadu,Chennai,"Manali, Chennai - CPCB",27-05-2024 01:00:00,13.164544,80.26285,NH3,NA,NA,NA
India,TamilNadu,Chennai,"Manali, Chennai - CPCB",27-05-2024 01:00:00,13.164544,80.26285,CO,NA,NA,NA
India,TamilNadu,Chennai,"Perungudi, Chennai - TNPCB",27-05-2024 01:00:00,12.9533,80.2357,PM2.5,22,60,38
India,TamilNadu,Chennai,"Perungudi, Chennai - TNPCB",27-05-2024 01:00:00,12.9533,80.2357,SO2,1,7,4
India,TamilNadu,Chennai,"Royapuram, Chennai - TNPCB",27-05-2024 01:00:00,13.1036,80.2909,PM10,NA,NA,NA
India,TamilNadu,Chennai,"Royapuram, Chennai - TNPCB",27-05-2024 01:00:00,13.1036,80.2909,NO2,NA,NA,NA
India,TamilNadu,Chennai,"Velachery Res. Area, Chennai - CPCB",27-05-2024 01:00:00,13.0052189,80.2398125,PM10,17,40,30
India,TamilNadu,Chennai,"Velachery Res. Area, Chennai - CPCB",27-05-2024 01:00:00,13.0052189,80.2398125,CO,118,120,119
India,TamilNadu,Coimbatore,"PSG College of Arts and Science, Coimbatore - TNPCB",27-05-2024 01:00:00,11.0328,77.0349,NO2,1,1,1
India,TamilNadu,Cuddalore,"Semmandalam, Cuddalore - TNPCB",27-05-2024 01:00:00,11.7637683,79.7499835,PM10,25,61,36
India,TamilNadu,Gummidipoondi,"Anthoni Pillai Nagar, Gummidipoondi - TNPCB",27-05-2024 01:00:00,13.4127,80.1081,PM10,46,140,83
India,TamilNadu,Palkalaiperur,"Bharathidasan University, Palkalaiperur - TNPCB",27-05-2024 01:00:00,10.681158,78.741746,CO,2,12,7
India,TamilNadu,Ramanathapuram,"Chalai Bazaar, Ramanathapuram - TNPCB",27-05-2024 01:00:00,9.36399,78.831977,PM2.5,13,35,22
India,TamilNadu,Thoothukudi,"Meelavittan, Thoothukudi - TNPCB",27-05-2024 01:00:00,8.816428 ,78.099039,PM10,30,103,48
India,TamilNadu,Tirupur,"Kumaran College, Tirupur - TNPCB",27-05-2024 01:00:00,11.0973603,77.3228673,SO2,16,17,17
India,TamilNadu,Tirupur,"Kumaran College, Tirupur - TNPCB",27-05-2024 01:00:00,11.0973603,77.3228673,OZONE,6,7,7
India,Telangana,Hyderabad,"Bollaram Industrial Area, Hyderabad - TSPCB",27-05-2024 01:00:00,17.540891,78.358528,SO2,16,40,26
India,Telangana,Hyderabad,"Central University, Hyderabad - TSPCB",27-05-2024 01:00:00,17.460103,78.334361,NO2,20,42,29
India,Telangana,Hyderabad,"Central University, Hyderabad - TSPCB",27-05-2024 01:00:00,17.460103,78.334361,OZONE,3,4,3
India,Telangana,Hyderabad,"ECIL Kapra, Hyderabad - TSPCB",27-05-2024 01:00:00,17.470431,78.566959,PM2.5,NA,NA,NA
India,Telangana,Hyderabad,"ECIL Kapra, Hyderabad - TSPCB",27-05-2024 01:00:00,17.470431,78.566959,SO2,NA,NA,NA
India,Telangana,Hyderabad,"ICRISAT Patancheru, Hyderabad - TSPCB",27-05-2024 01:00:00,17.518400,78.278777,PM10,28,117,63
India,Telangana,Hyderabad,"IITH Kandi, Hyderabad - TSPCB",27-05-2024 01:00:00,17.585705,78.126199,PM2.5,NA,NA,NA
India,Telangana,Hyderabad,"Kompally Municipal Office, Hyderabad - TSPCB",27-05-2024 01:00:00,17.544899,78.486949,OZONE,30,126,52
India,Telangana,Hyderabad,"Nacharam_TSIIC IALA, Hyderabad - TSPCB",27-05-2024 01:00:00,17.429398,78.569354,NO2,14,23,18
India,Telangana,Hyderabad,"Nacharam_TSIIC IALA, Hyderabad - TSPCB",27-05-2024 01:00:00,17.429398,78.569354,SO2,NA,NA,NA
India,Telangana,Hyderabad,"New Malakpet, Hyderabad - TSPCB",27-05-2024 01:00:00,17.37206,78.50864,PM10,75,91,81
India,Telangana,Hyderabad,"New Malakpet, Hyderabad - TSPCB",27-05-2024 01:00:00,17.37206,78.50864,NO2,18,33,22
India,Telangana,Hyderabad,"New Malakpet, Hyderabad - TSPCB",27-05-2024 01:00:00,17.37206,78.50864,NH3,3,3,3
India,Telangana,Hyderabad,"Somajiguda, Hyderabad - TSPCB",27-05-2024 01:00:00,17.417094,78.457437,SO2,NA,NA,NA
India,Telangana,Hyderabad,"Somajiguda, Hyderabad - TSPCB",27-05-2024 01:00:00,17.417094,78.457437,OZONE,NA,NA,NA
India,Telangana,Hyderabad,"Zoo Park, Hyderabad - TSPCB",27-05-2024 01:00:00,17.349694,78.451437,PM10,16,152,52
India,Telangana,Hyderabad,"Zoo Park, Hyderabad - TSPCB",27-05-2024 01:00:00,17.349694,78.451437,SO2,1,5,3
India,Uttar_Pradesh,Agra,"Manoharpur, Agra - UPPCB",27-05-2024 01:00:00,27.23711,78.01936,PM2.5,24,100,58
India,Uttar_Pradesh,Agra,"Manoharpur, Agra - UPPCB",27-05-2024 01:00:00,27.23711,78.01936,PM10,17,73,43
India,Uttar_Pradesh,Agra,"Manoharpur, Agra - UPPCB",27-05-2024 01:00:00,27.23711,78.01936,NH3,2,4,3
India,Uttar_Pradesh,Agra,"Manoharpur, Agra - UPPCB",27-05-2024 01:00:00,27.23711,78.01936,CO,10,20,13
India,Uttar_Pradesh,Agra,"Rohta, Agra - UPPCB",27-05-2024 01:00:00,27.106972,78.000111,OZONE,15,19,18
India,Uttar_Pradesh,Agra,"Sector-3B Avas Vikas Colony, Agra - UPPCB",27-05-2024 01:00:00,27.19412,77.96237,PM10,37,145,69
India,Uttar_Pradesh,Agra,"Sector-3B Avas Vikas Colony, Agra - UPPCB",27-05-2024 01:00:00,27.19412,77.96237,NH3,5,21,11
India,Uttar_Pradesh,Agra,"Sector-3B Avas Vikas Colony, Agra - UPPCB",27-05-2024 01:00:00,27.19412,77.96237,SO2,13,19,15
India,Uttar_Pradesh,Agra,"Sector-3B Avas Vikas Colony, Agra - UPPCB",27-05-2024 01:00:00,27.19412,77.96237,CO,9,42,21
India,Uttar_Pradesh,Agra,"Shahjahan Garden, Agra - UPPCB",27-05-2024 01:00:00,27.169338,78.03582,PM2.5,26,98,47
India,Uttar_Pradesh,Bareilly,"Rajendra Nagar, Bareilly - UPPCB",27-05-2024 01:00:00,28.38910936,79.42963708,PM2.5,19,34,28
India,Uttar_Pradesh,Bareilly,"Rajendra Nagar, Bareilly - UPPCB",27-05-2024 01:00:00,28.38910936,79.42963708,SO2,46,58,48
India,Uttar_Pradesh,Firozabad,"Nagla Bhau, Firozabad - UPPCB",27-05-2024 01:00:00,27.168897,78.376960,OZONE,17,20,18
India,Uttar_Pradesh,Firozabad,"Vibhab Nagar, Firozabad - UPPCB",27-05-2024 01:00:00,27.1594,78.3953,NH3,1,2,2
India,Uttar_Pradesh,Ghaziabad,"Indirapuram, Ghaziabad - UPPCB",27-05-2024 01:00:00,28.646233,77.358075,PM10,113,436,221
India,Uttar_Pradesh,Ghaziabad,"Indirapuram, Ghaziabad - UPPCB",27-05-2024 01:00:00,28.646233,77.358075,CO,14,153,83
India,Uttar_Pradesh,Ghaziabad,"Loni, Ghaziabad - UPPCB",27-05-2024 01:00:00,28.757294,77.278792,PM2.5,38,310,134
India,Uttar_Pradesh,Ghaziabad,"Loni, Ghaziabad - UPPCB",27-05-2024 01:00:00,28.757294,77.278792,CO,6,122,68
India,Uttar_Pradesh,Ghaziabad,"Sanjay Nagar, Ghaziabad - UPPCB",27-05-2024 01:00:00,28.685382,77.453839,PM2.5,27,305,118
India,Uttar_Pradesh,Ghaziabad,"Sanjay Nagar, Ghaziabad - UPPCB",27-05-2024 01:00:00,28.685382,77.453839,NO2,11,173,64
India,Uttar_Pradesh,Ghaziabad,"Vasundhara, Ghaziabad - UPPCB",27-05-2024 01:00:00,28.6603346,77.3572563,CO,35,146,91
India,Uttar_Pradesh,Gorakhpur,"Madan Mohan Malaviya University of Technology, Gorakhpur - UPPCB",27-05-2024 01:00:00,26.730136,83.433859,PM10,58,137,94
India,Uttar_Pradesh,Gorakhpur,"Madan Mohan Malaviya University of Technology, Gorakhpur - UPPCB",27-05-2024 01:00:00,26.730136,83.433859,NO2,11,11,11
India,Uttar_Pradesh,Gorakhpur,"Madan Mohan Malaviya University of Technology, Gorakhpur - UPPCB",27-05-2024 01:00:00,26.730136,83.433859,NH3,1,1,1
India,Uttar_Pradesh,Gorakhpur,"Madan Mohan Malaviya University of Technology, Gorakhpur - UPPCB",27-05-2024 01:00:00,26.730136,83.433859,SO2,22,23,22
India,Uttar_Pradesh,Greater Noida,"Knowledge Park - III, Greater Noida - UPPCB",27-05-2024 01:00:00,28.47272,77.482000,SO2,5,58,21
India,Uttar_Pradesh,Greater Noida,"Knowledge Park - V, Greater Noida - UPPCB",27-05-2024 01:00:00,28.557054,77.453663,PM10,NA,NA,NA
India,Uttar_Pradesh,Greater Noida,"Knowledge Park - V, Greater Noida - UPPCB",27-05-2024 01:00:00,28.557054,77.453663,NH3,NA,NA,NA
India,Uttar_Pradesh,Greater Noida,"Knowledge Park - V, Greater Noida - UPPCB",27-05-2024 01:00:00,28.557054,77.453663,SO2,NA,NA,NA
India,Uttar_Pradesh,Hapur,"Anand Vihar, Hapur - UPPCB",27-05-2024 01:00:00,28.725645,77.749675,PM2.5,32,181,78
India,Uttar_Pradesh,Hapur,"Anand Vihar, Hapur - UPPCB",27-05-2024 01:00:00,28.725645,77.749675,CO,24,40,33
India,Uttar_Pradesh,Jhansi,"Shivaji Nagar, Jhansi - UPPCB",27-05-2024 01:00:00,25.4547,78.6039,PM2.5,2,135,61
India,Uttar_Pradesh,Jhansi,"Shivaji Nagar, Jhansi - UPPCB",27-05-2024 01:00:00,25.4547,78.6039,OZONE,22,75,35
India,Uttar_Pradesh,Kanpur,"FTI Kidwai Nagar, Kanpur - UPPCB",27-05-2024 01:00:00,26.428282,80.327067,NH3,1,2,2
India,Uttar_Pradesh,Kanpur,"Nehru Nagar, Kanpur - UPPCB",27-05-2024 01:00:00,26.4703136,80.3229863,SO2,2,9,6
India,Uttar_Pradesh,Kanpur,"Nehru Nagar, Kanpur - UPPCB",27-05-2024 01:00:00,26.4703136,80.3229863,OZONE,13,29,20
India,Uttar_Pradesh,Khurja,"Kalindi Kunj, Khurja - UPPCB",27-05-2024 01:00:00,28.2348927,77.8683002,PM10,85,259,167
India,Uttar_Pradesh,Lucknow,"B R Ambedkar University, Lucknow - UPPCB",27-05-2024 01:00:00,26.766433,80.927299,PM10,72,116,94
India,Uttar_Pradesh,Lucknow,"B R Ambedkar University, Lucknow - UPPCB",27-05-2024 01:00:00,26.766433,80.927299,OZONE,16,49,33
India,Uttar_Pradesh,Lucknow,"Gomti Nagar, Lucknow - UPPCB",27-05-2024 01:00:00,26.868120,81.005119,PM2.5,47,91,66
India,Uttar_Pradesh,Lucknow,"Kendriya Vidyalaya, Lucknow - CPCB",27-05-2024 01:00:00,26.906111,80.948222,SO2,2,9,7
India,Uttar_Pradesh,Lucknow,"Lalbagh, Lucknow - CPCB",27-05-2024 01:00:00,26.8458805,80.9365541,NO2,14,15,15
India,Uttar_Pradesh,Meerut,"Ganga Nagar, Meerut - UPPCB",27-05-2024 01:00:00,28.999264,77.7590354,PM10,90,309,146
India,Uttar_Pradesh,Meerut,"Ganga Nagar, Meerut - UPPCB",27-05-2024 01:00:00,28.999264,77.7590354,NO2,15,121,40
India,Uttar_Pradesh,Meerut,"Jai Bhim Nagar, Meerut - UPPCB",27-05-2024 01:00:00,28.9535882,77.7622941,PM2.5,50,328,148
India,Uttar_Pradesh,Meerut,"Pallavpuram Phase 2, Meerut - UPPCB",27-05-2024 01:00:00,29.063510,77.709723,PM2.5,37,171,80
India,Uttar_Pradesh,Moradabad,"Buddhi Vihar, Moradabad - UPPCB",27-05-2024 01:00:00,28.83526,78.74460,SO2,15,19,17
India,Uttar_Pradesh,Moradabad,"Eco Herbal Park, Moradabad - UPPCB",27-05-2024 01:00:00,28.840739,78.697531,NO2,NA,NA,NA
India,Uttar_Pradesh,Moradabad,"Jigar Colony, Moradabad - UPPCB",27-05-2024 01:00:00,28.856664,78.772638,NO2,16,17,17
India,Uttar_Pradesh,Moradabad,"Kashiram Nagar, Moradabad - UPPCB",27-05-2024 01:00:00,28.849399,78.742362,NH3,3,4,4
India,Uttar_Pradesh,Moradabad,"Kashiram Nagar, Moradabad - UPPCB",27-05-2024 01:00:00,28.849399,78.742362,SO2,36,70,48
India,Uttar_Pradesh,Noida,"Sector - 125, Noida - UPPCB",27-05-2024 01:00:00,28.5447608,77.3231257,NO2,5,176,82
India,Uttar_Pradesh,Noida,"Sector-1, Noida - UPPCB",27-05-2024 01:00:00,28.5898,77.3101,NO2,14,168,79
India,Uttar_Pradesh,Noida,"Sector-1, Noida - UPPCB",27-05-2024 01:00:00,28.5898,77.3101,CO,16,108,75
India,Uttar_Pradesh,Prayagraj,"Jhunsi, Prayagraj - UPPCB",27-05-2024 01:00:00,25.425602,81.917152,NH3,5,5,5
India,Uttar_Pradesh,Prayagraj,"Jhunsi, Prayagraj - UPPCB",27-05-2024 01:00:00,25.425602,81.917152,OZONE,5,82,42
India,Uttar_Pradesh,Prayagraj,"Nagar Nigam, Prayagraj - UPPCB",27-05-2024 01:00:00,25.44919916 ,81.82735986 ,CO,15,46,33
India,Uttar_Pradesh,Prayagraj,"Nagar Nigam, Prayagraj - UPPCB",27-05-2024 01:00:00,25.44919916 ,81.82735986 ,OZONE,11,12,12
India,Uttar_Pradesh,Varanasi,"Ardhali Bazar, Varanasi - UPPCB",27-05-2024 01:00:00,25.3505986,82.9083074,SO2,15,22,18
India,Uttar_Pradesh,Varanasi,"Ardhali Bazar, Varanasi - UPPCB",27-05-2024 01:00:00,25.3505986,82.9083074,OZONE,28,34,30
India,Uttar_Pradesh,Varanasi,"Bhelupur, Varanasi - UPPCB",27-05-2024 01:00:00,25.301778,82.996789,SO2,30,30,30
India,Uttar_Pradesh,Varanasi,"Bhelupur, Varanasi - UPPCB",27-05-2024 01:00:00,25.301778,82.996789,OZONE,7,27,18
India,Uttar_Pradesh,Varanasi,"IESD Banaras Hindu University, Varanasi - UPPCB",27-05-2024 01:00:00,25.262326,82.995408,SO2,19,21,20
India,Uttar_Pradesh,Varanasi,"Maldahiya, Varanasi - UPPCB",27-05-2024 01:00:00,25.32393,82.99687,NO2,1,3,2
India,Uttar_Pradesh,Varanasi,"Maldahiya, Varanasi - UPPCB",27-05-2024 01:00:00,25.32393,82.99687,OZONE,2,17,9
India,Uttar_Pradesh,Vrindavan,"Omex Eternity, Vrindavan - UPPCB",27-05-2024 01:00:00,27.5714090,77.6557570,NO2,2,3,2
India,Uttar_Pradesh,Vrindavan,"Omex Eternity, Vrindavan - UPPCB",27-05-2024 01:00:00,27.5714090,77.6557570,OZONE,24,37,30
India,Uttarakhand,Dehradun,"Doon University, Dehradun - UKPCB",27-05-2024 01:00:00,30.269444,78.044167,PM2.5,74,350,140
India,Uttarakhand,Dehradun,"Doon University, Dehradun - UKPCB",27-05-2024 01:00:00,30.269444,78.044167,PM10,90,220,121
India,Uttarakhand,Dehradun,"Doon University, Dehradun - UKPCB",27-05-2024 01:00:00,30.269444,78.044167,OZONE,33,112,89
India,Uttarakhand,Kashipur,"Govt. Girls Inter College, Kashipur - UKPCB",27-05-2024 01:00:00,29.2124114,78.9611753,PM10,80,146,114
India,Uttarakhand,Rishikesh,"Shivaji Nagar, Rishikesh - UKPCB",27-05-2024 01:00:00,30.075911,78.2859547,PM2.5,54,92,73
India,Uttarakhand,Rishikesh,"Shivaji Nagar, Rishikesh - UKPCB",27-05-2024 01:00:00,30.075911,78.2859547,PM10,69,122,93
India,Uttarakhand,Rishikesh,"Shivaji Nagar, Rishikesh - UKPCB",27-05-2024 01:00:00,30.075911,78.2859547,SO2,2,5,3
India,West_Bengal,Asansol,"Asansol Court Area, Asansol - WBPCB",27-05-2024 01:00:00,23.685297,86.945968,PM10,39,151,87
India,West_Bengal,Barrackpore,"SVSPA Campus, Barrackpore - WBPCB",27-05-2024 01:00:00,22.7605581,88.3617589,PM10,2,57,21
India,West_Bengal,Barrackpore,"SVSPA Campus, Barrackpore - WBPCB",27-05-2024 01:00:00,22.7605581,88.3617589,OZONE,7,44,27
India,West_Bengal,Durgapur,"PCBL Residential Complex, Durgapur - WBPCB",27-05-2024 01:00:00,23.5087640,87.3544400,PM10,9,52,30
India,West_Bengal,Durgapur,"PCBL Residential Complex, Durgapur - WBPCB",27-05-2024 01:00:00,23.5087640,87.3544400,CO,30,38,33
India,West_Bengal,Haldia,"Priyambada Housing Estate, Haldia - WBPCB",27-05-2024 01:00:00,22.06047,88.109737,NO2,11,28,14
India,West_Bengal,Haldia,"Priyambada Housing Estate, Haldia - WBPCB",27-05-2024 01:00:00,22.06047,88.109737,CO,16,31,25
India,West_Bengal,Howrah,"Ghusuri, Howrah - WBPCB",27-05-2024 01:00:00,22.611968,88.347422,NH3,NA,NA,NA
India,West_Bengal,Howrah,"Ghusuri, Howrah - WBPCB",27-05-2024 01:00:00,22.611968,88.347422,SO2,NA,NA,NA
India,West_Bengal,Howrah,"Padmapukur, Howrah - WBPCB",27-05-2024 01:00:00,22.5687319,88.2797276,PM10,NA,NA,NA
India,West_Bengal,Kolkata,"Ballygunge, Kolkata - WBPCB",27-05-2024 01:00:00,22.5367507,88.3638022,PM10,32,40,34
India,West_Bengal,Kolkata,"Ballygunge, Kolkata - WBPCB",27-05-2024 01:00:00,22.5367507,88.3638022,OZONE,24,55,44
India,West_Bengal,Kolkata,"Fort William, Kolkata - WBPCB",27-05-2024 01:00:00,22.556640,88.342674,PM2.5,19,38,24
India,West_Bengal,Kolkata,"Jadavpur, Kolkata - WBPCB",27-05-2024 01:00:00,22.49929,88.36917,CO,NA,NA,NA
India,West_Bengal,Kolkata,"Rabindra Bharati University, Kolkata - WBPCB",27-05-2024 01:00:00,22.627847,88.380669,CO,18,28,22
India,West_Bengal,Kolkata,"Rabindra Sarobar, Kolkata - WBPCB",27-05-2024 01:00:00,22.51106,88.35142,NH3,7,8,7
India,West_Bengal,Kolkata,"Victoria, Kolkata - WBPCB",27-05-2024 01:00:00,22.5448082,88.3403691,PM10,27,59,36
India,West_Bengal,Siliguri,"Ward-32 Bapupara, Siliguri - WBPCB",27-05-2024 01:00:00,26.6879226,88.4152495,PM2.5,35,63,46
India,West_Bengal,Siliguri,"Ward-32 Bapupara, Siliguri - WBPCB",27-05-2024 01:00:00,26.6879226,88.4152495,PM10,41,84,60
India,Andhra_Pradesh,Amaravati,"Secretariat, Amaravati - APPCB",27-05-2024 01:00:00,16.5150833,80.5181667,PM2.5,37,95,60
India,Andhra_Pradesh,Amaravati,"Secretariat, Amaravati - APPCB",27-05-2024 01:00:00,16.5150833,80.5181667,PM10,50,97,75
India,Andhra_Pradesh,Amaravati,"Secretariat, Amaravati - APPCB",27-05-2024 01:00:00,16.5150833,80.5181667,OZONE,3,90,61
India,Andhra_Pradesh,Anantapur,"Gulzarpet, Anantapur - APPCB",27-05-2024 01:00:00,14.675886,77.593027,SO2,NA,NA,NA
India,Andhra_Pradesh,Kadapa,"Yerramukkapalli, Kadapa - APPCB",27-05-2024 01:00:00,14.465052,78.824187,CO,5,18,13
India,Andhra_Pradesh,Tirupati,"Vaikuntapuram, Tirupati - APPCB",27-05-2024 01:00:00,13.615387,79.409230,NO2,14,19,16
India,Andhra_Pradesh,Vijayawada,"HB Colony, Vijayawada - APPCB",27-05-2024 01:00:00,16.536107,80.594233,SO2,6,7,6
India,Andhra_Pradesh,Vijayawada,"HB Colony, Vijayawada - APPCB",27-05-2024 01:00:00,16.536107,80.594233,OZONE,6,76,39
India,Andhra_Pradesh,Vijayawada,"Kanuru, Vijayawada - APPCB",27-05-2024 01:00:00,16.486692,80.699436,NO2,7,11,8
India,Andhra_Pradesh,Vijayawada,"Kanuru, Vijayawada - APPCB",27-05-2024 01:00:00,16.486692,80.699436,NH3,6,7,7
India,Andhra_Pradesh,Vijayawada,"Kanuru, Vijayawada - APPCB",27-05-2024 01:00:00,16.486692,80.699436,SO2,6,12,8
India,Andhra_Pradesh,Vijayawada,"Rajiv Gandhi Park, Vijayawada - APPCB",27-05-2024 01:00:00,16.509717,80.612222,NH3,4,5,5
India,Andhra_Pradesh,Vijayawada,"Rajiv Nagar, Vijayawada - APPCB",27-05-2024 01:00:00,16.554731,80.649110,PM2.5,35,52,38
India,Andhra_Pradesh,Visakhapatnam,"GVM Corporation, Visakhapatnam - APPCB",27-05-2024 01:00:00,17.72,83.3,PM10,105,199,140
India,Assam,Byrnihat,"Central Academy for SFS, Byrnihat - PCBA",27-05-2024 01:00:00,26.071318,91.87488,PM10,11,448,119
India,Assam,Guwahati,"IITG, Guwahati - PCBA",27-05-2024 01:00:00,26.2028636,91.70046436,SO2,13,15,14
India,Assam,Guwahati,"IITG, Guwahati - PCBA",27-05-2024 01:00:00,26.2028636,91.70046436,OZONE,9,30,15
India,Assam,Guwahati,"LGBI Airport, Guwahati - PCBA",27-05-2024 01:00:00,26.10887,91.589544,OZONE,22,29,27
India,Assam,Guwahati,"Pan Bazaar, Guwahati - PCBA",27-05-2024 01:00:00,26.187500,91.744194,PM2.5,10,28,19
India,Assam,Guwahati,"Railway Colony, Guwahati - PCBA",27-05-2024 01:00:00,26.181742,91.78063,PM2.5,14,88,49
India,Assam,Guwahati,"Railway Colony, Guwahati - PCBA",27-05-2024 01:00:00,26.181742,91.78063,SO2,12,26,20
India,Assam,Nagaon,"Christianpatty, Nagaon - PCBA",27-05-2024 01:00:00,26.349082,92.68449,NO2,1,15,4
India,Assam,Nalbari,"Bata Chowk, Nalbari - PCBA",27-05-2024 01:00:00,26.446912,91.439057,PM10,11,131,54
India,Assam,Nalbari,"Bata Chowk, Nalbari - PCBA",27-05-2024 01:00:00,26.446912,91.439057,SO2,4,14,10
India,Assam,Nalbari,"Bata Chowk, Nalbari - PCBA",27-05-2024 01:00:00,26.446912,91.439057,CO,21,94,82
India,Assam,Silchar,"Tarapur, Silchar - PCBA",27-05-2024 01:00:00,24.82827,92.79525,NH3,1,1,1
India,Assam,Silchar,"Tarapur, Silchar - PCBA",27-05-2024 01:00:00,24.82827,92.79525,CO,28,49,37
India,Assam,Silchar,"Tarapur, Silchar - PCBA",27-05-2024 01:00:00,24.82827,92.79525,OZONE,1,6,2
India,Bihar,Araria,"Kharahiya Basti, Araria - BSPCB",27-05-2024 01:00:00,26.146529,87.454184,PM10,NA,NA,NA
India,Bihar,Arrah,"New DM Office, Arrah - BSPCB",27-05-2024 01:00:00,25.5626095,84.663264,PM2.5,20,100,41
India,Bihar,Aurangabad,"Gurdeo Nagar, Aurangabad - BSPCB",27-05-2024 01:00:00,24.75746,84.366208,NO2,5,225,30
India,Bihar,Aurangabad,"Gurdeo Nagar, Aurangabad - BSPCB",27-05-2024 01:00:00,24.75746,84.366208,SO2,13,23,18
India,Bihar,Aurangabad,"Gurdeo Nagar, Aurangabad - BSPCB",27-05-2024 01:00:00,24.75746,84.366208,CO,10,31,26
India,Bihar,Aurangabad,"Gurdeo Nagar, Aurangabad - BSPCB",27-05-2024 01:00:00,24.75746,84.366208,OZONE,25,74,60
India,Bihar,Bettiah,"Kamalnath Nagar, Bettiah - BSPCB",27-05-2024 01:00:00,26.80365,84.51954,SO2,7,14,13
India,Bihar,Bettiah,"Kamalnath Nagar, Bettiah - BSPCB",27-05-2024 01:00:00,26.80365,84.51954,OZONE,2,14,10
India,Bihar,Bhagalpur,"DM Office_Kachari Chowk, Bhagalpur - BSPCB",27-05-2024 01:00:00,25.251013,86.989001,PM2.5,15,93,46
India,Bihar,Bhagalpur,"DM Office_Kachari Chowk, Bhagalpur - BSPCB",27-05-2024 01:00:00,25.251013,86.989001,NO2,29,58,41
India,Bihar,Bhagalpur,"DM Office_Kachari Chowk, Bhagalpur - BSPCB",27-05-2024 01:00:00,25.251013,86.989001,SO2,26,108,70
India,Bihar,Bhagalpur,"Mayaganj, Bhagalpur - BSPCB",27-05-2024 01:00:00,25.265194,87.012947,PM10,28,108,69
India,Bihar,Bhagalpur,"Mayaganj, Bhagalpur - BSPCB",27-05-2024 01:00:00,25.265194,87.012947,NH3,8,9,9
India,Bihar,Buxar,"Charitra Van, Buxar - BSPCB (Formerly known as Central Jail)",27-05-2024 01:00:00,25.567520,83.966379,CO,40,86,60
India,Bihar,Buxar,"Charitra Van, Buxar - BSPCB (Formerly known as Central Jail)",27-05-2024 01:00:00,25.567520,83.966379,OZONE,33,161,94
India,Bihar,Gaya,"Kareemganj, Gaya - BSPCB",27-05-2024 01:00:00,24.792403,84.992416,OZONE,13,38,22
India,Bihar,Gaya,"SFTI Kusdihra, Gaya - BSPCB",27-05-2024 01:00:00,24.762518,84.982348,NO2,12,34,20
India,Bihar,Gaya,"SFTI Kusdihra, Gaya - BSPCB",27-05-2024 01:00:00,24.762518,84.982348,NH3,2,4,3
India,Bihar,Hajipur,"Industrial Area, Hajipur - BSPCB",27-05-2024 01:00:00,25.697189,85.245900,PM10,103,252,152
India,Bihar,Katihar,"Mirchaibari, Katihar - BSPCB",27-05-2024 01:00:00,25.560083,87.553265,CO,30,56,44
India,Bihar,Motihari,"Gandak Colony, Motihari - BSPCB",27-05-2024 01:00:00,26.63086,84.90051,NO2,13,44,29
India,Bihar,Munger,"Town Hall, Munger - BSPCB",27-05-2024 01:00:00,25.376776,86.471523,OZONE,26,34,29
India,Bihar,Patna,"DRM Office Danapur, Patna - BSPCB",27-05-2024 01:00:00,25.586562,85.043586,NH3,2,3,3
India,Bihar,Patna,"DRM Office Danapur, Patna - BSPCB",27-05-2024 01:00:00,25.586562,85.043586,OZONE,16,57,35
India,Bihar,Patna,"Govt. High School Shikarpur, Patna - BSPCB",27-05-2024 01:00:00,25.592539,85.227158,PM10,89,119,104
India,Bihar,Patna,"Govt. High School Shikarpur, Patna - BSPCB",27-05-2024 01:00:00,25.592539,85.227158,CO,28,48,37
India,Bihar,Patna,"IGSC Planetarium Complex, Patna - BSPCB",27-05-2024 01:00:00,25.610369,85.132568,SO2,5,7,6
India,Bihar,Patna,"IGSC Planetarium Complex, Patna - BSPCB",27-05-2024 01:00:00,25.610369,85.132568,OZONE,54,267,166
India,Bihar,Purnia,"Mariam Nagar, Purnia - BSPCB",27-05-2024 01:00:00,25.366336,87.117468,NO2,5,6,6
India,Bihar,Rajgir,"Dangi Tola, Rajgir - BSPCB",27-05-2024 01:00:00,25.03280,85.41948,PM10,17,121,53
India,Bihar,Rajgir,"Dangi Tola, Rajgir - BSPCB",27-05-2024 01:00:00,25.03280,85.41948,NO2,14,15,15
India,Bihar,Saharsa,"Police Line, Saharsa - BSPCB",27-05-2024 01:00:00,25.892357,86.590325,NO2,6,8,7
India,Bihar,Samastipur,"DM Office_Kasipur, Samastipur - BSPCB",27-05-2024 01:00:00,25.859655,85.77944,PM2.5,NA,NA,NA
India,Bihar,Samastipur,"DM Office_Kasipur, Samastipur - BSPCB",27-05-2024 01:00:00,25.859655,85.77944,NO2,4,5,4
India,Bihar,Samastipur,"DM Office_Kasipur, Samastipur - BSPCB",27-05-2024 01:00:00,25.859655,85.77944,OZONE,1,10,3
India,Bihar,Sasaram,"Dada Peer, Sasaram - BSPCB",27-05-2024 01:00:00,24.952822,84.002396,PM2.5,NA,NA,NA
India,Bihar,Sasaram,"Dada Peer, Sasaram - BSPCB",27-05-2024 01:00:00,24.952822,84.002396,NO2,7,103,38
India,Bihar,Sasaram,"Dada Peer, Sasaram - BSPCB",27-05-2024 01:00:00,24.952822,84.002396,CO,48,91,81
India,Bihar,Siwan,"Chitragupta Nagar, Siwan - BSPCB",27-05-2024 01:00:00,26.2271665,84.3570427,NO2,8,18,12
India,Chandigarh,Chandigarh,"Sector 22, Chandigarh - CPCC",27-05-2024 01:00:00,30.735567,76.775714,PM10,76,272,132
India,Chhattisgarh,Bhilai,"Hathkhoj, Bhilai - CECB",27-05-2024 01:00:00,21.224231,81.408350,NO2,7,42,16
India,Chhattisgarh,Bhilai,"Hathkhoj, Bhilai - CECB",27-05-2024 01:00:00,21.224231,81.408350,CO,9,87,34
India,Chhattisgarh,Bilaspur,"Mangala, Bilaspur - NTPC",27-05-2024 01:00:00,22.08815,82.13737,PM2.5,33,87,56
India,Chhattisgarh,Bilaspur,"Mangala, Bilaspur - NTPC",27-05-2024 01:00:00,22.08815,82.13737,PM10,38,91,62
India,Chhattisgarh,Chhal,"Nawapara SECL Colony, Chhal - CECB",27-05-2024 01:00:00,22.118125,83.140608,SO2,11,22,15
India,Chhattisgarh,Chhal,"Nawapara SECL Colony, Chhal - CECB",27-05-2024 01:00:00,22.118125,83.140608,OZONE,11,115,54
India,Chhattisgarh,Korba,"Rampur, Korba - CECB",27-05-2024 01:00:00,22.368195,82.746431,SO2,4,12,7
India,Chhattisgarh,Kunjemura,"OP Jindal School, Kunjemura - CECB",27-05-2024 01:00:00,22.126650,83.483212,NO2,8,73,33
India,Chhattisgarh,Milupara,"Govt. Higher Secondary School, Milupara - CECB",27-05-2024 01:00:00,22.1910172,83.5197009,PM10,NA,NA,NA
India,Chhattisgarh,Milupara,"Govt. Higher Secondary School, Milupara - CECB",27-05-2024 01:00:00,22.1910172,83.5197009,SO2,NA,NA,NA
India,Chhattisgarh,Raipur,"Bhatagaon New ISBT, Raipur - CECB",27-05-2024 01:00:00,21.219665,81.630094,PM2.5,29,58,38
India,Chhattisgarh,Raipur,"Krishak Nagar, Raipur - CECB",27-05-2024 01:00:00,21.237755,81.705301,OZONE,6,53,28
India,Chhattisgarh,Raipur,"Siltara Phase-II, Raipur - CECB",27-05-2024 01:00:00,21.371751,81.664929,SO2,20,60,34
India,Delhi,Delhi,"Alipur, Delhi - DPCC",27-05-2024 01:00:00,28.815329,77.153010,NO2,4,80,30
India,Delhi,Delhi,"Alipur, Delhi - DPCC",27-05-2024 01:00:00,28.815329,77.153010,NH3,6,9,7
India,Delhi,Delhi,"Ashok Vihar, Delhi - DPCC",27-05-2024 01:00:00,28.695381,77.181665,SO2,19,82,39
India,Delhi,Delhi,"Ashok Vihar, Delhi - DPCC",27-05-2024 01:00:00,28.695381,77.181665,CO,14,125,72
India,Delhi,Delhi,"Ashok Vihar, Delhi - DPCC",27-05-2024 01:00:00,28.695381,77.181665,OZONE,13,202,90
India,Delhi,Delhi,"Aya Nagar, Delhi - IMD",27-05-2024 01:00:00,28.4706914,77.1099364,CO,4,78,25
India,Delhi,Delhi,"Bawana, Delhi - DPCC",27-05-2024 01:00:00,28.776200,77.051074,PM2.5,60,417,199
India,Delhi,Delhi,"Burari Crossing, Delhi - IMD",27-05-2024 01:00:00,28.7256504,77.2011573,PM2.5,59,366,138
India,Delhi,Delhi,"Burari Crossing, Delhi - IMD",27-05-2024 01:00:00,28.7256504,77.2011573,PM10,125,428,215
India,Delhi,Delhi,"Burari Crossing, Delhi - IMD",27-05-2024 01:00:00,28.7256504,77.2011573,NO2,20,30,26
India,Delhi,Delhi,"Burari Crossing, Delhi - IMD",27-05-2024 01:00:00,28.7256504,77.2011573,OZONE,3,115,60
India,Delhi,Delhi,"CRRI Mathura Road, Delhi - IMD",27-05-2024 01:00:00,28.5512005,77.2735737,OZONE,4,100,37
India,Delhi,Delhi,"Chandni Chowk, Delhi - IITM",27-05-2024 01:00:00,28.656756,77.227234,PM10,124,262,186
India,Delhi,Delhi,"Chandni Chowk, Delhi - IITM",27-05-2024 01:00:00,28.656756,77.227234,SO2,31,72,51
India,Delhi,Delhi,"Dr. Karni Singh Shooting Range, Delhi - DPCC",27-05-2024 01:00:00,28.498571,77.264840,PM2.5,38,325,144
India,Delhi,Delhi,"Dwarka-Sector 8, Delhi - DPCC ",27-05-2024 01:00:00,28.5710274,77.0719006,SO2,2,55,15
India,Delhi,Delhi,"Dwarka-Sector 8, Delhi - DPCC ",27-05-2024 01:00:00,28.5710274,77.0719006,OZONE,4,92,36
India,Delhi,Delhi,"IGI Airport (T3), Delhi - IMD",27-05-2024 01:00:00,28.5627763,77.1180053,PM2.5,36,309,122
India,Delhi,Delhi,"IHBAS, Dilshad Garden, Delhi - CPCB",27-05-2024 01:00:00,28.6811736,77.3025234,PM10,108,475,162
India,Delhi,Delhi,"ITO, Delhi - CPCB",27-05-2024 01:00:00,28.628624,77.241060,CO,4,129,81
India,Delhi,Delhi,"Jahangirpuri, Delhi - DPCC",27-05-2024 01:00:00,28.732820,77.170633,PM10,109,500,254
India,Delhi,Delhi,"Jahangirpuri, Delhi - DPCC",27-05-2024 01:00:00,28.732820,77.170633,CO,39,143,95
India,Delhi,Delhi,"Jawaharlal Nehru Stadium, Delhi - DPCC",27-05-2024 01:00:00,28.580280,77.233829,OZONE,4,271,63
India,Delhi,Delhi,"Lodhi Road, Delhi - IITM",27-05-2024 01:00:00,28.588333,77.221667,SO2,18,63,29
India,Delhi,Delhi,"Lodhi Road, Delhi - IMD",27-05-2024 01:00:00,28.5918245,77.2273074,PM2.5,45,222,84
India,Delhi,Delhi,"Lodhi Road, Delhi - IMD",27-05-2024 01:00:00,28.5918245,77.2273074,NO2,6,45,22
India,Delhi,Delhi,"Mandir Marg, Delhi - DPCC",27-05-2024 01:00:00,28.636429,77.201067,PM2.5,47,302,97
India,Delhi,Delhi,"Mandir Marg, Delhi - DPCC",27-05-2024 01:00:00,28.636429,77.201067,NO2,75,126,90
India,Delhi,Delhi,"Mundka, Delhi - DPCC",27-05-2024 01:00:00,28.684678,77.076574,NO2,37,136,78
India,Delhi,Delhi,"NSIT Dwarka, Delhi - CPCB",27-05-2024 01:00:00,28.60909,77.0325413,PM10,126,261,185
India,Delhi,Delhi,"Narela, Delhi - DPCC",27-05-2024 01:00:00,28.822836,77.101981,PM10,123,432,218
India,Delhi,Delhi,"Narela, Delhi - DPCC",27-05-2024 01:00:00,28.822836,77.101981,OZONE,30,232,112
India,Delhi,Delhi,"Nehru Nagar, Delhi - DPCC",27-05-2024 01:00:00,28.567890,77.250515,PM10,92,454,205
India,Delhi,Delhi,"Nehru Nagar, Delhi - DPCC",27-05-2024 01:00:00,28.567890,77.250515,NO2,4,110,41
India,Delhi,Delhi,"Nehru Nagar, Delhi - DPCC",27-05-2024 01:00:00,28.567890,77.250515,NH3,3,6,4
India,Delhi,Delhi,"Okhla Phase-2, Delhi - DPCC",27-05-2024 01:00:00,28.530785,77.271255,NO2,16,168,81
India,Delhi,Delhi,"Patparganj, Delhi - DPCC",27-05-2024 01:00:00,28.623763,77.287209,PM10,127,477,236
India,Delhi,Delhi,"Patparganj, Delhi - DPCC",27-05-2024 01:00:00,28.623763,77.287209,NO2,5,59,25
India,Delhi,Delhi,"Patparganj, Delhi - DPCC",27-05-2024 01:00:00,28.623763,77.287209,OZONE,2,182,67
India,Delhi,Delhi,"Punjabi Bagh, Delhi - DPCC",27-05-2024 01:00:00,28.674045,77.131023,NH3,5,7,6
India,Delhi,Delhi,"Punjabi Bagh, Delhi - DPCC",27-05-2024 01:00:00,28.674045,77.131023,SO2,6,71,23
India,Delhi,Delhi,"Punjabi Bagh, Delhi - DPCC",27-05-2024 01:00:00,28.674045,77.131023,OZONE,6,140,43
India,Delhi,Delhi,"Pusa, Delhi - DPCC",27-05-2024 01:00:00,28.639652,77.146275,CO,16,116,58
India,Delhi,Delhi,"Pusa, Delhi - IMD",27-05-2024 01:00:00,28.636110,77.173332,PM2.5,NA,NA,NA
India,Delhi,Delhi,"R K Puram, Delhi - DPCC",27-05-2024 01:00:00,28.563262,77.186937,CO,21,150,98
India,Delhi,Delhi,"Rohini, Delhi - DPCC",27-05-2024 01:00:00,28.732528,77.119920,PM10,115,474,228
India,Delhi,Delhi,"Shadipur, Delhi - CPCB",27-05-2024 01:00:00,28.6514781,77.1473105,NH3,7,10,8
India,Delhi,Delhi,"Sonia Vihar, Delhi - DPCC",27-05-2024 01:00:00,28.710508,77.249485,NO2,14,93,46
India,Delhi,Delhi,"Sonia Vihar, Delhi - DPCC",27-05-2024 01:00:00,28.710508,77.249485,SO2,9,55,21
India,Delhi,Delhi,"Sonia Vihar, Delhi - DPCC",27-05-2024 01:00:00,28.710508,77.249485,CO,50,107,84
India,Delhi,Delhi,"Sri Aurobindo Marg, Delhi - DPCC",27-05-2024 01:00:00,28.531346,77.190156,NH3,4,9,6
India,Delhi,Delhi,"Sri Aurobindo Marg, Delhi - DPCC",27-05-2024 01:00:00,28.531346,77.190156,CO,36,113,70
India,Delhi,Delhi,"Vivek Vihar, Delhi - DPCC",27-05-2024 01:00:00,28.672342,77.315260,NO2,39,161,71
India,Delhi,Delhi,"Vivek Vihar, Delhi - DPCC",27-05-2024 01:00:00,28.672342,77.315260,CO,16,122,69
India,Delhi,Delhi,"Vivek Vihar, Delhi - DPCC",27-05-2024 01:00:00,28.672342,77.315260,OZONE,1,175,61
India,Gujarat,Ahmedabad,"Chandkheda, Ahmedabad - IITM",27-05-2024 01:00:00,23.107969,72.574648,SO2,18,29,26
India,Gujarat,Ahmedabad,"Maninagar, Ahmedabad - GPCB",27-05-2024 01:00:00,23.002657,72.591912,SO2,NA,NA,NA
India,Gujarat,Ahmedabad,"Maninagar, Ahmedabad - GPCB",27-05-2024 01:00:00,23.002657,72.591912,OZONE,NA,NA,NA
India,Gujarat,Ahmedabad,"Raikhad, Ahmedabad - IITM",27-05-2024 01:00:00,23.020509,72.579261,PM10,60,174,113
India,Gujarat,Ahmedabad,"Raikhad, Ahmedabad - IITM",27-05-2024 01:00:00,23.020509,72.579261,OZONE,10,76,30
India,Gujarat,Ahmedabad,"SVPI Airport Hansol, Ahmedabad - IITM",27-05-2024 01:00:00,23.076793,72.627874,PM2.5,85,144,105
India,Gujarat,Ahmedabad,"SVPI Airport Hansol, Ahmedabad - IITM",27-05-2024 01:00:00,23.076793,72.627874,NO2,34,42,38
India,Gujarat,Ahmedabad,"SVPI Airport Hansol, Ahmedabad - IITM",27-05-2024 01:00:00,23.076793,72.627874,CO,25,51,43
India,Gujarat,Ankleshwar,"GIDC, Ankleshwar - GPCB",27-05-2024 01:00:00,21.613267,73.010555,NH3,NA,NA,NA
India,Gujarat,Gandhinagar,"Sector-10, Gandhinagar - GPCB",27-05-2024 01:00:00,23.221714,72.654328,CO,28,40,34
India,Gujarat,Vapi,"Phase-1 GIDC, Vapi - GPCB",27-05-2024 01:00:00,20.362421,72.918013,NH3,2,2,2
India,Gujarat,Vapi,"Phase-1 GIDC, Vapi - GPCB",27-05-2024 01:00:00,20.362421,72.918013,OZONE,1,1,1
India,Gujarat,Vatva,"Phase-4 GIDC, Vatva - GPCB",27-05-2024 01:00:00,22.969611,72.643500,NO2,25,66,39
India,Haryana,Ambala,"Patti Mehar, Ambala - HSPCB",27-05-2024 01:00:00,30.379589,76.778328,PM10,45,108,77
India,Haryana,Ambala,"Patti Mehar, Ambala - HSPCB",27-05-2024 01:00:00,30.379589,76.778328,SO2,2,33,22
India,Haryana,Ambala,"Patti Mehar, Ambala - HSPCB",27-05-2024 01:00:00,30.379589,76.778328,OZONE,37,57,48
India,Haryana,Bahadurgarh,"Arya Nagar, Bahadurgarh - HSPCB",27-05-2024 01:00:00,28.6701,76.9254,PM2.5,50,329,142
India,Haryana,Bahadurgarh,"Arya Nagar, Bahadurgarh - HSPCB",27-05-2024 01:00:00,28.6701,76.9254,NH3,8,10,9
India,Haryana,Bhiwani,"H.B. Colony, Bhiwani - HSPCB",27-05-2024 01:00:00,28.806223,76.141105,OZONE,4,27,11
India,Haryana,Dharuhera,"Municipal Corporation Office, Dharuhera -  HSPCB",27-05-2024 01:00:00,28.206800,76.799700,PM10,78,199,117
India,Haryana,Dharuhera,"Municipal Corporation Office, Dharuhera -  HSPCB",27-05-2024 01:00:00,28.206800,76.799700,SO2,NA,NA,NA
India,Haryana,Dharuhera,"Municipal Corporation Office, Dharuhera -  HSPCB",27-05-2024 01:00:00,28.206800,76.799700,CO,10,72,45
India,Haryana,Faridabad,"Sector 11, Faridabad - HSPCB",27-05-2024 01:00:00,28.376058,77.315741,CO,30,68,47
India,Haryana,Faridabad,"Sector 30, Faridabad - HSPCB",27-05-2024 01:00:00,28.4417,77.3217,PM10,114,123,119
India,Haryana,Faridabad,"Sector 30, Faridabad - HSPCB",27-05-2024 01:00:00,28.4417,77.3217,NO2,30,33,32
India,Haryana,Faridabad,"Sector 30, Faridabad - HSPCB",27-05-2024 01:00:00,28.4417,77.3217,CO,20,115,71
India,Haryana,Faridabad,"Sector- 16A, Faridabad - HSPCB",27-05-2024 01:00:00,28.4088421,77.3099081,PM2.5,NA,NA,NA
India,Haryana,Fatehabad,"Huda Sector, Fatehabad - HSPCB",27-05-2024 01:00:00,29.503664,75.467934,PM10,71,134,102
India,Haryana,Fatehabad,"Huda Sector, Fatehabad - HSPCB",27-05-2024 01:00:00,29.503664,75.467934,NH3,10,11,10
India,Haryana,Fatehabad,"Huda Sector, Fatehabad - HSPCB",27-05-2024 01:00:00,29.503664,75.467934,SO2,3,12,8
India,Haryana,Gurugram,"NISE Gwal Pahari, Gurugram - IMD",27-05-2024 01:00:00,28.422681,77.148944,NO2,NA,NA,NA
India,Haryana,Gurugram,"NISE Gwal Pahari, Gurugram - IMD",27-05-2024 01:00:00,28.422681,77.148944,OZONE,10,103,24
India,Haryana,Gurugram,"Sector-51, Gurugram - HSPCB",27-05-2024 01:00:00,28.4227,77.0667,PM2.5,80,303,174
India,Haryana,Gurugram,"Sector-51, Gurugram - HSPCB",27-05-2024 01:00:00,28.4227,77.0667,SO2,3,5,4
India,Haryana,Gurugram,"Teri Gram, Gurugram - HSPCB",27-05-2024 01:00:00,28.4275,77.1465,NO2,23,38,30
India,Haryana,Gurugram,"Teri Gram, Gurugram - HSPCB",27-05-2024 01:00:00,28.4275,77.1465,CO,19,40,28
India,Haryana,Gurugram,"Vikas Sadan, Gurugram - HSPCB",27-05-2024 01:00:00,28.4501238,77.0263051,PM2.5,34,61,46
India,Haryana,Hisar,"Urban Estate-II, Hisar - HSPCB",27-05-2024 01:00:00,29.140560,75.744941,NO2,21,27,23
India,Haryana,Hisar,"Urban Estate-II, Hisar - HSPCB",27-05-2024 01:00:00,29.140560,75.744941,NH3,8,11,9
India,Haryana,Hisar,"Urban Estate-II, Hisar - HSPCB",27-05-2024 01:00:00,29.140560,75.744941,CO,25,59,33
India,Haryana,Jind,"Police Lines, Jind - HSPCB",27-05-2024 01:00:00,29.307814,76.337619,OZONE,23,41,32
India,Haryana,Karnal,"Sector-12, Karnal - HSPCB",27-05-2024 01:00:00,29.695300,77.002700,NO2,7,12,10
India,Haryana,Karnal,"Sector-12, Karnal - HSPCB",27-05-2024 01:00:00,29.695300,77.002700,NH3,10,13,11
India,Haryana,Mandikhera,"General Hospital, Mandikhera - HSPCB",27-05-2024 01:00:00,27.9002,76.9938,NO2,19,24,22
India,Haryana,Mandikhera,"General Hospital, Mandikhera - HSPCB",27-05-2024 01:00:00,27.9002,76.9938,NH3,15,20,18
India,Haryana,Mandikhera,"General Hospital, Mandikhera - HSPCB",27-05-2024 01:00:00,27.9002,76.9938,CO,1,32,14
India,Haryana,Manesar,"Sector-2 IMT, Manesar - HSPCB",27-05-2024 01:00:00,28.360699,76.936090,NH3,2,5,4
India,Haryana,Narnaul,"Shastri Nagar, Narnaul - HSPCB",27-05-2024 01:00:00,28.060249,76.113115,PM2.5,88,161,108
India,Haryana,Narnaul,"Shastri Nagar, Narnaul - HSPCB",27-05-2024 01:00:00,28.060249,76.113115,NH3,5,27,15
India,Haryana,Panchkula,"Sector-6, Panchkula - HSPCB ",27-05-2024 01:00:00,30.7057778,76.8531805555555,OZONE,35,59,39
India,Haryana,Panipat,"Sector-18, Panipat - HSPCB",27-05-2024 01:00:00,29.432304,76.972765,OZONE,30,30,30
India,Haryana,Sonipat,"Murthal, Sonipat - HSPCB",27-05-2024 01:00:00,29.027200,77.062100,NO2,37,44,40
India,Haryana,Yamuna Nagar,"Gobind Pura, Yamuna Nagar - HSPCB",27-05-2024 01:00:00,30.1480566,77.2893471,PM2.5,76,115,90
India,Haryana,Yamuna Nagar,"Gobind Pura, Yamuna Nagar - HSPCB",27-05-2024 01:00:00,30.1480566,77.2893471,SO2,2,9,6
India,Haryana,Yamuna Nagar,"Gobind Pura, Yamuna Nagar - HSPCB",27-05-2024 01:00:00,30.1480566,77.2893471,CO,27,44,37
India,Jharkhand,Dhanbad,"Kalakusuma, Dhanbad - DMC",27-05-2024 01:00:00,23.811548,86.481238,PM10,12,152,71
India,Jharkhand,Dhanbad,"Sardar Patel Nagar, Dhanbad - JSPCB",27-05-2024 01:00:00,23.80569,86.44268,SO2,NA,NA,NA
India,Jharkhand,Dhanbad,"Sardar Patel Nagar, Dhanbad - JSPCB",27-05-2024 01:00:00,23.80569,86.44268,OZONE,22,58,33
India,Karnataka,Bagalkot,"Vidayagiri, Bagalkot - KSPCB",27-05-2024 01:00:00,16.172806,75.659694,PM10,42,42,42
India,Karnataka,Belgaum,"Ramteerth Nagar, Belgaum - KSPCB",27-05-2024 01:00:00,15.888653,74.541751,PM10,22,50,34
India,Karnataka,Belgaum,"Ramteerth Nagar, Belgaum - KSPCB",27-05-2024 01:00:00,15.888653,74.541751,NO2,8,43,23
India,Karnataka,Belgaum,"Ramteerth Nagar, Belgaum - KSPCB",27-05-2024 01:00:00,15.888653,74.541751,NH3,3,11,8
India,Karnataka,Bengaluru,"Bapuji Nagar, Bengaluru - KSPCB",27-05-2024 01:00:00,12.951913,77.539784,PM2.5,23,44,36
India,Karnataka,Bengaluru,"Bapuji Nagar, Bengaluru - KSPCB",27-05-2024 01:00:00,12.951913,77.539784,NO2,15,16,15
India,Karnataka,Bengaluru,"Hebbal, Bengaluru - KSPCB",27-05-2024 01:00:00,13.029152,77.585901,PM2.5,10,44,25
India,Karnataka,Bengaluru,"Hombegowda Nagar, Bengaluru - KSPCB",27-05-2024 01:00:00,12.938539,77.590100,SO2,3,5,4
India,Karnataka,Bengaluru,"Hombegowda Nagar, Bengaluru - KSPCB",27-05-2024 01:00:00,12.938539,77.590100,OZONE,15,33,22
India,Karnataka,Bengaluru,"Jayanagar 5th Block, Bengaluru - KSPCB",27-05-2024 01:00:00,12.920984,77.584908,CO,20,22,21
India,Karnataka,Bengaluru,"Kasturi Nagar, Bengaluru - KSPCB",27-05-2024 01:00:00,13.003872,77.664217,PM10,52,52,52
India,Karnataka,Bengaluru,"Kasturi Nagar, Bengaluru - KSPCB",27-05-2024 01:00:00,13.003872,77.664217,NO2,16,17,17
India,Karnataka,Bengaluru,"Kasturi Nagar, Bengaluru - KSPCB",27-05-2024 01:00:00,13.003872,77.664217,SO2,10,10,10
India,Karnataka,Bengaluru,"Shivapura_Peenya, Bengaluru - KSPCB",27-05-2024 01:00:00,13.0246342,77.5080115,PM10,42,104,70
India,Karnataka,Bengaluru,"Silk Board, Bengaluru - KSPCB",27-05-2024 01:00:00,12.917348,77.622813,NH3,NA,NA,NA
India,Karnataka,Bengaluru,"Silk Board, Bengaluru - KSPCB",27-05-2024 01:00:00,12.917348,77.622813,CO,7,14,12
India,Karnataka,Bidar,"Naubad, Bidar - KSPCB",27-05-2024 01:00:00,17.930306,77.482194,NO2,7,8,7
India,Karnataka,Bidar,"Naubad, Bidar - KSPCB",27-05-2024 01:00:00,17.930306,77.482194,CO,72,100,89
India,Karnataka,Chamarajanagar,"Urban, Chamarajanagar - KSPCB",27-05-2024 01:00:00,11.55358,76.55521,SO2,3,6,4
India,Karnataka,Chamarajanagar,"Urban, Chamarajanagar - KSPCB",27-05-2024 01:00:00,11.55358,76.55521,CO,19,120,39
India,Karnataka,Chikkaballapur,"Chikkaballapur Rural, Chikkaballapur - KSPCB",27-05-2024 01:00:00,13.428828,77.731418,NO2,5,8,6
India,Karnataka,Chikkamagaluru,"Kalyana Nagara, Chikkamagaluru - KSPCB",27-05-2024 01:00:00,13.328028,75.797056,NH3,2,5,3
India,Karnataka,Chikkamagaluru,"Kalyana Nagara, Chikkamagaluru - KSPCB",27-05-2024 01:00:00,13.328028,75.797056,CO,11,116,39
India,Karnataka,Gadag,"Panchal Nagar, Gadag - KSPCB",27-05-2024 01:00:00,15.411456,75.638133,SO2,9,23,13
India,Karnataka,Gadag,"Panchal Nagar, Gadag - KSPCB",27-05-2024 01:00:00,15.411456,75.638133,CO,34,50,45
India,Karnataka,Haveri,"Ashwini Nagar, Haveri - KSPCB",27-05-2024 01:00:00,14.791800,75.389600,CO,38,38,38
India,Karnataka,Hubballi,"Deshpande Nagar, Hubballi - KSPCB",27-05-2024 01:00:00,15.351773,75.140726,PM2.5,NA,NA,NA
India,Karnataka,Hubballi,"Deshpande Nagar, Hubballi - KSPCB",27-05-2024 01:00:00,15.351773,75.140726,NO2,NA,NA,NA
India,Karnataka,Hubballi,"Deshpande Nagar, Hubballi - KSPCB",27-05-2024 01:00:00,15.351773,75.140726,NH3,NA,NA,NA
India,Karnataka,Hubballi,"Lingaraj Nagar, Hubballi - KSPCB",27-05-2024 01:00:00,15.3714823,75.1160168,NO2,12,19,14
India,Karnataka,Hubballi,"Lingaraj Nagar, Hubballi - KSPCB",27-05-2024 01:00:00,15.3714823,75.1160168,SO2,1,13,1
India,Karnataka,Kalaburagi,"Lal Bahadur Shastri Nagar, Kalaburagi - KSPCB",27-05-2024 01:00:00,17.321993,76.822628,PM2.5,1,77,33
India,Karnataka,Kalaburagi,"Lal Bahadur Shastri Nagar, Kalaburagi - KSPCB",27-05-2024 01:00:00,17.321993,76.822628,NO2,11,12,11
India,Karnataka,Koppal,"Diwator Nagar, Koppal - KSPCB",27-05-2024 01:00:00,15.347630,76.181767,PM10,13,27,18
India,Karnataka,Koppal,"Diwator Nagar, Koppal - KSPCB",27-05-2024 01:00:00,15.347630,76.181767,OZONE,8,37,26
India,Karnataka,Mangalore,"Kadri, Mangalore - KSPCB",27-05-2024 01:00:00,12.889250,74.853000,NH3,2,2,2
India,Karnataka,Mangalore,"Kadri, Mangalore - KSPCB",27-05-2024 01:00:00,12.889250,74.853000,SO2,25,26,26
India,Karnataka,Mysuru,"Hebbal 1st Stage, Mysuru - KSPCB",27-05-2024 01:00:00,12.21041,76.37376,PM2.5,NA,NA,NA
India,Karnataka,Mysuru,"Hebbal 1st Stage, Mysuru - KSPCB",27-05-2024 01:00:00,12.21041,76.37376,OZONE,12,19,16
India,Karnataka,Raichur,"Haji Colony, Raichur - KSPCB",27-05-2024 01:00:00,16.208139,77.348417,PM10,23,82,50
India,Karnataka,Raichur,"Haji Colony, Raichur - KSPCB",27-05-2024 01:00:00,16.208139,77.348417,NO2,12,31,20
India,Karnataka,Raichur,"Haji Colony, Raichur - KSPCB",27-05-2024 01:00:00,16.208139,77.348417,NH3,2,3,3
India,Karnataka,Raichur,"Haji Colony, Raichur - KSPCB",27-05-2024 01:00:00,16.208139,77.348417,OZONE,1,5,2
India,Karnataka,Ramanagara,"Vijay Nagar, Ramanagara - KSPCB",27-05-2024 01:00:00,12.733409,77.298051,CO,37,46,41
India,Karnataka,Shivamogga,"Vinoba Nagara, Shivamogga - KSPCB",27-05-2024 01:00:00,13.940000,75.555917,CO,8,36,21
India,Karnataka,Vijayapura,"Ibrahimpur, Vijayapura - KSPCB",27-05-2024 01:00:00,16.802639,75.722694,PM2.5,26,31,30
India,Karnataka,Vijayapura,"Ibrahimpur, Vijayapura - KSPCB",27-05-2024 01:00:00,16.802639,75.722694,PM10,40,44,42
India,Karnataka,Vijayapura,"Ibrahimpur, Vijayapura - KSPCB",27-05-2024 01:00:00,16.802639,75.722694,OZONE,14,16,15
India,Karnataka,Yadgir,"Collector Office, Yadgir - KSPCB",27-05-2024 01:00:00,16.7602,77.1428,NO2,7,15,10
India,Karnataka,Yadgir,"Collector Office, Yadgir - KSPCB",27-05-2024 01:00:00,16.7602,77.1428,SO2,5,40,19
India,Karnataka,Yadgir,"Collector Office, Yadgir - KSPCB",27-05-2024 01:00:00,16.7602,77.1428,CO,16,29,23
India,Kerala,Kollam,"Polayathode, Kollam - Kerala PCB",27-05-2024 01:00:00,8.8787,76.6073,PM10,40,68,54
India,Kerala,Thiruvananthapuram,"Kariavattom, Thiruvananthapuram - Kerala PCB",27-05-2024 01:00:00,8.563700,76.886500,NH3,1,1,1
India,Kerala,Thiruvananthapuram,"Plammoodu, Thiruvananthapuram - Kerala PCB",27-05-2024 01:00:00,8.5149093,76.9435879,PM10,9,39,22
India,Kerala,Thiruvananthapuram,"Plammoodu, Thiruvananthapuram - Kerala PCB",27-05-2024 01:00:00,8.5149093,76.9435879,NH3,1,1,1
India,Kerala,Thrissur,"Corporation Ground, Thrissur - Kerala PCB",27-05-2024 01:00:00,10.532400,76.215900,SO2,NA,NA,NA
India,Kerala,Thrissur,"Corporation Ground, Thrissur - Kerala PCB",27-05-2024 01:00:00,10.532400,76.215900,OZONE,27,33,29
India,Madhya Pradesh,Bhopal,"Idgah Hills, Bhopal - MPPCB",27-05-2024 01:00:00,23.264759,77.381568,PM2.5,47,100,68
India,Madhya Pradesh,Bhopal,"Idgah Hills, Bhopal - MPPCB",27-05-2024 01:00:00,23.264759,77.381568,CO,11,68,24
India,Madhya Pradesh,Bhopal,"Paryavaran Parisar, Bhopal - MPPCB",27-05-2024 01:00:00,23.210494,77.425409,PM10,87,153,113
India,Madhya Pradesh,Bhopal,"T T Nagar, Bhopal - MPPCB",27-05-2024 01:00:00,23.233584,77.400574,PM10,89,165,118
India,Madhya Pradesh,Bhopal,"T T Nagar, Bhopal - MPPCB",27-05-2024 01:00:00,23.233584,77.400574,NH3,1,3,1
India,Madhya Pradesh,Dewas,"Bhopal Chauraha, Dewas - MPPCB",27-05-2024 01:00:00,22.9682591,76.064118,PM2.5,33,55,46
India,Madhya Pradesh,Dewas,"Bhopal Chauraha, Dewas - MPPCB",27-05-2024 01:00:00,22.9682591,76.064118,CO,14,28,20
India,Madhya Pradesh,Dewas,"Bhopal Chauraha, Dewas - MPPCB",27-05-2024 01:00:00,22.9682591,76.064118,OZONE,12,54,34
India,Madhya Pradesh,Gwalior,"Maharaj Bada, Gwalior - MPPCB",27-05-2024 01:00:00,26.200388,78.147714,CO,9,138,78
India,Madhya Pradesh,Gwalior,"Phool Bagh, Gwalior - Mondelez Ind. Food",27-05-2024 01:00:00,26.210536,78.171,SO2,27,44,31
India,Madhya Pradesh,Indore,"Chhoti Gwaltoli, Indore - MPPCB",27-05-2024 01:00:00,22.4310,75.5213,NO2,42,75,53
India,Madhya Pradesh,Indore,"Chhoti Gwaltoli, Indore - MPPCB",27-05-2024 01:00:00,22.4310,75.5213,OZONE,31,99,61
India,Madhya Pradesh,Indore,"Maguda Nagar, Indore - IMC",27-05-2024 01:00:00,22.7524,75.8872,PM2.5,49,94,73
India,Madhya Pradesh,Indore,"Maguda Nagar, Indore - IMC",27-05-2024 01:00:00,22.7524,75.8872,PM10,32,68,54
India,Madhya Pradesh,Indore,"Maguda Nagar, Indore - IMC",27-05-2024 01:00:00,22.7524,75.8872,NH3,1,3,2
India,Madhya Pradesh,Indore,"Regional Park, Indore - IMC",27-05-2024 01:00:00,22.6780,75.8559,SO2,55,59,58
India,Madhya Pradesh,Indore,"Residency Area, Indore - IMC",27-05-2024 01:00:00,22.7084,75.8815,SO2,27,34,30
India,Madhya Pradesh,Jabalpur,"Govindh Bhavan Colony, Jabalpur - JMC",27-05-2024 01:00:00,23.163174,79.973061,NO2,2,34,12
India,Madhya Pradesh,Jabalpur,"Govindh Bhavan Colony, Jabalpur - JMC",27-05-2024 01:00:00,23.163174,79.973061,OZONE,17,156,75
India,Madhya Pradesh,Jabalpur,"Gupteshwar, Jabalpur - JMC",27-05-2024 01:00:00,23.142888,79.916147,PM10,54,133,90
India,Madhya Pradesh,Jabalpur,"Gupteshwar, Jabalpur - JMC",27-05-2024 01:00:00,23.142888,79.916147,NH3,4,5,5
India,Madhya Pradesh,Jabalpur,"Gupteshwar, Jabalpur - JMC",27-05-2024 01:00:00,23.142888,79.916147,CO,22,111,66
India,Madhya Pradesh,Jabalpur,"Marhatal, Jabalpur - MPPCB",27-05-2024 01:00:00,23.168606,79.932247,SO2,13,22,17
