country,state,city,station,last_update,latitude,longitude,pollutant_id,pollutant_min,pollutant_max,pollutant_avg
India,Andhra_Pradesh,Anantapur,"Gulzarpet, Anantapur - APPCB",15-05-2024 19:00:00,14.675886,77.593027,PM10,43,78,63
India,Andhra_Pradesh,Chittoor,"Gangineni Cheruvu, Chittoor - APPCB",15-05-2024 19:00:00,13.204880,79.097889,NH3,NA,NA,NA
India,Andhra_Pradesh,Rajamahendravaram,"Anand Kala Kshetram, Rajamahendravaram - APPCB",15-05-2024 19:00:00,16.9872867,81.7363176,PM2.5,25,92,51
India,Andhra_Pradesh,Tirupati,"Tirumala, Tirupati - APPCB",15-05-2024 19:00:00,13.67,79.35,OZONE,11,40,31
India,Andhra_Pradesh,Tirupati,"Vaikuntapuram, Tirupati - APPCB",15-05-2024 19:00:00,13.615387,79.409230,PM2.5,NA,NA,NA
India,Andhra_Pradesh,Tirupati,"Vaikuntapuram, Tirupati - APPCB",15-05-2024 19:00:00,13.615387,79.409230,PM10,NA,NA,NA
India,Andhra_Pradesh,Vijayawada,"HB Colony, Vijayawada - APPCB",15-05-2024 19:00:00,16.536107,80.594233,PM10,NA,NA,NA
India,Andhra_Pradesh,Vijayawada,"HB Colony, Vijayawada - APPCB",15-05-2024 19:00:00,16.536107,80.594233,SO2,NA,NA,NA
India,Andhra_Pradesh,Vijayawada,"HB Colony, Vijayawada - APPCB",15-05-2024 19:00:00,16.536107,80.594233,CO,33,36,34
India,Andhra_Pradesh,Vijayawada,"Rajiv Gandhi Park, Vijayawada - APPCB",15-05-2024 19:00:00,16.509717,80.612222,PM2.5,NA,NA,NA
India,Andhra_Pradesh,Vijayawada,"Rajiv Gandhi Park, Vijayawada - APPCB",15-05-2024 19:00:00,16.509717,80.612222,NO2,NA,NA,NA
India,Andhra_Pradesh,Vijayawada,"Rajiv Gandhi Park, Vijayawada - APPCB",15-05-2024 19:00:00,16.509717,80.612222,OZONE,27,71,47
India,Andhra_Pradesh,Visakhapatnam,"GVM Corporation, Visakhapatnam - APPCB",15-05-2024 19:00:00,17.72,83.3,OZONE,6,141,20
India,Assam,Byrnihat,"Central Academy for SFS, Byrnihat - PCBA",15-05-2024 19:00:00,26.071318,91.87488,PM2.5,67,500,292
India,Assam,Guwahati,"IITG, Guwahati - PCBA",15-05-2024 19:00:00,26.2028636,91.70046436,PM10,70,239,123
India,Assam,Guwahati,"Railway Colony, Guwahati - PCBA",15-05-2024 19:00:00,26.181742,91.78063,PM2.5,64,256,117
India,Assam,Guwahati,"Railway Colony, Guwahati - PCBA",15-05-2024 19:00:00,26.181742,91.78063,PM10,66,155,101
India,Assam,Guwahati,"Railway Colony, Guwahati - PCBA",15-05-2024 19:00:00,26.181742,91.78063,NO2,3,4,3
India,Assam,Guwahati,"Railway Colony, Guwahati - PCBA",15-05-2024 19:00:00,26.181742,91.78063,CO,20,42,21
India,Assam,Nagaon,"Christianpatty, Nagaon - PCBA",15-05-2024 19:00:00,26.349082,92.68449,NH3,3,4,3
India,Assam,Nagaon,"Christianpatty, Nagaon - PCBA",15-05-2024 19:00:00,26.349082,92.68449,OZONE,8,88,83
India,Assam,Nalbari,"Bata Chowk, Nalbari - PCBA",15-05-2024 19:00:00,26.446912,91.439057,CO,65,108,96
India,Assam,Sivasagar,"Girls College, Sivasagar - PCBA",15-05-2024 19:00:00,26.987634,94.636574,PM10,47,89,65
India,Assam,Sivasagar,"Girls College, Sivasagar - PCBA",15-05-2024 19:00:00,26.987634,94.636574,NO2,7,21,13
India,Assam,Sivasagar,"Girls College, Sivasagar - PCBA",15-05-2024 19:00:00,26.987634,94.636574,CO,18,30,18
India,Bihar,Araria,"Kharahiya Basti, Araria - BSPCB",15-05-2024 19:00:00,26.146529,87.454184,NH3,6,7,6
India,Bihar,Arrah,"New DM Office, Arrah - BSPCB",15-05-2024 19:00:00,25.5626095,84.663264,SO2,2,70,18
India,Bihar,Aurangabad,"Gurdeo Nagar, Aurangabad - BSPCB",15-05-2024 19:00:00,24.75746,84.366208,NO2,4,6,5
India,Bihar,Bettiah,"Kamalnath Nagar, Bettiah - BSPCB",15-05-2024 19:00:00,26.80365,84.51954,PM2.5,55,280,144
India,Bihar,Bettiah,"Kamalnath Nagar, Bettiah - BSPCB",15-05-2024 19:00:00,26.80365,84.51954,PM10,129,379,218
India,Bihar,Bettiah,"Kamalnath Nagar, Bettiah - BSPCB",15-05-2024 19:00:00,26.80365,84.51954,NH3,3,20,10
India,Bihar,Bhagalpur,"DM Office_Kachari Chowk, Bhagalpur - BSPCB",15-05-2024 19:00:00,25.251013,86.989001,PM2.5,65,157,106
India,Bihar,Bhagalpur,"DM Office_Kachari Chowk, Bhagalpur - BSPCB",15-05-2024 19:00:00,25.251013,86.989001,CO,16,66,44
India,Bihar,Bhagalpur,"Mayaganj, Bhagalpur - BSPCB",15-05-2024 19:00:00,25.265194,87.012947,PM2.5,90,210,146
India,Bihar,Bihar Sharif,"D M Colony, Bihar Sharif - BSPCB",15-05-2024 19:00:00,25.204762,85.514960,SO2,2,15,8
India,Bihar,Buxar,"Charitra Van, Buxar - BSPCB (Formerly known as Central Jail)",15-05-2024 19:00:00,25.567520,83.966379,NO2,1,2,1
India,Bihar,Buxar,"Charitra Van, Buxar - BSPCB (Formerly known as Central Jail)",15-05-2024 19:00:00,25.567520,83.966379,OZONE,22,266,216
India,Bihar,Chhapra,"Darshan Nagar, Chhapra - BSPCB",15-05-2024 19:00:00,25.7808257,84.7446768,NH3,8,18,12
India,Bihar,Gaya,"Collectorate, Gaya - BSPCB",15-05-2024 19:00:00,24.7955,84.9994,CO,1,117,1
India,Bihar,Gaya,"Kareemganj, Gaya - BSPCB",15-05-2024 19:00:00,24.792403,84.992416,NH3,4,7,5
India,Bihar,Gaya,"SFTI Kusdihra, Gaya - BSPCB",15-05-2024 19:00:00,24.762518,84.982348,PM2.5,35,144,84
India,Bihar,Gaya,"SFTI Kusdihra, Gaya - BSPCB",15-05-2024 19:00:00,24.762518,84.982348,NH3,5,19,7
India,Bihar,Hajipur,"Industrial Area, Hajipur - BSPCB",15-05-2024 19:00:00,25.697189,85.245900,OZONE,NA,NA,NA
India,Bihar,Katihar,"Mirchaibari, Katihar - BSPCB",15-05-2024 19:00:00,25.560083,87.553265,NO2,16,28,20
India,Bihar,Katihar,"Mirchaibari, Katihar - BSPCB",15-05-2024 19:00:00,25.560083,87.553265,SO2,1,2,1
India,Bihar,Katihar,"Mirchaibari, Katihar - BSPCB",15-05-2024 19:00:00,25.560083,87.553265,OZONE,3,18,13
India,Bihar,Manguraha,"Forest Rest House, Manguraha - BSPCB",15-05-2024 19:00:00,27.308328,84.531742,NH3,2,4,3
India,Bihar,Motihari,"Gandak Colony, Motihari - BSPCB",15-05-2024 19:00:00,26.63086,84.90051,PM2.5,62,283,117
India,Bihar,Motihari,"Gandak Colony, Motihari - BSPCB",15-05-2024 19:00:00,26.63086,84.90051,CO,2,50,14
India,Bihar,Motihari,"Gandak Colony, Motihari - BSPCB",15-05-2024 19:00:00,26.63086,84.90051,OZONE,11,44,31
India,Bihar,Munger,"Town Hall, Munger - BSPCB",15-05-2024 19:00:00,25.376776,86.471523,PM2.5,NA,NA,NA
India,Bihar,Munger,"Town Hall, Munger - BSPCB",15-05-2024 19:00:00,25.376776,86.471523,PM10,NA,NA,NA
India,Bihar,Munger,"Town Hall, Munger - BSPCB",15-05-2024 19:00:00,25.376776,86.471523,NH3,2,3,3
India,Bihar,Muzaffarpur,"MIT-Daudpur Kothi, Muzaffarpur - BSPCB",15-05-2024 19:00:00,26.1403345,85.3650192,PM10,NA,NA,NA
India,Bihar,Muzaffarpur,"Muzaffarpur Collectorate, Muzaffarpur - BSPCB",15-05-2024 19:00:00,26.1209,85.3647,PM2.5,86,306,157
India,Bihar,Patna,"DRM Office Danapur, Patna - BSPCB",15-05-2024 19:00:00,25.586562,85.043586,PM10,113,157,130
India,Bihar,Patna,"Govt. High School Shikarpur, Patna - BSPCB",15-05-2024 19:00:00,25.592539,85.227158,PM10,87,148,125
India,Bihar,Patna,"Govt. High School Shikarpur, Patna - BSPCB",15-05-2024 19:00:00,25.592539,85.227158,SO2,8,12,10
India,Bihar,Patna,"IGSC Planetarium Complex, Patna - BSPCB",15-05-2024 19:00:00,25.610369,85.132568,PM2.5,88,307,238
India,Bihar,Patna,"IGSC Planetarium Complex, Patna - BSPCB",15-05-2024 19:00:00,25.610369,85.132568,CO,8,14,11
India,Bihar,Patna,"IGSC Planetarium Complex, Patna - BSPCB",15-05-2024 19:00:00,25.610369,85.132568,OZONE,28,175,46
India,Bihar,Patna,"Muradpur, Patna - BSPCB",15-05-2024 19:00:00,25.619651,85.147382,PM2.5,253,329,305
India,Bihar,Patna,"Muradpur, Patna - BSPCB",15-05-2024 19:00:00,25.619651,85.147382,NO2,28,105,51
India,Bihar,Rajgir,"Dangi Tola, Rajgir - BSPCB",15-05-2024 19:00:00,25.03280,85.41948,NO2,16,20,18
India,Bihar,Saharsa,"Police Line, Saharsa - BSPCB",15-05-2024 19:00:00,25.892357,86.590325,SO2,16,17,16
India,Bihar,Saharsa,"Police Line, Saharsa - BSPCB",15-05-2024 19:00:00,25.892357,86.590325,CO,54,55,55
India,Bihar,Samastipur,"DM Office_Kasipur, Samastipur - BSPCB",15-05-2024 19:00:00,25.859655,85.77944,SO2,NA,NA,NA
India,Bihar,Sasaram,"Dada Peer, Sasaram - BSPCB",15-05-2024 19:00:00,24.952822,84.002396,CO,54,88,86
India,Bihar,Siwan,"Chitragupta Nagar, Siwan - BSPCB",15-05-2024 19:00:00,26.2271665,84.3570427,PM2.5,117,371,217
India,Chandigarh,Chandigarh,"Sector 22, Chandigarh - CPCC",15-05-2024 19:00:00,30.735567,76.775714,PM10,58,244,144
India,Chandigarh,Chandigarh,"Sector 22, Chandigarh - CPCC",15-05-2024 19:00:00,30.735567,76.775714,SO2,10,57,27
India,Chandigarh,Chandigarh,"Sector-25, Chandigarh - CPCC",15-05-2024 19:00:00,30.751462,76.762879,SO2,7,21,13
India,Chandigarh,Chandigarh,"Sector-53, Chandigarh - CPCC",15-05-2024 19:00:00,30.719859,76.738637,PM10,91,255,179
India,Chandigarh,Chandigarh,"Sector-53, Chandigarh - CPCC",15-05-2024 19:00:00,30.719859,76.738637,NH3,3,6,4
India,Chhattisgarh,Bhilai,"Civic Center, Bhilai - Bhilai Steel Plant",15-05-2024 19:00:00,21.185571,81.343175,NO2,10,17,14
India,Chhattisgarh,Korba,"Rampur, Korba - CECB",15-05-2024 19:00:00,22.368195,82.746431,PM10,47,111,62
India,Chhattisgarh,Korba,"Urja Nagar, Korba - CECB",15-05-2024 19:00:00,22.348441,82.549611,PM2.5,15,83,39
India,Chhattisgarh,Korba,"Urja Nagar, Korba - CECB",15-05-2024 19:00:00,22.348441,82.549611,PM10,10,105,46
India,Chhattisgarh,Korba,"Urja Nagar, Korba - CECB",15-05-2024 19:00:00,22.348441,82.549611,NO2,60,74,70
India,Chhattisgarh,Korba,"Urja Nagar, Korba - CECB",15-05-2024 19:00:00,22.348441,82.549611,NH3,4,7,6
India,Chhattisgarh,Korba,"Urja Nagar, Korba - CECB",15-05-2024 19:00:00,22.348441,82.549611,CO,23,45,28
India,Chhattisgarh,Korba,"Urja Nagar, Korba - CECB",15-05-2024 19:00:00,22.348441,82.549611,OZONE,1,6,4
India,Chhattisgarh,Kunjemura,"OP Jindal School, Kunjemura - CECB",15-05-2024 19:00:00,22.126650,83.483212,NH3,1,5,2
India,Chhattisgarh,Milupara,"Govt. Higher Secondary School, Milupara - CECB",15-05-2024 19:00:00,22.1910172,83.5197009,NH3,1,1,1
India,Chhattisgarh,Raipur,"AIIMS, Raipur - CECB",15-05-2024 19:00:00,21.258815,81.578979,CO,30,44,37
India,Chhattisgarh,Raipur,"Krishak Nagar, Raipur - CECB",15-05-2024 19:00:00,21.237755,81.705301,PM2.5,26,60,40
India,Chhattisgarh,Raipur,"Krishak Nagar, Raipur - CECB",15-05-2024 19:00:00,21.237755,81.705301,NO2,16,16,16
India,Chhattisgarh,Raipur,"Krishak Nagar, Raipur - CECB",15-05-2024 19:00:00,21.237755,81.705301,SO2,10,77,27
India,Chhattisgarh,Raipur,"Siltara Phase-II, Raipur - CECB",15-05-2024 19:00:00,21.371751,81.664929,NH3,NA,NA,NA
India,Chhattisgarh,Tumidih,"OP Jindal Industrial Park, Tumidih - CECB",15-05-2024 19:00:00,22.06631475,83.33820077,CO,21,49,31
India,Delhi,Delhi,"Alipur, Delhi - DPCC",15-05-2024 19:00:00,28.815329,77.153010,PM10,107,476,285
India,Delhi,Delhi,"Alipur, Delhi - DPCC",15-05-2024 19:00:00,28.815329,77.153010,CO,30,105,41
India,Delhi,Delhi,"Anand Vihar, Delhi - DPCC",15-05-2024 19:00:00,28.647622,77.3158090,PM2.5,33,407,304
India,Delhi,Delhi,"Anand Vihar, Delhi - DPCC",15-05-2024 19:00:00,28.647622,77.3158090,NO2,72,170,122
India,Delhi,Delhi,"Anand Vihar, Delhi - DPCC",15-05-2024 19:00:00,28.647622,77.3158090,SO2,5,103,40
India,Delhi,Delhi,"Ashok Vihar, Delhi - DPCC",15-05-2024 19:00:00,28.695381,77.181665,PM2.5,60,378,214
India,Delhi,Delhi,"Ashok Vihar, Delhi - DPCC",15-05-2024 19:00:00,28.695381,77.181665,CO,3,110,24
India,Delhi,Delhi,"Aya Nagar, Delhi - IMD",15-05-2024 19:00:00,28.4706914,77.1099364,PM2.5,9,314,154
India,Delhi,Delhi,"Aya Nagar, Delhi - IMD",15-05-2024 19:00:00,28.4706914,77.1099364,PM10,79,228,154
India,Delhi,Delhi,"Burari Crossing, Delhi - IMD",15-05-2024 19:00:00,28.7256504,77.2011573,OZONE,7,158,120
India,Delhi,Delhi,"Chandni Chowk, Delhi - IITM",15-05-2024 19:00:00,28.656756,77.227234,PM10,NA,NA,NA
India,Delhi,Delhi,"Dwarka-Sector 8, Delhi - DPCC ",15-05-2024 19:00:00,28.5710274,77.0719006,CO,52,111,57
India,Delhi,Delhi,"IHBAS, Dilshad Garden, Delhi - CPCB",15-05-2024 19:00:00,28.6811736,77.3025234,CO,8,54,22
India,Delhi,Delhi,"ITO, Delhi - CPCB",15-05-2024 19:00:00,28.628624,77.241060,NO2,41,186,113
India,Delhi,Delhi,"Jahangirpuri, Delhi - DPCC",15-05-2024 19:00:00,28.732820,77.170633,PM2.5,97,486,311
India,Delhi,Delhi,"Jahangirpuri, Delhi - DPCC",15-05-2024 19:00:00,28.732820,77.170633,CO,37,114,51
India,Delhi,Delhi,"Jawaharlal Nehru Stadium, Delhi - DPCC",15-05-2024 19:00:00,28.580280,77.233829,SO2,11,75,38
India,Delhi,Delhi,"Jawaharlal Nehru Stadium, Delhi - DPCC",15-05-2024 19:00:00,28.580280,77.233829,OZONE,2,267,185
India,Delhi,Delhi,"Lodhi Road, Delhi - IMD",15-05-2024 19:00:00,28.5918245,77.2273074,PM10,115,212,148
India,Delhi,Delhi,"Lodhi Road, Delhi - IMD",15-05-2024 19:00:00,28.5918245,77.2273074,NO2,9,42,25
India,Delhi,Delhi,"Major Dhyan Chand National Stadium, Delhi - DPCC",15-05-2024 19:00:00,28.611281,77.237738,NO2,57,178,116
India,Delhi,Delhi,"Mundka, Delhi - DPCC",15-05-2024 19:00:00,28.684678,77.076574,PM2.5,68,500,282
India,Delhi,Delhi,"NSIT Dwarka, Delhi - CPCB",15-05-2024 19:00:00,28.60909,77.0325413,PM2.5,314,416,347
India,Delhi,Delhi,"NSIT Dwarka, Delhi - CPCB",15-05-2024 19:00:00,28.60909,77.0325413,SO2,1,54,19
India,Delhi,Delhi,"NSIT Dwarka, Delhi - CPCB",15-05-2024 19:00:00,28.60909,77.0325413,CO,22,77,48
India,Delhi,Delhi,"Najafgarh, Delhi - DPCC",15-05-2024 19:00:00,28.570173,76.933762,PM2.5,50,377,205
India,Delhi,Delhi,"Najafgarh, Delhi - DPCC",15-05-2024 19:00:00,28.570173,76.933762,NO2,15,125,56
India,Delhi,Delhi,"Najafgarh, Delhi - DPCC",15-05-2024 19:00:00,28.570173,76.933762,SO2,2,23,16
India,Delhi,Delhi,"Najafgarh, Delhi - DPCC",15-05-2024 19:00:00,28.570173,76.933762,CO,37,77,41
India,Delhi,Delhi,"Narela, Delhi - DPCC",15-05-2024 19:00:00,28.822836,77.101981,NH3,5,10,7
India,Delhi,Delhi,"Nehru Nagar, Delhi - DPCC",15-05-2024 19:00:00,28.567890,77.250515,NH3,5,11,7
India,Delhi,Delhi,"Nehru Nagar, Delhi - DPCC",15-05-2024 19:00:00,28.567890,77.250515,CO,44,71,51
India,Delhi,Delhi,"Nehru Nagar, Delhi - DPCC",15-05-2024 19:00:00,28.567890,77.250515,OZONE,1,251,216
India,Delhi,Delhi,"North Campus, DU, Delhi - IMD",15-05-2024 19:00:00,28.6573814,77.1585447,PM2.5,87,347,239
India,Delhi,Delhi,"North Campus, DU, Delhi - IMD",15-05-2024 19:00:00,28.6573814,77.1585447,PM10,113,344,198
India,Delhi,Delhi,"North Campus, DU, Delhi - IMD",15-05-2024 19:00:00,28.6573814,77.1585447,OZONE,1,84,67
India,Delhi,Delhi,"Okhla Phase-2, Delhi - DPCC",15-05-2024 19:00:00,28.530785,77.271255,PM2.5,85,348,217
India,Delhi,Delhi,"Okhla Phase-2, Delhi - DPCC",15-05-2024 19:00:00,28.530785,77.271255,SO2,11,22,17
India,Delhi,Delhi,"Patparganj, Delhi - DPCC",15-05-2024 19:00:00,28.623763,77.287209,PM10,137,491,268
India,Delhi,Delhi,"Patparganj, Delhi - DPCC",15-05-2024 19:00:00,28.623763,77.287209,NH3,7,9,8
India,Delhi,Delhi,"Patparganj, Delhi - DPCC",15-05-2024 19:00:00,28.623763,77.287209,SO2,5,9,7
India,Delhi,Delhi,"Punjabi Bagh, Delhi - DPCC",15-05-2024 19:00:00,28.674045,77.131023,PM2.5,70,429,257
India,Delhi,Delhi,"Punjabi Bagh, Delhi - DPCC",15-05-2024 19:00:00,28.674045,77.131023,NO2,49,105,72
India,Delhi,Delhi,"Pusa, Delhi - DPCC",15-05-2024 19:00:00,28.639652,77.146275,NH3,4,8,7
India,Delhi,Delhi,"Pusa, Delhi - DPCC",15-05-2024 19:00:00,28.639652,77.146275,SO2,10,54,24
India,Delhi,Delhi,"R K Puram, Delhi - DPCC",15-05-2024 19:00:00,28.563262,77.186937,NO2,8,92,57
India,Delhi,Delhi,"R K Puram, Delhi - DPCC",15-05-2024 19:00:00,28.563262,77.186937,SO2,7,41,26
India,Delhi,Delhi,"Rohini, Delhi - DPCC",15-05-2024 19:00:00,28.732528,77.119920,OZONE,5,250,192
India,Delhi,Delhi,"Shadipur, Delhi - CPCB",15-05-2024 19:00:00,28.6514781,77.1473105,PM2.5,180,428,323
India,Delhi,Delhi,"Shadipur, Delhi - CPCB",15-05-2024 19:00:00,28.6514781,77.1473105,CO,38,90,54
India,Delhi,Delhi,"Sirifort, Delhi - CPCB",15-05-2024 19:00:00,28.5504249,77.2159377,NO2,NA,NA,NA
India,Delhi,Delhi,"Sri Aurobindo Marg, Delhi - DPCC",15-05-2024 19:00:00,28.531346,77.190156,CO,2,74,16
India,Delhi,Delhi,"Wazirpur, Delhi - DPCC",15-05-2024 19:00:00,28.699793,77.165453,CO,68,128,76
India,Gujarat,Ahmedabad,"Chandkheda, Ahmedabad - IITM",15-05-2024 19:00:00,23.107969,72.574648,PM2.5,77,309,161
India,Gujarat,Ahmedabad,"Chandkheda, Ahmedabad - IITM",15-05-2024 19:00:00,23.107969,72.574648,PM10,80,184,123
India,Gujarat,Ahmedabad,"Chandkheda, Ahmedabad - IITM",15-05-2024 19:00:00,23.107969,72.574648,NH3,11,16,14
India,Gujarat,Ahmedabad,"Chandkheda, Ahmedabad - IITM",15-05-2024 19:00:00,23.107969,72.574648,CO,7,121,28
India,Gujarat,Ahmedabad,"Gyaspur, Ahmedabad - IITM",15-05-2024 19:00:00,22.977134,72.553024,PM2.5,48,431,141
India,Gujarat,Ahmedabad,"Gyaspur, Ahmedabad - IITM",15-05-2024 19:00:00,22.977134,72.553024,PM10,51,449,129
India,Gujarat,Ahmedabad,"Gyaspur, Ahmedabad - IITM",15-05-2024 19:00:00,22.977134,72.553024,CO,44,101,49
India,Gujarat,Ahmedabad,"Gyaspur, Ahmedabad - IITM",15-05-2024 19:00:00,22.977134,72.553024,OZONE,15,176,149
India,Gujarat,Ahmedabad,"Maninagar, Ahmedabad - GPCB",15-05-2024 19:00:00,23.002657,72.591912,PM2.5,32,119,84
India,Gujarat,Ahmedabad,"Maninagar, Ahmedabad - GPCB",15-05-2024 19:00:00,23.002657,72.591912,CO,58,107,89
India,Gujarat,Ahmedabad,"Raikhad, Ahmedabad - IITM",15-05-2024 19:00:00,23.020509,72.579261,NO2,16,55,32
India,Gujarat,Ahmedabad,"Raikhad, Ahmedabad - IITM",15-05-2024 19:00:00,23.020509,72.579261,SO2,14,54,26
India,Gujarat,Ahmedabad,"Rakhial, Ahmedabad - IITM",15-05-2024 19:00:00,23.016834,72.625775,NO2,20,293,142
India,Gujarat,Ahmedabad,"SVPI Airport Hansol, Ahmedabad - IITM",15-05-2024 19:00:00,23.076793,72.627874,NH3,5,6,5
India,Gujarat,Ahmedabad,"Sardar Vallabhbhai Patel Stadium, Ahmedabad - IITM",15-05-2024 19:00:00,23.043070,72.562968,NO2,59,69,67
India,Gujarat,Ankleshwar,"GIDC, Ankleshwar - GPCB",15-05-2024 19:00:00,21.613267,73.010555,SO2,NA,NA,NA
India,Gujarat,Ankleshwar,"GIDC, Ankleshwar - GPCB",15-05-2024 19:00:00,21.613267,73.010555,OZONE,41,46,44
India,Gujarat,Gandhinagar,"Sector-10, Gandhinagar - GPCB",15-05-2024 19:00:00,23.221714,72.654328,CO,24,97,37
India,Gujarat,Nandesari,"GIDC, Nandesari - Nandesari Ind. Association",15-05-2024 19:00:00,22.410802,73.097923,PM2.5,42,354,130
India,Gujarat,Surat,"Science Center, Surat - SMC",15-05-2024 19:00:00,21.170046,72.795405,PM10,14,54,31
India,Gujarat,Vapi,"Phase-1 GIDC, Vapi - GPCB",15-05-2024 19:00:00,20.362421,72.918013,NO2,NA,NA,NA
India,Gujarat,Vapi,"Phase-1 GIDC, Vapi - GPCB",15-05-2024 19:00:00,20.362421,72.918013,SO2,NA,NA,NA
India,Gujarat,Vatva,"Phase-4 GIDC, Vatva - GPCB",15-05-2024 19:00:00,22.969611,72.643500,PM10,63,147,103
India,Haryana,Ballabgarh,"Nathu Colony, Ballabgarh - HSPCB",15-05-2024 19:00:00,28.3419248,77.319699,NO2,18,19,19
India,Haryana,Ballabgarh,"Nathu Colony, Ballabgarh - HSPCB",15-05-2024 19:00:00,28.3419248,77.319699,NH3,2,3,2
India,Haryana,Bhiwani,"H.B. Colony, Bhiwani - HSPCB",15-05-2024 19:00:00,28.806223,76.141105,NO2,6,11,9
India,Haryana,Bhiwani,"H.B. Colony, Bhiwani - HSPCB",15-05-2024 19:00:00,28.806223,76.141105,NH3,6,6,6
India,Haryana,Bhiwani,"H.B. Colony, Bhiwani - HSPCB",15-05-2024 19:00:00,28.806223,76.141105,OZONE,8,66,28
India,Haryana,Charkhi Dadri,"Mini Secretariat, Charkhi Dadri - HSPCB",15-05-2024 19:00:00,28.593883,76.270653,PM2.5,79,500,217
India,Haryana,Charkhi Dadri,"Mini Secretariat, Charkhi Dadri - HSPCB",15-05-2024 19:00:00,28.593883,76.270653,NO2,15,23,18
India,Haryana,Charkhi Dadri,"Mini Secretariat, Charkhi Dadri - HSPCB",15-05-2024 19:00:00,28.593883,76.270653,OZONE,13,18,16
India,Haryana,Dharuhera,"Municipal Corporation Office, Dharuhera -  HSPCB",15-05-2024 19:00:00,28.206800,76.799700,PM10,144,209,175
India,Haryana,Faridabad,"New Industrial Town, Faridabad - HSPCB",15-05-2024 19:00:00,28.39072,77.30059,PM10,3,448,136
India,Haryana,Faridabad,"New Industrial Town, Faridabad - HSPCB",15-05-2024 19:00:00,28.39072,77.30059,NO2,33,37,35
India,Haryana,Faridabad,"Sector 11, Faridabad - HSPCB",15-05-2024 19:00:00,28.376058,77.315741,PM10,134,480,312
India,Haryana,Faridabad,"Sector 11, Faridabad - HSPCB",15-05-2024 19:00:00,28.376058,77.315741,OZONE,6,34,28
India,Haryana,Faridabad,"Sector 30, Faridabad - HSPCB",15-05-2024 19:00:00,28.4417,77.3217,NO2,30,34,32
India,Haryana,Fatehabad,"Huda Sector, Fatehabad - HSPCB",15-05-2024 19:00:00,29.503664,75.467934,PM2.5,NA,NA,NA
India,Haryana,Gurugram,"NISE Gwal Pahari, Gurugram - IMD",15-05-2024 19:00:00,28.422681,77.148944,CO,NA,NA,NA
India,Haryana,Gurugram,"NISE Gwal Pahari, Gurugram - IMD",15-05-2024 19:00:00,28.422681,77.148944,OZONE,6,119,87
India,Haryana,Gurugram,"Sector-51, Gurugram - HSPCB",15-05-2024 19:00:00,28.4227,77.0667,SO2,3,5,3
India,Haryana,Gurugram,"Teri Gram, Gurugram - HSPCB",15-05-2024 19:00:00,28.4275,77.1465,NO2,23,67,42
India,Haryana,Gurugram,"Teri Gram, Gurugram - HSPCB",15-05-2024 19:00:00,28.4275,77.1465,SO2,5,8,6
India,Haryana,Gurugram,"Vikas Sadan, Gurugram - HSPCB",15-05-2024 19:00:00,28.4501238,77.0263051,PM2.5,87,334,228
India,Haryana,Gurugram,"Vikas Sadan, Gurugram - HSPCB",15-05-2024 19:00:00,28.4501238,77.0263051,CO,52,149,116
India,Haryana,Gurugram,"Vikas Sadan, Gurugram - HSPCB",15-05-2024 19:00:00,28.4501238,77.0263051,OZONE,8,69,51
India,Haryana,Hisar,"Urban Estate-II, Hisar - HSPCB",15-05-2024 19:00:00,29.140560,75.744941,NO2,21,31,24
India,Haryana,Hisar,"Urban Estate-II, Hisar - HSPCB",15-05-2024 19:00:00,29.140560,75.744941,NH3,8,12,10
India,Haryana,Hisar,"Urban Estate-II, Hisar - HSPCB",15-05-2024 19:00:00,29.140560,75.744941,SO2,8,93,25
India,Haryana,Jind,"Police Lines, Jind - HSPCB",15-05-2024 19:00:00,29.307814,76.337619,NH3,NA,NA,NA
India,Haryana,Jind,"Police Lines, Jind - HSPCB",15-05-2024 19:00:00,29.307814,76.337619,SO2,6,109,26
India,Haryana,Jind,"Police Lines, Jind - HSPCB",15-05-2024 19:00:00,29.307814,76.337619,OZONE,11,48,42
India,Haryana,Kaithal,"Rishi Nagar, Kaithal - HSPCB",15-05-2024 19:00:00,29.8006,76.4155,PM10,103,307,157
India,Haryana,Kaithal,"Rishi Nagar, Kaithal - HSPCB",15-05-2024 19:00:00,29.8006,76.4155,NO2,24,26,25
India,Haryana,Karnal,"Sector-12, Karnal - HSPCB",15-05-2024 19:00:00,29.695300,77.002700,NO2,7,12,10
India,Haryana,Karnal,"Sector-12, Karnal - HSPCB",15-05-2024 19:00:00,29.695300,77.002700,NH3,10,13,11
India,Haryana,Karnal,"Sector-12, Karnal - HSPCB",15-05-2024 19:00:00,29.695300,77.002700,CO,31,92,42
India,Haryana,Kurukshetra,"Sector-7, Kurukshetra - HSPCB",15-05-2024 19:00:00,29.966942,76.875879,PM10,97,362,169
India,Haryana,Kurukshetra,"Sector-7, Kurukshetra - HSPCB",15-05-2024 19:00:00,29.966942,76.875879,OZONE,17,131,105
India,Haryana,Mandikhera,"General Hospital, Mandikhera - HSPCB",15-05-2024 19:00:00,27.9002,76.9938,PM2.5,23,96,50
India,Haryana,Mandikhera,"General Hospital, Mandikhera - HSPCB",15-05-2024 19:00:00,27.9002,76.9938,PM10,60,147,106
India,Haryana,Manesar,"Sector-2 IMT, Manesar - HSPCB",15-05-2024 19:00:00,28.360699,76.936090,OZONE,4,166,135
India,Haryana,Narnaul,"Shastri Nagar, Narnaul - HSPCB",15-05-2024 19:00:00,28.060249,76.113115,PM2.5,83,186,125
India,Haryana,Narnaul,"Shastri Nagar, Narnaul - HSPCB",15-05-2024 19:00:00,28.060249,76.113115,PM10,98,146,121
India,Haryana,Narnaul,"Shastri Nagar, Narnaul - HSPCB",15-05-2024 19:00:00,28.060249,76.113115,NH3,5,27,15
India,Haryana,Narnaul,"Shastri Nagar, Narnaul - HSPCB",15-05-2024 19:00:00,28.060249,76.113115,SO2,13,13,13
India,Haryana,Palwal,"Shyam Nagar, Palwal - HSPCB",15-05-2024 19:00:00,28.1485564,77.3320667,PM10,84,196,147
India,Haryana,Palwal,"Shyam Nagar, Palwal - HSPCB",15-05-2024 19:00:00,28.1485564,77.3320667,SO2,3,18,10
India,Haryana,Palwal,"Shyam Nagar, Palwal - HSPCB",15-05-2024 19:00:00,28.1485564,77.3320667,OZONE,7,82,42
India,Haryana,Panipat,"Sector-18, Panipat - HSPCB",15-05-2024 19:00:00,29.432304,76.972765,PM10,78,87,82
India,Haryana,Panipat,"Sector-18, Panipat - HSPCB",15-05-2024 19:00:00,29.432304,76.972765,NO2,31,32,31
India,Haryana,Panipat,"Sector-18, Panipat - HSPCB",15-05-2024 19:00:00,29.432304,76.972765,NH3,2,3,2
India,Haryana,Panipat,"Sector-18, Panipat - HSPCB",15-05-2024 19:00:00,29.432304,76.972765,OZONE,29,30,30
India,Haryana,Sirsa,"F-Block, Sirsa - HSPCB",15-05-2024 19:00:00,29.536400,75.015800,PM10,96,130,112
India,Haryana,Sonipat,"Murthal, Sonipat - HSPCB",15-05-2024 19:00:00,29.027200,77.062100,PM2.5,60,201,128
India,Haryana,Sonipat,"Murthal, Sonipat - HSPCB",15-05-2024 19:00:00,29.027200,77.062100,CO,2,52,22
India,Himachal Pradesh,Baddi,"HIMUDA Complex Phase-1, Baddi - HPPCB",15-05-2024 19:00:00,30.943887,76.801991,NH3,3,5,4
India,Jharkhand,Dhanbad,"Kalakusuma, Dhanbad - DMC",15-05-2024 19:00:00,23.811548,86.481238,CO,127,134,131
India,Jharkhand,Dhanbad,"Sardar Patel Nagar, Dhanbad - JSPCB",15-05-2024 19:00:00,23.80569,86.44268,OZONE,21,74,59
India,Karnataka,Bagalkot,"Vidayagiri, Bagalkot - KSPCB",15-05-2024 19:00:00,16.172806,75.659694,NH3,1,2,1
India,Karnataka,Belgaum,"Ramteerth Nagar, Belgaum - KSPCB",15-05-2024 19:00:00,15.888653,74.541751,PM2.5,NA,NA,NA
India,Karnataka,Bengaluru,"Bapuji Nagar, Bengaluru - KSPCB",15-05-2024 19:00:00,12.951913,77.539784,NO2,10,11,11
India,Karnataka,Bengaluru,"Bapuji Nagar, Bengaluru - KSPCB",15-05-2024 19:00:00,12.951913,77.539784,NH3,1,1,1
India,Karnataka,Bengaluru,"Hebbal, Bengaluru - KSPCB",15-05-2024 19:00:00,13.029152,77.585901,SO2,16,23,20
India,Karnataka,Bengaluru,"Hebbal, Bengaluru - KSPCB",15-05-2024 19:00:00,13.029152,77.585901,CO,7,43,23
India,Karnataka,Bengaluru,"Hombegowda Nagar, Bengaluru - KSPCB",15-05-2024 19:00:00,12.938539,77.590100,SO2,3,5,4
India,Karnataka,Bengaluru,"Jayanagar 5th Block, Bengaluru - KSPCB",15-05-2024 19:00:00,12.920984,77.584908,PM2.5,38,93,59
India,Karnataka,Bengaluru,"Jayanagar 5th Block, Bengaluru - KSPCB",15-05-2024 19:00:00,12.920984,77.584908,PM10,44,118,72
India,Karnataka,Bengaluru,"Kasturi Nagar, Bengaluru - KSPCB",15-05-2024 19:00:00,13.003872,77.664217,SO2,9,10,10
India,Karnataka,Bengaluru,"Kasturi Nagar, Bengaluru - KSPCB",15-05-2024 19:00:00,13.003872,77.664217,OZONE,12,71,64
India,Karnataka,Bengaluru,"Sanegurava Halli, Bengaluru - KSPCB",15-05-2024 19:00:00,12.990328,77.5431385,NO2,22,37,26
India,Karnataka,Bengaluru,"Shivapura_Peenya, Bengaluru - KSPCB",15-05-2024 19:00:00,13.0246342,77.5080115,SO2,3,15,7
India,Karnataka,Bengaluru,"Silk Board, Bengaluru - KSPCB",15-05-2024 19:00:00,12.917348,77.622813,PM2.5,30,70,56
India,Karnataka,Bidar,"Naubad, Bidar - KSPCB",15-05-2024 19:00:00,17.930306,77.482194,CO,60,108,81
India,Karnataka,Bidar,"Naubad, Bidar - KSPCB",15-05-2024 19:00:00,17.930306,77.482194,OZONE,17,44,39
India,Karnataka,Chamarajanagar,"Urban, Chamarajanagar - KSPCB",15-05-2024 19:00:00,11.55358,76.55521,NO2,24,35,29
India,Karnataka,Gadag,"Panchal Nagar, Gadag - KSPCB",15-05-2024 19:00:00,15.411456,75.638133,PM2.5,NA,NA,NA
India,Karnataka,Gadag,"Panchal Nagar, Gadag - KSPCB",15-05-2024 19:00:00,15.411456,75.638133,NO2,NA,NA,NA
India,Karnataka,Hassan,"B.Katihalli, Hassan - KSPCB",15-05-2024 19:00:00,13.008556,76.125258,PM10,22,114,58
India,Karnataka,Hassan,"B.Katihalli, Hassan - KSPCB",15-05-2024 19:00:00,13.008556,76.125258,NO2,9,15,12
India,Karnataka,Hubballi,"Deshpande Nagar, Hubballi - KSPCB",15-05-2024 19:00:00,15.351773,75.140726,NO2,NA,NA,NA
India,Karnataka,Kalaburagi,"Lal Bahadur Shastri Nagar, Kalaburagi - KSPCB",15-05-2024 19:00:00,17.321993,76.822628,PM10,NA,NA,NA
India,Karnataka,Kalaburagi,"Mahatma Basaveswar Colony, Kalaburgi - KSPCB",15-05-2024 19:00:00,17.336318,76.847397,PM2.5,NA,NA,NA
India,Karnataka,Kalaburagi,"Mahatma Basaveswar Colony, Kalaburgi - KSPCB",15-05-2024 19:00:00,17.336318,76.847397,OZONE,21,33,26
India,Karnataka,Kolar,"Tamaka Ind. Area, Kolar - KSPCB",15-05-2024 19:00:00,13.1276288,78.1570122,CO,4,20,18
India,Karnataka,Koppal,"Diwator Nagar, Koppal - KSPCB",15-05-2024 19:00:00,15.347630,76.181767,PM2.5,NA,NA,NA
India,Karnataka,Mangalore,"Kadri, Mangalore - KSPCB",15-05-2024 19:00:00,12.889250,74.853000,NH3,1,2,2
India,Karnataka,Mysuru,"Hebbal 1st Stage, Mysuru - KSPCB",15-05-2024 19:00:00,12.21041,76.37376,OZONE,26,75,51
India,Karnataka,Raichur,"Haji Colony, Raichur - KSPCB",15-05-2024 19:00:00,16.208139,77.348417,PM2.5,10,30,19
India,Karnataka,Raichur,"Haji Colony, Raichur - KSPCB",15-05-2024 19:00:00,16.208139,77.348417,NO2,19,46,32
India,Karnataka,Raichur,"Haji Colony, Raichur - KSPCB",15-05-2024 19:00:00,16.208139,77.348417,NH3,1,3,2
India,Karnataka,Ramanagara,"Vijay Nagar, Ramanagara - KSPCB",15-05-2024 19:00:00,12.733409,77.298051,PM10,22,56,36
India,Karnataka,Shivamogga,"Vinoba Nagara, Shivamogga - KSPCB",15-05-2024 19:00:00,13.940000,75.555917,NO2,11,14,13
India,Karnataka,Shivamogga,"Vinoba Nagara, Shivamogga - KSPCB",15-05-2024 19:00:00,13.940000,75.555917,OZONE,3,81,60
India,Karnataka,Udupi,"Brahmagiri, Udupi - KSPCB",15-05-2024 19:00:00,13.34194444,74.74694444,PM2.5,14,54,24
India,Karnataka,Udupi,"Brahmagiri, Udupi - KSPCB",15-05-2024 19:00:00,13.34194444,74.74694444,SO2,10,12,11
India,Karnataka,Vijayapura,"Ibrahimpur, Vijayapura - KSPCB",15-05-2024 19:00:00,16.802639,75.722694,PM2.5,26,33,30
India,Karnataka,Yadgir,"Collector Office, Yadgir - KSPCB",15-05-2024 19:00:00,16.7602,77.1428,PM2.5,NA,NA,NA
India,Karnataka,Yadgir,"Collector Office, Yadgir - KSPCB",15-05-2024 19:00:00,16.7602,77.1428,PM10,NA,NA,NA
India,Karnataka,Yadgir,"Collector Office, Yadgir - KSPCB",15-05-2024 19:00:00,16.7602,77.1428,SO2,NA,NA,NA
India,Kerala,Kollam,"Polayathode, Kollam - Kerala PCB",15-05-2024 19:00:00,8.8787,76.6073,PM10,38,94,57
India,Kerala,Kollam,"Polayathode, Kollam - Kerala PCB",15-05-2024 19:00:00,8.8787,76.6073,NH3,1,1,1
India,Kerala,Thiruvananthapuram,"Kariavattom, Thiruvananthapuram - Kerala PCB",15-05-2024 19:00:00,8.563700,76.886500,OZONE,27,31,30
India,Kerala,Thiruvananthapuram,"Plammoodu, Thiruvananthapuram - Kerala PCB",15-05-2024 19:00:00,8.5149093,76.9435879,PM2.5,2,19,9
India,Kerala,Thiruvananthapuram,"Plammoodu, Thiruvananthapuram - Kerala PCB",15-05-2024 19:00:00,8.5149093,76.9435879,NH3,1,1,1
India,Kerala,Thrissur,"Corporation Ground, Thrissur - Kerala PCB",15-05-2024 19:00:00,10.532400,76.215900,OZONE,27,33,30
India,Madhya Pradesh,Bhopal,"Paryavaran Parisar, Bhopal - MPPCB",15-05-2024 19:00:00,23.210494,77.425409,PM2.5,22,60,34
India,Madhya Pradesh,Bhopal,"Paryavaran Parisar, Bhopal - MPPCB",15-05-2024 19:00:00,23.210494,77.425409,CO,14,48,27
India,Madhya Pradesh,Bhopal,"T T Nagar, Bhopal - MPPCB",15-05-2024 19:00:00,23.233584,77.400574,PM2.5,10,52,27
India,Madhya Pradesh,Bhopal,"T T Nagar, Bhopal - MPPCB",15-05-2024 19:00:00,23.233584,77.400574,NH3,1,5,2
India,Madhya Pradesh,Bhopal,"T T Nagar, Bhopal - MPPCB",15-05-2024 19:00:00,23.233584,77.400574,CO,5,91,36
India,Madhya Pradesh,Dewas,"Bhopal Chauraha, Dewas - MPPCB",15-05-2024 19:00:00,22.9682591,76.064118,NO2,11,16,13
India,Madhya Pradesh,Gwalior,"City Center, Gwalior - MPPCB",15-05-2024 19:00:00,26.203442,78.193251,NH3,3,4,3
India,Madhya Pradesh,Gwalior,"City Center, Gwalior - MPPCB",15-05-2024 19:00:00,26.203442,78.193251,SO2,1,35,17
India,Madhya Pradesh,Gwalior,"City Center, Gwalior - MPPCB",15-05-2024 19:00:00,26.203442,78.193251,CO,34,85,47
India,Madhya Pradesh,Gwalior,"Maharaj Bada, Gwalior - MPPCB",15-05-2024 19:00:00,26.200388,78.147714,PM2.5,2,27,14
India,Madhya Pradesh,Gwalior,"Maharaj Bada, Gwalior - MPPCB",15-05-2024 19:00:00,26.200388,78.147714,PM10,16,145,52
India,Madhya Pradesh,Gwalior,"Maharaj Bada, Gwalior - MPPCB",15-05-2024 19:00:00,26.200388,78.147714,SO2,8,25,12
India,Madhya Pradesh,Gwalior,"Phool Bagh, Gwalior - Mondelez Ind. Food",15-05-2024 19:00:00,26.210536,78.171,NO2,4,5,4
India,Madhya Pradesh,Indore,"Chhoti Gwaltoli, Indore - MPPCB",15-05-2024 19:00:00,22.4310,75.5213,NO2,35,78,56
India,Madhya Pradesh,Indore,"Maguda Nagar, Indore - IMC",15-05-2024 19:00:00,22.7524,75.8872,PM10,19,43,28
India,Madhya Pradesh,Indore,"Maguda Nagar, Indore - IMC",15-05-2024 19:00:00,22.7524,75.8872,NO2,4,6,5
India,Madhya Pradesh,Indore,"Maguda Nagar, Indore - IMC",15-05-2024 19:00:00,22.7524,75.8872,SO2,30,36,33
India,Madhya Pradesh,Indore,"Regional Park, Indore - IMC",15-05-2024 19:00:00,22.6780,75.8559,NH3,1,3,2
India,Madhya Pradesh,Indore,"Regional Park, Indore - IMC",15-05-2024 19:00:00,22.6780,75.8559,OZONE,11,34,22
India,Madhya Pradesh,Jabalpur,"Govindh Bhavan Colony, Jabalpur - JMC",15-05-2024 19:00:00,23.163174,79.973061,PM2.5,25,75,43
India,Madhya Pradesh,Jabalpur,"Govindh Bhavan Colony, Jabalpur - JMC",15-05-2024 19:00:00,23.163174,79.973061,SO2,17,31,24
India,Madhya Pradesh,Jabalpur,"Gupteshwar, Jabalpur - JMC",15-05-2024 19:00:00,23.142888,79.916147,PM10,20,89,52
India,Madhya Pradesh,Jabalpur,"Marhatal, Jabalpur - MPPCB",15-05-2024 19:00:00,23.168606,79.932247,PM10,37,116,69
India,Madhya Pradesh,Jabalpur,"Marhatal, Jabalpur - MPPCB",15-05-2024 19:00:00,23.168606,79.932247,NH3,3,4,3
India,Madhya Pradesh,Jabalpur,"Marhatal, Jabalpur - MPPCB",15-05-2024 19:00:00,23.168606,79.932247,SO2,6,37,13
India,Madhya Pradesh,Jabalpur,"Suhagi, Jabalpur - JMC",15-05-2024 19:00:00,23.218135,79.957770,NO2,39,44,41
India,Madhya Pradesh,Jabalpur,"Suhagi, Jabalpur - JMC",15-05-2024 19:00:00,23.218135,79.957770,NH3,2,4,4
India,Madhya Pradesh,Jabalpur,"Suhagi, Jabalpur - JMC",15-05-2024 19:00:00,23.218135,79.957770,SO2,14,16,15
India,Madhya Pradesh,Katni,"Gole Bazar, Katni - MPPCB",15-05-2024 19:00:00,23.50016,80.23284,CO,10,51,17
India,Madhya Pradesh,Maihar,"Sahilara, Maihar - KJS Cements",15-05-2024 19:00:00,24.2613009,80.7231783,NO2,NA,NA,NA
India,Madhya Pradesh,Maihar,"Sahilara, Maihar - KJS Cements",15-05-2024 19:00:00,24.2613009,80.7231783,SO2,NA,NA,NA
India,Madhya Pradesh,Mandideep,"Sector-D Industrial Area, Mandideep - MPPCB",15-05-2024 19:00:00,23.108440,77.511428,PM10,29,427,126
India,Madhya Pradesh,Pithampur,"Sector-2 Industrial Area, Pithampur - MPPCB",15-05-2024 19:00:00,22.624758,75.675238,OZONE,27,70,62
India,Madhya Pradesh,Sagar,"Civil Lines, Sagar - MPPCB",15-05-2024 19:00:00,23.838586,78.759431,NO2,9,24,14
India,Madhya Pradesh,Sagar,"Deen Dayal Nagar, Sagar - MPPCB",15-05-2024 19:00:00,23.8640158,78.80289321,CO,54,86,76
India,Madhya Pradesh,Satna,"Bandhavgar Colony, Satna - Birla Cement",15-05-2024 19:00:00,24.58434363,80.8549414,PM2.5,5,21,10
India,Madhya Pradesh,Ujjain,"Mahakaleshwar Temple, Ujjain - MPPCB",15-05-2024 19:00:00,23.182719 ,75.768218 ,NH3,4,6,5
India,Madhya Pradesh,Ujjain,"Mahakaleshwar Temple, Ujjain - MPPCB",15-05-2024 19:00:00,23.182719 ,75.768218 ,CO,12,31,18
India,Maharashtra,Ahmednagar,"Tarakpur, Ahmednagar - MPCB",15-05-2024 19:00:00,19.10122,74.73339,PM2.5,39,114,64
India,Maharashtra,Akola,"Ramdaspeth, Akola - MPCB",15-05-2024 19:00:00,20.719516,77.000253,NH3,3,8,6
India,Maharashtra,Akola,"Ramdaspeth, Akola - MPCB",15-05-2024 19:00:00,20.719516,77.000253,CO,20,36,28
India,Maharashtra,Akola,"Ramdaspeth, Akola - MPCB",15-05-2024 19:00:00,20.719516,77.000253,OZONE,37,116,89
India,Maharashtra,Amravati,"Shivneri Colony, Amravati - MPCB",15-05-2024 19:00:00,20.9402359,77.7895248,SO2,1,4,1
India,Maharashtra,Amravati,"Shri Shivaji Science College, Amaravati - MPCB",15-05-2024 19:00:00,20.939198,77.765701,NH3,1,2,1
India,Maharashtra,Aurangabad,"MIDC Chilkalthana, Aurangabad - MPCB",15-05-2024 19:00:00,19.875620,75.387310,CO,NA,NA,NA
India,Maharashtra,Aurangabad,"More Chowk Waluj, Aurangabad - MPCB",15-05-2024 19:00:00,19.8389439,75.244448,PM10,32,77,52
India,Maharashtra,Aurangabad,"More Chowk Waluj, Aurangabad - MPCB",15-05-2024 19:00:00,19.8389439,75.244448,NO2,38,47,44
India,Maharashtra,Aurangabad,"Rachnakar Colony, Aurangabad - MPCB",15-05-2024 19:00:00,19.863756,75.321188,PM2.5,53,87,73
India,Maharashtra,Aurangabad,"Rachnakar Colony, Aurangabad - MPCB",15-05-2024 19:00:00,19.863756,75.321188,NO2,10,63,28
India,Maharashtra,Badlapur,"Katrap, Badlapur - MPCB",15-05-2024 19:00:00,19.16485,73.23409,PM10,52,82,65
India,Maharashtra,Badlapur,"Katrap, Badlapur - MPCB",15-05-2024 19:00:00,19.16485,73.23409,NH3,1,4,3
India,Maharashtra,Badlapur,"Katrap, Badlapur - MPCB",15-05-2024 19:00:00,19.16485,73.23409,SO2,5,16,12
India,Maharashtra,Badlapur,"Katrap, Badlapur - MPCB",15-05-2024 19:00:00,19.16485,73.23409,CO,22,57,29
India,Maharashtra,Belapur,"CBD Belapur, Belapur - MPCB",15-05-2024 19:00:00,19.0243902,73.0406721,NO2,35,102,70
India,Maharashtra,Belapur,"CBD Belapur, Belapur - MPCB",15-05-2024 19:00:00,19.0243902,73.0406721,CO,20,38,28
India,Maharashtra,Bhiwandi,"Gokul Nagar, Bhiwandi - MPCB",15-05-2024 19:00:00,19.309073,73.057223,PM10,61,153,113
India,Maharashtra,Boisar,"Khaira, Boisar - MPCB",15-05-2024 19:00:00,19.786089,72.757971,PM10,70,137,94
India,Maharashtra,Chandrapur,"MIDC Khutala, Chandrapur - MPCB",15-05-2024 19:00:00,19.9775302,79.2337086,NO2,12,59,24
India,Maharashtra,Chandrapur,"MIDC Khutala, Chandrapur - MPCB",15-05-2024 19:00:00,19.9775302,79.2337086,SO2,NA,NA,NA
India,Maharashtra,Jalgaon,"Prabhat Colony, Jalgaon - MPCB",15-05-2024 19:00:00,21.001264,75.565602,NH3,1,23,13
India,Maharashtra,Jalna,"Old MIDC, Jalna - MPCB",15-05-2024 19:00:00,19.854616,75.905894,NH3,NA,NA,NA
India,Maharashtra,Jalna,"Old MIDC, Jalna - MPCB",15-05-2024 19:00:00,19.854616,75.905894,CO,23,42,25
India,Maharashtra,Kalyan,"Khadakpada, Kalyan - MPCB",15-05-2024 19:00:00,19.25292,73.142019,NH3,1,1,1
India,Maharashtra,Kalyan,"Khadakpada, Kalyan - MPCB",15-05-2024 19:00:00,19.25292,73.142019,OZONE,10,27,21
India,Maharashtra,Kolhapur,"Shivaji University, Kolhapur - MPCB",15-05-2024 19:00:00,16.6870449,74.2505872,PM2.5,60,136,84
India,Maharashtra,Kolhapur,"Shivaji University, Kolhapur - MPCB",15-05-2024 19:00:00,16.6870449,74.2505872,CO,52,80,71
India,Maharashtra,Kolhapur,"Sinchan Bhavan, Kolhapur - MPCB",15-05-2024 19:00:00,16.7143745,74.2426398,PM2.5,23,54,35
India,Maharashtra,Kolhapur,"Sinchan Bhavan, Kolhapur - MPCB",15-05-2024 19:00:00,16.7143745,74.2426398,SO2,NA,NA,NA
India,Maharashtra,Latur,"Sawe Wadi, Latur - MPCB",15-05-2024 19:00:00,18.39963,76.57452,PM10,42,74,57
India,Maharashtra,Latur,"Sawe Wadi, Latur - MPCB",15-05-2024 19:00:00,18.39963,76.57452,SO2,1,5,3
India,Maharashtra,Mahad,"Kamble Tarf Birwadi, Mahad - MPCB",15-05-2024 19:00:00,18.1023399,73.4783687,SO2,10,116,54
India,Maharashtra,Mumbai,"Bandra Kurla Complex, Mumbai - MPCB",15-05-2024 19:00:00,19.065931,72.862131,PM10,75,353,151
India,Maharashtra,Mumbai,"Bandra Kurla Complex, Mumbai - MPCB",15-05-2024 19:00:00,19.065931,72.862131,NH3,1,21,10
India,Maharashtra,Mumbai,"Bandra Kurla Complex, Mumbai - MPCB",15-05-2024 19:00:00,19.065931,72.862131,OZONE,5,304,187
India,Maharashtra,Mumbai,"Borivali East, Mumbai - IITM",15-05-2024 19:00:00,19.23241,72.86895,NH3,5,7,6
India,Maharashtra,Mumbai,"Borivali East, Mumbai - MPCB",15-05-2024 19:00:00,19.2243333,72.8658113,PM2.5,NA,NA,NA
India,Maharashtra,Mumbai,"Borivali East, Mumbai - MPCB",15-05-2024 19:00:00,19.2243333,72.8658113,PM10,NA,NA,NA
India,Maharashtra,Mumbai,"Borivali East, Mumbai - MPCB",15-05-2024 19:00:00,19.2243333,72.8658113,NO2,8,28,19
India,Maharashtra,Mumbai,"Borivali East, Mumbai - MPCB",15-05-2024 19:00:00,19.2243333,72.8658113,NH3,1,3,1
India,Maharashtra,Mumbai,"Chakala-Andheri East, Mumbai - IITM",15-05-2024 19:00:00,19.11074,72.86084,PM2.5,2,324,151
India,Maharashtra,Mumbai,"Chakala-Andheri East, Mumbai - IITM",15-05-2024 19:00:00,19.11074,72.86084,PM10,102,443,143
India,Maharashtra,Mumbai,"Chakala-Andheri East, Mumbai - IITM",15-05-2024 19:00:00,19.11074,72.86084,NO2,43,105,66
India,Maharashtra,Mumbai,"Chakala-Andheri East, Mumbai - IITM",15-05-2024 19:00:00,19.11074,72.86084,CO,7,104,25
India,Maharashtra,Mumbai,"Chembur, Mumbai - MPCB",15-05-2024 19:00:00,19.0364585,72.8954371,NH3,1,5,4
India,Maharashtra,Mumbai,"Chembur, Mumbai - MPCB",15-05-2024 19:00:00,19.0364585,72.8954371,OZONE,8,304,179
India,Maharashtra,Mumbai,"Ghatkopar, Mumbai - BMC",15-05-2024 19:00:00,19.083694,72.920967,PM10,48,98,70
India,Maharashtra,Mumbai,"Kandivali East, Mumbai - MPCB",15-05-2024 19:00:00,19.205800,72.868200,NO2,33,124,62
India,Maharashtra,Mumbai,"Kandivali East, Mumbai - MPCB",15-05-2024 19:00:00,19.205800,72.868200,OZONE,29,31,30
India,Maharashtra,Mumbai,"Kherwadi_Bandra East, Mumbai - MPCB",15-05-2024 19:00:00,19.0632143,72.8456324,PM10,74,187,126
India,Maharashtra,Mumbai,"Kherwadi_Bandra East, Mumbai - MPCB",15-05-2024 19:00:00,19.0632143,72.8456324,NH3,4,21,10
India,Maharashtra,Mumbai,"Kurla, Mumbai - MPCB",15-05-2024 19:00:00,19.0863,72.8888,PM10,50,448,118
India,Maharashtra,Mumbai,"Kurla, Mumbai - MPCB",15-05-2024 19:00:00,19.0863,72.8888,SO2,32,32,32
India,Maharashtra,Mumbai,"Mulund West, Mumbai - MPCB",15-05-2024 19:00:00,19.1750,72.9419,PM2.5,44,300,105
India,Maharashtra,Mumbai,"Mulund West, Mumbai - MPCB",15-05-2024 19:00:00,19.1750,72.9419,PM10,64,179,110
India,Maharashtra,Mumbai,"Mulund West, Mumbai - MPCB",15-05-2024 19:00:00,19.1750,72.9419,SO2,12,13,12
India,Maharashtra,Mumbai,"Navy Nagar-Colaba, Mumbai - IITM",15-05-2024 19:00:00,18.897756,72.813320,PM10,44,146,89
India,Maharashtra,Mumbai,"Sewri, Mumbai - BMC",15-05-2024 19:00:00,19.000084,72.856730,PM10,4,23,12
India,Maharashtra,Mumbai,"Sewri, Mumbai - BMC",15-05-2024 19:00:00,19.000084,72.856730,SO2,1,5,3
India,Maharashtra,Mumbai,"Siddharth Nagar-Worli, Mumbai - IITM",15-05-2024 19:00:00,19.000083,72.813993,NO2,23,419,74
India,Maharashtra,Mumbai,"Sion, Mumbai - MPCB",15-05-2024 19:00:00,19.047000,72.874600,NH3,2,2,2
India,Maharashtra,Mumbai,"Vasai West, Mumbai - MPCB",15-05-2024 19:00:00,19.383200,72.820400,PM2.5,42,163,83
India,Maharashtra,Mumbai,"Vasai West, Mumbai - MPCB",15-05-2024 19:00:00,19.383200,72.820400,PM10,59,225,135
India,Maharashtra,Mumbai,"Vile Parle West, Mumbai - MPCB",15-05-2024 19:00:00,19.10861,72.83622,CO,1,1,1
India,Maharashtra,Mumbai,"Vile Parle West, Mumbai - MPCB",15-05-2024 19:00:00,19.10861,72.83622,OZONE,2,3,3
India,Maharashtra,Mumbai,"Worli, Mumbai - MPCB",15-05-2024 19:00:00,18.9936162,72.8128113,PM10,74,278,141
India,Maharashtra,Mumbai,"Worli, Mumbai - MPCB",15-05-2024 19:00:00,18.9936162,72.8128113,OZONE,3,26,9
India,Maharashtra,Nagpur,"Ambazari, Nagpur - MPCB",15-05-2024 19:00:00,21.121801,79.04952,PM10,56,83,73
India,Maharashtra,Nagpur,"Opp GPO Civil Lines, Nagpur - MPCB",15-05-2024 19:00:00,21.152875,79.0517531,PM2.5,39,102,66
India,Maharashtra,Nanded,"Sneh Nagar, Nanded - MPCB",15-05-2024 19:00:00,19.173852,77.296291,PM2.5,35,74,51
India,Maharashtra,Nanded,"Sneh Nagar, Nanded - MPCB",15-05-2024 19:00:00,19.173852,77.296291,NO2,7,20,12
India,Maharashtra,Nanded,"Sneh Nagar, Nanded - MPCB",15-05-2024 19:00:00,19.173852,77.296291,OZONE,37,138,96
India,Maharashtra,Nashik,"Hirawadi, Nashik - MPCB",15-05-2024 19:00:00,20.021503,73.813844,PM10,25,73,46
India,Maharashtra,Nashik,"Hirawadi, Nashik - MPCB",15-05-2024 19:00:00,20.021503,73.813844,SO2,8,26,16
India,Maharashtra,Nashik,"MIDC Ambad, Nashik - MPCB",15-05-2024 19:00:00,19.950220,73.731480,CO,16,24,20
India,Maharashtra,Nashik,"Pandav Nagari, Nashik - MPCB",15-05-2024 19:00:00,19.9591346,73.7788008,NH3,1,13,7
India,Maharashtra,Nashik,"Pandav Nagari, Nashik - MPCB",15-05-2024 19:00:00,19.9591346,73.7788008,CO,10,70,13
India,Maharashtra,Navi Mumbai,"Kopripada-Vashi, Navi Mumbai - MPCB",15-05-2024 19:00:00,19.090337,73.014232,SO2,3,9,5
India,Maharashtra,Navi Mumbai,"Kopripada-Vashi, Navi Mumbai - MPCB",15-05-2024 19:00:00,19.090337,73.014232,CO,18,63,23
India,Maharashtra,Navi Mumbai,"Mahape, Navi Mumbai - MPCB",15-05-2024 19:00:00,19.1135051,73.008978,CO,113,123,115
India,Maharashtra,Navi Mumbai,"Nerul, Navi Mumbai - MPCB",15-05-2024 19:00:00,19.008751,73.016620,PM2.5,42,189,92
India,Maharashtra,Navi Mumbai,"Nerul, Navi Mumbai - MPCB",15-05-2024 19:00:00,19.008751,73.016620,SO2,20,21,20
India,Maharashtra,Navi Mumbai,"Sanpada, Navi Mumbai - MPCB",15-05-2024 19:00:00,19.0575752,73.0151367,NO2,NA,NA,NA
India,Maharashtra,Navi Mumbai,"Sector-19A Nerul, Navi Mumbai - IITM",15-05-2024 19:00:00,19.044,73.0325,OZONE,1,260,152
India,Maharashtra,Navi Mumbai,"Sector-2E Kalamboli, Navi Mumbai - MPCB",15-05-2024 19:00:00,19.02579,73.10297,NO2,16,80,49
India,Maharashtra,Navi Mumbai,"Sector-2E Kalamboli, Navi Mumbai - MPCB",15-05-2024 19:00:00,19.02579,73.10297,CO,12,40,17
India,Maharashtra,Navi Mumbai,"Tondare-Taloja, Navi Mumbai - MPCB",15-05-2024 19:00:00,19.0630,73.1209,PM10,80,136,103
India,Maharashtra,Navi Mumbai,"Tondare-Taloja, Navi Mumbai - MPCB",15-05-2024 19:00:00,19.0630,73.1209,CO,12,58,20
India,Maharashtra,Parbhani,"Masoom Colony, Parbhani - MPCB",15-05-2024 19:00:00,19.265594,76.761463,PM10,44,106,58
India,Maharashtra,Parbhani,"Masoom Colony, Parbhani - MPCB",15-05-2024 19:00:00,19.265594,76.761463,NH3,3,4,4
India,Maharashtra,Pimpri-Chinchwad,"Gavalinagar, Pimpri Chinchwad - MPCB",15-05-2024 19:00:00,18.63673,73.82487,PM2.5,31,91,61
India,Maharashtra,Pimpri-Chinchwad,"Gavalinagar, Pimpri Chinchwad - MPCB",15-05-2024 19:00:00,18.63673,73.82487,NO2,23,68,43
India,Maharashtra,Pimpri-Chinchwad,"Gavalinagar, Pimpri Chinchwad - MPCB",15-05-2024 19:00:00,18.63673,73.82487,NH3,2,6,4
India,Maharashtra,Pimpri-Chinchwad,"Gavalinagar, Pimpri Chinchwad - MPCB",15-05-2024 19:00:00,18.63673,73.82487,OZONE,15,149,132
India,Maharashtra,Pimpri-Chinchwad,"Park Street Wakad, Pimpri Chinchwad - MPCB",15-05-2024 19:00:00,18.59051,73.77946,PM2.5,65,150,105
India,Maharashtra,Pimpri-Chinchwad,"Park Street Wakad, Pimpri Chinchwad - MPCB",15-05-2024 19:00:00,18.59051,73.77946,OZONE,2,126,95
India,Maharashtra,Pune,"Mhada Colony, Pune - IITM",15-05-2024 19:00:00,18.573040,73.927715,PM10,25,90,57
India,Maharashtra,Pune,"Mhada Colony, Pune - IITM",15-05-2024 19:00:00,18.573040,73.927715,NO2,26,89,52
India,Maharashtra,Pune,"Revenue Colony-Shivajinagar, Pune - IITM",15-05-2024 19:00:00,18.530085,73.849598,SO2,1,32,16
India,Maharashtra,Pune,"Transport Nagar-Nigdi, Pune - IITM",15-05-2024 19:00:00,18.664282,73.763966,PM2.5,34,128,70
India,Maharashtra,Sangli,"Vijay Nagar, Sangli - MPCB",15-05-2024 19:00:00, 16.5038,74.3623,NO2,8,37,19
India,Maharashtra,Sangli,"Vijay Nagar, Sangli - MPCB",15-05-2024 19:00:00, 16.5038,74.3623,NH3,1,4,3
India,Maharashtra,Sangli,"Vijay Nagar, Sangli - MPCB",15-05-2024 19:00:00, 16.5038,74.3623,OZONE,42,139,121
India,Maharashtra,Solapur,"Dnyaneshwar Nagar, Solapur - MPCB",15-05-2024 19:00:00,17.6336264,75.9132495,NO2,4,34,17
India,Maharashtra,Solapur,"Dnyaneshwar Nagar, Solapur - MPCB",15-05-2024 19:00:00,17.6336264,75.9132495,SO2,1,2,1
India,Maharashtra,Solapur,"Dnyaneshwar Nagar, Solapur - MPCB",15-05-2024 19:00:00,17.6336264,75.9132495,OZONE,34,73,59
India,Maharashtra,Solapur,"Ratandeep Housing Society, Solapur - MPCB",15-05-2024 19:00:00,17.65439,75.90649,NO2,11,65,32
India,Maharashtra,Solapur,"Solapur, Solapur - MPCB",15-05-2024 19:00:00,17.6599188,75.9063906,PM2.5,39,70,59
India,Maharashtra,Thane,"Kasarvadavali, Thane - MPCB",15-05-2024 19:00:00,19.26777,72.97182,SO2,1,13,7
India,Maharashtra,Thane,"Pimpleshwar Mandir, Thane - MPCB",15-05-2024 19:00:00,19.192056,72.9585188,PM10,50,128,100
India,Maharashtra,Thane,"Pimpleshwar Mandir, Thane - MPCB",15-05-2024 19:00:00,19.192056,72.9585188,CO,6,80,39
India,Maharashtra,Thane,"Pimpleshwar Mandir, Thane - MPCB",15-05-2024 19:00:00,19.192056,72.9585188,OZONE,3,101,71
India,Maharashtra,Thane,"Upvan Fort, Thane - MPCB",15-05-2024 19:00:00,19.222279,72.957979,PM2.5,57,211,97
India,Maharashtra,Thane,"Upvan Fort, Thane - MPCB",15-05-2024 19:00:00,19.222279,72.957979,SO2,4,38,13
India,Maharashtra,Thane,"Upvan Fort, Thane - MPCB",15-05-2024 19:00:00,19.222279,72.957979,CO,14,53,18
India,Maharashtra,Ulhasnagar,"Sidhi Vinayak Nagar, Ulhasnagar - MPCB",15-05-2024 19:00:00,19.235581,73.159121,PM10,59,114,83
India,Maharashtra,Virar,"Bolinj, Virar - MPCB",15-05-2024 19:00:00,19.4458210,72.7988231,SO2,4,11,7
India,Maharashtra,Virar,"Bolinj, Virar - MPCB",15-05-2024 19:00:00,19.4458210,72.7988231,CO,18,74,31
India,Manipur,Imphal,"DM College of Science, Imphal - Manipur PCB",15-05-2024 19:00:00,24.8207389,93.9423085,PM2.5,14,64,25
India,Manipur,Imphal,"DM College of Science, Imphal - Manipur PCB",15-05-2024 19:00:00,24.8207389,93.9423085,SO2,100,103,101
India,Manipur,Imphal,"Manipur University, Imphal - Manipur PCB",15-05-2024 19:00:00,24.7524239,93.9286218,NH3,1,2,1
India,Meghalaya,Shillong,"Lumpyngngad, Shillong - Meghalaya PCB",15-05-2024 19:00:00,25.5586,91.8985,PM2.5,NA,NA,NA
India,Mizoram,Aizawl,"Sikulpuikawn, Aizawl - Mizoram PCB",15-05-2024 19:00:00,23.7176342,92.7192841,SO2,2,3,2
India,Nagaland,Kohima,"PWD Juction, Kohima - NPCB",15-05-2024 19:00:00,25.6635413,94.0989878,NO2,3,4,3
India,Nagaland,Kohima,"PWD Juction, Kohima - NPCB",15-05-2024 19:00:00,25.6635413,94.0989878,NH3,1,1,1
India,Odisha,Angul,"Hakimapada, Angul - OSPCB",15-05-2024 19:00:00,20.832874,85.104082,PM10,33,252,120
India,Odisha,Balasore,"Kalidaspur, Balasore - OSPCB",15-05-2024 19:00:00,21.51161,86.89088,OZONE,12,50,31
India,Odisha,Baripada,"Meher Colony, Baripada - OSPCB",15-05-2024 19:00:00,21.941841,86.728318,PM2.5,32,78,51
India,Odisha,Baripada,"Meher Colony, Baripada - OSPCB",15-05-2024 19:00:00,21.941841,86.728318,PM10,46,79,63
India,Odisha,Baripada,"Meher Colony, Baripada - OSPCB",15-05-2024 19:00:00,21.941841,86.728318,OZONE,26,99,79
India,Odisha,Bhubaneswar,"Lingraj Mandir, Bhubaneswar - OSPCB",15-05-2024 19:00:00,20.240790,85.836784,NH3,2,3,2
India,Odisha,Brajrajnagar,"GM Office, Brajrajnagar - OSPCB",15-05-2024 19:00:00,21.8004996,83.8396977,PM10,36,112,64
India,Odisha,Byasanagar,"Ferro Chrome Colony, Byasanagar - OSPCB",15-05-2024 19:00:00,20.94185,86.11510,SO2,3,34,9
India,Odisha,Cuttack,"CDA Area, Cuttack - OSPCB",15-05-2024 19:00:00,20.48891     ,85.84768     ,NH3,1,3,2
India,Odisha,Keonjhar,"Jagamohanpur, Keonjhar - OSPCB",15-05-2024 19:00:00,21.643900,85.599355,NO2,19,27,22
India,Odisha,Keonjhar,"Jagamohanpur, Keonjhar - OSPCB",15-05-2024 19:00:00,21.643900,85.599355,OZONE,1,10,5
India,Odisha,Rairangpur,"Divisional Forest Office, Rairangpur - OSPCB",15-05-2024 19:00:00,22.265816,86.174829,PM10,35,79,57
India,Odisha,Rourkela,"Fertilizer Township, Rourkela - OSPCB",15-05-2024 19:00:00,22.18972222,84.86277778,SO2,10,14,12
India,Odisha,Rourkela,"Raghunathpali, Rourkela - OSPCB",15-05-2024 19:00:00,22.220833,84.809444,PM10,49,110,80
India,Odisha,Rourkela,"Sector-2, Rourkela - OSPCB",15-05-2024 19:00:00,22.24500000,84.88111111,CO,18,84,18
India,Odisha,Talcher,"Talcher Coalfields,Talcher - OSPCB",15-05-2024 19:00:00,20.9360711,85.1707021,PM10,40,406,117
India,Odisha,Tensa,"Barsua Iron Ore Mines, Tensa - OSPCB",15-05-2024 19:00:00,21.869985,85.167016,NH3,2,4,3
India,Puducherry,Puducherry,"Jawahar Nagar, Puducherry - PPCC",15-05-2024 19:00:00,11.9309,79.8027,NH3,2,4,3
India,Puducherry,Puducherry,"Jawahar Nagar, Puducherry - PPCC",15-05-2024 19:00:00,11.9309,79.8027,SO2,3,15,8
India,Punjab,Bathinda,"Hardev Nagar, Bathinda - PPCB",15-05-2024 19:00:00,30.233011,74.907758,PM2.5,45,86,70
India,Punjab,Bathinda,"Hardev Nagar, Bathinda - PPCB",15-05-2024 19:00:00,30.233011,74.907758,NO2,26,32,29
India,Punjab,Bathinda,"Hardev Nagar, Bathinda - PPCB",15-05-2024 19:00:00,30.233011,74.907758,SO2,6,60,18
India,Punjab,Jalandhar,"Civil Line, Jalandhar - PPCB",15-05-2024 19:00:00,31.321907,75.578914,PM10,50,173,114
India,Punjab,Jalandhar,"Civil Line, Jalandhar - PPCB",15-05-2024 19:00:00,31.321907,75.578914,NO2,36,43,38
India,Punjab,Khanna,"Kalal Majra, Khanna - PPCB",15-05-2024 19:00:00,30.736056 ,76.209694,CO,23,44,33
India,Punjab,Ludhiana,"Punjab Agricultural University, Ludhiana - PPCB",15-05-2024 19:00:00,30.9028,75.8086,PM2.5,39,336,209
India,Punjab,Ludhiana,"Punjab Agricultural University, Ludhiana - PPCB",15-05-2024 19:00:00,30.9028,75.8086,NH3,4,7,6
India,Punjab,Mandi Gobindgarh,"RIMT University, Mandi Gobindgarh - PPCB",15-05-2024 19:00:00,30.649961,76.331442,PM10,55,276,147
India,Punjab,Mandi Gobindgarh,"RIMT University, Mandi Gobindgarh - PPCB",15-05-2024 19:00:00,30.649961,76.331442,OZONE,48,50,49
India,Punjab,Patiala,"Model Town, Patiala - PPCB",15-05-2024 19:00:00,30.349388,76.366642,CO,24,70,38
India,Rajasthan,Ajmer,"Civil Lines,  Ajmer - RSPCB",15-05-2024 19:00:00,26.470859,74.646594,PM10,57,129,96
India,Rajasthan,Alwar,"Moti Doongri, Alwar - RSPCB",15-05-2024 19:00:00,27.554793,76.611536,CO,38,64,46
India,Rajasthan,Banswara,"Rati Talai, Banswara - RSPCB",15-05-2024 19:00:00,23.555190,74.440010,PM10,10,153,89
India,Rajasthan,Banswara,"Rati Talai, Banswara - RSPCB",15-05-2024 19:00:00,23.555190,74.440010,NO2,14,153,42
India,Rajasthan,Banswara,"Rati Talai, Banswara - RSPCB",15-05-2024 19:00:00,23.555190,74.440010,NH3,4,10,7
India,Rajasthan,Banswara,"Rati Talai, Banswara - RSPCB",15-05-2024 19:00:00,23.555190,74.440010,CO,34,72,40
India,Rajasthan,Baran,"Bamboliya, Baran - RSPCB",15-05-2024 19:00:00,25.106006,76.469948,OZONE,24,173,134
India,Rajasthan,Barmer,"Railway Colony, Barmer - RSPCB",15-05-2024 19:00:00,25.747299,71.393989,SO2,1,4,2
India,Rajasthan,Bhiwadi,"RIICO Ind. Area III, Bhiwadi - RSPCB",15-05-2024 19:00:00,28.194909,76.862296,CO,4,103,50
India,Rajasthan,Bhiwadi,"Vasundhara Nagar_UIT, Bhiwadi - RSPCB",15-05-2024 19:00:00,28.207266,76.829265,NO2,10,147,63
India,Rajasthan,Bhiwadi,"Vasundhara Nagar_UIT, Bhiwadi - RSPCB",15-05-2024 19:00:00,28.207266,76.829265,NH3,10,24,16
India,Rajasthan,Bhiwadi,"Vasundhara Nagar_UIT, Bhiwadi - RSPCB",15-05-2024 19:00:00,28.207266,76.829265,OZONE,9,183,183
India,Rajasthan,Bikaner,"MM Ground, Bikaner - RSPCB",15-05-2024 19:00:00,28.018792,73.292658,SO2,4,7,6
India,Rajasthan,Bundi,"New Colony, Bundi - RSPCB",15-05-2024 19:00:00,25.435774,75.644272,PM2.5,25,79,44
India,Rajasthan,Chittorgarh,"Shastri Nagar, Chittorgarh - RSPCB",15-05-2024 19:00:00,24.892047,74.623527,PM2.5,18,83,43
India,Rajasthan,Chittorgarh,"Shastri Nagar, Chittorgarh - RSPCB",15-05-2024 19:00:00,24.892047,74.623527,NH3,2,20,13
India,Rajasthan,Chittorgarh,"Shastri Nagar, Chittorgarh - RSPCB",15-05-2024 19:00:00,24.892047,74.623527,CO,8,39,18
India,Rajasthan,Dausa,"Khatikan Mohalla, Dausa - RSPCB",15-05-2024 19:00:00,26.895552,76.334753,OZONE,8,181,132
India,Rajasthan,Dholpur,"Raja Ganj, Dholpur - RSPCB",15-05-2024 19:00:00,26.699557,77.898881,NH3,5,11,9
India,Rajasthan,Dungarpur,"Bhoiwada, Dungarpur - RSPCB",15-05-2024 19:00:00,23.837789,73.714926,SO2,2,4,3
India,Rajasthan,Hanumangarh,"Housing Board, Hanumangarh - RSPCB",15-05-2024 19:00:00,29.610750,74.283608,SO2,7,35,17
India,Rajasthan,Jaipur,"Mansarovar Sector-12, Jaipur - RSPCB",15-05-2024 19:00:00,26.843698,75.766894,PM10,57,220,106
India,Rajasthan,Jaipur,"Mansarovar Sector-12, Jaipur - RSPCB",15-05-2024 19:00:00,26.843698,75.766894,SO2,5,20,12
India,Rajasthan,Jaipur,"Mansarovar Sector-12, Jaipur - RSPCB",15-05-2024 19:00:00,26.843698,75.766894,CO,13,71,22
India,Rajasthan,Jaipur,"Police Commissionerate, Jaipur - RSPCB",15-05-2024 19:00:00,26.9164092,75.7994901,CO,20,73,38
India,Rajasthan,Jaipur,"RIICO Sitapura, Jaipur - RSPCB",15-05-2024 19:00:00,26.786682,75.827928,PM2.5,38,147,57
India,Rajasthan,Jaipur,"Sector-2 Murlipura, Jaipur - RSPCB",15-05-2024 19:00:00,26.960669,75.771817,SO2,8,36,12
India,Rajasthan,Jaipur,"Sector-2 Murlipura, Jaipur - RSPCB",15-05-2024 19:00:00,26.960669,75.771817,OZONE,28,149,124
India,Rajasthan,Jaipur,"Shastri Nagar, Jaipur - RSPCB",15-05-2024 19:00:00,26.9502929,75.730943,OZONE,41,183,95
India,Rajasthan,Jaisalmer,"Sadar Bazar, Jaisalmer - RSPCB",15-05-2024 19:00:00,26.912329,70.909168,PM2.5,48,473,169
India,Rajasthan,Jaisalmer,"Sadar Bazar, Jaisalmer - RSPCB",15-05-2024 19:00:00,26.912329,70.909168,NH3,2,9,5
India,Rajasthan,Jalore,"Mudtra Sili, Jalore - RSPCB",15-05-2024 19:00:00,25.344694,72.626208,PM10,69,152,112
India,Rajasthan,Jalore,"Mudtra Sili, Jalore - RSPCB",15-05-2024 19:00:00,25.344694,72.626208,CO,8,30,19
India,Rajasthan,Jalore,"Mudtra Sili, Jalore - RSPCB",15-05-2024 19:00:00,25.344694,72.626208,OZONE,44,145,132
India,Rajasthan,Jhalawar,"Rajlaxmi Nagar, Jhalawar - RSPCB",15-05-2024 19:00:00,24.588397,76.172782,NO2,13,28,23
India,Rajasthan,Jhunjhunu,"Indra Nagar, Jhunjhunu - RSPCB",15-05-2024 19:00:00,28.108988,75.386577,SO2,6,14,9
India,Rajasthan,Jodhpur,"Collectorate, Jodhpur - RSPCB",15-05-2024 19:00:00,26.268249,73.0193853,PM2.5,4,93,59
India,Rajasthan,Jodhpur,"Collectorate, Jodhpur - RSPCB",15-05-2024 19:00:00,26.268249,73.0193853,PM10,9,195,122
India,Rajasthan,Jodhpur,"Collectorate, Jodhpur - RSPCB",15-05-2024 19:00:00,26.268249,73.0193853,OZONE,24,135,111
India,Rajasthan,Jodhpur,"Digari Kalan, Jodhpur - RSPCB",15-05-2024 19:00:00,26.295810,73.082283,PM10,34,209,102
India,Rajasthan,Jodhpur,"Jhalamand, Jodhpur - RSPCB",15-05-2024 19:00:00,26.215415,73.070156,PM2.5,4,72,30
India,Rajasthan,Jodhpur,"Mandor, Jodhpur - RSPCB",15-05-2024 19:00:00,26.358805,73.047444,PM10,27,130,85
India,Rajasthan,Jodhpur,"Mandor, Jodhpur - RSPCB",15-05-2024 19:00:00,26.358805,73.047444,CO,14,24,22
India,Rajasthan,Jodhpur,"Samrat Ashok Udhyan, Jodhpur - RSPCB",15-05-2024 19:00:00,26.253384,72.976571,NO2,3,29,10
India,Rajasthan,Karauli,"Satyawati Vihar, Karauli - RSPCB",15-05-2024 19:00:00,26.506177,77.025989,PM10,34,103,67
India,Rajasthan,Karauli,"Satyawati Vihar, Karauli - RSPCB",15-05-2024 19:00:00,26.506177,77.025989,CO,42,165,71
India,Rajasthan,Kota,"Dhanmandi, Kota - RSPCB",15-05-2024 19:00:00,25.164090,75.858137,PM10,39,186,78
India,Rajasthan,Kota,"Nayapura, Kota - RSPCB",15-05-2024 19:00:00,25.196024,75.855668,PM2.5,24,310,51
India,Rajasthan,Kota,"Nayapura, Kota - RSPCB",15-05-2024 19:00:00,25.196024,75.855668,PM10,64,362,101
India,Rajasthan,Kota,"Nayapura, Kota - RSPCB",15-05-2024 19:00:00,25.196024,75.855668,CO,12,47,21
India,Rajasthan,Kota,"Shrinath Puram, Kota - RSPCB",15-05-2024 19:00:00,25.14389,75.821256,PM2.5,70,124,92
India,Rajasthan,Kota,"Shrinath Puram, Kota - RSPCB",15-05-2024 19:00:00,25.14389,75.821256,OZONE,23,92,78
India,Rajasthan,Nagaur,"Karni Colony, Nagaur - RSPCB",15-05-2024 19:00:00,27.213494,73.734444,NO2,NA,NA,NA
India,Rajasthan,Nagaur,"Karni Colony, Nagaur - RSPCB",15-05-2024 19:00:00,27.213494,73.734444,CO,12,46,18
India,Rajasthan,Pratapgarh,"Pragati Nagar, Pratapgarh - RSPCB",15-05-2024 19:00:00,24.041198,74.780702,NH3,4,7,5
India,Rajasthan,Sawai Madhopur,"Sahu Nagar, Sawai Madhopur - RSPCB",15-05-2024 19:00:00,26.031443,76.359327,SO2,1,19,3
India,Rajasthan,Sikar,"Radhakishan Pura, Sikar - RSPCB",15-05-2024 19:00:00,27.608912,75.153302,CO,16,59,21
India,Rajasthan,Sirohi,"Vedhaynath Colony, Sirohi - RSPCB",15-05-2024 19:00:00,24.885261,72.857549,NH3,3,14,8
India,Rajasthan,Sirohi,"Vedhaynath Colony, Sirohi - RSPCB",15-05-2024 19:00:00,24.885261,72.857549,OZONE,5,152,142
India,Rajasthan,Sri Ganganagar,"Old City, Sri Ganganagar - RSPCB",15-05-2024 19:00:00,29.931624,73.864511,NH3,7,48,17
India,Rajasthan,Tonk,"Shastri Nagar, Tonk - RSPCB",15-05-2024 19:00:00,26.159933,75.780517,CO,2,48,44
India,Sikkim,Gangtok,"Zero Point GICI, Gangtok - SSPCB",15-05-2024 19:00:00,27.338530,88.614099,NO2,1,11,3
India,TamilNadu,Chennai,"Kodungaiyur, Chennai - TNPCB",15-05-2024 19:00:00,13.1278,80.2642,PM2.5,5,41,14
India,TamilNadu,Chennai,"Manali, Chennai - CPCB",15-05-2024 19:00:00,13.164544,80.26285,PM10,6,33,19
India,TamilNadu,Chennai,"Perungudi, Chennai - TNPCB",15-05-2024 19:00:00,12.9533,80.2357,CO,15,24,21
India,TamilNadu,Chennai,"Royapuram, Chennai - TNPCB",15-05-2024 19:00:00,13.1036,80.2909,SO2,2,9,5
India,TamilNadu,Chennai,"Velachery Res. Area, Chennai - CPCB",15-05-2024 19:00:00,13.0052189,80.2398125,SO2,11,11,11
India,TamilNadu,Gummidipoondi,"Anthoni Pillai Nagar, Gummidipoondi - TNPCB",15-05-2024 19:00:00,13.4127,80.1081,NO2,8,21,14
India,TamilNadu,Ooty,"Bombay Castel, Ooty - TNPCB",15-05-2024 19:00:00,11.4068288,76.7138973,PM10,NA,NA,NA
India,TamilNadu,Ooty,"Bombay Castel, Ooty - TNPCB",15-05-2024 19:00:00,11.4068288,76.7138973,NO2,NA,NA,NA
India,TamilNadu,Palkalaiperur,"Bharathidasan University, Palkalaiperur - TNPCB",15-05-2024 19:00:00,10.681158,78.741746,PM2.5,9,36,18
India,TamilNadu,Palkalaiperur,"Bharathidasan University, Palkalaiperur - TNPCB",15-05-2024 19:00:00,10.681158,78.741746,PM10,9,45,22
India,TamilNadu,Palkalaiperur,"Bharathidasan University, Palkalaiperur - TNPCB",15-05-2024 19:00:00,10.681158,78.741746,SO2,27,30,29
India,TamilNadu,Ramanathapuram,"Chalai Bazaar, Ramanathapuram - TNPCB",15-05-2024 19:00:00,9.36399,78.831977,OZONE,13,14,14
India,TamilNadu,Thoothukudi,"Meelavittan, Thoothukudi - TNPCB",15-05-2024 19:00:00,8.816428 ,78.099039,PM10,16,128,42
India,TamilNadu,Tirupur,"Kumaran College, Tirupur - TNPCB",15-05-2024 19:00:00,11.0973603,77.3228673,CO,28,58,34
India,TamilNadu,Vellore,"Vasanthapuram, Vellore - TNPCB",15-05-2024 19:00:00,12.909494,79.131861,PM2.5,NA,NA,NA
India,Telangana,Hyderabad,"Bollaram Industrial Area, Hyderabad - TSPCB",15-05-2024 19:00:00,17.540891,78.358528,PM2.5,25,85,44
India,Telangana,Hyderabad,"Bollaram Industrial Area, Hyderabad - TSPCB",15-05-2024 19:00:00,17.540891,78.358528,NH3,2,5,3
India,Telangana,Hyderabad,"Bollaram Industrial Area, Hyderabad - TSPCB",15-05-2024 19:00:00,17.540891,78.358528,SO2,7,19,11
India,Telangana,Hyderabad,"ECIL Kapra, Hyderabad - TSPCB",15-05-2024 19:00:00,17.470431,78.566959,PM10,73,87,80
India,Telangana,Hyderabad,"ECIL Kapra, Hyderabad - TSPCB",15-05-2024 19:00:00,17.470431,78.566959,NH3,6,10,7
India,Telangana,Hyderabad,"ECIL Kapra, Hyderabad - TSPCB",15-05-2024 19:00:00,17.470431,78.566959,OZONE,28,76,63
India,Telangana,Hyderabad,"ICRISAT Patancheru, Hyderabad - TSPCB",15-05-2024 19:00:00,17.518400,78.278777,NH3,2,2,2
India,Telangana,Hyderabad,"IITH Kandi, Hyderabad - TSPCB",15-05-2024 19:00:00,17.585705,78.126199,NO2,NA,NA,NA
India,Telangana,Hyderabad,"IITH Kandi, Hyderabad - TSPCB",15-05-2024 19:00:00,17.585705,78.126199,OZONE,24,39,30
India,Telangana,Hyderabad,"Kompally Municipal Office, Hyderabad - TSPCB",15-05-2024 19:00:00,17.544899,78.486949,PM10,52,103,64
India,Telangana,Hyderabad,"Nacharam_TSIIC IALA, Hyderabad - TSPCB",15-05-2024 19:00:00,17.429398,78.569354,PM10,NA,NA,NA
India,Telangana,Hyderabad,"Ramachandrapuram, Hyderabad - TSPCB",15-05-2024 19:00:00,17.528544,78.286195,PM2.5,49,51,50
India,Telangana,Hyderabad,"Ramachandrapuram, Hyderabad - TSPCB",15-05-2024 19:00:00,17.528544,78.286195,NH3,4,4,4
India,Telangana,Hyderabad,"Sanathnagar, Hyderabad - TSPCB",15-05-2024 19:00:00,17.4559458,78.4332152,SO2,5,52,13
India,Telangana,Hyderabad,"Sanathnagar, Hyderabad - TSPCB",15-05-2024 19:00:00,17.4559458,78.4332152,OZONE,14,17,16
India,Telangana,Hyderabad,"Zoo Park, Hyderabad - TSPCB",15-05-2024 19:00:00,17.349694,78.451437,NO2,20,42,30
India,Telangana,Hyderabad,"Zoo Park, Hyderabad - TSPCB",15-05-2024 19:00:00,17.349694,78.451437,NH3,1,1,1
India,Telangana,Hyderabad,"Zoo Park, Hyderabad - TSPCB",15-05-2024 19:00:00,17.349694,78.451437,CO,21,62,49
India,Tripura,Agartala,"Bardowali, Agartala - Tripura SPCB",15-05-2024 19:00:00,23.8175497,91.2726974,NO2,5,19,10
India,Tripura,Agartala,"Bardowali, Agartala - Tripura SPCB",15-05-2024 19:00:00,23.8175497,91.2726974,CO,20,76,26
India,Uttar_Pradesh,Agra,"Manoharpur, Agra - UPPCB",15-05-2024 19:00:00,27.23711,78.01936,PM10,14,75,28
India,Uttar_Pradesh,Agra,"Rohta, Agra - UPPCB",15-05-2024 19:00:00,27.106972,78.000111,NH3,3,3,3
India,Uttar_Pradesh,Agra,"Sanjay Palace, Agra - UPPCB",15-05-2024 19:00:00,27.19865833,78.00598056,SO2,5,11,8
India,Uttar_Pradesh,Agra,"Sanjay Palace, Agra - UPPCB",15-05-2024 19:00:00,27.19865833,78.00598056,CO,6,70,46
India,Uttar_Pradesh,Agra,"Sector-3B Avas Vikas Colony, Agra - UPPCB",15-05-2024 19:00:00,27.19412,77.96237,CO,8,23,9
India,Uttar_Pradesh,Agra,"Shahjahan Garden, Agra - UPPCB",15-05-2024 19:00:00,27.169338,78.03582,PM2.5,22,72,37
India,Uttar_Pradesh,Agra,"Shahjahan Garden, Agra - UPPCB",15-05-2024 19:00:00,27.169338,78.03582,PM10,40,138,79
India,Uttar_Pradesh,Agra,"Shastripuram, Agra - UPPCB",15-05-2024 19:00:00,27.19862,77.92066,PM2.5,5,109,37
India,Uttar_Pradesh,Agra,"Shastripuram, Agra - UPPCB",15-05-2024 19:00:00,27.19862,77.92066,NH3,4,8,5
India,Uttar_Pradesh,Agra,"Shastripuram, Agra - UPPCB",15-05-2024 19:00:00,27.19862,77.92066,SO2,13,16,14
India,Uttar_Pradesh,Agra,"Shastripuram, Agra - UPPCB",15-05-2024 19:00:00,27.19862,77.92066,OZONE,1,15,11
India,Uttar_Pradesh,Bulandshahr,"Yamunapuram, Bulandshahr - UPPCB",15-05-2024 19:00:00,28.406963,77.849831,PM2.5,60,349,171
India,Uttar_Pradesh,Bulandshahr,"Yamunapuram, Bulandshahr - UPPCB",15-05-2024 19:00:00,28.406963,77.849831,NO2,16,195,90
India,Uttar_Pradesh,Firozabad,"Nagla Bhau, Firozabad - UPPCB",15-05-2024 19:00:00,27.168897,78.376960,SO2,18,22,20
India,Uttar_Pradesh,Firozabad,"Vibhab Nagar, Firozabad - UPPCB",15-05-2024 19:00:00,27.1594,78.3953,PM2.5,NA,NA,NA
India,Uttar_Pradesh,Firozabad,"Vibhab Nagar, Firozabad - UPPCB",15-05-2024 19:00:00,27.1594,78.3953,NO2,13,15,14
India,Uttar_Pradesh,Firozabad,"Vibhab Nagar, Firozabad - UPPCB",15-05-2024 19:00:00,27.1594,78.3953,NH3,2,2,2
India,Uttar_Pradesh,Ghaziabad,"Indirapuram, Ghaziabad - UPPCB",15-05-2024 19:00:00,28.646233,77.358075,PM2.5,57,373,205
India,Uttar_Pradesh,Ghaziabad,"Sanjay Nagar, Ghaziabad - UPPCB",15-05-2024 19:00:00,28.685382,77.453839,PM2.5,67,393,211
India,Uttar_Pradesh,Ghaziabad,"Sanjay Nagar, Ghaziabad - UPPCB",15-05-2024 19:00:00,28.685382,77.453839,NO2,41,178,119
India,Uttar_Pradesh,Greater Noida,"Knowledge Park - III, Greater Noida - UPPCB",15-05-2024 19:00:00,28.47272,77.482000,NO2,54,187,104
India,Uttar_Pradesh,Greater Noida,"Knowledge Park - III, Greater Noida - UPPCB",15-05-2024 19:00:00,28.47272,77.482000,SO2,13,79,35
India,Uttar_Pradesh,Hapur,"Anand Vihar, Hapur - UPPCB",15-05-2024 19:00:00,28.725645,77.749675,OZONE,7,99,80
India,Uttar_Pradesh,Jhansi,"Shivaji Nagar, Jhansi - UPPCB",15-05-2024 19:00:00,25.4547,78.6039,PM10,NA,NA,NA
India,Uttar_Pradesh,Jhansi,"Shivaji Nagar, Jhansi - UPPCB",15-05-2024 19:00:00,25.4547,78.6039,NH3,5,6,6
India,Uttar_Pradesh,Kanpur,"Nehru Nagar, Kanpur - UPPCB",15-05-2024 19:00:00,26.4703136,80.3229863,PM10,36,172,64
India,Uttar_Pradesh,Kanpur,"Nehru Nagar, Kanpur - UPPCB",15-05-2024 19:00:00,26.4703136,80.3229863,CO,46,86,64
India,Uttar_Pradesh,Lucknow,"B R Ambedkar University, Lucknow - UPPCB",15-05-2024 19:00:00,26.766433,80.927299,PM2.5,40,168,94
India,Uttar_Pradesh,Lucknow,"Gomti Nagar, Lucknow - UPPCB",15-05-2024 19:00:00,26.868120,81.005119,PM2.5,45,210,81
India,Uttar_Pradesh,Lucknow,"Gomti Nagar, Lucknow - UPPCB",15-05-2024 19:00:00,26.868120,81.005119,PM10,56,144,81
India,Uttar_Pradesh,Lucknow,"Kendriya Vidyalaya, Lucknow - CPCB",15-05-2024 19:00:00,26.906111,80.948222,PM10,93,162,121
India,Uttar_Pradesh,Lucknow,"Kendriya Vidyalaya, Lucknow - CPCB",15-05-2024 19:00:00,26.906111,80.948222,CO,2,103,31
India,Uttar_Pradesh,Lucknow,"Kukrail Picnic Spot-1, Lucknow - UPPCB",15-05-2024 19:00:00,26.90723,80.98579,PM10,58,125,85
India,Uttar_Pradesh,Lucknow,"Kukrail Picnic Spot-1, Lucknow - UPPCB",15-05-2024 19:00:00,26.90723,80.98579,NH3,2,2,2
India,Uttar_Pradesh,Lucknow,"Lalbagh, Lucknow - CPCB",15-05-2024 19:00:00,26.8458805,80.9365541,CO,1,112,9
India,Uttar_Pradesh,Lucknow,"Talkatora District Industries Center, Lucknow - CPCB",15-05-2024 19:00:00,26.83399722,80.8917361,CO,14,104,27
India,Uttar_Pradesh,Meerut,"Ganga Nagar, Meerut - UPPCB",15-05-2024 19:00:00,28.999264,77.7590354,PM10,113,370,183
India,Uttar_Pradesh,Meerut,"Ganga Nagar, Meerut - UPPCB",15-05-2024 19:00:00,28.999264,77.7590354,NO2,26,119,67
India,Uttar_Pradesh,Meerut,"Ganga Nagar, Meerut - UPPCB",15-05-2024 19:00:00,28.999264,77.7590354,NH3,6,17,10
India,Uttar_Pradesh,Meerut,"Pallavpuram Phase 2, Meerut - UPPCB",15-05-2024 19:00:00,29.063510,77.709723,SO2,20,95,44
India,Uttar_Pradesh,Moradabad,"Buddhi Vihar, Moradabad - UPPCB",15-05-2024 19:00:00,28.83526,78.74460,OZONE,11,54,42
India,Uttar_Pradesh,Moradabad,"Eco Herbal Park, Moradabad - UPPCB",15-05-2024 19:00:00,28.840739,78.697531,SO2,1,102,33
India,Uttar_Pradesh,Moradabad,"Employment Office, Moradabad - UPPCB",15-05-2024 19:00:00,28.88528,78.73880,PM2.5,53,226,111
India,Uttar_Pradesh,Moradabad,"Kashiram Nagar, Moradabad - UPPCB",15-05-2024 19:00:00,28.849399,78.742362,NO2,3,4,4
India,Uttar_Pradesh,Moradabad,"Transport Nagar, Moradabad - UPPCB",15-05-2024 19:00:00,28.802625,78.753728,PM2.5,38,298,103
India,Uttar_Pradesh,Moradabad,"Transport Nagar, Moradabad - UPPCB",15-05-2024 19:00:00,28.802625,78.753728,PM10,66,164,105
India,Uttar_Pradesh,Moradabad,"Transport Nagar, Moradabad - UPPCB",15-05-2024 19:00:00,28.802625,78.753728,OZONE,8,74,40
India,Uttar_Pradesh,Muzaffarnagar,"New Mandi, Muzaffarnagar - UPPCB",15-05-2024 19:00:00,29.4723508,77.7194031,NO2,24,84,50
India,Uttar_Pradesh,Noida,"Sector - 125, Noida - UPPCB",15-05-2024 19:00:00,28.5447608,77.3231257,SO2,2,54,22
India,Uttar_Pradesh,Noida,"Sector-1, Noida - UPPCB",15-05-2024 19:00:00,28.5898,77.3101,NH3,1,13,6
India,Uttar_Pradesh,Noida,"Sector-116, Noida - UPPCB",15-05-2024 19:00:00,28.569230,77.393848,NO2,24,181,105
India,Uttar_Pradesh,Noida,"Sector-116, Noida - UPPCB",15-05-2024 19:00:00,28.569230,77.393848,CO,9,122,62
India,Uttar_Pradesh,Prayagraj,"Jhunsi, Prayagraj - UPPCB",15-05-2024 19:00:00,25.425602,81.917152,PM2.5,18,96,45
India,Uttar_Pradesh,Prayagraj,"Jhunsi, Prayagraj - UPPCB",15-05-2024 19:00:00,25.425602,81.917152,CO,6,40,8
India,Uttar_Pradesh,Prayagraj,"Motilal Nehru NIT, Prayagraj - UPPCB",15-05-2024 19:00:00,25.494,81.863,PM10,42,107,61
India,Uttar_Pradesh,Prayagraj,"Nagar Nigam, Prayagraj - UPPCB",15-05-2024 19:00:00,25.44919916 ,81.82735986 ,PM2.5,22,70,42
India,Uttar_Pradesh,Prayagraj,"Nagar Nigam, Prayagraj - UPPCB",15-05-2024 19:00:00,25.44919916 ,81.82735986 ,CO,10,79,21
India,Uttar_Pradesh,Varanasi,"IESD Banaras Hindu University, Varanasi - UPPCB",15-05-2024 19:00:00,25.262326,82.995408,PM2.5,NA,NA,NA
India,Uttar_Pradesh,Varanasi,"IESD Banaras Hindu University, Varanasi - UPPCB",15-05-2024 19:00:00,25.262326,82.995408,OZONE,1,4,2
India,Uttarakhand,Dehradun,"Doon University, Dehradun - UKPCB",15-05-2024 19:00:00,30.269444,78.044167,PM10,65,169,98
India,Uttarakhand,Kashipur,"Govt. Girls Inter College, Kashipur - UKPCB",15-05-2024 19:00:00,29.2124114,78.9611753,NH3,4,8,6
India,Uttarakhand,Rishikesh,"Shivaji Nagar, Rishikesh - UKPCB",15-05-2024 19:00:00,30.075911,78.2859547,PM10,59,114,84
India,Uttarakhand,Rishikesh,"Shivaji Nagar, Rishikesh - UKPCB",15-05-2024 19:00:00,30.075911,78.2859547,NO2,9,64,22
India,Uttarakhand,Rishikesh,"Shivaji Nagar, Rishikesh - UKPCB",15-05-2024 19:00:00,30.075911,78.2859547,CO,22,76,26
India,Uttarakhand,Rishikesh,"Shivaji Nagar, Rishikesh - UKPCB",15-05-2024 19:00:00,30.075911,78.2859547,OZONE,26,212,172
India,West_Bengal,Asansol,"Asansol Court Area, Asansol - WBPCB",15-05-2024 19:00:00,23.685297,86.945968,NO2,38,50,42
India,West_Bengal,Asansol,"Asansol Court Area, Asansol - WBPCB",15-05-2024 19:00:00,23.685297,86.945968,SO2,11,15,13
India,West_Bengal,Barrackpore,"SVSPA Campus, Barrackpore - WBPCB",15-05-2024 19:00:00,22.7605581,88.3617589,NH3,1,4,2
India,West_Bengal,Barrackpore,"SVSPA Campus, Barrackpore - WBPCB",15-05-2024 19:00:00,22.7605581,88.3617589,SO2,7,10,8
India,West_Bengal,Durgapur,"PCBL Residential Complex, Durgapur - WBPCB",15-05-2024 19:00:00,23.5087640,87.3544400,NH3,1,2,2
India,West_Bengal,Haldia,"Priyambada Housing Estate, Haldia - WBPCB",15-05-2024 19:00:00,22.06047,88.109737,CO,18,24,23
India,West_Bengal,Howrah,"Belur Math, Howrah - WBPCB",15-05-2024 19:00:00,22.629801,88.352017,PM2.5,34,52,41
India,West_Bengal,Howrah,"Belur Math, Howrah - WBPCB",15-05-2024 19:00:00,22.629801,88.352017,PM10,55,86,64
India,West_Bengal,Howrah,"Padmapukur, Howrah - WBPCB",15-05-2024 19:00:00,22.5687319,88.2797276,PM2.5,29,77,55
India,West_Bengal,Howrah,"Padmapukur, Howrah - WBPCB",15-05-2024 19:00:00,22.5687319,88.2797276,NH3,6,11,8
India,West_Bengal,Howrah,"Padmapukur, Howrah - WBPCB",15-05-2024 19:00:00,22.5687319,88.2797276,OZONE,6,39,28
India,West_Bengal,Kolkata,"Ballygunge, Kolkata - WBPCB",15-05-2024 19:00:00,22.5367507,88.3638022,PM2.5,18,57,34
India,West_Bengal,Kolkata,"Bidhannagar, Kolkata - WBPCB",15-05-2024 19:00:00,22.58157048,88.41002457,OZONE,14,63,50
India,West_Bengal,Kolkata,"Jadavpur, Kolkata - WBPCB",15-05-2024 19:00:00,22.49929,88.36917,NO2,45,63,59
India,West_Bengal,Kolkata,"Rabindra Bharati University, Kolkata - WBPCB",15-05-2024 19:00:00,22.627847,88.380669,PM10,34,56,44
India,West_Bengal,Kolkata,"Rabindra Bharati University, Kolkata - WBPCB",15-05-2024 19:00:00,22.627847,88.380669,NO2,23,24,23
India,West_Bengal,Kolkata,"Rabindra Sarobar, Kolkata - WBPCB",15-05-2024 19:00:00,22.51106,88.35142,NH3,6,10,8
India,Andhra_Pradesh,Amaravati,"Secretariat, Amaravati - APPCB",15-05-2024 19:00:00,16.5150833,80.5181667,OZONE,4,55,42
India,Andhra_Pradesh,Anantapur,"Gulzarpet, Anantapur - APPCB",15-05-2024 19:00:00,14.675886,77.593027,CO,16,37,30
India,Andhra_Pradesh,Chittoor,"Gangineni Cheruvu, Chittoor - APPCB",15-05-2024 19:00:00,13.204880,79.097889,OZONE,NA,NA,NA
India,Andhra_Pradesh,Kadapa,"Yerramukkapalli, Kadapa - APPCB",15-05-2024 19:00:00,14.465052,78.824187,CO,8,26,18
India,Andhra_Pradesh,Rajamahendravaram,"Anand Kala Kshetram, Rajamahendravaram - APPCB",15-05-2024 19:00:00,16.9872867,81.7363176,PM10,35,99,61
India,Andhra_Pradesh,Rajamahendravaram,"Anand Kala Kshetram, Rajamahendravaram - APPCB",15-05-2024 19:00:00,16.9872867,81.7363176,NH3,2,4,3
India,Andhra_Pradesh,Rajamahendravaram,"Anand Kala Kshetram, Rajamahendravaram - APPCB",15-05-2024 19:00:00,16.9872867,81.7363176,SO2,12,13,12
India,Andhra_Pradesh,Tirupati,"Tirumala, Tirupati - APPCB",15-05-2024 19:00:00,13.67,79.35,SO2,1,14,6
India,Andhra_Pradesh,Tirupati,"Vaikuntapuram, Tirupati - APPCB",15-05-2024 19:00:00,13.615387,79.409230,NO2,NA,NA,NA
India,Andhra_Pradesh,Tirupati,"Vaikuntapuram, Tirupati - APPCB",15-05-2024 19:00:00,13.615387,79.409230,NH3,NA,NA,NA
India,Andhra_Pradesh,Tirupati,"Vaikuntapuram, Tirupati - APPCB",15-05-2024 19:00:00,13.615387,79.409230,CO,10,16,13
India,Andhra_Pradesh,Tirupati,"Vaikuntapuram, Tirupati - APPCB",15-05-2024 19:00:00,13.615387,79.409230,OZONE,23,25,24
India,Andhra_Pradesh,Vijayawada,"Kanuru, Vijayawada - APPCB",15-05-2024 19:00:00,16.486692,80.699436,PM10,NA,NA,NA
India,Andhra_Pradesh,Vijayawada,"Kanuru, Vijayawada - APPCB",15-05-2024 19:00:00,16.486692,80.699436,CO,39,39,39
India,Andhra_Pradesh,Vijayawada,"Kanuru, Vijayawada - APPCB",15-05-2024 19:00:00,16.486692,80.699436,OZONE,29,29,29
India,Andhra_Pradesh,Vijayawada,"Rajiv Nagar, Vijayawada - APPCB",15-05-2024 19:00:00,16.554731,80.649110,PM2.5,NA,NA,NA
India,Andhra_Pradesh,Vijayawada,"Rajiv Nagar, Vijayawada - APPCB",15-05-2024 19:00:00,16.554731,80.649110,SO2,NA,NA,NA
India,Andhra_Pradesh,Vijayawada,"Rajiv Nagar, Vijayawada - APPCB",15-05-2024 19:00:00,16.554731,80.649110,CO,36,36,36
India,Andhra_Pradesh,Visakhapatnam,"GVM Corporation, Visakhapatnam - APPCB",15-05-2024 19:00:00,17.72,83.3,NO2,2,39,14
India,Andhra_Pradesh,Visakhapatnam,"GVM Corporation, Visakhapatnam - APPCB",15-05-2024 19:00:00,17.72,83.3,SO2,7,13,10
India,Arunachal_Pradesh,Naharlagun,"Naharlagun, Naharlagun - APSPCB",15-05-2024 19:00:00,27.103358,93.679645,NO2,3,3,3
India,Assam,Byrnihat,"Central Academy for SFS, Byrnihat - PCBA",15-05-2024 19:00:00,26.071318,91.87488,PM10,70,500,250
India,Assam,Guwahati,"IITG, Guwahati - PCBA",15-05-2024 19:00:00,26.2028636,91.70046436,NO2,1,11,4
India,Assam,Guwahati,"IITG, Guwahati - PCBA",15-05-2024 19:00:00,26.2028636,91.70046436,OZONE,3,39,30
India,Assam,Guwahati,"LGBI Airport, Guwahati - PCBA",15-05-2024 19:00:00,26.10887,91.589544,NH3,1,7,3
India,Assam,Guwahati,"LGBI Airport, Guwahati - PCBA",15-05-2024 19:00:00,26.10887,91.589544,SO2,7,13,9
India,Assam,Guwahati,"Pan Bazaar, Guwahati - PCBA",15-05-2024 19:00:00,26.187500,91.744194,CO,26,60,31
India,Assam,Guwahati,"Pan Bazaar, Guwahati - PCBA",15-05-2024 19:00:00,26.187500,91.744194,OZONE,16,18,17
India,Assam,Nalbari,"Bata Chowk, Nalbari - PCBA",15-05-2024 19:00:00,26.446912,91.439057,PM2.5,47,80,67
India,Assam,Nalbari,"Bata Chowk, Nalbari - PCBA",15-05-2024 19:00:00,26.446912,91.439057,NO2,9,24,18
India,Assam,Nalbari,"Bata Chowk, Nalbari - PCBA",15-05-2024 19:00:00,26.446912,91.439057,OZONE,7,16,14
India,Assam,Silchar,"Tarapur, Silchar - PCBA",15-05-2024 19:00:00,24.82827,92.79525,PM10,48,55,51
India,Assam,Silchar,"Tarapur, Silchar - PCBA",15-05-2024 19:00:00,24.82827,92.79525,SO2,5,5,5
India,Assam,Sivasagar,"Girls College, Sivasagar - PCBA",15-05-2024 19:00:00,26.987634,94.636574,NH3,2,3,2
India,Bihar,Arrah,"New DM Office, Arrah - BSPCB",15-05-2024 19:00:00,25.5626095,84.663264,PM10,72,142,99
India,Bihar,Aurangabad,"Gurdeo Nagar, Aurangabad - BSPCB",15-05-2024 19:00:00,24.75746,84.366208,PM10,NA,NA,NA
India,Bihar,Aurangabad,"Gurdeo Nagar, Aurangabad - BSPCB",15-05-2024 19:00:00,24.75746,84.366208,SO2,11,21,16
India,Bihar,Bhagalpur,"DM Office_Kachari Chowk, Bhagalpur - BSPCB",15-05-2024 19:00:00,25.251013,86.989001,PM10,80,137,110
India,Bihar,Bhagalpur,"Mayaganj, Bhagalpur - BSPCB",15-05-2024 19:00:00,25.265194,87.012947,SO2,11,12,12
India,Bihar,Bihar Sharif,"D M Colony, Bihar Sharif - BSPCB",15-05-2024 19:00:00,25.204762,85.514960,PM10,52,158,82
India,Bihar,Buxar,"Charitra Van, Buxar - BSPCB (Formerly known as Central Jail)",15-05-2024 19:00:00,25.567520,83.966379,NH3,3,3,3
India,Bihar,Buxar,"Charitra Van, Buxar - BSPCB (Formerly known as Central Jail)",15-05-2024 19:00:00,25.567520,83.966379,CO,25,133,64
India,Bihar,Chhapra,"Darshan Nagar, Chhapra - BSPCB",15-05-2024 19:00:00,25.7808257,84.7446768,NO2,15,28,20
India,Bihar,Chhapra,"Darshan Nagar, Chhapra - BSPCB",15-05-2024 19:00:00,25.7808257,84.7446768,SO2,17,31,23
India,Bihar,Chhapra,"Darshan Nagar, Chhapra - BSPCB",15-05-2024 19:00:00,25.7808257,84.7446768,CO,38,65,57
India,Bihar,Gaya,"Collectorate, Gaya - BSPCB",15-05-2024 19:00:00,24.7955,84.9994,SO2,6,24,15
India,Bihar,Gaya,"Kareemganj, Gaya - BSPCB",15-05-2024 19:00:00,24.792403,84.992416,PM2.5,8,87,40
India,Bihar,Gaya,"Kareemganj, Gaya - BSPCB",15-05-2024 19:00:00,24.792403,84.992416,CO,8,22,15
India,Bihar,Gaya,"SFTI Kusdihra, Gaya - BSPCB",15-05-2024 19:00:00,24.762518,84.982348,OZONE,3,47,38
India,Bihar,Manguraha,"Forest Rest House, Manguraha - BSPCB",15-05-2024 19:00:00,27.308328,84.531742,NO2,13,22,18
India,Bihar,Manguraha,"Forest Rest House, Manguraha - BSPCB",15-05-2024 19:00:00,27.308328,84.531742,OZONE,1,126,30
India,Bihar,Motihari,"Gandak Colony, Motihari - BSPCB",15-05-2024 19:00:00,26.63086,84.90051,NO2,22,48,35
India,Bihar,Motihari,"Gandak Colony, Motihari - BSPCB",15-05-2024 19:00:00,26.63086,84.90051,NH3,4,9,6
India,Bihar,Munger,"Town Hall, Munger - BSPCB",15-05-2024 19:00:00,25.376776,86.471523,NO2,4,6,5
India,Bihar,Muzaffarpur,"Buddha Colony, Muzaffarpur - BSPCB",15-05-2024 19:00:00,26.11442,85.39813,PM2.5,96,192,141
India,Bihar,Muzaffarpur,"Buddha Colony, Muzaffarpur - BSPCB",15-05-2024 19:00:00,26.11442,85.39813,PM10,109,151,130
India,Bihar,Muzaffarpur,"Buddha Colony, Muzaffarpur - BSPCB",15-05-2024 19:00:00,26.11442,85.39813,CO,24,49,27
India,Bihar,Muzaffarpur,"Buddha Colony, Muzaffarpur - BSPCB",15-05-2024 19:00:00,26.11442,85.39813,OZONE,20,78,69
India,Bihar,Muzaffarpur,"MIT-Daudpur Kothi, Muzaffarpur - BSPCB",15-05-2024 19:00:00,26.1403345,85.3650192,SO2,5,8,8
India,Bihar,Muzaffarpur,"Muzaffarpur Collectorate, Muzaffarpur - BSPCB",15-05-2024 19:00:00,26.1209,85.3647,CO,33,62,51
India,Bihar,Patna,"DRM Office Danapur, Patna - BSPCB",15-05-2024 19:00:00,25.586562,85.043586,OZONE,16,93,75
India,Bihar,Patna,"Muradpur, Patna - BSPCB",15-05-2024 19:00:00,25.619651,85.147382,NH3,2,5,4
India,Bihar,Patna,"Muradpur, Patna - BSPCB",15-05-2024 19:00:00,25.619651,85.147382,CO,21,104,33
India,Bihar,Patna,"Rajbansi Nagar, Patna - BSPCB",15-05-2024 19:00:00,25.599486,85.113666,PM10,124,200,165
India,Bihar,Patna,"Rajbansi Nagar, Patna - BSPCB",15-05-2024 19:00:00,25.599486,85.113666,NO2,7,73,29
India,Bihar,Patna,"Rajbansi Nagar, Patna - BSPCB",15-05-2024 19:00:00,25.599486,85.113666,NH3,2,4,4
India,Bihar,Patna,"Rajbansi Nagar, Patna - BSPCB",15-05-2024 19:00:00,25.599486,85.113666,SO2,1,14,7
India,Bihar,Patna,"Rajbansi Nagar, Patna - BSPCB",15-05-2024 19:00:00,25.599486,85.113666,CO,12,108,36
India,Bihar,Patna,"Samanpura, Patna - BSPCB",15-05-2024 19:00:00,25.596727,85.085624,PM2.5,97,265,192
India,Bihar,Patna,"Samanpura, Patna - BSPCB",15-05-2024 19:00:00,25.596727,85.085624,NO2,2,5,5
India,Bihar,Patna,"Samanpura, Patna - BSPCB",15-05-2024 19:00:00,25.596727,85.085624,SO2,2,10,6
India,Bihar,Patna,"Samanpura, Patna - BSPCB",15-05-2024 19:00:00,25.596727,85.085624,CO,38,103,46
India,Bihar,Purnia,"Mariam Nagar, Purnia - BSPCB",15-05-2024 19:00:00,25.366336,87.117468,NH3,5,17,9
India,Bihar,Saharsa,"Police Line, Saharsa - BSPCB",15-05-2024 19:00:00,25.892357,86.590325,PM2.5,35,312,131
India,Bihar,Saharsa,"Police Line, Saharsa - BSPCB",15-05-2024 19:00:00,25.892357,86.590325,NH3,9,9,9
India,Bihar,Samastipur,"DM Office_Kasipur, Samastipur - BSPCB",15-05-2024 19:00:00,25.859655,85.77944,NO2,NA,NA,NA
India,Bihar,Sasaram,"Dada Peer, Sasaram - BSPCB",15-05-2024 19:00:00,24.952822,84.002396,PM2.5,3,39,23
India,Chandigarh,Chandigarh,"Sector-25, Chandigarh - CPCC",15-05-2024 19:00:00,30.751462,76.762879,PM10,103,154,134
India,Chhattisgarh,Bhilai,"32Bungalows, Bhilai - CECB",15-05-2024 19:00:00,21.194815,81.314770,PM2.5,41,65,56
India,Chhattisgarh,Bhilai,"Civic Center, Bhilai - Bhilai Steel Plant",15-05-2024 19:00:00,21.185571,81.343175,PM10,36,67,50
India,Chhattisgarh,Bhilai,"Civic Center, Bhilai - Bhilai Steel Plant",15-05-2024 19:00:00,21.185571,81.343175,OZONE,17,91,79
India,Chhattisgarh,Bhilai,"Hathkhoj, Bhilai - CECB",15-05-2024 19:00:00,21.224231,81.408350,PM2.5,44,141,73
India,Chhattisgarh,Bhilai,"Hathkhoj, Bhilai - CECB",15-05-2024 19:00:00,21.224231,81.408350,CO,16,44,23
India,Chhattisgarh,Chhal,"Nawapara SECL Colony, Chhal - CECB",15-05-2024 19:00:00,22.118125,83.140608,PM2.5,37,106,59
India,Chhattisgarh,Kunjemura,"OP Jindal School, Kunjemura - CECB",15-05-2024 19:00:00,22.126650,83.483212,PM10,32,299,89
India,Chhattisgarh,Kunjemura,"OP Jindal School, Kunjemura - CECB",15-05-2024 19:00:00,22.126650,83.483212,NO2,12,114,54
India,Chhattisgarh,Kunjemura,"OP Jindal School, Kunjemura - CECB",15-05-2024 19:00:00,22.126650,83.483212,OZONE,5,57,43
India,Chhattisgarh,Milupara,"Govt. Higher Secondary School, Milupara - CECB",15-05-2024 19:00:00,22.1910172,83.5197009,PM10,57,97,71
India,Chhattisgarh,Milupara,"Govt. Higher Secondary School, Milupara - CECB",15-05-2024 19:00:00,22.1910172,83.5197009,CO,20,43,29
India,Chhattisgarh,Raipur,"AIIMS, Raipur - CECB",15-05-2024 19:00:00,21.258815,81.578979,NO2,NA,NA,NA
India,Chhattisgarh,Raipur,"AIIMS, Raipur - CECB",15-05-2024 19:00:00,21.258815,81.578979,SO2,NA,NA,NA
India,Chhattisgarh,Raipur,"AIIMS, Raipur - CECB",15-05-2024 19:00:00,21.258815,81.578979,OZONE,32,97,57
India,Chhattisgarh,Raipur,"Bhatagaon New ISBT, Raipur - CECB",15-05-2024 19:00:00,21.219665,81.630094,SO2,1,2,2
India,Chhattisgarh,Raipur,"Siltara Phase-II, Raipur - CECB",15-05-2024 19:00:00,21.371751,81.664929,PM10,NA,NA,NA
India,Chhattisgarh,Tumidih,"OP Jindal Industrial Park, Tumidih - CECB",15-05-2024 19:00:00,22.06631475,83.33820077,NO2,NA,NA,NA
India,Chhattisgarh,Tumidih,"OP Jindal Industrial Park, Tumidih - CECB",15-05-2024 19:00:00,22.06631475,83.33820077,OZONE,19,71,62
India,Delhi,Delhi,"Anand Vihar, Delhi - DPCC",15-05-2024 19:00:00,28.647622,77.3158090,NH3,5,16,9
India,Delhi,Delhi,"Anand Vihar, Delhi - DPCC",15-05-2024 19:00:00,28.647622,77.3158090,CO,72,150,84
India,Delhi,Delhi,"Ashok Vihar, Delhi - DPCC",15-05-2024 19:00:00,28.695381,77.181665,NH3,5,21,13
India,Delhi,Delhi,"Aya Nagar, Delhi - IMD",15-05-2024 19:00:00,28.4706914,77.1099364,NO2,8,24,19
India,Delhi,Delhi,"Aya Nagar, Delhi - IMD",15-05-2024 19:00:00,28.4706914,77.1099364,CO,38,105,66
India,Delhi,Delhi,"Bawana, Delhi - DPCC",15-05-2024 19:00:00,28.776200,77.051074,NO2,8,95,42
India,Delhi,Delhi,"Bawana, Delhi - DPCC",15-05-2024 19:00:00,28.776200,77.051074,CO,38,102,44
India,Delhi,Delhi,"Bawana, Delhi - DPCC",15-05-2024 19:00:00,28.776200,77.051074,OZONE,2,276,179
India,Delhi,Delhi,"Burari Crossing, Delhi - IMD",15-05-2024 19:00:00,28.7256504,77.2011573,PM2.5,52,396,227
India,Delhi,Delhi,"CRRI Mathura Road, Delhi - IMD",15-05-2024 19:00:00,28.5512005,77.2735737,PM10,128,408,238
India,Delhi,Delhi,"CRRI Mathura Road, Delhi - IMD",15-05-2024 19:00:00,28.5512005,77.2735737,OZONE,3,161,140
India,Delhi,Delhi,"Chandni Chowk, Delhi - IITM",15-05-2024 19:00:00,28.656756,77.227234,PM2.5,NA,NA,NA
India,Delhi,Delhi,"Chandni Chowk, Delhi - IITM",15-05-2024 19:00:00,28.656756,77.227234,NH3,NA,NA,NA
India,Delhi,Delhi,"DTU, Delhi - CPCB",15-05-2024 19:00:00,28.7500499,77.1112615,PM2.5,95,412,282
India,Delhi,Delhi,"DTU, Delhi - CPCB",15-05-2024 19:00:00,28.7500499,77.1112615,NH3,27,46,34
India,Delhi,Delhi,"DTU, Delhi - CPCB",15-05-2024 19:00:00,28.7500499,77.1112615,SO2,35,60,44
India,Delhi,Delhi,"DTU, Delhi - CPCB",15-05-2024 19:00:00,28.7500499,77.1112615,OZONE,24,105,61
India,Delhi,Delhi,"Dr. Karni Singh Shooting Range, Delhi - DPCC",15-05-2024 19:00:00,28.498571,77.264840,PM10,112,361,183
India,Delhi,Delhi,"Dr. Karni Singh Shooting Range, Delhi - DPCC",15-05-2024 19:00:00,28.498571,77.264840,NH3,5,7,6
India,Delhi,Delhi,"Dr. Karni Singh Shooting Range, Delhi - DPCC",15-05-2024 19:00:00,28.498571,77.264840,OZONE,NA,NA,NA
India,Delhi,Delhi,"Dwarka-Sector 8, Delhi - DPCC ",15-05-2024 19:00:00,28.5710274,77.0719006,PM10,127,469,257
India,Delhi,Delhi,"Dwarka-Sector 8, Delhi - DPCC ",15-05-2024 19:00:00,28.5710274,77.0719006,SO2,1,34,16
India,Delhi,Delhi,"IHBAS, Dilshad Garden, Delhi - CPCB",15-05-2024 19:00:00,28.6811736,77.3025234,PM10,91,374,153
India,Delhi,Delhi,"IHBAS, Dilshad Garden, Delhi - CPCB",15-05-2024 19:00:00,28.6811736,77.3025234,NO2,31,42,35
India,Delhi,Delhi,"ITO, Delhi - CPCB",15-05-2024 19:00:00,28.628624,77.241060,PM2.5,133,362,242
India,Delhi,Delhi,"ITO, Delhi - CPCB",15-05-2024 19:00:00,28.628624,77.241060,PM10,96,216,131
India,Delhi,Delhi,"ITO, Delhi - CPCB",15-05-2024 19:00:00,28.628624,77.241060,OZONE,4,95,78
India,Delhi,Delhi,"Jahangirpuri, Delhi - DPCC",15-05-2024 19:00:00,28.732820,77.170633,OZONE,4,174,148
India,Delhi,Delhi,"Jawaharlal Nehru Stadium, Delhi - DPCC",15-05-2024 19:00:00,28.580280,77.233829,NO2,4,42,23
India,Delhi,Delhi,"Lodhi Road, Delhi - IITM",15-05-2024 19:00:00,28.588333,77.221667,PM10,43,259,84
India,Delhi,Delhi,"Lodhi Road, Delhi - IITM",15-05-2024 19:00:00,28.588333,77.221667,SO2,12,56,28
India,Delhi,Delhi,"Lodhi Road, Delhi - IMD",15-05-2024 19:00:00,28.5918245,77.2273074,CO,14,40,21
India,Delhi,Delhi,"Major Dhyan Chand National Stadium, Delhi - DPCC",15-05-2024 19:00:00,28.611281,77.237738,SO2,14,46,26
India,Delhi,Delhi,"Major Dhyan Chand National Stadium, Delhi - DPCC",15-05-2024 19:00:00,28.611281,77.237738,OZONE,1,236,162
India,Delhi,Delhi,"Mandir Marg, Delhi - DPCC",15-05-2024 19:00:00,28.636429,77.201067,CO,14,106,35
India,Delhi,Delhi,"Mundka, Delhi - DPCC",15-05-2024 19:00:00,28.684678,77.076574,NO2,39,145,83
India,Delhi,Delhi,"NSIT Dwarka, Delhi - CPCB",15-05-2024 19:00:00,28.60909,77.0325413,NH3,7,19,14
India,Delhi,Delhi,"NSIT Dwarka, Delhi - CPCB",15-05-2024 19:00:00,28.60909,77.0325413,OZONE,11,125,108
India,Delhi,Delhi,"Najafgarh, Delhi - DPCC",15-05-2024 19:00:00,28.570173,76.933762,PM10,94,383,186
India,Delhi,Delhi,"Najafgarh, Delhi - DPCC",15-05-2024 19:00:00,28.570173,76.933762,NH3,7,11,8
India,Delhi,Delhi,"Narela, Delhi - DPCC",15-05-2024 19:00:00,28.822836,77.101981,PM2.5,85,500,276
India,Delhi,Delhi,"Narela, Delhi - DPCC",15-05-2024 19:00:00,28.822836,77.101981,CO,5,104,38
India,Delhi,Delhi,"Nehru Nagar, Delhi - DPCC",15-05-2024 19:00:00,28.567890,77.250515,NO2,9,78,45
India,Delhi,Delhi,"New Moti Bagh, Delhi - MHUA",15-05-2024 19:00:00,28.57834,77.18400,PM2.5,67,336,219
India,Delhi,Delhi,"North Campus, DU, Delhi - IMD",15-05-2024 19:00:00,28.6573814,77.1585447,NO2,15,91,50
India,Delhi,Delhi,"Punjabi Bagh, Delhi - DPCC",15-05-2024 19:00:00,28.674045,77.131023,NH3,3,5,4
India,Delhi,Delhi,"Punjabi Bagh, Delhi - DPCC",15-05-2024 19:00:00,28.674045,77.131023,OZONE,2,68,56
India,Delhi,Delhi,"Pusa, Delhi - IMD",15-05-2024 19:00:00,28.636110,77.173332,PM10,NA,NA,NA
India,Delhi,Delhi,"R K Puram, Delhi - DPCC",15-05-2024 19:00:00,28.563262,77.186937,CO,24,125,81
India,Delhi,Delhi,"Rohini, Delhi - DPCC",15-05-2024 19:00:00,28.732528,77.119920,NH3,9,19,13
India,Delhi,Delhi,"Rohini, Delhi - DPCC",15-05-2024 19:00:00,28.732528,77.119920,SO2,15,112,50
India,Delhi,Delhi,"Sonia Vihar, Delhi - DPCC",15-05-2024 19:00:00,28.710508,77.249485,PM10,117,476,270
India,Delhi,Delhi,"Sonia Vihar, Delhi - DPCC",15-05-2024 19:00:00,28.710508,77.249485,NO2,19,135,77
India,Delhi,Delhi,"Sonia Vihar, Delhi - DPCC",15-05-2024 19:00:00,28.710508,77.249485,OZONE,5,272,219
India,Delhi,Delhi,"Sri Aurobindo Marg, Delhi - DPCC",15-05-2024 19:00:00,28.531346,77.190156,PM10,115,235,152
India,Delhi,Delhi,"Sri Aurobindo Marg, Delhi - DPCC",15-05-2024 19:00:00,28.531346,77.190156,OZONE,3,141,124
India,Delhi,Delhi,"Vivek Vihar, Delhi - DPCC",15-05-2024 19:00:00,28.672342,77.315260,SO2,30,74,44
India,Delhi,Delhi,"Vivek Vihar, Delhi - DPCC",15-05-2024 19:00:00,28.672342,77.315260,CO,8,110,27
India,Delhi,Delhi,"Wazirpur, Delhi - DPCC",15-05-2024 19:00:00,28.699793,77.165453,PM10,130,422,272
India,Delhi,Delhi,"Wazirpur, Delhi - DPCC",15-05-2024 19:00:00,28.699793,77.165453,NO2,36,95,64
India,Gujarat,Ahmedabad,"Maninagar, Ahmedabad - GPCB",15-05-2024 19:00:00,23.002657,72.591912,PM10,75,146,112
India,Gujarat,Ahmedabad,"Maninagar, Ahmedabad - GPCB",15-05-2024 19:00:00,23.002657,72.591912,NO2,48,147,82
India,Gujarat,Ahmedabad,"Raikhad, Ahmedabad - IITM",15-05-2024 19:00:00,23.020509,72.579261,PM2.5,113,320,206
India,Gujarat,Ahmedabad,"Raikhad, Ahmedabad - IITM",15-05-2024 19:00:00,23.020509,72.579261,PM10,106,196,141
India,Gujarat,Ahmedabad,"Rakhial, Ahmedabad - IITM",15-05-2024 19:00:00,23.016834,72.625775,PM10,97,285,146
India,Gujarat,Ahmedabad,"SVPI Airport Hansol, Ahmedabad - IITM",15-05-2024 19:00:00,23.076793,72.627874,PM10,109,227,157
India,Gujarat,Ahmedabad,"SVPI Airport Hansol, Ahmedabad - IITM",15-05-2024 19:00:00,23.076793,72.627874,NO2,33,41,37
India,Gujarat,Ahmedabad,"SVPI Airport Hansol, Ahmedabad - IITM",15-05-2024 19:00:00,23.076793,72.627874,CO,44,113,59
India,Gujarat,Ahmedabad,"Sardar Vallabhbhai Patel Stadium, Ahmedabad - IITM",15-05-2024 19:00:00,23.043070,72.562968,PM2.5,65,360,156
India,Gujarat,Ahmedabad,"Sardar Vallabhbhai Patel Stadium, Ahmedabad - IITM",15-05-2024 19:00:00,23.043070,72.562968,CO,38,104,47
India,Gujarat,Nandesari,"GIDC, Nandesari - Nandesari Ind. Association",15-05-2024 19:00:00,22.410802,73.097923,PM10,56,337,127
India,Gujarat,Vatva,"Phase-4 GIDC, Vatva - GPCB",15-05-2024 19:00:00,22.969611,72.643500,NH3,6,10,9
India,Haryana,Ambala,"Patti Mehar, Ambala - HSPCB",15-05-2024 19:00:00,30.379589,76.778328,NH3,5,12,8
India,Haryana,Ambala,"Patti Mehar, Ambala - HSPCB",15-05-2024 19:00:00,30.379589,76.778328,SO2,8,38,23
India,Haryana,Bahadurgarh,"Arya Nagar, Bahadurgarh - HSPCB",15-05-2024 19:00:00,28.6701,76.9254,OZONE,35,41,37
India,Haryana,Ballabgarh,"Nathu Colony, Ballabgarh - HSPCB",15-05-2024 19:00:00,28.3419248,77.319699,PM10,99,153,137
India,Haryana,Bhiwani,"H.B. Colony, Bhiwani - HSPCB",15-05-2024 19:00:00,28.806223,76.141105,PM10,79,136,112
India,Haryana,Bhiwani,"H.B. Colony, Bhiwani - HSPCB",15-05-2024 19:00:00,28.806223,76.141105,SO2,3,102,14
India,Haryana,Dharuhera,"Municipal Corporation Office, Dharuhera -  HSPCB",15-05-2024 19:00:00,28.206800,76.799700,NO2,47,112,73
India,Haryana,Dharuhera,"Municipal Corporation Office, Dharuhera -  HSPCB",15-05-2024 19:00:00,28.206800,76.799700,NH3,9,27,19
India,Haryana,Dharuhera,"Municipal Corporation Office, Dharuhera -  HSPCB",15-05-2024 19:00:00,28.206800,76.799700,CO,14,56,21
India,Haryana,Faridabad,"New Industrial Town, Faridabad - HSPCB",15-05-2024 19:00:00,28.39072,77.30059,NH3,10,11,10
India,Haryana,Faridabad,"New Industrial Town, Faridabad - HSPCB",15-05-2024 19:00:00,28.39072,77.30059,OZONE,4,231,141
India,Haryana,Faridabad,"Sector 11, Faridabad - HSPCB",15-05-2024 19:00:00,28.376058,77.315741,PM2.5,138,500,335
India,Haryana,Faridabad,"Sector 11, Faridabad - HSPCB",15-05-2024 19:00:00,28.376058,77.315741,SO2,1,3,2
India,Haryana,Faridabad,"Sector 30, Faridabad - HSPCB",15-05-2024 19:00:00,28.4417,77.3217,PM10,196,228,210
India,Haryana,Faridabad,"Sector 30, Faridabad - HSPCB",15-05-2024 19:00:00,28.4417,77.3217,NH3,9,9,9
India,Haryana,Faridabad,"Sector- 16A, Faridabad - HSPCB",15-05-2024 19:00:00,28.4088421,77.3099081,OZONE,14,14,14
India,Haryana,Fatehabad,"Huda Sector, Fatehabad - HSPCB",15-05-2024 19:00:00,29.503664,75.467934,NO2,NA,NA,NA
India,Haryana,Fatehabad,"Huda Sector, Fatehabad - HSPCB",15-05-2024 19:00:00,29.503664,75.467934,CO,6,10,7
India,Haryana,Gurugram,"NISE Gwal Pahari, Gurugram - IMD",15-05-2024 19:00:00,28.422681,77.148944,PM2.5,57,323,184
India,Haryana,Gurugram,"NISE Gwal Pahari, Gurugram - IMD",15-05-2024 19:00:00,28.422681,77.148944,NO2,50,75,62
India,Haryana,Gurugram,"Sector-51, Gurugram - HSPCB",15-05-2024 19:00:00,28.4227,77.0667,CO,36,98,47
India,Haryana,Gurugram,"Teri Gram, Gurugram - HSPCB",15-05-2024 19:00:00,28.4275,77.1465,PM10,176,381,238
India,Haryana,Gurugram,"Teri Gram, Gurugram - HSPCB",15-05-2024 19:00:00,28.4275,77.1465,CO,17,37,31
India,Haryana,Hisar,"Urban Estate-II, Hisar - HSPCB",15-05-2024 19:00:00,29.140560,75.744941,CO,20,49,20
India,Haryana,Kaithal,"Rishi Nagar, Kaithal - HSPCB",15-05-2024 19:00:00,29.8006,76.4155,PM2.5,63,232,154
India,Haryana,Kaithal,"Rishi Nagar, Kaithal - HSPCB",15-05-2024 19:00:00,29.8006,76.4155,CO,6,73,12
India,Haryana,Karnal,"Sector-12, Karnal - HSPCB",15-05-2024 19:00:00,29.695300,77.002700,PM10,77,193,130
India,Haryana,Karnal,"Sector-12, Karnal - HSPCB",15-05-2024 19:00:00,29.695300,77.002700,SO2,12,13,12
India,Haryana,Kurukshetra,"Sector-7, Kurukshetra - HSPCB",15-05-2024 19:00:00,29.966942,76.875879,PM2.5,80,314,230
India,Haryana,Kurukshetra,"Sector-7, Kurukshetra - HSPCB",15-05-2024 19:00:00,29.966942,76.875879,SO2,2,3,2
India,Haryana,Mandikhera,"General Hospital, Mandikhera - HSPCB",15-05-2024 19:00:00,27.9002,76.9938,NH3,16,19,18
India,Haryana,Narnaul,"Shastri Nagar, Narnaul - HSPCB",15-05-2024 19:00:00,28.060249,76.113115,NO2,15,85,48
India,Haryana,Rohtak,"MD University, Rohtak - HSPCB",15-05-2024 19:00:00,28.52123,76.37138,PM2.5,6,375,184
India,Haryana,Rohtak,"MD University, Rohtak - HSPCB",15-05-2024 19:00:00,28.52123,76.37138,NO2,47,55,51
India,Haryana,Sirsa,"F-Block, Sirsa - HSPCB",15-05-2024 19:00:00,29.536400,75.015800,NH3,12,13,13
India,Haryana,Sonipat,"Murthal, Sonipat - HSPCB",15-05-2024 19:00:00,29.027200,77.062100,SO2,13,29,20
India,Haryana,Yamuna Nagar,"Gobind Pura, Yamuna Nagar - HSPCB",15-05-2024 19:00:00,30.1480566,77.2893471,OZONE,44,82,73
India,Himachal Pradesh,Baddi,"HIMUDA Complex Phase-1, Baddi - HPPCB",15-05-2024 19:00:00,30.943887,76.801991,PM10,75,283,144
India,Himachal Pradesh,Baddi,"HIMUDA Complex Phase-1, Baddi - HPPCB",15-05-2024 19:00:00,30.943887,76.801991,CO,14,60,28
India,Himachal Pradesh,Baddi,"HIMUDA Complex Phase-1, Baddi - HPPCB",15-05-2024 19:00:00,30.943887,76.801991,OZONE,87,307,196
India,Jharkhand,Dhanbad,"Kalakusuma, Dhanbad - DMC",15-05-2024 19:00:00,23.811548,86.481238,NO2,13,14,14
India,Jharkhand,Dhanbad,"Sardar Patel Nagar, Dhanbad - JSPCB",15-05-2024 19:00:00,23.80569,86.44268,NO2,NA,NA,NA
India,Karnataka,Bagalkot,"Vidayagiri, Bagalkot - KSPCB",15-05-2024 19:00:00,16.172806,75.659694,PM2.5,25,37,36
India,Karnataka,Bagalkot,"Vidayagiri, Bagalkot - KSPCB",15-05-2024 19:00:00,16.172806,75.659694,PM10,45,46,46
India,Karnataka,Bagalkot,"Vidayagiri, Bagalkot - KSPCB",15-05-2024 19:00:00,16.172806,75.659694,OZONE,27,36,32
India,Karnataka,Belgaum,"Ramteerth Nagar, Belgaum - KSPCB",15-05-2024 19:00:00,15.888653,74.541751,SO2,NA,NA,NA
India,Karnataka,Belgaum,"Ramteerth Nagar, Belgaum - KSPCB",15-05-2024 19:00:00,15.888653,74.541751,CO,34,48,35
India,Karnataka,Bengaluru,"Bapuji Nagar, Bengaluru - KSPCB",15-05-2024 19:00:00,12.951913,77.539784,PM10,38,142,77
India,Karnataka,Bengaluru,"Bapuji Nagar, Bengaluru - KSPCB",15-05-2024 19:00:00,12.951913,77.539784,SO2,5,8,6
India,Karnataka,Bengaluru,"Bapuji Nagar, Bengaluru - KSPCB",15-05-2024 19:00:00,12.951913,77.539784,CO,10,86,52
India,Karnataka,Bengaluru,"Hebbal, Bengaluru - KSPCB",15-05-2024 19:00:00,13.029152,77.585901,OZONE,8,142,66
India,Karnataka,Bengaluru,"Kasturi Nagar, Bengaluru - KSPCB",15-05-2024 19:00:00,13.003872,77.664217,PM2.5,7,7,7
India,Karnataka,Bengaluru,"Kasturi Nagar, Bengaluru - KSPCB",15-05-2024 19:00:00,13.003872,77.664217,PM10,10,10,10
India,Karnataka,Bengaluru,"Kasturi Nagar, Bengaluru - KSPCB",15-05-2024 19:00:00,13.003872,77.664217,NO2,16,17,17
India,Karnataka,Bengaluru,"Peenya, Bengaluru - CPCB",15-05-2024 19:00:00,13.0270199,77.494094,PM10,40,69,47
India,Karnataka,Bengaluru,"Peenya, Bengaluru - CPCB",15-05-2024 19:00:00,13.0270199,77.494094,OZONE,20,40,33
India,Karnataka,Bengaluru,"RVCE-Mailasandra, Bengaluru - KSPCB",15-05-2024 19:00:00,12.921418,77.502466,CO,28,49,42
India,Karnataka,Bengaluru,"Sanegurava Halli, Bengaluru - KSPCB",15-05-2024 19:00:00,12.990328,77.5431385,SO2,2,4,3
India,Karnataka,Bengaluru,"Sanegurava Halli, Bengaluru - KSPCB",15-05-2024 19:00:00,12.990328,77.5431385,CO,3,46,16
India,Karnataka,Bengaluru,"Shivapura_Peenya, Bengaluru - KSPCB",15-05-2024 19:00:00,13.0246342,77.5080115,PM2.5,1,7,3
India,Karnataka,Bengaluru,"Silk Board, Bengaluru - KSPCB",15-05-2024 19:00:00,12.917348,77.622813,PM10,47,258,115
India,Karnataka,Bengaluru,"Silk Board, Bengaluru - KSPCB",15-05-2024 19:00:00,12.917348,77.622813,NH3,NA,NA,NA
India,Karnataka,Bidar,"Naubad, Bidar - KSPCB",15-05-2024 19:00:00,17.930306,77.482194,SO2,NA,NA,NA
India,Karnataka,Chamarajanagar,"Urban, Chamarajanagar - KSPCB",15-05-2024 19:00:00,11.55358,76.55521,NH3,1,2,2
India,Karnataka,Chikkaballapur,"Chikkaballapur Rural, Chikkaballapur - KSPCB",15-05-2024 19:00:00,13.428828,77.731418,PM10,34,66,48
India,Karnataka,Chikkaballapur,"Chikkaballapur Rural, Chikkaballapur - KSPCB",15-05-2024 19:00:00,13.428828,77.731418,NH3,1,2,1
India,Karnataka,Chikkaballapur,"Chikkaballapur Rural, Chikkaballapur - KSPCB",15-05-2024 19:00:00,13.428828,77.731418,CO,8,24,15
India,Karnataka,Davanagere,"Devaraj Urs Badavane, Davanagere - KSPCB",15-05-2024 19:00:00,14.475800,75.905200,NO2,12,14,13
India,Karnataka,Davanagere,"Devaraj Urs Badavane, Davanagere - KSPCB",15-05-2024 19:00:00,14.475800,75.905200,CO,20,24,21
India,Karnataka,Davanagere,"Devaraj Urs Badavane, Davanagere - KSPCB",15-05-2024 19:00:00,14.475800,75.905200,OZONE,18,20,18
India,Karnataka,Gadag,"Panchal Nagar, Gadag - KSPCB",15-05-2024 19:00:00,15.411456,75.638133,PM10,NA,NA,NA
India,Karnataka,Hassan,"B.Katihalli, Hassan - KSPCB",15-05-2024 19:00:00,13.008556,76.125258,NH3,4,5,4
India,Karnataka,Hassan,"B.Katihalli, Hassan - KSPCB",15-05-2024 19:00:00,13.008556,76.125258,SO2,118,123,121
India,Karnataka,Haveri,"Ashwini Nagar, Haveri - KSPCB",15-05-2024 19:00:00,14.791800,75.389600,PM10,NA,NA,NA
India,Karnataka,Haveri,"Ashwini Nagar, Haveri - KSPCB",15-05-2024 19:00:00,14.791800,75.389600,SO2,NA,NA,NA
India,Karnataka,Hubballi,"Lingaraj Nagar, Hubballi - KSPCB",15-05-2024 19:00:00,15.3714823,75.1160168,PM10,48,89,63
India,Karnataka,Kalaburagi,"Lal Bahadur Shastri Nagar, Kalaburagi - KSPCB",15-05-2024 19:00:00,17.321993,76.822628,NO2,10,12,11
India,Karnataka,Kalaburagi,"Lal Bahadur Shastri Nagar, Kalaburagi - KSPCB",15-05-2024 19:00:00,17.321993,76.822628,CO,44,50,46
India,Karnataka,Kalaburagi,"Lal Bahadur Shastri Nagar, Kalaburagi - KSPCB",15-05-2024 19:00:00,17.321993,76.822628,OZONE,34,83,62
India,Karnataka,Karwar,"KHB Colony, Karwar - KSPCB",15-05-2024 19:00:00,14.816666,74.141003,PM2.5,20,58,34
India,Karnataka,Karwar,"KHB Colony, Karwar - KSPCB",15-05-2024 19:00:00,14.816666,74.141003,NO2,1,9,2
India,Karnataka,Karwar,"KHB Colony, Karwar - KSPCB",15-05-2024 19:00:00,14.816666,74.141003,OZONE,22,22,22
India,Karnataka,Koppal,"Diwator Nagar, Koppal - KSPCB",15-05-2024 19:00:00,15.347630,76.181767,PM10,14,41,26
India,Karnataka,Koppal,"Diwator Nagar, Koppal - KSPCB",15-05-2024 19:00:00,15.347630,76.181767,NO2,31,63,50
India,Karnataka,Koppal,"Diwator Nagar, Koppal - KSPCB",15-05-2024 19:00:00,15.347630,76.181767,SO2,25,39,28
India,Karnataka,Madikeri,"Stuart Hill, Madikeri - KSPCB",15-05-2024 19:00:00,12.415911,75.735050,PM2.5,10,36,24
India,Karnataka,Madikeri,"Stuart Hill, Madikeri - KSPCB",15-05-2024 19:00:00,12.415911,75.735050,SO2,4,4,4
India,Karnataka,Mangalore,"Kadri, Mangalore - KSPCB",15-05-2024 19:00:00,12.889250,74.853000,PM2.5,17,43,28
India,Karnataka,Mangalore,"Kadri, Mangalore - KSPCB",15-05-2024 19:00:00,12.889250,74.853000,NO2,5,6,6
India,Karnataka,Mysuru,"Hebbal 1st Stage, Mysuru - KSPCB",15-05-2024 19:00:00,12.21041,76.37376,SO2,NA,NA,NA
India,Karnataka,Raichur,"Haji Colony, Raichur - KSPCB",15-05-2024 19:00:00,16.208139,77.348417,CO,88,108,102
India,Karnataka,Tumakuru,"Thimmalapura, Tumakuru - KSPCB",15-05-2024 19:00:00,13.377516,77.099072,CO,30,36,32
