country,state,city,station,last_update,latitude,longitude,pollutant_id,pollutant_min,pollutant_max,pollutant_avg
India,Andhra_Pradesh,Amaravati,"Secretariat, Amaravati - APPCB",25-02-2024 19:00:00,16.5150833,80.5181667,NH3,4,5,4
India,Andhra_Pradesh,Amaravati,"Secretariat, Amaravati - APPCB",25-02-2024 19:00:00,16.5150833,80.5181667,SO2,10,14,12
India,Andhra_Pradesh,Anantapur,"Gulzarpet, Anantapur - APPCB",25-02-2024 19:00:00,14.675886,77.593027,SO2,12,14,13
India,Andhra_Pradesh,Anantapur,"Gulzarpet, Anantapur - APPCB",25-02-2024 19:00:00,14.675886,77.593027,CO,30,86,36
India,Andhra_Pradesh,Chittoor,"Gangineni Cheruvu, Chittoor - APPCB",25-02-2024 19:00:00,13.204880,79.097889,NH3,1,2,1
India,Andhra_Pradesh,Chittoor,"Gangineni Cheruvu, Chittoor - APPCB",25-02-2024 19:00:00,13.204880,79.097889,SO2,7,26,13
India,Andhra_Pradesh,Kadapa,"Yerramukkapalli, Kadapa - APPCB",25-02-2024 19:00:00,14.465052,78.824187,PM10,12,66,36
India,Andhra_Pradesh,Tirupati,"Tirumala, Tirupati - APPCB",25-02-2024 19:00:00,13.67,79.35,NO2,22,40,30
India,Andhra_Pradesh,Tirupati,"Vaikuntapuram, Tirupati - APPCB",25-02-2024 19:00:00,13.615387,79.409230,PM10,19,86,41
India,Andhra_Pradesh,Vijayawada,"HB Colony, Vijayawada - APPCB",25-02-2024 19:00:00,16.536107,80.594233,PM2.5,51,61,56
India,Andhra_Pradesh,Vijayawada,"HB Colony, Vijayawada - APPCB",25-02-2024 19:00:00,16.536107,80.594233,CO,18,18,18
India,Andhra_Pradesh,Vijayawada,"Kanuru, Vijayawada - APPCB",25-02-2024 19:00:00,16.486692,80.699436,NH3,1,1,1
India,Andhra_Pradesh,Vijayawada,"Kanuru, Vijayawada - APPCB",25-02-2024 19:00:00,16.486692,80.699436,CO,36,66,50
India,Andhra_Pradesh,Vijayawada,"Rajiv Nagar, Vijayawada - APPCB",25-02-2024 19:00:00,16.554731,80.649110,PM2.5,39,430,123
India,Andhra_Pradesh,Visakhapatnam,"GVM Corporation, Visakhapatnam - APPCB",25-02-2024 19:00:00,17.72,83.3,NO2,4,49,28
India,Andhra_Pradesh,Visakhapatnam,"GVM Corporation, Visakhapatnam - APPCB",25-02-2024 19:00:00,17.72,83.3,NH3,3,6,4
India,Andhra_Pradesh,Visakhapatnam,"GVM Corporation, Visakhapatnam - APPCB",25-02-2024 19:00:00,17.72,83.3,SO2,9,14,12
India,Arunachal_Pradesh,Naharlagun,"Naharlagun, Naharlagun - APSPCB",25-02-2024 19:00:00,27.103358,93.679645,PM2.5,22,188,86
India,Arunachal_Pradesh,Naharlagun,"Naharlagun, Naharlagun - APSPCB",25-02-2024 19:00:00,27.103358,93.679645,PM10,24,123,76
India,Arunachal_Pradesh,Naharlagun,"Naharlagun, Naharlagun - APSPCB",25-02-2024 19:00:00,27.103358,93.679645,NO2,2,3,3
India,Arunachal_Pradesh,Naharlagun,"Naharlagun, Naharlagun - APSPCB",25-02-2024 19:00:00,27.103358,93.679645,CO,10,44,17
India,Assam,Byrnihat,"Central Academy for SFS, Byrnihat - PCBA",25-02-2024 19:00:00,26.071318,91.87488,PM2.5,193,500,331
India,Assam,Byrnihat,"Central Academy for SFS, Byrnihat - PCBA",25-02-2024 19:00:00,26.071318,91.87488,PM10,149,500,264
India,Assam,Byrnihat,"Central Academy for SFS, Byrnihat - PCBA",25-02-2024 19:00:00,26.071318,91.87488,NH3,6,8,8
India,Assam,Guwahati,"IITG, Guwahati - PCBA",25-02-2024 19:00:00,26.2028636,91.70046436,SO2,12,15,13
India,Assam,Guwahati,"LGBI Airport, Guwahati - PCBA",25-02-2024 19:00:00,26.10887,91.589544,PM2.5,92,395,205
India,Assam,Guwahati,"LGBI Airport, Guwahati - PCBA",25-02-2024 19:00:00,26.10887,91.589544,PM10,91,320,148
India,Assam,Guwahati,"Pan Bazaar, Guwahati - PCBA",25-02-2024 19:00:00,26.187500,91.744194,PM2.5,104,336,225
India,Assam,Guwahati,"Railway Colony, Guwahati - PCBA",25-02-2024 19:00:00,26.181742,91.78063,CO,36,106,47
India,Assam,Nagaon,"Christianpatty, Nagaon - PCBA",25-02-2024 19:00:00,26.349082,92.68449,PM10,29,382,177
India,Assam,Nalbari,"Bata Chowk, Nalbari - PCBA",25-02-2024 19:00:00,26.446912,91.439057,PM2.5,153,417,285
India,Assam,Nalbari,"Bata Chowk, Nalbari - PCBA",25-02-2024 19:00:00,26.446912,91.439057,PM10,117,481,209
India,Assam,Sivasagar,"Girls College, Sivasagar - PCBA",25-02-2024 19:00:00,26.987634,94.636574,SO2,5,5,5
India,Assam,Sivasagar,"Girls College, Sivasagar - PCBA",25-02-2024 19:00:00,26.987634,94.636574,CO,14,27,26
India,Bihar,Araria,"Kharahiya Basti, Araria - BSPCB",25-02-2024 19:00:00,26.146529,87.454184,PM2.5,61,312,202
India,Bihar,Arrah,"New DM Office, Arrah - BSPCB",25-02-2024 19:00:00,25.5626095,84.663264,PM2.5,30,332,132
India,Bihar,Arrah,"New DM Office, Arrah - BSPCB",25-02-2024 19:00:00,25.5626095,84.663264,CO,5,57,9
India,Bihar,Aurangabad,"Gurdeo Nagar, Aurangabad - BSPCB",25-02-2024 19:00:00,24.75746,84.366208,OZONE,2,37,25
India,Bihar,Bettiah,"Kamalnath Nagar, Bettiah - BSPCB",25-02-2024 19:00:00,26.80365,84.51954,CO,62,68,63
India,Bihar,Bhagalpur,"DM Office_Kachari Chowk, Bhagalpur - BSPCB",25-02-2024 19:00:00,25.251013,86.989001,PM10,73,334,128
India,Bihar,Bhagalpur,"DM Office_Kachari Chowk, Bhagalpur - BSPCB",25-02-2024 19:00:00,25.251013,86.989001,NO2,33,118,50
India,Bihar,Bhagalpur,"Mayaganj, Bhagalpur - BSPCB",25-02-2024 19:00:00,25.265194,87.012947,PM10,70,197,109
India,Bihar,Bhagalpur,"Mayaganj, Bhagalpur - BSPCB",25-02-2024 19:00:00,25.265194,87.012947,NH3,7,8,8
India,Bihar,Bihar Sharif,"D M Colony, Bihar Sharif - BSPCB",25-02-2024 19:00:00,25.204762,85.514960,CO,1,66,19
India,Bihar,Buxar,"Charitra Van, Buxar - BSPCB (Formerly known as Central Jail)",25-02-2024 19:00:00,25.567520,83.966379,PM2.5,NA,NA,NA
India,Bihar,Chhapra,"Darshan Nagar, Chhapra - BSPCB",25-02-2024 19:00:00,25.7808257,84.7446768,PM10,62,259,134
India,Bihar,Gaya,"Collectorate, Gaya - BSPCB",25-02-2024 19:00:00,24.7955,84.9994,SO2,5,15,9
India,Bihar,Gaya,"Kareemganj, Gaya - BSPCB",25-02-2024 19:00:00,24.792403,84.992416,SO2,5,10,8
India,Bihar,Katihar,"Mirchaibari, Katihar - BSPCB",25-02-2024 19:00:00,25.560083,87.553265,CO,13,101,23
India,Bihar,Kishanganj,"SDM Office_Khagra, Kishanganj - BSPCB",25-02-2024 19:00:00,26.0881305,87.93840336,SO2,28,37,33
India,Bihar,Kishanganj,"SDM Office_Khagra, Kishanganj - BSPCB",25-02-2024 19:00:00,26.0881305,87.93840336,OZONE,15,25,17
India,Bihar,Motihari,"Gandak Colony, Motihari - BSPCB",25-02-2024 19:00:00,26.63086,84.90051,NO2,44,79,61
India,Bihar,Motihari,"Gandak Colony, Motihari - BSPCB",25-02-2024 19:00:00,26.63086,84.90051,CO,14,129,43
India,Bihar,Motihari,"Gandak Colony, Motihari - BSPCB",25-02-2024 19:00:00,26.63086,84.90051,OZONE,36,202,144
India,Bihar,Muzaffarpur,"MIT-Daudpur Kothi, Muzaffarpur - BSPCB",25-02-2024 19:00:00,26.1403345,85.3650192,CO,3,110,55
India,Bihar,Muzaffarpur,"MIT-Daudpur Kothi, Muzaffarpur - BSPCB",25-02-2024 19:00:00,26.1403345,85.3650192,OZONE,10,83,67
India,Bihar,Patna,"Govt. High School Shikarpur, Patna - BSPCB",25-02-2024 19:00:00,25.592539,85.227158,PM2.5,99,241,183
India,Bihar,Patna,"Rajbansi Nagar, Patna - BSPCB",25-02-2024 19:00:00,25.599486,85.113666,PM2.5,56,207,126
India,Bihar,Patna,"Rajbansi Nagar, Patna - BSPCB",25-02-2024 19:00:00,25.599486,85.113666,OZONE,1,55,43
India,Bihar,Patna,"Samanpura, Patna - BSPCB",25-02-2024 19:00:00,25.596727,85.085624,NO2,57,171,102
India,Bihar,Patna,"Samanpura, Patna - BSPCB",25-02-2024 19:00:00,25.596727,85.085624,OZONE,5,53,45
India,Bihar,Purnia,"Mariam Nagar, Purnia - BSPCB",25-02-2024 19:00:00,25.366336,87.117468,PM2.5,8,177,94
India,Bihar,Purnia,"Mariam Nagar, Purnia - BSPCB",25-02-2024 19:00:00,25.366336,87.117468,CO,12,92,40
India,Bihar,Rajgir,"Dangi Tola, Rajgir - BSPCB",25-02-2024 19:00:00,25.03280,85.41948,PM10,27,115,73
India,Bihar,Rajgir,"Dangi Tola, Rajgir - BSPCB",25-02-2024 19:00:00,25.03280,85.41948,NO2,1,1,1
India,Bihar,Rajgir,"Dangi Tola, Rajgir - BSPCB",25-02-2024 19:00:00,25.03280,85.41948,OZONE,22,26,24
India,Bihar,Samastipur,"DM Office_Kasipur, Samastipur - BSPCB",25-02-2024 19:00:00,25.859655,85.77944,PM10,53,341,129
India,Bihar,Samastipur,"DM Office_Kasipur, Samastipur - BSPCB",25-02-2024 19:00:00,25.859655,85.77944,SO2,1,16,7
India,Bihar,Sasaram,"Dada Peer, Sasaram - BSPCB",25-02-2024 19:00:00,24.952822,84.002396,PM2.5,27,308,90
India,Bihar,Sasaram,"Dada Peer, Sasaram - BSPCB",25-02-2024 19:00:00,24.952822,84.002396,NO2,13,35,21
India,Bihar,Siwan,"Chitragupta Nagar, Siwan - BSPCB",25-02-2024 19:00:00,26.2271665,84.3570427,NO2,9,52,21
India,Bihar,Siwan,"Chitragupta Nagar, Siwan - BSPCB",25-02-2024 19:00:00,26.2271665,84.3570427,NH3,1,6,2
India,Bihar,Siwan,"Chitragupta Nagar, Siwan - BSPCB",25-02-2024 19:00:00,26.2271665,84.3570427,CO,46,135,98
India,Chandigarh,Chandigarh,"Sector 22, Chandigarh - CPCC",25-02-2024 19:00:00,30.735567,76.775714,NO2,17,108,44
India,Chandigarh,Chandigarh,"Sector 22, Chandigarh - CPCC",25-02-2024 19:00:00,30.735567,76.775714,OZONE,3,173,141
India,Chandigarh,Chandigarh,"Sector-25, Chandigarh - CPCC",25-02-2024 19:00:00,30.751462,76.762879,CO,13,78,17
India,Chandigarh,Chandigarh,"Sector-53, Chandigarh - CPCC",25-02-2024 19:00:00,30.719859,76.738637,PM10,59,162,100
India,Chandigarh,Chandigarh,"Sector-53, Chandigarh - CPCC",25-02-2024 19:00:00,30.719859,76.738637,NO2,33,118,69
India,Chandigarh,Chandigarh,"Sector-53, Chandigarh - CPCC",25-02-2024 19:00:00,30.719859,76.738637,NH3,3,4,4
India,Chhattisgarh,Chhal,"Nawapara SECL Colony, Chhal - CECB",25-02-2024 19:00:00,22.118125,83.140608,PM2.5,4,111,20
India,Chhattisgarh,Chhal,"Nawapara SECL Colony, Chhal - CECB",25-02-2024 19:00:00,22.118125,83.140608,SO2,14,27,19
India,Chhattisgarh,Korba,"Rampur, Korba - CECB",25-02-2024 19:00:00,22.368195,82.746431,NH3,2,4,3
India,Chhattisgarh,Korba,"Rampur, Korba - CECB",25-02-2024 19:00:00,22.368195,82.746431,CO,17,22,18
India,Chhattisgarh,Korba,"Urja Nagar, Korba - CECB",25-02-2024 19:00:00,22.348441,82.549611,NH3,6,8,7
India,Chhattisgarh,Kunjemura,"OP Jindal School, Kunjemura - CECB",25-02-2024 19:00:00,22.126650,83.483212,OZONE,46,67,60
India,Chhattisgarh,Milupara,"Govt. Higher Secondary School, Milupara - CECB",25-02-2024 19:00:00,22.1910172,83.5197009,PM2.5,18,72,39
India,Chhattisgarh,Raipur,"AIIMS, Raipur - CECB",25-02-2024 19:00:00,21.258815,81.578979,NH3,4,4,4
India,Chhattisgarh,Tumidih,"OP Jindal Industrial Park, Tumidih - CECB",25-02-2024 19:00:00,22.06631475,83.33820077,PM2.5,20,50,29
India,Chhattisgarh,Tumidih,"OP Jindal Industrial Park, Tumidih - CECB",25-02-2024 19:00:00,22.06631475,83.33820077,NO2,7,42,14
India,Delhi,Delhi,"Alipur, Delhi - DPCC",25-02-2024 19:00:00,28.815329,77.153010,OZONE,7,149,112
India,Delhi,Delhi,"Anand Vihar, Delhi - DPCC",25-02-2024 19:00:00,28.647622,77.3158090,PM2.5,42,358,232
India,Delhi,Delhi,"Anand Vihar, Delhi - DPCC",25-02-2024 19:00:00,28.647622,77.3158090,CO,8,110,18
India,Delhi,Delhi,"Ashok Vihar, Delhi - DPCC",25-02-2024 19:00:00,28.695381,77.181665,SO2,23,49,31
India,Delhi,Delhi,"Burari Crossing, Delhi - IMD",25-02-2024 19:00:00,28.7256504,77.2011573,CO,37,58,42
India,Delhi,Delhi,"Chandni Chowk, Delhi - IITM",25-02-2024 19:00:00,28.656756,77.227234,NH3,7,8,8
India,Delhi,Delhi,"DTU, Delhi - CPCB",25-02-2024 19:00:00,28.7500499,77.1112615,OZONE,22,65,32
India,Delhi,Delhi,"Dr. Karni Singh Shooting Range, Delhi - DPCC",25-02-2024 19:00:00,28.498571,77.264840,NO2,27,169,90
India,Delhi,Delhi,"Dr. Karni Singh Shooting Range, Delhi - DPCC",25-02-2024 19:00:00,28.498571,77.264840,CO,17,113,25
India,Delhi,Delhi,"Dr. Karni Singh Shooting Range, Delhi - DPCC",25-02-2024 19:00:00,28.498571,77.264840,OZONE,1,175,140
India,Delhi,Delhi,"Dwarka-Sector 8, Delhi - DPCC ",25-02-2024 19:00:00,28.5710274,77.0719006,SO2,3,18,8
India,Delhi,Delhi,"Dwarka-Sector 8, Delhi - DPCC ",25-02-2024 19:00:00,28.5710274,77.0719006,CO,14,115,22
India,Delhi,Delhi,"Dwarka-Sector 8, Delhi - DPCC ",25-02-2024 19:00:00,28.5710274,77.0719006,OZONE,1,83,66
India,Delhi,Delhi,"IHBAS, Dilshad Garden, Delhi - CPCB",25-02-2024 19:00:00,28.6811736,77.3025234,NO2,10,40,29
India,Delhi,Delhi,"IHBAS, Dilshad Garden, Delhi - CPCB",25-02-2024 19:00:00,28.6811736,77.3025234,SO2,3,41,13
India,Delhi,Delhi,"ITO, Delhi - CPCB",25-02-2024 19:00:00,28.628624,77.241060,PM10,61,279,155
India,Delhi,Delhi,"ITO, Delhi - CPCB",25-02-2024 19:00:00,28.628624,77.241060,NH3,4,10,6
India,Delhi,Delhi,"ITO, Delhi - CPCB",25-02-2024 19:00:00,28.628624,77.241060,OZONE,11,86,59
India,Delhi,Delhi,"Jahangirpuri, Delhi - DPCC",25-02-2024 19:00:00,28.732820,77.170633,NH3,14,23,18
India,Delhi,Delhi,"Jawaharlal Nehru Stadium, Delhi - DPCC",25-02-2024 19:00:00,28.580280,77.233829,PM10,63,244,145
India,Delhi,Delhi,"Jawaharlal Nehru Stadium, Delhi - DPCC",25-02-2024 19:00:00,28.580280,77.233829,CO,24,116,32
India,Delhi,Delhi,"Lodhi Road, Delhi - IMD",25-02-2024 19:00:00,28.5918245,77.2273074,PM10,70,169,121
India,Delhi,Delhi,"Major Dhyan Chand National Stadium, Delhi - DPCC",25-02-2024 19:00:00,28.611281,77.237738,NO2,35,190,101
India,Delhi,Delhi,"Mandir Marg, Delhi - DPCC",25-02-2024 19:00:00,28.636429,77.201067,PM2.5,42,276,143
India,Delhi,Delhi,"Mandir Marg, Delhi - DPCC",25-02-2024 19:00:00,28.636429,77.201067,NH3,15,16,15
India,Delhi,Delhi,"Mundka, Delhi - DPCC",25-02-2024 19:00:00,28.684678,77.076574,CO,18,80,35
India,Delhi,Delhi,"NSIT Dwarka, Delhi - CPCB",25-02-2024 19:00:00,28.60909,77.0325413,SO2,12,22,14
India,Delhi,Delhi,"Najafgarh, Delhi - DPCC",25-02-2024 19:00:00,28.570173,76.933762,NH3,NA,NA,NA
India,Delhi,Delhi,"Najafgarh, Delhi - DPCC",25-02-2024 19:00:00,28.570173,76.933762,SO2,NA,NA,NA
India,Delhi,Delhi,"Nehru Nagar, Delhi - DPCC",25-02-2024 19:00:00,28.567890,77.250515,PM2.5,46,393,218
India,Delhi,Delhi,"Patparganj, Delhi - DPCC",25-02-2024 19:00:00,28.623763,77.287209,NH3,7,13,10
India,Delhi,Delhi,"Punjabi Bagh, Delhi - DPCC",25-02-2024 19:00:00,28.674045,77.131023,PM10,74,406,180
India,Delhi,Delhi,"Punjabi Bagh, Delhi - DPCC",25-02-2024 19:00:00,28.674045,77.131023,NH3,1,2,2
India,Delhi,Delhi,"Pusa, Delhi - DPCC",25-02-2024 19:00:00,28.639652,77.146275,NH3,4,9,7
India,Delhi,Delhi,"R K Puram, Delhi - DPCC",25-02-2024 19:00:00,28.563262,77.186937,NO2,13,52,31
India,Delhi,Delhi,"R K Puram, Delhi - DPCC",25-02-2024 19:00:00,28.563262,77.186937,NH3,1,2,1
India,Delhi,Delhi,"Rohini, Delhi - DPCC",25-02-2024 19:00:00,28.732528,77.119920,NH3,8,9,8
India,Delhi,Delhi,"Shadipur, Delhi - CPCB",25-02-2024 19:00:00,28.6514781,77.1473105,NO2,43,60,53
India,Delhi,Delhi,"Sirifort, Delhi - CPCB",25-02-2024 19:00:00,28.5504249,77.2159377,PM10,25,119,65
India,Delhi,Delhi,"Sirifort, Delhi - CPCB",25-02-2024 19:00:00,28.5504249,77.2159377,NO2,174,227,199
India,Delhi,Delhi,"Sirifort, Delhi - CPCB",25-02-2024 19:00:00,28.5504249,77.2159377,NH3,7,12,10
India,Delhi,Delhi,"Sirifort, Delhi - CPCB",25-02-2024 19:00:00,28.5504249,77.2159377,OZONE,15,68,46
India,Delhi,Delhi,"Sonia Vihar, Delhi - DPCC",25-02-2024 19:00:00,28.710508,77.249485,PM2.5,37,323,191
India,Delhi,Delhi,"Sonia Vihar, Delhi - DPCC",25-02-2024 19:00:00,28.710508,77.249485,PM10,82,286,172
India,Delhi,Delhi,"Sonia Vihar, Delhi - DPCC",25-02-2024 19:00:00,28.710508,77.249485,NH3,4,13,6
India,Delhi,Delhi,"Sonia Vihar, Delhi - DPCC",25-02-2024 19:00:00,28.710508,77.249485,SO2,6,86,21
India,Delhi,Delhi,"Sri Aurobindo Marg, Delhi - DPCC",25-02-2024 19:00:00,28.531346,77.190156,NO2,24,110,58
India,Delhi,Delhi,"Vivek Vihar, Delhi - DPCC",25-02-2024 19:00:00,28.672342,77.315260,PM10,71,266,171
India,Delhi,Delhi,"Wazirpur, Delhi - DPCC",25-02-2024 19:00:00,28.699793,77.165453,PM2.5,22,345,176
India,Delhi,Delhi,"Wazirpur, Delhi - DPCC",25-02-2024 19:00:00,28.699793,77.165453,PM10,75,292,173
India,Gujarat,Ahmedabad,"Chandkheda, Ahmedabad - IITM",25-02-2024 19:00:00,23.107969,72.574648,NO2,28,37,34
India,Gujarat,Ahmedabad,"Maninagar, Ahmedabad - GPCB",25-02-2024 19:00:00,23.002657,72.591912,OZONE,7,37,34
India,Gujarat,Ahmedabad,"Raikhad, Ahmedabad - IITM",25-02-2024 19:00:00,23.020509,72.579261,PM2.5,78,230,146
India,Gujarat,Ahmedabad,"Raikhad, Ahmedabad - IITM",25-02-2024 19:00:00,23.020509,72.579261,SO2,4,12,7
India,Gujarat,Ahmedabad,"Raikhad, Ahmedabad - IITM",25-02-2024 19:00:00,23.020509,72.579261,CO,2,54,14
India,Gujarat,Ahmedabad,"SAC ISRO Bopal, Ahmedabad - IITM",25-02-2024 19:00:00,23.041137,72.456691,NH3,3,4,3
India,Gujarat,Ahmedabad,"Sardar Vallabhbhai Patel Stadium, Ahmedabad - IITM",25-02-2024 19:00:00,23.043070,72.562968,PM10,63,117,91
India,Gujarat,Ahmedabad,"Sardar Vallabhbhai Patel Stadium, Ahmedabad - IITM",25-02-2024 19:00:00,23.043070,72.562968,OZONE,18,25,25
India,Gujarat,Ankleshwar,"GIDC, Ankleshwar - GPCB",25-02-2024 19:00:00,21.613267,73.010555,PM10,58,120,87
India,Gujarat,Gandhinagar,"IIPHG Lekawada, Gandhinagar - IITM",25-02-2024 19:00:00,23.243639,72.68994,NO2,32,33,32
India,Gujarat,Gandhinagar,"Sector-10, Gandhinagar - GPCB",25-02-2024 19:00:00,23.221714,72.654328,PM2.5,10,46,28
India,Gujarat,Gandhinagar,"Sector-10, Gandhinagar - GPCB",25-02-2024 19:00:00,23.221714,72.654328,CO,39,82,42
India,Gujarat,Vapi,"Phase-1 GIDC, Vapi - GPCB",25-02-2024 19:00:00,20.362421,72.918013,SO2,45,46,46
India,Haryana,Ambala,"Patti Mehar, Ambala - HSPCB",25-02-2024 19:00:00,30.379589,76.778328,NH3,7,7,7
India,Haryana,Bahadurgarh,"Arya Nagar, Bahadurgarh - HSPCB",25-02-2024 19:00:00,28.6701,76.9254,PM10,92,166,135
India,Haryana,Bahadurgarh,"Arya Nagar, Bahadurgarh - HSPCB",25-02-2024 19:00:00,28.6701,76.9254,OZONE,40,48,45
India,Haryana,Charkhi Dadri,"Mini Secretariat, Charkhi Dadri - HSPCB",25-02-2024 19:00:00,28.593883,76.270653,PM10,47,130,84
India,Haryana,Charkhi Dadri,"Mini Secretariat, Charkhi Dadri - HSPCB",25-02-2024 19:00:00,28.593883,76.270653,CO,8,15,12
India,Haryana,Dharuhera,"Municipal Corporation Office, Dharuhera -  HSPCB",25-02-2024 19:00:00,28.206800,76.799700,PM10,95,288,178
India,Haryana,Dharuhera,"Municipal Corporation Office, Dharuhera -  HSPCB",25-02-2024 19:00:00,28.206800,76.799700,NO2,44,113,72
India,Haryana,Dharuhera,"Municipal Corporation Office, Dharuhera -  HSPCB",25-02-2024 19:00:00,28.206800,76.799700,NH3,9,26,19
India,Haryana,Faridabad,"New Industrial Town, Faridabad - HSPCB",25-02-2024 19:00:00,28.39072,77.30059,PM2.5,3,320,68
India,Haryana,Faridabad,"New Industrial Town, Faridabad - HSPCB",25-02-2024 19:00:00,28.39072,77.30059,NO2,15,21,17
India,Haryana,Faridabad,"New Industrial Town, Faridabad - HSPCB",25-02-2024 19:00:00,28.39072,77.30059,SO2,1,9,4
India,Haryana,Faridabad,"New Industrial Town, Faridabad - HSPCB",25-02-2024 19:00:00,28.39072,77.30059,OZONE,27,155,124
India,Haryana,Faridabad,"Sector 11, Faridabad - HSPCB",25-02-2024 19:00:00,28.376058,77.315741,NO2,30,33,31
India,Haryana,Faridabad,"Sector 11, Faridabad - HSPCB",25-02-2024 19:00:00,28.376058,77.315741,SO2,8,9,8
India,Haryana,Faridabad,"Sector- 16A, Faridabad - HSPCB",25-02-2024 19:00:00,28.4088421,77.3099081,PM2.5,NA,NA,NA
India,Haryana,Faridabad,"Sector- 16A, Faridabad - HSPCB",25-02-2024 19:00:00,28.4088421,77.3099081,CO,3,3,3
India,Haryana,Fatehabad,"Huda Sector, Fatehabad - HSPCB",25-02-2024 19:00:00,29.503664,75.467934,OZONE,NA,NA,NA
India,Haryana,Gurugram,"Sector-51, Gurugram - HSPCB",25-02-2024 19:00:00,28.4227,77.0667,CO,30,100,36
India,Haryana,Gurugram,"Teri Gram, Gurugram - HSPCB",25-02-2024 19:00:00,28.4275,77.1465,PM10,103,359,193
India,Haryana,Hisar,"Urban Estate-II, Hisar - HSPCB",25-02-2024 19:00:00,29.140560,75.744941,PM10,51,128,77
India,Haryana,Hisar,"Urban Estate-II, Hisar - HSPCB",25-02-2024 19:00:00,29.140560,75.744941,SO2,2,28,16
India,Haryana,Jind,"Police Lines, Jind - HSPCB",25-02-2024 19:00:00,29.307814,76.337619,NO2,NA,NA,NA
India,Haryana,Kaithal,"Rishi Nagar, Kaithal - HSPCB",25-02-2024 19:00:00,29.8006,76.4155,CO,20,30,25
India,Haryana,Manesar,"Sector-2 IMT, Manesar - HSPCB",25-02-2024 19:00:00,28.360699,76.936090,PM2.5,65,247,166
India,Haryana,Manesar,"Sector-2 IMT, Manesar - HSPCB",25-02-2024 19:00:00,28.360699,76.936090,OZONE,5,70,55
India,Haryana,Narnaul,"Shastri Nagar, Narnaul - HSPCB",25-02-2024 19:00:00,28.060249,76.113115,PM2.5,30,114,50
India,Haryana,Narnaul,"Shastri Nagar, Narnaul - HSPCB",25-02-2024 19:00:00,28.060249,76.113115,NH3,5,18,11
India,Haryana,Narnaul,"Shastri Nagar, Narnaul - HSPCB",25-02-2024 19:00:00,28.060249,76.113115,CO,8,16,10
India,Haryana,Palwal,"Shyam Nagar, Palwal - HSPCB",25-02-2024 19:00:00,28.1485564,77.3320667,CO,23,34,28
India,Haryana,Panchkula,"Sector-6, Panchkula - HSPCB ",25-02-2024 19:00:00,30.7057778,76.8531805555555,NO2,28,30,29
India,Haryana,Panchkula,"Sector-6, Panchkula - HSPCB ",25-02-2024 19:00:00,30.7057778,76.8531805555555,SO2,11,12,12
India,Haryana,Sirsa,"F-Block, Sirsa - HSPCB",25-02-2024 19:00:00,29.536400,75.015800,SO2,2,16,8
India,Haryana,Sirsa,"F-Block, Sirsa - HSPCB",25-02-2024 19:00:00,29.536400,75.015800,CO,36,45,39
India,Haryana,Sonipat,"Murthal, Sonipat - HSPCB",25-02-2024 19:00:00,29.027200,77.062100,CO,8,71,35
India,Haryana,Yamuna Nagar,"Gobind Pura, Yamuna Nagar - HSPCB",25-02-2024 19:00:00,30.1480566,77.2893471,NH3,1,6,4
India,Haryana,Yamuna Nagar,"Gobind Pura, Yamuna Nagar - HSPCB",25-02-2024 19:00:00,30.1480566,77.2893471,SO2,1,12,7
India,Himachal Pradesh,Baddi,"HIMUDA Complex Phase-1, Baddi - HPPCB",25-02-2024 19:00:00,30.943887,76.801991,NH3,2,4,3
India,Himachal Pradesh,Baddi,"HIMUDA Complex Phase-1, Baddi - HPPCB",25-02-2024 19:00:00,30.943887,76.801991,OZONE,64,124,111
India,Jharkhand,Dhanbad,"Sardar Patel Nagar, Dhanbad - JSPCB",25-02-2024 19:00:00,23.80569,86.44268,CO,NA,NA,NA
India,Jharkhand,Pathardih,"Mohalbani Ghat, Pathardih - DMC",25-02-2024 19:00:00,23.669880,86.411725,SO2,NA,NA,NA
India,Karnataka,Bagalkot,"Vidayagiri, Bagalkot - KSPCB",25-02-2024 19:00:00,16.172806,75.659694,PM10,41,42,42
India,Karnataka,Belgaum,"Ramteerth Nagar, Belgaum - KSPCB",25-02-2024 19:00:00,15.888653,74.541751,PM10,32,78,55
India,Karnataka,Bengaluru,"Hombegowda Nagar, Bengaluru - KSPCB",25-02-2024 19:00:00,12.938539,77.590100,NO2,34,41,36
India,Karnataka,Bengaluru,"Jayanagar 5th Block, Bengaluru - KSPCB",25-02-2024 19:00:00,12.920984,77.584908,NO2,10,11,11
India,Karnataka,Bengaluru,"Jayanagar 5th Block, Bengaluru - KSPCB",25-02-2024 19:00:00,12.920984,77.584908,NH3,2,3,2
India,Karnataka,Bengaluru,"Jigani, Bengaluru - KSPCB",25-02-2024 19:00:00,12.7816279,77.6299145,PM2.5,54,178,88
India,Karnataka,Bengaluru,"Peenya, Bengaluru - CPCB",25-02-2024 19:00:00,13.0270199,77.494094,SO2,12,18,16
India,Karnataka,Bengaluru,"RVCE-Mailasandra, Bengaluru - KSPCB",25-02-2024 19:00:00,12.921418,77.502466,PM2.5,3,277,73
India,Karnataka,Bengaluru,"RVCE-Mailasandra, Bengaluru - KSPCB",25-02-2024 19:00:00,12.921418,77.502466,CO,32,51,45
India,Karnataka,Bengaluru,"Sanegurava Halli, Bengaluru - KSPCB",25-02-2024 19:00:00,12.990328,77.5431385,NO2,19,25,21
India,Karnataka,Bengaluru,"Shivapura_Peenya, Bengaluru - KSPCB",25-02-2024 19:00:00,13.0246342,77.5080115,PM10,53,104,80
India,Karnataka,Bengaluru,"Shivapura_Peenya, Bengaluru - KSPCB",25-02-2024 19:00:00,13.0246342,77.5080115,NO2,15,16,15
India,Karnataka,Bengaluru,"Shivapura_Peenya, Bengaluru - KSPCB",25-02-2024 19:00:00,13.0246342,77.5080115,OZONE,53,56,54
India,Karnataka,Bengaluru,"Silk Board, Bengaluru - KSPCB",25-02-2024 19:00:00,12.917348,77.622813,NO2,NA,NA,NA
India,Karnataka,Bengaluru,"Silk Board, Bengaluru - KSPCB",25-02-2024 19:00:00,12.917348,77.622813,NH3,NA,NA,NA
India,Karnataka,Bengaluru,"Silk Board, Bengaluru - KSPCB",25-02-2024 19:00:00,12.917348,77.622813,CO,25,51,37
India,Karnataka,Bidar,"Naubad, Bidar - KSPCB",25-02-2024 19:00:00,17.930306,77.482194,NO2,NA,NA,NA
India,Karnataka,Bidar,"Naubad, Bidar - KSPCB",25-02-2024 19:00:00,17.930306,77.482194,NH3,NA,NA,NA
India,Karnataka,Chikkaballapur,"Chikkaballapur Rural, Chikkaballapur - KSPCB",25-02-2024 19:00:00,13.428828,77.731418,PM10,45,116,73
India,Karnataka,Chikkaballapur,"Chikkaballapur Rural, Chikkaballapur - KSPCB",25-02-2024 19:00:00,13.428828,77.731418,NO2,2,9,4
India,Karnataka,Chikkamagaluru,"Kalyana Nagara, Chikkamagaluru - KSPCB",25-02-2024 19:00:00,13.328028,75.797056,SO2,1,3,2
India,Karnataka,Dharwad,"Kalabhavan, Dharwad - KSPCB",25-02-2024 19:00:00,15.459706,75.008381,NH3,3,3,3
India,Karnataka,Dharwad,"Kalabhavan, Dharwad - KSPCB",25-02-2024 19:00:00,15.459706,75.008381,SO2,3,17,8
India,Karnataka,Gadag,"Panchal Nagar, Gadag - KSPCB",25-02-2024 19:00:00,15.411456,75.638133,PM2.5,24,54,39
India,Karnataka,Gadag,"Panchal Nagar, Gadag - KSPCB",25-02-2024 19:00:00,15.411456,75.638133,OZONE,31,77,71
India,Karnataka,Hassan,"B.Katihalli, Hassan - KSPCB",25-02-2024 19:00:00,13.008556,76.125258,PM2.5,42,71,51
India,Karnataka,Hubballi,"Deshpande Nagar, Hubballi - KSPCB",25-02-2024 19:00:00,15.351773,75.140726,NH3,NA,NA,NA
India,Karnataka,Hubballi,"Deshpande Nagar, Hubballi - KSPCB",25-02-2024 19:00:00,15.351773,75.140726,CO,NA,NA,NA
India,Karnataka,Kalaburagi,"Mahatma Basaveswar Colony, Kalaburgi - KSPCB",25-02-2024 19:00:00,17.336318,76.847397,NO2,17,27,22
India,Karnataka,Kalaburagi,"Mahatma Basaveswar Colony, Kalaburgi - KSPCB",25-02-2024 19:00:00,17.336318,76.847397,NH3,3,4,4
India,Karnataka,Kalaburagi,"Mahatma Basaveswar Colony, Kalaburgi - KSPCB",25-02-2024 19:00:00,17.336318,76.847397,SO2,NA,NA,NA
India,Karnataka,Madikeri,"Stuart Hill, Madikeri - KSPCB",25-02-2024 19:00:00,12.415911,75.735050,PM10,36,60,48
India,Karnataka,Madikeri,"Stuart Hill, Madikeri - KSPCB",25-02-2024 19:00:00,12.415911,75.735050,SO2,4,4,4
India,Karnataka,Mangalore,"Kadri, Mangalore - KSPCB",25-02-2024 19:00:00,12.889250,74.853000,SO2,20,21,21
India,Karnataka,Mangalore,"Kadri, Mangalore - KSPCB",25-02-2024 19:00:00,12.889250,74.853000,OZONE,30,32,31
India,Karnataka,Mysuru,"Hebbal 1st Stage, Mysuru - KSPCB",25-02-2024 19:00:00,12.21041,76.37376,NO2,7,41,23
India,Karnataka,Mysuru,"Hebbal 1st Stage, Mysuru - KSPCB",25-02-2024 19:00:00,12.21041,76.37376,NH3,1,3,2
India,Karnataka,Mysuru,"Hebbal 1st Stage, Mysuru - KSPCB",25-02-2024 19:00:00,12.21041,76.37376,OZONE,15,82,69
India,Karnataka,Ramanagara,"Vijay Nagar, Ramanagara - KSPCB",25-02-2024 19:00:00,12.733409,77.298051,PM2.5,54,75,62
India,Karnataka,Ramanagara,"Vijay Nagar, Ramanagara - KSPCB",25-02-2024 19:00:00,12.733409,77.298051,SO2,14,25,18
India,Karnataka,Ramanagara,"Vijay Nagar, Ramanagara - KSPCB",25-02-2024 19:00:00,12.733409,77.298051,CO,4,19,12
India,Karnataka,Tumakuru,"Thimmalapura, Tumakuru - KSPCB",25-02-2024 19:00:00,13.377516,77.099072,PM10,16,39,27
India,Karnataka,Udupi,"Brahmagiri, Udupi - KSPCB",25-02-2024 19:00:00,13.34194444,74.74694444,NO2,13,14,14
India,Karnataka,Udupi,"Brahmagiri, Udupi - KSPCB",25-02-2024 19:00:00,13.34194444,74.74694444,CO,43,48,45
India,Karnataka,Vijayapura,"Ibrahimpur, Vijayapura - KSPCB",25-02-2024 19:00:00,16.802639,75.722694,SO2,10,115,66
India,Kerala,Eloor,"Udyogamandal, Eloor - Kerala PCB",25-02-2024 19:00:00,10.073232,76.302765,NO2,4,4,4
India,Kerala,Eloor,"Udyogamandal, Eloor - Kerala PCB",25-02-2024 19:00:00,10.073232,76.302765,CO,6,112,70
India,Kerala,Eloor,"Udyogamandal, Eloor - Kerala PCB",25-02-2024 19:00:00,10.073232,76.302765,OZONE,10,21,17
India,Kerala,Kannur,"Thavakkara, Kannur - Kerala PCB",25-02-2024 19:00:00,11.875000,75.373200,SO2,5,7,6
India,Kerala,Kochi,"Vyttila, Kochi - Kerala PCB",25-02-2024 19:00:00,9.969447,76.321186,SO2,2,9,5
India,Kerala,Kollam,"Polayathode, Kollam - Kerala PCB",25-02-2024 19:00:00,8.8787,76.6073,PM2.5,65,153,100
India,Kerala,Kollam,"Polayathode, Kollam - Kerala PCB",25-02-2024 19:00:00,8.8787,76.6073,PM10,62,98,79
India,Kerala,Kollam,"Polayathode, Kollam - Kerala PCB",25-02-2024 19:00:00,8.8787,76.6073,NO2,8,9,8
India,Kerala,Kollam,"Polayathode, Kollam - Kerala PCB",25-02-2024 19:00:00,8.8787,76.6073,CO,8,35,14
India,Kerala,Kollam,"Polayathode, Kollam - Kerala PCB",25-02-2024 19:00:00,8.8787,76.6073,OZONE,31,39,36
India,Kerala,Thiruvananthapuram,"Kariavattom, Thiruvananthapuram - Kerala PCB",25-02-2024 19:00:00,8.563700,76.886500,PM2.5,74,84,79
India,Kerala,Thiruvananthapuram,"Kariavattom, Thiruvananthapuram - Kerala PCB",25-02-2024 19:00:00,8.563700,76.886500,SO2,2,16,8
India,Kerala,Thiruvananthapuram,"Kariavattom, Thiruvananthapuram - Kerala PCB",25-02-2024 19:00:00,8.563700,76.886500,OZONE,27,31,28
India,Kerala,Thiruvananthapuram,"Plammoodu, Thiruvananthapuram - Kerala PCB",25-02-2024 19:00:00,8.5149093,76.9435879,PM10,44,103,61
India,Madhya Pradesh,Bhopal,"Idgah Hills, Bhopal - MPPCB",25-02-2024 19:00:00,23.264759,77.381568,PM2.5,35,133,54
India,Madhya Pradesh,Bhopal,"Idgah Hills, Bhopal - MPPCB",25-02-2024 19:00:00,23.264759,77.381568,NH3,2,2,2
India,Madhya Pradesh,Bhopal,"T T Nagar, Bhopal - MPPCB",25-02-2024 19:00:00,23.233584,77.400574,NH3,2,6,5
India,Madhya Pradesh,Bhopal,"T T Nagar, Bhopal - MPPCB",25-02-2024 19:00:00,23.233584,77.400574,CO,8,98,24
India,Madhya Pradesh,Dewas,"Bhopal Chauraha, Dewas - MPPCB",25-02-2024 19:00:00,22.9682591,76.064118,SO2,34,52,43
India,Madhya Pradesh,Dewas,"Bhopal Chauraha, Dewas - MPPCB",25-02-2024 19:00:00,22.9682591,76.064118,CO,12,48,17
India,Madhya Pradesh,Gwalior,"City Center, Gwalior - MPPCB",25-02-2024 19:00:00,26.203442,78.193251,NH3,5,6,5
India,Madhya Pradesh,Gwalior,"Deen Dayal Nagar, Gwalior - MPPCB",25-02-2024 19:00:00,26.259242,78.216432,NH3,3,5,4
India,Madhya Pradesh,Gwalior,"Maharaj Bada, Gwalior - MPPCB",25-02-2024 19:00:00,26.200388,78.147714,PM10,54,440,130
India,Madhya Pradesh,Gwalior,"Phool Bagh, Gwalior - Mondelez Ind. Food",25-02-2024 19:00:00,26.210536,78.171,PM10,64,157,110
India,Madhya Pradesh,Gwalior,"Phool Bagh, Gwalior - Mondelez Ind. Food",25-02-2024 19:00:00,26.210536,78.171,SO2,10,12,11
India,Madhya Pradesh,Gwalior,"Phool Bagh, Gwalior - Mondelez Ind. Food",25-02-2024 19:00:00,26.210536,78.171,CO,32,36,33
India,Madhya Pradesh,Indore,"Maguda Nagar, Indore - IMC",25-02-2024 19:00:00,22.7524,75.8872,PM2.5,NA,NA,NA
India,Madhya Pradesh,Indore,"Residency Area, Indore - IMC",25-02-2024 19:00:00,22.7084,75.8815,PM2.5,31,235,72
India,Madhya Pradesh,Jabalpur,"Govindh Bhavan Colony, Jabalpur - JMC",25-02-2024 19:00:00,23.163174,79.973061,PM2.5,28,48,36
India,Madhya Pradesh,Jabalpur,"Marhatal, Jabalpur - MPPCB",25-02-2024 19:00:00,23.168606,79.932247,NH3,3,4,3
India,Madhya Pradesh,Jabalpur,"Suhagi, Jabalpur - JMC",25-02-2024 19:00:00,23.218135,79.957770,NO2,43,48,46
India,Madhya Pradesh,Jabalpur,"Suhagi, Jabalpur - JMC",25-02-2024 19:00:00,23.218135,79.957770,NH3,5,5,5
India,Madhya Pradesh,Katni,"Gole Bazar, Katni - MPPCB",25-02-2024 19:00:00,23.50016,80.23284,PM2.5,36,55,45
India,Madhya Pradesh,Katni,"Gole Bazar, Katni - MPPCB",25-02-2024 19:00:00,23.50016,80.23284,PM10,54,103,72
India,Madhya Pradesh,Mandideep,"Sector-D Industrial Area, Mandideep - MPPCB",25-02-2024 19:00:00,23.108440,77.511428,PM10,62,194,99
India,Madhya Pradesh,Mandideep,"Sector-D Industrial Area, Mandideep - MPPCB",25-02-2024 19:00:00,23.108440,77.511428,NO2,23,141,50
India,Madhya Pradesh,Sagar,"Civil Lines, Sagar - MPPCB",25-02-2024 19:00:00,23.838586,78.759431,PM10,58,97,73
India,Madhya Pradesh,Sagar,"Civil Lines, Sagar - MPPCB",25-02-2024 19:00:00,23.838586,78.759431,SO2,3,4,4
India,Madhya Pradesh,Sagar,"Civil Lines, Sagar - MPPCB",25-02-2024 19:00:00,23.838586,78.759431,OZONE,46,61,54
India,Madhya Pradesh,Sagar,"Deen Dayal Nagar, Sagar - MPPCB",25-02-2024 19:00:00,23.8640158,78.80289321,PM2.5,11,30,18
India,Madhya Pradesh,Sagar,"Deen Dayal Nagar, Sagar - MPPCB",25-02-2024 19:00:00,23.8640158,78.80289321,PM10,25,82,46
India,Madhya Pradesh,Satna,"Bandhavgar Colony, Satna - Birla Cement",25-02-2024 19:00:00,24.58434363,80.8549414,SO2,4,10,6
India,Madhya Pradesh,Singrauli,"Suryakiran Bhawan NCL, Singrauli - MPPCB",25-02-2024 19:00:00,24.108970,82.645580,PM10,60,230,144
India,Maharashtra,Ahmednagar,"Tarakpur, Ahmednagar - MPCB",25-02-2024 19:00:00,19.10122,74.73339,NH3,2,3,3
India,Maharashtra,Akola,"Ramdaspeth, Akola - MPCB",25-02-2024 19:00:00,20.719516,77.000253,PM2.5,NA,NA,NA
India,Maharashtra,Amravati,"Shivneri Colony, Amravati - MPCB",25-02-2024 19:00:00,20.9402359,77.7895248,PM2.5,41,69,57
India,Maharashtra,Amravati,"Shivneri Colony, Amravati - MPCB",25-02-2024 19:00:00,20.9402359,77.7895248,NH3,1,1,1
India,Maharashtra,Amravati,"Shivneri Colony, Amravati - MPCB",25-02-2024 19:00:00,20.9402359,77.7895248,OZONE,15,158,132
India,Maharashtra,Aurangabad,"MIDC Chilkalthana, Aurangabad - MPCB",25-02-2024 19:00:00,19.875620,75.387310,NH3,3,4,4
India,Maharashtra,Aurangabad,"MIDC Chilkalthana, Aurangabad - MPCB",25-02-2024 19:00:00,19.875620,75.387310,OZONE,9,95,78
India,Maharashtra,Aurangabad,"More Chowk Waluj, Aurangabad - MPCB",25-02-2024 19:00:00,19.8389439,75.244448,NO2,32,36,34
India,Maharashtra,Aurangabad,"More Chowk Waluj, Aurangabad - MPCB",25-02-2024 19:00:00,19.8389439,75.244448,NH3,1,1,1
India,Maharashtra,Aurangabad,"Rachnakar Colony, Aurangabad - MPCB",25-02-2024 19:00:00,19.863756,75.321188,PM2.5,63,243,122
India,Maharashtra,Belapur,"CBD Belapur, Belapur - MPCB",25-02-2024 19:00:00,19.0243902,73.0406721,PM10,98,168,131
India,Maharashtra,Boisar,"Khaira, Boisar - MPCB",25-02-2024 19:00:00,19.786089,72.757971,PM2.5,NA,NA,NA
India,Maharashtra,Boisar,"Khaira, Boisar - MPCB",25-02-2024 19:00:00,19.786089,72.757971,NH3,NA,NA,NA
India,Maharashtra,Chandrapur,"Chauhan Colony, Chandrapur - MPCB",25-02-2024 19:00:00,19.962900,79.298714,NO2,12,103,26
India,Maharashtra,Chandrapur,"MIDC Khutala, Chandrapur - MPCB",25-02-2024 19:00:00,19.9775302,79.2337086,PM2.5,NA,NA,NA
India,Maharashtra,Chandrapur,"MIDC Khutala, Chandrapur - MPCB",25-02-2024 19:00:00,19.9775302,79.2337086,SO2,NA,NA,NA
India,Maharashtra,Dhule,"Deopur, Dhule - MPCB",25-02-2024 19:00:00,20.918946,74.776388,PM10,54,184,91
India,Maharashtra,Jalna,"Old MIDC, Jalna - MPCB",25-02-2024 19:00:00,19.854616,75.905894,SO2,8,13,10
India,Maharashtra,Jalna,"Old MIDC, Jalna - MPCB",25-02-2024 19:00:00,19.854616,75.905894,CO,24,34,25
India,Maharashtra,Kalyan,"Khadakpada, Kalyan - MPCB",25-02-2024 19:00:00,19.25292,73.142019,CO,16,26,20
India,Maharashtra,Kolhapur,"Shivaji University, Kolhapur - MPCB",25-02-2024 19:00:00,16.6870449,74.2505872,PM2.5,66,88,76
India,Maharashtra,Kolhapur,"Sinchan Bhavan, Kolhapur - MPCB",25-02-2024 19:00:00,16.7143745,74.2426398,PM10,75,144,102
India,Maharashtra,Kolhapur,"Sinchan Bhavan, Kolhapur - MPCB",25-02-2024 19:00:00,16.7143745,74.2426398,OZONE,13,199,167
India,Maharashtra,Latur,"Sawe Wadi, Latur - MPCB",25-02-2024 19:00:00,18.39963,76.57452,NO2,NA,NA,NA
India,Maharashtra,Latur,"Sawe Wadi, Latur - MPCB",25-02-2024 19:00:00,18.39963,76.57452,SO2,NA,NA,NA
India,Maharashtra,Latur,"Sawe Wadi, Latur - MPCB",25-02-2024 19:00:00,18.39963,76.57452,OZONE,NA,NA,NA
India,Maharashtra,Mahad,"Kamble Tarf Birwadi, Mahad - MPCB",25-02-2024 19:00:00,18.1023399,73.4783687,PM2.5,64,134,95
India,Maharashtra,Mahad,"Kamble Tarf Birwadi, Mahad - MPCB",25-02-2024 19:00:00,18.1023399,73.4783687,CO,25,56,37
India,Maharashtra,Malegaon,"Mahesh Nagar, Malegaon - MPCB",25-02-2024 19:00:00,20.555712,74.529236,OZONE,12,52,48
India,Maharashtra,Mira-Bhayandar,"Bhayandar West, Mira-Bhayandar - MPCB",25-02-2024 19:00:00,19.296481,72.840923,PM2.5,66,143,87
India,Maharashtra,Mira-Bhayandar,"Bhayandar West, Mira-Bhayandar - MPCB",25-02-2024 19:00:00,19.296481,72.840923,SO2,7,18,11
India,Maharashtra,Mira-Bhayandar,"Bhayandar West, Mira-Bhayandar - MPCB",25-02-2024 19:00:00,19.296481,72.840923,OZONE,3,147,115
India,Maharashtra,Mumbai,"Bandra Kurla Complex, Mumbai - MPCB",25-02-2024 19:00:00,19.065931,72.862131,PM10,113,423,205
India,Maharashtra,Mumbai,"Bandra Kurla Complex, Mumbai - MPCB",25-02-2024 19:00:00,19.065931,72.862131,CO,14,51,14
India,Maharashtra,Mumbai,"Borivali East, Mumbai - IITM",25-02-2024 19:00:00,19.23241,72.86895,OZONE,5,110,88
India,Maharashtra,Mumbai,"Byculla, Mumbai - BMC",25-02-2024 19:00:00,18.9767,72.8380,PM2.5,43,101,66
India,Maharashtra,Mumbai,"Byculla, Mumbai - BMC",25-02-2024 19:00:00,18.9767,72.8380,OZONE,6,116,94
India,Maharashtra,Mumbai,"Chembur, Mumbai - MPCB",25-02-2024 19:00:00,19.0364585,72.8954371,PM2.5,48,93,77
India,Maharashtra,Mumbai,"Chembur, Mumbai - MPCB",25-02-2024 19:00:00,19.0364585,72.8954371,PM10,106,138,118
India,Maharashtra,Mumbai,"Chembur, Mumbai - MPCB",25-02-2024 19:00:00,19.0364585,72.8954371,CO,25,66,29
India,Maharashtra,Mumbai,"Chembur, Mumbai - MPCB",25-02-2024 19:00:00,19.0364585,72.8954371,OZONE,4,204,163
India,Maharashtra,Mumbai,"Chhatrapati Shivaji Intl. Airport (T2), Mumbai - MPCB",25-02-2024 19:00:00,19.10078,72.87462,SO2,18,29,23
India,Maharashtra,Mumbai,"Colaba, Mumbai - MPCB",25-02-2024 19:00:00,18.910000,72.820000,OZONE,4,12,8
India,Maharashtra,Mumbai,"Ghatkopar, Mumbai - BMC",25-02-2024 19:00:00,19.083694,72.920967,PM2.5,46,115,80
India,Maharashtra,Mumbai,"Ghatkopar, Mumbai - BMC",25-02-2024 19:00:00,19.083694,72.920967,SO2,1,4,2
India,Maharashtra,Mumbai,"Kandivali East, Mumbai - MPCB",25-02-2024 19:00:00,19.205800,72.868200,PM2.5,7,94,33
India,Maharashtra,Mumbai,"Kandivali East, Mumbai - MPCB",25-02-2024 19:00:00,19.205800,72.868200,NH3,4,9,6
India,Maharashtra,Mumbai,"Kandivali East, Mumbai - MPCB",25-02-2024 19:00:00,19.205800,72.868200,SO2,68,78,72
India,Maharashtra,Mumbai,"Kandivali West, Mumbai - BMC",25-02-2024 19:00:00,19.215859,72.831718,NO2,13,43,20
India,Maharashtra,Mumbai,"Kherwadi_Bandra East, Mumbai - MPCB",25-02-2024 19:00:00,19.0632143,72.8456324,PM10,109,225,153
India,Maharashtra,Mumbai,"Khindipada-Bhandup West, Mumbai - IITM",25-02-2024 19:00:00,19.1653323,72.922099,SO2,1,5,2
India,Maharashtra,Mumbai,"Kurla, Mumbai - MPCB",25-02-2024 19:00:00,19.0863,72.8888,PM10,56,144,93
India,Maharashtra,Mumbai,"Kurla, Mumbai - MPCB",25-02-2024 19:00:00,19.0863,72.8888,NO2,14,40,27
India,Maharashtra,Mumbai,"Mulund West, Mumbai - MPCB",25-02-2024 19:00:00,19.1750,72.9419,PM2.5,18,39,27
India,Maharashtra,Mumbai,"Navy Nagar-Colaba, Mumbai - IITM",25-02-2024 19:00:00,18.897756,72.813320,PM2.5,40,72,60
India,Maharashtra,Mumbai,"Navy Nagar-Colaba, Mumbai - IITM",25-02-2024 19:00:00,18.897756,72.813320,PM10,97,164,121
India,Maharashtra,Mumbai,"Navy Nagar-Colaba, Mumbai - IITM",25-02-2024 19:00:00,18.897756,72.813320,OZONE,4,126,97
India,Maharashtra,Mumbai,"Powai, Mumbai - MPCB",25-02-2024 19:00:00,19.137500,72.915056,PM10,46,113,83
India,Maharashtra,Mumbai,"Powai, Mumbai - MPCB",25-02-2024 19:00:00,19.137500,72.915056,OZONE,32,125,101
India,Maharashtra,Mumbai,"Sion, Mumbai - MPCB",25-02-2024 19:00:00,19.047000,72.874600,NO2,10,115,52
India,Maharashtra,Mumbai,"Vasai West, Mumbai - MPCB",25-02-2024 19:00:00,19.383200,72.820400,OZONE,25,62,54
India,Maharashtra,Mumbai,"Vile Parle West, Mumbai - MPCB",25-02-2024 19:00:00,19.10861,72.83622,PM2.5,22,260,58
India,Maharashtra,Mumbai,"Worli, Mumbai - MPCB",25-02-2024 19:00:00,18.9936162,72.8128113,NO2,16,18,17
India,Maharashtra,Nagpur,"Ambazari, Nagpur - MPCB",25-02-2024 19:00:00,21.121801,79.04952,PM2.5,82,182,127
India,Maharashtra,Nagpur,"Ambazari, Nagpur - MPCB",25-02-2024 19:00:00,21.121801,79.04952,SO2,24,102,52
India,Maharashtra,Nagpur,"Mahal, Nagpur - MPCB",25-02-2024 19:00:00,21.14472,79.107595,OZONE,2,145,106
India,Maharashtra,Nagpur,"Opp GPO Civil Lines, Nagpur - MPCB",25-02-2024 19:00:00,21.152875,79.0517531,SO2,11,113,47
India,Maharashtra,Nagpur,"Ram Nagar, Nagpur - MPCB",25-02-2024 19:00:00,21.143383,79.048912,PM10,120,213,147
India,Maharashtra,Nagpur,"Ram Nagar, Nagpur - MPCB",25-02-2024 19:00:00,21.143383,79.048912,SO2,21,106,60
India,Maharashtra,Nanded,"Sneh Nagar, Nanded - MPCB",25-02-2024 19:00:00,19.173852,77.296291,PM2.5,44,90,68
India,Maharashtra,Nashik,"Gangapur Road, Nashik - MPCB",25-02-2024 19:00:00,20.0073285,73.7762427,PM2.5,35,76,51
India,Maharashtra,Nashik,"Gangapur Road, Nashik - MPCB",25-02-2024 19:00:00,20.0073285,73.7762427,CO,18,18,18
India,Maharashtra,Nashik,"Hirawadi, Nashik - MPCB",25-02-2024 19:00:00,20.021503,73.813844,CO,10,40,13
India,Maharashtra,Nashik,"MIDC Ambad, Nashik - MPCB",25-02-2024 19:00:00,19.950220,73.731480,NH3,2,2,2
India,Maharashtra,Nashik,"Pandav Nagari, Nashik - MPCB",25-02-2024 19:00:00,19.9591346,73.7788008,CO,8,54,11
India,Maharashtra,Navi Mumbai,"Kopripada-Vashi, Navi Mumbai - MPCB",25-02-2024 19:00:00,19.090337,73.014232,PM2.5,53,129,81
India,Maharashtra,Navi Mumbai,"Kopripada-Vashi, Navi Mumbai - MPCB",25-02-2024 19:00:00,19.090337,73.014232,NH3,3,24,8
India,Maharashtra,Navi Mumbai,"Mahape, Navi Mumbai - MPCB",25-02-2024 19:00:00,19.1135051,73.008978,PM2.5,22,68,39
India,Maharashtra,Navi Mumbai,"Nerul, Navi Mumbai - MPCB",25-02-2024 19:00:00,19.008751,73.016620,PM10,110,308,144
India,Maharashtra,Navi Mumbai,"Sector-19A Nerul, Navi Mumbai - IITM",25-02-2024 19:00:00,19.044,73.0325,PM10,89,217,157
India,Maharashtra,Navi Mumbai,"Sector-19A Nerul, Navi Mumbai - IITM",25-02-2024 19:00:00,19.044,73.0325,SO2,17,50,26
India,Maharashtra,Navi Mumbai,"Sector-2E Kalamboli, Navi Mumbai - MPCB",25-02-2024 19:00:00,19.02579,73.10297,PM2.5,71,148,97
India,Maharashtra,Navi Mumbai,"Sector-2E Kalamboli, Navi Mumbai - MPCB",25-02-2024 19:00:00,19.02579,73.10297,NO2,25,100,61
India,Maharashtra,Navi Mumbai,"Sector-2E Kalamboli, Navi Mumbai - MPCB",25-02-2024 19:00:00,19.02579,73.10297,NH3,1,8,3
India,Maharashtra,Navi Mumbai,"Tondare-Taloja, Navi Mumbai - MPCB",25-02-2024 19:00:00,19.0630,73.1209,PM10,86,166,123
India,Maharashtra,Parbhani,"Masoom Colony, Parbhani - MPCB",25-02-2024 19:00:00,19.265594,76.761463,PM10,94,126,104
India,Maharashtra,Pimpri-Chinchwad,"Gavalinagar, Pimpri Chinchwad - MPCB",25-02-2024 19:00:00,18.63673,73.82487,CO,16,104,25
India,Maharashtra,Pimpri-Chinchwad,"Gavalinagar, Pimpri Chinchwad - MPCB",25-02-2024 19:00:00,18.63673,73.82487,OZONE,1,204,150
India,Maharashtra,Pimpri-Chinchwad,"Park Street Wakad, Pimpri Chinchwad - MPCB",25-02-2024 19:00:00,18.59051,73.77946,PM2.5,85,314,182
India,Maharashtra,Pimpri-Chinchwad,"Park Street Wakad, Pimpri Chinchwad - MPCB",25-02-2024 19:00:00,18.59051,73.77946,SO2,5,16,9
India,Maharashtra,Pimpri-Chinchwad,"Thergaon, Pimpri Chinchwad - MPCB",25-02-2024 19:00:00,18.616318,73.765797,PM2.5,NA,NA,NA
India,Maharashtra,Pune,"Katraj Dairy, Pune - MPCB",25-02-2024 19:00:00,18.454450,73.854155,SO2,3,12,8
India,Maharashtra,Pune,"Katraj Dairy, Pune - MPCB",25-02-2024 19:00:00,18.454450,73.854155,CO,34,92,38
India,Maharashtra,Pune,"Mhada Colony, Pune - IITM",25-02-2024 19:00:00,18.573040,73.927715,PM2.5,34,145,72
India,Maharashtra,Pune,"Savitribai Phule Pune University, Pune - MPCB",25-02-2024 19:00:00,18.547056,73.826908,PM2.5,43,129,84
India,Maharashtra,Solapur,"Dnyaneshwar Nagar, Solapur - MPCB",25-02-2024 19:00:00,17.6336264,75.9132495,NH3,9,43,21
India,Maharashtra,Solapur,"Ratandeep Housing Society, Solapur - MPCB",25-02-2024 19:00:00,17.65439,75.90649,PM10,88,172,117
India,Maharashtra,Solapur,"Ratandeep Housing Society, Solapur - MPCB",25-02-2024 19:00:00,17.65439,75.90649,SO2,4,29,11
India,Maharashtra,Solapur,"Solapur, Solapur - MPCB",25-02-2024 19:00:00,17.6599188,75.9063906,PM2.5,68,91,84
India,Maharashtra,Solapur,"Solapur, Solapur - MPCB",25-02-2024 19:00:00,17.6599188,75.9063906,NO2,55,55,55
India,Maharashtra,Thane,"Kasarvadavali, Thane - MPCB",25-02-2024 19:00:00,19.26777,72.97182,PM10,70,129,95
India,Maharashtra,Thane,"Kasarvadavali, Thane - MPCB",25-02-2024 19:00:00,19.26777,72.97182,OZONE,21,148,123
India,Maharashtra,Thane,"Pimpleshwar Mandir, Thane - MPCB",25-02-2024 19:00:00,19.192056,72.9585188,PM10,NA,NA,NA
India,Maharashtra,Thane,"Upvan Fort, Thane - MPCB",25-02-2024 19:00:00,19.222279,72.957979,PM2.5,44,120,68
India,Maharashtra,Thane,"Upvan Fort, Thane - MPCB",25-02-2024 19:00:00,19.222279,72.957979,NH3,10,16,13
India,Maharashtra,Ulhasnagar,"Sidhi Vinayak Nagar, Ulhasnagar - MPCB",25-02-2024 19:00:00,19.235581,73.159121,PM10,80,118,93
India,Maharashtra,Ulhasnagar,"Sidhi Vinayak Nagar, Ulhasnagar - MPCB",25-02-2024 19:00:00,19.235581,73.159121,OZONE,19,77,63
India,Manipur,Imphal,"DM College of Science, Imphal - Manipur PCB",25-02-2024 19:00:00,24.8207389,93.9423085,PM2.5,11,57,25
India,Manipur,Imphal,"DM College of Science, Imphal - Manipur PCB",25-02-2024 19:00:00,24.8207389,93.9423085,PM10,17,121,42
India,Manipur,Imphal,"DM College of Science, Imphal - Manipur PCB",25-02-2024 19:00:00,24.8207389,93.9423085,CO,6,6,6
India,Manipur,Imphal,"Manipur University, Imphal - Manipur PCB",25-02-2024 19:00:00,24.7524239,93.9286218,OZONE,3,21,13
India,Meghalaya,Shillong,"Lumpyngngad, Shillong - Meghalaya PCB",25-02-2024 19:00:00,25.5586,91.8985,NH3,1,1,1
India,Meghalaya,Shillong,"Lumpyngngad, Shillong - Meghalaya PCB",25-02-2024 19:00:00,25.5586,91.8985,SO2,43,45,44
India,Mizoram,Aizawl,"Sikulpuikawn, Aizawl - Mizoram PCB",25-02-2024 19:00:00,23.7176342,92.7192841,SO2,2,2,2
India,Mizoram,Aizawl,"Sikulpuikawn, Aizawl - Mizoram PCB",25-02-2024 19:00:00,23.7176342,92.7192841,OZONE,7,18,13
India,Nagaland,Kohima,"PWD Juction, Kohima - NPCB",25-02-2024 19:00:00,25.6635413,94.0989878,PM2.5,63,264,117
India,Nagaland,Kohima,"PWD Juction, Kohima - NPCB",25-02-2024 19:00:00,25.6635413,94.0989878,NH3,NA,NA,NA
India,Nagaland,Kohima,"PWD Juction, Kohima - NPCB",25-02-2024 19:00:00,25.6635413,94.0989878,CO,7,36,25
India,Odisha,Balasore,"Kalidaspur, Balasore - OSPCB",25-02-2024 19:00:00,21.51161,86.89088,NH3,4,8,6
India,Odisha,Barbil,"Forest Office, Barbil - OSPCB",25-02-2024 19:00:00,22.1166054,85.3945546,NH3,4,5,5
India,Odisha,Barbil,"Forest Office, Barbil - OSPCB",25-02-2024 19:00:00,22.1166054,85.3945546,OZONE,18,124,106
India,Odisha,Baripada,"Meher Colony, Baripada - OSPCB",25-02-2024 19:00:00,21.941841,86.728318,PM10,89,133,110
India,Odisha,Baripada,"Meher Colony, Baripada - OSPCB",25-02-2024 19:00:00,21.941841,86.728318,CO,28,43,31
India,Odisha,Bhubaneswar,"Lingraj Mandir, Bhubaneswar - OSPCB",25-02-2024 19:00:00,20.240790,85.836784,NO2,5,26,14
India,Odisha,Bhubaneswar,"Lingraj Mandir, Bhubaneswar - OSPCB",25-02-2024 19:00:00,20.240790,85.836784,OZONE,49,110,91
India,Odisha,Byasanagar,"Ferro Chrome Colony, Byasanagar - OSPCB",25-02-2024 19:00:00,20.94185,86.11510,CO,40,108,77
India,Odisha,Cuttack,"CDA Area, Cuttack - OSPCB",25-02-2024 19:00:00,20.48891     ,85.84768     ,PM10,97,158,127
India,Odisha,Nayagarh,"Dabuna, Nayagarh - OSPCB",25-02-2024 19:00:00,21.847279,85.416905,PM2.5,87,130,108
India,Odisha,Nayagarh,"Dabuna, Nayagarh - OSPCB",25-02-2024 19:00:00,21.847279,85.416905,PM10,107,168,130
India,Odisha,Rourkela,"Fertilizer Township, Rourkela - OSPCB",25-02-2024 19:00:00,22.18972222,84.86277778,SO2,11,18,13
India,Odisha,Rourkela,"Fertilizer Township, Rourkela - OSPCB",25-02-2024 19:00:00,22.18972222,84.86277778,CO,15,24,21
India,Odisha,Rourkela,"Raghunathpali, Rourkela - OSPCB",25-02-2024 19:00:00,22.220833,84.809444,PM2.5,60,93,74
India,Odisha,Rourkela,"Raghunathpali, Rourkela - OSPCB",25-02-2024 19:00:00,22.220833,84.809444,NH3,2,3,3
India,Odisha,Rourkela,"Raghunathpali, Rourkela - OSPCB",25-02-2024 19:00:00,22.220833,84.809444,SO2,6,18,11
India,Odisha,Rourkela,"Sector-2, Rourkela - OSPCB",25-02-2024 19:00:00,22.24500000,84.88111111,CO,18,37,34
India,Odisha,Suakati,"OMC Colony, Suakati - OSPCB",25-02-2024 19:00:00,21.606865,85.510538,NH3,10,12,11
India,Odisha,Suakati,"OMC Colony, Suakati - OSPCB",25-02-2024 19:00:00,21.606865,85.510538,OZONE,44,127,77
India,Odisha,Talcher,"Talcher Coalfields,Talcher - OSPCB",25-02-2024 19:00:00,20.9360711,85.1707021,SO2,10,69,19
India,Odisha,Tensa,"Barsua Iron Ore Mines, Tensa - OSPCB",25-02-2024 19:00:00,21.869985,85.167016,PM10,97,124,111
India,Odisha,Tensa,"Barsua Iron Ore Mines, Tensa - OSPCB",25-02-2024 19:00:00,21.869985,85.167016,NO2,46,62,53
India,Odisha,Tensa,"Barsua Iron Ore Mines, Tensa - OSPCB",25-02-2024 19:00:00,21.869985,85.167016,SO2,2,7,3
India,Odisha,Tensa,"Barsua Iron Ore Mines, Tensa - OSPCB",25-02-2024 19:00:00,21.869985,85.167016,CO,16,25,21
India,Puducherry,Puducherry,"Jawahar Nagar, Puducherry - PPCC",25-02-2024 19:00:00,11.9309,79.8027,SO2,4,11,6
India,Punjab,Amritsar,"Golden Temple, Amritsar - PPCB",25-02-2024 19:00:00,31.620000,74.876512,PM10,22,134,59
India,Punjab,Amritsar,"Golden Temple, Amritsar - PPCB",25-02-2024 19:00:00,31.620000,74.876512,NO2,17,90,38
India,Punjab,Amritsar,"Golden Temple, Amritsar - PPCB",25-02-2024 19:00:00,31.620000,74.876512,CO,19,101,57
India,Punjab,Bathinda,"Hardev Nagar, Bathinda - PPCB",25-02-2024 19:00:00,30.233011,74.907758,CO,2,92,28
India,Punjab,Ludhiana,"Punjab Agricultural University, Ludhiana - PPCB",25-02-2024 19:00:00,30.9028,75.8086,CO,11,106,27
India,Punjab,Mandi Gobindgarh,"RIMT University, Mandi Gobindgarh - PPCB",25-02-2024 19:00:00,30.649961,76.331442,OZONE,32,33,33
India,Punjab,Patiala,"Model Town, Patiala - PPCB",25-02-2024 19:00:00,30.349388,76.366642,PM2.5,41,84,64
India,Rajasthan,Alwar,"Moti Doongri, Alwar - RSPCB",25-02-2024 19:00:00,27.554793,76.611536,CO,14,48,31
India,Rajasthan,Banswara,"Rati Talai, Banswara - RSPCB",25-02-2024 19:00:00,23.555190,74.440010,NO2,15,100,42
India,Rajasthan,Banswara,"Rati Talai, Banswara - RSPCB",25-02-2024 19:00:00,23.555190,74.440010,OZONE,5,107,84
India,Rajasthan,Baran,"Bamboliya, Baran - RSPCB",25-02-2024 19:00:00,25.106006,76.469948,PM2.5,30,96,56
India,Rajasthan,Baran,"Bamboliya, Baran - RSPCB",25-02-2024 19:00:00,25.106006,76.469948,CO,12,39,15
India,Rajasthan,Baran,"Bamboliya, Baran - RSPCB",25-02-2024 19:00:00,25.106006,76.469948,OZONE,27,139,126
India,Rajasthan,Bharatpur,"Krishna Nagar, Bharatpur - RSPCB",25-02-2024 19:00:00,27.215415,77.50873,PM2.5,10,48,23
India,Rajasthan,Bharatpur,"Krishna Nagar, Bharatpur - RSPCB",25-02-2024 19:00:00,27.215415,77.50873,CO,4,134,49
India,Rajasthan,Bhilwara,"Pratap Nagar, Bhilwara - RSPCB",25-02-2024 19:00:00,25.339605,74.618883,PM2.5,29,186,69
India,Rajasthan,Bhilwara,"Pratap Nagar, Bhilwara - RSPCB",25-02-2024 19:00:00,25.339605,74.618883,CO,18,44,22
India,Rajasthan,Bhiwadi,"RIICO Ind. Area III, Bhiwadi - RSPCB",25-02-2024 19:00:00,28.194909,76.862296,PM2.5,56,216,121
India,Rajasthan,Bhiwadi,"RIICO Ind. Area III, Bhiwadi - RSPCB",25-02-2024 19:00:00,28.194909,76.862296,PM10,95,245,152
India,Rajasthan,Bhiwadi,"RIICO Ind. Area III, Bhiwadi - RSPCB",25-02-2024 19:00:00,28.194909,76.862296,OZONE,31,98,70
India,Rajasthan,Bikaner,"MM Ground, Bikaner - RSPCB",25-02-2024 19:00:00,28.018792,73.292658,PM2.5,44,244,83
India,Rajasthan,Bundi,"New Colony, Bundi - RSPCB",25-02-2024 19:00:00,25.435774,75.644272,NH3,3,3,3
India,Rajasthan,Chittorgarh,"Shastri Nagar, Chittorgarh - RSPCB",25-02-2024 19:00:00,24.892047,74.623527,PM10,64,176,116
India,Rajasthan,Chittorgarh,"Shastri Nagar, Chittorgarh - RSPCB",25-02-2024 19:00:00,24.892047,74.623527,CO,11,51,13
India,Rajasthan,Churu,"Subash Chowk, Churu - RSPCB",25-02-2024 19:00:00,28.296139,74.961696,CO,19,52,30
India,Rajasthan,Dausa,"Khatikan Mohalla, Dausa - RSPCB",25-02-2024 19:00:00,26.895552,76.334753,NO2,23,46,35
India,Rajasthan,Dausa,"Khatikan Mohalla, Dausa - RSPCB",25-02-2024 19:00:00,26.895552,76.334753,SO2,7,20,12
India,Rajasthan,Dholpur,"Raja Ganj, Dholpur - RSPCB",25-02-2024 19:00:00,26.699557,77.898881,SO2,4,9,7
India,Rajasthan,Dungarpur,"Bhoiwada, Dungarpur - RSPCB",25-02-2024 19:00:00,23.837789,73.714926,OZONE,7,58,54
India,Rajasthan,Hanumangarh,"Housing Board, Hanumangarh - RSPCB",25-02-2024 19:00:00,29.610750,74.283608,PM10,113,244,144
India,Rajasthan,Hanumangarh,"Housing Board, Hanumangarh - RSPCB",25-02-2024 19:00:00,29.610750,74.283608,SO2,1,12,5
India,Rajasthan,Jaipur,"RIICO Sitapura, Jaipur - RSPCB",25-02-2024 19:00:00,26.786682,75.827928,NH3,1,3,1
India,Rajasthan,Jaipur,"Sector-2 Murlipura, Jaipur - RSPCB",25-02-2024 19:00:00,26.960669,75.771817,PM10,56,173,99
India,Rajasthan,Jaipur,"Sector-2 Murlipura, Jaipur - RSPCB",25-02-2024 19:00:00,26.960669,75.771817,NH3,2,16,4
India,Rajasthan,Jaipur,"Sector-2 Murlipura, Jaipur - RSPCB",25-02-2024 19:00:00,26.960669,75.771817,SO2,6,26,11
India,Rajasthan,Jaipur,"Sector-2 Murlipura, Jaipur - RSPCB",25-02-2024 19:00:00,26.960669,75.771817,OZONE,31,114,106
India,Rajasthan,Jaipur,"Shastri Nagar, Jaipur - RSPCB",25-02-2024 19:00:00,26.9502929,75.730943,NH3,1,8,2
India,Rajasthan,Jaisalmer,"Sadar Bazar, Jaisalmer - RSPCB",25-02-2024 19:00:00,26.912329,70.909168,PM2.5,19,152,46
India,Rajasthan,Jaisalmer,"Sadar Bazar, Jaisalmer - RSPCB",25-02-2024 19:00:00,26.912329,70.909168,NO2,3,73,24
India,Rajasthan,Jhalawar,"Rajlaxmi Nagar, Jhalawar - RSPCB",25-02-2024 19:00:00,24.588397,76.172782,SO2,1,19,7
India,Rajasthan,Jhalawar,"Rajlaxmi Nagar, Jhalawar - RSPCB",25-02-2024 19:00:00,24.588397,76.172782,CO,22,86,27
India,Rajasthan,Jodhpur,"Collectorate, Jodhpur - RSPCB",25-02-2024 19:00:00,26.268249,73.0193853,NO2,35,40,37
India,Rajasthan,Jodhpur,"Collectorate, Jodhpur - RSPCB",25-02-2024 19:00:00,26.268249,73.0193853,SO2,2,52,19
India,Rajasthan,Jodhpur,"Digari Kalan, Jodhpur - RSPCB",25-02-2024 19:00:00,26.295810,73.082283,NH3,5,6,5
India,Rajasthan,Jodhpur,"Jhalamand, Jodhpur - RSPCB",25-02-2024 19:00:00,26.215415,73.070156,PM2.5,26,310,97
India,Rajasthan,Jodhpur,"Mandor, Jodhpur - RSPCB",25-02-2024 19:00:00,26.358805,73.047444,SO2,2,22,6
India,Rajasthan,Jodhpur,"Mandor, Jodhpur - RSPCB",25-02-2024 19:00:00,26.358805,73.047444,OZONE,55,129,111
India,Rajasthan,Karauli,"Satyawati Vihar, Karauli - RSPCB",25-02-2024 19:00:00,26.506177,77.025989,NH3,2,5,4
India,Rajasthan,Kota,"Shrinath Puram, Kota - RSPCB",25-02-2024 19:00:00,25.14389,75.821256,SO2,4,16,8
India,Rajasthan,Nagaur,"Karni Colony, Nagaur - RSPCB",25-02-2024 19:00:00,27.213494,73.734444,NH3,6,10,8
India,Rajasthan,Nagaur,"Karni Colony, Nagaur - RSPCB",25-02-2024 19:00:00,27.213494,73.734444,SO2,1,16,5
India,Rajasthan,Nagaur,"Karni Colony, Nagaur - RSPCB",25-02-2024 19:00:00,27.213494,73.734444,CO,19,104,49
India,Rajasthan,Pali,"Indira Colony Vistar, Pali - RSPCB",25-02-2024 19:00:00,25.771061, 73.340227,PM2.5,17,192,77
India,Rajasthan,Pratapgarh,"Pragati Nagar, Pratapgarh - RSPCB",25-02-2024 19:00:00,24.041198,74.780702,PM2.5,24,74,38
India,Rajasthan,Pratapgarh,"Pragati Nagar, Pratapgarh - RSPCB",25-02-2024 19:00:00,24.041198,74.780702,SO2,4,20,9
India,Rajasthan,Rajsamand,"Dhoinda, Rajsamand - RSPCB",25-02-2024 19:00:00,25.036360,73.883502,NH3,NA,NA,NA
India,Rajasthan,Sawai Madhopur,"Sahu Nagar, Sawai Madhopur - RSPCB",25-02-2024 19:00:00,26.031443,76.359327,SO2,2,16,8
India,Rajasthan,Sawai Madhopur,"Sahu Nagar, Sawai Madhopur - RSPCB",25-02-2024 19:00:00,26.031443,76.359327,OZONE,29,134,118
India,Rajasthan,Sikar,"Radhakishan Pura, Sikar - RSPCB",25-02-2024 19:00:00,27.608912,75.153302,OZONE,75,149,133
India,Rajasthan,Sirohi,"Vedhaynath Colony, Sirohi - RSPCB",25-02-2024 19:00:00,24.885261,72.857549,NO2,6,92,41
India,Rajasthan,Sirohi,"Vedhaynath Colony, Sirohi - RSPCB",25-02-2024 19:00:00,24.885261,72.857549,OZONE,1,134,122
India,Rajasthan,Sri Ganganagar,"Old City, Sri Ganganagar - RSPCB",25-02-2024 19:00:00,29.931624,73.864511,NH3,5,20,12
India,TamilNadu,Chennai,"Kodungaiyur, Chennai - TNPCB",25-02-2024 19:00:00,13.1278,80.2642,SO2,1,10,5
India,TamilNadu,Chennai,"Manali, Chennai - CPCB",25-02-2024 19:00:00,13.164544,80.26285,OZONE,9,16,13
India,TamilNadu,Chennai,"Perungudi, Chennai - TNPCB",25-02-2024 19:00:00,12.9533,80.2357,SO2,1,5,3
India,TamilNadu,Chennai,"Royapuram, Chennai - TNPCB",25-02-2024 19:00:00,13.1036,80.2909,PM10,30,43,35
India,TamilNadu,Chennai,"Velachery Res. Area, Chennai - CPCB",25-02-2024 19:00:00,13.0052189,80.2398125,NH3,7,23,11
India,TamilNadu,Chennai,"Velachery Res. Area, Chennai - CPCB",25-02-2024 19:00:00,13.0052189,80.2398125,SO2,24,32,28
India,TamilNadu,Chennai,"Velachery Res. Area, Chennai - CPCB",25-02-2024 19:00:00,13.0052189,80.2398125,OZONE,11,26,21
India,TamilNadu,Cuddalore,"Kudikadu, Cuddalore - TNPCB",25-02-2024 19:00:00,11.6829898,79.7532099,NH3,5,5,5
India,TamilNadu,Cuddalore,"Kudikadu, Cuddalore - TNPCB",25-02-2024 19:00:00,11.6829898,79.7532099,SO2,10,11,11
India,TamilNadu,Cuddalore,"Semmandalam, Cuddalore - TNPCB",25-02-2024 19:00:00,11.7637683,79.7499835,NH3,1,3,2
India,TamilNadu,Gummidipoondi,"Anthoni Pillai Nagar, Gummidipoondi - TNPCB",25-02-2024 19:00:00,13.4127,80.1081,NH3,2,2,2
India,TamilNadu,Ooty,"Bombay Castel, Ooty - TNPCB",25-02-2024 19:00:00,11.4068288,76.7138973,NO2,1,49,10
India,TamilNadu,Ooty,"Bombay Castel, Ooty - TNPCB",25-02-2024 19:00:00,11.4068288,76.7138973,SO2,13,13,13
India,TamilNadu,Palkalaiperur,"Bharathidasan University, Palkalaiperur - TNPCB",25-02-2024 19:00:00,10.681158,78.741746,SO2,27,29,28
India,TamilNadu,Ramanathapuram,"Chalai Bazaar, Ramanathapuram - TNPCB",25-02-2024 19:00:00,9.36399,78.831977,PM10,43,92,62
India,TamilNadu,Salem,"Sona College of Technology, Salem - TNPCB",25-02-2024 19:00:00,11.679111,78.125052,PM2.5,37,158,63
India,TamilNadu,Salem,"Sona College of Technology, Salem - TNPCB",25-02-2024 19:00:00,11.679111,78.125052,NO2,7,9,8
India,TamilNadu,Salem,"Sona College of Technology, Salem - TNPCB",25-02-2024 19:00:00,11.679111,78.125052,NH3,1,1,1
India,TamilNadu,Salem,"Sona College of Technology, Salem - TNPCB",25-02-2024 19:00:00,11.679111,78.125052,CO,44,45,44
India,TamilNadu,Salem,"Sona College of Technology, Salem - TNPCB",25-02-2024 19:00:00,11.679111,78.125052,OZONE,3,3,3
India,TamilNadu,Thoothukudi,"Meelavittan, Thoothukudi - TNPCB",25-02-2024 19:00:00,8.816428 ,78.099039,PM10,32,107,51
India,TamilNadu,Vellore,"Vasanthapuram, Vellore - TNPCB",25-02-2024 19:00:00,12.909494,79.131861,NH3,NA,NA,NA
India,TamilNadu,Vellore,"Vasanthapuram, Vellore - TNPCB",25-02-2024 19:00:00,12.909494,79.131861,OZONE,NA,NA,NA
India,TamilNadu,Virudhunagar,"Collectorate Office, Virudhunagar - TNPCB",25-02-2024 19:00:00,9.559382,77.948828,OZONE,NA,NA,NA
India,Telangana,Hyderabad,"Bollaram Industrial Area, Hyderabad - TSPCB",25-02-2024 19:00:00,17.540891,78.358528,PM10,49,118,78
India,Telangana,Hyderabad,"Bollaram Industrial Area, Hyderabad - TSPCB",25-02-2024 19:00:00,17.540891,78.358528,CO,18,40,23
India,Telangana,Hyderabad,"Central University, Hyderabad - TSPCB",25-02-2024 19:00:00,17.460103,78.334361,NH3,NA,NA,NA
India,Telangana,Hyderabad,"Central University, Hyderabad - TSPCB",25-02-2024 19:00:00,17.460103,78.334361,OZONE,NA,NA,NA
India,Telangana,Hyderabad,"ECIL Kapra, Hyderabad - TSPCB",25-02-2024 19:00:00,17.470431,78.566959,NO2,7,11,10
India,Telangana,Hyderabad,"ICRISAT Patancheru, Hyderabad - TSPCB",25-02-2024 19:00:00,17.518400,78.278777,NH3,2,2,2
India,Telangana,Hyderabad,"Kokapet, Hyderabad - TSPCB",25-02-2024 19:00:00,17.393559,78.339194,PM10,77,117,92
India,Telangana,Hyderabad,"Kokapet, Hyderabad - TSPCB",25-02-2024 19:00:00,17.393559,78.339194,SO2,7,11,9
India,Telangana,Hyderabad,"Kompally Municipal Office, Hyderabad - TSPCB",25-02-2024 19:00:00,17.544899,78.486949,CO,6,28,26
India,Telangana,Hyderabad,"New Malakpet, Hyderabad - TSPCB",25-02-2024 19:00:00,17.37206,78.50864,OZONE,5,22,16
India,Telangana,Hyderabad,"Ramachandrapuram, Hyderabad - TSPCB",25-02-2024 19:00:00,17.528544,78.286195,NO2,9,11,10
India,Telangana,Hyderabad,"Ramachandrapuram, Hyderabad - TSPCB",25-02-2024 19:00:00,17.528544,78.286195,SO2,7,42,18
India,Telangana,Hyderabad,"Ramachandrapuram, Hyderabad - TSPCB",25-02-2024 19:00:00,17.528544,78.286195,CO,13,24,15
India,Telangana,Hyderabad,"Sanathnagar, Hyderabad - TSPCB",25-02-2024 19:00:00,17.4559458,78.4332152,NO2,26,380,128
India,Telangana,Hyderabad,"Sanathnagar, Hyderabad - TSPCB",25-02-2024 19:00:00,17.4559458,78.4332152,CO,28,56,43
India,Telangana,Hyderabad,"Somajiguda, Hyderabad - TSPCB",25-02-2024 19:00:00,17.417094,78.457437,NH3,5,5,5
India,Uttar_Pradesh,Agra,"Manoharpur, Agra - UPPCB",25-02-2024 19:00:00,27.23711,78.01936,SO2,13,16,14
India,Uttar_Pradesh,Agra,"Rohta, Agra - UPPCB",25-02-2024 19:00:00,27.106972,78.000111,NO2,10,11,11
India,Uttar_Pradesh,Agra,"Sanjay Palace, Agra - UPPCB",25-02-2024 19:00:00,27.19865833,78.00598056,PM2.5,10,60,29
India,Uttar_Pradesh,Agra,"Sanjay Palace, Agra - UPPCB",25-02-2024 19:00:00,27.19865833,78.00598056,NO2,47,72,59
India,Uttar_Pradesh,Agra,"Sector-3B Avas Vikas Colony, Agra - UPPCB",25-02-2024 19:00:00,27.19412,77.96237,PM10,41,84,60
India,Uttar_Pradesh,Agra,"Sector-3B Avas Vikas Colony, Agra - UPPCB",25-02-2024 19:00:00,27.19412,77.96237,NH3,2,5,3
India,Uttar_Pradesh,Agra,"Shahjahan Garden, Agra - UPPCB",25-02-2024 19:00:00,27.169338,78.03582,PM10,NA,NA,NA
India,Uttar_Pradesh,Agra,"Shastripuram, Agra - UPPCB",25-02-2024 19:00:00,27.19862,77.92066,SO2,14,17,15
India,Uttar_Pradesh,Agra,"Shastripuram, Agra - UPPCB",25-02-2024 19:00:00,27.19862,77.92066,CO,4,17,12
India,Uttar_Pradesh,Baghpat,"Sardar Patel Inter College, Baghpat - UPPCB",25-02-2024 19:00:00,28.964949,77.278761,SO2,8,83,34
India,Uttar_Pradesh,Bareilly,"Civil Lines, Bareilly - UPPCB",25-02-2024 19:00:00,28.359581,79.414455,PM10,30,256,87
India,Uttar_Pradesh,Bareilly,"Civil Lines, Bareilly - UPPCB",25-02-2024 19:00:00,28.359581,79.414455,OZONE,1,14,7
India,Uttar_Pradesh,Bareilly,"Rajendra Nagar, Bareilly - UPPCB",25-02-2024 19:00:00,28.38910936,79.42963708,OZONE,7,28,22
India,Uttar_Pradesh,Bulandshahr,"Yamunapuram, Bulandshahr - UPPCB",25-02-2024 19:00:00,28.406963,77.849831,SO2,3,81,34
India,Uttar_Pradesh,Bulandshahr,"Yamunapuram, Bulandshahr - UPPCB",25-02-2024 19:00:00,28.406963,77.849831,OZONE,6,132,98
India,Uttar_Pradesh,Firozabad,"Vibhab Nagar, Firozabad - UPPCB",25-02-2024 19:00:00,27.1594,78.3953,NO2,13,14,14
India,Uttar_Pradesh,Ghaziabad,"Indirapuram, Ghaziabad - UPPCB",25-02-2024 19:00:00,28.646233,77.358075,CO,20,90,30
India,Uttar_Pradesh,Ghaziabad,"Indirapuram, Ghaziabad - UPPCB",25-02-2024 19:00:00,28.646233,77.358075,OZONE,6,41,36
India,Uttar_Pradesh,Ghaziabad,"Sanjay Nagar, Ghaziabad - UPPCB",25-02-2024 19:00:00,28.685382,77.453839,SO2,21,47,26
India,Uttar_Pradesh,Ghaziabad,"Vasundhara, Ghaziabad - UPPCB",25-02-2024 19:00:00,28.6603346,77.3572563,PM2.5,13,244,114
India,Uttar_Pradesh,Gorakhpur,"Madan Mohan Malaviya University of Technology, Gorakhpur - UPPCB",25-02-2024 19:00:00,26.730136,83.433859,PM2.5,32,166,68
India,Uttar_Pradesh,Gorakhpur,"Madan Mohan Malaviya University of Technology, Gorakhpur - UPPCB",25-02-2024 19:00:00,26.730136,83.433859,NO2,2,3,2
India,Uttar_Pradesh,Gorakhpur,"Madan Mohan Malaviya University of Technology, Gorakhpur - UPPCB",25-02-2024 19:00:00,26.730136,83.433859,CO,15,31,22
India,Uttar_Pradesh,Hapur,"Anand Vihar, Hapur - UPPCB",25-02-2024 19:00:00,28.725645,77.749675,PM2.5,28,239,130
India,Uttar_Pradesh,Kanpur,"FTI Kidwai Nagar, Kanpur - UPPCB",25-02-2024 19:00:00,26.428282,80.327067,PM2.5,29,152,73
India,Uttar_Pradesh,Kanpur,"FTI Kidwai Nagar, Kanpur - UPPCB",25-02-2024 19:00:00,26.428282,80.327067,NO2,15,15,15
India,Uttar_Pradesh,Kanpur,"FTI Kidwai Nagar, Kanpur - UPPCB",25-02-2024 19:00:00,26.428282,80.327067,SO2,22,23,22
India,Uttar_Pradesh,Kanpur,"NSI Kalyanpur, Kanpur - UPPCB",25-02-2024 19:00:00,26.509954,80.249612,PM10,55,120,87
India,Uttar_Pradesh,Khurja,"Kalindi Kunj, Khurja - UPPCB",25-02-2024 19:00:00,28.2348927,77.8683002,PM2.5,4,77,48
India,Uttar_Pradesh,Khurja,"Kalindi Kunj, Khurja - UPPCB",25-02-2024 19:00:00,28.2348927,77.8683002,PM10,5,74,46
India,Uttar_Pradesh,Khurja,"Kalindi Kunj, Khurja - UPPCB",25-02-2024 19:00:00,28.2348927,77.8683002,NH3,1,2,1
India,Uttar_Pradesh,Lucknow,"B R Ambedkar University, Lucknow - UPPCB",25-02-2024 19:00:00,26.766433,80.927299,CO,24,68,28
India,Uttar_Pradesh,Lucknow,"Gomti Nagar, Lucknow - UPPCB",25-02-2024 19:00:00,26.868120,81.005119,OZONE,52,71,68
India,Uttar_Pradesh,Lucknow,"Lalbagh, Lucknow - CPCB",25-02-2024 19:00:00,26.8458805,80.9365541,CO,22,128,61
India,Uttar_Pradesh,Meerut,"Ganga Nagar, Meerut - UPPCB",25-02-2024 19:00:00,28.999264,77.7590354,PM2.5,12,227,92
India,Uttar_Pradesh,Meerut,"Ganga Nagar, Meerut - UPPCB",25-02-2024 19:00:00,28.999264,77.7590354,CO,20,70,28
India,Uttar_Pradesh,Meerut,"Jai Bhim Nagar, Meerut - UPPCB",25-02-2024 19:00:00,28.9535882,77.7622941,PM10,42,141,89
India,Uttar_Pradesh,Meerut,"Jai Bhim Nagar, Meerut - UPPCB",25-02-2024 19:00:00,28.9535882,77.7622941,SO2,11,29,18
India,Uttar_Pradesh,Meerut,"Jai Bhim Nagar, Meerut - UPPCB",25-02-2024 19:00:00,28.9535882,77.7622941,OZONE,11,84,74
India,Uttar_Pradesh,Meerut,"Pallavpuram Phase 2, Meerut - UPPCB",25-02-2024 19:00:00,29.063510,77.709723,OZONE,18,118,95
India,Uttar_Pradesh,Moradabad,"Buddhi Vihar, Moradabad - UPPCB",25-02-2024 19:00:00,28.83526,78.74460,PM2.5,18,96,52
India,Uttar_Pradesh,Moradabad,"Buddhi Vihar, Moradabad - UPPCB",25-02-2024 19:00:00,28.83526,78.74460,NO2,22,24,23
India,Uttar_Pradesh,Moradabad,"Buddhi Vihar, Moradabad - UPPCB",25-02-2024 19:00:00,28.83526,78.74460,NH3,2,2,2
India,Uttar_Pradesh,Moradabad,"Eco Herbal Park, Moradabad - UPPCB",25-02-2024 19:00:00,28.840739,78.697531,PM10,36,322,108
India,Uttar_Pradesh,Moradabad,"Employment Office, Moradabad - UPPCB",25-02-2024 19:00:00,28.88528,78.73880,PM2.5,21,152,69
India,Uttar_Pradesh,Moradabad,"Jigar Colony, Moradabad - UPPCB",25-02-2024 19:00:00,28.856664,78.772638,CO,10,38,19
India,Uttar_Pradesh,Moradabad,"Jigar Colony, Moradabad - UPPCB",25-02-2024 19:00:00,28.856664,78.772638,OZONE,16,28,25
India,Uttar_Pradesh,Moradabad,"Kashiram Nagar, Moradabad - UPPCB",25-02-2024 19:00:00,28.849399,78.742362,PM2.5,15,141,59
India,Uttar_Pradesh,Moradabad,"Transport Nagar, Moradabad - UPPCB",25-02-2024 19:00:00,28.802625,78.753728,PM2.5,16,198,74
India,Uttar_Pradesh,Moradabad,"Transport Nagar, Moradabad - UPPCB",25-02-2024 19:00:00,28.802625,78.753728,SO2,41,49,44
India,Uttar_Pradesh,Muzaffarnagar,"New Mandi, Muzaffarnagar - UPPCB",25-02-2024 19:00:00,29.4723508,77.7194031,PM2.5,46,346,171
India,Uttar_Pradesh,Muzaffarnagar,"New Mandi, Muzaffarnagar - UPPCB",25-02-2024 19:00:00,29.4723508,77.7194031,NH3,1,3,2
India,Uttar_Pradesh,Muzaffarnagar,"New Mandi, Muzaffarnagar - UPPCB",25-02-2024 19:00:00,29.4723508,77.7194031,CO,30,92,39
India,Uttar_Pradesh,Noida,"Sector - 125, Noida - UPPCB",25-02-2024 19:00:00,28.5447608,77.3231257,OZONE,2,60,57
India,Uttar_Pradesh,Noida,"Sector - 62, Noida - IMD",25-02-2024 19:00:00,28.6245479,77.3577104,NO2,6,23,11
India,Uttar_Pradesh,Noida,"Sector - 62, Noida - IMD",25-02-2024 19:00:00,28.6245479,77.3577104,OZONE,6,35,31
India,Uttar_Pradesh,Noida,"Sector-1, Noida - UPPCB",25-02-2024 19:00:00,28.5898,77.3101,PM2.5,25,313,161
India,Uttar_Pradesh,Noida,"Sector-1, Noida - UPPCB",25-02-2024 19:00:00,28.5898,77.3101,PM10,84,294,157
India,Uttar_Pradesh,Noida,"Sector-116, Noida - UPPCB",25-02-2024 19:00:00,28.569230,77.393848,PM10,68,403,158
India,Uttar_Pradesh,Noida,"Sector-116, Noida - UPPCB",25-02-2024 19:00:00,28.569230,77.393848,CO,8,118,31
India,Uttar_Pradesh,Prayagraj,"Jhunsi, Prayagraj - UPPCB",25-02-2024 19:00:00,25.425602,81.917152,OZONE,1,32,20
India,Uttar_Pradesh,Prayagraj,"Motilal Nehru NIT, Prayagraj - UPPCB",25-02-2024 19:00:00,25.494,81.863,PM10,28,144,71
India,Uttar_Pradesh,Prayagraj,"Nagar Nigam, Prayagraj - UPPCB",25-02-2024 19:00:00,25.44919916 ,81.82735986 ,NO2,5,5,5
India,Uttar_Pradesh,Prayagraj,"Nagar Nigam, Prayagraj - UPPCB",25-02-2024 19:00:00,25.44919916 ,81.82735986 ,NH3,2,9,6
India,Uttar_Pradesh,Prayagraj,"Nagar Nigam, Prayagraj - UPPCB",25-02-2024 19:00:00,25.44919916 ,81.82735986 ,SO2,11,73,48
India,Uttar_Pradesh,Varanasi,"Ardhali Bazar, Varanasi - UPPCB",25-02-2024 19:00:00,25.3505986,82.9083074,NO2,20,41,28
India,Uttar_Pradesh,Varanasi,"Bhelupur, Varanasi - UPPCB",25-02-2024 19:00:00,25.301778,82.996789,CO,12,51,25
India,Uttar_Pradesh,Vrindavan,"Omex Eternity, Vrindavan - UPPCB",25-02-2024 19:00:00,27.5714090,77.6557570,PM10,36,237,97
India,Uttar_Pradesh,Vrindavan,"Omex Eternity, Vrindavan - UPPCB",25-02-2024 19:00:00,27.5714090,77.6557570,NO2,2,3,3
India,Uttarakhand,Dehradun,"Doon University, Dehradun - UKPCB",25-02-2024 19:00:00,30.269444,78.044167,PM2.5,20,99,55
India,Uttarakhand,Kashipur,"Govt. Girls Inter College, Kashipur - UKPCB",25-02-2024 19:00:00,29.2124114,78.9611753,PM2.5,36,203,72
India,Uttarakhand,Kashipur,"Govt. Girls Inter College, Kashipur - UKPCB",25-02-2024 19:00:00,29.2124114,78.9611753,NO2,4,33,11
India,West_Bengal,Barrackpore,"SVSPA Campus, Barrackpore - WBPCB",25-02-2024 19:00:00,22.7605581,88.3617589,SO2,11,13,12
India,West_Bengal,Durgapur,"Sidhu Kanhu Indoor Stadium, Durgapur - WBPCB",25-02-2024 19:00:00,23.5404352,87.2892225,SO2,34,46,40
India,West_Bengal,Haldia,"Priyambada Housing Estate, Haldia - WBPCB",25-02-2024 19:00:00,22.06047,88.109737,PM10,80,161,124
India,West_Bengal,Haldia,"Priyambada Housing Estate, Haldia - WBPCB",25-02-2024 19:00:00,22.06047,88.109737,NH3,3,4,4
India,West_Bengal,Howrah,"Belur Math, Howrah - WBPCB",25-02-2024 19:00:00,22.629801,88.352017,PM2.5,46,111,77
India,West_Bengal,Howrah,"Belur Math, Howrah - WBPCB",25-02-2024 19:00:00,22.629801,88.352017,PM10,60,121,89
India,West_Bengal,Howrah,"Belur Math, Howrah - WBPCB",25-02-2024 19:00:00,22.629801,88.352017,SO2,11,12,11
India,West_Bengal,Howrah,"Ghusuri, Howrah - WBPCB",25-02-2024 19:00:00,22.611968,88.347422,NO2,23,101,44
India,West_Bengal,Howrah,"Ghusuri, Howrah - WBPCB",25-02-2024 19:00:00,22.611968,88.347422,NH3,7,12,9
India,West_Bengal,Howrah,"Ghusuri, Howrah - WBPCB",25-02-2024 19:00:00,22.611968,88.347422,CO,4,36,6
India,West_Bengal,Howrah,"Ghusuri, Howrah - WBPCB",25-02-2024 19:00:00,22.611968,88.347422,OZONE,16,21,19
India,West_Bengal,Kolkata,"Ballygunge, Kolkata - WBPCB",25-02-2024 19:00:00,22.5367507,88.3638022,SO2,12,22,17
India,West_Bengal,Kolkata,"Ballygunge, Kolkata - WBPCB",25-02-2024 19:00:00,22.5367507,88.3638022,OZONE,10,41,37
India,West_Bengal,Kolkata,"Fort William, Kolkata - WBPCB",25-02-2024 19:00:00,22.556640,88.342674,NO2,26,104,47
India,West_Bengal,Kolkata,"Fort William, Kolkata - WBPCB",25-02-2024 19:00:00,22.556640,88.342674,NH3,5,7,6
India,West_Bengal,Kolkata,"Fort William, Kolkata - WBPCB",25-02-2024 19:00:00,22.556640,88.342674,SO2,4,10,6
India,West_Bengal,Kolkata,"Jadavpur, Kolkata - WBPCB",25-02-2024 19:00:00,22.49929,88.36917,PM10,62,127,96
India,West_Bengal,Kolkata,"Jadavpur, Kolkata - WBPCB",25-02-2024 19:00:00,22.49929,88.36917,SO2,4,8,5
India,West_Bengal,Kolkata,"Jadavpur, Kolkata - WBPCB",25-02-2024 19:00:00,22.49929,88.36917,OZONE,16,32,25
India,West_Bengal,Kolkata,"Rabindra Sarobar, Kolkata - WBPCB",25-02-2024 19:00:00,22.51106,88.35142,PM2.5,34,107,68
India,West_Bengal,Kolkata,"Victoria, Kolkata - WBPCB",25-02-2024 19:00:00,22.5448082,88.3403691,PM10,68,128,96
India,West_Bengal,Kolkata,"Victoria, Kolkata - WBPCB",25-02-2024 19:00:00,22.5448082,88.3403691,NH3,2,3,2
India,West_Bengal,Siliguri,"Ward-32 Bapupara, Siliguri - WBPCB",25-02-2024 19:00:00,26.6879226,88.4152495,PM2.5,66,134,88
India,Andhra_Pradesh,Kadapa,"Yerramukkapalli, Kadapa - APPCB",25-02-2024 19:00:00,14.465052,78.824187,CO,12,18,12
India,Andhra_Pradesh,Kadapa,"Yerramukkapalli, Kadapa - APPCB",25-02-2024 19:00:00,14.465052,78.824187,OZONE,19,77,64
India,Andhra_Pradesh,Rajamahendravaram,"Anand Kala Kshetram, Rajamahendravaram - APPCB",25-02-2024 19:00:00,16.9872867,81.7363176,PM10,35,73,57
India,Andhra_Pradesh,Rajamahendravaram,"Anand Kala Kshetram, Rajamahendravaram - APPCB",25-02-2024 19:00:00,16.9872867,81.7363176,SO2,11,12,12
India,Andhra_Pradesh,Rajamahendravaram,"Anand Kala Kshetram, Rajamahendravaram - APPCB",25-02-2024 19:00:00,16.9872867,81.7363176,CO,22,38,28
India,Andhra_Pradesh,Tirupati,"Tirumala, Tirupati - APPCB",25-02-2024 19:00:00,13.67,79.35,PM10,42,90,61
India,Andhra_Pradesh,Tirupati,"Vaikuntapuram, Tirupati - APPCB",25-02-2024 19:00:00,13.615387,79.409230,PM2.5,19,88,42
India,Andhra_Pradesh,Vijayawada,"Rajiv Gandhi Park, Vijayawada - APPCB",25-02-2024 19:00:00,16.509717,80.612222,PM10,37,68,52
India,Andhra_Pradesh,Vijayawada,"Rajiv Gandhi Park, Vijayawada - APPCB",25-02-2024 19:00:00,16.509717,80.612222,NO2,2,60,22
India,Andhra_Pradesh,Vijayawada,"Rajiv Gandhi Park, Vijayawada - APPCB",25-02-2024 19:00:00,16.509717,80.612222,NH3,3,7,6
India,Andhra_Pradesh,Vijayawada,"Rajiv Nagar, Vijayawada - APPCB",25-02-2024 19:00:00,16.554731,80.649110,SO2,9,20,14
India,Arunachal_Pradesh,Naharlagun,"Naharlagun, Naharlagun - APSPCB",25-02-2024 19:00:00,27.103358,93.679645,OZONE,2,2,2
India,Assam,Byrnihat,"Central Academy for SFS, Byrnihat - PCBA",25-02-2024 19:00:00,26.071318,91.87488,OZONE,13,16,14
India,Assam,Guwahati,"IITG, Guwahati - PCBA",25-02-2024 19:00:00,26.2028636,91.70046436,PM2.5,96,340,258
India,Assam,Guwahati,"IITG, Guwahati - PCBA",25-02-2024 19:00:00,26.2028636,91.70046436,NH3,5,5,5
India,Assam,Guwahati,"IITG, Guwahati - PCBA",25-02-2024 19:00:00,26.2028636,91.70046436,OZONE,2,31,20
India,Assam,Guwahati,"LGBI Airport, Guwahati - PCBA",25-02-2024 19:00:00,26.10887,91.589544,NO2,9,67,33
India,Assam,Guwahati,"LGBI Airport, Guwahati - PCBA",25-02-2024 19:00:00,26.10887,91.589544,NH3,1,7,3
India,Assam,Guwahati,"Railway Colony, Guwahati - PCBA",25-02-2024 19:00:00,26.181742,91.78063,NO2,3,4,3
India,Assam,Guwahati,"Railway Colony, Guwahati - PCBA",25-02-2024 19:00:00,26.181742,91.78063,OZONE,5,29,14
India,Assam,Nagaon,"Christianpatty, Nagaon - PCBA",25-02-2024 19:00:00,26.349082,92.68449,NO2,11,91,36
India,Assam,Nalbari,"Bata Chowk, Nalbari - PCBA",25-02-2024 19:00:00,26.446912,91.439057,NO2,18,41,24
India,Assam,Nalbari,"Bata Chowk, Nalbari - PCBA",25-02-2024 19:00:00,26.446912,91.439057,SO2,6,9,8
India,Assam,Nalbari,"Bata Chowk, Nalbari - PCBA",25-02-2024 19:00:00,26.446912,91.439057,CO,22,139,28
India,Assam,Silchar,"Tarapur, Silchar - PCBA",25-02-2024 19:00:00,24.82827,92.79525,PM2.5,43,58,50
India,Assam,Silchar,"Tarapur, Silchar - PCBA",25-02-2024 19:00:00,24.82827,92.79525,PM10,47,48,48
India,Assam,Silchar,"Tarapur, Silchar - PCBA",25-02-2024 19:00:00,24.82827,92.79525,NH3,1,1,1
India,Assam,Sivasagar,"Girls College, Sivasagar - PCBA",25-02-2024 19:00:00,26.987634,94.636574,NO2,17,27,20
India,Bihar,Araria,"Kharahiya Basti, Araria - BSPCB",25-02-2024 19:00:00,26.146529,87.454184,SO2,11,17,14
India,Bihar,Araria,"Kharahiya Basti, Araria - BSPCB",25-02-2024 19:00:00,26.146529,87.454184,OZONE,7,10,8
India,Bihar,Arrah,"New DM Office, Arrah - BSPCB",25-02-2024 19:00:00,25.5626095,84.663264,PM10,43,268,116
India,Bihar,Arrah,"New DM Office, Arrah - BSPCB",25-02-2024 19:00:00,25.5626095,84.663264,NH3,4,9,5
India,Bihar,Arrah,"New DM Office, Arrah - BSPCB",25-02-2024 19:00:00,25.5626095,84.663264,SO2,16,22,19
India,Bihar,Aurangabad,"Gurdeo Nagar, Aurangabad - BSPCB",25-02-2024 19:00:00,24.75746,84.366208,PM10,44,183,100
India,Bihar,Aurangabad,"Gurdeo Nagar, Aurangabad - BSPCB",25-02-2024 19:00:00,24.75746,84.366208,NH3,6,8,7
India,Bihar,Bettiah,"Kamalnath Nagar, Bettiah - BSPCB",25-02-2024 19:00:00,26.80365,84.51954,PM10,2,52,21
India,Bihar,Bhagalpur,"DM Office_Kachari Chowk, Bhagalpur - BSPCB",25-02-2024 19:00:00,25.251013,86.989001,PM2.5,75,355,146
India,Bihar,Bhagalpur,"Mayaganj, Bhagalpur - BSPCB",25-02-2024 19:00:00,25.265194,87.012947,NO2,3,22,9
India,Bihar,Bhagalpur,"Mayaganj, Bhagalpur - BSPCB",25-02-2024 19:00:00,25.265194,87.012947,OZONE,8,41,27
India,Bihar,Bihar Sharif,"D M Colony, Bihar Sharif - BSPCB",25-02-2024 19:00:00,25.204762,85.514960,PM2.5,12,332,82
India,Bihar,Buxar,"Charitra Van, Buxar - BSPCB (Formerly known as Central Jail)",25-02-2024 19:00:00,25.567520,83.966379,PM10,87,388,173
India,Bihar,Buxar,"Charitra Van, Buxar - BSPCB (Formerly known as Central Jail)",25-02-2024 19:00:00,25.567520,83.966379,NH3,NA,NA,NA
India,Bihar,Chhapra,"Darshan Nagar, Chhapra - BSPCB",25-02-2024 19:00:00,25.7808257,84.7446768,CO,23,42,39
India,Bihar,Gaya,"Collectorate, Gaya - BSPCB",25-02-2024 19:00:00,24.7955,84.9994,PM2.5,43,306,150
India,Bihar,Gaya,"Kareemganj, Gaya - BSPCB",25-02-2024 19:00:00,24.792403,84.992416,PM2.5,10,217,62
India,Bihar,Gaya,"SFTI Kusdihra, Gaya - BSPCB",25-02-2024 19:00:00,24.762518,84.982348,PM10,49,93,72
India,Bihar,Gaya,"SFTI Kusdihra, Gaya - BSPCB",25-02-2024 19:00:00,24.762518,84.982348,SO2,8,10,9
India,Bihar,Hajipur,"Industrial Area, Hajipur - BSPCB",25-02-2024 19:00:00,25.697189,85.245900,PM2.5,54,268,122
India,Bihar,Hajipur,"Industrial Area, Hajipur - BSPCB",25-02-2024 19:00:00,25.697189,85.245900,NO2,37,63,46
India,Bihar,Hajipur,"Industrial Area, Hajipur - BSPCB",25-02-2024 19:00:00,25.697189,85.245900,NH3,4,10,7
India,Bihar,Hajipur,"Industrial Area, Hajipur - BSPCB",25-02-2024 19:00:00,25.697189,85.245900,OZONE,1,5,3
India,Bihar,Katihar,"Mirchaibari, Katihar - BSPCB",25-02-2024 19:00:00,25.560083,87.553265,PM10,12,156,93
India,Bihar,Kishanganj,"SDM Office_Khagra, Kishanganj - BSPCB",25-02-2024 19:00:00,26.0881305,87.93840336,PM10,84,183,133
India,Bihar,Manguraha,"Forest Rest House, Manguraha - BSPCB",25-02-2024 19:00:00,27.308328,84.531742,NO2,5,16,10
India,Bihar,Manguraha,"Forest Rest House, Manguraha - BSPCB",25-02-2024 19:00:00,27.308328,84.531742,CO,NA,NA,NA
India,Bihar,Motihari,"Gandak Colony, Motihari - BSPCB",25-02-2024 19:00:00,26.63086,84.90051,PM2.5,33,207,95
India,Bihar,Motihari,"Gandak Colony, Motihari - BSPCB",25-02-2024 19:00:00,26.63086,84.90051,PM10,33,132,82
India,Bihar,Motihari,"Gandak Colony, Motihari - BSPCB",25-02-2024 19:00:00,26.63086,84.90051,NH3,7,13,10
India,Bihar,Munger,"Town Hall, Munger - BSPCB",25-02-2024 19:00:00,25.376776,86.471523,SO2,29,49,38
India,Bihar,Muzaffarpur,"Buddha Colony, Muzaffarpur - BSPCB",25-02-2024 19:00:00,26.11442,85.39813,PM10,136,193,168
India,Bihar,Muzaffarpur,"MIT-Daudpur Kothi, Muzaffarpur - BSPCB",25-02-2024 19:00:00,26.1403345,85.3650192,NO2,7,10,8
India,Bihar,Muzaffarpur,"Muzaffarpur Collectorate, Muzaffarpur - BSPCB",25-02-2024 19:00:00,26.1209,85.3647,PM2.5,54,376,163
India,Bihar,Muzaffarpur,"Muzaffarpur Collectorate, Muzaffarpur - BSPCB",25-02-2024 19:00:00,26.1209,85.3647,CO,16,36,21
India,Bihar,Patna,"Govt. High School Shikarpur, Patna - BSPCB",25-02-2024 19:00:00,25.592539,85.227158,PM10,120,218,153
India,Bihar,Patna,"Govt. High School Shikarpur, Patna - BSPCB",25-02-2024 19:00:00,25.592539,85.227158,SO2,1,5,3
India,Bihar,Patna,"IGSC Planetarium Complex, Patna - BSPCB",25-02-2024 19:00:00,25.610369,85.132568,OZONE,5,24,22
India,Bihar,Patna,"Muradpur, Patna - BSPCB",25-02-2024 19:00:00,25.619651,85.147382,PM10,108,500,249
India,Bihar,Patna,"Muradpur, Patna - BSPCB",25-02-2024 19:00:00,25.619651,85.147382,NO2,7,24,13
India,Bihar,Patna,"Rajbansi Nagar, Patna - BSPCB",25-02-2024 19:00:00,25.599486,85.113666,NO2,43,57,48
India,Bihar,Patna,"Samanpura, Patna - BSPCB",25-02-2024 19:00:00,25.596727,85.085624,PM10,128,497,289
India,Bihar,Patna,"Samanpura, Patna - BSPCB",25-02-2024 19:00:00,25.596727,85.085624,NH3,1,17,5
India,Bihar,Patna,"Samanpura, Patna - BSPCB",25-02-2024 19:00:00,25.596727,85.085624,SO2,15,16,16
India,Bihar,Purnia,"Mariam Nagar, Purnia - BSPCB",25-02-2024 19:00:00,25.366336,87.117468,SO2,19,34,24
India,Bihar,Rajgir,"Dangi Tola, Rajgir - BSPCB",25-02-2024 19:00:00,25.03280,85.41948,NH3,1,3,1
India,Bihar,Saharsa,"Police Line, Saharsa - BSPCB",25-02-2024 19:00:00,25.892357,86.590325,PM10,65,175,117
India,Bihar,Saharsa,"Police Line, Saharsa - BSPCB",25-02-2024 19:00:00,25.892357,86.590325,SO2,16,17,16
India,Bihar,Samastipur,"DM Office_Kasipur, Samastipur - BSPCB",25-02-2024 19:00:00,25.859655,85.77944,PM2.5,40,328,150
India,Bihar,Sasaram,"Dada Peer, Sasaram - BSPCB",25-02-2024 19:00:00,24.952822,84.002396,SO2,22,23,23
India,Chandigarh,Chandigarh,"Sector 22, Chandigarh - CPCC",25-02-2024 19:00:00,30.735567,76.775714,PM10,42,157,86
India,Chandigarh,Chandigarh,"Sector 22, Chandigarh - CPCC",25-02-2024 19:00:00,30.735567,76.775714,NH3,3,5,4
India,Chandigarh,Chandigarh,"Sector-25, Chandigarh - CPCC",25-02-2024 19:00:00,30.751462,76.762879,PM10,103,166,125
India,Chandigarh,Chandigarh,"Sector-53, Chandigarh - CPCC",25-02-2024 19:00:00,30.719859,76.738637,PM2.5,42,173,90
India,Chandigarh,Chandigarh,"Sector-53, Chandigarh - CPCC",25-02-2024 19:00:00,30.719859,76.738637,SO2,11,26,18
India,Chhattisgarh,Bilaspur,"Mangala, Bilaspur - NTPC",25-02-2024 19:00:00,22.08815,82.13737,NO2,15,24,19
India,Chhattisgarh,Bilaspur,"Mangala, Bilaspur - NTPC",25-02-2024 19:00:00,22.08815,82.13737,SO2,1,58,24
India,Chhattisgarh,Korba,"Urja Nagar, Korba - CECB",25-02-2024 19:00:00,22.348441,82.549611,NO2,68,80,73
India,Chhattisgarh,Korba,"Urja Nagar, Korba - CECB",25-02-2024 19:00:00,22.348441,82.549611,SO2,3,13,5
India,Chhattisgarh,Korba,"Urja Nagar, Korba - CECB",25-02-2024 19:00:00,22.348441,82.549611,OZONE,1,1,1
India,Chhattisgarh,Kunjemura,"OP Jindal School, Kunjemura - CECB",25-02-2024 19:00:00,22.126650,83.483212,CO,26,39,33
India,Chhattisgarh,Milupara,"Govt. Higher Secondary School, Milupara - CECB",25-02-2024 19:00:00,22.1910172,83.5197009,NH3,1,2,1
India,Chhattisgarh,Raipur,"Bhatagaon New ISBT, Raipur - CECB",25-02-2024 19:00:00,21.219665,81.630094,PM2.5,31,66,46
India,Chhattisgarh,Raipur,"Bhatagaon New ISBT, Raipur - CECB",25-02-2024 19:00:00,21.219665,81.630094,NO2,63,91,72
India,Chhattisgarh,Raipur,"Krishak Nagar, Raipur - CECB",25-02-2024 19:00:00,21.237755,81.705301,PM10,56,112,80
India,Chhattisgarh,Raipur,"Krishak Nagar, Raipur - CECB",25-02-2024 19:00:00,21.237755,81.705301,SO2,7,20,12
India,Chhattisgarh,Tumidih,"OP Jindal Industrial Park, Tumidih - CECB",25-02-2024 19:00:00,22.06631475,83.33820077,PM10,34,71,48
India,Chhattisgarh,Tumidih,"OP Jindal Industrial Park, Tumidih - CECB",25-02-2024 19:00:00,22.06631475,83.33820077,NH3,2,3,3
India,Chhattisgarh,Tumidih,"OP Jindal Industrial Park, Tumidih - CECB",25-02-2024 19:00:00,22.06631475,83.33820077,OZONE,32,62,48
India,Delhi,Delhi,"Anand Vihar, Delhi - DPCC",25-02-2024 19:00:00,28.647622,77.3158090,PM10,100,454,231
India,Delhi,Delhi,"Anand Vihar, Delhi - DPCC",25-02-2024 19:00:00,28.647622,77.3158090,OZONE,17,22,19
India,Delhi,Delhi,"Aya Nagar, Delhi - IMD",25-02-2024 19:00:00,28.4706914,77.1099364,PM10,55,222,141
India,Delhi,Delhi,"Aya Nagar, Delhi - IMD",25-02-2024 19:00:00,28.4706914,77.1099364,NO2,10,65,19
India,Delhi,Delhi,"Bawana, Delhi - DPCC",25-02-2024 19:00:00,28.776200,77.051074,CO,12,56,23
India,Delhi,Delhi,"Burari Crossing, Delhi - IMD",25-02-2024 19:00:00,28.7256504,77.2011573,NO2,1,9,4
India,Delhi,Delhi,"Chandni Chowk, Delhi - IITM",25-02-2024 19:00:00,28.656756,77.227234,NO2,19,20,20
India,Delhi,Delhi,"DTU, Delhi - CPCB",25-02-2024 19:00:00,28.7500499,77.1112615,PM10,53,308,181
India,Delhi,Delhi,"DTU, Delhi - CPCB",25-02-2024 19:00:00,28.7500499,77.1112615,CO,15,40,24
India,Delhi,Delhi,"Dr. Karni Singh Shooting Range, Delhi - DPCC",25-02-2024 19:00:00,28.498571,77.264840,PM10,66,303,166
India,Delhi,Delhi,"Dwarka-Sector 8, Delhi - DPCC ",25-02-2024 19:00:00,28.5710274,77.0719006,PM2.5,60,308,180
India,Delhi,Delhi,"Dwarka-Sector 8, Delhi - DPCC ",25-02-2024 19:00:00,28.5710274,77.0719006,NH3,5,10,7
India,Delhi,Delhi,"IGI Airport (T3), Delhi - IMD",25-02-2024 19:00:00,28.5627763,77.1180053,NO2,33,93,60
India,Delhi,Delhi,"IGI Airport (T3), Delhi - IMD",25-02-2024 19:00:00,28.5627763,77.1180053,CO,2,62,7
India,Delhi,Delhi,"ITO, Delhi - CPCB",25-02-2024 19:00:00,28.628624,77.241060,CO,38,114,50
India,Delhi,Delhi,"Lodhi Road, Delhi - IMD",25-02-2024 19:00:00,28.5918245,77.2273074,OZONE,2,89,62
India,Delhi,Delhi,"Major Dhyan Chand National Stadium, Delhi - DPCC",25-02-2024 19:00:00,28.611281,77.237738,PM10,70,242,148
India,Delhi,Delhi,"Major Dhyan Chand National Stadium, Delhi - DPCC",25-02-2024 19:00:00,28.611281,77.237738,CO,70,130,78
India,Delhi,Delhi,"Mundka, Delhi - DPCC",25-02-2024 19:00:00,28.684678,77.076574,NO2,32,124,77
India,Delhi,Delhi,"NSIT Dwarka, Delhi - CPCB",25-02-2024 19:00:00,28.60909,77.0325413,NO2,66,88,76
India,Delhi,Delhi,"Najafgarh, Delhi - DPCC",25-02-2024 19:00:00,28.570173,76.933762,NO2,NA,NA,NA
India,Delhi,Delhi,"Najafgarh, Delhi - DPCC",25-02-2024 19:00:00,28.570173,76.933762,CO,NA,NA,NA
India,Delhi,Delhi,"Narela, Delhi - DPCC",25-02-2024 19:00:00,28.822836,77.101981,NH3,4,11,7
India,Delhi,Delhi,"Nehru Nagar, Delhi - DPCC",25-02-2024 19:00:00,28.567890,77.250515,NH3,7,17,12
India,Delhi,Delhi,"Nehru Nagar, Delhi - DPCC",25-02-2024 19:00:00,28.567890,77.250515,SO2,8,27,13
India,Delhi,Delhi,"North Campus, DU, Delhi - IMD",25-02-2024 19:00:00,28.6573814,77.1585447,PM10,101,203,147
India,Delhi,Delhi,"North Campus, DU, Delhi - IMD",25-02-2024 19:00:00,28.6573814,77.1585447,OZONE,1,34,28
India,Delhi,Delhi,"Okhla Phase-2, Delhi - DPCC",25-02-2024 19:00:00,28.530785,77.271255,PM2.5,44,361,212
India,Delhi,Delhi,"Patparganj, Delhi - DPCC",25-02-2024 19:00:00,28.623763,77.287209,PM10,87,302,168
India,Delhi,Delhi,"Punjabi Bagh, Delhi - DPCC",25-02-2024 19:00:00,28.674045,77.131023,PM2.5,46,383,214
India,Delhi,Delhi,"Pusa, Delhi - DPCC",25-02-2024 19:00:00,28.639652,77.146275,SO2,8,39,17
India,Delhi,Delhi,"Pusa, Delhi - DPCC",25-02-2024 19:00:00,28.639652,77.146275,CO,98,121,103
India,Delhi,Delhi,"Rohini, Delhi - DPCC",25-02-2024 19:00:00,28.732528,77.119920,SO2,8,35,18
India,Delhi,Delhi,"Shadipur, Delhi - CPCB",25-02-2024 19:00:00,28.6514781,77.1473105,PM10,116,448,255
India,Delhi,Delhi,"Shadipur, Delhi - CPCB",25-02-2024 19:00:00,28.6514781,77.1473105,SO2,2,58,15
India,Delhi,Delhi,"Shadipur, Delhi - CPCB",25-02-2024 19:00:00,28.6514781,77.1473105,CO,8,72,39
India,Delhi,Delhi,"Vivek Vihar, Delhi - DPCC",25-02-2024 19:00:00,28.672342,77.315260,PM2.5,31,339,229
India,Delhi,Delhi,"Vivek Vihar, Delhi - DPCC",25-02-2024 19:00:00,28.672342,77.315260,CO,4,78,12
India,Delhi,Delhi,"Wazirpur, Delhi - DPCC",25-02-2024 19:00:00,28.699793,77.165453,SO2,10,58,33
India,Gujarat,Ahmedabad,"Rakhial, Ahmedabad - IITM",25-02-2024 19:00:00,23.016834,72.625775,NH3,2,13,6
India,Gujarat,Ahmedabad,"Rakhial, Ahmedabad - IITM",25-02-2024 19:00:00,23.016834,72.625775,OZONE,4,54,46
India,Gujarat,Ahmedabad,"SAC ISRO Bopal, Ahmedabad - IITM",25-02-2024 19:00:00,23.041137,72.456691,OZONE,7,21,19
India,Gujarat,Ahmedabad,"SAC ISRO Satellite, Ahmedabad - IITM",25-02-2024 19:00:00,23.023389,72.515201,PM10,90,92,91
India,Gujarat,Ahmedabad,"SVPI Airport Hansol, Ahmedabad - IITM",25-02-2024 19:00:00,23.076793,72.627874,SO2,NA,NA,NA
India,Gujarat,Ahmedabad,"Sardar Vallabhbhai Patel Stadium, Ahmedabad - IITM",25-02-2024 19:00:00,23.043070,72.562968,NO2,12,14,13
India,Gujarat,Ahmedabad,"Sardar Vallabhbhai Patel Stadium, Ahmedabad - IITM",25-02-2024 19:00:00,23.043070,72.562968,NH3,1,2,1
India,Gujarat,Ahmedabad,"Sardar Vallabhbhai Patel Stadium, Ahmedabad - IITM",25-02-2024 19:00:00,23.043070,72.562968,SO2,3,10,7
India,Gujarat,Ankleshwar,"GIDC, Ankleshwar - GPCB",25-02-2024 19:00:00,21.613267,73.010555,NH3,7,7,7
India,Gujarat,Ankleshwar,"GIDC, Ankleshwar - GPCB",25-02-2024 19:00:00,21.613267,73.010555,SO2,16,140,60
India,Gujarat,Ankleshwar,"GIDC, Ankleshwar - GPCB",25-02-2024 19:00:00,21.613267,73.010555,CO,62,96,78
India,Gujarat,Gandhinagar,"IIPHG Lekawada, Gandhinagar - IITM",25-02-2024 19:00:00,23.243639,72.68994,NH3,3,3,3
India,Gujarat,Gandhinagar,"IIPHG Lekawada, Gandhinagar - IITM",25-02-2024 19:00:00,23.243639,72.68994,OZONE,27,155,37
India,Gujarat,Vapi,"Phase-1 GIDC, Vapi - GPCB",25-02-2024 19:00:00,20.362421,72.918013,PM2.5,45,385,163
India,Gujarat,Vatva,"Phase-4 GIDC, Vatva - GPCB",25-02-2024 19:00:00,22.969611,72.643500,PM2.5,44,127,86
India,Gujarat,Vatva,"Phase-4 GIDC, Vatva - GPCB",25-02-2024 19:00:00,22.969611,72.643500,PM10,NA,NA,NA
India,Haryana,Bahadurgarh,"Arya Nagar, Bahadurgarh - HSPCB",25-02-2024 19:00:00,28.6701,76.9254,NO2,33,39,36
India,Haryana,Ballabgarh,"Nathu Colony, Ballabgarh - HSPCB",25-02-2024 19:00:00,28.3419248,77.319699,PM10,76,171,129
India,Haryana,Ballabgarh,"Nathu Colony, Ballabgarh - HSPCB",25-02-2024 19:00:00,28.3419248,77.319699,NO2,11,13,12
India,Haryana,Ballabgarh,"Nathu Colony, Ballabgarh - HSPCB",25-02-2024 19:00:00,28.3419248,77.319699,SO2,3,17,10
India,Haryana,Bhiwani,"H.B. Colony, Bhiwani - HSPCB",25-02-2024 19:00:00,28.806223,76.141105,CO,2,42,32
India,Haryana,Bhiwani,"H.B. Colony, Bhiwani - HSPCB",25-02-2024 19:00:00,28.806223,76.141105,OZONE,5,20,7
India,Haryana,Dharuhera,"Municipal Corporation Office, Dharuhera -  HSPCB",25-02-2024 19:00:00,28.206800,76.799700,PM2.5,27,198,122
India,Haryana,Dharuhera,"Municipal Corporation Office, Dharuhera -  HSPCB",25-02-2024 19:00:00,28.206800,76.799700,CO,2,47,13
India,Haryana,Faridabad,"New Industrial Town, Faridabad - HSPCB",25-02-2024 19:00:00,28.39072,77.30059,PM10,4,241,58
India,Haryana,Faridabad,"New Industrial Town, Faridabad - HSPCB",25-02-2024 19:00:00,28.39072,77.30059,NH3,4,14,7
India,Haryana,Faridabad,"Sector 11, Faridabad - HSPCB",25-02-2024 19:00:00,28.376058,77.315741,PM10,45,401,188
India,Haryana,Faridabad,"Sector 30, Faridabad - HSPCB",25-02-2024 19:00:00,28.4417,77.3217,PM2.5,NA,NA,NA
India,Haryana,Faridabad,"Sector 30, Faridabad - HSPCB",25-02-2024 19:00:00,28.4417,77.3217,PM10,NA,NA,NA
India,Haryana,Faridabad,"Sector 30, Faridabad - HSPCB",25-02-2024 19:00:00,28.4417,77.3217,NH3,NA,NA,NA
India,Haryana,Fatehabad,"Huda Sector, Fatehabad - HSPCB",25-02-2024 19:00:00,29.503664,75.467934,NH3,NA,NA,NA
India,Haryana,Gurugram,"Sector-51, Gurugram - HSPCB",25-02-2024 19:00:00,28.4227,77.0667,PM2.5,97,363,256
India,Haryana,Gurugram,"Sector-51, Gurugram - HSPCB",25-02-2024 19:00:00,28.4227,77.0667,NO2,13,29,23
India,Haryana,Gurugram,"Sector-51, Gurugram - HSPCB",25-02-2024 19:00:00,28.4227,77.0667,SO2,2,5,4
India,Haryana,Gurugram,"Teri Gram, Gurugram - HSPCB",25-02-2024 19:00:00,28.4275,77.1465,PM2.5,76,306,166
India,Haryana,Gurugram,"Vikas Sadan, Gurugram - HSPCB",25-02-2024 19:00:00,28.4501238,77.0263051,PM2.5,22,110,68
India,Haryana,Hisar,"Urban Estate-II, Hisar - HSPCB",25-02-2024 19:00:00,29.140560,75.744941,NH3,2,4,3
India,Haryana,Hisar,"Urban Estate-II, Hisar - HSPCB",25-02-2024 19:00:00,29.140560,75.744941,CO,40,109,60
India,Haryana,Hisar,"Urban Estate-II, Hisar - HSPCB",25-02-2024 19:00:00,29.140560,75.744941,OZONE,40,180,141
India,Haryana,Kaithal,"Rishi Nagar, Kaithal - HSPCB",25-02-2024 19:00:00,29.8006,76.4155,NH3,NA,NA,NA
India,Haryana,Kaithal,"Rishi Nagar, Kaithal - HSPCB",25-02-2024 19:00:00,29.8006,76.4155,SO2,NA,NA,NA
India,Haryana,Karnal,"Sector-12, Karnal - HSPCB",25-02-2024 19:00:00,29.695300,77.002700,PM2.5,11,32,21
India,Haryana,Karnal,"Sector-12, Karnal - HSPCB",25-02-2024 19:00:00,29.695300,77.002700,NO2,7,12,10
India,Haryana,Karnal,"Sector-12, Karnal - HSPCB",25-02-2024 19:00:00,29.695300,77.002700,NH3,10,13,11
India,Haryana,Karnal,"Sector-12, Karnal - HSPCB",25-02-2024 19:00:00,29.695300,77.002700,SO2,12,13,12
India,Haryana,Kurukshetra,"Sector-7, Kurukshetra - HSPCB",25-02-2024 19:00:00,29.966942,76.875879,NO2,10,11,10
India,Haryana,Kurukshetra,"Sector-7, Kurukshetra - HSPCB",25-02-2024 19:00:00,29.966942,76.875879,CO,4,34,12
India,Haryana,Mandikhera,"General Hospital, Mandikhera - HSPCB",25-02-2024 19:00:00,27.9002,76.9938,PM2.5,26,75,50
India,Haryana,Manesar,"Sector-2 IMT, Manesar - HSPCB",25-02-2024 19:00:00,28.360699,76.936090,NH3,7,17,10
India,Haryana,Narnaul,"Shastri Nagar, Narnaul - HSPCB",25-02-2024 19:00:00,28.060249,76.113115,PM10,36,119,59
India,Haryana,Narnaul,"Shastri Nagar, Narnaul - HSPCB",25-02-2024 19:00:00,28.060249,76.113115,NO2,16,58,35
India,Haryana,Narnaul,"Shastri Nagar, Narnaul - HSPCB",25-02-2024 19:00:00,28.060249,76.113115,SO2,12,13,13
India,Haryana,Narnaul,"Shastri Nagar, Narnaul - HSPCB",25-02-2024 19:00:00,28.060249,76.113115,OZONE,22,43,42
India,Haryana,Palwal,"Shyam Nagar, Palwal - HSPCB",25-02-2024 19:00:00,28.1485564,77.3320667,NO2,23,24,24
India,Haryana,Panchkula,"Sector-6, Panchkula - HSPCB ",25-02-2024 19:00:00,30.7057778,76.8531805555555,CO,3,193,56
India,Haryana,Panipat,"Sector-18, Panipat - HSPCB",25-02-2024 19:00:00,29.497973,76.993331,PM2.5,130,138,134
India,Haryana,Panipat,"Sector-18, Panipat - HSPCB",25-02-2024 19:00:00,29.497973,76.993331,PM10,89,91,90
India,Haryana,Rohtak,"MD University, Rohtak - HSPCB",25-02-2024 19:00:00,28.52123,76.37138,PM2.5,16,97,67
India,Haryana,Rohtak,"MD University, Rohtak - HSPCB",25-02-2024 19:00:00,28.52123,76.37138,NO2,45,54,50
India,Haryana,Rohtak,"MD University, Rohtak - HSPCB",25-02-2024 19:00:00,28.52123,76.37138,SO2,5,8,7
India,Haryana,Sirsa,"F-Block, Sirsa - HSPCB",25-02-2024 19:00:00,29.536400,75.015800,NH3,12,13,13
India,Haryana,Sonipat,"Murthal, Sonipat - HSPCB",25-02-2024 19:00:00,29.027200,77.062100,PM2.5,34,87,68
India,Haryana,Sonipat,"Murthal, Sonipat - HSPCB",25-02-2024 19:00:00,29.027200,77.062100,OZONE,16,35,35
India,Haryana,Yamuna Nagar,"Gobind Pura, Yamuna Nagar - HSPCB",25-02-2024 19:00:00,30.1480566,77.2893471,OZONE,20,37,29
India,Jharkhand,Dhanbad,"Kalakusuma, Dhanbad - DMC",25-02-2024 19:00:00,23.811548,86.481238,OZONE,25,30,29
India,Jharkhand,Dhanbad,"Sardar Patel Nagar, Dhanbad - JSPCB",25-02-2024 19:00:00,23.80569,86.44268,NO2,NA,NA,NA
India,Jharkhand,Pathardih,"Mohalbani Ghat, Pathardih - DMC",25-02-2024 19:00:00,23.669880,86.411725,CO,NA,NA,NA
India,Jharkhand,Pathardih,"Mohalbani Ghat, Pathardih - DMC",25-02-2024 19:00:00,23.669880,86.411725,OZONE,NA,NA,NA
India,Karnataka,Belgaum,"Ramteerth Nagar, Belgaum - KSPCB",25-02-2024 19:00:00,15.888653,74.541751,PM2.5,27,64,40
India,Karnataka,Belgaum,"Ramteerth Nagar, Belgaum - KSPCB",25-02-2024 19:00:00,15.888653,74.541751,OZONE,19,20,19
India,Karnataka,Bengaluru,"BTM Layout, Bengaluru - CPCB",25-02-2024 19:00:00,12.9135218,77.5950804,NO2,34,36,35
India,Karnataka,Bengaluru,"BTM Layout, Bengaluru - CPCB",25-02-2024 19:00:00,12.9135218,77.5950804,CO,29,30,30
India,Karnataka,Bengaluru,"BTM Layout, Bengaluru - CPCB",25-02-2024 19:00:00,12.9135218,77.5950804,OZONE,2,56,21
India,Karnataka,Bengaluru,"Bapuji Nagar, Bengaluru - KSPCB",25-02-2024 19:00:00,12.951913,77.539784,NO2,7,15,11
India,Karnataka,Bengaluru,"Hombegowda Nagar, Bengaluru - KSPCB",25-02-2024 19:00:00,12.938539,77.590100,PM2.5,35,66,51
India,Karnataka,Bengaluru,"Hombegowda Nagar, Bengaluru - KSPCB",25-02-2024 19:00:00,12.938539,77.590100,CO,14,20,16
India,Karnataka,Bengaluru,"Jayanagar 5th Block, Bengaluru - KSPCB",25-02-2024 19:00:00,12.920984,77.584908,SO2,13,28,19
India,Karnataka,Bengaluru,"Jigani, Bengaluru - KSPCB",25-02-2024 19:00:00,12.7816279,77.6299145,OZONE,18,68,61
India,Karnataka,Bengaluru,"Kasturi Nagar, Bengaluru - KSPCB",25-02-2024 19:00:00,13.003872,77.664217,NH3,3,4,4
India,Karnataka,Bengaluru,"Kasturi Nagar, Bengaluru - KSPCB",25-02-2024 19:00:00,13.003872,77.664217,CO,21,28,23
India,Karnataka,Bengaluru,"Peenya, Bengaluru - CPCB",25-02-2024 19:00:00,13.0270199,77.494094,PM2.5,30,193,68
India,Karnataka,Bengaluru,"Peenya, Bengaluru - CPCB",25-02-2024 19:00:00,13.0270199,77.494094,NH3,3,4,3
India,Karnataka,Bengaluru,"RVCE-Mailasandra, Bengaluru - KSPCB",25-02-2024 19:00:00,12.921418,77.502466,SO2,7,17,11
India,Karnataka,Bengaluru,"RVCE-Mailasandra, Bengaluru - KSPCB",25-02-2024 19:00:00,12.921418,77.502466,OZONE,49,69,66
India,Karnataka,Bengaluru,"Sanegurava Halli, Bengaluru - KSPCB",25-02-2024 19:00:00,12.990328,77.5431385,SO2,2,3,3
India,Karnataka,Bengaluru,"Shivapura_Peenya, Bengaluru - KSPCB",25-02-2024 19:00:00,13.0246342,77.5080115,SO2,5,18,10
India,Karnataka,Bengaluru,"Silk Board, Bengaluru - KSPCB",25-02-2024 19:00:00,12.917348,77.622813,PM10,53,114,85
India,Karnataka,Bengaluru,"Silk Board, Bengaluru - KSPCB",25-02-2024 19:00:00,12.917348,77.622813,OZONE,28,31,30
India,Karnataka,Bidar,"Naubad, Bidar - KSPCB",25-02-2024 19:00:00,17.930306,77.482194,CO,54,70,60
India,Karnataka,Bidar,"Naubad, Bidar - KSPCB",25-02-2024 19:00:00,17.930306,77.482194,OZONE,39,45,42
India,Karnataka,Chamarajanagar,"Urban, Chamarajanagar - KSPCB",25-02-2024 19:00:00,11.55358,76.55521,NH3,1,2,2
India,Karnataka,Chamarajanagar,"Urban, Chamarajanagar - KSPCB",25-02-2024 19:00:00,11.55358,76.55521,SO2,4,8,5
India,Karnataka,Chamarajanagar,"Urban, Chamarajanagar - KSPCB",25-02-2024 19:00:00,11.55358,76.55521,OZONE,25,38,32
India,Karnataka,Chikkaballapur,"Chikkaballapur Rural, Chikkaballapur - KSPCB",25-02-2024 19:00:00,13.428828,77.731418,PM2.5,55,185,81
India,Karnataka,Chikkaballapur,"Chikkaballapur Rural, Chikkaballapur - KSPCB",25-02-2024 19:00:00,13.428828,77.731418,CO,8,14,8
India,Karnataka,Chikkamagaluru,"Kalyana Nagara, Chikkamagaluru - KSPCB",25-02-2024 19:00:00,13.328028,75.797056,NH3,2,5,3
India,Karnataka,Dharwad,"Kalabhavan, Dharwad - KSPCB",25-02-2024 19:00:00,15.459706,75.008381,NO2,4,35,22
India,Karnataka,Gadag,"Panchal Nagar, Gadag - KSPCB",25-02-2024 19:00:00,15.411456,75.638133,NO2,4,21,13
India,Karnataka,Gadag,"Panchal Nagar, Gadag - KSPCB",25-02-2024 19:00:00,15.411456,75.638133,CO,40,49,44
India,Karnataka,Hassan,"B.Katihalli, Hassan - KSPCB",25-02-2024 19:00:00,13.008556,76.125258,NO2,8,13,12
India,Karnataka,Hassan,"B.Katihalli, Hassan - KSPCB",25-02-2024 19:00:00,13.008556,76.125258,CO,12,64,41
India,Karnataka,Haveri,"Ashwini Nagar, Haveri - KSPCB",25-02-2024 19:00:00,14.791800,75.389600,NH3,NA,NA,NA
India,Karnataka,Haveri,"Ashwini Nagar, Haveri - KSPCB",25-02-2024 19:00:00,14.791800,75.389600,OZONE,NA,NA,NA
India,Karnataka,Kalaburagi,"Lal Bahadur Shastri Nagar, Kalaburagi - KSPCB",25-02-2024 19:00:00,17.321993,76.822628,PM2.5,NA,NA,NA
India,Karnataka,Kalaburagi,"Lal Bahadur Shastri Nagar, Kalaburagi - KSPCB",25-02-2024 19:00:00,17.321993,76.822628,PM10,2,77,26
India,Karnataka,Kalaburagi,"Lal Bahadur Shastri Nagar, Kalaburagi - KSPCB",25-02-2024 19:00:00,17.321993,76.822628,NH3,2,2,2
India,Karnataka,Kalaburagi,"Lal Bahadur Shastri Nagar, Kalaburagi - KSPCB",25-02-2024 19:00:00,17.321993,76.822628,CO,39,74,40
India,Karnataka,Kalaburagi,"Mahatma Basaveswar Colony, Kalaburgi - KSPCB",25-02-2024 19:00:00,17.336318,76.847397,PM10,40,57,52
India,Karnataka,Karwar,"KHB Colony, Karwar - KSPCB",25-02-2024 19:00:00,14.816666,74.141003,PM10,38,99,63
India,Karnataka,Karwar,"KHB Colony, Karwar - KSPCB",25-02-2024 19:00:00,14.816666,74.141003,CO,7,8,8
India,Karnataka,Madikeri,"Stuart Hill, Madikeri - KSPCB",25-02-2024 19:00:00,12.415911,75.735050,PM2.5,32,52,42
India,Karnataka,Madikeri,"Stuart Hill, Madikeri - KSPCB",25-02-2024 19:00:00,12.415911,75.735050,NO2,6,8,7
India,Karnataka,Mangalore,"Kadri, Mangalore - KSPCB",25-02-2024 19:00:00,12.889250,74.853000,CO,30,38,31
India,Karnataka,Mysuru,"Hebbal 1st Stage, Mysuru - KSPCB",25-02-2024 19:00:00,12.21041,76.37376,PM2.5,23,67,43
India,Karnataka,Mysuru,"Hebbal 1st Stage, Mysuru - KSPCB",25-02-2024 19:00:00,12.21041,76.37376,SO2,1,8,3
India,Karnataka,Raichur,"Haji Colony, Raichur - KSPCB",25-02-2024 19:00:00,16.208139,77.348417,SO2,63,74,68
India,Karnataka,Raichur,"Haji Colony, Raichur - KSPCB",25-02-2024 19:00:00,16.208139,77.348417,CO,84,108,100
India,Karnataka,Ramanagara,"Vijay Nagar, Ramanagara - KSPCB",25-02-2024 19:00:00,12.733409,77.298051,PM10,41,55,49
India,Karnataka,Ramanagara,"Vijay Nagar, Ramanagara - KSPCB",25-02-2024 19:00:00,12.733409,77.298051,NO2,3,7,4
India,Karnataka,Ramanagara,"Vijay Nagar, Ramanagara - KSPCB",25-02-2024 19:00:00,12.733409,77.298051,NH3,1,1,1
India,Karnataka,Ramanagara,"Vijay Nagar, Ramanagara - KSPCB",25-02-2024 19:00:00,12.733409,77.298051,OZONE,28,30,29
India,Karnataka,Shivamogga,"Vinoba Nagara, Shivamogga - KSPCB",25-02-2024 19:00:00,13.940000,75.555917,NH3,2,4,3
India,Karnataka,Shivamogga,"Vinoba Nagara, Shivamogga - KSPCB",25-02-2024 19:00:00,13.940000,75.555917,OZONE,37,88,76
India,Karnataka,Udupi,"Brahmagiri, Udupi - KSPCB",25-02-2024 19:00:00,13.34194444,74.74694444,NH3,1,2,1
India,Kerala,Kannur,"Thavakkara, Kannur - Kerala PCB",25-02-2024 19:00:00,11.875000,75.373200,PM2.5,49,65,56
India,Kerala,Kannur,"Thavakkara, Kannur - Kerala PCB",25-02-2024 19:00:00,11.875000,75.373200,PM10,60,76,69
India,Kerala,Thiruvananthapuram,"Plammoodu, Thiruvananthapuram - Kerala PCB",25-02-2024 19:00:00,8.5149093,76.9435879,PM2.5,27,139,50
India,Kerala,Thiruvananthapuram,"Plammoodu, Thiruvananthapuram - Kerala PCB",25-02-2024 19:00:00,8.5149093,76.9435879,NO2,9,11,10
India,Kerala,Thiruvananthapuram,"Plammoodu, Thiruvananthapuram - Kerala PCB",25-02-2024 19:00:00,8.5149093,76.9435879,CO,1,160,27
India,Madhya Pradesh,Bhopal,"Idgah Hills, Bhopal - MPPCB",25-02-2024 19:00:00,23.264759,77.381568,PM10,68,214,111
India,Madhya Pradesh,Bhopal,"Idgah Hills, Bhopal - MPPCB",25-02-2024 19:00:00,23.264759,77.381568,NO2,11,103,34
India,Madhya Pradesh,Bhopal,"Idgah Hills, Bhopal - MPPCB",25-02-2024 19:00:00,23.264759,77.381568,SO2,1,31,14
India,Madhya Pradesh,Bhopal,"Idgah Hills, Bhopal - MPPCB",25-02-2024 19:00:00,23.264759,77.381568,CO,18,90,27
India,Madhya Pradesh,Bhopal,"Paryavaran Parisar, Bhopal - MPPCB",25-02-2024 19:00:00,23.210494,77.425409,NO2,19,108,42
India,Madhya Pradesh,Bhopal,"T T Nagar, Bhopal - MPPCB",25-02-2024 19:00:00,23.233584,77.400574,SO2,20,62,46
India,Madhya Pradesh,Bhopal,"T T Nagar, Bhopal - MPPCB",25-02-2024 19:00:00,23.233584,77.400574,OZONE,7,134,115
India,Madhya Pradesh,Dewas,"Bhopal Chauraha, Dewas - MPPCB",25-02-2024 19:00:00,22.9682591,76.064118,NO2,10,12,11
India,Madhya Pradesh,Gwalior,"City Center, Gwalior - MPPCB",25-02-2024 19:00:00,26.203442,78.193251,PM2.5,34,98,63
India,Madhya Pradesh,Gwalior,"City Center, Gwalior - MPPCB",25-02-2024 19:00:00,26.203442,78.193251,NO2,13,34,24
India,Madhya Pradesh,Gwalior,"City Center, Gwalior - MPPCB",25-02-2024 19:00:00,26.203442,78.193251,CO,31,62,44
