country,state,city,station,last_update,latitude,longitude,pollutant_id,pollutant_min,pollutant_max,pollutant_avg
India,Andhra_Pradesh,Amaravati,"Secretariat, Amaravati - APPCB",05-07-2024 18:00:00,16.5150833,80.5181667,SO2,NA,NA,NA
India,Andhra_Pradesh,Amaravati,"Secretariat, Amaravati - APPCB",05-07-2024 18:00:00,16.5150833,80.5181667,OZONE,22,35,28
India,Andhra_Pradesh,Kadapa,"Yerramukkapalli, Kadapa - APPCB",05-07-2024 18:00:00,14.465052,78.824187,PM10,NA,NA,NA
India,Andhra_Pradesh,Kadapa,"Yerramukkapalli, Kadapa - APPCB",05-07-2024 18:00:00,14.465052,78.824187,NH3,NA,NA,NA
India,Andhra_Pradesh,Rajamahendravaram,"Anand Kala Kshetram, Rajamahendravaram - APPCB",05-07-2024 18:00:00,16.9872867,81.7363176,CO,19,70,43
India,Andhra_Pradesh,Tirupati,"Tirumala, Tirupati - APPCB",05-07-2024 18:00:00,13.67,79.35,SO2,NA,NA,NA
India,Andhra_Pradesh,Tirupati,"Vaikuntapuram, Tirupati - APPCB",05-07-2024 18:00:00,13.615387,79.409230,PM2.5,55,179,89
India,Andhra_Pradesh,Tirupati,"Vaikuntapuram, Tirupati - APPCB",05-07-2024 18:00:00,13.615387,79.409230,OZONE,28,43,39
India,Andhra_Pradesh,Vijayawada,"HB Colony, Vijayawada - APPCB",05-07-2024 18:00:00,16.536107,80.594233,PM2.5,35,48,42
India,Andhra_Pradesh,Vijayawada,"HB Colony, Vijayawada - APPCB",05-07-2024 18:00:00,16.536107,80.594233,SO2,4,5,4
India,Andhra_Pradesh,Vijayawada,"Rajiv Gandhi Park, Vijayawada - APPCB",05-07-2024 18:00:00,16.509717,80.612222,PM10,48,83,59
India,Andhra_Pradesh,Vijayawada,"Rajiv Gandhi Park, Vijayawada - APPCB",05-07-2024 18:00:00,16.509717,80.612222,CO,42,42,42
India,Andhra_Pradesh,Vijayawada,"Rajiv Nagar, Vijayawada - APPCB",05-07-2024 18:00:00,16.554731,80.649110,NH3,2,2,2
India,Andhra_Pradesh,Vijayawada,"Rajiv Nagar, Vijayawada - APPCB",05-07-2024 18:00:00,16.554731,80.649110,SO2,26,26,26
India,Andhra_Pradesh,Vijayawada,"Rajiv Nagar, Vijayawada - APPCB",05-07-2024 18:00:00,16.554731,80.649110,CO,38,38,38
India,Andhra_Pradesh,Visakhapatnam,"GVM Corporation, Visakhapatnam - APPCB",05-07-2024 18:00:00,17.72,83.3,SO2,6,14,11
India,Assam,Byrnihat,"Central Academy for SFS, Byrnihat - PCBA",05-07-2024 18:00:00,26.071318,91.87488,PM2.5,2,408,127
India,Assam,Byrnihat,"Central Academy for SFS, Byrnihat - PCBA",05-07-2024 18:00:00,26.071318,91.87488,PM10,39,365,133
India,Assam,Byrnihat,"Central Academy for SFS, Byrnihat - PCBA",05-07-2024 18:00:00,26.071318,91.87488,NO2,6,28,18
India,Assam,Byrnihat,"Central Academy for SFS, Byrnihat - PCBA",05-07-2024 18:00:00,26.071318,91.87488,NH3,10,17,14
India,Assam,Guwahati,"IITG, Guwahati - PCBA",05-07-2024 18:00:00,26.2028636,91.70046436,PM10,11,56,20
India,Assam,Guwahati,"Pan Bazaar, Guwahati - PCBA",05-07-2024 18:00:00,26.187500,91.744194,PM2.5,1,22,8
India,Assam,Guwahati,"Pan Bazaar, Guwahati - PCBA",05-07-2024 18:00:00,26.187500,91.744194,OZONE,17,17,17
India,Assam,Nagaon,"Christianpatty, Nagaon - PCBA",05-07-2024 18:00:00,26.349082,92.68449,PM2.5,22,79,27
India,Assam,Nagaon,"Christianpatty, Nagaon - PCBA",05-07-2024 18:00:00,26.349082,92.68449,PM10,15,59,18
India,Assam,Nagaon,"Christianpatty, Nagaon - PCBA",05-07-2024 18:00:00,26.349082,92.68449,OZONE,11,14,13
India,Assam,Nalbari,"Bata Chowk, Nalbari - PCBA",05-07-2024 18:00:00,26.446912,91.439057,SO2,3,8,6
India,Assam,Nalbari,"Bata Chowk, Nalbari - PCBA",05-07-2024 18:00:00,26.446912,91.439057,CO,10,44,32
India,Assam,Silchar,"Tarapur, Silchar - PCBA",05-07-2024 18:00:00,24.82827,92.79525,SO2,2,5,4
India,Assam,Sivasagar,"Girls College, Sivasagar - PCBA",05-07-2024 18:00:00,26.987634,94.636574,SO2,4,8,7
India,Bihar,Araria,"Kharahiya Basti, Araria - BSPCB",05-07-2024 18:00:00,26.146529,87.454184,PM10,NA,NA,NA
India,Bihar,Araria,"Kharahiya Basti, Araria - BSPCB",05-07-2024 18:00:00,26.146529,87.454184,SO2,NA,NA,NA
India,Bihar,Aurangabad,"Gurdeo Nagar, Aurangabad - BSPCB",05-07-2024 18:00:00,24.75746,84.366208,PM2.5,NA,NA,NA
India,Bihar,Bettiah,"Kamalnath Nagar, Bettiah - BSPCB",05-07-2024 18:00:00,26.80365,84.51954,PM2.5,NA,NA,NA
India,Bihar,Bettiah,"Kamalnath Nagar, Bettiah - BSPCB",05-07-2024 18:00:00,26.80365,84.51954,NH3,15,23,18
India,Bihar,Bettiah,"Kamalnath Nagar, Bettiah - BSPCB",05-07-2024 18:00:00,26.80365,84.51954,CO,26,58,47
India,Bihar,Bhagalpur,"DM Office_Kachari Chowk, Bhagalpur - BSPCB",05-07-2024 18:00:00,25.251013,86.989001,SO2,18,21,19
India,Bihar,Bhagalpur,"Mayaganj, Bhagalpur - BSPCB",05-07-2024 18:00:00,25.265194,87.012947,NH3,7,10,7
India,Bihar,Bhagalpur,"Mayaganj, Bhagalpur - BSPCB",05-07-2024 18:00:00,25.265194,87.012947,CO,20,49,42
India,Bihar,Bihar Sharif,"D M Colony, Bihar Sharif - BSPCB",05-07-2024 18:00:00,25.204762,85.514960,PM10,NA,NA,NA
India,Bihar,Bihar Sharif,"D M Colony, Bihar Sharif - BSPCB",05-07-2024 18:00:00,25.204762,85.514960,OZONE,23,35,27
India,Bihar,Gaya,"Kareemganj, Gaya - BSPCB",05-07-2024 18:00:00,24.792403,84.992416,SO2,3,24,13
India,Bihar,Gaya,"Kareemganj, Gaya - BSPCB",05-07-2024 18:00:00,24.792403,84.992416,CO,16,68,34
India,Bihar,Gaya,"SFTI Kusdihra, Gaya - BSPCB",05-07-2024 18:00:00,24.762518,84.982348,PM2.5,12,50,27
India,Bihar,Gaya,"SFTI Kusdihra, Gaya - BSPCB",05-07-2024 18:00:00,24.762518,84.982348,OZONE,12,41,20
India,Bihar,Hajipur,"Industrial Area, Hajipur - BSPCB",05-07-2024 18:00:00,25.697189,85.245900,NO2,5,16,9
India,Bihar,Hajipur,"Industrial Area, Hajipur - BSPCB",05-07-2024 18:00:00,25.697189,85.245900,SO2,2,9,8
India,Bihar,Hajipur,"Industrial Area, Hajipur - BSPCB",05-07-2024 18:00:00,25.697189,85.245900,CO,8,27,18
India,Bihar,Katihar,"Mirchaibari, Katihar - BSPCB",05-07-2024 18:00:00,25.560083,87.553265,PM10,16,144,53
India,Bihar,Katihar,"Mirchaibari, Katihar - BSPCB",05-07-2024 18:00:00,25.560083,87.553265,NH3,1,2,1
India,Bihar,Kishanganj,"SDM Office_Khagra, Kishanganj - BSPCB",05-07-2024 18:00:00,26.0881305,87.93840336,OZONE,26,45,34
India,Bihar,Motihari,"Gandak Colony, Motihari - BSPCB",05-07-2024 18:00:00,26.63086,84.90051,OZONE,9,27,16
India,Bihar,Munger,"Town Hall, Munger - BSPCB",05-07-2024 18:00:00,25.376776,86.471523,PM2.5,NA,NA,NA
India,Bihar,Muzaffarpur,"Buddha Colony, Muzaffarpur - BSPCB",05-07-2024 18:00:00,26.11442,85.39813,PM2.5,21,38,30
India,Bihar,Muzaffarpur,"Buddha Colony, Muzaffarpur - BSPCB",05-07-2024 18:00:00,26.11442,85.39813,PM10,19,40,30
India,Bihar,Muzaffarpur,"Muzaffarpur Collectorate, Muzaffarpur - BSPCB",05-07-2024 18:00:00,26.1209,85.3647,CO,22,51,25
India,Bihar,Muzaffarpur,"Muzaffarpur Collectorate, Muzaffarpur - BSPCB",05-07-2024 18:00:00,26.1209,85.3647,OZONE,9,25,12
India,Bihar,Patna,"Muradpur, Patna - BSPCB",05-07-2024 18:00:00,25.619651,85.147382,NH3,1,5,3
India,Bihar,Patna,"Rajbansi Nagar, Patna - BSPCB",05-07-2024 18:00:00,25.599486,85.113666,PM2.5,24,57,35
India,Bihar,Patna,"Samanpura, Patna - BSPCB",05-07-2024 18:00:00,25.596727,85.085624,PM2.5,24,62,46
India,Bihar,Patna,"Samanpura, Patna - BSPCB",05-07-2024 18:00:00,25.596727,85.085624,NO2,9,48,17
India,Bihar,Patna,"Samanpura, Patna - BSPCB",05-07-2024 18:00:00,25.596727,85.085624,CO,30,58,35
India,Bihar,Saharsa,"Police Line, Saharsa - BSPCB",05-07-2024 18:00:00,25.892357,86.590325,PM2.5,2,40,19
India,Bihar,Saharsa,"Police Line, Saharsa - BSPCB",05-07-2024 18:00:00,25.892357,86.590325,OZONE,1,60,27
India,Bihar,Samastipur,"DM Office_Kasipur, Samastipur - BSPCB",05-07-2024 18:00:00,25.859655,85.77944,PM2.5,NA,NA,NA
India,Bihar,Samastipur,"DM Office_Kasipur, Samastipur - BSPCB",05-07-2024 18:00:00,25.859655,85.77944,CO,94,107,103
India,Bihar,Sasaram,"Dada Peer, Sasaram - BSPCB",05-07-2024 18:00:00,24.952822,84.002396,SO2,9,13,11
India,Chandigarh,Chandigarh,"Sector-25, Chandigarh - CPCC",05-07-2024 18:00:00,30.751462,76.762879,SO2,7,10,8
India,Chhattisgarh,Bhilai,"Civic Center, Bhilai - Bhilai Steel Plant",05-07-2024 18:00:00,21.185571,81.343175,PM2.5,14,31,20
India,Chhattisgarh,Bhilai,"Civic Center, Bhilai - Bhilai Steel Plant",05-07-2024 18:00:00,21.185571,81.343175,PM10,11,32,20
India,Chhattisgarh,Bhilai,"Hathkhoj, Bhilai - CECB",05-07-2024 18:00:00,21.224231,81.408350,PM10,16,75,35
India,Chhattisgarh,Chhal,"Nawapara SECL Colony, Chhal - CECB",05-07-2024 18:00:00,22.118125,83.140608,PM2.5,4,25,12
India,Chhattisgarh,Chhal,"Nawapara SECL Colony, Chhal - CECB",05-07-2024 18:00:00,22.118125,83.140608,SO2,12,19,14
India,Chhattisgarh,Chhal,"Nawapara SECL Colony, Chhal - CECB",05-07-2024 18:00:00,22.118125,83.140608,CO,16,34,19
India,Chhattisgarh,Korba,"Rampur, Korba - CECB",05-07-2024 18:00:00,22.368195,82.746431,SO2,NA,NA,NA
India,Chhattisgarh,Korba,"Rampur, Korba - CECB",05-07-2024 18:00:00,22.368195,82.746431,CO,8,28,20
India,Chhattisgarh,Kunjemura,"OP Jindal School, Kunjemura - CECB",05-07-2024 18:00:00,22.126650,83.483212,PM2.5,6,30,12
India,Chhattisgarh,Kunjemura,"OP Jindal School, Kunjemura - CECB",05-07-2024 18:00:00,22.126650,83.483212,NO2,7,41,21
India,Chhattisgarh,Milupara,"Govt. Higher Secondary School, Milupara - CECB",05-07-2024 18:00:00,22.1910172,83.5197009,NO2,NA,NA,NA
India,Chhattisgarh,Raipur,"AIIMS, Raipur - CECB",05-07-2024 18:00:00,21.258815,81.578979,PM10,19,57,34
India,Chhattisgarh,Raipur,"AIIMS, Raipur - CECB",05-07-2024 18:00:00,21.258815,81.578979,NH3,6,6,6
India,Chhattisgarh,Raipur,"AIIMS, Raipur - CECB",05-07-2024 18:00:00,21.258815,81.578979,OZONE,1,13,6
India,Chhattisgarh,Raipur,"Bhatagaon New ISBT, Raipur - CECB",05-07-2024 18:00:00,21.219665,81.630094,OZONE,3,5,4
India,Chhattisgarh,Raipur,"Krishak Nagar, Raipur - CECB",05-07-2024 18:00:00,21.237755,81.705301,PM10,8,24,14
India,Chhattisgarh,Raipur,"Krishak Nagar, Raipur - CECB",05-07-2024 18:00:00,21.237755,81.705301,SO2,9,14,11
India,Chhattisgarh,Raipur,"Krishak Nagar, Raipur - CECB",05-07-2024 18:00:00,21.237755,81.705301,CO,14,22,16
India,Chhattisgarh,Raipur,"Siltara Phase-II, Raipur - CECB",05-07-2024 18:00:00,21.371751,81.664929,NO2,9,20,12
India,Chhattisgarh,Raipur,"Siltara Phase-II, Raipur - CECB",05-07-2024 18:00:00,21.371751,81.664929,CO,12,28,18
India,Chhattisgarh,Raipur,"Siltara Phase-II, Raipur - CECB",05-07-2024 18:00:00,21.371751,81.664929,OZONE,3,6,4
India,Chhattisgarh,Tumidih,"OP Jindal Industrial Park, Tumidih - CECB",05-07-2024 18:00:00,22.06631475,83.33820077,NH3,1,2,1
India,Delhi,Delhi,"Alipur, Delhi - DPCC",05-07-2024 18:00:00,28.815329,77.153010,PM2.5,5,270,56
India,Delhi,Delhi,"Alipur, Delhi - DPCC",05-07-2024 18:00:00,28.815329,77.153010,NO2,17,36,23
India,Delhi,Delhi,"Alipur, Delhi - DPCC",05-07-2024 18:00:00,28.815329,77.153010,NH3,6,11,7
India,Delhi,Delhi,"Alipur, Delhi - DPCC",05-07-2024 18:00:00,28.815329,77.153010,OZONE,5,40,25
India,Delhi,Delhi,"Anand Vihar, Delhi - DPCC",05-07-2024 18:00:00,28.647622,77.3158090,PM10,NA,NA,NA
India,Delhi,Delhi,"Ashok Vihar, Delhi - DPCC",05-07-2024 18:00:00,28.695381,77.181665,PM10,46,109,74
India,Delhi,Delhi,"Ashok Vihar, Delhi - DPCC",05-07-2024 18:00:00,28.695381,77.181665,NH3,8,10,9
India,Delhi,Delhi,"Bawana, Delhi - DPCC",05-07-2024 18:00:00,28.776200,77.051074,PM2.5,7,87,51
India,Delhi,Delhi,"Bawana, Delhi - DPCC",05-07-2024 18:00:00,28.776200,77.051074,SO2,1,8,3
India,Delhi,Delhi,"Burari Crossing, Delhi - IMD",05-07-2024 18:00:00,28.7256504,77.2011573,CO,57,66,61
India,Delhi,Delhi,"CRRI Mathura Road, Delhi - IMD",05-07-2024 18:00:00,28.5512005,77.2735737,CO,30,36,33
India,Delhi,Delhi,"Chandni Chowk, Delhi - IITM",05-07-2024 18:00:00,28.656756,77.227234,NO2,12,20,16
India,Delhi,Delhi,"Chandni Chowk, Delhi - IITM",05-07-2024 18:00:00,28.656756,77.227234,SO2,18,56,33
India,Delhi,Delhi,"DTU, Delhi - CPCB",05-07-2024 18:00:00,28.7500499,77.1112615,PM10,28,500,89
India,Delhi,Delhi,"DTU, Delhi - CPCB",05-07-2024 18:00:00,28.7500499,77.1112615,CO,35,55,41
India,Delhi,Delhi,"Dr. Karni Singh Shooting Range, Delhi - DPCC",05-07-2024 18:00:00,28.498571,77.264840,PM2.5,12,65,41
India,Delhi,Delhi,"Dr. Karni Singh Shooting Range, Delhi - DPCC",05-07-2024 18:00:00,28.498571,77.264840,CO,36,60,42
India,Delhi,Delhi,"Dr. Karni Singh Shooting Range, Delhi - DPCC",05-07-2024 18:00:00,28.498571,77.264840,OZONE,8,40,26
India,Delhi,Delhi,"Dwarka-Sector 8, Delhi - DPCC ",05-07-2024 18:00:00,28.5710274,77.0719006,PM2.5,18,92,59
India,Delhi,Delhi,"IGI Airport (T3), Delhi - IMD",05-07-2024 18:00:00,28.5627763,77.1180053,PM2.5,12,80,53
India,Delhi,Delhi,"IGI Airport (T3), Delhi - IMD",05-07-2024 18:00:00,28.5627763,77.1180053,NO2,14,36,28
India,Delhi,Delhi,"IHBAS, Dilshad Garden, Delhi - CPCB",05-07-2024 18:00:00,28.6811736,77.3025234,PM2.5,39,62,50
India,Delhi,Delhi,"IHBAS, Dilshad Garden, Delhi - CPCB",05-07-2024 18:00:00,28.6811736,77.3025234,PM10,39,70,55
India,Delhi,Delhi,"IHBAS, Dilshad Garden, Delhi - CPCB",05-07-2024 18:00:00,28.6811736,77.3025234,CO,8,94,22
India,Delhi,Delhi,"ITO, Delhi - CPCB",05-07-2024 18:00:00,28.628624,77.241060,PM10,27,80,55
India,Delhi,Delhi,"Jahangirpuri, Delhi - DPCC",05-07-2024 18:00:00,28.732820,77.170633,PM2.5,NA,NA,NA
India,Delhi,Delhi,"Jahangirpuri, Delhi - DPCC",05-07-2024 18:00:00,28.732820,77.170633,SO2,13,32,27
India,Delhi,Delhi,"Jawaharlal Nehru Stadium, Delhi - DPCC",05-07-2024 18:00:00,28.580280,77.233829,SO2,5,13,9
India,Delhi,Delhi,"Lodhi Road, Delhi - IMD",05-07-2024 18:00:00,28.5918245,77.2273074,NO2,1,9,2
India,Delhi,Delhi,"Lodhi Road, Delhi - IMD",05-07-2024 18:00:00,28.5918245,77.2273074,CO,26,36,31
India,Delhi,Delhi,"Major Dhyan Chand National Stadium, Delhi - DPCC",05-07-2024 18:00:00,28.611281,77.237738,PM2.5,18,78,47
India,Delhi,Delhi,"Major Dhyan Chand National Stadium, Delhi - DPCC",05-07-2024 18:00:00,28.611281,77.237738,NO2,17,59,38
India,Delhi,Delhi,"Major Dhyan Chand National Stadium, Delhi - DPCC",05-07-2024 18:00:00,28.611281,77.237738,CO,32,59,38
India,Delhi,Delhi,"Mandir Marg, Delhi - DPCC",05-07-2024 18:00:00,28.636429,77.201067,NH3,4,11,7
India,Delhi,Delhi,"Mandir Marg, Delhi - DPCC",05-07-2024 18:00:00,28.636429,77.201067,SO2,4,21,12
India,Delhi,Delhi,"Najafgarh, Delhi - DPCC",05-07-2024 18:00:00,28.570173,76.933762,PM10,12,92,51
India,Delhi,Delhi,"Najafgarh, Delhi - DPCC",05-07-2024 18:00:00,28.570173,76.933762,NH3,6,13,9
India,Delhi,Delhi,"North Campus, DU, Delhi - IMD",05-07-2024 18:00:00,28.6573814,77.1585447,NO2,8,12,10
India,Delhi,Delhi,"North Campus, DU, Delhi - IMD",05-07-2024 18:00:00,28.6573814,77.1585447,CO,38,52,40
India,Delhi,Delhi,"Okhla Phase-2, Delhi - DPCC",05-07-2024 18:00:00,28.530785,77.271255,PM2.5,12,75,38
India,Delhi,Delhi,"Okhla Phase-2, Delhi - DPCC",05-07-2024 18:00:00,28.530785,77.271255,PM10,23,97,68
India,Delhi,Delhi,"Okhla Phase-2, Delhi - DPCC",05-07-2024 18:00:00,28.530785,77.271255,OZONE,8,38,19
India,Delhi,Delhi,"Patparganj, Delhi - DPCC",05-07-2024 18:00:00,28.623763,77.287209,PM2.5,12,78,46
India,Delhi,Delhi,"Punjabi Bagh, Delhi - DPCC",05-07-2024 18:00:00,28.674045,77.131023,PM10,70,156,111
India,Delhi,Delhi,"Punjabi Bagh, Delhi - DPCC",05-07-2024 18:00:00,28.674045,77.131023,NO2,12,61,29
India,Delhi,Delhi,"Punjabi Bagh, Delhi - DPCC",05-07-2024 18:00:00,28.674045,77.131023,OZONE,4,38,26
India,Delhi,Delhi,"Pusa, Delhi - DPCC",05-07-2024 18:00:00,28.639652,77.146275,PM10,27,117,68
India,Delhi,Delhi,"Pusa, Delhi - DPCC",05-07-2024 18:00:00,28.639652,77.146275,NH3,5,8,7
India,Delhi,Delhi,"Pusa, Delhi - DPCC",05-07-2024 18:00:00,28.639652,77.146275,SO2,1,9,4
India,Delhi,Delhi,"R K Puram, Delhi - DPCC",05-07-2024 18:00:00,28.563262,77.186937,CO,20,70,35
India,Delhi,Delhi,"Rohini, Delhi - DPCC",05-07-2024 18:00:00,28.732528,77.119920,OZONE,13,30,20
India,Delhi,Delhi,"Shadipur, Delhi - CPCB",05-07-2024 18:00:00,28.6514781,77.1473105,PM2.5,32,66,53
India,Delhi,Delhi,"Sirifort, Delhi - CPCB",05-07-2024 18:00:00,28.5504249,77.2159377,NO2,5,46,27
India,Delhi,Delhi,"Sonia Vihar, Delhi - DPCC",05-07-2024 18:00:00,28.710508,77.249485,SO2,3,16,9
India,Delhi,Delhi,"Sri Aurobindo Marg, Delhi - DPCC",05-07-2024 18:00:00,28.531346,77.190156,CO,42,84,51
India,Delhi,Delhi,"Wazirpur, Delhi - DPCC",05-07-2024 18:00:00,28.699793,77.165453,PM10,64,244,130
India,Delhi,Delhi,"Wazirpur, Delhi - DPCC",05-07-2024 18:00:00,28.699793,77.165453,SO2,5,16,11
India,Gujarat,Ahmedabad,"Chandkheda, Ahmedabad - IITM",05-07-2024 18:00:00,23.107969,72.574648,PM2.5,22,56,41
India,Gujarat,Ahmedabad,"Chandkheda, Ahmedabad - IITM",05-07-2024 18:00:00,23.107969,72.574648,OZONE,10,27,22
India,Gujarat,Ahmedabad,"Gyaspur, Ahmedabad - IITM",05-07-2024 18:00:00,22.977134,72.553024,PM10,16,57,32
India,Gujarat,Ahmedabad,"Maninagar, Ahmedabad - GPCB",05-07-2024 18:00:00,23.002657,72.591912,PM2.5,36,84,60
India,Gujarat,Ahmedabad,"Rakhial, Ahmedabad - IITM",05-07-2024 18:00:00,23.016834,72.625775,PM2.5,15,205,55
India,Gujarat,Ahmedabad,"Rakhial, Ahmedabad - IITM",05-07-2024 18:00:00,23.016834,72.625775,NH3,7,18,10
India,Gujarat,Ahmedabad,"Rakhial, Ahmedabad - IITM",05-07-2024 18:00:00,23.016834,72.625775,OZONE,6,66,24
India,Gujarat,Ankleshwar,"GIDC, Ankleshwar - GPCB",05-07-2024 18:00:00,21.613267,73.010555,NO2,16,22,19
India,Gujarat,Ankleshwar,"GIDC, Ankleshwar - GPCB",05-07-2024 18:00:00,21.613267,73.010555,NH3,3,4,4
India,Gujarat,Ankleshwar,"GIDC, Ankleshwar - GPCB",05-07-2024 18:00:00,21.613267,73.010555,OZONE,21,25,24
India,Gujarat,Gandhinagar,"GIFT City, Gandhinagar - IITM",05-07-2024 18:00:00,23.163798,72.677768,SO2,11,21,15
India,Gujarat,Gandhinagar,"Sector-10, Gandhinagar - GPCB",05-07-2024 18:00:00,23.221714,72.654328,SO2,4,5,5
India,Gujarat,Nandesari,"GIDC, Nandesari - Nandesari Ind. Association",05-07-2024 18:00:00,22.410802,73.097923,NO2,NA,NA,NA
India,Gujarat,Surat,"Science Center, Surat - SMC",05-07-2024 18:00:00,21.170046,72.795405,SO2,10,13,12
India,Gujarat,Vapi,"Phase-1 GIDC, Vapi - GPCB",05-07-2024 18:00:00,20.362421,72.918013,NH3,9,16,10
India,Haryana,Ambala,"Patti Mehar, Ambala - HSPCB",05-07-2024 18:00:00,30.379589,76.778328,PM2.5,1,82,38
India,Haryana,Ambala,"Patti Mehar, Ambala - HSPCB",05-07-2024 18:00:00,30.379589,76.778328,NO2,4,20,13
India,Haryana,Ambala,"Patti Mehar, Ambala - HSPCB",05-07-2024 18:00:00,30.379589,76.778328,OZONE,41,60,49
India,Haryana,Bahadurgarh,"Arya Nagar, Bahadurgarh - HSPCB",05-07-2024 18:00:00,28.6701,76.9254,PM2.5,24,75,52
India,Haryana,Ballabgarh,"Nathu Colony, Ballabgarh - HSPCB",05-07-2024 18:00:00,28.3419248,77.319699,PM2.5,19,53,34
India,Haryana,Bhiwani,"H.B. Colony, Bhiwani - HSPCB",05-07-2024 18:00:00,28.806223,76.141105,NO2,1,12,8
India,Haryana,Bhiwani,"H.B. Colony, Bhiwani - HSPCB",05-07-2024 18:00:00,28.806223,76.141105,NH3,5,6,6
India,Haryana,Dharuhera,"Municipal Corporation Office, Dharuhera -  HSPCB",05-07-2024 18:00:00,28.206800,76.799700,PM2.5,NA,NA,NA
India,Haryana,Dharuhera,"Municipal Corporation Office, Dharuhera -  HSPCB",05-07-2024 18:00:00,28.206800,76.799700,PM10,NA,NA,NA
India,Haryana,Faridabad,"New Industrial Town, Faridabad - HSPCB",05-07-2024 18:00:00,28.39072,77.30059,PM10,32,107,78
India,Haryana,Faridabad,"Sector 11, Faridabad - HSPCB",05-07-2024 18:00:00,28.376058,77.315741,PM10,39,278,83
India,Haryana,Faridabad,"Sector 11, Faridabad - HSPCB",05-07-2024 18:00:00,28.376058,77.315741,NO2,30,32,31
India,Haryana,Faridabad,"Sector 11, Faridabad - HSPCB",05-07-2024 18:00:00,28.376058,77.315741,NH3,6,6,6
India,Haryana,Faridabad,"Sector 11, Faridabad - HSPCB",05-07-2024 18:00:00,28.376058,77.315741,CO,27,41,35
India,Haryana,Faridabad,"Sector 11, Faridabad - HSPCB",05-07-2024 18:00:00,28.376058,77.315741,OZONE,2,17,8
India,Haryana,Faridabad,"Sector 30, Faridabad - HSPCB",05-07-2024 18:00:00,28.4417,77.3217,SO2,4,4,4
India,Haryana,Faridabad,"Sector- 16A, Faridabad - HSPCB",05-07-2024 18:00:00,28.4088421,77.3099081,PM2.5,13,372,209
India,Haryana,Faridabad,"Sector- 16A, Faridabad - HSPCB",05-07-2024 18:00:00,28.4088421,77.3099081,CO,25,68,56
India,Haryana,Fatehabad,"Huda Sector, Fatehabad - HSPCB",05-07-2024 18:00:00,29.503664,75.467934,PM10,24,54,44
India,Haryana,Fatehabad,"Huda Sector, Fatehabad - HSPCB",05-07-2024 18:00:00,29.503664,75.467934,NO2,29,32,30
India,Haryana,Gurugram,"Sector-51, Gurugram - HSPCB",05-07-2024 18:00:00,28.4227,77.0667,PM10,103,140,120
India,Haryana,Gurugram,"Sector-51, Gurugram - HSPCB",05-07-2024 18:00:00,28.4227,77.0667,NO2,13,29,23
India,Haryana,Gurugram,"Sector-51, Gurugram - HSPCB",05-07-2024 18:00:00,28.4227,77.0667,SO2,2,3,3
India,Haryana,Gurugram,"Sector-51, Gurugram - HSPCB",05-07-2024 18:00:00,28.4227,77.0667,CO,30,44,35
India,Haryana,Gurugram,"Teri Gram, Gurugram - HSPCB",05-07-2024 18:00:00,28.4275,77.1465,NO2,4,19,14
India,Haryana,Gurugram,"Vikas Sadan, Gurugram - HSPCB",05-07-2024 18:00:00,28.4501238,77.0263051,PM2.5,41,78,57
India,Haryana,Jind,"Police Lines, Jind - HSPCB",05-07-2024 18:00:00,29.307814,76.337619,NO2,7,17,11
India,Haryana,Jind,"Police Lines, Jind - HSPCB",05-07-2024 18:00:00,29.307814,76.337619,CO,2,119,59
India,Haryana,Jind,"Police Lines, Jind - HSPCB",05-07-2024 18:00:00,29.307814,76.337619,OZONE,22,59,40
India,Haryana,Kaithal,"Rishi Nagar, Kaithal - HSPCB",05-07-2024 18:00:00,29.8006,76.4155,CO,2,26,14
India,Haryana,Karnal,"Sector-12, Karnal - HSPCB",05-07-2024 18:00:00,29.695300,77.002700,NH3,10,13,11
India,Haryana,Karnal,"Sector-12, Karnal - HSPCB",05-07-2024 18:00:00,29.695300,77.002700,CO,7,34,20
India,Haryana,Kurukshetra,"Sector-7, Kurukshetra - HSPCB",05-07-2024 18:00:00,29.966942,76.875879,SO2,1,29,10
India,Haryana,Kurukshetra,"Sector-7, Kurukshetra - HSPCB",05-07-2024 18:00:00,29.966942,76.875879,CO,10,24,15
India,Haryana,Kurukshetra,"Sector-7, Kurukshetra - HSPCB",05-07-2024 18:00:00,29.966942,76.875879,OZONE,19,62,49
India,Haryana,Manesar,"Sector-2 IMT, Manesar - HSPCB",05-07-2024 18:00:00,28.360699,76.936090,SO2,NA,NA,NA
India,Haryana,Palwal,"Shyam Nagar, Palwal - HSPCB",05-07-2024 18:00:00,28.1485564,77.3320667,PM10,NA,NA,NA
India,Haryana,Palwal,"Shyam Nagar, Palwal - HSPCB",05-07-2024 18:00:00,28.1485564,77.3320667,SO2,NA,NA,NA
India,Haryana,Palwal,"Shyam Nagar, Palwal - HSPCB",05-07-2024 18:00:00,28.1485564,77.3320667,CO,10,68,14
India,Haryana,Panipat,"Sector-18, Panipat - HSPCB",05-07-2024 18:00:00,29.432304,76.972765,SO2,18,19,19
India,Haryana,Panipat,"Sector-18, Panipat - HSPCB",05-07-2024 18:00:00,29.432304,76.972765,CO,24,26,25
India,Haryana,Rohtak,"MD University, Rohtak - HSPCB",05-07-2024 18:00:00,28.52123,76.37138,CO,22,50,22
India,Haryana,Sirsa,"F-Block, Sirsa - HSPCB",05-07-2024 18:00:00,29.536400,75.015800,PM2.5,3,49,23
India,Haryana,Sirsa,"F-Block, Sirsa - HSPCB",05-07-2024 18:00:00,29.536400,75.015800,NH3,12,13,12
India,Haryana,Sirsa,"F-Block, Sirsa - HSPCB",05-07-2024 18:00:00,29.536400,75.015800,SO2,1,97,14
India,Haryana,Sirsa,"F-Block, Sirsa - HSPCB",05-07-2024 18:00:00,29.536400,75.015800,OZONE,29,114,64
India,Haryana,Sonipat,"Murthal, Sonipat - HSPCB",05-07-2024 18:00:00,29.027200,77.062100,PM2.5,1,40,22
India,Haryana,Sonipat,"Murthal, Sonipat - HSPCB",05-07-2024 18:00:00,29.027200,77.062100,CO,24,26,25
India,Himachal Pradesh,Baddi,"HIMUDA Complex Phase-1, Baddi - HPPCB",05-07-2024 18:00:00,30.943887,76.801991,CO,20,37,25
India,Jammu_and_Kashmir,Srinagar,"Rajbagh, Srinagar - JKSPCB",05-07-2024 18:00:00,34.066206,74.819820,PM2.5,NA,NA,NA
India,Jharkhand,Dhanbad,"Kalakusuma, Dhanbad - DMC",05-07-2024 18:00:00,23.811548,86.481238,PM10,11,146,76
India,Jharkhand,Dhanbad,"Kalakusuma, Dhanbad - DMC",05-07-2024 18:00:00,23.811548,86.481238,OZONE,19,31,25
India,Jharkhand,Pathardih,"Mohalbani Ghat, Pathardih - DMC",05-07-2024 18:00:00,23.669880,86.411725,NO2,21,33,23
India,Jharkhand,Pathardih,"Mohalbani Ghat, Pathardih - DMC",05-07-2024 18:00:00,23.669880,86.411725,CO,1,4,4
India,Karnataka,Bagalkot,"Vidayagiri, Bagalkot - KSPCB",05-07-2024 18:00:00,16.172806,75.659694,NO2,9,10,9
India,Karnataka,Bagalkot,"Vidayagiri, Bagalkot - KSPCB",05-07-2024 18:00:00,16.172806,75.659694,CO,18,48,33
India,Karnataka,Belgaum,"Ramteerth Nagar, Belgaum - KSPCB",05-07-2024 18:00:00,15.888653,74.541751,CO,62,70,64
India,Karnataka,Bengaluru,"Bapuji Nagar, Bengaluru - KSPCB",05-07-2024 18:00:00,12.951913,77.539784,NH3,1,1,1
India,Karnataka,Bengaluru,"Bapuji Nagar, Bengaluru - KSPCB",05-07-2024 18:00:00,12.951913,77.539784,CO,22,30,26
India,Karnataka,Bengaluru,"Bapuji Nagar, Bengaluru - KSPCB",05-07-2024 18:00:00,12.951913,77.539784,OZONE,27,38,34
India,Karnataka,Bengaluru,"City Railway Station, Bengaluru - KSPCB",05-07-2024 18:00:00,12.9756843,77.5660749,PM10,66,103,84
India,Karnataka,Bengaluru,"Hebbal, Bengaluru - KSPCB",05-07-2024 18:00:00,13.029152,77.585901,PM2.5,5,41,19
India,Karnataka,Bengaluru,"Hombegowda Nagar, Bengaluru - KSPCB",05-07-2024 18:00:00,12.938539,77.590100,SO2,3,4,4
India,Karnataka,Bengaluru,"Jayanagar 5th Block, Bengaluru - KSPCB",05-07-2024 18:00:00,12.920984,77.584908,CO,4,54,38
India,Karnataka,Bengaluru,"Jigani, Bengaluru - KSPCB",05-07-2024 18:00:00,12.7816279,77.6299145,PM2.5,36,38,37
India,Karnataka,Bengaluru,"Jigani, Bengaluru - KSPCB",05-07-2024 18:00:00,12.7816279,77.6299145,NH3,4,4,4
India,Karnataka,Bengaluru,"Jigani, Bengaluru - KSPCB",05-07-2024 18:00:00,12.7816279,77.6299145,CO,26,44,31
India,Karnataka,Bengaluru,"Peenya, Bengaluru - CPCB",05-07-2024 18:00:00,13.0270199,77.494094,NO2,35,36,36
India,Karnataka,Bengaluru,"RVCE-Mailasandra, Bengaluru - KSPCB",05-07-2024 18:00:00,12.921418,77.502466,PM10,NA,NA,NA
India,Karnataka,Bengaluru,"RVCE-Mailasandra, Bengaluru - KSPCB",05-07-2024 18:00:00,12.921418,77.502466,NO2,16,17,17
India,Karnataka,Bengaluru,"Shivapura_Peenya, Bengaluru - KSPCB",05-07-2024 18:00:00,13.0246342,77.5080115,PM2.5,35,68,49
India,Karnataka,Chamarajanagar,"Urban, Chamarajanagar - KSPCB",05-07-2024 18:00:00,11.55358,76.55521,NO2,24,40,29
India,Karnataka,Chamarajanagar,"Urban, Chamarajanagar - KSPCB",05-07-2024 18:00:00,11.55358,76.55521,OZONE,25,45,34
India,Karnataka,Chikkamagaluru,"Kalyana Nagara, Chikkamagaluru - KSPCB",05-07-2024 18:00:00,13.328028,75.797056,PM2.5,8,55,26
India,Karnataka,Dharwad,"Kalabhavan, Dharwad - KSPCB",05-07-2024 18:00:00,15.459706,75.008381,PM2.5,27,61,45
India,Karnataka,Hassan,"B.Katihalli, Hassan - KSPCB",05-07-2024 18:00:00,13.008556,76.125258,PM10,NA,NA,NA
India,Karnataka,Haveri,"Ashwini Nagar, Haveri - KSPCB",05-07-2024 18:00:00,14.791800,75.389600,PM2.5,3,28,13
India,Karnataka,Hubballi,"Lingaraj Nagar, Hubballi - KSPCB",05-07-2024 18:00:00,15.3714823,75.1160168,PM2.5,36,51,43
India,Karnataka,Hubballi,"Lingaraj Nagar, Hubballi - KSPCB",05-07-2024 18:00:00,15.3714823,75.1160168,PM10,47,71,52
India,Karnataka,Hubballi,"Lingaraj Nagar, Hubballi - KSPCB",05-07-2024 18:00:00,15.3714823,75.1160168,NH3,2,3,2
India,Karnataka,Hubballi,"Lingaraj Nagar, Hubballi - KSPCB",05-07-2024 18:00:00,15.3714823,75.1160168,CO,4,74,23
India,Karnataka,Kalaburagi,"Lal Bahadur Shastri Nagar, Kalaburagi - KSPCB",05-07-2024 18:00:00,17.321993,76.822628,PM2.5,6,41,25
India,Karnataka,Karwar,"KHB Colony, Karwar - KSPCB",05-07-2024 18:00:00,14.816666,74.141003,NO2,NA,NA,NA
India,Karnataka,Karwar,"KHB Colony, Karwar - KSPCB",05-07-2024 18:00:00,14.816666,74.141003,SO2,20,21,21
India,Karnataka,Kolar,"Tamaka Ind. Area, Kolar - KSPCB",05-07-2024 18:00:00,13.1276288,78.1570122,SO2,NA,NA,NA
India,Karnataka,Koppal,"Diwator Nagar, Koppal - KSPCB",05-07-2024 18:00:00,15.347630,76.181767,PM10,3,16,8
India,Karnataka,Koppal,"Diwator Nagar, Koppal - KSPCB",05-07-2024 18:00:00,15.347630,76.181767,NO2,20,73,49
India,Karnataka,Mangalore,"Kadri, Mangalore - KSPCB",05-07-2024 18:00:00,12.889250,74.853000,CO,12,22,17
India,Karnataka,Mysuru,"Hebbal 1st Stage, Mysuru - KSPCB",05-07-2024 18:00:00,12.21041,76.37376,SO2,1,4,2
India,Karnataka,Raichur,"Haji Colony, Raichur - KSPCB",05-07-2024 18:00:00,16.208139,77.348417,PM10,NA,NA,NA
India,Karnataka,Raichur,"Haji Colony, Raichur - KSPCB",05-07-2024 18:00:00,16.208139,77.348417,SO2,32,119,61
India,Karnataka,Raichur,"Haji Colony, Raichur - KSPCB",05-07-2024 18:00:00,16.208139,77.348417,CO,72,104,99
India,Karnataka,Ramanagara,"Vijay Nagar, Ramanagara - KSPCB",05-07-2024 18:00:00,12.733409,77.298051,CO,9,34,17
India,Karnataka,Ramanagara,"Vijay Nagar, Ramanagara - KSPCB",05-07-2024 18:00:00,12.733409,77.298051,OZONE,27,32,29
India,Karnataka,Shivamogga,"Vinoba Nagara, Shivamogga - KSPCB",05-07-2024 18:00:00,13.940000,75.555917,PM2.5,23,49,30
India,Karnataka,Udupi,"Brahmagiri, Udupi - KSPCB",05-07-2024 18:00:00,13.34194444,74.74694444,CO,50,56,53
India,Karnataka,Udupi,"Brahmagiri, Udupi - KSPCB",05-07-2024 18:00:00,13.34194444,74.74694444,OZONE,23,24,23
India,Karnataka,Yadgir,"Collector Office, Yadgir - KSPCB",05-07-2024 18:00:00,16.7602,77.1428,PM10,25,49,34
India,Kerala,Eloor,"Udyogamandal, Eloor - Kerala PCB",05-07-2024 18:00:00,10.073232,76.302765,PM2.5,44,68,51
India,Kerala,Eloor,"Udyogamandal, Eloor - Kerala PCB",05-07-2024 18:00:00,10.073232,76.302765,SO2,1,2,1
India,Kerala,Eloor,"Udyogamandal, Eloor - Kerala PCB",05-07-2024 18:00:00,10.073232,76.302765,CO,8,107,50
India,Kerala,Eloor,"Udyogamandal, Eloor - Kerala PCB",05-07-2024 18:00:00,10.073232,76.302765,OZONE,9,11,10
India,Kerala,Kannur,"Thavakkara, Kannur - Kerala PCB",05-07-2024 18:00:00,11.875000,75.373200,NO2,4,6,5
India,Kerala,Kollam,"Polayathode, Kollam - Kerala PCB",05-07-2024 18:00:00,8.8787,76.6073,CO,14,17,16
India,Kerala,Thiruvananthapuram,"Kariavattom, Thiruvananthapuram - Kerala PCB",05-07-2024 18:00:00,8.563700,76.886500,PM2.5,28,38,33
India,Kerala,Thiruvananthapuram,"Kariavattom, Thiruvananthapuram - Kerala PCB",05-07-2024 18:00:00,8.563700,76.886500,NO2,6,7,7
India,Kerala,Thiruvananthapuram,"Kariavattom, Thiruvananthapuram - Kerala PCB",05-07-2024 18:00:00,8.563700,76.886500,OZONE,36,36,36
India,Kerala,Thiruvananthapuram,"Plammoodu, Thiruvananthapuram - Kerala PCB",05-07-2024 18:00:00,8.5149093,76.9435879,OZONE,3,52,13
India,Madhya Pradesh,Bhopal,"Idgah Hills, Bhopal - MPPCB",05-07-2024 18:00:00,23.264759,77.381568,PM2.5,17,38,28
India,Madhya Pradesh,Bhopal,"Idgah Hills, Bhopal - MPPCB",05-07-2024 18:00:00,23.264759,77.381568,OZONE,10,27,21
India,Madhya Pradesh,Bhopal,"T T Nagar, Bhopal - MPPCB",05-07-2024 18:00:00,23.233584,77.400574,NO2,9,26,14
India,Madhya Pradesh,Dewas,"Bhopal Chauraha, Dewas - MPPCB",05-07-2024 18:00:00,22.9682591,76.064118,PM10,32,85,46
India,Madhya Pradesh,Dewas,"Bhopal Chauraha, Dewas - MPPCB",05-07-2024 18:00:00,22.9682591,76.064118,CO,22,44,28
India,Madhya Pradesh,Gwalior,"City Center, Gwalior - MPPCB",05-07-2024 18:00:00,26.203442,78.193251,NO2,12,27,17
India,Madhya Pradesh,Gwalior,"Deen Dayal Nagar, Gwalior - MPPCB",05-07-2024 18:00:00,26.259242,78.216432,PM2.5,8,62,18
India,Madhya Pradesh,Gwalior,"Maharaj Bada, Gwalior - MPPCB",05-07-2024 18:00:00,26.200388,78.147714,NH3,6,8,7
India,Madhya Pradesh,Gwalior,"Maharaj Bada, Gwalior - MPPCB",05-07-2024 18:00:00,26.200388,78.147714,SO2,1,13,7
India,Madhya Pradesh,Indore,"Chhoti Gwaltoli, Indore - MPPCB",05-07-2024 18:00:00,22.4310,75.5213,NO2,33,45,39
India,Madhya Pradesh,Indore,"Chhoti Gwaltoli, Indore - MPPCB",05-07-2024 18:00:00,22.4310,75.5213,NH3,2,3,2
India,Madhya Pradesh,Indore,"Chhoti Gwaltoli, Indore - MPPCB",05-07-2024 18:00:00,22.4310,75.5213,OZONE,19,39,30
India,Madhya Pradesh,Indore,"Maguda Nagar, Indore - IMC",05-07-2024 18:00:00,22.7524,75.8872,PM2.5,NA,NA,NA
India,Madhya Pradesh,Indore,"Maguda Nagar, Indore - IMC",05-07-2024 18:00:00,22.7524,75.8872,NH3,NA,NA,NA
India,Madhya Pradesh,Indore,"Maguda Nagar, Indore - IMC",05-07-2024 18:00:00,22.7524,75.8872,SO2,NA,NA,NA
India,Madhya Pradesh,Indore,"Regional Park, Indore - IMC",05-07-2024 18:00:00,22.6780,75.8559,PM10,11,36,22
India,Madhya Pradesh,Indore,"Regional Park, Indore - IMC",05-07-2024 18:00:00,22.6780,75.8559,NH3,NA,NA,NA
India,Madhya Pradesh,Indore,"Regional Park, Indore - IMC",05-07-2024 18:00:00,22.6780,75.8559,OZONE,5,7,6
India,Madhya Pradesh,Katni,"Gole Bazar, Katni - MPPCB",05-07-2024 18:00:00,23.50016,80.23284,NO2,21,34,24
India,Madhya Pradesh,Maihar,"Sahilara, Maihar - KJS Cements",05-07-2024 18:00:00,24.2613009,80.7231783,PM10,NA,NA,NA
India,Madhya Pradesh,Maihar,"Sahilara, Maihar - KJS Cements",05-07-2024 18:00:00,24.2613009,80.7231783,SO2,9,10,9
India,Madhya Pradesh,Mandideep,"Sector-D Industrial Area, Mandideep - MPPCB",05-07-2024 18:00:00,23.108440,77.511428,PM2.5,16,35,24
India,Madhya Pradesh,Mandideep,"Sector-D Industrial Area, Mandideep - MPPCB",05-07-2024 18:00:00,23.108440,77.511428,PM10,20,48,29
India,Madhya Pradesh,Mandideep,"Sector-D Industrial Area, Mandideep - MPPCB",05-07-2024 18:00:00,23.108440,77.511428,OZONE,10,88,67
India,Madhya Pradesh,Pithampur,"Sector-2 Industrial Area, Pithampur - MPPCB",05-07-2024 18:00:00,22.624758,75.675238,CO,38,44,39
India,Madhya Pradesh,Sagar,"Civil Lines, Sagar - MPPCB",05-07-2024 18:00:00,23.838586,78.759431,SO2,2,6,4
India,Madhya Pradesh,Sagar,"Civil Lines, Sagar - MPPCB",05-07-2024 18:00:00,23.838586,78.759431,OZONE,24,74,37
India,Madhya Pradesh,Sagar,"Deen Dayal Nagar, Sagar - MPPCB",05-07-2024 18:00:00,23.8640158,78.80289321,SO2,8,40,20
India,Madhya Pradesh,Sagar,"Deen Dayal Nagar, Sagar - MPPCB",05-07-2024 18:00:00,23.8640158,78.80289321,CO,44,68,56
India,Maharashtra,Ahmednagar,"Tarakpur, Ahmednagar - MPCB",05-07-2024 18:00:00,19.10122,74.73339,PM10,22,78,58
India,Maharashtra,Akola,"Ramdaspeth, Akola - MPCB",05-07-2024 18:00:00,20.719516,77.000253,PM2.5,16,36,26
India,Maharashtra,Amravati,"Shivneri Colony, Amravati - MPCB",05-07-2024 18:00:00,20.9402359,77.7895248,NH3,2,3,3
India,Maharashtra,Amravati,"Shri Shivaji Science College, Amaravati - MPCB",05-07-2024 18:00:00,20.939198,77.765701,NO2,2,35,10
India,Maharashtra,Amravati,"Shri Shivaji Science College, Amaravati - MPCB",05-07-2024 18:00:00,20.939198,77.765701,NH3,2,4,3
India,Maharashtra,Aurangabad,"More Chowk Waluj, Aurangabad - MPCB",05-07-2024 18:00:00,19.8389439,75.244448,NO2,16,28,21
India,Maharashtra,Aurangabad,"More Chowk Waluj, Aurangabad - MPCB",05-07-2024 18:00:00,19.8389439,75.244448,NH3,2,3,2
India,Maharashtra,Aurangabad,"More Chowk Waluj, Aurangabad - MPCB",05-07-2024 18:00:00,19.8389439,75.244448,SO2,12,20,17
India,Maharashtra,Aurangabad,"More Chowk Waluj, Aurangabad - MPCB",05-07-2024 18:00:00,19.8389439,75.244448,CO,9,90,30
India,Maharashtra,Belapur,"CBD Belapur, Belapur - MPCB",05-07-2024 18:00:00,19.0243902,73.0406721,NH3,2,3,2
India,Maharashtra,Bhiwandi,"Gokul Nagar, Bhiwandi - MPCB",05-07-2024 18:00:00,19.309073,73.057223,PM2.5,23,60,43
India,Maharashtra,Boisar,"Khaira, Boisar - MPCB",05-07-2024 18:00:00,19.786089,72.757971,NO2,5,32,16
India,Maharashtra,Boisar,"Khaira, Boisar - MPCB",05-07-2024 18:00:00,19.786089,72.757971,SO2,3,6,4
India,Maharashtra,Chandrapur,"Chauhan Colony, Chandrapur - MPCB",05-07-2024 18:00:00,19.962900,79.298714,NH3,1,3,2
India,Maharashtra,Chandrapur,"Chauhan Colony, Chandrapur - MPCB",05-07-2024 18:00:00,19.962900,79.298714,SO2,3,3,3
India,Maharashtra,Dhule,"Deopur, Dhule - MPCB",05-07-2024 18:00:00,20.918946,74.776388,CO,10,44,16
India,Maharashtra,Dhule,"Deopur, Dhule - MPCB",05-07-2024 18:00:00,20.918946,74.776388,OZONE,16,49,33
India,Maharashtra,Jalgaon,"Prabhat Colony, Jalgaon - MPCB",05-07-2024 18:00:00,21.001264,75.565602,CO,13,27,17
India,Maharashtra,Jalna,"Old MIDC, Jalna - MPCB",05-07-2024 18:00:00,19.854616,75.905894,PM2.5,NA,NA,NA
India,Maharashtra,Jalna,"Old MIDC, Jalna - MPCB",05-07-2024 18:00:00,19.854616,75.905894,SO2,5,7,6
India,Maharashtra,Jalna,"Old MIDC, Jalna - MPCB",05-07-2024 18:00:00,19.854616,75.905894,CO,20,28,24
India,Maharashtra,Kalyan,"Khadakpada, Kalyan - MPCB",05-07-2024 18:00:00,19.25292,73.142019,PM10,12,50,34
India,Maharashtra,Kalyan,"Khadakpada, Kalyan - MPCB",05-07-2024 18:00:00,19.25292,73.142019,CO,12,22,19
India,Maharashtra,Kolhapur,"Shivaji University, Kolhapur - MPCB",05-07-2024 18:00:00,16.6870449,74.2505872,PM10,22,86,50
India,Maharashtra,Kolhapur,"Shivaji University, Kolhapur - MPCB",05-07-2024 18:00:00,16.6870449,74.2505872,CO,4,26,17
India,Maharashtra,Kolhapur,"Shivaji University, Kolhapur - MPCB",05-07-2024 18:00:00,16.6870449,74.2505872,OZONE,12,30,24
India,Maharashtra,Latur,"Sawe Wadi, Latur - MPCB",05-07-2024 18:00:00,18.39963,76.57452,PM2.5,16,42,25
India,Maharashtra,Latur,"Sawe Wadi, Latur - MPCB",05-07-2024 18:00:00,18.39963,76.57452,NO2,2,34,12
India,Maharashtra,Latur,"Sawe Wadi, Latur - MPCB",05-07-2024 18:00:00,18.39963,76.57452,CO,6,32,17
India,Maharashtra,Malegaon,"Mahesh Nagar, Malegaon - MPCB",05-07-2024 18:00:00,20.555712,74.529236,PM10,37,75,57
India,Maharashtra,Malegaon,"Mahesh Nagar, Malegaon - MPCB",05-07-2024 18:00:00,20.555712,74.529236,NO2,9,34,20
India,Maharashtra,Malegaon,"Mahesh Nagar, Malegaon - MPCB",05-07-2024 18:00:00,20.555712,74.529236,NH3,3,7,5
India,Maharashtra,Mumbai,"Bandra Kurla Complex, Mumbai - MPCB",05-07-2024 18:00:00,19.065931,72.862131,NH3,10,23,14
India,Maharashtra,Mumbai,"Bandra Kurla Complex, Mumbai - MPCB",05-07-2024 18:00:00,19.065931,72.862131,SO2,1,3,1
India,Maharashtra,Mumbai,"Borivali East, Mumbai - IITM",05-07-2024 18:00:00,19.23241,72.86895,OZONE,35,54,45
India,Maharashtra,Mumbai,"Byculla, Mumbai - BMC",05-07-2024 18:00:00,18.9767,72.8380,PM2.5,6,29,14
India,Maharashtra,Mumbai,"Byculla, Mumbai - BMC",05-07-2024 18:00:00,18.9767,72.8380,OZONE,8,18,15
India,Maharashtra,Mumbai,"Chakala-Andheri East, Mumbai - IITM",05-07-2024 18:00:00,19.11074,72.86084,NO2,19,41,25
India,Maharashtra,Mumbai,"Chakala-Andheri East, Mumbai - IITM",05-07-2024 18:00:00,19.11074,72.86084,SO2,1,24,9
India,Maharashtra,Mumbai,"Chembur, Mumbai - MPCB",05-07-2024 18:00:00,19.0364585,72.8954371,PM2.5,13,41,26
India,Maharashtra,Mumbai,"Chembur, Mumbai - MPCB",05-07-2024 18:00:00,19.0364585,72.8954371,NO2,11,32,21
India,Maharashtra,Mumbai,"Chembur, Mumbai - MPCB",05-07-2024 18:00:00,19.0364585,72.8954371,NH3,2,3,2
India,Maharashtra,Mumbai,"Chhatrapati Shivaji Intl. Airport (T2), Mumbai - MPCB",05-07-2024 18:00:00,19.10078,72.87462,PM10,34,86,54
India,Maharashtra,Mumbai,"Deonar, Mumbai - IITM",05-07-2024 18:00:00,19.04946,72.9230,NH3,3,4,4
India,Maharashtra,Mumbai,"Deonar, Mumbai - IITM",05-07-2024 18:00:00,19.04946,72.9230,OZONE,9,23,15
India,Maharashtra,Mumbai,"Ghatkopar, Mumbai - BMC",05-07-2024 18:00:00,19.083694,72.920967,PM2.5,3,20,10
India,Maharashtra,Mumbai,"Ghatkopar, Mumbai - BMC",05-07-2024 18:00:00,19.083694,72.920967,PM10,15,36,27
India,Maharashtra,Mumbai,"Ghatkopar, Mumbai - BMC",05-07-2024 18:00:00,19.083694,72.920967,SO2,1,2,1
India,Maharashtra,Mumbai,"Kandivali East, Mumbai - MPCB",05-07-2024 18:00:00,19.205800,72.868200,CO,50,55,54
India,Maharashtra,Mumbai,"Kandivali West, Mumbai - BMC",05-07-2024 18:00:00,19.215859,72.831718,PM10,16,42,29
India,Maharashtra,Mumbai,"Kherwadi_Bandra East, Mumbai - MPCB",05-07-2024 18:00:00,19.0632143,72.8456324,PM2.5,11,51,25
India,Maharashtra,Mumbai,"Kherwadi_Bandra East, Mumbai - MPCB",05-07-2024 18:00:00,19.0632143,72.8456324,CO,8,15,12
India,Maharashtra,Mumbai,"Khindipada-Bhandup West, Mumbai - IITM",05-07-2024 18:00:00,19.1653323,72.922099,NH3,6,12,7
India,Maharashtra,Mumbai,"Mazgaon, Mumbai - IITM",05-07-2024 18:00:00,18.96702,72.84214,PM10,14,53,30
India,Maharashtra,Mumbai,"Mazgaon, Mumbai - IITM",05-07-2024 18:00:00,18.96702,72.84214,SO2,1,9,2
India,Maharashtra,Mumbai,"Mindspace-Malad West, Mumbai - MPCB",05-07-2024 18:00:00,19.1878657,72.8304069,PM10,28,55,41
India,Maharashtra,Mumbai,"Navy Nagar-Colaba, Mumbai - IITM",05-07-2024 18:00:00,18.897756,72.813320,NH3,1,2,2
India,Maharashtra,Mumbai,"Navy Nagar-Colaba, Mumbai - IITM",05-07-2024 18:00:00,18.897756,72.813320,CO,38,50,43
India,Maharashtra,Mumbai,"Powai, Mumbai - MPCB",05-07-2024 18:00:00,19.137500,72.915056,PM10,23,64,44
India,Maharashtra,Mumbai,"Powai, Mumbai - MPCB",05-07-2024 18:00:00,19.137500,72.915056,CO,14,18,16
India,Maharashtra,Mumbai,"Shivaji Nagar, Mumbai - BMC",05-07-2024 18:00:00,19.060498,72.923356,NH3,1,4,2
India,Maharashtra,Mumbai,"Shivaji Nagar, Mumbai - BMC",05-07-2024 18:00:00,19.060498,72.923356,SO2,1,9,6
India,Maharashtra,Mumbai,"Siddharth Nagar-Worli, Mumbai - IITM",05-07-2024 18:00:00,19.000083,72.813993,PM10,NA,NA,NA
India,Maharashtra,Mumbai,"Siddharth Nagar-Worli, Mumbai - IITM",05-07-2024 18:00:00,19.000083,72.813993,NO2,1,8,1
India,Maharashtra,Mumbai,"Siddharth Nagar-Worli, Mumbai - IITM",05-07-2024 18:00:00,19.000083,72.813993,OZONE,18,29,27
India,Maharashtra,Mumbai,"Sion, Mumbai - MPCB",05-07-2024 18:00:00,19.047000,72.874600,PM10,33,81,57
India,Maharashtra,Mumbai,"Sion, Mumbai - MPCB",05-07-2024 18:00:00,19.047000,72.874600,SO2,24,121,29
India,Maharashtra,Mumbai,"Vasai West, Mumbai - MPCB",05-07-2024 18:00:00,19.383200,72.820400,OZONE,6,7,7
India,Maharashtra,Mumbai,"Vile Parle West, Mumbai - MPCB",05-07-2024 18:00:00,19.10861,72.83622,SO2,8,8,8
India,Maharashtra,Mumbai,"Worli, Mumbai - MPCB",05-07-2024 18:00:00,18.9936162,72.8128113,PM10,NA,NA,NA
India,Maharashtra,Mumbai,"Worli, Mumbai - MPCB",05-07-2024 18:00:00,18.9936162,72.8128113,CO,23,24,23
India,Maharashtra,Nagpur,"Mahal, Nagpur - MPCB",05-07-2024 18:00:00,21.14472,79.107595,SO2,5,44,15
India,Maharashtra,Nagpur,"Mahal, Nagpur - MPCB",05-07-2024 18:00:00,21.14472,79.107595,OZONE,1,19,16
India,Maharashtra,Nanded,"Sneh Nagar, Nanded - MPCB",05-07-2024 18:00:00,19.173852,77.296291,PM2.5,21,42,28
India,Maharashtra,Nanded,"Sneh Nagar, Nanded - MPCB",05-07-2024 18:00:00,19.173852,77.296291,PM10,36,61,49
India,Maharashtra,Nanded,"Sneh Nagar, Nanded - MPCB",05-07-2024 18:00:00,19.173852,77.296291,NO2,4,17,7
India,Maharashtra,Nashik,"Gangapur Road, Nashik - MPCB",05-07-2024 18:00:00,20.0073285,73.7762427,PM2.5,8,65,30
India,Maharashtra,Nashik,"Gangapur Road, Nashik - MPCB",05-07-2024 18:00:00,20.0073285,73.7762427,SO2,5,15,11
India,Maharashtra,Nashik,"Hirawadi, Nashik - MPCB",05-07-2024 18:00:00,20.021503,73.813844,PM10,11,31,24
India,Maharashtra,Navi Mumbai,"Mahape, Navi Mumbai - MPCB",05-07-2024 18:00:00,19.1135051,73.008978,NO2,34,35,34
India,Maharashtra,Navi Mumbai,"Mahape, Navi Mumbai - MPCB",05-07-2024 18:00:00,19.1135051,73.008978,OZONE,18,21,19
India,Maharashtra,Navi Mumbai,"Nerul, Navi Mumbai - MPCB",05-07-2024 18:00:00,19.008751,73.016620,NO2,21,27,24
India,Maharashtra,Navi Mumbai,"Sanpada, Navi Mumbai - MPCB",05-07-2024 18:00:00,19.0575752,73.0151367,SO2,1,4,2
India,Maharashtra,Navi Mumbai,"Sanpada, Navi Mumbai - MPCB",05-07-2024 18:00:00,19.0575752,73.0151367,CO,NA,NA,NA
India,Maharashtra,Navi Mumbai,"Sector-2E Kalamboli, Navi Mumbai - MPCB",05-07-2024 18:00:00,19.02579,73.10297,SO2,1,6,2
India,Maharashtra,Navi Mumbai,"Sector-2E Kalamboli, Navi Mumbai - MPCB",05-07-2024 18:00:00,19.02579,73.10297,OZONE,6,51,19
India,Maharashtra,Navi Mumbai,"Tondare-Taloja, Navi Mumbai - MPCB",05-07-2024 18:00:00,19.0630,73.1209,NO2,3,26,8
India,Maharashtra,Navi Mumbai,"Tondare-Taloja, Navi Mumbai - MPCB",05-07-2024 18:00:00,19.0630,73.1209,SO2,1,7,4
India,Maharashtra,Pimpri-Chinchwad,"Gavalinagar, Pimpri Chinchwad - MPCB",05-07-2024 18:00:00,18.63673,73.82487,NO2,32,33,33
India,Maharashtra,Pimpri-Chinchwad,"Gavalinagar, Pimpri Chinchwad - MPCB",05-07-2024 18:00:00,18.63673,73.82487,SO2,1,3,2
India,Maharashtra,Pimpri-Chinchwad,"Park Street Wakad, Pimpri Chinchwad - MPCB",05-07-2024 18:00:00,18.59051,73.77946,OZONE,2,11,10
India,Maharashtra,Pune,"Alandi, Pune - IITM",05-07-2024 18:00:00,18.675076,73.892743,PM10,3,65,32
India,Maharashtra,Pune,"Bhosari, Pune - IITM",05-07-2024 18:00:00,18.640051,73.848956,PM2.5,13,37,23
India,Maharashtra,Pune,"Hadapsar, Pune - IITM",05-07-2024 18:00:00,18.501793,73.927532,PM2.5,NA,NA,NA
India,Maharashtra,Pune,"Mhada Colony, Pune - IITM",05-07-2024 18:00:00,18.573040,73.927715,CO,54,105,99
India,Maharashtra,Pune,"Revenue Colony-Shivajinagar, Pune - IITM",05-07-2024 18:00:00,18.530085,73.849598,CO,44,68,57
India,Maharashtra,Pune,"Savitribai Phule Pune University, Pune - MPCB",05-07-2024 18:00:00,18.547056,73.826908,NH3,1,3,2
India,Maharashtra,Pune,"Savitribai Phule Pune University, Pune - MPCB",05-07-2024 18:00:00,18.547056,73.826908,CO,8,29,14
India,Maharashtra,Sangli,"Vijay Nagar, Sangli - MPCB",05-07-2024 18:00:00, 16.5038,74.3623,CO,8,16,10
India,Maharashtra,Solapur,"Ratandeep Housing Society, Solapur - MPCB",05-07-2024 18:00:00,17.65439,75.90649,OZONE,11,30,24
India,Maharashtra,Solapur,"Solapur, Solapur - MPCB",05-07-2024 18:00:00,17.6599188,75.9063906,PM2.5,49,51,50
India,Maharashtra,Solapur,"Solapur, Solapur - MPCB",05-07-2024 18:00:00,17.6599188,75.9063906,PM10,77,82,80
India,Maharashtra,Solapur,"Solapur, Solapur - MPCB",05-07-2024 18:00:00,17.6599188,75.9063906,NO2,55,55,55
India,Maharashtra,Thane,"Kasarvadavali, Thane - MPCB",05-07-2024 18:00:00,19.26777,72.97182,SO2,2,11,5
India,Maharashtra,Thane,"Pimpleshwar Mandir, Thane - MPCB",05-07-2024 18:00:00,19.192056,72.9585188,PM10,20,60,39
India,Maharashtra,Thane,"Pimpleshwar Mandir, Thane - MPCB",05-07-2024 18:00:00,19.192056,72.9585188,NO2,15,21,18
India,Maharashtra,Thane,"Pimpleshwar Mandir, Thane - MPCB",05-07-2024 18:00:00,19.192056,72.9585188,SO2,1,7,3
India,Maharashtra,Thane,"Upvan Fort, Thane - MPCB",05-07-2024 18:00:00,19.222279,72.957979,CO,8,24,14
India,Maharashtra,Ulhasnagar,"Sidhi Vinayak Nagar, Ulhasnagar - MPCB",05-07-2024 18:00:00,19.235581,73.159121,PM10,43,72,58
India,Maharashtra,Ulhasnagar,"Sidhi Vinayak Nagar, Ulhasnagar - MPCB",05-07-2024 18:00:00,19.235581,73.159121,SO2,8,15,10
India,Manipur,Imphal,"DM College of Science, Imphal - Manipur PCB",05-07-2024 18:00:00,24.8207389,93.9423085,SO2,NA,NA,NA
India,Manipur,Imphal,"DM College of Science, Imphal - Manipur PCB",05-07-2024 18:00:00,24.8207389,93.9423085,CO,6,6,6
India,Meghalaya,Shillong,"Lumpyngngad, Shillong - Meghalaya PCB",05-07-2024 18:00:00,25.5586,91.8985,SO2,NA,NA,NA
India,Mizoram,Aizawl,"Sikulpuikawn, Aizawl - Mizoram PCB",05-07-2024 18:00:00,23.7176342,92.7192841,PM2.5,NA,NA,NA
India,Mizoram,Aizawl,"Sikulpuikawn, Aizawl - Mizoram PCB",05-07-2024 18:00:00,23.7176342,92.7192841,NH3,NA,NA,NA
India,Nagaland,Kohima,"PWD Juction, Kohima - NPCB",05-07-2024 18:00:00,25.6635413,94.0989878,PM2.5,1,38,21
India,Nagaland,Kohima,"PWD Juction, Kohima - NPCB",05-07-2024 18:00:00,25.6635413,94.0989878,PM10,1,36,23
India,Nagaland,Kohima,"PWD Juction, Kohima - NPCB",05-07-2024 18:00:00,25.6635413,94.0989878,NH3,1,1,1
India,Nagaland,Kohima,"PWD Juction, Kohima - NPCB",05-07-2024 18:00:00,25.6635413,94.0989878,SO2,38,41,39
India,Odisha,Angul,"Hakimapada, Angul - OSPCB",05-07-2024 18:00:00,20.832874,85.104082,PM10,15,135,56
India,Odisha,Angul,"Hakimapada, Angul - OSPCB",05-07-2024 18:00:00,20.832874,85.104082,NH3,1,1,1
India,Odisha,Angul,"Hakimapada, Angul - OSPCB",05-07-2024 18:00:00,20.832874,85.104082,SO2,4,9,7
India,Odisha,Baripada,"Meher Colony, Baripada - OSPCB",05-07-2024 18:00:00,21.941841,86.728318,PM10,23,80,52
India,Odisha,Bhubaneswar,"Lingraj Mandir, Bhubaneswar - OSPCB",05-07-2024 18:00:00,20.240790,85.836784,PM10,36,118,75
India,Odisha,Bhubaneswar,"Lingraj Mandir, Bhubaneswar - OSPCB",05-07-2024 18:00:00,20.240790,85.836784,SO2,4,12,8
India,Odisha,Bhubaneswar,"Lingraj Mandir, Bhubaneswar - OSPCB",05-07-2024 18:00:00,20.240790,85.836784,CO,24,148,67
India,Odisha,Bhubaneswar,"Patia, Bhubaneswar - OSPCB",05-07-2024 18:00:00,20.34652,85.81630,NO2,6,20,11
India,Odisha,Bhubaneswar,"Patia, Bhubaneswar - OSPCB",05-07-2024 18:00:00,20.34652,85.81630,OZONE,17,62,47
India,Odisha,Bileipada,"Tata Township, Bileipada - OSPCB",05-07-2024 18:00:00,22.06156703,85.47409613,NO2,4,5,4
India,Odisha,Bileipada,"Tata Township, Bileipada - OSPCB",05-07-2024 18:00:00,22.06156703,85.47409613,NH3,11,12,11
India,Odisha,Bileipada,"Tata Township, Bileipada - OSPCB",05-07-2024 18:00:00,22.06156703,85.47409613,SO2,1,51,21
India,Odisha,Byasanagar,"Ferro Chrome Colony, Byasanagar - OSPCB",05-07-2024 18:00:00,20.94185,86.11510,NO2,5,24,8
India,Odisha,Cuttack,"CDA Area, Cuttack - OSPCB",05-07-2024 18:00:00,20.48891     ,85.84768     ,NO2,9,25,15
India,Odisha,Keonjhar,"Jagamohanpur, Keonjhar - OSPCB",05-07-2024 18:00:00,21.643900,85.599355,PM10,24,52,36
India,Odisha,Keonjhar,"Jagamohanpur, Keonjhar - OSPCB",05-07-2024 18:00:00,21.643900,85.599355,NO2,2,4,3
India,Odisha,Keonjhar,"Jagamohanpur, Keonjhar - OSPCB",05-07-2024 18:00:00,21.643900,85.599355,SO2,3,10,8
India,Odisha,Nayagarh,"Dabuna, Nayagarh - OSPCB",05-07-2024 18:00:00,21.847279,85.416905,PM10,NA,NA,NA
India,Odisha,Rairangpur,"Divisional Forest Office, Rairangpur - OSPCB",05-07-2024 18:00:00,22.265816,86.174829,NO2,14,14,14
India,Odisha,Rairangpur,"Divisional Forest Office, Rairangpur - OSPCB",05-07-2024 18:00:00,22.265816,86.174829,CO,10,20,16
India,Odisha,Rourkela,"Raghunathpali, Rourkela - OSPCB",05-07-2024 18:00:00,22.220833,84.809444,PM2.5,4,49,26
India,Odisha,Rourkela,"Raghunathpali, Rourkela - OSPCB",05-07-2024 18:00:00,22.220833,84.809444,PM10,17,75,49
India,Odisha,Rourkela,"Sector-2, Rourkela - OSPCB",05-07-2024 18:00:00,22.24500000,84.88111111,PM2.5,NA,NA,NA
India,Odisha,Talcher,"Talcher Coalfields,Talcher - OSPCB",05-07-2024 18:00:00,20.9360711,85.1707021,PM2.5,9,126,51
India,Odisha,Talcher,"Talcher Coalfields,Talcher - OSPCB",05-07-2024 18:00:00,20.9360711,85.1707021,PM10,21,100,55
India,Odisha,Tensa,"Barsua Iron Ore Mines, Tensa - OSPCB",05-07-2024 18:00:00,21.869985,85.167016,NO2,16,20,18
India,Odisha,Tensa,"Barsua Iron Ore Mines, Tensa - OSPCB",05-07-2024 18:00:00,21.869985,85.167016,OZONE,5,5,5
India,Puducherry,Puducherry,"Jawahar Nagar, Puducherry - PPCC",05-07-2024 18:00:00,11.9309,79.8027,OZONE,29,127,77
India,Punjab,Amritsar,"Golden Temple, Amritsar - PPCB",05-07-2024 18:00:00,31.620000,74.876512,PM2.5,25,151,73
India,Punjab,Jalandhar,"Civil Line, Jalandhar - PPCB",05-07-2024 18:00:00,31.321907,75.578914,NO2,16,20,18
India,Punjab,Khanna,"Kalal Majra, Khanna - PPCB",05-07-2024 18:00:00,30.736056 ,76.209694,PM2.5,12,41,22
India,Punjab,Khanna,"Kalal Majra, Khanna - PPCB",05-07-2024 18:00:00,30.736056 ,76.209694,NH3,7,7,7
India,Punjab,Ludhiana,"Punjab Agricultural University, Ludhiana - PPCB",05-07-2024 18:00:00,30.9028,75.8086,NO2,22,26,24
India,Punjab,Mandi Gobindgarh,"RIMT University, Mandi Gobindgarh - PPCB",05-07-2024 18:00:00,30.649961,76.331442,PM2.5,16,401,156
India,Punjab,Mandi Gobindgarh,"RIMT University, Mandi Gobindgarh - PPCB",05-07-2024 18:00:00,30.649961,76.331442,NO2,18,29,27
India,Punjab,Mandi Gobindgarh,"RIMT University, Mandi Gobindgarh - PPCB",05-07-2024 18:00:00,30.649961,76.331442,SO2,NA,NA,NA
India,Rajasthan,Ajmer,"Civil Lines,  Ajmer - RSPCB",05-07-2024 18:00:00,26.470859,74.646594,SO2,5,20,13
India,Rajasthan,Alwar,"Moti Doongri, Alwar - RSPCB",05-07-2024 18:00:00,27.554793,76.611536,PM2.5,23,70,45
India,Rajasthan,Alwar,"Moti Doongri, Alwar - RSPCB",05-07-2024 18:00:00,27.554793,76.611536,NH3,3,12,5
India,Rajasthan,Banswara,"Rati Talai, Banswara - RSPCB",05-07-2024 18:00:00,23.555190,74.440010,NH3,2,7,4
India,Rajasthan,Banswara,"Rati Talai, Banswara - RSPCB",05-07-2024 18:00:00,23.555190,74.440010,OZONE,22,45,35
India,Rajasthan,Baran,"Bamboliya, Baran - RSPCB",05-07-2024 18:00:00,25.106006,76.469948,OZONE,22,47,28
India,Rajasthan,Barmer,"Railway Colony, Barmer - RSPCB",05-07-2024 18:00:00,25.747299,71.393989,CO,9,22,16
India,Rajasthan,Bharatpur,"Krishna Nagar, Bharatpur - RSPCB",05-07-2024 18:00:00,27.215415,77.50873,CO,2,69,22
India,Rajasthan,Bhilwara,"Pratap Nagar, Bhilwara - RSPCB",05-07-2024 18:00:00,25.339605,74.618883,PM10,13,88,44
India,Rajasthan,Bhilwara,"Pratap Nagar, Bhilwara - RSPCB",05-07-2024 18:00:00,25.339605,74.618883,NO2,5,15,10
India,Rajasthan,Bhilwara,"Pratap Nagar, Bhilwara - RSPCB",05-07-2024 18:00:00,25.339605,74.618883,CO,6,34,29
India,Rajasthan,Bhiwadi,"RIICO Ind. Area III, Bhiwadi - RSPCB",05-07-2024 18:00:00,28.194909,76.862296,NH3,NA,NA,NA
India,Rajasthan,Bikaner,"MM Ground, Bikaner - RSPCB",05-07-2024 18:00:00,28.018792,73.292658,SO2,2,5,4
India,Rajasthan,Bikaner,"MM Ground, Bikaner - RSPCB",05-07-2024 18:00:00,28.018792,73.292658,OZONE,3,52,21
India,Rajasthan,Bundi,"New Colony, Bundi - RSPCB",05-07-2024 18:00:00,25.435774,75.644272,SO2,3,8,5
India,Rajasthan,Churu,"Subash Chowk, Churu - RSPCB",05-07-2024 18:00:00,28.296139,74.961696,CO,4,32,15
India,Rajasthan,Dausa,"Khatikan Mohalla, Dausa - RSPCB",05-07-2024 18:00:00,26.895552,76.334753,CO,16,103,76
India,Rajasthan,Dholpur,"Raja Ganj, Dholpur - RSPCB",05-07-2024 18:00:00,26.699557,77.898881,SO2,3,8,4
India,Rajasthan,Dungarpur,"Bhoiwada, Dungarpur - RSPCB",05-07-2024 18:00:00,23.837789,73.714926,CO,2,107,25
India,Rajasthan,Jaipur,"Adarsh Nagar, Jaipur - RSPCB",05-07-2024 18:00:00,26.902909,75.836858,OZONE,26,43,36
India,Rajasthan,Jaipur,"Police Commissionerate, Jaipur - RSPCB",05-07-2024 18:00:00,26.9164092,75.7994901,PM2.5,NA,NA,NA
India,Rajasthan,Jaipur,"Police Commissionerate, Jaipur - RSPCB",05-07-2024 18:00:00,26.9164092,75.7994901,PM10,19,88,51
India,Rajasthan,Jaipur,"Police Commissionerate, Jaipur - RSPCB",05-07-2024 18:00:00,26.9164092,75.7994901,CO,12,86,44
India,Rajasthan,Jaipur,"Sector-2 Murlipura, Jaipur - RSPCB",05-07-2024 18:00:00,26.960669,75.771817,PM2.5,9,83,34
India,Rajasthan,Jaipur,"Sector-2 Murlipura, Jaipur - RSPCB",05-07-2024 18:00:00,26.960669,75.771817,PM10,10,73,34
India,Rajasthan,Jaipur,"Sector-2 Murlipura, Jaipur - RSPCB",05-07-2024 18:00:00,26.960669,75.771817,CO,32,114,62
India,Rajasthan,Jaipur,"Shastri Nagar, Jaipur - RSPCB",05-07-2024 18:00:00,26.9502929,75.730943,PM2.5,32,82,51
India,Rajasthan,Jaipur,"Shastri Nagar, Jaipur - RSPCB",05-07-2024 18:00:00,26.9502929,75.730943,NH3,3,10,6
India,Rajasthan,Jaipur,"Shastri Nagar, Jaipur - RSPCB",05-07-2024 18:00:00,26.9502929,75.730943,SO2,13,71,28
India,Rajasthan,Jaisalmer,"Sadar Bazar, Jaisalmer - RSPCB",05-07-2024 18:00:00,26.912329,70.909168,OZONE,20,39,30
India,Rajasthan,Jalore,"Mudtra Sili, Jalore - RSPCB",05-07-2024 18:00:00,25.344694,72.626208,CO,12,24,17
India,Rajasthan,Jhalawar,"Rajlaxmi Nagar, Jhalawar - RSPCB",05-07-2024 18:00:00,24.588397,76.172782,PM10,23,72,40
India,Rajasthan,Jhalawar,"Rajlaxmi Nagar, Jhalawar - RSPCB",05-07-2024 18:00:00,24.588397,76.172782,NH3,1,3,2
India,Rajasthan,Jhalawar,"Rajlaxmi Nagar, Jhalawar - RSPCB",05-07-2024 18:00:00,24.588397,76.172782,CO,16,84,62
India,Rajasthan,Jhunjhunu,"Indra Nagar, Jhunjhunu - RSPCB",05-07-2024 18:00:00,28.108988,75.386577,NO2,15,40,23
India,Rajasthan,Jhunjhunu,"Indra Nagar, Jhunjhunu - RSPCB",05-07-2024 18:00:00,28.108988,75.386577,NH3,1,22,17
India,Rajasthan,Jodhpur,"Digari Kalan, Jodhpur - RSPCB",05-07-2024 18:00:00,26.295810,73.082283,PM2.5,28,52,36
India,Rajasthan,Jodhpur,"Samrat Ashok Udhyan, Jodhpur - RSPCB",05-07-2024 18:00:00,26.253384,72.976571,PM10,62,108,83
India,Rajasthan,Kota,"Dhanmandi, Kota - RSPCB",05-07-2024 18:00:00,25.164090,75.858137,PM2.5,11,37,19
India,Rajasthan,Kota,"Nayapura, Kota - RSPCB",05-07-2024 18:00:00,25.196024,75.855668,PM2.5,3,193,83
India,Rajasthan,Kota,"Shrinath Puram, Kota - RSPCB",05-07-2024 18:00:00,25.14389,75.821256,PM10,NA,NA,NA
India,Rajasthan,Kota,"Shrinath Puram, Kota - RSPCB",05-07-2024 18:00:00,25.14389,75.821256,NH3,NA,NA,NA
India,Rajasthan,Kota,"Shrinath Puram, Kota - RSPCB",05-07-2024 18:00:00,25.14389,75.821256,OZONE,25,35,25
India,Rajasthan,Nagaur,"Karni Colony, Nagaur - RSPCB",05-07-2024 18:00:00,27.213494,73.734444,PM2.5,3,51,30
India,Rajasthan,Nagaur,"Karni Colony, Nagaur - RSPCB",05-07-2024 18:00:00,27.213494,73.734444,NH3,7,19,11
India,Rajasthan,Rajsamand,"Dhoinda, Rajsamand - RSPCB",05-07-2024 18:00:00,25.036360,73.883502,NH3,2,4,3
India,Rajasthan,Sikar,"Radhakishan Pura, Sikar - RSPCB",05-07-2024 18:00:00,27.608912,75.153302,PM2.5,14,77,36
India,Rajasthan,Sikar,"Radhakishan Pura, Sikar - RSPCB",05-07-2024 18:00:00,27.608912,75.153302,PM10,25,114,59
India,Rajasthan,Sirohi,"Vedhaynath Colony, Sirohi - RSPCB",05-07-2024 18:00:00,24.885261,72.857549,CO,12,30,27
India,Rajasthan,Sri Ganganagar,"Old City, Sri Ganganagar - RSPCB",05-07-2024 18:00:00,29.931624,73.864511,PM10,37,284,152
India,Rajasthan,Sri Ganganagar,"Old City, Sri Ganganagar - RSPCB",05-07-2024 18:00:00,29.931624,73.864511,SO2,29,36,34
India,Rajasthan,Tonk,"Shastri Nagar, Tonk - RSPCB",05-07-2024 18:00:00,26.159933,75.780517,PM10,NA,NA,NA
India,Rajasthan,Tonk,"Shastri Nagar, Tonk - RSPCB",05-07-2024 18:00:00,26.159933,75.780517,SO2,2,8,3
India,Rajasthan,Udaipur,"Ashok Nagar, Udaipur - RSPCB",05-07-2024 18:00:00,24.5886166,73.6321397,NO2,8,63,31
India,Sikkim,Gangtok,"Zero Point GICI, Gangtok - SSPCB",05-07-2024 18:00:00,27.338530,88.614099,SO2,11,12,11
India,Sikkim,Gangtok,"Zero Point GICI, Gangtok - SSPCB",05-07-2024 18:00:00,27.338530,88.614099,OZONE,13,28,22
India,TamilNadu,Ariyalur,"Keelapalur, Ariyalur - TNPCB",05-07-2024 18:00:00,11.06825,79.07033,PM10,22,103,50
India,TamilNadu,Chennai,"Alandur Bus Depot, Chennai - CPCB",05-07-2024 18:00:00,12.9099161,80.1076538,PM2.5,23,33,25
India,TamilNadu,Chennai,"Alandur Bus Depot, Chennai - CPCB",05-07-2024 18:00:00,12.9099161,80.1076538,NH3,3,10,4
India,TamilNadu,Chennai,"Alandur Bus Depot, Chennai - CPCB",05-07-2024 18:00:00,12.9099161,80.1076538,CO,60,64,62
India,TamilNadu,Chennai,"Kodungaiyur, Chennai - TNPCB",05-07-2024 18:00:00,13.1278,80.2642,OZONE,27,64,44
India,TamilNadu,Chennai,"Manali, Chennai - CPCB",05-07-2024 18:00:00,13.164544,80.26285,NH3,4,6,5
India,TamilNadu,Chennai,"Royapuram, Chennai - TNPCB",05-07-2024 18:00:00,13.1036,80.2909,PM2.5,15,49,29
India,TamilNadu,Cuddalore,"Kudikadu, Cuddalore - TNPCB",05-07-2024 18:00:00,11.6829898,79.7532099,PM2.5,NA,NA,NA
India,TamilNadu,Dindigul,"Mendonsa Colony, Dindigul - TNPCB",05-07-2024 18:00:00,10.358535,77.984321,PM2.5,NA,NA,NA
India,TamilNadu,Ooty,"Bombay Castel, Ooty - TNPCB",05-07-2024 18:00:00,11.4068288,76.7138973,NO2,1,19,8
India,TamilNadu,Ooty,"Bombay Castel, Ooty - TNPCB",05-07-2024 18:00:00,11.4068288,76.7138973,NH3,NA,NA,NA
India,TamilNadu,Palkalaiperur,"Bharathidasan University, Palkalaiperur - TNPCB",05-07-2024 18:00:00,10.681158,78.741746,SO2,NA,NA,NA
India,TamilNadu,Ramanathapuram,"Chalai Bazaar, Ramanathapuram - TNPCB",05-07-2024 18:00:00,9.36399,78.831977,PM10,NA,NA,NA
India,TamilNadu,Ramanathapuram,"Chalai Bazaar, Ramanathapuram - TNPCB",05-07-2024 18:00:00,9.36399,78.831977,NH3,NA,NA,NA
India,TamilNadu,Ramanathapuram,"Chalai Bazaar, Ramanathapuram - TNPCB",05-07-2024 18:00:00,9.36399,78.831977,CO,3,12,8
India,TamilNadu,Thoothukudi,"Meelavittan, Thoothukudi - TNPCB",05-07-2024 18:00:00,8.816428 ,78.099039,NO2,15,35,22
India,TamilNadu,Thoothukudi,"Meelavittan, Thoothukudi - TNPCB",05-07-2024 18:00:00,8.816428 ,78.099039,OZONE,1,90,39
India,TamilNadu,Tirupur,"Kumaran College, Tirupur - TNPCB",05-07-2024 18:00:00,11.0973603,77.3228673,PM10,NA,NA,NA
India,TamilNadu,Tirupur,"Kumaran College, Tirupur - TNPCB",05-07-2024 18:00:00,11.0973603,77.3228673,OZONE,7,7,7
India,TamilNadu,Vellore,"Vasanthapuram, Vellore - TNPCB",05-07-2024 18:00:00,12.909494,79.131861,NH3,NA,NA,NA
India,TamilNadu,Vellore,"Vasanthapuram, Vellore - TNPCB",05-07-2024 18:00:00,12.909494,79.131861,SO2,NA,NA,NA
India,TamilNadu,Vellore,"Vasanthapuram, Vellore - TNPCB",05-07-2024 18:00:00,12.909494,79.131861,OZONE,1,1,1
India,TamilNadu,Virudhunagar,"Collectorate Office, Virudhunagar - TNPCB",05-07-2024 18:00:00,9.559382,77.948828,PM10,NA,NA,NA
India,TamilNadu,Virudhunagar,"Collectorate Office, Virudhunagar - TNPCB",05-07-2024 18:00:00,9.559382,77.948828,SO2,NA,NA,NA
India,Telangana,Hyderabad,"Bollaram Industrial Area, Hyderabad - TSPCB",05-07-2024 18:00:00,17.540891,78.358528,SO2,4,32,24
India,Telangana,Hyderabad,"Central University, Hyderabad - TSPCB",05-07-2024 18:00:00,17.460103,78.334361,NO2,16,35,28
India,Telangana,Hyderabad,"Central University, Hyderabad - TSPCB",05-07-2024 18:00:00,17.460103,78.334361,SO2,4,10,8
India,Telangana,Hyderabad,"ECIL Kapra, Hyderabad - TSPCB",05-07-2024 18:00:00,17.470431,78.566959,PM2.5,50,63,53
India,Telangana,Hyderabad,"ECIL Kapra, Hyderabad - TSPCB",05-07-2024 18:00:00,17.470431,78.566959,SO2,11,14,13
India,Telangana,Hyderabad,"ECIL Kapra, Hyderabad - TSPCB",05-07-2024 18:00:00,17.470431,78.566959,CO,12,42,29
India,Telangana,Hyderabad,"ICRISAT Patancheru, Hyderabad - TSPCB",05-07-2024 18:00:00,17.518400,78.278777,PM2.5,3,37,17
India,Telangana,Hyderabad,"IDA Pashamylaram, Hyderabad - TSPCB",05-07-2024 18:00:00,17.5316895,78.218939,NH3,1,2,1
India,Telangana,Hyderabad,"IITH Kandi, Hyderabad - TSPCB",05-07-2024 18:00:00,17.585705,78.126199,SO2,NA,NA,NA
India,Telangana,Hyderabad,"Nacharam_TSIIC IALA, Hyderabad - TSPCB",05-07-2024 18:00:00,17.429398,78.569354,NO2,12,16,13
India,Telangana,Hyderabad,"Nacharam_TSIIC IALA, Hyderabad - TSPCB",05-07-2024 18:00:00,17.429398,78.569354,SO2,15,22,20
India,Telangana,Hyderabad,"Nacharam_TSIIC IALA, Hyderabad - TSPCB",05-07-2024 18:00:00,17.429398,78.569354,OZONE,16,67,46
India,Telangana,Hyderabad,"New Malakpet, Hyderabad - TSPCB",05-07-2024 18:00:00,17.37206,78.50864,NH3,NA,NA,NA
India,Telangana,Hyderabad,"Ramachandrapuram, Hyderabad - TSPCB",05-07-2024 18:00:00,17.528544,78.286195,SO2,9,12,11
India,Telangana,Hyderabad,"Sanathnagar, Hyderabad - TSPCB",05-07-2024 18:00:00,17.4559458,78.4332152,PM2.5,14,35,24
India,Telangana,Hyderabad,"Sanathnagar, Hyderabad - TSPCB",05-07-2024 18:00:00,17.4559458,78.4332152,OZONE,14,18,17
India,Telangana,Hyderabad,"Somajiguda, Hyderabad - TSPCB",05-07-2024 18:00:00,17.417094,78.457437,SO2,12,29,23
India,Tripura,Agartala,"Bardowali, Agartala - Tripura SPCB",05-07-2024 18:00:00,23.8175497,91.2726974,NO2,NA,NA,NA
India,Uttar_Pradesh,Agra,"Rohta, Agra - UPPCB",05-07-2024 18:00:00,27.106972,78.000111,PM2.5,4,21,10
India,Uttar_Pradesh,Agra,"Shahjahan Garden, Agra - UPPCB",05-07-2024 18:00:00,27.169338,78.03582,PM2.5,10,26,18
India,Uttar_Pradesh,Agra,"Shastripuram, Agra - UPPCB",05-07-2024 18:00:00,27.19862,77.92066,CO,10,13,12
India,Uttar_Pradesh,Agra,"Shastripuram, Agra - UPPCB",05-07-2024 18:00:00,27.19862,77.92066,OZONE,1,8,5
India,Uttar_Pradesh,Baghpat,"Sardar Patel Inter College, Baghpat - UPPCB",05-07-2024 18:00:00,28.964949,77.278761,PM2.5,3,18,10
India,Uttar_Pradesh,Baghpat,"Sardar Patel Inter College, Baghpat - UPPCB",05-07-2024 18:00:00,28.964949,77.278761,NO2,10,21,14
India,Uttar_Pradesh,Baghpat,"Sardar Patel Inter College, Baghpat - UPPCB",05-07-2024 18:00:00,28.964949,77.278761,SO2,7,31,19
India,Uttar_Pradesh,Bareilly,"Civil Lines, Bareilly - UPPCB",05-07-2024 18:00:00,28.359581,79.414455,OZONE,2,14,5
India,Uttar_Pradesh,Firozabad,"Vibhab Nagar, Firozabad - UPPCB",05-07-2024 18:00:00,27.1594,78.3953,PM2.5,NA,NA,NA
India,Uttar_Pradesh,Ghaziabad,"Indirapuram, Ghaziabad - UPPCB",05-07-2024 18:00:00,28.646233,77.358075,PM10,32,95,63
India,Uttar_Pradesh,Ghaziabad,"Indirapuram, Ghaziabad - UPPCB",05-07-2024 18:00:00,28.646233,77.358075,NO2,37,66,45
India,Uttar_Pradesh,Ghaziabad,"Indirapuram, Ghaziabad - UPPCB",05-07-2024 18:00:00,28.646233,77.358075,OZONE,1,43,26
India,Uttar_Pradesh,Ghaziabad,"Loni, Ghaziabad - UPPCB",05-07-2024 18:00:00,28.757294,77.278792,OZONE,20,58,29
India,Uttar_Pradesh,Ghaziabad,"Sanjay Nagar, Ghaziabad - UPPCB",05-07-2024 18:00:00,28.685382,77.453839,SO2,9,19,13
India,Uttar_Pradesh,Ghaziabad,"Vasundhara, Ghaziabad - UPPCB",05-07-2024 18:00:00,28.6603346,77.3572563,SO2,1,10,6
India,Uttar_Pradesh,Ghaziabad,"Vasundhara, Ghaziabad - UPPCB",05-07-2024 18:00:00,28.6603346,77.3572563,OZONE,1,127,21
India,Uttar_Pradesh,Greater Noida,"Knowledge Park - V, Greater Noida - UPPCB",05-07-2024 18:00:00,28.557054,77.453663,OZONE,2,54,29
India,Uttar_Pradesh,Hapur,"Anand Vihar, Hapur - UPPCB",05-07-2024 18:00:00,28.725645,77.749675,OZONE,14,21,18
India,Uttar_Pradesh,Jhansi,"Shivaji Nagar, Jhansi - UPPCB",05-07-2024 18:00:00,25.4547,78.6039,NH3,6,6,6
India,Uttar_Pradesh,Kanpur,"FTI Kidwai Nagar, Kanpur - UPPCB",05-07-2024 18:00:00,26.428282,80.327067,NO2,21,22,22
India,Uttar_Pradesh,Kanpur,"NSI Kalyanpur, Kanpur - UPPCB",05-07-2024 18:00:00,26.509954,80.249612,NO2,21,21,21
India,Uttar_Pradesh,Kanpur,"NSI Kalyanpur, Kanpur - UPPCB",05-07-2024 18:00:00,26.509954,80.249612,CO,32,44,39
India,Uttar_Pradesh,Kanpur,"NSI Kalyanpur, Kanpur - UPPCB",05-07-2024 18:00:00,26.509954,80.249612,OZONE,12,54,39
India,Uttar_Pradesh,Kanpur,"Nehru Nagar, Kanpur - UPPCB",05-07-2024 18:00:00,26.4703136,80.3229863,PM2.5,3,62,35
India,Uttar_Pradesh,Khurja,"Kalindi Kunj, Khurja - UPPCB",05-07-2024 18:00:00,28.2348927,77.8683002,SO2,34,125,77
India,Uttar_Pradesh,Lucknow,"B R Ambedkar University, Lucknow - UPPCB",05-07-2024 18:00:00,26.766433,80.927299,NH3,2,3,3
India,Uttar_Pradesh,Lucknow,"Kendriya Vidyalaya, Lucknow - CPCB",05-07-2024 18:00:00,26.906111,80.948222,PM10,25,46,36
India,Uttar_Pradesh,Lucknow,"Kendriya Vidyalaya, Lucknow - CPCB",05-07-2024 18:00:00,26.906111,80.948222,CO,2,69,27
India,Uttar_Pradesh,Lucknow,"Kukrail Picnic Spot-1, Lucknow - UPPCB",05-07-2024 18:00:00,26.90723,80.98579,SO2,34,37,35
India,Uttar_Pradesh,Lucknow,"Kukrail Picnic Spot-1, Lucknow - UPPCB",05-07-2024 18:00:00,26.90723,80.98579,OZONE,3,21,10
India,Uttar_Pradesh,Lucknow,"Lalbagh, Lucknow - CPCB",05-07-2024 18:00:00,26.8458805,80.9365541,NO2,1,13,2
India,Uttar_Pradesh,Lucknow,"Lalbagh, Lucknow - CPCB",05-07-2024 18:00:00,26.8458805,80.9365541,CO,5,105,67
India,Uttar_Pradesh,Meerut,"Ganga Nagar, Meerut - UPPCB",05-07-2024 18:00:00,28.999264,77.7590354,PM2.5,2,20,11
India,Uttar_Pradesh,Meerut,"Ganga Nagar, Meerut - UPPCB",05-07-2024 18:00:00,28.999264,77.7590354,SO2,9,22,14
India,Uttar_Pradesh,Meerut,"Ganga Nagar, Meerut - UPPCB",05-07-2024 18:00:00,28.999264,77.7590354,CO,29,68,32
India,Uttar_Pradesh,Meerut,"Pallavpuram Phase 2, Meerut - UPPCB",05-07-2024 18:00:00,29.063510,77.709723,NH3,6,9,8
India,Uttar_Pradesh,Moradabad,"Eco Herbal Park, Moradabad - UPPCB",05-07-2024 18:00:00,28.840739,78.697531,PM10,1,21,9
India,Uttar_Pradesh,Moradabad,"Eco Herbal Park, Moradabad - UPPCB",05-07-2024 18:00:00,28.840739,78.697531,CO,14,46,18
India,Uttar_Pradesh,Moradabad,"Employment Office, Moradabad - UPPCB",05-07-2024 18:00:00,28.88528,78.73880,SO2,19,20,19
India,Uttar_Pradesh,Moradabad,"Employment Office, Moradabad - UPPCB",05-07-2024 18:00:00,28.88528,78.73880,OZONE,15,28,18
India,Uttar_Pradesh,Moradabad,"Kashiram Nagar, Moradabad - UPPCB",05-07-2024 18:00:00,28.849399,78.742362,PM2.5,10,51,28
India,Uttar_Pradesh,Moradabad,"Kashiram Nagar, Moradabad - UPPCB",05-07-2024 18:00:00,28.849399,78.742362,NO2,12,16,15
India,Uttar_Pradesh,Moradabad,"Kashiram Nagar, Moradabad - UPPCB",05-07-2024 18:00:00,28.849399,78.742362,NH3,4,5,5
India,Uttar_Pradesh,Moradabad,"Kashiram Nagar, Moradabad - UPPCB",05-07-2024 18:00:00,28.849399,78.742362,OZONE,14,309,27
India,Uttar_Pradesh,Moradabad,"Transport Nagar, Moradabad - UPPCB",05-07-2024 18:00:00,28.802625,78.753728,PM2.5,9,63,22
India,Uttar_Pradesh,Moradabad,"Transport Nagar, Moradabad - UPPCB",05-07-2024 18:00:00,28.802625,78.753728,SO2,19,25,22
India,Uttar_Pradesh,Muzaffarnagar,"New Mandi, Muzaffarnagar - UPPCB",05-07-2024 18:00:00,29.4723508,77.7194031,PM2.5,15,157,54
India,Uttar_Pradesh,Muzaffarnagar,"New Mandi, Muzaffarnagar - UPPCB",05-07-2024 18:00:00,29.4723508,77.7194031,NH3,9,12,10
India,Uttar_Pradesh,Noida,"Sector - 125, Noida - UPPCB",05-07-2024 18:00:00,28.5447608,77.3231257,PM10,8,28,19
India,Uttar_Pradesh,Noida,"Sector - 125, Noida - UPPCB",05-07-2024 18:00:00,28.5447608,77.3231257,NO2,7,31,17
India,Uttar_Pradesh,Noida,"Sector - 125, Noida - UPPCB",05-07-2024 18:00:00,28.5447608,77.3231257,NH3,5,8,7
India,Uttar_Pradesh,Noida,"Sector - 125, Noida - UPPCB",05-07-2024 18:00:00,28.5447608,77.3231257,SO2,14,22,18
India,Uttar_Pradesh,Noida,"Sector - 125, Noida - UPPCB",05-07-2024 18:00:00,28.5447608,77.3231257,CO,28,43,38
India,Uttar_Pradesh,Noida,"Sector - 62, Noida - IMD",05-07-2024 18:00:00,28.6245479,77.3577104,PM10,24,87,57
India,Uttar_Pradesh,Noida,"Sector - 62, Noida - IMD",05-07-2024 18:00:00,28.6245479,77.3577104,CO,54,66,59
India,Uttar_Pradesh,Noida,"Sector - 62, Noida - IMD",05-07-2024 18:00:00,28.6245479,77.3577104,OZONE,35,70,47
India,Uttar_Pradesh,Noida,"Sector-116, Noida - UPPCB",05-07-2024 18:00:00,28.569230,77.393848,NO2,14,49,21
India,Uttar_Pradesh,Noida,"Sector-116, Noida - UPPCB",05-07-2024 18:00:00,28.569230,77.393848,NH3,8,13,10
India,Uttar_Pradesh,Prayagraj,"Jhunsi, Prayagraj - UPPCB",05-07-2024 18:00:00,25.425602,81.917152,SO2,30,31,31
India,Uttar_Pradesh,Prayagraj,"Jhunsi, Prayagraj - UPPCB",05-07-2024 18:00:00,25.425602,81.917152,OZONE,1,16,7
India,Uttar_Pradesh,Prayagraj,"Motilal Nehru NIT, Prayagraj - UPPCB",05-07-2024 18:00:00,25.494,81.863,PM2.5,2,13,8
India,Uttar_Pradesh,Prayagraj,"Motilal Nehru NIT, Prayagraj - UPPCB",05-07-2024 18:00:00,25.494,81.863,NH3,7,7,7
India,Uttar_Pradesh,Prayagraj,"Motilal Nehru NIT, Prayagraj - UPPCB",05-07-2024 18:00:00,25.494,81.863,SO2,19,36,26
India,Uttar_Pradesh,Varanasi,"IESD Banaras Hindu University, Varanasi - UPPCB",05-07-2024 18:00:00,25.262326,82.995408,NH3,1,9,3
India,Uttar_Pradesh,Varanasi,"Maldahiya, Varanasi - UPPCB",05-07-2024 18:00:00,25.32393,82.99687,NO2,1,2,2
India,Uttar_Pradesh,Vrindavan,"Omex Eternity, Vrindavan - UPPCB",05-07-2024 18:00:00,27.5714090,77.6557570,NO2,12,12,12
India,Uttar_Pradesh,Vrindavan,"Omex Eternity, Vrindavan - UPPCB",05-07-2024 18:00:00,27.5714090,77.6557570,CO,24,31,26
India,Uttarakhand,Rishikesh,"Shivaji Nagar, Rishikesh - UKPCB",05-07-2024 18:00:00,30.075911,78.2859547,NH3,2,5,3
India,West_Bengal,Asansol,"Asansol Court Area, Asansol - WBPCB",05-07-2024 18:00:00,23.685297,86.945968,OZONE,11,45,36
India,West_Bengal,Asansol,"Evelyn Lodge, Asansol - WBPCB",05-07-2024 18:00:00,23.6979360,86.9443950,NO2,16,43,25
India,West_Bengal,Asansol,"Mahabir Colliery, Asansol - WBPCB",05-07-2024 18:00:00,23.6181830,87.1057180,SO2,46,49,47
India,West_Bengal,Asansol,"Mahabir Colliery, Asansol - WBPCB",05-07-2024 18:00:00,23.6181830,87.1057180,OZONE,8,41,26
India,West_Bengal,Barrackpore,"SVSPA Campus, Barrackpore - WBPCB",05-07-2024 18:00:00,22.7605581,88.3617589,PM10,47,91,59
India,West_Bengal,Barrackpore,"SVSPA Campus, Barrackpore - WBPCB",05-07-2024 18:00:00,22.7605581,88.3617589,NH3,2,3,2
India,West_Bengal,Durgapur,"PCBL Residential Complex, Durgapur - WBPCB",05-07-2024 18:00:00,23.5087640,87.3544400,NH3,1,1,1
India,West_Bengal,Durgapur,"PCBL Residential Complex, Durgapur - WBPCB",05-07-2024 18:00:00,23.5087640,87.3544400,CO,34,62,37
India,West_Bengal,Durgapur,"PCBL Residential Complex, Durgapur - WBPCB",05-07-2024 18:00:00,23.5087640,87.3544400,OZONE,7,39,27
India,West_Bengal,Haldia,"Priyambada Housing Estate, Haldia - WBPCB",05-07-2024 18:00:00,22.06047,88.109737,NH3,8,12,10
India,West_Bengal,Howrah,"Belur Math, Howrah - WBPCB",05-07-2024 18:00:00,22.629801,88.352017,NO2,35,43,40
India,West_Bengal,Howrah,"Belur Math, Howrah - WBPCB",05-07-2024 18:00:00,22.629801,88.352017,NH3,5,6,5
India,West_Bengal,Howrah,"Botanical Garden, Howrah - WBPCB",05-07-2024 18:00:00,22.554954,88.292568,PM2.5,46,92,66
India,West_Bengal,Howrah,"Botanical Garden, Howrah - WBPCB",05-07-2024 18:00:00,22.554954,88.292568,NH3,NA,NA,NA
India,West_Bengal,Howrah,"Botanical Garden, Howrah - WBPCB",05-07-2024 18:00:00,22.554954,88.292568,SO2,4,7,6
India,West_Bengal,Howrah,"Botanical Garden, Howrah - WBPCB",05-07-2024 18:00:00,22.554954,88.292568,CO,14,30,17
India,West_Bengal,Howrah,"Botanical Garden, Howrah - WBPCB",05-07-2024 18:00:00,22.554954,88.292568,OZONE,12,48,43
India,West_Bengal,Howrah,"Ghusuri, Howrah - WBPCB",05-07-2024 18:00:00,22.611968,88.347422,CO,20,34,23
India,West_Bengal,Howrah,"Padmapukur, Howrah - WBPCB",05-07-2024 18:00:00,22.5687319,88.2797276,PM10,55,126,73
India,West_Bengal,Howrah,"Padmapukur, Howrah - WBPCB",05-07-2024 18:00:00,22.5687319,88.2797276,SO2,4,6,5
India,West_Bengal,Kolkata,"Ballygunge, Kolkata - WBPCB",05-07-2024 18:00:00,22.5367507,88.3638022,NH3,8,9,9
India,West_Bengal,Kolkata,"Bidhannagar, Kolkata - WBPCB",05-07-2024 18:00:00,22.58157048,88.41002457,PM10,40,66,50
India,West_Bengal,Kolkata,"Fort William, Kolkata - WBPCB",05-07-2024 18:00:00,22.556640,88.342674,PM2.5,17,71,36
India,West_Bengal,Kolkata,"Fort William, Kolkata - WBPCB",05-07-2024 18:00:00,22.556640,88.342674,NH3,5,10,7
India,West_Bengal,Kolkata,"Rabindra Bharati University, Kolkata - WBPCB",05-07-2024 18:00:00,22.627847,88.380669,CO,24,35,27
India,West_Bengal,Kolkata,"Rabindra Sarobar, Kolkata - WBPCB",05-07-2024 18:00:00,22.51106,88.35142,PM10,32,66,40
India,West_Bengal,Kolkata,"Victoria, Kolkata - WBPCB",05-07-2024 18:00:00,22.5448082,88.3403691,PM2.5,29,51,41
India,West_Bengal,Kolkata,"Victoria, Kolkata - WBPCB",05-07-2024 18:00:00,22.5448082,88.3403691,SO2,5,8,6
India,West_Bengal,Siliguri,"Ward-32 Bapupara, Siliguri - WBPCB",05-07-2024 18:00:00,26.6879226,88.4152495,OZONE,14,16,16
India,Andhra_Pradesh,Amaravati,"Secretariat, Amaravati - APPCB",05-07-2024 18:00:00,16.5150833,80.5181667,PM10,NA,NA,NA
India,Andhra_Pradesh,Amaravati,"Secretariat, Amaravati - APPCB",05-07-2024 18:00:00,16.5150833,80.5181667,NO2,NA,NA,NA
India,Andhra_Pradesh,Anantapur,"Gulzarpet, Anantapur - APPCB",05-07-2024 18:00:00,14.675886,77.593027,NO2,10,11,10
India,Andhra_Pradesh,Anantapur,"Gulzarpet, Anantapur - APPCB",05-07-2024 18:00:00,14.675886,77.593027,CO,15,35,31
India,Andhra_Pradesh,Chittoor,"Gangineni Cheruvu, Chittoor - APPCB",05-07-2024 18:00:00,13.204880,79.097889,NH3,3,4,3
India,Andhra_Pradesh,Chittoor,"Gangineni Cheruvu, Chittoor - APPCB",05-07-2024 18:00:00,13.204880,79.097889,CO,24,36,30
India,Andhra_Pradesh,Rajamahendravaram,"Anand Kala Kshetram, Rajamahendravaram - APPCB",05-07-2024 18:00:00,16.9872867,81.7363176,NO2,5,38,13
India,Andhra_Pradesh,Rajamahendravaram,"Anand Kala Kshetram, Rajamahendravaram - APPCB",05-07-2024 18:00:00,16.9872867,81.7363176,SO2,10,12,11
India,Andhra_Pradesh,Tirupati,"Tirumala, Tirupati - APPCB",05-07-2024 18:00:00,13.67,79.35,PM10,NA,NA,NA
India,Andhra_Pradesh,Tirupati,"Vaikuntapuram, Tirupati - APPCB",05-07-2024 18:00:00,13.615387,79.409230,CO,22,34,25
India,Andhra_Pradesh,Vijayawada,"Kanuru, Vijayawada - APPCB",05-07-2024 18:00:00,16.486692,80.699436,OZONE,40,40,40
India,Andhra_Pradesh,Vijayawada,"Rajiv Gandhi Park, Vijayawada - APPCB",05-07-2024 18:00:00,16.509717,80.612222,OZONE,34,36,36
India,Andhra_Pradesh,Visakhapatnam,"GVM Corporation, Visakhapatnam - APPCB",05-07-2024 18:00:00,17.72,83.3,PM2.5,41,90,64
India,Andhra_Pradesh,Visakhapatnam,"GVM Corporation, Visakhapatnam - APPCB",05-07-2024 18:00:00,17.72,83.3,NH3,3,5,3
India,Arunachal_Pradesh,Naharlagun,"Naharlagun, Naharlagun - APSPCB",05-07-2024 18:00:00,27.103358,93.679645,SO2,4,5,4
India,Arunachal_Pradesh,Naharlagun,"Naharlagun, Naharlagun - APSPCB",05-07-2024 18:00:00,27.103358,93.679645,OZONE,3,3,3
India,Assam,Byrnihat,"Central Academy for SFS, Byrnihat - PCBA",05-07-2024 18:00:00,26.071318,91.87488,SO2,6,42,22
India,Assam,Guwahati,"IITG, Guwahati - PCBA",05-07-2024 18:00:00,26.2028636,91.70046436,NO2,NA,NA,NA
India,Assam,Guwahati,"IITG, Guwahati - PCBA",05-07-2024 18:00:00,26.2028636,91.70046436,CO,6,11,6
India,Assam,Guwahati,"IITG, Guwahati - PCBA",05-07-2024 18:00:00,26.2028636,91.70046436,OZONE,1,12,8
India,Assam,Guwahati,"LGBI Airport, Guwahati - PCBA",05-07-2024 18:00:00,26.10887,91.589544,PM10,12,82,23
India,Assam,Guwahati,"LGBI Airport, Guwahati - PCBA",05-07-2024 18:00:00,26.10887,91.589544,NO2,3,22,9
India,Assam,Guwahati,"LGBI Airport, Guwahati - PCBA",05-07-2024 18:00:00,26.10887,91.589544,OZONE,20,28,26
India,Assam,Guwahati,"Pan Bazaar, Guwahati - PCBA",05-07-2024 18:00:00,26.187500,91.744194,SO2,41,56,46
India,Assam,Guwahati,"Pan Bazaar, Guwahati - PCBA",05-07-2024 18:00:00,26.187500,91.744194,CO,16,36,18
India,Assam,Guwahati,"Railway Colony, Guwahati - PCBA",05-07-2024 18:00:00,26.181742,91.78063,PM2.5,1,52,14
India,Assam,Nagaon,"Christianpatty, Nagaon - PCBA",05-07-2024 18:00:00,26.349082,92.68449,NH3,1,2,1
India,Assam,Nagaon,"Christianpatty, Nagaon - PCBA",05-07-2024 18:00:00,26.349082,92.68449,CO,40,64,53
India,Assam,Nalbari,"Bata Chowk, Nalbari - PCBA",05-07-2024 18:00:00,26.446912,91.439057,NO2,9,24,15
India,Assam,Silchar,"Tarapur, Silchar - PCBA",05-07-2024 18:00:00,24.82827,92.79525,CO,17,35,30
India,Assam,Sivasagar,"Girls College, Sivasagar - PCBA",05-07-2024 18:00:00,26.987634,94.636574,PM2.5,33,36,33
India,Assam,Sivasagar,"Girls College, Sivasagar - PCBA",05-07-2024 18:00:00,26.987634,94.636574,NH3,1,1,1
India,Bihar,Arrah,"New DM Office, Arrah - BSPCB",05-07-2024 18:00:00,25.5626095,84.663264,NO2,NA,NA,NA
India,Bihar,Arrah,"New DM Office, Arrah - BSPCB",05-07-2024 18:00:00,25.5626095,84.663264,OZONE,9,52,25
India,Bihar,Bhagalpur,"DM Office_Kachari Chowk, Bhagalpur - BSPCB",05-07-2024 18:00:00,25.251013,86.989001,PM2.5,3,432,196
India,Bihar,Bihar Sharif,"D M Colony, Bihar Sharif - BSPCB",05-07-2024 18:00:00,25.204762,85.514960,PM2.5,NA,NA,NA
India,Bihar,Bihar Sharif,"D M Colony, Bihar Sharif - BSPCB",05-07-2024 18:00:00,25.204762,85.514960,NH3,1,1,1
India,Bihar,Bihar Sharif,"D M Colony, Bihar Sharif - BSPCB",05-07-2024 18:00:00,25.204762,85.514960,CO,26,31,27
India,Bihar,Buxar,"Charitra Van, Buxar - BSPCB (Formerly known as Central Jail)",05-07-2024 18:00:00,25.567520,83.966379,PM10,6,268,123
India,Bihar,Buxar,"Charitra Van, Buxar - BSPCB (Formerly known as Central Jail)",05-07-2024 18:00:00,25.567520,83.966379,CO,36,54,46
India,Bihar,Chhapra,"Darshan Nagar, Chhapra - BSPCB",05-07-2024 18:00:00,25.7808257,84.7446768,SO2,7,84,51
India,Bihar,Chhapra,"Darshan Nagar, Chhapra - BSPCB",05-07-2024 18:00:00,25.7808257,84.7446768,CO,14,66,34
India,Bihar,Gaya,"Collectorate, Gaya - BSPCB",05-07-2024 18:00:00,24.7955,84.9994,OZONE,63,65,64
India,Bihar,Gaya,"SFTI Kusdihra, Gaya - BSPCB",05-07-2024 18:00:00,24.762518,84.982348,PM10,27,49,36
India,Bihar,Gaya,"SFTI Kusdihra, Gaya - BSPCB",05-07-2024 18:00:00,24.762518,84.982348,SO2,5,10,8
India,Bihar,Hajipur,"Industrial Area, Hajipur - BSPCB",05-07-2024 18:00:00,25.697189,85.245900,NH3,12,15,13
India,Bihar,Hajipur,"Industrial Area, Hajipur - BSPCB",05-07-2024 18:00:00,25.697189,85.245900,OZONE,21,43,29
India,Bihar,Katihar,"Mirchaibari, Katihar - BSPCB",05-07-2024 18:00:00,25.560083,87.553265,SO2,6,16,12
India,Bihar,Katihar,"Mirchaibari, Katihar - BSPCB",05-07-2024 18:00:00,25.560083,87.553265,CO,16,44,30
India,Bihar,Kishanganj,"SDM Office_Khagra, Kishanganj - BSPCB",05-07-2024 18:00:00,26.0881305,87.93840336,SO2,2,17,7
India,Bihar,Kishanganj,"SDM Office_Khagra, Kishanganj - BSPCB",05-07-2024 18:00:00,26.0881305,87.93840336,CO,4,7,6
India,Bihar,Motihari,"Gandak Colony, Motihari - BSPCB",05-07-2024 18:00:00,26.63086,84.90051,PM2.5,5,42,15
India,Bihar,Motihari,"Gandak Colony, Motihari - BSPCB",05-07-2024 18:00:00,26.63086,84.90051,NO2,6,14,9
India,Bihar,Munger,"Town Hall, Munger - BSPCB",05-07-2024 18:00:00,25.376776,86.471523,PM10,NA,NA,NA
India,Bihar,Muzaffarpur,"Muzaffarpur Collectorate, Muzaffarpur - BSPCB",05-07-2024 18:00:00,26.1209,85.3647,PM2.5,12,60,31
India,Bihar,Patna,"DRM Office Danapur, Patna - BSPCB",05-07-2024 18:00:00,25.586562,85.043586,SO2,1,5,2
India,Bihar,Patna,"Govt. High School Shikarpur, Patna - BSPCB",05-07-2024 18:00:00,25.592539,85.227158,PM2.5,40,78,58
India,Bihar,Patna,"Govt. High School Shikarpur, Patna - BSPCB",05-07-2024 18:00:00,25.592539,85.227158,PM10,69,108,87
India,Bihar,Patna,"Govt. High School Shikarpur, Patna - BSPCB",05-07-2024 18:00:00,25.592539,85.227158,NO2,32,35,34
India,Bihar,Patna,"Govt. High School Shikarpur, Patna - BSPCB",05-07-2024 18:00:00,25.592539,85.227158,CO,32,56,39
India,Bihar,Patna,"IGSC Planetarium Complex, Patna - BSPCB",05-07-2024 18:00:00,25.610369,85.132568,OZONE,44,57,51
India,Bihar,Patna,"Rajbansi Nagar, Patna - BSPCB",05-07-2024 18:00:00,25.599486,85.113666,OZONE,10,35,18
India,Bihar,Purnia,"Mariam Nagar, Purnia - BSPCB",05-07-2024 18:00:00,25.366336,87.117468,PM2.5,NA,NA,NA
India,Bihar,Purnia,"Mariam Nagar, Purnia - BSPCB",05-07-2024 18:00:00,25.366336,87.117468,OZONE,2,14,6
India,Bihar,Rajgir,"Dangi Tola, Rajgir - BSPCB",05-07-2024 18:00:00,25.03280,85.41948,PM10,NA,NA,NA
India,Bihar,Rajgir,"Dangi Tola, Rajgir - BSPCB",05-07-2024 18:00:00,25.03280,85.41948,SO2,4,4,4
India,Bihar,Rajgir,"Dangi Tola, Rajgir - BSPCB",05-07-2024 18:00:00,25.03280,85.41948,CO,38,38,38
India,Bihar,Rajgir,"Dangi Tola, Rajgir - BSPCB",05-07-2024 18:00:00,25.03280,85.41948,OZONE,29,47,37
India,Bihar,Saharsa,"Police Line, Saharsa - BSPCB",05-07-2024 18:00:00,25.892357,86.590325,NO2,5,8,7
India,Bihar,Saharsa,"Police Line, Saharsa - BSPCB",05-07-2024 18:00:00,25.892357,86.590325,SO2,16,17,17
India,Bihar,Saharsa,"Police Line, Saharsa - BSPCB",05-07-2024 18:00:00,25.892357,86.590325,CO,54,56,56
India,Bihar,Samastipur,"DM Office_Kasipur, Samastipur - BSPCB",05-07-2024 18:00:00,25.859655,85.77944,NO2,NA,NA,NA
India,Bihar,Samastipur,"DM Office_Kasipur, Samastipur - BSPCB",05-07-2024 18:00:00,25.859655,85.77944,OZONE,2,4,3
India,Bihar,Siwan,"Chitragupta Nagar, Siwan - BSPCB",05-07-2024 18:00:00,26.2271665,84.3570427,PM10,NA,NA,NA
India,Chandigarh,Chandigarh,"Sector 22, Chandigarh - CPCC",05-07-2024 18:00:00,30.735567,76.775714,PM2.5,20,90,54
India,Chandigarh,Chandigarh,"Sector 22, Chandigarh - CPCC",05-07-2024 18:00:00,30.735567,76.775714,PM10,41,415,119
India,Chandigarh,Chandigarh,"Sector 22, Chandigarh - CPCC",05-07-2024 18:00:00,30.735567,76.775714,CO,34,51,37
India,Chandigarh,Chandigarh,"Sector 22, Chandigarh - CPCC",05-07-2024 18:00:00,30.735567,76.775714,OZONE,3,87,34
India,Chandigarh,Chandigarh,"Sector-25, Chandigarh - CPCC",05-07-2024 18:00:00,30.751462,76.762879,PM2.5,63,96,81
India,Chandigarh,Chandigarh,"Sector-25, Chandigarh - CPCC",05-07-2024 18:00:00,30.751462,76.762879,PM10,67,106,86
India,Chandigarh,Chandigarh,"Sector-25, Chandigarh - CPCC",05-07-2024 18:00:00,30.751462,76.762879,NH3,21,51,38
India,Chandigarh,Chandigarh,"Sector-25, Chandigarh - CPCC",05-07-2024 18:00:00,30.751462,76.762879,OZONE,7,24,19
India,Chandigarh,Chandigarh,"Sector-53, Chandigarh - CPCC",05-07-2024 18:00:00,30.719859,76.738637,NH3,2,20,7
India,Chandigarh,Chandigarh,"Sector-53, Chandigarh - CPCC",05-07-2024 18:00:00,30.719859,76.738637,OZONE,2,44,34
India,Chhattisgarh,Bhilai,"32Bungalows, Bhilai - CECB",05-07-2024 18:00:00,21.194815,81.314770,PM2.5,13,71,25
India,Chhattisgarh,Bhilai,"Civic Center, Bhilai - Bhilai Steel Plant",05-07-2024 18:00:00,21.185571,81.343175,OZONE,13,28,24
India,Chhattisgarh,Bhilai,"Hathkhoj, Bhilai - CECB",05-07-2024 18:00:00,21.224231,81.408350,NO2,7,40,17
India,Chhattisgarh,Bhilai,"Hathkhoj, Bhilai - CECB",05-07-2024 18:00:00,21.224231,81.408350,OZONE,17,39,35
India,Chhattisgarh,Bilaspur,"Mangala, Bilaspur - NTPC",05-07-2024 18:00:00,22.08815,82.13737,CO,37,48,42
India,Chhattisgarh,Korba,"Rampur, Korba - CECB",05-07-2024 18:00:00,22.368195,82.746431,PM2.5,NA,NA,NA
India,Chhattisgarh,Korba,"Urja Nagar, Korba - CECB",05-07-2024 18:00:00,22.348441,82.549611,CO,6,52,21
India,Chhattisgarh,Kunjemura,"OP Jindal School, Kunjemura - CECB",05-07-2024 18:00:00,22.126650,83.483212,SO2,2,5,4
India,Chhattisgarh,Raipur,"Bhatagaon New ISBT, Raipur - CECB",05-07-2024 18:00:00,21.219665,81.630094,PM10,16,68,38
India,Chhattisgarh,Raipur,"Bhatagaon New ISBT, Raipur - CECB",05-07-2024 18:00:00,21.219665,81.630094,NO2,4,4,4
India,Chhattisgarh,Raipur,"Bhatagaon New ISBT, Raipur - CECB",05-07-2024 18:00:00,21.219665,81.630094,NH3,NA,NA,NA
India,Chhattisgarh,Raipur,"Bhatagaon New ISBT, Raipur - CECB",05-07-2024 18:00:00,21.219665,81.630094,CO,14,24,18
India,Chhattisgarh,Raipur,"Krishak Nagar, Raipur - CECB",05-07-2024 18:00:00,21.237755,81.705301,NO2,5,5,5
India,Chhattisgarh,Raipur,"Siltara Phase-II, Raipur - CECB",05-07-2024 18:00:00,21.371751,81.664929,PM10,62,119,94
India,Chhattisgarh,Raipur,"Siltara Phase-II, Raipur - CECB",05-07-2024 18:00:00,21.371751,81.664929,NH3,3,3,3
India,Chhattisgarh,Tumidih,"OP Jindal Industrial Park, Tumidih - CECB",05-07-2024 18:00:00,22.06631475,83.33820077,PM2.5,11,46,27
India,Chhattisgarh,Tumidih,"OP Jindal Industrial Park, Tumidih - CECB",05-07-2024 18:00:00,22.06631475,83.33820077,SO2,5,6,6
India,Delhi,Delhi,"Anand Vihar, Delhi - DPCC",05-07-2024 18:00:00,28.647622,77.3158090,NH3,NA,NA,NA
India,Delhi,Delhi,"Aya Nagar, Delhi - IMD",05-07-2024 18:00:00,28.4706914,77.1099364,PM10,6,97,55
India,Delhi,Delhi,"Aya Nagar, Delhi - IMD",05-07-2024 18:00:00,28.4706914,77.1099364,NO2,10,49,20
India,Delhi,Delhi,"Bawana, Delhi - DPCC",05-07-2024 18:00:00,28.776200,77.051074,NH3,8,26,12
India,Delhi,Delhi,"Burari Crossing, Delhi - IMD",05-07-2024 18:00:00,28.7256504,77.2011573,NO2,15,19,17
India,Delhi,Delhi,"Chandni Chowk, Delhi - IITM",05-07-2024 18:00:00,28.656756,77.227234,NH3,10,15,13
India,Delhi,Delhi,"Chandni Chowk, Delhi - IITM",05-07-2024 18:00:00,28.656756,77.227234,CO,39,50,46
India,Delhi,Delhi,"Chandni Chowk, Delhi - IITM",05-07-2024 18:00:00,28.656756,77.227234,OZONE,1,71,28
India,Delhi,Delhi,"DTU, Delhi - CPCB",05-07-2024 18:00:00,28.7500499,77.1112615,NH3,16,21,17
India,Delhi,Delhi,"Dwarka-Sector 8, Delhi - DPCC ",05-07-2024 18:00:00,28.5710274,77.0719006,NO2,13,49,28
India,Delhi,Delhi,"Dwarka-Sector 8, Delhi - DPCC ",05-07-2024 18:00:00,28.5710274,77.0719006,NH3,4,15,9
India,Delhi,Delhi,"Dwarka-Sector 8, Delhi - DPCC ",05-07-2024 18:00:00,28.5710274,77.0719006,CO,36,90,50
India,Delhi,Delhi,"IGI Airport (T3), Delhi - IMD",05-07-2024 18:00:00,28.5627763,77.1180053,OZONE,2,46,15
India,Delhi,Delhi,"IHBAS, Dilshad Garden, Delhi - CPCB",05-07-2024 18:00:00,28.6811736,77.3025234,NO2,16,71,41
India,Delhi,Delhi,"ITO, Delhi - CPCB",05-07-2024 18:00:00,28.628624,77.241060,SO2,12,33,22
India,Delhi,Delhi,"Jawaharlal Nehru Stadium, Delhi - DPCC",05-07-2024 18:00:00,28.580280,77.233829,NO2,26,80,46
India,Delhi,Delhi,"Jawaharlal Nehru Stadium, Delhi - DPCC",05-07-2024 18:00:00,28.580280,77.233829,OZONE,5,42,22
India,Delhi,Delhi,"Lodhi Road, Delhi - IMD",05-07-2024 18:00:00,28.5918245,77.2273074,PM2.5,25,87,51
India,Delhi,Delhi,"Mandir Marg, Delhi - DPCC",05-07-2024 18:00:00,28.636429,77.201067,PM2.5,10,72,38
India,Delhi,Delhi,"NSIT Dwarka, Delhi - CPCB",05-07-2024 18:00:00,28.60909,77.0325413,PM2.5,53,227,116
India,Delhi,Delhi,"Narela, Delhi - DPCC",05-07-2024 18:00:00,28.822836,77.101981,SO2,2,4,3
India,Delhi,Delhi,"Narela, Delhi - DPCC",05-07-2024 18:00:00,28.822836,77.101981,OZONE,90,141,94
India,Delhi,Delhi,"Nehru Nagar, Delhi - DPCC",05-07-2024 18:00:00,28.567890,77.250515,PM2.5,10,107,54
India,Delhi,Delhi,"Nehru Nagar, Delhi - DPCC",05-07-2024 18:00:00,28.567890,77.250515,PM10,25,101,67
India,Delhi,Delhi,"Nehru Nagar, Delhi - DPCC",05-07-2024 18:00:00,28.567890,77.250515,CO,57,75,63
India,Delhi,Delhi,"North Campus, DU, Delhi - IMD",05-07-2024 18:00:00,28.6573814,77.1585447,PM10,26,129,73
India,Delhi,Delhi,"Patparganj, Delhi - DPCC",05-07-2024 18:00:00,28.623763,77.287209,PM10,40,105,73
India,Delhi,Delhi,"Patparganj, Delhi - DPCC",05-07-2024 18:00:00,28.623763,77.287209,SO2,9,21,16
India,Delhi,Delhi,"Patparganj, Delhi - DPCC",05-07-2024 18:00:00,28.623763,77.287209,OZONE,7,70,21
India,Delhi,Delhi,"Punjabi Bagh, Delhi - DPCC",05-07-2024 18:00:00,28.674045,77.131023,PM2.5,28,183,82
India,Delhi,Delhi,"Punjabi Bagh, Delhi - DPCC",05-07-2024 18:00:00,28.674045,77.131023,CO,21,98,46
India,Delhi,Delhi,"Pusa, Delhi - DPCC",05-07-2024 18:00:00,28.639652,77.146275,PM2.5,20,95,50
India,Delhi,Delhi,"Pusa, Delhi - IMD",05-07-2024 18:00:00,28.636110,77.173332,PM10,24,111,72
India,Delhi,Delhi,"Pusa, Delhi - IMD",05-07-2024 18:00:00,28.636110,77.173332,NO2,10,27,15
India,Delhi,Delhi,"Pusa, Delhi - IMD",05-07-2024 18:00:00,28.636110,77.173332,CO,52,76,60
India,Delhi,Delhi,"R K Puram, Delhi - DPCC",05-07-2024 18:00:00,28.563262,77.186937,PM2.5,22,193,74
India,Delhi,Delhi,"R K Puram, Delhi - DPCC",05-07-2024 18:00:00,28.563262,77.186937,OZONE,7,58,30
India,Delhi,Delhi,"Rohini, Delhi - DPCC",05-07-2024 18:00:00,28.732528,77.119920,PM10,53,137,95
India,Delhi,Delhi,"Rohini, Delhi - DPCC",05-07-2024 18:00:00,28.732528,77.119920,SO2,NA,NA,NA
India,Delhi,Delhi,"Rohini, Delhi - DPCC",05-07-2024 18:00:00,28.732528,77.119920,CO,10,50,17
India,Delhi,Delhi,"Shadipur, Delhi - CPCB",05-07-2024 18:00:00,28.6514781,77.1473105,NH3,5,6,5
India,Delhi,Delhi,"Shadipur, Delhi - CPCB",05-07-2024 18:00:00,28.6514781,77.1473105,OZONE,6,59,15
India,Delhi,Delhi,"Sirifort, Delhi - CPCB",05-07-2024 18:00:00,28.5504249,77.2159377,OZONE,8,19,14
India,Delhi,Delhi,"Sonia Vihar, Delhi - DPCC",05-07-2024 18:00:00,28.710508,77.249485,OZONE,9,183,25
India,Delhi,Delhi,"Sri Aurobindo Marg, Delhi - DPCC",05-07-2024 18:00:00,28.531346,77.190156,NO2,18,56,35
India,Delhi,Delhi,"Sri Aurobindo Marg, Delhi - DPCC",05-07-2024 18:00:00,28.531346,77.190156,OZONE,1,33,23
India,Delhi,Delhi,"Vivek Vihar, Delhi - DPCC",05-07-2024 18:00:00,28.672342,77.315260,CO,51,69,56
India,Delhi,Delhi,"Vivek Vihar, Delhi - DPCC",05-07-2024 18:00:00,28.672342,77.315260,OZONE,4,20,13
India,Delhi,Delhi,"Wazirpur, Delhi - DPCC",05-07-2024 18:00:00,28.699793,77.165453,PM2.5,40,95,76
India,Delhi,Delhi,"Wazirpur, Delhi - DPCC",05-07-2024 18:00:00,28.699793,77.165453,NH3,5,10,8
India,Gujarat,Ahmedabad,"Maninagar, Ahmedabad - GPCB",05-07-2024 18:00:00,23.002657,72.591912,CO,1,12,8
India,Gujarat,Ahmedabad,"Maninagar, Ahmedabad - GPCB",05-07-2024 18:00:00,23.002657,72.591912,OZONE,2,29,20
India,Gujarat,Ahmedabad,"Raikhad, Ahmedabad - IITM",05-07-2024 18:00:00,23.020509,72.579261,CO,1,38,12
India,Gujarat,Ahmedabad,"Rakhial, Ahmedabad - IITM",05-07-2024 18:00:00,23.016834,72.625775,CO,22,76,55
India,Gujarat,Ahmedabad,"SVPI Airport Hansol, Ahmedabad - IITM",05-07-2024 18:00:00,23.076793,72.627874,NO2,35,137,78
India,Gujarat,Ahmedabad,"SVPI Airport Hansol, Ahmedabad - IITM",05-07-2024 18:00:00,23.076793,72.627874,OZONE,7,23,16
India,Gujarat,Ahmedabad,"Sardar Vallabhbhai Patel Stadium, Ahmedabad - IITM",05-07-2024 18:00:00,23.043070,72.562968,OZONE,10,29,18
India,Gujarat,Gandhinagar,"GIFT City, Gandhinagar - IITM",05-07-2024 18:00:00,23.163798,72.677768,PM2.5,28,73,46
India,Gujarat,Gandhinagar,"GIFT City, Gandhinagar - IITM",05-07-2024 18:00:00,23.163798,72.677768,CO,10,40,26
India,Gujarat,Gandhinagar,"Sector-10, Gandhinagar - GPCB",05-07-2024 18:00:00,23.221714,72.654328,PM2.5,24,62,44
India,Gujarat,Gandhinagar,"Sector-10, Gandhinagar - GPCB",05-07-2024 18:00:00,23.221714,72.654328,OZONE,22,23,22
India,Gujarat,Nandesari,"GIDC, Nandesari - Nandesari Ind. Association",05-07-2024 18:00:00,22.410802,73.097923,PM2.5,136,300,218
India,Gujarat,Surat,"Science Center, Surat - SMC",05-07-2024 18:00:00,21.170046,72.795405,PM2.5,NA,NA,NA
India,Gujarat,Surat,"Science Center, Surat - SMC",05-07-2024 18:00:00,21.170046,72.795405,CO,63,79,73
India,Gujarat,Vapi,"Phase-1 GIDC, Vapi - GPCB",05-07-2024 18:00:00,20.362421,72.918013,PM10,18,69,35
India,Gujarat,Vapi,"Phase-1 GIDC, Vapi - GPCB",05-07-2024 18:00:00,20.362421,72.918013,NO2,3,15,11
India,Gujarat,Vatva,"Phase-4 GIDC, Vatva - GPCB",05-07-2024 18:00:00,22.969611,72.643500,PM2.5,NA,NA,NA
India,Gujarat,Vatva,"Phase-4 GIDC, Vatva - GPCB",05-07-2024 18:00:00,22.969611,72.643500,PM10,NA,NA,NA
India,Haryana,Ambala,"Patti Mehar, Ambala - HSPCB",05-07-2024 18:00:00,30.379589,76.778328,CO,30,62,47
India,Haryana,Bahadurgarh,"Arya Nagar, Bahadurgarh - HSPCB",05-07-2024 18:00:00,28.6701,76.9254,NO2,20,25,22
India,Haryana,Bahadurgarh,"Arya Nagar, Bahadurgarh - HSPCB",05-07-2024 18:00:00,28.6701,76.9254,NH3,8,10,9
India,Haryana,Ballabgarh,"Nathu Colony, Ballabgarh - HSPCB",05-07-2024 18:00:00,28.3419248,77.319699,NO2,12,15,13
India,Haryana,Ballabgarh,"Nathu Colony, Ballabgarh - HSPCB",05-07-2024 18:00:00,28.3419248,77.319699,SO2,1,6,3
India,Haryana,Charkhi Dadri,"Mini Secretariat, Charkhi Dadri - HSPCB",05-07-2024 18:00:00,28.593883,76.270653,PM2.5,1,500,152
India,Haryana,Charkhi Dadri,"Mini Secretariat, Charkhi Dadri - HSPCB",05-07-2024 18:00:00,28.593883,76.270653,SO2,10,24,18
India,Haryana,Charkhi Dadri,"Mini Secretariat, Charkhi Dadri - HSPCB",05-07-2024 18:00:00,28.593883,76.270653,CO,30,119,105
India,Haryana,Dharuhera,"Municipal Corporation Office, Dharuhera -  HSPCB",05-07-2024 18:00:00,28.206800,76.799700,NH3,3,26,17
India,Haryana,Dharuhera,"Municipal Corporation Office, Dharuhera -  HSPCB",05-07-2024 18:00:00,28.206800,76.799700,SO2,4,15,8
India,Haryana,Faridabad,"New Industrial Town, Faridabad - HSPCB",05-07-2024 18:00:00,28.39072,77.30059,OZONE,10,22,16
India,Haryana,Faridabad,"Sector- 16A, Faridabad - HSPCB",05-07-2024 18:00:00,28.4088421,77.3099081,SO2,23,28,25
India,Haryana,Gurugram,"Teri Gram, Gurugram - HSPCB",05-07-2024 18:00:00,28.4275,77.1465,PM10,42,104,74
India,Haryana,Gurugram,"Teri Gram, Gurugram - HSPCB",05-07-2024 18:00:00,28.4275,77.1465,SO2,3,5,4
India,Haryana,Gurugram,"Vikas Sadan, Gurugram - HSPCB",05-07-2024 18:00:00,28.4501238,77.0263051,NO2,5,26,14
India,Haryana,Gurugram,"Vikas Sadan, Gurugram - HSPCB",05-07-2024 18:00:00,28.4501238,77.0263051,CO,49,128,98
India,Haryana,Hisar,"Urban Estate-II, Hisar - HSPCB",05-07-2024 18:00:00,29.140560,75.744941,PM2.5,23,66,44
India,Haryana,Hisar,"Urban Estate-II, Hisar - HSPCB",05-07-2024 18:00:00,29.140560,75.744941,PM10,21,54,45
India,Haryana,Hisar,"Urban Estate-II, Hisar - HSPCB",05-07-2024 18:00:00,29.140560,75.744941,NO2,9,12,10
India,Haryana,Hisar,"Urban Estate-II, Hisar - HSPCB",05-07-2024 18:00:00,29.140560,75.744941,CO,25,48,38
India,Haryana,Jind,"Police Lines, Jind - HSPCB",05-07-2024 18:00:00,29.307814,76.337619,PM2.5,18,42,32
India,Haryana,Jind,"Police Lines, Jind - HSPCB",05-07-2024 18:00:00,29.307814,76.337619,PM10,22,82,44
India,Haryana,Jind,"Police Lines, Jind - HSPCB",05-07-2024 18:00:00,29.307814,76.337619,SO2,1,3,1
India,Haryana,Kaithal,"Rishi Nagar, Kaithal - HSPCB",05-07-2024 18:00:00,29.8006,76.4155,NO2,24,26,25
India,Haryana,Kaithal,"Rishi Nagar, Kaithal - HSPCB",05-07-2024 18:00:00,29.8006,76.4155,NH3,8,8,8
India,Haryana,Kaithal,"Rishi Nagar, Kaithal - HSPCB",05-07-2024 18:00:00,29.8006,76.4155,OZONE,13,29,26
India,Haryana,Kurukshetra,"Sector-7, Kurukshetra - HSPCB",05-07-2024 18:00:00,29.966942,76.875879,PM2.5,23,50,37
India,Haryana,Mandikhera,"General Hospital, Mandikhera - HSPCB",05-07-2024 18:00:00,27.9002,76.9938,PM10,3,31,16
India,Haryana,Mandikhera,"General Hospital, Mandikhera - HSPCB",05-07-2024 18:00:00,27.9002,76.9938,CO,20,31,26
India,Haryana,Mandikhera,"General Hospital, Mandikhera - HSPCB",05-07-2024 18:00:00,27.9002,76.9938,OZONE,25,34,28
India,Haryana,Manesar,"Sector-2 IMT, Manesar - HSPCB",05-07-2024 18:00:00,28.360699,76.936090,PM10,45,109,81
India,Haryana,Palwal,"Shyam Nagar, Palwal - HSPCB",05-07-2024 18:00:00,28.1485564,77.3320667,NH3,NA,NA,NA
India,Haryana,Palwal,"Shyam Nagar, Palwal - HSPCB",05-07-2024 18:00:00,28.1485564,77.3320667,OZONE,6,18,8
India,Haryana,Panchkula,"Sector-6, Panchkula - HSPCB ",05-07-2024 18:00:00,30.7057778,76.8531805555555,CO,3,26,11
India,Haryana,Panipat,"Sector-18, Panipat - HSPCB",05-07-2024 18:00:00,29.432304,76.972765,OZONE,30,30,30
India,Haryana,Rohtak,"MD University, Rohtak - HSPCB",05-07-2024 18:00:00,28.52123,76.37138,PM2.5,20,305,88
India,Haryana,Sirsa,"F-Block, Sirsa - HSPCB",05-07-2024 18:00:00,29.536400,75.015800,CO,86,110,92
India,Himachal Pradesh,Baddi,"HIMUDA Complex Phase-1, Baddi - HPPCB",05-07-2024 18:00:00,30.943887,76.801991,PM2.5,20,117,49
India,Himachal Pradesh,Baddi,"HIMUDA Complex Phase-1, Baddi - HPPCB",05-07-2024 18:00:00,30.943887,76.801991,PM10,49,260,93
India,Himachal Pradesh,Baddi,"HIMUDA Complex Phase-1, Baddi - HPPCB",05-07-2024 18:00:00,30.943887,76.801991,SO2,10,61,30
India,Himachal Pradesh,Baddi,"HIMUDA Complex Phase-1, Baddi - HPPCB",05-07-2024 18:00:00,30.943887,76.801991,OZONE,3,57,41
India,Jammu_and_Kashmir,Srinagar,"Rajbagh, Srinagar - JKSPCB",05-07-2024 18:00:00,34.066206,74.819820,PM10,NA,NA,NA
India,Jammu_and_Kashmir,Srinagar,"Rajbagh, Srinagar - JKSPCB",05-07-2024 18:00:00,34.066206,74.819820,SO2,NA,NA,NA
India,Jharkhand,Dhanbad,"Kalakusuma, Dhanbad - DMC",05-07-2024 18:00:00,23.811548,86.481238,CO,130,136,131
India,Jharkhand,Dhanbad,"Sardar Patel Nagar, Dhanbad - JSPCB",05-07-2024 18:00:00,23.80569,86.44268,PM10,27,133,73
India,Jharkhand,Dhanbad,"Sardar Patel Nagar, Dhanbad - JSPCB",05-07-2024 18:00:00,23.80569,86.44268,NO2,7,14,8
India,Jharkhand,Dhanbad,"Sardar Patel Nagar, Dhanbad - JSPCB",05-07-2024 18:00:00,23.80569,86.44268,CO,1,16,3
India,Karnataka,Bagalkot,"Vidayagiri, Bagalkot - KSPCB",05-07-2024 18:00:00,16.172806,75.659694,PM2.5,27,40,39
India,Karnataka,Belgaum,"Ramteerth Nagar, Belgaum - KSPCB",05-07-2024 18:00:00,15.888653,74.541751,NH3,2,9,7
India,Karnataka,Belgaum,"Ramteerth Nagar, Belgaum - KSPCB",05-07-2024 18:00:00,15.888653,74.541751,SO2,9,10,9
India,Karnataka,Bengaluru,"Hombegowda Nagar, Bengaluru - KSPCB",05-07-2024 18:00:00,12.938539,77.590100,NO2,9,20,14
India,Karnataka,Bengaluru,"Hombegowda Nagar, Bengaluru - KSPCB",05-07-2024 18:00:00,12.938539,77.590100,NH3,1,1,1
India,Karnataka,Bengaluru,"Hombegowda Nagar, Bengaluru - KSPCB",05-07-2024 18:00:00,12.938539,77.590100,OZONE,5,25,12
India,Karnataka,Bengaluru,"Jayanagar 5th Block, Bengaluru - KSPCB",05-07-2024 18:00:00,12.920984,77.584908,NO2,8,9,8
India,Karnataka,Bengaluru,"Jigani, Bengaluru - KSPCB",05-07-2024 18:00:00,12.7816279,77.6299145,OZONE,10,35,25
India,Karnataka,Bengaluru,"Kasturi Nagar, Bengaluru - KSPCB",05-07-2024 18:00:00,13.003872,77.664217,PM2.5,27,32,30
India,Karnataka,Bengaluru,"Kasturi Nagar, Bengaluru - KSPCB",05-07-2024 18:00:00,13.003872,77.664217,NH3,3,4,4
India,Karnataka,Bengaluru,"Kasturi Nagar, Bengaluru - KSPCB",05-07-2024 18:00:00,13.003872,77.664217,CO,24,26,25
India,Karnataka,Bengaluru,"Peenya, Bengaluru - CPCB",05-07-2024 18:00:00,13.0270199,77.494094,PM2.5,26,27,27
India,Karnataka,Bengaluru,"Shivapura_Peenya, Bengaluru - KSPCB",05-07-2024 18:00:00,13.0246342,77.5080115,SO2,3,6,5
India,Karnataka,Bengaluru,"Shivapura_Peenya, Bengaluru - KSPCB",05-07-2024 18:00:00,13.0246342,77.5080115,OZONE,53,55,54
India,Karnataka,Bengaluru,"Silk Board, Bengaluru - KSPCB",05-07-2024 18:00:00,12.917348,77.622813,NH3,1,1,1
India,Karnataka,Bengaluru,"Silk Board, Bengaluru - KSPCB",05-07-2024 18:00:00,12.917348,77.622813,CO,10,43,24
India,Karnataka,Bengaluru,"Silk Board, Bengaluru - KSPCB",05-07-2024 18:00:00,12.917348,77.622813,OZONE,11,20,13
India,Karnataka,Bidar,"Naubad, Bidar - KSPCB",05-07-2024 18:00:00,17.930306,77.482194,PM10,46,78,63
India,Karnataka,Chamarajanagar,"Urban, Chamarajanagar - KSPCB",05-07-2024 18:00:00,11.55358,76.55521,PM2.5,26,50,33
India,Karnataka,Chikkaballapur,"Chikkaballapur Rural, Chikkaballapur - KSPCB",05-07-2024 18:00:00,13.428828,77.731418,NO2,5,9,6
India,Karnataka,Chikkaballapur,"Chikkaballapur Rural, Chikkaballapur - KSPCB",05-07-2024 18:00:00,13.428828,77.731418,CO,8,20,14
India,Karnataka,Chikkamagaluru,"Kalyana Nagara, Chikkamagaluru - KSPCB",05-07-2024 18:00:00,13.328028,75.797056,SO2,2,7,5
India,Karnataka,Chikkamagaluru,"Kalyana Nagara, Chikkamagaluru - KSPCB",05-07-2024 18:00:00,13.328028,75.797056,OZONE,9,40,28
India,Karnataka,Dharwad,"Kalabhavan, Dharwad - KSPCB",05-07-2024 18:00:00,15.459706,75.008381,OZONE,24,39,26
India,Karnataka,Gadag,"Panchal Nagar, Gadag - KSPCB",05-07-2024 18:00:00,15.411456,75.638133,PM2.5,2,17,9
India,Karnataka,Hassan,"B.Katihalli, Hassan - KSPCB",05-07-2024 18:00:00,13.008556,76.125258,NH3,1,3,2
India,Karnataka,Haveri,"Ashwini Nagar, Haveri - KSPCB",05-07-2024 18:00:00,14.791800,75.389600,PM10,5,38,18
India,Karnataka,Hubballi,"Lingaraj Nagar, Hubballi - KSPCB",05-07-2024 18:00:00,15.3714823,75.1160168,NO2,8,14,12
India,Karnataka,Kalaburagi,"Lal Bahadur Shastri Nagar, Kalaburagi - KSPCB",05-07-2024 18:00:00,17.321993,76.822628,CO,32,36,33
India,Karnataka,Kalaburagi,"Mahatma Basaveswar Colony, Kalaburgi - KSPCB",05-07-2024 18:00:00,17.336318,76.847397,PM2.5,7,31,16
India,Karnataka,Kalaburagi,"Mahatma Basaveswar Colony, Kalaburgi - KSPCB",05-07-2024 18:00:00,17.336318,76.847397,NO2,8,13,11
India,Karnataka,Kalaburagi,"Mahatma Basaveswar Colony, Kalaburgi - KSPCB",05-07-2024 18:00:00,17.336318,76.847397,NH3,2,3,3
India,Karnataka,Kalaburagi,"Mahatma Basaveswar Colony, Kalaburgi - KSPCB",05-07-2024 18:00:00,17.336318,76.847397,OZONE,2,9,7
India,Karnataka,Karwar,"KHB Colony, Karwar - KSPCB",05-07-2024 18:00:00,14.816666,74.141003,PM10,7,40,19
India,Karnataka,Kolar,"Tamaka Ind. Area, Kolar - KSPCB",05-07-2024 18:00:00,13.1276288,78.1570122,CO,5,6,5
India,Karnataka,Koppal,"Diwator Nagar, Koppal - KSPCB",05-07-2024 18:00:00,15.347630,76.181767,NH3,6,9,8
India,Karnataka,Koppal,"Diwator Nagar, Koppal - KSPCB",05-07-2024 18:00:00,15.347630,76.181767,SO2,30,35,30
India,Karnataka,Madikeri,"Stuart Hill, Madikeri - KSPCB",05-07-2024 18:00:00,12.415911,75.735050,NH3,NA,NA,NA
India,Karnataka,Mangalore,"Kadri, Mangalore - KSPCB",05-07-2024 18:00:00,12.889250,74.853000,NO2,6,6,6
India,Karnataka,Mangalore,"Kadri, Mangalore - KSPCB",05-07-2024 18:00:00,12.889250,74.853000,NH3,2,2,2
India,Karnataka,Mangalore,"Kadri, Mangalore - KSPCB",05-07-2024 18:00:00,12.889250,74.853000,SO2,15,16,16
