country,state,city,station,last_update,latitude,longitude,pollutant_id,pollutant_min,pollutant_max,pollutant_avg
India,Andhra_Pradesh,Amaravati,"Secretariat, Amaravati - APPCB",29-04-2024 00:00:00,16.5150833,80.5181667,NO2,4,8,6
India,Andhra_Pradesh,Anantapur,"Gulzarpet, Anantapur - APPCB",29-04-2024 00:00:00,14.675886,77.593027,PM2.5,NA,NA,NA
India,Andhra_Pradesh,Anantapur,"Gulzarpet, Anantapur - APPCB",29-04-2024 00:00:00,14.675886,77.593027,NH3,NA,NA,NA
India,Andhra_Pradesh,Chittoor,"Gangineni Cheruvu, Chittoor - APPCB",29-04-2024 00:00:00,13.204880,79.097889,NH3,1,2,1
India,Andhra_Pradesh,Kadapa,"Yerramukkapalli, Kadapa - APPCB",29-04-2024 00:00:00,14.465052,78.824187,PM2.5,18,240,65
India,Andhra_Pradesh,Kadapa,"Yerramukkapalli, Kadapa - APPCB",29-04-2024 00:00:00,14.465052,78.824187,PM10,19,153,58
India,Andhra_Pradesh,Kadapa,"Yerramukkapalli, Kadapa - APPCB",29-04-2024 00:00:00,14.465052,78.824187,NO2,NA,NA,NA
India,Andhra_Pradesh,Rajamahendravaram,"Anand Kala Kshetram, Rajamahendravaram - APPCB",29-04-2024 00:00:00,16.9872867,81.7363176,PM10,20,58,42
India,Andhra_Pradesh,Rajamahendravaram,"Anand Kala Kshetram, Rajamahendravaram - APPCB",29-04-2024 00:00:00,16.9872867,81.7363176,SO2,11,12,12
India,Andhra_Pradesh,Tirupati,"Tirumala, Tirupati - APPCB",29-04-2024 00:00:00,13.67,79.35,PM2.5,16,73,43
India,Andhra_Pradesh,Vijayawada,"HB Colony, Vijayawada - APPCB",29-04-2024 00:00:00,16.536107,80.594233,SO2,5,6,5
India,Andhra_Pradesh,Vijayawada,"Kanuru, Vijayawada - APPCB",29-04-2024 00:00:00,16.486692,80.699436,PM2.5,NA,NA,NA
India,Andhra_Pradesh,Vijayawada,"Kanuru, Vijayawada - APPCB",29-04-2024 00:00:00,16.486692,80.699436,NH3,NA,NA,NA
India,Andhra_Pradesh,Vijayawada,"Rajiv Gandhi Park, Vijayawada - APPCB",29-04-2024 00:00:00,16.509717,80.612222,PM2.5,44,99,71
India,Andhra_Pradesh,Vijayawada,"Rajiv Gandhi Park, Vijayawada - APPCB",29-04-2024 00:00:00,16.509717,80.612222,NH3,2,3,3
India,Andhra_Pradesh,Vijayawada,"Rajiv Gandhi Park, Vijayawada - APPCB",29-04-2024 00:00:00,16.509717,80.612222,OZONE,3,89,40
India,Andhra_Pradesh,Vijayawada,"Rajiv Nagar, Vijayawada - APPCB",29-04-2024 00:00:00,16.554731,80.649110,OZONE,4,295,28
India,Andhra_Pradesh,Visakhapatnam,"GVM Corporation, Visakhapatnam - APPCB",29-04-2024 00:00:00,17.72,83.3,SO2,10,15,13
India,Andhra_Pradesh,Visakhapatnam,"GVM Corporation, Visakhapatnam - APPCB",29-04-2024 00:00:00,17.72,83.3,OZONE,25,249,91
India,Assam,Guwahati,"Pan Bazaar, Guwahati - PCBA",29-04-2024 00:00:00,26.187500,91.744194,NO2,1,6,1
India,Assam,Guwahati,"Pan Bazaar, Guwahati - PCBA",29-04-2024 00:00:00,26.187500,91.744194,NH3,3,5,3
India,Assam,Guwahati,"Pan Bazaar, Guwahati - PCBA",29-04-2024 00:00:00,26.187500,91.744194,SO2,38,60,46
India,Assam,Nagaon,"Christianpatty, Nagaon - PCBA",29-04-2024 00:00:00,26.349082,92.68449,PM2.5,57,87,69
India,Assam,Nalbari,"Bata Chowk, Nalbari - PCBA",29-04-2024 00:00:00,26.446912,91.439057,OZONE,5,9,8
India,Assam,Silchar,"Tarapur, Silchar - PCBA",29-04-2024 00:00:00,24.82827,92.79525,PM2.5,NA,NA,NA
India,Assam,Sivasagar,"Girls College, Sivasagar - PCBA",29-04-2024 00:00:00,26.987634,94.636574,SO2,5,27,9
India,Assam,Sivasagar,"Girls College, Sivasagar - PCBA",29-04-2024 00:00:00,26.987634,94.636574,CO,12,20,16
India,Bihar,Arrah,"New DM Office, Arrah - BSPCB",29-04-2024 00:00:00,25.5626095,84.663264,NO2,3,62,15
India,Bihar,Arrah,"New DM Office, Arrah - BSPCB",29-04-2024 00:00:00,25.5626095,84.663264,NH3,2,6,3
India,Bihar,Aurangabad,"Gurdeo Nagar, Aurangabad - BSPCB",29-04-2024 00:00:00,24.75746,84.366208,CO,6,50,28
India,Bihar,Bettiah,"Kamalnath Nagar, Bettiah - BSPCB",29-04-2024 00:00:00,26.80365,84.51954,PM10,NA,NA,NA
India,Bihar,Bettiah,"Kamalnath Nagar, Bettiah - BSPCB",29-04-2024 00:00:00,26.80365,84.51954,NO2,28,29,28
India,Bihar,Bettiah,"Kamalnath Nagar, Bettiah - BSPCB",29-04-2024 00:00:00,26.80365,84.51954,SO2,9,26,16
India,Bihar,Bhagalpur,"Mayaganj, Bhagalpur - BSPCB",29-04-2024 00:00:00,25.265194,87.012947,NH3,7,10,9
India,Bihar,Bihar Sharif,"D M Colony, Bihar Sharif - BSPCB",29-04-2024 00:00:00,25.204762,85.514960,PM10,NA,NA,NA
India,Bihar,Buxar,"Charitra Van, Buxar - BSPCB (Formerly known as Central Jail)",29-04-2024 00:00:00,25.567520,83.966379,NH3,3,4,3
India,Bihar,Chhapra,"Darshan Nagar, Chhapra - BSPCB",29-04-2024 00:00:00,25.7808257,84.7446768,SO2,2,26,11
India,Bihar,Gaya,"Collectorate, Gaya - BSPCB",29-04-2024 00:00:00,24.7955,84.9994,OZONE,49,83,59
India,Bihar,Gaya,"Kareemganj, Gaya - BSPCB",29-04-2024 00:00:00,24.792403,84.992416,PM2.5,17,60,32
India,Bihar,Gaya,"Kareemganj, Gaya - BSPCB",29-04-2024 00:00:00,24.792403,84.992416,SO2,3,12,9
India,Bihar,Hajipur,"Industrial Area, Hajipur - BSPCB",29-04-2024 00:00:00,25.697189,85.245900,PM10,146,295,220
India,Bihar,Hajipur,"Industrial Area, Hajipur - BSPCB",29-04-2024 00:00:00,25.697189,85.245900,CO,18,47,25
India,Bihar,Kishanganj,"SDM Office_Khagra, Kishanganj - BSPCB",29-04-2024 00:00:00,26.0881305,87.93840336,PM2.5,70,240,112
India,Bihar,Kishanganj,"SDM Office_Khagra, Kishanganj - BSPCB",29-04-2024 00:00:00,26.0881305,87.93840336,NH3,9,11,10
India,Bihar,Kishanganj,"SDM Office_Khagra, Kishanganj - BSPCB",29-04-2024 00:00:00,26.0881305,87.93840336,CO,NA,NA,NA
India,Bihar,Kishanganj,"SDM Office_Khagra, Kishanganj - BSPCB",29-04-2024 00:00:00,26.0881305,87.93840336,OZONE,46,52,51
India,Bihar,Manguraha,"Forest Rest House, Manguraha - BSPCB",29-04-2024 00:00:00,27.308328,84.531742,OZONE,NA,NA,NA
India,Bihar,Motihari,"Gandak Colony, Motihari - BSPCB",29-04-2024 00:00:00,26.63086,84.90051,NH3,8,19,13
India,Bihar,Munger,"Town Hall, Munger - BSPCB",29-04-2024 00:00:00,25.376776,86.471523,PM10,NA,NA,NA
India,Bihar,Munger,"Town Hall, Munger - BSPCB",29-04-2024 00:00:00,25.376776,86.471523,NH3,2,3,3
India,Bihar,Muzaffarpur,"Buddha Colony, Muzaffarpur - BSPCB",29-04-2024 00:00:00,26.11442,85.39813,OZONE,18,38,27
India,Bihar,Muzaffarpur,"Muzaffarpur Collectorate, Muzaffarpur - BSPCB",29-04-2024 00:00:00,26.1209,85.3647,NO2,NA,NA,NA
India,Bihar,Muzaffarpur,"Muzaffarpur Collectorate, Muzaffarpur - BSPCB",29-04-2024 00:00:00,26.1209,85.3647,OZONE,56,84,74
India,Bihar,Patna,"DRM Office Danapur, Patna - BSPCB",29-04-2024 00:00:00,25.586562,85.043586,NO2,5,71,28
India,Bihar,Patna,"DRM Office Danapur, Patna - BSPCB",29-04-2024 00:00:00,25.586562,85.043586,SO2,13,26,17
India,Bihar,Patna,"Govt. High School Shikarpur, Patna - BSPCB",29-04-2024 00:00:00,25.592539,85.227158,PM10,114,291,196
India,Bihar,Patna,"Govt. High School Shikarpur, Patna - BSPCB",29-04-2024 00:00:00,25.592539,85.227158,CO,26,56,40
India,Bihar,Patna,"IGSC Planetarium Complex, Patna - BSPCB",29-04-2024 00:00:00,25.610369,85.132568,PM2.5,NA,NA,NA
India,Bihar,Patna,"Muradpur, Patna - BSPCB",29-04-2024 00:00:00,25.619651,85.147382,PM2.5,211,317,266
India,Bihar,Patna,"Muradpur, Patna - BSPCB",29-04-2024 00:00:00,25.619651,85.147382,SO2,6,11,8
India,Bihar,Patna,"Rajbansi Nagar, Patna - BSPCB",29-04-2024 00:00:00,25.599486,85.113666,PM2.5,21,123,67
India,Bihar,Patna,"Rajbansi Nagar, Patna - BSPCB",29-04-2024 00:00:00,25.599486,85.113666,PM10,119,188,157
India,Bihar,Patna,"Rajbansi Nagar, Patna - BSPCB",29-04-2024 00:00:00,25.599486,85.113666,NH3,6,13,8
India,Bihar,Rajgir,"Dangi Tola, Rajgir - BSPCB",29-04-2024 00:00:00,25.03280,85.41948,NO2,17,24,19
India,Bihar,Rajgir,"Dangi Tola, Rajgir - BSPCB",29-04-2024 00:00:00,25.03280,85.41948,CO,30,44,38
India,Bihar,Rajgir,"Dangi Tola, Rajgir - BSPCB",29-04-2024 00:00:00,25.03280,85.41948,OZONE,30,42,36
India,Bihar,Saharsa,"Police Line, Saharsa - BSPCB",29-04-2024 00:00:00,25.892357,86.590325,SO2,16,17,16
India,Bihar,Saharsa,"Police Line, Saharsa - BSPCB",29-04-2024 00:00:00,25.892357,86.590325,CO,54,56,54
India,Bihar,Saharsa,"Police Line, Saharsa - BSPCB",29-04-2024 00:00:00,25.892357,86.590325,OZONE,17,51,29
India,Bihar,Samastipur,"DM Office_Kasipur, Samastipur - BSPCB",29-04-2024 00:00:00,25.859655,85.77944,PM10,55,178,107
India,Bihar,Samastipur,"DM Office_Kasipur, Samastipur - BSPCB",29-04-2024 00:00:00,25.859655,85.77944,SO2,NA,NA,NA
India,Bihar,Samastipur,"DM Office_Kasipur, Samastipur - BSPCB",29-04-2024 00:00:00,25.859655,85.77944,CO,22,104,46
India,Bihar,Sasaram,"Dada Peer, Sasaram - BSPCB",29-04-2024 00:00:00,24.952822,84.002396,CO,87,103,88
India,Chandigarh,Chandigarh,"Sector 22, Chandigarh - CPCC",29-04-2024 00:00:00,30.735567,76.775714,PM10,41,123,80
India,Chandigarh,Chandigarh,"Sector-53, Chandigarh - CPCC",29-04-2024 00:00:00,30.719859,76.738637,SO2,10,28,17
India,Chhattisgarh,Bhilai,"32Bungalows, Bhilai - CECB",29-04-2024 00:00:00,21.194815,81.314770,NH3,6,6,6
India,Chhattisgarh,Chhal,"Nawapara SECL Colony, Chhal - CECB",29-04-2024 00:00:00,22.118125,83.140608,CO,20,56,26
India,Chhattisgarh,Korba,"Rampur, Korba - CECB",29-04-2024 00:00:00,22.368195,82.746431,NH3,1,1,1
India,Chhattisgarh,Korba,"Urja Nagar, Korba - CECB",29-04-2024 00:00:00,22.348441,82.549611,PM2.5,16,51,29
India,Chhattisgarh,Milupara,"Govt. Higher Secondary School, Milupara - CECB",29-04-2024 00:00:00,22.1910172,83.5197009,NH3,NA,NA,NA
India,Chhattisgarh,Milupara,"Govt. Higher Secondary School, Milupara - CECB",29-04-2024 00:00:00,22.1910172,83.5197009,CO,6,46,30
India,Chhattisgarh,Raipur,"Siltara Phase-II, Raipur - CECB",29-04-2024 00:00:00,21.371751,81.664929,NH3,3,3,3
India,Delhi,Delhi,"Alipur, Delhi - DPCC",29-04-2024 00:00:00,28.815329,77.153010,PM10,94,265,144
India,Delhi,Delhi,"Anand Vihar, Delhi - DPCC",29-04-2024 00:00:00,28.647622,77.3158090,PM2.5,NA,NA,NA
India,Delhi,Delhi,"Ashok Vihar, Delhi - DPCC",29-04-2024 00:00:00,28.695381,77.181665,OZONE,6,32,17
India,Delhi,Delhi,"Bawana, Delhi - DPCC",29-04-2024 00:00:00,28.776200,77.051074,PM10,108,426,201
India,Delhi,Delhi,"Bawana, Delhi - DPCC",29-04-2024 00:00:00,28.776200,77.051074,NH3,5,9,7
India,Delhi,Delhi,"Burari Crossing, Delhi - IMD",29-04-2024 00:00:00,28.7256504,77.2011573,PM2.5,68,303,125
India,Delhi,Delhi,"Burari Crossing, Delhi - IMD",29-04-2024 00:00:00,28.7256504,77.2011573,PM10,110,325,159
India,Delhi,Delhi,"Burari Crossing, Delhi - IMD",29-04-2024 00:00:00,28.7256504,77.2011573,OZONE,13,79,45
India,Delhi,Delhi,"CRRI Mathura Road, Delhi - IMD",29-04-2024 00:00:00,28.5512005,77.2735737,PM10,114,347,151
India,Delhi,Delhi,"Chandni Chowk, Delhi - IITM",29-04-2024 00:00:00,28.656756,77.227234,CO,74,103,96
India,Delhi,Delhi,"DTU, Delhi - CPCB",29-04-2024 00:00:00,28.7500499,77.1112615,OZONE,31,222,128
India,Delhi,Delhi,"Dr. Karni Singh Shooting Range, Delhi - DPCC",29-04-2024 00:00:00,28.498571,77.264840,NO2,22,150,77
India,Delhi,Delhi,"IHBAS, Dilshad Garden, Delhi - CPCB",29-04-2024 00:00:00,28.6811736,77.3025234,PM10,108,175,145
India,Delhi,Delhi,"Jahangirpuri, Delhi - DPCC",29-04-2024 00:00:00,28.732820,77.170633,NO2,31,108,67
India,Delhi,Delhi,"Jahangirpuri, Delhi - DPCC",29-04-2024 00:00:00,28.732820,77.170633,NH3,5,11,8
India,Delhi,Delhi,"Jahangirpuri, Delhi - DPCC",29-04-2024 00:00:00,28.732820,77.170633,CO,36,80,67
India,Delhi,Delhi,"Jahangirpuri, Delhi - DPCC",29-04-2024 00:00:00,28.732820,77.170633,OZONE,13,89,50
India,Delhi,Delhi,"Jawaharlal Nehru Stadium, Delhi - DPCC",29-04-2024 00:00:00,28.580280,77.233829,PM2.5,27,112,55
India,Delhi,Delhi,"Jawaharlal Nehru Stadium, Delhi - DPCC",29-04-2024 00:00:00,28.580280,77.233829,SO2,5,30,15
India,Delhi,Delhi,"Lodhi Road, Delhi - IMD",29-04-2024 00:00:00,28.5918245,77.2273074,CO,10,35,20
India,Delhi,Delhi,"Mundka, Delhi - DPCC",29-04-2024 00:00:00,28.684678,77.076574,NH3,3,6,5
India,Delhi,Delhi,"Mundka, Delhi - DPCC",29-04-2024 00:00:00,28.684678,77.076574,OZONE,22,150,76
India,Delhi,Delhi,"NSIT Dwarka, Delhi - CPCB",29-04-2024 00:00:00,28.60909,77.0325413,NO2,26,52,33
India,Delhi,Delhi,"Najafgarh, Delhi - DPCC",29-04-2024 00:00:00,28.570173,76.933762,PM2.5,30,323,111
India,Delhi,Delhi,"Najafgarh, Delhi - DPCC",29-04-2024 00:00:00,28.570173,76.933762,SO2,11,21,17
India,Delhi,Delhi,"Narela, Delhi - DPCC",29-04-2024 00:00:00,28.822836,77.101981,OZONE,17,153,93
India,Delhi,Delhi,"Nehru Nagar, Delhi - DPCC",29-04-2024 00:00:00,28.567890,77.250515,SO2,4,11,6
India,Delhi,Delhi,"Nehru Nagar, Delhi - DPCC",29-04-2024 00:00:00,28.567890,77.250515,OZONE,2,184,61
India,Delhi,Delhi,"New Moti Bagh, Delhi - MHUA",29-04-2024 00:00:00,28.57834,77.18400,PM2.5,32,313,131
India,Delhi,Delhi,"Okhla Phase-2, Delhi - DPCC",29-04-2024 00:00:00,28.530785,77.271255,PM10,115,374,164
India,Delhi,Delhi,"Okhla Phase-2, Delhi - DPCC",29-04-2024 00:00:00,28.530785,77.271255,SO2,8,20,13
India,Delhi,Delhi,"Patparganj, Delhi - DPCC",29-04-2024 00:00:00,28.623763,77.287209,PM10,129,366,188
India,Delhi,Delhi,"Patparganj, Delhi - DPCC",29-04-2024 00:00:00,28.623763,77.287209,SO2,1,10,5
India,Delhi,Delhi,"Punjabi Bagh, Delhi - DPCC",29-04-2024 00:00:00,28.674045,77.131023,PM2.5,21,285,118
India,Delhi,Delhi,"Punjabi Bagh, Delhi - DPCC",29-04-2024 00:00:00,28.674045,77.131023,PM10,99,258,150
India,Delhi,Delhi,"Punjabi Bagh, Delhi - DPCC",29-04-2024 00:00:00,28.674045,77.131023,NH3,2,5,4
India,Delhi,Delhi,"Punjabi Bagh, Delhi - DPCC",29-04-2024 00:00:00,28.674045,77.131023,OZONE,2,42,13
India,Delhi,Delhi,"Pusa, Delhi - DPCC",29-04-2024 00:00:00,28.639652,77.146275,NH3,6,10,7
India,Delhi,Delhi,"Pusa, Delhi - DPCC",29-04-2024 00:00:00,28.639652,77.146275,SO2,7,26,14
India,Delhi,Delhi,"Pusa, Delhi - IMD",29-04-2024 00:00:00,28.636110,77.173332,PM10,102,271,159
India,Delhi,Delhi,"Pusa, Delhi - IMD",29-04-2024 00:00:00,28.636110,77.173332,NO2,5,30,12
India,Delhi,Delhi,"R K Puram, Delhi - DPCC",29-04-2024 00:00:00,28.563262,77.186937,PM2.5,60,263,101
India,Delhi,Delhi,"R K Puram, Delhi - DPCC",29-04-2024 00:00:00,28.563262,77.186937,SO2,18,42,28
India,Delhi,Delhi,"Rohini, Delhi - DPCC",29-04-2024 00:00:00,28.732528,77.119920,NH3,7,14,10
India,Delhi,Delhi,"Rohini, Delhi - DPCC",29-04-2024 00:00:00,28.732528,77.119920,CO,16,58,40
India,Delhi,Delhi,"Shadipur, Delhi - CPCB",29-04-2024 00:00:00,28.6514781,77.1473105,NH3,5,7,6
India,Delhi,Delhi,"Sirifort, Delhi - CPCB",29-04-2024 00:00:00,28.5504249,77.2159377,PM10,118,273,151
India,Delhi,Delhi,"Sirifort, Delhi - CPCB",29-04-2024 00:00:00,28.5504249,77.2159377,OZONE,12,54,25
India,Delhi,Delhi,"Sonia Vihar, Delhi - DPCC",29-04-2024 00:00:00,28.710508,77.249485,PM2.5,NA,NA,NA
India,Delhi,Delhi,"Sonia Vihar, Delhi - DPCC",29-04-2024 00:00:00,28.710508,77.249485,CO,64,99,90
India,Delhi,Delhi,"Sonia Vihar, Delhi - DPCC",29-04-2024 00:00:00,28.710508,77.249485,OZONE,NA,NA,NA
India,Delhi,Delhi,"Sri Aurobindo Marg, Delhi - DPCC",29-04-2024 00:00:00,28.531346,77.190156,PM2.5,47,97,65
India,Delhi,Delhi,"Sri Aurobindo Marg, Delhi - DPCC",29-04-2024 00:00:00,28.531346,77.190156,PM10,102,173,127
India,Delhi,Delhi,"Sri Aurobindo Marg, Delhi - DPCC",29-04-2024 00:00:00,28.531346,77.190156,NH3,7,11,9
India,Delhi,Delhi,"Vivek Vihar, Delhi - DPCC",29-04-2024 00:00:00,28.672342,77.315260,PM10,123,312,181
India,Gujarat,Ahmedabad,"Gyaspur, Ahmedabad - IITM",29-04-2024 00:00:00,22.977134,72.553024,CO,16,87,37
India,Gujarat,Ahmedabad,"Maninagar, Ahmedabad - GPCB",29-04-2024 00:00:00,23.002657,72.591912,OZONE,8,50,19
India,Gujarat,Ahmedabad,"Raikhad, Ahmedabad - IITM",29-04-2024 00:00:00,23.020509,72.579261,PM10,78,464,206
India,Gujarat,Ahmedabad,"Raikhad, Ahmedabad - IITM",29-04-2024 00:00:00,23.020509,72.579261,NH3,5,6,5
India,Gujarat,Ahmedabad,"Raikhad, Ahmedabad - IITM",29-04-2024 00:00:00,23.020509,72.579261,SO2,5,25,9
India,Gujarat,Ahmedabad,"Rakhial, Ahmedabad - IITM",29-04-2024 00:00:00,23.016834,72.625775,OZONE,6,40,21
India,Gujarat,Ahmedabad,"SAC ISRO Satellite, Ahmedabad - IITM",29-04-2024 00:00:00,23.023389,72.515201,PM10,82,113,99
India,Gujarat,Ahmedabad,"SAC ISRO Satellite, Ahmedabad - IITM",29-04-2024 00:00:00,23.023389,72.515201,OZONE,4,63,38
India,Gujarat,Ahmedabad,"SVPI Airport Hansol, Ahmedabad - IITM",29-04-2024 00:00:00,23.076793,72.627874,CO,8,110,35
India,Gujarat,Ahmedabad,"Sardar Vallabhbhai Patel Stadium, Ahmedabad - IITM",29-04-2024 00:00:00,23.043070,72.562968,OZONE,9,46,29
India,Gujarat,Ankleshwar,"GIDC, Ankleshwar - GPCB",29-04-2024 00:00:00,21.613267,73.010555,PM10,NA,NA,NA
India,Gujarat,Gandhinagar,"Sector-10, Gandhinagar - GPCB",29-04-2024 00:00:00,23.221714,72.654328,PM2.5,25,64,43
India,Gujarat,Nandesari,"GIDC, Nandesari - Nandesari Ind. Association",29-04-2024 00:00:00,22.410802,73.097923,SO2,NA,NA,NA
India,Gujarat,Surat,"Science Center, Surat - SMC",29-04-2024 00:00:00,21.170046,72.795405,PM10,10,45,28
India,Gujarat,Vatva,"Phase-4 GIDC, Vatva - GPCB",29-04-2024 00:00:00,22.969611,72.643500,PM10,59,165,106
India,Gujarat,Vatva,"Phase-4 GIDC, Vatva - GPCB",29-04-2024 00:00:00,22.969611,72.643500,NH3,5,10,7
India,Gujarat,Vatva,"Phase-4 GIDC, Vatva - GPCB",29-04-2024 00:00:00,22.969611,72.643500,OZONE,10,69,25
India,Haryana,Ambala,"Patti Mehar, Ambala - HSPCB",29-04-2024 00:00:00,30.379589,76.778328,PM10,NA,NA,NA
India,Haryana,Ambala,"Patti Mehar, Ambala - HSPCB",29-04-2024 00:00:00,30.379589,76.778328,NO2,NA,NA,NA
India,Haryana,Ambala,"Patti Mehar, Ambala - HSPCB",29-04-2024 00:00:00,30.379589,76.778328,CO,30,60,38
India,Haryana,Bahadurgarh,"Arya Nagar, Bahadurgarh - HSPCB",29-04-2024 00:00:00,28.6701,76.9254,OZONE,32,42,38
India,Haryana,Ballabgarh,"Nathu Colony, Ballabgarh - HSPCB",29-04-2024 00:00:00,28.3419248,77.319699,PM2.5,45,277,162
India,Haryana,Ballabgarh,"Nathu Colony, Ballabgarh - HSPCB",29-04-2024 00:00:00,28.3419248,77.319699,NH3,1,3,2
India,Haryana,Bhiwani,"H.B. Colony, Bhiwani - HSPCB",29-04-2024 00:00:00,28.806223,76.141105,PM10,37,155,92
India,Haryana,Bhiwani,"H.B. Colony, Bhiwani - HSPCB",29-04-2024 00:00:00,28.806223,76.141105,NH3,2,6,6
India,Haryana,Charkhi Dadri,"Mini Secretariat, Charkhi Dadri - HSPCB",29-04-2024 00:00:00,28.593883,76.270653,PM10,71,141,113
India,Haryana,Faridabad,"New Industrial Town, Faridabad - HSPCB",29-04-2024 00:00:00,28.39072,77.30059,PM2.5,196,349,260
India,Haryana,Faridabad,"New Industrial Town, Faridabad - HSPCB",29-04-2024 00:00:00,28.39072,77.30059,NO2,11,21,14
India,Haryana,Faridabad,"Sector 30, Faridabad - HSPCB",29-04-2024 00:00:00,28.4417,77.3217,PM10,138,154,144
India,Haryana,Faridabad,"Sector 30, Faridabad - HSPCB",29-04-2024 00:00:00,28.4417,77.3217,CO,46,66,60
India,Haryana,Faridabad,"Sector- 16A, Faridabad - HSPCB",29-04-2024 00:00:00,28.4088421,77.3099081,SO2,8,25,19
India,Haryana,Faridabad,"Sector- 16A, Faridabad - HSPCB",29-04-2024 00:00:00,28.4088421,77.3099081,OZONE,14,14,14
India,Haryana,Fatehabad,"Huda Sector, Fatehabad - HSPCB",29-04-2024 00:00:00,29.503664,75.467934,CO,6,14,9
India,Haryana,Gurugram,"Sector-51, Gurugram - HSPCB",29-04-2024 00:00:00,28.4227,77.0667,SO2,2,103,8
India,Haryana,Gurugram,"Vikas Sadan, Gurugram - HSPCB",29-04-2024 00:00:00,28.4501238,77.0263051,CO,55,149,114
India,Haryana,Hisar,"Urban Estate-II, Hisar - HSPCB",29-04-2024 00:00:00,29.140560,75.744941,PM10,117,180,143
India,Haryana,Jind,"Police Lines, Jind - HSPCB",29-04-2024 00:00:00,29.307814,76.337619,CO,2,82,20
India,Haryana,Kaithal,"Rishi Nagar, Kaithal - HSPCB",29-04-2024 00:00:00,29.8006,76.4155,NH3,8,8,8
India,Haryana,Kaithal,"Rishi Nagar, Kaithal - HSPCB",29-04-2024 00:00:00,29.8006,76.4155,OZONE,9,16,11
India,Haryana,Karnal,"Sector-12, Karnal - HSPCB",29-04-2024 00:00:00,29.695300,77.002700,SO2,12,13,13
India,Haryana,Kurukshetra,"Sector-7, Kurukshetra - HSPCB",29-04-2024 00:00:00,29.966942,76.875879,SO2,2,3,2
India,Haryana,Kurukshetra,"Sector-7, Kurukshetra - HSPCB",29-04-2024 00:00:00,29.966942,76.875879,CO,7,40,20
India,Haryana,Mandikhera,"General Hospital, Mandikhera - HSPCB",29-04-2024 00:00:00,27.9002,76.9938,PM10,59,144,91
India,Haryana,Mandikhera,"General Hospital, Mandikhera - HSPCB",29-04-2024 00:00:00,27.9002,76.9938,CO,12,28,17
India,Haryana,Manesar,"Sector-2 IMT, Manesar - HSPCB",29-04-2024 00:00:00,28.360699,76.936090,PM2.5,80,235,136
India,Haryana,Manesar,"Sector-2 IMT, Manesar - HSPCB",29-04-2024 00:00:00,28.360699,76.936090,PM10,79,144,109
India,Haryana,Narnaul,"Shastri Nagar, Narnaul - HSPCB",29-04-2024 00:00:00,28.060249,76.113115,PM10,97,148,118
India,Haryana,Narnaul,"Shastri Nagar, Narnaul - HSPCB",29-04-2024 00:00:00,28.060249,76.113115,OZONE,44,56,50
India,Haryana,Palwal,"Shyam Nagar, Palwal - HSPCB",29-04-2024 00:00:00,28.1485564,77.3320667,NH3,8,9,9
India,Haryana,Rohtak,"MD University, Rohtak - HSPCB",29-04-2024 00:00:00,28.52123,76.37138,PM2.5,4,351,84
India,Haryana,Rohtak,"MD University, Rohtak - HSPCB",29-04-2024 00:00:00,28.52123,76.37138,NO2,45,53,50
India,Haryana,Sirsa,"F-Block, Sirsa - HSPCB",29-04-2024 00:00:00,29.536400,75.015800,CO,60,101,67
India,Haryana,Yamuna Nagar,"Gobind Pura, Yamuna Nagar - HSPCB",29-04-2024 00:00:00,30.1480566,77.2893471,NH3,NA,NA,NA
India,Haryana,Yamuna Nagar,"Gobind Pura, Yamuna Nagar - HSPCB",29-04-2024 00:00:00,30.1480566,77.2893471,CO,NA,NA,NA
India,Himachal Pradesh,Baddi,"HIMUDA Complex Phase-1, Baddi - HPPCB",29-04-2024 00:00:00,30.943887,76.801991,NO2,2,22,8
India,Jharkhand,Dhanbad,"Kalakusuma, Dhanbad - DMC",29-04-2024 00:00:00,23.811548,86.481238,CO,129,134,131
India,Karnataka,Bagalkot,"Vidayagiri, Bagalkot - KSPCB",29-04-2024 00:00:00,16.172806,75.659694,NH3,1,2,1
India,Karnataka,Belgaum,"Ramteerth Nagar, Belgaum - KSPCB",29-04-2024 00:00:00,15.888653,74.541751,PM10,40,74,57
India,Karnataka,Belgaum,"Ramteerth Nagar, Belgaum - KSPCB",29-04-2024 00:00:00,15.888653,74.541751,NO2,6,46,28
India,Karnataka,Bengaluru,"BTM Layout, Bengaluru - CPCB",29-04-2024 00:00:00,12.9135218,77.5950804,NO2,26,26,26
India,Karnataka,Bengaluru,"Bapuji Nagar, Bengaluru - KSPCB",29-04-2024 00:00:00,12.951913,77.539784,CO,12,54,45
India,Karnataka,Bengaluru,"Hebbal, Bengaluru - KSPCB",29-04-2024 00:00:00,13.029152,77.585901,CO,8,42,24
India,Karnataka,Bengaluru,"Jayanagar 5th Block, Bengaluru - KSPCB",29-04-2024 00:00:00,12.920984,77.584908,PM2.5,44,135,73
India,Karnataka,Bengaluru,"Jayanagar 5th Block, Bengaluru - KSPCB",29-04-2024 00:00:00,12.920984,77.584908,NH3,NA,NA,NA
India,Karnataka,Bengaluru,"Peenya, Bengaluru - CPCB",29-04-2024 00:00:00,13.0270199,77.494094,PM2.5,43,72,56
India,Karnataka,Bengaluru,"Peenya, Bengaluru - CPCB",29-04-2024 00:00:00,13.0270199,77.494094,OZONE,19,54,30
India,Karnataka,Bengaluru,"Shivapura_Peenya, Bengaluru - KSPCB",29-04-2024 00:00:00,13.0246342,77.5080115,SO2,2,36,16
India,Karnataka,Bengaluru,"Silk Board, Bengaluru - KSPCB",29-04-2024 00:00:00,12.917348,77.622813,NO2,7,16,9
India,Karnataka,Bidar,"Naubad, Bidar - KSPCB",29-04-2024 00:00:00,17.930306,77.482194,NO2,7,8,7
India,Karnataka,Bidar,"Naubad, Bidar - KSPCB",29-04-2024 00:00:00,17.930306,77.482194,NH3,3,3,3
India,Karnataka,Bidar,"Naubad, Bidar - KSPCB",29-04-2024 00:00:00,17.930306,77.482194,CO,74,99,88
India,Karnataka,Chamarajanagar,"Urban, Chamarajanagar - KSPCB",29-04-2024 00:00:00,11.55358,76.55521,PM2.5,21,43,34
India,Karnataka,Chamarajanagar,"Urban, Chamarajanagar - KSPCB",29-04-2024 00:00:00,11.55358,76.55521,NO2,19,30,27
India,Karnataka,Chikkamagaluru,"Kalyana Nagara, Chikkamagaluru - KSPCB",29-04-2024 00:00:00,13.328028,75.797056,SO2,NA,NA,NA
India,Karnataka,Chikkamagaluru,"Kalyana Nagara, Chikkamagaluru - KSPCB",29-04-2024 00:00:00,13.328028,75.797056,CO,11,124,53
India,Karnataka,Davanagere,"Devaraj Urs Badavane, Davanagere - KSPCB",29-04-2024 00:00:00,14.475800,75.905200,PM2.5,32,324,81
India,Karnataka,Davanagere,"Devaraj Urs Badavane, Davanagere - KSPCB",29-04-2024 00:00:00,14.475800,75.905200,SO2,3,6,5
India,Karnataka,Dharwad,"Kalabhavan, Dharwad - KSPCB",29-04-2024 00:00:00,15.459706,75.008381,CO,23,113,62
India,Karnataka,Gadag,"Panchal Nagar, Gadag - KSPCB",29-04-2024 00:00:00,15.411456,75.638133,CO,46,60,50
India,Karnataka,Gadag,"Panchal Nagar, Gadag - KSPCB",29-04-2024 00:00:00,15.411456,75.638133,OZONE,31,90,65
India,Karnataka,Haveri,"Ashwini Nagar, Haveri - KSPCB",29-04-2024 00:00:00,14.791800,75.389600,PM10,NA,NA,NA
India,Karnataka,Haveri,"Ashwini Nagar, Haveri - KSPCB",29-04-2024 00:00:00,14.791800,75.389600,NH3,NA,NA,NA
India,Karnataka,Haveri,"Ashwini Nagar, Haveri - KSPCB",29-04-2024 00:00:00,14.791800,75.389600,CO,37,38,38
India,Karnataka,Hubballi,"Lingaraj Nagar, Hubballi - KSPCB",29-04-2024 00:00:00,15.3714823,75.1160168,CO,12,71,22
India,Karnataka,Kalaburagi,"Lal Bahadur Shastri Nagar, Kalaburagi - KSPCB",29-04-2024 00:00:00,17.321993,76.822628,SO2,22,23,22
India,Karnataka,Kalaburagi,"Mahatma Basaveswar Colony, Kalaburgi - KSPCB",29-04-2024 00:00:00,17.336318,76.847397,PM10,36,97,56
India,Karnataka,Kalaburagi,"Mahatma Basaveswar Colony, Kalaburgi - KSPCB",29-04-2024 00:00:00,17.336318,76.847397,NO2,8,18,13
India,Karnataka,Kalaburagi,"Mahatma Basaveswar Colony, Kalaburgi - KSPCB",29-04-2024 00:00:00,17.336318,76.847397,OZONE,8,38,24
India,Karnataka,Karwar,"KHB Colony, Karwar - KSPCB",29-04-2024 00:00:00,14.816666,74.141003,PM10,34,77,53
India,Karnataka,Karwar,"KHB Colony, Karwar - KSPCB",29-04-2024 00:00:00,14.816666,74.141003,OZONE,21,22,22
India,Karnataka,Koppal,"Diwator Nagar, Koppal - KSPCB",29-04-2024 00:00:00,15.347630,76.181767,PM2.5,12,89,37
India,Karnataka,Madikeri,"Stuart Hill, Madikeri - KSPCB",29-04-2024 00:00:00,12.415911,75.735050,PM10,28,51,39
India,Karnataka,Madikeri,"Stuart Hill, Madikeri - KSPCB",29-04-2024 00:00:00,12.415911,75.735050,SO2,4,4,4
India,Karnataka,Mangalore,"Kadri, Mangalore - KSPCB",29-04-2024 00:00:00,12.889250,74.853000,PM2.5,NA,NA,NA
India,Karnataka,Mangalore,"Kadri, Mangalore - KSPCB",29-04-2024 00:00:00,12.889250,74.853000,NO2,NA,NA,NA
India,Karnataka,Mangalore,"Kadri, Mangalore - KSPCB",29-04-2024 00:00:00,12.889250,74.853000,NH3,NA,NA,NA
India,Karnataka,Mangalore,"Kadri, Mangalore - KSPCB",29-04-2024 00:00:00,12.889250,74.853000,SO2,NA,NA,NA
India,Karnataka,Mangalore,"Kadri, Mangalore - KSPCB",29-04-2024 00:00:00,12.889250,74.853000,CO,34,35,35
India,Karnataka,Mysuru,"Hebbal 1st Stage, Mysuru - KSPCB",29-04-2024 00:00:00,12.21041,76.37376,SO2,1,3,2
India,Karnataka,Ramanagara,"Vijay Nagar, Ramanagara - KSPCB",29-04-2024 00:00:00,12.733409,77.298051,CO,2,44,21
India,Karnataka,Tumakuru,"Thimmalapura, Tumakuru - KSPCB",29-04-2024 00:00:00,13.377516,77.099072,SO2,7,22,12
India,Karnataka,Tumakuru,"Thimmalapura, Tumakuru - KSPCB",29-04-2024 00:00:00,13.377516,77.099072,CO,28,34,31
India,Karnataka,Tumakuru,"Thimmalapura, Tumakuru - KSPCB",29-04-2024 00:00:00,13.377516,77.099072,OZONE,10,56,49
India,Karnataka,Yadgir,"Collector Office, Yadgir - KSPCB",29-04-2024 00:00:00,16.7602,77.1428,PM2.5,45,239,68
India,Karnataka,Yadgir,"Collector Office, Yadgir - KSPCB",29-04-2024 00:00:00,16.7602,77.1428,OZONE,18,19,19
India,Kerala,Eloor,"Udyogamandal, Eloor - Kerala PCB",29-04-2024 00:00:00,10.073232,76.302765,SO2,1,6,2
India,Kerala,Eloor,"Udyogamandal, Eloor - Kerala PCB",29-04-2024 00:00:00,10.073232,76.302765,CO,10,110,62
India,Kerala,Kannur,"Thavakkara, Kannur - Kerala PCB",29-04-2024 00:00:00,11.875000,75.373200,PM2.5,68,80,73
India,Kerala,Thiruvananthapuram,"Plammoodu, Thiruvananthapuram - Kerala PCB",29-04-2024 00:00:00,8.5149093,76.9435879,NO2,7,10,9
India,Kerala,Thrissur,"Corporation Ground, Thrissur - Kerala PCB",29-04-2024 00:00:00,10.532400,76.215900,OZONE,27,31,29
India,Madhya Pradesh,Bhopal,"Idgah Hills, Bhopal - MPPCB",29-04-2024 00:00:00,23.264759,77.381568,NH3,4,5,4
India,Madhya Pradesh,Bhopal,"Paryavaran Parisar, Bhopal - MPPCB",29-04-2024 00:00:00,23.210494,77.425409,SO2,8,11,9
India,Madhya Pradesh,Dewas,"Bhopal Chauraha, Dewas - MPPCB",29-04-2024 00:00:00,22.9682591,76.064118,PM10,33,134,63
India,Madhya Pradesh,Dewas,"Bhopal Chauraha, Dewas - MPPCB",29-04-2024 00:00:00,22.9682591,76.064118,SO2,6,49,31
India,Madhya Pradesh,Gwalior,"City Center, Gwalior - MPPCB",29-04-2024 00:00:00,26.203442,78.193251,PM2.5,22,93,57
India,Madhya Pradesh,Gwalior,"City Center, Gwalior - MPPCB",29-04-2024 00:00:00,26.203442,78.193251,NH3,1,5,4
India,Madhya Pradesh,Gwalior,"City Center, Gwalior - MPPCB",29-04-2024 00:00:00,26.203442,78.193251,CO,40,107,80
India,Madhya Pradesh,Indore,"Chhoti Gwaltoli, Indore - MPPCB",29-04-2024 00:00:00,22.4310,75.5213,CO,26,112,69
India,Madhya Pradesh,Indore,"Chhoti Gwaltoli, Indore - MPPCB",29-04-2024 00:00:00,22.4310,75.5213,OZONE,10,86,38
India,Madhya Pradesh,Indore,"Maguda Nagar, Indore - IMC",29-04-2024 00:00:00,22.7524,75.8872,NO2,4,6,5
India,Madhya Pradesh,Indore,"Regional Park, Indore - IMC",29-04-2024 00:00:00,22.6780,75.8559,PM10,25,75,48
India,Madhya Pradesh,Indore,"Regional Park, Indore - IMC",29-04-2024 00:00:00,22.6780,75.8559,SO2,50,52,51
India,Madhya Pradesh,Indore,"Regional Park, Indore - IMC",29-04-2024 00:00:00,22.6780,75.8559,CO,25,34,28
India,Madhya Pradesh,Jabalpur,"Govindh Bhavan Colony, Jabalpur - JMC",29-04-2024 00:00:00,23.163174,79.973061,OZONE,5,134,68
India,Madhya Pradesh,Jabalpur,"Gupteshwar, Jabalpur - JMC",29-04-2024 00:00:00,23.142888,79.916147,CO,20,102,54
India,Madhya Pradesh,Jabalpur,"Marhatal, Jabalpur - MPPCB",29-04-2024 00:00:00,23.168606,79.932247,NO2,NA,NA,NA
India,Madhya Pradesh,Jabalpur,"Marhatal, Jabalpur - MPPCB",29-04-2024 00:00:00,23.168606,79.932247,OZONE,NA,NA,NA
India,Madhya Pradesh,Jabalpur,"Suhagi, Jabalpur - JMC",29-04-2024 00:00:00,23.218135,79.957770,PM2.5,32,321,105
India,Madhya Pradesh,Jabalpur,"Suhagi, Jabalpur - JMC",29-04-2024 00:00:00,23.218135,79.957770,PM10,44,194,108
India,Madhya Pradesh,Katni,"Gole Bazar, Katni - MPPCB",29-04-2024 00:00:00,23.50016,80.23284,PM2.5,28,140,65
India,Madhya Pradesh,Katni,"Gole Bazar, Katni - MPPCB",29-04-2024 00:00:00,23.50016,80.23284,CO,26,128,57
India,Madhya Pradesh,Mandideep,"Sector-D Industrial Area, Mandideep - MPPCB",29-04-2024 00:00:00,23.108440,77.511428,PM10,25,116,60
India,Madhya Pradesh,Mandideep,"Sector-D Industrial Area, Mandideep - MPPCB",29-04-2024 00:00:00,23.108440,77.511428,NH3,7,14,9
India,Madhya Pradesh,Mandideep,"Sector-D Industrial Area, Mandideep - MPPCB",29-04-2024 00:00:00,23.108440,77.511428,CO,8,100,22
India,Madhya Pradesh,Pithampur,"Sector-2 Industrial Area, Pithampur - MPPCB",29-04-2024 00:00:00,22.624758,75.675238,NH3,2,3,2
India,Madhya Pradesh,Sagar,"Civil Lines, Sagar - MPPCB",29-04-2024 00:00:00,23.838586,78.759431,PM2.5,27,110,65
India,Madhya Pradesh,Sagar,"Civil Lines, Sagar - MPPCB",29-04-2024 00:00:00,23.838586,78.759431,NH3,3,6,4
India,Madhya Pradesh,Sagar,"Civil Lines, Sagar - MPPCB",29-04-2024 00:00:00,23.838586,78.759431,OZONE,2,99,57
India,Madhya Pradesh,Sagar,"Deen Dayal Nagar, Sagar - MPPCB",29-04-2024 00:00:00,23.8640158,78.80289321,NO2,21,24,24
India,Madhya Pradesh,Satna,"Bandhavgar Colony, Satna - Birla Cement",29-04-2024 00:00:00,24.58434363,80.8549414,SO2,4,5,4
India,Madhya Pradesh,Satna,"Bandhavgar Colony, Satna - Birla Cement",29-04-2024 00:00:00,24.58434363,80.8549414,CO,26,102,73
India,Madhya Pradesh,Singrauli,"Suryakiran Bhawan NCL, Singrauli - MPPCB",29-04-2024 00:00:00,24.108970,82.645580,OZONE,9,79,54
India,Madhya Pradesh,Ujjain,"Mahakaleshwar Temple, Ujjain - MPPCB",29-04-2024 00:00:00,23.182719 ,75.768218 ,PM2.5,10,51,26
India,Madhya Pradesh,Ujjain,"Mahakaleshwar Temple, Ujjain - MPPCB",29-04-2024 00:00:00,23.182719 ,75.768218 ,OZONE,131,161,134
India,Maharashtra,Akola,"Ramdaspeth, Akola - MPCB",29-04-2024 00:00:00,20.719516,77.000253,PM10,52,115,84
India,Maharashtra,Akola,"Ramdaspeth, Akola - MPCB",29-04-2024 00:00:00,20.719516,77.000253,NH3,6,9,7
India,Maharashtra,Akola,"Ramdaspeth, Akola - MPCB",29-04-2024 00:00:00,20.719516,77.000253,CO,20,74,38
India,Maharashtra,Akola,"Ramdaspeth, Akola - MPCB",29-04-2024 00:00:00,20.719516,77.000253,OZONE,12,114,58
India,Maharashtra,Amravati,"Shivneri Colony, Amravati - MPCB",29-04-2024 00:00:00,20.9402359,77.7895248,PM2.5,53,103,67
India,Maharashtra,Amravati,"Shivneri Colony, Amravati - MPCB",29-04-2024 00:00:00,20.9402359,77.7895248,CO,11,26,18
India,Maharashtra,Amravati,"Shri Shivaji Science College, Amaravati - MPCB",29-04-2024 00:00:00,20.939198,77.765701,OZONE,49,113,88
India,Maharashtra,Aurangabad,"MIDC Chilkalthana, Aurangabad - MPCB",29-04-2024 00:00:00,19.875620,75.387310,NH3,3,4,3
India,Maharashtra,Aurangabad,"MIDC Chilkalthana, Aurangabad - MPCB",29-04-2024 00:00:00,19.875620,75.387310,CO,50,54,53
India,Maharashtra,Aurangabad,"More Chowk Waluj, Aurangabad - MPCB",29-04-2024 00:00:00,19.8389439,75.244448,NO2,40,48,44
India,Maharashtra,Aurangabad,"More Chowk Waluj, Aurangabad - MPCB",29-04-2024 00:00:00,19.8389439,75.244448,CO,2,52,22
India,Maharashtra,Aurangabad,"Rachnakar Colony, Aurangabad - MPCB",29-04-2024 00:00:00,19.863756,75.321188,PM10,114,432,190
India,Maharashtra,Aurangabad,"Rachnakar Colony, Aurangabad - MPCB",29-04-2024 00:00:00,19.863756,75.321188,CO,5,96,48
India,Maharashtra,Aurangabad,"Rachnakar Colony, Aurangabad - MPCB",29-04-2024 00:00:00,19.863756,75.321188,OZONE,24,95,67
India,Maharashtra,Badlapur,"Katrap, Badlapur - MPCB",29-04-2024 00:00:00,19.16485,73.23409,PM10,88,155,112
India,Maharashtra,Badlapur,"Katrap, Badlapur - MPCB",29-04-2024 00:00:00,19.16485,73.23409,NH3,2,5,3
India,Maharashtra,Belapur,"CBD Belapur, Belapur - MPCB",29-04-2024 00:00:00,19.0243902,73.0406721,PM10,100,140,120
India,Maharashtra,Belapur,"CBD Belapur, Belapur - MPCB",29-04-2024 00:00:00,19.0243902,73.0406721,CO,19,69,44
India,Maharashtra,Bhiwandi,"Gokul Nagar, Bhiwandi - MPCB",29-04-2024 00:00:00,19.309073,73.057223,PM10,83,136,107
India,Maharashtra,Bhiwandi,"Gokul Nagar, Bhiwandi - MPCB",29-04-2024 00:00:00,19.309073,73.057223,NO2,15,54,26
India,Maharashtra,Boisar,"Khaira, Boisar - MPCB",29-04-2024 00:00:00,19.786089,72.757971,PM10,79,150,119
India,Maharashtra,Boisar,"Khaira, Boisar - MPCB",29-04-2024 00:00:00,19.786089,72.757971,NO2,24,73,42
India,Maharashtra,Chandrapur,"Chauhan Colony, Chandrapur - MPCB",29-04-2024 00:00:00,19.962900,79.298714,SO2,9,131,31
India,Maharashtra,Dhule,"Deopur, Dhule - MPCB",29-04-2024 00:00:00,20.918946,74.776388,PM2.5,66,92,80
India,Maharashtra,Dhule,"Deopur, Dhule - MPCB",29-04-2024 00:00:00,20.918946,74.776388,NH3,8,14,10
India,Maharashtra,Dhule,"Deopur, Dhule - MPCB",29-04-2024 00:00:00,20.918946,74.776388,CO,17,34,24
India,Maharashtra,Jalgaon,"Prabhat Colony, Jalgaon - MPCB",29-04-2024 00:00:00,21.001264,75.565602,NO2,9,150,50
India,Maharashtra,Jalgaon,"Prabhat Colony, Jalgaon - MPCB",29-04-2024 00:00:00,21.001264,75.565602,NH3,1,21,9
India,Maharashtra,Jalna,"Old MIDC, Jalna - MPCB",29-04-2024 00:00:00,19.854616,75.905894,PM2.5,47,60,53
India,Maharashtra,Jalna,"Old MIDC, Jalna - MPCB",29-04-2024 00:00:00,19.854616,75.905894,NH3,6,8,7
India,Maharashtra,Kalyan,"Khadakpada, Kalyan - MPCB",29-04-2024 00:00:00,19.25292,73.142019,PM10,91,197,142
India,Maharashtra,Kalyan,"Khadakpada, Kalyan - MPCB",29-04-2024 00:00:00,19.25292,73.142019,OZONE,8,31,20
India,Maharashtra,Kolhapur,"Sinchan Bhavan, Kolhapur - MPCB",29-04-2024 00:00:00,16.7143745,74.2426398,PM10,NA,NA,NA
India,Maharashtra,Kolhapur,"Sinchan Bhavan, Kolhapur - MPCB",29-04-2024 00:00:00,16.7143745,74.2426398,OZONE,26,163,92
India,Maharashtra,Latur,"Sawe Wadi, Latur - MPCB",29-04-2024 00:00:00,18.39963,76.57452,NO2,8,192,63
India,Maharashtra,Latur,"Sawe Wadi, Latur - MPCB",29-04-2024 00:00:00,18.39963,76.57452,SO2,NA,NA,NA
India,Maharashtra,Latur,"Sawe Wadi, Latur - MPCB",29-04-2024 00:00:00,18.39963,76.57452,CO,2,152,103
India,Maharashtra,Mahad,"Kamble Tarf Birwadi, Mahad - MPCB",29-04-2024 00:00:00,18.1023399,73.4783687,PM10,79,159,109
India,Maharashtra,Malegaon,"Mahesh Nagar, Malegaon - MPCB",29-04-2024 00:00:00,20.555712,74.529236,NH3,4,33,6
India,Maharashtra,Mira-Bhayandar,"Bhayandar West, Mira-Bhayandar - MPCB",29-04-2024 00:00:00,19.296481,72.840923,PM10,75,500,209
India,Maharashtra,Mira-Bhayandar,"Bhayandar West, Mira-Bhayandar - MPCB",29-04-2024 00:00:00,19.296481,72.840923,CO,8,34,17
India,Maharashtra,Mira-Bhayandar,"Bhayandar West, Mira-Bhayandar - MPCB",29-04-2024 00:00:00,19.296481,72.840923,OZONE,17,161,94
India,Maharashtra,Mumbai,"Borivali East, Mumbai - MPCB",29-04-2024 00:00:00,19.2243333,72.8658113,NO2,9,39,19
India,Maharashtra,Mumbai,"Borivali East, Mumbai - MPCB",29-04-2024 00:00:00,19.2243333,72.8658113,CO,25,38,36
India,Maharashtra,Mumbai,"Byculla, Mumbai - BMC",29-04-2024 00:00:00,18.9767,72.8380,PM2.5,20,52,30
India,Maharashtra,Mumbai,"Byculla, Mumbai - BMC",29-04-2024 00:00:00,18.9767,72.8380,SO2,1,25,9
India,Maharashtra,Mumbai,"Chakala-Andheri East, Mumbai - IITM",29-04-2024 00:00:00,19.11074,72.86084,SO2,14,71,31
India,Maharashtra,Mumbai,"Chembur, Mumbai - MPCB",29-04-2024 00:00:00,19.0364585,72.8954371,NH3,3,5,4
India,Maharashtra,Mumbai,"Chembur, Mumbai - MPCB",29-04-2024 00:00:00,19.0364585,72.8954371,SO2,1,2,1
India,Maharashtra,Mumbai,"Chhatrapati Shivaji Intl. Airport (T2), Mumbai - MPCB",29-04-2024 00:00:00,19.10078,72.87462,OZONE,4,15,9
India,Maharashtra,Mumbai,"Ghatkopar, Mumbai - BMC",29-04-2024 00:00:00,19.083694,72.920967,OZONE,5,44,20
India,Maharashtra,Mumbai,"Kandivali East, Mumbai - MPCB",29-04-2024 00:00:00,19.205800,72.868200,PM10,70,438,176
India,Maharashtra,Mumbai,"Kandivali East, Mumbai - MPCB",29-04-2024 00:00:00,19.205800,72.868200,NO2,8,68,40
India,Maharashtra,Mumbai,"Kandivali East, Mumbai - MPCB",29-04-2024 00:00:00,19.205800,72.868200,NH3,3,9,5
India,Maharashtra,Mumbai,"Kandivali West, Mumbai - BMC",29-04-2024 00:00:00,19.215859,72.831718,PM10,NA,NA,NA
India,Maharashtra,Mumbai,"Khindipada-Bhandup West, Mumbai - IITM",29-04-2024 00:00:00,19.1653323,72.922099,NO2,7,16,11
India,Maharashtra,Mumbai,"Khindipada-Bhandup West, Mumbai - IITM",29-04-2024 00:00:00,19.1653323,72.922099,SO2,2,25,7
India,Maharashtra,Mumbai,"Kurla, Mumbai - MPCB",29-04-2024 00:00:00,19.0863,72.8888,PM2.5,NA,NA,NA
India,Maharashtra,Mumbai,"Kurla, Mumbai - MPCB",29-04-2024 00:00:00,19.0863,72.8888,NH3,NA,NA,NA
India,Maharashtra,Mumbai,"Kurla, Mumbai - MPCB",29-04-2024 00:00:00,19.0863,72.8888,CO,NA,NA,NA
India,Maharashtra,Mumbai,"Mazgaon, Mumbai - IITM",29-04-2024 00:00:00,18.96702,72.84214,CO,16,76,38
India,Maharashtra,Mumbai,"Mulund West, Mumbai - MPCB",29-04-2024 00:00:00,19.1750,72.9419,CO,36,38,38
India,Maharashtra,Mumbai,"Navy Nagar-Colaba, Mumbai - IITM",29-04-2024 00:00:00,18.897756,72.813320,CO,18,48,26
India,Maharashtra,Mumbai,"Navy Nagar-Colaba, Mumbai - IITM",29-04-2024 00:00:00,18.897756,72.813320,OZONE,57,255,165
India,Maharashtra,Mumbai,"Sewri, Mumbai - BMC",29-04-2024 00:00:00,19.000084,72.856730,NO2,19,78,36
India,Maharashtra,Mumbai,"Sewri, Mumbai - BMC",29-04-2024 00:00:00,19.000084,72.856730,CO,7,38,19
India,Maharashtra,Mumbai,"Sewri, Mumbai - BMC",29-04-2024 00:00:00,19.000084,72.856730,OZONE,10,154,91
India,Maharashtra,Mumbai,"Shivaji Nagar, Mumbai - BMC",29-04-2024 00:00:00,19.060498,72.923356,NO2,21,136,58
India,Maharashtra,Mumbai,"Shivaji Nagar, Mumbai - BMC",29-04-2024 00:00:00,19.060498,72.923356,OZONE,14,154,83
India,Maharashtra,Mumbai,"Vasai West, Mumbai - MPCB",29-04-2024 00:00:00,19.383200,72.820400,CO,30,46,38
India,Maharashtra,Mumbai,"Vile Parle West, Mumbai - MPCB",29-04-2024 00:00:00,19.10861,72.83622,NO2,7,15,9
India,Maharashtra,Mumbai,"Vile Parle West, Mumbai - MPCB",29-04-2024 00:00:00,19.10861,72.83622,NH3,10,11,11
India,Maharashtra,Mumbai,"Vile Parle West, Mumbai - MPCB",29-04-2024 00:00:00,19.10861,72.83622,SO2,14,15,14
India,Maharashtra,Mumbai,"Worli, Mumbai - MPCB",29-04-2024 00:00:00,18.9936162,72.8128113,CO,29,30,30
India,Maharashtra,Mumbai,"Worli, Mumbai - MPCB",29-04-2024 00:00:00,18.9936162,72.8128113,OZONE,6,10,7
India,Maharashtra,Nagpur,"Ambazari, Nagpur - MPCB",29-04-2024 00:00:00,21.121801,79.04952,PM10,61,120,84
India,Maharashtra,Nagpur,"Ambazari, Nagpur - MPCB",29-04-2024 00:00:00,21.121801,79.04952,NO2,7,64,24
India,Maharashtra,Nagpur,"Mahal, Nagpur - MPCB",29-04-2024 00:00:00,21.14472,79.107595,SO2,25,83,52
India,Maharashtra,Nagpur,"Opp GPO Civil Lines, Nagpur - MPCB",29-04-2024 00:00:00,21.152875,79.0517531,NH3,3,3,3
India,Maharashtra,Nanded,"Sneh Nagar, Nanded - MPCB",29-04-2024 00:00:00,19.173852,77.296291,PM2.5,1,251,102
India,Maharashtra,Nanded,"Sneh Nagar, Nanded - MPCB",29-04-2024 00:00:00,19.173852,77.296291,CO,2,50,36
India,Maharashtra,Nashik,"Hirawadi, Nashik - MPCB",29-04-2024 00:00:00,20.021503,73.813844,SO2,6,16,11
India,Maharashtra,Nashik,"MIDC Ambad, Nashik - MPCB",29-04-2024 00:00:00,19.950220,73.731480,NH3,3,3,3
India,Maharashtra,Nashik,"MIDC Ambad, Nashik - MPCB",29-04-2024 00:00:00,19.950220,73.731480,SO2,13,34,22
India,Maharashtra,Nashik,"Pandav Nagari, Nashik - MPCB",29-04-2024 00:00:00,19.9591346,73.7788008,PM2.5,62,85,76
India,Maharashtra,Nashik,"Pandav Nagari, Nashik - MPCB",29-04-2024 00:00:00,19.9591346,73.7788008,NO2,7,25,14
India,Maharashtra,Nashik,"Pandav Nagari, Nashik - MPCB",29-04-2024 00:00:00,19.9591346,73.7788008,SO2,16,49,34
India,Maharashtra,Navi Mumbai,"Kopripada-Vashi, Navi Mumbai - MPCB",29-04-2024 00:00:00,19.090337,73.014232,CO,9,101,38
India,Maharashtra,Navi Mumbai,"Mahape, Navi Mumbai - MPCB",29-04-2024 00:00:00,19.1135051,73.008978,PM10,93,243,143
India,Maharashtra,Navi Mumbai,"Mahape, Navi Mumbai - MPCB",29-04-2024 00:00:00,19.1135051,73.008978,NO2,83,91,86
India,Maharashtra,Navi Mumbai,"Sanpada, Navi Mumbai - MPCB",29-04-2024 00:00:00,19.0575752,73.0151367,NO2,12,72,29
India,Maharashtra,Navi Mumbai,"Sanpada, Navi Mumbai - MPCB",29-04-2024 00:00:00,19.0575752,73.0151367,CO,2,66,30
India,Maharashtra,Navi Mumbai,"Sector-19A Nerul, Navi Mumbai - IITM",29-04-2024 00:00:00,19.044,73.0325,PM10,63,150,115
India,Maharashtra,Navi Mumbai,"Sector-19A Nerul, Navi Mumbai - IITM",29-04-2024 00:00:00,19.044,73.0325,NO2,21,141,66
India,Maharashtra,Navi Mumbai,"Sector-19A Nerul, Navi Mumbai - IITM",29-04-2024 00:00:00,19.044,73.0325,NH3,4,7,6
India,Maharashtra,Navi Mumbai,"Sector-2E Kalamboli, Navi Mumbai - MPCB",29-04-2024 00:00:00,19.02579,73.10297,PM2.5,70,282,171
India,Maharashtra,Parbhani,"Masoom Colony, Parbhani - MPCB",29-04-2024 00:00:00,19.265594,76.761463,PM2.5,63,141,87
India,Maharashtra,Parbhani,"Masoom Colony, Parbhani - MPCB",29-04-2024 00:00:00,19.265594,76.761463,PM10,55,148,93
India,Maharashtra,Parbhani,"Masoom Colony, Parbhani - MPCB",29-04-2024 00:00:00,19.265594,76.761463,NH3,3,6,4
India,Maharashtra,Parbhani,"Masoom Colony, Parbhani - MPCB",29-04-2024 00:00:00,19.265594,76.761463,CO,22,30,27
India,Maharashtra,Parbhani,"Masoom Colony, Parbhani - MPCB",29-04-2024 00:00:00,19.265594,76.761463,OZONE,71,114,95
India,Maharashtra,Pimpri-Chinchwad,"Gavalinagar, Pimpri Chinchwad - MPCB",29-04-2024 00:00:00,18.63673,73.82487,NH3,1,6,3
India,Maharashtra,Pimpri-Chinchwad,"Gavalinagar, Pimpri Chinchwad - MPCB",29-04-2024 00:00:00,18.63673,73.82487,SO2,8,28,17
India,Maharashtra,Pimpri-Chinchwad,"Park Street Wakad, Pimpri Chinchwad - MPCB",29-04-2024 00:00:00,18.59051,73.77946,CO,20,52,30
India,Maharashtra,Pimpri-Chinchwad,"Thergaon, Pimpri Chinchwad - MPCB",29-04-2024 00:00:00,18.616318,73.765797,PM10,94,122,105
India,Maharashtra,Pimpri-Chinchwad,"Thergaon, Pimpri Chinchwad - MPCB",29-04-2024 00:00:00,18.616318,73.765797,NH3,1,8,4
India,Maharashtra,Pune,"Alandi, Pune - IITM",29-04-2024 00:00:00,18.675076,73.892743,PM2.5,27,111,68
India,Maharashtra,Pune,"Alandi, Pune - IITM",29-04-2024 00:00:00,18.675076,73.892743,PM10,58,143,100
India,Maharashtra,Pune,"Bhosari, Pune - IITM",29-04-2024 00:00:00,18.640051,73.848956,OZONE,11,98,66
India,Maharashtra,Pune,"Karve Road, Pune - MPCB",29-04-2024 00:00:00,18.5011743,73.8165527,NO2,8,20,12
India,Maharashtra,Pune,"Katraj Dairy, Pune - MPCB",29-04-2024 00:00:00,18.454450,73.854155,SO2,3,12,7
India,Maharashtra,Pune,"Katraj Dairy, Pune - MPCB",29-04-2024 00:00:00,18.454450,73.854155,CO,28,94,60
India,Maharashtra,Pune,"Mhada Colony, Pune - IITM",29-04-2024 00:00:00,18.573040,73.927715,PM10,75,149,111
India,Maharashtra,Pune,"Mhada Colony, Pune - IITM",29-04-2024 00:00:00,18.573040,73.927715,CO,12,106,70
India,Maharashtra,Pune,"Revenue Colony-Shivajinagar, Pune - IITM",29-04-2024 00:00:00,18.530085,73.849598,CO,106,118,112
India,Maharashtra,Pune,"Savitribai Phule Pune University, Pune - MPCB",29-04-2024 00:00:00,18.547056,73.826908,SO2,4,19,9
India,Maharashtra,Pune,"Savitribai Phule Pune University, Pune - MPCB",29-04-2024 00:00:00,18.547056,73.826908,CO,10,62,22
India,Maharashtra,Sangli,"Vijay Nagar, Sangli - MPCB",29-04-2024 00:00:00, 16.5038,74.3623,OZONE,15,163,111
India,Maharashtra,Solapur,"Dnyaneshwar Nagar, Solapur - MPCB",29-04-2024 00:00:00,17.6336264,75.9132495,PM10,53,151,107
India,Maharashtra,Solapur,"Dnyaneshwar Nagar, Solapur - MPCB",29-04-2024 00:00:00,17.6336264,75.9132495,SO2,5,11,7
India,Maharashtra,Thane,"Kasarvadavali, Thane - MPCB",29-04-2024 00:00:00,19.26777,72.97182,PM2.5,48,121,75
India,Maharashtra,Thane,"Pimpleshwar Mandir, Thane - MPCB",29-04-2024 00:00:00,19.192056,72.9585188,NH3,1,11,3
India,Maharashtra,Thane,"Upvan Fort, Thane - MPCB",29-04-2024 00:00:00,19.222279,72.957979,CO,5,6,6
India,Maharashtra,Ulhasnagar,"Sidhi Vinayak Nagar, Ulhasnagar - MPCB",29-04-2024 00:00:00,19.235581,73.159121,PM2.5,83,264,150
India,Maharashtra,Ulhasnagar,"Sidhi Vinayak Nagar, Ulhasnagar - MPCB",29-04-2024 00:00:00,19.235581,73.159121,SO2,19,104,38
India,Maharashtra,Virar,"Bolinj, Virar - MPCB",29-04-2024 00:00:00,19.4458210,72.7988231,OZONE,28,291,133
India,Manipur,Imphal,"DM College of Science, Imphal - Manipur PCB",29-04-2024 00:00:00,24.8207389,93.9423085,PM10,NA,NA,NA
India,Manipur,Imphal,"DM College of Science, Imphal - Manipur PCB",29-04-2024 00:00:00,24.8207389,93.9423085,CO,6,7,7
India,Meghalaya,Shillong,"Lumpyngngad, Shillong - Meghalaya PCB",29-04-2024 00:00:00,25.5586,91.8985,NO2,1,1,1
India,Mizoram,Aizawl,"Sikulpuikawn, Aizawl - Mizoram PCB",29-04-2024 00:00:00,23.7176342,92.7192841,OZONE,1,36,18
India,Nagaland,Kohima,"PWD Juction, Kohima - NPCB",29-04-2024 00:00:00,25.6635413,94.0989878,PM2.5,NA,NA,NA
India,Odisha,Angul,"Hakimapada, Angul - OSPCB",29-04-2024 00:00:00,20.832874,85.104082,SO2,13,110,35
India,Odisha,Angul,"Hakimapada, Angul - OSPCB",29-04-2024 00:00:00,20.832874,85.104082,CO,24,70,42
India,Odisha,Bhubaneswar,"Lingraj Mandir, Bhubaneswar - OSPCB",29-04-2024 00:00:00,20.240790,85.836784,NO2,4,20,9
India,Odisha,Bhubaneswar,"Lingraj Mandir, Bhubaneswar - OSPCB",29-04-2024 00:00:00,20.240790,85.836784,NH3,1,2,2
India,Odisha,Bhubaneswar,"Lingraj Mandir, Bhubaneswar - OSPCB",29-04-2024 00:00:00,20.240790,85.836784,SO2,1,4,3
India,Odisha,Bhubaneswar,"Lingraj Mandir, Bhubaneswar - OSPCB",29-04-2024 00:00:00,20.240790,85.836784,CO,39,90,46
India,Odisha,Bhubaneswar,"Lingraj Mandir, Bhubaneswar - OSPCB",29-04-2024 00:00:00,20.240790,85.836784,OZONE,17,119,61
India,Odisha,Bhubaneswar,"Patia, Bhubaneswar - OSPCB",29-04-2024 00:00:00,20.34652,85.81630,PM2.5,27,95,66
India,Odisha,Bhubaneswar,"Patia, Bhubaneswar - OSPCB",29-04-2024 00:00:00,20.34652,85.81630,CO,39,92,58
India,Odisha,Brajrajnagar,"GM Office, Brajrajnagar - OSPCB",29-04-2024 00:00:00,21.8004996,83.8396977,NO2,15,16,15
India,Odisha,Brajrajnagar,"GM Office, Brajrajnagar - OSPCB",29-04-2024 00:00:00,21.8004996,83.8396977,SO2,23,24,23
India,Odisha,Byasanagar,"Ferro Chrome Colony, Byasanagar - OSPCB",29-04-2024 00:00:00,20.94185,86.11510,OZONE,2,301,153
India,Odisha,Cuttack,"CDA Area, Cuttack - OSPCB",29-04-2024 00:00:00,20.48891     ,85.84768     ,PM10,72,159,105
India,Odisha,Cuttack,"CDA Area, Cuttack - OSPCB",29-04-2024 00:00:00,20.48891     ,85.84768     ,NH3,1,2,2
India,Odisha,Keonjhar,"Jagamohanpur, Keonjhar - OSPCB",29-04-2024 00:00:00,21.643900,85.599355,NO2,4,52,12
India,Odisha,Keonjhar,"Jagamohanpur, Keonjhar - OSPCB",29-04-2024 00:00:00,21.643900,85.599355,NH3,1,4,3
India,Odisha,Keonjhar,"Jagamohanpur, Keonjhar - OSPCB",29-04-2024 00:00:00,21.643900,85.599355,SO2,6,14,8
India,Odisha,Nayagarh,"Dabuna, Nayagarh - OSPCB",29-04-2024 00:00:00,21.847279,85.416905,NH3,5,5,5
India,Odisha,Rairangpur,"Divisional Forest Office, Rairangpur - OSPCB",29-04-2024 00:00:00,22.265816,86.174829,NO2,1,2,1
India,Odisha,Rairangpur,"Divisional Forest Office, Rairangpur - OSPCB",29-04-2024 00:00:00,22.265816,86.174829,NH3,3,3,3
India,Odisha,Rourkela,"Raghunathpali, Rourkela - OSPCB",29-04-2024 00:00:00,22.220833,84.809444,PM2.5,39,160,74
India,Odisha,Rourkela,"Sector-2, Rourkela - OSPCB",29-04-2024 00:00:00,22.24500000,84.88111111,PM2.5,66,179,113
India,Odisha,Suakati,"OMC Colony, Suakati - OSPCB",29-04-2024 00:00:00,21.606865,85.510538,NO2,7,10,8
India,Odisha,Talcher,"Talcher Coalfields,Talcher - OSPCB",29-04-2024 00:00:00,20.9360711,85.1707021,PM2.5,12,426,160
India,Odisha,Tensa,"Barsua Iron Ore Mines, Tensa - OSPCB",29-04-2024 00:00:00,21.869985,85.167016,NH3,1,2,2
India,Odisha,Tensa,"Barsua Iron Ore Mines, Tensa - OSPCB",29-04-2024 00:00:00,21.869985,85.167016,CO,12,60,32
India,Punjab,Amritsar,"Golden Temple, Amritsar - PPCB",29-04-2024 00:00:00,31.620000,74.876512,NO2,30,77,48
India,Punjab,Amritsar,"Golden Temple, Amritsar - PPCB",29-04-2024 00:00:00,31.620000,74.876512,CO,22,33,29
India,Punjab,Jalandhar,"Civil Line, Jalandhar - PPCB",29-04-2024 00:00:00,31.321907,75.578914,PM2.5,34,95,56
India,Punjab,Mandi Gobindgarh,"RIMT University, Mandi Gobindgarh - PPCB",29-04-2024 00:00:00,30.649961,76.331442,CO,5,26,15
India,Punjab,Patiala,"Model Town, Patiala - PPCB",29-04-2024 00:00:00,30.349388,76.366642,CO,22,42,32
India,Punjab,Rupnagar,"Ratanpura, Rupnagar - Ambuja Cements",29-04-2024 00:00:00,31.0325454,76.5623046,PM2.5,28,93,47
India,Rajasthan,Alwar,"Moti Doongri, Alwar - RSPCB",29-04-2024 00:00:00,27.554793,76.611536,OZONE,13,42,30
India,Rajasthan,Barmer,"Railway Colony, Barmer - RSPCB",29-04-2024 00:00:00,25.747299,71.393989,PM2.5,14,39,24
India,Rajasthan,Barmer,"Railway Colony, Barmer - RSPCB",29-04-2024 00:00:00,25.747299,71.393989,PM10,55,179,84
India,Rajasthan,Barmer,"Railway Colony, Barmer - RSPCB",29-04-2024 00:00:00,25.747299,71.393989,NH3,9,15,11
India,Rajasthan,Barmer,"Railway Colony, Barmer - RSPCB",29-04-2024 00:00:00,25.747299,71.393989,SO2,4,6,5
India,Rajasthan,Barmer,"Railway Colony, Barmer - RSPCB",29-04-2024 00:00:00,25.747299,71.393989,CO,66,86,74
India,Rajasthan,Bharatpur,"Krishna Nagar, Bharatpur - RSPCB",29-04-2024 00:00:00,27.215415,77.50873,PM10,122,256,186
India,Rajasthan,Bharatpur,"Krishna Nagar, Bharatpur - RSPCB",29-04-2024 00:00:00,27.215415,77.50873,NH3,2,6,4
India,Rajasthan,Bharatpur,"Krishna Nagar, Bharatpur - RSPCB",29-04-2024 00:00:00,27.215415,77.50873,CO,5,110,59
India,Rajasthan,Bhiwadi,"RIICO Ind. Area III, Bhiwadi - RSPCB",29-04-2024 00:00:00,28.194909,76.862296,NH3,2,16,8
India,Rajasthan,Bhiwadi,"RIICO Ind. Area III, Bhiwadi - RSPCB",29-04-2024 00:00:00,28.194909,76.862296,SO2,48,74,58
India,Rajasthan,Bhiwadi,"Vasundhara Nagar_UIT, Bhiwadi - RSPCB",29-04-2024 00:00:00,28.207266,76.829265,PM2.5,17,365,181
India,Rajasthan,Bikaner,"MM Ground, Bikaner - RSPCB",29-04-2024 00:00:00,28.018792,73.292658,NO2,42,70,59
India,Rajasthan,Bikaner,"MM Ground, Bikaner - RSPCB",29-04-2024 00:00:00,28.018792,73.292658,NH3,9,11,10
India,Rajasthan,Bundi,"New Colony, Bundi - RSPCB",29-04-2024 00:00:00,25.435774,75.644272,NO2,7,82,23
India,Rajasthan,Bundi,"New Colony, Bundi - RSPCB",29-04-2024 00:00:00,25.435774,75.644272,OZONE,8,105,52
India,Rajasthan,Chittorgarh,"Shastri Nagar, Chittorgarh - RSPCB",29-04-2024 00:00:00,24.892047,74.623527,NH3,9,12,11
India,Rajasthan,Dausa,"Khatikan Mohalla, Dausa - RSPCB",29-04-2024 00:00:00,26.895552,76.334753,NO2,28,161,61
India,Rajasthan,Dholpur,"Raja Ganj, Dholpur - RSPCB",29-04-2024 00:00:00,26.699557,77.898881,OZONE,NA,NA,NA
India,Rajasthan,Jaipur,"Adarsh Nagar, Jaipur - RSPCB",29-04-2024 00:00:00,26.902909,75.836858,CO,5,102,53
India,Rajasthan,Jaipur,"Mansarovar Sector-12, Jaipur - RSPCB",29-04-2024 00:00:00,26.843698,75.766894,PM2.5,33,252,87
India,Rajasthan,Jaipur,"Mansarovar Sector-12, Jaipur - RSPCB",29-04-2024 00:00:00,26.843698,75.766894,NH3,1,66,11
India,Rajasthan,Jaipur,"Police Commissionerate, Jaipur - RSPCB",29-04-2024 00:00:00,26.9164092,75.7994901,OZONE,11,109,57
India,Rajasthan,Jaipur,"RIICO Sitapura, Jaipur - RSPCB",29-04-2024 00:00:00,26.786682,75.827928,OZONE,20,49,24
India,Rajasthan,Jaipur,"Sector-2 Murlipura, Jaipur - RSPCB",29-04-2024 00:00:00,26.960669,75.771817,NO2,24,177,62
India,Rajasthan,Jaipur,"Shastri Nagar, Jaipur - RSPCB",29-04-2024 00:00:00,26.9502929,75.730943,PM2.5,128,269,198
India,Rajasthan,Jaipur,"Shastri Nagar, Jaipur - RSPCB",29-04-2024 00:00:00,26.9502929,75.730943,NO2,32,157,66
India,Rajasthan,Jaipur,"Shastri Nagar, Jaipur - RSPCB",29-04-2024 00:00:00,26.9502929,75.730943,SO2,1,36,16
India,Rajasthan,Jalore,"Mudtra Sili, Jalore - RSPCB",29-04-2024 00:00:00,25.344694,72.626208,PM10,62,230,107
India,Rajasthan,Jhunjhunu,"Indra Nagar, Jhunjhunu - RSPCB",29-04-2024 00:00:00,28.108988,75.386577,PM2.5,23,124,55
India,Rajasthan,Jhunjhunu,"Indra Nagar, Jhunjhunu - RSPCB",29-04-2024 00:00:00,28.108988,75.386577,NH3,6,10,7
India,Rajasthan,Jodhpur,"Digari Kalan, Jodhpur - RSPCB",29-04-2024 00:00:00,26.295810,73.082283,PM2.5,14,100,44
India,Rajasthan,Jodhpur,"Jhalamand, Jodhpur - RSPCB",29-04-2024 00:00:00,26.215415,73.070156,NH3,4,9,6
India,Rajasthan,Jodhpur,"Jhalamand, Jodhpur - RSPCB",29-04-2024 00:00:00,26.215415,73.070156,CO,8,56,23
India,Rajasthan,Jodhpur,"Mandor, Jodhpur - RSPCB",29-04-2024 00:00:00,26.358805,73.047444,PM2.5,16,82,43
India,Rajasthan,Jodhpur,"Mandor, Jodhpur - RSPCB",29-04-2024 00:00:00,26.358805,73.047444,PM10,73,262,144
India,Rajasthan,Jodhpur,"Mandor, Jodhpur - RSPCB",29-04-2024 00:00:00,26.358805,73.047444,OZONE,14,108,75
India,Rajasthan,Karauli,"Satyawati Vihar, Karauli - RSPCB",29-04-2024 00:00:00,26.506177,77.025989,PM10,108,257,152
India,Rajasthan,Karauli,"Satyawati Vihar, Karauli - RSPCB",29-04-2024 00:00:00,26.506177,77.025989,NO2,14,90,33
India,Rajasthan,Kota,"Shrinath Puram, Kota - RSPCB",29-04-2024 00:00:00,25.14389,75.821256,NH3,5,14,8
India,Rajasthan,Nagaur,"Karni Colony, Nagaur - RSPCB",29-04-2024 00:00:00,27.213494,73.734444,PM2.5,27,109,74
India,Rajasthan,Nagaur,"Karni Colony, Nagaur - RSPCB",29-04-2024 00:00:00,27.213494,73.734444,OZONE,39,84,62
India,Rajasthan,Pali,"Indira Colony Vistar, Pali - RSPCB",29-04-2024 00:00:00,25.771061, 73.340227,OZONE,30,72,57
India,Rajasthan,Pratapgarh,"Pragati Nagar, Pratapgarh - RSPCB",29-04-2024 00:00:00,24.041198,74.780702,NO2,5,58,24
India,Rajasthan,Rajsamand,"Dhoinda, Rajsamand - RSPCB",29-04-2024 00:00:00,25.036360,73.883502,CO,56,82,69
India,Rajasthan,Sikar,"Radhakishan Pura, Sikar - RSPCB",29-04-2024 00:00:00,27.608912,75.153302,PM10,104,237,148
India,Rajasthan,Sirohi,"Vedhaynath Colony, Sirohi - RSPCB",29-04-2024 00:00:00,24.885261,72.857549,PM10,39,88,59
India,Rajasthan,Sirohi,"Vedhaynath Colony, Sirohi - RSPCB",29-04-2024 00:00:00,24.885261,72.857549,CO,1,38,22
India,Rajasthan,Sirohi,"Vedhaynath Colony, Sirohi - RSPCB",29-04-2024 00:00:00,24.885261,72.857549,OZONE,21,126,102
India,Rajasthan,Sri Ganganagar,"Old City, Sri Ganganagar - RSPCB",29-04-2024 00:00:00,29.931624,73.864511,PM2.5,63,312,179
India,Rajasthan,Sri Ganganagar,"Old City, Sri Ganganagar - RSPCB",29-04-2024 00:00:00,29.931624,73.864511,NO2,31,99,59
India,Rajasthan,Tonk,"Shastri Nagar, Tonk - RSPCB",29-04-2024 00:00:00,26.159933,75.780517,PM2.5,23,250,73
India,Rajasthan,Tonk,"Shastri Nagar, Tonk - RSPCB",29-04-2024 00:00:00,26.159933,75.780517,NH3,3,40,10
India,Rajasthan,Udaipur,"Ashok Nagar, Udaipur - RSPCB",29-04-2024 00:00:00,24.5886166,73.6321397,PM2.5,34,115,76
India,Rajasthan,Udaipur,"Ashok Nagar, Udaipur - RSPCB",29-04-2024 00:00:00,24.5886166,73.6321397,PM10,56,110,89
India,Sikkim,Gangtok,"Zero Point GICI, Gangtok - SSPCB",29-04-2024 00:00:00,27.338530,88.614099,PM2.5,26,39,33
India,Sikkim,Gangtok,"Zero Point GICI, Gangtok - SSPCB",29-04-2024 00:00:00,27.338530,88.614099,PM10,39,70,59
India,TamilNadu,Chennai,"Arumbakkam, Chennai - TNPCB",29-04-2024 00:00:00,13.0664,80.2112 ,PM2.5,3,30,14
India,TamilNadu,Chennai,"Arumbakkam, Chennai - TNPCB",29-04-2024 00:00:00,13.0664,80.2112 ,PM10,12,51,34
India,TamilNadu,Chennai,"Manali, Chennai - CPCB",29-04-2024 00:00:00,13.164544,80.26285,PM10,32,71,52
India,TamilNadu,Chennai,"Perungudi, Chennai - TNPCB",29-04-2024 00:00:00,12.9533,80.2357,PM10,16,58,36
India,TamilNadu,Chennai,"Perungudi, Chennai - TNPCB",29-04-2024 00:00:00,12.9533,80.2357,SO2,1,8,3
India,TamilNadu,Chennai,"Perungudi, Chennai - TNPCB",29-04-2024 00:00:00,12.9533,80.2357,CO,10,89,17
India,TamilNadu,Chennai,"Perungudi, Chennai - TNPCB",29-04-2024 00:00:00,12.9533,80.2357,OZONE,3,5,4
India,TamilNadu,Chennai,"Royapuram, Chennai - TNPCB",29-04-2024 00:00:00,13.1036,80.2909,PM2.5,8,38,18
India,TamilNadu,Chennai,"Royapuram, Chennai - TNPCB",29-04-2024 00:00:00,13.1036,80.2909,PM10,18,68,36
India,TamilNadu,Chennai,"Royapuram, Chennai - TNPCB",29-04-2024 00:00:00,13.1036,80.2909,NO2,5,18,11
India,TamilNadu,Chennai,"Velachery Res. Area, Chennai - CPCB",29-04-2024 00:00:00,13.0052189,80.2398125,NH3,9,15,13
India,TamilNadu,Ooty,"Bombay Castel, Ooty - TNPCB",29-04-2024 00:00:00,11.4068288,76.7138973,NO2,3,70,31
India,TamilNadu,Ooty,"Bombay Castel, Ooty - TNPCB",29-04-2024 00:00:00,11.4068288,76.7138973,OZONE,5,6,5
India,TamilNadu,Palkalaiperur,"Bharathidasan University, Palkalaiperur - TNPCB",29-04-2024 00:00:00,10.681158,78.741746,PM10,6,26,14
India,TamilNadu,Palkalaiperur,"Bharathidasan University, Palkalaiperur - TNPCB",29-04-2024 00:00:00,10.681158,78.741746,SO2,28,29,28
India,TamilNadu,Palkalaiperur,"Bharathidasan University, Palkalaiperur - TNPCB",29-04-2024 00:00:00,10.681158,78.741746,OZONE,1,4,1
India,TamilNadu,Ramanathapuram,"Chalai Bazaar, Ramanathapuram - TNPCB",29-04-2024 00:00:00,9.36399,78.831977,PM10,14,57,33
India,TamilNadu,Thoothukudi,"Meelavittan, Thoothukudi - TNPCB",29-04-2024 00:00:00,8.816428 ,78.099039,NO2,26,40,31
India,TamilNadu,Virudhunagar,"Collectorate Office, Virudhunagar - TNPCB",29-04-2024 00:00:00,9.559382,77.948828,CO,27,28,28
India,Telangana,Hyderabad,"Bollaram Industrial Area, Hyderabad - TSPCB",29-04-2024 00:00:00,17.540891,78.358528,NO2,21,35,28
India,Telangana,Hyderabad,"Bollaram Industrial Area, Hyderabad - TSPCB",29-04-2024 00:00:00,17.540891,78.358528,SO2,14,26,19
India,Telangana,Hyderabad,"Central University, Hyderabad - TSPCB",29-04-2024 00:00:00,17.460103,78.334361,OZONE,3,4,4
India,Telangana,Hyderabad,"ICRISAT Patancheru, Hyderabad - TSPCB",29-04-2024 00:00:00,17.518400,78.278777,NH3,2,2,2
India,Telangana,Hyderabad,"Kokapet, Hyderabad - TSPCB",29-04-2024 00:00:00,17.393559,78.339194,PM2.5,51,75,61
India,Telangana,Hyderabad,"Kokapet, Hyderabad - TSPCB",29-04-2024 00:00:00,17.393559,78.339194,SO2,8,11,9
India,Telangana,Hyderabad,"Kokapet, Hyderabad - TSPCB",29-04-2024 00:00:00,17.393559,78.339194,OZONE,3,11,8
India,Telangana,Hyderabad,"Kompally Municipal Office, Hyderabad - TSPCB",29-04-2024 00:00:00,17.544899,78.486949,PM10,42,60,48
India,Telangana,Hyderabad,"Kompally Municipal Office, Hyderabad - TSPCB",29-04-2024 00:00:00,17.544899,78.486949,SO2,3,19,10
India,Telangana,Hyderabad,"Nacharam_TSIIC IALA, Hyderabad - TSPCB",29-04-2024 00:00:00,17.429398,78.569354,CO,28,40,37
India,Telangana,Hyderabad,"Nacharam_TSIIC IALA, Hyderabad - TSPCB",29-04-2024 00:00:00,17.429398,78.569354,OZONE,16,57,48
India,Telangana,Hyderabad,"New Malakpet, Hyderabad - TSPCB",29-04-2024 00:00:00,17.37206,78.50864,PM2.5,39,79,55
India,Telangana,Hyderabad,"New Malakpet, Hyderabad - TSPCB",29-04-2024 00:00:00,17.37206,78.50864,SO2,9,14,11
India,Telangana,Hyderabad,"Ramachandrapuram, Hyderabad - TSPCB",29-04-2024 00:00:00,17.528544,78.286195,SO2,NA,NA,NA
India,Telangana,Hyderabad,"Zoo Park, Hyderabad - TSPCB",29-04-2024 00:00:00,17.349694,78.451437,PM2.5,45,95,70
India,Telangana,Hyderabad,"Zoo Park, Hyderabad - TSPCB",29-04-2024 00:00:00,17.349694,78.451437,CO,29,78,60
India,Tripura,Agartala,"Bardowali, Agartala - Tripura SPCB",29-04-2024 00:00:00,23.8175497,91.2726974,PM2.5,55,151,92
India,Tripura,Agartala,"Bardowali, Agartala - Tripura SPCB",29-04-2024 00:00:00,23.8175497,91.2726974,PM10,78,130,108
India,Uttar_Pradesh,Agra,"Manoharpur, Agra - UPPCB",29-04-2024 00:00:00,27.23711,78.01936,OZONE,1,64,47
India,Uttar_Pradesh,Agra,"Rohta, Agra - UPPCB",29-04-2024 00:00:00,27.106972,78.000111,PM10,5,86,54
India,Uttar_Pradesh,Agra,"Rohta, Agra - UPPCB",29-04-2024 00:00:00,27.106972,78.000111,NH3,1,1,1
India,Uttar_Pradesh,Agra,"Rohta, Agra - UPPCB",29-04-2024 00:00:00,27.106972,78.000111,CO,2,19,13
India,Uttar_Pradesh,Agra,"Sector-3B Avas Vikas Colony, Agra - UPPCB",29-04-2024 00:00:00,27.19412,77.96237,NO2,23,24,24
India,Uttar_Pradesh,Agra,"Sector-3B Avas Vikas Colony, Agra - UPPCB",29-04-2024 00:00:00,27.19412,77.96237,OZONE,1,7,3
India,Uttar_Pradesh,Agra,"Shahjahan Garden, Agra - UPPCB",29-04-2024 00:00:00,27.169338,78.03582,PM2.5,28,139,70
India,Uttar_Pradesh,Agra,"Shahjahan Garden, Agra - UPPCB",29-04-2024 00:00:00,27.169338,78.03582,SO2,17,28,21
India,Uttar_Pradesh,Agra,"Shahjahan Garden, Agra - UPPCB",29-04-2024 00:00:00,27.169338,78.03582,CO,10,29,16
India,Uttar_Pradesh,Agra,"Shastripuram, Agra - UPPCB",29-04-2024 00:00:00,27.19862,77.92066,CO,8,26,15
India,Uttar_Pradesh,Agra,"Shastripuram, Agra - UPPCB",29-04-2024 00:00:00,27.19862,77.92066,OZONE,1,11,6
India,Uttar_Pradesh,Baghpat,"Sardar Patel Inter College, Baghpat - UPPCB",29-04-2024 00:00:00,28.964949,77.278761,PM10,80,500,167
India,Uttar_Pradesh,Baghpat,"Sardar Patel Inter College, Baghpat - UPPCB",29-04-2024 00:00:00,28.964949,77.278761,OZONE,21,104,74
India,Uttar_Pradesh,Bareilly,"Civil Lines, Bareilly - UPPCB",29-04-2024 00:00:00,28.359581,79.414455,NH3,NA,NA,NA
India,Uttar_Pradesh,Bareilly,"Civil Lines, Bareilly - UPPCB",29-04-2024 00:00:00,28.359581,79.414455,CO,8,44,23
India,Uttar_Pradesh,Bareilly,"Rajendra Nagar, Bareilly - UPPCB",29-04-2024 00:00:00,28.38910936,79.42963708,OZONE,4,32,16
India,Uttar_Pradesh,Bulandshahr,"Yamunapuram, Bulandshahr - UPPCB",29-04-2024 00:00:00,28.406963,77.849831,OZONE,6,134,74
India,Uttar_Pradesh,Ghaziabad,"Indirapuram, Ghaziabad - UPPCB",29-04-2024 00:00:00,28.646233,77.358075,NH3,5,7,6
India,Uttar_Pradesh,Ghaziabad,"Loni, Ghaziabad - UPPCB",29-04-2024 00:00:00,28.757294,77.278792,NH3,2,5,3
India,Uttar_Pradesh,Ghaziabad,"Sanjay Nagar, Ghaziabad - UPPCB",29-04-2024 00:00:00,28.685382,77.453839,PM2.5,27,232,104
India,Uttar_Pradesh,Ghaziabad,"Sanjay Nagar, Ghaziabad - UPPCB",29-04-2024 00:00:00,28.685382,77.453839,PM10,104,199,142
India,Uttar_Pradesh,Ghaziabad,"Sanjay Nagar, Ghaziabad - UPPCB",29-04-2024 00:00:00,28.685382,77.453839,NO2,22,113,47
India,Uttar_Pradesh,Ghaziabad,"Sanjay Nagar, Ghaziabad - UPPCB",29-04-2024 00:00:00,28.685382,77.453839,OZONE,6,169,67
India,Uttar_Pradesh,Ghaziabad,"Vasundhara, Ghaziabad - UPPCB",29-04-2024 00:00:00,28.6603346,77.3572563,NH3,3,5,4
India,Uttar_Pradesh,Gorakhpur,"Madan Mohan Malaviya University of Technology, Gorakhpur - UPPCB",29-04-2024 00:00:00,26.730136,83.433859,PM10,87,182,127
India,Uttar_Pradesh,Greater Noida,"Knowledge Park - III, Greater Noida - UPPCB",29-04-2024 00:00:00,28.47272,77.482000,SO2,7,59,26
India,Uttar_Pradesh,Greater Noida,"Knowledge Park - V, Greater Noida - UPPCB",29-04-2024 00:00:00,28.557054,77.453663,PM2.5,42,316,151
India,Uttar_Pradesh,Greater Noida,"Knowledge Park - V, Greater Noida - UPPCB",29-04-2024 00:00:00,28.557054,77.453663,CO,19,116,90
India,Uttar_Pradesh,Greater Noida,"Knowledge Park - V, Greater Noida - UPPCB",29-04-2024 00:00:00,28.557054,77.453663,OZONE,4,151,55
India,Uttar_Pradesh,Hapur,"Anand Vihar, Hapur - UPPCB",29-04-2024 00:00:00,28.725645,77.749675,PM2.5,16,141,57
India,Uttar_Pradesh,Jhansi,"Shivaji Nagar, Jhansi - UPPCB",29-04-2024 00:00:00,25.4547,78.6039,PM2.5,11,199,60
India,Uttar_Pradesh,Kanpur,"FTI Kidwai Nagar, Kanpur - UPPCB",29-04-2024 00:00:00,26.428282,80.327067,PM2.5,19,175,84
India,Uttar_Pradesh,Kanpur,"FTI Kidwai Nagar, Kanpur - UPPCB",29-04-2024 00:00:00,26.428282,80.327067,CO,24,42,34
India,Uttar_Pradesh,Kanpur,"NSI Kalyanpur, Kanpur - UPPCB",29-04-2024 00:00:00,26.509954,80.249612,PM10,118,181,150
India,Uttar_Pradesh,Kanpur,"NSI Kalyanpur, Kanpur - UPPCB",29-04-2024 00:00:00,26.509954,80.249612,SO2,19,24,21
India,Uttar_Pradesh,Lucknow,"B R Ambedkar University, Lucknow - UPPCB",29-04-2024 00:00:00,26.766433,80.927299,NO2,11,12,11
India,Uttar_Pradesh,Lucknow,"B R Ambedkar University, Lucknow - UPPCB",29-04-2024 00:00:00,26.766433,80.927299,OZONE,1,76,54
India,Uttar_Pradesh,Lucknow,"Gomti Nagar, Lucknow - UPPCB",29-04-2024 00:00:00,26.868120,81.005119,NO2,10,12,11
India,Uttar_Pradesh,Lucknow,"Gomti Nagar, Lucknow - UPPCB",29-04-2024 00:00:00,26.868120,81.005119,SO2,NA,NA,NA
India,Uttar_Pradesh,Lucknow,"Gomti Nagar, Lucknow - UPPCB",29-04-2024 00:00:00,26.868120,81.005119,CO,41,46,43
India,Uttar_Pradesh,Lucknow,"Kendriya Vidyalaya, Lucknow - CPCB",29-04-2024 00:00:00,26.906111,80.948222,PM2.5,78,165,118
India,Uttar_Pradesh,Lucknow,"Kendriya Vidyalaya, Lucknow - CPCB",29-04-2024 00:00:00,26.906111,80.948222,PM10,136,152,144
India,Uttar_Pradesh,Lucknow,"Kendriya Vidyalaya, Lucknow - CPCB",29-04-2024 00:00:00,26.906111,80.948222,SO2,2,7,5
India,Uttar_Pradesh,Lucknow,"Kukrail Picnic Spot-1, Lucknow - UPPCB",29-04-2024 00:00:00,26.90723,80.98579,PM2.5,46,125,85
India,Uttar_Pradesh,Lucknow,"Kukrail Picnic Spot-1, Lucknow - UPPCB",29-04-2024 00:00:00,26.90723,80.98579,CO,12,50,15
India,Uttar_Pradesh,Lucknow,"Lalbagh, Lucknow - CPCB",29-04-2024 00:00:00,26.8458805,80.9365541,CO,4,113,79
India,Uttar_Pradesh,Lucknow,"Talkatora District Industries Center, Lucknow - CPCB",29-04-2024 00:00:00,26.83399722,80.8917361,NO2,35,77,53
India,Uttar_Pradesh,Lucknow,"Talkatora District Industries Center, Lucknow - CPCB",29-04-2024 00:00:00,26.83399722,80.8917361,SO2,1,19,4
India,Uttar_Pradesh,Meerut,"Ganga Nagar, Meerut - UPPCB",29-04-2024 00:00:00,28.999264,77.7590354,SO2,9,42,20
India,Uttar_Pradesh,Meerut,"Jai Bhim Nagar, Meerut - UPPCB",29-04-2024 00:00:00,28.9535882,77.7622941,PM2.5,24,287,88
India,Uttar_Pradesh,Meerut,"Jai Bhim Nagar, Meerut - UPPCB",29-04-2024 00:00:00,28.9535882,77.7622941,SO2,5,16,8
India,Uttar_Pradesh,Meerut,"Jai Bhim Nagar, Meerut - UPPCB",29-04-2024 00:00:00,28.9535882,77.7622941,OZONE,31,117,72
India,Uttar_Pradesh,Meerut,"Pallavpuram Phase 2, Meerut - UPPCB",29-04-2024 00:00:00,29.063510,77.709723,SO2,14,61,31
India,Uttar_Pradesh,Meerut,"Pallavpuram Phase 2, Meerut - UPPCB",29-04-2024 00:00:00,29.063510,77.709723,OZONE,10,79,45
India,Uttar_Pradesh,Moradabad,"Buddhi Vihar, Moradabad - UPPCB",29-04-2024 00:00:00,28.83526,78.74460,PM2.5,17,119,50
India,Uttar_Pradesh,Moradabad,"Buddhi Vihar, Moradabad - UPPCB",29-04-2024 00:00:00,28.83526,78.74460,PM10,71,142,104
India,Uttar_Pradesh,Moradabad,"Buddhi Vihar, Moradabad - UPPCB",29-04-2024 00:00:00,28.83526,78.74460,NH3,2,2,2
India,Uttar_Pradesh,Moradabad,"Buddhi Vihar, Moradabad - UPPCB",29-04-2024 00:00:00,28.83526,78.74460,OZONE,16,42,32
India,Uttar_Pradesh,Moradabad,"Jigar Colony, Moradabad - UPPCB",29-04-2024 00:00:00,28.856664,78.772638,NH3,6,6,6
India,Uttar_Pradesh,Moradabad,"Kashiram Nagar, Moradabad - UPPCB",29-04-2024 00:00:00,28.849399,78.742362,NH3,4,4,4
India,Uttar_Pradesh,Moradabad,"Kashiram Nagar, Moradabad - UPPCB",29-04-2024 00:00:00,28.849399,78.742362,CO,24,36,31
India,Uttar_Pradesh,Moradabad,"Kashiram Nagar, Moradabad - UPPCB",29-04-2024 00:00:00,28.849399,78.742362,OZONE,13,74,42
India,Uttar_Pradesh,Moradabad,"Transport Nagar, Moradabad - UPPCB",29-04-2024 00:00:00,28.802625,78.753728,NO2,6,22,13
India,Uttar_Pradesh,Noida,"Sector - 125, Noida - UPPCB",29-04-2024 00:00:00,28.5447608,77.3231257,NO2,4,142,49
India,Uttar_Pradesh,Noida,"Sector - 125, Noida - UPPCB",29-04-2024 00:00:00,28.5447608,77.3231257,NH3,4,12,10
India,Uttar_Pradesh,Noida,"Sector - 62, Noida - IMD",29-04-2024 00:00:00,28.6245479,77.3577104,CO,20,30,25
India,Uttar_Pradesh,Noida,"Sector-1, Noida - UPPCB",29-04-2024 00:00:00,28.5898,77.3101,NO2,29,92,61
India,Uttar_Pradesh,Noida,"Sector-1, Noida - UPPCB",29-04-2024 00:00:00,28.5898,77.3101,NH3,1,6,4
India,Uttar_Pradesh,Noida,"Sector-1, Noida - UPPCB",29-04-2024 00:00:00,28.5898,77.3101,OZONE,8,171,101
India,Uttar_Pradesh,Prayagraj,"Jhunsi, Prayagraj - UPPCB",29-04-2024 00:00:00,25.425602,81.917152,PM10,50,131,90
India,Uttar_Pradesh,Prayagraj,"Jhunsi, Prayagraj - UPPCB",29-04-2024 00:00:00,25.425602,81.917152,CO,4,31,17
India,Uttar_Pradesh,Prayagraj,"Jhunsi, Prayagraj - UPPCB",29-04-2024 00:00:00,25.425602,81.917152,OZONE,1,80,38
India,Uttar_Pradesh,Prayagraj,"Motilal Nehru NIT, Prayagraj - UPPCB",29-04-2024 00:00:00,25.494,81.863,SO2,28,35,31
India,Uttar_Pradesh,Prayagraj,"Motilal Nehru NIT, Prayagraj - UPPCB",29-04-2024 00:00:00,25.494,81.863,CO,6,50,28
India,Uttar_Pradesh,Prayagraj,"Nagar Nigam, Prayagraj - UPPCB",29-04-2024 00:00:00,25.44919916 ,81.82735986 ,CO,10,38,24
India,Uttar_Pradesh,Varanasi,"Ardhali Bazar, Varanasi - UPPCB",29-04-2024 00:00:00,25.3505986,82.9083074,NO2,17,33,22
India,Uttar_Pradesh,Varanasi,"Ardhali Bazar, Varanasi - UPPCB",29-04-2024 00:00:00,25.3505986,82.9083074,CO,4,32,18
India,Uttar_Pradesh,Varanasi,"IESD Banaras Hindu University, Varanasi - UPPCB",29-04-2024 00:00:00,25.262326,82.995408,NO2,2,2,2
India,Uttar_Pradesh,Varanasi,"IESD Banaras Hindu University, Varanasi - UPPCB",29-04-2024 00:00:00,25.262326,82.995408,CO,2,17,8
India,Uttar_Pradesh,Varanasi,"Maldahiya, Varanasi - UPPCB",29-04-2024 00:00:00,25.32393,82.99687,CO,1,37,15
India,Uttar_Pradesh,Vrindavan,"Omex Eternity, Vrindavan - UPPCB",29-04-2024 00:00:00,27.5714090,77.6557570,NO2,2,3,3
India,Uttarakhand,Dehradun,"Doon University, Dehradun - UKPCB",29-04-2024 00:00:00,30.269444,78.044167,NO2,1,8,2
India,Uttarakhand,Kashipur,"Govt. Girls Inter College, Kashipur - UKPCB",29-04-2024 00:00:00,29.2124114,78.9611753,NO2,10,55,42
India,Uttarakhand,Kashipur,"Govt. Girls Inter College, Kashipur - UKPCB",29-04-2024 00:00:00,29.2124114,78.9611753,SO2,5,9,8
India,West_Bengal,Asansol,"Asansol Court Area, Asansol - WBPCB",29-04-2024 00:00:00,23.685297,86.945968,PM2.5,188,331,268
India,West_Bengal,Asansol,"Asansol Court Area, Asansol - WBPCB",29-04-2024 00:00:00,23.685297,86.945968,PM10,121,428,168
India,West_Bengal,Barrackpore,"SVSPA Campus, Barrackpore - WBPCB",29-04-2024 00:00:00,22.7605581,88.3617589,OZONE,13,85,41
India,West_Bengal,Durgapur,"PCBL Residential Complex, Durgapur - WBPCB",29-04-2024 00:00:00,23.5087640,87.3544400,PM10,109,372,176
India,West_Bengal,Durgapur,"Sidhu Kanhu Indoor Stadium, Durgapur - WBPCB",29-04-2024 00:00:00,23.5404352,87.2892225,NO2,15,43,29
India,West_Bengal,Durgapur,"Sidhu Kanhu Indoor Stadium, Durgapur - WBPCB",29-04-2024 00:00:00,23.5404352,87.2892225,SO2,12,43,28
India,West_Bengal,Durgapur,"Sidhu Kanhu Indoor Stadium, Durgapur - WBPCB",29-04-2024 00:00:00,23.5404352,87.2892225,CO,20,121,36
India,West_Bengal,Haldia,"Priyambada Housing Estate, Haldia - WBPCB",29-04-2024 00:00:00,22.06047,88.109737,SO2,7,20,11
India,West_Bengal,Howrah,"Belur Math, Howrah - WBPCB",29-04-2024 00:00:00,22.629801,88.352017,PM10,49,119,85
India,West_Bengal,Howrah,"Ghusuri, Howrah - WBPCB",29-04-2024 00:00:00,22.611968,88.347422,NO2,16,20,18
India,West_Bengal,Howrah,"Ghusuri, Howrah - WBPCB",29-04-2024 00:00:00,22.611968,88.347422,SO2,4,6,5
India,West_Bengal,Howrah,"Ghusuri, Howrah - WBPCB",29-04-2024 00:00:00,22.611968,88.347422,OZONE,15,25,20
India,West_Bengal,Kolkata,"Fort William, Kolkata - WBPCB",29-04-2024 00:00:00,22.556640,88.342674,PM2.5,47,81,60
India,West_Bengal,Kolkata,"Fort William, Kolkata - WBPCB",29-04-2024 00:00:00,22.556640,88.342674,SO2,7,34,13
India,West_Bengal,Kolkata,"Fort William, Kolkata - WBPCB",29-04-2024 00:00:00,22.556640,88.342674,OZONE,14,108,51
India,West_Bengal,Kolkata,"Rabindra Bharati University, Kolkata - WBPCB",29-04-2024 00:00:00,22.627847,88.380669,PM10,52,104,72
India,West_Bengal,Kolkata,"Rabindra Sarobar, Kolkata - WBPCB",29-04-2024 00:00:00,22.51106,88.35142,CO,18,31,25
India,West_Bengal,Kolkata,"Rabindra Sarobar, Kolkata - WBPCB",29-04-2024 00:00:00,22.51106,88.35142,OZONE,28,97,58
India,West_Bengal,Kolkata,"Victoria, Kolkata - WBPCB",29-04-2024 00:00:00,22.5448082,88.3403691,PM2.5,42,81,60
India,West_Bengal,Kolkata,"Victoria, Kolkata - WBPCB",29-04-2024 00:00:00,22.5448082,88.3403691,NH3,4,6,4
India,West_Bengal,Siliguri,"Ward-32 Bapupara, Siliguri - WBPCB",29-04-2024 00:00:00,26.6879226,88.4152495,NO2,24,98,48
India,West_Bengal,Siliguri,"Ward-32 Bapupara, Siliguri - WBPCB",29-04-2024 00:00:00,26.6879226,88.4152495,OZONE,14,55,38
India,Andhra_Pradesh,Anantapur,"Gulzarpet, Anantapur - APPCB",29-04-2024 00:00:00,14.675886,77.593027,PM10,NA,NA,NA
India,Andhra_Pradesh,Anantapur,"Gulzarpet, Anantapur - APPCB",29-04-2024 00:00:00,14.675886,77.593027,OZONE,9,68,52
India,Andhra_Pradesh,Kadapa,"Yerramukkapalli, Kadapa - APPCB",29-04-2024 00:00:00,14.465052,78.824187,SO2,2,3,2
India,Andhra_Pradesh,Tirupati,"Tirumala, Tirupati - APPCB",29-04-2024 00:00:00,13.67,79.35,PM10,34,102,60
India,Andhra_Pradesh,Vijayawada,"HB Colony, Vijayawada - APPCB",29-04-2024 00:00:00,16.536107,80.594233,NH3,4,4,4
India,Andhra_Pradesh,Vijayawada,"HB Colony, Vijayawada - APPCB",29-04-2024 00:00:00,16.536107,80.594233,OZONE,9,89,35
India,Andhra_Pradesh,Vijayawada,"Kanuru, Vijayawada - APPCB",29-04-2024 00:00:00,16.486692,80.699436,NO2,NA,NA,NA
India,Andhra_Pradesh,Vijayawada,"Kanuru, Vijayawada - APPCB",29-04-2024 00:00:00,16.486692,80.699436,SO2,NA,NA,NA
India,Andhra_Pradesh,Vijayawada,"Kanuru, Vijayawada - APPCB",29-04-2024 00:00:00,16.486692,80.699436,CO,NA,NA,NA
India,Andhra_Pradesh,Vijayawada,"Rajiv Gandhi Park, Vijayawada - APPCB",29-04-2024 00:00:00,16.509717,80.612222,PM10,39,86,62
India,Andhra_Pradesh,Vijayawada,"Rajiv Gandhi Park, Vijayawada - APPCB",29-04-2024 00:00:00,16.509717,80.612222,NO2,37,52,43
India,Andhra_Pradesh,Visakhapatnam,"GVM Corporation, Visakhapatnam - APPCB",29-04-2024 00:00:00,17.72,83.3,NO2,41,63,53
India,Andhra_Pradesh,Visakhapatnam,"GVM Corporation, Visakhapatnam - APPCB",29-04-2024 00:00:00,17.72,83.3,NH3,3,6,4
India,Andhra_Pradesh,Visakhapatnam,"GVM Corporation, Visakhapatnam - APPCB",29-04-2024 00:00:00,17.72,83.3,CO,1,58,37
India,Assam,Byrnihat,"Central Academy for SFS, Byrnihat - PCBA",29-04-2024 00:00:00,26.071318,91.87488,PM2.5,45,374,143
India,Assam,Byrnihat,"Central Academy for SFS, Byrnihat - PCBA",29-04-2024 00:00:00,26.071318,91.87488,NO2,35,90,62
India,Assam,Byrnihat,"Central Academy for SFS, Byrnihat - PCBA",29-04-2024 00:00:00,26.071318,91.87488,OZONE,7,122,24
India,Assam,Guwahati,"IITG, Guwahati - PCBA",29-04-2024 00:00:00,26.2028636,91.70046436,NO2,1,4,1
India,Assam,Guwahati,"IITG, Guwahati - PCBA",29-04-2024 00:00:00,26.2028636,91.70046436,NH3,5,5,5
India,Assam,Guwahati,"IITG, Guwahati - PCBA",29-04-2024 00:00:00,26.2028636,91.70046436,OZONE,7,36,33
India,Assam,Guwahati,"LGBI Airport, Guwahati - PCBA",29-04-2024 00:00:00,26.10887,91.589544,PM10,75,186,117
India,Assam,Guwahati,"Railway Colony, Guwahati - PCBA",29-04-2024 00:00:00,26.181742,91.78063,CO,14,27,18
India,Assam,Nagaon,"Christianpatty, Nagaon - PCBA",29-04-2024 00:00:00,26.349082,92.68449,NO2,2,10,5
India,Assam,Nagaon,"Christianpatty, Nagaon - PCBA",29-04-2024 00:00:00,26.349082,92.68449,NH3,3,4,3
India,Assam,Nalbari,"Bata Chowk, Nalbari - PCBA",29-04-2024 00:00:00,26.446912,91.439057,PM2.5,48,78,63
India,Assam,Nalbari,"Bata Chowk, Nalbari - PCBA",29-04-2024 00:00:00,26.446912,91.439057,NO2,7,11,9
India,Assam,Nalbari,"Bata Chowk, Nalbari - PCBA",29-04-2024 00:00:00,26.446912,91.439057,CO,46,94,86
India,Assam,Sivasagar,"Girls College, Sivasagar - PCBA",29-04-2024 00:00:00,26.987634,94.636574,PM2.5,31,46,39
India,Assam,Sivasagar,"Girls College, Sivasagar - PCBA",29-04-2024 00:00:00,26.987634,94.636574,NO2,10,14,12
India,Bihar,Araria,"Kharahiya Basti, Araria - BSPCB",29-04-2024 00:00:00,26.146529,87.454184,PM2.5,NA,NA,NA
India,Bihar,Araria,"Kharahiya Basti, Araria - BSPCB",29-04-2024 00:00:00,26.146529,87.454184,NO2,NA,NA,NA
India,Bihar,Araria,"Kharahiya Basti, Araria - BSPCB",29-04-2024 00:00:00,26.146529,87.454184,NH3,NA,NA,NA
India,Bihar,Araria,"Kharahiya Basti, Araria - BSPCB",29-04-2024 00:00:00,26.146529,87.454184,SO2,NA,NA,NA
India,Bihar,Araria,"Kharahiya Basti, Araria - BSPCB",29-04-2024 00:00:00,26.146529,87.454184,CO,20,30,24
India,Bihar,Arrah,"New DM Office, Arrah - BSPCB",29-04-2024 00:00:00,25.5626095,84.663264,PM10,58,171,95
India,Bihar,Aurangabad,"Gurdeo Nagar, Aurangabad - BSPCB",29-04-2024 00:00:00,24.75746,84.366208,PM10,NA,NA,NA
India,Bihar,Aurangabad,"Gurdeo Nagar, Aurangabad - BSPCB",29-04-2024 00:00:00,24.75746,84.366208,OZONE,5,71,51
India,Bihar,Bettiah,"Kamalnath Nagar, Bettiah - BSPCB",29-04-2024 00:00:00,26.80365,84.51954,OZONE,1,19,14
India,Bihar,Bhagalpur,"DM Office_Kachari Chowk, Bhagalpur - BSPCB",29-04-2024 00:00:00,25.251013,86.989001,NH3,4,8,5
India,Bihar,Bhagalpur,"Mayaganj, Bhagalpur - BSPCB",29-04-2024 00:00:00,25.265194,87.012947,PM2.5,65,300,131
India,Bihar,Bhagalpur,"Mayaganj, Bhagalpur - BSPCB",29-04-2024 00:00:00,25.265194,87.012947,NO2,2,12,7
India,Bihar,Bihar Sharif,"D M Colony, Bihar Sharif - BSPCB",29-04-2024 00:00:00,25.204762,85.514960,PM2.5,NA,NA,NA
India,Bihar,Chhapra,"Darshan Nagar, Chhapra - BSPCB",29-04-2024 00:00:00,25.7808257,84.7446768,OZONE,1,3,1
India,Bihar,Gaya,"SFTI Kusdihra, Gaya - BSPCB",29-04-2024 00:00:00,24.762518,84.982348,OZONE,8,83,56
India,Bihar,Hajipur,"Industrial Area, Hajipur - BSPCB",29-04-2024 00:00:00,25.697189,85.245900,SO2,8,9,8
India,Bihar,Hajipur,"Industrial Area, Hajipur - BSPCB",29-04-2024 00:00:00,25.697189,85.245900,OZONE,15,75,44
India,Bihar,Kishanganj,"SDM Office_Khagra, Kishanganj - BSPCB",29-04-2024 00:00:00,26.0881305,87.93840336,PM10,131,224,171
India,Bihar,Manguraha,"Forest Rest House, Manguraha - BSPCB",29-04-2024 00:00:00,27.308328,84.531742,SO2,NA,NA,NA
India,Bihar,Munger,"Town Hall, Munger - BSPCB",29-04-2024 00:00:00,25.376776,86.471523,NO2,4,6,5
India,Bihar,Munger,"Town Hall, Munger - BSPCB",29-04-2024 00:00:00,25.376776,86.471523,CO,29,96,51
India,Bihar,Muzaffarpur,"Buddha Colony, Muzaffarpur - BSPCB",29-04-2024 00:00:00,26.11442,85.39813,PM10,132,343,252
India,Bihar,Muzaffarpur,"Buddha Colony, Muzaffarpur - BSPCB",29-04-2024 00:00:00,26.11442,85.39813,CO,12,42,27
India,Bihar,Muzaffarpur,"MIT-Daudpur Kothi, Muzaffarpur - BSPCB",29-04-2024 00:00:00,26.1403345,85.3650192,NO2,3,6,5
India,Bihar,Muzaffarpur,"MIT-Daudpur Kothi, Muzaffarpur - BSPCB",29-04-2024 00:00:00,26.1403345,85.3650192,NH3,1,2,1
India,Bihar,Muzaffarpur,"MIT-Daudpur Kothi, Muzaffarpur - BSPCB",29-04-2024 00:00:00,26.1403345,85.3650192,SO2,4,4,4
India,Bihar,Patna,"DRM Office Danapur, Patna - BSPCB",29-04-2024 00:00:00,25.586562,85.043586,PM10,114,180,143
India,Bihar,Patna,"Govt. High School Shikarpur, Patna - BSPCB",29-04-2024 00:00:00,25.592539,85.227158,NO2,17,22,19
India,Bihar,Patna,"Govt. High School Shikarpur, Patna - BSPCB",29-04-2024 00:00:00,25.592539,85.227158,NH3,5,5,5
India,Bihar,Patna,"IGSC Planetarium Complex, Patna - BSPCB",29-04-2024 00:00:00,25.610369,85.132568,CO,12,13,12
India,Bihar,Patna,"Muradpur, Patna - BSPCB",29-04-2024 00:00:00,25.619651,85.147382,NO2,6,19,12
India,Bihar,Patna,"Muradpur, Patna - BSPCB",29-04-2024 00:00:00,25.619651,85.147382,NH3,2,5,3
India,Bihar,Patna,"Rajbansi Nagar, Patna - BSPCB",29-04-2024 00:00:00,25.599486,85.113666,CO,19,64,39
India,Bihar,Rajgir,"Dangi Tola, Rajgir - BSPCB",29-04-2024 00:00:00,25.03280,85.41948,SO2,2,5,4
India,Bihar,Sasaram,"Dada Peer, Sasaram - BSPCB",29-04-2024 00:00:00,24.952822,84.002396,NH3,7,19,14
India,Bihar,Siwan,"Chitragupta Nagar, Siwan - BSPCB",29-04-2024 00:00:00,26.2271665,84.3570427,PM2.5,NA,NA,NA
India,Bihar,Siwan,"Chitragupta Nagar, Siwan - BSPCB",29-04-2024 00:00:00,26.2271665,84.3570427,PM10,NA,NA,NA
India,Bihar,Siwan,"Chitragupta Nagar, Siwan - BSPCB",29-04-2024 00:00:00,26.2271665,84.3570427,NH3,1,4,2
India,Bihar,Siwan,"Chitragupta Nagar, Siwan - BSPCB",29-04-2024 00:00:00,26.2271665,84.3570427,SO2,7,35,28
India,Bihar,Siwan,"Chitragupta Nagar, Siwan - BSPCB",29-04-2024 00:00:00,26.2271665,84.3570427,OZONE,16,142,93
India,Chandigarh,Chandigarh,"Sector 22, Chandigarh - CPCC",29-04-2024 00:00:00,30.735567,76.775714,CO,32,60,41
India,Chandigarh,Chandigarh,"Sector 22, Chandigarh - CPCC",29-04-2024 00:00:00,30.735567,76.775714,OZONE,17,161,76
India,Chandigarh,Chandigarh,"Sector-25, Chandigarh - CPCC",29-04-2024 00:00:00,30.751462,76.762879,SO2,8,39,13
India,Chandigarh,Chandigarh,"Sector-25, Chandigarh - CPCC",29-04-2024 00:00:00,30.751462,76.762879,OZONE,3,35,20
India,Chandigarh,Chandigarh,"Sector-53, Chandigarh - CPCC",29-04-2024 00:00:00,30.719859,76.738637,PM2.5,23,130,53
India,Chandigarh,Chandigarh,"Sector-53, Chandigarh - CPCC",29-04-2024 00:00:00,30.719859,76.738637,CO,30,97,61
India,Chandigarh,Chandigarh,"Sector-53, Chandigarh - CPCC",29-04-2024 00:00:00,30.719859,76.738637,OZONE,11,61,37
India,Chhattisgarh,Bhilai,"32Bungalows, Bhilai - CECB",29-04-2024 00:00:00,21.194815,81.314770,SO2,14,18,15
India,Chhattisgarh,Bhilai,"Civic Center, Bhilai - Bhilai Steel Plant",29-04-2024 00:00:00,21.185571,81.343175,SO2,8,12,10
India,Chhattisgarh,Bhilai,"Hathkhoj, Bhilai - CECB",29-04-2024 00:00:00,21.224231,81.408350,PM2.5,9,152,76
India,Chhattisgarh,Bhilai,"Hathkhoj, Bhilai - CECB",29-04-2024 00:00:00,21.224231,81.408350,PM10,18,186,96
India,Chhattisgarh,Bhilai,"Hathkhoj, Bhilai - CECB",29-04-2024 00:00:00,21.224231,81.408350,SO2,14,36,24
India,Chhattisgarh,Bhilai,"Hathkhoj, Bhilai - CECB",29-04-2024 00:00:00,21.224231,81.408350,CO,14,106,42
India,Chhattisgarh,Bhilai,"Hathkhoj, Bhilai - CECB",29-04-2024 00:00:00,21.224231,81.408350,OZONE,13,26,19
India,Chhattisgarh,Bilaspur,"Mangala, Bilaspur - NTPC",29-04-2024 00:00:00,22.08815,82.13737,PM10,40,144,70
India,Chhattisgarh,Bilaspur,"Mangala, Bilaspur - NTPC",29-04-2024 00:00:00,22.08815,82.13737,CO,26,34,33
India,Chhattisgarh,Chhal,"Nawapara SECL Colony, Chhal - CECB",29-04-2024 00:00:00,22.118125,83.140608,SO2,1,23,13
India,Chhattisgarh,Chhal,"Nawapara SECL Colony, Chhal - CECB",29-04-2024 00:00:00,22.118125,83.140608,OZONE,4,63,31
India,Chhattisgarh,Korba,"Rampur, Korba - CECB",29-04-2024 00:00:00,22.368195,82.746431,NO2,39,70,53
India,Chhattisgarh,Korba,"Rampur, Korba - CECB",29-04-2024 00:00:00,22.368195,82.746431,CO,16,45,27
India,Chhattisgarh,Korba,"Urja Nagar, Korba - CECB",29-04-2024 00:00:00,22.348441,82.549611,NH3,2,12,6
India,Chhattisgarh,Milupara,"Govt. Higher Secondary School, Milupara - CECB",29-04-2024 00:00:00,22.1910172,83.5197009,SO2,NA,NA,NA
India,Chhattisgarh,Raipur,"AIIMS, Raipur - CECB",29-04-2024 00:00:00,21.258815,81.578979,SO2,6,32,15
India,Chhattisgarh,Raipur,"Bhatagaon New ISBT, Raipur - CECB",29-04-2024 00:00:00,21.219665,81.630094,PM2.5,18,56,35
India,Chhattisgarh,Raipur,"Krishak Nagar, Raipur - CECB",29-04-2024 00:00:00,21.237755,81.705301,PM10,35,102,60
India,Delhi,Delhi,"Alipur, Delhi - DPCC",29-04-2024 00:00:00,28.815329,77.153010,NO2,9,76,30
India,Delhi,Delhi,"Anand Vihar, Delhi - DPCC",29-04-2024 00:00:00,28.647622,77.3158090,PM10,NA,NA,NA
India,Delhi,Delhi,"Anand Vihar, Delhi - DPCC",29-04-2024 00:00:00,28.647622,77.3158090,OZONE,7,71,30
India,Delhi,Delhi,"Ashok Vihar, Delhi - DPCC",29-04-2024 00:00:00,28.695381,77.181665,PM10,122,307,165
India,Delhi,Delhi,"Ashok Vihar, Delhi - DPCC",29-04-2024 00:00:00,28.695381,77.181665,CO,1,62,36
India,Delhi,Delhi,"Aya Nagar, Delhi - IMD",29-04-2024 00:00:00,28.4706914,77.1099364,NO2,27,43,32
India,Delhi,Delhi,"Bawana, Delhi - DPCC",29-04-2024 00:00:00,28.776200,77.051074,PM2.5,38,382,133
India,Delhi,Delhi,"Bawana, Delhi - DPCC",29-04-2024 00:00:00,28.776200,77.051074,NO2,11,69,33
India,Delhi,Delhi,"Bawana, Delhi - DPCC",29-04-2024 00:00:00,28.776200,77.051074,SO2,6,69,19
India,Delhi,Delhi,"Burari Crossing, Delhi - IMD",29-04-2024 00:00:00,28.7256504,77.2011573,NO2,11,14,13
India,Delhi,Delhi,"Burari Crossing, Delhi - IMD",29-04-2024 00:00:00,28.7256504,77.2011573,CO,20,44,30
India,Delhi,Delhi,"Chandni Chowk, Delhi - IITM",29-04-2024 00:00:00,28.656756,77.227234,PM2.5,130,273,164
India,Delhi,Delhi,"DTU, Delhi - CPCB",29-04-2024 00:00:00,28.7500499,77.1112615,PM10,104,325,149
India,Delhi,Delhi,"DTU, Delhi - CPCB",29-04-2024 00:00:00,28.7500499,77.1112615,CO,16,57,35
India,Delhi,Delhi,"Dwarka-Sector 8, Delhi - DPCC ",29-04-2024 00:00:00,28.5710274,77.0719006,PM10,102,366,175
India,Delhi,Delhi,"Dwarka-Sector 8, Delhi - DPCC ",29-04-2024 00:00:00,28.5710274,77.0719006,SO2,3,13,9
India,Delhi,Delhi,"Dwarka-Sector 8, Delhi - DPCC ",29-04-2024 00:00:00,28.5710274,77.0719006,OZONE,5,87,31
India,Delhi,Delhi,"IGI Airport (T3), Delhi - IMD",29-04-2024 00:00:00,28.5627763,77.1180053,CO,28,82,46
India,Delhi,Delhi,"ITO, Delhi - CPCB",29-04-2024 00:00:00,28.628624,77.241060,NH3,3,6,4
India,Delhi,Delhi,"ITO, Delhi - CPCB",29-04-2024 00:00:00,28.628624,77.241060,OZONE,12,86,36
India,Delhi,Delhi,"Jahangirpuri, Delhi - DPCC",29-04-2024 00:00:00,28.732820,77.170633,SO2,22,52,34
India,Delhi,Delhi,"Jawaharlal Nehru Stadium, Delhi - DPCC",29-04-2024 00:00:00,28.580280,77.233829,OZONE,10,231,93
India,Delhi,Delhi,"Lodhi Road, Delhi - IITM",29-04-2024 00:00:00,28.588333,77.221667,PM2.5,64,340,186
India,Delhi,Delhi,"Lodhi Road, Delhi - IITM",29-04-2024 00:00:00,28.588333,77.221667,PM10,90,500,143
India,Delhi,Delhi,"Lodhi Road, Delhi - IITM",29-04-2024 00:00:00,28.588333,77.221667,NH3,8,12,9
India,Delhi,Delhi,"Mandir Marg, Delhi - DPCC",29-04-2024 00:00:00,28.636429,77.201067,CO,10,72,37
India,Delhi,Delhi,"Mundka, Delhi - DPCC",29-04-2024 00:00:00,28.684678,77.076574,PM2.5,40,387,135
India,Delhi,Delhi,"Mundka, Delhi - DPCC",29-04-2024 00:00:00,28.684678,77.076574,CO,36,88,54
India,Delhi,Delhi,"NSIT Dwarka, Delhi - CPCB",29-04-2024 00:00:00,28.60909,77.0325413,NH3,9,13,11
India,Delhi,Delhi,"NSIT Dwarka, Delhi - CPCB",29-04-2024 00:00:00,28.60909,77.0325413,SO2,3,20,11
India,Delhi,Delhi,"Najafgarh, Delhi - DPCC",29-04-2024 00:00:00,28.570173,76.933762,OZONE,18,130,75
India,Delhi,Delhi,"Narela, Delhi - DPCC",29-04-2024 00:00:00,28.822836,77.101981,SO2,7,60,22
India,Delhi,Delhi,"Nehru Nagar, Delhi - DPCC",29-04-2024 00:00:00,28.567890,77.250515,NO2,8,14,10
India,Delhi,Delhi,"Nehru Nagar, Delhi - DPCC",29-04-2024 00:00:00,28.567890,77.250515,CO,52,134,62
India,Delhi,Delhi,"Okhla Phase-2, Delhi - DPCC",29-04-2024 00:00:00,28.530785,77.271255,PM2.5,39,240,93
India,Delhi,Delhi,"Okhla Phase-2, Delhi - DPCC",29-04-2024 00:00:00,28.530785,77.271255,NH3,7,12,9
India,Delhi,Delhi,"Pusa, Delhi - DPCC",29-04-2024 00:00:00,28.639652,77.146275,PM10,101,290,160
India,Delhi,Delhi,"Pusa, Delhi - IMD",29-04-2024 00:00:00,28.636110,77.173332,CO,33,73,48
India,Delhi,Delhi,"R K Puram, Delhi - DPCC",29-04-2024 00:00:00,28.563262,77.186937,PM10,118,246,146
India,Delhi,Delhi,"R K Puram, Delhi - DPCC",29-04-2024 00:00:00,28.563262,77.186937,OZONE,12,181,72
India,Delhi,Delhi,"Shadipur, Delhi - CPCB",29-04-2024 00:00:00,28.6514781,77.1473105,PM2.5,72,454,225
India,Delhi,Delhi,"Shadipur, Delhi - CPCB",29-04-2024 00:00:00,28.6514781,77.1473105,OZONE,61,113,85
India,Delhi,Delhi,"Sirifort, Delhi - CPCB",29-04-2024 00:00:00,28.5504249,77.2159377,NO2,57,66,61
India,Delhi,Delhi,"Sri Aurobindo Marg, Delhi - DPCC",29-04-2024 00:00:00,28.531346,77.190156,SO2,10,25,14
India,Delhi,Delhi,"Wazirpur, Delhi - DPCC",29-04-2024 00:00:00,28.699793,77.165453,PM10,114,284,164
India,Delhi,Delhi,"Wazirpur, Delhi - DPCC",29-04-2024 00:00:00,28.699793,77.165453,NH3,12,12,12
India,Delhi,Delhi,"Wazirpur, Delhi - DPCC",29-04-2024 00:00:00,28.699793,77.165453,SO2,5,28,13
India,Gujarat,Ahmedabad,"Chandkheda, Ahmedabad - IITM",29-04-2024 00:00:00,23.107969,72.574648,CO,14,34,24
India,Gujarat,Ahmedabad,"Chandkheda, Ahmedabad - IITM",29-04-2024 00:00:00,23.107969,72.574648,OZONE,7,56,26
India,Gujarat,Ahmedabad,"Gyaspur, Ahmedabad - IITM",29-04-2024 00:00:00,22.977134,72.553024,NO2,8,13,10
India,Gujarat,Ahmedabad,"Gyaspur, Ahmedabad - IITM",29-04-2024 00:00:00,22.977134,72.553024,NH3,2,19,10
India,Gujarat,Ahmedabad,"Gyaspur, Ahmedabad - IITM",29-04-2024 00:00:00,22.977134,72.553024,OZONE,4,43,21
India,Gujarat,Ahmedabad,"Rakhial, Ahmedabad - IITM",29-04-2024 00:00:00,23.016834,72.625775,NH3,1,9,4
India,Gujarat,Ahmedabad,"SAC ISRO Satellite, Ahmedabad - IITM",29-04-2024 00:00:00,23.023389,72.515201,NH3,2,4,2
India,Gujarat,Ahmedabad,"SVPI Airport Hansol, Ahmedabad - IITM",29-04-2024 00:00:00,23.076793,72.627874,PM10,74,167,119
India,Gujarat,Ahmedabad,"SVPI Airport Hansol, Ahmedabad - IITM",29-04-2024 00:00:00,23.076793,72.627874,OZONE,7,38,21
India,Gujarat,Ankleshwar,"GIDC, Ankleshwar - GPCB",29-04-2024 00:00:00,21.613267,73.010555,NO2,NA,NA,NA
India,Gujarat,Gandhinagar,"Sector-10, Gandhinagar - GPCB",29-04-2024 00:00:00,23.221714,72.654328,NH3,1,27,4
India,Gujarat,Gandhinagar,"Sector-10, Gandhinagar - GPCB",29-04-2024 00:00:00,23.221714,72.654328,OZONE,2,47,18
India,Gujarat,Nandesari,"GIDC, Nandesari - Nandesari Ind. Association",29-04-2024 00:00:00,22.410802,73.097923,PM2.5,47,500,175
India,Gujarat,Nandesari,"GIDC, Nandesari - Nandesari Ind. Association",29-04-2024 00:00:00,22.410802,73.097923,PM10,83,500,175
India,Gujarat,Surat,"Science Center, Surat - SMC",29-04-2024 00:00:00,21.170046,72.795405,NO2,38,81,56
India,Gujarat,Vapi,"Phase-1 GIDC, Vapi - GPCB",29-04-2024 00:00:00,20.362421,72.918013,PM2.5,34,156,66
India,Gujarat,Vapi,"Phase-1 GIDC, Vapi - GPCB",29-04-2024 00:00:00,20.362421,72.918013,NO2,6,7,7
India,Gujarat,Vapi,"Phase-1 GIDC, Vapi - GPCB",29-04-2024 00:00:00,20.362421,72.918013,SO2,53,54,53
India,Gujarat,Vatva,"Phase-4 GIDC, Vatva - GPCB",29-04-2024 00:00:00,22.969611,72.643500,SO2,1,63,18
India,Haryana,Ambala,"Patti Mehar, Ambala - HSPCB",29-04-2024 00:00:00,30.379589,76.778328,PM2.5,NA,NA,NA
India,Haryana,Ambala,"Patti Mehar, Ambala - HSPCB",29-04-2024 00:00:00,30.379589,76.778328,SO2,NA,NA,NA
India,Haryana,Ballabgarh,"Nathu Colony, Ballabgarh - HSPCB",29-04-2024 00:00:00,28.3419248,77.319699,CO,3,66,30
India,Haryana,Charkhi Dadri,"Mini Secretariat, Charkhi Dadri - HSPCB",29-04-2024 00:00:00,28.593883,76.270653,OZONE,13,18,16
India,Haryana,Dharuhera,"Municipal Corporation Office, Dharuhera -  HSPCB",29-04-2024 00:00:00,28.206800,76.799700,PM10,121,311,220
India,Haryana,Dharuhera,"Municipal Corporation Office, Dharuhera -  HSPCB",29-04-2024 00:00:00,28.206800,76.799700,NH3,9,26,20
India,Haryana,Dharuhera,"Municipal Corporation Office, Dharuhera -  HSPCB",29-04-2024 00:00:00,28.206800,76.799700,SO2,5,69,27
India,Haryana,Dharuhera,"Municipal Corporation Office, Dharuhera -  HSPCB",29-04-2024 00:00:00,28.206800,76.799700,CO,8,52,31
India,Haryana,Faridabad,"New Industrial Town, Faridabad - HSPCB",29-04-2024 00:00:00,28.39072,77.30059,PM10,132,256,161
India,Haryana,Faridabad,"New Industrial Town, Faridabad - HSPCB",29-04-2024 00:00:00,28.39072,77.30059,OZONE,5,260,128
India,Haryana,Faridabad,"Sector 11, Faridabad - HSPCB",29-04-2024 00:00:00,28.376058,77.315741,PM2.5,187,384,262
India,Haryana,Faridabad,"Sector 11, Faridabad - HSPCB",29-04-2024 00:00:00,28.376058,77.315741,SO2,2,3,2
India,Haryana,Faridabad,"Sector 30, Faridabad - HSPCB",29-04-2024 00:00:00,28.4417,77.3217,OZONE,10,10,10
India,Haryana,Fatehabad,"Huda Sector, Fatehabad - HSPCB",29-04-2024 00:00:00,29.503664,75.467934,PM2.5,27,80,46
India,Haryana,Fatehabad,"Huda Sector, Fatehabad - HSPCB",29-04-2024 00:00:00,29.503664,75.467934,NO2,29,31,30
India,Haryana,Gurugram,"Teri Gram, Gurugram - HSPCB",29-04-2024 00:00:00,28.4275,77.1465,PM2.5,NA,NA,NA
India,Haryana,Gurugram,"Teri Gram, Gurugram - HSPCB",29-04-2024 00:00:00,28.4275,77.1465,CO,NA,NA,NA
India,Haryana,Gurugram,"Vikas Sadan, Gurugram - HSPCB",29-04-2024 00:00:00,28.4501238,77.0263051,OZONE,7,68,28
India,Haryana,Hisar,"Urban Estate-II, Hisar - HSPCB",29-04-2024 00:00:00,29.140560,75.744941,PM2.5,59,98,73
India,Haryana,Hisar,"Urban Estate-II, Hisar - HSPCB",29-04-2024 00:00:00,29.140560,75.744941,CO,20,40,30
India,Haryana,Hisar,"Urban Estate-II, Hisar - HSPCB",29-04-2024 00:00:00,29.140560,75.744941,OZONE,45,170,97
India,Haryana,Jind,"Police Lines, Jind - HSPCB",29-04-2024 00:00:00,29.307814,76.337619,NO2,9,15,12
India,Haryana,Jind,"Police Lines, Jind - HSPCB",29-04-2024 00:00:00,29.307814,76.337619,NH3,1,5,4
India,Haryana,Kaithal,"Rishi Nagar, Kaithal - HSPCB",29-04-2024 00:00:00,29.8006,76.4155,PM10,70,148,98
India,Haryana,Karnal,"Sector-12, Karnal - HSPCB",29-04-2024 00:00:00,29.695300,77.002700,NO2,7,12,10
India,Haryana,Kurukshetra,"Sector-7, Kurukshetra - HSPCB",29-04-2024 00:00:00,29.966942,76.875879,NO2,10,10,10
India,Haryana,Mandikhera,"General Hospital, Mandikhera - HSPCB",29-04-2024 00:00:00,27.9002,76.9938,PM2.5,7,95,36
India,Haryana,Mandikhera,"General Hospital, Mandikhera - HSPCB",29-04-2024 00:00:00,27.9002,76.9938,NO2,18,23,21
India,Haryana,Mandikhera,"General Hospital, Mandikhera - HSPCB",29-04-2024 00:00:00,27.9002,76.9938,NH3,16,19,18
India,Haryana,Manesar,"Sector-2 IMT, Manesar - HSPCB",29-04-2024 00:00:00,28.360699,76.936090,NH3,1,3,2
India,Haryana,Narnaul,"Shastri Nagar, Narnaul - HSPCB",29-04-2024 00:00:00,28.060249,76.113115,NH3,5,28,15
India,Haryana,Narnaul,"Shastri Nagar, Narnaul - HSPCB",29-04-2024 00:00:00,28.060249,76.113115,SO2,13,13,13
India,Haryana,Narnaul,"Shastri Nagar, Narnaul - HSPCB",29-04-2024 00:00:00,28.060249,76.113115,CO,10,39,19
India,Haryana,Palwal,"Shyam Nagar, Palwal - HSPCB",29-04-2024 00:00:00,28.1485564,77.3320667,PM10,97,196,129
India,Haryana,Palwal,"Shyam Nagar, Palwal - HSPCB",29-04-2024 00:00:00,28.1485564,77.3320667,CO,20,38,29
India,Haryana,Panchkula,"Sector-6, Panchkula - HSPCB ",29-04-2024 00:00:00,30.7057778,76.8531805555555,CO,8,17,12
India,Haryana,Panchkula,"Sector-6, Panchkula - HSPCB ",29-04-2024 00:00:00,30.7057778,76.8531805555555,OZONE,28,40,37
India,Haryana,Panipat,"Sector-18, Panipat - HSPCB",29-04-2024 00:00:00,29.497973,76.993331,PM2.5,128,133,130
India,Haryana,Panipat,"Sector-18, Panipat - HSPCB",29-04-2024 00:00:00,29.497973,76.993331,NH3,2,3,3
India,Haryana,Panipat,"Sector-18, Panipat - HSPCB",29-04-2024 00:00:00,29.497973,76.993331,CO,24,26,25
India,Haryana,Sonipat,"Murthal, Sonipat - HSPCB",29-04-2024 00:00:00,29.027200,77.062100,NH3,2,10,8
India,Haryana,Sonipat,"Murthal, Sonipat - HSPCB",29-04-2024 00:00:00,29.027200,77.062100,SO2,12,29,20
India,Haryana,Yamuna Nagar,"Gobind Pura, Yamuna Nagar - HSPCB",29-04-2024 00:00:00,30.1480566,77.2893471,PM2.5,NA,NA,NA
India,Haryana,Yamuna Nagar,"Gobind Pura, Yamuna Nagar - HSPCB",29-04-2024 00:00:00,30.1480566,77.2893471,SO2,NA,NA,NA
India,Himachal Pradesh,Baddi,"HIMUDA Complex Phase-1, Baddi - HPPCB",29-04-2024 00:00:00,30.943887,76.801991,NH3,2,3,2
India,Himachal Pradesh,Baddi,"HIMUDA Complex Phase-1, Baddi - HPPCB",29-04-2024 00:00:00,30.943887,76.801991,CO,8,28,16
India,Himachal Pradesh,Baddi,"HIMUDA Complex Phase-1, Baddi - HPPCB",29-04-2024 00:00:00,30.943887,76.801991,OZONE,92,153,116
India,Jharkhand,Dhanbad,"Kalakusuma, Dhanbad - DMC",29-04-2024 00:00:00,23.811548,86.481238,PM10,114,118,116
India,Karnataka,Bagalkot,"Vidayagiri, Bagalkot - KSPCB",29-04-2024 00:00:00,16.172806,75.659694,NO2,9,10,9
India,Karnataka,Bengaluru,"BTM Layout, Bengaluru - CPCB",29-04-2024 00:00:00,12.9135218,77.5950804,NH3,4,4,4
India,Karnataka,Bengaluru,"BTM Layout, Bengaluru - CPCB",29-04-2024 00:00:00,12.9135218,77.5950804,SO2,9,9,9
India,Karnataka,Bengaluru,"BTM Layout, Bengaluru - CPCB",29-04-2024 00:00:00,12.9135218,77.5950804,CO,24,28,26
India,Karnataka,Bengaluru,"BTM Layout, Bengaluru - CPCB",29-04-2024 00:00:00,12.9135218,77.5950804,OZONE,19,97,66
India,Karnataka,Bengaluru,"Bapuji Nagar, Bengaluru - KSPCB",29-04-2024 00:00:00,12.951913,77.539784,PM2.5,66,143,89
India,Karnataka,Bengaluru,"Bapuji Nagar, Bengaluru - KSPCB",29-04-2024 00:00:00,12.951913,77.539784,NO2,10,11,11
India,Karnataka,Bengaluru,"Hebbal, Bengaluru - KSPCB",29-04-2024 00:00:00,13.029152,77.585901,PM10,51,120,83
India,Karnataka,Bengaluru,"Hebbal, Bengaluru - KSPCB",29-04-2024 00:00:00,13.029152,77.585901,SO2,10,22,15
India,Karnataka,Bengaluru,"Hombegowda Nagar, Bengaluru - KSPCB",29-04-2024 00:00:00,12.938539,77.590100,PM2.5,31,65,45
India,Karnataka,Bengaluru,"Hombegowda Nagar, Bengaluru - KSPCB",29-04-2024 00:00:00,12.938539,77.590100,PM10,46,98,67
India,Karnataka,Bengaluru,"Jayanagar 5th Block, Bengaluru - KSPCB",29-04-2024 00:00:00,12.920984,77.584908,OZONE,33,39,36
India,Karnataka,Bengaluru,"Kasturi Nagar, Bengaluru - KSPCB",29-04-2024 00:00:00,13.003872,77.664217,NH3,3,4,4
India,Karnataka,Bengaluru,"Kasturi Nagar, Bengaluru - KSPCB",29-04-2024 00:00:00,13.003872,77.664217,SO2,10,10,10
India,Karnataka,Bengaluru,"Kasturi Nagar, Bengaluru - KSPCB",29-04-2024 00:00:00,13.003872,77.664217,CO,20,25,23
India,Karnataka,Bengaluru,"Peenya, Bengaluru - CPCB",29-04-2024 00:00:00,13.0270199,77.494094,PM10,55,92,72
India,Karnataka,Bengaluru,"RVCE-Mailasandra, Bengaluru - KSPCB",29-04-2024 00:00:00,12.921418,77.502466,SO2,8,11,9
India,Karnataka,Bengaluru,"RVCE-Mailasandra, Bengaluru - KSPCB",29-04-2024 00:00:00,12.921418,77.502466,OZONE,39,39,39
India,Karnataka,Bengaluru,"Sanegurava Halli, Bengaluru - KSPCB",29-04-2024 00:00:00,12.990328,77.5431385,CO,7,22,15
India,Karnataka,Bengaluru,"Shivapura_Peenya, Bengaluru - KSPCB",29-04-2024 00:00:00,13.0246342,77.5080115,NO2,15,16,16
India,Karnataka,Bidar,"Naubad, Bidar - KSPCB",29-04-2024 00:00:00,17.930306,77.482194,PM2.5,69,92,82
India,Karnataka,Bidar,"Naubad, Bidar - KSPCB",29-04-2024 00:00:00,17.930306,77.482194,SO2,17,24,19
India,Karnataka,Bidar,"Naubad, Bidar - KSPCB",29-04-2024 00:00:00,17.930306,77.482194,OZONE,28,45,42
India,Karnataka,Chikkaballapur,"Chikkaballapur Rural, Chikkaballapur - KSPCB",29-04-2024 00:00:00,13.428828,77.731418,NO2,6,15,9
India,Karnataka,Chikkaballapur,"Chikkaballapur Rural, Chikkaballapur - KSPCB",29-04-2024 00:00:00,13.428828,77.731418,SO2,17,30,22
India,Karnataka,Chikkaballapur,"Chikkaballapur Rural, Chikkaballapur - KSPCB",29-04-2024 00:00:00,13.428828,77.731418,CO,20,36,21
India,Karnataka,Chikkamagaluru,"Kalyana Nagara, Chikkamagaluru - KSPCB",29-04-2024 00:00:00,13.328028,75.797056,NH3,2,4,3
India,Karnataka,Davanagere,"Devaraj Urs Badavane, Davanagere - KSPCB",29-04-2024 00:00:00,14.475800,75.905200,PM10,38,245,68
India,Karnataka,Davanagere,"Devaraj Urs Badavane, Davanagere - KSPCB",29-04-2024 00:00:00,14.475800,75.905200,OZONE,20,23,21
India,Karnataka,Dharwad,"Kalabhavan, Dharwad - KSPCB",29-04-2024 00:00:00,15.459706,75.008381,PM2.5,51,126,76
India,Karnataka,Dharwad,"Kalabhavan, Dharwad - KSPCB",29-04-2024 00:00:00,15.459706,75.008381,OZONE,2,33,2
India,Karnataka,Gadag,"Panchal Nagar, Gadag - KSPCB",29-04-2024 00:00:00,15.411456,75.638133,NO2,5,23,14
India,Karnataka,Haveri,"Ashwini Nagar, Haveri - KSPCB",29-04-2024 00:00:00,14.791800,75.389600,PM2.5,NA,NA,NA
India,Karnataka,Hubballi,"Deshpande Nagar, Hubballi - KSPCB",29-04-2024 00:00:00,15.351773,75.140726,NO2,NA,NA,NA
India,Karnataka,Hubballi,"Lingaraj Nagar, Hubballi - KSPCB",29-04-2024 00:00:00,15.3714823,75.1160168,OZONE,29,87,55
India,Karnataka,Kalaburagi,"Lal Bahadur Shastri Nagar, Kalaburagi - KSPCB",29-04-2024 00:00:00,17.321993,76.822628,NO2,11,11,11
India,Karnataka,Kalaburagi,"Mahatma Basaveswar Colony, Kalaburgi - KSPCB",29-04-2024 00:00:00,17.336318,76.847397,PM2.5,25,75,42
India,Karnataka,Kalaburagi,"Mahatma Basaveswar Colony, Kalaburgi - KSPCB",29-04-2024 00:00:00,17.336318,76.847397,NH3,2,4,3
India,Karnataka,Kalaburagi,"Mahatma Basaveswar Colony, Kalaburgi - KSPCB",29-04-2024 00:00:00,17.336318,76.847397,CO,38,96,56
India,Karnataka,Karwar,"KHB Colony, Karwar - KSPCB",29-04-2024 00:00:00,14.816666,74.141003,NO2,1,8,2
India,Karnataka,Kolar,"Tamaka Ind. Area, Kolar - KSPCB",29-04-2024 00:00:00,13.1276288,78.1570122,NH3,NA,NA,NA
India,Karnataka,Kolar,"Tamaka Ind. Area, Kolar - KSPCB",29-04-2024 00:00:00,13.1276288,78.1570122,CO,NA,NA,NA
India,Karnataka,Koppal,"Diwator Nagar, Koppal - KSPCB",29-04-2024 00:00:00,15.347630,76.181767,PM10,14,96,40
India,Karnataka,Koppal,"Diwator Nagar, Koppal - KSPCB",29-04-2024 00:00:00,15.347630,76.181767,CO,100,100,100
India,Karnataka,Madikeri,"Stuart Hill, Madikeri - KSPCB",29-04-2024 00:00:00,12.415911,75.735050,PM2.5,23,49,37
India,Karnataka,Madikeri,"Stuart Hill, Madikeri - KSPCB",29-04-2024 00:00:00,12.415911,75.735050,OZONE,20,46,29
India,Karnataka,Mysuru,"Hebbal 1st Stage, Mysuru - KSPCB",29-04-2024 00:00:00,12.21041,76.37376,NH3,1,2,2
India,Karnataka,Raichur,"Haji Colony, Raichur - KSPCB",29-04-2024 00:00:00,16.208139,77.348417,NO2,NA,NA,NA
India,Karnataka,Raichur,"Haji Colony, Raichur - KSPCB",29-04-2024 00:00:00,16.208139,77.348417,OZONE,3,5,4
India,Karnataka,Ramanagara,"Vijay Nagar, Ramanagara - KSPCB",29-04-2024 00:00:00,12.733409,77.298051,PM10,32,78,47
