country,state,city,station,last_update,latitude,longitude,pollutant_id,pollutant_min,pollutant_max,pollutant_avg
India,Andhra_Pradesh,Anantapur,"Gulzarpet, Anantapur - APPCB",08-01-2024 02:00:00,14.675886,77.593027,PM10,28,107,50
India,Andhra_Pradesh,Chittoor,"Gangineni Cheruvu, Chittoor - APPCB",08-01-2024 02:00:00,13.204880,79.097889,NO2,7,22,11
India,Andhra_Pradesh,Chittoor,"Gangineni Cheruvu, Chittoor - APPCB",08-01-2024 02:00:00,13.204880,79.097889,NH3,1,2,1
India,Andhra_Pradesh,Chittoor,"Gangineni Cheruvu, Chittoor - APPCB",08-01-2024 02:00:00,13.204880,79.097889,CO,2,16,5
India,Andhra_Pradesh,Kadapa,"Yerramukkapalli, Kadapa - APPCB",08-01-2024 02:00:00,14.465052,78.824187,PM2.5,36,69,48
India,Andhra_Pradesh,Kadapa,"Yerramukkapalli, Kadapa - APPCB",08-01-2024 02:00:00,14.465052,78.824187,PM10,32,57,41
India,Andhra_Pradesh,Rajamahendravaram,"Anand Kala Kshetram, Rajamahendravaram - APPCB",08-01-2024 02:00:00,16.9872867,81.7363176,PM10,82,128,99
India,Andhra_Pradesh,Rajamahendravaram,"Anand Kala Kshetram, Rajamahendravaram - APPCB",08-01-2024 02:00:00,16.9872867,81.7363176,NH3,2,3,3
India,Andhra_Pradesh,Rajamahendravaram,"Anand Kala Kshetram, Rajamahendravaram - APPCB",08-01-2024 02:00:00,16.9872867,81.7363176,SO2,13,36,20
India,Andhra_Pradesh,Tirupati,"Tirumala, Tirupati - APPCB",08-01-2024 02:00:00,13.67,79.35,PM10,24,76,52
India,Andhra_Pradesh,Tirupati,"Tirumala, Tirupati - APPCB",08-01-2024 02:00:00,13.67,79.35,NH3,1,3,2
India,Andhra_Pradesh,Tirupati,"Tirumala, Tirupati - APPCB",08-01-2024 02:00:00,13.67,79.35,OZONE,26,40,34
India,Andhra_Pradesh,Vijayawada,"HB Colony, Vijayawada - APPCB",08-01-2024 02:00:00,16.536107,80.594233,PM2.5,49,78,56
India,Andhra_Pradesh,Vijayawada,"HB Colony, Vijayawada - APPCB",08-01-2024 02:00:00,16.536107,80.594233,PM10,43,89,55
India,Andhra_Pradesh,Vijayawada,"Kanuru, Vijayawada - APPCB",08-01-2024 02:00:00,16.486692,80.699436,PM2.5,61,96,76
India,Andhra_Pradesh,Vijayawada,"Kanuru, Vijayawada - APPCB",08-01-2024 02:00:00,16.486692,80.699436,NO2,14,19,15
India,Andhra_Pradesh,Vijayawada,"Rajiv Gandhi Park, Vijayawada - APPCB",08-01-2024 02:00:00,16.509717,80.612222,OZONE,22,66,42
India,Andhra_Pradesh,Visakhapatnam,"GVM Corporation, Visakhapatnam - APPCB",08-01-2024 02:00:00,17.72,83.3,NH3,1,3,2
India,Arunachal_Pradesh,Naharlagun,"Naharlagun, Naharlagun - APSPCB",08-01-2024 02:00:00,27.103358,93.679645,PM2.5,37,313,110
India,Arunachal_Pradesh,Naharlagun,"Naharlagun, Naharlagun - APSPCB",08-01-2024 02:00:00,27.103358,93.679645,SO2,3,3,3
India,Assam,Byrnihat,"Central Academy for SFS, Byrnihat - PCBA",08-01-2024 02:00:00,26.071318,91.87488,PM2.5,40,449,287
India,Assam,Byrnihat,"Central Academy for SFS, Byrnihat - PCBA",08-01-2024 02:00:00,26.071318,91.87488,PM10,37,431,233
India,Assam,Guwahati,"IITG, Guwahati - PCBA",08-01-2024 02:00:00,26.2028636,91.70046436,SO2,10,12,11
India,Assam,Guwahati,"LGBI Airport, Guwahati - PCBA",08-01-2024 02:00:00,26.10887,91.589544,PM2.5,93,387,207
India,Assam,Guwahati,"LGBI Airport, Guwahati - PCBA",08-01-2024 02:00:00,26.10887,91.589544,NO2,9,80,36
India,Assam,Guwahati,"LGBI Airport, Guwahati - PCBA",08-01-2024 02:00:00,26.10887,91.589544,NH3,1,10,4
India,Assam,Guwahati,"LGBI Airport, Guwahati - PCBA",08-01-2024 02:00:00,26.10887,91.589544,OZONE,2,118,15
India,Assam,Nagaon,"Christianpatty, Nagaon - PCBA",08-01-2024 02:00:00,26.349082,92.68449,PM2.5,50,366,154
India,Assam,Nagaon,"Christianpatty, Nagaon - PCBA",08-01-2024 02:00:00,26.349082,92.68449,OZONE,5,50,10
India,Assam,Nalbari,"Bata Chowk, Nalbari - PCBA",08-01-2024 02:00:00,26.446912,91.439057,PM10,111,500,264
India,Assam,Nalbari,"Bata Chowk, Nalbari - PCBA",08-01-2024 02:00:00,26.446912,91.439057,NO2,29,76,58
India,Assam,Nalbari,"Bata Chowk, Nalbari - PCBA",08-01-2024 02:00:00,26.446912,91.439057,OZONE,13,21,18
India,Assam,Silchar,"Tarapur, Silchar - PCBA",08-01-2024 02:00:00,24.82827,92.79525,PM2.5,31,38,35
India,Bihar,Araria,"Kharahiya Basti, Araria - BSPCB",08-01-2024 02:00:00,26.146529,87.454184,PM2.5,283,374,332
India,Bihar,Araria,"Kharahiya Basti, Araria - BSPCB",08-01-2024 02:00:00,26.146529,87.454184,PM10,135,407,269
India,Bihar,Araria,"Kharahiya Basti, Araria - BSPCB",08-01-2024 02:00:00,26.146529,87.454184,NO2,7,23,8
India,Bihar,Araria,"Kharahiya Basti, Araria - BSPCB",08-01-2024 02:00:00,26.146529,87.454184,NH3,6,8,7
India,Bihar,Arrah,"New DM Office, Arrah - BSPCB",08-01-2024 02:00:00,25.5626095,84.663264,CO,2,86,33
India,Bihar,Aurangabad,"Gurdeo Nagar, Aurangabad - BSPCB",08-01-2024 02:00:00,24.75746,84.366208,NH3,4,16,9
India,Bihar,Aurangabad,"Gurdeo Nagar, Aurangabad - BSPCB",08-01-2024 02:00:00,24.75746,84.366208,SO2,NA,NA,NA
India,Bihar,Aurangabad,"Gurdeo Nagar, Aurangabad - BSPCB",08-01-2024 02:00:00,24.75746,84.366208,CO,2,118,102
India,Bihar,Bettiah,"Kamalnath Nagar, Bettiah - BSPCB",08-01-2024 02:00:00,26.80365,84.51954,PM10,28,110,60
India,Bihar,Bhagalpur,"DM Office_Kachari Chowk, Bhagalpur - BSPCB",08-01-2024 02:00:00,25.251013,86.989001,SO2,25,32,28
India,Bihar,Bhagalpur,"DM Office_Kachari Chowk, Bhagalpur - BSPCB",08-01-2024 02:00:00,25.251013,86.989001,CO,50,68,57
India,Bihar,Gaya,"Collectorate, Gaya - BSPCB",08-01-2024 02:00:00,24.7955,84.9994,SO2,19,24,21
India,Bihar,Gaya,"Kareemganj, Gaya - BSPCB",08-01-2024 02:00:00,24.792403,84.992416,PM2.5,45,120,76
India,Bihar,Gaya,"Kareemganj, Gaya - BSPCB",08-01-2024 02:00:00,24.792403,84.992416,CO,10,108,39
India,Bihar,Gaya,"SFTI Kusdihra, Gaya - BSPCB",08-01-2024 02:00:00,24.762518,84.982348,CO,58,88,81
India,Bihar,Hajipur,"Industrial Area, Hajipur - BSPCB",08-01-2024 02:00:00,25.697189,85.245900,NH3,14,17,16
India,Bihar,Katihar,"Mirchaibari, Katihar - BSPCB",08-01-2024 02:00:00,25.560083,87.553265,NH3,3,5,4
India,Bihar,Manguraha,"Forest Rest House, Manguraha - BSPCB",08-01-2024 02:00:00,27.308328,84.531742,PM2.5,40,297,111
India,Bihar,Manguraha,"Forest Rest House, Manguraha - BSPCB",08-01-2024 02:00:00,27.308328,84.531742,NO2,38,61,48
India,Bihar,Manguraha,"Forest Rest House, Manguraha - BSPCB",08-01-2024 02:00:00,27.308328,84.531742,SO2,3,12,6
India,Bihar,Manguraha,"Forest Rest House, Manguraha - BSPCB",08-01-2024 02:00:00,27.308328,84.531742,OZONE,2,62,18
India,Bihar,Motihari,"Gandak Colony, Motihari - BSPCB",08-01-2024 02:00:00,26.63086,84.90051,PM10,106,171,133
India,Bihar,Munger,"Town Hall, Munger - BSPCB",08-01-2024 02:00:00,25.376776,86.471523,PM10,126,218,152
India,Bihar,Muzaffarpur,"MIT-Daudpur Kothi, Muzaffarpur - BSPCB",08-01-2024 02:00:00,26.1403345,85.3650192,NO2,6,17,7
India,Bihar,Muzaffarpur,"MIT-Daudpur Kothi, Muzaffarpur - BSPCB",08-01-2024 02:00:00,26.1403345,85.3650192,SO2,5,7,6
India,Bihar,Muzaffarpur,"Muzaffarpur Collectorate, Muzaffarpur - BSPCB",08-01-2024 02:00:00,26.1209,85.3647,OZONE,13,24,23
India,Bihar,Patna,"DRM Office Danapur, Patna - BSPCB",08-01-2024 02:00:00,25.586562,85.043586,NO2,11,66,29
India,Bihar,Patna,"Govt. High School Shikarpur, Patna - BSPCB",08-01-2024 02:00:00,25.592539,85.227158,PM2.5,45,235,132
India,Bihar,Patna,"IGSC Planetarium Complex, Patna - BSPCB",08-01-2024 02:00:00,25.610369,85.132568,SO2,8,13,10
India,Bihar,Patna,"Samanpura, Patna - BSPCB",08-01-2024 02:00:00,25.596727,85.085624,OZONE,3,31,8
India,Bihar,Rajgir,"Dangi Tola, Rajgir - BSPCB",08-01-2024 02:00:00,25.03280,85.41948,PM2.5,177,378,302
India,Bihar,Rajgir,"Dangi Tola, Rajgir - BSPCB",08-01-2024 02:00:00,25.03280,85.41948,NO2,2,14,7
India,Bihar,Rajgir,"Dangi Tola, Rajgir - BSPCB",08-01-2024 02:00:00,25.03280,85.41948,CO,11,19,13
India,Bihar,Saharsa,"Police Line, Saharsa - BSPCB",08-01-2024 02:00:00,25.892357,86.590325,PM2.5,190,352,302
India,Bihar,Saharsa,"Police Line, Saharsa - BSPCB",08-01-2024 02:00:00,25.892357,86.590325,CO,4,22,12
India,Bihar,Saharsa,"Police Line, Saharsa - BSPCB",08-01-2024 02:00:00,25.892357,86.590325,OZONE,2,4,3
India,Bihar,Samastipur,"DM Office_Kasipur, Samastipur - BSPCB",08-01-2024 02:00:00,25.859655,85.77944,PM2.5,NA,NA,NA
India,Bihar,Samastipur,"DM Office_Kasipur, Samastipur - BSPCB",08-01-2024 02:00:00,25.859655,85.77944,NO2,3,9,5
India,Bihar,Samastipur,"DM Office_Kasipur, Samastipur - BSPCB",08-01-2024 02:00:00,25.859655,85.77944,OZONE,5,8,6
India,Chandigarh,Chandigarh,"Sector-53, Chandigarh - CPCC",08-01-2024 02:00:00,30.719859,76.738637,PM2.5,140,353,255
India,Chandigarh,Chandigarh,"Sector-53, Chandigarh - CPCC",08-01-2024 02:00:00,30.719859,76.738637,NH3,7,9,8
India,Chandigarh,Chandigarh,"Sector-53, Chandigarh - CPCC",08-01-2024 02:00:00,30.719859,76.738637,CO,64,92,79
India,Chhattisgarh,Bhilai,"32Bungalows, Bhilai - CECB",08-01-2024 02:00:00,21.194815,81.314770,NH3,6,6,6
India,Chhattisgarh,Bhilai,"Hathkhoj, Bhilai - CECB",08-01-2024 02:00:00,21.224231,81.408350,PM10,98,138,113
India,Chhattisgarh,Bilaspur,"Mangala, Bilaspur - NTPC",08-01-2024 02:00:00,22.08815,82.13737,PM10,74,114,90
India,Chhattisgarh,Chhal,"Nawapara SECL Colony, Chhal - CECB",08-01-2024 02:00:00,22.118125,83.140608,PM2.5,55,134,98
India,Chhattisgarh,Chhal,"Nawapara SECL Colony, Chhal - CECB",08-01-2024 02:00:00,22.118125,83.140608,PM10,59,107,90
India,Chhattisgarh,Chhal,"Nawapara SECL Colony, Chhal - CECB",08-01-2024 02:00:00,22.118125,83.140608,NO2,12,44,22
India,Chhattisgarh,Chhal,"Nawapara SECL Colony, Chhal - CECB",08-01-2024 02:00:00,22.118125,83.140608,CO,74,112,95
India,Chhattisgarh,Korba,"Rampur, Korba - CECB",08-01-2024 02:00:00,22.368195,82.746431,NO2,NA,NA,NA
India,Chhattisgarh,Korba,"Urja Nagar, Korba - CECB",08-01-2024 02:00:00,22.348441,82.549611,PM2.5,16,91,39
India,Chhattisgarh,Korba,"Urja Nagar, Korba - CECB",08-01-2024 02:00:00,22.348441,82.549611,CO,33,42,34
India,Chhattisgarh,Kunjemura,"OP Jindal School, Kunjemura - CECB",08-01-2024 02:00:00,22.126650,83.483212,NO2,15,109,54
India,Chhattisgarh,Milupara,"Govt. Higher Secondary School, Milupara - CECB",08-01-2024 02:00:00,22.1910172,83.5197009,NO2,15,49,24
India,Chhattisgarh,Milupara,"Govt. Higher Secondary School, Milupara - CECB",08-01-2024 02:00:00,22.1910172,83.5197009,CO,33,72,52
India,Chhattisgarh,Raipur,"AIIMS, Raipur - CECB",08-01-2024 02:00:00,21.258815,81.578979,CO,35,74,60
India,Chhattisgarh,Raipur,"Bhatagaon New ISBT, Raipur - CECB",08-01-2024 02:00:00,21.219665,81.630094,PM2.5,50,113,77
India,Chhattisgarh,Raipur,"Bhatagaon New ISBT, Raipur - CECB",08-01-2024 02:00:00,21.219665,81.630094,NO2,59,88,72
India,Chhattisgarh,Raipur,"Bhatagaon New ISBT, Raipur - CECB",08-01-2024 02:00:00,21.219665,81.630094,CO,35,62,51
India,Chhattisgarh,Raipur,"Krishak Nagar, Raipur - CECB",08-01-2024 02:00:00,21.237755,81.705301,PM2.5,56,99,80
India,Chhattisgarh,Raipur,"Krishak Nagar, Raipur - CECB",08-01-2024 02:00:00,21.237755,81.705301,SO2,7,11,9
India,Delhi,Delhi,"Alipur, Delhi - DPCC",08-01-2024 02:00:00,28.815329,77.153010,CO,42,74,60
India,Delhi,Delhi,"Anand Vihar, Delhi - DPCC",08-01-2024 02:00:00,28.647622,77.3158090,PM10,208,404,305
India,Delhi,Delhi,"Anand Vihar, Delhi - DPCC",08-01-2024 02:00:00,28.647622,77.3158090,NO2,60,138,91
India,Delhi,Delhi,"Ashok Vihar, Delhi - DPCC",08-01-2024 02:00:00,28.695381,77.181665,NO2,35,82,60
India,Delhi,Delhi,"Ashok Vihar, Delhi - DPCC",08-01-2024 02:00:00,28.695381,77.181665,CO,13,94,75
India,Delhi,Delhi,"Aya Nagar, Delhi - IMD",08-01-2024 02:00:00,28.4706914,77.1099364,PM2.5,97,322,193
India,Delhi,Delhi,"Bawana, Delhi - DPCC",08-01-2024 02:00:00,28.776200,77.051074,CO,44,80,66
India,Delhi,Delhi,"Bawana, Delhi - DPCC",08-01-2024 02:00:00,28.776200,77.051074,OZONE,6,60,17
India,Delhi,Delhi,"Burari Crossing, Delhi - IMD",08-01-2024 02:00:00,28.7256504,77.2011573,OZONE,23,33,25
India,Delhi,Delhi,"CRRI Mathura Road, Delhi - IMD",08-01-2024 02:00:00,28.5512005,77.2735737,PM2.5,213,340,300
India,Delhi,Delhi,"DTU, Delhi - CPCB",08-01-2024 02:00:00,28.7500499,77.1112615,PM10,198,409,272
India,Delhi,Delhi,"DTU, Delhi - CPCB",08-01-2024 02:00:00,28.7500499,77.1112615,NO2,15,50,35
India,Delhi,Delhi,"Dr. Karni Singh Shooting Range, Delhi - DPCC",08-01-2024 02:00:00,28.498571,77.264840,PM2.5,265,409,348
India,Delhi,Delhi,"Dwarka-Sector 8, Delhi - DPCC ",08-01-2024 02:00:00,28.5710274,77.0719006,PM10,141,343,221
India,Delhi,Delhi,"Dwarka-Sector 8, Delhi - DPCC ",08-01-2024 02:00:00,28.5710274,77.0719006,NO2,19,91,48
India,Delhi,Delhi,"IHBAS, Dilshad Garden, Delhi - CPCB",08-01-2024 02:00:00,28.6811736,77.3025234,NO2,35,46,41
India,Delhi,Delhi,"IHBAS, Dilshad Garden, Delhi - CPCB",08-01-2024 02:00:00,28.6811736,77.3025234,SO2,2,26,12
India,Delhi,Delhi,"ITO, Delhi - CPCB",08-01-2024 02:00:00,28.628624,77.241060,CO,1,42,25
India,Delhi,Delhi,"Jawaharlal Nehru Stadium, Delhi - DPCC",08-01-2024 02:00:00,28.580280,77.233829,NO2,54,104,77
India,Delhi,Delhi,"Jawaharlal Nehru Stadium, Delhi - DPCC",08-01-2024 02:00:00,28.580280,77.233829,SO2,16,25,20
India,Delhi,Delhi,"Jawaharlal Nehru Stadium, Delhi - DPCC",08-01-2024 02:00:00,28.580280,77.233829,OZONE,3,50,11
India,Delhi,Delhi,"Lodhi Road, Delhi - IMD",08-01-2024 02:00:00,28.5918245,77.2273074,PM10,129,290,191
India,Delhi,Delhi,"Major Dhyan Chand National Stadium, Delhi - DPCC",08-01-2024 02:00:00,28.611281,77.237738,PM10,140,361,217
India,Delhi,Delhi,"Major Dhyan Chand National Stadium, Delhi - DPCC",08-01-2024 02:00:00,28.611281,77.237738,CO,34,92,82
India,Delhi,Delhi,"Mandir Marg, Delhi - DPCC",08-01-2024 02:00:00,28.636429,77.201067,SO2,1,5,3
India,Delhi,Delhi,"NSIT Dwarka, Delhi - CPCB",08-01-2024 02:00:00,28.60909,77.0325413,PM2.5,284,383,324
India,Delhi,Delhi,"NSIT Dwarka, Delhi - CPCB",08-01-2024 02:00:00,28.60909,77.0325413,NH3,7,8,8
India,Delhi,Delhi,"NSIT Dwarka, Delhi - CPCB",08-01-2024 02:00:00,28.60909,77.0325413,CO,6,132,43
India,Delhi,Delhi,"Najafgarh, Delhi - DPCC",08-01-2024 02:00:00,28.570173,76.933762,CO,9,45,30
India,Delhi,Delhi,"Narela, Delhi - DPCC",08-01-2024 02:00:00,28.822836,77.101981,CO,60,106,86
India,Delhi,Delhi,"Narela, Delhi - DPCC",08-01-2024 02:00:00,28.822836,77.101981,OZONE,7,74,30
India,Delhi,Delhi,"Nehru Nagar, Delhi - DPCC",08-01-2024 02:00:00,28.567890,77.250515,PM2.5,309,500,384
India,Delhi,Delhi,"Nehru Nagar, Delhi - DPCC",08-01-2024 02:00:00,28.567890,77.250515,PM10,159,472,279
India,Delhi,Delhi,"Nehru Nagar, Delhi - DPCC",08-01-2024 02:00:00,28.567890,77.250515,SO2,4,13,9
India,Delhi,Delhi,"Nehru Nagar, Delhi - DPCC",08-01-2024 02:00:00,28.567890,77.250515,CO,38,104,73
India,Delhi,Delhi,"North Campus, DU, Delhi - IMD",08-01-2024 02:00:00,28.6573814,77.1585447,PM2.5,292,362,335
India,Delhi,Delhi,"North Campus, DU, Delhi - IMD",08-01-2024 02:00:00,28.6573814,77.1585447,OZONE,17,41,19
India,Delhi,Delhi,"Okhla Phase-2, Delhi - DPCC",08-01-2024 02:00:00,28.530785,77.271255,NH3,11,15,13
India,Delhi,Delhi,"Patparganj, Delhi - DPCC",08-01-2024 02:00:00,28.623763,77.287209,PM2.5,321,408,369
India,Delhi,Delhi,"Patparganj, Delhi - DPCC",08-01-2024 02:00:00,28.623763,77.287209,OZONE,7,44,19
India,Delhi,Delhi,"Punjabi Bagh, Delhi - DPCC",08-01-2024 02:00:00,28.674045,77.131023,NO2,78,104,90
India,Delhi,Delhi,"Pusa, Delhi - DPCC",08-01-2024 02:00:00,28.639652,77.146275,NH3,2,4,3
India,Delhi,Delhi,"Pusa, Delhi - IMD",08-01-2024 02:00:00,28.636110,77.173332,NO2,23,37,30
India,Delhi,Delhi,"Pusa, Delhi - IMD",08-01-2024 02:00:00,28.636110,77.173332,CO,38,85,58
India,Delhi,Delhi,"Rohini, Delhi - DPCC",08-01-2024 02:00:00,28.732528,77.119920,PM2.5,338,403,361
India,Delhi,Delhi,"Rohini, Delhi - DPCC",08-01-2024 02:00:00,28.732528,77.119920,NO2,37,70,50
India,Delhi,Delhi,"Shadipur, Delhi - CPCB",08-01-2024 02:00:00,28.6514781,77.1473105,PM2.5,98,388,333
India,Delhi,Delhi,"Sirifort, Delhi - CPCB",08-01-2024 02:00:00,28.5504249,77.2159377,CO,20,60,45
India,Delhi,Delhi,"Sonia Vihar, Delhi - DPCC",08-01-2024 02:00:00,28.710508,77.249485,PM10,196,352,256
India,Delhi,Delhi,"Sonia Vihar, Delhi - DPCC",08-01-2024 02:00:00,28.710508,77.249485,OZONE,4,69,16
India,Delhi,Delhi,"Vivek Vihar, Delhi - DPCC",08-01-2024 02:00:00,28.672342,77.315260,SO2,7,8,7
India,Delhi,Delhi,"Wazirpur, Delhi - DPCC",08-01-2024 02:00:00,28.699793,77.165453,PM2.5,341,406,370
India,Delhi,Delhi,"Wazirpur, Delhi - DPCC",08-01-2024 02:00:00,28.699793,77.165453,SO2,8,31,22
India,Gujarat,Ahmedabad,"Chandkheda, Ahmedabad - IITM",08-01-2024 02:00:00,23.107969,72.574648,NO2,5,6,5
India,Gujarat,Ahmedabad,"Gyaspur, Ahmedabad - IITM",08-01-2024 02:00:00,22.977134,72.553024,NO2,7,14,8
India,Gujarat,Ahmedabad,"Maninagar, Ahmedabad - GPCB",08-01-2024 02:00:00,23.002657,72.591912,OZONE,27,87,51
India,Gujarat,Ahmedabad,"Raikhad, Ahmedabad - IITM",08-01-2024 02:00:00,23.020509,72.579261,PM10,64,320,126
India,Gujarat,Ahmedabad,"Raikhad, Ahmedabad - IITM",08-01-2024 02:00:00,23.020509,72.579261,NH3,5,6,5
India,Gujarat,Ahmedabad,"Rakhial, Ahmedabad - IITM",08-01-2024 02:00:00,23.016834,72.625775,PM2.5,57,118,84
India,Gujarat,Ahmedabad,"SVPI Airport Hansol, Ahmedabad - IITM",08-01-2024 02:00:00,23.076793,72.627874,PM2.5,54,108,80
India,Gujarat,Ahmedabad,"SVPI Airport Hansol, Ahmedabad - IITM",08-01-2024 02:00:00,23.076793,72.627874,PM10,76,121,101
India,Gujarat,Ahmedabad,"SVPI Airport Hansol, Ahmedabad - IITM",08-01-2024 02:00:00,23.076793,72.627874,NO2,9,10,10
India,Gujarat,Ahmedabad,"SVPI Airport Hansol, Ahmedabad - IITM",08-01-2024 02:00:00,23.076793,72.627874,SO2,2,5,3
India,Gujarat,Ahmedabad,"SVPI Airport Hansol, Ahmedabad - IITM",08-01-2024 02:00:00,23.076793,72.627874,OZONE,9,41,13
India,Gujarat,Ahmedabad,"Sardar Vallabhbhai Patel Stadium, Ahmedabad - IITM",08-01-2024 02:00:00,23.043070,72.562968,PM10,53,179,104
India,Gujarat,Ankleshwar,"GIDC, Ankleshwar - GPCB",08-01-2024 02:00:00,21.613267,73.010555,NO2,37,37,37
India,Gujarat,Ankleshwar,"GIDC, Ankleshwar - GPCB",08-01-2024 02:00:00,21.613267,73.010555,SO2,16,55,30
India,Gujarat,Gandhinagar,"IIPHG Lekawada, Gandhinagar - IITM",08-01-2024 02:00:00,23.243639,72.68994,PM2.5,68,165,106
India,Gujarat,Gandhinagar,"IIPHG Lekawada, Gandhinagar - IITM",08-01-2024 02:00:00,23.243639,72.68994,NO2,7,17,13
India,Gujarat,Gandhinagar,"IIPHG Lekawada, Gandhinagar - IITM",08-01-2024 02:00:00,23.243639,72.68994,SO2,5,10,6
India,Gujarat,Gandhinagar,"Sector-10, Gandhinagar - GPCB",08-01-2024 02:00:00,23.221714,72.654328,PM2.5,NA,NA,NA
India,Haryana,Ambala,"Patti Mehar, Ambala - HSPCB",08-01-2024 02:00:00,30.379589,76.778328,SO2,1,21,7
India,Haryana,Bahadurgarh,"Arya Nagar, Bahadurgarh - HSPCB",08-01-2024 02:00:00,28.6701,76.9254,NO2,34,40,36
India,Haryana,Bahadurgarh,"Arya Nagar, Bahadurgarh - HSPCB",08-01-2024 02:00:00,28.6701,76.9254,CO,42,58,48
India,Haryana,Ballabgarh,"Nathu Colony, Ballabgarh - HSPCB",08-01-2024 02:00:00,28.3419248,77.319699,SO2,2,27,16
India,Haryana,Ballabgarh,"Nathu Colony, Ballabgarh - HSPCB",08-01-2024 02:00:00,28.3419248,77.319699,OZONE,5,21,8
India,Haryana,Bhiwani,"H.B. Colony, Bhiwani - HSPCB",08-01-2024 02:00:00,28.806223,76.141105,PM10,67,118,100
India,Haryana,Charkhi Dadri,"Mini Secretariat, Charkhi Dadri - HSPCB",08-01-2024 02:00:00,28.593883,76.270653,NO2,9,15,10
India,Haryana,Charkhi Dadri,"Mini Secretariat, Charkhi Dadri - HSPCB",08-01-2024 02:00:00,28.593883,76.270653,NH3,5,6,5
India,Haryana,Charkhi Dadri,"Mini Secretariat, Charkhi Dadri - HSPCB",08-01-2024 02:00:00,28.593883,76.270653,OZONE,14,17,15
India,Haryana,Dharuhera,"Municipal Corporation Office, Dharuhera -  HSPCB",08-01-2024 02:00:00,28.206800,76.799700,PM10,161,322,206
India,Haryana,Dharuhera,"Municipal Corporation Office, Dharuhera -  HSPCB",08-01-2024 02:00:00,28.206800,76.799700,OZONE,1,53,6
India,Haryana,Faridabad,"New Industrial Town, Faridabad - HSPCB",08-01-2024 02:00:00,28.39072,77.30059,PM10,166,371,237
India,Haryana,Faridabad,"Sector 11, Faridabad - HSPCB",08-01-2024 02:00:00,28.376058,77.315741,PM2.5,6,274,95
India,Haryana,Faridabad,"Sector 11, Faridabad - HSPCB",08-01-2024 02:00:00,28.376058,77.315741,NO2,30,33,32
India,Haryana,Fatehabad,"Huda Sector, Fatehabad - HSPCB",08-01-2024 02:00:00,29.503664,75.467934,PM10,62,103,81
India,Haryana,Gurugram,"Sector-51, Gurugram - HSPCB",08-01-2024 02:00:00,28.4227,77.0667,PM2.5,84,305,157
India,Haryana,Gurugram,"Sector-51, Gurugram - HSPCB",08-01-2024 02:00:00,28.4227,77.0667,PM10,109,170,130
India,Haryana,Gurugram,"Sector-51, Gurugram - HSPCB",08-01-2024 02:00:00,28.4227,77.0667,CO,52,110,82
India,Haryana,Gurugram,"Teri Gram, Gurugram - HSPCB",08-01-2024 02:00:00,28.4275,77.1465,OZONE,12,17,16
India,Haryana,Gurugram,"Vikas Sadan, Gurugram - HSPCB",08-01-2024 02:00:00,28.4501238,77.0263051,NO2,4,26,14
India,Haryana,Hisar,"Urban Estate-II, Hisar - HSPCB",08-01-2024 02:00:00,29.140560,75.744941,OZONE,28,65,47
India,Haryana,Jind,"Police Lines, Jind - HSPCB",08-01-2024 02:00:00,29.307814,76.337619,PM2.5,NA,NA,NA
India,Haryana,Kaithal,"Rishi Nagar, Kaithal - HSPCB",08-01-2024 02:00:00,29.8006,76.4155,NH3,7,9,8
India,Haryana,Karnal,"Sector-12, Karnal - HSPCB",08-01-2024 02:00:00,29.695300,77.002700,PM2.5,44,155,95
India,Haryana,Karnal,"Sector-12, Karnal - HSPCB",08-01-2024 02:00:00,29.695300,77.002700,SO2,NA,NA,NA
India,Haryana,Manesar,"Sector-2 IMT, Manesar - HSPCB",08-01-2024 02:00:00,28.360699,76.936090,CO,5,161,80
India,Haryana,Narnaul,"Shastri Nagar, Narnaul - HSPCB",08-01-2024 02:00:00,28.060249,76.113115,PM10,5,466,98
India,Haryana,Narnaul,"Shastri Nagar, Narnaul - HSPCB",08-01-2024 02:00:00,28.060249,76.113115,NO2,16,46,29
India,Haryana,Narnaul,"Shastri Nagar, Narnaul - HSPCB",08-01-2024 02:00:00,28.060249,76.113115,CO,6,22,18
India,Haryana,Palwal,"Shyam Nagar, Palwal - HSPCB",08-01-2024 02:00:00,28.1485564,77.3320667,PM10,74,114,99
India,Haryana,Palwal,"Shyam Nagar, Palwal - HSPCB",08-01-2024 02:00:00,28.1485564,77.3320667,SO2,1,21,9
India,Haryana,Panchkula,"Sector-6, Panchkula - HSPCB ",08-01-2024 02:00:00,30.7057778,76.8531805555555,NO2,28,31,29
India,Haryana,Panipat,"Sector-18, Panipat - HSPCB",08-01-2024 02:00:00,29.497973,76.993331,PM10,169,177,173
India,Haryana,Rohtak,"MD University, Rohtak - HSPCB",08-01-2024 02:00:00,28.52123,76.37138,SO2,6,8,7
India,Haryana,Sonipat,"Murthal, Sonipat - HSPCB",08-01-2024 02:00:00,29.027200,77.062100,CO,10,124,47
India,Haryana,Yamuna Nagar,"Gobind Pura, Yamuna Nagar - HSPCB",08-01-2024 02:00:00,30.1480566,77.2893471,PM2.5,64,135,94
India,Haryana,Yamuna Nagar,"Gobind Pura, Yamuna Nagar - HSPCB",08-01-2024 02:00:00,30.1480566,77.2893471,NO2,11,28,18
India,Haryana,Yamuna Nagar,"Gobind Pura, Yamuna Nagar - HSPCB",08-01-2024 02:00:00,30.1480566,77.2893471,OZONE,6,10,8
India,Himachal Pradesh,Baddi,"HIMUDA Complex Phase-1, Baddi - HPPCB",08-01-2024 02:00:00,30.943887,76.801991,OZONE,8,57,27
India,Jharkhand,Dhanbad,"Kalakusuma, Dhanbad - DMC",08-01-2024 02:00:00,23.811548,86.481238,SO2,112,115,114
India,Jharkhand,Dhanbad,"Sardar Patel Nagar, Dhanbad - JSPCB",08-01-2024 02:00:00,23.80569,86.44268,SO2,NA,NA,NA
India,Karnataka,Belgaum,"Ramteerth Nagar, Belgaum - KSPCB",08-01-2024 02:00:00,15.888653,74.541751,PM2.5,22,63,41
India,Karnataka,Bengaluru,"BTM Layout, Bengaluru - CPCB",08-01-2024 02:00:00,12.9135218,77.5950804,CO,4,24,14
India,Karnataka,Bengaluru,"Bapuji Nagar, Bengaluru - KSPCB",08-01-2024 02:00:00,12.951913,77.539784,PM10,55,105,73
India,Karnataka,Bengaluru,"Bapuji Nagar, Bengaluru - KSPCB",08-01-2024 02:00:00,12.951913,77.539784,NO2,10,12,11
India,Karnataka,Bengaluru,"Bapuji Nagar, Bengaluru - KSPCB",08-01-2024 02:00:00,12.951913,77.539784,SO2,5,7,6
India,Karnataka,Bengaluru,"Hebbal, Bengaluru - KSPCB",08-01-2024 02:00:00,13.029152,77.585901,NH3,1,1,1
India,Karnataka,Bengaluru,"Hebbal, Bengaluru - KSPCB",08-01-2024 02:00:00,13.029152,77.585901,CO,10,24,18
India,Karnataka,Bengaluru,"Jayanagar 5th Block, Bengaluru - KSPCB",08-01-2024 02:00:00,12.920984,77.584908,PM2.5,45,75,62
India,Karnataka,Bengaluru,"Jayanagar 5th Block, Bengaluru - KSPCB",08-01-2024 02:00:00,12.920984,77.584908,NH3,2,3,2
India,Karnataka,Bengaluru,"Kasturi Nagar, Bengaluru - KSPCB",08-01-2024 02:00:00,13.003872,77.664217,CO,24,26,25
India,Karnataka,Bengaluru,"Peenya, Bengaluru - CPCB",08-01-2024 02:00:00,13.0270199,77.494094,NO2,21,29,24
India,Karnataka,Bengaluru,"Peenya, Bengaluru - CPCB",08-01-2024 02:00:00,13.0270199,77.494094,OZONE,41,42,41
India,Karnataka,Bengaluru,"Sanegurava Halli, Bengaluru - KSPCB",08-01-2024 02:00:00,12.990328,77.5431385,PM10,28,44,34
India,Karnataka,Bengaluru,"Shivapura_Peenya, Bengaluru - KSPCB",08-01-2024 02:00:00,13.0246342,77.5080115,PM2.5,2,58,21
India,Karnataka,Bengaluru,"Silk Board, Bengaluru - KSPCB",08-01-2024 02:00:00,12.917348,77.622813,PM10,45,69,61
India,Karnataka,Bidar,"Naubad, Bidar - KSPCB",08-01-2024 02:00:00,17.930306,77.482194,NH3,2,3,3
India,Karnataka,Chamarajanagar,"Urban, Chamarajanagar - KSPCB",08-01-2024 02:00:00,11.55358,76.55521,PM10,34,56,46
India,Karnataka,Chamarajanagar,"Urban, Chamarajanagar - KSPCB",08-01-2024 02:00:00,11.55358,76.55521,CO,18,120,41
India,Karnataka,Chikkamagaluru,"Kalyana Nagara, Chikkamagaluru - KSPCB",08-01-2024 02:00:00,13.328028,75.797056,NO2,18,29,21
India,Karnataka,Chikkamagaluru,"Kalyana Nagara, Chikkamagaluru - KSPCB",08-01-2024 02:00:00,13.328028,75.797056,NH3,3,4,4
India,Karnataka,Davanagere,"Devaraj Urs Badavane, Davanagere - KSPCB",08-01-2024 02:00:00,14.475800,75.905200,SO2,4,5,4
India,Karnataka,Dharwad,"Kalabhavan, Dharwad - KSPCB",08-01-2024 02:00:00,15.459706,75.008381,NO2,1,29,14
India,Karnataka,Dharwad,"Kalabhavan, Dharwad - KSPCB",08-01-2024 02:00:00,15.459706,75.008381,NH3,3,3,3
India,Karnataka,Dharwad,"Kalabhavan, Dharwad - KSPCB",08-01-2024 02:00:00,15.459706,75.008381,CO,36,129,78
India,Karnataka,Gadag,"Panchal Nagar, Gadag - KSPCB",08-01-2024 02:00:00,15.411456,75.638133,PM2.5,14,38,26
India,Karnataka,Gadag,"Panchal Nagar, Gadag - KSPCB",08-01-2024 02:00:00,15.411456,75.638133,PM10,24,57,35
India,Karnataka,Hassan,"B.Katihalli, Hassan - KSPCB",08-01-2024 02:00:00,13.008556,76.125258,PM2.5,18,75,46
India,Karnataka,Hassan,"B.Katihalli, Hassan - KSPCB",08-01-2024 02:00:00,13.008556,76.125258,CO,2,14,10
India,Karnataka,Haveri,"Ashwini Nagar, Haveri - KSPCB",08-01-2024 02:00:00,14.791800,75.389600,SO2,13,14,13
India,Karnataka,Haveri,"Ashwini Nagar, Haveri - KSPCB",08-01-2024 02:00:00,14.791800,75.389600,CO,31,34,33
India,Karnataka,Haveri,"Ashwini Nagar, Haveri - KSPCB",08-01-2024 02:00:00,14.791800,75.389600,OZONE,18,20,19
India,Karnataka,Hubballi,"Deshpande Nagar, Hubballi - KSPCB",08-01-2024 02:00:00,15.351773,75.140726,NO2,24,27,26
India,Karnataka,Hubballi,"Deshpande Nagar, Hubballi - KSPCB",08-01-2024 02:00:00,15.351773,75.140726,NH3,7,13,10
India,Karnataka,Kalaburagi,"Mahatma Basaveswar Colony, Kalaburgi - KSPCB",08-01-2024 02:00:00,17.336318,76.847397,NH3,2,3,2
India,Karnataka,Karwar,"KHB Colony, Karwar - KSPCB",08-01-2024 02:00:00,14.816666,74.141003,NH3,1,3,1
India,Karnataka,Karwar,"KHB Colony, Karwar - KSPCB",08-01-2024 02:00:00,14.816666,74.141003,CO,1,2,2
India,Karnataka,Kolar,"Tamaka Ind. Area, Kolar - KSPCB",08-01-2024 02:00:00,13.1276288,78.1570122,PM10,46,138,91
India,Karnataka,Kolar,"Tamaka Ind. Area, Kolar - KSPCB",08-01-2024 02:00:00,13.1276288,78.1570122,SO2,13,13,13
India,Karnataka,Koppal,"Diwator Nagar, Koppal - KSPCB",08-01-2024 02:00:00,15.347630,76.181767,PM10,23,41,30
India,Karnataka,Madikeri,"Stuart Hill, Madikeri - KSPCB",08-01-2024 02:00:00,12.415911,75.735050,PM2.5,28,87,58
India,Karnataka,Madikeri,"Stuart Hill, Madikeri - KSPCB",08-01-2024 02:00:00,12.415911,75.735050,PM10,26,73,47
India,Karnataka,Madikeri,"Stuart Hill, Madikeri - KSPCB",08-01-2024 02:00:00,12.415911,75.735050,NO2,6,18,10
India,Karnataka,Madikeri,"Stuart Hill, Madikeri - KSPCB",08-01-2024 02:00:00,12.415911,75.735050,NH3,NA,NA,NA
India,Karnataka,Madikeri,"Stuart Hill, Madikeri - KSPCB",08-01-2024 02:00:00,12.415911,75.735050,SO2,4,4,4
India,Karnataka,Madikeri,"Stuart Hill, Madikeri - KSPCB",08-01-2024 02:00:00,12.415911,75.735050,CO,4,45,23
India,Karnataka,Mysuru,"Hebbal 1st Stage, Mysuru - KSPCB",08-01-2024 02:00:00,12.21041,76.37376,SO2,1,5,2
India,Karnataka,Raichur,"Haji Colony, Raichur - KSPCB",08-01-2024 02:00:00,16.208139,77.348417,PM10,40,167,83
India,Karnataka,Raichur,"Haji Colony, Raichur - KSPCB",08-01-2024 02:00:00,16.208139,77.348417,CO,84,105,102
India,Karnataka,Ramanagara,"Vijay Nagar, Ramanagara - KSPCB",08-01-2024 02:00:00,12.733409,77.298051,SO2,35,52,41
India,Karnataka,Tumakuru,"Thimmalapura, Tumakuru - KSPCB",08-01-2024 02:00:00,13.377516,77.099072,PM10,64,128,104
India,Karnataka,Tumakuru,"Thimmalapura, Tumakuru - KSPCB",08-01-2024 02:00:00,13.377516,77.099072,OZONE,16,42,31
India,Karnataka,Yadgir,"Collector Office, Yadgir - KSPCB",08-01-2024 02:00:00,16.7602,77.1428,NO2,5,6,5
India,Karnataka,Yadgir,"Collector Office, Yadgir - KSPCB",08-01-2024 02:00:00,16.7602,77.1428,OZONE,18,19,19
India,Kerala,Thiruvananthapuram,"Kariavattom, Thiruvananthapuram - Kerala PCB",08-01-2024 02:00:00,8.563700,76.886500,NH3,1,1,1
India,Kerala,Thrissur,"Corporation Ground, Thrissur - Kerala PCB",08-01-2024 02:00:00,10.532400,76.215900,PM2.5,47,55,51
India,Madhya Pradesh,Bhopal,"Idgah Hills, Bhopal - MPPCB",08-01-2024 02:00:00,23.264759,77.381568,NO2,13,42,26
India,Madhya Pradesh,Bhopal,"Paryavaran Parisar, Bhopal - MPPCB",08-01-2024 02:00:00,23.210494,77.425409,PM2.5,98,197,151
India,Madhya Pradesh,Bhopal,"Paryavaran Parisar, Bhopal - MPPCB",08-01-2024 02:00:00,23.210494,77.425409,OZONE,11,30,18
India,Madhya Pradesh,Bhopal,"T T Nagar, Bhopal - MPPCB",08-01-2024 02:00:00,23.233584,77.400574,PM2.5,98,223,172
India,Madhya Pradesh,Gwalior,"Deen Dayal Nagar, Gwalior - MPPCB",08-01-2024 02:00:00,26.259242,78.216432,PM10,110,210,154
India,Madhya Pradesh,Gwalior,"Phool Bagh, Gwalior - Mondelez Ind. Food",08-01-2024 02:00:00,26.210536,78.171,SO2,10,15,12
India,Madhya Pradesh,Indore,"Maguda Nagar, Indore - IMC",08-01-2024 02:00:00,22.7524,75.8872,CO,26,28,28
India,Madhya Pradesh,Indore,"Regional Park, Indore - IMC",08-01-2024 02:00:00,22.6780,75.8559,NH3,1,4,2
India,Madhya Pradesh,Jabalpur,"Govindh Bhavan Colony, Jabalpur - JMC",08-01-2024 02:00:00,23.163174,79.973061,NO2,18,30,22
India,Madhya Pradesh,Jabalpur,"Gupteshwar, Jabalpur - JMC",08-01-2024 02:00:00,23.142888,79.916147,NO2,15,45,25
India,Madhya Pradesh,Jabalpur,"Marhatal, Jabalpur - MPPCB",08-01-2024 02:00:00,23.168606,79.932247,NH3,5,7,6
India,Madhya Pradesh,Jabalpur,"Suhagi, Jabalpur - JMC",08-01-2024 02:00:00,23.218135,79.957770,SO2,5,14,9
India,Madhya Pradesh,Jabalpur,"Suhagi, Jabalpur - JMC",08-01-2024 02:00:00,23.218135,79.957770,CO,12,109,85
India,Madhya Pradesh,Jabalpur,"Suhagi, Jabalpur - JMC",08-01-2024 02:00:00,23.218135,79.957770,OZONE,10,77,22
India,Madhya Pradesh,Katni,"Gole Bazar, Katni - MPPCB",08-01-2024 02:00:00,23.50016,80.23284,SO2,10,24,17
India,Madhya Pradesh,Mandideep,"Sector-D Industrial Area, Mandideep - MPPCB",08-01-2024 02:00:00,23.108440,77.511428,SO2,33,109,67
India,Madhya Pradesh,Pithampur,"Sector-2 Industrial Area, Pithampur - MPPCB",08-01-2024 02:00:00,22.624758,75.675238,OZONE,27,36,30
India,Madhya Pradesh,Ratlam,"Shasthri Nagar, Ratlam - IPCA Lab",08-01-2024 02:00:00,23.331731,75.045981,NO2,3,31,16
India,Madhya Pradesh,Sagar,"Deen Dayal Nagar, Sagar - MPPCB",08-01-2024 02:00:00,23.8640158,78.80289321,PM2.5,27,57,44
India,Madhya Pradesh,Sagar,"Deen Dayal Nagar, Sagar - MPPCB",08-01-2024 02:00:00,23.8640158,78.80289321,CO,1,98,59
India,Madhya Pradesh,Singrauli,"Suryakiran Bhawan NCL, Singrauli - MPPCB",08-01-2024 02:00:00,24.108970,82.645580,NH3,1,2,2
India,Maharashtra,Akola,"Ramdaspeth, Akola - MPCB",08-01-2024 02:00:00,20.719516,77.000253,NO2,11,34,18
India,Maharashtra,Akola,"Ramdaspeth, Akola - MPCB",08-01-2024 02:00:00,20.719516,77.000253,NH3,3,6,4
India,Maharashtra,Akola,"Ramdaspeth, Akola - MPCB",08-01-2024 02:00:00,20.719516,77.000253,CO,29,48,38
India,Maharashtra,Amravati,"Shivneri Colony, Amravati - MPCB",08-01-2024 02:00:00,20.9402359,77.7895248,NO2,15,51,28
India,Maharashtra,Amravati,"Shri Shivaji Science College, Amaravati - MPCB",08-01-2024 02:00:00,20.939198,77.765701,NH3,2,3,2
India,Maharashtra,Aurangabad,"MIDC Chilkalthana, Aurangabad - MPCB",08-01-2024 02:00:00,19.875620,75.387310,PM10,83,117,104
India,Maharashtra,Aurangabad,"MIDC Chilkalthana, Aurangabad - MPCB",08-01-2024 02:00:00,19.875620,75.387310,NH3,3,4,4
India,Maharashtra,Aurangabad,"More Chowk Waluj, Aurangabad - MPCB",08-01-2024 02:00:00,19.8389439,75.244448,SO2,5,12,9
India,Maharashtra,Aurangabad,"More Chowk Waluj, Aurangabad - MPCB",08-01-2024 02:00:00,19.8389439,75.244448,OZONE,6,30,10
India,Maharashtra,Aurangabad,"Rachnakar Colony, Aurangabad - MPCB",08-01-2024 02:00:00,19.863756,75.321188,PM10,69,118,92
India,Maharashtra,Aurangabad,"Rachnakar Colony, Aurangabad - MPCB",08-01-2024 02:00:00,19.863756,75.321188,NH3,2,2,2
India,Maharashtra,Badlapur,"Katrap, Badlapur - MPCB",08-01-2024 02:00:00,19.16485,73.23409,PM10,NA,NA,NA
India,Maharashtra,Badlapur,"Katrap, Badlapur - MPCB",08-01-2024 02:00:00,19.16485,73.23409,NO2,NA,NA,NA
India,Maharashtra,Badlapur,"Katrap, Badlapur - MPCB",08-01-2024 02:00:00,19.16485,73.23409,NH3,NA,NA,NA
India,Maharashtra,Badlapur,"Katrap, Badlapur - MPCB",08-01-2024 02:00:00,19.16485,73.23409,OZONE,4,133,63
India,Maharashtra,Belapur,"CBD Belapur, Belapur - MPCB",08-01-2024 02:00:00,19.0243902,73.0406721,NH3,14,52,28
India,Maharashtra,Bhiwandi,"Gokul Nagar, Bhiwandi - MPCB",08-01-2024 02:00:00,19.309073,73.057223,PM2.5,8,307,87
India,Maharashtra,Chandrapur,"Chauhan Colony, Chandrapur - MPCB",08-01-2024 02:00:00,19.962900,79.298714,PM2.5,73,268,153
India,Maharashtra,Chandrapur,"Chauhan Colony, Chandrapur - MPCB",08-01-2024 02:00:00,19.962900,79.298714,PM10,68,134,100
India,Maharashtra,Dhule,"Deopur, Dhule - MPCB",08-01-2024 02:00:00,20.918946,74.776388,NH3,3,5,4
India,Maharashtra,Jalgaon,"Prabhat Colony, Jalgaon - MPCB",08-01-2024 02:00:00,21.001264,75.565602,NO2,12,45,24
India,Maharashtra,Jalgaon,"Prabhat Colony, Jalgaon - MPCB",08-01-2024 02:00:00,21.001264,75.565602,OZONE,8,73,42
India,Maharashtra,Jalna,"Old MIDC, Jalna - MPCB",08-01-2024 02:00:00,19.854616,75.905894,NO2,1,17,11
India,Maharashtra,Kalyan,"Khadakpada, Kalyan - MPCB",08-01-2024 02:00:00,19.25292,73.142019,SO2,19,64,34
India,Maharashtra,Kolhapur,"Shivaji University, Kolhapur - MPCB",08-01-2024 02:00:00,16.6870449,74.2505872,NO2,9,29,17
India,Maharashtra,Kolhapur,"Sinchan Bhavan, Kolhapur - MPCB",08-01-2024 02:00:00,16.7143745,74.2426398,PM2.5,59,164,108
India,Maharashtra,Kolhapur,"Sinchan Bhavan, Kolhapur - MPCB",08-01-2024 02:00:00,16.7143745,74.2426398,CO,32,76,61
India,Maharashtra,Latur,"Sawe Wadi, Latur - MPCB",08-01-2024 02:00:00,18.39963,76.57452,PM2.5,65,140,89
India,Maharashtra,Latur,"Sawe Wadi, Latur - MPCB",08-01-2024 02:00:00,18.39963,76.57452,NH3,8,8,8
India,Maharashtra,Mahad,"Kamble Tarf Birwadi, Mahad - MPCB",08-01-2024 02:00:00,18.1023399,73.4783687,NO2,28,30,29
India,Maharashtra,Mahad,"Kamble Tarf Birwadi, Mahad - MPCB",08-01-2024 02:00:00,18.1023399,73.4783687,NH3,4,6,5
India,Maharashtra,Mahad,"Kamble Tarf Birwadi, Mahad - MPCB",08-01-2024 02:00:00,18.1023399,73.4783687,CO,22,68,30
India,Maharashtra,Malegaon,"Mahesh Nagar, Malegaon - MPCB",08-01-2024 02:00:00,20.555712,74.529236,CO,30,52,39
India,Maharashtra,Malegaon,"Mahesh Nagar, Malegaon - MPCB",08-01-2024 02:00:00,20.555712,74.529236,OZONE,18,75,55
India,Maharashtra,Mira-Bhayandar,"Bhayandar West, Mira-Bhayandar - MPCB",08-01-2024 02:00:00,19.296481,72.840923,NH3,5,11,7
India,Maharashtra,Mira-Bhayandar,"Bhayandar West, Mira-Bhayandar - MPCB",08-01-2024 02:00:00,19.296481,72.840923,SO2,5,12,8
India,Maharashtra,Mumbai,"Borivali East, Mumbai - IITM",08-01-2024 02:00:00,19.23241,72.86895,OZONE,4,131,29
India,Maharashtra,Mumbai,"Borivali East, Mumbai - MPCB",08-01-2024 02:00:00,19.2243333,72.8658113,PM10,83,158,107
India,Maharashtra,Mumbai,"Borivali East, Mumbai - MPCB",08-01-2024 02:00:00,19.2243333,72.8658113,NO2,6,31,13
India,Maharashtra,Mumbai,"Byculla, Mumbai - BMC",08-01-2024 02:00:00,18.9767,72.8380,OZONE,1,100,37
India,Maharashtra,Mumbai,"Chembur, Mumbai - MPCB",08-01-2024 02:00:00,19.0364585,72.8954371,PM10,85,132,107
India,Maharashtra,Mumbai,"Chembur, Mumbai - MPCB",08-01-2024 02:00:00,19.0364585,72.8954371,SO2,7,31,11
India,Maharashtra,Mumbai,"Chembur, Mumbai - MPCB",08-01-2024 02:00:00,19.0364585,72.8954371,OZONE,2,68,14
India,Maharashtra,Mumbai,"Chhatrapati Shivaji Intl. Airport (T2), Mumbai - MPCB",08-01-2024 02:00:00,19.10078,72.87462,PM2.5,33,69,50
India,Maharashtra,Mumbai,"Chhatrapati Shivaji Intl. Airport (T2), Mumbai - MPCB",08-01-2024 02:00:00,19.10078,72.87462,CO,62,106,75
India,Maharashtra,Mumbai,"Colaba, Mumbai - MPCB",08-01-2024 02:00:00,18.910000,72.820000,NH3,1,1,1
India,Maharashtra,Mumbai,"Colaba, Mumbai - MPCB",08-01-2024 02:00:00,18.910000,72.820000,CO,13,22,17
India,Maharashtra,Mumbai,"Ghatkopar, Mumbai - BMC",08-01-2024 02:00:00,19.083694,72.920967,PM2.5,70,152,107
India,Maharashtra,Mumbai,"Ghatkopar, Mumbai - BMC",08-01-2024 02:00:00,19.083694,72.920967,PM10,76,129,98
India,Maharashtra,Mumbai,"Ghatkopar, Mumbai - BMC",08-01-2024 02:00:00,19.083694,72.920967,NH3,NA,NA,NA
India,Maharashtra,Mumbai,"Kandivali East, Mumbai - MPCB",08-01-2024 02:00:00,19.205800,72.868200,CO,64,105,89
India,Maharashtra,Mumbai,"Kandivali West, Mumbai - BMC",08-01-2024 02:00:00,19.215859,72.831718,SO2,3,5,4
India,Maharashtra,Mumbai,"Kherwadi_Bandra East, Mumbai - MPCB",08-01-2024 02:00:00,19.0632143,72.8456324,PM2.5,86,161,129
India,Maharashtra,Mumbai,"Khindipada-Bhandup West, Mumbai - IITM",08-01-2024 02:00:00,19.1653323,72.922099,PM10,89,118,109
India,Maharashtra,Mumbai,"Kurla, Mumbai - MPCB",08-01-2024 02:00:00,19.0863,72.8888,PM2.5,81,207,113
India,Maharashtra,Mumbai,"Kurla, Mumbai - MPCB",08-01-2024 02:00:00,19.0863,72.8888,NH3,4,4,4
India,Maharashtra,Mumbai,"Malad West, Mumbai - IITM",08-01-2024 02:00:00,19.19709,72.82204,PM10,96,145,114
India,Maharashtra,Mumbai,"Mazgaon, Mumbai - IITM",08-01-2024 02:00:00,18.96702,72.84214,NH3,4,11,7
India,Maharashtra,Mumbai,"Mindspace-Malad West, Mumbai - MPCB",08-01-2024 02:00:00,19.1878657,72.8304069,PM10,85,133,107
India,Maharashtra,Mumbai,"Mindspace-Malad West, Mumbai - MPCB",08-01-2024 02:00:00,19.1878657,72.8304069,SO2,3,9,6
India,Maharashtra,Mumbai,"Mindspace-Malad West, Mumbai - MPCB",08-01-2024 02:00:00,19.1878657,72.8304069,CO,39,105,75
India,Maharashtra,Mumbai,"Navy Nagar-Colaba, Mumbai - IITM",08-01-2024 02:00:00,18.897756,72.813320,PM2.5,60,91,78
India,Maharashtra,Mumbai,"Navy Nagar-Colaba, Mumbai - IITM",08-01-2024 02:00:00,18.897756,72.813320,PM10,71,118,101
India,Maharashtra,Mumbai,"Navy Nagar-Colaba, Mumbai - IITM",08-01-2024 02:00:00,18.897756,72.813320,NH3,10,12,11
India,Maharashtra,Mumbai,"Navy Nagar-Colaba, Mumbai - IITM",08-01-2024 02:00:00,18.897756,72.813320,SO2,3,25,8
India,Maharashtra,Mumbai,"Powai, Mumbai - MPCB",08-01-2024 02:00:00,19.137500,72.915056,PM2.5,70,132,93
India,Maharashtra,Mumbai,"Powai, Mumbai - MPCB",08-01-2024 02:00:00,19.137500,72.915056,OZONE,26,55,36
India,Maharashtra,Mumbai,"Sewri, Mumbai - BMC",08-01-2024 02:00:00,19.000084,72.856730,NO2,37,97,69
India,Maharashtra,Mumbai,"Sion, Mumbai - MPCB",08-01-2024 02:00:00,19.047000,72.874600,SO2,34,38,36
India,Maharashtra,Mumbai,"Vasai West, Mumbai - MPCB",08-01-2024 02:00:00,19.383200,72.820400,NO2,26,27,27
India,Maharashtra,Mumbai,"Vasai West, Mumbai - MPCB",08-01-2024 02:00:00,19.383200,72.820400,NH3,4,4,4
India,Maharashtra,Mumbai,"Vasai West, Mumbai - MPCB",08-01-2024 02:00:00,19.383200,72.820400,CO,34,49,44
India,Maharashtra,Mumbai,"Vile Parle West, Mumbai - MPCB",08-01-2024 02:00:00,19.10861,72.83622,PM2.5,71,168,106
India,Maharashtra,Mumbai,"Worli, Mumbai - MPCB",08-01-2024 02:00:00,18.9936162,72.8128113,PM10,96,149,124
India,Maharashtra,Mumbai,"Worli, Mumbai - MPCB",08-01-2024 02:00:00,18.9936162,72.8128113,SO2,10,11,10
India,Maharashtra,Mumbai,"Worli, Mumbai - MPCB",08-01-2024 02:00:00,18.9936162,72.8128113,OZONE,6,10,7
India,Maharashtra,Nagpur,"Ambazari, Nagpur - MPCB",08-01-2024 02:00:00,21.121801,79.04952,NO2,18,106,35
India,Maharashtra,Nagpur,"Mahal, Nagpur - MPCB",08-01-2024 02:00:00,21.14472,79.107595,NO2,14,62,26
India,Maharashtra,Nagpur,"Opp GPO Civil Lines, Nagpur - MPCB",08-01-2024 02:00:00,21.152875,79.0517531,PM2.5,110,265,160
India,Maharashtra,Nanded,"Sneh Nagar, Nanded - MPCB",08-01-2024 02:00:00,19.173852,77.296291,PM2.5,90,184,112
India,Maharashtra,Nanded,"Sneh Nagar, Nanded - MPCB",08-01-2024 02:00:00,19.173852,77.296291,NO2,29,89,52
India,Maharashtra,Nanded,"Sneh Nagar, Nanded - MPCB",08-01-2024 02:00:00,19.173852,77.296291,SO2,5,8,7
India,Maharashtra,Nashik,"Gangapur Road, Nashik - MPCB",08-01-2024 02:00:00,20.0073285,73.7762427,NO2,NA,NA,NA
India,Maharashtra,Nashik,"MIDC Ambad, Nashik - MPCB",08-01-2024 02:00:00,19.950220,73.731480,PM2.5,72,258,158
India,Maharashtra,Nashik,"MIDC Ambad, Nashik - MPCB",08-01-2024 02:00:00,19.950220,73.731480,NH3,2,2,2
India,Maharashtra,Nashik,"Pandav Nagari, Nashik - MPCB",08-01-2024 02:00:00,19.9591346,73.7788008,NO2,22,119,43
India,Maharashtra,Nashik,"Pandav Nagari, Nashik - MPCB",08-01-2024 02:00:00,19.9591346,73.7788008,CO,36,105,68
India,Maharashtra,Navi Mumbai,"Kopripada-Vashi, Navi Mumbai - MPCB",08-01-2024 02:00:00,19.090337,73.014232,NO2,NA,NA,NA
India,Maharashtra,Navi Mumbai,"Kopripada-Vashi, Navi Mumbai - MPCB",08-01-2024 02:00:00,19.090337,73.014232,NH3,NA,NA,NA
India,Maharashtra,Navi Mumbai,"Kopripada-Vashi, Navi Mumbai - MPCB",08-01-2024 02:00:00,19.090337,73.014232,CO,38,74,54
India,Maharashtra,Navi Mumbai,"Mahape, Navi Mumbai - MPCB",08-01-2024 02:00:00,19.1135051,73.008978,PM2.5,41,93,62
India,Maharashtra,Navi Mumbai,"Mahape, Navi Mumbai - MPCB",08-01-2024 02:00:00,19.1135051,73.008978,NH3,3,3,3
India,Maharashtra,Navi Mumbai,"Mahape, Navi Mumbai - MPCB",08-01-2024 02:00:00,19.1135051,73.008978,CO,28,44,37
India,Maharashtra,Navi Mumbai,"Nerul, Navi Mumbai - MPCB",08-01-2024 02:00:00,19.008751,73.016620,PM10,74,249,123
India,Maharashtra,Navi Mumbai,"Nerul, Navi Mumbai - MPCB",08-01-2024 02:00:00,19.008751,73.016620,NO2,12,34,23
India,Maharashtra,Navi Mumbai,"Sanpada, Navi Mumbai - MPCB",08-01-2024 02:00:00,19.0575752,73.0151367,NH3,8,12,10
India,Maharashtra,Navi Mumbai,"Sector-19A Nerul, Navi Mumbai - IITM",08-01-2024 02:00:00,19.044,73.0325,PM2.5,68,282,165
India,Maharashtra,Navi Mumbai,"Sector-19A Nerul, Navi Mumbai - IITM",08-01-2024 02:00:00,19.044,73.0325,CO,46,114,100
India,Maharashtra,Navi Mumbai,"Sector-19A Nerul, Navi Mumbai - IITM",08-01-2024 02:00:00,19.044,73.0325,OZONE,19,78,24
India,Maharashtra,Navi Mumbai,"Sector-2E Kalamboli, Navi Mumbai - MPCB",08-01-2024 02:00:00,19.02579,73.10297,PM10,64,240,163
India,Maharashtra,Navi Mumbai,"Sector-2E Kalamboli, Navi Mumbai - MPCB",08-01-2024 02:00:00,19.02579,73.10297,NH3,11,17,14
India,Maharashtra,Navi Mumbai,"Tondare-Taloja, Navi Mumbai - MPCB",08-01-2024 02:00:00,19.0630,73.1209,OZONE,1,125,45
India,Maharashtra,Pimpri-Chinchwad,"Gavalinagar, Pimpri Chinchwad - MPCB",08-01-2024 02:00:00,18.63673,73.82487,OZONE,2,84,25
India,Maharashtra,Pune,"Bhosari, Pune - IITM",08-01-2024 02:00:00,18.640051,73.848956,NO2,6,25,17
India,Maharashtra,Pune,"Karve Road, Pune - MPCB",08-01-2024 02:00:00,18.5011743,73.8165527,PM2.5,71,99,73
India,Maharashtra,Pune,"Katraj Dairy, Pune - MPCB",08-01-2024 02:00:00,18.454450,73.854155,SO2,2,10,6
India,Maharashtra,Pune,"Mhada Colony, Pune - IITM",08-01-2024 02:00:00,18.573040,73.927715,PM10,54,114,84
India,Maharashtra,Pune,"Savitribai Phule Pune University, Pune - MPCB",08-01-2024 02:00:00,18.547056,73.826908,PM2.5,NA,NA,NA
India,Maharashtra,Pune,"Transport Nagar-Nigdi, Pune - IITM",08-01-2024 02:00:00,18.664282,73.763966,PM10,NA,NA,NA
India,Maharashtra,Sangli,"Vijay Nagar, Sangli - MPCB",08-01-2024 02:00:00, 16.5038,74.3623,NO2,11,59,25
India,Maharashtra,Sangli,"Vijay Nagar, Sangli - MPCB",08-01-2024 02:00:00, 16.5038,74.3623,NH3,1,4,2
India,Maharashtra,Sangli,"Vijay Nagar, Sangli - MPCB",08-01-2024 02:00:00, 16.5038,74.3623,SO2,2,14,6
India,Maharashtra,Solapur,"Dnyaneshwar Nagar, Solapur - MPCB",08-01-2024 02:00:00,17.6336264,75.9132495,PM2.5,58,136,89
India,Maharashtra,Solapur,"Solapur, Solapur - MPCB",08-01-2024 02:00:00,17.6599188,75.9063906,NO2,46,51,48
India,Maharashtra,Thane,"Kasarvadavali, Thane - MPCB",08-01-2024 02:00:00,19.26777,72.97182,NO2,23,90,41
India,Maharashtra,Thane,"Upvan Fort, Thane - MPCB",08-01-2024 02:00:00,19.222279,72.957979,NO2,21,85,40
India,Maharashtra,Thane,"Upvan Fort, Thane - MPCB",08-01-2024 02:00:00,19.222279,72.957979,OZONE,12,137,66
India,Maharashtra,Ulhasnagar,"Sidhi Vinayak Nagar, Ulhasnagar - MPCB",08-01-2024 02:00:00,19.235581,73.159121,OZONE,17,214,71
India,Maharashtra,Virar,"Bolinj, Virar - MPCB",08-01-2024 02:00:00,19.4458210,72.7988231,PM10,107,152,130
India,Maharashtra,Virar,"Bolinj, Virar - MPCB",08-01-2024 02:00:00,19.4458210,72.7988231,NH3,5,9,6
India,Manipur,Imphal,"DM College of Science, Imphal - Manipur PCB",08-01-2024 02:00:00,24.8207389,93.9423085,PM10,16,152,42
India,Manipur,Imphal,"DM College of Science, Imphal - Manipur PCB",08-01-2024 02:00:00,24.8207389,93.9423085,NH3,2,2,2
India,Meghalaya,Shillong,"JN Stadium, Shillong - Meghalaya PCB",08-01-2024 02:00:00,25.5803419,91.8942571,PM2.5,NA,NA,NA
India,Meghalaya,Shillong,"JN Stadium, Shillong - Meghalaya PCB",08-01-2024 02:00:00,25.5803419,91.8942571,NO2,17,58,31
India,Meghalaya,Shillong,"JN Stadium, Shillong - Meghalaya PCB",08-01-2024 02:00:00,25.5803419,91.8942571,OZONE,1,19,4
India,Mizoram,Aizawl,"Sikulpuikawn, Aizawl - Mizoram PCB",08-01-2024 02:00:00,23.7176342,92.7192841,SO2,2,2,2
India,Nagaland,Kohima,"PWD Juction, Kohima - NPCB",08-01-2024 02:00:00,25.6635413,94.0989878,PM2.5,21,147,53
India,Nagaland,Kohima,"PWD Juction, Kohima - NPCB",08-01-2024 02:00:00,25.6635413,94.0989878,NO2,3,4,3
India,Odisha,Angul,"Hakimapada, Angul - OSPCB",08-01-2024 02:00:00,20.832874,85.104082,PM10,131,362,213
India,Odisha,Angul,"Hakimapada, Angul - OSPCB",08-01-2024 02:00:00,20.832874,85.104082,NH3,1,2,1
India,Odisha,Angul,"Hakimapada, Angul - OSPCB",08-01-2024 02:00:00,20.832874,85.104082,SO2,11,131,56
India,Odisha,Angul,"Hakimapada, Angul - OSPCB",08-01-2024 02:00:00,20.832874,85.104082,CO,32,100,41
India,Odisha,Barbil,"Forest Office, Barbil - OSPCB",08-01-2024 02:00:00,22.1166054,85.3945546,PM2.5,127,375,281
India,Odisha,Barbil,"Forest Office, Barbil - OSPCB",08-01-2024 02:00:00,22.1166054,85.3945546,PM10,124,402,216
India,Odisha,Barbil,"Forest Office, Barbil - OSPCB",08-01-2024 02:00:00,22.1166054,85.3945546,CO,44,104,89
India,Odisha,Baripada,"Meher Colony, Baripada - OSPCB",08-01-2024 02:00:00,21.941841,86.728318,CO,34,57,44
India,Odisha,Bhubaneswar,"Lingraj Mandir, Bhubaneswar - OSPCB",08-01-2024 02:00:00,20.240790,85.836784,PM10,160,358,206
India,Odisha,Bhubaneswar,"Patia, Bhubaneswar - OSPCB",08-01-2024 02:00:00,20.34652,85.81630,SO2,6,29,17
India,Odisha,Bhubaneswar,"Patia, Bhubaneswar - OSPCB",08-01-2024 02:00:00,20.34652,85.81630,OZONE,8,173,65
India,Odisha,Bileipada,"Tata Township, Bileipada - OSPCB",08-01-2024 02:00:00,22.06156703,85.47409613,OZONE,10,18,11
India,Odisha,Cuttack,"CDA Area, Cuttack - OSPCB",08-01-2024 02:00:00,20.48891     ,85.84768     ,PM2.5,303,500,340
India,Odisha,Cuttack,"CDA Area, Cuttack - OSPCB",08-01-2024 02:00:00,20.48891     ,85.84768     ,NO2,20,102,37
India,Odisha,Cuttack,"CDA Area, Cuttack - OSPCB",08-01-2024 02:00:00,20.48891     ,85.84768     ,NH3,3,6,4
India,Odisha,Keonjhar,"Jagamohanpur, Keonjhar - OSPCB",08-01-2024 02:00:00,21.643900,85.599355,PM2.5,293,368,323
India,Odisha,Keonjhar,"Jagamohanpur, Keonjhar - OSPCB",08-01-2024 02:00:00,21.643900,85.599355,OZONE,1,30,1
India,Odisha,Rairangpur,"Divisional Forest Office, Rairangpur - OSPCB",08-01-2024 02:00:00,22.265816,86.174829,SO2,5,29,12
India,Odisha,Suakati,"OMC Colony, Suakati - OSPCB",08-01-2024 02:00:00,21.606865,85.510538,NO2,NA,NA,NA
India,Odisha,Suakati,"OMC Colony, Suakati - OSPCB",08-01-2024 02:00:00,21.606865,85.510538,OZONE,NA,NA,NA
India,Odisha,Tensa,"Barsua Iron Ore Mines, Tensa - OSPCB",08-01-2024 02:00:00,21.869985,85.167016,PM10,91,144,123
India,Odisha,Tensa,"Barsua Iron Ore Mines, Tensa - OSPCB",08-01-2024 02:00:00,21.869985,85.167016,SO2,11,24,19
India,Puducherry,Puducherry,"Jawahar Nagar, Puducherry - PPCC",08-01-2024 02:00:00,11.9309,79.8027,SO2,NA,NA,NA
India,Punjab,Amritsar,"Golden Temple, Amritsar - PPCB",08-01-2024 02:00:00,31.620000,74.876512,CO,17,26,21
India,Punjab,Jalandhar,"Civil Line, Jalandhar - PPCB",08-01-2024 02:00:00,31.321907,75.578914,CO,36,70,56
India,Punjab,Ludhiana,"Punjab Agricultural University, Ludhiana - PPCB",08-01-2024 02:00:00,30.9028,75.8086,PM2.5,39,178,100
India,Punjab,Ludhiana,"Punjab Agricultural University, Ludhiana - PPCB",08-01-2024 02:00:00,30.9028,75.8086,PM10,48,125,94
India,Punjab,Ludhiana,"Punjab Agricultural University, Ludhiana - PPCB",08-01-2024 02:00:00,30.9028,75.8086,SO2,4,18,9
India,Punjab,Mandi Gobindgarh,"RIMT University, Mandi Gobindgarh - PPCB",08-01-2024 02:00:00,30.649961,76.331442,NO2,30,32,31
India,Punjab,Patiala,"Model Town, Patiala - PPCB",08-01-2024 02:00:00,30.349388,76.366642,PM2.5,51,109,75
India,Punjab,Patiala,"Model Town, Patiala - PPCB",08-01-2024 02:00:00,30.349388,76.366642,NH3,6,7,7
India,Punjab,Patiala,"Model Town, Patiala - PPCB",08-01-2024 02:00:00,30.349388,76.366642,OZONE,23,24,23
India,Punjab,Rupnagar,"Ratanpura, Rupnagar - Ambuja Cements",08-01-2024 02:00:00,31.0325454,76.5623046,PM2.5,60,282,134
India,Rajasthan,Ajmer,"Civil Lines,  Ajmer - RSPCB",08-01-2024 02:00:00,26.470859,74.646594,PM2.5,58,155,109
India,Rajasthan,Alwar,"Moti Doongri, Alwar - RSPCB",08-01-2024 02:00:00,27.554793,76.611536,CO,24,105,74
India,Rajasthan,Banswara,"Rati Talai, Banswara - RSPCB",08-01-2024 02:00:00,23.555190,74.440010,NO2,37,49,40
India,Rajasthan,Banswara,"Rati Talai, Banswara - RSPCB",08-01-2024 02:00:00,23.555190,74.440010,NH3,3,3,3
India,Rajasthan,Baran,"Bamboliya, Baran - RSPCB",08-01-2024 02:00:00,25.106006,76.469948,CO,38,68,54
India,Rajasthan,Baran,"Bamboliya, Baran - RSPCB",08-01-2024 02:00:00,25.106006,76.469948,OZONE,3,75,16
India,Rajasthan,Bhilwara,"Pratap Nagar, Bhilwara - RSPCB",08-01-2024 02:00:00,25.339605,74.618883,CO,32,81,56
India,Rajasthan,Bhiwadi,"RIICO Ind. Area III, Bhiwadi - RSPCB",08-01-2024 02:00:00,28.194909,76.862296,CO,11,100,40
India,Rajasthan,Bundi,"New Colony, Bundi - RSPCB",08-01-2024 02:00:00,25.435774,75.644272,OZONE,2,65,11
India,Rajasthan,Chittorgarh,"Shastri Nagar, Chittorgarh - RSPCB",08-01-2024 02:00:00,24.892047,74.623527,SO2,3,116,39
India,Rajasthan,Dholpur,"Raja Ganj, Dholpur - RSPCB",08-01-2024 02:00:00,26.699557,77.898881,PM10,157,387,225
India,Rajasthan,Dholpur,"Raja Ganj, Dholpur - RSPCB",08-01-2024 02:00:00,26.699557,77.898881,SO2,11,74,22
India,Rajasthan,Hanumangarh,"Housing Board, Hanumangarh - RSPCB",08-01-2024 02:00:00,29.610750,74.283608,PM2.5,85,344,234
India,Rajasthan,Jaipur,"Adarsh Nagar, Jaipur - RSPCB",08-01-2024 02:00:00,26.902909,75.836858,PM10,109,159,130
India,Rajasthan,Jaipur,"Police Commissionerate, Jaipur - RSPCB",08-01-2024 02:00:00,26.9164092,75.7994901,SO2,5,34,17
India,Rajasthan,Jaipur,"Police Commissionerate, Jaipur - RSPCB",08-01-2024 02:00:00,26.9164092,75.7994901,OZONE,10,80,25
India,Rajasthan,Jaipur,"RIICO Sitapura, Jaipur - RSPCB",08-01-2024 02:00:00,26.786682,75.827928,PM2.5,266,410,324
India,Rajasthan,Jaipur,"RIICO Sitapura, Jaipur - RSPCB",08-01-2024 02:00:00,26.786682,75.827928,CO,26,109,78
India,Rajasthan,Jaipur,"Shastri Nagar, Jaipur - RSPCB",08-01-2024 02:00:00,26.9502929,75.730943,PM2.5,182,348,265
India,Rajasthan,Jaipur,"Shastri Nagar, Jaipur - RSPCB",08-01-2024 02:00:00,26.9502929,75.730943,NH3,9,40,17
India,Rajasthan,Jaisalmer,"Sadar Bazar, Jaisalmer - RSPCB",08-01-2024 02:00:00,26.912329,70.909168,OZONE,21,310,44
India,Rajasthan,Jalore,"Mudtra Sili, Jalore - RSPCB",08-01-2024 02:00:00,25.344694,72.626208,PM10,89,187,131
India,Rajasthan,Jalore,"Mudtra Sili, Jalore - RSPCB",08-01-2024 02:00:00,25.344694,72.626208,NH3,4,15,13
India,Rajasthan,Jalore,"Mudtra Sili, Jalore - RSPCB",08-01-2024 02:00:00,25.344694,72.626208,OZONE,11,100,51
India,Rajasthan,Jhalawar,"Rajlaxmi Nagar, Jhalawar - RSPCB",08-01-2024 02:00:00,24.588397,76.172782,PM2.5,62,321,158
India,Rajasthan,Jhunjhunu,"Indra Nagar, Jhunjhunu - RSPCB",08-01-2024 02:00:00,28.108988,75.386577,OZONE,8,54,17
India,Rajasthan,Jodhpur,"Digari Kalan, Jodhpur - RSPCB",08-01-2024 02:00:00,26.295810,73.082283,PM10,67,102,86
India,Rajasthan,Jodhpur,"Mandor, Jodhpur - RSPCB",08-01-2024 02:00:00,26.358805,73.047444,PM2.5,99,206,157
India,Rajasthan,Jodhpur,"Mandor, Jodhpur - RSPCB",08-01-2024 02:00:00,26.358805,73.047444,CO,39,59,41
India,Rajasthan,Jodhpur,"Samrat Ashok Udhyan, Jodhpur - RSPCB",08-01-2024 02:00:00,26.253384,72.976571,NO2,19,78,35
India,Rajasthan,Jodhpur,"Samrat Ashok Udhyan, Jodhpur - RSPCB",08-01-2024 02:00:00,26.253384,72.976571,CO,39,62,46
India,Rajasthan,Karauli,"Satyawati Vihar, Karauli - RSPCB",08-01-2024 02:00:00,26.506177,77.025989,PM2.5,200,394,322
India,Rajasthan,Karauli,"Satyawati Vihar, Karauli - RSPCB",08-01-2024 02:00:00,26.506177,77.025989,NO2,5,27,15
India,Rajasthan,Karauli,"Satyawati Vihar, Karauli - RSPCB",08-01-2024 02:00:00,26.506177,77.025989,CO,3,68,30
India,Rajasthan,Kota,"Dhanmandi, Kota - RSPCB",08-01-2024 02:00:00,25.164090,75.858137,NH3,3,4,3
India,Rajasthan,Kota,"Dhanmandi, Kota - RSPCB",08-01-2024 02:00:00,25.164090,75.858137,OZONE,12,52,24
India,Rajasthan,Kota,"Nayapura, Kota - RSPCB",08-01-2024 02:00:00,25.196024,75.855668,PM2.5,117,407,245
India,Rajasthan,Kota,"Nayapura, Kota - RSPCB",08-01-2024 02:00:00,25.196024,75.855668,SO2,5,11,8
India,Rajasthan,Pali,"Indira Colony Vistar, Pali - RSPCB",08-01-2024 02:00:00,25.771061, 73.340227,NH3,6,17,13
India,Rajasthan,Pali,"Indira Colony Vistar, Pali - RSPCB",08-01-2024 02:00:00,25.771061, 73.340227,SO2,8,18,13
India,Rajasthan,Pratapgarh,"Pragati Nagar, Pratapgarh - RSPCB",08-01-2024 02:00:00,24.041198,74.780702,PM2.5,48,240,130
India,Rajasthan,Pratapgarh,"Pragati Nagar, Pratapgarh - RSPCB",08-01-2024 02:00:00,24.041198,74.780702,NO2,14,28,22
India,Rajasthan,Rajsamand,"Dhoinda, Rajsamand - RSPCB",08-01-2024 02:00:00,25.036360,73.883502,CO,2,43,26
India,Rajasthan,Sawai Madhopur,"Sahu Nagar, Sawai Madhopur - RSPCB",08-01-2024 02:00:00,26.031443,76.359327,OZONE,131,147,139
India,Rajasthan,Sikar,"Radhakishan Pura, Sikar - RSPCB",08-01-2024 02:00:00,27.608912,75.153302,OZONE,23,113,48
India,Rajasthan,Sirohi,"Vedhaynath Colony, Sirohi - RSPCB",08-01-2024 02:00:00,24.885261,72.857549,PM2.5,55,187,94
India,Rajasthan,Sirohi,"Vedhaynath Colony, Sirohi - RSPCB",08-01-2024 02:00:00,24.885261,72.857549,SO2,1,6,4
India,Rajasthan,Sri Ganganagar,"Old City, Sri Ganganagar - RSPCB",08-01-2024 02:00:00,29.931624,73.864511,PM2.5,95,306,211
India,Rajasthan,Sri Ganganagar,"Old City, Sri Ganganagar - RSPCB",08-01-2024 02:00:00,29.931624,73.864511,SO2,4,6,5
India,Rajasthan,Tonk,"Shastri Nagar, Tonk - RSPCB",08-01-2024 02:00:00,26.159933,75.780517,SO2,2,9,5
India,Rajasthan,Udaipur,"Ashok Nagar, Udaipur - RSPCB",08-01-2024 02:00:00,24.5886166,73.6321397,PM2.5,70,219,128
India,Sikkim,Gangtok,"Zero Point GICI, Gangtok - SSPCB",08-01-2024 02:00:00,27.338530,88.614099,NH3,1,1,1
India,TamilNadu,Ariyalur,"Keelapalur, Ariyalur - TNPCB",08-01-2024 02:00:00,11.06825,79.07033,NO2,13,33,24
India,TamilNadu,Chengalpattu,"Crescent University, Chengalpattu - TNPCB",08-01-2024 02:00:00,12.8777316,80.0834807,SO2,22,23,23
India,TamilNadu,Chengalpattu,"Crescent University, Chengalpattu - TNPCB",08-01-2024 02:00:00,12.8777316,80.0834807,CO,26,28,26
India,TamilNadu,Chennai,"Alandur Bus Depot, Chennai - CPCB",08-01-2024 02:00:00,12.9099161,80.1076538,PM2.5,66,135,87
India,TamilNadu,Chennai,"Arumbakkam, Chennai - TNPCB",08-01-2024 02:00:00,13.0664,80.2112 ,SO2,NA,NA,NA
India,TamilNadu,Chennai,"Kodungaiyur, Chennai - TNPCB",08-01-2024 02:00:00,13.1278,80.2642,PM10,13,63,33
India,TamilNadu,Chennai,"Kodungaiyur, Chennai - TNPCB",08-01-2024 02:00:00,13.1278,80.2642,CO,26,105,33
India,TamilNadu,Chennai,"Manali, Chennai - CPCB",08-01-2024 02:00:00,13.164544,80.26285,PM10,63,149,102
India,TamilNadu,Chennai,"Perungudi, Chennai - TNPCB",08-01-2024 02:00:00,12.9533,80.2357,PM2.5,8,52,25
India,TamilNadu,Chennai,"Perungudi, Chennai - TNPCB",08-01-2024 02:00:00,12.9533,80.2357,NH3,2,2,2
India,TamilNadu,Chennai,"Perungudi, Chennai - TNPCB",08-01-2024 02:00:00,12.9533,80.2357,SO2,1,6,3
India,TamilNadu,Chennai,"Perungudi, Chennai - TNPCB",08-01-2024 02:00:00,12.9533,80.2357,CO,20,45,23
India,TamilNadu,Chennai,"Perungudi, Chennai - TNPCB",08-01-2024 02:00:00,12.9533,80.2357,OZONE,4,13,9
India,TamilNadu,Chennai,"Royapuram, Chennai - TNPCB",08-01-2024 02:00:00,13.1036,80.2909,OZONE,8,10,9
India,TamilNadu,Chennai,"Velachery Res. Area, Chennai - CPCB",08-01-2024 02:00:00,13.0052189,80.2398125,PM2.5,15,41,28
India,TamilNadu,Chennai,"Velachery Res. Area, Chennai - CPCB",08-01-2024 02:00:00,13.0052189,80.2398125,SO2,10,11,11
India,TamilNadu,Gummidipoondi,"Anthoni Pillai Nagar, Gummidipoondi - TNPCB",08-01-2024 02:00:00,13.4127,80.1081,NH3,3,3,3
India,TamilNadu,Gummidipoondi,"Anthoni Pillai Nagar, Gummidipoondi - TNPCB",08-01-2024 02:00:00,13.4127,80.1081,SO2,7,102,21
India,TamilNadu,Salem,"Sona College of Technology, Salem - TNPCB",08-01-2024 02:00:00,11.679111,78.125052,OZONE,3,4,3
India,TamilNadu,Thoothukudi,"Meelavittan, Thoothukudi - TNPCB",08-01-2024 02:00:00,8.816428 ,78.099039,PM10,12,117,35
India,TamilNadu,Thoothukudi,"Meelavittan, Thoothukudi - TNPCB",08-01-2024 02:00:00,8.816428 ,78.099039,SO2,6,65,12
India,TamilNadu,Thoothukudi,"Meelavittan, Thoothukudi - TNPCB",08-01-2024 02:00:00,8.816428 ,78.099039,OZONE,2,4,4
India,TamilNadu,Tiruchirappalli,"St Joseph College, Tiruchirappalli - TNPCB",08-01-2024 02:00:00,10.830158,78.691849,NH3,3,3,3
India,TamilNadu,Tirupur,"Kumaran College, Tirupur - TNPCB",08-01-2024 02:00:00,11.0973603,77.3228673,PM10,27,126,56
India,TamilNadu,Virudhunagar,"Collectorate Office, Virudhunagar - TNPCB",08-01-2024 02:00:00,9.559382,77.948828,PM10,18,61,38
India,TamilNadu,Virudhunagar,"Collectorate Office, Virudhunagar - TNPCB",08-01-2024 02:00:00,9.559382,77.948828,OZONE,3,4,3
India,Telangana,Hyderabad,"Bollaram Industrial Area, Hyderabad - TSPCB",08-01-2024 02:00:00,17.540891,78.358528,PM2.5,NA,NA,NA
India,Telangana,Hyderabad,"Bollaram Industrial Area, Hyderabad - TSPCB",08-01-2024 02:00:00,17.540891,78.358528,CO,28,28,28
India,Telangana,Hyderabad,"Central University, Hyderabad - TSPCB",08-01-2024 02:00:00,17.460103,78.334361,PM10,54,76,64
India,Telangana,Hyderabad,"Central University, Hyderabad - TSPCB",08-01-2024 02:00:00,17.460103,78.334361,NO2,10,33,21
India,Telangana,Hyderabad,"Central University, Hyderabad - TSPCB",08-01-2024 02:00:00,17.460103,78.334361,CO,27,50,41
India,Telangana,Hyderabad,"Central University, Hyderabad - TSPCB",08-01-2024 02:00:00,17.460103,78.334361,OZONE,3,4,4
India,Telangana,Hyderabad,"ECIL Kapra, Hyderabad - TSPCB",08-01-2024 02:00:00,17.470431,78.566959,PM10,NA,NA,NA
India,Telangana,Hyderabad,"ECIL Kapra, Hyderabad - TSPCB",08-01-2024 02:00:00,17.470431,78.566959,NH3,NA,NA,NA
India,Telangana,Hyderabad,"ICRISAT Patancheru, Hyderabad - TSPCB",08-01-2024 02:00:00,17.518400,78.278777,PM2.5,38,89,66
India,Telangana,Hyderabad,"ICRISAT Patancheru, Hyderabad - TSPCB",08-01-2024 02:00:00,17.518400,78.278777,CO,48,74,63
India,Telangana,Hyderabad,"ICRISAT Patancheru, Hyderabad - TSPCB",08-01-2024 02:00:00,17.518400,78.278777,OZONE,60,125,72
India,Telangana,Hyderabad,"Kokapet, Hyderabad - TSPCB",08-01-2024 02:00:00,17.393559,78.339194,PM2.5,NA,NA,NA
India,Telangana,Hyderabad,"Kompally Municipal Office, Hyderabad - TSPCB",08-01-2024 02:00:00,17.544899,78.486949,NO2,NA,NA,NA
India,Telangana,Hyderabad,"Nacharam_TSIIC IALA, Hyderabad - TSPCB",08-01-2024 02:00:00,17.429398,78.569354,PM2.5,45,117,65
India,Telangana,Hyderabad,"Nacharam_TSIIC IALA, Hyderabad - TSPCB",08-01-2024 02:00:00,17.429398,78.569354,CO,19,22,21
India,Telangana,Hyderabad,"New Malakpet, Hyderabad - TSPCB",08-01-2024 02:00:00,17.37206,78.50864,NO2,18,27,23
India,Telangana,Hyderabad,"Ramachandrapuram, Hyderabad - TSPCB",08-01-2024 02:00:00,17.528544,78.286195,PM10,NA,NA,NA
India,Telangana,Hyderabad,"Sanathnagar, Hyderabad - TSPCB",08-01-2024 02:00:00,17.4559458,78.4332152,CO,36,64,60
India,Telangana,Hyderabad,"Zoo Park, Hyderabad - TSPCB",08-01-2024 02:00:00,17.349694,78.451437,PM10,42,92,64
India,Tripura,Agartala,"Bardowali, Agartala - Tripura SPCB",08-01-2024 02:00:00,23.8175497,91.2726974,PM10,97,284,174
India,Tripura,Agartala,"Bardowali, Agartala - Tripura SPCB",08-01-2024 02:00:00,23.8175497,91.2726974,NH3,2,2,2
India,Uttar_Pradesh,Agra,"Sanjay Palace, Agra - UPPCB",08-01-2024 02:00:00,27.19865833,78.00598056,OZONE,17,85,54
India,Uttar_Pradesh,Agra,"Shastripuram, Agra - UPPCB",08-01-2024 02:00:00,27.19862,77.92066,PM10,88,172,125
India,Uttar_Pradesh,Agra,"Shastripuram, Agra - UPPCB",08-01-2024 02:00:00,27.19862,77.92066,NH3,2,3,2
India,Uttar_Pradesh,Agra,"Shastripuram, Agra - UPPCB",08-01-2024 02:00:00,27.19862,77.92066,SO2,15,21,17
India,Uttar_Pradesh,Agra,"Shastripuram, Agra - UPPCB",08-01-2024 02:00:00,27.19862,77.92066,CO,4,16,10
India,Uttar_Pradesh,Baghpat,"Sardar Patel Inter College, Baghpat - UPPCB",08-01-2024 02:00:00,28.964949,77.278761,NH3,2,6,4
India,Uttar_Pradesh,Bareilly,"Civil Lines, Bareilly - UPPCB",08-01-2024 02:00:00,28.359581,79.414455,NO2,17,24,21
India,Uttar_Pradesh,Bareilly,"Rajendra Nagar, Bareilly - UPPCB",08-01-2024 02:00:00,28.38910936,79.42963708,PM10,63,118,98
India,Uttar_Pradesh,Bareilly,"Rajendra Nagar, Bareilly - UPPCB",08-01-2024 02:00:00,28.38910936,79.42963708,OZONE,8,13,9
India,Uttar_Pradesh,Bulandshahr,"Yamunapuram, Bulandshahr - UPPCB",08-01-2024 02:00:00,28.406963,77.849831,SO2,9,16,13
India,Uttar_Pradesh,Firozabad,"Nagla Bhau, Firozabad - UPPCB",08-01-2024 02:00:00,27.168897,78.376960,NH3,1,2,2
India,Uttar_Pradesh,Firozabad,"Nagla Bhau, Firozabad - UPPCB",08-01-2024 02:00:00,27.168897,78.376960,SO2,38,48,44
India,Uttar_Pradesh,Firozabad,"Nagla Bhau, Firozabad - UPPCB",08-01-2024 02:00:00,27.168897,78.376960,OZONE,9,270,60
India,Uttar_Pradesh,Firozabad,"Vibhab Nagar, Firozabad - UPPCB",08-01-2024 02:00:00,27.1594,78.3953,NH3,2,2,2
India,Uttar_Pradesh,Ghaziabad,"Indirapuram, Ghaziabad - UPPCB",08-01-2024 02:00:00,28.646233,77.358075,NO2,94,111,102
India,Uttar_Pradesh,Ghaziabad,"Indirapuram, Ghaziabad - UPPCB",08-01-2024 02:00:00,28.646233,77.358075,OZONE,10,31,22
India,Uttar_Pradesh,Ghaziabad,"Loni, Ghaziabad - UPPCB",08-01-2024 02:00:00,28.757294,77.278792,SO2,3,15,8
India,Uttar_Pradesh,Ghaziabad,"Sanjay Nagar, Ghaziabad - UPPCB",08-01-2024 02:00:00,28.685382,77.453839,NO2,26,78,45
India,Uttar_Pradesh,Ghaziabad,"Sanjay Nagar, Ghaziabad - UPPCB",08-01-2024 02:00:00,28.685382,77.453839,CO,6,106,63
India,Uttar_Pradesh,Ghaziabad,"Sanjay Nagar, Ghaziabad - UPPCB",08-01-2024 02:00:00,28.685382,77.453839,OZONE,6,66,12
India,Uttar_Pradesh,Ghaziabad,"Vasundhara, Ghaziabad - UPPCB",08-01-2024 02:00:00,28.6603346,77.3572563,PM2.5,240,331,294
India,Uttar_Pradesh,Ghaziabad,"Vasundhara, Ghaziabad - UPPCB",08-01-2024 02:00:00,28.6603346,77.3572563,NH3,1,14,9
India,Uttar_Pradesh,Ghaziabad,"Vasundhara, Ghaziabad - UPPCB",08-01-2024 02:00:00,28.6603346,77.3572563,CO,1,94,66
India,Uttar_Pradesh,Gorakhpur,"Madan Mohan Malaviya University of Technology, Gorakhpur - UPPCB",08-01-2024 02:00:00,26.730136,83.433859,NO2,2,2,2
India,Uttar_Pradesh,Gorakhpur,"Madan Mohan Malaviya University of Technology, Gorakhpur - UPPCB",08-01-2024 02:00:00,26.730136,83.433859,SO2,37,38,38
India,Uttar_Pradesh,Gorakhpur,"Madan Mohan Malaviya University of Technology, Gorakhpur - UPPCB",08-01-2024 02:00:00,26.730136,83.433859,CO,56,72,61
India,Uttar_Pradesh,Jhansi,"Shivaji Nagar, Jhansi - UPPCB",08-01-2024 02:00:00,25.4547,78.6039,CO,26,106,78
India,Uttar_Pradesh,Kanpur,"FTI Kidwai Nagar, Kanpur - UPPCB",08-01-2024 02:00:00,26.428282,80.327067,PM2.5,42,205,79
India,Uttar_Pradesh,Kanpur,"FTI Kidwai Nagar, Kanpur - UPPCB",08-01-2024 02:00:00,26.428282,80.327067,NO2,11,12,11
India,Uttar_Pradesh,Kanpur,"NSI Kalyanpur, Kanpur - UPPCB",08-01-2024 02:00:00,26.509954,80.249612,NH3,2,3,3
India,Uttar_Pradesh,Kanpur,"NSI Kalyanpur, Kanpur - UPPCB",08-01-2024 02:00:00,26.509954,80.249612,SO2,22,23,22
India,Uttar_Pradesh,Kanpur,"NSI Kalyanpur, Kanpur - UPPCB",08-01-2024 02:00:00,26.509954,80.249612,CO,36,96,72
India,Uttar_Pradesh,Kanpur,"Nehru Nagar, Kanpur - UPPCB",08-01-2024 02:00:00,26.4703136,80.3229863,PM2.5,68,229,124
India,Uttar_Pradesh,Kanpur,"Nehru Nagar, Kanpur - UPPCB",08-01-2024 02:00:00,26.4703136,80.3229863,PM10,61,132,94
India,Uttar_Pradesh,Kanpur,"Nehru Nagar, Kanpur - UPPCB",08-01-2024 02:00:00,26.4703136,80.3229863,SO2,1,24,9
India,Uttar_Pradesh,Kanpur,"Nehru Nagar, Kanpur - UPPCB",08-01-2024 02:00:00,26.4703136,80.3229863,OZONE,11,113,29
India,Uttar_Pradesh,Khurja,"Kalindi Kunj, Khurja - UPPCB",08-01-2024 02:00:00,28.2348927,77.8683002,NH3,1,2,2
India,Uttar_Pradesh,Khurja,"Kalindi Kunj, Khurja - UPPCB",08-01-2024 02:00:00,28.2348927,77.8683002,CO,22,62,40
India,Uttar_Pradesh,Lucknow,"B R Ambedkar University, Lucknow - UPPCB",08-01-2024 02:00:00,26.766433,80.927299,PM10,50,120,82
India,Uttar_Pradesh,Lucknow,"B R Ambedkar University, Lucknow - UPPCB",08-01-2024 02:00:00,26.766433,80.927299,SO2,22,25,24
India,Uttar_Pradesh,Lucknow,"B R Ambedkar University, Lucknow - UPPCB",08-01-2024 02:00:00,26.766433,80.927299,OZONE,4,47,22
India,Uttar_Pradesh,Lucknow,"Gomti Nagar, Lucknow - UPPCB",08-01-2024 02:00:00,26.868120,81.005119,PM10,47,123,84
India,Uttar_Pradesh,Lucknow,"Gomti Nagar, Lucknow - UPPCB",08-01-2024 02:00:00,26.868120,81.005119,OZONE,45,64,53
India,Uttar_Pradesh,Lucknow,"Kendriya Vidyalaya, Lucknow - CPCB",08-01-2024 02:00:00,26.906111,80.948222,PM2.5,113,302,209
India,Uttar_Pradesh,Lucknow,"Kendriya Vidyalaya, Lucknow - CPCB",08-01-2024 02:00:00,26.906111,80.948222,PM10,92,136,118
India,Uttar_Pradesh,Lucknow,"Kendriya Vidyalaya, Lucknow - CPCB",08-01-2024 02:00:00,26.906111,80.948222,NH3,3,20,14
India,Uttar_Pradesh,Lucknow,"Kendriya Vidyalaya, Lucknow - CPCB",08-01-2024 02:00:00,26.906111,80.948222,CO,32,72,47
India,Uttar_Pradesh,Lucknow,"Kendriya Vidyalaya, Lucknow - CPCB",08-01-2024 02:00:00,26.906111,80.948222,OZONE,6,46,18
India,Uttar_Pradesh,Lucknow,"Kukrail Picnic Spot-1, Lucknow - UPPCB",08-01-2024 02:00:00,26.90723,80.98579,OZONE,3,51,6
India,Uttar_Pradesh,Lucknow,"Talkatora District Industries Center, Lucknow - CPCB",08-01-2024 02:00:00,26.83399722,80.8917361,PM10,113,154,133
India,Uttar_Pradesh,Meerut,"Jai Bhim Nagar, Meerut - UPPCB",08-01-2024 02:00:00,28.9535882,77.7622941,SO2,4,10,7
India,Uttar_Pradesh,Meerut,"Jai Bhim Nagar, Meerut - UPPCB",08-01-2024 02:00:00,28.9535882,77.7622941,CO,36,80,64
India,Uttar_Pradesh,Meerut,"Pallavpuram Phase 2, Meerut - UPPCB",08-01-2024 02:00:00,29.063510,77.709723,PM2.5,114,309,198
India,Uttar_Pradesh,Meerut,"Pallavpuram Phase 2, Meerut - UPPCB",08-01-2024 02:00:00,29.063510,77.709723,NH3,3,4,3
India,Uttar_Pradesh,Meerut,"Pallavpuram Phase 2, Meerut - UPPCB",08-01-2024 02:00:00,29.063510,77.709723,SO2,4,8,6
India,Uttar_Pradesh,Meerut,"Pallavpuram Phase 2, Meerut - UPPCB",08-01-2024 02:00:00,29.063510,77.709723,OZONE,10,17,13
India,Uttar_Pradesh,Moradabad,"Buddhi Vihar, Moradabad - UPPCB",08-01-2024 02:00:00,28.83526,78.74460,PM10,89,133,110
India,Uttar_Pradesh,Moradabad,"Buddhi Vihar, Moradabad - UPPCB",08-01-2024 02:00:00,28.83526,78.74460,OZONE,12,18,14
India,Uttar_Pradesh,Moradabad,"Employment Office, Moradabad - UPPCB",08-01-2024 02:00:00,28.88528,78.73880,NH3,4,4,4
India,Uttar_Pradesh,Moradabad,"Employment Office, Moradabad - UPPCB",08-01-2024 02:00:00,28.88528,78.73880,CO,52,78,61
India,Uttar_Pradesh,Moradabad,"Jigar Colony, Moradabad - UPPCB",08-01-2024 02:00:00,28.856664,78.772638,PM10,104,146,119
India,Uttar_Pradesh,Moradabad,"Jigar Colony, Moradabad - UPPCB",08-01-2024 02:00:00,28.856664,78.772638,NO2,25,31,30
India,Uttar_Pradesh,Moradabad,"Transport Nagar, Moradabad - UPPCB",08-01-2024 02:00:00,28.802625,78.753728,SO2,40,42,41
India,Uttar_Pradesh,Muzaffarnagar,"New Mandi, Muzaffarnagar - UPPCB",08-01-2024 02:00:00,29.4723508,77.7194031,CO,47,85,63
India,Uttar_Pradesh,Muzaffarnagar,"New Mandi, Muzaffarnagar - UPPCB",08-01-2024 02:00:00,29.4723508,77.7194031,OZONE,8,21,14
India,Uttar_Pradesh,Noida,"Sector - 125, Noida - UPPCB",08-01-2024 02:00:00,28.5447608,77.3231257,NO2,131,155,144
India,Uttar_Pradesh,Noida,"Sector - 62, Noida - IMD",08-01-2024 02:00:00,28.6245479,77.3577104,NO2,27,43,34
India,Uttar_Pradesh,Noida,"Sector - 62, Noida - IMD",08-01-2024 02:00:00,28.6245479,77.3577104,CO,78,96,90
India,Uttar_Pradesh,Noida,"Sector-1, Noida - UPPCB",08-01-2024 02:00:00,28.5898,77.3101,NO2,39,85,60
India,Uttar_Pradesh,Noida,"Sector-1, Noida - UPPCB",08-01-2024 02:00:00,28.5898,77.3101,SO2,9,19,14
India,Uttar_Pradesh,Noida,"Sector-116, Noida - UPPCB",08-01-2024 02:00:00,28.569230,77.393848,PM2.5,268,358,323
India,Uttar_Pradesh,Noida,"Sector-116, Noida - UPPCB",08-01-2024 02:00:00,28.569230,77.393848,NH3,6,13,9
India,Uttar_Pradesh,Noida,"Sector-116, Noida - UPPCB",08-01-2024 02:00:00,28.569230,77.393848,CO,16,109,46
India,Uttar_Pradesh,Prayagraj,"Jhunsi, Prayagraj - UPPCB",08-01-2024 02:00:00,25.425602,81.917152,OZONE,1,12,3
India,Uttar_Pradesh,Prayagraj,"Nagar Nigam, Prayagraj - UPPCB",08-01-2024 02:00:00,25.44919916 ,81.82735986 ,NO2,12,12,12
India,Uttar_Pradesh,Varanasi,"Bhelupur, Varanasi - UPPCB",08-01-2024 02:00:00,25.301778,82.996789,CO,2,42,31
India,Uttar_Pradesh,Varanasi,"Maldahiya, Varanasi - UPPCB",08-01-2024 02:00:00,25.32393,82.99687,SO2,NA,NA,NA
India,Uttar_Pradesh,Varanasi,"Maldahiya, Varanasi - UPPCB",08-01-2024 02:00:00,25.32393,82.99687,OZONE,NA,NA,NA
India,Uttar_Pradesh,Vrindavan,"Omex Eternity, Vrindavan - UPPCB",08-01-2024 02:00:00,27.5714090,77.6557570,PM10,NA,NA,NA
India,Uttarakhand,Dehradun,"Doon University, Dehradun - UKPCB",08-01-2024 02:00:00,30.269444,78.044167,PM10,79,184,127
India,Uttarakhand,Dehradun,"Doon University, Dehradun - UKPCB",08-01-2024 02:00:00,30.269444,78.044167,NO2,2,11,4
India,Uttarakhand,Dehradun,"Doon University, Dehradun - UKPCB",08-01-2024 02:00:00,30.269444,78.044167,OZONE,1,10,1
India,Uttarakhand,Rishikesh,"Shivaji Nagar, Rishikesh - UKPCB",08-01-2024 02:00:00,30.075911,78.2859547,NO2,12,18,14
India,Uttarakhand,Rishikesh,"Shivaji Nagar, Rishikesh - UKPCB",08-01-2024 02:00:00,30.075911,78.2859547,NH3,3,4,3
India,West_Bengal,Asansol,"Asansol Court Area, Asansol - WBPCB",08-01-2024 02:00:00,23.685297,86.945968,CO,12,50,39
India,West_Bengal,Durgapur,"Sidhu Kanhu Indoor Stadium, Durgapur - WBPCB",08-01-2024 02:00:00,23.5404352,87.2892225,PM2.5,77,158,109
India,West_Bengal,Durgapur,"Sidhu Kanhu Indoor Stadium, Durgapur - WBPCB",08-01-2024 02:00:00,23.5404352,87.2892225,PM10,79,130,107
India,West_Bengal,Haldia,"Priyambada Housing Estate, Haldia - WBPCB",08-01-2024 02:00:00,22.06047,88.109737,PM10,140,213,172
India,West_Bengal,Howrah,"Belur Math, Howrah - WBPCB",08-01-2024 02:00:00,22.629801,88.352017,SO2,11,17,13
India,West_Bengal,Howrah,"Ghusuri, Howrah - WBPCB",08-01-2024 02:00:00,22.611968,88.347422,SO2,12,14,13
India,West_Bengal,Howrah,"Padmapukur, Howrah - WBPCB",08-01-2024 02:00:00,22.5687319,88.2797276,PM2.5,211,316,277
India,West_Bengal,Howrah,"Padmapukur, Howrah - WBPCB",08-01-2024 02:00:00,22.5687319,88.2797276,PM10,147,196,171
India,West_Bengal,Howrah,"Padmapukur, Howrah - WBPCB",08-01-2024 02:00:00,22.5687319,88.2797276,CO,62,133,114
India,West_Bengal,Kolkata,"Ballygunge, Kolkata - WBPCB",08-01-2024 02:00:00,22.5367507,88.3638022,SO2,16,44,25
India,West_Bengal,Kolkata,"Ballygunge, Kolkata - WBPCB",08-01-2024 02:00:00,22.5367507,88.3638022,OZONE,6,98,14
India,West_Bengal,Kolkata,"Bidhannagar, Kolkata - WBPCB",08-01-2024 02:00:00,22.58157048,88.41002457,SO2,10,22,16
India,West_Bengal,Kolkata,"Fort William, Kolkata - WBPCB",08-01-2024 02:00:00,22.556640,88.342674,OZONE,41,134,49
India,West_Bengal,Kolkata,"Jadavpur, Kolkata - WBPCB",08-01-2024 02:00:00,22.49929,88.36917,PM10,143,248,177
India,West_Bengal,Kolkata,"Jadavpur, Kolkata - WBPCB",08-01-2024 02:00:00,22.49929,88.36917,CO,28,100,69
India,West_Bengal,Kolkata,"Rabindra Bharati University, Kolkata - WBPCB",08-01-2024 02:00:00,22.627847,88.380669,SO2,5,36,15
India,West_Bengal,Kolkata,"Rabindra Sarobar, Kolkata - WBPCB",08-01-2024 02:00:00,22.51106,88.35142,NH3,2,12,5
India,West_Bengal,Kolkata,"Victoria, Kolkata - WBPCB",08-01-2024 02:00:00,22.5448082,88.3403691,CO,65,112,97
India,West_Bengal,Kolkata,"Victoria, Kolkata - WBPCB",08-01-2024 02:00:00,22.5448082,88.3403691,OZONE,5,121,8
India,Andhra_Pradesh,Anantapur,"Gulzarpet, Anantapur - APPCB",08-01-2024 02:00:00,14.675886,77.593027,NO2,8,8,8
India,Andhra_Pradesh,Chittoor,"Gangineni Cheruvu, Chittoor - APPCB",08-01-2024 02:00:00,13.204880,79.097889,SO2,6,36,12
India,Andhra_Pradesh,Kadapa,"Yerramukkapalli, Kadapa - APPCB",08-01-2024 02:00:00,14.465052,78.824187,NO2,10,17,12
India,Andhra_Pradesh,Vijayawada,"Kanuru, Vijayawada - APPCB",08-01-2024 02:00:00,16.486692,80.699436,OZONE,30,30,30
India,Andhra_Pradesh,Vijayawada,"Rajiv Gandhi Park, Vijayawada - APPCB",08-01-2024 02:00:00,16.509717,80.612222,NH3,5,8,7
India,Andhra_Pradesh,Vijayawada,"Rajiv Gandhi Park, Vijayawada - APPCB",08-01-2024 02:00:00,16.509717,80.612222,SO2,4,17,9
India,Andhra_Pradesh,Visakhapatnam,"GVM Corporation, Visakhapatnam - APPCB",08-01-2024 02:00:00,17.72,83.3,NO2,29,66,48
India,Andhra_Pradesh,Visakhapatnam,"GVM Corporation, Visakhapatnam - APPCB",08-01-2024 02:00:00,17.72,83.3,SO2,8,14,11
India,Andhra_Pradesh,Visakhapatnam,"GVM Corporation, Visakhapatnam - APPCB",08-01-2024 02:00:00,17.72,83.3,OZONE,11,191,99
India,Arunachal_Pradesh,Naharlagun,"Naharlagun, Naharlagun - APSPCB",08-01-2024 02:00:00,27.103358,93.679645,OZONE,2,2,2
India,Assam,Byrnihat,"Central Academy for SFS, Byrnihat - PCBA",08-01-2024 02:00:00,26.071318,91.87488,NH3,2,3,3
India,Assam,Byrnihat,"Central Academy for SFS, Byrnihat - PCBA",08-01-2024 02:00:00,26.071318,91.87488,SO2,13,17,16
India,Assam,Guwahati,"IITG, Guwahati - PCBA",08-01-2024 02:00:00,26.2028636,91.70046436,PM10,49,351,148
India,Assam,Guwahati,"IITG, Guwahati - PCBA",08-01-2024 02:00:00,26.2028636,91.70046436,OZONE,2,20,3
India,Assam,Guwahati,"Railway Colony, Guwahati - PCBA",08-01-2024 02:00:00,26.181742,91.78063,PM10,NA,NA,NA
India,Assam,Guwahati,"Railway Colony, Guwahati - PCBA",08-01-2024 02:00:00,26.181742,91.78063,CO,NA,NA,NA
India,Assam,Nagaon,"Christianpatty, Nagaon - PCBA",08-01-2024 02:00:00,26.349082,92.68449,NH3,3,7,4
India,Assam,Nalbari,"Bata Chowk, Nalbari - PCBA",08-01-2024 02:00:00,26.446912,91.439057,PM2.5,183,500,359
India,Assam,Silchar,"Tarapur, Silchar - PCBA",08-01-2024 02:00:00,24.82827,92.79525,NO2,25,36,29
India,Assam,Silchar,"Tarapur, Silchar - PCBA",08-01-2024 02:00:00,24.82827,92.79525,SO2,3,8,5
India,Assam,Silchar,"Tarapur, Silchar - PCBA",08-01-2024 02:00:00,24.82827,92.79525,OZONE,NA,NA,NA
India,Assam,Sivasagar,"Girls College, Sivasagar - PCBA",08-01-2024 02:00:00,26.987634,94.636574,PM10,23,94,57
India,Assam,Sivasagar,"Girls College, Sivasagar - PCBA",08-01-2024 02:00:00,26.987634,94.636574,CO,12,64,42
India,Bihar,Araria,"Kharahiya Basti, Araria - BSPCB",08-01-2024 02:00:00,26.146529,87.454184,SO2,13,17,15
India,Bihar,Araria,"Kharahiya Basti, Araria - BSPCB",08-01-2024 02:00:00,26.146529,87.454184,OZONE,10,29,12
India,Bihar,Arrah,"New DM Office, Arrah - BSPCB",08-01-2024 02:00:00,25.5626095,84.663264,NH3,6,12,8
India,Bihar,Arrah,"New DM Office, Arrah - BSPCB",08-01-2024 02:00:00,25.5626095,84.663264,SO2,14,20,17
India,Bihar,Aurangabad,"Gurdeo Nagar, Aurangabad - BSPCB",08-01-2024 02:00:00,24.75746,84.366208,NO2,8,14,10
India,Bihar,Bhagalpur,"DM Office_Kachari Chowk, Bhagalpur - BSPCB",08-01-2024 02:00:00,25.251013,86.989001,OZONE,18,56,23
India,Bihar,Bhagalpur,"Mayaganj, Bhagalpur - BSPCB",08-01-2024 02:00:00,25.265194,87.012947,SO2,3,13,11
India,Bihar,Bihar Sharif,"D M Colony, Bihar Sharif - BSPCB",08-01-2024 02:00:00,25.204762,85.514960,NO2,NA,NA,NA
India,Bihar,Bihar Sharif,"D M Colony, Bihar Sharif - BSPCB",08-01-2024 02:00:00,25.204762,85.514960,CO,2,31,15
India,Bihar,Chhapra,"Darshan Nagar, Chhapra - BSPCB",08-01-2024 02:00:00,25.7808257,84.7446768,PM10,123,241,182
India,Bihar,Chhapra,"Darshan Nagar, Chhapra - BSPCB",08-01-2024 02:00:00,25.7808257,84.7446768,NO2,10,16,13
India,Bihar,Gaya,"Collectorate, Gaya - BSPCB",08-01-2024 02:00:00,24.7955,84.9994,CO,26,40,31
India,Bihar,Gaya,"Kareemganj, Gaya - BSPCB",08-01-2024 02:00:00,24.792403,84.992416,NH3,1,5,3
India,Bihar,Gaya,"Kareemganj, Gaya - BSPCB",08-01-2024 02:00:00,24.792403,84.992416,SO2,8,12,10
India,Bihar,Gaya,"Kareemganj, Gaya - BSPCB",08-01-2024 02:00:00,24.792403,84.992416,OZONE,7,41,21
India,Bihar,Gaya,"SFTI Kusdihra, Gaya - BSPCB",08-01-2024 02:00:00,24.762518,84.982348,NO2,13,33,20
India,Bihar,Hajipur,"Industrial Area, Hajipur - BSPCB",08-01-2024 02:00:00,25.697189,85.245900,PM10,101,199,158
India,Bihar,Hajipur,"Industrial Area, Hajipur - BSPCB",08-01-2024 02:00:00,25.697189,85.245900,SO2,6,6,6
India,Bihar,Katihar,"Mirchaibari, Katihar - BSPCB",08-01-2024 02:00:00,25.560083,87.553265,PM2.5,93,310,197
India,Bihar,Katihar,"Mirchaibari, Katihar - BSPCB",08-01-2024 02:00:00,25.560083,87.553265,PM10,116,225,160
India,Bihar,Kishanganj,"SDM Office_Khagra, Kishanganj - BSPCB",08-01-2024 02:00:00,26.0881305,87.93840336,PM2.5,13,113,51
India,Bihar,Munger,"Town Hall, Munger - BSPCB",08-01-2024 02:00:00,25.376776,86.471523,SO2,31,46,41
India,Bihar,Muzaffarpur,"MIT-Daudpur Kothi, Muzaffarpur - BSPCB",08-01-2024 02:00:00,26.1403345,85.3650192,NH3,7,10,9
India,Bihar,Muzaffarpur,"Muzaffarpur Collectorate, Muzaffarpur - BSPCB",08-01-2024 02:00:00,26.1209,85.3647,SO2,4,7,5
India,Bihar,Muzaffarpur,"Muzaffarpur Collectorate, Muzaffarpur - BSPCB",08-01-2024 02:00:00,26.1209,85.3647,CO,44,64,62
India,Bihar,Patna,"DRM Office Danapur, Patna - BSPCB",08-01-2024 02:00:00,25.586562,85.043586,SO2,6,9,7
India,Bihar,Patna,"DRM Office Danapur, Patna - BSPCB",08-01-2024 02:00:00,25.586562,85.043586,CO,30,102,74
India,Bihar,Patna,"Govt. High School Shikarpur, Patna - BSPCB",08-01-2024 02:00:00,25.592539,85.227158,NO2,17,25,19
India,Bihar,Patna,"Govt. High School Shikarpur, Patna - BSPCB",08-01-2024 02:00:00,25.592539,85.227158,NH3,2,6,4
India,Bihar,Patna,"Govt. High School Shikarpur, Patna - BSPCB",08-01-2024 02:00:00,25.592539,85.227158,SO2,2,6,4
India,Bihar,Patna,"IGSC Planetarium Complex, Patna - BSPCB",08-01-2024 02:00:00,25.610369,85.132568,PM2.5,61,305,121
India,Bihar,Patna,"Muradpur, Patna - BSPCB",08-01-2024 02:00:00,25.619651,85.147382,PM10,NA,NA,NA
India,Bihar,Patna,"Samanpura, Patna - BSPCB",08-01-2024 02:00:00,25.596727,85.085624,NO2,16,17,16
India,Bihar,Patna,"Samanpura, Patna - BSPCB",08-01-2024 02:00:00,25.596727,85.085624,NH3,3,3,3
India,Bihar,Rajgir,"Dangi Tola, Rajgir - BSPCB",08-01-2024 02:00:00,25.03280,85.41948,SO2,4,8,5
India,Bihar,Rajgir,"Dangi Tola, Rajgir - BSPCB",08-01-2024 02:00:00,25.03280,85.41948,OZONE,22,28,23
India,Bihar,Saharsa,"Police Line, Saharsa - BSPCB",08-01-2024 02:00:00,25.892357,86.590325,NO2,6,8,7
India,Bihar,Saharsa,"Police Line, Saharsa - BSPCB",08-01-2024 02:00:00,25.892357,86.590325,SO2,18,18,18
India,Bihar,Samastipur,"DM Office_Kasipur, Samastipur - BSPCB",08-01-2024 02:00:00,25.859655,85.77944,SO2,5,17,12
India,Bihar,Siwan,"Chitragupta Nagar, Siwan - BSPCB",08-01-2024 02:00:00,26.2271665,84.3570427,PM2.5,NA,NA,NA
India,Bihar,Siwan,"Chitragupta Nagar, Siwan - BSPCB",08-01-2024 02:00:00,26.2271665,84.3570427,SO2,11,34,30
India,Bihar,Siwan,"Chitragupta Nagar, Siwan - BSPCB",08-01-2024 02:00:00,26.2271665,84.3570427,CO,112,186,160
India,Chandigarh,Chandigarh,"Sector 22, Chandigarh - CPCC",08-01-2024 02:00:00,30.735567,76.775714,NH3,7,11,9
India,Chandigarh,Chandigarh,"Sector-25, Chandigarh - CPCC",08-01-2024 02:00:00,30.751462,76.762879,PM2.5,89,234,152
India,Chandigarh,Chandigarh,"Sector-25, Chandigarh - CPCC",08-01-2024 02:00:00,30.751462,76.762879,OZONE,1,55,2
India,Chandigarh,Chandigarh,"Sector-53, Chandigarh - CPCC",08-01-2024 02:00:00,30.719859,76.738637,PM10,92,185,136
India,Chandigarh,Chandigarh,"Sector-53, Chandigarh - CPCC",08-01-2024 02:00:00,30.719859,76.738637,SO2,2,5,3
India,Chhattisgarh,Bhilai,"32Bungalows, Bhilai - CECB",08-01-2024 02:00:00,21.194815,81.314770,PM10,95,155,116
India,Chhattisgarh,Bhilai,"Hathkhoj, Bhilai - CECB",08-01-2024 02:00:00,21.224231,81.408350,NO2,35,61,48
India,Chhattisgarh,Bhilai,"Hathkhoj, Bhilai - CECB",08-01-2024 02:00:00,21.224231,81.408350,NH3,8,8,8
India,Chhattisgarh,Bhilai,"Hathkhoj, Bhilai - CECB",08-01-2024 02:00:00,21.224231,81.408350,CO,24,46,33
India,Chhattisgarh,Bilaspur,"Mangala, Bilaspur - NTPC",08-01-2024 02:00:00,22.08815,82.13737,PM2.5,51,86,66
India,Chhattisgarh,Chhal,"Nawapara SECL Colony, Chhal - CECB",08-01-2024 02:00:00,22.118125,83.140608,OZONE,5,71,24
India,Chhattisgarh,Korba,"Rampur, Korba - CECB",08-01-2024 02:00:00,22.368195,82.746431,OZONE,NA,NA,NA
India,Chhattisgarh,Korba,"Urja Nagar, Korba - CECB",08-01-2024 02:00:00,22.348441,82.549611,OZONE,47,47,47
India,Chhattisgarh,Kunjemura,"OP Jindal School, Kunjemura - CECB",08-01-2024 02:00:00,22.126650,83.483212,PM2.5,55,145,88
India,Chhattisgarh,Kunjemura,"OP Jindal School, Kunjemura - CECB",08-01-2024 02:00:00,22.126650,83.483212,NH3,1,6,3
India,Chhattisgarh,Milupara,"Govt. Higher Secondary School, Milupara - CECB",08-01-2024 02:00:00,22.1910172,83.5197009,SO2,9,31,14
India,Chhattisgarh,Raipur,"AIIMS, Raipur - CECB",08-01-2024 02:00:00,21.258815,81.578979,PM10,57,199,113
India,Chhattisgarh,Raipur,"Bhatagaon New ISBT, Raipur - CECB",08-01-2024 02:00:00,21.219665,81.630094,NH3,1,2,2
India,Chhattisgarh,Raipur,"Krishak Nagar, Raipur - CECB",08-01-2024 02:00:00,21.237755,81.705301,PM10,66,163,100
India,Chhattisgarh,Raipur,"Siltara Phase-II, Raipur - CECB",08-01-2024 02:00:00,21.371751,81.664929,NO2,9,24,15
India,Chhattisgarh,Raipur,"Siltara Phase-II, Raipur - CECB",08-01-2024 02:00:00,21.371751,81.664929,NH3,4,10,6
India,Delhi,Delhi,"Alipur, Delhi - DPCC",08-01-2024 02:00:00,28.815329,77.153010,PM2.5,252,348,322
India,Delhi,Delhi,"Alipur, Delhi - DPCC",08-01-2024 02:00:00,28.815329,77.153010,PM10,148,251,180
India,Delhi,Delhi,"Alipur, Delhi - DPCC",08-01-2024 02:00:00,28.815329,77.153010,NH3,7,8,8
India,Delhi,Delhi,"Alipur, Delhi - DPCC",08-01-2024 02:00:00,28.815329,77.153010,OZONE,4,57,15
India,Delhi,Delhi,"Anand Vihar, Delhi - DPCC",08-01-2024 02:00:00,28.647622,77.3158090,SO2,1,24,10
India,Delhi,Delhi,"Anand Vihar, Delhi - DPCC",08-01-2024 02:00:00,28.647622,77.3158090,CO,112,125,120
India,Delhi,Delhi,"Ashok Vihar, Delhi - DPCC",08-01-2024 02:00:00,28.695381,77.181665,SO2,16,20,18
India,Delhi,Delhi,"Ashok Vihar, Delhi - DPCC",08-01-2024 02:00:00,28.695381,77.181665,OZONE,5,12,5
India,Delhi,Delhi,"Aya Nagar, Delhi - IMD",08-01-2024 02:00:00,28.4706914,77.1099364,NO2,19,37,28
India,Delhi,Delhi,"Bawana, Delhi - DPCC",08-01-2024 02:00:00,28.776200,77.051074,NH3,6,11,8
India,Delhi,Delhi,"Burari Crossing, Delhi - IMD",08-01-2024 02:00:00,28.7256504,77.2011573,PM10,166,296,225
India,Delhi,Delhi,"Burari Crossing, Delhi - IMD",08-01-2024 02:00:00,28.7256504,77.2011573,NO2,9,17,11
India,Delhi,Delhi,"CRRI Mathura Road, Delhi - IMD",08-01-2024 02:00:00,28.5512005,77.2735737,PM10,119,252,170
India,Delhi,Delhi,"CRRI Mathura Road, Delhi - IMD",08-01-2024 02:00:00,28.5512005,77.2735737,CO,6,34,16
India,Delhi,Delhi,"CRRI Mathura Road, Delhi - IMD",08-01-2024 02:00:00,28.5512005,77.2735737,OZONE,34,94,38
India,Delhi,Delhi,"DTU, Delhi - CPCB",08-01-2024 02:00:00,28.7500499,77.1112615,SO2,28,29,29
India,Delhi,Delhi,"Dr. Karni Singh Shooting Range, Delhi - DPCC",08-01-2024 02:00:00,28.498571,77.264840,CO,42,109,103
India,Delhi,Delhi,"Dr. Karni Singh Shooting Range, Delhi - DPCC",08-01-2024 02:00:00,28.498571,77.264840,OZONE,1,150,6
India,Delhi,Delhi,"Dwarka-Sector 8, Delhi - DPCC ",08-01-2024 02:00:00,28.5710274,77.0719006,CO,24,103,80
India,Delhi,Delhi,"IGI Airport (T3), Delhi - IMD",08-01-2024 02:00:00,28.5627763,77.1180053,NO2,4,40,25
India,Delhi,Delhi,"IHBAS, Dilshad Garden, Delhi - CPCB",08-01-2024 02:00:00,28.6811736,77.3025234,NH3,7,9,8
India,Delhi,Delhi,"IHBAS, Dilshad Garden, Delhi - CPCB",08-01-2024 02:00:00,28.6811736,77.3025234,OZONE,18,68,28
India,Delhi,Delhi,"ITO, Delhi - CPCB",08-01-2024 02:00:00,28.628624,77.241060,PM2.5,180,334,272
India,Delhi,Delhi,"ITO, Delhi - CPCB",08-01-2024 02:00:00,28.628624,77.241060,NH3,5,8,6
India,Delhi,Delhi,"Jawaharlal Nehru Stadium, Delhi - DPCC",08-01-2024 02:00:00,28.580280,77.233829,PM2.5,220,377,326
India,Delhi,Delhi,"Lodhi Road, Delhi - IMD",08-01-2024 02:00:00,28.5918245,77.2273074,CO,67,95,85
India,Delhi,Delhi,"Major Dhyan Chand National Stadium, Delhi - DPCC",08-01-2024 02:00:00,28.611281,77.237738,PM2.5,300,397,345
India,Delhi,Delhi,"Major Dhyan Chand National Stadium, Delhi - DPCC",08-01-2024 02:00:00,28.611281,77.237738,NH3,10,13,11
India,Delhi,Delhi,"Mandir Marg, Delhi - DPCC",08-01-2024 02:00:00,28.636429,77.201067,PM2.5,257,382,338
India,Delhi,Delhi,"Mandir Marg, Delhi - DPCC",08-01-2024 02:00:00,28.636429,77.201067,OZONE,1,9,2
India,Delhi,Delhi,"Mundka, Delhi - DPCC",08-01-2024 02:00:00,28.684678,77.076574,PM2.5,328,403,359
India,Delhi,Delhi,"Mundka, Delhi - DPCC",08-01-2024 02:00:00,28.684678,77.076574,NH3,6,10,8
India,Delhi,Delhi,"NSIT Dwarka, Delhi - CPCB",08-01-2024 02:00:00,28.60909,77.0325413,PM10,120,421,232
India,Delhi,Delhi,"NSIT Dwarka, Delhi - CPCB",08-01-2024 02:00:00,28.60909,77.0325413,SO2,8,11,10
India,Delhi,Delhi,"Najafgarh, Delhi - DPCC",08-01-2024 02:00:00,28.570173,76.933762,NH3,6,8,7
India,Delhi,Delhi,"Narela, Delhi - DPCC",08-01-2024 02:00:00,28.822836,77.101981,NH3,3,11,8
India,Delhi,Delhi,"Patparganj, Delhi - DPCC",08-01-2024 02:00:00,28.623763,77.287209,NH3,6,10,8
India,Delhi,Delhi,"Punjabi Bagh, Delhi - DPCC",08-01-2024 02:00:00,28.674045,77.131023,PM2.5,325,392,362
India,Delhi,Delhi,"Pusa, Delhi - DPCC",08-01-2024 02:00:00,28.639652,77.146275,PM10,186,384,266
India,Delhi,Delhi,"Pusa, Delhi - IMD",08-01-2024 02:00:00,28.636110,77.173332,OZONE,26,42,27
India,Delhi,Delhi,"R K Puram, Delhi - DPCC",08-01-2024 02:00:00,28.563262,77.186937,NO2,1,16,7
India,Delhi,Delhi,"R K Puram, Delhi - DPCC",08-01-2024 02:00:00,28.563262,77.186937,OZONE,9,116,14
India,Delhi,Delhi,"Rohini, Delhi - DPCC",08-01-2024 02:00:00,28.732528,77.119920,NH3,7,11,9
India,Delhi,Delhi,"Rohini, Delhi - DPCC",08-01-2024 02:00:00,28.732528,77.119920,OZONE,6,86,15
India,Delhi,Delhi,"Shadipur, Delhi - CPCB",08-01-2024 02:00:00,28.6514781,77.1473105,NO2,32,57,45
India,Delhi,Delhi,"Shadipur, Delhi - CPCB",08-01-2024 02:00:00,28.6514781,77.1473105,OZONE,13,29,20
India,Delhi,Delhi,"Sirifort, Delhi - CPCB",08-01-2024 02:00:00,28.5504249,77.2159377,NO2,NA,NA,NA
India,Delhi,Delhi,"Sonia Vihar, Delhi - DPCC",08-01-2024 02:00:00,28.710508,77.249485,CO,50,88,82
India,Delhi,Delhi,"Sri Aurobindo Marg, Delhi - DPCC",08-01-2024 02:00:00,28.531346,77.190156,NO2,27,79,48
India,Delhi,Delhi,"Vivek Vihar, Delhi - DPCC",08-01-2024 02:00:00,28.672342,77.315260,NO2,39,87,64
India,Gujarat,Ahmedabad,"Chandkheda, Ahmedabad - IITM",08-01-2024 02:00:00,23.107969,72.574648,OZONE,21,24,22
India,Gujarat,Ahmedabad,"Maninagar, Ahmedabad - GPCB",08-01-2024 02:00:00,23.002657,72.591912,PM10,78,124,102
India,Gujarat,Ahmedabad,"Raikhad, Ahmedabad - IITM",08-01-2024 02:00:00,23.020509,72.579261,NO2,9,18,11
India,Gujarat,Ahmedabad,"Raikhad, Ahmedabad - IITM",08-01-2024 02:00:00,23.020509,72.579261,SO2,3,6,3
India,Gujarat,Ahmedabad,"Raikhad, Ahmedabad - IITM",08-01-2024 02:00:00,23.020509,72.579261,OZONE,10,14,12
India,Gujarat,Ahmedabad,"Rakhial, Ahmedabad - IITM",08-01-2024 02:00:00,23.016834,72.625775,NO2,4,6,5
India,Gujarat,Ahmedabad,"Rakhial, Ahmedabad - IITM",08-01-2024 02:00:00,23.016834,72.625775,NH3,4,7,5
India,Gujarat,Ahmedabad,"Rakhial, Ahmedabad - IITM",08-01-2024 02:00:00,23.016834,72.625775,SO2,2,3,2
India,Gujarat,Ahmedabad,"SAC ISRO Bopal, Ahmedabad - IITM",08-01-2024 02:00:00,23.041137,72.456691,PM2.5,82,236,139
India,Gujarat,Ahmedabad,"SAC ISRO Satellite, Ahmedabad - IITM",08-01-2024 02:00:00,23.023389,72.515201,NO2,12,15,14
India,Gujarat,Ahmedabad,"SAC ISRO Satellite, Ahmedabad - IITM",08-01-2024 02:00:00,23.023389,72.515201,CO,24,30,26
India,Gujarat,Ahmedabad,"SAC ISRO Satellite, Ahmedabad - IITM",08-01-2024 02:00:00,23.023389,72.515201,OZONE,6,18,10
India,Gujarat,Ahmedabad,"SVPI Airport Hansol, Ahmedabad - IITM",08-01-2024 02:00:00,23.076793,72.627874,CO,34,66,42
India,Gujarat,Ahmedabad,"Sardar Vallabhbhai Patel Stadium, Ahmedabad - IITM",08-01-2024 02:00:00,23.043070,72.562968,OZONE,6,13,8
India,Gujarat,Gandhinagar,"IIPHG Lekawada, Gandhinagar - IITM",08-01-2024 02:00:00,23.243639,72.68994,NH3,3,4,3
India,Gujarat,Gandhinagar,"IIPHG Lekawada, Gandhinagar - IITM",08-01-2024 02:00:00,23.243639,72.68994,CO,22,34,24
India,Gujarat,Gandhinagar,"Sector-10, Gandhinagar - GPCB",08-01-2024 02:00:00,23.221714,72.654328,NH3,NA,NA,NA
India,Gujarat,Surat,"Science Center, Surat - SMC",08-01-2024 02:00:00,21.170046,72.795405,NO2,6,13,10
India,Gujarat,Vapi,"Phase-1 GIDC, Vapi - GPCB",08-01-2024 02:00:00,20.362421,72.918013,OZONE,1,3,1
India,Gujarat,Vatva,"Phase-4 GIDC, Vatva - GPCB",08-01-2024 02:00:00,22.969611,72.643500,PM2.5,44,77,61
India,Haryana,Ambala,"Patti Mehar, Ambala - HSPCB",08-01-2024 02:00:00,30.379589,76.778328,PM10,46,120,74
India,Haryana,Ambala,"Patti Mehar, Ambala - HSPCB",08-01-2024 02:00:00,30.379589,76.778328,NO2,7,21,14
India,Haryana,Bahadurgarh,"Arya Nagar, Bahadurgarh - HSPCB",08-01-2024 02:00:00,28.6701,76.9254,PM2.5,148,316,223
India,Haryana,Ballabgarh,"Nathu Colony, Ballabgarh - HSPCB",08-01-2024 02:00:00,28.3419248,77.319699,PM10,132,245,162
India,Haryana,Faridabad,"New Industrial Town, Faridabad - HSPCB",08-01-2024 02:00:00,28.39072,77.30059,PM2.5,245,370,311
India,Haryana,Faridabad,"Sector 11, Faridabad - HSPCB",08-01-2024 02:00:00,28.376058,77.315741,PM10,96,500,191
India,Haryana,Faridabad,"Sector 11, Faridabad - HSPCB",08-01-2024 02:00:00,28.376058,77.315741,OZONE,3,6,3
India,Haryana,Faridabad,"Sector 30, Faridabad - HSPCB",08-01-2024 02:00:00,28.4417,77.3217,PM2.5,NA,NA,NA
India,Haryana,Faridabad,"Sector- 16A, Faridabad - HSPCB",08-01-2024 02:00:00,28.4088421,77.3099081,OZONE,14,14,14
India,Haryana,Fatehabad,"Huda Sector, Fatehabad - HSPCB",08-01-2024 02:00:00,29.503664,75.467934,PM2.5,67,146,96
India,Haryana,Fatehabad,"Huda Sector, Fatehabad - HSPCB",08-01-2024 02:00:00,29.503664,75.467934,NO2,28,31,30
India,Haryana,Fatehabad,"Huda Sector, Fatehabad - HSPCB",08-01-2024 02:00:00,29.503664,75.467934,OZONE,23,28,24
India,Haryana,Gurugram,"Sector-51, Gurugram - HSPCB",08-01-2024 02:00:00,28.4227,77.0667,OZONE,27,67,51
India,Haryana,Gurugram,"Teri Gram, Gurugram - HSPCB",08-01-2024 02:00:00,28.4275,77.1465,PM2.5,95,290,173
India,Haryana,Gurugram,"Teri Gram, Gurugram - HSPCB",08-01-2024 02:00:00,28.4275,77.1465,NH3,38,58,47
India,Haryana,Gurugram,"Vikas Sadan, Gurugram - HSPCB",08-01-2024 02:00:00,28.4501238,77.0263051,PM2.5,50,122,79
India,Haryana,Jind,"Police Lines, Jind - HSPCB",08-01-2024 02:00:00,29.307814,76.337619,NO2,NA,NA,NA
India,Haryana,Jind,"Police Lines, Jind - HSPCB",08-01-2024 02:00:00,29.307814,76.337619,SO2,NA,NA,NA
India,Haryana,Jind,"Police Lines, Jind - HSPCB",08-01-2024 02:00:00,29.307814,76.337619,CO,NA,NA,NA
India,Haryana,Karnal,"Sector-12, Karnal - HSPCB",08-01-2024 02:00:00,29.695300,77.002700,CO,27,44,33
India,Haryana,Karnal,"Sector-12, Karnal - HSPCB",08-01-2024 02:00:00,29.695300,77.002700,OZONE,32,32,32
India,Haryana,Kurukshetra,"Sector-7, Kurukshetra - HSPCB",08-01-2024 02:00:00,29.966942,76.875879,PM10,62,150,90
India,Haryana,Mandikhera,"General Hospital, Mandikhera - HSPCB",08-01-2024 02:00:00,27.9002,76.9938,PM10,98,154,120
India,Haryana,Mandikhera,"General Hospital, Mandikhera - HSPCB",08-01-2024 02:00:00,27.9002,76.9938,NO2,17,24,20
India,Haryana,Mandikhera,"General Hospital, Mandikhera - HSPCB",08-01-2024 02:00:00,27.9002,76.9938,NH3,17,21,19
India,Haryana,Manesar,"Sector-2 IMT, Manesar - HSPCB",08-01-2024 02:00:00,28.360699,76.936090,OZONE,6,38,9
India,Haryana,Narnaul,"Shastri Nagar, Narnaul - HSPCB",08-01-2024 02:00:00,28.060249,76.113115,PM2.5,52,203,79
India,Haryana,Panipat,"Sector-18, Panipat - HSPCB",08-01-2024 02:00:00,29.497973,76.993331,NO2,28,32,30
India,Haryana,Panipat,"Sector-18, Panipat - HSPCB",08-01-2024 02:00:00,29.497973,76.993331,SO2,12,13,13
India,Himachal Pradesh,Baddi,"HIMUDA Complex Phase-1, Baddi - HPPCB",08-01-2024 02:00:00,30.943887,76.801991,NO2,22,47,34
India,Himachal Pradesh,Baddi,"HIMUDA Complex Phase-1, Baddi - HPPCB",08-01-2024 02:00:00,30.943887,76.801991,NH3,3,4,4
India,Himachal Pradesh,Baddi,"HIMUDA Complex Phase-1, Baddi - HPPCB",08-01-2024 02:00:00,30.943887,76.801991,CO,42,80,47
India,Jharkhand,Dhanbad,"Kalakusuma, Dhanbad - DMC",08-01-2024 02:00:00,23.811548,86.481238,PM10,61,116,70
India,Jharkhand,Dhanbad,"Kalakusuma, Dhanbad - DMC",08-01-2024 02:00:00,23.811548,86.481238,NO2,32,34,33
India,Jharkhand,Dhanbad,"Sardar Patel Nagar, Dhanbad - JSPCB",08-01-2024 02:00:00,23.80569,86.44268,OZONE,NA,NA,NA
India,Jharkhand,Pathardih,"Mohalbani Ghat, Pathardih - DMC",08-01-2024 02:00:00,23.669880,86.411725,PM10,NA,NA,NA
India,Karnataka,Bagalkot,"Vidayagiri, Bagalkot - KSPCB",08-01-2024 02:00:00,16.172806,75.659694,PM2.5,29,44,43
India,Karnataka,Bagalkot,"Vidayagiri, Bagalkot - KSPCB",08-01-2024 02:00:00,16.172806,75.659694,NO2,10,11,10
India,Karnataka,Bagalkot,"Vidayagiri, Bagalkot - KSPCB",08-01-2024 02:00:00,16.172806,75.659694,OZONE,12,32,31
India,Karnataka,Belgaum,"Ramteerth Nagar, Belgaum - KSPCB",08-01-2024 02:00:00,15.888653,74.541751,NO2,24,31,27
India,Karnataka,Belgaum,"Ramteerth Nagar, Belgaum - KSPCB",08-01-2024 02:00:00,15.888653,74.541751,NH3,33,33,33
India,Karnataka,Belgaum,"Ramteerth Nagar, Belgaum - KSPCB",08-01-2024 02:00:00,15.888653,74.541751,OZONE,19,20,19
India,Karnataka,Bengaluru,"BTM Layout, Bengaluru - CPCB",08-01-2024 02:00:00,12.9135218,77.5950804,NH3,NA,NA,NA
India,Karnataka,Bengaluru,"Bapuji Nagar, Bengaluru - KSPCB",08-01-2024 02:00:00,12.951913,77.539784,NH3,1,1,1
India,Karnataka,Bengaluru,"Jigani, Bengaluru - KSPCB",08-01-2024 02:00:00,12.7816279,77.6299145,CO,34,77,64
India,Karnataka,Bengaluru,"Jigani, Bengaluru - KSPCB",08-01-2024 02:00:00,12.7816279,77.6299145,OZONE,30,60,38
India,Karnataka,Bengaluru,"Kasturi Nagar, Bengaluru - KSPCB",08-01-2024 02:00:00,13.003872,77.664217,NH3,4,4,4
India,Karnataka,Bengaluru,"Peenya, Bengaluru - CPCB",08-01-2024 02:00:00,13.0270199,77.494094,CO,34,60,50
India,Karnataka,Bengaluru,"RVCE-Mailasandra, Bengaluru - KSPCB",08-01-2024 02:00:00,12.921418,77.502466,NH3,4,4,4
India,Karnataka,Bengaluru,"Sanegurava Halli, Bengaluru - KSPCB",08-01-2024 02:00:00,12.990328,77.5431385,NO2,21,29,25
India,Karnataka,Bengaluru,"Shivapura_Peenya, Bengaluru - KSPCB",08-01-2024 02:00:00,13.0246342,77.5080115,NH3,4,4,4
India,Karnataka,Bengaluru,"Silk Board, Bengaluru - KSPCB",08-01-2024 02:00:00,12.917348,77.622813,CO,6,24,10
India,Karnataka,Bengaluru,"Silk Board, Bengaluru - KSPCB",08-01-2024 02:00:00,12.917348,77.622813,OZONE,10,17,12
India,Karnataka,Chamarajanagar,"Urban, Chamarajanagar - KSPCB",08-01-2024 02:00:00,11.55358,76.55521,PM2.5,20,46,34
India,Karnataka,Chamarajanagar,"Urban, Chamarajanagar - KSPCB",08-01-2024 02:00:00,11.55358,76.55521,NH3,1,2,2
India,Karnataka,Chikkaballapur,"Chikkaballapur Rural, Chikkaballapur - KSPCB",08-01-2024 02:00:00,13.428828,77.731418,PM2.5,32,83,59
India,Karnataka,Davanagere,"Devaraj Urs Badavane, Davanagere - KSPCB",08-01-2024 02:00:00,14.475800,75.905200,NH3,1,1,1
India,Karnataka,Dharwad,"Kalabhavan, Dharwad - KSPCB",08-01-2024 02:00:00,15.459706,75.008381,SO2,2,39,5
India,Karnataka,Dharwad,"Kalabhavan, Dharwad - KSPCB",08-01-2024 02:00:00,15.459706,75.008381,OZONE,2,30,16
India,Karnataka,Gadag,"Panchal Nagar, Gadag - KSPCB",08-01-2024 02:00:00,15.411456,75.638133,NO2,7,24,12
India,Karnataka,Gadag,"Panchal Nagar, Gadag - KSPCB",08-01-2024 02:00:00,15.411456,75.638133,OZONE,26,56,46
India,Karnataka,Hassan,"B.Katihalli, Hassan - KSPCB",08-01-2024 02:00:00,13.008556,76.125258,NO2,10,14,12
India,Karnataka,Haveri,"Ashwini Nagar, Haveri - KSPCB",08-01-2024 02:00:00,14.791800,75.389600,NO2,21,58,33
India,Karnataka,Haveri,"Ashwini Nagar, Haveri - KSPCB",08-01-2024 02:00:00,14.791800,75.389600,NH3,2,4,3
India,Karnataka,Hubballi,"Deshpande Nagar, Hubballi - KSPCB",08-01-2024 02:00:00,15.351773,75.140726,PM2.5,24,57,34
India,Karnataka,Hubballi,"Lingaraj Nagar, Hubballi - KSPCB",08-01-2024 02:00:00,15.3714823,75.1160168,NH3,2,2,2
India,Karnataka,Kalaburagi,"Lal Bahadur Shastri Nagar, Kalaburagi - KSPCB",08-01-2024 02:00:00,17.321993,76.822628,NO2,11,12,12
India,Karnataka,Kalaburagi,"Lal Bahadur Shastri Nagar, Kalaburagi - KSPCB",08-01-2024 02:00:00,17.321993,76.822628,SO2,16,17,17
India,Karnataka,Kalaburagi,"Mahatma Basaveswar Colony, Kalaburgi - KSPCB",08-01-2024 02:00:00,17.336318,76.847397,PM2.5,21,81,41
India,Karnataka,Karwar,"KHB Colony, Karwar - KSPCB",08-01-2024 02:00:00,14.816666,74.141003,OZONE,21,22,21
India,Karnataka,Kolar,"Tamaka Ind. Area, Kolar - KSPCB",08-01-2024 02:00:00,13.1276288,78.1570122,NO2,2,18,6
India,Karnataka,Koppal,"Diwator Nagar, Koppal - KSPCB",08-01-2024 02:00:00,15.347630,76.181767,NO2,2,27,10
India,Karnataka,Koppal,"Diwator Nagar, Koppal - KSPCB",08-01-2024 02:00:00,15.347630,76.181767,OZONE,24,47,32
India,Karnataka,Madikeri,"Stuart Hill, Madikeri - KSPCB",08-01-2024 02:00:00,12.415911,75.735050,OZONE,18,30,21
India,Karnataka,Mysuru,"Hebbal 1st Stage, Mysuru - KSPCB",08-01-2024 02:00:00,12.21041,76.37376,NH3,1,3,2
India,Karnataka,Mysuru,"Hebbal 1st Stage, Mysuru - KSPCB",08-01-2024 02:00:00,12.21041,76.37376,OZONE,6,52,20
India,Karnataka,Raichur,"Haji Colony, Raichur - KSPCB",08-01-2024 02:00:00,16.208139,77.348417,PM2.5,15,58,22
India,Karnataka,Raichur,"Haji Colony, Raichur - KSPCB",08-01-2024 02:00:00,16.208139,77.348417,NH3,NA,NA,NA
India,Karnataka,Raichur,"Haji Colony, Raichur - KSPCB",08-01-2024 02:00:00,16.208139,77.348417,OZONE,1,56,12
India,Karnataka,Ramanagara,"Vijay Nagar, Ramanagara - KSPCB",08-01-2024 02:00:00,12.733409,77.298051,CO,13,40,19
India,Karnataka,Shivamogga,"Vinoba Nagara, Shivamogga - KSPCB",08-01-2024 02:00:00,13.940000,75.555917,PM2.5,27,42,36
India,Karnataka,Shivamogga,"Vinoba Nagara, Shivamogga - KSPCB",08-01-2024 02:00:00,13.940000,75.555917,PM10,48,62,55
India,Karnataka,Shivamogga,"Vinoba Nagara, Shivamogga - KSPCB",08-01-2024 02:00:00,13.940000,75.555917,NH3,3,15,8
India,Karnataka,Shivamogga,"Vinoba Nagara, Shivamogga - KSPCB",08-01-2024 02:00:00,13.940000,75.555917,OZONE,13,19,16
India,Karnataka,Vijayapura,"Ibrahimpur, Vijayapura - KSPCB",08-01-2024 02:00:00,16.802639,75.722694,SO2,1,3,2
India,Karnataka,Yadgir,"Collector Office, Yadgir - KSPCB",08-01-2024 02:00:00,16.7602,77.1428,PM2.5,44,75,59
India,Karnataka,Yadgir,"Collector Office, Yadgir - KSPCB",08-01-2024 02:00:00,16.7602,77.1428,SO2,7,38,17
India,Kerala,Kannur,"Thavakkara, Kannur - Kerala PCB",08-01-2024 02:00:00,11.875000,75.373200,PM10,46,63,56
India,Kerala,Kannur,"Thavakkara, Kannur - Kerala PCB",08-01-2024 02:00:00,11.875000,75.373200,NH3,1,1,1
India,Kerala,Thiruvananthapuram,"Plammoodu, Thiruvananthapuram - Kerala PCB",08-01-2024 02:00:00,8.5149093,76.9435879,PM10,25,83,45
India,Kerala,Thiruvananthapuram,"Plammoodu, Thiruvananthapuram - Kerala PCB",08-01-2024 02:00:00,8.5149093,76.9435879,NO2,13,14,13
India,Kerala,Thiruvananthapuram,"Plammoodu, Thiruvananthapuram - Kerala PCB",08-01-2024 02:00:00,8.5149093,76.9435879,OZONE,12,18,13
India,Kerala,Thrissur,"Corporation Ground, Thrissur - Kerala PCB",08-01-2024 02:00:00,10.532400,76.215900,OZONE,22,30,25
India,Madhya Pradesh,Bhopal,"Idgah Hills, Bhopal - MPPCB",08-01-2024 02:00:00,23.264759,77.381568,PM10,116,180,151
India,Madhya Pradesh,Bhopal,"Idgah Hills, Bhopal - MPPCB",08-01-2024 02:00:00,23.264759,77.381568,NH3,3,5,4
India,Madhya Pradesh,Bhopal,"T T Nagar, Bhopal - MPPCB",08-01-2024 02:00:00,23.233584,77.400574,PM10,101,152,124
India,Madhya Pradesh,Bhopal,"T T Nagar, Bhopal - MPPCB",08-01-2024 02:00:00,23.233584,77.400574,NO2,24,41,34
India,Madhya Pradesh,Bhopal,"T T Nagar, Bhopal - MPPCB",08-01-2024 02:00:00,23.233584,77.400574,NH3,1,3,2
India,Madhya Pradesh,Bhopal,"T T Nagar, Bhopal - MPPCB",08-01-2024 02:00:00,23.233584,77.400574,CO,47,84,69
India,Madhya Pradesh,Damoh,"Shrivastav Colony, Damoh - MPPCB",08-01-2024 02:00:00,23.81748678,79.446246,CO,23,24,23
