country,state,city,station,last_update,latitude,longitude,pollutant_id,pollutant_min,pollutant_max,pollutant_avg
India,Andhra_Pradesh,Amaravati,"Secretariat, Amaravati - APPCB",18-08-2024 23:00:00,16.5150833,80.5181667,OZONE,7,14,10
India,Andhra_Pradesh,Tirupati,"Tirumala, Tirupati - APPCB",18-08-2024 23:00:00,13.67,79.35,NH3,1,2,1
India,Andhra_Pradesh,Tirupati,"Tirumala, Tirupati - APPCB",18-08-2024 23:00:00,13.67,79.35,CO,17,30,27
India,Andhra_Pradesh,Tirupati,"Vaikuntapuram, Tirupati - APPCB",18-08-2024 23:00:00,13.615387,79.409230,PM10,42,42,42
India,Andhra_Pradesh,Vijayawada,"HB Colony, Vijayawada - APPCB",18-08-2024 23:00:00,16.536107,80.594233,NO2,3,7,5
India,Andhra_Pradesh,Vijayawada,"HB Colony, Vijayawada - APPCB",18-08-2024 23:00:00,16.536107,80.594233,NH3,4,5,4
India,Andhra_Pradesh,Vijayawada,"Kanuru, Vijayawada - APPCB",18-08-2024 23:00:00,16.486692,80.699436,NO2,13,13,13
India,Andhra_Pradesh,Vijayawada,"Kanuru, Vijayawada - APPCB",18-08-2024 23:00:00,16.486692,80.699436,SO2,7,8,8
India,Andhra_Pradesh,Vijayawada,"Rajiv Gandhi Park, Vijayawada - APPCB",18-08-2024 23:00:00,16.509717,80.612222,NH3,5,7,6
India,Andhra_Pradesh,Vijayawada,"Rajiv Gandhi Park, Vijayawada - APPCB",18-08-2024 23:00:00,16.509717,80.612222,SO2,7,9,8
India,Andhra_Pradesh,Vijayawada,"Rajiv Nagar, Vijayawada - APPCB",18-08-2024 23:00:00,16.554731,80.649110,PM10,29,33,31
India,Andhra_Pradesh,Vijayawada,"Rajiv Nagar, Vijayawada - APPCB",18-08-2024 23:00:00,16.554731,80.649110,NO2,10,10,10
India,Andhra_Pradesh,Visakhapatnam,"GVM Corporation, Visakhapatnam - APPCB",18-08-2024 23:00:00,17.72,83.3,PM2.5,4,69,26
India,Andhra_Pradesh,Visakhapatnam,"GVM Corporation, Visakhapatnam - APPCB",18-08-2024 23:00:00,17.72,83.3,SO2,7,13,11
India,Assam,Byrnihat,"Central Academy for SFS, Byrnihat - PCBA",18-08-2024 23:00:00,26.071318,91.87488,SO2,10,50,27
India,Assam,Guwahati,"LGBI Airport, Guwahati - PCBA",18-08-2024 23:00:00,26.10887,91.589544,CO,34,46,42
India,Assam,Guwahati,"Pan Bazaar, Guwahati - PCBA",18-08-2024 23:00:00,26.187500,91.744194,SO2,21,34,28
India,Assam,Guwahati,"Railway Colony, Guwahati - PCBA",18-08-2024 23:00:00,26.181742,91.78063,PM2.5,7,60,32
India,Assam,Guwahati,"Railway Colony, Guwahati - PCBA",18-08-2024 23:00:00,26.181742,91.78063,CO,20,36,28
India,Assam,Nagaon,"Christianpatty, Nagaon - PCBA",18-08-2024 23:00:00,26.349082,92.68449,NH3,1,1,1
India,Assam,Nalbari,"Bata Chowk, Nalbari - PCBA",18-08-2024 23:00:00,26.446912,91.439057,OZONE,10,32,18
India,Assam,Silchar,"Tarapur, Silchar - PCBA",18-08-2024 23:00:00,24.82827,92.79525,SO2,1,8,3
India,Bihar,Araria,"Kharahiya Basti, Araria - BSPCB",18-08-2024 23:00:00,26.146529,87.454184,NO2,NA,NA,NA
India,Bihar,Araria,"Kharahiya Basti, Araria - BSPCB",18-08-2024 23:00:00,26.146529,87.454184,OZONE,14,82,25
India,Bihar,Aurangabad,"Gurdeo Nagar, Aurangabad - BSPCB",18-08-2024 23:00:00,24.75746,84.366208,OZONE,18,61,42
India,Bihar,Begusarai,"Lohiyanagar, Begusarai - BSPCB (Formerly known as DRCC Anandpur)",18-08-2024 23:00:00,25.42742023,86.13886079,PM10,18,40,23
India,Bihar,Bhagalpur,"Mayaganj, Bhagalpur - BSPCB",18-08-2024 23:00:00,25.265194,87.012947,OZONE,7,25,16
India,Bihar,Bihar Sharif,"D M Colony, Bihar Sharif - BSPCB",18-08-2024 23:00:00,25.204762,85.514960,PM10,4,120,68
India,Bihar,Bihar Sharif,"D M Colony, Bihar Sharif - BSPCB",18-08-2024 23:00:00,25.204762,85.514960,SO2,1,4,3
India,Bihar,Bihar Sharif,"D M Colony, Bihar Sharif - BSPCB",18-08-2024 23:00:00,25.204762,85.514960,CO,7,40,31
India,Bihar,Buxar,"Charitra Van, Buxar - BSPCB (Formerly known as Central Jail)",18-08-2024 23:00:00,25.567520,83.966379,NH3,1,1,1
India,Bihar,Buxar,"Charitra Van, Buxar - BSPCB (Formerly known as Central Jail)",18-08-2024 23:00:00,25.567520,83.966379,CO,NA,NA,NA
India,Bihar,Chhapra,"Darshan Nagar, Chhapra - BSPCB",18-08-2024 23:00:00,25.7808257,84.7446768,SO2,1,7,4
India,Bihar,Chhapra,"Darshan Nagar, Chhapra - BSPCB",18-08-2024 23:00:00,25.7808257,84.7446768,OZONE,1,9,3
India,Bihar,Gaya,"Kareemganj, Gaya - BSPCB",18-08-2024 23:00:00,24.792403,84.992416,NH3,3,4,3
India,Bihar,Gaya,"SFTI Kusdihra, Gaya - BSPCB",18-08-2024 23:00:00,24.762518,84.982348,PM10,25,56,37
India,Bihar,Gaya,"SFTI Kusdihra, Gaya - BSPCB",18-08-2024 23:00:00,24.762518,84.982348,CO,16,30,20
India,Bihar,Hajipur,"Industrial Area, Hajipur - BSPCB",18-08-2024 23:00:00,25.697189,85.245900,NO2,7,19,11
India,Bihar,Hajipur,"Industrial Area, Hajipur - BSPCB",18-08-2024 23:00:00,25.697189,85.245900,NH3,11,16,14
India,Bihar,Hajipur,"Industrial Area, Hajipur - BSPCB",18-08-2024 23:00:00,25.697189,85.245900,SO2,5,7,6
India,Bihar,Hajipur,"Industrial Area, Hajipur - BSPCB",18-08-2024 23:00:00,25.697189,85.245900,CO,16,34,21
India,Bihar,Hajipur,"Industrial Area, Hajipur - BSPCB",18-08-2024 23:00:00,25.697189,85.245900,OZONE,39,123,87
India,Bihar,Kishanganj,"SDM Office_Khagra, Kishanganj - BSPCB",18-08-2024 23:00:00,26.0881305,87.93840336,NH3,7,9,8
India,Bihar,Kishanganj,"SDM Office_Khagra, Kishanganj - BSPCB",18-08-2024 23:00:00,26.0881305,87.93840336,SO2,5,26,13
India,Bihar,Kishanganj,"SDM Office_Khagra, Kishanganj - BSPCB",18-08-2024 23:00:00,26.0881305,87.93840336,OZONE,57,60,58
India,Bihar,Manguraha,"Forest Rest House, Manguraha - BSPCB",18-08-2024 23:00:00,27.308328,84.531742,PM10,NA,NA,NA
India,Bihar,Manguraha,"Forest Rest House, Manguraha - BSPCB",18-08-2024 23:00:00,27.308328,84.531742,NO2,8,20,16
India,Bihar,Motihari,"Gandak Colony, Motihari - BSPCB",18-08-2024 23:00:00,26.63086,84.90051,NH3,1,5,3
India,Bihar,Munger,"Town Hall, Munger - BSPCB",18-08-2024 23:00:00,25.376776,86.471523,SO2,21,32,26
India,Bihar,Muzaffarpur,"Buddha Colony, Muzaffarpur - BSPCB",18-08-2024 23:00:00,26.11442,85.39813,NO2,5,41,14
India,Bihar,Muzaffarpur,"MIT-Daudpur Kothi, Muzaffarpur - BSPCB",18-08-2024 23:00:00,26.1403345,85.3650192,CO,40,52,46
India,Bihar,Muzaffarpur,"MIT-Daudpur Kothi, Muzaffarpur - BSPCB",18-08-2024 23:00:00,26.1403345,85.3650192,OZONE,37,68,40
India,Bihar,Muzaffarpur,"Muzaffarpur Collectorate, Muzaffarpur - BSPCB",18-08-2024 23:00:00,26.1209,85.3647,CO,14,50,32
India,Bihar,Muzaffarpur,"Muzaffarpur Collectorate, Muzaffarpur - BSPCB",18-08-2024 23:00:00,26.1209,85.3647,OZONE,48,58,51
India,Bihar,Patna,"Govt. High School Shikarpur, Patna - BSPCB",18-08-2024 23:00:00,25.592539,85.227158,PM10,32,96,54
India,Bihar,Patna,"Govt. High School Shikarpur, Patna - BSPCB",18-08-2024 23:00:00,25.592539,85.227158,SO2,7,8,8
India,Bihar,Patna,"IGSC Planetarium Complex, Patna - BSPCB",18-08-2024 23:00:00,25.610369,85.132568,SO2,8,10,9
India,Bihar,Patna,"Muradpur, Patna - BSPCB",18-08-2024 23:00:00,25.619651,85.147382,NH3,6,6,6
India,Bihar,Patna,"Muradpur, Patna - BSPCB",18-08-2024 23:00:00,25.619651,85.147382,SO2,3,8,6
India,Bihar,Patna,"Samanpura, Patna - BSPCB",18-08-2024 23:00:00,25.596727,85.085624,PM2.5,23,140,66
India,Bihar,Purnia,"Mariam Nagar, Purnia - BSPCB",18-08-2024 23:00:00,25.366336,87.117468,NO2,49,52,50
India,Bihar,Purnia,"Mariam Nagar, Purnia - BSPCB",18-08-2024 23:00:00,25.366336,87.117468,OZONE,3,42,6
India,Bihar,Rajgir,"Dangi Tola, Rajgir - BSPCB",18-08-2024 23:00:00,25.03280,85.41948,NH3,2,2,2
India,Bihar,Rajgir,"Dangi Tola, Rajgir - BSPCB",18-08-2024 23:00:00,25.03280,85.41948,OZONE,28,78,48
India,Bihar,Samastipur,"DM Office_Kasipur, Samastipur - BSPCB",18-08-2024 23:00:00,25.859655,85.77944,PM10,2,26,16
India,Bihar,Sasaram,"Dada Peer, Sasaram - BSPCB",18-08-2024 23:00:00,24.952822,84.002396,PM10,3,29,9
India,Chandigarh,Chandigarh,"Sector 22, Chandigarh - CPCC",18-08-2024 23:00:00,30.735567,76.775714,CO,28,40,33
India,Chhattisgarh,Bhilai,"32Bungalows, Bhilai - CECB",18-08-2024 23:00:00,21.194815,81.314770,SO2,8,11,10
India,Chhattisgarh,Bhilai,"Civic Center, Bhilai - Bhilai Steel Plant",18-08-2024 23:00:00,21.185571,81.343175,PM2.5,10,73,34
India,Chhattisgarh,Bhilai,"Civic Center, Bhilai - Bhilai Steel Plant",18-08-2024 23:00:00,21.185571,81.343175,PM10,22,56,34
India,Chhattisgarh,Bhilai,"Civic Center, Bhilai - Bhilai Steel Plant",18-08-2024 23:00:00,21.185571,81.343175,NO2,7,8,8
India,Chhattisgarh,Bilaspur,"Mangala, Bilaspur - NTPC",18-08-2024 23:00:00,22.08815,82.13737,PM2.5,10,134,30
India,Chhattisgarh,Korba,"Rampur, Korba - CECB",18-08-2024 23:00:00,22.368195,82.746431,PM2.5,6,70,28
India,Chhattisgarh,Korba,"Rampur, Korba - CECB",18-08-2024 23:00:00,22.368195,82.746431,PM10,16,74,34
India,Chhattisgarh,Korba,"Urja Nagar, Korba - CECB",18-08-2024 23:00:00,22.348441,82.549611,OZONE,NA,NA,NA
India,Chhattisgarh,Kunjemura,"OP Jindal School, Kunjemura - CECB",18-08-2024 23:00:00,22.126650,83.483212,NO2,6,36,19
India,Chhattisgarh,Kunjemura,"OP Jindal School, Kunjemura - CECB",18-08-2024 23:00:00,22.126650,83.483212,OZONE,6,19,10
India,Chhattisgarh,Raipur,"Bhatagaon New ISBT, Raipur - CECB",18-08-2024 23:00:00,21.219665,81.630094,NH3,2,2,2
India,Chhattisgarh,Raipur,"Krishak Nagar, Raipur - CECB",18-08-2024 23:00:00,21.237755,81.705301,PM10,38,98,66
India,Chhattisgarh,Raipur,"Krishak Nagar, Raipur - CECB",18-08-2024 23:00:00,21.237755,81.705301,SO2,11,23,14
India,Delhi,Delhi,"Alipur, Delhi - DPCC",18-08-2024 23:00:00,28.815329,77.153010,PM10,34,107,67
India,Delhi,Delhi,"Anand Vihar, Delhi - DPCC",18-08-2024 23:00:00,28.647622,77.3158090,SO2,1,11,6
India,Delhi,Delhi,"Ashok Vihar, Delhi - DPCC",18-08-2024 23:00:00,28.695381,77.181665,CO,48,101,63
India,Delhi,Delhi,"Aya Nagar, Delhi - IMD",18-08-2024 23:00:00,28.4706914,77.1099364,PM10,29,60,44
India,Delhi,Delhi,"Bawana, Delhi - DPCC",18-08-2024 23:00:00,28.776200,77.051074,SO2,2,4,2
India,Delhi,Delhi,"Burari Crossing, Delhi - IMD",18-08-2024 23:00:00,28.7256504,77.2011573,CO,64,82,66
India,Delhi,Delhi,"Chandni Chowk, Delhi - IITM",18-08-2024 23:00:00,28.656756,77.227234,CO,4,74,54
India,Delhi,Delhi,"DTU, Delhi - CPCB",18-08-2024 23:00:00,28.7500499,77.1112615,NH3,10,14,12
India,Delhi,Delhi,"DTU, Delhi - CPCB",18-08-2024 23:00:00,28.7500499,77.1112615,OZONE,19,39,29
India,Delhi,Delhi,"Dwarka-Sector 8, Delhi - DPCC ",18-08-2024 23:00:00,28.5710274,77.0719006,NH3,6,11,8
India,Delhi,Delhi,"Dwarka-Sector 8, Delhi - DPCC ",18-08-2024 23:00:00,28.5710274,77.0719006,SO2,8,11,9
India,Delhi,Delhi,"IHBAS, Dilshad Garden, Delhi - CPCB",18-08-2024 23:00:00,28.6811736,77.3025234,PM10,48,109,77
India,Delhi,Delhi,"IHBAS, Dilshad Garden, Delhi - CPCB",18-08-2024 23:00:00,28.6811736,77.3025234,NH3,1,4,3
India,Delhi,Delhi,"ITO, Delhi - CPCB",18-08-2024 23:00:00,28.628624,77.241060,NH3,2,14,9
India,Delhi,Delhi,"Jahangirpuri, Delhi - DPCC",18-08-2024 23:00:00,28.732820,77.170633,NO2,1,32,14
India,Delhi,Delhi,"Jahangirpuri, Delhi - DPCC",18-08-2024 23:00:00,28.732820,77.170633,OZONE,34,44,40
India,Delhi,Delhi,"Jawaharlal Nehru Stadium, Delhi - DPCC",18-08-2024 23:00:00,28.580280,77.233829,PM2.5,18,50,31
India,Delhi,Delhi,"Jawaharlal Nehru Stadium, Delhi - DPCC",18-08-2024 23:00:00,28.580280,77.233829,CO,16,101,33
India,Delhi,Delhi,"Lodhi Road, Delhi - IMD",18-08-2024 23:00:00,28.5918245,77.2273074,PM10,27,72,48
India,Delhi,Delhi,"Major Dhyan Chand National Stadium, Delhi - DPCC",18-08-2024 23:00:00,28.611281,77.237738,PM10,36,108,71
India,Delhi,Delhi,"Mandir Marg, Delhi - DPCC",18-08-2024 23:00:00,28.636429,77.201067,CO,27,52,42
India,Delhi,Delhi,"Mundka, Delhi - DPCC",18-08-2024 23:00:00,28.684678,77.076574,PM10,19,181,83
India,Delhi,Delhi,"Mundka, Delhi - DPCC",18-08-2024 23:00:00,28.684678,77.076574,NO2,16,99,34
India,Delhi,Delhi,"Mundka, Delhi - DPCC",18-08-2024 23:00:00,28.684678,77.076574,CO,32,60,39
India,Delhi,Delhi,"Mundka, Delhi - DPCC",18-08-2024 23:00:00,28.684678,77.076574,OZONE,13,63,44
India,Delhi,Delhi,"NSIT Dwarka, Delhi - CPCB",18-08-2024 23:00:00,28.60909,77.0325413,PM2.5,28,73,48
India,Delhi,Delhi,"NSIT Dwarka, Delhi - CPCB",18-08-2024 23:00:00,28.60909,77.0325413,NH3,9,10,10
India,Delhi,Delhi,"NSIT Dwarka, Delhi - CPCB",18-08-2024 23:00:00,28.60909,77.0325413,CO,30,74,56
India,Delhi,Delhi,"NSIT Dwarka, Delhi - CPCB",18-08-2024 23:00:00,28.60909,77.0325413,OZONE,20,28,24
India,Delhi,Delhi,"Najafgarh, Delhi - DPCC",18-08-2024 23:00:00,28.570173,76.933762,OZONE,30,55,40
India,Delhi,Delhi,"Narela, Delhi - DPCC",18-08-2024 23:00:00,28.822836,77.101981,SO2,2,6,4
India,Delhi,Delhi,"Nehru Nagar, Delhi - DPCC",18-08-2024 23:00:00,28.567890,77.250515,PM10,53,99,70
India,Delhi,Delhi,"Nehru Nagar, Delhi - DPCC",18-08-2024 23:00:00,28.567890,77.250515,NO2,10,49,26
India,Delhi,Delhi,"New Moti Bagh, Delhi - MHUA",18-08-2024 23:00:00,28.57834,77.18400,NO2,4,7,6
India,Delhi,Delhi,"New Moti Bagh, Delhi - MHUA",18-08-2024 23:00:00,28.57834,77.18400,CO,26,102,46
India,Delhi,Delhi,"North Campus, DU, Delhi - IMD",18-08-2024 23:00:00,28.6573814,77.1585447,NO2,10,25,16
India,Delhi,Delhi,"Patparganj, Delhi - DPCC",18-08-2024 23:00:00,28.623763,77.287209,PM10,36,126,87
India,Delhi,Delhi,"Patparganj, Delhi - DPCC",18-08-2024 23:00:00,28.623763,77.287209,NO2,13,83,39
India,Delhi,Delhi,"Punjabi Bagh, Delhi - DPCC",18-08-2024 23:00:00,28.674045,77.131023,NO2,4,56,17
India,Delhi,Delhi,"Pusa, Delhi - DPCC",18-08-2024 23:00:00,28.639652,77.146275,PM2.5,22,85,45
India,Delhi,Delhi,"Pusa, Delhi - DPCC",18-08-2024 23:00:00,28.639652,77.146275,NH3,2,7,5
India,Delhi,Delhi,"Pusa, Delhi - DPCC",18-08-2024 23:00:00,28.639652,77.146275,CO,10,103,69
India,Delhi,Delhi,"R K Puram, Delhi - DPCC",18-08-2024 23:00:00,28.563262,77.186937,PM2.5,39,130,61
India,Delhi,Delhi,"R K Puram, Delhi - DPCC",18-08-2024 23:00:00,28.563262,77.186937,NO2,8,32,19
India,Delhi,Delhi,"Sirifort, Delhi - CPCB",18-08-2024 23:00:00,28.5504249,77.2159377,PM10,48,117,73
India,Delhi,Delhi,"Sonia Vihar, Delhi - DPCC",18-08-2024 23:00:00,28.710508,77.249485,NO2,15,46,27
India,Delhi,Delhi,"Sonia Vihar, Delhi - DPCC",18-08-2024 23:00:00,28.710508,77.249485,NH3,9,11,10
India,Delhi,Delhi,"Sri Aurobindo Marg, Delhi - DPCC",18-08-2024 23:00:00,28.531346,77.190156,NH3,5,8,7
India,Delhi,Delhi,"Vivek Vihar, Delhi - DPCC",18-08-2024 23:00:00,28.672342,77.315260,PM2.5,23,80,47
India,Delhi,Delhi,"Wazirpur, Delhi - DPCC",18-08-2024 23:00:00,28.699793,77.165453,PM2.5,31,175,81
India,Delhi,Delhi,"Wazirpur, Delhi - DPCC",18-08-2024 23:00:00,28.699793,77.165453,NO2,21,68,43
India,Delhi,Delhi,"Wazirpur, Delhi - DPCC",18-08-2024 23:00:00,28.699793,77.165453,SO2,3,11,6
India,Gujarat,Ahmedabad,"Chandkheda, Ahmedabad - IITM",18-08-2024 23:00:00,23.107969,72.574648,PM2.5,22,60,35
India,Gujarat,Ahmedabad,"Chandkheda, Ahmedabad - IITM",18-08-2024 23:00:00,23.107969,72.574648,NH3,6,10,8
India,Gujarat,Ahmedabad,"Chandkheda, Ahmedabad - IITM",18-08-2024 23:00:00,23.107969,72.574648,OZONE,6,27,23
India,Gujarat,Ahmedabad,"Gyaspur, Ahmedabad - IITM",18-08-2024 23:00:00,22.977134,72.553024,PM10,26,101,61
India,Gujarat,Ahmedabad,"Maninagar, Ahmedabad - GPCB",18-08-2024 23:00:00,23.002657,72.591912,CO,8,26,17
India,Gujarat,Ahmedabad,"Raikhad, Ahmedabad - IITM",18-08-2024 23:00:00,23.020509,72.579261,PM10,18,69,41
India,Gujarat,Ahmedabad,"Raikhad, Ahmedabad - IITM",18-08-2024 23:00:00,23.020509,72.579261,OZONE,10,33,21
India,Gujarat,Ahmedabad,"Rakhial, Ahmedabad - IITM",18-08-2024 23:00:00,23.016834,72.625775,PM2.5,28,93,52
India,Gujarat,Ahmedabad,"Rakhial, Ahmedabad - IITM",18-08-2024 23:00:00,23.016834,72.625775,NO2,17,42,23
India,Gujarat,Ahmedabad,"Rakhial, Ahmedabad - IITM",18-08-2024 23:00:00,23.016834,72.625775,CO,10,32,15
India,Gujarat,Ahmedabad,"SAC ISRO Satellite, Ahmedabad - IITM",18-08-2024 23:00:00,23.023389,72.515201,PM2.5,20,43,31
India,Gujarat,Ahmedabad,"SVPI Airport Hansol, Ahmedabad - IITM",18-08-2024 23:00:00,23.076793,72.627874,OZONE,5,31,25
India,Gujarat,Ahmedabad,"Sardar Vallabhbhai Patel Stadium, Ahmedabad - IITM",18-08-2024 23:00:00,23.043070,72.562968,PM2.5,23,68,43
India,Gujarat,Ahmedabad,"Sardar Vallabhbhai Patel Stadium, Ahmedabad - IITM",18-08-2024 23:00:00,23.043070,72.562968,PM10,28,85,52
India,Gujarat,Ahmedabad,"Sardar Vallabhbhai Patel Stadium, Ahmedabad - IITM",18-08-2024 23:00:00,23.043070,72.562968,NO2,11,45,20
India,Gujarat,Gandhinagar,"GIFT City, Gandhinagar - IITM",18-08-2024 23:00:00,23.163798,72.677768,PM2.5,23,80,42
India,Gujarat,Gandhinagar,"Sector-10, Gandhinagar - GPCB",18-08-2024 23:00:00,23.221714,72.654328,NH3,2,2,2
India,Gujarat,Gandhinagar,"Sector-10, Gandhinagar - GPCB",18-08-2024 23:00:00,23.221714,72.654328,SO2,4,5,4
India,Gujarat,Surat,"Science Center, Surat - SMC",18-08-2024 23:00:00,21.170046,72.795405,SO2,12,14,13
India,Gujarat,Vatva,"Phase-4 GIDC, Vatva - GPCB",18-08-2024 23:00:00,22.969611,72.643500,PM10,24,69,37
India,Gujarat,Vatva,"Phase-4 GIDC, Vatva - GPCB",18-08-2024 23:00:00,22.969611,72.643500,NH3,2,3,3
India,Haryana,Ambala,"Patti Mehar, Ambala - HSPCB",18-08-2024 23:00:00,30.379589,76.778328,PM2.5,37,76,58
India,Haryana,Ambala,"Patti Mehar, Ambala - HSPCB",18-08-2024 23:00:00,30.379589,76.778328,NO2,7,21,14
India,Haryana,Bahadurgarh,"Arya Nagar, Bahadurgarh - HSPCB",18-08-2024 23:00:00,28.6701,76.9254,CO,22,32,26
India,Haryana,Ballabgarh,"Nathu Colony, Ballabgarh - HSPCB",18-08-2024 23:00:00,28.3419248,77.319699,OZONE,1,19,5
India,Haryana,Bhiwani,"H.B. Colony, Bhiwani - HSPCB",18-08-2024 23:00:00,28.806223,76.141105,OZONE,1,37,6
India,Haryana,Charkhi Dadri,"Mini Secretariat, Charkhi Dadri - HSPCB",18-08-2024 23:00:00,28.593883,76.270653,SO2,2,16,11
India,Haryana,Dharuhera,"Municipal Corporation Office, Dharuhera -  HSPCB",18-08-2024 23:00:00,28.206800,76.799700,PM2.5,52,84,65
India,Haryana,Dharuhera,"Municipal Corporation Office, Dharuhera -  HSPCB",18-08-2024 23:00:00,28.206800,76.799700,SO2,8,17,11
India,Haryana,Faridabad,"New Industrial Town, Faridabad - HSPCB",18-08-2024 23:00:00,28.39072,77.30059,PM10,58,62,60
India,Haryana,Gurugram,"Teri Gram, Gurugram - HSPCB",18-08-2024 23:00:00,28.4275,77.1465,PM10,50,180,111
India,Haryana,Hisar,"Urban Estate-II, Hisar - HSPCB",18-08-2024 23:00:00,29.140560,75.744941,CO,25,29,28
India,Haryana,Jind,"Police Lines, Jind - HSPCB",18-08-2024 23:00:00,29.307814,76.337619,PM2.5,18,51,33
India,Haryana,Kaithal,"Rishi Nagar, Kaithal - HSPCB",18-08-2024 23:00:00,29.8006,76.4155,NO2,24,26,25
India,Haryana,Karnal,"Sector-12, Karnal - HSPCB",18-08-2024 23:00:00,29.695300,77.002700,NH3,10,13,11
India,Haryana,Kurukshetra,"Sector-7, Kurukshetra - HSPCB",18-08-2024 23:00:00,29.966942,76.875879,PM2.5,20,59,39
India,Haryana,Mandikhera,"General Hospital, Mandikhera - HSPCB",18-08-2024 23:00:00,27.9002,76.9938,PM2.5,6,10,8
India,Haryana,Mandikhera,"General Hospital, Mandikhera - HSPCB",18-08-2024 23:00:00,27.9002,76.9938,PM10,10,16,14
India,Haryana,Mandikhera,"General Hospital, Mandikhera - HSPCB",18-08-2024 23:00:00,27.9002,76.9938,NO2,19,23,21
India,Haryana,Manesar,"Sector-2 IMT, Manesar - HSPCB",18-08-2024 23:00:00,28.360699,76.936090,PM2.5,18,72,32
India,Haryana,Manesar,"Sector-2 IMT, Manesar - HSPCB",18-08-2024 23:00:00,28.360699,76.936090,CO,24,44,30
India,Haryana,Narnaul,"Shastri Nagar, Narnaul - HSPCB",18-08-2024 23:00:00,28.060249,76.113115,PM2.5,31,64,45
India,Haryana,Narnaul,"Shastri Nagar, Narnaul - HSPCB",18-08-2024 23:00:00,28.060249,76.113115,SO2,12,139,79
India,Haryana,Palwal,"Shyam Nagar, Palwal - HSPCB",18-08-2024 23:00:00,28.1485564,77.3320667,PM2.5,NA,NA,NA
India,Haryana,Rohtak,"MD University, Rohtak - HSPCB",18-08-2024 23:00:00,28.52123,76.37138,OZONE,44,55,50
India,Haryana,Sirsa,"F-Block, Sirsa - HSPCB",18-08-2024 23:00:00,29.536400,75.015800,PM10,22,66,45
India,Haryana,Sirsa,"F-Block, Sirsa - HSPCB",18-08-2024 23:00:00,29.536400,75.015800,SO2,7,16,12
India,Haryana,Sonipat,"Murthal, Sonipat - HSPCB",18-08-2024 23:00:00,29.027200,77.062100,PM2.5,33,34,34
India,Haryana,Sonipat,"Murthal, Sonipat - HSPCB",18-08-2024 23:00:00,29.027200,77.062100,OZONE,16,36,27
India,Haryana,Yamuna Nagar,"Gobind Pura, Yamuna Nagar - HSPCB",18-08-2024 23:00:00,30.1480566,77.2893471,PM2.5,NA,NA,NA
India,Haryana,Yamuna Nagar,"Gobind Pura, Yamuna Nagar - HSPCB",18-08-2024 23:00:00,30.1480566,77.2893471,OZONE,8,33,33
India,Jammu_and_Kashmir,Srinagar,"Rajbagh, Srinagar - JKSPCB",18-08-2024 23:00:00,34.066206,74.819820,SO2,NA,NA,NA
India,Karnataka,Belgaum,"Ramteerth Nagar, Belgaum - KSPCB",18-08-2024 23:00:00,15.888653,74.541751,PM2.5,NA,NA,NA
India,Karnataka,Belgaum,"Ramteerth Nagar, Belgaum - KSPCB",18-08-2024 23:00:00,15.888653,74.541751,PM10,NA,NA,NA
India,Karnataka,Belgaum,"Ramteerth Nagar, Belgaum - KSPCB",18-08-2024 23:00:00,15.888653,74.541751,OZONE,20,24,22
India,Karnataka,Bengaluru,"BTM Layout, Bengaluru - CPCB",18-08-2024 23:00:00,12.9135218,77.5950804,PM2.5,25,38,28
India,Karnataka,Bengaluru,"BTM Layout, Bengaluru - CPCB",18-08-2024 23:00:00,12.9135218,77.5950804,CO,30,42,37
India,Karnataka,Bengaluru,"Hebbal, Bengaluru - KSPCB",18-08-2024 23:00:00,13.029152,77.585901,PM10,21,77,41
India,Karnataka,Bengaluru,"Hebbal, Bengaluru - KSPCB",18-08-2024 23:00:00,13.029152,77.585901,NH3,1,1,1
India,Karnataka,Bengaluru,"Hombegowda Nagar, Bengaluru - KSPCB",18-08-2024 23:00:00,12.938539,77.590100,NO2,8,31,16
India,Karnataka,Bengaluru,"Hombegowda Nagar, Bengaluru - KSPCB",18-08-2024 23:00:00,12.938539,77.590100,CO,14,65,39
India,Karnataka,Bengaluru,"Hombegowda Nagar, Bengaluru - KSPCB",18-08-2024 23:00:00,12.938539,77.590100,OZONE,1,57,17
India,Karnataka,Bengaluru,"Jayanagar 5th Block, Bengaluru - KSPCB",18-08-2024 23:00:00,12.920984,77.584908,PM10,11,92,37
India,Karnataka,Bengaluru,"Jayanagar 5th Block, Bengaluru - KSPCB",18-08-2024 23:00:00,12.920984,77.584908,OZONE,21,30,28
India,Karnataka,Bengaluru,"Jigani, Bengaluru - KSPCB",18-08-2024 23:00:00,12.7816279,77.6299145,PM10,29,108,57
India,Karnataka,Bengaluru,"Jigani, Bengaluru - KSPCB",18-08-2024 23:00:00,12.7816279,77.6299145,NH3,5,6,5
India,Karnataka,Bengaluru,"Jigani, Bengaluru - KSPCB",18-08-2024 23:00:00,12.7816279,77.6299145,CO,26,38,33
India,Karnataka,Bengaluru,"Jigani, Bengaluru - KSPCB",18-08-2024 23:00:00,12.7816279,77.6299145,OZONE,23,25,24
India,Karnataka,Bengaluru,"Kasturi Nagar, Bengaluru - KSPCB",18-08-2024 23:00:00,13.003872,77.664217,PM2.5,42,43,42
India,Karnataka,Bengaluru,"Peenya, Bengaluru - CPCB",18-08-2024 23:00:00,13.0270199,77.494094,CO,65,96,85
India,Karnataka,Bengaluru,"RVCE-Mailasandra, Bengaluru - KSPCB",18-08-2024 23:00:00,12.921418,77.502466,NO2,21,22,22
India,Karnataka,Bengaluru,"Sanegurava Halli, Bengaluru - KSPCB",18-08-2024 23:00:00,12.990328,77.5431385,PM10,34,34,34
India,Karnataka,Bengaluru,"Silk Board, Bengaluru - KSPCB",18-08-2024 23:00:00,12.917348,77.622813,PM10,23,148,91
India,Karnataka,Bengaluru,"Silk Board, Bengaluru - KSPCB",18-08-2024 23:00:00,12.917348,77.622813,OZONE,10,33,16
India,Karnataka,Bidar,"Naubad, Bidar - KSPCB",18-08-2024 23:00:00,17.930306,77.482194,PM10,23,63,32
India,Karnataka,Bidar,"Naubad, Bidar - KSPCB",18-08-2024 23:00:00,17.930306,77.482194,SO2,12,12,12
India,Karnataka,Chamarajanagar,"Urban, Chamarajanagar - KSPCB",18-08-2024 23:00:00,11.55358,76.55521,NO2,NA,NA,NA
India,Karnataka,Chamarajanagar,"Urban, Chamarajanagar - KSPCB",18-08-2024 23:00:00,11.55358,76.55521,CO,27,121,28
India,Karnataka,Chamarajanagar,"Urban, Chamarajanagar - KSPCB",18-08-2024 23:00:00,11.55358,76.55521,OZONE,34,36,35
India,Karnataka,Chikkamagaluru,"Kalyana Nagara, Chikkamagaluru - KSPCB",18-08-2024 23:00:00,13.328028,75.797056,NO2,17,23,20
India,Karnataka,Dharwad,"Kalabhavan, Dharwad - KSPCB",18-08-2024 23:00:00,15.459706,75.008381,NH3,2,3,3
India,Karnataka,Haveri,"Ashwini Nagar, Haveri - KSPCB",18-08-2024 23:00:00,14.791800,75.389600,PM2.5,NA,NA,NA
India,Karnataka,Haveri,"Ashwini Nagar, Haveri - KSPCB",18-08-2024 23:00:00,14.791800,75.389600,OZONE,NA,NA,NA
India,Karnataka,Hubballi,"Deshpande Nagar, Hubballi - KSPCB",18-08-2024 23:00:00,15.351773,75.140726,CO,NA,NA,NA
India,Karnataka,Hubballi,"Lingaraj Nagar, Hubballi - KSPCB",18-08-2024 23:00:00,15.3714823,75.1160168,PM2.5,21,56,34
India,Karnataka,Kalaburagi,"Lal Bahadur Shastri Nagar, Kalaburagi - KSPCB",18-08-2024 23:00:00,17.321993,76.822628,PM10,8,66,25
India,Karnataka,Kalaburagi,"Lal Bahadur Shastri Nagar, Kalaburagi - KSPCB",18-08-2024 23:00:00,17.321993,76.822628,SO2,19,27,22
India,Karnataka,Kalaburagi,"Lal Bahadur Shastri Nagar, Kalaburagi - KSPCB",18-08-2024 23:00:00,17.321993,76.822628,CO,61,67,63
India,Karnataka,Kalaburagi,"Mahatma Basaveswar Colony, Kalaburgi - KSPCB",18-08-2024 23:00:00,17.336318,76.847397,PM2.5,NA,NA,NA
India,Karnataka,Karwar,"KHB Colony, Karwar - KSPCB",18-08-2024 23:00:00,14.816666,74.141003,PM2.5,2,28,11
India,Karnataka,Karwar,"KHB Colony, Karwar - KSPCB",18-08-2024 23:00:00,14.816666,74.141003,PM10,5,34,16
India,Karnataka,Kolar,"Tamaka Ind. Area, Kolar - KSPCB",18-08-2024 23:00:00,13.1276288,78.1570122,NO2,NA,NA,NA
India,Karnataka,Kolar,"Tamaka Ind. Area, Kolar - KSPCB",18-08-2024 23:00:00,13.1276288,78.1570122,SO2,NA,NA,NA
India,Karnataka,Kolar,"Tamaka Ind. Area, Kolar - KSPCB",18-08-2024 23:00:00,13.1276288,78.1570122,OZONE,14,31,25
India,Karnataka,Madikeri,"Stuart Hill, Madikeri - KSPCB",18-08-2024 23:00:00,12.415911,75.735050,NH3,NA,NA,NA
India,Karnataka,Madikeri,"Stuart Hill, Madikeri - KSPCB",18-08-2024 23:00:00,12.415911,75.735050,OZONE,10,16,13
India,Karnataka,Mysuru,"Hebbal 1st Stage, Mysuru - KSPCB",18-08-2024 23:00:00,12.21041,76.37376,NO2,14,52,28
India,Karnataka,Mysuru,"Hebbal 1st Stage, Mysuru - KSPCB",18-08-2024 23:00:00,12.21041,76.37376,OZONE,8,60,31
India,Karnataka,Ramanagara,"Vijay Nagar, Ramanagara - KSPCB",18-08-2024 23:00:00,12.733409,77.298051,PM10,12,49,23
India,Karnataka,Ramanagara,"Vijay Nagar, Ramanagara - KSPCB",18-08-2024 23:00:00,12.733409,77.298051,NH3,3,4,3
India,Karnataka,Shivamogga,"Vinoba Nagara, Shivamogga - KSPCB",18-08-2024 23:00:00,13.940000,75.555917,PM10,NA,NA,NA
India,Karnataka,Shivamogga,"Vinoba Nagara, Shivamogga - KSPCB",18-08-2024 23:00:00,13.940000,75.555917,SO2,NA,NA,NA
India,Karnataka,Tumakuru,"Thimmalapura, Tumakuru - KSPCB",18-08-2024 23:00:00,13.377516,77.099072,PM2.5,18,56,33
India,Karnataka,Tumakuru,"Thimmalapura, Tumakuru - KSPCB",18-08-2024 23:00:00,13.377516,77.099072,PM10,28,229,97
India,Karnataka,Tumakuru,"Thimmalapura, Tumakuru - KSPCB",18-08-2024 23:00:00,13.377516,77.099072,SO2,6,12,8
India,Karnataka,Udupi,"Brahmagiri, Udupi - KSPCB",18-08-2024 23:00:00,13.34194444,74.74694444,CO,26,100,36
India,Karnataka,Vijayapura,"Ibrahimpur, Vijayapura - KSPCB",18-08-2024 23:00:00,16.802639,75.722694,NO2,17,19,19
India,Karnataka,Vijayapura,"Ibrahimpur, Vijayapura - KSPCB",18-08-2024 23:00:00,16.802639,75.722694,OZONE,13,16,15
India,Karnataka,Yadgir,"Collector Office, Yadgir - KSPCB",18-08-2024 23:00:00,16.7602,77.1428,PM10,22,60,37
India,Karnataka,Yadgir,"Collector Office, Yadgir - KSPCB",18-08-2024 23:00:00,16.7602,77.1428,SO2,7,22,17
India,Kerala,Eloor,"Udyogamandal, Eloor - Kerala PCB",18-08-2024 23:00:00,10.073232,76.302765,NH3,1,1,1
India,Kerala,Kollam,"Polayathode, Kollam - Kerala PCB",18-08-2024 23:00:00,8.8787,76.6073,CO,14,16,15
India,Kerala,Thiruvananthapuram,"Kariavattom, Thiruvananthapuram - Kerala PCB",18-08-2024 23:00:00,8.563700,76.886500,PM2.5,45,51,48
India,Madhya Pradesh,Bhopal,"Idgah Hills, Bhopal - MPPCB",18-08-2024 23:00:00,23.264759,77.381568,CO,15,56,28
India,Madhya Pradesh,Bhopal,"Idgah Hills, Bhopal - MPPCB",18-08-2024 23:00:00,23.264759,77.381568,OZONE,4,32,21
India,Madhya Pradesh,Bhopal,"Paryavaran Parisar, Bhopal - MPPCB",18-08-2024 23:00:00,23.210494,77.425409,PM10,48,133,72
India,Madhya Pradesh,Bhopal,"T T Nagar, Bhopal - MPPCB",18-08-2024 23:00:00,23.233584,77.400574,PM10,50,163,94
India,Madhya Pradesh,Bhopal,"T T Nagar, Bhopal - MPPCB",18-08-2024 23:00:00,23.233584,77.400574,SO2,8,18,14
India,Madhya Pradesh,Gwalior,"City Center, Gwalior - MPPCB",18-08-2024 23:00:00,26.203442,78.193251,PM10,42,65,54
India,Madhya Pradesh,Gwalior,"City Center, Gwalior - MPPCB",18-08-2024 23:00:00,26.203442,78.193251,CO,4,76,20
India,Madhya Pradesh,Gwalior,"Deen Dayal Nagar, Gwalior - MPPCB",18-08-2024 23:00:00,26.259242,78.216432,NH3,3,5,4
India,Madhya Pradesh,Gwalior,"Maharaj Bada, Gwalior - MPPCB",18-08-2024 23:00:00,26.200388,78.147714,NO2,9,21,13
India,Madhya Pradesh,Gwalior,"Phool Bagh, Gwalior - Mondelez Ind. Food",18-08-2024 23:00:00,26.210536,78.171,SO2,18,25,22
India,Madhya Pradesh,Gwalior,"Phool Bagh, Gwalior - Mondelez Ind. Food",18-08-2024 23:00:00,26.210536,78.171,CO,54,74,69
India,Madhya Pradesh,Indore,"Chhoti Gwaltoli, Indore - MPPCB",18-08-2024 23:00:00,22.4310,75.5213,PM10,67,166,103
India,Madhya Pradesh,Indore,"Chhoti Gwaltoli, Indore - MPPCB",18-08-2024 23:00:00,22.4310,75.5213,OZONE,11,42,25
India,Madhya Pradesh,Indore,"Maguda Nagar, Indore - IMC",18-08-2024 23:00:00,22.7524,75.8872,OZONE,1,6,2
India,Madhya Pradesh,Indore,"Regional Park, Indore - IMC",18-08-2024 23:00:00,22.6780,75.8559,PM10,38,104,59
India,Madhya Pradesh,Indore,"Regional Park, Indore - IMC",18-08-2024 23:00:00,22.6780,75.8559,NH3,NA,NA,NA
India,Madhya Pradesh,Jabalpur,"Gupteshwar, Jabalpur - JMC",18-08-2024 23:00:00,23.142888,79.916147,NO2,5,40,13
India,Madhya Pradesh,Jabalpur,"Marhatal, Jabalpur - MPPCB",18-08-2024 23:00:00,23.168606,79.932247,PM10,12,34,24
India,Madhya Pradesh,Jabalpur,"Suhagi, Jabalpur - JMC",18-08-2024 23:00:00,23.218135,79.957770,SO2,6,8,7
India,Madhya Pradesh,Katni,"Gole Bazar, Katni - MPPCB",18-08-2024 23:00:00,23.50016,80.23284,OZONE,8,31,20
India,Madhya Pradesh,Mandideep,"Sector-D Industrial Area, Mandideep - MPPCB",18-08-2024 23:00:00,23.108440,77.511428,SO2,6,125,33
India,Madhya Pradesh,Mandideep,"Sector-D Industrial Area, Mandideep - MPPCB",18-08-2024 23:00:00,23.108440,77.511428,CO,15,62,35
India,Madhya Pradesh,Satna,"Bandhavgar Colony, Satna - Birla Cement",18-08-2024 23:00:00,24.58434363,80.8549414,SO2,1,2,2
India,Madhya Pradesh,Singrauli,"Suryakiran Bhawan NCL, Singrauli - MPPCB",18-08-2024 23:00:00,24.108970,82.645580,SO2,NA,NA,NA
India,Madhya Pradesh,Ujjain,"Mahakaleshwar Temple, Ujjain - MPPCB",18-08-2024 23:00:00,23.182719 ,75.768218 ,PM10,56,97,74
India,Madhya Pradesh,Ujjain,"Mahakaleshwar Temple, Ujjain - MPPCB",18-08-2024 23:00:00,23.182719 ,75.768218 ,OZONE,60,63,62
India,Maharashtra,Akola,"Ramdaspeth, Akola - MPCB",18-08-2024 23:00:00,20.719516,77.000253,PM2.5,23,54,33
India,Maharashtra,Amravati,"Shivneri Colony, Amravati - MPCB",18-08-2024 23:00:00,20.9402359,77.7895248,PM2.5,30,59,42
India,Maharashtra,Amravati,"Shivneri Colony, Amravati - MPCB",18-08-2024 23:00:00,20.9402359,77.7895248,PM10,34,79,54
India,Maharashtra,Amravati,"Shivneri Colony, Amravati - MPCB",18-08-2024 23:00:00,20.9402359,77.7895248,NO2,3,18,8
India,Maharashtra,Amravati,"Shri Shivaji Science College, Amaravati - MPCB",18-08-2024 23:00:00,20.939198,77.765701,PM2.5,NA,NA,NA
India,Maharashtra,Amravati,"Shri Shivaji Science College, Amaravati - MPCB",18-08-2024 23:00:00,20.939198,77.765701,PM10,NA,NA,NA
India,Maharashtra,Amravati,"Shri Shivaji Science College, Amaravati - MPCB",18-08-2024 23:00:00,20.939198,77.765701,NH3,NA,NA,NA
India,Maharashtra,Amravati,"Shri Shivaji Science College, Amaravati - MPCB",18-08-2024 23:00:00,20.939198,77.765701,SO2,NA,NA,NA
India,Maharashtra,Aurangabad,"More Chowk Waluj, Aurangabad - MPCB",18-08-2024 23:00:00,19.8389439,75.244448,NH3,5,5,5
India,Maharashtra,Badlapur,"Katrap, Badlapur - MPCB",18-08-2024 23:00:00,19.16485,73.23409,CO,34,82,54
India,Maharashtra,Bhiwandi,"Gokul Nagar, Bhiwandi - MPCB",18-08-2024 23:00:00,19.309073,73.057223,PM2.5,31,123,59
India,Maharashtra,Boisar,"Khaira, Boisar - MPCB",18-08-2024 23:00:00,19.786089,72.757971,PM2.5,36,69,49
India,Maharashtra,Boisar,"Khaira, Boisar - MPCB",18-08-2024 23:00:00,19.786089,72.757971,PM10,73,117,93
India,Maharashtra,Chandrapur,"MIDC Khutala, Chandrapur - MPCB",18-08-2024 23:00:00,19.9775302,79.2337086,OZONE,3,23,10
India,Maharashtra,Dhule,"Deopur, Dhule - MPCB",18-08-2024 23:00:00,20.918946,74.776388,NO2,1,4,2
India,Maharashtra,Dhule,"Deopur, Dhule - MPCB",18-08-2024 23:00:00,20.918946,74.776388,NH3,2,4,3
India,Maharashtra,Dhule,"Deopur, Dhule - MPCB",18-08-2024 23:00:00,20.918946,74.776388,CO,16,24,20
India,Maharashtra,Jalna,"Old MIDC, Jalna - MPCB",18-08-2024 23:00:00,19.854616,75.905894,CO,4,10,5
India,Maharashtra,Kalyan,"Khadakpada, Kalyan - MPCB",18-08-2024 23:00:00,19.25292,73.142019,PM2.5,9,24,17
India,Maharashtra,Kalyan,"Khadakpada, Kalyan - MPCB",18-08-2024 23:00:00,19.25292,73.142019,SO2,9,12,10
India,Maharashtra,Kalyan,"Khadakpada, Kalyan - MPCB",18-08-2024 23:00:00,19.25292,73.142019,CO,14,19,15
India,Maharashtra,Kolhapur,"Sinchan Bhavan, Kolhapur - MPCB",18-08-2024 23:00:00,16.7143745,74.2426398,PM10,13,77,40
India,Maharashtra,Latur,"Sawe Wadi, Latur - MPCB",18-08-2024 23:00:00,18.39963,76.57452,PM10,12,37,22
India,Maharashtra,Latur,"Sawe Wadi, Latur - MPCB",18-08-2024 23:00:00,18.39963,76.57452,SO2,3,7,4
India,Maharashtra,Mahad,"Kamble Tarf Birwadi, Mahad - MPCB",18-08-2024 23:00:00,18.1023399,73.4783687,NO2,4,27,11
India,Maharashtra,Mahad,"Kamble Tarf Birwadi, Mahad - MPCB",18-08-2024 23:00:00,18.1023399,73.4783687,OZONE,30,60,43
India,Maharashtra,Malegaon,"Mahesh Nagar, Malegaon - MPCB",18-08-2024 23:00:00,20.555712,74.529236,SO2,1,1,1
India,Maharashtra,Malegaon,"Mahesh Nagar, Malegaon - MPCB",18-08-2024 23:00:00,20.555712,74.529236,OZONE,2,38,21
India,Maharashtra,Mumbai,"Bandra Kurla Complex, Mumbai - MPCB",18-08-2024 23:00:00,19.065931,72.862131,CO,30,60,51
India,Maharashtra,Mumbai,"Borivali East, Mumbai - MPCB",18-08-2024 23:00:00,19.2243333,72.8658113,PM2.5,11,33,19
India,Maharashtra,Mumbai,"Borivali East, Mumbai - MPCB",18-08-2024 23:00:00,19.2243333,72.8658113,NO2,1,7,3
India,Maharashtra,Mumbai,"Byculla, Mumbai - BMC",18-08-2024 23:00:00,18.9767,72.8380,NO2,8,18,12
India,Maharashtra,Mumbai,"Chhatrapati Shivaji Intl. Airport (T2), Mumbai - MPCB",18-08-2024 23:00:00,19.10078,72.87462,NH3,1,1,1
India,Maharashtra,Mumbai,"Deonar, Mumbai - IITM",18-08-2024 23:00:00,19.04946,72.9230,PM2.5,10,56,32
India,Maharashtra,Mumbai,"Deonar, Mumbai - IITM",18-08-2024 23:00:00,19.04946,72.9230,NO2,19,32,24
India,Maharashtra,Mumbai,"Deonar, Mumbai - IITM",18-08-2024 23:00:00,19.04946,72.9230,SO2,1,19,9
India,Maharashtra,Mumbai,"Kandivali West, Mumbai - BMC",18-08-2024 23:00:00,19.215859,72.831718,NH3,2,3,3
India,Maharashtra,Mumbai,"Kandivali West, Mumbai - BMC",18-08-2024 23:00:00,19.215859,72.831718,CO,10,22,16
India,Maharashtra,Mumbai,"Kherwadi_Bandra East, Mumbai - MPCB",18-08-2024 23:00:00,19.0632143,72.8456324,NH3,1,29,10
India,Maharashtra,Mumbai,"Kherwadi_Bandra East, Mumbai - MPCB",18-08-2024 23:00:00,19.0632143,72.8456324,OZONE,5,30,20
India,Maharashtra,Mumbai,"Khindipada-Bhandup West, Mumbai - IITM",18-08-2024 23:00:00,19.1653323,72.922099,NH3,1,2,1
India,Maharashtra,Mumbai,"Khindipada-Bhandup West, Mumbai - IITM",18-08-2024 23:00:00,19.1653323,72.922099,CO,11,34,23
India,Maharashtra,Mumbai,"Khindipada-Bhandup West, Mumbai - IITM",18-08-2024 23:00:00,19.1653323,72.922099,OZONE,3,18,9
India,Maharashtra,Mumbai,"Kurla, Mumbai - MPCB",18-08-2024 23:00:00,19.0863,72.8888,SO2,19,19,19
India,Maharashtra,Mumbai,"Kurla, Mumbai - MPCB",18-08-2024 23:00:00,19.0863,72.8888,CO,3,12,7
India,Maharashtra,Mumbai,"Mindspace-Malad West, Mumbai - MPCB",18-08-2024 23:00:00,19.1878657,72.8304069,NO2,7,22,12
India,Maharashtra,Mumbai,"Mulund West, Mumbai - MPCB",18-08-2024 23:00:00,19.1750,72.9419,PM2.5,7,26,14
India,Maharashtra,Mumbai,"Mulund West, Mumbai - MPCB",18-08-2024 23:00:00,19.1750,72.9419,NO2,15,16,16
India,Maharashtra,Mumbai,"Navy Nagar-Colaba, Mumbai - IITM",18-08-2024 23:00:00,18.897756,72.813320,PM10,16,44,30
India,Maharashtra,Mumbai,"Navy Nagar-Colaba, Mumbai - IITM",18-08-2024 23:00:00,18.897756,72.813320,CO,6,36,27
India,Maharashtra,Mumbai,"Powai, Mumbai - MPCB",18-08-2024 23:00:00,19.137500,72.915056,PM10,46,73,57
India,Maharashtra,Mumbai,"Powai, Mumbai - MPCB",18-08-2024 23:00:00,19.137500,72.915056,NH3,2,2,2
India,Maharashtra,Mumbai,"Sewri, Mumbai - BMC",18-08-2024 23:00:00,19.000084,72.856730,NH3,3,6,4
India,Maharashtra,Mumbai,"Sewri, Mumbai - BMC",18-08-2024 23:00:00,19.000084,72.856730,OZONE,6,35,17
India,Maharashtra,Mumbai,"Shivaji Nagar, Mumbai - BMC",18-08-2024 23:00:00,19.060498,72.923356,NO2,7,21,14
India,Maharashtra,Mumbai,"Shivaji Nagar, Mumbai - BMC",18-08-2024 23:00:00,19.060498,72.923356,SO2,1,4,2
India,Maharashtra,Mumbai,"Siddharth Nagar-Worli, Mumbai - IITM",18-08-2024 23:00:00,19.000083,72.813993,PM10,NA,NA,NA
India,Maharashtra,Mumbai,"Siddharth Nagar-Worli, Mumbai - IITM",18-08-2024 23:00:00,19.000083,72.813993,OZONE,NA,NA,NA
India,Maharashtra,Mumbai,"Sion, Mumbai - MPCB",18-08-2024 23:00:00,19.047000,72.874600,SO2,26,28,28
India,Maharashtra,Mumbai,"Vile Parle West, Mumbai - MPCB",18-08-2024 23:00:00,19.10861,72.83622,PM2.5,11,31,18
India,Maharashtra,Mumbai,"Vile Parle West, Mumbai - MPCB",18-08-2024 23:00:00,19.10861,72.83622,NO2,29,32,30
India,Maharashtra,Mumbai,"Vile Parle West, Mumbai - MPCB",18-08-2024 23:00:00,19.10861,72.83622,CO,32,34,34
India,Maharashtra,Mumbai,"Worli, Mumbai - MPCB",18-08-2024 23:00:00,18.9936162,72.8128113,PM2.5,NA,NA,NA
India,Maharashtra,Mumbai,"Worli, Mumbai - MPCB",18-08-2024 23:00:00,18.9936162,72.8128113,PM10,NA,NA,NA
India,Maharashtra,Mumbai,"Worli, Mumbai - MPCB",18-08-2024 23:00:00,18.9936162,72.8128113,SO2,NA,NA,NA
India,Maharashtra,Mumbai,"Worli, Mumbai - MPCB",18-08-2024 23:00:00,18.9936162,72.8128113,OZONE,7,10,9
India,Maharashtra,Nagpur,"Ambazari, Nagpur - MPCB",18-08-2024 23:00:00,21.121801,79.04952,PM10,65,114,84
India,Maharashtra,Nagpur,"Ambazari, Nagpur - MPCB",18-08-2024 23:00:00,21.121801,79.04952,NH3,2,3,2
India,Maharashtra,Nagpur,"Ambazari, Nagpur - MPCB",18-08-2024 23:00:00,21.121801,79.04952,SO2,3,9,7
India,Maharashtra,Nagpur,"Mahal, Nagpur - MPCB",18-08-2024 23:00:00,21.14472,79.107595,NO2,10,36,21
India,Maharashtra,Nagpur,"Opp GPO Civil Lines, Nagpur - MPCB",18-08-2024 23:00:00,21.152875,79.0517531,CO,13,72,22
India,Maharashtra,Nanded,"Sneh Nagar, Nanded - MPCB",18-08-2024 23:00:00,19.173852,77.296291,NO2,5,22,10
India,Maharashtra,Nanded,"Sneh Nagar, Nanded - MPCB",18-08-2024 23:00:00,19.173852,77.296291,NH3,4,5,4
India,Maharashtra,Nashik,"Gangapur Road, Nashik - MPCB",18-08-2024 23:00:00,20.0073285,73.7762427,NH3,1,2,2
India,Maharashtra,Nashik,"Gangapur Road, Nashik - MPCB",18-08-2024 23:00:00,20.0073285,73.7762427,SO2,5,11,8
India,Maharashtra,Nashik,"Gangapur Road, Nashik - MPCB",18-08-2024 23:00:00,20.0073285,73.7762427,CO,7,112,36
India,Maharashtra,Nashik,"Hirawadi, Nashik - MPCB",18-08-2024 23:00:00,20.021503,73.813844,OZONE,12,32,21
India,Maharashtra,Nashik,"MIDC Ambad, Nashik - MPCB",18-08-2024 23:00:00,19.950220,73.731480,CO,20,78,24
India,Maharashtra,Nashik,"Pandav Nagari, Nashik - MPCB",18-08-2024 23:00:00,19.9591346,73.7788008,PM2.5,34,64,51
India,Maharashtra,Nashik,"Pandav Nagari, Nashik - MPCB",18-08-2024 23:00:00,19.9591346,73.7788008,SO2,1,5,3
India,Maharashtra,Navi Mumbai,"Kopripada-Vashi, Navi Mumbai - MPCB",18-08-2024 23:00:00,19.090337,73.014232,PM10,55,138,94
India,Maharashtra,Navi Mumbai,"Mahape, Navi Mumbai - MPCB",18-08-2024 23:00:00,19.1135051,73.008978,PM10,48,130,81
India,Maharashtra,Navi Mumbai,"Mahape, Navi Mumbai - MPCB",18-08-2024 23:00:00,19.1135051,73.008978,NO2,17,17,17
India,Maharashtra,Navi Mumbai,"Sanpada, Navi Mumbai - MPCB",18-08-2024 23:00:00,19.0575752,73.0151367,PM2.5,16,65,39
India,Maharashtra,Navi Mumbai,"Sanpada, Navi Mumbai - MPCB",18-08-2024 23:00:00,19.0575752,73.0151367,PM10,46,136,81
India,Maharashtra,Navi Mumbai,"Sanpada, Navi Mumbai - MPCB",18-08-2024 23:00:00,19.0575752,73.0151367,NO2,10,52,26
India,Maharashtra,Navi Mumbai,"Sector-19A Nerul, Navi Mumbai - IITM",18-08-2024 23:00:00,19.044,73.0325,PM10,59,109,86
India,Maharashtra,Navi Mumbai,"Sector-19A Nerul, Navi Mumbai - IITM",18-08-2024 23:00:00,19.044,73.0325,CO,8,53,25
India,Maharashtra,Navi Mumbai,"Sector-19A Nerul, Navi Mumbai - IITM",18-08-2024 23:00:00,19.044,73.0325,OZONE,1,31,9
India,Maharashtra,Parbhani,"Masoom Colony, Parbhani - MPCB",18-08-2024 23:00:00,19.265594,76.761463,PM2.5,2,362,60
India,Maharashtra,Pimpri-Chinchwad,"Gavalinagar, Pimpri Chinchwad - MPCB",18-08-2024 23:00:00,18.63673,73.82487,CO,9,40,21
India,Maharashtra,Pimpri-Chinchwad,"Park Street Wakad, Pimpri Chinchwad - MPCB",18-08-2024 23:00:00,18.59051,73.77946,NH3,2,6,4
India,Maharashtra,Pimpri-Chinchwad,"Savta Mali Nagar, Pimpri-Chinchwad - IITM",18-08-2024 23:00:00,18.614767,73.799516,OZONE,1,85,38
India,Maharashtra,Pimpri-Chinchwad,"Thergaon, Pimpri Chinchwad - MPCB",18-08-2024 23:00:00,18.616318,73.765797,PM10,33,60,45
India,Maharashtra,Pimpri-Chinchwad,"Thergaon, Pimpri Chinchwad - MPCB",18-08-2024 23:00:00,18.616318,73.765797,SO2,1,3,2
India,Maharashtra,Pune,"Bhumkar Nagar, Pune - IITM",18-08-2024 23:00:00,18.605770,73.749976,PM10,19,70,50
India,Maharashtra,Pune,"Katraj Dairy, Pune - MPCB",18-08-2024 23:00:00,18.454450,73.854155,SO2,1,4,1
India,Maharashtra,Pune,"Revenue Colony-Shivajinagar, Pune - IITM",18-08-2024 23:00:00,18.530085,73.849598,PM10,23,94,49
India,Maharashtra,Pune,"Revenue Colony-Shivajinagar, Pune - IITM",18-08-2024 23:00:00,18.530085,73.849598,OZONE,14,113,56
India,Maharashtra,Sangli,"Vijay Nagar, Sangli - MPCB",18-08-2024 23:00:00, 16.5038,74.3623,PM2.5,NA,NA,NA
India,Maharashtra,Sangli,"Vijay Nagar, Sangli - MPCB",18-08-2024 23:00:00, 16.5038,74.3623,CO,NA,NA,NA
India,Maharashtra,Sangli,"Vijay Nagar, Sangli - MPCB",18-08-2024 23:00:00, 16.5038,74.3623,OZONE,NA,NA,NA
India,Maharashtra,Solapur,"Ratandeep Housing Society, Solapur - MPCB",18-08-2024 23:00:00,17.65439,75.90649,NO2,1,5,2
India,Maharashtra,Solapur,"Ratandeep Housing Society, Solapur - MPCB",18-08-2024 23:00:00,17.65439,75.90649,NH3,3,12,6
India,Maharashtra,Thane,"Kasarvadavali, Thane - MPCB",18-08-2024 23:00:00,19.26777,72.97182,NO2,3,16,9
India,Maharashtra,Thane,"Upvan Fort, Thane - MPCB",18-08-2024 23:00:00,19.222279,72.957979,PM10,39,61,47
India,Maharashtra,Thane,"Upvan Fort, Thane - MPCB",18-08-2024 23:00:00,19.222279,72.957979,SO2,12,16,14
India,Maharashtra,Thane,"Upvan Fort, Thane - MPCB",18-08-2024 23:00:00,19.222279,72.957979,OZONE,1,25,9
India,Maharashtra,Ulhasnagar,"Sidhi Vinayak Nagar, Ulhasnagar - MPCB",18-08-2024 23:00:00,19.235581,73.159121,PM2.5,35,73,56
India,Maharashtra,Ulhasnagar,"Sidhi Vinayak Nagar, Ulhasnagar - MPCB",18-08-2024 23:00:00,19.235581,73.159121,PM10,87,126,102
India,Maharashtra,Virar,"Bolinj, Virar - MPCB",18-08-2024 23:00:00,19.4458210,72.7988231,PM2.5,25,65,38
India,Nagaland,Kohima,"PWD Juction, Kohima - NPCB",18-08-2024 23:00:00,25.6635413,94.0989878,NO2,3,4,3
India,Nagaland,Kohima,"PWD Juction, Kohima - NPCB",18-08-2024 23:00:00,25.6635413,94.0989878,NH3,1,1,1
India,Nagaland,Kohima,"PWD Juction, Kohima - NPCB",18-08-2024 23:00:00,25.6635413,94.0989878,OZONE,3,12,6
India,Odisha,Angul,"Hakimapada, Angul - OSPCB",18-08-2024 23:00:00,20.832874,85.104082,SO2,6,28,13
India,Odisha,Balasore,"Kalidaspur, Balasore - OSPCB",18-08-2024 23:00:00,21.51161,86.89088,PM2.5,2,40,19
India,Odisha,Balasore,"Kalidaspur, Balasore - OSPCB",18-08-2024 23:00:00,21.51161,86.89088,NO2,6,31,16
India,Odisha,Balasore,"Kalidaspur, Balasore - OSPCB",18-08-2024 23:00:00,21.51161,86.89088,NH3,1,1,1
India,Odisha,Balasore,"Kalidaspur, Balasore - OSPCB",18-08-2024 23:00:00,21.51161,86.89088,CO,71,94,85
India,Odisha,Barbil,"Forest Office, Barbil - OSPCB",18-08-2024 23:00:00,22.1166054,85.3945546,NH3,2,4,3
India,Odisha,Baripada,"Meher Colony, Baripada - OSPCB",18-08-2024 23:00:00,21.941841,86.728318,PM2.5,20,56,34
India,Odisha,Baripada,"Meher Colony, Baripada - OSPCB",18-08-2024 23:00:00,21.941841,86.728318,NO2,1,14,7
India,Odisha,Bhubaneswar,"Lingraj Mandir, Bhubaneswar - OSPCB",18-08-2024 23:00:00,20.240790,85.836784,NO2,3,11,7
India,Odisha,Bhubaneswar,"Lingraj Mandir, Bhubaneswar - OSPCB",18-08-2024 23:00:00,20.240790,85.836784,NH3,3,4,3
India,Odisha,Bhubaneswar,"Lingraj Mandir, Bhubaneswar - OSPCB",18-08-2024 23:00:00,20.240790,85.836784,OZONE,10,35,29
India,Odisha,Bhubaneswar,"Patia, Bhubaneswar - OSPCB",18-08-2024 23:00:00,20.34652,85.81630,SO2,3,5,4
India,Odisha,Brajrajnagar,"GM Office, Brajrajnagar - OSPCB",18-08-2024 23:00:00,21.8004996,83.8396977,PM2.5,3,85,34
India,Odisha,Brajrajnagar,"GM Office, Brajrajnagar - OSPCB",18-08-2024 23:00:00,21.8004996,83.8396977,NO2,22,30,24
India,Odisha,Byasanagar,"Ferro Chrome Colony, Byasanagar - OSPCB",18-08-2024 23:00:00,20.94185,86.11510,PM2.5,13,140,51
India,Odisha,Byasanagar,"Ferro Chrome Colony, Byasanagar - OSPCB",18-08-2024 23:00:00,20.94185,86.11510,PM10,24,178,82
India,Odisha,Cuttack,"CDA Area, Cuttack - OSPCB",18-08-2024 23:00:00,20.48891     ,85.84768     ,PM2.5,17,52,32
India,Odisha,Keonjhar,"Jagamohanpur, Keonjhar - OSPCB",18-08-2024 23:00:00,21.643900,85.599355,NO2,8,12,9
India,Odisha,Keonjhar,"Jagamohanpur, Keonjhar - OSPCB",18-08-2024 23:00:00,21.643900,85.599355,CO,22,119,106
India,Odisha,Keonjhar,"Jagamohanpur, Keonjhar - OSPCB",18-08-2024 23:00:00,21.643900,85.599355,OZONE,65,141,68
India,Odisha,Rairangpur,"Divisional Forest Office, Rairangpur - OSPCB",18-08-2024 23:00:00,22.265816,86.174829,SO2,9,9,9
India,Odisha,Rourkela,"Raghunathpali, Rourkela - OSPCB",18-08-2024 23:00:00,22.220833,84.809444,PM2.5,32,125,61
India,Odisha,Rourkela,"Raghunathpali, Rourkela - OSPCB",18-08-2024 23:00:00,22.220833,84.809444,PM10,40,143,75
India,Odisha,Tensa,"Barsua Iron Ore Mines, Tensa - OSPCB",18-08-2024 23:00:00,21.869985,85.167016,PM2.5,27,61,44
India,Odisha,Tensa,"Barsua Iron Ore Mines, Tensa - OSPCB",18-08-2024 23:00:00,21.869985,85.167016,SO2,10,16,12
India,Puducherry,Puducherry,"Jawahar Nagar, Puducherry - PPCC",18-08-2024 23:00:00,11.9309,79.8027,PM2.5,13,78,32
India,Punjab,Amritsar,"Golden Temple, Amritsar - PPCB",18-08-2024 23:00:00,31.620000,74.876512,PM2.5,NA,NA,NA
India,Punjab,Bathinda,"Hardev Nagar, Bathinda - PPCB",18-08-2024 23:00:00,30.233011,74.907758,NO2,31,36,33
India,Punjab,Jalandhar,"Civil Line, Jalandhar - PPCB",18-08-2024 23:00:00,31.321907,75.578914,PM10,55,61,58
India,Punjab,Jalandhar,"Civil Line, Jalandhar - PPCB",18-08-2024 23:00:00,31.321907,75.578914,CO,14,40,28
India,Punjab,Khanna,"Kalal Majra, Khanna - PPCB",18-08-2024 23:00:00,30.736056 ,76.209694,PM10,46,94,69
India,Punjab,Khanna,"Kalal Majra, Khanna - PPCB",18-08-2024 23:00:00,30.736056 ,76.209694,NO2,27,28,28
India,Punjab,Ludhiana,"Punjab Agricultural University, Ludhiana - PPCB",18-08-2024 23:00:00,30.9028,75.8086,PM2.5,13,57,35
India,Punjab,Mandi Gobindgarh,"RIMT University, Mandi Gobindgarh - PPCB",18-08-2024 23:00:00,30.649961,76.331442,PM10,1,255,106
India,Punjab,Mandi Gobindgarh,"RIMT University, Mandi Gobindgarh - PPCB",18-08-2024 23:00:00,30.649961,76.331442,SO2,25,42,33
India,Punjab,Mandi Gobindgarh,"RIMT University, Mandi Gobindgarh - PPCB",18-08-2024 23:00:00,30.649961,76.331442,CO,4,32,26
India,Punjab,Patiala,"Model Town, Patiala - PPCB",18-08-2024 23:00:00,30.349388,76.366642,PM10,24,65,43
India,Punjab,Rupnagar,"Ratanpura, Rupnagar - Ambuja Cements",18-08-2024 23:00:00,31.0325454,76.5623046,PM10,25,134,74
India,Punjab,Rupnagar,"Ratanpura, Rupnagar - Ambuja Cements",18-08-2024 23:00:00,31.0325454,76.5623046,SO2,5,7,6
India,Rajasthan,Ajmer,"Civil Lines,  Ajmer - RSPCB",18-08-2024 23:00:00,26.470859,74.646594,PM10,45,89,66
India,Rajasthan,Alwar,"Moti Doongri, Alwar - RSPCB",18-08-2024 23:00:00,27.554793,76.611536,NH3,6,9,7
India,Rajasthan,Banswara,"Rati Talai, Banswara - RSPCB",18-08-2024 23:00:00,23.555190,74.440010,OZONE,14,18,16
India,Rajasthan,Baran,"Bamboliya, Baran - RSPCB",18-08-2024 23:00:00,25.106006,76.469948,PM10,19,64,41
India,Rajasthan,Barmer,"Railway Colony, Barmer - RSPCB",18-08-2024 23:00:00,25.747299,71.393989,PM10,22,87,53
India,Rajasthan,Bhilwara,"Pratap Nagar, Bhilwara - RSPCB",18-08-2024 23:00:00,25.339605,74.618883,CO,2,24,9
India,Rajasthan,Bhiwadi,"RIICO Ind. Area III, Bhiwadi - RSPCB",18-08-2024 23:00:00,28.194909,76.862296,NH3,5,11,6
India,Rajasthan,Bhiwadi,"RIICO Ind. Area III, Bhiwadi - RSPCB",18-08-2024 23:00:00,28.194909,76.862296,SO2,2,33,11
India,Rajasthan,Bhiwadi,"RIICO Ind. Area III, Bhiwadi - RSPCB",18-08-2024 23:00:00,28.194909,76.862296,CO,20,117,63
India,Rajasthan,Bhiwadi,"Vasundhara Nagar_UIT, Bhiwadi - RSPCB",18-08-2024 23:00:00,28.207266,76.829265,CO,10,22,15
India,Rajasthan,Bhiwadi,"Vasundhara Nagar_UIT, Bhiwadi - RSPCB",18-08-2024 23:00:00,28.207266,76.829265,OZONE,11,35,24
India,Rajasthan,Bikaner,"MM Ground, Bikaner - RSPCB",18-08-2024 23:00:00,28.018792,73.292658,SO2,1,3,2
India,Rajasthan,Bikaner,"MM Ground, Bikaner - RSPCB",18-08-2024 23:00:00,28.018792,73.292658,CO,16,56,29
India,Rajasthan,Bikaner,"MM Ground, Bikaner - RSPCB",18-08-2024 23:00:00,28.018792,73.292658,OZONE,6,16,8
India,Rajasthan,Churu,"Subash Chowk, Churu - RSPCB",18-08-2024 23:00:00,28.296139,74.961696,PM2.5,17,88,39
India,Rajasthan,Churu,"Subash Chowk, Churu - RSPCB",18-08-2024 23:00:00,28.296139,74.961696,PM10,31,162,78
India,Rajasthan,Churu,"Subash Chowk, Churu - RSPCB",18-08-2024 23:00:00,28.296139,74.961696,NH3,17,20,17
India,Rajasthan,Dausa,"Khatikan Mohalla, Dausa - RSPCB",18-08-2024 23:00:00,26.895552,76.334753,PM10,NA,NA,NA
India,Rajasthan,Dausa,"Khatikan Mohalla, Dausa - RSPCB",18-08-2024 23:00:00,26.895552,76.334753,NH3,3,8,4
India,Rajasthan,Dausa,"Khatikan Mohalla, Dausa - RSPCB",18-08-2024 23:00:00,26.895552,76.334753,OZONE,5,29,19
India,Rajasthan,Dungarpur,"Bhoiwada, Dungarpur - RSPCB",18-08-2024 23:00:00,23.837789,73.714926,PM10,40,93,63
India,Rajasthan,Dungarpur,"Bhoiwada, Dungarpur - RSPCB",18-08-2024 23:00:00,23.837789,73.714926,SO2,8,12,10
India,Rajasthan,Dungarpur,"Bhoiwada, Dungarpur - RSPCB",18-08-2024 23:00:00,23.837789,73.714926,OZONE,16,48,42
India,Rajasthan,Hanumangarh,"Housing Board, Hanumangarh - RSPCB",18-08-2024 23:00:00,29.610750,74.283608,PM10,NA,NA,NA
India,Rajasthan,Jaipur,"Adarsh Nagar, Jaipur - RSPCB",18-08-2024 23:00:00,26.902909,75.836858,PM2.5,24,84,52
India,Rajasthan,Jaipur,"Adarsh Nagar, Jaipur - RSPCB",18-08-2024 23:00:00,26.902909,75.836858,NH3,3,15,6
India,Rajasthan,Jaipur,"Mansarovar Sector-12, Jaipur - RSPCB",18-08-2024 23:00:00,26.843698,75.766894,PM10,35,134,74
India,Rajasthan,Jaipur,"Mansarovar Sector-12, Jaipur - RSPCB",18-08-2024 23:00:00,26.843698,75.766894,NH3,3,6,4
India,Rajasthan,Jaipur,"Mansarovar Sector-12, Jaipur - RSPCB",18-08-2024 23:00:00,26.843698,75.766894,SO2,1,8,2
India,Rajasthan,Jaipur,"Police Commissionerate, Jaipur - RSPCB",18-08-2024 23:00:00,26.9164092,75.7994901,PM2.5,30,87,52
India,Rajasthan,Jaipur,"Police Commissionerate, Jaipur - RSPCB",18-08-2024 23:00:00,26.9164092,75.7994901,PM10,78,154,106
India,Rajasthan,Jaipur,"Police Commissionerate, Jaipur - RSPCB",18-08-2024 23:00:00,26.9164092,75.7994901,OZONE,19,57,36
India,Rajasthan,Jaipur,"RIICO Sitapura, Jaipur - RSPCB",18-08-2024 23:00:00,26.786682,75.827928,PM10,45,113,63
India,Rajasthan,Jaipur,"Shastri Nagar, Jaipur - RSPCB",18-08-2024 23:00:00,26.9502929,75.730943,PM2.5,33,155,70
India,Rajasthan,Jaipur,"Shastri Nagar, Jaipur - RSPCB",18-08-2024 23:00:00,26.9502929,75.730943,NH3,3,11,5
India,Rajasthan,Jaipur,"Shastri Nagar, Jaipur - RSPCB",18-08-2024 23:00:00,26.9502929,75.730943,CO,17,101,29
India,Rajasthan,Jaisalmer,"Sadar Bazar, Jaisalmer - RSPCB",18-08-2024 23:00:00,26.912329,70.909168,PM10,10,78,42
India,Rajasthan,Jaisalmer,"Sadar Bazar, Jaisalmer - RSPCB",18-08-2024 23:00:00,26.912329,70.909168,NH3,3,6,4
India,Rajasthan,Jalore,"Mudtra Sili, Jalore - RSPCB",18-08-2024 23:00:00,25.344694,72.626208,PM2.5,7,89,28
India,Rajasthan,Jhalawar,"Rajlaxmi Nagar, Jhalawar - RSPCB",18-08-2024 23:00:00,24.588397,76.172782,PM2.5,NA,NA,NA
India,Rajasthan,Jhalawar,"Rajlaxmi Nagar, Jhalawar - RSPCB",18-08-2024 23:00:00,24.588397,76.172782,NH3,NA,NA,NA
India,Rajasthan,Jhunjhunu,"Indra Nagar, Jhunjhunu - RSPCB",18-08-2024 23:00:00,28.108988,75.386577,OZONE,7,48,36
India,Rajasthan,Jodhpur,"Collectorate, Jodhpur - RSPCB",18-08-2024 23:00:00,26.268249,73.0193853,PM2.5,13,41,26
India,Rajasthan,Jodhpur,"Collectorate, Jodhpur - RSPCB",18-08-2024 23:00:00,26.268249,73.0193853,PM10,22,156,55
India,Rajasthan,Jodhpur,"Digari Kalan, Jodhpur - RSPCB",18-08-2024 23:00:00,26.295810,73.082283,NO2,3,28,10
India,Rajasthan,Jodhpur,"Digari Kalan, Jodhpur - RSPCB",18-08-2024 23:00:00,26.295810,73.082283,NH3,9,15,11
India,Rajasthan,Jodhpur,"Digari Kalan, Jodhpur - RSPCB",18-08-2024 23:00:00,26.295810,73.082283,OZONE,1,3,2
India,Rajasthan,Jodhpur,"Samrat Ashok Udhyan, Jodhpur - RSPCB",18-08-2024 23:00:00,26.253384,72.976571,PM2.5,8,64,28
India,Rajasthan,Jodhpur,"Samrat Ashok Udhyan, Jodhpur - RSPCB",18-08-2024 23:00:00,26.253384,72.976571,SO2,5,6,5
India,Rajasthan,Jodhpur,"Samrat Ashok Udhyan, Jodhpur - RSPCB",18-08-2024 23:00:00,26.253384,72.976571,OZONE,5,29,22
India,Rajasthan,Karauli,"Satyawati Vihar, Karauli - RSPCB",18-08-2024 23:00:00,26.506177,77.025989,NO2,16,47,26
India,Rajasthan,Karauli,"Satyawati Vihar, Karauli - RSPCB",18-08-2024 23:00:00,26.506177,77.025989,NH3,6,7,6
India,Rajasthan,Karauli,"Satyawati Vihar, Karauli - RSPCB",18-08-2024 23:00:00,26.506177,77.025989,OZONE,13,39,33
India,Rajasthan,Kota,"Dhanmandi, Kota - RSPCB",18-08-2024 23:00:00,25.164090,75.858137,NO2,21,65,35
India,Rajasthan,Kota,"Dhanmandi, Kota - RSPCB",18-08-2024 23:00:00,25.164090,75.858137,CO,2,146,129
India,Rajasthan,Kota,"Dhanmandi, Kota - RSPCB",18-08-2024 23:00:00,25.164090,75.858137,OZONE,6,48,25
India,Rajasthan,Kota,"Nayapura, Kota - RSPCB",18-08-2024 23:00:00,25.196024,75.855668,NH3,8,11,9
India,Rajasthan,Kota,"Nayapura, Kota - RSPCB",18-08-2024 23:00:00,25.196024,75.855668,SO2,4,6,5
India,Rajasthan,Kota,"Nayapura, Kota - RSPCB",18-08-2024 23:00:00,25.196024,75.855668,OZONE,20,34,31
India,Rajasthan,Kota,"Shrinath Puram, Kota - RSPCB",18-08-2024 23:00:00,25.14389,75.821256,NO2,14,43,23
India,Rajasthan,Nagaur,"Karni Colony, Nagaur - RSPCB",18-08-2024 23:00:00,27.213494,73.734444,SO2,2,7,4
India,Rajasthan,Nagaur,"Karni Colony, Nagaur - RSPCB",18-08-2024 23:00:00,27.213494,73.734444,CO,18,41,32
India,Rajasthan,Nagaur,"Karni Colony, Nagaur - RSPCB",18-08-2024 23:00:00,27.213494,73.734444,OZONE,20,57,42
India,Rajasthan,Sawai Madhopur,"Sahu Nagar, Sawai Madhopur - RSPCB",18-08-2024 23:00:00,26.031443,76.359327,PM2.5,27,45,32
India,Rajasthan,Sawai Madhopur,"Sahu Nagar, Sawai Madhopur - RSPCB",18-08-2024 23:00:00,26.031443,76.359327,OZONE,16,53,29
India,Rajasthan,Sikar,"Radhakishan Pura, Sikar - RSPCB",18-08-2024 23:00:00,27.608912,75.153302,NH3,1,3,2
India,Rajasthan,Sirohi,"Vedhaynath Colony, Sirohi - RSPCB",18-08-2024 23:00:00,24.885261,72.857549,PM10,23,68,38
India,Rajasthan,Sirohi,"Vedhaynath Colony, Sirohi - RSPCB",18-08-2024 23:00:00,24.885261,72.857549,NO2,6,29,11
India,Rajasthan,Sirohi,"Vedhaynath Colony, Sirohi - RSPCB",18-08-2024 23:00:00,24.885261,72.857549,NH3,1,3,2
India,Rajasthan,Sri Ganganagar,"Old City, Sri Ganganagar - RSPCB",18-08-2024 23:00:00,29.931624,73.864511,NO2,3,29,12
India,Rajasthan,Sri Ganganagar,"Old City, Sri Ganganagar - RSPCB",18-08-2024 23:00:00,29.931624,73.864511,SO2,1,8,3
India,Rajasthan,Sri Ganganagar,"Old City, Sri Ganganagar - RSPCB",18-08-2024 23:00:00,29.931624,73.864511,OZONE,26,38,31
India,Rajasthan,Tonk,"Shastri Nagar, Tonk - RSPCB",18-08-2024 23:00:00,26.159933,75.780517,SO2,3,7,4
India,Rajasthan,Udaipur,"Ashok Nagar, Udaipur - RSPCB",18-08-2024 23:00:00,24.5886166,73.6321397,SO2,2,17,8
India,Sikkim,Gangtok,"Zero Point GICI, Gangtok - SSPCB",18-08-2024 23:00:00,27.338530,88.614099,NH3,1,1,1
India,TamilNadu,Ariyalur,"Keelapalur, Ariyalur - TNPCB",18-08-2024 23:00:00,11.06825,79.07033,NH3,2,3,2
India,TamilNadu,Chennai,"Alandur Bus Depot, Chennai - CPCB",18-08-2024 23:00:00,12.9099161,80.1076538,CO,59,64,62
India,TamilNadu,Chennai,"Arumbakkam, Chennai - TNPCB",18-08-2024 23:00:00,13.0664,80.2112 ,PM2.5,2,60,21
India,TamilNadu,Chennai,"Kodungaiyur, Chennai - TNPCB",18-08-2024 23:00:00,13.1278,80.2642,PM2.5,5,18,9
India,TamilNadu,Chennai,"Kodungaiyur, Chennai - TNPCB",18-08-2024 23:00:00,13.1278,80.2642,PM10,12,57,33
India,TamilNadu,Chennai,"Kodungaiyur, Chennai - TNPCB",18-08-2024 23:00:00,13.1278,80.2642,NO2,8,18,12
India,TamilNadu,Chennai,"Kodungaiyur, Chennai - TNPCB",18-08-2024 23:00:00,13.1278,80.2642,SO2,1,25,6
India,TamilNadu,Chennai,"Manali Village, Chennai - TNPCB",18-08-2024 23:00:00,13.1662,80.2584,OZONE,38,57,42
India,TamilNadu,Chennai,"Manali, Chennai - CPCB",18-08-2024 23:00:00,13.164544,80.26285,PM2.5,11,38,24
India,TamilNadu,Chennai,"Manali, Chennai - CPCB",18-08-2024 23:00:00,13.164544,80.26285,NH3,3,7,5
India,TamilNadu,Gummidipoondi,"Anthoni Pillai Nagar, Gummidipoondi - TNPCB",18-08-2024 23:00:00,13.4127,80.1081,NO2,6,20,11
India,TamilNadu,Ooty,"Bombay Castel, Ooty - TNPCB",18-08-2024 23:00:00,11.4068288,76.7138973,PM10,6,135,38
India,TamilNadu,Ooty,"Bombay Castel, Ooty - TNPCB",18-08-2024 23:00:00,11.4068288,76.7138973,CO,23,24,24
India,TamilNadu,Ooty,"Bombay Castel, Ooty - TNPCB",18-08-2024 23:00:00,11.4068288,76.7138973,OZONE,5,6,5
India,TamilNadu,Tirunelveli,"Municipal Corporation Office, Tirunelveli - TNPCB",18-08-2024 23:00:00,8.728442,77.6962,OZONE,6,7,6
India,Telangana,Hyderabad,"Bollaram Industrial Area, Hyderabad - TSPCB",18-08-2024 23:00:00,17.540891,78.358528,PM2.5,17,77,43
India,Telangana,Hyderabad,"Bollaram Industrial Area, Hyderabad - TSPCB",18-08-2024 23:00:00,17.540891,78.358528,CO,20,82,37
India,Telangana,Hyderabad,"Central University, Hyderabad - TSPCB",18-08-2024 23:00:00,17.460103,78.334361,OZONE,2,4,3
India,Telangana,Hyderabad,"ECIL Kapra, Hyderabad - TSPCB",18-08-2024 23:00:00,17.470431,78.566959,NH3,6,10,8
India,Telangana,Hyderabad,"ECIL Kapra, Hyderabad - TSPCB",18-08-2024 23:00:00,17.470431,78.566959,OZONE,25,42,35
India,Telangana,Hyderabad,"ICRISAT Patancheru, Hyderabad - TSPCB",18-08-2024 23:00:00,17.518400,78.278777,SO2,15,41,24
India,Telangana,Hyderabad,"IITH Kandi, Hyderabad - TSPCB",18-08-2024 23:00:00,17.585705,78.126199,PM2.5,NA,NA,NA
India,Telangana,Hyderabad,"IITH Kandi, Hyderabad - TSPCB",18-08-2024 23:00:00,17.585705,78.126199,PM10,NA,NA,NA
India,Telangana,Hyderabad,"IITH Kandi, Hyderabad - TSPCB",18-08-2024 23:00:00,17.585705,78.126199,NO2,NA,NA,NA
India,Telangana,Hyderabad,"Kokapet, Hyderabad - TSPCB",18-08-2024 23:00:00,17.393559,78.339194,SO2,8,16,12
India,Telangana,Hyderabad,"Kompally Municipal Office, Hyderabad - TSPCB",18-08-2024 23:00:00,17.544899,78.486949,NO2,7,8,7
India,Telangana,Hyderabad,"Kompally Municipal Office, Hyderabad - TSPCB",18-08-2024 23:00:00,17.544899,78.486949,NH3,4,5,4
India,Telangana,Hyderabad,"Nacharam_TSIIC IALA, Hyderabad - TSPCB",18-08-2024 23:00:00,17.429398,78.569354,CO,30,38,37
India,Telangana,Hyderabad,"New Malakpet, Hyderabad - TSPCB",18-08-2024 23:00:00,17.37206,78.50864,PM2.5,32,56,38
India,Telangana,Hyderabad,"New Malakpet, Hyderabad - TSPCB",18-08-2024 23:00:00,17.37206,78.50864,NO2,4,14,10
India,Telangana,Hyderabad,"Sanathnagar, Hyderabad - TSPCB",18-08-2024 23:00:00,17.4559458,78.4332152,NO2,28,32,30
India,Telangana,Hyderabad,"Sanathnagar, Hyderabad - TSPCB",18-08-2024 23:00:00,17.4559458,78.4332152,SO2,5,7,6
India,Telangana,Hyderabad,"Sanathnagar, Hyderabad - TSPCB",18-08-2024 23:00:00,17.4559458,78.4332152,CO,30,42,39
India,Telangana,Hyderabad,"Somajiguda, Hyderabad - TSPCB",18-08-2024 23:00:00,17.417094,78.457437,CO,NA,NA,NA
India,Tripura,Agartala,"Bardowali, Agartala - Tripura SPCB",18-08-2024 23:00:00,23.8175497,91.2726974,NH3,5,6,6
India,Uttar_Pradesh,Agra,"Manoharpur, Agra - UPPCB",18-08-2024 23:00:00,27.23711,78.01936,OZONE,1,3,2
India,Uttar_Pradesh,Agra,"Rohta, Agra - UPPCB",18-08-2024 23:00:00,27.106972,78.000111,PM2.5,14,37,22
India,Uttar_Pradesh,Agra,"Rohta, Agra - UPPCB",18-08-2024 23:00:00,27.106972,78.000111,NH3,2,2,2
India,Uttar_Pradesh,Agra,"Shahjahan Garden, Agra - UPPCB",18-08-2024 23:00:00,27.169338,78.03582,CO,14,20,18
India,Uttar_Pradesh,Agra,"Shastripuram, Agra - UPPCB",18-08-2024 23:00:00,27.19862,77.92066,PM10,4,56,31
India,Uttar_Pradesh,Agra,"Shastripuram, Agra - UPPCB",18-08-2024 23:00:00,27.19862,77.92066,NO2,18,65,23
India,Uttar_Pradesh,Baghpat,"Sardar Patel Inter College, Baghpat - UPPCB",18-08-2024 23:00:00,28.964949,77.278761,NH3,1,1,1
India,Uttar_Pradesh,Bareilly,"Civil Lines, Bareilly - UPPCB",18-08-2024 23:00:00,28.359581,79.414455,NO2,2,3,2
India,Uttar_Pradesh,Bareilly,"Civil Lines, Bareilly - UPPCB",18-08-2024 23:00:00,28.359581,79.414455,CO,14,36,26
India,Uttar_Pradesh,Firozabad,"Nagla Bhau, Firozabad - UPPCB",18-08-2024 23:00:00,27.168897,78.376960,PM10,21,103,54
India,Uttar_Pradesh,Firozabad,"Nagla Bhau, Firozabad - UPPCB",18-08-2024 23:00:00,27.168897,78.376960,NO2,17,17,17
India,Uttar_Pradesh,Firozabad,"Nagla Bhau, Firozabad - UPPCB",18-08-2024 23:00:00,27.168897,78.376960,SO2,22,29,25
India,Uttar_Pradesh,Firozabad,"Vibhab Nagar, Firozabad - UPPCB",18-08-2024 23:00:00,27.1594,78.3953,NH3,2,2,2
India,Uttar_Pradesh,Firozabad,"Vibhab Nagar, Firozabad - UPPCB",18-08-2024 23:00:00,27.1594,78.3953,OZONE,11,14,11
India,Uttar_Pradesh,Ghaziabad,"Indirapuram, Ghaziabad - UPPCB",18-08-2024 23:00:00,28.646233,77.358075,NO2,24,51,34
India,Uttar_Pradesh,Ghaziabad,"Indirapuram, Ghaziabad - UPPCB",18-08-2024 23:00:00,28.646233,77.358075,OZONE,7,31,19
India,Uttar_Pradesh,Ghaziabad,"Loni, Ghaziabad - UPPCB",18-08-2024 23:00:00,28.757294,77.278792,NO2,10,53,25
India,Uttar_Pradesh,Ghaziabad,"Loni, Ghaziabad - UPPCB",18-08-2024 23:00:00,28.757294,77.278792,SO2,1,5,3
India,Uttar_Pradesh,Ghaziabad,"Sanjay Nagar, Ghaziabad - UPPCB",18-08-2024 23:00:00,28.685382,77.453839,SO2,8,20,15
India,Uttar_Pradesh,Gorakhpur,"Madan Mohan Malaviya University of Technology, Gorakhpur - UPPCB",18-08-2024 23:00:00,26.730136,83.433859,PM10,13,76,42
India,Uttar_Pradesh,Greater Noida,"Knowledge Park - V, Greater Noida - UPPCB",18-08-2024 23:00:00,28.557054,77.453663,PM2.5,35,134,63
India,Uttar_Pradesh,Greater Noida,"Knowledge Park - V, Greater Noida - UPPCB",18-08-2024 23:00:00,28.557054,77.453663,SO2,7,15,10
India,Uttar_Pradesh,Jhansi,"Shivaji Nagar, Jhansi - UPPCB",18-08-2024 23:00:00,25.4547,78.6039,PM2.5,56,177,72
India,Uttar_Pradesh,Kanpur,"FTI Kidwai Nagar, Kanpur - UPPCB",18-08-2024 23:00:00,26.428282,80.327067,PM10,NA,NA,NA
India,Uttar_Pradesh,Kanpur,"FTI Kidwai Nagar, Kanpur - UPPCB",18-08-2024 23:00:00,26.428282,80.327067,NH3,2,2,2
India,Uttar_Pradesh,Kanpur,"FTI Kidwai Nagar, Kanpur - UPPCB",18-08-2024 23:00:00,26.428282,80.327067,SO2,19,20,20
India,Uttar_Pradesh,Kanpur,"NSI Kalyanpur, Kanpur - UPPCB",18-08-2024 23:00:00,26.509954,80.249612,PM2.5,15,46,30
India,Uttar_Pradesh,Kanpur,"Nehru Nagar, Kanpur - UPPCB",18-08-2024 23:00:00,26.4703136,80.3229863,SO2,2,10,7
India,Uttar_Pradesh,Kanpur,"Nehru Nagar, Kanpur - UPPCB",18-08-2024 23:00:00,26.4703136,80.3229863,CO,16,68,49
India,Uttar_Pradesh,Lucknow,"B R Ambedkar University, Lucknow - UPPCB",18-08-2024 23:00:00,26.766433,80.927299,OZONE,28,66,37
India,Uttar_Pradesh,Lucknow,"Kendriya Vidyalaya, Lucknow - CPCB",18-08-2024 23:00:00,26.906111,80.948222,NO2,8,23,15
India,Uttar_Pradesh,Lucknow,"Kukrail Picnic Spot-1, Lucknow - UPPCB",18-08-2024 23:00:00,26.90723,80.98579,PM10,12,37,26
India,Uttar_Pradesh,Lucknow,"Lalbagh, Lucknow - CPCB",18-08-2024 23:00:00,26.8458805,80.9365541,PM10,25,186,64
India,Uttar_Pradesh,Lucknow,"Lalbagh, Lucknow - CPCB",18-08-2024 23:00:00,26.8458805,80.9365541,NH3,10,21,16
India,Uttar_Pradesh,Lucknow,"Talkatora District Industries Center, Lucknow - CPCB",18-08-2024 23:00:00,26.83399722,80.8917361,SO2,8,11,10
India,Uttar_Pradesh,Meerut,"Ganga Nagar, Meerut - UPPCB",18-08-2024 23:00:00,28.999264,77.7590354,SO2,5,14,8
India,Uttar_Pradesh,Meerut,"Jai Bhim Nagar, Meerut - UPPCB",18-08-2024 23:00:00,28.9535882,77.7622941,PM2.5,34,85,53
India,Uttar_Pradesh,Meerut,"Pallavpuram Phase 2, Meerut - UPPCB",18-08-2024 23:00:00,29.063510,77.709723,NO2,16,41,26
India,Uttar_Pradesh,Meerut,"Pallavpuram Phase 2, Meerut - UPPCB",18-08-2024 23:00:00,29.063510,77.709723,NH3,6,10,7
India,Uttar_Pradesh,Moradabad,"Buddhi Vihar, Moradabad - UPPCB",18-08-2024 23:00:00,28.83526,78.74460,CO,22,29,24
India,Uttar_Pradesh,Moradabad,"Buddhi Vihar, Moradabad - UPPCB",18-08-2024 23:00:00,28.83526,78.74460,OZONE,7,11,9
India,Uttar_Pradesh,Moradabad,"Eco Herbal Park, Moradabad - UPPCB",18-08-2024 23:00:00,28.840739,78.697531,CO,1,74,17
India,Uttar_Pradesh,Moradabad,"Jigar Colony, Moradabad - UPPCB",18-08-2024 23:00:00,28.856664,78.772638,PM2.5,29,47,37
India,Uttar_Pradesh,Moradabad,"Jigar Colony, Moradabad - UPPCB",18-08-2024 23:00:00,28.856664,78.772638,NH3,4,6,4
India,Uttar_Pradesh,Moradabad,"Kashiram Nagar, Moradabad - UPPCB",18-08-2024 23:00:00,28.849399,78.742362,PM2.5,22,64,45
India,Uttar_Pradesh,Moradabad,"Kashiram Nagar, Moradabad - UPPCB",18-08-2024 23:00:00,28.849399,78.742362,PM10,22,58,45
India,Uttar_Pradesh,Moradabad,"Kashiram Nagar, Moradabad - UPPCB",18-08-2024 23:00:00,28.849399,78.742362,NO2,15,15,15
India,Uttar_Pradesh,Moradabad,"Kashiram Nagar, Moradabad - UPPCB",18-08-2024 23:00:00,28.849399,78.742362,CO,17,26,20
India,Uttar_Pradesh,Muzaffarnagar,"New Mandi, Muzaffarnagar - UPPCB",18-08-2024 23:00:00,29.4723508,77.7194031,PM2.5,29,93,63
India,Uttar_Pradesh,Muzaffarnagar,"New Mandi, Muzaffarnagar - UPPCB",18-08-2024 23:00:00,29.4723508,77.7194031,PM10,42,74,61
India,Uttar_Pradesh,Muzaffarnagar,"New Mandi, Muzaffarnagar - UPPCB",18-08-2024 23:00:00,29.4723508,77.7194031,NH3,8,9,8
India,Uttar_Pradesh,Noida,"Sector - 125, Noida - UPPCB",18-08-2024 23:00:00,28.5447608,77.3231257,PM2.5,34,94,54
India,Uttar_Pradesh,Noida,"Sector - 125, Noida - UPPCB",18-08-2024 23:00:00,28.5447608,77.3231257,PM10,44,164,98
India,Uttar_Pradesh,Noida,"Sector - 125, Noida - UPPCB",18-08-2024 23:00:00,28.5447608,77.3231257,NH3,4,8,6
India,Uttar_Pradesh,Noida,"Sector - 125, Noida - UPPCB",18-08-2024 23:00:00,28.5447608,77.3231257,CO,19,81,37
India,Uttar_Pradesh,Noida,"Sector - 62, Noida - IMD",18-08-2024 23:00:00,28.6245479,77.3577104,OZONE,16,59,38
India,Uttar_Pradesh,Noida,"Sector-1, Noida - UPPCB",18-08-2024 23:00:00,28.5898,77.3101,OZONE,3,32,15
India,Uttar_Pradesh,Prayagraj,"Jhunsi, Prayagraj - UPPCB",18-08-2024 23:00:00,25.425602,81.917152,CO,6,19,13
India,Uttar_Pradesh,Prayagraj,"Motilal Nehru NIT, Prayagraj - UPPCB",18-08-2024 23:00:00,25.494,81.863,PM10,4,34,11
India,Uttar_Pradesh,Prayagraj,"Nagar Nigam, Prayagraj - UPPCB",18-08-2024 23:00:00,25.44919916 ,81.82735986 ,PM2.5,16,67,34
India,Uttar_Pradesh,Prayagraj,"Nagar Nigam, Prayagraj - UPPCB",18-08-2024 23:00:00,25.44919916 ,81.82735986 ,NH3,4,7,4
India,Uttar_Pradesh,Varanasi,"Bhelupur, Varanasi - UPPCB",18-08-2024 23:00:00,25.301778,82.996789,PM10,18,98,49
India,Uttar_Pradesh,Varanasi,"Bhelupur, Varanasi - UPPCB",18-08-2024 23:00:00,25.301778,82.996789,CO,8,20,16
India,Uttar_Pradesh,Varanasi,"IESD Banaras Hindu University, Varanasi - UPPCB",18-08-2024 23:00:00,25.262326,82.995408,PM2.5,4,45,21
India,Uttar_Pradesh,Varanasi,"IESD Banaras Hindu University, Varanasi - UPPCB",18-08-2024 23:00:00,25.262326,82.995408,PM10,8,72,28
India,Uttar_Pradesh,Varanasi,"Maldahiya, Varanasi - UPPCB",18-08-2024 23:00:00,25.32393,82.99687,NH3,NA,NA,NA
India,Uttar_Pradesh,Vrindavan,"Omex Eternity, Vrindavan - UPPCB",18-08-2024 23:00:00,27.5714090,77.6557570,PM2.5,10,55,17
India,Uttar_Pradesh,Vrindavan,"Omex Eternity, Vrindavan - UPPCB",18-08-2024 23:00:00,27.5714090,77.6557570,NO2,12,12,12
India,Uttarakhand,Dehradun,"Doon University, Dehradun - UKPCB",18-08-2024 23:00:00,30.269444,78.044167,PM10,NA,NA,NA
India,Uttarakhand,Kashipur,"Govt. Girls Inter College, Kashipur - UKPCB",18-08-2024 23:00:00,29.2124114,78.9611753,PM2.5,43,118,75
India,Uttarakhand,Kashipur,"Govt. Girls Inter College, Kashipur - UKPCB",18-08-2024 23:00:00,29.2124114,78.9611753,PM10,38,92,69
India,Uttarakhand,Kashipur,"Govt. Girls Inter College, Kashipur - UKPCB",18-08-2024 23:00:00,29.2124114,78.9611753,SO2,6,8,7
India,Uttarakhand,Kashipur,"Govt. Girls Inter College, Kashipur - UKPCB",18-08-2024 23:00:00,29.2124114,78.9611753,CO,18,41,34
India,Uttarakhand,Kashipur,"Govt. Girls Inter College, Kashipur - UKPCB",18-08-2024 23:00:00,29.2124114,78.9611753,OZONE,2,14,4
India,Uttarakhand,Rishikesh,"Shivaji Nagar, Rishikesh - UKPCB",18-08-2024 23:00:00,30.075911,78.2859547,PM2.5,18,55,38
India,West_Bengal,Asansol,"Asansol Court Area, Asansol - WBPCB",18-08-2024 23:00:00,23.685297,86.945968,NO2,25,39,30
India,West_Bengal,Asansol,"Asansol Court Area, Asansol - WBPCB",18-08-2024 23:00:00,23.685297,86.945968,OZONE,11,40,28
India,West_Bengal,Asansol,"Evelyn Lodge, Asansol - WBPCB",18-08-2024 23:00:00,23.6979360,86.9443950,NO2,21,37,28
India,West_Bengal,Asansol,"Evelyn Lodge, Asansol - WBPCB",18-08-2024 23:00:00,23.6979360,86.9443950,OZONE,15,24,16
India,West_Bengal,Asansol,"Trivenidevi Bhalotia College, Asansol - WBPCB",18-08-2024 23:00:00,23.616515,87.119133,NH3,1,2,2
India,West_Bengal,Durgapur,"Sidhu Kanhu Indoor Stadium, Durgapur - WBPCB",18-08-2024 23:00:00,23.5404352,87.2892225,PM10,32,157,60
India,West_Bengal,Howrah,"Botanical Garden, Howrah - WBPCB",18-08-2024 23:00:00,22.554954,88.292568,NH3,1,2,2
India,West_Bengal,Howrah,"Botanical Garden, Howrah - WBPCB",18-08-2024 23:00:00,22.554954,88.292568,SO2,5,6,5
India,West_Bengal,Howrah,"Ghusuri, Howrah - WBPCB",18-08-2024 23:00:00,22.611968,88.347422,PM10,40,77,59
India,West_Bengal,Kolkata,"Ballygunge, Kolkata - WBPCB",18-08-2024 23:00:00,22.5367507,88.3638022,NH3,10,15,12
India,West_Bengal,Kolkata,"Bidhannagar, Kolkata - WBPCB",18-08-2024 23:00:00,22.58157048,88.41002457,SO2,14,19,17
India,West_Bengal,Kolkata,"Jadavpur, Kolkata - WBPCB",18-08-2024 23:00:00,22.49929,88.36917,PM10,NA,NA,NA
India,West_Bengal,Kolkata,"Jadavpur, Kolkata - WBPCB",18-08-2024 23:00:00,22.49929,88.36917,OZONE,11,15,12
India,West_Bengal,Kolkata,"Rabindra Sarobar, Kolkata - WBPCB",18-08-2024 23:00:00,22.51106,88.35142,PM2.5,26,44,33
India,West_Bengal,Kolkata,"Rabindra Sarobar, Kolkata - WBPCB",18-08-2024 23:00:00,22.51106,88.35142,CO,8,42,29
India,West_Bengal,Kolkata,"Victoria, Kolkata - WBPCB",18-08-2024 23:00:00,22.5448082,88.3403691,PM10,32,56,41
India,West_Bengal,Kolkata,"Victoria, Kolkata - WBPCB",18-08-2024 23:00:00,22.5448082,88.3403691,NO2,19,21,20
India,West_Bengal,Kolkata,"Victoria, Kolkata - WBPCB",18-08-2024 23:00:00,22.5448082,88.3403691,CO,24,64,33
India,West_Bengal,Siliguri,"Ward-32 Bapupara, Siliguri - WBPCB",18-08-2024 23:00:00,26.6879226,88.4152495,OZONE,12,15,13
India,Andhra_Pradesh,Amaravati,"Secretariat, Amaravati - APPCB",18-08-2024 23:00:00,16.5150833,80.5181667,NH3,1,2,1
India,Andhra_Pradesh,Anantapur,"Gulzarpet, Anantapur - APPCB",18-08-2024 23:00:00,14.675886,77.593027,PM10,22,81,45
India,Andhra_Pradesh,Anantapur,"Gulzarpet, Anantapur - APPCB",18-08-2024 23:00:00,14.675886,77.593027,NO2,16,16,16
India,Andhra_Pradesh,Rajamahendravaram,"Anand Kala Kshetram, Rajamahendravaram - APPCB",18-08-2024 23:00:00,16.9872867,81.7363176,PM2.5,4,23,11
India,Andhra_Pradesh,Rajamahendravaram,"Anand Kala Kshetram, Rajamahendravaram - APPCB",18-08-2024 23:00:00,16.9872867,81.7363176,NO2,5,32,14
India,Andhra_Pradesh,Rajamahendravaram,"Anand Kala Kshetram, Rajamahendravaram - APPCB",18-08-2024 23:00:00,16.9872867,81.7363176,NH3,1,4,3
India,Andhra_Pradesh,Rajamahendravaram,"Anand Kala Kshetram, Rajamahendravaram - APPCB",18-08-2024 23:00:00,16.9872867,81.7363176,OZONE,13,39,17
India,Andhra_Pradesh,Tirupati,"Tirumala, Tirupati - APPCB",18-08-2024 23:00:00,13.67,79.35,NO2,15,34,25
India,Andhra_Pradesh,Tirupati,"Vaikuntapuram, Tirupati - APPCB",18-08-2024 23:00:00,13.615387,79.409230,CO,15,25,20
India,Andhra_Pradesh,Vijayawada,"HB Colony, Vijayawada - APPCB",18-08-2024 23:00:00,16.536107,80.594233,PM10,40,58,45
India,Andhra_Pradesh,Vijayawada,"Kanuru, Vijayawada - APPCB",18-08-2024 23:00:00,16.486692,80.699436,PM2.5,28,37,32
India,Andhra_Pradesh,Vijayawada,"Rajiv Gandhi Park, Vijayawada - APPCB",18-08-2024 23:00:00,16.509717,80.612222,NO2,22,37,29
India,Andhra_Pradesh,Vijayawada,"Rajiv Gandhi Park, Vijayawada - APPCB",18-08-2024 23:00:00,16.509717,80.612222,CO,39,39,39
India,Andhra_Pradesh,Vijayawada,"Rajiv Nagar, Vijayawada - APPCB",18-08-2024 23:00:00,16.554731,80.649110,PM2.5,37,51,45
India,Andhra_Pradesh,Vijayawada,"Rajiv Nagar, Vijayawada - APPCB",18-08-2024 23:00:00,16.554731,80.649110,CO,14,14,14
India,Andhra_Pradesh,Vijayawada,"Rajiv Nagar, Vijayawada - APPCB",18-08-2024 23:00:00,16.554731,80.649110,OZONE,15,31,18
India,Andhra_Pradesh,Visakhapatnam,"GVM Corporation, Visakhapatnam - APPCB",18-08-2024 23:00:00,17.72,83.3,NO2,32,62,42
India,Andhra_Pradesh,Visakhapatnam,"GVM Corporation, Visakhapatnam - APPCB",18-08-2024 23:00:00,17.72,83.3,NH3,2,4,3
India,Assam,Byrnihat,"Central Academy for SFS, Byrnihat - PCBA",18-08-2024 23:00:00,26.071318,91.87488,PM2.5,52,56,53
India,Assam,Byrnihat,"Central Academy for SFS, Byrnihat - PCBA",18-08-2024 23:00:00,26.071318,91.87488,OZONE,22,25,23
India,Assam,Guwahati,"LGBI Airport, Guwahati - PCBA",18-08-2024 23:00:00,26.10887,91.589544,NH3,1,4,2
India,Assam,Nagaon,"Christianpatty, Nagaon - PCBA",18-08-2024 23:00:00,26.349082,92.68449,PM2.5,17,21,18
India,Assam,Nagaon,"Christianpatty, Nagaon - PCBA",18-08-2024 23:00:00,26.349082,92.68449,CO,40,61,50
India,Assam,Nalbari,"Bata Chowk, Nalbari - PCBA",18-08-2024 23:00:00,26.446912,91.439057,NO2,8,22,15
India,Assam,Silchar,"Tarapur, Silchar - PCBA",18-08-2024 23:00:00,24.82827,92.79525,NH3,1,1,1
India,Assam,Silchar,"Tarapur, Silchar - PCBA",18-08-2024 23:00:00,24.82827,92.79525,CO,18,44,21
India,Assam,Sivasagar,"Girls College, Sivasagar - PCBA",18-08-2024 23:00:00,26.987634,94.636574,NO2,NA,NA,NA
India,Assam,Sivasagar,"Girls College, Sivasagar - PCBA",18-08-2024 23:00:00,26.987634,94.636574,NH3,NA,NA,NA
India,Assam,Sivasagar,"Girls College, Sivasagar - PCBA",18-08-2024 23:00:00,26.987634,94.636574,OZONE,1,10,4
India,Bihar,Araria,"Kharahiya Basti, Araria - BSPCB",18-08-2024 23:00:00,26.146529,87.454184,SO2,10,18,14
India,Bihar,Arrah,"New DM Office, Arrah - BSPCB",18-08-2024 23:00:00,25.5626095,84.663264,PM2.5,NA,NA,NA
India,Bihar,Arrah,"New DM Office, Arrah - BSPCB",18-08-2024 23:00:00,25.5626095,84.663264,NH3,1,3,2
India,Bihar,Arrah,"New DM Office, Arrah - BSPCB",18-08-2024 23:00:00,25.5626095,84.663264,SO2,3,10,7
India,Bihar,Arrah,"New DM Office, Arrah - BSPCB",18-08-2024 23:00:00,25.5626095,84.663264,OZONE,8,27,12
India,Bihar,Aurangabad,"Gurdeo Nagar, Aurangabad - BSPCB",18-08-2024 23:00:00,24.75746,84.366208,NO2,11,11,11
India,Bihar,Begusarai,"Lohiyanagar, Begusarai - BSPCB (Formerly known as DRCC Anandpur)",18-08-2024 23:00:00,25.42742023,86.13886079,PM2.5,20,55,27
India,Bihar,Begusarai,"Lohiyanagar, Begusarai - BSPCB (Formerly known as DRCC Anandpur)",18-08-2024 23:00:00,25.42742023,86.13886079,NH3,12,12,12
India,Bihar,Bhagalpur,"DM Office_Kachari Chowk, Bhagalpur - BSPCB",18-08-2024 23:00:00,25.251013,86.989001,PM2.5,3,30,10
India,Bihar,Bhagalpur,"DM Office_Kachari Chowk, Bhagalpur - BSPCB",18-08-2024 23:00:00,25.251013,86.989001,NO2,12,33,25
India,Bihar,Bhagalpur,"DM Office_Kachari Chowk, Bhagalpur - BSPCB",18-08-2024 23:00:00,25.251013,86.989001,CO,26,84,46
India,Bihar,Bhagalpur,"DM Office_Kachari Chowk, Bhagalpur - BSPCB",18-08-2024 23:00:00,25.251013,86.989001,OZONE,41,51,47
India,Bihar,Bhagalpur,"Mayaganj, Bhagalpur - BSPCB",18-08-2024 23:00:00,25.265194,87.012947,NO2,9,14,10
India,Bihar,Bihar Sharif,"D M Colony, Bihar Sharif - BSPCB",18-08-2024 23:00:00,25.204762,85.514960,PM2.5,NA,NA,NA
India,Bihar,Gaya,"Collectorate, Gaya - BSPCB",18-08-2024 23:00:00,24.7955,84.9994,OZONE,19,21,20
India,Bihar,Gaya,"Kareemganj, Gaya - BSPCB",18-08-2024 23:00:00,24.792403,84.992416,OZONE,16,83,28
India,Bihar,Gaya,"SFTI Kusdihra, Gaya - BSPCB",18-08-2024 23:00:00,24.762518,84.982348,NO2,7,17,10
India,Bihar,Gaya,"SFTI Kusdihra, Gaya - BSPCB",18-08-2024 23:00:00,24.762518,84.982348,NH3,2,5,4
India,Bihar,Hajipur,"Industrial Area, Hajipur - BSPCB",18-08-2024 23:00:00,25.697189,85.245900,PM2.5,22,126,51
India,Bihar,Hajipur,"Industrial Area, Hajipur - BSPCB",18-08-2024 23:00:00,25.697189,85.245900,PM10,29,129,65
India,Bihar,Katihar,"Mirchaibari, Katihar - BSPCB",18-08-2024 23:00:00,25.560083,87.553265,NO2,9,9,9
India,Bihar,Kishanganj,"SDM Office_Khagra, Kishanganj - BSPCB",18-08-2024 23:00:00,26.0881305,87.93840336,PM10,NA,NA,NA
India,Bihar,Kishanganj,"SDM Office_Khagra, Kishanganj - BSPCB",18-08-2024 23:00:00,26.0881305,87.93840336,NO2,38,40,39
India,Bihar,Manguraha,"Forest Rest House, Manguraha - BSPCB",18-08-2024 23:00:00,27.308328,84.531742,OZONE,1,8,3
India,Bihar,Motihari,"Gandak Colony, Motihari - BSPCB",18-08-2024 23:00:00,26.63086,84.90051,PM10,1,67,15
India,Bihar,Munger,"Town Hall, Munger - BSPCB",18-08-2024 23:00:00,25.376776,86.471523,PM10,1,74,24
India,Bihar,Munger,"Town Hall, Munger - BSPCB",18-08-2024 23:00:00,25.376776,86.471523,CO,4,26,18
India,Bihar,Muzaffarpur,"Buddha Colony, Muzaffarpur - BSPCB",18-08-2024 23:00:00,26.11442,85.39813,OZONE,20,71,45
India,Bihar,Patna,"DRM Office Danapur, Patna - BSPCB",18-08-2024 23:00:00,25.586562,85.043586,PM10,20,90,43
India,Bihar,Patna,"Govt. High School Shikarpur, Patna - BSPCB",18-08-2024 23:00:00,25.592539,85.227158,OZONE,35,38,36
India,Bihar,Patna,"IGSC Planetarium Complex, Patna - BSPCB",18-08-2024 23:00:00,25.610369,85.132568,PM2.5,15,152,50
India,Bihar,Patna,"IGSC Planetarium Complex, Patna - BSPCB",18-08-2024 23:00:00,25.610369,85.132568,OZONE,3,57,27
India,Bihar,Patna,"Muradpur, Patna - BSPCB",18-08-2024 23:00:00,25.619651,85.147382,PM10,26,157,65
India,Bihar,Patna,"Muradpur, Patna - BSPCB",18-08-2024 23:00:00,25.619651,85.147382,OZONE,5,62,33
India,Bihar,Patna,"Rajbansi Nagar, Patna - BSPCB",18-08-2024 23:00:00,25.599486,85.113666,PM2.5,24,99,48
India,Bihar,Patna,"Rajbansi Nagar, Patna - BSPCB",18-08-2024 23:00:00,25.599486,85.113666,PM10,29,118,60
India,Bihar,Patna,"Rajbansi Nagar, Patna - BSPCB",18-08-2024 23:00:00,25.599486,85.113666,SO2,1,16,8
India,Bihar,Patna,"Samanpura, Patna - BSPCB",18-08-2024 23:00:00,25.596727,85.085624,NH3,8,24,13
India,Bihar,Patna,"Samanpura, Patna - BSPCB",18-08-2024 23:00:00,25.596727,85.085624,CO,11,102,54
India,Bihar,Rajgir,"Dangi Tola, Rajgir - BSPCB",18-08-2024 23:00:00,25.03280,85.41948,SO2,4,4,4
India,Bihar,Saharsa,"Police Line, Saharsa - BSPCB",18-08-2024 23:00:00,25.892357,86.590325,PM2.5,NA,NA,NA
India,Bihar,Saharsa,"Police Line, Saharsa - BSPCB",18-08-2024 23:00:00,25.892357,86.590325,NO2,5,8,7
India,Bihar,Samastipur,"DM Office_Kasipur, Samastipur - BSPCB",18-08-2024 23:00:00,25.859655,85.77944,NO2,13,68,28
India,Bihar,Samastipur,"DM Office_Kasipur, Samastipur - BSPCB",18-08-2024 23:00:00,25.859655,85.77944,SO2,4,68,22
India,Bihar,Samastipur,"DM Office_Kasipur, Samastipur - BSPCB",18-08-2024 23:00:00,25.859655,85.77944,CO,91,131,105
India,Bihar,Samastipur,"DM Office_Kasipur, Samastipur - BSPCB",18-08-2024 23:00:00,25.859655,85.77944,OZONE,12,28,16
India,Bihar,Siwan,"Chitragupta Nagar, Siwan - BSPCB",18-08-2024 23:00:00,26.2271665,84.3570427,PM2.5,NA,NA,NA
India,Bihar,Siwan,"Chitragupta Nagar, Siwan - BSPCB",18-08-2024 23:00:00,26.2271665,84.3570427,PM10,NA,NA,NA
India,Bihar,Siwan,"Chitragupta Nagar, Siwan - BSPCB",18-08-2024 23:00:00,26.2271665,84.3570427,NH3,NA,NA,NA
India,Chhattisgarh,Bhilai,"32Bungalows, Bhilai - CECB",18-08-2024 23:00:00,21.194815,81.314770,NO2,6,8,7
India,Chhattisgarh,Bhilai,"32Bungalows, Bhilai - CECB",18-08-2024 23:00:00,21.194815,81.314770,CO,10,24,14
India,Chhattisgarh,Bhilai,"Civic Center, Bhilai - Bhilai Steel Plant",18-08-2024 23:00:00,21.185571,81.343175,SO2,9,12,10
India,Chhattisgarh,Bhilai,"Hathkhoj, Bhilai - CECB",18-08-2024 23:00:00,21.224231,81.408350,PM2.5,33,96,64
India,Chhattisgarh,Chhal,"Nawapara SECL Colony, Chhal - CECB",18-08-2024 23:00:00,22.118125,83.140608,PM2.5,9,46,27
India,Chhattisgarh,Korba,"Rampur, Korba - CECB",18-08-2024 23:00:00,22.368195,82.746431,NH3,1,1,1
India,Chhattisgarh,Korba,"Rampur, Korba - CECB",18-08-2024 23:00:00,22.368195,82.746431,SO2,6,16,10
India,Chhattisgarh,Korba,"Urja Nagar, Korba - CECB",18-08-2024 23:00:00,22.348441,82.549611,PM10,13,25,18
India,Chhattisgarh,Korba,"Urja Nagar, Korba - CECB",18-08-2024 23:00:00,22.348441,82.549611,CO,10,17,12
India,Chhattisgarh,Kunjemura,"OP Jindal School, Kunjemura - CECB",18-08-2024 23:00:00,22.126650,83.483212,PM2.5,4,38,18
India,Chhattisgarh,Kunjemura,"OP Jindal School, Kunjemura - CECB",18-08-2024 23:00:00,22.126650,83.483212,PM10,14,61,36
India,Chhattisgarh,Raipur,"Bhatagaon New ISBT, Raipur - CECB",18-08-2024 23:00:00,21.219665,81.630094,PM2.5,2,69,39
India,Chhattisgarh,Raipur,"Bhatagaon New ISBT, Raipur - CECB",18-08-2024 23:00:00,21.219665,81.630094,NO2,4,4,4
India,Chhattisgarh,Raipur,"Bhatagaon New ISBT, Raipur - CECB",18-08-2024 23:00:00,21.219665,81.630094,SO2,4,7,5
India,Chhattisgarh,Raipur,"Bhatagaon New ISBT, Raipur - CECB",18-08-2024 23:00:00,21.219665,81.630094,CO,17,47,35
India,Chhattisgarh,Raipur,"Krishak Nagar, Raipur - CECB",18-08-2024 23:00:00,21.237755,81.705301,PM2.5,22,57,41
India,Chhattisgarh,Raipur,"Krishak Nagar, Raipur - CECB",18-08-2024 23:00:00,21.237755,81.705301,CO,18,30,26
India,Chhattisgarh,Raipur,"Siltara Phase-II, Raipur - CECB",18-08-2024 23:00:00,21.371751,81.664929,NO2,8,19,10
India,Chhattisgarh,Raipur,"Siltara Phase-II, Raipur - CECB",18-08-2024 23:00:00,21.371751,81.664929,OZONE,3,4,3
India,Delhi,Delhi,"Alipur, Delhi - DPCC",18-08-2024 23:00:00,28.815329,77.153010,NH3,6,12,8
India,Delhi,Delhi,"Alipur, Delhi - DPCC",18-08-2024 23:00:00,28.815329,77.153010,CO,26,45,29
India,Delhi,Delhi,"Anand Vihar, Delhi - DPCC",18-08-2024 23:00:00,28.647622,77.3158090,PM2.5,23,237,99
India,Delhi,Delhi,"Ashok Vihar, Delhi - DPCC",18-08-2024 23:00:00,28.695381,77.181665,NH3,7,13,9
India,Delhi,Delhi,"Aya Nagar, Delhi - IMD",18-08-2024 23:00:00,28.4706914,77.1099364,NO2,5,10,7
India,Delhi,Delhi,"Bawana, Delhi - DPCC",18-08-2024 23:00:00,28.776200,77.051074,PM2.5,29,154,66
India,Delhi,Delhi,"Bawana, Delhi - DPCC",18-08-2024 23:00:00,28.776200,77.051074,CO,74,102,84
India,Delhi,Delhi,"Burari Crossing, Delhi - IMD",18-08-2024 23:00:00,28.7256504,77.2011573,PM10,37,126,75
India,Delhi,Delhi,"Burari Crossing, Delhi - IMD",18-08-2024 23:00:00,28.7256504,77.2011573,OZONE,16,23,21
India,Delhi,Delhi,"DTU, Delhi - CPCB",18-08-2024 23:00:00,28.7500499,77.1112615,SO2,40,46,43
India,Delhi,Delhi,"Dr. Karni Singh Shooting Range, Delhi - DPCC",18-08-2024 23:00:00,28.498571,77.264840,PM2.5,35,84,54
India,Delhi,Delhi,"Dr. Karni Singh Shooting Range, Delhi - DPCC",18-08-2024 23:00:00,28.498571,77.264840,SO2,4,11,7
India,Delhi,Delhi,"Dr. Karni Singh Shooting Range, Delhi - DPCC",18-08-2024 23:00:00,28.498571,77.264840,OZONE,14,64,33
India,Delhi,Delhi,"Dwarka-Sector 8, Delhi - DPCC ",18-08-2024 23:00:00,28.5710274,77.0719006,PM2.5,27,220,57
India,Delhi,Delhi,"Dwarka-Sector 8, Delhi - DPCC ",18-08-2024 23:00:00,28.5710274,77.0719006,NO2,25,84,44
India,Delhi,Delhi,"IGI Airport (T3), Delhi - IMD",18-08-2024 23:00:00,28.5627763,77.1180053,PM2.5,23,71,44
India,Delhi,Delhi,"Jahangirpuri, Delhi - DPCC",18-08-2024 23:00:00,28.732820,77.170633,PM2.5,40,230,92
India,Delhi,Delhi,"Jawaharlal Nehru Stadium, Delhi - DPCC",18-08-2024 23:00:00,28.580280,77.233829,NO2,21,55,37
India,Delhi,Delhi,"Jawaharlal Nehru Stadium, Delhi - DPCC",18-08-2024 23:00:00,28.580280,77.233829,OZONE,5,79,21
India,Delhi,Delhi,"Lodhi Road, Delhi - IMD",18-08-2024 23:00:00,28.5918245,77.2273074,CO,19,40,24
India,Delhi,Delhi,"Major Dhyan Chand National Stadium, Delhi - DPCC",18-08-2024 23:00:00,28.611281,77.237738,PM2.5,37,133,59
India,Delhi,Delhi,"Mandir Marg, Delhi - DPCC",18-08-2024 23:00:00,28.636429,77.201067,NO2,48,58,52
India,Delhi,Delhi,"Mandir Marg, Delhi - DPCC",18-08-2024 23:00:00,28.636429,77.201067,SO2,5,12,8
India,Delhi,Delhi,"Mandir Marg, Delhi - DPCC",18-08-2024 23:00:00,28.636429,77.201067,OZONE,1,17,11
India,Delhi,Delhi,"NSIT Dwarka, Delhi - CPCB",18-08-2024 23:00:00,28.60909,77.0325413,NO2,9,21,16
India,Delhi,Delhi,"Najafgarh, Delhi - DPCC",18-08-2024 23:00:00,28.570173,76.933762,PM10,20,47,34
India,Delhi,Delhi,"Najafgarh, Delhi - DPCC",18-08-2024 23:00:00,28.570173,76.933762,NO2,3,13,10
India,Delhi,Delhi,"Najafgarh, Delhi - DPCC",18-08-2024 23:00:00,28.570173,76.933762,SO2,13,17,16
India,Delhi,Delhi,"Nehru Nagar, Delhi - DPCC",18-08-2024 23:00:00,28.567890,77.250515,PM2.5,30,120,57
India,Delhi,Delhi,"Nehru Nagar, Delhi - DPCC",18-08-2024 23:00:00,28.567890,77.250515,CO,50,86,70
India,Delhi,Delhi,"North Campus, DU, Delhi - IMD",18-08-2024 23:00:00,28.6573814,77.1585447,PM2.5,10,218,51
India,Delhi,Delhi,"North Campus, DU, Delhi - IMD",18-08-2024 23:00:00,28.6573814,77.1585447,OZONE,4,130,54
India,Delhi,Delhi,"Okhla Phase-2, Delhi - DPCC",18-08-2024 23:00:00,28.530785,77.271255,SO2,4,17,8
India,Delhi,Delhi,"Patparganj, Delhi - DPCC",18-08-2024 23:00:00,28.623763,77.287209,SO2,1,5,2
India,Delhi,Delhi,"Pusa, Delhi - DPCC",18-08-2024 23:00:00,28.639652,77.146275,PM10,62,167,104
India,Delhi,Delhi,"Pusa, Delhi - IMD",18-08-2024 23:00:00,28.636110,77.173332,PM10,36,96,54
India,Delhi,Delhi,"Pusa, Delhi - IMD",18-08-2024 23:00:00,28.636110,77.173332,OZONE,14,199,63
India,Delhi,Delhi,"R K Puram, Delhi - DPCC",18-08-2024 23:00:00,28.563262,77.186937,NH3,3,8,4
India,Delhi,Delhi,"R K Puram, Delhi - DPCC",18-08-2024 23:00:00,28.563262,77.186937,SO2,18,40,22
India,Delhi,Delhi,"Rohini, Delhi - DPCC",18-08-2024 23:00:00,28.732528,77.119920,PM2.5,20,167,60
India,Delhi,Delhi,"Rohini, Delhi - DPCC",18-08-2024 23:00:00,28.732528,77.119920,SO2,4,7,5
India,Delhi,Delhi,"Shadipur, Delhi - CPCB",18-08-2024 23:00:00,28.6514781,77.1473105,NO2,42,108,58
India,Delhi,Delhi,"Shadipur, Delhi - CPCB",18-08-2024 23:00:00,28.6514781,77.1473105,CO,24,57,32
India,Delhi,Delhi,"Sonia Vihar, Delhi - DPCC",18-08-2024 23:00:00,28.710508,77.249485,PM2.5,15,85,51
India,Delhi,Delhi,"Sonia Vihar, Delhi - DPCC",18-08-2024 23:00:00,28.710508,77.249485,PM10,46,145,85
India,Delhi,Delhi,"Sonia Vihar, Delhi - DPCC",18-08-2024 23:00:00,28.710508,77.249485,SO2,2,7,5
India,Delhi,Delhi,"Sonia Vihar, Delhi - DPCC",18-08-2024 23:00:00,28.710508,77.249485,OZONE,15,28,23
India,Delhi,Delhi,"Sri Aurobindo Marg, Delhi - DPCC",18-08-2024 23:00:00,28.531346,77.190156,NO2,7,32,16
India,Delhi,Delhi,"Vivek Vihar, Delhi - DPCC",18-08-2024 23:00:00,28.672342,77.315260,PM10,22,103,75
India,Delhi,Delhi,"Vivek Vihar, Delhi - DPCC",18-08-2024 23:00:00,28.672342,77.315260,NH3,17,18,17
India,Delhi,Delhi,"Vivek Vihar, Delhi - DPCC",18-08-2024 23:00:00,28.672342,77.315260,SO2,6,9,7
India,Delhi,Delhi,"Vivek Vihar, Delhi - DPCC",18-08-2024 23:00:00,28.672342,77.315260,CO,48,90,67
India,Delhi,Delhi,"Vivek Vihar, Delhi - DPCC",18-08-2024 23:00:00,28.672342,77.315260,OZONE,9,23,17
India,Gujarat,Ahmedabad,"Gyaspur, Ahmedabad - IITM",18-08-2024 23:00:00,22.977134,72.553024,NH3,4,6,6
India,Gujarat,Ahmedabad,"Gyaspur, Ahmedabad - IITM",18-08-2024 23:00:00,22.977134,72.553024,OZONE,7,30,27
India,Gujarat,Ahmedabad,"Maninagar, Ahmedabad - GPCB",18-08-2024 23:00:00,23.002657,72.591912,PM10,48,108,77
India,Gujarat,Ahmedabad,"Raikhad, Ahmedabad - IITM",18-08-2024 23:00:00,23.020509,72.579261,PM2.5,13,59,36
India,Gujarat,Ahmedabad,"Raikhad, Ahmedabad - IITM",18-08-2024 23:00:00,23.020509,72.579261,NH3,5,6,5
India,Gujarat,Ahmedabad,"Raikhad, Ahmedabad - IITM",18-08-2024 23:00:00,23.020509,72.579261,SO2,12,14,12
India,Gujarat,Ahmedabad,"Rakhial, Ahmedabad - IITM",18-08-2024 23:00:00,23.016834,72.625775,OZONE,8,29,25
India,Gujarat,Ahmedabad,"Sardar Vallabhbhai Patel Stadium, Ahmedabad - IITM",18-08-2024 23:00:00,23.043070,72.562968,CO,12,44,32
India,Gujarat,Ankleshwar,"GIDC, Ankleshwar - GPCB",18-08-2024 23:00:00,21.613267,73.010555,PM2.5,22,74,45
India,Gujarat,Ankleshwar,"GIDC, Ankleshwar - GPCB",18-08-2024 23:00:00,21.613267,73.010555,OZONE,20,27,25
India,Gujarat,Gandhinagar,"Sector-10, Gandhinagar - GPCB",18-08-2024 23:00:00,23.221714,72.654328,PM2.5,20,55,37
India,Gujarat,Gandhinagar,"Sector-10, Gandhinagar - GPCB",18-08-2024 23:00:00,23.221714,72.654328,PM10,NA,NA,NA
India,Gujarat,Surat,"Science Center, Surat - SMC",18-08-2024 23:00:00,21.170046,72.795405,PM2.5,8,40,24
India,Gujarat,Vapi,"Phase-1 GIDC, Vapi - GPCB",18-08-2024 23:00:00,20.362421,72.918013,NO2,NA,NA,NA
India,Gujarat,Vapi,"Phase-1 GIDC, Vapi - GPCB",18-08-2024 23:00:00,20.362421,72.918013,NH3,NA,NA,NA
India,Gujarat,Vatva,"Phase-4 GIDC, Vatva - GPCB",18-08-2024 23:00:00,22.969611,72.643500,SO2,10,26,14
India,Gujarat,Vatva,"Phase-4 GIDC, Vatva - GPCB",18-08-2024 23:00:00,22.969611,72.643500,OZONE,8,14,12
India,Haryana,Ambala,"Patti Mehar, Ambala - HSPCB",18-08-2024 23:00:00,30.379589,76.778328,PM10,34,71,54
India,Haryana,Ambala,"Patti Mehar, Ambala - HSPCB",18-08-2024 23:00:00,30.379589,76.778328,CO,28,60,39
India,Haryana,Ballabgarh,"Nathu Colony, Ballabgarh - HSPCB",18-08-2024 23:00:00,28.3419248,77.319699,NH3,1,1,1
India,Haryana,Ballabgarh,"Nathu Colony, Ballabgarh - HSPCB",18-08-2024 23:00:00,28.3419248,77.319699,SO2,1,4,3
India,Haryana,Bhiwani,"H.B. Colony, Bhiwani - HSPCB",18-08-2024 23:00:00,28.806223,76.141105,NO2,11,26,12
India,Haryana,Bhiwani,"H.B. Colony, Bhiwani - HSPCB",18-08-2024 23:00:00,28.806223,76.141105,CO,25,105,51
India,Haryana,Charkhi Dadri,"Mini Secretariat, Charkhi Dadri - HSPCB",18-08-2024 23:00:00,28.593883,76.270653,PM10,32,82,54
India,Haryana,Faridabad,"Sector 11, Faridabad - HSPCB",18-08-2024 23:00:00,28.376058,77.315741,PM10,63,69,65
India,Haryana,Faridabad,"Sector 11, Faridabad - HSPCB",18-08-2024 23:00:00,28.376058,77.315741,NH3,6,6,6
India,Haryana,Faridabad,"Sector 11, Faridabad - HSPCB",18-08-2024 23:00:00,28.376058,77.315741,CO,25,46,36
India,Haryana,Faridabad,"Sector 30, Faridabad - HSPCB",18-08-2024 23:00:00,28.4417,77.3217,PM10,NA,NA,NA
India,Haryana,Gurugram,"Sector-51, Gurugram - HSPCB",18-08-2024 23:00:00,28.4227,77.0667,NH3,6,14,9
India,Haryana,Gurugram,"Sector-51, Gurugram - HSPCB",18-08-2024 23:00:00,28.4227,77.0667,SO2,10,12,11
India,Haryana,Gurugram,"Teri Gram, Gurugram - HSPCB",18-08-2024 23:00:00,28.4275,77.1465,NH3,6,14,11
India,Haryana,Gurugram,"Vikas Sadan, Gurugram - HSPCB",18-08-2024 23:00:00,28.4501238,77.0263051,SO2,8,53,23
India,Haryana,Hisar,"Urban Estate-II, Hisar - HSPCB",18-08-2024 23:00:00,29.140560,75.744941,PM2.5,NA,NA,NA
India,Haryana,Hisar,"Urban Estate-II, Hisar - HSPCB",18-08-2024 23:00:00,29.140560,75.744941,NO2,NA,NA,NA
India,Haryana,Jind,"Police Lines, Jind - HSPCB",18-08-2024 23:00:00,29.307814,76.337619,PM10,26,57,37
India,Haryana,Kaithal,"Rishi Nagar, Kaithal - HSPCB",18-08-2024 23:00:00,29.8006,76.4155,SO2,26,40,34
India,Haryana,Kurukshetra,"Sector-7, Kurukshetra - HSPCB",18-08-2024 23:00:00,29.966942,76.875879,NO2,3,4,4
India,Haryana,Kurukshetra,"Sector-7, Kurukshetra - HSPCB",18-08-2024 23:00:00,29.966942,76.875879,CO,1,26,13
India,Haryana,Manesar,"Sector-2 IMT, Manesar - HSPCB",18-08-2024 23:00:00,28.360699,76.936090,NO2,16,22,20
India,Haryana,Manesar,"Sector-2 IMT, Manesar - HSPCB",18-08-2024 23:00:00,28.360699,76.936090,NH3,3,6,5
India,Haryana,Manesar,"Sector-2 IMT, Manesar - HSPCB",18-08-2024 23:00:00,28.360699,76.936090,OZONE,40,61,42
India,Haryana,Palwal,"Shyam Nagar, Palwal - HSPCB",18-08-2024 23:00:00,28.1485564,77.3320667,NH3,NA,NA,NA
India,Haryana,Palwal,"Shyam Nagar, Palwal - HSPCB",18-08-2024 23:00:00,28.1485564,77.3320667,OZONE,9,15,10
India,Haryana,Panchkula,"Sector-6, Panchkula - HSPCB ",18-08-2024 23:00:00,30.7057778,76.8531805555555,NO2,19,21,20
India,Haryana,Panipat,"Sector-18, Panipat - HSPCB",18-08-2024 23:00:00,29.432304,76.972765,SO2,18,19,19
India,Haryana,Rohtak,"MD University, Rohtak - HSPCB",18-08-2024 23:00:00,28.52123,76.37138,CO,34,52,40
India,Haryana,Yamuna Nagar,"Gobind Pura, Yamuna Nagar - HSPCB",18-08-2024 23:00:00,30.1480566,77.2893471,NH3,1,6,4
India,Himachal Pradesh,Baddi,"HIMUDA Complex Phase-1, Baddi - HPPCB",18-08-2024 23:00:00,30.943887,76.801991,NO2,7,22,15
India,Himachal Pradesh,Baddi,"HIMUDA Complex Phase-1, Baddi - HPPCB",18-08-2024 23:00:00,30.943887,76.801991,SO2,6,6,6
India,Jammu_and_Kashmir,Srinagar,"Rajbagh, Srinagar - JKSPCB",18-08-2024 23:00:00,34.066206,74.819820,PM10,NA,NA,NA
India,Jharkhand,Dhanbad,"Sardar Patel Nagar, Dhanbad - JSPCB",18-08-2024 23:00:00,23.80569,86.44268,PM2.5,NA,NA,NA
India,Jharkhand,Jorapokhar,"Tata Stadium, Jorapokhar - JSPCB",18-08-2024 23:00:00,23.707909,86.414670,OZONE,NA,NA,NA
India,Jharkhand,Pathardih,"Mohalbani Ghat, Pathardih - DMC",18-08-2024 23:00:00,23.669880,86.411725,PM2.5,116,121,116
India,Jharkhand,Pathardih,"Mohalbani Ghat, Pathardih - DMC",18-08-2024 23:00:00,23.669880,86.411725,CO,NA,NA,NA
India,Jharkhand,Pathardih,"Mohalbani Ghat, Pathardih - DMC",18-08-2024 23:00:00,23.669880,86.411725,OZONE,17,43,36
India,Karnataka,Bagalkot,"Vidayagiri, Bagalkot - KSPCB",18-08-2024 23:00:00,16.172806,75.659694,PM2.5,27,40,39
India,Karnataka,Bagalkot,"Vidayagiri, Bagalkot - KSPCB",18-08-2024 23:00:00,16.172806,75.659694,PM10,53,54,53
India,Karnataka,Belgaum,"Ramteerth Nagar, Belgaum - KSPCB",18-08-2024 23:00:00,15.888653,74.541751,SO2,9,15,10
India,Karnataka,Bengaluru,"BTM Layout, Bengaluru - CPCB",18-08-2024 23:00:00,12.9135218,77.5950804,PM10,23,44,31
India,Karnataka,Bengaluru,"BTM Layout, Bengaluru - CPCB",18-08-2024 23:00:00,12.9135218,77.5950804,NO2,30,32,31
India,Karnataka,Bengaluru,"Hebbal, Bengaluru - KSPCB",18-08-2024 23:00:00,13.029152,77.585901,NO2,5,9,7
India,Karnataka,Bengaluru,"Hombegowda Nagar, Bengaluru - KSPCB",18-08-2024 23:00:00,12.938539,77.590100,SO2,8,16,11
India,Karnataka,Bengaluru,"Jayanagar 5th Block, Bengaluru - KSPCB",18-08-2024 23:00:00,12.920984,77.584908,SO2,16,33,21
India,Karnataka,Bengaluru,"Jigani, Bengaluru - KSPCB",18-08-2024 23:00:00,12.7816279,77.6299145,PM2.5,5,186,53
India,Karnataka,Bengaluru,"Jigani, Bengaluru - KSPCB",18-08-2024 23:00:00,12.7816279,77.6299145,NO2,27,28,28
India,Karnataka,Bengaluru,"Peenya, Bengaluru - CPCB",18-08-2024 23:00:00,13.0270199,77.494094,SO2,5,9,7
India,Karnataka,Bengaluru,"Sanegurava Halli, Bengaluru - KSPCB",18-08-2024 23:00:00,12.990328,77.5431385,NO2,20,41,26
India,Karnataka,Bengaluru,"Sanegurava Halli, Bengaluru - KSPCB",18-08-2024 23:00:00,12.990328,77.5431385,SO2,1,4,2
India,Karnataka,Bengaluru,"Sanegurava Halli, Bengaluru - KSPCB",18-08-2024 23:00:00,12.990328,77.5431385,CO,10,65,38
India,Karnataka,Bengaluru,"Silk Board, Bengaluru - KSPCB",18-08-2024 23:00:00,12.917348,77.622813,NO2,12,41,22
India,Karnataka,Bidar,"Naubad, Bidar - KSPCB",18-08-2024 23:00:00,17.930306,77.482194,NH3,3,3,3
India,Karnataka,Chamarajanagar,"Urban, Chamarajanagar - KSPCB",18-08-2024 23:00:00,11.55358,76.55521,NH3,NA,NA,NA
India,Karnataka,Chikkaballapur,"Chikkaballapur Rural, Chikkaballapur - KSPCB",18-08-2024 23:00:00,13.428828,77.731418,PM10,2,30,18
India,Karnataka,Chikkaballapur,"Chikkaballapur Rural, Chikkaballapur - KSPCB",18-08-2024 23:00:00,13.428828,77.731418,SO2,8,21,15
India,Karnataka,Chikkaballapur,"Chikkaballapur Rural, Chikkaballapur - KSPCB",18-08-2024 23:00:00,13.428828,77.731418,CO,18,34,26
India,Karnataka,Chikkaballapur,"Chikkaballapur Rural, Chikkaballapur - KSPCB",18-08-2024 23:00:00,13.428828,77.731418,OZONE,24,25,24
India,Karnataka,Chikkamagaluru,"Kalyana Nagara, Chikkamagaluru - KSPCB",18-08-2024 23:00:00,13.328028,75.797056,NH3,2,3,3
India,Karnataka,Chikkamagaluru,"Kalyana Nagara, Chikkamagaluru - KSPCB",18-08-2024 23:00:00,13.328028,75.797056,OZONE,10,59,42
India,Karnataka,Dharwad,"Kalabhavan, Dharwad - KSPCB",18-08-2024 23:00:00,15.459706,75.008381,PM2.5,31,42,37
India,Karnataka,Dharwad,"Kalabhavan, Dharwad - KSPCB",18-08-2024 23:00:00,15.459706,75.008381,NO2,10,14,12
India,Karnataka,Haveri,"Ashwini Nagar, Haveri - KSPCB",18-08-2024 23:00:00,14.791800,75.389600,SO2,NA,NA,NA
India,Karnataka,Hubballi,"Deshpande Nagar, Hubballi - KSPCB",18-08-2024 23:00:00,15.351773,75.140726,NH3,NA,NA,NA
India,Karnataka,Hubballi,"Deshpande Nagar, Hubballi - KSPCB",18-08-2024 23:00:00,15.351773,75.140726,SO2,NA,NA,NA
India,Karnataka,Hubballi,"Lingaraj Nagar, Hubballi - KSPCB",18-08-2024 23:00:00,15.3714823,75.1160168,NO2,9,14,11
India,Karnataka,Kalaburagi,"Lal Bahadur Shastri Nagar, Kalaburagi - KSPCB",18-08-2024 23:00:00,17.321993,76.822628,OZONE,2,4,3
India,Karnataka,Kalaburagi,"Mahatma Basaveswar Colony, Kalaburgi - KSPCB",18-08-2024 23:00:00,17.336318,76.847397,PM10,NA,NA,NA
India,Karnataka,Karwar,"KHB Colony, Karwar - KSPCB",18-08-2024 23:00:00,14.816666,74.141003,SO2,20,23,22
India,Karnataka,Kolar,"Tamaka Ind. Area, Kolar - KSPCB",18-08-2024 23:00:00,13.1276288,78.1570122,NH3,NA,NA,NA
India,Karnataka,Madikeri,"Stuart Hill, Madikeri - KSPCB",18-08-2024 23:00:00,12.415911,75.735050,PM2.5,16,33,24
India,Karnataka,Mangalore,"Kadri, Mangalore - KSPCB",18-08-2024 23:00:00,12.889250,74.853000,PM2.5,11,36,23
India,Karnataka,Mangalore,"Kadri, Mangalore - KSPCB",18-08-2024 23:00:00,12.889250,74.853000,CO,8,28,18
India,Karnataka,Mysuru,"Hebbal 1st Stage, Mysuru - KSPCB",18-08-2024 23:00:00,12.21041,76.37376,NH3,1,3,2
India,Karnataka,Mysuru,"Hebbal 1st Stage, Mysuru - KSPCB",18-08-2024 23:00:00,12.21041,76.37376,SO2,1,3,2
India,Karnataka,Raichur,"Haji Colony, Raichur - KSPCB",18-08-2024 23:00:00,16.208139,77.348417,NO2,6,22,13
India,Karnataka,Shivamogga,"Vinoba Nagara, Shivamogga - KSPCB",18-08-2024 23:00:00,13.940000,75.555917,PM2.5,NA,NA,NA
India,Karnataka,Shivamogga,"Vinoba Nagara, Shivamogga - KSPCB",18-08-2024 23:00:00,13.940000,75.555917,OZONE,31,55,52
India,Karnataka,Udupi,"Brahmagiri, Udupi - KSPCB",18-08-2024 23:00:00,13.34194444,74.74694444,NH3,1,2,2
India,Karnataka,Yadgir,"Collector Office, Yadgir - KSPCB",18-08-2024 23:00:00,16.7602,77.1428,CO,18,70,23
India,Kerala,Eloor,"Udyogamandal, Eloor - Kerala PCB",18-08-2024 23:00:00,10.073232,76.302765,CO,15,94,68
India,Kerala,Eloor,"Udyogamandal, Eloor - Kerala PCB",18-08-2024 23:00:00,10.073232,76.302765,OZONE,9,11,11
India,Kerala,Kollam,"Polayathode, Kollam - Kerala PCB",18-08-2024 23:00:00,8.8787,76.6073,PM10,15,49,28
India,Kerala,Kollam,"Polayathode, Kollam - Kerala PCB",18-08-2024 23:00:00,8.8787,76.6073,SO2,1,3,2
India,Kerala,Thiruvananthapuram,"Kariavattom, Thiruvananthapuram - Kerala PCB",18-08-2024 23:00:00,8.563700,76.886500,NH3,1,1,1
India,Kerala,Thiruvananthapuram,"Kariavattom, Thiruvananthapuram - Kerala PCB",18-08-2024 23:00:00,8.563700,76.886500,SO2,1,7,3
India,Kerala,Thiruvananthapuram,"Kariavattom, Thiruvananthapuram - Kerala PCB",18-08-2024 23:00:00,8.563700,76.886500,OZONE,36,36,36
India,Kerala,Thiruvananthapuram,"Plammoodu, Thiruvananthapuram - Kerala PCB",18-08-2024 23:00:00,8.5149093,76.9435879,NO2,2,26,14
India,Kerala,Thiruvananthapuram,"Plammoodu, Thiruvananthapuram - Kerala PCB",18-08-2024 23:00:00,8.5149093,76.9435879,SO2,2,20,6
India,Kerala,Thiruvananthapuram,"Plammoodu, Thiruvananthapuram - Kerala PCB",18-08-2024 23:00:00,8.5149093,76.9435879,CO,6,12,9
India,Madhya Pradesh,Bhopal,"Idgah Hills, Bhopal - MPPCB",18-08-2024 23:00:00,23.264759,77.381568,PM10,57,115,79
India,Madhya Pradesh,Bhopal,"Paryavaran Parisar, Bhopal - MPPCB",18-08-2024 23:00:00,23.210494,77.425409,NO2,9,44,14
India,Madhya Pradesh,Bhopal,"Paryavaran Parisar, Bhopal - MPPCB",18-08-2024 23:00:00,23.210494,77.425409,CO,8,60,27
India,Madhya Pradesh,Bhopal,"T T Nagar, Bhopal - MPPCB",18-08-2024 23:00:00,23.233584,77.400574,OZONE,25,57,40
India,Madhya Pradesh,Dewas,"Bhopal Chauraha, Dewas - MPPCB",18-08-2024 23:00:00,22.9682591,76.064118,PM2.5,42,100,66
India,Madhya Pradesh,Gwalior,"City Center, Gwalior - MPPCB",18-08-2024 23:00:00,26.203442,78.193251,PM2.5,31,54,38
India,Madhya Pradesh,Gwalior,"City Center, Gwalior - MPPCB",18-08-2024 23:00:00,26.203442,78.193251,NH3,3,7,5
India,Madhya Pradesh,Gwalior,"Deen Dayal Nagar, Gwalior - MPPCB",18-08-2024 23:00:00,26.259242,78.216432,NO2,2,26,10
India,Madhya Pradesh,Gwalior,"Maharaj Bada, Gwalior - MPPCB",18-08-2024 23:00:00,26.200388,78.147714,PM2.5,25,58,34
India,Madhya Pradesh,Gwalior,"Maharaj Bada, Gwalior - MPPCB",18-08-2024 23:00:00,26.200388,78.147714,CO,9,90,56
India,Madhya Pradesh,Gwalior,"Maharaj Bada, Gwalior - MPPCB",18-08-2024 23:00:00,26.200388,78.147714,OZONE,27,44,36
India,Madhya Pradesh,Gwalior,"Phool Bagh, Gwalior - Mondelez Ind. Food",18-08-2024 23:00:00,26.210536,78.171,NO2,4,5,4
India,Madhya Pradesh,Indore,"Chhoti Gwaltoli, Indore - MPPCB",18-08-2024 23:00:00,22.4310,75.5213,PM2.5,42,78,59
India,Madhya Pradesh,Indore,"Maguda Nagar, Indore - IMC",18-08-2024 23:00:00,22.7524,75.8872,PM2.5,27,83,50
India,Madhya Pradesh,Indore,"Regional Park, Indore - IMC",18-08-2024 23:00:00,22.6780,75.8559,PM2.5,23,60,34
India,Madhya Pradesh,Indore,"Residency Area, Indore - IMC",18-08-2024 23:00:00,22.7084,75.8815,PM2.5,22,54,33
India,Madhya Pradesh,Indore,"Residency Area, Indore - IMC",18-08-2024 23:00:00,22.7084,75.8815,SO2,23,26,25
