country,state,city,station,last_update,latitude,longitude,pollutant_id,pollutant_min,pollutant_max,pollutant_avg
India,Andhra_Pradesh,Amaravati,"Secretariat, Amaravati - APPCB",13-03-2024 01:00:00,16.5150833,80.5181667,PM2.5,35,53,45
India,Andhra_Pradesh,Amaravati,"Secretariat, Amaravati - APPCB",13-03-2024 01:00:00,16.5150833,80.5181667,PM10,57,86,68
India,Andhra_Pradesh,Anantapur,"Gulzarpet, Anantapur - APPCB",13-03-2024 01:00:00,14.675886,77.593027,PM10,74,110,93
India,Andhra_Pradesh,Chittoor,"Gangineni Cheruvu, Chittoor - APPCB",13-03-2024 01:00:00,13.204880,79.097889,PM10,NA,NA,NA
India,Andhra_Pradesh,Kadapa,"Yerramukkapalli, Kadapa - APPCB",13-03-2024 01:00:00,14.465052,78.824187,OZONE,16,82,65
India,Andhra_Pradesh,Tirupati,"Tirumala, Tirupati - APPCB",13-03-2024 01:00:00,13.67,79.35,PM2.5,48,96,71
India,Andhra_Pradesh,Tirupati,"Tirumala, Tirupati - APPCB",13-03-2024 01:00:00,13.67,79.35,SO2,3,16,10
India,Andhra_Pradesh,Tirupati,"Vaikuntapuram, Tirupati - APPCB",13-03-2024 01:00:00,13.615387,79.409230,CO,8,14,8
India,Andhra_Pradesh,Vijayawada,"HB Colony, Vijayawada - APPCB",13-03-2024 01:00:00,16.536107,80.594233,CO,24,44,26
India,Andhra_Pradesh,Vijayawada,"HB Colony, Vijayawada - APPCB",13-03-2024 01:00:00,16.536107,80.594233,OZONE,10,33,16
India,Andhra_Pradesh,Vijayawada,"Kanuru, Vijayawada - APPCB",13-03-2024 01:00:00,16.486692,80.699436,PM2.5,64,78,70
India,Andhra_Pradesh,Vijayawada,"Kanuru, Vijayawada - APPCB",13-03-2024 01:00:00,16.486692,80.699436,PM10,73,89,80
India,Andhra_Pradesh,Vijayawada,"Rajiv Gandhi Park, Vijayawada - APPCB",13-03-2024 01:00:00,16.509717,80.612222,PM2.5,44,71,57
India,Andhra_Pradesh,Vijayawada,"Rajiv Gandhi Park, Vijayawada - APPCB",13-03-2024 01:00:00,16.509717,80.612222,NO2,12,59,35
India,Andhra_Pradesh,Vijayawada,"Rajiv Nagar, Vijayawada - APPCB",13-03-2024 01:00:00,16.554731,80.649110,SO2,10,18,13
India,Andhra_Pradesh,Vijayawada,"Rajiv Nagar, Vijayawada - APPCB",13-03-2024 01:00:00,16.554731,80.649110,OZONE,9,41,26
India,Andhra_Pradesh,Visakhapatnam,"GVM Corporation, Visakhapatnam - APPCB",13-03-2024 01:00:00,17.72,83.3,NH3,3,6,4
India,Arunachal_Pradesh,Naharlagun,"Naharlagun, Naharlagun - APSPCB",13-03-2024 01:00:00,27.103358,93.679645,SO2,NA,NA,NA
India,Arunachal_Pradesh,Naharlagun,"Naharlagun, Naharlagun - APSPCB",13-03-2024 01:00:00,27.103358,93.679645,OZONE,2,2,2
India,Assam,Byrnihat,"Central Academy for SFS, Byrnihat - PCBA",13-03-2024 01:00:00,26.071318,91.87488,CO,31,71,38
India,Assam,Guwahati,"IITG, Guwahati - PCBA",13-03-2024 01:00:00,26.2028636,91.70046436,PM2.5,NA,NA,NA
India,Assam,Guwahati,"LGBI Airport, Guwahati - PCBA",13-03-2024 01:00:00,26.10887,91.589544,NO2,9,67,31
India,Assam,Nagaon,"Christianpatty, Nagaon - PCBA",13-03-2024 01:00:00,26.349082,92.68449,PM10,111,328,143
India,Assam,Nagaon,"Christianpatty, Nagaon - PCBA",13-03-2024 01:00:00,26.349082,92.68449,NH3,2,12,3
India,Assam,Nagaon,"Christianpatty, Nagaon - PCBA",13-03-2024 01:00:00,26.349082,92.68449,OZONE,20,168,52
India,Assam,Nalbari,"Bata Chowk, Nalbari - PCBA",13-03-2024 01:00:00,26.446912,91.439057,CO,89,130,116
India,Assam,Sivasagar,"Girls College, Sivasagar - PCBA",13-03-2024 01:00:00,26.987634,94.636574,PM10,37,91,61
India,Assam,Sivasagar,"Girls College, Sivasagar - PCBA",13-03-2024 01:00:00,26.987634,94.636574,NO2,15,25,21
India,Assam,Sivasagar,"Girls College, Sivasagar - PCBA",13-03-2024 01:00:00,26.987634,94.636574,NH3,2,2,2
India,Bihar,Araria,"Kharahiya Basti, Araria - BSPCB",13-03-2024 01:00:00,26.146529,87.454184,PM2.5,50,220,149
India,Bihar,Araria,"Kharahiya Basti, Araria - BSPCB",13-03-2024 01:00:00,26.146529,87.454184,NO2,6,8,7
India,Bihar,Araria,"Kharahiya Basti, Araria - BSPCB",13-03-2024 01:00:00,26.146529,87.454184,CO,16,36,21
India,Bihar,Bettiah,"Kamalnath Nagar, Bettiah - BSPCB",13-03-2024 01:00:00,26.80365,84.51954,SO2,9,18,16
India,Bihar,Bettiah,"Kamalnath Nagar, Bettiah - BSPCB",13-03-2024 01:00:00,26.80365,84.51954,CO,62,66,64
India,Bihar,Bettiah,"Kamalnath Nagar, Bettiah - BSPCB",13-03-2024 01:00:00,26.80365,84.51954,OZONE,4,16,9
India,Bihar,Bhagalpur,"Mayaganj, Bhagalpur - BSPCB",13-03-2024 01:00:00,25.265194,87.012947,PM2.5,87,307,168
India,Bihar,Bhagalpur,"Mayaganj, Bhagalpur - BSPCB",13-03-2024 01:00:00,25.265194,87.012947,PM10,64,139,95
India,Bihar,Bhagalpur,"Mayaganj, Bhagalpur - BSPCB",13-03-2024 01:00:00,25.265194,87.012947,CO,8,10,9
India,Bihar,Bihar Sharif,"D M Colony, Bihar Sharif - BSPCB",13-03-2024 01:00:00,25.204762,85.514960,PM2.5,43,304,101
India,Bihar,Bihar Sharif,"D M Colony, Bihar Sharif - BSPCB",13-03-2024 01:00:00,25.204762,85.514960,PM10,28,173,83
India,Bihar,Bihar Sharif,"D M Colony, Bihar Sharif - BSPCB",13-03-2024 01:00:00,25.204762,85.514960,CO,6,58,31
India,Bihar,Bihar Sharif,"D M Colony, Bihar Sharif - BSPCB",13-03-2024 01:00:00,25.204762,85.514960,OZONE,NA,NA,NA
India,Bihar,Buxar,"Charitra Van, Buxar - BSPCB (Formerly known as Central Jail)",13-03-2024 01:00:00,25.567520,83.966379,CO,24,90,62
India,Bihar,Gaya,"SFTI Kusdihra, Gaya - BSPCB",13-03-2024 01:00:00,24.762518,84.982348,NH3,1,5,3
India,Bihar,Gaya,"SFTI Kusdihra, Gaya - BSPCB",13-03-2024 01:00:00,24.762518,84.982348,CO,22,138,44
India,Bihar,Gaya,"SFTI Kusdihra, Gaya - BSPCB",13-03-2024 01:00:00,24.762518,84.982348,OZONE,1,63,14
India,Bihar,Hajipur,"Industrial Area, Hajipur - BSPCB",13-03-2024 01:00:00,25.697189,85.245900,OZONE,5,62,28
India,Bihar,Katihar,"Mirchaibari, Katihar - BSPCB",13-03-2024 01:00:00,25.560083,87.553265,PM2.5,77,302,148
India,Bihar,Kishanganj,"SDM Office_Khagra, Kishanganj - BSPCB",13-03-2024 01:00:00,26.0881305,87.93840336,NH3,11,12,12
India,Bihar,Manguraha,"Forest Rest House, Manguraha - BSPCB",13-03-2024 01:00:00,27.308328,84.531742,PM2.5,33,287,81
India,Bihar,Manguraha,"Forest Rest House, Manguraha - BSPCB",13-03-2024 01:00:00,27.308328,84.531742,PM10,37,165,83
India,Bihar,Motihari,"Gandak Colony, Motihari - BSPCB",13-03-2024 01:00:00,26.63086,84.90051,NH3,7,15,11
India,Bihar,Munger,"Town Hall, Munger - BSPCB",13-03-2024 01:00:00,25.376776,86.471523,SO2,12,43,30
India,Bihar,Muzaffarpur,"Buddha Colony, Muzaffarpur - BSPCB",13-03-2024 01:00:00,26.11442,85.39813,PM10,NA,NA,NA
India,Bihar,Muzaffarpur,"Buddha Colony, Muzaffarpur - BSPCB",13-03-2024 01:00:00,26.11442,85.39813,CO,NA,NA,NA
India,Bihar,Muzaffarpur,"Muzaffarpur Collectorate, Muzaffarpur - BSPCB",13-03-2024 01:00:00,26.1209,85.3647,OZONE,19,99,34
India,Bihar,Patna,"Govt. High School Shikarpur, Patna - BSPCB",13-03-2024 01:00:00,25.592539,85.227158,PM2.5,NA,NA,NA
India,Bihar,Patna,"Govt. High School Shikarpur, Patna - BSPCB",13-03-2024 01:00:00,25.592539,85.227158,CO,2,36,29
India,Bihar,Patna,"IGSC Planetarium Complex, Patna - BSPCB",13-03-2024 01:00:00,25.610369,85.132568,OZONE,13,43,26
India,Bihar,Patna,"Rajbansi Nagar, Patna - BSPCB",13-03-2024 01:00:00,25.599486,85.113666,CO,46,90,65
India,Bihar,Patna,"Samanpura, Patna - BSPCB",13-03-2024 01:00:00,25.596727,85.085624,PM10,144,372,221
India,Bihar,Purnia,"Mariam Nagar, Purnia - BSPCB",13-03-2024 01:00:00,25.366336,87.117468,SO2,19,21,20
India,Bihar,Rajgir,"Dangi Tola, Rajgir - BSPCB",13-03-2024 01:00:00,25.03280,85.41948,PM10,40,90,62
India,Bihar,Siwan,"Chitragupta Nagar, Siwan - BSPCB",13-03-2024 01:00:00,26.2271665,84.3570427,NH3,1,4,2
India,Bihar,Siwan,"Chitragupta Nagar, Siwan - BSPCB",13-03-2024 01:00:00,26.2271665,84.3570427,SO2,28,36,33
India,Bihar,Siwan,"Chitragupta Nagar, Siwan - BSPCB",13-03-2024 01:00:00,26.2271665,84.3570427,CO,71,143,122
India,Chandigarh,Chandigarh,"Sector 22, Chandigarh - CPCC",13-03-2024 01:00:00,30.735567,76.775714,PM10,53,169,119
India,Chandigarh,Chandigarh,"Sector-25, Chandigarh - CPCC",13-03-2024 01:00:00,30.751462,76.762879,PM10,106,151,130
India,Chandigarh,Chandigarh,"Sector-25, Chandigarh - CPCC",13-03-2024 01:00:00,30.751462,76.762879,NO2,4,34,16
India,Chhattisgarh,Bhilai,"Hathkhoj, Bhilai - CECB",13-03-2024 01:00:00,21.224231,81.408350,PM10,51,170,108
India,Chhattisgarh,Bhilai,"Hathkhoj, Bhilai - CECB",13-03-2024 01:00:00,21.224231,81.408350,NO2,16,71,38
India,Chhattisgarh,Bhilai,"Hathkhoj, Bhilai - CECB",13-03-2024 01:00:00,21.224231,81.408350,CO,10,70,44
India,Chhattisgarh,Korba,"Rampur, Korba - CECB",13-03-2024 01:00:00,22.368195,82.746431,PM10,NA,NA,NA
India,Chhattisgarh,Korba,"Urja Nagar, Korba - CECB",13-03-2024 01:00:00,22.348441,82.549611,NO2,67,87,75
India,Chhattisgarh,Kunjemura,"OP Jindal School, Kunjemura - CECB",13-03-2024 01:00:00,22.126650,83.483212,OZONE,4,77,28
India,Chhattisgarh,Raipur,"AIIMS, Raipur - CECB",13-03-2024 01:00:00,21.258815,81.578979,PM2.5,24,60,38
India,Chhattisgarh,Raipur,"AIIMS, Raipur - CECB",13-03-2024 01:00:00,21.258815,81.578979,SO2,5,12,8
India,Chhattisgarh,Raipur,"Bhatagaon New ISBT, Raipur - CECB",13-03-2024 01:00:00,21.219665,81.630094,PM10,42,116,74
India,Chhattisgarh,Raipur,"Bhatagaon New ISBT, Raipur - CECB",13-03-2024 01:00:00,21.219665,81.630094,NO2,3,54,42
India,Chhattisgarh,Raipur,"Bhatagaon New ISBT, Raipur - CECB",13-03-2024 01:00:00,21.219665,81.630094,CO,26,71,50
India,Chhattisgarh,Raipur,"Siltara Phase-II, Raipur - CECB",13-03-2024 01:00:00,21.371751,81.664929,PM10,NA,NA,NA
India,Chhattisgarh,Raipur,"Siltara Phase-II, Raipur - CECB",13-03-2024 01:00:00,21.371751,81.664929,NO2,40,73,54
India,Chhattisgarh,Raipur,"Siltara Phase-II, Raipur - CECB",13-03-2024 01:00:00,21.371751,81.664929,SO2,9,73,34
India,Chhattisgarh,Raipur,"Siltara Phase-II, Raipur - CECB",13-03-2024 01:00:00,21.371751,81.664929,OZONE,3,52,13
India,Chhattisgarh,Tumidih,"OP Jindal Industrial Park, Tumidih - CECB",13-03-2024 01:00:00,22.06631475,83.33820077,PM2.5,NA,NA,NA
India,Chhattisgarh,Tumidih,"OP Jindal Industrial Park, Tumidih - CECB",13-03-2024 01:00:00,22.06631475,83.33820077,CO,NA,NA,NA
India,Delhi,Delhi,"Alipur, Delhi - DPCC",13-03-2024 01:00:00,28.815329,77.153010,PM10,NA,NA,NA
India,Delhi,Delhi,"Alipur, Delhi - DPCC",13-03-2024 01:00:00,28.815329,77.153010,NO2,NA,NA,NA
India,Delhi,Delhi,"Ashok Vihar, Delhi - DPCC",13-03-2024 01:00:00,28.695381,77.181665,NH3,9,12,11
India,Delhi,Delhi,"Ashok Vihar, Delhi - DPCC",13-03-2024 01:00:00,28.695381,77.181665,OZONE,4,18,8
India,Delhi,Delhi,"Aya Nagar, Delhi - IMD",13-03-2024 01:00:00,28.4706914,77.1099364,PM2.5,46,387,197
India,Delhi,Delhi,"Burari Crossing, Delhi - IMD",13-03-2024 01:00:00,28.7256504,77.2011573,NO2,11,14,12
India,Delhi,Delhi,"DTU, Delhi - CPCB",13-03-2024 01:00:00,28.7500499,77.1112615,SO2,26,29,27
India,Delhi,Delhi,"DTU, Delhi - CPCB",13-03-2024 01:00:00,28.7500499,77.1112615,CO,22,55,29
India,Delhi,Delhi,"Dr. Karni Singh Shooting Range, Delhi - DPCC",13-03-2024 01:00:00,28.498571,77.264840,NO2,38,141,88
India,Delhi,Delhi,"Dr. Karni Singh Shooting Range, Delhi - DPCC",13-03-2024 01:00:00,28.498571,77.264840,SO2,12,52,24
India,Delhi,Delhi,"Dwarka-Sector 8, Delhi - DPCC ",13-03-2024 01:00:00,28.5710274,77.0719006,PM2.5,51,403,176
India,Delhi,Delhi,"Dwarka-Sector 8, Delhi - DPCC ",13-03-2024 01:00:00,28.5710274,77.0719006,NO2,6,50,19
India,Delhi,Delhi,"IGI Airport (T3), Delhi - IMD",13-03-2024 01:00:00,28.5627763,77.1180053,CO,30,80,40
India,Delhi,Delhi,"IHBAS, Dilshad Garden, Delhi - CPCB",13-03-2024 01:00:00,28.6811736,77.3025234,PM10,90,187,134
India,Delhi,Delhi,"IHBAS, Dilshad Garden, Delhi - CPCB",13-03-2024 01:00:00,28.6811736,77.3025234,NH3,3,12,6
India,Delhi,Delhi,"ITO, Delhi - CPCB",13-03-2024 01:00:00,28.628624,77.241060,SO2,7,32,15
India,Delhi,Delhi,"ITO, Delhi - CPCB",13-03-2024 01:00:00,28.628624,77.241060,OZONE,12,69,29
India,Delhi,Delhi,"Lodhi Road, Delhi - IMD",13-03-2024 01:00:00,28.5918245,77.2273074,NO2,3,14,9
India,Delhi,Delhi,"Major Dhyan Chand National Stadium, Delhi - DPCC",13-03-2024 01:00:00,28.611281,77.237738,PM10,61,256,135
India,Delhi,Delhi,"Major Dhyan Chand National Stadium, Delhi - DPCC",13-03-2024 01:00:00,28.611281,77.237738,SO2,11,41,20
India,Delhi,Delhi,"Mandir Marg, Delhi - DPCC",13-03-2024 01:00:00,28.636429,77.201067,PM10,62,256,129
India,Delhi,Delhi,"Mandir Marg, Delhi - DPCC",13-03-2024 01:00:00,28.636429,77.201067,NO2,163,201,181
India,Delhi,Delhi,"Mandir Marg, Delhi - DPCC",13-03-2024 01:00:00,28.636429,77.201067,NH3,10,13,12
India,Delhi,Delhi,"Mandir Marg, Delhi - DPCC",13-03-2024 01:00:00,28.636429,77.201067,OZONE,10,10,10
India,Delhi,Delhi,"Mundka, Delhi - DPCC",13-03-2024 01:00:00,28.684678,77.076574,PM10,139,402,215
India,Delhi,Delhi,"NSIT Dwarka, Delhi - CPCB",13-03-2024 01:00:00,28.60909,77.0325413,PM2.5,NA,NA,NA
India,Delhi,Delhi,"NSIT Dwarka, Delhi - CPCB",13-03-2024 01:00:00,28.60909,77.0325413,NH3,5,14,9
India,Delhi,Delhi,"NSIT Dwarka, Delhi - CPCB",13-03-2024 01:00:00,28.60909,77.0325413,CO,28,99,59
India,Delhi,Delhi,"Najafgarh, Delhi - DPCC",13-03-2024 01:00:00,28.570173,76.933762,SO2,8,16,12
India,Delhi,Delhi,"Najafgarh, Delhi - DPCC",13-03-2024 01:00:00,28.570173,76.933762,OZONE,7,169,72
India,Delhi,Delhi,"Narela, Delhi - DPCC",13-03-2024 01:00:00,28.822836,77.101981,PM10,89,402,171
India,Delhi,Delhi,"Narela, Delhi - DPCC",13-03-2024 01:00:00,28.822836,77.101981,NO2,11,88,44
India,Delhi,Delhi,"Narela, Delhi - DPCC",13-03-2024 01:00:00,28.822836,77.101981,NH3,6,9,7
India,Delhi,Delhi,"Narela, Delhi - DPCC",13-03-2024 01:00:00,28.822836,77.101981,OZONE,9,143,58
India,Delhi,Delhi,"Nehru Nagar, Delhi - DPCC",13-03-2024 01:00:00,28.567890,77.250515,PM2.5,53,352,186
India,Delhi,Delhi,"Nehru Nagar, Delhi - DPCC",13-03-2024 01:00:00,28.567890,77.250515,NO2,11,24,17
India,Delhi,Delhi,"Nehru Nagar, Delhi - DPCC",13-03-2024 01:00:00,28.567890,77.250515,SO2,7,26,12
India,Delhi,Delhi,"New Moti Bagh, Delhi - MHUA",13-03-2024 01:00:00,28.57834,77.18400,CO,22,62,33
India,Delhi,Delhi,"North Campus, DU, Delhi - IMD",13-03-2024 01:00:00,28.6573814,77.1585447,PM10,107,270,148
India,Delhi,Delhi,"North Campus, DU, Delhi - IMD",13-03-2024 01:00:00,28.6573814,77.1585447,OZONE,1,44,9
India,Delhi,Delhi,"Punjabi Bagh, Delhi - DPCC",13-03-2024 01:00:00,28.674045,77.131023,NO2,15,27,23
India,Delhi,Delhi,"Punjabi Bagh, Delhi - DPCC",13-03-2024 01:00:00,28.674045,77.131023,SO2,NA,NA,NA
India,Delhi,Delhi,"Pusa, Delhi - IMD",13-03-2024 01:00:00,28.636110,77.173332,NO2,NA,NA,NA
India,Delhi,Delhi,"R K Puram, Delhi - DPCC",13-03-2024 01:00:00,28.563262,77.186937,NH3,2,4,3
India,Delhi,Delhi,"R K Puram, Delhi - DPCC",13-03-2024 01:00:00,28.563262,77.186937,SO2,14,43,23
India,Delhi,Delhi,"Rohini, Delhi - DPCC",13-03-2024 01:00:00,28.732528,77.119920,OZONE,3,114,44
India,Delhi,Delhi,"Sonia Vihar, Delhi - DPCC",13-03-2024 01:00:00,28.710508,77.249485,PM10,86,288,160
India,Delhi,Delhi,"Sri Aurobindo Marg, Delhi - DPCC",13-03-2024 01:00:00,28.531346,77.190156,NO2,20,106,56
India,Delhi,Delhi,"Sri Aurobindo Marg, Delhi - DPCC",13-03-2024 01:00:00,28.531346,77.190156,NH3,6,9,7
India,Gujarat,Ahmedabad,"Chandkheda, Ahmedabad - IITM",13-03-2024 01:00:00,23.107969,72.574648,NO2,59,66,63
India,Gujarat,Ahmedabad,"Gyaspur, Ahmedabad - IITM",13-03-2024 01:00:00,22.977134,72.553024,NO2,21,22,21
India,Gujarat,Ahmedabad,"Maninagar, Ahmedabad - GPCB",13-03-2024 01:00:00,23.002657,72.591912,PM10,36,120,68
India,Gujarat,Ahmedabad,"Raikhad, Ahmedabad - IITM",13-03-2024 01:00:00,23.020509,72.579261,NH3,NA,NA,NA
India,Gujarat,Ahmedabad,"SAC ISRO Satellite, Ahmedabad - IITM",13-03-2024 01:00:00,23.023389,72.515201,PM10,90,106,102
India,Gujarat,Ahmedabad,"SAC ISRO Satellite, Ahmedabad - IITM",13-03-2024 01:00:00,23.023389,72.515201,NH3,3,3,3
India,Gujarat,Ahmedabad,"SAC ISRO Satellite, Ahmedabad - IITM",13-03-2024 01:00:00,23.023389,72.515201,OZONE,10,23,14
India,Gujarat,Ahmedabad,"SVPI Airport Hansol, Ahmedabad - IITM",13-03-2024 01:00:00,23.076793,72.627874,PM2.5,37,175,70
India,Gujarat,Ahmedabad,"SVPI Airport Hansol, Ahmedabad - IITM",13-03-2024 01:00:00,23.076793,72.627874,NH3,4,5,4
India,Gujarat,Ahmedabad,"Sardar Vallabhbhai Patel Stadium, Ahmedabad - IITM",13-03-2024 01:00:00,23.043070,72.562968,SO2,1,13,7
India,Gujarat,Ankleshwar,"GIDC, Ankleshwar - GPCB",13-03-2024 01:00:00,21.613267,73.010555,PM2.5,20,91,55
India,Gujarat,Ankleshwar,"GIDC, Ankleshwar - GPCB",13-03-2024 01:00:00,21.613267,73.010555,OZONE,21,33,24
India,Gujarat,Gandhinagar,"GIFT City, Gandhinagar - IITM",13-03-2024 01:00:00,23.163798,72.677768,PM2.5,46,195,103
India,Gujarat,Gandhinagar,"GIFT City, Gandhinagar - IITM",13-03-2024 01:00:00,23.163798,72.677768,SO2,1,9,4
India,Gujarat,Gandhinagar,"GIFT City, Gandhinagar - IITM",13-03-2024 01:00:00,23.163798,72.677768,CO,20,39,32
India,Gujarat,Gandhinagar,"IIPHG Lekawada, Gandhinagar - IITM",13-03-2024 01:00:00,23.243639,72.68994,PM2.5,49,255,135
India,Gujarat,Gandhinagar,"IIPHG Lekawada, Gandhinagar - IITM",13-03-2024 01:00:00,23.243639,72.68994,OZONE,5,35,14
India,Gujarat,Gandhinagar,"Sector-10, Gandhinagar - GPCB",13-03-2024 01:00:00,23.221714,72.654328,NH3,1,1,1
India,Gujarat,Nandesari,"GIDC, Nandesari - Nandesari Ind. Association",13-03-2024 01:00:00,22.410802,73.097923,PM2.5,51,322,152
India,Gujarat,Nandesari,"GIDC, Nandesari - Nandesari Ind. Association",13-03-2024 01:00:00,22.410802,73.097923,NO2,8,69,29
India,Gujarat,Vapi,"Phase-1 GIDC, Vapi - GPCB",13-03-2024 01:00:00,20.362421,72.918013,PM2.5,38,206,79
India,Gujarat,Vapi,"Phase-1 GIDC, Vapi - GPCB",13-03-2024 01:00:00,20.362421,72.918013,PM10,57,162,106
India,Haryana,Bahadurgarh,"Arya Nagar, Bahadurgarh - HSPCB",13-03-2024 01:00:00,28.6701,76.9254,PM2.5,59,330,188
India,Haryana,Bahadurgarh,"Arya Nagar, Bahadurgarh - HSPCB",13-03-2024 01:00:00,28.6701,76.9254,NH3,10,12,11
India,Haryana,Charkhi Dadri,"Mini Secretariat, Charkhi Dadri - HSPCB",13-03-2024 01:00:00,28.593883,76.270653,PM10,68,124,97
India,Haryana,Charkhi Dadri,"Mini Secretariat, Charkhi Dadri - HSPCB",13-03-2024 01:00:00,28.593883,76.270653,CO,19,22,21
India,Haryana,Dharuhera,"Municipal Corporation Office, Dharuhera -  HSPCB",13-03-2024 01:00:00,28.206800,76.799700,PM2.5,42,212,108
India,Haryana,Dharuhera,"Municipal Corporation Office, Dharuhera -  HSPCB",13-03-2024 01:00:00,28.206800,76.799700,SO2,31,54,40
India,Haryana,Faridabad,"New Industrial Town, Faridabad - HSPCB",13-03-2024 01:00:00,28.39072,77.30059,OZONE,11,274,94
India,Haryana,Faridabad,"Sector 11, Faridabad - HSPCB",13-03-2024 01:00:00,28.376058,77.315741,PM2.5,23,281,141
India,Haryana,Faridabad,"Sector 11, Faridabad - HSPCB",13-03-2024 01:00:00,28.376058,77.315741,NO2,30,33,32
India,Haryana,Faridabad,"Sector 11, Faridabad - HSPCB",13-03-2024 01:00:00,28.376058,77.315741,SO2,1,9,5
India,Haryana,Faridabad,"Sector 11, Faridabad - HSPCB",13-03-2024 01:00:00,28.376058,77.315741,CO,14,46,37
India,Haryana,Faridabad,"Sector 11, Faridabad - HSPCB",13-03-2024 01:00:00,28.376058,77.315741,OZONE,3,76,14
India,Haryana,Faridabad,"Sector 30, Faridabad - HSPCB",13-03-2024 01:00:00,28.4417,77.3217,PM10,NA,NA,NA
India,Haryana,Faridabad,"Sector 30, Faridabad - HSPCB",13-03-2024 01:00:00,28.4417,77.3217,SO2,NA,NA,NA
India,Haryana,Fatehabad,"Huda Sector, Fatehabad - HSPCB",13-03-2024 01:00:00,29.503664,75.467934,CO,6,17,8
India,Haryana,Gurugram,"Sector-51, Gurugram - HSPCB",13-03-2024 01:00:00,28.4227,77.0667,NO2,13,29,23
India,Haryana,Gurugram,"Sector-51, Gurugram - HSPCB",13-03-2024 01:00:00,28.4227,77.0667,OZONE,27,67,54
India,Haryana,Gurugram,"Teri Gram, Gurugram - HSPCB",13-03-2024 01:00:00,28.4275,77.1465,SO2,3,5,4
India,Haryana,Hisar,"Urban Estate-II, Hisar - HSPCB",13-03-2024 01:00:00,29.140560,75.744941,PM2.5,45,108,71
India,Haryana,Hisar,"Urban Estate-II, Hisar - HSPCB",13-03-2024 01:00:00,29.140560,75.744941,CO,32,105,50
India,Haryana,Jind,"Police Lines, Jind - HSPCB",13-03-2024 01:00:00,29.307814,76.337619,PM2.5,34,96,63
India,Haryana,Kaithal,"Rishi Nagar, Kaithal - HSPCB",13-03-2024 01:00:00,29.8006,76.4155,OZONE,10,24,19
India,Haryana,Kurukshetra,"Sector-7, Kurukshetra - HSPCB",13-03-2024 01:00:00,29.966942,76.875879,SO2,3,139,43
India,Haryana,Mandikhera,"General Hospital, Mandikhera - HSPCB",13-03-2024 01:00:00,27.9002,76.9938,NO2,17,23,19
India,Haryana,Manesar,"Sector-2 IMT, Manesar - HSPCB",13-03-2024 01:00:00,28.360699,76.936090,CO,8,39,16
India,Haryana,Narnaul,"Shastri Nagar, Narnaul - HSPCB",13-03-2024 01:00:00,28.060249,76.113115,SO2,13,54,20
India,Haryana,Narnaul,"Shastri Nagar, Narnaul - HSPCB",13-03-2024 01:00:00,28.060249,76.113115,OZONE,7,52,31
India,Haryana,Panchkula,"Sector-6, Panchkula - HSPCB ",13-03-2024 01:00:00,30.7057778,76.8531805555555,NO2,28,31,29
India,Haryana,Sirsa,"F-Block, Sirsa - HSPCB",13-03-2024 01:00:00,29.536400,75.015800,NO2,10,10,10
India,Haryana,Yamuna Nagar,"Gobind Pura, Yamuna Nagar - HSPCB",13-03-2024 01:00:00,30.1480566,77.2893471,PM2.5,52,232,89
India,Haryana,Yamuna Nagar,"Gobind Pura, Yamuna Nagar - HSPCB",13-03-2024 01:00:00,30.1480566,77.2893471,OZONE,17,33,26
India,Jharkhand,Dhanbad,"Kalakusuma, Dhanbad - DMC",13-03-2024 01:00:00,23.811548,86.481238,NO2,13,22,14
India,Jharkhand,Dhanbad,"Sardar Patel Nagar, Dhanbad - JSPCB",13-03-2024 01:00:00,23.80569,86.44268,PM2.5,NA,NA,NA
India,Jharkhand,Dhanbad,"Sardar Patel Nagar, Dhanbad - JSPCB",13-03-2024 01:00:00,23.80569,86.44268,PM10,NA,NA,NA
India,Jharkhand,Dhanbad,"Sardar Patel Nagar, Dhanbad - JSPCB",13-03-2024 01:00:00,23.80569,86.44268,OZONE,10,33,15
India,Jharkhand,Pathardih,"Mohalbani Ghat, Pathardih - DMC",13-03-2024 01:00:00,23.669880,86.411725,PM10,NA,NA,NA
India,Jharkhand,Pathardih,"Mohalbani Ghat, Pathardih - DMC",13-03-2024 01:00:00,23.669880,86.411725,OZONE,9,32,14
India,Karnataka,Bagalkot,"Vidayagiri, Bagalkot - KSPCB",13-03-2024 01:00:00,16.172806,75.659694,PM2.5,25,37,36
India,Karnataka,Bagalkot,"Vidayagiri, Bagalkot - KSPCB",13-03-2024 01:00:00,16.172806,75.659694,PM10,45,46,46
India,Karnataka,Bagalkot,"Vidayagiri, Bagalkot - KSPCB",13-03-2024 01:00:00,16.172806,75.659694,CO,20,56,37
India,Karnataka,Belgaum,"Ramteerth Nagar, Belgaum - KSPCB",13-03-2024 01:00:00,15.888653,74.541751,SO2,8,9,8
India,Karnataka,Bengaluru,"BTM Layout, Bengaluru - CPCB",13-03-2024 01:00:00,12.9135218,77.5950804,PM10,57,84,70
India,Karnataka,Bengaluru,"Bapuji Nagar, Bengaluru - KSPCB",13-03-2024 01:00:00,12.951913,77.539784,NO2,9,11,11
India,Karnataka,Bengaluru,"Bapuji Nagar, Bengaluru - KSPCB",13-03-2024 01:00:00,12.951913,77.539784,CO,32,48,45
India,Karnataka,Bengaluru,"Hebbal, Bengaluru - KSPCB",13-03-2024 01:00:00,13.029152,77.585901,SO2,15,24,19
India,Karnataka,Bengaluru,"Hombegowda Nagar, Bengaluru - KSPCB",13-03-2024 01:00:00,12.938539,77.590100,NO2,30,41,35
India,Karnataka,Bengaluru,"Jigani, Bengaluru - KSPCB",13-03-2024 01:00:00,12.7816279,77.6299145,PM2.5,NA,NA,NA
India,Karnataka,Bengaluru,"Jigani, Bengaluru - KSPCB",13-03-2024 01:00:00,12.7816279,77.6299145,NO2,NA,NA,NA
India,Karnataka,Bengaluru,"Kasturi Nagar, Bengaluru - KSPCB",13-03-2024 01:00:00,13.003872,77.664217,SO2,10,10,10
India,Karnataka,Bengaluru,"Peenya, Bengaluru - CPCB",13-03-2024 01:00:00,13.0270199,77.494094,PM2.5,30,80,48
India,Karnataka,Bengaluru,"Peenya, Bengaluru - CPCB",13-03-2024 01:00:00,13.0270199,77.494094,NO2,14,32,22
India,Karnataka,Bengaluru,"Peenya, Bengaluru - CPCB",13-03-2024 01:00:00,13.0270199,77.494094,CO,14,60,40
India,Karnataka,Bengaluru,"RVCE-Mailasandra, Bengaluru - KSPCB",13-03-2024 01:00:00,12.921418,77.502466,PM10,NA,NA,NA
India,Karnataka,Bengaluru,"Sanegurava Halli, Bengaluru - KSPCB",13-03-2024 01:00:00,12.990328,77.5431385,NO2,NA,NA,NA
India,Karnataka,Bengaluru,"Sanegurava Halli, Bengaluru - KSPCB",13-03-2024 01:00:00,12.990328,77.5431385,CO,5,53,26
India,Karnataka,Bengaluru,"Shivapura_Peenya, Bengaluru - KSPCB",13-03-2024 01:00:00,13.0246342,77.5080115,PM2.5,17,172,76
India,Karnataka,Bengaluru,"Shivapura_Peenya, Bengaluru - KSPCB",13-03-2024 01:00:00,13.0246342,77.5080115,NH3,4,4,4
India,Karnataka,Bengaluru,"Shivapura_Peenya, Bengaluru - KSPCB",13-03-2024 01:00:00,13.0246342,77.5080115,OZONE,53,55,54
India,Karnataka,Bengaluru,"Silk Board, Bengaluru - KSPCB",13-03-2024 01:00:00,12.917348,77.622813,PM10,77,124,101
India,Karnataka,Bengaluru,"Silk Board, Bengaluru - KSPCB",13-03-2024 01:00:00,12.917348,77.622813,NO2,14,25,20
India,Karnataka,Bengaluru,"Silk Board, Bengaluru - KSPCB",13-03-2024 01:00:00,12.917348,77.622813,SO2,8,22,13
India,Karnataka,Bidar,"Naubad, Bidar - KSPCB",13-03-2024 01:00:00,17.930306,77.482194,PM10,84,120,98
India,Karnataka,Bidar,"Naubad, Bidar - KSPCB",13-03-2024 01:00:00,17.930306,77.482194,NO2,7,8,8
India,Karnataka,Bidar,"Naubad, Bidar - KSPCB",13-03-2024 01:00:00,17.930306,77.482194,OZONE,17,46,46
India,Karnataka,Chikkaballapur,"Chikkaballapur Rural, Chikkaballapur - KSPCB",13-03-2024 01:00:00,13.428828,77.731418,NO2,7,21,10
India,Karnataka,Chikkaballapur,"Chikkaballapur Rural, Chikkaballapur - KSPCB",13-03-2024 01:00:00,13.428828,77.731418,NH3,NA,NA,NA
India,Karnataka,Chikkamagaluru,"Kalyana Nagara, Chikkamagaluru - KSPCB",13-03-2024 01:00:00,13.328028,75.797056,SO2,NA,NA,NA
India,Karnataka,Dharwad,"Kalabhavan, Dharwad - KSPCB",13-03-2024 01:00:00,15.459706,75.008381,PM2.5,52,127,72
India,Karnataka,Dharwad,"Kalabhavan, Dharwad - KSPCB",13-03-2024 01:00:00,15.459706,75.008381,NH3,2,3,2
India,Karnataka,Dharwad,"Kalabhavan, Dharwad - KSPCB",13-03-2024 01:00:00,15.459706,75.008381,SO2,3,15,6
India,Karnataka,Gadag,"Panchal Nagar, Gadag - KSPCB",13-03-2024 01:00:00,15.411456,75.638133,CO,42,48,45
India,Karnataka,Haveri,"Ashwini Nagar, Haveri - KSPCB",13-03-2024 01:00:00,14.791800,75.389600,PM10,NA,NA,NA
India,Karnataka,Haveri,"Ashwini Nagar, Haveri - KSPCB",13-03-2024 01:00:00,14.791800,75.389600,NH3,2,3,3
India,Karnataka,Kalaburagi,"Lal Bahadur Shastri Nagar, Kalaburagi - KSPCB",13-03-2024 01:00:00,17.321993,76.822628,OZONE,6,74,20
India,Karnataka,Kalaburagi,"Mahatma Basaveswar Colony, Kalaburgi - KSPCB",13-03-2024 01:00:00,17.336318,76.847397,SO2,4,28,11
India,Karnataka,Karwar,"KHB Colony, Karwar - KSPCB",13-03-2024 01:00:00,14.816666,74.141003,OZONE,21,22,22
India,Karnataka,Kolar,"Tamaka Ind. Area, Kolar - KSPCB",13-03-2024 01:00:00,13.1276288,78.1570122,PM2.5,43,76,61
India,Karnataka,Kolar,"Tamaka Ind. Area, Kolar - KSPCB",13-03-2024 01:00:00,13.1276288,78.1570122,NO2,18,35,23
India,Karnataka,Koppal,"Diwator Nagar, Koppal - KSPCB",13-03-2024 01:00:00,15.347630,76.181767,NO2,5,23,14
India,Karnataka,Mangalore,"Kadri, Mangalore - KSPCB",13-03-2024 01:00:00,12.889250,74.853000,PM2.5,38,65,54
India,Karnataka,Mangalore,"Kadri, Mangalore - KSPCB",13-03-2024 01:00:00,12.889250,74.853000,NO2,6,6,6
India,Karnataka,Mangalore,"Kadri, Mangalore - KSPCB",13-03-2024 01:00:00,12.889250,74.853000,NH3,1,2,2
India,Karnataka,Mangalore,"Kadri, Mangalore - KSPCB",13-03-2024 01:00:00,12.889250,74.853000,SO2,20,22,21
India,Karnataka,Mangalore,"Kadri, Mangalore - KSPCB",13-03-2024 01:00:00,12.889250,74.853000,CO,40,47,44
India,Karnataka,Mysuru,"Hebbal 1st Stage, Mysuru - KSPCB",13-03-2024 01:00:00,12.21041,76.37376,PM2.5,25,67,43
India,Karnataka,Mysuru,"Hebbal 1st Stage, Mysuru - KSPCB",13-03-2024 01:00:00,12.21041,76.37376,OZONE,15,90,46
India,Karnataka,Ramanagara,"Vijay Nagar, Ramanagara - KSPCB",13-03-2024 01:00:00,12.733409,77.298051,OZONE,28,30,29
India,Karnataka,Shivamogga,"Vinoba Nagara, Shivamogga - KSPCB",13-03-2024 01:00:00,13.940000,75.555917,PM2.5,35,57,45
India,Karnataka,Shivamogga,"Vinoba Nagara, Shivamogga - KSPCB",13-03-2024 01:00:00,13.940000,75.555917,SO2,2,13,7
India,Karnataka,Tumakuru,"Thimmalapura, Tumakuru - KSPCB",13-03-2024 01:00:00,13.377516,77.099072,SO2,8,18,10
India,Karnataka,Udupi,"Brahmagiri, Udupi - KSPCB",13-03-2024 01:00:00,13.34194444,74.74694444,PM10,NA,NA,NA
India,Karnataka,Udupi,"Brahmagiri, Udupi - KSPCB",13-03-2024 01:00:00,13.34194444,74.74694444,SO2,14,18,16
India,Kerala,Eloor,"Udyogamandal, Eloor - Kerala PCB",13-03-2024 01:00:00,10.073232,76.302765,PM2.5,32,49,40
India,Kerala,Eloor,"Udyogamandal, Eloor - Kerala PCB",13-03-2024 01:00:00,10.073232,76.302765,NO2,4,5,4
India,Kerala,Kannur,"Thavakkara, Kannur - Kerala PCB",13-03-2024 01:00:00,11.875000,75.373200,PM2.5,51,61,55
India,Kerala,Kannur,"Thavakkara, Kannur - Kerala PCB",13-03-2024 01:00:00,11.875000,75.373200,SO2,6,7,6
India,Kerala,Kochi,"Vyttila, Kochi - Kerala PCB",13-03-2024 01:00:00,9.969447,76.321186,NH3,3,3,3
India,Kerala,Kochi,"Vyttila, Kochi - Kerala PCB",13-03-2024 01:00:00,9.969447,76.321186,CO,61,63,62
India,Kerala,Kollam,"Polayathode, Kollam - Kerala PCB",13-03-2024 01:00:00,8.8787,76.6073,PM10,NA,NA,NA
India,Kerala,Thiruvananthapuram,"Plammoodu, Thiruvananthapuram - Kerala PCB",13-03-2024 01:00:00,8.5149093,76.9435879,CO,8,26,19
India,Kerala,Thrissur,"Corporation Ground, Thrissur - Kerala PCB",13-03-2024 01:00:00,10.532400,76.215900,PM10,NA,NA,NA
India,Madhya Pradesh,Bhopal,"Idgah Hills, Bhopal - MPPCB",13-03-2024 01:00:00,23.264759,77.381568,CO,24,50,35
India,Madhya Pradesh,Bhopal,"Paryavaran Parisar, Bhopal - MPPCB",13-03-2024 01:00:00,23.210494,77.425409,OZONE,3,69,29
India,Madhya Pradesh,Bhopal,"T T Nagar, Bhopal - MPPCB",13-03-2024 01:00:00,23.233584,77.400574,PM2.5,7,164,59
India,Madhya Pradesh,Bhopal,"T T Nagar, Bhopal - MPPCB",13-03-2024 01:00:00,23.233584,77.400574,OZONE,4,88,51
India,Madhya Pradesh,Dewas,"Bhopal Chauraha, Dewas - MPPCB",13-03-2024 01:00:00,22.9682591,76.064118,PM10,NA,NA,NA
India,Madhya Pradesh,Gwalior,"City Center, Gwalior - MPPCB",13-03-2024 01:00:00,26.203442,78.193251,PM2.5,50,179,98
India,Madhya Pradesh,Gwalior,"City Center, Gwalior - MPPCB",13-03-2024 01:00:00,26.203442,78.193251,OZONE,10,74,41
India,Madhya Pradesh,Gwalior,"Deen Dayal Nagar, Gwalior - MPPCB",13-03-2024 01:00:00,26.259242,78.216432,PM2.5,67,197,113
India,Madhya Pradesh,Gwalior,"Deen Dayal Nagar, Gwalior - MPPCB",13-03-2024 01:00:00,26.259242,78.216432,PM10,106,224,146
India,Madhya Pradesh,Gwalior,"Deen Dayal Nagar, Gwalior - MPPCB",13-03-2024 01:00:00,26.259242,78.216432,SO2,15,21,17
India,Madhya Pradesh,Gwalior,"Maharaj Bada, Gwalior - MPPCB",13-03-2024 01:00:00,26.200388,78.147714,PM10,96,180,138
India,Madhya Pradesh,Gwalior,"Maharaj Bada, Gwalior - MPPCB",13-03-2024 01:00:00,26.200388,78.147714,CO,5,66,47
India,Madhya Pradesh,Indore,"Chhoti Gwaltoli, Indore - MPPCB",13-03-2024 01:00:00,22.4310,75.5213,PM10,54,131,92
India,Madhya Pradesh,Indore,"Maguda Nagar, Indore - IMC",13-03-2024 01:00:00,22.7524,75.8872,NH3,1,1,1
India,Madhya Pradesh,Indore,"Regional Park, Indore - IMC",13-03-2024 01:00:00,22.6780,75.8559,PM10,23,88,48
India,Madhya Pradesh,Indore,"Regional Park, Indore - IMC",13-03-2024 01:00:00,22.6780,75.8559,SO2,39,41,40
India,Madhya Pradesh,Indore,"Residency Area, Indore - IMC",13-03-2024 01:00:00,22.7084,75.8815,NO2,40,57,49
India,Madhya Pradesh,Jabalpur,"Govindh Bhavan Colony, Jabalpur - JMC",13-03-2024 01:00:00,23.163174,79.973061,OZONE,15,215,40
India,Madhya Pradesh,Jabalpur,"Marhatal, Jabalpur - MPPCB",13-03-2024 01:00:00,23.168606,79.932247,PM2.5,41,142,77
India,Madhya Pradesh,Jabalpur,"Suhagi, Jabalpur - JMC",13-03-2024 01:00:00,23.218135,79.957770,OZONE,3,150,44
India,Madhya Pradesh,Katni,"Gole Bazar, Katni - MPPCB",13-03-2024 01:00:00,23.50016,80.23284,NO2,30,85,48
India,Madhya Pradesh,Katni,"Gole Bazar, Katni - MPPCB",13-03-2024 01:00:00,23.50016,80.23284,CO,12,33,22
India,Madhya Pradesh,Maihar,"Sahilara, Maihar - KJS Cements",13-03-2024 01:00:00,24.2613009,80.7231783,PM2.5,20,43,31
India,Madhya Pradesh,Maihar,"Sahilara, Maihar - KJS Cements",13-03-2024 01:00:00,24.2613009,80.7231783,CO,48,60,52
India,Madhya Pradesh,Mandideep,"Sector-D Industrial Area, Mandideep - MPPCB",13-03-2024 01:00:00,23.108440,77.511428,PM10,NA,NA,NA
India,Madhya Pradesh,Pithampur,"Sector-2 Industrial Area, Pithampur - MPPCB",13-03-2024 01:00:00,22.624758,75.675238,OZONE,24,63,45
India,Madhya Pradesh,Ratlam,"Shasthri Nagar, Ratlam - IPCA Lab",13-03-2024 01:00:00,23.331731,75.045981,NO2,15,78,37
India,Madhya Pradesh,Satna,"Bandhavgar Colony, Satna - Birla Cement",13-03-2024 01:00:00,24.58434363,80.8549414,OZONE,58,88,70
India,Madhya Pradesh,Singrauli,"Suryakiran Bhawan NCL, Singrauli - MPPCB",13-03-2024 01:00:00,24.108970,82.645580,PM2.5,20,191,80
India,Madhya Pradesh,Singrauli,"Suryakiran Bhawan NCL, Singrauli - MPPCB",13-03-2024 01:00:00,24.108970,82.645580,PM10,74,422,155
India,Madhya Pradesh,Ujjain,"Mahakaleshwar Temple, Ujjain - MPPCB",13-03-2024 01:00:00,23.182719 ,75.768218 ,NO2,9,37,21
India,Madhya Pradesh,Ujjain,"Mahakaleshwar Temple, Ujjain - MPPCB",13-03-2024 01:00:00,23.182719 ,75.768218 ,OZONE,139,150,143
India,Maharashtra,Ahmednagar,"Tarakpur, Ahmednagar - MPCB",13-03-2024 01:00:00,19.10122,74.73339,PM2.5,55,246,95
India,Maharashtra,Ahmednagar,"Tarakpur, Ahmednagar - MPCB",13-03-2024 01:00:00,19.10122,74.73339,OZONE,7,168,60
India,Maharashtra,Akola,"Ramdaspeth, Akola - MPCB",13-03-2024 01:00:00,20.719516,77.000253,OZONE,1,91,22
India,Maharashtra,Amravati,"Shivneri Colony, Amravati - MPCB",13-03-2024 01:00:00,20.9402359,77.7895248,OZONE,2,127,40
India,Maharashtra,Amravati,"Shri Shivaji Science College, Amaravati - MPCB",13-03-2024 01:00:00,20.939198,77.765701,OZONE,1,78,34
India,Maharashtra,Aurangabad,"MIDC Chilkalthana, Aurangabad - MPCB",13-03-2024 01:00:00,19.875620,75.387310,CO,42,86,55
India,Maharashtra,Aurangabad,"More Chowk Waluj, Aurangabad - MPCB",13-03-2024 01:00:00,19.8389439,75.244448,NO2,3,16,7
India,Maharashtra,Aurangabad,"Rachnakar Colony, Aurangabad - MPCB",13-03-2024 01:00:00,19.863756,75.321188,NO2,12,111,42
India,Maharashtra,Aurangabad,"Rachnakar Colony, Aurangabad - MPCB",13-03-2024 01:00:00,19.863756,75.321188,OZONE,9,90,50
India,Maharashtra,Belapur,"CBD Belapur, Belapur - MPCB",13-03-2024 01:00:00,19.0243902,73.0406721,PM10,102,159,125
India,Maharashtra,Belapur,"CBD Belapur, Belapur - MPCB",13-03-2024 01:00:00,19.0243902,73.0406721,NO2,10,67,37
India,Maharashtra,Belapur,"CBD Belapur, Belapur - MPCB",13-03-2024 01:00:00,19.0243902,73.0406721,OZONE,3,165,36
India,Maharashtra,Bhiwandi,"Gokul Nagar, Bhiwandi - MPCB",13-03-2024 01:00:00,19.309073,73.057223,PM10,99,172,130
India,Maharashtra,Bhiwandi,"Gokul Nagar, Bhiwandi - MPCB",13-03-2024 01:00:00,19.309073,73.057223,NH3,1,4,2
India,Maharashtra,Bhiwandi,"Gokul Nagar, Bhiwandi - MPCB",13-03-2024 01:00:00,19.309073,73.057223,SO2,3,30,9
India,Maharashtra,Bhiwandi,"Gokul Nagar, Bhiwandi - MPCB",13-03-2024 01:00:00,19.309073,73.057223,CO,16,100,39
India,Maharashtra,Bhiwandi,"Gokul Nagar, Bhiwandi - MPCB",13-03-2024 01:00:00,19.309073,73.057223,OZONE,13,124,34
India,Maharashtra,Boisar,"Khaira, Boisar - MPCB",13-03-2024 01:00:00,19.786089,72.757971,PM2.5,69,265,115
India,Maharashtra,Boisar,"Khaira, Boisar - MPCB",13-03-2024 01:00:00,19.786089,72.757971,NH3,10,24,13
India,Maharashtra,Boisar,"Khaira, Boisar - MPCB",13-03-2024 01:00:00,19.786089,72.757971,SO2,7,101,50
India,Maharashtra,Boisar,"Khaira, Boisar - MPCB",13-03-2024 01:00:00,19.786089,72.757971,OZONE,1,95,48
India,Maharashtra,Chandrapur,"Chauhan Colony, Chandrapur - MPCB",13-03-2024 01:00:00,19.962900,79.298714,NH3,3,4,3
India,Maharashtra,Chandrapur,"MIDC Khutala, Chandrapur - MPCB",13-03-2024 01:00:00,19.9775302,79.2337086,CO,23,130,83
India,Maharashtra,Jalgaon,"Prabhat Colony, Jalgaon - MPCB",13-03-2024 01:00:00,21.001264,75.565602,NO2,13,93,33
India,Maharashtra,Jalgaon,"Prabhat Colony, Jalgaon - MPCB",13-03-2024 01:00:00,21.001264,75.565602,CO,12,34,20
India,Maharashtra,Jalna,"Old MIDC, Jalna - MPCB",13-03-2024 01:00:00,19.854616,75.905894,OZONE,2,199,80
India,Maharashtra,Kolhapur,"Shivaji University, Kolhapur - MPCB",13-03-2024 01:00:00,16.6870449,74.2505872,NH3,4,10,6
India,Maharashtra,Kolhapur,"Shivaji University, Kolhapur - MPCB",13-03-2024 01:00:00,16.6870449,74.2505872,OZONE,13,129,82
India,Maharashtra,Kolhapur,"Sinchan Bhavan, Kolhapur - MPCB",13-03-2024 01:00:00,16.7143745,74.2426398,PM10,92,147,116
India,Maharashtra,Kolhapur,"Sinchan Bhavan, Kolhapur - MPCB",13-03-2024 01:00:00,16.7143745,74.2426398,NO2,15,60,35
India,Maharashtra,Kolhapur,"Sinchan Bhavan, Kolhapur - MPCB",13-03-2024 01:00:00,16.7143745,74.2426398,NH3,7,8,8
India,Maharashtra,Latur,"Sawe Wadi, Latur - MPCB",13-03-2024 01:00:00,18.39963,76.57452,CO,8,51,31
India,Maharashtra,Mahad,"Kamble Tarf Birwadi, Mahad - MPCB",13-03-2024 01:00:00,18.1023399,73.4783687,NH3,10,13,9
India,Maharashtra,Mira-Bhayandar,"Bhayandar West, Mira-Bhayandar - MPCB",13-03-2024 01:00:00,19.296481,72.840923,NH3,4,6,5
India,Maharashtra,Mumbai,"Borivali East, Mumbai - MPCB",13-03-2024 01:00:00,19.2243333,72.8658113,CO,1,37,9
India,Maharashtra,Mumbai,"Byculla, Mumbai - BMC",13-03-2024 01:00:00,18.9767,72.8380,PM2.5,19,64,43
India,Maharashtra,Mumbai,"Byculla, Mumbai - BMC",13-03-2024 01:00:00,18.9767,72.8380,PM10,52,100,75
India,Maharashtra,Mumbai,"Byculla, Mumbai - BMC",13-03-2024 01:00:00,18.9767,72.8380,SO2,4,29,13
India,Maharashtra,Mumbai,"Chakala-Andheri East, Mumbai - IITM",13-03-2024 01:00:00,19.11074,72.86084,PM10,61,112,92
India,Maharashtra,Mumbai,"Chembur, Mumbai - MPCB",13-03-2024 01:00:00,19.0364585,72.8954371,PM10,63,144,115
India,Maharashtra,Mumbai,"Chembur, Mumbai - MPCB",13-03-2024 01:00:00,19.0364585,72.8954371,NH3,3,4,3
India,Maharashtra,Mumbai,"Colaba, Mumbai - MPCB",13-03-2024 01:00:00,18.910000,72.820000,NH3,1,1,1
India,Maharashtra,Mumbai,"Ghatkopar, Mumbai - BMC",13-03-2024 01:00:00,19.083694,72.920967,PM2.5,51,132,79
India,Maharashtra,Mumbai,"Ghatkopar, Mumbai - BMC",13-03-2024 01:00:00,19.083694,72.920967,NH3,2,9,4
India,Maharashtra,Mumbai,"Ghatkopar, Mumbai - BMC",13-03-2024 01:00:00,19.083694,72.920967,OZONE,1,41,16
India,Maharashtra,Mumbai,"Kandivali East, Mumbai - MPCB",13-03-2024 01:00:00,19.205800,72.868200,PM2.5,18,85,38
India,Maharashtra,Mumbai,"Kandivali West, Mumbai - BMC",13-03-2024 01:00:00,19.215859,72.831718,PM2.5,NA,NA,NA
India,Maharashtra,Mumbai,"Kandivali West, Mumbai - BMC",13-03-2024 01:00:00,19.215859,72.831718,OZONE,57,67,67
India,Maharashtra,Mumbai,"Kherwadi_Bandra East, Mumbai - MPCB",13-03-2024 01:00:00,19.0632143,72.8456324,PM10,94,151,130
India,Maharashtra,Mumbai,"Kherwadi_Bandra East, Mumbai - MPCB",13-03-2024 01:00:00,19.0632143,72.8456324,NO2,15,107,46
India,Maharashtra,Mumbai,"Khindipada-Bhandup West, Mumbai - IITM",13-03-2024 01:00:00,19.1653323,72.922099,SO2,1,4,2
India,Maharashtra,Mumbai,"Mazgaon, Mumbai - IITM",13-03-2024 01:00:00,18.96702,72.84214,NH3,18,31,25
India,Maharashtra,Mumbai,"Mulund West, Mumbai - MPCB",13-03-2024 01:00:00,19.1750,72.9419,NH3,10,10,10
India,Maharashtra,Mumbai,"Mulund West, Mumbai - MPCB",13-03-2024 01:00:00,19.1750,72.9419,CO,30,30,30
India,Maharashtra,Mumbai,"Navy Nagar-Colaba, Mumbai - IITM",13-03-2024 01:00:00,18.897756,72.813320,PM10,81,129,107
India,Maharashtra,Mumbai,"Sewri, Mumbai - BMC",13-03-2024 01:00:00,19.000084,72.856730,NO2,29,107,65
India,Maharashtra,Mumbai,"Shivaji Nagar, Mumbai - BMC",13-03-2024 01:00:00,19.060498,72.923356,PM2.5,NA,NA,NA
India,Maharashtra,Mumbai,"Shivaji Nagar, Mumbai - BMC",13-03-2024 01:00:00,19.060498,72.923356,NH3,3,11,6
India,Maharashtra,Mumbai,"Siddharth Nagar-Worli, Mumbai - IITM",13-03-2024 01:00:00,19.000083,72.813993,NH3,NA,NA,NA
India,Maharashtra,Mumbai,"Sion, Mumbai - MPCB",13-03-2024 01:00:00,19.047000,72.874600,OZONE,13,34,19
India,Maharashtra,Mumbai,"Vasai West, Mumbai - MPCB",13-03-2024 01:00:00,19.383200,72.820400,SO2,15,16,16
India,Maharashtra,Mumbai,"Worli, Mumbai - MPCB",13-03-2024 01:00:00,18.9936162,72.8128113,PM2.5,38,68,50
India,Maharashtra,Mumbai,"Worli, Mumbai - MPCB",13-03-2024 01:00:00,18.9936162,72.8128113,OZONE,6,11,8
India,Maharashtra,Nagpur,"Mahal, Nagpur - MPCB",13-03-2024 01:00:00,21.14472,79.107595,PM10,101,147,119
India,Maharashtra,Nagpur,"Mahal, Nagpur - MPCB",13-03-2024 01:00:00,21.14472,79.107595,NH3,1,10,4
India,Maharashtra,Nagpur,"Mahal, Nagpur - MPCB",13-03-2024 01:00:00,21.14472,79.107595,CO,20,134,69
India,Maharashtra,Nagpur,"Opp GPO Civil Lines, Nagpur - MPCB",13-03-2024 01:00:00,21.152875,79.0517531,NO2,2,97,64
India,Maharashtra,Nagpur,"Opp GPO Civil Lines, Nagpur - MPCB",13-03-2024 01:00:00,21.152875,79.0517531,SO2,3,85,23
India,Maharashtra,Nagpur,"Ram Nagar, Nagpur - MPCB",13-03-2024 01:00:00,21.143383,79.048912,NH3,2,4,3
India,Maharashtra,Nanded,"Sneh Nagar, Nanded - MPCB",13-03-2024 01:00:00,19.173852,77.296291,PM2.5,63,300,148
India,Maharashtra,Nanded,"Sneh Nagar, Nanded - MPCB",13-03-2024 01:00:00,19.173852,77.296291,CO,30,41,37
India,Maharashtra,Nashik,"Gangapur Road, Nashik - MPCB",13-03-2024 01:00:00,20.0073285,73.7762427,NO2,12,19,15
India,Maharashtra,Nashik,"Gangapur Road, Nashik - MPCB",13-03-2024 01:00:00,20.0073285,73.7762427,SO2,1,9,4
India,Maharashtra,Nashik,"Gangapur Road, Nashik - MPCB",13-03-2024 01:00:00,20.0073285,73.7762427,CO,22,23,23
India,Maharashtra,Navi Mumbai,"Kopripada-Vashi, Navi Mumbai - MPCB",13-03-2024 01:00:00,19.090337,73.014232,PM2.5,48,358,135
India,Maharashtra,Navi Mumbai,"Kopripada-Vashi, Navi Mumbai - MPCB",13-03-2024 01:00:00,19.090337,73.014232,SO2,8,53,30
India,Maharashtra,Navi Mumbai,"Kopripada-Vashi, Navi Mumbai - MPCB",13-03-2024 01:00:00,19.090337,73.014232,CO,10,81,42
India,Maharashtra,Navi Mumbai,"Mahape, Navi Mumbai - MPCB",13-03-2024 01:00:00,19.1135051,73.008978,NH3,3,6,3
India,Maharashtra,Navi Mumbai,"Mahape, Navi Mumbai - MPCB",13-03-2024 01:00:00,19.1135051,73.008978,CO,32,74,58
India,Maharashtra,Navi Mumbai,"Nerul, Navi Mumbai - MPCB",13-03-2024 01:00:00,19.008751,73.016620,NO2,25,40,32
India,Maharashtra,Navi Mumbai,"Sanpada, Navi Mumbai - MPCB",13-03-2024 01:00:00,19.0575752,73.0151367,NH3,9,29,15
India,Maharashtra,Navi Mumbai,"Sector-19A Nerul, Navi Mumbai - IITM",13-03-2024 01:00:00,19.044,73.0325,SO2,23,53,39
India,Maharashtra,Navi Mumbai,"Sector-2E Kalamboli, Navi Mumbai - MPCB",13-03-2024 01:00:00,19.02579,73.10297,NO2,21,100,49
India,Maharashtra,Navi Mumbai,"Sector-2E Kalamboli, Navi Mumbai - MPCB",13-03-2024 01:00:00,19.02579,73.10297,NH3,2,5,4
India,Maharashtra,Navi Mumbai,"Sector-2E Kalamboli, Navi Mumbai - MPCB",13-03-2024 01:00:00,19.02579,73.10297,CO,12,104,58
India,Maharashtra,Navi Mumbai,"Tondare-Taloja, Navi Mumbai - MPCB",13-03-2024 01:00:00,19.0630,73.1209,OZONE,2,150,44
India,Maharashtra,Parbhani,"Masoom Colony, Parbhani - MPCB",13-03-2024 01:00:00,19.265594,76.761463,PM2.5,92,302,216
India,Maharashtra,Parbhani,"Masoom Colony, Parbhani - MPCB",13-03-2024 01:00:00,19.265594,76.761463,SO2,10,82,31
India,Maharashtra,Parbhani,"Masoom Colony, Parbhani - MPCB",13-03-2024 01:00:00,19.265594,76.761463,OZONE,16,138,91
India,Maharashtra,Pimpri-Chinchwad,"Gavalinagar, Pimpri Chinchwad - MPCB",13-03-2024 01:00:00,18.63673,73.82487,OZONE,2,174,109
India,Maharashtra,Pimpri-Chinchwad,"Park Street Wakad, Pimpri Chinchwad - MPCB",13-03-2024 01:00:00,18.59051,73.77946,PM2.5,87,287,194
India,Maharashtra,Pimpri-Chinchwad,"Park Street Wakad, Pimpri Chinchwad - MPCB",13-03-2024 01:00:00,18.59051,73.77946,OZONE,1,88,50
India,Maharashtra,Pimpri-Chinchwad,"Thergaon, Pimpri Chinchwad - MPCB",13-03-2024 01:00:00,18.616318,73.765797,PM2.5,152,317,228
India,Maharashtra,Pimpri-Chinchwad,"Thergaon, Pimpri Chinchwad - MPCB",13-03-2024 01:00:00,18.616318,73.765797,NO2,23,158,85
India,Maharashtra,Pimpri-Chinchwad,"Thergaon, Pimpri Chinchwad - MPCB",13-03-2024 01:00:00,18.616318,73.765797,CO,15,100,35
India,Maharashtra,Pune,"Bhosari, Pune - IITM",13-03-2024 01:00:00,18.640051,73.848956,NO2,13,14,14
India,Maharashtra,Pune,"Katraj Dairy, Pune - MPCB",13-03-2024 01:00:00,18.454450,73.854155,CO,38,88,65
India,Maharashtra,Pune,"Savitribai Phule Pune University, Pune - MPCB",13-03-2024 01:00:00,18.547056,73.826908,SO2,13,24,18
India,Maharashtra,Sangli,"Vijay Nagar, Sangli - MPCB",13-03-2024 01:00:00, 16.5038,74.3623,PM2.5,62,267,140
India,Maharashtra,Sangli,"Vijay Nagar, Sangli - MPCB",13-03-2024 01:00:00, 16.5038,74.3623,NO2,12,67,35
India,Maharashtra,Sangli,"Vijay Nagar, Sangli - MPCB",13-03-2024 01:00:00, 16.5038,74.3623,NH3,1,3,2
India,Maharashtra,Solapur,"Dnyaneshwar Nagar, Solapur - MPCB",13-03-2024 01:00:00,17.6336264,75.9132495,PM10,91,146,116
India,Maharashtra,Solapur,"Dnyaneshwar Nagar, Solapur - MPCB",13-03-2024 01:00:00,17.6336264,75.9132495,SO2,7,16,9
India,Maharashtra,Solapur,"Ratandeep Housing Society, Solapur - MPCB",13-03-2024 01:00:00,17.65439,75.90649,PM10,84,129,109
India,Maharashtra,Solapur,"Ratandeep Housing Society, Solapur - MPCB",13-03-2024 01:00:00,17.65439,75.90649,NO2,11,112,54
India,Maharashtra,Thane,"Pimpleshwar Mandir, Thane - MPCB",13-03-2024 01:00:00,19.192056,72.9585188,PM10,112,194,146
India,Maharashtra,Ulhasnagar,"Sidhi Vinayak Nagar, Ulhasnagar - MPCB",13-03-2024 01:00:00,19.235581,73.159121,SO2,11,50,19
India,Maharashtra,Virar,"Bolinj, Virar - MPCB",13-03-2024 01:00:00,19.4458210,72.7988231,NO2,8,33,17
India,Maharashtra,Virar,"Bolinj, Virar - MPCB",13-03-2024 01:00:00,19.4458210,72.7988231,SO2,9,31,21
India,Meghalaya,Shillong,"Lumpyngngad, Shillong - Meghalaya PCB",13-03-2024 01:00:00,25.5586,91.8985,CO,10,19,15
India,Mizoram,Aizawl,"Sikulpuikawn, Aizawl - Mizoram PCB",13-03-2024 01:00:00,23.7176342,92.7192841,NO2,1,10,2
India,Odisha,Angul,"Hakimapada, Angul - OSPCB",13-03-2024 01:00:00,20.832874,85.104082,OZONE,8,129,66
India,Odisha,Balasore,"Kalidaspur, Balasore - OSPCB",13-03-2024 01:00:00,21.51161,86.89088,NO2,1,12,4
India,Odisha,Balasore,"Kalidaspur, Balasore - OSPCB",13-03-2024 01:00:00,21.51161,86.89088,SO2,14,42,23
India,Odisha,Barbil,"Forest Office, Barbil - OSPCB",13-03-2024 01:00:00,22.1166054,85.3945546,PM10,94,421,184
India,Odisha,Barbil,"Forest Office, Barbil - OSPCB",13-03-2024 01:00:00,22.1166054,85.3945546,SO2,2,38,9
India,Odisha,Barbil,"Forest Office, Barbil - OSPCB",13-03-2024 01:00:00,22.1166054,85.3945546,CO,2,105,50
India,Odisha,Barbil,"Forest Office, Barbil - OSPCB",13-03-2024 01:00:00,22.1166054,85.3945546,OZONE,8,159,53
India,Odisha,Bhubaneswar,"Lingraj Mandir, Bhubaneswar - OSPCB",13-03-2024 01:00:00,20.240790,85.836784,PM2.5,40,253,77
India,Odisha,Bhubaneswar,"Patia, Bhubaneswar - OSPCB",13-03-2024 01:00:00,20.34652,85.81630,NO2,5,14,9
India,Odisha,Bhubaneswar,"Patia, Bhubaneswar - OSPCB",13-03-2024 01:00:00,20.34652,85.81630,SO2,1,10,4
India,Odisha,Bileipada,"Tata Township, Bileipada - OSPCB",13-03-2024 01:00:00,22.06156703,85.47409613,PM2.5,91,195,143
India,Odisha,Bileipada,"Tata Township, Bileipada - OSPCB",13-03-2024 01:00:00,22.06156703,85.47409613,PM10,112,242,171
India,Odisha,Bileipada,"Tata Township, Bileipada - OSPCB",13-03-2024 01:00:00,22.06156703,85.47409613,CO,14,36,21
India,Odisha,Brajrajnagar,"GM Office, Brajrajnagar - OSPCB",13-03-2024 01:00:00,21.8004996,83.8396977,PM10,71,243,120
India,Odisha,Brajrajnagar,"GM Office, Brajrajnagar - OSPCB",13-03-2024 01:00:00,21.8004996,83.8396977,CO,70,101,89
India,Odisha,Byasanagar,"Ferro Chrome Colony, Byasanagar - OSPCB",13-03-2024 01:00:00,20.94185,86.11510,PM2.5,57,263,99
India,Odisha,Keonjhar,"Jagamohanpur, Keonjhar - OSPCB",13-03-2024 01:00:00,21.643900,85.599355,PM10,102,128,117
India,Odisha,Keonjhar,"Jagamohanpur, Keonjhar - OSPCB",13-03-2024 01:00:00,21.643900,85.599355,NO2,12,95,46
India,Odisha,Nayagarh,"Dabuna, Nayagarh - OSPCB",13-03-2024 01:00:00,21.847279,85.416905,CO,36,55,46
India,Odisha,Rairangpur,"Divisional Forest Office, Rairangpur - OSPCB",13-03-2024 01:00:00,22.265816,86.174829,NH3,5,5,5
India,Odisha,Rourkela,"Fertilizer Township, Rourkela - OSPCB",13-03-2024 01:00:00,22.18972222,84.86277778,PM10,93,446,149
India,Odisha,Rourkela,"Raghunathpali, Rourkela - OSPCB",13-03-2024 01:00:00,22.220833,84.809444,CO,22,74,47
India,Odisha,Suakati,"OMC Colony, Suakati - OSPCB",13-03-2024 01:00:00,21.606865,85.510538,OZONE,67,142,94
India,Odisha,Talcher,"Talcher Coalfields,Talcher - OSPCB",13-03-2024 01:00:00,20.9360711,85.1707021,PM10,34,500,150
India,Odisha,Tensa,"Barsua Iron Ore Mines, Tensa - OSPCB",13-03-2024 01:00:00,21.869985,85.167016,PM2.5,63,134,89
India,Odisha,Tensa,"Barsua Iron Ore Mines, Tensa - OSPCB",13-03-2024 01:00:00,21.869985,85.167016,PM10,93,124,107
India,Odisha,Tensa,"Barsua Iron Ore Mines, Tensa - OSPCB",13-03-2024 01:00:00,21.869985,85.167016,NO2,32,54,39
India,Puducherry,Puducherry,"Jawahar Nagar, Puducherry - PPCC",13-03-2024 01:00:00,11.9309,79.8027,SO2,2,11,7
India,Punjab,Amritsar,"Golden Temple, Amritsar - PPCB",13-03-2024 01:00:00,31.620000,74.876512,CO,2,103,32
India,Punjab,Bathinda,"Hardev Nagar, Bathinda - PPCB",13-03-2024 01:00:00,30.233011,74.907758,PM10,35,164,81
India,Punjab,Jalandhar,"Civil Line, Jalandhar - PPCB",13-03-2024 01:00:00,31.321907,75.578914,PM2.5,66,136,89
India,Punjab,Jalandhar,"Civil Line, Jalandhar - PPCB",13-03-2024 01:00:00,31.321907,75.578914,NH3,2,5,4
India,Punjab,Jalandhar,"Civil Line, Jalandhar - PPCB",13-03-2024 01:00:00,31.321907,75.578914,SO2,10,16,13
India,Punjab,Khanna,"Kalal Majra, Khanna - PPCB",13-03-2024 01:00:00,30.736056 ,76.209694,OZONE,13,76,40
India,Punjab,Ludhiana,"Punjab Agricultural University, Ludhiana - PPCB",13-03-2024 01:00:00,30.9028,75.8086,PM10,63,157,116
India,Punjab,Ludhiana,"Punjab Agricultural University, Ludhiana - PPCB",13-03-2024 01:00:00,30.9028,75.8086,NH3,5,6,5
India,Punjab,Patiala,"Model Town, Patiala - PPCB",13-03-2024 01:00:00,30.349388,76.366642,PM2.5,48,153,95
India,Punjab,Rupnagar,"Ratanpura, Rupnagar - Ambuja Cements",13-03-2024 01:00:00,31.0325454,76.5623046,PM10,44,493,219
India,Punjab,Rupnagar,"Ratanpura, Rupnagar - Ambuja Cements",13-03-2024 01:00:00,31.0325454,76.5623046,SO2,6,13,9
India,Rajasthan,Ajmer,"Civil Lines,  Ajmer - RSPCB",13-03-2024 01:00:00,26.470859,74.646594,PM10,50,142,99
India,Rajasthan,Ajmer,"Civil Lines,  Ajmer - RSPCB",13-03-2024 01:00:00,26.470859,74.646594,NO2,12,15,13
India,Rajasthan,Ajmer,"Civil Lines,  Ajmer - RSPCB",13-03-2024 01:00:00,26.470859,74.646594,CO,8,80,51
India,Rajasthan,Banswara,"Rati Talai, Banswara - RSPCB",13-03-2024 01:00:00,23.555190,74.440010,PM2.5,6,120,49
India,Rajasthan,Banswara,"Rati Talai, Banswara - RSPCB",13-03-2024 01:00:00,23.555190,74.440010,PM10,73,249,128
India,Rajasthan,Banswara,"Rati Talai, Banswara - RSPCB",13-03-2024 01:00:00,23.555190,74.440010,CO,14,66,28
India,Rajasthan,Banswara,"Rati Talai, Banswara - RSPCB",13-03-2024 01:00:00,23.555190,74.440010,OZONE,14,92,58
India,Rajasthan,Bharatpur,"Krishna Nagar, Bharatpur - RSPCB",13-03-2024 01:00:00,27.215415,77.50873,SO2,1,10,5
India,Rajasthan,Bharatpur,"Krishna Nagar, Bharatpur - RSPCB",13-03-2024 01:00:00,27.215415,77.50873,OZONE,29,162,104
India,Rajasthan,Bhilwara,"Pratap Nagar, Bhilwara - RSPCB",13-03-2024 01:00:00,25.339605,74.618883,PM2.5,29,197,65
India,Rajasthan,Bhiwadi,"RIICO Ind. Area III, Bhiwadi - RSPCB",13-03-2024 01:00:00,28.194909,76.862296,PM10,37,219,151
India,Rajasthan,Bhiwadi,"RIICO Ind. Area III, Bhiwadi - RSPCB",13-03-2024 01:00:00,28.194909,76.862296,NH3,6,16,10
India,Rajasthan,Bhiwadi,"RIICO Ind. Area III, Bhiwadi - RSPCB",13-03-2024 01:00:00,28.194909,76.862296,SO2,1,60,17
India,Rajasthan,Bhiwadi,"RIICO Ind. Area III, Bhiwadi - RSPCB",13-03-2024 01:00:00,28.194909,76.862296,CO,1,131,20
India,Rajasthan,Bhiwadi,"Vasundhara Nagar_UIT, Bhiwadi - RSPCB",13-03-2024 01:00:00,28.207266,76.829265,PM10,95,260,162
India,Rajasthan,Bikaner,"MM Ground, Bikaner - RSPCB",13-03-2024 01:00:00,28.018792,73.292658,PM2.5,37,258,102
India,Rajasthan,Bundi,"New Colony, Bundi - RSPCB",13-03-2024 01:00:00,25.435774,75.644272,NH3,2,4,3
India,Rajasthan,Chittorgarh,"Shastri Nagar, Chittorgarh - RSPCB",13-03-2024 01:00:00,24.892047,74.623527,PM2.5,29,179,69
India,Rajasthan,Chittorgarh,"Shastri Nagar, Chittorgarh - RSPCB",13-03-2024 01:00:00,24.892047,74.623527,PM10,42,227,108
India,Rajasthan,Churu,"Subash Chowk, Churu - RSPCB",13-03-2024 01:00:00,28.296139,74.961696,SO2,6,26,12
India,Rajasthan,Dausa,"Khatikan Mohalla, Dausa - RSPCB",13-03-2024 01:00:00,26.895552,76.334753,PM2.5,26,209,101
India,Rajasthan,Dausa,"Khatikan Mohalla, Dausa - RSPCB",13-03-2024 01:00:00,26.895552,76.334753,PM10,99,175,135
India,Rajasthan,Dausa,"Khatikan Mohalla, Dausa - RSPCB",13-03-2024 01:00:00,26.895552,76.334753,NO2,21,57,37
India,Rajasthan,Dausa,"Khatikan Mohalla, Dausa - RSPCB",13-03-2024 01:00:00,26.895552,76.334753,CO,12,94,81
India,Rajasthan,Dausa,"Khatikan Mohalla, Dausa - RSPCB",13-03-2024 01:00:00,26.895552,76.334753,OZONE,81,118,91
India,Rajasthan,Dholpur,"Raja Ganj, Dholpur - RSPCB",13-03-2024 01:00:00,26.699557,77.898881,PM10,115,297,201
India,Rajasthan,Dungarpur,"Bhoiwada, Dungarpur - RSPCB",13-03-2024 01:00:00,23.837789,73.714926,NO2,10,26,16
India,Rajasthan,Dungarpur,"Bhoiwada, Dungarpur - RSPCB",13-03-2024 01:00:00,23.837789,73.714926,OZONE,15,74,59
India,Rajasthan,Hanumangarh,"Housing Board, Hanumangarh - RSPCB",13-03-2024 01:00:00,29.610750,74.283608,CO,38,100,63
India,Rajasthan,Hanumangarh,"Housing Board, Hanumangarh - RSPCB",13-03-2024 01:00:00,29.610750,74.283608,OZONE,6,40,22
India,Rajasthan,Jaipur,"Adarsh Nagar, Jaipur - RSPCB",13-03-2024 01:00:00,26.902909,75.836858,PM2.5,27,92,71
India,Rajasthan,Jaipur,"Mansarovar Sector-12, Jaipur - RSPCB",13-03-2024 01:00:00,26.843698,75.766894,PM2.5,29,96,65
India,Rajasthan,Jaipur,"Mansarovar Sector-12, Jaipur - RSPCB",13-03-2024 01:00:00,26.843698,75.766894,NO2,25,38,32
India,Rajasthan,Jaipur,"Mansarovar Sector-12, Jaipur - RSPCB",13-03-2024 01:00:00,26.843698,75.766894,NH3,4,6,5
India,Rajasthan,Jaipur,"Police Commissionerate, Jaipur - RSPCB",13-03-2024 01:00:00,26.9164092,75.7994901,PM2.5,30,233,98
India,Rajasthan,Jaipur,"Sector-2 Murlipura, Jaipur - RSPCB",13-03-2024 01:00:00,26.960669,75.771817,SO2,8,82,19
India,Rajasthan,Jaipur,"Shastri Nagar, Jaipur - RSPCB",13-03-2024 01:00:00,26.9502929,75.730943,PM10,84,151,117
India,Rajasthan,Jaipur,"Shastri Nagar, Jaipur - RSPCB",13-03-2024 01:00:00,26.9502929,75.730943,OZONE,40,75,54
India,Rajasthan,Jaisalmer,"Sadar Bazar, Jaisalmer - RSPCB",13-03-2024 01:00:00,26.912329,70.909168,PM2.5,13,84,49
India,Rajasthan,Jaisalmer,"Sadar Bazar, Jaisalmer - RSPCB",13-03-2024 01:00:00,26.912329,70.909168,OZONE,31,117,72
India,Rajasthan,Jalore,"Mudtra Sili, Jalore - RSPCB",13-03-2024 01:00:00,25.344694,72.626208,NH3,5,10,7
India,Rajasthan,Jalore,"Mudtra Sili, Jalore - RSPCB",13-03-2024 01:00:00,25.344694,72.626208,SO2,4,8,6
India,Rajasthan,Jhalawar,"Rajlaxmi Nagar, Jhalawar - RSPCB",13-03-2024 01:00:00,24.588397,76.172782,NH3,4,6,5
India,Rajasthan,Jhalawar,"Rajlaxmi Nagar, Jhalawar - RSPCB",13-03-2024 01:00:00,24.588397,76.172782,CO,31,93,58
India,Rajasthan,Jhunjhunu,"Indra Nagar, Jhunjhunu - RSPCB",13-03-2024 01:00:00,28.108988,75.386577,PM10,61,226,118
India,Rajasthan,Jodhpur,"Collectorate, Jodhpur - RSPCB",13-03-2024 01:00:00,26.268249,73.0193853,PM2.5,25,221,102
India,Rajasthan,Jodhpur,"Digari Kalan, Jodhpur - RSPCB",13-03-2024 01:00:00,26.295810,73.082283,SO2,1,7,4
India,Rajasthan,Jodhpur,"Jhalamand, Jodhpur - RSPCB",13-03-2024 01:00:00,26.215415,73.070156,NH3,2,4,3
India,Rajasthan,Jodhpur,"Mandor, Jodhpur - RSPCB",13-03-2024 01:00:00,26.358805,73.047444,PM10,36,108,76
India,Rajasthan,Jodhpur,"Mandor, Jodhpur - RSPCB",13-03-2024 01:00:00,26.358805,73.047444,SO2,2,6,3
India,Rajasthan,Karauli,"Satyawati Vihar, Karauli - RSPCB",13-03-2024 01:00:00,26.506177,77.025989,PM2.5,13,190,56
India,Rajasthan,Kota,"Dhanmandi, Kota - RSPCB",13-03-2024 01:00:00,25.164090,75.858137,NO2,22,103,63
India,Rajasthan,Kota,"Dhanmandi, Kota - RSPCB",13-03-2024 01:00:00,25.164090,75.858137,SO2,3,15,8
India,Rajasthan,Kota,"Nayapura, Kota - RSPCB",13-03-2024 01:00:00,25.196024,75.855668,PM10,76,401,140
India,Rajasthan,Kota,"Nayapura, Kota - RSPCB",13-03-2024 01:00:00,25.196024,75.855668,NO2,21,110,55
India,Rajasthan,Kota,"Shrinath Puram, Kota - RSPCB",13-03-2024 01:00:00,25.14389,75.821256,NO2,4,80,25
India,Rajasthan,Kota,"Shrinath Puram, Kota - RSPCB",13-03-2024 01:00:00,25.14389,75.821256,CO,33,98,61
India,Rajasthan,Nagaur,"Karni Colony, Nagaur - RSPCB",13-03-2024 01:00:00,27.213494,73.734444,PM2.5,NA,NA,NA
India,Rajasthan,Nagaur,"Karni Colony, Nagaur - RSPCB",13-03-2024 01:00:00,27.213494,73.734444,PM10,NA,NA,NA
India,Rajasthan,Nagaur,"Karni Colony, Nagaur - RSPCB",13-03-2024 01:00:00,27.213494,73.734444,NO2,NA,NA,NA
India,Rajasthan,Nagaur,"Karni Colony, Nagaur - RSPCB",13-03-2024 01:00:00,27.213494,73.734444,NH3,NA,NA,NA
India,Rajasthan,Nagaur,"Karni Colony, Nagaur - RSPCB",13-03-2024 01:00:00,27.213494,73.734444,CO,18,63,46
India,Rajasthan,Pali,"Indira Colony Vistar, Pali - RSPCB",13-03-2024 01:00:00,25.771061, 73.340227,PM10,31,196,112
India,Rajasthan,Pratapgarh,"Pragati Nagar, Pratapgarh - RSPCB",13-03-2024 01:00:00,24.041198,74.780702,PM2.5,7,77,25
India,Rajasthan,Pratapgarh,"Pragati Nagar, Pratapgarh - RSPCB",13-03-2024 01:00:00,24.041198,74.780702,OZONE,32,79,54
India,Rajasthan,Rajsamand,"Dhoinda, Rajsamand - RSPCB",13-03-2024 01:00:00,25.036360,73.883502,PM10,15,135,52
India,Rajasthan,Rajsamand,"Dhoinda, Rajsamand - RSPCB",13-03-2024 01:00:00,25.036360,73.883502,NO2,6,32,15
India,Rajasthan,Rajsamand,"Dhoinda, Rajsamand - RSPCB",13-03-2024 01:00:00,25.036360,73.883502,NH3,1,4,3
India,Rajasthan,Sawai Madhopur,"Sahu Nagar, Sawai Madhopur - RSPCB",13-03-2024 01:00:00,26.031443,76.359327,PM10,53,178,90
India,Rajasthan,Sikar,"Radhakishan Pura, Sikar - RSPCB",13-03-2024 01:00:00,27.608912,75.153302,NO2,1,132,42
India,Rajasthan,Sirohi,"Vedhaynath Colony, Sirohi - RSPCB",13-03-2024 01:00:00,24.885261,72.857549,NH3,4,25,8
India,Rajasthan,Sri Ganganagar,"Old City, Sri Ganganagar - RSPCB",13-03-2024 01:00:00,29.931624,73.864511,NO2,29,224,78
India,Rajasthan,Tonk,"Shastri Nagar, Tonk - RSPCB",13-03-2024 01:00:00,26.159933,75.780517,PM10,66,299,120
India,Rajasthan,Udaipur,"Ashok Nagar, Udaipur - RSPCB",13-03-2024 01:00:00,24.5886166,73.6321397,PM10,32,128,67
India,TamilNadu,Ariyalur,"Keelapalur, Ariyalur - TNPCB",13-03-2024 01:00:00,11.06825,79.07033,NH3,NA,NA,NA
India,TamilNadu,Chengalpattu,"Crescent University, Chengalpattu - TNPCB",13-03-2024 01:00:00,12.8777316,80.0834807,SO2,NA,NA,NA
India,TamilNadu,Chennai,"Alandur Bus Depot, Chennai - CPCB",13-03-2024 01:00:00,12.9099161,80.1076538,PM2.5,35,63,41
India,TamilNadu,Chennai,"Kodungaiyur, Chennai - TNPCB",13-03-2024 01:00:00,13.1278,80.2642,PM2.5,20,45,29
India,TamilNadu,Chennai,"Kodungaiyur, Chennai - TNPCB",13-03-2024 01:00:00,13.1278,80.2642,CO,26,41,34
India,TamilNadu,Chennai,"Perungudi, Chennai - TNPCB",13-03-2024 01:00:00,12.9533,80.2357,PM10,45,114,78
India,TamilNadu,Chennai,"Perungudi, Chennai - TNPCB",13-03-2024 01:00:00,12.9533,80.2357,CO,10,84,18
India,TamilNadu,Chennai,"Royapuram, Chennai - TNPCB",13-03-2024 01:00:00,13.1036,80.2909,OZONE,9,11,9
India,TamilNadu,Chennai,"Velachery Res. Area, Chennai - CPCB",13-03-2024 01:00:00,13.0052189,80.2398125,SO2,11,11,11
India,TamilNadu,Coimbatore,"PSG College of Arts and Science, Coimbatore - TNPCB",13-03-2024 01:00:00,11.0328,77.0349,OZONE,3,6,4
India,TamilNadu,Cuddalore,"Semmandalam, Cuddalore - TNPCB",13-03-2024 01:00:00,11.7637683,79.7499835,NO2,4,15,10
India,TamilNadu,Gummidipoondi,"Anthoni Pillai Nagar, Gummidipoondi - TNPCB",13-03-2024 01:00:00,13.4127,80.1081,PM2.5,53,202,103
India,TamilNadu,Gummidipoondi,"Anthoni Pillai Nagar, Gummidipoondi - TNPCB",13-03-2024 01:00:00,13.4127,80.1081,NH3,1,2,2
India,TamilNadu,Gummidipoondi,"Anthoni Pillai Nagar, Gummidipoondi - TNPCB",13-03-2024 01:00:00,13.4127,80.1081,SO2,1,57,19
India,TamilNadu,Kanchipuram,"Kilambi, Kanchipuram - TNPCB",13-03-2024 01:00:00,12.864618,79.659968,OZONE,12,66,57
India,TamilNadu,Ooty,"Bombay Castel, Ooty - TNPCB",13-03-2024 01:00:00,11.4068288,76.7138973,PM10,NA,NA,NA
India,TamilNadu,Ooty,"Bombay Castel, Ooty - TNPCB",13-03-2024 01:00:00,11.4068288,76.7138973,SO2,NA,NA,NA
India,TamilNadu,Ooty,"Bombay Castel, Ooty - TNPCB",13-03-2024 01:00:00,11.4068288,76.7138973,CO,18,20,18
India,TamilNadu,Palkalaiperur,"Bharathidasan University, Palkalaiperur - TNPCB",13-03-2024 01:00:00,10.681158,78.741746,PM2.5,32,55,42
India,TamilNadu,Salem,"Sona College of Technology, Salem - TNPCB",13-03-2024 01:00:00,11.679111,78.125052,NO2,NA,NA,NA
India,TamilNadu,Thoothukudi,"Meelavittan, Thoothukudi - TNPCB",13-03-2024 01:00:00,8.816428 ,78.099039,CO,10,58,38
India,TamilNadu,Tirupur,"Kumaran College, Tirupur - TNPCB",13-03-2024 01:00:00,11.0973603,77.3228673,PM10,78,257,139
India,TamilNadu,Vellore,"Vasanthapuram, Vellore - TNPCB",13-03-2024 01:00:00,12.909494,79.131861,NH3,1,1,1
India,Telangana,Hyderabad,"Central University, Hyderabad - TSPCB",13-03-2024 01:00:00,17.460103,78.334361,PM2.5,41,75,51
India,Telangana,Hyderabad,"Central University, Hyderabad - TSPCB",13-03-2024 01:00:00,17.460103,78.334361,NO2,18,34,25
India,Telangana,Hyderabad,"ECIL Kapra, Hyderabad - TSPCB",13-03-2024 01:00:00,17.470431,78.566959,SO2,4,27,13
India,Telangana,Hyderabad,"ICRISAT Patancheru, Hyderabad - TSPCB",13-03-2024 01:00:00,17.518400,78.278777,NO2,15,17,16
India,Telangana,Hyderabad,"ICRISAT Patancheru, Hyderabad - TSPCB",13-03-2024 01:00:00,17.518400,78.278777,SO2,14,22,17
India,Telangana,Hyderabad,"IITH Kandi, Hyderabad - TSPCB",13-03-2024 01:00:00,17.585705,78.126199,PM10,NA,NA,NA
India,Telangana,Hyderabad,"Kokapet, Hyderabad - TSPCB",13-03-2024 01:00:00,17.393559,78.339194,OZONE,1,23,6
India,Telangana,Hyderabad,"Kompally Municipal Office, Hyderabad - TSPCB",13-03-2024 01:00:00,17.544899,78.486949,PM10,42,121,68
India,Telangana,Hyderabad,"Kompally Municipal Office, Hyderabad - TSPCB",13-03-2024 01:00:00,17.544899,78.486949,SO2,5,20,10
India,Telangana,Hyderabad,"Kompally Municipal Office, Hyderabad - TSPCB",13-03-2024 01:00:00,17.544899,78.486949,OZONE,3,93,54
India,Telangana,Hyderabad,"Nacharam_TSIIC IALA, Hyderabad - TSPCB",13-03-2024 01:00:00,17.429398,78.569354,NO2,7,11,9
India,Telangana,Hyderabad,"Ramachandrapuram, Hyderabad - TSPCB",13-03-2024 01:00:00,17.528544,78.286195,OZONE,32,40,37
India,Telangana,Hyderabad,"Zoo Park, Hyderabad - TSPCB",13-03-2024 01:00:00,17.349694,78.451437,PM10,41,156,88
India,Telangana,Hyderabad,"Zoo Park, Hyderabad - TSPCB",13-03-2024 01:00:00,17.349694,78.451437,SO2,1,8,3
India,Telangana,Hyderabad,"Zoo Park, Hyderabad - TSPCB",13-03-2024 01:00:00,17.349694,78.451437,CO,24,78,52
India,Telangana,Hyderabad,"Zoo Park, Hyderabad - TSPCB",13-03-2024 01:00:00,17.349694,78.451437,OZONE,16,55,25
India,Tripura,Agartala,"Bardowali, Agartala - Tripura SPCB",13-03-2024 01:00:00,23.8175497,91.2726974,PM2.5,NA,NA,NA
India,Uttar_Pradesh,Agra,"Manoharpur, Agra - UPPCB",13-03-2024 01:00:00,27.23711,78.01936,PM10,32,102,64
India,Uttar_Pradesh,Agra,"Manoharpur, Agra - UPPCB",13-03-2024 01:00:00,27.23711,78.01936,OZONE,1,39,17
India,Uttar_Pradesh,Agra,"Rohta, Agra - UPPCB",13-03-2024 01:00:00,27.106972,78.000111,NO2,3,3,3
India,Uttar_Pradesh,Agra,"Rohta, Agra - UPPCB",13-03-2024 01:00:00,27.106972,78.000111,CO,6,22,13
India,Uttar_Pradesh,Agra,"Sector-3B Avas Vikas Colony, Agra - UPPCB",13-03-2024 01:00:00,27.19412,77.96237,PM2.5,21,65,39
India,Uttar_Pradesh,Agra,"Sector-3B Avas Vikas Colony, Agra - UPPCB",13-03-2024 01:00:00,27.19412,77.96237,SO2,22,24,22
India,Uttar_Pradesh,Agra,"Sector-3B Avas Vikas Colony, Agra - UPPCB",13-03-2024 01:00:00,27.19412,77.96237,OZONE,2,12,6
India,Uttar_Pradesh,Agra,"Shahjahan Garden, Agra - UPPCB",13-03-2024 01:00:00,27.169338,78.03582,PM2.5,NA,NA,NA
India,Uttar_Pradesh,Agra,"Shastripuram, Agra - UPPCB",13-03-2024 01:00:00,27.19862,77.92066,PM2.5,6,145,87
India,Uttar_Pradesh,Bareilly,"Rajendra Nagar, Bareilly - UPPCB",13-03-2024 01:00:00,28.38910936,79.42963708,CO,9,53,19
India,Uttar_Pradesh,Bareilly,"Rajendra Nagar, Bareilly - UPPCB",13-03-2024 01:00:00,28.38910936,79.42963708,OZONE,10,37,21
India,Uttar_Pradesh,Bulandshahr,"Yamunapuram, Bulandshahr - UPPCB",13-03-2024 01:00:00,28.406963,77.849831,PM10,80,179,118
India,Uttar_Pradesh,Firozabad,"Nagla Bhau, Firozabad - UPPCB",13-03-2024 01:00:00,27.168897,78.376960,SO2,29,41,34
India,Uttar_Pradesh,Ghaziabad,"Indirapuram, Ghaziabad - UPPCB",13-03-2024 01:00:00,28.646233,77.358075,PM10,98,222,147
India,Uttar_Pradesh,Ghaziabad,"Loni, Ghaziabad - UPPCB",13-03-2024 01:00:00,28.757294,77.278792,PM2.5,39,330,136
India,Uttar_Pradesh,Ghaziabad,"Sanjay Nagar, Ghaziabad - UPPCB",13-03-2024 01:00:00,28.685382,77.453839,NH3,9,14,12
India,Uttar_Pradesh,Ghaziabad,"Vasundhara, Ghaziabad - UPPCB",13-03-2024 01:00:00,28.6603346,77.3572563,SO2,6,103,25
India,Uttar_Pradesh,Gorakhpur,"Madan Mohan Malaviya University of Technology, Gorakhpur - UPPCB",13-03-2024 01:00:00,26.730136,83.433859,PM2.5,44,295,148
India,Uttar_Pradesh,Gorakhpur,"Madan Mohan Malaviya University of Technology, Gorakhpur - UPPCB",13-03-2024 01:00:00,26.730136,83.433859,NH3,2,2,2
India,Uttar_Pradesh,Greater Noida,"Knowledge Park - III, Greater Noida - UPPCB",13-03-2024 01:00:00,28.47272,77.482000,PM2.5,53,335,208
India,Uttar_Pradesh,Greater Noida,"Knowledge Park - III, Greater Noida - UPPCB",13-03-2024 01:00:00,28.47272,77.482000,PM10,129,288,197
India,Uttar_Pradesh,Greater Noida,"Knowledge Park - III, Greater Noida - UPPCB",13-03-2024 01:00:00,28.47272,77.482000,NO2,1,17,7
India,Uttar_Pradesh,Greater Noida,"Knowledge Park - V, Greater Noida - UPPCB",13-03-2024 01:00:00,28.557054,77.453663,PM2.5,51,316,166
India,Uttar_Pradesh,Kanpur,"NSI Kalyanpur, Kanpur - UPPCB",13-03-2024 01:00:00,26.509954,80.249612,PM10,85,158,114
India,Uttar_Pradesh,Kanpur,"NSI Kalyanpur, Kanpur - UPPCB",13-03-2024 01:00:00,26.509954,80.249612,NH3,1,3,1
India,Uttar_Pradesh,Kanpur,"NSI Kalyanpur, Kanpur - UPPCB",13-03-2024 01:00:00,26.509954,80.249612,OZONE,43,71,55
India,Uttar_Pradesh,Kanpur,"Nehru Nagar, Kanpur - UPPCB",13-03-2024 01:00:00,26.4703136,80.3229863,PM10,30,98,66
India,Uttar_Pradesh,Khurja,"Kalindi Kunj, Khurja - UPPCB",13-03-2024 01:00:00,28.2348927,77.8683002,NO2,13,30,18
India,Uttar_Pradesh,Khurja,"Kalindi Kunj, Khurja - UPPCB",13-03-2024 01:00:00,28.2348927,77.8683002,CO,33,64,39
India,Uttar_Pradesh,Lucknow,"B R Ambedkar University, Lucknow - UPPCB",13-03-2024 01:00:00,26.766433,80.927299,PM2.5,44,106,75
India,Uttar_Pradesh,Lucknow,"Gomti Nagar, Lucknow - UPPCB",13-03-2024 01:00:00,26.868120,81.005119,SO2,6,13,11
India,Uttar_Pradesh,Lucknow,"Kukrail Picnic Spot-1, Lucknow - UPPCB",13-03-2024 01:00:00,26.90723,80.98579,SO2,33,38,35
India,Uttar_Pradesh,Lucknow,"Kukrail Picnic Spot-1, Lucknow - UPPCB",13-03-2024 01:00:00,26.90723,80.98579,CO,18,27,22
India,Uttar_Pradesh,Lucknow,"Lalbagh, Lucknow - CPCB",13-03-2024 01:00:00,26.8458805,80.9365541,PM10,104,165,128
India,Uttar_Pradesh,Lucknow,"Lalbagh, Lucknow - CPCB",13-03-2024 01:00:00,26.8458805,80.9365541,NO2,4,19,10
India,Uttar_Pradesh,Lucknow,"Talkatora District Industries Center, Lucknow - CPCB",13-03-2024 01:00:00,26.83399722,80.8917361,PM2.5,79,187,128
India,Uttar_Pradesh,Lucknow,"Talkatora District Industries Center, Lucknow - CPCB",13-03-2024 01:00:00,26.83399722,80.8917361,PM10,109,131,123
India,Uttar_Pradesh,Lucknow,"Talkatora District Industries Center, Lucknow - CPCB",13-03-2024 01:00:00,26.83399722,80.8917361,CO,8,37,25
India,Uttar_Pradesh,Meerut,"Ganga Nagar, Meerut - UPPCB",13-03-2024 01:00:00,28.999264,77.7590354,CO,11,54,21
India,Uttar_Pradesh,Meerut,"Jai Bhim Nagar, Meerut - UPPCB",13-03-2024 01:00:00,28.9535882,77.7622941,NO2,13,53,29
India,Uttar_Pradesh,Meerut,"Jai Bhim Nagar, Meerut - UPPCB",13-03-2024 01:00:00,28.9535882,77.7622941,OZONE,7,117,59
India,Uttar_Pradesh,Meerut,"Pallavpuram Phase 2, Meerut - UPPCB",13-03-2024 01:00:00,29.063510,77.709723,NH3,10,13,12
India,Uttar_Pradesh,Meerut,"Pallavpuram Phase 2, Meerut - UPPCB",13-03-2024 01:00:00,29.063510,77.709723,OZONE,14,108,38
India,Uttar_Pradesh,Moradabad,"Buddhi Vihar, Moradabad - UPPCB",13-03-2024 01:00:00,28.83526,78.74460,OZONE,16,42,22
India,Uttar_Pradesh,Moradabad,"Eco Herbal Park, Moradabad - UPPCB",13-03-2024 01:00:00,28.840739,78.697531,PM2.5,NA,NA,NA
India,Uttar_Pradesh,Moradabad,"Eco Herbal Park, Moradabad - UPPCB",13-03-2024 01:00:00,28.840739,78.697531,NH3,NA,NA,NA
India,Uttar_Pradesh,Moradabad,"Employment Office, Moradabad - UPPCB",13-03-2024 01:00:00,28.88528,78.73880,PM10,66,233,109
India,Uttar_Pradesh,Moradabad,"Kashiram Nagar, Moradabad - UPPCB",13-03-2024 01:00:00,28.849399,78.742362,PM10,77,168,110
India,Uttar_Pradesh,Moradabad,"Kashiram Nagar, Moradabad - UPPCB",13-03-2024 01:00:00,28.849399,78.742362,CO,11,43,34
India,Uttar_Pradesh,Moradabad,"Transport Nagar, Moradabad - UPPCB",13-03-2024 01:00:00,28.802625,78.753728,PM10,57,104,81
India,Uttar_Pradesh,Muzaffarnagar,"New Mandi, Muzaffarnagar - UPPCB",13-03-2024 01:00:00,29.4723508,77.7194031,PM2.5,63,336,203
India,Uttar_Pradesh,Muzaffarnagar,"New Mandi, Muzaffarnagar - UPPCB",13-03-2024 01:00:00,29.4723508,77.7194031,PM10,98,219,152
India,Uttar_Pradesh,Muzaffarnagar,"New Mandi, Muzaffarnagar - UPPCB",13-03-2024 01:00:00,29.4723508,77.7194031,SO2,27,55,41
India,Uttar_Pradesh,Noida,"Sector - 125, Noida - UPPCB",13-03-2024 01:00:00,28.5447608,77.3231257,OZONE,5,165,48
India,Uttar_Pradesh,Noida,"Sector - 62, Noida - IMD",13-03-2024 01:00:00,28.6245479,77.3577104,CO,20,29,21
India,Uttar_Pradesh,Noida,"Sector-1, Noida - UPPCB",13-03-2024 01:00:00,28.5898,77.3101,NO2,35,102,63
India,Uttar_Pradesh,Noida,"Sector-1, Noida - UPPCB",13-03-2024 01:00:00,28.5898,77.3101,NH3,3,6,5
India,Uttar_Pradesh,Noida,"Sector-1, Noida - UPPCB",13-03-2024 01:00:00,28.5898,77.3101,SO2,8,39,18
India,Uttar_Pradesh,Noida,"Sector-116, Noida - UPPCB",13-03-2024 01:00:00,28.569230,77.393848,OZONE,2,27,9
India,Uttar_Pradesh,Prayagraj,"Jhunsi, Prayagraj - UPPCB",13-03-2024 01:00:00,25.425602,81.917152,PM10,30,157,85
India,Uttar_Pradesh,Prayagraj,"Jhunsi, Prayagraj - UPPCB",13-03-2024 01:00:00,25.425602,81.917152,NO2,6,6,6
India,Uttar_Pradesh,Prayagraj,"Nagar Nigam, Prayagraj - UPPCB",13-03-2024 01:00:00,25.44919916 ,81.82735986 ,PM2.5,23,197,61
India,Uttar_Pradesh,Prayagraj,"Nagar Nigam, Prayagraj - UPPCB",13-03-2024 01:00:00,25.44919916 ,81.82735986 ,SO2,41,106,70
India,Uttar_Pradesh,Varanasi,"Ardhali Bazar, Varanasi - UPPCB",13-03-2024 01:00:00,25.3505986,82.9083074,PM10,12,51,35
India,Uttar_Pradesh,Varanasi,"Ardhali Bazar, Varanasi - UPPCB",13-03-2024 01:00:00,25.3505986,82.9083074,NO2,10,30,18
India,Uttar_Pradesh,Varanasi,"Bhelupur, Varanasi - UPPCB",13-03-2024 01:00:00,25.301778,82.996789,CO,16,63,43
India,Uttar_Pradesh,Varanasi,"IESD Banaras Hindu University, Varanasi - UPPCB",13-03-2024 01:00:00,25.262326,82.995408,PM2.5,6,30,15
India,Uttar_Pradesh,Varanasi,"IESD Banaras Hindu University, Varanasi - UPPCB",13-03-2024 01:00:00,25.262326,82.995408,PM10,19,57,33
India,Uttar_Pradesh,Vrindavan,"Omex Eternity, Vrindavan - UPPCB",13-03-2024 01:00:00,27.5714090,77.6557570,NH3,3,4,3
India,Uttar_Pradesh,Vrindavan,"Omex Eternity, Vrindavan - UPPCB",13-03-2024 01:00:00,27.5714090,77.6557570,SO2,39,40,40
India,Uttar_Pradesh,Vrindavan,"Omex Eternity, Vrindavan - UPPCB",13-03-2024 01:00:00,27.5714090,77.6557570,OZONE,30,33,32
India,Uttarakhand,Rishikesh,"Shivaji Nagar, Rishikesh - UKPCB",13-03-2024 01:00:00,30.075911,78.2859547,PM10,10,120,66
India,West_Bengal,Durgapur,"Sidhu Kanhu Indoor Stadium, Durgapur - WBPCB",13-03-2024 01:00:00,23.5404352,87.2892225,PM2.5,70,240,132
India,West_Bengal,Haldia,"Priyambada Housing Estate, Haldia - WBPCB",13-03-2024 01:00:00,22.06047,88.109737,PM2.5,20,76,40
India,West_Bengal,Haldia,"Priyambada Housing Estate, Haldia - WBPCB",13-03-2024 01:00:00,22.06047,88.109737,NO2,15,34,24
India,West_Bengal,Haldia,"Priyambada Housing Estate, Haldia - WBPCB",13-03-2024 01:00:00,22.06047,88.109737,CO,19,40,23
India,West_Bengal,Howrah,"Belur Math, Howrah - WBPCB",13-03-2024 01:00:00,22.629801,88.352017,OZONE,7,104,17
India,West_Bengal,Howrah,"Ghusuri, Howrah - WBPCB",13-03-2024 01:00:00,22.611968,88.347422,CO,2,35,15
India,West_Bengal,Howrah,"Ghusuri, Howrah - WBPCB",13-03-2024 01:00:00,22.611968,88.347422,OZONE,11,31,22
India,West_Bengal,Howrah,"Padmapukur, Howrah - WBPCB",13-03-2024 01:00:00,22.5687319,88.2797276,CO,22,69,45
India,West_Bengal,Kolkata,"Ballygunge, Kolkata - WBPCB",13-03-2024 01:00:00,22.5367507,88.3638022,PM2.5,58,158,90
India,West_Bengal,Kolkata,"Ballygunge, Kolkata - WBPCB",13-03-2024 01:00:00,22.5367507,88.3638022,PM10,64,144,107
India,West_Bengal,Kolkata,"Ballygunge, Kolkata - WBPCB",13-03-2024 01:00:00,22.5367507,88.3638022,NO2,NA,NA,NA
India,West_Bengal,Kolkata,"Ballygunge, Kolkata - WBPCB",13-03-2024 01:00:00,22.5367507,88.3638022,OZONE,12,81,33
India,West_Bengal,Kolkata,"Bidhannagar, Kolkata - WBPCB",13-03-2024 01:00:00,22.58157048,88.41002457,PM10,49,139,97
India,West_Bengal,Kolkata,"Fort William, Kolkata - WBPCB",13-03-2024 01:00:00,22.556640,88.342674,PM2.5,43,148,82
India,West_Bengal,Kolkata,"Rabindra Bharati University, Kolkata - WBPCB",13-03-2024 01:00:00,22.627847,88.380669,PM2.5,57,124,83
India,West_Bengal,Kolkata,"Rabindra Bharati University, Kolkata - WBPCB",13-03-2024 01:00:00,22.627847,88.380669,PM10,79,131,103
India,West_Bengal,Kolkata,"Rabindra Bharati University, Kolkata - WBPCB",13-03-2024 01:00:00,22.627847,88.380669,OZONE,4,68,27
India,West_Bengal,Kolkata,"Rabindra Sarobar, Kolkata - WBPCB",13-03-2024 01:00:00,22.51106,88.35142,PM2.5,48,140,77
India,West_Bengal,Kolkata,"Rabindra Sarobar, Kolkata - WBPCB",13-03-2024 01:00:00,22.51106,88.35142,OZONE,3,90,17
India,West_Bengal,Siliguri,"Ward-32 Bapupara, Siliguri - WBPCB",13-03-2024 01:00:00,26.6879226,88.4152495,SO2,12,21,16
India,West_Bengal,Siliguri,"Ward-32 Bapupara, Siliguri - WBPCB",13-03-2024 01:00:00,26.6879226,88.4152495,OZONE,9,82,29
India,Andhra_Pradesh,Amaravati,"Secretariat, Amaravati - APPCB",13-03-2024 01:00:00,16.5150833,80.5181667,CO,26,48,36
India,Andhra_Pradesh,Amaravati,"Secretariat, Amaravati - APPCB",13-03-2024 01:00:00,16.5150833,80.5181667,OZONE,15,68,40
India,Andhra_Pradesh,Anantapur,"Gulzarpet, Anantapur - APPCB",13-03-2024 01:00:00,14.675886,77.593027,CO,28,56,38
India,Andhra_Pradesh,Kadapa,"Yerramukkapalli, Kadapa - APPCB",13-03-2024 01:00:00,14.465052,78.824187,PM2.5,22,63,45
India,Andhra_Pradesh,Rajamahendravaram,"Anand Kala Kshetram, Rajamahendravaram - APPCB",13-03-2024 01:00:00,16.9872867,81.7363176,PM2.5,38,97,55
India,Andhra_Pradesh,Rajamahendravaram,"Anand Kala Kshetram, Rajamahendravaram - APPCB",13-03-2024 01:00:00,16.9872867,81.7363176,PM10,52,105,69
India,Andhra_Pradesh,Tirupati,"Tirumala, Tirupati - APPCB",13-03-2024 01:00:00,13.67,79.35,CO,20,30,25
India,Andhra_Pradesh,Tirupati,"Vaikuntapuram, Tirupati - APPCB",13-03-2024 01:00:00,13.615387,79.409230,PM2.5,31,177,74
India,Andhra_Pradesh,Tirupati,"Vaikuntapuram, Tirupati - APPCB",13-03-2024 01:00:00,13.615387,79.409230,NH3,2,3,2
India,Andhra_Pradesh,Tirupati,"Vaikuntapuram, Tirupati - APPCB",13-03-2024 01:00:00,13.615387,79.409230,SO2,4,5,5
India,Andhra_Pradesh,Tirupati,"Vaikuntapuram, Tirupati - APPCB",13-03-2024 01:00:00,13.615387,79.409230,OZONE,17,61,59
India,Andhra_Pradesh,Vijayawada,"HB Colony, Vijayawada - APPCB",13-03-2024 01:00:00,16.536107,80.594233,PM10,61,82,72
India,Andhra_Pradesh,Vijayawada,"HB Colony, Vijayawada - APPCB",13-03-2024 01:00:00,16.536107,80.594233,SO2,3,4,4
India,Andhra_Pradesh,Vijayawada,"Kanuru, Vijayawada - APPCB",13-03-2024 01:00:00,16.486692,80.699436,NH3,1,1,1
India,Andhra_Pradesh,Vijayawada,"Kanuru, Vijayawada - APPCB",13-03-2024 01:00:00,16.486692,80.699436,SO2,7,12,10
India,Andhra_Pradesh,Vijayawada,"Rajiv Gandhi Park, Vijayawada - APPCB",13-03-2024 01:00:00,16.509717,80.612222,OZONE,2,62,23
India,Andhra_Pradesh,Vijayawada,"Rajiv Nagar, Vijayawada - APPCB",13-03-2024 01:00:00,16.554731,80.649110,PM2.5,59,70,62
India,Andhra_Pradesh,Vijayawada,"Rajiv Nagar, Vijayawada - APPCB",13-03-2024 01:00:00,16.554731,80.649110,NH3,1,2,1
India,Andhra_Pradesh,Visakhapatnam,"GVM Corporation, Visakhapatnam - APPCB",13-03-2024 01:00:00,17.72,83.3,PM2.5,50,143,84
India,Andhra_Pradesh,Visakhapatnam,"GVM Corporation, Visakhapatnam - APPCB",13-03-2024 01:00:00,17.72,83.3,CO,15,101,35
India,Arunachal_Pradesh,Naharlagun,"Naharlagun, Naharlagun - APSPCB",13-03-2024 01:00:00,27.103358,93.679645,NO2,NA,NA,NA
India,Assam,Byrnihat,"Central Academy for SFS, Byrnihat - PCBA",13-03-2024 01:00:00,26.071318,91.87488,NH3,5,8,7
India,Assam,Guwahati,"IITG, Guwahati - PCBA",13-03-2024 01:00:00,26.2028636,91.70046436,PM10,NA,NA,NA
India,Assam,Guwahati,"IITG, Guwahati - PCBA",13-03-2024 01:00:00,26.2028636,91.70046436,NH3,NA,NA,NA
India,Assam,Guwahati,"LGBI Airport, Guwahati - PCBA",13-03-2024 01:00:00,26.10887,91.589544,SO2,11,18,14
India,Assam,Guwahati,"Pan Bazaar, Guwahati - PCBA",13-03-2024 01:00:00,26.187500,91.744194,PM10,125,377,222
India,Assam,Nagaon,"Christianpatty, Nagaon - PCBA",13-03-2024 01:00:00,26.349082,92.68449,PM2.5,103,356,173
India,Assam,Silchar,"Tarapur, Silchar - PCBA",13-03-2024 01:00:00,24.82827,92.79525,NO2,14,39,28
India,Bihar,Araria,"Kharahiya Basti, Araria - BSPCB",13-03-2024 01:00:00,26.146529,87.454184,SO2,9,21,16
India,Bihar,Aurangabad,"Gurdeo Nagar, Aurangabad - BSPCB",13-03-2024 01:00:00,24.75746,84.366208,PM10,NA,NA,NA
India,Bihar,Aurangabad,"Gurdeo Nagar, Aurangabad - BSPCB",13-03-2024 01:00:00,24.75746,84.366208,NO2,NA,NA,NA
India,Bihar,Aurangabad,"Gurdeo Nagar, Aurangabad - BSPCB",13-03-2024 01:00:00,24.75746,84.366208,SO2,NA,NA,NA
India,Bihar,Aurangabad,"Gurdeo Nagar, Aurangabad - BSPCB",13-03-2024 01:00:00,24.75746,84.366208,OZONE,NA,NA,NA
India,Bihar,Bettiah,"Kamalnath Nagar, Bettiah - BSPCB",13-03-2024 01:00:00,26.80365,84.51954,NH3,3,6,3
India,Bihar,Bhagalpur,"DM Office_Kachari Chowk, Bhagalpur - BSPCB",13-03-2024 01:00:00,25.251013,86.989001,PM2.5,72,203,110
India,Bihar,Bhagalpur,"DM Office_Kachari Chowk, Bhagalpur - BSPCB",13-03-2024 01:00:00,25.251013,86.989001,NH3,9,13,11
India,Bihar,Bihar Sharif,"D M Colony, Bihar Sharif - BSPCB",13-03-2024 01:00:00,25.204762,85.514960,NH3,2,2,2
India,Bihar,Buxar,"Charitra Van, Buxar - BSPCB (Formerly known as Central Jail)",13-03-2024 01:00:00,25.567520,83.966379,NH3,1,3,2
India,Bihar,Chhapra,"Darshan Nagar, Chhapra - BSPCB",13-03-2024 01:00:00,25.7808257,84.7446768,NO2,NA,NA,NA
India,Bihar,Chhapra,"Darshan Nagar, Chhapra - BSPCB",13-03-2024 01:00:00,25.7808257,84.7446768,OZONE,11,28,17
India,Bihar,Hajipur,"Industrial Area, Hajipur - BSPCB",13-03-2024 01:00:00,25.697189,85.245900,NH3,16,17,17
India,Bihar,Hajipur,"Industrial Area, Hajipur - BSPCB",13-03-2024 01:00:00,25.697189,85.245900,SO2,7,10,8
India,Bihar,Hajipur,"Industrial Area, Hajipur - BSPCB",13-03-2024 01:00:00,25.697189,85.245900,CO,32,55,42
India,Bihar,Katihar,"Mirchaibari, Katihar - BSPCB",13-03-2024 01:00:00,25.560083,87.553265,PM10,79,155,108
India,Bihar,Katihar,"Mirchaibari, Katihar - BSPCB",13-03-2024 01:00:00,25.560083,87.553265,NO2,16,42,26
India,Bihar,Manguraha,"Forest Rest House, Manguraha - BSPCB",13-03-2024 01:00:00,27.308328,84.531742,NH3,1,2,1
India,Bihar,Manguraha,"Forest Rest House, Manguraha - BSPCB",13-03-2024 01:00:00,27.308328,84.531742,SO2,2,3,3
India,Bihar,Motihari,"Gandak Colony, Motihari - BSPCB",13-03-2024 01:00:00,26.63086,84.90051,OZONE,34,168,86
India,Bihar,Munger,"Town Hall, Munger - BSPCB",13-03-2024 01:00:00,25.376776,86.471523,PM10,99,227,125
India,Bihar,Munger,"Town Hall, Munger - BSPCB",13-03-2024 01:00:00,25.376776,86.471523,NO2,7,10,9
India,Bihar,Muzaffarpur,"MIT-Daudpur Kothi, Muzaffarpur - BSPCB",13-03-2024 01:00:00,26.1403345,85.3650192,OZONE,16,67,41
India,Bihar,Muzaffarpur,"Muzaffarpur Collectorate, Muzaffarpur - BSPCB",13-03-2024 01:00:00,26.1209,85.3647,NO2,10,14,11
India,Bihar,Patna,"DRM Office Danapur, Patna - BSPCB",13-03-2024 01:00:00,25.586562,85.043586,NO2,14,68,39
India,Bihar,Patna,"Govt. High School Shikarpur, Patna - BSPCB",13-03-2024 01:00:00,25.592539,85.227158,SO2,NA,NA,NA
India,Bihar,Patna,"Govt. High School Shikarpur, Patna - BSPCB",13-03-2024 01:00:00,25.592539,85.227158,OZONE,5,6,6
India,Bihar,Patna,"IGSC Planetarium Complex, Patna - BSPCB",13-03-2024 01:00:00,25.610369,85.132568,PM2.5,67,236,133
India,Bihar,Patna,"IGSC Planetarium Complex, Patna - BSPCB",13-03-2024 01:00:00,25.610369,85.132568,SO2,5,6,5
India,Bihar,Patna,"IGSC Planetarium Complex, Patna - BSPCB",13-03-2024 01:00:00,25.610369,85.132568,CO,12,14,13
India,Bihar,Patna,"Muradpur, Patna - BSPCB",13-03-2024 01:00:00,25.619651,85.147382,PM2.5,98,288,192
India,Bihar,Patna,"Muradpur, Patna - BSPCB",13-03-2024 01:00:00,25.619651,85.147382,OZONE,3,37,13
India,Bihar,Patna,"Rajbansi Nagar, Patna - BSPCB",13-03-2024 01:00:00,25.599486,85.113666,PM10,106,165,142
India,Bihar,Patna,"Rajbansi Nagar, Patna - BSPCB",13-03-2024 01:00:00,25.599486,85.113666,NO2,22,44,29
India,Bihar,Patna,"Samanpura, Patna - BSPCB",13-03-2024 01:00:00,25.596727,85.085624,NO2,26,62,45
India,Bihar,Purnia,"Mariam Nagar, Purnia - BSPCB",13-03-2024 01:00:00,25.366336,87.117468,NH3,1,1,1
India,Bihar,Purnia,"Mariam Nagar, Purnia - BSPCB",13-03-2024 01:00:00,25.366336,87.117468,CO,20,60,53
India,Bihar,Rajgir,"Dangi Tola, Rajgir - BSPCB",13-03-2024 01:00:00,25.03280,85.41948,NO2,1,1,1
India,Bihar,Rajgir,"Dangi Tola, Rajgir - BSPCB",13-03-2024 01:00:00,25.03280,85.41948,CO,10,11,10
India,Bihar,Saharsa,"Police Line, Saharsa - BSPCB",13-03-2024 01:00:00,25.892357,86.590325,PM10,93,155,117
India,Bihar,Saharsa,"Police Line, Saharsa - BSPCB",13-03-2024 01:00:00,25.892357,86.590325,NO2,5,8,7
India,Bihar,Saharsa,"Police Line, Saharsa - BSPCB",13-03-2024 01:00:00,25.892357,86.590325,NH3,8,10,9
India,Bihar,Saharsa,"Police Line, Saharsa - BSPCB",13-03-2024 01:00:00,25.892357,86.590325,OZONE,17,58,38
India,Bihar,Samastipur,"DM Office_Kasipur, Samastipur - BSPCB",13-03-2024 01:00:00,25.859655,85.77944,PM2.5,37,103,72
India,Bihar,Samastipur,"DM Office_Kasipur, Samastipur - BSPCB",13-03-2024 01:00:00,25.859655,85.77944,NO2,2,26,8
India,Bihar,Samastipur,"DM Office_Kasipur, Samastipur - BSPCB",13-03-2024 01:00:00,25.859655,85.77944,OZONE,10,27,12
India,Bihar,Siwan,"Chitragupta Nagar, Siwan - BSPCB",13-03-2024 01:00:00,26.2271665,84.3570427,PM10,86,161,117
India,Chandigarh,Chandigarh,"Sector 22, Chandigarh - CPCC",13-03-2024 01:00:00,30.735567,76.775714,SO2,5,76,18
India,Chandigarh,Chandigarh,"Sector-53, Chandigarh - CPCC",13-03-2024 01:00:00,30.719859,76.738637,OZONE,7,69,38
India,Chhattisgarh,Bhilai,"32Bungalows, Bhilai - CECB",13-03-2024 01:00:00,21.194815,81.314770,PM10,49,80,60
India,Chhattisgarh,Bhilai,"Hathkhoj, Bhilai - CECB",13-03-2024 01:00:00,21.224231,81.408350,PM2.5,26,143,84
India,Chhattisgarh,Bhilai,"Hathkhoj, Bhilai - CECB",13-03-2024 01:00:00,21.224231,81.408350,NH3,7,8,8
India,Chhattisgarh,Bilaspur,"Mangala, Bilaspur - NTPC",13-03-2024 01:00:00,22.08815,82.13737,PM10,32,71,51
India,Chhattisgarh,Korba,"Rampur, Korba - CECB",13-03-2024 01:00:00,22.368195,82.746431,NO2,NA,NA,NA
India,Chhattisgarh,Kunjemura,"OP Jindal School, Kunjemura - CECB",13-03-2024 01:00:00,22.126650,83.483212,NO2,14,101,52
India,Chhattisgarh,Kunjemura,"OP Jindal School, Kunjemura - CECB",13-03-2024 01:00:00,22.126650,83.483212,NH3,1,4,2
India,Chhattisgarh,Milupara,"Govt. Higher Secondary School, Milupara - CECB",13-03-2024 01:00:00,22.1910172,83.5197009,OZONE,2,2,2
India,Chhattisgarh,Raipur,"AIIMS, Raipur - CECB",13-03-2024 01:00:00,21.258815,81.578979,NH3,6,6,6
India,Chhattisgarh,Raipur,"AIIMS, Raipur - CECB",13-03-2024 01:00:00,21.258815,81.578979,CO,27,45,34
India,Chhattisgarh,Raipur,"Bhatagaon New ISBT, Raipur - CECB",13-03-2024 01:00:00,21.219665,81.630094,SO2,3,6,5
India,Chhattisgarh,Raipur,"Bhatagaon New ISBT, Raipur - CECB",13-03-2024 01:00:00,21.219665,81.630094,OZONE,3,7,4
India,Chhattisgarh,Raipur,"Krishak Nagar, Raipur - CECB",13-03-2024 01:00:00,21.237755,81.705301,PM2.5,35,74,59
India,Chhattisgarh,Raipur,"Krishak Nagar, Raipur - CECB",13-03-2024 01:00:00,21.237755,81.705301,NO2,24,43,35
India,Chhattisgarh,Raipur,"Siltara Phase-II, Raipur - CECB",13-03-2024 01:00:00,21.371751,81.664929,PM2.5,NA,NA,NA
India,Chhattisgarh,Tumidih,"OP Jindal Industrial Park, Tumidih - CECB",13-03-2024 01:00:00,22.06631475,83.33820077,NO2,NA,NA,NA
India,Chhattisgarh,Tumidih,"OP Jindal Industrial Park, Tumidih - CECB",13-03-2024 01:00:00,22.06631475,83.33820077,SO2,NA,NA,NA
India,Chhattisgarh,Tumidih,"OP Jindal Industrial Park, Tumidih - CECB",13-03-2024 01:00:00,22.06631475,83.33820077,OZONE,NA,NA,NA
India,Delhi,Delhi,"Alipur, Delhi - DPCC",13-03-2024 01:00:00,28.815329,77.153010,SO2,NA,NA,NA
India,Delhi,Delhi,"Alipur, Delhi - DPCC",13-03-2024 01:00:00,28.815329,77.153010,OZONE,8,105,40
India,Delhi,Delhi,"Ashok Vihar, Delhi - DPCC",13-03-2024 01:00:00,28.695381,77.181665,PM2.5,38,336,147
India,Delhi,Delhi,"Ashok Vihar, Delhi - DPCC",13-03-2024 01:00:00,28.695381,77.181665,PM10,91,314,164
India,Delhi,Delhi,"Aya Nagar, Delhi - IMD",13-03-2024 01:00:00,28.4706914,77.1099364,NO2,27,80,40
India,Delhi,Delhi,"Bawana, Delhi - DPCC",13-03-2024 01:00:00,28.776200,77.051074,PM2.5,77,464,209
India,Delhi,Delhi,"Bawana, Delhi - DPCC",13-03-2024 01:00:00,28.776200,77.051074,PM10,111,427,186
India,Delhi,Delhi,"CRRI Mathura Road, Delhi - IMD",13-03-2024 01:00:00,28.5512005,77.2735737,CO,30,86,51
India,Delhi,Delhi,"Chandni Chowk, Delhi - IITM",13-03-2024 01:00:00,28.656756,77.227234,PM2.5,158,336,248
India,Delhi,Delhi,"Chandni Chowk, Delhi - IITM",13-03-2024 01:00:00,28.656756,77.227234,NO2,10,101,29
India,Delhi,Delhi,"Chandni Chowk, Delhi - IITM",13-03-2024 01:00:00,28.656756,77.227234,OZONE,13,26,17
India,Delhi,Delhi,"DTU, Delhi - CPCB",13-03-2024 01:00:00,28.7500499,77.1112615,NH3,9,13,11
India,Delhi,Delhi,"DTU, Delhi - CPCB",13-03-2024 01:00:00,28.7500499,77.1112615,OZONE,26,78,43
India,Delhi,Delhi,"Dwarka-Sector 8, Delhi - DPCC ",13-03-2024 01:00:00,28.5710274,77.0719006,CO,18,96,34
India,Delhi,Delhi,"IGI Airport (T3), Delhi - IMD",13-03-2024 01:00:00,28.5627763,77.1180053,NO2,22,78,47
India,Delhi,Delhi,"ITO, Delhi - CPCB",13-03-2024 01:00:00,28.628624,77.241060,NO2,1,115,63
India,Delhi,Delhi,"ITO, Delhi - CPCB",13-03-2024 01:00:00,28.628624,77.241060,CO,22,100,51
India,Delhi,Delhi,"Jahangirpuri, Delhi - DPCC",13-03-2024 01:00:00,28.732820,77.170633,PM2.5,57,404,226
India,Delhi,Delhi,"Jahangirpuri, Delhi - DPCC",13-03-2024 01:00:00,28.732820,77.170633,PM10,112,411,224
India,Delhi,Delhi,"Jahangirpuri, Delhi - DPCC",13-03-2024 01:00:00,28.732820,77.170633,NO2,28,113,57
India,Delhi,Delhi,"Jawaharlal Nehru Stadium, Delhi - DPCC",13-03-2024 01:00:00,28.580280,77.233829,OZONE,1,200,58
India,Delhi,Delhi,"Lodhi Road, Delhi - IITM",13-03-2024 01:00:00,28.588333,77.221667,PM10,53,338,113
India,Delhi,Delhi,"Lodhi Road, Delhi - IMD",13-03-2024 01:00:00,28.5918245,77.2273074,PM10,88,245,115
India,Delhi,Delhi,"Major Dhyan Chand National Stadium, Delhi - DPCC",13-03-2024 01:00:00,28.611281,77.237738,CO,72,105,89
India,Delhi,Delhi,"Mandir Marg, Delhi - DPCC",13-03-2024 01:00:00,28.636429,77.201067,SO2,3,15,9
India,Delhi,Delhi,"Mundka, Delhi - DPCC",13-03-2024 01:00:00,28.684678,77.076574,SO2,8,26,14
India,Delhi,Delhi,"Mundka, Delhi - DPCC",13-03-2024 01:00:00,28.684678,77.076574,OZONE,14,14,14
India,Delhi,Delhi,"NSIT Dwarka, Delhi - CPCB",13-03-2024 01:00:00,28.60909,77.0325413,PM10,NA,NA,NA
India,Delhi,Delhi,"Najafgarh, Delhi - DPCC",13-03-2024 01:00:00,28.570173,76.933762,CO,5,88,27
India,Delhi,Delhi,"Narela, Delhi - DPCC",13-03-2024 01:00:00,28.822836,77.101981,SO2,7,43,20
India,Delhi,Delhi,"Nehru Nagar, Delhi - DPCC",13-03-2024 01:00:00,28.567890,77.250515,PM10,98,286,152
India,Delhi,Delhi,"Nehru Nagar, Delhi - DPCC",13-03-2024 01:00:00,28.567890,77.250515,CO,34,98,65
India,Delhi,Delhi,"Nehru Nagar, Delhi - DPCC",13-03-2024 01:00:00,28.567890,77.250515,OZONE,3,134,42
India,Delhi,Delhi,"Okhla Phase-2, Delhi - DPCC",13-03-2024 01:00:00,28.530785,77.271255,PM10,103,284,159
India,Delhi,Delhi,"Okhla Phase-2, Delhi - DPCC",13-03-2024 01:00:00,28.530785,77.271255,CO,40,88,72
India,Delhi,Delhi,"Patparganj, Delhi - DPCC",13-03-2024 01:00:00,28.623763,77.287209,SO2,16,20,18
India,Delhi,Delhi,"Punjabi Bagh, Delhi - DPCC",13-03-2024 01:00:00,28.674045,77.131023,PM10,98,317,155
India,Delhi,Delhi,"Punjabi Bagh, Delhi - DPCC",13-03-2024 01:00:00,28.674045,77.131023,NH3,2,2,2
India,Delhi,Delhi,"Punjabi Bagh, Delhi - DPCC",13-03-2024 01:00:00,28.674045,77.131023,CO,27,64,43
India,Delhi,Delhi,"Punjabi Bagh, Delhi - DPCC",13-03-2024 01:00:00,28.674045,77.131023,OZONE,6,50,17
India,Delhi,Delhi,"Pusa, Delhi - DPCC",13-03-2024 01:00:00,28.639652,77.146275,PM2.5,55,366,153
India,Delhi,Delhi,"Pusa, Delhi - DPCC",13-03-2024 01:00:00,28.639652,77.146275,NO2,62,130,104
India,Delhi,Delhi,"Pusa, Delhi - DPCC",13-03-2024 01:00:00,28.639652,77.146275,CO,44,104,62
India,Delhi,Delhi,"Pusa, Delhi - DPCC",13-03-2024 01:00:00,28.639652,77.146275,OZONE,9,79,26
India,Delhi,Delhi,"Pusa, Delhi - IMD",13-03-2024 01:00:00,28.636110,77.173332,PM10,NA,NA,NA
India,Delhi,Delhi,"R K Puram, Delhi - DPCC",13-03-2024 01:00:00,28.563262,77.186937,NO2,15,55,37
India,Delhi,Delhi,"Rohini, Delhi - DPCC",13-03-2024 01:00:00,28.732528,77.119920,CO,21,102,37
India,Delhi,Delhi,"Shadipur, Delhi - CPCB",13-03-2024 01:00:00,28.6514781,77.1473105,NH3,1,9,6
India,Delhi,Delhi,"Shadipur, Delhi - CPCB",13-03-2024 01:00:00,28.6514781,77.1473105,CO,28,72,48
India,Delhi,Delhi,"Sirifort, Delhi - CPCB",13-03-2024 01:00:00,28.5504249,77.2159377,SO2,40,49,42
India,Delhi,Delhi,"Sonia Vihar, Delhi - DPCC",13-03-2024 01:00:00,28.710508,77.249485,NH3,5,7,6
India,Delhi,Delhi,"Sri Aurobindo Marg, Delhi - DPCC",13-03-2024 01:00:00,28.531346,77.190156,SO2,10,50,20
India,Delhi,Delhi,"Vivek Vihar, Delhi - DPCC",13-03-2024 01:00:00,28.672342,77.315260,PM10,101,309,148
India,Delhi,Delhi,"Vivek Vihar, Delhi - DPCC",13-03-2024 01:00:00,28.672342,77.315260,OZONE,3,68,15
India,Delhi,Delhi,"Wazirpur, Delhi - DPCC",13-03-2024 01:00:00,28.699793,77.165453,CO,20,104,76
India,Delhi,Delhi,"Wazirpur, Delhi - DPCC",13-03-2024 01:00:00,28.699793,77.165453,OZONE,13,65,26
India,Gujarat,Ahmedabad,"Chandkheda, Ahmedabad - IITM",13-03-2024 01:00:00,23.107969,72.574648,PM2.5,49,222,104
India,Gujarat,Ahmedabad,"Chandkheda, Ahmedabad - IITM",13-03-2024 01:00:00,23.107969,72.574648,PM10,54,146,92
India,Gujarat,Ahmedabad,"Gyaspur, Ahmedabad - IITM",13-03-2024 01:00:00,22.977134,72.553024,PM10,33,381,131
India,Gujarat,Ahmedabad,"Gyaspur, Ahmedabad - IITM",13-03-2024 01:00:00,22.977134,72.553024,SO2,3,6,5
India,Gujarat,Ahmedabad,"Maninagar, Ahmedabad - GPCB",13-03-2024 01:00:00,23.002657,72.591912,CO,17,98,65
India,Gujarat,Ahmedabad,"Maninagar, Ahmedabad - GPCB",13-03-2024 01:00:00,23.002657,72.591912,OZONE,10,105,28
India,Gujarat,Ahmedabad,"Raikhad, Ahmedabad - IITM",13-03-2024 01:00:00,23.020509,72.579261,PM10,2,264,94
India,Gujarat,Ahmedabad,"Rakhial, Ahmedabad - IITM",13-03-2024 01:00:00,23.016834,72.625775,PM10,28,414,124
India,Gujarat,Ahmedabad,"Rakhial, Ahmedabad - IITM",13-03-2024 01:00:00,23.016834,72.625775,NH3,6,29,20
India,Gujarat,Ahmedabad,"Rakhial, Ahmedabad - IITM",13-03-2024 01:00:00,23.016834,72.625775,OZONE,1,31,11
India,Gujarat,Ahmedabad,"SAC ISRO Satellite, Ahmedabad - IITM",13-03-2024 01:00:00,23.023389,72.515201,SO2,2,14,4
India,Gujarat,Ahmedabad,"SAC ISRO Satellite, Ahmedabad - IITM",13-03-2024 01:00:00,23.023389,72.515201,CO,20,26,26
India,Gujarat,Ahmedabad,"SVPI Airport Hansol, Ahmedabad - IITM",13-03-2024 01:00:00,23.076793,72.627874,SO2,7,7,7
India,Gujarat,Ahmedabad,"Sardar Vallabhbhai Patel Stadium, Ahmedabad - IITM",13-03-2024 01:00:00,23.043070,72.562968,CO,31,102,63
India,Gujarat,Ankleshwar,"GIDC, Ankleshwar - GPCB",13-03-2024 01:00:00,21.613267,73.010555,NH3,7,7,7
India,Gujarat,Gandhinagar,"IIPHG Lekawada, Gandhinagar - IITM",13-03-2024 01:00:00,23.243639,72.68994,NO2,28,33,30
India,Gujarat,Gandhinagar,"Sector-10, Gandhinagar - GPCB",13-03-2024 01:00:00,23.221714,72.654328,NO2,9,18,14
India,Gujarat,Nandesari,"GIDC, Nandesari - Nandesari Ind. Association",13-03-2024 01:00:00,22.410802,73.097923,SO2,1,14,7
India,Gujarat,Surat,"Science Center, Surat - SMC",13-03-2024 01:00:00,21.170046,72.795405,CO,46,102,70
India,Haryana,Ambala,"Patti Mehar, Ambala - HSPCB",13-03-2024 01:00:00,30.379589,76.778328,PM2.5,39,109,66
India,Haryana,Bahadurgarh,"Arya Nagar, Bahadurgarh - HSPCB",13-03-2024 01:00:00,28.6701,76.9254,CO,40,54,48
India,Haryana,Ballabgarh,"Nathu Colony, Ballabgarh - HSPCB",13-03-2024 01:00:00,28.3419248,77.319699,NH3,1,2,2
India,Haryana,Ballabgarh,"Nathu Colony, Ballabgarh - HSPCB",13-03-2024 01:00:00,28.3419248,77.319699,OZONE,1,29,10
India,Haryana,Bhiwani,"H.B. Colony, Bhiwani - HSPCB",13-03-2024 01:00:00,28.806223,76.141105,NH3,6,6,6
India,Haryana,Bhiwani,"H.B. Colony, Bhiwani - HSPCB",13-03-2024 01:00:00,28.806223,76.141105,CO,26,39,29
India,Haryana,Charkhi Dadri,"Mini Secretariat, Charkhi Dadri - HSPCB",13-03-2024 01:00:00,28.593883,76.270653,NH3,6,6,6
India,Haryana,Charkhi Dadri,"Mini Secretariat, Charkhi Dadri - HSPCB",13-03-2024 01:00:00,28.593883,76.270653,SO2,12,15,13
India,Haryana,Dharuhera,"Municipal Corporation Office, Dharuhera -  HSPCB",13-03-2024 01:00:00,28.206800,76.799700,NH3,9,26,19
India,Haryana,Faridabad,"New Industrial Town, Faridabad - HSPCB",13-03-2024 01:00:00,28.39072,77.30059,NO2,15,28,21
India,Haryana,Faridabad,"New Industrial Town, Faridabad - HSPCB",13-03-2024 01:00:00,28.39072,77.30059,NH3,4,6,5
India,Haryana,Faridabad,"New Industrial Town, Faridabad - HSPCB",13-03-2024 01:00:00,28.39072,77.30059,SO2,18,31,25
India,Haryana,Faridabad,"Sector 11, Faridabad - HSPCB",13-03-2024 01:00:00,28.376058,77.315741,PM10,44,187,129
India,Haryana,Faridabad,"Sector 30, Faridabad - HSPCB",13-03-2024 01:00:00,28.4417,77.3217,NO2,NA,NA,NA
India,Haryana,Faridabad,"Sector 30, Faridabad - HSPCB",13-03-2024 01:00:00,28.4417,77.3217,CO,54,94,68
India,Haryana,Faridabad,"Sector 30, Faridabad - HSPCB",13-03-2024 01:00:00,28.4417,77.3217,OZONE,6,19,10
India,Haryana,Fatehabad,"Huda Sector, Fatehabad - HSPCB",13-03-2024 01:00:00,29.503664,75.467934,PM10,55,100,77
India,Haryana,Fatehabad,"Huda Sector, Fatehabad - HSPCB",13-03-2024 01:00:00,29.503664,75.467934,SO2,6,12,8
India,Haryana,Gurugram,"Sector-51, Gurugram - HSPCB",13-03-2024 01:00:00,28.4227,77.0667,SO2,3,5,4
India,Haryana,Gurugram,"Vikas Sadan, Gurugram - HSPCB",13-03-2024 01:00:00,28.4501238,77.0263051,SO2,31,54,43
India,Haryana,Gurugram,"Vikas Sadan, Gurugram - HSPCB",13-03-2024 01:00:00,28.4501238,77.0263051,OZONE,8,69,22
India,Haryana,Jind,"Police Lines, Jind - HSPCB",13-03-2024 01:00:00,29.307814,76.337619,OZONE,10,21,19
India,Haryana,Kaithal,"Rishi Nagar, Kaithal - HSPCB",13-03-2024 01:00:00,29.8006,76.4155,PM10,91,165,124
India,Haryana,Kaithal,"Rishi Nagar, Kaithal - HSPCB",13-03-2024 01:00:00,29.8006,76.4155,CO,3,40,14
India,Haryana,Karnal,"Sector-12, Karnal - HSPCB",13-03-2024 01:00:00,29.695300,77.002700,PM2.5,NA,NA,NA
India,Haryana,Karnal,"Sector-12, Karnal - HSPCB",13-03-2024 01:00:00,29.695300,77.002700,PM10,NA,NA,NA
India,Haryana,Karnal,"Sector-12, Karnal - HSPCB",13-03-2024 01:00:00,29.695300,77.002700,NH3,10,13,11
India,Haryana,Karnal,"Sector-12, Karnal - HSPCB",13-03-2024 01:00:00,29.695300,77.002700,CO,12,56,30
India,Haryana,Karnal,"Sector-12, Karnal - HSPCB",13-03-2024 01:00:00,29.695300,77.002700,OZONE,25,36,33
India,Haryana,Kurukshetra,"Sector-7, Kurukshetra - HSPCB",13-03-2024 01:00:00,29.966942,76.875879,PM10,61,117,88
India,Haryana,Kurukshetra,"Sector-7, Kurukshetra - HSPCB",13-03-2024 01:00:00,29.966942,76.875879,CO,2,29,16
India,Haryana,Mandikhera,"General Hospital, Mandikhera - HSPCB",13-03-2024 01:00:00,27.9002,76.9938,PM10,78,140,107
India,Haryana,Mandikhera,"General Hospital, Mandikhera - HSPCB",13-03-2024 01:00:00,27.9002,76.9938,NH3,18,21,19
India,Haryana,Mandikhera,"General Hospital, Mandikhera - HSPCB",13-03-2024 01:00:00,27.9002,76.9938,SO2,31,38,34
India,Haryana,Manesar,"Sector-2 IMT, Manesar - HSPCB",13-03-2024 01:00:00,28.360699,76.936090,NO2,15,23,20
India,Haryana,Narnaul,"Shastri Nagar, Narnaul - HSPCB",13-03-2024 01:00:00,28.060249,76.113115,NO2,12,49,26
India,Haryana,Panchkula,"Sector-6, Panchkula - HSPCB ",13-03-2024 01:00:00,30.7057778,76.8531805555555,SO2,11,12,12
India,Haryana,Panchkula,"Sector-6, Panchkula - HSPCB ",13-03-2024 01:00:00,30.7057778,76.8531805555555,CO,8,18,9
India,Haryana,Panipat,"Sector-18, Panipat - HSPCB",13-03-2024 01:00:00,29.497973,76.993331,PM2.5,146,153,150
India,Haryana,Panipat,"Sector-18, Panipat - HSPCB",13-03-2024 01:00:00,29.497973,76.993331,PM10,84,86,85
India,Haryana,Panipat,"Sector-18, Panipat - HSPCB",13-03-2024 01:00:00,29.497973,76.993331,SO2,18,19,19
India,Haryana,Rohtak,"MD University, Rohtak - HSPCB",13-03-2024 01:00:00,28.52123,76.37138,NO2,45,55,51
India,Haryana,Rohtak,"MD University, Rohtak - HSPCB",13-03-2024 01:00:00,28.52123,76.37138,OZONE,44,55,50
India,Haryana,Sirsa,"F-Block, Sirsa - HSPCB",13-03-2024 01:00:00,29.536400,75.015800,PM2.5,2,95,48
India,Haryana,Yamuna Nagar,"Gobind Pura, Yamuna Nagar - HSPCB",13-03-2024 01:00:00,30.1480566,77.2893471,PM10,69,180,104
India,Himachal Pradesh,Baddi,"HIMUDA Complex Phase-1, Baddi - HPPCB",13-03-2024 01:00:00,30.943887,76.801991,PM2.5,13,352,186
India,Himachal Pradesh,Baddi,"HIMUDA Complex Phase-1, Baddi - HPPCB",13-03-2024 01:00:00,30.943887,76.801991,PM10,48,378,160
India,Jharkhand,Dhanbad,"Sardar Patel Nagar, Dhanbad - JSPCB",13-03-2024 01:00:00,23.80569,86.44268,SO2,NA,NA,NA
India,Karnataka,Bagalkot,"Vidayagiri, Bagalkot - KSPCB",13-03-2024 01:00:00,16.172806,75.659694,NH3,1,2,1
India,Karnataka,Belgaum,"Ramteerth Nagar, Belgaum - KSPCB",13-03-2024 01:00:00,15.888653,74.541751,NO2,24,31,28
India,Karnataka,Belgaum,"Ramteerth Nagar, Belgaum - KSPCB",13-03-2024 01:00:00,15.888653,74.541751,CO,27,49,34
India,Karnataka,Belgaum,"Ramteerth Nagar, Belgaum - KSPCB",13-03-2024 01:00:00,15.888653,74.541751,OZONE,18,20,19
India,Karnataka,Bengaluru,"BTM Layout, Bengaluru - CPCB",13-03-2024 01:00:00,12.9135218,77.5950804,NO2,28,29,28
India,Karnataka,Bengaluru,"BTM Layout, Bengaluru - CPCB",13-03-2024 01:00:00,12.9135218,77.5950804,CO,37,46,38
India,Karnataka,Bengaluru,"Bapuji Nagar, Bengaluru - KSPCB",13-03-2024 01:00:00,12.951913,77.539784,PM2.5,86,186,134
India,Karnataka,Bengaluru,"Bapuji Nagar, Bengaluru - KSPCB",13-03-2024 01:00:00,12.951913,77.539784,PM10,70,124,98
India,Karnataka,Bengaluru,"Bapuji Nagar, Bengaluru - KSPCB",13-03-2024 01:00:00,12.951913,77.539784,OZONE,12,13,13
India,Karnataka,Bengaluru,"Hombegowda Nagar, Bengaluru - KSPCB",13-03-2024 01:00:00,12.938539,77.590100,NH3,2,3,3
India,Karnataka,Bengaluru,"Jayanagar 5th Block, Bengaluru - KSPCB",13-03-2024 01:00:00,12.920984,77.584908,PM10,80,146,110
India,Karnataka,Bengaluru,"Kasturi Nagar, Bengaluru - KSPCB",13-03-2024 01:00:00,13.003872,77.664217,PM10,127,183,149
India,Karnataka,Bengaluru,"Kasturi Nagar, Bengaluru - KSPCB",13-03-2024 01:00:00,13.003872,77.664217,NH3,3,4,4
India,Karnataka,Bengaluru,"Peenya, Bengaluru - CPCB",13-03-2024 01:00:00,13.0270199,77.494094,SO2,12,19,15
India,Karnataka,Bengaluru,"Peenya, Bengaluru - CPCB",13-03-2024 01:00:00,13.0270199,77.494094,OZONE,NA,NA,NA
India,Karnataka,Bengaluru,"Sanegurava Halli, Bengaluru - KSPCB",13-03-2024 01:00:00,12.990328,77.5431385,PM10,NA,NA,NA
India,Karnataka,Bengaluru,"Shivapura_Peenya, Bengaluru - KSPCB",13-03-2024 01:00:00,13.0246342,77.5080115,SO2,6,58,17
India,Karnataka,Bengaluru,"Shivapura_Peenya, Bengaluru - KSPCB",13-03-2024 01:00:00,13.0246342,77.5080115,CO,25,68,40
India,Karnataka,Bengaluru,"Silk Board, Bengaluru - KSPCB",13-03-2024 01:00:00,12.917348,77.622813,OZONE,28,32,30
India,Karnataka,Bidar,"Naubad, Bidar - KSPCB",13-03-2024 01:00:00,17.930306,77.482194,NH3,3,3,3
India,Karnataka,Chamarajanagar,"Urban, Chamarajanagar - KSPCB",13-03-2024 01:00:00,11.55358,76.55521,PM2.5,21,58,39
India,Karnataka,Chamarajanagar,"Urban, Chamarajanagar - KSPCB",13-03-2024 01:00:00,11.55358,76.55521,CO,19,32,22
India,Karnataka,Chikkaballapur,"Chikkaballapur Rural, Chikkaballapur - KSPCB",13-03-2024 01:00:00,13.428828,77.731418,PM10,72,156,98
India,Karnataka,Chikkaballapur,"Chikkaballapur Rural, Chikkaballapur - KSPCB",13-03-2024 01:00:00,13.428828,77.731418,CO,18,40,35
India,Karnataka,Chikkamagaluru,"Kalyana Nagara, Chikkamagaluru - KSPCB",13-03-2024 01:00:00,13.328028,75.797056,NH3,NA,NA,NA
India,Karnataka,Dharwad,"Kalabhavan, Dharwad - KSPCB",13-03-2024 01:00:00,15.459706,75.008381,NO2,16,37,21
India,Karnataka,Gadag,"Panchal Nagar, Gadag - KSPCB",13-03-2024 01:00:00,15.411456,75.638133,SO2,14,28,17
India,Karnataka,Hassan,"B.Katihalli, Hassan - KSPCB",13-03-2024 01:00:00,13.008556,76.125258,CO,NA,NA,NA
India,Karnataka,Haveri,"Ashwini Nagar, Haveri - KSPCB",13-03-2024 01:00:00,14.791800,75.389600,NO2,7,35,21
India,Karnataka,Hubballi,"Deshpande Nagar, Hubballi - KSPCB",13-03-2024 01:00:00,15.351773,75.140726,NO2,26,27,27
India,Karnataka,Hubballi,"Lingaraj Nagar, Hubballi - KSPCB",13-03-2024 01:00:00,15.3714823,75.1160168,NO2,16,16,16
India,Karnataka,Kalaburagi,"Lal Bahadur Shastri Nagar, Kalaburagi - KSPCB",13-03-2024 01:00:00,17.321993,76.822628,PM10,NA,NA,NA
