country,state,city,station,last_update,latitude,longitude,pollutant_id,pollutant_min,pollutant_max,pollutant_avg
India,Andhra_Pradesh,Amaravati,"Secretariat, Amaravati - APPCB",18-04-2024 17:00:00,16.5150833,80.5181667,NH3,3,4,4
India,Andhra_Pradesh,Chittoor,"Gangineni Cheruvu, Chittoor - APPCB",18-04-2024 17:00:00,13.204880,79.097889,PM10,NA,NA,NA
India,Andhra_Pradesh,Rajamahendravaram,"Anand Kala Kshetram, Rajamahendravaram - APPCB",18-04-2024 17:00:00,16.9872867,81.7363176,PM10,30,64,42
India,Andhra_Pradesh,Tirupati,"Tirumala, Tirupati - APPCB",18-04-2024 17:00:00,13.67,79.35,PM2.5,43,173,68
India,Andhra_Pradesh,Tirupati,"Vaikuntapuram, Tirupati - APPCB",18-04-2024 17:00:00,13.615387,79.409230,NH3,NA,NA,NA
India,Andhra_Pradesh,Tirupati,"Vaikuntapuram, Tirupati - APPCB",18-04-2024 17:00:00,13.615387,79.409230,CO,10,14,13
India,Andhra_Pradesh,Vijayawada,"HB Colony, Vijayawada - APPCB",18-04-2024 17:00:00,16.536107,80.594233,CO,28,28,28
India,Andhra_Pradesh,Vijayawada,"Rajiv Gandhi Park, Vijayawada - APPCB",18-04-2024 17:00:00,16.509717,80.612222,PM2.5,NA,NA,NA
India,Andhra_Pradesh,Vijayawada,"Rajiv Gandhi Park, Vijayawada - APPCB",18-04-2024 17:00:00,16.509717,80.612222,NO2,NA,NA,NA
India,Andhra_Pradesh,Vijayawada,"Rajiv Nagar, Vijayawada - APPCB",18-04-2024 17:00:00,16.554731,80.649110,PM10,NA,NA,NA
India,Andhra_Pradesh,Vijayawada,"Rajiv Nagar, Vijayawada - APPCB",18-04-2024 17:00:00,16.554731,80.649110,SO2,NA,NA,NA
India,Andhra_Pradesh,Vijayawada,"Rajiv Nagar, Vijayawada - APPCB",18-04-2024 17:00:00,16.554731,80.649110,CO,40,40,40
India,Andhra_Pradesh,Visakhapatnam,"GVM Corporation, Visakhapatnam - APPCB",18-04-2024 17:00:00,17.72,83.3,CO,2,104,38
India,Andhra_Pradesh,Visakhapatnam,"GVM Corporation, Visakhapatnam - APPCB",18-04-2024 17:00:00,17.72,83.3,OZONE,6,13,10
India,Assam,Byrnihat,"Central Academy for SFS, Byrnihat - PCBA",18-04-2024 17:00:00,26.071318,91.87488,CO,34,80,61
India,Assam,Guwahati,"Pan Bazaar, Guwahati - PCBA",18-04-2024 17:00:00,26.187500,91.744194,PM10,NA,NA,NA
India,Assam,Guwahati,"Railway Colony, Guwahati - PCBA",18-04-2024 17:00:00,26.181742,91.78063,CO,8,26,14
India,Assam,Nagaon,"Christianpatty, Nagaon - PCBA",18-04-2024 17:00:00,26.349082,92.68449,SO2,6,44,21
India,Assam,Nalbari,"Bata Chowk, Nalbari - PCBA",18-04-2024 17:00:00,26.446912,91.439057,CO,22,74,64
India,Assam,Silchar,"Tarapur, Silchar - PCBA",18-04-2024 17:00:00,24.82827,92.79525,PM2.5,21,37,28
India,Assam,Silchar,"Tarapur, Silchar - PCBA",18-04-2024 17:00:00,24.82827,92.79525,SO2,1,13,8
India,Assam,Sivasagar,"Girls College, Sivasagar - PCBA",18-04-2024 17:00:00,26.987634,94.636574,PM2.5,27,43,33
India,Bihar,Araria,"Kharahiya Basti, Araria - BSPCB",18-04-2024 17:00:00,26.146529,87.454184,NH3,5,7,6
India,Bihar,Araria,"Kharahiya Basti, Araria - BSPCB",18-04-2024 17:00:00,26.146529,87.454184,SO2,12,20,15
India,Bihar,Arrah,"New DM Office, Arrah - BSPCB",18-04-2024 17:00:00,25.5626095,84.663264,SO2,7,67,23
India,Bihar,Bettiah,"Kamalnath Nagar, Bettiah - BSPCB",18-04-2024 17:00:00,26.80365,84.51954,PM10,123,288,158
India,Bihar,Bhagalpur,"DM Office_Kachari Chowk, Bhagalpur - BSPCB",18-04-2024 17:00:00,25.251013,86.989001,PM10,111,246,169
India,Bihar,Bhagalpur,"DM Office_Kachari Chowk, Bhagalpur - BSPCB",18-04-2024 17:00:00,25.251013,86.989001,SO2,10,21,15
India,Bihar,Chhapra,"Darshan Nagar, Chhapra - BSPCB",18-04-2024 17:00:00,25.7808257,84.7446768,OZONE,1,6,3
India,Bihar,Gaya,"Collectorate, Gaya - BSPCB",18-04-2024 17:00:00,24.7955,84.9994,CO,6,59,34
India,Bihar,Gaya,"Kareemganj, Gaya - BSPCB",18-04-2024 17:00:00,24.792403,84.992416,NO2,28,31,30
India,Bihar,Gaya,"Kareemganj, Gaya - BSPCB",18-04-2024 17:00:00,24.792403,84.992416,NH3,2,5,3
India,Bihar,Gaya,"Kareemganj, Gaya - BSPCB",18-04-2024 17:00:00,24.792403,84.992416,OZONE,4,19,5
India,Bihar,Hajipur,"Industrial Area, Hajipur - BSPCB",18-04-2024 17:00:00,25.697189,85.245900,SO2,4,9,7
India,Bihar,Katihar,"Mirchaibari, Katihar - BSPCB",18-04-2024 17:00:00,25.560083,87.553265,PM2.5,22,83,46
India,Bihar,Kishanganj,"SDM Office_Khagra, Kishanganj - BSPCB",18-04-2024 17:00:00,26.0881305,87.93840336,PM10,107,464,210
India,Bihar,Kishanganj,"SDM Office_Khagra, Kishanganj - BSPCB",18-04-2024 17:00:00,26.0881305,87.93840336,SO2,NA,NA,NA
India,Bihar,Kishanganj,"SDM Office_Khagra, Kishanganj - BSPCB",18-04-2024 17:00:00,26.0881305,87.93840336,CO,5,14,6
India,Bihar,Manguraha,"Forest Rest House, Manguraha - BSPCB",18-04-2024 17:00:00,27.308328,84.531742,NO2,NA,NA,NA
India,Bihar,Manguraha,"Forest Rest House, Manguraha - BSPCB",18-04-2024 17:00:00,27.308328,84.531742,CO,NA,NA,NA
India,Bihar,Manguraha,"Forest Rest House, Manguraha - BSPCB",18-04-2024 17:00:00,27.308328,84.531742,OZONE,NA,NA,NA
India,Bihar,Motihari,"Gandak Colony, Motihari - BSPCB",18-04-2024 17:00:00,26.63086,84.90051,CO,2,16,5
India,Bihar,Munger,"Town Hall, Munger - BSPCB",18-04-2024 17:00:00,25.376776,86.471523,NO2,6,9,8
India,Bihar,Muzaffarpur,"Buddha Colony, Muzaffarpur - BSPCB",18-04-2024 17:00:00,26.11442,85.39813,PM2.5,226,368,295
India,Bihar,Muzaffarpur,"Buddha Colony, Muzaffarpur - BSPCB",18-04-2024 17:00:00,26.11442,85.39813,NH3,13,16,15
India,Bihar,Muzaffarpur,"Buddha Colony, Muzaffarpur - BSPCB",18-04-2024 17:00:00,26.11442,85.39813,SO2,4,35,10
India,Bihar,Muzaffarpur,"Muzaffarpur Collectorate, Muzaffarpur - BSPCB",18-04-2024 17:00:00,26.1209,85.3647,PM2.5,50,195,87
India,Bihar,Muzaffarpur,"Muzaffarpur Collectorate, Muzaffarpur - BSPCB",18-04-2024 17:00:00,26.1209,85.3647,NO2,5,333,108
India,Bihar,Muzaffarpur,"Muzaffarpur Collectorate, Muzaffarpur - BSPCB",18-04-2024 17:00:00,26.1209,85.3647,SO2,4,18,8
India,Bihar,Patna,"Govt. High School Shikarpur, Patna - BSPCB",18-04-2024 17:00:00,25.592539,85.227158,OZONE,1,59,50
India,Bihar,Patna,"IGSC Planetarium Complex, Patna - BSPCB",18-04-2024 17:00:00,25.610369,85.132568,SO2,5,5,5
India,Bihar,Patna,"Muradpur, Patna - BSPCB",18-04-2024 17:00:00,25.619651,85.147382,SO2,4,9,7
India,Bihar,Patna,"Rajbansi Nagar, Patna - BSPCB",18-04-2024 17:00:00,25.599486,85.113666,NH3,5,8,6
India,Bihar,Patna,"Rajbansi Nagar, Patna - BSPCB",18-04-2024 17:00:00,25.599486,85.113666,CO,20,46,33
India,Bihar,Purnia,"Mariam Nagar, Purnia - BSPCB",18-04-2024 17:00:00,25.366336,87.117468,PM2.5,17,130,60
India,Bihar,Purnia,"Mariam Nagar, Purnia - BSPCB",18-04-2024 17:00:00,25.366336,87.117468,OZONE,1,61,18
India,Bihar,Rajgir,"Dangi Tola, Rajgir - BSPCB",18-04-2024 17:00:00,25.03280,85.41948,NH3,2,22,3
India,Bihar,Sasaram,"Dada Peer, Sasaram - BSPCB",18-04-2024 17:00:00,24.952822,84.002396,SO2,20,24,22
India,Bihar,Sasaram,"Dada Peer, Sasaram - BSPCB",18-04-2024 17:00:00,24.952822,84.002396,CO,84,84,84
India,Bihar,Siwan,"Chitragupta Nagar, Siwan - BSPCB",18-04-2024 17:00:00,26.2271665,84.3570427,PM2.5,NA,NA,NA
India,Bihar,Siwan,"Chitragupta Nagar, Siwan - BSPCB",18-04-2024 17:00:00,26.2271665,84.3570427,SO2,12,34,29
India,Bihar,Siwan,"Chitragupta Nagar, Siwan - BSPCB",18-04-2024 17:00:00,26.2271665,84.3570427,CO,71,144,113
India,Chandigarh,Chandigarh,"Sector 22, Chandigarh - CPCC",18-04-2024 17:00:00,30.735567,76.775714,PM2.5,NA,NA,NA
India,Chandigarh,Chandigarh,"Sector-53, Chandigarh - CPCC",18-04-2024 17:00:00,30.719859,76.738637,NH3,4,6,5
India,Chandigarh,Chandigarh,"Sector-53, Chandigarh - CPCC",18-04-2024 17:00:00,30.719859,76.738637,SO2,6,31,16
India,Chhattisgarh,Bhilai,"32Bungalows, Bhilai - CECB",18-04-2024 17:00:00,21.194815,81.314770,PM2.5,16,42,26
India,Chhattisgarh,Bhilai,"32Bungalows, Bhilai - CECB",18-04-2024 17:00:00,21.194815,81.314770,PM10,12,31,20
India,Chhattisgarh,Bhilai,"Civic Center, Bhilai - Bhilai Steel Plant",18-04-2024 17:00:00,21.185571,81.343175,PM2.5,20,74,34
India,Chhattisgarh,Bhilai,"Civic Center, Bhilai - Bhilai Steel Plant",18-04-2024 17:00:00,21.185571,81.343175,NH3,4,18,6
India,Chhattisgarh,Bilaspur,"Mangala, Bilaspur - NTPC",18-04-2024 17:00:00,22.08815,82.13737,PM10,10,97,52
India,Chhattisgarh,Chhal,"Nawapara SECL Colony, Chhal - CECB",18-04-2024 17:00:00,22.118125,83.140608,CO,11,53,15
India,Chhattisgarh,Korba,"Rampur, Korba - CECB",18-04-2024 17:00:00,22.368195,82.746431,NO2,NA,NA,NA
India,Chhattisgarh,Raipur,"Krishak Nagar, Raipur - CECB",18-04-2024 17:00:00,21.237755,81.705301,OZONE,3,40,21
India,Chhattisgarh,Raipur,"Siltara Phase-II, Raipur - CECB",18-04-2024 17:00:00,21.371751,81.664929,PM2.5,NA,NA,NA
India,Chhattisgarh,Raipur,"Siltara Phase-II, Raipur - CECB",18-04-2024 17:00:00,21.371751,81.664929,NH3,NA,NA,NA
India,Chhattisgarh,Tumidih,"OP Jindal Industrial Park, Tumidih - CECB",18-04-2024 17:00:00,22.06631475,83.33820077,PM2.5,NA,NA,NA
India,Chhattisgarh,Tumidih,"OP Jindal Industrial Park, Tumidih - CECB",18-04-2024 17:00:00,22.06631475,83.33820077,NO2,NA,NA,NA
India,Delhi,Delhi,"Alipur, Delhi - DPCC",18-04-2024 17:00:00,28.815329,77.153010,SO2,12,32,19
India,Delhi,Delhi,"Anand Vihar, Delhi - DPCC",18-04-2024 17:00:00,28.647622,77.3158090,PM2.5,40,230,134
India,Delhi,Delhi,"Anand Vihar, Delhi - DPCC",18-04-2024 17:00:00,28.647622,77.3158090,NO2,58,125,99
India,Delhi,Delhi,"Anand Vihar, Delhi - DPCC",18-04-2024 17:00:00,28.647622,77.3158090,SO2,22,37,30
India,Delhi,Delhi,"Aya Nagar, Delhi - IMD",18-04-2024 17:00:00,28.4706914,77.1099364,CO,45,68,60
India,Delhi,Delhi,"Bawana, Delhi - DPCC",18-04-2024 17:00:00,28.776200,77.051074,CO,8,36,16
India,Delhi,Delhi,"Burari Crossing, Delhi - IMD",18-04-2024 17:00:00,28.7256504,77.2011573,PM10,109,214,161
India,Delhi,Delhi,"Burari Crossing, Delhi - IMD",18-04-2024 17:00:00,28.7256504,77.2011573,CO,6,16,15
India,Delhi,Delhi,"CRRI Mathura Road, Delhi - IMD",18-04-2024 17:00:00,28.5512005,77.2735737,PM2.5,50,273,118
India,Delhi,Delhi,"CRRI Mathura Road, Delhi - IMD",18-04-2024 17:00:00,28.5512005,77.2735737,PM10,116,230,169
India,Delhi,Delhi,"CRRI Mathura Road, Delhi - IMD",18-04-2024 17:00:00,28.5512005,77.2735737,NO2,9,14,11
India,Delhi,Delhi,"CRRI Mathura Road, Delhi - IMD",18-04-2024 17:00:00,28.5512005,77.2735737,CO,36,49,45
India,Delhi,Delhi,"Chandni Chowk, Delhi - IITM",18-04-2024 17:00:00,28.656756,77.227234,PM10,NA,NA,NA
India,Delhi,Delhi,"Chandni Chowk, Delhi - IITM",18-04-2024 17:00:00,28.656756,77.227234,CO,38,50,48
India,Delhi,Delhi,"Dr. Karni Singh Shooting Range, Delhi - DPCC",18-04-2024 17:00:00,28.498571,77.264840,OZONE,44,270,168
India,Delhi,Delhi,"Dwarka-Sector 8, Delhi - DPCC ",18-04-2024 17:00:00,28.5710274,77.0719006,PM2.5,33,347,137
India,Delhi,Delhi,"Dwarka-Sector 8, Delhi - DPCC ",18-04-2024 17:00:00,28.5710274,77.0719006,PM10,100,472,219
India,Delhi,Delhi,"IGI Airport (T3), Delhi - IMD",18-04-2024 17:00:00,28.5627763,77.1180053,PM10,108,500,182
India,Delhi,Delhi,"IHBAS, Dilshad Garden, Delhi - CPCB",18-04-2024 17:00:00,28.6811736,77.3025234,NH3,7,10,9
India,Delhi,Delhi,"ITO, Delhi - CPCB",18-04-2024 17:00:00,28.628624,77.241060,NO2,10,113,59
India,Delhi,Delhi,"Jahangirpuri, Delhi - DPCC",18-04-2024 17:00:00,28.732820,77.170633,NO2,14,95,53
India,Delhi,Delhi,"Jawaharlal Nehru Stadium, Delhi - DPCC",18-04-2024 17:00:00,28.580280,77.233829,PM2.5,13,213,64
India,Delhi,Delhi,"Lodhi Road, Delhi - IMD",18-04-2024 17:00:00,28.5918245,77.2273074,OZONE,59,109,97
India,Delhi,Delhi,"Major Dhyan Chand National Stadium, Delhi - DPCC",18-04-2024 17:00:00,28.611281,77.237738,PM10,84,226,132
India,Delhi,Delhi,"Mandir Marg, Delhi - DPCC",18-04-2024 17:00:00,28.636429,77.201067,PM10,66,153,103
India,Delhi,Delhi,"Mandir Marg, Delhi - DPCC",18-04-2024 17:00:00,28.636429,77.201067,NO2,99,120,108
India,Delhi,Delhi,"NSIT Dwarka, Delhi - CPCB",18-04-2024 17:00:00,28.60909,77.0325413,OZONE,4,79,64
India,Delhi,Delhi,"Narela, Delhi - DPCC",18-04-2024 17:00:00,28.822836,77.101981,PM10,102,305,180
India,Delhi,Delhi,"Nehru Nagar, Delhi - DPCC",18-04-2024 17:00:00,28.567890,77.250515,PM2.5,25,231,82
India,Delhi,Delhi,"Nehru Nagar, Delhi - DPCC",18-04-2024 17:00:00,28.567890,77.250515,PM10,82,300,147
India,Delhi,Delhi,"Nehru Nagar, Delhi - DPCC",18-04-2024 17:00:00,28.567890,77.250515,NO2,8,14,10
India,Delhi,Delhi,"Nehru Nagar, Delhi - DPCC",18-04-2024 17:00:00,28.567890,77.250515,SO2,4,8,6
India,Delhi,Delhi,"Nehru Nagar, Delhi - DPCC",18-04-2024 17:00:00,28.567890,77.250515,CO,50,60,56
India,Delhi,Delhi,"New Moti Bagh, Delhi - MHUA",18-04-2024 17:00:00,28.57834,77.18400,PM2.5,15,311,133
India,Delhi,Delhi,"Punjabi Bagh, Delhi - DPCC",18-04-2024 17:00:00,28.674045,77.131023,NH3,4,5,5
India,Delhi,Delhi,"Punjabi Bagh, Delhi - DPCC",18-04-2024 17:00:00,28.674045,77.131023,CO,32,55,41
India,Delhi,Delhi,"Pusa, Delhi - DPCC",18-04-2024 17:00:00,28.639652,77.146275,NO2,78,139,109
India,Delhi,Delhi,"Pusa, Delhi - IMD",18-04-2024 17:00:00,28.636110,77.173332,OZONE,5,50,37
India,Delhi,Delhi,"R K Puram, Delhi - DPCC",18-04-2024 17:00:00,28.563262,77.186937,PM10,96,288,167
India,Delhi,Delhi,"R K Puram, Delhi - DPCC",18-04-2024 17:00:00,28.563262,77.186937,NO2,18,102,63
India,Delhi,Delhi,"Rohini, Delhi - DPCC",18-04-2024 17:00:00,28.732528,77.119920,NH3,7,12,9
India,Delhi,Delhi,"Shadipur, Delhi - CPCB",18-04-2024 17:00:00,28.6514781,77.1473105,PM10,101,258,167
India,Delhi,Delhi,"Shadipur, Delhi - CPCB",18-04-2024 17:00:00,28.6514781,77.1473105,NH3,6,9,7
India,Delhi,Delhi,"Shadipur, Delhi - CPCB",18-04-2024 17:00:00,28.6514781,77.1473105,OZONE,90,201,158
India,Delhi,Delhi,"Sonia Vihar, Delhi - DPCC",18-04-2024 17:00:00,28.710508,77.249485,NH3,4,5,5
India,Delhi,Delhi,"Sri Aurobindo Marg, Delhi - DPCC",18-04-2024 17:00:00,28.531346,77.190156,PM10,97,244,150
India,Delhi,Delhi,"Vivek Vihar, Delhi - DPCC",18-04-2024 17:00:00,28.672342,77.315260,PM2.5,18,147,74
India,Delhi,Delhi,"Vivek Vihar, Delhi - DPCC",18-04-2024 17:00:00,28.672342,77.315260,PM10,105,185,154
India,Delhi,Delhi,"Vivek Vihar, Delhi - DPCC",18-04-2024 17:00:00,28.672342,77.315260,NO2,24,79,51
India,Delhi,Delhi,"Vivek Vihar, Delhi - DPCC",18-04-2024 17:00:00,28.672342,77.315260,NH3,15,16,15
India,Delhi,Delhi,"Vivek Vihar, Delhi - DPCC",18-04-2024 17:00:00,28.672342,77.315260,CO,5,40,18
India,Delhi,Delhi,"Wazirpur, Delhi - DPCC",18-04-2024 17:00:00,28.699793,77.165453,PM10,118,234,162
India,Delhi,Delhi,"Wazirpur, Delhi - DPCC",18-04-2024 17:00:00,28.699793,77.165453,NO2,23,63,41
India,Delhi,Delhi,"Wazirpur, Delhi - DPCC",18-04-2024 17:00:00,28.699793,77.165453,OZONE,12,78,65
India,Gujarat,Ahmedabad,"Chandkheda, Ahmedabad - IITM",18-04-2024 17:00:00,23.107969,72.574648,NO2,44,47,45
India,Gujarat,Ahmedabad,"Chandkheda, Ahmedabad - IITM",18-04-2024 17:00:00,23.107969,72.574648,SO2,9,18,12
India,Gujarat,Ahmedabad,"Chandkheda, Ahmedabad - IITM",18-04-2024 17:00:00,23.107969,72.574648,CO,86,116,98
India,Gujarat,Ahmedabad,"Gyaspur, Ahmedabad - IITM",18-04-2024 17:00:00,22.977134,72.553024,PM2.5,32,315,119
India,Gujarat,Ahmedabad,"Gyaspur, Ahmedabad - IITM",18-04-2024 17:00:00,22.977134,72.553024,PM10,38,200,101
India,Gujarat,Ahmedabad,"Gyaspur, Ahmedabad - IITM",18-04-2024 17:00:00,22.977134,72.553024,NO2,12,39,35
India,Gujarat,Ahmedabad,"Raikhad, Ahmedabad - IITM",18-04-2024 17:00:00,23.020509,72.579261,PM2.5,NA,NA,NA
India,Gujarat,Ahmedabad,"Raikhad, Ahmedabad - IITM",18-04-2024 17:00:00,23.020509,72.579261,PM10,NA,NA,NA
India,Gujarat,Ahmedabad,"Raikhad, Ahmedabad - IITM",18-04-2024 17:00:00,23.020509,72.579261,NH3,NA,NA,NA
India,Gujarat,Ahmedabad,"SAC ISRO Satellite, Ahmedabad - IITM",18-04-2024 17:00:00,23.023389,72.515201,PM10,100,107,103
India,Gujarat,Ahmedabad,"SAC ISRO Satellite, Ahmedabad - IITM",18-04-2024 17:00:00,23.023389,72.515201,NH3,3,3,3
India,Gujarat,Ahmedabad,"SAC ISRO Satellite, Ahmedabad - IITM",18-04-2024 17:00:00,23.023389,72.515201,SO2,2,9,5
India,Gujarat,Ahmedabad,"SVPI Airport Hansol, Ahmedabad - IITM",18-04-2024 17:00:00,23.076793,72.627874,PM2.5,34,83,50
India,Gujarat,Ahmedabad,"SVPI Airport Hansol, Ahmedabad - IITM",18-04-2024 17:00:00,23.076793,72.627874,PM10,76,172,108
India,Gujarat,Ahmedabad,"SVPI Airport Hansol, Ahmedabad - IITM",18-04-2024 17:00:00,23.076793,72.627874,NO2,14,19,16
India,Gujarat,Ahmedabad,"SVPI Airport Hansol, Ahmedabad - IITM",18-04-2024 17:00:00,23.076793,72.627874,NH3,1,2,2
India,Gujarat,Ahmedabad,"SVPI Airport Hansol, Ahmedabad - IITM",18-04-2024 17:00:00,23.076793,72.627874,OZONE,7,30,13
India,Gujarat,Ankleshwar,"GIDC, Ankleshwar - GPCB",18-04-2024 17:00:00,21.613267,73.010555,PM10,54,86,69
India,Gujarat,Ankleshwar,"GIDC, Ankleshwar - GPCB",18-04-2024 17:00:00,21.613267,73.010555,NO2,32,33,33
India,Gujarat,Ankleshwar,"GIDC, Ankleshwar - GPCB",18-04-2024 17:00:00,21.613267,73.010555,NH3,7,7,7
India,Gujarat,Gandhinagar,"IIPHG Lekawada, Gandhinagar - IITM",18-04-2024 17:00:00,23.243639,72.68994,PM2.5,28,124,78
India,Gujarat,Gandhinagar,"IIPHG Lekawada, Gandhinagar - IITM",18-04-2024 17:00:00,23.243639,72.68994,NH3,5,6,6
India,Gujarat,Gandhinagar,"IIPHG Lekawada, Gandhinagar - IITM",18-04-2024 17:00:00,23.243639,72.68994,CO,2,33,26
India,Gujarat,Gandhinagar,"Sector-10, Gandhinagar - GPCB",18-04-2024 17:00:00,23.221714,72.654328,NO2,17,24,18
India,Gujarat,Gandhinagar,"Sector-10, Gandhinagar - GPCB",18-04-2024 17:00:00,23.221714,72.654328,CO,23,68,27
India,Gujarat,Surat,"Science Center, Surat - SMC",18-04-2024 17:00:00,21.170046,72.795405,CO,23,60,28
India,Gujarat,Vapi,"Phase-1 GIDC, Vapi - GPCB",18-04-2024 17:00:00,20.362421,72.918013,PM2.5,36,80,55
India,Gujarat,Vapi,"Phase-1 GIDC, Vapi - GPCB",18-04-2024 17:00:00,20.362421,72.918013,PM10,47,94,70
India,Gujarat,Vatva,"Phase-4 GIDC, Vatva - GPCB",18-04-2024 17:00:00,22.969611,72.643500,NO2,32,169,66
India,Gujarat,Vatva,"Phase-4 GIDC, Vatva - GPCB",18-04-2024 17:00:00,22.969611,72.643500,NH3,1,20,4
India,Haryana,Ambala,"Patti Mehar, Ambala - HSPCB",18-04-2024 17:00:00,30.379589,76.778328,SO2,NA,NA,NA
India,Haryana,Ambala,"Patti Mehar, Ambala - HSPCB",18-04-2024 17:00:00,30.379589,76.778328,OZONE,29,41,36
India,Haryana,Bahadurgarh,"Arya Nagar, Bahadurgarh - HSPCB",18-04-2024 17:00:00,28.6701,76.9254,NO2,33,38,36
India,Haryana,Bahadurgarh,"Arya Nagar, Bahadurgarh - HSPCB",18-04-2024 17:00:00,28.6701,76.9254,NH3,9,12,11
India,Haryana,Bahadurgarh,"Arya Nagar, Bahadurgarh - HSPCB",18-04-2024 17:00:00,28.6701,76.9254,CO,40,62,50
India,Haryana,Bahadurgarh,"Arya Nagar, Bahadurgarh - HSPCB",18-04-2024 17:00:00,28.6701,76.9254,OZONE,38,51,44
India,Haryana,Ballabgarh,"Nathu Colony, Ballabgarh - HSPCB",18-04-2024 17:00:00,28.3419248,77.319699,NH3,1,3,2
India,Haryana,Charkhi Dadri,"Mini Secretariat, Charkhi Dadri - HSPCB",18-04-2024 17:00:00,28.593883,76.270653,PM10,57,178,123
India,Haryana,Charkhi Dadri,"Mini Secretariat, Charkhi Dadri - HSPCB",18-04-2024 17:00:00,28.593883,76.270653,OZONE,13,18,16
India,Haryana,Dharuhera,"Municipal Corporation Office, Dharuhera -  HSPCB",18-04-2024 17:00:00,28.206800,76.799700,PM2.5,40,198,94
India,Haryana,Dharuhera,"Municipal Corporation Office, Dharuhera -  HSPCB",18-04-2024 17:00:00,28.206800,76.799700,NH3,9,27,19
India,Haryana,Dharuhera,"Municipal Corporation Office, Dharuhera -  HSPCB",18-04-2024 17:00:00,28.206800,76.799700,OZONE,24,49,41
India,Haryana,Faridabad,"New Industrial Town, Faridabad - HSPCB",18-04-2024 17:00:00,28.39072,77.30059,OZONE,23,156,75
India,Haryana,Faridabad,"Sector- 16A, Faridabad - HSPCB",18-04-2024 17:00:00,28.4088421,77.3099081,SO2,10,27,22
India,Haryana,Fatehabad,"Huda Sector, Fatehabad - HSPCB",18-04-2024 17:00:00,29.503664,75.467934,OZONE,47,57,50
India,Haryana,Gurugram,"Teri Gram, Gurugram - HSPCB",18-04-2024 17:00:00,28.4275,77.1465,PM2.5,180,339,244
India,Haryana,Gurugram,"Teri Gram, Gurugram - HSPCB",18-04-2024 17:00:00,28.4275,77.1465,NO2,32,48,41
India,Haryana,Gurugram,"Teri Gram, Gurugram - HSPCB",18-04-2024 17:00:00,28.4275,77.1465,CO,13,25,18
India,Haryana,Gurugram,"Teri Gram, Gurugram - HSPCB",18-04-2024 17:00:00,28.4275,77.1465,OZONE,25,43,38
India,Haryana,Gurugram,"Vikas Sadan, Gurugram - HSPCB",18-04-2024 17:00:00,28.4501238,77.0263051,PM2.5,56,500,243
India,Haryana,Gurugram,"Vikas Sadan, Gurugram - HSPCB",18-04-2024 17:00:00,28.4501238,77.0263051,SO2,11,42,32
India,Haryana,Hisar,"Urban Estate-II, Hisar - HSPCB",18-04-2024 17:00:00,29.140560,75.744941,CO,25,52,27
India,Haryana,Jind,"Police Lines, Jind - HSPCB",18-04-2024 17:00:00,29.307814,76.337619,SO2,4,123,25
India,Haryana,Kaithal,"Rishi Nagar, Kaithal - HSPCB",18-04-2024 17:00:00,29.8006,76.4155,PM2.5,17,61,41
India,Haryana,Kaithal,"Rishi Nagar, Kaithal - HSPCB",18-04-2024 17:00:00,29.8006,76.4155,CO,6,19,15
India,Haryana,Kurukshetra,"Sector-7, Kurukshetra - HSPCB",18-04-2024 17:00:00,29.966942,76.875879,CO,1,22,7
India,Haryana,Kurukshetra,"Sector-7, Kurukshetra - HSPCB",18-04-2024 17:00:00,29.966942,76.875879,OZONE,31,79,55
India,Haryana,Mandikhera,"General Hospital, Mandikhera - HSPCB",18-04-2024 17:00:00,27.9002,76.9938,PM2.5,14,46,31
India,Haryana,Manesar,"Sector-2 IMT, Manesar - HSPCB",18-04-2024 17:00:00,28.360699,76.936090,NO2,26,84,48
India,Haryana,Narnaul,"Shastri Nagar, Narnaul - HSPCB",18-04-2024 17:00:00,28.060249,76.113115,NO2,12,75,35
India,Haryana,Narnaul,"Shastri Nagar, Narnaul - HSPCB",18-04-2024 17:00:00,28.060249,76.113115,SO2,13,39,16
India,Haryana,Palwal,"Shyam Nagar, Palwal - HSPCB",18-04-2024 17:00:00,28.1485564,77.3320667,PM2.5,46,79,56
India,Haryana,Palwal,"Shyam Nagar, Palwal - HSPCB",18-04-2024 17:00:00,28.1485564,77.3320667,PM10,79,144,101
India,Haryana,Palwal,"Shyam Nagar, Palwal - HSPCB",18-04-2024 17:00:00,28.1485564,77.3320667,NO2,23,24,24
India,Haryana,Palwal,"Shyam Nagar, Palwal - HSPCB",18-04-2024 17:00:00,28.1485564,77.3320667,NH3,8,9,9
India,Haryana,Panchkula,"Sector-6, Panchkula - HSPCB ",18-04-2024 17:00:00,30.7057778,76.8531805555555,NO2,8,11,10
India,Haryana,Panchkula,"Sector-6, Panchkula - HSPCB ",18-04-2024 17:00:00,30.7057778,76.8531805555555,CO,1,18,6
India,Haryana,Panipat,"Sector-18, Panipat - HSPCB",18-04-2024 17:00:00,29.497973,76.993331,OZONE,29,30,30
India,Haryana,Rohtak,"MD University, Rohtak - HSPCB",18-04-2024 17:00:00,28.52123,76.37138,SO2,5,8,7
India,Haryana,Yamuna Nagar,"Gobind Pura, Yamuna Nagar - HSPCB",18-04-2024 17:00:00,30.1480566,77.2893471,PM10,69,124,92
India,Himachal Pradesh,Baddi,"HIMUDA Complex Phase-1, Baddi - HPPCB",18-04-2024 17:00:00,30.943887,76.801991,CO,10,68,19
India,Karnataka,Bagalkot,"Vidayagiri, Bagalkot - KSPCB",18-04-2024 17:00:00,16.172806,75.659694,NH3,1,2,1
India,Karnataka,Bengaluru,"Bapuji Nagar, Bengaluru - KSPCB",18-04-2024 17:00:00,12.951913,77.539784,NH3,1,1,1
India,Karnataka,Bengaluru,"Bapuji Nagar, Bengaluru - KSPCB",18-04-2024 17:00:00,12.951913,77.539784,OZONE,24,31,26
India,Karnataka,Bengaluru,"Hebbal, Bengaluru - KSPCB",18-04-2024 17:00:00,13.029152,77.585901,CO,5,54,19
India,Karnataka,Bengaluru,"Hombegowda Nagar, Bengaluru - KSPCB",18-04-2024 17:00:00,12.938539,77.590100,NH3,1,2,1
India,Karnataka,Bengaluru,"Jayanagar 5th Block, Bengaluru - KSPCB",18-04-2024 17:00:00,12.920984,77.584908,PM2.5,50,98,76
India,Karnataka,Bengaluru,"Kasturi Nagar, Bengaluru - KSPCB",18-04-2024 17:00:00,13.003872,77.664217,PM10,94,159,117
India,Karnataka,Bengaluru,"Kasturi Nagar, Bengaluru - KSPCB",18-04-2024 17:00:00,13.003872,77.664217,SO2,10,10,10
India,Karnataka,Bengaluru,"Peenya, Bengaluru - CPCB",18-04-2024 17:00:00,13.0270199,77.494094,NO2,1,38,9
India,Karnataka,Bengaluru,"Peenya, Bengaluru - CPCB",18-04-2024 17:00:00,13.0270199,77.494094,CO,31,50,44
India,Karnataka,Bengaluru,"Peenya, Bengaluru - CPCB",18-04-2024 17:00:00,13.0270199,77.494094,OZONE,10,44,21
India,Karnataka,Bengaluru,"RVCE-Mailasandra, Bengaluru - KSPCB",18-04-2024 17:00:00,12.921418,77.502466,PM2.5,88,334,214
India,Karnataka,Bengaluru,"RVCE-Mailasandra, Bengaluru - KSPCB",18-04-2024 17:00:00,12.921418,77.502466,PM10,88,368,186
India,Karnataka,Bengaluru,"Sanegurava Halli, Bengaluru - KSPCB",18-04-2024 17:00:00,12.990328,77.5431385,CO,3,58,20
India,Karnataka,Bengaluru,"Shivapura_Peenya, Bengaluru - KSPCB",18-04-2024 17:00:00,13.0246342,77.5080115,NO2,15,16,15
India,Karnataka,Bidar,"Naubad, Bidar - KSPCB",18-04-2024 17:00:00,17.930306,77.482194,NO2,7,10,8
India,Karnataka,Bidar,"Naubad, Bidar - KSPCB",18-04-2024 17:00:00,17.930306,77.482194,SO2,16,19,17
India,Karnataka,Bidar,"Naubad, Bidar - KSPCB",18-04-2024 17:00:00,17.930306,77.482194,CO,82,116,92
India,Karnataka,Chamarajanagar,"Urban, Chamarajanagar - KSPCB",18-04-2024 17:00:00,11.55358,76.55521,SO2,2,7,4
India,Karnataka,Chikkaballapur,"Chikkaballapur Rural, Chikkaballapur - KSPCB",18-04-2024 17:00:00,13.428828,77.731418,PM2.5,56,156,73
India,Karnataka,Chikkamagaluru,"Kalyana Nagara, Chikkamagaluru - KSPCB",18-04-2024 17:00:00,13.328028,75.797056,PM2.5,42,88,57
India,Karnataka,Davanagere,"Devaraj Urs Badavane, Davanagere - KSPCB",18-04-2024 17:00:00,14.475800,75.905200,CO,15,24,22
India,Karnataka,Gadag,"Panchal Nagar, Gadag - KSPCB",18-04-2024 17:00:00,15.411456,75.638133,NO2,NA,NA,NA
India,Karnataka,Hassan,"B.Katihalli, Hassan - KSPCB",18-04-2024 17:00:00,13.008556,76.125258,PM2.5,34,77,43
India,Karnataka,Hassan,"B.Katihalli, Hassan - KSPCB",18-04-2024 17:00:00,13.008556,76.125258,SO2,12,36,22
India,Karnataka,Haveri,"Ashwini Nagar, Haveri - KSPCB",18-04-2024 17:00:00,14.791800,75.389600,NO2,26,38,31
India,Karnataka,Hubballi,"Deshpande Nagar, Hubballi - KSPCB",18-04-2024 17:00:00,15.351773,75.140726,CO,NA,NA,NA
India,Karnataka,Kalaburagi,"Mahatma Basaveswar Colony, Kalaburgi - KSPCB",18-04-2024 17:00:00,17.336318,76.847397,CO,24,102,36
India,Karnataka,Kalaburagi,"Mahatma Basaveswar Colony, Kalaburgi - KSPCB",18-04-2024 17:00:00,17.336318,76.847397,OZONE,2,25,14
India,Karnataka,Karwar,"KHB Colony, Karwar - KSPCB",18-04-2024 17:00:00,14.816666,74.141003,NO2,1,12,5
India,Karnataka,Kolar,"Tamaka Ind. Area, Kolar - KSPCB",18-04-2024 17:00:00,13.1276288,78.1570122,CO,6,6,6
India,Karnataka,Mangalore,"Kadri, Mangalore - KSPCB",18-04-2024 17:00:00,12.889250,74.853000,NO2,3,34,7
India,Karnataka,Mangalore,"Kadri, Mangalore - KSPCB",18-04-2024 17:00:00,12.889250,74.853000,SO2,12,50,16
India,Karnataka,Mysuru,"Hebbal 1st Stage, Mysuru - KSPCB",18-04-2024 17:00:00,12.21041,76.37376,PM10,35,71,48
India,Karnataka,Mysuru,"Hebbal 1st Stage, Mysuru - KSPCB",18-04-2024 17:00:00,12.21041,76.37376,SO2,1,5,2
India,Karnataka,Mysuru,"Hebbal 1st Stage, Mysuru - KSPCB",18-04-2024 17:00:00,12.21041,76.37376,OZONE,13,98,45
India,Karnataka,Shivamogga,"Vinoba Nagara, Shivamogga - KSPCB",18-04-2024 17:00:00,13.940000,75.555917,PM2.5,29,55,39
India,Karnataka,Shivamogga,"Vinoba Nagara, Shivamogga - KSPCB",18-04-2024 17:00:00,13.940000,75.555917,SO2,2,11,8
India,Karnataka,Yadgir,"Collector Office, Yadgir - KSPCB",18-04-2024 17:00:00,16.7602,77.1428,NO2,5,13,7
India,Kerala,Eloor,"Udyogamandal, Eloor - Kerala PCB",18-04-2024 17:00:00,10.073232,76.302765,NO2,4,4,4
India,Kerala,Kollam,"Polayathode, Kollam - Kerala PCB",18-04-2024 17:00:00,8.8787,76.6073,PM2.5,30,165,71
India,Kerala,Kollam,"Polayathode, Kollam - Kerala PCB",18-04-2024 17:00:00,8.8787,76.6073,PM10,41,101,62
India,Kerala,Kollam,"Polayathode, Kollam - Kerala PCB",18-04-2024 17:00:00,8.8787,76.6073,CO,38,40,39
India,Kerala,Thiruvananthapuram,"Kariavattom, Thiruvananthapuram - Kerala PCB",18-04-2024 17:00:00,8.563700,76.886500,NH3,1,1,1
India,Kerala,Thiruvananthapuram,"Kariavattom, Thiruvananthapuram - Kerala PCB",18-04-2024 17:00:00,8.563700,76.886500,SO2,2,18,9
India,Kerala,Thiruvananthapuram,"Kariavattom, Thiruvananthapuram - Kerala PCB",18-04-2024 17:00:00,8.563700,76.886500,CO,18,42,22
India,Kerala,Thiruvananthapuram,"Kariavattom, Thiruvananthapuram - Kerala PCB",18-04-2024 17:00:00,8.563700,76.886500,OZONE,28,32,30
India,Kerala,Thiruvananthapuram,"Plammoodu, Thiruvananthapuram - Kerala PCB",18-04-2024 17:00:00,8.5149093,76.9435879,OZONE,6,56,12
India,Kerala,Thrissur,"Corporation Ground, Thrissur - Kerala PCB",18-04-2024 17:00:00,10.532400,76.215900,PM10,62,69,64
India,Madhya Pradesh,Bhopal,"Idgah Hills, Bhopal - MPPCB",18-04-2024 17:00:00,23.264759,77.381568,PM2.5,15,67,37
India,Madhya Pradesh,Bhopal,"Idgah Hills, Bhopal - MPPCB",18-04-2024 17:00:00,23.264759,77.381568,PM10,52,119,84
India,Madhya Pradesh,Bhopal,"Paryavaran Parisar, Bhopal - MPPCB",18-04-2024 17:00:00,23.210494,77.425409,OZONE,2,94,87
India,Madhya Pradesh,Bhopal,"T T Nagar, Bhopal - MPPCB",18-04-2024 17:00:00,23.233584,77.400574,PM10,63,181,115
India,Madhya Pradesh,Bhopal,"T T Nagar, Bhopal - MPPCB",18-04-2024 17:00:00,23.233584,77.400574,CO,20,105,27
India,Madhya Pradesh,Dewas,"Bhopal Chauraha, Dewas - MPPCB",18-04-2024 17:00:00,22.9682591,76.064118,PM2.5,22,307,66
India,Madhya Pradesh,Dewas,"Bhopal Chauraha, Dewas - MPPCB",18-04-2024 17:00:00,22.9682591,76.064118,PM10,31,178,64
India,Madhya Pradesh,Dewas,"Bhopal Chauraha, Dewas - MPPCB",18-04-2024 17:00:00,22.9682591,76.064118,CO,12,74,26
India,Madhya Pradesh,Dewas,"Bhopal Chauraha, Dewas - MPPCB",18-04-2024 17:00:00,22.9682591,76.064118,OZONE,9,42,31
India,Madhya Pradesh,Gwalior,"City Center, Gwalior - MPPCB",18-04-2024 17:00:00,26.203442,78.193251,PM10,76,161,112
India,Madhya Pradesh,Gwalior,"Deen Dayal Nagar, Gwalior - MPPCB",18-04-2024 17:00:00,26.259242,78.216432,NO2,7,29,18
India,Madhya Pradesh,Gwalior,"Deen Dayal Nagar, Gwalior - MPPCB",18-04-2024 17:00:00,26.259242,78.216432,SO2,8,16,12
India,Madhya Pradesh,Gwalior,"Maharaj Bada, Gwalior - MPPCB",18-04-2024 17:00:00,26.200388,78.147714,PM10,43,202,108
India,Madhya Pradesh,Indore,"Chhoti Gwaltoli, Indore - MPPCB",18-04-2024 17:00:00,22.4310,75.5213,PM2.5,20,270,101
India,Madhya Pradesh,Indore,"Chhoti Gwaltoli, Indore - MPPCB",18-04-2024 17:00:00,22.4310,75.5213,CO,35,175,57
India,Madhya Pradesh,Indore,"Maguda Nagar, Indore - IMC",18-04-2024 17:00:00,22.7524,75.8872,NO2,4,6,5
India,Madhya Pradesh,Indore,"Maguda Nagar, Indore - IMC",18-04-2024 17:00:00,22.7524,75.8872,SO2,29,44,33
India,Madhya Pradesh,Indore,"Regional Park, Indore - IMC",18-04-2024 17:00:00,22.6780,75.8559,OZONE,11,38,21
India,Madhya Pradesh,Indore,"Residency Area, Indore - IMC",18-04-2024 17:00:00,22.7084,75.8815,PM2.5,25,142,58
India,Madhya Pradesh,Indore,"Residency Area, Indore - IMC",18-04-2024 17:00:00,22.7084,75.8815,PM10,31,147,72
India,Madhya Pradesh,Indore,"Residency Area, Indore - IMC",18-04-2024 17:00:00,22.7084,75.8815,SO2,23,31,28
India,Madhya Pradesh,Jabalpur,"Govindh Bhavan Colony, Jabalpur - JMC",18-04-2024 17:00:00,23.163174,79.973061,PM2.5,15,82,32
India,Madhya Pradesh,Jabalpur,"Govindh Bhavan Colony, Jabalpur - JMC",18-04-2024 17:00:00,23.163174,79.973061,SO2,10,16,13
India,Madhya Pradesh,Jabalpur,"Govindh Bhavan Colony, Jabalpur - JMC",18-04-2024 17:00:00,23.163174,79.973061,CO,4,16,5
India,Madhya Pradesh,Jabalpur,"Govindh Bhavan Colony, Jabalpur - JMC",18-04-2024 17:00:00,23.163174,79.973061,OZONE,14,93,84
India,Madhya Pradesh,Jabalpur,"Gupteshwar, Jabalpur - JMC",18-04-2024 17:00:00,23.142888,79.916147,PM2.5,5,183,57
India,Madhya Pradesh,Jabalpur,"Gupteshwar, Jabalpur - JMC",18-04-2024 17:00:00,23.142888,79.916147,NO2,17,125,48
India,Madhya Pradesh,Jabalpur,"Suhagi, Jabalpur - JMC",18-04-2024 17:00:00,23.218135,79.957770,PM10,30,173,89
India,Madhya Pradesh,Jabalpur,"Suhagi, Jabalpur - JMC",18-04-2024 17:00:00,23.218135,79.957770,CO,2,118,20
India,Madhya Pradesh,Mandideep,"Sector-D Industrial Area, Mandideep - MPPCB",18-04-2024 17:00:00,23.108440,77.511428,PM10,68,500,185
India,Madhya Pradesh,Pithampur,"Sector-2 Industrial Area, Pithampur - MPPCB",18-04-2024 17:00:00,22.624758,75.675238,PM10,70,194,113
India,Madhya Pradesh,Ratlam,"Shasthri Nagar, Ratlam - IPCA Lab",18-04-2024 17:00:00,23.331731,75.045981,PM2.5,1,286,102
India,Madhya Pradesh,Ratlam,"Shasthri Nagar, Ratlam - IPCA Lab",18-04-2024 17:00:00,23.331731,75.045981,PM10,51,296,130
India,Madhya Pradesh,Sagar,"Civil Lines, Sagar - MPPCB",18-04-2024 17:00:00,23.838586,78.759431,PM10,18,76,40
India,Madhya Pradesh,Sagar,"Civil Lines, Sagar - MPPCB",18-04-2024 17:00:00,23.838586,78.759431,CO,7,38,13
India,Madhya Pradesh,Sagar,"Civil Lines, Sagar - MPPCB",18-04-2024 17:00:00,23.838586,78.759431,OZONE,43,128,101
India,Madhya Pradesh,Sagar,"Deen Dayal Nagar, Sagar - MPPCB",18-04-2024 17:00:00,23.8640158,78.80289321,SO2,11,26,14
India,Madhya Pradesh,Singrauli,"Suryakiran Bhawan NCL, Singrauli - MPPCB",18-04-2024 17:00:00,24.108970,82.645580,PM2.5,112,388,254
India,Madhya Pradesh,Ujjain,"Mahakaleshwar Temple, Ujjain - MPPCB",18-04-2024 17:00:00,23.182719 ,75.768218 ,PM10,53,127,95
India,Madhya Pradesh,Ujjain,"Mahakaleshwar Temple, Ujjain - MPPCB",18-04-2024 17:00:00,23.182719 ,75.768218 ,OZONE,98,134,119
India,Maharashtra,Akola,"Ramdaspeth, Akola - MPCB",18-04-2024 17:00:00,20.719516,77.000253,PM2.5,36,62,50
India,Maharashtra,Akola,"Ramdaspeth, Akola - MPCB",18-04-2024 17:00:00,20.719516,77.000253,NH3,5,10,7
India,Maharashtra,Akola,"Ramdaspeth, Akola - MPCB",18-04-2024 17:00:00,20.719516,77.000253,SO2,11,17,14
India,Maharashtra,Amravati,"Shivneri Colony, Amravati - MPCB",18-04-2024 17:00:00,20.9402359,77.7895248,NO2,8,51,26
India,Maharashtra,Amravati,"Shri Shivaji Science College, Amaravati - MPCB",18-04-2024 17:00:00,20.939198,77.765701,PM2.5,10,100,70
India,Maharashtra,Amravati,"Shri Shivaji Science College, Amaravati - MPCB",18-04-2024 17:00:00,20.939198,77.765701,PM10,27,116,92
India,Maharashtra,Amravati,"Shri Shivaji Science College, Amaravati - MPCB",18-04-2024 17:00:00,20.939198,77.765701,NH3,2,4,3
India,Maharashtra,Amravati,"Shri Shivaji Science College, Amaravati - MPCB",18-04-2024 17:00:00,20.939198,77.765701,CO,16,103,20
India,Maharashtra,Amravati,"Shri Shivaji Science College, Amaravati - MPCB",18-04-2024 17:00:00,20.939198,77.765701,OZONE,1,132,93
India,Maharashtra,Aurangabad,"MIDC Chilkalthana, Aurangabad - MPCB",18-04-2024 17:00:00,19.875620,75.387310,PM2.5,49,155,82
India,Maharashtra,Aurangabad,"MIDC Chilkalthana, Aurangabad - MPCB",18-04-2024 17:00:00,19.875620,75.387310,NO2,6,48,18
India,Maharashtra,Aurangabad,"MIDC Chilkalthana, Aurangabad - MPCB",18-04-2024 17:00:00,19.875620,75.387310,SO2,1,14,5
India,Maharashtra,Aurangabad,"More Chowk Waluj, Aurangabad - MPCB",18-04-2024 17:00:00,19.8389439,75.244448,PM10,40,136,74
India,Maharashtra,Aurangabad,"More Chowk Waluj, Aurangabad - MPCB",18-04-2024 17:00:00,19.8389439,75.244448,NO2,40,49,44
India,Maharashtra,Aurangabad,"More Chowk Waluj, Aurangabad - MPCB",18-04-2024 17:00:00,19.8389439,75.244448,SO2,NA,NA,NA
India,Maharashtra,Aurangabad,"Rachnakar Colony, Aurangabad - MPCB",18-04-2024 17:00:00,19.863756,75.321188,CO,8,42,10
India,Maharashtra,Badlapur,"Katrap, Badlapur - MPCB",18-04-2024 17:00:00,19.16485,73.23409,SO2,2,9,6
India,Maharashtra,Badlapur,"Katrap, Badlapur - MPCB",18-04-2024 17:00:00,19.16485,73.23409,CO,10,60,35
India,Maharashtra,Belapur,"CBD Belapur, Belapur - MPCB",18-04-2024 17:00:00,19.0243902,73.0406721,PM10,54,102,77
India,Maharashtra,Belapur,"CBD Belapur, Belapur - MPCB",18-04-2024 17:00:00,19.0243902,73.0406721,CO,17,44,30
India,Maharashtra,Bhiwandi,"Gokul Nagar, Bhiwandi - MPCB",18-04-2024 17:00:00,19.309073,73.057223,PM10,80,130,101
India,Maharashtra,Bhiwandi,"Gokul Nagar, Bhiwandi - MPCB",18-04-2024 17:00:00,19.309073,73.057223,SO2,18,22,20
India,Maharashtra,Boisar,"Khaira, Boisar - MPCB",18-04-2024 17:00:00,19.786089,72.757971,NH3,4,9,6
India,Maharashtra,Boisar,"Khaira, Boisar - MPCB",18-04-2024 17:00:00,19.786089,72.757971,OZONE,35,85,59
India,Maharashtra,Chandrapur,"Chauhan Colony, Chandrapur - MPCB",18-04-2024 17:00:00,19.962900,79.298714,PM2.5,72,157,108
India,Maharashtra,Chandrapur,"MIDC Khutala, Chandrapur - MPCB",18-04-2024 17:00:00,19.9775302,79.2337086,OZONE,2,75,58
India,Maharashtra,Dhule,"Deopur, Dhule - MPCB",18-04-2024 17:00:00,20.918946,74.776388,PM10,79,121,98
India,Maharashtra,Kalyan,"Khadakpada, Kalyan - MPCB",18-04-2024 17:00:00,19.25292,73.142019,NO2,33,42,38
India,Maharashtra,Kalyan,"Khadakpada, Kalyan - MPCB",18-04-2024 17:00:00,19.25292,73.142019,OZONE,11,18,15
India,Maharashtra,Kolhapur,"Shivaji University, Kolhapur - MPCB",18-04-2024 17:00:00,16.6870449,74.2505872,PM10,103,146,127
India,Maharashtra,Kolhapur,"Shivaji University, Kolhapur - MPCB",18-04-2024 17:00:00,16.6870449,74.2505872,NH3,2,3,3
India,Maharashtra,Kolhapur,"Shivaji University, Kolhapur - MPCB",18-04-2024 17:00:00,16.6870449,74.2505872,SO2,1,5,2
India,Maharashtra,Kolhapur,"Shivaji University, Kolhapur - MPCB",18-04-2024 17:00:00,16.6870449,74.2505872,CO,52,74,65
India,Maharashtra,Kolhapur,"Shivaji University, Kolhapur - MPCB",18-04-2024 17:00:00,16.6870449,74.2505872,OZONE,6,30,17
India,Maharashtra,Latur,"Sawe Wadi, Latur - MPCB",18-04-2024 17:00:00,18.39963,76.57452,PM10,50,127,83
India,Maharashtra,Latur,"Sawe Wadi, Latur - MPCB",18-04-2024 17:00:00,18.39963,76.57452,SO2,1,10,4
India,Maharashtra,Latur,"Sawe Wadi, Latur - MPCB",18-04-2024 17:00:00,18.39963,76.57452,CO,17,107,21
India,Maharashtra,Latur,"Sawe Wadi, Latur - MPCB",18-04-2024 17:00:00,18.39963,76.57452,OZONE,32,119,91
India,Maharashtra,Malegaon,"Mahesh Nagar, Malegaon - MPCB",18-04-2024 17:00:00,20.555712,74.529236,NH3,1,13,5
India,Maharashtra,Mumbai,"Bandra Kurla Complex, Mumbai - MPCB",18-04-2024 17:00:00,19.065931,72.862131,PM2.5,59,89,75
India,Maharashtra,Mumbai,"Bandra Kurla Complex, Mumbai - MPCB",18-04-2024 17:00:00,19.065931,72.862131,CO,20,43,23
India,Maharashtra,Mumbai,"Borivali East, Mumbai - IITM",18-04-2024 17:00:00,19.23241,72.86895,CO,50,81,66
India,Maharashtra,Mumbai,"Borivali East, Mumbai - MPCB",18-04-2024 17:00:00,19.2243333,72.8658113,PM2.5,35,94,53
India,Maharashtra,Mumbai,"Borivali East, Mumbai - MPCB",18-04-2024 17:00:00,19.2243333,72.8658113,OZONE,14,15,15
India,Maharashtra,Mumbai,"Byculla, Mumbai - BMC",18-04-2024 17:00:00,18.9767,72.8380,NH3,2,3,3
India,Maharashtra,Mumbai,"Byculla, Mumbai - BMC",18-04-2024 17:00:00,18.9767,72.8380,OZONE,12,73,46
India,Maharashtra,Mumbai,"Chakala-Andheri East, Mumbai - IITM",18-04-2024 17:00:00,19.11074,72.86084,NO2,46,231,91
India,Maharashtra,Mumbai,"Chakala-Andheri East, Mumbai - IITM",18-04-2024 17:00:00,19.11074,72.86084,NH3,9,39,18
India,Maharashtra,Mumbai,"Chembur, Mumbai - MPCB",18-04-2024 17:00:00,19.0364585,72.8954371,PM2.5,42,178,92
India,Maharashtra,Mumbai,"Chembur, Mumbai - MPCB",18-04-2024 17:00:00,19.0364585,72.8954371,NO2,16,55,27
India,Maharashtra,Mumbai,"Chhatrapati Shivaji Intl. Airport (T2), Mumbai - MPCB",18-04-2024 17:00:00,19.10078,72.87462,OZONE,4,8,6
India,Maharashtra,Mumbai,"Colaba, Mumbai - MPCB",18-04-2024 17:00:00,18.910000,72.820000,NO2,22,68,27
India,Maharashtra,Mumbai,"Ghatkopar, Mumbai - BMC",18-04-2024 17:00:00,19.083694,72.920967,NO2,5,15,11
India,Maharashtra,Mumbai,"Kandivali East, Mumbai - MPCB",18-04-2024 17:00:00,19.205800,72.868200,NO2,20,103,36
India,Maharashtra,Mumbai,"Kandivali East, Mumbai - MPCB",18-04-2024 17:00:00,19.205800,72.868200,NH3,4,53,11
India,Maharashtra,Mumbai,"Kherwadi_Bandra East, Mumbai - MPCB",18-04-2024 17:00:00,19.0632143,72.8456324,PM10,67,122,93
India,Maharashtra,Mumbai,"Kherwadi_Bandra East, Mumbai - MPCB",18-04-2024 17:00:00,19.0632143,72.8456324,OZONE,3,333,114
India,Maharashtra,Mumbai,"Kurla, Mumbai - MPCB",18-04-2024 17:00:00,19.0863,72.8888,PM2.5,27,95,50
India,Maharashtra,Mumbai,"Mazgaon, Mumbai - IITM",18-04-2024 17:00:00,18.96702,72.84214,PM2.5,63,70,70
India,Maharashtra,Mumbai,"Mazgaon, Mumbai - IITM",18-04-2024 17:00:00,18.96702,72.84214,PM10,76,84,84
India,Maharashtra,Mumbai,"Mazgaon, Mumbai - IITM",18-04-2024 17:00:00,18.96702,72.84214,CO,29,74,53
India,Maharashtra,Mumbai,"Mazgaon, Mumbai - IITM",18-04-2024 17:00:00,18.96702,72.84214,OZONE,4,54,32
India,Maharashtra,Mumbai,"Mulund West, Mumbai - MPCB",18-04-2024 17:00:00,19.1750,72.9419,NO2,20,24,22
India,Maharashtra,Mumbai,"Mulund West, Mumbai - MPCB",18-04-2024 17:00:00,19.1750,72.9419,SO2,13,14,13
India,Maharashtra,Mumbai,"Navy Nagar-Colaba, Mumbai - IITM",18-04-2024 17:00:00,18.897756,72.813320,PM10,63,135,86
India,Maharashtra,Mumbai,"Powai, Mumbai - MPCB",18-04-2024 17:00:00,19.137500,72.915056,PM2.5,41,85,61
India,Maharashtra,Mumbai,"Powai, Mumbai - MPCB",18-04-2024 17:00:00,19.137500,72.915056,PM10,83,132,108
India,Maharashtra,Mumbai,"Sewri, Mumbai - BMC",18-04-2024 17:00:00,19.000084,72.856730,NH3,NA,NA,NA
India,Maharashtra,Mumbai,"Sion, Mumbai - MPCB",18-04-2024 17:00:00,19.047000,72.874600,PM2.5,46,102,73
India,Maharashtra,Mumbai,"Sion, Mumbai - MPCB",18-04-2024 17:00:00,19.047000,72.874600,PM10,83,134,107
India,Maharashtra,Mumbai,"Vasai West, Mumbai - MPCB",18-04-2024 17:00:00,19.383200,72.820400,PM2.5,48,148,90
India,Maharashtra,Mumbai,"Vasai West, Mumbai - MPCB",18-04-2024 17:00:00,19.383200,72.820400,NH3,4,6,4
India,Maharashtra,Mumbai,"Vasai West, Mumbai - MPCB",18-04-2024 17:00:00,19.383200,72.820400,CO,28,112,44
India,Maharashtra,Mumbai,"Vile Parle West, Mumbai - MPCB",18-04-2024 17:00:00,19.10861,72.83622,PM10,90,188,125
India,Maharashtra,Mumbai,"Vile Parle West, Mumbai - MPCB",18-04-2024 17:00:00,19.10861,72.83622,SO2,14,14,14
India,Maharashtra,Mumbai,"Worli, Mumbai - MPCB",18-04-2024 17:00:00,18.9936162,72.8128113,SO2,11,12,12
India,Maharashtra,Mumbai,"Worli, Mumbai - MPCB",18-04-2024 17:00:00,18.9936162,72.8128113,CO,28,29,28
India,Maharashtra,Nagpur,"Ambazari, Nagpur - MPCB",18-04-2024 17:00:00,21.121801,79.04952,PM2.5,48,115,71
India,Maharashtra,Nagpur,"Ambazari, Nagpur - MPCB",18-04-2024 17:00:00,21.121801,79.04952,NO2,10,96,35
India,Maharashtra,Nagpur,"Ambazari, Nagpur - MPCB",18-04-2024 17:00:00,21.121801,79.04952,CO,6,112,19
India,Maharashtra,Nagpur,"Mahal, Nagpur - MPCB",18-04-2024 17:00:00,21.14472,79.107595,SO2,13,105,57
India,Maharashtra,Nagpur,"Opp GPO Civil Lines, Nagpur - MPCB",18-04-2024 17:00:00,21.152875,79.0517531,NH3,4,17,8
India,Maharashtra,Nashik,"Gangapur Road, Nashik - MPCB",18-04-2024 17:00:00,20.0073285,73.7762427,NO2,10,22,15
India,Maharashtra,Nashik,"Hirawadi, Nashik - MPCB",18-04-2024 17:00:00,20.021503,73.813844,PM2.5,32,74,53
India,Maharashtra,Nashik,"Hirawadi, Nashik - MPCB",18-04-2024 17:00:00,20.021503,73.813844,NH3,2,2,2
India,Maharashtra,Nashik,"Hirawadi, Nashik - MPCB",18-04-2024 17:00:00,20.021503,73.813844,OZONE,3,92,69
India,Maharashtra,Nashik,"MIDC Ambad, Nashik - MPCB",18-04-2024 17:00:00,19.950220,73.731480,PM2.5,31,72,48
India,Maharashtra,Nashik,"Pandav Nagari, Nashik - MPCB",18-04-2024 17:00:00,19.9591346,73.7788008,NO2,7,44,16
India,Maharashtra,Navi Mumbai,"Kopripada-Vashi, Navi Mumbai - MPCB",18-04-2024 17:00:00,19.090337,73.014232,PM10,94,193,135
India,Maharashtra,Navi Mumbai,"Kopripada-Vashi, Navi Mumbai - MPCB",18-04-2024 17:00:00,19.090337,73.014232,SO2,NA,NA,NA
India,Maharashtra,Navi Mumbai,"Kopripada-Vashi, Navi Mumbai - MPCB",18-04-2024 17:00:00,19.090337,73.014232,CO,14,33,23
India,Maharashtra,Navi Mumbai,"Mahape, Navi Mumbai - MPCB",18-04-2024 17:00:00,19.1135051,73.008978,PM2.5,NA,NA,NA
India,Maharashtra,Navi Mumbai,"Mahape, Navi Mumbai - MPCB",18-04-2024 17:00:00,19.1135051,73.008978,CO,101,111,107
India,Maharashtra,Navi Mumbai,"Mahape, Navi Mumbai - MPCB",18-04-2024 17:00:00,19.1135051,73.008978,OZONE,35,60,53
India,Maharashtra,Navi Mumbai,"Nerul, Navi Mumbai - MPCB",18-04-2024 17:00:00,19.008751,73.016620,NO2,43,65,52
India,Maharashtra,Navi Mumbai,"Nerul, Navi Mumbai - MPCB",18-04-2024 17:00:00,19.008751,73.016620,NH3,3,5,4
India,Maharashtra,Navi Mumbai,"Nerul, Navi Mumbai - MPCB",18-04-2024 17:00:00,19.008751,73.016620,OZONE,41,61,56
India,Maharashtra,Navi Mumbai,"Sanpada, Navi Mumbai - MPCB",18-04-2024 17:00:00,19.0575752,73.0151367,PM2.5,40,76,59
India,Maharashtra,Navi Mumbai,"Sanpada, Navi Mumbai - MPCB",18-04-2024 17:00:00,19.0575752,73.0151367,CO,1,38,1
India,Maharashtra,Navi Mumbai,"Sector-19A Nerul, Navi Mumbai - IITM",18-04-2024 17:00:00,19.044,73.0325,NO2,10,55,26
India,Maharashtra,Navi Mumbai,"Sector-2E Kalamboli, Navi Mumbai - MPCB",18-04-2024 17:00:00,19.02579,73.10297,SO2,1,13,2
India,Maharashtra,Navi Mumbai,"Sector-2E Kalamboli, Navi Mumbai - MPCB",18-04-2024 17:00:00,19.02579,73.10297,OZONE,3,51,37
India,Maharashtra,Navi Mumbai,"Tondare-Taloja, Navi Mumbai - MPCB",18-04-2024 17:00:00,19.0630,73.1209,PM2.5,60,137,89
India,Maharashtra,Parbhani,"Masoom Colony, Parbhani - MPCB",18-04-2024 17:00:00,19.265594,76.761463,PM2.5,33,125,84
India,Maharashtra,Pimpri-Chinchwad,"Gavalinagar, Pimpri Chinchwad - MPCB",18-04-2024 17:00:00,18.63673,73.82487,NH3,2,4,2
India,Maharashtra,Pimpri-Chinchwad,"Park Street Wakad, Pimpri Chinchwad - MPCB",18-04-2024 17:00:00,18.59051,73.77946,SO2,1,11,4
India,Maharashtra,Pimpri-Chinchwad,"Thergaon, Pimpri Chinchwad - MPCB",18-04-2024 17:00:00,18.616318,73.765797,PM2.5,67,244,109
India,Maharashtra,Pune,"Katraj Dairy, Pune - MPCB",18-04-2024 17:00:00,18.454450,73.854155,PM2.5,36,66,51
India,Maharashtra,Pune,"Katraj Dairy, Pune - MPCB",18-04-2024 17:00:00,18.454450,73.854155,OZONE,2,59,34
India,Maharashtra,Pune,"Revenue Colony-Shivajinagar, Pune - IITM",18-04-2024 17:00:00,18.530085,73.849598,NO2,91,212,151
India,Maharashtra,Pune,"Revenue Colony-Shivajinagar, Pune - IITM",18-04-2024 17:00:00,18.530085,73.849598,CO,109,118,116
India,Maharashtra,Pune,"Savitribai Phule Pune University, Pune - MPCB",18-04-2024 17:00:00,18.547056,73.826908,NH3,2,3,2
India,Maharashtra,Sangli,"Vijay Nagar, Sangli - MPCB",18-04-2024 17:00:00, 16.5038,74.3623,PM10,59,101,79
India,Maharashtra,Sangli,"Vijay Nagar, Sangli - MPCB",18-04-2024 17:00:00, 16.5038,74.3623,NO2,15,51,30
India,Maharashtra,Sangli,"Vijay Nagar, Sangli - MPCB",18-04-2024 17:00:00, 16.5038,74.3623,CO,17,50,26
India,Maharashtra,Solapur,"Ratandeep Housing Society, Solapur - MPCB",18-04-2024 17:00:00,17.65439,75.90649,PM10,35,109,86
India,Maharashtra,Thane,"Kasarvadavali, Thane - MPCB",18-04-2024 17:00:00,19.26777,72.97182,NH3,NA,NA,NA
India,Maharashtra,Thane,"Kasarvadavali, Thane - MPCB",18-04-2024 17:00:00,19.26777,72.97182,OZONE,61,76,67
India,Maharashtra,Thane,"Pimpleshwar Mandir, Thane - MPCB",18-04-2024 17:00:00,19.192056,72.9585188,NO2,13,34,20
India,Maharashtra,Thane,"Pimpleshwar Mandir, Thane - MPCB",18-04-2024 17:00:00,19.192056,72.9585188,OZONE,5,73,53
India,Maharashtra,Thane,"Upvan Fort, Thane - MPCB",18-04-2024 17:00:00,19.222279,72.957979,NO2,9,65,34
India,Maharashtra,Thane,"Upvan Fort, Thane - MPCB",18-04-2024 17:00:00,19.222279,72.957979,SO2,NA,NA,NA
India,Maharashtra,Thane,"Upvan Fort, Thane - MPCB",18-04-2024 17:00:00,19.222279,72.957979,OZONE,4,79,57
India,Maharashtra,Ulhasnagar,"Sidhi Vinayak Nagar, Ulhasnagar - MPCB",18-04-2024 17:00:00,19.235581,73.159121,NO2,7,17,13
India,Maharashtra,Ulhasnagar,"Sidhi Vinayak Nagar, Ulhasnagar - MPCB",18-04-2024 17:00:00,19.235581,73.159121,SO2,5,20,12
India,Maharashtra,Ulhasnagar,"Sidhi Vinayak Nagar, Ulhasnagar - MPCB",18-04-2024 17:00:00,19.235581,73.159121,CO,14,48,27
India,Maharashtra,Ulhasnagar,"Sidhi Vinayak Nagar, Ulhasnagar - MPCB",18-04-2024 17:00:00,19.235581,73.159121,OZONE,16,171,90
India,Maharashtra,Virar,"Bolinj, Virar - MPCB",18-04-2024 17:00:00,19.4458210,72.7988231,NH3,6,10,8
India,Maharashtra,Virar,"Bolinj, Virar - MPCB",18-04-2024 17:00:00,19.4458210,72.7988231,SO2,3,5,4
India,Maharashtra,Virar,"Bolinj, Virar - MPCB",18-04-2024 17:00:00,19.4458210,72.7988231,OZONE,6,36,30
India,Manipur,Imphal,"DM College of Science, Imphal - Manipur PCB",18-04-2024 17:00:00,24.8207389,93.9423085,SO2,NA,NA,NA
India,Manipur,Imphal,"DM College of Science, Imphal - Manipur PCB",18-04-2024 17:00:00,24.8207389,93.9423085,CO,6,6,6
India,Meghalaya,Shillong,"Lumpyngngad, Shillong - Meghalaya PCB",18-04-2024 17:00:00,25.5586,91.8985,SO2,37,41,39
India,Mizoram,Aizawl,"Sikulpuikawn, Aizawl - Mizoram PCB",18-04-2024 17:00:00,23.7176342,92.7192841,PM10,14,103,56
India,Mizoram,Aizawl,"Sikulpuikawn, Aizawl - Mizoram PCB",18-04-2024 17:00:00,23.7176342,92.7192841,NO2,1,9,2
India,Mizoram,Aizawl,"Sikulpuikawn, Aizawl - Mizoram PCB",18-04-2024 17:00:00,23.7176342,92.7192841,CO,11,20,16
India,Nagaland,Kohima,"PWD Juction, Kohima - NPCB",18-04-2024 17:00:00,25.6635413,94.0989878,PM10,73,126,100
India,Nagaland,Kohima,"PWD Juction, Kohima - NPCB",18-04-2024 17:00:00,25.6635413,94.0989878,NH3,1,1,1
India,Odisha,Angul,"Hakimapada, Angul - OSPCB",18-04-2024 17:00:00,20.832874,85.104082,PM2.5,37,287,137
India,Odisha,Balasore,"Kalidaspur, Balasore - OSPCB",18-04-2024 17:00:00,21.51161,86.89088,NH3,2,4,3
India,Odisha,Balasore,"Kalidaspur, Balasore - OSPCB",18-04-2024 17:00:00,21.51161,86.89088,OZONE,15,223,137
India,Odisha,Barbil,"Forest Office, Barbil - OSPCB",18-04-2024 17:00:00,22.1166054,85.3945546,PM2.5,42,312,156
India,Odisha,Barbil,"Forest Office, Barbil - OSPCB",18-04-2024 17:00:00,22.1166054,85.3945546,CO,23,92,30
India,Odisha,Baripada,"Meher Colony, Baripada - OSPCB",18-04-2024 17:00:00,21.941841,86.728318,CO,24,45,39
India,Odisha,Bhubaneswar,"Lingraj Mandir, Bhubaneswar - OSPCB",18-04-2024 17:00:00,20.240790,85.836784,SO2,1,55,14
India,Odisha,Bhubaneswar,"Patia, Bhubaneswar - OSPCB",18-04-2024 17:00:00,20.34652,85.81630,SO2,1,65,19
India,Odisha,Bhubaneswar,"Patia, Bhubaneswar - OSPCB",18-04-2024 17:00:00,20.34652,85.81630,CO,79,180,162
India,Odisha,Brajrajnagar,"GM Office, Brajrajnagar - OSPCB",18-04-2024 17:00:00,21.8004996,83.8396977,NO2,14,18,16
India,Odisha,Brajrajnagar,"GM Office, Brajrajnagar - OSPCB",18-04-2024 17:00:00,21.8004996,83.8396977,OZONE,14,20,20
India,Odisha,Cuttack,"CDA Area, Cuttack - OSPCB",18-04-2024 17:00:00,20.48891     ,85.84768     ,CO,20,37,29
India,Odisha,Keonjhar,"Jagamohanpur, Keonjhar - OSPCB",18-04-2024 17:00:00,21.643900,85.599355,NH3,1,2,1
India,Odisha,Nayagarh,"Dabuna, Nayagarh - OSPCB",18-04-2024 17:00:00,21.847279,85.416905,NO2,NA,NA,NA
India,Odisha,Nayagarh,"Dabuna, Nayagarh - OSPCB",18-04-2024 17:00:00,21.847279,85.416905,OZONE,2,42,38
India,Odisha,Rourkela,"Fertilizer Township, Rourkela - OSPCB",18-04-2024 17:00:00,22.18972222,84.86277778,SO2,11,15,13
India,Odisha,Rourkela,"Raghunathpali, Rourkela - OSPCB",18-04-2024 17:00:00,22.220833,84.809444,OZONE,4,91,76
India,Odisha,Rourkela,"Sector-2, Rourkela - OSPCB",18-04-2024 17:00:00,22.24500000,84.88111111,PM2.5,47,164,92
India,Odisha,Suakati,"OMC Colony, Suakati - OSPCB",18-04-2024 17:00:00,21.606865,85.510538,PM2.5,85,200,136
India,Odisha,Suakati,"OMC Colony, Suakati - OSPCB",18-04-2024 17:00:00,21.606865,85.510538,OZONE,16,264,264
India,Odisha,Talcher,"Talcher Coalfields,Talcher - OSPCB",18-04-2024 17:00:00,20.9360711,85.1707021,NO2,18,24,21
India,Odisha,Tensa,"Barsua Iron Ore Mines, Tensa - OSPCB",18-04-2024 17:00:00,21.869985,85.167016,NO2,25,128,57
India,Odisha,Tensa,"Barsua Iron Ore Mines, Tensa - OSPCB",18-04-2024 17:00:00,21.869985,85.167016,SO2,NA,NA,NA
India,Puducherry,Puducherry,"Jawahar Nagar, Puducherry - PPCC",18-04-2024 17:00:00,11.9309,79.8027,PM2.5,3,25,14
India,Puducherry,Puducherry,"Jawahar Nagar, Puducherry - PPCC",18-04-2024 17:00:00,11.9309,79.8027,NO2,2,8,5
India,Puducherry,Puducherry,"Jawahar Nagar, Puducherry - PPCC",18-04-2024 17:00:00,11.9309,79.8027,SO2,4,10,6
India,Punjab,Amritsar,"Golden Temple, Amritsar - PPCB",18-04-2024 17:00:00,31.620000,74.876512,NO2,11,73,28
India,Punjab,Amritsar,"Golden Temple, Amritsar - PPCB",18-04-2024 17:00:00,31.620000,74.876512,NH3,5,7,5
India,Punjab,Amritsar,"Golden Temple, Amritsar - PPCB",18-04-2024 17:00:00,31.620000,74.876512,CO,10,104,27
India,Punjab,Bathinda,"Hardev Nagar, Bathinda - PPCB",18-04-2024 17:00:00,30.233011,74.907758,PM10,32,361,153
India,Punjab,Jalandhar,"Civil Line, Jalandhar - PPCB",18-04-2024 17:00:00,31.321907,75.578914,OZONE,16,99,68
India,Punjab,Khanna,"Kalal Majra, Khanna - PPCB",18-04-2024 17:00:00,30.736056 ,76.209694,NO2,30,30,30
India,Punjab,Ludhiana,"Punjab Agricultural University, Ludhiana - PPCB",18-04-2024 17:00:00,30.9028,75.8086,PM10,44,117,67
India,Punjab,Ludhiana,"Punjab Agricultural University, Ludhiana - PPCB",18-04-2024 17:00:00,30.9028,75.8086,SO2,4,32,9
India,Punjab,Ludhiana,"Punjab Agricultural University, Ludhiana - PPCB",18-04-2024 17:00:00,30.9028,75.8086,OZONE,13,54,42
India,Punjab,Mandi Gobindgarh,"RIMT University, Mandi Gobindgarh - PPCB",18-04-2024 17:00:00,30.649961,76.331442,CO,8,40,27
India,Punjab,Mandi Gobindgarh,"RIMT University, Mandi Gobindgarh - PPCB",18-04-2024 17:00:00,30.649961,76.331442,OZONE,29,65,43
India,Punjab,Patiala,"Model Town, Patiala - PPCB",18-04-2024 17:00:00,30.349388,76.366642,PM10,50,101,81
India,Punjab,Patiala,"Model Town, Patiala - PPCB",18-04-2024 17:00:00,30.349388,76.366642,CO,7,30,18
India,Rajasthan,Ajmer,"Civil Lines,  Ajmer - RSPCB",18-04-2024 17:00:00,26.470859,74.646594,PM10,53,121,84
India,Rajasthan,Ajmer,"Civil Lines,  Ajmer - RSPCB",18-04-2024 17:00:00,26.470859,74.646594,OZONE,4,81,52
India,Rajasthan,Alwar,"Moti Doongri, Alwar - RSPCB",18-04-2024 17:00:00,27.554793,76.611536,OZONE,13,49,14
India,Rajasthan,Banswara,"Rati Talai, Banswara - RSPCB",18-04-2024 17:00:00,23.555190,74.440010,PM10,26,84,55
India,Rajasthan,Banswara,"Rati Talai, Banswara - RSPCB",18-04-2024 17:00:00,23.555190,74.440010,NH3,3,5,4
India,Rajasthan,Banswara,"Rati Talai, Banswara - RSPCB",18-04-2024 17:00:00,23.555190,74.440010,CO,8,76,14
India,Rajasthan,Banswara,"Rati Talai, Banswara - RSPCB",18-04-2024 17:00:00,23.555190,74.440010,OZONE,11,117,93
India,Rajasthan,Baran,"Bamboliya, Baran - RSPCB",18-04-2024 17:00:00,25.106006,76.469948,PM2.5,27,258,74
India,Rajasthan,Barmer,"Railway Colony, Barmer - RSPCB",18-04-2024 17:00:00,25.747299,71.393989,SO2,3,8,5
India,Rajasthan,Barmer,"Railway Colony, Barmer - RSPCB",18-04-2024 17:00:00,25.747299,71.393989,OZONE,4,84,52
India,Rajasthan,Bharatpur,"Krishna Nagar, Bharatpur - RSPCB",18-04-2024 17:00:00,27.215415,77.50873,SO2,6,25,12
India,Rajasthan,Bhilwara,"Pratap Nagar, Bhilwara - RSPCB",18-04-2024 17:00:00,25.339605,74.618883,NO2,10,111,51
India,Rajasthan,Bhilwara,"Pratap Nagar, Bhilwara - RSPCB",18-04-2024 17:00:00,25.339605,74.618883,SO2,6,38,14
India,Rajasthan,Bhiwadi,"RIICO Ind. Area III, Bhiwadi - RSPCB",18-04-2024 17:00:00,28.194909,76.862296,PM10,62,227,162
India,Rajasthan,Bhiwadi,"RIICO Ind. Area III, Bhiwadi - RSPCB",18-04-2024 17:00:00,28.194909,76.862296,SO2,5,60,38
India,Rajasthan,Bikaner,"MM Ground, Bikaner - RSPCB",18-04-2024 17:00:00,28.018792,73.292658,OZONE,9,68,55
India,Rajasthan,Bundi,"New Colony, Bundi - RSPCB",18-04-2024 17:00:00,25.435774,75.644272,PM2.5,13,112,35
India,Rajasthan,Chittorgarh,"Shastri Nagar, Chittorgarh - RSPCB",18-04-2024 17:00:00,24.892047,74.623527,PM10,81,187,124
India,Rajasthan,Churu,"Subash Chowk, Churu - RSPCB",18-04-2024 17:00:00,28.296139,74.961696,NH3,2,9,5
India,Rajasthan,Churu,"Subash Chowk, Churu - RSPCB",18-04-2024 17:00:00,28.296139,74.961696,CO,12,32,16
India,Rajasthan,Dausa,"Khatikan Mohalla, Dausa - RSPCB",18-04-2024 17:00:00,26.895552,76.334753,NH3,3,7,5
India,Rajasthan,Dholpur,"Raja Ganj, Dholpur - RSPCB",18-04-2024 17:00:00,26.699557,77.898881,SO2,4,8,5
India,Rajasthan,Dholpur,"Raja Ganj, Dholpur - RSPCB",18-04-2024 17:00:00,26.699557,77.898881,CO,8,28,13
India,Rajasthan,Dungarpur,"Bhoiwada, Dungarpur - RSPCB",18-04-2024 17:00:00,23.837789,73.714926,PM10,44,99,71
India,Rajasthan,Dungarpur,"Bhoiwada, Dungarpur - RSPCB",18-04-2024 17:00:00,23.837789,73.714926,OZONE,5,63,50
India,Rajasthan,Hanumangarh,"Housing Board, Hanumangarh - RSPCB",18-04-2024 17:00:00,29.610750,74.283608,PM2.5,20,405,150
India,Rajasthan,Hanumangarh,"Housing Board, Hanumangarh - RSPCB",18-04-2024 17:00:00,29.610750,74.283608,NO2,8,91,35
India,Rajasthan,Hanumangarh,"Housing Board, Hanumangarh - RSPCB",18-04-2024 17:00:00,29.610750,74.283608,SO2,3,48,17
India,Rajasthan,Jaipur,"Adarsh Nagar, Jaipur - RSPCB",18-04-2024 17:00:00,26.902909,75.836858,NO2,24,87,47
India,Rajasthan,Jaipur,"Mansarovar Sector-12, Jaipur - RSPCB",18-04-2024 17:00:00,26.843698,75.766894,PM2.5,21,220,46
India,Rajasthan,Jaipur,"Sector-2 Murlipura, Jaipur - RSPCB",18-04-2024 17:00:00,26.960669,75.771817,PM2.5,NA,NA,NA
India,Rajasthan,Jaipur,"Sector-2 Murlipura, Jaipur - RSPCB",18-04-2024 17:00:00,26.960669,75.771817,OZONE,33,64,54
India,Rajasthan,Jaisalmer,"Sadar Bazar, Jaisalmer - RSPCB",18-04-2024 17:00:00,26.912329,70.909168,NO2,7,71,21
India,Rajasthan,Jalore,"Mudtra Sili, Jalore - RSPCB",18-04-2024 17:00:00,25.344694,72.626208,PM2.5,27,341,76
India,Rajasthan,Jalore,"Mudtra Sili, Jalore - RSPCB",18-04-2024 17:00:00,25.344694,72.626208,PM10,68,372,143
India,Rajasthan,Jalore,"Mudtra Sili, Jalore - RSPCB",18-04-2024 17:00:00,25.344694,72.626208,NH3,5,8,6
India,Rajasthan,Jhalawar,"Rajlaxmi Nagar, Jhalawar - RSPCB",18-04-2024 17:00:00,24.588397,76.172782,SO2,2,18,8
India,Rajasthan,Jhunjhunu,"Indra Nagar, Jhunjhunu - RSPCB",18-04-2024 17:00:00,28.108988,75.386577,NO2,6,77,26
India,Rajasthan,Jhunjhunu,"Indra Nagar, Jhunjhunu - RSPCB",18-04-2024 17:00:00,28.108988,75.386577,NH3,5,19,8
India,Rajasthan,Jodhpur,"Digari Kalan, Jodhpur - RSPCB",18-04-2024 17:00:00,26.295810,73.082283,SO2,3,13,6
India,Rajasthan,Jodhpur,"Digari Kalan, Jodhpur - RSPCB",18-04-2024 17:00:00,26.295810,73.082283,OZONE,2,91,72
India,Rajasthan,Jodhpur,"Jhalamand, Jodhpur - RSPCB",18-04-2024 17:00:00,26.215415,73.070156,NO2,5,90,29
India,Rajasthan,Jodhpur,"Mandor, Jodhpur - RSPCB",18-04-2024 17:00:00,26.358805,73.047444,CO,16,39,24
India,Rajasthan,Jodhpur,"Samrat Ashok Udhyan, Jodhpur - RSPCB",18-04-2024 17:00:00,26.253384,72.976571,PM10,57,221,129
India,Rajasthan,Karauli,"Satyawati Vihar, Karauli - RSPCB",18-04-2024 17:00:00,26.506177,77.025989,NO2,4,48,21
India,Rajasthan,Kota,"Dhanmandi, Kota - RSPCB",18-04-2024 17:00:00,25.164090,75.858137,PM2.5,22,305,81
India,Rajasthan,Kota,"Dhanmandi, Kota - RSPCB",18-04-2024 17:00:00,25.164090,75.858137,SO2,7,76,20
India,Rajasthan,Kota,"Nayapura, Kota - RSPCB",18-04-2024 17:00:00,25.196024,75.855668,CO,14,86,20
India,Rajasthan,Kota,"Shrinath Puram, Kota - RSPCB",18-04-2024 17:00:00,25.14389,75.821256,NO2,13,105,42
India,Rajasthan,Nagaur,"Karni Colony, Nagaur - RSPCB",18-04-2024 17:00:00,27.213494,73.734444,CO,12,38,25
India,Rajasthan,Pratapgarh,"Pragati Nagar, Pratapgarh - RSPCB",18-04-2024 17:00:00,24.041198,74.780702,SO2,3,16,7
India,Rajasthan,Sawai Madhopur,"Sahu Nagar, Sawai Madhopur - RSPCB",18-04-2024 17:00:00,26.031443,76.359327,PM10,69,188,107
India,Rajasthan,Sawai Madhopur,"Sahu Nagar, Sawai Madhopur - RSPCB",18-04-2024 17:00:00,26.031443,76.359327,NO2,7,40,22
India,Rajasthan,Sikar,"Radhakishan Pura, Sikar - RSPCB",18-04-2024 17:00:00,27.608912,75.153302,PM2.5,22,86,40
India,Rajasthan,Sikar,"Radhakishan Pura, Sikar - RSPCB",18-04-2024 17:00:00,27.608912,75.153302,NO2,16,67,28
India,Rajasthan,Sikar,"Radhakishan Pura, Sikar - RSPCB",18-04-2024 17:00:00,27.608912,75.153302,SO2,2,5,3
India,Rajasthan,Sirohi,"Vedhaynath Colony, Sirohi - RSPCB",18-04-2024 17:00:00,24.885261,72.857549,SO2,4,21,14
India,Rajasthan,Sirohi,"Vedhaynath Colony, Sirohi - RSPCB",18-04-2024 17:00:00,24.885261,72.857549,CO,4,114,86
India,Rajasthan,Sri Ganganagar,"Old City, Sri Ganganagar - RSPCB",18-04-2024 17:00:00,29.931624,73.864511,PM10,125,476,288
India,Rajasthan,Sri Ganganagar,"Old City, Sri Ganganagar - RSPCB",18-04-2024 17:00:00,29.931624,73.864511,NH3,17,33,21
India,Rajasthan,Sri Ganganagar,"Old City, Sri Ganganagar - RSPCB",18-04-2024 17:00:00,29.931624,73.864511,OZONE,1,69,42
India,Rajasthan,Udaipur,"Ashok Nagar, Udaipur - RSPCB",18-04-2024 17:00:00,24.5886166,73.6321397,OZONE,3,44,38
India,Sikkim,Gangtok,"Zero Point GICI, Gangtok - SSPCB",18-04-2024 17:00:00,27.338530,88.614099,OZONE,28,70,50
India,TamilNadu,Chennai,"Alandur Bus Depot, Chennai - CPCB",18-04-2024 17:00:00,12.9099161,80.1076538,CO,43,105,65
India,TamilNadu,Chennai,"Arumbakkam, Chennai - TNPCB",18-04-2024 17:00:00,13.0664,80.2112 ,PM10,19,61,40
India,TamilNadu,Chennai,"Kodungaiyur, Chennai - TNPCB",18-04-2024 17:00:00,13.1278,80.2642,NH3,3,5,4
India,TamilNadu,Chennai,"Kodungaiyur, Chennai - TNPCB",18-04-2024 17:00:00,13.1278,80.2642,CO,8,62,32
India,TamilNadu,Chennai,"Manali, Chennai - CPCB",18-04-2024 17:00:00,13.164544,80.26285,NO2,8,9,9
India,TamilNadu,Chennai,"Perungudi, Chennai - TNPCB",18-04-2024 17:00:00,12.9533,80.2357,PM2.5,3,28,17
India,TamilNadu,Chennai,"Perungudi, Chennai - TNPCB",18-04-2024 17:00:00,12.9533,80.2357,OZONE,4,7,6
India,TamilNadu,Chennai,"Royapuram, Chennai - TNPCB",18-04-2024 17:00:00,13.1036,80.2909,PM2.5,10,30,20
India,TamilNadu,Chennai,"Velachery Res. Area, Chennai - CPCB",18-04-2024 17:00:00,13.0052189,80.2398125,PM2.5,19,54,33
India,TamilNadu,Chennai,"Velachery Res. Area, Chennai - CPCB",18-04-2024 17:00:00,13.0052189,80.2398125,NH3,NA,NA,NA
India,TamilNadu,Chennai,"Velachery Res. Area, Chennai - CPCB",18-04-2024 17:00:00,13.0052189,80.2398125,SO2,10,11,11
India,TamilNadu,Cuddalore,"Kudikadu, Cuddalore - TNPCB",18-04-2024 17:00:00,11.6829898,79.7532099,PM10,26,196,91
India,TamilNadu,Cuddalore,"Semmandalam, Cuddalore - TNPCB",18-04-2024 17:00:00,11.7637683,79.7499835,PM2.5,NA,NA,NA
India,TamilNadu,Kanchipuram,"Kilambi, Kanchipuram - TNPCB",18-04-2024 17:00:00,12.864618,79.659968,PM2.5,NA,NA,NA
India,TamilNadu,Kanchipuram,"Kilambi, Kanchipuram - TNPCB",18-04-2024 17:00:00,12.864618,79.659968,PM10,NA,NA,NA
India,TamilNadu,Kanchipuram,"Kilambi, Kanchipuram - TNPCB",18-04-2024 17:00:00,12.864618,79.659968,NH3,NA,NA,NA
India,TamilNadu,Ramanathapuram,"Chalai Bazaar, Ramanathapuram - TNPCB",18-04-2024 17:00:00,9.36399,78.831977,PM10,NA,NA,NA
India,TamilNadu,Salem,"Sona College of Technology, Salem - TNPCB",18-04-2024 17:00:00,11.679111,78.125052,NO2,NA,NA,NA
India,TamilNadu,Salem,"Sona College of Technology, Salem - TNPCB",18-04-2024 17:00:00,11.679111,78.125052,CO,60,65,64
India,TamilNadu,Tirupur,"Kumaran College, Tirupur - TNPCB",18-04-2024 17:00:00,11.0973603,77.3228673,PM10,40,223,81
India,TamilNadu,Vellore,"Vasanthapuram, Vellore - TNPCB",18-04-2024 17:00:00,12.909494,79.131861,NH3,NA,NA,NA
India,TamilNadu,Vellore,"Vasanthapuram, Vellore - TNPCB",18-04-2024 17:00:00,12.909494,79.131861,SO2,NA,NA,NA
India,TamilNadu,Vellore,"Vasanthapuram, Vellore - TNPCB",18-04-2024 17:00:00,12.909494,79.131861,CO,10,18,13
India,Telangana,Hyderabad,"Bollaram Industrial Area, Hyderabad - TSPCB",18-04-2024 17:00:00,17.540891,78.358528,SO2,17,106,38
India,Telangana,Hyderabad,"Bollaram Industrial Area, Hyderabad - TSPCB",18-04-2024 17:00:00,17.540891,78.358528,CO,3,118,21
India,Telangana,Hyderabad,"Central University, Hyderabad - TSPCB",18-04-2024 17:00:00,17.460103,78.334361,CO,14,30,24
India,Telangana,Hyderabad,"ICRISAT Patancheru, Hyderabad - TSPCB",18-04-2024 17:00:00,17.518400,78.278777,PM2.5,50,72,64
India,Telangana,Hyderabad,"ICRISAT Patancheru, Hyderabad - TSPCB",18-04-2024 17:00:00,17.518400,78.278777,PM10,60,149,85
India,Telangana,Hyderabad,"ICRISAT Patancheru, Hyderabad - TSPCB",18-04-2024 17:00:00,17.518400,78.278777,NH3,2,2,2
India,Telangana,Hyderabad,"IITH Kandi, Hyderabad - TSPCB",18-04-2024 17:00:00,17.585705,78.126199,NH3,3,4,3
India,Telangana,Hyderabad,"IITH Kandi, Hyderabad - TSPCB",18-04-2024 17:00:00,17.585705,78.126199,CO,6,28,21
India,Telangana,Hyderabad,"Nacharam_TSIIC IALA, Hyderabad - TSPCB",18-04-2024 17:00:00,17.429398,78.569354,PM10,55,88,66
India,Telangana,Hyderabad,"Nacharam_TSIIC IALA, Hyderabad - TSPCB",18-04-2024 17:00:00,17.429398,78.569354,SO2,5,15,11
India,Telangana,Hyderabad,"Nacharam_TSIIC IALA, Hyderabad - TSPCB",18-04-2024 17:00:00,17.429398,78.569354,CO,26,46,38
India,Telangana,Hyderabad,"New Malakpet, Hyderabad - TSPCB",18-04-2024 17:00:00,17.37206,78.50864,NO2,13,40,29
India,Telangana,Hyderabad,"Ramachandrapuram, Hyderabad - TSPCB",18-04-2024 17:00:00,17.528544,78.286195,PM10,70,85,75
India,Telangana,Hyderabad,"Sanathnagar, Hyderabad - TSPCB",18-04-2024 17:00:00,17.4559458,78.4332152,CO,40,66,45
India,Telangana,Hyderabad,"Somajiguda, Hyderabad - TSPCB",18-04-2024 17:00:00,17.417094,78.457437,PM2.5,NA,NA,NA
India,Telangana,Hyderabad,"Somajiguda, Hyderabad - TSPCB",18-04-2024 17:00:00,17.417094,78.457437,SO2,NA,NA,NA
India,Telangana,Hyderabad,"Somajiguda, Hyderabad - TSPCB",18-04-2024 17:00:00,17.417094,78.457437,CO,NA,NA,NA
India,Telangana,Hyderabad,"Zoo Park, Hyderabad - TSPCB",18-04-2024 17:00:00,17.349694,78.451437,CO,38,66,55
India,Tripura,Agartala,"Bardowali, Agartala - Tripura SPCB",18-04-2024 17:00:00,23.8175497,91.2726974,SO2,29,30,30
India,Tripura,Agartala,"Bardowali, Agartala - Tripura SPCB",18-04-2024 17:00:00,23.8175497,91.2726974,CO,8,34,18
India,Uttar_Pradesh,Agra,"Manoharpur, Agra - UPPCB",18-04-2024 17:00:00,27.23711,78.01936,PM10,14,45,26
India,Uttar_Pradesh,Agra,"Manoharpur, Agra - UPPCB",18-04-2024 17:00:00,27.23711,78.01936,NO2,31,31,31
India,Uttar_Pradesh,Agra,"Rohta, Agra - UPPCB",18-04-2024 17:00:00,27.106972,78.000111,PM10,10,43,24
India,Uttar_Pradesh,Agra,"Rohta, Agra - UPPCB",18-04-2024 17:00:00,27.106972,78.000111,SO2,3,7,5
India,Uttar_Pradesh,Agra,"Rohta, Agra - UPPCB",18-04-2024 17:00:00,27.106972,78.000111,OZONE,13,15,13
India,Uttar_Pradesh,Agra,"Sanjay Palace, Agra - UPPCB",18-04-2024 17:00:00,27.19865833,78.00598056,SO2,7,9,8
India,Uttar_Pradesh,Agra,"Sector-3B Avas Vikas Colony, Agra - UPPCB",18-04-2024 17:00:00,27.19412,77.96237,NO2,22,23,23
India,Uttar_Pradesh,Agra,"Shastripuram, Agra - UPPCB",18-04-2024 17:00:00,27.19862,77.92066,CO,6,12,8
India,Uttar_Pradesh,Agra,"Shastripuram, Agra - UPPCB",18-04-2024 17:00:00,27.19862,77.92066,OZONE,1,8,5
India,Uttar_Pradesh,Baghpat,"Sardar Patel Inter College, Baghpat - UPPCB",18-04-2024 17:00:00,28.964949,77.278761,SO2,3,112,50
India,Uttar_Pradesh,Bareilly,"Civil Lines, Bareilly - UPPCB",18-04-2024 17:00:00,28.359581,79.414455,CO,2,26,13
India,Uttar_Pradesh,Bareilly,"Rajendra Nagar, Bareilly - UPPCB",18-04-2024 17:00:00,28.38910936,79.42963708,PM10,58,129,81
India,Uttar_Pradesh,Bareilly,"Rajendra Nagar, Bareilly - UPPCB",18-04-2024 17:00:00,28.38910936,79.42963708,CO,2,16,9
India,Uttar_Pradesh,Bulandshahr,"Yamunapuram, Bulandshahr - UPPCB",18-04-2024 17:00:00,28.406963,77.849831,PM2.5,24,214,65
India,Uttar_Pradesh,Bulandshahr,"Yamunapuram, Bulandshahr - UPPCB",18-04-2024 17:00:00,28.406963,77.849831,PM10,96,186,136
India,Uttar_Pradesh,Bulandshahr,"Yamunapuram, Bulandshahr - UPPCB",18-04-2024 17:00:00,28.406963,77.849831,NO2,18,109,59
India,Uttar_Pradesh,Firozabad,"Nagla Bhau, Firozabad - UPPCB",18-04-2024 17:00:00,27.168897,78.376960,PM10,NA,NA,NA
India,Uttar_Pradesh,Firozabad,"Nagla Bhau, Firozabad - UPPCB",18-04-2024 17:00:00,27.168897,78.376960,SO2,NA,NA,NA
India,Uttar_Pradesh,Firozabad,"Nagla Bhau, Firozabad - UPPCB",18-04-2024 17:00:00,27.168897,78.376960,OZONE,16,18,16
India,Uttar_Pradesh,Firozabad,"Vibhab Nagar, Firozabad - UPPCB",18-04-2024 17:00:00,27.1594,78.3953,NH3,2,2,2
India,Uttar_Pradesh,Ghaziabad,"Sanjay Nagar, Ghaziabad - UPPCB",18-04-2024 17:00:00,28.685382,77.453839,NH3,4,11,7
India,Uttar_Pradesh,Gorakhpur,"Madan Mohan Malaviya University of Technology, Gorakhpur - UPPCB",18-04-2024 17:00:00,26.730136,83.433859,OZONE,30,95,69
India,Uttar_Pradesh,Greater Noida,"Knowledge Park - III, Greater Noida - UPPCB",18-04-2024 17:00:00,28.47272,77.482000,PM2.5,34,104,62
India,Uttar_Pradesh,Greater Noida,"Knowledge Park - III, Greater Noida - UPPCB",18-04-2024 17:00:00,28.47272,77.482000,PM10,131,215,165
India,Uttar_Pradesh,Greater Noida,"Knowledge Park - III, Greater Noida - UPPCB",18-04-2024 17:00:00,28.47272,77.482000,CO,13,46,27
India,Uttar_Pradesh,Greater Noida,"Knowledge Park - V, Greater Noida - UPPCB",18-04-2024 17:00:00,28.557054,77.453663,PM2.5,42,200,78
India,Uttar_Pradesh,Greater Noida,"Knowledge Park - V, Greater Noida - UPPCB",18-04-2024 17:00:00,28.557054,77.453663,NO2,17,48,34
India,Uttar_Pradesh,Greater Noida,"Knowledge Park - V, Greater Noida - UPPCB",18-04-2024 17:00:00,28.557054,77.453663,CO,7,86,27
India,Uttar_Pradesh,Jhansi,"Shivaji Nagar, Jhansi - UPPCB",18-04-2024 17:00:00,25.4547,78.6039,PM2.5,6,67,32
India,Uttar_Pradesh,Jhansi,"Shivaji Nagar, Jhansi - UPPCB",18-04-2024 17:00:00,25.4547,78.6039,NO2,1,38,14
India,Uttar_Pradesh,Kanpur,"FTI Kidwai Nagar, Kanpur - UPPCB",18-04-2024 17:00:00,26.428282,80.327067,PM2.5,35,117,64
India,Uttar_Pradesh,Kanpur,"FTI Kidwai Nagar, Kanpur - UPPCB",18-04-2024 17:00:00,26.428282,80.327067,SO2,25,25,25
India,Uttar_Pradesh,Kanpur,"NSI Kalyanpur, Kanpur - UPPCB",18-04-2024 17:00:00,26.509954,80.249612,CO,29,38,33
India,Uttar_Pradesh,Kanpur,"Nehru Nagar, Kanpur - UPPCB",18-04-2024 17:00:00,26.4703136,80.3229863,NO2,31,44,37
India,Uttar_Pradesh,Khurja,"Kalindi Kunj, Khurja - UPPCB",18-04-2024 17:00:00,28.2348927,77.8683002,PM2.5,15,135,71
India,Uttar_Pradesh,Khurja,"Kalindi Kunj, Khurja - UPPCB",18-04-2024 17:00:00,28.2348927,77.8683002,CO,26,34,32
India,Uttar_Pradesh,Khurja,"Kalindi Kunj, Khurja - UPPCB",18-04-2024 17:00:00,28.2348927,77.8683002,OZONE,28,53,37
India,Uttar_Pradesh,Lucknow,"B R Ambedkar University, Lucknow - UPPCB",18-04-2024 17:00:00,26.766433,80.927299,SO2,29,41,35
India,Uttar_Pradesh,Lucknow,"B R Ambedkar University, Lucknow - UPPCB",18-04-2024 17:00:00,26.766433,80.927299,CO,18,26,21
India,Uttar_Pradesh,Lucknow,"Gomti Nagar, Lucknow - UPPCB",18-04-2024 17:00:00,26.868120,81.005119,NO2,9,12,10
India,Uttar_Pradesh,Lucknow,"Kukrail Picnic Spot-1, Lucknow - UPPCB",18-04-2024 17:00:00,26.90723,80.98579,PM2.5,41,75,58
India,Uttar_Pradesh,Lucknow,"Kukrail Picnic Spot-1, Lucknow - UPPCB",18-04-2024 17:00:00,26.90723,80.98579,CO,10,18,13
India,Uttar_Pradesh,Lucknow,"Lalbagh, Lucknow - CPCB",18-04-2024 17:00:00,26.8458805,80.9365541,OZONE,22,49,39
India,Uttar_Pradesh,Lucknow,"Talkatora District Industries Center, Lucknow - CPCB",18-04-2024 17:00:00,26.83399722,80.8917361,NO2,29,60,42
India,Uttar_Pradesh,Lucknow,"Talkatora District Industries Center, Lucknow - CPCB",18-04-2024 17:00:00,26.83399722,80.8917361,NH3,7,15,11
India,Uttar_Pradesh,Meerut,"Jai Bhim Nagar, Meerut - UPPCB",18-04-2024 17:00:00,28.9535882,77.7622941,SO2,6,40,20
India,Uttar_Pradesh,Meerut,"Pallavpuram Phase 2, Meerut - UPPCB",18-04-2024 17:00:00,29.063510,77.709723,PM2.5,20,113,53
India,Uttar_Pradesh,Moradabad,"Eco Herbal Park, Moradabad - UPPCB",18-04-2024 17:00:00,28.840739,78.697531,PM2.5,11,58,32
India,Uttar_Pradesh,Moradabad,"Eco Herbal Park, Moradabad - UPPCB",18-04-2024 17:00:00,28.840739,78.697531,NO2,5,41,17
India,Uttar_Pradesh,Moradabad,"Eco Herbal Park, Moradabad - UPPCB",18-04-2024 17:00:00,28.840739,78.697531,CO,6,70,23
India,Uttar_Pradesh,Moradabad,"Jigar Colony, Moradabad - UPPCB",18-04-2024 17:00:00,28.856664,78.772638,SO2,8,17,11
India,Uttar_Pradesh,Moradabad,"Kashiram Nagar, Moradabad - UPPCB",18-04-2024 17:00:00,28.849399,78.742362,PM2.5,19,69,48
India,Uttar_Pradesh,Moradabad,"Kashiram Nagar, Moradabad - UPPCB",18-04-2024 17:00:00,28.849399,78.742362,OZONE,10,28,21
India,Uttar_Pradesh,Moradabad,"Transport Nagar, Moradabad - UPPCB",18-04-2024 17:00:00,28.802625,78.753728,NO2,3,13,8
India,Uttar_Pradesh,Moradabad,"Transport Nagar, Moradabad - UPPCB",18-04-2024 17:00:00,28.802625,78.753728,NH3,5,5,5
India,Uttar_Pradesh,Moradabad,"Transport Nagar, Moradabad - UPPCB",18-04-2024 17:00:00,28.802625,78.753728,OZONE,22,72,34
India,Uttar_Pradesh,Noida,"Sector - 62, Noida - IMD",18-04-2024 17:00:00,28.6245479,77.3577104,PM10,69,193,152
India,Uttar_Pradesh,Noida,"Sector - 62, Noida - IMD",18-04-2024 17:00:00,28.6245479,77.3577104,NO2,16,32,24
India,Uttar_Pradesh,Noida,"Sector-1, Noida - UPPCB",18-04-2024 17:00:00,28.5898,77.3101,CO,22,52,31
India,Uttar_Pradesh,Noida,"Sector-116, Noida - UPPCB",18-04-2024 17:00:00,28.569230,77.393848,OZONE,32,172,134
India,Uttar_Pradesh,Prayagraj,"Jhunsi, Prayagraj - UPPCB",18-04-2024 17:00:00,25.425602,81.917152,CO,3,20,6
India,Uttar_Pradesh,Prayagraj,"Jhunsi, Prayagraj - UPPCB",18-04-2024 17:00:00,25.425602,81.917152,OZONE,10,52,43
India,Uttar_Pradesh,Prayagraj,"Motilal Nehru NIT, Prayagraj - UPPCB",18-04-2024 17:00:00,25.494,81.863,NO2,12,12,12
India,Uttar_Pradesh,Prayagraj,"Nagar Nigam, Prayagraj - UPPCB",18-04-2024 17:00:00,25.44919916 ,81.82735986 ,PM2.5,NA,NA,NA
India,Uttar_Pradesh,Varanasi,"Ardhali Bazar, Varanasi - UPPCB",18-04-2024 17:00:00,25.3505986,82.9083074,PM10,8,44,22
India,Uttar_Pradesh,Varanasi,"Bhelupur, Varanasi - UPPCB",18-04-2024 17:00:00,25.301778,82.996789,PM10,28,55,43
India,Uttar_Pradesh,Varanasi,"Bhelupur, Varanasi - UPPCB",18-04-2024 17:00:00,25.301778,82.996789,OZONE,2,41,20
India,Uttar_Pradesh,Varanasi,"IESD Banaras Hindu University, Varanasi - UPPCB",18-04-2024 17:00:00,25.262326,82.995408,OZONE,1,2,1
India,Uttar_Pradesh,Varanasi,"Maldahiya, Varanasi - UPPCB",18-04-2024 17:00:00,25.32393,82.99687,PM10,26,57,36
India,Uttar_Pradesh,Varanasi,"Maldahiya, Varanasi - UPPCB",18-04-2024 17:00:00,25.32393,82.99687,NH3,1,1,1
India,Uttar_Pradesh,Varanasi,"Maldahiya, Varanasi - UPPCB",18-04-2024 17:00:00,25.32393,82.99687,OZONE,3,19,17
India,Uttar_Pradesh,Vrindavan,"Omex Eternity, Vrindavan - UPPCB",18-04-2024 17:00:00,27.5714090,77.6557570,NO2,2,3,3
India,Uttar_Pradesh,Vrindavan,"Omex Eternity, Vrindavan - UPPCB",18-04-2024 17:00:00,27.5714090,77.6557570,OZONE,27,32,29
India,Uttarakhand,Dehradun,"Doon University, Dehradun - UKPCB",18-04-2024 17:00:00,30.269444,78.044167,PM10,63,171,88
India,Uttarakhand,Dehradun,"Doon University, Dehradun - UKPCB",18-04-2024 17:00:00,30.269444,78.044167,CO,6,24,12
India,Uttarakhand,Kashipur,"Govt. Girls Inter College, Kashipur - UKPCB",18-04-2024 17:00:00,29.2124114,78.9611753,PM2.5,20,67,51
India,Uttarakhand,Kashipur,"Govt. Girls Inter College, Kashipur - UKPCB",18-04-2024 17:00:00,29.2124114,78.9611753,NH3,2,4,3
India,Uttarakhand,Rishikesh,"Shivaji Nagar, Rishikesh - UKPCB",18-04-2024 17:00:00,30.075911,78.2859547,SO2,3,5,4
India,West_Bengal,Asansol,"Asansol Court Area, Asansol - WBPCB",18-04-2024 17:00:00,23.685297,86.945968,NH3,7,13,9
India,West_Bengal,Barrackpore,"SVSPA Campus, Barrackpore - WBPCB",18-04-2024 17:00:00,22.7605581,88.3617589,PM2.5,48,202,107
India,West_Bengal,Haldia,"Priyambada Housing Estate, Haldia - WBPCB",18-04-2024 17:00:00,22.06047,88.109737,PM10,41,110,75
India,West_Bengal,Haldia,"Priyambada Housing Estate, Haldia - WBPCB",18-04-2024 17:00:00,22.06047,88.109737,CO,16,36,22
India,West_Bengal,Haldia,"Priyambada Housing Estate, Haldia - WBPCB",18-04-2024 17:00:00,22.06047,88.109737,OZONE,19,88,37
India,West_Bengal,Howrah,"Belur Math, Howrah - WBPCB",18-04-2024 17:00:00,22.629801,88.352017,NH3,2,10,3
India,West_Bengal,Howrah,"Belur Math, Howrah - WBPCB",18-04-2024 17:00:00,22.629801,88.352017,OZONE,12,87,65
India,West_Bengal,Howrah,"Ghusuri, Howrah - WBPCB",18-04-2024 17:00:00,22.611968,88.347422,SO2,4,6,5
India,West_Bengal,Howrah,"Padmapukur, Howrah - WBPCB",18-04-2024 17:00:00,22.5687319,88.2797276,SO2,10,102,25
India,West_Bengal,Howrah,"Padmapukur, Howrah - WBPCB",18-04-2024 17:00:00,22.5687319,88.2797276,CO,6,46,19
India,West_Bengal,Howrah,"Padmapukur, Howrah - WBPCB",18-04-2024 17:00:00,22.5687319,88.2797276,OZONE,22,92,74
India,West_Bengal,Kolkata,"Ballygunge, Kolkata - WBPCB",18-04-2024 17:00:00,22.5367507,88.3638022,PM10,61,118,92
India,West_Bengal,Kolkata,"Ballygunge, Kolkata - WBPCB",18-04-2024 17:00:00,22.5367507,88.3638022,NO2,13,57,34
India,West_Bengal,Kolkata,"Bidhannagar, Kolkata - WBPCB",18-04-2024 17:00:00,22.58157048,88.41002457,PM10,60,113,92
India,West_Bengal,Kolkata,"Fort William, Kolkata - WBPCB",18-04-2024 17:00:00,22.556640,88.342674,PM10,70,139,105
India,West_Bengal,Kolkata,"Fort William, Kolkata - WBPCB",18-04-2024 17:00:00,22.556640,88.342674,CO,8,36,15
India,West_Bengal,Kolkata,"Rabindra Bharati University, Kolkata - WBPCB",18-04-2024 17:00:00,22.627847,88.380669,PM2.5,37,71,52
India,West_Bengal,Kolkata,"Rabindra Bharati University, Kolkata - WBPCB",18-04-2024 17:00:00,22.627847,88.380669,NO2,36,42,40
India,West_Bengal,Kolkata,"Rabindra Sarobar, Kolkata - WBPCB",18-04-2024 17:00:00,22.51106,88.35142,PM2.5,38,78,58
India,West_Bengal,Kolkata,"Rabindra Sarobar, Kolkata - WBPCB",18-04-2024 17:00:00,22.51106,88.35142,PM10,67,113,95
India,West_Bengal,Kolkata,"Victoria, Kolkata - WBPCB",18-04-2024 17:00:00,22.5448082,88.3403691,PM2.5,50,110,72
India,West_Bengal,Kolkata,"Victoria, Kolkata - WBPCB",18-04-2024 17:00:00,22.5448082,88.3403691,NH3,1,2,2
India,West_Bengal,Kolkata,"Victoria, Kolkata - WBPCB",18-04-2024 17:00:00,22.5448082,88.3403691,SO2,8,27,14
India,West_Bengal,Siliguri,"Ward-32 Bapupara, Siliguri - WBPCB",18-04-2024 17:00:00,26.6879226,88.4152495,OZONE,15,50,44
India,Andhra_Pradesh,Chittoor,"Gangineni Cheruvu, Chittoor - APPCB",18-04-2024 17:00:00,13.204880,79.097889,NO2,NA,NA,NA
India,Andhra_Pradesh,Chittoor,"Gangineni Cheruvu, Chittoor - APPCB",18-04-2024 17:00:00,13.204880,79.097889,CO,64,64,64
India,Andhra_Pradesh,Rajamahendravaram,"Anand Kala Kshetram, Rajamahendravaram - APPCB",18-04-2024 17:00:00,16.9872867,81.7363176,PM2.5,18,57,30
India,Andhra_Pradesh,Rajamahendravaram,"Anand Kala Kshetram, Rajamahendravaram - APPCB",18-04-2024 17:00:00,16.9872867,81.7363176,OZONE,19,32,24
India,Andhra_Pradesh,Tirupati,"Tirumala, Tirupati - APPCB",18-04-2024 17:00:00,13.67,79.35,OZONE,27,83,60
India,Andhra_Pradesh,Tirupati,"Vaikuntapuram, Tirupati - APPCB",18-04-2024 17:00:00,13.615387,79.409230,SO2,NA,NA,NA
India,Andhra_Pradesh,Vijayawada,"HB Colony, Vijayawada - APPCB",18-04-2024 17:00:00,16.536107,80.594233,NO2,NA,NA,NA
India,Andhra_Pradesh,Vijayawada,"Rajiv Gandhi Park, Vijayawada - APPCB",18-04-2024 17:00:00,16.509717,80.612222,SO2,NA,NA,NA
India,Andhra_Pradesh,Visakhapatnam,"GVM Corporation, Visakhapatnam - APPCB",18-04-2024 17:00:00,17.72,83.3,SO2,8,17,13
India,Assam,Byrnihat,"Central Academy for SFS, Byrnihat - PCBA",18-04-2024 17:00:00,26.071318,91.87488,PM10,9,114,44
India,Assam,Byrnihat,"Central Academy for SFS, Byrnihat - PCBA",18-04-2024 17:00:00,26.071318,91.87488,SO2,7,9,8
India,Assam,Guwahati,"IITG, Guwahati - PCBA",18-04-2024 17:00:00,26.2028636,91.70046436,CO,7,12,9
India,Assam,Guwahati,"Pan Bazaar, Guwahati - PCBA",18-04-2024 17:00:00,26.187500,91.744194,PM2.5,NA,NA,NA
India,Assam,Guwahati,"Railway Colony, Guwahati - PCBA",18-04-2024 17:00:00,26.181742,91.78063,PM2.5,22,315,89
India,Assam,Nalbari,"Bata Chowk, Nalbari - PCBA",18-04-2024 17:00:00,26.446912,91.439057,PM2.5,20,57,31
India,Assam,Nalbari,"Bata Chowk, Nalbari - PCBA",18-04-2024 17:00:00,26.446912,91.439057,SO2,6,10,9
India,Assam,Silchar,"Tarapur, Silchar - PCBA",18-04-2024 17:00:00,24.82827,92.79525,NH3,1,1,1
India,Assam,Silchar,"Tarapur, Silchar - PCBA",18-04-2024 17:00:00,24.82827,92.79525,CO,20,60,37
India,Assam,Sivasagar,"Girls College, Sivasagar - PCBA",18-04-2024 17:00:00,26.987634,94.636574,SO2,2,4,4
India,Assam,Sivasagar,"Girls College, Sivasagar - PCBA",18-04-2024 17:00:00,26.987634,94.636574,CO,4,8,8
India,Bihar,Araria,"Kharahiya Basti, Araria - BSPCB",18-04-2024 17:00:00,26.146529,87.454184,CO,21,35,29
India,Bihar,Arrah,"New DM Office, Arrah - BSPCB",18-04-2024 17:00:00,25.5626095,84.663264,PM10,NA,NA,NA
India,Bihar,Aurangabad,"Gurdeo Nagar, Aurangabad - BSPCB",18-04-2024 17:00:00,24.75746,84.366208,NH3,3,8,5
India,Bihar,Aurangabad,"Gurdeo Nagar, Aurangabad - BSPCB",18-04-2024 17:00:00,24.75746,84.366208,SO2,2,10,6
India,Bihar,Bettiah,"Kamalnath Nagar, Bettiah - BSPCB",18-04-2024 17:00:00,26.80365,84.51954,PM2.5,140,346,212
India,Bihar,Bhagalpur,"DM Office_Kachari Chowk, Bhagalpur - BSPCB",18-04-2024 17:00:00,25.251013,86.989001,CO,40,87,51
India,Bihar,Bihar Sharif,"D M Colony, Bihar Sharif - BSPCB",18-04-2024 17:00:00,25.204762,85.514960,PM10,57,111,78
India,Bihar,Bihar Sharif,"D M Colony, Bihar Sharif - BSPCB",18-04-2024 17:00:00,25.204762,85.514960,SO2,1,15,10
India,Bihar,Chhapra,"Darshan Nagar, Chhapra - BSPCB",18-04-2024 17:00:00,25.7808257,84.7446768,PM2.5,173,397,255
India,Bihar,Chhapra,"Darshan Nagar, Chhapra - BSPCB",18-04-2024 17:00:00,25.7808257,84.7446768,PM10,122,362,164
India,Bihar,Chhapra,"Darshan Nagar, Chhapra - BSPCB",18-04-2024 17:00:00,25.7808257,84.7446768,NO2,23,31,27
India,Bihar,Chhapra,"Darshan Nagar, Chhapra - BSPCB",18-04-2024 17:00:00,25.7808257,84.7446768,NH3,7,13,10
India,Bihar,Chhapra,"Darshan Nagar, Chhapra - BSPCB",18-04-2024 17:00:00,25.7808257,84.7446768,CO,46,71,51
India,Bihar,Gaya,"SFTI Kusdihra, Gaya - BSPCB",18-04-2024 17:00:00,24.762518,84.982348,PM10,NA,NA,NA
India,Bihar,Hajipur,"Industrial Area, Hajipur - BSPCB",18-04-2024 17:00:00,25.697189,85.245900,PM10,172,435,243
India,Bihar,Katihar,"Mirchaibari, Katihar - BSPCB",18-04-2024 17:00:00,25.560083,87.553265,NH3,6,9,8
India,Bihar,Katihar,"Mirchaibari, Katihar - BSPCB",18-04-2024 17:00:00,25.560083,87.553265,SO2,16,23,18
India,Bihar,Kishanganj,"SDM Office_Khagra, Kishanganj - BSPCB",18-04-2024 17:00:00,26.0881305,87.93840336,OZONE,57,85,74
India,Bihar,Manguraha,"Forest Rest House, Manguraha - BSPCB",18-04-2024 17:00:00,27.308328,84.531742,PM2.5,NA,NA,NA
India,Bihar,Manguraha,"Forest Rest House, Manguraha - BSPCB",18-04-2024 17:00:00,27.308328,84.531742,PM10,NA,NA,NA
India,Bihar,Motihari,"Gandak Colony, Motihari - BSPCB",18-04-2024 17:00:00,26.63086,84.90051,PM10,32,90,67
India,Bihar,Motihari,"Gandak Colony, Motihari - BSPCB",18-04-2024 17:00:00,26.63086,84.90051,SO2,4,14,7
India,Bihar,Munger,"Town Hall, Munger - BSPCB",18-04-2024 17:00:00,25.376776,86.471523,NH3,2,2,2
India,Bihar,Munger,"Town Hall, Munger - BSPCB",18-04-2024 17:00:00,25.376776,86.471523,SO2,10,18,14
India,Bihar,Muzaffarpur,"MIT-Daudpur Kothi, Muzaffarpur - BSPCB",18-04-2024 17:00:00,26.1403345,85.3650192,PM10,NA,NA,NA
India,Bihar,Muzaffarpur,"MIT-Daudpur Kothi, Muzaffarpur - BSPCB",18-04-2024 17:00:00,26.1403345,85.3650192,SO2,NA,NA,NA
India,Bihar,Patna,"DRM Office Danapur, Patna - BSPCB",18-04-2024 17:00:00,25.586562,85.043586,PM2.5,174,404,273
India,Bihar,Patna,"DRM Office Danapur, Patna - BSPCB",18-04-2024 17:00:00,25.586562,85.043586,NO2,6,88,40
India,Bihar,Patna,"DRM Office Danapur, Patna - BSPCB",18-04-2024 17:00:00,25.586562,85.043586,NH3,2,3,3
India,Bihar,Patna,"DRM Office Danapur, Patna - BSPCB",18-04-2024 17:00:00,25.586562,85.043586,SO2,7,16,12
India,Bihar,Patna,"Govt. High School Shikarpur, Patna - BSPCB",18-04-2024 17:00:00,25.592539,85.227158,NO2,16,18,17
India,Bihar,Patna,"Govt. High School Shikarpur, Patna - BSPCB",18-04-2024 17:00:00,25.592539,85.227158,SO2,8,11,10
India,Bihar,Patna,"IGSC Planetarium Complex, Patna - BSPCB",18-04-2024 17:00:00,25.610369,85.132568,PM2.5,78,475,246
India,Bihar,Patna,"IGSC Planetarium Complex, Patna - BSPCB",18-04-2024 17:00:00,25.610369,85.132568,NO2,11,11,11
India,Bihar,Patna,"Muradpur, Patna - BSPCB",18-04-2024 17:00:00,25.619651,85.147382,NH3,2,4,3
India,Bihar,Patna,"Samanpura, Patna - BSPCB",18-04-2024 17:00:00,25.596727,85.085624,SO2,8,12,10
India,Bihar,Patna,"Samanpura, Patna - BSPCB",18-04-2024 17:00:00,25.596727,85.085624,CO,28,111,38
India,Bihar,Purnia,"Mariam Nagar, Purnia - BSPCB",18-04-2024 17:00:00,25.366336,87.117468,NO2,4,10,7
India,Bihar,Purnia,"Mariam Nagar, Purnia - BSPCB",18-04-2024 17:00:00,25.366336,87.117468,SO2,7,12,9
India,Bihar,Rajgir,"Dangi Tola, Rajgir - BSPCB",18-04-2024 17:00:00,25.03280,85.41948,OZONE,30,42,36
India,Bihar,Samastipur,"DM Office_Kasipur, Samastipur - BSPCB",18-04-2024 17:00:00,25.859655,85.77944,NO2,2,13,5
India,Bihar,Samastipur,"DM Office_Kasipur, Samastipur - BSPCB",18-04-2024 17:00:00,25.859655,85.77944,NH3,3,4,3
India,Bihar,Samastipur,"DM Office_Kasipur, Samastipur - BSPCB",18-04-2024 17:00:00,25.859655,85.77944,SO2,9,10,10
India,Bihar,Siwan,"Chitragupta Nagar, Siwan - BSPCB",18-04-2024 17:00:00,26.2271665,84.3570427,NH3,1,6,3
India,Bihar,Siwan,"Chitragupta Nagar, Siwan - BSPCB",18-04-2024 17:00:00,26.2271665,84.3570427,OZONE,23,89,56
India,Chandigarh,Chandigarh,"Sector 22, Chandigarh - CPCC",18-04-2024 17:00:00,30.735567,76.775714,CO,29,44,37
India,Chandigarh,Chandigarh,"Sector-25, Chandigarh - CPCC",18-04-2024 17:00:00,30.751462,76.762879,CO,10,25,16
India,Chhattisgarh,Bhilai,"32Bungalows, Bhilai - CECB",18-04-2024 17:00:00,21.194815,81.314770,SO2,4,9,6
India,Chhattisgarh,Bhilai,"32Bungalows, Bhilai - CECB",18-04-2024 17:00:00,21.194815,81.314770,OZONE,5,61,30
India,Chhattisgarh,Bhilai,"Civic Center, Bhilai - Bhilai Steel Plant",18-04-2024 17:00:00,21.185571,81.343175,OZONE,8,60,44
India,Chhattisgarh,Bhilai,"Hathkhoj, Bhilai - CECB",18-04-2024 17:00:00,21.224231,81.408350,PM10,45,153,85
India,Chhattisgarh,Bhilai,"Hathkhoj, Bhilai - CECB",18-04-2024 17:00:00,21.224231,81.408350,NH3,7,8,7
India,Chhattisgarh,Bhilai,"Hathkhoj, Bhilai - CECB",18-04-2024 17:00:00,21.224231,81.408350,SO2,10,32,17
India,Chhattisgarh,Bhilai,"Hathkhoj, Bhilai - CECB",18-04-2024 17:00:00,21.224231,81.408350,CO,6,38,9
India,Chhattisgarh,Bhilai,"Hathkhoj, Bhilai - CECB",18-04-2024 17:00:00,21.224231,81.408350,OZONE,5,21,19
India,Chhattisgarh,Chhal,"Nawapara SECL Colony, Chhal - CECB",18-04-2024 17:00:00,22.118125,83.140608,NH3,2,2,2
India,Chhattisgarh,Chhal,"Nawapara SECL Colony, Chhal - CECB",18-04-2024 17:00:00,22.118125,83.140608,SO2,9,41,18
India,Chhattisgarh,Chhal,"Nawapara SECL Colony, Chhal - CECB",18-04-2024 17:00:00,22.118125,83.140608,OZONE,10,97,92
India,Chhattisgarh,Korba,"Rampur, Korba - CECB",18-04-2024 17:00:00,22.368195,82.746431,PM2.5,NA,NA,NA
India,Chhattisgarh,Korba,"Rampur, Korba - CECB",18-04-2024 17:00:00,22.368195,82.746431,PM10,NA,NA,NA
India,Chhattisgarh,Korba,"Rampur, Korba - CECB",18-04-2024 17:00:00,22.368195,82.746431,SO2,NA,NA,NA
India,Chhattisgarh,Korba,"Rampur, Korba - CECB",18-04-2024 17:00:00,22.368195,82.746431,OZONE,11,28,20
India,Chhattisgarh,Korba,"Urja Nagar, Korba - CECB",18-04-2024 17:00:00,22.348441,82.549611,CO,2,44,14
India,Chhattisgarh,Korba,"Urja Nagar, Korba - CECB",18-04-2024 17:00:00,22.348441,82.549611,OZONE,17,57,38
India,Chhattisgarh,Kunjemura,"OP Jindal School, Kunjemura - CECB",18-04-2024 17:00:00,22.126650,83.483212,NO2,10,96,45
India,Chhattisgarh,Kunjemura,"OP Jindal School, Kunjemura - CECB",18-04-2024 17:00:00,22.126650,83.483212,CO,14,74,19
India,Chhattisgarh,Milupara,"Govt. Higher Secondary School, Milupara - CECB",18-04-2024 17:00:00,22.1910172,83.5197009,SO2,NA,NA,NA
India,Chhattisgarh,Raipur,"AIIMS, Raipur - CECB",18-04-2024 17:00:00,21.258815,81.578979,PM2.5,25,91,42
India,Chhattisgarh,Raipur,"AIIMS, Raipur - CECB",18-04-2024 17:00:00,21.258815,81.578979,PM10,33,129,70
India,Chhattisgarh,Raipur,"AIIMS, Raipur - CECB",18-04-2024 17:00:00,21.258815,81.578979,SO2,5,61,15
India,Chhattisgarh,Raipur,"Krishak Nagar, Raipur - CECB",18-04-2024 17:00:00,21.237755,81.705301,NO2,1,2,1
India,Chhattisgarh,Raipur,"Siltara Phase-II, Raipur - CECB",18-04-2024 17:00:00,21.371751,81.664929,SO2,NA,NA,NA
India,Chhattisgarh,Tumidih,"OP Jindal Industrial Park, Tumidih - CECB",18-04-2024 17:00:00,22.06631475,83.33820077,PM10,NA,NA,NA
India,Chhattisgarh,Tumidih,"OP Jindal Industrial Park, Tumidih - CECB",18-04-2024 17:00:00,22.06631475,83.33820077,CO,18,48,18
India,Chhattisgarh,Tumidih,"OP Jindal Industrial Park, Tumidih - CECB",18-04-2024 17:00:00,22.06631475,83.33820077,OZONE,8,66,60
India,Delhi,Delhi,"Alipur, Delhi - DPCC",18-04-2024 17:00:00,28.815329,77.153010,PM2.5,17,227,67
India,Delhi,Delhi,"Alipur, Delhi - DPCC",18-04-2024 17:00:00,28.815329,77.153010,NO2,10,54,26
India,Delhi,Delhi,"Alipur, Delhi - DPCC",18-04-2024 17:00:00,28.815329,77.153010,OZONE,34,151,96
India,Delhi,Delhi,"Ashok Vihar, Delhi - DPCC",18-04-2024 17:00:00,28.695381,77.181665,SO2,18,44,31
India,Delhi,Delhi,"Aya Nagar, Delhi - IMD",18-04-2024 17:00:00,28.4706914,77.1099364,PM10,108,202,150
India,Delhi,Delhi,"Bawana, Delhi - DPCC",18-04-2024 17:00:00,28.776200,77.051074,PM2.5,30,337,131
India,Delhi,Delhi,"Bawana, Delhi - DPCC",18-04-2024 17:00:00,28.776200,77.051074,NO2,11,40,27
India,Delhi,Delhi,"CRRI Mathura Road, Delhi - IMD",18-04-2024 17:00:00,28.5512005,77.2735737,OZONE,1,68,39
India,Delhi,Delhi,"DTU, Delhi - CPCB",18-04-2024 17:00:00,28.7500499,77.1112615,PM10,87,500,174
India,Delhi,Delhi,"Dr. Karni Singh Shooting Range, Delhi - DPCC",18-04-2024 17:00:00,28.498571,77.264840,NO2,24,78,49
India,Delhi,Delhi,"Dr. Karni Singh Shooting Range, Delhi - DPCC",18-04-2024 17:00:00,28.498571,77.264840,CO,24,52,35
India,Delhi,Delhi,"Dwarka-Sector 8, Delhi - DPCC ",18-04-2024 17:00:00,28.5710274,77.0719006,NH3,5,9,7
India,Delhi,Delhi,"IGI Airport (T3), Delhi - IMD",18-04-2024 17:00:00,28.5627763,77.1180053,CO,14,46,29
India,Delhi,Delhi,"IGI Airport (T3), Delhi - IMD",18-04-2024 17:00:00,28.5627763,77.1180053,OZONE,6,51,39
India,Delhi,Delhi,"IHBAS, Dilshad Garden, Delhi - CPCB",18-04-2024 17:00:00,28.6811736,77.3025234,OZONE,7,57,47
India,Delhi,Delhi,"ITO, Delhi - CPCB",18-04-2024 17:00:00,28.628624,77.241060,CO,28,53,37
India,Delhi,Delhi,"Jahangirpuri, Delhi - DPCC",18-04-2024 17:00:00,28.732820,77.170633,CO,43,107,52
India,Delhi,Delhi,"Lodhi Road, Delhi - IITM",18-04-2024 17:00:00,28.588333,77.221667,PM10,79,142,109
India,Delhi,Delhi,"Lodhi Road, Delhi - IMD",18-04-2024 17:00:00,28.5918245,77.2273074,CO,8,14,13
India,Delhi,Delhi,"Major Dhyan Chand National Stadium, Delhi - DPCC",18-04-2024 17:00:00,28.611281,77.237738,PM2.5,37,251,84
India,Delhi,Delhi,"Major Dhyan Chand National Stadium, Delhi - DPCC",18-04-2024 17:00:00,28.611281,77.237738,OZONE,4,147,107
India,Delhi,Delhi,"Mandir Marg, Delhi - DPCC",18-04-2024 17:00:00,28.636429,77.201067,OZONE,1,22,13
India,Delhi,Delhi,"Mundka, Delhi - DPCC",18-04-2024 17:00:00,28.684678,77.076574,PM2.5,22,324,99
India,Delhi,Delhi,"Mundka, Delhi - DPCC",18-04-2024 17:00:00,28.684678,77.076574,NH3,2,15,6
India,Delhi,Delhi,"Mundka, Delhi - DPCC",18-04-2024 17:00:00,28.684678,77.076574,OZONE,4,138,75
India,Delhi,Delhi,"NSIT Dwarka, Delhi - CPCB",18-04-2024 17:00:00,28.60909,77.0325413,NO2,34,50,43
India,Delhi,Delhi,"NSIT Dwarka, Delhi - CPCB",18-04-2024 17:00:00,28.60909,77.0325413,SO2,2,57,24
India,Delhi,Delhi,"NSIT Dwarka, Delhi - CPCB",18-04-2024 17:00:00,28.60909,77.0325413,CO,24,50,31
India,Delhi,Delhi,"Najafgarh, Delhi - DPCC",18-04-2024 17:00:00,28.570173,76.933762,PM2.5,13,293,105
India,Delhi,Delhi,"Najafgarh, Delhi - DPCC",18-04-2024 17:00:00,28.570173,76.933762,NO2,8,42,19
India,Delhi,Delhi,"Najafgarh, Delhi - DPCC",18-04-2024 17:00:00,28.570173,76.933762,NH3,5,10,9
India,Delhi,Delhi,"Narela, Delhi - DPCC",18-04-2024 17:00:00,28.822836,77.101981,NO2,6,46,23
India,Delhi,Delhi,"Narela, Delhi - DPCC",18-04-2024 17:00:00,28.822836,77.101981,CO,24,49,32
India,Delhi,Delhi,"Okhla Phase-2, Delhi - DPCC",18-04-2024 17:00:00,28.530785,77.271255,NO2,41,113,78
India,Delhi,Delhi,"Punjabi Bagh, Delhi - DPCC",18-04-2024 17:00:00,28.674045,77.131023,OZONE,3,30,19
India,Delhi,Delhi,"Pusa, Delhi - IMD",18-04-2024 17:00:00,28.636110,77.173332,PM2.5,87,306,165
India,Delhi,Delhi,"Pusa, Delhi - IMD",18-04-2024 17:00:00,28.636110,77.173332,PM10,121,217,171
India,Delhi,Delhi,"Rohini, Delhi - DPCC",18-04-2024 17:00:00,28.732528,77.119920,PM10,83,334,168
India,Delhi,Delhi,"Rohini, Delhi - DPCC",18-04-2024 17:00:00,28.732528,77.119920,NO2,13,65,34
India,Delhi,Delhi,"Rohini, Delhi - DPCC",18-04-2024 17:00:00,28.732528,77.119920,OZONE,9,123,87
India,Delhi,Delhi,"Sonia Vihar, Delhi - DPCC",18-04-2024 17:00:00,28.710508,77.249485,CO,49,68,57
India,Delhi,Delhi,"Sri Aurobindo Marg, Delhi - DPCC",18-04-2024 17:00:00,28.531346,77.190156,NO2,11,71,38
India,Delhi,Delhi,"Sri Aurobindo Marg, Delhi - DPCC",18-04-2024 17:00:00,28.531346,77.190156,CO,10,34,17
India,Gujarat,Ahmedabad,"Chandkheda, Ahmedabad - IITM",18-04-2024 17:00:00,23.107969,72.574648,OZONE,9,47,33
India,Gujarat,Ahmedabad,"Gyaspur, Ahmedabad - IITM",18-04-2024 17:00:00,22.977134,72.553024,NH3,2,11,10
India,Gujarat,Ahmedabad,"Maninagar, Ahmedabad - GPCB",18-04-2024 17:00:00,23.002657,72.591912,PM2.5,2,107,46
India,Gujarat,Ahmedabad,"Maninagar, Ahmedabad - GPCB",18-04-2024 17:00:00,23.002657,72.591912,PM10,NA,NA,NA
India,Gujarat,Ahmedabad,"Maninagar, Ahmedabad - GPCB",18-04-2024 17:00:00,23.002657,72.591912,SO2,1,100,38
India,Gujarat,Ahmedabad,"Rakhial, Ahmedabad - IITM",18-04-2024 17:00:00,23.016834,72.625775,PM2.5,42,127,66
India,Gujarat,Ahmedabad,"Rakhial, Ahmedabad - IITM",18-04-2024 17:00:00,23.016834,72.625775,NO2,8,28,13
India,Gujarat,Ahmedabad,"Rakhial, Ahmedabad - IITM",18-04-2024 17:00:00,23.016834,72.625775,SO2,5,71,16
India,Gujarat,Ahmedabad,"SVPI Airport Hansol, Ahmedabad - IITM",18-04-2024 17:00:00,23.076793,72.627874,CO,40,105,61
India,Gujarat,Ahmedabad,"Sardar Vallabhbhai Patel Stadium, Ahmedabad - IITM",18-04-2024 17:00:00,23.043070,72.562968,PM2.5,40,303,78
India,Gujarat,Ahmedabad,"Sardar Vallabhbhai Patel Stadium, Ahmedabad - IITM",18-04-2024 17:00:00,23.043070,72.562968,SO2,2,42,12
India,Gujarat,Gandhinagar,"Sector-10, Gandhinagar - GPCB",18-04-2024 17:00:00,23.221714,72.654328,SO2,4,5,5
India,Gujarat,Nandesari,"GIDC, Nandesari - Nandesari Ind. Association",18-04-2024 17:00:00,22.410802,73.097923,PM2.5,NA,NA,NA
India,Gujarat,Nandesari,"GIDC, Nandesari - Nandesari Ind. Association",18-04-2024 17:00:00,22.410802,73.097923,NO2,NA,NA,NA
India,Gujarat,Surat,"Science Center, Surat - SMC",18-04-2024 17:00:00,21.170046,72.795405,PM2.5,3,28,15
India,Gujarat,Surat,"Science Center, Surat - SMC",18-04-2024 17:00:00,21.170046,72.795405,NO2,30,52,37
India,Gujarat,Vatva,"Phase-4 GIDC, Vatva - GPCB",18-04-2024 17:00:00,22.969611,72.643500,PM2.5,21,73,40
India,Gujarat,Vatva,"Phase-4 GIDC, Vatva - GPCB",18-04-2024 17:00:00,22.969611,72.643500,PM10,47,128,73
India,Haryana,Ambala,"Patti Mehar, Ambala - HSPCB",18-04-2024 17:00:00,30.379589,76.778328,NO2,3,5,4
India,Haryana,Bahadurgarh,"Arya Nagar, Bahadurgarh - HSPCB",18-04-2024 17:00:00,28.6701,76.9254,PM10,54,202,122
India,Haryana,Ballabgarh,"Nathu Colony, Ballabgarh - HSPCB",18-04-2024 17:00:00,28.3419248,77.319699,PM2.5,81,310,208
India,Haryana,Ballabgarh,"Nathu Colony, Ballabgarh - HSPCB",18-04-2024 17:00:00,28.3419248,77.319699,OZONE,6,17,16
India,Haryana,Charkhi Dadri,"Mini Secretariat, Charkhi Dadri - HSPCB",18-04-2024 17:00:00,28.593883,76.270653,SO2,3,25,14
India,Haryana,Dharuhera,"Municipal Corporation Office, Dharuhera -  HSPCB",18-04-2024 17:00:00,28.206800,76.799700,PM10,78,274,195
India,Haryana,Faridabad,"New Industrial Town, Faridabad - HSPCB",18-04-2024 17:00:00,28.39072,77.30059,PM2.5,155,366,283
India,Haryana,Faridabad,"New Industrial Town, Faridabad - HSPCB",18-04-2024 17:00:00,28.39072,77.30059,NH3,1,3,2
India,Haryana,Faridabad,"New Industrial Town, Faridabad - HSPCB",18-04-2024 17:00:00,28.39072,77.30059,SO2,18,20,19
India,Haryana,Faridabad,"Sector 11, Faridabad - HSPCB",18-04-2024 17:00:00,28.376058,77.315741,PM10,74,341,174
India,Haryana,Faridabad,"Sector 11, Faridabad - HSPCB",18-04-2024 17:00:00,28.376058,77.315741,NO2,30,33,31
India,Haryana,Faridabad,"Sector 11, Faridabad - HSPCB",18-04-2024 17:00:00,28.376058,77.315741,SO2,2,121,9
India,Haryana,Faridabad,"Sector- 16A, Faridabad - HSPCB",18-04-2024 17:00:00,28.4088421,77.3099081,PM2.5,31,352,69
India,Haryana,Faridabad,"Sector- 16A, Faridabad - HSPCB",18-04-2024 17:00:00,28.4088421,77.3099081,CO,2,113,69
India,Haryana,Fatehabad,"Huda Sector, Fatehabad - HSPCB",18-04-2024 17:00:00,29.503664,75.467934,PM2.5,12,139,57
India,Haryana,Fatehabad,"Huda Sector, Fatehabad - HSPCB",18-04-2024 17:00:00,29.503664,75.467934,NO2,29,32,30
India,Haryana,Gurugram,"Sector-51, Gurugram - HSPCB",18-04-2024 17:00:00,28.4227,77.0667,NH3,6,14,9
India,Haryana,Gurugram,"Vikas Sadan, Gurugram - HSPCB",18-04-2024 17:00:00,28.4501238,77.0263051,CO,53,148,112
India,Haryana,Karnal,"Sector-12, Karnal - HSPCB",18-04-2024 17:00:00,29.695300,77.002700,NO2,7,12,10
India,Haryana,Karnal,"Sector-12, Karnal - HSPCB",18-04-2024 17:00:00,29.695300,77.002700,CO,8,34,22
India,Haryana,Karnal,"Sector-12, Karnal - HSPCB",18-04-2024 17:00:00,29.695300,77.002700,OZONE,19,36,30
India,Haryana,Kurukshetra,"Sector-7, Kurukshetra - HSPCB",18-04-2024 17:00:00,29.966942,76.875879,PM2.5,8,104,61
India,Haryana,Kurukshetra,"Sector-7, Kurukshetra - HSPCB",18-04-2024 17:00:00,29.966942,76.875879,PM10,27,114,85
India,Haryana,Kurukshetra,"Sector-7, Kurukshetra - HSPCB",18-04-2024 17:00:00,29.966942,76.875879,NO2,10,10,10
India,Haryana,Kurukshetra,"Sector-7, Kurukshetra - HSPCB",18-04-2024 17:00:00,29.966942,76.875879,NH3,5,5,5
India,Haryana,Mandikhera,"General Hospital, Mandikhera - HSPCB",18-04-2024 17:00:00,27.9002,76.9938,NO2,20,24,22
India,Haryana,Mandikhera,"General Hospital, Mandikhera - HSPCB",18-04-2024 17:00:00,27.9002,76.9938,SO2,30,37,34
India,Haryana,Manesar,"Sector-2 IMT, Manesar - HSPCB",18-04-2024 17:00:00,28.360699,76.936090,SO2,1,15,8
India,Haryana,Panipat,"Sector-18, Panipat - HSPCB",18-04-2024 17:00:00,29.497973,76.993331,PM2.5,62,66,65
India,Haryana,Rohtak,"MD University, Rohtak - HSPCB",18-04-2024 17:00:00,28.52123,76.37138,NO2,45,55,51
India,Haryana,Sirsa,"F-Block, Sirsa - HSPCB",18-04-2024 17:00:00,29.536400,75.015800,OZONE,25,100,84
India,Haryana,Sonipat,"Murthal, Sonipat - HSPCB",18-04-2024 17:00:00,29.027200,77.062100,NO2,37,44,40
India,Haryana,Sonipat,"Murthal, Sonipat - HSPCB",18-04-2024 17:00:00,29.027200,77.062100,SO2,13,29,20
India,Haryana,Yamuna Nagar,"Gobind Pura, Yamuna Nagar - HSPCB",18-04-2024 17:00:00,30.1480566,77.2893471,SO2,2,10,5
India,Himachal Pradesh,Baddi,"HIMUDA Complex Phase-1, Baddi - HPPCB",18-04-2024 17:00:00,30.943887,76.801991,NO2,5,67,23
India,Jharkhand,Dhanbad,"Kalakusuma, Dhanbad - DMC",18-04-2024 17:00:00,23.811548,86.481238,OZONE,26,31,28
India,Jharkhand,Dhanbad,"Sardar Patel Nagar, Dhanbad - JSPCB",18-04-2024 17:00:00,23.80569,86.44268,SO2,NA,NA,NA
India,Karnataka,Belgaum,"Ramteerth Nagar, Belgaum - KSPCB",18-04-2024 17:00:00,15.888653,74.541751,PM10,33,80,53
India,Karnataka,Bengaluru,"BTM Layout, Bengaluru - CPCB",18-04-2024 17:00:00,12.9135218,77.5950804,NO2,27,28,27
India,Karnataka,Bengaluru,"Bapuji Nagar, Bengaluru - KSPCB",18-04-2024 17:00:00,12.951913,77.539784,PM10,69,122,94
India,Karnataka,Bengaluru,"Hombegowda Nagar, Bengaluru - KSPCB",18-04-2024 17:00:00,12.938539,77.590100,PM10,50,127,80
India,Karnataka,Bengaluru,"Hombegowda Nagar, Bengaluru - KSPCB",18-04-2024 17:00:00,12.938539,77.590100,CO,8,27,11
India,Karnataka,Bengaluru,"Kasturi Nagar, Bengaluru - KSPCB",18-04-2024 17:00:00,13.003872,77.664217,NO2,16,17,17
India,Karnataka,Bengaluru,"Sanegurava Halli, Bengaluru - KSPCB",18-04-2024 17:00:00,12.990328,77.5431385,SO2,2,3,3
India,Karnataka,Bengaluru,"Shivapura_Peenya, Bengaluru - KSPCB",18-04-2024 17:00:00,13.0246342,77.5080115,SO2,3,11,7
India,Karnataka,Bengaluru,"Silk Board, Bengaluru - KSPCB",18-04-2024 17:00:00,12.917348,77.622813,PM10,59,111,83
India,Karnataka,Bengaluru,"Silk Board, Bengaluru - KSPCB",18-04-2024 17:00:00,12.917348,77.622813,NH3,2,2,2
India,Karnataka,Bengaluru,"Silk Board, Bengaluru - KSPCB",18-04-2024 17:00:00,12.917348,77.622813,OZONE,16,65,28
India,Karnataka,Bidar,"Naubad, Bidar - KSPCB",18-04-2024 17:00:00,17.930306,77.482194,PM2.5,55,153,82
India,Karnataka,Chikkaballapur,"Chikkaballapur Rural, Chikkaballapur - KSPCB",18-04-2024 17:00:00,13.428828,77.731418,NH3,1,1,1
India,Karnataka,Chikkaballapur,"Chikkaballapur Rural, Chikkaballapur - KSPCB",18-04-2024 17:00:00,13.428828,77.731418,CO,10,30,20
India,Karnataka,Chikkamagaluru,"Kalyana Nagara, Chikkamagaluru - KSPCB",18-04-2024 17:00:00,13.328028,75.797056,CO,11,108,32
India,Karnataka,Davanagere,"Devaraj Urs Badavane, Davanagere - KSPCB",18-04-2024 17:00:00,14.475800,75.905200,PM2.5,NA,NA,NA
India,Karnataka,Hassan,"B.Katihalli, Hassan - KSPCB",18-04-2024 17:00:00,13.008556,76.125258,PM10,37,103,53
India,Karnataka,Hassan,"B.Katihalli, Hassan - KSPCB",18-04-2024 17:00:00,13.008556,76.125258,NO2,3,34,15
India,Karnataka,Haveri,"Ashwini Nagar, Haveri - KSPCB",18-04-2024 17:00:00,14.791800,75.389600,SO2,14,14,14
India,Karnataka,Haveri,"Ashwini Nagar, Haveri - KSPCB",18-04-2024 17:00:00,14.791800,75.389600,OZONE,18,21,20
India,Karnataka,Hubballi,"Deshpande Nagar, Hubballi - KSPCB",18-04-2024 17:00:00,15.351773,75.140726,PM2.5,NA,NA,NA
India,Karnataka,Hubballi,"Deshpande Nagar, Hubballi - KSPCB",18-04-2024 17:00:00,15.351773,75.140726,PM10,NA,NA,NA
India,Karnataka,Hubballi,"Deshpande Nagar, Hubballi - KSPCB",18-04-2024 17:00:00,15.351773,75.140726,NO2,NA,NA,NA
India,Karnataka,Kalaburagi,"Lal Bahadur Shastri Nagar, Kalaburagi - KSPCB",18-04-2024 17:00:00,17.321993,76.822628,SO2,11,14,13
India,Karnataka,Kalaburagi,"Mahatma Basaveswar Colony, Kalaburgi - KSPCB",18-04-2024 17:00:00,17.336318,76.847397,NO2,NA,NA,NA
India,Karnataka,Karwar,"KHB Colony, Karwar - KSPCB",18-04-2024 17:00:00,14.816666,74.141003,CO,8,8,8
India,Karnataka,Koppal,"Diwator Nagar, Koppal - KSPCB",18-04-2024 17:00:00,15.347630,76.181767,PM10,NA,NA,NA
India,Karnataka,Koppal,"Diwator Nagar, Koppal - KSPCB",18-04-2024 17:00:00,15.347630,76.181767,NO2,NA,NA,NA
India,Karnataka,Koppal,"Diwator Nagar, Koppal - KSPCB",18-04-2024 17:00:00,15.347630,76.181767,SO2,NA,NA,NA
India,Karnataka,Koppal,"Diwator Nagar, Koppal - KSPCB",18-04-2024 17:00:00,15.347630,76.181767,CO,125,127,126
