country,state,city,station,last_update,latitude,longitude,pollutant_id,pollutant_min,pollutant_max,pollutant_avg
India,Andhra_Pradesh,Amaravati,"Secretariat, Amaravati - APPCB",20-07-2024 18:00:00,16.5150833,80.5181667,PM2.5,3,16,11
India,Andhra_Pradesh,Chittoor,"Gangineni Cheruvu, Chittoor - APPCB",20-07-2024 18:00:00,13.204880,79.097889,NO2,NA,NA,NA
India,Andhra_Pradesh,Kadapa,"Yerramukkapalli, Kadapa - APPCB",20-07-2024 18:00:00,14.465052,78.824187,PM2.5,38,50,44
India,Andhra_Pradesh,Rajamahendravaram,"Anand Kala Kshetram, Rajamahendravaram - APPCB",20-07-2024 18:00:00,16.9872867,81.7363176,NO2,3,29,7
India,Andhra_Pradesh,Rajamahendravaram,"Anand Kala Kshetram, Rajamahendravaram - APPCB",20-07-2024 18:00:00,16.9872867,81.7363176,OZONE,3,10,5
India,Andhra_Pradesh,Tirupati,"Tirumala, Tirupati - APPCB",20-07-2024 18:00:00,13.67,79.35,NH3,1,2,1
India,Andhra_Pradesh,Tirupati,"Vaikuntapuram, Tirupati - APPCB",20-07-2024 18:00:00,13.615387,79.409230,SO2,NA,NA,NA
India,Andhra_Pradesh,Vijayawada,"Kanuru, Vijayawada - APPCB",20-07-2024 18:00:00,16.486692,80.699436,PM10,29,36,33
India,Andhra_Pradesh,Vijayawada,"Kanuru, Vijayawada - APPCB",20-07-2024 18:00:00,16.486692,80.699436,OZONE,30,32,31
India,Andhra_Pradesh,Vijayawada,"Rajiv Gandhi Park, Vijayawada - APPCB",20-07-2024 18:00:00,16.509717,80.612222,PM10,33,51,40
India,Andhra_Pradesh,Vijayawada,"Rajiv Nagar, Vijayawada - APPCB",20-07-2024 18:00:00,16.554731,80.649110,OZONE,16,25,19
India,Andhra_Pradesh,Visakhapatnam,"GVM Corporation, Visakhapatnam - APPCB",20-07-2024 18:00:00,17.72,83.3,NO2,37,47,42
India,Arunachal_Pradesh,Naharlagun,"Naharlagun, Naharlagun - APSPCB",20-07-2024 18:00:00,27.103358,93.679645,CO,7,16,9
India,Arunachal_Pradesh,Naharlagun,"Naharlagun, Naharlagun - APSPCB",20-07-2024 18:00:00,27.103358,93.679645,OZONE,3,3,3
India,Assam,Byrnihat,"Central Academy for SFS, Byrnihat - PCBA",20-07-2024 18:00:00,26.071318,91.87488,NH3,11,16,13
India,Assam,Guwahati,"IITG, Guwahati - PCBA",20-07-2024 18:00:00,26.2028636,91.70046436,PM2.5,1,23,10
India,Assam,Guwahati,"IITG, Guwahati - PCBA",20-07-2024 18:00:00,26.2028636,91.70046436,PM10,21,49,35
India,Assam,Guwahati,"IITG, Guwahati - PCBA",20-07-2024 18:00:00,26.2028636,91.70046436,CO,6,12,7
India,Assam,Guwahati,"LGBI Airport, Guwahati - PCBA",20-07-2024 18:00:00,26.10887,91.589544,NH3,1,9,2
India,Assam,Guwahati,"LGBI Airport, Guwahati - PCBA",20-07-2024 18:00:00,26.10887,91.589544,CO,32,62,39
India,Assam,Guwahati,"Railway Colony, Guwahati - PCBA",20-07-2024 18:00:00,26.181742,91.78063,PM10,12,91,40
India,Assam,Guwahati,"Railway Colony, Guwahati - PCBA",20-07-2024 18:00:00,26.181742,91.78063,OZONE,2,4,3
India,Assam,Nalbari,"Bata Chowk, Nalbari - PCBA",20-07-2024 18:00:00,26.446912,91.439057,PM2.5,5,48,27
India,Assam,Nalbari,"Bata Chowk, Nalbari - PCBA",20-07-2024 18:00:00,26.446912,91.439057,SO2,2,58,9
India,Assam,Silchar,"Tarapur, Silchar - PCBA",20-07-2024 18:00:00,24.82827,92.79525,PM2.5,28,38,36
India,Assam,Silchar,"Tarapur, Silchar - PCBA",20-07-2024 18:00:00,24.82827,92.79525,SO2,1,6,3
India,Bihar,Araria,"Kharahiya Basti, Araria - BSPCB",20-07-2024 18:00:00,26.146529,87.454184,PM10,NA,NA,NA
India,Bihar,Araria,"Kharahiya Basti, Araria - BSPCB",20-07-2024 18:00:00,26.146529,87.454184,NO2,4,20,7
India,Bihar,Araria,"Kharahiya Basti, Araria - BSPCB",20-07-2024 18:00:00,26.146529,87.454184,CO,7,34,25
India,Bihar,Arrah,"New DM Office, Arrah - BSPCB",20-07-2024 18:00:00,25.5626095,84.663264,SO2,9,13,11
India,Bihar,Aurangabad,"Gurdeo Nagar, Aurangabad - BSPCB",20-07-2024 18:00:00,24.75746,84.366208,PM10,NA,NA,NA
India,Bihar,Aurangabad,"Gurdeo Nagar, Aurangabad - BSPCB",20-07-2024 18:00:00,24.75746,84.366208,OZONE,18,39,38
India,Bihar,Bettiah,"Kamalnath Nagar, Bettiah - BSPCB",20-07-2024 18:00:00,26.80365,84.51954,PM10,NA,NA,NA
India,Bihar,Bettiah,"Kamalnath Nagar, Bettiah - BSPCB",20-07-2024 18:00:00,26.80365,84.51954,OZONE,1,13,8
India,Bihar,Bhagalpur,"Mayaganj, Bhagalpur - BSPCB",20-07-2024 18:00:00,25.265194,87.012947,CO,21,53,25
India,Bihar,Bihar Sharif,"D M Colony, Bihar Sharif - BSPCB",20-07-2024 18:00:00,25.204762,85.514960,OZONE,NA,NA,NA
India,Bihar,Buxar,"Charitra Van, Buxar - BSPCB (Formerly known as Central Jail)",20-07-2024 18:00:00,25.567520,83.966379,OZONE,5,34,25
India,Bihar,Chhapra,"Darshan Nagar, Chhapra - BSPCB",20-07-2024 18:00:00,25.7808257,84.7446768,PM10,29,67,45
India,Bihar,Gaya,"Collectorate, Gaya - BSPCB",20-07-2024 18:00:00,24.7955,84.9994,NO2,5,7,6
India,Bihar,Gaya,"Kareemganj, Gaya - BSPCB",20-07-2024 18:00:00,24.792403,84.992416,NO2,6,8,7
India,Bihar,Gaya,"Kareemganj, Gaya - BSPCB",20-07-2024 18:00:00,24.792403,84.992416,NH3,3,4,3
India,Bihar,Gaya,"Kareemganj, Gaya - BSPCB",20-07-2024 18:00:00,24.792403,84.992416,SO2,4,17,9
India,Bihar,Gaya,"Kareemganj, Gaya - BSPCB",20-07-2024 18:00:00,24.792403,84.992416,CO,28,56,35
India,Bihar,Gaya,"SFTI Kusdihra, Gaya - BSPCB",20-07-2024 18:00:00,24.762518,84.982348,SO2,7,8,8
India,Bihar,Kishanganj,"SDM Office_Khagra, Kishanganj - BSPCB",20-07-2024 18:00:00,26.0881305,87.93840336,PM10,36,101,61
India,Bihar,Kishanganj,"SDM Office_Khagra, Kishanganj - BSPCB",20-07-2024 18:00:00,26.0881305,87.93840336,NH3,6,13,7
India,Bihar,Kishanganj,"SDM Office_Khagra, Kishanganj - BSPCB",20-07-2024 18:00:00,26.0881305,87.93840336,CO,4,7,5
India,Bihar,Kishanganj,"SDM Office_Khagra, Kishanganj - BSPCB",20-07-2024 18:00:00,26.0881305,87.93840336,OZONE,51,114,90
India,Bihar,Motihari,"Gandak Colony, Motihari - BSPCB",20-07-2024 18:00:00,26.63086,84.90051,PM10,NA,NA,NA
India,Bihar,Motihari,"Gandak Colony, Motihari - BSPCB",20-07-2024 18:00:00,26.63086,84.90051,NH3,1,2,1
India,Bihar,Motihari,"Gandak Colony, Motihari - BSPCB",20-07-2024 18:00:00,26.63086,84.90051,SO2,4,6,5
India,Bihar,Motihari,"Gandak Colony, Motihari - BSPCB",20-07-2024 18:00:00,26.63086,84.90051,CO,5,24,11
India,Bihar,Muzaffarpur,"Buddha Colony, Muzaffarpur - BSPCB",20-07-2024 18:00:00,26.11442,85.39813,PM10,34,77,53
India,Bihar,Muzaffarpur,"Buddha Colony, Muzaffarpur - BSPCB",20-07-2024 18:00:00,26.11442,85.39813,NH3,4,8,6
India,Bihar,Muzaffarpur,"MIT-Daudpur Kothi, Muzaffarpur - BSPCB",20-07-2024 18:00:00,26.1403345,85.3650192,PM10,3,168,89
India,Bihar,Muzaffarpur,"MIT-Daudpur Kothi, Muzaffarpur - BSPCB",20-07-2024 18:00:00,26.1403345,85.3650192,CO,8,80,27
India,Bihar,Muzaffarpur,"Muzaffarpur Collectorate, Muzaffarpur - BSPCB",20-07-2024 18:00:00,26.1209,85.3647,SO2,6,10,9
India,Bihar,Patna,"DRM Office Danapur, Patna - BSPCB",20-07-2024 18:00:00,25.586562,85.043586,PM2.5,48,74,59
India,Bihar,Patna,"DRM Office Danapur, Patna - BSPCB",20-07-2024 18:00:00,25.586562,85.043586,SO2,4,14,11
India,Bihar,Patna,"DRM Office Danapur, Patna - BSPCB",20-07-2024 18:00:00,25.586562,85.043586,CO,15,35,20
India,Bihar,Patna,"DRM Office Danapur, Patna - BSPCB",20-07-2024 18:00:00,25.586562,85.043586,OZONE,9,44,19
India,Bihar,Patna,"Govt. High School Shikarpur, Patna - BSPCB",20-07-2024 18:00:00,25.592539,85.227158,SO2,7,12,10
India,Bihar,Patna,"IGSC Planetarium Complex, Patna - BSPCB",20-07-2024 18:00:00,25.610369,85.132568,CO,NA,NA,NA
India,Bihar,Patna,"IGSC Planetarium Complex, Patna - BSPCB",20-07-2024 18:00:00,25.610369,85.132568,OZONE,NA,NA,NA
India,Bihar,Patna,"Rajbansi Nagar, Patna - BSPCB",20-07-2024 18:00:00,25.599486,85.113666,CO,21,92,25
India,Bihar,Patna,"Rajbansi Nagar, Patna - BSPCB",20-07-2024 18:00:00,25.599486,85.113666,OZONE,13,38,29
India,Bihar,Patna,"Samanpura, Patna - BSPCB",20-07-2024 18:00:00,25.596727,85.085624,PM10,87,111,98
India,Bihar,Patna,"Samanpura, Patna - BSPCB",20-07-2024 18:00:00,25.596727,85.085624,CO,24,64,27
India,Bihar,Purnia,"Mariam Nagar, Purnia - BSPCB",20-07-2024 18:00:00,25.366336,87.117468,CO,15,64,49
India,Bihar,Rajgir,"Dangi Tola, Rajgir - BSPCB",20-07-2024 18:00:00,25.03280,85.41948,PM10,26,173,82
India,Bihar,Rajgir,"Dangi Tola, Rajgir - BSPCB",20-07-2024 18:00:00,25.03280,85.41948,NH3,1,2,1
India,Bihar,Rajgir,"Dangi Tola, Rajgir - BSPCB",20-07-2024 18:00:00,25.03280,85.41948,CO,38,38,38
India,Bihar,Sasaram,"Dada Peer, Sasaram - BSPCB",20-07-2024 18:00:00,24.952822,84.002396,PM2.5,8,42,23
India,Bihar,Siwan,"Chitragupta Nagar, Siwan - BSPCB",20-07-2024 18:00:00,26.2271665,84.3570427,NH3,2,10,5
India,Chandigarh,Chandigarh,"Sector 22, Chandigarh - CPCC",20-07-2024 18:00:00,30.735567,76.775714,PM10,51,175,98
India,Chandigarh,Chandigarh,"Sector 22, Chandigarh - CPCC",20-07-2024 18:00:00,30.735567,76.775714,CO,30,54,42
India,Chandigarh,Chandigarh,"Sector-25, Chandigarh - CPCC",20-07-2024 18:00:00,30.751462,76.762879,PM2.5,48,94,70
India,Chandigarh,Chandigarh,"Sector-53, Chandigarh - CPCC",20-07-2024 18:00:00,30.719859,76.738637,NO2,10,64,23
India,Chandigarh,Chandigarh,"Sector-53, Chandigarh - CPCC",20-07-2024 18:00:00,30.719859,76.738637,OZONE,17,48,41
India,Chhattisgarh,Bhilai,"32Bungalows, Bhilai - CECB",20-07-2024 18:00:00,21.194815,81.314770,NO2,7,14,9
India,Chhattisgarh,Bhilai,"32Bungalows, Bhilai - CECB",20-07-2024 18:00:00,21.194815,81.314770,NH3,7,8,8
India,Chhattisgarh,Bhilai,"Civic Center, Bhilai - Bhilai Steel Plant",20-07-2024 18:00:00,21.185571,81.343175,PM10,15,41,25
India,Chhattisgarh,Bhilai,"Hathkhoj, Bhilai - CECB",20-07-2024 18:00:00,21.224231,81.408350,NH3,9,10,9
India,Chhattisgarh,Bilaspur,"Mangala, Bilaspur - NTPC",20-07-2024 18:00:00,22.08815,82.13737,PM10,14,45,27
India,Chhattisgarh,Chhal,"Nawapara SECL Colony, Chhal - CECB",20-07-2024 18:00:00,22.118125,83.140608,NO2,18,49,28
India,Chhattisgarh,Korba,"Rampur, Korba - CECB",20-07-2024 18:00:00,22.368195,82.746431,NO2,NA,NA,NA
India,Chhattisgarh,Korba,"Rampur, Korba - CECB",20-07-2024 18:00:00,22.368195,82.746431,NH3,NA,NA,NA
India,Chhattisgarh,Korba,"Urja Nagar, Korba - CECB",20-07-2024 18:00:00,22.348441,82.549611,PM2.5,8,40,16
India,Chhattisgarh,Raipur,"Bhatagaon New ISBT, Raipur - CECB",20-07-2024 18:00:00,21.219665,81.630094,PM10,17,88,41
India,Chhattisgarh,Raipur,"Siltara Phase-II, Raipur - CECB",20-07-2024 18:00:00,21.371751,81.664929,SO2,5,26,10
India,Chhattisgarh,Tumidih,"OP Jindal Industrial Park, Tumidih - CECB",20-07-2024 18:00:00,22.06631475,83.33820077,NO2,6,17,9
India,Chhattisgarh,Tumidih,"OP Jindal Industrial Park, Tumidih - CECB",20-07-2024 18:00:00,22.06631475,83.33820077,CO,10,28,19
India,Delhi,Delhi,"Alipur, Delhi - DPCC",20-07-2024 18:00:00,28.815329,77.153010,NO2,22,41,32
India,Delhi,Delhi,"Alipur, Delhi - DPCC",20-07-2024 18:00:00,28.815329,77.153010,CO,10,22,16
India,Delhi,Delhi,"Anand Vihar, Delhi - DPCC",20-07-2024 18:00:00,28.647622,77.3158090,PM2.5,37,312,136
India,Delhi,Delhi,"Ashok Vihar, Delhi - DPCC",20-07-2024 18:00:00,28.695381,77.181665,NH3,9,11,10
India,Delhi,Delhi,"Ashok Vihar, Delhi - DPCC",20-07-2024 18:00:00,28.695381,77.181665,CO,6,40,17
India,Delhi,Delhi,"Aya Nagar, Delhi - IMD",20-07-2024 18:00:00,28.4706914,77.1099364,NO2,7,15,10
India,Delhi,Delhi,"Aya Nagar, Delhi - IMD",20-07-2024 18:00:00,28.4706914,77.1099364,OZONE,1,13,11
India,Delhi,Delhi,"Bawana, Delhi - DPCC",20-07-2024 18:00:00,28.776200,77.051074,SO2,1,7,3
India,Delhi,Delhi,"Burari Crossing, Delhi - IMD",20-07-2024 18:00:00,28.7256504,77.2011573,NO2,11,19,17
India,Delhi,Delhi,"CRRI Mathura Road, Delhi - IMD",20-07-2024 18:00:00,28.5512005,77.2735737,NO2,5,28,12
India,Delhi,Delhi,"Chandni Chowk, Delhi - IITM",20-07-2024 18:00:00,28.656756,77.227234,CO,13,109,39
India,Delhi,Delhi,"DTU, Delhi - CPCB",20-07-2024 18:00:00,28.7500499,77.1112615,NH3,16,19,17
India,Delhi,Delhi,"DTU, Delhi - CPCB",20-07-2024 18:00:00,28.7500499,77.1112615,SO2,45,51,47
India,Delhi,Delhi,"Dwarka-Sector 8, Delhi - DPCC ",20-07-2024 18:00:00,28.5710274,77.0719006,NO2,7,22,15
India,Delhi,Delhi,"IGI Airport (T3), Delhi - IMD",20-07-2024 18:00:00,28.5627763,77.1180053,OZONE,3,20,16
India,Delhi,Delhi,"IHBAS, Dilshad Garden, Delhi - CPCB",20-07-2024 18:00:00,28.6811736,77.3025234,PM10,77,117,99
India,Delhi,Delhi,"IHBAS, Dilshad Garden, Delhi - CPCB",20-07-2024 18:00:00,28.6811736,77.3025234,NO2,7,37,23
India,Delhi,Delhi,"Jawaharlal Nehru Stadium, Delhi - DPCC",20-07-2024 18:00:00,28.580280,77.233829,PM10,50,107,75
India,Delhi,Delhi,"Jawaharlal Nehru Stadium, Delhi - DPCC",20-07-2024 18:00:00,28.580280,77.233829,OZONE,5,67,43
India,Delhi,Delhi,"Lodhi Road, Delhi - IMD",20-07-2024 18:00:00,28.5918245,77.2273074,PM10,48,116,81
India,Delhi,Delhi,"Major Dhyan Chand National Stadium, Delhi - DPCC",20-07-2024 18:00:00,28.611281,77.237738,NO2,16,47,29
India,Delhi,Delhi,"Major Dhyan Chand National Stadium, Delhi - DPCC",20-07-2024 18:00:00,28.611281,77.237738,SO2,2,11,7
India,Delhi,Delhi,"Mandir Marg, Delhi - DPCC",20-07-2024 18:00:00,28.636429,77.201067,PM2.5,NA,NA,NA
India,Delhi,Delhi,"Mundka, Delhi - DPCC",20-07-2024 18:00:00,28.684678,77.076574,PM2.5,63,143,83
India,Delhi,Delhi,"Mundka, Delhi - DPCC",20-07-2024 18:00:00,28.684678,77.076574,PM10,73,500,206
India,Delhi,Delhi,"Mundka, Delhi - DPCC",20-07-2024 18:00:00,28.684678,77.076574,CO,41,56,46
India,Delhi,Delhi,"NSIT Dwarka, Delhi - CPCB",20-07-2024 18:00:00,28.60909,77.0325413,PM2.5,69,152,90
India,Delhi,Delhi,"NSIT Dwarka, Delhi - CPCB",20-07-2024 18:00:00,28.60909,77.0325413,NO2,16,27,22
India,Delhi,Delhi,"NSIT Dwarka, Delhi - CPCB",20-07-2024 18:00:00,28.60909,77.0325413,NH3,8,9,8
India,Delhi,Delhi,"Najafgarh, Delhi - DPCC",20-07-2024 18:00:00,28.570173,76.933762,PM10,NA,NA,NA
India,Delhi,Delhi,"Najafgarh, Delhi - DPCC",20-07-2024 18:00:00,28.570173,76.933762,SO2,NA,NA,NA
India,Delhi,Delhi,"Narela, Delhi - DPCC",20-07-2024 18:00:00,28.822836,77.101981,NH3,8,10,9
India,Delhi,Delhi,"Nehru Nagar, Delhi - DPCC",20-07-2024 18:00:00,28.567890,77.250515,PM2.5,57,130,87
India,Delhi,Delhi,"Nehru Nagar, Delhi - DPCC",20-07-2024 18:00:00,28.567890,77.250515,NH3,4,9,6
India,Delhi,Delhi,"Okhla Phase-2, Delhi - DPCC",20-07-2024 18:00:00,28.530785,77.271255,SO2,6,14,10
India,Delhi,Delhi,"Patparganj, Delhi - DPCC",20-07-2024 18:00:00,28.623763,77.287209,PM10,NA,NA,NA
India,Delhi,Delhi,"Patparganj, Delhi - DPCC",20-07-2024 18:00:00,28.623763,77.287209,NO2,NA,NA,NA
India,Delhi,Delhi,"Patparganj, Delhi - DPCC",20-07-2024 18:00:00,28.623763,77.287209,CO,NA,NA,NA
India,Delhi,Delhi,"Punjabi Bagh, Delhi - DPCC",20-07-2024 18:00:00,28.674045,77.131023,OZONE,5,82,61
India,Delhi,Delhi,"Pusa, Delhi - DPCC",20-07-2024 18:00:00,28.639652,77.146275,NO2,28,66,43
India,Delhi,Delhi,"Pusa, Delhi - IMD",20-07-2024 18:00:00,28.636110,77.173332,PM2.5,33,124,79
India,Delhi,Delhi,"R K Puram, Delhi - DPCC",20-07-2024 18:00:00,28.563262,77.186937,PM2.5,33,308,136
India,Delhi,Delhi,"R K Puram, Delhi - DPCC",20-07-2024 18:00:00,28.563262,77.186937,PM10,47,141,100
India,Delhi,Delhi,"R K Puram, Delhi - DPCC",20-07-2024 18:00:00,28.563262,77.186937,NO2,14,46,22
India,Delhi,Delhi,"R K Puram, Delhi - DPCC",20-07-2024 18:00:00,28.563262,77.186937,NH3,6,15,9
India,Delhi,Delhi,"R K Puram, Delhi - DPCC",20-07-2024 18:00:00,28.563262,77.186937,OZONE,1,63,22
India,Delhi,Delhi,"Rohini, Delhi - DPCC",20-07-2024 18:00:00,28.732528,77.119920,NH3,15,20,16
India,Delhi,Delhi,"Rohini, Delhi - DPCC",20-07-2024 18:00:00,28.732528,77.119920,CO,30,60,43
India,Delhi,Delhi,"Shadipur, Delhi - CPCB",20-07-2024 18:00:00,28.6514781,77.1473105,PM10,51,107,77
India,Delhi,Delhi,"Shadipur, Delhi - CPCB",20-07-2024 18:00:00,28.6514781,77.1473105,NO2,10,107,59
India,Delhi,Delhi,"Shadipur, Delhi - CPCB",20-07-2024 18:00:00,28.6514781,77.1473105,NH3,NA,NA,NA
India,Delhi,Delhi,"Shadipur, Delhi - CPCB",20-07-2024 18:00:00,28.6514781,77.1473105,CO,12,105,52
India,Delhi,Delhi,"Sonia Vihar, Delhi - DPCC",20-07-2024 18:00:00,28.710508,77.249485,PM10,86,153,119
India,Delhi,Delhi,"Sonia Vihar, Delhi - DPCC",20-07-2024 18:00:00,28.710508,77.249485,NO2,22,52,33
India,Delhi,Delhi,"Sri Aurobindo Marg, Delhi - DPCC",20-07-2024 18:00:00,28.531346,77.190156,PM2.5,48,88,69
India,Delhi,Delhi,"Sri Aurobindo Marg, Delhi - DPCC",20-07-2024 18:00:00,28.531346,77.190156,PM10,76,121,97
India,Delhi,Delhi,"Sri Aurobindo Marg, Delhi - DPCC",20-07-2024 18:00:00,28.531346,77.190156,SO2,9,17,13
India,Delhi,Delhi,"Sri Aurobindo Marg, Delhi - DPCC",20-07-2024 18:00:00,28.531346,77.190156,CO,38,68,45
India,Delhi,Delhi,"Vivek Vihar, Delhi - DPCC",20-07-2024 18:00:00,28.672342,77.315260,PM2.5,52,310,112
India,Delhi,Delhi,"Wazirpur, Delhi - DPCC",20-07-2024 18:00:00,28.699793,77.165453,PM2.5,77,250,155
India,Gujarat,Ahmedabad,"Chandkheda, Ahmedabad - IITM",20-07-2024 18:00:00,23.107969,72.574648,NO2,25,62,39
India,Gujarat,Ahmedabad,"Gyaspur, Ahmedabad - IITM",20-07-2024 18:00:00,22.977134,72.553024,NO2,2,58,10
India,Gujarat,Ahmedabad,"Raikhad, Ahmedabad - IITM",20-07-2024 18:00:00,23.020509,72.579261,PM10,24,134,54
India,Gujarat,Ahmedabad,"Raikhad, Ahmedabad - IITM",20-07-2024 18:00:00,23.020509,72.579261,NH3,7,10,9
India,Gujarat,Ahmedabad,"SVPI Airport Hansol, Ahmedabad - IITM",20-07-2024 18:00:00,23.076793,72.627874,PM2.5,9,88,24
India,Gujarat,Ahmedabad,"Sardar Vallabhbhai Patel Stadium, Ahmedabad - IITM",20-07-2024 18:00:00,23.043070,72.562968,PM10,29,76,49
India,Gujarat,Ahmedabad,"Sardar Vallabhbhai Patel Stadium, Ahmedabad - IITM",20-07-2024 18:00:00,23.043070,72.562968,SO2,15,17,16
India,Gujarat,Ahmedabad,"Sardar Vallabhbhai Patel Stadium, Ahmedabad - IITM",20-07-2024 18:00:00,23.043070,72.562968,OZONE,8,45,35
India,Gujarat,Ankleshwar,"GIDC, Ankleshwar - GPCB",20-07-2024 18:00:00,21.613267,73.010555,NO2,15,29,22
India,Gujarat,Ankleshwar,"GIDC, Ankleshwar - GPCB",20-07-2024 18:00:00,21.613267,73.010555,OZONE,23,27,26
India,Gujarat,Gandhinagar,"GIFT City, Gandhinagar - IITM",20-07-2024 18:00:00,23.163798,72.677768,PM10,17,123,55
India,Gujarat,Surat,"Science Center, Surat - SMC",20-07-2024 18:00:00,21.170046,72.795405,CO,62,76,69
India,Gujarat,Vatva,"Phase-4 GIDC, Vatva - GPCB",20-07-2024 18:00:00,22.969611,72.643500,PM10,30,63,45
India,Gujarat,Vatva,"Phase-4 GIDC, Vatva - GPCB",20-07-2024 18:00:00,22.969611,72.643500,NO2,1,3,2
India,Gujarat,Vatva,"Phase-4 GIDC, Vatva - GPCB",20-07-2024 18:00:00,22.969611,72.643500,SO2,7,8,8
India,Gujarat,Vatva,"Phase-4 GIDC, Vatva - GPCB",20-07-2024 18:00:00,22.969611,72.643500,CO,34,36,35
India,Haryana,Bahadurgarh,"Arya Nagar, Bahadurgarh - HSPCB",20-07-2024 18:00:00,28.6701,76.9254,SO2,3,7,5
India,Haryana,Bahadurgarh,"Arya Nagar, Bahadurgarh - HSPCB",20-07-2024 18:00:00,28.6701,76.9254,CO,32,44,40
India,Haryana,Bahadurgarh,"Arya Nagar, Bahadurgarh - HSPCB",20-07-2024 18:00:00,28.6701,76.9254,OZONE,30,43,37
India,Haryana,Ballabgarh,"Nathu Colony, Ballabgarh - HSPCB",20-07-2024 18:00:00,28.3419248,77.319699,NH3,1,2,2
India,Haryana,Bhiwani,"H.B. Colony, Bhiwani - HSPCB",20-07-2024 18:00:00,28.806223,76.141105,CO,26,84,47
India,Haryana,Charkhi Dadri,"Mini Secretariat, Charkhi Dadri - HSPCB",20-07-2024 18:00:00,28.593883,76.270653,NO2,15,23,18
India,Haryana,Dharuhera,"Municipal Corporation Office, Dharuhera -  HSPCB",20-07-2024 18:00:00,28.206800,76.799700,PM10,NA,NA,NA
India,Haryana,Dharuhera,"Municipal Corporation Office, Dharuhera -  HSPCB",20-07-2024 18:00:00,28.206800,76.799700,OZONE,19,21,20
India,Haryana,Faridabad,"New Industrial Town, Faridabad - HSPCB",20-07-2024 18:00:00,28.39072,77.30059,CO,10,123,92
India,Haryana,Faridabad,"Sector 11, Faridabad - HSPCB",20-07-2024 18:00:00,28.376058,77.315741,NO2,30,34,31
India,Haryana,Faridabad,"Sector 30, Faridabad - HSPCB",20-07-2024 18:00:00,28.4417,77.3217,NO2,16,16,16
India,Haryana,Faridabad,"Sector 30, Faridabad - HSPCB",20-07-2024 18:00:00,28.4417,77.3217,OZONE,7,10,9
India,Haryana,Faridabad,"Sector- 16A, Faridabad - HSPCB",20-07-2024 18:00:00,28.4088421,77.3099081,NO2,43,237,87
India,Haryana,Faridabad,"Sector- 16A, Faridabad - HSPCB",20-07-2024 18:00:00,28.4088421,77.3099081,CO,20,104,66
India,Haryana,Faridabad,"Sector- 16A, Faridabad - HSPCB",20-07-2024 18:00:00,28.4088421,77.3099081,OZONE,14,15,15
India,Haryana,Fatehabad,"Huda Sector, Fatehabad - HSPCB",20-07-2024 18:00:00,29.503664,75.467934,PM2.5,NA,NA,NA
India,Haryana,Fatehabad,"Huda Sector, Fatehabad - HSPCB",20-07-2024 18:00:00,29.503664,75.467934,NO2,NA,NA,NA
India,Haryana,Fatehabad,"Huda Sector, Fatehabad - HSPCB",20-07-2024 18:00:00,29.503664,75.467934,SO2,NA,NA,NA
India,Haryana,Gurugram,"Sector-51, Gurugram - HSPCB",20-07-2024 18:00:00,28.4227,77.0667,PM2.5,NA,NA,NA
India,Haryana,Gurugram,"Sector-51, Gurugram - HSPCB",20-07-2024 18:00:00,28.4227,77.0667,OZONE,29,66,40
India,Haryana,Gurugram,"Teri Gram, Gurugram - HSPCB",20-07-2024 18:00:00,28.4275,77.1465,PM2.5,66,173,97
India,Haryana,Gurugram,"Teri Gram, Gurugram - HSPCB",20-07-2024 18:00:00,28.4275,77.1465,SO2,4,4,4
India,Haryana,Gurugram,"Teri Gram, Gurugram - HSPCB",20-07-2024 18:00:00,28.4275,77.1465,CO,4,88,51
India,Haryana,Gurugram,"Vikas Sadan, Gurugram - HSPCB",20-07-2024 18:00:00,28.4501238,77.0263051,NO2,6,25,15
India,Haryana,Gurugram,"Vikas Sadan, Gurugram - HSPCB",20-07-2024 18:00:00,28.4501238,77.0263051,CO,50,129,100
India,Haryana,Gurugram,"Vikas Sadan, Gurugram - HSPCB",20-07-2024 18:00:00,28.4501238,77.0263051,OZONE,8,67,52
India,Haryana,Hisar,"Urban Estate-II, Hisar - HSPCB",20-07-2024 18:00:00,29.140560,75.744941,PM10,NA,NA,NA
India,Haryana,Hisar,"Urban Estate-II, Hisar - HSPCB",20-07-2024 18:00:00,29.140560,75.744941,SO2,NA,NA,NA
India,Haryana,Jind,"Police Lines, Jind - HSPCB",20-07-2024 18:00:00,29.307814,76.337619,NO2,NA,NA,NA
India,Haryana,Jind,"Police Lines, Jind - HSPCB",20-07-2024 18:00:00,29.307814,76.337619,SO2,NA,NA,NA
India,Haryana,Kaithal,"Rishi Nagar, Kaithal - HSPCB",20-07-2024 18:00:00,29.8006,76.4155,PM10,78,138,106
India,Haryana,Karnal,"Sector-12, Karnal - HSPCB",20-07-2024 18:00:00,29.695300,77.002700,NO2,7,12,10
India,Haryana,Karnal,"Sector-12, Karnal - HSPCB",20-07-2024 18:00:00,29.695300,77.002700,NH3,10,13,11
India,Haryana,Kurukshetra,"Sector-7, Kurukshetra - HSPCB",20-07-2024 18:00:00,29.966942,76.875879,NO2,17,24,19
India,Haryana,Kurukshetra,"Sector-7, Kurukshetra - HSPCB",20-07-2024 18:00:00,29.966942,76.875879,CO,3,95,21
India,Haryana,Kurukshetra,"Sector-7, Kurukshetra - HSPCB",20-07-2024 18:00:00,29.966942,76.875879,OZONE,25,190,64
India,Haryana,Manesar,"Sector-2 IMT, Manesar - HSPCB",20-07-2024 18:00:00,28.360699,76.936090,NH3,2,2,2
India,Haryana,Narnaul,"Shastri Nagar, Narnaul - HSPCB",20-07-2024 18:00:00,28.060249,76.113115,SO2,NA,NA,NA
India,Haryana,Palwal,"Shyam Nagar, Palwal - HSPCB",20-07-2024 18:00:00,28.1485564,77.3320667,NO2,23,25,24
India,Haryana,Palwal,"Shyam Nagar, Palwal - HSPCB",20-07-2024 18:00:00,28.1485564,77.3320667,SO2,3,22,16
India,Haryana,Panipat,"Sector-18, Panipat - HSPCB",20-07-2024 18:00:00,29.432304,76.972765,CO,24,26,25
India,Haryana,Rohtak,"MD University, Rohtak - HSPCB",20-07-2024 18:00:00,28.52123,76.37138,SO2,6,8,7
India,Haryana,Sirsa,"F-Block, Sirsa - HSPCB",20-07-2024 18:00:00,29.536400,75.015800,SO2,21,102,47
India,Haryana,Sonipat,"Murthal, Sonipat - HSPCB",20-07-2024 18:00:00,29.027200,77.062100,PM10,16,361,71
India,Haryana,Sonipat,"Murthal, Sonipat - HSPCB",20-07-2024 18:00:00,29.027200,77.062100,CO,24,26,25
India,Haryana,Yamuna Nagar,"Gobind Pura, Yamuna Nagar - HSPCB",20-07-2024 18:00:00,30.1480566,77.2893471,NH3,1,6,4
India,Haryana,Yamuna Nagar,"Gobind Pura, Yamuna Nagar - HSPCB",20-07-2024 18:00:00,30.1480566,77.2893471,SO2,2,12,6
India,Himachal Pradesh,Baddi,"HIMUDA Complex Phase-1, Baddi - HPPCB",20-07-2024 18:00:00,30.943887,76.801991,NH3,7,13,9
India,Jammu_and_Kashmir,Srinagar,"Rajbagh, Srinagar - JKSPCB",20-07-2024 18:00:00,34.066206,74.819820,PM2.5,20,55,40
India,Jharkhand,Dhanbad,"Kalakusuma, Dhanbad - DMC",20-07-2024 18:00:00,23.811548,86.481238,SO2,9,10,9
India,Jharkhand,Jorapokhar,"Tata Stadium, Jorapokhar - JSPCB",20-07-2024 18:00:00,23.707909,86.414670,OZONE,1,4,3
India,Karnataka,Belgaum,"Ramteerth Nagar, Belgaum - KSPCB",20-07-2024 18:00:00,15.888653,74.541751,CO,39,50,42
India,Karnataka,Bengaluru,"BTM Layout, Bengaluru - CPCB",20-07-2024 18:00:00,12.9135218,77.5950804,NH3,7,8,7
India,Karnataka,Bengaluru,"Bapuji Nagar, Bengaluru - KSPCB",20-07-2024 18:00:00,12.951913,77.539784,PM2.5,9,48,21
India,Karnataka,Bengaluru,"Bapuji Nagar, Bengaluru - KSPCB",20-07-2024 18:00:00,12.951913,77.539784,NH3,1,1,1
India,Karnataka,Bengaluru,"Bapuji Nagar, Bengaluru - KSPCB",20-07-2024 18:00:00,12.951913,77.539784,SO2,5,8,6
India,Karnataka,Bengaluru,"City Railway Station, Bengaluru - KSPCB",20-07-2024 18:00:00,12.9756843,77.5660749,PM10,95,378,130
India,Karnataka,Bengaluru,"Hebbal, Bengaluru - KSPCB",20-07-2024 18:00:00,13.029152,77.585901,PM2.5,NA,NA,NA
India,Karnataka,Bengaluru,"Hebbal, Bengaluru - KSPCB",20-07-2024 18:00:00,13.029152,77.585901,NH3,NA,NA,NA
India,Karnataka,Bengaluru,"Jayanagar 5th Block, Bengaluru - KSPCB",20-07-2024 18:00:00,12.920984,77.584908,PM2.5,11,41,24
India,Karnataka,Bengaluru,"Jayanagar 5th Block, Bengaluru - KSPCB",20-07-2024 18:00:00,12.920984,77.584908,NO2,7,8,8
India,Karnataka,Bengaluru,"Jigani, Bengaluru - KSPCB",20-07-2024 18:00:00,12.7816279,77.6299145,PM2.5,NA,NA,NA
India,Karnataka,Bengaluru,"Kasturi Nagar, Bengaluru - KSPCB",20-07-2024 18:00:00,13.003872,77.664217,NO2,16,17,17
India,Karnataka,Bengaluru,"Kasturi Nagar, Bengaluru - KSPCB",20-07-2024 18:00:00,13.003872,77.664217,SO2,10,10,10
India,Karnataka,Bengaluru,"Peenya, Bengaluru - CPCB",20-07-2024 18:00:00,13.0270199,77.494094,PM10,43,58,46
India,Karnataka,Bengaluru,"Sanegurava Halli, Bengaluru - KSPCB",20-07-2024 18:00:00,12.990328,77.5431385,CO,7,78,26
India,Karnataka,Bengaluru,"Shivapura_Peenya, Bengaluru - KSPCB",20-07-2024 18:00:00,13.0246342,77.5080115,SO2,3,5,4
India,Karnataka,Bengaluru,"Silk Board, Bengaluru - KSPCB",20-07-2024 18:00:00,12.917348,77.622813,PM10,30,149,81
India,Karnataka,Bidar,"Naubad, Bidar - KSPCB",20-07-2024 18:00:00,17.930306,77.482194,PM2.5,2,15,7
India,Karnataka,Bidar,"Naubad, Bidar - KSPCB",20-07-2024 18:00:00,17.930306,77.482194,NO2,27,44,34
India,Karnataka,Bidar,"Naubad, Bidar - KSPCB",20-07-2024 18:00:00,17.930306,77.482194,NH3,5,9,7
India,Karnataka,Chikkaballapur,"Chikkaballapur Rural, Chikkaballapur - KSPCB",20-07-2024 18:00:00,13.428828,77.731418,SO2,4,18,9
India,Karnataka,Chikkaballapur,"Chikkaballapur Rural, Chikkaballapur - KSPCB",20-07-2024 18:00:00,13.428828,77.731418,CO,10,18,14
India,Karnataka,Davanagere,"Devaraj Urs Badavane, Davanagere - KSPCB",20-07-2024 18:00:00,14.475800,75.905200,SO2,5,121,17
India,Karnataka,Davanagere,"Devaraj Urs Badavane, Davanagere - KSPCB",20-07-2024 18:00:00,14.475800,75.905200,OZONE,20,22,21
India,Karnataka,Dharwad,"Kalabhavan, Dharwad - KSPCB",20-07-2024 18:00:00,15.459706,75.008381,NO2,9,17,13
India,Karnataka,Gadag,"Panchal Nagar, Gadag - KSPCB",20-07-2024 18:00:00,15.411456,75.638133,NO2,5,29,14
India,Karnataka,Gadag,"Panchal Nagar, Gadag - KSPCB",20-07-2024 18:00:00,15.411456,75.638133,NH3,2,3,2
India,Karnataka,Gadag,"Panchal Nagar, Gadag - KSPCB",20-07-2024 18:00:00,15.411456,75.638133,SO2,NA,NA,NA
India,Karnataka,Gadag,"Panchal Nagar, Gadag - KSPCB",20-07-2024 18:00:00,15.411456,75.638133,CO,48,52,50
India,Karnataka,Hassan,"B.Katihalli, Hassan - KSPCB",20-07-2024 18:00:00,13.008556,76.125258,OZONE,9,18,17
India,Karnataka,Haveri,"Ashwini Nagar, Haveri - KSPCB",20-07-2024 18:00:00,14.791800,75.389600,NH3,3,3,3
India,Karnataka,Haveri,"Ashwini Nagar, Haveri - KSPCB",20-07-2024 18:00:00,14.791800,75.389600,SO2,12,13,12
India,Karnataka,Haveri,"Ashwini Nagar, Haveri - KSPCB",20-07-2024 18:00:00,14.791800,75.389600,OZONE,20,21,20
India,Karnataka,Hubballi,"Lingaraj Nagar, Hubballi - KSPCB",20-07-2024 18:00:00,15.3714823,75.1160168,PM10,52,85,69
India,Karnataka,Hubballi,"Lingaraj Nagar, Hubballi - KSPCB",20-07-2024 18:00:00,15.3714823,75.1160168,SO2,1,3,2
India,Karnataka,Hubballi,"Lingaraj Nagar, Hubballi - KSPCB",20-07-2024 18:00:00,15.3714823,75.1160168,CO,8,20,17
India,Karnataka,Kalaburagi,"Mahatma Basaveswar Colony, Kalaburgi - KSPCB",20-07-2024 18:00:00,17.336318,76.847397,PM10,11,46,23
India,Karnataka,Kalaburagi,"Mahatma Basaveswar Colony, Kalaburgi - KSPCB",20-07-2024 18:00:00,17.336318,76.847397,NH3,2,3,2
India,Karnataka,Kalaburagi,"Mahatma Basaveswar Colony, Kalaburgi - KSPCB",20-07-2024 18:00:00,17.336318,76.847397,CO,23,38,33
India,Karnataka,Kalaburagi,"Mahatma Basaveswar Colony, Kalaburgi - KSPCB",20-07-2024 18:00:00,17.336318,76.847397,OZONE,4,8,5
India,Karnataka,Koppal,"Diwator Nagar, Koppal - KSPCB",20-07-2024 18:00:00,15.347630,76.181767,NO2,34,64,49
India,Karnataka,Koppal,"Diwator Nagar, Koppal - KSPCB",20-07-2024 18:00:00,15.347630,76.181767,SO2,30,30,30
India,Karnataka,Koppal,"Diwator Nagar, Koppal - KSPCB",20-07-2024 18:00:00,15.347630,76.181767,OZONE,12,17,14
India,Karnataka,Madikeri,"Stuart Hill, Madikeri - KSPCB",20-07-2024 18:00:00,12.415911,75.735050,OZONE,16,21,17
India,Karnataka,Mangalore,"Kadri, Mangalore - KSPCB",20-07-2024 18:00:00,12.889250,74.853000,PM2.5,13,44,28
India,Karnataka,Mysuru,"Hebbal 1st Stage, Mysuru - KSPCB",20-07-2024 18:00:00,12.21041,76.37376,CO,2,26,15
India,Karnataka,Raichur,"Haji Colony, Raichur - KSPCB",20-07-2024 18:00:00,16.208139,77.348417,PM2.5,2,152,35
India,Karnataka,Raichur,"Haji Colony, Raichur - KSPCB",20-07-2024 18:00:00,16.208139,77.348417,NH3,1,4,3
India,Karnataka,Ramanagara,"Vijay Nagar, Ramanagara - KSPCB",20-07-2024 18:00:00,12.733409,77.298051,NO2,4,9,6
India,Karnataka,Ramanagara,"Vijay Nagar, Ramanagara - KSPCB",20-07-2024 18:00:00,12.733409,77.298051,CO,NA,NA,NA
India,Karnataka,Udupi,"Brahmagiri, Udupi - KSPCB",20-07-2024 18:00:00,13.34194444,74.74694444,NH3,1,2,2
India,Karnataka,Udupi,"Brahmagiri, Udupi - KSPCB",20-07-2024 18:00:00,13.34194444,74.74694444,CO,51,57,53
India,Karnataka,Vijayapura,"Ibrahimpur, Vijayapura - KSPCB",20-07-2024 18:00:00,16.802639,75.722694,NH3,2,2,2
India,Kerala,Eloor,"Udyogamandal, Eloor - Kerala PCB",20-07-2024 18:00:00,10.073232,76.302765,OZONE,10,12,11
India,Kerala,Kannur,"Thavakkara, Kannur - Kerala PCB",20-07-2024 18:00:00,11.875000,75.373200,NO2,5,5,5
India,Kerala,Kollam,"Polayathode, Kollam - Kerala PCB",20-07-2024 18:00:00,8.8787,76.6073,NO2,8,9,8
India,Kerala,Kollam,"Polayathode, Kollam - Kerala PCB",20-07-2024 18:00:00,8.8787,76.6073,CO,12,16,15
India,Kerala,Thiruvananthapuram,"Kariavattom, Thiruvananthapuram - Kerala PCB",20-07-2024 18:00:00,8.563700,76.886500,PM2.5,29,34,31
India,Kerala,Thiruvananthapuram,"Plammoodu, Thiruvananthapuram - Kerala PCB",20-07-2024 18:00:00,8.5149093,76.9435879,PM2.5,NA,NA,NA
India,Kerala,Thiruvananthapuram,"Plammoodu, Thiruvananthapuram - Kerala PCB",20-07-2024 18:00:00,8.5149093,76.9435879,OZONE,8,19,13
India,Madhya Pradesh,Bhopal,"Paryavaran Parisar, Bhopal - MPPCB",20-07-2024 18:00:00,23.210494,77.425409,NO2,11,47,22
India,Madhya Pradesh,Bhopal,"Paryavaran Parisar, Bhopal - MPPCB",20-07-2024 18:00:00,23.210494,77.425409,CO,12,46,26
India,Madhya Pradesh,Dewas,"Bhopal Chauraha, Dewas - MPPCB",20-07-2024 18:00:00,22.9682591,76.064118,NH3,3,3,3
India,Madhya Pradesh,Dewas,"Bhopal Chauraha, Dewas - MPPCB",20-07-2024 18:00:00,22.9682591,76.064118,OZONE,31,57,48
India,Madhya Pradesh,Gwalior,"City Center, Gwalior - MPPCB",20-07-2024 18:00:00,26.203442,78.193251,NH3,2,4,2
India,Madhya Pradesh,Gwalior,"Maharaj Bada, Gwalior - MPPCB",20-07-2024 18:00:00,26.200388,78.147714,PM2.5,15,40,26
India,Madhya Pradesh,Gwalior,"Maharaj Bada, Gwalior - MPPCB",20-07-2024 18:00:00,26.200388,78.147714,NH3,7,46,11
India,Madhya Pradesh,Gwalior,"Phool Bagh, Gwalior - Mondelez Ind. Food",20-07-2024 18:00:00,26.210536,78.171,PM2.5,12,86,46
India,Madhya Pradesh,Gwalior,"Phool Bagh, Gwalior - Mondelez Ind. Food",20-07-2024 18:00:00,26.210536,78.171,CO,56,71,67
India,Madhya Pradesh,Indore,"Chhoti Gwaltoli, Indore - MPPCB",20-07-2024 18:00:00,22.4310,75.5213,PM2.5,6,41,20
India,Madhya Pradesh,Indore,"Chhoti Gwaltoli, Indore - MPPCB",20-07-2024 18:00:00,22.4310,75.5213,NO2,33,64,44
India,Madhya Pradesh,Indore,"Maguda Nagar, Indore - IMC",20-07-2024 18:00:00,22.7524,75.8872,PM2.5,NA,NA,NA
India,Madhya Pradesh,Indore,"Maguda Nagar, Indore - IMC",20-07-2024 18:00:00,22.7524,75.8872,NO2,NA,NA,NA
India,Madhya Pradesh,Indore,"Maguda Nagar, Indore - IMC",20-07-2024 18:00:00,22.7524,75.8872,CO,10,16,14
India,Madhya Pradesh,Indore,"Residency Area, Indore - IMC",20-07-2024 18:00:00,22.7084,75.8815,PM10,8,34,16
India,Madhya Pradesh,Jabalpur,"Gupteshwar, Jabalpur - JMC",20-07-2024 18:00:00,23.142888,79.916147,SO2,1,4,3
India,Madhya Pradesh,Jabalpur,"Marhatal, Jabalpur - MPPCB",20-07-2024 18:00:00,23.168606,79.932247,OZONE,5,28,17
India,Madhya Pradesh,Katni,"Gole Bazar, Katni - MPPCB",20-07-2024 18:00:00,23.50016,80.23284,PM10,35,87,55
India,Madhya Pradesh,Maihar,"Sahilara, Maihar - KJS Cements",20-07-2024 18:00:00,24.2613009,80.7231783,SO2,10,11,10
India,Madhya Pradesh,Mandideep,"Sector-D Industrial Area, Mandideep - MPPCB",20-07-2024 18:00:00,23.108440,77.511428,PM2.5,22,126,41
India,Madhya Pradesh,Pithampur,"Sector-2 Industrial Area, Pithampur - MPPCB",20-07-2024 18:00:00,22.624758,75.675238,NO2,2,14,7
India,Madhya Pradesh,Pithampur,"Sector-2 Industrial Area, Pithampur - MPPCB",20-07-2024 18:00:00,22.624758,75.675238,CO,46,56,48
India,Madhya Pradesh,Pithampur,"Sector-2 Industrial Area, Pithampur - MPPCB",20-07-2024 18:00:00,22.624758,75.675238,OZONE,33,79,65
India,Madhya Pradesh,Sagar,"Civil Lines, Sagar - MPPCB",20-07-2024 18:00:00,23.838586,78.759431,PM2.5,5,44,24
India,Madhya Pradesh,Sagar,"Civil Lines, Sagar - MPPCB",20-07-2024 18:00:00,23.838586,78.759431,SO2,3,10,5
India,Madhya Pradesh,Sagar,"Civil Lines, Sagar - MPPCB",20-07-2024 18:00:00,23.838586,78.759431,CO,36,50,39
India,Madhya Pradesh,Satna,"Bandhavgar Colony, Satna - Birla Cement",20-07-2024 18:00:00,24.58434363,80.8549414,PM10,29,29,29
India,Madhya Pradesh,Satna,"Bandhavgar Colony, Satna - Birla Cement",20-07-2024 18:00:00,24.58434363,80.8549414,NO2,24,36,29
India,Madhya Pradesh,Satna,"Bandhavgar Colony, Satna - Birla Cement",20-07-2024 18:00:00,24.58434363,80.8549414,SO2,2,3,3
India,Madhya Pradesh,Singrauli,"Suryakiran Bhawan NCL, Singrauli - MPPCB",20-07-2024 18:00:00,24.108970,82.645580,NO2,4,30,13
India,Madhya Pradesh,Singrauli,"Suryakiran Bhawan NCL, Singrauli - MPPCB",20-07-2024 18:00:00,24.108970,82.645580,NH3,1,2,1
India,Madhya Pradesh,Singrauli,"Suryakiran Bhawan NCL, Singrauli - MPPCB",20-07-2024 18:00:00,24.108970,82.645580,CO,25,112,111
India,Madhya Pradesh,Singrauli,"Suryakiran Bhawan NCL, Singrauli - MPPCB",20-07-2024 18:00:00,24.108970,82.645580,OZONE,19,86,75
India,Madhya Pradesh,Ujjain,"Mahakaleshwar Temple, Ujjain - MPPCB",20-07-2024 18:00:00,23.182719 ,75.768218 ,PM10,26,70,42
India,Madhya Pradesh,Ujjain,"Mahakaleshwar Temple, Ujjain - MPPCB",20-07-2024 18:00:00,23.182719 ,75.768218 ,NH3,3,7,4
India,Maharashtra,Ahmednagar,"Tarakpur, Ahmednagar - MPCB",20-07-2024 18:00:00,19.10122,74.73339,PM2.5,11,48,29
India,Maharashtra,Ahmednagar,"Tarakpur, Ahmednagar - MPCB",20-07-2024 18:00:00,19.10122,74.73339,NO2,10,33,17
India,Maharashtra,Akola,"Ramdaspeth, Akola - MPCB",20-07-2024 18:00:00,20.719516,77.000253,NH3,2,17,7
India,Maharashtra,Akola,"Ramdaspeth, Akola - MPCB",20-07-2024 18:00:00,20.719516,77.000253,CO,21,60,36
India,Maharashtra,Akola,"Ramdaspeth, Akola - MPCB",20-07-2024 18:00:00,20.719516,77.000253,OZONE,6,16,11
India,Maharashtra,Amravati,"Shivneri Colony, Amravati - MPCB",20-07-2024 18:00:00,20.9402359,77.7895248,SO2,2,3,2
India,Maharashtra,Amravati,"Shivneri Colony, Amravati - MPCB",20-07-2024 18:00:00,20.9402359,77.7895248,OZONE,6,15,7
India,Maharashtra,Aurangabad,"MIDC Chilkalthana, Aurangabad - MPCB",20-07-2024 18:00:00,19.875620,75.387310,NH3,5,5,5
India,Maharashtra,Aurangabad,"More Chowk Waluj, Aurangabad - MPCB",20-07-2024 18:00:00,19.8389439,75.244448,SO2,NA,NA,NA
India,Maharashtra,Badlapur,"Katrap, Badlapur - MPCB",20-07-2024 18:00:00,19.16485,73.23409,SO2,5,14,9
India,Maharashtra,Badlapur,"Katrap, Badlapur - MPCB",20-07-2024 18:00:00,19.16485,73.23409,CO,12,38,18
India,Maharashtra,Bhiwandi,"Gokul Nagar, Bhiwandi - MPCB",20-07-2024 18:00:00,19.309073,73.057223,NO2,13,42,30
India,Maharashtra,Boisar,"Khaira, Boisar - MPCB",20-07-2024 18:00:00,19.786089,72.757971,PM2.5,20,34,28
India,Maharashtra,Chandrapur,"Chauhan Colony, Chandrapur - MPCB",20-07-2024 18:00:00,19.962900,79.298714,NH3,1,5,2
India,Maharashtra,Chandrapur,"MIDC Khutala, Chandrapur - MPCB",20-07-2024 18:00:00,19.9775302,79.2337086,SO2,2,7,4
India,Maharashtra,Jalgaon,"Prabhat Colony, Jalgaon - MPCB",20-07-2024 18:00:00,21.001264,75.565602,PM10,24,28,25
India,Maharashtra,Jalgaon,"Prabhat Colony, Jalgaon - MPCB",20-07-2024 18:00:00,21.001264,75.565602,NO2,6,12,9
India,Maharashtra,Jalgaon,"Prabhat Colony, Jalgaon - MPCB",20-07-2024 18:00:00,21.001264,75.565602,OZONE,14,70,37
India,Maharashtra,Kalyan,"Khadakpada, Kalyan - MPCB",20-07-2024 18:00:00,19.25292,73.142019,NH3,1,1,1
India,Maharashtra,Kolhapur,"Shivaji University, Kolhapur - MPCB",20-07-2024 18:00:00,16.6870449,74.2505872,OZONE,26,42,31
India,Maharashtra,Kolhapur,"Sinchan Bhavan, Kolhapur - MPCB",20-07-2024 18:00:00,16.7143745,74.2426398,PM2.5,NA,NA,NA
India,Maharashtra,Kolhapur,"Sinchan Bhavan, Kolhapur - MPCB",20-07-2024 18:00:00,16.7143745,74.2426398,SO2,NA,NA,NA
India,Maharashtra,Kolhapur,"Sinchan Bhavan, Kolhapur - MPCB",20-07-2024 18:00:00,16.7143745,74.2426398,CO,8,19,12
India,Maharashtra,Latur,"Sawe Wadi, Latur - MPCB",20-07-2024 18:00:00,18.39963,76.57452,NO2,1,43,18
India,Maharashtra,Mahad,"Kamble Tarf Birwadi, Mahad - MPCB",20-07-2024 18:00:00,18.1023399,73.4783687,CO,3,32,8
India,Maharashtra,Malegaon,"Mahesh Nagar, Malegaon - MPCB",20-07-2024 18:00:00,20.555712,74.529236,SO2,2,4,2
India,Maharashtra,Mira-Bhayandar,"Bhayandar West, Mira-Bhayandar - MPCB",20-07-2024 18:00:00,19.296481,72.840923,NH3,1,1,1
India,Maharashtra,Mira-Bhayandar,"Bhayandar West, Mira-Bhayandar - MPCB",20-07-2024 18:00:00,19.296481,72.840923,SO2,3,4,4
India,Maharashtra,Mira-Bhayandar,"Bhayandar West, Mira-Bhayandar - MPCB",20-07-2024 18:00:00,19.296481,72.840923,CO,10,16,10
India,Maharashtra,Mumbai,"Borivali East, Mumbai - MPCB",20-07-2024 18:00:00,19.2243333,72.8658113,PM10,NA,NA,NA
India,Maharashtra,Mumbai,"Borivali East, Mumbai - MPCB",20-07-2024 18:00:00,19.2243333,72.8658113,SO2,NA,NA,NA
India,Maharashtra,Mumbai,"Byculla, Mumbai - BMC",20-07-2024 18:00:00,18.9767,72.8380,NO2,5,16,10
India,Maharashtra,Mumbai,"Byculla, Mumbai - BMC",20-07-2024 18:00:00,18.9767,72.8380,NH3,2,2,2
India,Maharashtra,Mumbai,"Byculla, Mumbai - BMC",20-07-2024 18:00:00,18.9767,72.8380,SO2,1,2,1
India,Maharashtra,Mumbai,"Chembur, Mumbai - MPCB",20-07-2024 18:00:00,19.0364585,72.8954371,PM10,16,37,26
India,Maharashtra,Mumbai,"Colaba, Mumbai - MPCB",20-07-2024 18:00:00,18.910000,72.820000,NH3,1,1,1
India,Maharashtra,Mumbai,"Colaba, Mumbai - MPCB",20-07-2024 18:00:00,18.910000,72.820000,CO,13,14,14
India,Maharashtra,Mumbai,"Deonar, Mumbai - IITM",20-07-2024 18:00:00,19.04946,72.9230,PM2.5,9,36,19
India,Maharashtra,Mumbai,"Ghatkopar, Mumbai - BMC",20-07-2024 18:00:00,19.083694,72.920967,NH3,1,3,3
India,Maharashtra,Mumbai,"Ghatkopar, Mumbai - BMC",20-07-2024 18:00:00,19.083694,72.920967,OZONE,16,26,20
India,Maharashtra,Mumbai,"Kandivali East, Mumbai - MPCB",20-07-2024 18:00:00,19.205800,72.868200,SO2,6,7,6
India,Maharashtra,Mumbai,"Kandivali East, Mumbai - MPCB",20-07-2024 18:00:00,19.205800,72.868200,CO,28,30,28
India,Maharashtra,Mumbai,"Kandivali West, Mumbai - BMC",20-07-2024 18:00:00,19.215859,72.831718,NO2,5,6,6
India,Maharashtra,Mumbai,"Kherwadi_Bandra East, Mumbai - MPCB",20-07-2024 18:00:00,19.0632143,72.8456324,OZONE,6,26,14
India,Maharashtra,Mumbai,"Khindipada-Bhandup West, Mumbai - IITM",20-07-2024 18:00:00,19.1653323,72.922099,PM10,3,35,15
India,Maharashtra,Mumbai,"Khindipada-Bhandup West, Mumbai - IITM",20-07-2024 18:00:00,19.1653323,72.922099,OZONE,6,15,13
India,Maharashtra,Mumbai,"Kurla, Mumbai - MPCB",20-07-2024 18:00:00,19.0863,72.8888,NO2,10,11,11
India,Maharashtra,Mumbai,"Kurla, Mumbai - MPCB",20-07-2024 18:00:00,19.0863,72.8888,NH3,2,2,2
India,Maharashtra,Mumbai,"Mazgaon, Mumbai - IITM",20-07-2024 18:00:00,18.96702,72.84214,NH3,15,18,16
India,Maharashtra,Mumbai,"Mazgaon, Mumbai - IITM",20-07-2024 18:00:00,18.96702,72.84214,SO2,3,15,8
India,Maharashtra,Mumbai,"Mindspace-Malad West, Mumbai - MPCB",20-07-2024 18:00:00,19.1878657,72.8304069,PM10,19,39,27
India,Maharashtra,Mumbai,"Mindspace-Malad West, Mumbai - MPCB",20-07-2024 18:00:00,19.1878657,72.8304069,SO2,2,4,3
India,Maharashtra,Mumbai,"Mindspace-Malad West, Mumbai - MPCB",20-07-2024 18:00:00,19.1878657,72.8304069,OZONE,22,33,29
India,Maharashtra,Mumbai,"Mulund West, Mumbai - MPCB",20-07-2024 18:00:00,19.1750,72.9419,PM10,4,405,41
India,Maharashtra,Mumbai,"Mulund West, Mumbai - MPCB",20-07-2024 18:00:00,19.1750,72.9419,SO2,17,18,18
India,Maharashtra,Mumbai,"Navy Nagar-Colaba, Mumbai - IITM",20-07-2024 18:00:00,18.897756,72.813320,SO2,1,8,2
India,Maharashtra,Mumbai,"Navy Nagar-Colaba, Mumbai - IITM",20-07-2024 18:00:00,18.897756,72.813320,OZONE,26,46,34
India,Maharashtra,Mumbai,"Powai, Mumbai - MPCB",20-07-2024 18:00:00,19.137500,72.915056,PM2.5,3,35,15
India,Maharashtra,Mumbai,"Powai, Mumbai - MPCB",20-07-2024 18:00:00,19.137500,72.915056,NO2,17,22,20
India,Maharashtra,Mumbai,"Sewri, Mumbai - BMC",20-07-2024 18:00:00,19.000084,72.856730,PM2.5,NA,NA,NA
India,Maharashtra,Mumbai,"Sewri, Mumbai - BMC",20-07-2024 18:00:00,19.000084,72.856730,NO2,NA,NA,NA
India,Maharashtra,Mumbai,"Sewri, Mumbai - BMC",20-07-2024 18:00:00,19.000084,72.856730,CO,20,38,33
India,Maharashtra,Mumbai,"Shivaji Nagar, Mumbai - BMC",20-07-2024 18:00:00,19.060498,72.923356,PM10,10,54,36
India,Maharashtra,Mumbai,"Sion, Mumbai - MPCB",20-07-2024 18:00:00,19.047000,72.874600,NH3,1,1,1
India,Maharashtra,Mumbai,"Vasai West, Mumbai - MPCB",20-07-2024 18:00:00,19.383200,72.820400,OZONE,7,7,7
India,Maharashtra,Nagpur,"Ambazari, Nagpur - MPCB",20-07-2024 18:00:00,21.121801,79.04952,PM2.5,13,43,26
India,Maharashtra,Nagpur,"Ambazari, Nagpur - MPCB",20-07-2024 18:00:00,21.121801,79.04952,PM10,25,78,49
India,Maharashtra,Nagpur,"Ambazari, Nagpur - MPCB",20-07-2024 18:00:00,21.121801,79.04952,SO2,2,10,6
India,Maharashtra,Nagpur,"Mahal, Nagpur - MPCB",20-07-2024 18:00:00,21.14472,79.107595,OZONE,6,19,11
India,Maharashtra,Nagpur,"Opp GPO Civil Lines, Nagpur - MPCB",20-07-2024 18:00:00,21.152875,79.0517531,PM10,9,50,25
India,Maharashtra,Nagpur,"Opp GPO Civil Lines, Nagpur - MPCB",20-07-2024 18:00:00,21.152875,79.0517531,OZONE,2,4,4
India,Maharashtra,Nanded,"Sneh Nagar, Nanded - MPCB",20-07-2024 18:00:00,19.173852,77.296291,PM2.5,12,27,18
India,Maharashtra,Nanded,"Sneh Nagar, Nanded - MPCB",20-07-2024 18:00:00,19.173852,77.296291,PM10,9,38,24
India,Maharashtra,Nanded,"Sneh Nagar, Nanded - MPCB",20-07-2024 18:00:00,19.173852,77.296291,SO2,11,14,13
India,Maharashtra,Nashik,"Gangapur Road, Nashik - MPCB",20-07-2024 18:00:00,20.0073285,73.7762427,NO2,20,26,23
India,Maharashtra,Nashik,"Gangapur Road, Nashik - MPCB",20-07-2024 18:00:00,20.0073285,73.7762427,NH3,1,2,1
India,Maharashtra,Nashik,"Gangapur Road, Nashik - MPCB",20-07-2024 18:00:00,20.0073285,73.7762427,OZONE,6,22,16
India,Maharashtra,Nashik,"Hirawadi, Nashik - MPCB",20-07-2024 18:00:00,20.021503,73.813844,CO,5,31,16
India,Maharashtra,Nashik,"MIDC Ambad, Nashik - MPCB",20-07-2024 18:00:00,19.950220,73.731480,NO2,6,15,9
India,Maharashtra,Nashik,"MIDC Ambad, Nashik - MPCB",20-07-2024 18:00:00,19.950220,73.731480,SO2,1,3,2
India,Maharashtra,Navi Mumbai,"Kopripada-Vashi, Navi Mumbai - MPCB",20-07-2024 18:00:00,19.090337,73.014232,SO2,7,10,8
India,Maharashtra,Navi Mumbai,"Nerul, Navi Mumbai - MPCB",20-07-2024 18:00:00,19.008751,73.016620,PM2.5,7,62,18
India,Maharashtra,Navi Mumbai,"Nerul, Navi Mumbai - MPCB",20-07-2024 18:00:00,19.008751,73.016620,SO2,6,6,6
India,Maharashtra,Navi Mumbai,"Sector-19A Nerul, Navi Mumbai - IITM",20-07-2024 18:00:00,19.044,73.0325,SO2,1,4,3
India,Maharashtra,Pimpri-Chinchwad,"Gavalinagar, Pimpri Chinchwad - MPCB",20-07-2024 18:00:00,18.63673,73.82487,PM2.5,4,23,11
India,Maharashtra,Pimpri-Chinchwad,"Park Street Wakad, Pimpri Chinchwad - MPCB",20-07-2024 18:00:00,18.59051,73.77946,OZONE,5,16,14
India,Maharashtra,Pune,"Hadapsar, Pune - IITM",20-07-2024 18:00:00,18.501793,73.927532,PM10,18,64,42
India,Maharashtra,Pune,"Hadapsar, Pune - IITM",20-07-2024 18:00:00,18.501793,73.927532,OZONE,10,12,11
India,Maharashtra,Pune,"Karve Road, Pune - MPCB",20-07-2024 18:00:00,18.5011743,73.8165527,PM10,2,64,28
India,Maharashtra,Pune,"Karve Road, Pune - MPCB",20-07-2024 18:00:00,18.5011743,73.8165527,OZONE,1,34,15
India,Maharashtra,Pune,"Katraj Dairy, Pune - MPCB",20-07-2024 18:00:00,18.454450,73.854155,CO,48,50,50
India,Maharashtra,Pune,"Mhada Colony, Pune - IITM",20-07-2024 18:00:00,18.573040,73.927715,PM2.5,14,45,23
India,Maharashtra,Pune,"Mhada Colony, Pune - IITM",20-07-2024 18:00:00,18.573040,73.927715,PM10,25,55,34
India,Maharashtra,Pune,"Mhada Colony, Pune - IITM",20-07-2024 18:00:00,18.573040,73.927715,OZONE,12,40,30
India,Maharashtra,Pune,"Panchawati_Pashan, Pune - IITM",20-07-2024 18:00:00,18.536457,73.805454,PM10,9,35,18
India,Maharashtra,Pune,"Savitribai Phule Pune University, Pune - MPCB",20-07-2024 18:00:00,18.547056,73.826908,CO,8,31,12
India,Maharashtra,Pune,"Transport Nagar-Nigdi, Pune - IITM",20-07-2024 18:00:00,18.664282,73.763966,NO2,18,25,20
India,Maharashtra,Thane,"Kasarvadavali, Thane - MPCB",20-07-2024 18:00:00,19.26777,72.97182,SO2,8,9,8
India,Maharashtra,Thane,"Pimpleshwar Mandir, Thane - MPCB",20-07-2024 18:00:00,19.192056,72.9585188,NO2,13,13,13
India,Maharashtra,Thane,"Upvan Fort, Thane - MPCB",20-07-2024 18:00:00,19.222279,72.957979,PM2.5,4,23,11
India,Maharashtra,Thane,"Upvan Fort, Thane - MPCB",20-07-2024 18:00:00,19.222279,72.957979,CO,2,45,13
India,Maharashtra,Ulhasnagar,"Sidhi Vinayak Nagar, Ulhasnagar - MPCB",20-07-2024 18:00:00,19.235581,73.159121,PM10,33,55,44
India,Maharashtra,Virar,"Bolinj, Virar - MPCB",20-07-2024 18:00:00,19.4458210,72.7988231,NH3,1,4,2
India,Nagaland,Kohima,"PWD Juction, Kohima - NPCB",20-07-2024 18:00:00,25.6635413,94.0989878,PM2.5,14,68,33
India,Nagaland,Kohima,"PWD Juction, Kohima - NPCB",20-07-2024 18:00:00,25.6635413,94.0989878,NO2,1,6,3
India,Odisha,Angul,"Hakimapada, Angul - OSPCB",20-07-2024 18:00:00,20.832874,85.104082,PM10,2,96,32
India,Odisha,Angul,"Hakimapada, Angul - OSPCB",20-07-2024 18:00:00,20.832874,85.104082,CO,2,102,17
India,Odisha,Angul,"Hakimapada, Angul - OSPCB",20-07-2024 18:00:00,20.832874,85.104082,OZONE,7,23,19
India,Odisha,Balasore,"Kalidaspur, Balasore - OSPCB",20-07-2024 18:00:00,21.51161,86.89088,CO,69,196,149
India,Odisha,Balasore,"Kalidaspur, Balasore - OSPCB",20-07-2024 18:00:00,21.51161,86.89088,OZONE,8,32,25
India,Odisha,Barbil,"Forest Office, Barbil - OSPCB",20-07-2024 18:00:00,22.1166054,85.3945546,NO2,3,6,4
India,Odisha,Barbil,"Forest Office, Barbil - OSPCB",20-07-2024 18:00:00,22.1166054,85.3945546,NH3,3,4,3
India,Odisha,Barbil,"Forest Office, Barbil - OSPCB",20-07-2024 18:00:00,22.1166054,85.3945546,SO2,1,10,4
India,Odisha,Baripada,"Meher Colony, Baripada - OSPCB",20-07-2024 18:00:00,21.941841,86.728318,CO,12,88,23
India,Odisha,Bhubaneswar,"Lingraj Mandir, Bhubaneswar - OSPCB",20-07-2024 18:00:00,20.240790,85.836784,PM2.5,NA,NA,NA
India,Odisha,Bhubaneswar,"Patia, Bhubaneswar - OSPCB",20-07-2024 18:00:00,20.34652,85.81630,NO2,4,10,6
India,Odisha,Bileipada,"Tata Township, Bileipada - OSPCB",20-07-2024 18:00:00,22.06156703,85.47409613,NH3,NA,NA,NA
India,Odisha,Brajrajnagar,"GM Office, Brajrajnagar - OSPCB",20-07-2024 18:00:00,21.8004996,83.8396977,PM10,NA,NA,NA
India,Odisha,Brajrajnagar,"GM Office, Brajrajnagar - OSPCB",20-07-2024 18:00:00,21.8004996,83.8396977,NH3,20,20,20
India,Odisha,Brajrajnagar,"GM Office, Brajrajnagar - OSPCB",20-07-2024 18:00:00,21.8004996,83.8396977,CO,54,58,57
India,Odisha,Cuttack,"CDA Area, Cuttack - OSPCB",20-07-2024 18:00:00,20.48891     ,85.84768     ,SO2,1,65,12
India,Odisha,Keonjhar,"Jagamohanpur, Keonjhar - OSPCB",20-07-2024 18:00:00,21.643900,85.599355,OZONE,19,29,22
India,Odisha,Rairangpur,"Divisional Forest Office, Rairangpur - OSPCB",20-07-2024 18:00:00,22.265816,86.174829,OZONE,36,43,40
India,Odisha,Rourkela,"Fertilizer Township, Rourkela - OSPCB",20-07-2024 18:00:00,22.18972222,84.86277778,CO,16,31,17
India,Odisha,Rourkela,"Raghunathpali, Rourkela - OSPCB",20-07-2024 18:00:00,22.220833,84.809444,PM2.5,13,17,15
India,Odisha,Rourkela,"Raghunathpali, Rourkela - OSPCB",20-07-2024 18:00:00,22.220833,84.809444,PM10,20,42,32
India,Odisha,Rourkela,"Raghunathpali, Rourkela - OSPCB",20-07-2024 18:00:00,22.220833,84.809444,NO2,17,51,26
India,Odisha,Rourkela,"Raghunathpali, Rourkela - OSPCB",20-07-2024 18:00:00,22.220833,84.809444,OZONE,12,17,14
India,Odisha,Rourkela,"Sector-2, Rourkela - OSPCB",20-07-2024 18:00:00,22.24500000,84.88111111,NO2,NA,NA,NA
India,Odisha,Talcher,"Talcher Coalfields,Talcher - OSPCB",20-07-2024 18:00:00,20.9360711,85.1707021,OZONE,18,49,30
India,Odisha,Tensa,"Barsua Iron Ore Mines, Tensa - OSPCB",20-07-2024 18:00:00,21.869985,85.167016,PM2.5,27,28,27
India,Puducherry,Puducherry,"Jawahar Nagar, Puducherry - PPCC",20-07-2024 18:00:00,11.9309,79.8027,PM10,16,64,35
India,Puducherry,Puducherry,"Jawahar Nagar, Puducherry - PPCC",20-07-2024 18:00:00,11.9309,79.8027,NO2,6,31,14
India,Punjab,Amritsar,"Golden Temple, Amritsar - PPCB",20-07-2024 18:00:00,31.620000,74.876512,PM10,52,122,76
India,Punjab,Amritsar,"Golden Temple, Amritsar - PPCB",20-07-2024 18:00:00,31.620000,74.876512,SO2,10,18,12
India,Punjab,Bathinda,"Hardev Nagar, Bathinda - PPCB",20-07-2024 18:00:00,30.233011,74.907758,PM2.5,74,242,142
India,Punjab,Jalandhar,"Civil Line, Jalandhar - PPCB",20-07-2024 18:00:00,31.321907,75.578914,NO2,16,28,23
India,Punjab,Khanna,"Kalal Majra, Khanna - PPCB",20-07-2024 18:00:00,30.736056 ,76.209694,OZONE,19,45,29
India,Punjab,Mandi Gobindgarh,"RIMT University, Mandi Gobindgarh - PPCB",20-07-2024 18:00:00,30.649961,76.331442,PM10,28,195,99
India,Punjab,Mandi Gobindgarh,"RIMT University, Mandi Gobindgarh - PPCB",20-07-2024 18:00:00,30.649961,76.331442,NO2,7,30,29
India,Punjab,Mandi Gobindgarh,"RIMT University, Mandi Gobindgarh - PPCB",20-07-2024 18:00:00,30.649961,76.331442,NH3,6,7,7
India,Punjab,Mandi Gobindgarh,"RIMT University, Mandi Gobindgarh - PPCB",20-07-2024 18:00:00,30.649961,76.331442,CO,50,58,56
India,Punjab,Mandi Gobindgarh,"RIMT University, Mandi Gobindgarh - PPCB",20-07-2024 18:00:00,30.649961,76.331442,OZONE,47,51,50
India,Punjab,Patiala,"Model Town, Patiala - PPCB",20-07-2024 18:00:00,30.349388,76.366642,PM10,56,101,77
India,Punjab,Rupnagar,"Ratanpura, Rupnagar - Ambuja Cements",20-07-2024 18:00:00,31.0325454,76.5623046,PM10,63,283,117
India,Punjab,Rupnagar,"Ratanpura, Rupnagar - Ambuja Cements",20-07-2024 18:00:00,31.0325454,76.5623046,CO,21,41,28
India,Rajasthan,Banswara,"Rati Talai, Banswara - RSPCB",20-07-2024 18:00:00,23.555190,74.440010,OZONE,7,12,10
India,Rajasthan,Baran,"Bamboliya, Baran - RSPCB",20-07-2024 18:00:00,25.106006,76.469948,PM10,31,54,42
India,Rajasthan,Baran,"Bamboliya, Baran - RSPCB",20-07-2024 18:00:00,25.106006,76.469948,SO2,4,6,6
India,Rajasthan,Baran,"Bamboliya, Baran - RSPCB",20-07-2024 18:00:00,25.106006,76.469948,OZONE,32,61,51
India,Rajasthan,Barmer,"Railway Colony, Barmer - RSPCB",20-07-2024 18:00:00,25.747299,71.393989,NO2,5,17,10
India,Rajasthan,Bhilwara,"Pratap Nagar, Bhilwara - RSPCB",20-07-2024 18:00:00,25.339605,74.618883,NH3,1,2,2
India,Rajasthan,Bhiwadi,"Vasundhara Nagar_UIT, Bhiwadi - RSPCB",20-07-2024 18:00:00,28.207266,76.829265,PM10,66,245,147
India,Rajasthan,Bhiwadi,"Vasundhara Nagar_UIT, Bhiwadi - RSPCB",20-07-2024 18:00:00,28.207266,76.829265,SO2,4,10,6
India,Rajasthan,Bikaner,"MM Ground, Bikaner - RSPCB",20-07-2024 18:00:00,28.018792,73.292658,PM2.5,10,339,74
India,Rajasthan,Bikaner,"MM Ground, Bikaner - RSPCB",20-07-2024 18:00:00,28.018792,73.292658,OZONE,2,81,22
India,Rajasthan,Bundi,"New Colony, Bundi - RSPCB",20-07-2024 18:00:00,25.435774,75.644272,PM2.5,5,63,34
India,Rajasthan,Bundi,"New Colony, Bundi - RSPCB",20-07-2024 18:00:00,25.435774,75.644272,NH3,2,4,3
India,Rajasthan,Chittorgarh,"Shastri Nagar, Chittorgarh - RSPCB",20-07-2024 18:00:00,24.892047,74.623527,NO2,10,38,20
India,Rajasthan,Churu,"Subash Chowk, Churu - RSPCB",20-07-2024 18:00:00,28.296139,74.961696,PM10,NA,NA,NA
India,Rajasthan,Churu,"Subash Chowk, Churu - RSPCB",20-07-2024 18:00:00,28.296139,74.961696,SO2,NA,NA,NA
India,Rajasthan,Dausa,"Khatikan Mohalla, Dausa - RSPCB",20-07-2024 18:00:00,26.895552,76.334753,PM2.5,19,140,49
India,Rajasthan,Dausa,"Khatikan Mohalla, Dausa - RSPCB",20-07-2024 18:00:00,26.895552,76.334753,NO2,6,20,10
India,Rajasthan,Dholpur,"Raja Ganj, Dholpur - RSPCB",20-07-2024 18:00:00,26.699557,77.898881,PM2.5,10,398,71
India,Rajasthan,Dholpur,"Raja Ganj, Dholpur - RSPCB",20-07-2024 18:00:00,26.699557,77.898881,NO2,3,9,5
India,Rajasthan,Dholpur,"Raja Ganj, Dholpur - RSPCB",20-07-2024 18:00:00,26.699557,77.898881,CO,2,20,11
India,Rajasthan,Dungarpur,"Bhoiwada, Dungarpur - RSPCB",20-07-2024 18:00:00,23.837789,73.714926,NO2,NA,NA,NA
India,Rajasthan,Hanumangarh,"Housing Board, Hanumangarh - RSPCB",20-07-2024 18:00:00,29.610750,74.283608,NO2,16,32,22
India,Rajasthan,Jaipur,"Adarsh Nagar, Jaipur - RSPCB",20-07-2024 18:00:00,26.902909,75.836858,NO2,9,23,15
India,Rajasthan,Jaipur,"Adarsh Nagar, Jaipur - RSPCB",20-07-2024 18:00:00,26.902909,75.836858,CO,6,36,15
India,Rajasthan,Jaipur,"Adarsh Nagar, Jaipur - RSPCB",20-07-2024 18:00:00,26.902909,75.836858,OZONE,21,68,58
India,Rajasthan,Jaipur,"Mansarovar Sector-12, Jaipur - RSPCB",20-07-2024 18:00:00,26.843698,75.766894,CO,15,32,23
India,Rajasthan,Jaipur,"Police Commissionerate, Jaipur - RSPCB",20-07-2024 18:00:00,26.9164092,75.7994901,PM10,23,123,59
India,Rajasthan,Jaipur,"Police Commissionerate, Jaipur - RSPCB",20-07-2024 18:00:00,26.9164092,75.7994901,SO2,12,58,26
India,Rajasthan,Jaipur,"Police Commissionerate, Jaipur - RSPCB",20-07-2024 18:00:00,26.9164092,75.7994901,OZONE,35,86,77
India,Rajasthan,Jaipur,"RIICO Sitapura, Jaipur - RSPCB",20-07-2024 18:00:00,26.786682,75.827928,NH3,1,2,1
India,Rajasthan,Jaipur,"Sector-2 Murlipura, Jaipur - RSPCB",20-07-2024 18:00:00,26.960669,75.771817,PM10,5,90,25
India,Rajasthan,Jaipur,"Sector-2 Murlipura, Jaipur - RSPCB",20-07-2024 18:00:00,26.960669,75.771817,NO2,10,45,18
India,Rajasthan,Jaipur,"Sector-2 Murlipura, Jaipur - RSPCB",20-07-2024 18:00:00,26.960669,75.771817,OZONE,18,67,57
India,Rajasthan,Jaisalmer,"Sadar Bazar, Jaisalmer - RSPCB",20-07-2024 18:00:00,26.912329,70.909168,PM10,24,161,67
India,Rajasthan,Jaisalmer,"Sadar Bazar, Jaisalmer - RSPCB",20-07-2024 18:00:00,26.912329,70.909168,OZONE,1,1,1
India,Rajasthan,Jalore,"Mudtra Sili, Jalore - RSPCB",20-07-2024 18:00:00,25.344694,72.626208,CO,14,101,19
India,Rajasthan,Jhalawar,"Rajlaxmi Nagar, Jhalawar - RSPCB",20-07-2024 18:00:00,24.588397,76.172782,SO2,8,11,10
India,Rajasthan,Jhunjhunu,"Indra Nagar, Jhunjhunu - RSPCB",20-07-2024 18:00:00,28.108988,75.386577,PM2.5,17,68,43
India,Rajasthan,Jodhpur,"Collectorate, Jodhpur - RSPCB",20-07-2024 18:00:00,26.268249,73.0193853,OZONE,19,21,20
India,Rajasthan,Jodhpur,"Digari Kalan, Jodhpur - RSPCB",20-07-2024 18:00:00,26.295810,73.082283,PM10,7,66,34
India,Rajasthan,Jodhpur,"Digari Kalan, Jodhpur - RSPCB",20-07-2024 18:00:00,26.295810,73.082283,OZONE,9,32,28
India,Rajasthan,Kota,"Dhanmandi, Kota - RSPCB",20-07-2024 18:00:00,25.164090,75.858137,PM2.5,10,500,227
India,Rajasthan,Kota,"Dhanmandi, Kota - RSPCB",20-07-2024 18:00:00,25.164090,75.858137,OZONE,1,99,55
India,Rajasthan,Kota,"Shrinath Puram, Kota - RSPCB",20-07-2024 18:00:00,25.14389,75.821256,SO2,3,12,6
India,Rajasthan,Nagaur,"Karni Colony, Nagaur - RSPCB",20-07-2024 18:00:00,27.213494,73.734444,PM2.5,2,38,16
India,Rajasthan,Nagaur,"Karni Colony, Nagaur - RSPCB",20-07-2024 18:00:00,27.213494,73.734444,SO2,5,7,6
India,Rajasthan,Nagaur,"Karni Colony, Nagaur - RSPCB",20-07-2024 18:00:00,27.213494,73.734444,OZONE,16,95,65
India,Rajasthan,Pali,"Indira Colony Vistar, Pali - RSPCB",20-07-2024 18:00:00,25.771061, 73.340227,NO2,7,58,27
India,Rajasthan,Pratapgarh,"Pragati Nagar, Pratapgarh - RSPCB",20-07-2024 18:00:00,24.041198,74.780702,NO2,4,22,10
India,Rajasthan,Pratapgarh,"Pragati Nagar, Pratapgarh - RSPCB",20-07-2024 18:00:00,24.041198,74.780702,CO,8,26,14
India,Rajasthan,Sawai Madhopur,"Sahu Nagar, Sawai Madhopur - RSPCB",20-07-2024 18:00:00,26.031443,76.359327,PM2.5,11,26,15
India,Rajasthan,Sirohi,"Vedhaynath Colony, Sirohi - RSPCB",20-07-2024 18:00:00,24.885261,72.857549,PM2.5,13,32,20
India,Rajasthan,Sirohi,"Vedhaynath Colony, Sirohi - RSPCB",20-07-2024 18:00:00,24.885261,72.857549,OZONE,3,60,47
India,Sikkim,Gangtok,"Zero Point GICI, Gangtok - SSPCB",20-07-2024 18:00:00,27.338530,88.614099,NO2,NA,NA,NA
India,TamilNadu,Ariyalur,"Keelapalur, Ariyalur - TNPCB",20-07-2024 18:00:00,11.06825,79.07033,PM10,15,53,29
India,TamilNadu,Ariyalur,"Keelapalur, Ariyalur - TNPCB",20-07-2024 18:00:00,11.06825,79.07033,SO2,35,37,36
India,TamilNadu,Chennai,"Alandur Bus Depot, Chennai - CPCB",20-07-2024 18:00:00,12.9099161,80.1076538,SO2,1,11,3
India,TamilNadu,Chennai,"Arumbakkam, Chennai - TNPCB",20-07-2024 18:00:00,13.0664,80.2112 ,PM2.5,6,26,15
India,TamilNadu,Chennai,"Kodungaiyur, Chennai - TNPCB",20-07-2024 18:00:00,13.1278,80.2642,SO2,NA,NA,NA
India,TamilNadu,Chennai,"Manali, Chennai - CPCB",20-07-2024 18:00:00,13.164544,80.26285,NH3,5,5,5
India,TamilNadu,Chennai,"Perungudi, Chennai - TNPCB",20-07-2024 18:00:00,12.9533,80.2357,PM2.5,7,80,26
India,TamilNadu,Chennai,"Velachery Res. Area, Chennai - CPCB",20-07-2024 18:00:00,13.0052189,80.2398125,OZONE,32,75,43
India,TamilNadu,Coimbatore,"PSG College of Arts and Science, Coimbatore - TNPCB",20-07-2024 18:00:00,11.0328,77.0349,SO2,34,52,40
India,TamilNadu,Cuddalore,"Semmandalam, Cuddalore - TNPCB",20-07-2024 18:00:00,11.7637683,79.7499835,PM2.5,NA,NA,NA
India,TamilNadu,Ooty,"Bombay Castel, Ooty - TNPCB",20-07-2024 18:00:00,11.4068288,76.7138973,SO2,NA,NA,NA
India,TamilNadu,Ooty,"Bombay Castel, Ooty - TNPCB",20-07-2024 18:00:00,11.4068288,76.7138973,OZONE,5,6,5
India,TamilNadu,Palkalaiperur,"Bharathidasan University, Palkalaiperur - TNPCB",20-07-2024 18:00:00,10.681158,78.741746,PM2.5,NA,NA,NA
India,TamilNadu,Palkalaiperur,"Bharathidasan University, Palkalaiperur - TNPCB",20-07-2024 18:00:00,10.681158,78.741746,PM10,NA,NA,NA
India,TamilNadu,Ramanathapuram,"Chalai Bazaar, Ramanathapuram - TNPCB",20-07-2024 18:00:00,9.36399,78.831977,PM10,17,72,36
India,TamilNadu,Thoothukudi,"Meelavittan, Thoothukudi - TNPCB",20-07-2024 18:00:00,8.816428 ,78.099039,NO2,17,27,22
India,TamilNadu,Thoothukudi,"Meelavittan, Thoothukudi - TNPCB",20-07-2024 18:00:00,8.816428 ,78.099039,SO2,4,14,9
India,Telangana,Hyderabad,"Central University, Hyderabad - TSPCB",20-07-2024 18:00:00,17.460103,78.334361,PM2.5,2,12,7
India,Telangana,Hyderabad,"ECIL Kapra, Hyderabad - TSPCB",20-07-2024 18:00:00,17.470431,78.566959,PM10,44,84,66
India,Telangana,Hyderabad,"ECIL Kapra, Hyderabad - TSPCB",20-07-2024 18:00:00,17.470431,78.566959,CO,10,33,28
India,Telangana,Hyderabad,"ICRISAT Patancheru, Hyderabad - TSPCB",20-07-2024 18:00:00,17.518400,78.278777,PM10,2,15,9
India,Telangana,Hyderabad,"ICRISAT Patancheru, Hyderabad - TSPCB",20-07-2024 18:00:00,17.518400,78.278777,NH3,1,34,3
India,Telangana,Hyderabad,"ICRISAT Patancheru, Hyderabad - TSPCB",20-07-2024 18:00:00,17.518400,78.278777,SO2,2,14,8
India,Telangana,Hyderabad,"IDA Pashamylaram, Hyderabad - TSPCB",20-07-2024 18:00:00,17.5316895,78.218939,NO2,31,45,39
India,Telangana,Hyderabad,"IDA Pashamylaram, Hyderabad - TSPCB",20-07-2024 18:00:00,17.5316895,78.218939,SO2,1,10,4
India,Telangana,Hyderabad,"IDA Pashamylaram, Hyderabad - TSPCB",20-07-2024 18:00:00,17.5316895,78.218939,CO,28,40,32
India,Telangana,Hyderabad,"IDA Pashamylaram, Hyderabad - TSPCB",20-07-2024 18:00:00,17.5316895,78.218939,OZONE,5,11,6
India,Telangana,Hyderabad,"IITH Kandi, Hyderabad - TSPCB",20-07-2024 18:00:00,17.585705,78.126199,OZONE,NA,NA,NA
India,Telangana,Hyderabad,"Kokapet, Hyderabad - TSPCB",20-07-2024 18:00:00,17.393559,78.339194,PM2.5,34,88,69
India,Telangana,Hyderabad,"Kokapet, Hyderabad - TSPCB",20-07-2024 18:00:00,17.393559,78.339194,PM10,50,87,73
India,Telangana,Hyderabad,"Kokapet, Hyderabad - TSPCB",20-07-2024 18:00:00,17.393559,78.339194,SO2,5,11,10
India,Telangana,Hyderabad,"Kompally Municipal Office, Hyderabad - TSPCB",20-07-2024 18:00:00,17.544899,78.486949,SO2,NA,NA,NA
India,Telangana,Hyderabad,"Kompally Municipal Office, Hyderabad - TSPCB",20-07-2024 18:00:00,17.544899,78.486949,OZONE,21,30,27
India,Telangana,Hyderabad,"New Malakpet, Hyderabad - TSPCB",20-07-2024 18:00:00,17.37206,78.50864,NO2,11,43,15
India,Telangana,Hyderabad,"Ramachandrapuram, Hyderabad - TSPCB",20-07-2024 18:00:00,17.528544,78.286195,SO2,10,11,10
India,Telangana,Hyderabad,"Ramachandrapuram, Hyderabad - TSPCB",20-07-2024 18:00:00,17.528544,78.286195,CO,20,28,24
India,Telangana,Hyderabad,"Sanathnagar, Hyderabad - TSPCB",20-07-2024 18:00:00,17.4559458,78.4332152,SO2,3,9,6
India,Telangana,Hyderabad,"Zoo Park, Hyderabad - TSPCB",20-07-2024 18:00:00,17.349694,78.451437,PM2.5,2,8,3
India,Telangana,Hyderabad,"Zoo Park, Hyderabad - TSPCB",20-07-2024 18:00:00,17.349694,78.451437,NH3,1,1,1
India,Telangana,Hyderabad,"Zoo Park, Hyderabad - TSPCB",20-07-2024 18:00:00,17.349694,78.451437,SO2,1,9,3
India,Tripura,Agartala,"Bardowali, Agartala - Tripura SPCB",20-07-2024 18:00:00,23.8175497,91.2726974,PM10,28,66,44
India,Uttar_Pradesh,Agra,"Manoharpur, Agra - UPPCB",20-07-2024 18:00:00,27.23711,78.01936,OZONE,17,26,24
India,Uttar_Pradesh,Agra,"Rohta, Agra - UPPCB",20-07-2024 18:00:00,27.106972,78.000111,PM10,NA,NA,NA
India,Uttar_Pradesh,Agra,"Rohta, Agra - UPPCB",20-07-2024 18:00:00,27.106972,78.000111,CO,4,12,6
India,Uttar_Pradesh,Agra,"Rohta, Agra - UPPCB",20-07-2024 18:00:00,27.106972,78.000111,OZONE,8,15,8
India,Uttar_Pradesh,Agra,"Sector-3B Avas Vikas Colony, Agra - UPPCB",20-07-2024 18:00:00,27.19412,77.96237,PM10,21,36,27
India,Uttar_Pradesh,Agra,"Sector-3B Avas Vikas Colony, Agra - UPPCB",20-07-2024 18:00:00,27.19412,77.96237,SO2,17,20,18
India,Uttar_Pradesh,Baghpat,"Sardar Patel Inter College, Baghpat - UPPCB",20-07-2024 18:00:00,28.964949,77.278761,PM10,42,118,84
India,Uttar_Pradesh,Baghpat,"Sardar Patel Inter College, Baghpat - UPPCB",20-07-2024 18:00:00,28.964949,77.278761,CO,8,75,46
India,Uttar_Pradesh,Bareilly,"Civil Lines, Bareilly - UPPCB",20-07-2024 18:00:00,28.359581,79.414455,CO,2,10,1
India,Uttar_Pradesh,Bareilly,"Rajendra Nagar, Bareilly - UPPCB",20-07-2024 18:00:00,28.38910936,79.42963708,CO,5,10,9
India,Uttar_Pradesh,Bulandshahr,"Yamunapuram, Bulandshahr - UPPCB",20-07-2024 18:00:00,28.406963,77.849831,CO,22,42,25
India,Uttar_Pradesh,Bulandshahr,"Yamunapuram, Bulandshahr - UPPCB",20-07-2024 18:00:00,28.406963,77.849831,OZONE,5,51,42
India,Uttar_Pradesh,Firozabad,"Nagla Bhau, Firozabad - UPPCB",20-07-2024 18:00:00,27.168897,78.376960,PM10,30,61,45
India,Uttar_Pradesh,Firozabad,"Nagla Bhau, Firozabad - UPPCB",20-07-2024 18:00:00,27.168897,78.376960,NO2,15,17,17
India,Uttar_Pradesh,Firozabad,"Vibhab Nagar, Firozabad - UPPCB",20-07-2024 18:00:00,27.1594,78.3953,PM10,32,62,47
India,Uttar_Pradesh,Firozabad,"Vibhab Nagar, Firozabad - UPPCB",20-07-2024 18:00:00,27.1594,78.3953,NO2,9,14,14
India,Uttar_Pradesh,Firozabad,"Vibhab Nagar, Firozabad - UPPCB",20-07-2024 18:00:00,27.1594,78.3953,NH3,1,2,2
India,Uttar_Pradesh,Ghaziabad,"Indirapuram, Ghaziabad - UPPCB",20-07-2024 18:00:00,28.646233,77.358075,CO,22,26,24
India,Uttar_Pradesh,Ghaziabad,"Sanjay Nagar, Ghaziabad - UPPCB",20-07-2024 18:00:00,28.685382,77.453839,PM2.5,58,254,124
India,Uttar_Pradesh,Ghaziabad,"Vasundhara, Ghaziabad - UPPCB",20-07-2024 18:00:00,28.6603346,77.3572563,SO2,1,5,3
India,Uttar_Pradesh,Ghaziabad,"Vasundhara, Ghaziabad - UPPCB",20-07-2024 18:00:00,28.6603346,77.3572563,OZONE,19,29,28
India,Uttar_Pradesh,Greater Noida,"Knowledge Park - III, Greater Noida - UPPCB",20-07-2024 18:00:00,28.47272,77.482000,SO2,2,13,8
India,Uttar_Pradesh,Greater Noida,"Knowledge Park - III, Greater Noida - UPPCB",20-07-2024 18:00:00,28.47272,77.482000,OZONE,9,86,56
India,Uttar_Pradesh,Greater Noida,"Knowledge Park - V, Greater Noida - UPPCB",20-07-2024 18:00:00,28.557054,77.453663,PM10,110,219,146
India,Uttar_Pradesh,Greater Noida,"Knowledge Park - V, Greater Noida - UPPCB",20-07-2024 18:00:00,28.557054,77.453663,CO,26,84,46
India,Uttar_Pradesh,Greater Noida,"Knowledge Park - V, Greater Noida - UPPCB",20-07-2024 18:00:00,28.557054,77.453663,OZONE,3,60,45
India,Uttar_Pradesh,Hapur,"Anand Vihar, Hapur - UPPCB",20-07-2024 18:00:00,28.725645,77.749675,NO2,11,37,21
India,Uttar_Pradesh,Hapur,"Anand Vihar, Hapur - UPPCB",20-07-2024 18:00:00,28.725645,77.749675,CO,38,56,47
India,Uttar_Pradesh,Kanpur,"FTI Kidwai Nagar, Kanpur - UPPCB",20-07-2024 18:00:00,26.428282,80.327067,NH3,2,2,2
India,Uttar_Pradesh,Kanpur,"FTI Kidwai Nagar, Kanpur - UPPCB",20-07-2024 18:00:00,26.428282,80.327067,CO,28,50,30
India,Uttar_Pradesh,Kanpur,"FTI Kidwai Nagar, Kanpur - UPPCB",20-07-2024 18:00:00,26.428282,80.327067,OZONE,13,33,29
India,Uttar_Pradesh,Kanpur,"NSI Kalyanpur, Kanpur - UPPCB",20-07-2024 18:00:00,26.509954,80.249612,PM10,9,60,39
India,Uttar_Pradesh,Kanpur,"Nehru Nagar, Kanpur - UPPCB",20-07-2024 18:00:00,26.4703136,80.3229863,NO2,28,49,40
India,Uttar_Pradesh,Kanpur,"Nehru Nagar, Kanpur - UPPCB",20-07-2024 18:00:00,26.4703136,80.3229863,SO2,7,12,9
India,Uttar_Pradesh,Khurja,"Kalindi Kunj, Khurja - UPPCB",20-07-2024 18:00:00,28.2348927,77.8683002,PM10,74,190,112
India,Uttar_Pradesh,Khurja,"Kalindi Kunj, Khurja - UPPCB",20-07-2024 18:00:00,28.2348927,77.8683002,CO,24,34,28
India,Uttar_Pradesh,Lucknow,"B R Ambedkar University, Lucknow - UPPCB",20-07-2024 18:00:00,26.766433,80.927299,PM10,13,48,31
India,Uttar_Pradesh,Lucknow,"Gomti Nagar, Lucknow - UPPCB",20-07-2024 18:00:00,26.868120,81.005119,PM2.5,2,87,52
India,Uttar_Pradesh,Lucknow,"Kendriya Vidyalaya, Lucknow - CPCB",20-07-2024 18:00:00,26.906111,80.948222,CO,10,46,26
India,Uttar_Pradesh,Lucknow,"Kukrail Picnic Spot-1, Lucknow - UPPCB",20-07-2024 18:00:00,26.90723,80.98579,PM10,15,43,31
India,Uttar_Pradesh,Lucknow,"Kukrail Picnic Spot-1, Lucknow - UPPCB",20-07-2024 18:00:00,26.90723,80.98579,CO,11,15,14
India,Uttar_Pradesh,Lucknow,"Lalbagh, Lucknow - CPCB",20-07-2024 18:00:00,26.8458805,80.9365541,NH3,14,18,15
India,Uttar_Pradesh,Lucknow,"Talkatora District Industries Center, Lucknow - CPCB",20-07-2024 18:00:00,26.83399722,80.8917361,PM10,57,117,85
India,Uttar_Pradesh,Meerut,"Ganga Nagar, Meerut - UPPCB",20-07-2024 18:00:00,28.999264,77.7590354,NO2,22,30,25
India,Uttar_Pradesh,Meerut,"Ganga Nagar, Meerut - UPPCB",20-07-2024 18:00:00,28.999264,77.7590354,CO,20,46,24
India,Uttar_Pradesh,Meerut,"Jai Bhim Nagar, Meerut - UPPCB",20-07-2024 18:00:00,28.9535882,77.7622941,PM2.5,NA,NA,NA
India,Uttar_Pradesh,Meerut,"Jai Bhim Nagar, Meerut - UPPCB",20-07-2024 18:00:00,28.9535882,77.7622941,NH3,NA,NA,NA
India,Uttar_Pradesh,Meerut,"Jai Bhim Nagar, Meerut - UPPCB",20-07-2024 18:00:00,28.9535882,77.7622941,SO2,NA,NA,NA
India,Uttar_Pradesh,Meerut,"Pallavpuram Phase 2, Meerut - UPPCB",20-07-2024 18:00:00,29.063510,77.709723,NO2,11,49,18
India,Uttar_Pradesh,Meerut,"Pallavpuram Phase 2, Meerut - UPPCB",20-07-2024 18:00:00,29.063510,77.709723,NH3,7,13,11
India,Uttar_Pradesh,Meerut,"Pallavpuram Phase 2, Meerut - UPPCB",20-07-2024 18:00:00,29.063510,77.709723,CO,34,57,36
India,Uttar_Pradesh,Meerut,"Pallavpuram Phase 2, Meerut - UPPCB",20-07-2024 18:00:00,29.063510,77.709723,OZONE,4,58,31
India,Uttar_Pradesh,Moradabad,"Buddhi Vihar, Moradabad - UPPCB",20-07-2024 18:00:00,28.83526,78.74460,SO2,19,27,24
India,Uttar_Pradesh,Moradabad,"Eco Herbal Park, Moradabad - UPPCB",20-07-2024 18:00:00,28.840739,78.697531,PM2.5,37,68,53
India,Uttar_Pradesh,Moradabad,"Employment Office, Moradabad - UPPCB",20-07-2024 18:00:00,28.88528,78.73880,PM10,38,91,48
India,Uttar_Pradesh,Moradabad,"Employment Office, Moradabad - UPPCB",20-07-2024 18:00:00,28.88528,78.73880,NO2,18,18,18
India,Uttar_Pradesh,Moradabad,"Jigar Colony, Moradabad - UPPCB",20-07-2024 18:00:00,28.856664,78.772638,PM10,32,61,44
India,Uttar_Pradesh,Moradabad,"Jigar Colony, Moradabad - UPPCB",20-07-2024 18:00:00,28.856664,78.772638,NO2,17,32,26
India,Uttar_Pradesh,Moradabad,"Jigar Colony, Moradabad - UPPCB",20-07-2024 18:00:00,28.856664,78.772638,CO,1,10,8
India,Uttar_Pradesh,Moradabad,"Kashiram Nagar, Moradabad - UPPCB",20-07-2024 18:00:00,28.849399,78.742362,PM10,30,82,47
India,Uttar_Pradesh,Moradabad,"Transport Nagar, Moradabad - UPPCB",20-07-2024 18:00:00,28.802625,78.753728,PM10,33,77,49
India,Uttar_Pradesh,Moradabad,"Transport Nagar, Moradabad - UPPCB",20-07-2024 18:00:00,28.802625,78.753728,NO2,4,5,4
India,Uttar_Pradesh,Moradabad,"Transport Nagar, Moradabad - UPPCB",20-07-2024 18:00:00,28.802625,78.753728,SO2,21,29,23
India,Uttar_Pradesh,Muzaffarnagar,"New Mandi, Muzaffarnagar - UPPCB",20-07-2024 18:00:00,29.4723508,77.7194031,SO2,8,34,18
India,Uttar_Pradesh,Muzaffarnagar,"New Mandi, Muzaffarnagar - UPPCB",20-07-2024 18:00:00,29.4723508,77.7194031,OZONE,6,57,38
India,Uttar_Pradesh,Noida,"Sector - 125, Noida - UPPCB",20-07-2024 18:00:00,28.5447608,77.3231257,NO2,2,22,10
India,Uttar_Pradesh,Noida,"Sector - 125, Noida - UPPCB",20-07-2024 18:00:00,28.5447608,77.3231257,NH3,6,8,7
India,Uttar_Pradesh,Noida,"Sector - 125, Noida - UPPCB",20-07-2024 18:00:00,28.5447608,77.3231257,CO,4,44,17
India,Uttar_Pradesh,Noida,"Sector - 62, Noida - IMD",20-07-2024 18:00:00,28.6245479,77.3577104,PM2.5,42,164,70
India,Uttar_Pradesh,Noida,"Sector - 62, Noida - IMD",20-07-2024 18:00:00,28.6245479,77.3577104,NO2,9,10,10
India,Uttar_Pradesh,Noida,"Sector - 62, Noida - IMD",20-07-2024 18:00:00,28.6245479,77.3577104,CO,45,54,47
India,Uttar_Pradesh,Noida,"Sector-1, Noida - UPPCB",20-07-2024 18:00:00,28.5898,77.3101,CO,20,39,26
India,Uttar_Pradesh,Noida,"Sector-116, Noida - UPPCB",20-07-2024 18:00:00,28.569230,77.393848,SO2,1,21,9
India,Uttar_Pradesh,Prayagraj,"Jhunsi, Prayagraj - UPPCB",20-07-2024 18:00:00,25.425602,81.917152,CO,11,18,14
India,Uttar_Pradesh,Prayagraj,"Motilal Nehru NIT, Prayagraj - UPPCB",20-07-2024 18:00:00,25.494,81.863,PM10,17,31,24
India,Uttar_Pradesh,Prayagraj,"Motilal Nehru NIT, Prayagraj - UPPCB",20-07-2024 18:00:00,25.494,81.863,NO2,11,12,12
India,Uttar_Pradesh,Prayagraj,"Motilal Nehru NIT, Prayagraj - UPPCB",20-07-2024 18:00:00,25.494,81.863,NH3,7,7,7
India,Uttar_Pradesh,Prayagraj,"Motilal Nehru NIT, Prayagraj - UPPCB",20-07-2024 18:00:00,25.494,81.863,CO,18,25,22
India,Uttar_Pradesh,Prayagraj,"Nagar Nigam, Prayagraj - UPPCB",20-07-2024 18:00:00,25.44919916 ,81.82735986 ,PM2.5,16,131,40
India,Uttar_Pradesh,Varanasi,"Ardhali Bazar, Varanasi - UPPCB",20-07-2024 18:00:00,25.3505986,82.9083074,PM2.5,12,78,42
India,Uttar_Pradesh,Varanasi,"Ardhali Bazar, Varanasi - UPPCB",20-07-2024 18:00:00,25.3505986,82.9083074,CO,26,32,28
India,Uttar_Pradesh,Varanasi,"Ardhali Bazar, Varanasi - UPPCB",20-07-2024 18:00:00,25.3505986,82.9083074,OZONE,34,69,42
India,Uttar_Pradesh,Varanasi,"Bhelupur, Varanasi - UPPCB",20-07-2024 18:00:00,25.301778,82.996789,PM2.5,22,49,37
India,Uttar_Pradesh,Varanasi,"Bhelupur, Varanasi - UPPCB",20-07-2024 18:00:00,25.301778,82.996789,NO2,8,8,8
India,Uttar_Pradesh,Varanasi,"IESD Banaras Hindu University, Varanasi - UPPCB",20-07-2024 18:00:00,25.262326,82.995408,NH3,1,1,1
India,Uttar_Pradesh,Varanasi,"IESD Banaras Hindu University, Varanasi - UPPCB",20-07-2024 18:00:00,25.262326,82.995408,SO2,26,31,28
India,Uttar_Pradesh,Varanasi,"IESD Banaras Hindu University, Varanasi - UPPCB",20-07-2024 18:00:00,25.262326,82.995408,CO,1,4,1
India,Uttar_Pradesh,Varanasi,"Maldahiya, Varanasi - UPPCB",20-07-2024 18:00:00,25.32393,82.99687,OZONE,1,6,5
India,Uttarakhand,Dehradun,"Doon University, Dehradun - UKPCB",20-07-2024 18:00:00,30.269444,78.044167,PM10,18,42,31
India,Uttarakhand,Dehradun,"Doon University, Dehradun - UKPCB",20-07-2024 18:00:00,30.269444,78.044167,CO,26,40,30
India,Uttarakhand,Kashipur,"Govt. Girls Inter College, Kashipur - UKPCB",20-07-2024 18:00:00,29.2124114,78.9611753,OZONE,1,37,26
India,West_Bengal,Asansol,"Asansol Court Area, Asansol - WBPCB",20-07-2024 18:00:00,23.685297,86.945968,NO2,21,37,30
India,West_Bengal,Asansol,"Asansol Court Area, Asansol - WBPCB",20-07-2024 18:00:00,23.685297,86.945968,SO2,9,13,12
India,West_Bengal,Asansol,"Evelyn Lodge, Asansol - WBPCB",20-07-2024 18:00:00,23.6979360,86.9443950,NO2,21,42,30
India,West_Bengal,Asansol,"Mahabir Colliery, Asansol - WBPCB",20-07-2024 18:00:00,23.6181830,87.1057180,SO2,49,55,50
India,West_Bengal,Asansol,"Mahabir Colliery, Asansol - WBPCB",20-07-2024 18:00:00,23.6181830,87.1057180,CO,44,107,96
India,West_Bengal,Barrackpore,"SVSPA Campus, Barrackpore - WBPCB",20-07-2024 18:00:00,22.7605581,88.3617589,SO2,4,5,4
India,West_Bengal,Barrackpore,"SVSPA Campus, Barrackpore - WBPCB",20-07-2024 18:00:00,22.7605581,88.3617589,CO,22,40,28
India,West_Bengal,Durgapur,"PCBL Residential Complex, Durgapur - WBPCB",20-07-2024 18:00:00,23.5087640,87.3544400,PM10,19,87,42
India,West_Bengal,Durgapur,"PCBL Residential Complex, Durgapur - WBPCB",20-07-2024 18:00:00,23.5087640,87.3544400,SO2,9,11,10
India,West_Bengal,Howrah,"Belur Math, Howrah - WBPCB",20-07-2024 18:00:00,22.629801,88.352017,PM10,7,29,15
India,West_Bengal,Howrah,"Belur Math, Howrah - WBPCB",20-07-2024 18:00:00,22.629801,88.352017,NO2,34,38,36
India,West_Bengal,Howrah,"Belur Math, Howrah - WBPCB",20-07-2024 18:00:00,22.629801,88.352017,SO2,7,22,11
India,West_Bengal,Howrah,"Botanical Garden, Howrah - WBPCB",20-07-2024 18:00:00,22.554954,88.292568,PM10,23,92,39
India,West_Bengal,Howrah,"Botanical Garden, Howrah - WBPCB",20-07-2024 18:00:00,22.554954,88.292568,NO2,5,16,8
India,West_Bengal,Howrah,"Botanical Garden, Howrah - WBPCB",20-07-2024 18:00:00,22.554954,88.292568,SO2,10,11,10
India,West_Bengal,Howrah,"Padmapukur, Howrah - WBPCB",20-07-2024 18:00:00,22.5687319,88.2797276,NO2,38,75,50
India,West_Bengal,Howrah,"Padmapukur, Howrah - WBPCB",20-07-2024 18:00:00,22.5687319,88.2797276,CO,7,48,21
India,West_Bengal,Kolkata,"Ballygunge, Kolkata - WBPCB",20-07-2024 18:00:00,22.5367507,88.3638022,PM2.5,21,26,23
India,West_Bengal,Kolkata,"Fort William, Kolkata - WBPCB",20-07-2024 18:00:00,22.556640,88.342674,OZONE,14,23,20
India,West_Bengal,Kolkata,"Jadavpur, Kolkata - WBPCB",20-07-2024 18:00:00,22.49929,88.36917,SO2,2,5,4
India,West_Bengal,Kolkata,"Rabindra Bharati University, Kolkata - WBPCB",20-07-2024 18:00:00,22.627847,88.380669,PM10,13,24,18
India,West_Bengal,Kolkata,"Rabindra Bharati University, Kolkata - WBPCB",20-07-2024 18:00:00,22.627847,88.380669,SO2,10,14,12
India,West_Bengal,Kolkata,"Rabindra Sarobar, Kolkata - WBPCB",20-07-2024 18:00:00,22.51106,88.35142,PM10,25,25,25
India,West_Bengal,Kolkata,"Rabindra Sarobar, Kolkata - WBPCB",20-07-2024 18:00:00,22.51106,88.35142,OZONE,10,19,18
India,West_Bengal,Kolkata,"Victoria, Kolkata - WBPCB",20-07-2024 18:00:00,22.5448082,88.3403691,SO2,4,8,6
India,Andhra_Pradesh,Chittoor,"Gangineni Cheruvu, Chittoor - APPCB",20-07-2024 18:00:00,13.204880,79.097889,PM10,NA,NA,NA
India,Andhra_Pradesh,Chittoor,"Gangineni Cheruvu, Chittoor - APPCB",20-07-2024 18:00:00,13.204880,79.097889,NH3,NA,NA,NA
India,Andhra_Pradesh,Rajamahendravaram,"Anand Kala Kshetram, Rajamahendravaram - APPCB",20-07-2024 18:00:00,16.9872867,81.7363176,PM10,2,34,10
India,Andhra_Pradesh,Tirupati,"Tirumala, Tirupati - APPCB",20-07-2024 18:00:00,13.67,79.35,CO,9,22,18
India,Andhra_Pradesh,Tirupati,"Vaikuntapuram, Tirupati - APPCB",20-07-2024 18:00:00,13.615387,79.409230,OZONE,34,36,35
India,Andhra_Pradesh,Vijayawada,"HB Colony, Vijayawada - APPCB",20-07-2024 18:00:00,16.536107,80.594233,NO2,6,17,9
India,Andhra_Pradesh,Vijayawada,"HB Colony, Vijayawada - APPCB",20-07-2024 18:00:00,16.536107,80.594233,CO,32,32,32
India,Andhra_Pradesh,Vijayawada,"HB Colony, Vijayawada - APPCB",20-07-2024 18:00:00,16.536107,80.594233,OZONE,17,63,20
India,Andhra_Pradesh,Vijayawada,"Kanuru, Vijayawada - APPCB",20-07-2024 18:00:00,16.486692,80.699436,PM2.5,29,38,34
India,Andhra_Pradesh,Vijayawada,"Rajiv Gandhi Park, Vijayawada - APPCB",20-07-2024 18:00:00,16.509717,80.612222,NO2,9,60,29
India,Andhra_Pradesh,Vijayawada,"Rajiv Nagar, Vijayawada - APPCB",20-07-2024 18:00:00,16.554731,80.649110,PM2.5,22,70,27
India,Andhra_Pradesh,Vijayawada,"Rajiv Nagar, Vijayawada - APPCB",20-07-2024 18:00:00,16.554731,80.649110,PM10,24,81,30
India,Andhra_Pradesh,Vijayawada,"Rajiv Nagar, Vijayawada - APPCB",20-07-2024 18:00:00,16.554731,80.649110,SO2,19,24,21
India,Andhra_Pradesh,Visakhapatnam,"GVM Corporation, Visakhapatnam - APPCB",20-07-2024 18:00:00,17.72,83.3,PM10,28,66,43
India,Andhra_Pradesh,Visakhapatnam,"GVM Corporation, Visakhapatnam - APPCB",20-07-2024 18:00:00,17.72,83.3,NH3,2,3,2
India,Assam,Byrnihat,"Central Academy for SFS, Byrnihat - PCBA",20-07-2024 18:00:00,26.071318,91.87488,OZONE,23,134,23
India,Assam,Guwahati,"IITG, Guwahati - PCBA",20-07-2024 18:00:00,26.2028636,91.70046436,SO2,14,15,14
India,Assam,Guwahati,"LGBI Airport, Guwahati - PCBA",20-07-2024 18:00:00,26.10887,91.589544,OZONE,22,23,22
India,Assam,Guwahati,"Pan Bazaar, Guwahati - PCBA",20-07-2024 18:00:00,26.187500,91.744194,NO2,NA,NA,NA
India,Assam,Guwahati,"Railway Colony, Guwahati - PCBA",20-07-2024 18:00:00,26.181742,91.78063,SO2,2,3,2
India,Assam,Guwahati,"Railway Colony, Guwahati - PCBA",20-07-2024 18:00:00,26.181742,91.78063,CO,18,42,20
India,Assam,Nalbari,"Bata Chowk, Nalbari - PCBA",20-07-2024 18:00:00,26.446912,91.439057,PM10,21,122,55
India,Assam,Nalbari,"Bata Chowk, Nalbari - PCBA",20-07-2024 18:00:00,26.446912,91.439057,NO2,10,24,18
India,Assam,Nalbari,"Bata Chowk, Nalbari - PCBA",20-07-2024 18:00:00,26.446912,91.439057,OZONE,9,19,12
India,Assam,Silchar,"Tarapur, Silchar - PCBA",20-07-2024 18:00:00,24.82827,92.79525,NH3,1,1,1
India,Assam,Silchar,"Tarapur, Silchar - PCBA",20-07-2024 18:00:00,24.82827,92.79525,OZONE,1,9,2
India,Assam,Sivasagar,"Girls College, Sivasagar - PCBA",20-07-2024 18:00:00,26.987634,94.636574,PM2.5,23,46,31
India,Assam,Sivasagar,"Girls College, Sivasagar - PCBA",20-07-2024 18:00:00,26.987634,94.636574,NO2,5,9,6
India,Assam,Sivasagar,"Girls College, Sivasagar - PCBA",20-07-2024 18:00:00,26.987634,94.636574,SO2,5,9,7
India,Assam,Sivasagar,"Girls College, Sivasagar - PCBA",20-07-2024 18:00:00,26.987634,94.636574,CO,20,26,21
India,Bihar,Arrah,"New DM Office, Arrah - BSPCB",20-07-2024 18:00:00,25.5626095,84.663264,PM10,NA,NA,NA
India,Bihar,Arrah,"New DM Office, Arrah - BSPCB",20-07-2024 18:00:00,25.5626095,84.663264,CO,10,29,19
India,Bihar,Aurangabad,"Gurdeo Nagar, Aurangabad - BSPCB",20-07-2024 18:00:00,24.75746,84.366208,PM2.5,NA,NA,NA
India,Bihar,Aurangabad,"Gurdeo Nagar, Aurangabad - BSPCB",20-07-2024 18:00:00,24.75746,84.366208,NH3,2,5,3
India,Bihar,Bettiah,"Kamalnath Nagar, Bettiah - BSPCB",20-07-2024 18:00:00,26.80365,84.51954,PM2.5,NA,NA,NA
India,Bihar,Bhagalpur,"DM Office_Kachari Chowk, Bhagalpur - BSPCB",20-07-2024 18:00:00,25.251013,86.989001,NO2,17,44,35
India,Bihar,Bhagalpur,"DM Office_Kachari Chowk, Bhagalpur - BSPCB",20-07-2024 18:00:00,25.251013,86.989001,SO2,6,69,35
India,Bihar,Bhagalpur,"Mayaganj, Bhagalpur - BSPCB",20-07-2024 18:00:00,25.265194,87.012947,PM2.5,27,203,68
India,Bihar,Bihar Sharif,"D M Colony, Bihar Sharif - BSPCB",20-07-2024 18:00:00,25.204762,85.514960,NH3,17,29,25
India,Bihar,Bihar Sharif,"D M Colony, Bihar Sharif - BSPCB",20-07-2024 18:00:00,25.204762,85.514960,SO2,3,4,3
India,Bihar,Chhapra,"Darshan Nagar, Chhapra - BSPCB",20-07-2024 18:00:00,25.7808257,84.7446768,SO2,25,90,60
India,Bihar,Chhapra,"Darshan Nagar, Chhapra - BSPCB",20-07-2024 18:00:00,25.7808257,84.7446768,CO,28,67,42
India,Bihar,Gaya,"Collectorate, Gaya - BSPCB",20-07-2024 18:00:00,24.7955,84.9994,SO2,2,18,10
India,Bihar,Hajipur,"Industrial Area, Hajipur - BSPCB",20-07-2024 18:00:00,25.697189,85.245900,NO2,5,12,8
India,Bihar,Hajipur,"Industrial Area, Hajipur - BSPCB",20-07-2024 18:00:00,25.697189,85.245900,NH3,11,16,14
India,Bihar,Hajipur,"Industrial Area, Hajipur - BSPCB",20-07-2024 18:00:00,25.697189,85.245900,OZONE,11,45,24
India,Bihar,Katihar,"Mirchaibari, Katihar - BSPCB",20-07-2024 18:00:00,25.560083,87.553265,CO,14,39,31
India,Bihar,Munger,"Town Hall, Munger - BSPCB",20-07-2024 18:00:00,25.376776,86.471523,PM10,NA,NA,NA
India,Bihar,Munger,"Town Hall, Munger - BSPCB",20-07-2024 18:00:00,25.376776,86.471523,SO2,14,58,39
India,Bihar,Muzaffarpur,"Buddha Colony, Muzaffarpur - BSPCB",20-07-2024 18:00:00,26.11442,85.39813,SO2,7,10,8
India,Bihar,Muzaffarpur,"MIT-Daudpur Kothi, Muzaffarpur - BSPCB",20-07-2024 18:00:00,26.1403345,85.3650192,NO2,3,5,5
India,Bihar,Muzaffarpur,"MIT-Daudpur Kothi, Muzaffarpur - BSPCB",20-07-2024 18:00:00,26.1403345,85.3650192,NH3,4,5,4
India,Bihar,Muzaffarpur,"MIT-Daudpur Kothi, Muzaffarpur - BSPCB",20-07-2024 18:00:00,26.1403345,85.3650192,SO2,8,12,10
India,Bihar,Patna,"DRM Office Danapur, Patna - BSPCB",20-07-2024 18:00:00,25.586562,85.043586,PM10,72,113,90
India,Bihar,Patna,"DRM Office Danapur, Patna - BSPCB",20-07-2024 18:00:00,25.586562,85.043586,NO2,34,192,64
India,Bihar,Patna,"DRM Office Danapur, Patna - BSPCB",20-07-2024 18:00:00,25.586562,85.043586,NH3,2,3,3
India,Bihar,Patna,"Muradpur, Patna - BSPCB",20-07-2024 18:00:00,25.619651,85.147382,PM10,81,143,114
India,Bihar,Patna,"Muradpur, Patna - BSPCB",20-07-2024 18:00:00,25.619651,85.147382,NH3,7,9,8
India,Bihar,Patna,"Muradpur, Patna - BSPCB",20-07-2024 18:00:00,25.619651,85.147382,CO,4,81,17
India,Bihar,Patna,"Rajbansi Nagar, Patna - BSPCB",20-07-2024 18:00:00,25.599486,85.113666,PM2.5,21,60,36
India,Bihar,Patna,"Rajbansi Nagar, Patna - BSPCB",20-07-2024 18:00:00,25.599486,85.113666,PM10,46,80,63
India,Bihar,Patna,"Rajbansi Nagar, Patna - BSPCB",20-07-2024 18:00:00,25.599486,85.113666,SO2,1,5,3
India,Bihar,Patna,"Samanpura, Patna - BSPCB",20-07-2024 18:00:00,25.596727,85.085624,NO2,8,26,14
India,Bihar,Purnia,"Mariam Nagar, Purnia - BSPCB",20-07-2024 18:00:00,25.366336,87.117468,PM10,9,149,27
India,Bihar,Purnia,"Mariam Nagar, Purnia - BSPCB",20-07-2024 18:00:00,25.366336,87.117468,NH3,1,1,1
India,Bihar,Purnia,"Mariam Nagar, Purnia - BSPCB",20-07-2024 18:00:00,25.366336,87.117468,OZONE,15,48,31
India,Bihar,Samastipur,"DM Office_Kasipur, Samastipur - BSPCB",20-07-2024 18:00:00,25.859655,85.77944,PM2.5,38,137,67
India,Bihar,Sasaram,"Dada Peer, Sasaram - BSPCB",20-07-2024 18:00:00,24.952822,84.002396,NO2,9,10,9
India,Bihar,Sasaram,"Dada Peer, Sasaram - BSPCB",20-07-2024 18:00:00,24.952822,84.002396,SO2,5,8,6
India,Chandigarh,Chandigarh,"Sector-25, Chandigarh - CPCC",20-07-2024 18:00:00,30.751462,76.762879,SO2,4,35,9
India,Chandigarh,Chandigarh,"Sector-25, Chandigarh - CPCC",20-07-2024 18:00:00,30.751462,76.762879,CO,20,37,25
India,Chandigarh,Chandigarh,"Sector-53, Chandigarh - CPCC",20-07-2024 18:00:00,30.719859,76.738637,PM10,40,119,73
India,Chandigarh,Chandigarh,"Sector-53, Chandigarh - CPCC",20-07-2024 18:00:00,30.719859,76.738637,CO,31,84,41
India,Chhattisgarh,Bhilai,"32Bungalows, Bhilai - CECB",20-07-2024 18:00:00,21.194815,81.314770,SO2,8,11,10
India,Chhattisgarh,Bhilai,"32Bungalows, Bhilai - CECB",20-07-2024 18:00:00,21.194815,81.314770,OZONE,9,25,14
India,Chhattisgarh,Bhilai,"Civic Center, Bhilai - Bhilai Steel Plant",20-07-2024 18:00:00,21.185571,81.343175,SO2,7,36,13
India,Chhattisgarh,Bhilai,"Civic Center, Bhilai - Bhilai Steel Plant",20-07-2024 18:00:00,21.185571,81.343175,OZONE,9,25,19
India,Chhattisgarh,Bhilai,"Hathkhoj, Bhilai - CECB",20-07-2024 18:00:00,21.224231,81.408350,OZONE,9,33,23
India,Chhattisgarh,Bilaspur,"Mangala, Bilaspur - NTPC",20-07-2024 18:00:00,22.08815,82.13737,PM2.5,10,33,23
India,Chhattisgarh,Bilaspur,"Mangala, Bilaspur - NTPC",20-07-2024 18:00:00,22.08815,82.13737,CO,42,47,45
India,Chhattisgarh,Chhal,"Nawapara SECL Colony, Chhal - CECB",20-07-2024 18:00:00,22.118125,83.140608,PM10,7,38,16
India,Chhattisgarh,Chhal,"Nawapara SECL Colony, Chhal - CECB",20-07-2024 18:00:00,22.118125,83.140608,CO,14,28,17
India,Chhattisgarh,Korba,"Rampur, Korba - CECB",20-07-2024 18:00:00,22.368195,82.746431,CO,20,30,21
India,Chhattisgarh,Korba,"Urja Nagar, Korba - CECB",20-07-2024 18:00:00,22.348441,82.549611,PM10,NA,NA,NA
India,Chhattisgarh,Korba,"Urja Nagar, Korba - CECB",20-07-2024 18:00:00,22.348441,82.549611,CO,6,43,14
India,Chhattisgarh,Kunjemura,"OP Jindal School, Kunjemura - CECB",20-07-2024 18:00:00,22.126650,83.483212,SO2,2,6,4
India,Chhattisgarh,Kunjemura,"OP Jindal School, Kunjemura - CECB",20-07-2024 18:00:00,22.126650,83.483212,CO,14,22,17
India,Chhattisgarh,Kunjemura,"OP Jindal School, Kunjemura - CECB",20-07-2024 18:00:00,22.126650,83.483212,OZONE,7,10,10
India,Chhattisgarh,Raipur,"AIIMS, Raipur - CECB",20-07-2024 18:00:00,21.258815,81.578979,PM2.5,NA,NA,NA
India,Chhattisgarh,Raipur,"AIIMS, Raipur - CECB",20-07-2024 18:00:00,21.258815,81.578979,NO2,NA,NA,NA
India,Chhattisgarh,Raipur,"AIIMS, Raipur - CECB",20-07-2024 18:00:00,21.258815,81.578979,NH3,NA,NA,NA
India,Chhattisgarh,Raipur,"AIIMS, Raipur - CECB",20-07-2024 18:00:00,21.258815,81.578979,CO,21,32,32
India,Chhattisgarh,Raipur,"Bhatagaon New ISBT, Raipur - CECB",20-07-2024 18:00:00,21.219665,81.630094,PM2.5,10,46,24
India,Chhattisgarh,Raipur,"Bhatagaon New ISBT, Raipur - CECB",20-07-2024 18:00:00,21.219665,81.630094,OZONE,3,5,4
India,Chhattisgarh,Raipur,"Krishak Nagar, Raipur - CECB",20-07-2024 18:00:00,21.237755,81.705301,NO2,5,5,5
India,Chhattisgarh,Raipur,"Siltara Phase-II, Raipur - CECB",20-07-2024 18:00:00,21.371751,81.664929,PM2.5,2,328,166
India,Chhattisgarh,Raipur,"Siltara Phase-II, Raipur - CECB",20-07-2024 18:00:00,21.371751,81.664929,PM10,8,194,106
India,Chhattisgarh,Tumidih,"OP Jindal Industrial Park, Tumidih - CECB",20-07-2024 18:00:00,22.06631475,83.33820077,NH3,1,2,2
India,Delhi,Delhi,"Alipur, Delhi - DPCC",20-07-2024 18:00:00,28.815329,77.153010,OZONE,3,68,47
India,Delhi,Delhi,"Anand Vihar, Delhi - DPCC",20-07-2024 18:00:00,28.647622,77.3158090,NO2,5,62,15
India,Delhi,Delhi,"Ashok Vihar, Delhi - DPCC",20-07-2024 18:00:00,28.695381,77.181665,SO2,11,21,16
India,Delhi,Delhi,"Ashok Vihar, Delhi - DPCC",20-07-2024 18:00:00,28.695381,77.181665,OZONE,1,98,67
India,Delhi,Delhi,"Aya Nagar, Delhi - IMD",20-07-2024 18:00:00,28.4706914,77.1099364,CO,45,58,49
India,Delhi,Delhi,"Bawana, Delhi - DPCC",20-07-2024 18:00:00,28.776200,77.051074,PM2.5,68,180,110
India,Delhi,Delhi,"Burari Crossing, Delhi - IMD",20-07-2024 18:00:00,28.7256504,77.2011573,PM10,45,125,84
India,Delhi,Delhi,"Burari Crossing, Delhi - IMD",20-07-2024 18:00:00,28.7256504,77.2011573,CO,3,36,23
India,Delhi,Delhi,"CRRI Mathura Road, Delhi - IMD",20-07-2024 18:00:00,28.5512005,77.2735737,PM2.5,48,97,65
India,Delhi,Delhi,"Chandni Chowk, Delhi - IITM",20-07-2024 18:00:00,28.656756,77.227234,NO2,91,139,118
India,Delhi,Delhi,"Chandni Chowk, Delhi - IITM",20-07-2024 18:00:00,28.656756,77.227234,SO2,7,40,25
India,Delhi,Delhi,"DTU, Delhi - CPCB",20-07-2024 18:00:00,28.7500499,77.1112615,NO2,58,70,61
India,Delhi,Delhi,"Dr. Karni Singh Shooting Range, Delhi - DPCC",20-07-2024 18:00:00,28.498571,77.264840,NO2,19,25,21
India,Delhi,Delhi,"Dr. Karni Singh Shooting Range, Delhi - DPCC",20-07-2024 18:00:00,28.498571,77.264840,NH3,7,20,12
India,Delhi,Delhi,"Dr. Karni Singh Shooting Range, Delhi - DPCC",20-07-2024 18:00:00,28.498571,77.264840,SO2,3,11,7
India,Delhi,Delhi,"Dwarka-Sector 8, Delhi - DPCC ",20-07-2024 18:00:00,28.5710274,77.0719006,CO,42,102,49
India,Delhi,Delhi,"IGI Airport (T3), Delhi - IMD",20-07-2024 18:00:00,28.5627763,77.1180053,PM10,63,104,81
India,Delhi,Delhi,"IHBAS, Dilshad Garden, Delhi - CPCB",20-07-2024 18:00:00,28.6811736,77.3025234,NH3,2,8,6
India,Delhi,Delhi,"Jahangirpuri, Delhi - DPCC",20-07-2024 18:00:00,28.732820,77.170633,PM2.5,58,193,120
India,Delhi,Delhi,"Jawaharlal Nehru Stadium, Delhi - DPCC",20-07-2024 18:00:00,28.580280,77.233829,SO2,6,12,8
India,Delhi,Delhi,"Lodhi Road, Delhi - IMD",20-07-2024 18:00:00,28.5918245,77.2273074,PM2.5,48,111,80
India,Delhi,Delhi,"Lodhi Road, Delhi - IMD",20-07-2024 18:00:00,28.5918245,77.2273074,NO2,4,6,5
India,Delhi,Delhi,"Mandir Marg, Delhi - DPCC",20-07-2024 18:00:00,28.636429,77.201067,PM10,23,115,80
India,Delhi,Delhi,"Mandir Marg, Delhi - DPCC",20-07-2024 18:00:00,28.636429,77.201067,OZONE,13,84,52
India,Delhi,Delhi,"Mundka, Delhi - DPCC",20-07-2024 18:00:00,28.684678,77.076574,NO2,29,94,46
India,Delhi,Delhi,"Mundka, Delhi - DPCC",20-07-2024 18:00:00,28.684678,77.076574,NH3,2,30,8
India,Delhi,Delhi,"NSIT Dwarka, Delhi - CPCB",20-07-2024 18:00:00,28.60909,77.0325413,PM10,64,111,79
India,Delhi,Delhi,"NSIT Dwarka, Delhi - CPCB",20-07-2024 18:00:00,28.60909,77.0325413,CO,22,68,47
India,Delhi,Delhi,"Najafgarh, Delhi - DPCC",20-07-2024 18:00:00,28.570173,76.933762,OZONE,19,30,23
India,Delhi,Delhi,"Narela, Delhi - DPCC",20-07-2024 18:00:00,28.822836,77.101981,PM10,75,139,117
India,Delhi,Delhi,"Narela, Delhi - DPCC",20-07-2024 18:00:00,28.822836,77.101981,SO2,4,11,6
India,Delhi,Delhi,"Nehru Nagar, Delhi - DPCC",20-07-2024 18:00:00,28.567890,77.250515,NO2,9,41,26
India,Delhi,Delhi,"Nehru Nagar, Delhi - DPCC",20-07-2024 18:00:00,28.567890,77.250515,CO,55,78,63
India,Delhi,Delhi,"Nehru Nagar, Delhi - DPCC",20-07-2024 18:00:00,28.567890,77.250515,OZONE,14,100,79
India,Delhi,Delhi,"North Campus, DU, Delhi - IMD",20-07-2024 18:00:00,28.6573814,77.1585447,PM2.5,50,220,93
India,Delhi,Delhi,"North Campus, DU, Delhi - IMD",20-07-2024 18:00:00,28.6573814,77.1585447,PM10,32,182,86
India,Delhi,Delhi,"North Campus, DU, Delhi - IMD",20-07-2024 18:00:00,28.6573814,77.1585447,OZONE,7,50,33
India,Delhi,Delhi,"Okhla Phase-2, Delhi - DPCC",20-07-2024 18:00:00,28.530785,77.271255,OZONE,8,55,41
India,Delhi,Delhi,"Patparganj, Delhi - DPCC",20-07-2024 18:00:00,28.623763,77.287209,SO2,NA,NA,NA
India,Delhi,Delhi,"Punjabi Bagh, Delhi - DPCC",20-07-2024 18:00:00,28.674045,77.131023,NO2,6,22,15
India,Delhi,Delhi,"Pusa, Delhi - DPCC",20-07-2024 18:00:00,28.639652,77.146275,CO,23,58,39
India,Delhi,Delhi,"R K Puram, Delhi - DPCC",20-07-2024 18:00:00,28.563262,77.186937,SO2,15,32,22
India,Delhi,Delhi,"Rohini, Delhi - DPCC",20-07-2024 18:00:00,28.732528,77.119920,PM2.5,60,163,111
India,Delhi,Delhi,"Rohini, Delhi - DPCC",20-07-2024 18:00:00,28.732528,77.119920,PM10,82,142,118
India,Delhi,Delhi,"Shadipur, Delhi - CPCB",20-07-2024 18:00:00,28.6514781,77.1473105,OZONE,6,29,21
India,Delhi,Delhi,"Sirifort, Delhi - CPCB",20-07-2024 18:00:00,28.5504249,77.2159377,PM2.5,36,137,87
India,Delhi,Delhi,"Sirifort, Delhi - CPCB",20-07-2024 18:00:00,28.5504249,77.2159377,PM10,58,183,119
India,Delhi,Delhi,"Sirifort, Delhi - CPCB",20-07-2024 18:00:00,28.5504249,77.2159377,NO2,21,64,42
India,Delhi,Delhi,"Sirifort, Delhi - CPCB",20-07-2024 18:00:00,28.5504249,77.2159377,CO,41,86,54
India,Delhi,Delhi,"Sirifort, Delhi - CPCB",20-07-2024 18:00:00,28.5504249,77.2159377,OZONE,7,24,18
India,Delhi,Delhi,"Sonia Vihar, Delhi - DPCC",20-07-2024 18:00:00,28.710508,77.249485,PM2.5,75,267,138
India,Delhi,Delhi,"Sri Aurobindo Marg, Delhi - DPCC",20-07-2024 18:00:00,28.531346,77.190156,NO2,10,33,21
India,Delhi,Delhi,"Vivek Vihar, Delhi - DPCC",20-07-2024 18:00:00,28.672342,77.315260,SO2,6,13,10
India,Delhi,Delhi,"Vivek Vihar, Delhi - DPCC",20-07-2024 18:00:00,28.672342,77.315260,CO,48,70,51
India,Delhi,Delhi,"Wazirpur, Delhi - DPCC",20-07-2024 18:00:00,28.699793,77.165453,NO2,26,57,43
India,Delhi,Delhi,"Wazirpur, Delhi - DPCC",20-07-2024 18:00:00,28.699793,77.165453,OZONE,3,33,18
India,Gujarat,Ahmedabad,"Chandkheda, Ahmedabad - IITM",20-07-2024 18:00:00,23.107969,72.574648,SO2,11,18,15
India,Gujarat,Ahmedabad,"Chandkheda, Ahmedabad - IITM",20-07-2024 18:00:00,23.107969,72.574648,OZONE,11,45,34
India,Gujarat,Ahmedabad,"Gyaspur, Ahmedabad - IITM",20-07-2024 18:00:00,22.977134,72.553024,PM10,62,98,77
India,Gujarat,Ahmedabad,"Maninagar, Ahmedabad - GPCB",20-07-2024 18:00:00,23.002657,72.591912,PM2.5,15,82,42
India,Gujarat,Ahmedabad,"Maninagar, Ahmedabad - GPCB",20-07-2024 18:00:00,23.002657,72.591912,SO2,27,45,36
India,Gujarat,Ahmedabad,"Maninagar, Ahmedabad - GPCB",20-07-2024 18:00:00,23.002657,72.591912,CO,24,78,58
India,Gujarat,Ahmedabad,"Rakhial, Ahmedabad - IITM",20-07-2024 18:00:00,23.016834,72.625775,PM2.5,13,43,29
India,Gujarat,Ahmedabad,"Rakhial, Ahmedabad - IITM",20-07-2024 18:00:00,23.016834,72.625775,NH3,6,24,11
India,Gujarat,Ahmedabad,"SVPI Airport Hansol, Ahmedabad - IITM",20-07-2024 18:00:00,23.076793,72.627874,NO2,57,79,67
India,Gujarat,Ahmedabad,"Sardar Vallabhbhai Patel Stadium, Ahmedabad - IITM",20-07-2024 18:00:00,23.043070,72.562968,NH3,8,9,8
India,Gujarat,Gandhinagar,"GIFT City, Gandhinagar - IITM",20-07-2024 18:00:00,23.163798,72.677768,PM2.5,11,98,39
India,Gujarat,Gandhinagar,"GIFT City, Gandhinagar - IITM",20-07-2024 18:00:00,23.163798,72.677768,NH3,2,5,4
India,Gujarat,Gandhinagar,"Sector-10, Gandhinagar - GPCB",20-07-2024 18:00:00,23.221714,72.654328,CO,20,22,20
India,Gujarat,Surat,"Science Center, Surat - SMC",20-07-2024 18:00:00,21.170046,72.795405,PM10,1,32,14
India,Gujarat,Surat,"Science Center, Surat - SMC",20-07-2024 18:00:00,21.170046,72.795405,NO2,7,38,27
India,Gujarat,Vapi,"Phase-1 GIDC, Vapi - GPCB",20-07-2024 18:00:00,20.362421,72.918013,NO2,13,14,14
India,Gujarat,Vapi,"Phase-1 GIDC, Vapi - GPCB",20-07-2024 18:00:00,20.362421,72.918013,NH3,10,10,10
India,Haryana,Ambala,"Patti Mehar, Ambala - HSPCB",20-07-2024 18:00:00,30.379589,76.778328,PM2.5,46,93,65
India,Haryana,Bahadurgarh,"Arya Nagar, Bahadurgarh - HSPCB",20-07-2024 18:00:00,28.6701,76.9254,NO2,19,37,23
India,Haryana,Ballabgarh,"Nathu Colony, Ballabgarh - HSPCB",20-07-2024 18:00:00,28.3419248,77.319699,PM2.5,33,120,74
India,Haryana,Ballabgarh,"Nathu Colony, Ballabgarh - HSPCB",20-07-2024 18:00:00,28.3419248,77.319699,SO2,1,4,3
India,Haryana,Bhiwani,"H.B. Colony, Bhiwani - HSPCB",20-07-2024 18:00:00,28.806223,76.141105,PM2.5,15,51,41
India,Haryana,Bhiwani,"H.B. Colony, Bhiwani - HSPCB",20-07-2024 18:00:00,28.806223,76.141105,OZONE,10,25,17
India,Haryana,Dharuhera,"Municipal Corporation Office, Dharuhera -  HSPCB",20-07-2024 18:00:00,28.206800,76.799700,NH3,NA,NA,NA
India,Haryana,Faridabad,"New Industrial Town, Faridabad - HSPCB",20-07-2024 18:00:00,28.39072,77.30059,SO2,4,13,11
India,Haryana,Faridabad,"Sector 11, Faridabad - HSPCB",20-07-2024 18:00:00,28.376058,77.315741,PM10,39,158,114
India,Haryana,Faridabad,"Sector 30, Faridabad - HSPCB",20-07-2024 18:00:00,28.4417,77.3217,PM2.5,75,125,93
India,Haryana,Faridabad,"Sector 30, Faridabad - HSPCB",20-07-2024 18:00:00,28.4417,77.3217,PM10,88,122,103
India,Haryana,Faridabad,"Sector 30, Faridabad - HSPCB",20-07-2024 18:00:00,28.4417,77.3217,CO,18,37,19
India,Haryana,Fatehabad,"Huda Sector, Fatehabad - HSPCB",20-07-2024 18:00:00,29.503664,75.467934,CO,106,107,107
India,Haryana,Fatehabad,"Huda Sector, Fatehabad - HSPCB",20-07-2024 18:00:00,29.503664,75.467934,OZONE,12,38,25
India,Haryana,Gurugram,"Sector-51, Gurugram - HSPCB",20-07-2024 18:00:00,28.4227,77.0667,NH3,6,14,9
India,Haryana,Gurugram,"Vikas Sadan, Gurugram - HSPCB",20-07-2024 18:00:00,28.4501238,77.0263051,PM2.5,50,134,78
India,Haryana,Hisar,"Urban Estate-II, Hisar - HSPCB",20-07-2024 18:00:00,29.140560,75.744941,PM2.5,NA,NA,NA
India,Haryana,Jind,"Police Lines, Jind - HSPCB",20-07-2024 18:00:00,29.307814,76.337619,OZONE,69,140,111
India,Haryana,Karnal,"Sector-12, Karnal - HSPCB",20-07-2024 18:00:00,29.695300,77.002700,PM2.5,4,19,9
India,Haryana,Karnal,"Sector-12, Karnal - HSPCB",20-07-2024 18:00:00,29.695300,77.002700,SO2,12,13,12
India,Haryana,Kurukshetra,"Sector-7, Kurukshetra - HSPCB",20-07-2024 18:00:00,29.966942,76.875879,SO2,1,109,22
India,Haryana,Mandikhera,"General Hospital, Mandikhera - HSPCB",20-07-2024 18:00:00,27.9002,76.9938,NO2,19,23,21
India,Haryana,Mandikhera,"General Hospital, Mandikhera - HSPCB",20-07-2024 18:00:00,27.9002,76.9938,CO,10,11,10
India,Haryana,Manesar,"Sector-2 IMT, Manesar - HSPCB",20-07-2024 18:00:00,28.360699,76.936090,PM2.5,12,154,48
India,Haryana,Manesar,"Sector-2 IMT, Manesar - HSPCB",20-07-2024 18:00:00,28.360699,76.936090,OZONE,17,42,34
India,Haryana,Narnaul,"Shastri Nagar, Narnaul - HSPCB",20-07-2024 18:00:00,28.060249,76.113115,NH3,5,10,8
India,Haryana,Narnaul,"Shastri Nagar, Narnaul - HSPCB",20-07-2024 18:00:00,28.060249,76.113115,CO,14,76,30
India,Haryana,Narnaul,"Shastri Nagar, Narnaul - HSPCB",20-07-2024 18:00:00,28.060249,76.113115,OZONE,26,63,48
India,Haryana,Palwal,"Shyam Nagar, Palwal - HSPCB",20-07-2024 18:00:00,28.1485564,77.3320667,NH3,9,9,9
India,Haryana,Palwal,"Shyam Nagar, Palwal - HSPCB",20-07-2024 18:00:00,28.1485564,77.3320667,OZONE,7,11,8
India,Haryana,Panipat,"Sector-18, Panipat - HSPCB",20-07-2024 18:00:00,29.432304,76.972765,PM2.5,82,101,94
India,Haryana,Panipat,"Sector-18, Panipat - HSPCB",20-07-2024 18:00:00,29.432304,76.972765,SO2,18,19,19
India,Haryana,Rohtak,"MD University, Rohtak - HSPCB",20-07-2024 18:00:00,28.52123,76.37138,PM2.5,12,258,118
India,Haryana,Rohtak,"MD University, Rohtak - HSPCB",20-07-2024 18:00:00,28.52123,76.37138,CO,40,51,44
India,Haryana,Sirsa,"F-Block, Sirsa - HSPCB",20-07-2024 18:00:00,29.536400,75.015800,OZONE,2,74,34
India,Haryana,Sonipat,"Murthal, Sonipat - HSPCB",20-07-2024 18:00:00,29.027200,77.062100,PM2.5,12,351,59
India,Haryana,Sonipat,"Murthal, Sonipat - HSPCB",20-07-2024 18:00:00,29.027200,77.062100,NO2,37,44,40
India,Haryana,Sonipat,"Murthal, Sonipat - HSPCB",20-07-2024 18:00:00,29.027200,77.062100,SO2,13,29,20
India,Haryana,Yamuna Nagar,"Gobind Pura, Yamuna Nagar - HSPCB",20-07-2024 18:00:00,30.1480566,77.2893471,OZONE,18,29,21
India,Himachal Pradesh,Baddi,"HIMUDA Complex Phase-1, Baddi - HPPCB",20-07-2024 18:00:00,30.943887,76.801991,NO2,9,38,21
India,Himachal Pradesh,Baddi,"HIMUDA Complex Phase-1, Baddi - HPPCB",20-07-2024 18:00:00,30.943887,76.801991,SO2,10,82,32
India,Jammu_and_Kashmir,Srinagar,"Rajbagh, Srinagar - JKSPCB",20-07-2024 18:00:00,34.066206,74.819820,CO,12,22,17
India,Jharkhand,Dhanbad,"Kalakusuma, Dhanbad - DMC",20-07-2024 18:00:00,23.811548,86.481238,PM10,68,74,71
India,Jharkhand,Jorapokhar,"Tata Stadium, Jorapokhar - JSPCB",20-07-2024 18:00:00,23.707909,86.414670,PM10,45,100,59
India,Jharkhand,Jorapokhar,"Tata Stadium, Jorapokhar - JSPCB",20-07-2024 18:00:00,23.707909,86.414670,NH3,1,1,1
India,Jharkhand,Jorapokhar,"Tata Stadium, Jorapokhar - JSPCB",20-07-2024 18:00:00,23.707909,86.414670,SO2,NA,NA,NA
India,Jharkhand,Pathardih,"Mohalbani Ghat, Pathardih - DMC",20-07-2024 18:00:00,23.669880,86.411725,PM10,NA,NA,NA
India,Jharkhand,Pathardih,"Mohalbani Ghat, Pathardih - DMC",20-07-2024 18:00:00,23.669880,86.411725,OZONE,35,48,43
India,Karnataka,Bagalkot,"Vidayagiri, Bagalkot - KSPCB",20-07-2024 18:00:00,16.172806,75.659694,PM10,46,54,52
India,Karnataka,Bagalkot,"Vidayagiri, Bagalkot - KSPCB",20-07-2024 18:00:00,16.172806,75.659694,NO2,10,11,11
India,Karnataka,Bagalkot,"Vidayagiri, Bagalkot - KSPCB",20-07-2024 18:00:00,16.172806,75.659694,SO2,4,4,4
India,Karnataka,Belgaum,"Ramteerth Nagar, Belgaum - KSPCB",20-07-2024 18:00:00,15.888653,74.541751,NH3,5,10,6
India,Karnataka,Bengaluru,"BTM Layout, Bengaluru - CPCB",20-07-2024 18:00:00,12.9135218,77.5950804,CO,25,25,25
India,Karnataka,Bengaluru,"City Railway Station, Bengaluru - KSPCB",20-07-2024 18:00:00,12.9756843,77.5660749,SO2,17,17,17
India,Karnataka,Bengaluru,"City Railway Station, Bengaluru - KSPCB",20-07-2024 18:00:00,12.9756843,77.5660749,CO,51,101,62
India,Karnataka,Bengaluru,"Hebbal, Bengaluru - KSPCB",20-07-2024 18:00:00,13.029152,77.585901,PM10,NA,NA,NA
India,Karnataka,Bengaluru,"Hombegowda Nagar, Bengaluru - KSPCB",20-07-2024 18:00:00,12.938539,77.590100,CO,10,22,16
India,Karnataka,Bengaluru,"Hombegowda Nagar, Bengaluru - KSPCB",20-07-2024 18:00:00,12.938539,77.590100,OZONE,7,16,12
India,Karnataka,Bengaluru,"Jigani, Bengaluru - KSPCB",20-07-2024 18:00:00,12.7816279,77.6299145,PM10,NA,NA,NA
India,Karnataka,Bengaluru,"Jigani, Bengaluru - KSPCB",20-07-2024 18:00:00,12.7816279,77.6299145,SO2,NA,NA,NA
India,Karnataka,Bengaluru,"RVCE-Mailasandra, Bengaluru - KSPCB",20-07-2024 18:00:00,12.921418,77.502466,CO,34,48,40
India,Karnataka,Bengaluru,"RVCE-Mailasandra, Bengaluru - KSPCB",20-07-2024 18:00:00,12.921418,77.502466,OZONE,38,39,39
India,Karnataka,Bengaluru,"Sanegurava Halli, Bengaluru - KSPCB",20-07-2024 18:00:00,12.990328,77.5431385,PM10,33,60,38
India,Karnataka,Bengaluru,"Sanegurava Halli, Bengaluru - KSPCB",20-07-2024 18:00:00,12.990328,77.5431385,NO2,17,25,23
India,Karnataka,Bengaluru,"Shivapura_Peenya, Bengaluru - KSPCB",20-07-2024 18:00:00,13.0246342,77.5080115,PM2.5,13,54,30
India,Karnataka,Bidar,"Naubad, Bidar - KSPCB",20-07-2024 18:00:00,17.930306,77.482194,CO,48,84,60
