country,state,city,station,last_update,latitude,longitude,pollutant_id,pollutant_min,pollutant_max,pollutant_avg
India,Andhra_Pradesh,Amaravati,"Secretariat, Amaravati - APPCB",28-03-2024 07:00:00,16.5150833,80.5181667,SO2,4,20,13
India,Andhra_Pradesh,Amaravati,"Secretariat, Amaravati - APPCB",28-03-2024 07:00:00,16.5150833,80.5181667,CO,5,114,25
India,Andhra_Pradesh,Anantapur,"Gulzarpet, Anantapur - APPCB",28-03-2024 07:00:00,14.675886,77.593027,PM2.5,18,79,50
India,Andhra_Pradesh,Chittoor,"Gangineni Cheruvu, Chittoor - APPCB",28-03-2024 07:00:00,13.204880,79.097889,PM10,27,116,69
India,Andhra_Pradesh,Kadapa,"Yerramukkapalli, Kadapa - APPCB",28-03-2024 07:00:00,14.465052,78.824187,NO2,8,8,8
India,Andhra_Pradesh,Kadapa,"Yerramukkapalli, Kadapa - APPCB",28-03-2024 07:00:00,14.465052,78.824187,SO2,2,2,2
India,Andhra_Pradesh,Kadapa,"Yerramukkapalli, Kadapa - APPCB",28-03-2024 07:00:00,14.465052,78.824187,CO,12,22,15
India,Andhra_Pradesh,Rajamahendravaram,"Anand Kala Kshetram, Rajamahendravaram - APPCB",28-03-2024 07:00:00,16.9872867,81.7363176,SO2,4,42,12
India,Andhra_Pradesh,Tirupati,"Tirumala, Tirupati - APPCB",28-03-2024 07:00:00,13.67,79.35,NO2,18,30,24
India,Andhra_Pradesh,Tirupati,"Tirumala, Tirupati - APPCB",28-03-2024 07:00:00,13.67,79.35,NH3,1,2,1
India,Andhra_Pradesh,Tirupati,"Tirumala, Tirupati - APPCB",28-03-2024 07:00:00,13.67,79.35,SO2,3,12,8
India,Andhra_Pradesh,Tirupati,"Vaikuntapuram, Tirupati - APPCB",28-03-2024 07:00:00,13.615387,79.409230,PM2.5,13,178,54
India,Andhra_Pradesh,Tirupati,"Vaikuntapuram, Tirupati - APPCB",28-03-2024 07:00:00,13.615387,79.409230,CO,9,15,13
India,Andhra_Pradesh,Vijayawada,"HB Colony, Vijayawada - APPCB",28-03-2024 07:00:00,16.536107,80.594233,PM2.5,47,59,52
India,Andhra_Pradesh,Vijayawada,"Rajiv Gandhi Park, Vijayawada - APPCB",28-03-2024 07:00:00,16.509717,80.612222,NH3,3,7,6
India,Andhra_Pradesh,Vijayawada,"Rajiv Nagar, Vijayawada - APPCB",28-03-2024 07:00:00,16.554731,80.649110,OZONE,5,25,7
India,Andhra_Pradesh,Visakhapatnam,"GVM Corporation, Visakhapatnam - APPCB",28-03-2024 07:00:00,17.72,83.3,PM2.5,22,85,48
India,Andhra_Pradesh,Visakhapatnam,"GVM Corporation, Visakhapatnam - APPCB",28-03-2024 07:00:00,17.72,83.3,PM10,47,160,87
India,Andhra_Pradesh,Visakhapatnam,"GVM Corporation, Visakhapatnam - APPCB",28-03-2024 07:00:00,17.72,83.3,SO2,8,17,13
India,Arunachal_Pradesh,Naharlagun,"Naharlagun, Naharlagun - APSPCB",28-03-2024 07:00:00,27.103358,93.679645,SO2,4,4,4
India,Assam,Byrnihat,"Central Academy for SFS, Byrnihat - PCBA",28-03-2024 07:00:00,26.071318,91.87488,PM2.5,25,364,137
India,Assam,Byrnihat,"Central Academy for SFS, Byrnihat - PCBA",28-03-2024 07:00:00,26.071318,91.87488,PM10,22,255,95
India,Assam,Byrnihat,"Central Academy for SFS, Byrnihat - PCBA",28-03-2024 07:00:00,26.071318,91.87488,NO2,45,116,70
India,Assam,Byrnihat,"Central Academy for SFS, Byrnihat - PCBA",28-03-2024 07:00:00,26.071318,91.87488,NH3,2,8,5
India,Assam,Byrnihat,"Central Academy for SFS, Byrnihat - PCBA",28-03-2024 07:00:00,26.071318,91.87488,SO2,6,19,14
India,Assam,Guwahati,"LGBI Airport, Guwahati - PCBA",28-03-2024 07:00:00,26.10887,91.589544,NO2,13,39,26
India,Assam,Guwahati,"LGBI Airport, Guwahati - PCBA",28-03-2024 07:00:00,26.10887,91.589544,SO2,3,6,5
India,Assam,Guwahati,"Railway Colony, Guwahati - PCBA",28-03-2024 07:00:00,26.181742,91.78063,NO2,3,4,3
India,Assam,Guwahati,"Railway Colony, Guwahati - PCBA",28-03-2024 07:00:00,26.181742,91.78063,SO2,38,47,43
India,Assam,Nagaon,"Christianpatty, Nagaon - PCBA",28-03-2024 07:00:00,26.349082,92.68449,NH3,6,9,7
India,Assam,Nalbari,"Bata Chowk, Nalbari - PCBA",28-03-2024 07:00:00,26.446912,91.439057,CO,38,154,154
India,Assam,Nalbari,"Bata Chowk, Nalbari - PCBA",28-03-2024 07:00:00,26.446912,91.439057,OZONE,19,71,39
India,Assam,Silchar,"Tarapur, Silchar - PCBA",28-03-2024 07:00:00,24.82827,92.79525,NH3,1,1,1
India,Assam,Silchar,"Tarapur, Silchar - PCBA",28-03-2024 07:00:00,24.82827,92.79525,SO2,2,19,10
India,Assam,Sivasagar,"Girls College, Sivasagar - PCBA",28-03-2024 07:00:00,26.987634,94.636574,PM10,45,76,61
India,Assam,Sivasagar,"Girls College, Sivasagar - PCBA",28-03-2024 07:00:00,26.987634,94.636574,CO,4,12,8
India,Bihar,Araria,"Kharahiya Basti, Araria - BSPCB",28-03-2024 07:00:00,26.146529,87.454184,PM10,NA,NA,NA
India,Bihar,Araria,"Kharahiya Basti, Araria - BSPCB",28-03-2024 07:00:00,26.146529,87.454184,OZONE,1,11,10
India,Bihar,Arrah,"New DM Office, Arrah - BSPCB",28-03-2024 07:00:00,25.5626095,84.663264,SO2,15,24,18
India,Bihar,Aurangabad,"Gurdeo Nagar, Aurangabad - BSPCB",28-03-2024 07:00:00,24.75746,84.366208,CO,18,81,69
India,Bihar,Bettiah,"Kamalnath Nagar, Bettiah - BSPCB",28-03-2024 07:00:00,26.80365,84.51954,PM2.5,32,107,65
India,Bihar,Bhagalpur,"DM Office_Kachari Chowk, Bhagalpur - BSPCB",28-03-2024 07:00:00,25.251013,86.989001,NO2,NA,NA,NA
India,Bihar,Bhagalpur,"Mayaganj, Bhagalpur - BSPCB",28-03-2024 07:00:00,25.265194,87.012947,PM10,69,115,93
India,Bihar,Bhagalpur,"Mayaganj, Bhagalpur - BSPCB",28-03-2024 07:00:00,25.265194,87.012947,NO2,5,10,7
India,Bihar,Bhagalpur,"Mayaganj, Bhagalpur - BSPCB",28-03-2024 07:00:00,25.265194,87.012947,SO2,11,12,12
India,Bihar,Bihar Sharif,"D M Colony, Bihar Sharif - BSPCB",28-03-2024 07:00:00,25.204762,85.514960,PM2.5,48,100,74
India,Bihar,Bihar Sharif,"D M Colony, Bihar Sharif - BSPCB",28-03-2024 07:00:00,25.204762,85.514960,CO,4,40,24
India,Bihar,Buxar,"Charitra Van, Buxar - BSPCB (Formerly known as Central Jail)",28-03-2024 07:00:00,25.567520,83.966379,SO2,14,19,18
India,Bihar,Buxar,"Charitra Van, Buxar - BSPCB (Formerly known as Central Jail)",28-03-2024 07:00:00,25.567520,83.966379,CO,44,104,60
India,Bihar,Chhapra,"Darshan Nagar, Chhapra - BSPCB",28-03-2024 07:00:00,25.7808257,84.7446768,SO2,2,27,11
India,Bihar,Gaya,"Collectorate, Gaya - BSPCB",28-03-2024 07:00:00,24.7955,84.9994,PM2.5,32,167,68
India,Bihar,Gaya,"Collectorate, Gaya - BSPCB",28-03-2024 07:00:00,24.7955,84.9994,NO2,1,4,3
India,Bihar,Gaya,"Collectorate, Gaya - BSPCB",28-03-2024 07:00:00,24.7955,84.9994,OZONE,49,83,66
India,Bihar,Gaya,"SFTI Kusdihra, Gaya - BSPCB",28-03-2024 07:00:00,24.762518,84.982348,PM2.5,20,84,55
India,Bihar,Gaya,"SFTI Kusdihra, Gaya - BSPCB",28-03-2024 07:00:00,24.762518,84.982348,CO,14,40,32
India,Bihar,Hajipur,"Industrial Area, Hajipur - BSPCB",28-03-2024 07:00:00,25.697189,85.245900,SO2,6,8,7
India,Bihar,Kishanganj,"SDM Office_Khagra, Kishanganj - BSPCB",28-03-2024 07:00:00,26.0881305,87.93840336,PM2.5,NA,NA,NA
India,Bihar,Kishanganj,"SDM Office_Khagra, Kishanganj - BSPCB",28-03-2024 07:00:00,26.0881305,87.93840336,NO2,34,38,36
India,Bihar,Kishanganj,"SDM Office_Khagra, Kishanganj - BSPCB",28-03-2024 07:00:00,26.0881305,87.93840336,OZONE,19,47,19
India,Bihar,Manguraha,"Forest Rest House, Manguraha - BSPCB",28-03-2024 07:00:00,27.308328,84.531742,SO2,5,7,6
India,Bihar,Motihari,"Gandak Colony, Motihari - BSPCB",28-03-2024 07:00:00,26.63086,84.90051,NH3,7,11,9
India,Bihar,Munger,"Town Hall, Munger - BSPCB",28-03-2024 07:00:00,25.376776,86.471523,PM10,54,111,81
India,Bihar,Muzaffarpur,"Muzaffarpur Collectorate, Muzaffarpur - BSPCB",28-03-2024 07:00:00,26.1209,85.3647,NO2,7,20,10
India,Bihar,Patna,"Govt. High School Shikarpur, Patna - BSPCB",28-03-2024 07:00:00,25.592539,85.227158,PM2.5,48,169,74
India,Bihar,Patna,"Govt. High School Shikarpur, Patna - BSPCB",28-03-2024 07:00:00,25.592539,85.227158,NO2,19,22,20
India,Bihar,Patna,"Govt. High School Shikarpur, Patna - BSPCB",28-03-2024 07:00:00,25.592539,85.227158,CO,34,64,38
India,Bihar,Patna,"Govt. High School Shikarpur, Patna - BSPCB",28-03-2024 07:00:00,25.592539,85.227158,OZONE,1,58,2
India,Bihar,Patna,"IGSC Planetarium Complex, Patna - BSPCB",28-03-2024 07:00:00,25.610369,85.132568,CO,12,13,12
India,Bihar,Patna,"Muradpur, Patna - BSPCB",28-03-2024 07:00:00,25.619651,85.147382,NH3,2,5,3
India,Bihar,Patna,"Rajbansi Nagar, Patna - BSPCB",28-03-2024 07:00:00,25.599486,85.113666,PM2.5,56,157,90
India,Bihar,Patna,"Samanpura, Patna - BSPCB",28-03-2024 07:00:00,25.596727,85.085624,PM10,104,190,132
India,Bihar,Patna,"Samanpura, Patna - BSPCB",28-03-2024 07:00:00,25.596727,85.085624,NH3,7,10,9
India,Bihar,Patna,"Samanpura, Patna - BSPCB",28-03-2024 07:00:00,25.596727,85.085624,CO,42,81,49
India,Bihar,Rajgir,"Dangi Tola, Rajgir - BSPCB",28-03-2024 07:00:00,25.03280,85.41948,PM10,32,258,108
India,Bihar,Saharsa,"Police Line, Saharsa - BSPCB",28-03-2024 07:00:00,25.892357,86.590325,PM2.5,23,100,44
India,Bihar,Samastipur,"DM Office_Kasipur, Samastipur - BSPCB",28-03-2024 07:00:00,25.859655,85.77944,CO,24,33,30
India,Chandigarh,Chandigarh,"Sector 22, Chandigarh - CPCC",28-03-2024 07:00:00,30.735567,76.775714,PM2.5,35,187,88
India,Chandigarh,Chandigarh,"Sector-25, Chandigarh - CPCC",28-03-2024 07:00:00,30.751462,76.762879,SO2,4,37,11
India,Chandigarh,Chandigarh,"Sector-25, Chandigarh - CPCC",28-03-2024 07:00:00,30.751462,76.762879,OZONE,7,74,15
India,Chandigarh,Chandigarh,"Sector-53, Chandigarh - CPCC",28-03-2024 07:00:00,30.719859,76.738637,NO2,9,35,20
India,Chandigarh,Chandigarh,"Sector-53, Chandigarh - CPCC",28-03-2024 07:00:00,30.719859,76.738637,SO2,11,22,16
India,Chandigarh,Chandigarh,"Sector-53, Chandigarh - CPCC",28-03-2024 07:00:00,30.719859,76.738637,CO,36,64,52
India,Chhattisgarh,Bhilai,"32Bungalows, Bhilai - CECB",28-03-2024 07:00:00,21.194815,81.314770,SO2,5,14,7
India,Chhattisgarh,Bhilai,"32Bungalows, Bhilai - CECB",28-03-2024 07:00:00,21.194815,81.314770,CO,22,48,46
India,Chhattisgarh,Bhilai,"Civic Center, Bhilai - Bhilai Steel Plant",28-03-2024 07:00:00,21.185571,81.343175,NO2,15,17,16
India,Chhattisgarh,Bhilai,"Civic Center, Bhilai - Bhilai Steel Plant",28-03-2024 07:00:00,21.185571,81.343175,CO,14,48,37
India,Chhattisgarh,Bhilai,"Civic Center, Bhilai - Bhilai Steel Plant",28-03-2024 07:00:00,21.185571,81.343175,OZONE,10,72,15
India,Chhattisgarh,Bilaspur,"Mangala, Bilaspur - NTPC",28-03-2024 07:00:00,22.08815,82.13737,SO2,4,15,10
India,Chhattisgarh,Chhal,"Nawapara SECL Colony, Chhal - CECB",28-03-2024 07:00:00,22.118125,83.140608,NH3,2,2,2
India,Chhattisgarh,Korba,"Urja Nagar, Korba - CECB",28-03-2024 07:00:00,22.348441,82.549611,PM10,24,251,83
India,Chhattisgarh,Kunjemura,"OP Jindal School, Kunjemura - CECB",28-03-2024 07:00:00,22.126650,83.483212,PM10,70,261,141
India,Chhattisgarh,Kunjemura,"OP Jindal School, Kunjemura - CECB",28-03-2024 07:00:00,22.126650,83.483212,NO2,15,124,59
India,Chhattisgarh,Kunjemura,"OP Jindal School, Kunjemura - CECB",28-03-2024 07:00:00,22.126650,83.483212,NH3,1,5,2
India,Chhattisgarh,Kunjemura,"OP Jindal School, Kunjemura - CECB",28-03-2024 07:00:00,22.126650,83.483212,SO2,2,30,11
India,Chhattisgarh,Milupara,"Govt. Higher Secondary School, Milupara - CECB",28-03-2024 07:00:00,22.1910172,83.5197009,PM10,NA,NA,NA
India,Chhattisgarh,Milupara,"Govt. Higher Secondary School, Milupara - CECB",28-03-2024 07:00:00,22.1910172,83.5197009,SO2,NA,NA,NA
India,Chhattisgarh,Milupara,"Govt. Higher Secondary School, Milupara - CECB",28-03-2024 07:00:00,22.1910172,83.5197009,OZONE,1,34,3
India,Chhattisgarh,Raipur,"AIIMS, Raipur - CECB",28-03-2024 07:00:00,21.258815,81.578979,PM10,46,132,71
India,Chhattisgarh,Raipur,"AIIMS, Raipur - CECB",28-03-2024 07:00:00,21.258815,81.578979,NH3,5,5,5
India,Chhattisgarh,Raipur,"AIIMS, Raipur - CECB",28-03-2024 07:00:00,21.258815,81.578979,SO2,4,19,9
India,Chhattisgarh,Raipur,"Bhatagaon New ISBT, Raipur - CECB",28-03-2024 07:00:00,21.219665,81.630094,OZONE,3,20,3
India,Chhattisgarh,Raipur,"Siltara Phase-II, Raipur - CECB",28-03-2024 07:00:00,21.371751,81.664929,NO2,35,74,53
India,Chhattisgarh,Raipur,"Siltara Phase-II, Raipur - CECB",28-03-2024 07:00:00,21.371751,81.664929,CO,25,84,74
India,Chhattisgarh,Raipur,"Siltara Phase-II, Raipur - CECB",28-03-2024 07:00:00,21.371751,81.664929,OZONE,3,69,3
India,Chhattisgarh,Tumidih,"OP Jindal Industrial Park, Tumidih - CECB",28-03-2024 07:00:00,22.06631475,83.33820077,NO2,NA,NA,NA
India,Chhattisgarh,Tumidih,"OP Jindal Industrial Park, Tumidih - CECB",28-03-2024 07:00:00,22.06631475,83.33820077,NH3,NA,NA,NA
India,Delhi,Delhi,"Alipur, Delhi - DPCC",28-03-2024 07:00:00,28.815329,77.153010,NO2,6,70,28
India,Delhi,Delhi,"Anand Vihar, Delhi - DPCC",28-03-2024 07:00:00,28.647622,77.3158090,PM2.5,55,283,121
India,Delhi,Delhi,"Anand Vihar, Delhi - DPCC",28-03-2024 07:00:00,28.647622,77.3158090,NO2,16,133,70
India,Delhi,Delhi,"Anand Vihar, Delhi - DPCC",28-03-2024 07:00:00,28.647622,77.3158090,SO2,31,42,36
India,Delhi,Delhi,"Anand Vihar, Delhi - DPCC",28-03-2024 07:00:00,28.647622,77.3158090,OZONE,NA,NA,NA
India,Delhi,Delhi,"Aya Nagar, Delhi - IMD",28-03-2024 07:00:00,28.4706914,77.1099364,NO2,13,26,20
India,Delhi,Delhi,"Aya Nagar, Delhi - IMD",28-03-2024 07:00:00,28.4706914,77.1099364,CO,11,38,21
India,Delhi,Delhi,"Aya Nagar, Delhi - IMD",28-03-2024 07:00:00,28.4706914,77.1099364,OZONE,2,26,4
India,Delhi,Delhi,"Chandni Chowk, Delhi - IITM",28-03-2024 07:00:00,28.656756,77.227234,CO,80,107,96
India,Delhi,Delhi,"Chandni Chowk, Delhi - IITM",28-03-2024 07:00:00,28.656756,77.227234,OZONE,10,22,19
India,Delhi,Delhi,"DTU, Delhi - CPCB",28-03-2024 07:00:00,28.7500499,77.1112615,NH3,8,19,11
India,Delhi,Delhi,"Dr. Karni Singh Shooting Range, Delhi - DPCC",28-03-2024 07:00:00,28.498571,77.264840,PM10,95,148,120
India,Delhi,Delhi,"Dwarka-Sector 8, Delhi - DPCC ",28-03-2024 07:00:00,28.5710274,77.0719006,NH3,6,9,8
India,Delhi,Delhi,"Dwarka-Sector 8, Delhi - DPCC ",28-03-2024 07:00:00,28.5710274,77.0719006,SO2,3,18,10
India,Delhi,Delhi,"IGI Airport (T3), Delhi - IMD",28-03-2024 07:00:00,28.5627763,77.1180053,PM2.5,30,278,84
India,Delhi,Delhi,"IHBAS, Dilshad Garden, Delhi - CPCB",28-03-2024 07:00:00,28.6811736,77.3025234,CO,27,109,56
India,Delhi,Delhi,"ITO, Delhi - CPCB",28-03-2024 07:00:00,28.628624,77.241060,PM2.5,17,300,130
India,Delhi,Delhi,"ITO, Delhi - CPCB",28-03-2024 07:00:00,28.628624,77.241060,SO2,7,32,21
India,Delhi,Delhi,"ITO, Delhi - CPCB",28-03-2024 07:00:00,28.628624,77.241060,OZONE,18,94,20
India,Delhi,Delhi,"Jahangirpuri, Delhi - DPCC",28-03-2024 07:00:00,28.732820,77.170633,PM10,115,296,179
India,Delhi,Delhi,"Jawaharlal Nehru Stadium, Delhi - DPCC",28-03-2024 07:00:00,28.580280,77.233829,NH3,6,10,8
India,Delhi,Delhi,"Jawaharlal Nehru Stadium, Delhi - DPCC",28-03-2024 07:00:00,28.580280,77.233829,OZONE,1,253,10
India,Delhi,Delhi,"Lodhi Road, Delhi - IITM",28-03-2024 07:00:00,28.588333,77.221667,SO2,16,28,21
India,Delhi,Delhi,"Lodhi Road, Delhi - IITM",28-03-2024 07:00:00,28.588333,77.221667,CO,58,68,67
India,Delhi,Delhi,"Lodhi Road, Delhi - IMD",28-03-2024 07:00:00,28.5918245,77.2273074,PM10,70,155,107
India,Delhi,Delhi,"Lodhi Road, Delhi - IMD",28-03-2024 07:00:00,28.5918245,77.2273074,OZONE,8,39,9
India,Delhi,Delhi,"Major Dhyan Chand National Stadium, Delhi - DPCC",28-03-2024 07:00:00,28.611281,77.237738,PM2.5,47,234,105
India,Delhi,Delhi,"Mandir Marg, Delhi - DPCC",28-03-2024 07:00:00,28.636429,77.201067,NH3,7,8,7
India,Delhi,Delhi,"Mundka, Delhi - DPCC",28-03-2024 07:00:00,28.684678,77.076574,NO2,21,98,50
India,Delhi,Delhi,"Mundka, Delhi - DPCC",28-03-2024 07:00:00,28.684678,77.076574,CO,28,75,48
India,Delhi,Delhi,"NSIT Dwarka, Delhi - CPCB",28-03-2024 07:00:00,28.60909,77.0325413,NO2,41,78,58
India,Delhi,Delhi,"Narela, Delhi - DPCC",28-03-2024 07:00:00,28.822836,77.101981,SO2,12,34,23
India,Delhi,Delhi,"Narela, Delhi - DPCC",28-03-2024 07:00:00,28.822836,77.101981,OZONE,14,70,20
India,Delhi,Delhi,"Nehru Nagar, Delhi - DPCC",28-03-2024 07:00:00,28.567890,77.250515,PM2.5,35,196,94
India,Delhi,Delhi,"Nehru Nagar, Delhi - DPCC",28-03-2024 07:00:00,28.567890,77.250515,NO2,9,40,18
India,Delhi,Delhi,"Nehru Nagar, Delhi - DPCC",28-03-2024 07:00:00,28.567890,77.250515,NH3,6,16,11
India,Delhi,Delhi,"Okhla Phase-2, Delhi - DPCC",28-03-2024 07:00:00,28.530785,77.271255,PM10,108,206,139
India,Delhi,Delhi,"Okhla Phase-2, Delhi - DPCC",28-03-2024 07:00:00,28.530785,77.271255,CO,53,99,77
India,Delhi,Delhi,"Patparganj, Delhi - DPCC",28-03-2024 07:00:00,28.623763,77.287209,NH3,6,9,7
India,Delhi,Delhi,"Pusa, Delhi - IMD",28-03-2024 07:00:00,28.636110,77.173332,PM2.5,NA,NA,NA
India,Delhi,Delhi,"Pusa, Delhi - IMD",28-03-2024 07:00:00,28.636110,77.173332,NO2,NA,NA,NA
India,Delhi,Delhi,"R K Puram, Delhi - DPCC",28-03-2024 07:00:00,28.563262,77.186937,OZONE,10,177,17
India,Delhi,Delhi,"Rohini, Delhi - DPCC",28-03-2024 07:00:00,28.732528,77.119920,NH3,7,11,9
India,Delhi,Delhi,"Rohini, Delhi - DPCC",28-03-2024 07:00:00,28.732528,77.119920,OZONE,3,65,8
India,Delhi,Delhi,"Shadipur, Delhi - CPCB",28-03-2024 07:00:00,28.6514781,77.1473105,SO2,2,26,16
India,Delhi,Delhi,"Shadipur, Delhi - CPCB",28-03-2024 07:00:00,28.6514781,77.1473105,CO,28,112,49
India,Delhi,Delhi,"Sri Aurobindo Marg, Delhi - DPCC",28-03-2024 07:00:00,28.531346,77.190156,PM10,101,297,128
India,Delhi,Delhi,"Sri Aurobindo Marg, Delhi - DPCC",28-03-2024 07:00:00,28.531346,77.190156,NH3,7,11,8
India,Delhi,Delhi,"Sri Aurobindo Marg, Delhi - DPCC",28-03-2024 07:00:00,28.531346,77.190156,OZONE,1,60,2
India,Delhi,Delhi,"Vivek Vihar, Delhi - DPCC",28-03-2024 07:00:00,28.672342,77.315260,OZONE,1,77,6
India,Delhi,Delhi,"Wazirpur, Delhi - DPCC",28-03-2024 07:00:00,28.699793,77.165453,PM10,101,218,146
India,Delhi,Delhi,"Wazirpur, Delhi - DPCC",28-03-2024 07:00:00,28.699793,77.165453,NO2,56,154,101
India,Delhi,Delhi,"Wazirpur, Delhi - DPCC",28-03-2024 07:00:00,28.699793,77.165453,NH3,9,10,10
India,Gujarat,Ahmedabad,"Chandkheda, Ahmedabad - IITM",28-03-2024 07:00:00,23.107969,72.574648,CO,2,36,34
India,Gujarat,Ahmedabad,"Gyaspur, Ahmedabad - IITM",28-03-2024 07:00:00,22.977134,72.553024,NO2,17,41,32
India,Gujarat,Ahmedabad,"Gyaspur, Ahmedabad - IITM",28-03-2024 07:00:00,22.977134,72.553024,NH3,10,11,10
India,Gujarat,Ahmedabad,"Maninagar, Ahmedabad - GPCB",28-03-2024 07:00:00,23.002657,72.591912,NO2,26,105,50
India,Gujarat,Ahmedabad,"Maninagar, Ahmedabad - GPCB",28-03-2024 07:00:00,23.002657,72.591912,OZONE,12,142,14
India,Gujarat,Ahmedabad,"Raikhad, Ahmedabad - IITM",28-03-2024 07:00:00,23.020509,72.579261,PM2.5,48,362,116
India,Gujarat,Ahmedabad,"Rakhial, Ahmedabad - IITM",28-03-2024 07:00:00,23.016834,72.625775,SO2,5,41,13
India,Gujarat,Ahmedabad,"SAC ISRO Satellite, Ahmedabad - IITM",28-03-2024 07:00:00,23.023389,72.515201,NO2,17,17,17
India,Gujarat,Ahmedabad,"SVPI Airport Hansol, Ahmedabad - IITM",28-03-2024 07:00:00,23.076793,72.627874,NH3,4,5,4
India,Gujarat,Ahmedabad,"SVPI Airport Hansol, Ahmedabad - IITM",28-03-2024 07:00:00,23.076793,72.627874,CO,30,105,57
India,Gujarat,Gandhinagar,"IIPHG Lekawada, Gandhinagar - IITM",28-03-2024 07:00:00,23.243639,72.68994,NO2,37,47,41
India,Gujarat,Nandesari,"GIDC, Nandesari - Nandesari Ind. Association",28-03-2024 07:00:00,22.410802,73.097923,PM2.5,81,399,260
India,Gujarat,Nandesari,"GIDC, Nandesari - Nandesari Ind. Association",28-03-2024 07:00:00,22.410802,73.097923,SO2,5,18,12
India,Gujarat,Surat,"Science Center, Surat - SMC",28-03-2024 07:00:00,21.170046,72.795405,PM10,29,500,155
India,Gujarat,Vapi,"Phase-1 GIDC, Vapi - GPCB",28-03-2024 07:00:00,20.362421,72.918013,PM2.5,27,126,60
India,Gujarat,Vatva,"Phase-4 GIDC, Vatva - GPCB",28-03-2024 07:00:00,22.969611,72.643500,OZONE,7,74,10
India,Haryana,Bahadurgarh,"Arya Nagar, Bahadurgarh - HSPCB",28-03-2024 07:00:00,28.6701,76.9254,NH3,10,12,11
India,Haryana,Bahadurgarh,"Arya Nagar, Bahadurgarh - HSPCB",28-03-2024 07:00:00,28.6701,76.9254,CO,40,63,49
India,Haryana,Ballabgarh,"Nathu Colony, Ballabgarh - HSPCB",28-03-2024 07:00:00,28.3419248,77.319699,NO2,11,14,12
India,Haryana,Ballabgarh,"Nathu Colony, Ballabgarh - HSPCB",28-03-2024 07:00:00,28.3419248,77.319699,SO2,11,44,23
India,Haryana,Bhiwani,"H.B. Colony, Bhiwani - HSPCB",28-03-2024 07:00:00,28.806223,76.141105,PM2.5,61,500,112
India,Haryana,Bhiwani,"H.B. Colony, Bhiwani - HSPCB",28-03-2024 07:00:00,28.806223,76.141105,SO2,1,85,13
India,Haryana,Bhiwani,"H.B. Colony, Bhiwani - HSPCB",28-03-2024 07:00:00,28.806223,76.141105,CO,2,52,30
India,Haryana,Charkhi Dadri,"Mini Secretariat, Charkhi Dadri - HSPCB",28-03-2024 07:00:00,28.593883,76.270653,PM10,49,209,89
India,Haryana,Charkhi Dadri,"Mini Secretariat, Charkhi Dadri - HSPCB",28-03-2024 07:00:00,28.593883,76.270653,OZONE,13,17,15
India,Haryana,Dharuhera,"Municipal Corporation Office, Dharuhera -  HSPCB",28-03-2024 07:00:00,28.206800,76.799700,SO2,2,7,3
India,Haryana,Faridabad,"New Industrial Town, Faridabad - HSPCB",28-03-2024 07:00:00,28.39072,77.30059,PM10,NA,NA,NA
India,Haryana,Faridabad,"New Industrial Town, Faridabad - HSPCB",28-03-2024 07:00:00,28.39072,77.30059,NH3,NA,NA,NA
India,Haryana,Faridabad,"Sector 11, Faridabad - HSPCB",28-03-2024 07:00:00,28.376058,77.315741,NH3,6,6,6
India,Haryana,Faridabad,"Sector 11, Faridabad - HSPCB",28-03-2024 07:00:00,28.376058,77.315741,SO2,6,119,23
India,Haryana,Faridabad,"Sector 11, Faridabad - HSPCB",28-03-2024 07:00:00,28.376058,77.315741,CO,35,58,45
India,Haryana,Faridabad,"Sector- 16A, Faridabad - HSPCB",28-03-2024 07:00:00,28.4088421,77.3099081,SO2,1,26,19
India,Haryana,Gurugram,"Sector-51, Gurugram - HSPCB",28-03-2024 07:00:00,28.4227,77.0667,NH3,6,14,9
India,Haryana,Gurugram,"Sector-51, Gurugram - HSPCB",28-03-2024 07:00:00,28.4227,77.0667,CO,28,88,56
India,Haryana,Gurugram,"Sector-51, Gurugram - HSPCB",28-03-2024 07:00:00,28.4227,77.0667,OZONE,27,67,40
India,Haryana,Gurugram,"Teri Gram, Gurugram - HSPCB",28-03-2024 07:00:00,28.4275,77.1465,SO2,3,5,4
India,Haryana,Gurugram,"Vikas Sadan, Gurugram - HSPCB",28-03-2024 07:00:00,28.4501238,77.0263051,NO2,5,25,14
India,Haryana,Gurugram,"Vikas Sadan, Gurugram - HSPCB",28-03-2024 07:00:00,28.4501238,77.0263051,CO,54,150,103
India,Haryana,Hisar,"Urban Estate-II, Hisar - HSPCB",28-03-2024 07:00:00,29.140560,75.744941,PM10,61,148,87
India,Haryana,Hisar,"Urban Estate-II, Hisar - HSPCB",28-03-2024 07:00:00,29.140560,75.744941,NO2,21,25,22
India,Haryana,Hisar,"Urban Estate-II, Hisar - HSPCB",28-03-2024 07:00:00,29.140560,75.744941,NH3,8,10,9
India,Haryana,Jind,"Police Lines, Jind - HSPCB",28-03-2024 07:00:00,29.307814,76.337619,PM2.5,28,82,48
India,Haryana,Kaithal,"Rishi Nagar, Kaithal - HSPCB",28-03-2024 07:00:00,29.8006,76.4155,CO,8,64,17
India,Haryana,Karnal,"Sector-12, Karnal - HSPCB",28-03-2024 07:00:00,29.695300,77.002700,PM10,44,74,58
India,Haryana,Kurukshetra,"Sector-7, Kurukshetra - HSPCB",28-03-2024 07:00:00,29.966942,76.875879,CO,7,32,15
India,Haryana,Mandikhera,"General Hospital, Mandikhera - HSPCB",28-03-2024 07:00:00,27.9002,76.9938,PM10,68,121,99
India,Haryana,Palwal,"Shyam Nagar, Palwal - HSPCB",28-03-2024 07:00:00,28.1485564,77.3320667,PM2.5,50,83,63
India,Haryana,Palwal,"Shyam Nagar, Palwal - HSPCB",28-03-2024 07:00:00,28.1485564,77.3320667,SO2,10,63,20
India,Haryana,Panchkula,"Sector-6, Panchkula - HSPCB ",28-03-2024 07:00:00,30.7057778,76.8531805555555,CO,2,16,9
India,Haryana,Panipat,"Sector-18, Panipat - HSPCB",28-03-2024 07:00:00,29.497973,76.993331,CO,NA,NA,NA
India,Haryana,Rohtak,"MD University, Rohtak - HSPCB",28-03-2024 07:00:00,28.52123,76.37138,SO2,5,8,7
India,Haryana,Rohtak,"MD University, Rohtak - HSPCB",28-03-2024 07:00:00,28.52123,76.37138,CO,25,62,49
India,Haryana,Sirsa,"F-Block, Sirsa - HSPCB",28-03-2024 07:00:00,29.536400,75.015800,CO,25,44,41
India,Haryana,Sonipat,"Murthal, Sonipat - HSPCB",28-03-2024 07:00:00,29.027200,77.062100,PM10,14,48,26
India,Haryana,Sonipat,"Murthal, Sonipat - HSPCB",28-03-2024 07:00:00,29.027200,77.062100,CO,10,22,19
India,Haryana,Sonipat,"Murthal, Sonipat - HSPCB",28-03-2024 07:00:00,29.027200,77.062100,OZONE,17,35,20
India,Haryana,Yamuna Nagar,"Gobind Pura, Yamuna Nagar - HSPCB",28-03-2024 07:00:00,30.1480566,77.2893471,NO2,3,4,4
India,Haryana,Yamuna Nagar,"Gobind Pura, Yamuna Nagar - HSPCB",28-03-2024 07:00:00,30.1480566,77.2893471,CO,38,95,47
India,Himachal Pradesh,Baddi,"HIMUDA Complex Phase-1, Baddi - HPPCB",28-03-2024 07:00:00,30.943887,76.801991,NO2,10,35,21
India,Jharkhand,Dhanbad,"Kalakusuma, Dhanbad - DMC",28-03-2024 07:00:00,23.811548,86.481238,CO,128,135,131
India,Jharkhand,Dhanbad,"Sardar Patel Nagar, Dhanbad - JSPCB",28-03-2024 07:00:00,23.80569,86.44268,SO2,NA,NA,NA
India,Karnataka,Bengaluru,"BTM Layout, Bengaluru - CPCB",28-03-2024 07:00:00,12.9135218,77.5950804,NH3,4,4,4
India,Karnataka,Bengaluru,"Jayanagar 5th Block, Bengaluru - KSPCB",28-03-2024 07:00:00,12.920984,77.584908,NO2,7,14,10
India,Karnataka,Bengaluru,"Jayanagar 5th Block, Bengaluru - KSPCB",28-03-2024 07:00:00,12.920984,77.584908,CO,16,50,45
India,Karnataka,Bengaluru,"Jigani, Bengaluru - KSPCB",28-03-2024 07:00:00,12.7816279,77.6299145,NO2,NA,NA,NA
India,Karnataka,Bengaluru,"Jigani, Bengaluru - KSPCB",28-03-2024 07:00:00,12.7816279,77.6299145,SO2,NA,NA,NA
India,Karnataka,Bengaluru,"Kasturi Nagar, Bengaluru - KSPCB",28-03-2024 07:00:00,13.003872,77.664217,PM2.5,82,136,109
India,Karnataka,Bengaluru,"Peenya, Bengaluru - CPCB",28-03-2024 07:00:00,13.0270199,77.494094,PM2.5,34,52,47
India,Karnataka,Bengaluru,"Peenya, Bengaluru - CPCB",28-03-2024 07:00:00,13.0270199,77.494094,OZONE,24,97,44
India,Karnataka,Bengaluru,"Sanegurava Halli, Bengaluru - KSPCB",28-03-2024 07:00:00,12.990328,77.5431385,NO2,25,39,30
India,Karnataka,Bengaluru,"Silk Board, Bengaluru - KSPCB",28-03-2024 07:00:00,12.917348,77.622813,SO2,5,14,10
India,Karnataka,Chikkaballapur,"Chikkaballapur Rural, Chikkaballapur - KSPCB",28-03-2024 07:00:00,13.428828,77.731418,PM10,46,118,69
India,Karnataka,Chikkaballapur,"Chikkaballapur Rural, Chikkaballapur - KSPCB",28-03-2024 07:00:00,13.428828,77.731418,SO2,10,18,15
India,Karnataka,Davanagere,"Devaraj Urs Badavane, Davanagere - KSPCB",28-03-2024 07:00:00,14.475800,75.905200,NO2,11,20,13
India,Karnataka,Davanagere,"Devaraj Urs Badavane, Davanagere - KSPCB",28-03-2024 07:00:00,14.475800,75.905200,CO,18,20,19
India,Karnataka,Dharwad,"Kalabhavan, Dharwad - KSPCB",28-03-2024 07:00:00,15.459706,75.008381,SO2,1,4,2
India,Karnataka,Gadag,"Panchal Nagar, Gadag - KSPCB",28-03-2024 07:00:00,15.411456,75.638133,CO,44,60,53
India,Karnataka,Haveri,"Ashwini Nagar, Haveri - KSPCB",28-03-2024 07:00:00,14.791800,75.389600,OZONE,18,24,19
India,Karnataka,Hubballi,"Lingaraj Nagar, Hubballi - KSPCB",28-03-2024 07:00:00,15.3714823,75.1160168,NO2,16,16,16
India,Karnataka,Kalaburagi,"Lal Bahadur Shastri Nagar, Kalaburagi - KSPCB",28-03-2024 07:00:00,17.321993,76.822628,PM2.5,28,82,51
India,Karnataka,Kalaburagi,"Lal Bahadur Shastri Nagar, Kalaburagi - KSPCB",28-03-2024 07:00:00,17.321993,76.822628,PM10,38,92,61
India,Karnataka,Kalaburagi,"Lal Bahadur Shastri Nagar, Kalaburagi - KSPCB",28-03-2024 07:00:00,17.321993,76.822628,NO2,12,12,12
India,Karnataka,Kalaburagi,"Mahatma Basaveswar Colony, Kalaburgi - KSPCB",28-03-2024 07:00:00,17.336318,76.847397,PM2.5,28,69,42
India,Karnataka,Karwar,"KHB Colony, Karwar - KSPCB",28-03-2024 07:00:00,14.816666,74.141003,CO,6,8,8
India,Karnataka,Kolar,"Tamaka Ind. Area, Kolar - KSPCB",28-03-2024 07:00:00,13.1276288,78.1570122,NH3,1,24,7
India,Karnataka,Kolar,"Tamaka Ind. Area, Kolar - KSPCB",28-03-2024 07:00:00,13.1276288,78.1570122,OZONE,12,34,14
India,Karnataka,Koppal,"Diwator Nagar, Koppal - KSPCB",28-03-2024 07:00:00,15.347630,76.181767,NH3,NA,NA,NA
India,Karnataka,Koppal,"Diwator Nagar, Koppal - KSPCB",28-03-2024 07:00:00,15.347630,76.181767,OZONE,NA,NA,NA
India,Karnataka,Madikeri,"Stuart Hill, Madikeri - KSPCB",28-03-2024 07:00:00,12.415911,75.735050,PM2.5,28,75,49
India,Karnataka,Madikeri,"Stuart Hill, Madikeri - KSPCB",28-03-2024 07:00:00,12.415911,75.735050,OZONE,23,57,26
India,Karnataka,Raichur,"Haji Colony, Raichur - KSPCB",28-03-2024 07:00:00,16.208139,77.348417,CO,90,116,101
India,Karnataka,Ramanagara,"Vijay Nagar, Ramanagara - KSPCB",28-03-2024 07:00:00,12.733409,77.298051,PM2.5,21,51,33
India,Karnataka,Tumakuru,"Thimmalapura, Tumakuru - KSPCB",28-03-2024 07:00:00,13.377516,77.099072,OZONE,8,51,12
India,Karnataka,Udupi,"Brahmagiri, Udupi - KSPCB",28-03-2024 07:00:00,13.34194444,74.74694444,OZONE,23,24,23
India,Karnataka,Vijayapura,"Ibrahimpur, Vijayapura - KSPCB",28-03-2024 07:00:00,16.802639,75.722694,OZONE,13,16,15
India,Kerala,Eloor,"Udyogamandal, Eloor - Kerala PCB",28-03-2024 07:00:00,10.073232,76.302765,PM2.5,39,50,44
India,Kerala,Eloor,"Udyogamandal, Eloor - Kerala PCB",28-03-2024 07:00:00,10.073232,76.302765,PM10,39,45,42
India,Kerala,Kollam,"Polayathode, Kollam - Kerala PCB",28-03-2024 07:00:00,8.8787,76.6073,PM2.5,40,500,132
India,Kerala,Kollam,"Polayathode, Kollam - Kerala PCB",28-03-2024 07:00:00,8.8787,76.6073,OZONE,32,38,33
India,Kerala,Thiruvananthapuram,"Kariavattom, Thiruvananthapuram - Kerala PCB",28-03-2024 07:00:00,8.563700,76.886500,PM10,92,104,98
India,Kerala,Thiruvananthapuram,"Plammoodu, Thiruvananthapuram - Kerala PCB",28-03-2024 07:00:00,8.5149093,76.9435879,NH3,2,2,2
India,Kerala,Thrissur,"Corporation Ground, Thrissur - Kerala PCB",28-03-2024 07:00:00,10.532400,76.215900,NO2,7,8,7
India,Kerala,Thrissur,"Corporation Ground, Thrissur - Kerala PCB",28-03-2024 07:00:00,10.532400,76.215900,NH3,NA,NA,NA
India,Madhya Pradesh,Bhopal,"Idgah Hills, Bhopal - MPPCB",28-03-2024 07:00:00,23.264759,77.381568,PM2.5,30,120,54
India,Madhya Pradesh,Bhopal,"Idgah Hills, Bhopal - MPPCB",28-03-2024 07:00:00,23.264759,77.381568,OZONE,26,116,60
India,Madhya Pradesh,Bhopal,"Paryavaran Parisar, Bhopal - MPPCB",28-03-2024 07:00:00,23.210494,77.425409,PM10,76,301,154
India,Madhya Pradesh,Bhopal,"Paryavaran Parisar, Bhopal - MPPCB",28-03-2024 07:00:00,23.210494,77.425409,OZONE,2,99,5
India,Madhya Pradesh,Bhopal,"T T Nagar, Bhopal - MPPCB",28-03-2024 07:00:00,23.233584,77.400574,SO2,15,46,25
India,Madhya Pradesh,Dewas,"Bhopal Chauraha, Dewas - MPPCB",28-03-2024 07:00:00,22.9682591,76.064118,SO2,38,46,42
India,Madhya Pradesh,Gwalior,"City Center, Gwalior - MPPCB",28-03-2024 07:00:00,26.203442,78.193251,PM10,76,246,118
India,Madhya Pradesh,Gwalior,"City Center, Gwalior - MPPCB",28-03-2024 07:00:00,26.203442,78.193251,OZONE,1,49,3
India,Madhya Pradesh,Gwalior,"Deen Dayal Nagar, Gwalior - MPPCB",28-03-2024 07:00:00,26.259242,78.216432,NO2,22,141,81
India,Madhya Pradesh,Gwalior,"Deen Dayal Nagar, Gwalior - MPPCB",28-03-2024 07:00:00,26.259242,78.216432,NH3,9,20,15
India,Madhya Pradesh,Gwalior,"Maharaj Bada, Gwalior - MPPCB",28-03-2024 07:00:00,26.200388,78.147714,PM10,94,319,148
India,Madhya Pradesh,Gwalior,"Maharaj Bada, Gwalior - MPPCB",28-03-2024 07:00:00,26.200388,78.147714,NH3,3,29,8
India,Madhya Pradesh,Gwalior,"Maharaj Bada, Gwalior - MPPCB",28-03-2024 07:00:00,26.200388,78.147714,SO2,14,29,22
India,Madhya Pradesh,Indore,"Chhoti Gwaltoli, Indore - MPPCB",28-03-2024 07:00:00,22.4310,75.5213,PM10,91,273,134
India,Madhya Pradesh,Indore,"Chhoti Gwaltoli, Indore - MPPCB",28-03-2024 07:00:00,22.4310,75.5213,SO2,11,32,19
India,Madhya Pradesh,Jabalpur,"Govindh Bhavan Colony, Jabalpur - JMC",28-03-2024 07:00:00,23.163174,79.973061,PM10,49,89,67
India,Madhya Pradesh,Jabalpur,"Govindh Bhavan Colony, Jabalpur - JMC",28-03-2024 07:00:00,23.163174,79.973061,NH3,7,12,11
India,Madhya Pradesh,Jabalpur,"Gupteshwar, Jabalpur - JMC",28-03-2024 07:00:00,23.142888,79.916147,OZONE,7,92,34
India,Madhya Pradesh,Katni,"Gole Bazar, Katni - MPPCB",28-03-2024 07:00:00,23.50016,80.23284,PM2.5,23,129,68
India,Madhya Pradesh,Katni,"Gole Bazar, Katni - MPPCB",28-03-2024 07:00:00,23.50016,80.23284,NO2,28,99,63
India,Madhya Pradesh,Katni,"Gole Bazar, Katni - MPPCB",28-03-2024 07:00:00,23.50016,80.23284,NH3,1,8,4
India,Madhya Pradesh,Mandideep,"Sector-D Industrial Area, Mandideep - MPPCB",28-03-2024 07:00:00,23.108440,77.511428,NO2,24,152,81
India,Madhya Pradesh,Mandideep,"Sector-D Industrial Area, Mandideep - MPPCB",28-03-2024 07:00:00,23.108440,77.511428,OZONE,8,50,14
India,Madhya Pradesh,Ratlam,"Shasthri Nagar, Ratlam - IPCA Lab",28-03-2024 07:00:00,23.331731,75.045981,PM10,107,359,154
India,Madhya Pradesh,Ratlam,"Shasthri Nagar, Ratlam - IPCA Lab",28-03-2024 07:00:00,23.331731,75.045981,SO2,37,41,38
India,Madhya Pradesh,Sagar,"Civil Lines, Sagar - MPPCB",28-03-2024 07:00:00,23.838586,78.759431,NO2,6,57,16
India,Madhya Pradesh,Sagar,"Civil Lines, Sagar - MPPCB",28-03-2024 07:00:00,23.838586,78.759431,NH3,2,3,3
India,Madhya Pradesh,Satna,"Bandhavgar Colony, Satna - Birla Cement",28-03-2024 07:00:00,24.58434363,80.8549414,PM2.5,1,30,15
India,Madhya Pradesh,Satna,"Bandhavgar Colony, Satna - Birla Cement",28-03-2024 07:00:00,24.58434363,80.8549414,CO,21,71,51
India,Madhya Pradesh,Singrauli,"Suryakiran Bhawan NCL, Singrauli - MPPCB",28-03-2024 07:00:00,24.108970,82.645580,NH3,3,5,4
India,Madhya Pradesh,Singrauli,"Suryakiran Bhawan NCL, Singrauli - MPPCB",28-03-2024 07:00:00,24.108970,82.645580,OZONE,1,62,8
India,Madhya Pradesh,Ujjain,"Mahakaleshwar Temple, Ujjain - MPPCB",28-03-2024 07:00:00,23.182719 ,75.768218 ,PM10,74,189,130
India,Maharashtra,Ahmednagar,"Tarakpur, Ahmednagar - MPCB",28-03-2024 07:00:00,19.10122,74.73339,NO2,23,103,56
India,Maharashtra,Akola,"Ramdaspeth, Akola - MPCB",28-03-2024 07:00:00,20.719516,77.000253,NH3,5,20,10
India,Maharashtra,Akola,"Ramdaspeth, Akola - MPCB",28-03-2024 07:00:00,20.719516,77.000253,SO2,9,32,17
India,Maharashtra,Amravati,"Shivneri Colony, Amravati - MPCB",28-03-2024 07:00:00,20.9402359,77.7895248,NO2,6,41,22
India,Maharashtra,Aurangabad,"MIDC Chilkalthana, Aurangabad - MPCB",28-03-2024 07:00:00,19.875620,75.387310,PM2.5,104,218,154
India,Maharashtra,Aurangabad,"MIDC Chilkalthana, Aurangabad - MPCB",28-03-2024 07:00:00,19.875620,75.387310,PM10,107,175,140
India,Maharashtra,Aurangabad,"More Chowk Waluj, Aurangabad - MPCB",28-03-2024 07:00:00,19.8389439,75.244448,PM10,85,177,113
India,Maharashtra,Aurangabad,"More Chowk Waluj, Aurangabad - MPCB",28-03-2024 07:00:00,19.8389439,75.244448,CO,20,106,37
India,Maharashtra,Aurangabad,"Rachnakar Colony, Aurangabad - MPCB",28-03-2024 07:00:00,19.863756,75.321188,SO2,16,62,31
India,Maharashtra,Badlapur,"Katrap, Badlapur - MPCB",28-03-2024 07:00:00,19.16485,73.23409,PM2.5,64,188,108
India,Maharashtra,Badlapur,"Katrap, Badlapur - MPCB",28-03-2024 07:00:00,19.16485,73.23409,NO2,4,113,23
India,Maharashtra,Badlapur,"Katrap, Badlapur - MPCB",28-03-2024 07:00:00,19.16485,73.23409,SO2,1,10,3
India,Maharashtra,Belapur,"CBD Belapur, Belapur - MPCB",28-03-2024 07:00:00,19.0243902,73.0406721,PM2.5,39,188,82
India,Maharashtra,Belapur,"CBD Belapur, Belapur - MPCB",28-03-2024 07:00:00,19.0243902,73.0406721,OZONE,5,62,9
India,Maharashtra,Boisar,"Khaira, Boisar - MPCB",28-03-2024 07:00:00,19.786089,72.757971,PM2.5,30,223,107
India,Maharashtra,Boisar,"Khaira, Boisar - MPCB",28-03-2024 07:00:00,19.786089,72.757971,NH3,1,19,4
India,Maharashtra,Boisar,"Khaira, Boisar - MPCB",28-03-2024 07:00:00,19.786089,72.757971,OZONE,4,192,9
India,Maharashtra,Chandrapur,"Chauhan Colony, Chandrapur - MPCB",28-03-2024 07:00:00,19.962900,79.298714,PM2.5,41,130,74
India,Maharashtra,Chandrapur,"Chauhan Colony, Chandrapur - MPCB",28-03-2024 07:00:00,19.962900,79.298714,OZONE,9,9,9
India,Maharashtra,Chandrapur,"MIDC Khutala, Chandrapur - MPCB",28-03-2024 07:00:00,19.9775302,79.2337086,NO2,12,38,27
India,Maharashtra,Chandrapur,"MIDC Khutala, Chandrapur - MPCB",28-03-2024 07:00:00,19.9775302,79.2337086,SO2,20,22,22
India,Maharashtra,Dhule,"Deopur, Dhule - MPCB",28-03-2024 07:00:00,20.918946,74.776388,PM2.5,113,197,148
India,Maharashtra,Jalgaon,"Prabhat Colony, Jalgaon - MPCB",28-03-2024 07:00:00,21.001264,75.565602,PM10,95,168,119
India,Maharashtra,Jalgaon,"Prabhat Colony, Jalgaon - MPCB",28-03-2024 07:00:00,21.001264,75.565602,NO2,10,113,40
India,Maharashtra,Jalna,"Old MIDC, Jalna - MPCB",28-03-2024 07:00:00,19.854616,75.905894,PM10,125,352,188
India,Maharashtra,Jalna,"Old MIDC, Jalna - MPCB",28-03-2024 07:00:00,19.854616,75.905894,SO2,8,10,9
India,Maharashtra,Kalyan,"Khadakpada, Kalyan - MPCB",28-03-2024 07:00:00,19.25292,73.142019,NH3,1,1,1
India,Maharashtra,Kalyan,"Khadakpada, Kalyan - MPCB",28-03-2024 07:00:00,19.25292,73.142019,SO2,29,36,32
India,Maharashtra,Kolhapur,"Sinchan Bhavan, Kolhapur - MPCB",28-03-2024 07:00:00,16.7143745,74.2426398,PM2.5,20,74,50
India,Maharashtra,Kolhapur,"Sinchan Bhavan, Kolhapur - MPCB",28-03-2024 07:00:00,16.7143745,74.2426398,SO2,1,18,6
India,Maharashtra,Mahad,"Kamble Tarf Birwadi, Mahad - MPCB",28-03-2024 07:00:00,18.1023399,73.4783687,NH3,10,10,10
India,Maharashtra,Mahad,"Kamble Tarf Birwadi, Mahad - MPCB",28-03-2024 07:00:00,18.1023399,73.4783687,CO,10,73,16
India,Maharashtra,Mira-Bhayandar,"Bhayandar West, Mira-Bhayandar - MPCB",28-03-2024 07:00:00,19.296481,72.840923,SO2,1,7,2
India,Maharashtra,Mumbai,"Bandra Kurla Complex, Mumbai - MPCB",28-03-2024 07:00:00,19.065931,72.862131,PM10,NA,NA,NA
India,Maharashtra,Mumbai,"Bandra Kurla Complex, Mumbai - MPCB",28-03-2024 07:00:00,19.065931,72.862131,NO2,NA,NA,NA
India,Maharashtra,Mumbai,"Borivali East, Mumbai - MPCB",28-03-2024 07:00:00,19.2243333,72.8658113,NO2,5,44,12
India,Maharashtra,Mumbai,"Byculla, Mumbai - BMC",28-03-2024 07:00:00,18.9767,72.8380,PM10,26,63,41
India,Maharashtra,Mumbai,"Chakala-Andheri East, Mumbai - IITM",28-03-2024 07:00:00,19.11074,72.86084,NO2,70,133,98
India,Maharashtra,Mumbai,"Chembur, Mumbai - MPCB",28-03-2024 07:00:00,19.0364585,72.8954371,PM2.5,42,92,59
India,Maharashtra,Mumbai,"Chembur, Mumbai - MPCB",28-03-2024 07:00:00,19.0364585,72.8954371,OZONE,1,31,1
India,Maharashtra,Mumbai,"Chhatrapati Shivaji Intl. Airport (T2), Mumbai - MPCB",28-03-2024 07:00:00,19.10078,72.87462,PM10,50,153,94
India,Maharashtra,Mumbai,"Chhatrapati Shivaji Intl. Airport (T2), Mumbai - MPCB",28-03-2024 07:00:00,19.10078,72.87462,SO2,20,26,23
India,Maharashtra,Mumbai,"Chhatrapati Shivaji Intl. Airport (T2), Mumbai - MPCB",28-03-2024 07:00:00,19.10078,72.87462,CO,36,71,66
India,Maharashtra,Mumbai,"Colaba, Mumbai - MPCB",28-03-2024 07:00:00,18.910000,72.820000,OZONE,6,13,11
India,Maharashtra,Mumbai,"Kandivali West, Mumbai - BMC",28-03-2024 07:00:00,19.215859,72.831718,NO2,9,58,20
India,Maharashtra,Mumbai,"Kandivali West, Mumbai - BMC",28-03-2024 07:00:00,19.215859,72.831718,NH3,1,3,2
India,Maharashtra,Mumbai,"Khindipada-Bhandup West, Mumbai - IITM",28-03-2024 07:00:00,19.1653323,72.922099,SO2,2,9,5
India,Maharashtra,Mumbai,"Khindipada-Bhandup West, Mumbai - IITM",28-03-2024 07:00:00,19.1653323,72.922099,CO,2,61,17
India,Maharashtra,Mumbai,"Khindipada-Bhandup West, Mumbai - IITM",28-03-2024 07:00:00,19.1653323,72.922099,OZONE,1,32,6
India,Maharashtra,Mumbai,"Kurla, Mumbai - MPCB",28-03-2024 07:00:00,19.0863,72.8888,PM2.5,30,321,94
India,Maharashtra,Mumbai,"Kurla, Mumbai - MPCB",28-03-2024 07:00:00,19.0863,72.8888,NH3,2,7,4
India,Maharashtra,Mumbai,"Kurla, Mumbai - MPCB",28-03-2024 07:00:00,19.0863,72.8888,OZONE,27,28,28
India,Maharashtra,Mumbai,"Mindspace-Malad West, Mumbai - MPCB",28-03-2024 07:00:00,19.1878657,72.8304069,OZONE,3,31,12
India,Maharashtra,Mumbai,"Navy Nagar-Colaba, Mumbai - IITM",28-03-2024 07:00:00,18.897756,72.813320,NH3,11,13,12
India,Maharashtra,Mumbai,"Navy Nagar-Colaba, Mumbai - IITM",28-03-2024 07:00:00,18.897756,72.813320,OZONE,29,76,44
India,Maharashtra,Mumbai,"Powai, Mumbai - MPCB",28-03-2024 07:00:00,19.137500,72.915056,PM2.5,22,54,35
India,Maharashtra,Mumbai,"Powai, Mumbai - MPCB",28-03-2024 07:00:00,19.137500,72.915056,NH3,1,1,1
India,Maharashtra,Mumbai,"Sewri, Mumbai - BMC",28-03-2024 07:00:00,19.000084,72.856730,OZONE,2,25,7
India,Maharashtra,Mumbai,"Shivaji Nagar, Mumbai - BMC",28-03-2024 07:00:00,19.060498,72.923356,PM2.5,33,64,47
India,Maharashtra,Mumbai,"Shivaji Nagar, Mumbai - BMC",28-03-2024 07:00:00,19.060498,72.923356,CO,12,81,39
India,Maharashtra,Mumbai,"Vasai West, Mumbai - MPCB",28-03-2024 07:00:00,19.383200,72.820400,PM2.5,15,80,45
India,Maharashtra,Mumbai,"Vasai West, Mumbai - MPCB",28-03-2024 07:00:00,19.383200,72.820400,SO2,16,16,16
India,Maharashtra,Nagpur,"Ambazari, Nagpur - MPCB",28-03-2024 07:00:00,21.121801,79.04952,SO2,12,72,24
India,Maharashtra,Nagpur,"Mahal, Nagpur - MPCB",28-03-2024 07:00:00,21.14472,79.107595,PM2.5,NA,NA,NA
India,Maharashtra,Nagpur,"Mahal, Nagpur - MPCB",28-03-2024 07:00:00,21.14472,79.107595,NO2,NA,NA,NA
India,Maharashtra,Nagpur,"Opp GPO Civil Lines, Nagpur - MPCB",28-03-2024 07:00:00,21.152875,79.0517531,NH3,5,16,8
India,Maharashtra,Nanded,"Sneh Nagar, Nanded - MPCB",28-03-2024 07:00:00,19.173852,77.296291,NH3,1,2,1
India,Maharashtra,Nanded,"Sneh Nagar, Nanded - MPCB",28-03-2024 07:00:00,19.173852,77.296291,SO2,4,8,6
India,Maharashtra,Nashik,"Gangapur Road, Nashik - MPCB",28-03-2024 07:00:00,20.0073285,73.7762427,PM10,51,131,88
India,Maharashtra,Nashik,"Gangapur Road, Nashik - MPCB",28-03-2024 07:00:00,20.0073285,73.7762427,NO2,7,15,10
India,Maharashtra,Nashik,"MIDC Ambad, Nashik - MPCB",28-03-2024 07:00:00,19.950220,73.731480,NO2,10,34,19
India,Maharashtra,Nashik,"MIDC Ambad, Nashik - MPCB",28-03-2024 07:00:00,19.950220,73.731480,OZONE,9,75,18
India,Maharashtra,Nashik,"Pandav Nagari, Nashik - MPCB",28-03-2024 07:00:00,19.9591346,73.7788008,PM2.5,55,92,68
India,Maharashtra,Navi Mumbai,"Kopripada-Vashi, Navi Mumbai - MPCB",28-03-2024 07:00:00,19.090337,73.014232,SO2,1,8,4
India,Maharashtra,Navi Mumbai,"Mahape, Navi Mumbai - MPCB",28-03-2024 07:00:00,19.1135051,73.008978,NO2,37,38,38
India,Maharashtra,Navi Mumbai,"Mahape, Navi Mumbai - MPCB",28-03-2024 07:00:00,19.1135051,73.008978,NH3,3,4,3
India,Maharashtra,Navi Mumbai,"Sanpada, Navi Mumbai - MPCB",28-03-2024 07:00:00,19.0575752,73.0151367,SO2,2,7,3
India,Maharashtra,Navi Mumbai,"Sector-19A Nerul, Navi Mumbai - IITM",28-03-2024 07:00:00,19.044,73.0325,PM2.5,41,135,79
India,Maharashtra,Navi Mumbai,"Sector-19A Nerul, Navi Mumbai - IITM",28-03-2024 07:00:00,19.044,73.0325,NO2,26,69,50
India,Maharashtra,Navi Mumbai,"Sector-19A Nerul, Navi Mumbai - IITM",28-03-2024 07:00:00,19.044,73.0325,CO,34,72,59
India,Maharashtra,Navi Mumbai,"Sector-2E Kalamboli, Navi Mumbai - MPCB",28-03-2024 07:00:00,19.02579,73.10297,PM2.5,24,54,35
India,Maharashtra,Navi Mumbai,"Sector-2E Kalamboli, Navi Mumbai - MPCB",28-03-2024 07:00:00,19.02579,73.10297,NO2,15,52,38
India,Maharashtra,Parbhani,"Masoom Colony, Parbhani - MPCB",28-03-2024 07:00:00,19.265594,76.761463,PM2.5,23,319,150
India,Maharashtra,Pimpri-Chinchwad,"Gavalinagar, Pimpri Chinchwad - MPCB",28-03-2024 07:00:00,18.63673,73.82487,PM10,73,156,107
India,Maharashtra,Pimpri-Chinchwad,"Gavalinagar, Pimpri Chinchwad - MPCB",28-03-2024 07:00:00,18.63673,73.82487,NH3,1,5,3
India,Maharashtra,Pimpri-Chinchwad,"Gavalinagar, Pimpri Chinchwad - MPCB",28-03-2024 07:00:00,18.63673,73.82487,OZONE,16,254,37
India,Maharashtra,Pimpri-Chinchwad,"Park Street Wakad, Pimpri Chinchwad - MPCB",28-03-2024 07:00:00,18.59051,73.77946,SO2,10,37,18
India,Maharashtra,Pimpri-Chinchwad,"Thergaon, Pimpri Chinchwad - MPCB",28-03-2024 07:00:00,18.616318,73.765797,NO2,29,110,69
India,Maharashtra,Pimpri-Chinchwad,"Thergaon, Pimpri Chinchwad - MPCB",28-03-2024 07:00:00,18.616318,73.765797,CO,20,70,29
India,Maharashtra,Pimpri-Chinchwad,"Thergaon, Pimpri Chinchwad - MPCB",28-03-2024 07:00:00,18.616318,73.765797,OZONE,8,242,32
India,Maharashtra,Pune,"Mhada Colony, Pune - IITM",28-03-2024 07:00:00,18.573040,73.927715,PM10,42,110,79
India,Maharashtra,Pune,"Mhada Colony, Pune - IITM",28-03-2024 07:00:00,18.573040,73.927715,NO2,6,21,13
India,Maharashtra,Pune,"Revenue Colony-Shivajinagar, Pune - IITM",28-03-2024 07:00:00,18.530085,73.849598,OZONE,5,62,12
India,Maharashtra,Pune,"Transport Nagar-Nigdi, Pune - IITM",28-03-2024 07:00:00,18.664282,73.763966,CO,46,62,53
India,Maharashtra,Sangli,"Vijay Nagar, Sangli - MPCB",28-03-2024 07:00:00, 16.5038,74.3623,NO2,10,57,26
India,Maharashtra,Solapur,"Dnyaneshwar Nagar, Solapur - MPCB",28-03-2024 07:00:00,17.6336264,75.9132495,OZONE,32,91,51
India,Maharashtra,Thane,"Kasarvadavali, Thane - MPCB",28-03-2024 07:00:00,19.26777,72.97182,OZONE,2,69,11
India,Maharashtra,Ulhasnagar,"Sidhi Vinayak Nagar, Ulhasnagar - MPCB",28-03-2024 07:00:00,19.235581,73.159121,SO2,1,30,7
India,Maharashtra,Virar,"Bolinj, Virar - MPCB",28-03-2024 07:00:00,19.4458210,72.7988231,PM2.5,45,200,91
India,Maharashtra,Virar,"Bolinj, Virar - MPCB",28-03-2024 07:00:00,19.4458210,72.7988231,OZONE,4,58,11
India,Manipur,Imphal,"DM College of Science, Imphal - Manipur PCB",28-03-2024 07:00:00,24.8207389,93.9423085,NH3,2,2,2
India,Manipur,Imphal,"DM College of Science, Imphal - Manipur PCB",28-03-2024 07:00:00,24.8207389,93.9423085,OZONE,NA,NA,NA
India,Manipur,Imphal,"Manipur University, Imphal - Manipur PCB",28-03-2024 07:00:00,24.7524239,93.9286218,PM2.5,46,329,103
India,Meghalaya,Shillong,"Lumpyngngad, Shillong - Meghalaya PCB",28-03-2024 07:00:00,25.5586,91.8985,PM10,NA,NA,NA
India,Mizoram,Aizawl,"Sikulpuikawn, Aizawl - Mizoram PCB",28-03-2024 07:00:00,23.7176342,92.7192841,PM10,67,107,85
India,Nagaland,Kohima,"PWD Juction, Kohima - NPCB",28-03-2024 07:00:00,25.6635413,94.0989878,OZONE,12,39,18
India,Odisha,Angul,"Hakimapada, Angul - OSPCB",28-03-2024 07:00:00,20.832874,85.104082,PM10,62,273,131
India,Odisha,Angul,"Hakimapada, Angul - OSPCB",28-03-2024 07:00:00,20.832874,85.104082,NH3,1,1,1
India,Odisha,Angul,"Hakimapada, Angul - OSPCB",28-03-2024 07:00:00,20.832874,85.104082,SO2,7,134,39
India,Odisha,Angul,"Hakimapada, Angul - OSPCB",28-03-2024 07:00:00,20.832874,85.104082,CO,14,125,77
India,Odisha,Balasore,"Kalidaspur, Balasore - OSPCB",28-03-2024 07:00:00,21.51161,86.89088,PM2.5,28,170,70
India,Odisha,Balasore,"Kalidaspur, Balasore - OSPCB",28-03-2024 07:00:00,21.51161,86.89088,OZONE,19,89,39
India,Odisha,Barbil,"Forest Office, Barbil - OSPCB",28-03-2024 07:00:00,22.1166054,85.3945546,NO2,5,11,7
India,Odisha,Barbil,"Forest Office, Barbil - OSPCB",28-03-2024 07:00:00,22.1166054,85.3945546,CO,38,131,89
India,Odisha,Baripada,"Meher Colony, Baripada - OSPCB",28-03-2024 07:00:00,21.941841,86.728318,OZONE,19,131,25
India,Odisha,Bhubaneswar,"Lingraj Mandir, Bhubaneswar - OSPCB",28-03-2024 07:00:00,20.240790,85.836784,SO2,1,9,5
India,Odisha,Bhubaneswar,"Lingraj Mandir, Bhubaneswar - OSPCB",28-03-2024 07:00:00,20.240790,85.836784,OZONE,12,65,22
India,Odisha,Bhubaneswar,"Patia, Bhubaneswar - OSPCB",28-03-2024 07:00:00,20.34652,85.81630,NH3,1,3,2
India,Odisha,Bileipada,"Tata Township, Bileipada - OSPCB",28-03-2024 07:00:00,22.06156703,85.47409613,PM2.5,20,260,190
India,Odisha,Bileipada,"Tata Township, Bileipada - OSPCB",28-03-2024 07:00:00,22.06156703,85.47409613,NH3,11,11,11
India,Odisha,Brajrajnagar,"GM Office, Brajrajnagar - OSPCB",28-03-2024 07:00:00,21.8004996,83.8396977,NO2,15,16,15
India,Odisha,Byasanagar,"Ferro Chrome Colony, Byasanagar - OSPCB",28-03-2024 07:00:00,20.94185,86.11510,PM10,29,105,67
India,Odisha,Byasanagar,"Ferro Chrome Colony, Byasanagar - OSPCB",28-03-2024 07:00:00,20.94185,86.11510,NH3,1,3,2
India,Odisha,Byasanagar,"Ferro Chrome Colony, Byasanagar - OSPCB",28-03-2024 07:00:00,20.94185,86.11510,CO,76,96,87
India,Odisha,Byasanagar,"Ferro Chrome Colony, Byasanagar - OSPCB",28-03-2024 07:00:00,20.94185,86.11510,OZONE,7,145,17
India,Odisha,Cuttack,"CDA Area, Cuttack - OSPCB",28-03-2024 07:00:00,20.48891     ,85.84768     ,PM10,32,73,52
India,Odisha,Rairangpur,"Divisional Forest Office, Rairangpur - OSPCB",28-03-2024 07:00:00,22.265816,86.174829,CO,18,43,24
India,Odisha,Rourkela,"Fertilizer Township, Rourkela - OSPCB",28-03-2024 07:00:00,22.18972222,84.86277778,CO,NA,NA,NA
India,Odisha,Rourkela,"Raghunathpali, Rourkela - OSPCB",28-03-2024 07:00:00,22.220833,84.809444,PM10,118,168,140
India,Odisha,Rourkela,"Raghunathpali, Rourkela - OSPCB",28-03-2024 07:00:00,22.220833,84.809444,CO,29,88,48
India,Odisha,Rourkela,"Sector-2, Rourkela - OSPCB",28-03-2024 07:00:00,22.24500000,84.88111111,PM10,85,199,134
India,Odisha,Rourkela,"Sector-2, Rourkela - OSPCB",28-03-2024 07:00:00,22.24500000,84.88111111,CO,20,110,62
India,Odisha,Suakati,"OMC Colony, Suakati - OSPCB",28-03-2024 07:00:00,21.606865,85.510538,PM10,111,178,138
India,Odisha,Suakati,"OMC Colony, Suakati - OSPCB",28-03-2024 07:00:00,21.606865,85.510538,SO2,9,114,29
India,Odisha,Talcher,"Talcher Coalfields,Talcher - OSPCB",28-03-2024 07:00:00,20.9360711,85.1707021,NH3,4,5,5
India,Odisha,Talcher,"Talcher Coalfields,Talcher - OSPCB",28-03-2024 07:00:00,20.9360711,85.1707021,SO2,11,31,19
India,Puducherry,Puducherry,"Jawahar Nagar, Puducherry - PPCC",28-03-2024 07:00:00,11.9309,79.8027,PM10,18,103,38
India,Punjab,Khanna,"Kalal Majra, Khanna - PPCB",28-03-2024 07:00:00,30.736056 ,76.209694,NO2,24,24,24
India,Punjab,Khanna,"Kalal Majra, Khanna - PPCB",28-03-2024 07:00:00,30.736056 ,76.209694,OZONE,5,81,32
India,Punjab,Mandi Gobindgarh,"RIMT University, Mandi Gobindgarh - PPCB",28-03-2024 07:00:00,30.649961,76.331442,PM2.5,64,342,204
India,Punjab,Mandi Gobindgarh,"RIMT University, Mandi Gobindgarh - PPCB",28-03-2024 07:00:00,30.649961,76.331442,SO2,8,53,22
India,Punjab,Patiala,"Model Town, Patiala - PPCB",28-03-2024 07:00:00,30.349388,76.366642,PM10,59,277,103
India,Punjab,Patiala,"Model Town, Patiala - PPCB",28-03-2024 07:00:00,30.349388,76.366642,NH3,6,7,7
India,Punjab,Patiala,"Model Town, Patiala - PPCB",28-03-2024 07:00:00,30.349388,76.366642,OZONE,26,86,36
India,Rajasthan,Ajmer,"Civil Lines,  Ajmer - RSPCB",28-03-2024 07:00:00,26.470859,74.646594,NH3,5,5,5
India,Rajasthan,Baran,"Bamboliya, Baran - RSPCB",28-03-2024 07:00:00,25.106006,76.469948,SO2,7,23,13
India,Rajasthan,Baran,"Bamboliya, Baran - RSPCB",28-03-2024 07:00:00,25.106006,76.469948,CO,10,38,28
India,Rajasthan,Baran,"Bamboliya, Baran - RSPCB",28-03-2024 07:00:00,25.106006,76.469948,OZONE,36,114,51
India,Rajasthan,Barmer,"Railway Colony, Barmer - RSPCB",28-03-2024 07:00:00,25.747299,71.393989,NH3,8,15,11
India,Rajasthan,Bharatpur,"Krishna Nagar, Bharatpur - RSPCB",28-03-2024 07:00:00,27.215415,77.50873,NO2,12,75,40
India,Rajasthan,Bharatpur,"Krishna Nagar, Bharatpur - RSPCB",28-03-2024 07:00:00,27.215415,77.50873,CO,10,110,83
India,Rajasthan,Bhilwara,"Pratap Nagar, Bhilwara - RSPCB",28-03-2024 07:00:00,25.339605,74.618883,PM2.5,52,220,97
India,Rajasthan,Bhilwara,"Pratap Nagar, Bhilwara - RSPCB",28-03-2024 07:00:00,25.339605,74.618883,OZONE,15,80,34
India,Rajasthan,Bhiwadi,"Vasundhara Nagar_UIT, Bhiwadi - RSPCB",28-03-2024 07:00:00,28.207266,76.829265,SO2,8,29,15
India,Rajasthan,Bikaner,"MM Ground, Bikaner - RSPCB",28-03-2024 07:00:00,28.018792,73.292658,NH3,9,17,13
India,Rajasthan,Bundi,"New Colony, Bundi - RSPCB",28-03-2024 07:00:00,25.435774,75.644272,PM10,78,382,175
India,Rajasthan,Bundi,"New Colony, Bundi - RSPCB",28-03-2024 07:00:00,25.435774,75.644272,CO,10,117,52
India,Rajasthan,Churu,"Subash Chowk, Churu - RSPCB",28-03-2024 07:00:00,28.296139,74.961696,PM2.5,27,60,40
India,Rajasthan,Churu,"Subash Chowk, Churu - RSPCB",28-03-2024 07:00:00,28.296139,74.961696,NH3,12,16,14
India,Rajasthan,Churu,"Subash Chowk, Churu - RSPCB",28-03-2024 07:00:00,28.296139,74.961696,OZONE,59,152,65
India,Rajasthan,Dungarpur,"Bhoiwada, Dungarpur - RSPCB",28-03-2024 07:00:00,23.837789,73.714926,SO2,7,9,8
India,Rajasthan,Jaipur,"Adarsh Nagar, Jaipur - RSPCB",28-03-2024 07:00:00,26.902909,75.836858,CO,26,60,37
India,Rajasthan,Jaipur,"Mansarovar Sector-12, Jaipur - RSPCB",28-03-2024 07:00:00,26.843698,75.766894,PM2.5,33,140,68
India,Rajasthan,Jaipur,"Mansarovar Sector-12, Jaipur - RSPCB",28-03-2024 07:00:00,26.843698,75.766894,PM10,97,207,132
India,Rajasthan,Jaipur,"Police Commissionerate, Jaipur - RSPCB",28-03-2024 07:00:00,26.9164092,75.7994901,NH3,8,11,9
India,Rajasthan,Jaipur,"RIICO Sitapura, Jaipur - RSPCB",28-03-2024 07:00:00,26.786682,75.827928,SO2,15,34,23
India,Rajasthan,Jaipur,"Shastri Nagar, Jaipur - RSPCB",28-03-2024 07:00:00,26.9502929,75.730943,OZONE,43,84,73
India,Rajasthan,Jaisalmer,"Sadar Bazar, Jaisalmer - RSPCB",28-03-2024 07:00:00,26.912329,70.909168,PM2.5,17,221,67
India,Rajasthan,Jalore,"Mudtra Sili, Jalore - RSPCB",28-03-2024 07:00:00,25.344694,72.626208,NO2,4,45,16
India,Rajasthan,Jalore,"Mudtra Sili, Jalore - RSPCB",28-03-2024 07:00:00,25.344694,72.626208,SO2,3,12,7
India,Rajasthan,Jalore,"Mudtra Sili, Jalore - RSPCB",28-03-2024 07:00:00,25.344694,72.626208,CO,10,30,13
India,Rajasthan,Jhunjhunu,"Indra Nagar, Jhunjhunu - RSPCB",28-03-2024 07:00:00,28.108988,75.386577,SO2,7,13,9
India,Rajasthan,Jodhpur,"Digari Kalan, Jodhpur - RSPCB",28-03-2024 07:00:00,26.295810,73.082283,PM2.5,14,116,43
India,Rajasthan,Jodhpur,"Digari Kalan, Jodhpur - RSPCB",28-03-2024 07:00:00,26.295810,73.082283,NO2,6,41,17
India,Rajasthan,Jodhpur,"Jhalamand, Jodhpur - RSPCB",28-03-2024 07:00:00,26.215415,73.070156,PM10,67,344,120
India,Rajasthan,Jodhpur,"Jhalamand, Jodhpur - RSPCB",28-03-2024 07:00:00,26.215415,73.070156,NO2,33,42,38
India,Rajasthan,Jodhpur,"Mandor, Jodhpur - RSPCB",28-03-2024 07:00:00,26.358805,73.047444,NO2,18,86,36
India,Rajasthan,Jodhpur,"Mandor, Jodhpur - RSPCB",28-03-2024 07:00:00,26.358805,73.047444,OZONE,7,112,47
India,Rajasthan,Jodhpur,"Samrat Ashok Udhyan, Jodhpur - RSPCB",28-03-2024 07:00:00,26.253384,72.976571,PM2.5,15,126,41
India,Rajasthan,Karauli,"Satyawati Vihar, Karauli - RSPCB",28-03-2024 07:00:00,26.506177,77.025989,NH3,NA,NA,NA
India,Rajasthan,Kota,"Dhanmandi, Kota - RSPCB",28-03-2024 07:00:00,25.164090,75.858137,OZONE,4,124,20
India,Rajasthan,Kota,"Nayapura, Kota - RSPCB",28-03-2024 07:00:00,25.196024,75.855668,OZONE,1,164,11
India,Rajasthan,Kota,"Shrinath Puram, Kota - RSPCB",28-03-2024 07:00:00,25.14389,75.821256,PM2.5,61,307,146
India,Rajasthan,Nagaur,"Karni Colony, Nagaur - RSPCB",28-03-2024 07:00:00,27.213494,73.734444,PM10,NA,NA,NA
India,Rajasthan,Nagaur,"Karni Colony, Nagaur - RSPCB",28-03-2024 07:00:00,27.213494,73.734444,SO2,NA,NA,NA
India,Rajasthan,Pali,"Indira Colony Vistar, Pali - RSPCB",28-03-2024 07:00:00,25.771061, 73.340227,PM2.5,67,135,95
India,Rajasthan,Pali,"Indira Colony Vistar, Pali - RSPCB",28-03-2024 07:00:00,25.771061, 73.340227,NO2,15,32,22
India,Rajasthan,Pali,"Indira Colony Vistar, Pali - RSPCB",28-03-2024 07:00:00,25.771061, 73.340227,SO2,7,11,9
India,Rajasthan,Pali,"Indira Colony Vistar, Pali - RSPCB",28-03-2024 07:00:00,25.771061, 73.340227,CO,40,79,61
India,Rajasthan,Pratapgarh,"Pragati Nagar, Pratapgarh - RSPCB",28-03-2024 07:00:00,24.041198,74.780702,SO2,6,20,9
India,Rajasthan,Pratapgarh,"Pragati Nagar, Pratapgarh - RSPCB",28-03-2024 07:00:00,24.041198,74.780702,OZONE,14,114,45
India,Rajasthan,Rajsamand,"Dhoinda, Rajsamand - RSPCB",28-03-2024 07:00:00,25.036360,73.883502,PM10,NA,NA,NA
India,Rajasthan,Rajsamand,"Dhoinda, Rajsamand - RSPCB",28-03-2024 07:00:00,25.036360,73.883502,NO2,NA,NA,NA
India,Rajasthan,Rajsamand,"Dhoinda, Rajsamand - RSPCB",28-03-2024 07:00:00,25.036360,73.883502,NH3,NA,NA,NA
India,Rajasthan,Sawai Madhopur,"Sahu Nagar, Sawai Madhopur - RSPCB",28-03-2024 07:00:00,26.031443,76.359327,PM2.5,63,348,113
India,Rajasthan,Sawai Madhopur,"Sahu Nagar, Sawai Madhopur - RSPCB",28-03-2024 07:00:00,26.031443,76.359327,SO2,3,35,13
India,Rajasthan,Sawai Madhopur,"Sahu Nagar, Sawai Madhopur - RSPCB",28-03-2024 07:00:00,26.031443,76.359327,OZONE,16,126,46
India,Rajasthan,Sikar,"Radhakishan Pura, Sikar - RSPCB",28-03-2024 07:00:00,27.608912,75.153302,PM10,72,382,131
India,Rajasthan,Sikar,"Radhakishan Pura, Sikar - RSPCB",28-03-2024 07:00:00,27.608912,75.153302,NO2,8,75,21
India,Rajasthan,Sirohi,"Vedhaynath Colony, Sirohi - RSPCB",28-03-2024 07:00:00,24.885261,72.857549,SO2,4,12,8
India,Rajasthan,Sirohi,"Vedhaynath Colony, Sirohi - RSPCB",28-03-2024 07:00:00,24.885261,72.857549,OZONE,13,94,31
India,Rajasthan,Udaipur,"Ashok Nagar, Udaipur - RSPCB",28-03-2024 07:00:00,24.5886166,73.6321397,PM2.5,53,216,125
India,Rajasthan,Udaipur,"Ashok Nagar, Udaipur - RSPCB",28-03-2024 07:00:00,24.5886166,73.6321397,PM10,71,164,111
India,Rajasthan,Udaipur,"Ashok Nagar, Udaipur - RSPCB",28-03-2024 07:00:00,24.5886166,73.6321397,OZONE,1,59,15
India,TamilNadu,Chengalpattu,"Crescent University, Chengalpattu - TNPCB",28-03-2024 07:00:00,12.8777316,80.0834807,PM2.5,NA,NA,NA
India,TamilNadu,Chengalpattu,"Crescent University, Chengalpattu - TNPCB",28-03-2024 07:00:00,12.8777316,80.0834807,SO2,12,63,22
India,TamilNadu,Chennai,"Alandur Bus Depot, Chennai - CPCB",28-03-2024 07:00:00,12.9099161,80.1076538,OZONE,2,11,5
India,TamilNadu,Chennai,"Arumbakkam, Chennai - TNPCB",28-03-2024 07:00:00,13.0664,80.2112 ,PM10,NA,NA,NA
India,TamilNadu,Chennai,"Arumbakkam, Chennai - TNPCB",28-03-2024 07:00:00,13.0664,80.2112 ,NH3,1,5,3
India,TamilNadu,Chennai,"Kodungaiyur, Chennai - TNPCB",28-03-2024 07:00:00,13.1278,80.2642,NH3,3,4,3
India,TamilNadu,Chennai,"Manali, Chennai - CPCB",28-03-2024 07:00:00,13.164544,80.26285,PM2.5,25,183,53
India,TamilNadu,Chennai,"Perungudi, Chennai - TNPCB",28-03-2024 07:00:00,12.9533,80.2357,SO2,1,6,4
India,TamilNadu,Chennai,"Royapuram, Chennai - TNPCB",28-03-2024 07:00:00,13.1036,80.2909,NO2,9,32,16
India,TamilNadu,Chennai,"Velachery Res. Area, Chennai - CPCB",28-03-2024 07:00:00,13.0052189,80.2398125,PM2.5,34,63,43
India,TamilNadu,Chennai,"Velachery Res. Area, Chennai - CPCB",28-03-2024 07:00:00,13.0052189,80.2398125,NH3,7,12,10
India,TamilNadu,Coimbatore,"PSG College of Arts and Science, Coimbatore - TNPCB",28-03-2024 07:00:00,11.0328,77.0349,SO2,3,41,22
India,TamilNadu,Coimbatore,"PSG College of Arts and Science, Coimbatore - TNPCB",28-03-2024 07:00:00,11.0328,77.0349,OZONE,3,5,4
India,TamilNadu,Gummidipoondi,"Anthoni Pillai Nagar, Gummidipoondi - TNPCB",28-03-2024 07:00:00,13.4127,80.1081,NO2,10,21,13
India,TamilNadu,Gummidipoondi,"Anthoni Pillai Nagar, Gummidipoondi - TNPCB",28-03-2024 07:00:00,13.4127,80.1081,SO2,3,113,50
India,TamilNadu,Kanchipuram,"Kilambi, Kanchipuram - TNPCB",28-03-2024 07:00:00,12.864618,79.659968,OZONE,NA,NA,NA
India,TamilNadu,Ooty,"Bombay Castel, Ooty - TNPCB",28-03-2024 07:00:00,11.4068288,76.7138973,CO,19,22,21
India,TamilNadu,Palkalaiperur,"Bharathidasan University, Palkalaiperur - TNPCB",28-03-2024 07:00:00,10.681158,78.741746,PM10,2,53,30
India,TamilNadu,Palkalaiperur,"Bharathidasan University, Palkalaiperur - TNPCB",28-03-2024 07:00:00,10.681158,78.741746,SO2,27,29,28
India,TamilNadu,Salem,"Sona College of Technology, Salem - TNPCB",28-03-2024 07:00:00,11.679111,78.125052,NO2,NA,NA,NA
India,Telangana,Hyderabad,"Bollaram Industrial Area, Hyderabad - TSPCB",28-03-2024 07:00:00,17.540891,78.358528,PM10,59,124,85
India,Telangana,Hyderabad,"Bollaram Industrial Area, Hyderabad - TSPCB",28-03-2024 07:00:00,17.540891,78.358528,NO2,28,44,35
India,Telangana,Hyderabad,"Central University, Hyderabad - TSPCB",28-03-2024 07:00:00,17.460103,78.334361,OZONE,3,4,3
India,Telangana,Hyderabad,"ICRISAT Patancheru, Hyderabad - TSPCB",28-03-2024 07:00:00,17.518400,78.278777,CO,30,68,46
India,Telangana,Hyderabad,"Kokapet, Hyderabad - TSPCB",28-03-2024 07:00:00,17.393559,78.339194,CO,23,30,24
India,Telangana,Hyderabad,"Kompally Municipal Office, Hyderabad - TSPCB",28-03-2024 07:00:00,17.544899,78.486949,PM10,39,66,51
India,Telangana,Hyderabad,"Kompally Municipal Office, Hyderabad - TSPCB",28-03-2024 07:00:00,17.544899,78.486949,CO,11,45,16
India,Telangana,Hyderabad,"Nacharam_TSIIC IALA, Hyderabad - TSPCB",28-03-2024 07:00:00,17.429398,78.569354,PM2.5,45,57,52
India,Telangana,Hyderabad,"Nacharam_TSIIC IALA, Hyderabad - TSPCB",28-03-2024 07:00:00,17.429398,78.569354,PM10,66,77,72
India,Telangana,Hyderabad,"Nacharam_TSIIC IALA, Hyderabad - TSPCB",28-03-2024 07:00:00,17.429398,78.569354,NO2,11,13,13
India,Telangana,Hyderabad,"Nacharam_TSIIC IALA, Hyderabad - TSPCB",28-03-2024 07:00:00,17.429398,78.569354,CO,24,48,31
India,Telangana,Hyderabad,"Ramachandrapuram, Hyderabad - TSPCB",28-03-2024 07:00:00,17.528544,78.286195,NO2,8,9,8
India,Telangana,Hyderabad,"Ramachandrapuram, Hyderabad - TSPCB",28-03-2024 07:00:00,17.528544,78.286195,NH3,3,3,3
India,Telangana,Hyderabad,"Ramachandrapuram, Hyderabad - TSPCB",28-03-2024 07:00:00,17.528544,78.286195,CO,22,38,33
India,Telangana,Hyderabad,"Sanathnagar, Hyderabad - TSPCB",28-03-2024 07:00:00,17.4559458,78.4332152,CO,24,42,35
India,Telangana,Hyderabad,"Zoo Park, Hyderabad - TSPCB",28-03-2024 07:00:00,17.349694,78.451437,CO,30,94,53
India,Tripura,Agartala,"Bardowali, Agartala - Tripura SPCB",28-03-2024 07:00:00,23.8175497,91.2726974,NO2,5,15,10
India,Uttar_Pradesh,Agra,"Manoharpur, Agra - UPPCB",28-03-2024 07:00:00,27.23711,78.01936,SO2,19,31,24
India,Uttar_Pradesh,Agra,"Manoharpur, Agra - UPPCB",28-03-2024 07:00:00,27.23711,78.01936,OZONE,2,62,7
India,Uttar_Pradesh,Agra,"Rohta, Agra - UPPCB",28-03-2024 07:00:00,27.106972,78.000111,PM10,20,99,52
India,Uttar_Pradesh,Agra,"Sanjay Palace, Agra - UPPCB",28-03-2024 07:00:00,27.19865833,78.00598056,PM10,35,98,62
India,Uttar_Pradesh,Agra,"Sector-3B Avas Vikas Colony, Agra - UPPCB",28-03-2024 07:00:00,27.19412,77.96237,NO2,13,29,27
India,Uttar_Pradesh,Agra,"Sector-3B Avas Vikas Colony, Agra - UPPCB",28-03-2024 07:00:00,27.19412,77.96237,NH3,3,8,5
India,Uttar_Pradesh,Agra,"Shastripuram, Agra - UPPCB",28-03-2024 07:00:00,27.19862,77.92066,SO2,14,20,17
India,Uttar_Pradesh,Baghpat,"Sardar Patel Inter College, Baghpat - UPPCB",28-03-2024 07:00:00,28.964949,77.278761,PM2.5,30,84,54
India,Uttar_Pradesh,Baghpat,"Sardar Patel Inter College, Baghpat - UPPCB",28-03-2024 07:00:00,28.964949,77.278761,PM10,71,136,100
India,Uttar_Pradesh,Bareilly,"Rajendra Nagar, Bareilly - UPPCB",28-03-2024 07:00:00,28.38910936,79.42963708,NH3,1,1,1
India,Uttar_Pradesh,Bareilly,"Rajendra Nagar, Bareilly - UPPCB",28-03-2024 07:00:00,28.38910936,79.42963708,OZONE,93,188,149
India,Uttar_Pradesh,Bulandshahr,"Yamunapuram, Bulandshahr - UPPCB",28-03-2024 07:00:00,28.406963,77.849831,PM2.5,34,190,71
India,Uttar_Pradesh,Bulandshahr,"Yamunapuram, Bulandshahr - UPPCB",28-03-2024 07:00:00,28.406963,77.849831,NH3,10,16,13
India,Uttar_Pradesh,Firozabad,"Nagla Bhau, Firozabad - UPPCB",28-03-2024 07:00:00,27.168897,78.376960,PM2.5,15,95,50
India,Uttar_Pradesh,Firozabad,"Nagla Bhau, Firozabad - UPPCB",28-03-2024 07:00:00,27.168897,78.376960,SO2,15,28,22
India,Uttar_Pradesh,Firozabad,"Vibhab Nagar, Firozabad - UPPCB",28-03-2024 07:00:00,27.1594,78.3953,PM2.5,29,97,63
India,Uttar_Pradesh,Ghaziabad,"Sanjay Nagar, Ghaziabad - UPPCB",28-03-2024 07:00:00,28.685382,77.453839,CO,13,96,39
India,Uttar_Pradesh,Ghaziabad,"Vasundhara, Ghaziabad - UPPCB",28-03-2024 07:00:00,28.6603346,77.3572563,PM2.5,31,148,75
India,Uttar_Pradesh,Ghaziabad,"Vasundhara, Ghaziabad - UPPCB",28-03-2024 07:00:00,28.6603346,77.3572563,NO2,32,107,70
India,Uttar_Pradesh,Gorakhpur,"Madan Mohan Malaviya University of Technology, Gorakhpur - UPPCB",28-03-2024 07:00:00,26.730136,83.433859,PM2.5,38,89,59
India,Uttar_Pradesh,Gorakhpur,"Madan Mohan Malaviya University of Technology, Gorakhpur - UPPCB",28-03-2024 07:00:00,26.730136,83.433859,NH3,1,2,2
India,Uttar_Pradesh,Greater Noida,"Knowledge Park - V, Greater Noida - UPPCB",28-03-2024 07:00:00,28.557054,77.453663,CO,46,100,62
India,Uttar_Pradesh,Greater Noida,"Knowledge Park - V, Greater Noida - UPPCB",28-03-2024 07:00:00,28.557054,77.453663,OZONE,6,182,15
India,Uttar_Pradesh,Hapur,"Anand Vihar, Hapur - UPPCB",28-03-2024 07:00:00,28.725645,77.749675,NO2,31,106,56
India,Uttar_Pradesh,Jhansi,"Shivaji Nagar, Jhansi - UPPCB",28-03-2024 07:00:00,25.4547,78.6039,SO2,13,22,16
India,Uttar_Pradesh,Kanpur,"FTI Kidwai Nagar, Kanpur - UPPCB",28-03-2024 07:00:00,26.428282,80.327067,PM10,69,375,143
India,Uttar_Pradesh,Kanpur,"FTI Kidwai Nagar, Kanpur - UPPCB",28-03-2024 07:00:00,26.428282,80.327067,CO,29,71,64
India,Uttar_Pradesh,Kanpur,"NSI Kalyanpur, Kanpur - UPPCB",28-03-2024 07:00:00,26.509954,80.249612,PM2.5,41,201,95
India,Uttar_Pradesh,Kanpur,"Nehru Nagar, Kanpur - UPPCB",28-03-2024 07:00:00,26.4703136,80.3229863,PM10,21,112,63
India,Uttar_Pradesh,Khurja,"Kalindi Kunj, Khurja - UPPCB",28-03-2024 07:00:00,28.2348927,77.8683002,OZONE,26,32,27
India,Uttar_Pradesh,Lucknow,"Gomti Nagar, Lucknow - UPPCB",28-03-2024 07:00:00,26.868120,81.005119,NO2,12,20,15
India,Uttar_Pradesh,Lucknow,"Kendriya Vidyalaya, Lucknow - CPCB",28-03-2024 07:00:00,26.906111,80.948222,PM10,87,144,116
India,Uttar_Pradesh,Lucknow,"Lalbagh, Lucknow - CPCB",28-03-2024 07:00:00,26.8458805,80.9365541,PM2.5,56,239,132
India,Uttar_Pradesh,Lucknow,"Lalbagh, Lucknow - CPCB",28-03-2024 07:00:00,26.8458805,80.9365541,PM10,119,185,147
India,Uttar_Pradesh,Lucknow,"Talkatora District Industries Center, Lucknow - CPCB",28-03-2024 07:00:00,26.83399722,80.8917361,PM2.5,36,175,86
India,Uttar_Pradesh,Lucknow,"Talkatora District Industries Center, Lucknow - CPCB",28-03-2024 07:00:00,26.83399722,80.8917361,PM10,74,274,152
India,Uttar_Pradesh,Lucknow,"Talkatora District Industries Center, Lucknow - CPCB",28-03-2024 07:00:00,26.83399722,80.8917361,SO2,1,34,10
India,Uttar_Pradesh,Meerut,"Ganga Nagar, Meerut - UPPCB",28-03-2024 07:00:00,28.999264,77.7590354,NO2,21,52,31
India,Uttar_Pradesh,Meerut,"Ganga Nagar, Meerut - UPPCB",28-03-2024 07:00:00,28.999264,77.7590354,CO,30,50,39
India,Uttar_Pradesh,Meerut,"Ganga Nagar, Meerut - UPPCB",28-03-2024 07:00:00,28.999264,77.7590354,OZONE,2,47,10
India,Uttar_Pradesh,Meerut,"Jai Bhim Nagar, Meerut - UPPCB",28-03-2024 07:00:00,28.9535882,77.7622941,PM10,56,102,75
India,Uttar_Pradesh,Meerut,"Jai Bhim Nagar, Meerut - UPPCB",28-03-2024 07:00:00,28.9535882,77.7622941,NH3,5,10,8
India,Uttar_Pradesh,Meerut,"Pallavpuram Phase 2, Meerut - UPPCB",28-03-2024 07:00:00,29.063510,77.709723,PM2.5,35,134,70
India,Uttar_Pradesh,Moradabad,"Buddhi Vihar, Moradabad - UPPCB",28-03-2024 07:00:00,28.83526,78.74460,PM10,76,171,110
India,Uttar_Pradesh,Moradabad,"Eco Herbal Park, Moradabad - UPPCB",28-03-2024 07:00:00,28.840739,78.697531,SO2,20,57,34
India,Uttar_Pradesh,Moradabad,"Employment Office, Moradabad - UPPCB",28-03-2024 07:00:00,28.88528,78.73880,NH3,3,4,4
India,Uttar_Pradesh,Moradabad,"Employment Office, Moradabad - UPPCB",28-03-2024 07:00:00,28.88528,78.73880,CO,16,36,28
India,Uttar_Pradesh,Moradabad,"Employment Office, Moradabad - UPPCB",28-03-2024 07:00:00,28.88528,78.73880,OZONE,12,85,14
India,Uttar_Pradesh,Moradabad,"Kashiram Nagar, Moradabad - UPPCB",28-03-2024 07:00:00,28.849399,78.742362,PM2.5,56,245,117
India,Uttar_Pradesh,Moradabad,"Transport Nagar, Moradabad - UPPCB",28-03-2024 07:00:00,28.802625,78.753728,CO,40,42,41
India,Uttar_Pradesh,Moradabad,"Transport Nagar, Moradabad - UPPCB",28-03-2024 07:00:00,28.802625,78.753728,OZONE,14,38,16
India,Uttar_Pradesh,Noida,"Sector - 125, Noida - UPPCB",28-03-2024 07:00:00,28.5447608,77.3231257,SO2,7,63,26
India,Uttar_Pradesh,Noida,"Sector - 62, Noida - IMD",28-03-2024 07:00:00,28.6245479,77.3577104,PM10,74,190,122
India,Uttar_Pradesh,Noida,"Sector-1, Noida - UPPCB",28-03-2024 07:00:00,28.5898,77.3101,NH3,2,6,4
India,Uttar_Pradesh,Noida,"Sector-116, Noida - UPPCB",28-03-2024 07:00:00,28.569230,77.393848,PM2.5,34,173,94
India,Uttar_Pradesh,Noida,"Sector-116, Noida - UPPCB",28-03-2024 07:00:00,28.569230,77.393848,NO2,24,79,52
India,Uttar_Pradesh,Noida,"Sector-116, Noida - UPPCB",28-03-2024 07:00:00,28.569230,77.393848,SO2,32,76,47
India,Uttar_Pradesh,Prayagraj,"Jhunsi, Prayagraj - UPPCB",28-03-2024 07:00:00,25.425602,81.917152,NO2,6,6,6
India,Uttar_Pradesh,Prayagraj,"Jhunsi, Prayagraj - UPPCB",28-03-2024 07:00:00,25.425602,81.917152,OZONE,2,52,7
India,Uttar_Pradesh,Prayagraj,"Motilal Nehru NIT, Prayagraj - UPPCB",28-03-2024 07:00:00,25.494,81.863,PM10,39,284,134
India,Uttar_Pradesh,Prayagraj,"Motilal Nehru NIT, Prayagraj - UPPCB",28-03-2024 07:00:00,25.494,81.863,NH3,6,7,7
India,Uttar_Pradesh,Prayagraj,"Nagar Nigam, Prayagraj - UPPCB",28-03-2024 07:00:00,25.44919916 ,81.82735986 ,PM10,NA,NA,NA
India,Uttar_Pradesh,Varanasi,"Bhelupur, Varanasi - UPPCB",28-03-2024 07:00:00,25.301778,82.996789,NH3,1,2,2
India,Uttarakhand,Dehradun,"Doon University, Dehradun - UKPCB",28-03-2024 07:00:00,30.269444,78.044167,PM10,78,134,101
India,Uttarakhand,Dehradun,"Doon University, Dehradun - UKPCB",28-03-2024 07:00:00,30.269444,78.044167,SO2,1,6,3
India,Uttarakhand,Kashipur,"Govt. Girls Inter College, Kashipur - UKPCB",28-03-2024 07:00:00,29.2124114,78.9611753,NO2,4,12,7
India,Uttarakhand,Kashipur,"Govt. Girls Inter College, Kashipur - UKPCB",28-03-2024 07:00:00,29.2124114,78.9611753,OZONE,11,71,18
India,Uttarakhand,Rishikesh,"Shivaji Nagar, Rishikesh - UKPCB",28-03-2024 07:00:00,30.075911,78.2859547,OZONE,16,115,35
India,West_Bengal,Asansol,"Asansol Court Area, Asansol - WBPCB",28-03-2024 07:00:00,23.685297,86.945968,PM2.5,78,163,132
India,West_Bengal,Asansol,"Asansol Court Area, Asansol - WBPCB",28-03-2024 07:00:00,23.685297,86.945968,OZONE,13,37,18
India,West_Bengal,Barrackpore,"SVSPA Campus, Barrackpore - WBPCB",28-03-2024 07:00:00,22.7605581,88.3617589,PM2.5,NA,NA,NA
India,West_Bengal,Barrackpore,"SVSPA Campus, Barrackpore - WBPCB",28-03-2024 07:00:00,22.7605581,88.3617589,SO2,NA,NA,NA
India,West_Bengal,Durgapur,"Sidhu Kanhu Indoor Stadium, Durgapur - WBPCB",28-03-2024 07:00:00,23.5404352,87.2892225,SO2,2,48,25
India,West_Bengal,Haldia,"Priyambada Housing Estate, Haldia - WBPCB",28-03-2024 07:00:00,22.06047,88.109737,SO2,9,20,13
India,West_Bengal,Haldia,"Priyambada Housing Estate, Haldia - WBPCB",28-03-2024 07:00:00,22.06047,88.109737,OZONE,22,29,24
India,West_Bengal,Howrah,"Belur Math, Howrah - WBPCB",28-03-2024 07:00:00,22.629801,88.352017,PM2.5,42,75,58
India,West_Bengal,Howrah,"Ghusuri, Howrah - WBPCB",28-03-2024 07:00:00,22.611968,88.347422,SO2,4,6,5
India,West_Bengal,Howrah,"Ghusuri, Howrah - WBPCB",28-03-2024 07:00:00,22.611968,88.347422,CO,2,24,3
India,West_Bengal,Howrah,"Ghusuri, Howrah - WBPCB",28-03-2024 07:00:00,22.611968,88.347422,OZONE,14,28,16
India,West_Bengal,Howrah,"Padmapukur, Howrah - WBPCB",28-03-2024 07:00:00,22.5687319,88.2797276,PM10,54,98,69
India,West_Bengal,Howrah,"Padmapukur, Howrah - WBPCB",28-03-2024 07:00:00,22.5687319,88.2797276,NH3,1,2,1
India,West_Bengal,Kolkata,"Fort William, Kolkata - WBPCB",28-03-2024 07:00:00,22.556640,88.342674,CO,16,31,18
India,West_Bengal,Kolkata,"Jadavpur, Kolkata - WBPCB",28-03-2024 07:00:00,22.49929,88.36917,NO2,5,12,7
India,West_Bengal,Kolkata,"Jadavpur, Kolkata - WBPCB",28-03-2024 07:00:00,22.49929,88.36917,CO,12,32,14
India,West_Bengal,Kolkata,"Rabindra Bharati University, Kolkata - WBPCB",28-03-2024 07:00:00,22.627847,88.380669,PM10,38,96,66
India,West_Bengal,Kolkata,"Rabindra Bharati University, Kolkata - WBPCB",28-03-2024 07:00:00,22.627847,88.380669,NO2,16,23,22
India,West_Bengal,Kolkata,"Rabindra Sarobar, Kolkata - WBPCB",28-03-2024 07:00:00,22.51106,88.35142,PM2.5,26,80,47
India,West_Bengal,Kolkata,"Rabindra Sarobar, Kolkata - WBPCB",28-03-2024 07:00:00,22.51106,88.35142,NO2,8,40,20
India,West_Bengal,Kolkata,"Rabindra Sarobar, Kolkata - WBPCB",28-03-2024 07:00:00,22.51106,88.35142,SO2,7,27,13
India,West_Bengal,Kolkata,"Victoria, Kolkata - WBPCB",28-03-2024 07:00:00,22.5448082,88.3403691,PM10,42,97,67
India,West_Bengal,Kolkata,"Victoria, Kolkata - WBPCB",28-03-2024 07:00:00,22.5448082,88.3403691,OZONE,21,96,25
India,West_Bengal,Siliguri,"Ward-32 Bapupara, Siliguri - WBPCB",28-03-2024 07:00:00,26.6879226,88.4152495,PM10,19,62,42
India,Andhra_Pradesh,Amaravati,"Secretariat, Amaravati - APPCB",28-03-2024 07:00:00,16.5150833,80.5181667,PM10,16,66,33
India,Andhra_Pradesh,Amaravati,"Secretariat, Amaravati - APPCB",28-03-2024 07:00:00,16.5150833,80.5181667,NO2,4,7,6
India,Andhra_Pradesh,Anantapur,"Gulzarpet, Anantapur - APPCB",28-03-2024 07:00:00,14.675886,77.593027,SO2,2,28,8
India,Andhra_Pradesh,Anantapur,"Gulzarpet, Anantapur - APPCB",28-03-2024 07:00:00,14.675886,77.593027,CO,25,50,32
India,Andhra_Pradesh,Chittoor,"Gangineni Cheruvu, Chittoor - APPCB",28-03-2024 07:00:00,13.204880,79.097889,NH3,1,3,1
India,Andhra_Pradesh,Kadapa,"Yerramukkapalli, Kadapa - APPCB",28-03-2024 07:00:00,14.465052,78.824187,PM10,14,52,30
India,Andhra_Pradesh,Kadapa,"Yerramukkapalli, Kadapa - APPCB",28-03-2024 07:00:00,14.465052,78.824187,OZONE,17,67,26
India,Andhra_Pradesh,Rajamahendravaram,"Anand Kala Kshetram, Rajamahendravaram - APPCB",28-03-2024 07:00:00,16.9872867,81.7363176,PM10,27,87,41
India,Andhra_Pradesh,Tirupati,"Tirumala, Tirupati - APPCB",28-03-2024 07:00:00,13.67,79.35,PM2.5,20,71,35
India,Andhra_Pradesh,Tirupati,"Tirumala, Tirupati - APPCB",28-03-2024 07:00:00,13.67,79.35,PM10,22,68,45
India,Andhra_Pradesh,Tirupati,"Tirumala, Tirupati - APPCB",28-03-2024 07:00:00,13.67,79.35,OZONE,3,53,12
India,Andhra_Pradesh,Vijayawada,"HB Colony, Vijayawada - APPCB",28-03-2024 07:00:00,16.536107,80.594233,NH3,4,4,4
India,Andhra_Pradesh,Vijayawada,"Kanuru, Vijayawada - APPCB",28-03-2024 07:00:00,16.486692,80.699436,PM2.5,49,65,56
India,Andhra_Pradesh,Vijayawada,"Kanuru, Vijayawada - APPCB",28-03-2024 07:00:00,16.486692,80.699436,NH3,1,1,1
India,Andhra_Pradesh,Vijayawada,"Kanuru, Vijayawada - APPCB",28-03-2024 07:00:00,16.486692,80.699436,OZONE,28,28,28
India,Andhra_Pradesh,Vijayawada,"Rajiv Gandhi Park, Vijayawada - APPCB",28-03-2024 07:00:00,16.509717,80.612222,PM10,39,68,49
India,Andhra_Pradesh,Vijayawada,"Rajiv Gandhi Park, Vijayawada - APPCB",28-03-2024 07:00:00,16.509717,80.612222,SO2,3,7,5
India,Andhra_Pradesh,Vijayawada,"Rajiv Nagar, Vijayawada - APPCB",28-03-2024 07:00:00,16.554731,80.649110,PM10,61,64,62
India,Andhra_Pradesh,Vijayawada,"Rajiv Nagar, Vijayawada - APPCB",28-03-2024 07:00:00,16.554731,80.649110,NH3,NA,NA,NA
India,Arunachal_Pradesh,Naharlagun,"Naharlagun, Naharlagun - APSPCB",28-03-2024 07:00:00,27.103358,93.679645,OZONE,2,2,2
India,Assam,Byrnihat,"Central Academy for SFS, Byrnihat - PCBA",28-03-2024 07:00:00,26.071318,91.87488,OZONE,8,28,19
India,Assam,Guwahati,"IITG, Guwahati - PCBA",28-03-2024 07:00:00,26.2028636,91.70046436,PM2.5,11,70,40
India,Assam,Guwahati,"IITG, Guwahati - PCBA",28-03-2024 07:00:00,26.2028636,91.70046436,SO2,12,12,12
India,Assam,Guwahati,"IITG, Guwahati - PCBA",28-03-2024 07:00:00,26.2028636,91.70046436,OZONE,4,27,4
India,Assam,Guwahati,"LGBI Airport, Guwahati - PCBA",28-03-2024 07:00:00,26.10887,91.589544,CO,10,94,22
India,Assam,Guwahati,"Railway Colony, Guwahati - PCBA",28-03-2024 07:00:00,26.181742,91.78063,OZONE,1,58,30
India,Assam,Nagaon,"Christianpatty, Nagaon - PCBA",28-03-2024 07:00:00,26.349082,92.68449,CO,16,70,27
India,Assam,Silchar,"Tarapur, Silchar - PCBA",28-03-2024 07:00:00,24.82827,92.79525,PM10,34,85,57
India,Bihar,Araria,"Kharahiya Basti, Araria - BSPCB",28-03-2024 07:00:00,26.146529,87.454184,CO,20,31,28
India,Bihar,Arrah,"New DM Office, Arrah - BSPCB",28-03-2024 07:00:00,25.5626095,84.663264,PM2.5,30,82,53
India,Bihar,Arrah,"New DM Office, Arrah - BSPCB",28-03-2024 07:00:00,25.5626095,84.663264,NH3,4,7,6
India,Bihar,Bhagalpur,"DM Office_Kachari Chowk, Bhagalpur - BSPCB",28-03-2024 07:00:00,25.251013,86.989001,PM10,NA,NA,NA
India,Bihar,Bhagalpur,"Mayaganj, Bhagalpur - BSPCB",28-03-2024 07:00:00,25.265194,87.012947,NH3,6,8,7
India,Bihar,Bhagalpur,"Mayaganj, Bhagalpur - BSPCB",28-03-2024 07:00:00,25.265194,87.012947,CO,8,10,9
India,Bihar,Bihar Sharif,"D M Colony, Bihar Sharif - BSPCB",28-03-2024 07:00:00,25.204762,85.514960,SO2,1,9,6
India,Bihar,Buxar,"Charitra Van, Buxar - BSPCB (Formerly known as Central Jail)",28-03-2024 07:00:00,25.567520,83.966379,NH3,1,2,1
India,Bihar,Gaya,"Kareemganj, Gaya - BSPCB",28-03-2024 07:00:00,24.792403,84.992416,NO2,30,31,30
India,Bihar,Gaya,"Kareemganj, Gaya - BSPCB",28-03-2024 07:00:00,24.792403,84.992416,SO2,7,10,8
India,Bihar,Gaya,"SFTI Kusdihra, Gaya - BSPCB",28-03-2024 07:00:00,24.762518,84.982348,PM10,52,83,68
India,Bihar,Gaya,"SFTI Kusdihra, Gaya - BSPCB",28-03-2024 07:00:00,24.762518,84.982348,SO2,6,8,7
India,Bihar,Hajipur,"Industrial Area, Hajipur - BSPCB",28-03-2024 07:00:00,25.697189,85.245900,PM2.5,22,72,40
India,Bihar,Katihar,"Mirchaibari, Katihar - BSPCB",28-03-2024 07:00:00,25.560083,87.553265,NO2,13,26,16
India,Bihar,Katihar,"Mirchaibari, Katihar - BSPCB",28-03-2024 07:00:00,25.560083,87.553265,NH3,5,7,6
India,Bihar,Kishanganj,"SDM Office_Khagra, Kishanganj - BSPCB",28-03-2024 07:00:00,26.0881305,87.93840336,PM10,NA,NA,NA
India,Bihar,Manguraha,"Forest Rest House, Manguraha - BSPCB",28-03-2024 07:00:00,27.308328,84.531742,OZONE,6,95,11
India,Bihar,Motihari,"Gandak Colony, Motihari - BSPCB",28-03-2024 07:00:00,26.63086,84.90051,NO2,40,67,56
India,Bihar,Munger,"Town Hall, Munger - BSPCB",28-03-2024 07:00:00,25.376776,86.471523,NO2,8,10,9
India,Bihar,Munger,"Town Hall, Munger - BSPCB",28-03-2024 07:00:00,25.376776,86.471523,CO,2,9,4
India,Bihar,Muzaffarpur,"Buddha Colony, Muzaffarpur - BSPCB",28-03-2024 07:00:00,26.11442,85.39813,SO2,7,22,11
India,Bihar,Muzaffarpur,"MIT-Daudpur Kothi, Muzaffarpur - BSPCB",28-03-2024 07:00:00,26.1403345,85.3650192,SO2,7,11,9
India,Bihar,Muzaffarpur,"MIT-Daudpur Kothi, Muzaffarpur - BSPCB",28-03-2024 07:00:00,26.1403345,85.3650192,CO,24,137,53
India,Bihar,Muzaffarpur,"Muzaffarpur Collectorate, Muzaffarpur - BSPCB",28-03-2024 07:00:00,26.1209,85.3647,OZONE,13,100,37
India,Bihar,Patna,"DRM Office Danapur, Patna - BSPCB",28-03-2024 07:00:00,25.586562,85.043586,NO2,6,24,12
India,Bihar,Patna,"Govt. High School Shikarpur, Patna - BSPCB",28-03-2024 07:00:00,25.592539,85.227158,SO2,7,12,9
India,Bihar,Patna,"IGSC Planetarium Complex, Patna - BSPCB",28-03-2024 07:00:00,25.610369,85.132568,OZONE,9,50,39
India,Bihar,Patna,"Rajbansi Nagar, Patna - BSPCB",28-03-2024 07:00:00,25.599486,85.113666,CO,4,70,24
India,Bihar,Patna,"Rajbansi Nagar, Patna - BSPCB",28-03-2024 07:00:00,25.599486,85.113666,OZONE,8,87,35
India,Bihar,Patna,"Samanpura, Patna - BSPCB",28-03-2024 07:00:00,25.596727,85.085624,SO2,6,7,7
India,Bihar,Purnia,"Mariam Nagar, Purnia - BSPCB",28-03-2024 07:00:00,25.366336,87.117468,PM10,36,135,81
India,Bihar,Purnia,"Mariam Nagar, Purnia - BSPCB",28-03-2024 07:00:00,25.366336,87.117468,NH3,2,2,2
India,Bihar,Rajgir,"Dangi Tola, Rajgir - BSPCB",28-03-2024 07:00:00,25.03280,85.41948,PM2.5,28,335,130
India,Bihar,Rajgir,"Dangi Tola, Rajgir - BSPCB",28-03-2024 07:00:00,25.03280,85.41948,NO2,1,1,1
India,Bihar,Rajgir,"Dangi Tola, Rajgir - BSPCB",28-03-2024 07:00:00,25.03280,85.41948,CO,9,11,10
India,Bihar,Saharsa,"Police Line, Saharsa - BSPCB",28-03-2024 07:00:00,25.892357,86.590325,PM10,30,122,59
India,Bihar,Saharsa,"Police Line, Saharsa - BSPCB",28-03-2024 07:00:00,25.892357,86.590325,NO2,6,8,7
India,Bihar,Samastipur,"DM Office_Kasipur, Samastipur - BSPCB",28-03-2024 07:00:00,25.859655,85.77944,NH3,3,4,4
India,Bihar,Sasaram,"Dada Peer, Sasaram - BSPCB",28-03-2024 07:00:00,24.952822,84.002396,PM2.5,18,72,39
India,Bihar,Siwan,"Chitragupta Nagar, Siwan - BSPCB",28-03-2024 07:00:00,26.2271665,84.3570427,PM10,NA,NA,NA
India,Bihar,Siwan,"Chitragupta Nagar, Siwan - BSPCB",28-03-2024 07:00:00,26.2271665,84.3570427,NH3,1,2,1
India,Bihar,Siwan,"Chitragupta Nagar, Siwan - BSPCB",28-03-2024 07:00:00,26.2271665,84.3570427,CO,11,88,38
India,Bihar,Siwan,"Chitragupta Nagar, Siwan - BSPCB",28-03-2024 07:00:00,26.2271665,84.3570427,OZONE,21,104,37
India,Chandigarh,Chandigarh,"Sector 22, Chandigarh - CPCC",28-03-2024 07:00:00,30.735567,76.775714,PM10,74,159,106
India,Chandigarh,Chandigarh,"Sector-25, Chandigarh - CPCC",28-03-2024 07:00:00,30.751462,76.762879,NO2,6,24,13
India,Chandigarh,Chandigarh,"Sector-25, Chandigarh - CPCC",28-03-2024 07:00:00,30.751462,76.762879,CO,13,36,22
India,Chandigarh,Chandigarh,"Sector-53, Chandigarh - CPCC",28-03-2024 07:00:00,30.719859,76.738637,OZONE,20,56,26
India,Chhattisgarh,Bhilai,"Civic Center, Bhilai - Bhilai Steel Plant",28-03-2024 07:00:00,21.185571,81.343175,NH3,5,5,5
India,Chhattisgarh,Bhilai,"Hathkhoj, Bhilai - CECB",28-03-2024 07:00:00,21.224231,81.408350,NH3,7,8,8
India,Chhattisgarh,Bhilai,"Hathkhoj, Bhilai - CECB",28-03-2024 07:00:00,21.224231,81.408350,SO2,12,25,16
India,Chhattisgarh,Chhal,"Nawapara SECL Colony, Chhal - CECB",28-03-2024 07:00:00,22.118125,83.140608,PM10,68,142,101
India,Chhattisgarh,Chhal,"Nawapara SECL Colony, Chhal - CECB",28-03-2024 07:00:00,22.118125,83.140608,CO,30,72,53
India,Chhattisgarh,Korba,"Rampur, Korba - CECB",28-03-2024 07:00:00,22.368195,82.746431,OZONE,2,13,3
India,Chhattisgarh,Milupara,"Govt. Higher Secondary School, Milupara - CECB",28-03-2024 07:00:00,22.1910172,83.5197009,NO2,NA,NA,NA
India,Chhattisgarh,Raipur,"Bhatagaon New ISBT, Raipur - CECB",28-03-2024 07:00:00,21.219665,81.630094,CO,32,78,49
India,Chhattisgarh,Raipur,"Krishak Nagar, Raipur - CECB",28-03-2024 07:00:00,21.237755,81.705301,SO2,10,27,15
India,Chhattisgarh,Raipur,"Siltara Phase-II, Raipur - CECB",28-03-2024 07:00:00,21.371751,81.664929,PM2.5,57,183,101
India,Chhattisgarh,Raipur,"Siltara Phase-II, Raipur - CECB",28-03-2024 07:00:00,21.371751,81.664929,NH3,3,3,3
India,Chhattisgarh,Tumidih,"OP Jindal Industrial Park, Tumidih - CECB",28-03-2024 07:00:00,22.06631475,83.33820077,CO,NA,NA,NA
India,Chhattisgarh,Tumidih,"OP Jindal Industrial Park, Tumidih - CECB",28-03-2024 07:00:00,22.06631475,83.33820077,OZONE,NA,NA,NA
India,Delhi,Delhi,"Alipur, Delhi - DPCC",28-03-2024 07:00:00,28.815329,77.153010,CO,34,64,45
India,Delhi,Delhi,"Alipur, Delhi - DPCC",28-03-2024 07:00:00,28.815329,77.153010,OZONE,5,69,13
India,Delhi,Delhi,"Anand Vihar, Delhi - DPCC",28-03-2024 07:00:00,28.647622,77.3158090,CO,2,68,22
India,Delhi,Delhi,"Ashok Vihar, Delhi - DPCC",28-03-2024 07:00:00,28.695381,77.181665,PM10,87,220,145
India,Delhi,Delhi,"Ashok Vihar, Delhi - DPCC",28-03-2024 07:00:00,28.695381,77.181665,OZONE,2,4,2
India,Delhi,Delhi,"Bawana, Delhi - DPCC",28-03-2024 07:00:00,28.776200,77.051074,PM2.5,37,390,165
India,Delhi,Delhi,"Burari Crossing, Delhi - IMD",28-03-2024 07:00:00,28.7256504,77.2011573,OZONE,23,49,26
India,Delhi,Delhi,"CRRI Mathura Road, Delhi - IMD",28-03-2024 07:00:00,28.5512005,77.2735737,PM10,66,136,96
India,Delhi,Delhi,"CRRI Mathura Road, Delhi - IMD",28-03-2024 07:00:00,28.5512005,77.2735737,NO2,11,48,18
India,Delhi,Delhi,"Chandni Chowk, Delhi - IITM",28-03-2024 07:00:00,28.656756,77.227234,PM10,104,146,126
India,Delhi,Delhi,"Chandni Chowk, Delhi - IITM",28-03-2024 07:00:00,28.656756,77.227234,NO2,7,208,55
India,Delhi,Delhi,"DTU, Delhi - CPCB",28-03-2024 07:00:00,28.7500499,77.1112615,PM2.5,49,316,134
India,Delhi,Delhi,"DTU, Delhi - CPCB",28-03-2024 07:00:00,28.7500499,77.1112615,NO2,17,37,25
India,Delhi,Delhi,"Dr. Karni Singh Shooting Range, Delhi - DPCC",28-03-2024 07:00:00,28.498571,77.264840,PM2.5,38,167,80
India,Delhi,Delhi,"Dwarka-Sector 8, Delhi - DPCC ",28-03-2024 07:00:00,28.5710274,77.0719006,CO,46,106,64
India,Delhi,Delhi,"IGI Airport (T3), Delhi - IMD",28-03-2024 07:00:00,28.5627763,77.1180053,OZONE,1,32,4
India,Delhi,Delhi,"IHBAS, Dilshad Garden, Delhi - CPCB",28-03-2024 07:00:00,28.6811736,77.3025234,PM2.5,80,240,151
India,Delhi,Delhi,"IHBAS, Dilshad Garden, Delhi - CPCB",28-03-2024 07:00:00,28.6811736,77.3025234,NO2,14,92,46
India,Delhi,Delhi,"ITO, Delhi - CPCB",28-03-2024 07:00:00,28.628624,77.241060,NO2,2,166,69
India,Delhi,Delhi,"Jahangirpuri, Delhi - DPCC",28-03-2024 07:00:00,28.732820,77.170633,PM2.5,35,332,137
India,Delhi,Delhi,"Jahangirpuri, Delhi - DPCC",28-03-2024 07:00:00,28.732820,77.170633,CO,42,104,65
India,Delhi,Delhi,"Jawaharlal Nehru Stadium, Delhi - DPCC",28-03-2024 07:00:00,28.580280,77.233829,SO2,19,56,34
India,Delhi,Delhi,"Lodhi Road, Delhi - IITM",28-03-2024 07:00:00,28.588333,77.221667,PM2.5,64,500,264
India,Delhi,Delhi,"Lodhi Road, Delhi - IITM",28-03-2024 07:00:00,28.588333,77.221667,PM10,75,500,205
India,Delhi,Delhi,"Lodhi Road, Delhi - IITM",28-03-2024 07:00:00,28.588333,77.221667,NO2,70,123,88
India,Delhi,Delhi,"Lodhi Road, Delhi - IITM",28-03-2024 07:00:00,28.588333,77.221667,OZONE,15,29,16
India,Delhi,Delhi,"Lodhi Road, Delhi - IMD",28-03-2024 07:00:00,28.5918245,77.2273074,PM2.5,45,131,81
India,Delhi,Delhi,"Lodhi Road, Delhi - IMD",28-03-2024 07:00:00,28.5918245,77.2273074,NO2,2,8,5
India,Delhi,Delhi,"Major Dhyan Chand National Stadium, Delhi - DPCC",28-03-2024 07:00:00,28.611281,77.237738,PM10,82,152,115
India,Delhi,Delhi,"Major Dhyan Chand National Stadium, Delhi - DPCC",28-03-2024 07:00:00,28.611281,77.237738,SO2,9,24,15
India,Delhi,Delhi,"Major Dhyan Chand National Stadium, Delhi - DPCC",28-03-2024 07:00:00,28.611281,77.237738,CO,30,80,53
India,Delhi,Delhi,"Major Dhyan Chand National Stadium, Delhi - DPCC",28-03-2024 07:00:00,28.611281,77.237738,OZONE,1,208,19
India,Delhi,Delhi,"Mandir Marg, Delhi - DPCC",28-03-2024 07:00:00,28.636429,77.201067,PM10,65,143,98
India,Delhi,Delhi,"Mandir Marg, Delhi - DPCC",28-03-2024 07:00:00,28.636429,77.201067,OZONE,1,17,2
India,Delhi,Delhi,"NSIT Dwarka, Delhi - CPCB",28-03-2024 07:00:00,28.60909,77.0325413,OZONE,3,60,12
India,Delhi,Delhi,"Najafgarh, Delhi - DPCC",28-03-2024 07:00:00,28.570173,76.933762,PM2.5,23,378,133
India,Delhi,Delhi,"Najafgarh, Delhi - DPCC",28-03-2024 07:00:00,28.570173,76.933762,NO2,3,20,9
India,Delhi,Delhi,"Najafgarh, Delhi - DPCC",28-03-2024 07:00:00,28.570173,76.933762,CO,18,92,55
India,Delhi,Delhi,"Narela, Delhi - DPCC",28-03-2024 07:00:00,28.822836,77.101981,NH3,6,15,8
India,Delhi,Delhi,"Nehru Nagar, Delhi - DPCC",28-03-2024 07:00:00,28.567890,77.250515,PM10,100,166,122
India,Delhi,Delhi,"Nehru Nagar, Delhi - DPCC",28-03-2024 07:00:00,28.567890,77.250515,OZONE,2,174,8
India,Delhi,Delhi,"New Moti Bagh, Delhi - MHUA",28-03-2024 07:00:00,28.57834,77.18400,NO2,1,20,6
India,Delhi,Delhi,"North Campus, DU, Delhi - IMD",28-03-2024 07:00:00,28.6573814,77.1585447,PM2.5,40,269,124
India,Delhi,Delhi,"Okhla Phase-2, Delhi - DPCC",28-03-2024 07:00:00,28.530785,77.271255,NH3,5,14,8
India,Delhi,Delhi,"Okhla Phase-2, Delhi - DPCC",28-03-2024 07:00:00,28.530785,77.271255,OZONE,10,154,12
India,Delhi,Delhi,"Patparganj, Delhi - DPCC",28-03-2024 07:00:00,28.623763,77.287209,SO2,17,20,18
India,Delhi,Delhi,"Patparganj, Delhi - DPCC",28-03-2024 07:00:00,28.623763,77.287209,CO,27,60,43
India,Delhi,Delhi,"Punjabi Bagh, Delhi - DPCC",28-03-2024 07:00:00,28.674045,77.131023,NO2,33,59,47
India,Delhi,Delhi,"Pusa, Delhi - DPCC",28-03-2024 07:00:00,28.639652,77.146275,PM10,111,402,174
India,Delhi,Delhi,"Pusa, Delhi - DPCC",28-03-2024 07:00:00,28.639652,77.146275,NH3,7,12,9
India,Delhi,Delhi,"Pusa, Delhi - DPCC",28-03-2024 07:00:00,28.639652,77.146275,SO2,15,37,24
India,Delhi,Delhi,"Pusa, Delhi - IMD",28-03-2024 07:00:00,28.636110,77.173332,OZONE,2,38,4
India,Delhi,Delhi,"Shadipur, Delhi - CPCB",28-03-2024 07:00:00,28.6514781,77.1473105,NO2,34,48,40
India,Delhi,Delhi,"Shadipur, Delhi - CPCB",28-03-2024 07:00:00,28.6514781,77.1473105,OZONE,15,59,21
India,Delhi,Delhi,"Sirifort, Delhi - CPCB",28-03-2024 07:00:00,28.5504249,77.2159377,NO2,NA,NA,NA
India,Delhi,Delhi,"Sonia Vihar, Delhi - DPCC",28-03-2024 07:00:00,28.710508,77.249485,SO2,13,29,18
India,Delhi,Delhi,"Sonia Vihar, Delhi - DPCC",28-03-2024 07:00:00,28.710508,77.249485,CO,50,90,70
India,Delhi,Delhi,"Vivek Vihar, Delhi - DPCC",28-03-2024 07:00:00,28.672342,77.315260,NH3,14,15,15
India,Delhi,Delhi,"Wazirpur, Delhi - DPCC",28-03-2024 07:00:00,28.699793,77.165453,PM2.5,29,325,112
India,Delhi,Delhi,"Wazirpur, Delhi - DPCC",28-03-2024 07:00:00,28.699793,77.165453,SO2,8,59,28
India,Delhi,Delhi,"Wazirpur, Delhi - DPCC",28-03-2024 07:00:00,28.699793,77.165453,CO,9,94,42
India,Delhi,Delhi,"Wazirpur, Delhi - DPCC",28-03-2024 07:00:00,28.699793,77.165453,OZONE,4,86,8
India,Gujarat,Ahmedabad,"Chandkheda, Ahmedabad - IITM",28-03-2024 07:00:00,23.107969,72.574648,SO2,6,28,13
India,Gujarat,Ahmedabad,"Gyaspur, Ahmedabad - IITM",28-03-2024 07:00:00,22.977134,72.553024,PM10,74,430,152
India,Gujarat,Ahmedabad,"Raikhad, Ahmedabad - IITM",28-03-2024 07:00:00,23.020509,72.579261,PM10,44,282,101
India,Gujarat,Ahmedabad,"Raikhad, Ahmedabad - IITM",28-03-2024 07:00:00,23.020509,72.579261,NH3,3,6,4
India,Gujarat,Ahmedabad,"Raikhad, Ahmedabad - IITM",28-03-2024 07:00:00,23.020509,72.579261,OZONE,7,53,8
India,Gujarat,Ahmedabad,"SAC ISRO Satellite, Ahmedabad - IITM",28-03-2024 07:00:00,23.023389,72.515201,SO2,3,22,8
India,Gujarat,Ahmedabad,"SVPI Airport Hansol, Ahmedabad - IITM",28-03-2024 07:00:00,23.076793,72.627874,NO2,14,19,16
India,Gujarat,Ahmedabad,"Sardar Vallabhbhai Patel Stadium, Ahmedabad - IITM",28-03-2024 07:00:00,23.043070,72.562968,NO2,6,35,29
India,Gujarat,Ahmedabad,"Sardar Vallabhbhai Patel Stadium, Ahmedabad - IITM",28-03-2024 07:00:00,23.043070,72.562968,OZONE,17,29,19
India,Gujarat,Ankleshwar,"GIDC, Ankleshwar - GPCB",28-03-2024 07:00:00,21.613267,73.010555,NO2,35,37,35
India,Gujarat,Ankleshwar,"GIDC, Ankleshwar - GPCB",28-03-2024 07:00:00,21.613267,73.010555,NH3,6,7,6
India,Gujarat,Ankleshwar,"GIDC, Ankleshwar - GPCB",28-03-2024 07:00:00,21.613267,73.010555,SO2,9,37,19
India,Gujarat,Gandhinagar,"GIFT City, Gandhinagar - IITM",28-03-2024 07:00:00,23.163798,72.677768,PM10,59,119,89
India,Gujarat,Gandhinagar,"GIFT City, Gandhinagar - IITM",28-03-2024 07:00:00,23.163798,72.677768,CO,6,24,15
India,Gujarat,Gandhinagar,"IIPHG Lekawada, Gandhinagar - IITM",28-03-2024 07:00:00,23.243639,72.68994,PM2.5,62,228,119
India,Gujarat,Gandhinagar,"IIPHG Lekawada, Gandhinagar - IITM",28-03-2024 07:00:00,23.243639,72.68994,SO2,3,35,15
India,Gujarat,Gandhinagar,"Sector-10, Gandhinagar - GPCB",28-03-2024 07:00:00,23.221714,72.654328,SO2,4,8,5
India,Gujarat,Surat,"Science Center, Surat - SMC",28-03-2024 07:00:00,21.170046,72.795405,PM2.5,12,62,30
India,Gujarat,Surat,"Science Center, Surat - SMC",28-03-2024 07:00:00,21.170046,72.795405,NO2,19,68,49
India,Gujarat,Vatva,"Phase-4 GIDC, Vatva - GPCB",28-03-2024 07:00:00,22.969611,72.643500,NO2,35,176,80
India,Gujarat,Vatva,"Phase-4 GIDC, Vatva - GPCB",28-03-2024 07:00:00,22.969611,72.643500,SO2,14,72,32
India,Gujarat,Vatva,"Phase-4 GIDC, Vatva - GPCB",28-03-2024 07:00:00,22.969611,72.643500,CO,3,130,62
India,Haryana,Ambala,"Patti Mehar, Ambala - HSPCB",28-03-2024 07:00:00,30.379589,76.778328,NH3,5,12,8
India,Haryana,Ambala,"Patti Mehar, Ambala - HSPCB",28-03-2024 07:00:00,30.379589,76.778328,SO2,5,25,12
India,Haryana,Bahadurgarh,"Arya Nagar, Bahadurgarh - HSPCB",28-03-2024 07:00:00,28.6701,76.9254,NO2,33,40,36
India,Haryana,Ballabgarh,"Nathu Colony, Ballabgarh - HSPCB",28-03-2024 07:00:00,28.3419248,77.319699,CO,10,106,39
India,Haryana,Bhiwani,"H.B. Colony, Bhiwani - HSPCB",28-03-2024 07:00:00,28.806223,76.141105,OZONE,11,86,15
India,Haryana,Charkhi Dadri,"Mini Secretariat, Charkhi Dadri - HSPCB",28-03-2024 07:00:00,28.593883,76.270653,NO2,15,24,18
India,Haryana,Charkhi Dadri,"Mini Secretariat, Charkhi Dadri - HSPCB",28-03-2024 07:00:00,28.593883,76.270653,CO,14,97,37
India,Haryana,Dharuhera,"Municipal Corporation Office, Dharuhera -  HSPCB",28-03-2024 07:00:00,28.206800,76.799700,NO2,45,111,70
India,Haryana,Faridabad,"New Industrial Town, Faridabad - HSPCB",28-03-2024 07:00:00,28.39072,77.30059,OZONE,NA,NA,NA
India,Haryana,Faridabad,"Sector 30, Faridabad - HSPCB",28-03-2024 07:00:00,28.4417,77.3217,NO2,28,32,31
India,Haryana,Faridabad,"Sector 30, Faridabad - HSPCB",28-03-2024 07:00:00,28.4417,77.3217,NH3,9,9,9
India,Haryana,Faridabad,"Sector- 16A, Faridabad - HSPCB",28-03-2024 07:00:00,28.4088421,77.3099081,NO2,24,60,44
India,Haryana,Fatehabad,"Huda Sector, Fatehabad - HSPCB",28-03-2024 07:00:00,29.503664,75.467934,PM10,38,84,54
India,Haryana,Fatehabad,"Huda Sector, Fatehabad - HSPCB",28-03-2024 07:00:00,29.503664,75.467934,NH3,12,18,14
India,Haryana,Gurugram,"Sector-51, Gurugram - HSPCB",28-03-2024 07:00:00,28.4227,77.0667,PM2.5,32,306,116
India,Haryana,Gurugram,"Teri Gram, Gurugram - HSPCB",28-03-2024 07:00:00,28.4275,77.1465,NO2,28,48,36
India,Haryana,Hisar,"Urban Estate-II, Hisar - HSPCB",28-03-2024 07:00:00,29.140560,75.744941,SO2,13,95,52
India,Haryana,Jind,"Police Lines, Jind - HSPCB",28-03-2024 07:00:00,29.307814,76.337619,NH3,1,5,4
India,Haryana,Jind,"Police Lines, Jind - HSPCB",28-03-2024 07:00:00,29.307814,76.337619,CO,2,109,28
India,Haryana,Jind,"Police Lines, Jind - HSPCB",28-03-2024 07:00:00,29.307814,76.337619,OZONE,14,25,18
India,Haryana,Kaithal,"Rishi Nagar, Kaithal - HSPCB",28-03-2024 07:00:00,29.8006,76.4155,NH3,8,8,8
India,Haryana,Kaithal,"Rishi Nagar, Kaithal - HSPCB",28-03-2024 07:00:00,29.8006,76.4155,OZONE,13,28,15
India,Haryana,Karnal,"Sector-12, Karnal - HSPCB",28-03-2024 07:00:00,29.695300,77.002700,SO2,12,13,12
India,Haryana,Karnal,"Sector-12, Karnal - HSPCB",28-03-2024 07:00:00,29.695300,77.002700,OZONE,19,22,21
India,Haryana,Kurukshetra,"Sector-7, Kurukshetra - HSPCB",28-03-2024 07:00:00,29.966942,76.875879,NO2,10,11,10
India,Haryana,Manesar,"Sector-2 IMT, Manesar - HSPCB",28-03-2024 07:00:00,28.360699,76.936090,PM2.5,43,183,79
India,Haryana,Manesar,"Sector-2 IMT, Manesar - HSPCB",28-03-2024 07:00:00,28.360699,76.936090,NO2,18,26,22
India,Haryana,Manesar,"Sector-2 IMT, Manesar - HSPCB",28-03-2024 07:00:00,28.360699,76.936090,SO2,3,12,8
India,Haryana,Manesar,"Sector-2 IMT, Manesar - HSPCB",28-03-2024 07:00:00,28.360699,76.936090,CO,8,42,22
India,Haryana,Manesar,"Sector-2 IMT, Manesar - HSPCB",28-03-2024 07:00:00,28.360699,76.936090,OZONE,1,43,6
India,Haryana,Narnaul,"Shastri Nagar, Narnaul - HSPCB",28-03-2024 07:00:00,28.060249,76.113115,PM10,37,100,53
India,Haryana,Narnaul,"Shastri Nagar, Narnaul - HSPCB",28-03-2024 07:00:00,28.060249,76.113115,OZONE,35,56,38
India,Haryana,Palwal,"Shyam Nagar, Palwal - HSPCB",28-03-2024 07:00:00,28.1485564,77.3320667,NH3,9,9,9
India,Haryana,Palwal,"Shyam Nagar, Palwal - HSPCB",28-03-2024 07:00:00,28.1485564,77.3320667,CO,18,36,32
India,Haryana,Sirsa,"F-Block, Sirsa - HSPCB",28-03-2024 07:00:00,29.536400,75.015800,PM2.5,2,110,51
India,Haryana,Sirsa,"F-Block, Sirsa - HSPCB",28-03-2024 07:00:00,29.536400,75.015800,NO2,10,18,11
India,Haryana,Sirsa,"F-Block, Sirsa - HSPCB",28-03-2024 07:00:00,29.536400,75.015800,NH3,9,13,12
India,Haryana,Sonipat,"Murthal, Sonipat - HSPCB",28-03-2024 07:00:00,29.027200,77.062100,PM2.5,11,37,20
India,Haryana,Yamuna Nagar,"Gobind Pura, Yamuna Nagar - HSPCB",28-03-2024 07:00:00,30.1480566,77.2893471,OZONE,22,35,23
India,Himachal Pradesh,Baddi,"HIMUDA Complex Phase-1, Baddi - HPPCB",28-03-2024 07:00:00,30.943887,76.801991,CO,27,68,34
India,Jharkhand,Dhanbad,"Sardar Patel Nagar, Dhanbad - JSPCB",28-03-2024 07:00:00,23.80569,86.44268,NO2,NA,NA,NA
India,Jharkhand,Dhanbad,"Sardar Patel Nagar, Dhanbad - JSPCB",28-03-2024 07:00:00,23.80569,86.44268,CO,19,148,67
India,Karnataka,Bagalkot,"Vidayagiri, Bagalkot - KSPCB",28-03-2024 07:00:00,16.172806,75.659694,PM10,46,46,46
India,Karnataka,Bengaluru,"Bapuji Nagar, Bengaluru - KSPCB",28-03-2024 07:00:00,12.951913,77.539784,NO2,6,12,10
India,Karnataka,Bengaluru,"Hebbal, Bengaluru - KSPCB",28-03-2024 07:00:00,13.029152,77.585901,PM2.5,NA,NA,NA
India,Karnataka,Bengaluru,"Hombegowda Nagar, Bengaluru - KSPCB",28-03-2024 07:00:00,12.938539,77.590100,CO,10,16,14
India,Karnataka,Bengaluru,"Jayanagar 5th Block, Bengaluru - KSPCB",28-03-2024 07:00:00,12.920984,77.584908,OZONE,27,28,28
India,Karnataka,Bengaluru,"Kasturi Nagar, Bengaluru - KSPCB",28-03-2024 07:00:00,13.003872,77.664217,NO2,16,17,17
India,Karnataka,Bengaluru,"Kasturi Nagar, Bengaluru - KSPCB",28-03-2024 07:00:00,13.003872,77.664217,SO2,10,10,10
India,Karnataka,Bengaluru,"Peenya, Bengaluru - CPCB",28-03-2024 07:00:00,13.0270199,77.494094,PM10,43,65,58
India,Karnataka,Bengaluru,"Peenya, Bengaluru - CPCB",28-03-2024 07:00:00,13.0270199,77.494094,SO2,5,8,6
India,Karnataka,Bengaluru,"RVCE-Mailasandra, Bengaluru - KSPCB",28-03-2024 07:00:00,12.921418,77.502466,NO2,16,17,17
India,Karnataka,Bengaluru,"RVCE-Mailasandra, Bengaluru - KSPCB",28-03-2024 07:00:00,12.921418,77.502466,CO,32,55,35
India,Karnataka,Bengaluru,"Sanegurava Halli, Bengaluru - KSPCB",28-03-2024 07:00:00,12.990328,77.5431385,SO2,2,3,3
India,Karnataka,Bengaluru,"Sanegurava Halli, Bengaluru - KSPCB",28-03-2024 07:00:00,12.990328,77.5431385,CO,6,42,16
India,Karnataka,Bengaluru,"Shivapura_Peenya, Bengaluru - KSPCB",28-03-2024 07:00:00,13.0246342,77.5080115,PM10,64,95,75
India,Karnataka,Bengaluru,"Shivapura_Peenya, Bengaluru - KSPCB",28-03-2024 07:00:00,13.0246342,77.5080115,SO2,5,26,13
India,Karnataka,Bengaluru,"Silk Board, Bengaluru - KSPCB",28-03-2024 07:00:00,12.917348,77.622813,PM10,43,96,66
India,Karnataka,Bengaluru,"Silk Board, Bengaluru - KSPCB",28-03-2024 07:00:00,12.917348,77.622813,CO,12,31,17
India,Karnataka,Bidar,"Naubad, Bidar - KSPCB",28-03-2024 07:00:00,17.930306,77.482194,PM10,75,114,97
India,Karnataka,Bidar,"Naubad, Bidar - KSPCB",28-03-2024 07:00:00,17.930306,77.482194,NH3,3,3,3
India,Karnataka,Bidar,"Naubad, Bidar - KSPCB",28-03-2024 07:00:00,17.930306,77.482194,CO,56,88,73
India,Karnataka,Chamarajanagar,"Urban, Chamarajanagar - KSPCB",28-03-2024 07:00:00,11.55358,76.55521,PM2.5,21,54,33
India,Karnataka,Chikkaballapur,"Chikkaballapur Rural, Chikkaballapur - KSPCB",28-03-2024 07:00:00,13.428828,77.731418,NO2,7,18,11
India,Karnataka,Chikkaballapur,"Chikkaballapur Rural, Chikkaballapur - KSPCB",28-03-2024 07:00:00,13.428828,77.731418,NH3,1,1,1
India,Karnataka,Chikkamagaluru,"Kalyana Nagara, Chikkamagaluru - KSPCB",28-03-2024 07:00:00,13.328028,75.797056,NH3,3,5,4
India,Karnataka,Chikkamagaluru,"Kalyana Nagara, Chikkamagaluru - KSPCB",28-03-2024 07:00:00,13.328028,75.797056,SO2,1,10,5
India,Karnataka,Davanagere,"Devaraj Urs Badavane, Davanagere - KSPCB",28-03-2024 07:00:00,14.475800,75.905200,PM2.5,50,80,67
India,Karnataka,Davanagere,"Devaraj Urs Badavane, Davanagere - KSPCB",28-03-2024 07:00:00,14.475800,75.905200,PM10,47,111,81
India,Karnataka,Davanagere,"Devaraj Urs Badavane, Davanagere - KSPCB",28-03-2024 07:00:00,14.475800,75.905200,SO2,3,6,5
India,Karnataka,Dharwad,"Kalabhavan, Dharwad - KSPCB",28-03-2024 07:00:00,15.459706,75.008381,PM10,31,61,38
India,Karnataka,Gadag,"Panchal Nagar, Gadag - KSPCB",28-03-2024 07:00:00,15.411456,75.638133,PM2.5,28,66,42
India,Karnataka,Gadag,"Panchal Nagar, Gadag - KSPCB",28-03-2024 07:00:00,15.411456,75.638133,NH3,1,3,2
India,Karnataka,Hassan,"B.Katihalli, Hassan - KSPCB",28-03-2024 07:00:00,13.008556,76.125258,PM10,48,103,76
India,Karnataka,Hassan,"B.Katihalli, Hassan - KSPCB",28-03-2024 07:00:00,13.008556,76.125258,NO2,9,33,20
India,Karnataka,Hassan,"B.Katihalli, Hassan - KSPCB",28-03-2024 07:00:00,13.008556,76.125258,SO2,21,24,22
India,Karnataka,Hubballi,"Lingaraj Nagar, Hubballi - KSPCB",28-03-2024 07:00:00,15.3714823,75.1160168,PM2.5,7,63,38
India,Karnataka,Hubballi,"Lingaraj Nagar, Hubballi - KSPCB",28-03-2024 07:00:00,15.3714823,75.1160168,PM10,44,76,55
India,Karnataka,Hubballi,"Lingaraj Nagar, Hubballi - KSPCB",28-03-2024 07:00:00,15.3714823,75.1160168,OZONE,8,46,14
India,Karnataka,Kalaburagi,"Lal Bahadur Shastri Nagar, Kalaburagi - KSPCB",28-03-2024 07:00:00,17.321993,76.822628,SO2,10,13,11
India,Karnataka,Kalaburagi,"Mahatma Basaveswar Colony, Kalaburgi - KSPCB",28-03-2024 07:00:00,17.336318,76.847397,PM10,32,89,52
India,Karnataka,Kalaburagi,"Mahatma Basaveswar Colony, Kalaburgi - KSPCB",28-03-2024 07:00:00,17.336318,76.847397,NH3,2,4,2
India,Karnataka,Kalaburagi,"Mahatma Basaveswar Colony, Kalaburgi - KSPCB",28-03-2024 07:00:00,17.336318,76.847397,OZONE,5,20,8
India,Karnataka,Karwar,"KHB Colony, Karwar - KSPCB",28-03-2024 07:00:00,14.816666,74.141003,NH3,1,41,10
India,Karnataka,Karwar,"KHB Colony, Karwar - KSPCB",28-03-2024 07:00:00,14.816666,74.141003,OZONE,20,22,21
India,Karnataka,Kolar,"Tamaka Ind. Area, Kolar - KSPCB",28-03-2024 07:00:00,13.1276288,78.1570122,PM2.5,31,60,51
India,Karnataka,Kolar,"Tamaka Ind. Area, Kolar - KSPCB",28-03-2024 07:00:00,13.1276288,78.1570122,CO,5,56,15
India,Karnataka,Koppal,"Diwator Nagar, Koppal - KSPCB",28-03-2024 07:00:00,15.347630,76.181767,PM2.5,NA,NA,NA
India,Karnataka,Koppal,"Diwator Nagar, Koppal - KSPCB",28-03-2024 07:00:00,15.347630,76.181767,SO2,NA,NA,NA
India,Karnataka,Madikeri,"Stuart Hill, Madikeri - KSPCB",28-03-2024 07:00:00,12.415911,75.735050,PM10,19,60,42
India,Karnataka,Madikeri,"Stuart Hill, Madikeri - KSPCB",28-03-2024 07:00:00,12.415911,75.735050,NO2,3,12,6
India,Karnataka,Madikeri,"Stuart Hill, Madikeri - KSPCB",28-03-2024 07:00:00,12.415911,75.735050,SO2,4,4,4
India,Karnataka,Mangalore,"Kadri, Mangalore - KSPCB",28-03-2024 07:00:00,12.889250,74.853000,PM2.5,34,90,50
India,Karnataka,Mangalore,"Kadri, Mangalore - KSPCB",28-03-2024 07:00:00,12.889250,74.853000,NO2,5,6,6
India,Karnataka,Mysuru,"Hebbal 1st Stage, Mysuru - KSPCB",28-03-2024 07:00:00,12.21041,76.37376,PM10,29,76,53
India,Karnataka,Shivamogga,"Vinoba Nagara, Shivamogga - KSPCB",28-03-2024 07:00:00,13.940000,75.555917,PM10,33,70,60
India,Karnataka,Shivamogga,"Vinoba Nagara, Shivamogga - KSPCB",28-03-2024 07:00:00,13.940000,75.555917,NH3,2,4,3
India,Karnataka,Tumakuru,"Thimmalapura, Tumakuru - KSPCB",28-03-2024 07:00:00,13.377516,77.099072,PM2.5,NA,NA,NA
India,Karnataka,Tumakuru,"Thimmalapura, Tumakuru - KSPCB",28-03-2024 07:00:00,13.377516,77.099072,CO,28,35,31
India,Karnataka,Udupi,"Brahmagiri, Udupi - KSPCB",28-03-2024 07:00:00,13.34194444,74.74694444,PM2.5,31,93,47
India,Karnataka,Udupi,"Brahmagiri, Udupi - KSPCB",28-03-2024 07:00:00,13.34194444,74.74694444,CO,45,50,46
