country,state,city,station,last_update,latitude,longitude,pollutant_id,pollutant_min,pollutant_max,pollutant_avg
India,Andhra_Pradesh,Anantapur,"Gulzarpet, Anantapur - APPCB",24-04-2024 19:00:00,14.675886,77.593027,CO,20,50,31
India,Andhra_Pradesh,Kadapa,"Yerramukkapalli, Kadapa - APPCB",24-04-2024 19:00:00,14.465052,78.824187,NO2,8,9,8
India,Andhra_Pradesh,Rajamahendravaram,"Anand Kala Kshetram, Rajamahendravaram - APPCB",24-04-2024 19:00:00,16.9872867,81.7363176,NO2,3,17,8
India,Andhra_Pradesh,Tirupati,"Tirumala, Tirupati - APPCB",24-04-2024 19:00:00,13.67,79.35,PM10,33,125,67
India,Andhra_Pradesh,Tirupati,"Tirumala, Tirupati - APPCB",24-04-2024 19:00:00,13.67,79.35,SO2,1,15,7
India,Andhra_Pradesh,Vijayawada,"HB Colony, Vijayawada - APPCB",24-04-2024 19:00:00,16.536107,80.594233,SO2,4,5,5
India,Andhra_Pradesh,Vijayawada,"Kanuru, Vijayawada - APPCB",24-04-2024 19:00:00,16.486692,80.699436,PM10,NA,NA,NA
India,Andhra_Pradesh,Vijayawada,"Kanuru, Vijayawada - APPCB",24-04-2024 19:00:00,16.486692,80.699436,NH3,NA,NA,NA
India,Andhra_Pradesh,Vijayawada,"Rajiv Gandhi Park, Vijayawada - APPCB",24-04-2024 19:00:00,16.509717,80.612222,PM10,26,81,48
India,Andhra_Pradesh,Vijayawada,"Rajiv Gandhi Park, Vijayawada - APPCB",24-04-2024 19:00:00,16.509717,80.612222,SO2,4,24,9
India,Andhra_Pradesh,Vijayawada,"Rajiv Nagar, Vijayawada - APPCB",24-04-2024 19:00:00,16.554731,80.649110,PM2.5,44,51,46
India,Andhra_Pradesh,Vijayawada,"Rajiv Nagar, Vijayawada - APPCB",24-04-2024 19:00:00,16.554731,80.649110,CO,40,40,40
India,Andhra_Pradesh,Visakhapatnam,"GVM Corporation, Visakhapatnam - APPCB",24-04-2024 19:00:00,17.72,83.3,NO2,28,82,52
India,Arunachal_Pradesh,Naharlagun,"Naharlagun, Naharlagun - APSPCB",24-04-2024 19:00:00,27.103358,93.679645,CO,8,16,12
India,Arunachal_Pradesh,Naharlagun,"Naharlagun, Naharlagun - APSPCB",24-04-2024 19:00:00,27.103358,93.679645,OZONE,2,2,2
India,Assam,Byrnihat,"Central Academy for SFS, Byrnihat - PCBA",24-04-2024 19:00:00,26.071318,91.87488,PM10,NA,NA,NA
India,Assam,Byrnihat,"Central Academy for SFS, Byrnihat - PCBA",24-04-2024 19:00:00,26.071318,91.87488,NH3,NA,NA,NA
India,Assam,Nagaon,"Christianpatty, Nagaon - PCBA",24-04-2024 19:00:00,26.349082,92.68449,PM10,83,138,105
India,Assam,Nagaon,"Christianpatty, Nagaon - PCBA",24-04-2024 19:00:00,26.349082,92.68449,NO2,3,49,15
India,Assam,Nalbari,"Bata Chowk, Nalbari - PCBA",24-04-2024 19:00:00,26.446912,91.439057,NO2,12,52,22
India,Assam,Nalbari,"Bata Chowk, Nalbari - PCBA",24-04-2024 19:00:00,26.446912,91.439057,NH3,1,1,1
India,Bihar,Araria,"Kharahiya Basti, Araria - BSPCB",24-04-2024 19:00:00,26.146529,87.454184,PM2.5,50,95,71
India,Bihar,Arrah,"New DM Office, Arrah - BSPCB",24-04-2024 19:00:00,25.5626095,84.663264,NH3,2,6,3
India,Bihar,Bettiah,"Kamalnath Nagar, Bettiah - BSPCB",24-04-2024 19:00:00,26.80365,84.51954,NH3,3,7,5
India,Bihar,Bettiah,"Kamalnath Nagar, Bettiah - BSPCB",24-04-2024 19:00:00,26.80365,84.51954,OZONE,3,20,17
India,Bihar,Bhagalpur,"DM Office_Kachari Chowk, Bhagalpur - BSPCB",24-04-2024 19:00:00,25.251013,86.989001,NO2,50,101,78
India,Bihar,Bhagalpur,"Mayaganj, Bhagalpur - BSPCB",24-04-2024 19:00:00,25.265194,87.012947,PM10,21,75,47
India,Bihar,Bhagalpur,"Mayaganj, Bhagalpur - BSPCB",24-04-2024 19:00:00,25.265194,87.012947,NO2,3,12,7
India,Bihar,Bihar Sharif,"D M Colony, Bihar Sharif - BSPCB",24-04-2024 19:00:00,25.204762,85.514960,PM10,14,98,54
India,Bihar,Bihar Sharif,"D M Colony, Bihar Sharif - BSPCB",24-04-2024 19:00:00,25.204762,85.514960,CO,50,68,54
India,Bihar,Chhapra,"Darshan Nagar, Chhapra - BSPCB",24-04-2024 19:00:00,25.7808257,84.7446768,NH3,8,15,11
India,Bihar,Chhapra,"Darshan Nagar, Chhapra - BSPCB",24-04-2024 19:00:00,25.7808257,84.7446768,CO,36,72,54
India,Bihar,Chhapra,"Darshan Nagar, Chhapra - BSPCB",24-04-2024 19:00:00,25.7808257,84.7446768,OZONE,1,6,2
India,Bihar,Gaya,"Collectorate, Gaya - BSPCB",24-04-2024 19:00:00,24.7955,84.9994,SO2,5,17,11
India,Bihar,Gaya,"Kareemganj, Gaya - BSPCB",24-04-2024 19:00:00,24.792403,84.992416,NH3,2,5,4
India,Bihar,Gaya,"Kareemganj, Gaya - BSPCB",24-04-2024 19:00:00,24.792403,84.992416,CO,11,23,17
India,Bihar,Gaya,"SFTI Kusdihra, Gaya - BSPCB",24-04-2024 19:00:00,24.762518,84.982348,PM2.5,17,82,46
India,Bihar,Gaya,"SFTI Kusdihra, Gaya - BSPCB",24-04-2024 19:00:00,24.762518,84.982348,SO2,8,10,8
India,Bihar,Hajipur,"Industrial Area, Hajipur - BSPCB",24-04-2024 19:00:00,25.697189,85.245900,PM10,128,366,207
India,Bihar,Hajipur,"Industrial Area, Hajipur - BSPCB",24-04-2024 19:00:00,25.697189,85.245900,SO2,7,13,7
India,Bihar,Katihar,"Mirchaibari, Katihar - BSPCB",24-04-2024 19:00:00,25.560083,87.553265,PM10,53,183,114
India,Bihar,Kishanganj,"SDM Office_Khagra, Kishanganj - BSPCB",24-04-2024 19:00:00,26.0881305,87.93840336,PM10,140,316,178
India,Bihar,Kishanganj,"SDM Office_Khagra, Kishanganj - BSPCB",24-04-2024 19:00:00,26.0881305,87.93840336,SO2,NA,NA,NA
India,Bihar,Kishanganj,"SDM Office_Khagra, Kishanganj - BSPCB",24-04-2024 19:00:00,26.0881305,87.93840336,OZONE,57,66,57
India,Bihar,Munger,"Town Hall, Munger - BSPCB",24-04-2024 19:00:00,25.376776,86.471523,PM2.5,30,157,85
India,Bihar,Munger,"Town Hall, Munger - BSPCB",24-04-2024 19:00:00,25.376776,86.471523,NO2,6,8,8
India,Bihar,Muzaffarpur,"Buddha Colony, Muzaffarpur - BSPCB",24-04-2024 19:00:00,26.11442,85.39813,NO2,26,69,37
India,Bihar,Muzaffarpur,"Buddha Colony, Muzaffarpur - BSPCB",24-04-2024 19:00:00,26.11442,85.39813,SO2,5,16,9
India,Bihar,Muzaffarpur,"MIT-Daudpur Kothi, Muzaffarpur - BSPCB",24-04-2024 19:00:00,26.1403345,85.3650192,OZONE,18,51,39
India,Bihar,Muzaffarpur,"Muzaffarpur Collectorate, Muzaffarpur - BSPCB",24-04-2024 19:00:00,26.1209,85.3647,PM2.5,59,127,89
India,Bihar,Muzaffarpur,"Muzaffarpur Collectorate, Muzaffarpur - BSPCB",24-04-2024 19:00:00,26.1209,85.3647,CO,21,83,56
India,Bihar,Patna,"DRM Office Danapur, Patna - BSPCB",24-04-2024 19:00:00,25.586562,85.043586,PM10,106,164,124
India,Bihar,Patna,"DRM Office Danapur, Patna - BSPCB",24-04-2024 19:00:00,25.586562,85.043586,NO2,7,103,36
India,Bihar,Patna,"IGSC Planetarium Complex, Patna - BSPCB",24-04-2024 19:00:00,25.610369,85.132568,NO2,11,12,11
India,Bihar,Patna,"IGSC Planetarium Complex, Patna - BSPCB",24-04-2024 19:00:00,25.610369,85.132568,SO2,5,5,5
India,Bihar,Patna,"IGSC Planetarium Complex, Patna - BSPCB",24-04-2024 19:00:00,25.610369,85.132568,CO,12,13,12
India,Bihar,Patna,"Muradpur, Patna - BSPCB",24-04-2024 19:00:00,25.619651,85.147382,OZONE,3,85,79
India,Bihar,Patna,"Rajbansi Nagar, Patna - BSPCB",24-04-2024 19:00:00,25.599486,85.113666,PM10,122,173,144
India,Bihar,Purnia,"Mariam Nagar, Purnia - BSPCB",24-04-2024 19:00:00,25.366336,87.117468,PM2.5,5,92,37
India,Bihar,Purnia,"Mariam Nagar, Purnia - BSPCB",24-04-2024 19:00:00,25.366336,87.117468,NO2,5,11,8
India,Bihar,Purnia,"Mariam Nagar, Purnia - BSPCB",24-04-2024 19:00:00,25.366336,87.117468,OZONE,5,23,18
India,Bihar,Rajgir,"Dangi Tola, Rajgir - BSPCB",24-04-2024 19:00:00,25.03280,85.41948,PM2.5,NA,NA,NA
India,Bihar,Saharsa,"Police Line, Saharsa - BSPCB",24-04-2024 19:00:00,25.892357,86.590325,PM2.5,18,72,40
India,Bihar,Saharsa,"Police Line, Saharsa - BSPCB",24-04-2024 19:00:00,25.892357,86.590325,CO,53,56,55
India,Bihar,Samastipur,"DM Office_Kasipur, Samastipur - BSPCB",24-04-2024 19:00:00,25.859655,85.77944,SO2,NA,NA,NA
India,Bihar,Samastipur,"DM Office_Kasipur, Samastipur - BSPCB",24-04-2024 19:00:00,25.859655,85.77944,CO,11,22,20
India,Bihar,Samastipur,"DM Office_Kasipur, Samastipur - BSPCB",24-04-2024 19:00:00,25.859655,85.77944,OZONE,11,20,16
India,Bihar,Sasaram,"Dada Peer, Sasaram - BSPCB",24-04-2024 19:00:00,24.952822,84.002396,PM2.5,7,48,26
India,Bihar,Sasaram,"Dada Peer, Sasaram - BSPCB",24-04-2024 19:00:00,24.952822,84.002396,PM10,37,107,66
India,Bihar,Sasaram,"Dada Peer, Sasaram - BSPCB",24-04-2024 19:00:00,24.952822,84.002396,NO2,19,115,54
India,Bihar,Sasaram,"Dada Peer, Sasaram - BSPCB",24-04-2024 19:00:00,24.952822,84.002396,OZONE,1,80,67
India,Bihar,Siwan,"Chitragupta Nagar, Siwan - BSPCB",24-04-2024 19:00:00,26.2271665,84.3570427,NH3,1,4,2
India,Chandigarh,Chandigarh,"Sector 22, Chandigarh - CPCC",24-04-2024 19:00:00,30.735567,76.775714,NH3,4,12,7
India,Chandigarh,Chandigarh,"Sector 22, Chandigarh - CPCC",24-04-2024 19:00:00,30.735567,76.775714,CO,34,80,37
India,Chandigarh,Chandigarh,"Sector-25, Chandigarh - CPCC",24-04-2024 19:00:00,30.751462,76.762879,PM2.5,22,112,65
India,Chandigarh,Chandigarh,"Sector-53, Chandigarh - CPCC",24-04-2024 19:00:00,30.719859,76.738637,NO2,14,111,55
India,Chhattisgarh,Bhilai,"32Bungalows, Bhilai - CECB",24-04-2024 19:00:00,21.194815,81.314770,NH3,6,7,6
India,Chhattisgarh,Bhilai,"32Bungalows, Bhilai - CECB",24-04-2024 19:00:00,21.194815,81.314770,CO,14,44,17
India,Chhattisgarh,Bhilai,"Civic Center, Bhilai - Bhilai Steel Plant",24-04-2024 19:00:00,21.185571,81.343175,NH3,3,5,5
India,Chhattisgarh,Bhilai,"Hathkhoj, Bhilai - CECB",24-04-2024 19:00:00,21.224231,81.408350,PM10,28,199,82
India,Chhattisgarh,Bhilai,"Hathkhoj, Bhilai - CECB",24-04-2024 19:00:00,21.224231,81.408350,NO2,13,54,26
India,Chhattisgarh,Bhilai,"Hathkhoj, Bhilai - CECB",24-04-2024 19:00:00,21.224231,81.408350,SO2,11,26,18
India,Chhattisgarh,Bhilai,"Hathkhoj, Bhilai - CECB",24-04-2024 19:00:00,21.224231,81.408350,CO,10,108,21
India,Chhattisgarh,Bhilai,"Hathkhoj, Bhilai - CECB",24-04-2024 19:00:00,21.224231,81.408350,OZONE,14,30,26
India,Chhattisgarh,Bilaspur,"Mangala, Bilaspur - NTPC",24-04-2024 19:00:00,22.08815,82.13737,NO2,NA,NA,NA
India,Chhattisgarh,Chhal,"Nawapara SECL Colony, Chhal - CECB",24-04-2024 19:00:00,22.118125,83.140608,PM10,30,74,48
India,Chhattisgarh,Chhal,"Nawapara SECL Colony, Chhal - CECB",24-04-2024 19:00:00,22.118125,83.140608,OZONE,16,96,84
India,Chhattisgarh,Korba,"Rampur, Korba - CECB",24-04-2024 19:00:00,22.368195,82.746431,PM10,43,69,54
India,Chhattisgarh,Korba,"Rampur, Korba - CECB",24-04-2024 19:00:00,22.368195,82.746431,NH3,1,1,1
India,Chhattisgarh,Raipur,"AIIMS, Raipur - CECB",24-04-2024 19:00:00,21.258815,81.578979,NO2,NA,NA,NA
India,Chhattisgarh,Raipur,"AIIMS, Raipur - CECB",24-04-2024 19:00:00,21.258815,81.578979,CO,22,82,32
India,Chhattisgarh,Raipur,"AIIMS, Raipur - CECB",24-04-2024 19:00:00,21.258815,81.578979,OZONE,2,22,18
India,Chhattisgarh,Raipur,"Krishak Nagar, Raipur - CECB",24-04-2024 19:00:00,21.237755,81.705301,PM2.5,15,33,22
India,Chhattisgarh,Raipur,"Krishak Nagar, Raipur - CECB",24-04-2024 19:00:00,21.237755,81.705301,NH3,NA,NA,NA
India,Chhattisgarh,Raipur,"Krishak Nagar, Raipur - CECB",24-04-2024 19:00:00,21.237755,81.705301,SO2,11,34,20
India,Chhattisgarh,Raipur,"Siltara Phase-II, Raipur - CECB",24-04-2024 19:00:00,21.371751,81.664929,NO2,28,84,43
India,Chhattisgarh,Raipur,"Siltara Phase-II, Raipur - CECB",24-04-2024 19:00:00,21.371751,81.664929,NH3,3,3,3
India,Chhattisgarh,Raipur,"Siltara Phase-II, Raipur - CECB",24-04-2024 19:00:00,21.371751,81.664929,CO,16,54,24
India,Chhattisgarh,Tumidih,"OP Jindal Industrial Park, Tumidih - CECB",24-04-2024 19:00:00,22.06631475,83.33820077,NO2,11,53,29
India,Chhattisgarh,Tumidih,"OP Jindal Industrial Park, Tumidih - CECB",24-04-2024 19:00:00,22.06631475,83.33820077,NH3,1,2,1
India,Delhi,Delhi,"Alipur, Delhi - DPCC",24-04-2024 19:00:00,28.815329,77.153010,NH3,4,11,7
India,Delhi,Delhi,"Anand Vihar, Delhi - DPCC",24-04-2024 19:00:00,28.647622,77.3158090,CO,48,107,53
India,Delhi,Delhi,"Ashok Vihar, Delhi - DPCC",24-04-2024 19:00:00,28.695381,77.181665,NH3,10,20,14
India,Delhi,Delhi,"Aya Nagar, Delhi - IMD",24-04-2024 19:00:00,28.4706914,77.1099364,PM2.5,62,231,144
India,Delhi,Delhi,"Aya Nagar, Delhi - IMD",24-04-2024 19:00:00,28.4706914,77.1099364,PM10,46,486,132
India,Delhi,Delhi,"Bawana, Delhi - DPCC",24-04-2024 19:00:00,28.776200,77.051074,NO2,10,100,50
India,Delhi,Delhi,"Burari Crossing, Delhi - IMD",24-04-2024 19:00:00,28.7256504,77.2011573,NO2,10,15,13
India,Delhi,Delhi,"Burari Crossing, Delhi - IMD",24-04-2024 19:00:00,28.7256504,77.2011573,OZONE,6,84,70
India,Delhi,Delhi,"Chandni Chowk, Delhi - IITM",24-04-2024 19:00:00,28.656756,77.227234,SO2,20,58,38
India,Delhi,Delhi,"Chandni Chowk, Delhi - IITM",24-04-2024 19:00:00,28.656756,77.227234,OZONE,3,27,20
India,Delhi,Delhi,"DTU, Delhi - CPCB",24-04-2024 19:00:00,28.7500499,77.1112615,PM2.5,41,478,195
India,Delhi,Delhi,"Dr. Karni Singh Shooting Range, Delhi - DPCC",24-04-2024 19:00:00,28.498571,77.264840,PM10,68,165,116
India,Delhi,Delhi,"Dr. Karni Singh Shooting Range, Delhi - DPCC",24-04-2024 19:00:00,28.498571,77.264840,SO2,12,29,18
India,Delhi,Delhi,"Dwarka-Sector 8, Delhi - DPCC ",24-04-2024 19:00:00,28.5710274,77.0719006,NO2,NA,NA,NA
India,Delhi,Delhi,"Dwarka-Sector 8, Delhi - DPCC ",24-04-2024 19:00:00,28.5710274,77.0719006,NH3,NA,NA,NA
India,Delhi,Delhi,"IGI Airport (T3), Delhi - IMD",24-04-2024 19:00:00,28.5627763,77.1180053,CO,30,74,37
India,Delhi,Delhi,"ITO, Delhi - CPCB",24-04-2024 19:00:00,28.628624,77.241060,SO2,8,25,15
India,Delhi,Delhi,"ITO, Delhi - CPCB",24-04-2024 19:00:00,28.628624,77.241060,OZONE,7,84,67
India,Delhi,Delhi,"Jahangirpuri, Delhi - DPCC",24-04-2024 19:00:00,28.732820,77.170633,OZONE,4,131,91
India,Delhi,Delhi,"Lodhi Road, Delhi - IITM",24-04-2024 19:00:00,28.588333,77.221667,PM2.5,NA,NA,NA
India,Delhi,Delhi,"Mandir Marg, Delhi - DPCC",24-04-2024 19:00:00,28.636429,77.201067,PM2.5,20,210,82
India,Delhi,Delhi,"Mundka, Delhi - DPCC",24-04-2024 19:00:00,28.684678,77.076574,NH3,4,12,6
India,Delhi,Delhi,"Mundka, Delhi - DPCC",24-04-2024 19:00:00,28.684678,77.076574,SO2,7,45,19
India,Delhi,Delhi,"Mundka, Delhi - DPCC",24-04-2024 19:00:00,28.684678,77.076574,CO,26,102,36
India,Delhi,Delhi,"Mundka, Delhi - DPCC",24-04-2024 19:00:00,28.684678,77.076574,OZONE,10,173,115
India,Delhi,Delhi,"NSIT Dwarka, Delhi - CPCB",24-04-2024 19:00:00,28.60909,77.0325413,PM2.5,42,363,167
India,Delhi,Delhi,"Najafgarh, Delhi - DPCC",24-04-2024 19:00:00,28.570173,76.933762,PM2.5,12,386,143
India,Delhi,Delhi,"Narela, Delhi - DPCC",24-04-2024 19:00:00,28.822836,77.101981,OZONE,4,181,161
India,Delhi,Delhi,"Okhla Phase-2, Delhi - DPCC",24-04-2024 19:00:00,28.530785,77.271255,PM10,84,295,148
India,Delhi,Delhi,"Okhla Phase-2, Delhi - DPCC",24-04-2024 19:00:00,28.530785,77.271255,NO2,46,111,81
India,Delhi,Delhi,"Okhla Phase-2, Delhi - DPCC",24-04-2024 19:00:00,28.530785,77.271255,OZONE,8,138,97
India,Delhi,Delhi,"Patparganj, Delhi - DPCC",24-04-2024 19:00:00,28.623763,77.287209,PM2.5,23,197,73
India,Delhi,Delhi,"Patparganj, Delhi - DPCC",24-04-2024 19:00:00,28.623763,77.287209,OZONE,5,157,111
India,Delhi,Delhi,"Punjabi Bagh, Delhi - DPCC",24-04-2024 19:00:00,28.674045,77.131023,SO2,17,53,35
India,Delhi,Delhi,"Pusa, Delhi - DPCC",24-04-2024 19:00:00,28.639652,77.146275,SO2,4,47,15
India,Delhi,Delhi,"Pusa, Delhi - IMD",24-04-2024 19:00:00,28.636110,77.173332,PM2.5,13,347,193
India,Delhi,Delhi,"Pusa, Delhi - IMD",24-04-2024 19:00:00,28.636110,77.173332,NO2,5,48,29
India,Delhi,Delhi,"R K Puram, Delhi - DPCC",24-04-2024 19:00:00,28.563262,77.186937,PM10,45,220,121
India,Delhi,Delhi,"R K Puram, Delhi - DPCC",24-04-2024 19:00:00,28.563262,77.186937,NO2,11,69,34
India,Delhi,Delhi,"R K Puram, Delhi - DPCC",24-04-2024 19:00:00,28.563262,77.186937,SO2,7,49,26
India,Delhi,Delhi,"Shadipur, Delhi - CPCB",24-04-2024 19:00:00,28.6514781,77.1473105,PM10,106,232,163
India,Delhi,Delhi,"Shadipur, Delhi - CPCB",24-04-2024 19:00:00,28.6514781,77.1473105,SO2,9,36,18
India,Delhi,Delhi,"Sirifort, Delhi - CPCB",24-04-2024 19:00:00,28.5504249,77.2159377,OZONE,12,111,74
India,Delhi,Delhi,"Sonia Vihar, Delhi - DPCC",24-04-2024 19:00:00,28.710508,77.249485,PM2.5,17,341,128
India,Delhi,Delhi,"Sri Aurobindo Marg, Delhi - DPCC",24-04-2024 19:00:00,28.531346,77.190156,PM10,77,173,109
India,Delhi,Delhi,"Sri Aurobindo Marg, Delhi - DPCC",24-04-2024 19:00:00,28.531346,77.190156,NO2,9,95,36
India,Delhi,Delhi,"Sri Aurobindo Marg, Delhi - DPCC",24-04-2024 19:00:00,28.531346,77.190156,CO,4,50,10
India,Gujarat,Ahmedabad,"Gyaspur, Ahmedabad - IITM",24-04-2024 19:00:00,22.977134,72.553024,PM10,69,163,95
India,Gujarat,Ahmedabad,"Maninagar, Ahmedabad - GPCB",24-04-2024 19:00:00,23.002657,72.591912,SO2,NA,NA,NA
India,Gujarat,Ahmedabad,"Raikhad, Ahmedabad - IITM",24-04-2024 19:00:00,23.020509,72.579261,NH3,5,6,5
India,Gujarat,Ahmedabad,"Rakhial, Ahmedabad - IITM",24-04-2024 19:00:00,23.016834,72.625775,OZONE,14,58,43
India,Gujarat,Ahmedabad,"SAC ISRO Satellite, Ahmedabad - IITM",24-04-2024 19:00:00,23.023389,72.515201,PM10,92,93,92
India,Gujarat,Ahmedabad,"SAC ISRO Satellite, Ahmedabad - IITM",24-04-2024 19:00:00,23.023389,72.515201,NO2,17,17,17
India,Gujarat,Ahmedabad,"SVPI Airport Hansol, Ahmedabad - IITM",24-04-2024 19:00:00,23.076793,72.627874,PM2.5,75,246,140
India,Gujarat,Ahmedabad,"Sardar Vallabhbhai Patel Stadium, Ahmedabad - IITM",24-04-2024 19:00:00,23.043070,72.562968,PM2.5,59,158,98
India,Gujarat,Ahmedabad,"Sardar Vallabhbhai Patel Stadium, Ahmedabad - IITM",24-04-2024 19:00:00,23.043070,72.562968,NH3,8,9,9
India,Gujarat,Ankleshwar,"GIDC, Ankleshwar - GPCB",24-04-2024 19:00:00,21.613267,73.010555,PM10,60,91,75
India,Gujarat,Gandhinagar,"IIPHG Lekawada, Gandhinagar - IITM",24-04-2024 19:00:00,23.243639,72.68994,PM10,NA,NA,NA
India,Gujarat,Vapi,"Phase-1 GIDC, Vapi - GPCB",24-04-2024 19:00:00,20.362421,72.918013,NO2,6,8,7
India,Gujarat,Vapi,"Phase-1 GIDC, Vapi - GPCB",24-04-2024 19:00:00,20.362421,72.918013,SO2,51,54,53
India,Gujarat,Vapi,"Phase-1 GIDC, Vapi - GPCB",24-04-2024 19:00:00,20.362421,72.918013,OZONE,9,16,14
India,Haryana,Ambala,"Patti Mehar, Ambala - HSPCB",24-04-2024 19:00:00,30.379589,76.778328,PM10,29,98,59
India,Haryana,Bhiwani,"H.B. Colony, Bhiwani - HSPCB",24-04-2024 19:00:00,28.806223,76.141105,PM10,49,121,83
India,Haryana,Charkhi Dadri,"Mini Secretariat, Charkhi Dadri - HSPCB",24-04-2024 19:00:00,28.593883,76.270653,CO,18,82,27
India,Haryana,Dharuhera,"Municipal Corporation Office, Dharuhera -  HSPCB",24-04-2024 19:00:00,28.206800,76.799700,NH3,9,26,18
India,Haryana,Dharuhera,"Municipal Corporation Office, Dharuhera -  HSPCB",24-04-2024 19:00:00,28.206800,76.799700,SO2,6,83,19
India,Haryana,Faridabad,"New Industrial Town, Faridabad - HSPCB",24-04-2024 19:00:00,28.39072,77.30059,OZONE,1,224,224
India,Haryana,Faridabad,"Sector 11, Faridabad - HSPCB",24-04-2024 19:00:00,28.376058,77.315741,NH3,6,6,6
India,Haryana,Faridabad,"Sector 11, Faridabad - HSPCB",24-04-2024 19:00:00,28.376058,77.315741,OZONE,3,10,9
India,Haryana,Faridabad,"Sector 30, Faridabad - HSPCB",24-04-2024 19:00:00,28.4417,77.3217,CO,18,62,45
India,Haryana,Faridabad,"Sector- 16A, Faridabad - HSPCB",24-04-2024 19:00:00,28.4088421,77.3099081,NO2,NA,NA,NA
India,Haryana,Fatehabad,"Huda Sector, Fatehabad - HSPCB",24-04-2024 19:00:00,29.503664,75.467934,PM10,52,115,96
India,Haryana,Fatehabad,"Huda Sector, Fatehabad - HSPCB",24-04-2024 19:00:00,29.503664,75.467934,NH3,9,11,10
India,Haryana,Gurugram,"Sector-51, Gurugram - HSPCB",24-04-2024 19:00:00,28.4227,77.0667,NO2,13,29,23
India,Haryana,Gurugram,"Sector-51, Gurugram - HSPCB",24-04-2024 19:00:00,28.4227,77.0667,OZONE,27,67,56
India,Haryana,Gurugram,"Teri Gram, Gurugram - HSPCB",24-04-2024 19:00:00,28.4275,77.1465,PM10,86,221,165
India,Haryana,Gurugram,"Vikas Sadan, Gurugram - HSPCB",24-04-2024 19:00:00,28.4501238,77.0263051,SO2,7,46,30
India,Haryana,Gurugram,"Vikas Sadan, Gurugram - HSPCB",24-04-2024 19:00:00,28.4501238,77.0263051,CO,67,152,117
India,Haryana,Hisar,"Urban Estate-II, Hisar - HSPCB",24-04-2024 19:00:00,29.140560,75.744941,NO2,21,31,25
India,Haryana,Hisar,"Urban Estate-II, Hisar - HSPCB",24-04-2024 19:00:00,29.140560,75.744941,SO2,7,101,63
India,Haryana,Jind,"Police Lines, Jind - HSPCB",24-04-2024 19:00:00,29.307814,76.337619,PM2.5,NA,NA,NA
India,Haryana,Kaithal,"Rishi Nagar, Kaithal - HSPCB",24-04-2024 19:00:00,29.8006,76.4155,PM2.5,27,117,59
India,Haryana,Karnal,"Sector-12, Karnal - HSPCB",24-04-2024 19:00:00,29.695300,77.002700,NO2,7,12,10
India,Haryana,Mandikhera,"General Hospital, Mandikhera - HSPCB",24-04-2024 19:00:00,27.9002,76.9938,PM10,44,343,93
India,Haryana,Mandikhera,"General Hospital, Mandikhera - HSPCB",24-04-2024 19:00:00,27.9002,76.9938,OZONE,21,34,28
India,Haryana,Narnaul,"Shastri Nagar, Narnaul - HSPCB",24-04-2024 19:00:00,28.060249,76.113115,NO2,15,89,51
India,Haryana,Narnaul,"Shastri Nagar, Narnaul - HSPCB",24-04-2024 19:00:00,28.060249,76.113115,OZONE,16,61,44
India,Haryana,Palwal,"Shyam Nagar, Palwal - HSPCB",24-04-2024 19:00:00,28.1485564,77.3320667,PM10,38,105,79
India,Haryana,Palwal,"Shyam Nagar, Palwal - HSPCB",24-04-2024 19:00:00,28.1485564,77.3320667,SO2,1,132,14
India,Haryana,Panchkula,"Sector-6, Panchkula - HSPCB ",24-04-2024 19:00:00,30.7057778,76.8531805555555,NO2,9,11,10
India,Haryana,Panchkula,"Sector-6, Panchkula - HSPCB ",24-04-2024 19:00:00,30.7057778,76.8531805555555,OZONE,42,54,49
India,Haryana,Panipat,"Sector-18, Panipat - HSPCB",24-04-2024 19:00:00,29.497973,76.993331,PM10,95,99,97
India,Haryana,Rohtak,"MD University, Rohtak - HSPCB",24-04-2024 19:00:00,28.52123,76.37138,PM2.5,6,324,83
India,Haryana,Sonipat,"Murthal, Sonipat - HSPCB",24-04-2024 19:00:00,29.027200,77.062100,PM2.5,43,44,44
India,Haryana,Yamuna Nagar,"Gobind Pura, Yamuna Nagar - HSPCB",24-04-2024 19:00:00,30.1480566,77.2893471,NO2,11,28,18
India,Haryana,Yamuna Nagar,"Gobind Pura, Yamuna Nagar - HSPCB",24-04-2024 19:00:00,30.1480566,77.2893471,CO,29,108,36
India,Haryana,Yamuna Nagar,"Gobind Pura, Yamuna Nagar - HSPCB",24-04-2024 19:00:00,30.1480566,77.2893471,OZONE,16,34,32
India,Jharkhand,Dhanbad,"Kalakusuma, Dhanbad - DMC",24-04-2024 19:00:00,23.811548,86.481238,PM10,91,111,109
India,Jharkhand,Pathardih,"Mohalbani Ghat, Pathardih - DMC",24-04-2024 19:00:00,23.669880,86.411725,PM10,NA,NA,NA
India,Karnataka,Bagalkot,"Vidayagiri, Bagalkot - KSPCB",24-04-2024 19:00:00,16.172806,75.659694,PM2.5,25,37,36
India,Karnataka,Belgaum,"Ramteerth Nagar, Belgaum - KSPCB",24-04-2024 19:00:00,15.888653,74.541751,PM10,32,78,51
India,Karnataka,Bengaluru,"BTM Layout, Bengaluru - CPCB",24-04-2024 19:00:00,12.9135218,77.5950804,CO,22,28,24
India,Karnataka,Bengaluru,"BTM Layout, Bengaluru - CPCB",24-04-2024 19:00:00,12.9135218,77.5950804,OZONE,14,90,79
India,Karnataka,Bengaluru,"Bapuji Nagar, Bengaluru - KSPCB",24-04-2024 19:00:00,12.951913,77.539784,OZONE,28,37,34
India,Karnataka,Bengaluru,"Hebbal, Bengaluru - KSPCB",24-04-2024 19:00:00,13.029152,77.585901,OZONE,7,22,15
India,Karnataka,Bengaluru,"Hombegowda Nagar, Bengaluru - KSPCB",24-04-2024 19:00:00,12.938539,77.590100,PM2.5,28,66,47
India,Karnataka,Bengaluru,"Hombegowda Nagar, Bengaluru - KSPCB",24-04-2024 19:00:00,12.938539,77.590100,OZONE,8,55,18
India,Karnataka,Bengaluru,"Jayanagar 5th Block, Bengaluru - KSPCB",24-04-2024 19:00:00,12.920984,77.584908,PM2.5,30,114,66
India,Karnataka,Bengaluru,"Jayanagar 5th Block, Bengaluru - KSPCB",24-04-2024 19:00:00,12.920984,77.584908,CO,4,7,6
India,Karnataka,Bengaluru,"Kasturi Nagar, Bengaluru - KSPCB",24-04-2024 19:00:00,13.003872,77.664217,NH3,3,4,4
India,Karnataka,Bengaluru,"Peenya, Bengaluru - CPCB",24-04-2024 19:00:00,13.0270199,77.494094,SO2,9,14,11
India,Karnataka,Bengaluru,"RVCE-Mailasandra, Bengaluru - KSPCB",24-04-2024 19:00:00,12.921418,77.502466,PM2.5,45,97,73
India,Karnataka,Bengaluru,"RVCE-Mailasandra, Bengaluru - KSPCB",24-04-2024 19:00:00,12.921418,77.502466,PM10,70,109,90
India,Karnataka,Bengaluru,"Sanegurava Halli, Bengaluru - KSPCB",24-04-2024 19:00:00,12.990328,77.5431385,CO,6,20,17
India,Karnataka,Bengaluru,"Silk Board, Bengaluru - KSPCB",24-04-2024 19:00:00,12.917348,77.622813,NO2,6,20,10
India,Karnataka,Bengaluru,"Silk Board, Bengaluru - KSPCB",24-04-2024 19:00:00,12.917348,77.622813,SO2,2,16,6
India,Karnataka,Chamarajanagar,"Urban, Chamarajanagar - KSPCB",24-04-2024 19:00:00,11.55358,76.55521,OZONE,19,41,38
India,Karnataka,Chikkaballapur,"Chikkaballapur Rural, Chikkaballapur - KSPCB",24-04-2024 19:00:00,13.428828,77.731418,PM2.5,37,79,55
India,Karnataka,Chikkaballapur,"Chikkaballapur Rural, Chikkaballapur - KSPCB",24-04-2024 19:00:00,13.428828,77.731418,CO,14,40,26
India,Karnataka,Chikkamagaluru,"Kalyana Nagara, Chikkamagaluru - KSPCB",24-04-2024 19:00:00,13.328028,75.797056,PM10,38,125,60
India,Karnataka,Dharwad,"Kalabhavan, Dharwad - KSPCB",24-04-2024 19:00:00,15.459706,75.008381,NO2,9,32,17
India,Karnataka,Gadag,"Panchal Nagar, Gadag - KSPCB",24-04-2024 19:00:00,15.411456,75.638133,PM2.5,15,398,46
India,Karnataka,Hassan,"B.Katihalli, Hassan - KSPCB",24-04-2024 19:00:00,13.008556,76.125258,PM2.5,NA,NA,NA
India,Karnataka,Hassan,"B.Katihalli, Hassan - KSPCB",24-04-2024 19:00:00,13.008556,76.125258,PM10,NA,NA,NA
India,Karnataka,Hassan,"B.Katihalli, Hassan - KSPCB",24-04-2024 19:00:00,13.008556,76.125258,NO2,NA,NA,NA
India,Karnataka,Hassan,"B.Katihalli, Hassan - KSPCB",24-04-2024 19:00:00,13.008556,76.125258,SO2,NA,NA,NA
India,Karnataka,Hassan,"B.Katihalli, Hassan - KSPCB",24-04-2024 19:00:00,13.008556,76.125258,CO,12,18,15
India,Karnataka,Haveri,"Ashwini Nagar, Haveri - KSPCB",24-04-2024 19:00:00,14.791800,75.389600,SO2,13,14,14
India,Karnataka,Hubballi,"Lingaraj Nagar, Hubballi - KSPCB",24-04-2024 19:00:00,15.3714823,75.1160168,PM2.5,6,53,35
India,Karnataka,Hubballi,"Lingaraj Nagar, Hubballi - KSPCB",24-04-2024 19:00:00,15.3714823,75.1160168,OZONE,37,81,68
India,Karnataka,Kalaburagi,"Lal Bahadur Shastri Nagar, Kalaburagi - KSPCB",24-04-2024 19:00:00,17.321993,76.822628,NH3,2,2,2
India,Karnataka,Kalaburagi,"Lal Bahadur Shastri Nagar, Kalaburagi - KSPCB",24-04-2024 19:00:00,17.321993,76.822628,SO2,19,21,21
India,Karnataka,Karwar,"KHB Colony, Karwar - KSPCB",24-04-2024 19:00:00,14.816666,74.141003,NH3,NA,NA,NA
India,Karnataka,Kolar,"Tamaka Ind. Area, Kolar - KSPCB",24-04-2024 19:00:00,13.1276288,78.1570122,SO2,NA,NA,NA
India,Karnataka,Koppal,"Diwator Nagar, Koppal - KSPCB",24-04-2024 19:00:00,15.347630,76.181767,OZONE,50,143,100
India,Karnataka,Mangalore,"Kadri, Mangalore - KSPCB",24-04-2024 19:00:00,12.889250,74.853000,CO,32,38,37
India,Karnataka,Mysuru,"Hebbal 1st Stage, Mysuru - KSPCB",24-04-2024 19:00:00,12.21041,76.37376,PM10,35,70,54
India,Karnataka,Raichur,"Haji Colony, Raichur - KSPCB",24-04-2024 19:00:00,16.208139,77.348417,NO2,24,55,35
India,Karnataka,Raichur,"Haji Colony, Raichur - KSPCB",24-04-2024 19:00:00,16.208139,77.348417,NH3,1,2,1
India,Karnataka,Ramanagara,"Vijay Nagar, Ramanagara - KSPCB",24-04-2024 19:00:00,12.733409,77.298051,CO,8,34,17
India,Karnataka,Tumakuru,"Thimmalapura, Tumakuru - KSPCB",24-04-2024 19:00:00,13.377516,77.099072,NO2,NA,NA,NA
India,Karnataka,Tumakuru,"Thimmalapura, Tumakuru - KSPCB",24-04-2024 19:00:00,13.377516,77.099072,NH3,NA,NA,NA
India,Karnataka,Vijayapura,"Ibrahimpur, Vijayapura - KSPCB",24-04-2024 19:00:00,16.802639,75.722694,NO2,17,19,19
India,Karnataka,Vijayapura,"Ibrahimpur, Vijayapura - KSPCB",24-04-2024 19:00:00,16.802639,75.722694,NH3,2,2,2
India,Karnataka,Yadgir,"Collector Office, Yadgir - KSPCB",24-04-2024 19:00:00,16.7602,77.1428,NO2,5,7,6
India,Kerala,Eloor,"Udyogamandal, Eloor - Kerala PCB",24-04-2024 19:00:00,10.073232,76.302765,CO,8,86,68
India,Kerala,Kannur,"Thavakkara, Kannur - Kerala PCB",24-04-2024 19:00:00,11.875000,75.373200,NH3,1,1,1
India,Kerala,Kannur,"Thavakkara, Kannur - Kerala PCB",24-04-2024 19:00:00,11.875000,75.373200,OZONE,31,37,34
India,Kerala,Kollam,"Polayathode, Kollam - Kerala PCB",24-04-2024 19:00:00,8.8787,76.6073,NO2,8,9,8
India,Kerala,Thiruvananthapuram,"Kariavattom, Thiruvananthapuram - Kerala PCB",24-04-2024 19:00:00,8.563700,76.886500,PM2.5,77,88,82
India,Kerala,Thiruvananthapuram,"Kariavattom, Thiruvananthapuram - Kerala PCB",24-04-2024 19:00:00,8.563700,76.886500,SO2,1,14,7
India,Kerala,Thiruvananthapuram,"Plammoodu, Thiruvananthapuram - Kerala PCB",24-04-2024 19:00:00,8.5149093,76.9435879,NO2,8,11,9
India,Kerala,Thrissur,"Corporation Ground, Thrissur - Kerala PCB",24-04-2024 19:00:00,10.532400,76.215900,PM10,60,69,64
India,Kerala,Thrissur,"Corporation Ground, Thrissur - Kerala PCB",24-04-2024 19:00:00,10.532400,76.215900,NH3,NA,NA,NA
India,Madhya Pradesh,Bhopal,"Idgah Hills, Bhopal - MPPCB",24-04-2024 19:00:00,23.264759,77.381568,SO2,14,23,18
India,Madhya Pradesh,Bhopal,"Paryavaran Parisar, Bhopal - MPPCB",24-04-2024 19:00:00,23.210494,77.425409,SO2,7,12,8
India,Madhya Pradesh,Bhopal,"Paryavaran Parisar, Bhopal - MPPCB",24-04-2024 19:00:00,23.210494,77.425409,CO,6,74,22
India,Madhya Pradesh,Dewas,"Bhopal Chauraha, Dewas - MPPCB",24-04-2024 19:00:00,22.9682591,76.064118,NH3,3,3,3
India,Madhya Pradesh,Dewas,"Bhopal Chauraha, Dewas - MPPCB",24-04-2024 19:00:00,22.9682591,76.064118,CO,12,38,16
India,Madhya Pradesh,Gwalior,"City Center, Gwalior - MPPCB",24-04-2024 19:00:00,26.203442,78.193251,PM10,52,219,105
India,Madhya Pradesh,Gwalior,"Deen Dayal Nagar, Gwalior - MPPCB",24-04-2024 19:00:00,26.259242,78.216432,SO2,12,25,19
India,Madhya Pradesh,Gwalior,"Deen Dayal Nagar, Gwalior - MPPCB",24-04-2024 19:00:00,26.259242,78.216432,OZONE,47,176,169
India,Madhya Pradesh,Gwalior,"Maharaj Bada, Gwalior - MPPCB",24-04-2024 19:00:00,26.200388,78.147714,NH3,2,22,5
India,Madhya Pradesh,Gwalior,"Phool Bagh, Gwalior - Mondelez Ind. Food",24-04-2024 19:00:00,26.210536,78.171,PM2.5,15,56,37
India,Madhya Pradesh,Indore,"Chhoti Gwaltoli, Indore - MPPCB",24-04-2024 19:00:00,22.4310,75.5213,OZONE,23,102,84
India,Madhya Pradesh,Indore,"Maguda Nagar, Indore - IMC",24-04-2024 19:00:00,22.7524,75.8872,SO2,NA,NA,NA
India,Madhya Pradesh,Indore,"Regional Park, Indore - IMC",24-04-2024 19:00:00,22.6780,75.8559,NH3,1,4,2
India,Madhya Pradesh,Indore,"Regional Park, Indore - IMC",24-04-2024 19:00:00,22.6780,75.8559,SO2,NA,NA,NA
India,Madhya Pradesh,Indore,"Regional Park, Indore - IMC",24-04-2024 19:00:00,22.6780,75.8559,CO,16,39,21
India,Madhya Pradesh,Indore,"Regional Park, Indore - IMC",24-04-2024 19:00:00,22.6780,75.8559,OZONE,10,23,21
India,Madhya Pradesh,Indore,"Residency Area, Indore - IMC",24-04-2024 19:00:00,22.7084,75.8815,PM10,32,112,58
India,Madhya Pradesh,Indore,"Residency Area, Indore - IMC",24-04-2024 19:00:00,22.7084,75.8815,OZONE,10,20,18
India,Madhya Pradesh,Jabalpur,"Marhatal, Jabalpur - MPPCB",24-04-2024 19:00:00,23.168606,79.932247,PM2.5,17,46,32
India,Madhya Pradesh,Jabalpur,"Marhatal, Jabalpur - MPPCB",24-04-2024 19:00:00,23.168606,79.932247,CO,31,62,51
India,Madhya Pradesh,Jabalpur,"Suhagi, Jabalpur - JMC",24-04-2024 19:00:00,23.218135,79.957770,PM2.5,23,52,36
India,Madhya Pradesh,Katni,"Gole Bazar, Katni - MPPCB",24-04-2024 19:00:00,23.50016,80.23284,PM2.5,27,70,44
India,Madhya Pradesh,Maihar,"Sahilara, Maihar - KJS Cements",24-04-2024 19:00:00,24.2613009,80.7231783,PM2.5,10,62,28
India,Madhya Pradesh,Maihar,"Sahilara, Maihar - KJS Cements",24-04-2024 19:00:00,24.2613009,80.7231783,PM10,13,76,42
India,Madhya Pradesh,Mandideep,"Sector-D Industrial Area, Mandideep - MPPCB",24-04-2024 19:00:00,23.108440,77.511428,PM2.5,22,120,44
India,Madhya Pradesh,Mandideep,"Sector-D Industrial Area, Mandideep - MPPCB",24-04-2024 19:00:00,23.108440,77.511428,NH3,6,11,8
India,Madhya Pradesh,Pithampur,"Sector-2 Industrial Area, Pithampur - MPPCB",24-04-2024 19:00:00,22.624758,75.675238,PM2.5,6,106,41
India,Madhya Pradesh,Pithampur,"Sector-2 Industrial Area, Pithampur - MPPCB",24-04-2024 19:00:00,22.624758,75.675238,PM10,53,153,99
India,Madhya Pradesh,Pithampur,"Sector-2 Industrial Area, Pithampur - MPPCB",24-04-2024 19:00:00,22.624758,75.675238,NH3,2,3,2
India,Madhya Pradesh,Pithampur,"Sector-2 Industrial Area, Pithampur - MPPCB",24-04-2024 19:00:00,22.624758,75.675238,OZONE,20,58,54
India,Madhya Pradesh,Sagar,"Deen Dayal Nagar, Sagar - MPPCB",24-04-2024 19:00:00,23.8640158,78.80289321,NO2,18,24,23
India,Madhya Pradesh,Sagar,"Deen Dayal Nagar, Sagar - MPPCB",24-04-2024 19:00:00,23.8640158,78.80289321,CO,11,106,81
India,Madhya Pradesh,Singrauli,"Suryakiran Bhawan NCL, Singrauli - MPPCB",24-04-2024 19:00:00,24.108970,82.645580,OZONE,9,85,76
India,Madhya Pradesh,Ujjain,"Mahakaleshwar Temple, Ujjain - MPPCB",24-04-2024 19:00:00,23.182719 ,75.768218 ,PM2.5,17,57,32
India,Maharashtra,Akola,"Ramdaspeth, Akola - MPCB",24-04-2024 19:00:00,20.719516,77.000253,CO,17,44,23
India,Maharashtra,Amravati,"Shri Shivaji Science College, Amaravati - MPCB",24-04-2024 19:00:00,20.939198,77.765701,NH3,2,2,2
India,Maharashtra,Amravati,"Shri Shivaji Science College, Amaravati - MPCB",24-04-2024 19:00:00,20.939198,77.765701,CO,6,30,14
India,Maharashtra,Aurangabad,"MIDC Chilkalthana, Aurangabad - MPCB",24-04-2024 19:00:00,19.875620,75.387310,PM2.5,NA,NA,NA
India,Maharashtra,Aurangabad,"Rachnakar Colony, Aurangabad - MPCB",24-04-2024 19:00:00,19.863756,75.321188,PM10,NA,NA,NA
India,Maharashtra,Aurangabad,"Rachnakar Colony, Aurangabad - MPCB",24-04-2024 19:00:00,19.863756,75.321188,NO2,NA,NA,NA
India,Maharashtra,Aurangabad,"Rachnakar Colony, Aurangabad - MPCB",24-04-2024 19:00:00,19.863756,75.321188,CO,26,34,30
India,Maharashtra,Aurangabad,"Rachnakar Colony, Aurangabad - MPCB",24-04-2024 19:00:00,19.863756,75.321188,OZONE,47,112,82
India,Maharashtra,Belapur,"CBD Belapur, Belapur - MPCB",24-04-2024 19:00:00,19.0243902,73.0406721,NO2,24,91,57
India,Maharashtra,Bhiwandi,"Gokul Nagar, Bhiwandi - MPCB",24-04-2024 19:00:00,19.309073,73.057223,NO2,13,70,26
India,Maharashtra,Bhiwandi,"Gokul Nagar, Bhiwandi - MPCB",24-04-2024 19:00:00,19.309073,73.057223,OZONE,17,86,70
India,Maharashtra,Boisar,"Khaira, Boisar - MPCB",24-04-2024 19:00:00,19.786089,72.757971,PM2.5,21,307,108
India,Maharashtra,Boisar,"Khaira, Boisar - MPCB",24-04-2024 19:00:00,19.786089,72.757971,CO,2,69,19
India,Maharashtra,Chandrapur,"Chauhan Colony, Chandrapur - MPCB",24-04-2024 19:00:00,19.962900,79.298714,PM2.5,41,130,60
India,Maharashtra,Chandrapur,"MIDC Khutala, Chandrapur - MPCB",24-04-2024 19:00:00,19.9775302,79.2337086,PM10,NA,NA,NA
India,Maharashtra,Chandrapur,"MIDC Khutala, Chandrapur - MPCB",24-04-2024 19:00:00,19.9775302,79.2337086,CO,NA,NA,NA
India,Maharashtra,Jalgaon,"Prabhat Colony, Jalgaon - MPCB",24-04-2024 19:00:00,21.001264,75.565602,NH3,8,14,11
India,Maharashtra,Jalna,"Old MIDC, Jalna - MPCB",24-04-2024 19:00:00,19.854616,75.905894,OZONE,12,160,93
India,Maharashtra,Kolhapur,"Shivaji University, Kolhapur - MPCB",24-04-2024 19:00:00,16.6870449,74.2505872,PM10,100,141,120
India,Maharashtra,Kolhapur,"Shivaji University, Kolhapur - MPCB",24-04-2024 19:00:00,16.6870449,74.2505872,NO2,22,41,33
India,Maharashtra,Kolhapur,"Shivaji University, Kolhapur - MPCB",24-04-2024 19:00:00,16.6870449,74.2505872,SO2,1,9,5
India,Maharashtra,Kolhapur,"Shivaji University, Kolhapur - MPCB",24-04-2024 19:00:00,16.6870449,74.2505872,OZONE,23,151,126
India,Maharashtra,Latur,"Sawe Wadi, Latur - MPCB",24-04-2024 19:00:00,18.39963,76.57452,PM2.5,8,202,58
India,Maharashtra,Malegaon,"Mahesh Nagar, Malegaon - MPCB",24-04-2024 19:00:00,20.555712,74.529236,CO,8,34,13
India,Maharashtra,Mira-Bhayandar,"Bhayandar West, Mira-Bhayandar - MPCB",24-04-2024 19:00:00,19.296481,72.840923,NH3,3,4,3
India,Maharashtra,Mira-Bhayandar,"Bhayandar West, Mira-Bhayandar - MPCB",24-04-2024 19:00:00,19.296481,72.840923,OZONE,6,94,69
India,Maharashtra,Mumbai,"Bandra Kurla Complex, Mumbai - MPCB",24-04-2024 19:00:00,19.065931,72.862131,PM10,33,114,100
India,Maharashtra,Mumbai,"Bandra Kurla Complex, Mumbai - MPCB",24-04-2024 19:00:00,19.065931,72.862131,NH3,1,5,2
India,Maharashtra,Mumbai,"Bandra Kurla Complex, Mumbai - MPCB",24-04-2024 19:00:00,19.065931,72.862131,CO,16,38,22
India,Maharashtra,Mumbai,"Bandra Kurla Complex, Mumbai - MPCB",24-04-2024 19:00:00,19.065931,72.862131,OZONE,12,80,49
India,Maharashtra,Mumbai,"Borivali East, Mumbai - IITM",24-04-2024 19:00:00,19.23241,72.86895,NO2,47,93,67
India,Maharashtra,Mumbai,"Borivali East, Mumbai - IITM",24-04-2024 19:00:00,19.23241,72.86895,NH3,3,6,5
India,Maharashtra,Mumbai,"Borivali East, Mumbai - MPCB",24-04-2024 19:00:00,19.2243333,72.8658113,CO,2,61,43
India,Maharashtra,Mumbai,"Byculla, Mumbai - BMC",24-04-2024 19:00:00,18.9767,72.8380,NH3,2,3,2
India,Maharashtra,Mumbai,"Chembur, Mumbai - MPCB",24-04-2024 19:00:00,19.0364585,72.8954371,SO2,1,4,1
India,Maharashtra,Mumbai,"Chembur, Mumbai - MPCB",24-04-2024 19:00:00,19.0364585,72.8954371,OZONE,22,129,48
India,Maharashtra,Mumbai,"Chhatrapati Shivaji Intl. Airport (T2), Mumbai - MPCB",24-04-2024 19:00:00,19.10078,72.87462,SO2,17,22,20
India,Maharashtra,Mumbai,"Colaba, Mumbai - MPCB",24-04-2024 19:00:00,18.910000,72.820000,NO2,21,22,21
India,Maharashtra,Mumbai,"Colaba, Mumbai - MPCB",24-04-2024 19:00:00,18.910000,72.820000,SO2,11,12,11
India,Maharashtra,Mumbai,"Deonar, Mumbai - IITM",24-04-2024 19:00:00,19.04946,72.9230,NH3,9,15,12
India,Maharashtra,Mumbai,"Ghatkopar, Mumbai - BMC",24-04-2024 19:00:00,19.083694,72.920967,NO2,6,31,19
India,Maharashtra,Mumbai,"Ghatkopar, Mumbai - BMC",24-04-2024 19:00:00,19.083694,72.920967,CO,2,26,10
India,Maharashtra,Mumbai,"Khindipada-Bhandup West, Mumbai - IITM",24-04-2024 19:00:00,19.1653323,72.922099,PM2.5,32,84,62
India,Maharashtra,Mumbai,"Khindipada-Bhandup West, Mumbai - IITM",24-04-2024 19:00:00,19.1653323,72.922099,NH3,1,13,9
India,Maharashtra,Mumbai,"Khindipada-Bhandup West, Mumbai - IITM",24-04-2024 19:00:00,19.1653323,72.922099,CO,17,52,38
India,Maharashtra,Mumbai,"Kurla, Mumbai - MPCB",24-04-2024 19:00:00,19.0863,72.8888,SO2,32,32,32
India,Maharashtra,Mumbai,"Kurla, Mumbai - MPCB",24-04-2024 19:00:00,19.0863,72.8888,CO,8,25,10
India,Maharashtra,Mumbai,"Mindspace-Malad West, Mumbai - MPCB",24-04-2024 19:00:00,19.1878657,72.8304069,NO2,14,68,30
India,Maharashtra,Mumbai,"Mindspace-Malad West, Mumbai - MPCB",24-04-2024 19:00:00,19.1878657,72.8304069,SO2,7,10,9
India,Maharashtra,Mumbai,"Mulund West, Mumbai - MPCB",24-04-2024 19:00:00,19.1750,72.9419,NO2,20,25,22
India,Maharashtra,Mumbai,"Mulund West, Mumbai - MPCB",24-04-2024 19:00:00,19.1750,72.9419,NH3,10,11,10
India,Maharashtra,Mumbai,"Mulund West, Mumbai - MPCB",24-04-2024 19:00:00,19.1750,72.9419,CO,36,37,37
India,Maharashtra,Mumbai,"Navy Nagar-Colaba, Mumbai - IITM",24-04-2024 19:00:00,18.897756,72.813320,PM2.5,33,60,47
India,Maharashtra,Mumbai,"Navy Nagar-Colaba, Mumbai - IITM",24-04-2024 19:00:00,18.897756,72.813320,PM10,72,104,89
India,Maharashtra,Mumbai,"Navy Nagar-Colaba, Mumbai - IITM",24-04-2024 19:00:00,18.897756,72.813320,NO2,14,23,16
India,Maharashtra,Mumbai,"Navy Nagar-Colaba, Mumbai - IITM",24-04-2024 19:00:00,18.897756,72.813320,NH3,7,9,8
India,Maharashtra,Mumbai,"Powai, Mumbai - MPCB",24-04-2024 19:00:00,19.137500,72.915056,NH3,1,2,1
India,Maharashtra,Mumbai,"Sewri, Mumbai - BMC",24-04-2024 19:00:00,19.000084,72.856730,PM10,24,43,35
India,Maharashtra,Mumbai,"Sewri, Mumbai - BMC",24-04-2024 19:00:00,19.000084,72.856730,NH3,2,5,4
India,Maharashtra,Mumbai,"Shivaji Nagar, Mumbai - BMC",24-04-2024 19:00:00,19.060498,72.923356,PM10,44,108,87
India,Maharashtra,Mumbai,"Shivaji Nagar, Mumbai - BMC",24-04-2024 19:00:00,19.060498,72.923356,NH3,5,10,7
India,Maharashtra,Mumbai,"Shivaji Nagar, Mumbai - BMC",24-04-2024 19:00:00,19.060498,72.923356,SO2,1,9,4
India,Maharashtra,Mumbai,"Sion, Mumbai - MPCB",24-04-2024 19:00:00,19.047000,72.874600,PM2.5,34,71,43
India,Maharashtra,Mumbai,"Sion, Mumbai - MPCB",24-04-2024 19:00:00,19.047000,72.874600,PM10,86,132,105
India,Maharashtra,Mumbai,"Sion, Mumbai - MPCB",24-04-2024 19:00:00,19.047000,72.874600,NH3,1,1,1
India,Maharashtra,Mumbai,"Sion, Mumbai - MPCB",24-04-2024 19:00:00,19.047000,72.874600,OZONE,39,46,41
India,Maharashtra,Mumbai,"Vile Parle West, Mumbai - MPCB",24-04-2024 19:00:00,19.10861,72.83622,NO2,8,11,9
India,Maharashtra,Mumbai,"Vile Parle West, Mumbai - MPCB",24-04-2024 19:00:00,19.10861,72.83622,SO2,13,14,14
India,Maharashtra,Mumbai,"Worli, Mumbai - MPCB",24-04-2024 19:00:00,18.9936162,72.8128113,PM10,64,114,86
India,Maharashtra,Nagpur,"Ambazari, Nagpur - MPCB",24-04-2024 19:00:00,21.121801,79.04952,SO2,7,58,25
India,Maharashtra,Nagpur,"Mahal, Nagpur - MPCB",24-04-2024 19:00:00,21.14472,79.107595,NH3,2,9,7
India,Maharashtra,Nagpur,"Mahal, Nagpur - MPCB",24-04-2024 19:00:00,21.14472,79.107595,SO2,1,20,7
India,Maharashtra,Nanded,"Sneh Nagar, Nanded - MPCB",24-04-2024 19:00:00,19.173852,77.296291,CO,28,40,35
India,Maharashtra,Nashik,"Gangapur Road, Nashik - MPCB",24-04-2024 19:00:00,20.0073285,73.7762427,NO2,9,18,13
India,Maharashtra,Nashik,"Gangapur Road, Nashik - MPCB",24-04-2024 19:00:00,20.0073285,73.7762427,CO,40,100,57
India,Maharashtra,Nashik,"Hirawadi, Nashik - MPCB",24-04-2024 19:00:00,20.021503,73.813844,PM2.5,24,187,72
India,Maharashtra,Nashik,"Pandav Nagari, Nashik - MPCB",24-04-2024 19:00:00,19.9591346,73.7788008,NH3,2,4,3
India,Maharashtra,Nashik,"Pandav Nagari, Nashik - MPCB",24-04-2024 19:00:00,19.9591346,73.7788008,SO2,12,64,29
India,Maharashtra,Navi Mumbai,"Nerul, Navi Mumbai - MPCB",24-04-2024 19:00:00,19.008751,73.016620,OZONE,29,44,35
India,Maharashtra,Navi Mumbai,"Sanpada, Navi Mumbai - MPCB",24-04-2024 19:00:00,19.0575752,73.0151367,CO,1,31,6
India,Maharashtra,Navi Mumbai,"Sector-19A Nerul, Navi Mumbai - IITM",24-04-2024 19:00:00,19.044,73.0325,PM10,56,105,83
India,Maharashtra,Navi Mumbai,"Sector-19A Nerul, Navi Mumbai - IITM",24-04-2024 19:00:00,19.044,73.0325,SO2,3,21,14
India,Maharashtra,Navi Mumbai,"Tondare-Taloja, Navi Mumbai - MPCB",24-04-2024 19:00:00,19.0630,73.1209,PM2.5,37,101,66
India,Maharashtra,Navi Mumbai,"Tondare-Taloja, Navi Mumbai - MPCB",24-04-2024 19:00:00,19.0630,73.1209,SO2,2,43,21
India,Maharashtra,Parbhani,"Masoom Colony, Parbhani - MPCB",24-04-2024 19:00:00,19.265594,76.761463,PM2.5,NA,NA,NA
India,Maharashtra,Parbhani,"Masoom Colony, Parbhani - MPCB",24-04-2024 19:00:00,19.265594,76.761463,SO2,NA,NA,NA
India,Maharashtra,Parbhani,"Masoom Colony, Parbhani - MPCB",24-04-2024 19:00:00,19.265594,76.761463,CO,24,32,29
India,Maharashtra,Pimpri-Chinchwad,"Gavalinagar, Pimpri Chinchwad - MPCB",24-04-2024 19:00:00,18.63673,73.82487,PM2.5,50,76,63
India,Maharashtra,Pimpri-Chinchwad,"Gavalinagar, Pimpri Chinchwad - MPCB",24-04-2024 19:00:00,18.63673,73.82487,CO,14,49,21
India,Maharashtra,Pimpri-Chinchwad,"Gavalinagar, Pimpri Chinchwad - MPCB",24-04-2024 19:00:00,18.63673,73.82487,OZONE,4,174,174
India,Maharashtra,Pimpri-Chinchwad,"Park Street Wakad, Pimpri Chinchwad - MPCB",24-04-2024 19:00:00,18.59051,73.77946,PM2.5,37,81,53
India,Maharashtra,Pune,"Bhosari, Pune - IITM",24-04-2024 19:00:00,18.640051,73.848956,PM2.5,22,80,43
India,Maharashtra,Pune,"Bhosari, Pune - IITM",24-04-2024 19:00:00,18.640051,73.848956,CO,44,50,48
India,Maharashtra,Pune,"Karve Road, Pune - MPCB",24-04-2024 19:00:00,18.5011743,73.8165527,PM10,54,192,110
India,Maharashtra,Pune,"Karve Road, Pune - MPCB",24-04-2024 19:00:00,18.5011743,73.8165527,SO2,9,39,19
India,Maharashtra,Pune,"Katraj Dairy, Pune - MPCB",24-04-2024 19:00:00,18.454450,73.854155,PM2.5,45,66,60
India,Maharashtra,Pune,"Katraj Dairy, Pune - MPCB",24-04-2024 19:00:00,18.454450,73.854155,CO,21,74,35
India,Maharashtra,Pune,"Mhada Colony, Pune - IITM",24-04-2024 19:00:00,18.573040,73.927715,OZONE,13,84,75
India,Maharashtra,Pune,"Revenue Colony-Shivajinagar, Pune - IITM",24-04-2024 19:00:00,18.530085,73.849598,CO,104,117,116
India,Maharashtra,Pune,"Transport Nagar-Nigdi, Pune - IITM",24-04-2024 19:00:00,18.664282,73.763966,PM10,59,103,78
India,Maharashtra,Pune,"Transport Nagar-Nigdi, Pune - IITM",24-04-2024 19:00:00,18.664282,73.763966,CO,24,46,26
India,Maharashtra,Sangli,"Vijay Nagar, Sangli - MPCB",24-04-2024 19:00:00, 16.5038,74.3623,NH3,1,2,2
India,Maharashtra,Sangli,"Vijay Nagar, Sangli - MPCB",24-04-2024 19:00:00, 16.5038,74.3623,SO2,7,18,11
India,Maharashtra,Sangli,"Vijay Nagar, Sangli - MPCB",24-04-2024 19:00:00, 16.5038,74.3623,CO,16,38,19
India,Maharashtra,Sangli,"Vijay Nagar, Sangli - MPCB",24-04-2024 19:00:00, 16.5038,74.3623,OZONE,11,187,151
India,Maharashtra,Solapur,"Dnyaneshwar Nagar, Solapur - MPCB",24-04-2024 19:00:00,17.6336264,75.9132495,NH3,18,52,27
India,Maharashtra,Solapur,"Dnyaneshwar Nagar, Solapur - MPCB",24-04-2024 19:00:00,17.6336264,75.9132495,CO,3,108,12
India,Maharashtra,Solapur,"Ratandeep Housing Society, Solapur - MPCB",24-04-2024 19:00:00,17.65439,75.90649,PM2.5,NA,NA,NA
India,Maharashtra,Solapur,"Ratandeep Housing Society, Solapur - MPCB",24-04-2024 19:00:00,17.65439,75.90649,PM10,NA,NA,NA
India,Maharashtra,Solapur,"Ratandeep Housing Society, Solapur - MPCB",24-04-2024 19:00:00,17.65439,75.90649,NO2,NA,NA,NA
India,Maharashtra,Solapur,"Ratandeep Housing Society, Solapur - MPCB",24-04-2024 19:00:00,17.65439,75.90649,NH3,NA,NA,NA
India,Maharashtra,Solapur,"Ratandeep Housing Society, Solapur - MPCB",24-04-2024 19:00:00,17.65439,75.90649,CO,19,164,23
India,Maharashtra,Thane,"Kasarvadavali, Thane - MPCB",24-04-2024 19:00:00,19.26777,72.97182,OZONE,10,90,76
India,Maharashtra,Thane,"Pimpleshwar Mandir, Thane - MPCB",24-04-2024 19:00:00,19.192056,72.9585188,SO2,3,101,20
India,Maharashtra,Thane,"Upvan Fort, Thane - MPCB",24-04-2024 19:00:00,19.222279,72.957979,NO2,7,30,15
India,Maharashtra,Ulhasnagar,"Sidhi Vinayak Nagar, Ulhasnagar - MPCB",24-04-2024 19:00:00,19.235581,73.159121,CO,14,65,18
India,Maharashtra,Virar,"Bolinj, Virar - MPCB",24-04-2024 19:00:00,19.4458210,72.7988231,PM10,62,104,79
India,Maharashtra,Virar,"Bolinj, Virar - MPCB",24-04-2024 19:00:00,19.4458210,72.7988231,CO,8,54,10
India,Manipur,Imphal,"DM College of Science, Imphal - Manipur PCB",24-04-2024 19:00:00,24.8207389,93.9423085,NH3,NA,NA,NA
India,Manipur,Imphal,"DM College of Science, Imphal - Manipur PCB",24-04-2024 19:00:00,24.8207389,93.9423085,CO,3,7,6
India,Manipur,Imphal,"Manipur University, Imphal - Manipur PCB",24-04-2024 19:00:00,24.7524239,93.9286218,NH3,NA,NA,NA
India,Manipur,Imphal,"Manipur University, Imphal - Manipur PCB",24-04-2024 19:00:00,24.7524239,93.9286218,SO2,88,92,90
India,Mizoram,Aizawl,"Sikulpuikawn, Aizawl - Mizoram PCB",24-04-2024 19:00:00,23.7176342,92.7192841,PM2.5,NA,NA,NA
India,Mizoram,Aizawl,"Sikulpuikawn, Aizawl - Mizoram PCB",24-04-2024 19:00:00,23.7176342,92.7192841,PM10,NA,NA,NA
India,Odisha,Angul,"Hakimapada, Angul - OSPCB",24-04-2024 19:00:00,20.832874,85.104082,PM2.5,40,500,127
India,Odisha,Angul,"Hakimapada, Angul - OSPCB",24-04-2024 19:00:00,20.832874,85.104082,PM10,41,460,124
India,Odisha,Angul,"Hakimapada, Angul - OSPCB",24-04-2024 19:00:00,20.832874,85.104082,NO2,5,39,18
India,Odisha,Angul,"Hakimapada, Angul - OSPCB",24-04-2024 19:00:00,20.832874,85.104082,OZONE,18,127,109
India,Odisha,Balasore,"Kalidaspur, Balasore - OSPCB",24-04-2024 19:00:00,21.51161,86.89088,PM2.5,53,143,94
India,Odisha,Barbil,"Forest Office, Barbil - OSPCB",24-04-2024 19:00:00,22.1166054,85.3945546,PM10,65,238,121
India,Odisha,Barbil,"Forest Office, Barbil - OSPCB",24-04-2024 19:00:00,22.1166054,85.3945546,CO,27,76,33
India,Odisha,Baripada,"Meher Colony, Baripada - OSPCB",24-04-2024 19:00:00,21.941841,86.728318,OZONE,27,175,139
India,Odisha,Bhubaneswar,"Lingraj Mandir, Bhubaneswar - OSPCB",24-04-2024 19:00:00,20.240790,85.836784,PM2.5,63,303,116
India,Odisha,Bhubaneswar,"Patia, Bhubaneswar - OSPCB",24-04-2024 19:00:00,20.34652,85.81630,PM2.5,50,213,88
India,Odisha,Bhubaneswar,"Patia, Bhubaneswar - OSPCB",24-04-2024 19:00:00,20.34652,85.81630,PM10,63,141,90
India,Odisha,Brajrajnagar,"GM Office, Brajrajnagar - OSPCB",24-04-2024 19:00:00,21.8004996,83.8396977,SO2,30,61,35
India,Odisha,Brajrajnagar,"GM Office, Brajrajnagar - OSPCB",24-04-2024 19:00:00,21.8004996,83.8396977,OZONE,19,34,22
India,Odisha,Byasanagar,"Ferro Chrome Colony, Byasanagar - OSPCB",24-04-2024 19:00:00,20.94185,86.11510,NO2,14,32,20
India,Odisha,Cuttack,"CDA Area, Cuttack - OSPCB",24-04-2024 19:00:00,20.48891     ,85.84768     ,NH3,2,3,2
India,Odisha,Cuttack,"CDA Area, Cuttack - OSPCB",24-04-2024 19:00:00,20.48891     ,85.84768     ,CO,19,46,22
India,Odisha,Cuttack,"CDA Area, Cuttack - OSPCB",24-04-2024 19:00:00,20.48891     ,85.84768     ,OZONE,8,240,146
India,Odisha,Rairangpur,"Divisional Forest Office, Rairangpur - OSPCB",24-04-2024 19:00:00,22.265816,86.174829,NO2,1,2,1
India,Odisha,Rairangpur,"Divisional Forest Office, Rairangpur - OSPCB",24-04-2024 19:00:00,22.265816,86.174829,OZONE,40,80,73
India,Odisha,Rourkela,"Fertilizer Township, Rourkela - OSPCB",24-04-2024 19:00:00,22.18972222,84.86277778,PM2.5,58,78,62
India,Odisha,Rourkela,"Fertilizer Township, Rourkela - OSPCB",24-04-2024 19:00:00,22.18972222,84.86277778,PM10,61,160,103
India,Odisha,Rourkela,"Fertilizer Township, Rourkela - OSPCB",24-04-2024 19:00:00,22.18972222,84.86277778,CO,11,28,17
India,Odisha,Rourkela,"Raghunathpali, Rourkela - OSPCB",24-04-2024 19:00:00,22.220833,84.809444,NH3,1,3,2
India,Odisha,Rourkela,"Sector-2, Rourkela - OSPCB",24-04-2024 19:00:00,22.24500000,84.88111111,PM10,27,154,109
India,Odisha,Suakati,"OMC Colony, Suakati - OSPCB",24-04-2024 19:00:00,21.606865,85.510538,NO2,3,12,9
India,Odisha,Suakati,"OMC Colony, Suakati - OSPCB",24-04-2024 19:00:00,21.606865,85.510538,NH3,5,7,6
India,Odisha,Talcher,"Talcher Coalfields,Talcher - OSPCB",24-04-2024 19:00:00,20.9360711,85.1707021,PM10,53,437,186
India,Odisha,Talcher,"Talcher Coalfields,Talcher - OSPCB",24-04-2024 19:00:00,20.9360711,85.1707021,NH3,3,3,3
India,Odisha,Tensa,"Barsua Iron Ore Mines, Tensa - OSPCB",24-04-2024 19:00:00,21.869985,85.167016,NO2,20,90,42
India,Puducherry,Puducherry,"Jawahar Nagar, Puducherry - PPCC",24-04-2024 19:00:00,11.9309,79.8027,PM10,6,49,19
India,Punjab,Amritsar,"Golden Temple, Amritsar - PPCB",24-04-2024 19:00:00,31.620000,74.876512,SO2,12,25,18
India,Punjab,Bathinda,"Hardev Nagar, Bathinda - PPCB",24-04-2024 19:00:00,30.233011,74.907758,PM10,93,281,153
India,Punjab,Khanna,"Kalal Majra, Khanna - PPCB",24-04-2024 19:00:00,30.736056 ,76.209694,PM2.5,49,124,85
India,Punjab,Khanna,"Kalal Majra, Khanna - PPCB",24-04-2024 19:00:00,30.736056 ,76.209694,SO2,7,18,11
India,Punjab,Ludhiana,"Punjab Agricultural University, Ludhiana - PPCB",24-04-2024 19:00:00,30.9028,75.8086,PM10,68,155,107
India,Punjab,Mandi Gobindgarh,"RIMT University, Mandi Gobindgarh - PPCB",24-04-2024 19:00:00,30.649961,76.331442,PM10,64,187,106
India,Punjab,Patiala,"Model Town, Patiala - PPCB",24-04-2024 19:00:00,30.349388,76.366642,PM10,46,125,93
India,Punjab,Patiala,"Model Town, Patiala - PPCB",24-04-2024 19:00:00,30.349388,76.366642,OZONE,13,127,107
India,Punjab,Rupnagar,"Ratanpura, Rupnagar - Ambuja Cements",24-04-2024 19:00:00,31.0325454,76.5623046,PM2.5,16,112,67
India,Punjab,Rupnagar,"Ratanpura, Rupnagar - Ambuja Cements",24-04-2024 19:00:00,31.0325454,76.5623046,CO,20,66,28
India,Rajasthan,Ajmer,"Civil Lines,  Ajmer - RSPCB",24-04-2024 19:00:00,26.470859,74.646594,PM2.5,27,84,54
India,Rajasthan,Alwar,"Moti Doongri, Alwar - RSPCB",24-04-2024 19:00:00,27.554793,76.611536,NO2,36,80,44
India,Rajasthan,Alwar,"Moti Doongri, Alwar - RSPCB",24-04-2024 19:00:00,27.554793,76.611536,SO2,3,73,23
India,Rajasthan,Alwar,"Moti Doongri, Alwar - RSPCB",24-04-2024 19:00:00,27.554793,76.611536,CO,25,78,38
India,Rajasthan,Banswara,"Rati Talai, Banswara - RSPCB",24-04-2024 19:00:00,23.555190,74.440010,OZONE,11,128,104
India,Rajasthan,Baran,"Bamboliya, Baran - RSPCB",24-04-2024 19:00:00,25.106006,76.469948,PM2.5,21,96,48
India,Rajasthan,Barmer,"Railway Colony, Barmer - RSPCB",24-04-2024 19:00:00,25.747299,71.393989,OZONE,61,109,93
India,Rajasthan,Bhilwara,"Pratap Nagar, Bhilwara - RSPCB",24-04-2024 19:00:00,25.339605,74.618883,PM2.5,19,134,55
India,Rajasthan,Bhilwara,"Pratap Nagar, Bhilwara - RSPCB",24-04-2024 19:00:00,25.339605,74.618883,PM10,23,117,60
India,Rajasthan,Bhiwadi,"RIICO Ind. Area III, Bhiwadi - RSPCB",24-04-2024 19:00:00,28.194909,76.862296,PM2.5,26,167,83
India,Rajasthan,Bhiwadi,"RIICO Ind. Area III, Bhiwadi - RSPCB",24-04-2024 19:00:00,28.194909,76.862296,NH3,3,29,9
India,Rajasthan,Bhiwadi,"Vasundhara Nagar_UIT, Bhiwadi - RSPCB",24-04-2024 19:00:00,28.207266,76.829265,PM2.5,8,301,77
India,Rajasthan,Bhiwadi,"Vasundhara Nagar_UIT, Bhiwadi - RSPCB",24-04-2024 19:00:00,28.207266,76.829265,SO2,1,23,8
India,Rajasthan,Bundi,"New Colony, Bundi - RSPCB",24-04-2024 19:00:00,25.435774,75.644272,PM2.5,16,78,38
India,Rajasthan,Churu,"Subash Chowk, Churu - RSPCB",24-04-2024 19:00:00,28.296139,74.961696,NH3,9,17,14
India,Rajasthan,Dholpur,"Raja Ganj, Dholpur - RSPCB",24-04-2024 19:00:00,26.699557,77.898881,PM2.5,22,92,53
India,Rajasthan,Dholpur,"Raja Ganj, Dholpur - RSPCB",24-04-2024 19:00:00,26.699557,77.898881,SO2,2,4,3
India,Rajasthan,Dholpur,"Raja Ganj, Dholpur - RSPCB",24-04-2024 19:00:00,26.699557,77.898881,CO,12,43,15
India,Rajasthan,Dungarpur,"Bhoiwada, Dungarpur - RSPCB",24-04-2024 19:00:00,23.837789,73.714926,NO2,13,23,17
India,Rajasthan,Dungarpur,"Bhoiwada, Dungarpur - RSPCB",24-04-2024 19:00:00,23.837789,73.714926,CO,11,24,15
India,Rajasthan,Dungarpur,"Bhoiwada, Dungarpur - RSPCB",24-04-2024 19:00:00,23.837789,73.714926,OZONE,25,73,57
India,Rajasthan,Hanumangarh,"Housing Board, Hanumangarh - RSPCB",24-04-2024 19:00:00,29.610750,74.283608,OZONE,7,46,41
India,Rajasthan,Jaipur,"Adarsh Nagar, Jaipur - RSPCB",24-04-2024 19:00:00,26.902909,75.836858,NH3,3,9,5
India,Rajasthan,Jaipur,"Mansarovar Sector-12, Jaipur - RSPCB",24-04-2024 19:00:00,26.843698,75.766894,CO,51,78,55
India,Rajasthan,Jaipur,"Police Commissionerate, Jaipur - RSPCB",24-04-2024 19:00:00,26.9164092,75.7994901,SO2,6,71,27
India,Rajasthan,Jaipur,"RIICO Sitapura, Jaipur - RSPCB",24-04-2024 19:00:00,26.786682,75.827928,OZONE,12,28,14
India,Rajasthan,Jaipur,"Sector-2 Murlipura, Jaipur - RSPCB",24-04-2024 19:00:00,26.960669,75.771817,SO2,5,14,9
India,Rajasthan,Jaipur,"Sector-2 Murlipura, Jaipur - RSPCB",24-04-2024 19:00:00,26.960669,75.771817,OZONE,32,99,87
India,Rajasthan,Jaipur,"Shastri Nagar, Jaipur - RSPCB",24-04-2024 19:00:00,26.9502929,75.730943,PM2.5,56,107,75
India,Rajasthan,Jaipur,"Shastri Nagar, Jaipur - RSPCB",24-04-2024 19:00:00,26.9502929,75.730943,PM10,95,186,121
India,Rajasthan,Jaipur,"Shastri Nagar, Jaipur - RSPCB",24-04-2024 19:00:00,26.9502929,75.730943,NH3,7,22,11
India,Rajasthan,Jaisalmer,"Sadar Bazar, Jaisalmer - RSPCB",24-04-2024 19:00:00,26.912329,70.909168,OZONE,6,124,114
India,Rajasthan,Jhalawar,"Rajlaxmi Nagar, Jhalawar - RSPCB",24-04-2024 19:00:00,24.588397,76.172782,CO,20,48,32
India,Rajasthan,Jhalawar,"Rajlaxmi Nagar, Jhalawar - RSPCB",24-04-2024 19:00:00,24.588397,76.172782,OZONE,23,118,104
India,Rajasthan,Jodhpur,"Digari Kalan, Jodhpur - RSPCB",24-04-2024 19:00:00,26.295810,73.082283,CO,12,71,15
India,Rajasthan,Jodhpur,"Mandor, Jodhpur - RSPCB",24-04-2024 19:00:00,26.358805,73.047444,CO,6,24,11
India,Rajasthan,Jodhpur,"Samrat Ashok Udhyan, Jodhpur - RSPCB",24-04-2024 19:00:00,26.253384,72.976571,PM2.5,12,99,35
India,Rajasthan,Jodhpur,"Samrat Ashok Udhyan, Jodhpur - RSPCB",24-04-2024 19:00:00,26.253384,72.976571,SO2,3,29,7
India,Rajasthan,Karauli,"Satyawati Vihar, Karauli - RSPCB",24-04-2024 19:00:00,26.506177,77.025989,SO2,17,29,21
India,Rajasthan,Karauli,"Satyawati Vihar, Karauli - RSPCB",24-04-2024 19:00:00,26.506177,77.025989,CO,10,27,15
India,Rajasthan,Kota,"Dhanmandi, Kota - RSPCB",24-04-2024 19:00:00,25.164090,75.858137,PM10,69,171,124
India,Rajasthan,Kota,"Nayapura, Kota - RSPCB",24-04-2024 19:00:00,25.196024,75.855668,PM2.5,18,102,59
India,Rajasthan,Kota,"Shrinath Puram, Kota - RSPCB",24-04-2024 19:00:00,25.14389,75.821256,PM2.5,71,287,151
India,Rajasthan,Nagaur,"Karni Colony, Nagaur - RSPCB",24-04-2024 19:00:00,27.213494,73.734444,PM10,56,174,106
India,Rajasthan,Nagaur,"Karni Colony, Nagaur - RSPCB",24-04-2024 19:00:00,27.213494,73.734444,SO2,1,11,3
India,Rajasthan,Nagaur,"Karni Colony, Nagaur - RSPCB",24-04-2024 19:00:00,27.213494,73.734444,CO,13,88,60
India,Rajasthan,Pali,"Indira Colony Vistar, Pali - RSPCB",24-04-2024 19:00:00,25.771061, 73.340227,PM10,107,181,140
India,Rajasthan,Pali,"Indira Colony Vistar, Pali - RSPCB",24-04-2024 19:00:00,25.771061, 73.340227,NH3,6,17,13
India,Rajasthan,Pratapgarh,"Pragati Nagar, Pratapgarh - RSPCB",24-04-2024 19:00:00,24.041198,74.780702,NO2,8,43,23
India,Rajasthan,Rajsamand,"Dhoinda, Rajsamand - RSPCB",24-04-2024 19:00:00,25.036360,73.883502,PM2.5,13,157,52
India,Rajasthan,Rajsamand,"Dhoinda, Rajsamand - RSPCB",24-04-2024 19:00:00,25.036360,73.883502,NH3,5,6,5
India,Rajasthan,Sawai Madhopur,"Sahu Nagar, Sawai Madhopur - RSPCB",24-04-2024 19:00:00,26.031443,76.359327,SO2,1,41,7
India,Rajasthan,Sikar,"Radhakishan Pura, Sikar - RSPCB",24-04-2024 19:00:00,27.608912,75.153302,CO,20,44,23
India,Rajasthan,Sri Ganganagar,"Old City, Sri Ganganagar - RSPCB",24-04-2024 19:00:00,29.931624,73.864511,PM2.5,53,332,178
India,Rajasthan,Sri Ganganagar,"Old City, Sri Ganganagar - RSPCB",24-04-2024 19:00:00,29.931624,73.864511,NH3,9,55,15
India,Sikkim,Gangtok,"Zero Point GICI, Gangtok - SSPCB",24-04-2024 19:00:00,27.338530,88.614099,NO2,1,7,2
India,TamilNadu,Ariyalur,"Keelapalur, Ariyalur - TNPCB",24-04-2024 19:00:00,11.06825,79.07033,SO2,26,32,28
India,TamilNadu,Chengalpattu,"Crescent University, Chengalpattu - TNPCB",24-04-2024 19:00:00,12.8777316,80.0834807,SO2,NA,NA,NA
India,TamilNadu,Chennai,"Alandur Bus Depot, Chennai - CPCB",24-04-2024 19:00:00,12.9099161,80.1076538,NH3,6,19,9
India,TamilNadu,Chennai,"Kodungaiyur, Chennai - TNPCB",24-04-2024 19:00:00,13.1278,80.2642,OZONE,2,7,4
India,TamilNadu,Chennai,"Manali, Chennai - CPCB",24-04-2024 19:00:00,13.164544,80.26285,PM2.5,31,77,54
India,TamilNadu,Chennai,"Manali, Chennai - CPCB",24-04-2024 19:00:00,13.164544,80.26285,CO,82,106,96
India,TamilNadu,Chennai,"Velachery Res. Area, Chennai - CPCB",24-04-2024 19:00:00,13.0052189,80.2398125,PM10,17,42,26
India,TamilNadu,Chennai,"Velachery Res. Area, Chennai - CPCB",24-04-2024 19:00:00,13.0052189,80.2398125,NH3,10,16,11
India,TamilNadu,Coimbatore,"PSG College of Arts and Science, Coimbatore - TNPCB",24-04-2024 19:00:00,11.0328,77.0349,NH3,1,1,1
India,TamilNadu,Coimbatore,"PSG College of Arts and Science, Coimbatore - TNPCB",24-04-2024 19:00:00,11.0328,77.0349,OZONE,3,5,4
India,TamilNadu,Cuddalore,"Kudikadu, Cuddalore - TNPCB",24-04-2024 19:00:00,11.6829898,79.7532099,NH3,3,4,4
India,TamilNadu,Cuddalore,"Semmandalam, Cuddalore - TNPCB",24-04-2024 19:00:00,11.7637683,79.7499835,NH3,NA,NA,NA
India,TamilNadu,Cuddalore,"Semmandalam, Cuddalore - TNPCB",24-04-2024 19:00:00,11.7637683,79.7499835,OZONE,1,17,3
India,TamilNadu,Kanchipuram,"Kilambi, Kanchipuram - TNPCB",24-04-2024 19:00:00,12.864618,79.659968,CO,20,20,20
India,TamilNadu,Ooty,"Bombay Castel, Ooty - TNPCB",24-04-2024 19:00:00,11.4068288,76.7138973,CO,19,22,20
India,TamilNadu,Tirupur,"Kumaran College, Tirupur - TNPCB",24-04-2024 19:00:00,11.0973603,77.3228673,SO2,21,24,23
India,TamilNadu,Vellore,"Vasanthapuram, Vellore - TNPCB",24-04-2024 19:00:00,12.909494,79.131861,PM2.5,NA,NA,NA
India,TamilNadu,Virudhunagar,"Collectorate Office, Virudhunagar - TNPCB",24-04-2024 19:00:00,9.559382,77.948828,PM2.5,NA,NA,NA
India,Telangana,Hyderabad,"Bollaram Industrial Area, Hyderabad - TSPCB",24-04-2024 19:00:00,17.540891,78.358528,PM10,83,140,109
India,Telangana,Hyderabad,"Central University, Hyderabad - TSPCB",24-04-2024 19:00:00,17.460103,78.334361,NO2,12,57,33
India,Telangana,Hyderabad,"Central University, Hyderabad - TSPCB",24-04-2024 19:00:00,17.460103,78.334361,SO2,3,16,9
India,Telangana,Hyderabad,"ECIL Kapra, Hyderabad - TSPCB",24-04-2024 19:00:00,17.470431,78.566959,NH3,5,12,10
India,Telangana,Hyderabad,"ECIL Kapra, Hyderabad - TSPCB",24-04-2024 19:00:00,17.470431,78.566959,CO,8,28,15
India,Telangana,Hyderabad,"IITH Kandi, Hyderabad - TSPCB",24-04-2024 19:00:00,17.585705,78.126199,PM2.5,23,50,34
India,Telangana,Hyderabad,"IITH Kandi, Hyderabad - TSPCB",24-04-2024 19:00:00,17.585705,78.126199,PM10,39,148,68
India,Telangana,Hyderabad,"Nacharam_TSIIC IALA, Hyderabad - TSPCB",24-04-2024 19:00:00,17.429398,78.569354,CO,24,38,29
India,Telangana,Hyderabad,"New Malakpet, Hyderabad - TSPCB",24-04-2024 19:00:00,17.37206,78.50864,PM10,76,96,82
India,Telangana,Hyderabad,"Zoo Park, Hyderabad - TSPCB",24-04-2024 19:00:00,17.349694,78.451437,NO2,22,49,33
India,Telangana,Hyderabad,"Zoo Park, Hyderabad - TSPCB",24-04-2024 19:00:00,17.349694,78.451437,CO,29,92,42
India,Tripura,Agartala,"Bardowali, Agartala - Tripura SPCB",24-04-2024 19:00:00,23.8175497,91.2726974,SO2,30,31,30
India,Tripura,Agartala,"Bardowali, Agartala - Tripura SPCB",24-04-2024 19:00:00,23.8175497,91.2726974,OZONE,4,57,41
India,Uttar_Pradesh,Agra,"Sanjay Palace, Agra - UPPCB",24-04-2024 19:00:00,27.19865833,78.00598056,NO2,21,36,26
India,Uttar_Pradesh,Agra,"Sanjay Palace, Agra - UPPCB",24-04-2024 19:00:00,27.19865833,78.00598056,CO,3,63,37
India,Uttar_Pradesh,Agra,"Sector-3B Avas Vikas Colony, Agra - UPPCB",24-04-2024 19:00:00,27.19412,77.96237,NH3,4,13,7
India,Uttar_Pradesh,Baghpat,"Sardar Patel Inter College, Baghpat - UPPCB",24-04-2024 19:00:00,28.964949,77.278761,NO2,14,70,38
India,Uttar_Pradesh,Baghpat,"Sardar Patel Inter College, Baghpat - UPPCB",24-04-2024 19:00:00,28.964949,77.278761,CO,36,75,43
India,Uttar_Pradesh,Bareilly,"Civil Lines, Bareilly - UPPCB",24-04-2024 19:00:00,28.359581,79.414455,PM2.5,3,11,7
India,Uttar_Pradesh,Bareilly,"Civil Lines, Bareilly - UPPCB",24-04-2024 19:00:00,28.359581,79.414455,PM10,NA,NA,NA
India,Uttar_Pradesh,Bareilly,"Rajendra Nagar, Bareilly - UPPCB",24-04-2024 19:00:00,28.38910936,79.42963708,PM2.5,NA,NA,NA
India,Uttar_Pradesh,Bareilly,"Rajendra Nagar, Bareilly - UPPCB",24-04-2024 19:00:00,28.38910936,79.42963708,PM10,NA,NA,NA
India,Uttar_Pradesh,Bareilly,"Rajendra Nagar, Bareilly - UPPCB",24-04-2024 19:00:00,28.38910936,79.42963708,NH3,1,2,1
India,Uttar_Pradesh,Bulandshahr,"Yamunapuram, Bulandshahr - UPPCB",24-04-2024 19:00:00,28.406963,77.849831,NH3,7,19,13
India,Uttar_Pradesh,Firozabad,"Nagla Bhau, Firozabad - UPPCB",24-04-2024 19:00:00,27.168897,78.376960,PM2.5,13,94,33
India,Uttar_Pradesh,Firozabad,"Nagla Bhau, Firozabad - UPPCB",24-04-2024 19:00:00,27.168897,78.376960,NO2,17,18,17
India,Uttar_Pradesh,Firozabad,"Nagla Bhau, Firozabad - UPPCB",24-04-2024 19:00:00,27.168897,78.376960,NH3,2,2,2
India,Uttar_Pradesh,Firozabad,"Nagla Bhau, Firozabad - UPPCB",24-04-2024 19:00:00,27.168897,78.376960,OZONE,16,23,17
India,Uttar_Pradesh,Firozabad,"Vibhab Nagar, Firozabad - UPPCB",24-04-2024 19:00:00,27.1594,78.3953,NH3,2,2,2
India,Uttar_Pradesh,Firozabad,"Vibhab Nagar, Firozabad - UPPCB",24-04-2024 19:00:00,27.1594,78.3953,SO2,12,54,29
India,Uttar_Pradesh,Firozabad,"Vibhab Nagar, Firozabad - UPPCB",24-04-2024 19:00:00,27.1594,78.3953,OZONE,19,87,61
India,Uttar_Pradesh,Ghaziabad,"Indirapuram, Ghaziabad - UPPCB",24-04-2024 19:00:00,28.646233,77.358075,PM2.5,15,312,92
India,Uttar_Pradesh,Ghaziabad,"Indirapuram, Ghaziabad - UPPCB",24-04-2024 19:00:00,28.646233,77.358075,SO2,2,26,16
India,Uttar_Pradesh,Ghaziabad,"Indirapuram, Ghaziabad - UPPCB",24-04-2024 19:00:00,28.646233,77.358075,CO,20,82,25
India,Uttar_Pradesh,Ghaziabad,"Loni, Ghaziabad - UPPCB",24-04-2024 19:00:00,28.757294,77.278792,NO2,21,88,55
India,Uttar_Pradesh,Ghaziabad,"Sanjay Nagar, Ghaziabad - UPPCB",24-04-2024 19:00:00,28.685382,77.453839,CO,20,74,29
India,Uttar_Pradesh,Ghaziabad,"Vasundhara, Ghaziabad - UPPCB",24-04-2024 19:00:00,28.6603346,77.3572563,CO,13,75,26
India,Uttar_Pradesh,Gorakhpur,"Madan Mohan Malaviya University of Technology, Gorakhpur - UPPCB",24-04-2024 19:00:00,26.730136,83.433859,SO2,36,50,42
India,Uttar_Pradesh,Greater Noida,"Knowledge Park - III, Greater Noida - UPPCB",24-04-2024 19:00:00,28.47272,77.482000,PM10,53,168,111
India,Uttar_Pradesh,Greater Noida,"Knowledge Park - III, Greater Noida - UPPCB",24-04-2024 19:00:00,28.47272,77.482000,NH3,1,6,2
India,Uttar_Pradesh,Greater Noida,"Knowledge Park - III, Greater Noida - UPPCB",24-04-2024 19:00:00,28.47272,77.482000,CO,4,66,16
India,Uttar_Pradesh,Hapur,"Anand Vihar, Hapur - UPPCB",24-04-2024 19:00:00,28.725645,77.749675,PM10,30,188,100
India,Uttar_Pradesh,Hapur,"Anand Vihar, Hapur - UPPCB",24-04-2024 19:00:00,28.725645,77.749675,NH3,4,5,4
India,Uttar_Pradesh,Jhansi,"Shivaji Nagar, Jhansi - UPPCB",24-04-2024 19:00:00,25.4547,78.6039,PM2.5,10,183,54
India,Uttar_Pradesh,Kanpur,"NSI Kalyanpur, Kanpur - UPPCB",24-04-2024 19:00:00,26.509954,80.249612,SO2,19,24,20
India,Uttar_Pradesh,Khurja,"Kalindi Kunj, Khurja - UPPCB",24-04-2024 19:00:00,28.2348927,77.8683002,NO2,3,4,3
India,Uttar_Pradesh,Khurja,"Kalindi Kunj, Khurja - UPPCB",24-04-2024 19:00:00,28.2348927,77.8683002,CO,28,42,33
India,Uttar_Pradesh,Lucknow,"B R Ambedkar University, Lucknow - UPPCB",24-04-2024 19:00:00,26.766433,80.927299,PM10,87,247,126
India,Uttar_Pradesh,Lucknow,"Gomti Nagar, Lucknow - UPPCB",24-04-2024 19:00:00,26.868120,81.005119,OZONE,32,42,41
India,Uttar_Pradesh,Lucknow,"Kukrail Picnic Spot-1, Lucknow - UPPCB",24-04-2024 19:00:00,26.90723,80.98579,CO,9,22,12
India,Uttar_Pradesh,Lucknow,"Lalbagh, Lucknow - CPCB",24-04-2024 19:00:00,26.8458805,80.9365541,PM2.5,52,171,113
India,Uttar_Pradesh,Lucknow,"Lalbagh, Lucknow - CPCB",24-04-2024 19:00:00,26.8458805,80.9365541,PM10,111,226,153
India,Uttar_Pradesh,Lucknow,"Lalbagh, Lucknow - CPCB",24-04-2024 19:00:00,26.8458805,80.9365541,OZONE,35,76,71
India,Uttar_Pradesh,Lucknow,"Talkatora District Industries Center, Lucknow - CPCB",24-04-2024 19:00:00,26.83399722,80.8917361,PM10,112,188,148
India,Uttar_Pradesh,Lucknow,"Talkatora District Industries Center, Lucknow - CPCB",24-04-2024 19:00:00,26.83399722,80.8917361,NH3,7,22,13
India,Uttar_Pradesh,Meerut,"Ganga Nagar, Meerut - UPPCB",24-04-2024 19:00:00,28.999264,77.7590354,OZONE,28,195,152
India,Uttar_Pradesh,Meerut,"Jai Bhim Nagar, Meerut - UPPCB",24-04-2024 19:00:00,28.9535882,77.7622941,NH3,6,24,11
India,Uttar_Pradesh,Meerut,"Pallavpuram Phase 2, Meerut - UPPCB",24-04-2024 19:00:00,29.063510,77.709723,NO2,12,102,45
India,Uttar_Pradesh,Moradabad,"Eco Herbal Park, Moradabad - UPPCB",24-04-2024 19:00:00,28.840739,78.697531,NO2,11,38,23
India,Uttar_Pradesh,Moradabad,"Eco Herbal Park, Moradabad - UPPCB",24-04-2024 19:00:00,28.840739,78.697531,OZONE,22,213,177
India,Uttar_Pradesh,Moradabad,"Employment Office, Moradabad - UPPCB",24-04-2024 19:00:00,28.88528,78.73880,NO2,19,19,19
India,Uttar_Pradesh,Moradabad,"Employment Office, Moradabad - UPPCB",24-04-2024 19:00:00,28.88528,78.73880,OZONE,6,125,73
India,Uttar_Pradesh,Moradabad,"Jigar Colony, Moradabad - UPPCB",24-04-2024 19:00:00,28.856664,78.772638,OZONE,55,85,73
India,Uttar_Pradesh,Moradabad,"Transport Nagar, Moradabad - UPPCB",24-04-2024 19:00:00,28.802625,78.753728,CO,40,43,41
India,Uttar_Pradesh,Noida,"Sector - 62, Noida - IMD",24-04-2024 19:00:00,28.6245479,77.3577104,PM10,88,187,131
India,Uttar_Pradesh,Noida,"Sector - 62, Noida - IMD",24-04-2024 19:00:00,28.6245479,77.3577104,NO2,2,26,11
India,Uttar_Pradesh,Noida,"Sector - 62, Noida - IMD",24-04-2024 19:00:00,28.6245479,77.3577104,OZONE,1,49,42
India,Uttar_Pradesh,Noida,"Sector-1, Noida - UPPCB",24-04-2024 19:00:00,28.5898,77.3101,NO2,38,136,92
India,Uttar_Pradesh,Noida,"Sector-1, Noida - UPPCB",24-04-2024 19:00:00,28.5898,77.3101,NH3,1,7,4
India,Uttar_Pradesh,Noida,"Sector-1, Noida - UPPCB",24-04-2024 19:00:00,28.5898,77.3101,OZONE,1,232,164
India,Uttar_Pradesh,Noida,"Sector-116, Noida - UPPCB",24-04-2024 19:00:00,28.569230,77.393848,OZONE,2,274,190
India,Uttar_Pradesh,Prayagraj,"Jhunsi, Prayagraj - UPPCB",24-04-2024 19:00:00,25.425602,81.917152,PM10,32,136,84
India,Uttar_Pradesh,Prayagraj,"Jhunsi, Prayagraj - UPPCB",24-04-2024 19:00:00,25.425602,81.917152,OZONE,30,35,32
India,Uttar_Pradesh,Prayagraj,"Motilal Nehru NIT, Prayagraj - UPPCB",24-04-2024 19:00:00,25.494,81.863,CO,9,61,13
India,Uttar_Pradesh,Prayagraj,"Motilal Nehru NIT, Prayagraj - UPPCB",24-04-2024 19:00:00,25.494,81.863,OZONE,5,39,23
India,Uttar_Pradesh,Prayagraj,"Nagar Nigam, Prayagraj - UPPCB",24-04-2024 19:00:00,25.44919916 ,81.82735986 ,CO,12,102,17
India,Uttar_Pradesh,Varanasi,"Ardhali Bazar, Varanasi - UPPCB",24-04-2024 19:00:00,25.3505986,82.9083074,PM10,14,45,28
India,Uttar_Pradesh,Varanasi,"IESD Banaras Hindu University, Varanasi - UPPCB",24-04-2024 19:00:00,25.262326,82.995408,NO2,2,3,2
India,Uttar_Pradesh,Varanasi,"Maldahiya, Varanasi - UPPCB",24-04-2024 19:00:00,25.32393,82.99687,OZONE,1,25,17
India,Uttar_Pradesh,Vrindavan,"Omex Eternity, Vrindavan - UPPCB",24-04-2024 19:00:00,27.5714090,77.6557570,NO2,2,3,3
India,Uttarakhand,Dehradun,"Doon University, Dehradun - UKPCB",24-04-2024 19:00:00,30.269444,78.044167,NO2,1,7,3
India,Uttarakhand,Rishikesh,"Shivaji Nagar, Rishikesh - UKPCB",24-04-2024 19:00:00,30.075911,78.2859547,PM2.5,NA,NA,NA
India,Uttarakhand,Rishikesh,"Shivaji Nagar, Rishikesh - UKPCB",24-04-2024 19:00:00,30.075911,78.2859547,NH3,NA,NA,NA
India,West_Bengal,Asansol,"Asansol Court Area, Asansol - WBPCB",24-04-2024 19:00:00,23.685297,86.945968,CO,36,86,46
India,West_Bengal,Durgapur,"PCBL Residential Complex, Durgapur - WBPCB",24-04-2024 19:00:00,23.5087640,87.3544400,SO2,25,122,64
India,West_Bengal,Durgapur,"Sidhu Kanhu Indoor Stadium, Durgapur - WBPCB",24-04-2024 19:00:00,23.5404352,87.2892225,PM10,90,195,132
India,West_Bengal,Durgapur,"Sidhu Kanhu Indoor Stadium, Durgapur - WBPCB",24-04-2024 19:00:00,23.5404352,87.2892225,SO2,7,48,28
India,West_Bengal,Haldia,"Priyambada Housing Estate, Haldia - WBPCB",24-04-2024 19:00:00,22.06047,88.109737,PM10,36,97,71
India,West_Bengal,Haldia,"Priyambada Housing Estate, Haldia - WBPCB",24-04-2024 19:00:00,22.06047,88.109737,SO2,6,127,39
India,West_Bengal,Howrah,"Belur Math, Howrah - WBPCB",24-04-2024 19:00:00,22.629801,88.352017,SO2,5,18,11
India,West_Bengal,Howrah,"Ghusuri, Howrah - WBPCB",24-04-2024 19:00:00,22.611968,88.347422,PM2.5,89,197,131
India,West_Bengal,Howrah,"Ghusuri, Howrah - WBPCB",24-04-2024 19:00:00,22.611968,88.347422,NO2,16,20,18
India,West_Bengal,Kolkata,"Ballygunge, Kolkata - WBPCB",24-04-2024 19:00:00,22.5367507,88.3638022,SO2,10,47,23
India,West_Bengal,Kolkata,"Ballygunge, Kolkata - WBPCB",24-04-2024 19:00:00,22.5367507,88.3638022,OZONE,9,112,97
India,West_Bengal,Kolkata,"Bidhannagar, Kolkata - WBPCB",24-04-2024 19:00:00,22.58157048,88.41002457,CO,27,74,33
India,West_Bengal,Kolkata,"Bidhannagar, Kolkata - WBPCB",24-04-2024 19:00:00,22.58157048,88.41002457,OZONE,19,122,103
India,West_Bengal,Kolkata,"Fort William, Kolkata - WBPCB",24-04-2024 19:00:00,22.556640,88.342674,OZONE,4,121,102
India,West_Bengal,Kolkata,"Jadavpur, Kolkata - WBPCB",24-04-2024 19:00:00,22.49929,88.36917,PM2.5,51,86,69
India,West_Bengal,Kolkata,"Jadavpur, Kolkata - WBPCB",24-04-2024 19:00:00,22.49929,88.36917,PM10,57,102,77
India,West_Bengal,Kolkata,"Jadavpur, Kolkata - WBPCB",24-04-2024 19:00:00,22.49929,88.36917,SO2,9,46,20
India,West_Bengal,Kolkata,"Jadavpur, Kolkata - WBPCB",24-04-2024 19:00:00,22.49929,88.36917,OZONE,6,133,124
India,West_Bengal,Kolkata,"Rabindra Bharati University, Kolkata - WBPCB",24-04-2024 19:00:00,22.627847,88.380669,PM2.5,49,89,67
India,West_Bengal,Kolkata,"Rabindra Bharati University, Kolkata - WBPCB",24-04-2024 19:00:00,22.627847,88.380669,SO2,4,10,7
India,West_Bengal,Kolkata,"Rabindra Sarobar, Kolkata - WBPCB",24-04-2024 19:00:00,22.51106,88.35142,NO2,13,86,37
India,West_Bengal,Kolkata,"Rabindra Sarobar, Kolkata - WBPCB",24-04-2024 19:00:00,22.51106,88.35142,NH3,28,32,30
India,West_Bengal,Kolkata,"Rabindra Sarobar, Kolkata - WBPCB",24-04-2024 19:00:00,22.51106,88.35142,OZONE,32,104,93
India,West_Bengal,Kolkata,"Victoria, Kolkata - WBPCB",24-04-2024 19:00:00,22.5448082,88.3403691,PM2.5,58,97,72
India,West_Bengal,Kolkata,"Victoria, Kolkata - WBPCB",24-04-2024 19:00:00,22.5448082,88.3403691,OZONE,9,78,72
India,Andhra_Pradesh,Amaravati,"Secretariat, Amaravati - APPCB",24-04-2024 19:00:00,16.5150833,80.5181667,PM10,13,69,41
India,Andhra_Pradesh,Anantapur,"Gulzarpet, Anantapur - APPCB",24-04-2024 19:00:00,14.675886,77.593027,PM2.5,24,66,38
India,Andhra_Pradesh,Anantapur,"Gulzarpet, Anantapur - APPCB",24-04-2024 19:00:00,14.675886,77.593027,OZONE,14,62,54
India,Andhra_Pradesh,Chittoor,"Gangineni Cheruvu, Chittoor - APPCB",24-04-2024 19:00:00,13.204880,79.097889,SO2,11,52,24
India,Andhra_Pradesh,Rajamahendravaram,"Anand Kala Kshetram, Rajamahendravaram - APPCB",24-04-2024 19:00:00,16.9872867,81.7363176,PM10,20,67,47
India,Andhra_Pradesh,Tirupati,"Tirumala, Tirupati - APPCB",24-04-2024 19:00:00,13.67,79.35,PM2.5,20,68,38
India,Andhra_Pradesh,Tirupati,"Tirumala, Tirupati - APPCB",24-04-2024 19:00:00,13.67,79.35,NO2,21,46,31
India,Andhra_Pradesh,Tirupati,"Vaikuntapuram, Tirupati - APPCB",24-04-2024 19:00:00,13.615387,79.409230,SO2,4,5,5
India,Andhra_Pradesh,Vijayawada,"HB Colony, Vijayawada - APPCB",24-04-2024 19:00:00,16.536107,80.594233,PM10,46,67,58
India,Andhra_Pradesh,Vijayawada,"HB Colony, Vijayawada - APPCB",24-04-2024 19:00:00,16.536107,80.594233,CO,34,38,38
India,Andhra_Pradesh,Vijayawada,"HB Colony, Vijayawada - APPCB",24-04-2024 19:00:00,16.536107,80.594233,OZONE,12,74,59
India,Andhra_Pradesh,Vijayawada,"Rajiv Gandhi Park, Vijayawada - APPCB",24-04-2024 19:00:00,16.509717,80.612222,NO2,36,63,43
India,Andhra_Pradesh,Vijayawada,"Rajiv Gandhi Park, Vijayawada - APPCB",24-04-2024 19:00:00,16.509717,80.612222,OZONE,26,105,79
India,Arunachal_Pradesh,Naharlagun,"Naharlagun, Naharlagun - APSPCB",24-04-2024 19:00:00,27.103358,93.679645,PM2.5,NA,NA,NA
India,Arunachal_Pradesh,Naharlagun,"Naharlagun, Naharlagun - APSPCB",24-04-2024 19:00:00,27.103358,93.679645,SO2,NA,NA,NA
India,Assam,Byrnihat,"Central Academy for SFS, Byrnihat - PCBA",24-04-2024 19:00:00,26.071318,91.87488,NO2,NA,NA,NA
India,Assam,Guwahati,"LGBI Airport, Guwahati - PCBA",24-04-2024 19:00:00,26.10887,91.589544,PM10,121,274,168
India,Assam,Guwahati,"LGBI Airport, Guwahati - PCBA",24-04-2024 19:00:00,26.10887,91.589544,OZONE,4,12,8
India,Assam,Guwahati,"Railway Colony, Guwahati - PCBA",24-04-2024 19:00:00,26.181742,91.78063,PM2.5,110,360,249
India,Assam,Guwahati,"Railway Colony, Guwahati - PCBA",24-04-2024 19:00:00,26.181742,91.78063,SO2,15,31,20
India,Assam,Guwahati,"Railway Colony, Guwahati - PCBA",24-04-2024 19:00:00,26.181742,91.78063,OZONE,5,38,17
India,Assam,Nagaon,"Christianpatty, Nagaon - PCBA",24-04-2024 19:00:00,26.349082,92.68449,NH3,3,6,5
India,Assam,Nagaon,"Christianpatty, Nagaon - PCBA",24-04-2024 19:00:00,26.349082,92.68449,SO2,6,71,28
India,Assam,Nagaon,"Christianpatty, Nagaon - PCBA",24-04-2024 19:00:00,26.349082,92.68449,OZONE,13,130,97
India,Assam,Nalbari,"Bata Chowk, Nalbari - PCBA",24-04-2024 19:00:00,26.446912,91.439057,OZONE,5,189,150
India,Assam,Silchar,"Tarapur, Silchar - PCBA",24-04-2024 19:00:00,24.82827,92.79525,SO2,1,19,11
India,Assam,Sivasagar,"Girls College, Sivasagar - PCBA",24-04-2024 19:00:00,26.987634,94.636574,NO2,9,19,13
India,Assam,Sivasagar,"Girls College, Sivasagar - PCBA",24-04-2024 19:00:00,26.987634,94.636574,NH3,1,1,1
India,Assam,Sivasagar,"Girls College, Sivasagar - PCBA",24-04-2024 19:00:00,26.987634,94.636574,CO,14,26,15
India,Bihar,Araria,"Kharahiya Basti, Araria - BSPCB",24-04-2024 19:00:00,26.146529,87.454184,NO2,6,10,7
India,Bihar,Arrah,"New DM Office, Arrah - BSPCB",24-04-2024 19:00:00,25.5626095,84.663264,PM2.5,30,77,50
India,Bihar,Arrah,"New DM Office, Arrah - BSPCB",24-04-2024 19:00:00,25.5626095,84.663264,CO,2,12,7
India,Bihar,Arrah,"New DM Office, Arrah - BSPCB",24-04-2024 19:00:00,25.5626095,84.663264,OZONE,11,39,15
India,Bihar,Bettiah,"Kamalnath Nagar, Bettiah - BSPCB",24-04-2024 19:00:00,26.80365,84.51954,PM10,75,359,140
India,Bihar,Bettiah,"Kamalnath Nagar, Bettiah - BSPCB",24-04-2024 19:00:00,26.80365,84.51954,CO,62,64,64
India,Bihar,Bhagalpur,"DM Office_Kachari Chowk, Bhagalpur - BSPCB",24-04-2024 19:00:00,25.251013,86.989001,NH3,3,8,4
India,Bihar,Bhagalpur,"DM Office_Kachari Chowk, Bhagalpur - BSPCB",24-04-2024 19:00:00,25.251013,86.989001,CO,17,96,53
India,Bihar,Bhagalpur,"Mayaganj, Bhagalpur - BSPCB",24-04-2024 19:00:00,25.265194,87.012947,CO,8,10,9
India,Bihar,Bhagalpur,"Mayaganj, Bhagalpur - BSPCB",24-04-2024 19:00:00,25.265194,87.012947,OZONE,25,108,82
India,Bihar,Chhapra,"Darshan Nagar, Chhapra - BSPCB",24-04-2024 19:00:00,25.7808257,84.7446768,PM10,82,138,109
India,Bihar,Chhapra,"Darshan Nagar, Chhapra - BSPCB",24-04-2024 19:00:00,25.7808257,84.7446768,SO2,2,21,10
India,Bihar,Gaya,"Collectorate, Gaya - BSPCB",24-04-2024 19:00:00,24.7955,84.9994,NO2,1,3,2
India,Bihar,Gaya,"SFTI Kusdihra, Gaya - BSPCB",24-04-2024 19:00:00,24.762518,84.982348,PM10,48,69,58
India,Bihar,Gaya,"SFTI Kusdihra, Gaya - BSPCB",24-04-2024 19:00:00,24.762518,84.982348,NO2,15,82,46
India,Bihar,Gaya,"SFTI Kusdihra, Gaya - BSPCB",24-04-2024 19:00:00,24.762518,84.982348,CO,16,36,25
India,Bihar,Katihar,"Mirchaibari, Katihar - BSPCB",24-04-2024 19:00:00,25.560083,87.553265,NO2,23,42,30
India,Bihar,Katihar,"Mirchaibari, Katihar - BSPCB",24-04-2024 19:00:00,25.560083,87.553265,SO2,16,26,20
India,Bihar,Katihar,"Mirchaibari, Katihar - BSPCB",24-04-2024 19:00:00,25.560083,87.553265,OZONE,11,24,17
India,Bihar,Kishanganj,"SDM Office_Khagra, Kishanganj - BSPCB",24-04-2024 19:00:00,26.0881305,87.93840336,PM2.5,55,120,75
India,Bihar,Motihari,"Gandak Colony, Motihari - BSPCB",24-04-2024 19:00:00,26.63086,84.90051,PM2.5,25,157,64
India,Bihar,Motihari,"Gandak Colony, Motihari - BSPCB",24-04-2024 19:00:00,26.63086,84.90051,NO2,31,112,76
India,Bihar,Munger,"Town Hall, Munger - BSPCB",24-04-2024 19:00:00,25.376776,86.471523,NH3,2,2,2
India,Bihar,Munger,"Town Hall, Munger - BSPCB",24-04-2024 19:00:00,25.376776,86.471523,SO2,12,25,16
India,Bihar,Muzaffarpur,"Buddha Colony, Muzaffarpur - BSPCB",24-04-2024 19:00:00,26.11442,85.39813,PM10,152,281,195
India,Bihar,Muzaffarpur,"Buddha Colony, Muzaffarpur - BSPCB",24-04-2024 19:00:00,26.11442,85.39813,NH3,16,24,20
India,Bihar,Muzaffarpur,"Buddha Colony, Muzaffarpur - BSPCB",24-04-2024 19:00:00,26.11442,85.39813,OZONE,20,55,49
India,Bihar,Muzaffarpur,"Muzaffarpur Collectorate, Muzaffarpur - BSPCB",24-04-2024 19:00:00,26.1209,85.3647,NO2,6,278,60
India,Bihar,Muzaffarpur,"Muzaffarpur Collectorate, Muzaffarpur - BSPCB",24-04-2024 19:00:00,26.1209,85.3647,OZONE,43,97,72
India,Bihar,Patna,"DRM Office Danapur, Patna - BSPCB",24-04-2024 19:00:00,25.586562,85.043586,PM2.5,54,178,101
India,Bihar,Patna,"DRM Office Danapur, Patna - BSPCB",24-04-2024 19:00:00,25.586562,85.043586,NH3,3,3,3
India,Bihar,Patna,"Govt. High School Shikarpur, Patna - BSPCB",24-04-2024 19:00:00,25.592539,85.227158,PM10,91,353,163
India,Bihar,Patna,"Govt. High School Shikarpur, Patna - BSPCB",24-04-2024 19:00:00,25.592539,85.227158,CO,26,91,31
India,Bihar,Patna,"Govt. High School Shikarpur, Patna - BSPCB",24-04-2024 19:00:00,25.592539,85.227158,OZONE,1,59,49
India,Bihar,Patna,"IGSC Planetarium Complex, Patna - BSPCB",24-04-2024 19:00:00,25.610369,85.132568,PM2.5,45,323,156
India,Bihar,Patna,"Muradpur, Patna - BSPCB",24-04-2024 19:00:00,25.619651,85.147382,NH3,2,5,3
India,Bihar,Patna,"Muradpur, Patna - BSPCB",24-04-2024 19:00:00,25.619651,85.147382,SO2,7,13,9
India,Bihar,Patna,"Muradpur, Patna - BSPCB",24-04-2024 19:00:00,25.619651,85.147382,CO,2,109,21
India,Bihar,Patna,"Rajbansi Nagar, Patna - BSPCB",24-04-2024 19:00:00,25.599486,85.113666,PM2.5,86,280,190
India,Bihar,Patna,"Samanpura, Patna - BSPCB",24-04-2024 19:00:00,25.596727,85.085624,PM2.5,56,342,236
India,Bihar,Patna,"Samanpura, Patna - BSPCB",24-04-2024 19:00:00,25.596727,85.085624,OZONE,19,146,128
India,Bihar,Purnia,"Mariam Nagar, Purnia - BSPCB",24-04-2024 19:00:00,25.366336,87.117468,CO,4,66,24
India,Bihar,Samastipur,"DM Office_Kasipur, Samastipur - BSPCB",24-04-2024 19:00:00,25.859655,85.77944,PM2.5,NA,NA,NA
India,Bihar,Siwan,"Chitragupta Nagar, Siwan - BSPCB",24-04-2024 19:00:00,26.2271665,84.3570427,PM2.5,27,75,49
India,Bihar,Siwan,"Chitragupta Nagar, Siwan - BSPCB",24-04-2024 19:00:00,26.2271665,84.3570427,CO,85,128,113
India,Chandigarh,Chandigarh,"Sector 22, Chandigarh - CPCC",24-04-2024 19:00:00,30.735567,76.775714,PM10,26,173,75
India,Chandigarh,Chandigarh,"Sector 22, Chandigarh - CPCC",24-04-2024 19:00:00,30.735567,76.775714,SO2,5,26,12
India,Chandigarh,Chandigarh,"Sector 22, Chandigarh - CPCC",24-04-2024 19:00:00,30.735567,76.775714,OZONE,3,236,175
India,Chandigarh,Chandigarh,"Sector-25, Chandigarh - CPCC",24-04-2024 19:00:00,30.751462,76.762879,CO,12,86,17
India,Chandigarh,Chandigarh,"Sector-53, Chandigarh - CPCC",24-04-2024 19:00:00,30.719859,76.738637,PM2.5,25,170,71
India,Chhattisgarh,Bhilai,"Civic Center, Bhilai - Bhilai Steel Plant",24-04-2024 19:00:00,21.185571,81.343175,NO2,13,16,16
India,Chhattisgarh,Bhilai,"Hathkhoj, Bhilai - CECB",24-04-2024 19:00:00,21.224231,81.408350,PM2.5,7,100,38
India,Chhattisgarh,Bilaspur,"Mangala, Bilaspur - NTPC",24-04-2024 19:00:00,22.08815,82.13737,CO,20,32,32
India,Chhattisgarh,Korba,"Rampur, Korba - CECB",24-04-2024 19:00:00,22.368195,82.746431,CO,16,30,21
India,Chhattisgarh,Korba,"Urja Nagar, Korba - CECB",24-04-2024 19:00:00,22.348441,82.549611,PM2.5,19,257,62
India,Chhattisgarh,Korba,"Urja Nagar, Korba - CECB",24-04-2024 19:00:00,22.348441,82.549611,NH3,1,15,6
India,Chhattisgarh,Raipur,"Bhatagaon New ISBT, Raipur - CECB",24-04-2024 19:00:00,21.219665,81.630094,PM10,7,122,51
India,Chhattisgarh,Raipur,"Krishak Nagar, Raipur - CECB",24-04-2024 19:00:00,21.237755,81.705301,PM10,19,87,43
India,Chhattisgarh,Raipur,"Siltara Phase-II, Raipur - CECB",24-04-2024 19:00:00,21.371751,81.664929,PM2.5,25,78,48
India,Chhattisgarh,Raipur,"Siltara Phase-II, Raipur - CECB",24-04-2024 19:00:00,21.371751,81.664929,SO2,8,81,26
India,Chhattisgarh,Tumidih,"OP Jindal Industrial Park, Tumidih - CECB",24-04-2024 19:00:00,22.06631475,83.33820077,PM2.5,34,61,51
India,Delhi,Delhi,"Alipur, Delhi - DPCC",24-04-2024 19:00:00,28.815329,77.153010,PM2.5,20,430,143
India,Delhi,Delhi,"Alipur, Delhi - DPCC",24-04-2024 19:00:00,28.815329,77.153010,NO2,10,99,46
India,Delhi,Delhi,"Alipur, Delhi - DPCC",24-04-2024 19:00:00,28.815329,77.153010,SO2,8,83,23
India,Delhi,Delhi,"Anand Vihar, Delhi - DPCC",24-04-2024 19:00:00,28.647622,77.3158090,PM10,100,311,188
India,Delhi,Delhi,"Ashok Vihar, Delhi - DPCC",24-04-2024 19:00:00,28.695381,77.181665,PM10,73,209,147
India,Delhi,Delhi,"Ashok Vihar, Delhi - DPCC",24-04-2024 19:00:00,28.695381,77.181665,SO2,22,39,27
India,Delhi,Delhi,"Bawana, Delhi - DPCC",24-04-2024 19:00:00,28.776200,77.051074,CO,7,74,12
India,Delhi,Delhi,"Chandni Chowk, Delhi - IITM",24-04-2024 19:00:00,28.656756,77.227234,PM10,87,198,130
India,Delhi,Delhi,"DTU, Delhi - CPCB",24-04-2024 19:00:00,28.7500499,77.1112615,PM10,80,403,166
India,Delhi,Delhi,"DTU, Delhi - CPCB",24-04-2024 19:00:00,28.7500499,77.1112615,SO2,33,42,35
India,Delhi,Delhi,"Dr. Karni Singh Shooting Range, Delhi - DPCC",24-04-2024 19:00:00,28.498571,77.264840,PM2.5,38,203,79
India,Delhi,Delhi,"Dr. Karni Singh Shooting Range, Delhi - DPCC",24-04-2024 19:00:00,28.498571,77.264840,NO2,26,124,66
India,Delhi,Delhi,"Dr. Karni Singh Shooting Range, Delhi - DPCC",24-04-2024 19:00:00,28.498571,77.264840,OZONE,1,264,174
India,Delhi,Delhi,"Dwarka-Sector 8, Delhi - DPCC ",24-04-2024 19:00:00,28.5710274,77.0719006,CO,40,76,48
India,Delhi,Delhi,"IGI Airport (T3), Delhi - IMD",24-04-2024 19:00:00,28.5627763,77.1180053,PM10,70,251,140
India,Delhi,Delhi,"IHBAS, Dilshad Garden, Delhi - CPCB",24-04-2024 19:00:00,28.6811736,77.3025234,PM2.5,65,108,79
India,Delhi,Delhi,"IHBAS, Dilshad Garden, Delhi - CPCB",24-04-2024 19:00:00,28.6811736,77.3025234,NO2,36,70,50
India,Delhi,Delhi,"IHBAS, Dilshad Garden, Delhi - CPCB",24-04-2024 19:00:00,28.6811736,77.3025234,CO,16,52,26
India,Delhi,Delhi,"IHBAS, Dilshad Garden, Delhi - CPCB",24-04-2024 19:00:00,28.6811736,77.3025234,OZONE,2,32,18
India,Delhi,Delhi,"ITO, Delhi - CPCB",24-04-2024 19:00:00,28.628624,77.241060,NH3,2,8,4
India,Delhi,Delhi,"Jahangirpuri, Delhi - DPCC",24-04-2024 19:00:00,28.732820,77.170633,PM2.5,22,374,173
India,Delhi,Delhi,"Jahangirpuri, Delhi - DPCC",24-04-2024 19:00:00,28.732820,77.170633,PM10,88,358,199
India,Delhi,Delhi,"Jahangirpuri, Delhi - DPCC",24-04-2024 19:00:00,28.732820,77.170633,CO,42,102,56
India,Delhi,Delhi,"Jawaharlal Nehru Stadium, Delhi - DPCC",24-04-2024 19:00:00,28.580280,77.233829,PM2.5,16,261,71
India,Delhi,Delhi,"Jawaharlal Nehru Stadium, Delhi - DPCC",24-04-2024 19:00:00,28.580280,77.233829,NO2,30,137,89
India,Delhi,Delhi,"Jawaharlal Nehru Stadium, Delhi - DPCC",24-04-2024 19:00:00,28.580280,77.233829,OZONE,1,264,195
India,Delhi,Delhi,"Lodhi Road, Delhi - IITM",24-04-2024 19:00:00,28.588333,77.221667,NH3,NA,NA,NA
India,Delhi,Delhi,"Lodhi Road, Delhi - IMD",24-04-2024 19:00:00,28.5918245,77.2273074,OZONE,1,67,50
India,Delhi,Delhi,"Major Dhyan Chand National Stadium, Delhi - DPCC",24-04-2024 19:00:00,28.611281,77.237738,PM10,68,425,133
India,Delhi,Delhi,"Mandir Marg, Delhi - DPCC",24-04-2024 19:00:00,28.636429,77.201067,PM10,53,129,94
India,Delhi,Delhi,"Mandir Marg, Delhi - DPCC",24-04-2024 19:00:00,28.636429,77.201067,NO2,85,122,100
India,Delhi,Delhi,"NSIT Dwarka, Delhi - CPCB",24-04-2024 19:00:00,28.60909,77.0325413,PM10,77,260,177
India,Delhi,Delhi,"NSIT Dwarka, Delhi - CPCB",24-04-2024 19:00:00,28.60909,77.0325413,CO,25,50,33
India,Delhi,Delhi,"Najafgarh, Delhi - DPCC",24-04-2024 19:00:00,28.570173,76.933762,PM10,25,315,135
India,Delhi,Delhi,"Narela, Delhi - DPCC",24-04-2024 19:00:00,28.822836,77.101981,CO,13,72,27
India,Delhi,Delhi,"Nehru Nagar, Delhi - DPCC",24-04-2024 19:00:00,28.567890,77.250515,NH3,2,3,2
India,Delhi,Delhi,"Nehru Nagar, Delhi - DPCC",24-04-2024 19:00:00,28.567890,77.250515,CO,46,62,54
India,Delhi,Delhi,"New Moti Bagh, Delhi - MHUA",24-04-2024 19:00:00,28.57834,77.18400,PM2.5,18,333,142
India,Delhi,Delhi,"North Campus, DU, Delhi - IMD",24-04-2024 19:00:00,28.6573814,77.1585447,OZONE,4,99,75
India,Delhi,Delhi,"Okhla Phase-2, Delhi - DPCC",24-04-2024 19:00:00,28.530785,77.271255,PM2.5,12,317,85
India,Delhi,Delhi,"Patparganj, Delhi - DPCC",24-04-2024 19:00:00,28.623763,77.287209,PM10,94,185,144
India,Delhi,Delhi,"Patparganj, Delhi - DPCC",24-04-2024 19:00:00,28.623763,77.287209,NH3,6,11,9
India,Delhi,Delhi,"Punjabi Bagh, Delhi - DPCC",24-04-2024 19:00:00,28.674045,77.131023,PM10,74,208,140
India,Delhi,Delhi,"Punjabi Bagh, Delhi - DPCC",24-04-2024 19:00:00,28.674045,77.131023,NO2,38,74,55
India,Delhi,Delhi,"Punjabi Bagh, Delhi - DPCC",24-04-2024 19:00:00,28.674045,77.131023,CO,19,84,33
India,Delhi,Delhi,"Pusa, Delhi - DPCC",24-04-2024 19:00:00,28.639652,77.146275,PM2.5,22,237,80
India,Delhi,Delhi,"Pusa, Delhi - IMD",24-04-2024 19:00:00,28.636110,77.173332,PM10,72,201,142
India,Delhi,Delhi,"Rohini, Delhi - DPCC",24-04-2024 19:00:00,28.732528,77.119920,PM2.5,23,433,144
India,Delhi,Delhi,"Shadipur, Delhi - CPCB",24-04-2024 19:00:00,28.6514781,77.1473105,OZONE,55,89,67
India,Delhi,Delhi,"Sirifort, Delhi - CPCB",24-04-2024 19:00:00,28.5504249,77.2159377,CO,5,90,17
India,Delhi,Delhi,"Sonia Vihar, Delhi - DPCC",24-04-2024 19:00:00,28.710508,77.249485,NO2,14,104,52
India,Delhi,Delhi,"Vivek Vihar, Delhi - DPCC",24-04-2024 19:00:00,28.672342,77.315260,PM2.5,20,314,104
India,Delhi,Delhi,"Vivek Vihar, Delhi - DPCC",24-04-2024 19:00:00,28.672342,77.315260,PM10,90,199,145
India,Delhi,Delhi,"Vivek Vihar, Delhi - DPCC",24-04-2024 19:00:00,28.672342,77.315260,NO2,26,110,71
India,Delhi,Delhi,"Vivek Vihar, Delhi - DPCC",24-04-2024 19:00:00,28.672342,77.315260,SO2,27,47,35
India,Gujarat,Ahmedabad,"Chandkheda, Ahmedabad - IITM",24-04-2024 19:00:00,23.107969,72.574648,NO2,52,178,115
India,Gujarat,Ahmedabad,"Gyaspur, Ahmedabad - IITM",24-04-2024 19:00:00,22.977134,72.553024,PM2.5,61,261,102
India,Gujarat,Ahmedabad,"SAC ISRO Satellite, Ahmedabad - IITM",24-04-2024 19:00:00,23.023389,72.515201,PM2.5,115,119,117
India,Gujarat,Ahmedabad,"SAC ISRO Satellite, Ahmedabad - IITM",24-04-2024 19:00:00,23.023389,72.515201,NH3,3,3,3
India,Gujarat,Ahmedabad,"SAC ISRO Satellite, Ahmedabad - IITM",24-04-2024 19:00:00,23.023389,72.515201,CO,26,28,26
India,Gujarat,Ahmedabad,"SAC ISRO Satellite, Ahmedabad - IITM",24-04-2024 19:00:00,23.023389,72.515201,OZONE,14,24,22
India,Gujarat,Ahmedabad,"SVPI Airport Hansol, Ahmedabad - IITM",24-04-2024 19:00:00,23.076793,72.627874,OZONE,7,47,34
India,Gujarat,Ahmedabad,"Sardar Vallabhbhai Patel Stadium, Ahmedabad - IITM",24-04-2024 19:00:00,23.043070,72.562968,NO2,35,41,40
India,Gujarat,Ankleshwar,"GIDC, Ankleshwar - GPCB",24-04-2024 19:00:00,21.613267,73.010555,OZONE,22,36,32
India,Gujarat,Gandhinagar,"IIPHG Lekawada, Gandhinagar - IITM",24-04-2024 19:00:00,23.243639,72.68994,NH3,NA,NA,NA
India,Gujarat,Gandhinagar,"IIPHG Lekawada, Gandhinagar - IITM",24-04-2024 19:00:00,23.243639,72.68994,CO,30,46,37
India,Gujarat,Gandhinagar,"Sector-10, Gandhinagar - GPCB",24-04-2024 19:00:00,23.221714,72.654328,OZONE,2,62,44
India,Gujarat,Nandesari,"GIDC, Nandesari - Nandesari Ind. Association",24-04-2024 19:00:00,22.410802,73.097923,PM2.5,69,335,183
India,Gujarat,Surat,"Science Center, Surat - SMC",24-04-2024 19:00:00,21.170046,72.795405,PM2.5,2,28,14
India,Gujarat,Vatva,"Phase-4 GIDC, Vatva - GPCB",24-04-2024 19:00:00,22.969611,72.643500,OZONE,10,60,41
India,Haryana,Ambala,"Patti Mehar, Ambala - HSPCB",24-04-2024 19:00:00,30.379589,76.778328,PM2.5,17,141,69
India,Haryana,Ballabgarh,"Nathu Colony, Ballabgarh - HSPCB",24-04-2024 19:00:00,28.3419248,77.319699,NO2,11,13,12
India,Haryana,Ballabgarh,"Nathu Colony, Ballabgarh - HSPCB",24-04-2024 19:00:00,28.3419248,77.319699,OZONE,2,29,23
India,Haryana,Bhiwani,"H.B. Colony, Bhiwani - HSPCB",24-04-2024 19:00:00,28.806223,76.141105,NO2,4,12,9
India,Haryana,Bhiwani,"H.B. Colony, Bhiwani - HSPCB",24-04-2024 19:00:00,28.806223,76.141105,SO2,1,13,6
India,Haryana,Bhiwani,"H.B. Colony, Bhiwani - HSPCB",24-04-2024 19:00:00,28.806223,76.141105,OZONE,7,41,26
India,Haryana,Dharuhera,"Municipal Corporation Office, Dharuhera -  HSPCB",24-04-2024 19:00:00,28.206800,76.799700,PM10,20,189,134
India,Haryana,Faridabad,"New Industrial Town, Faridabad - HSPCB",24-04-2024 19:00:00,28.39072,77.30059,CO,6,38,10
India,Haryana,Faridabad,"Sector 11, Faridabad - HSPCB",24-04-2024 19:00:00,28.376058,77.315741,NO2,30,33,31
India,Haryana,Faridabad,"Sector 30, Faridabad - HSPCB",24-04-2024 19:00:00,28.4417,77.3217,NO2,NA,NA,NA
India,Haryana,Fatehabad,"Huda Sector, Fatehabad - HSPCB",24-04-2024 19:00:00,29.503664,75.467934,NO2,29,31,30
India,Haryana,Fatehabad,"Huda Sector, Fatehabad - HSPCB",24-04-2024 19:00:00,29.503664,75.467934,OZONE,47,76,59
India,Haryana,Gurugram,"Teri Gram, Gurugram - HSPCB",24-04-2024 19:00:00,28.4275,77.1465,PM2.5,2,366,118
India,Haryana,Gurugram,"Vikas Sadan, Gurugram - HSPCB",24-04-2024 19:00:00,28.4501238,77.0263051,PM2.5,59,500,232
India,Haryana,Gurugram,"Vikas Sadan, Gurugram - HSPCB",24-04-2024 19:00:00,28.4501238,77.0263051,OZONE,8,68,51
India,Haryana,Jind,"Police Lines, Jind - HSPCB",24-04-2024 19:00:00,29.307814,76.337619,OZONE,14,27,22
India,Haryana,Kaithal,"Rishi Nagar, Kaithal - HSPCB",24-04-2024 19:00:00,29.8006,76.4155,SO2,20,65,45
India,Haryana,Kaithal,"Rishi Nagar, Kaithal - HSPCB",24-04-2024 19:00:00,29.8006,76.4155,OZONE,1,25,18
India,Haryana,Karnal,"Sector-12, Karnal - HSPCB",24-04-2024 19:00:00,29.695300,77.002700,NH3,10,13,11
India,Haryana,Kurukshetra,"Sector-7, Kurukshetra - HSPCB",24-04-2024 19:00:00,29.966942,76.875879,PM10,42,133,106
India,Haryana,Kurukshetra,"Sector-7, Kurukshetra - HSPCB",24-04-2024 19:00:00,29.966942,76.875879,NH3,5,5,5
India,Haryana,Kurukshetra,"Sector-7, Kurukshetra - HSPCB",24-04-2024 19:00:00,29.966942,76.875879,SO2,2,3,3
India,Haryana,Kurukshetra,"Sector-7, Kurukshetra - HSPCB",24-04-2024 19:00:00,29.966942,76.875879,CO,4,46,9
India,Haryana,Kurukshetra,"Sector-7, Kurukshetra - HSPCB",24-04-2024 19:00:00,29.966942,76.875879,OZONE,4,79,76
India,Haryana,Mandikhera,"General Hospital, Mandikhera - HSPCB",24-04-2024 19:00:00,27.9002,76.9938,SO2,29,39,34
India,Haryana,Manesar,"Sector-2 IMT, Manesar - HSPCB",24-04-2024 19:00:00,28.360699,76.936090,PM10,35,118,81
India,Haryana,Manesar,"Sector-2 IMT, Manesar - HSPCB",24-04-2024 19:00:00,28.360699,76.936090,NH3,1,3,2
India,Haryana,Manesar,"Sector-2 IMT, Manesar - HSPCB",24-04-2024 19:00:00,28.360699,76.936090,OZONE,1,103,89
India,Haryana,Narnaul,"Shastri Nagar, Narnaul - HSPCB",24-04-2024 19:00:00,28.060249,76.113115,NH3,5,28,16
India,Haryana,Palwal,"Shyam Nagar, Palwal - HSPCB",24-04-2024 19:00:00,28.1485564,77.3320667,CO,18,106,22
India,Haryana,Panipat,"Sector-18, Panipat - HSPCB",24-04-2024 19:00:00,29.497973,76.993331,PM2.5,92,131,103
India,Haryana,Panipat,"Sector-18, Panipat - HSPCB",24-04-2024 19:00:00,29.497973,76.993331,CO,24,26,25
India,Haryana,Sirsa,"F-Block, Sirsa - HSPCB",24-04-2024 19:00:00,29.536400,75.015800,NO2,9,11,10
India,Haryana,Sirsa,"F-Block, Sirsa - HSPCB",24-04-2024 19:00:00,29.536400,75.015800,OZONE,20,68,61
India,Himachal Pradesh,Baddi,"HIMUDA Complex Phase-1, Baddi - HPPCB",24-04-2024 19:00:00,30.943887,76.801991,NO2,4,35,11
India,Himachal Pradesh,Baddi,"HIMUDA Complex Phase-1, Baddi - HPPCB",24-04-2024 19:00:00,30.943887,76.801991,NH3,2,3,2
India,Himachal Pradesh,Baddi,"HIMUDA Complex Phase-1, Baddi - HPPCB",24-04-2024 19:00:00,30.943887,76.801991,SO2,7,50,15
India,Himachal Pradesh,Baddi,"HIMUDA Complex Phase-1, Baddi - HPPCB",24-04-2024 19:00:00,30.943887,76.801991,OZONE,80,202,185
India,Jharkhand,Dhanbad,"Kalakusuma, Dhanbad - DMC",24-04-2024 19:00:00,23.811548,86.481238,PM2.5,23,72,30
India,Jharkhand,Dhanbad,"Kalakusuma, Dhanbad - DMC",24-04-2024 19:00:00,23.811548,86.481238,OZONE,29,29,29
India,Jharkhand,Dhanbad,"Sardar Patel Nagar, Dhanbad - JSPCB",24-04-2024 19:00:00,23.80569,86.44268,CO,1,111,30
India,Jharkhand,Pathardih,"Mohalbani Ghat, Pathardih - DMC",24-04-2024 19:00:00,23.669880,86.411725,OZONE,NA,NA,NA
India,Karnataka,Bagalkot,"Vidayagiri, Bagalkot - KSPCB",24-04-2024 19:00:00,16.172806,75.659694,NO2,9,10,9
India,Karnataka,Bagalkot,"Vidayagiri, Bagalkot - KSPCB",24-04-2024 19:00:00,16.172806,75.659694,NH3,1,2,1
India,Karnataka,Belgaum,"Ramteerth Nagar, Belgaum - KSPCB",24-04-2024 19:00:00,15.888653,74.541751,NH3,1,5,3
India,Karnataka,Bengaluru,"BTM Layout, Bengaluru - CPCB",24-04-2024 19:00:00,12.9135218,77.5950804,NH3,4,5,4
India,Karnataka,Bengaluru,"Hebbal, Bengaluru - KSPCB",24-04-2024 19:00:00,13.029152,77.585901,PM10,50,111,90
India,Karnataka,Bengaluru,"Hombegowda Nagar, Bengaluru - KSPCB",24-04-2024 19:00:00,12.938539,77.590100,CO,22,34,28
India,Karnataka,Bengaluru,"Jayanagar 5th Block, Bengaluru - KSPCB",24-04-2024 19:00:00,12.920984,77.584908,NO2,4,8,5
India,Karnataka,Bengaluru,"Jayanagar 5th Block, Bengaluru - KSPCB",24-04-2024 19:00:00,12.920984,77.584908,NH3,3,4,3
India,Karnataka,Bengaluru,"Kasturi Nagar, Bengaluru - KSPCB",24-04-2024 19:00:00,13.003872,77.664217,PM10,60,378,117
India,Karnataka,Bengaluru,"Kasturi Nagar, Bengaluru - KSPCB",24-04-2024 19:00:00,13.003872,77.664217,OZONE,17,110,100
India,Karnataka,Bengaluru,"Peenya, Bengaluru - CPCB",24-04-2024 19:00:00,13.0270199,77.494094,PM10,70,92,82
India,Karnataka,Bengaluru,"Peenya, Bengaluru - CPCB",24-04-2024 19:00:00,13.0270199,77.494094,NO2,13,39,21
India,Karnataka,Bengaluru,"Peenya, Bengaluru - CPCB",24-04-2024 19:00:00,13.0270199,77.494094,OZONE,3,20,13
India,Karnataka,Bengaluru,"RVCE-Mailasandra, Bengaluru - KSPCB",24-04-2024 19:00:00,12.921418,77.502466,NO2,16,17,17
India,Karnataka,Bengaluru,"Sanegurava Halli, Bengaluru - KSPCB",24-04-2024 19:00:00,12.990328,77.5431385,SO2,2,3,3
India,Karnataka,Bidar,"Naubad, Bidar - KSPCB",24-04-2024 19:00:00,17.930306,77.482194,NO2,NA,NA,NA
India,Karnataka,Chamarajanagar,"Urban, Chamarajanagar - KSPCB",24-04-2024 19:00:00,11.55358,76.55521,PM2.5,23,44,31
India,Karnataka,Chamarajanagar,"Urban, Chamarajanagar - KSPCB",24-04-2024 19:00:00,11.55358,76.55521,PM10,38,58,44
India,Karnataka,Chikkamagaluru,"Kalyana Nagara, Chikkamagaluru - KSPCB",24-04-2024 19:00:00,13.328028,75.797056,NO2,18,35,29
India,Karnataka,Chikkamagaluru,"Kalyana Nagara, Chikkamagaluru - KSPCB",24-04-2024 19:00:00,13.328028,75.797056,CO,11,114,51
India,Karnataka,Davanagere,"Devaraj Urs Badavane, Davanagere - KSPCB",24-04-2024 19:00:00,14.475800,75.905200,NH3,1,2,2
India,Karnataka,Dharwad,"Kalabhavan, Dharwad - KSPCB",24-04-2024 19:00:00,15.459706,75.008381,SO2,1,3,3
India,Karnataka,Gadag,"Panchal Nagar, Gadag - KSPCB",24-04-2024 19:00:00,15.411456,75.638133,PM10,37,63,44
India,Karnataka,Gadag,"Panchal Nagar, Gadag - KSPCB",24-04-2024 19:00:00,15.411456,75.638133,CO,44,56,47
India,Karnataka,Haveri,"Ashwini Nagar, Haveri - KSPCB",24-04-2024 19:00:00,14.791800,75.389600,PM2.5,41,70,51
India,Karnataka,Haveri,"Ashwini Nagar, Haveri - KSPCB",24-04-2024 19:00:00,14.791800,75.389600,NO2,17,34,28
India,Karnataka,Haveri,"Ashwini Nagar, Haveri - KSPCB",24-04-2024 19:00:00,14.791800,75.389600,CO,22,38,25
India,Karnataka,Kalaburagi,"Lal Bahadur Shastri Nagar, Kalaburagi - KSPCB",24-04-2024 19:00:00,17.321993,76.822628,CO,42,80,43
India,Karnataka,Kalaburagi,"Mahatma Basaveswar Colony, Kalaburgi - KSPCB",24-04-2024 19:00:00,17.336318,76.847397,PM10,NA,NA,NA
India,Karnataka,Kalaburagi,"Mahatma Basaveswar Colony, Kalaburgi - KSPCB",24-04-2024 19:00:00,17.336318,76.847397,SO2,NA,NA,NA
India,Karnataka,Karwar,"KHB Colony, Karwar - KSPCB",24-04-2024 19:00:00,14.816666,74.141003,SO2,NA,NA,NA
India,Karnataka,Karwar,"KHB Colony, Karwar - KSPCB",24-04-2024 19:00:00,14.816666,74.141003,OZONE,21,22,22
India,Karnataka,Kolar,"Tamaka Ind. Area, Kolar - KSPCB",24-04-2024 19:00:00,13.1276288,78.1570122,NO2,NA,NA,NA
India,Karnataka,Kolar,"Tamaka Ind. Area, Kolar - KSPCB",24-04-2024 19:00:00,13.1276288,78.1570122,CO,NA,NA,NA
India,Karnataka,Koppal,"Diwator Nagar, Koppal - KSPCB",24-04-2024 19:00:00,15.347630,76.181767,PM10,18,92,34
India,Karnataka,Koppal,"Diwator Nagar, Koppal - KSPCB",24-04-2024 19:00:00,15.347630,76.181767,SO2,28,28,28
India,Karnataka,Madikeri,"Stuart Hill, Madikeri - KSPCB",24-04-2024 19:00:00,12.415911,75.735050,PM2.5,19,50,34
India,Karnataka,Madikeri,"Stuart Hill, Madikeri - KSPCB",24-04-2024 19:00:00,12.415911,75.735050,OZONE,21,49,42
India,Karnataka,Mangalore,"Kadri, Mangalore - KSPCB",24-04-2024 19:00:00,12.889250,74.853000,NO2,5,6,6
India,Karnataka,Mangalore,"Kadri, Mangalore - KSPCB",24-04-2024 19:00:00,12.889250,74.853000,NH3,1,2,2
India,Karnataka,Mangalore,"Kadri, Mangalore - KSPCB",24-04-2024 19:00:00,12.889250,74.853000,OZONE,27,33,31
India,Karnataka,Raichur,"Haji Colony, Raichur - KSPCB",24-04-2024 19:00:00,16.208139,77.348417,SO2,73,100,85
India,Karnataka,Raichur,"Haji Colony, Raichur - KSPCB",24-04-2024 19:00:00,16.208139,77.348417,OZONE,3,6,5
India,Karnataka,Ramanagara,"Vijay Nagar, Ramanagara - KSPCB",24-04-2024 19:00:00,12.733409,77.298051,PM10,22,54,37
India,Karnataka,Shivamogga,"Vinoba Nagara, Shivamogga - KSPCB",24-04-2024 19:00:00,13.940000,75.555917,PM10,44,85,55
India,Karnataka,Tumakuru,"Thimmalapura, Tumakuru - KSPCB",24-04-2024 19:00:00,13.377516,77.099072,PM10,91,158,127
India,Karnataka,Tumakuru,"Thimmalapura, Tumakuru - KSPCB",24-04-2024 19:00:00,13.377516,77.099072,CO,28,34,31
India,Karnataka,Vijayapura,"Ibrahimpur, Vijayapura - KSPCB",24-04-2024 19:00:00,16.802639,75.722694,PM2.5,26,31,30
India,Karnataka,Vijayapura,"Ibrahimpur, Vijayapura - KSPCB",24-04-2024 19:00:00,16.802639,75.722694,PM10,42,43,42
India,Karnataka,Vijayapura,"Ibrahimpur, Vijayapura - KSPCB",24-04-2024 19:00:00,16.802639,75.722694,SO2,1,43,11
India,Kerala,Kannur,"Thavakkara, Kannur - Kerala PCB",24-04-2024 19:00:00,11.875000,75.373200,NO2,6,7,6
India,Kerala,Kollam,"Polayathode, Kollam - Kerala PCB",24-04-2024 19:00:00,8.8787,76.6073,SO2,1,10,3
India,Kerala,Kollam,"Polayathode, Kollam - Kerala PCB",24-04-2024 19:00:00,8.8787,76.6073,CO,14,18,16
India,Kerala,Thiruvananthapuram,"Kariavattom, Thiruvananthapuram - Kerala PCB",24-04-2024 19:00:00,8.563700,76.886500,NH3,1,1,1
India,Kerala,Thiruvananthapuram,"Kariavattom, Thiruvananthapuram - Kerala PCB",24-04-2024 19:00:00,8.563700,76.886500,OZONE,28,32,30
India,Kerala,Thrissur,"Corporation Ground, Thrissur - Kerala PCB",24-04-2024 19:00:00,10.532400,76.215900,PM2.5,44,51,47
India,Kerala,Thrissur,"Corporation Ground, Thrissur - Kerala PCB",24-04-2024 19:00:00,10.532400,76.215900,OZONE,28,32,30
India,Madhya Pradesh,Bhopal,"Idgah Hills, Bhopal - MPPCB",24-04-2024 19:00:00,23.264759,77.381568,CO,23,76,35
India,Madhya Pradesh,Bhopal,"Paryavaran Parisar, Bhopal - MPPCB",24-04-2024 19:00:00,23.210494,77.425409,OZONE,7,90,80
India,Madhya Pradesh,Dewas,"Bhopal Chauraha, Dewas - MPPCB",24-04-2024 19:00:00,22.9682591,76.064118,PM10,21,121,54
India,Madhya Pradesh,Dewas,"Bhopal Chauraha, Dewas - MPPCB",24-04-2024 19:00:00,22.9682591,76.064118,NO2,12,14,13
India,Madhya Pradesh,Gwalior,"City Center, Gwalior - MPPCB",24-04-2024 19:00:00,26.203442,78.193251,CO,16,113,55
India,Madhya Pradesh,Gwalior,"Deen Dayal Nagar, Gwalior - MPPCB",24-04-2024 19:00:00,26.259242,78.216432,NH3,5,9,6
India,Madhya Pradesh,Indore,"Chhoti Gwaltoli, Indore - MPPCB",24-04-2024 19:00:00,22.4310,75.5213,PM2.5,16,138,54
