country,state,city,station,last_update,latitude,longitude,pollutant_id,pollutant_min,pollutant_max,pollutant_avg
India,Andhra_Pradesh,Amaravati,"Secretariat, Amaravati - APPCB",29-05-2024 04:00:00,16.5150833,80.5181667,PM2.5,27,96,50
India,Andhra_Pradesh,Amaravati,"Secretariat, Amaravati - APPCB",29-05-2024 04:00:00,16.5150833,80.5181667,NO2,6,20,10
India,Andhra_Pradesh,Amaravati,"Secretariat, Amaravati - APPCB",29-05-2024 04:00:00,16.5150833,80.5181667,NH3,3,4,4
India,Andhra_Pradesh,Anantapur,"Gulzarpet, Anantapur - APPCB",29-05-2024 04:00:00,14.675886,77.593027,PM2.5,20,48,33
India,Andhra_Pradesh,Anantapur,"Gulzarpet, Anantapur - APPCB",29-05-2024 04:00:00,14.675886,77.593027,OZONE,1,29,12
India,Andhra_Pradesh,Chittoor,"Gangineni Cheruvu, Chittoor - APPCB",29-05-2024 04:00:00,13.204880,79.097889,CO,NA,NA,NA
India,Andhra_Pradesh,Chittoor,"Gangineni Cheruvu, Chittoor - APPCB",29-05-2024 04:00:00,13.204880,79.097889,OZONE,NA,NA,NA
India,Andhra_Pradesh,Kadapa,"Yerramukkapalli, Kadapa - APPCB",29-05-2024 04:00:00,14.465052,78.824187,PM2.5,41,56,48
India,Andhra_Pradesh,Kadapa,"Yerramukkapalli, Kadapa - APPCB",29-05-2024 04:00:00,14.465052,78.824187,CO,6,34,15
India,Andhra_Pradesh,Rajamahendravaram,"Anand Kala Kshetram, Rajamahendravaram - APPCB",29-05-2024 04:00:00,16.9872867,81.7363176,PM10,68,144,93
India,Andhra_Pradesh,Rajamahendravaram,"Anand Kala Kshetram, Rajamahendravaram - APPCB",29-05-2024 04:00:00,16.9872867,81.7363176,NH3,3,5,4
India,Andhra_Pradesh,Rajamahendravaram,"Anand Kala Kshetram, Rajamahendravaram - APPCB",29-05-2024 04:00:00,16.9872867,81.7363176,SO2,8,100,27
India,Andhra_Pradesh,Rajamahendravaram,"Anand Kala Kshetram, Rajamahendravaram - APPCB",29-05-2024 04:00:00,16.9872867,81.7363176,CO,4,77,17
India,Andhra_Pradesh,Tirupati,"Tirumala, Tirupati - APPCB",29-05-2024 04:00:00,13.67,79.35,NH3,1,1,1
India,Andhra_Pradesh,Tirupati,"Vaikuntapuram, Tirupati - APPCB",29-05-2024 04:00:00,13.615387,79.409230,NO2,14,31,17
India,Andhra_Pradesh,Tirupati,"Vaikuntapuram, Tirupati - APPCB",29-05-2024 04:00:00,13.615387,79.409230,NH3,2,3,2
India,Andhra_Pradesh,Vijayawada,"HB Colony, Vijayawada - APPCB",29-05-2024 04:00:00,16.536107,80.594233,NH3,5,5,5
India,Andhra_Pradesh,Vijayawada,"Kanuru, Vijayawada - APPCB",29-05-2024 04:00:00,16.486692,80.699436,PM2.5,NA,NA,NA
India,Andhra_Pradesh,Vijayawada,"Kanuru, Vijayawada - APPCB",29-05-2024 04:00:00,16.486692,80.699436,NO2,NA,NA,NA
India,Andhra_Pradesh,Vijayawada,"Rajiv Nagar, Vijayawada - APPCB",29-05-2024 04:00:00,16.554731,80.649110,NH3,2,3,2
India,Andhra_Pradesh,Vijayawada,"Rajiv Nagar, Vijayawada - APPCB",29-05-2024 04:00:00,16.554731,80.649110,OZONE,17,28,20
India,Andhra_Pradesh,Visakhapatnam,"GVM Corporation, Visakhapatnam - APPCB",29-05-2024 04:00:00,17.72,83.3,PM2.5,56,157,82
India,Andhra_Pradesh,Visakhapatnam,"GVM Corporation, Visakhapatnam - APPCB",29-05-2024 04:00:00,17.72,83.3,NO2,38,61,47
India,Assam,Guwahati,"IITG, Guwahati - PCBA",29-05-2024 04:00:00,26.2028636,91.70046436,PM2.5,1,15,7
India,Assam,Guwahati,"LGBI Airport, Guwahati - PCBA",29-05-2024 04:00:00,26.10887,91.589544,SO2,6,11,8
India,Assam,Guwahati,"Railway Colony, Guwahati - PCBA",29-05-2024 04:00:00,26.181742,91.78063,PM10,NA,NA,NA
India,Assam,Guwahati,"Railway Colony, Guwahati - PCBA",29-05-2024 04:00:00,26.181742,91.78063,SO2,NA,NA,NA
India,Assam,Guwahati,"Railway Colony, Guwahati - PCBA",29-05-2024 04:00:00,26.181742,91.78063,CO,NA,NA,NA
India,Assam,Silchar,"Tarapur, Silchar - PCBA",29-05-2024 04:00:00,24.82827,92.79525,OZONE,1,17,1
India,Assam,Sivasagar,"Girls College, Sivasagar - PCBA",29-05-2024 04:00:00,26.987634,94.636574,NH3,2,4,2
India,Assam,Sivasagar,"Girls College, Sivasagar - PCBA",29-05-2024 04:00:00,26.987634,94.636574,CO,4,8,6
India,Bihar,Araria,"Kharahiya Basti, Araria - BSPCB",29-05-2024 04:00:00,26.146529,87.454184,SO2,NA,NA,NA
India,Bihar,Araria,"Kharahiya Basti, Araria - BSPCB",29-05-2024 04:00:00,26.146529,87.454184,CO,19,31,26
India,Bihar,Arrah,"New DM Office, Arrah - BSPCB",29-05-2024 04:00:00,25.5626095,84.663264,NO2,9,14,11
India,Bihar,Arrah,"New DM Office, Arrah - BSPCB",29-05-2024 04:00:00,25.5626095,84.663264,NH3,4,9,7
India,Bihar,Aurangabad,"Gurdeo Nagar, Aurangabad - BSPCB",29-05-2024 04:00:00,24.75746,84.366208,PM10,NA,NA,NA
India,Bihar,Aurangabad,"Gurdeo Nagar, Aurangabad - BSPCB",29-05-2024 04:00:00,24.75746,84.366208,OZONE,16,122,16
India,Bihar,Bettiah,"Kamalnath Nagar, Bettiah - BSPCB",29-05-2024 04:00:00,26.80365,84.51954,PM10,NA,NA,NA
India,Bihar,Bettiah,"Kamalnath Nagar, Bettiah - BSPCB",29-05-2024 04:00:00,26.80365,84.51954,NH3,6,33,21
India,Bihar,Bhagalpur,"DM Office_Kachari Chowk, Bhagalpur - BSPCB",29-05-2024 04:00:00,25.251013,86.989001,PM2.5,7,103,42
India,Bihar,Bhagalpur,"DM Office_Kachari Chowk, Bhagalpur - BSPCB",29-05-2024 04:00:00,25.251013,86.989001,PM10,27,94,58
India,Bihar,Bhagalpur,"DM Office_Kachari Chowk, Bhagalpur - BSPCB",29-05-2024 04:00:00,25.251013,86.989001,NH3,4,9,6
India,Bihar,Bhagalpur,"Mayaganj, Bhagalpur - BSPCB",29-05-2024 04:00:00,25.265194,87.012947,PM2.5,20,277,88
India,Bihar,Buxar,"Charitra Van, Buxar - BSPCB (Formerly known as Central Jail)",29-05-2024 04:00:00,25.567520,83.966379,PM2.5,NA,NA,NA
India,Bihar,Gaya,"Kareemganj, Gaya - BSPCB",29-05-2024 04:00:00,24.792403,84.992416,NO2,19,22,21
India,Bihar,Hajipur,"Industrial Area, Hajipur - BSPCB",29-05-2024 04:00:00,25.697189,85.245900,CO,16,36,29
India,Bihar,Hajipur,"Industrial Area, Hajipur - BSPCB",29-05-2024 04:00:00,25.697189,85.245900,OZONE,19,142,59
India,Bihar,Katihar,"Mirchaibari, Katihar - BSPCB",29-05-2024 04:00:00,25.560083,87.553265,CO,2,44,32
India,Bihar,Kishanganj,"SDM Office_Khagra, Kishanganj - BSPCB",29-05-2024 04:00:00,26.0881305,87.93840336,SO2,5,16,11
India,Bihar,Manguraha,"Forest Rest House, Manguraha - BSPCB",29-05-2024 04:00:00,27.308328,84.531742,CO,72,80,77
India,Bihar,Motihari,"Gandak Colony, Motihari - BSPCB",29-05-2024 04:00:00,26.63086,84.90051,PM2.5,NA,NA,NA
India,Bihar,Motihari,"Gandak Colony, Motihari - BSPCB",29-05-2024 04:00:00,26.63086,84.90051,PM10,NA,NA,NA
India,Bihar,Motihari,"Gandak Colony, Motihari - BSPCB",29-05-2024 04:00:00,26.63086,84.90051,SO2,NA,NA,NA
India,Bihar,Motihari,"Gandak Colony, Motihari - BSPCB",29-05-2024 04:00:00,26.63086,84.90051,CO,5,53,42
India,Bihar,Munger,"Town Hall, Munger - BSPCB",29-05-2024 04:00:00,25.376776,86.471523,NH3,3,3,3
India,Bihar,Munger,"Town Hall, Munger - BSPCB",29-05-2024 04:00:00,25.376776,86.471523,SO2,16,33,23
India,Bihar,Munger,"Town Hall, Munger - BSPCB",29-05-2024 04:00:00,25.376776,86.471523,CO,14,75,64
India,Bihar,Munger,"Town Hall, Munger - BSPCB",29-05-2024 04:00:00,25.376776,86.471523,OZONE,27,34,29
India,Bihar,Muzaffarpur,"Buddha Colony, Muzaffarpur - BSPCB",29-05-2024 04:00:00,26.11442,85.39813,PM10,57,123,87
India,Bihar,Muzaffarpur,"MIT-Daudpur Kothi, Muzaffarpur - BSPCB",29-05-2024 04:00:00,26.1403345,85.3650192,PM2.5,32,157,76
India,Bihar,Muzaffarpur,"Muzaffarpur Collectorate, Muzaffarpur - BSPCB",29-05-2024 04:00:00,26.1209,85.3647,CO,28,54,42
India,Bihar,Patna,"DRM Office Danapur, Patna - BSPCB",29-05-2024 04:00:00,25.586562,85.043586,PM2.5,5,107,52
India,Bihar,Patna,"DRM Office Danapur, Patna - BSPCB",29-05-2024 04:00:00,25.586562,85.043586,SO2,2,7,5
India,Bihar,Patna,"DRM Office Danapur, Patna - BSPCB",29-05-2024 04:00:00,25.586562,85.043586,OZONE,15,84,31
India,Bihar,Patna,"Govt. High School Shikarpur, Patna - BSPCB",29-05-2024 04:00:00,25.592539,85.227158,PM10,68,103,88
India,Bihar,Patna,"Govt. High School Shikarpur, Patna - BSPCB",29-05-2024 04:00:00,25.592539,85.227158,OZONE,1,59,4
India,Bihar,Patna,"IGSC Planetarium Complex, Patna - BSPCB",29-05-2024 04:00:00,25.610369,85.132568,NO2,9,10,10
India,Bihar,Patna,"Muradpur, Patna - BSPCB",29-05-2024 04:00:00,25.619651,85.147382,PM2.5,60,320,198
India,Bihar,Patna,"Muradpur, Patna - BSPCB",29-05-2024 04:00:00,25.619651,85.147382,PM10,130,444,227
India,Bihar,Patna,"Rajbansi Nagar, Patna - BSPCB",29-05-2024 04:00:00,25.599486,85.113666,NO2,12,52,26
India,Bihar,Patna,"Samanpura, Patna - BSPCB",29-05-2024 04:00:00,25.596727,85.085624,PM2.5,51,303,116
India,Bihar,Patna,"Samanpura, Patna - BSPCB",29-05-2024 04:00:00,25.596727,85.085624,PM10,71,213,149
India,Bihar,Patna,"Samanpura, Patna - BSPCB",29-05-2024 04:00:00,25.596727,85.085624,CO,42,62,58
India,Bihar,Purnia,"Mariam Nagar, Purnia - BSPCB",29-05-2024 04:00:00,25.366336,87.117468,PM2.5,NA,NA,NA
India,Bihar,Purnia,"Mariam Nagar, Purnia - BSPCB",29-05-2024 04:00:00,25.366336,87.117468,PM10,NA,NA,NA
India,Bihar,Purnia,"Mariam Nagar, Purnia - BSPCB",29-05-2024 04:00:00,25.366336,87.117468,NO2,5,6,6
India,Bihar,Purnia,"Mariam Nagar, Purnia - BSPCB",29-05-2024 04:00:00,25.366336,87.117468,SO2,7,20,11
India,Bihar,Rajgir,"Dangi Tola, Rajgir - BSPCB",29-05-2024 04:00:00,25.03280,85.41948,NO2,14,15,15
India,Bihar,Saharsa,"Police Line, Saharsa - BSPCB",29-05-2024 04:00:00,25.892357,86.590325,PM2.5,NA,NA,NA
India,Bihar,Saharsa,"Police Line, Saharsa - BSPCB",29-05-2024 04:00:00,25.892357,86.590325,NO2,6,8,7
India,Bihar,Saharsa,"Police Line, Saharsa - BSPCB",29-05-2024 04:00:00,25.892357,86.590325,CO,54,56,55
India,Bihar,Sasaram,"Dada Peer, Sasaram - BSPCB",29-05-2024 04:00:00,24.952822,84.002396,PM2.5,NA,NA,NA
India,Bihar,Sasaram,"Dada Peer, Sasaram - BSPCB",29-05-2024 04:00:00,24.952822,84.002396,NO2,NA,NA,NA
India,Bihar,Sasaram,"Dada Peer, Sasaram - BSPCB",29-05-2024 04:00:00,24.952822,84.002396,SO2,NA,NA,NA
India,Bihar,Sasaram,"Dada Peer, Sasaram - BSPCB",29-05-2024 04:00:00,24.952822,84.002396,OZONE,NA,NA,NA
India,Chandigarh,Chandigarh,"Sector 22, Chandigarh - CPCC",29-05-2024 04:00:00,30.735567,76.775714,SO2,7,61,22
India,Chandigarh,Chandigarh,"Sector-25, Chandigarh - CPCC",29-05-2024 04:00:00,30.751462,76.762879,PM2.5,98,218,156
India,Chandigarh,Chandigarh,"Sector-25, Chandigarh - CPCC",29-05-2024 04:00:00,30.751462,76.762879,PM10,113,173,140
India,Chandigarh,Chandigarh,"Sector-25, Chandigarh - CPCC",29-05-2024 04:00:00,30.751462,76.762879,CO,8,60,46
India,Chandigarh,Chandigarh,"Sector-53, Chandigarh - CPCC",29-05-2024 04:00:00,30.719859,76.738637,PM10,80,220,149
India,Chhattisgarh,Bhilai,"32Bungalows, Bhilai - CECB",29-05-2024 04:00:00,21.194815,81.314770,PM2.5,46,70,56
India,Chhattisgarh,Bhilai,"Hathkhoj, Bhilai - CECB",29-05-2024 04:00:00,21.224231,81.408350,PM10,49,103,83
India,Chhattisgarh,Bilaspur,"Mangala, Bilaspur - NTPC",29-05-2024 04:00:00,22.08815,82.13737,CO,36,39,37
India,Chhattisgarh,Chhal,"Nawapara SECL Colony, Chhal - CECB",29-05-2024 04:00:00,22.118125,83.140608,PM2.5,34,200,122
India,Chhattisgarh,Korba,"Rampur, Korba - CECB",29-05-2024 04:00:00,22.368195,82.746431,PM10,74,117,97
India,Chhattisgarh,Korba,"Rampur, Korba - CECB",29-05-2024 04:00:00,22.368195,82.746431,CO,19,37,34
India,Chhattisgarh,Kunjemura,"OP Jindal School, Kunjemura - CECB",29-05-2024 04:00:00,22.126650,83.483212,SO2,1,6,4
India,Chhattisgarh,Kunjemura,"OP Jindal School, Kunjemura - CECB",29-05-2024 04:00:00,22.126650,83.483212,CO,26,86,44
India,Chhattisgarh,Milupara,"Govt. Higher Secondary School, Milupara - CECB",29-05-2024 04:00:00,22.1910172,83.5197009,PM10,67,162,98
India,Chhattisgarh,Raipur,"AIIMS, Raipur - CECB",29-05-2024 04:00:00,21.258815,81.578979,NH3,6,6,6
India,Chhattisgarh,Raipur,"Krishak Nagar, Raipur - CECB",29-05-2024 04:00:00,21.237755,81.705301,NO2,8,8,8
India,Chhattisgarh,Raipur,"Krishak Nagar, Raipur - CECB",29-05-2024 04:00:00,21.237755,81.705301,NH3,1,1,1
India,Chhattisgarh,Raipur,"Krishak Nagar, Raipur - CECB",29-05-2024 04:00:00,21.237755,81.705301,OZONE,10,51,32
India,Delhi,Delhi,"Alipur, Delhi - DPCC",29-05-2024 04:00:00,28.815329,77.153010,OZONE,3,270,46
India,Delhi,Delhi,"Anand Vihar, Delhi - DPCC",29-05-2024 04:00:00,28.647622,77.3158090,NO2,54,168,118
India,Delhi,Delhi,"Aya Nagar, Delhi - IMD",29-05-2024 04:00:00,28.4706914,77.1099364,PM2.5,16,192,93
India,Delhi,Delhi,"Bawana, Delhi - DPCC",29-05-2024 04:00:00,28.776200,77.051074,NH3,3,4,3
India,Delhi,Delhi,"CRRI Mathura Road, Delhi - IMD",29-05-2024 04:00:00,28.5512005,77.2735737,PM2.5,59,317,187
India,Delhi,Delhi,"CRRI Mathura Road, Delhi - IMD",29-05-2024 04:00:00,28.5512005,77.2735737,PM10,116,382,216
India,Delhi,Delhi,"Chandni Chowk, Delhi - IITM",29-05-2024 04:00:00,28.656756,77.227234,NH3,7,11,8
India,Delhi,Delhi,"Chandni Chowk, Delhi - IITM",29-05-2024 04:00:00,28.656756,77.227234,SO2,21,87,55
India,Delhi,Delhi,"Chandni Chowk, Delhi - IITM",29-05-2024 04:00:00,28.656756,77.227234,CO,48,98,64
India,Delhi,Delhi,"Dr. Karni Singh Shooting Range, Delhi - DPCC",29-05-2024 04:00:00,28.498571,77.264840,PM2.5,59,308,182
India,Delhi,Delhi,"Dwarka-Sector 8, Delhi - DPCC ",29-05-2024 04:00:00,28.5710274,77.0719006,PM10,112,480,226
India,Delhi,Delhi,"Dwarka-Sector 8, Delhi - DPCC ",29-05-2024 04:00:00,28.5710274,77.0719006,NH3,5,11,7
India,Delhi,Delhi,"IHBAS, Dilshad Garden, Delhi - CPCB",29-05-2024 04:00:00,28.6811736,77.3025234,NO2,9,39,23
India,Delhi,Delhi,"ITO, Delhi - CPCB",29-05-2024 04:00:00,28.628624,77.241060,OZONE,1,159,1
India,Delhi,Delhi,"Jahangirpuri, Delhi - DPCC",29-05-2024 04:00:00,28.732820,77.170633,CO,28,127,110
India,Delhi,Delhi,"Jawaharlal Nehru Stadium, Delhi - DPCC",29-05-2024 04:00:00,28.580280,77.233829,PM2.5,22,177,95
India,Delhi,Delhi,"Jawaharlal Nehru Stadium, Delhi - DPCC",29-05-2024 04:00:00,28.580280,77.233829,NO2,16,187,86
India,Delhi,Delhi,"Jawaharlal Nehru Stadium, Delhi - DPCC",29-05-2024 04:00:00,28.580280,77.233829,NH3,6,8,7
India,Delhi,Delhi,"Lodhi Road, Delhi - IMD",29-05-2024 04:00:00,28.5918245,77.2273074,PM10,123,341,186
India,Delhi,Delhi,"Major Dhyan Chand National Stadium, Delhi - DPCC",29-05-2024 04:00:00,28.611281,77.237738,NO2,23,195,107
India,Delhi,Delhi,"Major Dhyan Chand National Stadium, Delhi - DPCC",29-05-2024 04:00:00,28.611281,77.237738,OZONE,1,249,3
India,Delhi,Delhi,"Mundka, Delhi - DPCC",29-05-2024 04:00:00,28.684678,77.076574,OZONE,12,105,27
India,Delhi,Delhi,"NSIT Dwarka, Delhi - CPCB",29-05-2024 04:00:00,28.60909,77.0325413,PM2.5,167,363,298
India,Delhi,Delhi,"NSIT Dwarka, Delhi - CPCB",29-05-2024 04:00:00,28.60909,77.0325413,NO2,46,91,66
India,Delhi,Delhi,"NSIT Dwarka, Delhi - CPCB",29-05-2024 04:00:00,28.60909,77.0325413,OZONE,11,117,19
India,Delhi,Delhi,"Najafgarh, Delhi - DPCC",29-05-2024 04:00:00,28.570173,76.933762,NH3,4,9,7
India,Delhi,Delhi,"Najafgarh, Delhi - DPCC",29-05-2024 04:00:00,28.570173,76.933762,CO,36,72,56
India,Delhi,Delhi,"Narela, Delhi - DPCC",29-05-2024 04:00:00,28.822836,77.101981,PM2.5,23,429,222
India,Delhi,Delhi,"Nehru Nagar, Delhi - DPCC",29-05-2024 04:00:00,28.567890,77.250515,NH3,3,8,5
India,Delhi,Delhi,"Nehru Nagar, Delhi - DPCC",29-05-2024 04:00:00,28.567890,77.250515,CO,10,128,68
India,Delhi,Delhi,"North Campus, DU, Delhi - IMD",29-05-2024 04:00:00,28.6573814,77.1585447,PM2.5,67,377,157
India,Delhi,Delhi,"Okhla Phase-2, Delhi - DPCC",29-05-2024 04:00:00,28.530785,77.271255,PM2.5,30,315,139
India,Delhi,Delhi,"Okhla Phase-2, Delhi - DPCC",29-05-2024 04:00:00,28.530785,77.271255,NO2,29,187,93
India,Delhi,Delhi,"Patparganj, Delhi - DPCC",29-05-2024 04:00:00,28.623763,77.287209,NH3,6,9,7
India,Delhi,Delhi,"Patparganj, Delhi - DPCC",29-05-2024 04:00:00,28.623763,77.287209,OZONE,1,261,11
India,Delhi,Delhi,"Punjabi Bagh, Delhi - DPCC",29-05-2024 04:00:00,28.674045,77.131023,SO2,3,58,26
India,Delhi,Delhi,"Pusa, Delhi - DPCC",29-05-2024 04:00:00,28.639652,77.146275,PM2.5,27,233,116
India,Delhi,Delhi,"Pusa, Delhi - DPCC",29-05-2024 04:00:00,28.639652,77.146275,PM10,124,500,221
India,Delhi,Delhi,"R K Puram, Delhi - DPCC",29-05-2024 04:00:00,28.563262,77.186937,PM2.5,40,339,199
India,Delhi,Delhi,"R K Puram, Delhi - DPCC",29-05-2024 04:00:00,28.563262,77.186937,NH3,4,10,7
India,Delhi,Delhi,"R K Puram, Delhi - DPCC",29-05-2024 04:00:00,28.563262,77.186937,OZONE,12,277,25
India,Delhi,Delhi,"Rohini, Delhi - DPCC",29-05-2024 04:00:00,28.732528,77.119920,NO2,12,251,111
India,Delhi,Delhi,"Rohini, Delhi - DPCC",29-05-2024 04:00:00,28.732528,77.119920,OZONE,5,245,21
India,Delhi,Delhi,"Sirifort, Delhi - CPCB",29-05-2024 04:00:00,28.5504249,77.2159377,CO,16,111,94
India,Delhi,Delhi,"Sonia Vihar, Delhi - DPCC",29-05-2024 04:00:00,28.710508,77.249485,PM2.5,57,367,223
India,Delhi,Delhi,"Sonia Vihar, Delhi - DPCC",29-05-2024 04:00:00,28.710508,77.249485,CO,51,131,117
India,Delhi,Delhi,"Sri Aurobindo Marg, Delhi - DPCC",29-05-2024 04:00:00,28.531346,77.190156,NH3,4,13,9
India,Delhi,Delhi,"Sri Aurobindo Marg, Delhi - DPCC",29-05-2024 04:00:00,28.531346,77.190156,OZONE,1,270,6
India,Delhi,Delhi,"Vivek Vihar, Delhi - DPCC",29-05-2024 04:00:00,28.672342,77.315260,PM2.5,70,333,170
India,Delhi,Delhi,"Vivek Vihar, Delhi - DPCC",29-05-2024 04:00:00,28.672342,77.315260,NH3,15,16,15
India,Delhi,Delhi,"Vivek Vihar, Delhi - DPCC",29-05-2024 04:00:00,28.672342,77.315260,OZONE,1,270,11
India,Gujarat,Ahmedabad,"Gyaspur, Ahmedabad - IITM",29-05-2024 04:00:00,22.977134,72.553024,PM10,63,405,152
India,Gujarat,Ahmedabad,"Gyaspur, Ahmedabad - IITM",29-05-2024 04:00:00,22.977134,72.553024,SO2,24,25,24
India,Gujarat,Ahmedabad,"Maninagar, Ahmedabad - GPCB",29-05-2024 04:00:00,23.002657,72.591912,PM2.5,35,92,52
India,Gujarat,Ahmedabad,"Raikhad, Ahmedabad - IITM",29-05-2024 04:00:00,23.020509,72.579261,PM2.5,NA,NA,NA
India,Gujarat,Ahmedabad,"Raikhad, Ahmedabad - IITM",29-05-2024 04:00:00,23.020509,72.579261,NH3,NA,NA,NA
India,Gujarat,Ahmedabad,"SVPI Airport Hansol, Ahmedabad - IITM",29-05-2024 04:00:00,23.076793,72.627874,CO,24,41,30
India,Gujarat,Ahmedabad,"SVPI Airport Hansol, Ahmedabad - IITM",29-05-2024 04:00:00,23.076793,72.627874,OZONE,25,68,37
India,Gujarat,Ankleshwar,"GIDC, Ankleshwar - GPCB",29-05-2024 04:00:00,21.613267,73.010555,NO2,16,35,24
India,Gujarat,Gandhinagar,"Sector-10, Gandhinagar - GPCB",29-05-2024 04:00:00,23.221714,72.654328,OZONE,24,63,31
India,Gujarat,Vapi,"Phase-1 GIDC, Vapi - GPCB",29-05-2024 04:00:00,20.362421,72.918013,PM10,38,100,61
India,Gujarat,Vatva,"Phase-4 GIDC, Vatva - GPCB",29-05-2024 04:00:00,22.969611,72.643500,PM2.5,NA,NA,NA
India,Gujarat,Vatva,"Phase-4 GIDC, Vatva - GPCB",29-05-2024 04:00:00,22.969611,72.643500,NH3,NA,NA,NA
India,Gujarat,Vatva,"Phase-4 GIDC, Vatva - GPCB",29-05-2024 04:00:00,22.969611,72.643500,SO2,NA,NA,NA
India,Gujarat,Vatva,"Phase-4 GIDC, Vatva - GPCB",29-05-2024 04:00:00,22.969611,72.643500,CO,35,36,36
India,Haryana,Ambala,"Patti Mehar, Ambala - HSPCB",29-05-2024 04:00:00,30.379589,76.778328,PM10,42,96,76
India,Haryana,Ambala,"Patti Mehar, Ambala - HSPCB",29-05-2024 04:00:00,30.379589,76.778328,SO2,8,15,12
India,Haryana,Ambala,"Patti Mehar, Ambala - HSPCB",29-05-2024 04:00:00,30.379589,76.778328,CO,30,60,38
India,Haryana,Bahadurgarh,"Arya Nagar, Bahadurgarh - HSPCB",29-05-2024 04:00:00,28.6701,76.9254,PM2.5,24,344,187
India,Haryana,Bahadurgarh,"Arya Nagar, Bahadurgarh - HSPCB",29-05-2024 04:00:00,28.6701,76.9254,SO2,6,120,36
India,Haryana,Bhiwani,"H.B. Colony, Bhiwani - HSPCB",29-05-2024 04:00:00,28.806223,76.141105,PM10,59,145,105
India,Haryana,Charkhi Dadri,"Mini Secretariat, Charkhi Dadri - HSPCB",29-05-2024 04:00:00,28.593883,76.270653,NH3,6,9,7
India,Haryana,Charkhi Dadri,"Mini Secretariat, Charkhi Dadri - HSPCB",29-05-2024 04:00:00,28.593883,76.270653,SO2,6,45,21
India,Haryana,Dharuhera,"Municipal Corporation Office, Dharuhera -  HSPCB",29-05-2024 04:00:00,28.206800,76.799700,PM10,63,171,107
India,Haryana,Faridabad,"New Industrial Town, Faridabad - HSPCB",29-05-2024 04:00:00,28.39072,77.30059,PM2.5,239,500,355
India,Haryana,Faridabad,"Sector 11, Faridabad - HSPCB",29-05-2024 04:00:00,28.376058,77.315741,CO,12,66,47
India,Haryana,Faridabad,"Sector 30, Faridabad - HSPCB",29-05-2024 04:00:00,28.4417,77.3217,PM10,NA,NA,NA
India,Haryana,Gurugram,"NISE Gwal Pahari, Gurugram - IMD",29-05-2024 04:00:00,28.422681,77.148944,PM2.5,NA,NA,NA
India,Haryana,Gurugram,"NISE Gwal Pahari, Gurugram - IMD",29-05-2024 04:00:00,28.422681,77.148944,OZONE,23,117,35
India,Haryana,Gurugram,"Teri Gram, Gurugram - HSPCB",29-05-2024 04:00:00,28.4275,77.1465,SO2,4,8,6
India,Haryana,Gurugram,"Teri Gram, Gurugram - HSPCB",29-05-2024 04:00:00,28.4275,77.1465,CO,8,62,35
India,Haryana,Gurugram,"Vikas Sadan, Gurugram - HSPCB",29-05-2024 04:00:00,28.4501238,77.0263051,SO2,9,78,31
India,Haryana,Hisar,"Urban Estate-II, Hisar - HSPCB",29-05-2024 04:00:00,29.140560,75.744941,OZONE,1,170,19
India,Haryana,Jind,"Police Lines, Jind - HSPCB",29-05-2024 04:00:00,29.307814,76.337619,CO,2,70,24
India,Haryana,Kaithal,"Rishi Nagar, Kaithal - HSPCB",29-05-2024 04:00:00,29.8006,76.4155,NO2,24,26,25
India,Haryana,Kaithal,"Rishi Nagar, Kaithal - HSPCB",29-05-2024 04:00:00,29.8006,76.4155,CO,1,49,20
India,Haryana,Karnal,"Sector-12, Karnal - HSPCB",29-05-2024 04:00:00,29.695300,77.002700,NO2,7,12,10
India,Haryana,Karnal,"Sector-12, Karnal - HSPCB",29-05-2024 04:00:00,29.695300,77.002700,NH3,10,13,11
India,Haryana,Kurukshetra,"Sector-7, Kurukshetra - HSPCB",29-05-2024 04:00:00,29.966942,76.875879,NH3,4,6,6
India,Haryana,Manesar,"Sector-2 IMT, Manesar - HSPCB",29-05-2024 04:00:00,28.360699,76.936090,PM2.5,33,178,98
India,Haryana,Narnaul,"Shastri Nagar, Narnaul - HSPCB",29-05-2024 04:00:00,28.060249,76.113115,OZONE,61,83,72
India,Haryana,Palwal,"Shyam Nagar, Palwal - HSPCB",29-05-2024 04:00:00,28.1485564,77.3320667,CO,21,35,33
India,Haryana,Palwal,"Shyam Nagar, Palwal - HSPCB",29-05-2024 04:00:00,28.1485564,77.3320667,OZONE,9,60,18
India,Haryana,Panchkula,"Sector-6, Panchkula - HSPCB ",29-05-2024 04:00:00,30.7057778,76.8531805555555,OZONE,34,53,38
India,Haryana,Panipat,"Sector-18, Panipat - HSPCB",29-05-2024 04:00:00,29.432304,76.972765,NH3,2,3,2
India,Haryana,Panipat,"Sector-18, Panipat - HSPCB",29-05-2024 04:00:00,29.432304,76.972765,CO,24,26,25
India,Haryana,Panipat,"Sector-18, Panipat - HSPCB",29-05-2024 04:00:00,29.432304,76.972765,OZONE,29,31,30
India,Haryana,Rohtak,"MD University, Rohtak - HSPCB",29-05-2024 04:00:00,28.52123,76.37138,SO2,5,8,7
India,Haryana,Sirsa,"F-Block, Sirsa - HSPCB",29-05-2024 04:00:00,29.536400,75.015800,SO2,1,5,2
India,Haryana,Sirsa,"F-Block, Sirsa - HSPCB",29-05-2024 04:00:00,29.536400,75.015800,OZONE,3,74,26
India,Haryana,Sonipat,"Murthal, Sonipat - HSPCB",29-05-2024 04:00:00,29.027200,77.062100,CO,24,26,25
India,Haryana,Yamuna Nagar,"Gobind Pura, Yamuna Nagar - HSPCB",29-05-2024 04:00:00,30.1480566,77.2893471,SO2,5,106,20
India,Himachal Pradesh,Baddi,"HIMUDA Complex Phase-1, Baddi - HPPCB",29-05-2024 04:00:00,30.943887,76.801991,PM10,82,311,141
India,Jammu_and_Kashmir,Srinagar,"Rajbagh, Srinagar - JKSPCB",29-05-2024 04:00:00,34.066206,74.819820,SO2,NA,NA,NA
India,Jammu_and_Kashmir,Srinagar,"Rajbagh, Srinagar - JKSPCB",29-05-2024 04:00:00,34.066206,74.819820,OZONE,13,16,14
India,Jharkhand,Dhanbad,"Sardar Patel Nagar, Dhanbad - JSPCB",29-05-2024 04:00:00,23.80569,86.44268,PM2.5,3,135,43
India,Jharkhand,Dhanbad,"Sardar Patel Nagar, Dhanbad - JSPCB",29-05-2024 04:00:00,23.80569,86.44268,PM10,NA,NA,NA
India,Jharkhand,Dhanbad,"Sardar Patel Nagar, Dhanbad - JSPCB",29-05-2024 04:00:00,23.80569,86.44268,NO2,NA,NA,NA
India,Karnataka,Belgaum,"Ramteerth Nagar, Belgaum - KSPCB",29-05-2024 04:00:00,15.888653,74.541751,NH3,6,10,8
India,Karnataka,Bengaluru,"Bapuji Nagar, Bengaluru - KSPCB",29-05-2024 04:00:00,12.951913,77.539784,PM2.5,36,121,55
India,Karnataka,Bengaluru,"Hebbal, Bengaluru - KSPCB",29-05-2024 04:00:00,13.029152,77.585901,PM10,23,94,58
India,Karnataka,Bengaluru,"Hombegowda Nagar, Bengaluru - KSPCB",29-05-2024 04:00:00,12.938539,77.590100,NH3,1,2,1
India,Karnataka,Bengaluru,"Jayanagar 5th Block, Bengaluru - KSPCB",29-05-2024 04:00:00,12.920984,77.584908,PM10,18,103,61
India,Karnataka,Bengaluru,"Jayanagar 5th Block, Bengaluru - KSPCB",29-05-2024 04:00:00,12.920984,77.584908,SO2,15,22,18
India,Karnataka,Bengaluru,"Peenya, Bengaluru - CPCB",29-05-2024 04:00:00,13.0270199,77.494094,PM10,44,69,52
India,Karnataka,Bengaluru,"Peenya, Bengaluru - CPCB",29-05-2024 04:00:00,13.0270199,77.494094,SO2,12,17,14
India,Karnataka,Bengaluru,"RVCE-Mailasandra, Bengaluru - KSPCB",29-05-2024 04:00:00,12.921418,77.502466,PM10,29,106,73
India,Karnataka,Bengaluru,"Shivapura_Peenya, Bengaluru - KSPCB",29-05-2024 04:00:00,13.0246342,77.5080115,CO,20,32,23
India,Karnataka,Bengaluru,"Shivapura_Peenya, Bengaluru - KSPCB",29-05-2024 04:00:00,13.0246342,77.5080115,OZONE,53,56,55
India,Karnataka,Bengaluru,"Silk Board, Bengaluru - KSPCB",29-05-2024 04:00:00,12.917348,77.622813,NO2,NA,NA,NA
India,Karnataka,Bidar,"Naubad, Bidar - KSPCB",29-05-2024 04:00:00,17.930306,77.482194,PM10,91,173,110
India,Karnataka,Bidar,"Naubad, Bidar - KSPCB",29-05-2024 04:00:00,17.930306,77.482194,CO,68,108,82
India,Karnataka,Bidar,"Naubad, Bidar - KSPCB",29-05-2024 04:00:00,17.930306,77.482194,OZONE,15,29,29
India,Karnataka,Chamarajanagar,"Urban, Chamarajanagar - KSPCB",29-05-2024 04:00:00,11.55358,76.55521,SO2,2,8,4
India,Karnataka,Chamarajanagar,"Urban, Chamarajanagar - KSPCB",29-05-2024 04:00:00,11.55358,76.55521,CO,14,28,19
India,Karnataka,Chikkaballapur,"Chikkaballapur Rural, Chikkaballapur - KSPCB",29-05-2024 04:00:00,13.428828,77.731418,NH3,1,2,1
India,Karnataka,Chikkaballapur,"Chikkaballapur Rural, Chikkaballapur - KSPCB",29-05-2024 04:00:00,13.428828,77.731418,SO2,12,27,20
India,Karnataka,Chikkaballapur,"Chikkaballapur Rural, Chikkaballapur - KSPCB",29-05-2024 04:00:00,13.428828,77.731418,OZONE,24,26,24
India,Karnataka,Chikkamagaluru,"Kalyana Nagara, Chikkamagaluru - KSPCB",29-05-2024 04:00:00,13.328028,75.797056,PM2.5,21,63,41
India,Karnataka,Chikkamagaluru,"Kalyana Nagara, Chikkamagaluru - KSPCB",29-05-2024 04:00:00,13.328028,75.797056,NH3,2,3,3
India,Karnataka,Chikkamagaluru,"Kalyana Nagara, Chikkamagaluru - KSPCB",29-05-2024 04:00:00,13.328028,75.797056,SO2,1,8,4
India,Karnataka,Chikkamagaluru,"Kalyana Nagara, Chikkamagaluru - KSPCB",29-05-2024 04:00:00,13.328028,75.797056,OZONE,16,57,20
India,Karnataka,Gadag,"Panchal Nagar, Gadag - KSPCB",29-05-2024 04:00:00,15.411456,75.638133,NH3,NA,NA,NA
India,Karnataka,Hassan,"B.Katihalli, Hassan - KSPCB",29-05-2024 04:00:00,13.008556,76.125258,NH3,4,5,4
India,Karnataka,Haveri,"Ashwini Nagar, Haveri - KSPCB",29-05-2024 04:00:00,14.791800,75.389600,CO,37,39,38
India,Karnataka,Hubballi,"Lingaraj Nagar, Hubballi - KSPCB",29-05-2024 04:00:00,15.3714823,75.1160168,CO,2,36,24
India,Karnataka,Kalaburagi,"Lal Bahadur Shastri Nagar, Kalaburagi - KSPCB",29-05-2024 04:00:00,17.321993,76.822628,NH3,2,2,2
India,Karnataka,Kalaburagi,"Lal Bahadur Shastri Nagar, Kalaburagi - KSPCB",29-05-2024 04:00:00,17.321993,76.822628,SO2,7,9,8
India,Karnataka,Kalaburagi,"Mahatma Basaveswar Colony, Kalaburgi - KSPCB",29-05-2024 04:00:00,17.336318,76.847397,NH3,3,4,3
India,Karnataka,Kalaburagi,"Mahatma Basaveswar Colony, Kalaburgi - KSPCB",29-05-2024 04:00:00,17.336318,76.847397,OZONE,16,63,33
India,Karnataka,Karwar,"KHB Colony, Karwar - KSPCB",29-05-2024 04:00:00,14.816666,74.141003,PM10,NA,NA,NA
India,Karnataka,Karwar,"KHB Colony, Karwar - KSPCB",29-05-2024 04:00:00,14.816666,74.141003,NO2,NA,NA,NA
India,Karnataka,Karwar,"KHB Colony, Karwar - KSPCB",29-05-2024 04:00:00,14.816666,74.141003,CO,NA,NA,NA
India,Karnataka,Kolar,"Tamaka Ind. Area, Kolar - KSPCB",29-05-2024 04:00:00,13.1276288,78.1570122,NH3,NA,NA,NA
India,Karnataka,Kolar,"Tamaka Ind. Area, Kolar - KSPCB",29-05-2024 04:00:00,13.1276288,78.1570122,SO2,NA,NA,NA
India,Karnataka,Koppal,"Diwator Nagar, Koppal - KSPCB",29-05-2024 04:00:00,15.347630,76.181767,PM10,17,31,23
India,Karnataka,Koppal,"Diwator Nagar, Koppal - KSPCB",29-05-2024 04:00:00,15.347630,76.181767,NO2,24,65,46
India,Karnataka,Mangalore,"Kadri, Mangalore - KSPCB",29-05-2024 04:00:00,12.889250,74.853000,PM2.5,17,57,33
India,Karnataka,Mysuru,"Hebbal 1st Stage, Mysuru - KSPCB",29-05-2024 04:00:00,12.21041,76.37376,PM10,23,69,47
India,Karnataka,Raichur,"Haji Colony, Raichur - KSPCB",29-05-2024 04:00:00,16.208139,77.348417,SO2,69,101,75
India,Karnataka,Raichur,"Haji Colony, Raichur - KSPCB",29-05-2024 04:00:00,16.208139,77.348417,CO,85,104,94
India,Karnataka,Raichur,"Haji Colony, Raichur - KSPCB",29-05-2024 04:00:00,16.208139,77.348417,OZONE,3,5,4
India,Karnataka,Ramanagara,"Vijay Nagar, Ramanagara - KSPCB",29-05-2024 04:00:00,12.733409,77.298051,PM10,22,41,31
India,Karnataka,Shivamogga,"Vinoba Nagara, Shivamogga - KSPCB",29-05-2024 04:00:00,13.940000,75.555917,PM10,38,70,55
India,Karnataka,Shivamogga,"Vinoba Nagara, Shivamogga - KSPCB",29-05-2024 04:00:00,13.940000,75.555917,SO2,4,12,8
India,Karnataka,Yadgir,"Collector Office, Yadgir - KSPCB",29-05-2024 04:00:00,16.7602,77.1428,PM2.5,22,40,32
India,Karnataka,Yadgir,"Collector Office, Yadgir - KSPCB",29-05-2024 04:00:00,16.7602,77.1428,PM10,55,83,74
India,Karnataka,Yadgir,"Collector Office, Yadgir - KSPCB",29-05-2024 04:00:00,16.7602,77.1428,NO2,6,17,11
India,Karnataka,Yadgir,"Collector Office, Yadgir - KSPCB",29-05-2024 04:00:00,16.7602,77.1428,CO,18,26,20
India,Kerala,Eloor,"Udyogamandal, Eloor - Kerala PCB",29-05-2024 04:00:00,10.073232,76.302765,PM10,28,37,31
India,Kerala,Eloor,"Udyogamandal, Eloor - Kerala PCB",29-05-2024 04:00:00,10.073232,76.302765,SO2,1,39,4
India,Kerala,Kannur,"Thavakkara, Kannur - Kerala PCB",29-05-2024 04:00:00,11.875000,75.373200,PM10,39,54,47
India,Kerala,Kannur,"Thavakkara, Kannur - Kerala PCB",29-05-2024 04:00:00,11.875000,75.373200,SO2,NA,NA,NA
India,Kerala,Kannur,"Thavakkara, Kannur - Kerala PCB",29-05-2024 04:00:00,11.875000,75.373200,CO,16,34,19
India,Kerala,Kannur,"Thavakkara, Kannur - Kerala PCB",29-05-2024 04:00:00,11.875000,75.373200,OZONE,31,33,31
India,Kerala,Kollam,"Polayathode, Kollam - Kerala PCB",29-05-2024 04:00:00,8.8787,76.6073,SO2,NA,NA,NA
India,Kerala,Thiruvananthapuram,"Kariavattom, Thiruvananthapuram - Kerala PCB",29-05-2024 04:00:00,8.563700,76.886500,NO2,6,7,6
India,Kerala,Thiruvananthapuram,"Kariavattom, Thiruvananthapuram - Kerala PCB",29-05-2024 04:00:00,8.563700,76.886500,NH3,1,1,1
India,Kerala,Thiruvananthapuram,"Plammoodu, Thiruvananthapuram - Kerala PCB",29-05-2024 04:00:00,8.5149093,76.9435879,PM2.5,NA,NA,NA
India,Kerala,Thiruvananthapuram,"Plammoodu, Thiruvananthapuram - Kerala PCB",29-05-2024 04:00:00,8.5149093,76.9435879,SO2,9,15,11
India,Kerala,Thrissur,"Corporation Ground, Thrissur - Kerala PCB",29-05-2024 04:00:00,10.532400,76.215900,PM2.5,45,52,48
India,Kerala,Thrissur,"Corporation Ground, Thrissur - Kerala PCB",29-05-2024 04:00:00,10.532400,76.215900,SO2,1,3,1
India,Madhya Pradesh,Bhopal,"Paryavaran Parisar, Bhopal - MPPCB",29-05-2024 04:00:00,23.210494,77.425409,PM10,100,133,114
India,Madhya Pradesh,Bhopal,"Paryavaran Parisar, Bhopal - MPPCB",29-05-2024 04:00:00,23.210494,77.425409,OZONE,35,95,59
India,Madhya Pradesh,Bhopal,"T T Nagar, Bhopal - MPPCB",29-05-2024 04:00:00,23.233584,77.400574,NH3,6,9,8
India,Madhya Pradesh,Gwalior,"Deen Dayal Nagar, Gwalior - MPPCB",29-05-2024 04:00:00,26.259242,78.216432,PM10,96,407,204
India,Madhya Pradesh,Gwalior,"Deen Dayal Nagar, Gwalior - MPPCB",29-05-2024 04:00:00,26.259242,78.216432,NO2,8,99,33
India,Madhya Pradesh,Gwalior,"Maharaj Bada, Gwalior - MPPCB",29-05-2024 04:00:00,26.200388,78.147714,PM2.5,12,110,54
India,Madhya Pradesh,Gwalior,"Maharaj Bada, Gwalior - MPPCB",29-05-2024 04:00:00,26.200388,78.147714,PM10,89,393,152
India,Madhya Pradesh,Gwalior,"Maharaj Bada, Gwalior - MPPCB",29-05-2024 04:00:00,26.200388,78.147714,CO,4,160,106
India,Madhya Pradesh,Gwalior,"Phool Bagh, Gwalior - Mondelez Ind. Food",29-05-2024 04:00:00,26.210536,78.171,NO2,4,5,4
India,Madhya Pradesh,Gwalior,"Phool Bagh, Gwalior - Mondelez Ind. Food",29-05-2024 04:00:00,26.210536,78.171,CO,72,112,95
India,Madhya Pradesh,Indore,"Chhoti Gwaltoli, Indore - MPPCB",29-05-2024 04:00:00,22.4310,75.5213,PM10,79,146,118
India,Madhya Pradesh,Indore,"Chhoti Gwaltoli, Indore - MPPCB",29-05-2024 04:00:00,22.4310,75.5213,CO,22,92,59
India,Madhya Pradesh,Indore,"Maguda Nagar, Indore - IMC",29-05-2024 04:00:00,22.7524,75.8872,CO,20,24,24
India,Madhya Pradesh,Indore,"Regional Park, Indore - IMC",29-05-2024 04:00:00,22.6780,75.8559,NH3,2,5,3
India,Madhya Pradesh,Indore,"Regional Park, Indore - IMC",29-05-2024 04:00:00,22.6780,75.8559,CO,17,24,23
India,Madhya Pradesh,Indore,"Residency Area, Indore - IMC",29-05-2024 04:00:00,22.7084,75.8815,PM2.5,39,74,56
India,Madhya Pradesh,Indore,"Residency Area, Indore - IMC",29-05-2024 04:00:00,22.7084,75.8815,PM10,50,101,73
India,Madhya Pradesh,Indore,"Residency Area, Indore - IMC",29-05-2024 04:00:00,22.7084,75.8815,SO2,27,32,29
India,Madhya Pradesh,Jabalpur,"Govindh Bhavan Colony, Jabalpur - JMC",29-05-2024 04:00:00,23.163174,79.973061,SO2,13,57,21
India,Madhya Pradesh,Jabalpur,"Suhagi, Jabalpur - JMC",29-05-2024 04:00:00,23.218135,79.957770,PM2.5,40,78,56
India,Madhya Pradesh,Jabalpur,"Suhagi, Jabalpur - JMC",29-05-2024 04:00:00,23.218135,79.957770,NO2,41,43,42
India,Madhya Pradesh,Jabalpur,"Suhagi, Jabalpur - JMC",29-05-2024 04:00:00,23.218135,79.957770,NH3,2,2,2
India,Madhya Pradesh,Jabalpur,"Suhagi, Jabalpur - JMC",29-05-2024 04:00:00,23.218135,79.957770,CO,40,54,50
India,Madhya Pradesh,Maihar,"Sahilara, Maihar - KJS Cements",29-05-2024 04:00:00,24.2613009,80.7231783,SO2,9,14,12
India,Madhya Pradesh,Mandideep,"Sector-D Industrial Area, Mandideep - MPPCB",29-05-2024 04:00:00,23.108440,77.511428,NH3,NA,NA,NA
India,Madhya Pradesh,Ratlam,"Shasthri Nagar, Ratlam - IPCA Lab",29-05-2024 04:00:00,23.331731,75.045981,PM10,99,199,146
India,Madhya Pradesh,Ratlam,"Shasthri Nagar, Ratlam - IPCA Lab",29-05-2024 04:00:00,23.331731,75.045981,NO2,13,13,13
India,Madhya Pradesh,Sagar,"Civil Lines, Sagar - MPPCB",29-05-2024 04:00:00,23.838586,78.759431,SO2,1,7,3
India,Madhya Pradesh,Sagar,"Civil Lines, Sagar - MPPCB",29-05-2024 04:00:00,23.838586,78.759431,CO,20,52,24
India,Madhya Pradesh,Sagar,"Civil Lines, Sagar - MPPCB",29-05-2024 04:00:00,23.838586,78.759431,OZONE,1,83,9
India,Madhya Pradesh,Satna,"Bandhavgar Colony, Satna - Birla Cement",29-05-2024 04:00:00,24.58434363,80.8549414,PM2.5,3,104,43
India,Madhya Pradesh,Satna,"Bandhavgar Colony, Satna - Birla Cement",29-05-2024 04:00:00,24.58434363,80.8549414,OZONE,18,59,37
India,Madhya Pradesh,Singrauli,"Suryakiran Bhawan NCL, Singrauli - MPPCB",29-05-2024 04:00:00,24.108970,82.645580,OZONE,2,87,20
India,Madhya Pradesh,Ujjain,"Mahakaleshwar Temple, Ujjain - MPPCB",29-05-2024 04:00:00,23.182719 ,75.768218 ,PM2.5,NA,NA,NA
India,Madhya Pradesh,Ujjain,"Mahakaleshwar Temple, Ujjain - MPPCB",29-05-2024 04:00:00,23.182719 ,75.768218 ,SO2,NA,NA,NA
India,Madhya Pradesh,Ujjain,"Mahakaleshwar Temple, Ujjain - MPPCB",29-05-2024 04:00:00,23.182719 ,75.768218 ,OZONE,26,93,52
India,Maharashtra,Ahmednagar,"Tarakpur, Ahmednagar - MPCB",29-05-2024 04:00:00,19.10122,74.73339,NO2,9,19,13
India,Maharashtra,Ahmednagar,"Tarakpur, Ahmednagar - MPCB",29-05-2024 04:00:00,19.10122,74.73339,CO,22,32,27
India,Maharashtra,Amravati,"Shivneri Colony, Amravati - MPCB",29-05-2024 04:00:00,20.9402359,77.7895248,PM2.5,35,71,48
India,Maharashtra,Amravati,"Shivneri Colony, Amravati - MPCB",29-05-2024 04:00:00,20.9402359,77.7895248,PM10,86,138,117
India,Maharashtra,Amravati,"Shivneri Colony, Amravati - MPCB",29-05-2024 04:00:00,20.9402359,77.7895248,SO2,1,6,3
India,Maharashtra,Amravati,"Shri Shivaji Science College, Amaravati - MPCB",29-05-2024 04:00:00,20.939198,77.765701,NH3,2,5,2
India,Maharashtra,Aurangabad,"MIDC Chilkalthana, Aurangabad - MPCB",29-05-2024 04:00:00,19.875620,75.387310,PM2.5,10,66,43
India,Maharashtra,Aurangabad,"MIDC Chilkalthana, Aurangabad - MPCB",29-05-2024 04:00:00,19.875620,75.387310,NH3,5,6,5
India,Maharashtra,Aurangabad,"More Chowk Waluj, Aurangabad - MPCB",29-05-2024 04:00:00,19.8389439,75.244448,PM10,27,71,47
India,Maharashtra,Aurangabad,"More Chowk Waluj, Aurangabad - MPCB",29-05-2024 04:00:00,19.8389439,75.244448,NO2,40,45,43
India,Maharashtra,Badlapur,"Katrap, Badlapur - MPCB",29-05-2024 04:00:00,19.16485,73.23409,PM2.5,61,77,68
India,Maharashtra,Badlapur,"Katrap, Badlapur - MPCB",29-05-2024 04:00:00,19.16485,73.23409,NH3,1,3,2
India,Maharashtra,Badlapur,"Katrap, Badlapur - MPCB",29-05-2024 04:00:00,19.16485,73.23409,SO2,14,26,18
India,Maharashtra,Badlapur,"Katrap, Badlapur - MPCB",29-05-2024 04:00:00,19.16485,73.23409,CO,18,32,24
India,Maharashtra,Belapur,"CBD Belapur, Belapur - MPCB",29-05-2024 04:00:00,19.0243902,73.0406721,NO2,21,45,30
India,Maharashtra,Bhiwandi,"Gokul Nagar, Bhiwandi - MPCB",29-05-2024 04:00:00,19.309073,73.057223,PM10,49,85,70
India,Maharashtra,Bhiwandi,"Gokul Nagar, Bhiwandi - MPCB",29-05-2024 04:00:00,19.309073,73.057223,NO2,7,47,18
India,Maharashtra,Bhiwandi,"Gokul Nagar, Bhiwandi - MPCB",29-05-2024 04:00:00,19.309073,73.057223,OZONE,14,75,32
India,Maharashtra,Boisar,"Khaira, Boisar - MPCB",29-05-2024 04:00:00,19.786089,72.757971,CO,2,27,18
India,Maharashtra,Chandrapur,"Chauhan Colony, Chandrapur - MPCB",29-05-2024 04:00:00,19.962900,79.298714,PM10,87,110,96
India,Maharashtra,Chandrapur,"MIDC Khutala, Chandrapur - MPCB",29-05-2024 04:00:00,19.9775302,79.2337086,SO2,7,32,17
India,Maharashtra,Jalgaon,"Prabhat Colony, Jalgaon - MPCB",29-05-2024 04:00:00,21.001264,75.565602,CO,8,47,22
India,Maharashtra,Jalna,"Old MIDC, Jalna - MPCB",29-05-2024 04:00:00,19.854616,75.905894,PM10,52,248,141
India,Maharashtra,Jalna,"Old MIDC, Jalna - MPCB",29-05-2024 04:00:00,19.854616,75.905894,CO,22,34,27
India,Maharashtra,Kalyan,"Khadakpada, Kalyan - MPCB",29-05-2024 04:00:00,19.25292,73.142019,SO2,14,25,21
India,Maharashtra,Kalyan,"Khadakpada, Kalyan - MPCB",29-05-2024 04:00:00,19.25292,73.142019,CO,10,16,14
India,Maharashtra,Kolhapur,"Shivaji University, Kolhapur - MPCB",29-05-2024 04:00:00,16.6870449,74.2505872,NO2,10,23,17
India,Maharashtra,Kolhapur,"Sinchan Bhavan, Kolhapur - MPCB",29-05-2024 04:00:00,16.7143745,74.2426398,PM2.5,NA,NA,NA
India,Maharashtra,Kolhapur,"Sinchan Bhavan, Kolhapur - MPCB",29-05-2024 04:00:00,16.7143745,74.2426398,CO,7,16,14
India,Maharashtra,Latur,"Sawe Wadi, Latur - MPCB",29-05-2024 04:00:00,18.39963,76.57452,PM10,73,106,88
India,Maharashtra,Mahad,"Kamble Tarf Birwadi, Mahad - MPCB",29-05-2024 04:00:00,18.1023399,73.4783687,OZONE,2,98,8
India,Maharashtra,Malegaon,"Mahesh Nagar, Malegaon - MPCB",29-05-2024 04:00:00,20.555712,74.529236,OZONE,22,85,30
India,Maharashtra,Mumbai,"Borivali East, Mumbai - IITM",29-05-2024 04:00:00,19.23241,72.86895,NO2,11,23,17
India,Maharashtra,Mumbai,"Borivali East, Mumbai - MPCB",29-05-2024 04:00:00,19.2243333,72.8658113,PM10,43,67,53
India,Maharashtra,Mumbai,"Byculla, Mumbai - BMC",29-05-2024 04:00:00,18.9767,72.8380,PM10,28,50,37
India,Maharashtra,Mumbai,"Byculla, Mumbai - BMC",29-05-2024 04:00:00,18.9767,72.8380,OZONE,15,33,18
India,Maharashtra,Mumbai,"Chembur, Mumbai - MPCB",29-05-2024 04:00:00,19.0364585,72.8954371,CO,12,38,17
India,Maharashtra,Mumbai,"Chhatrapati Shivaji Intl. Airport (T2), Mumbai - MPCB",29-05-2024 04:00:00,19.10078,72.87462,CO,23,34,27
India,Maharashtra,Mumbai,"Ghatkopar, Mumbai - BMC",29-05-2024 04:00:00,19.083694,72.920967,NH3,NA,NA,NA
India,Maharashtra,Mumbai,"Ghatkopar, Mumbai - BMC",29-05-2024 04:00:00,19.083694,72.920967,SO2,1,105,6
India,Maharashtra,Mumbai,"Kandivali East, Mumbai - MPCB",29-05-2024 04:00:00,19.205800,72.868200,SO2,8,10,9
India,Maharashtra,Mumbai,"Kandivali East, Mumbai - MPCB",29-05-2024 04:00:00,19.205800,72.868200,CO,28,38,34
India,Maharashtra,Mumbai,"Kandivali West, Mumbai - BMC",29-05-2024 04:00:00,19.215859,72.831718,NO2,4,14,9
India,Maharashtra,Mumbai,"Kandivali West, Mumbai - BMC",29-05-2024 04:00:00,19.215859,72.831718,CO,8,24,15
India,Maharashtra,Mumbai,"Kherwadi_Bandra East, Mumbai - MPCB",29-05-2024 04:00:00,19.0632143,72.8456324,PM10,54,80,65
India,Maharashtra,Mumbai,"Kherwadi_Bandra East, Mumbai - MPCB",29-05-2024 04:00:00,19.0632143,72.8456324,CO,6,20,11
India,Maharashtra,Mumbai,"Khindipada-Bhandup West, Mumbai - IITM",29-05-2024 04:00:00,19.1653323,72.922099,SO2,NA,NA,NA
India,Maharashtra,Mumbai,"Khindipada-Bhandup West, Mumbai - IITM",29-05-2024 04:00:00,19.1653323,72.922099,OZONE,NA,NA,NA
India,Maharashtra,Mumbai,"Kurla, Mumbai - MPCB",29-05-2024 04:00:00,19.0863,72.8888,SO2,32,32,32
India,Maharashtra,Mumbai,"Navy Nagar-Colaba, Mumbai - IITM",29-05-2024 04:00:00,18.897756,72.813320,CO,NA,NA,NA
India,Maharashtra,Mumbai,"Powai, Mumbai - MPCB",29-05-2024 04:00:00,19.137500,72.915056,NO2,16,22,19
India,Maharashtra,Mumbai,"Sewri, Mumbai - BMC",29-05-2024 04:00:00,19.000084,72.856730,PM10,NA,NA,NA
India,Maharashtra,Mumbai,"Sewri, Mumbai - BMC",29-05-2024 04:00:00,19.000084,72.856730,CO,NA,NA,NA
India,Maharashtra,Mumbai,"Sewri, Mumbai - BMC",29-05-2024 04:00:00,19.000084,72.856730,OZONE,NA,NA,NA
India,Maharashtra,Mumbai,"Siddharth Nagar-Worli, Mumbai - IITM",29-05-2024 04:00:00,19.000083,72.813993,PM2.5,48,68,62
India,Maharashtra,Mumbai,"Siddharth Nagar-Worli, Mumbai - IITM",29-05-2024 04:00:00,19.000083,72.813993,PM10,51,96,76
India,Maharashtra,Mumbai,"Siddharth Nagar-Worli, Mumbai - IITM",29-05-2024 04:00:00,19.000083,72.813993,OZONE,19,44,29
India,Maharashtra,Mumbai,"Sion, Mumbai - MPCB",29-05-2024 04:00:00,19.047000,72.874600,PM2.5,32,48,41
India,Maharashtra,Mumbai,"Sion, Mumbai - MPCB",29-05-2024 04:00:00,19.047000,72.874600,PM10,55,92,71
India,Maharashtra,Mumbai,"Sion, Mumbai - MPCB",29-05-2024 04:00:00,19.047000,72.874600,NH3,5,8,7
India,Maharashtra,Mumbai,"Sion, Mumbai - MPCB",29-05-2024 04:00:00,19.047000,72.874600,SO2,25,26,26
India,Maharashtra,Mumbai,"Vasai West, Mumbai - MPCB",29-05-2024 04:00:00,19.383200,72.820400,PM2.5,18,39,29
India,Maharashtra,Mumbai,"Vile Parle West, Mumbai - MPCB",29-05-2024 04:00:00,19.10861,72.83622,CO,NA,NA,NA
India,Maharashtra,Mumbai,"Vile Parle West, Mumbai - MPCB",29-05-2024 04:00:00,19.10861,72.83622,OZONE,2,9,8
India,Maharashtra,Mumbai,"Worli, Mumbai - MPCB",29-05-2024 04:00:00,18.9936162,72.8128113,PM2.5,11,21,17
India,Maharashtra,Nagpur,"Ambazari, Nagpur - MPCB",29-05-2024 04:00:00,21.121801,79.04952,NH3,2,11,3
India,Maharashtra,Nagpur,"Mahal, Nagpur - MPCB",29-05-2024 04:00:00,21.14472,79.107595,PM10,69,136,105
India,Maharashtra,Nagpur,"Opp GPO Civil Lines, Nagpur - MPCB",29-05-2024 04:00:00,21.152875,79.0517531,PM10,63,145,102
India,Maharashtra,Nanded,"Sneh Nagar, Nanded - MPCB",29-05-2024 04:00:00,19.173852,77.296291,CO,11,40,14
India,Maharashtra,Nashik,"Hirawadi, Nashik - MPCB",29-05-2024 04:00:00,20.021503,73.813844,PM2.5,14,46,29
India,Maharashtra,Nashik,"Hirawadi, Nashik - MPCB",29-05-2024 04:00:00,20.021503,73.813844,NH3,3,6,5
India,Maharashtra,Nashik,"MIDC Ambad, Nashik - MPCB",29-05-2024 04:00:00,19.950220,73.731480,NH3,3,7,5
India,Maharashtra,Nashik,"MIDC Ambad, Nashik - MPCB",29-05-2024 04:00:00,19.950220,73.731480,OZONE,25,50,28
India,Maharashtra,Navi Mumbai,"Kopripada-Vashi, Navi Mumbai - MPCB",29-05-2024 04:00:00,19.090337,73.014232,CO,1,18,11
India,Maharashtra,Navi Mumbai,"Mahape, Navi Mumbai - MPCB",29-05-2024 04:00:00,19.1135051,73.008978,NO2,NA,NA,NA
India,Maharashtra,Navi Mumbai,"Mahape, Navi Mumbai - MPCB",29-05-2024 04:00:00,19.1135051,73.008978,OZONE,NA,NA,NA
India,Maharashtra,Navi Mumbai,"Nerul, Navi Mumbai - MPCB",29-05-2024 04:00:00,19.008751,73.016620,SO2,19,20,20
India,Maharashtra,Navi Mumbai,"Sanpada, Navi Mumbai - MPCB",29-05-2024 04:00:00,19.0575752,73.0151367,PM2.5,13,33,22
India,Maharashtra,Navi Mumbai,"Sector-19A Nerul, Navi Mumbai - IITM",29-05-2024 04:00:00,19.044,73.0325,NO2,NA,NA,NA
India,Maharashtra,Pimpri-Chinchwad,"Gavalinagar, Pimpri Chinchwad - MPCB",29-05-2024 04:00:00,18.63673,73.82487,PM2.5,27,53,36
India,Maharashtra,Pimpri-Chinchwad,"Park Street Wakad, Pimpri Chinchwad - MPCB",29-05-2024 04:00:00,18.59051,73.77946,NH3,1,4,2
India,Maharashtra,Pimpri-Chinchwad,"Thergaon, Pimpri Chinchwad - MPCB",29-05-2024 04:00:00,18.616318,73.765797,PM10,NA,NA,NA
India,Maharashtra,Pimpri-Chinchwad,"Thergaon, Pimpri Chinchwad - MPCB",29-05-2024 04:00:00,18.616318,73.765797,SO2,NA,NA,NA
India,Maharashtra,Pimpri-Chinchwad,"Thergaon, Pimpri Chinchwad - MPCB",29-05-2024 04:00:00,18.616318,73.765797,OZONE,15,27,21
India,Maharashtra,Pune,"Hadapsar, Pune - IITM",29-05-2024 04:00:00,18.501793,73.927532,PM2.5,59,273,125
India,Maharashtra,Pune,"Karve Road, Pune - MPCB",29-05-2024 04:00:00,18.5011743,73.8165527,PM2.5,19,74,45
India,Maharashtra,Pune,"Karve Road, Pune - MPCB",29-05-2024 04:00:00,18.5011743,73.8165527,PM10,34,120,78
India,Maharashtra,Pune,"Mhada Colony, Pune - IITM",29-05-2024 04:00:00,18.573040,73.927715,PM2.5,NA,NA,NA
India,Maharashtra,Pune,"Mhada Colony, Pune - IITM",29-05-2024 04:00:00,18.573040,73.927715,PM10,NA,NA,NA
India,Maharashtra,Pune,"Mhada Colony, Pune - IITM",29-05-2024 04:00:00,18.573040,73.927715,NO2,NA,NA,NA
India,Maharashtra,Pune,"Revenue Colony-Shivajinagar, Pune - IITM",29-05-2024 04:00:00,18.530085,73.849598,PM10,30,75,58
India,Maharashtra,Pune,"Revenue Colony-Shivajinagar, Pune - IITM",29-05-2024 04:00:00,18.530085,73.849598,SO2,7,19,14
India,Maharashtra,Pune,"Savitribai Phule Pune University, Pune - MPCB",29-05-2024 04:00:00,18.547056,73.826908,SO2,2,7,5
India,Maharashtra,Solapur,"Ratandeep Housing Society, Solapur - MPCB",29-05-2024 04:00:00,17.65439,75.90649,PM10,78,114,97
India,Maharashtra,Solapur,"Ratandeep Housing Society, Solapur - MPCB",29-05-2024 04:00:00,17.65439,75.90649,CO,13,59,26
India,Maharashtra,Thane,"Kasarvadavali, Thane - MPCB",29-05-2024 04:00:00,19.26777,72.97182,CO,12,30,22
India,Maharashtra,Thane,"Pimpleshwar Mandir, Thane - MPCB",29-05-2024 04:00:00,19.192056,72.9585188,NH3,1,4,2
India,Maharashtra,Ulhasnagar,"Sidhi Vinayak Nagar, Ulhasnagar - MPCB",29-05-2024 04:00:00,19.235581,73.159121,PM2.5,33,54,43
India,Maharashtra,Ulhasnagar,"Sidhi Vinayak Nagar, Ulhasnagar - MPCB",29-05-2024 04:00:00,19.235581,73.159121,NH3,1,4,2
India,Maharashtra,Virar,"Bolinj, Virar - MPCB",29-05-2024 04:00:00,19.4458210,72.7988231,NH3,8,9,9
India,Manipur,Imphal,"Manipur University, Imphal - Manipur PCB",29-05-2024 04:00:00,24.7524239,93.9286218,OZONE,1,41,17
India,Meghalaya,Shillong,"Lumpyngngad, Shillong - Meghalaya PCB",29-05-2024 04:00:00,25.5586,91.8985,OZONE,8,18,12
India,Mizoram,Aizawl,"Sikulpuikawn, Aizawl - Mizoram PCB",29-05-2024 04:00:00,23.7176342,92.7192841,NH3,1,18,4
India,Nagaland,Kohima,"PWD Juction, Kohima - NPCB",29-05-2024 04:00:00,25.6635413,94.0989878,NO2,3,7,4
India,Nagaland,Kohima,"PWD Juction, Kohima - NPCB",29-05-2024 04:00:00,25.6635413,94.0989878,CO,1,20,12
India,Odisha,Balasore,"Kalidaspur, Balasore - OSPCB",29-05-2024 04:00:00,21.51161,86.89088,PM10,NA,NA,NA
India,Odisha,Balasore,"Kalidaspur, Balasore - OSPCB",29-05-2024 04:00:00,21.51161,86.89088,CO,26,101,59
India,Odisha,Baripada,"Meher Colony, Baripada - OSPCB",29-05-2024 04:00:00,21.941841,86.728318,SO2,12,24,21
India,Odisha,Baripada,"Meher Colony, Baripada - OSPCB",29-05-2024 04:00:00,21.941841,86.728318,OZONE,25,133,68
India,Odisha,Bhubaneswar,"Lingraj Mandir, Bhubaneswar - OSPCB",29-05-2024 04:00:00,20.240790,85.836784,PM10,NA,NA,NA
India,Odisha,Bhubaneswar,"Lingraj Mandir, Bhubaneswar - OSPCB",29-05-2024 04:00:00,20.240790,85.836784,OZONE,39,70,47
India,Odisha,Bhubaneswar,"Patia, Bhubaneswar - OSPCB",29-05-2024 04:00:00,20.34652,85.81630,PM10,83,119,105
India,Odisha,Bileipada,"Tata Township, Bileipada - OSPCB",29-05-2024 04:00:00,22.06156703,85.47409613,PM2.5,79,204,131
India,Odisha,Byasanagar,"Ferro Chrome Colony, Byasanagar - OSPCB",29-05-2024 04:00:00,20.94185,86.11510,PM10,91,135,107
India,Odisha,Byasanagar,"Ferro Chrome Colony, Byasanagar - OSPCB",29-05-2024 04:00:00,20.94185,86.11510,SO2,2,5,3
India,Odisha,Keonjhar,"Jagamohanpur, Keonjhar - OSPCB",29-05-2024 04:00:00,21.643900,85.599355,CO,42,98,65
India,Odisha,Nayagarh,"Dabuna, Nayagarh - OSPCB",29-05-2024 04:00:00,21.847279,85.416905,NO2,NA,NA,NA
India,Odisha,Rourkela,"Raghunathpali, Rourkela - OSPCB",29-05-2024 04:00:00,22.220833,84.809444,PM2.5,40,158,95
India,Odisha,Rourkela,"Raghunathpali, Rourkela - OSPCB",29-05-2024 04:00:00,22.220833,84.809444,NH3,2,4,3
India,Odisha,Rourkela,"Raghunathpali, Rourkela - OSPCB",29-05-2024 04:00:00,22.220833,84.809444,OZONE,37,182,80
India,Odisha,Suakati,"OMC Colony, Suakati - OSPCB",29-05-2024 04:00:00,21.606865,85.510538,PM2.5,57,114,83
India,Odisha,Suakati,"OMC Colony, Suakati - OSPCB",29-05-2024 04:00:00,21.606865,85.510538,OZONE,12,102,58
India,Odisha,Talcher,"Talcher Coalfields,Talcher - OSPCB",29-05-2024 04:00:00,20.9360711,85.1707021,NO2,16,21,18
India,Odisha,Talcher,"Talcher Coalfields,Talcher - OSPCB",29-05-2024 04:00:00,20.9360711,85.1707021,SO2,22,30,25
India,Odisha,Talcher,"Talcher Coalfields,Talcher - OSPCB",29-05-2024 04:00:00,20.9360711,85.1707021,CO,19,78,69
India,Puducherry,Puducherry,"Jawahar Nagar, Puducherry - PPCC",29-05-2024 04:00:00,11.9309,79.8027,PM2.5,20,67,40
India,Puducherry,Puducherry,"Jawahar Nagar, Puducherry - PPCC",29-05-2024 04:00:00,11.9309,79.8027,NO2,8,34,13
India,Puducherry,Puducherry,"Jawahar Nagar, Puducherry - PPCC",29-05-2024 04:00:00,11.9309,79.8027,NH3,4,8,5
India,Puducherry,Puducherry,"Jawahar Nagar, Puducherry - PPCC",29-05-2024 04:00:00,11.9309,79.8027,CO,18,36,24
India,Punjab,Amritsar,"Golden Temple, Amritsar - PPCB",29-05-2024 04:00:00,31.620000,74.876512,OZONE,28,59,53
India,Punjab,Bathinda,"Hardev Nagar, Bathinda - PPCB",29-05-2024 04:00:00,30.233011,74.907758,PM10,NA,NA,NA
India,Punjab,Jalandhar,"Civil Line, Jalandhar - PPCB",29-05-2024 04:00:00,31.321907,75.578914,PM10,89,189,142
India,Punjab,Khanna,"Kalal Majra, Khanna - PPCB",29-05-2024 04:00:00,30.736056 ,76.209694,NO2,27,31,30
India,Punjab,Khanna,"Kalal Majra, Khanna - PPCB",29-05-2024 04:00:00,30.736056 ,76.209694,OZONE,1,112,9
India,Punjab,Ludhiana,"Punjab Agricultural University, Ludhiana - PPCB",29-05-2024 04:00:00,30.9028,75.8086,PM10,58,157,103
India,Punjab,Patiala,"Model Town, Patiala - PPCB",29-05-2024 04:00:00,30.349388,76.366642,PM2.5,80,284,133
India,Punjab,Patiala,"Model Town, Patiala - PPCB",29-05-2024 04:00:00,30.349388,76.366642,SO2,3,102,32
India,Punjab,Patiala,"Model Town, Patiala - PPCB",29-05-2024 04:00:00,30.349388,76.366642,OZONE,10,146,48
India,Punjab,Rupnagar,"Ratanpura, Rupnagar - Ambuja Cements",29-05-2024 04:00:00,31.0325454,76.5623046,PM10,50,375,164
India,Punjab,Rupnagar,"Ratanpura, Rupnagar - Ambuja Cements",29-05-2024 04:00:00,31.0325454,76.5623046,CO,30,60,53
India,Rajasthan,Ajmer,"Civil Lines,  Ajmer - RSPCB",29-05-2024 04:00:00,26.470859,74.646594,PM10,102,192,139
India,Rajasthan,Ajmer,"Civil Lines,  Ajmer - RSPCB",29-05-2024 04:00:00,26.470859,74.646594,NO2,25,27,26
India,Rajasthan,Ajmer,"Civil Lines,  Ajmer - RSPCB",29-05-2024 04:00:00,26.470859,74.646594,SO2,4,50,18
India,Rajasthan,Alwar,"Moti Doongri, Alwar - RSPCB",29-05-2024 04:00:00,27.554793,76.611536,NH3,3,10,6
India,Rajasthan,Banswara,"Rati Talai, Banswara - RSPCB",29-05-2024 04:00:00,23.555190,74.440010,CO,20,42,29
India,Rajasthan,Banswara,"Rati Talai, Banswara - RSPCB",29-05-2024 04:00:00,23.555190,74.440010,OZONE,9,112,44
India,Rajasthan,Bhilwara,"Pratap Nagar, Bhilwara - RSPCB",29-05-2024 04:00:00,25.339605,74.618883,CO,14,26,21
India,Rajasthan,Bhiwadi,"Vasundhara Nagar_UIT, Bhiwadi - RSPCB",29-05-2024 04:00:00,28.207266,76.829265,PM2.5,10,328,146
India,Rajasthan,Bhiwadi,"Vasundhara Nagar_UIT, Bhiwadi - RSPCB",29-05-2024 04:00:00,28.207266,76.829265,NO2,12,145,46
India,Rajasthan,Bikaner,"MM Ground, Bikaner - RSPCB",29-05-2024 04:00:00,28.018792,73.292658,CO,12,46,29
India,Rajasthan,Bundi,"New Colony, Bundi - RSPCB",29-05-2024 04:00:00,25.435774,75.644272,CO,15,24,19
India,Rajasthan,Chittorgarh,"Shastri Nagar, Chittorgarh - RSPCB",29-05-2024 04:00:00,24.892047,74.623527,PM2.5,NA,NA,NA
India,Rajasthan,Churu,"Subash Chowk, Churu - RSPCB",29-05-2024 04:00:00,28.296139,74.961696,PM2.5,7,292,73
India,Rajasthan,Churu,"Subash Chowk, Churu - RSPCB",29-05-2024 04:00:00,28.296139,74.961696,OZONE,14,174,52
India,Rajasthan,Dausa,"Khatikan Mohalla, Dausa - RSPCB",29-05-2024 04:00:00,26.895552,76.334753,PM2.5,27,169,66
India,Rajasthan,Dholpur,"Raja Ganj, Dholpur - RSPCB",29-05-2024 04:00:00,26.699557,77.898881,PM10,113,338,160
India,Rajasthan,Dholpur,"Raja Ganj, Dholpur - RSPCB",29-05-2024 04:00:00,26.699557,77.898881,SO2,5,18,12
India,Rajasthan,Hanumangarh,"Housing Board, Hanumangarh - RSPCB",29-05-2024 04:00:00,29.610750,74.283608,PM2.5,30,338,123
India,Rajasthan,Hanumangarh,"Housing Board, Hanumangarh - RSPCB",29-05-2024 04:00:00,29.610750,74.283608,CO,43,100,69
India,Rajasthan,Jaipur,"Adarsh Nagar, Jaipur - RSPCB",29-05-2024 04:00:00,26.902909,75.836858,PM10,102,272,145
India,Rajasthan,Jaipur,"Adarsh Nagar, Jaipur - RSPCB",29-05-2024 04:00:00,26.902909,75.836858,NH3,3,12,5
India,Rajasthan,Jaipur,"Adarsh Nagar, Jaipur - RSPCB",29-05-2024 04:00:00,26.902909,75.836858,OZONE,19,73,28
India,Rajasthan,Jaipur,"Mansarovar Sector-12, Jaipur - RSPCB",29-05-2024 04:00:00,26.843698,75.766894,SO2,4,12,8
India,Rajasthan,Jaipur,"Police Commissionerate, Jaipur - RSPCB",29-05-2024 04:00:00,26.9164092,75.7994901,NO2,17,65,33
India,Rajasthan,Jaipur,"Police Commissionerate, Jaipur - RSPCB",29-05-2024 04:00:00,26.9164092,75.7994901,OZONE,22,113,32
India,Rajasthan,Jaipur,"RIICO Sitapura, Jaipur - RSPCB",29-05-2024 04:00:00,26.786682,75.827928,NO2,14,114,41
India,Rajasthan,Jaipur,"RIICO Sitapura, Jaipur - RSPCB",29-05-2024 04:00:00,26.786682,75.827928,CO,26,72,36
India,Rajasthan,Jaipur,"Sector-2 Murlipura, Jaipur - RSPCB",29-05-2024 04:00:00,26.960669,75.771817,PM10,102,390,171
India,Rajasthan,Jaipur,"Shastri Nagar, Jaipur - RSPCB",29-05-2024 04:00:00,26.9502929,75.730943,PM2.5,61,200,119
India,Rajasthan,Jaisalmer,"Sadar Bazar, Jaisalmer - RSPCB",29-05-2024 04:00:00,26.912329,70.909168,PM10,105,438,163
India,Rajasthan,Jaisalmer,"Sadar Bazar, Jaisalmer - RSPCB",29-05-2024 04:00:00,26.912329,70.909168,SO2,3,4,3
India,Rajasthan,Jalore,"Mudtra Sili, Jalore - RSPCB",29-05-2024 04:00:00,25.344694,72.626208,PM10,114,281,161
India,Rajasthan,Jalore,"Mudtra Sili, Jalore - RSPCB",29-05-2024 04:00:00,25.344694,72.626208,NO2,4,11,8
India,Rajasthan,Jhalawar,"Rajlaxmi Nagar, Jhalawar - RSPCB",29-05-2024 04:00:00,24.588397,76.172782,PM2.5,52,203,73
India,Rajasthan,Jhunjhunu,"Indra Nagar, Jhunjhunu - RSPCB",29-05-2024 04:00:00,28.108988,75.386577,PM10,60,402,158
India,Rajasthan,Jodhpur,"Collectorate, Jodhpur - RSPCB",29-05-2024 04:00:00,26.268249,73.0193853,NO2,25,26,25
India,Rajasthan,Jodhpur,"Collectorate, Jodhpur - RSPCB",29-05-2024 04:00:00,26.268249,73.0193853,CO,2,50,20
India,Rajasthan,Jodhpur,"Digari Kalan, Jodhpur - RSPCB",29-05-2024 04:00:00,26.295810,73.082283,CO,8,22,13
India,Rajasthan,Jodhpur,"Jhalamand, Jodhpur - RSPCB",29-05-2024 04:00:00,26.215415,73.070156,PM10,89,168,123
India,Rajasthan,Jodhpur,"Jhalamand, Jodhpur - RSPCB",29-05-2024 04:00:00,26.215415,73.070156,NO2,2,9,5
India,Rajasthan,Jodhpur,"Jhalamand, Jodhpur - RSPCB",29-05-2024 04:00:00,26.215415,73.070156,CO,6,12,9
India,Rajasthan,Jodhpur,"Mandor, Jodhpur - RSPCB",29-05-2024 04:00:00,26.358805,73.047444,PM2.5,34,59,46
India,Rajasthan,Jodhpur,"Samrat Ashok Udhyan, Jodhpur - RSPCB",29-05-2024 04:00:00,26.253384,72.976571,NH3,3,14,6
India,Rajasthan,Jodhpur,"Samrat Ashok Udhyan, Jodhpur - RSPCB",29-05-2024 04:00:00,26.253384,72.976571,OZONE,10,61,29
India,Rajasthan,Karauli,"Satyawati Vihar, Karauli - RSPCB",29-05-2024 04:00:00,26.506177,77.025989,PM10,86,302,147
India,Rajasthan,Karauli,"Satyawati Vihar, Karauli - RSPCB",29-05-2024 04:00:00,26.506177,77.025989,NO2,7,42,16
India,Rajasthan,Karauli,"Satyawati Vihar, Karauli - RSPCB",29-05-2024 04:00:00,26.506177,77.025989,NH3,5,16,7
India,Rajasthan,Karauli,"Satyawati Vihar, Karauli - RSPCB",29-05-2024 04:00:00,26.506177,77.025989,OZONE,26,156,70
India,Rajasthan,Kota,"Dhanmandi, Kota - RSPCB",29-05-2024 04:00:00,25.164090,75.858137,PM10,97,191,139
India,Rajasthan,Kota,"Dhanmandi, Kota - RSPCB",29-05-2024 04:00:00,25.164090,75.858137,NO2,10,48,22
India,Rajasthan,Kota,"Dhanmandi, Kota - RSPCB",29-05-2024 04:00:00,25.164090,75.858137,NH3,3,6,4
India,Rajasthan,Kota,"Dhanmandi, Kota - RSPCB",29-05-2024 04:00:00,25.164090,75.858137,SO2,4,101,20
India,Rajasthan,Kota,"Dhanmandi, Kota - RSPCB",29-05-2024 04:00:00,25.164090,75.858137,OZONE,41,140,59
India,Rajasthan,Kota,"Nayapura, Kota - RSPCB",29-05-2024 04:00:00,25.196024,75.855668,PM10,78,173,115
India,Rajasthan,Kota,"Shrinath Puram, Kota - RSPCB",29-05-2024 04:00:00,25.14389,75.821256,PM2.5,74,144,108
India,Rajasthan,Kota,"Shrinath Puram, Kota - RSPCB",29-05-2024 04:00:00,25.14389,75.821256,NH3,7,11,9
India,Rajasthan,Nagaur,"Karni Colony, Nagaur - RSPCB",29-05-2024 04:00:00,27.213494,73.734444,CO,8,22,14
India,Rajasthan,Pali,"Indira Colony Vistar, Pali - RSPCB",29-05-2024 04:00:00,25.771061, 73.340227,CO,7,110,60
India,Rajasthan,Pratapgarh,"Pragati Nagar, Pratapgarh - RSPCB",29-05-2024 04:00:00,24.041198,74.780702,OZONE,NA,NA,NA
India,Rajasthan,Rajsamand,"Dhoinda, Rajsamand - RSPCB",29-05-2024 04:00:00,25.036360,73.883502,CO,8,20,15
India,Rajasthan,Sawai Madhopur,"Sahu Nagar, Sawai Madhopur - RSPCB",29-05-2024 04:00:00,26.031443,76.359327,NH3,14,24,19
India,Rajasthan,Sikar,"Radhakishan Pura, Sikar - RSPCB",29-05-2024 04:00:00,27.608912,75.153302,SO2,1,7,3
India,Rajasthan,Sirohi,"Vedhaynath Colony, Sirohi - RSPCB",29-05-2024 04:00:00,24.885261,72.857549,NH3,2,33,11
India,Rajasthan,Sirohi,"Vedhaynath Colony, Sirohi - RSPCB",29-05-2024 04:00:00,24.885261,72.857549,CO,2,31,20
India,Rajasthan,Sri Ganganagar,"Old City, Sri Ganganagar - RSPCB",29-05-2024 04:00:00,29.931624,73.864511,NO2,19,117,63
India,Rajasthan,Udaipur,"Ashok Nagar, Udaipur - RSPCB",29-05-2024 04:00:00,24.5886166,73.6321397,PM2.5,4,221,113
India,Rajasthan,Udaipur,"Ashok Nagar, Udaipur - RSPCB",29-05-2024 04:00:00,24.5886166,73.6321397,OZONE,12,38,23
India,TamilNadu,Ariyalur,"Keelapalur, Ariyalur - TNPCB",29-05-2024 04:00:00,11.06825,79.07033,SO2,NA,NA,NA
India,TamilNadu,Chennai,"Alandur Bus Depot, Chennai - CPCB",29-05-2024 04:00:00,12.9099161,80.1076538,PM2.5,23,256,100
India,TamilNadu,Chennai,"Alandur Bus Depot, Chennai - CPCB",29-05-2024 04:00:00,12.9099161,80.1076538,PM10,23,152,80
India,TamilNadu,Chennai,"Manali, Chennai - CPCB",29-05-2024 04:00:00,13.164544,80.26285,PM10,48,110,85
India,TamilNadu,Chennai,"Perungudi, Chennai - TNPCB",29-05-2024 04:00:00,12.9533,80.2357,OZONE,2,4,3
India,TamilNadu,Chennai,"Royapuram, Chennai - TNPCB",29-05-2024 04:00:00,13.1036,80.2909,NO2,10,69,31
India,TamilNadu,Chennai,"Royapuram, Chennai - TNPCB",29-05-2024 04:00:00,13.1036,80.2909,NH3,1,12,5
India,TamilNadu,Chennai,"Velachery Res. Area, Chennai - CPCB",29-05-2024 04:00:00,13.0052189,80.2398125,PM10,23,46,34
India,TamilNadu,Chennai,"Velachery Res. Area, Chennai - CPCB",29-05-2024 04:00:00,13.0052189,80.2398125,SO2,10,11,11
India,TamilNadu,Chennai,"Velachery Res. Area, Chennai - CPCB",29-05-2024 04:00:00,13.0052189,80.2398125,CO,118,120,119
India,TamilNadu,Coimbatore,"PSG College of Arts and Science, Coimbatore - TNPCB",29-05-2024 04:00:00,11.0328,77.0349,PM2.5,15,47,32
India,TamilNadu,Coimbatore,"PSG College of Arts and Science, Coimbatore - TNPCB",29-05-2024 04:00:00,11.0328,77.0349,CO,48,61,52
India,TamilNadu,Cuddalore,"Kudikadu, Cuddalore - TNPCB",29-05-2024 04:00:00,11.6829898,79.7532099,PM2.5,17,80,45
India,TamilNadu,Palkalaiperur,"Bharathidasan University, Palkalaiperur - TNPCB",29-05-2024 04:00:00,10.681158,78.741746,PM10,NA,NA,NA
India,TamilNadu,Palkalaiperur,"Bharathidasan University, Palkalaiperur - TNPCB",29-05-2024 04:00:00,10.681158,78.741746,CO,NA,NA,NA
India,TamilNadu,Salem,"Sona College of Technology, Salem - TNPCB",29-05-2024 04:00:00,11.679111,78.125052,NO2,NA,NA,NA
India,TamilNadu,Salem,"Sona College of Technology, Salem - TNPCB",29-05-2024 04:00:00,11.679111,78.125052,CO,NA,NA,NA
India,TamilNadu,Tirupur,"Kumaran College, Tirupur - TNPCB",29-05-2024 04:00:00,11.0973603,77.3228673,PM2.5,2,20,10
India,TamilNadu,Tirupur,"Kumaran College, Tirupur - TNPCB",29-05-2024 04:00:00,11.0973603,77.3228673,SO2,15,25,17
India,TamilNadu,Vellore,"Vasanthapuram, Vellore - TNPCB",29-05-2024 04:00:00,12.909494,79.131861,NH3,1,1,1
India,Telangana,Hyderabad,"Bollaram Industrial Area, Hyderabad - TSPCB",29-05-2024 04:00:00,17.540891,78.358528,PM10,65,122,89
India,Telangana,Hyderabad,"Central University, Hyderabad - TSPCB",29-05-2024 04:00:00,17.460103,78.334361,CO,9,19,15
India,Telangana,Hyderabad,"ICRISAT Patancheru, Hyderabad - TSPCB",29-05-2024 04:00:00,17.518400,78.278777,SO2,13,27,19
India,Telangana,Hyderabad,"Kokapet, Hyderabad - TSPCB",29-05-2024 04:00:00,17.393559,78.339194,PM2.5,44,199,94
India,Telangana,Hyderabad,"Kokapet, Hyderabad - TSPCB",29-05-2024 04:00:00,17.393559,78.339194,OZONE,2,10,8
India,Telangana,Hyderabad,"Kompally Municipal Office, Hyderabad - TSPCB",29-05-2024 04:00:00,17.544899,78.486949,CO,6,8,6
India,Telangana,Hyderabad,"Nacharam_TSIIC IALA, Hyderabad - TSPCB",29-05-2024 04:00:00,17.429398,78.569354,PM10,79,85,83
India,Telangana,Hyderabad,"Nacharam_TSIIC IALA, Hyderabad - TSPCB",29-05-2024 04:00:00,17.429398,78.569354,SO2,10,43,19
India,Telangana,Hyderabad,"New Malakpet, Hyderabad - TSPCB",29-05-2024 04:00:00,17.37206,78.50864,PM10,NA,NA,NA
India,Telangana,Hyderabad,"New Malakpet, Hyderabad - TSPCB",29-05-2024 04:00:00,17.37206,78.50864,OZONE,18,25,22
India,Telangana,Hyderabad,"Ramachandrapuram, Hyderabad - TSPCB",29-05-2024 04:00:00,17.528544,78.286195,SO2,NA,NA,NA
India,Telangana,Hyderabad,"Ramachandrapuram, Hyderabad - TSPCB",29-05-2024 04:00:00,17.528544,78.286195,CO,NA,NA,NA
India,Telangana,Hyderabad,"Ramachandrapuram, Hyderabad - TSPCB",29-05-2024 04:00:00,17.528544,78.286195,OZONE,NA,NA,NA
India,Telangana,Hyderabad,"Sanathnagar, Hyderabad - TSPCB",29-05-2024 04:00:00,17.4559458,78.4332152,NO2,28,32,30
India,Telangana,Hyderabad,"Somajiguda, Hyderabad - TSPCB",29-05-2024 04:00:00,17.417094,78.457437,SO2,NA,NA,NA
India,Telangana,Hyderabad,"Somajiguda, Hyderabad - TSPCB",29-05-2024 04:00:00,17.417094,78.457437,OZONE,14,27,18
India,Telangana,Hyderabad,"Zoo Park, Hyderabad - TSPCB",29-05-2024 04:00:00,17.349694,78.451437,CO,14,36,24
India,Uttar_Pradesh,Agra,"Manoharpur, Agra - UPPCB",29-05-2024 04:00:00,27.23711,78.01936,PM2.5,18,99,51
India,Uttar_Pradesh,Agra,"Manoharpur, Agra - UPPCB",29-05-2024 04:00:00,27.23711,78.01936,PM10,13,73,38
India,Uttar_Pradesh,Agra,"Manoharpur, Agra - UPPCB",29-05-2024 04:00:00,27.23711,78.01936,NH3,2,5,3
India,Uttar_Pradesh,Agra,"Rohta, Agra - UPPCB",29-05-2024 04:00:00,27.106972,78.000111,NO2,8,10,8
India,Uttar_Pradesh,Agra,"Rohta, Agra - UPPCB",29-05-2024 04:00:00,27.106972,78.000111,NH3,3,4,3
India,Uttar_Pradesh,Agra,"Sector-3B Avas Vikas Colony, Agra - UPPCB",29-05-2024 04:00:00,27.19412,77.96237,NO2,49,52,51
India,Uttar_Pradesh,Agra,"Shahjahan Garden, Agra - UPPCB",29-05-2024 04:00:00,27.169338,78.03582,PM10,58,126,100
India,Uttar_Pradesh,Agra,"Shastripuram, Agra - UPPCB",29-05-2024 04:00:00,27.19862,77.92066,PM10,NA,NA,NA
India,Uttar_Pradesh,Agra,"Shastripuram, Agra - UPPCB",29-05-2024 04:00:00,27.19862,77.92066,NO2,NA,NA,NA
India,Uttar_Pradesh,Agra,"Shastripuram, Agra - UPPCB",29-05-2024 04:00:00,27.19862,77.92066,NH3,NA,NA,NA
India,Uttar_Pradesh,Agra,"Shastripuram, Agra - UPPCB",29-05-2024 04:00:00,27.19862,77.92066,CO,5,22,19
India,Uttar_Pradesh,Baghpat,"Sardar Patel Inter College, Baghpat - UPPCB",29-05-2024 04:00:00,28.964949,77.278761,SO2,37,138,89
India,Uttar_Pradesh,Bareilly,"Civil Lines, Bareilly - UPPCB",29-05-2024 04:00:00,28.359581,79.414455,NO2,2,3,2
India,Uttar_Pradesh,Bareilly,"Civil Lines, Bareilly - UPPCB",29-05-2024 04:00:00,28.359581,79.414455,OZONE,1,17,3
India,Uttar_Pradesh,Bareilly,"Rajendra Nagar, Bareilly - UPPCB",29-05-2024 04:00:00,28.38910936,79.42963708,NH3,1,2,1
India,Uttar_Pradesh,Bulandshahr,"Yamunapuram, Bulandshahr - UPPCB",29-05-2024 04:00:00,28.406963,77.849831,PM10,98,293,156
India,Uttar_Pradesh,Bulandshahr,"Yamunapuram, Bulandshahr - UPPCB",29-05-2024 04:00:00,28.406963,77.849831,NH3,13,23,17
India,Uttar_Pradesh,Bulandshahr,"Yamunapuram, Bulandshahr - UPPCB",29-05-2024 04:00:00,28.406963,77.849831,CO,20,102,65
India,Uttar_Pradesh,Bulandshahr,"Yamunapuram, Bulandshahr - UPPCB",29-05-2024 04:00:00,28.406963,77.849831,OZONE,4,196,25
India,Uttar_Pradesh,Firozabad,"Nagla Bhau, Firozabad - UPPCB",29-05-2024 04:00:00,27.168897,78.376960,NO2,17,17,17
India,Uttar_Pradesh,Ghaziabad,"Indirapuram, Ghaziabad - UPPCB",29-05-2024 04:00:00,28.646233,77.358075,PM10,142,433,277
India,Uttar_Pradesh,Ghaziabad,"Sanjay Nagar, Ghaziabad - UPPCB",29-05-2024 04:00:00,28.685382,77.453839,NO2,15,168,94
India,Uttar_Pradesh,Ghaziabad,"Vasundhara, Ghaziabad - UPPCB",29-05-2024 04:00:00,28.6603346,77.3572563,NO2,41,118,75
India,Uttar_Pradesh,Gorakhpur,"Madan Mohan Malaviya University of Technology, Gorakhpur - UPPCB",29-05-2024 04:00:00,26.730136,83.433859,PM2.5,30,90,54
India,Uttar_Pradesh,Gorakhpur,"Madan Mohan Malaviya University of Technology, Gorakhpur - UPPCB",29-05-2024 04:00:00,26.730136,83.433859,NH3,1,1,1
India,Uttar_Pradesh,Greater Noida,"Knowledge Park - III, Greater Noida - UPPCB",29-05-2024 04:00:00,28.47272,77.482000,SO2,13,59,33
India,Uttar_Pradesh,Greater Noida,"Knowledge Park - III, Greater Noida - UPPCB",29-05-2024 04:00:00,28.47272,77.482000,OZONE,6,272,28
India,Uttar_Pradesh,Jhansi,"Shivaji Nagar, Jhansi - UPPCB",29-05-2024 04:00:00,25.4547,78.6039,OZONE,1,54,5
India,Uttar_Pradesh,Kanpur,"FTI Kidwai Nagar, Kanpur - UPPCB",29-05-2024 04:00:00,26.428282,80.327067,CO,22,62,44
India,Uttar_Pradesh,Kanpur,"NSI Kalyanpur, Kanpur - UPPCB",29-05-2024 04:00:00,26.509954,80.249612,PM10,NA,NA,NA
India,Uttar_Pradesh,Kanpur,"NSI Kalyanpur, Kanpur - UPPCB",29-05-2024 04:00:00,26.509954,80.249612,NO2,19,24,22
India,Uttar_Pradesh,Kanpur,"NSI Kalyanpur, Kanpur - UPPCB",29-05-2024 04:00:00,26.509954,80.249612,NH3,2,2,1
India,Uttar_Pradesh,Kanpur,"NSI Kalyanpur, Kanpur - UPPCB",29-05-2024 04:00:00,26.509954,80.249612,OZONE,18,59,36
India,Uttar_Pradesh,Kanpur,"Nehru Nagar, Kanpur - UPPCB",29-05-2024 04:00:00,26.4703136,80.3229863,CO,26,78,42
India,Uttar_Pradesh,Khurja,"Kalindi Kunj, Khurja - UPPCB",29-05-2024 04:00:00,28.2348927,77.8683002,PM2.5,29,288,114
India,Uttar_Pradesh,Khurja,"Kalindi Kunj, Khurja - UPPCB",29-05-2024 04:00:00,28.2348927,77.8683002,NH3,1,2,1
India,Uttar_Pradesh,Khurja,"Kalindi Kunj, Khurja - UPPCB",29-05-2024 04:00:00,28.2348927,77.8683002,CO,30,74,42
India,Uttar_Pradesh,Lucknow,"B R Ambedkar University, Lucknow - UPPCB",29-05-2024 04:00:00,26.766433,80.927299,NO2,11,12,11
India,Uttar_Pradesh,Lucknow,"Gomti Nagar, Lucknow - UPPCB",29-05-2024 04:00:00,26.868120,81.005119,PM10,43,106,73
India,Uttar_Pradesh,Lucknow,"Gomti Nagar, Lucknow - UPPCB",29-05-2024 04:00:00,26.868120,81.005119,NO2,10,13,11
India,Uttar_Pradesh,Lucknow,"Kendriya Vidyalaya, Lucknow - CPCB",29-05-2024 04:00:00,26.906111,80.948222,OZONE,22,93,41
India,Uttar_Pradesh,Lucknow,"Kukrail Picnic Spot-1, Lucknow - UPPCB",29-05-2024 04:00:00,26.90723,80.98579,NO2,13,13,13
India,Uttar_Pradesh,Lucknow,"Lalbagh, Lucknow - CPCB",29-05-2024 04:00:00,26.8458805,80.9365541,NO2,14,15,15
India,Uttar_Pradesh,Lucknow,"Talkatora District Industries Center, Lucknow - CPCB",29-05-2024 04:00:00,26.83399722,80.8917361,PM2.5,83,322,196
India,Uttar_Pradesh,Meerut,"Jai Bhim Nagar, Meerut - UPPCB",29-05-2024 04:00:00,28.9535882,77.7622941,PM10,104,421,250
India,Uttar_Pradesh,Meerut,"Jai Bhim Nagar, Meerut - UPPCB",29-05-2024 04:00:00,28.9535882,77.7622941,CO,14,102,71
India,Uttar_Pradesh,Meerut,"Pallavpuram Phase 2, Meerut - UPPCB",29-05-2024 04:00:00,29.063510,77.709723,SO2,12,105,43
India,Uttar_Pradesh,Moradabad,"Buddhi Vihar, Moradabad - UPPCB",29-05-2024 04:00:00,28.83526,78.74460,PM2.5,41,168,72
India,Uttar_Pradesh,Moradabad,"Eco Herbal Park, Moradabad - UPPCB",29-05-2024 04:00:00,28.840739,78.697531,NH3,7,17,9
India,Uttar_Pradesh,Moradabad,"Eco Herbal Park, Moradabad - UPPCB",29-05-2024 04:00:00,28.840739,78.697531,SO2,23,67,36
India,Uttar_Pradesh,Moradabad,"Employment Office, Moradabad - UPPCB",29-05-2024 04:00:00,28.88528,78.73880,SO2,18,40,23
India,Uttar_Pradesh,Moradabad,"Jigar Colony, Moradabad - UPPCB",29-05-2024 04:00:00,28.856664,78.772638,NO2,16,18,17
India,Uttar_Pradesh,Moradabad,"Jigar Colony, Moradabad - UPPCB",29-05-2024 04:00:00,28.856664,78.772638,SO2,16,22,19
India,Uttar_Pradesh,Moradabad,"Jigar Colony, Moradabad - UPPCB",29-05-2024 04:00:00,28.856664,78.772638,OZONE,15,71,18
India,Uttar_Pradesh,Moradabad,"Kashiram Nagar, Moradabad - UPPCB",29-05-2024 04:00:00,28.849399,78.742362,NH3,3,4,4
India,Uttar_Pradesh,Moradabad,"Kashiram Nagar, Moradabad - UPPCB",29-05-2024 04:00:00,28.849399,78.742362,SO2,32,69,48
India,Uttar_Pradesh,Muzaffarnagar,"New Mandi, Muzaffarnagar - UPPCB",29-05-2024 04:00:00,29.4723508,77.7194031,SO2,16,102,44
India,Uttar_Pradesh,Noida,"Sector - 62, Noida - IMD",29-05-2024 04:00:00,28.6245479,77.3577104,CO,20,64,44
India,Uttar_Pradesh,Noida,"Sector - 62, Noida - IMD",29-05-2024 04:00:00,28.6245479,77.3577104,OZONE,1,126,12
India,Uttar_Pradesh,Noida,"Sector-116, Noida - UPPCB",29-05-2024 04:00:00,28.569230,77.393848,CO,22,108,63
India,Uttar_Pradesh,Prayagraj,"Jhunsi, Prayagraj - UPPCB",29-05-2024 04:00:00,25.425602,81.917152,PM10,41,125,81
India,Uttar_Pradesh,Prayagraj,"Jhunsi, Prayagraj - UPPCB",29-05-2024 04:00:00,25.425602,81.917152,NO2,5,6,6
India,Uttar_Pradesh,Prayagraj,"Jhunsi, Prayagraj - UPPCB",29-05-2024 04:00:00,25.425602,81.917152,CO,3,25,22
India,Uttar_Pradesh,Prayagraj,"Jhunsi, Prayagraj - UPPCB",29-05-2024 04:00:00,25.425602,81.917152,OZONE,3,101,26
India,Uttar_Pradesh,Prayagraj,"Nagar Nigam, Prayagraj - UPPCB",29-05-2024 04:00:00,25.44919916 ,81.82735986 ,NH3,NA,NA,NA
India,Uttar_Pradesh,Prayagraj,"Nagar Nigam, Prayagraj - UPPCB",29-05-2024 04:00:00,25.44919916 ,81.82735986 ,OZONE,11,12,12
India,Uttar_Pradesh,Varanasi,"Ardhali Bazar, Varanasi - UPPCB",29-05-2024 04:00:00,25.3505986,82.9083074,PM2.5,10,34,21
India,Uttar_Pradesh,Varanasi,"Bhelupur, Varanasi - UPPCB",29-05-2024 04:00:00,25.301778,82.996789,NH3,1,2,1
India,Uttar_Pradesh,Varanasi,"Bhelupur, Varanasi - UPPCB",29-05-2024 04:00:00,25.301778,82.996789,SO2,30,32,30
India,Uttar_Pradesh,Varanasi,"Bhelupur, Varanasi - UPPCB",29-05-2024 04:00:00,25.301778,82.996789,CO,10,40,32
India,Uttar_Pradesh,Varanasi,"Bhelupur, Varanasi - UPPCB",29-05-2024 04:00:00,25.301778,82.996789,OZONE,3,41,20
India,Uttar_Pradesh,Varanasi,"IESD Banaras Hindu University, Varanasi - UPPCB",29-05-2024 04:00:00,25.262326,82.995408,PM2.5,NA,NA,NA
India,Uttar_Pradesh,Varanasi,"IESD Banaras Hindu University, Varanasi - UPPCB",29-05-2024 04:00:00,25.262326,82.995408,SO2,19,21,20
India,Uttar_Pradesh,Vrindavan,"Omex Eternity, Vrindavan - UPPCB",29-05-2024 04:00:00,27.5714090,77.6557570,CO,24,60,51
India,Uttarakhand,Dehradun,"Doon University, Dehradun - UKPCB",29-05-2024 04:00:00,30.269444,78.044167,PM2.5,58,122,83
India,Uttarakhand,Kashipur,"Govt. Girls Inter College, Kashipur - UKPCB",29-05-2024 04:00:00,29.2124114,78.9611753,PM2.5,40,96,68
India,Uttarakhand,Kashipur,"Govt. Girls Inter College, Kashipur - UKPCB",29-05-2024 04:00:00,29.2124114,78.9611753,OZONE,35,177,76
India,Uttarakhand,Rishikesh,"Shivaji Nagar, Rishikesh - UKPCB",29-05-2024 04:00:00,30.075911,78.2859547,NH3,2,5,3
India,Uttarakhand,Rishikesh,"Shivaji Nagar, Rishikesh - UKPCB",29-05-2024 04:00:00,30.075911,78.2859547,SO2,1,7,3
India,Uttarakhand,Rishikesh,"Shivaji Nagar, Rishikesh - UKPCB",29-05-2024 04:00:00,30.075911,78.2859547,OZONE,31,207,70
India,West_Bengal,Asansol,"Asansol Court Area, Asansol - WBPCB",29-05-2024 04:00:00,23.685297,86.945968,PM2.5,57,187,106
India,West_Bengal,Asansol,"Asansol Court Area, Asansol - WBPCB",29-05-2024 04:00:00,23.685297,86.945968,CO,15,30,23
India,West_Bengal,Barrackpore,"SVSPA Campus, Barrackpore - WBPCB",29-05-2024 04:00:00,22.7605581,88.3617589,PM10,37,116,80
India,West_Bengal,Barrackpore,"SVSPA Campus, Barrackpore - WBPCB",29-05-2024 04:00:00,22.7605581,88.3617589,NO2,3,14,8
India,West_Bengal,Durgapur,"Sidhu Kanhu Indoor Stadium, Durgapur - WBPCB",29-05-2024 04:00:00,23.5404352,87.2892225,NH3,4,7,5
India,West_Bengal,Durgapur,"Sidhu Kanhu Indoor Stadium, Durgapur - WBPCB",29-05-2024 04:00:00,23.5404352,87.2892225,SO2,13,56,25
India,West_Bengal,Haldia,"Priyambada Housing Estate, Haldia - WBPCB",29-05-2024 04:00:00,22.06047,88.109737,SO2,5,60,18
India,West_Bengal,Howrah,"Belur Math, Howrah - WBPCB",29-05-2024 04:00:00,22.629801,88.352017,PM2.5,29,71,51
India,West_Bengal,Howrah,"Belur Math, Howrah - WBPCB",29-05-2024 04:00:00,22.629801,88.352017,SO2,3,9,6
India,West_Bengal,Howrah,"Ghusuri, Howrah - WBPCB",29-05-2024 04:00:00,22.611968,88.347422,PM10,32,96,67
India,West_Bengal,Howrah,"Ghusuri, Howrah - WBPCB",29-05-2024 04:00:00,22.611968,88.347422,SO2,3,6,5
India,West_Bengal,Kolkata,"Ballygunge, Kolkata - WBPCB",29-05-2024 04:00:00,22.5367507,88.3638022,NO2,NA,NA,NA
India,West_Bengal,Kolkata,"Ballygunge, Kolkata - WBPCB",29-05-2024 04:00:00,22.5367507,88.3638022,SO2,NA,NA,NA
India,West_Bengal,Kolkata,"Bidhannagar, Kolkata - WBPCB",29-05-2024 04:00:00,22.58157048,88.41002457,PM10,42,88,71
India,West_Bengal,Kolkata,"Fort William, Kolkata - WBPCB",29-05-2024 04:00:00,22.556640,88.342674,PM2.5,40,99,75
India,West_Bengal,Kolkata,"Jadavpur, Kolkata - WBPCB",29-05-2024 04:00:00,22.49929,88.36917,NO2,16,112,46
India,West_Bengal,Kolkata,"Rabindra Bharati University, Kolkata - WBPCB",29-05-2024 04:00:00,22.627847,88.380669,PM10,39,83,62
India,West_Bengal,Kolkata,"Rabindra Bharati University, Kolkata - WBPCB",29-05-2024 04:00:00,22.627847,88.380669,NH3,2,11,7
India,West_Bengal,Kolkata,"Rabindra Sarobar, Kolkata - WBPCB",29-05-2024 04:00:00,22.51106,88.35142,OZONE,11,50,33
India,West_Bengal,Kolkata,"Victoria, Kolkata - WBPCB",29-05-2024 04:00:00,22.5448082,88.3403691,NO2,22,28,25
India,West_Bengal,Kolkata,"Victoria, Kolkata - WBPCB",29-05-2024 04:00:00,22.5448082,88.3403691,OZONE,9,39,31
India,West_Bengal,Siliguri,"Ward-32 Bapupara, Siliguri - WBPCB",29-05-2024 04:00:00,26.6879226,88.4152495,PM10,24,54,40
India,West_Bengal,Siliguri,"Ward-32 Bapupara, Siliguri - WBPCB",29-05-2024 04:00:00,26.6879226,88.4152495,NH3,8,11,9
India,Andhra_Pradesh,Amaravati,"Secretariat, Amaravati - APPCB",29-05-2024 04:00:00,16.5150833,80.5181667,SO2,12,20,13
India,Andhra_Pradesh,Amaravati,"Secretariat, Amaravati - APPCB",29-05-2024 04:00:00,16.5150833,80.5181667,OZONE,8,55,17
India,Andhra_Pradesh,Anantapur,"Gulzarpet, Anantapur - APPCB",29-05-2024 04:00:00,14.675886,77.593027,NH3,4,4,4
India,Andhra_Pradesh,Anantapur,"Gulzarpet, Anantapur - APPCB",29-05-2024 04:00:00,14.675886,77.593027,SO2,3,5,4
India,Andhra_Pradesh,Chittoor,"Gangineni Cheruvu, Chittoor - APPCB",29-05-2024 04:00:00,13.204880,79.097889,PM2.5,NA,NA,NA
India,Andhra_Pradesh,Kadapa,"Yerramukkapalli, Kadapa - APPCB",29-05-2024 04:00:00,14.465052,78.824187,OZONE,13,48,26
India,Andhra_Pradesh,Rajamahendravaram,"Anand Kala Kshetram, Rajamahendravaram - APPCB",29-05-2024 04:00:00,16.9872867,81.7363176,PM2.5,41,166,63
India,Andhra_Pradesh,Tirupati,"Tirumala, Tirupati - APPCB",29-05-2024 04:00:00,13.67,79.35,PM2.5,28,52,40
India,Andhra_Pradesh,Tirupati,"Tirumala, Tirupati - APPCB",29-05-2024 04:00:00,13.67,79.35,PM10,50,88,71
India,Andhra_Pradesh,Tirupati,"Tirumala, Tirupati - APPCB",29-05-2024 04:00:00,13.67,79.35,SO2,1,7,4
India,Andhra_Pradesh,Tirupati,"Tirumala, Tirupati - APPCB",29-05-2024 04:00:00,13.67,79.35,CO,34,50,38
India,Andhra_Pradesh,Tirupati,"Vaikuntapuram, Tirupati - APPCB",29-05-2024 04:00:00,13.615387,79.409230,PM2.5,9,69,35
India,Andhra_Pradesh,Vijayawada,"HB Colony, Vijayawada - APPCB",29-05-2024 04:00:00,16.536107,80.594233,NO2,17,32,21
India,Andhra_Pradesh,Vijayawada,"HB Colony, Vijayawada - APPCB",29-05-2024 04:00:00,16.536107,80.594233,OZONE,7,36,15
India,Andhra_Pradesh,Vijayawada,"Kanuru, Vijayawada - APPCB",29-05-2024 04:00:00,16.486692,80.699436,PM10,NA,NA,NA
India,Andhra_Pradesh,Vijayawada,"Kanuru, Vijayawada - APPCB",29-05-2024 04:00:00,16.486692,80.699436,SO2,NA,NA,NA
India,Andhra_Pradesh,Vijayawada,"Kanuru, Vijayawada - APPCB",29-05-2024 04:00:00,16.486692,80.699436,OZONE,33,40,40
India,Andhra_Pradesh,Vijayawada,"Rajiv Gandhi Park, Vijayawada - APPCB",29-05-2024 04:00:00,16.509717,80.612222,NO2,29,44,34
India,Andhra_Pradesh,Vijayawada,"Rajiv Gandhi Park, Vijayawada - APPCB",29-05-2024 04:00:00,16.509717,80.612222,CO,36,39,39
India,Andhra_Pradesh,Vijayawada,"Rajiv Nagar, Vijayawada - APPCB",29-05-2024 04:00:00,16.554731,80.649110,NO2,10,13,11
India,Andhra_Pradesh,Vijayawada,"Rajiv Nagar, Vijayawada - APPCB",29-05-2024 04:00:00,16.554731,80.649110,CO,34,38,38
India,Arunachal_Pradesh,Naharlagun,"Naharlagun, Naharlagun - APSPCB",29-05-2024 04:00:00,27.103358,93.679645,PM2.5,NA,NA,NA
India,Arunachal_Pradesh,Naharlagun,"Naharlagun, Naharlagun - APSPCB",29-05-2024 04:00:00,27.103358,93.679645,NO2,NA,NA,NA
India,Arunachal_Pradesh,Naharlagun,"Naharlagun, Naharlagun - APSPCB",29-05-2024 04:00:00,27.103358,93.679645,SO2,NA,NA,NA
India,Assam,Byrnihat,"Central Academy for SFS, Byrnihat - PCBA",29-05-2024 04:00:00,26.071318,91.87488,NO2,NA,NA,NA
India,Assam,Guwahati,"IITG, Guwahati - PCBA",29-05-2024 04:00:00,26.2028636,91.70046436,PM10,2,27,12
India,Assam,Guwahati,"IITG, Guwahati - PCBA",29-05-2024 04:00:00,26.2028636,91.70046436,CO,4,10,8
India,Assam,Guwahati,"IITG, Guwahati - PCBA",29-05-2024 04:00:00,26.2028636,91.70046436,OZONE,5,39,8
India,Assam,Guwahati,"LGBI Airport, Guwahati - PCBA",29-05-2024 04:00:00,26.10887,91.589544,PM2.5,NA,NA,NA
India,Assam,Guwahati,"LGBI Airport, Guwahati - PCBA",29-05-2024 04:00:00,26.10887,91.589544,PM10,NA,NA,NA
India,Assam,Guwahati,"LGBI Airport, Guwahati - PCBA",29-05-2024 04:00:00,26.10887,91.589544,NH3,1,5,2
India,Assam,Guwahati,"LGBI Airport, Guwahati - PCBA",29-05-2024 04:00:00,26.10887,91.589544,OZONE,23,35,34
India,Assam,Nagaon,"Christianpatty, Nagaon - PCBA",29-05-2024 04:00:00,26.349082,92.68449,PM2.5,NA,NA,NA
India,Assam,Nagaon,"Christianpatty, Nagaon - PCBA",29-05-2024 04:00:00,26.349082,92.68449,NO2,NA,NA,NA
India,Assam,Nalbari,"Bata Chowk, Nalbari - PCBA",29-05-2024 04:00:00,26.446912,91.439057,PM10,NA,NA,NA
India,Assam,Silchar,"Tarapur, Silchar - PCBA",29-05-2024 04:00:00,24.82827,92.79525,PM2.5,27,30,28
India,Assam,Silchar,"Tarapur, Silchar - PCBA",29-05-2024 04:00:00,24.82827,92.79525,NO2,14,14,14
India,Assam,Sivasagar,"Girls College, Sivasagar - PCBA",29-05-2024 04:00:00,26.987634,94.636574,SO2,4,30,10
India,Bihar,Araria,"Kharahiya Basti, Araria - BSPCB",29-05-2024 04:00:00,26.146529,87.454184,PM10,NA,NA,NA
India,Bihar,Araria,"Kharahiya Basti, Araria - BSPCB",29-05-2024 04:00:00,26.146529,87.454184,NH3,6,8,7
India,Bihar,Aurangabad,"Gurdeo Nagar, Aurangabad - BSPCB",29-05-2024 04:00:00,24.75746,84.366208,SO2,NA,NA,NA
India,Bihar,Aurangabad,"Gurdeo Nagar, Aurangabad - BSPCB",29-05-2024 04:00:00,24.75746,84.366208,CO,NA,NA,NA
India,Bihar,Bettiah,"Kamalnath Nagar, Bettiah - BSPCB",29-05-2024 04:00:00,26.80365,84.51954,NO2,26,29,28
India,Bihar,Bhagalpur,"DM Office_Kachari Chowk, Bhagalpur - BSPCB",29-05-2024 04:00:00,25.251013,86.989001,SO2,14,63,37
India,Bihar,Bhagalpur,"DM Office_Kachari Chowk, Bhagalpur - BSPCB",29-05-2024 04:00:00,25.251013,86.989001,CO,1,75,54
India,Bihar,Bihar Sharif,"D M Colony, Bihar Sharif - BSPCB",29-05-2024 04:00:00,25.204762,85.514960,NH3,4,5,4
India,Bihar,Bihar Sharif,"D M Colony, Bihar Sharif - BSPCB",29-05-2024 04:00:00,25.204762,85.514960,OZONE,2,30,21
India,Bihar,Buxar,"Charitra Van, Buxar - BSPCB (Formerly known as Central Jail)",29-05-2024 04:00:00,25.567520,83.966379,CO,17,104,59
India,Bihar,Gaya,"Collectorate, Gaya - BSPCB",29-05-2024 04:00:00,24.7955,84.9994,NO2,3,5,4
India,Bihar,Gaya,"Kareemganj, Gaya - BSPCB",29-05-2024 04:00:00,24.792403,84.992416,PM10,8,123,62
India,Bihar,Gaya,"Kareemganj, Gaya - BSPCB",29-05-2024 04:00:00,24.792403,84.992416,NH3,1,10,5
India,Bihar,Gaya,"Kareemganj, Gaya - BSPCB",29-05-2024 04:00:00,24.792403,84.992416,SO2,9,10,10
India,Bihar,Gaya,"SFTI Kusdihra, Gaya - BSPCB",29-05-2024 04:00:00,24.762518,84.982348,NO2,14,30,21
India,Bihar,Gaya,"SFTI Kusdihra, Gaya - BSPCB",29-05-2024 04:00:00,24.762518,84.982348,CO,10,36,27
India,Bihar,Gaya,"SFTI Kusdihra, Gaya - BSPCB",29-05-2024 04:00:00,24.762518,84.982348,OZONE,15,78,35
India,Bihar,Hajipur,"Industrial Area, Hajipur - BSPCB",29-05-2024 04:00:00,25.697189,85.245900,NH3,7,17,14
India,Bihar,Katihar,"Mirchaibari, Katihar - BSPCB",29-05-2024 04:00:00,25.560083,87.553265,PM2.5,5,73,22
India,Bihar,Katihar,"Mirchaibari, Katihar - BSPCB",29-05-2024 04:00:00,25.560083,87.553265,NO2,NA,NA,NA
India,Bihar,Katihar,"Mirchaibari, Katihar - BSPCB",29-05-2024 04:00:00,25.560083,87.553265,OZONE,3,19,4
India,Bihar,Kishanganj,"SDM Office_Khagra, Kishanganj - BSPCB",29-05-2024 04:00:00,26.0881305,87.93840336,PM2.5,NA,NA,NA
India,Bihar,Kishanganj,"SDM Office_Khagra, Kishanganj - BSPCB",29-05-2024 04:00:00,26.0881305,87.93840336,CO,4,12,12
India,Bihar,Manguraha,"Forest Rest House, Manguraha - BSPCB",29-05-2024 04:00:00,27.308328,84.531742,PM2.5,NA,NA,NA
India,Bihar,Manguraha,"Forest Rest House, Manguraha - BSPCB",29-05-2024 04:00:00,27.308328,84.531742,NH3,NA,NA,NA
India,Bihar,Manguraha,"Forest Rest House, Manguraha - BSPCB",29-05-2024 04:00:00,27.308328,84.531742,SO2,NA,NA,NA
India,Bihar,Munger,"Town Hall, Munger - BSPCB",29-05-2024 04:00:00,25.376776,86.471523,PM10,22,187,65
India,Bihar,Muzaffarpur,"MIT-Daudpur Kothi, Muzaffarpur - BSPCB",29-05-2024 04:00:00,26.1403345,85.3650192,NO2,3,6,4
India,Bihar,Muzaffarpur,"MIT-Daudpur Kothi, Muzaffarpur - BSPCB",29-05-2024 04:00:00,26.1403345,85.3650192,OZONE,9,33,13
India,Bihar,Muzaffarpur,"Muzaffarpur Collectorate, Muzaffarpur - BSPCB",29-05-2024 04:00:00,26.1209,85.3647,NO2,30,45,34
India,Bihar,Patna,"Govt. High School Shikarpur, Patna - BSPCB",29-05-2024 04:00:00,25.592539,85.227158,CO,26,44,40
India,Bihar,Patna,"Rajbansi Nagar, Patna - BSPCB",29-05-2024 04:00:00,25.599486,85.113666,PM10,57,121,92
India,Bihar,Patna,"Rajbansi Nagar, Patna - BSPCB",29-05-2024 04:00:00,25.599486,85.113666,CO,10,60,40
India,Bihar,Patna,"Samanpura, Patna - BSPCB",29-05-2024 04:00:00,25.596727,85.085624,NO2,NA,NA,NA
India,Bihar,Purnia,"Mariam Nagar, Purnia - BSPCB",29-05-2024 04:00:00,25.366336,87.117468,CO,20,72,48
India,Bihar,Purnia,"Mariam Nagar, Purnia - BSPCB",29-05-2024 04:00:00,25.366336,87.117468,OZONE,3,24,17
India,Bihar,Rajgir,"Dangi Tola, Rajgir - BSPCB",29-05-2024 04:00:00,25.03280,85.41948,SO2,4,5,4
India,Bihar,Saharsa,"Police Line, Saharsa - BSPCB",29-05-2024 04:00:00,25.892357,86.590325,NH3,9,9,9
India,Bihar,Samastipur,"DM Office_Kasipur, Samastipur - BSPCB",29-05-2024 04:00:00,25.859655,85.77944,NH3,2,86,11
India,Bihar,Samastipur,"DM Office_Kasipur, Samastipur - BSPCB",29-05-2024 04:00:00,25.859655,85.77944,SO2,47,65,57
India,Bihar,Samastipur,"DM Office_Kasipur, Samastipur - BSPCB",29-05-2024 04:00:00,25.859655,85.77944,OZONE,1,10,2
India,Bihar,Siwan,"Chitragupta Nagar, Siwan - BSPCB",29-05-2024 04:00:00,26.2271665,84.3570427,PM2.5,25,65,42
India,Bihar,Siwan,"Chitragupta Nagar, Siwan - BSPCB",29-05-2024 04:00:00,26.2271665,84.3570427,NH3,1,3,2
India,Chandigarh,Chandigarh,"Sector 22, Chandigarh - CPCC",29-05-2024 04:00:00,30.735567,76.775714,PM10,51,169,120
India,Chandigarh,Chandigarh,"Sector 22, Chandigarh - CPCC",29-05-2024 04:00:00,30.735567,76.775714,NH3,8,32,14
India,Chandigarh,Chandigarh,"Sector-25, Chandigarh - CPCC",29-05-2024 04:00:00,30.751462,76.762879,SO2,7,22,12
India,Chandigarh,Chandigarh,"Sector-53, Chandigarh - CPCC",29-05-2024 04:00:00,30.719859,76.738637,NH3,5,9,7
India,Chandigarh,Chandigarh,"Sector-53, Chandigarh - CPCC",29-05-2024 04:00:00,30.719859,76.738637,SO2,9,43,19
India,Chhattisgarh,Bhilai,"32Bungalows, Bhilai - CECB",29-05-2024 04:00:00,21.194815,81.314770,CO,14,24,20
India,Chhattisgarh,Bhilai,"Civic Center, Bhilai - Bhilai Steel Plant",29-05-2024 04:00:00,21.185571,81.343175,NH3,NA,NA,NA
India,Chhattisgarh,Bhilai,"Civic Center, Bhilai - Bhilai Steel Plant",29-05-2024 04:00:00,21.185571,81.343175,OZONE,36,74,43
India,Chhattisgarh,Bhilai,"Hathkhoj, Bhilai - CECB",29-05-2024 04:00:00,21.224231,81.408350,NO2,5,14,9
India,Chhattisgarh,Bhilai,"Hathkhoj, Bhilai - CECB",29-05-2024 04:00:00,21.224231,81.408350,CO,14,28,18
India,Chhattisgarh,Bhilai,"Hathkhoj, Bhilai - CECB",29-05-2024 04:00:00,21.224231,81.408350,OZONE,36,56,38
India,Chhattisgarh,Bilaspur,"Mangala, Bilaspur - NTPC",29-05-2024 04:00:00,22.08815,82.13737,NO2,15,20,17
India,Chhattisgarh,Korba,"Rampur, Korba - CECB",29-05-2024 04:00:00,22.368195,82.746431,PM2.5,47,76,66
India,Chhattisgarh,Korba,"Rampur, Korba - CECB",29-05-2024 04:00:00,22.368195,82.746431,NO2,17,39,30
India,Chhattisgarh,Kunjemura,"OP Jindal School, Kunjemura - CECB",29-05-2024 04:00:00,22.126650,83.483212,PM10,61,207,119
India,Chhattisgarh,Kunjemura,"OP Jindal School, Kunjemura - CECB",29-05-2024 04:00:00,22.126650,83.483212,OZONE,5,57,19
India,Chhattisgarh,Raipur,"AIIMS, Raipur - CECB",29-05-2024 04:00:00,21.258815,81.578979,PM2.5,36,60,50
India,Chhattisgarh,Raipur,"AIIMS, Raipur - CECB",29-05-2024 04:00:00,21.258815,81.578979,CO,20,32,23
India,Chhattisgarh,Raipur,"Bhatagaon New ISBT, Raipur - CECB",29-05-2024 04:00:00,21.219665,81.630094,SO2,1,4,2
India,Chhattisgarh,Raipur,"Bhatagaon New ISBT, Raipur - CECB",29-05-2024 04:00:00,21.219665,81.630094,OZONE,4,16,5
India,Chhattisgarh,Raipur,"Krishak Nagar, Raipur - CECB",29-05-2024 04:00:00,21.237755,81.705301,PM2.5,21,37,30
India,Chhattisgarh,Raipur,"Krishak Nagar, Raipur - CECB",29-05-2024 04:00:00,21.237755,81.705301,PM10,40,82,56
India,Chhattisgarh,Raipur,"Krishak Nagar, Raipur - CECB",29-05-2024 04:00:00,21.237755,81.705301,SO2,12,23,16
India,Chhattisgarh,Raipur,"Krishak Nagar, Raipur - CECB",29-05-2024 04:00:00,21.237755,81.705301,CO,14,36,16
India,Chhattisgarh,Raipur,"Siltara Phase-II, Raipur - CECB",29-05-2024 04:00:00,21.371751,81.664929,CO,18,51,38
India,Chhattisgarh,Tumidih,"OP Jindal Industrial Park, Tumidih - CECB",29-05-2024 04:00:00,22.06631475,83.33820077,NH3,1,1,1
India,Chhattisgarh,Tumidih,"OP Jindal Industrial Park, Tumidih - CECB",29-05-2024 04:00:00,22.06631475,83.33820077,CO,20,86,49
India,Chhattisgarh,Tumidih,"OP Jindal Industrial Park, Tumidih - CECB",29-05-2024 04:00:00,22.06631475,83.33820077,OZONE,11,92,33
India,Delhi,Delhi,"Alipur, Delhi - DPCC",29-05-2024 04:00:00,28.815329,77.153010,PM2.5,15,349,200
India,Delhi,Delhi,"Anand Vihar, Delhi - DPCC",29-05-2024 04:00:00,28.647622,77.3158090,CO,69,143,121
India,Delhi,Delhi,"Anand Vihar, Delhi - DPCC",29-05-2024 04:00:00,28.647622,77.3158090,OZONE,3,229,11
India,Delhi,Delhi,"Ashok Vihar, Delhi - DPCC",29-05-2024 04:00:00,28.695381,77.181665,NH3,2,19,11
India,Delhi,Delhi,"Aya Nagar, Delhi - IMD",29-05-2024 04:00:00,28.4706914,77.1099364,OZONE,11,80,27
India,Delhi,Delhi,"Burari Crossing, Delhi - IMD",29-05-2024 04:00:00,28.7256504,77.2011573,PM10,114,425,220
India,Delhi,Delhi,"Chandni Chowk, Delhi - IITM",29-05-2024 04:00:00,28.656756,77.227234,PM2.5,310,378,339
India,Delhi,Delhi,"Chandni Chowk, Delhi - IITM",29-05-2024 04:00:00,28.656756,77.227234,PM10,149,222,192
India,Delhi,Delhi,"Chandni Chowk, Delhi - IITM",29-05-2024 04:00:00,28.656756,77.227234,OZONE,7,13,11
India,Delhi,Delhi,"DTU, Delhi - CPCB",29-05-2024 04:00:00,28.7500499,77.1112615,PM10,100,378,217
India,Delhi,Delhi,"DTU, Delhi - CPCB",29-05-2024 04:00:00,28.7500499,77.1112615,OZONE,28,138,31
India,Delhi,Delhi,"IGI Airport (T3), Delhi - IMD",29-05-2024 04:00:00,28.5627763,77.1180053,PM2.5,20,285,125
India,Delhi,Delhi,"IGI Airport (T3), Delhi - IMD",29-05-2024 04:00:00,28.5627763,77.1180053,PM10,62,201,141
India,Delhi,Delhi,"IHBAS, Dilshad Garden, Delhi - CPCB",29-05-2024 04:00:00,28.6811736,77.3025234,PM10,132,500,186
India,Delhi,Delhi,"ITO, Delhi - CPCB",29-05-2024 04:00:00,28.628624,77.241060,PM2.5,127,350,259
India,Delhi,Delhi,"Jahangirpuri, Delhi - DPCC",29-05-2024 04:00:00,28.732820,77.170633,PM2.5,45,424,211
India,Delhi,Delhi,"Jahangirpuri, Delhi - DPCC",29-05-2024 04:00:00,28.732820,77.170633,SO2,34,112,77
India,Delhi,Delhi,"Jawaharlal Nehru Stadium, Delhi - DPCC",29-05-2024 04:00:00,28.580280,77.233829,OZONE,3,262,24
India,Delhi,Delhi,"Lodhi Road, Delhi - IITM",29-05-2024 04:00:00,28.588333,77.221667,PM2.5,60,221,119
India,Delhi,Delhi,"Lodhi Road, Delhi - IITM",29-05-2024 04:00:00,28.588333,77.221667,PM10,48,142,85
India,Delhi,Delhi,"Major Dhyan Chand National Stadium, Delhi - DPCC",29-05-2024 04:00:00,28.611281,77.237738,PM2.5,67,331,232
India,Delhi,Delhi,"Major Dhyan Chand National Stadium, Delhi - DPCC",29-05-2024 04:00:00,28.611281,77.237738,NH3,7,12,8
India,Delhi,Delhi,"Major Dhyan Chand National Stadium, Delhi - DPCC",29-05-2024 04:00:00,28.611281,77.237738,CO,43,145,119
India,Delhi,Delhi,"Mandir Marg, Delhi - DPCC",29-05-2024 04:00:00,28.636429,77.201067,PM2.5,30,313,122
India,Delhi,Delhi,"Mandir Marg, Delhi - DPCC",29-05-2024 04:00:00,28.636429,77.201067,OZONE,8,196,15
India,Delhi,Delhi,"NSIT Dwarka, Delhi - CPCB",29-05-2024 04:00:00,28.60909,77.0325413,PM10,140,294,198
India,Delhi,Delhi,"Narela, Delhi - DPCC",29-05-2024 04:00:00,28.822836,77.101981,SO2,8,115,45
India,Delhi,Delhi,"Narela, Delhi - DPCC",29-05-2024 04:00:00,28.822836,77.101981,OZONE,9,253,29
India,Delhi,Delhi,"North Campus, DU, Delhi - IMD",29-05-2024 04:00:00,28.6573814,77.1585447,NO2,8,40,22
India,Delhi,Delhi,"Okhla Phase-2, Delhi - DPCC",29-05-2024 04:00:00,28.530785,77.271255,PM10,102,416,217
India,Delhi,Delhi,"Okhla Phase-2, Delhi - DPCC",29-05-2024 04:00:00,28.530785,77.271255,SO2,9,14,11
India,Delhi,Delhi,"Okhla Phase-2, Delhi - DPCC",29-05-2024 04:00:00,28.530785,77.271255,CO,56,121,95
India,Delhi,Delhi,"Patparganj, Delhi - DPCC",29-05-2024 04:00:00,28.623763,77.287209,PM2.5,55,293,162
India,Delhi,Delhi,"Patparganj, Delhi - DPCC",29-05-2024 04:00:00,28.623763,77.287209,SO2,2,8,6
India,Delhi,Delhi,"Punjabi Bagh, Delhi - DPCC",29-05-2024 04:00:00,28.674045,77.131023,PM2.5,5,319,173
India,Delhi,Delhi,"Punjabi Bagh, Delhi - DPCC",29-05-2024 04:00:00,28.674045,77.131023,NO2,17,178,82
India,Delhi,Delhi,"Pusa, Delhi - DPCC",29-05-2024 04:00:00,28.639652,77.146275,CO,9,103,59
India,Delhi,Delhi,"R K Puram, Delhi - DPCC",29-05-2024 04:00:00,28.563262,77.186937,CO,8,135,96
India,Delhi,Delhi,"Rohini, Delhi - DPCC",29-05-2024 04:00:00,28.732528,77.119920,PM2.5,33,335,203
India,Delhi,Delhi,"Rohini, Delhi - DPCC",29-05-2024 04:00:00,28.732528,77.119920,NH3,5,11,8
India,Delhi,Delhi,"Shadipur, Delhi - CPCB",29-05-2024 04:00:00,28.6514781,77.1473105,NO2,75,224,157
India,Delhi,Delhi,"Shadipur, Delhi - CPCB",29-05-2024 04:00:00,28.6514781,77.1473105,OZONE,10,215,14
India,Delhi,Delhi,"Sirifort, Delhi - CPCB",29-05-2024 04:00:00,28.5504249,77.2159377,PM2.5,46,312,177
India,Delhi,Delhi,"Sirifort, Delhi - CPCB",29-05-2024 04:00:00,28.5504249,77.2159377,SO2,43,51,47
India,Delhi,Delhi,"Sri Aurobindo Marg, Delhi - DPCC",29-05-2024 04:00:00,28.531346,77.190156,SO2,6,32,19
India,Delhi,Delhi,"Sri Aurobindo Marg, Delhi - DPCC",29-05-2024 04:00:00,28.531346,77.190156,CO,28,110,87
India,Delhi,Delhi,"Wazirpur, Delhi - DPCC",29-05-2024 04:00:00,28.699793,77.165453,PM2.5,42,408,227
India,Delhi,Delhi,"Wazirpur, Delhi - DPCC",29-05-2024 04:00:00,28.699793,77.165453,PM10,104,425,253
India,Delhi,Delhi,"Wazirpur, Delhi - DPCC",29-05-2024 04:00:00,28.699793,77.165453,NO2,34,111,65
India,Gujarat,Ahmedabad,"Chandkheda, Ahmedabad - IITM",29-05-2024 04:00:00,23.107969,72.574648,NH3,8,9,9
India,Gujarat,Ahmedabad,"Chandkheda, Ahmedabad - IITM",29-05-2024 04:00:00,23.107969,72.574648,OZONE,11,220,26
India,Gujarat,Ahmedabad,"Raikhad, Ahmedabad - IITM",29-05-2024 04:00:00,23.020509,72.579261,PM10,NA,NA,NA
India,Gujarat,Ahmedabad,"Raikhad, Ahmedabad - IITM",29-05-2024 04:00:00,23.020509,72.579261,CO,6,28,16
India,Gujarat,Ahmedabad,"SVPI Airport Hansol, Ahmedabad - IITM",29-05-2024 04:00:00,23.076793,72.627874,NO2,28,42,36
India,Gujarat,Ahmedabad,"Sardar Vallabhbhai Patel Stadium, Ahmedabad - IITM",29-05-2024 04:00:00,23.043070,72.562968,PM2.5,72,273,134
India,Gujarat,Ankleshwar,"GIDC, Ankleshwar - GPCB",29-05-2024 04:00:00,21.613267,73.010555,CO,6,88,64
India,Gujarat,Gandhinagar,"Sector-10, Gandhinagar - GPCB",29-05-2024 04:00:00,23.221714,72.654328,PM2.5,40,88,65
India,Gujarat,Gandhinagar,"Sector-10, Gandhinagar - GPCB",29-05-2024 04:00:00,23.221714,72.654328,SO2,3,4,4
India,Gujarat,Gandhinagar,"Sector-10, Gandhinagar - GPCB",29-05-2024 04:00:00,23.221714,72.654328,CO,12,22,19
India,Gujarat,Surat,"Science Center, Surat - SMC",29-05-2024 04:00:00,21.170046,72.795405,SO2,11,13,12
India,Haryana,Bahadurgarh,"Arya Nagar, Bahadurgarh - HSPCB",29-05-2024 04:00:00,28.6701,76.9254,NO2,20,29,23
India,Haryana,Ballabgarh,"Nathu Colony, Ballabgarh - HSPCB",29-05-2024 04:00:00,28.3419248,77.319699,PM10,99,294,181
India,Haryana,Bhiwani,"H.B. Colony, Bhiwani - HSPCB",29-05-2024 04:00:00,28.806223,76.141105,NO2,2,15,8
India,Haryana,Bhiwani,"H.B. Colony, Bhiwani - HSPCB",29-05-2024 04:00:00,28.806223,76.141105,NH3,2,6,6
India,Haryana,Bhiwani,"H.B. Colony, Bhiwani - HSPCB",29-05-2024 04:00:00,28.806223,76.141105,SO2,1,16,6
India,Haryana,Charkhi Dadri,"Mini Secretariat, Charkhi Dadri - HSPCB",29-05-2024 04:00:00,28.593883,76.270653,PM2.5,46,164,87
India,Haryana,Dharuhera,"Municipal Corporation Office, Dharuhera -  HSPCB",29-05-2024 04:00:00,28.206800,76.799700,NO2,44,111,74
India,Haryana,Dharuhera,"Municipal Corporation Office, Dharuhera -  HSPCB",29-05-2024 04:00:00,28.206800,76.799700,OZONE,11,67,28
India,Haryana,Faridabad,"New Industrial Town, Faridabad - HSPCB",29-05-2024 04:00:00,28.39072,77.30059,CO,4,110,59
India,Haryana,Faridabad,"Sector 11, Faridabad - HSPCB",29-05-2024 04:00:00,28.376058,77.315741,PM2.5,120,428,281
India,Haryana,Faridabad,"Sector 11, Faridabad - HSPCB",29-05-2024 04:00:00,28.376058,77.315741,OZONE,6,47,8
India,Haryana,Faridabad,"Sector 30, Faridabad - HSPCB",29-05-2024 04:00:00,28.4417,77.3217,SO2,NA,NA,NA
India,Haryana,Faridabad,"Sector- 16A, Faridabad - HSPCB",29-05-2024 04:00:00,28.4088421,77.3099081,NO2,1,24,11
India,Haryana,Fatehabad,"Huda Sector, Fatehabad - HSPCB",29-05-2024 04:00:00,29.503664,75.467934,PM10,57,143,105
India,Haryana,Fatehabad,"Huda Sector, Fatehabad - HSPCB",29-05-2024 04:00:00,29.503664,75.467934,NH3,10,10,10
India,Haryana,Gurugram,"NISE Gwal Pahari, Gurugram - IMD",29-05-2024 04:00:00,28.422681,77.148944,CO,106,116,114
India,Haryana,Gurugram,"Sector-51, Gurugram - HSPCB",29-05-2024 04:00:00,28.4227,77.0667,PM10,107,451,191
India,Haryana,Gurugram,"Sector-51, Gurugram - HSPCB",29-05-2024 04:00:00,28.4227,77.0667,SO2,3,5,4
India,Haryana,Gurugram,"Sector-51, Gurugram - HSPCB",29-05-2024 04:00:00,28.4227,77.0667,OZONE,29,115,32
India,Haryana,Gurugram,"Teri Gram, Gurugram - HSPCB",29-05-2024 04:00:00,28.4275,77.1465,PM2.5,88,221,154
India,Haryana,Hisar,"Urban Estate-II, Hisar - HSPCB",29-05-2024 04:00:00,29.140560,75.744941,PM2.5,59,295,114
India,Haryana,Hisar,"Urban Estate-II, Hisar - HSPCB",29-05-2024 04:00:00,29.140560,75.744941,CO,20,109,69
India,Haryana,Jind,"Police Lines, Jind - HSPCB",29-05-2024 04:00:00,29.307814,76.337619,PM2.5,49,97,74
India,Haryana,Kaithal,"Rishi Nagar, Kaithal - HSPCB",29-05-2024 04:00:00,29.8006,76.4155,NH3,8,8,8
India,Haryana,Kaithal,"Rishi Nagar, Kaithal - HSPCB",29-05-2024 04:00:00,29.8006,76.4155,SO2,16,119,53
India,Haryana,Kurukshetra,"Sector-7, Kurukshetra - HSPCB",29-05-2024 04:00:00,29.966942,76.875879,PM2.5,70,313,172
India,Haryana,Kurukshetra,"Sector-7, Kurukshetra - HSPCB",29-05-2024 04:00:00,29.966942,76.875879,SO2,2,3,3
India,Haryana,Manesar,"Sector-2 IMT, Manesar - HSPCB",29-05-2024 04:00:00,28.360699,76.936090,PM10,33,125,85
India,Haryana,Manesar,"Sector-2 IMT, Manesar - HSPCB",29-05-2024 04:00:00,28.360699,76.936090,CO,14,57,37
India,Haryana,Narnaul,"Shastri Nagar, Narnaul - HSPCB",29-05-2024 04:00:00,28.060249,76.113115,NO2,15,84,47
India,Haryana,Palwal,"Shyam Nagar, Palwal - HSPCB",29-05-2024 04:00:00,28.1485564,77.3320667,SO2,3,131,15
India,Haryana,Panchkula,"Sector-6, Panchkula - HSPCB ",29-05-2024 04:00:00,30.7057778,76.8531805555555,NO2,10,11,10
India,Haryana,Rohtak,"MD University, Rohtak - HSPCB",29-05-2024 04:00:00,28.52123,76.37138,PM2.5,11,387,173
India,Haryana,Rohtak,"MD University, Rohtak - HSPCB",29-05-2024 04:00:00,28.52123,76.37138,CO,14,122,63
India,Haryana,Sirsa,"F-Block, Sirsa - HSPCB",29-05-2024 04:00:00,29.536400,75.015800,CO,56,86,64
India,Haryana,Sonipat,"Murthal, Sonipat - HSPCB",29-05-2024 04:00:00,29.027200,77.062100,NO2,37,44,40
India,Haryana,Yamuna Nagar,"Gobind Pura, Yamuna Nagar - HSPCB",29-05-2024 04:00:00,30.1480566,77.2893471,OZONE,27,73,36
India,Himachal Pradesh,Baddi,"HIMUDA Complex Phase-1, Baddi - HPPCB",29-05-2024 04:00:00,30.943887,76.801991,PM2.5,27,351,129
India,Himachal Pradesh,Baddi,"HIMUDA Complex Phase-1, Baddi - HPPCB",29-05-2024 04:00:00,30.943887,76.801991,NO2,10,107,29
India,Himachal Pradesh,Baddi,"HIMUDA Complex Phase-1, Baddi - HPPCB",29-05-2024 04:00:00,30.943887,76.801991,NH3,1,4,3
India,Jharkhand,Dhanbad,"Sardar Patel Nagar, Dhanbad - JSPCB",29-05-2024 04:00:00,23.80569,86.44268,OZONE,17,56,28
India,Karnataka,Belgaum,"Ramteerth Nagar, Belgaum - KSPCB",29-05-2024 04:00:00,15.888653,74.541751,PM2.5,11,44,18
India,Karnataka,Belgaum,"Ramteerth Nagar, Belgaum - KSPCB",29-05-2024 04:00:00,15.888653,74.541751,SO2,9,9,9
India,Karnataka,Belgaum,"Ramteerth Nagar, Belgaum - KSPCB",29-05-2024 04:00:00,15.888653,74.541751,OZONE,12,20,18
India,Karnataka,Bengaluru,"Bapuji Nagar, Bengaluru - KSPCB",29-05-2024 04:00:00,12.951913,77.539784,NO2,14,16,15
India,Karnataka,Bengaluru,"Bapuji Nagar, Bengaluru - KSPCB",29-05-2024 04:00:00,12.951913,77.539784,CO,18,52,36
India,Karnataka,Bengaluru,"Hebbal, Bengaluru - KSPCB",29-05-2024 04:00:00,13.029152,77.585901,NO2,5,5,5
India,Karnataka,Bengaluru,"Hebbal, Bengaluru - KSPCB",29-05-2024 04:00:00,13.029152,77.585901,OZONE,8,88,8
India,Karnataka,Bengaluru,"Hombegowda Nagar, Bengaluru - KSPCB",29-05-2024 04:00:00,12.938539,77.590100,OZONE,16,37,23
India,Karnataka,Bengaluru,"Jayanagar 5th Block, Bengaluru - KSPCB",29-05-2024 04:00:00,12.920984,77.584908,CO,20,23,21
India,Karnataka,Bengaluru,"Jayanagar 5th Block, Bengaluru - KSPCB",29-05-2024 04:00:00,12.920984,77.584908,OZONE,18,28,27
India,Karnataka,Bengaluru,"Kasturi Nagar, Bengaluru - KSPCB",29-05-2024 04:00:00,13.003872,77.664217,SO2,10,10,10
India,Karnataka,Bengaluru,"Kasturi Nagar, Bengaluru - KSPCB",29-05-2024 04:00:00,13.003872,77.664217,OZONE,16,46,21
India,Karnataka,Bengaluru,"RVCE-Mailasandra, Bengaluru - KSPCB",29-05-2024 04:00:00,12.921418,77.502466,SO2,8,10,8
India,Karnataka,Bengaluru,"Shivapura_Peenya, Bengaluru - KSPCB",29-05-2024 04:00:00,13.0246342,77.5080115,PM10,45,122,85
India,Karnataka,Bengaluru,"Shivapura_Peenya, Bengaluru - KSPCB",29-05-2024 04:00:00,13.0246342,77.5080115,NO2,15,16,16
India,Karnataka,Bengaluru,"Silk Board, Bengaluru - KSPCB",29-05-2024 04:00:00,12.917348,77.622813,PM10,55,155,124
India,Karnataka,Bidar,"Naubad, Bidar - KSPCB",29-05-2024 04:00:00,17.930306,77.482194,SO2,17,21,18
India,Karnataka,Chikkaballapur,"Chikkaballapur Rural, Chikkaballapur - KSPCB",29-05-2024 04:00:00,13.428828,77.731418,PM2.5,21,47,35
India,Karnataka,Chikkaballapur,"Chikkaballapur Rural, Chikkaballapur - KSPCB",29-05-2024 04:00:00,13.428828,77.731418,CO,12,20,13
India,Karnataka,Dharwad,"Kalabhavan, Dharwad - KSPCB",29-05-2024 04:00:00,15.459706,75.008381,NO2,1,11,8
India,Karnataka,Dharwad,"Kalabhavan, Dharwad - KSPCB",29-05-2024 04:00:00,15.459706,75.008381,NH3,3,3,3
India,Karnataka,Dharwad,"Kalabhavan, Dharwad - KSPCB",29-05-2024 04:00:00,15.459706,75.008381,CO,18,87,46
India,Karnataka,Hassan,"B.Katihalli, Hassan - KSPCB",29-05-2024 04:00:00,13.008556,76.125258,PM2.5,23,70,40
India,Karnataka,Hassan,"B.Katihalli, Hassan - KSPCB",29-05-2024 04:00:00,13.008556,76.125258,CO,2,6,4
India,Karnataka,Hassan,"B.Katihalli, Hassan - KSPCB",29-05-2024 04:00:00,13.008556,76.125258,OZONE,1,3,2
India,Karnataka,Haveri,"Ashwini Nagar, Haveri - KSPCB",29-05-2024 04:00:00,14.791800,75.389600,PM2.5,23,42,31
India,Karnataka,Hubballi,"Lingaraj Nagar, Hubballi - KSPCB",29-05-2024 04:00:00,15.3714823,75.1160168,NO2,11,21,15
India,Karnataka,Hubballi,"Lingaraj Nagar, Hubballi - KSPCB",29-05-2024 04:00:00,15.3714823,75.1160168,NH3,2,5,3
India,Karnataka,Kalaburagi,"Lal Bahadur Shastri Nagar, Kalaburagi - KSPCB",29-05-2024 04:00:00,17.321993,76.822628,CO,44,50,44
India,Karnataka,Kalaburagi,"Lal Bahadur Shastri Nagar, Kalaburagi - KSPCB",29-05-2024 04:00:00,17.321993,76.822628,OZONE,NA,NA,NA
India,Karnataka,Kalaburagi,"Mahatma Basaveswar Colony, Kalaburgi - KSPCB",29-05-2024 04:00:00,17.336318,76.847397,PM10,18,48,34
