country,state,city,station,last_update,latitude,longitude,pollutant_id,pollutant_min,pollutant_max,pollutant_avg
India,Andhra_Pradesh,Amaravati,"Secretariat, Amaravati - APPCB",27-07-2024 12:00:00,16.5150833,80.5181667,PM2.5,2,19,10
India,Andhra_Pradesh,Amaravati,"Secretariat, Amaravati - APPCB",27-07-2024 12:00:00,16.5150833,80.5181667,PM10,18,39,28
India,Andhra_Pradesh,Amaravati,"Secretariat, Amaravati - APPCB",27-07-2024 12:00:00,16.5150833,80.5181667,SO2,18,22,19
India,Andhra_Pradesh,Anantapur,"Gulzarpet, Anantapur - APPCB",27-07-2024 12:00:00,14.675886,77.593027,NO2,17,19,18
India,Andhra_Pradesh,Anantapur,"Gulzarpet, Anantapur - APPCB",27-07-2024 12:00:00,14.675886,77.593027,CO,16,39,19
India,Andhra_Pradesh,Anantapur,"Gulzarpet, Anantapur - APPCB",27-07-2024 12:00:00,14.675886,77.593027,OZONE,1,9,2
India,Andhra_Pradesh,Chittoor,"Gangineni Cheruvu, Chittoor - APPCB",27-07-2024 12:00:00,13.204880,79.097889,NO2,8,9,8
India,Andhra_Pradesh,Chittoor,"Gangineni Cheruvu, Chittoor - APPCB",27-07-2024 12:00:00,13.204880,79.097889,SO2,5,6,6
India,Andhra_Pradesh,Chittoor,"Gangineni Cheruvu, Chittoor - APPCB",27-07-2024 12:00:00,13.204880,79.097889,CO,22,36,32
India,Andhra_Pradesh,Kadapa,"Yerramukkapalli, Kadapa - APPCB",27-07-2024 12:00:00,14.465052,78.824187,SO2,NA,NA,NA
India,Andhra_Pradesh,Rajamahendravaram,"Anand Kala Kshetram, Rajamahendravaram - APPCB",27-07-2024 12:00:00,16.9872867,81.7363176,PM10,14,49,27
India,Andhra_Pradesh,Tirupati,"Vaikuntapuram, Tirupati - APPCB",27-07-2024 12:00:00,13.615387,79.409230,PM10,45,94,69
India,Andhra_Pradesh,Tirupati,"Vaikuntapuram, Tirupati - APPCB",27-07-2024 12:00:00,13.615387,79.409230,NO2,14,18,16
India,Andhra_Pradesh,Tirupati,"Vaikuntapuram, Tirupati - APPCB",27-07-2024 12:00:00,13.615387,79.409230,CO,20,28,23
India,Andhra_Pradesh,Vijayawada,"HB Colony, Vijayawada - APPCB",27-07-2024 12:00:00,16.536107,80.594233,PM10,40,85,51
India,Andhra_Pradesh,Vijayawada,"HB Colony, Vijayawada - APPCB",27-07-2024 12:00:00,16.536107,80.594233,NO2,8,23,14
India,Andhra_Pradesh,Vijayawada,"HB Colony, Vijayawada - APPCB",27-07-2024 12:00:00,16.536107,80.594233,SO2,5,7,6
India,Andhra_Pradesh,Vijayawada,"Kanuru, Vijayawada - APPCB",27-07-2024 12:00:00,16.486692,80.699436,PM2.5,31,40,36
India,Andhra_Pradesh,Vijayawada,"Kanuru, Vijayawada - APPCB",27-07-2024 12:00:00,16.486692,80.699436,NH3,4,4,4
India,Andhra_Pradesh,Vijayawada,"Kanuru, Vijayawada - APPCB",27-07-2024 12:00:00,16.486692,80.699436,SO2,6,9,7
India,Andhra_Pradesh,Visakhapatnam,"GVM Corporation, Visakhapatnam - APPCB",27-07-2024 12:00:00,17.72,83.3,PM2.5,10,55,40
India,Andhra_Pradesh,Visakhapatnam,"GVM Corporation, Visakhapatnam - APPCB",27-07-2024 12:00:00,17.72,83.3,NH3,3,5,3
India,Assam,Guwahati,"IITG, Guwahati - PCBA",27-07-2024 12:00:00,26.2028636,91.70046436,SO2,14,16,15
India,Assam,Guwahati,"LGBI Airport, Guwahati - PCBA",27-07-2024 12:00:00,26.10887,91.589544,NH3,1,10,3
India,Assam,Guwahati,"LGBI Airport, Guwahati - PCBA",27-07-2024 12:00:00,26.10887,91.589544,CO,19,50,42
India,Assam,Guwahati,"Pan Bazaar, Guwahati - PCBA",27-07-2024 12:00:00,26.187500,91.744194,NO2,NA,NA,NA
India,Assam,Guwahati,"Pan Bazaar, Guwahati - PCBA",27-07-2024 12:00:00,26.187500,91.744194,CO,11,24,23
India,Assam,Guwahati,"Railway Colony, Guwahati - PCBA",27-07-2024 12:00:00,26.181742,91.78063,PM10,28,90,45
India,Assam,Guwahati,"Railway Colony, Guwahati - PCBA",27-07-2024 12:00:00,26.181742,91.78063,NO2,3,3,3
India,Assam,Guwahati,"Railway Colony, Guwahati - PCBA",27-07-2024 12:00:00,26.181742,91.78063,OZONE,3,11,5
India,Assam,Nagaon,"Christianpatty, Nagaon - PCBA",27-07-2024 12:00:00,26.349082,92.68449,SO2,7,12,10
India,Assam,Nagaon,"Christianpatty, Nagaon - PCBA",27-07-2024 12:00:00,26.349082,92.68449,CO,19,109,21
India,Assam,Nalbari,"Bata Chowk, Nalbari - PCBA",27-07-2024 12:00:00,26.446912,91.439057,NO2,7,16,11
India,Assam,Silchar,"Tarapur, Silchar - PCBA",27-07-2024 12:00:00,24.82827,92.79525,PM2.5,43,48,44
India,Assam,Silchar,"Tarapur, Silchar - PCBA",27-07-2024 12:00:00,24.82827,92.79525,NH3,1,1,1
India,Assam,Silchar,"Tarapur, Silchar - PCBA",27-07-2024 12:00:00,24.82827,92.79525,OZONE,1,6,1
India,Assam,Sivasagar,"Girls College, Sivasagar - PCBA",27-07-2024 12:00:00,26.987634,94.636574,PM2.5,28,45,34
India,Bihar,Araria,"Kharahiya Basti, Araria - BSPCB",27-07-2024 12:00:00,26.146529,87.454184,PM2.5,NA,NA,NA
India,Bihar,Araria,"Kharahiya Basti, Araria - BSPCB",27-07-2024 12:00:00,26.146529,87.454184,CO,28,40,35
India,Bihar,Arrah,"New DM Office, Arrah - BSPCB",27-07-2024 12:00:00,25.5626095,84.663264,PM2.5,NA,NA,NA
India,Bihar,Arrah,"New DM Office, Arrah - BSPCB",27-07-2024 12:00:00,25.5626095,84.663264,NO2,NA,NA,NA
India,Bihar,Arrah,"New DM Office, Arrah - BSPCB",27-07-2024 12:00:00,25.5626095,84.663264,CO,NA,NA,NA
India,Bihar,Aurangabad,"Gurdeo Nagar, Aurangabad - BSPCB",27-07-2024 12:00:00,24.75746,84.366208,SO2,8,16,13
India,Bihar,Aurangabad,"Gurdeo Nagar, Aurangabad - BSPCB",27-07-2024 12:00:00,24.75746,84.366208,CO,24,30,28
India,Bihar,Bettiah,"Kamalnath Nagar, Bettiah - BSPCB",27-07-2024 12:00:00,26.80365,84.51954,PM2.5,NA,NA,NA
India,Bihar,Bettiah,"Kamalnath Nagar, Bettiah - BSPCB",27-07-2024 12:00:00,26.80365,84.51954,OZONE,1,12,5
India,Bihar,Bhagalpur,"Mayaganj, Bhagalpur - BSPCB",27-07-2024 12:00:00,25.265194,87.012947,PM2.5,40,97,59
India,Bihar,Buxar,"Charitra Van, Buxar - BSPCB (Formerly known as Central Jail)",27-07-2024 12:00:00,25.567520,83.966379,PM10,9,157,72
India,Bihar,Buxar,"Charitra Van, Buxar - BSPCB (Formerly known as Central Jail)",27-07-2024 12:00:00,25.567520,83.966379,NO2,3,11,5
India,Bihar,Buxar,"Charitra Van, Buxar - BSPCB (Formerly known as Central Jail)",27-07-2024 12:00:00,25.567520,83.966379,CO,35,70,45
India,Bihar,Chhapra,"Darshan Nagar, Chhapra - BSPCB",27-07-2024 12:00:00,25.7808257,84.7446768,SO2,19,100,64
India,Bihar,Gaya,"Collectorate, Gaya - BSPCB",27-07-2024 12:00:00,24.7955,84.9994,NO2,4,6,5
India,Bihar,Gaya,"Collectorate, Gaya - BSPCB",27-07-2024 12:00:00,24.7955,84.9994,CO,32,101,40
India,Bihar,Gaya,"Kareemganj, Gaya - BSPCB",27-07-2024 12:00:00,24.792403,84.992416,OZONE,1,83,17
India,Bihar,Hajipur,"Industrial Area, Hajipur - BSPCB",27-07-2024 12:00:00,25.697189,85.245900,PM10,22,104,64
India,Bihar,Hajipur,"Industrial Area, Hajipur - BSPCB",27-07-2024 12:00:00,25.697189,85.245900,OZONE,5,15,12
India,Bihar,Manguraha,"Forest Rest House, Manguraha - BSPCB",27-07-2024 12:00:00,27.308328,84.531742,NO2,19,326,84
India,Bihar,Motihari,"Gandak Colony, Motihari - BSPCB",27-07-2024 12:00:00,26.63086,84.90051,NO2,1,16,8
India,Bihar,Munger,"Town Hall, Munger - BSPCB",27-07-2024 12:00:00,25.376776,86.471523,NH3,3,3,3
India,Bihar,Muzaffarpur,"Buddha Colony, Muzaffarpur - BSPCB",27-07-2024 12:00:00,26.11442,85.39813,PM2.5,37,93,60
India,Bihar,Muzaffarpur,"Buddha Colony, Muzaffarpur - BSPCB",27-07-2024 12:00:00,26.11442,85.39813,SO2,2,8,5
India,Bihar,Muzaffarpur,"Buddha Colony, Muzaffarpur - BSPCB",27-07-2024 12:00:00,26.11442,85.39813,OZONE,2,150,53
India,Bihar,Muzaffarpur,"MIT-Daudpur Kothi, Muzaffarpur - BSPCB",27-07-2024 12:00:00,26.1403345,85.3650192,PM2.5,NA,NA,NA
India,Bihar,Muzaffarpur,"MIT-Daudpur Kothi, Muzaffarpur - BSPCB",27-07-2024 12:00:00,26.1403345,85.3650192,CO,9,107,75
India,Bihar,Muzaffarpur,"MIT-Daudpur Kothi, Muzaffarpur - BSPCB",27-07-2024 12:00:00,26.1403345,85.3650192,OZONE,14,86,18
India,Bihar,Patna,"DRM Office Danapur, Patna - BSPCB",27-07-2024 12:00:00,25.586562,85.043586,PM10,34,73,53
India,Bihar,Patna,"Govt. High School Shikarpur, Patna - BSPCB",27-07-2024 12:00:00,25.592539,85.227158,PM2.5,42,81,60
India,Bihar,Patna,"Govt. High School Shikarpur, Patna - BSPCB",27-07-2024 12:00:00,25.592539,85.227158,NH3,4,5,5
India,Bihar,Patna,"Govt. High School Shikarpur, Patna - BSPCB",27-07-2024 12:00:00,25.592539,85.227158,CO,28,135,34
India,Bihar,Patna,"IGSC Planetarium Complex, Patna - BSPCB",27-07-2024 12:00:00,25.610369,85.132568,SO2,6,8,7
India,Bihar,Patna,"Rajbansi Nagar, Patna - BSPCB",27-07-2024 12:00:00,25.599486,85.113666,PM2.5,33,62,46
India,Bihar,Patna,"Samanpura, Patna - BSPCB",27-07-2024 12:00:00,25.596727,85.085624,NO2,9,26,13
India,Bihar,Rajgir,"Dangi Tola, Rajgir - BSPCB",27-07-2024 12:00:00,25.03280,85.41948,NO2,2,4,3
India,Bihar,Saharsa,"Police Line, Saharsa - BSPCB",27-07-2024 12:00:00,25.892357,86.590325,PM2.5,NA,NA,NA
India,Bihar,Samastipur,"DM Office_Kasipur, Samastipur - BSPCB",27-07-2024 12:00:00,25.859655,85.77944,PM10,35,107,68
India,Bihar,Samastipur,"DM Office_Kasipur, Samastipur - BSPCB",27-07-2024 12:00:00,25.859655,85.77944,NO2,NA,NA,NA
India,Bihar,Samastipur,"DM Office_Kasipur, Samastipur - BSPCB",27-07-2024 12:00:00,25.859655,85.77944,CO,91,106,103
India,Bihar,Sasaram,"Dada Peer, Sasaram - BSPCB",27-07-2024 12:00:00,24.952822,84.002396,CO,24,50,30
India,Chandigarh,Chandigarh,"Sector-25, Chandigarh - CPCC",27-07-2024 12:00:00,30.751462,76.762879,PM2.5,40,86,59
India,Chandigarh,Chandigarh,"Sector-53, Chandigarh - CPCC",27-07-2024 12:00:00,30.719859,76.738637,PM2.5,23,83,55
India,Chandigarh,Chandigarh,"Sector-53, Chandigarh - CPCC",27-07-2024 12:00:00,30.719859,76.738637,NH3,3,13,9
India,Chhattisgarh,Bhilai,"32Bungalows, Bhilai - CECB",27-07-2024 12:00:00,21.194815,81.314770,PM10,14,32,20
India,Chhattisgarh,Bhilai,"32Bungalows, Bhilai - CECB",27-07-2024 12:00:00,21.194815,81.314770,NH3,8,8,8
India,Chhattisgarh,Bhilai,"32Bungalows, Bhilai - CECB",27-07-2024 12:00:00,21.194815,81.314770,CO,9,13,10
India,Chhattisgarh,Bhilai,"32Bungalows, Bhilai - CECB",27-07-2024 12:00:00,21.194815,81.314770,OZONE,6,8,6
India,Chhattisgarh,Bhilai,"Civic Center, Bhilai - Bhilai Steel Plant",27-07-2024 12:00:00,21.185571,81.343175,PM2.5,7,21,16
India,Chhattisgarh,Bhilai,"Civic Center, Bhilai - Bhilai Steel Plant",27-07-2024 12:00:00,21.185571,81.343175,NH3,3,4,4
India,Chhattisgarh,Bhilai,"Hathkhoj, Bhilai - CECB",27-07-2024 12:00:00,21.224231,81.408350,PM2.5,19,64,36
India,Chhattisgarh,Bhilai,"Hathkhoj, Bhilai - CECB",27-07-2024 12:00:00,21.224231,81.408350,PM10,25,66,38
India,Chhattisgarh,Korba,"Urja Nagar, Korba - CECB",27-07-2024 12:00:00,22.348441,82.549611,NH3,NA,NA,NA
India,Chhattisgarh,Korba,"Urja Nagar, Korba - CECB",27-07-2024 12:00:00,22.348441,82.549611,CO,16,19,17
India,Chhattisgarh,Kunjemura,"OP Jindal School, Kunjemura - CECB",27-07-2024 12:00:00,22.126650,83.483212,PM2.5,8,18,12
India,Chhattisgarh,Raipur,"Siltara Phase-II, Raipur - CECB",27-07-2024 12:00:00,21.371751,81.664929,NO2,8,11,9
India,Chhattisgarh,Tumidih,"OP Jindal Industrial Park, Tumidih - CECB",27-07-2024 12:00:00,22.06631475,83.33820077,OZONE,6,21,14
India,Delhi,Delhi,"Anand Vihar, Delhi - DPCC",27-07-2024 12:00:00,28.647622,77.3158090,NH3,6,20,12
India,Delhi,Delhi,"Ashok Vihar, Delhi - DPCC",27-07-2024 12:00:00,28.695381,77.181665,OZONE,6,129,28
India,Delhi,Delhi,"Aya Nagar, Delhi - IMD",27-07-2024 12:00:00,28.4706914,77.1099364,OZONE,13,75,31
India,Delhi,Delhi,"Burari Crossing, Delhi - IMD",27-07-2024 12:00:00,28.7256504,77.2011573,PM2.5,43,217,92
India,Delhi,Delhi,"Burari Crossing, Delhi - IMD",27-07-2024 12:00:00,28.7256504,77.2011573,CO,16,26,20
India,Delhi,Delhi,"CRRI Mathura Road, Delhi - IMD",27-07-2024 12:00:00,28.5512005,77.2735737,PM2.5,NA,NA,NA
India,Delhi,Delhi,"CRRI Mathura Road, Delhi - IMD",27-07-2024 12:00:00,28.5512005,77.2735737,NO2,NA,NA,NA
India,Delhi,Delhi,"DTU, Delhi - CPCB",27-07-2024 12:00:00,28.7500499,77.1112615,NH3,11,15,13
India,Delhi,Delhi,"Dr. Karni Singh Shooting Range, Delhi - DPCC",27-07-2024 12:00:00,28.498571,77.264840,PM2.5,55,340,147
India,Delhi,Delhi,"Dwarka-Sector 8, Delhi - DPCC ",27-07-2024 12:00:00,28.5710274,77.0719006,PM2.5,48,315,136
India,Delhi,Delhi,"Dwarka-Sector 8, Delhi - DPCC ",27-07-2024 12:00:00,28.5710274,77.0719006,NO2,13,80,35
India,Delhi,Delhi,"IHBAS, Dilshad Garden, Delhi - CPCB",27-07-2024 12:00:00,28.6811736,77.3025234,PM2.5,NA,NA,NA
India,Delhi,Delhi,"IHBAS, Dilshad Garden, Delhi - CPCB",27-07-2024 12:00:00,28.6811736,77.3025234,SO2,4,60,17
India,Delhi,Delhi,"IHBAS, Dilshad Garden, Delhi - CPCB",27-07-2024 12:00:00,28.6811736,77.3025234,OZONE,15,17,16
India,Delhi,Delhi,"ITO, Delhi - CPCB",27-07-2024 12:00:00,28.628624,77.241060,PM2.5,67,297,157
India,Delhi,Delhi,"ITO, Delhi - CPCB",27-07-2024 12:00:00,28.628624,77.241060,NH3,3,50,21
India,Delhi,Delhi,"Jahangirpuri, Delhi - DPCC",27-07-2024 12:00:00,28.732820,77.170633,NO2,9,77,37
India,Delhi,Delhi,"Major Dhyan Chand National Stadium, Delhi - DPCC",27-07-2024 12:00:00,28.611281,77.237738,PM10,70,181,118
India,Delhi,Delhi,"Major Dhyan Chand National Stadium, Delhi - DPCC",27-07-2024 12:00:00,28.611281,77.237738,NO2,27,130,61
India,Delhi,Delhi,"Mandir Marg, Delhi - DPCC",27-07-2024 12:00:00,28.636429,77.201067,PM2.5,NA,NA,NA
India,Delhi,Delhi,"Mandir Marg, Delhi - DPCC",27-07-2024 12:00:00,28.636429,77.201067,NH3,5,9,7
India,Delhi,Delhi,"Mundka, Delhi - DPCC",27-07-2024 12:00:00,28.684678,77.076574,NO2,28,115,54
India,Delhi,Delhi,"NSIT Dwarka, Delhi - CPCB",27-07-2024 12:00:00,28.60909,77.0325413,PM10,74,126,100
India,Delhi,Delhi,"Najafgarh, Delhi - DPCC",27-07-2024 12:00:00,28.570173,76.933762,NH3,11,77,20
India,Delhi,Delhi,"Narela, Delhi - DPCC",27-07-2024 12:00:00,28.822836,77.101981,SO2,5,21,11
India,Delhi,Delhi,"Nehru Nagar, Delhi - DPCC",27-07-2024 12:00:00,28.567890,77.250515,NH3,3,6,5
India,Delhi,Delhi,"North Campus, DU, Delhi - IMD",27-07-2024 12:00:00,28.6573814,77.1585447,OZONE,7,34,8
India,Delhi,Delhi,"Okhla Phase-2, Delhi - DPCC",27-07-2024 12:00:00,28.530785,77.271255,NH3,13,19,15
India,Delhi,Delhi,"Punjabi Bagh, Delhi - DPCC",27-07-2024 12:00:00,28.674045,77.131023,PM10,73,255,134
India,Delhi,Delhi,"Punjabi Bagh, Delhi - DPCC",27-07-2024 12:00:00,28.674045,77.131023,NO2,13,72,33
India,Delhi,Delhi,"Punjabi Bagh, Delhi - DPCC",27-07-2024 12:00:00,28.674045,77.131023,NH3,3,8,6
India,Delhi,Delhi,"Punjabi Bagh, Delhi - DPCC",27-07-2024 12:00:00,28.674045,77.131023,SO2,NA,NA,NA
India,Delhi,Delhi,"Punjabi Bagh, Delhi - DPCC",27-07-2024 12:00:00,28.674045,77.131023,OZONE,4,80,17
India,Delhi,Delhi,"Pusa, Delhi - DPCC",27-07-2024 12:00:00,28.639652,77.146275,SO2,2,9,7
India,Delhi,Delhi,"Pusa, Delhi - DPCC",27-07-2024 12:00:00,28.639652,77.146275,OZONE,13,31,18
India,Delhi,Delhi,"R K Puram, Delhi - DPCC",27-07-2024 12:00:00,28.563262,77.186937,NH3,4,14,7
India,Delhi,Delhi,"Rohini, Delhi - DPCC",27-07-2024 12:00:00,28.732528,77.119920,OZONE,5,50,16
India,Delhi,Delhi,"Sirifort, Delhi - CPCB",27-07-2024 12:00:00,28.5504249,77.2159377,NH3,9,11,10
India,Delhi,Delhi,"Sonia Vihar, Delhi - DPCC",27-07-2024 12:00:00,28.710508,77.249485,PM10,81,207,119
India,Delhi,Delhi,"Sonia Vihar, Delhi - DPCC",27-07-2024 12:00:00,28.710508,77.249485,NO2,18,64,36
India,Delhi,Delhi,"Vivek Vihar, Delhi - DPCC",27-07-2024 12:00:00,28.672342,77.315260,SO2,5,18,10
India,Delhi,Delhi,"Wazirpur, Delhi - DPCC",27-07-2024 12:00:00,28.699793,77.165453,NO2,NA,NA,NA
India,Delhi,Delhi,"Wazirpur, Delhi - DPCC",27-07-2024 12:00:00,28.699793,77.165453,NH3,NA,NA,NA
India,Gujarat,Ahmedabad,"Chandkheda, Ahmedabad - IITM",27-07-2024 12:00:00,23.107969,72.574648,PM2.5,35,63,47
India,Gujarat,Ahmedabad,"Chandkheda, Ahmedabad - IITM",27-07-2024 12:00:00,23.107969,72.574648,NO2,22,36,29
India,Gujarat,Ahmedabad,"Chandkheda, Ahmedabad - IITM",27-07-2024 12:00:00,23.107969,72.574648,OZONE,8,35,13
India,Gujarat,Ahmedabad,"Gyaspur, Ahmedabad - IITM",27-07-2024 12:00:00,22.977134,72.553024,SO2,3,51,15
India,Gujarat,Ahmedabad,"Gyaspur, Ahmedabad - IITM",27-07-2024 12:00:00,22.977134,72.553024,OZONE,10,31,14
India,Gujarat,Ahmedabad,"Maninagar, Ahmedabad - GPCB",27-07-2024 12:00:00,23.002657,72.591912,OZONE,17,24,18
India,Gujarat,Ahmedabad,"SVPI Airport Hansol, Ahmedabad - IITM",27-07-2024 12:00:00,23.076793,72.627874,CO,16,48,20
India,Gujarat,Ahmedabad,"Sardar Vallabhbhai Patel Stadium, Ahmedabad - IITM",27-07-2024 12:00:00,23.043070,72.562968,CO,13,64,24
India,Gujarat,Ankleshwar,"GIDC, Ankleshwar - GPCB",27-07-2024 12:00:00,21.613267,73.010555,PM2.5,19,45,31
India,Gujarat,Ankleshwar,"GIDC, Ankleshwar - GPCB",27-07-2024 12:00:00,21.613267,73.010555,PM10,42,62,51
India,Gujarat,Ankleshwar,"GIDC, Ankleshwar - GPCB",27-07-2024 12:00:00,21.613267,73.010555,NH3,2,3,3
India,Gujarat,Gandhinagar,"GIFT City, Gandhinagar - IITM",27-07-2024 12:00:00,23.163798,72.677768,NO2,1,178,18
India,Gujarat,Gandhinagar,"Sector-10, Gandhinagar - GPCB",27-07-2024 12:00:00,23.221714,72.654328,PM10,37,117,66
India,Gujarat,Surat,"Science Center, Surat - SMC",27-07-2024 12:00:00,21.170046,72.795405,PM2.5,5,61,35
India,Gujarat,Surat,"Science Center, Surat - SMC",27-07-2024 12:00:00,21.170046,72.795405,NO2,17,23,20
India,Gujarat,Surat,"Science Center, Surat - SMC",27-07-2024 12:00:00,21.170046,72.795405,CO,63,72,67
India,Gujarat,Vapi,"Phase-1 GIDC, Vapi - GPCB",27-07-2024 12:00:00,20.362421,72.918013,NH3,10,10,10
India,Gujarat,Vapi,"Phase-1 GIDC, Vapi - GPCB",27-07-2024 12:00:00,20.362421,72.918013,SO2,50,52,51
India,Gujarat,Vatva,"Phase-4 GIDC, Vatva - GPCB",27-07-2024 12:00:00,22.969611,72.643500,SO2,9,12,11
India,Haryana,Ambala,"Patti Mehar, Ambala - HSPCB",27-07-2024 12:00:00,30.379589,76.778328,PM2.5,30,132,54
India,Haryana,Bahadurgarh,"Arya Nagar, Bahadurgarh - HSPCB",27-07-2024 12:00:00,28.6701,76.9254,NO2,20,25,22
India,Haryana,Charkhi Dadri,"Mini Secretariat, Charkhi Dadri - HSPCB",27-07-2024 12:00:00,28.593883,76.270653,OZONE,12,17,15
India,Haryana,Dharuhera,"Municipal Corporation Office, Dharuhera -  HSPCB",27-07-2024 12:00:00,28.206800,76.799700,NO2,15,50,36
India,Haryana,Dharuhera,"Municipal Corporation Office, Dharuhera -  HSPCB",27-07-2024 12:00:00,28.206800,76.799700,NH3,9,26,19
India,Haryana,Faridabad,"New Industrial Town, Faridabad - HSPCB",27-07-2024 12:00:00,28.39072,77.30059,PM10,NA,NA,NA
India,Haryana,Faridabad,"New Industrial Town, Faridabad - HSPCB",27-07-2024 12:00:00,28.39072,77.30059,CO,118,129,129
India,Haryana,Faridabad,"Sector 11, Faridabad - HSPCB",27-07-2024 12:00:00,28.376058,77.315741,CO,35,52,40
India,Haryana,Faridabad,"Sector- 16A, Faridabad - HSPCB",27-07-2024 12:00:00,28.4088421,77.3099081,OZONE,14,14,14
India,Haryana,Fatehabad,"Huda Sector, Fatehabad - HSPCB",27-07-2024 12:00:00,29.503664,75.467934,NO2,29,31,30
India,Haryana,Gurugram,"Teri Gram, Gurugram - HSPCB",27-07-2024 12:00:00,28.4275,77.1465,NH3,9,15,14
India,Haryana,Gurugram,"Vikas Sadan, Gurugram - HSPCB",27-07-2024 12:00:00,28.4501238,77.0263051,CO,49,131,80
India,Haryana,Hisar,"Urban Estate-II, Hisar - HSPCB",27-07-2024 12:00:00,29.140560,75.744941,NH3,NA,NA,NA
India,Haryana,Jind,"Police Lines, Jind - HSPCB",27-07-2024 12:00:00,29.307814,76.337619,SO2,1,12,2
India,Haryana,Kaithal,"Rishi Nagar, Kaithal - HSPCB",27-07-2024 12:00:00,29.8006,76.4155,PM10,43,90,68
India,Haryana,Kaithal,"Rishi Nagar, Kaithal - HSPCB",27-07-2024 12:00:00,29.8006,76.4155,NO2,24,26,25
India,Haryana,Karnal,"Sector-12, Karnal - HSPCB",27-07-2024 12:00:00,29.695300,77.002700,PM2.5,27,103,61
India,Haryana,Karnal,"Sector-12, Karnal - HSPCB",27-07-2024 12:00:00,29.695300,77.002700,NO2,7,12,10
India,Haryana,Kurukshetra,"Sector-7, Kurukshetra - HSPCB",27-07-2024 12:00:00,29.966942,76.875879,CO,10,26,17
India,Haryana,Mandikhera,"General Hospital, Mandikhera - HSPCB",27-07-2024 12:00:00,27.9002,76.9938,PM2.5,NA,NA,NA
India,Haryana,Narnaul,"Shastri Nagar, Narnaul - HSPCB",27-07-2024 12:00:00,28.060249,76.113115,SO2,5,7,5
India,Haryana,Palwal,"Shyam Nagar, Palwal - HSPCB",27-07-2024 12:00:00,28.1485564,77.3320667,SO2,9,21,13
India,Haryana,Panchkula,"Sector-6, Panchkula - HSPCB ",27-07-2024 12:00:00,30.7057778,76.8531805555555,OZONE,26,45,36
India,Haryana,Panipat,"Sector-18, Panipat - HSPCB",27-07-2024 12:00:00,29.432304,76.972765,PM10,78,89,87
India,Haryana,Panipat,"Sector-18, Panipat - HSPCB",27-07-2024 12:00:00,29.432304,76.972765,CO,24,26,25
India,Haryana,Rohtak,"MD University, Rohtak - HSPCB",27-07-2024 12:00:00,28.52123,76.37138,PM2.5,9,262,117
India,Haryana,Rohtak,"MD University, Rohtak - HSPCB",27-07-2024 12:00:00,28.52123,76.37138,SO2,5,8,7
India,Haryana,Rohtak,"MD University, Rohtak - HSPCB",27-07-2024 12:00:00,28.52123,76.37138,CO,2,46,37
India,Haryana,Sonipat,"Murthal, Sonipat - HSPCB",27-07-2024 12:00:00,29.027200,77.062100,SO2,12,29,19
India,Haryana,Yamuna Nagar,"Gobind Pura, Yamuna Nagar - HSPCB",27-07-2024 12:00:00,30.1480566,77.2893471,PM10,24,91,50
India,Haryana,Yamuna Nagar,"Gobind Pura, Yamuna Nagar - HSPCB",27-07-2024 12:00:00,30.1480566,77.2893471,NO2,11,21,16
India,Haryana,Yamuna Nagar,"Gobind Pura, Yamuna Nagar - HSPCB",27-07-2024 12:00:00,30.1480566,77.2893471,SO2,NA,NA,NA
India,Himachal Pradesh,Baddi,"HIMUDA Complex Phase-1, Baddi - HPPCB",27-07-2024 12:00:00,30.943887,76.801991,NO2,10,36,20
India,Jammu_and_Kashmir,Srinagar,"Rajbagh, Srinagar - JKSPCB",27-07-2024 12:00:00,34.066206,74.819820,CO,12,20,16
India,Jharkhand,Dhanbad,"Kalakusuma, Dhanbad - DMC",27-07-2024 12:00:00,23.811548,86.481238,SO2,9,10,9
India,Jharkhand,Jorapokhar,"Tata Stadium, Jorapokhar - JSPCB",27-07-2024 12:00:00,23.707909,86.414670,SO2,NA,NA,NA
India,Jharkhand,Jorapokhar,"Tata Stadium, Jorapokhar - JSPCB",27-07-2024 12:00:00,23.707909,86.414670,OZONE,NA,NA,NA
India,Karnataka,Bagalkot,"Vidayagiri, Bagalkot - KSPCB",27-07-2024 12:00:00,16.172806,75.659694,CO,22,48,34
India,Karnataka,Belgaum,"Ramteerth Nagar, Belgaum - KSPCB",27-07-2024 12:00:00,15.888653,74.541751,PM2.5,14,29,22
India,Karnataka,Bengaluru,"BTM Layout, Bengaluru - CPCB",27-07-2024 12:00:00,12.9135218,77.5950804,NO2,42,68,60
India,Karnataka,Bengaluru,"Bapuji Nagar, Bengaluru - KSPCB",27-07-2024 12:00:00,12.951913,77.539784,OZONE,24,36,28
India,Karnataka,Bengaluru,"City Railway Station, Bengaluru - KSPCB",27-07-2024 12:00:00,12.9756843,77.5660749,SO2,21,21,21
India,Karnataka,Bengaluru,"Hebbal, Bengaluru - KSPCB",27-07-2024 12:00:00,13.029152,77.585901,NH3,1,1,1
India,Karnataka,Bengaluru,"Hebbal, Bengaluru - KSPCB",27-07-2024 12:00:00,13.029152,77.585901,CO,11,23,17
India,Karnataka,Bengaluru,"Hombegowda Nagar, Bengaluru - KSPCB",27-07-2024 12:00:00,12.938539,77.590100,PM2.5,3,15,10
India,Karnataka,Bengaluru,"Hombegowda Nagar, Bengaluru - KSPCB",27-07-2024 12:00:00,12.938539,77.590100,PM10,6,23,14
India,Karnataka,Bengaluru,"Hombegowda Nagar, Bengaluru - KSPCB",27-07-2024 12:00:00,12.938539,77.590100,NO2,6,16,9
India,Karnataka,Bengaluru,"Hombegowda Nagar, Bengaluru - KSPCB",27-07-2024 12:00:00,12.938539,77.590100,OZONE,2,15,10
India,Karnataka,Bengaluru,"Kasturi Nagar, Bengaluru - KSPCB",27-07-2024 12:00:00,13.003872,77.664217,PM2.5,41,48,43
India,Karnataka,Bengaluru,"Peenya, Bengaluru - CPCB",27-07-2024 12:00:00,13.0270199,77.494094,PM10,73,73,73
India,Karnataka,Bengaluru,"RVCE-Mailasandra, Bengaluru - KSPCB",27-07-2024 12:00:00,12.921418,77.502466,SO2,10,20,11
India,Karnataka,Bengaluru,"Sanegurava Halli, Bengaluru - KSPCB",27-07-2024 12:00:00,12.990328,77.5431385,PM10,35,55,40
India,Karnataka,Bengaluru,"Shivapura_Peenya, Bengaluru - KSPCB",27-07-2024 12:00:00,13.0246342,77.5080115,PM10,18,82,35
India,Karnataka,Bengaluru,"Silk Board, Bengaluru - KSPCB",27-07-2024 12:00:00,12.917348,77.622813,NO2,10,40,23
India,Karnataka,Bengaluru,"Silk Board, Bengaluru - KSPCB",27-07-2024 12:00:00,12.917348,77.622813,NH3,1,1,1
India,Karnataka,Bidar,"Naubad, Bidar - KSPCB",27-07-2024 12:00:00,17.930306,77.482194,PM10,12,35,24
India,Karnataka,Bidar,"Naubad, Bidar - KSPCB",27-07-2024 12:00:00,17.930306,77.482194,SO2,18,25,21
India,Karnataka,Bidar,"Naubad, Bidar - KSPCB",27-07-2024 12:00:00,17.930306,77.482194,OZONE,6,14,6
India,Karnataka,Chamarajanagar,"Urban, Chamarajanagar - KSPCB",27-07-2024 12:00:00,11.55358,76.55521,NH3,2,3,2
India,Karnataka,Chamarajanagar,"Urban, Chamarajanagar - KSPCB",27-07-2024 12:00:00,11.55358,76.55521,SO2,2,6,3
India,Karnataka,Chamarajanagar,"Urban, Chamarajanagar - KSPCB",27-07-2024 12:00:00,11.55358,76.55521,CO,22,120,22
India,Karnataka,Davanagere,"Devaraj Urs Badavane, Davanagere - KSPCB",27-07-2024 12:00:00,14.475800,75.905200,NO2,8,9,8
India,Karnataka,Davanagere,"Devaraj Urs Badavane, Davanagere - KSPCB",27-07-2024 12:00:00,14.475800,75.905200,CO,12,15,13
India,Karnataka,Davanagere,"Devaraj Urs Badavane, Davanagere - KSPCB",27-07-2024 12:00:00,14.475800,75.905200,OZONE,19,39,25
India,Karnataka,Dharwad,"Kalabhavan, Dharwad - KSPCB",27-07-2024 12:00:00,15.459706,75.008381,PM10,NA,NA,NA
India,Karnataka,Dharwad,"Kalabhavan, Dharwad - KSPCB",27-07-2024 12:00:00,15.459706,75.008381,NO2,5,14,10
India,Karnataka,Dharwad,"Kalabhavan, Dharwad - KSPCB",27-07-2024 12:00:00,15.459706,75.008381,CO,6,37,18
India,Karnataka,Gadag,"Panchal Nagar, Gadag - KSPCB",27-07-2024 12:00:00,15.411456,75.638133,SO2,NA,NA,NA
India,Karnataka,Hassan,"B.Katihalli, Hassan - KSPCB",27-07-2024 12:00:00,13.008556,76.125258,NO2,3,27,18
India,Karnataka,Hassan,"B.Katihalli, Hassan - KSPCB",27-07-2024 12:00:00,13.008556,76.125258,NH3,1,5,2
India,Karnataka,Hassan,"B.Katihalli, Hassan - KSPCB",27-07-2024 12:00:00,13.008556,76.125258,OZONE,4,16,12
India,Karnataka,Haveri,"Ashwini Nagar, Haveri - KSPCB",27-07-2024 12:00:00,14.791800,75.389600,PM2.5,5,17,12
India,Karnataka,Hubballi,"Lingaraj Nagar, Hubballi - KSPCB",27-07-2024 12:00:00,15.3714823,75.1160168,PM2.5,17,30,26
India,Karnataka,Hubballi,"Lingaraj Nagar, Hubballi - KSPCB",27-07-2024 12:00:00,15.3714823,75.1160168,PM10,28,45,37
India,Karnataka,Kalaburagi,"Lal Bahadur Shastri Nagar, Kalaburagi - KSPCB",27-07-2024 12:00:00,17.321993,76.822628,NO2,10,12,11
India,Karnataka,Kalaburagi,"Lal Bahadur Shastri Nagar, Kalaburagi - KSPCB",27-07-2024 12:00:00,17.321993,76.822628,OZONE,4,13,6
India,Karnataka,Kalaburagi,"Mahatma Basaveswar Colony, Kalaburgi - KSPCB",27-07-2024 12:00:00,17.336318,76.847397,SO2,3,54,7
India,Karnataka,Kalaburagi,"Mahatma Basaveswar Colony, Kalaburgi - KSPCB",27-07-2024 12:00:00,17.336318,76.847397,CO,17,46,20
India,Karnataka,Kolar,"Tamaka Ind. Area, Kolar - KSPCB",27-07-2024 12:00:00,13.1276288,78.1570122,PM10,4,52,24
India,Karnataka,Kolar,"Tamaka Ind. Area, Kolar - KSPCB",27-07-2024 12:00:00,13.1276288,78.1570122,NH3,8,11,9
India,Karnataka,Koppal,"Diwator Nagar, Koppal - KSPCB",27-07-2024 12:00:00,15.347630,76.181767,SO2,30,34,30
India,Karnataka,Koppal,"Diwator Nagar, Koppal - KSPCB",27-07-2024 12:00:00,15.347630,76.181767,OZONE,8,17,10
India,Karnataka,Madikeri,"Stuart Hill, Madikeri - KSPCB",27-07-2024 12:00:00,12.415911,75.735050,PM10,14,25,19
India,Karnataka,Madikeri,"Stuart Hill, Madikeri - KSPCB",27-07-2024 12:00:00,12.415911,75.735050,NH3,1,1,1
India,Karnataka,Madikeri,"Stuart Hill, Madikeri - KSPCB",27-07-2024 12:00:00,12.415911,75.735050,SO2,4,4,4
India,Karnataka,Madikeri,"Stuart Hill, Madikeri - KSPCB",27-07-2024 12:00:00,12.415911,75.735050,CO,3,29,11
India,Karnataka,Madikeri,"Stuart Hill, Madikeri - KSPCB",27-07-2024 12:00:00,12.415911,75.735050,OZONE,14,18,15
India,Karnataka,Mangalore,"Kadri, Mangalore - KSPCB",27-07-2024 12:00:00,12.889250,74.853000,OZONE,32,36,35
India,Karnataka,Raichur,"Haji Colony, Raichur - KSPCB",27-07-2024 12:00:00,16.208139,77.348417,PM10,NA,NA,NA
India,Karnataka,Raichur,"Haji Colony, Raichur - KSPCB",27-07-2024 12:00:00,16.208139,77.348417,NH3,NA,NA,NA
India,Karnataka,Raichur,"Haji Colony, Raichur - KSPCB",27-07-2024 12:00:00,16.208139,77.348417,SO2,NA,NA,NA
India,Karnataka,Ramanagara,"Vijay Nagar, Ramanagara - KSPCB",27-07-2024 12:00:00,12.733409,77.298051,CO,1,30,10
India,Karnataka,Ramanagara,"Vijay Nagar, Ramanagara - KSPCB",27-07-2024 12:00:00,12.733409,77.298051,OZONE,26,30,29
India,Karnataka,Shivamogga,"Vinoba Nagara, Shivamogga - KSPCB",27-07-2024 12:00:00,13.940000,75.555917,PM2.5,23,53,32
India,Karnataka,Tumakuru,"Thimmalapura, Tumakuru - KSPCB",27-07-2024 12:00:00,13.377516,77.099072,PM10,48,89,66
India,Karnataka,Tumakuru,"Thimmalapura, Tumakuru - KSPCB",27-07-2024 12:00:00,13.377516,77.099072,NH3,2,2,2
India,Karnataka,Tumakuru,"Thimmalapura, Tumakuru - KSPCB",27-07-2024 12:00:00,13.377516,77.099072,CO,27,39,30
India,Karnataka,Vijayapura,"Ibrahimpur, Vijayapura - KSPCB",27-07-2024 12:00:00,16.802639,75.722694,NH3,2,2,2
India,Karnataka,Vijayapura,"Ibrahimpur, Vijayapura - KSPCB",27-07-2024 12:00:00,16.802639,75.722694,CO,NA,NA,NA
India,Karnataka,Yadgir,"Collector Office, Yadgir - KSPCB",27-07-2024 12:00:00,16.7602,77.1428,PM2.5,2,36,21
India,Kerala,Eloor,"Udyogamandal, Eloor - Kerala PCB",27-07-2024 12:00:00,10.073232,76.302765,PM10,40,75,49
India,Kerala,Kollam,"Polayathode, Kollam - Kerala PCB",27-07-2024 12:00:00,8.8787,76.6073,NH3,NA,NA,NA
India,Kerala,Kollam,"Polayathode, Kollam - Kerala PCB",27-07-2024 12:00:00,8.8787,76.6073,OZONE,34,34,34
India,Kerala,Thiruvananthapuram,"Kariavattom, Thiruvananthapuram - Kerala PCB",27-07-2024 12:00:00,8.563700,76.886500,PM2.5,35,40,37
India,Kerala,Thiruvananthapuram,"Kariavattom, Thiruvananthapuram - Kerala PCB",27-07-2024 12:00:00,8.563700,76.886500,OZONE,36,36,36
India,Kerala,Thrissur,"Corporation Ground, Thrissur - Kerala PCB",27-07-2024 12:00:00,10.532400,76.215900,PM2.5,32,38,35
India,Madhya Pradesh,Bhopal,"Idgah Hills, Bhopal - MPPCB",27-07-2024 12:00:00,23.264759,77.381568,PM2.5,12,42,32
India,Madhya Pradesh,Bhopal,"Paryavaran Parisar, Bhopal - MPPCB",27-07-2024 12:00:00,23.210494,77.425409,PM10,12,100,59
India,Madhya Pradesh,Bhopal,"Paryavaran Parisar, Bhopal - MPPCB",27-07-2024 12:00:00,23.210494,77.425409,NO2,7,12,9
India,Madhya Pradesh,Bhopal,"Paryavaran Parisar, Bhopal - MPPCB",27-07-2024 12:00:00,23.210494,77.425409,CO,6,22,19
India,Madhya Pradesh,Bhopal,"Paryavaran Parisar, Bhopal - MPPCB",27-07-2024 12:00:00,23.210494,77.425409,OZONE,16,54,33
India,Madhya Pradesh,Bhopal,"T T Nagar, Bhopal - MPPCB",27-07-2024 12:00:00,23.233584,77.400574,NO2,14,22,18
India,Madhya Pradesh,Damoh,"Shrivastav Colony, Damoh - MPPCB",27-07-2024 12:00:00,23.81748678,79.446246,PM10,5,34,17
India,Madhya Pradesh,Dewas,"Bhopal Chauraha, Dewas - MPPCB",27-07-2024 12:00:00,22.9682591,76.064118,PM2.5,21,50,37
India,Madhya Pradesh,Dewas,"Bhopal Chauraha, Dewas - MPPCB",27-07-2024 12:00:00,22.9682591,76.064118,PM10,34,68,52
India,Madhya Pradesh,Dewas,"Bhopal Chauraha, Dewas - MPPCB",27-07-2024 12:00:00,22.9682591,76.064118,OZONE,19,36,32
India,Madhya Pradesh,Gwalior,"City Center, Gwalior - MPPCB",27-07-2024 12:00:00,26.203442,78.193251,OZONE,28,76,53
India,Madhya Pradesh,Gwalior,"Deen Dayal Nagar, Gwalior - MPPCB",27-07-2024 12:00:00,26.259242,78.216432,NH3,3,4,3
India,Madhya Pradesh,Gwalior,"Phool Bagh, Gwalior - Mondelez Ind. Food",27-07-2024 12:00:00,26.210536,78.171,SO2,17,20,19
India,Madhya Pradesh,Indore,"Chhoti Gwaltoli, Indore - MPPCB",27-07-2024 12:00:00,22.4310,75.5213,OZONE,14,31,26
India,Madhya Pradesh,Indore,"Maguda Nagar, Indore - IMC",27-07-2024 12:00:00,22.7524,75.8872,PM10,NA,NA,NA
India,Madhya Pradesh,Indore,"Regional Park, Indore - IMC",27-07-2024 12:00:00,22.6780,75.8559,PM10,11,38,25
India,Madhya Pradesh,Indore,"Regional Park, Indore - IMC",27-07-2024 12:00:00,22.6780,75.8559,CO,16,19,17
India,Madhya Pradesh,Indore,"Residency Area, Indore - IMC",27-07-2024 12:00:00,22.7084,75.8815,PM2.5,12,36,24
India,Madhya Pradesh,Indore,"Residency Area, Indore - IMC",27-07-2024 12:00:00,22.7084,75.8815,CO,8,10,8
India,Madhya Pradesh,Jabalpur,"Gupteshwar, Jabalpur - JMC",27-07-2024 12:00:00,23.142888,79.916147,NO2,5,10,8
India,Madhya Pradesh,Jabalpur,"Gupteshwar, Jabalpur - JMC",27-07-2024 12:00:00,23.142888,79.916147,NH3,3,4,4
India,Madhya Pradesh,Jabalpur,"Suhagi, Jabalpur - JMC",27-07-2024 12:00:00,23.218135,79.957770,NO2,10,12,11
India,Madhya Pradesh,Katni,"Gole Bazar, Katni - MPPCB",27-07-2024 12:00:00,23.50016,80.23284,NO2,15,21,18
India,Madhya Pradesh,Mandideep,"Sector-D Industrial Area, Mandideep - MPPCB",27-07-2024 12:00:00,23.108440,77.511428,NO2,3,19,8
India,Madhya Pradesh,Mandideep,"Sector-D Industrial Area, Mandideep - MPPCB",27-07-2024 12:00:00,23.108440,77.511428,NH3,5,8,6
India,Madhya Pradesh,Mandideep,"Sector-D Industrial Area, Mandideep - MPPCB",27-07-2024 12:00:00,23.108440,77.511428,SO2,5,10,8
India,Madhya Pradesh,Pithampur,"Sector-2 Industrial Area, Pithampur - MPPCB",27-07-2024 12:00:00,22.624758,75.675238,PM10,19,75,53
India,Madhya Pradesh,Ratlam,"Shasthri Nagar, Ratlam - IPCA Lab",27-07-2024 12:00:00,23.331731,75.045981,PM10,32,73,51
India,Madhya Pradesh,Ratlam,"Shasthri Nagar, Ratlam - IPCA Lab",27-07-2024 12:00:00,23.331731,75.045981,NO2,8,8,8
India,Madhya Pradesh,Sagar,"Civil Lines, Sagar - MPPCB",27-07-2024 12:00:00,23.838586,78.759431,CO,16,44,31
India,Madhya Pradesh,Sagar,"Civil Lines, Sagar - MPPCB",27-07-2024 12:00:00,23.838586,78.759431,OZONE,22,60,35
India,Madhya Pradesh,Sagar,"Deen Dayal Nagar, Sagar - MPPCB",27-07-2024 12:00:00,23.8640158,78.80289321,PM10,25,107,51
India,Madhya Pradesh,Ujjain,"Mahakaleshwar Temple, Ujjain - MPPCB",27-07-2024 12:00:00,23.182719 ,75.768218 ,NH3,3,5,4
India,Maharashtra,Akola,"Ramdaspeth, Akola - MPCB",27-07-2024 12:00:00,20.719516,77.000253,PM2.5,15,48,27
India,Maharashtra,Akola,"Ramdaspeth, Akola - MPCB",27-07-2024 12:00:00,20.719516,77.000253,CO,4,31,10
India,Maharashtra,Amravati,"Shivneri Colony, Amravati - MPCB",27-07-2024 12:00:00,20.9402359,77.7895248,CO,6,21,10
India,Maharashtra,Amravati,"Shri Shivaji Science College, Amaravati - MPCB",27-07-2024 12:00:00,20.939198,77.765701,PM10,25,78,35
India,Maharashtra,Amravati,"Shri Shivaji Science College, Amaravati - MPCB",27-07-2024 12:00:00,20.939198,77.765701,NH3,2,3,3
India,Maharashtra,Aurangabad,"MIDC Chilkalthana, Aurangabad - MPCB",27-07-2024 12:00:00,19.875620,75.387310,PM2.5,3,35,18
India,Maharashtra,Aurangabad,"MIDC Chilkalthana, Aurangabad - MPCB",27-07-2024 12:00:00,19.875620,75.387310,SO2,1,5,2
India,Maharashtra,Aurangabad,"MIDC Chilkalthana, Aurangabad - MPCB",27-07-2024 12:00:00,19.875620,75.387310,CO,12,32,16
India,Maharashtra,Aurangabad,"MIDC Chilkalthana, Aurangabad - MPCB",27-07-2024 12:00:00,19.875620,75.387310,OZONE,8,184,184
India,Maharashtra,Badlapur,"Katrap, Badlapur - MPCB",27-07-2024 12:00:00,19.16485,73.23409,PM2.5,NA,NA,NA
India,Maharashtra,Badlapur,"Katrap, Badlapur - MPCB",27-07-2024 12:00:00,19.16485,73.23409,CO,8,14,10
India,Maharashtra,Belapur,"CBD Belapur, Belapur - MPCB",27-07-2024 12:00:00,19.0243902,73.0406721,PM2.5,25,47,38
India,Maharashtra,Belapur,"CBD Belapur, Belapur - MPCB",27-07-2024 12:00:00,19.0243902,73.0406721,NO2,39,60,45
India,Maharashtra,Belapur,"CBD Belapur, Belapur - MPCB",27-07-2024 12:00:00,19.0243902,73.0406721,CO,11,39,15
India,Maharashtra,Boisar,"Khaira, Boisar - MPCB",27-07-2024 12:00:00,19.786089,72.757971,NO2,14,42,27
India,Maharashtra,Boisar,"Khaira, Boisar - MPCB",27-07-2024 12:00:00,19.786089,72.757971,NH3,7,14,11
India,Maharashtra,Chandrapur,"Chauhan Colony, Chandrapur - MPCB",27-07-2024 12:00:00,19.962900,79.298714,PM10,20,50,29
India,Maharashtra,Chandrapur,"Chauhan Colony, Chandrapur - MPCB",27-07-2024 12:00:00,19.962900,79.298714,CO,24,28,26
India,Maharashtra,Dhule,"Deopur, Dhule - MPCB",27-07-2024 12:00:00,20.918946,74.776388,PM2.5,18,45,31
India,Maharashtra,Jalgaon,"Prabhat Colony, Jalgaon - MPCB",27-07-2024 12:00:00,21.001264,75.565602,PM10,30,87,56
India,Maharashtra,Jalgaon,"Prabhat Colony, Jalgaon - MPCB",27-07-2024 12:00:00,21.001264,75.565602,OZONE,17,35,22
India,Maharashtra,Kalyan,"Khadakpada, Kalyan - MPCB",27-07-2024 12:00:00,19.25292,73.142019,PM10,35,61,48
India,Maharashtra,Kalyan,"Khadakpada, Kalyan - MPCB",27-07-2024 12:00:00,19.25292,73.142019,CO,12,22,14
India,Maharashtra,Kalyan,"Khadakpada, Kalyan - MPCB",27-07-2024 12:00:00,19.25292,73.142019,OZONE,10,13,12
India,Maharashtra,Kolhapur,"Shivaji University, Kolhapur - MPCB",27-07-2024 12:00:00,16.6870449,74.2505872,NO2,8,16,12
India,Maharashtra,Latur,"Sawe Wadi, Latur - MPCB",27-07-2024 12:00:00,18.39963,76.57452,PM10,32,69,48
India,Maharashtra,Latur,"Sawe Wadi, Latur - MPCB",27-07-2024 12:00:00,18.39963,76.57452,NH3,8,17,9
India,Maharashtra,Latur,"Sawe Wadi, Latur - MPCB",27-07-2024 12:00:00,18.39963,76.57452,SO2,1,5,4
India,Maharashtra,Latur,"Sawe Wadi, Latur - MPCB",27-07-2024 12:00:00,18.39963,76.57452,OZONE,14,38,18
India,Maharashtra,Mahad,"Kamble Tarf Birwadi, Mahad - MPCB",27-07-2024 12:00:00,18.1023399,73.4783687,NH3,2,3,3
India,Maharashtra,Mahad,"Kamble Tarf Birwadi, Mahad - MPCB",27-07-2024 12:00:00,18.1023399,73.4783687,CO,8,34,28
India,Maharashtra,Malegaon,"Mahesh Nagar, Malegaon - MPCB",27-07-2024 12:00:00,20.555712,74.529236,NH3,NA,NA,NA
India,Maharashtra,Malegaon,"Mahesh Nagar, Malegaon - MPCB",27-07-2024 12:00:00,20.555712,74.529236,SO2,NA,NA,NA
India,Maharashtra,Mira-Bhayandar,"Bhayandar West, Mira-Bhayandar - MPCB",27-07-2024 12:00:00,19.296481,72.840923,PM2.5,21,40,31
India,Maharashtra,Mira-Bhayandar,"Bhayandar West, Mira-Bhayandar - MPCB",27-07-2024 12:00:00,19.296481,72.840923,NH3,1,2,2
India,Maharashtra,Mumbai,"Bandra Kurla Complex, Mumbai - MPCB",27-07-2024 12:00:00,19.065931,72.862131,OZONE,4,20,16
India,Maharashtra,Mumbai,"Borivali East, Mumbai - IITM",27-07-2024 12:00:00,19.23241,72.86895,CO,44,77,59
India,Maharashtra,Mumbai,"Borivali East, Mumbai - MPCB",27-07-2024 12:00:00,19.2243333,72.8658113,CO,21,22,22
India,Maharashtra,Mumbai,"Byculla, Mumbai - BMC",27-07-2024 12:00:00,18.9767,72.8380,NO2,4,14,8
India,Maharashtra,Mumbai,"Chembur, Mumbai - MPCB",27-07-2024 12:00:00,19.0364585,72.8954371,OZONE,8,28,14
India,Maharashtra,Mumbai,"Chhatrapati Shivaji Intl. Airport (T2), Mumbai - MPCB",27-07-2024 12:00:00,19.10078,72.87462,PM2.5,20,45,32
India,Maharashtra,Mumbai,"Chhatrapati Shivaji Intl. Airport (T2), Mumbai - MPCB",27-07-2024 12:00:00,19.10078,72.87462,NO2,11,24,14
India,Maharashtra,Mumbai,"Chhatrapati Shivaji Intl. Airport (T2), Mumbai - MPCB",27-07-2024 12:00:00,19.10078,72.87462,NH3,1,1,1
India,Maharashtra,Mumbai,"Chhatrapati Shivaji Intl. Airport (T2), Mumbai - MPCB",27-07-2024 12:00:00,19.10078,72.87462,SO2,7,27,17
India,Maharashtra,Mumbai,"Colaba, Mumbai - MPCB",27-07-2024 12:00:00,18.910000,72.820000,NO2,20,21,20
India,Maharashtra,Mumbai,"Ghatkopar, Mumbai - BMC",27-07-2024 12:00:00,19.083694,72.920967,PM2.5,7,23,12
India,Maharashtra,Mumbai,"Ghatkopar, Mumbai - BMC",27-07-2024 12:00:00,19.083694,72.920967,NO2,2,13,8
India,Maharashtra,Mumbai,"Ghatkopar, Mumbai - BMC",27-07-2024 12:00:00,19.083694,72.920967,SO2,1,2,1
India,Maharashtra,Mumbai,"Kandivali East, Mumbai - MPCB",27-07-2024 12:00:00,19.205800,72.868200,NO2,NA,NA,NA
India,Maharashtra,Mumbai,"Kandivali West, Mumbai - BMC",27-07-2024 12:00:00,19.215859,72.831718,PM2.5,5,16,11
India,Maharashtra,Mumbai,"Kandivali West, Mumbai - BMC",27-07-2024 12:00:00,19.215859,72.831718,PM10,22,44,32
India,Maharashtra,Mumbai,"Kandivali West, Mumbai - BMC",27-07-2024 12:00:00,19.215859,72.831718,SO2,1,2,2
India,Maharashtra,Mumbai,"Kandivali West, Mumbai - BMC",27-07-2024 12:00:00,19.215859,72.831718,OZONE,10,16,14
India,Maharashtra,Mumbai,"Kherwadi_Bandra East, Mumbai - MPCB",27-07-2024 12:00:00,19.0632143,72.8456324,NO2,4,10,6
India,Maharashtra,Mumbai,"Kherwadi_Bandra East, Mumbai - MPCB",27-07-2024 12:00:00,19.0632143,72.8456324,SO2,3,3,3
India,Maharashtra,Mumbai,"Khindipada-Bhandup West, Mumbai - IITM",27-07-2024 12:00:00,19.1653323,72.922099,PM2.5,13,25,20
India,Maharashtra,Mumbai,"Khindipada-Bhandup West, Mumbai - IITM",27-07-2024 12:00:00,19.1653323,72.922099,NO2,3,7,5
India,Maharashtra,Mumbai,"Khindipada-Bhandup West, Mumbai - IITM",27-07-2024 12:00:00,19.1653323,72.922099,SO2,1,1,1
India,Maharashtra,Mumbai,"Kurla, Mumbai - MPCB",27-07-2024 12:00:00,19.0863,72.8888,PM2.5,14,46,29
India,Maharashtra,Mumbai,"Kurla, Mumbai - MPCB",27-07-2024 12:00:00,19.0863,72.8888,CO,2,12,3
India,Maharashtra,Mumbai,"Kurla, Mumbai - MPCB",27-07-2024 12:00:00,19.0863,72.8888,OZONE,28,29,28
India,Maharashtra,Mumbai,"Mindspace-Malad West, Mumbai - MPCB",27-07-2024 12:00:00,19.1878657,72.8304069,NO2,6,12,8
India,Maharashtra,Mumbai,"Mindspace-Malad West, Mumbai - MPCB",27-07-2024 12:00:00,19.1878657,72.8304069,OZONE,9,16,15
India,Maharashtra,Mumbai,"Mulund West, Mumbai - MPCB",27-07-2024 12:00:00,19.1750,72.9419,PM10,31,254,67
India,Maharashtra,Mumbai,"Mulund West, Mumbai - MPCB",27-07-2024 12:00:00,19.1750,72.9419,NO2,18,19,19
India,Maharashtra,Mumbai,"Navy Nagar-Colaba, Mumbai - IITM",27-07-2024 12:00:00,18.897756,72.813320,PM2.5,16,37,27
India,Maharashtra,Mumbai,"Navy Nagar-Colaba, Mumbai - IITM",27-07-2024 12:00:00,18.897756,72.813320,CO,20,28,24
India,Maharashtra,Mumbai,"Navy Nagar-Colaba, Mumbai - IITM",27-07-2024 12:00:00,18.897756,72.813320,OZONE,16,31,25
India,Maharashtra,Mumbai,"Powai, Mumbai - MPCB",27-07-2024 12:00:00,19.137500,72.915056,NO2,13,20,16
India,Maharashtra,Mumbai,"Powai, Mumbai - MPCB",27-07-2024 12:00:00,19.137500,72.915056,NH3,2,3,2
India,Maharashtra,Mumbai,"Powai, Mumbai - MPCB",27-07-2024 12:00:00,19.137500,72.915056,CO,16,20,17
India,Maharashtra,Mumbai,"Shivaji Nagar, Mumbai - BMC",27-07-2024 12:00:00,19.060498,72.923356,NO2,NA,NA,NA
India,Maharashtra,Mumbai,"Shivaji Nagar, Mumbai - BMC",27-07-2024 12:00:00,19.060498,72.923356,SO2,1,5,3
India,Maharashtra,Mumbai,"Shivaji Nagar, Mumbai - BMC",27-07-2024 12:00:00,19.060498,72.923356,CO,1,82,3
India,Maharashtra,Mumbai,"Siddharth Nagar-Worli, Mumbai - IITM",27-07-2024 12:00:00,19.000083,72.813993,PM10,NA,NA,NA
India,Maharashtra,Mumbai,"Sion, Mumbai - MPCB",27-07-2024 12:00:00,19.047000,72.874600,OZONE,17,20,19
India,Maharashtra,Mumbai,"Vasai West, Mumbai - MPCB",27-07-2024 12:00:00,19.383200,72.820400,NH3,NA,NA,NA
India,Maharashtra,Mumbai,"Vile Parle West, Mumbai - MPCB",27-07-2024 12:00:00,19.10861,72.83622,PM10,35,73,52
India,Maharashtra,Mumbai,"Vile Parle West, Mumbai - MPCB",27-07-2024 12:00:00,19.10861,72.83622,NO2,28,30,29
India,Maharashtra,Mumbai,"Vile Parle West, Mumbai - MPCB",27-07-2024 12:00:00,19.10861,72.83622,SO2,8,8,8
India,Maharashtra,Mumbai,"Worli, Mumbai - MPCB",27-07-2024 12:00:00,18.9936162,72.8128113,PM2.5,6,13,10
India,Maharashtra,Mumbai,"Worli, Mumbai - MPCB",27-07-2024 12:00:00,18.9936162,72.8128113,CO,54,57,54
India,Maharashtra,Nagpur,"Mahal, Nagpur - MPCB",27-07-2024 12:00:00,21.14472,79.107595,PM10,NA,NA,NA
India,Maharashtra,Nagpur,"Mahal, Nagpur - MPCB",27-07-2024 12:00:00,21.14472,79.107595,NH3,NA,NA,NA
India,Maharashtra,Nagpur,"Mahal, Nagpur - MPCB",27-07-2024 12:00:00,21.14472,79.107595,CO,NA,NA,NA
India,Maharashtra,Nagpur,"Opp GPO Civil Lines, Nagpur - MPCB",27-07-2024 12:00:00,21.152875,79.0517531,PM10,12,43,29
India,Maharashtra,Nagpur,"Opp GPO Civil Lines, Nagpur - MPCB",27-07-2024 12:00:00,21.152875,79.0517531,CO,8,51,18
India,Maharashtra,Nagpur,"Ram Nagar, Nagpur - MPCB",27-07-2024 12:00:00,21.143383,79.048912,NH3,1,3,2
India,Maharashtra,Nagpur,"Ram Nagar, Nagpur - MPCB",27-07-2024 12:00:00,21.143383,79.048912,SO2,3,12,9
India,Maharashtra,Nagpur,"Ram Nagar, Nagpur - MPCB",27-07-2024 12:00:00,21.143383,79.048912,OZONE,1,6,3
India,Maharashtra,Nanded,"Sneh Nagar, Nanded - MPCB",27-07-2024 12:00:00,19.173852,77.296291,OZONE,9,33,18
India,Maharashtra,Nashik,"Hirawadi, Nashik - MPCB",27-07-2024 12:00:00,20.021503,73.813844,PM2.5,38,57,49
India,Maharashtra,Nashik,"Hirawadi, Nashik - MPCB",27-07-2024 12:00:00,20.021503,73.813844,NO2,1,4,2
India,Maharashtra,Nashik,"MIDC Ambad, Nashik - MPCB",27-07-2024 12:00:00,19.950220,73.731480,NO2,5,10,7
India,Maharashtra,Nashik,"MIDC Ambad, Nashik - MPCB",27-07-2024 12:00:00,19.950220,73.731480,SO2,2,4,3
India,Maharashtra,Nashik,"MIDC Ambad, Nashik - MPCB",27-07-2024 12:00:00,19.950220,73.731480,OZONE,18,23,21
India,Maharashtra,Nashik,"Pandav Nagari, Nashik - MPCB",27-07-2024 12:00:00,19.9591346,73.7788008,SO2,2,6,4
India,Maharashtra,Nashik,"Pandav Nagari, Nashik - MPCB",27-07-2024 12:00:00,19.9591346,73.7788008,OZONE,19,27,23
India,Maharashtra,Navi Mumbai,"Kopripada-Vashi, Navi Mumbai - MPCB",27-07-2024 12:00:00,19.090337,73.014232,PM2.5,10,21,16
India,Maharashtra,Navi Mumbai,"Mahape, Navi Mumbai - MPCB",27-07-2024 12:00:00,19.1135051,73.008978,PM2.5,33,73,42
India,Maharashtra,Navi Mumbai,"Mahape, Navi Mumbai - MPCB",27-07-2024 12:00:00,19.1135051,73.008978,PM10,42,98,63
India,Maharashtra,Navi Mumbai,"Tondare-Taloja, Navi Mumbai - MPCB",27-07-2024 12:00:00,19.0630,73.1209,PM2.5,22,44,30
India,Maharashtra,Navi Mumbai,"Tondare-Taloja, Navi Mumbai - MPCB",27-07-2024 12:00:00,19.0630,73.1209,SO2,2,53,19
India,Maharashtra,Navi Mumbai,"Tondare-Taloja, Navi Mumbai - MPCB",27-07-2024 12:00:00,19.0630,73.1209,OZONE,22,23,22
India,Maharashtra,Parbhani,"Masoom Colony, Parbhani - MPCB",27-07-2024 12:00:00,19.265594,76.761463,NH3,NA,NA,NA
India,Maharashtra,Pimpri-Chinchwad,"Park Street Wakad, Pimpri Chinchwad - MPCB",27-07-2024 12:00:00,18.59051,73.77946,CO,6,25,13
India,Maharashtra,Pimpri-Chinchwad,"Park Street Wakad, Pimpri Chinchwad - MPCB",27-07-2024 12:00:00,18.59051,73.77946,OZONE,3,11,10
India,Maharashtra,Pune,"Hadapsar, Pune - IITM",27-07-2024 12:00:00,18.501793,73.927532,PM2.5,15,41,27
India,Maharashtra,Pune,"Karve Road, Pune - MPCB",27-07-2024 12:00:00,18.5011743,73.8165527,PM2.5,3,470,34
India,Maharashtra,Pune,"Karve Road, Pune - MPCB",27-07-2024 12:00:00,18.5011743,73.8165527,OZONE,3,32,12
India,Maharashtra,Pune,"Katraj Dairy, Pune - MPCB",27-07-2024 12:00:00,18.454450,73.854155,OZONE,37,38,38
India,Maharashtra,Pune,"Mhada Colony, Pune - IITM",27-07-2024 12:00:00,18.573040,73.927715,PM2.5,30,56,40
India,Maharashtra,Pune,"Mhada Colony, Pune - IITM",27-07-2024 12:00:00,18.573040,73.927715,PM10,25,41,31
India,Maharashtra,Pune,"Panchawati_Pashan, Pune - IITM",27-07-2024 12:00:00,18.536457,73.805454,PM10,NA,NA,NA
India,Maharashtra,Pune,"Panchawati_Pashan, Pune - IITM",27-07-2024 12:00:00,18.536457,73.805454,CO,NA,NA,NA
India,Maharashtra,Pune,"Panchawati_Pashan, Pune - IITM",27-07-2024 12:00:00,18.536457,73.805454,OZONE,NA,NA,NA
India,Maharashtra,Pune,"Revenue Colony-Shivajinagar, Pune - IITM",27-07-2024 12:00:00,18.530085,73.849598,PM10,24,52,37
India,Maharashtra,Pune,"Revenue Colony-Shivajinagar, Pune - IITM",27-07-2024 12:00:00,18.530085,73.849598,NO2,16,31,24
India,Maharashtra,Pune,"Revenue Colony-Shivajinagar, Pune - IITM",27-07-2024 12:00:00,18.530085,73.849598,SO2,11,21,16
India,Maharashtra,Pune,"Revenue Colony-Shivajinagar, Pune - IITM",27-07-2024 12:00:00,18.530085,73.849598,CO,13,29,21
India,Maharashtra,Pune,"Savitribai Phule Pune University, Pune - MPCB",27-07-2024 12:00:00,18.547056,73.826908,SO2,3,13,4
India,Maharashtra,Sangli,"Vijay Nagar, Sangli - MPCB",27-07-2024 12:00:00, 16.5038,74.3623,NO2,2,13,5
India,Maharashtra,Solapur,"Dnyaneshwar Nagar, Solapur - MPCB",27-07-2024 12:00:00,17.6336264,75.9132495,PM10,26,53,39
India,Maharashtra,Solapur,"Dnyaneshwar Nagar, Solapur - MPCB",27-07-2024 12:00:00,17.6336264,75.9132495,NH3,5,11,7
India,Maharashtra,Solapur,"Ratandeep Housing Society, Solapur - MPCB",27-07-2024 12:00:00,17.65439,75.90649,CO,9,40,22
India,Maharashtra,Solapur,"Ratandeep Housing Society, Solapur - MPCB",27-07-2024 12:00:00,17.65439,75.90649,OZONE,10,29,14
India,Maharashtra,Thane,"Pimpleshwar Mandir, Thane - MPCB",27-07-2024 12:00:00,19.192056,72.9585188,PM10,40,41,40
India,Maharashtra,Thane,"Pimpleshwar Mandir, Thane - MPCB",27-07-2024 12:00:00,19.192056,72.9585188,NH3,3,4,4
India,Maharashtra,Thane,"Pimpleshwar Mandir, Thane - MPCB",27-07-2024 12:00:00,19.192056,72.9585188,OZONE,13,19,17
India,Maharashtra,Ulhasnagar,"Sidhi Vinayak Nagar, Ulhasnagar - MPCB",27-07-2024 12:00:00,19.235581,73.159121,PM10,62,76,70
India,Maharashtra,Ulhasnagar,"Sidhi Vinayak Nagar, Ulhasnagar - MPCB",27-07-2024 12:00:00,19.235581,73.159121,CO,16,41,24
India,Maharashtra,Virar,"Bolinj, Virar - MPCB",27-07-2024 12:00:00,19.4458210,72.7988231,CO,7,64,40
India,Manipur,Imphal,"DM College of Science, Imphal - Manipur PCB",27-07-2024 12:00:00,24.8207389,93.9423085,NO2,7,8,7
India,Manipur,Imphal,"DM College of Science, Imphal - Manipur PCB",27-07-2024 12:00:00,24.8207389,93.9423085,SO2,100,101,101
India,Meghalaya,Shillong,"Lumpyngngad, Shillong - Meghalaya PCB",27-07-2024 12:00:00,25.5586,91.8985,NO2,1,2,1
India,Mizoram,Aizawl,"Sikulpuikawn, Aizawl - Mizoram PCB",27-07-2024 12:00:00,23.7176342,92.7192841,PM10,3,42,18
India,Mizoram,Aizawl,"Sikulpuikawn, Aizawl - Mizoram PCB",27-07-2024 12:00:00,23.7176342,92.7192841,OZONE,2,6,3
India,Nagaland,Kohima,"PWD Juction, Kohima - NPCB",27-07-2024 12:00:00,25.6635413,94.0989878,PM2.5,3,22,14
India,Nagaland,Kohima,"PWD Juction, Kohima - NPCB",27-07-2024 12:00:00,25.6635413,94.0989878,PM10,9,22,16
India,Nagaland,Kohima,"PWD Juction, Kohima - NPCB",27-07-2024 12:00:00,25.6635413,94.0989878,OZONE,4,11,6
India,Odisha,Angul,"Hakimapada, Angul - OSPCB",27-07-2024 12:00:00,20.832874,85.104082,NO2,5,15,8
India,Odisha,Balasore,"Kalidaspur, Balasore - OSPCB",27-07-2024 12:00:00,21.51161,86.89088,NO2,5,29,11
India,Odisha,Baripada,"Meher Colony, Baripada - OSPCB",27-07-2024 12:00:00,21.941841,86.728318,SO2,10,11,11
India,Odisha,Baripada,"Meher Colony, Baripada - OSPCB",27-07-2024 12:00:00,21.941841,86.728318,OZONE,46,94,66
India,Odisha,Bhubaneswar,"Lingraj Mandir, Bhubaneswar - OSPCB",27-07-2024 12:00:00,20.240790,85.836784,NH3,4,5,4
India,Odisha,Bhubaneswar,"Lingraj Mandir, Bhubaneswar - OSPCB",27-07-2024 12:00:00,20.240790,85.836784,OZONE,16,41,27
India,Odisha,Bhubaneswar,"Patia, Bhubaneswar - OSPCB",27-07-2024 12:00:00,20.34652,85.81630,NO2,4,10,7
India,Odisha,Bhubaneswar,"Patia, Bhubaneswar - OSPCB",27-07-2024 12:00:00,20.34652,85.81630,SO2,1,3,2
India,Odisha,Bileipada,"Tata Township, Bileipada - OSPCB",27-07-2024 12:00:00,22.06156703,85.47409613,OZONE,24,25,25
India,Odisha,Brajrajnagar,"GM Office, Brajrajnagar - OSPCB",27-07-2024 12:00:00,21.8004996,83.8396977,NH3,19,21,20
India,Odisha,Brajrajnagar,"GM Office, Brajrajnagar - OSPCB",27-07-2024 12:00:00,21.8004996,83.8396977,SO2,22,23,23
India,Odisha,Byasanagar,"Ferro Chrome Colony, Byasanagar - OSPCB",27-07-2024 12:00:00,20.94185,86.11510,SO2,7,83,30
India,Odisha,Byasanagar,"Ferro Chrome Colony, Byasanagar - OSPCB",27-07-2024 12:00:00,20.94185,86.11510,CO,8,24,17
India,Odisha,Cuttack,"CDA Area, Cuttack - OSPCB",27-07-2024 12:00:00,20.48891     ,85.84768     ,PM10,6,89,30
India,Odisha,Cuttack,"CDA Area, Cuttack - OSPCB",27-07-2024 12:00:00,20.48891     ,85.84768     ,NO2,7,17,10
India,Odisha,Rairangpur,"Divisional Forest Office, Rairangpur - OSPCB",27-07-2024 12:00:00,22.265816,86.174829,NH3,NA,NA,NA
India,Odisha,Rairangpur,"Divisional Forest Office, Rairangpur - OSPCB",27-07-2024 12:00:00,22.265816,86.174829,OZONE,NA,NA,NA
India,Odisha,Rourkela,"Raghunathpali, Rourkela - OSPCB",27-07-2024 12:00:00,22.220833,84.809444,NH3,1,2,1
India,Odisha,Rourkela,"Raghunathpali, Rourkela - OSPCB",27-07-2024 12:00:00,22.220833,84.809444,OZONE,11,16,13
India,Odisha,Rourkela,"Sector-2, Rourkela - OSPCB",27-07-2024 12:00:00,22.24500000,84.88111111,PM2.5,14,107,55
India,Odisha,Suakati,"OMC Colony, Suakati - OSPCB",27-07-2024 12:00:00,21.606865,85.510538,PM10,20,43,29
India,Odisha,Suakati,"OMC Colony, Suakati - OSPCB",27-07-2024 12:00:00,21.606865,85.510538,CO,6,10,7
India,Odisha,Talcher,"Talcher Coalfields,Talcher - OSPCB",27-07-2024 12:00:00,20.9360711,85.1707021,SO2,19,24,21
India,Odisha,Tensa,"Barsua Iron Ore Mines, Tensa - OSPCB",27-07-2024 12:00:00,21.869985,85.167016,PM2.5,NA,NA,NA
India,Puducherry,Puducherry,"Jawahar Nagar, Puducherry - PPCC",27-07-2024 12:00:00,11.9309,79.8027,NO2,6,35,14
India,Puducherry,Puducherry,"Jawahar Nagar, Puducherry - PPCC",27-07-2024 12:00:00,11.9309,79.8027,NH3,3,5,4
India,Punjab,Amritsar,"Golden Temple, Amritsar - PPCB",27-07-2024 12:00:00,31.620000,74.876512,PM2.5,29,60,37
India,Punjab,Amritsar,"Golden Temple, Amritsar - PPCB",27-07-2024 12:00:00,31.620000,74.876512,PM10,36,140,66
India,Punjab,Bathinda,"Hardev Nagar, Bathinda - PPCB",27-07-2024 12:00:00,30.233011,74.907758,SO2,2,60,13
India,Punjab,Jalandhar,"Civil Line, Jalandhar - PPCB",27-07-2024 12:00:00,31.321907,75.578914,NH3,1,2,1
India,Punjab,Jalandhar,"Civil Line, Jalandhar - PPCB",27-07-2024 12:00:00,31.321907,75.578914,SO2,12,21,15
India,Punjab,Ludhiana,"Punjab Agricultural University, Ludhiana - PPCB",27-07-2024 12:00:00,30.9028,75.8086,SO2,5,13,8
India,Punjab,Ludhiana,"Punjab Agricultural University, Ludhiana - PPCB",27-07-2024 12:00:00,30.9028,75.8086,OZONE,8,25,19
India,Punjab,Mandi Gobindgarh,"RIMT University, Mandi Gobindgarh - PPCB",27-07-2024 12:00:00,30.649961,76.331442,NO2,28,30,30
India,Punjab,Patiala,"Model Town, Patiala - PPCB",27-07-2024 12:00:00,30.349388,76.366642,NH3,4,5,4
India,Punjab,Patiala,"Model Town, Patiala - PPCB",27-07-2024 12:00:00,30.349388,76.366642,OZONE,37,81,41
India,Punjab,Rupnagar,"Ratanpura, Rupnagar - Ambuja Cements",27-07-2024 12:00:00,31.0325454,76.5623046,PM10,51,100,69
India,Rajasthan,Alwar,"Moti Doongri, Alwar - RSPCB",27-07-2024 12:00:00,27.554793,76.611536,PM10,59,126,87
India,Rajasthan,Banswara,"Rati Talai, Banswara - RSPCB",27-07-2024 12:00:00,23.555190,74.440010,SO2,26,57,28
India,Rajasthan,Baran,"Bamboliya, Baran - RSPCB",27-07-2024 12:00:00,25.106006,76.469948,CO,15,26,18
India,Rajasthan,Bharatpur,"Krishna Nagar, Bharatpur - RSPCB",27-07-2024 12:00:00,27.215415,77.50873,OZONE,30,293,68
India,Rajasthan,Bhiwadi,"RIICO Ind. Area III, Bhiwadi - RSPCB",27-07-2024 12:00:00,28.194909,76.862296,SO2,5,14,10
India,Rajasthan,Bikaner,"MM Ground, Bikaner - RSPCB",27-07-2024 12:00:00,28.018792,73.292658,SO2,1,5,2
India,Rajasthan,Bundi,"New Colony, Bundi - RSPCB",27-07-2024 12:00:00,25.435774,75.644272,NH3,2,3,2
India,Rajasthan,Chittorgarh,"Shastri Nagar, Chittorgarh - RSPCB",27-07-2024 12:00:00,24.892047,74.623527,NH3,2,10,6
India,Rajasthan,Churu,"Subash Chowk, Churu - RSPCB",27-07-2024 12:00:00,28.296139,74.961696,SO2,2,5,3
India,Rajasthan,Dholpur,"Raja Ganj, Dholpur - RSPCB",27-07-2024 12:00:00,26.699557,77.898881,PM2.5,NA,NA,NA
India,Rajasthan,Dholpur,"Raja Ganj, Dholpur - RSPCB",27-07-2024 12:00:00,26.699557,77.898881,NO2,NA,NA,NA
India,Rajasthan,Dholpur,"Raja Ganj, Dholpur - RSPCB",27-07-2024 12:00:00,26.699557,77.898881,OZONE,74,89,82
India,Rajasthan,Dungarpur,"Bhoiwada, Dungarpur - RSPCB",27-07-2024 12:00:00,23.837789,73.714926,SO2,4,18,15
India,Rajasthan,Hanumangarh,"Housing Board, Hanumangarh - RSPCB",27-07-2024 12:00:00,29.610750,74.283608,PM2.5,8,57,27
India,Rajasthan,Jaipur,"Adarsh Nagar, Jaipur - RSPCB",27-07-2024 12:00:00,26.902909,75.836858,PM2.5,29,114,66
India,Rajasthan,Jaipur,"Adarsh Nagar, Jaipur - RSPCB",27-07-2024 12:00:00,26.902909,75.836858,PM10,43,97,72
India,Rajasthan,Jaipur,"Adarsh Nagar, Jaipur - RSPCB",27-07-2024 12:00:00,26.902909,75.836858,NH3,10,27,17
India,Rajasthan,Jaipur,"Adarsh Nagar, Jaipur - RSPCB",27-07-2024 12:00:00,26.902909,75.836858,SO2,7,26,16
India,Rajasthan,Jaipur,"Mansarovar Sector-12, Jaipur - RSPCB",27-07-2024 12:00:00,26.843698,75.766894,PM2.5,47,94,66
India,Rajasthan,Jaipur,"Mansarovar Sector-12, Jaipur - RSPCB",27-07-2024 12:00:00,26.843698,75.766894,NH3,1,3,2
India,Rajasthan,Jaipur,"Police Commissionerate, Jaipur - RSPCB",27-07-2024 12:00:00,26.9164092,75.7994901,PM2.5,44,93,69
India,Rajasthan,Jaipur,"Police Commissionerate, Jaipur - RSPCB",27-07-2024 12:00:00,26.9164092,75.7994901,CO,26,94,46
India,Rajasthan,Jaipur,"RIICO Sitapura, Jaipur - RSPCB",27-07-2024 12:00:00,26.786682,75.827928,PM10,42,86,58
India,Rajasthan,Jaipur,"RIICO Sitapura, Jaipur - RSPCB",27-07-2024 12:00:00,26.786682,75.827928,SO2,2,2,2
India,Rajasthan,Jaipur,"RIICO Sitapura, Jaipur - RSPCB",27-07-2024 12:00:00,26.786682,75.827928,CO,18,98,31
India,Rajasthan,Jaipur,"RIICO Sitapura, Jaipur - RSPCB",27-07-2024 12:00:00,26.786682,75.827928,OZONE,25,126,36
India,Rajasthan,Jaipur,"Sector-2 Murlipura, Jaipur - RSPCB",27-07-2024 12:00:00,26.960669,75.771817,PM2.5,25,85,46
India,Rajasthan,Jaipur,"Sector-2 Murlipura, Jaipur - RSPCB",27-07-2024 12:00:00,26.960669,75.771817,NH3,1,9,3
India,Rajasthan,Jalore,"Mudtra Sili, Jalore - RSPCB",27-07-2024 12:00:00,25.344694,72.626208,PM10,75,111,94
India,Rajasthan,Jhunjhunu,"Indra Nagar, Jhunjhunu - RSPCB",27-07-2024 12:00:00,28.108988,75.386577,PM10,51,136,84
India,Rajasthan,Jhunjhunu,"Indra Nagar, Jhunjhunu - RSPCB",27-07-2024 12:00:00,28.108988,75.386577,NO2,12,22,17
India,Rajasthan,Jhunjhunu,"Indra Nagar, Jhunjhunu - RSPCB",27-07-2024 12:00:00,28.108988,75.386577,SO2,2,6,4
India,Rajasthan,Jhunjhunu,"Indra Nagar, Jhunjhunu - RSPCB",27-07-2024 12:00:00,28.108988,75.386577,CO,2,101,46
India,Rajasthan,Jodhpur,"Samrat Ashok Udhyan, Jodhpur - RSPCB",27-07-2024 12:00:00,26.253384,72.976571,PM2.5,23,45,34
India,Rajasthan,Jodhpur,"Samrat Ashok Udhyan, Jodhpur - RSPCB",27-07-2024 12:00:00,26.253384,72.976571,SO2,4,7,5
India,Rajasthan,Kota,"Dhanmandi, Kota - RSPCB",27-07-2024 12:00:00,25.164090,75.858137,PM2.5,6,53,32
India,Rajasthan,Kota,"Shrinath Puram, Kota - RSPCB",27-07-2024 12:00:00,25.14389,75.821256,PM10,36,318,97
India,Rajasthan,Kota,"Shrinath Puram, Kota - RSPCB",27-07-2024 12:00:00,25.14389,75.821256,NH3,1,7,4
India,Rajasthan,Nagaur,"Karni Colony, Nagaur - RSPCB",27-07-2024 12:00:00,27.213494,73.734444,PM10,62,114,93
India,Rajasthan,Nagaur,"Karni Colony, Nagaur - RSPCB",27-07-2024 12:00:00,27.213494,73.734444,OZONE,15,61,38
India,Rajasthan,Pali,"Indira Colony Vistar, Pali - RSPCB",27-07-2024 12:00:00,25.771061, 73.340227,PM2.5,16,145,80
India,Rajasthan,Pratapgarh,"Pragati Nagar, Pratapgarh - RSPCB",27-07-2024 12:00:00,24.041198,74.780702,NH3,3,4,3
India,Rajasthan,Pratapgarh,"Pragati Nagar, Pratapgarh - RSPCB",27-07-2024 12:00:00,24.041198,74.780702,SO2,2,5,3
India,Rajasthan,Pratapgarh,"Pragati Nagar, Pratapgarh - RSPCB",27-07-2024 12:00:00,24.041198,74.780702,OZONE,21,39,24
India,Rajasthan,Rajsamand,"Dhoinda, Rajsamand - RSPCB",27-07-2024 12:00:00,25.036360,73.883502,NO2,8,19,11
India,Rajasthan,Sawai Madhopur,"Sahu Nagar, Sawai Madhopur - RSPCB",27-07-2024 12:00:00,26.031443,76.359327,PM2.5,NA,NA,NA
India,Rajasthan,Sawai Madhopur,"Sahu Nagar, Sawai Madhopur - RSPCB",27-07-2024 12:00:00,26.031443,76.359327,NO2,1,15,3
India,Rajasthan,Sikar,"Radhakishan Pura, Sikar - RSPCB",27-07-2024 12:00:00,27.608912,75.153302,SO2,1,2,1
India,Rajasthan,Sikar,"Radhakishan Pura, Sikar - RSPCB",27-07-2024 12:00:00,27.608912,75.153302,CO,2,22,7
India,Rajasthan,Sirohi,"Vedhaynath Colony, Sirohi - RSPCB",27-07-2024 12:00:00,24.885261,72.857549,SO2,1,8,6
India,Rajasthan,Sri Ganganagar,"Old City, Sri Ganganagar - RSPCB",27-07-2024 12:00:00,29.931624,73.864511,NO2,5,84,23
India,Rajasthan,Sri Ganganagar,"Old City, Sri Ganganagar - RSPCB",27-07-2024 12:00:00,29.931624,73.864511,OZONE,18,85,46
India,Rajasthan,Tonk,"Shastri Nagar, Tonk - RSPCB",27-07-2024 12:00:00,26.159933,75.780517,PM10,15,60,31
India,Rajasthan,Tonk,"Shastri Nagar, Tonk - RSPCB",27-07-2024 12:00:00,26.159933,75.780517,OZONE,43,87,49
India,Sikkim,Gangtok,"Zero Point GICI, Gangtok - SSPCB",27-07-2024 12:00:00,27.338530,88.614099,NH3,1,1,1
India,Sikkim,Gangtok,"Zero Point GICI, Gangtok - SSPCB",27-07-2024 12:00:00,27.338530,88.614099,SO2,12,13,13
India,TamilNadu,Chennai,"Alandur Bus Depot, Chennai - CPCB",27-07-2024 12:00:00,12.9099161,80.1076538,PM2.5,23,496,131
India,TamilNadu,Chennai,"Alandur Bus Depot, Chennai - CPCB",27-07-2024 12:00:00,12.9099161,80.1076538,NO2,6,73,13
India,TamilNadu,Chennai,"Alandur Bus Depot, Chennai - CPCB",27-07-2024 12:00:00,12.9099161,80.1076538,SO2,1,4,2
India,TamilNadu,Chennai,"Alandur Bus Depot, Chennai - CPCB",27-07-2024 12:00:00,12.9099161,80.1076538,CO,59,64,62
India,TamilNadu,Chennai,"Alandur Bus Depot, Chennai - CPCB",27-07-2024 12:00:00,12.9099161,80.1076538,OZONE,1,7,6
India,TamilNadu,Chennai,"Arumbakkam, Chennai - TNPCB",27-07-2024 12:00:00,13.0664,80.2112 ,PM2.5,NA,NA,NA
India,TamilNadu,Chennai,"Perungudi, Chennai - TNPCB",27-07-2024 12:00:00,12.9533,80.2357,PM10,23,141,67
India,TamilNadu,Chennai,"Perungudi, Chennai - TNPCB",27-07-2024 12:00:00,12.9533,80.2357,CO,28,36,30
India,TamilNadu,Chennai,"Royapuram, Chennai - TNPCB",27-07-2024 12:00:00,13.1036,80.2909,CO,21,76,38
India,TamilNadu,Chennai,"Velachery Res. Area, Chennai - CPCB",27-07-2024 12:00:00,13.0052189,80.2398125,CO,55,56,55
India,TamilNadu,Coimbatore,"PSG College of Arts and Science, Coimbatore - TNPCB",27-07-2024 12:00:00,11.0328,77.0349,PM10,19,46,32
India,TamilNadu,Coimbatore,"PSG College of Arts and Science, Coimbatore - TNPCB",27-07-2024 12:00:00,11.0328,77.0349,NH3,2,2,2
India,TamilNadu,Cuddalore,"Semmandalam, Cuddalore - TNPCB",27-07-2024 12:00:00,11.7637683,79.7499835,PM2.5,7,28,16
India,TamilNadu,Cuddalore,"Semmandalam, Cuddalore - TNPCB",27-07-2024 12:00:00,11.7637683,79.7499835,PM10,5,21,12
India,TamilNadu,Cuddalore,"Semmandalam, Cuddalore - TNPCB",27-07-2024 12:00:00,11.7637683,79.7499835,OZONE,1,2,2
India,TamilNadu,Gummidipoondi,"Anthoni Pillai Nagar, Gummidipoondi - TNPCB",27-07-2024 12:00:00,13.4127,80.1081,NO2,12,24,18
India,TamilNadu,Ooty,"Bombay Castel, Ooty - TNPCB",27-07-2024 12:00:00,11.4068288,76.7138973,NO2,NA,NA,NA
India,TamilNadu,Palkalaiperur,"Bharathidasan University, Palkalaiperur - TNPCB",27-07-2024 12:00:00,10.681158,78.741746,PM10,10,39,20
India,TamilNadu,Ramanathapuram,"Chalai Bazaar, Ramanathapuram - TNPCB",27-07-2024 12:00:00,9.36399,78.831977,OZONE,13,14,14
India,TamilNadu,Thoothukudi,"Meelavittan, Thoothukudi - TNPCB",27-07-2024 12:00:00,8.816428 ,78.099039,NO2,18,27,22
India,TamilNadu,Vellore,"Vasanthapuram, Vellore - TNPCB",27-07-2024 12:00:00,12.909494,79.131861,PM2.5,NA,NA,NA
India,TamilNadu,Vellore,"Vasanthapuram, Vellore - TNPCB",27-07-2024 12:00:00,12.909494,79.131861,PM10,13,54,32
India,TamilNadu,Vellore,"Vasanthapuram, Vellore - TNPCB",27-07-2024 12:00:00,12.909494,79.131861,SO2,NA,NA,NA
India,TamilNadu,Virudhunagar,"Collectorate Office, Virudhunagar - TNPCB",27-07-2024 12:00:00,9.559382,77.948828,NH3,NA,NA,NA
India,Telangana,Hyderabad,"Bollaram Industrial Area, Hyderabad - TSPCB",27-07-2024 12:00:00,17.540891,78.358528,NH3,2,4,3
India,Telangana,Hyderabad,"Central University, Hyderabad - TSPCB",27-07-2024 12:00:00,17.460103,78.334361,NO2,15,38,24
India,Telangana,Hyderabad,"Central University, Hyderabad - TSPCB",27-07-2024 12:00:00,17.460103,78.334361,SO2,4,11,7
India,Telangana,Hyderabad,"Central University, Hyderabad - TSPCB",27-07-2024 12:00:00,17.460103,78.334361,OZONE,3,4,4
India,Telangana,Hyderabad,"ECIL Kapra, Hyderabad - TSPCB",27-07-2024 12:00:00,17.470431,78.566959,OZONE,16,27,19
India,Telangana,Hyderabad,"ICRISAT Patancheru, Hyderabad - TSPCB",27-07-2024 12:00:00,17.518400,78.278777,PM10,6,39,22
India,Telangana,Hyderabad,"IDA Pashamylaram, Hyderabad - TSPCB",27-07-2024 12:00:00,17.5316895,78.218939,NH3,1,2,1
India,Telangana,Hyderabad,"IDA Pashamylaram, Hyderabad - TSPCB",27-07-2024 12:00:00,17.5316895,78.218939,SO2,1,15,7
India,Telangana,Hyderabad,"IDA Pashamylaram, Hyderabad - TSPCB",27-07-2024 12:00:00,17.5316895,78.218939,OZONE,5,15,6
India,Telangana,Hyderabad,"Kokapet, Hyderabad - TSPCB",27-07-2024 12:00:00,17.393559,78.339194,CO,20,32,20
India,Telangana,Hyderabad,"Kompally Municipal Office, Hyderabad - TSPCB",27-07-2024 12:00:00,17.544899,78.486949,SO2,5,13,9
India,Telangana,Hyderabad,"New Malakpet, Hyderabad - TSPCB",27-07-2024 12:00:00,17.37206,78.50864,NO2,7,22,14
India,Telangana,Hyderabad,"Somajiguda, Hyderabad - TSPCB",27-07-2024 12:00:00,17.417094,78.457437,PM2.5,37,94,57
India,Telangana,Hyderabad,"Somajiguda, Hyderabad - TSPCB",27-07-2024 12:00:00,17.417094,78.457437,PM10,62,78,69
India,Telangana,Hyderabad,"Zoo Park, Hyderabad - TSPCB",27-07-2024 12:00:00,17.349694,78.451437,OZONE,16,24,17
India,Uttar_Pradesh,Agra,"Rohta, Agra - UPPCB",27-07-2024 12:00:00,27.106972,78.000111,OZONE,8,8,8
India,Uttar_Pradesh,Agra,"Sanjay Palace, Agra - UPPCB",27-07-2024 12:00:00,27.19865833,78.00598056,NO2,2,6,4
India,Uttar_Pradesh,Agra,"Sector-3B Avas Vikas Colony, Agra - UPPCB",27-07-2024 12:00:00,27.19412,77.96237,NO2,17,21,21
India,Uttar_Pradesh,Agra,"Sector-3B Avas Vikas Colony, Agra - UPPCB",27-07-2024 12:00:00,27.19412,77.96237,CO,8,14,10
India,Uttar_Pradesh,Agra,"Shahjahan Garden, Agra - UPPCB",27-07-2024 12:00:00,27.169338,78.03582,OZONE,1,89,1
India,Uttar_Pradesh,Agra,"Shastripuram, Agra - UPPCB",27-07-2024 12:00:00,27.19862,77.92066,PM2.5,3,32,19
India,Uttar_Pradesh,Agra,"Shastripuram, Agra - UPPCB",27-07-2024 12:00:00,27.19862,77.92066,SO2,16,18,17
India,Uttar_Pradesh,Baghpat,"Sardar Patel Inter College, Baghpat - UPPCB",27-07-2024 12:00:00,28.964949,77.278761,SO2,13,23,19
India,Uttar_Pradesh,Bareilly,"Rajendra Nagar, Bareilly - UPPCB",27-07-2024 12:00:00,28.38910936,79.42963708,PM2.5,6,10,8
India,Uttar_Pradesh,Bareilly,"Rajendra Nagar, Bareilly - UPPCB",27-07-2024 12:00:00,28.38910936,79.42963708,PM10,10,19,13
India,Uttar_Pradesh,Bulandshahr,"Yamunapuram, Bulandshahr - UPPCB",27-07-2024 12:00:00,28.406963,77.849831,PM10,11,82,47
India,Uttar_Pradesh,Bulandshahr,"Yamunapuram, Bulandshahr - UPPCB",27-07-2024 12:00:00,28.406963,77.849831,SO2,1,14,6
India,Uttar_Pradesh,Firozabad,"Nagla Bhau, Firozabad - UPPCB",27-07-2024 12:00:00,27.168897,78.376960,PM10,23,42,29
India,Uttar_Pradesh,Firozabad,"Nagla Bhau, Firozabad - UPPCB",27-07-2024 12:00:00,27.168897,78.376960,NO2,17,17,17
India,Uttar_Pradesh,Firozabad,"Vibhab Nagar, Firozabad - UPPCB",27-07-2024 12:00:00,27.1594,78.3953,PM10,NA,NA,NA
India,Uttar_Pradesh,Ghaziabad,"Indirapuram, Ghaziabad - UPPCB",27-07-2024 12:00:00,28.646233,77.358075,SO2,15,22,19
India,Uttar_Pradesh,Ghaziabad,"Sanjay Nagar, Ghaziabad - UPPCB",27-07-2024 12:00:00,28.685382,77.453839,NO2,13,81,36
India,Uttar_Pradesh,Ghaziabad,"Vasundhara, Ghaziabad - UPPCB",27-07-2024 12:00:00,28.6603346,77.3572563,PM2.5,37,161,87
India,Uttar_Pradesh,Ghaziabad,"Vasundhara, Ghaziabad - UPPCB",27-07-2024 12:00:00,28.6603346,77.3572563,NO2,22,51,31
India,Uttar_Pradesh,Ghaziabad,"Vasundhara, Ghaziabad - UPPCB",27-07-2024 12:00:00,28.6603346,77.3572563,OZONE,31,35,32
India,Uttar_Pradesh,Greater Noida,"Knowledge Park - III, Greater Noida - UPPCB",27-07-2024 12:00:00,28.47272,77.482000,NO2,14,99,37
India,Uttar_Pradesh,Greater Noida,"Knowledge Park - III, Greater Noida - UPPCB",27-07-2024 12:00:00,28.47272,77.482000,NH3,8,20,12
India,Uttar_Pradesh,Greater Noida,"Knowledge Park - V, Greater Noida - UPPCB",27-07-2024 12:00:00,28.557054,77.453663,NH3,4,6,4
India,Uttar_Pradesh,Greater Noida,"Knowledge Park - V, Greater Noida - UPPCB",27-07-2024 12:00:00,28.557054,77.453663,SO2,6,17,10
India,Uttar_Pradesh,Hapur,"Anand Vihar, Hapur - UPPCB",27-07-2024 12:00:00,28.725645,77.749675,NO2,10,33,20
India,Uttar_Pradesh,Hapur,"Anand Vihar, Hapur - UPPCB",27-07-2024 12:00:00,28.725645,77.749675,CO,45,65,47
India,Uttar_Pradesh,Kanpur,"NSI Kalyanpur, Kanpur - UPPCB",27-07-2024 12:00:00,26.509954,80.249612,CO,31,48,36
India,Uttar_Pradesh,Kanpur,"NSI Kalyanpur, Kanpur - UPPCB",27-07-2024 12:00:00,26.509954,80.249612,OZONE,23,143,42
India,Uttar_Pradesh,Kanpur,"Nehru Nagar, Kanpur - UPPCB",27-07-2024 12:00:00,26.4703136,80.3229863,SO2,4,11,8
India,Uttar_Pradesh,Khurja,"Kalindi Kunj, Khurja - UPPCB",27-07-2024 12:00:00,28.2348927,77.8683002,CO,22,28,23
India,Uttar_Pradesh,Lucknow,"B R Ambedkar University, Lucknow - UPPCB",27-07-2024 12:00:00,26.766433,80.927299,NO2,6,7,7
India,Uttar_Pradesh,Lucknow,"B R Ambedkar University, Lucknow - UPPCB",27-07-2024 12:00:00,26.766433,80.927299,CO,8,13,11
India,Uttar_Pradesh,Lucknow,"Gomti Nagar, Lucknow - UPPCB",27-07-2024 12:00:00,26.868120,81.005119,PM2.5,34,80,58
India,Uttar_Pradesh,Lucknow,"Kukrail Picnic Spot-1, Lucknow - UPPCB",27-07-2024 12:00:00,26.90723,80.98579,PM2.5,19,42,29
India,Uttar_Pradesh,Lucknow,"Kukrail Picnic Spot-1, Lucknow - UPPCB",27-07-2024 12:00:00,26.90723,80.98579,NO2,19,20,19
India,Uttar_Pradesh,Lucknow,"Kukrail Picnic Spot-1, Lucknow - UPPCB",27-07-2024 12:00:00,26.90723,80.98579,NH3,3,3,3
India,Uttar_Pradesh,Lucknow,"Lalbagh, Lucknow - CPCB",27-07-2024 12:00:00,26.8458805,80.9365541,SO2,2,11,5
India,Uttar_Pradesh,Lucknow,"Talkatora District Industries Center, Lucknow - CPCB",27-07-2024 12:00:00,26.83399722,80.8917361,PM2.5,20,88,54
India,Uttar_Pradesh,Lucknow,"Talkatora District Industries Center, Lucknow - CPCB",27-07-2024 12:00:00,26.83399722,80.8917361,PM10,65,110,91
India,Uttar_Pradesh,Meerut,"Jai Bhim Nagar, Meerut - UPPCB",27-07-2024 12:00:00,28.9535882,77.7622941,CO,20,34,23
India,Uttar_Pradesh,Meerut,"Pallavpuram Phase 2, Meerut - UPPCB",27-07-2024 12:00:00,29.063510,77.709723,SO2,5,61,12
India,Uttar_Pradesh,Meerut,"Pallavpuram Phase 2, Meerut - UPPCB",27-07-2024 12:00:00,29.063510,77.709723,OZONE,1,32,5
India,Uttar_Pradesh,Moradabad,"Buddhi Vihar, Moradabad - UPPCB",27-07-2024 12:00:00,28.83526,78.74460,PM10,17,47,31
India,Uttar_Pradesh,Moradabad,"Buddhi Vihar, Moradabad - UPPCB",27-07-2024 12:00:00,28.83526,78.74460,SO2,17,23,19
India,Uttar_Pradesh,Moradabad,"Eco Herbal Park, Moradabad - UPPCB",27-07-2024 12:00:00,28.840739,78.697531,CO,14,33,17
India,Uttar_Pradesh,Moradabad,"Employment Office, Moradabad - UPPCB",27-07-2024 12:00:00,28.88528,78.73880,PM10,24,58,35
India,Uttar_Pradesh,Moradabad,"Employment Office, Moradabad - UPPCB",27-07-2024 12:00:00,28.88528,78.73880,CO,17,30,19
India,Uttar_Pradesh,Moradabad,"Jigar Colony, Moradabad - UPPCB",27-07-2024 12:00:00,28.856664,78.772638,PM2.5,12,37,25
India,Uttar_Pradesh,Moradabad,"Kashiram Nagar, Moradabad - UPPCB",27-07-2024 12:00:00,28.849399,78.742362,PM2.5,17,49,29
India,Uttar_Pradesh,Moradabad,"Kashiram Nagar, Moradabad - UPPCB",27-07-2024 12:00:00,28.849399,78.742362,NO2,15,15,15
India,Uttar_Pradesh,Moradabad,"Kashiram Nagar, Moradabad - UPPCB",27-07-2024 12:00:00,28.849399,78.742362,CO,13,27,17
India,Uttar_Pradesh,Moradabad,"Transport Nagar, Moradabad - UPPCB",27-07-2024 12:00:00,28.802625,78.753728,CO,39,42,41
India,Uttar_Pradesh,Moradabad,"Transport Nagar, Moradabad - UPPCB",27-07-2024 12:00:00,28.802625,78.753728,OZONE,23,41,32
India,Uttar_Pradesh,Noida,"Sector - 125, Noida - UPPCB",27-07-2024 12:00:00,28.5447608,77.3231257,PM10,26,94,47
India,Uttar_Pradesh,Noida,"Sector - 62, Noida - IMD",27-07-2024 12:00:00,28.6245479,77.3577104,NO2,7,353,25
India,Uttar_Pradesh,Noida,"Sector-1, Noida - UPPCB",27-07-2024 12:00:00,28.5898,77.3101,NH3,7,7,7
India,Uttar_Pradesh,Noida,"Sector-1, Noida - UPPCB",27-07-2024 12:00:00,28.5898,77.3101,CO,2,60,10
India,Uttar_Pradesh,Noida,"Sector-116, Noida - UPPCB",27-07-2024 12:00:00,28.569230,77.393848,NH3,10,15,12
India,Uttar_Pradesh,Noida,"Sector-116, Noida - UPPCB",27-07-2024 12:00:00,28.569230,77.393848,CO,20,98,54
India,Uttar_Pradesh,Prayagraj,"Jhunsi, Prayagraj - UPPCB",27-07-2024 12:00:00,25.425602,81.917152,PM2.5,8,45,24
India,Uttar_Pradesh,Prayagraj,"Motilal Nehru NIT, Prayagraj - UPPCB",27-07-2024 12:00:00,25.494,81.863,NH3,6,7,7
India,Uttar_Pradesh,Prayagraj,"Motilal Nehru NIT, Prayagraj - UPPCB",27-07-2024 12:00:00,25.494,81.863,CO,18,30,21
India,Uttar_Pradesh,Prayagraj,"Nagar Nigam, Prayagraj - UPPCB",27-07-2024 12:00:00,25.44919916 ,81.82735986 ,OZONE,10,15,11
India,Uttar_Pradesh,Varanasi,"Ardhali Bazar, Varanasi - UPPCB",27-07-2024 12:00:00,25.3505986,82.9083074,PM2.5,14,84,48
India,Uttar_Pradesh,Varanasi,"Bhelupur, Varanasi - UPPCB",27-07-2024 12:00:00,25.301778,82.996789,PM10,13,127,64
India,Uttar_Pradesh,Varanasi,"Bhelupur, Varanasi - UPPCB",27-07-2024 12:00:00,25.301778,82.996789,NO2,8,8,8
India,Uttar_Pradesh,Vrindavan,"Omex Eternity, Vrindavan - UPPCB",27-07-2024 12:00:00,27.5714090,77.6557570,PM2.5,9,27,16
India,Uttar_Pradesh,Vrindavan,"Omex Eternity, Vrindavan - UPPCB",27-07-2024 12:00:00,27.5714090,77.6557570,NO2,12,12,12
India,Uttar_Pradesh,Vrindavan,"Omex Eternity, Vrindavan - UPPCB",27-07-2024 12:00:00,27.5714090,77.6557570,OZONE,11,13,13
India,Uttarakhand,Dehradun,"Doon University, Dehradun - UKPCB",27-07-2024 12:00:00,30.269444,78.044167,PM10,7,32,17
India,Uttarakhand,Dehradun,"Doon University, Dehradun - UKPCB",27-07-2024 12:00:00,30.269444,78.044167,OZONE,11,28,16
India,Uttarakhand,Kashipur,"Govt. Girls Inter College, Kashipur - UKPCB",27-07-2024 12:00:00,29.2124114,78.9611753,PM10,18,109,50
India,Uttarakhand,Kashipur,"Govt. Girls Inter College, Kashipur - UKPCB",27-07-2024 12:00:00,29.2124114,78.9611753,OZONE,1,20,7
India,Uttarakhand,Rishikesh,"Shivaji Nagar, Rishikesh - UKPCB",27-07-2024 12:00:00,30.075911,78.2859547,PM2.5,16,59,31
India,West_Bengal,Asansol,"Asansol Court Area, Asansol - WBPCB",27-07-2024 12:00:00,23.685297,86.945968,PM2.5,29,59,42
India,West_Bengal,Asansol,"Asansol Court Area, Asansol - WBPCB",27-07-2024 12:00:00,23.685297,86.945968,NH3,5,9,6
India,West_Bengal,Asansol,"Mahabir Colliery, Asansol - WBPCB",27-07-2024 12:00:00,23.6181830,87.1057180,PM10,23,53,36
India,West_Bengal,Asansol,"Mahabir Colliery, Asansol - WBPCB",27-07-2024 12:00:00,23.6181830,87.1057180,CO,21,113,47
India,West_Bengal,Asansol,"Trivenidevi Bhalotia College, Asansol - WBPCB",27-07-2024 12:00:00,23.616515,87.119133,PM2.5,7,83,33
India,West_Bengal,Durgapur,"PCBL Residential Complex, Durgapur - WBPCB",27-07-2024 12:00:00,23.5087640,87.3544400,PM2.5,7,31,21
India,West_Bengal,Durgapur,"PCBL Residential Complex, Durgapur - WBPCB",27-07-2024 12:00:00,23.5087640,87.3544400,PM10,32,71,57
India,West_Bengal,Durgapur,"PCBL Residential Complex, Durgapur - WBPCB",27-07-2024 12:00:00,23.5087640,87.3544400,SO2,10,12,11
India,West_Bengal,Durgapur,"PCBL Residential Complex, Durgapur - WBPCB",27-07-2024 12:00:00,23.5087640,87.3544400,OZONE,2,8,3
India,West_Bengal,Durgapur,"Sidhu Kanhu Indoor Stadium, Durgapur - WBPCB",27-07-2024 12:00:00,23.5404352,87.2892225,PM2.5,11,46,23
India,West_Bengal,Durgapur,"Sidhu Kanhu Indoor Stadium, Durgapur - WBPCB",27-07-2024 12:00:00,23.5404352,87.2892225,NH3,3,7,4
India,West_Bengal,Durgapur,"Sidhu Kanhu Indoor Stadium, Durgapur - WBPCB",27-07-2024 12:00:00,23.5404352,87.2892225,SO2,6,59,31
India,West_Bengal,Durgapur,"Sidhu Kanhu Indoor Stadium, Durgapur - WBPCB",27-07-2024 12:00:00,23.5404352,87.2892225,CO,18,29,21
India,West_Bengal,Haldia,"Priyambada Housing Estate, Haldia - WBPCB",27-07-2024 12:00:00,22.06047,88.109737,NO2,11,17,14
India,West_Bengal,Howrah,"Belur Math, Howrah - WBPCB",27-07-2024 12:00:00,22.629801,88.352017,PM2.5,5,23,12
India,West_Bengal,Howrah,"Botanical Garden, Howrah - WBPCB",27-07-2024 12:00:00,22.554954,88.292568,PM10,2,59,27
India,West_Bengal,Howrah,"Botanical Garden, Howrah - WBPCB",27-07-2024 12:00:00,22.554954,88.292568,NO2,7,16,9
India,West_Bengal,Howrah,"Botanical Garden, Howrah - WBPCB",27-07-2024 12:00:00,22.554954,88.292568,NH3,2,2,2
India,West_Bengal,Howrah,"Botanical Garden, Howrah - WBPCB",27-07-2024 12:00:00,22.554954,88.292568,SO2,2,4,2
India,West_Bengal,Howrah,"Botanical Garden, Howrah - WBPCB",27-07-2024 12:00:00,22.554954,88.292568,CO,35,42,37
India,West_Bengal,Howrah,"Ghusuri, Howrah - WBPCB",27-07-2024 12:00:00,22.611968,88.347422,PM2.5,21,39,28
India,West_Bengal,Howrah,"Ghusuri, Howrah - WBPCB",27-07-2024 12:00:00,22.611968,88.347422,PM10,20,47,32
India,West_Bengal,Howrah,"Ghusuri, Howrah - WBPCB",27-07-2024 12:00:00,22.611968,88.347422,NO2,21,22,22
India,West_Bengal,Howrah,"Ghusuri, Howrah - WBPCB",27-07-2024 12:00:00,22.611968,88.347422,SO2,5,7,6
India,West_Bengal,Kolkata,"Ballygunge, Kolkata - WBPCB",27-07-2024 12:00:00,22.5367507,88.3638022,CO,10,30,20
India,West_Bengal,Kolkata,"Bidhannagar, Kolkata - WBPCB",27-07-2024 12:00:00,22.58157048,88.41002457,SO2,7,14,11
India,West_Bengal,Kolkata,"Fort William, Kolkata - WBPCB",27-07-2024 12:00:00,22.556640,88.342674,CO,14,32,19
India,West_Bengal,Kolkata,"Jadavpur, Kolkata - WBPCB",27-07-2024 12:00:00,22.49929,88.36917,NO2,NA,NA,NA
India,West_Bengal,Kolkata,"Jadavpur, Kolkata - WBPCB",27-07-2024 12:00:00,22.49929,88.36917,NH3,NA,NA,NA
India,West_Bengal,Kolkata,"Rabindra Bharati University, Kolkata - WBPCB",27-07-2024 12:00:00,22.627847,88.380669,PM10,15,34,21
India,West_Bengal,Kolkata,"Rabindra Sarobar, Kolkata - WBPCB",27-07-2024 12:00:00,22.51106,88.35142,PM2.5,18,34,22
India,West_Bengal,Kolkata,"Rabindra Sarobar, Kolkata - WBPCB",27-07-2024 12:00:00,22.51106,88.35142,SO2,8,10,9
India,West_Bengal,Kolkata,"Victoria, Kolkata - WBPCB",27-07-2024 12:00:00,22.5448082,88.3403691,PM2.5,21,45,30
India,West_Bengal,Kolkata,"Victoria, Kolkata - WBPCB",27-07-2024 12:00:00,22.5448082,88.3403691,CO,16,28,19
India,West_Bengal,Siliguri,"Ward-32 Bapupara, Siliguri - WBPCB",27-07-2024 12:00:00,26.6879226,88.4152495,NO2,18,20,19
India,West_Bengal,Siliguri,"Ward-32 Bapupara, Siliguri - WBPCB",27-07-2024 12:00:00,26.6879226,88.4152495,CO,20,48,27
India,Andhra_Pradesh,Amaravati,"Secretariat, Amaravati - APPCB",27-07-2024 12:00:00,16.5150833,80.5181667,NH3,3,4,4
India,Andhra_Pradesh,Amaravati,"Secretariat, Amaravati - APPCB",27-07-2024 12:00:00,16.5150833,80.5181667,CO,5,40,19
India,Andhra_Pradesh,Amaravati,"Secretariat, Amaravati - APPCB",27-07-2024 12:00:00,16.5150833,80.5181667,OZONE,12,36,14
India,Andhra_Pradesh,Anantapur,"Gulzarpet, Anantapur - APPCB",27-07-2024 12:00:00,14.675886,77.593027,PM2.5,28,77,37
India,Andhra_Pradesh,Anantapur,"Gulzarpet, Anantapur - APPCB",27-07-2024 12:00:00,14.675886,77.593027,SO2,4,5,4
India,Andhra_Pradesh,Chittoor,"Gangineni Cheruvu, Chittoor - APPCB",27-07-2024 12:00:00,13.204880,79.097889,PM2.5,20,59,36
India,Andhra_Pradesh,Chittoor,"Gangineni Cheruvu, Chittoor - APPCB",27-07-2024 12:00:00,13.204880,79.097889,PM10,25,73,45
India,Andhra_Pradesh,Kadapa,"Yerramukkapalli, Kadapa - APPCB",27-07-2024 12:00:00,14.465052,78.824187,PM2.5,NA,NA,NA
India,Andhra_Pradesh,Rajamahendravaram,"Anand Kala Kshetram, Rajamahendravaram - APPCB",27-07-2024 12:00:00,16.9872867,81.7363176,NO2,6,17,8
India,Andhra_Pradesh,Rajamahendravaram,"Anand Kala Kshetram, Rajamahendravaram - APPCB",27-07-2024 12:00:00,16.9872867,81.7363176,CO,14,80,44
India,Andhra_Pradesh,Tirupati,"Tirumala, Tirupati - APPCB",27-07-2024 12:00:00,13.67,79.35,NH3,1,2,1
India,Andhra_Pradesh,Vijayawada,"HB Colony, Vijayawada - APPCB",27-07-2024 12:00:00,16.536107,80.594233,NH3,4,5,5
India,Andhra_Pradesh,Vijayawada,"HB Colony, Vijayawada - APPCB",27-07-2024 12:00:00,16.536107,80.594233,CO,32,38,34
India,Andhra_Pradesh,Vijayawada,"HB Colony, Vijayawada - APPCB",27-07-2024 12:00:00,16.536107,80.594233,OZONE,8,25,11
India,Andhra_Pradesh,Vijayawada,"Kanuru, Vijayawada - APPCB",27-07-2024 12:00:00,16.486692,80.699436,NO2,13,13,13
India,Andhra_Pradesh,Vijayawada,"Rajiv Gandhi Park, Vijayawada - APPCB",27-07-2024 12:00:00,16.509717,80.612222,NO2,26,65,34
India,Andhra_Pradesh,Vijayawada,"Rajiv Gandhi Park, Vijayawada - APPCB",27-07-2024 12:00:00,16.509717,80.612222,NH3,2,6,5
India,Andhra_Pradesh,Vijayawada,"Rajiv Gandhi Park, Vijayawada - APPCB",27-07-2024 12:00:00,16.509717,80.612222,SO2,7,11,9
India,Andhra_Pradesh,Vijayawada,"Rajiv Nagar, Vijayawada - APPCB",27-07-2024 12:00:00,16.554731,80.649110,PM2.5,26,39,32
India,Arunachal_Pradesh,Naharlagun,"Naharlagun, Naharlagun - APSPCB",27-07-2024 12:00:00,27.103358,93.679645,PM10,NA,NA,NA
India,Arunachal_Pradesh,Naharlagun,"Naharlagun, Naharlagun - APSPCB",27-07-2024 12:00:00,27.103358,93.679645,CO,NA,NA,NA
India,Assam,Byrnihat,"Central Academy for SFS, Byrnihat - PCBA",27-07-2024 12:00:00,26.071318,91.87488,NO2,12,38,20
India,Assam,Byrnihat,"Central Academy for SFS, Byrnihat - PCBA",27-07-2024 12:00:00,26.071318,91.87488,CO,14,14,5
India,Assam,Guwahati,"IITG, Guwahati - PCBA",27-07-2024 12:00:00,26.2028636,91.70046436,PM2.5,3,32,14
India,Assam,Guwahati,"IITG, Guwahati - PCBA",27-07-2024 12:00:00,26.2028636,91.70046436,NO2,1,2,1
India,Assam,Guwahati,"IITG, Guwahati - PCBA",27-07-2024 12:00:00,26.2028636,91.70046436,NH3,5,5,5
India,Assam,Guwahati,"IITG, Guwahati - PCBA",27-07-2024 12:00:00,26.2028636,91.70046436,OZONE,6,38,13
India,Assam,Guwahati,"Pan Bazaar, Guwahati - PCBA",27-07-2024 12:00:00,26.187500,91.744194,PM2.5,5,34,15
India,Assam,Nagaon,"Christianpatty, Nagaon - PCBA",27-07-2024 12:00:00,26.349082,92.68449,PM10,15,35,19
India,Assam,Nagaon,"Christianpatty, Nagaon - PCBA",27-07-2024 12:00:00,26.349082,92.68449,NO2,1,25,7
India,Assam,Nagaon,"Christianpatty, Nagaon - PCBA",27-07-2024 12:00:00,26.349082,92.68449,NH3,1,8,2
India,Assam,Nalbari,"Bata Chowk, Nalbari - PCBA",27-07-2024 12:00:00,26.446912,91.439057,OZONE,14,27,18
India,Assam,Silchar,"Tarapur, Silchar - PCBA",27-07-2024 12:00:00,24.82827,92.79525,PM10,49,66,54
India,Assam,Silchar,"Tarapur, Silchar - PCBA",27-07-2024 12:00:00,24.82827,92.79525,SO2,4,4,4
India,Bihar,Arrah,"New DM Office, Arrah - BSPCB",27-07-2024 12:00:00,25.5626095,84.663264,NH3,NA,NA,NA
India,Bihar,Arrah,"New DM Office, Arrah - BSPCB",27-07-2024 12:00:00,25.5626095,84.663264,SO2,NA,NA,NA
India,Bihar,Aurangabad,"Gurdeo Nagar, Aurangabad - BSPCB",27-07-2024 12:00:00,24.75746,84.366208,OZONE,13,56,27
India,Bihar,Bettiah,"Kamalnath Nagar, Bettiah - BSPCB",27-07-2024 12:00:00,26.80365,84.51954,NO2,27,43,33
India,Bihar,Bettiah,"Kamalnath Nagar, Bettiah - BSPCB",27-07-2024 12:00:00,26.80365,84.51954,SO2,10,18,14
India,Bihar,Bettiah,"Kamalnath Nagar, Bettiah - BSPCB",27-07-2024 12:00:00,26.80365,84.51954,CO,32,54,41
India,Bihar,Bhagalpur,"DM Office_Kachari Chowk, Bhagalpur - BSPCB",27-07-2024 12:00:00,25.251013,86.989001,OZONE,44,50,47
India,Bihar,Bhagalpur,"Mayaganj, Bhagalpur - BSPCB",27-07-2024 12:00:00,25.265194,87.012947,NO2,4,20,10
India,Bihar,Bhagalpur,"Mayaganj, Bhagalpur - BSPCB",27-07-2024 12:00:00,25.265194,87.012947,OZONE,8,10,9
India,Bihar,Bihar Sharif,"D M Colony, Bihar Sharif - BSPCB",27-07-2024 12:00:00,25.204762,85.514960,NH3,17,80,28
India,Bihar,Chhapra,"Darshan Nagar, Chhapra - BSPCB",27-07-2024 12:00:00,25.7808257,84.7446768,PM2.5,2,60,27
India,Bihar,Chhapra,"Darshan Nagar, Chhapra - BSPCB",27-07-2024 12:00:00,25.7808257,84.7446768,NH3,6,20,12
India,Bihar,Gaya,"Collectorate, Gaya - BSPCB",27-07-2024 12:00:00,24.7955,84.9994,PM2.5,3,58,34
India,Bihar,Gaya,"Kareemganj, Gaya - BSPCB",27-07-2024 12:00:00,24.792403,84.992416,NH3,3,4,3
India,Bihar,Gaya,"SFTI Kusdihra, Gaya - BSPCB",27-07-2024 12:00:00,24.762518,84.982348,SO2,6,9,8
India,Bihar,Katihar,"Mirchaibari, Katihar - BSPCB",27-07-2024 12:00:00,25.560083,87.553265,PM2.5,NA,NA,NA
India,Bihar,Kishanganj,"SDM Office_Khagra, Kishanganj - BSPCB",27-07-2024 12:00:00,26.0881305,87.93840336,NH3,6,8,6
India,Bihar,Kishanganj,"SDM Office_Khagra, Kishanganj - BSPCB",27-07-2024 12:00:00,26.0881305,87.93840336,OZONE,18,98,21
India,Bihar,Manguraha,"Forest Rest House, Manguraha - BSPCB",27-07-2024 12:00:00,27.308328,84.531742,PM2.5,NA,NA,NA
India,Bihar,Manguraha,"Forest Rest House, Manguraha - BSPCB",27-07-2024 12:00:00,27.308328,84.531742,NH3,3,85,16
India,Bihar,Munger,"Town Hall, Munger - BSPCB",27-07-2024 12:00:00,25.376776,86.471523,PM2.5,5,500,237
India,Bihar,Munger,"Town Hall, Munger - BSPCB",27-07-2024 12:00:00,25.376776,86.471523,PM10,6,464,172
India,Bihar,Muzaffarpur,"Buddha Colony, Muzaffarpur - BSPCB",27-07-2024 12:00:00,26.11442,85.39813,CO,25,49,28
India,Bihar,Muzaffarpur,"MIT-Daudpur Kothi, Muzaffarpur - BSPCB",27-07-2024 12:00:00,26.1403345,85.3650192,NH3,2,3,2
India,Bihar,Muzaffarpur,"Muzaffarpur Collectorate, Muzaffarpur - BSPCB",27-07-2024 12:00:00,26.1209,85.3647,OZONE,16,84,27
India,Bihar,Patna,"DRM Office Danapur, Patna - BSPCB",27-07-2024 12:00:00,25.586562,85.043586,PM2.5,21,75,54
India,Bihar,Patna,"Govt. High School Shikarpur, Patna - BSPCB",27-07-2024 12:00:00,25.592539,85.227158,OZONE,32,54,46
India,Bihar,Patna,"IGSC Planetarium Complex, Patna - BSPCB",27-07-2024 12:00:00,25.610369,85.132568,PM2.5,33,84,53
India,Bihar,Patna,"IGSC Planetarium Complex, Patna - BSPCB",27-07-2024 12:00:00,25.610369,85.132568,NO2,12,12,12
India,Bihar,Patna,"Rajbansi Nagar, Patna - BSPCB",27-07-2024 12:00:00,25.599486,85.113666,NH3,2,4,2
India,Bihar,Patna,"Rajbansi Nagar, Patna - BSPCB",27-07-2024 12:00:00,25.599486,85.113666,SO2,1,10,3
India,Bihar,Patna,"Samanpura, Patna - BSPCB",27-07-2024 12:00:00,25.596727,85.085624,PM2.5,49,78,61
India,Bihar,Patna,"Samanpura, Patna - BSPCB",27-07-2024 12:00:00,25.596727,85.085624,PM10,77,107,92
India,Bihar,Patna,"Samanpura, Patna - BSPCB",27-07-2024 12:00:00,25.596727,85.085624,CO,30,63,33
India,Bihar,Purnia,"Mariam Nagar, Purnia - BSPCB",27-07-2024 12:00:00,25.366336,87.117468,NH3,1,1,1
India,Bihar,Rajgir,"Dangi Tola, Rajgir - BSPCB",27-07-2024 12:00:00,25.03280,85.41948,NH3,1,2,2
India,Bihar,Saharsa,"Police Line, Saharsa - BSPCB",27-07-2024 12:00:00,25.892357,86.590325,SO2,12,17,16
India,Bihar,Saharsa,"Police Line, Saharsa - BSPCB",27-07-2024 12:00:00,25.892357,86.590325,CO,26,56,52
India,Bihar,Samastipur,"DM Office_Kasipur, Samastipur - BSPCB",27-07-2024 12:00:00,25.859655,85.77944,PM2.5,33,103,63
India,Bihar,Sasaram,"Dada Peer, Sasaram - BSPCB",27-07-2024 12:00:00,24.952822,84.002396,PM2.5,2,60,22
India,Bihar,Sasaram,"Dada Peer, Sasaram - BSPCB",27-07-2024 12:00:00,24.952822,84.002396,NH3,2,3,2
India,Chandigarh,Chandigarh,"Sector 22, Chandigarh - CPCC",27-07-2024 12:00:00,30.735567,76.775714,CO,30,62,36
India,Chandigarh,Chandigarh,"Sector-53, Chandigarh - CPCC",27-07-2024 12:00:00,30.719859,76.738637,NO2,11,68,26
India,Chhattisgarh,Bhilai,"32Bungalows, Bhilai - CECB",27-07-2024 12:00:00,21.194815,81.314770,SO2,9,11,10
India,Chhattisgarh,Bhilai,"Civic Center, Bhilai - Bhilai Steel Plant",27-07-2024 12:00:00,21.185571,81.343175,NO2,7,8,8
India,Chhattisgarh,Bhilai,"Civic Center, Bhilai - Bhilai Steel Plant",27-07-2024 12:00:00,21.185571,81.343175,SO2,9,11,10
India,Chhattisgarh,Bhilai,"Hathkhoj, Bhilai - CECB",27-07-2024 12:00:00,21.224231,81.408350,NH3,7,7,7
India,Chhattisgarh,Bhilai,"Hathkhoj, Bhilai - CECB",27-07-2024 12:00:00,21.224231,81.408350,OZONE,5,13,8
India,Chhattisgarh,Chhal,"Nawapara SECL Colony, Chhal - CECB",27-07-2024 12:00:00,22.118125,83.140608,NH3,2,2,2
India,Chhattisgarh,Chhal,"Nawapara SECL Colony, Chhal - CECB",27-07-2024 12:00:00,22.118125,83.140608,SO2,12,19,15
India,Chhattisgarh,Korba,"Rampur, Korba - CECB",27-07-2024 12:00:00,22.368195,82.746431,PM2.5,12,31,19
India,Chhattisgarh,Korba,"Rampur, Korba - CECB",27-07-2024 12:00:00,22.368195,82.746431,NH3,1,1,1
India,Chhattisgarh,Korba,"Rampur, Korba - CECB",27-07-2024 12:00:00,22.368195,82.746431,CO,25,50,41
India,Chhattisgarh,Kunjemura,"OP Jindal School, Kunjemura - CECB",27-07-2024 12:00:00,22.126650,83.483212,NH3,2,3,2
India,Chhattisgarh,Raipur,"AIIMS, Raipur - CECB",27-07-2024 12:00:00,21.258815,81.578979,NH3,6,6,6
India,Chhattisgarh,Raipur,"AIIMS, Raipur - CECB",27-07-2024 12:00:00,21.258815,81.578979,OZONE,1,5,1
India,Chhattisgarh,Raipur,"Bhatagaon New ISBT, Raipur - CECB",27-07-2024 12:00:00,21.219665,81.630094,PM10,11,62,28
India,Chhattisgarh,Raipur,"Bhatagaon New ISBT, Raipur - CECB",27-07-2024 12:00:00,21.219665,81.630094,NO2,4,9,5
India,Chhattisgarh,Raipur,"Siltara Phase-II, Raipur - CECB",27-07-2024 12:00:00,21.371751,81.664929,OZONE,3,4,3
India,Delhi,Delhi,"Alipur, Delhi - DPCC",27-07-2024 12:00:00,28.815329,77.153010,PM2.5,63,180,104
India,Delhi,Delhi,"Anand Vihar, Delhi - DPCC",27-07-2024 12:00:00,28.647622,77.3158090,PM10,33,157,101
India,Delhi,Delhi,"Anand Vihar, Delhi - DPCC",27-07-2024 12:00:00,28.647622,77.3158090,NO2,15,175,71
India,Delhi,Delhi,"Ashok Vihar, Delhi - DPCC",27-07-2024 12:00:00,28.695381,77.181665,PM2.5,55,273,126
India,Delhi,Delhi,"Ashok Vihar, Delhi - DPCC",27-07-2024 12:00:00,28.695381,77.181665,PM10,66,173,108
India,Delhi,Delhi,"Bawana, Delhi - DPCC",27-07-2024 12:00:00,28.776200,77.051074,PM2.5,50,303,140
India,Delhi,Delhi,"Bawana, Delhi - DPCC",27-07-2024 12:00:00,28.776200,77.051074,CO,36,88,48
India,Delhi,Delhi,"Chandni Chowk, Delhi - IITM",27-07-2024 12:00:00,28.656756,77.227234,CO,7,79,27
India,Delhi,Delhi,"DTU, Delhi - CPCB",27-07-2024 12:00:00,28.7500499,77.1112615,CO,26,56,35
India,Delhi,Delhi,"Dr. Karni Singh Shooting Range, Delhi - DPCC",27-07-2024 12:00:00,28.498571,77.264840,OZONE,1,36,8
India,Delhi,Delhi,"Dwarka-Sector 8, Delhi - DPCC ",27-07-2024 12:00:00,28.5710274,77.0719006,SO2,9,13,10
India,Delhi,Delhi,"IGI Airport (T3), Delhi - IMD",27-07-2024 12:00:00,28.5627763,77.1180053,OZONE,5,20,8
India,Delhi,Delhi,"IHBAS, Dilshad Garden, Delhi - CPCB",27-07-2024 12:00:00,28.6811736,77.3025234,PM10,54,100,74
India,Delhi,Delhi,"IHBAS, Dilshad Garden, Delhi - CPCB",27-07-2024 12:00:00,28.6811736,77.3025234,NH3,4,8,7
India,Delhi,Delhi,"ITO, Delhi - CPCB",27-07-2024 12:00:00,28.628624,77.241060,SO2,13,23,18
India,Delhi,Delhi,"ITO, Delhi - CPCB",27-07-2024 12:00:00,28.628624,77.241060,OZONE,5,135,39
India,Delhi,Delhi,"Jahangirpuri, Delhi - DPCC",27-07-2024 12:00:00,28.732820,77.170633,PM10,131,277,185
India,Delhi,Delhi,"Jahangirpuri, Delhi - DPCC",27-07-2024 12:00:00,28.732820,77.170633,SO2,3,26,15
India,Delhi,Delhi,"Jawaharlal Nehru Stadium, Delhi - DPCC",27-07-2024 12:00:00,28.580280,77.233829,PM2.5,28,221,89
India,Delhi,Delhi,"Jawaharlal Nehru Stadium, Delhi - DPCC",27-07-2024 12:00:00,28.580280,77.233829,PM10,41,159,89
India,Delhi,Delhi,"Jawaharlal Nehru Stadium, Delhi - DPCC",27-07-2024 12:00:00,28.580280,77.233829,NH3,9,12,11
India,Delhi,Delhi,"Jawaharlal Nehru Stadium, Delhi - DPCC",27-07-2024 12:00:00,28.580280,77.233829,SO2,1,19,6
India,Delhi,Delhi,"Jawaharlal Nehru Stadium, Delhi - DPCC",27-07-2024 12:00:00,28.580280,77.233829,OZONE,7,98,18
India,Delhi,Delhi,"Lodhi Road, Delhi - IMD",27-07-2024 12:00:00,28.5918245,77.2273074,NO2,NA,NA,NA
India,Delhi,Delhi,"Major Dhyan Chand National Stadium, Delhi - DPCC",27-07-2024 12:00:00,28.611281,77.237738,NH3,8,12,10
India,Delhi,Delhi,"Major Dhyan Chand National Stadium, Delhi - DPCC",27-07-2024 12:00:00,28.611281,77.237738,CO,42,108,46
India,Delhi,Delhi,"NSIT Dwarka, Delhi - CPCB",27-07-2024 12:00:00,28.60909,77.0325413,NH3,6,13,8
India,Delhi,Delhi,"NSIT Dwarka, Delhi - CPCB",27-07-2024 12:00:00,28.60909,77.0325413,OZONE,7,13,9
India,Delhi,Delhi,"Najafgarh, Delhi - DPCC",27-07-2024 12:00:00,28.570173,76.933762,SO2,13,20,16
India,Delhi,Delhi,"Najafgarh, Delhi - DPCC",27-07-2024 12:00:00,28.570173,76.933762,CO,38,98,47
India,Delhi,Delhi,"Nehru Nagar, Delhi - DPCC",27-07-2024 12:00:00,28.567890,77.250515,PM2.5,33,324,145
India,Delhi,Delhi,"Nehru Nagar, Delhi - DPCC",27-07-2024 12:00:00,28.567890,77.250515,CO,44,100,68
India,Delhi,Delhi,"North Campus, DU, Delhi - IMD",27-07-2024 12:00:00,28.6573814,77.1585447,CO,38,79,44
India,Delhi,Delhi,"Okhla Phase-2, Delhi - DPCC",27-07-2024 12:00:00,28.530785,77.271255,NO2,31,102,58
India,Delhi,Delhi,"Okhla Phase-2, Delhi - DPCC",27-07-2024 12:00:00,28.530785,77.271255,SO2,6,16,9
India,Delhi,Delhi,"Pusa, Delhi - IMD",27-07-2024 12:00:00,28.636110,77.173332,PM10,47,153,104
India,Delhi,Delhi,"R K Puram, Delhi - DPCC",27-07-2024 12:00:00,28.563262,77.186937,NO2,16,152,45
India,Delhi,Delhi,"Rohini, Delhi - DPCC",27-07-2024 12:00:00,28.732528,77.119920,NO2,20,103,49
India,Delhi,Delhi,"Rohini, Delhi - DPCC",27-07-2024 12:00:00,28.732528,77.119920,CO,43,105,52
India,Delhi,Delhi,"Shadipur, Delhi - CPCB",27-07-2024 12:00:00,28.6514781,77.1473105,PM2.5,31,139,67
India,Delhi,Delhi,"Sirifort, Delhi - CPCB",27-07-2024 12:00:00,28.5504249,77.2159377,PM2.5,46,273,122
India,Delhi,Delhi,"Sirifort, Delhi - CPCB",27-07-2024 12:00:00,28.5504249,77.2159377,PM10,57,185,110
India,Delhi,Delhi,"Sonia Vihar, Delhi - DPCC",27-07-2024 12:00:00,28.710508,77.249485,PM2.5,75,340,154
India,Delhi,Delhi,"Sri Aurobindo Marg, Delhi - DPCC",27-07-2024 12:00:00,28.531346,77.190156,SO2,7,17,12
India,Delhi,Delhi,"Sri Aurobindo Marg, Delhi - DPCC",27-07-2024 12:00:00,28.531346,77.190156,CO,48,110,56
India,Delhi,Delhi,"Vivek Vihar, Delhi - DPCC",27-07-2024 12:00:00,28.672342,77.315260,PM2.5,40,211,97
India,Delhi,Delhi,"Vivek Vihar, Delhi - DPCC",27-07-2024 12:00:00,28.672342,77.315260,PM10,59,176,109
India,Delhi,Delhi,"Wazirpur, Delhi - DPCC",27-07-2024 12:00:00,28.699793,77.165453,CO,NA,NA,NA
India,Delhi,Delhi,"Wazirpur, Delhi - DPCC",27-07-2024 12:00:00,28.699793,77.165453,OZONE,NA,NA,NA
India,Gujarat,Ahmedabad,"Chandkheda, Ahmedabad - IITM",27-07-2024 12:00:00,23.107969,72.574648,SO2,8,19,11
India,Gujarat,Ahmedabad,"Gyaspur, Ahmedabad - IITM",27-07-2024 12:00:00,22.977134,72.553024,PM10,20,94,57
India,Gujarat,Ahmedabad,"Maninagar, Ahmedabad - GPCB",27-07-2024 12:00:00,23.002657,72.591912,CO,25,96,50
India,Gujarat,Ahmedabad,"Raikhad, Ahmedabad - IITM",27-07-2024 12:00:00,23.020509,72.579261,PM2.5,41,106,64
India,Gujarat,Ahmedabad,"Raikhad, Ahmedabad - IITM",27-07-2024 12:00:00,23.020509,72.579261,NH3,6,9,7
India,Gujarat,Ahmedabad,"Rakhial, Ahmedabad - IITM",27-07-2024 12:00:00,23.016834,72.625775,PM10,67,120,92
India,Gujarat,Ahmedabad,"Rakhial, Ahmedabad - IITM",27-07-2024 12:00:00,23.016834,72.625775,SO2,13,17,15
India,Gujarat,Ahmedabad,"SVPI Airport Hansol, Ahmedabad - IITM",27-07-2024 12:00:00,23.076793,72.627874,PM10,51,125,80
India,Gujarat,Ahmedabad,"Sardar Vallabhbhai Patel Stadium, Ahmedabad - IITM",27-07-2024 12:00:00,23.043070,72.562968,NH3,5,8,6
India,Gujarat,Ahmedabad,"Sardar Vallabhbhai Patel Stadium, Ahmedabad - IITM",27-07-2024 12:00:00,23.043070,72.562968,SO2,16,22,19
India,Gujarat,Ankleshwar,"GIDC, Ankleshwar - GPCB",27-07-2024 12:00:00,21.613267,73.010555,NO2,18,26,22
India,Gujarat,Ankleshwar,"GIDC, Ankleshwar - GPCB",27-07-2024 12:00:00,21.613267,73.010555,CO,34,75,46
India,Gujarat,Ankleshwar,"GIDC, Ankleshwar - GPCB",27-07-2024 12:00:00,21.613267,73.010555,OZONE,23,26,24
India,Gujarat,Gandhinagar,"GIFT City, Gandhinagar - IITM",27-07-2024 12:00:00,23.163798,72.677768,PM2.5,34,62,50
India,Gujarat,Gandhinagar,"GIFT City, Gandhinagar - IITM",27-07-2024 12:00:00,23.163798,72.677768,PM10,49,92,71
India,Gujarat,Gandhinagar,"GIFT City, Gandhinagar - IITM",27-07-2024 12:00:00,23.163798,72.677768,NH3,1,86,9
India,Gujarat,Vatva,"Phase-4 GIDC, Vatva - GPCB",27-07-2024 12:00:00,22.969611,72.643500,PM2.5,47,105,63
India,Gujarat,Vatva,"Phase-4 GIDC, Vatva - GPCB",27-07-2024 12:00:00,22.969611,72.643500,NO2,1,8,2
India,Gujarat,Vatva,"Phase-4 GIDC, Vatva - GPCB",27-07-2024 12:00:00,22.969611,72.643500,OZONE,4,27,9
India,Haryana,Ambala,"Patti Mehar, Ambala - HSPCB",27-07-2024 12:00:00,30.379589,76.778328,CO,30,62,47
India,Haryana,Ambala,"Patti Mehar, Ambala - HSPCB",27-07-2024 12:00:00,30.379589,76.778328,OZONE,37,47,41
India,Haryana,Ballabgarh,"Nathu Colony, Ballabgarh - HSPCB",27-07-2024 12:00:00,28.3419248,77.319699,PM2.5,32,139,84
India,Haryana,Ballabgarh,"Nathu Colony, Ballabgarh - HSPCB",27-07-2024 12:00:00,28.3419248,77.319699,NH3,1,2,1
India,Haryana,Bhiwani,"H.B. Colony, Bhiwani - HSPCB",27-07-2024 12:00:00,28.806223,76.141105,PM2.5,20,67,39
India,Haryana,Bhiwani,"H.B. Colony, Bhiwani - HSPCB",27-07-2024 12:00:00,28.806223,76.141105,PM10,13,82,42
India,Haryana,Bhiwani,"H.B. Colony, Bhiwani - HSPCB",27-07-2024 12:00:00,28.806223,76.141105,NH3,6,6,6
India,Haryana,Bhiwani,"H.B. Colony, Bhiwani - HSPCB",27-07-2024 12:00:00,28.806223,76.141105,SO2,7,14,10
India,Haryana,Bhiwani,"H.B. Colony, Bhiwani - HSPCB",27-07-2024 12:00:00,28.806223,76.141105,OZONE,29,76,36
India,Haryana,Charkhi Dadri,"Mini Secretariat, Charkhi Dadri - HSPCB",27-07-2024 12:00:00,28.593883,76.270653,CO,14,34,24
India,Haryana,Dharuhera,"Municipal Corporation Office, Dharuhera -  HSPCB",27-07-2024 12:00:00,28.206800,76.799700,PM2.5,52,91,75
India,Haryana,Dharuhera,"Municipal Corporation Office, Dharuhera -  HSPCB",27-07-2024 12:00:00,28.206800,76.799700,CO,30,68,46
India,Haryana,Faridabad,"New Industrial Town, Faridabad - HSPCB",27-07-2024 12:00:00,28.39072,77.30059,NH3,NA,NA,NA
India,Haryana,Faridabad,"Sector 11, Faridabad - HSPCB",27-07-2024 12:00:00,28.376058,77.315741,PM2.5,NA,NA,NA
India,Haryana,Faridabad,"Sector 11, Faridabad - HSPCB",27-07-2024 12:00:00,28.376058,77.315741,PM10,NA,NA,NA
India,Haryana,Faridabad,"Sector 11, Faridabad - HSPCB",27-07-2024 12:00:00,28.376058,77.315741,NO2,NA,NA,NA
India,Haryana,Faridabad,"Sector 11, Faridabad - HSPCB",27-07-2024 12:00:00,28.376058,77.315741,NH3,NA,NA,NA
India,Haryana,Faridabad,"Sector 30, Faridabad - HSPCB",27-07-2024 12:00:00,28.4417,77.3217,PM2.5,66,243,111
India,Haryana,Faridabad,"Sector 30, Faridabad - HSPCB",27-07-2024 12:00:00,28.4417,77.3217,CO,18,65,27
India,Haryana,Faridabad,"Sector- 16A, Faridabad - HSPCB",27-07-2024 12:00:00,28.4088421,77.3099081,SO2,19,40,27
India,Haryana,Fatehabad,"Huda Sector, Fatehabad - HSPCB",27-07-2024 12:00:00,29.503664,75.467934,PM2.5,29,30,30
India,Haryana,Fatehabad,"Huda Sector, Fatehabad - HSPCB",27-07-2024 12:00:00,29.503664,75.467934,PM10,38,86,60
India,Haryana,Fatehabad,"Huda Sector, Fatehabad - HSPCB",27-07-2024 12:00:00,29.503664,75.467934,OZONE,36,69,54
India,Haryana,Gurugram,"Sector-51, Gurugram - HSPCB",27-07-2024 12:00:00,28.4227,77.0667,NO2,13,29,23
India,Haryana,Gurugram,"Teri Gram, Gurugram - HSPCB",27-07-2024 12:00:00,28.4275,77.1465,PM2.5,54,295,127
India,Haryana,Gurugram,"Teri Gram, Gurugram - HSPCB",27-07-2024 12:00:00,28.4275,77.1465,SO2,3,5,4
India,Haryana,Jind,"Police Lines, Jind - HSPCB",27-07-2024 12:00:00,29.307814,76.337619,CO,4,175,51
India,Haryana,Kaithal,"Rishi Nagar, Kaithal - HSPCB",27-07-2024 12:00:00,29.8006,76.4155,OZONE,23,67,40
India,Haryana,Karnal,"Sector-12, Karnal - HSPCB",27-07-2024 12:00:00,29.695300,77.002700,CO,10,46,24
India,Haryana,Karnal,"Sector-12, Karnal - HSPCB",27-07-2024 12:00:00,29.695300,77.002700,OZONE,10,44,41
India,Haryana,Mandikhera,"General Hospital, Mandikhera - HSPCB",27-07-2024 12:00:00,27.9002,76.9938,OZONE,NA,NA,NA
India,Haryana,Manesar,"Sector-2 IMT, Manesar - HSPCB",27-07-2024 12:00:00,28.360699,76.936090,NH3,1,16,3
India,Haryana,Manesar,"Sector-2 IMT, Manesar - HSPCB",27-07-2024 12:00:00,28.360699,76.936090,CO,8,30,21
India,Haryana,Narnaul,"Shastri Nagar, Narnaul - HSPCB",27-07-2024 12:00:00,28.060249,76.113115,PM2.5,35,58,55
India,Haryana,Narnaul,"Shastri Nagar, Narnaul - HSPCB",27-07-2024 12:00:00,28.060249,76.113115,NO2,15,32,25
India,Haryana,Narnaul,"Shastri Nagar, Narnaul - HSPCB",27-07-2024 12:00:00,28.060249,76.113115,NH3,5,10,8
India,Haryana,Narnaul,"Shastri Nagar, Narnaul - HSPCB",27-07-2024 12:00:00,28.060249,76.113115,CO,7,106,54
India,Haryana,Narnaul,"Shastri Nagar, Narnaul - HSPCB",27-07-2024 12:00:00,28.060249,76.113115,OZONE,NA,NA,NA
India,Haryana,Palwal,"Shyam Nagar, Palwal - HSPCB",27-07-2024 12:00:00,28.1485564,77.3320667,OZONE,6,9,7
India,Haryana,Panchkula,"Sector-6, Panchkula - HSPCB ",27-07-2024 12:00:00,30.7057778,76.8531805555555,PM2.5,12,99,57
India,Haryana,Panchkula,"Sector-6, Panchkula - HSPCB ",27-07-2024 12:00:00,30.7057778,76.8531805555555,NO2,17,21,20
India,Haryana,Panchkula,"Sector-6, Panchkula - HSPCB ",27-07-2024 12:00:00,30.7057778,76.8531805555555,SO2,2,40,16
India,Haryana,Panipat,"Sector-18, Panipat - HSPCB",27-07-2024 12:00:00,29.432304,76.972765,PM2.5,61,80,65
India,Haryana,Panipat,"Sector-18, Panipat - HSPCB",27-07-2024 12:00:00,29.432304,76.972765,NH3,2,3,2
India,Haryana,Rohtak,"MD University, Rohtak - HSPCB",27-07-2024 12:00:00,28.52123,76.37138,NO2,48,67,51
India,Haryana,Sirsa,"F-Block, Sirsa - HSPCB",27-07-2024 12:00:00,29.536400,75.015800,SO2,11,20,16
India,Haryana,Sonipat,"Murthal, Sonipat - HSPCB",27-07-2024 12:00:00,29.027200,77.062100,NH3,3,10,8
India,Haryana,Yamuna Nagar,"Gobind Pura, Yamuna Nagar - HSPCB",27-07-2024 12:00:00,30.1480566,77.2893471,CO,29,52,43
India,Himachal Pradesh,Baddi,"HIMUDA Complex Phase-1, Baddi - HPPCB",27-07-2024 12:00:00,30.943887,76.801991,PM10,18,178,91
India,Himachal Pradesh,Baddi,"HIMUDA Complex Phase-1, Baddi - HPPCB",27-07-2024 12:00:00,30.943887,76.801991,NH3,7,9,8
India,Himachal Pradesh,Baddi,"HIMUDA Complex Phase-1, Baddi - HPPCB",27-07-2024 12:00:00,30.943887,76.801991,OZONE,10,95,26
India,Jammu_and_Kashmir,Srinagar,"Rajbagh, Srinagar - JKSPCB",27-07-2024 12:00:00,34.066206,74.819820,PM2.5,34,61,45
India,Jharkhand,Dhanbad,"Kalakusuma, Dhanbad - DMC",27-07-2024 12:00:00,23.811548,86.481238,CO,126,134,132
India,Jharkhand,Dhanbad,"Sardar Patel Nagar, Dhanbad - JSPCB",27-07-2024 12:00:00,23.80569,86.44268,OZONE,NA,NA,NA
India,Jharkhand,Jorapokhar,"Tata Stadium, Jorapokhar - JSPCB",27-07-2024 12:00:00,23.707909,86.414670,PM10,NA,NA,NA
India,Jharkhand,Pathardih,"Mohalbani Ghat, Pathardih - DMC",27-07-2024 12:00:00,23.669880,86.411725,PM10,NA,NA,NA
India,Jharkhand,Pathardih,"Mohalbani Ghat, Pathardih - DMC",27-07-2024 12:00:00,23.669880,86.411725,NO2,NA,NA,NA
India,Jharkhand,Pathardih,"Mohalbani Ghat, Pathardih - DMC",27-07-2024 12:00:00,23.669880,86.411725,OZONE,NA,NA,NA
India,Karnataka,Bagalkot,"Vidayagiri, Bagalkot - KSPCB",27-07-2024 12:00:00,16.172806,75.659694,SO2,4,4,4
India,Karnataka,Belgaum,"Ramteerth Nagar, Belgaum - KSPCB",27-07-2024 12:00:00,15.888653,74.541751,NO2,NA,NA,NA
India,Karnataka,Belgaum,"Ramteerth Nagar, Belgaum - KSPCB",27-07-2024 12:00:00,15.888653,74.541751,NH3,4,9,6
India,Karnataka,Bengaluru,"BTM Layout, Bengaluru - CPCB",27-07-2024 12:00:00,12.9135218,77.5950804,PM10,18,41,30
