country,state,city,station,last_update,latitude,longitude,pollutant_id,pollutant_min,pollutant_max,pollutant_avg
India,Andhra_Pradesh,Amaravati,"Secretariat, Amaravati - APPCB",18-05-2024 16:00:00,16.5150833,80.5181667,PM10,1,20,10
India,Andhra_Pradesh,Amaravati,"Secretariat, Amaravati - APPCB",18-05-2024 16:00:00,16.5150833,80.5181667,NH3,2,4,3
India,Andhra_Pradesh,Anantapur,"Gulzarpet, Anantapur - APPCB",18-05-2024 16:00:00,14.675886,77.593027,PM10,42,83,56
India,Andhra_Pradesh,Anantapur,"Gulzarpet, Anantapur - APPCB",18-05-2024 16:00:00,14.675886,77.593027,CO,26,49,43
India,Andhra_Pradesh,Anantapur,"Gulzarpet, Anantapur - APPCB",18-05-2024 16:00:00,14.675886,77.593027,OZONE,1,24,16
India,Andhra_Pradesh,Chittoor,"Gangineni Cheruvu, Chittoor - APPCB",18-05-2024 16:00:00,13.204880,79.097889,PM2.5,17,269,84
India,Andhra_Pradesh,Kadapa,"Yerramukkapalli, Kadapa - APPCB",18-05-2024 16:00:00,14.465052,78.824187,PM10,NA,NA,NA
India,Andhra_Pradesh,Rajamahendravaram,"Anand Kala Kshetram, Rajamahendravaram - APPCB",18-05-2024 16:00:00,16.9872867,81.7363176,PM10,9,55,25
India,Andhra_Pradesh,Rajamahendravaram,"Anand Kala Kshetram, Rajamahendravaram - APPCB",18-05-2024 16:00:00,16.9872867,81.7363176,NO2,12,49,26
India,Andhra_Pradesh,Vijayawada,"Kanuru, Vijayawada - APPCB",18-05-2024 16:00:00,16.486692,80.699436,CO,40,40,40
India,Andhra_Pradesh,Vijayawada,"Kanuru, Vijayawada - APPCB",18-05-2024 16:00:00,16.486692,80.699436,OZONE,29,29,29
India,Andhra_Pradesh,Vijayawada,"Rajiv Gandhi Park, Vijayawada - APPCB",18-05-2024 16:00:00,16.509717,80.612222,PM10,26,55,40
India,Andhra_Pradesh,Vijayawada,"Rajiv Gandhi Park, Vijayawada - APPCB",18-05-2024 16:00:00,16.509717,80.612222,OZONE,2,23,4
India,Andhra_Pradesh,Vijayawada,"Rajiv Nagar, Vijayawada - APPCB",18-05-2024 16:00:00,16.554731,80.649110,PM2.5,42,60,44
India,Andhra_Pradesh,Vijayawada,"Rajiv Nagar, Vijayawada - APPCB",18-05-2024 16:00:00,16.554731,80.649110,NH3,2,3,2
India,Andhra_Pradesh,Vijayawada,"Rajiv Nagar, Vijayawada - APPCB",18-05-2024 16:00:00,16.554731,80.649110,CO,36,36,36
India,Arunachal_Pradesh,Naharlagun,"Naharlagun, Naharlagun - APSPCB",18-05-2024 16:00:00,27.103358,93.679645,SO2,NA,NA,NA
India,Arunachal_Pradesh,Naharlagun,"Naharlagun, Naharlagun - APSPCB",18-05-2024 16:00:00,27.103358,93.679645,OZONE,2,2,2
India,Assam,Byrnihat,"Central Academy for SFS, Byrnihat - PCBA",18-05-2024 16:00:00,26.071318,91.87488,SO2,9,41,15
India,Assam,Guwahati,"IITG, Guwahati - PCBA",18-05-2024 16:00:00,26.2028636,91.70046436,PM2.5,NA,NA,NA
India,Assam,Guwahati,"LGBI Airport, Guwahati - PCBA",18-05-2024 16:00:00,26.10887,91.589544,NH3,1,4,2
India,Assam,Guwahati,"LGBI Airport, Guwahati - PCBA",18-05-2024 16:00:00,26.10887,91.589544,OZONE,8,69,35
India,Assam,Guwahati,"Pan Bazaar, Guwahati - PCBA",18-05-2024 16:00:00,26.187500,91.744194,OZONE,16,17,17
India,Assam,Nagaon,"Christianpatty, Nagaon - PCBA",18-05-2024 16:00:00,26.349082,92.68449,PM2.5,55,150,73
India,Assam,Silchar,"Tarapur, Silchar - PCBA",18-05-2024 16:00:00,24.82827,92.79525,PM2.5,31,48,40
India,Assam,Silchar,"Tarapur, Silchar - PCBA",18-05-2024 16:00:00,24.82827,92.79525,NO2,13,16,14
India,Assam,Silchar,"Tarapur, Silchar - PCBA",18-05-2024 16:00:00,24.82827,92.79525,NH3,1,1,1
India,Assam,Sivasagar,"Girls College, Sivasagar - PCBA",18-05-2024 16:00:00,26.987634,94.636574,PM10,44,64,52
India,Assam,Sivasagar,"Girls College, Sivasagar - PCBA",18-05-2024 16:00:00,26.987634,94.636574,OZONE,1,17,8
India,Bihar,Araria,"Kharahiya Basti, Araria - BSPCB",18-05-2024 16:00:00,26.146529,87.454184,PM2.5,40,364,141
India,Bihar,Araria,"Kharahiya Basti, Araria - BSPCB",18-05-2024 16:00:00,26.146529,87.454184,OZONE,7,10,9
India,Bihar,Arrah,"New DM Office, Arrah - BSPCB",18-05-2024 16:00:00,25.5626095,84.663264,NO2,9,28,15
India,Bihar,Aurangabad,"Gurdeo Nagar, Aurangabad - BSPCB",18-05-2024 16:00:00,24.75746,84.366208,NH3,7,21,13
India,Bihar,Aurangabad,"Gurdeo Nagar, Aurangabad - BSPCB",18-05-2024 16:00:00,24.75746,84.366208,CO,16,32,23
India,Bihar,Bhagalpur,"DM Office_Kachari Chowk, Bhagalpur - BSPCB",18-05-2024 16:00:00,25.251013,86.989001,PM2.5,120,312,194
India,Bihar,Bhagalpur,"DM Office_Kachari Chowk, Bhagalpur - BSPCB",18-05-2024 16:00:00,25.251013,86.989001,NH3,7,12,9
India,Bihar,Bhagalpur,"DM Office_Kachari Chowk, Bhagalpur - BSPCB",18-05-2024 16:00:00,25.251013,86.989001,SO2,9,102,54
India,Bihar,Bhagalpur,"Mayaganj, Bhagalpur - BSPCB",18-05-2024 16:00:00,25.265194,87.012947,PM2.5,95,329,224
India,Bihar,Bihar Sharif,"D M Colony, Bihar Sharif - BSPCB",18-05-2024 16:00:00,25.204762,85.514960,PM2.5,12,177,58
India,Bihar,Bihar Sharif,"D M Colony, Bihar Sharif - BSPCB",18-05-2024 16:00:00,25.204762,85.514960,PM10,18,169,78
India,Bihar,Buxar,"Charitra Van, Buxar - BSPCB (Formerly known as Central Jail)",18-05-2024 16:00:00,25.567520,83.966379,NO2,1,1,1
India,Bihar,Gaya,"Collectorate, Gaya - BSPCB",18-05-2024 16:00:00,24.7955,84.9994,NO2,1,4,3
India,Bihar,Gaya,"Kareemganj, Gaya - BSPCB",18-05-2024 16:00:00,24.792403,84.992416,OZONE,8,34,18
India,Bihar,Gaya,"SFTI Kusdihra, Gaya - BSPCB",18-05-2024 16:00:00,24.762518,84.982348,PM2.5,40,137,80
India,Bihar,Gaya,"SFTI Kusdihra, Gaya - BSPCB",18-05-2024 16:00:00,24.762518,84.982348,OZONE,3,91,64
India,Bihar,Hajipur,"Industrial Area, Hajipur - BSPCB",18-05-2024 16:00:00,25.697189,85.245900,PM10,167,366,268
India,Bihar,Katihar,"Mirchaibari, Katihar - BSPCB",18-05-2024 16:00:00,25.560083,87.553265,NH3,NA,NA,NA
India,Bihar,Katihar,"Mirchaibari, Katihar - BSPCB",18-05-2024 16:00:00,25.560083,87.553265,CO,26,41,29
India,Bihar,Kishanganj,"SDM Office_Khagra, Kishanganj - BSPCB",18-05-2024 16:00:00,26.0881305,87.93840336,PM10,85,315,162
India,Bihar,Kishanganj,"SDM Office_Khagra, Kishanganj - BSPCB",18-05-2024 16:00:00,26.0881305,87.93840336,NO2,26,32,29
India,Bihar,Kishanganj,"SDM Office_Khagra, Kishanganj - BSPCB",18-05-2024 16:00:00,26.0881305,87.93840336,OZONE,13,51,29
India,Bihar,Manguraha,"Forest Rest House, Manguraha - BSPCB",18-05-2024 16:00:00,27.308328,84.531742,NO2,21,24,22
India,Bihar,Manguraha,"Forest Rest House, Manguraha - BSPCB",18-05-2024 16:00:00,27.308328,84.531742,OZONE,1,75,25
India,Bihar,Motihari,"Gandak Colony, Motihari - BSPCB",18-05-2024 16:00:00,26.63086,84.90051,OZONE,13,53,38
India,Bihar,Munger,"Town Hall, Munger - BSPCB",18-05-2024 16:00:00,25.376776,86.471523,SO2,12,42,27
India,Bihar,Muzaffarpur,"Buddha Colony, Muzaffarpur - BSPCB",18-05-2024 16:00:00,26.11442,85.39813,PM2.5,159,330,264
India,Bihar,Muzaffarpur,"Buddha Colony, Muzaffarpur - BSPCB",18-05-2024 16:00:00,26.11442,85.39813,OZONE,30,79,66
India,Bihar,Muzaffarpur,"MIT-Daudpur Kothi, Muzaffarpur - BSPCB",18-05-2024 16:00:00,26.1403345,85.3650192,NH3,NA,NA,NA
India,Bihar,Muzaffarpur,"Muzaffarpur Collectorate, Muzaffarpur - BSPCB",18-05-2024 16:00:00,26.1209,85.3647,PM2.5,87,279,177
India,Bihar,Patna,"DRM Office Danapur, Patna - BSPCB",18-05-2024 16:00:00,25.586562,85.043586,NO2,14,94,38
India,Bihar,Patna,"Govt. High School Shikarpur, Patna - BSPCB",18-05-2024 16:00:00,25.592539,85.227158,NO2,19,26,23
India,Bihar,Patna,"Rajbansi Nagar, Patna - BSPCB",18-05-2024 16:00:00,25.599486,85.113666,PM10,131,308,200
India,Bihar,Patna,"Rajbansi Nagar, Patna - BSPCB",18-05-2024 16:00:00,25.599486,85.113666,CO,13,115,21
India,Bihar,Patna,"Samanpura, Patna - BSPCB",18-05-2024 16:00:00,25.596727,85.085624,OZONE,3,124,88
India,Bihar,Rajgir,"Dangi Tola, Rajgir - BSPCB",18-05-2024 16:00:00,25.03280,85.41948,NO2,16,21,18
India,Bihar,Saharsa,"Police Line, Saharsa - BSPCB",18-05-2024 16:00:00,25.892357,86.590325,CO,54,55,55
India,Bihar,Samastipur,"DM Office_Kasipur, Samastipur - BSPCB",18-05-2024 16:00:00,25.859655,85.77944,PM2.5,25,469,189
India,Bihar,Samastipur,"DM Office_Kasipur, Samastipur - BSPCB",18-05-2024 16:00:00,25.859655,85.77944,NO2,4,4,4
India,Bihar,Samastipur,"DM Office_Kasipur, Samastipur - BSPCB",18-05-2024 16:00:00,25.859655,85.77944,CO,5,141,18
India,Chandigarh,Chandigarh,"Sector-25, Chandigarh - CPCC",18-05-2024 16:00:00,30.751462,76.762879,PM2.5,87,217,170
India,Chandigarh,Chandigarh,"Sector-25, Chandigarh - CPCC",18-05-2024 16:00:00,30.751462,76.762879,PM10,77,261,156
India,Chandigarh,Chandigarh,"Sector-53, Chandigarh - CPCC",18-05-2024 16:00:00,30.719859,76.738637,PM10,106,336,209
India,Chandigarh,Chandigarh,"Sector-53, Chandigarh - CPCC",18-05-2024 16:00:00,30.719859,76.738637,NO2,7,112,50
India,Chandigarh,Chandigarh,"Sector-53, Chandigarh - CPCC",18-05-2024 16:00:00,30.719859,76.738637,CO,32,111,46
India,Chhattisgarh,Bhilai,"Civic Center, Bhilai - Bhilai Steel Plant",18-05-2024 16:00:00,21.185571,81.343175,PM10,12,39,24
India,Chhattisgarh,Bhilai,"Civic Center, Bhilai - Bhilai Steel Plant",18-05-2024 16:00:00,21.185571,81.343175,SO2,9,11,10
India,Chhattisgarh,Bhilai,"Hathkhoj, Bhilai - CECB",18-05-2024 16:00:00,21.224231,81.408350,NH3,8,9,9
India,Chhattisgarh,Bilaspur,"Mangala, Bilaspur - NTPC",18-05-2024 16:00:00,22.08815,82.13737,NO2,14,22,20
India,Chhattisgarh,Chhal,"Nawapara SECL Colony, Chhal - CECB",18-05-2024 16:00:00,22.118125,83.140608,NH3,2,2,2
India,Chhattisgarh,Korba,"Rampur, Korba - CECB",18-05-2024 16:00:00,22.368195,82.746431,NO2,16,35,30
India,Chhattisgarh,Korba,"Urja Nagar, Korba - CECB",18-05-2024 16:00:00,22.348441,82.549611,PM10,32,190,84
India,Chhattisgarh,Korba,"Urja Nagar, Korba - CECB",18-05-2024 16:00:00,22.348441,82.549611,NH3,3,9,6
India,Chhattisgarh,Korba,"Urja Nagar, Korba - CECB",18-05-2024 16:00:00,22.348441,82.549611,OZONE,1,2,1
India,Chhattisgarh,Kunjemura,"OP Jindal School, Kunjemura - CECB",18-05-2024 16:00:00,22.126650,83.483212,PM2.5,30,97,58
India,Chhattisgarh,Milupara,"Govt. Higher Secondary School, Milupara - CECB",18-05-2024 16:00:00,22.1910172,83.5197009,PM10,40,108,71
India,Chhattisgarh,Milupara,"Govt. Higher Secondary School, Milupara - CECB",18-05-2024 16:00:00,22.1910172,83.5197009,OZONE,6,23,17
India,Chhattisgarh,Raipur,"Bhatagaon New ISBT, Raipur - CECB",18-05-2024 16:00:00,21.219665,81.630094,PM2.5,NA,NA,NA
India,Chhattisgarh,Raipur,"Bhatagaon New ISBT, Raipur - CECB",18-05-2024 16:00:00,21.219665,81.630094,PM10,NA,NA,NA
India,Chhattisgarh,Raipur,"Bhatagaon New ISBT, Raipur - CECB",18-05-2024 16:00:00,21.219665,81.630094,NO2,3,8,5
India,Chhattisgarh,Raipur,"Bhatagaon New ISBT, Raipur - CECB",18-05-2024 16:00:00,21.219665,81.630094,SO2,1,3,2
India,Chhattisgarh,Raipur,"Bhatagaon New ISBT, Raipur - CECB",18-05-2024 16:00:00,21.219665,81.630094,CO,12,26,13
India,Chhattisgarh,Raipur,"Bhatagaon New ISBT, Raipur - CECB",18-05-2024 16:00:00,21.219665,81.630094,OZONE,3,8,5
India,Chhattisgarh,Raipur,"Krishak Nagar, Raipur - CECB",18-05-2024 16:00:00,21.237755,81.705301,PM10,11,44,24
India,Chhattisgarh,Raipur,"Siltara Phase-II, Raipur - CECB",18-05-2024 16:00:00,21.371751,81.664929,PM2.5,43,81,55
India,Chhattisgarh,Raipur,"Siltara Phase-II, Raipur - CECB",18-05-2024 16:00:00,21.371751,81.664929,CO,6,30,15
India,Chhattisgarh,Tumidih,"OP Jindal Industrial Park, Tumidih - CECB",18-05-2024 16:00:00,22.06631475,83.33820077,NH3,NA,NA,NA
India,Chhattisgarh,Tumidih,"OP Jindal Industrial Park, Tumidih - CECB",18-05-2024 16:00:00,22.06631475,83.33820077,SO2,NA,NA,NA
India,Delhi,Delhi,"Alipur, Delhi - DPCC",18-05-2024 16:00:00,28.815329,77.153010,NH3,5,10,8
India,Delhi,Delhi,"Anand Vihar, Delhi - DPCC",18-05-2024 16:00:00,28.647622,77.3158090,PM10,NA,NA,NA
India,Delhi,Delhi,"Anand Vihar, Delhi - DPCC",18-05-2024 16:00:00,28.647622,77.3158090,SO2,NA,NA,NA
India,Delhi,Delhi,"Ashok Vihar, Delhi - DPCC",18-05-2024 16:00:00,28.695381,77.181665,NH3,6,20,14
India,Delhi,Delhi,"Aya Nagar, Delhi - IMD",18-05-2024 16:00:00,28.4706914,77.1099364,PM2.5,10,335,217
India,Delhi,Delhi,"Aya Nagar, Delhi - IMD",18-05-2024 16:00:00,28.4706914,77.1099364,CO,44,108,80
India,Delhi,Delhi,"Bawana, Delhi - DPCC",18-05-2024 16:00:00,28.776200,77.051074,OZONE,2,196,191
India,Delhi,Delhi,"Burari Crossing, Delhi - IMD",18-05-2024 16:00:00,28.7256504,77.2011573,PM2.5,69,333,239
India,Delhi,Delhi,"Burari Crossing, Delhi - IMD",18-05-2024 16:00:00,28.7256504,77.2011573,PM10,119,473,296
India,Delhi,Delhi,"Burari Crossing, Delhi - IMD",18-05-2024 16:00:00,28.7256504,77.2011573,CO,33,104,56
India,Delhi,Delhi,"CRRI Mathura Road, Delhi - IMD",18-05-2024 16:00:00,28.5512005,77.2735737,CO,20,136,57
India,Delhi,Delhi,"Chandni Chowk, Delhi - IITM",18-05-2024 16:00:00,28.656756,77.227234,PM2.5,NA,NA,NA
India,Delhi,Delhi,"Chandni Chowk, Delhi - IITM",18-05-2024 16:00:00,28.656756,77.227234,OZONE,8,12,10
India,Delhi,Delhi,"DTU, Delhi - CPCB",18-05-2024 16:00:00,28.7500499,77.1112615,PM2.5,121,376,291
India,Delhi,Delhi,"DTU, Delhi - CPCB",18-05-2024 16:00:00,28.7500499,77.1112615,PM10,106,439,259
India,Delhi,Delhi,"DTU, Delhi - CPCB",18-05-2024 16:00:00,28.7500499,77.1112615,NO2,NA,NA,NA
India,Delhi,Delhi,"DTU, Delhi - CPCB",18-05-2024 16:00:00,28.7500499,77.1112615,SO2,36,54,41
India,Delhi,Delhi,"Dr. Karni Singh Shooting Range, Delhi - DPCC",18-05-2024 16:00:00,28.498571,77.264840,PM10,131,382,219
India,Delhi,Delhi,"Dr. Karni Singh Shooting Range, Delhi - DPCC",18-05-2024 16:00:00,28.498571,77.264840,NO2,31,144,76
India,Delhi,Delhi,"Dr. Karni Singh Shooting Range, Delhi - DPCC",18-05-2024 16:00:00,28.498571,77.264840,OZONE,5,280,148
India,Delhi,Delhi,"Dwarka-Sector 8, Delhi - DPCC ",18-05-2024 16:00:00,28.5710274,77.0719006,PM10,119,500,327
India,Delhi,Delhi,"Dwarka-Sector 8, Delhi - DPCC ",18-05-2024 16:00:00,28.5710274,77.0719006,OZONE,5,153,78
India,Delhi,Delhi,"IGI Airport (T3), Delhi - IMD",18-05-2024 16:00:00,28.5627763,77.1180053,CO,24,101,43
India,Delhi,Delhi,"ITO, Delhi - CPCB",18-05-2024 16:00:00,28.628624,77.241060,CO,10,162,24
India,Delhi,Delhi,"Jahangirpuri, Delhi - DPCC",18-05-2024 16:00:00,28.732820,77.170633,CO,26,149,68
India,Delhi,Delhi,"Jahangirpuri, Delhi - DPCC",18-05-2024 16:00:00,28.732820,77.170633,OZONE,4,137,90
India,Delhi,Delhi,"Jawaharlal Nehru Stadium, Delhi - DPCC",18-05-2024 16:00:00,28.580280,77.233829,PM10,127,316,216
India,Delhi,Delhi,"Lodhi Road, Delhi - IITM",18-05-2024 16:00:00,28.588333,77.221667,PM2.5,60,191,134
India,Delhi,Delhi,"Lodhi Road, Delhi - IITM",18-05-2024 16:00:00,28.588333,77.221667,SO2,12,49,32
India,Delhi,Delhi,"Lodhi Road, Delhi - IMD",18-05-2024 16:00:00,28.5918245,77.2273074,PM10,114,221,169
India,Delhi,Delhi,"Mandir Marg, Delhi - DPCC",18-05-2024 16:00:00,28.636429,77.201067,CO,3,111,36
India,Delhi,Delhi,"Mundka, Delhi - DPCC",18-05-2024 16:00:00,28.684678,77.076574,PM10,153,453,326
India,Delhi,Delhi,"NSIT Dwarka, Delhi - CPCB",18-05-2024 16:00:00,28.60909,77.0325413,PM2.5,307,364,334
India,Delhi,Delhi,"NSIT Dwarka, Delhi - CPCB",18-05-2024 16:00:00,28.60909,77.0325413,SO2,1,49,18
India,Delhi,Delhi,"Najafgarh, Delhi - DPCC",18-05-2024 16:00:00,28.570173,76.933762,PM2.5,37,348,162
India,Delhi,Delhi,"Najafgarh, Delhi - DPCC",18-05-2024 16:00:00,28.570173,76.933762,PM10,104,346,211
India,Delhi,Delhi,"Narela, Delhi - DPCC",18-05-2024 16:00:00,28.822836,77.101981,NH3,7,13,9
India,Delhi,Delhi,"Nehru Nagar, Delhi - DPCC",18-05-2024 16:00:00,28.567890,77.250515,OZONE,2,263,179
India,Delhi,Delhi,"North Campus, DU, Delhi - IMD",18-05-2024 16:00:00,28.6573814,77.1585447,PM2.5,96,361,265
India,Delhi,Delhi,"North Campus, DU, Delhi - IMD",18-05-2024 16:00:00,28.6573814,77.1585447,PM10,120,407,244
India,Delhi,Delhi,"North Campus, DU, Delhi - IMD",18-05-2024 16:00:00,28.6573814,77.1585447,NO2,13,82,43
India,Delhi,Delhi,"Patparganj, Delhi - DPCC",18-05-2024 16:00:00,28.623763,77.287209,NH3,7,10,8
India,Delhi,Delhi,"Patparganj, Delhi - DPCC",18-05-2024 16:00:00,28.623763,77.287209,OZONE,1,242,131
India,Delhi,Delhi,"Pusa, Delhi - DPCC",18-05-2024 16:00:00,28.639652,77.146275,PM10,153,454,278
India,Delhi,Delhi,"Pusa, Delhi - IMD",18-05-2024 16:00:00,28.636110,77.173332,PM2.5,NA,NA,NA
India,Delhi,Delhi,"Rohini, Delhi - DPCC",18-05-2024 16:00:00,28.732528,77.119920,PM2.5,55,406,266
India,Delhi,Delhi,"Rohini, Delhi - DPCC",18-05-2024 16:00:00,28.732528,77.119920,PM10,NA,NA,NA
India,Delhi,Delhi,"Sirifort, Delhi - CPCB",18-05-2024 16:00:00,28.5504249,77.2159377,PM10,147,446,262
India,Delhi,Delhi,"Sirifort, Delhi - CPCB",18-05-2024 16:00:00,28.5504249,77.2159377,SO2,28,46,34
India,Delhi,Delhi,"Sri Aurobindo Marg, Delhi - DPCC",18-05-2024 16:00:00,28.531346,77.190156,CO,8,98,24
India,Delhi,Delhi,"Vivek Vihar, Delhi - DPCC",18-05-2024 16:00:00,28.672342,77.315260,CO,20,133,40
India,Gujarat,Ahmedabad,"Chandkheda, Ahmedabad - IITM",18-05-2024 16:00:00,23.107969,72.574648,OZONE,33,70,51
India,Gujarat,Ahmedabad,"Gyaspur, Ahmedabad - IITM",18-05-2024 16:00:00,22.977134,72.553024,NO2,39,50,45
India,Gujarat,Ahmedabad,"Maninagar, Ahmedabad - GPCB",18-05-2024 16:00:00,23.002657,72.591912,SO2,3,130,72
India,Gujarat,Ahmedabad,"Rakhial, Ahmedabad - IITM",18-05-2024 16:00:00,23.016834,72.625775,PM2.5,54,100,73
India,Gujarat,Ahmedabad,"Rakhial, Ahmedabad - IITM",18-05-2024 16:00:00,23.016834,72.625775,NH3,17,42,26
India,Gujarat,Ahmedabad,"Sardar Vallabhbhai Patel Stadium, Ahmedabad - IITM",18-05-2024 16:00:00,23.043070,72.562968,PM10,86,139,112
India,Gujarat,Ahmedabad,"Sardar Vallabhbhai Patel Stadium, Ahmedabad - IITM",18-05-2024 16:00:00,23.043070,72.562968,CO,24,84,37
India,Gujarat,Gandhinagar,"Sector-10, Gandhinagar - GPCB",18-05-2024 16:00:00,23.221714,72.654328,PM2.5,33,68,50
India,Gujarat,Gandhinagar,"Sector-10, Gandhinagar - GPCB",18-05-2024 16:00:00,23.221714,72.654328,NO2,13,17,16
India,Gujarat,Gandhinagar,"Sector-10, Gandhinagar - GPCB",18-05-2024 16:00:00,23.221714,72.654328,CO,16,70,19
India,Gujarat,Gandhinagar,"Sector-10, Gandhinagar - GPCB",18-05-2024 16:00:00,23.221714,72.654328,OZONE,3,68,35
India,Gujarat,Vapi,"Phase-1 GIDC, Vapi - GPCB",18-05-2024 16:00:00,20.362421,72.918013,OZONE,1,5,3
India,Gujarat,Vatva,"Phase-4 GIDC, Vatva - GPCB",18-05-2024 16:00:00,22.969611,72.643500,NH3,8,13,10
India,Haryana,Ambala,"Patti Mehar, Ambala - HSPCB",18-05-2024 16:00:00,30.379589,76.778328,PM2.5,73,287,177
India,Haryana,Ambala,"Patti Mehar, Ambala - HSPCB",18-05-2024 16:00:00,30.379589,76.778328,NO2,7,21,14
India,Haryana,Bahadurgarh,"Arya Nagar, Bahadurgarh - HSPCB",18-05-2024 16:00:00,28.6701,76.9254,PM2.5,48,312,203
India,Haryana,Bahadurgarh,"Arya Nagar, Bahadurgarh - HSPCB",18-05-2024 16:00:00,28.6701,76.9254,NH3,8,10,9
India,Haryana,Bahadurgarh,"Arya Nagar, Bahadurgarh - HSPCB",18-05-2024 16:00:00,28.6701,76.9254,CO,88,102,98
India,Haryana,Ballabgarh,"Nathu Colony, Ballabgarh - HSPCB",18-05-2024 16:00:00,28.3419248,77.319699,CO,4,138,24
India,Haryana,Bhiwani,"H.B. Colony, Bhiwani - HSPCB",18-05-2024 16:00:00,28.806223,76.141105,PM2.5,84,294,197
India,Haryana,Dharuhera,"Municipal Corporation Office, Dharuhera -  HSPCB",18-05-2024 16:00:00,28.206800,76.799700,NO2,47,112,78
India,Haryana,Dharuhera,"Municipal Corporation Office, Dharuhera -  HSPCB",18-05-2024 16:00:00,28.206800,76.799700,SO2,8,99,18
India,Haryana,Faridabad,"New Industrial Town, Faridabad - HSPCB",18-05-2024 16:00:00,28.39072,77.30059,SO2,11,13,12
India,Haryana,Faridabad,"New Industrial Town, Faridabad - HSPCB",18-05-2024 16:00:00,28.39072,77.30059,CO,1,144,12
India,Haryana,Faridabad,"New Industrial Town, Faridabad - HSPCB",18-05-2024 16:00:00,28.39072,77.30059,OZONE,1,137,88
India,Haryana,Faridabad,"Sector 30, Faridabad - HSPCB",18-05-2024 16:00:00,28.4417,77.3217,NO2,30,33,31
India,Haryana,Fatehabad,"Huda Sector, Fatehabad - HSPCB",18-05-2024 16:00:00,29.503664,75.467934,OZONE,25,77,42
India,Haryana,Gurugram,"NISE Gwal Pahari, Gurugram - IMD",18-05-2024 16:00:00,28.422681,77.148944,PM2.5,14,342,193
India,Haryana,Gurugram,"Sector-51, Gurugram - HSPCB",18-05-2024 16:00:00,28.4227,77.0667,PM10,104,500,266
India,Haryana,Gurugram,"Sector-51, Gurugram - HSPCB",18-05-2024 16:00:00,28.4227,77.0667,CO,24,160,50
India,Haryana,Gurugram,"Teri Gram, Gurugram - HSPCB",18-05-2024 16:00:00,28.4275,77.1465,PM10,NA,NA,NA
India,Haryana,Gurugram,"Teri Gram, Gurugram - HSPCB",18-05-2024 16:00:00,28.4275,77.1465,NO2,NA,NA,NA
India,Haryana,Gurugram,"Vikas Sadan, Gurugram - HSPCB",18-05-2024 16:00:00,28.4501238,77.0263051,CO,54,150,113
India,Haryana,Hisar,"Urban Estate-II, Hisar - HSPCB",18-05-2024 16:00:00,29.140560,75.744941,PM2.5,NA,NA,NA
India,Haryana,Hisar,"Urban Estate-II, Hisar - HSPCB",18-05-2024 16:00:00,29.140560,75.744941,NO2,NA,NA,NA
India,Haryana,Jind,"Police Lines, Jind - HSPCB",18-05-2024 16:00:00,29.307814,76.337619,SO2,3,101,26
India,Haryana,Karnal,"Sector-12, Karnal - HSPCB",18-05-2024 16:00:00,29.695300,77.002700,PM2.5,99,308,206
India,Haryana,Karnal,"Sector-12, Karnal - HSPCB",18-05-2024 16:00:00,29.695300,77.002700,NH3,10,13,11
India,Haryana,Karnal,"Sector-12, Karnal - HSPCB",18-05-2024 16:00:00,29.695300,77.002700,CO,19,65,40
India,Haryana,Mandikhera,"General Hospital, Mandikhera - HSPCB",18-05-2024 16:00:00,27.9002,76.9938,SO2,32,37,35
India,Haryana,Manesar,"Sector-2 IMT, Manesar - HSPCB",18-05-2024 16:00:00,28.360699,76.936090,SO2,4,39,12
India,Haryana,Narnaul,"Shastri Nagar, Narnaul - HSPCB",18-05-2024 16:00:00,28.060249,76.113115,PM2.5,NA,NA,NA
India,Haryana,Narnaul,"Shastri Nagar, Narnaul - HSPCB",18-05-2024 16:00:00,28.060249,76.113115,OZONE,53,70,58
India,Haryana,Palwal,"Shyam Nagar, Palwal - HSPCB",18-05-2024 16:00:00,28.1485564,77.3320667,PM10,78,129,113
India,Haryana,Palwal,"Shyam Nagar, Palwal - HSPCB",18-05-2024 16:00:00,28.1485564,77.3320667,NO2,23,25,24
India,Haryana,Palwal,"Shyam Nagar, Palwal - HSPCB",18-05-2024 16:00:00,28.1485564,77.3320667,CO,21,43,28
India,Haryana,Panchkula,"Sector-6, Panchkula - HSPCB ",18-05-2024 16:00:00,30.7057778,76.8531805555555,SO2,2,68,15
India,Haryana,Panipat,"Sector-18, Panipat - HSPCB",18-05-2024 16:00:00,29.432304,76.972765,NO2,31,32,31
India,Haryana,Panipat,"Sector-18, Panipat - HSPCB",18-05-2024 16:00:00,29.432304,76.972765,NH3,2,3,3
India,Haryana,Rohtak,"MD University, Rohtak - HSPCB",18-05-2024 16:00:00,28.52123,76.37138,NO2,47,53,50
India,Haryana,Sirsa,"F-Block, Sirsa - HSPCB",18-05-2024 16:00:00,29.536400,75.015800,PM2.5,NA,NA,NA
India,Haryana,Sonipat,"Murthal, Sonipat - HSPCB",18-05-2024 16:00:00,29.027200,77.062100,NH3,5,10,9
India,Haryana,Yamuna Nagar,"Gobind Pura, Yamuna Nagar - HSPCB",18-05-2024 16:00:00,30.1480566,77.2893471,OZONE,54,73,67
India,Jammu_and_Kashmir,Srinagar,"Rajbagh, Srinagar - JKSPCB",18-05-2024 16:00:00,34.066206,74.819820,PM2.5,NA,NA,NA
India,Jammu_and_Kashmir,Srinagar,"Rajbagh, Srinagar - JKSPCB",18-05-2024 16:00:00,34.066206,74.819820,CO,NA,NA,NA
India,Jharkhand,Dhanbad,"Sardar Patel Nagar, Dhanbad - JSPCB",18-05-2024 16:00:00,23.80569,86.44268,CO,113,152,139
India,Jharkhand,Jorapokhar,"Tata Stadium, Jorapokhar - JSPCB",18-05-2024 16:00:00,23.707909,86.414670,OZONE,1,16,6
India,Jharkhand,Pathardih,"Mohalbani Ghat, Pathardih - DMC",18-05-2024 16:00:00,23.669880,86.411725,PM2.5,NA,NA,NA
India,Karnataka,Bengaluru,"Bapuji Nagar, Bengaluru - KSPCB",18-05-2024 16:00:00,12.951913,77.539784,PM2.5,13,51,30
India,Karnataka,Bengaluru,"Bapuji Nagar, Bengaluru - KSPCB",18-05-2024 16:00:00,12.951913,77.539784,NH3,1,1,1
India,Karnataka,Bengaluru,"Bapuji Nagar, Bengaluru - KSPCB",18-05-2024 16:00:00,12.951913,77.539784,OZONE,8,22,14
India,Karnataka,Bengaluru,"Hebbal, Bengaluru - KSPCB",18-05-2024 16:00:00,13.029152,77.585901,NO2,4,5,5
India,Karnataka,Bengaluru,"Jayanagar 5th Block, Bengaluru - KSPCB",18-05-2024 16:00:00,12.920984,77.584908,NO2,18,30,23
India,Karnataka,Bengaluru,"Jayanagar 5th Block, Bengaluru - KSPCB",18-05-2024 16:00:00,12.920984,77.584908,OZONE,27,29,27
India,Karnataka,Bengaluru,"Kasturi Nagar, Bengaluru - KSPCB",18-05-2024 16:00:00,13.003872,77.664217,CO,25,25,25
India,Karnataka,Bengaluru,"Peenya, Bengaluru - CPCB",18-05-2024 16:00:00,13.0270199,77.494094,SO2,13,17,15
India,Karnataka,Bengaluru,"Peenya, Bengaluru - CPCB",18-05-2024 16:00:00,13.0270199,77.494094,CO,65,88,79
India,Karnataka,Bengaluru,"RVCE-Mailasandra, Bengaluru - KSPCB",18-05-2024 16:00:00,12.921418,77.502466,PM2.5,11,52,30
India,Karnataka,Bengaluru,"RVCE-Mailasandra, Bengaluru - KSPCB",18-05-2024 16:00:00,12.921418,77.502466,NO2,16,17,17
India,Karnataka,Bengaluru,"RVCE-Mailasandra, Bengaluru - KSPCB",18-05-2024 16:00:00,12.921418,77.502466,SO2,7,8,8
India,Karnataka,Bengaluru,"Shivapura_Peenya, Bengaluru - KSPCB",18-05-2024 16:00:00,13.0246342,77.5080115,NH3,4,4,4
India,Karnataka,Bengaluru,"Shivapura_Peenya, Bengaluru - KSPCB",18-05-2024 16:00:00,13.0246342,77.5080115,SO2,3,8,5
India,Karnataka,Bengaluru,"Silk Board, Bengaluru - KSPCB",18-05-2024 16:00:00,12.917348,77.622813,PM2.5,15,62,34
India,Karnataka,Bengaluru,"Silk Board, Bengaluru - KSPCB",18-05-2024 16:00:00,12.917348,77.622813,SO2,7,16,11
India,Karnataka,Bengaluru,"Silk Board, Bengaluru - KSPCB",18-05-2024 16:00:00,12.917348,77.622813,CO,8,14,12
India,Karnataka,Bidar,"Naubad, Bidar - KSPCB",18-05-2024 16:00:00,17.930306,77.482194,CO,72,89,80
India,Karnataka,Chamarajanagar,"Urban, Chamarajanagar - KSPCB",18-05-2024 16:00:00,11.55358,76.55521,PM2.5,20,45,27
India,Karnataka,Chikkaballapur,"Chikkaballapur Rural, Chikkaballapur - KSPCB",18-05-2024 16:00:00,13.428828,77.731418,CO,9,20,16
India,Karnataka,Davanagere,"Devaraj Urs Badavane, Davanagere - KSPCB",18-05-2024 16:00:00,14.475800,75.905200,NO2,11,18,13
India,Karnataka,Davanagere,"Devaraj Urs Badavane, Davanagere - KSPCB",18-05-2024 16:00:00,14.475800,75.905200,NH3,1,2,1
India,Karnataka,Hassan,"B.Katihalli, Hassan - KSPCB",18-05-2024 16:00:00,13.008556,76.125258,NO2,10,13,11
India,Karnataka,Haveri,"Ashwini Nagar, Haveri - KSPCB",18-05-2024 16:00:00,14.791800,75.389600,OZONE,38,78,61
India,Karnataka,Hubballi,"Lingaraj Nagar, Hubballi - KSPCB",18-05-2024 16:00:00,15.3714823,75.1160168,NO2,10,10,10
India,Karnataka,Hubballi,"Lingaraj Nagar, Hubballi - KSPCB",18-05-2024 16:00:00,15.3714823,75.1160168,CO,10,48,30
India,Karnataka,Kalaburagi,"Lal Bahadur Shastri Nagar, Kalaburagi - KSPCB",18-05-2024 16:00:00,17.321993,76.822628,PM2.5,10,88,47
India,Karnataka,Kalaburagi,"Lal Bahadur Shastri Nagar, Kalaburagi - KSPCB",18-05-2024 16:00:00,17.321993,76.822628,SO2,11,15,14
India,Karnataka,Kalaburagi,"Lal Bahadur Shastri Nagar, Kalaburagi - KSPCB",18-05-2024 16:00:00,17.321993,76.822628,CO,42,54,44
India,Karnataka,Karwar,"KHB Colony, Karwar - KSPCB",18-05-2024 16:00:00,14.816666,74.141003,NO2,1,9,3
India,Karnataka,Kolar,"Tamaka Ind. Area, Kolar - KSPCB",18-05-2024 16:00:00,13.1276288,78.1570122,SO2,10,13,10
India,Karnataka,Kolar,"Tamaka Ind. Area, Kolar - KSPCB",18-05-2024 16:00:00,13.1276288,78.1570122,OZONE,11,47,34
India,Karnataka,Koppal,"Diwator Nagar, Koppal - KSPCB",18-05-2024 16:00:00,15.347630,76.181767,PM10,7,30,17
India,Karnataka,Madikeri,"Stuart Hill, Madikeri - KSPCB",18-05-2024 16:00:00,12.415911,75.735050,SO2,4,4,4
India,Karnataka,Mysuru,"Hebbal 1st Stage, Mysuru - KSPCB",18-05-2024 16:00:00,12.21041,76.37376,NO2,NA,NA,NA
India,Karnataka,Raichur,"Haji Colony, Raichur - KSPCB",18-05-2024 16:00:00,16.208139,77.348417,CO,91,104,100
India,Karnataka,Ramanagara,"Vijay Nagar, Ramanagara - KSPCB",18-05-2024 16:00:00,12.733409,77.298051,SO2,28,50,37
India,Karnataka,Ramanagara,"Vijay Nagar, Ramanagara - KSPCB",18-05-2024 16:00:00,12.733409,77.298051,CO,10,30,18
India,Karnataka,Shivamogga,"Vinoba Nagara, Shivamogga - KSPCB",18-05-2024 16:00:00,13.940000,75.555917,PM2.5,34,53,38
India,Karnataka,Shivamogga,"Vinoba Nagara, Shivamogga - KSPCB",18-05-2024 16:00:00,13.940000,75.555917,CO,19,46,33
India,Karnataka,Udupi,"Brahmagiri, Udupi - KSPCB",18-05-2024 16:00:00,13.34194444,74.74694444,PM2.5,6,55,24
India,Karnataka,Udupi,"Brahmagiri, Udupi - KSPCB",18-05-2024 16:00:00,13.34194444,74.74694444,NH3,1,1,1
India,Karnataka,Vijayapura,"Ibrahimpur, Vijayapura - KSPCB",18-05-2024 16:00:00,16.802639,75.722694,CO,36,40,38
India,Karnataka,Yadgir,"Collector Office, Yadgir - KSPCB",18-05-2024 16:00:00,16.7602,77.1428,PM10,6,44,21
India,Karnataka,Yadgir,"Collector Office, Yadgir - KSPCB",18-05-2024 16:00:00,16.7602,77.1428,NH3,NA,NA,NA
India,Karnataka,Yadgir,"Collector Office, Yadgir - KSPCB",18-05-2024 16:00:00,16.7602,77.1428,SO2,5,39,17
India,Karnataka,Yadgir,"Collector Office, Yadgir - KSPCB",18-05-2024 16:00:00,16.7602,77.1428,OZONE,18,19,19
India,Kerala,Kannur,"Thavakkara, Kannur - Kerala PCB",18-05-2024 16:00:00,11.875000,75.373200,SO2,1,4,2
India,Kerala,Kollam,"Polayathode, Kollam - Kerala PCB",18-05-2024 16:00:00,8.8787,76.6073,PM10,NA,NA,NA
India,Kerala,Thiruvananthapuram,"Kariavattom, Thiruvananthapuram - Kerala PCB",18-05-2024 16:00:00,8.563700,76.886500,NH3,1,1,1
India,Kerala,Thiruvananthapuram,"Plammoodu, Thiruvananthapuram - Kerala PCB",18-05-2024 16:00:00,8.5149093,76.9435879,NH3,1,1,1
India,Kerala,Thiruvananthapuram,"Plammoodu, Thiruvananthapuram - Kerala PCB",18-05-2024 16:00:00,8.5149093,76.9435879,OZONE,5,57,20
India,Kerala,Thrissur,"Corporation Ground, Thrissur - Kerala PCB",18-05-2024 16:00:00,10.532400,76.215900,SO2,NA,NA,NA
India,Madhya Pradesh,Bhopal,"Idgah Hills, Bhopal - MPPCB",18-05-2024 16:00:00,23.264759,77.381568,NO2,13,80,26
India,Madhya Pradesh,Bhopal,"Idgah Hills, Bhopal - MPPCB",18-05-2024 16:00:00,23.264759,77.381568,CO,16,74,22
India,Madhya Pradesh,Dewas,"Bhopal Chauraha, Dewas - MPPCB",18-05-2024 16:00:00,22.9682591,76.064118,PM2.5,33,223,90
India,Madhya Pradesh,Dewas,"Bhopal Chauraha, Dewas - MPPCB",18-05-2024 16:00:00,22.9682591,76.064118,PM10,42,144,84
India,Madhya Pradesh,Dewas,"Bhopal Chauraha, Dewas - MPPCB",18-05-2024 16:00:00,22.9682591,76.064118,NH3,3,3,3
India,Madhya Pradesh,Dewas,"Bhopal Chauraha, Dewas - MPPCB",18-05-2024 16:00:00,22.9682591,76.064118,SO2,16,52,27
India,Madhya Pradesh,Gwalior,"City Center, Gwalior - MPPCB",18-05-2024 16:00:00,26.203442,78.193251,PM2.5,32,162,74
India,Madhya Pradesh,Gwalior,"City Center, Gwalior - MPPCB",18-05-2024 16:00:00,26.203442,78.193251,NH3,2,7,4
India,Madhya Pradesh,Gwalior,"City Center, Gwalior - MPPCB",18-05-2024 16:00:00,26.203442,78.193251,CO,18,110,44
India,Madhya Pradesh,Gwalior,"Deen Dayal Nagar, Gwalior - MPPCB",18-05-2024 16:00:00,26.259242,78.216432,PM10,NA,NA,NA
India,Madhya Pradesh,Gwalior,"Deen Dayal Nagar, Gwalior - MPPCB",18-05-2024 16:00:00,26.259242,78.216432,NO2,NA,NA,NA
India,Madhya Pradesh,Gwalior,"Maharaj Bada, Gwalior - MPPCB",18-05-2024 16:00:00,26.200388,78.147714,SO2,9,25,11
India,Madhya Pradesh,Gwalior,"Maharaj Bada, Gwalior - MPPCB",18-05-2024 16:00:00,26.200388,78.147714,OZONE,24,211,174
India,Madhya Pradesh,Indore,"Maguda Nagar, Indore - IMC",18-05-2024 16:00:00,22.7524,75.8872,PM10,33,90,52
India,Madhya Pradesh,Indore,"Maguda Nagar, Indore - IMC",18-05-2024 16:00:00,22.7524,75.8872,NH3,1,2,1
India,Madhya Pradesh,Indore,"Regional Park, Indore - IMC",18-05-2024 16:00:00,22.6780,75.8559,PM2.5,NA,NA,NA
India,Madhya Pradesh,Indore,"Regional Park, Indore - IMC",18-05-2024 16:00:00,22.6780,75.8559,CO,24,28,27
India,Madhya Pradesh,Indore,"Residency Area, Indore - IMC",18-05-2024 16:00:00,22.7084,75.8815,PM10,40,77,53
India,Madhya Pradesh,Indore,"Residency Area, Indore - IMC",18-05-2024 16:00:00,22.7084,75.8815,SO2,27,33,30
India,Madhya Pradesh,Indore,"Residency Area, Indore - IMC",18-05-2024 16:00:00,22.7084,75.8815,CO,13,14,13
India,Madhya Pradesh,Jabalpur,"Gupteshwar, Jabalpur - JMC",18-05-2024 16:00:00,23.142888,79.916147,OZONE,43,175,175
India,Madhya Pradesh,Jabalpur,"Marhatal, Jabalpur - MPPCB",18-05-2024 16:00:00,23.168606,79.932247,PM10,57,131,82
India,Madhya Pradesh,Jabalpur,"Marhatal, Jabalpur - MPPCB",18-05-2024 16:00:00,23.168606,79.932247,NO2,14,60,30
India,Madhya Pradesh,Jabalpur,"Marhatal, Jabalpur - MPPCB",18-05-2024 16:00:00,23.168606,79.932247,CO,40,67,47
India,Madhya Pradesh,Jabalpur,"Marhatal, Jabalpur - MPPCB",18-05-2024 16:00:00,23.168606,79.932247,OZONE,10,104,49
India,Madhya Pradesh,Jabalpur,"Suhagi, Jabalpur - JMC",18-05-2024 16:00:00,23.218135,79.957770,NO2,7,44,38
India,Madhya Pradesh,Jabalpur,"Suhagi, Jabalpur - JMC",18-05-2024 16:00:00,23.218135,79.957770,SO2,9,18,15
India,Madhya Pradesh,Maihar,"Sahilara, Maihar - KJS Cements",18-05-2024 16:00:00,24.2613009,80.7231783,NO2,8,9,9
India,Madhya Pradesh,Sagar,"Deen Dayal Nagar, Sagar - MPPCB",18-05-2024 16:00:00,23.8640158,78.80289321,SO2,8,16,12
India,Madhya Pradesh,Satna,"Bandhavgar Colony, Satna - Birla Cement",18-05-2024 16:00:00,24.58434363,80.8549414,PM10,27,49,39
India,Madhya Pradesh,Singrauli,"Suryakiran Bhawan NCL, Singrauli - MPPCB",18-05-2024 16:00:00,24.108970,82.645580,PM10,40,115,73
India,Madhya Pradesh,Singrauli,"Suryakiran Bhawan NCL, Singrauli - MPPCB",18-05-2024 16:00:00,24.108970,82.645580,NH3,3,5,4
India,Maharashtra,Ahmednagar,"Tarakpur, Ahmednagar - MPCB",18-05-2024 16:00:00,19.10122,74.73339,PM2.5,41,130,76
India,Maharashtra,Ahmednagar,"Tarakpur, Ahmednagar - MPCB",18-05-2024 16:00:00,19.10122,74.73339,SO2,11,56,21
India,Maharashtra,Akola,"Ramdaspeth, Akola - MPCB",18-05-2024 16:00:00,20.719516,77.000253,CO,25,54,28
India,Maharashtra,Akola,"Ramdaspeth, Akola - MPCB",18-05-2024 16:00:00,20.719516,77.000253,OZONE,5,105,56
India,Maharashtra,Amravati,"Shivneri Colony, Amravati - MPCB",18-05-2024 16:00:00,20.9402359,77.7895248,CO,10,27,14
India,Maharashtra,Amravati,"Shri Shivaji Science College, Amaravati - MPCB",18-05-2024 16:00:00,20.939198,77.765701,NO2,8,63,18
India,Maharashtra,Aurangabad,"MIDC Chilkalthana, Aurangabad - MPCB",18-05-2024 16:00:00,19.875620,75.387310,PM2.5,55,193,114
India,Maharashtra,Aurangabad,"MIDC Chilkalthana, Aurangabad - MPCB",18-05-2024 16:00:00,19.875620,75.387310,PM10,72,125,95
India,Maharashtra,Aurangabad,"Rachnakar Colony, Aurangabad - MPCB",18-05-2024 16:00:00,19.863756,75.321188,CO,15,36,22
India,Maharashtra,Badlapur,"Katrap, Badlapur - MPCB",18-05-2024 16:00:00,19.16485,73.23409,PM2.5,62,86,72
India,Maharashtra,Badlapur,"Katrap, Badlapur - MPCB",18-05-2024 16:00:00,19.16485,73.23409,PM10,43,102,70
India,Maharashtra,Badlapur,"Katrap, Badlapur - MPCB",18-05-2024 16:00:00,19.16485,73.23409,OZONE,6,209,53
India,Maharashtra,Belapur,"CBD Belapur, Belapur - MPCB",18-05-2024 16:00:00,19.0243902,73.0406721,NH3,2,2,2
India,Maharashtra,Belapur,"CBD Belapur, Belapur - MPCB",18-05-2024 16:00:00,19.0243902,73.0406721,OZONE,13,300,137
India,Maharashtra,Bhiwandi,"Gokul Nagar, Bhiwandi - MPCB",18-05-2024 16:00:00,19.309073,73.057223,PM2.5,71,169,108
India,Maharashtra,Bhiwandi,"Gokul Nagar, Bhiwandi - MPCB",18-05-2024 16:00:00,19.309073,73.057223,NO2,14,42,26
India,Maharashtra,Chandrapur,"Chauhan Colony, Chandrapur - MPCB",18-05-2024 16:00:00,19.962900,79.298714,PM10,NA,NA,NA
India,Maharashtra,Chandrapur,"MIDC Khutala, Chandrapur - MPCB",18-05-2024 16:00:00,19.9775302,79.2337086,PM2.5,1,32,9
India,Maharashtra,Chandrapur,"MIDC Khutala, Chandrapur - MPCB",18-05-2024 16:00:00,19.9775302,79.2337086,PM10,4,40,15
India,Maharashtra,Jalna,"Old MIDC, Jalna - MPCB",18-05-2024 16:00:00,19.854616,75.905894,PM2.5,30,55,39
India,Maharashtra,Jalna,"Old MIDC, Jalna - MPCB",18-05-2024 16:00:00,19.854616,75.905894,CO,19,29,21
India,Maharashtra,Jalna,"Old MIDC, Jalna - MPCB",18-05-2024 16:00:00,19.854616,75.905894,OZONE,1,86,32
India,Maharashtra,Kalyan,"Khadakpada, Kalyan - MPCB",18-05-2024 16:00:00,19.25292,73.142019,NO2,22,160,53
India,Maharashtra,Kalyan,"Khadakpada, Kalyan - MPCB",18-05-2024 16:00:00,19.25292,73.142019,SO2,21,114,43
India,Maharashtra,Kolhapur,"Shivaji University, Kolhapur - MPCB",18-05-2024 16:00:00,16.6870449,74.2505872,OZONE,14,114,70
India,Maharashtra,Kolhapur,"Sinchan Bhavan, Kolhapur - MPCB",18-05-2024 16:00:00,16.7143745,74.2426398,PM10,NA,NA,NA
India,Maharashtra,Kolhapur,"Sinchan Bhavan, Kolhapur - MPCB",18-05-2024 16:00:00,16.7143745,74.2426398,NH3,7,8,8
India,Maharashtra,Latur,"Sawe Wadi, Latur - MPCB",18-05-2024 16:00:00,18.39963,76.57452,PM2.5,21,153,48
India,Maharashtra,Latur,"Sawe Wadi, Latur - MPCB",18-05-2024 16:00:00,18.39963,76.57452,NO2,13,121,39
India,Maharashtra,Latur,"Sawe Wadi, Latur - MPCB",18-05-2024 16:00:00,18.39963,76.57452,SO2,1,5,3
India,Maharashtra,Latur,"Sawe Wadi, Latur - MPCB",18-05-2024 16:00:00,18.39963,76.57452,CO,2,98,10
India,Maharashtra,Mahad,"Kamble Tarf Birwadi, Mahad - MPCB",18-05-2024 16:00:00,18.1023399,73.4783687,NO2,14,57,26
India,Maharashtra,Mira-Bhayandar,"Bhayandar West, Mira-Bhayandar - MPCB",18-05-2024 16:00:00,19.296481,72.840923,CO,24,37,27
India,Maharashtra,Mumbai,"Bandra Kurla Complex, Mumbai - MPCB",18-05-2024 16:00:00,19.065931,72.862131,PM2.5,17,68,47
India,Maharashtra,Mumbai,"Borivali East, Mumbai - IITM",18-05-2024 16:00:00,19.23241,72.86895,CO,4,51,22
India,Maharashtra,Mumbai,"Borivali East, Mumbai - IITM",18-05-2024 16:00:00,19.23241,72.86895,OZONE,29,141,68
India,Maharashtra,Mumbai,"Borivali East, Mumbai - MPCB",18-05-2024 16:00:00,19.2243333,72.8658113,NO2,9,23,13
India,Maharashtra,Mumbai,"Byculla, Mumbai - BMC",18-05-2024 16:00:00,18.9767,72.8380,PM2.5,12,34,19
India,Maharashtra,Mumbai,"Chakala-Andheri East, Mumbai - IITM",18-05-2024 16:00:00,19.11074,72.86084,PM10,NA,NA,NA
India,Maharashtra,Mumbai,"Chhatrapati Shivaji Intl. Airport (T2), Mumbai - MPCB",18-05-2024 16:00:00,19.10078,72.87462,NO2,NA,NA,NA
India,Maharashtra,Mumbai,"Colaba, Mumbai - MPCB",18-05-2024 16:00:00,18.910000,72.820000,PM2.5,26,55,40
India,Maharashtra,Mumbai,"Colaba, Mumbai - MPCB",18-05-2024 16:00:00,18.910000,72.820000,NH3,1,1,1
India,Maharashtra,Mumbai,"Deonar, Mumbai - IITM",18-05-2024 16:00:00,19.04946,72.9230,OZONE,5,192,98
India,Maharashtra,Mumbai,"Ghatkopar, Mumbai - BMC",18-05-2024 16:00:00,19.083694,72.920967,PM10,34,61,45
India,Maharashtra,Mumbai,"Ghatkopar, Mumbai - BMC",18-05-2024 16:00:00,19.083694,72.920967,NH3,2,10,4
India,Maharashtra,Mumbai,"Khindipada-Bhandup West, Mumbai - IITM",18-05-2024 16:00:00,19.1653323,72.922099,PM2.5,23,85,49
India,Maharashtra,Mumbai,"Kurla, Mumbai - MPCB",18-05-2024 16:00:00,19.0863,72.8888,PM2.5,37,337,141
India,Maharashtra,Mumbai,"Kurla, Mumbai - MPCB",18-05-2024 16:00:00,19.0863,72.8888,PM10,56,387,156
India,Maharashtra,Mumbai,"Kurla, Mumbai - MPCB",18-05-2024 16:00:00,19.0863,72.8888,NH3,1,2,1
India,Maharashtra,Mumbai,"Kurla, Mumbai - MPCB",18-05-2024 16:00:00,19.0863,72.8888,OZONE,27,35,29
India,Maharashtra,Mumbai,"Mulund West, Mumbai - MPCB",18-05-2024 16:00:00,19.1750,72.9419,OZONE,7,7,7
India,Maharashtra,Mumbai,"Powai, Mumbai - MPCB",18-05-2024 16:00:00,19.137500,72.915056,PM2.5,23,53,35
India,Maharashtra,Mumbai,"Powai, Mumbai - MPCB",18-05-2024 16:00:00,19.137500,72.915056,CO,34,42,37
India,Maharashtra,Mumbai,"Siddharth Nagar-Worli, Mumbai - IITM",18-05-2024 16:00:00,19.000083,72.813993,PM10,46,99,79
India,Maharashtra,Mumbai,"Sion, Mumbai - MPCB",18-05-2024 16:00:00,19.047000,72.874600,NO2,48,51,50
India,Maharashtra,Mumbai,"Vasai West, Mumbai - MPCB",18-05-2024 16:00:00,19.383200,72.820400,PM2.5,28,60,43
India,Maharashtra,Mumbai,"Vasai West, Mumbai - MPCB",18-05-2024 16:00:00,19.383200,72.820400,PM10,76,116,97
India,Maharashtra,Mumbai,"Vile Parle West, Mumbai - MPCB",18-05-2024 16:00:00,19.10861,72.83622,PM10,62,121,91
India,Maharashtra,Nagpur,"Ambazari, Nagpur - MPCB",18-05-2024 16:00:00,21.121801,79.04952,SO2,6,44,18
India,Maharashtra,Nagpur,"Ambazari, Nagpur - MPCB",18-05-2024 16:00:00,21.121801,79.04952,OZONE,4,79,49
India,Maharashtra,Nagpur,"Mahal, Nagpur - MPCB",18-05-2024 16:00:00,21.14472,79.107595,PM2.5,14,77,43
India,Maharashtra,Nagpur,"Mahal, Nagpur - MPCB",18-05-2024 16:00:00,21.14472,79.107595,PM10,15,103,55
India,Maharashtra,Nagpur,"Mahal, Nagpur - MPCB",18-05-2024 16:00:00,21.14472,79.107595,SO2,1,28,11
India,Maharashtra,Nagpur,"Opp GPO Civil Lines, Nagpur - MPCB",18-05-2024 16:00:00,21.152875,79.0517531,NH3,3,9,5
India,Maharashtra,Nanded,"Sneh Nagar, Nanded - MPCB",18-05-2024 16:00:00,19.173852,77.296291,PM2.5,11,57,33
India,Maharashtra,Nanded,"Sneh Nagar, Nanded - MPCB",18-05-2024 16:00:00,19.173852,77.296291,NO2,5,69,17
India,Maharashtra,Nanded,"Sneh Nagar, Nanded - MPCB",18-05-2024 16:00:00,19.173852,77.296291,SO2,2,6,4
India,Maharashtra,Nashik,"Hirawadi, Nashik - MPCB",18-05-2024 16:00:00,20.021503,73.813844,PM2.5,35,62,48
India,Maharashtra,Nashik,"Hirawadi, Nashik - MPCB",18-05-2024 16:00:00,20.021503,73.813844,PM10,28,62,44
India,Maharashtra,Nashik,"Pandav Nagari, Nashik - MPCB",18-05-2024 16:00:00,19.9591346,73.7788008,PM2.5,25,70,42
India,Maharashtra,Nashik,"Pandav Nagari, Nashik - MPCB",18-05-2024 16:00:00,19.9591346,73.7788008,PM10,36,100,60
India,Maharashtra,Nashik,"Pandav Nagari, Nashik - MPCB",18-05-2024 16:00:00,19.9591346,73.7788008,OZONE,26,119,72
India,Maharashtra,Navi Mumbai,"Mahape, Navi Mumbai - MPCB",18-05-2024 16:00:00,19.1135051,73.008978,NH3,1,2,1
India,Maharashtra,Navi Mumbai,"Nerul, Navi Mumbai - MPCB",18-05-2024 16:00:00,19.008751,73.016620,NH3,3,3,3
India,Maharashtra,Navi Mumbai,"Sanpada, Navi Mumbai - MPCB",18-05-2024 16:00:00,19.0575752,73.0151367,PM2.5,21,70,41
India,Maharashtra,Navi Mumbai,"Sanpada, Navi Mumbai - MPCB",18-05-2024 16:00:00,19.0575752,73.0151367,NO2,1,31,12
India,Maharashtra,Navi Mumbai,"Sanpada, Navi Mumbai - MPCB",18-05-2024 16:00:00,19.0575752,73.0151367,SO2,1,6,3
India,Maharashtra,Navi Mumbai,"Sanpada, Navi Mumbai - MPCB",18-05-2024 16:00:00,19.0575752,73.0151367,CO,1,30,3
India,Maharashtra,Navi Mumbai,"Sector-19A Nerul, Navi Mumbai - IITM",18-05-2024 16:00:00,19.044,73.0325,OZONE,1,69,34
India,Maharashtra,Navi Mumbai,"Tondare-Taloja, Navi Mumbai - MPCB",18-05-2024 16:00:00,19.0630,73.1209,NH3,5,7,6
India,Maharashtra,Pimpri-Chinchwad,"Gavalinagar, Pimpri Chinchwad - MPCB",18-05-2024 16:00:00,18.63673,73.82487,NO2,9,61,29
India,Maharashtra,Pimpri-Chinchwad,"Gavalinagar, Pimpri Chinchwad - MPCB",18-05-2024 16:00:00,18.63673,73.82487,SO2,1,5,2
India,Maharashtra,Pimpri-Chinchwad,"Gavalinagar, Pimpri Chinchwad - MPCB",18-05-2024 16:00:00,18.63673,73.82487,OZONE,3,154,108
India,Maharashtra,Pimpri-Chinchwad,"Thergaon, Pimpri Chinchwad - MPCB",18-05-2024 16:00:00,18.616318,73.765797,NH3,2,17,4
India,Maharashtra,Pimpri-Chinchwad,"Thergaon, Pimpri Chinchwad - MPCB",18-05-2024 16:00:00,18.616318,73.765797,SO2,2,6,3
India,Maharashtra,Pune,"Alandi, Pune - IITM",18-05-2024 16:00:00,18.675076,73.892743,PM10,53,452,111
India,Maharashtra,Pune,"Bhosari, Pune - IITM",18-05-2024 16:00:00,18.640051,73.848956,PM10,NA,NA,NA
India,Maharashtra,Pune,"Bhosari, Pune - IITM",18-05-2024 16:00:00,18.640051,73.848956,OZONE,4,98,70
India,Maharashtra,Pune,"Mhada Colony, Pune - IITM",18-05-2024 16:00:00,18.573040,73.927715,CO,11,122,34
India,Maharashtra,Pune,"Revenue Colony-Shivajinagar, Pune - IITM",18-05-2024 16:00:00,18.530085,73.849598,NO2,42,116,70
India,Maharashtra,Pune,"Revenue Colony-Shivajinagar, Pune - IITM",18-05-2024 16:00:00,18.530085,73.849598,CO,20,56,43
India,Maharashtra,Pune,"Revenue Colony-Shivajinagar, Pune - IITM",18-05-2024 16:00:00,18.530085,73.849598,OZONE,15,96,65
India,Maharashtra,Pune,"Savitribai Phule Pune University, Pune - MPCB",18-05-2024 16:00:00,18.547056,73.826908,NH3,2,4,3
India,Maharashtra,Sangli,"Vijay Nagar, Sangli - MPCB",18-05-2024 16:00:00, 16.5038,74.3623,NH3,1,4,3
India,Maharashtra,Sangli,"Vijay Nagar, Sangli - MPCB",18-05-2024 16:00:00, 16.5038,74.3623,CO,19,96,30
India,Maharashtra,Solapur,"Dnyaneshwar Nagar, Solapur - MPCB",18-05-2024 16:00:00,17.6336264,75.9132495,PM10,73,98,83
India,Maharashtra,Solapur,"Dnyaneshwar Nagar, Solapur - MPCB",18-05-2024 16:00:00,17.6336264,75.9132495,CO,12,22,14
India,Maharashtra,Solapur,"Ratandeep Housing Society, Solapur - MPCB",18-05-2024 16:00:00,17.65439,75.90649,NO2,1,4,2
India,Maharashtra,Solapur,"Ratandeep Housing Society, Solapur - MPCB",18-05-2024 16:00:00,17.65439,75.90649,OZONE,22,134,89
India,Maharashtra,Thane,"Kasarvadavali, Thane - MPCB",18-05-2024 16:00:00,19.26777,72.97182,PM2.5,33,71,54
India,Maharashtra,Thane,"Kasarvadavali, Thane - MPCB",18-05-2024 16:00:00,19.26777,72.97182,NO2,10,48,24
India,Maharashtra,Thane,"Kasarvadavali, Thane - MPCB",18-05-2024 16:00:00,19.26777,72.97182,NH3,3,7,4
India,Maharashtra,Thane,"Kasarvadavali, Thane - MPCB",18-05-2024 16:00:00,19.26777,72.97182,CO,8,36,23
India,Maharashtra,Thane,"Upvan Fort, Thane - MPCB",18-05-2024 16:00:00,19.222279,72.957979,PM2.5,37,94,66
India,Maharashtra,Thane,"Upvan Fort, Thane - MPCB",18-05-2024 16:00:00,19.222279,72.957979,NO2,9,37,20
India,Maharashtra,Virar,"Bolinj, Virar - MPCB",18-05-2024 16:00:00,19.4458210,72.7988231,OZONE,27,121,44
India,Manipur,Imphal,"DM College of Science, Imphal - Manipur PCB",18-05-2024 16:00:00,24.8207389,93.9423085,CO,6,7,6
India,Manipur,Imphal,"Manipur University, Imphal - Manipur PCB",18-05-2024 16:00:00,24.7524239,93.9286218,NO2,8,15,10
India,Manipur,Imphal,"Manipur University, Imphal - Manipur PCB",18-05-2024 16:00:00,24.7524239,93.9286218,CO,9,14,11
India,Manipur,Imphal,"Manipur University, Imphal - Manipur PCB",18-05-2024 16:00:00,24.7524239,93.9286218,OZONE,3,28,20
India,Meghalaya,Shillong,"Lumpyngngad, Shillong - Meghalaya PCB",18-05-2024 16:00:00,25.5586,91.8985,SO2,37,39,38
India,Meghalaya,Shillong,"Lumpyngngad, Shillong - Meghalaya PCB",18-05-2024 16:00:00,25.5586,91.8985,CO,6,14,11
India,Mizoram,Aizawl,"Sikulpuikawn, Aizawl - Mizoram PCB",18-05-2024 16:00:00,23.7176342,92.7192841,NH3,1,3,1
India,Nagaland,Kohima,"PWD Juction, Kohima - NPCB",18-05-2024 16:00:00,25.6635413,94.0989878,PM10,37,117,86
India,Nagaland,Kohima,"PWD Juction, Kohima - NPCB",18-05-2024 16:00:00,25.6635413,94.0989878,SO2,34,38,35
India,Nagaland,Kohima,"PWD Juction, Kohima - NPCB",18-05-2024 16:00:00,25.6635413,94.0989878,OZONE,9,19,14
India,Odisha,Angul,"Hakimapada, Angul - OSPCB",18-05-2024 16:00:00,20.832874,85.104082,NO2,4,24,11
India,Odisha,Balasore,"Kalidaspur, Balasore - OSPCB",18-05-2024 16:00:00,21.51161,86.89088,NH3,NA,NA,NA
India,Odisha,Balasore,"Kalidaspur, Balasore - OSPCB",18-05-2024 16:00:00,21.51161,86.89088,SO2,13,29,17
India,Odisha,Balasore,"Kalidaspur, Balasore - OSPCB",18-05-2024 16:00:00,21.51161,86.89088,CO,24,117,71
India,Odisha,Barbil,"Forest Office, Barbil - OSPCB",18-05-2024 16:00:00,22.1166054,85.3945546,PM2.5,33,133,72
India,Odisha,Baripada,"Meher Colony, Baripada - OSPCB",18-05-2024 16:00:00,21.941841,86.728318,CO,8,44,27
India,Odisha,Baripada,"Meher Colony, Baripada - OSPCB",18-05-2024 16:00:00,21.941841,86.728318,OZONE,17,91,62
India,Odisha,Bhubaneswar,"Lingraj Mandir, Bhubaneswar - OSPCB",18-05-2024 16:00:00,20.240790,85.836784,OZONE,13,67,49
India,Odisha,Bileipada,"Tata Township, Bileipada - OSPCB",18-05-2024 16:00:00,22.06156703,85.47409613,NH3,11,12,12
India,Odisha,Cuttack,"CDA Area, Cuttack - OSPCB",18-05-2024 16:00:00,20.48891     ,85.84768     ,NO2,10,24,17
India,Odisha,Keonjhar,"Jagamohanpur, Keonjhar - OSPCB",18-05-2024 16:00:00,21.643900,85.599355,CO,47,106,105
India,Odisha,Nayagarh,"Dabuna, Nayagarh - OSPCB",18-05-2024 16:00:00,21.847279,85.416905,CO,12,28,21
India,Odisha,Rairangpur,"Divisional Forest Office, Rairangpur - OSPCB",18-05-2024 16:00:00,22.265816,86.174829,NH3,NA,NA,NA
India,Odisha,Rourkela,"Raghunathpali, Rourkela - OSPCB",18-05-2024 16:00:00,22.220833,84.809444,SO2,7,8,8
India,Odisha,Rourkela,"Raghunathpali, Rourkela - OSPCB",18-05-2024 16:00:00,22.220833,84.809444,OZONE,3,106,43
India,Odisha,Rourkela,"Sector-2, Rourkela - OSPCB",18-05-2024 16:00:00,22.24500000,84.88111111,PM10,84,151,117
India,Odisha,Suakati,"OMC Colony, Suakati - OSPCB",18-05-2024 16:00:00,21.606865,85.510538,PM10,51,101,78
India,Odisha,Suakati,"OMC Colony, Suakati - OSPCB",18-05-2024 16:00:00,21.606865,85.510538,OZONE,13,93,71
India,Odisha,Talcher,"Talcher Coalfields,Talcher - OSPCB",18-05-2024 16:00:00,20.9360711,85.1707021,PM2.5,14,302,80
India,Odisha,Talcher,"Talcher Coalfields,Talcher - OSPCB",18-05-2024 16:00:00,20.9360711,85.1707021,NH3,3,4,3
India,Odisha,Tensa,"Barsua Iron Ore Mines, Tensa - OSPCB",18-05-2024 16:00:00,21.869985,85.167016,NH3,1,2,2
India,Odisha,Tensa,"Barsua Iron Ore Mines, Tensa - OSPCB",18-05-2024 16:00:00,21.869985,85.167016,SO2,NA,NA,NA
India,Odisha,Tensa,"Barsua Iron Ore Mines, Tensa - OSPCB",18-05-2024 16:00:00,21.869985,85.167016,CO,14,42,22
India,Punjab,Amritsar,"Golden Temple, Amritsar - PPCB",18-05-2024 16:00:00,31.620000,74.876512,NH3,4,6,5
India,Punjab,Bathinda,"Hardev Nagar, Bathinda - PPCB",18-05-2024 16:00:00,30.233011,74.907758,NO2,25,31,28
India,Punjab,Bathinda,"Hardev Nagar, Bathinda - PPCB",18-05-2024 16:00:00,30.233011,74.907758,CO,2,159,78
India,Punjab,Jalandhar,"Civil Line, Jalandhar - PPCB",18-05-2024 16:00:00,31.321907,75.578914,NO2,44,47,46
India,Punjab,Khanna,"Kalal Majra, Khanna - PPCB",18-05-2024 16:00:00,30.736056 ,76.209694,NO2,25,28,27
India,Punjab,Ludhiana,"Punjab Agricultural University, Ludhiana - PPCB",18-05-2024 16:00:00,30.9028,75.8086,NO2,26,27,27
India,Punjab,Mandi Gobindgarh,"RIMT University, Mandi Gobindgarh - PPCB",18-05-2024 16:00:00,30.649961,76.331442,NO2,23,24,24
India,Punjab,Patiala,"Model Town, Patiala - PPCB",18-05-2024 16:00:00,30.349388,76.366642,SO2,15,102,44
India,Punjab,Patiala,"Model Town, Patiala - PPCB",18-05-2024 16:00:00,30.349388,76.366642,CO,11,94,34
India,Punjab,Rupnagar,"Ratanpura, Rupnagar - Ambuja Cements",18-05-2024 16:00:00,31.0325454,76.5623046,CO,20,63,35
India,Rajasthan,Ajmer,"Civil Lines,  Ajmer - RSPCB",18-05-2024 16:00:00,26.470859,74.646594,PM10,56,128,95
India,Rajasthan,Ajmer,"Civil Lines,  Ajmer - RSPCB",18-05-2024 16:00:00,26.470859,74.646594,NO2,13,15,14
India,Rajasthan,Banswara,"Rati Talai, Banswara - RSPCB",18-05-2024 16:00:00,23.555190,74.440010,PM2.5,108,305,189
India,Rajasthan,Baran,"Bamboliya, Baran - RSPCB",18-05-2024 16:00:00,25.106006,76.469948,SO2,1,10,3
India,Rajasthan,Baran,"Bamboliya, Baran - RSPCB",18-05-2024 16:00:00,25.106006,76.469948,CO,16,73,24
India,Rajasthan,Baran,"Bamboliya, Baran - RSPCB",18-05-2024 16:00:00,25.106006,76.469948,OZONE,37,186,92
India,Rajasthan,Barmer,"Railway Colony, Barmer - RSPCB",18-05-2024 16:00:00,25.747299,71.393989,PM10,59,136,98
India,Rajasthan,Barmer,"Railway Colony, Barmer - RSPCB",18-05-2024 16:00:00,25.747299,71.393989,NO2,1,33,5
India,Rajasthan,Barmer,"Railway Colony, Barmer - RSPCB",18-05-2024 16:00:00,25.747299,71.393989,NH3,5,17,10
India,Rajasthan,Barmer,"Railway Colony, Barmer - RSPCB",18-05-2024 16:00:00,25.747299,71.393989,OZONE,44,138,108
India,Rajasthan,Bhiwadi,"Vasundhara Nagar_UIT, Bhiwadi - RSPCB",18-05-2024 16:00:00,28.207266,76.829265,OZONE,10,130,84
India,Rajasthan,Bikaner,"MM Ground, Bikaner - RSPCB",18-05-2024 16:00:00,28.018792,73.292658,PM2.5,21,80,42
India,Rajasthan,Bundi,"New Colony, Bundi - RSPCB",18-05-2024 16:00:00,25.435774,75.644272,PM10,83,264,124
India,Rajasthan,Bundi,"New Colony, Bundi - RSPCB",18-05-2024 16:00:00,25.435774,75.644272,NO2,6,88,22
India,Rajasthan,Chittorgarh,"Shastri Nagar, Chittorgarh - RSPCB",18-05-2024 16:00:00,24.892047,74.623527,PM10,96,182,121
India,Rajasthan,Dausa,"Khatikan Mohalla, Dausa - RSPCB",18-05-2024 16:00:00,26.895552,76.334753,PM2.5,41,344,104
India,Rajasthan,Dausa,"Khatikan Mohalla, Dausa - RSPCB",18-05-2024 16:00:00,26.895552,76.334753,PM10,133,470,222
India,Rajasthan,Dausa,"Khatikan Mohalla, Dausa - RSPCB",18-05-2024 16:00:00,26.895552,76.334753,NO2,18,171,64
India,Rajasthan,Dholpur,"Raja Ganj, Dholpur - RSPCB",18-05-2024 16:00:00,26.699557,77.898881,NO2,27,72,41
India,Rajasthan,Dholpur,"Raja Ganj, Dholpur - RSPCB",18-05-2024 16:00:00,26.699557,77.898881,CO,11,56,17
India,Rajasthan,Dungarpur,"Bhoiwada, Dungarpur - RSPCB",18-05-2024 16:00:00,23.837789,73.714926,SO2,4,13,7
India,Rajasthan,Hanumangarh,"Housing Board, Hanumangarh - RSPCB",18-05-2024 16:00:00,29.610750,74.283608,PM2.5,50,423,179
India,Rajasthan,Hanumangarh,"Housing Board, Hanumangarh - RSPCB",18-05-2024 16:00:00,29.610750,74.283608,OZONE,15,59,32
India,Rajasthan,Jaipur,"Adarsh Nagar, Jaipur - RSPCB",18-05-2024 16:00:00,26.902909,75.836858,OZONE,8,93,69
India,Rajasthan,Jaipur,"Mansarovar Sector-12, Jaipur - RSPCB",18-05-2024 16:00:00,26.843698,75.766894,OZONE,5,176,134
India,Rajasthan,Jaipur,"Police Commissionerate, Jaipur - RSPCB",18-05-2024 16:00:00,26.9164092,75.7994901,PM2.5,85,213,130
India,Rajasthan,Jaipur,"Police Commissionerate, Jaipur - RSPCB",18-05-2024 16:00:00,26.9164092,75.7994901,OZONE,26,172,114
India,Rajasthan,Jaipur,"RIICO Sitapura, Jaipur - RSPCB",18-05-2024 16:00:00,26.786682,75.827928,PM2.5,38,300,101
India,Rajasthan,Jaipur,"RIICO Sitapura, Jaipur - RSPCB",18-05-2024 16:00:00,26.786682,75.827928,PM10,105,348,177
India,Rajasthan,Jaipur,"RIICO Sitapura, Jaipur - RSPCB",18-05-2024 16:00:00,26.786682,75.827928,NO2,19,377,93
India,Rajasthan,Jaipur,"RIICO Sitapura, Jaipur - RSPCB",18-05-2024 16:00:00,26.786682,75.827928,OZONE,2,164,128
India,Rajasthan,Jaipur,"Sector-2 Murlipura, Jaipur - RSPCB",18-05-2024 16:00:00,26.960669,75.771817,NH3,1,9,4
India,Rajasthan,Jaipur,"Sector-2 Murlipura, Jaipur - RSPCB",18-05-2024 16:00:00,26.960669,75.771817,SO2,6,99,34
India,Rajasthan,Jaipur,"Sector-2 Murlipura, Jaipur - RSPCB",18-05-2024 16:00:00,26.960669,75.771817,OZONE,3,133,92
India,Rajasthan,Jaipur,"Shastri Nagar, Jaipur - RSPCB",18-05-2024 16:00:00,26.9502929,75.730943,PM10,124,197,151
India,Rajasthan,Jalore,"Mudtra Sili, Jalore - RSPCB",18-05-2024 16:00:00,25.344694,72.626208,CO,9,116,14
India,Rajasthan,Jhalawar,"Rajlaxmi Nagar, Jhalawar - RSPCB",18-05-2024 16:00:00,24.588397,76.172782,PM2.5,27,69,44
India,Rajasthan,Jhunjhunu,"Indra Nagar, Jhunjhunu - RSPCB",18-05-2024 16:00:00,28.108988,75.386577,CO,16,42,25
India,Rajasthan,Jodhpur,"Collectorate, Jodhpur - RSPCB",18-05-2024 16:00:00,26.268249,73.0193853,PM2.5,4,167,99
India,Rajasthan,Jodhpur,"Collectorate, Jodhpur - RSPCB",18-05-2024 16:00:00,26.268249,73.0193853,OZONE,7,124,106
India,Rajasthan,Jodhpur,"Digari Kalan, Jodhpur - RSPCB",18-05-2024 16:00:00,26.295810,73.082283,CO,12,103,20
India,Rajasthan,Jodhpur,"Jhalamand, Jodhpur - RSPCB",18-05-2024 16:00:00,26.215415,73.070156,OZONE,28,108,97
India,Rajasthan,Jodhpur,"Mandor, Jodhpur - RSPCB",18-05-2024 16:00:00,26.358805,73.047444,PM10,56,130,81
India,Rajasthan,Jodhpur,"Samrat Ashok Udhyan, Jodhpur - RSPCB",18-05-2024 16:00:00,26.253384,72.976571,NH3,3,7,4
India,Rajasthan,Karauli,"Satyawati Vihar, Karauli - RSPCB",18-05-2024 16:00:00,26.506177,77.025989,PM2.5,18,113,57
India,Rajasthan,Karauli,"Satyawati Vihar, Karauli - RSPCB",18-05-2024 16:00:00,26.506177,77.025989,NO2,11,98,30
India,Rajasthan,Kota,"Dhanmandi, Kota - RSPCB",18-05-2024 16:00:00,25.164090,75.858137,CO,18,114,37
India,Rajasthan,Kota,"Shrinath Puram, Kota - RSPCB",18-05-2024 16:00:00,25.14389,75.821256,PM2.5,50,249,98
India,Rajasthan,Pali,"Indira Colony Vistar, Pali - RSPCB",18-05-2024 16:00:00,25.771061, 73.340227,NO2,NA,NA,NA
India,Rajasthan,Pali,"Indira Colony Vistar, Pali - RSPCB",18-05-2024 16:00:00,25.771061, 73.340227,NH3,NA,NA,NA
India,Rajasthan,Pali,"Indira Colony Vistar, Pali - RSPCB",18-05-2024 16:00:00,25.771061, 73.340227,SO2,NA,NA,NA
India,Rajasthan,Pratapgarh,"Pragati Nagar, Pratapgarh - RSPCB",18-05-2024 16:00:00,24.041198,74.780702,NH3,5,11,7
India,Rajasthan,Rajsamand,"Dhoinda, Rajsamand - RSPCB",18-05-2024 16:00:00,25.036360,73.883502,PM10,42,115,59
India,Rajasthan,Rajsamand,"Dhoinda, Rajsamand - RSPCB",18-05-2024 16:00:00,25.036360,73.883502,NH3,2,4,3
India,Rajasthan,Rajsamand,"Dhoinda, Rajsamand - RSPCB",18-05-2024 16:00:00,25.036360,73.883502,SO2,3,42,22
India,Rajasthan,Rajsamand,"Dhoinda, Rajsamand - RSPCB",18-05-2024 16:00:00,25.036360,73.883502,OZONE,20,56,42
India,Rajasthan,Sawai Madhopur,"Sahu Nagar, Sawai Madhopur - RSPCB",18-05-2024 16:00:00,26.031443,76.359327,SO2,NA,NA,NA
India,Rajasthan,Sikar,"Radhakishan Pura, Sikar - RSPCB",18-05-2024 16:00:00,27.608912,75.153302,NO2,11,104,50
India,Rajasthan,Sirohi,"Vedhaynath Colony, Sirohi - RSPCB",18-05-2024 16:00:00,24.885261,72.857549,CO,1,24,11
India,Rajasthan,Sri Ganganagar,"Old City, Sri Ganganagar - RSPCB",18-05-2024 16:00:00,29.931624,73.864511,PM2.5,62,378,193
India,Rajasthan,Sri Ganganagar,"Old City, Sri Ganganagar - RSPCB",18-05-2024 16:00:00,29.931624,73.864511,SO2,1,8,3
India,Rajasthan,Udaipur,"Ashok Nagar, Udaipur - RSPCB",18-05-2024 16:00:00,24.5886166,73.6321397,NO2,50,178,94
India,Rajasthan,Udaipur,"Ashok Nagar, Udaipur - RSPCB",18-05-2024 16:00:00,24.5886166,73.6321397,NH3,2,6,3
India,Sikkim,Gangtok,"Zero Point GICI, Gangtok - SSPCB",18-05-2024 16:00:00,27.338530,88.614099,NO2,1,11,2
India,TamilNadu,Chennai,"Alandur Bus Depot, Chennai - CPCB",18-05-2024 16:00:00,12.9099161,80.1076538,PM2.5,23,23,23
India,TamilNadu,Chennai,"Arumbakkam, Chennai - TNPCB",18-05-2024 16:00:00,13.0664,80.2112 ,PM2.5,NA,NA,NA
India,TamilNadu,Chennai,"Kodungaiyur, Chennai - TNPCB",18-05-2024 16:00:00,13.1278,80.2642,PM2.5,2,26,12
India,TamilNadu,Chennai,"Perungudi, Chennai - TNPCB",18-05-2024 16:00:00,12.9533,80.2357,PM10,5,53,24
India,TamilNadu,Chennai,"Perungudi, Chennai - TNPCB",18-05-2024 16:00:00,12.9533,80.2357,NH3,4,8,4
India,TamilNadu,Chennai,"Royapuram, Chennai - TNPCB",18-05-2024 16:00:00,13.1036,80.2909,NO2,6,20,11
India,TamilNadu,Chennai,"Royapuram, Chennai - TNPCB",18-05-2024 16:00:00,13.1036,80.2909,OZONE,4,18,9
India,TamilNadu,Chennai,"Velachery Res. Area, Chennai - CPCB",18-05-2024 16:00:00,13.0052189,80.2398125,PM2.5,10,23,16
India,TamilNadu,Chennai,"Velachery Res. Area, Chennai - CPCB",18-05-2024 16:00:00,13.0052189,80.2398125,PM10,10,23,16
India,TamilNadu,Chennai,"Velachery Res. Area, Chennai - CPCB",18-05-2024 16:00:00,13.0052189,80.2398125,NO2,14,28,21
India,TamilNadu,Coimbatore,"PSG College of Arts and Science, Coimbatore - TNPCB",18-05-2024 16:00:00,11.0328,77.0349,OZONE,3,5,4
India,TamilNadu,Cuddalore,"Kudikadu, Cuddalore - TNPCB",18-05-2024 16:00:00,11.6829898,79.7532099,PM2.5,7,75,26
India,TamilNadu,Cuddalore,"Kudikadu, Cuddalore - TNPCB",18-05-2024 16:00:00,11.6829898,79.7532099,PM10,8,90,32
India,TamilNadu,Cuddalore,"Kudikadu, Cuddalore - TNPCB",18-05-2024 16:00:00,11.6829898,79.7532099,SO2,10,10,10
India,TamilNadu,Cuddalore,"Semmandalam, Cuddalore - TNPCB",18-05-2024 16:00:00,11.7637683,79.7499835,NH3,1,2,2
India,TamilNadu,Gummidipoondi,"Anthoni Pillai Nagar, Gummidipoondi - TNPCB",18-05-2024 16:00:00,13.4127,80.1081,NH3,1,2,1
India,TamilNadu,Ooty,"Bombay Castel, Ooty - TNPCB",18-05-2024 16:00:00,11.4068288,76.7138973,CO,20,23,21
India,TamilNadu,Palkalaiperur,"Bharathidasan University, Palkalaiperur - TNPCB",18-05-2024 16:00:00,10.681158,78.741746,OZONE,1,9,3
India,TamilNadu,Ramanathapuram,"Chalai Bazaar, Ramanathapuram - TNPCB",18-05-2024 16:00:00,9.36399,78.831977,PM2.5,4,31,12
India,TamilNadu,Salem,"Sona College of Technology, Salem - TNPCB",18-05-2024 16:00:00,11.679111,78.125052,PM10,20,61,38
India,TamilNadu,Salem,"Sona College of Technology, Salem - TNPCB",18-05-2024 16:00:00,11.679111,78.125052,NO2,7,9,8
India,TamilNadu,Salem,"Sona College of Technology, Salem - TNPCB",18-05-2024 16:00:00,11.679111,78.125052,SO2,94,103,95
India,TamilNadu,Thoothukudi,"Meelavittan, Thoothukudi - TNPCB",18-05-2024 16:00:00,8.816428 ,78.099039,CO,1,64,9
India,Telangana,Hyderabad,"Bollaram Industrial Area, Hyderabad - TSPCB",18-05-2024 16:00:00,17.540891,78.358528,NO2,14,26,19
India,Telangana,Hyderabad,"Bollaram Industrial Area, Hyderabad - TSPCB",18-05-2024 16:00:00,17.540891,78.358528,NH3,3,6,4
India,Telangana,Hyderabad,"Central University, Hyderabad - TSPCB",18-05-2024 16:00:00,17.460103,78.334361,SO2,4,10,7
India,Telangana,Hyderabad,"IITH Kandi, Hyderabad - TSPCB",18-05-2024 16:00:00,17.585705,78.126199,NO2,NA,NA,NA
India,Telangana,Hyderabad,"IITH Kandi, Hyderabad - TSPCB",18-05-2024 16:00:00,17.585705,78.126199,OZONE,NA,NA,NA
India,Telangana,Hyderabad,"Kokapet, Hyderabad - TSPCB",18-05-2024 16:00:00,17.393559,78.339194,NH3,3,3,3
India,Telangana,Hyderabad,"Zoo Park, Hyderabad - TSPCB",18-05-2024 16:00:00,17.349694,78.451437,NO2,18,45,26
India,Telangana,Hyderabad,"Zoo Park, Hyderabad - TSPCB",18-05-2024 16:00:00,17.349694,78.451437,OZONE,8,21,16
India,Tripura,Agartala,"Bardowali, Agartala - Tripura SPCB",18-05-2024 16:00:00,23.8175497,91.2726974,PM10,52,112,79
India,Uttar_Pradesh,Agra,"Manoharpur, Agra - UPPCB",18-05-2024 16:00:00,27.23711,78.01936,PM10,18,97,47
India,Uttar_Pradesh,Agra,"Sanjay Palace, Agra - UPPCB",18-05-2024 16:00:00,27.19865833,78.00598056,NO2,10,39,24
India,Uttar_Pradesh,Agra,"Sanjay Palace, Agra - UPPCB",18-05-2024 16:00:00,27.19865833,78.00598056,OZONE,11,26,21
India,Uttar_Pradesh,Agra,"Shahjahan Garden, Agra - UPPCB",18-05-2024 16:00:00,27.169338,78.03582,OZONE,1,26,14
India,Uttar_Pradesh,Baghpat,"Sardar Patel Inter College, Baghpat - UPPCB",18-05-2024 16:00:00,28.964949,77.278761,OZONE,4,107,58
India,Uttar_Pradesh,Bareilly,"Civil Lines, Bareilly - UPPCB",18-05-2024 16:00:00,28.359581,79.414455,PM10,18,36,28
India,Uttar_Pradesh,Bareilly,"Civil Lines, Bareilly - UPPCB",18-05-2024 16:00:00,28.359581,79.414455,NO2,2,3,2
India,Uttar_Pradesh,Bareilly,"Rajendra Nagar, Bareilly - UPPCB",18-05-2024 16:00:00,28.38910936,79.42963708,PM10,69,102,84
India,Uttar_Pradesh,Bulandshahr,"Yamunapuram, Bulandshahr - UPPCB",18-05-2024 16:00:00,28.406963,77.849831,PM2.5,31,337,179
India,Uttar_Pradesh,Bulandshahr,"Yamunapuram, Bulandshahr - UPPCB",18-05-2024 16:00:00,28.406963,77.849831,PM10,96,390,205
India,Uttar_Pradesh,Bulandshahr,"Yamunapuram, Bulandshahr - UPPCB",18-05-2024 16:00:00,28.406963,77.849831,NH3,17,30,22
India,Uttar_Pradesh,Firozabad,"Nagla Bhau, Firozabad - UPPCB",18-05-2024 16:00:00,27.168897,78.376960,CO,16,40,30
India,Uttar_Pradesh,Firozabad,"Nagla Bhau, Firozabad - UPPCB",18-05-2024 16:00:00,27.168897,78.376960,OZONE,17,19,18
India,Uttar_Pradesh,Firozabad,"Vibhab Nagar, Firozabad - UPPCB",18-05-2024 16:00:00,27.1594,78.3953,PM2.5,NA,NA,NA
India,Uttar_Pradesh,Firozabad,"Vibhab Nagar, Firozabad - UPPCB",18-05-2024 16:00:00,27.1594,78.3953,PM10,NA,NA,NA
India,Uttar_Pradesh,Ghaziabad,"Indirapuram, Ghaziabad - UPPCB",18-05-2024 16:00:00,28.646233,77.358075,PM10,154,500,317
India,Uttar_Pradesh,Ghaziabad,"Loni, Ghaziabad - UPPCB",18-05-2024 16:00:00,28.757294,77.278792,NH3,2,13,7
India,Uttar_Pradesh,Ghaziabad,"Loni, Ghaziabad - UPPCB",18-05-2024 16:00:00,28.757294,77.278792,CO,10,110,33
India,Uttar_Pradesh,Ghaziabad,"Loni, Ghaziabad - UPPCB",18-05-2024 16:00:00,28.757294,77.278792,OZONE,3,167,103
India,Uttar_Pradesh,Ghaziabad,"Vasundhara, Ghaziabad - UPPCB",18-05-2024 16:00:00,28.6603346,77.3572563,SO2,9,42,20
India,Uttar_Pradesh,Gorakhpur,"Madan Mohan Malaviya University of Technology, Gorakhpur - UPPCB",18-05-2024 16:00:00,26.730136,83.433859,OZONE,1,10,3
India,Uttar_Pradesh,Greater Noida,"Knowledge Park - III, Greater Noida - UPPCB",18-05-2024 16:00:00,28.47272,77.482000,CO,43,129,65
India,Uttar_Pradesh,Jhansi,"Shivaji Nagar, Jhansi - UPPCB",18-05-2024 16:00:00,25.4547,78.6039,PM2.5,6,405,74
India,Uttar_Pradesh,Jhansi,"Shivaji Nagar, Jhansi - UPPCB",18-05-2024 16:00:00,25.4547,78.6039,PM10,2,402,69
India,Uttar_Pradesh,Kanpur,"FTI Kidwai Nagar, Kanpur - UPPCB",18-05-2024 16:00:00,26.428282,80.327067,CO,30,110,34
India,Uttar_Pradesh,Kanpur,"NSI Kalyanpur, Kanpur - UPPCB",18-05-2024 16:00:00,26.509954,80.249612,PM2.5,13,350,127
India,Uttar_Pradesh,Kanpur,"NSI Kalyanpur, Kanpur - UPPCB",18-05-2024 16:00:00,26.509954,80.249612,PM10,35,285,123
India,Uttar_Pradesh,Khurja,"Kalindi Kunj, Khurja - UPPCB",18-05-2024 16:00:00,28.2348927,77.8683002,NO2,NA,NA,NA
India,Uttar_Pradesh,Khurja,"Kalindi Kunj, Khurja - UPPCB",18-05-2024 16:00:00,28.2348927,77.8683002,CO,26,55,33
India,Uttar_Pradesh,Khurja,"Kalindi Kunj, Khurja - UPPCB",18-05-2024 16:00:00,28.2348927,77.8683002,OZONE,32,57,44
India,Uttar_Pradesh,Lucknow,"Gomti Nagar, Lucknow - UPPCB",18-05-2024 16:00:00,26.868120,81.005119,PM2.5,57,419,114
India,Uttar_Pradesh,Lucknow,"Kendriya Vidyalaya, Lucknow - CPCB",18-05-2024 16:00:00,26.906111,80.948222,OZONE,2,172,100
India,Uttar_Pradesh,Lucknow,"Kukrail Picnic Spot-1, Lucknow - UPPCB",18-05-2024 16:00:00,26.90723,80.98579,SO2,33,43,35
India,Uttar_Pradesh,Lucknow,"Kukrail Picnic Spot-1, Lucknow - UPPCB",18-05-2024 16:00:00,26.90723,80.98579,CO,19,49,24
India,Uttar_Pradesh,Lucknow,"Lalbagh, Lucknow - CPCB",18-05-2024 16:00:00,26.8458805,80.9365541,SO2,2,23,10
India,Uttar_Pradesh,Lucknow,"Talkatora District Industries Center, Lucknow - CPCB",18-05-2024 16:00:00,26.83399722,80.8917361,PM10,131,405,204
India,Uttar_Pradesh,Lucknow,"Talkatora District Industries Center, Lucknow - CPCB",18-05-2024 16:00:00,26.83399722,80.8917361,NH3,8,39,18
India,Uttar_Pradesh,Meerut,"Ganga Nagar, Meerut - UPPCB",18-05-2024 16:00:00,28.999264,77.7590354,NH3,9,22,15
India,Uttar_Pradesh,Meerut,"Jai Bhim Nagar, Meerut - UPPCB",18-05-2024 16:00:00,28.9535882,77.7622941,SO2,8,11,9
India,Uttar_Pradesh,Meerut,"Jai Bhim Nagar, Meerut - UPPCB",18-05-2024 16:00:00,28.9535882,77.7622941,CO,19,104,54
India,Uttar_Pradesh,Meerut,"Pallavpuram Phase 2, Meerut - UPPCB",18-05-2024 16:00:00,29.063510,77.709723,PM2.5,48,308,206
India,Uttar_Pradesh,Moradabad,"Eco Herbal Park, Moradabad - UPPCB",18-05-2024 16:00:00,28.840739,78.697531,NH3,11,20,14
India,Uttar_Pradesh,Moradabad,"Eco Herbal Park, Moradabad - UPPCB",18-05-2024 16:00:00,28.840739,78.697531,CO,3,101,14
India,Uttar_Pradesh,Moradabad,"Employment Office, Moradabad - UPPCB",18-05-2024 16:00:00,28.88528,78.73880,PM2.5,51,141,92
India,Uttar_Pradesh,Moradabad,"Employment Office, Moradabad - UPPCB",18-05-2024 16:00:00,28.88528,78.73880,CO,36,104,52
India,Uttar_Pradesh,Moradabad,"Kashiram Nagar, Moradabad - UPPCB",18-05-2024 16:00:00,28.849399,78.742362,PM2.5,NA,NA,NA
India,Uttar_Pradesh,Moradabad,"Kashiram Nagar, Moradabad - UPPCB",18-05-2024 16:00:00,28.849399,78.742362,PM10,105,201,146
India,Uttar_Pradesh,Moradabad,"Kashiram Nagar, Moradabad - UPPCB",18-05-2024 16:00:00,28.849399,78.742362,OZONE,24,182,167
India,Uttar_Pradesh,Moradabad,"Transport Nagar, Moradabad - UPPCB",18-05-2024 16:00:00,28.802625,78.753728,NO2,4,5,4
India,Uttar_Pradesh,Noida,"Sector - 125, Noida - UPPCB",18-05-2024 16:00:00,28.5447608,77.3231257,PM10,158,500,384
India,Uttar_Pradesh,Noida,"Sector - 125, Noida - UPPCB",18-05-2024 16:00:00,28.5447608,77.3231257,NH3,NA,NA,NA
India,Uttar_Pradesh,Noida,"Sector - 62, Noida - IMD",18-05-2024 16:00:00,28.6245479,77.3577104,NO2,NA,NA,NA
India,Uttar_Pradesh,Noida,"Sector - 62, Noida - IMD",18-05-2024 16:00:00,28.6245479,77.3577104,OZONE,NA,NA,NA
India,Uttar_Pradesh,Noida,"Sector-1, Noida - UPPCB",18-05-2024 16:00:00,28.5898,77.3101,PM2.5,64,325,202
India,Uttar_Pradesh,Noida,"Sector-1, Noida - UPPCB",18-05-2024 16:00:00,28.5898,77.3101,PM10,NA,NA,NA
India,Uttar_Pradesh,Noida,"Sector-1, Noida - UPPCB",18-05-2024 16:00:00,28.5898,77.3101,NH3,1,13,6
India,Uttar_Pradesh,Noida,"Sector-1, Noida - UPPCB",18-05-2024 16:00:00,28.5898,77.3101,SO2,6,56,21
India,Uttar_Pradesh,Noida,"Sector-116, Noida - UPPCB",18-05-2024 16:00:00,28.569230,77.393848,NO2,20,166,102
India,Uttar_Pradesh,Noida,"Sector-116, Noida - UPPCB",18-05-2024 16:00:00,28.569230,77.393848,OZONE,1,250,142
India,Uttar_Pradesh,Prayagraj,"Jhunsi, Prayagraj - UPPCB",18-05-2024 16:00:00,25.425602,81.917152,NH3,5,5,5
India,Uttar_Pradesh,Prayagraj,"Jhunsi, Prayagraj - UPPCB",18-05-2024 16:00:00,25.425602,81.917152,OZONE,17,76,35
India,Uttar_Pradesh,Prayagraj,"Motilal Nehru NIT, Prayagraj - UPPCB",18-05-2024 16:00:00,25.494,81.863,SO2,29,110,65
India,Uttar_Pradesh,Prayagraj,"Nagar Nigam, Prayagraj - UPPCB",18-05-2024 16:00:00,25.44919916 ,81.82735986 ,PM10,NA,NA,NA
India,Uttar_Pradesh,Prayagraj,"Nagar Nigam, Prayagraj - UPPCB",18-05-2024 16:00:00,25.44919916 ,81.82735986 ,CO,13,30,16
India,Uttar_Pradesh,Varanasi,"Ardhali Bazar, Varanasi - UPPCB",18-05-2024 16:00:00,25.3505986,82.9083074,PM2.5,19,44,32
India,Uttar_Pradesh,Varanasi,"Bhelupur, Varanasi - UPPCB",18-05-2024 16:00:00,25.301778,82.996789,CO,14,36,15
India,Uttar_Pradesh,Varanasi,"IESD Banaras Hindu University, Varanasi - UPPCB",18-05-2024 16:00:00,25.262326,82.995408,PM2.5,NA,NA,NA
India,Uttar_Pradesh,Varanasi,"IESD Banaras Hindu University, Varanasi - UPPCB",18-05-2024 16:00:00,25.262326,82.995408,OZONE,1,6,3
India,Uttar_Pradesh,Varanasi,"Maldahiya, Varanasi - UPPCB",18-05-2024 16:00:00,25.32393,82.99687,OZONE,6,20,13
India,Uttar_Pradesh,Vrindavan,"Omex Eternity, Vrindavan - UPPCB",18-05-2024 16:00:00,27.5714090,77.6557570,SO2,43,51,47
India,Uttarakhand,Kashipur,"Govt. Girls Inter College, Kashipur - UKPCB",18-05-2024 16:00:00,29.2124114,78.9611753,NH3,5,9,7
India,Uttarakhand,Rishikesh,"Shivaji Nagar, Rishikesh - UKPCB",18-05-2024 16:00:00,30.075911,78.2859547,SO2,NA,NA,NA
India,West_Bengal,Barrackpore,"SVSPA Campus, Barrackpore - WBPCB",18-05-2024 16:00:00,22.7605581,88.3617589,PM10,27,116,71
India,West_Bengal,Barrackpore,"SVSPA Campus, Barrackpore - WBPCB",18-05-2024 16:00:00,22.7605581,88.3617589,NH3,1,3,2
India,West_Bengal,Barrackpore,"SVSPA Campus, Barrackpore - WBPCB",18-05-2024 16:00:00,22.7605581,88.3617589,CO,2,16,13
India,West_Bengal,Barrackpore,"SVSPA Campus, Barrackpore - WBPCB",18-05-2024 16:00:00,22.7605581,88.3617589,OZONE,6,85,42
India,West_Bengal,Durgapur,"PCBL Residential Complex, Durgapur - WBPCB",18-05-2024 16:00:00,23.5087640,87.3544400,PM10,94,202,143
India,West_Bengal,Durgapur,"Sidhu Kanhu Indoor Stadium, Durgapur - WBPCB",18-05-2024 16:00:00,23.5404352,87.2892225,PM10,126,212,160
India,West_Bengal,Durgapur,"Sidhu Kanhu Indoor Stadium, Durgapur - WBPCB",18-05-2024 16:00:00,23.5404352,87.2892225,OZONE,11,82,30
India,West_Bengal,Haldia,"Priyambada Housing Estate, Haldia - WBPCB",18-05-2024 16:00:00,22.06047,88.109737,PM10,9,41,20
India,West_Bengal,Howrah,"Belur Math, Howrah - WBPCB",18-05-2024 16:00:00,22.629801,88.352017,CO,2,22,15
India,West_Bengal,Howrah,"Belur Math, Howrah - WBPCB",18-05-2024 16:00:00,22.629801,88.352017,OZONE,15,68,42
India,West_Bengal,Howrah,"Ghusuri, Howrah - WBPCB",18-05-2024 16:00:00,22.611968,88.347422,PM2.5,17,98,46
India,West_Bengal,Howrah,"Ghusuri, Howrah - WBPCB",18-05-2024 16:00:00,22.611968,88.347422,PM10,29,117,62
India,West_Bengal,Howrah,"Ghusuri, Howrah - WBPCB",18-05-2024 16:00:00,22.611968,88.347422,NH3,3,3,3
India,West_Bengal,Howrah,"Ghusuri, Howrah - WBPCB",18-05-2024 16:00:00,22.611968,88.347422,OZONE,14,29,23
India,West_Bengal,Howrah,"Padmapukur, Howrah - WBPCB",18-05-2024 16:00:00,22.5687319,88.2797276,PM2.5,24,81,47
India,West_Bengal,Howrah,"Padmapukur, Howrah - WBPCB",18-05-2024 16:00:00,22.5687319,88.2797276,NO2,5,20,12
India,West_Bengal,Howrah,"Padmapukur, Howrah - WBPCB",18-05-2024 16:00:00,22.5687319,88.2797276,SO2,16,81,42
India,West_Bengal,Howrah,"Padmapukur, Howrah - WBPCB",18-05-2024 16:00:00,22.5687319,88.2797276,OZONE,63,101,79
India,West_Bengal,Kolkata,"Ballygunge, Kolkata - WBPCB",18-05-2024 16:00:00,22.5367507,88.3638022,OZONE,22,111,66
India,West_Bengal,Kolkata,"Jadavpur, Kolkata - WBPCB",18-05-2024 16:00:00,22.49929,88.36917,NO2,48,50,49
India,West_Bengal,Kolkata,"Rabindra Sarobar, Kolkata - WBPCB",18-05-2024 16:00:00,22.51106,88.35142,NO2,9,34,23
India,West_Bengal,Kolkata,"Rabindra Sarobar, Kolkata - WBPCB",18-05-2024 16:00:00,22.51106,88.35142,NH3,5,11,8
India,West_Bengal,Kolkata,"Rabindra Sarobar, Kolkata - WBPCB",18-05-2024 16:00:00,22.51106,88.35142,OZONE,17,88,53
India,West_Bengal,Kolkata,"Victoria, Kolkata - WBPCB",18-05-2024 16:00:00,22.5448082,88.3403691,CO,4,36,19
India,West_Bengal,Siliguri,"Ward-32 Bapupara, Siliguri - WBPCB",18-05-2024 16:00:00,26.6879226,88.4152495,PM2.5,49,95,74
India,Andhra_Pradesh,Amaravati,"Secretariat, Amaravati - APPCB",18-05-2024 16:00:00,16.5150833,80.5181667,SO2,6,12,10
India,Andhra_Pradesh,Amaravati,"Secretariat, Amaravati - APPCB",18-05-2024 16:00:00,16.5150833,80.5181667,CO,4,102,25
India,Andhra_Pradesh,Anantapur,"Gulzarpet, Anantapur - APPCB",18-05-2024 16:00:00,14.675886,77.593027,NO2,12,13,13
India,Andhra_Pradesh,Chittoor,"Gangineni Cheruvu, Chittoor - APPCB",18-05-2024 16:00:00,13.204880,79.097889,NH3,1,2,1
India,Andhra_Pradesh,Kadapa,"Yerramukkapalli, Kadapa - APPCB",18-05-2024 16:00:00,14.465052,78.824187,PM2.5,NA,NA,NA
India,Andhra_Pradesh,Kadapa,"Yerramukkapalli, Kadapa - APPCB",18-05-2024 16:00:00,14.465052,78.824187,NO2,12,13,12
India,Andhra_Pradesh,Kadapa,"Yerramukkapalli, Kadapa - APPCB",18-05-2024 16:00:00,14.465052,78.824187,NH3,3,3,3
India,Andhra_Pradesh,Kadapa,"Yerramukkapalli, Kadapa - APPCB",18-05-2024 16:00:00,14.465052,78.824187,SO2,2,2,2
India,Andhra_Pradesh,Kadapa,"Yerramukkapalli, Kadapa - APPCB",18-05-2024 16:00:00,14.465052,78.824187,OZONE,4,30,21
India,Andhra_Pradesh,Rajamahendravaram,"Anand Kala Kshetram, Rajamahendravaram - APPCB",18-05-2024 16:00:00,16.9872867,81.7363176,SO2,11,12,12
India,Andhra_Pradesh,Tirupati,"Tirumala, Tirupati - APPCB",18-05-2024 16:00:00,13.67,79.35,PM10,19,59,33
India,Andhra_Pradesh,Tirupati,"Tirumala, Tirupati - APPCB",18-05-2024 16:00:00,13.67,79.35,NO2,18,38,27
India,Andhra_Pradesh,Tirupati,"Tirumala, Tirupati - APPCB",18-05-2024 16:00:00,13.67,79.35,OZONE,12,30,22
India,Andhra_Pradesh,Tirupati,"Vaikuntapuram, Tirupati - APPCB",18-05-2024 16:00:00,13.615387,79.409230,PM10,13,246,56
India,Andhra_Pradesh,Vijayawada,"Kanuru, Vijayawada - APPCB",18-05-2024 16:00:00,16.486692,80.699436,NO2,21,24,23
India,Andhra_Pradesh,Vijayawada,"Rajiv Gandhi Park, Vijayawada - APPCB",18-05-2024 16:00:00,16.509717,80.612222,PM2.5,25,52,38
India,Andhra_Pradesh,Vijayawada,"Rajiv Gandhi Park, Vijayawada - APPCB",18-05-2024 16:00:00,16.509717,80.612222,NH3,3,6,5
India,Andhra_Pradesh,Vijayawada,"Rajiv Gandhi Park, Vijayawada - APPCB",18-05-2024 16:00:00,16.509717,80.612222,SO2,6,10,7
India,Andhra_Pradesh,Vijayawada,"Rajiv Gandhi Park, Vijayawada - APPCB",18-05-2024 16:00:00,16.509717,80.612222,CO,36,36,36
India,Andhra_Pradesh,Vijayawada,"Rajiv Nagar, Vijayawada - APPCB",18-05-2024 16:00:00,16.554731,80.649110,NO2,12,13,12
India,Andhra_Pradesh,Vijayawada,"Rajiv Nagar, Vijayawada - APPCB",18-05-2024 16:00:00,16.554731,80.649110,SO2,12,23,16
India,Andhra_Pradesh,Visakhapatnam,"GVM Corporation, Visakhapatnam - APPCB",18-05-2024 16:00:00,17.72,83.3,CO,6,37,13
India,Arunachal_Pradesh,Naharlagun,"Naharlagun, Naharlagun - APSPCB",18-05-2024 16:00:00,27.103358,93.679645,PM10,NA,NA,NA
India,Assam,Byrnihat,"Central Academy for SFS, Byrnihat - PCBA",18-05-2024 16:00:00,26.071318,91.87488,PM2.5,48,357,158
India,Assam,Guwahati,"IITG, Guwahati - PCBA",18-05-2024 16:00:00,26.2028636,91.70046436,NO2,NA,NA,NA
India,Assam,Guwahati,"LGBI Airport, Guwahati - PCBA",18-05-2024 16:00:00,26.10887,91.589544,SO2,10,12,11
India,Assam,Guwahati,"Pan Bazaar, Guwahati - PCBA",18-05-2024 16:00:00,26.187500,91.744194,PM2.5,20,85,43
India,Assam,Guwahati,"Railway Colony, Guwahati - PCBA",18-05-2024 16:00:00,26.181742,91.78063,SO2,NA,NA,NA
India,Assam,Guwahati,"Railway Colony, Guwahati - PCBA",18-05-2024 16:00:00,26.181742,91.78063,OZONE,1,18,9
India,Assam,Nalbari,"Bata Chowk, Nalbari - PCBA",18-05-2024 16:00:00,26.446912,91.439057,NO2,10,28,16
India,Assam,Nalbari,"Bata Chowk, Nalbari - PCBA",18-05-2024 16:00:00,26.446912,91.439057,SO2,8,13,11
India,Assam,Sivasagar,"Girls College, Sivasagar - PCBA",18-05-2024 16:00:00,26.987634,94.636574,SO2,8,13,11
India,Bihar,Arrah,"New DM Office, Arrah - BSPCB",18-05-2024 16:00:00,25.5626095,84.663264,PM2.5,40,117,70
India,Bihar,Bettiah,"Kamalnath Nagar, Bettiah - BSPCB",18-05-2024 16:00:00,26.80365,84.51954,SO2,10,18,15
India,Bihar,Bhagalpur,"Mayaganj, Bhagalpur - BSPCB",18-05-2024 16:00:00,25.265194,87.012947,NO2,4,10,7
India,Bihar,Bhagalpur,"Mayaganj, Bhagalpur - BSPCB",18-05-2024 16:00:00,25.265194,87.012947,NH3,7,9,8
India,Bihar,Bihar Sharif,"D M Colony, Bihar Sharif - BSPCB",18-05-2024 16:00:00,25.204762,85.514960,NH3,2,2,2
India,Bihar,Bihar Sharif,"D M Colony, Bihar Sharif - BSPCB",18-05-2024 16:00:00,25.204762,85.514960,CO,44,75,55
India,Bihar,Buxar,"Charitra Van, Buxar - BSPCB (Formerly known as Central Jail)",18-05-2024 16:00:00,25.567520,83.966379,OZONE,25,300,251
India,Bihar,Gaya,"Kareemganj, Gaya - BSPCB",18-05-2024 16:00:00,24.792403,84.992416,PM10,10,78,33
India,Bihar,Gaya,"Kareemganj, Gaya - BSPCB",18-05-2024 16:00:00,24.792403,84.992416,NO2,7,17,14
India,Bihar,Katihar,"Mirchaibari, Katihar - BSPCB",18-05-2024 16:00:00,25.560083,87.553265,PM10,NA,NA,NA
India,Bihar,Katihar,"Mirchaibari, Katihar - BSPCB",18-05-2024 16:00:00,25.560083,87.553265,OZONE,5,18,11
India,Bihar,Munger,"Town Hall, Munger - BSPCB",18-05-2024 16:00:00,25.376776,86.471523,NO2,4,6,5
India,Bihar,Muzaffarpur,"Buddha Colony, Muzaffarpur - BSPCB",18-05-2024 16:00:00,26.11442,85.39813,PM10,137,277,194
India,Bihar,Muzaffarpur,"Buddha Colony, Muzaffarpur - BSPCB",18-05-2024 16:00:00,26.11442,85.39813,NH3,8,12,10
India,Bihar,Muzaffarpur,"MIT-Daudpur Kothi, Muzaffarpur - BSPCB",18-05-2024 16:00:00,26.1403345,85.3650192,PM10,NA,NA,NA
India,Bihar,Muzaffarpur,"MIT-Daudpur Kothi, Muzaffarpur - BSPCB",18-05-2024 16:00:00,26.1403345,85.3650192,SO2,5,8,7
India,Bihar,Patna,"DRM Office Danapur, Patna - BSPCB",18-05-2024 16:00:00,25.586562,85.043586,PM10,129,231,175
India,Bihar,Patna,"Govt. High School Shikarpur, Patna - BSPCB",18-05-2024 16:00:00,25.592539,85.227158,PM10,140,227,173
India,Bihar,Patna,"Muradpur, Patna - BSPCB",18-05-2024 16:00:00,25.619651,85.147382,SO2,6,13,8
India,Bihar,Patna,"Rajbansi Nagar, Patna - BSPCB",18-05-2024 16:00:00,25.599486,85.113666,NO2,12,74,34
India,Bihar,Patna,"Rajbansi Nagar, Patna - BSPCB",18-05-2024 16:00:00,25.599486,85.113666,SO2,3,21,9
India,Bihar,Patna,"Rajbansi Nagar, Patna - BSPCB",18-05-2024 16:00:00,25.599486,85.113666,OZONE,2,112,78
India,Bihar,Patna,"Samanpura, Patna - BSPCB",18-05-2024 16:00:00,25.596727,85.085624,PM10,160,500,315
India,Bihar,Patna,"Samanpura, Patna - BSPCB",18-05-2024 16:00:00,25.596727,85.085624,NO2,2,64,28
India,Bihar,Patna,"Samanpura, Patna - BSPCB",18-05-2024 16:00:00,25.596727,85.085624,SO2,2,3,3
India,Bihar,Purnia,"Mariam Nagar, Purnia - BSPCB",18-05-2024 16:00:00,25.366336,87.117468,OZONE,10,54,29
India,Bihar,Rajgir,"Dangi Tola, Rajgir - BSPCB",18-05-2024 16:00:00,25.03280,85.41948,CO,16,52,35
India,Bihar,Samastipur,"DM Office_Kasipur, Samastipur - BSPCB",18-05-2024 16:00:00,25.859655,85.77944,SO2,NA,NA,NA
India,Bihar,Sasaram,"Dada Peer, Sasaram - BSPCB",18-05-2024 16:00:00,24.952822,84.002396,NH3,1,28,15
India,Bihar,Sasaram,"Dada Peer, Sasaram - BSPCB",18-05-2024 16:00:00,24.952822,84.002396,SO2,19,23,22
India,Bihar,Sasaram,"Dada Peer, Sasaram - BSPCB",18-05-2024 16:00:00,24.952822,84.002396,OZONE,3,84,46
India,Bihar,Siwan,"Chitragupta Nagar, Siwan - BSPCB",18-05-2024 16:00:00,26.2271665,84.3570427,NO2,15,41,25
India,Chandigarh,Chandigarh,"Sector 22, Chandigarh - CPCC",18-05-2024 16:00:00,30.735567,76.775714,PM2.5,80,329,272
India,Chandigarh,Chandigarh,"Sector 22, Chandigarh - CPCC",18-05-2024 16:00:00,30.735567,76.775714,PM10,123,243,182
India,Chandigarh,Chandigarh,"Sector 22, Chandigarh - CPCC",18-05-2024 16:00:00,30.735567,76.775714,NO2,32,143,65
India,Chandigarh,Chandigarh,"Sector 22, Chandigarh - CPCC",18-05-2024 16:00:00,30.735567,76.775714,OZONE,4,300,100
India,Chandigarh,Chandigarh,"Sector-25, Chandigarh - CPCC",18-05-2024 16:00:00,30.751462,76.762879,NO2,3,48,22
India,Chhattisgarh,Bhilai,"32Bungalows, Bhilai - CECB",18-05-2024 16:00:00,21.194815,81.314770,PM10,12,58,34
India,Chhattisgarh,Bhilai,"32Bungalows, Bhilai - CECB",18-05-2024 16:00:00,21.194815,81.314770,NO2,17,22,20
India,Chhattisgarh,Bhilai,"32Bungalows, Bhilai - CECB",18-05-2024 16:00:00,21.194815,81.314770,OZONE,6,30,13
India,Chhattisgarh,Bilaspur,"Mangala, Bilaspur - NTPC",18-05-2024 16:00:00,22.08815,82.13737,PM2.5,18,60,44
India,Chhattisgarh,Bilaspur,"Mangala, Bilaspur - NTPC",18-05-2024 16:00:00,22.08815,82.13737,PM10,26,67,50
India,Chhattisgarh,Bilaspur,"Mangala, Bilaspur - NTPC",18-05-2024 16:00:00,22.08815,82.13737,SO2,6,19,14
India,Chhattisgarh,Bilaspur,"Mangala, Bilaspur - NTPC",18-05-2024 16:00:00,22.08815,82.13737,CO,44,104,56
India,Chhattisgarh,Chhal,"Nawapara SECL Colony, Chhal - CECB",18-05-2024 16:00:00,22.118125,83.140608,SO2,16,27,21
India,Chhattisgarh,Chhal,"Nawapara SECL Colony, Chhal - CECB",18-05-2024 16:00:00,22.118125,83.140608,CO,20,80,31
India,Chhattisgarh,Chhal,"Nawapara SECL Colony, Chhal - CECB",18-05-2024 16:00:00,22.118125,83.140608,OZONE,8,73,51
India,Chhattisgarh,Korba,"Rampur, Korba - CECB",18-05-2024 16:00:00,22.368195,82.746431,SO2,1,13,3
India,Chhattisgarh,Korba,"Urja Nagar, Korba - CECB",18-05-2024 16:00:00,22.348441,82.549611,SO2,2,3,2
India,Chhattisgarh,Korba,"Urja Nagar, Korba - CECB",18-05-2024 16:00:00,22.348441,82.549611,CO,21,74,40
India,Chhattisgarh,Kunjemura,"OP Jindal School, Kunjemura - CECB",18-05-2024 16:00:00,22.126650,83.483212,NO2,31,93,58
India,Chhattisgarh,Milupara,"Govt. Higher Secondary School, Milupara - CECB",18-05-2024 16:00:00,22.1910172,83.5197009,PM2.5,24,65,42
India,Chhattisgarh,Milupara,"Govt. Higher Secondary School, Milupara - CECB",18-05-2024 16:00:00,22.1910172,83.5197009,NH3,1,2,1
India,Chhattisgarh,Milupara,"Govt. Higher Secondary School, Milupara - CECB",18-05-2024 16:00:00,22.1910172,83.5197009,CO,5,36,17
India,Chhattisgarh,Raipur,"AIIMS, Raipur - CECB",18-05-2024 16:00:00,21.258815,81.578979,NO2,9,15,11
India,Chhattisgarh,Raipur,"AIIMS, Raipur - CECB",18-05-2024 16:00:00,21.258815,81.578979,SO2,3,11,5
India,Chhattisgarh,Raipur,"AIIMS, Raipur - CECB",18-05-2024 16:00:00,21.258815,81.578979,CO,18,24,22
India,Chhattisgarh,Raipur,"Krishak Nagar, Raipur - CECB",18-05-2024 16:00:00,21.237755,81.705301,NH3,1,1,1
India,Chhattisgarh,Raipur,"Krishak Nagar, Raipur - CECB",18-05-2024 16:00:00,21.237755,81.705301,SO2,9,16,14
India,Chhattisgarh,Raipur,"Krishak Nagar, Raipur - CECB",18-05-2024 16:00:00,21.237755,81.705301,OZONE,5,54,26
India,Chhattisgarh,Raipur,"Siltara Phase-II, Raipur - CECB",18-05-2024 16:00:00,21.371751,81.664929,PM10,39,69,51
India,Chhattisgarh,Raipur,"Siltara Phase-II, Raipur - CECB",18-05-2024 16:00:00,21.371751,81.664929,NH3,3,3,3
India,Chhattisgarh,Tumidih,"OP Jindal Industrial Park, Tumidih - CECB",18-05-2024 16:00:00,22.06631475,83.33820077,PM10,NA,NA,NA
India,Chhattisgarh,Tumidih,"OP Jindal Industrial Park, Tumidih - CECB",18-05-2024 16:00:00,22.06631475,83.33820077,OZONE,NA,NA,NA
India,Delhi,Delhi,"Alipur, Delhi - DPCC",18-05-2024 16:00:00,28.815329,77.153010,PM2.5,33,371,219
India,Delhi,Delhi,"Alipur, Delhi - DPCC",18-05-2024 16:00:00,28.815329,77.153010,CO,10,84,46
India,Delhi,Delhi,"Anand Vihar, Delhi - DPCC",18-05-2024 16:00:00,28.647622,77.3158090,PM2.5,NA,NA,NA
India,Delhi,Delhi,"Anand Vihar, Delhi - DPCC",18-05-2024 16:00:00,28.647622,77.3158090,NO2,NA,NA,NA
India,Delhi,Delhi,"Anand Vihar, Delhi - DPCC",18-05-2024 16:00:00,28.647622,77.3158090,NH3,NA,NA,NA
India,Delhi,Delhi,"Ashok Vihar, Delhi - DPCC",18-05-2024 16:00:00,28.695381,77.181665,PM2.5,45,327,227
India,Delhi,Delhi,"Ashok Vihar, Delhi - DPCC",18-05-2024 16:00:00,28.695381,77.181665,SO2,18,66,38
India,Delhi,Delhi,"Aya Nagar, Delhi - IMD",18-05-2024 16:00:00,28.4706914,77.1099364,NO2,14,23,18
India,Delhi,Delhi,"Bawana, Delhi - DPCC",18-05-2024 16:00:00,28.776200,77.051074,NH3,6,10,8
India,Delhi,Delhi,"CRRI Mathura Road, Delhi - IMD",18-05-2024 16:00:00,28.5512005,77.2735737,PM2.5,90,346,275
India,Delhi,Delhi,"Chandni Chowk, Delhi - IITM",18-05-2024 16:00:00,28.656756,77.227234,NO2,10,51,18
India,Delhi,Delhi,"Chandni Chowk, Delhi - IITM",18-05-2024 16:00:00,28.656756,77.227234,NH3,21,25,22
India,Delhi,Delhi,"Chandni Chowk, Delhi - IITM",18-05-2024 16:00:00,28.656756,77.227234,SO2,14,74,40
India,Delhi,Delhi,"Dr. Karni Singh Shooting Range, Delhi - DPCC",18-05-2024 16:00:00,28.498571,77.264840,NH3,5,13,7
India,Delhi,Delhi,"Dr. Karni Singh Shooting Range, Delhi - DPCC",18-05-2024 16:00:00,28.498571,77.264840,CO,32,101,58
India,Delhi,Delhi,"Dwarka-Sector 8, Delhi - DPCC ",18-05-2024 16:00:00,28.5710274,77.0719006,PM2.5,57,342,236
India,Delhi,Delhi,"IGI Airport (T3), Delhi - IMD",18-05-2024 16:00:00,28.5627763,77.1180053,PM2.5,87,347,227
India,Delhi,Delhi,"IGI Airport (T3), Delhi - IMD",18-05-2024 16:00:00,28.5627763,77.1180053,OZONE,4,83,49
India,Delhi,Delhi,"IHBAS, Dilshad Garden, Delhi - CPCB",18-05-2024 16:00:00,28.6811736,77.3025234,PM10,112,272,173
India,Delhi,Delhi,"IHBAS, Dilshad Garden, Delhi - CPCB",18-05-2024 16:00:00,28.6811736,77.3025234,NO2,21,40,35
India,Delhi,Delhi,"ITO, Delhi - CPCB",18-05-2024 16:00:00,28.628624,77.241060,OZONE,7,91,63
India,Delhi,Delhi,"Jahangirpuri, Delhi - DPCC",18-05-2024 16:00:00,28.732820,77.170633,PM2.5,68,417,285
India,Delhi,Delhi,"Jahangirpuri, Delhi - DPCC",18-05-2024 16:00:00,28.732820,77.170633,SO2,14,113,72
India,Delhi,Delhi,"Jawaharlal Nehru Stadium, Delhi - DPCC",18-05-2024 16:00:00,28.580280,77.233829,SO2,8,79,48
India,Delhi,Delhi,"Lodhi Road, Delhi - IMD",18-05-2024 16:00:00,28.5918245,77.2273074,OZONE,4,77,47
India,Delhi,Delhi,"Major Dhyan Chand National Stadium, Delhi - DPCC",18-05-2024 16:00:00,28.611281,77.237738,PM2.5,68,318,221
India,Delhi,Delhi,"Major Dhyan Chand National Stadium, Delhi - DPCC",18-05-2024 16:00:00,28.611281,77.237738,NO2,19,169,97
India,Delhi,Delhi,"Mandir Marg, Delhi - DPCC",18-05-2024 16:00:00,28.636429,77.201067,PM2.5,30,311,210
India,Delhi,Delhi,"Mandir Marg, Delhi - DPCC",18-05-2024 16:00:00,28.636429,77.201067,PM10,84,276,180
India,Delhi,Delhi,"Mandir Marg, Delhi - DPCC",18-05-2024 16:00:00,28.636429,77.201067,NH3,7,11,9
India,Delhi,Delhi,"Mandir Marg, Delhi - DPCC",18-05-2024 16:00:00,28.636429,77.201067,OZONE,1,37,16
India,Delhi,Delhi,"Mundka, Delhi - DPCC",18-05-2024 16:00:00,28.684678,77.076574,PM2.5,77,427,274
India,Delhi,Delhi,"NSIT Dwarka, Delhi - CPCB",18-05-2024 16:00:00,28.60909,77.0325413,PM10,158,459,291
India,Delhi,Delhi,"NSIT Dwarka, Delhi - CPCB",18-05-2024 16:00:00,28.60909,77.0325413,NO2,26,70,42
India,Delhi,Delhi,"Najafgarh, Delhi - DPCC",18-05-2024 16:00:00,28.570173,76.933762,NH3,6,23,10
India,Delhi,Delhi,"Najafgarh, Delhi - DPCC",18-05-2024 16:00:00,28.570173,76.933762,OZONE,15,148,111
India,Delhi,Delhi,"Narela, Delhi - DPCC",18-05-2024 16:00:00,28.822836,77.101981,PM2.5,51,406,248
India,Delhi,Delhi,"Narela, Delhi - DPCC",18-05-2024 16:00:00,28.822836,77.101981,PM10,129,449,308
India,Delhi,Delhi,"Narela, Delhi - DPCC",18-05-2024 16:00:00,28.822836,77.101981,NO2,12,119,56
India,Delhi,Delhi,"Nehru Nagar, Delhi - DPCC",18-05-2024 16:00:00,28.567890,77.250515,PM2.5,68,332,238
India,Delhi,Delhi,"New Moti Bagh, Delhi - MHUA",18-05-2024 16:00:00,28.57834,77.18400,PM2.5,69,343,220
India,Delhi,Delhi,"Okhla Phase-2, Delhi - DPCC",18-05-2024 16:00:00,28.530785,77.271255,PM2.5,68,328,220
India,Delhi,Delhi,"Okhla Phase-2, Delhi - DPCC",18-05-2024 16:00:00,28.530785,77.271255,NO2,39,192,109
India,Delhi,Delhi,"Patparganj, Delhi - DPCC",18-05-2024 16:00:00,28.623763,77.287209,NO2,7,67,35
India,Delhi,Delhi,"Punjabi Bagh, Delhi - DPCC",18-05-2024 16:00:00,28.674045,77.131023,PM2.5,55,361,245
India,Delhi,Delhi,"Pusa, Delhi - DPCC",18-05-2024 16:00:00,28.639652,77.146275,NH3,7,11,8
India,Delhi,Delhi,"R K Puram, Delhi - DPCC",18-05-2024 16:00:00,28.563262,77.186937,PM2.5,60,348,259
India,Delhi,Delhi,"R K Puram, Delhi - DPCC",18-05-2024 16:00:00,28.563262,77.186937,PM10,112,440,272
India,Delhi,Delhi,"Rohini, Delhi - DPCC",18-05-2024 16:00:00,28.732528,77.119920,CO,15,154,43
India,Delhi,Delhi,"Shadipur, Delhi - CPCB",18-05-2024 16:00:00,28.6514781,77.1473105,PM2.5,40,500,333
India,Delhi,Delhi,"Shadipur, Delhi - CPCB",18-05-2024 16:00:00,28.6514781,77.1473105,NH3,8,10,9
India,Delhi,Delhi,"Shadipur, Delhi - CPCB",18-05-2024 16:00:00,28.6514781,77.1473105,CO,12,116,40
India,Delhi,Delhi,"Sirifort, Delhi - CPCB",18-05-2024 16:00:00,28.5504249,77.2159377,NH3,10,19,16
India,Delhi,Delhi,"Sirifort, Delhi - CPCB",18-05-2024 16:00:00,28.5504249,77.2159377,CO,16,164,43
India,Delhi,Delhi,"Sonia Vihar, Delhi - DPCC",18-05-2024 16:00:00,28.710508,77.249485,NH3,6,12,8
India,Delhi,Delhi,"Sonia Vihar, Delhi - DPCC",18-05-2024 16:00:00,28.710508,77.249485,OZONE,5,149,89
India,Delhi,Delhi,"Sri Aurobindo Marg, Delhi - DPCC",18-05-2024 16:00:00,28.531346,77.190156,OZONE,2,134,80
India,Delhi,Delhi,"Vivek Vihar, Delhi - DPCC",18-05-2024 16:00:00,28.672342,77.315260,PM2.5,65,307,202
India,Delhi,Delhi,"Wazirpur, Delhi - DPCC",18-05-2024 16:00:00,28.699793,77.165453,PM2.5,57,362,248
India,Delhi,Delhi,"Wazirpur, Delhi - DPCC",18-05-2024 16:00:00,28.699793,77.165453,OZONE,2,232,155
India,Gujarat,Ahmedabad,"Chandkheda, Ahmedabad - IITM",18-05-2024 16:00:00,23.107969,72.574648,SO2,1,65,22
India,Gujarat,Ahmedabad,"Chandkheda, Ahmedabad - IITM",18-05-2024 16:00:00,23.107969,72.574648,CO,2,84,44
India,Gujarat,Ahmedabad,"Maninagar, Ahmedabad - GPCB",18-05-2024 16:00:00,23.002657,72.591912,PM10,71,232,107
India,Gujarat,Ahmedabad,"SVPI Airport Hansol, Ahmedabad - IITM",18-05-2024 16:00:00,23.076793,72.627874,PM2.5,NA,NA,NA
India,Gujarat,Ahmedabad,"SVPI Airport Hansol, Ahmedabad - IITM",18-05-2024 16:00:00,23.076793,72.627874,NO2,30,44,37
India,Gujarat,Ankleshwar,"GIDC, Ankleshwar - GPCB",18-05-2024 16:00:00,21.613267,73.010555,PM2.5,47,92,65
India,Gujarat,Ankleshwar,"GIDC, Ankleshwar - GPCB",18-05-2024 16:00:00,21.613267,73.010555,SO2,NA,NA,NA
India,Gujarat,Gandhinagar,"Sector-10, Gandhinagar - GPCB",18-05-2024 16:00:00,23.221714,72.654328,SO2,3,5,4
India,Gujarat,Surat,"Science Center, Surat - SMC",18-05-2024 16:00:00,21.170046,72.795405,SO2,11,15,13
India,Gujarat,Vapi,"Phase-1 GIDC, Vapi - GPCB",18-05-2024 16:00:00,20.362421,72.918013,PM10,45,99,65
India,Gujarat,Vapi,"Phase-1 GIDC, Vapi - GPCB",18-05-2024 16:00:00,20.362421,72.918013,NO2,6,7,6
India,Haryana,Ambala,"Patti Mehar, Ambala - HSPCB",18-05-2024 16:00:00,30.379589,76.778328,CO,20,61,47
India,Haryana,Ballabgarh,"Nathu Colony, Ballabgarh - HSPCB",18-05-2024 16:00:00,28.3419248,77.319699,OZONE,5,49,35
India,Haryana,Bhiwani,"H.B. Colony, Bhiwani - HSPCB",18-05-2024 16:00:00,28.806223,76.141105,PM10,64,218,132
India,Haryana,Charkhi Dadri,"Mini Secretariat, Charkhi Dadri - HSPCB",18-05-2024 16:00:00,28.593883,76.270653,SO2,7,28,16
India,Haryana,Dharuhera,"Municipal Corporation Office, Dharuhera -  HSPCB",18-05-2024 16:00:00,28.206800,76.799700,NH3,9,26,19
India,Haryana,Faridabad,"New Industrial Town, Faridabad - HSPCB",18-05-2024 16:00:00,28.39072,77.30059,NH3,2,16,7
India,Haryana,Faridabad,"Sector 11, Faridabad - HSPCB",18-05-2024 16:00:00,28.376058,77.315741,PM2.5,160,397,300
India,Haryana,Faridabad,"Sector 11, Faridabad - HSPCB",18-05-2024 16:00:00,28.376058,77.315741,NO2,30,33,31
India,Haryana,Faridabad,"Sector 11, Faridabad - HSPCB",18-05-2024 16:00:00,28.376058,77.315741,NH3,6,6,6
India,Haryana,Faridabad,"Sector 11, Faridabad - HSPCB",18-05-2024 16:00:00,28.376058,77.315741,CO,28,90,37
India,Haryana,Faridabad,"Sector 30, Faridabad - HSPCB",18-05-2024 16:00:00,28.4417,77.3217,PM10,195,226,210
India,Haryana,Fatehabad,"Huda Sector, Fatehabad - HSPCB",18-05-2024 16:00:00,29.503664,75.467934,PM2.5,9,284,133
India,Haryana,Fatehabad,"Huda Sector, Fatehabad - HSPCB",18-05-2024 16:00:00,29.503664,75.467934,PM10,114,282,145
India,Haryana,Fatehabad,"Huda Sector, Fatehabad - HSPCB",18-05-2024 16:00:00,29.503664,75.467934,SO2,3,71,12
India,Haryana,Gurugram,"NISE Gwal Pahari, Gurugram - IMD",18-05-2024 16:00:00,28.422681,77.148944,NO2,10,72,40
India,Haryana,Gurugram,"Sector-51, Gurugram - HSPCB",18-05-2024 16:00:00,28.4227,77.0667,NO2,13,29,23
India,Haryana,Gurugram,"Teri Gram, Gurugram - HSPCB",18-05-2024 16:00:00,28.4275,77.1465,NH3,NA,NA,NA
India,Haryana,Gurugram,"Teri Gram, Gurugram - HSPCB",18-05-2024 16:00:00,28.4275,77.1465,CO,14,48,25
India,Haryana,Hisar,"Urban Estate-II, Hisar - HSPCB",18-05-2024 16:00:00,29.140560,75.744941,PM10,NA,NA,NA
India,Haryana,Hisar,"Urban Estate-II, Hisar - HSPCB",18-05-2024 16:00:00,29.140560,75.744941,NH3,NA,NA,NA
India,Haryana,Hisar,"Urban Estate-II, Hisar - HSPCB",18-05-2024 16:00:00,29.140560,75.744941,CO,20,46,28
India,Haryana,Jind,"Police Lines, Jind - HSPCB",18-05-2024 16:00:00,29.307814,76.337619,PM10,86,149,126
India,Haryana,Jind,"Police Lines, Jind - HSPCB",18-05-2024 16:00:00,29.307814,76.337619,OZONE,16,42,33
India,Haryana,Karnal,"Sector-12, Karnal - HSPCB",18-05-2024 16:00:00,29.695300,77.002700,PM10,110,197,146
India,Haryana,Karnal,"Sector-12, Karnal - HSPCB",18-05-2024 16:00:00,29.695300,77.002700,NO2,7,12,10
India,Haryana,Karnal,"Sector-12, Karnal - HSPCB",18-05-2024 16:00:00,29.695300,77.002700,OZONE,27,34,31
India,Haryana,Mandikhera,"General Hospital, Mandikhera - HSPCB",18-05-2024 16:00:00,27.9002,76.9938,CO,2,28,17
India,Haryana,Mandikhera,"General Hospital, Mandikhera - HSPCB",18-05-2024 16:00:00,27.9002,76.9938,OZONE,25,31,28
India,Haryana,Manesar,"Sector-2 IMT, Manesar - HSPCB",18-05-2024 16:00:00,28.360699,76.936090,NH3,1,4,2
India,Haryana,Manesar,"Sector-2 IMT, Manesar - HSPCB",18-05-2024 16:00:00,28.360699,76.936090,CO,12,98,24
India,Haryana,Palwal,"Shyam Nagar, Palwal - HSPCB",18-05-2024 16:00:00,28.1485564,77.3320667,SO2,1,14,8
India,Haryana,Panchkula,"Sector-6, Panchkula - HSPCB ",18-05-2024 16:00:00,30.7057778,76.8531805555555,NO2,9,11,10
India,Haryana,Panipat,"Sector-18, Panipat - HSPCB",18-05-2024 16:00:00,29.432304,76.972765,CO,24,26,25
India,Haryana,Panipat,"Sector-18, Panipat - HSPCB",18-05-2024 16:00:00,29.432304,76.972765,OZONE,30,30,30
India,Haryana,Rohtak,"MD University, Rohtak - HSPCB",18-05-2024 16:00:00,28.52123,76.37138,SO2,6,8,7
India,Haryana,Rohtak,"MD University, Rohtak - HSPCB",18-05-2024 16:00:00,28.52123,76.37138,OZONE,42,54,48
India,Haryana,Sirsa,"F-Block, Sirsa - HSPCB",18-05-2024 16:00:00,29.536400,75.015800,OZONE,22,78,22
India,Haryana,Sonipat,"Murthal, Sonipat - HSPCB",18-05-2024 16:00:00,29.027200,77.062100,PM10,77,381,151
India,Haryana,Sonipat,"Murthal, Sonipat - HSPCB",18-05-2024 16:00:00,29.027200,77.062100,OZONE,17,36,30
India,Haryana,Yamuna Nagar,"Gobind Pura, Yamuna Nagar - HSPCB",18-05-2024 16:00:00,30.1480566,77.2893471,PM10,NA,NA,NA
India,Haryana,Yamuna Nagar,"Gobind Pura, Yamuna Nagar - HSPCB",18-05-2024 16:00:00,30.1480566,77.2893471,NO2,NA,NA,NA
India,Haryana,Yamuna Nagar,"Gobind Pura, Yamuna Nagar - HSPCB",18-05-2024 16:00:00,30.1480566,77.2893471,CO,27,46,30
India,Himachal Pradesh,Baddi,"HIMUDA Complex Phase-1, Baddi - HPPCB",18-05-2024 16:00:00,30.943887,76.801991,NH3,4,7,6
India,Himachal Pradesh,Baddi,"HIMUDA Complex Phase-1, Baddi - HPPCB",18-05-2024 16:00:00,30.943887,76.801991,CO,13,72,34
India,Himachal Pradesh,Baddi,"HIMUDA Complex Phase-1, Baddi - HPPCB",18-05-2024 16:00:00,30.943887,76.801991,OZONE,18,228,141
India,Jammu_and_Kashmir,Srinagar,"Rajbagh, Srinagar - JKSPCB",18-05-2024 16:00:00,34.066206,74.819820,PM10,NA,NA,NA
India,Jammu_and_Kashmir,Srinagar,"Rajbagh, Srinagar - JKSPCB",18-05-2024 16:00:00,34.066206,74.819820,SO2,NA,NA,NA
India,Jharkhand,Dhanbad,"Kalakusuma, Dhanbad - DMC",18-05-2024 16:00:00,23.811548,86.481238,CO,129,134,131
India,Jharkhand,Dhanbad,"Sardar Patel Nagar, Dhanbad - JSPCB",18-05-2024 16:00:00,23.80569,86.44268,SO2,NA,NA,NA
India,Jharkhand,Jorapokhar,"Tata Stadium, Jorapokhar - JSPCB",18-05-2024 16:00:00,23.707909,86.414670,NH3,NA,NA,NA
India,Jharkhand,Jorapokhar,"Tata Stadium, Jorapokhar - JSPCB",18-05-2024 16:00:00,23.707909,86.414670,SO2,NA,NA,NA
India,Jharkhand,Pathardih,"Mohalbani Ghat, Pathardih - DMC",18-05-2024 16:00:00,23.669880,86.411725,CO,46,117,73
India,Jharkhand,Pathardih,"Mohalbani Ghat, Pathardih - DMC",18-05-2024 16:00:00,23.669880,86.411725,OZONE,56,77,66
India,Karnataka,Bagalkot,"Vidayagiri, Bagalkot - KSPCB",18-05-2024 16:00:00,16.172806,75.659694,NO2,9,10,9
India,Karnataka,Belgaum,"Ramteerth Nagar, Belgaum - KSPCB",18-05-2024 16:00:00,15.888653,74.541751,SO2,9,9,9
India,Karnataka,Bengaluru,"Hombegowda Nagar, Bengaluru - KSPCB",18-05-2024 16:00:00,12.938539,77.590100,PM10,20,62,36
India,Karnataka,Bengaluru,"Hombegowda Nagar, Bengaluru - KSPCB",18-05-2024 16:00:00,12.938539,77.590100,NH3,2,2,2
India,Karnataka,Bengaluru,"Hombegowda Nagar, Bengaluru - KSPCB",18-05-2024 16:00:00,12.938539,77.590100,OZONE,13,57,47
India,Karnataka,Bengaluru,"Jayanagar 5th Block, Bengaluru - KSPCB",18-05-2024 16:00:00,12.920984,77.584908,PM10,20,76,44
India,Karnataka,Bengaluru,"Jayanagar 5th Block, Bengaluru - KSPCB",18-05-2024 16:00:00,12.920984,77.584908,NH3,1,3,2
India,Karnataka,Bengaluru,"Jayanagar 5th Block, Bengaluru - KSPCB",18-05-2024 16:00:00,12.920984,77.584908,SO2,9,25,18
India,Karnataka,Bengaluru,"Kasturi Nagar, Bengaluru - KSPCB",18-05-2024 16:00:00,13.003872,77.664217,PM2.5,23,23,23
India,Karnataka,Bengaluru,"Kasturi Nagar, Bengaluru - KSPCB",18-05-2024 16:00:00,13.003872,77.664217,NH3,3,4,4
India,Karnataka,Bengaluru,"Peenya, Bengaluru - CPCB",18-05-2024 16:00:00,13.0270199,77.494094,NO2,18,24,22
India,Karnataka,Bengaluru,"RVCE-Mailasandra, Bengaluru - KSPCB",18-05-2024 16:00:00,12.921418,77.502466,CO,32,55,41
India,Karnataka,Bengaluru,"Sanegurava Halli, Bengaluru - KSPCB",18-05-2024 16:00:00,12.990328,77.5431385,NO2,23,34,27
India,Karnataka,Bengaluru,"Sanegurava Halli, Bengaluru - KSPCB",18-05-2024 16:00:00,12.990328,77.5431385,CO,8,35,24
India,Karnataka,Bengaluru,"Shivapura_Peenya, Bengaluru - KSPCB",18-05-2024 16:00:00,13.0246342,77.5080115,CO,23,44,30
India,Karnataka,Bidar,"Naubad, Bidar - KSPCB",18-05-2024 16:00:00,17.930306,77.482194,NO2,7,8,8
India,Karnataka,Chikkaballapur,"Chikkaballapur Rural, Chikkaballapur - KSPCB",18-05-2024 16:00:00,13.428828,77.731418,PM10,9,51,31
India,Karnataka,Chikkamagaluru,"Kalyana Nagara, Chikkamagaluru - KSPCB",18-05-2024 16:00:00,13.328028,75.797056,PM2.5,NA,NA,NA
India,Karnataka,Davanagere,"Devaraj Urs Badavane, Davanagere - KSPCB",18-05-2024 16:00:00,14.475800,75.905200,CO,24,26,24
India,Karnataka,Gadag,"Panchal Nagar, Gadag - KSPCB",18-05-2024 16:00:00,15.411456,75.638133,NH3,1,3,2
India,Karnataka,Gadag,"Panchal Nagar, Gadag - KSPCB",18-05-2024 16:00:00,15.411456,75.638133,SO2,6,20,14
India,Karnataka,Hassan,"B.Katihalli, Hassan - KSPCB",18-05-2024 16:00:00,13.008556,76.125258,CO,2,5,4
India,Karnataka,Haveri,"Ashwini Nagar, Haveri - KSPCB",18-05-2024 16:00:00,14.791800,75.389600,SO2,14,14,14
India,Karnataka,Hubballi,"Deshpande Nagar, Hubballi - KSPCB",18-05-2024 16:00:00,15.351773,75.140726,NH3,5,6,5
India,Karnataka,Hubballi,"Lingaraj Nagar, Hubballi - KSPCB",18-05-2024 16:00:00,15.3714823,75.1160168,PM10,48,73,56
India,Karnataka,Kalaburagi,"Lal Bahadur Shastri Nagar, Kalaburagi - KSPCB",18-05-2024 16:00:00,17.321993,76.822628,NO2,10,12,11
India,Karnataka,Kalaburagi,"Mahatma Basaveswar Colony, Kalaburgi - KSPCB",18-05-2024 16:00:00,17.336318,76.847397,NO2,8,17,11
India,Karnataka,Karwar,"KHB Colony, Karwar - KSPCB",18-05-2024 16:00:00,14.816666,74.141003,CO,8,9,9
India,Karnataka,Kolar,"Tamaka Ind. Area, Kolar - KSPCB",18-05-2024 16:00:00,13.1276288,78.1570122,PM10,18,51,28
India,Karnataka,Kolar,"Tamaka Ind. Area, Kolar - KSPCB",18-05-2024 16:00:00,13.1276288,78.1570122,NH3,5,17,14
India,Karnataka,Koppal,"Diwator Nagar, Koppal - KSPCB",18-05-2024 16:00:00,15.347630,76.181767,NO2,32,63,46
India,Karnataka,Madikeri,"Stuart Hill, Madikeri - KSPCB",18-05-2024 16:00:00,12.415911,75.735050,NH3,1,2,1
India,Karnataka,Mangalore,"Kadri, Mangalore - KSPCB",18-05-2024 16:00:00,12.889250,74.853000,NO2,5,6,6
India,Karnataka,Mysuru,"Hebbal 1st Stage, Mysuru - KSPCB",18-05-2024 16:00:00,12.21041,76.37376,PM2.5,NA,NA,NA
India,Karnataka,Mysuru,"Hebbal 1st Stage, Mysuru - KSPCB",18-05-2024 16:00:00,12.21041,76.37376,SO2,NA,NA,NA
India,Karnataka,Raichur,"Haji Colony, Raichur - KSPCB",18-05-2024 16:00:00,16.208139,77.348417,NO2,12,33,21
India,Karnataka,Raichur,"Haji Colony, Raichur - KSPCB",18-05-2024 16:00:00,16.208139,77.348417,NH3,1,3,2
India,Karnataka,Raichur,"Haji Colony, Raichur - KSPCB",18-05-2024 16:00:00,16.208139,77.348417,SO2,71,83,76
India,Karnataka,Raichur,"Haji Colony, Raichur - KSPCB",18-05-2024 16:00:00,16.208139,77.348417,OZONE,1,7,5
India,Karnataka,Ramanagara,"Vijay Nagar, Ramanagara - KSPCB",18-05-2024 16:00:00,12.733409,77.298051,PM2.5,17,51,34
India,Karnataka,Shivamogga,"Vinoba Nagara, Shivamogga - KSPCB",18-05-2024 16:00:00,13.940000,75.555917,NO2,12,56,24
India,Karnataka,Udupi,"Brahmagiri, Udupi - KSPCB",18-05-2024 16:00:00,13.34194444,74.74694444,NO2,28,32,30
India,Karnataka,Vijayapura,"Ibrahimpur, Vijayapura - KSPCB",18-05-2024 16:00:00,16.802639,75.722694,PM2.5,26,31,30
India,Karnataka,Yadgir,"Collector Office, Yadgir - KSPCB",18-05-2024 16:00:00,16.7602,77.1428,NO2,2,12,6
India,Kerala,Kannur,"Thavakkara, Kannur - Kerala PCB",18-05-2024 16:00:00,11.875000,75.373200,NO2,6,7,6
India,Kerala,Kollam,"Polayathode, Kollam - Kerala PCB",18-05-2024 16:00:00,8.8787,76.6073,OZONE,32,36,34
India,Kerala,Thiruvananthapuram,"Kariavattom, Thiruvananthapuram - Kerala PCB",18-05-2024 16:00:00,8.563700,76.886500,PM10,84,94,88
India,Kerala,Thiruvananthapuram,"Kariavattom, Thiruvananthapuram - Kerala PCB",18-05-2024 16:00:00,8.563700,76.886500,NO2,8,10,9
