country,state,city,station,last_update,latitude,longitude,pollutant_id,pollutant_min,pollutant_max,pollutant_avg
India,Andhra_Pradesh,Amaravati,"Secretariat, Amaravati - APPCB",28-02-2024 20:00:00,16.5150833,80.5181667,SO2,11,18,14
India,Andhra_Pradesh,Kadapa,"Yerramukkapalli, Kadapa - APPCB",28-02-2024 20:00:00,14.465052,78.824187,PM2.5,17,67,43
India,Andhra_Pradesh,Kadapa,"Yerramukkapalli, Kadapa - APPCB",28-02-2024 20:00:00,14.465052,78.824187,PM10,18,70,45
India,Andhra_Pradesh,Rajamahendravaram,"Anand Kala Kshetram, Rajamahendravaram - APPCB",28-02-2024 20:00:00,16.9872867,81.7363176,PM2.5,54,122,77
India,Andhra_Pradesh,Rajamahendravaram,"Anand Kala Kshetram, Rajamahendravaram - APPCB",28-02-2024 20:00:00,16.9872867,81.7363176,CO,22,38,31
India,Andhra_Pradesh,Tirupati,"Tirumala, Tirupati - APPCB",28-02-2024 20:00:00,13.67,79.35,PM10,33,74,47
India,Andhra_Pradesh,Tirupati,"Tirumala, Tirupati - APPCB",28-02-2024 20:00:00,13.67,79.35,NH3,1,2,1
India,Andhra_Pradesh,Tirupati,"Tirumala, Tirupati - APPCB",28-02-2024 20:00:00,13.67,79.35,SO2,1,12,5
India,Andhra_Pradesh,Tirupati,"Vaikuntapuram, Tirupati - APPCB",28-02-2024 20:00:00,13.615387,79.409230,NO2,NA,NA,NA
India,Andhra_Pradesh,Tirupati,"Vaikuntapuram, Tirupati - APPCB",28-02-2024 20:00:00,13.615387,79.409230,NH3,NA,NA,NA
India,Andhra_Pradesh,Tirupati,"Vaikuntapuram, Tirupati - APPCB",28-02-2024 20:00:00,13.615387,79.409230,SO2,NA,NA,NA
India,Andhra_Pradesh,Tirupati,"Vaikuntapuram, Tirupati - APPCB",28-02-2024 20:00:00,13.615387,79.409230,CO,10,14,12
India,Andhra_Pradesh,Tirupati,"Vaikuntapuram, Tirupati - APPCB",28-02-2024 20:00:00,13.615387,79.409230,OZONE,12,29,24
India,Andhra_Pradesh,Vijayawada,"HB Colony, Vijayawada - APPCB",28-02-2024 20:00:00,16.536107,80.594233,PM10,44,89,62
India,Andhra_Pradesh,Vijayawada,"HB Colony, Vijayawada - APPCB",28-02-2024 20:00:00,16.536107,80.594233,NH3,4,5,4
India,Andhra_Pradesh,Vijayawada,"Kanuru, Vijayawada - APPCB",28-02-2024 20:00:00,16.486692,80.699436,PM2.5,52,81,67
India,Andhra_Pradesh,Vijayawada,"Kanuru, Vijayawada - APPCB",28-02-2024 20:00:00,16.486692,80.699436,NH3,1,1,1
India,Andhra_Pradesh,Vijayawada,"Kanuru, Vijayawada - APPCB",28-02-2024 20:00:00,16.486692,80.699436,OZONE,25,25,25
India,Andhra_Pradesh,Vijayawada,"Rajiv Gandhi Park, Vijayawada - APPCB",28-02-2024 20:00:00,16.509717,80.612222,NH3,2,6,5
India,Andhra_Pradesh,Vijayawada,"Rajiv Nagar, Vijayawada - APPCB",28-02-2024 20:00:00,16.554731,80.649110,PM2.5,22,461,99
India,Andhra_Pradesh,Visakhapatnam,"GVM Corporation, Visakhapatnam - APPCB",28-02-2024 20:00:00,17.72,83.3,NH3,4,7,5
India,Andhra_Pradesh,Visakhapatnam,"GVM Corporation, Visakhapatnam - APPCB",28-02-2024 20:00:00,17.72,83.3,SO2,9,15,12
India,Arunachal_Pradesh,Naharlagun,"Naharlagun, Naharlagun - APSPCB",28-02-2024 20:00:00,27.103358,93.679645,PM2.5,32,197,72
India,Arunachal_Pradesh,Naharlagun,"Naharlagun, Naharlagun - APSPCB",28-02-2024 20:00:00,27.103358,93.679645,OZONE,2,2,2
India,Assam,Byrnihat,"Central Academy for SFS, Byrnihat - PCBA",28-02-2024 20:00:00,26.071318,91.87488,PM2.5,107,471,334
India,Assam,Guwahati,"IITG, Guwahati - PCBA",28-02-2024 20:00:00,26.2028636,91.70046436,PM2.5,105,376,241
India,Assam,Guwahati,"IITG, Guwahati - PCBA",28-02-2024 20:00:00,26.2028636,91.70046436,OZONE,2,45,31
India,Assam,Guwahati,"LGBI Airport, Guwahati - PCBA",28-02-2024 20:00:00,26.10887,91.589544,PM10,91,486,194
India,Assam,Guwahati,"LGBI Airport, Guwahati - PCBA",28-02-2024 20:00:00,26.10887,91.589544,NO2,10,79,29
India,Assam,Guwahati,"LGBI Airport, Guwahati - PCBA",28-02-2024 20:00:00,26.10887,91.589544,NH3,1,7,3
India,Assam,Guwahati,"LGBI Airport, Guwahati - PCBA",28-02-2024 20:00:00,26.10887,91.589544,SO2,13,13,13
India,Assam,Guwahati,"Pan Bazaar, Guwahati - PCBA",28-02-2024 20:00:00,26.187500,91.744194,NH3,5,6,5
India,Assam,Guwahati,"Pan Bazaar, Guwahati - PCBA",28-02-2024 20:00:00,26.187500,91.744194,SO2,63,91,71
India,Assam,Guwahati,"Railway Colony, Guwahati - PCBA",28-02-2024 20:00:00,26.181742,91.78063,SO2,6,11,9
India,Assam,Nagaon,"Christianpatty, Nagaon - PCBA",28-02-2024 20:00:00,26.349082,92.68449,PM2.5,27,412,142
India,Assam,Nagaon,"Christianpatty, Nagaon - PCBA",28-02-2024 20:00:00,26.349082,92.68449,NO2,14,108,33
India,Assam,Nalbari,"Bata Chowk, Nalbari - PCBA",28-02-2024 20:00:00,26.446912,91.439057,SO2,4,7,5
India,Assam,Sivasagar,"Girls College, Sivasagar - PCBA",28-02-2024 20:00:00,26.987634,94.636574,NO2,15,41,23
India,Assam,Sivasagar,"Girls College, Sivasagar - PCBA",28-02-2024 20:00:00,26.987634,94.636574,OZONE,1,13,7
India,Bihar,Araria,"Kharahiya Basti, Araria - BSPCB",28-02-2024 20:00:00,26.146529,87.454184,PM2.5,50,329,236
India,Bihar,Araria,"Kharahiya Basti, Araria - BSPCB",28-02-2024 20:00:00,26.146529,87.454184,OZONE,1,10,8
India,Bihar,Arrah,"New DM Office, Arrah - BSPCB",28-02-2024 20:00:00,25.5626095,84.663264,PM2.5,43,130,76
India,Bihar,Arrah,"New DM Office, Arrah - BSPCB",28-02-2024 20:00:00,25.5626095,84.663264,PM10,61,115,86
India,Bihar,Arrah,"New DM Office, Arrah - BSPCB",28-02-2024 20:00:00,25.5626095,84.663264,OZONE,13,40,15
India,Bihar,Aurangabad,"Gurdeo Nagar, Aurangabad - BSPCB",28-02-2024 20:00:00,24.75746,84.366208,PM2.5,3,90,48
India,Bihar,Aurangabad,"Gurdeo Nagar, Aurangabad - BSPCB",28-02-2024 20:00:00,24.75746,84.366208,PM10,27,111,56
India,Bihar,Aurangabad,"Gurdeo Nagar, Aurangabad - BSPCB",28-02-2024 20:00:00,24.75746,84.366208,NO2,6,6,6
India,Bihar,Bhagalpur,"DM Office_Kachari Chowk, Bhagalpur - BSPCB",28-02-2024 20:00:00,25.251013,86.989001,PM2.5,60,358,167
India,Bihar,Bhagalpur,"Mayaganj, Bhagalpur - BSPCB",28-02-2024 20:00:00,25.265194,87.012947,PM2.5,27,378,192
India,Bihar,Bhagalpur,"Mayaganj, Bhagalpur - BSPCB",28-02-2024 20:00:00,25.265194,87.012947,NH3,7,10,9
India,Bihar,Bihar Sharif,"D M Colony, Bihar Sharif - BSPCB",28-02-2024 20:00:00,25.204762,85.514960,SO2,3,13,7
India,Bihar,Bihar Sharif,"D M Colony, Bihar Sharif - BSPCB",28-02-2024 20:00:00,25.204762,85.514960,CO,12,56,25
India,Bihar,Gaya,"Collectorate, Gaya - BSPCB",28-02-2024 20:00:00,24.7955,84.9994,PM2.5,7,149,67
India,Bihar,Gaya,"Collectorate, Gaya - BSPCB",28-02-2024 20:00:00,24.7955,84.9994,CO,45,130,125
India,Bihar,Gaya,"Kareemganj, Gaya - BSPCB",28-02-2024 20:00:00,24.792403,84.992416,OZONE,2,30,13
India,Bihar,Hajipur,"Industrial Area, Hajipur - BSPCB",28-02-2024 20:00:00,25.697189,85.245900,PM10,76,409,172
India,Bihar,Hajipur,"Industrial Area, Hajipur - BSPCB",28-02-2024 20:00:00,25.697189,85.245900,NO2,34,56,41
India,Bihar,Hajipur,"Industrial Area, Hajipur - BSPCB",28-02-2024 20:00:00,25.697189,85.245900,NH3,10,11,11
India,Bihar,Hajipur,"Industrial Area, Hajipur - BSPCB",28-02-2024 20:00:00,25.697189,85.245900,SO2,2,5,4
India,Bihar,Hajipur,"Industrial Area, Hajipur - BSPCB",28-02-2024 20:00:00,25.697189,85.245900,OZONE,2,11,9
India,Bihar,Katihar,"Mirchaibari, Katihar - BSPCB",28-02-2024 20:00:00,25.560083,87.553265,SO2,NA,NA,NA
India,Bihar,Kishanganj,"SDM Office_Khagra, Kishanganj - BSPCB",28-02-2024 20:00:00,26.0881305,87.93840336,PM10,102,435,190
India,Bihar,Munger,"Town Hall, Munger - BSPCB",28-02-2024 20:00:00,25.376776,86.471523,CO,40,83,52
India,Bihar,Muzaffarpur,"Buddha Colony, Muzaffarpur - BSPCB",28-02-2024 20:00:00,26.11442,85.39813,NH3,6,21,13
India,Bihar,Muzaffarpur,"Buddha Colony, Muzaffarpur - BSPCB",28-02-2024 20:00:00,26.11442,85.39813,SO2,1,8,4
India,Bihar,Muzaffarpur,"Buddha Colony, Muzaffarpur - BSPCB",28-02-2024 20:00:00,26.11442,85.39813,CO,8,60,16
India,Bihar,Muzaffarpur,"MIT-Daudpur Kothi, Muzaffarpur - BSPCB",28-02-2024 20:00:00,26.1403345,85.3650192,PM2.5,55,190,84
India,Bihar,Muzaffarpur,"Muzaffarpur Collectorate, Muzaffarpur - BSPCB",28-02-2024 20:00:00,26.1209,85.3647,PM2.5,57,275,131
India,Bihar,Patna,"DRM Office Danapur, Patna - BSPCB",28-02-2024 20:00:00,25.586562,85.043586,NO2,10,52,26
India,Bihar,Patna,"DRM Office Danapur, Patna - BSPCB",28-02-2024 20:00:00,25.586562,85.043586,SO2,6,9,7
India,Bihar,Patna,"Govt. High School Shikarpur, Patna - BSPCB",28-02-2024 20:00:00,25.592539,85.227158,NO2,23,26,24
India,Bihar,Patna,"Govt. High School Shikarpur, Patna - BSPCB",28-02-2024 20:00:00,25.592539,85.227158,SO2,1,4,2
India,Bihar,Purnia,"Mariam Nagar, Purnia - BSPCB",28-02-2024 20:00:00,25.366336,87.117468,PM2.5,45,220,139
India,Bihar,Purnia,"Mariam Nagar, Purnia - BSPCB",28-02-2024 20:00:00,25.366336,87.117468,OZONE,15,73,54
India,Bihar,Rajgir,"Dangi Tola, Rajgir - BSPCB",28-02-2024 20:00:00,25.03280,85.41948,SO2,4,4,4
India,Bihar,Rajgir,"Dangi Tola, Rajgir - BSPCB",28-02-2024 20:00:00,25.03280,85.41948,OZONE,21,26,24
India,Bihar,Saharsa,"Police Line, Saharsa - BSPCB",28-02-2024 20:00:00,25.892357,86.590325,PM2.5,27,277,136
India,Bihar,Saharsa,"Police Line, Saharsa - BSPCB",28-02-2024 20:00:00,25.892357,86.590325,CO,4,58,29
India,Bihar,Siwan,"Chitragupta Nagar, Siwan - BSPCB",28-02-2024 20:00:00,26.2271665,84.3570427,CO,45,134,102
India,Chandigarh,Chandigarh,"Sector 22, Chandigarh - CPCC",28-02-2024 20:00:00,30.735567,76.775714,PM2.5,62,297,133
India,Chandigarh,Chandigarh,"Sector 22, Chandigarh - CPCC",28-02-2024 20:00:00,30.735567,76.775714,NH3,5,21,11
India,Chandigarh,Chandigarh,"Sector 22, Chandigarh - CPCC",28-02-2024 20:00:00,30.735567,76.775714,CO,35,71,38
India,Chandigarh,Chandigarh,"Sector-53, Chandigarh - CPCC",28-02-2024 20:00:00,30.719859,76.738637,PM10,91,173,114
India,Chandigarh,Chandigarh,"Sector-53, Chandigarh - CPCC",28-02-2024 20:00:00,30.719859,76.738637,SO2,6,16,12
India,Chandigarh,Chandigarh,"Sector-53, Chandigarh - CPCC",28-02-2024 20:00:00,30.719859,76.738637,OZONE,19,79,68
India,Chhattisgarh,Bhilai,"Hathkhoj, Bhilai - CECB",28-02-2024 20:00:00,21.224231,81.408350,NH3,7,9,8
India,Chhattisgarh,Bhilai,"Hathkhoj, Bhilai - CECB",28-02-2024 20:00:00,21.224231,81.408350,SO2,11,25,16
India,Chhattisgarh,Bilaspur,"Mangala, Bilaspur - NTPC",28-02-2024 20:00:00,22.08815,82.13737,PM10,15,73,35
India,Chhattisgarh,Chhal,"Nawapara SECL Colony, Chhal - CECB",28-02-2024 20:00:00,22.118125,83.140608,OZONE,12,65,49
India,Chhattisgarh,Korba,"Rampur, Korba - CECB",28-02-2024 20:00:00,22.368195,82.746431,PM2.5,28,39,34
India,Chhattisgarh,Korba,"Rampur, Korba - CECB",28-02-2024 20:00:00,22.368195,82.746431,PM10,21,50,36
India,Chhattisgarh,Korba,"Rampur, Korba - CECB",28-02-2024 20:00:00,22.368195,82.746431,CO,22,32,26
India,Chhattisgarh,Kunjemura,"OP Jindal School, Kunjemura - CECB",28-02-2024 20:00:00,22.126650,83.483212,NO2,16,113,41
India,Chhattisgarh,Kunjemura,"OP Jindal School, Kunjemura - CECB",28-02-2024 20:00:00,22.126650,83.483212,NH3,1,3,2
India,Chhattisgarh,Milupara,"Govt. Higher Secondary School, Milupara - CECB",28-02-2024 20:00:00,22.1910172,83.5197009,PM2.5,NA,NA,NA
India,Chhattisgarh,Raipur,"AIIMS, Raipur - CECB",28-02-2024 20:00:00,21.258815,81.578979,OZONE,1,37,21
India,Chhattisgarh,Raipur,"Bhatagaon New ISBT, Raipur - CECB",28-02-2024 20:00:00,21.219665,81.630094,NO2,45,68,55
India,Chhattisgarh,Raipur,"Bhatagaon New ISBT, Raipur - CECB",28-02-2024 20:00:00,21.219665,81.630094,CO,20,48,32
India,Chhattisgarh,Raipur,"Krishak Nagar, Raipur - CECB",28-02-2024 20:00:00,21.237755,81.705301,NO2,18,32,23
India,Chhattisgarh,Raipur,"Krishak Nagar, Raipur - CECB",28-02-2024 20:00:00,21.237755,81.705301,SO2,3,19,10
India,Chhattisgarh,Raipur,"Krishak Nagar, Raipur - CECB",28-02-2024 20:00:00,21.237755,81.705301,CO,24,40,38
India,Chhattisgarh,Raipur,"Siltara Phase-II, Raipur - CECB",28-02-2024 20:00:00,21.371751,81.664929,NO2,47,60,53
India,Chhattisgarh,Raipur,"Siltara Phase-II, Raipur - CECB",28-02-2024 20:00:00,21.371751,81.664929,SO2,NA,NA,NA
India,Chhattisgarh,Tumidih,"OP Jindal Industrial Park, Tumidih - CECB",28-02-2024 20:00:00,22.06631475,83.33820077,NH3,1,3,2
India,Delhi,Delhi,"Ashok Vihar, Delhi - DPCC",28-02-2024 20:00:00,28.695381,77.181665,PM10,102,184,137
India,Delhi,Delhi,"Ashok Vihar, Delhi - DPCC",28-02-2024 20:00:00,28.695381,77.181665,OZONE,5,13,11
India,Delhi,Delhi,"Chandni Chowk, Delhi - IITM",28-02-2024 20:00:00,28.656756,77.227234,NO2,19,20,20
India,Delhi,Delhi,"Chandni Chowk, Delhi - IITM",28-02-2024 20:00:00,28.656756,77.227234,CO,107,118,113
India,Delhi,Delhi,"DTU, Delhi - CPCB",28-02-2024 20:00:00,28.7500499,77.1112615,SO2,NA,NA,NA
India,Delhi,Delhi,"DTU, Delhi - CPCB",28-02-2024 20:00:00,28.7500499,77.1112615,OZONE,26,41,34
India,Delhi,Delhi,"Dr. Karni Singh Shooting Range, Delhi - DPCC",28-02-2024 20:00:00,28.498571,77.264840,PM2.5,44,201,123
India,Delhi,Delhi,"Dwarka-Sector 8, Delhi - DPCC ",28-02-2024 20:00:00,28.5710274,77.0719006,SO2,2,10,6
India,Delhi,Delhi,"IGI Airport (T3), Delhi - IMD",28-02-2024 20:00:00,28.5627763,77.1180053,NO2,29,73,49
India,Delhi,Delhi,"Jahangirpuri, Delhi - DPCC",28-02-2024 20:00:00,28.732820,77.170633,NO2,40,104,67
India,Delhi,Delhi,"Jawaharlal Nehru Stadium, Delhi - DPCC",28-02-2024 20:00:00,28.580280,77.233829,SO2,1,16,7
India,Delhi,Delhi,"Lodhi Road, Delhi - IITM",28-02-2024 20:00:00,28.588333,77.221667,NO2,77,103,85
India,Delhi,Delhi,"Lodhi Road, Delhi - IMD",28-02-2024 20:00:00,28.5918245,77.2273074,PM10,68,117,97
India,Delhi,Delhi,"Mundka, Delhi - DPCC",28-02-2024 20:00:00,28.684678,77.076574,PM10,112,224,148
India,Delhi,Delhi,"Mundka, Delhi - DPCC",28-02-2024 20:00:00,28.684678,77.076574,OZONE,4,24,19
India,Delhi,Delhi,"Narela, Delhi - DPCC",28-02-2024 20:00:00,28.822836,77.101981,CO,38,62,41
India,Delhi,Delhi,"Nehru Nagar, Delhi - DPCC",28-02-2024 20:00:00,28.567890,77.250515,PM10,80,153,126
India,Delhi,Delhi,"North Campus, DU, Delhi - IMD",28-02-2024 20:00:00,28.6573814,77.1585447,NO2,NA,NA,NA
India,Delhi,Delhi,"Okhla Phase-2, Delhi - DPCC",28-02-2024 20:00:00,28.530785,77.271255,SO2,9,13,11
India,Delhi,Delhi,"Okhla Phase-2, Delhi - DPCC",28-02-2024 20:00:00,28.530785,77.271255,OZONE,10,92,76
India,Delhi,Delhi,"Patparganj, Delhi - DPCC",28-02-2024 20:00:00,28.623763,77.287209,PM10,103,178,136
India,Delhi,Delhi,"Patparganj, Delhi - DPCC",28-02-2024 20:00:00,28.623763,77.287209,OZONE,6,110,85
India,Delhi,Delhi,"Punjabi Bagh, Delhi - DPCC",28-02-2024 20:00:00,28.674045,77.131023,NH3,2,2,2
India,Delhi,Delhi,"Pusa, Delhi - DPCC",28-02-2024 20:00:00,28.639652,77.146275,PM2.5,43,214,134
India,Delhi,Delhi,"Pusa, Delhi - DPCC",28-02-2024 20:00:00,28.639652,77.146275,PM10,116,235,163
India,Delhi,Delhi,"Pusa, Delhi - DPCC",28-02-2024 20:00:00,28.639652,77.146275,SO2,8,21,15
India,Delhi,Delhi,"Pusa, Delhi - IMD",28-02-2024 20:00:00,28.636110,77.173332,CO,NA,NA,NA
India,Delhi,Delhi,"Rohini, Delhi - DPCC",28-02-2024 20:00:00,28.732528,77.119920,NO2,17,71,37
India,Delhi,Delhi,"Rohini, Delhi - DPCC",28-02-2024 20:00:00,28.732528,77.119920,NH3,9,13,11
India,Delhi,Delhi,"Sri Aurobindo Marg, Delhi - DPCC",28-02-2024 20:00:00,28.531346,77.190156,SO2,9,16,12
India,Delhi,Delhi,"Vivek Vihar, Delhi - DPCC",28-02-2024 20:00:00,28.672342,77.315260,OZONE,6,40,33
India,Delhi,Delhi,"Wazirpur, Delhi - DPCC",28-02-2024 20:00:00,28.699793,77.165453,CO,36,104,65
India,Gujarat,Ahmedabad,"Chandkheda, Ahmedabad - IITM",28-02-2024 20:00:00,23.107969,72.574648,NO2,45,82,64
India,Gujarat,Ahmedabad,"Chandkheda, Ahmedabad - IITM",28-02-2024 20:00:00,23.107969,72.574648,SO2,6,10,7
India,Gujarat,Ahmedabad,"Chandkheda, Ahmedabad - IITM",28-02-2024 20:00:00,23.107969,72.574648,OZONE,32,75,62
India,Gujarat,Ahmedabad,"Maninagar, Ahmedabad - GPCB",28-02-2024 20:00:00,23.002657,72.591912,NO2,8,11,10
India,Gujarat,Ahmedabad,"Maninagar, Ahmedabad - GPCB",28-02-2024 20:00:00,23.002657,72.591912,OZONE,33,88,73
India,Gujarat,Ahmedabad,"Rakhial, Ahmedabad - IITM",28-02-2024 20:00:00,23.016834,72.625775,OZONE,5,52,39
India,Gujarat,Ahmedabad,"SAC ISRO Satellite, Ahmedabad - IITM",28-02-2024 20:00:00,23.023389,72.515201,NO2,17,17,17
India,Gujarat,Ahmedabad,"SVPI Airport Hansol, Ahmedabad - IITM",28-02-2024 20:00:00,23.076793,72.627874,PM2.5,56,161,82
India,Gujarat,Ahmedabad,"Sardar Vallabhbhai Patel Stadium, Ahmedabad - IITM",28-02-2024 20:00:00,23.043070,72.562968,SO2,5,10,8
India,Gujarat,Gandhinagar,"Sector-10, Gandhinagar - GPCB",28-02-2024 20:00:00,23.221714,72.654328,NO2,4,12,9
India,Gujarat,Gandhinagar,"Sector-10, Gandhinagar - GPCB",28-02-2024 20:00:00,23.221714,72.654328,OZONE,5,36,29
India,Gujarat,Vapi,"Phase-1 GIDC, Vapi - GPCB",28-02-2024 20:00:00,20.362421,72.918013,OZONE,59,93,90
India,Gujarat,Vatva,"Phase-4 GIDC, Vatva - GPCB",28-02-2024 20:00:00,22.969611,72.643500,SO2,17,17,17
India,Haryana,Bhiwani,"H.B. Colony, Bhiwani - HSPCB",28-02-2024 20:00:00,28.806223,76.141105,OZONE,6,10,8
India,Haryana,Charkhi Dadri,"Mini Secretariat, Charkhi Dadri - HSPCB",28-02-2024 20:00:00,28.593883,76.270653,PM10,49,113,85
India,Haryana,Dharuhera,"Municipal Corporation Office, Dharuhera -  HSPCB",28-02-2024 20:00:00,28.206800,76.799700,PM10,94,110,101
India,Haryana,Faridabad,"New Industrial Town, Faridabad - HSPCB",28-02-2024 20:00:00,28.39072,77.30059,SO2,9,25,14
India,Haryana,Fatehabad,"Huda Sector, Fatehabad - HSPCB",28-02-2024 20:00:00,29.503664,75.467934,NO2,29,31,30
India,Haryana,Fatehabad,"Huda Sector, Fatehabad - HSPCB",28-02-2024 20:00:00,29.503664,75.467934,OZONE,20,30,22
India,Haryana,Gurugram,"Sector-51, Gurugram - HSPCB",28-02-2024 20:00:00,28.4227,77.0667,NO2,13,29,23
India,Haryana,Gurugram,"Teri Gram, Gurugram - HSPCB",28-02-2024 20:00:00,28.4275,77.1465,NH3,17,20,19
India,Haryana,Gurugram,"Teri Gram, Gurugram - HSPCB",28-02-2024 20:00:00,28.4275,77.1465,CO,17,25,20
India,Haryana,Gurugram,"Vikas Sadan, Gurugram - HSPCB",28-02-2024 20:00:00,28.4501238,77.0263051,NO2,5,25,14
India,Haryana,Gurugram,"Vikas Sadan, Gurugram - HSPCB",28-02-2024 20:00:00,28.4501238,77.0263051,SO2,21,51,39
India,Haryana,Jind,"Police Lines, Jind - HSPCB",28-02-2024 20:00:00,29.307814,76.337619,SO2,5,51,12
India,Haryana,Kaithal,"Rishi Nagar, Kaithal - HSPCB",28-02-2024 20:00:00,29.8006,76.4155,OZONE,1,15,11
India,Haryana,Kurukshetra,"Sector-7, Kurukshetra - HSPCB",28-02-2024 20:00:00,29.966942,76.875879,NH3,3,5,5
India,Haryana,Mandikhera,"General Hospital, Mandikhera - HSPCB",28-02-2024 20:00:00,27.9002,76.9938,PM10,42,100,58
India,Haryana,Manesar,"Sector-2 IMT, Manesar - HSPCB",28-02-2024 20:00:00,28.360699,76.936090,PM2.5,26,70,47
India,Haryana,Manesar,"Sector-2 IMT, Manesar - HSPCB",28-02-2024 20:00:00,28.360699,76.936090,PM10,32,87,58
India,Haryana,Manesar,"Sector-2 IMT, Manesar - HSPCB",28-02-2024 20:00:00,28.360699,76.936090,NO2,11,29,21
India,Haryana,Narnaul,"Shastri Nagar, Narnaul - HSPCB",28-02-2024 20:00:00,28.060249,76.113115,NH3,5,18,11
India,Haryana,Palwal,"Shyam Nagar, Palwal - HSPCB",28-02-2024 20:00:00,28.1485564,77.3320667,SO2,6,21,14
India,Haryana,Panchkula,"Sector-6, Panchkula - HSPCB ",28-02-2024 20:00:00,30.7057778,76.8531805555555,PM2.5,50,157,94
India,Haryana,Panchkula,"Sector-6, Panchkula - HSPCB ",28-02-2024 20:00:00,30.7057778,76.8531805555555,SO2,11,12,12
India,Haryana,Panipat,"Sector-18, Panipat - HSPCB",28-02-2024 20:00:00,29.497973,76.993331,NO2,31,32,31
India,Haryana,Rohtak,"MD University, Rohtak - HSPCB",28-02-2024 20:00:00,28.52123,76.37138,PM2.5,6,225,70
India,Haryana,Sonipat,"Murthal, Sonipat - HSPCB",28-02-2024 20:00:00,29.027200,77.062100,PM2.5,NA,NA,NA
India,Haryana,Sonipat,"Murthal, Sonipat - HSPCB",28-02-2024 20:00:00,29.027200,77.062100,PM10,NA,NA,NA
India,Haryana,Sonipat,"Murthal, Sonipat - HSPCB",28-02-2024 20:00:00,29.027200,77.062100,SO2,NA,NA,NA
India,Haryana,Yamuna Nagar,"Gobind Pura, Yamuna Nagar - HSPCB",28-02-2024 20:00:00,30.1480566,77.2893471,NH3,1,6,4
India,Himachal Pradesh,Baddi,"HIMUDA Complex Phase-1, Baddi - HPPCB",28-02-2024 20:00:00,30.943887,76.801991,PM10,72,420,153
India,Jharkhand,Dhanbad,"Kalakusuma, Dhanbad - DMC",28-02-2024 20:00:00,23.811548,86.481238,OZONE,37,37,37
India,Jharkhand,Dhanbad,"Sardar Patel Nagar, Dhanbad - JSPCB",28-02-2024 20:00:00,23.80569,86.44268,PM2.5,18,84,54
India,Jharkhand,Pathardih,"Mohalbani Ghat, Pathardih - DMC",28-02-2024 20:00:00,23.669880,86.411725,NO2,14,186,92
India,Jharkhand,Pathardih,"Mohalbani Ghat, Pathardih - DMC",28-02-2024 20:00:00,23.669880,86.411725,CO,74,129,117
India,Jharkhand,Pathardih,"Mohalbani Ghat, Pathardih - DMC",28-02-2024 20:00:00,23.669880,86.411725,OZONE,7,27,18
India,Karnataka,Bagalkot,"Vidayagiri, Bagalkot - KSPCB",28-02-2024 20:00:00,16.172806,75.659694,PM2.5,25,37,36
India,Karnataka,Belgaum,"Ramteerth Nagar, Belgaum - KSPCB",28-02-2024 20:00:00,15.888653,74.541751,PM10,46,98,63
India,Karnataka,Belgaum,"Ramteerth Nagar, Belgaum - KSPCB",28-02-2024 20:00:00,15.888653,74.541751,NH3,34,34,34
India,Karnataka,Belgaum,"Ramteerth Nagar, Belgaum - KSPCB",28-02-2024 20:00:00,15.888653,74.541751,OZONE,19,20,20
India,Karnataka,Bengaluru,"BTM Layout, Bengaluru - CPCB",28-02-2024 20:00:00,12.9135218,77.5950804,OZONE,24,57,33
India,Karnataka,Bengaluru,"Bapuji Nagar, Bengaluru - KSPCB",28-02-2024 20:00:00,12.951913,77.539784,NO2,10,16,11
India,Karnataka,Bengaluru,"Bapuji Nagar, Bengaluru - KSPCB",28-02-2024 20:00:00,12.951913,77.539784,NH3,1,1,1
India,Karnataka,Bengaluru,"City Railway Station, Bengaluru - KSPCB",28-02-2024 20:00:00,12.9756843,77.5660749,SO2,13,13,13
India,Karnataka,Bengaluru,"Hebbal, Bengaluru - KSPCB",28-02-2024 20:00:00,13.029152,77.585901,OZONE,7,11,8
India,Karnataka,Bengaluru,"Peenya, Bengaluru - CPCB",28-02-2024 20:00:00,13.0270199,77.494094,PM2.5,30,59,42
India,Karnataka,Bengaluru,"Peenya, Bengaluru - CPCB",28-02-2024 20:00:00,13.0270199,77.494094,SO2,12,19,16
India,Karnataka,Bengaluru,"RVCE-Mailasandra, Bengaluru - KSPCB",28-02-2024 20:00:00,12.921418,77.502466,OZONE,42,43,43
India,Karnataka,Bengaluru,"Sanegurava Halli, Bengaluru - KSPCB",28-02-2024 20:00:00,12.990328,77.5431385,NO2,8,29,20
India,Karnataka,Bengaluru,"Shivapura_Peenya, Bengaluru - KSPCB",28-02-2024 20:00:00,13.0246342,77.5080115,NO2,15,16,16
India,Karnataka,Bengaluru,"Silk Board, Bengaluru - KSPCB",28-02-2024 20:00:00,12.917348,77.622813,PM10,46,110,81
India,Karnataka,Bengaluru,"Silk Board, Bengaluru - KSPCB",28-02-2024 20:00:00,12.917348,77.622813,NO2,14,27,20
India,Karnataka,Bengaluru,"Silk Board, Bengaluru - KSPCB",28-02-2024 20:00:00,12.917348,77.622813,NH3,1,2,1
India,Karnataka,Bengaluru,"Silk Board, Bengaluru - KSPCB",28-02-2024 20:00:00,12.917348,77.622813,OZONE,29,31,30
India,Karnataka,Bidar,"Naubad, Bidar - KSPCB",28-02-2024 20:00:00,17.930306,77.482194,PM2.5,34,82,47
India,Karnataka,Bidar,"Naubad, Bidar - KSPCB",28-02-2024 20:00:00,17.930306,77.482194,PM10,63,106,82
India,Karnataka,Bidar,"Naubad, Bidar - KSPCB",28-02-2024 20:00:00,17.930306,77.482194,NO2,7,8,8
India,Karnataka,Bidar,"Naubad, Bidar - KSPCB",28-02-2024 20:00:00,17.930306,77.482194,NH3,2,3,3
India,Karnataka,Chamarajanagar,"Urban, Chamarajanagar - KSPCB",28-02-2024 20:00:00,11.55358,76.55521,PM10,25,62,40
India,Karnataka,Chikkaballapur,"Chikkaballapur Rural, Chikkaballapur - KSPCB",28-02-2024 20:00:00,13.428828,77.731418,NO2,2,8,4
India,Karnataka,Chikkamagaluru,"Kalyana Nagara, Chikkamagaluru - KSPCB",28-02-2024 20:00:00,13.328028,75.797056,NH3,3,5,4
India,Karnataka,Chikkamagaluru,"Kalyana Nagara, Chikkamagaluru - KSPCB",28-02-2024 20:00:00,13.328028,75.797056,SO2,1,6,3
India,Karnataka,Davanagere,"Devaraj Urs Badavane, Davanagere - KSPCB",28-02-2024 20:00:00,14.475800,75.905200,CO,16,22,19
India,Karnataka,Dharwad,"Kalabhavan, Dharwad - KSPCB",28-02-2024 20:00:00,15.459706,75.008381,PM10,53,112,84
India,Karnataka,Gadag,"Panchal Nagar, Gadag - KSPCB",28-02-2024 20:00:00,15.411456,75.638133,NO2,4,22,14
India,Karnataka,Hassan,"B.Katihalli, Hassan - KSPCB",28-02-2024 20:00:00,13.008556,76.125258,CO,7,16,12
India,Karnataka,Haveri,"Ashwini Nagar, Haveri - KSPCB",28-02-2024 20:00:00,14.791800,75.389600,NH3,3,4,3
India,Karnataka,Haveri,"Ashwini Nagar, Haveri - KSPCB",28-02-2024 20:00:00,14.791800,75.389600,CO,34,36,35
India,Karnataka,Hubballi,"Deshpande Nagar, Hubballi - KSPCB",28-02-2024 20:00:00,15.351773,75.140726,PM10,62,108,77
India,Karnataka,Hubballi,"Deshpande Nagar, Hubballi - KSPCB",28-02-2024 20:00:00,15.351773,75.140726,SO2,17,21,19
India,Karnataka,Hubballi,"Lingaraj Nagar, Hubballi - KSPCB",28-02-2024 20:00:00,15.3714823,75.1160168,SO2,1,13,3
India,Karnataka,Kalaburagi,"Lal Bahadur Shastri Nagar, Kalaburagi - KSPCB",28-02-2024 20:00:00,17.321993,76.822628,PM2.5,NA,NA,NA
India,Karnataka,Kalaburagi,"Mahatma Basaveswar Colony, Kalaburgi - KSPCB",28-02-2024 20:00:00,17.336318,76.847397,PM10,24,86,56
India,Karnataka,Kalaburagi,"Mahatma Basaveswar Colony, Kalaburgi - KSPCB",28-02-2024 20:00:00,17.336318,76.847397,NH3,3,4,4
India,Karnataka,Karwar,"KHB Colony, Karwar - KSPCB",28-02-2024 20:00:00,14.816666,74.141003,PM2.5,38,123,59
India,Karnataka,Karwar,"KHB Colony, Karwar - KSPCB",28-02-2024 20:00:00,14.816666,74.141003,NH3,1,4,2
India,Karnataka,Kolar,"Tamaka Ind. Area, Kolar - KSPCB",28-02-2024 20:00:00,13.1276288,78.1570122,NH3,5,14,8
India,Karnataka,Koppal,"Diwator Nagar, Koppal - KSPCB",28-02-2024 20:00:00,15.347630,76.181767,OZONE,1,55,46
India,Karnataka,Madikeri,"Stuart Hill, Madikeri - KSPCB",28-02-2024 20:00:00,12.415911,75.735050,SO2,4,4,4
India,Karnataka,Mangalore,"Kadri, Mangalore - KSPCB",28-02-2024 20:00:00,12.889250,74.853000,OZONE,30,33,32
India,Karnataka,Mysuru,"Hebbal 1st Stage, Mysuru - KSPCB",28-02-2024 20:00:00,12.21041,76.37376,PM10,50,98,63
India,Karnataka,Mysuru,"Hebbal 1st Stage, Mysuru - KSPCB",28-02-2024 20:00:00,12.21041,76.37376,SO2,1,13,5
India,Karnataka,Raichur,"Haji Colony, Raichur - KSPCB",28-02-2024 20:00:00,16.208139,77.348417,PM10,40,133,71
India,Karnataka,Ramanagara,"Vijay Nagar, Ramanagara - KSPCB",28-02-2024 20:00:00,12.733409,77.298051,PM2.5,23,53,37
India,Karnataka,Ramanagara,"Vijay Nagar, Ramanagara - KSPCB",28-02-2024 20:00:00,12.733409,77.298051,NH3,1,2,1
India,Karnataka,Ramanagara,"Vijay Nagar, Ramanagara - KSPCB",28-02-2024 20:00:00,12.733409,77.298051,OZONE,28,30,29
India,Karnataka,Tumakuru,"Thimmalapura, Tumakuru - KSPCB",28-02-2024 20:00:00,13.377516,77.099072,OZONE,9,40,30
India,Karnataka,Udupi,"Brahmagiri, Udupi - KSPCB",28-02-2024 20:00:00,13.34194444,74.74694444,NO2,NA,NA,NA
India,Karnataka,Vijayapura,"Ibrahimpur, Vijayapura - KSPCB",28-02-2024 20:00:00,16.802639,75.722694,PM10,38,40,39
India,Karnataka,Yadgir,"Collector Office, Yadgir - KSPCB",28-02-2024 20:00:00,16.7602,77.1428,NH3,NA,NA,NA
India,Kerala,Eloor,"Udyogamandal, Eloor - Kerala PCB",28-02-2024 20:00:00,10.073232,76.302765,PM2.5,36,65,48
India,Kerala,Kannur,"Thavakkara, Kannur - Kerala PCB",28-02-2024 20:00:00,11.875000,75.373200,PM2.5,53,60,56
India,Kerala,Kannur,"Thavakkara, Kannur - Kerala PCB",28-02-2024 20:00:00,11.875000,75.373200,PM10,66,74,70
India,Kerala,Kannur,"Thavakkara, Kannur - Kerala PCB",28-02-2024 20:00:00,11.875000,75.373200,NH3,1,1,1
India,Kerala,Kannur,"Thavakkara, Kannur - Kerala PCB",28-02-2024 20:00:00,11.875000,75.373200,SO2,6,7,6
India,Kerala,Kochi,"Vyttila, Kochi - Kerala PCB",28-02-2024 20:00:00,9.969447,76.321186,PM2.5,39,123,62
India,Kerala,Kochi,"Vyttila, Kochi - Kerala PCB",28-02-2024 20:00:00,9.969447,76.321186,NO2,1,6,3
India,Kerala,Kollam,"Polayathode, Kollam - Kerala PCB",28-02-2024 20:00:00,8.8787,76.6073,NH3,1,1,1
India,Kerala,Kollam,"Polayathode, Kollam - Kerala PCB",28-02-2024 20:00:00,8.8787,76.6073,SO2,1,5,3
India,Kerala,Thiruvananthapuram,"Plammoodu, Thiruvananthapuram - Kerala PCB",28-02-2024 20:00:00,8.5149093,76.9435879,PM2.5,13,70,34
India,Kerala,Thiruvananthapuram,"Plammoodu, Thiruvananthapuram - Kerala PCB",28-02-2024 20:00:00,8.5149093,76.9435879,OZONE,12,60,17
India,Madhya Pradesh,Bhopal,"Idgah Hills, Bhopal - MPPCB",28-02-2024 20:00:00,23.264759,77.381568,NO2,NA,NA,NA
India,Madhya Pradesh,Bhopal,"Idgah Hills, Bhopal - MPPCB",28-02-2024 20:00:00,23.264759,77.381568,NH3,NA,NA,NA
India,Madhya Pradesh,Bhopal,"Paryavaran Parisar, Bhopal - MPPCB",28-02-2024 20:00:00,23.210494,77.425409,NH3,NA,NA,NA
India,Madhya Pradesh,Bhopal,"Paryavaran Parisar, Bhopal - MPPCB",28-02-2024 20:00:00,23.210494,77.425409,OZONE,2,78,51
India,Madhya Pradesh,Bhopal,"T T Nagar, Bhopal - MPPCB",28-02-2024 20:00:00,23.233584,77.400574,PM10,NA,NA,NA
India,Madhya Pradesh,Bhopal,"T T Nagar, Bhopal - MPPCB",28-02-2024 20:00:00,23.233584,77.400574,SO2,NA,NA,NA
India,Madhya Pradesh,Gwalior,"City Center, Gwalior - MPPCB",28-02-2024 20:00:00,26.203442,78.193251,PM2.5,39,233,128
India,Madhya Pradesh,Gwalior,"Deen Dayal Nagar, Gwalior - MPPCB",28-02-2024 20:00:00,26.259242,78.216432,NH3,4,7,5
India,Madhya Pradesh,Gwalior,"Deen Dayal Nagar, Gwalior - MPPCB",28-02-2024 20:00:00,26.259242,78.216432,SO2,17,24,19
India,Madhya Pradesh,Gwalior,"Deen Dayal Nagar, Gwalior - MPPCB",28-02-2024 20:00:00,26.259242,78.216432,OZONE,10,178,146
India,Madhya Pradesh,Gwalior,"Maharaj Bada, Gwalior - MPPCB",28-02-2024 20:00:00,26.200388,78.147714,PM2.5,28,143,85
India,Madhya Pradesh,Gwalior,"Maharaj Bada, Gwalior - MPPCB",28-02-2024 20:00:00,26.200388,78.147714,NO2,16,81,38
India,Madhya Pradesh,Gwalior,"Maharaj Bada, Gwalior - MPPCB",28-02-2024 20:00:00,26.200388,78.147714,NH3,9,16,11
India,Madhya Pradesh,Gwalior,"Maharaj Bada, Gwalior - MPPCB",28-02-2024 20:00:00,26.200388,78.147714,OZONE,14,128,105
India,Madhya Pradesh,Indore,"Chhoti Gwaltoli, Indore - MPPCB",28-02-2024 20:00:00,22.4310,75.5213,SO2,11,21,15
India,Madhya Pradesh,Indore,"Chhoti Gwaltoli, Indore - MPPCB",28-02-2024 20:00:00,22.4310,75.5213,CO,42,103,64
India,Madhya Pradesh,Indore,"Residency Area, Indore - IMC",28-02-2024 20:00:00,22.7084,75.8815,PM2.5,44,66,52
India,Madhya Pradesh,Jabalpur,"Govindh Bhavan Colony, Jabalpur - JMC",28-02-2024 20:00:00,23.163174,79.973061,SO2,14,62,48
India,Madhya Pradesh,Jabalpur,"Gupteshwar, Jabalpur - JMC",28-02-2024 20:00:00,23.142888,79.916147,SO2,1,5,2
India,Madhya Pradesh,Jabalpur,"Gupteshwar, Jabalpur - JMC",28-02-2024 20:00:00,23.142888,79.916147,OZONE,3,123,107
India,Madhya Pradesh,Jabalpur,"Marhatal, Jabalpur - MPPCB",28-02-2024 20:00:00,23.168606,79.932247,PM2.5,55,94,76
India,Madhya Pradesh,Jabalpur,"Marhatal, Jabalpur - MPPCB",28-02-2024 20:00:00,23.168606,79.932247,NO2,17,82,30
India,Madhya Pradesh,Jabalpur,"Marhatal, Jabalpur - MPPCB",28-02-2024 20:00:00,23.168606,79.932247,SO2,4,9,7
India,Madhya Pradesh,Jabalpur,"Suhagi, Jabalpur - JMC",28-02-2024 20:00:00,23.218135,79.957770,OZONE,4,97,59
India,Madhya Pradesh,Katni,"Gole Bazar, Katni - MPPCB",28-02-2024 20:00:00,23.50016,80.23284,NH3,3,6,5
India,Madhya Pradesh,Katni,"Gole Bazar, Katni - MPPCB",28-02-2024 20:00:00,23.50016,80.23284,SO2,13,32,20
India,Madhya Pradesh,Maihar,"Sahilara, Maihar - KJS Cements",28-02-2024 20:00:00,24.2613009,80.7231783,CO,46,58,50
India,Madhya Pradesh,Mandideep,"Sector-D Industrial Area, Mandideep - MPPCB",28-02-2024 20:00:00,23.108440,77.511428,NO2,44,100,67
India,Madhya Pradesh,Mandideep,"Sector-D Industrial Area, Mandideep - MPPCB",28-02-2024 20:00:00,23.108440,77.511428,SO2,35,135,106
India,Madhya Pradesh,Ratlam,"Shasthri Nagar, Ratlam - IPCA Lab",28-02-2024 20:00:00,23.331731,75.045981,PM10,NA,NA,NA
India,Madhya Pradesh,Sagar,"Civil Lines, Sagar - MPPCB",28-02-2024 20:00:00,23.838586,78.759431,NH3,9,14,11
India,Madhya Pradesh,Sagar,"Civil Lines, Sagar - MPPCB",28-02-2024 20:00:00,23.838586,78.759431,CO,18,32,25
India,Madhya Pradesh,Sagar,"Deen Dayal Nagar, Sagar - MPPCB",28-02-2024 20:00:00,23.8640158,78.80289321,PM2.5,12,36,24
India,Madhya Pradesh,Satna,"Bandhavgar Colony, Satna - Birla Cement",28-02-2024 20:00:00,24.58434363,80.8549414,PM10,NA,NA,NA
India,Madhya Pradesh,Satna,"Bandhavgar Colony, Satna - Birla Cement",28-02-2024 20:00:00,24.58434363,80.8549414,NO2,5,27,11
India,Madhya Pradesh,Singrauli,"Suryakiran Bhawan NCL, Singrauli - MPPCB",28-02-2024 20:00:00,24.108970,82.645580,NH3,3,5,4
India,Madhya Pradesh,Ujjain,"Mahakaleshwar Temple, Ujjain - MPPCB",28-02-2024 20:00:00,23.182719 ,75.768218 ,PM2.5,44,96,70
India,Madhya Pradesh,Ujjain,"Mahakaleshwar Temple, Ujjain - MPPCB",28-02-2024 20:00:00,23.182719 ,75.768218 ,SO2,8,21,14
India,Maharashtra,Ahmednagar,"Tarakpur, Ahmednagar - MPCB",28-02-2024 20:00:00,19.10122,74.73339,PM10,NA,NA,NA
India,Maharashtra,Ahmednagar,"Tarakpur, Ahmednagar - MPCB",28-02-2024 20:00:00,19.10122,74.73339,NO2,NA,NA,NA
India,Maharashtra,Ahmednagar,"Tarakpur, Ahmednagar - MPCB",28-02-2024 20:00:00,19.10122,74.73339,CO,6,100,45
India,Maharashtra,Akola,"Ramdaspeth, Akola - MPCB",28-02-2024 20:00:00,20.719516,77.000253,PM2.5,49,174,72
India,Maharashtra,Akola,"Ramdaspeth, Akola - MPCB",28-02-2024 20:00:00,20.719516,77.000253,SO2,1,24,8
India,Maharashtra,Amravati,"Shri Shivaji Science College, Amaravati - MPCB",28-02-2024 20:00:00,20.939198,77.765701,PM2.5,51,140,74
India,Maharashtra,Aurangabad,"MIDC Chilkalthana, Aurangabad - MPCB",28-02-2024 20:00:00,19.875620,75.387310,PM2.5,63,124,93
India,Maharashtra,Aurangabad,"MIDC Chilkalthana, Aurangabad - MPCB",28-02-2024 20:00:00,19.875620,75.387310,NH3,3,4,4
India,Maharashtra,Aurangabad,"More Chowk Waluj, Aurangabad - MPCB",28-02-2024 20:00:00,19.8389439,75.244448,NO2,33,37,35
India,Maharashtra,Aurangabad,"Rachnakar Colony, Aurangabad - MPCB",28-02-2024 20:00:00,19.863756,75.321188,NO2,18,69,31
India,Maharashtra,Belapur,"CBD Belapur, Belapur - MPCB",28-02-2024 20:00:00,19.0243902,73.0406721,SO2,1,11,4
India,Maharashtra,Bhiwandi,"Gokul Nagar, Bhiwandi - MPCB",28-02-2024 20:00:00,19.309073,73.057223,PM10,NA,NA,NA
India,Maharashtra,Bhiwandi,"Gokul Nagar, Bhiwandi - MPCB",28-02-2024 20:00:00,19.309073,73.057223,NH3,NA,NA,NA
India,Maharashtra,Bhiwandi,"Gokul Nagar, Bhiwandi - MPCB",28-02-2024 20:00:00,19.309073,73.057223,CO,7,74,21
India,Maharashtra,Boisar,"Khaira, Boisar - MPCB",28-02-2024 20:00:00,19.786089,72.757971,NO2,11,41,24
India,Maharashtra,Chandrapur,"Chauhan Colony, Chandrapur - MPCB",28-02-2024 20:00:00,19.962900,79.298714,PM10,42,124,80
India,Maharashtra,Chandrapur,"Chauhan Colony, Chandrapur - MPCB",28-02-2024 20:00:00,19.962900,79.298714,OZONE,6,6,6
India,Maharashtra,Chandrapur,"MIDC Khutala, Chandrapur - MPCB",28-02-2024 20:00:00,19.9775302,79.2337086,CO,13,88,31
India,Maharashtra,Jalgaon,"Prabhat Colony, Jalgaon - MPCB",28-02-2024 20:00:00,21.001264,75.565602,NH3,1,2,1
India,Maharashtra,Jalna,"Old MIDC, Jalna - MPCB",28-02-2024 20:00:00,19.854616,75.905894,PM2.5,46,83,63
India,Maharashtra,Jalna,"Old MIDC, Jalna - MPCB",28-02-2024 20:00:00,19.854616,75.905894,OZONE,25,116,101
India,Maharashtra,Kalyan,"Khadakpada, Kalyan - MPCB",28-02-2024 20:00:00,19.25292,73.142019,NO2,31,74,47
India,Maharashtra,Mahad,"Kamble Tarf Birwadi, Mahad - MPCB",28-02-2024 20:00:00,18.1023399,73.4783687,PM10,NA,NA,NA
India,Maharashtra,Mahad,"Kamble Tarf Birwadi, Mahad - MPCB",28-02-2024 20:00:00,18.1023399,73.4783687,NO2,NA,NA,NA
India,Maharashtra,Malegaon,"Mahesh Nagar, Malegaon - MPCB",28-02-2024 20:00:00,20.555712,74.529236,PM2.5,93,170,131
India,Maharashtra,Mira-Bhayandar,"Bhayandar West, Mira-Bhayandar - MPCB",28-02-2024 20:00:00,19.296481,72.840923,OZONE,5,192,185
India,Maharashtra,Mumbai,"Bandra Kurla Complex, Mumbai - MPCB",28-02-2024 20:00:00,19.065931,72.862131,PM2.5,59,175,109
India,Maharashtra,Mumbai,"Bandra Kurla Complex, Mumbai - MPCB",28-02-2024 20:00:00,19.065931,72.862131,NO2,11,54,34
India,Maharashtra,Mumbai,"Borivali East, Mumbai - IITM",28-02-2024 20:00:00,19.23241,72.86895,OZONE,13,143,122
India,Maharashtra,Mumbai,"Byculla, Mumbai - BMC",28-02-2024 20:00:00,18.9767,72.8380,NH3,1,8,3
India,Maharashtra,Mumbai,"Chembur, Mumbai - MPCB",28-02-2024 20:00:00,19.0364585,72.8954371,PM2.5,53,136,84
India,Maharashtra,Mumbai,"Chembur, Mumbai - MPCB",28-02-2024 20:00:00,19.0364585,72.8954371,PM10,59,115,87
India,Maharashtra,Mumbai,"Chembur, Mumbai - MPCB",28-02-2024 20:00:00,19.0364585,72.8954371,NH3,4,6,5
India,Maharashtra,Mumbai,"Chembur, Mumbai - MPCB",28-02-2024 20:00:00,19.0364585,72.8954371,OZONE,2,180,121
India,Maharashtra,Mumbai,"Chhatrapati Shivaji Intl. Airport (T2), Mumbai - MPCB",28-02-2024 20:00:00,19.10078,72.87462,CO,62,106,78
India,Maharashtra,Mumbai,"Colaba, Mumbai - MPCB",28-02-2024 20:00:00,18.910000,72.820000,PM10,60,127,81
India,Maharashtra,Mumbai,"Kandivali East, Mumbai - MPCB",28-02-2024 20:00:00,19.205800,72.868200,NO2,57,170,90
India,Maharashtra,Mumbai,"Kandivali East, Mumbai - MPCB",28-02-2024 20:00:00,19.205800,72.868200,SO2,74,82,76
India,Maharashtra,Mumbai,"Kandivali West, Mumbai - BMC",28-02-2024 20:00:00,19.215859,72.831718,PM10,69,117,91
India,Maharashtra,Mumbai,"Khindipada-Bhandup West, Mumbai - IITM",28-02-2024 20:00:00,19.1653323,72.922099,NH3,NA,NA,NA
India,Maharashtra,Mumbai,"Khindipada-Bhandup West, Mumbai - IITM",28-02-2024 20:00:00,19.1653323,72.922099,CO,NA,NA,NA
India,Maharashtra,Mumbai,"Khindipada-Bhandup West, Mumbai - IITM",28-02-2024 20:00:00,19.1653323,72.922099,OZONE,NA,NA,NA
India,Maharashtra,Mumbai,"Kurla, Mumbai - MPCB",28-02-2024 20:00:00,19.0863,72.8888,OZONE,30,58,43
India,Maharashtra,Mumbai,"Mazgaon, Mumbai - IITM",28-02-2024 20:00:00,18.96702,72.84214,NH3,NA,NA,NA
India,Maharashtra,Mumbai,"Mulund West, Mumbai - MPCB",28-02-2024 20:00:00,19.1750,72.9419,PM10,34,120,74
India,Maharashtra,Mumbai,"Mulund West, Mumbai - MPCB",28-02-2024 20:00:00,19.1750,72.9419,SO2,14,15,14
India,Maharashtra,Mumbai,"Powai, Mumbai - MPCB",28-02-2024 20:00:00,19.137500,72.915056,PM10,35,133,89
India,Maharashtra,Mumbai,"Powai, Mumbai - MPCB",28-02-2024 20:00:00,19.137500,72.915056,NO2,20,53,34
India,Maharashtra,Mumbai,"Powai, Mumbai - MPCB",28-02-2024 20:00:00,19.137500,72.915056,NH3,1,3,1
India,Maharashtra,Mumbai,"Shivaji Nagar, Mumbai - BMC",28-02-2024 20:00:00,19.060498,72.923356,PM2.5,66,219,123
India,Maharashtra,Mumbai,"Shivaji Nagar, Mumbai - BMC",28-02-2024 20:00:00,19.060498,72.923356,SO2,4,37,14
India,Maharashtra,Mumbai,"Siddharth Nagar-Worli, Mumbai - IITM",28-02-2024 20:00:00,19.000083,72.813993,OZONE,5,272,272
India,Maharashtra,Mumbai,"Sion, Mumbai - MPCB",28-02-2024 20:00:00,19.047000,72.874600,PM2.5,47,186,77
India,Maharashtra,Mumbai,"Sion, Mumbai - MPCB",28-02-2024 20:00:00,19.047000,72.874600,SO2,35,43,38
India,Maharashtra,Mumbai,"Vasai West, Mumbai - MPCB",28-02-2024 20:00:00,19.383200,72.820400,NO2,26,74,36
India,Maharashtra,Mumbai,"Vasai West, Mumbai - MPCB",28-02-2024 20:00:00,19.383200,72.820400,OZONE,5,51,39
India,Maharashtra,Mumbai,"Vile Parle West, Mumbai - MPCB",28-02-2024 20:00:00,19.10861,72.83622,NO2,5,39,14
India,Maharashtra,Mumbai,"Worli, Mumbai - MPCB",28-02-2024 20:00:00,18.9936162,72.8128113,SO2,9,14,10
India,Maharashtra,Nagpur,"Mahal, Nagpur - MPCB",28-02-2024 20:00:00,21.14472,79.107595,NO2,8,36,17
India,Maharashtra,Nagpur,"Mahal, Nagpur - MPCB",28-02-2024 20:00:00,21.14472,79.107595,NH3,4,9,7
India,Maharashtra,Nagpur,"Mahal, Nagpur - MPCB",28-02-2024 20:00:00,21.14472,79.107595,OZONE,25,146,103
India,Maharashtra,Nagpur,"Opp GPO Civil Lines, Nagpur - MPCB",28-02-2024 20:00:00,21.152875,79.0517531,PM10,21,166,86
India,Maharashtra,Nagpur,"Ram Nagar, Nagpur - MPCB",28-02-2024 20:00:00,21.143383,79.048912,PM2.5,15,99,55
India,Maharashtra,Nagpur,"Ram Nagar, Nagpur - MPCB",28-02-2024 20:00:00,21.143383,79.048912,NO2,9,81,22
India,Maharashtra,Nagpur,"Ram Nagar, Nagpur - MPCB",28-02-2024 20:00:00,21.143383,79.048912,SO2,9,89,27
India,Maharashtra,Nagpur,"Ram Nagar, Nagpur - MPCB",28-02-2024 20:00:00,21.143383,79.048912,OZONE,14,107,71
India,Maharashtra,Nanded,"Sneh Nagar, Nanded - MPCB",28-02-2024 20:00:00,19.173852,77.296291,PM10,55,95,76
India,Maharashtra,Nashik,"Gangapur Road, Nashik - MPCB",28-02-2024 20:00:00,20.0073285,73.7762427,NO2,12,14,13
India,Maharashtra,Nashik,"Gangapur Road, Nashik - MPCB",28-02-2024 20:00:00,20.0073285,73.7762427,OZONE,2,77,56
India,Maharashtra,Nashik,"Hirawadi, Nashik - MPCB",28-02-2024 20:00:00,20.021503,73.813844,SO2,1,82,8
India,Maharashtra,Nashik,"MIDC Ambad, Nashik - MPCB",28-02-2024 20:00:00,19.950220,73.731480,OZONE,55,120,84
India,Maharashtra,Nashik,"Pandav Nagari, Nashik - MPCB",28-02-2024 20:00:00,19.9591346,73.7788008,CO,16,60,20
India,Maharashtra,Nashik,"Pandav Nagari, Nashik - MPCB",28-02-2024 20:00:00,19.9591346,73.7788008,OZONE,23,128,82
India,Maharashtra,Navi Mumbai,"Kopripada-Vashi, Navi Mumbai - MPCB",28-02-2024 20:00:00,19.090337,73.014232,NO2,35,124,82
India,Maharashtra,Navi Mumbai,"Kopripada-Vashi, Navi Mumbai - MPCB",28-02-2024 20:00:00,19.090337,73.014232,CO,16,102,25
India,Maharashtra,Navi Mumbai,"Mahape, Navi Mumbai - MPCB",28-02-2024 20:00:00,19.1135051,73.008978,NH3,3,4,3
India,Maharashtra,Navi Mumbai,"Mahape, Navi Mumbai - MPCB",28-02-2024 20:00:00,19.1135051,73.008978,SO2,26,27,26
India,Maharashtra,Navi Mumbai,"Nerul, Navi Mumbai - MPCB",28-02-2024 20:00:00,19.008751,73.016620,PM2.5,78,238,135
India,Maharashtra,Navi Mumbai,"Nerul, Navi Mumbai - MPCB",28-02-2024 20:00:00,19.008751,73.016620,PM10,120,312,209
India,Maharashtra,Navi Mumbai,"Nerul, Navi Mumbai - MPCB",28-02-2024 20:00:00,19.008751,73.016620,NO2,30,48,40
India,Maharashtra,Navi Mumbai,"Sanpada, Navi Mumbai - MPCB",28-02-2024 20:00:00,19.0575752,73.0151367,PM2.5,58,230,116
India,Maharashtra,Navi Mumbai,"Sanpada, Navi Mumbai - MPCB",28-02-2024 20:00:00,19.0575752,73.0151367,OZONE,4,92,60
India,Maharashtra,Navi Mumbai,"Sector-2E Kalamboli, Navi Mumbai - MPCB",28-02-2024 20:00:00,19.02579,73.10297,CO,16,64,25
India,Maharashtra,Navi Mumbai,"Tondare-Taloja, Navi Mumbai - MPCB",28-02-2024 20:00:00,19.0630,73.1209,NO2,22,119,78
India,Maharashtra,Parbhani,"Masoom Colony, Parbhani - MPCB",28-02-2024 20:00:00,19.265594,76.761463,CO,18,64,30
India,Maharashtra,Pimpri-Chinchwad,"Gavalinagar, Pimpri Chinchwad - MPCB",28-02-2024 20:00:00,18.63673,73.82487,SO2,5,34,11
India,Maharashtra,Pimpri-Chinchwad,"Park Street Wakad, Pimpri Chinchwad - MPCB",28-02-2024 20:00:00,18.59051,73.77946,NH3,7,15,10
India,Maharashtra,Pimpri-Chinchwad,"Park Street Wakad, Pimpri Chinchwad - MPCB",28-02-2024 20:00:00,18.59051,73.77946,SO2,4,19,9
India,Maharashtra,Pimpri-Chinchwad,"Thergaon, Pimpri Chinchwad - MPCB",28-02-2024 20:00:00,18.616318,73.765797,OZONE,54,54,54
India,Maharashtra,Pune,"Bhosari, Pune - IITM",28-02-2024 20:00:00,18.640051,73.848956,CO,4,48,45
India,Maharashtra,Pune,"Karve Road, Pune - MPCB",28-02-2024 20:00:00,18.5011743,73.8165527,PM2.5,NA,NA,NA
India,Maharashtra,Pune,"Mhada Colony, Pune - IITM",28-02-2024 20:00:00,18.573040,73.927715,NO2,1,22,13
India,Maharashtra,Pune,"Revenue Colony-Shivajinagar, Pune - IITM",28-02-2024 20:00:00,18.530085,73.849598,OZONE,2,36,19
India,Maharashtra,Pune,"Savitribai Phule Pune University, Pune - MPCB",28-02-2024 20:00:00,18.547056,73.826908,NH3,2,5,3
India,Maharashtra,Pune,"Transport Nagar-Nigdi, Pune - IITM",28-02-2024 20:00:00,18.664282,73.763966,OZONE,5,61,54
India,Maharashtra,Solapur,"Dnyaneshwar Nagar, Solapur - MPCB",28-02-2024 20:00:00,17.6336264,75.9132495,NO2,12,136,39
India,Maharashtra,Solapur,"Dnyaneshwar Nagar, Solapur - MPCB",28-02-2024 20:00:00,17.6336264,75.9132495,SO2,2,18,5
India,Maharashtra,Solapur,"Dnyaneshwar Nagar, Solapur - MPCB",28-02-2024 20:00:00,17.6336264,75.9132495,CO,4,121,10
India,Maharashtra,Solapur,"Ratandeep Housing Society, Solapur - MPCB",28-02-2024 20:00:00,17.65439,75.90649,NH3,10,25,14
India,Maharashtra,Solapur,"Ratandeep Housing Society, Solapur - MPCB",28-02-2024 20:00:00,17.65439,75.90649,SO2,1,37,10
India,Maharashtra,Solapur,"Solapur, Solapur - MPCB",28-02-2024 20:00:00,17.6599188,75.9063906,OZONE,52,70,61
India,Maharashtra,Thane,"Kasarvadavali, Thane - MPCB",28-02-2024 20:00:00,19.26777,72.97182,PM10,76,131,109
India,Maharashtra,Thane,"Kasarvadavali, Thane - MPCB",28-02-2024 20:00:00,19.26777,72.97182,NH3,6,23,12
India,Maharashtra,Thane,"Kasarvadavali, Thane - MPCB",28-02-2024 20:00:00,19.26777,72.97182,OZONE,1,159,125
India,Maharashtra,Thane,"Pimpleshwar Mandir, Thane - MPCB",28-02-2024 20:00:00,19.192056,72.9585188,NO2,16,18,18
India,Maharashtra,Thane,"Pimpleshwar Mandir, Thane - MPCB",28-02-2024 20:00:00,19.192056,72.9585188,OZONE,2,54,41
India,Maharashtra,Ulhasnagar,"Sidhi Vinayak Nagar, Ulhasnagar - MPCB",28-02-2024 20:00:00,19.235581,73.159121,PM10,75,165,127
India,Maharashtra,Ulhasnagar,"Sidhi Vinayak Nagar, Ulhasnagar - MPCB",28-02-2024 20:00:00,19.235581,73.159121,NH3,2,4,3
India,Maharashtra,Virar,"Bolinj, Virar - MPCB",28-02-2024 20:00:00,19.4458210,72.7988231,NH3,6,10,7
India,Maharashtra,Virar,"Bolinj, Virar - MPCB",28-02-2024 20:00:00,19.4458210,72.7988231,SO2,13,28,22
India,Manipur,Imphal,"Manipur University, Imphal - Manipur PCB",28-02-2024 20:00:00,24.7524239,93.9286218,NO2,8,21,12
India,Meghalaya,Shillong,"Lumpyngngad, Shillong - Meghalaya PCB",28-02-2024 20:00:00,25.5586,91.8985,PM10,NA,NA,NA
India,Meghalaya,Shillong,"Lumpyngngad, Shillong - Meghalaya PCB",28-02-2024 20:00:00,25.5586,91.8985,NH3,1,1,1
India,Meghalaya,Shillong,"Lumpyngngad, Shillong - Meghalaya PCB",28-02-2024 20:00:00,25.5586,91.8985,CO,17,32,23
India,Mizoram,Aizawl,"Sikulpuikawn, Aizawl - Mizoram PCB",28-02-2024 20:00:00,23.7176342,92.7192841,PM10,35,103,54
India,Mizoram,Aizawl,"Sikulpuikawn, Aizawl - Mizoram PCB",28-02-2024 20:00:00,23.7176342,92.7192841,CO,8,18,14
India,Nagaland,Kohima,"PWD Juction, Kohima - NPCB",28-02-2024 20:00:00,25.6635413,94.0989878,NO2,3,4,3
India,Nagaland,Kohima,"PWD Juction, Kohima - NPCB",28-02-2024 20:00:00,25.6635413,94.0989878,CO,8,40,21
India,Nagaland,Kohima,"PWD Juction, Kohima - NPCB",28-02-2024 20:00:00,25.6635413,94.0989878,OZONE,8,22,19
India,Odisha,Angul,"Hakimapada, Angul - OSPCB",28-02-2024 20:00:00,20.832874,85.104082,PM2.5,58,500,197
India,Odisha,Balasore,"Kalidaspur, Balasore - OSPCB",28-02-2024 20:00:00,21.51161,86.89088,NO2,8,44,17
India,Odisha,Barbil,"Forest Office, Barbil - OSPCB",28-02-2024 20:00:00,22.1166054,85.3945546,NO2,5,9,6
India,Odisha,Barbil,"Forest Office, Barbil - OSPCB",28-02-2024 20:00:00,22.1166054,85.3945546,NH3,5,6,5
India,Odisha,Bileipada,"Tata Township, Bileipada - OSPCB",28-02-2024 20:00:00,22.06156703,85.47409613,PM2.5,52,150,73
India,Odisha,Bileipada,"Tata Township, Bileipada - OSPCB",28-02-2024 20:00:00,22.06156703,85.47409613,NO2,7,8,7
India,Odisha,Bileipada,"Tata Township, Bileipada - OSPCB",28-02-2024 20:00:00,22.06156703,85.47409613,SO2,2,24,7
India,Odisha,Brajrajnagar,"GM Office, Brajrajnagar - OSPCB",28-02-2024 20:00:00,21.8004996,83.8396977,NO2,16,35,20
India,Odisha,Byasanagar,"Ferro Chrome Colony, Byasanagar - OSPCB",28-02-2024 20:00:00,20.94185,86.11510,PM2.5,42,233,110
India,Odisha,Keonjhar,"Jagamohanpur, Keonjhar - OSPCB",28-02-2024 20:00:00,21.643900,85.599355,PM2.5,NA,NA,NA
India,Odisha,Nayagarh,"Dabuna, Nayagarh - OSPCB",28-02-2024 20:00:00,21.847279,85.416905,SO2,3,4,3
India,Odisha,Rairangpur,"Divisional Forest Office, Rairangpur - OSPCB",28-02-2024 20:00:00,22.265816,86.174829,PM10,44,126,62
India,Odisha,Rairangpur,"Divisional Forest Office, Rairangpur - OSPCB",28-02-2024 20:00:00,22.265816,86.174829,SO2,1,3,1
India,Odisha,Rairangpur,"Divisional Forest Office, Rairangpur - OSPCB",28-02-2024 20:00:00,22.265816,86.174829,CO,10,37,18
India,Odisha,Rourkela,"Raghunathpali, Rourkela - OSPCB",28-02-2024 20:00:00,22.220833,84.809444,CO,25,58,37
India,Odisha,Suakati,"OMC Colony, Suakati - OSPCB",28-02-2024 20:00:00,21.606865,85.510538,NO2,NA,NA,NA
India,Odisha,Suakati,"OMC Colony, Suakati - OSPCB",28-02-2024 20:00:00,21.606865,85.510538,SO2,1,25,8
India,Odisha,Tensa,"Barsua Iron Ore Mines, Tensa - OSPCB",28-02-2024 20:00:00,21.869985,85.167016,CO,14,23,16
India,Puducherry,Puducherry,"Jawahar Nagar, Puducherry - PPCC",28-02-2024 20:00:00,11.9309,79.8027,OZONE,2,44,31
India,Punjab,Amritsar,"Golden Temple, Amritsar - PPCB",28-02-2024 20:00:00,31.620000,74.876512,PM2.5,71,205,111
India,Punjab,Amritsar,"Golden Temple, Amritsar - PPCB",28-02-2024 20:00:00,31.620000,74.876512,SO2,8,49,26
India,Punjab,Amritsar,"Golden Temple, Amritsar - PPCB",28-02-2024 20:00:00,31.620000,74.876512,CO,14,78,57
India,Punjab,Amritsar,"Golden Temple, Amritsar - PPCB",28-02-2024 20:00:00,31.620000,74.876512,OZONE,15,32,26
India,Punjab,Khanna,"Kalal Majra, Khanna - PPCB",28-02-2024 20:00:00,30.736056 ,76.209694,PM10,67,107,84
India,Punjab,Ludhiana,"Punjab Agricultural University, Ludhiana - PPCB",28-02-2024 20:00:00,30.9028,75.8086,PM10,59,106,74
India,Punjab,Ludhiana,"Punjab Agricultural University, Ludhiana - PPCB",28-02-2024 20:00:00,30.9028,75.8086,NO2,18,38,25
India,Punjab,Patiala,"Model Town, Patiala - PPCB",28-02-2024 20:00:00,30.349388,76.366642,PM10,58,94,77
India,Punjab,Patiala,"Model Town, Patiala - PPCB",28-02-2024 20:00:00,30.349388,76.366642,NO2,18,26,22
India,Punjab,Rupnagar,"Ratanpura, Rupnagar - Ambuja Cements",28-02-2024 20:00:00,31.0325454,76.5623046,SO2,7,11,10
India,Punjab,Rupnagar,"Ratanpura, Rupnagar - Ambuja Cements",28-02-2024 20:00:00,31.0325454,76.5623046,CO,30,57,44
India,Rajasthan,Ajmer,"Civil Lines,  Ajmer - RSPCB",28-02-2024 20:00:00,26.470859,74.646594,PM10,51,102,77
India,Rajasthan,Ajmer,"Civil Lines,  Ajmer - RSPCB",28-02-2024 20:00:00,26.470859,74.646594,OZONE,13,69,43
India,Rajasthan,Baran,"Bamboliya, Baran - RSPCB",28-02-2024 20:00:00,25.106006,76.469948,PM10,63,138,99
India,Rajasthan,Baran,"Bamboliya, Baran - RSPCB",28-02-2024 20:00:00,25.106006,76.469948,NO2,12,71,27
India,Rajasthan,Baran,"Bamboliya, Baran - RSPCB",28-02-2024 20:00:00,25.106006,76.469948,SO2,11,34,15
India,Rajasthan,Barmer,"Railway Colony, Barmer - RSPCB",28-02-2024 20:00:00,25.747299,71.393989,NO2,10,33,16
India,Rajasthan,Barmer,"Railway Colony, Barmer - RSPCB",28-02-2024 20:00:00,25.747299,71.393989,NH3,5,38,7
India,Rajasthan,Bharatpur,"Krishna Nagar, Bharatpur - RSPCB",28-02-2024 20:00:00,27.215415,77.50873,NO2,17,116,34
India,Rajasthan,Bhilwara,"Pratap Nagar, Bhilwara - RSPCB",28-02-2024 20:00:00,25.339605,74.618883,PM2.5,18,289,98
India,Rajasthan,Bhilwara,"Pratap Nagar, Bhilwara - RSPCB",28-02-2024 20:00:00,25.339605,74.618883,NO2,18,78,32
India,Rajasthan,Bhiwadi,"RIICO Ind. Area III, Bhiwadi - RSPCB",28-02-2024 20:00:00,28.194909,76.862296,NH3,3,13,9
India,Rajasthan,Bhiwadi,"Vasundhara Nagar_UIT, Bhiwadi - RSPCB",28-02-2024 20:00:00,28.207266,76.829265,NO2,NA,NA,NA
India,Rajasthan,Bikaner,"MM Ground, Bikaner - RSPCB",28-02-2024 20:00:00,28.018792,73.292658,PM10,76,212,131
India,Rajasthan,Bundi,"New Colony, Bundi - RSPCB",28-02-2024 20:00:00,25.435774,75.644272,NO2,6,54,18
India,Rajasthan,Churu,"Subash Chowk, Churu - RSPCB",28-02-2024 20:00:00,28.296139,74.961696,OZONE,16,144,127
India,Rajasthan,Dholpur,"Raja Ganj, Dholpur - RSPCB",28-02-2024 20:00:00,26.699557,77.898881,PM2.5,30,261,135
India,Rajasthan,Dungarpur,"Bhoiwada, Dungarpur - RSPCB",28-02-2024 20:00:00,23.837789,73.714926,PM2.5,NA,NA,NA
India,Rajasthan,Dungarpur,"Bhoiwada, Dungarpur - RSPCB",28-02-2024 20:00:00,23.837789,73.714926,SO2,11,17,14
India,Rajasthan,Jaipur,"Adarsh Nagar, Jaipur - RSPCB",28-02-2024 20:00:00,26.902909,75.836858,PM2.5,3,109,54
India,Rajasthan,Jaipur,"Adarsh Nagar, Jaipur - RSPCB",28-02-2024 20:00:00,26.902909,75.836858,CO,6,100,50
India,Rajasthan,Jaipur,"Mansarovar Sector-12, Jaipur - RSPCB",28-02-2024 20:00:00,26.843698,75.766894,PM2.5,19,116,59
India,Rajasthan,Jaipur,"Mansarovar Sector-12, Jaipur - RSPCB",28-02-2024 20:00:00,26.843698,75.766894,PM10,56,150,107
India,Rajasthan,Jaipur,"Mansarovar Sector-12, Jaipur - RSPCB",28-02-2024 20:00:00,26.843698,75.766894,SO2,4,7,5
India,Rajasthan,Jaipur,"RIICO Sitapura, Jaipur - RSPCB",28-02-2024 20:00:00,26.786682,75.827928,NH3,1,3,1
India,Rajasthan,Jaipur,"Sector-2 Murlipura, Jaipur - RSPCB",28-02-2024 20:00:00,26.960669,75.771817,NO2,9,46,17
India,Rajasthan,Jaipur,"Shastri Nagar, Jaipur - RSPCB",28-02-2024 20:00:00,26.9502929,75.730943,NO2,17,63,29
India,Rajasthan,Jaipur,"Shastri Nagar, Jaipur - RSPCB",28-02-2024 20:00:00,26.9502929,75.730943,OZONE,32,63,46
India,Rajasthan,Jaisalmer,"Sadar Bazar, Jaisalmer - RSPCB",28-02-2024 20:00:00,26.912329,70.909168,PM10,39,89,60
India,Rajasthan,Jaisalmer,"Sadar Bazar, Jaisalmer - RSPCB",28-02-2024 20:00:00,26.912329,70.909168,NO2,8,342,35
India,Rajasthan,Jaisalmer,"Sadar Bazar, Jaisalmer - RSPCB",28-02-2024 20:00:00,26.912329,70.909168,CO,8,28,21
India,Rajasthan,Jalore,"Mudtra Sili, Jalore - RSPCB",28-02-2024 20:00:00,25.344694,72.626208,PM2.5,48,97,67
India,Rajasthan,Jalore,"Mudtra Sili, Jalore - RSPCB",28-02-2024 20:00:00,25.344694,72.626208,PM10,88,150,112
India,Rajasthan,Jodhpur,"Mandor, Jodhpur - RSPCB",28-02-2024 20:00:00,26.358805,73.047444,PM10,52,95,73
India,Rajasthan,Jodhpur,"Mandor, Jodhpur - RSPCB",28-02-2024 20:00:00,26.358805,73.047444,NH3,5,13,6
India,Rajasthan,Karauli,"Satyawati Vihar, Karauli - RSPCB",28-02-2024 20:00:00,26.506177,77.025989,CO,6,103,49
India,Rajasthan,Kota,"Dhanmandi, Kota - RSPCB",28-02-2024 20:00:00,25.164090,75.858137,PM10,84,165,123
India,Rajasthan,Kota,"Dhanmandi, Kota - RSPCB",28-02-2024 20:00:00,25.164090,75.858137,NH3,3,4,4
India,Rajasthan,Kota,"Dhanmandi, Kota - RSPCB",28-02-2024 20:00:00,25.164090,75.858137,SO2,1,97,16
India,Rajasthan,Kota,"Dhanmandi, Kota - RSPCB",28-02-2024 20:00:00,25.164090,75.858137,CO,40,122,72
India,Rajasthan,Kota,"Dhanmandi, Kota - RSPCB",28-02-2024 20:00:00,25.164090,75.858137,OZONE,24,139,109
India,Rajasthan,Kota,"Nayapura, Kota - RSPCB",28-02-2024 20:00:00,25.196024,75.855668,NO2,21,109,47
India,Rajasthan,Kota,"Nayapura, Kota - RSPCB",28-02-2024 20:00:00,25.196024,75.855668,OZONE,26,160,118
India,Rajasthan,Kota,"Shrinath Puram, Kota - RSPCB",28-02-2024 20:00:00,25.14389,75.821256,NO2,24,212,88
India,Rajasthan,Nagaur,"Karni Colony, Nagaur - RSPCB",28-02-2024 20:00:00,27.213494,73.734444,NO2,10,48,21
India,Rajasthan,Nagaur,"Karni Colony, Nagaur - RSPCB",28-02-2024 20:00:00,27.213494,73.734444,NH3,8,20,9
India,Rajasthan,Nagaur,"Karni Colony, Nagaur - RSPCB",28-02-2024 20:00:00,27.213494,73.734444,CO,10,139,51
India,Rajasthan,Pali,"Indira Colony Vistar, Pali - RSPCB",28-02-2024 20:00:00,25.771061, 73.340227,PM2.5,44,184,100
India,Rajasthan,Pali,"Indira Colony Vistar, Pali - RSPCB",28-02-2024 20:00:00,25.771061, 73.340227,NO2,19,20,19
India,Rajasthan,Pratapgarh,"Pragati Nagar, Pratapgarh - RSPCB",28-02-2024 20:00:00,24.041198,74.780702,PM2.5,42,83,61
India,Rajasthan,Sawai Madhopur,"Sahu Nagar, Sawai Madhopur - RSPCB",28-02-2024 20:00:00,26.031443,76.359327,SO2,6,22,15
India,Rajasthan,Sikar,"Radhakishan Pura, Sikar - RSPCB",28-02-2024 20:00:00,27.608912,75.153302,PM10,43,128,72
India,Rajasthan,Sikar,"Radhakishan Pura, Sikar - RSPCB",28-02-2024 20:00:00,27.608912,75.153302,CO,12,28,18
India,Rajasthan,Sirohi,"Vedhaynath Colony, Sirohi - RSPCB",28-02-2024 20:00:00,24.885261,72.857549,PM2.5,39,168,76
India,Rajasthan,Udaipur,"Ashok Nagar, Udaipur - RSPCB",28-02-2024 20:00:00,24.5886166,73.6321397,NO2,70,143,90
India,Rajasthan,Udaipur,"Ashok Nagar, Udaipur - RSPCB",28-02-2024 20:00:00,24.5886166,73.6321397,NH3,1,9,2
India,Rajasthan,Udaipur,"Ashok Nagar, Udaipur - RSPCB",28-02-2024 20:00:00,24.5886166,73.6321397,CO,18,113,68
India,TamilNadu,Chengalpattu,"Crescent University, Chengalpattu - TNPCB",28-02-2024 20:00:00,12.8777316,80.0834807,OZONE,6,6,6
India,TamilNadu,Chennai,"Alandur Bus Depot, Chennai - CPCB",28-02-2024 20:00:00,12.9099161,80.1076538,PM2.5,27,50,37
India,TamilNadu,Chennai,"Arumbakkam, Chennai - TNPCB",28-02-2024 20:00:00,13.0664,80.2112 ,PM10,50,101,73
India,TamilNadu,Chennai,"Arumbakkam, Chennai - TNPCB",28-02-2024 20:00:00,13.0664,80.2112 ,SO2,1,47,7
India,TamilNadu,Chennai,"Kodungaiyur, Chennai - TNPCB",28-02-2024 20:00:00,13.1278,80.2642,PM2.5,17,59,30
India,TamilNadu,Chennai,"Kodungaiyur, Chennai - TNPCB",28-02-2024 20:00:00,13.1278,80.2642,PM10,55,115,79
India,TamilNadu,Chennai,"Kodungaiyur, Chennai - TNPCB",28-02-2024 20:00:00,13.1278,80.2642,OZONE,5,6,6
India,TamilNadu,Chennai,"Manali, Chennai - CPCB",28-02-2024 20:00:00,13.164544,80.26285,SO2,3,115,15
India,TamilNadu,Chennai,"Manali, Chennai - CPCB",28-02-2024 20:00:00,13.164544,80.26285,CO,60,112,76
India,TamilNadu,Chennai,"Perungudi, Chennai - TNPCB",28-02-2024 20:00:00,12.9533,80.2357,NO2,2,10,5
India,TamilNadu,Chennai,"Perungudi, Chennai - TNPCB",28-02-2024 20:00:00,12.9533,80.2357,NH3,1,2,2
India,TamilNadu,Chennai,"Velachery Res. Area, Chennai - CPCB",28-02-2024 20:00:00,13.0052189,80.2398125,PM2.5,30,70,56
India,TamilNadu,Chennai,"Velachery Res. Area, Chennai - CPCB",28-02-2024 20:00:00,13.0052189,80.2398125,NH3,NA,NA,NA
India,TamilNadu,Chennai,"Velachery Res. Area, Chennai - CPCB",28-02-2024 20:00:00,13.0052189,80.2398125,CO,5,142,110
India,TamilNadu,Chennai,"Velachery Res. Area, Chennai - CPCB",28-02-2024 20:00:00,13.0052189,80.2398125,OZONE,1,24,3
India,TamilNadu,Coimbatore,"PSG College of Arts and Science, Coimbatore - TNPCB",28-02-2024 20:00:00,11.0328,77.0349,CO,5,5,5
India,TamilNadu,Cuddalore,"Semmandalam, Cuddalore - TNPCB",28-02-2024 20:00:00,11.7637683,79.7499835,PM10,15,77,37
India,TamilNadu,Gummidipoondi,"Anthoni Pillai Nagar, Gummidipoondi - TNPCB",28-02-2024 20:00:00,13.4127,80.1081,NO2,9,14,11
India,TamilNadu,Gummidipoondi,"Anthoni Pillai Nagar, Gummidipoondi - TNPCB",28-02-2024 20:00:00,13.4127,80.1081,SO2,1,34,9
India,TamilNadu,Kanchipuram,"Kilambi, Kanchipuram - TNPCB",28-02-2024 20:00:00,12.864618,79.659968,PM2.5,NA,NA,NA
India,TamilNadu,Kanchipuram,"Kilambi, Kanchipuram - TNPCB",28-02-2024 20:00:00,12.864618,79.659968,NH3,NA,NA,NA
India,TamilNadu,Ooty,"Bombay Castel, Ooty - TNPCB",28-02-2024 20:00:00,11.4068288,76.7138973,PM2.5,7,68,39
India,TamilNadu,Ooty,"Bombay Castel, Ooty - TNPCB",28-02-2024 20:00:00,11.4068288,76.7138973,PM10,NA,NA,NA
India,TamilNadu,Ooty,"Bombay Castel, Ooty - TNPCB",28-02-2024 20:00:00,11.4068288,76.7138973,NH3,NA,NA,NA
India,TamilNadu,Palkalaiperur,"Bharathidasan University, Palkalaiperur - TNPCB",28-02-2024 20:00:00,10.681158,78.741746,PM2.5,29,55,36
India,TamilNadu,Palkalaiperur,"Bharathidasan University, Palkalaiperur - TNPCB",28-02-2024 20:00:00,10.681158,78.741746,SO2,27,29,28
India,TamilNadu,Palkalaiperur,"Bharathidasan University, Palkalaiperur - TNPCB",28-02-2024 20:00:00,10.681158,78.741746,CO,2,6,4
India,TamilNadu,Salem,"Sona College of Technology, Salem - TNPCB",28-02-2024 20:00:00,11.679111,78.125052,PM2.5,31,69,46
India,TamilNadu,Salem,"Sona College of Technology, Salem - TNPCB",28-02-2024 20:00:00,11.679111,78.125052,NH3,1,1,1
India,TamilNadu,Salem,"Sona College of Technology, Salem - TNPCB",28-02-2024 20:00:00,11.679111,78.125052,CO,43,46,44
India,TamilNadu,Thoothukudi,"Meelavittan, Thoothukudi - TNPCB",28-02-2024 20:00:00,8.816428 ,78.099039,SO2,5,16,10
India,TamilNadu,Tirupur,"Kumaran College, Tirupur - TNPCB",28-02-2024 20:00:00,11.0973603,77.3228673,NO2,10,49,20
India,TamilNadu,Vellore,"Vasanthapuram, Vellore - TNPCB",28-02-2024 20:00:00,12.909494,79.131861,PM2.5,NA,NA,NA
India,TamilNadu,Virudhunagar,"Collectorate Office, Virudhunagar - TNPCB",28-02-2024 20:00:00,9.559382,77.948828,CO,20,26,26
India,Telangana,Hyderabad,"Bollaram Industrial Area, Hyderabad - TSPCB",28-02-2024 20:00:00,17.540891,78.358528,PM10,44,102,68
India,Telangana,Hyderabad,"Central University, Hyderabad - TSPCB",28-02-2024 20:00:00,17.460103,78.334361,PM2.5,12,34,24
India,Telangana,Hyderabad,"ECIL Kapra, Hyderabad - TSPCB",28-02-2024 20:00:00,17.470431,78.566959,PM2.5,45,56,50
India,Telangana,Hyderabad,"ECIL Kapra, Hyderabad - TSPCB",28-02-2024 20:00:00,17.470431,78.566959,NO2,6,10,8
India,Telangana,Hyderabad,"ICRISAT Patancheru, Hyderabad - TSPCB",28-02-2024 20:00:00,17.518400,78.278777,PM10,33,84,58
India,Telangana,Hyderabad,"ICRISAT Patancheru, Hyderabad - TSPCB",28-02-2024 20:00:00,17.518400,78.278777,NO2,16,17,16
India,Telangana,Hyderabad,"Kokapet, Hyderabad - TSPCB",28-02-2024 20:00:00,17.393559,78.339194,PM2.5,45,80,62
India,Telangana,Hyderabad,"Kompally Municipal Office, Hyderabad - TSPCB",28-02-2024 20:00:00,17.544899,78.486949,PM2.5,30,69,47
India,Telangana,Hyderabad,"Nacharam_TSIIC IALA, Hyderabad - TSPCB",28-02-2024 20:00:00,17.429398,78.569354,SO2,2,13,10
India,Telangana,Hyderabad,"Nacharam_TSIIC IALA, Hyderabad - TSPCB",28-02-2024 20:00:00,17.429398,78.569354,CO,18,38,22
India,Telangana,Hyderabad,"New Malakpet, Hyderabad - TSPCB",28-02-2024 20:00:00,17.37206,78.50864,NO2,16,28,23
India,Tripura,Agartala,"Bardowali, Agartala - Tripura SPCB",28-02-2024 20:00:00,23.8175497,91.2726974,PM2.5,159,324,252
India,Uttar_Pradesh,Agra,"Manoharpur, Agra - UPPCB",28-02-2024 20:00:00,27.23711,78.01936,CO,4,10,6
India,Uttar_Pradesh,Agra,"Rohta, Agra - UPPCB",28-02-2024 20:00:00,27.106972,78.000111,PM2.5,15,85,47
India,Uttar_Pradesh,Agra,"Rohta, Agra - UPPCB",28-02-2024 20:00:00,27.106972,78.000111,PM10,14,76,42
India,Uttar_Pradesh,Agra,"Rohta, Agra - UPPCB",28-02-2024 20:00:00,27.106972,78.000111,CO,1,26,3
India,Uttar_Pradesh,Agra,"Sanjay Palace, Agra - UPPCB",28-02-2024 20:00:00,27.19865833,78.00598056,PM10,26,58,38
India,Uttar_Pradesh,Agra,"Sanjay Palace, Agra - UPPCB",28-02-2024 20:00:00,27.19865833,78.00598056,CO,23,98,41
India,Uttar_Pradesh,Agra,"Sector-3B Avas Vikas Colony, Agra - UPPCB",28-02-2024 20:00:00,27.19412,77.96237,NO2,8,53,25
India,Uttar_Pradesh,Agra,"Sector-3B Avas Vikas Colony, Agra - UPPCB",28-02-2024 20:00:00,27.19412,77.96237,SO2,12,20,14
India,Uttar_Pradesh,Agra,"Sector-3B Avas Vikas Colony, Agra - UPPCB",28-02-2024 20:00:00,27.19412,77.96237,CO,4,32,7
India,Uttar_Pradesh,Agra,"Shahjahan Garden, Agra - UPPCB",28-02-2024 20:00:00,27.169338,78.03582,NO2,22,28,25
India,Uttar_Pradesh,Agra,"Shahjahan Garden, Agra - UPPCB",28-02-2024 20:00:00,27.169338,78.03582,NH3,8,10,9
India,Uttar_Pradesh,Agra,"Shahjahan Garden, Agra - UPPCB",28-02-2024 20:00:00,27.169338,78.03582,OZONE,8,16,13
India,Uttar_Pradesh,Agra,"Shastripuram, Agra - UPPCB",28-02-2024 20:00:00,27.19862,77.92066,NH3,NA,NA,NA
India,Uttar_Pradesh,Agra,"Shastripuram, Agra - UPPCB",28-02-2024 20:00:00,27.19862,77.92066,OZONE,1,9,6
India,Uttar_Pradesh,Baghpat,"Sardar Patel Inter College, Baghpat - UPPCB",28-02-2024 20:00:00,28.964949,77.278761,CO,12,48,24
India,Uttar_Pradesh,Bareilly,"Civil Lines, Bareilly - UPPCB",28-02-2024 20:00:00,28.359581,79.414455,PM10,39,108,74
India,Uttar_Pradesh,Bareilly,"Civil Lines, Bareilly - UPPCB",28-02-2024 20:00:00,28.359581,79.414455,NO2,18,37,23
India,Uttar_Pradesh,Bareilly,"Rajendra Nagar, Bareilly - UPPCB",28-02-2024 20:00:00,28.38910936,79.42963708,PM2.5,18,67,38
India,Uttar_Pradesh,Bareilly,"Rajendra Nagar, Bareilly - UPPCB",28-02-2024 20:00:00,28.38910936,79.42963708,PM10,43,109,67
India,Uttar_Pradesh,Bareilly,"Rajendra Nagar, Bareilly - UPPCB",28-02-2024 20:00:00,28.38910936,79.42963708,NH3,1,1,1
India,Uttar_Pradesh,Bulandshahr,"Yamunapuram, Bulandshahr - UPPCB",28-02-2024 20:00:00,28.406963,77.849831,PM10,91,134,114
India,Uttar_Pradesh,Bulandshahr,"Yamunapuram, Bulandshahr - UPPCB",28-02-2024 20:00:00,28.406963,77.849831,NH3,9,15,11
India,Uttar_Pradesh,Bulandshahr,"Yamunapuram, Bulandshahr - UPPCB",28-02-2024 20:00:00,28.406963,77.849831,OZONE,7,254,152
India,Uttar_Pradesh,Firozabad,"Nagla Bhau, Firozabad - UPPCB",28-02-2024 20:00:00,27.168897,78.376960,SO2,NA,NA,NA
India,Uttar_Pradesh,Firozabad,"Vibhab Nagar, Firozabad - UPPCB",28-02-2024 20:00:00,27.1594,78.3953,PM2.5,NA,NA,NA
India,Uttar_Pradesh,Firozabad,"Vibhab Nagar, Firozabad - UPPCB",28-02-2024 20:00:00,27.1594,78.3953,OZONE,20,69,37
India,Uttar_Pradesh,Ghaziabad,"Indirapuram, Ghaziabad - UPPCB",28-02-2024 20:00:00,28.646233,77.358075,SO2,3,22,15
India,Uttar_Pradesh,Ghaziabad,"Loni, Ghaziabad - UPPCB",28-02-2024 20:00:00,28.757294,77.278792,OZONE,3,42,37
India,Uttar_Pradesh,Ghaziabad,"Vasundhara, Ghaziabad - UPPCB",28-02-2024 20:00:00,28.6603346,77.3572563,CO,24,59,34
India,Uttar_Pradesh,Gorakhpur,"Madan Mohan Malaviya University of Technology, Gorakhpur - UPPCB",28-02-2024 20:00:00,26.730136,83.433859,PM2.5,32,95,65
India,Uttar_Pradesh,Gorakhpur,"Madan Mohan Malaviya University of Technology, Gorakhpur - UPPCB",28-02-2024 20:00:00,26.730136,83.433859,NO2,2,3,2
India,Uttar_Pradesh,Gorakhpur,"Madan Mohan Malaviya University of Technology, Gorakhpur - UPPCB",28-02-2024 20:00:00,26.730136,83.433859,CO,17,30,21
India,Uttar_Pradesh,Greater Noida,"Knowledge Park - III, Greater Noida - UPPCB",28-02-2024 20:00:00,28.47272,77.482000,PM10,111,296,156
India,Uttar_Pradesh,Greater Noida,"Knowledge Park - III, Greater Noida - UPPCB",28-02-2024 20:00:00,28.47272,77.482000,CO,13,90,28
India,Uttar_Pradesh,Greater Noida,"Knowledge Park - V, Greater Noida - UPPCB",28-02-2024 20:00:00,28.557054,77.453663,PM2.5,38,192,108
India,Uttar_Pradesh,Greater Noida,"Knowledge Park - V, Greater Noida - UPPCB",28-02-2024 20:00:00,28.557054,77.453663,SO2,15,31,21
India,Uttar_Pradesh,Hapur,"Anand Vihar, Hapur - UPPCB",28-02-2024 20:00:00,28.725645,77.749675,SO2,13,55,27
India,Uttar_Pradesh,Hapur,"Anand Vihar, Hapur - UPPCB",28-02-2024 20:00:00,28.725645,77.749675,CO,14,48,24
India,Uttar_Pradesh,Jhansi,"Shivaji Nagar, Jhansi - UPPCB",28-02-2024 20:00:00,25.4547,78.6039,PM10,16,162,45
India,Uttar_Pradesh,Jhansi,"Shivaji Nagar, Jhansi - UPPCB",28-02-2024 20:00:00,25.4547,78.6039,SO2,11,17,12
India,Uttar_Pradesh,Kanpur,"FTI Kidwai Nagar, Kanpur - UPPCB",28-02-2024 20:00:00,26.428282,80.327067,SO2,22,23,22
India,Uttar_Pradesh,Kanpur,"NSI Kalyanpur, Kanpur - UPPCB",28-02-2024 20:00:00,26.509954,80.249612,PM2.5,NA,NA,NA
India,Uttar_Pradesh,Kanpur,"NSI Kalyanpur, Kanpur - UPPCB",28-02-2024 20:00:00,26.509954,80.249612,PM10,NA,NA,NA
India,Uttar_Pradesh,Kanpur,"NSI Kalyanpur, Kanpur - UPPCB",28-02-2024 20:00:00,26.509954,80.249612,CO,21,38,34
India,Uttar_Pradesh,Kanpur,"Nehru Nagar, Kanpur - UPPCB",28-02-2024 20:00:00,26.4703136,80.3229863,PM10,12,93,45
India,Uttar_Pradesh,Kanpur,"Nehru Nagar, Kanpur - UPPCB",28-02-2024 20:00:00,26.4703136,80.3229863,SO2,5,13,9
India,Uttar_Pradesh,Kanpur,"Nehru Nagar, Kanpur - UPPCB",28-02-2024 20:00:00,26.4703136,80.3229863,OZONE,34,108,91
India,Uttar_Pradesh,Khurja,"Kalindi Kunj, Khurja - UPPCB",28-02-2024 20:00:00,28.2348927,77.8683002,CO,1,18,4
India,Uttar_Pradesh,Lucknow,"B R Ambedkar University, Lucknow - UPPCB",28-02-2024 20:00:00,26.766433,80.927299,CO,22,38,24
India,Uttar_Pradesh,Lucknow,"B R Ambedkar University, Lucknow - UPPCB",28-02-2024 20:00:00,26.766433,80.927299,OZONE,18,69,61
India,Uttar_Pradesh,Lucknow,"Gomti Nagar, Lucknow - UPPCB",28-02-2024 20:00:00,26.868120,81.005119,CO,34,40,40
India,Uttar_Pradesh,Lucknow,"Kukrail Picnic Spot-1, Lucknow - UPPCB",28-02-2024 20:00:00,26.90723,80.98579,PM10,39,96,65
India,Uttar_Pradesh,Lucknow,"Kukrail Picnic Spot-1, Lucknow - UPPCB",28-02-2024 20:00:00,26.90723,80.98579,OZONE,21,64,51
India,Uttar_Pradesh,Lucknow,"Lalbagh, Lucknow - CPCB",28-02-2024 20:00:00,26.8458805,80.9365541,PM2.5,32,206,99
India,Uttar_Pradesh,Lucknow,"Lalbagh, Lucknow - CPCB",28-02-2024 20:00:00,26.8458805,80.9365541,NH3,9,12,10
India,Uttar_Pradesh,Lucknow,"Talkatora District Industries Center, Lucknow - CPCB",28-02-2024 20:00:00,26.83399722,80.8917361,NH3,10,20,15
India,Uttar_Pradesh,Meerut,"Ganga Nagar, Meerut - UPPCB",28-02-2024 20:00:00,28.999264,77.7590354,NH3,5,8,7
India,Uttar_Pradesh,Meerut,"Pallavpuram Phase 2, Meerut - UPPCB",28-02-2024 20:00:00,29.063510,77.709723,CO,32,67,37
India,Uttar_Pradesh,Moradabad,"Buddhi Vihar, Moradabad - UPPCB",28-02-2024 20:00:00,28.83526,78.74460,PM2.5,11,87,53
India,Uttar_Pradesh,Moradabad,"Buddhi Vihar, Moradabad - UPPCB",28-02-2024 20:00:00,28.83526,78.74460,OZONE,12,38,31
India,Uttar_Pradesh,Moradabad,"Eco Herbal Park, Moradabad - UPPCB",28-02-2024 20:00:00,28.840739,78.697531,SO2,2,25,14
India,Uttar_Pradesh,Moradabad,"Employment Office, Moradabad - UPPCB",28-02-2024 20:00:00,28.88528,78.73880,PM2.5,34,99,68
India,Uttar_Pradesh,Moradabad,"Employment Office, Moradabad - UPPCB",28-02-2024 20:00:00,28.88528,78.73880,SO2,25,29,26
India,Uttar_Pradesh,Moradabad,"Jigar Colony, Moradabad - UPPCB",28-02-2024 20:00:00,28.856664,78.772638,PM10,100,130,116
India,Uttar_Pradesh,Moradabad,"Jigar Colony, Moradabad - UPPCB",28-02-2024 20:00:00,28.856664,78.772638,SO2,22,33,24
India,Uttar_Pradesh,Moradabad,"Jigar Colony, Moradabad - UPPCB",28-02-2024 20:00:00,28.856664,78.772638,OZONE,18,32,28
India,Uttar_Pradesh,Moradabad,"Kashiram Nagar, Moradabad - UPPCB",28-02-2024 20:00:00,28.849399,78.742362,NH3,4,4,4
India,Uttar_Pradesh,Moradabad,"Kashiram Nagar, Moradabad - UPPCB",28-02-2024 20:00:00,28.849399,78.742362,CO,8,48,29
India,Uttar_Pradesh,Moradabad,"Kashiram Nagar, Moradabad - UPPCB",28-02-2024 20:00:00,28.849399,78.742362,OZONE,15,47,29
India,Uttar_Pradesh,Moradabad,"Transport Nagar, Moradabad - UPPCB",28-02-2024 20:00:00,28.802625,78.753728,PM2.5,17,132,68
India,Uttar_Pradesh,Muzaffarnagar,"New Mandi, Muzaffarnagar - UPPCB",28-02-2024 20:00:00,29.4723508,77.7194031,PM2.5,59,331,218
India,Uttar_Pradesh,Muzaffarnagar,"New Mandi, Muzaffarnagar - UPPCB",28-02-2024 20:00:00,29.4723508,77.7194031,PM10,114,194,152
India,Uttar_Pradesh,Muzaffarnagar,"New Mandi, Muzaffarnagar - UPPCB",28-02-2024 20:00:00,29.4723508,77.7194031,SO2,13,37,21
India,Uttar_Pradesh,Muzaffarnagar,"New Mandi, Muzaffarnagar - UPPCB",28-02-2024 20:00:00,29.4723508,77.7194031,OZONE,26,83,75
India,Uttar_Pradesh,Noida,"Sector - 125, Noida - UPPCB",28-02-2024 20:00:00,28.5447608,77.3231257,OZONE,40,98,78
India,Uttar_Pradesh,Noida,"Sector-1, Noida - UPPCB",28-02-2024 20:00:00,28.5898,77.3101,CO,16,80,22
India,Uttar_Pradesh,Noida,"Sector-116, Noida - UPPCB",28-02-2024 20:00:00,28.569230,77.393848,SO2,22,41,30
India,Uttar_Pradesh,Prayagraj,"Jhunsi, Prayagraj - UPPCB",28-02-2024 20:00:00,25.425602,81.917152,NO2,6,6,6
India,Uttar_Pradesh,Prayagraj,"Nagar Nigam, Prayagraj - UPPCB",28-02-2024 20:00:00,25.44919916 ,81.82735986 ,NO2,5,5,5
India,Uttar_Pradesh,Varanasi,"Ardhali Bazar, Varanasi - UPPCB",28-02-2024 20:00:00,25.3505986,82.9083074,PM10,10,36,21
India,Uttar_Pradesh,Varanasi,"Bhelupur, Varanasi - UPPCB",28-02-2024 20:00:00,25.301778,82.996789,PM10,14,31,23
India,Uttar_Pradesh,Varanasi,"IESD Banaras Hindu University, Varanasi - UPPCB",28-02-2024 20:00:00,25.262326,82.995408,PM2.5,5,20,12
India,Uttar_Pradesh,Varanasi,"IESD Banaras Hindu University, Varanasi - UPPCB",28-02-2024 20:00:00,25.262326,82.995408,OZONE,1,33,15
India,Uttar_Pradesh,Varanasi,"Maldahiya, Varanasi - UPPCB",28-02-2024 20:00:00,25.32393,82.99687,PM10,13,29,20
India,Uttar_Pradesh,Varanasi,"Maldahiya, Varanasi - UPPCB",28-02-2024 20:00:00,25.32393,82.99687,OZONE,1,17,13
India,Uttarakhand,Dehradun,"Doon University, Dehradun - UKPCB",28-02-2024 20:00:00,30.269444,78.044167,PM2.5,30,137,72
India,Uttarakhand,Dehradun,"Doon University, Dehradun - UKPCB",28-02-2024 20:00:00,30.269444,78.044167,SO2,1,4,1
India,Uttarakhand,Kashipur,"Govt. Girls Inter College, Kashipur - UKPCB",28-02-2024 20:00:00,29.2124114,78.9611753,PM2.5,59,154,104
India,Uttarakhand,Kashipur,"Govt. Girls Inter College, Kashipur - UKPCB",28-02-2024 20:00:00,29.2124114,78.9611753,PM10,83,109,97
India,Uttarakhand,Kashipur,"Govt. Girls Inter College, Kashipur - UKPCB",28-02-2024 20:00:00,29.2124114,78.9611753,SO2,5,9,8
India,Uttarakhand,Kashipur,"Govt. Girls Inter College, Kashipur - UKPCB",28-02-2024 20:00:00,29.2124114,78.9611753,OZONE,2,34,24
India,Uttarakhand,Rishikesh,"Shivaji Nagar, Rishikesh - UKPCB",28-02-2024 20:00:00,30.075911,78.2859547,PM10,25,50,38
India,Uttarakhand,Rishikesh,"Shivaji Nagar, Rishikesh - UKPCB",28-02-2024 20:00:00,30.075911,78.2859547,NH3,2,3,2
India,West_Bengal,Asansol,"Asansol Court Area, Asansol - WBPCB",28-02-2024 20:00:00,23.685297,86.945968,NO2,17,61,37
India,West_Bengal,Asansol,"Asansol Court Area, Asansol - WBPCB",28-02-2024 20:00:00,23.685297,86.945968,NH3,6,16,8
India,West_Bengal,Durgapur,"Sidhu Kanhu Indoor Stadium, Durgapur - WBPCB",28-02-2024 20:00:00,23.5404352,87.2892225,NO2,30,52,42
India,West_Bengal,Durgapur,"Sidhu Kanhu Indoor Stadium, Durgapur - WBPCB",28-02-2024 20:00:00,23.5404352,87.2892225,SO2,15,93,33
India,West_Bengal,Durgapur,"Sidhu Kanhu Indoor Stadium, Durgapur - WBPCB",28-02-2024 20:00:00,23.5404352,87.2892225,CO,35,85,45
India,West_Bengal,Haldia,"Priyambada Housing Estate, Haldia - WBPCB",28-02-2024 20:00:00,22.06047,88.109737,PM2.5,30,112,68
India,West_Bengal,Haldia,"Priyambada Housing Estate, Haldia - WBPCB",28-02-2024 20:00:00,22.06047,88.109737,NH3,3,5,4
India,West_Bengal,Haldia,"Priyambada Housing Estate, Haldia - WBPCB",28-02-2024 20:00:00,22.06047,88.109737,CO,21,53,28
India,West_Bengal,Howrah,"Belur Math, Howrah - WBPCB",28-02-2024 20:00:00,22.629801,88.352017,NO2,18,48,30
India,West_Bengal,Howrah,"Belur Math, Howrah - WBPCB",28-02-2024 20:00:00,22.629801,88.352017,NH3,4,8,5
India,West_Bengal,Howrah,"Belur Math, Howrah - WBPCB",28-02-2024 20:00:00,22.629801,88.352017,OZONE,5,71,53
India,West_Bengal,Howrah,"Ghusuri, Howrah - WBPCB",28-02-2024 20:00:00,22.611968,88.347422,NO2,23,101,44
India,West_Bengal,Howrah,"Ghusuri, Howrah - WBPCB",28-02-2024 20:00:00,22.611968,88.347422,SO2,6,8,7
India,West_Bengal,Howrah,"Ghusuri, Howrah - WBPCB",28-02-2024 20:00:00,22.611968,88.347422,OZONE,7,24,18
India,West_Bengal,Howrah,"Padmapukur, Howrah - WBPCB",28-02-2024 20:00:00,22.5687319,88.2797276,SO2,7,29,16
India,West_Bengal,Howrah,"Padmapukur, Howrah - WBPCB",28-02-2024 20:00:00,22.5687319,88.2797276,CO,29,90,54
India,West_Bengal,Kolkata,"Fort William, Kolkata - WBPCB",28-02-2024 20:00:00,22.556640,88.342674,PM10,79,167,119
India,West_Bengal,Kolkata,"Fort William, Kolkata - WBPCB",28-02-2024 20:00:00,22.556640,88.342674,SO2,8,25,16
India,West_Bengal,Kolkata,"Jadavpur, Kolkata - WBPCB",28-02-2024 20:00:00,22.49929,88.36917,PM2.5,66,253,136
India,West_Bengal,Kolkata,"Rabindra Bharati University, Kolkata - WBPCB",28-02-2024 20:00:00,22.627847,88.380669,NO2,21,23,22
India,West_Bengal,Kolkata,"Rabindra Bharati University, Kolkata - WBPCB",28-02-2024 20:00:00,22.627847,88.380669,SO2,5,50,15
India,West_Bengal,Kolkata,"Victoria, Kolkata - WBPCB",28-02-2024 20:00:00,22.5448082,88.3403691,PM2.5,58,206,124
India,West_Bengal,Kolkata,"Victoria, Kolkata - WBPCB",28-02-2024 20:00:00,22.5448082,88.3403691,OZONE,5,127,86
India,West_Bengal,Siliguri,"Ward-32 Bapupara, Siliguri - WBPCB",28-02-2024 20:00:00,26.6879226,88.4152495,SO2,12,17,13
India,Andhra_Pradesh,Amaravati,"Secretariat, Amaravati - APPCB",28-02-2024 20:00:00,16.5150833,80.5181667,OZONE,3,55,45
India,Andhra_Pradesh,Anantapur,"Gulzarpet, Anantapur - APPCB",28-02-2024 20:00:00,14.675886,77.593027,PM2.5,21,46,33
India,Andhra_Pradesh,Anantapur,"Gulzarpet, Anantapur - APPCB",28-02-2024 20:00:00,14.675886,77.593027,PM10,47,88,67
India,Andhra_Pradesh,Anantapur,"Gulzarpet, Anantapur - APPCB",28-02-2024 20:00:00,14.675886,77.593027,CO,24,50,30
India,Andhra_Pradesh,Chittoor,"Gangineni Cheruvu, Chittoor - APPCB",28-02-2024 20:00:00,13.204880,79.097889,NO2,1,22,10
India,Andhra_Pradesh,Chittoor,"Gangineni Cheruvu, Chittoor - APPCB",28-02-2024 20:00:00,13.204880,79.097889,NH3,1,2,2
India,Andhra_Pradesh,Rajamahendravaram,"Anand Kala Kshetram, Rajamahendravaram - APPCB",28-02-2024 20:00:00,16.9872867,81.7363176,PM10,63,111,84
India,Andhra_Pradesh,Tirupati,"Tirumala, Tirupati - APPCB",28-02-2024 20:00:00,13.67,79.35,NO2,22,37,29
India,Andhra_Pradesh,Vijayawada,"HB Colony, Vijayawada - APPCB",28-02-2024 20:00:00,16.536107,80.594233,SO2,3,5,4
India,Andhra_Pradesh,Vijayawada,"HB Colony, Vijayawada - APPCB",28-02-2024 20:00:00,16.536107,80.594233,OZONE,3,53,40
India,Andhra_Pradesh,Vijayawada,"Kanuru, Vijayawada - APPCB",28-02-2024 20:00:00,16.486692,80.699436,PM10,57,93,76
India,Andhra_Pradesh,Vijayawada,"Kanuru, Vijayawada - APPCB",28-02-2024 20:00:00,16.486692,80.699436,CO,48,48,48
India,Andhra_Pradesh,Vijayawada,"Rajiv Gandhi Park, Vijayawada - APPCB",28-02-2024 20:00:00,16.509717,80.612222,PM2.5,53,74,62
India,Andhra_Pradesh,Vijayawada,"Rajiv Nagar, Vijayawada - APPCB",28-02-2024 20:00:00,16.554731,80.649110,PM10,22,458,89
India,Andhra_Pradesh,Vijayawada,"Rajiv Nagar, Vijayawada - APPCB",28-02-2024 20:00:00,16.554731,80.649110,SO2,11,37,20
India,Andhra_Pradesh,Vijayawada,"Rajiv Nagar, Vijayawada - APPCB",28-02-2024 20:00:00,16.554731,80.649110,CO,25,40,39
India,Andhra_Pradesh,Visakhapatnam,"GVM Corporation, Visakhapatnam - APPCB",28-02-2024 20:00:00,17.72,83.3,OZONE,10,41,25
India,Assam,Byrnihat,"Central Academy for SFS, Byrnihat - PCBA",28-02-2024 20:00:00,26.071318,91.87488,NH3,4,7,6
India,Assam,Byrnihat,"Central Academy for SFS, Byrnihat - PCBA",28-02-2024 20:00:00,26.071318,91.87488,OZONE,11,20,18
India,Assam,Guwahati,"IITG, Guwahati - PCBA",28-02-2024 20:00:00,26.2028636,91.70046436,NO2,2,17,8
India,Assam,Guwahati,"IITG, Guwahati - PCBA",28-02-2024 20:00:00,26.2028636,91.70046436,SO2,12,19,14
India,Assam,Guwahati,"LGBI Airport, Guwahati - PCBA",28-02-2024 20:00:00,26.10887,91.589544,PM2.5,110,328,196
India,Assam,Guwahati,"Railway Colony, Guwahati - PCBA",28-02-2024 20:00:00,26.181742,91.78063,PM2.5,70,353,234
India,Assam,Nagaon,"Christianpatty, Nagaon - PCBA",28-02-2024 20:00:00,26.349082,92.68449,SO2,5,48,28
India,Assam,Nalbari,"Bata Chowk, Nalbari - PCBA",28-02-2024 20:00:00,26.446912,91.439057,NO2,22,50,28
India,Bihar,Arrah,"New DM Office, Arrah - BSPCB",28-02-2024 20:00:00,25.5626095,84.663264,NO2,3,25,14
India,Bihar,Arrah,"New DM Office, Arrah - BSPCB",28-02-2024 20:00:00,25.5626095,84.663264,CO,1,16,9
India,Bihar,Bettiah,"Kamalnath Nagar, Bettiah - BSPCB",28-02-2024 20:00:00,26.80365,84.51954,NO2,21,39,34
India,Bihar,Bettiah,"Kamalnath Nagar, Bettiah - BSPCB",28-02-2024 20:00:00,26.80365,84.51954,CO,62,69,64
India,Bihar,Bettiah,"Kamalnath Nagar, Bettiah - BSPCB",28-02-2024 20:00:00,26.80365,84.51954,OZONE,2,11,9
India,Bihar,Bhagalpur,"DM Office_Kachari Chowk, Bhagalpur - BSPCB",28-02-2024 20:00:00,25.251013,86.989001,NO2,21,118,44
India,Bihar,Bhagalpur,"Mayaganj, Bhagalpur - BSPCB",28-02-2024 20:00:00,25.265194,87.012947,OZONE,17,96,79
India,Bihar,Bihar Sharif,"D M Colony, Bihar Sharif - BSPCB",28-02-2024 20:00:00,25.204762,85.514960,PM2.5,15,85,43
India,Bihar,Buxar,"Charitra Van, Buxar - BSPCB (Formerly known as Central Jail)",28-02-2024 20:00:00,25.567520,83.966379,PM2.5,NA,NA,NA
India,Bihar,Buxar,"Charitra Van, Buxar - BSPCB (Formerly known as Central Jail)",28-02-2024 20:00:00,25.567520,83.966379,PM10,NA,NA,NA
India,Bihar,Buxar,"Charitra Van, Buxar - BSPCB (Formerly known as Central Jail)",28-02-2024 20:00:00,25.567520,83.966379,CO,28,76,61
India,Bihar,Chhapra,"Darshan Nagar, Chhapra - BSPCB",28-02-2024 20:00:00,25.7808257,84.7446768,NH3,7,13,10
India,Bihar,Chhapra,"Darshan Nagar, Chhapra - BSPCB",28-02-2024 20:00:00,25.7808257,84.7446768,OZONE,4,38,29
India,Bihar,Gaya,"SFTI Kusdihra, Gaya - BSPCB",28-02-2024 20:00:00,24.762518,84.982348,PM10,43,74,60
India,Bihar,Kishanganj,"SDM Office_Khagra, Kishanganj - BSPCB",28-02-2024 20:00:00,26.0881305,87.93840336,PM2.5,25,409,96
India,Bihar,Kishanganj,"SDM Office_Khagra, Kishanganj - BSPCB",28-02-2024 20:00:00,26.0881305,87.93840336,NH3,11,13,12
India,Bihar,Manguraha,"Forest Rest House, Manguraha - BSPCB",28-02-2024 20:00:00,27.308328,84.531742,PM2.5,37,283,86
India,Bihar,Motihari,"Gandak Colony, Motihari - BSPCB",28-02-2024 20:00:00,26.63086,84.90051,NH3,8,16,11
India,Bihar,Munger,"Town Hall, Munger - BSPCB",28-02-2024 20:00:00,25.376776,86.471523,NH3,1,2,2
India,Bihar,Muzaffarpur,"MIT-Daudpur Kothi, Muzaffarpur - BSPCB",28-02-2024 20:00:00,26.1403345,85.3650192,OZONE,10,61,48
India,Bihar,Patna,"DRM Office Danapur, Patna - BSPCB",28-02-2024 20:00:00,25.586562,85.043586,NH3,3,4,3
India,Bihar,Patna,"Govt. High School Shikarpur, Patna - BSPCB",28-02-2024 20:00:00,25.592539,85.227158,NH3,4,4,4
India,Bihar,Patna,"IGSC Planetarium Complex, Patna - BSPCB",28-02-2024 20:00:00,25.610369,85.132568,PM2.5,34,109,71
India,Bihar,Patna,"IGSC Planetarium Complex, Patna - BSPCB",28-02-2024 20:00:00,25.610369,85.132568,OZONE,16,32,23
India,Bihar,Patna,"Muradpur, Patna - BSPCB",28-02-2024 20:00:00,25.619651,85.147382,NH3,NA,NA,NA
India,Bihar,Patna,"Rajbansi Nagar, Patna - BSPCB",28-02-2024 20:00:00,25.599486,85.113666,SO2,12,20,17
India,Bihar,Rajgir,"Dangi Tola, Rajgir - BSPCB",28-02-2024 20:00:00,25.03280,85.41948,NO2,1,1,1
India,Bihar,Samastipur,"DM Office_Kasipur, Samastipur - BSPCB",28-02-2024 20:00:00,25.859655,85.77944,PM2.5,27,240,93
India,Bihar,Samastipur,"DM Office_Kasipur, Samastipur - BSPCB",28-02-2024 20:00:00,25.859655,85.77944,NH3,1,3,2
India,Bihar,Sasaram,"Dada Peer, Sasaram - BSPCB",28-02-2024 20:00:00,24.952822,84.002396,PM2.5,24,88,50
India,Bihar,Sasaram,"Dada Peer, Sasaram - BSPCB",28-02-2024 20:00:00,24.952822,84.002396,NO2,9,23,16
India,Bihar,Sasaram,"Dada Peer, Sasaram - BSPCB",28-02-2024 20:00:00,24.952822,84.002396,CO,103,107,106
India,Bihar,Sasaram,"Dada Peer, Sasaram - BSPCB",28-02-2024 20:00:00,24.952822,84.002396,OZONE,5,71,59
India,Bihar,Siwan,"Chitragupta Nagar, Siwan - BSPCB",28-02-2024 20:00:00,26.2271665,84.3570427,PM10,62,191,111
India,Bihar,Siwan,"Chitragupta Nagar, Siwan - BSPCB",28-02-2024 20:00:00,26.2271665,84.3570427,NH3,1,5,2
India,Chandigarh,Chandigarh,"Sector 22, Chandigarh - CPCC",28-02-2024 20:00:00,30.735567,76.775714,OZONE,3,184,141
India,Chandigarh,Chandigarh,"Sector-25, Chandigarh - CPCC",28-02-2024 20:00:00,30.751462,76.762879,OZONE,5,48,41
India,Chandigarh,Chandigarh,"Sector-53, Chandigarh - CPCC",28-02-2024 20:00:00,30.719859,76.738637,NH3,5,7,5
India,Chhattisgarh,Bhilai,"32Bungalows, Bhilai - CECB",28-02-2024 20:00:00,21.194815,81.314770,PM10,29,80,44
India,Chhattisgarh,Bhilai,"Civic Center, Bhilai - Bhilai Steel Plant",28-02-2024 20:00:00,21.185571,81.343175,PM10,33,94,48
India,Chhattisgarh,Bhilai,"Hathkhoj, Bhilai - CECB",28-02-2024 20:00:00,21.224231,81.408350,PM10,34,113,70
India,Chhattisgarh,Bilaspur,"Mangala, Bilaspur - NTPC",28-02-2024 20:00:00,22.08815,82.13737,NO2,19,24,21
India,Chhattisgarh,Chhal,"Nawapara SECL Colony, Chhal - CECB",28-02-2024 20:00:00,22.118125,83.140608,SO2,NA,NA,NA
India,Chhattisgarh,Korba,"Urja Nagar, Korba - CECB",28-02-2024 20:00:00,22.348441,82.549611,PM10,22,88,43
India,Chhattisgarh,Korba,"Urja Nagar, Korba - CECB",28-02-2024 20:00:00,22.348441,82.549611,NO2,64,79,71
India,Chhattisgarh,Korba,"Urja Nagar, Korba - CECB",28-02-2024 20:00:00,22.348441,82.549611,NH3,4,10,7
India,Chhattisgarh,Korba,"Urja Nagar, Korba - CECB",28-02-2024 20:00:00,22.348441,82.549611,CO,22,47,38
India,Chhattisgarh,Milupara,"Govt. Higher Secondary School, Milupara - CECB",28-02-2024 20:00:00,22.1910172,83.5197009,OZONE,21,86,46
India,Chhattisgarh,Raipur,"Bhatagaon New ISBT, Raipur - CECB",28-02-2024 20:00:00,21.219665,81.630094,PM10,27,142,67
India,Chhattisgarh,Raipur,"Krishak Nagar, Raipur - CECB",28-02-2024 20:00:00,21.237755,81.705301,PM10,29,100,59
India,Chhattisgarh,Raipur,"Siltara Phase-II, Raipur - CECB",28-02-2024 20:00:00,21.371751,81.664929,PM2.5,11,219,57
India,Chhattisgarh,Raipur,"Siltara Phase-II, Raipur - CECB",28-02-2024 20:00:00,21.371751,81.664929,PM10,37,102,65
India,Chhattisgarh,Raipur,"Siltara Phase-II, Raipur - CECB",28-02-2024 20:00:00,21.371751,81.664929,OZONE,3,6,6
India,Chhattisgarh,Tumidih,"OP Jindal Industrial Park, Tumidih - CECB",28-02-2024 20:00:00,22.06631475,83.33820077,NO2,6,35,12
India,Chhattisgarh,Tumidih,"OP Jindal Industrial Park, Tumidih - CECB",28-02-2024 20:00:00,22.06631475,83.33820077,SO2,5,7,6
India,Delhi,Delhi,"Alipur, Delhi - DPCC",28-02-2024 20:00:00,28.815329,77.153010,NH3,6,8,7
India,Delhi,Delhi,"Alipur, Delhi - DPCC",28-02-2024 20:00:00,28.815329,77.153010,SO2,7,13,10
India,Delhi,Delhi,"Alipur, Delhi - DPCC",28-02-2024 20:00:00,28.815329,77.153010,OZONE,15,124,107
India,Delhi,Delhi,"Anand Vihar, Delhi - DPCC",28-02-2024 20:00:00,28.647622,77.3158090,PM10,110,189,149
India,Delhi,Delhi,"Anand Vihar, Delhi - DPCC",28-02-2024 20:00:00,28.647622,77.3158090,NO2,68,126,88
India,Delhi,Delhi,"Anand Vihar, Delhi - DPCC",28-02-2024 20:00:00,28.647622,77.3158090,SO2,17,36,28
India,Delhi,Delhi,"Anand Vihar, Delhi - DPCC",28-02-2024 20:00:00,28.647622,77.3158090,OZONE,17,29,20
India,Delhi,Delhi,"Aya Nagar, Delhi - IMD",28-02-2024 20:00:00,28.4706914,77.1099364,NO2,21,35,26
India,Delhi,Delhi,"Bawana, Delhi - DPCC",28-02-2024 20:00:00,28.776200,77.051074,PM10,109,176,127
India,Delhi,Delhi,"Bawana, Delhi - DPCC",28-02-2024 20:00:00,28.776200,77.051074,NO2,11,63,28
India,Delhi,Delhi,"Bawana, Delhi - DPCC",28-02-2024 20:00:00,28.776200,77.051074,CO,16,48,21
India,Delhi,Delhi,"Bawana, Delhi - DPCC",28-02-2024 20:00:00,28.776200,77.051074,OZONE,5,89,69
India,Delhi,Delhi,"Burari Crossing, Delhi - IMD",28-02-2024 20:00:00,28.7256504,77.2011573,PM2.5,18,323,134
India,Delhi,Delhi,"Burari Crossing, Delhi - IMD",28-02-2024 20:00:00,28.7256504,77.2011573,NO2,1,3,2
India,Delhi,Delhi,"Burari Crossing, Delhi - IMD",28-02-2024 20:00:00,28.7256504,77.2011573,OZONE,4,33,23
India,Delhi,Delhi,"CRRI Mathura Road, Delhi - IMD",28-02-2024 20:00:00,28.5512005,77.2735737,CO,10,43,17
India,Delhi,Delhi,"CRRI Mathura Road, Delhi - IMD",28-02-2024 20:00:00,28.5512005,77.2735737,OZONE,10,46,33
India,Delhi,Delhi,"DTU, Delhi - CPCB",28-02-2024 20:00:00,28.7500499,77.1112615,PM2.5,NA,NA,NA
India,Delhi,Delhi,"Dr. Karni Singh Shooting Range, Delhi - DPCC",28-02-2024 20:00:00,28.498571,77.264840,PM10,78,173,127
India,Delhi,Delhi,"Dwarka-Sector 8, Delhi - DPCC ",28-02-2024 20:00:00,28.5710274,77.0719006,PM10,105,258,160
India,Delhi,Delhi,"Dwarka-Sector 8, Delhi - DPCC ",28-02-2024 20:00:00,28.5710274,77.0719006,NO2,3,41,13
India,Delhi,Delhi,"Dwarka-Sector 8, Delhi - DPCC ",28-02-2024 20:00:00,28.5710274,77.0719006,NH3,5,8,6
India,Delhi,Delhi,"IHBAS, Dilshad Garden, Delhi - CPCB",28-02-2024 20:00:00,28.6811736,77.3025234,NO2,19,45,29
India,Delhi,Delhi,"ITO, Delhi - CPCB",28-02-2024 20:00:00,28.628624,77.241060,PM2.5,35,252,147
India,Delhi,Delhi,"ITO, Delhi - CPCB",28-02-2024 20:00:00,28.628624,77.241060,NO2,20,84,49
India,Delhi,Delhi,"ITO, Delhi - CPCB",28-02-2024 20:00:00,28.628624,77.241060,CO,43,70,50
India,Delhi,Delhi,"Jahangirpuri, Delhi - DPCC",28-02-2024 20:00:00,28.732820,77.170633,PM2.5,51,324,200
India,Delhi,Delhi,"Jahangirpuri, Delhi - DPCC",28-02-2024 20:00:00,28.732820,77.170633,NH3,20,35,28
India,Delhi,Delhi,"Lodhi Road, Delhi - IITM",28-02-2024 20:00:00,28.588333,77.221667,PM10,36,385,79
India,Delhi,Delhi,"Lodhi Road, Delhi - IITM",28-02-2024 20:00:00,28.588333,77.221667,CO,62,70,63
India,Delhi,Delhi,"Lodhi Road, Delhi - IMD",28-02-2024 20:00:00,28.5918245,77.2273074,CO,11,30,18
India,Delhi,Delhi,"Major Dhyan Chand National Stadium, Delhi - DPCC",28-02-2024 20:00:00,28.611281,77.237738,NO2,NA,NA,NA
India,Delhi,Delhi,"Mandir Marg, Delhi - DPCC",28-02-2024 20:00:00,28.636429,77.201067,PM10,62,500,128
India,Delhi,Delhi,"Mandir Marg, Delhi - DPCC",28-02-2024 20:00:00,28.636429,77.201067,OZONE,9,43,29
India,Delhi,Delhi,"Mundka, Delhi - DPCC",28-02-2024 20:00:00,28.684678,77.076574,CO,26,57,35
India,Delhi,Delhi,"NSIT Dwarka, Delhi - CPCB",28-02-2024 20:00:00,28.60909,77.0325413,NH3,11,15,13
India,Delhi,Delhi,"Narela, Delhi - DPCC",28-02-2024 20:00:00,28.822836,77.101981,PM10,86,171,120
India,Delhi,Delhi,"Narela, Delhi - DPCC",28-02-2024 20:00:00,28.822836,77.101981,NH3,5,15,8
India,Delhi,Delhi,"Nehru Nagar, Delhi - DPCC",28-02-2024 20:00:00,28.567890,77.250515,PM2.5,42,235,149
India,Delhi,Delhi,"Nehru Nagar, Delhi - DPCC",28-02-2024 20:00:00,28.567890,77.250515,NO2,14,24,19
India,Delhi,Delhi,"New Moti Bagh, Delhi - MHUA",28-02-2024 20:00:00,28.57834,77.18400,NO2,1,5,3
India,Delhi,Delhi,"North Campus, DU, Delhi - IMD",28-02-2024 20:00:00,28.6573814,77.1585447,PM2.5,NA,NA,NA
India,Delhi,Delhi,"Okhla Phase-2, Delhi - DPCC",28-02-2024 20:00:00,28.530785,77.271255,PM10,93,162,129
India,Delhi,Delhi,"Patparganj, Delhi - DPCC",28-02-2024 20:00:00,28.623763,77.287209,NH3,7,14,10
India,Delhi,Delhi,"Punjabi Bagh, Delhi - DPCC",28-02-2024 20:00:00,28.674045,77.131023,PM10,95,154,124
India,Delhi,Delhi,"Punjabi Bagh, Delhi - DPCC",28-02-2024 20:00:00,28.674045,77.131023,OZONE,8,31,26
India,Delhi,Delhi,"Pusa, Delhi - IMD",28-02-2024 20:00:00,28.636110,77.173332,PM2.5,NA,NA,NA
India,Delhi,Delhi,"R K Puram, Delhi - DPCC",28-02-2024 20:00:00,28.563262,77.186937,PM10,97,161,127
India,Delhi,Delhi,"R K Puram, Delhi - DPCC",28-02-2024 20:00:00,28.563262,77.186937,NO2,12,32,20
India,Delhi,Delhi,"R K Puram, Delhi - DPCC",28-02-2024 20:00:00,28.563262,77.186937,OZONE,11,118,101
India,Delhi,Delhi,"Rohini, Delhi - DPCC",28-02-2024 20:00:00,28.732528,77.119920,CO,15,50,21
India,Delhi,Delhi,"Rohini, Delhi - DPCC",28-02-2024 20:00:00,28.732528,77.119920,OZONE,8,115,95
India,Delhi,Delhi,"Shadipur, Delhi - CPCB",28-02-2024 20:00:00,28.6514781,77.1473105,PM2.5,60,301,164
India,Delhi,Delhi,"Shadipur, Delhi - CPCB",28-02-2024 20:00:00,28.6514781,77.1473105,PM10,128,194,145
India,Delhi,Delhi,"Shadipur, Delhi - CPCB",28-02-2024 20:00:00,28.6514781,77.1473105,NO2,42,62,55
India,Delhi,Delhi,"Shadipur, Delhi - CPCB",28-02-2024 20:00:00,28.6514781,77.1473105,OZONE,4,34,15
India,Delhi,Delhi,"Sonia Vihar, Delhi - DPCC",28-02-2024 20:00:00,28.710508,77.249485,PM2.5,35,239,124
India,Delhi,Delhi,"Sonia Vihar, Delhi - DPCC",28-02-2024 20:00:00,28.710508,77.249485,NH3,4,12,6
India,Delhi,Delhi,"Sri Aurobindo Marg, Delhi - DPCC",28-02-2024 20:00:00,28.531346,77.190156,PM2.5,42,223,130
India,Delhi,Delhi,"Sri Aurobindo Marg, Delhi - DPCC",28-02-2024 20:00:00,28.531346,77.190156,PM10,95,219,132
India,Delhi,Delhi,"Sri Aurobindo Marg, Delhi - DPCC",28-02-2024 20:00:00,28.531346,77.190156,OZONE,1,47,38
India,Delhi,Delhi,"Vivek Vihar, Delhi - DPCC",28-02-2024 20:00:00,28.672342,77.315260,NH3,4,7,6
India,Delhi,Delhi,"Wazirpur, Delhi - DPCC",28-02-2024 20:00:00,28.699793,77.165453,OZONE,10,80,65
India,Gujarat,Ahmedabad,"Raikhad, Ahmedabad - IITM",28-02-2024 20:00:00,23.020509,72.579261,NO2,11,47,21
India,Gujarat,Ahmedabad,"Raikhad, Ahmedabad - IITM",28-02-2024 20:00:00,23.020509,72.579261,NH3,1,2,2
India,Gujarat,Ahmedabad,"Raikhad, Ahmedabad - IITM",28-02-2024 20:00:00,23.020509,72.579261,SO2,6,16,9
India,Gujarat,Ahmedabad,"Rakhial, Ahmedabad - IITM",28-02-2024 20:00:00,23.016834,72.625775,SO2,5,25,8
India,Gujarat,Ahmedabad,"SAC ISRO Satellite, Ahmedabad - IITM",28-02-2024 20:00:00,23.023389,72.515201,PM10,78,80,79
India,Gujarat,Ahmedabad,"SVPI Airport Hansol, Ahmedabad - IITM",28-02-2024 20:00:00,23.076793,72.627874,SO2,3,4,3
India,Gujarat,Ahmedabad,"SVPI Airport Hansol, Ahmedabad - IITM",28-02-2024 20:00:00,23.076793,72.627874,CO,23,60,29
India,Gujarat,Ahmedabad,"Sardar Vallabhbhai Patel Stadium, Ahmedabad - IITM",28-02-2024 20:00:00,23.043070,72.562968,OZONE,9,15,14
India,Gujarat,Ankleshwar,"GIDC, Ankleshwar - GPCB",28-02-2024 20:00:00,21.613267,73.010555,OZONE,20,44,37
India,Gujarat,Gandhinagar,"IIPHG Lekawada, Gandhinagar - IITM",28-02-2024 20:00:00,23.243639,72.68994,SO2,13,13,13
India,Gujarat,Gandhinagar,"Sector-10, Gandhinagar - GPCB",28-02-2024 20:00:00,23.221714,72.654328,NH3,1,2,2
India,Gujarat,Gandhinagar,"Sector-10, Gandhinagar - GPCB",28-02-2024 20:00:00,23.221714,72.654328,SO2,5,8,7
India,Gujarat,Vapi,"Phase-1 GIDC, Vapi - GPCB",28-02-2024 20:00:00,20.362421,72.918013,PM2.5,184,414,319
India,Gujarat,Vapi,"Phase-1 GIDC, Vapi - GPCB",28-02-2024 20:00:00,20.362421,72.918013,PM10,141,405,254
India,Gujarat,Vapi,"Phase-1 GIDC, Vapi - GPCB",28-02-2024 20:00:00,20.362421,72.918013,SO2,46,48,47
India,Gujarat,Vatva,"Phase-4 GIDC, Vatva - GPCB",28-02-2024 20:00:00,22.969611,72.643500,CO,48,50,49
India,Haryana,Ambala,"Patti Mehar, Ambala - HSPCB",28-02-2024 20:00:00,30.379589,76.778328,PM10,NA,NA,NA
India,Haryana,Ballabgarh,"Nathu Colony, Ballabgarh - HSPCB",28-02-2024 20:00:00,28.3419248,77.319699,PM10,128,186,146
India,Haryana,Ballabgarh,"Nathu Colony, Ballabgarh - HSPCB",28-02-2024 20:00:00,28.3419248,77.319699,NH3,1,2,2
India,Haryana,Charkhi Dadri,"Mini Secretariat, Charkhi Dadri - HSPCB",28-02-2024 20:00:00,28.593883,76.270653,NO2,9,9,9
India,Haryana,Charkhi Dadri,"Mini Secretariat, Charkhi Dadri - HSPCB",28-02-2024 20:00:00,28.593883,76.270653,NH3,3,5,5
India,Haryana,Dharuhera,"Municipal Corporation Office, Dharuhera -  HSPCB",28-02-2024 20:00:00,28.206800,76.799700,PM2.5,26,137,69
India,Haryana,Faridabad,"New Industrial Town, Faridabad - HSPCB",28-02-2024 20:00:00,28.39072,77.30059,PM2.5,97,341,191
India,Haryana,Faridabad,"New Industrial Town, Faridabad - HSPCB",28-02-2024 20:00:00,28.39072,77.30059,CO,12,35,15
India,Haryana,Faridabad,"Sector 11, Faridabad - HSPCB",28-02-2024 20:00:00,28.376058,77.315741,NH3,6,6,6
India,Haryana,Fatehabad,"Huda Sector, Fatehabad - HSPCB",28-02-2024 20:00:00,29.503664,75.467934,SO2,3,10,6
India,Haryana,Fatehabad,"Huda Sector, Fatehabad - HSPCB",28-02-2024 20:00:00,29.503664,75.467934,CO,6,14,9
India,Haryana,Gurugram,"Teri Gram, Gurugram - HSPCB",28-02-2024 20:00:00,28.4275,77.1465,OZONE,10,24,10
India,Haryana,Gurugram,"Vikas Sadan, Gurugram - HSPCB",28-02-2024 20:00:00,28.4501238,77.0263051,PM2.5,14,77,47
India,Haryana,Hisar,"Urban Estate-II, Hisar - HSPCB",28-02-2024 20:00:00,29.140560,75.744941,PM10,45,101,67
India,Haryana,Hisar,"Urban Estate-II, Hisar - HSPCB",28-02-2024 20:00:00,29.140560,75.744941,NO2,7,10,8
India,Haryana,Hisar,"Urban Estate-II, Hisar - HSPCB",28-02-2024 20:00:00,29.140560,75.744941,SO2,1,85,58
India,Haryana,Jind,"Police Lines, Jind - HSPCB",28-02-2024 20:00:00,29.307814,76.337619,PM2.5,35,83,59
India,Haryana,Jind,"Police Lines, Jind - HSPCB",28-02-2024 20:00:00,29.307814,76.337619,OZONE,9,19,17
India,Haryana,Kaithal,"Rishi Nagar, Kaithal - HSPCB",28-02-2024 20:00:00,29.8006,76.4155,SO2,1,103,18
India,Haryana,Karnal,"Sector-12, Karnal - HSPCB",28-02-2024 20:00:00,29.695300,77.002700,PM2.5,6,35,16
India,Haryana,Karnal,"Sector-12, Karnal - HSPCB",28-02-2024 20:00:00,29.695300,77.002700,NH3,10,13,11
India,Haryana,Karnal,"Sector-12, Karnal - HSPCB",28-02-2024 20:00:00,29.695300,77.002700,OZONE,29,36,33
India,Haryana,Kurukshetra,"Sector-7, Kurukshetra - HSPCB",28-02-2024 20:00:00,29.966942,76.875879,PM2.5,25,87,55
India,Haryana,Kurukshetra,"Sector-7, Kurukshetra - HSPCB",28-02-2024 20:00:00,29.966942,76.875879,SO2,1,99,28
India,Haryana,Mandikhera,"General Hospital, Mandikhera - HSPCB",28-02-2024 20:00:00,27.9002,76.9938,OZONE,22,33,27
India,Haryana,Manesar,"Sector-2 IMT, Manesar - HSPCB",28-02-2024 20:00:00,28.360699,76.936090,SO2,19,72,38
India,Haryana,Manesar,"Sector-2 IMT, Manesar - HSPCB",28-02-2024 20:00:00,28.360699,76.936090,OZONE,8,53,46
India,Haryana,Narnaul,"Shastri Nagar, Narnaul - HSPCB",28-02-2024 20:00:00,28.060249,76.113115,PM2.5,4,66,34
India,Haryana,Narnaul,"Shastri Nagar, Narnaul - HSPCB",28-02-2024 20:00:00,28.060249,76.113115,NO2,16,58,35
India,Haryana,Palwal,"Shyam Nagar, Palwal - HSPCB",28-02-2024 20:00:00,28.1485564,77.3320667,PM10,52,101,78
India,Haryana,Panchkula,"Sector-6, Panchkula - HSPCB ",28-02-2024 20:00:00,30.7057778,76.8531805555555,CO,8,123,9
India,Haryana,Panipat,"Sector-18, Panipat - HSPCB",28-02-2024 20:00:00,29.497973,76.993331,SO2,18,19,19
India,Haryana,Rohtak,"MD University, Rohtak - HSPCB",28-02-2024 20:00:00,28.52123,76.37138,SO2,6,8,7
India,Haryana,Rohtak,"MD University, Rohtak - HSPCB",28-02-2024 20:00:00,28.52123,76.37138,CO,18,65,30
India,Haryana,Sirsa,"F-Block, Sirsa - HSPCB",28-02-2024 20:00:00,29.536400,75.015800,PM2.5,34,64,48
India,Haryana,Sirsa,"F-Block, Sirsa - HSPCB",28-02-2024 20:00:00,29.536400,75.015800,CO,25,50,36
India,Haryana,Sirsa,"F-Block, Sirsa - HSPCB",28-02-2024 20:00:00,29.536400,75.015800,OZONE,39,93,83
India,Haryana,Yamuna Nagar,"Gobind Pura, Yamuna Nagar - HSPCB",28-02-2024 20:00:00,30.1480566,77.2893471,PM2.5,68,110,82
India,Haryana,Yamuna Nagar,"Gobind Pura, Yamuna Nagar - HSPCB",28-02-2024 20:00:00,30.1480566,77.2893471,NO2,11,29,18
India,Himachal Pradesh,Baddi,"HIMUDA Complex Phase-1, Baddi - HPPCB",28-02-2024 20:00:00,30.943887,76.801991,PM2.5,22,399,186
India,Jammu_and_Kashmir,Srinagar,"Rajbagh, Srinagar - JKSPCB",28-02-2024 20:00:00,34.066206,74.819820,OZONE,NA,NA,NA
India,Jharkhand,Dhanbad,"Kalakusuma, Dhanbad - DMC",28-02-2024 20:00:00,23.811548,86.481238,SO2,117,117,117
India,Jharkhand,Dhanbad,"Sardar Patel Nagar, Dhanbad - JSPCB",28-02-2024 20:00:00,23.80569,86.44268,SO2,7,117,48
India,Jharkhand,Dhanbad,"Sardar Patel Nagar, Dhanbad - JSPCB",28-02-2024 20:00:00,23.80569,86.44268,CO,134,173,155
India,Jharkhand,Pathardih,"Mohalbani Ghat, Pathardih - DMC",28-02-2024 20:00:00,23.669880,86.411725,SO2,17,119,56
India,Karnataka,Bagalkot,"Vidayagiri, Bagalkot - KSPCB",28-02-2024 20:00:00,16.172806,75.659694,NH3,1,2,1
India,Karnataka,Belgaum,"Ramteerth Nagar, Belgaum - KSPCB",28-02-2024 20:00:00,15.888653,74.541751,SO2,8,9,9
India,Karnataka,Bengaluru,"BTM Layout, Bengaluru - CPCB",28-02-2024 20:00:00,12.9135218,77.5950804,PM10,NA,NA,NA
India,Karnataka,Bengaluru,"Bapuji Nagar, Bengaluru - KSPCB",28-02-2024 20:00:00,12.951913,77.539784,PM10,50,108,81
India,Karnataka,Bengaluru,"City Railway Station, Bengaluru - KSPCB",28-02-2024 20:00:00,12.9756843,77.5660749,NO2,23,36,31
India,Karnataka,Bengaluru,"Hebbal, Bengaluru - KSPCB",28-02-2024 20:00:00,13.029152,77.585901,PM10,29,114,75
India,Karnataka,Bengaluru,"Hombegowda Nagar, Bengaluru - KSPCB",28-02-2024 20:00:00,12.938539,77.590100,NO2,33,42,36
India,Karnataka,Bengaluru,"Jayanagar 5th Block, Bengaluru - KSPCB",28-02-2024 20:00:00,12.920984,77.584908,SO2,18,21,19
India,Karnataka,Bengaluru,"Kasturi Nagar, Bengaluru - KSPCB",28-02-2024 20:00:00,13.003872,77.664217,CO,21,26,24
India,Karnataka,Bengaluru,"RVCE-Mailasandra, Bengaluru - KSPCB",28-02-2024 20:00:00,12.921418,77.502466,PM10,77,128,101
India,Karnataka,Bengaluru,"Sanegurava Halli, Bengaluru - KSPCB",28-02-2024 20:00:00,12.990328,77.5431385,CO,2,22,13
India,Karnataka,Bengaluru,"Shivapura_Peenya, Bengaluru - KSPCB",28-02-2024 20:00:00,13.0246342,77.5080115,PM2.5,18,98,39
India,Karnataka,Davanagere,"Devaraj Urs Badavane, Davanagere - KSPCB",28-02-2024 20:00:00,14.475800,75.905200,NH3,1,1,1
India,Karnataka,Dharwad,"Kalabhavan, Dharwad - KSPCB",28-02-2024 20:00:00,15.459706,75.008381,NH3,3,3,3
India,Karnataka,Gadag,"Panchal Nagar, Gadag - KSPCB",28-02-2024 20:00:00,15.411456,75.638133,PM2.5,20,49,35
India,Karnataka,Hassan,"B.Katihalli, Hassan - KSPCB",28-02-2024 20:00:00,13.008556,76.125258,PM2.5,32,82,55
India,Karnataka,Hassan,"B.Katihalli, Hassan - KSPCB",28-02-2024 20:00:00,13.008556,76.125258,NH3,1,7,2
India,Karnataka,Haveri,"Ashwini Nagar, Haveri - KSPCB",28-02-2024 20:00:00,14.791800,75.389600,PM10,NA,NA,NA
India,Karnataka,Hubballi,"Lingaraj Nagar, Hubballi - KSPCB",28-02-2024 20:00:00,15.3714823,75.1160168,PM10,49,72,61
India,Karnataka,Hubballi,"Lingaraj Nagar, Hubballi - KSPCB",28-02-2024 20:00:00,15.3714823,75.1160168,OZONE,13,41,36
India,Karnataka,Kalaburagi,"Lal Bahadur Shastri Nagar, Kalaburagi - KSPCB",28-02-2024 20:00:00,17.321993,76.822628,OZONE,2,55,42
India,Karnataka,Kalaburagi,"Mahatma Basaveswar Colony, Kalaburgi - KSPCB",28-02-2024 20:00:00,17.336318,76.847397,SO2,2,10,5
India,Karnataka,Kalaburagi,"Mahatma Basaveswar Colony, Kalaburgi - KSPCB",28-02-2024 20:00:00,17.336318,76.847397,OZONE,1,21,17
India,Karnataka,Karwar,"KHB Colony, Karwar - KSPCB",28-02-2024 20:00:00,14.816666,74.141003,OZONE,21,22,22
India,Karnataka,Kolar,"Tamaka Ind. Area, Kolar - KSPCB",28-02-2024 20:00:00,13.1276288,78.1570122,NO2,4,16,7
India,Karnataka,Koppal,"Diwator Nagar, Koppal - KSPCB",28-02-2024 20:00:00,15.347630,76.181767,NO2,2,29,16
India,Karnataka,Koppal,"Diwator Nagar, Koppal - KSPCB",28-02-2024 20:00:00,15.347630,76.181767,NH3,3,7,5
India,Karnataka,Koppal,"Diwator Nagar, Koppal - KSPCB",28-02-2024 20:00:00,15.347630,76.181767,CO,36,61,38
India,Karnataka,Madikeri,"Stuart Hill, Madikeri - KSPCB",28-02-2024 20:00:00,12.415911,75.735050,PM10,30,60,43
India,Karnataka,Madikeri,"Stuart Hill, Madikeri - KSPCB",28-02-2024 20:00:00,12.415911,75.735050,NO2,7,12,8
India,Karnataka,Madikeri,"Stuart Hill, Madikeri - KSPCB",28-02-2024 20:00:00,12.415911,75.735050,NH3,NA,NA,NA
India,Karnataka,Mysuru,"Hebbal 1st Stage, Mysuru - KSPCB",28-02-2024 20:00:00,12.21041,76.37376,NO2,10,54,28
India,Karnataka,Mysuru,"Hebbal 1st Stage, Mysuru - KSPCB",28-02-2024 20:00:00,12.21041,76.37376,NH3,1,6,2
India,Karnataka,Raichur,"Haji Colony, Raichur - KSPCB",28-02-2024 20:00:00,16.208139,77.348417,NH3,1,3,2
India,Karnataka,Shivamogga,"Vinoba Nagara, Shivamogga - KSPCB",28-02-2024 20:00:00,13.940000,75.555917,PM10,59,83,68
India,Karnataka,Shivamogga,"Vinoba Nagara, Shivamogga - KSPCB",28-02-2024 20:00:00,13.940000,75.555917,NH3,2,3,3
India,Karnataka,Shivamogga,"Vinoba Nagara, Shivamogga - KSPCB",28-02-2024 20:00:00,13.940000,75.555917,OZONE,35,83,74
India,Karnataka,Tumakuru,"Thimmalapura, Tumakuru - KSPCB",28-02-2024 20:00:00,13.377516,77.099072,PM2.5,16,29,20
India,Karnataka,Tumakuru,"Thimmalapura, Tumakuru - KSPCB",28-02-2024 20:00:00,13.377516,77.099072,PM10,16,43,26
India,Karnataka,Udupi,"Brahmagiri, Udupi - KSPCB",28-02-2024 20:00:00,13.34194444,74.74694444,NH3,NA,NA,NA
