country,state,city,station,last_update,latitude,longitude,pollutant_id,pollutant_min,pollutant_max,pollutant_avg
India,Andhra_Pradesh,Amaravati,"Secretariat, Amaravati - APPCB",02-02-2024 04:00:00,16.5150833,80.5181667,PM10,24,73,41
India,Andhra_Pradesh,Amaravati,"Secretariat, Amaravati - APPCB",02-02-2024 04:00:00,16.5150833,80.5181667,NO2,8,24,12
India,Andhra_Pradesh,Amaravati,"Secretariat, Amaravati - APPCB",02-02-2024 04:00:00,16.5150833,80.5181667,CO,9,46,33
India,Andhra_Pradesh,Anantapur,"Gulzarpet, Anantapur - APPCB",02-02-2024 04:00:00,14.675886,77.593027,NO2,21,74,41
India,Andhra_Pradesh,Anantapur,"Gulzarpet, Anantapur - APPCB",02-02-2024 04:00:00,14.675886,77.593027,NH3,2,3,3
India,Andhra_Pradesh,Anantapur,"Gulzarpet, Anantapur - APPCB",02-02-2024 04:00:00,14.675886,77.593027,OZONE,2,65,13
India,Andhra_Pradesh,Chittoor,"Gangineni Cheruvu, Chittoor - APPCB",02-02-2024 04:00:00,13.204880,79.097889,PM2.5,33,137,64
India,Andhra_Pradesh,Chittoor,"Gangineni Cheruvu, Chittoor - APPCB",02-02-2024 04:00:00,13.204880,79.097889,OZONE,9,99,40
India,Andhra_Pradesh,Kadapa,"Yerramukkapalli, Kadapa - APPCB",02-02-2024 04:00:00,14.465052,78.824187,SO2,1,2,2
India,Andhra_Pradesh,Rajamahendravaram,"Anand Kala Kshetram, Rajamahendravaram - APPCB",02-02-2024 04:00:00,16.9872867,81.7363176,NO2,13,43,29
India,Andhra_Pradesh,Rajamahendravaram,"Anand Kala Kshetram, Rajamahendravaram - APPCB",02-02-2024 04:00:00,16.9872867,81.7363176,CO,2,32,6
India,Andhra_Pradesh,Tirupati,"Tirumala, Tirupati - APPCB",02-02-2024 04:00:00,13.67,79.35,CO,39,59,48
India,Andhra_Pradesh,Tirupati,"Tirumala, Tirupati - APPCB",02-02-2024 04:00:00,13.67,79.35,OZONE,15,40,24
India,Andhra_Pradesh,Tirupati,"Vaikuntapuram, Tirupati - APPCB",02-02-2024 04:00:00,13.615387,79.409230,NO2,15,24,19
India,Andhra_Pradesh,Tirupati,"Vaikuntapuram, Tirupati - APPCB",02-02-2024 04:00:00,13.615387,79.409230,CO,8,16,12
India,Andhra_Pradesh,Vijayawada,"HB Colony, Vijayawada - APPCB",02-02-2024 04:00:00,16.536107,80.594233,PM2.5,34,41,37
India,Andhra_Pradesh,Vijayawada,"HB Colony, Vijayawada - APPCB",02-02-2024 04:00:00,16.536107,80.594233,NO2,8,21,14
India,Andhra_Pradesh,Vijayawada,"HB Colony, Vijayawada - APPCB",02-02-2024 04:00:00,16.536107,80.594233,OZONE,7,48,13
India,Andhra_Pradesh,Vijayawada,"Kanuru, Vijayawada - APPCB",02-02-2024 04:00:00,16.486692,80.699436,OZONE,NA,NA,NA
India,Andhra_Pradesh,Vijayawada,"Rajiv Gandhi Park, Vijayawada - APPCB",02-02-2024 04:00:00,16.509717,80.612222,NH3,5,7,6
India,Andhra_Pradesh,Vijayawada,"Rajiv Nagar, Vijayawada - APPCB",02-02-2024 04:00:00,16.554731,80.649110,PM10,49,256,99
India,Andhra_Pradesh,Vijayawada,"Rajiv Nagar, Vijayawada - APPCB",02-02-2024 04:00:00,16.554731,80.649110,SO2,7,39,28
India,Andhra_Pradesh,Visakhapatnam,"GVM Corporation, Visakhapatnam - APPCB",02-02-2024 04:00:00,17.72,83.3,PM2.5,33,220,83
India,Andhra_Pradesh,Visakhapatnam,"GVM Corporation, Visakhapatnam - APPCB",02-02-2024 04:00:00,17.72,83.3,CO,2,73,22
India,Andhra_Pradesh,Visakhapatnam,"GVM Corporation, Visakhapatnam - APPCB",02-02-2024 04:00:00,17.72,83.3,OZONE,8,26,10
India,Assam,Byrnihat,"Central Academy for SFS, Byrnihat - PCBA",02-02-2024 04:00:00,26.071318,91.87488,PM2.5,107,500,361
India,Assam,Byrnihat,"Central Academy for SFS, Byrnihat - PCBA",02-02-2024 04:00:00,26.071318,91.87488,NH3,3,8,6
India,Assam,Guwahati,"IITG, Guwahati - PCBA",02-02-2024 04:00:00,26.2028636,91.70046436,NH3,5,6,5
India,Assam,Guwahati,"Railway Colony, Guwahati - PCBA",02-02-2024 04:00:00,26.181742,91.78063,PM10,79,325,151
India,Assam,Nalbari,"Bata Chowk, Nalbari - PCBA",02-02-2024 04:00:00,26.446912,91.439057,NH3,1,4,1
India,Assam,Silchar,"Tarapur, Silchar - PCBA",02-02-2024 04:00:00,24.82827,92.79525,NH3,1,1,1
India,Assam,Sivasagar,"Girls College, Sivasagar - PCBA",02-02-2024 04:00:00,26.987634,94.636574,OZONE,1,8,1
India,Bihar,Araria,"Kharahiya Basti, Araria - BSPCB",02-02-2024 04:00:00,26.146529,87.454184,PM2.5,93,500,293
India,Bihar,Araria,"Kharahiya Basti, Araria - BSPCB",02-02-2024 04:00:00,26.146529,87.454184,CO,28,36,32
India,Bihar,Arrah,"New DM Office, Arrah - BSPCB",02-02-2024 04:00:00,25.5626095,84.663264,OZONE,11,40,15
India,Bihar,Aurangabad,"Gurdeo Nagar, Aurangabad - BSPCB",02-02-2024 04:00:00,24.75746,84.366208,PM2.5,318,395,341
India,Bihar,Aurangabad,"Gurdeo Nagar, Aurangabad - BSPCB",02-02-2024 04:00:00,24.75746,84.366208,NH3,9,19,11
India,Bihar,Aurangabad,"Gurdeo Nagar, Aurangabad - BSPCB",02-02-2024 04:00:00,24.75746,84.366208,OZONE,3,82,9
India,Bihar,Bettiah,"Kamalnath Nagar, Bettiah - BSPCB",02-02-2024 04:00:00,26.80365,84.51954,NO2,NA,NA,NA
India,Bihar,Bhagalpur,"DM Office_Kachari Chowk, Bhagalpur - BSPCB",02-02-2024 04:00:00,25.251013,86.989001,NO2,50,122,82
India,Bihar,Bhagalpur,"Mayaganj, Bhagalpur - BSPCB",02-02-2024 04:00:00,25.265194,87.012947,SO2,10,13,12
India,Bihar,Bhagalpur,"Mayaganj, Bhagalpur - BSPCB",02-02-2024 04:00:00,25.265194,87.012947,OZONE,13,30,18
India,Bihar,Bihar Sharif,"D M Colony, Bihar Sharif - BSPCB",02-02-2024 04:00:00,25.204762,85.514960,PM10,101,423,225
India,Bihar,Chhapra,"Darshan Nagar, Chhapra - BSPCB",02-02-2024 04:00:00,25.7808257,84.7446768,PM10,178,409,281
India,Bihar,Chhapra,"Darshan Nagar, Chhapra - BSPCB",02-02-2024 04:00:00,25.7808257,84.7446768,NO2,18,36,26
India,Bihar,Gaya,"Kareemganj, Gaya - BSPCB",02-02-2024 04:00:00,24.792403,84.992416,PM10,138,253,178
India,Bihar,Gaya,"Kareemganj, Gaya - BSPCB",02-02-2024 04:00:00,24.792403,84.992416,NH3,1,6,3
India,Bihar,Katihar,"Mirchaibari, Katihar - BSPCB",02-02-2024 04:00:00,25.560083,87.553265,NO2,9,36,18
India,Bihar,Kishanganj,"SDM Office_Khagra, Kishanganj - BSPCB",02-02-2024 04:00:00,26.0881305,87.93840336,OZONE,34,52,35
India,Bihar,Motihari,"Gandak Colony, Motihari - BSPCB",02-02-2024 04:00:00,26.63086,84.90051,NH3,7,11,9
India,Bihar,Munger,"Town Hall, Munger - BSPCB",02-02-2024 04:00:00,25.376776,86.471523,PM2.5,133,378,250
India,Bihar,Munger,"Town Hall, Munger - BSPCB",02-02-2024 04:00:00,25.376776,86.471523,PM10,126,405,206
India,Bihar,Muzaffarpur,"Buddha Colony, Muzaffarpur - BSPCB",02-02-2024 04:00:00,26.11442,85.39813,PM2.5,NA,NA,NA
India,Bihar,Muzaffarpur,"Buddha Colony, Muzaffarpur - BSPCB",02-02-2024 04:00:00,26.11442,85.39813,OZONE,NA,NA,NA
India,Bihar,Muzaffarpur,"MIT-Daudpur Kothi, Muzaffarpur - BSPCB",02-02-2024 04:00:00,26.1403345,85.3650192,SO2,11,18,14
India,Bihar,Muzaffarpur,"MIT-Daudpur Kothi, Muzaffarpur - BSPCB",02-02-2024 04:00:00,26.1403345,85.3650192,OZONE,5,70,6
India,Bihar,Muzaffarpur,"Muzaffarpur Collectorate, Muzaffarpur - BSPCB",02-02-2024 04:00:00,26.1209,85.3647,PM2.5,100,310,222
India,Bihar,Patna,"DRM Office Danapur, Patna - BSPCB",02-02-2024 04:00:00,25.586562,85.043586,PM2.5,295,392,341
India,Bihar,Patna,"DRM Office Danapur, Patna - BSPCB",02-02-2024 04:00:00,25.586562,85.043586,NH3,4,5,4
India,Bihar,Patna,"Govt. High School Shikarpur, Patna - BSPCB",02-02-2024 04:00:00,25.592539,85.227158,PM2.5,232,373,330
India,Bihar,Patna,"Govt. High School Shikarpur, Patna - BSPCB",02-02-2024 04:00:00,25.592539,85.227158,CO,45,114,86
India,Bihar,Patna,"Muradpur, Patna - BSPCB",02-02-2024 04:00:00,25.619651,85.147382,NH3,3,5,4
India,Bihar,Patna,"Muradpur, Patna - BSPCB",02-02-2024 04:00:00,25.619651,85.147382,CO,23,135,105
India,Bihar,Patna,"Samanpura, Patna - BSPCB",02-02-2024 04:00:00,25.596727,85.085624,PM2.5,317,500,384
India,Bihar,Patna,"Samanpura, Patna - BSPCB",02-02-2024 04:00:00,25.596727,85.085624,OZONE,1,80,10
India,Bihar,Purnia,"Mariam Nagar, Purnia - BSPCB",02-02-2024 04:00:00,25.366336,87.117468,PM2.5,70,379,258
India,Bihar,Purnia,"Mariam Nagar, Purnia - BSPCB",02-02-2024 04:00:00,25.366336,87.117468,NO2,12,13,13
India,Bihar,Purnia,"Mariam Nagar, Purnia - BSPCB",02-02-2024 04:00:00,25.366336,87.117468,CO,18,126,111
India,Bihar,Rajgir,"Dangi Tola, Rajgir - BSPCB",02-02-2024 04:00:00,25.03280,85.41948,PM2.5,NA,NA,NA
India,Bihar,Rajgir,"Dangi Tola, Rajgir - BSPCB",02-02-2024 04:00:00,25.03280,85.41948,NO2,NA,NA,NA
India,Bihar,Rajgir,"Dangi Tola, Rajgir - BSPCB",02-02-2024 04:00:00,25.03280,85.41948,SO2,NA,NA,NA
India,Bihar,Saharsa,"Police Line, Saharsa - BSPCB",02-02-2024 04:00:00,25.892357,86.590325,PM10,103,257,158
India,Bihar,Saharsa,"Police Line, Saharsa - BSPCB",02-02-2024 04:00:00,25.892357,86.590325,NO2,5,9,7
India,Bihar,Saharsa,"Police Line, Saharsa - BSPCB",02-02-2024 04:00:00,25.892357,86.590325,CO,3,65,36
India,Bihar,Samastipur,"DM Office_Kasipur, Samastipur - BSPCB",02-02-2024 04:00:00,25.859655,85.77944,NH3,5,5,5
India,Bihar,Samastipur,"DM Office_Kasipur, Samastipur - BSPCB",02-02-2024 04:00:00,25.859655,85.77944,CO,14,29,20
India,Bihar,Sasaram,"Dada Peer, Sasaram - BSPCB",02-02-2024 04:00:00,24.952822,84.002396,SO2,21,23,23
India,Bihar,Sasaram,"Dada Peer, Sasaram - BSPCB",02-02-2024 04:00:00,24.952822,84.002396,CO,32,112,86
India,Bihar,Sasaram,"Dada Peer, Sasaram - BSPCB",02-02-2024 04:00:00,24.952822,84.002396,OZONE,4,5,4
India,Bihar,Siwan,"Chitragupta Nagar, Siwan - BSPCB",02-02-2024 04:00:00,26.2271665,84.3570427,NO2,19,189,52
India,Chandigarh,Chandigarh,"Sector 22, Chandigarh - CPCC",02-02-2024 04:00:00,30.735567,76.775714,NH3,4,7,6
India,Chandigarh,Chandigarh,"Sector-25, Chandigarh - CPCC",02-02-2024 04:00:00,30.751462,76.762879,PM10,75,134,95
India,Chandigarh,Chandigarh,"Sector-25, Chandigarh - CPCC",02-02-2024 04:00:00,30.751462,76.762879,NO2,4,34,22
India,Chandigarh,Chandigarh,"Sector-53, Chandigarh - CPCC",02-02-2024 04:00:00,30.719859,76.738637,PM10,25,113,74
India,Chandigarh,Chandigarh,"Sector-53, Chandigarh - CPCC",02-02-2024 04:00:00,30.719859,76.738637,NH3,4,6,5
India,Chandigarh,Chandigarh,"Sector-53, Chandigarh - CPCC",02-02-2024 04:00:00,30.719859,76.738637,SO2,6,9,8
India,Chandigarh,Chandigarh,"Sector-53, Chandigarh - CPCC",02-02-2024 04:00:00,30.719859,76.738637,OZONE,4,34,9
India,Chhattisgarh,Bhilai,"32Bungalows, Bhilai - CECB",02-02-2024 04:00:00,21.194815,81.314770,NH3,6,6,6
India,Chhattisgarh,Bhilai,"32Bungalows, Bhilai - CECB",02-02-2024 04:00:00,21.194815,81.314770,SO2,3,10,6
India,Chhattisgarh,Bhilai,"Civic Center, Bhilai - Bhilai Steel Plant",02-02-2024 04:00:00,21.185571,81.343175,CO,28,48,45
India,Chhattisgarh,Bhilai,"Hathkhoj, Bhilai - CECB",02-02-2024 04:00:00,21.224231,81.408350,NH3,6,8,7
India,Chhattisgarh,Korba,"Rampur, Korba - CECB",02-02-2024 04:00:00,22.368195,82.746431,PM2.5,28,75,42
India,Chhattisgarh,Korba,"Rampur, Korba - CECB",02-02-2024 04:00:00,22.368195,82.746431,NO2,45,58,54
India,Chhattisgarh,Korba,"Rampur, Korba - CECB",02-02-2024 04:00:00,22.368195,82.746431,SO2,7,12,9
India,Chhattisgarh,Korba,"Rampur, Korba - CECB",02-02-2024 04:00:00,22.368195,82.746431,CO,30,40,35
India,Chhattisgarh,Kunjemura,"OP Jindal School, Kunjemura - CECB",02-02-2024 04:00:00,22.126650,83.483212,SO2,1,56,20
India,Chhattisgarh,Milupara,"Govt. Higher Secondary School, Milupara - CECB",02-02-2024 04:00:00,22.1910172,83.5197009,NO2,18,61,32
India,Chhattisgarh,Milupara,"Govt. Higher Secondary School, Milupara - CECB",02-02-2024 04:00:00,22.1910172,83.5197009,SO2,1,51,21
India,Chhattisgarh,Raipur,"Bhatagaon New ISBT, Raipur - CECB",02-02-2024 04:00:00,21.219665,81.630094,PM2.5,42,146,79
India,Chhattisgarh,Raipur,"Bhatagaon New ISBT, Raipur - CECB",02-02-2024 04:00:00,21.219665,81.630094,PM10,38,154,101
India,Chhattisgarh,Raipur,"Bhatagaon New ISBT, Raipur - CECB",02-02-2024 04:00:00,21.219665,81.630094,NO2,66,93,75
India,Chhattisgarh,Raipur,"Siltara Phase-II, Raipur - CECB",02-02-2024 04:00:00,21.371751,81.664929,NO2,13,52,33
India,Chhattisgarh,Raipur,"Siltara Phase-II, Raipur - CECB",02-02-2024 04:00:00,21.371751,81.664929,NH3,3,3,3
India,Chhattisgarh,Raipur,"Siltara Phase-II, Raipur - CECB",02-02-2024 04:00:00,21.371751,81.664929,CO,30,79,69
India,Delhi,Delhi,"Anand Vihar, Delhi - DPCC",02-02-2024 04:00:00,28.647622,77.3158090,NH3,2,14,8
India,Delhi,Delhi,"Anand Vihar, Delhi - DPCC",02-02-2024 04:00:00,28.647622,77.3158090,OZONE,15,17,15
India,Delhi,Delhi,"Aya Nagar, Delhi - IMD",02-02-2024 04:00:00,28.4706914,77.1099364,PM2.5,1,313,136
India,Delhi,Delhi,"Aya Nagar, Delhi - IMD",02-02-2024 04:00:00,28.4706914,77.1099364,PM10,11,154,97
India,Delhi,Delhi,"Bawana, Delhi - DPCC",02-02-2024 04:00:00,28.776200,77.051074,PM10,42,194,114
India,Delhi,Delhi,"Bawana, Delhi - DPCC",02-02-2024 04:00:00,28.776200,77.051074,NO2,15,56,31
India,Delhi,Delhi,"Bawana, Delhi - DPCC",02-02-2024 04:00:00,28.776200,77.051074,CO,35,100,89
India,Delhi,Delhi,"Burari Crossing, Delhi - IMD",02-02-2024 04:00:00,28.7256504,77.2011573,PM2.5,13,224,95
India,Delhi,Delhi,"CRRI Mathura Road, Delhi - IMD",02-02-2024 04:00:00,28.5512005,77.2735737,OZONE,3,18,5
India,Delhi,Delhi,"DTU, Delhi - CPCB",02-02-2024 04:00:00,28.7500499,77.1112615,NO2,3,52,35
India,Delhi,Delhi,"Dr. Karni Singh Shooting Range, Delhi - DPCC",02-02-2024 04:00:00,28.498571,77.264840,PM10,35,150,94
India,Delhi,Delhi,"Dr. Karni Singh Shooting Range, Delhi - DPCC",02-02-2024 04:00:00,28.498571,77.264840,NO2,25,66,39
India,Delhi,Delhi,"Dwarka-Sector 8, Delhi - DPCC ",02-02-2024 04:00:00,28.5710274,77.0719006,PM2.5,37,311,177
India,Delhi,Delhi,"Dwarka-Sector 8, Delhi - DPCC ",02-02-2024 04:00:00,28.5710274,77.0719006,PM10,33,150,96
India,Delhi,Delhi,"Dwarka-Sector 8, Delhi - DPCC ",02-02-2024 04:00:00,28.5710274,77.0719006,OZONE,2,22,3
India,Delhi,Delhi,"IGI Airport (T3), Delhi - IMD",02-02-2024 04:00:00,28.5627763,77.1180053,PM2.5,NA,NA,NA
India,Delhi,Delhi,"IHBAS, Dilshad Garden, Delhi - CPCB",02-02-2024 04:00:00,28.6811736,77.3025234,NH3,6,17,13
India,Delhi,Delhi,"ITO, Delhi - CPCB",02-02-2024 04:00:00,28.628624,77.241060,PM10,31,157,112
India,Delhi,Delhi,"Jahangirpuri, Delhi - DPCC",02-02-2024 04:00:00,28.732820,77.170633,NH3,11,84,18
India,Delhi,Delhi,"Jawaharlal Nehru Stadium, Delhi - DPCC",02-02-2024 04:00:00,28.580280,77.233829,SO2,4,15,8
India,Delhi,Delhi,"Jawaharlal Nehru Stadium, Delhi - DPCC",02-02-2024 04:00:00,28.580280,77.233829,OZONE,2,31,3
India,Delhi,Delhi,"Lodhi Road, Delhi - IMD",02-02-2024 04:00:00,28.5918245,77.2273074,PM2.5,15,132,67
India,Delhi,Delhi,"Lodhi Road, Delhi - IMD",02-02-2024 04:00:00,28.5918245,77.2273074,OZONE,13,46,14
India,Delhi,Delhi,"Major Dhyan Chand National Stadium, Delhi - DPCC",02-02-2024 04:00:00,28.611281,77.237738,PM2.5,NA,NA,NA
India,Delhi,Delhi,"NSIT Dwarka, Delhi - CPCB",02-02-2024 04:00:00,28.60909,77.0325413,NH3,7,10,8
India,Delhi,Delhi,"Najafgarh, Delhi - DPCC",02-02-2024 04:00:00,28.570173,76.933762,NO2,13,41,28
India,Delhi,Delhi,"Najafgarh, Delhi - DPCC",02-02-2024 04:00:00,28.570173,76.933762,NH3,7,12,9
India,Delhi,Delhi,"Najafgarh, Delhi - DPCC",02-02-2024 04:00:00,28.570173,76.933762,OZONE,10,61,18
India,Delhi,Delhi,"Narela, Delhi - DPCC",02-02-2024 04:00:00,28.822836,77.101981,PM2.5,49,323,177
India,Delhi,Delhi,"Narela, Delhi - DPCC",02-02-2024 04:00:00,28.822836,77.101981,PM10,38,186,114
India,Delhi,Delhi,"Narela, Delhi - DPCC",02-02-2024 04:00:00,28.822836,77.101981,NH3,6,18,11
India,Delhi,Delhi,"New Moti Bagh, Delhi - MHUA",02-02-2024 04:00:00,28.57834,77.18400,NO2,1,3,1
India,Delhi,Delhi,"North Campus, DU, Delhi - IMD",02-02-2024 04:00:00,28.6573814,77.1585447,PM10,NA,NA,NA
India,Delhi,Delhi,"Okhla Phase-2, Delhi - DPCC",02-02-2024 04:00:00,28.530785,77.271255,PM10,37,165,100
India,Delhi,Delhi,"Patparganj, Delhi - DPCC",02-02-2024 04:00:00,28.623763,77.287209,NO2,38,51,45
India,Delhi,Delhi,"Punjabi Bagh, Delhi - DPCC",02-02-2024 04:00:00,28.674045,77.131023,CO,28,64,53
India,Delhi,Delhi,"Pusa, Delhi - DPCC",02-02-2024 04:00:00,28.639652,77.146275,PM2.5,40,256,126
India,Delhi,Delhi,"Pusa, Delhi - DPCC",02-02-2024 04:00:00,28.639652,77.146275,SO2,8,12,10
India,Delhi,Delhi,"Pusa, Delhi - IMD",02-02-2024 04:00:00,28.636110,77.173332,PM10,18,126,72
India,Delhi,Delhi,"R K Puram, Delhi - DPCC",02-02-2024 04:00:00,28.563262,77.186937,NH3,6,15,8
India,Delhi,Delhi,"Rohini, Delhi - DPCC",02-02-2024 04:00:00,28.732528,77.119920,PM2.5,48,327,185
India,Delhi,Delhi,"Rohini, Delhi - DPCC",02-02-2024 04:00:00,28.732528,77.119920,PM10,39,190,113
India,Delhi,Delhi,"Rohini, Delhi - DPCC",02-02-2024 04:00:00,28.732528,77.119920,NO2,23,74,45
India,Delhi,Delhi,"Shadipur, Delhi - CPCB",02-02-2024 04:00:00,28.6514781,77.1473105,CO,22,95,53
India,Delhi,Delhi,"Sonia Vihar, Delhi - DPCC",02-02-2024 04:00:00,28.710508,77.249485,SO2,4,11,9
India,Delhi,Delhi,"Sonia Vihar, Delhi - DPCC",02-02-2024 04:00:00,28.710508,77.249485,CO,44,106,94
India,Delhi,Delhi,"Sri Aurobindo Marg, Delhi - DPCC",02-02-2024 04:00:00,28.531346,77.190156,PM2.5,45,307,169
India,Delhi,Delhi,"Vivek Vihar, Delhi - DPCC",02-02-2024 04:00:00,28.672342,77.315260,PM2.5,45,312,168
India,Delhi,Delhi,"Wazirpur, Delhi - DPCC",02-02-2024 04:00:00,28.699793,77.165453,OZONE,3,24,5
India,Gujarat,Ahmedabad,"Chandkheda, Ahmedabad - IITM",02-02-2024 04:00:00,23.107969,72.574648,NO2,27,34,30
India,Gujarat,Ahmedabad,"Chandkheda, Ahmedabad - IITM",02-02-2024 04:00:00,23.107969,72.574648,OZONE,9,21,14
India,Gujarat,Ahmedabad,"Raikhad, Ahmedabad - IITM",02-02-2024 04:00:00,23.020509,72.579261,PM2.5,58,303,127
India,Gujarat,Ahmedabad,"Raikhad, Ahmedabad - IITM",02-02-2024 04:00:00,23.020509,72.579261,OZONE,10,14,12
India,Gujarat,Ahmedabad,"Rakhial, Ahmedabad - IITM",02-02-2024 04:00:00,23.016834,72.625775,NO2,11,111,39
India,Gujarat,Ahmedabad,"Rakhial, Ahmedabad - IITM",02-02-2024 04:00:00,23.016834,72.625775,SO2,4,18,7
India,Gujarat,Ahmedabad,"Rakhial, Ahmedabad - IITM",02-02-2024 04:00:00,23.016834,72.625775,OZONE,1,27,2
India,Gujarat,Ahmedabad,"SAC ISRO Satellite, Ahmedabad - IITM",02-02-2024 04:00:00,23.023389,72.515201,PM2.5,128,242,184
India,Gujarat,Ahmedabad,"SVPI Airport Hansol, Ahmedabad - IITM",02-02-2024 04:00:00,23.076793,72.627874,PM2.5,52,239,110
India,Gujarat,Ahmedabad,"SVPI Airport Hansol, Ahmedabad - IITM",02-02-2024 04:00:00,23.076793,72.627874,NO2,12,16,14
India,Gujarat,Ahmedabad,"SVPI Airport Hansol, Ahmedabad - IITM",02-02-2024 04:00:00,23.076793,72.627874,NH3,3,4,4
India,Gujarat,Ahmedabad,"SVPI Airport Hansol, Ahmedabad - IITM",02-02-2024 04:00:00,23.076793,72.627874,OZONE,4,15,4
India,Gujarat,Ankleshwar,"GIDC, Ankleshwar - GPCB",02-02-2024 04:00:00,21.613267,73.010555,NO2,34,34,34
India,Gujarat,Ankleshwar,"GIDC, Ankleshwar - GPCB",02-02-2024 04:00:00,21.613267,73.010555,OZONE,6,22,21
India,Gujarat,Gandhinagar,"IIPHG Lekawada, Gandhinagar - IITM",02-02-2024 04:00:00,23.243639,72.68994,PM2.5,61,443,164
India,Gujarat,Gandhinagar,"Sector-10, Gandhinagar - GPCB",02-02-2024 04:00:00,23.221714,72.654328,PM2.5,14,65,39
India,Gujarat,Gandhinagar,"Sector-10, Gandhinagar - GPCB",02-02-2024 04:00:00,23.221714,72.654328,NO2,7,14,10
India,Gujarat,Vapi,"Phase-1 GIDC, Vapi - GPCB",02-02-2024 04:00:00,20.362421,72.918013,NH3,15,19,17
India,Gujarat,Vapi,"Phase-1 GIDC, Vapi - GPCB",02-02-2024 04:00:00,20.362421,72.918013,SO2,44,45,44
India,Gujarat,Vatva,"Phase-4 GIDC, Vatva - GPCB",02-02-2024 04:00:00,22.969611,72.643500,SO2,3,11,5
India,Haryana,Ambala,"Patti Mehar, Ambala - HSPCB",02-02-2024 04:00:00,30.379589,76.778328,NH3,11,11,11
India,Haryana,Ambala,"Patti Mehar, Ambala - HSPCB",02-02-2024 04:00:00,30.379589,76.778328,SO2,3,40,13
India,Haryana,Bahadurgarh,"Arya Nagar, Bahadurgarh - HSPCB",02-02-2024 04:00:00,28.6701,76.9254,NH3,10,12,11
India,Haryana,Ballabgarh,"Nathu Colony, Ballabgarh - HSPCB",02-02-2024 04:00:00,28.3419248,77.319699,CO,8,62,37
India,Haryana,Ballabgarh,"Nathu Colony, Ballabgarh - HSPCB",02-02-2024 04:00:00,28.3419248,77.319699,OZONE,3,17,7
India,Haryana,Bhiwani,"H.B. Colony, Bhiwani - HSPCB",02-02-2024 04:00:00,28.806223,76.141105,PM2.5,50,163,101
India,Haryana,Bhiwani,"H.B. Colony, Bhiwani - HSPCB",02-02-2024 04:00:00,28.806223,76.141105,OZONE,8,66,15
India,Haryana,Charkhi Dadri,"Mini Secretariat, Charkhi Dadri - HSPCB",02-02-2024 04:00:00,28.593883,76.270653,PM2.5,43,126,93
India,Haryana,Faridabad,"New Industrial Town, Faridabad - HSPCB",02-02-2024 04:00:00,28.39072,77.30059,NO2,2,13,8
India,Haryana,Faridabad,"New Industrial Town, Faridabad - HSPCB",02-02-2024 04:00:00,28.39072,77.30059,NH3,4,6,4
India,Haryana,Faridabad,"Sector 11, Faridabad - HSPCB",02-02-2024 04:00:00,28.376058,77.315741,NH3,6,6,6
India,Haryana,Faridabad,"Sector 30, Faridabad - HSPCB",02-02-2024 04:00:00,28.4417,77.3217,NH3,NA,NA,NA
India,Haryana,Faridabad,"Sector 30, Faridabad - HSPCB",02-02-2024 04:00:00,28.4417,77.3217,OZONE,8,24,9
India,Haryana,Faridabad,"Sector- 16A, Faridabad - HSPCB",02-02-2024 04:00:00,28.4088421,77.3099081,OZONE,14,14,14
India,Haryana,Gurugram,"Sector-51, Gurugram - HSPCB",02-02-2024 04:00:00,28.4227,77.0667,PM2.5,7,250,152
India,Haryana,Gurugram,"Sector-51, Gurugram - HSPCB",02-02-2024 04:00:00,28.4227,77.0667,NH3,6,14,9
India,Haryana,Gurugram,"Teri Gram, Gurugram - HSPCB",02-02-2024 04:00:00,28.4275,77.1465,PM10,25,157,95
India,Haryana,Gurugram,"Teri Gram, Gurugram - HSPCB",02-02-2024 04:00:00,28.4275,77.1465,SO2,4,5,5
India,Haryana,Gurugram,"Teri Gram, Gurugram - HSPCB",02-02-2024 04:00:00,28.4275,77.1465,OZONE,10,24,12
India,Haryana,Jind,"Police Lines, Jind - HSPCB",02-02-2024 04:00:00,29.307814,76.337619,PM2.5,45,95,75
India,Haryana,Jind,"Police Lines, Jind - HSPCB",02-02-2024 04:00:00,29.307814,76.337619,PM10,43,86,66
India,Haryana,Kaithal,"Rishi Nagar, Kaithal - HSPCB",02-02-2024 04:00:00,29.8006,76.4155,NH3,8,34,13
India,Haryana,Karnal,"Sector-12, Karnal - HSPCB",02-02-2024 04:00:00,29.695300,77.002700,PM10,32,106,50
India,Haryana,Kurukshetra,"Sector-7, Kurukshetra - HSPCB",02-02-2024 04:00:00,29.966942,76.875879,PM10,27,129,60
India,Haryana,Kurukshetra,"Sector-7, Kurukshetra - HSPCB",02-02-2024 04:00:00,29.966942,76.875879,NH3,3,7,5
India,Haryana,Kurukshetra,"Sector-7, Kurukshetra - HSPCB",02-02-2024 04:00:00,29.966942,76.875879,OZONE,2,35,9
India,Haryana,Mandikhera,"General Hospital, Mandikhera - HSPCB",02-02-2024 04:00:00,27.9002,76.9938,SO2,31,39,35
India,Haryana,Mandikhera,"General Hospital, Mandikhera - HSPCB",02-02-2024 04:00:00,27.9002,76.9938,CO,26,42,36
India,Haryana,Manesar,"Sector-2 IMT, Manesar - HSPCB",02-02-2024 04:00:00,28.360699,76.936090,PM2.5,31,130,74
India,Haryana,Manesar,"Sector-2 IMT, Manesar - HSPCB",02-02-2024 04:00:00,28.360699,76.936090,PM10,39,101,67
India,Haryana,Manesar,"Sector-2 IMT, Manesar - HSPCB",02-02-2024 04:00:00,28.360699,76.936090,NO2,12,26,19
India,Haryana,Manesar,"Sector-2 IMT, Manesar - HSPCB",02-02-2024 04:00:00,28.360699,76.936090,CO,14,28,25
India,Haryana,Narnaul,"Shastri Nagar, Narnaul - HSPCB",02-02-2024 04:00:00,28.060249,76.113115,PM2.5,61,290,110
India,Haryana,Narnaul,"Shastri Nagar, Narnaul - HSPCB",02-02-2024 04:00:00,28.060249,76.113115,CO,10,22,15
India,Haryana,Palwal,"Shyam Nagar, Palwal - HSPCB",02-02-2024 04:00:00,28.1485564,77.3320667,NH3,2,3,3
India,Haryana,Palwal,"Shyam Nagar, Palwal - HSPCB",02-02-2024 04:00:00,28.1485564,77.3320667,OZONE,1,19,5
India,Haryana,Panipat,"Sector-18, Panipat - HSPCB",02-02-2024 04:00:00,29.497973,76.993331,OZONE,29,34,31
India,Haryana,Sirsa,"F-Block, Sirsa - HSPCB",02-02-2024 04:00:00,29.536400,75.015800,SO2,NA,NA,NA
India,Haryana,Sonipat,"Murthal, Sonipat - HSPCB",02-02-2024 04:00:00,29.027200,77.062100,PM10,40,101,70
India,Haryana,Sonipat,"Murthal, Sonipat - HSPCB",02-02-2024 04:00:00,29.027200,77.062100,NO2,37,44,40
India,Himachal Pradesh,Baddi,"HIMUDA Complex Phase-1, Baddi - HPPCB",02-02-2024 04:00:00,30.943887,76.801991,NO2,4,39,23
India,Himachal Pradesh,Baddi,"HIMUDA Complex Phase-1, Baddi - HPPCB",02-02-2024 04:00:00,30.943887,76.801991,SO2,31,134,92
India,Jharkhand,Dhanbad,"Kalakusuma, Dhanbad - DMC",02-02-2024 04:00:00,23.811548,86.481238,PM2.5,NA,NA,NA
India,Jharkhand,Dhanbad,"Kalakusuma, Dhanbad - DMC",02-02-2024 04:00:00,23.811548,86.481238,PM10,NA,NA,NA
India,Jharkhand,Dhanbad,"Sardar Patel Nagar, Dhanbad - JSPCB",02-02-2024 04:00:00,23.80569,86.44268,PM2.5,107,334,241
India,Jharkhand,Dhanbad,"Sardar Patel Nagar, Dhanbad - JSPCB",02-02-2024 04:00:00,23.80569,86.44268,PM10,153,412,257
India,Jharkhand,Dhanbad,"Sardar Patel Nagar, Dhanbad - JSPCB",02-02-2024 04:00:00,23.80569,86.44268,NO2,37,286,143
India,Jharkhand,Dhanbad,"Sardar Patel Nagar, Dhanbad - JSPCB",02-02-2024 04:00:00,23.80569,86.44268,CO,133,192,192
India,Jharkhand,Pathardih,"Mohalbani Ghat, Pathardih - DMC",02-02-2024 04:00:00,23.669880,86.411725,PM10,155,415,261
India,Jharkhand,Pathardih,"Mohalbani Ghat, Pathardih - DMC",02-02-2024 04:00:00,23.669880,86.411725,NO2,26,277,133
India,Karnataka,Bagalkot,"Vidayagiri, Bagalkot - KSPCB",02-02-2024 04:00:00,16.172806,75.659694,NO2,10,11,10
India,Karnataka,Belgaum,"Ramteerth Nagar, Belgaum - KSPCB",02-02-2024 04:00:00,15.888653,74.541751,PM10,34,124,62
India,Karnataka,Bengaluru,"BTM Layout, Bengaluru - CPCB",02-02-2024 04:00:00,12.9135218,77.5950804,OZONE,NA,NA,NA
India,Karnataka,Bengaluru,"Bapuji Nagar, Bengaluru - KSPCB",02-02-2024 04:00:00,12.951913,77.539784,PM10,45,174,87
India,Karnataka,Bengaluru,"Bapuji Nagar, Bengaluru - KSPCB",02-02-2024 04:00:00,12.951913,77.539784,NH3,1,1,1
India,Karnataka,Bengaluru,"Bapuji Nagar, Bengaluru - KSPCB",02-02-2024 04:00:00,12.951913,77.539784,CO,34,43,39
India,Karnataka,Bengaluru,"City Railway Station, Bengaluru - KSPCB",02-02-2024 04:00:00,12.9756843,77.5660749,CO,52,103,78
India,Karnataka,Bengaluru,"Hombegowda Nagar, Bengaluru - KSPCB",02-02-2024 04:00:00,12.938539,77.590100,NH3,2,2,2
India,Karnataka,Bengaluru,"Jayanagar 5th Block, Bengaluru - KSPCB",02-02-2024 04:00:00,12.920984,77.584908,SO2,8,33,15
India,Karnataka,Bengaluru,"Jayanagar 5th Block, Bengaluru - KSPCB",02-02-2024 04:00:00,12.920984,77.584908,CO,6,123,50
India,Karnataka,Bengaluru,"Jigani, Bengaluru - KSPCB",02-02-2024 04:00:00,12.7816279,77.6299145,NO2,25,26,25
India,Karnataka,Bengaluru,"Kasturi Nagar, Bengaluru - KSPCB",02-02-2024 04:00:00,13.003872,77.664217,PM10,78,417,156
India,Karnataka,Bengaluru,"Kasturi Nagar, Bengaluru - KSPCB",02-02-2024 04:00:00,13.003872,77.664217,NH3,3,4,4
India,Karnataka,Bengaluru,"Peenya, Bengaluru - CPCB",02-02-2024 04:00:00,13.0270199,77.494094,NO2,3,14,10
India,Karnataka,Bengaluru,"Peenya, Bengaluru - CPCB",02-02-2024 04:00:00,13.0270199,77.494094,SO2,12,22,16
India,Karnataka,Bengaluru,"RVCE-Mailasandra, Bengaluru - KSPCB",02-02-2024 04:00:00,12.921418,77.502466,SO2,4,5,4
India,Karnataka,Bengaluru,"Sanegurava Halli, Bengaluru - KSPCB",02-02-2024 04:00:00,12.990328,77.5431385,PM10,9,153,58
India,Karnataka,Bengaluru,"Shivapura_Peenya, Bengaluru - KSPCB",02-02-2024 04:00:00,13.0246342,77.5080115,PM2.5,33,188,83
India,Karnataka,Bengaluru,"Shivapura_Peenya, Bengaluru - KSPCB",02-02-2024 04:00:00,13.0246342,77.5080115,SO2,4,22,9
India,Karnataka,Bengaluru,"Shivapura_Peenya, Bengaluru - KSPCB",02-02-2024 04:00:00,13.0246342,77.5080115,CO,23,107,58
India,Karnataka,Bengaluru,"Silk Board, Bengaluru - KSPCB",02-02-2024 04:00:00,12.917348,77.622813,CO,1,135,64
India,Karnataka,Bidar,"Naubad, Bidar - KSPCB",02-02-2024 04:00:00,17.930306,77.482194,PM2.5,64,197,118
India,Karnataka,Bidar,"Naubad, Bidar - KSPCB",02-02-2024 04:00:00,17.930306,77.482194,PM10,69,129,105
India,Karnataka,Chamarajanagar,"Urban, Chamarajanagar - KSPCB",02-02-2024 04:00:00,11.55358,76.55521,NH3,1,2,2
India,Karnataka,Chikkaballapur,"Chikkaballapur Rural, Chikkaballapur - KSPCB",02-02-2024 04:00:00,13.428828,77.731418,NO2,7,25,12
India,Karnataka,Chikkaballapur,"Chikkaballapur Rural, Chikkaballapur - KSPCB",02-02-2024 04:00:00,13.428828,77.731418,CO,NA,NA,NA
India,Karnataka,Chikkamagaluru,"Kalyana Nagara, Chikkamagaluru - KSPCB",02-02-2024 04:00:00,13.328028,75.797056,NH3,3,6,4
India,Karnataka,Chikkamagaluru,"Kalyana Nagara, Chikkamagaluru - KSPCB",02-02-2024 04:00:00,13.328028,75.797056,SO2,2,6,4
India,Karnataka,Davanagere,"Devaraj Urs Badavane, Davanagere - KSPCB",02-02-2024 04:00:00,14.475800,75.905200,PM10,38,121,56
India,Karnataka,Davanagere,"Devaraj Urs Badavane, Davanagere - KSPCB",02-02-2024 04:00:00,14.475800,75.905200,NO2,9,14,11
India,Karnataka,Davanagere,"Devaraj Urs Badavane, Davanagere - KSPCB",02-02-2024 04:00:00,14.475800,75.905200,CO,16,22,17
India,Karnataka,Hassan,"B.Katihalli, Hassan - KSPCB",02-02-2024 04:00:00,13.008556,76.125258,PM2.5,25,167,62
India,Karnataka,Haveri,"Ashwini Nagar, Haveri - KSPCB",02-02-2024 04:00:00,14.791800,75.389600,NH3,2,4,3
India,Karnataka,Kalaburagi,"Mahatma Basaveswar Colony, Kalaburgi - KSPCB",02-02-2024 04:00:00,17.336318,76.847397,NH3,2,4,3
India,Karnataka,Kalaburagi,"Mahatma Basaveswar Colony, Kalaburgi - KSPCB",02-02-2024 04:00:00,17.336318,76.847397,CO,42,106,60
India,Karnataka,Karwar,"KHB Colony, Karwar - KSPCB",02-02-2024 04:00:00,14.816666,74.141003,PM2.5,53,167,76
India,Karnataka,Kolar,"Tamaka Ind. Area, Kolar - KSPCB",02-02-2024 04:00:00,13.1276288,78.1570122,PM10,NA,NA,NA
India,Karnataka,Kolar,"Tamaka Ind. Area, Kolar - KSPCB",02-02-2024 04:00:00,13.1276288,78.1570122,SO2,NA,NA,NA
India,Karnataka,Koppal,"Diwator Nagar, Koppal - KSPCB",02-02-2024 04:00:00,15.347630,76.181767,SO2,74,77,75
India,Karnataka,Madikeri,"Stuart Hill, Madikeri - KSPCB",02-02-2024 04:00:00,12.415911,75.735050,NO2,3,6,5
India,Karnataka,Madikeri,"Stuart Hill, Madikeri - KSPCB",02-02-2024 04:00:00,12.415911,75.735050,CO,4,40,25
India,Karnataka,Mangalore,"Kadri, Mangalore - KSPCB",02-02-2024 04:00:00,12.889250,74.853000,PM10,49,107,76
India,Karnataka,Mangalore,"Kadri, Mangalore - KSPCB",02-02-2024 04:00:00,12.889250,74.853000,NH3,2,3,3
India,Karnataka,Mangalore,"Kadri, Mangalore - KSPCB",02-02-2024 04:00:00,12.889250,74.853000,SO2,16,20,19
India,Karnataka,Mangalore,"Kadri, Mangalore - KSPCB",02-02-2024 04:00:00,12.889250,74.853000,CO,26,48,30
India,Karnataka,Mangalore,"Kadri, Mangalore - KSPCB",02-02-2024 04:00:00,12.889250,74.853000,OZONE,31,31,31
India,Karnataka,Mysuru,"Hebbal 1st Stage, Mysuru - KSPCB",02-02-2024 04:00:00,12.21041,76.37376,NO2,5,50,23
India,Karnataka,Ramanagara,"Vijay Nagar, Ramanagara - KSPCB",02-02-2024 04:00:00,12.733409,77.298051,SO2,14,26,19
India,Karnataka,Ramanagara,"Vijay Nagar, Ramanagara - KSPCB",02-02-2024 04:00:00,12.733409,77.298051,CO,4,49,27
India,Karnataka,Shivamogga,"Vinoba Nagara, Shivamogga - KSPCB",02-02-2024 04:00:00,13.940000,75.555917,SO2,2,13,8
India,Karnataka,Udupi,"Brahmagiri, Udupi - KSPCB",02-02-2024 04:00:00,13.34194444,74.74694444,SO2,22,25,24
India,Karnataka,Udupi,"Brahmagiri, Udupi - KSPCB",02-02-2024 04:00:00,13.34194444,74.74694444,CO,40,60,45
India,Karnataka,Udupi,"Brahmagiri, Udupi - KSPCB",02-02-2024 04:00:00,13.34194444,74.74694444,OZONE,17,28,20
India,Karnataka,Vijayapura,"Ibrahimpur, Vijayapura - KSPCB",02-02-2024 04:00:00,16.802639,75.722694,PM10,37,40,39
India,Karnataka,Vijayapura,"Ibrahimpur, Vijayapura - KSPCB",02-02-2024 04:00:00,16.802639,75.722694,SO2,2,5,4
India,Karnataka,Vijayapura,"Ibrahimpur, Vijayapura - KSPCB",02-02-2024 04:00:00,16.802639,75.722694,CO,NA,NA,NA
India,Karnataka,Yadgir,"Collector Office, Yadgir - KSPCB",02-02-2024 04:00:00,16.7602,77.1428,NO2,6,10,7
India,Kerala,Eloor,"Udyogamandal, Eloor - Kerala PCB",02-02-2024 04:00:00,10.073232,76.302765,NH3,1,1,1
India,Kerala,Kannur,"Thavakkara, Kannur - Kerala PCB",02-02-2024 04:00:00,11.875000,75.373200,NO2,6,7,6
India,Kerala,Thiruvananthapuram,"Kariavattom, Thiruvananthapuram - Kerala PCB",02-02-2024 04:00:00,8.563700,76.886500,PM2.5,73,82,79
India,Kerala,Thiruvananthapuram,"Plammoodu, Thiruvananthapuram - Kerala PCB",02-02-2024 04:00:00,8.5149093,76.9435879,PM10,36,84,50
India,Kerala,Thiruvananthapuram,"Plammoodu, Thiruvananthapuram - Kerala PCB",02-02-2024 04:00:00,8.5149093,76.9435879,SO2,2,11,8
India,Kerala,Thrissur,"Corporation Ground, Thrissur - Kerala PCB",02-02-2024 04:00:00,10.532400,76.215900,PM2.5,48,55,51
India,Madhya Pradesh,Bhopal,"Idgah Hills, Bhopal - MPPCB",02-02-2024 04:00:00,23.264759,77.381568,NO2,14,54,28
India,Madhya Pradesh,Bhopal,"Paryavaran Parisar, Bhopal - MPPCB",02-02-2024 04:00:00,23.210494,77.425409,NO2,17,85,46
India,Madhya Pradesh,Dewas,"Bhopal Chauraha, Dewas - MPPCB",02-02-2024 04:00:00,22.9682591,76.064118,SO2,27,60,41
India,Madhya Pradesh,Dewas,"Bhopal Chauraha, Dewas - MPPCB",02-02-2024 04:00:00,22.9682591,76.064118,OZONE,8,31,12
India,Madhya Pradesh,Gwalior,"City Center, Gwalior - MPPCB",02-02-2024 04:00:00,26.203442,78.193251,NH3,5,8,7
India,Madhya Pradesh,Gwalior,"Deen Dayal Nagar, Gwalior - MPPCB",02-02-2024 04:00:00,26.259242,78.216432,NO2,18,60,38
India,Madhya Pradesh,Gwalior,"Deen Dayal Nagar, Gwalior - MPPCB",02-02-2024 04:00:00,26.259242,78.216432,NH3,4,9,6
India,Madhya Pradesh,Gwalior,"Deen Dayal Nagar, Gwalior - MPPCB",02-02-2024 04:00:00,26.259242,78.216432,CO,24,78,67
India,Madhya Pradesh,Gwalior,"Maharaj Bada, Gwalior - MPPCB",02-02-2024 04:00:00,26.200388,78.147714,NH3,4,7,6
India,Madhya Pradesh,Indore,"Maguda Nagar, Indore - IMC",02-02-2024 04:00:00,22.7524,75.8872,PM2.5,37,309,120
India,Madhya Pradesh,Indore,"Regional Park, Indore - IMC",02-02-2024 04:00:00,22.6780,75.8559,PM10,NA,NA,NA
India,Madhya Pradesh,Jabalpur,"Govindh Bhavan Colony, Jabalpur - JMC",02-02-2024 04:00:00,23.163174,79.973061,NH3,5,5,5
India,Madhya Pradesh,Jabalpur,"Govindh Bhavan Colony, Jabalpur - JMC",02-02-2024 04:00:00,23.163174,79.973061,CO,22,44,30
India,Madhya Pradesh,Jabalpur,"Marhatal, Jabalpur - MPPCB",02-02-2024 04:00:00,23.168606,79.932247,PM2.5,74,350,203
India,Madhya Pradesh,Jabalpur,"Marhatal, Jabalpur - MPPCB",02-02-2024 04:00:00,23.168606,79.932247,PM10,86,340,165
India,Madhya Pradesh,Jabalpur,"Marhatal, Jabalpur - MPPCB",02-02-2024 04:00:00,23.168606,79.932247,SO2,14,21,18
India,Madhya Pradesh,Jabalpur,"Suhagi, Jabalpur - JMC",02-02-2024 04:00:00,23.218135,79.957770,NH3,3,4,4
India,Madhya Pradesh,Jabalpur,"Suhagi, Jabalpur - JMC",02-02-2024 04:00:00,23.218135,79.957770,CO,37,123,81
India,Madhya Pradesh,Katni,"Gole Bazar, Katni - MPPCB",02-02-2024 04:00:00,23.50016,80.23284,NH3,5,16,8
India,Madhya Pradesh,Katni,"Gole Bazar, Katni - MPPCB",02-02-2024 04:00:00,23.50016,80.23284,OZONE,3,96,10
India,Madhya Pradesh,Maihar,"Sahilara, Maihar - KJS Cements",02-02-2024 04:00:00,24.2613009,80.7231783,NO2,14,14,14
India,Madhya Pradesh,Ratlam,"Shasthri Nagar, Ratlam - IPCA Lab",02-02-2024 04:00:00,23.331731,75.045981,PM10,79,304,147
India,Madhya Pradesh,Sagar,"Civil Lines, Sagar - MPPCB",02-02-2024 04:00:00,23.838586,78.759431,OZONE,38,43,39
India,Madhya Pradesh,Sagar,"Deen Dayal Nagar, Sagar - MPPCB",02-02-2024 04:00:00,23.8640158,78.80289321,NO2,22,24,23
India,Madhya Pradesh,Sagar,"Deen Dayal Nagar, Sagar - MPPCB",02-02-2024 04:00:00,23.8640158,78.80289321,SO2,2,16,8
India,Madhya Pradesh,Singrauli,"Suryakiran Bhawan NCL, Singrauli - MPPCB",02-02-2024 04:00:00,24.108970,82.645580,NH3,2,2,2
India,Madhya Pradesh,Singrauli,"Suryakiran Bhawan NCL, Singrauli - MPPCB",02-02-2024 04:00:00,24.108970,82.645580,SO2,17,130,62
India,Madhya Pradesh,Ujjain,"Mahakaleshwar Temple, Ujjain - MPPCB",02-02-2024 04:00:00,23.182719 ,75.768218 ,PM10,40,143,80
India,Maharashtra,Ahmednagar,"Tarakpur, Ahmednagar - MPCB",02-02-2024 04:00:00,19.10122,74.73339,OZONE,17,169,43
India,Maharashtra,Amravati,"Shri Shivaji Science College, Amaravati - MPCB",02-02-2024 04:00:00,20.939198,77.765701,PM10,82,195,120
India,Maharashtra,Aurangabad,"More Chowk Waluj, Aurangabad - MPCB",02-02-2024 04:00:00,19.8389439,75.244448,SO2,11,13,12
India,Maharashtra,Aurangabad,"Rachnakar Colony, Aurangabad - MPCB",02-02-2024 04:00:00,19.863756,75.321188,PM2.5,219,270,239
India,Maharashtra,Aurangabad,"Rachnakar Colony, Aurangabad - MPCB",02-02-2024 04:00:00,19.863756,75.321188,OZONE,8,108,23
India,Maharashtra,Badlapur,"Katrap, Badlapur - MPCB",02-02-2024 04:00:00,19.16485,73.23409,NH3,2,5,4
India,Maharashtra,Belapur,"CBD Belapur, Belapur - MPCB",02-02-2024 04:00:00,19.0243902,73.0406721,PM2.5,NA,NA,NA
India,Maharashtra,Belapur,"CBD Belapur, Belapur - MPCB",02-02-2024 04:00:00,19.0243902,73.0406721,OZONE,1,12,2
India,Maharashtra,Boisar,"Khaira, Boisar - MPCB",02-02-2024 04:00:00,19.786089,72.757971,OZONE,5,7,6
India,Maharashtra,Chandrapur,"MIDC Khutala, Chandrapur - MPCB",02-02-2024 04:00:00,19.9775302,79.2337086,SO2,NA,NA,NA
India,Maharashtra,Dhule,"Deopur, Dhule - MPCB",02-02-2024 04:00:00,20.918946,74.776388,PM10,75,193,118
India,Maharashtra,Jalgaon,"Prabhat Colony, Jalgaon - MPCB",02-02-2024 04:00:00,21.001264,75.565602,NH3,1,2,1
India,Maharashtra,Jalgaon,"Prabhat Colony, Jalgaon - MPCB",02-02-2024 04:00:00,21.001264,75.565602,SO2,1,20,7
India,Maharashtra,Jalgaon,"Prabhat Colony, Jalgaon - MPCB",02-02-2024 04:00:00,21.001264,75.565602,CO,12,26,18
India,Maharashtra,Kalyan,"Khadakpada, Kalyan - MPCB",02-02-2024 04:00:00,19.25292,73.142019,NO2,16,121,43
India,Maharashtra,Kalyan,"Khadakpada, Kalyan - MPCB",02-02-2024 04:00:00,19.25292,73.142019,CO,9,72,38
India,Maharashtra,Kolhapur,"Shivaji University, Kolhapur - MPCB",02-02-2024 04:00:00,16.6870449,74.2505872,PM2.5,82,129,98
India,Maharashtra,Kolhapur,"Shivaji University, Kolhapur - MPCB",02-02-2024 04:00:00,16.6870449,74.2505872,OZONE,4,72,19
India,Maharashtra,Kolhapur,"Sinchan Bhavan, Kolhapur - MPCB",02-02-2024 04:00:00,16.7143745,74.2426398,NH3,7,8,8
India,Maharashtra,Latur,"Sawe Wadi, Latur - MPCB",02-02-2024 04:00:00,18.39963,76.57452,CO,19,104,39
India,Maharashtra,Mahad,"Kamble Tarf Birwadi, Mahad - MPCB",02-02-2024 04:00:00,18.1023399,73.4783687,PM2.5,54,240,95
India,Maharashtra,Mahad,"Kamble Tarf Birwadi, Mahad - MPCB",02-02-2024 04:00:00,18.1023399,73.4783687,SO2,NA,NA,NA
India,Maharashtra,Malegaon,"Mahesh Nagar, Malegaon - MPCB",02-02-2024 04:00:00,20.555712,74.529236,PM2.5,53,327,120
India,Maharashtra,Malegaon,"Mahesh Nagar, Malegaon - MPCB",02-02-2024 04:00:00,20.555712,74.529236,PM10,68,362,159
India,Maharashtra,Mira-Bhayandar,"Bhayandar West, Mira-Bhayandar - MPCB",02-02-2024 04:00:00,19.296481,72.840923,CO,10,58,26
India,Maharashtra,Mumbai,"Bandra Kurla Complex, Mumbai - MPCB",02-02-2024 04:00:00,19.065931,72.862131,SO2,1,7,3
India,Maharashtra,Mumbai,"Bandra Kurla Complex, Mumbai - MPCB",02-02-2024 04:00:00,19.065931,72.862131,OZONE,1,21,3
India,Maharashtra,Mumbai,"Borivali East, Mumbai - IITM",02-02-2024 04:00:00,19.23241,72.86895,PM10,40,168,77
India,Maharashtra,Mumbai,"Borivali East, Mumbai - MPCB",02-02-2024 04:00:00,19.2243333,72.8658113,PM2.5,15,50,29
India,Maharashtra,Mumbai,"Borivali East, Mumbai - MPCB",02-02-2024 04:00:00,19.2243333,72.8658113,NH3,1,2,1
India,Maharashtra,Mumbai,"Borivali East, Mumbai - MPCB",02-02-2024 04:00:00,19.2243333,72.8658113,SO2,6,8,7
India,Maharashtra,Mumbai,"Byculla, Mumbai - BMC",02-02-2024 04:00:00,18.9767,72.8380,NO2,19,73,37
India,Maharashtra,Mumbai,"Chhatrapati Shivaji Intl. Airport (T2), Mumbai - MPCB",02-02-2024 04:00:00,19.10078,72.87462,NO2,NA,NA,NA
India,Maharashtra,Mumbai,"Chhatrapati Shivaji Intl. Airport (T2), Mumbai - MPCB",02-02-2024 04:00:00,19.10078,72.87462,SO2,21,28,24
India,Maharashtra,Mumbai,"Chhatrapati Shivaji Intl. Airport (T2), Mumbai - MPCB",02-02-2024 04:00:00,19.10078,72.87462,OZONE,1,6,1
India,Maharashtra,Mumbai,"Colaba, Mumbai - MPCB",02-02-2024 04:00:00,18.910000,72.820000,PM2.5,9,86,35
India,Maharashtra,Mumbai,"Ghatkopar, Mumbai - BMC",02-02-2024 04:00:00,19.083694,72.920967,PM2.5,18,111,54
India,Maharashtra,Mumbai,"Ghatkopar, Mumbai - BMC",02-02-2024 04:00:00,19.083694,72.920967,PM10,40,103,71
India,Maharashtra,Mumbai,"Ghatkopar, Mumbai - BMC",02-02-2024 04:00:00,19.083694,72.920967,OZONE,3,34,4
India,Maharashtra,Mumbai,"Kandivali East, Mumbai - MPCB",02-02-2024 04:00:00,19.205800,72.868200,NH3,7,10,8
India,Maharashtra,Mumbai,"Kandivali West, Mumbai - BMC",02-02-2024 04:00:00,19.215859,72.831718,PM2.5,18,165,56
India,Maharashtra,Mumbai,"Kandivali West, Mumbai - BMC",02-02-2024 04:00:00,19.215859,72.831718,NH3,1,4,3
India,Maharashtra,Mumbai,"Kandivali West, Mumbai - BMC",02-02-2024 04:00:00,19.215859,72.831718,OZONE,1,15,4
India,Maharashtra,Mumbai,"Kherwadi_Bandra East, Mumbai - MPCB",02-02-2024 04:00:00,19.0632143,72.8456324,NH3,4,7,5
India,Maharashtra,Mumbai,"Khindipada-Bhandup West, Mumbai - IITM",02-02-2024 04:00:00,19.1653323,72.922099,CO,NA,NA,NA
India,Maharashtra,Mumbai,"Kurla, Mumbai - MPCB",02-02-2024 04:00:00,19.0863,72.8888,PM2.5,30,137,69
India,Maharashtra,Mumbai,"Kurla, Mumbai - MPCB",02-02-2024 04:00:00,19.0863,72.8888,NH3,4,5,4
India,Maharashtra,Mumbai,"Mindspace-Malad West, Mumbai - MPCB",02-02-2024 04:00:00,19.1878657,72.8304069,PM2.5,31,127,59
India,Maharashtra,Mumbai,"Mindspace-Malad West, Mumbai - MPCB",02-02-2024 04:00:00,19.1878657,72.8304069,OZONE,5,27,7
India,Maharashtra,Mumbai,"Mulund West, Mumbai - MPCB",02-02-2024 04:00:00,19.1750,72.9419,OZONE,7,7,7
India,Maharashtra,Mumbai,"Navy Nagar-Colaba, Mumbai - IITM",02-02-2024 04:00:00,18.897756,72.813320,NH3,14,19,17
India,Maharashtra,Mumbai,"Navy Nagar-Colaba, Mumbai - IITM",02-02-2024 04:00:00,18.897756,72.813320,SO2,1,34,10
India,Maharashtra,Mumbai,"Navy Nagar-Colaba, Mumbai - IITM",02-02-2024 04:00:00,18.897756,72.813320,OZONE,3,55,20
India,Maharashtra,Mumbai,"Powai, Mumbai - MPCB",02-02-2024 04:00:00,19.137500,72.915056,NH3,1,1,1
India,Maharashtra,Mumbai,"Shivaji Nagar, Mumbai - BMC",02-02-2024 04:00:00,19.060498,72.923356,NH3,4,9,6
India,Maharashtra,Mumbai,"Siddharth Nagar-Worli, Mumbai - IITM",02-02-2024 04:00:00,19.000083,72.813993,PM10,NA,NA,NA
India,Maharashtra,Mumbai,"Siddharth Nagar-Worli, Mumbai - IITM",02-02-2024 04:00:00,19.000083,72.813993,OZONE,NA,NA,NA
India,Maharashtra,Mumbai,"Sion, Mumbai - MPCB",02-02-2024 04:00:00,19.047000,72.874600,PM10,36,111,67
India,Maharashtra,Mumbai,"Sion, Mumbai - MPCB",02-02-2024 04:00:00,19.047000,72.874600,CO,2,38,22
India,Maharashtra,Mumbai,"Sion, Mumbai - MPCB",02-02-2024 04:00:00,19.047000,72.874600,OZONE,11,14,12
India,Maharashtra,Mumbai,"Vile Parle West, Mumbai - MPCB",02-02-2024 04:00:00,19.10861,72.83622,PM2.5,9,73,32
India,Maharashtra,Nagpur,"Ambazari, Nagpur - MPCB",02-02-2024 04:00:00,21.121801,79.04952,OZONE,9,154,37
India,Maharashtra,Nagpur,"Mahal, Nagpur - MPCB",02-02-2024 04:00:00,21.14472,79.107595,PM2.5,92,243,164
India,Maharashtra,Nagpur,"Opp GPO Civil Lines, Nagpur - MPCB",02-02-2024 04:00:00,21.152875,79.0517531,OZONE,3,143,18
India,Maharashtra,Nagpur,"Ram Nagar, Nagpur - MPCB",02-02-2024 04:00:00,21.143383,79.048912,PM2.5,80,233,162
India,Maharashtra,Nagpur,"Ram Nagar, Nagpur - MPCB",02-02-2024 04:00:00,21.143383,79.048912,SO2,14,35,25
India,Maharashtra,Nanded,"Sneh Nagar, Nanded - MPCB",02-02-2024 04:00:00,19.173852,77.296291,NH3,2,2,2
India,Maharashtra,Nanded,"Sneh Nagar, Nanded - MPCB",02-02-2024 04:00:00,19.173852,77.296291,CO,36,43,39
India,Maharashtra,Nashik,"Gangapur Road, Nashik - MPCB",02-02-2024 04:00:00,20.0073285,73.7762427,PM10,28,170,90
India,Maharashtra,Nashik,"Gangapur Road, Nashik - MPCB",02-02-2024 04:00:00,20.0073285,73.7762427,OZONE,1,42,11
India,Maharashtra,Nashik,"MIDC Ambad, Nashik - MPCB",02-02-2024 04:00:00,19.950220,73.731480,PM2.5,46,73,59
India,Maharashtra,Nashik,"MIDC Ambad, Nashik - MPCB",02-02-2024 04:00:00,19.950220,73.731480,PM10,82,137,111
India,Maharashtra,Nashik,"MIDC Ambad, Nashik - MPCB",02-02-2024 04:00:00,19.950220,73.731480,NH3,2,2,2
India,Maharashtra,Nashik,"MIDC Ambad, Nashik - MPCB",02-02-2024 04:00:00,19.950220,73.731480,SO2,9,15,11
India,Maharashtra,Nashik,"Pandav Nagari, Nashik - MPCB",02-02-2024 04:00:00,19.9591346,73.7788008,NO2,21,69,37
India,Maharashtra,Nashik,"Pandav Nagari, Nashik - MPCB",02-02-2024 04:00:00,19.9591346,73.7788008,CO,25,88,32
India,Maharashtra,Navi Mumbai,"Kopripada-Vashi, Navi Mumbai - MPCB",02-02-2024 04:00:00,19.090337,73.014232,OZONE,NA,NA,NA
India,Maharashtra,Navi Mumbai,"Mahape, Navi Mumbai - MPCB",02-02-2024 04:00:00,19.1135051,73.008978,NO2,37,38,38
India,Maharashtra,Navi Mumbai,"Mahape, Navi Mumbai - MPCB",02-02-2024 04:00:00,19.1135051,73.008978,NH3,3,3,3
India,Maharashtra,Navi Mumbai,"Nerul, Navi Mumbai - MPCB",02-02-2024 04:00:00,19.008751,73.016620,PM2.5,21,186,61
India,Maharashtra,Navi Mumbai,"Nerul, Navi Mumbai - MPCB",02-02-2024 04:00:00,19.008751,73.016620,SO2,18,22,18
India,Maharashtra,Navi Mumbai,"Sanpada, Navi Mumbai - MPCB",02-02-2024 04:00:00,19.0575752,73.0151367,PM2.5,19,96,42
India,Maharashtra,Navi Mumbai,"Sanpada, Navi Mumbai - MPCB",02-02-2024 04:00:00,19.0575752,73.0151367,NO2,2,40,13
India,Maharashtra,Navi Mumbai,"Sanpada, Navi Mumbai - MPCB",02-02-2024 04:00:00,19.0575752,73.0151367,SO2,1,100,13
India,Maharashtra,Navi Mumbai,"Sanpada, Navi Mumbai - MPCB",02-02-2024 04:00:00,19.0575752,73.0151367,CO,10,80,51
India,Maharashtra,Navi Mumbai,"Sector-2E Kalamboli, Navi Mumbai - MPCB",02-02-2024 04:00:00,19.02579,73.10297,PM2.5,NA,NA,NA
India,Maharashtra,Navi Mumbai,"Sector-2E Kalamboli, Navi Mumbai - MPCB",02-02-2024 04:00:00,19.02579,73.10297,OZONE,1,59,1
India,Maharashtra,Navi Mumbai,"Tondare-Taloja, Navi Mumbai - MPCB",02-02-2024 04:00:00,19.0630,73.1209,PM10,62,239,120
India,Maharashtra,Pimpri-Chinchwad,"Gavalinagar, Pimpri Chinchwad - MPCB",02-02-2024 04:00:00,18.63673,73.82487,PM2.5,66,137,89
India,Maharashtra,Pimpri-Chinchwad,"Gavalinagar, Pimpri Chinchwad - MPCB",02-02-2024 04:00:00,18.63673,73.82487,NH3,NA,NA,NA
India,Maharashtra,Pimpri-Chinchwad,"Park Street Wakad, Pimpri Chinchwad - MPCB",02-02-2024 04:00:00,18.59051,73.77946,PM2.5,83,129,110
India,Maharashtra,Pimpri-Chinchwad,"Thergaon, Pimpri Chinchwad - MPCB",02-02-2024 04:00:00,18.616318,73.765797,PM2.5,93,325,153
India,Maharashtra,Pune,"Alandi, Pune - IITM",02-02-2024 04:00:00,18.675076,73.892743,NO2,12,28,18
India,Maharashtra,Pune,"Alandi, Pune - IITM",02-02-2024 04:00:00,18.675076,73.892743,OZONE,1,21,8
India,Maharashtra,Pune,"Bhosari, Pune - IITM",02-02-2024 04:00:00,18.640051,73.848956,PM2.5,25,116,57
India,Maharashtra,Pune,"Karve Road, Pune - MPCB",02-02-2024 04:00:00,18.5011743,73.8165527,SO2,18,23,22
India,Maharashtra,Pune,"Karve Road, Pune - MPCB",02-02-2024 04:00:00,18.5011743,73.8165527,OZONE,5,6,5
India,Maharashtra,Pune,"Katraj Dairy, Pune - MPCB",02-02-2024 04:00:00,18.454450,73.854155,PM2.5,39,111,60
India,Maharashtra,Pune,"Katraj Dairy, Pune - MPCB",02-02-2024 04:00:00,18.454450,73.854155,NO2,23,50,37
India,Maharashtra,Pune,"Katraj Dairy, Pune - MPCB",02-02-2024 04:00:00,18.454450,73.854155,CO,33,68,57
India,Maharashtra,Pune,"Revenue Colony-Shivajinagar, Pune - IITM",02-02-2024 04:00:00,18.530085,73.849598,CO,47,112,106
India,Maharashtra,Pune,"Revenue Colony-Shivajinagar, Pune - IITM",02-02-2024 04:00:00,18.530085,73.849598,OZONE,2,46,13
India,Maharashtra,Pune,"Savitribai Phule Pune University, Pune - MPCB",02-02-2024 04:00:00,18.547056,73.826908,PM10,NA,NA,NA
India,Maharashtra,Sangli,"Vijay Nagar, Sangli - MPCB",02-02-2024 04:00:00, 16.5038,74.3623,CO,10,101,47
India,Maharashtra,Solapur,"Dnyaneshwar Nagar, Solapur - MPCB",02-02-2024 04:00:00,17.6336264,75.9132495,SO2,4,14,8
India,Maharashtra,Solapur,"Dnyaneshwar Nagar, Solapur - MPCB",02-02-2024 04:00:00,17.6336264,75.9132495,OZONE,20,130,48
India,Maharashtra,Thane,"Kasarvadavali, Thane - MPCB",02-02-2024 04:00:00,19.26777,72.97182,PM10,81,194,126
India,Maharashtra,Ulhasnagar,"Sidhi Vinayak Nagar, Ulhasnagar - MPCB",02-02-2024 04:00:00,19.235581,73.159121,PM2.5,40,299,135
India,Maharashtra,Ulhasnagar,"Sidhi Vinayak Nagar, Ulhasnagar - MPCB",02-02-2024 04:00:00,19.235581,73.159121,PM10,59,186,130
India,Maharashtra,Ulhasnagar,"Sidhi Vinayak Nagar, Ulhasnagar - MPCB",02-02-2024 04:00:00,19.235581,73.159121,NO2,8,51,27
India,Maharashtra,Ulhasnagar,"Sidhi Vinayak Nagar, Ulhasnagar - MPCB",02-02-2024 04:00:00,19.235581,73.159121,NH3,1,4,2
India,Maharashtra,Ulhasnagar,"Sidhi Vinayak Nagar, Ulhasnagar - MPCB",02-02-2024 04:00:00,19.235581,73.159121,OZONE,1,77,1
India,Maharashtra,Virar,"Bolinj, Virar - MPCB",02-02-2024 04:00:00,19.4458210,72.7988231,PM2.5,87,192,133
India,Maharashtra,Virar,"Bolinj, Virar - MPCB",02-02-2024 04:00:00,19.4458210,72.7988231,NH3,4,7,5
India,Manipur,Imphal,"DM College of Science, Imphal - Manipur PCB",02-02-2024 04:00:00,24.8207389,93.9423085,PM2.5,42,180,93
India,Manipur,Imphal,"DM College of Science, Imphal - Manipur PCB",02-02-2024 04:00:00,24.8207389,93.9423085,NH3,2,2,2
India,Manipur,Imphal,"DM College of Science, Imphal - Manipur PCB",02-02-2024 04:00:00,24.8207389,93.9423085,CO,6,6,6
India,Meghalaya,Shillong,"Lumpyngngad, Shillong - Meghalaya PCB",02-02-2024 04:00:00,25.5586,91.8985,NH3,1,1,1
India,Mizoram,Aizawl,"Sikulpuikawn, Aizawl - Mizoram PCB",02-02-2024 04:00:00,23.7176342,92.7192841,OZONE,18,32,26
India,Nagaland,Kohima,"PWD Juction, Kohima - NPCB",02-02-2024 04:00:00,25.6635413,94.0989878,CO,14,43,31
India,Odisha,Angul,"Hakimapada, Angul - OSPCB",02-02-2024 04:00:00,20.832874,85.104082,NO2,9,65,25
India,Odisha,Angul,"Hakimapada, Angul - OSPCB",02-02-2024 04:00:00,20.832874,85.104082,OZONE,7,126,28
India,Odisha,Balasore,"Kalidaspur, Balasore - OSPCB",02-02-2024 04:00:00,21.51161,86.89088,PM2.5,47,315,124
India,Odisha,Barbil,"Forest Office, Barbil - OSPCB",02-02-2024 04:00:00,22.1166054,85.3945546,SO2,5,37,15
India,Odisha,Baripada,"Meher Colony, Baripada - OSPCB",02-02-2024 04:00:00,21.941841,86.728318,PM10,11,174,147
India,Odisha,Baripada,"Meher Colony, Baripada - OSPCB",02-02-2024 04:00:00,21.941841,86.728318,NO2,1,13,3
India,Odisha,Baripada,"Meher Colony, Baripada - OSPCB",02-02-2024 04:00:00,21.941841,86.728318,CO,38,56,49
India,Odisha,Bhubaneswar,"Lingraj Mandir, Bhubaneswar - OSPCB",02-02-2024 04:00:00,20.240790,85.836784,NH3,3,5,4
India,Odisha,Bhubaneswar,"Lingraj Mandir, Bhubaneswar - OSPCB",02-02-2024 04:00:00,20.240790,85.836784,CO,40,80,58
India,Odisha,Bhubaneswar,"Patia, Bhubaneswar - OSPCB",02-02-2024 04:00:00,20.34652,85.81630,PM2.5,27,87,51
India,Odisha,Bhubaneswar,"Patia, Bhubaneswar - OSPCB",02-02-2024 04:00:00,20.34652,85.81630,NO2,9,46,22
India,Odisha,Bileipada,"Tata Township, Bileipada - OSPCB",02-02-2024 04:00:00,22.06156703,85.47409613,SO2,43,78,50
India,Odisha,Byasanagar,"Ferro Chrome Colony, Byasanagar - OSPCB",02-02-2024 04:00:00,20.94185,86.11510,PM10,42,137,84
India,Odisha,Byasanagar,"Ferro Chrome Colony, Byasanagar - OSPCB",02-02-2024 04:00:00,20.94185,86.11510,NH3,2,4,3
India,Odisha,Cuttack,"CDA Area, Cuttack - OSPCB",02-02-2024 04:00:00,20.48891     ,85.84768     ,CO,23,58,40
India,Odisha,Keonjhar,"Jagamohanpur, Keonjhar - OSPCB",02-02-2024 04:00:00,21.643900,85.599355,PM2.5,27,276,162
India,Odisha,Nayagarh,"Dabuna, Nayagarh - OSPCB",02-02-2024 04:00:00,21.847279,85.416905,PM2.5,87,275,174
India,Odisha,Nayagarh,"Dabuna, Nayagarh - OSPCB",02-02-2024 04:00:00,21.847279,85.416905,PM10,82,175,117
India,Odisha,Nayagarh,"Dabuna, Nayagarh - OSPCB",02-02-2024 04:00:00,21.847279,85.416905,NO2,29,33,31
India,Odisha,Nayagarh,"Dabuna, Nayagarh - OSPCB",02-02-2024 04:00:00,21.847279,85.416905,CO,17,30,27
India,Odisha,Rairangpur,"Divisional Forest Office, Rairangpur - OSPCB",02-02-2024 04:00:00,22.265816,86.174829,PM2.5,93,175,131
India,Odisha,Rourkela,"Fertilizer Township, Rourkela - OSPCB",02-02-2024 04:00:00,22.18972222,84.86277778,PM10,116,199,168
India,Odisha,Rourkela,"Raghunathpali, Rourkela - OSPCB",02-02-2024 04:00:00,22.220833,84.809444,NH3,1,3,2
India,Odisha,Suakati,"OMC Colony, Suakati - OSPCB",02-02-2024 04:00:00,21.606865,85.510538,PM10,27,156,120
India,Odisha,Talcher,"Talcher Coalfields,Talcher - OSPCB",02-02-2024 04:00:00,20.9360711,85.1707021,CO,2,63,16
India,Odisha,Tensa,"Barsua Iron Ore Mines, Tensa - OSPCB",02-02-2024 04:00:00,21.869985,85.167016,PM2.5,49,98,72
India,Odisha,Tensa,"Barsua Iron Ore Mines, Tensa - OSPCB",02-02-2024 04:00:00,21.869985,85.167016,CO,18,46,34
India,Puducherry,Puducherry,"Jawahar Nagar, Puducherry - PPCC",02-02-2024 04:00:00,11.9309,79.8027,PM10,7,109,33
India,Punjab,Amritsar,"Golden Temple, Amritsar - PPCB",02-02-2024 04:00:00,31.620000,74.876512,SO2,12,33,21
India,Punjab,Amritsar,"Golden Temple, Amritsar - PPCB",02-02-2024 04:00:00,31.620000,74.876512,CO,19,52,30
India,Punjab,Amritsar,"Golden Temple, Amritsar - PPCB",02-02-2024 04:00:00,31.620000,74.876512,OZONE,25,33,29
India,Punjab,Jalandhar,"Civil Line, Jalandhar - PPCB",02-02-2024 04:00:00,31.321907,75.578914,OZONE,1,42,12
India,Punjab,Khanna,"Kalal Majra, Khanna - PPCB",02-02-2024 04:00:00,30.736056 ,76.209694,SO2,13,59,26
India,Punjab,Khanna,"Kalal Majra, Khanna - PPCB",02-02-2024 04:00:00,30.736056 ,76.209694,CO,2,27,17
India,Punjab,Ludhiana,"Punjab Agricultural University, Ludhiana - PPCB",02-02-2024 04:00:00,30.9028,75.8086,CO,5,132,89
India,Punjab,Ludhiana,"Punjab Agricultural University, Ludhiana - PPCB",02-02-2024 04:00:00,30.9028,75.8086,OZONE,11,26,16
India,Punjab,Mandi Gobindgarh,"RIMT University, Mandi Gobindgarh - PPCB",02-02-2024 04:00:00,30.649961,76.331442,SO2,4,22,10
India,Punjab,Mandi Gobindgarh,"RIMT University, Mandi Gobindgarh - PPCB",02-02-2024 04:00:00,30.649961,76.331442,OZONE,32,33,33
India,Punjab,Patiala,"Model Town, Patiala - PPCB",02-02-2024 04:00:00,30.349388,76.366642,NO2,18,28,23
India,Punjab,Patiala,"Model Town, Patiala - PPCB",02-02-2024 04:00:00,30.349388,76.366642,CO,20,57,39
India,Rajasthan,Ajmer,"Civil Lines,  Ajmer - RSPCB",02-02-2024 04:00:00,26.470859,74.646594,PM2.5,28,161,76
India,Rajasthan,Ajmer,"Civil Lines,  Ajmer - RSPCB",02-02-2024 04:00:00,26.470859,74.646594,PM10,36,140,85
India,Rajasthan,Alwar,"Moti Doongri, Alwar - RSPCB",02-02-2024 04:00:00,27.554793,76.611536,PM10,74,152,95
India,Rajasthan,Alwar,"Moti Doongri, Alwar - RSPCB",02-02-2024 04:00:00,27.554793,76.611536,NO2,48,62,53
India,Rajasthan,Alwar,"Moti Doongri, Alwar - RSPCB",02-02-2024 04:00:00,27.554793,76.611536,SO2,15,56,32
India,Rajasthan,Banswara,"Rati Talai, Banswara - RSPCB",02-02-2024 04:00:00,23.555190,74.440010,SO2,7,34,16
India,Rajasthan,Baran,"Bamboliya, Baran - RSPCB",02-02-2024 04:00:00,25.106006,76.469948,SO2,7,19,11
India,Rajasthan,Barmer,"Railway Colony, Barmer - RSPCB",02-02-2024 04:00:00,25.747299,71.393989,PM10,55,141,95
India,Rajasthan,Barmer,"Railway Colony, Barmer - RSPCB",02-02-2024 04:00:00,25.747299,71.393989,NH3,7,14,9
India,Rajasthan,Bharatpur,"Krishna Nagar, Bharatpur - RSPCB",02-02-2024 04:00:00,27.215415,77.50873,PM2.5,20,91,64
India,Rajasthan,Bhilwara,"Pratap Nagar, Bhilwara - RSPCB",02-02-2024 04:00:00,25.339605,74.618883,PM10,26,136,86
India,Rajasthan,Bhiwadi,"RIICO Ind. Area III, Bhiwadi - RSPCB",02-02-2024 04:00:00,28.194909,76.862296,SO2,NA,NA,NA
India,Rajasthan,Bundi,"New Colony, Bundi - RSPCB",02-02-2024 04:00:00,25.435774,75.644272,NO2,13,95,39
India,Rajasthan,Bundi,"New Colony, Bundi - RSPCB",02-02-2024 04:00:00,25.435774,75.644272,CO,2,96,57
India,Rajasthan,Chittorgarh,"Shastri Nagar, Chittorgarh - RSPCB",02-02-2024 04:00:00,24.892047,74.623527,NO2,13,98,45
India,Rajasthan,Chittorgarh,"Shastri Nagar, Chittorgarh - RSPCB",02-02-2024 04:00:00,24.892047,74.623527,CO,4,102,62
India,Rajasthan,Churu,"Subash Chowk, Churu - RSPCB",02-02-2024 04:00:00,28.296139,74.961696,CO,34,73,62
India,Rajasthan,Dausa,"Khatikan Mohalla, Dausa - RSPCB",02-02-2024 04:00:00,26.895552,76.334753,OZONE,51,131,62
India,Rajasthan,Hanumangarh,"Housing Board, Hanumangarh - RSPCB",02-02-2024 04:00:00,29.610750,74.283608,NO2,20,95,46
India,Rajasthan,Jaipur,"Mansarovar Sector-12, Jaipur - RSPCB",02-02-2024 04:00:00,26.843698,75.766894,PM10,156,333,197
India,Rajasthan,Jaipur,"Police Commissionerate, Jaipur - RSPCB",02-02-2024 04:00:00,26.9164092,75.7994901,PM2.5,44,383,173
India,Rajasthan,Jaipur,"Police Commissionerate, Jaipur - RSPCB",02-02-2024 04:00:00,26.9164092,75.7994901,SO2,13,30,18
India,Rajasthan,Jaipur,"Sector-2 Murlipura, Jaipur - RSPCB",02-02-2024 04:00:00,26.960669,75.771817,PM2.5,NA,NA,NA
India,Rajasthan,Jaipur,"Sector-2 Murlipura, Jaipur - RSPCB",02-02-2024 04:00:00,26.960669,75.771817,SO2,5,21,8
India,Rajasthan,Jaipur,"Sector-2 Murlipura, Jaipur - RSPCB",02-02-2024 04:00:00,26.960669,75.771817,CO,2,104,44
India,Rajasthan,Jaisalmer,"Sadar Bazar, Jaisalmer - RSPCB",02-02-2024 04:00:00,26.912329,70.909168,NO2,8,116,43
India,Rajasthan,Jaisalmer,"Sadar Bazar, Jaisalmer - RSPCB",02-02-2024 04:00:00,26.912329,70.909168,CO,10,108,49
India,Rajasthan,Jalore,"Mudtra Sili, Jalore - RSPCB",02-02-2024 04:00:00,25.344694,72.626208,NO2,3,107,45
India,Rajasthan,Jalore,"Mudtra Sili, Jalore - RSPCB",02-02-2024 04:00:00,25.344694,72.626208,NH3,4,8,6
India,Rajasthan,Jalore,"Mudtra Sili, Jalore - RSPCB",02-02-2024 04:00:00,25.344694,72.626208,OZONE,6,93,20
India,Rajasthan,Jhunjhunu,"Indra Nagar, Jhunjhunu - RSPCB",02-02-2024 04:00:00,28.108988,75.386577,NH3,16,31,22
India,Rajasthan,Jhunjhunu,"Indra Nagar, Jhunjhunu - RSPCB",02-02-2024 04:00:00,28.108988,75.386577,SO2,1,7,3
India,Rajasthan,Jodhpur,"Collectorate, Jodhpur - RSPCB",02-02-2024 04:00:00,26.268249,73.0193853,PM10,18,181,120
India,Rajasthan,Jodhpur,"Collectorate, Jodhpur - RSPCB",02-02-2024 04:00:00,26.268249,73.0193853,NO2,22,42,31
India,Rajasthan,Jodhpur,"Collectorate, Jodhpur - RSPCB",02-02-2024 04:00:00,26.268249,73.0193853,CO,24,90,56
India,Rajasthan,Jodhpur,"Collectorate, Jodhpur - RSPCB",02-02-2024 04:00:00,26.268249,73.0193853,OZONE,34,112,62
India,Rajasthan,Jodhpur,"Digari Kalan, Jodhpur - RSPCB",02-02-2024 04:00:00,26.295810,73.082283,PM10,40,141,98
India,Rajasthan,Jodhpur,"Mandor, Jodhpur - RSPCB",02-02-2024 04:00:00,26.358805,73.047444,NH3,4,11,7
India,Rajasthan,Kota,"Dhanmandi, Kota - RSPCB",02-02-2024 04:00:00,25.164090,75.858137,NH3,4,6,5
India,Rajasthan,Kota,"Dhanmandi, Kota - RSPCB",02-02-2024 04:00:00,25.164090,75.858137,CO,18,74,50
India,Rajasthan,Kota,"Nayapura, Kota - RSPCB",02-02-2024 04:00:00,25.196024,75.855668,PM2.5,27,204,95
India,Rajasthan,Kota,"Nayapura, Kota - RSPCB",02-02-2024 04:00:00,25.196024,75.855668,CO,14,26,16
India,Rajasthan,Nagaur,"Karni Colony, Nagaur - RSPCB",02-02-2024 04:00:00,27.213494,73.734444,NO2,13,43,21
India,Rajasthan,Nagaur,"Karni Colony, Nagaur - RSPCB",02-02-2024 04:00:00,27.213494,73.734444,CO,19,45,40
India,Rajasthan,Nagaur,"Karni Colony, Nagaur - RSPCB",02-02-2024 04:00:00,27.213494,73.734444,OZONE,30,65,60
India,Rajasthan,Pali,"Indira Colony Vistar, Pali - RSPCB",02-02-2024 04:00:00,25.771061, 73.340227,PM10,59,193,112
India,Rajasthan,Pratapgarh,"Pragati Nagar, Pratapgarh - RSPCB",02-02-2024 04:00:00,24.041198,74.780702,PM10,50,296,113
India,Rajasthan,Pratapgarh,"Pragati Nagar, Pratapgarh - RSPCB",02-02-2024 04:00:00,24.041198,74.780702,NH3,6,10,8
India,Rajasthan,Pratapgarh,"Pragati Nagar, Pratapgarh - RSPCB",02-02-2024 04:00:00,24.041198,74.780702,OZONE,2,73,19
India,Rajasthan,Rajsamand,"Dhoinda, Rajsamand - RSPCB",02-02-2024 04:00:00,25.036360,73.883502,PM10,28,131,52
India,Rajasthan,Rajsamand,"Dhoinda, Rajsamand - RSPCB",02-02-2024 04:00:00,25.036360,73.883502,NH3,2,9,4
India,Rajasthan,Rajsamand,"Dhoinda, Rajsamand - RSPCB",02-02-2024 04:00:00,25.036360,73.883502,OZONE,5,39,8
India,Rajasthan,Sawai Madhopur,"Sahu Nagar, Sawai Madhopur - RSPCB",02-02-2024 04:00:00,26.031443,76.359327,NH3,2,25,11
India,Rajasthan,Sikar,"Radhakishan Pura, Sikar - RSPCB",02-02-2024 04:00:00,27.608912,75.153302,NH3,5,12,9
India,Rajasthan,Sikar,"Radhakishan Pura, Sikar - RSPCB",02-02-2024 04:00:00,27.608912,75.153302,SO2,3,7,4
India,Rajasthan,Sirohi,"Vedhaynath Colony, Sirohi - RSPCB",02-02-2024 04:00:00,24.885261,72.857549,NO2,8,105,40
India,Rajasthan,Sri Ganganagar,"Old City, Sri Ganganagar - RSPCB",02-02-2024 04:00:00,29.931624,73.864511,NO2,16,107,50
India,Rajasthan,Sri Ganganagar,"Old City, Sri Ganganagar - RSPCB",02-02-2024 04:00:00,29.931624,73.864511,SO2,3,8,5
India,Rajasthan,Sri Ganganagar,"Old City, Sri Ganganagar - RSPCB",02-02-2024 04:00:00,29.931624,73.864511,OZONE,4,72,12
India,Rajasthan,Tonk,"Shastri Nagar, Tonk - RSPCB",02-02-2024 04:00:00,26.159933,75.780517,PM2.5,92,347,236
India,Rajasthan,Tonk,"Shastri Nagar, Tonk - RSPCB",02-02-2024 04:00:00,26.159933,75.780517,PM10,104,303,171
India,Rajasthan,Tonk,"Shastri Nagar, Tonk - RSPCB",02-02-2024 04:00:00,26.159933,75.780517,SO2,2,7,4
India,Rajasthan,Tonk,"Shastri Nagar, Tonk - RSPCB",02-02-2024 04:00:00,26.159933,75.780517,OZONE,16,78,32
India,Sikkim,Gangtok,"Zero Point GICI, Gangtok - SSPCB",02-02-2024 04:00:00,27.338530,88.614099,NH3,1,1,1
India,TamilNadu,Ariyalur,"Keelapalur, Ariyalur - TNPCB",02-02-2024 04:00:00,11.06825,79.07033,PM2.5,12,33,23
India,TamilNadu,Ariyalur,"Keelapalur, Ariyalur - TNPCB",02-02-2024 04:00:00,11.06825,79.07033,PM10,14,41,27
India,TamilNadu,Chennai,"Alandur Bus Depot, Chennai - CPCB",02-02-2024 04:00:00,12.9099161,80.1076538,PM10,NA,NA,NA
India,TamilNadu,Chennai,"Arumbakkam, Chennai - TNPCB",02-02-2024 04:00:00,13.0664,80.2112 ,NO2,6,39,18
India,TamilNadu,Chennai,"Gandhi Nagar_Ennore, Chennai - TNPCB",02-02-2024 04:00:00,13.218341,80.32027,OZONE,2,3,2
India,TamilNadu,Chennai,"Kodungaiyur, Chennai - TNPCB",02-02-2024 04:00:00,13.1278,80.2642,NO2,6,25,12
India,TamilNadu,Chennai,"Kodungaiyur, Chennai - TNPCB",02-02-2024 04:00:00,13.1278,80.2642,SO2,2,11,5
India,TamilNadu,Chennai,"Manali, Chennai - CPCB",02-02-2024 04:00:00,13.164544,80.26285,SO2,2,9,5
India,TamilNadu,Chennai,"Manali, Chennai - CPCB",02-02-2024 04:00:00,13.164544,80.26285,CO,40,96,85
India,TamilNadu,Chennai,"Perungudi, Chennai - TNPCB",02-02-2024 04:00:00,12.9533,80.2357,CO,14,46,26
India,TamilNadu,Chennai,"Royapuram, Chennai - TNPCB",02-02-2024 04:00:00,13.1036,80.2909,PM10,11,135,29
India,TamilNadu,Chennai,"Royapuram, Chennai - TNPCB",02-02-2024 04:00:00,13.1036,80.2909,CO,16,56,20
India,TamilNadu,Chennai,"Royapuram, Chennai - TNPCB",02-02-2024 04:00:00,13.1036,80.2909,OZONE,9,12,9
India,TamilNadu,Chennai,"Velachery Res. Area, Chennai - CPCB",02-02-2024 04:00:00,13.0052189,80.2398125,NH3,6,11,7
India,TamilNadu,Chennai,"Velachery Res. Area, Chennai - CPCB",02-02-2024 04:00:00,13.0052189,80.2398125,SO2,10,11,11
India,TamilNadu,Chennai,"Velachery Res. Area, Chennai - CPCB",02-02-2024 04:00:00,13.0052189,80.2398125,OZONE,7,20,16
India,TamilNadu,Coimbatore,"PSG College of Arts and Science, Coimbatore - TNPCB",02-02-2024 04:00:00,11.0328,77.0349,CO,5,5,5
India,TamilNadu,Coimbatore,"PSG College of Arts and Science, Coimbatore - TNPCB",02-02-2024 04:00:00,11.0328,77.0349,OZONE,3,5,4
India,TamilNadu,Cuddalore,"Semmandalam, Cuddalore - TNPCB",02-02-2024 04:00:00,11.7637683,79.7499835,PM2.5,5,85,32
India,TamilNadu,Kanchipuram,"Kilambi, Kanchipuram - TNPCB",02-02-2024 04:00:00,12.864618,79.659968,PM10,NA,NA,NA
India,TamilNadu,Kanchipuram,"Kilambi, Kanchipuram - TNPCB",02-02-2024 04:00:00,12.864618,79.659968,SO2,4,19,13
India,TamilNadu,Palkalaiperur,"Bharathidasan University, Palkalaiperur - TNPCB",02-02-2024 04:00:00,10.681158,78.741746,OZONE,1,4,1
India,TamilNadu,Salem,"Sona College of Technology, Salem - TNPCB",02-02-2024 04:00:00,11.679111,78.125052,NH3,1,1,1
India,TamilNadu,Thoothukudi,"Meelavittan, Thoothukudi - TNPCB",02-02-2024 04:00:00,8.816428 ,78.099039,OZONE,7,89,41
India,TamilNadu,Tirupur,"Kumaran College, Tirupur - TNPCB",02-02-2024 04:00:00,11.0973603,77.3228673,PM2.5,17,91,42
India,TamilNadu,Tirupur,"Kumaran College, Tirupur - TNPCB",02-02-2024 04:00:00,11.0973603,77.3228673,CO,22,112,63
India,TamilNadu,Tirupur,"Kumaran College, Tirupur - TNPCB",02-02-2024 04:00:00,11.0973603,77.3228673,OZONE,6,7,7
India,TamilNadu,Vellore,"Vasanthapuram, Vellore - TNPCB",02-02-2024 04:00:00,12.909494,79.131861,PM2.5,14,90,45
India,TamilNadu,Vellore,"Vasanthapuram, Vellore - TNPCB",02-02-2024 04:00:00,12.909494,79.131861,NH3,1,1,1
India,TamilNadu,Vellore,"Vasanthapuram, Vellore - TNPCB",02-02-2024 04:00:00,12.909494,79.131861,CO,9,14,11
India,TamilNadu,Virudhunagar,"Collectorate Office, Virudhunagar - TNPCB",02-02-2024 04:00:00,9.559382,77.948828,PM10,13,67,39
India,TamilNadu,Virudhunagar,"Collectorate Office, Virudhunagar - TNPCB",02-02-2024 04:00:00,9.559382,77.948828,NH3,2,2,2
India,TamilNadu,Virudhunagar,"Collectorate Office, Virudhunagar - TNPCB",02-02-2024 04:00:00,9.559382,77.948828,SO2,16,16,16
India,Telangana,Hyderabad,"Bollaram Industrial Area, Hyderabad - TSPCB",02-02-2024 04:00:00,17.540891,78.358528,NH3,3,4,3
India,Telangana,Hyderabad,"Bollaram Industrial Area, Hyderabad - TSPCB",02-02-2024 04:00:00,17.540891,78.358528,SO2,11,45,20
India,Telangana,Hyderabad,"Central University, Hyderabad - TSPCB",02-02-2024 04:00:00,17.460103,78.334361,PM10,42,142,78
India,Telangana,Hyderabad,"Central University, Hyderabad - TSPCB",02-02-2024 04:00:00,17.460103,78.334361,CO,19,76,54
India,Telangana,Hyderabad,"Central University, Hyderabad - TSPCB",02-02-2024 04:00:00,17.460103,78.334361,OZONE,3,4,4
India,Telangana,Hyderabad,"ICRISAT Patancheru, Hyderabad - TSPCB",02-02-2024 04:00:00,17.518400,78.278777,NH3,2,2,2
India,Telangana,Hyderabad,"IITH Kandi, Hyderabad - TSPCB",02-02-2024 04:00:00,17.585705,78.126199,NO2,NA,NA,NA
India,Telangana,Hyderabad,"Kokapet, Hyderabad - TSPCB",02-02-2024 04:00:00,17.393559,78.339194,NO2,NA,NA,NA
India,Telangana,Hyderabad,"Nacharam_TSIIC IALA, Hyderabad - TSPCB",02-02-2024 04:00:00,17.429398,78.569354,CO,NA,NA,NA
India,Telangana,Hyderabad,"New Malakpet, Hyderabad - TSPCB",02-02-2024 04:00:00,17.37206,78.50864,PM2.5,19,60,34
India,Telangana,Hyderabad,"New Malakpet, Hyderabad - TSPCB",02-02-2024 04:00:00,17.37206,78.50864,OZONE,2,35,5
India,Telangana,Hyderabad,"Sanathnagar, Hyderabad - TSPCB",02-02-2024 04:00:00,17.4559458,78.4332152,SO2,5,93,28
India,Telangana,Hyderabad,"Somajiguda, Hyderabad - TSPCB",02-02-2024 04:00:00,17.417094,78.457437,PM10,68,85,76
India,Telangana,Hyderabad,"Somajiguda, Hyderabad - TSPCB",02-02-2024 04:00:00,17.417094,78.457437,SO2,12,41,26
India,Telangana,Hyderabad,"Somajiguda, Hyderabad - TSPCB",02-02-2024 04:00:00,17.417094,78.457437,CO,3,102,51
India,Telangana,Hyderabad,"Zoo Park, Hyderabad - TSPCB",02-02-2024 04:00:00,17.349694,78.451437,PM2.5,28,147,64
India,Tripura,Agartala,"Bardowali, Agartala - Tripura SPCB",02-02-2024 04:00:00,23.8175497,91.2726974,PM10,137,226,177
India,Tripura,Agartala,"Bardowali, Agartala - Tripura SPCB",02-02-2024 04:00:00,23.8175497,91.2726974,NH3,2,3,3
India,Uttar_Pradesh,Agra,"Rohta, Agra - UPPCB",02-02-2024 04:00:00,27.106972,78.000111,PM2.5,50,99,74
India,Uttar_Pradesh,Agra,"Rohta, Agra - UPPCB",02-02-2024 04:00:00,27.106972,78.000111,CO,10,18,10
India,Uttar_Pradesh,Agra,"Rohta, Agra - UPPCB",02-02-2024 04:00:00,27.106972,78.000111,OZONE,16,18,17
India,Uttar_Pradesh,Agra,"Sanjay Palace, Agra - UPPCB",02-02-2024 04:00:00,27.19865833,78.00598056,NO2,40,86,57
India,Uttar_Pradesh,Agra,"Shahjahan Garden, Agra - UPPCB",02-02-2024 04:00:00,27.169338,78.03582,OZONE,13,24,18
India,Uttar_Pradesh,Agra,"Shastripuram, Agra - UPPCB",02-02-2024 04:00:00,27.19862,77.92066,OZONE,3,14,4
India,Uttar_Pradesh,Bareilly,"Rajendra Nagar, Bareilly - UPPCB",02-02-2024 04:00:00,28.38910936,79.42963708,NH3,1,5,1
India,Uttar_Pradesh,Bulandshahr,"Yamunapuram, Bulandshahr - UPPCB",02-02-2024 04:00:00,28.406963,77.849831,PM10,NA,NA,NA
India,Uttar_Pradesh,Firozabad,"Nagla Bhau, Firozabad - UPPCB",02-02-2024 04:00:00,27.168897,78.376960,NO2,17,17,17
India,Uttar_Pradesh,Firozabad,"Vibhab Nagar, Firozabad - UPPCB",02-02-2024 04:00:00,27.1594,78.3953,PM10,29,80,49
India,Uttar_Pradesh,Ghaziabad,"Indirapuram, Ghaziabad - UPPCB",02-02-2024 04:00:00,28.646233,77.358075,PM10,26,124,78
India,Uttar_Pradesh,Ghaziabad,"Loni, Ghaziabad - UPPCB",02-02-2024 04:00:00,28.757294,77.278792,SO2,NA,NA,NA
India,Uttar_Pradesh,Ghaziabad,"Sanjay Nagar, Ghaziabad - UPPCB",02-02-2024 04:00:00,28.685382,77.453839,PM2.5,NA,NA,NA
India,Uttar_Pradesh,Ghaziabad,"Vasundhara, Ghaziabad - UPPCB",02-02-2024 04:00:00,28.6603346,77.3572563,NO2,26,111,51
India,Uttar_Pradesh,Ghaziabad,"Vasundhara, Ghaziabad - UPPCB",02-02-2024 04:00:00,28.6603346,77.3572563,SO2,1,44,18
India,Uttar_Pradesh,Gorakhpur,"Madan Mohan Malaviya University of Technology, Gorakhpur - UPPCB",02-02-2024 04:00:00,26.730136,83.433859,PM2.5,70,280,164
India,Uttar_Pradesh,Gorakhpur,"Madan Mohan Malaviya University of Technology, Gorakhpur - UPPCB",02-02-2024 04:00:00,26.730136,83.433859,NO2,2,2,2
India,Uttar_Pradesh,Jhansi,"Shivaji Nagar, Jhansi - UPPCB",02-02-2024 04:00:00,25.4547,78.6039,CO,18,30,26
India,Uttar_Pradesh,Jhansi,"Shivaji Nagar, Jhansi - UPPCB",02-02-2024 04:00:00,25.4547,78.6039,OZONE,2,57,4
India,Uttar_Pradesh,Kanpur,"FTI Kidwai Nagar, Kanpur - UPPCB",02-02-2024 04:00:00,26.428282,80.327067,PM2.5,42,94,68
India,Uttar_Pradesh,Kanpur,"FTI Kidwai Nagar, Kanpur - UPPCB",02-02-2024 04:00:00,26.428282,80.327067,NO2,14,14,14
India,Uttar_Pradesh,Kanpur,"FTI Kidwai Nagar, Kanpur - UPPCB",02-02-2024 04:00:00,26.428282,80.327067,NH3,4,8,6
India,Uttar_Pradesh,Kanpur,"FTI Kidwai Nagar, Kanpur - UPPCB",02-02-2024 04:00:00,26.428282,80.327067,SO2,22,25,24
India,Uttar_Pradesh,Kanpur,"NSI Kalyanpur, Kanpur - UPPCB",02-02-2024 04:00:00,26.509954,80.249612,NO2,13,16,16
India,Uttar_Pradesh,Kanpur,"Nehru Nagar, Kanpur - UPPCB",02-02-2024 04:00:00,26.4703136,80.3229863,PM2.5,74,175,119
India,Uttar_Pradesh,Lucknow,"B R Ambedkar University, Lucknow - UPPCB",02-02-2024 04:00:00,26.766433,80.927299,PM2.5,88,168,114
India,Uttar_Pradesh,Lucknow,"B R Ambedkar University, Lucknow - UPPCB",02-02-2024 04:00:00,26.766433,80.927299,PM10,86,126,103
India,Uttar_Pradesh,Lucknow,"Gomti Nagar, Lucknow - UPPCB",02-02-2024 04:00:00,26.868120,81.005119,PM2.5,15,125,63
India,Uttar_Pradesh,Lucknow,"Kendriya Vidyalaya, Lucknow - CPCB",02-02-2024 04:00:00,26.906111,80.948222,PM10,73,182,138
India,Uttar_Pradesh,Lucknow,"Kukrail Picnic Spot-1, Lucknow - UPPCB",02-02-2024 04:00:00,26.90723,80.98579,OZONE,2,38,5
India,Uttar_Pradesh,Lucknow,"Lalbagh, Lucknow - CPCB",02-02-2024 04:00:00,26.8458805,80.9365541,PM2.5,96,316,267
India,Uttar_Pradesh,Lucknow,"Lalbagh, Lucknow - CPCB",02-02-2024 04:00:00,26.8458805,80.9365541,NH3,9,12,10
India,Uttar_Pradesh,Lucknow,"Talkatora District Industries Center, Lucknow - CPCB",02-02-2024 04:00:00,26.83399722,80.8917361,PM2.5,82,275,184
India,Uttar_Pradesh,Lucknow,"Talkatora District Industries Center, Lucknow - CPCB",02-02-2024 04:00:00,26.83399722,80.8917361,SO2,1,16,8
India,Uttar_Pradesh,Meerut,"Ganga Nagar, Meerut - UPPCB",02-02-2024 04:00:00,28.999264,77.7590354,CO,8,111,28
India,Uttar_Pradesh,Meerut,"Jai Bhim Nagar, Meerut - UPPCB",02-02-2024 04:00:00,28.9535882,77.7622941,PM2.5,11,62,35
India,Uttar_Pradesh,Meerut,"Pallavpuram Phase 2, Meerut - UPPCB",02-02-2024 04:00:00,29.063510,77.709723,PM10,NA,NA,NA
India,Uttar_Pradesh,Moradabad,"Buddhi Vihar, Moradabad - UPPCB",02-02-2024 04:00:00,28.83526,78.74460,NO2,21,24,23
India,Uttar_Pradesh,Moradabad,"Buddhi Vihar, Moradabad - UPPCB",02-02-2024 04:00:00,28.83526,78.74460,NH3,1,2,2
India,Uttar_Pradesh,Moradabad,"Buddhi Vihar, Moradabad - UPPCB",02-02-2024 04:00:00,28.83526,78.74460,CO,11,43,38
India,Uttar_Pradesh,Moradabad,"Eco Herbal Park, Moradabad - UPPCB",02-02-2024 04:00:00,28.840739,78.697531,NO2,4,42,13
India,Uttar_Pradesh,Moradabad,"Eco Herbal Park, Moradabad - UPPCB",02-02-2024 04:00:00,28.840739,78.697531,NH3,2,25,5
India,Uttar_Pradesh,Moradabad,"Eco Herbal Park, Moradabad - UPPCB",02-02-2024 04:00:00,28.840739,78.697531,SO2,2,20,9
India,Uttar_Pradesh,Moradabad,"Employment Office, Moradabad - UPPCB",02-02-2024 04:00:00,28.88528,78.73880,PM10,NA,NA,NA
India,Uttar_Pradesh,Moradabad,"Jigar Colony, Moradabad - UPPCB",02-02-2024 04:00:00,28.856664,78.772638,PM2.5,18,41,29
India,Uttar_Pradesh,Moradabad,"Jigar Colony, Moradabad - UPPCB",02-02-2024 04:00:00,28.856664,78.772638,SO2,21,30,25
India,Uttar_Pradesh,Moradabad,"Jigar Colony, Moradabad - UPPCB",02-02-2024 04:00:00,28.856664,78.772638,CO,2,35,22
India,Uttar_Pradesh,Moradabad,"Kashiram Nagar, Moradabad - UPPCB",02-02-2024 04:00:00,28.849399,78.742362,PM10,28,56,42
India,Uttar_Pradesh,Moradabad,"Kashiram Nagar, Moradabad - UPPCB",02-02-2024 04:00:00,28.849399,78.742362,SO2,29,34,32
India,Uttar_Pradesh,Moradabad,"Kashiram Nagar, Moradabad - UPPCB",02-02-2024 04:00:00,28.849399,78.742362,OZONE,16,283,17
India,Uttar_Pradesh,Moradabad,"Transport Nagar, Moradabad - UPPCB",02-02-2024 04:00:00,28.802625,78.753728,SO2,41,44,43
India,Uttar_Pradesh,Noida,"Sector - 125, Noida - UPPCB",02-02-2024 04:00:00,28.5447608,77.3231257,NO2,28,121,58
India,Uttar_Pradesh,Noida,"Sector - 125, Noida - UPPCB",02-02-2024 04:00:00,28.5447608,77.3231257,CO,25,84,71
India,Uttar_Pradesh,Noida,"Sector-1, Noida - UPPCB",02-02-2024 04:00:00,28.5898,77.3101,PM2.5,25,500,167
India,Uttar_Pradesh,Noida,"Sector-1, Noida - UPPCB",02-02-2024 04:00:00,28.5898,77.3101,SO2,4,11,8
India,Uttar_Pradesh,Prayagraj,"Motilal Nehru NIT, Prayagraj - UPPCB",02-02-2024 04:00:00,25.494,81.863,PM2.5,48,141,95
India,Uttar_Pradesh,Prayagraj,"Motilal Nehru NIT, Prayagraj - UPPCB",02-02-2024 04:00:00,25.494,81.863,PM10,71,145,116
India,Uttar_Pradesh,Prayagraj,"Motilal Nehru NIT, Prayagraj - UPPCB",02-02-2024 04:00:00,25.494,81.863,NO2,12,12,12
India,Uttar_Pradesh,Prayagraj,"Motilal Nehru NIT, Prayagraj - UPPCB",02-02-2024 04:00:00,25.494,81.863,CO,3,52,47
India,Uttar_Pradesh,Prayagraj,"Nagar Nigam, Prayagraj - UPPCB",02-02-2024 04:00:00,25.44919916 ,81.82735986 ,SO2,12,102,40
India,Uttar_Pradesh,Varanasi,"Ardhali Bazar, Varanasi - UPPCB",02-02-2024 04:00:00,25.3505986,82.9083074,PM2.5,22,50,37
India,Uttar_Pradesh,Varanasi,"Ardhali Bazar, Varanasi - UPPCB",02-02-2024 04:00:00,25.3505986,82.9083074,SO2,13,20,16
India,Uttar_Pradesh,Varanasi,"Bhelupur, Varanasi - UPPCB",02-02-2024 04:00:00,25.301778,82.996789,NO2,2,29,11
India,Uttar_Pradesh,Varanasi,"Bhelupur, Varanasi - UPPCB",02-02-2024 04:00:00,25.301778,82.996789,NH3,1,2,2
India,Uttar_Pradesh,Varanasi,"Bhelupur, Varanasi - UPPCB",02-02-2024 04:00:00,25.301778,82.996789,SO2,21,23,22
India,Uttar_Pradesh,Varanasi,"Maldahiya, Varanasi - UPPCB",02-02-2024 04:00:00,25.32393,82.99687,NH3,1,1,1
India,Uttarakhand,Dehradun,"Doon University, Dehradun - UKPCB",02-02-2024 04:00:00,30.269444,78.044167,CO,26,60,39
India,Uttarakhand,Kashipur,"Govt. Girls Inter College, Kashipur - UKPCB",02-02-2024 04:00:00,29.2124114,78.9611753,OZONE,1,10,2
India,Uttarakhand,Rishikesh,"Shivaji Nagar, Rishikesh - UKPCB",02-02-2024 04:00:00,30.075911,78.2859547,CO,22,52,35
India,West_Bengal,Asansol,"Asansol Court Area, Asansol - WBPCB",02-02-2024 04:00:00,23.685297,86.945968,PM2.5,309,356,330
India,West_Bengal,Asansol,"Asansol Court Area, Asansol - WBPCB",02-02-2024 04:00:00,23.685297,86.945968,NH3,7,10,9
India,West_Bengal,Barrackpore,"SVSPA Campus, Barrackpore - WBPCB",02-02-2024 04:00:00,22.7605581,88.3617589,PM2.5,76,239,161
India,West_Bengal,Barrackpore,"SVSPA Campus, Barrackpore - WBPCB",02-02-2024 04:00:00,22.7605581,88.3617589,NH3,4,5,4
India,West_Bengal,Barrackpore,"SVSPA Campus, Barrackpore - WBPCB",02-02-2024 04:00:00,22.7605581,88.3617589,CO,35,64,55
India,West_Bengal,Durgapur,"Sidhu Kanhu Indoor Stadium, Durgapur - WBPCB",02-02-2024 04:00:00,23.5404352,87.2892225,SO2,14,47,31
India,West_Bengal,Haldia,"Priyambada Housing Estate, Haldia - WBPCB",02-02-2024 04:00:00,22.06047,88.109737,OZONE,18,30,20
India,West_Bengal,Howrah,"Belur Math, Howrah - WBPCB",02-02-2024 04:00:00,22.629801,88.352017,CO,10,51,30
India,West_Bengal,Howrah,"Padmapukur, Howrah - WBPCB",02-02-2024 04:00:00,22.5687319,88.2797276,PM10,95,150,116
India,West_Bengal,Howrah,"Padmapukur, Howrah - WBPCB",02-02-2024 04:00:00,22.5687319,88.2797276,NO2,25,54,41
India,West_Bengal,Howrah,"Padmapukur, Howrah - WBPCB",02-02-2024 04:00:00,22.5687319,88.2797276,SO2,7,18,10
India,West_Bengal,Kolkata,"Ballygunge, Kolkata - WBPCB",02-02-2024 04:00:00,22.5367507,88.3638022,OZONE,6,38,11
India,West_Bengal,Kolkata,"Bidhannagar, Kolkata - WBPCB",02-02-2024 04:00:00,22.58157048,88.41002457,NH3,9,12,10
India,West_Bengal,Kolkata,"Fort William, Kolkata - WBPCB",02-02-2024 04:00:00,22.556640,88.342674,PM10,64,135,97
India,West_Bengal,Kolkata,"Fort William, Kolkata - WBPCB",02-02-2024 04:00:00,22.556640,88.342674,NO2,35,84,57
India,West_Bengal,Kolkata,"Fort William, Kolkata - WBPCB",02-02-2024 04:00:00,22.556640,88.342674,NH3,7,10,8
India,West_Bengal,Kolkata,"Jadavpur, Kolkata - WBPCB",02-02-2024 04:00:00,22.49929,88.36917,PM10,81,129,100
India,West_Bengal,Kolkata,"Rabindra Bharati University, Kolkata - WBPCB",02-02-2024 04:00:00,22.627847,88.380669,SO2,7,16,11
India,West_Bengal,Kolkata,"Rabindra Bharati University, Kolkata - WBPCB",02-02-2024 04:00:00,22.627847,88.380669,CO,30,62,50
India,West_Bengal,Kolkata,"Rabindra Sarobar, Kolkata - WBPCB",02-02-2024 04:00:00,22.51106,88.35142,NO2,24,105,58
India,West_Bengal,Kolkata,"Victoria, Kolkata - WBPCB",02-02-2024 04:00:00,22.5448082,88.3403691,PM2.5,73,199,110
India,West_Bengal,Kolkata,"Victoria, Kolkata - WBPCB",02-02-2024 04:00:00,22.5448082,88.3403691,PM10,86,157,116
India,West_Bengal,Kolkata,"Victoria, Kolkata - WBPCB",02-02-2024 04:00:00,22.5448082,88.3403691,NO2,14,20,17
India,West_Bengal,Siliguri,"Ward-32 Bapupara, Siliguri - WBPCB",02-02-2024 04:00:00,26.6879226,88.4152495,PM2.5,9,311,122
India,West_Bengal,Siliguri,"Ward-32 Bapupara, Siliguri - WBPCB",02-02-2024 04:00:00,26.6879226,88.4152495,NO2,28,127,68
India,Andhra_Pradesh,Chittoor,"Gangineni Cheruvu, Chittoor - APPCB",02-02-2024 04:00:00,13.204880,79.097889,NO2,2,21,7
India,Andhra_Pradesh,Rajamahendravaram,"Anand Kala Kshetram, Rajamahendravaram - APPCB",02-02-2024 04:00:00,16.9872867,81.7363176,PM10,43,107,72
India,Andhra_Pradesh,Rajamahendravaram,"Anand Kala Kshetram, Rajamahendravaram - APPCB",02-02-2024 04:00:00,16.9872867,81.7363176,OZONE,3,7,6
India,Andhra_Pradesh,Tirupati,"Tirumala, Tirupati - APPCB",02-02-2024 04:00:00,13.67,79.35,NO2,25,46,36
India,Andhra_Pradesh,Tirupati,"Vaikuntapuram, Tirupati - APPCB",02-02-2024 04:00:00,13.615387,79.409230,NH3,2,4,3
India,Andhra_Pradesh,Vijayawada,"Kanuru, Vijayawada - APPCB",02-02-2024 04:00:00,16.486692,80.699436,PM2.5,NA,NA,NA
India,Andhra_Pradesh,Vijayawada,"Kanuru, Vijayawada - APPCB",02-02-2024 04:00:00,16.486692,80.699436,NH3,NA,NA,NA
India,Andhra_Pradesh,Vijayawada,"Rajiv Gandhi Park, Vijayawada - APPCB",02-02-2024 04:00:00,16.509717,80.612222,OZONE,3,61,16
India,Andhra_Pradesh,Vijayawada,"Rajiv Nagar, Vijayawada - APPCB",02-02-2024 04:00:00,16.554731,80.649110,NO2,7,12,9
India,Andhra_Pradesh,Vijayawada,"Rajiv Nagar, Vijayawada - APPCB",02-02-2024 04:00:00,16.554731,80.649110,NH3,1,3,2
India,Andhra_Pradesh,Vijayawada,"Rajiv Nagar, Vijayawada - APPCB",02-02-2024 04:00:00,16.554731,80.649110,OZONE,4,29,10
India,Andhra_Pradesh,Visakhapatnam,"GVM Corporation, Visakhapatnam - APPCB",02-02-2024 04:00:00,17.72,83.3,NH3,2,8,4
India,Assam,Byrnihat,"Central Academy for SFS, Byrnihat - PCBA",02-02-2024 04:00:00,26.071318,91.87488,SO2,6,15,12
India,Assam,Guwahati,"IITG, Guwahati - PCBA",02-02-2024 04:00:00,26.2028636,91.70046436,PM10,73,231,132
India,Assam,Guwahati,"IITG, Guwahati - PCBA",02-02-2024 04:00:00,26.2028636,91.70046436,NO2,2,11,4
India,Assam,Guwahati,"IITG, Guwahati - PCBA",02-02-2024 04:00:00,26.2028636,91.70046436,OZONE,4,61,5
India,Assam,Guwahati,"LGBI Airport, Guwahati - PCBA",02-02-2024 04:00:00,26.10887,91.589544,PM2.5,NA,NA,NA
India,Assam,Guwahati,"LGBI Airport, Guwahati - PCBA",02-02-2024 04:00:00,26.10887,91.589544,PM10,NA,NA,NA
India,Assam,Guwahati,"Pan Bazaar, Guwahati - PCBA",02-02-2024 04:00:00,26.187500,91.744194,PM2.5,69,233,131
India,Assam,Guwahati,"Pan Bazaar, Guwahati - PCBA",02-02-2024 04:00:00,26.187500,91.744194,NO2,1,8,4
India,Assam,Guwahati,"Railway Colony, Guwahati - PCBA",02-02-2024 04:00:00,26.181742,91.78063,PM2.5,9,402,196
India,Assam,Nalbari,"Bata Chowk, Nalbari - PCBA",02-02-2024 04:00:00,26.446912,91.439057,SO2,5,11,7
India,Assam,Silchar,"Tarapur, Silchar - PCBA",02-02-2024 04:00:00,24.82827,92.79525,NO2,25,78,42
India,Assam,Silchar,"Tarapur, Silchar - PCBA",02-02-2024 04:00:00,24.82827,92.79525,SO2,NA,NA,NA
India,Assam,Sivasagar,"Girls College, Sivasagar - PCBA",02-02-2024 04:00:00,26.987634,94.636574,NH3,2,3,2
India,Assam,Sivasagar,"Girls College, Sivasagar - PCBA",02-02-2024 04:00:00,26.987634,94.636574,SO2,4,5,5
India,Bihar,Araria,"Kharahiya Basti, Araria - BSPCB",02-02-2024 04:00:00,26.146529,87.454184,PM10,112,500,304
India,Bihar,Araria,"Kharahiya Basti, Araria - BSPCB",02-02-2024 04:00:00,26.146529,87.454184,NO2,7,8,7
India,Bihar,Araria,"Kharahiya Basti, Araria - BSPCB",02-02-2024 04:00:00,26.146529,87.454184,NH3,6,11,8
India,Bihar,Araria,"Kharahiya Basti, Araria - BSPCB",02-02-2024 04:00:00,26.146529,87.454184,SO2,16,21,19
India,Bihar,Arrah,"New DM Office, Arrah - BSPCB",02-02-2024 04:00:00,25.5626095,84.663264,CO,3,26,9
India,Bihar,Bhagalpur,"DM Office_Kachari Chowk, Bhagalpur - BSPCB",02-02-2024 04:00:00,25.251013,86.989001,NH3,4,9,6
India,Bihar,Bhagalpur,"DM Office_Kachari Chowk, Bhagalpur - BSPCB",02-02-2024 04:00:00,25.251013,86.989001,SO2,4,11,6
India,Bihar,Bhagalpur,"DM Office_Kachari Chowk, Bhagalpur - BSPCB",02-02-2024 04:00:00,25.251013,86.989001,OZONE,25,29,26
India,Bihar,Bhagalpur,"Mayaganj, Bhagalpur - BSPCB",02-02-2024 04:00:00,25.265194,87.012947,PM2.5,90,338,275
India,Bihar,Bhagalpur,"Mayaganj, Bhagalpur - BSPCB",02-02-2024 04:00:00,25.265194,87.012947,NO2,1,25,11
India,Bihar,Bhagalpur,"Mayaganj, Bhagalpur - BSPCB",02-02-2024 04:00:00,25.265194,87.012947,CO,7,10,9
India,Bihar,Bihar Sharif,"D M Colony, Bihar Sharif - BSPCB",02-02-2024 04:00:00,25.204762,85.514960,NH3,2,2,2
India,Bihar,Chhapra,"Darshan Nagar, Chhapra - BSPCB",02-02-2024 04:00:00,25.7808257,84.7446768,CO,34,59,40
India,Bihar,Gaya,"Collectorate, Gaya - BSPCB",02-02-2024 04:00:00,24.7955,84.9994,SO2,16,39,26
India,Bihar,Gaya,"Kareemganj, Gaya - BSPCB",02-02-2024 04:00:00,24.792403,84.992416,NO2,30,31,30
India,Bihar,Gaya,"SFTI Kusdihra, Gaya - BSPCB",02-02-2024 04:00:00,24.762518,84.982348,NO2,18,37,26
India,Bihar,Gaya,"SFTI Kusdihra, Gaya - BSPCB",02-02-2024 04:00:00,24.762518,84.982348,OZONE,3,60,12
India,Bihar,Hajipur,"Industrial Area, Hajipur - BSPCB",02-02-2024 04:00:00,25.697189,85.245900,PM2.5,139,304,223
India,Bihar,Katihar,"Mirchaibari, Katihar - BSPCB",02-02-2024 04:00:00,25.560083,87.553265,PM2.5,90,339,223
India,Bihar,Katihar,"Mirchaibari, Katihar - BSPCB",02-02-2024 04:00:00,25.560083,87.553265,SO2,15,20,17
India,Bihar,Katihar,"Mirchaibari, Katihar - BSPCB",02-02-2024 04:00:00,25.560083,87.553265,OZONE,17,22,19
India,Bihar,Manguraha,"Forest Rest House, Manguraha - BSPCB",02-02-2024 04:00:00,27.308328,84.531742,NH3,2,3,2
India,Bihar,Manguraha,"Forest Rest House, Manguraha - BSPCB",02-02-2024 04:00:00,27.308328,84.531742,SO2,1,9,7
India,Bihar,Manguraha,"Forest Rest House, Manguraha - BSPCB",02-02-2024 04:00:00,27.308328,84.531742,CO,18,108,102
India,Bihar,Motihari,"Gandak Colony, Motihari - BSPCB",02-02-2024 04:00:00,26.63086,84.90051,PM10,78,193,153
India,Bihar,Motihari,"Gandak Colony, Motihari - BSPCB",02-02-2024 04:00:00,26.63086,84.90051,SO2,1,4,3
India,Bihar,Munger,"Town Hall, Munger - BSPCB",02-02-2024 04:00:00,25.376776,86.471523,NO2,8,10,9
India,Bihar,Muzaffarpur,"Buddha Colony, Muzaffarpur - BSPCB",02-02-2024 04:00:00,26.11442,85.39813,CO,NA,NA,NA
India,Bihar,Muzaffarpur,"MIT-Daudpur Kothi, Muzaffarpur - BSPCB",02-02-2024 04:00:00,26.1403345,85.3650192,NO2,4,8,7
India,Bihar,Muzaffarpur,"MIT-Daudpur Kothi, Muzaffarpur - BSPCB",02-02-2024 04:00:00,26.1403345,85.3650192,CO,63,108,104
India,Bihar,Patna,"Govt. High School Shikarpur, Patna - BSPCB",02-02-2024 04:00:00,25.592539,85.227158,NO2,15,35,25
India,Bihar,Patna,"IGSC Planetarium Complex, Patna - BSPCB",02-02-2024 04:00:00,25.610369,85.132568,SO2,4,8,6
India,Bihar,Patna,"IGSC Planetarium Complex, Patna - BSPCB",02-02-2024 04:00:00,25.610369,85.132568,OZONE,8,17,13
India,Bihar,Patna,"Muradpur, Patna - BSPCB",02-02-2024 04:00:00,25.619651,85.147382,PM2.5,80,397,322
India,Bihar,Patna,"Muradpur, Patna - BSPCB",02-02-2024 04:00:00,25.619651,85.147382,SO2,12,34,22
India,Bihar,Patna,"Rajbansi Nagar, Patna - BSPCB",02-02-2024 04:00:00,25.599486,85.113666,PM10,196,420,324
India,Bihar,Patna,"Rajbansi Nagar, Patna - BSPCB",02-02-2024 04:00:00,25.599486,85.113666,NH3,6,10,7
India,Bihar,Patna,"Rajbansi Nagar, Patna - BSPCB",02-02-2024 04:00:00,25.599486,85.113666,OZONE,1,96,2
India,Bihar,Patna,"Samanpura, Patna - BSPCB",02-02-2024 04:00:00,25.596727,85.085624,NO2,16,159,71
India,Bihar,Patna,"Samanpura, Patna - BSPCB",02-02-2024 04:00:00,25.596727,85.085624,NH3,2,30,11
India,Bihar,Purnia,"Mariam Nagar, Purnia - BSPCB",02-02-2024 04:00:00,25.366336,87.117468,NH3,1,1,1
India,Bihar,Samastipur,"DM Office_Kasipur, Samastipur - BSPCB",02-02-2024 04:00:00,25.859655,85.77944,PM10,127,418,228
India,Bihar,Samastipur,"DM Office_Kasipur, Samastipur - BSPCB",02-02-2024 04:00:00,25.859655,85.77944,OZONE,9,20,10
India,Bihar,Sasaram,"Dada Peer, Sasaram - BSPCB",02-02-2024 04:00:00,24.952822,84.002396,NO2,4,19,10
India,Chandigarh,Chandigarh,"Sector 22, Chandigarh - CPCC",02-02-2024 04:00:00,30.735567,76.775714,OZONE,2,81,15
India,Chandigarh,Chandigarh,"Sector-53, Chandigarh - CPCC",02-02-2024 04:00:00,30.719859,76.738637,PM2.5,28,197,91
India,Chhattisgarh,Bhilai,"Hathkhoj, Bhilai - CECB",02-02-2024 04:00:00,21.224231,81.408350,NO2,22,50,36
India,Chhattisgarh,Bhilai,"Hathkhoj, Bhilai - CECB",02-02-2024 04:00:00,21.224231,81.408350,OZONE,7,20,9
India,Chhattisgarh,Bilaspur,"Mangala, Bilaspur - NTPC",02-02-2024 04:00:00,22.08815,82.13737,PM2.5,46,93,75
India,Chhattisgarh,Bilaspur,"Mangala, Bilaspur - NTPC",02-02-2024 04:00:00,22.08815,82.13737,CO,32,39,34
India,Chhattisgarh,Chhal,"Nawapara SECL Colony, Chhal - CECB",02-02-2024 04:00:00,22.118125,83.140608,OZONE,1,41,8
India,Chhattisgarh,Kunjemura,"OP Jindal School, Kunjemura - CECB",02-02-2024 04:00:00,22.126650,83.483212,NH3,1,5,2
India,Chhattisgarh,Kunjemura,"OP Jindal School, Kunjemura - CECB",02-02-2024 04:00:00,22.126650,83.483212,OZONE,2,81,6
India,Chhattisgarh,Raipur,"Krishak Nagar, Raipur - CECB",02-02-2024 04:00:00,21.237755,81.705301,CO,36,52,50
India,Chhattisgarh,Raipur,"Siltara Phase-II, Raipur - CECB",02-02-2024 04:00:00,21.371751,81.664929,PM2.5,46,362,143
India,Delhi,Delhi,"Alipur, Delhi - DPCC",02-02-2024 04:00:00,28.815329,77.153010,PM10,20,120,73
India,Delhi,Delhi,"Anand Vihar, Delhi - DPCC",02-02-2024 04:00:00,28.647622,77.3158090,SO2,12,32,20
India,Delhi,Delhi,"Aya Nagar, Delhi - IMD",02-02-2024 04:00:00,28.4706914,77.1099364,CO,64,83,79
India,Delhi,Delhi,"Bawana, Delhi - DPCC",02-02-2024 04:00:00,28.776200,77.051074,PM2.5,57,348,203
India,Delhi,Delhi,"Burari Crossing, Delhi - IMD",02-02-2024 04:00:00,28.7256504,77.2011573,PM10,36,145,85
India,Delhi,Delhi,"Burari Crossing, Delhi - IMD",02-02-2024 04:00:00,28.7256504,77.2011573,OZONE,21,97,48
India,Delhi,Delhi,"CRRI Mathura Road, Delhi - IMD",02-02-2024 04:00:00,28.5512005,77.2735737,PM2.5,25,301,110
India,Delhi,Delhi,"CRRI Mathura Road, Delhi - IMD",02-02-2024 04:00:00,28.5512005,77.2735737,PM10,7,225,77
India,Delhi,Delhi,"DTU, Delhi - CPCB",02-02-2024 04:00:00,28.7500499,77.1112615,NH3,12,29,16
India,Delhi,Delhi,"DTU, Delhi - CPCB",02-02-2024 04:00:00,28.7500499,77.1112615,OZONE,26,36,28
India,Delhi,Delhi,"Dwarka-Sector 8, Delhi - DPCC ",02-02-2024 04:00:00,28.5710274,77.0719006,CO,22,93,84
India,Delhi,Delhi,"IGI Airport (T3), Delhi - IMD",02-02-2024 04:00:00,28.5627763,77.1180053,OZONE,11,26,12
India,Delhi,Delhi,"ITO, Delhi - CPCB",02-02-2024 04:00:00,28.628624,77.241060,NO2,1,103,57
India,Delhi,Delhi,"Jahangirpuri, Delhi - DPCC",02-02-2024 04:00:00,28.732820,77.170633,PM2.5,51,345,239
India,Delhi,Delhi,"Jahangirpuri, Delhi - DPCC",02-02-2024 04:00:00,28.732820,77.170633,OZONE,6,151,46
India,Delhi,Delhi,"Jawaharlal Nehru Stadium, Delhi - DPCC",02-02-2024 04:00:00,28.580280,77.233829,NH3,10,14,12
India,Delhi,Delhi,"Lodhi Road, Delhi - IMD",02-02-2024 04:00:00,28.5918245,77.2273074,PM10,27,139,84
India,Delhi,Delhi,"Lodhi Road, Delhi - IMD",02-02-2024 04:00:00,28.5918245,77.2273074,CO,44,70,64
India,Delhi,Delhi,"Major Dhyan Chand National Stadium, Delhi - DPCC",02-02-2024 04:00:00,28.611281,77.237738,NH3,10,13,11
India,Delhi,Delhi,"Mundka, Delhi - DPCC",02-02-2024 04:00:00,28.684678,77.076574,OZONE,1,3,2
India,Delhi,Delhi,"NSIT Dwarka, Delhi - CPCB",02-02-2024 04:00:00,28.60909,77.0325413,PM2.5,36,318,142
India,Delhi,Delhi,"NSIT Dwarka, Delhi - CPCB",02-02-2024 04:00:00,28.60909,77.0325413,PM10,29,144,95
India,Delhi,Delhi,"Narela, Delhi - DPCC",02-02-2024 04:00:00,28.822836,77.101981,CO,58,104,95
India,Delhi,Delhi,"Narela, Delhi - DPCC",02-02-2024 04:00:00,28.822836,77.101981,OZONE,8,53,18
India,Delhi,Delhi,"Nehru Nagar, Delhi - DPCC",02-02-2024 04:00:00,28.567890,77.250515,NH3,11,18,14
India,Delhi,Delhi,"North Campus, DU, Delhi - IMD",02-02-2024 04:00:00,28.6573814,77.1585447,PM2.5,NA,NA,NA
India,Delhi,Delhi,"Okhla Phase-2, Delhi - DPCC",02-02-2024 04:00:00,28.530785,77.271255,CO,24,74,46
India,Delhi,Delhi,"Okhla Phase-2, Delhi - DPCC",02-02-2024 04:00:00,28.530785,77.271255,OZONE,10,40,15
India,Delhi,Delhi,"Punjabi Bagh, Delhi - DPCC",02-02-2024 04:00:00,28.674045,77.131023,PM2.5,52,319,175
India,Delhi,Delhi,"Punjabi Bagh, Delhi - DPCC",02-02-2024 04:00:00,28.674045,77.131023,OZONE,7,20,8
India,Delhi,Delhi,"R K Puram, Delhi - DPCC",02-02-2024 04:00:00,28.563262,77.186937,NO2,10,87,31
India,Delhi,Delhi,"R K Puram, Delhi - DPCC",02-02-2024 04:00:00,28.563262,77.186937,SO2,14,28,20
India,Delhi,Delhi,"R K Puram, Delhi - DPCC",02-02-2024 04:00:00,28.563262,77.186937,OZONE,8,46,10
India,Delhi,Delhi,"Shadipur, Delhi - CPCB",02-02-2024 04:00:00,28.6514781,77.1473105,NH3,8,17,15
India,Delhi,Delhi,"Sonia Vihar, Delhi - DPCC",02-02-2024 04:00:00,28.710508,77.249485,PM2.5,58,343,192
India,Delhi,Delhi,"Sri Aurobindo Marg, Delhi - DPCC",02-02-2024 04:00:00,28.531346,77.190156,PM10,42,150,99
India,Delhi,Delhi,"Vivek Vihar, Delhi - DPCC",02-02-2024 04:00:00,28.672342,77.315260,NO2,41,82,57
India,Delhi,Delhi,"Vivek Vihar, Delhi - DPCC",02-02-2024 04:00:00,28.672342,77.315260,OZONE,5,41,8
India,Delhi,Delhi,"Wazirpur, Delhi - DPCC",02-02-2024 04:00:00,28.699793,77.165453,PM2.5,52,363,230
India,Delhi,Delhi,"Wazirpur, Delhi - DPCC",02-02-2024 04:00:00,28.699793,77.165453,NO2,55,168,110
India,Gujarat,Ahmedabad,"Chandkheda, Ahmedabad - IITM",02-02-2024 04:00:00,23.107969,72.574648,PM10,37,120,82
India,Gujarat,Ahmedabad,"Chandkheda, Ahmedabad - IITM",02-02-2024 04:00:00,23.107969,72.574648,NH3,4,5,4
India,Gujarat,Ahmedabad,"Gyaspur, Ahmedabad - IITM",02-02-2024 04:00:00,22.977134,72.553024,PM10,31,323,90
India,Gujarat,Ahmedabad,"Raikhad, Ahmedabad - IITM",02-02-2024 04:00:00,23.020509,72.579261,PM10,58,145,88
India,Gujarat,Ahmedabad,"Raikhad, Ahmedabad - IITM",02-02-2024 04:00:00,23.020509,72.579261,NO2,11,18,16
India,Gujarat,Ahmedabad,"Raikhad, Ahmedabad - IITM",02-02-2024 04:00:00,23.020509,72.579261,NH3,3,5,4
India,Gujarat,Ahmedabad,"Raikhad, Ahmedabad - IITM",02-02-2024 04:00:00,23.020509,72.579261,CO,4,57,37
India,Gujarat,Ahmedabad,"SAC ISRO Satellite, Ahmedabad - IITM",02-02-2024 04:00:00,23.023389,72.515201,NH3,3,3,3
India,Gujarat,Ahmedabad,"SAC ISRO Satellite, Ahmedabad - IITM",02-02-2024 04:00:00,23.023389,72.515201,OZONE,2,15,3
India,Gujarat,Ahmedabad,"SVPI Airport Hansol, Ahmedabad - IITM",02-02-2024 04:00:00,23.076793,72.627874,CO,24,114,102
India,Gujarat,Ahmedabad,"Sardar Vallabhbhai Patel Stadium, Ahmedabad - IITM",02-02-2024 04:00:00,23.043070,72.562968,PM10,59,124,85
India,Gujarat,Ahmedabad,"Sardar Vallabhbhai Patel Stadium, Ahmedabad - IITM",02-02-2024 04:00:00,23.043070,72.562968,NH3,3,3,3
India,Gujarat,Ahmedabad,"Sardar Vallabhbhai Patel Stadium, Ahmedabad - IITM",02-02-2024 04:00:00,23.043070,72.562968,CO,12,101,72
India,Gujarat,Ankleshwar,"GIDC, Ankleshwar - GPCB",02-02-2024 04:00:00,21.613267,73.010555,NH3,6,6,6
India,Gujarat,Gandhinagar,"IIPHG Lekawada, Gandhinagar - IITM",02-02-2024 04:00:00,23.243639,72.68994,NO2,13,14,14
India,Gujarat,Gandhinagar,"IIPHG Lekawada, Gandhinagar - IITM",02-02-2024 04:00:00,23.243639,72.68994,CO,40,68,61
India,Gujarat,Surat,"Science Center, Surat - SMC",02-02-2024 04:00:00,21.170046,72.795405,PM2.5,13,68,25
India,Gujarat,Vapi,"Phase-1 GIDC, Vapi - GPCB",02-02-2024 04:00:00,20.362421,72.918013,CO,105,189,158
India,Gujarat,Vatva,"Phase-4 GIDC, Vatva - GPCB",02-02-2024 04:00:00,22.969611,72.643500,PM2.5,38,254,110
India,Haryana,Ambala,"Patti Mehar, Ambala - HSPCB",02-02-2024 04:00:00,30.379589,76.778328,CO,30,60,43
India,Haryana,Ballabgarh,"Nathu Colony, Ballabgarh - HSPCB",02-02-2024 04:00:00,28.3419248,77.319699,PM2.5,14,146,71
India,Haryana,Bhiwani,"H.B. Colony, Bhiwani - HSPCB",02-02-2024 04:00:00,28.806223,76.141105,NH3,1,8,7
India,Haryana,Dharuhera,"Municipal Corporation Office, Dharuhera -  HSPCB",02-02-2024 04:00:00,28.206800,76.799700,NH3,9,26,21
India,Haryana,Faridabad,"New Industrial Town, Faridabad - HSPCB",02-02-2024 04:00:00,28.39072,77.30059,PM10,2,142,79
India,Haryana,Faridabad,"New Industrial Town, Faridabad - HSPCB",02-02-2024 04:00:00,28.39072,77.30059,CO,4,36,31
India,Haryana,Faridabad,"Sector 11, Faridabad - HSPCB",02-02-2024 04:00:00,28.376058,77.315741,PM2.5,219,233,227
India,Haryana,Faridabad,"Sector 11, Faridabad - HSPCB",02-02-2024 04:00:00,28.376058,77.315741,NO2,30,34,32
India,Haryana,Faridabad,"Sector 30, Faridabad - HSPCB",02-02-2024 04:00:00,28.4417,77.3217,SO2,NA,NA,NA
India,Haryana,Fatehabad,"Huda Sector, Fatehabad - HSPCB",02-02-2024 04:00:00,29.503664,75.467934,CO,5,14,10
India,Haryana,Gurugram,"Sector-51, Gurugram - HSPCB",02-02-2024 04:00:00,28.4227,77.0667,NO2,13,29,24
India,Haryana,Gurugram,"Vikas Sadan, Gurugram - HSPCB",02-02-2024 04:00:00,28.4501238,77.0263051,OZONE,8,69,13
India,Haryana,Hisar,"Urban Estate-II, Hisar - HSPCB",02-02-2024 04:00:00,29.140560,75.744941,CO,40,105,71
India,Haryana,Jind,"Police Lines, Jind - HSPCB",02-02-2024 04:00:00,29.307814,76.337619,NO2,7,17,12
India,Haryana,Jind,"Police Lines, Jind - HSPCB",02-02-2024 04:00:00,29.307814,76.337619,NH3,2,5,4
India,Haryana,Karnal,"Sector-12, Karnal - HSPCB",02-02-2024 04:00:00,29.695300,77.002700,NH3,10,13,12
India,Haryana,Kurukshetra,"Sector-7, Kurukshetra - HSPCB",02-02-2024 04:00:00,29.966942,76.875879,PM2.5,14,129,56
India,Haryana,Kurukshetra,"Sector-7, Kurukshetra - HSPCB",02-02-2024 04:00:00,29.966942,76.875879,SO2,NA,NA,NA
India,Haryana,Kurukshetra,"Sector-7, Kurukshetra - HSPCB",02-02-2024 04:00:00,29.966942,76.875879,CO,1,105,31
India,Haryana,Mandikhera,"General Hospital, Mandikhera - HSPCB",02-02-2024 04:00:00,27.9002,76.9938,PM10,35,94,67
India,Haryana,Narnaul,"Shastri Nagar, Narnaul - HSPCB",02-02-2024 04:00:00,28.060249,76.113115,SO2,13,46,15
India,Haryana,Palwal,"Shyam Nagar, Palwal - HSPCB",02-02-2024 04:00:00,28.1485564,77.3320667,PM2.5,39,65,52
India,Haryana,Palwal,"Shyam Nagar, Palwal - HSPCB",02-02-2024 04:00:00,28.1485564,77.3320667,NO2,5,7,5
India,Haryana,Panchkula,"Sector-6, Panchkula - HSPCB ",02-02-2024 04:00:00,30.7057778,76.8531805555555,NO2,NA,NA,NA
India,Haryana,Panipat,"Sector-18, Panipat - HSPCB",02-02-2024 04:00:00,29.497973,76.993331,PM2.5,121,125,123
India,Haryana,Panipat,"Sector-18, Panipat - HSPCB",02-02-2024 04:00:00,29.497973,76.993331,NH3,2,3,3
India,Haryana,Panipat,"Sector-18, Panipat - HSPCB",02-02-2024 04:00:00,29.497973,76.993331,SO2,12,13,12
India,Haryana,Sirsa,"F-Block, Sirsa - HSPCB",02-02-2024 04:00:00,29.536400,75.015800,PM10,NA,NA,NA
India,Haryana,Sirsa,"F-Block, Sirsa - HSPCB",02-02-2024 04:00:00,29.536400,75.015800,OZONE,NA,NA,NA
India,Haryana,Sonipat,"Murthal, Sonipat - HSPCB",02-02-2024 04:00:00,29.027200,77.062100,NH3,6,10,9
India,Haryana,Sonipat,"Murthal, Sonipat - HSPCB",02-02-2024 04:00:00,29.027200,77.062100,SO2,13,29,20
India,Haryana,Sonipat,"Murthal, Sonipat - HSPCB",02-02-2024 04:00:00,29.027200,77.062100,OZONE,17,36,19
India,Haryana,Yamuna Nagar,"Gobind Pura, Yamuna Nagar - HSPCB",02-02-2024 04:00:00,30.1480566,77.2893471,NO2,11,30,19
India,Himachal Pradesh,Baddi,"HIMUDA Complex Phase-1, Baddi - HPPCB",02-02-2024 04:00:00,30.943887,76.801991,CO,2,71,36
India,Jammu_and_Kashmir,Srinagar,"Rajbagh, Srinagar - JKSPCB",02-02-2024 04:00:00,34.066206,74.819820,PM2.5,NA,NA,NA
India,Jharkhand,Dhanbad,"Kalakusuma, Dhanbad - DMC",02-02-2024 04:00:00,23.811548,86.481238,SO2,NA,NA,NA
India,Jharkhand,Dhanbad,"Kalakusuma, Dhanbad - DMC",02-02-2024 04:00:00,23.811548,86.481238,CO,NA,NA,NA
India,Karnataka,Bagalkot,"Vidayagiri, Bagalkot - KSPCB",02-02-2024 04:00:00,16.172806,75.659694,PM10,46,51,49
India,Karnataka,Belgaum,"Ramteerth Nagar, Belgaum - KSPCB",02-02-2024 04:00:00,15.888653,74.541751,NH3,33,34,33
India,Karnataka,Bengaluru,"Hombegowda Nagar, Bengaluru - KSPCB",02-02-2024 04:00:00,12.938539,77.590100,SO2,4,5,4
India,Karnataka,Bengaluru,"Hombegowda Nagar, Bengaluru - KSPCB",02-02-2024 04:00:00,12.938539,77.590100,OZONE,4,5,4
India,Karnataka,Bengaluru,"Jayanagar 5th Block, Bengaluru - KSPCB",02-02-2024 04:00:00,12.920984,77.584908,PM10,46,216,103
India,Karnataka,Bengaluru,"Jayanagar 5th Block, Bengaluru - KSPCB",02-02-2024 04:00:00,12.920984,77.584908,NO2,10,44,17
India,Karnataka,Bengaluru,"Jigani, Bengaluru - KSPCB",02-02-2024 04:00:00,12.7816279,77.6299145,PM2.5,3,303,99
India,Karnataka,Bengaluru,"Peenya, Bengaluru - CPCB",02-02-2024 04:00:00,13.0270199,77.494094,PM2.5,54,98,66
India,Karnataka,Bengaluru,"Peenya, Bengaluru - CPCB",02-02-2024 04:00:00,13.0270199,77.494094,OZONE,37,39,38
India,Karnataka,Bengaluru,"RVCE-Mailasandra, Bengaluru - KSPCB",02-02-2024 04:00:00,12.921418,77.502466,PM10,84,282,158
India,Karnataka,Bengaluru,"RVCE-Mailasandra, Bengaluru - KSPCB",02-02-2024 04:00:00,12.921418,77.502466,NO2,31,31,31
India,Karnataka,Bengaluru,"Sanegurava Halli, Bengaluru - KSPCB",02-02-2024 04:00:00,12.990328,77.5431385,CO,2,82,26
India,Karnataka,Bengaluru,"Shivapura_Peenya, Bengaluru - KSPCB",02-02-2024 04:00:00,13.0246342,77.5080115,PM10,28,188,88
India,Karnataka,Bengaluru,"Shivapura_Peenya, Bengaluru - KSPCB",02-02-2024 04:00:00,13.0246342,77.5080115,NO2,15,16,15
India,Karnataka,Bengaluru,"Shivapura_Peenya, Bengaluru - KSPCB",02-02-2024 04:00:00,13.0246342,77.5080115,OZONE,1,99,29
India,Karnataka,Bengaluru,"Silk Board, Bengaluru - KSPCB",02-02-2024 04:00:00,12.917348,77.622813,PM10,55,453,141
India,Karnataka,Chikkaballapur,"Chikkaballapur Rural, Chikkaballapur - KSPCB",02-02-2024 04:00:00,13.428828,77.731418,NH3,1,1,1
India,Karnataka,Chikkaballapur,"Chikkaballapur Rural, Chikkaballapur - KSPCB",02-02-2024 04:00:00,13.428828,77.731418,OZONE,23,25,25
India,Karnataka,Davanagere,"Devaraj Urs Badavane, Davanagere - KSPCB",02-02-2024 04:00:00,14.475800,75.905200,SO2,1,7,3
India,Karnataka,Dharwad,"Kalabhavan, Dharwad - KSPCB",02-02-2024 04:00:00,15.459706,75.008381,PM2.5,44,76,59
India,Karnataka,Gadag,"Panchal Nagar, Gadag - KSPCB",02-02-2024 04:00:00,15.411456,75.638133,PM2.5,18,71,38
India,Karnataka,Gadag,"Panchal Nagar, Gadag - KSPCB",02-02-2024 04:00:00,15.411456,75.638133,NH3,1,3,2
India,Karnataka,Gadag,"Panchal Nagar, Gadag - KSPCB",02-02-2024 04:00:00,15.411456,75.638133,SO2,5,18,11
India,Karnataka,Gadag,"Panchal Nagar, Gadag - KSPCB",02-02-2024 04:00:00,15.411456,75.638133,CO,46,64,51
India,Karnataka,Hassan,"B.Katihalli, Hassan - KSPCB",02-02-2024 04:00:00,13.008556,76.125258,PM10,48,137,79
India,Karnataka,Hassan,"B.Katihalli, Hassan - KSPCB",02-02-2024 04:00:00,13.008556,76.125258,CO,12,28,19
India,Karnataka,Haveri,"Ashwini Nagar, Haveri - KSPCB",02-02-2024 04:00:00,14.791800,75.389600,OZONE,18,20,18
India,Karnataka,Hubballi,"Lingaraj Nagar, Hubballi - KSPCB",02-02-2024 04:00:00,15.3714823,75.1160168,PM2.5,12,39,28
India,Karnataka,Kalaburagi,"Lal Bahadur Shastri Nagar, Kalaburagi - KSPCB",02-02-2024 04:00:00,17.321993,76.822628,NO2,11,12,11
India,Karnataka,Kalaburagi,"Lal Bahadur Shastri Nagar, Kalaburagi - KSPCB",02-02-2024 04:00:00,17.321993,76.822628,NH3,2,2,2
India,Karnataka,Kalaburagi,"Lal Bahadur Shastri Nagar, Kalaburagi - KSPCB",02-02-2024 04:00:00,17.321993,76.822628,OZONE,2,102,37
India,Karnataka,Kalaburagi,"Mahatma Basaveswar Colony, Kalaburgi - KSPCB",02-02-2024 04:00:00,17.336318,76.847397,NO2,17,29,21
India,Karnataka,Karwar,"KHB Colony, Karwar - KSPCB",02-02-2024 04:00:00,14.816666,74.141003,CO,1,114,2
India,Karnataka,Karwar,"KHB Colony, Karwar - KSPCB",02-02-2024 04:00:00,14.816666,74.141003,OZONE,21,22,22
India,Karnataka,Kolar,"Tamaka Ind. Area, Kolar - KSPCB",02-02-2024 04:00:00,13.1276288,78.1570122,NO2,NA,NA,NA
India,Karnataka,Kolar,"Tamaka Ind. Area, Kolar - KSPCB",02-02-2024 04:00:00,13.1276288,78.1570122,CO,NA,NA,NA
India,Karnataka,Koppal,"Diwator Nagar, Koppal - KSPCB",02-02-2024 04:00:00,15.347630,76.181767,PM10,25,78,48
India,Karnataka,Koppal,"Diwator Nagar, Koppal - KSPCB",02-02-2024 04:00:00,15.347630,76.181767,OZONE,39,80,57
India,Karnataka,Madikeri,"Stuart Hill, Madikeri - KSPCB",02-02-2024 04:00:00,12.415911,75.735050,NH3,NA,NA,NA
India,Karnataka,Mangalore,"Kadri, Mangalore - KSPCB",02-02-2024 04:00:00,12.889250,74.853000,PM2.5,50,99,74
