country,state,city,station,last_update,latitude,longitude,pollutant_id,pollutant_min,pollutant_max,pollutant_avg
India,Andhra_Pradesh,Amaravati,"Secretariat, Amaravati - APPCB",02-02-2024 00:00:00,16.5150833,80.5181667,NO2,9,24,13
India,Andhra_Pradesh,Kadapa,"Yerramukkapalli, Kadapa - APPCB",02-02-2024 00:00:00,14.465052,78.824187,NO2,8,8,8
India,Andhra_Pradesh,Rajamahendravaram,"Anand Kala Kshetram, Rajamahendravaram - APPCB",02-02-2024 00:00:00,16.9872867,81.7363176,NO2,13,43,27
India,Andhra_Pradesh,Rajamahendravaram,"Anand Kala Kshetram, Rajamahendravaram - APPCB",02-02-2024 00:00:00,16.9872867,81.7363176,SO2,12,29,18
India,Andhra_Pradesh,Tirupati,"Vaikuntapuram, Tirupati - APPCB",02-02-2024 00:00:00,13.615387,79.409230,SO2,4,5,5
India,Andhra_Pradesh,Tirupati,"Vaikuntapuram, Tirupati - APPCB",02-02-2024 00:00:00,13.615387,79.409230,CO,8,16,12
India,Andhra_Pradesh,Vijayawada,"HB Colony, Vijayawada - APPCB",02-02-2024 00:00:00,16.536107,80.594233,NO2,9,21,14
India,Andhra_Pradesh,Vijayawada,"HB Colony, Vijayawada - APPCB",02-02-2024 00:00:00,16.536107,80.594233,OZONE,7,48,21
India,Andhra_Pradesh,Vijayawada,"Kanuru, Vijayawada - APPCB",02-02-2024 00:00:00,16.486692,80.699436,PM10,57,77,70
India,Andhra_Pradesh,Vijayawada,"Rajiv Gandhi Park, Vijayawada - APPCB",02-02-2024 00:00:00,16.509717,80.612222,PM2.5,32,60,45
India,Andhra_Pradesh,Vijayawada,"Rajiv Gandhi Park, Vijayawada - APPCB",02-02-2024 00:00:00,16.509717,80.612222,CO,32,41,41
India,Andhra_Pradesh,Vijayawada,"Rajiv Nagar, Vijayawada - APPCB",02-02-2024 00:00:00,16.554731,80.649110,SO2,17,39,29
India,Andhra_Pradesh,Visakhapatnam,"GVM Corporation, Visakhapatnam - APPCB",02-02-2024 00:00:00,17.72,83.3,PM10,NA,NA,NA
India,Andhra_Pradesh,Visakhapatnam,"GVM Corporation, Visakhapatnam - APPCB",02-02-2024 00:00:00,17.72,83.3,SO2,NA,NA,NA
India,Assam,Byrnihat,"Central Academy for SFS, Byrnihat - PCBA",02-02-2024 00:00:00,26.071318,91.87488,NH3,3,8,5
India,Assam,Byrnihat,"Central Academy for SFS, Byrnihat - PCBA",02-02-2024 00:00:00,26.071318,91.87488,OZONE,12,14,12
India,Assam,Guwahati,"IITG, Guwahati - PCBA",02-02-2024 00:00:00,26.2028636,91.70046436,CO,11,20,16
India,Assam,Guwahati,"IITG, Guwahati - PCBA",02-02-2024 00:00:00,26.2028636,91.70046436,OZONE,4,61,12
India,Assam,Guwahati,"LGBI Airport, Guwahati - PCBA",02-02-2024 00:00:00,26.10887,91.589544,NO2,12,68,35
India,Assam,Guwahati,"Pan Bazaar, Guwahati - PCBA",02-02-2024 00:00:00,26.187500,91.744194,NH3,3,4,4
India,Assam,Guwahati,"Railway Colony, Guwahati - PCBA",02-02-2024 00:00:00,26.181742,91.78063,PM10,76,325,142
India,Assam,Nagaon,"Christianpatty, Nagaon - PCBA",02-02-2024 00:00:00,26.349082,92.68449,NO2,11,20,15
India,Assam,Nalbari,"Bata Chowk, Nalbari - PCBA",02-02-2024 00:00:00,26.446912,91.439057,NH3,1,4,1
India,Assam,Nalbari,"Bata Chowk, Nalbari - PCBA",02-02-2024 00:00:00,26.446912,91.439057,SO2,5,11,8
India,Assam,Nalbari,"Bata Chowk, Nalbari - PCBA",02-02-2024 00:00:00,26.446912,91.439057,OZONE,13,83,37
India,Assam,Silchar,"Tarapur, Silchar - PCBA",02-02-2024 00:00:00,24.82827,92.79525,NH3,1,1,1
India,Assam,Silchar,"Tarapur, Silchar - PCBA",02-02-2024 00:00:00,24.82827,92.79525,SO2,NA,NA,NA
India,Assam,Sivasagar,"Girls College, Sivasagar - PCBA",02-02-2024 00:00:00,26.987634,94.636574,PM2.5,14,40,24
India,Bihar,Araria,"Kharahiya Basti, Araria - BSPCB",02-02-2024 00:00:00,26.146529,87.454184,NO2,7,8,7
India,Bihar,Araria,"Kharahiya Basti, Araria - BSPCB",02-02-2024 00:00:00,26.146529,87.454184,NH3,6,11,7
India,Bihar,Arrah,"New DM Office, Arrah - BSPCB",02-02-2024 00:00:00,25.5626095,84.663264,PM2.5,120,355,287
India,Bihar,Arrah,"New DM Office, Arrah - BSPCB",02-02-2024 00:00:00,25.5626095,84.663264,PM10,138,310,214
India,Bihar,Arrah,"New DM Office, Arrah - BSPCB",02-02-2024 00:00:00,25.5626095,84.663264,SO2,15,21,18
India,Bihar,Arrah,"New DM Office, Arrah - BSPCB",02-02-2024 00:00:00,25.5626095,84.663264,OZONE,11,40,15
India,Bihar,Aurangabad,"Gurdeo Nagar, Aurangabad - BSPCB",02-02-2024 00:00:00,24.75746,84.366208,NH3,9,19,12
India,Bihar,Aurangabad,"Gurdeo Nagar, Aurangabad - BSPCB",02-02-2024 00:00:00,24.75746,84.366208,CO,2,104,77
India,Bihar,Aurangabad,"Gurdeo Nagar, Aurangabad - BSPCB",02-02-2024 00:00:00,24.75746,84.366208,OZONE,2,82,25
India,Bihar,Bettiah,"Kamalnath Nagar, Bettiah - BSPCB",02-02-2024 00:00:00,26.80365,84.51954,PM10,NA,NA,NA
India,Bihar,Bhagalpur,"DM Office_Kachari Chowk, Bhagalpur - BSPCB",02-02-2024 00:00:00,25.251013,86.989001,PM10,108,262,194
India,Bihar,Bhagalpur,"DM Office_Kachari Chowk, Bhagalpur - BSPCB",02-02-2024 00:00:00,25.251013,86.989001,NH3,4,9,6
India,Bihar,Bhagalpur,"DM Office_Kachari Chowk, Bhagalpur - BSPCB",02-02-2024 00:00:00,25.251013,86.989001,OZONE,25,29,27
India,Bihar,Bhagalpur,"Mayaganj, Bhagalpur - BSPCB",02-02-2024 00:00:00,25.265194,87.012947,PM2.5,90,338,283
India,Bihar,Bhagalpur,"Mayaganj, Bhagalpur - BSPCB",02-02-2024 00:00:00,25.265194,87.012947,PM10,76,192,154
India,Bihar,Chhapra,"Darshan Nagar, Chhapra - BSPCB",02-02-2024 00:00:00,25.7808257,84.7446768,NO2,21,36,27
India,Bihar,Chhapra,"Darshan Nagar, Chhapra - BSPCB",02-02-2024 00:00:00,25.7808257,84.7446768,CO,34,59,45
India,Bihar,Gaya,"Collectorate, Gaya - BSPCB",02-02-2024 00:00:00,24.7955,84.9994,SO2,16,39,25
India,Bihar,Gaya,"SFTI Kusdihra, Gaya - BSPCB",02-02-2024 00:00:00,24.762518,84.982348,PM2.5,128,284,211
India,Bihar,Gaya,"SFTI Kusdihra, Gaya - BSPCB",02-02-2024 00:00:00,24.762518,84.982348,PM10,106,134,120
India,Bihar,Gaya,"SFTI Kusdihra, Gaya - BSPCB",02-02-2024 00:00:00,24.762518,84.982348,OZONE,4,60,29
India,Bihar,Hajipur,"Industrial Area, Hajipur - BSPCB",02-02-2024 00:00:00,25.697189,85.245900,SO2,5,6,6
India,Bihar,Katihar,"Mirchaibari, Katihar - BSPCB",02-02-2024 00:00:00,25.560083,87.553265,NO2,11,36,20
India,Bihar,Katihar,"Mirchaibari, Katihar - BSPCB",02-02-2024 00:00:00,25.560083,87.553265,SO2,15,20,18
India,Bihar,Kishanganj,"SDM Office_Khagra, Kishanganj - BSPCB",02-02-2024 00:00:00,26.0881305,87.93840336,NH3,12,20,14
India,Bihar,Manguraha,"Forest Rest House, Manguraha - BSPCB",02-02-2024 00:00:00,27.308328,84.531742,NO2,5,10,7
India,Bihar,Munger,"Town Hall, Munger - BSPCB",02-02-2024 00:00:00,25.376776,86.471523,PM10,130,405,203
India,Bihar,Muzaffarpur,"Buddha Colony, Muzaffarpur - BSPCB",02-02-2024 00:00:00,26.11442,85.39813,OZONE,NA,NA,NA
India,Bihar,Muzaffarpur,"MIT-Daudpur Kothi, Muzaffarpur - BSPCB",02-02-2024 00:00:00,26.1403345,85.3650192,PM2.5,137,372,292
India,Bihar,Muzaffarpur,"MIT-Daudpur Kothi, Muzaffarpur - BSPCB",02-02-2024 00:00:00,26.1403345,85.3650192,NH3,4,6,5
India,Bihar,Muzaffarpur,"MIT-Daudpur Kothi, Muzaffarpur - BSPCB",02-02-2024 00:00:00,26.1403345,85.3650192,OZONE,5,70,22
India,Bihar,Muzaffarpur,"Muzaffarpur Collectorate, Muzaffarpur - BSPCB",02-02-2024 00:00:00,26.1209,85.3647,NO2,4,10,8
India,Bihar,Patna,"Govt. High School Shikarpur, Patna - BSPCB",02-02-2024 00:00:00,25.592539,85.227158,PM2.5,232,373,328
India,Bihar,Patna,"IGSC Planetarium Complex, Patna - BSPCB",02-02-2024 00:00:00,25.610369,85.132568,NO2,14,15,15
India,Bihar,Patna,"Muradpur, Patna - BSPCB",02-02-2024 00:00:00,25.619651,85.147382,NH3,3,5,4
India,Bihar,Patna,"Rajbansi Nagar, Patna - BSPCB",02-02-2024 00:00:00,25.599486,85.113666,NH3,6,10,7
India,Bihar,Patna,"Samanpura, Patna - BSPCB",02-02-2024 00:00:00,25.596727,85.085624,PM2.5,317,500,389
India,Bihar,Rajgir,"Dangi Tola, Rajgir - BSPCB",02-02-2024 00:00:00,25.03280,85.41948,PM2.5,NA,NA,NA
India,Bihar,Rajgir,"Dangi Tola, Rajgir - BSPCB",02-02-2024 00:00:00,25.03280,85.41948,PM10,NA,NA,NA
India,Bihar,Rajgir,"Dangi Tola, Rajgir - BSPCB",02-02-2024 00:00:00,25.03280,85.41948,NH3,NA,NA,NA
India,Bihar,Saharsa,"Police Line, Saharsa - BSPCB",02-02-2024 00:00:00,25.892357,86.590325,PM10,103,257,163
India,Bihar,Samastipur,"DM Office_Kasipur, Samastipur - BSPCB",02-02-2024 00:00:00,25.859655,85.77944,NO2,2,14,6
India,Bihar,Samastipur,"DM Office_Kasipur, Samastipur - BSPCB",02-02-2024 00:00:00,25.859655,85.77944,NH3,5,5,5
India,Bihar,Samastipur,"DM Office_Kasipur, Samastipur - BSPCB",02-02-2024 00:00:00,25.859655,85.77944,SO2,7,13,10
India,Bihar,Sasaram,"Dada Peer, Sasaram - BSPCB",02-02-2024 00:00:00,24.952822,84.002396,NH3,4,18,8
India,Bihar,Siwan,"Chitragupta Nagar, Siwan - BSPCB",02-02-2024 00:00:00,26.2271665,84.3570427,PM2.5,127,336,288
India,Bihar,Siwan,"Chitragupta Nagar, Siwan - BSPCB",02-02-2024 00:00:00,26.2271665,84.3570427,PM10,104,212,168
India,Bihar,Siwan,"Chitragupta Nagar, Siwan - BSPCB",02-02-2024 00:00:00,26.2271665,84.3570427,NH3,2,46,8
India,Bihar,Siwan,"Chitragupta Nagar, Siwan - BSPCB",02-02-2024 00:00:00,26.2271665,84.3570427,SO2,24,36,33
India,Bihar,Siwan,"Chitragupta Nagar, Siwan - BSPCB",02-02-2024 00:00:00,26.2271665,84.3570427,CO,44,187,176
India,Chandigarh,Chandigarh,"Sector 22, Chandigarh - CPCC",02-02-2024 00:00:00,30.735567,76.775714,NO2,14,85,48
India,Chandigarh,Chandigarh,"Sector 22, Chandigarh - CPCC",02-02-2024 00:00:00,30.735567,76.775714,NH3,4,9,6
India,Chandigarh,Chandigarh,"Sector 22, Chandigarh - CPCC",02-02-2024 00:00:00,30.735567,76.775714,SO2,7,43,12
India,Chandigarh,Chandigarh,"Sector-25, Chandigarh - CPCC",02-02-2024 00:00:00,30.751462,76.762879,NO2,8,38,25
India,Chandigarh,Chandigarh,"Sector-53, Chandigarh - CPCC",02-02-2024 00:00:00,30.719859,76.738637,SO2,6,9,8
India,Chandigarh,Chandigarh,"Sector-53, Chandigarh - CPCC",02-02-2024 00:00:00,30.719859,76.738637,OZONE,4,34,6
India,Chhattisgarh,Bhilai,"32Bungalows, Bhilai - CECB",02-02-2024 00:00:00,21.194815,81.314770,NO2,12,29,22
India,Chhattisgarh,Bhilai,"32Bungalows, Bhilai - CECB",02-02-2024 00:00:00,21.194815,81.314770,CO,17,60,27
India,Chhattisgarh,Bhilai,"Civic Center, Bhilai - Bhilai Steel Plant",02-02-2024 00:00:00,21.185571,81.343175,OZONE,7,46,16
India,Chhattisgarh,Bhilai,"Hathkhoj, Bhilai - CECB",02-02-2024 00:00:00,21.224231,81.408350,SO2,15,75,32
India,Chhattisgarh,Chhal,"Nawapara SECL Colony, Chhal - CECB",02-02-2024 00:00:00,22.118125,83.140608,PM2.5,75,150,114
India,Chhattisgarh,Korba,"Rampur, Korba - CECB",02-02-2024 00:00:00,22.368195,82.746431,CO,30,40,34
India,Chhattisgarh,Kunjemura,"OP Jindal School, Kunjemura - CECB",02-02-2024 00:00:00,22.126650,83.483212,PM2.5,52,172,95
India,Chhattisgarh,Kunjemura,"OP Jindal School, Kunjemura - CECB",02-02-2024 00:00:00,22.126650,83.483212,PM10,52,413,200
India,Chhattisgarh,Milupara,"Govt. Higher Secondary School, Milupara - CECB",02-02-2024 00:00:00,22.1910172,83.5197009,PM10,61,121,81
India,Chhattisgarh,Milupara,"Govt. Higher Secondary School, Milupara - CECB",02-02-2024 00:00:00,22.1910172,83.5197009,NH3,1,2,2
India,Chhattisgarh,Milupara,"Govt. Higher Secondary School, Milupara - CECB",02-02-2024 00:00:00,22.1910172,83.5197009,SO2,NA,NA,NA
India,Chhattisgarh,Raipur,"AIIMS, Raipur - CECB",02-02-2024 00:00:00,21.258815,81.578979,PM2.5,NA,NA,NA
India,Chhattisgarh,Raipur,"AIIMS, Raipur - CECB",02-02-2024 00:00:00,21.258815,81.578979,PM10,NA,NA,NA
India,Chhattisgarh,Raipur,"AIIMS, Raipur - CECB",02-02-2024 00:00:00,21.258815,81.578979,SO2,6,10,8
India,Chhattisgarh,Raipur,"AIIMS, Raipur - CECB",02-02-2024 00:00:00,21.258815,81.578979,OZONE,1,5,2
India,Chhattisgarh,Raipur,"Bhatagaon New ISBT, Raipur - CECB",02-02-2024 00:00:00,21.219665,81.630094,NH3,2,3,2
India,Chhattisgarh,Raipur,"Bhatagaon New ISBT, Raipur - CECB",02-02-2024 00:00:00,21.219665,81.630094,CO,29,101,61
India,Chhattisgarh,Raipur,"Krishak Nagar, Raipur - CECB",02-02-2024 00:00:00,21.237755,81.705301,NH3,1,1,1
India,Chhattisgarh,Raipur,"Krishak Nagar, Raipur - CECB",02-02-2024 00:00:00,21.237755,81.705301,CO,36,51,45
India,Chhattisgarh,Raipur,"Krishak Nagar, Raipur - CECB",02-02-2024 00:00:00,21.237755,81.705301,OZONE,3,6,4
India,Chhattisgarh,Raipur,"Siltara Phase-II, Raipur - CECB",02-02-2024 00:00:00,21.371751,81.664929,SO2,6,28,10
India,Delhi,Delhi,"Alipur, Delhi - DPCC",02-02-2024 00:00:00,28.815329,77.153010,NH3,9,12,10
India,Delhi,Delhi,"Alipur, Delhi - DPCC",02-02-2024 00:00:00,28.815329,77.153010,OZONE,5,56,33
India,Delhi,Delhi,"Anand Vihar, Delhi - DPCC",02-02-2024 00:00:00,28.647622,77.3158090,CO,43,108,97
India,Delhi,Delhi,"Anand Vihar, Delhi - DPCC",02-02-2024 00:00:00,28.647622,77.3158090,OZONE,15,20,15
India,Delhi,Delhi,"Ashok Vihar, Delhi - DPCC",02-02-2024 00:00:00,28.695381,77.181665,PM10,NA,NA,NA
India,Delhi,Delhi,"Aya Nagar, Delhi - IMD",02-02-2024 00:00:00,28.4706914,77.1099364,PM2.5,1,313,121
India,Delhi,Delhi,"Aya Nagar, Delhi - IMD",02-02-2024 00:00:00,28.4706914,77.1099364,NO2,20,35,25
India,Delhi,Delhi,"Bawana, Delhi - DPCC",02-02-2024 00:00:00,28.776200,77.051074,NH3,9,15,11
India,Delhi,Delhi,"Burari Crossing, Delhi - IMD",02-02-2024 00:00:00,28.7256504,77.2011573,OZONE,21,97,54
India,Delhi,Delhi,"DTU, Delhi - CPCB",02-02-2024 00:00:00,28.7500499,77.1112615,CO,22,82,35
India,Delhi,Delhi,"Dr. Karni Singh Shooting Range, Delhi - DPCC",02-02-2024 00:00:00,28.498571,77.264840,PM10,35,141,80
India,Delhi,Delhi,"Dr. Karni Singh Shooting Range, Delhi - DPCC",02-02-2024 00:00:00,28.498571,77.264840,NO2,25,66,36
India,Delhi,Delhi,"Dr. Karni Singh Shooting Range, Delhi - DPCC",02-02-2024 00:00:00,28.498571,77.264840,NH3,10,15,12
India,Delhi,Delhi,"IHBAS, Dilshad Garden, Delhi - CPCB",02-02-2024 00:00:00,28.6811736,77.3025234,NO2,7,38,27
India,Delhi,Delhi,"IHBAS, Dilshad Garden, Delhi - CPCB",02-02-2024 00:00:00,28.6811736,77.3025234,OZONE,5,23,15
India,Delhi,Delhi,"ITO, Delhi - CPCB",02-02-2024 00:00:00,28.628624,77.241060,SO2,3,25,14
India,Delhi,Delhi,"Jahangirpuri, Delhi - DPCC",02-02-2024 00:00:00,28.732820,77.170633,SO2,10,36,18
India,Delhi,Delhi,"Jawaharlal Nehru Stadium, Delhi - DPCC",02-02-2024 00:00:00,28.580280,77.233829,CO,20,94,70
India,Delhi,Delhi,"Major Dhyan Chand National Stadium, Delhi - DPCC",02-02-2024 00:00:00,28.611281,77.237738,PM10,NA,NA,NA
India,Delhi,Delhi,"Major Dhyan Chand National Stadium, Delhi - DPCC",02-02-2024 00:00:00,28.611281,77.237738,NH3,10,14,12
India,Delhi,Delhi,"Mandir Marg, Delhi - DPCC",02-02-2024 00:00:00,28.636429,77.201067,PM2.5,NA,NA,NA
India,Delhi,Delhi,"NSIT Dwarka, Delhi - CPCB",02-02-2024 00:00:00,28.60909,77.0325413,NO2,14,43,25
India,Delhi,Delhi,"NSIT Dwarka, Delhi - CPCB",02-02-2024 00:00:00,28.60909,77.0325413,CO,32,93,64
India,Delhi,Delhi,"NSIT Dwarka, Delhi - CPCB",02-02-2024 00:00:00,28.60909,77.0325413,OZONE,17,35,24
India,Delhi,Delhi,"Najafgarh, Delhi - DPCC",02-02-2024 00:00:00,28.570173,76.933762,CO,22,109,105
India,Delhi,Delhi,"Narela, Delhi - DPCC",02-02-2024 00:00:00,28.822836,77.101981,SO2,4,8,6
India,Delhi,Delhi,"Nehru Nagar, Delhi - DPCC",02-02-2024 00:00:00,28.567890,77.250515,OZONE,2,52,19
India,Delhi,Delhi,"Okhla Phase-2, Delhi - DPCC",02-02-2024 00:00:00,28.530785,77.271255,SO2,1,7,3
India,Delhi,Delhi,"Patparganj, Delhi - DPCC",02-02-2024 00:00:00,28.623763,77.287209,NO2,32,51,45
India,Delhi,Delhi,"Pusa, Delhi - DPCC",02-02-2024 00:00:00,28.639652,77.146275,NO2,67,177,109
India,Delhi,Delhi,"Pusa, Delhi - DPCC",02-02-2024 00:00:00,28.639652,77.146275,OZONE,14,37,24
India,Delhi,Delhi,"Pusa, Delhi - IMD",02-02-2024 00:00:00,28.636110,77.173332,PM10,6,126,61
India,Delhi,Delhi,"Pusa, Delhi - IMD",02-02-2024 00:00:00,28.636110,77.173332,NO2,22,45,32
India,Delhi,Delhi,"R K Puram, Delhi - DPCC",02-02-2024 00:00:00,28.563262,77.186937,PM2.5,52,303,146
India,Delhi,Delhi,"R K Puram, Delhi - DPCC",02-02-2024 00:00:00,28.563262,77.186937,NH3,5,15,8
India,Delhi,Delhi,"R K Puram, Delhi - DPCC",02-02-2024 00:00:00,28.563262,77.186937,CO,27,100,68
India,Delhi,Delhi,"Rohini, Delhi - DPCC",02-02-2024 00:00:00,28.732528,77.119920,PM10,39,190,101
India,Delhi,Delhi,"Rohini, Delhi - DPCC",02-02-2024 00:00:00,28.732528,77.119920,NO2,23,74,46
India,Delhi,Delhi,"Rohini, Delhi - DPCC",02-02-2024 00:00:00,28.732528,77.119920,SO2,14,19,16
India,Delhi,Delhi,"Shadipur, Delhi - CPCB",02-02-2024 00:00:00,28.6514781,77.1473105,PM10,21,146,85
India,Delhi,Delhi,"Sirifort, Delhi - CPCB",02-02-2024 00:00:00,28.5504249,77.2159377,NO2,51,165,110
India,Delhi,Delhi,"Sonia Vihar, Delhi - DPCC",02-02-2024 00:00:00,28.710508,77.249485,SO2,8,11,10
India,Delhi,Delhi,"Wazirpur, Delhi - DPCC",02-02-2024 00:00:00,28.699793,77.165453,SO2,18,49,30
India,Gujarat,Ahmedabad,"Gyaspur, Ahmedabad - IITM",02-02-2024 00:00:00,22.977134,72.553024,NO2,10,20,15
India,Gujarat,Ahmedabad,"Gyaspur, Ahmedabad - IITM",02-02-2024 00:00:00,22.977134,72.553024,NH3,3,6,4
India,Gujarat,Ahmedabad,"Maninagar, Ahmedabad - GPCB",02-02-2024 00:00:00,23.002657,72.591912,NO2,13,92,41
India,Gujarat,Ahmedabad,"Rakhial, Ahmedabad - IITM",02-02-2024 00:00:00,23.016834,72.625775,PM10,44,177,89
India,Gujarat,Ahmedabad,"Rakhial, Ahmedabad - IITM",02-02-2024 00:00:00,23.016834,72.625775,NO2,11,165,38
India,Gujarat,Ahmedabad,"Rakhial, Ahmedabad - IITM",02-02-2024 00:00:00,23.016834,72.625775,CO,38,112,73
India,Gujarat,Ahmedabad,"SAC ISRO Bopal, Ahmedabad - IITM",02-02-2024 00:00:00,23.041137,72.456691,NO2,NA,NA,NA
India,Gujarat,Ahmedabad,"SAC ISRO Bopal, Ahmedabad - IITM",02-02-2024 00:00:00,23.041137,72.456691,OZONE,NA,NA,NA
India,Gujarat,Ahmedabad,"SVPI Airport Hansol, Ahmedabad - IITM",02-02-2024 00:00:00,23.076793,72.627874,NH3,3,4,4
India,Gujarat,Ankleshwar,"GIDC, Ankleshwar - GPCB",02-02-2024 00:00:00,21.613267,73.010555,OZONE,6,22,19
India,Gujarat,Gandhinagar,"GIFT City, Gandhinagar - IITM",02-02-2024 00:00:00,23.163798,72.677768,PM2.5,39,308,133
India,Gujarat,Gandhinagar,"GIFT City, Gandhinagar - IITM",02-02-2024 00:00:00,23.163798,72.677768,NH3,2,3,3
India,Gujarat,Gandhinagar,"Sector-10, Gandhinagar - GPCB",02-02-2024 00:00:00,23.221714,72.654328,OZONE,1,33,10
India,Gujarat,Vapi,"Phase-1 GIDC, Vapi - GPCB",02-02-2024 00:00:00,20.362421,72.918013,NH3,15,19,17
India,Gujarat,Vapi,"Phase-1 GIDC, Vapi - GPCB",02-02-2024 00:00:00,20.362421,72.918013,CO,105,187,160
India,Gujarat,Vatva,"Phase-4 GIDC, Vatva - GPCB",02-02-2024 00:00:00,22.969611,72.643500,OZONE,2,3,2
India,Haryana,Bahadurgarh,"Arya Nagar, Bahadurgarh - HSPCB",02-02-2024 00:00:00,28.6701,76.9254,NO2,33,41,37
India,Haryana,Bahadurgarh,"Arya Nagar, Bahadurgarh - HSPCB",02-02-2024 00:00:00,28.6701,76.9254,CO,43,60,49
India,Haryana,Bhiwani,"H.B. Colony, Bhiwani - HSPCB",02-02-2024 00:00:00,28.806223,76.141105,CO,24,102,52
India,Haryana,Charkhi Dadri,"Mini Secretariat, Charkhi Dadri - HSPCB",02-02-2024 00:00:00,28.593883,76.270653,PM2.5,43,304,113
India,Haryana,Charkhi Dadri,"Mini Secretariat, Charkhi Dadri - HSPCB",02-02-2024 00:00:00,28.593883,76.270653,NO2,7,19,10
India,Haryana,Charkhi Dadri,"Mini Secretariat, Charkhi Dadri - HSPCB",02-02-2024 00:00:00,28.593883,76.270653,NH3,5,7,5
India,Haryana,Dharuhera,"Municipal Corporation Office, Dharuhera -  HSPCB",02-02-2024 00:00:00,28.206800,76.799700,OZONE,26,65,39
India,Haryana,Faridabad,"New Industrial Town, Faridabad - HSPCB",02-02-2024 00:00:00,28.39072,77.30059,PM10,2,136,71
India,Haryana,Faridabad,"New Industrial Town, Faridabad - HSPCB",02-02-2024 00:00:00,28.39072,77.30059,OZONE,49,134,59
India,Haryana,Faridabad,"Sector 11, Faridabad - HSPCB",02-02-2024 00:00:00,28.376058,77.315741,PM2.5,219,233,227
India,Haryana,Faridabad,"Sector 11, Faridabad - HSPCB",02-02-2024 00:00:00,28.376058,77.315741,CO,24,48,39
India,Haryana,Faridabad,"Sector 30, Faridabad - HSPCB",02-02-2024 00:00:00,28.4417,77.3217,NO2,NA,NA,NA
India,Haryana,Faridabad,"Sector- 16A, Faridabad - HSPCB",02-02-2024 00:00:00,28.4088421,77.3099081,PM2.5,NA,NA,NA
India,Haryana,Gurugram,"Sector-51, Gurugram - HSPCB",02-02-2024 00:00:00,28.4227,77.0667,PM2.5,7,250,130
India,Haryana,Gurugram,"Sector-51, Gurugram - HSPCB",02-02-2024 00:00:00,28.4227,77.0667,PM10,15,157,104
India,Haryana,Gurugram,"Teri Gram, Gurugram - HSPCB",02-02-2024 00:00:00,28.4275,77.1465,PM2.5,20,212,100
India,Haryana,Hisar,"Urban Estate-II, Hisar - HSPCB",02-02-2024 00:00:00,29.140560,75.744941,PM10,NA,NA,NA
India,Haryana,Hisar,"Urban Estate-II, Hisar - HSPCB",02-02-2024 00:00:00,29.140560,75.744941,NO2,NA,NA,NA
India,Haryana,Hisar,"Urban Estate-II, Hisar - HSPCB",02-02-2024 00:00:00,29.140560,75.744941,CO,55,105,83
India,Haryana,Kaithal,"Rishi Nagar, Kaithal - HSPCB",02-02-2024 00:00:00,29.8006,76.4155,NH3,8,35,17
India,Haryana,Kaithal,"Rishi Nagar, Kaithal - HSPCB",02-02-2024 00:00:00,29.8006,76.4155,CO,7,38,32
India,Haryana,Kaithal,"Rishi Nagar, Kaithal - HSPCB",02-02-2024 00:00:00,29.8006,76.4155,OZONE,5,16,9
India,Haryana,Karnal,"Sector-12, Karnal - HSPCB",02-02-2024 00:00:00,29.695300,77.002700,PM2.5,20,221,71
India,Haryana,Karnal,"Sector-12, Karnal - HSPCB",02-02-2024 00:00:00,29.695300,77.002700,PM10,32,132,63
India,Haryana,Karnal,"Sector-12, Karnal - HSPCB",02-02-2024 00:00:00,29.695300,77.002700,OZONE,29,43,31
India,Haryana,Kurukshetra,"Sector-7, Kurukshetra - HSPCB",02-02-2024 00:00:00,29.966942,76.875879,PM10,27,199,81
India,Haryana,Kurukshetra,"Sector-7, Kurukshetra - HSPCB",02-02-2024 00:00:00,29.966942,76.875879,SO2,NA,NA,NA
India,Haryana,Mandikhera,"General Hospital, Mandikhera - HSPCB",02-02-2024 00:00:00,27.9002,76.9938,PM2.5,3,15,7
India,Haryana,Mandikhera,"General Hospital, Mandikhera - HSPCB",02-02-2024 00:00:00,27.9002,76.9938,NO2,17,22,19
India,Haryana,Mandikhera,"General Hospital, Mandikhera - HSPCB",02-02-2024 00:00:00,27.9002,76.9938,OZONE,23,33,27
India,Haryana,Manesar,"Sector-2 IMT, Manesar - HSPCB",02-02-2024 00:00:00,28.360699,76.936090,PM10,39,122,68
India,Haryana,Narnaul,"Shastri Nagar, Narnaul - HSPCB",02-02-2024 00:00:00,28.060249,76.113115,PM2.5,76,301,145
India,Haryana,Palwal,"Shyam Nagar, Palwal - HSPCB",02-02-2024 00:00:00,28.1485564,77.3320667,PM10,NA,NA,NA
India,Haryana,Panchkula,"Sector-6, Panchkula - HSPCB ",02-02-2024 00:00:00,30.7057778,76.8531805555555,PM2.5,NA,NA,NA
India,Haryana,Panchkula,"Sector-6, Panchkula - HSPCB ",02-02-2024 00:00:00,30.7057778,76.8531805555555,NO2,NA,NA,NA
India,Haryana,Panchkula,"Sector-6, Panchkula - HSPCB ",02-02-2024 00:00:00,30.7057778,76.8531805555555,OZONE,NA,NA,NA
India,Haryana,Panipat,"Sector-18, Panipat - HSPCB",02-02-2024 00:00:00,29.497973,76.993331,NH3,2,3,3
India,Haryana,Rohtak,"MD University, Rohtak - HSPCB",02-02-2024 00:00:00,28.52123,76.37138,OZONE,42,54,48
India,Haryana,Sirsa,"F-Block, Sirsa - HSPCB",02-02-2024 00:00:00,29.536400,75.015800,OZONE,NA,NA,NA
India,Haryana,Sonipat,"Murthal, Sonipat - HSPCB",02-02-2024 00:00:00,29.027200,77.062100,PM10,40,116,78
India,Haryana,Sonipat,"Murthal, Sonipat - HSPCB",02-02-2024 00:00:00,29.027200,77.062100,NH3,6,10,9
India,Haryana,Yamuna Nagar,"Gobind Pura, Yamuna Nagar - HSPCB",02-02-2024 00:00:00,30.1480566,77.2893471,PM2.5,19,309,105
India,Jharkhand,Dhanbad,"Kalakusuma, Dhanbad - DMC",02-02-2024 00:00:00,23.811548,86.481238,PM10,NA,NA,NA
India,Jharkhand,Dhanbad,"Kalakusuma, Dhanbad - DMC",02-02-2024 00:00:00,23.811548,86.481238,CO,NA,NA,NA
India,Jharkhand,Pathardih,"Mohalbani Ghat, Pathardih - DMC",02-02-2024 00:00:00,23.669880,86.411725,PM2.5,72,324,188
India,Jharkhand,Pathardih,"Mohalbani Ghat, Pathardih - DMC",02-02-2024 00:00:00,23.669880,86.411725,SO2,25,30,28
India,Jharkhand,Pathardih,"Mohalbani Ghat, Pathardih - DMC",02-02-2024 00:00:00,23.669880,86.411725,CO,56,122,109
India,Karnataka,Bagalkot,"Vidayagiri, Bagalkot - KSPCB",02-02-2024 00:00:00,16.172806,75.659694,PM2.5,16,33,30
India,Karnataka,Bagalkot,"Vidayagiri, Bagalkot - KSPCB",02-02-2024 00:00:00,16.172806,75.659694,PM10,46,51,49
India,Karnataka,Bagalkot,"Vidayagiri, Bagalkot - KSPCB",02-02-2024 00:00:00,16.172806,75.659694,SO2,9,10,9
India,Karnataka,Belgaum,"Ramteerth Nagar, Belgaum - KSPCB",02-02-2024 00:00:00,15.888653,74.541751,PM2.5,22,140,55
India,Karnataka,Belgaum,"Ramteerth Nagar, Belgaum - KSPCB",02-02-2024 00:00:00,15.888653,74.541751,PM10,36,124,63
India,Karnataka,Belgaum,"Ramteerth Nagar, Belgaum - KSPCB",02-02-2024 00:00:00,15.888653,74.541751,OZONE,19,20,20
India,Karnataka,Bengaluru,"BTM Layout, Bengaluru - CPCB",02-02-2024 00:00:00,12.9135218,77.5950804,PM2.5,33,64,47
India,Karnataka,Bengaluru,"BTM Layout, Bengaluru - CPCB",02-02-2024 00:00:00,12.9135218,77.5950804,PM10,48,98,66
India,Karnataka,Bengaluru,"BTM Layout, Bengaluru - CPCB",02-02-2024 00:00:00,12.9135218,77.5950804,CO,35,36,36
India,Karnataka,Bengaluru,"BTM Layout, Bengaluru - CPCB",02-02-2024 00:00:00,12.9135218,77.5950804,OZONE,11,34,29
India,Karnataka,Bengaluru,"Bapuji Nagar, Bengaluru - KSPCB",02-02-2024 00:00:00,12.951913,77.539784,NH3,1,1,1
India,Karnataka,Bengaluru,"Bapuji Nagar, Bengaluru - KSPCB",02-02-2024 00:00:00,12.951913,77.539784,CO,34,50,38
India,Karnataka,Bengaluru,"City Railway Station, Bengaluru - KSPCB",02-02-2024 00:00:00,12.9756843,77.5660749,PM10,NA,NA,NA
India,Karnataka,Bengaluru,"City Railway Station, Bengaluru - KSPCB",02-02-2024 00:00:00,12.9756843,77.5660749,CO,52,103,79
India,Karnataka,Bengaluru,"Hombegowda Nagar, Bengaluru - KSPCB",02-02-2024 00:00:00,12.938539,77.590100,PM2.5,35,248,63
India,Karnataka,Bengaluru,"Hombegowda Nagar, Bengaluru - KSPCB",02-02-2024 00:00:00,12.938539,77.590100,SO2,4,5,4
India,Karnataka,Bengaluru,"Hombegowda Nagar, Bengaluru - KSPCB",02-02-2024 00:00:00,12.938539,77.590100,CO,16,19,18
India,Karnataka,Bengaluru,"Hombegowda Nagar, Bengaluru - KSPCB",02-02-2024 00:00:00,12.938539,77.590100,OZONE,4,5,4
India,Karnataka,Bengaluru,"Jayanagar 5th Block, Bengaluru - KSPCB",02-02-2024 00:00:00,12.920984,77.584908,SO2,8,42,16
India,Karnataka,Bengaluru,"Jigani, Bengaluru - KSPCB",02-02-2024 00:00:00,12.7816279,77.6299145,OZONE,6,73,41
India,Karnataka,Bengaluru,"Kasturi Nagar, Bengaluru - KSPCB",02-02-2024 00:00:00,13.003872,77.664217,NO2,16,17,17
India,Karnataka,Bengaluru,"Kasturi Nagar, Bengaluru - KSPCB",02-02-2024 00:00:00,13.003872,77.664217,SO2,10,10,10
India,Karnataka,Bengaluru,"Peenya, Bengaluru - CPCB",02-02-2024 00:00:00,13.0270199,77.494094,PM10,66,122,82
India,Karnataka,Bengaluru,"Peenya, Bengaluru - CPCB",02-02-2024 00:00:00,13.0270199,77.494094,NH3,5,6,6
India,Karnataka,Bengaluru,"Peenya, Bengaluru - CPCB",02-02-2024 00:00:00,13.0270199,77.494094,OZONE,37,39,38
India,Karnataka,Bengaluru,"RVCE-Mailasandra, Bengaluru - KSPCB",02-02-2024 00:00:00,12.921418,77.502466,OZONE,41,45,45
India,Karnataka,Bengaluru,"Shivapura_Peenya, Bengaluru - KSPCB",02-02-2024 00:00:00,13.0246342,77.5080115,PM2.5,33,188,86
India,Karnataka,Bengaluru,"Silk Board, Bengaluru - KSPCB",02-02-2024 00:00:00,12.917348,77.622813,PM10,55,453,141
India,Karnataka,Bengaluru,"Silk Board, Bengaluru - KSPCB",02-02-2024 00:00:00,12.917348,77.622813,NH3,5,8,6
India,Karnataka,Bidar,"Naubad, Bidar - KSPCB",02-02-2024 00:00:00,17.930306,77.482194,PM2.5,64,197,112
India,Karnataka,Bidar,"Naubad, Bidar - KSPCB",02-02-2024 00:00:00,17.930306,77.482194,NO2,7,20,9
India,Karnataka,Chamarajanagar,"Urban, Chamarajanagar - KSPCB",02-02-2024 00:00:00,11.55358,76.55521,PM10,35,58,43
India,Karnataka,Chamarajanagar,"Urban, Chamarajanagar - KSPCB",02-02-2024 00:00:00,11.55358,76.55521,OZONE,14,36,22
India,Karnataka,Chikkaballapur,"Chikkaballapur Rural, Chikkaballapur - KSPCB",02-02-2024 00:00:00,13.428828,77.731418,NH3,1,1,1
India,Karnataka,Chikkaballapur,"Chikkaballapur Rural, Chikkaballapur - KSPCB",02-02-2024 00:00:00,13.428828,77.731418,CO,NA,NA,NA
India,Karnataka,Chikkamagaluru,"Kalyana Nagara, Chikkamagaluru - KSPCB",02-02-2024 00:00:00,13.328028,75.797056,NO2,17,31,23
India,Karnataka,Chikkamagaluru,"Kalyana Nagara, Chikkamagaluru - KSPCB",02-02-2024 00:00:00,13.328028,75.797056,SO2,3,6,4
India,Karnataka,Davanagere,"Devaraj Urs Badavane, Davanagere - KSPCB",02-02-2024 00:00:00,14.475800,75.905200,NO2,10,14,12
India,Karnataka,Davanagere,"Devaraj Urs Badavane, Davanagere - KSPCB",02-02-2024 00:00:00,14.475800,75.905200,CO,16,22,18
India,Karnataka,Dharwad,"Kalabhavan, Dharwad - KSPCB",02-02-2024 00:00:00,15.459706,75.008381,NO2,17,31,25
India,Karnataka,Dharwad,"Kalabhavan, Dharwad - KSPCB",02-02-2024 00:00:00,15.459706,75.008381,SO2,4,12,5
India,Karnataka,Dharwad,"Kalabhavan, Dharwad - KSPCB",02-02-2024 00:00:00,15.459706,75.008381,OZONE,6,45,13
India,Karnataka,Gadag,"Panchal Nagar, Gadag - KSPCB",02-02-2024 00:00:00,15.411456,75.638133,OZONE,29,58,35
India,Karnataka,Hassan,"B.Katihalli, Hassan - KSPCB",02-02-2024 00:00:00,13.008556,76.125258,PM2.5,25,167,65
India,Karnataka,Hassan,"B.Katihalli, Hassan - KSPCB",02-02-2024 00:00:00,13.008556,76.125258,NO2,10,14,12
India,Karnataka,Haveri,"Ashwini Nagar, Haveri - KSPCB",02-02-2024 00:00:00,14.791800,75.389600,PM2.5,29,97,69
India,Karnataka,Haveri,"Ashwini Nagar, Haveri - KSPCB",02-02-2024 00:00:00,14.791800,75.389600,NO2,14,45,32
India,Karnataka,Hubballi,"Lingaraj Nagar, Hubballi - KSPCB",02-02-2024 00:00:00,15.3714823,75.1160168,PM10,45,65,56
India,Karnataka,Hubballi,"Lingaraj Nagar, Hubballi - KSPCB",02-02-2024 00:00:00,15.3714823,75.1160168,OZONE,12,37,24
India,Karnataka,Kalaburagi,"Mahatma Basaveswar Colony, Kalaburgi - KSPCB",02-02-2024 00:00:00,17.336318,76.847397,PM2.5,15,55,32
India,Karnataka,Karwar,"KHB Colony, Karwar - KSPCB",02-02-2024 00:00:00,14.816666,74.141003,NH3,2,3,2
India,Karnataka,Karwar,"KHB Colony, Karwar - KSPCB",02-02-2024 00:00:00,14.816666,74.141003,CO,1,114,2
India,Karnataka,Karwar,"KHB Colony, Karwar - KSPCB",02-02-2024 00:00:00,14.816666,74.141003,OZONE,21,22,22
India,Karnataka,Koppal,"Diwator Nagar, Koppal - KSPCB",02-02-2024 00:00:00,15.347630,76.181767,NH3,4,6,5
India,Karnataka,Koppal,"Diwator Nagar, Koppal - KSPCB",02-02-2024 00:00:00,15.347630,76.181767,SO2,75,77,76
India,Karnataka,Koppal,"Diwator Nagar, Koppal - KSPCB",02-02-2024 00:00:00,15.347630,76.181767,OZONE,33,80,62
India,Karnataka,Madikeri,"Stuart Hill, Madikeri - KSPCB",02-02-2024 00:00:00,12.415911,75.735050,PM2.5,23,73,54
India,Karnataka,Madikeri,"Stuart Hill, Madikeri - KSPCB",02-02-2024 00:00:00,12.415911,75.735050,NO2,3,6,4
India,Karnataka,Mangalore,"Kadri, Mangalore - KSPCB",02-02-2024 00:00:00,12.889250,74.853000,PM10,49,107,78
India,Karnataka,Ramanagara,"Vijay Nagar, Ramanagara - KSPCB",02-02-2024 00:00:00,12.733409,77.298051,NO2,3,27,12
India,Karnataka,Ramanagara,"Vijay Nagar, Ramanagara - KSPCB",02-02-2024 00:00:00,12.733409,77.298051,SO2,14,24,19
India,Karnataka,Shivamogga,"Vinoba Nagara, Shivamogga - KSPCB",02-02-2024 00:00:00,13.940000,75.555917,PM10,54,76,63
India,Karnataka,Shivamogga,"Vinoba Nagara, Shivamogga - KSPCB",02-02-2024 00:00:00,13.940000,75.555917,NH3,2,9,4
India,Karnataka,Tumakuru,"Thimmalapura, Tumakuru - KSPCB",02-02-2024 00:00:00,13.377516,77.099072,NH3,NA,NA,NA
India,Karnataka,Udupi,"Brahmagiri, Udupi - KSPCB",02-02-2024 00:00:00,13.34194444,74.74694444,PM10,34,87,56
India,Karnataka,Vijayapura,"Ibrahimpur, Vijayapura - KSPCB",02-02-2024 00:00:00,16.802639,75.722694,CO,130,130,130
India,Karnataka,Vijayapura,"Ibrahimpur, Vijayapura - KSPCB",02-02-2024 00:00:00,16.802639,75.722694,OZONE,14,16,15
India,Karnataka,Yadgir,"Collector Office, Yadgir - KSPCB",02-02-2024 00:00:00,16.7602,77.1428,NH3,1,2,1
India,Kerala,Eloor,"Udyogamandal, Eloor - Kerala PCB",02-02-2024 00:00:00,10.073232,76.302765,PM10,35,57,43
India,Kerala,Eloor,"Udyogamandal, Eloor - Kerala PCB",02-02-2024 00:00:00,10.073232,76.302765,OZONE,10,14,12
India,Kerala,Kannur,"Thavakkara, Kannur - Kerala PCB",02-02-2024 00:00:00,11.875000,75.373200,PM2.5,43,51,48
India,Kerala,Thiruvananthapuram,"Kariavattom, Thiruvananthapuram - Kerala PCB",02-02-2024 00:00:00,8.563700,76.886500,PM10,75,83,80
India,Kerala,Thiruvananthapuram,"Plammoodu, Thiruvananthapuram - Kerala PCB",02-02-2024 00:00:00,8.5149093,76.9435879,PM2.5,27,80,44
India,Kerala,Thiruvananthapuram,"Plammoodu, Thiruvananthapuram - Kerala PCB",02-02-2024 00:00:00,8.5149093,76.9435879,NO2,12,14,13
India,Kerala,Thrissur,"Corporation Ground, Thrissur - Kerala PCB",02-02-2024 00:00:00,10.532400,76.215900,PM2.5,48,55,51
India,Kerala,Thrissur,"Corporation Ground, Thrissur - Kerala PCB",02-02-2024 00:00:00,10.532400,76.215900,OZONE,20,31,25
India,Madhya Pradesh,Bhopal,"Idgah Hills, Bhopal - MPPCB",02-02-2024 00:00:00,23.264759,77.381568,PM10,54,142,98
India,Madhya Pradesh,Bhopal,"Idgah Hills, Bhopal - MPPCB",02-02-2024 00:00:00,23.264759,77.381568,OZONE,36,89,51
India,Madhya Pradesh,Dewas,"Bhopal Chauraha, Dewas - MPPCB",02-02-2024 00:00:00,22.9682591,76.064118,CO,14,50,31
India,Madhya Pradesh,Gwalior,"City Center, Gwalior - MPPCB",02-02-2024 00:00:00,26.203442,78.193251,PM2.5,29,300,139
India,Madhya Pradesh,Gwalior,"Deen Dayal Nagar, Gwalior - MPPCB",02-02-2024 00:00:00,26.259242,78.216432,CO,24,78,55
India,Madhya Pradesh,Gwalior,"Maharaj Bada, Gwalior - MPPCB",02-02-2024 00:00:00,26.200388,78.147714,PM10,119,198,151
India,Madhya Pradesh,Indore,"Chhoti Gwaltoli, Indore - MPPCB",02-02-2024 00:00:00,22.4310,75.5213,NO2,49,165,106
India,Madhya Pradesh,Indore,"Chhoti Gwaltoli, Indore - MPPCB",02-02-2024 00:00:00,22.4310,75.5213,OZONE,11,55,25
India,Madhya Pradesh,Indore,"Maguda Nagar, Indore - IMC",02-02-2024 00:00:00,22.7524,75.8872,NH3,1,2,1
India,Madhya Pradesh,Indore,"Maguda Nagar, Indore - IMC",02-02-2024 00:00:00,22.7524,75.8872,CO,20,93,22
India,Madhya Pradesh,Indore,"Maguda Nagar, Indore - IMC",02-02-2024 00:00:00,22.7524,75.8872,OZONE,35,42,36
India,Madhya Pradesh,Indore,"Regional Park, Indore - IMC",02-02-2024 00:00:00,22.6780,75.8559,PM10,NA,NA,NA
India,Madhya Pradesh,Indore,"Regional Park, Indore - IMC",02-02-2024 00:00:00,22.6780,75.8559,NO2,6,16,10
India,Madhya Pradesh,Indore,"Residency Area, Indore - IMC",02-02-2024 00:00:00,22.7084,75.8815,NH3,NA,NA,NA
India,Madhya Pradesh,Jabalpur,"Govindh Bhavan Colony, Jabalpur - JMC",02-02-2024 00:00:00,23.163174,79.973061,PM2.5,40,103,60
India,Madhya Pradesh,Jabalpur,"Govindh Bhavan Colony, Jabalpur - JMC",02-02-2024 00:00:00,23.163174,79.973061,NH3,5,5,5
India,Madhya Pradesh,Jabalpur,"Gupteshwar, Jabalpur - JMC",02-02-2024 00:00:00,23.142888,79.916147,PM2.5,33,300,101
India,Madhya Pradesh,Jabalpur,"Gupteshwar, Jabalpur - JMC",02-02-2024 00:00:00,23.142888,79.916147,PM10,36,176,92
India,Madhya Pradesh,Jabalpur,"Marhatal, Jabalpur - MPPCB",02-02-2024 00:00:00,23.168606,79.932247,PM2.5,74,350,200
India,Madhya Pradesh,Jabalpur,"Marhatal, Jabalpur - MPPCB",02-02-2024 00:00:00,23.168606,79.932247,PM10,86,340,160
India,Madhya Pradesh,Jabalpur,"Suhagi, Jabalpur - JMC",02-02-2024 00:00:00,23.218135,79.957770,NO2,30,42,38
India,Madhya Pradesh,Jabalpur,"Suhagi, Jabalpur - JMC",02-02-2024 00:00:00,23.218135,79.957770,SO2,19,54,33
India,Madhya Pradesh,Katni,"Gole Bazar, Katni - MPPCB",02-02-2024 00:00:00,23.50016,80.23284,PM10,NA,NA,NA
India,Madhya Pradesh,Katni,"Gole Bazar, Katni - MPPCB",02-02-2024 00:00:00,23.50016,80.23284,NO2,10,111,48
India,Madhya Pradesh,Maihar,"Sahilara, Maihar - KJS Cements",02-02-2024 00:00:00,24.2613009,80.7231783,SO2,14,19,16
India,Madhya Pradesh,Mandideep,"Sector-D Industrial Area, Mandideep - MPPCB",02-02-2024 00:00:00,23.108440,77.511428,NO2,72,183,128
India,Madhya Pradesh,Mandideep,"Sector-D Industrial Area, Mandideep - MPPCB",02-02-2024 00:00:00,23.108440,77.511428,CO,14,105,54
India,Madhya Pradesh,Mandideep,"Sector-D Industrial Area, Mandideep - MPPCB",02-02-2024 00:00:00,23.108440,77.511428,OZONE,39,57,45
India,Madhya Pradesh,Pithampur,"Sector-2 Industrial Area, Pithampur - MPPCB",02-02-2024 00:00:00,22.624758,75.675238,NO2,7,34,17
India,Madhya Pradesh,Pithampur,"Sector-2 Industrial Area, Pithampur - MPPCB",02-02-2024 00:00:00,22.624758,75.675238,NH3,4,7,5
India,Madhya Pradesh,Pithampur,"Sector-2 Industrial Area, Pithampur - MPPCB",02-02-2024 00:00:00,22.624758,75.675238,SO2,12,19,15
India,Madhya Pradesh,Ratlam,"Shasthri Nagar, Ratlam - IPCA Lab",02-02-2024 00:00:00,23.331731,75.045981,PM10,79,304,148
India,Madhya Pradesh,Ratlam,"Shasthri Nagar, Ratlam - IPCA Lab",02-02-2024 00:00:00,23.331731,75.045981,SO2,14,18,15
India,Madhya Pradesh,Satna,"Bandhavgar Colony, Satna - Birla Cement",02-02-2024 00:00:00,24.58434363,80.8549414,PM10,44,65,55
India,Madhya Pradesh,Satna,"Bandhavgar Colony, Satna - Birla Cement",02-02-2024 00:00:00,24.58434363,80.8549414,NO2,8,24,12
India,Madhya Pradesh,Singrauli,"Suryakiran Bhawan NCL, Singrauli - MPPCB",02-02-2024 00:00:00,24.108970,82.645580,CO,33,140,78
India,Madhya Pradesh,Ujjain,"Mahakaleshwar Temple, Ujjain - MPPCB",02-02-2024 00:00:00,23.182719 ,75.768218 ,PM10,40,143,79
India,Madhya Pradesh,Ujjain,"Mahakaleshwar Temple, Ujjain - MPPCB",02-02-2024 00:00:00,23.182719 ,75.768218 ,OZONE,101,140,124
India,Maharashtra,Ahmednagar,"Tarakpur, Ahmednagar - MPCB",02-02-2024 00:00:00,19.10122,74.73339,PM2.5,36,83,59
India,Maharashtra,Ahmednagar,"Tarakpur, Ahmednagar - MPCB",02-02-2024 00:00:00,19.10122,74.73339,PM10,58,148,107
India,Maharashtra,Akola,"Ramdaspeth, Akola - MPCB",02-02-2024 00:00:00,20.719516,77.000253,CO,26,108,60
India,Maharashtra,Amravati,"Shivneri Colony, Amravati - MPCB",02-02-2024 00:00:00,20.9402359,77.7895248,PM2.5,60,117,84
India,Maharashtra,Amravati,"Shivneri Colony, Amravati - MPCB",02-02-2024 00:00:00,20.9402359,77.7895248,NH3,1,3,2
India,Maharashtra,Amravati,"Shivneri Colony, Amravati - MPCB",02-02-2024 00:00:00,20.9402359,77.7895248,SO2,6,26,13
India,Maharashtra,Amravati,"Shri Shivaji Science College, Amaravati - MPCB",02-02-2024 00:00:00,20.939198,77.765701,NH3,3,6,4
India,Maharashtra,Amravati,"Shri Shivaji Science College, Amaravati - MPCB",02-02-2024 00:00:00,20.939198,77.765701,OZONE,1,81,45
India,Maharashtra,Aurangabad,"MIDC Chilkalthana, Aurangabad - MPCB",02-02-2024 00:00:00,19.875620,75.387310,PM10,77,147,110
India,Maharashtra,Aurangabad,"More Chowk Waluj, Aurangabad - MPCB",02-02-2024 00:00:00,19.8389439,75.244448,SO2,11,13,12
India,Maharashtra,Aurangabad,"More Chowk Waluj, Aurangabad - MPCB",02-02-2024 00:00:00,19.8389439,75.244448,CO,16,45,28
India,Maharashtra,Aurangabad,"More Chowk Waluj, Aurangabad - MPCB",02-02-2024 00:00:00,19.8389439,75.244448,OZONE,6,13,8
India,Maharashtra,Belapur,"CBD Belapur, Belapur - MPCB",02-02-2024 00:00:00,19.0243902,73.0406721,SO2,NA,NA,NA
India,Maharashtra,Belapur,"CBD Belapur, Belapur - MPCB",02-02-2024 00:00:00,19.0243902,73.0406721,OZONE,1,12,3
India,Maharashtra,Bhiwandi,"Gokul Nagar, Bhiwandi - MPCB",02-02-2024 00:00:00,19.309073,73.057223,PM10,51,188,119
India,Maharashtra,Boisar,"Khaira, Boisar - MPCB",02-02-2024 00:00:00,19.786089,72.757971,NO2,NA,NA,NA
India,Maharashtra,Boisar,"Khaira, Boisar - MPCB",02-02-2024 00:00:00,19.786089,72.757971,SO2,NA,NA,NA
India,Maharashtra,Boisar,"Khaira, Boisar - MPCB",02-02-2024 00:00:00,19.786089,72.757971,OZONE,5,7,6
India,Maharashtra,Chandrapur,"MIDC Khutala, Chandrapur - MPCB",02-02-2024 00:00:00,19.9775302,79.2337086,CO,25,86,46
India,Maharashtra,Dhule,"Deopur, Dhule - MPCB",02-02-2024 00:00:00,20.918946,74.776388,PM10,77,193,121
India,Maharashtra,Dhule,"Deopur, Dhule - MPCB",02-02-2024 00:00:00,20.918946,74.776388,NH3,2,4,3
India,Maharashtra,Jalgaon,"Prabhat Colony, Jalgaon - MPCB",02-02-2024 00:00:00,21.001264,75.565602,OZONE,2,61,23
India,Maharashtra,Jalna,"Old MIDC, Jalna - MPCB",02-02-2024 00:00:00,19.854616,75.905894,NO2,14,38,27
India,Maharashtra,Jalna,"Old MIDC, Jalna - MPCB",02-02-2024 00:00:00,19.854616,75.905894,SO2,9,13,11
India,Maharashtra,Kalyan,"Khadakpada, Kalyan - MPCB",02-02-2024 00:00:00,19.25292,73.142019,PM10,69,178,121
India,Maharashtra,Kolhapur,"Shivaji University, Kolhapur - MPCB",02-02-2024 00:00:00,16.6870449,74.2505872,SO2,2,11,4
India,Maharashtra,Kolhapur,"Sinchan Bhavan, Kolhapur - MPCB",02-02-2024 00:00:00,16.7143745,74.2426398,NO2,12,41,22
India,Maharashtra,Latur,"Sawe Wadi, Latur - MPCB",02-02-2024 00:00:00,18.39963,76.57452,CO,19,104,50
India,Maharashtra,Malegaon,"Mahesh Nagar, Malegaon - MPCB",02-02-2024 00:00:00,20.555712,74.529236,PM2.5,53,327,116
India,Maharashtra,Malegaon,"Mahesh Nagar, Malegaon - MPCB",02-02-2024 00:00:00,20.555712,74.529236,PM10,68,362,153
India,Maharashtra,Malegaon,"Mahesh Nagar, Malegaon - MPCB",02-02-2024 00:00:00,20.555712,74.529236,SO2,8,15,11
India,Maharashtra,Mira-Bhayandar,"Bhayandar West, Mira-Bhayandar - MPCB",02-02-2024 00:00:00,19.296481,72.840923,SO2,4,11,6
India,Maharashtra,Mira-Bhayandar,"Bhayandar West, Mira-Bhayandar - MPCB",02-02-2024 00:00:00,19.296481,72.840923,OZONE,1,24,10
India,Maharashtra,Mumbai,"Borivali East, Mumbai - MPCB",02-02-2024 00:00:00,19.2243333,72.8658113,PM2.5,15,50,33
India,Maharashtra,Mumbai,"Borivali East, Mumbai - MPCB",02-02-2024 00:00:00,19.2243333,72.8658113,NH3,1,2,1
India,Maharashtra,Mumbai,"Byculla, Mumbai - BMC",02-02-2024 00:00:00,18.9767,72.8380,PM10,22,101,61
India,Maharashtra,Mumbai,"Byculla, Mumbai - BMC",02-02-2024 00:00:00,18.9767,72.8380,OZONE,3,53,23
India,Maharashtra,Mumbai,"Chakala-Andheri East, Mumbai - IITM",02-02-2024 00:00:00,19.11074,72.86084,PM2.5,24,290,145
India,Maharashtra,Mumbai,"Chakala-Andheri East, Mumbai - IITM",02-02-2024 00:00:00,19.11074,72.86084,OZONE,1,29,7
India,Maharashtra,Mumbai,"Chhatrapati Shivaji Intl. Airport (T2), Mumbai - MPCB",02-02-2024 00:00:00,19.10078,72.87462,NO2,NA,NA,NA
India,Maharashtra,Mumbai,"Chhatrapati Shivaji Intl. Airport (T2), Mumbai - MPCB",02-02-2024 00:00:00,19.10078,72.87462,SO2,21,28,24
India,Maharashtra,Mumbai,"Chhatrapati Shivaji Intl. Airport (T2), Mumbai - MPCB",02-02-2024 00:00:00,19.10078,72.87462,CO,34,102,44
India,Maharashtra,Mumbai,"Colaba, Mumbai - MPCB",02-02-2024 00:00:00,18.910000,72.820000,PM10,26,120,58
India,Maharashtra,Mumbai,"Ghatkopar, Mumbai - BMC",02-02-2024 00:00:00,19.083694,72.920967,CO,1,46,8
India,Maharashtra,Mumbai,"Kandivali East, Mumbai - MPCB",02-02-2024 00:00:00,19.205800,72.868200,NH3,8,10,9
India,Maharashtra,Mumbai,"Kandivali East, Mumbai - MPCB",02-02-2024 00:00:00,19.205800,72.868200,SO2,15,106,71
India,Maharashtra,Mumbai,"Kandivali West, Mumbai - BMC",02-02-2024 00:00:00,19.215859,72.831718,PM2.5,18,165,66
India,Maharashtra,Mumbai,"Kherwadi_Bandra East, Mumbai - MPCB",02-02-2024 00:00:00,19.0632143,72.8456324,PM2.5,29,110,70
India,Maharashtra,Mumbai,"Kherwadi_Bandra East, Mumbai - MPCB",02-02-2024 00:00:00,19.0632143,72.8456324,SO2,11,48,20
India,Maharashtra,Mumbai,"Khindipada-Bhandup West, Mumbai - IITM",02-02-2024 00:00:00,19.1653323,72.922099,PM10,69,154,105
India,Maharashtra,Mumbai,"Khindipada-Bhandup West, Mumbai - IITM",02-02-2024 00:00:00,19.1653323,72.922099,SO2,NA,NA,NA
India,Maharashtra,Mumbai,"Kurla, Mumbai - MPCB",02-02-2024 00:00:00,19.0863,72.8888,NH3,4,5,4
India,Maharashtra,Mumbai,"Malad West, Mumbai - IITM",02-02-2024 00:00:00,19.19709,72.82204,NH3,1,1,1
India,Maharashtra,Mumbai,"Mazgaon, Mumbai - IITM",02-02-2024 00:00:00,18.96702,72.84214,PM2.5,41,200,113
India,Maharashtra,Mumbai,"Mazgaon, Mumbai - IITM",02-02-2024 00:00:00,18.96702,72.84214,PM10,61,141,102
India,Maharashtra,Mumbai,"Mazgaon, Mumbai - IITM",02-02-2024 00:00:00,18.96702,72.84214,OZONE,13,75,21
India,Maharashtra,Mumbai,"Mulund West, Mumbai - MPCB",02-02-2024 00:00:00,19.1750,72.9419,PM2.5,9,81,36
India,Maharashtra,Mumbai,"Mulund West, Mumbai - MPCB",02-02-2024 00:00:00,19.1750,72.9419,OZONE,7,7,7
India,Maharashtra,Mumbai,"Navy Nagar-Colaba, Mumbai - IITM",02-02-2024 00:00:00,18.897756,72.813320,PM2.5,22,139,75
India,Maharashtra,Mumbai,"Navy Nagar-Colaba, Mumbai - IITM",02-02-2024 00:00:00,18.897756,72.813320,NO2,9,53,25
India,Maharashtra,Mumbai,"Navy Nagar-Colaba, Mumbai - IITM",02-02-2024 00:00:00,18.897756,72.813320,OZONE,3,74,27
India,Maharashtra,Mumbai,"Powai, Mumbai - MPCB",02-02-2024 00:00:00,19.137500,72.915056,NH3,NA,NA,NA
India,Maharashtra,Mumbai,"Powai, Mumbai - MPCB",02-02-2024 00:00:00,19.137500,72.915056,CO,30,44,36
India,Maharashtra,Mumbai,"Sewri, Mumbai - BMC",02-02-2024 00:00:00,19.000084,72.856730,CO,9,68,20
India,Maharashtra,Mumbai,"Shivaji Nagar, Mumbai - BMC",02-02-2024 00:00:00,19.060498,72.923356,PM2.5,NA,NA,NA
India,Maharashtra,Mumbai,"Shivaji Nagar, Mumbai - BMC",02-02-2024 00:00:00,19.060498,72.923356,NO2,NA,NA,NA
India,Maharashtra,Mumbai,"Shivaji Nagar, Mumbai - BMC",02-02-2024 00:00:00,19.060498,72.923356,SO2,NA,NA,NA
India,Maharashtra,Mumbai,"Siddharth Nagar-Worli, Mumbai - IITM",02-02-2024 00:00:00,19.000083,72.813993,PM2.5,NA,NA,NA
India,Maharashtra,Mumbai,"Siddharth Nagar-Worli, Mumbai - IITM",02-02-2024 00:00:00,19.000083,72.813993,NO2,NA,NA,NA
India,Maharashtra,Mumbai,"Siddharth Nagar-Worli, Mumbai - IITM",02-02-2024 00:00:00,19.000083,72.813993,NH3,NA,NA,NA
India,Maharashtra,Mumbai,"Sion, Mumbai - MPCB",02-02-2024 00:00:00,19.047000,72.874600,NH3,1,1,1
India,Maharashtra,Mumbai,"Sion, Mumbai - MPCB",02-02-2024 00:00:00,19.047000,72.874600,SO2,35,38,36
India,Maharashtra,Mumbai,"Sion, Mumbai - MPCB",02-02-2024 00:00:00,19.047000,72.874600,OZONE,11,14,12
India,Maharashtra,Mumbai,"Worli, Mumbai - MPCB",02-02-2024 00:00:00,18.9936162,72.8128113,SO2,10,10,10
India,Maharashtra,Mumbai,"Worli, Mumbai - MPCB",02-02-2024 00:00:00,18.9936162,72.8128113,CO,29,32,30
India,Maharashtra,Nagpur,"Ambazari, Nagpur - MPCB",02-02-2024 00:00:00,21.121801,79.04952,SO2,17,45,29
India,Maharashtra,Nagpur,"Mahal, Nagpur - MPCB",02-02-2024 00:00:00,21.14472,79.107595,SO2,36,65,46
India,Maharashtra,Nagpur,"Ram Nagar, Nagpur - MPCB",02-02-2024 00:00:00,21.143383,79.048912,PM2.5,119,244,179
India,Maharashtra,Nagpur,"Ram Nagar, Nagpur - MPCB",02-02-2024 00:00:00,21.143383,79.048912,PM10,128,187,156
India,Maharashtra,Nagpur,"Ram Nagar, Nagpur - MPCB",02-02-2024 00:00:00,21.143383,79.048912,OZONE,6,108,49
India,Maharashtra,Nanded,"Sneh Nagar, Nanded - MPCB",02-02-2024 00:00:00,19.173852,77.296291,NH3,2,3,2
India,Maharashtra,Nashik,"Gangapur Road, Nashik - MPCB",02-02-2024 00:00:00,20.0073285,73.7762427,PM10,28,170,87
India,Maharashtra,Nashik,"Gangapur Road, Nashik - MPCB",02-02-2024 00:00:00,20.0073285,73.7762427,OZONE,1,42,25
India,Maharashtra,Nashik,"Hirawadi, Nashik - MPCB",02-02-2024 00:00:00,20.021503,73.813844,SO2,NA,NA,NA
India,Maharashtra,Nashik,"MIDC Ambad, Nashik - MPCB",02-02-2024 00:00:00,19.950220,73.731480,CO,34,44,39
India,Maharashtra,Nashik,"Pandav Nagari, Nashik - MPCB",02-02-2024 00:00:00,19.9591346,73.7788008,NH3,6,18,8
India,Maharashtra,Navi Mumbai,"Kopripada-Vashi, Navi Mumbai - MPCB",02-02-2024 00:00:00,19.090337,73.014232,NH3,4,48,16
India,Maharashtra,Navi Mumbai,"Kopripada-Vashi, Navi Mumbai - MPCB",02-02-2024 00:00:00,19.090337,73.014232,OZONE,7,60,18
India,Maharashtra,Navi Mumbai,"Mahape, Navi Mumbai - MPCB",02-02-2024 00:00:00,19.1135051,73.008978,SO2,26,26,26
India,Maharashtra,Navi Mumbai,"Nerul, Navi Mumbai - MPCB",02-02-2024 00:00:00,19.008751,73.016620,PM10,45,196,104
India,Maharashtra,Navi Mumbai,"Sanpada, Navi Mumbai - MPCB",02-02-2024 00:00:00,19.0575752,73.0151367,PM10,NA,NA,NA
India,Maharashtra,Navi Mumbai,"Sanpada, Navi Mumbai - MPCB",02-02-2024 00:00:00,19.0575752,73.0151367,NO2,NA,NA,NA
India,Maharashtra,Navi Mumbai,"Sanpada, Navi Mumbai - MPCB",02-02-2024 00:00:00,19.0575752,73.0151367,SO2,NA,NA,NA
India,Maharashtra,Navi Mumbai,"Sector-19A Nerul, Navi Mumbai - IITM",02-02-2024 00:00:00,19.044,73.0325,PM10,82,349,190
India,Maharashtra,Navi Mumbai,"Sector-2E Kalamboli, Navi Mumbai - MPCB",02-02-2024 00:00:00,19.02579,73.10297,NO2,1,250,92
India,Maharashtra,Navi Mumbai,"Tondare-Taloja, Navi Mumbai - MPCB",02-02-2024 00:00:00,19.0630,73.1209,PM10,62,239,124
India,Maharashtra,Navi Mumbai,"Tondare-Taloja, Navi Mumbai - MPCB",02-02-2024 00:00:00,19.0630,73.1209,NH3,2,14,8
India,Maharashtra,Parbhani,"Masoom Colony, Parbhani - MPCB",02-02-2024 00:00:00,19.265594,76.761463,PM10,57,152,95
India,Maharashtra,Parbhani,"Masoom Colony, Parbhani - MPCB",02-02-2024 00:00:00,19.265594,76.761463,SO2,3,16,8
India,Maharashtra,Parbhani,"Masoom Colony, Parbhani - MPCB",02-02-2024 00:00:00,19.265594,76.761463,CO,22,74,43
India,Maharashtra,Pimpri-Chinchwad,"Gavalinagar, Pimpri Chinchwad - MPCB",02-02-2024 00:00:00,18.63673,73.82487,OZONE,1,142,91
India,Maharashtra,Pimpri-Chinchwad,"Park Street Wakad, Pimpri Chinchwad - MPCB",02-02-2024 00:00:00,18.59051,73.77946,PM2.5,83,164,114
India,Maharashtra,Pimpri-Chinchwad,"Thergaon, Pimpri Chinchwad - MPCB",02-02-2024 00:00:00,18.616318,73.765797,PM2.5,94,325,164
India,Maharashtra,Pune,"Alandi, Pune - IITM",02-02-2024 00:00:00,18.675076,73.892743,NO2,12,28,19
India,Maharashtra,Pune,"Alandi, Pune - IITM",02-02-2024 00:00:00,18.675076,73.892743,CO,22,68,43
India,Maharashtra,Pune,"Bhosari, Pune - IITM",02-02-2024 00:00:00,18.640051,73.848956,CO,40,63,46
India,Maharashtra,Pune,"Bhosari, Pune - IITM",02-02-2024 00:00:00,18.640051,73.848956,OZONE,1,15,11
India,Maharashtra,Pune,"Karve Road, Pune - MPCB",02-02-2024 00:00:00,18.5011743,73.8165527,SO2,18,23,22
India,Maharashtra,Pune,"Katraj Dairy, Pune - MPCB",02-02-2024 00:00:00,18.454450,73.854155,NO2,23,50,36
India,Maharashtra,Pune,"Mhada Colony, Pune - IITM",02-02-2024 00:00:00,18.573040,73.927715,PM2.5,27,114,73
India,Maharashtra,Pune,"Mhada Colony, Pune - IITM",02-02-2024 00:00:00,18.573040,73.927715,OZONE,1,36,15
India,Maharashtra,Pune,"Savitribai Phule Pune University, Pune - MPCB",02-02-2024 00:00:00,18.547056,73.826908,SO2,NA,NA,NA
India,Maharashtra,Pune,"Transport Nagar-Nigdi, Pune - IITM",02-02-2024 00:00:00,18.664282,73.763966,PM10,39,118,92
India,Maharashtra,Pune,"Transport Nagar-Nigdi, Pune - IITM",02-02-2024 00:00:00,18.664282,73.763966,OZONE,5,59,41
India,Maharashtra,Sangli,"Vijay Nagar, Sangli - MPCB",02-02-2024 00:00:00, 16.5038,74.3623,PM10,68,150,102
India,Maharashtra,Sangli,"Vijay Nagar, Sangli - MPCB",02-02-2024 00:00:00, 16.5038,74.3623,OZONE,2,74,41
India,Maharashtra,Solapur,"Dnyaneshwar Nagar, Solapur - MPCB",02-02-2024 00:00:00,17.6336264,75.9132495,PM10,95,198,134
India,Maharashtra,Solapur,"Dnyaneshwar Nagar, Solapur - MPCB",02-02-2024 00:00:00,17.6336264,75.9132495,NH3,15,45,25
India,Maharashtra,Thane,"Kasarvadavali, Thane - MPCB",02-02-2024 00:00:00,19.26777,72.97182,NO2,16,64,37
India,Maharashtra,Ulhasnagar,"Sidhi Vinayak Nagar, Ulhasnagar - MPCB",02-02-2024 00:00:00,19.235581,73.159121,CO,14,113,63
India,Maharashtra,Virar,"Bolinj, Virar - MPCB",02-02-2024 00:00:00,19.4458210,72.7988231,NO2,6,61,23
India,Manipur,Imphal,"DM College of Science, Imphal - Manipur PCB",02-02-2024 00:00:00,24.8207389,93.9423085,PM10,38,114,77
India,Mizoram,Aizawl,"Sikulpuikawn, Aizawl - Mizoram PCB",02-02-2024 00:00:00,23.7176342,92.7192841,NO2,1,4,1
India,Odisha,Angul,"Hakimapada, Angul - OSPCB",02-02-2024 00:00:00,20.832874,85.104082,PM2.5,58,496,229
India,Odisha,Angul,"Hakimapada, Angul - OSPCB",02-02-2024 00:00:00,20.832874,85.104082,CO,3,102,33
India,Odisha,Balasore,"Kalidaspur, Balasore - OSPCB",02-02-2024 00:00:00,21.51161,86.89088,NO2,4,35,18
India,Odisha,Barbil,"Forest Office, Barbil - OSPCB",02-02-2024 00:00:00,22.1166054,85.3945546,NH3,4,6,5
India,Odisha,Baripada,"Meher Colony, Baripada - OSPCB",02-02-2024 00:00:00,21.941841,86.728318,PM10,NA,NA,NA
India,Odisha,Bhubaneswar,"Lingraj Mandir, Bhubaneswar - OSPCB",02-02-2024 00:00:00,20.240790,85.836784,PM2.5,28,78,58
India,Odisha,Bhubaneswar,"Lingraj Mandir, Bhubaneswar - OSPCB",02-02-2024 00:00:00,20.240790,85.836784,PM10,30,85,63
India,Odisha,Bhubaneswar,"Lingraj Mandir, Bhubaneswar - OSPCB",02-02-2024 00:00:00,20.240790,85.836784,NO2,14,50,26
India,Odisha,Bhubaneswar,"Patia, Bhubaneswar - OSPCB",02-02-2024 00:00:00,20.34652,85.81630,PM2.5,27,95,53
India,Odisha,Bhubaneswar,"Patia, Bhubaneswar - OSPCB",02-02-2024 00:00:00,20.34652,85.81630,NO2,9,46,22
India,Odisha,Bhubaneswar,"Patia, Bhubaneswar - OSPCB",02-02-2024 00:00:00,20.34652,85.81630,SO2,2,6,4
India,Odisha,Bileipada,"Tata Township, Bileipada - OSPCB",02-02-2024 00:00:00,22.06156703,85.47409613,PM2.5,21,284,84
India,Odisha,Bileipada,"Tata Township, Bileipada - OSPCB",02-02-2024 00:00:00,22.06156703,85.47409613,PM10,27,467,265
India,Odisha,Brajrajnagar,"GM Office, Brajrajnagar - OSPCB",02-02-2024 00:00:00,21.8004996,83.8396977,SO2,12,13,12
India,Odisha,Brajrajnagar,"GM Office, Brajrajnagar - OSPCB",02-02-2024 00:00:00,21.8004996,83.8396977,CO,61,98,80
India,Odisha,Byasanagar,"Ferro Chrome Colony, Byasanagar - OSPCB",02-02-2024 00:00:00,20.94185,86.11510,PM10,42,137,89
India,Odisha,Byasanagar,"Ferro Chrome Colony, Byasanagar - OSPCB",02-02-2024 00:00:00,20.94185,86.11510,OZONE,11,100,45
India,Odisha,Cuttack,"CDA Area, Cuttack - OSPCB",02-02-2024 00:00:00,20.48891     ,85.84768     ,PM10,39,133,77
India,Odisha,Cuttack,"CDA Area, Cuttack - OSPCB",02-02-2024 00:00:00,20.48891     ,85.84768     ,NH3,2,4,3
India,Odisha,Keonjhar,"Jagamohanpur, Keonjhar - OSPCB",02-02-2024 00:00:00,21.643900,85.599355,PM10,27,145,111
India,Odisha,Nayagarh,"Dabuna, Nayagarh - OSPCB",02-02-2024 00:00:00,21.847279,85.416905,PM10,82,175,114
India,Odisha,Nayagarh,"Dabuna, Nayagarh - OSPCB",02-02-2024 00:00:00,21.847279,85.416905,NO2,29,34,31
India,Odisha,Nayagarh,"Dabuna, Nayagarh - OSPCB",02-02-2024 00:00:00,21.847279,85.416905,NH3,3,5,4
India,Odisha,Nayagarh,"Dabuna, Nayagarh - OSPCB",02-02-2024 00:00:00,21.847279,85.416905,CO,17,29,22
India,Odisha,Rairangpur,"Divisional Forest Office, Rairangpur - OSPCB",02-02-2024 00:00:00,22.265816,86.174829,NO2,7,8,8
India,Odisha,Rairangpur,"Divisional Forest Office, Rairangpur - OSPCB",02-02-2024 00:00:00,22.265816,86.174829,CO,4,39,33
India,Odisha,Rairangpur,"Divisional Forest Office, Rairangpur - OSPCB",02-02-2024 00:00:00,22.265816,86.174829,OZONE,6,42,20
India,Odisha,Rourkela,"Fertilizer Township, Rourkela - OSPCB",02-02-2024 00:00:00,22.18972222,84.86277778,PM2.5,139,329,264
India,Odisha,Rourkela,"Fertilizer Township, Rourkela - OSPCB",02-02-2024 00:00:00,22.18972222,84.86277778,SO2,12,14,13
India,Odisha,Rourkela,"Fertilizer Township, Rourkela - OSPCB",02-02-2024 00:00:00,22.18972222,84.86277778,CO,15,20,18
India,Odisha,Suakati,"OMC Colony, Suakati - OSPCB",02-02-2024 00:00:00,21.606865,85.510538,SO2,9,29,15
India,Odisha,Suakati,"OMC Colony, Suakati - OSPCB",02-02-2024 00:00:00,21.606865,85.510538,OZONE,7,119,66
India,Odisha,Talcher,"Talcher Coalfields,Talcher - OSPCB",02-02-2024 00:00:00,20.9360711,85.1707021,PM2.5,25,310,119
India,Odisha,Talcher,"Talcher Coalfields,Talcher - OSPCB",02-02-2024 00:00:00,20.9360711,85.1707021,NO2,42,48,45
India,Odisha,Talcher,"Talcher Coalfields,Talcher - OSPCB",02-02-2024 00:00:00,20.9360711,85.1707021,OZONE,1,7,4
India,Odisha,Tensa,"Barsua Iron Ore Mines, Tensa - OSPCB",02-02-2024 00:00:00,21.869985,85.167016,PM10,65,122,82
India,Odisha,Tensa,"Barsua Iron Ore Mines, Tensa - OSPCB",02-02-2024 00:00:00,21.869985,85.167016,NO2,67,105,80
India,Puducherry,Puducherry,"Jawahar Nagar, Puducherry - PPCC",02-02-2024 00:00:00,11.9309,79.8027,PM2.5,7,95,26
India,Puducherry,Puducherry,"Jawahar Nagar, Puducherry - PPCC",02-02-2024 00:00:00,11.9309,79.8027,NO2,6,31,14
India,Punjab,Bathinda,"Hardev Nagar, Bathinda - PPCB",02-02-2024 00:00:00,30.233011,74.907758,NO2,29,43,32
India,Punjab,Bathinda,"Hardev Nagar, Bathinda - PPCB",02-02-2024 00:00:00,30.233011,74.907758,CO,2,64,15
India,Punjab,Jalandhar,"Civil Line, Jalandhar - PPCB",02-02-2024 00:00:00,31.321907,75.578914,PM2.5,19,312,120
India,Punjab,Khanna,"Kalal Majra, Khanna - PPCB",02-02-2024 00:00:00,30.736056 ,76.209694,OZONE,13,25,14
India,Punjab,Mandi Gobindgarh,"RIMT University, Mandi Gobindgarh - PPCB",02-02-2024 00:00:00,30.649961,76.331442,PM2.5,9,219,80
India,Punjab,Mandi Gobindgarh,"RIMT University, Mandi Gobindgarh - PPCB",02-02-2024 00:00:00,30.649961,76.331442,NO2,25,32,31
India,Punjab,Mandi Gobindgarh,"RIMT University, Mandi Gobindgarh - PPCB",02-02-2024 00:00:00,30.649961,76.331442,SO2,4,22,12
India,Punjab,Rupnagar,"Ratanpura, Rupnagar - Ambuja Cements",02-02-2024 00:00:00,31.0325454,76.5623046,SO2,5,13,10
India,Rajasthan,Banswara,"Rati Talai, Banswara - RSPCB",02-02-2024 00:00:00,23.555190,74.440010,CO,20,86,59
India,Rajasthan,Barmer,"Railway Colony, Barmer - RSPCB",02-02-2024 00:00:00,25.747299,71.393989,CO,4,48,17
India,Rajasthan,Bharatpur,"Krishna Nagar, Bharatpur - RSPCB",02-02-2024 00:00:00,27.215415,77.50873,PM2.5,20,108,75
India,Rajasthan,Bhilwara,"Pratap Nagar, Bhilwara - RSPCB",02-02-2024 00:00:00,25.339605,74.618883,CO,14,105,61
India,Rajasthan,Bhiwadi,"RIICO Ind. Area III, Bhiwadi - RSPCB",02-02-2024 00:00:00,28.194909,76.862296,PM10,NA,NA,NA
India,Rajasthan,Bhiwadi,"RIICO Ind. Area III, Bhiwadi - RSPCB",02-02-2024 00:00:00,28.194909,76.862296,NH3,NA,NA,NA
India,Rajasthan,Bhiwadi,"RIICO Ind. Area III, Bhiwadi - RSPCB",02-02-2024 00:00:00,28.194909,76.862296,CO,6,109,46
India,Rajasthan,Bikaner,"MM Ground, Bikaner - RSPCB",02-02-2024 00:00:00,28.018792,73.292658,PM10,88,229,149
India,Rajasthan,Bundi,"New Colony, Bundi - RSPCB",02-02-2024 00:00:00,25.435774,75.644272,NH3,3,6,4
India,Rajasthan,Bundi,"New Colony, Bundi - RSPCB",02-02-2024 00:00:00,25.435774,75.644272,SO2,5,14,7
India,Rajasthan,Chittorgarh,"Shastri Nagar, Chittorgarh - RSPCB",02-02-2024 00:00:00,24.892047,74.623527,NO2,13,98,43
India,Rajasthan,Chittorgarh,"Shastri Nagar, Chittorgarh - RSPCB",02-02-2024 00:00:00,24.892047,74.623527,SO2,2,15,6
India,Rajasthan,Churu,"Subash Chowk, Churu - RSPCB",02-02-2024 00:00:00,28.296139,74.961696,PM2.5,49,96,72
India,Rajasthan,Churu,"Subash Chowk, Churu - RSPCB",02-02-2024 00:00:00,28.296139,74.961696,SO2,12,17,13
India,Rajasthan,Dausa,"Khatikan Mohalla, Dausa - RSPCB",02-02-2024 00:00:00,26.895552,76.334753,CO,51,103,54
India,Rajasthan,Dausa,"Khatikan Mohalla, Dausa - RSPCB",02-02-2024 00:00:00,26.895552,76.334753,OZONE,51,131,80
India,Rajasthan,Dungarpur,"Bhoiwada, Dungarpur - RSPCB",02-02-2024 00:00:00,23.837789,73.714926,NO2,16,31,22
India,Rajasthan,Dungarpur,"Bhoiwada, Dungarpur - RSPCB",02-02-2024 00:00:00,23.837789,73.714926,NH3,7,10,8
India,Rajasthan,Hanumangarh,"Housing Board, Hanumangarh - RSPCB",02-02-2024 00:00:00,29.610750,74.283608,SO2,6,11,8
India,Rajasthan,Hanumangarh,"Housing Board, Hanumangarh - RSPCB",02-02-2024 00:00:00,29.610750,74.283608,CO,34,133,92
India,Rajasthan,Jaipur,"Adarsh Nagar, Jaipur - RSPCB",02-02-2024 00:00:00,26.902909,75.836858,PM2.5,46,312,209
India,Rajasthan,Jaipur,"Adarsh Nagar, Jaipur - RSPCB",02-02-2024 00:00:00,26.902909,75.836858,PM10,84,149,121
India,Rajasthan,Jaipur,"Adarsh Nagar, Jaipur - RSPCB",02-02-2024 00:00:00,26.902909,75.836858,SO2,6,20,11
India,Rajasthan,Jaipur,"Adarsh Nagar, Jaipur - RSPCB",02-02-2024 00:00:00,26.902909,75.836858,CO,9,80,39
India,Rajasthan,Jaipur,"Adarsh Nagar, Jaipur - RSPCB",02-02-2024 00:00:00,26.902909,75.836858,OZONE,16,62,40
India,Rajasthan,Jaipur,"Mansarovar Sector-12, Jaipur - RSPCB",02-02-2024 00:00:00,26.843698,75.766894,PM2.5,30,321,204
India,Rajasthan,Jaipur,"Mansarovar Sector-12, Jaipur - RSPCB",02-02-2024 00:00:00,26.843698,75.766894,PM10,157,333,206
India,Rajasthan,Jaipur,"RIICO Sitapura, Jaipur - RSPCB",02-02-2024 00:00:00,26.786682,75.827928,PM10,122,239,174
India,Rajasthan,Jaipur,"RIICO Sitapura, Jaipur - RSPCB",02-02-2024 00:00:00,26.786682,75.827928,CO,19,114,58
India,Rajasthan,Jaipur,"Sector-2 Murlipura, Jaipur - RSPCB",02-02-2024 00:00:00,26.960669,75.771817,NO2,9,31,12
India,Rajasthan,Jaipur,"Sector-2 Murlipura, Jaipur - RSPCB",02-02-2024 00:00:00,26.960669,75.771817,NH3,6,6,6
India,Rajasthan,Jalore,"Mudtra Sili, Jalore - RSPCB",02-02-2024 00:00:00,25.344694,72.626208,PM10,45,376,124
India,Rajasthan,Jhalawar,"Rajlaxmi Nagar, Jhalawar - RSPCB",02-02-2024 00:00:00,24.588397,76.172782,NO2,12,59,25
India,Rajasthan,Jhalawar,"Rajlaxmi Nagar, Jhalawar - RSPCB",02-02-2024 00:00:00,24.588397,76.172782,SO2,4,13,7
India,Rajasthan,Jhunjhunu,"Indra Nagar, Jhunjhunu - RSPCB",02-02-2024 00:00:00,28.108988,75.386577,PM2.5,66,381,241
India,Rajasthan,Jodhpur,"Collectorate, Jodhpur - RSPCB",02-02-2024 00:00:00,26.268249,73.0193853,CO,24,90,65
India,Rajasthan,Jodhpur,"Jhalamand, Jodhpur - RSPCB",02-02-2024 00:00:00,26.215415,73.070156,NH3,7,14,10
India,Rajasthan,Jodhpur,"Jhalamand, Jodhpur - RSPCB",02-02-2024 00:00:00,26.215415,73.070156,SO2,4,25,8
India,Rajasthan,Jodhpur,"Mandor, Jodhpur - RSPCB",02-02-2024 00:00:00,26.358805,73.047444,NO2,28,88,40
India,Rajasthan,Jodhpur,"Samrat Ashok Udhyan, Jodhpur - RSPCB",02-02-2024 00:00:00,26.253384,72.976571,NO2,8,49,22
India,Rajasthan,Karauli,"Satyawati Vihar, Karauli - RSPCB",02-02-2024 00:00:00,26.506177,77.025989,SO2,17,23,20
India,Rajasthan,Kota,"Dhanmandi, Kota - RSPCB",02-02-2024 00:00:00,25.164090,75.858137,NH3,4,6,5
India,Rajasthan,Kota,"Nayapura, Kota - RSPCB",02-02-2024 00:00:00,25.196024,75.855668,PM10,83,302,131
India,Rajasthan,Kota,"Nayapura, Kota - RSPCB",02-02-2024 00:00:00,25.196024,75.855668,NO2,25,94,58
India,Rajasthan,Kota,"Nayapura, Kota - RSPCB",02-02-2024 00:00:00,25.196024,75.855668,CO,14,26,16
India,Rajasthan,Kota,"Shrinath Puram, Kota - RSPCB",02-02-2024 00:00:00,25.14389,75.821256,PM2.5,42,203,104
India,Rajasthan,Kota,"Shrinath Puram, Kota - RSPCB",02-02-2024 00:00:00,25.14389,75.821256,NH3,11,16,15
India,Rajasthan,Kota,"Shrinath Puram, Kota - RSPCB",02-02-2024 00:00:00,25.14389,75.821256,SO2,5,63,12
India,Rajasthan,Nagaur,"Karni Colony, Nagaur - RSPCB",02-02-2024 00:00:00,27.213494,73.734444,OZONE,30,65,57
India,Rajasthan,Pali,"Indira Colony Vistar, Pali - RSPCB",02-02-2024 00:00:00,25.771061, 73.340227,PM2.5,26,224,77
India,Rajasthan,Pali,"Indira Colony Vistar, Pali - RSPCB",02-02-2024 00:00:00,25.771061, 73.340227,PM10,53,193,103
India,Rajasthan,Pali,"Indira Colony Vistar, Pali - RSPCB",02-02-2024 00:00:00,25.771061, 73.340227,OZONE,8,54,30
India,Rajasthan,Rajsamand,"Dhoinda, Rajsamand - RSPCB",02-02-2024 00:00:00,25.036360,73.883502,CO,12,44,26
India,Rajasthan,Sawai Madhopur,"Sahu Nagar, Sawai Madhopur - RSPCB",02-02-2024 00:00:00,26.031443,76.359327,NO2,6,52,13
India,Rajasthan,Sawai Madhopur,"Sahu Nagar, Sawai Madhopur - RSPCB",02-02-2024 00:00:00,26.031443,76.359327,OZONE,6,75,39
India,Rajasthan,Sikar,"Radhakishan Pura, Sikar - RSPCB",02-02-2024 00:00:00,27.608912,75.153302,PM10,112,195,146
India,Rajasthan,Sikar,"Radhakishan Pura, Sikar - RSPCB",02-02-2024 00:00:00,27.608912,75.153302,NH3,5,13,9
India,Rajasthan,Sirohi,"Vedhaynath Colony, Sirohi - RSPCB",02-02-2024 00:00:00,24.885261,72.857549,PM10,27,310,75
India,Rajasthan,Sirohi,"Vedhaynath Colony, Sirohi - RSPCB",02-02-2024 00:00:00,24.885261,72.857549,NH3,4,10,7
India,Rajasthan,Sri Ganganagar,"Old City, Sri Ganganagar - RSPCB",02-02-2024 00:00:00,29.931624,73.864511,NH3,4,43,11
India,Rajasthan,Sri Ganganagar,"Old City, Sri Ganganagar - RSPCB",02-02-2024 00:00:00,29.931624,73.864511,CO,6,120,54
India,Rajasthan,Tonk,"Shastri Nagar, Tonk - RSPCB",02-02-2024 00:00:00,26.159933,75.780517,NO2,14,89,30
India,Rajasthan,Udaipur,"Ashok Nagar, Udaipur - RSPCB",02-02-2024 00:00:00,24.5886166,73.6321397,PM2.5,36,205,87
India,Rajasthan,Udaipur,"Ashok Nagar, Udaipur - RSPCB",02-02-2024 00:00:00,24.5886166,73.6321397,PM10,32,133,83
India,Sikkim,Gangtok,"Zero Point GICI, Gangtok - SSPCB",02-02-2024 00:00:00,27.338530,88.614099,OZONE,16,77,46
India,TamilNadu,Ariyalur,"Keelapalur, Ariyalur - TNPCB",02-02-2024 00:00:00,11.06825,79.07033,NO2,9,18,12
India,TamilNadu,Ariyalur,"Keelapalur, Ariyalur - TNPCB",02-02-2024 00:00:00,11.06825,79.07033,SO2,23,24,23
India,TamilNadu,Chengalpattu,"Crescent University, Chengalpattu - TNPCB",02-02-2024 00:00:00,12.8777316,80.0834807,CO,26,30,26
India,TamilNadu,Chennai,"Alandur Bus Depot, Chennai - CPCB",02-02-2024 00:00:00,12.9099161,80.1076538,NO2,NA,NA,NA
India,TamilNadu,Chennai,"Gandhi Nagar_Ennore, Chennai - TNPCB",02-02-2024 00:00:00,13.218341,80.32027,PM10,11,108,30
India,TamilNadu,Chennai,"Kodungaiyur, Chennai - TNPCB",02-02-2024 00:00:00,13.1278,80.2642,NH3,3,5,3
India,TamilNadu,Chennai,"Kodungaiyur, Chennai - TNPCB",02-02-2024 00:00:00,13.1278,80.2642,SO2,1,11,4
India,TamilNadu,Chennai,"Kodungaiyur, Chennai - TNPCB",02-02-2024 00:00:00,13.1278,80.2642,CO,23,50,33
India,TamilNadu,Chennai,"Kodungaiyur, Chennai - TNPCB",02-02-2024 00:00:00,13.1278,80.2642,OZONE,5,6,6
India,TamilNadu,Chennai,"Perungudi, Chennai - TNPCB",02-02-2024 00:00:00,12.9533,80.2357,SO2,1,6,3
India,TamilNadu,Chennai,"Perungudi, Chennai - TNPCB",02-02-2024 00:00:00,12.9533,80.2357,OZONE,4,40,15
India,TamilNadu,Chennai,"Royapuram, Chennai - TNPCB",02-02-2024 00:00:00,13.1036,80.2909,PM10,14,135,31
India,TamilNadu,Chennai,"Royapuram, Chennai - TNPCB",02-02-2024 00:00:00,13.1036,80.2909,NO2,12,39,19
India,TamilNadu,Chennai,"Royapuram, Chennai - TNPCB",02-02-2024 00:00:00,13.1036,80.2909,NH3,1,2,1
India,TamilNadu,Chennai,"Royapuram, Chennai - TNPCB",02-02-2024 00:00:00,13.1036,80.2909,SO2,1,18,4
India,TamilNadu,Coimbatore,"PSG College of Arts and Science, Coimbatore - TNPCB",02-02-2024 00:00:00,11.0328,77.0349,OZONE,3,5,4
India,TamilNadu,Cuddalore,"Kudikadu, Cuddalore - TNPCB",02-02-2024 00:00:00,11.6829898,79.7532099,NO2,NA,NA,NA
India,TamilNadu,Cuddalore,"Kudikadu, Cuddalore - TNPCB",02-02-2024 00:00:00,11.6829898,79.7532099,SO2,NA,NA,NA
India,TamilNadu,Cuddalore,"Semmandalam, Cuddalore - TNPCB",02-02-2024 00:00:00,11.7637683,79.7499835,NO2,3,22,11
India,TamilNadu,Gummidipoondi,"Anthoni Pillai Nagar, Gummidipoondi - TNPCB",02-02-2024 00:00:00,13.4127,80.1081,PM10,42,448,115
India,TamilNadu,Ooty,"Bombay Castel, Ooty - TNPCB",02-02-2024 00:00:00,11.4068288,76.7138973,NO2,NA,NA,NA
India,TamilNadu,Vellore,"Vasanthapuram, Vellore - TNPCB",02-02-2024 00:00:00,12.909494,79.131861,NH3,NA,NA,NA
India,TamilNadu,Vellore,"Vasanthapuram, Vellore - TNPCB",02-02-2024 00:00:00,12.909494,79.131861,SO2,NA,NA,NA
India,TamilNadu,Virudhunagar,"Collectorate Office, Virudhunagar - TNPCB",02-02-2024 00:00:00,9.559382,77.948828,PM2.5,11,56,30
India,Telangana,Hyderabad,"Central University, Hyderabad - TSPCB",02-02-2024 00:00:00,17.460103,78.334361,NO2,18,38,25
India,Telangana,Hyderabad,"Central University, Hyderabad - TSPCB",02-02-2024 00:00:00,17.460103,78.334361,OZONE,3,4,4
India,Telangana,Hyderabad,"ICRISAT Patancheru, Hyderabad - TSPCB",02-02-2024 00:00:00,17.518400,78.278777,CO,20,60,39
India,Telangana,Hyderabad,"Kokapet, Hyderabad - TSPCB",02-02-2024 00:00:00,17.393559,78.339194,PM10,NA,NA,NA
India,Telangana,Hyderabad,"Kokapet, Hyderabad - TSPCB",02-02-2024 00:00:00,17.393559,78.339194,NH3,NA,NA,NA
India,Telangana,Hyderabad,"Kompally Municipal Office, Hyderabad - TSPCB",02-02-2024 00:00:00,17.544899,78.486949,CO,5,34,6
India,Telangana,Hyderabad,"Nacharam_TSIIC IALA, Hyderabad - TSPCB",02-02-2024 00:00:00,17.429398,78.569354,NO2,NA,NA,NA
India,Telangana,Hyderabad,"Nacharam_TSIIC IALA, Hyderabad - TSPCB",02-02-2024 00:00:00,17.429398,78.569354,SO2,NA,NA,NA
India,Telangana,Hyderabad,"New Malakpet, Hyderabad - TSPCB",02-02-2024 00:00:00,17.37206,78.50864,OZONE,3,35,13
India,Telangana,Hyderabad,"Ramachandrapuram, Hyderabad - TSPCB",02-02-2024 00:00:00,17.528544,78.286195,PM2.5,27,42,33
India,Telangana,Hyderabad,"Somajiguda, Hyderabad - TSPCB",02-02-2024 00:00:00,17.417094,78.457437,PM2.5,NA,NA,NA
India,Telangana,Hyderabad,"Zoo Park, Hyderabad - TSPCB",02-02-2024 00:00:00,17.349694,78.451437,PM10,41,152,90
India,Telangana,Hyderabad,"Zoo Park, Hyderabad - TSPCB",02-02-2024 00:00:00,17.349694,78.451437,OZONE,13,56,28
India,Tripura,Agartala,"Bardowali, Agartala - Tripura SPCB",02-02-2024 00:00:00,23.8175497,91.2726974,NO2,9,32,16
India,Uttar_Pradesh,Agra,"Rohta, Agra - UPPCB",02-02-2024 00:00:00,27.106972,78.000111,OZONE,16,17,17
India,Uttar_Pradesh,Agra,"Sector-3B Avas Vikas Colony, Agra - UPPCB",02-02-2024 00:00:00,27.19412,77.96237,PM10,37,100,76
India,Uttar_Pradesh,Agra,"Sector-3B Avas Vikas Colony, Agra - UPPCB",02-02-2024 00:00:00,27.19412,77.96237,NH3,4,7,6
India,Uttar_Pradesh,Agra,"Shahjahan Garden, Agra - UPPCB",02-02-2024 00:00:00,27.169338,78.03582,PM2.5,29,91,65
India,Uttar_Pradesh,Agra,"Shahjahan Garden, Agra - UPPCB",02-02-2024 00:00:00,27.169338,78.03582,NO2,29,35,32
India,Uttar_Pradesh,Baghpat,"Sardar Patel Inter College, Baghpat - UPPCB",02-02-2024 00:00:00,28.964949,77.278761,PM10,18,92,57
India,Uttar_Pradesh,Baghpat,"Sardar Patel Inter College, Baghpat - UPPCB",02-02-2024 00:00:00,28.964949,77.278761,OZONE,6,23,16
India,Uttar_Pradesh,Bulandshahr,"Yamunapuram, Bulandshahr - UPPCB",02-02-2024 00:00:00,28.406963,77.849831,NH3,NA,NA,NA
India,Uttar_Pradesh,Bulandshahr,"Yamunapuram, Bulandshahr - UPPCB",02-02-2024 00:00:00,28.406963,77.849831,SO2,NA,NA,NA
India,Uttar_Pradesh,Firozabad,"Nagla Bhau, Firozabad - UPPCB",02-02-2024 00:00:00,27.168897,78.376960,PM10,28,91,53
India,Uttar_Pradesh,Firozabad,"Nagla Bhau, Firozabad - UPPCB",02-02-2024 00:00:00,27.168897,78.376960,NO2,17,17,17
India,Uttar_Pradesh,Firozabad,"Nagla Bhau, Firozabad - UPPCB",02-02-2024 00:00:00,27.168897,78.376960,SO2,11,24,17
India,Uttar_Pradesh,Firozabad,"Vibhab Nagar, Firozabad - UPPCB",02-02-2024 00:00:00,27.1594,78.3953,SO2,12,20,14
India,Uttar_Pradesh,Ghaziabad,"Loni, Ghaziabad - UPPCB",02-02-2024 00:00:00,28.757294,77.278792,NH3,NA,NA,NA
India,Uttar_Pradesh,Ghaziabad,"Loni, Ghaziabad - UPPCB",02-02-2024 00:00:00,28.757294,77.278792,SO2,NA,NA,NA
India,Uttar_Pradesh,Ghaziabad,"Sanjay Nagar, Ghaziabad - UPPCB",02-02-2024 00:00:00,28.685382,77.453839,SO2,NA,NA,NA
India,Uttar_Pradesh,Ghaziabad,"Vasundhara, Ghaziabad - UPPCB",02-02-2024 00:00:00,28.6603346,77.3572563,CO,5,107,62
India,Uttar_Pradesh,Gorakhpur,"Madan Mohan Malaviya University of Technology, Gorakhpur - UPPCB",02-02-2024 00:00:00,26.730136,83.433859,CO,42,62,47
India,Uttar_Pradesh,Greater Noida,"Knowledge Park - III, Greater Noida - UPPCB",02-02-2024 00:00:00,28.47272,77.482000,CO,40,74,65
India,Uttar_Pradesh,Greater Noida,"Knowledge Park - V, Greater Noida - UPPCB",02-02-2024 00:00:00,28.557054,77.453663,NO2,12,25,17
India,Uttar_Pradesh,Greater Noida,"Knowledge Park - V, Greater Noida - UPPCB",02-02-2024 00:00:00,28.557054,77.453663,CO,NA,NA,NA
India,Uttar_Pradesh,Hapur,"Anand Vihar, Hapur - UPPCB",02-02-2024 00:00:00,28.725645,77.749675,NH3,1,18,4
India,Uttar_Pradesh,Jhansi,"Shivaji Nagar, Jhansi - UPPCB",02-02-2024 00:00:00,25.4547,78.6039,NH3,6,6,6
India,Uttar_Pradesh,Jhansi,"Shivaji Nagar, Jhansi - UPPCB",02-02-2024 00:00:00,25.4547,78.6039,OZONE,2,57,12
India,Uttar_Pradesh,Kanpur,"FTI Kidwai Nagar, Kanpur - UPPCB",02-02-2024 00:00:00,26.428282,80.327067,CO,36,76,46
India,Uttar_Pradesh,Kanpur,"NSI Kalyanpur, Kanpur - UPPCB",02-02-2024 00:00:00,26.509954,80.249612,PM2.5,24,123,96
India,Uttar_Pradesh,Kanpur,"NSI Kalyanpur, Kanpur - UPPCB",02-02-2024 00:00:00,26.509954,80.249612,NH3,3,4,4
India,Uttar_Pradesh,Kanpur,"NSI Kalyanpur, Kanpur - UPPCB",02-02-2024 00:00:00,26.509954,80.249612,SO2,23,33,24
India,Uttar_Pradesh,Khurja,"Kalindi Kunj, Khurja - UPPCB",02-02-2024 00:00:00,28.2348927,77.8683002,PM10,NA,NA,NA
India,Uttar_Pradesh,Khurja,"Kalindi Kunj, Khurja - UPPCB",02-02-2024 00:00:00,28.2348927,77.8683002,CO,NA,NA,NA
India,Uttar_Pradesh,Khurja,"Kalindi Kunj, Khurja - UPPCB",02-02-2024 00:00:00,28.2348927,77.8683002,OZONE,NA,NA,NA
India,Uttar_Pradesh,Lucknow,"B R Ambedkar University, Lucknow - UPPCB",02-02-2024 00:00:00,26.766433,80.927299,OZONE,2,46,23
India,Uttar_Pradesh,Lucknow,"Gomti Nagar, Lucknow - UPPCB",02-02-2024 00:00:00,26.868120,81.005119,PM2.5,40,125,69
India,Uttar_Pradesh,Lucknow,"Kendriya Vidyalaya, Lucknow - CPCB",02-02-2024 00:00:00,26.906111,80.948222,NO2,25,70,40
India,Uttar_Pradesh,Lucknow,"Kukrail Picnic Spot-1, Lucknow - UPPCB",02-02-2024 00:00:00,26.90723,80.98579,SO2,23,36,29
India,Uttar_Pradesh,Lucknow,"Kukrail Picnic Spot-1, Lucknow - UPPCB",02-02-2024 00:00:00,26.90723,80.98579,CO,14,46,22
India,Uttar_Pradesh,Lucknow,"Lalbagh, Lucknow - CPCB",02-02-2024 00:00:00,26.8458805,80.9365541,PM10,146,404,207
India,Uttar_Pradesh,Lucknow,"Lalbagh, Lucknow - CPCB",02-02-2024 00:00:00,26.8458805,80.9365541,NH3,9,15,10
India,Uttar_Pradesh,Meerut,"Jai Bhim Nagar, Meerut - UPPCB",02-02-2024 00:00:00,28.9535882,77.7622941,NH3,7,11,8
India,Uttar_Pradesh,Moradabad,"Buddhi Vihar, Moradabad - UPPCB",02-02-2024 00:00:00,28.83526,78.74460,NH3,1,2,2
India,Uttar_Pradesh,Moradabad,"Eco Herbal Park, Moradabad - UPPCB",02-02-2024 00:00:00,28.840739,78.697531,NH3,2,25,5
India,Uttar_Pradesh,Moradabad,"Eco Herbal Park, Moradabad - UPPCB",02-02-2024 00:00:00,28.840739,78.697531,OZONE,10,18,11
India,Uttar_Pradesh,Moradabad,"Employment Office, Moradabad - UPPCB",02-02-2024 00:00:00,28.88528,78.73880,NO2,NA,NA,NA
India,Uttar_Pradesh,Moradabad,"Kashiram Nagar, Moradabad - UPPCB",02-02-2024 00:00:00,28.849399,78.742362,SO2,NA,NA,NA
India,Uttar_Pradesh,Moradabad,"Kashiram Nagar, Moradabad - UPPCB",02-02-2024 00:00:00,28.849399,78.742362,OZONE,17,283,49
India,Uttar_Pradesh,Moradabad,"Transport Nagar, Moradabad - UPPCB",02-02-2024 00:00:00,28.802625,78.753728,PM10,NA,NA,NA
India,Uttar_Pradesh,Moradabad,"Transport Nagar, Moradabad - UPPCB",02-02-2024 00:00:00,28.802625,78.753728,OZONE,15,25,17
India,Uttar_Pradesh,Muzaffarnagar,"New Mandi, Muzaffarnagar - UPPCB",02-02-2024 00:00:00,29.4723508,77.7194031,NO2,6,61,21
India,Uttar_Pradesh,Noida,"Sector - 125, Noida - UPPCB",02-02-2024 00:00:00,28.5447608,77.3231257,NH3,10,18,15
India,Uttar_Pradesh,Noida,"Sector - 125, Noida - UPPCB",02-02-2024 00:00:00,28.5447608,77.3231257,CO,25,78,57
India,Uttar_Pradesh,Noida,"Sector - 62, Noida - IMD",02-02-2024 00:00:00,28.6245479,77.3577104,PM10,34,128,86
India,Uttar_Pradesh,Noida,"Sector - 62, Noida - IMD",02-02-2024 00:00:00,28.6245479,77.3577104,NO2,15,22,18
India,Uttar_Pradesh,Noida,"Sector-116, Noida - UPPCB",02-02-2024 00:00:00,28.569230,77.393848,PM10,28,89,58
India,Uttar_Pradesh,Prayagraj,"Jhunsi, Prayagraj - UPPCB",02-02-2024 00:00:00,25.425602,81.917152,CO,2,44,11
India,Uttar_Pradesh,Prayagraj,"Jhunsi, Prayagraj - UPPCB",02-02-2024 00:00:00,25.425602,81.917152,OZONE,1,15,8
India,Uttar_Pradesh,Prayagraj,"Motilal Nehru NIT, Prayagraj - UPPCB",02-02-2024 00:00:00,25.494,81.863,NO2,12,12,12
India,Uttar_Pradesh,Prayagraj,"Nagar Nigam, Prayagraj - UPPCB",02-02-2024 00:00:00,25.44919916 ,81.82735986 ,PM10,83,196,130
India,Uttar_Pradesh,Varanasi,"Ardhali Bazar, Varanasi - UPPCB",02-02-2024 00:00:00,25.3505986,82.9083074,PM10,30,85,53
India,Uttar_Pradesh,Varanasi,"Ardhali Bazar, Varanasi - UPPCB",02-02-2024 00:00:00,25.3505986,82.9083074,NO2,19,35,25
India,Uttar_Pradesh,Varanasi,"Bhelupur, Varanasi - UPPCB",02-02-2024 00:00:00,25.301778,82.996789,PM2.5,17,39,29
India,Uttar_Pradesh,Varanasi,"Bhelupur, Varanasi - UPPCB",02-02-2024 00:00:00,25.301778,82.996789,OZONE,4,58,42
India,Uttar_Pradesh,Varanasi,"IESD Banaras Hindu University, Varanasi - UPPCB",02-02-2024 00:00:00,25.262326,82.995408,NH3,1,4,3
India,Uttar_Pradesh,Varanasi,"Maldahiya, Varanasi - UPPCB",02-02-2024 00:00:00,25.32393,82.99687,NO2,4,46,16
India,Uttar_Pradesh,Vrindavan,"Omex Eternity, Vrindavan - UPPCB",02-02-2024 00:00:00,27.5714090,77.6557570,CO,2,42,15
India,Uttarakhand,Dehradun,"Doon University, Dehradun - UKPCB",02-02-2024 00:00:00,30.269444,78.044167,PM2.5,NA,NA,NA
India,Uttarakhand,Dehradun,"Doon University, Dehradun - UKPCB",02-02-2024 00:00:00,30.269444,78.044167,NO2,1,7,4
India,Uttarakhand,Rishikesh,"Shivaji Nagar, Rishikesh - UKPCB",02-02-2024 00:00:00,30.075911,78.2859547,OZONE,2,19,6
India,West_Bengal,Asansol,"Asansol Court Area, Asansol - WBPCB",02-02-2024 00:00:00,23.685297,86.945968,NH3,7,13,9
India,West_Bengal,Asansol,"Asansol Court Area, Asansol - WBPCB",02-02-2024 00:00:00,23.685297,86.945968,OZONE,6,38,13
India,West_Bengal,Durgapur,"Sidhu Kanhu Indoor Stadium, Durgapur - WBPCB",02-02-2024 00:00:00,23.5404352,87.2892225,NO2,32,52,39
India,West_Bengal,Durgapur,"Sidhu Kanhu Indoor Stadium, Durgapur - WBPCB",02-02-2024 00:00:00,23.5404352,87.2892225,NH3,3,5,4
India,West_Bengal,Howrah,"Padmapukur, Howrah - WBPCB",02-02-2024 00:00:00,22.5687319,88.2797276,PM10,95,150,115
India,West_Bengal,Kolkata,"Ballygunge, Kolkata - WBPCB",02-02-2024 00:00:00,22.5367507,88.3638022,OZONE,6,38,8
India,West_Bengal,Kolkata,"Bidhannagar, Kolkata - WBPCB",02-02-2024 00:00:00,22.58157048,88.41002457,SO2,1,15,7
India,West_Bengal,Kolkata,"Bidhannagar, Kolkata - WBPCB",02-02-2024 00:00:00,22.58157048,88.41002457,CO,28,70,58
India,West_Bengal,Kolkata,"Fort William, Kolkata - WBPCB",02-02-2024 00:00:00,22.556640,88.342674,NO2,35,84,60
India,West_Bengal,Kolkata,"Jadavpur, Kolkata - WBPCB",02-02-2024 00:00:00,22.49929,88.36917,PM2.5,76,212,108
India,West_Bengal,Kolkata,"Jadavpur, Kolkata - WBPCB",02-02-2024 00:00:00,22.49929,88.36917,CO,12,52,37
India,West_Bengal,Kolkata,"Jadavpur, Kolkata - WBPCB",02-02-2024 00:00:00,22.49929,88.36917,OZONE,9,28,11
India,West_Bengal,Kolkata,"Rabindra Bharati University, Kolkata - WBPCB",02-02-2024 00:00:00,22.627847,88.380669,NH3,7,8,7
India,West_Bengal,Kolkata,"Rabindra Bharati University, Kolkata - WBPCB",02-02-2024 00:00:00,22.627847,88.380669,CO,30,62,55
India,West_Bengal,Kolkata,"Rabindra Bharati University, Kolkata - WBPCB",02-02-2024 00:00:00,22.627847,88.380669,OZONE,1,15,1
India,West_Bengal,Kolkata,"Rabindra Sarobar, Kolkata - WBPCB",02-02-2024 00:00:00,22.51106,88.35142,NO2,24,105,58
India,West_Bengal,Kolkata,"Rabindra Sarobar, Kolkata - WBPCB",02-02-2024 00:00:00,22.51106,88.35142,SO2,7,13,10
India,West_Bengal,Kolkata,"Rabindra Sarobar, Kolkata - WBPCB",02-02-2024 00:00:00,22.51106,88.35142,CO,16,67,38
India,West_Bengal,Siliguri,"Ward-32 Bapupara, Siliguri - WBPCB",02-02-2024 00:00:00,26.6879226,88.4152495,OZONE,8,70,27
India,Andhra_Pradesh,Amaravati,"Secretariat, Amaravati - APPCB",02-02-2024 00:00:00,16.5150833,80.5181667,PM2.5,15,60,32
India,Andhra_Pradesh,Amaravati,"Secretariat, Amaravati - APPCB",02-02-2024 00:00:00,16.5150833,80.5181667,NH3,3,4,4
India,Andhra_Pradesh,Amaravati,"Secretariat, Amaravati - APPCB",02-02-2024 00:00:00,16.5150833,80.5181667,CO,9,46,30
India,Andhra_Pradesh,Chittoor,"Gangineni Cheruvu, Chittoor - APPCB",02-02-2024 00:00:00,13.204880,79.097889,PM10,36,114,68
India,Andhra_Pradesh,Kadapa,"Yerramukkapalli, Kadapa - APPCB",02-02-2024 00:00:00,14.465052,78.824187,PM2.5,23,61,45
India,Andhra_Pradesh,Kadapa,"Yerramukkapalli, Kadapa - APPCB",02-02-2024 00:00:00,14.465052,78.824187,PM10,22,51,39
India,Andhra_Pradesh,Kadapa,"Yerramukkapalli, Kadapa - APPCB",02-02-2024 00:00:00,14.465052,78.824187,SO2,1,2,2
India,Andhra_Pradesh,Kadapa,"Yerramukkapalli, Kadapa - APPCB",02-02-2024 00:00:00,14.465052,78.824187,CO,15,22,20
India,Andhra_Pradesh,Rajamahendravaram,"Anand Kala Kshetram, Rajamahendravaram - APPCB",02-02-2024 00:00:00,16.9872867,81.7363176,PM10,43,107,73
India,Andhra_Pradesh,Tirupati,"Tirumala, Tirupati - APPCB",02-02-2024 00:00:00,13.67,79.35,PM10,37,71,54
India,Andhra_Pradesh,Tirupati,"Tirumala, Tirupati - APPCB",02-02-2024 00:00:00,13.67,79.35,NH3,1,1,1
India,Andhra_Pradesh,Tirupati,"Tirumala, Tirupati - APPCB",02-02-2024 00:00:00,13.67,79.35,OZONE,13,40,29
India,Andhra_Pradesh,Vijayawada,"HB Colony, Vijayawada - APPCB",02-02-2024 00:00:00,16.536107,80.594233,PM10,38,50,43
India,Andhra_Pradesh,Vijayawada,"HB Colony, Vijayawada - APPCB",02-02-2024 00:00:00,16.536107,80.594233,NH3,4,5,4
India,Andhra_Pradesh,Vijayawada,"Rajiv Gandhi Park, Vijayawada - APPCB",02-02-2024 00:00:00,16.509717,80.612222,PM10,30,55,41
India,Andhra_Pradesh,Vijayawada,"Rajiv Nagar, Vijayawada - APPCB",02-02-2024 00:00:00,16.554731,80.649110,NO2,7,12,9
India,Andhra_Pradesh,Visakhapatnam,"GVM Corporation, Visakhapatnam - APPCB",02-02-2024 00:00:00,17.72,83.3,NH3,NA,NA,NA
India,Andhra_Pradesh,Visakhapatnam,"GVM Corporation, Visakhapatnam - APPCB",02-02-2024 00:00:00,17.72,83.3,CO,2,73,27
India,Arunachal_Pradesh,Naharlagun,"Naharlagun, Naharlagun - APSPCB",02-02-2024 00:00:00,27.103358,93.679645,PM2.5,22,500,100
India,Arunachal_Pradesh,Naharlagun,"Naharlagun, Naharlagun - APSPCB",02-02-2024 00:00:00,27.103358,93.679645,CO,11,50,31
India,Assam,Byrnihat,"Central Academy for SFS, Byrnihat - PCBA",02-02-2024 00:00:00,26.071318,91.87488,PM2.5,107,500,359
India,Assam,Byrnihat,"Central Academy for SFS, Byrnihat - PCBA",02-02-2024 00:00:00,26.071318,91.87488,NO2,33,126,59
India,Assam,Guwahati,"IITG, Guwahati - PCBA",02-02-2024 00:00:00,26.2028636,91.70046436,PM2.5,88,286,156
India,Assam,Guwahati,"IITG, Guwahati - PCBA",02-02-2024 00:00:00,26.2028636,91.70046436,NO2,2,11,4
India,Assam,Guwahati,"LGBI Airport, Guwahati - PCBA",02-02-2024 00:00:00,26.10887,91.589544,SO2,4,104,16
India,Assam,Guwahati,"Pan Bazaar, Guwahati - PCBA",02-02-2024 00:00:00,26.187500,91.744194,SO2,54,68,60
India,Assam,Guwahati,"Railway Colony, Guwahati - PCBA",02-02-2024 00:00:00,26.181742,91.78063,PM2.5,9,402,174
India,Assam,Guwahati,"Railway Colony, Guwahati - PCBA",02-02-2024 00:00:00,26.181742,91.78063,CO,21,110,68
India,Assam,Nagaon,"Christianpatty, Nagaon - PCBA",02-02-2024 00:00:00,26.349082,92.68449,SO2,1,8,4
India,Assam,Nagaon,"Christianpatty, Nagaon - PCBA",02-02-2024 00:00:00,26.349082,92.68449,CO,16,68,53
India,Assam,Nagaon,"Christianpatty, Nagaon - PCBA",02-02-2024 00:00:00,26.349082,92.68449,OZONE,8,69,29
India,Assam,Nalbari,"Bata Chowk, Nalbari - PCBA",02-02-2024 00:00:00,26.446912,91.439057,PM2.5,42,348,90
India,Assam,Silchar,"Tarapur, Silchar - PCBA",02-02-2024 00:00:00,24.82827,92.79525,PM10,51,65,55
India,Assam,Sivasagar,"Girls College, Sivasagar - PCBA",02-02-2024 00:00:00,26.987634,94.636574,CO,16,43,31
India,Bihar,Araria,"Kharahiya Basti, Araria - BSPCB",02-02-2024 00:00:00,26.146529,87.454184,PM2.5,93,500,294
India,Bihar,Araria,"Kharahiya Basti, Araria - BSPCB",02-02-2024 00:00:00,26.146529,87.454184,PM10,112,500,291
India,Bihar,Araria,"Kharahiya Basti, Araria - BSPCB",02-02-2024 00:00:00,26.146529,87.454184,OZONE,10,12,12
India,Bihar,Aurangabad,"Gurdeo Nagar, Aurangabad - BSPCB",02-02-2024 00:00:00,24.75746,84.366208,NO2,9,22,12
India,Bihar,Aurangabad,"Gurdeo Nagar, Aurangabad - BSPCB",02-02-2024 00:00:00,24.75746,84.366208,SO2,NA,NA,NA
India,Bihar,Bettiah,"Kamalnath Nagar, Bettiah - BSPCB",02-02-2024 00:00:00,26.80365,84.51954,PM2.5,NA,NA,NA
India,Bihar,Bettiah,"Kamalnath Nagar, Bettiah - BSPCB",02-02-2024 00:00:00,26.80365,84.51954,NH3,NA,NA,NA
India,Bihar,Bettiah,"Kamalnath Nagar, Bettiah - BSPCB",02-02-2024 00:00:00,26.80365,84.51954,CO,76,82,79
India,Bihar,Bhagalpur,"DM Office_Kachari Chowk, Bhagalpur - BSPCB",02-02-2024 00:00:00,25.251013,86.989001,CO,26,100,57
India,Bihar,Bhagalpur,"Mayaganj, Bhagalpur - BSPCB",02-02-2024 00:00:00,25.265194,87.012947,CO,7,10,9
India,Bihar,Bhagalpur,"Mayaganj, Bhagalpur - BSPCB",02-02-2024 00:00:00,25.265194,87.012947,OZONE,13,32,20
India,Bihar,Bihar Sharif,"D M Colony, Bihar Sharif - BSPCB",02-02-2024 00:00:00,25.204762,85.514960,NH3,2,2,2
India,Bihar,Chhapra,"Darshan Nagar, Chhapra - BSPCB",02-02-2024 00:00:00,25.7808257,84.7446768,PM2.5,310,451,364
India,Bihar,Chhapra,"Darshan Nagar, Chhapra - BSPCB",02-02-2024 00:00:00,25.7808257,84.7446768,SO2,4,47,25
India,Bihar,Gaya,"Collectorate, Gaya - BSPCB",02-02-2024 00:00:00,24.7955,84.9994,NO2,17,21,19
India,Bihar,Hajipur,"Industrial Area, Hajipur - BSPCB",02-02-2024 00:00:00,25.697189,85.245900,PM2.5,139,311,219
India,Bihar,Katihar,"Mirchaibari, Katihar - BSPCB",02-02-2024 00:00:00,25.560083,87.553265,PM10,101,375,220
India,Bihar,Katihar,"Mirchaibari, Katihar - BSPCB",02-02-2024 00:00:00,25.560083,87.553265,OZONE,17,22,19
India,Bihar,Kishanganj,"SDM Office_Khagra, Kishanganj - BSPCB",02-02-2024 00:00:00,26.0881305,87.93840336,PM2.5,27,290,93
India,Bihar,Kishanganj,"SDM Office_Khagra, Kishanganj - BSPCB",02-02-2024 00:00:00,26.0881305,87.93840336,PM10,131,443,253
India,Bihar,Manguraha,"Forest Rest House, Manguraha - BSPCB",02-02-2024 00:00:00,27.308328,84.531742,SO2,1,9,8
India,Bihar,Manguraha,"Forest Rest House, Manguraha - BSPCB",02-02-2024 00:00:00,27.308328,84.531742,OZONE,29,134,50
India,Bihar,Munger,"Town Hall, Munger - BSPCB",02-02-2024 00:00:00,25.376776,86.471523,CO,7,160,59
India,Bihar,Muzaffarpur,"MIT-Daudpur Kothi, Muzaffarpur - BSPCB",02-02-2024 00:00:00,26.1403345,85.3650192,SO2,11,18,15
India,Bihar,Muzaffarpur,"Muzaffarpur Collectorate, Muzaffarpur - BSPCB",02-02-2024 00:00:00,26.1209,85.3647,SO2,5,9,7
India,Bihar,Muzaffarpur,"Muzaffarpur Collectorate, Muzaffarpur - BSPCB",02-02-2024 00:00:00,26.1209,85.3647,OZONE,23,89,47
India,Bihar,Patna,"DRM Office Danapur, Patna - BSPCB",02-02-2024 00:00:00,25.586562,85.043586,PM2.5,295,399,345
India,Bihar,Patna,"DRM Office Danapur, Patna - BSPCB",02-02-2024 00:00:00,25.586562,85.043586,CO,20,159,107
India,Bihar,Patna,"DRM Office Danapur, Patna - BSPCB",02-02-2024 00:00:00,25.586562,85.043586,OZONE,10,80,27
India,Bihar,Patna,"Govt. High School Shikarpur, Patna - BSPCB",02-02-2024 00:00:00,25.592539,85.227158,CO,45,114,98
India,Bihar,Patna,"Muradpur, Patna - BSPCB",02-02-2024 00:00:00,25.619651,85.147382,PM10,330,475,423
India,Bihar,Patna,"Muradpur, Patna - BSPCB",02-02-2024 00:00:00,25.619651,85.147382,SO2,12,34,22
India,Bihar,Patna,"Muradpur, Patna - BSPCB",02-02-2024 00:00:00,25.619651,85.147382,OZONE,14,72,27
India,Bihar,Patna,"Rajbansi Nagar, Patna - BSPCB",02-02-2024 00:00:00,25.599486,85.113666,PM2.5,278,397,341
India,Bihar,Patna,"Samanpura, Patna - BSPCB",02-02-2024 00:00:00,25.596727,85.085624,NO2,16,150,50
India,Bihar,Patna,"Samanpura, Patna - BSPCB",02-02-2024 00:00:00,25.596727,85.085624,NH3,2,26,7
India,Bihar,Purnia,"Mariam Nagar, Purnia - BSPCB",02-02-2024 00:00:00,25.366336,87.117468,PM2.5,70,379,261
India,Bihar,Purnia,"Mariam Nagar, Purnia - BSPCB",02-02-2024 00:00:00,25.366336,87.117468,PM10,140,386,233
India,Bihar,Purnia,"Mariam Nagar, Purnia - BSPCB",02-02-2024 00:00:00,25.366336,87.117468,NO2,12,13,13
India,Bihar,Purnia,"Mariam Nagar, Purnia - BSPCB",02-02-2024 00:00:00,25.366336,87.117468,OZONE,9,17,10
India,Bihar,Rajgir,"Dangi Tola, Rajgir - BSPCB",02-02-2024 00:00:00,25.03280,85.41948,NO2,NA,NA,NA
India,Bihar,Samastipur,"DM Office_Kasipur, Samastipur - BSPCB",02-02-2024 00:00:00,25.859655,85.77944,CO,14,28,15
India,Bihar,Samastipur,"DM Office_Kasipur, Samastipur - BSPCB",02-02-2024 00:00:00,25.859655,85.77944,OZONE,9,20,11
India,Bihar,Sasaram,"Dada Peer, Sasaram - BSPCB",02-02-2024 00:00:00,24.952822,84.002396,SO2,21,23,23
India,Chandigarh,Chandigarh,"Sector 22, Chandigarh - CPCC",02-02-2024 00:00:00,30.735567,76.775714,PM2.5,27,340,128
India,Chandigarh,Chandigarh,"Sector-25, Chandigarh - CPCC",02-02-2024 00:00:00,30.751462,76.762879,NH3,10,27,16
India,Chandigarh,Chandigarh,"Sector-25, Chandigarh - CPCC",02-02-2024 00:00:00,30.751462,76.762879,CO,16,58,44
India,Chandigarh,Chandigarh,"Sector-53, Chandigarh - CPCC",02-02-2024 00:00:00,30.719859,76.738637,PM10,25,306,99
India,Chhattisgarh,Bhilai,"Civic Center, Bhilai - Bhilai Steel Plant",02-02-2024 00:00:00,21.185571,81.343175,PM2.5,NA,NA,NA
India,Chhattisgarh,Bhilai,"Civic Center, Bhilai - Bhilai Steel Plant",02-02-2024 00:00:00,21.185571,81.343175,PM10,NA,NA,NA
India,Chhattisgarh,Bhilai,"Hathkhoj, Bhilai - CECB",02-02-2024 00:00:00,21.224231,81.408350,PM10,85,169,123
India,Chhattisgarh,Bhilai,"Hathkhoj, Bhilai - CECB",02-02-2024 00:00:00,21.224231,81.408350,CO,12,68,36
India,Chhattisgarh,Chhal,"Nawapara SECL Colony, Chhal - CECB",02-02-2024 00:00:00,22.118125,83.140608,NO2,13,56,26
India,Chhattisgarh,Chhal,"Nawapara SECL Colony, Chhal - CECB",02-02-2024 00:00:00,22.118125,83.140608,CO,66,108,87
India,Chhattisgarh,Korba,"Rampur, Korba - CECB",02-02-2024 00:00:00,22.368195,82.746431,PM2.5,28,75,43
India,Chhattisgarh,Korba,"Rampur, Korba - CECB",02-02-2024 00:00:00,22.368195,82.746431,OZONE,2,5,3
India,Chhattisgarh,Kunjemura,"OP Jindal School, Kunjemura - CECB",02-02-2024 00:00:00,22.126650,83.483212,CO,38,70,50
India,Chhattisgarh,Raipur,"Bhatagaon New ISBT, Raipur - CECB",02-02-2024 00:00:00,21.219665,81.630094,PM2.5,42,146,78
India,Chhattisgarh,Raipur,"Bhatagaon New ISBT, Raipur - CECB",02-02-2024 00:00:00,21.219665,81.630094,PM10,38,154,100
India,Chhattisgarh,Raipur,"Bhatagaon New ISBT, Raipur - CECB",02-02-2024 00:00:00,21.219665,81.630094,SO2,NA,NA,NA
India,Chhattisgarh,Raipur,"Krishak Nagar, Raipur - CECB",02-02-2024 00:00:00,21.237755,81.705301,NO2,23,35,28
India,Chhattisgarh,Raipur,"Siltara Phase-II, Raipur - CECB",02-02-2024 00:00:00,21.371751,81.664929,PM10,48,171,105
India,Chhattisgarh,Raipur,"Siltara Phase-II, Raipur - CECB",02-02-2024 00:00:00,21.371751,81.664929,NH3,3,3,3
India,Delhi,Delhi,"Alipur, Delhi - DPCC",02-02-2024 00:00:00,28.815329,77.153010,PM2.5,28,280,121
India,Delhi,Delhi,"Alipur, Delhi - DPCC",02-02-2024 00:00:00,28.815329,77.153010,PM10,20,124,72
India,Delhi,Delhi,"Alipur, Delhi - DPCC",02-02-2024 00:00:00,28.815329,77.153010,NO2,19,68,28
India,Delhi,Delhi,"Anand Vihar, Delhi - DPCC",02-02-2024 00:00:00,28.647622,77.3158090,PM10,43,144,92
India,Delhi,Delhi,"Aya Nagar, Delhi - IMD",02-02-2024 00:00:00,28.4706914,77.1099364,CO,64,92,73
India,Delhi,Delhi,"Bawana, Delhi - DPCC",02-02-2024 00:00:00,28.776200,77.051074,PM10,42,194,102
India,Delhi,Delhi,"Bawana, Delhi - DPCC",02-02-2024 00:00:00,28.776200,77.051074,NO2,18,62,33
India,Delhi,Delhi,"Bawana, Delhi - DPCC",02-02-2024 00:00:00,28.776200,77.051074,OZONE,4,42,18
India,Delhi,Delhi,"CRRI Mathura Road, Delhi - IMD",02-02-2024 00:00:00,28.5512005,77.2735737,CO,1,82,61
India,Delhi,Delhi,"DTU, Delhi - CPCB",02-02-2024 00:00:00,28.7500499,77.1112615,PM2.5,26,94,53
India,Delhi,Delhi,"DTU, Delhi - CPCB",02-02-2024 00:00:00,28.7500499,77.1112615,PM10,34,173,100
India,Delhi,Delhi,"DTU, Delhi - CPCB",02-02-2024 00:00:00,28.7500499,77.1112615,OZONE,26,28,27
India,Delhi,Delhi,"Dr. Karni Singh Shooting Range, Delhi - DPCC",02-02-2024 00:00:00,28.498571,77.264840,SO2,5,10,9
India,Delhi,Delhi,"Dr. Karni Singh Shooting Range, Delhi - DPCC",02-02-2024 00:00:00,28.498571,77.264840,CO,20,96,62
India,Delhi,Delhi,"Dr. Karni Singh Shooting Range, Delhi - DPCC",02-02-2024 00:00:00,28.498571,77.264840,OZONE,1,75,39
India,Delhi,Delhi,"Dwarka-Sector 8, Delhi - DPCC ",02-02-2024 00:00:00,28.5710274,77.0719006,NH3,6,16,13
India,Delhi,Delhi,"IGI Airport (T3), Delhi - IMD",02-02-2024 00:00:00,28.5627763,77.1180053,PM2.5,32,220,93
India,Delhi,Delhi,"IGI Airport (T3), Delhi - IMD",02-02-2024 00:00:00,28.5627763,77.1180053,OZONE,11,26,16
India,Delhi,Delhi,"IHBAS, Dilshad Garden, Delhi - CPCB",02-02-2024 00:00:00,28.6811736,77.3025234,PM2.5,10,113,40
India,Delhi,Delhi,"IHBAS, Dilshad Garden, Delhi - CPCB",02-02-2024 00:00:00,28.6811736,77.3025234,PM10,19,109,53
India,Delhi,Delhi,"ITO, Delhi - CPCB",02-02-2024 00:00:00,28.628624,77.241060,NO2,1,83,49
India,Delhi,Delhi,"ITO, Delhi - CPCB",02-02-2024 00:00:00,28.628624,77.241060,OZONE,22,25,23
India,Delhi,Delhi,"Jahangirpuri, Delhi - DPCC",02-02-2024 00:00:00,28.732820,77.170633,CO,22,102,90
India,Delhi,Delhi,"Jawaharlal Nehru Stadium, Delhi - DPCC",02-02-2024 00:00:00,28.580280,77.233829,PM10,33,150,81
India,Delhi,Delhi,"Lodhi Road, Delhi - IMD",02-02-2024 00:00:00,28.5918245,77.2273074,PM10,27,139,76
India,Delhi,Delhi,"Lodhi Road, Delhi - IMD",02-02-2024 00:00:00,28.5918245,77.2273074,CO,44,62,54
India,Delhi,Delhi,"Major Dhyan Chand National Stadium, Delhi - DPCC",02-02-2024 00:00:00,28.611281,77.237738,SO2,2,19,10
India,Delhi,Delhi,"Mandir Marg, Delhi - DPCC",02-02-2024 00:00:00,28.636429,77.201067,NH3,NA,NA,NA
India,Delhi,Delhi,"Mundka, Delhi - DPCC",02-02-2024 00:00:00,28.684678,77.076574,PM10,39,175,106
India,Delhi,Delhi,"Mundka, Delhi - DPCC",02-02-2024 00:00:00,28.684678,77.076574,NO2,39,109,68
India,Delhi,Delhi,"Najafgarh, Delhi - DPCC",02-02-2024 00:00:00,28.570173,76.933762,PM2.5,NA,NA,NA
India,Delhi,Delhi,"Najafgarh, Delhi - DPCC",02-02-2024 00:00:00,28.570173,76.933762,NH3,NA,NA,NA
India,Delhi,Delhi,"Najafgarh, Delhi - DPCC",02-02-2024 00:00:00,28.570173,76.933762,OZONE,13,61,34
India,Delhi,Delhi,"Narela, Delhi - DPCC",02-02-2024 00:00:00,28.822836,77.101981,PM10,38,179,101
India,Delhi,Delhi,"Narela, Delhi - DPCC",02-02-2024 00:00:00,28.822836,77.101981,NH3,6,19,11
India,Delhi,Delhi,"Nehru Nagar, Delhi - DPCC",02-02-2024 00:00:00,28.567890,77.250515,PM2.5,37,289,135
India,Delhi,Delhi,"North Campus, DU, Delhi - IMD",02-02-2024 00:00:00,28.6573814,77.1585447,PM2.5,NA,NA,NA
India,Delhi,Delhi,"North Campus, DU, Delhi - IMD",02-02-2024 00:00:00,28.6573814,77.1585447,NO2,NA,NA,NA
India,Delhi,Delhi,"North Campus, DU, Delhi - IMD",02-02-2024 00:00:00,28.6573814,77.1585447,OZONE,NA,NA,NA
India,Delhi,Delhi,"Okhla Phase-2, Delhi - DPCC",02-02-2024 00:00:00,28.530785,77.271255,NO2,28,62,45
India,Delhi,Delhi,"Punjabi Bagh, Delhi - DPCC",02-02-2024 00:00:00,28.674045,77.131023,PM2.5,52,319,153
India,Delhi,Delhi,"Pusa, Delhi - DPCC",02-02-2024 00:00:00,28.639652,77.146275,PM10,36,229,93
India,Delhi,Delhi,"Pusa, Delhi - IMD",02-02-2024 00:00:00,28.636110,77.173332,OZONE,12,18,13
India,Delhi,Delhi,"R K Puram, Delhi - DPCC",02-02-2024 00:00:00,28.563262,77.186937,PM10,41,167,89
India,Delhi,Delhi,"R K Puram, Delhi - DPCC",02-02-2024 00:00:00,28.563262,77.186937,NO2,10,87,29
India,Delhi,Delhi,"Rohini, Delhi - DPCC",02-02-2024 00:00:00,28.732528,77.119920,PM2.5,48,317,160
India,Delhi,Delhi,"Rohini, Delhi - DPCC",02-02-2024 00:00:00,28.732528,77.119920,OZONE,2,40,22
India,Delhi,Delhi,"Shadipur, Delhi - CPCB",02-02-2024 00:00:00,28.6514781,77.1473105,SO2,16,25,21
India,Delhi,Delhi,"Shadipur, Delhi - CPCB",02-02-2024 00:00:00,28.6514781,77.1473105,OZONE,5,30,9
India,Delhi,Delhi,"Sirifort, Delhi - CPCB",02-02-2024 00:00:00,28.5504249,77.2159377,CO,10,98,53
India,Delhi,Delhi,"Sonia Vihar, Delhi - DPCC",02-02-2024 00:00:00,28.710508,77.249485,OZONE,4,34,18
India,Delhi,Delhi,"Sri Aurobindo Marg, Delhi - DPCC",02-02-2024 00:00:00,28.531346,77.190156,NO2,14,67,39
India,Delhi,Delhi,"Vivek Vihar, Delhi - DPCC",02-02-2024 00:00:00,28.672342,77.315260,SO2,10,16,13
India,Delhi,Delhi,"Vivek Vihar, Delhi - DPCC",02-02-2024 00:00:00,28.672342,77.315260,CO,6,65,52
India,Delhi,Delhi,"Wazirpur, Delhi - DPCC",02-02-2024 00:00:00,28.699793,77.165453,CO,20,104,66
India,Gujarat,Ahmedabad,"Chandkheda, Ahmedabad - IITM",02-02-2024 00:00:00,23.107969,72.574648,PM10,37,162,89
India,Gujarat,Ahmedabad,"Chandkheda, Ahmedabad - IITM",02-02-2024 00:00:00,23.107969,72.574648,NO2,27,34,30
India,Gujarat,Ahmedabad,"Gyaspur, Ahmedabad - IITM",02-02-2024 00:00:00,22.977134,72.553024,PM10,31,204,77
India,Gujarat,Ahmedabad,"Gyaspur, Ahmedabad - IITM",02-02-2024 00:00:00,22.977134,72.553024,OZONE,11,17,15
India,Gujarat,Ahmedabad,"Maninagar, Ahmedabad - GPCB",02-02-2024 00:00:00,23.002657,72.591912,OZONE,11,130,42
India,Gujarat,Ahmedabad,"Raikhad, Ahmedabad - IITM",02-02-2024 00:00:00,23.020509,72.579261,PM10,58,141,82
India,Gujarat,Ahmedabad,"Raikhad, Ahmedabad - IITM",02-02-2024 00:00:00,23.020509,72.579261,SO2,10,21,16
India,Gujarat,Ahmedabad,"Rakhial, Ahmedabad - IITM",02-02-2024 00:00:00,23.016834,72.625775,PM2.5,35,269,89
India,Gujarat,Ahmedabad,"SAC ISRO Bopal, Ahmedabad - IITM",02-02-2024 00:00:00,23.041137,72.456691,CO,NA,NA,NA
India,Gujarat,Ahmedabad,"SAC ISRO Satellite, Ahmedabad - IITM",02-02-2024 00:00:00,23.023389,72.515201,PM10,81,128,103
India,Gujarat,Ahmedabad,"SAC ISRO Satellite, Ahmedabad - IITM",02-02-2024 00:00:00,23.023389,72.515201,NO2,17,17,17
India,Gujarat,Ahmedabad,"SVPI Airport Hansol, Ahmedabad - IITM",02-02-2024 00:00:00,23.076793,72.627874,OZONE,4,15,8
India,Gujarat,Ahmedabad,"Sardar Vallabhbhai Patel Stadium, Ahmedabad - IITM",02-02-2024 00:00:00,23.043070,72.562968,PM10,59,175,95
India,Gujarat,Ahmedabad,"Sardar Vallabhbhai Patel Stadium, Ahmedabad - IITM",02-02-2024 00:00:00,23.043070,72.562968,NO2,12,15,13
India,Gujarat,Gandhinagar,"GIFT City, Gandhinagar - IITM",02-02-2024 00:00:00,23.163798,72.677768,CO,16,50,29
India,Gujarat,Gandhinagar,"IIPHG Lekawada, Gandhinagar - IITM",02-02-2024 00:00:00,23.243639,72.68994,NH3,3,3,3
India,Gujarat,Gandhinagar,"Sector-10, Gandhinagar - GPCB",02-02-2024 00:00:00,23.221714,72.654328,NH3,1,2,2
India,Gujarat,Vapi,"Phase-1 GIDC, Vapi - GPCB",02-02-2024 00:00:00,20.362421,72.918013,OZONE,2,2,2
India,Gujarat,Vatva,"Phase-4 GIDC, Vatva - GPCB",02-02-2024 00:00:00,22.969611,72.643500,SO2,3,11,5
India,Haryana,Ambala,"Patti Mehar, Ambala - HSPCB",02-02-2024 00:00:00,30.379589,76.778328,PM2.5,1,283,94
India,Haryana,Ambala,"Patti Mehar, Ambala - HSPCB",02-02-2024 00:00:00,30.379589,76.778328,NH3,11,11,11
India,Haryana,Bahadurgarh,"Arya Nagar, Bahadurgarh - HSPCB",02-02-2024 00:00:00,28.6701,76.9254,PM2.5,40,258,103
India,Haryana,Bahadurgarh,"Arya Nagar, Bahadurgarh - HSPCB",02-02-2024 00:00:00,28.6701,76.9254,PM10,30,119,78
India,Haryana,Bahadurgarh,"Arya Nagar, Bahadurgarh - HSPCB",02-02-2024 00:00:00,28.6701,76.9254,NH3,10,12,11
India,Haryana,Ballabgarh,"Nathu Colony, Ballabgarh - HSPCB",02-02-2024 00:00:00,28.3419248,77.319699,PM2.5,14,120,61
India,Haryana,Charkhi Dadri,"Mini Secretariat, Charkhi Dadri - HSPCB",02-02-2024 00:00:00,28.593883,76.270653,CO,22,70,44
India,Haryana,Charkhi Dadri,"Mini Secretariat, Charkhi Dadri - HSPCB",02-02-2024 00:00:00,28.593883,76.270653,OZONE,13,17,15
India,Haryana,Dharuhera,"Municipal Corporation Office, Dharuhera -  HSPCB",02-02-2024 00:00:00,28.206800,76.799700,SO2,NA,NA,NA
India,Haryana,Faridabad,"Sector 30, Faridabad - HSPCB",02-02-2024 00:00:00,28.4417,77.3217,OZONE,9,24,13
India,Haryana,Fatehabad,"Huda Sector, Fatehabad - HSPCB",02-02-2024 00:00:00,29.503664,75.467934,PM10,40,109,92
India,Haryana,Fatehabad,"Huda Sector, Fatehabad - HSPCB",02-02-2024 00:00:00,29.503664,75.467934,NO2,29,31,30
India,Haryana,Gurugram,"Sector-51, Gurugram - HSPCB",02-02-2024 00:00:00,28.4227,77.0667,SO2,3,138,23
India,Haryana,Gurugram,"Vikas Sadan, Gurugram - HSPCB",02-02-2024 00:00:00,28.4501238,77.0263051,NO2,5,26,12
India,Haryana,Gurugram,"Vikas Sadan, Gurugram - HSPCB",02-02-2024 00:00:00,28.4501238,77.0263051,OZONE,8,69,28
India,Haryana,Hisar,"Urban Estate-II, Hisar - HSPCB",02-02-2024 00:00:00,29.140560,75.744941,PM2.5,NA,NA,NA
India,Haryana,Jind,"Police Lines, Jind - HSPCB",02-02-2024 00:00:00,29.307814,76.337619,NO2,7,17,12
India,Haryana,Jind,"Police Lines, Jind - HSPCB",02-02-2024 00:00:00,29.307814,76.337619,OZONE,1,18,12
India,Haryana,Karnal,"Sector-12, Karnal - HSPCB",02-02-2024 00:00:00,29.695300,77.002700,SO2,12,13,12
India,Haryana,Karnal,"Sector-12, Karnal - HSPCB",02-02-2024 00:00:00,29.695300,77.002700,CO,12,74,33
India,Haryana,Kurukshetra,"Sector-7, Kurukshetra - HSPCB",02-02-2024 00:00:00,29.966942,76.875879,CO,1,105,28
India,Haryana,Mandikhera,"General Hospital, Mandikhera - HSPCB",02-02-2024 00:00:00,27.9002,76.9938,PM10,35,144,73
India,Haryana,Manesar,"Sector-2 IMT, Manesar - HSPCB",02-02-2024 00:00:00,28.360699,76.936090,PM2.5,31,119,68
India,Haryana,Manesar,"Sector-2 IMT, Manesar - HSPCB",02-02-2024 00:00:00,28.360699,76.936090,OZONE,5,21,14
India,Haryana,Narnaul,"Shastri Nagar, Narnaul - HSPCB",02-02-2024 00:00:00,28.060249,76.113115,NO2,16,58,35
India,Haryana,Narnaul,"Shastri Nagar, Narnaul - HSPCB",02-02-2024 00:00:00,28.060249,76.113115,SO2,13,46,15
India,Haryana,Palwal,"Shyam Nagar, Palwal - HSPCB",02-02-2024 00:00:00,28.1485564,77.3320667,NH3,2,3,3
India,Haryana,Palwal,"Shyam Nagar, Palwal - HSPCB",02-02-2024 00:00:00,28.1485564,77.3320667,SO2,9,20,16
India,Haryana,Panipat,"Sector-18, Panipat - HSPCB",02-02-2024 00:00:00,29.497973,76.993331,SO2,12,13,12
India,Haryana,Panipat,"Sector-18, Panipat - HSPCB",02-02-2024 00:00:00,29.497973,76.993331,CO,22,28,24
India,Haryana,Rohtak,"MD University, Rohtak - HSPCB",02-02-2024 00:00:00,28.52123,76.37138,PM2.5,34,309,111
India,Haryana,Sirsa,"F-Block, Sirsa - HSPCB",02-02-2024 00:00:00,29.536400,75.015800,NH3,NA,NA,NA
India,Haryana,Sirsa,"F-Block, Sirsa - HSPCB",02-02-2024 00:00:00,29.536400,75.015800,CO,NA,NA,NA
India,Haryana,Sonipat,"Murthal, Sonipat - HSPCB",02-02-2024 00:00:00,29.027200,77.062100,PM2.5,55,230,110
India,Haryana,Sonipat,"Murthal, Sonipat - HSPCB",02-02-2024 00:00:00,29.027200,77.062100,OZONE,17,36,25
India,Haryana,Yamuna Nagar,"Gobind Pura, Yamuna Nagar - HSPCB",02-02-2024 00:00:00,30.1480566,77.2893471,NO2,11,30,19
India,Haryana,Yamuna Nagar,"Gobind Pura, Yamuna Nagar - HSPCB",02-02-2024 00:00:00,30.1480566,77.2893471,CO,22,76,54
India,Himachal Pradesh,Baddi,"HIMUDA Complex Phase-1, Baddi - HPPCB",02-02-2024 00:00:00,30.943887,76.801991,NO2,16,39,27
India,Jammu_and_Kashmir,Srinagar,"Rajbagh, Srinagar - JKSPCB",02-02-2024 00:00:00,34.066206,74.819820,PM2.5,NA,NA,NA
India,Jammu_and_Kashmir,Srinagar,"Rajbagh, Srinagar - JKSPCB",02-02-2024 00:00:00,34.066206,74.819820,PM10,NA,NA,NA
India,Jharkhand,Dhanbad,"Kalakusuma, Dhanbad - DMC",02-02-2024 00:00:00,23.811548,86.481238,NO2,NA,NA,NA
India,Jharkhand,Dhanbad,"Sardar Patel Nagar, Dhanbad - JSPCB",02-02-2024 00:00:00,23.80569,86.44268,PM2.5,93,334,221
India,Jharkhand,Dhanbad,"Sardar Patel Nagar, Dhanbad - JSPCB",02-02-2024 00:00:00,23.80569,86.44268,PM10,144,412,236
India,Jharkhand,Dhanbad,"Sardar Patel Nagar, Dhanbad - JSPCB",02-02-2024 00:00:00,23.80569,86.44268,NO2,37,286,132
India,Jharkhand,Dhanbad,"Sardar Patel Nagar, Dhanbad - JSPCB",02-02-2024 00:00:00,23.80569,86.44268,SO2,10,13,11
India,Jharkhand,Pathardih,"Mohalbani Ghat, Pathardih - DMC",02-02-2024 00:00:00,23.669880,86.411725,OZONE,13,22,18
