country,state,city,station,last_update,latitude,longitude,pollutant_id,pollutant_min,pollutant_max,pollutant_avg
India,Andhra_Pradesh,Amaravati,"Secretariat, Amaravati - APPCB",27-07-2024 07:00:00,16.5150833,80.5181667,PM2.5,2,19,10
India,Andhra_Pradesh,Amaravati,"Secretariat, Amaravati - APPCB",27-07-2024 07:00:00,16.5150833,80.5181667,NO2,3,21,9
India,Andhra_Pradesh,Anantapur,"Gulzarpet, Anantapur - APPCB",27-07-2024 07:00:00,14.675886,77.593027,CO,16,40,19
India,Andhra_Pradesh,Chittoor,"Gangineni Cheruvu, Chittoor - APPCB",27-07-2024 07:00:00,13.204880,79.097889,PM10,25,79,49
India,Andhra_Pradesh,Chittoor,"Gangineni Cheruvu, Chittoor - APPCB",27-07-2024 07:00:00,13.204880,79.097889,NH3,3,4,3
India,Andhra_Pradesh,Rajamahendravaram,"Anand Kala Kshetram, Rajamahendravaram - APPCB",27-07-2024 07:00:00,16.9872867,81.7363176,NH3,1,5,3
India,Andhra_Pradesh,Rajamahendravaram,"Anand Kala Kshetram, Rajamahendravaram - APPCB",27-07-2024 07:00:00,16.9872867,81.7363176,CO,14,68,31
India,Andhra_Pradesh,Tirupati,"Vaikuntapuram, Tirupati - APPCB",27-07-2024 07:00:00,13.615387,79.409230,NO2,14,19,16
India,Andhra_Pradesh,Tirupati,"Vaikuntapuram, Tirupati - APPCB",27-07-2024 07:00:00,13.615387,79.409230,SO2,1,6,3
India,Andhra_Pradesh,Vijayawada,"HB Colony, Vijayawada - APPCB",27-07-2024 07:00:00,16.536107,80.594233,PM10,40,85,50
India,Andhra_Pradesh,Vijayawada,"Rajiv Gandhi Park, Vijayawada - APPCB",27-07-2024 07:00:00,16.509717,80.612222,CO,31,33,33
India,Andhra_Pradesh,Vijayawada,"Rajiv Gandhi Park, Vijayawada - APPCB",27-07-2024 07:00:00,16.509717,80.612222,OZONE,29,33,33
India,Andhra_Pradesh,Vijayawada,"Rajiv Nagar, Vijayawada - APPCB",27-07-2024 07:00:00,16.554731,80.649110,PM10,28,38,31
India,Andhra_Pradesh,Vijayawada,"Rajiv Nagar, Vijayawada - APPCB",27-07-2024 07:00:00,16.554731,80.649110,OZONE,16,22,18
India,Andhra_Pradesh,Visakhapatnam,"GVM Corporation, Visakhapatnam - APPCB",27-07-2024 07:00:00,17.72,83.3,NH3,3,5,3
India,Andhra_Pradesh,Visakhapatnam,"GVM Corporation, Visakhapatnam - APPCB",27-07-2024 07:00:00,17.72,83.3,SO2,7,17,10
India,Arunachal_Pradesh,Naharlagun,"Naharlagun, Naharlagun - APSPCB",27-07-2024 07:00:00,27.103358,93.679645,OZONE,NA,NA,NA
India,Assam,Guwahati,"IITG, Guwahati - PCBA",27-07-2024 07:00:00,26.2028636,91.70046436,PM2.5,3,51,14
India,Assam,Guwahati,"LGBI Airport, Guwahati - PCBA",27-07-2024 07:00:00,26.10887,91.589544,PM2.5,NA,NA,NA
India,Assam,Guwahati,"LGBI Airport, Guwahati - PCBA",27-07-2024 07:00:00,26.10887,91.589544,NO2,2,24,9
India,Assam,Guwahati,"LGBI Airport, Guwahati - PCBA",27-07-2024 07:00:00,26.10887,91.589544,OZONE,11,53,12
India,Assam,Guwahati,"Railway Colony, Guwahati - PCBA",27-07-2024 07:00:00,26.181742,91.78063,CO,20,34,24
India,Assam,Nagaon,"Christianpatty, Nagaon - PCBA",27-07-2024 07:00:00,26.349082,92.68449,NH3,1,8,2
India,Assam,Nalbari,"Bata Chowk, Nalbari - PCBA",27-07-2024 07:00:00,26.446912,91.439057,PM2.5,12,63,28
India,Assam,Nalbari,"Bata Chowk, Nalbari - PCBA",27-07-2024 07:00:00,26.446912,91.439057,NO2,6,16,11
India,Assam,Nalbari,"Bata Chowk, Nalbari - PCBA",27-07-2024 07:00:00,26.446912,91.439057,NH3,1,2,1
India,Assam,Nalbari,"Bata Chowk, Nalbari - PCBA",27-07-2024 07:00:00,26.446912,91.439057,OZONE,14,20,16
India,Assam,Silchar,"Tarapur, Silchar - PCBA",27-07-2024 07:00:00,24.82827,92.79525,PM10,49,99,57
India,Assam,Silchar,"Tarapur, Silchar - PCBA",27-07-2024 07:00:00,24.82827,92.79525,NO2,8,9,9
India,Bihar,Aurangabad,"Gurdeo Nagar, Aurangabad - BSPCB",27-07-2024 07:00:00,24.75746,84.366208,NO2,8,12,11
India,Bihar,Aurangabad,"Gurdeo Nagar, Aurangabad - BSPCB",27-07-2024 07:00:00,24.75746,84.366208,NH3,2,3,3
India,Bihar,Bettiah,"Kamalnath Nagar, Bettiah - BSPCB",27-07-2024 07:00:00,26.80365,84.51954,PM10,NA,NA,NA
India,Bihar,Bhagalpur,"DM Office_Kachari Chowk, Bhagalpur - BSPCB",27-07-2024 07:00:00,25.251013,86.989001,SO2,5,66,33
India,Bihar,Bhagalpur,"Mayaganj, Bhagalpur - BSPCB",27-07-2024 07:00:00,25.265194,87.012947,PM10,35,98,55
India,Bihar,Buxar,"Charitra Van, Buxar - BSPCB (Formerly known as Central Jail)",27-07-2024 07:00:00,25.567520,83.966379,CO,35,70,45
India,Bihar,Chhapra,"Darshan Nagar, Chhapra - BSPCB",27-07-2024 07:00:00,25.7808257,84.7446768,PM2.5,2,60,31
India,Bihar,Gaya,"Kareemganj, Gaya - BSPCB",27-07-2024 07:00:00,24.792403,84.992416,NO2,7,58,10
India,Bihar,Gaya,"SFTI Kusdihra, Gaya - BSPCB",27-07-2024 07:00:00,24.762518,84.982348,PM2.5,2,35,16
India,Bihar,Gaya,"SFTI Kusdihra, Gaya - BSPCB",27-07-2024 07:00:00,24.762518,84.982348,NO2,7,14,10
India,Bihar,Gaya,"SFTI Kusdihra, Gaya - BSPCB",27-07-2024 07:00:00,24.762518,84.982348,SO2,6,9,8
India,Bihar,Hajipur,"Industrial Area, Hajipur - BSPCB",27-07-2024 07:00:00,25.697189,85.245900,PM2.5,42,107,67
India,Bihar,Hajipur,"Industrial Area, Hajipur - BSPCB",27-07-2024 07:00:00,25.697189,85.245900,NO2,4,13,8
India,Bihar,Hajipur,"Industrial Area, Hajipur - BSPCB",27-07-2024 07:00:00,25.697189,85.245900,CO,14,34,28
India,Bihar,Katihar,"Mirchaibari, Katihar - BSPCB",27-07-2024 07:00:00,25.560083,87.553265,PM10,NA,NA,NA
India,Bihar,Kishanganj,"SDM Office_Khagra, Kishanganj - BSPCB",27-07-2024 07:00:00,26.0881305,87.93840336,PM10,NA,NA,NA
India,Bihar,Manguraha,"Forest Rest House, Manguraha - BSPCB",27-07-2024 07:00:00,27.308328,84.531742,NO2,21,326,76
India,Bihar,Manguraha,"Forest Rest House, Manguraha - BSPCB",27-07-2024 07:00:00,27.308328,84.531742,NH3,3,85,15
India,Bihar,Manguraha,"Forest Rest House, Manguraha - BSPCB",27-07-2024 07:00:00,27.308328,84.531742,SO2,1,38,5
India,Bihar,Manguraha,"Forest Rest House, Manguraha - BSPCB",27-07-2024 07:00:00,27.308328,84.531742,CO,20,129,37
India,Bihar,Motihari,"Gandak Colony, Motihari - BSPCB",27-07-2024 07:00:00,26.63086,84.90051,PM2.5,7,72,22
India,Bihar,Motihari,"Gandak Colony, Motihari - BSPCB",27-07-2024 07:00:00,26.63086,84.90051,NO2,2,16,8
India,Bihar,Motihari,"Gandak Colony, Motihari - BSPCB",27-07-2024 07:00:00,26.63086,84.90051,SO2,6,88,41
India,Bihar,Motihari,"Gandak Colony, Motihari - BSPCB",27-07-2024 07:00:00,26.63086,84.90051,CO,4,26,13
India,Bihar,Munger,"Town Hall, Munger - BSPCB",27-07-2024 07:00:00,25.376776,86.471523,PM2.5,5,471,208
India,Bihar,Muzaffarpur,"Buddha Colony, Muzaffarpur - BSPCB",27-07-2024 07:00:00,26.11442,85.39813,PM10,33,75,54
India,Bihar,Muzaffarpur,"Buddha Colony, Muzaffarpur - BSPCB",27-07-2024 07:00:00,26.11442,85.39813,OZONE,2,150,37
India,Bihar,Muzaffarpur,"MIT-Daudpur Kothi, Muzaffarpur - BSPCB",27-07-2024 07:00:00,26.1403345,85.3650192,PM10,NA,NA,NA
India,Bihar,Muzaffarpur,"Muzaffarpur Collectorate, Muzaffarpur - BSPCB",27-07-2024 07:00:00,26.1209,85.3647,PM2.5,10,120,43
India,Bihar,Muzaffarpur,"Muzaffarpur Collectorate, Muzaffarpur - BSPCB",27-07-2024 07:00:00,26.1209,85.3647,NO2,33,56,37
India,Bihar,Muzaffarpur,"Muzaffarpur Collectorate, Muzaffarpur - BSPCB",27-07-2024 07:00:00,26.1209,85.3647,OZONE,16,84,31
India,Bihar,Patna,"DRM Office Danapur, Patna - BSPCB",27-07-2024 07:00:00,25.586562,85.043586,CO,16,34,24
India,Bihar,Patna,"Rajbansi Nagar, Patna - BSPCB",27-07-2024 07:00:00,25.599486,85.113666,OZONE,11,31,15
India,Bihar,Patna,"Samanpura, Patna - BSPCB",27-07-2024 07:00:00,25.596727,85.085624,PM10,79,107,96
India,Bihar,Patna,"Samanpura, Patna - BSPCB",27-07-2024 07:00:00,25.596727,85.085624,OZONE,28,82,42
India,Bihar,Purnia,"Mariam Nagar, Purnia - BSPCB",27-07-2024 07:00:00,25.366336,87.117468,PM2.5,3,53,29
India,Bihar,Purnia,"Mariam Nagar, Purnia - BSPCB",27-07-2024 07:00:00,25.366336,87.117468,SO2,7,16,13
India,Bihar,Purnia,"Mariam Nagar, Purnia - BSPCB",27-07-2024 07:00:00,25.366336,87.117468,CO,12,69,36
India,Bihar,Rajgir,"Dangi Tola, Rajgir - BSPCB",27-07-2024 07:00:00,25.03280,85.41948,PM2.5,NA,NA,NA
India,Bihar,Rajgir,"Dangi Tola, Rajgir - BSPCB",27-07-2024 07:00:00,25.03280,85.41948,PM10,8,223,72
India,Bihar,Samastipur,"DM Office_Kasipur, Samastipur - BSPCB",27-07-2024 07:00:00,25.859655,85.77944,PM10,35,107,71
India,Bihar,Sasaram,"Dada Peer, Sasaram - BSPCB",27-07-2024 07:00:00,24.952822,84.002396,PM2.5,2,62,27
India,Bihar,Sasaram,"Dada Peer, Sasaram - BSPCB",27-07-2024 07:00:00,24.952822,84.002396,CO,24,50,29
India,Chandigarh,Chandigarh,"Sector 22, Chandigarh - CPCC",27-07-2024 07:00:00,30.735567,76.775714,PM10,38,124,80
India,Chandigarh,Chandigarh,"Sector 22, Chandigarh - CPCC",27-07-2024 07:00:00,30.735567,76.775714,NO2,14,64,31
India,Chandigarh,Chandigarh,"Sector 22, Chandigarh - CPCC",27-07-2024 07:00:00,30.735567,76.775714,OZONE,29,87,42
India,Chandigarh,Chandigarh,"Sector-25, Chandigarh - CPCC",27-07-2024 07:00:00,30.751462,76.762879,OZONE,9,44,11
India,Chandigarh,Chandigarh,"Sector-53, Chandigarh - CPCC",27-07-2024 07:00:00,30.719859,76.738637,PM2.5,20,83,51
India,Chandigarh,Chandigarh,"Sector-53, Chandigarh - CPCC",27-07-2024 07:00:00,30.719859,76.738637,NO2,11,68,27
India,Chandigarh,Chandigarh,"Sector-53, Chandigarh - CPCC",27-07-2024 07:00:00,30.719859,76.738637,SO2,2,13,5
India,Chandigarh,Chandigarh,"Sector-53, Chandigarh - CPCC",27-07-2024 07:00:00,30.719859,76.738637,CO,26,85,43
India,Chandigarh,Chandigarh,"Sector-53, Chandigarh - CPCC",27-07-2024 07:00:00,30.719859,76.738637,OZONE,14,48,25
India,Chhattisgarh,Bhilai,"32Bungalows, Bhilai - CECB",27-07-2024 07:00:00,21.194815,81.314770,PM2.5,13,99,27
India,Chhattisgarh,Bhilai,"32Bungalows, Bhilai - CECB",27-07-2024 07:00:00,21.194815,81.314770,CO,9,14,9
India,Chhattisgarh,Bhilai,"Civic Center, Bhilai - Bhilai Steel Plant",27-07-2024 07:00:00,21.185571,81.343175,NH3,3,4,4
India,Chhattisgarh,Bhilai,"Civic Center, Bhilai - Bhilai Steel Plant",27-07-2024 07:00:00,21.185571,81.343175,SO2,9,11,10
India,Chhattisgarh,Bilaspur,"Mangala, Bilaspur - NTPC",27-07-2024 07:00:00,22.08815,82.13737,PM2.5,NA,NA,NA
India,Chhattisgarh,Chhal,"Nawapara SECL Colony, Chhal - CECB",27-07-2024 07:00:00,22.118125,83.140608,NH3,2,2,2
India,Chhattisgarh,Chhal,"Nawapara SECL Colony, Chhal - CECB",27-07-2024 07:00:00,22.118125,83.140608,CO,24,62,37
India,Chhattisgarh,Korba,"Rampur, Korba - CECB",27-07-2024 07:00:00,22.368195,82.746431,PM10,15,39,24
India,Chhattisgarh,Korba,"Rampur, Korba - CECB",27-07-2024 07:00:00,22.368195,82.746431,CO,25,51,40
India,Chhattisgarh,Korba,"Rampur, Korba - CECB",27-07-2024 07:00:00,22.368195,82.746431,OZONE,4,14,4
India,Chhattisgarh,Raipur,"AIIMS, Raipur - CECB",27-07-2024 07:00:00,21.258815,81.578979,NH3,6,6,6
India,Chhattisgarh,Raipur,"AIIMS, Raipur - CECB",27-07-2024 07:00:00,21.258815,81.578979,SO2,2,7,3
India,Chhattisgarh,Raipur,"AIIMS, Raipur - CECB",27-07-2024 07:00:00,21.258815,81.578979,OZONE,1,5,1
India,Chhattisgarh,Raipur,"Bhatagaon New ISBT, Raipur - CECB",27-07-2024 07:00:00,21.219665,81.630094,PM2.5,9,26,16
India,Chhattisgarh,Raipur,"Bhatagaon New ISBT, Raipur - CECB",27-07-2024 07:00:00,21.219665,81.630094,SO2,4,6,6
India,Delhi,Delhi,"Alipur, Delhi - DPCC",27-07-2024 07:00:00,28.815329,77.153010,PM10,85,164,124
India,Delhi,Delhi,"Anand Vihar, Delhi - DPCC",27-07-2024 07:00:00,28.647622,77.3158090,PM10,33,157,101
India,Delhi,Delhi,"Anand Vihar, Delhi - DPCC",27-07-2024 07:00:00,28.647622,77.3158090,NH3,6,20,12
India,Delhi,Delhi,"Anand Vihar, Delhi - DPCC",27-07-2024 07:00:00,28.647622,77.3158090,OZONE,79,141,102
India,Delhi,Delhi,"Ashok Vihar, Delhi - DPCC",27-07-2024 07:00:00,28.695381,77.181665,OZONE,6,129,37
India,Delhi,Delhi,"Aya Nagar, Delhi - IMD",27-07-2024 07:00:00,28.4706914,77.1099364,PM10,42,155,88
India,Delhi,Delhi,"Aya Nagar, Delhi - IMD",27-07-2024 07:00:00,28.4706914,77.1099364,CO,25,66,59
India,Delhi,Delhi,"Aya Nagar, Delhi - IMD",27-07-2024 07:00:00,28.4706914,77.1099364,OZONE,13,48,26
India,Delhi,Delhi,"Bawana, Delhi - DPCC",27-07-2024 07:00:00,28.776200,77.051074,PM10,16,185,107
India,Delhi,Delhi,"Bawana, Delhi - DPCC",27-07-2024 07:00:00,28.776200,77.051074,NO2,8,44,21
India,Delhi,Delhi,"Burari Crossing, Delhi - IMD",27-07-2024 07:00:00,28.7256504,77.2011573,NO2,14,16,15
India,Delhi,Delhi,"Burari Crossing, Delhi - IMD",27-07-2024 07:00:00,28.7256504,77.2011573,CO,12,26,23
India,Delhi,Delhi,"CRRI Mathura Road, Delhi - IMD",27-07-2024 07:00:00,28.5512005,77.2735737,OZONE,6,155,13
India,Delhi,Delhi,"Chandni Chowk, Delhi - IITM",27-07-2024 07:00:00,28.656756,77.227234,OZONE,1,4,4
India,Delhi,Delhi,"DTU, Delhi - CPCB",27-07-2024 07:00:00,28.7500499,77.1112615,NO2,39,52,43
India,Delhi,Delhi,"DTU, Delhi - CPCB",27-07-2024 07:00:00,28.7500499,77.1112615,NH3,11,15,13
India,Delhi,Delhi,"DTU, Delhi - CPCB",27-07-2024 07:00:00,28.7500499,77.1112615,SO2,45,50,46
India,Delhi,Delhi,"Dr. Karni Singh Shooting Range, Delhi - DPCC",27-07-2024 07:00:00,28.498571,77.264840,PM2.5,20,340,140
India,Delhi,Delhi,"Dr. Karni Singh Shooting Range, Delhi - DPCC",27-07-2024 07:00:00,28.498571,77.264840,NO2,21,41,29
India,Delhi,Delhi,"Dr. Karni Singh Shooting Range, Delhi - DPCC",27-07-2024 07:00:00,28.498571,77.264840,OZONE,2,36,10
India,Delhi,Delhi,"Dwarka-Sector 8, Delhi - DPCC ",27-07-2024 07:00:00,28.5710274,77.0719006,SO2,9,13,10
India,Delhi,Delhi,"Dwarka-Sector 8, Delhi - DPCC ",27-07-2024 07:00:00,28.5710274,77.0719006,CO,43,124,64
India,Delhi,Delhi,"IGI Airport (T3), Delhi - IMD",27-07-2024 07:00:00,28.5627763,77.1180053,NO2,19,61,34
India,Delhi,Delhi,"IGI Airport (T3), Delhi - IMD",27-07-2024 07:00:00,28.5627763,77.1180053,CO,23,74,45
India,Delhi,Delhi,"IHBAS, Dilshad Garden, Delhi - CPCB",27-07-2024 07:00:00,28.6811736,77.3025234,SO2,5,60,18
India,Delhi,Delhi,"IHBAS, Dilshad Garden, Delhi - CPCB",27-07-2024 07:00:00,28.6811736,77.3025234,OZONE,15,17,15
India,Delhi,Delhi,"ITO, Delhi - CPCB",27-07-2024 07:00:00,28.628624,77.241060,NH3,3,50,21
India,Delhi,Delhi,"Jahangirpuri, Delhi - DPCC",27-07-2024 07:00:00,28.732820,77.170633,NH3,2,4,3
India,Delhi,Delhi,"Jahangirpuri, Delhi - DPCC",27-07-2024 07:00:00,28.732820,77.170633,CO,46,105,76
India,Delhi,Delhi,"Jawaharlal Nehru Stadium, Delhi - DPCC",27-07-2024 07:00:00,28.580280,77.233829,PM2.5,10,221,80
India,Delhi,Delhi,"Jawaharlal Nehru Stadium, Delhi - DPCC",27-07-2024 07:00:00,28.580280,77.233829,NH3,9,12,11
India,Delhi,Delhi,"Lodhi Road, Delhi - IMD",27-07-2024 07:00:00,28.5918245,77.2273074,OZONE,30,78,31
India,Delhi,Delhi,"Major Dhyan Chand National Stadium, Delhi - DPCC",27-07-2024 07:00:00,28.611281,77.237738,NO2,39,130,65
India,Delhi,Delhi,"Mandir Marg, Delhi - DPCC",27-07-2024 07:00:00,28.636429,77.201067,CO,2,100,65
India,Delhi,Delhi,"Nehru Nagar, Delhi - DPCC",27-07-2024 07:00:00,28.567890,77.250515,NO2,16,91,42
India,Delhi,Delhi,"North Campus, DU, Delhi - IMD",27-07-2024 07:00:00,28.6573814,77.1585447,NO2,5,13,8
India,Delhi,Delhi,"Patparganj, Delhi - DPCC",27-07-2024 07:00:00,28.623763,77.287209,NO2,20,67,35
India,Delhi,Delhi,"Punjabi Bagh, Delhi - DPCC",27-07-2024 07:00:00,28.674045,77.131023,SO2,NA,NA,NA
India,Delhi,Delhi,"Punjabi Bagh, Delhi - DPCC",27-07-2024 07:00:00,28.674045,77.131023,CO,26,70,40
India,Delhi,Delhi,"Pusa, Delhi - IMD",27-07-2024 07:00:00,28.636110,77.173332,PM10,1,153,93
India,Delhi,Delhi,"R K Puram, Delhi - DPCC",27-07-2024 07:00:00,28.563262,77.186937,NH3,4,14,7
India,Delhi,Delhi,"Rohini, Delhi - DPCC",27-07-2024 07:00:00,28.732528,77.119920,PM10,42,231,141
India,Delhi,Delhi,"Rohini, Delhi - DPCC",27-07-2024 07:00:00,28.732528,77.119920,NH3,10,23,18
India,Delhi,Delhi,"Rohini, Delhi - DPCC",27-07-2024 07:00:00,28.732528,77.119920,CO,41,105,69
India,Delhi,Delhi,"Sri Aurobindo Marg, Delhi - DPCC",27-07-2024 07:00:00,28.531346,77.190156,OZONE,27,49,41
India,Delhi,Delhi,"Vivek Vihar, Delhi - DPCC",27-07-2024 07:00:00,28.672342,77.315260,PM10,16,176,97
India,Delhi,Delhi,"Vivek Vihar, Delhi - DPCC",27-07-2024 07:00:00,28.672342,77.315260,NO2,18,50,31
India,Delhi,Delhi,"Vivek Vihar, Delhi - DPCC",27-07-2024 07:00:00,28.672342,77.315260,CO,48,96,61
India,Delhi,Delhi,"Wazirpur, Delhi - DPCC",27-07-2024 07:00:00,28.699793,77.165453,PM2.5,NA,NA,NA
India,Delhi,Delhi,"Wazirpur, Delhi - DPCC",27-07-2024 07:00:00,28.699793,77.165453,NO2,NA,NA,NA
India,Gujarat,Ahmedabad,"Chandkheda, Ahmedabad - IITM",27-07-2024 07:00:00,23.107969,72.574648,PM2.5,35,63,47
India,Gujarat,Ahmedabad,"Chandkheda, Ahmedabad - IITM",27-07-2024 07:00:00,23.107969,72.574648,NH3,6,9,8
India,Gujarat,Ahmedabad,"Gyaspur, Ahmedabad - IITM",27-07-2024 07:00:00,22.977134,72.553024,PM2.5,27,153,72
India,Gujarat,Ahmedabad,"Gyaspur, Ahmedabad - IITM",27-07-2024 07:00:00,22.977134,72.553024,NO2,2,21,7
India,Gujarat,Ahmedabad,"Raikhad, Ahmedabad - IITM",27-07-2024 07:00:00,23.020509,72.579261,NO2,13,46,26
India,Gujarat,Ahmedabad,"Rakhial, Ahmedabad - IITM",27-07-2024 07:00:00,23.016834,72.625775,PM10,67,120,91
India,Gujarat,Ahmedabad,"Rakhial, Ahmedabad - IITM",27-07-2024 07:00:00,23.016834,72.625775,NO2,4,39,14
India,Gujarat,Ahmedabad,"SVPI Airport Hansol, Ahmedabad - IITM",27-07-2024 07:00:00,23.076793,72.627874,PM10,51,125,79
India,Gujarat,Ahmedabad,"SVPI Airport Hansol, Ahmedabad - IITM",27-07-2024 07:00:00,23.076793,72.627874,NO2,38,68,57
India,Gujarat,Ahmedabad,"Sardar Vallabhbhai Patel Stadium, Ahmedabad - IITM",27-07-2024 07:00:00,23.043070,72.562968,CO,13,64,20
India,Gujarat,Ahmedabad,"Sardar Vallabhbhai Patel Stadium, Ahmedabad - IITM",27-07-2024 07:00:00,23.043070,72.562968,OZONE,11,41,13
India,Gujarat,Gandhinagar,"GIFT City, Gandhinagar - IITM",27-07-2024 07:00:00,23.163798,72.677768,NO2,1,178,21
India,Gujarat,Vapi,"Phase-1 GIDC, Vapi - GPCB",27-07-2024 07:00:00,20.362421,72.918013,PM10,40,80,57
India,Gujarat,Vatva,"Phase-4 GIDC, Vatva - GPCB",27-07-2024 07:00:00,22.969611,72.643500,PM2.5,47,105,62
India,Gujarat,Vatva,"Phase-4 GIDC, Vatva - GPCB",27-07-2024 07:00:00,22.969611,72.643500,OZONE,4,27,19
India,Haryana,Ambala,"Patti Mehar, Ambala - HSPCB",27-07-2024 07:00:00,30.379589,76.778328,PM2.5,30,132,56
India,Haryana,Ambala,"Patti Mehar, Ambala - HSPCB",27-07-2024 07:00:00,30.379589,76.778328,NH3,5,12,8
India,Haryana,Ambala,"Patti Mehar, Ambala - HSPCB",27-07-2024 07:00:00,30.379589,76.778328,CO,30,61,38
India,Haryana,Bahadurgarh,"Arya Nagar, Bahadurgarh - HSPCB",27-07-2024 07:00:00,28.6701,76.9254,PM10,50,145,85
India,Haryana,Bahadurgarh,"Arya Nagar, Bahadurgarh - HSPCB",27-07-2024 07:00:00,28.6701,76.9254,NO2,19,25,22
India,Haryana,Bahadurgarh,"Arya Nagar, Bahadurgarh - HSPCB",27-07-2024 07:00:00,28.6701,76.9254,NH3,8,10,9
India,Haryana,Ballabgarh,"Nathu Colony, Ballabgarh - HSPCB",27-07-2024 07:00:00,28.3419248,77.319699,NH3,1,3,2
India,Haryana,Bhiwani,"H.B. Colony, Bhiwani - HSPCB",27-07-2024 07:00:00,28.806223,76.141105,NO2,4,15,7
India,Haryana,Bhiwani,"H.B. Colony, Bhiwani - HSPCB",27-07-2024 07:00:00,28.806223,76.141105,NH3,6,6,6
India,Haryana,Bhiwani,"H.B. Colony, Bhiwani - HSPCB",27-07-2024 07:00:00,28.806223,76.141105,SO2,7,15,10
India,Haryana,Bhiwani,"H.B. Colony, Bhiwani - HSPCB",27-07-2024 07:00:00,28.806223,76.141105,CO,37,62,56
India,Haryana,Dharuhera,"Municipal Corporation Office, Dharuhera -  HSPCB",27-07-2024 07:00:00,28.206800,76.799700,CO,30,68,49
India,Haryana,Dharuhera,"Municipal Corporation Office, Dharuhera -  HSPCB",27-07-2024 07:00:00,28.206800,76.799700,OZONE,29,44,39
India,Haryana,Faridabad,"New Industrial Town, Faridabad - HSPCB",27-07-2024 07:00:00,28.39072,77.30059,PM2.5,NA,NA,NA
India,Haryana,Faridabad,"New Industrial Town, Faridabad - HSPCB",27-07-2024 07:00:00,28.39072,77.30059,NO2,NA,NA,NA
India,Haryana,Faridabad,"New Industrial Town, Faridabad - HSPCB",27-07-2024 07:00:00,28.39072,77.30059,SO2,NA,NA,NA
India,Haryana,Faridabad,"Sector 11, Faridabad - HSPCB",27-07-2024 07:00:00,28.376058,77.315741,NO2,NA,NA,NA
India,Haryana,Faridabad,"Sector 30, Faridabad - HSPCB",27-07-2024 07:00:00,28.4417,77.3217,PM2.5,66,243,108
India,Haryana,Faridabad,"Sector 30, Faridabad - HSPCB",27-07-2024 07:00:00,28.4417,77.3217,PM10,80,168,108
India,Haryana,Faridabad,"Sector- 16A, Faridabad - HSPCB",27-07-2024 07:00:00,28.4088421,77.3099081,SO2,19,40,27
India,Haryana,Fatehabad,"Huda Sector, Fatehabad - HSPCB",27-07-2024 07:00:00,29.503664,75.467934,PM10,31,86,59
India,Haryana,Fatehabad,"Huda Sector, Fatehabad - HSPCB",27-07-2024 07:00:00,29.503664,75.467934,SO2,5,37,22
India,Haryana,Gurugram,"Sector-51, Gurugram - HSPCB",27-07-2024 07:00:00,28.4227,77.0667,NO2,13,29,23
India,Haryana,Gurugram,"Teri Gram, Gurugram - HSPCB",27-07-2024 07:00:00,28.4275,77.1465,NH3,9,15,14
India,Haryana,Gurugram,"Teri Gram, Gurugram - HSPCB",27-07-2024 07:00:00,28.4275,77.1465,CO,10,88,67
India,Haryana,Gurugram,"Vikas Sadan, Gurugram - HSPCB",27-07-2024 07:00:00,28.4501238,77.0263051,NO2,5,26,14
India,Haryana,Gurugram,"Vikas Sadan, Gurugram - HSPCB",27-07-2024 07:00:00,28.4501238,77.0263051,SO2,9,38,26
India,Haryana,Hisar,"Urban Estate-II, Hisar - HSPCB",27-07-2024 07:00:00,29.140560,75.744941,NO2,NA,NA,NA
India,Haryana,Hisar,"Urban Estate-II, Hisar - HSPCB",27-07-2024 07:00:00,29.140560,75.744941,SO2,NA,NA,NA
India,Haryana,Kaithal,"Rishi Nagar, Kaithal - HSPCB",27-07-2024 07:00:00,29.8006,76.4155,NH3,8,13,12
India,Haryana,Karnal,"Sector-12, Karnal - HSPCB",27-07-2024 07:00:00,29.695300,77.002700,SO2,12,13,12
India,Haryana,Kurukshetra,"Sector-7, Kurukshetra - HSPCB",27-07-2024 07:00:00,29.966942,76.875879,SO2,2,49,15
India,Haryana,Mandikhera,"General Hospital, Mandikhera - HSPCB",27-07-2024 07:00:00,27.9002,76.9938,PM10,NA,NA,NA
India,Haryana,Mandikhera,"General Hospital, Mandikhera - HSPCB",27-07-2024 07:00:00,27.9002,76.9938,CO,NA,NA,NA
India,Haryana,Manesar,"Sector-2 IMT, Manesar - HSPCB",27-07-2024 07:00:00,28.360699,76.936090,PM2.5,27,168,68
India,Haryana,Narnaul,"Shastri Nagar, Narnaul - HSPCB",27-07-2024 07:00:00,28.060249,76.113115,NO2,15,32,25
India,Haryana,Narnaul,"Shastri Nagar, Narnaul - HSPCB",27-07-2024 07:00:00,28.060249,76.113115,SO2,5,11,6
India,Haryana,Palwal,"Shyam Nagar, Palwal - HSPCB",27-07-2024 07:00:00,28.1485564,77.3320667,PM2.5,22,39,27
India,Haryana,Palwal,"Shyam Nagar, Palwal - HSPCB",27-07-2024 07:00:00,28.1485564,77.3320667,NO2,23,24,24
India,Haryana,Panchkula,"Sector-6, Panchkula - HSPCB ",27-07-2024 07:00:00,30.7057778,76.8531805555555,PM2.5,12,99,60
India,Haryana,Panipat,"Sector-18, Panipat - HSPCB",27-07-2024 07:00:00,29.432304,76.972765,SO2,18,19,19
India,Haryana,Rohtak,"MD University, Rohtak - HSPCB",27-07-2024 07:00:00,28.52123,76.37138,PM2.5,9,262,92
India,Haryana,Rohtak,"MD University, Rohtak - HSPCB",27-07-2024 07:00:00,28.52123,76.37138,CO,39,46,43
India,Haryana,Rohtak,"MD University, Rohtak - HSPCB",27-07-2024 07:00:00,28.52123,76.37138,OZONE,44,54,49
India,Haryana,Sirsa,"F-Block, Sirsa - HSPCB",27-07-2024 07:00:00,29.536400,75.015800,SO2,11,19,15
India,Haryana,Sonipat,"Murthal, Sonipat - HSPCB",27-07-2024 07:00:00,29.027200,77.062100,NH3,7,10,9
India,Himachal Pradesh,Baddi,"HIMUDA Complex Phase-1, Baddi - HPPCB",27-07-2024 07:00:00,30.943887,76.801991,SO2,6,44,20
India,Himachal Pradesh,Baddi,"HIMUDA Complex Phase-1, Baddi - HPPCB",27-07-2024 07:00:00,30.943887,76.801991,OZONE,10,95,27
India,Jammu_and_Kashmir,Srinagar,"Rajbagh, Srinagar - JKSPCB",27-07-2024 07:00:00,34.066206,74.819820,OZONE,12,19,13
India,Jharkhand,Jorapokhar,"Tata Stadium, Jorapokhar - JSPCB",27-07-2024 07:00:00,23.707909,86.414670,PM10,NA,NA,NA
India,Jharkhand,Pathardih,"Mohalbani Ghat, Pathardih - DMC",27-07-2024 07:00:00,23.669880,86.411725,NO2,NA,NA,NA
India,Karnataka,Bagalkot,"Vidayagiri, Bagalkot - KSPCB",27-07-2024 07:00:00,16.172806,75.659694,SO2,4,4,4
India,Karnataka,Bagalkot,"Vidayagiri, Bagalkot - KSPCB",27-07-2024 07:00:00,16.172806,75.659694,CO,24,54,35
India,Karnataka,Bengaluru,"Bapuji Nagar, Bengaluru - KSPCB",27-07-2024 07:00:00,12.951913,77.539784,PM10,18,127,60
India,Karnataka,Bengaluru,"Bapuji Nagar, Bengaluru - KSPCB",27-07-2024 07:00:00,12.951913,77.539784,CO,20,26,23
India,Karnataka,Bengaluru,"City Railway Station, Bengaluru - KSPCB",27-07-2024 07:00:00,12.9756843,77.5660749,NO2,24,26,25
India,Karnataka,Bengaluru,"City Railway Station, Bengaluru - KSPCB",27-07-2024 07:00:00,12.9756843,77.5660749,SO2,21,21,21
India,Karnataka,Bengaluru,"Hebbal, Bengaluru - KSPCB",27-07-2024 07:00:00,13.029152,77.585901,PM2.5,2,33,19
India,Karnataka,Bengaluru,"Hebbal, Bengaluru - KSPCB",27-07-2024 07:00:00,13.029152,77.585901,PM10,14,44,26
India,Karnataka,Bengaluru,"Hebbal, Bengaluru - KSPCB",27-07-2024 07:00:00,13.029152,77.585901,NO2,4,6,5
India,Karnataka,Bengaluru,"Hombegowda Nagar, Bengaluru - KSPCB",27-07-2024 07:00:00,12.938539,77.590100,PM10,6,23,14
India,Karnataka,Bengaluru,"Jayanagar 5th Block, Bengaluru - KSPCB",27-07-2024 07:00:00,12.920984,77.584908,OZONE,26,28,27
India,Karnataka,Bengaluru,"Jigani, Bengaluru - KSPCB",27-07-2024 07:00:00,12.7816279,77.6299145,NO2,30,36,33
India,Karnataka,Bengaluru,"Kasturi Nagar, Bengaluru - KSPCB",27-07-2024 07:00:00,13.003872,77.664217,SO2,19,20,20
India,Karnataka,Bengaluru,"Kasturi Nagar, Bengaluru - KSPCB",27-07-2024 07:00:00,13.003872,77.664217,OZONE,4,8,5
India,Karnataka,Bengaluru,"Peenya, Bengaluru - CPCB",27-07-2024 07:00:00,13.0270199,77.494094,PM2.5,47,47,47
India,Karnataka,Bengaluru,"RVCE-Mailasandra, Bengaluru - KSPCB",27-07-2024 07:00:00,12.921418,77.502466,PM10,45,75,57
India,Karnataka,Bengaluru,"Sanegurava Halli, Bengaluru - KSPCB",27-07-2024 07:00:00,12.990328,77.5431385,PM10,35,55,40
India,Karnataka,Bengaluru,"Sanegurava Halli, Bengaluru - KSPCB",27-07-2024 07:00:00,12.990328,77.5431385,CO,12,26,17
India,Karnataka,Bengaluru,"Shivapura_Peenya, Bengaluru - KSPCB",27-07-2024 07:00:00,13.0246342,77.5080115,CO,17,28,21
India,Karnataka,Bengaluru,"Silk Board, Bengaluru - KSPCB",27-07-2024 07:00:00,12.917348,77.622813,NH3,1,1,1
India,Karnataka,Bidar,"Naubad, Bidar - KSPCB",27-07-2024 07:00:00,17.930306,77.482194,PM10,11,35,24
India,Karnataka,Bidar,"Naubad, Bidar - KSPCB",27-07-2024 07:00:00,17.930306,77.482194,NO2,6,7,6
India,Karnataka,Bidar,"Naubad, Bidar - KSPCB",27-07-2024 07:00:00,17.930306,77.482194,NH3,3,3,3
India,Karnataka,Bidar,"Naubad, Bidar - KSPCB",27-07-2024 07:00:00,17.930306,77.482194,SO2,19,26,22
India,Karnataka,Chamarajanagar,"Urban, Chamarajanagar - KSPCB",27-07-2024 07:00:00,11.55358,76.55521,NO2,23,36,29
India,Karnataka,Chamarajanagar,"Urban, Chamarajanagar - KSPCB",27-07-2024 07:00:00,11.55358,76.55521,OZONE,16,33,26
India,Karnataka,Chikkamagaluru,"Kalyana Nagara, Chikkamagaluru - KSPCB",27-07-2024 07:00:00,13.328028,75.797056,PM2.5,NA,NA,NA
India,Karnataka,Davanagere,"Devaraj Urs Badavane, Davanagere - KSPCB",27-07-2024 07:00:00,14.475800,75.905200,NO2,7,9,8
India,Karnataka,Davanagere,"Devaraj Urs Badavane, Davanagere - KSPCB",27-07-2024 07:00:00,14.475800,75.905200,OZONE,19,39,23
India,Karnataka,Dharwad,"Kalabhavan, Dharwad - KSPCB",27-07-2024 07:00:00,15.459706,75.008381,PM2.5,NA,NA,NA
India,Karnataka,Dharwad,"Kalabhavan, Dharwad - KSPCB",27-07-2024 07:00:00,15.459706,75.008381,NO2,5,14,10
India,Karnataka,Dharwad,"Kalabhavan, Dharwad - KSPCB",27-07-2024 07:00:00,15.459706,75.008381,CO,6,37,11
India,Karnataka,Dharwad,"Kalabhavan, Dharwad - KSPCB",27-07-2024 07:00:00,15.459706,75.008381,OZONE,9,24,11
India,Karnataka,Gadag,"Panchal Nagar, Gadag - KSPCB",27-07-2024 07:00:00,15.411456,75.638133,PM10,25,275,43
India,Karnataka,Gadag,"Panchal Nagar, Gadag - KSPCB",27-07-2024 07:00:00,15.411456,75.638133,OZONE,11,15,12
India,Karnataka,Hassan,"B.Katihalli, Hassan - KSPCB",27-07-2024 07:00:00,13.008556,76.125258,NO2,3,29,17
India,Karnataka,Hassan,"B.Katihalli, Hassan - KSPCB",27-07-2024 07:00:00,13.008556,76.125258,OZONE,4,16,11
India,Karnataka,Hubballi,"Lingaraj Nagar, Hubballi - KSPCB",27-07-2024 07:00:00,15.3714823,75.1160168,PM2.5,17,46,27
India,Karnataka,Hubballi,"Lingaraj Nagar, Hubballi - KSPCB",27-07-2024 07:00:00,15.3714823,75.1160168,PM10,28,45,38
India,Karnataka,Hubballi,"Lingaraj Nagar, Hubballi - KSPCB",27-07-2024 07:00:00,15.3714823,75.1160168,NH3,2,3,2
India,Karnataka,Hubballi,"Lingaraj Nagar, Hubballi - KSPCB",27-07-2024 07:00:00,15.3714823,75.1160168,SO2,1,2,1
India,Karnataka,Kalaburagi,"Lal Bahadur Shastri Nagar, Kalaburagi - KSPCB",27-07-2024 07:00:00,17.321993,76.822628,PM2.5,23,57,34
India,Karnataka,Kalaburagi,"Lal Bahadur Shastri Nagar, Kalaburagi - KSPCB",27-07-2024 07:00:00,17.321993,76.822628,NO2,10,12,11
India,Karnataka,Kalaburagi,"Lal Bahadur Shastri Nagar, Kalaburagi - KSPCB",27-07-2024 07:00:00,17.321993,76.822628,SO2,NA,NA,NA
India,Karnataka,Kalaburagi,"Lal Bahadur Shastri Nagar, Kalaburagi - KSPCB",27-07-2024 07:00:00,17.321993,76.822628,OZONE,3,13,4
India,Karnataka,Kalaburagi,"Mahatma Basaveswar Colony, Kalaburgi - KSPCB",27-07-2024 07:00:00,17.336318,76.847397,PM2.5,14,24,19
India,Karnataka,Karwar,"KHB Colony, Karwar - KSPCB",27-07-2024 07:00:00,14.816666,74.141003,NO2,NA,NA,NA
India,Karnataka,Karwar,"KHB Colony, Karwar - KSPCB",27-07-2024 07:00:00,14.816666,74.141003,CO,NA,NA,NA
India,Karnataka,Kolar,"Tamaka Ind. Area, Kolar - KSPCB",27-07-2024 07:00:00,13.1276288,78.1570122,PM2.5,NA,NA,NA
India,Karnataka,Kolar,"Tamaka Ind. Area, Kolar - KSPCB",27-07-2024 07:00:00,13.1276288,78.1570122,SO2,70,84,71
India,Karnataka,Koppal,"Diwator Nagar, Koppal - KSPCB",27-07-2024 07:00:00,15.347630,76.181767,NH3,7,9,8
India,Karnataka,Madikeri,"Stuart Hill, Madikeri - KSPCB",27-07-2024 07:00:00,12.415911,75.735050,SO2,4,4,4
India,Karnataka,Mysuru,"Hebbal 1st Stage, Mysuru - KSPCB",27-07-2024 07:00:00,12.21041,76.37376,PM2.5,11,32,22
India,Karnataka,Mysuru,"Hebbal 1st Stage, Mysuru - KSPCB",27-07-2024 07:00:00,12.21041,76.37376,NO2,13,35,23
India,Karnataka,Raichur,"Haji Colony, Raichur - KSPCB",27-07-2024 07:00:00,16.208139,77.348417,PM10,NA,NA,NA
India,Karnataka,Ramanagara,"Vijay Nagar, Ramanagara - KSPCB",27-07-2024 07:00:00,12.733409,77.298051,OZONE,26,30,29
India,Karnataka,Shivamogga,"Vinoba Nagara, Shivamogga - KSPCB",27-07-2024 07:00:00,13.940000,75.555917,PM2.5,18,39,29
India,Karnataka,Shivamogga,"Vinoba Nagara, Shivamogga - KSPCB",27-07-2024 07:00:00,13.940000,75.555917,PM10,31,65,42
India,Karnataka,Tumakuru,"Thimmalapura, Tumakuru - KSPCB",27-07-2024 07:00:00,13.377516,77.099072,NO2,17,18,17
India,Karnataka,Udupi,"Brahmagiri, Udupi - KSPCB",27-07-2024 07:00:00,13.34194444,74.74694444,SO2,13,25,19
India,Karnataka,Udupi,"Brahmagiri, Udupi - KSPCB",27-07-2024 07:00:00,13.34194444,74.74694444,OZONE,20,24,24
India,Karnataka,Vijayapura,"Ibrahimpur, Vijayapura - KSPCB",27-07-2024 07:00:00,16.802639,75.722694,CO,25,25,25
India,Karnataka,Yadgir,"Collector Office, Yadgir - KSPCB",27-07-2024 07:00:00,16.7602,77.1428,PM2.5,2,29,18
India,Karnataka,Yadgir,"Collector Office, Yadgir - KSPCB",27-07-2024 07:00:00,16.7602,77.1428,PM10,14,65,32
India,Kerala,Eloor,"Udyogamandal, Eloor - Kerala PCB",27-07-2024 07:00:00,10.073232,76.302765,OZONE,10,12,10
India,Kerala,Kollam,"Polayathode, Kollam - Kerala PCB",27-07-2024 07:00:00,8.8787,76.6073,PM2.5,NA,NA,NA
India,Kerala,Kollam,"Polayathode, Kollam - Kerala PCB",27-07-2024 07:00:00,8.8787,76.6073,SO2,NA,NA,NA
India,Kerala,Thiruvananthapuram,"Kariavattom, Thiruvananthapuram - Kerala PCB",27-07-2024 07:00:00,8.563700,76.886500,PM10,54,62,58
India,Kerala,Thiruvananthapuram,"Kariavattom, Thiruvananthapuram - Kerala PCB",27-07-2024 07:00:00,8.563700,76.886500,NO2,6,7,6
India,Kerala,Thiruvananthapuram,"Plammoodu, Thiruvananthapuram - Kerala PCB",27-07-2024 07:00:00,8.5149093,76.9435879,PM10,16,31,18
India,Kerala,Thiruvananthapuram,"Plammoodu, Thiruvananthapuram - Kerala PCB",27-07-2024 07:00:00,8.5149093,76.9435879,SO2,4,14,8
India,Madhya Pradesh,Bhopal,"Idgah Hills, Bhopal - MPPCB",27-07-2024 07:00:00,23.264759,77.381568,NO2,6,23,14
India,Madhya Pradesh,Bhopal,"Idgah Hills, Bhopal - MPPCB",27-07-2024 07:00:00,23.264759,77.381568,SO2,8,11,9
India,Madhya Pradesh,Bhopal,"Idgah Hills, Bhopal - MPPCB",27-07-2024 07:00:00,23.264759,77.381568,CO,4,36,9
India,Madhya Pradesh,Bhopal,"Paryavaran Parisar, Bhopal - MPPCB",27-07-2024 07:00:00,23.210494,77.425409,CO,6,25,16
India,Madhya Pradesh,Bhopal,"T T Nagar, Bhopal - MPPCB",27-07-2024 07:00:00,23.233584,77.400574,NO2,14,22,18
India,Madhya Pradesh,Bhopal,"T T Nagar, Bhopal - MPPCB",27-07-2024 07:00:00,23.233584,77.400574,SO2,2,29,14
India,Madhya Pradesh,Damoh,"Shrivastav Colony, Damoh - MPPCB",27-07-2024 07:00:00,23.81748678,79.446246,PM2.5,5,38,17
India,Madhya Pradesh,Damoh,"Shrivastav Colony, Damoh - MPPCB",27-07-2024 07:00:00,23.81748678,79.446246,PM10,5,30,16
India,Madhya Pradesh,Damoh,"Shrivastav Colony, Damoh - MPPCB",27-07-2024 07:00:00,23.81748678,79.446246,SO2,41,41,41
India,Madhya Pradesh,Dewas,"Bhopal Chauraha, Dewas - MPPCB",27-07-2024 07:00:00,22.9682591,76.064118,PM2.5,21,50,36
India,Madhya Pradesh,Dewas,"Bhopal Chauraha, Dewas - MPPCB",27-07-2024 07:00:00,22.9682591,76.064118,PM10,34,68,51
India,Madhya Pradesh,Gwalior,"City Center, Gwalior - MPPCB",27-07-2024 07:00:00,26.203442,78.193251,SO2,12,32,23
India,Madhya Pradesh,Gwalior,"Deen Dayal Nagar, Gwalior - MPPCB",27-07-2024 07:00:00,26.259242,78.216432,PM2.5,2,39,18
India,Madhya Pradesh,Gwalior,"Deen Dayal Nagar, Gwalior - MPPCB",27-07-2024 07:00:00,26.259242,78.216432,NH3,3,4,3
India,Madhya Pradesh,Gwalior,"Maharaj Bada, Gwalior - MPPCB",27-07-2024 07:00:00,26.200388,78.147714,PM10,39,196,97
India,Madhya Pradesh,Gwalior,"Maharaj Bada, Gwalior - MPPCB",27-07-2024 07:00:00,26.200388,78.147714,CO,15,103,32
India,Madhya Pradesh,Indore,"Chhoti Gwaltoli, Indore - MPPCB",27-07-2024 07:00:00,22.4310,75.5213,PM2.5,5,54,40
India,Madhya Pradesh,Indore,"Chhoti Gwaltoli, Indore - MPPCB",27-07-2024 07:00:00,22.4310,75.5213,SO2,12,14,12
India,Madhya Pradesh,Indore,"Maguda Nagar, Indore - IMC",27-07-2024 07:00:00,22.7524,75.8872,PM10,NA,NA,NA
India,Madhya Pradesh,Indore,"Maguda Nagar, Indore - IMC",27-07-2024 07:00:00,22.7524,75.8872,NH3,NA,NA,NA
India,Madhya Pradesh,Indore,"Maguda Nagar, Indore - IMC",27-07-2024 07:00:00,22.7524,75.8872,SO2,NA,NA,NA
India,Madhya Pradesh,Indore,"Maguda Nagar, Indore - IMC",27-07-2024 07:00:00,22.7524,75.8872,OZONE,NA,NA,NA
India,Madhya Pradesh,Indore,"Regional Park, Indore - IMC",27-07-2024 07:00:00,22.6780,75.8559,SO2,41,41,41
India,Madhya Pradesh,Indore,"Residency Area, Indore - IMC",27-07-2024 07:00:00,22.7084,75.8815,PM10,13,49,31
India,Madhya Pradesh,Indore,"Residency Area, Indore - IMC",27-07-2024 07:00:00,22.7084,75.8815,NO2,18,30,24
India,Madhya Pradesh,Indore,"Residency Area, Indore - IMC",27-07-2024 07:00:00,22.7084,75.8815,SO2,25,26,25
India,Madhya Pradesh,Jabalpur,"Marhatal, Jabalpur - MPPCB",27-07-2024 07:00:00,23.168606,79.932247,PM2.5,13,31,21
India,Madhya Pradesh,Jabalpur,"Marhatal, Jabalpur - MPPCB",27-07-2024 07:00:00,23.168606,79.932247,OZONE,5,24,14
India,Madhya Pradesh,Jabalpur,"Suhagi, Jabalpur - JMC",27-07-2024 07:00:00,23.218135,79.957770,PM10,16,25,19
India,Madhya Pradesh,Jabalpur,"Suhagi, Jabalpur - JMC",27-07-2024 07:00:00,23.218135,79.957770,NH3,2,3,2
India,Madhya Pradesh,Jabalpur,"Suhagi, Jabalpur - JMC",27-07-2024 07:00:00,23.218135,79.957770,OZONE,5,17,8
India,Madhya Pradesh,Katni,"Gole Bazar, Katni - MPPCB",27-07-2024 07:00:00,23.50016,80.23284,PM2.5,20,51,34
India,Madhya Pradesh,Pithampur,"Sector-2 Industrial Area, Pithampur - MPPCB",27-07-2024 07:00:00,22.624758,75.675238,PM10,31,100,61
India,Madhya Pradesh,Sagar,"Civil Lines, Sagar - MPPCB",27-07-2024 07:00:00,23.838586,78.759431,PM2.5,NA,NA,NA
India,Madhya Pradesh,Ujjain,"Mahakaleshwar Temple, Ujjain - MPPCB",27-07-2024 07:00:00,23.182719 ,75.768218 ,SO2,2,5,4
India,Maharashtra,Ahmednagar,"Tarakpur, Ahmednagar - MPCB",27-07-2024 07:00:00,19.10122,74.73339,OZONE,27,54,29
India,Maharashtra,Akola,"Ramdaspeth, Akola - MPCB",27-07-2024 07:00:00,20.719516,77.000253,PM2.5,15,48,27
India,Maharashtra,Akola,"Ramdaspeth, Akola - MPCB",27-07-2024 07:00:00,20.719516,77.000253,SO2,12,24,16
India,Maharashtra,Amravati,"Shivneri Colony, Amravati - MPCB",27-07-2024 07:00:00,20.9402359,77.7895248,PM2.5,16,38,25
India,Maharashtra,Amravati,"Shivneri Colony, Amravati - MPCB",27-07-2024 07:00:00,20.9402359,77.7895248,NO2,4,19,10
India,Maharashtra,Amravati,"Shivneri Colony, Amravati - MPCB",27-07-2024 07:00:00,20.9402359,77.7895248,NH3,2,3,2
India,Maharashtra,Aurangabad,"MIDC Chilkalthana, Aurangabad - MPCB",27-07-2024 07:00:00,19.875620,75.387310,CO,12,32,15
India,Maharashtra,Aurangabad,"More Chowk Waluj, Aurangabad - MPCB",27-07-2024 07:00:00,19.8389439,75.244448,NO2,12,53,20
India,Maharashtra,Aurangabad,"More Chowk Waluj, Aurangabad - MPCB",27-07-2024 07:00:00,19.8389439,75.244448,NH3,1,7,2
India,Maharashtra,Badlapur,"Katrap, Badlapur - MPCB",27-07-2024 07:00:00,19.16485,73.23409,PM2.5,NA,NA,NA
India,Maharashtra,Badlapur,"Katrap, Badlapur - MPCB",27-07-2024 07:00:00,19.16485,73.23409,PM10,NA,NA,NA
India,Maharashtra,Badlapur,"Katrap, Badlapur - MPCB",27-07-2024 07:00:00,19.16485,73.23409,NO2,NA,NA,NA
India,Maharashtra,Belapur,"CBD Belapur, Belapur - MPCB",27-07-2024 07:00:00,19.0243902,73.0406721,PM2.5,23,47,36
India,Maharashtra,Belapur,"CBD Belapur, Belapur - MPCB",27-07-2024 07:00:00,19.0243902,73.0406721,NO2,39,60,45
India,Maharashtra,Belapur,"CBD Belapur, Belapur - MPCB",27-07-2024 07:00:00,19.0243902,73.0406721,OZONE,11,17,14
India,Maharashtra,Bhiwandi,"Gokul Nagar, Bhiwandi - MPCB",27-07-2024 07:00:00,19.309073,73.057223,CO,7,22,12
India,Maharashtra,Boisar,"Khaira, Boisar - MPCB",27-07-2024 07:00:00,19.786089,72.757971,PM2.5,30,55,44
India,Maharashtra,Boisar,"Khaira, Boisar - MPCB",27-07-2024 07:00:00,19.786089,72.757971,SO2,5,14,8
India,Maharashtra,Chandrapur,"Chauhan Colony, Chandrapur - MPCB",27-07-2024 07:00:00,19.962900,79.298714,NO2,14,24,18
India,Maharashtra,Chandrapur,"MIDC Khutala, Chandrapur - MPCB",27-07-2024 07:00:00,19.9775302,79.2337086,PM2.5,7,46,20
India,Maharashtra,Chandrapur,"MIDC Khutala, Chandrapur - MPCB",27-07-2024 07:00:00,19.9775302,79.2337086,PM10,NA,NA,NA
India,Maharashtra,Chandrapur,"MIDC Khutala, Chandrapur - MPCB",27-07-2024 07:00:00,19.9775302,79.2337086,NH3,NA,NA,NA
India,Maharashtra,Chandrapur,"MIDC Khutala, Chandrapur - MPCB",27-07-2024 07:00:00,19.9775302,79.2337086,CO,10,28,20
India,Maharashtra,Dhule,"Deopur, Dhule - MPCB",27-07-2024 07:00:00,20.918946,74.776388,SO2,1,1,1
India,Maharashtra,Dhule,"Deopur, Dhule - MPCB",27-07-2024 07:00:00,20.918946,74.776388,CO,22,32,24
India,Maharashtra,Jalgaon,"Prabhat Colony, Jalgaon - MPCB",27-07-2024 07:00:00,21.001264,75.565602,PM10,24,75,50
India,Maharashtra,Kalyan,"Khadakpada, Kalyan - MPCB",27-07-2024 07:00:00,19.25292,73.142019,PM2.5,9,19,13
India,Maharashtra,Kalyan,"Khadakpada, Kalyan - MPCB",27-07-2024 07:00:00,19.25292,73.142019,NO2,9,17,13
India,Maharashtra,Kolhapur,"Sinchan Bhavan, Kolhapur - MPCB",27-07-2024 07:00:00,16.7143745,74.2426398,PM2.5,9,42,24
India,Maharashtra,Latur,"Sawe Wadi, Latur - MPCB",27-07-2024 07:00:00,18.39963,76.57452,PM10,23,69,47
India,Maharashtra,Latur,"Sawe Wadi, Latur - MPCB",27-07-2024 07:00:00,18.39963,76.57452,OZONE,16,38,18
India,Maharashtra,Mahad,"Kamble Tarf Birwadi, Mahad - MPCB",27-07-2024 07:00:00,18.1023399,73.4783687,CO,8,30,21
India,Maharashtra,Mahad,"Kamble Tarf Birwadi, Mahad - MPCB",27-07-2024 07:00:00,18.1023399,73.4783687,OZONE,11,20,19
India,Maharashtra,Mira-Bhayandar,"Bhayandar West, Mira-Bhayandar - MPCB",27-07-2024 07:00:00,19.296481,72.840923,PM2.5,21,40,31
India,Maharashtra,Mumbai,"Bandra Kurla Complex, Mumbai - MPCB",27-07-2024 07:00:00,19.065931,72.862131,NO2,3,11,7
India,Maharashtra,Mumbai,"Bandra Kurla Complex, Mumbai - MPCB",27-07-2024 07:00:00,19.065931,72.862131,SO2,2,4,3
India,Maharashtra,Mumbai,"Borivali East, Mumbai - IITM",27-07-2024 07:00:00,19.23241,72.86895,PM10,36,62,54
India,Maharashtra,Mumbai,"Borivali East, Mumbai - MPCB",27-07-2024 07:00:00,19.2243333,72.8658113,SO2,NA,NA,NA
India,Maharashtra,Mumbai,"Byculla, Mumbai - BMC",27-07-2024 07:00:00,18.9767,72.8380,PM10,19,29,26
India,Maharashtra,Mumbai,"Chhatrapati Shivaji Intl. Airport (T2), Mumbai - MPCB",27-07-2024 07:00:00,19.10078,72.87462,NH3,1,1,1
India,Maharashtra,Mumbai,"Chhatrapati Shivaji Intl. Airport (T2), Mumbai - MPCB",27-07-2024 07:00:00,19.10078,72.87462,CO,8,18,10
India,Maharashtra,Mumbai,"Chhatrapati Shivaji Intl. Airport (T2), Mumbai - MPCB",27-07-2024 07:00:00,19.10078,72.87462,OZONE,8,9,8
India,Maharashtra,Mumbai,"Colaba, Mumbai - MPCB",27-07-2024 07:00:00,18.910000,72.820000,NO2,20,21,20
India,Maharashtra,Mumbai,"Kandivali East, Mumbai - MPCB",27-07-2024 07:00:00,19.205800,72.868200,PM10,NA,NA,NA
India,Maharashtra,Mumbai,"Kandivali West, Mumbai - BMC",27-07-2024 07:00:00,19.215859,72.831718,PM10,22,44,32
India,Maharashtra,Mumbai,"Kherwadi_Bandra East, Mumbai - MPCB",27-07-2024 07:00:00,19.0632143,72.8456324,NO2,4,10,7
India,Maharashtra,Mumbai,"Kherwadi_Bandra East, Mumbai - MPCB",27-07-2024 07:00:00,19.0632143,72.8456324,OZONE,14,32,21
India,Maharashtra,Mumbai,"Khindipada-Bhandup West, Mumbai - IITM",27-07-2024 07:00:00,19.1653323,72.922099,NH3,1,1,1
India,Maharashtra,Mumbai,"Malad West, Mumbai - IITM",27-07-2024 07:00:00,19.19709,72.82204,NO2,9,19,13
India,Maharashtra,Mumbai,"Mindspace-Malad West, Mumbai - MPCB",27-07-2024 07:00:00,19.1878657,72.8304069,PM10,40,51,46
India,Maharashtra,Mumbai,"Navy Nagar-Colaba, Mumbai - IITM",27-07-2024 07:00:00,18.897756,72.813320,CO,20,28,24
India,Maharashtra,Mumbai,"Sewri, Mumbai - BMC",27-07-2024 07:00:00,19.000084,72.856730,NO2,3,12,5
India,Maharashtra,Mumbai,"Sewri, Mumbai - BMC",27-07-2024 07:00:00,19.000084,72.856730,NH3,1,1,1
India,Maharashtra,Mumbai,"Shivaji Nagar, Mumbai - BMC",27-07-2024 07:00:00,19.060498,72.923356,OZONE,1,4,3
India,Maharashtra,Mumbai,"Siddharth Nagar-Worli, Mumbai - IITM",27-07-2024 07:00:00,19.000083,72.813993,NO2,NA,NA,NA
India,Maharashtra,Mumbai,"Sion, Mumbai - MPCB",27-07-2024 07:00:00,19.047000,72.874600,PM10,38,72,55
India,Maharashtra,Mumbai,"Sion, Mumbai - MPCB",27-07-2024 07:00:00,19.047000,72.874600,NH3,1,1,1
India,Maharashtra,Mumbai,"Vasai West, Mumbai - MPCB",27-07-2024 07:00:00,19.383200,72.820400,NH3,NA,NA,NA
India,Maharashtra,Mumbai,"Vasai West, Mumbai - MPCB",27-07-2024 07:00:00,19.383200,72.820400,SO2,NA,NA,NA
India,Maharashtra,Mumbai,"Worli, Mumbai - MPCB",27-07-2024 07:00:00,18.9936162,72.8128113,PM2.5,6,12,10
India,Maharashtra,Mumbai,"Worli, Mumbai - MPCB",27-07-2024 07:00:00,18.9936162,72.8128113,NO2,28,30,29
India,Maharashtra,Nagpur,"Ambazari, Nagpur - MPCB",27-07-2024 07:00:00,21.121801,79.04952,PM2.5,15,41,26
India,Maharashtra,Nagpur,"Ambazari, Nagpur - MPCB",27-07-2024 07:00:00,21.121801,79.04952,SO2,2,14,7
India,Maharashtra,Nagpur,"Mahal, Nagpur - MPCB",27-07-2024 07:00:00,21.14472,79.107595,NH3,NA,NA,NA
India,Maharashtra,Nagpur,"Mahal, Nagpur - MPCB",27-07-2024 07:00:00,21.14472,79.107595,CO,NA,NA,NA
India,Maharashtra,Nagpur,"Ram Nagar, Nagpur - MPCB",27-07-2024 07:00:00,21.143383,79.048912,NO2,4,15,6
India,Maharashtra,Nagpur,"Ram Nagar, Nagpur - MPCB",27-07-2024 07:00:00,21.143383,79.048912,OZONE,2,6,3
India,Maharashtra,Nanded,"Sneh Nagar, Nanded - MPCB",27-07-2024 07:00:00,19.173852,77.296291,PM10,29,43,36
India,Maharashtra,Nanded,"Sneh Nagar, Nanded - MPCB",27-07-2024 07:00:00,19.173852,77.296291,CO,19,26,22
India,Maharashtra,Nashik,"Gangapur Road, Nashik - MPCB",27-07-2024 07:00:00,20.0073285,73.7762427,PM2.5,26,52,36
India,Maharashtra,Nashik,"Gangapur Road, Nashik - MPCB",27-07-2024 07:00:00,20.0073285,73.7762427,OZONE,13,43,21
India,Maharashtra,Nashik,"Hirawadi, Nashik - MPCB",27-07-2024 07:00:00,20.021503,73.813844,NO2,1,4,2
India,Maharashtra,Nashik,"Hirawadi, Nashik - MPCB",27-07-2024 07:00:00,20.021503,73.813844,CO,6,12,10
India,Maharashtra,Nashik,"MIDC Ambad, Nashik - MPCB",27-07-2024 07:00:00,19.950220,73.731480,PM2.5,15,38,26
India,Maharashtra,Nashik,"MIDC Ambad, Nashik - MPCB",27-07-2024 07:00:00,19.950220,73.731480,SO2,2,4,3
India,Maharashtra,Nashik,"Pandav Nagari, Nashik - MPCB",27-07-2024 07:00:00,19.9591346,73.7788008,PM10,20,43,32
India,Maharashtra,Nashik,"Pandav Nagari, Nashik - MPCB",27-07-2024 07:00:00,19.9591346,73.7788008,SO2,1,6,4
India,Maharashtra,Nashik,"Pandav Nagari, Nashik - MPCB",27-07-2024 07:00:00,19.9591346,73.7788008,CO,13,17,15
India,Maharashtra,Navi Mumbai,"Kopripada-Vashi, Navi Mumbai - MPCB",27-07-2024 07:00:00,19.090337,73.014232,PM2.5,10,21,16
India,Maharashtra,Navi Mumbai,"Kopripada-Vashi, Navi Mumbai - MPCB",27-07-2024 07:00:00,19.090337,73.014232,PM10,32,60,52
India,Maharashtra,Navi Mumbai,"Nerul, Navi Mumbai - MPCB",27-07-2024 07:00:00,19.008751,73.016620,CO,4,12,4
India,Maharashtra,Navi Mumbai,"Sanpada, Navi Mumbai - MPCB",27-07-2024 07:00:00,19.0575752,73.0151367,NO2,6,20,13
India,Maharashtra,Navi Mumbai,"Sector-19A Nerul, Navi Mumbai - IITM",27-07-2024 07:00:00,19.044,73.0325,NH3,9,11,10
India,Maharashtra,Navi Mumbai,"Tondare-Taloja, Navi Mumbai - MPCB",27-07-2024 07:00:00,19.0630,73.1209,PM2.5,NA,NA,NA
India,Maharashtra,Navi Mumbai,"Tondare-Taloja, Navi Mumbai - MPCB",27-07-2024 07:00:00,19.0630,73.1209,PM10,NA,NA,NA
India,Maharashtra,Navi Mumbai,"Tondare-Taloja, Navi Mumbai - MPCB",27-07-2024 07:00:00,19.0630,73.1209,OZONE,22,23,23
India,Maharashtra,Parbhani,"Masoom Colony, Parbhani - MPCB",27-07-2024 07:00:00,19.265594,76.761463,PM2.5,NA,NA,NA
India,Maharashtra,Parbhani,"Masoom Colony, Parbhani - MPCB",27-07-2024 07:00:00,19.265594,76.761463,CO,18,30,23
India,Maharashtra,Pimpri-Chinchwad,"Gavalinagar, Pimpri Chinchwad - MPCB",27-07-2024 07:00:00,18.63673,73.82487,NO2,6,16,10
India,Maharashtra,Pimpri-Chinchwad,"Gavalinagar, Pimpri Chinchwad - MPCB",27-07-2024 07:00:00,18.63673,73.82487,SO2,1,2,1
India,Maharashtra,Pimpri-Chinchwad,"Park Street Wakad, Pimpri Chinchwad - MPCB",27-07-2024 07:00:00,18.59051,73.77946,PM2.5,8,46,15
India,Maharashtra,Pimpri-Chinchwad,"Park Street Wakad, Pimpri Chinchwad - MPCB",27-07-2024 07:00:00,18.59051,73.77946,PM10,16,32,24
India,Maharashtra,Pimpri-Chinchwad,"Park Street Wakad, Pimpri Chinchwad - MPCB",27-07-2024 07:00:00,18.59051,73.77946,SO2,2,4,3
India,Maharashtra,Pune,"Bhosari, Pune - IITM",27-07-2024 07:00:00,18.640051,73.848956,CO,20,70,25
India,Maharashtra,Pune,"Hadapsar, Pune - IITM",27-07-2024 07:00:00,18.501793,73.927532,PM10,14,72,44
India,Maharashtra,Pune,"Hadapsar, Pune - IITM",27-07-2024 07:00:00,18.501793,73.927532,NO2,22,31,26
India,Maharashtra,Pune,"Katraj Dairy, Pune - MPCB",27-07-2024 07:00:00,18.454450,73.854155,PM10,NA,NA,NA
India,Maharashtra,Pune,"Katraj Dairy, Pune - MPCB",27-07-2024 07:00:00,18.454450,73.854155,SO2,NA,NA,NA
India,Maharashtra,Pune,"Mhada Colony, Pune - IITM",27-07-2024 07:00:00,18.573040,73.927715,CO,28,88,47
India,Maharashtra,Pune,"Revenue Colony-Shivajinagar, Pune - IITM",27-07-2024 07:00:00,18.530085,73.849598,CO,13,41,17
India,Maharashtra,Pune,"Revenue Colony-Shivajinagar, Pune - IITM",27-07-2024 07:00:00,18.530085,73.849598,OZONE,14,23,20
India,Maharashtra,Pune,"Savitribai Phule Pune University, Pune - MPCB",27-07-2024 07:00:00,18.547056,73.826908,OZONE,18,24,21
India,Maharashtra,Sangli,"Vijay Nagar, Sangli - MPCB",27-07-2024 07:00:00, 16.5038,74.3623,PM2.5,6,15,10
India,Maharashtra,Sangli,"Vijay Nagar, Sangli - MPCB",27-07-2024 07:00:00, 16.5038,74.3623,NO2,2,13,5
India,Maharashtra,Sangli,"Vijay Nagar, Sangli - MPCB",27-07-2024 07:00:00, 16.5038,74.3623,NH3,1,1,1
India,Maharashtra,Sangli,"Vijay Nagar, Sangli - MPCB",27-07-2024 07:00:00, 16.5038,74.3623,SO2,1,11,6
India,Maharashtra,Solapur,"Dnyaneshwar Nagar, Solapur - MPCB",27-07-2024 07:00:00,17.6336264,75.9132495,SO2,1,3,2
India,Maharashtra,Solapur,"Ratandeep Housing Society, Solapur - MPCB",27-07-2024 07:00:00,17.65439,75.90649,NO2,2,5,4
India,Maharashtra,Solapur,"Ratandeep Housing Society, Solapur - MPCB",27-07-2024 07:00:00,17.65439,75.90649,CO,9,40,15
India,Maharashtra,Solapur,"Solapur, Solapur - MPCB",27-07-2024 07:00:00,17.6599188,75.9063906,PM2.5,36,64,56
India,Maharashtra,Solapur,"Solapur, Solapur - MPCB",27-07-2024 07:00:00,17.6599188,75.9063906,PM10,67,104,93
India,Maharashtra,Thane,"Kasarvadavali, Thane - MPCB",27-07-2024 07:00:00,19.26777,72.97182,PM2.5,11,369,51
India,Maharashtra,Thane,"Kasarvadavali, Thane - MPCB",27-07-2024 07:00:00,19.26777,72.97182,NO2,1,11,7
India,Maharashtra,Thane,"Pimpleshwar Mandir, Thane - MPCB",27-07-2024 07:00:00,19.192056,72.9585188,NO2,13,13,13
India,Maharashtra,Ulhasnagar,"Sidhi Vinayak Nagar, Ulhasnagar - MPCB",27-07-2024 07:00:00,19.235581,73.159121,NH3,3,4,3
India,Maharashtra,Virar,"Bolinj, Virar - MPCB",27-07-2024 07:00:00,19.4458210,72.7988231,PM2.5,24,86,50
India,Maharashtra,Virar,"Bolinj, Virar - MPCB",27-07-2024 07:00:00,19.4458210,72.7988231,OZONE,6,20,16
India,Manipur,Imphal,"DM College of Science, Imphal - Manipur PCB",27-07-2024 07:00:00,24.8207389,93.9423085,PM10,5,58,13
India,Manipur,Imphal,"DM College of Science, Imphal - Manipur PCB",27-07-2024 07:00:00,24.8207389,93.9423085,CO,7,8,7
India,Meghalaya,Shillong,"Lumpyngngad, Shillong - Meghalaya PCB",27-07-2024 07:00:00,25.5586,91.8985,CO,2,9,3
India,Mizoram,Aizawl,"Sikulpuikawn, Aizawl - Mizoram PCB",27-07-2024 07:00:00,23.7176342,92.7192841,PM2.5,NA,NA,NA
India,Mizoram,Aizawl,"Sikulpuikawn, Aizawl - Mizoram PCB",27-07-2024 07:00:00,23.7176342,92.7192841,PM10,3,42,18
India,Mizoram,Aizawl,"Sikulpuikawn, Aizawl - Mizoram PCB",27-07-2024 07:00:00,23.7176342,92.7192841,NH3,1,3,1
India,Mizoram,Aizawl,"Sikulpuikawn, Aizawl - Mizoram PCB",27-07-2024 07:00:00,23.7176342,92.7192841,OZONE,2,7,4
India,Nagaland,Kohima,"PWD Juction, Kohima - NPCB",27-07-2024 07:00:00,25.6635413,94.0989878,PM2.5,1,22,13
India,Nagaland,Kohima,"PWD Juction, Kohima - NPCB",27-07-2024 07:00:00,25.6635413,94.0989878,OZONE,4,10,6
India,Odisha,Angul,"Hakimapada, Angul - OSPCB",27-07-2024 07:00:00,20.832874,85.104082,PM10,21,58,30
India,Odisha,Balasore,"Kalidaspur, Balasore - OSPCB",27-07-2024 07:00:00,21.51161,86.89088,PM10,1,48,23
India,Odisha,Balasore,"Kalidaspur, Balasore - OSPCB",27-07-2024 07:00:00,21.51161,86.89088,NH3,1,2,1
India,Odisha,Balasore,"Kalidaspur, Balasore - OSPCB",27-07-2024 07:00:00,21.51161,86.89088,CO,46,180,180
India,Odisha,Baripada,"Meher Colony, Baripada - OSPCB",27-07-2024 07:00:00,21.941841,86.728318,SO2,10,12,11
India,Odisha,Bhubaneswar,"Lingraj Mandir, Bhubaneswar - OSPCB",27-07-2024 07:00:00,20.240790,85.836784,PM2.5,8,83,36
India,Odisha,Bhubaneswar,"Lingraj Mandir, Bhubaneswar - OSPCB",27-07-2024 07:00:00,20.240790,85.836784,NO2,4,9,6
India,Odisha,Bileipada,"Tata Township, Bileipada - OSPCB",27-07-2024 07:00:00,22.06156703,85.47409613,PM10,NA,NA,NA
India,Odisha,Bileipada,"Tata Township, Bileipada - OSPCB",27-07-2024 07:00:00,22.06156703,85.47409613,CO,14,18,15
India,Odisha,Brajrajnagar,"GM Office, Brajrajnagar - OSPCB",27-07-2024 07:00:00,21.8004996,83.8396977,NO2,19,35,25
India,Odisha,Byasanagar,"Ferro Chrome Colony, Byasanagar - OSPCB",27-07-2024 07:00:00,20.94185,86.11510,NH3,1,1,1
India,Odisha,Byasanagar,"Ferro Chrome Colony, Byasanagar - OSPCB",27-07-2024 07:00:00,20.94185,86.11510,OZONE,9,36,23
India,Odisha,Nayagarh,"Dabuna, Nayagarh - OSPCB",27-07-2024 07:00:00,21.847279,85.416905,NO2,17,34,23
India,Odisha,Rairangpur,"Divisional Forest Office, Rairangpur - OSPCB",27-07-2024 07:00:00,22.265816,86.174829,PM10,NA,NA,NA
India,Odisha,Rairangpur,"Divisional Forest Office, Rairangpur - OSPCB",27-07-2024 07:00:00,22.265816,86.174829,NO2,NA,NA,NA
India,Odisha,Rourkela,"Raghunathpali, Rourkela - OSPCB",27-07-2024 07:00:00,22.220833,84.809444,NO2,21,85,52
India,Odisha,Suakati,"OMC Colony, Suakati - OSPCB",27-07-2024 07:00:00,21.606865,85.510538,PM2.5,12,49,26
India,Odisha,Talcher,"Talcher Coalfields,Talcher - OSPCB",27-07-2024 07:00:00,20.9360711,85.1707021,PM10,1,30,17
India,Odisha,Talcher,"Talcher Coalfields,Talcher - OSPCB",27-07-2024 07:00:00,20.9360711,85.1707021,SO2,20,24,22
India,Odisha,Talcher,"Talcher Coalfields,Talcher - OSPCB",27-07-2024 07:00:00,20.9360711,85.1707021,CO,16,68,55
India,Odisha,Tensa,"Barsua Iron Ore Mines, Tensa - OSPCB",27-07-2024 07:00:00,21.869985,85.167016,SO2,10,14,11
India,Odisha,Tensa,"Barsua Iron Ore Mines, Tensa - OSPCB",27-07-2024 07:00:00,21.869985,85.167016,CO,16,32,24
India,Puducherry,Puducherry,"Jawahar Nagar, Puducherry - PPCC",27-07-2024 07:00:00,11.9309,79.8027,NO2,6,35,14
India,Puducherry,Puducherry,"Jawahar Nagar, Puducherry - PPCC",27-07-2024 07:00:00,11.9309,79.8027,NH3,3,5,4
India,Punjab,Bathinda,"Hardev Nagar, Bathinda - PPCB",27-07-2024 07:00:00,30.233011,74.907758,PM10,10,114,70
India,Punjab,Jalandhar,"Civil Line, Jalandhar - PPCB",27-07-2024 07:00:00,31.321907,75.578914,PM2.5,33,75,50
India,Punjab,Jalandhar,"Civil Line, Jalandhar - PPCB",27-07-2024 07:00:00,31.321907,75.578914,OZONE,23,46,24
India,Punjab,Khanna,"Kalal Majra, Khanna - PPCB",27-07-2024 07:00:00,30.736056 ,76.209694,NO2,26,26,26
India,Punjab,Khanna,"Kalal Majra, Khanna - PPCB",27-07-2024 07:00:00,30.736056 ,76.209694,CO,33,53,37
India,Punjab,Ludhiana,"Punjab Agricultural University, Ludhiana - PPCB",27-07-2024 07:00:00,30.9028,75.8086,PM2.5,38,176,78
India,Punjab,Ludhiana,"Punjab Agricultural University, Ludhiana - PPCB",27-07-2024 07:00:00,30.9028,75.8086,PM10,41,121,81
India,Punjab,Ludhiana,"Punjab Agricultural University, Ludhiana - PPCB",27-07-2024 07:00:00,30.9028,75.8086,NO2,23,26,24
India,Punjab,Ludhiana,"Punjab Agricultural University, Ludhiana - PPCB",27-07-2024 07:00:00,30.9028,75.8086,NH3,7,9,8
India,Punjab,Ludhiana,"Punjab Agricultural University, Ludhiana - PPCB",27-07-2024 07:00:00,30.9028,75.8086,CO,11,77,39
India,Punjab,Mandi Gobindgarh,"RIMT University, Mandi Gobindgarh - PPCB",27-07-2024 07:00:00,30.649961,76.331442,SO2,16,18,17
India,Punjab,Patiala,"Model Town, Patiala - PPCB",27-07-2024 07:00:00,30.349388,76.366642,PM2.5,20,83,47
India,Punjab,Patiala,"Model Town, Patiala - PPCB",27-07-2024 07:00:00,30.349388,76.366642,PM10,33,84,52
India,Punjab,Patiala,"Model Town, Patiala - PPCB",27-07-2024 07:00:00,30.349388,76.366642,NH3,4,5,4
India,Punjab,Patiala,"Model Town, Patiala - PPCB",27-07-2024 07:00:00,30.349388,76.366642,OZONE,38,81,47
India,Punjab,Rupnagar,"Ratanpura, Rupnagar - Ambuja Cements",27-07-2024 07:00:00,31.0325454,76.5623046,PM2.5,23,66,48
India,Rajasthan,Ajmer,"Civil Lines,  Ajmer - RSPCB",27-07-2024 07:00:00,26.470859,74.646594,PM10,51,90,72
India,Rajasthan,Ajmer,"Civil Lines,  Ajmer - RSPCB",27-07-2024 07:00:00,26.470859,74.646594,NH3,4,4,4
India,Rajasthan,Baran,"Bamboliya, Baran - RSPCB",27-07-2024 07:00:00,25.106006,76.469948,PM2.5,8,193,48
India,Rajasthan,Baran,"Bamboliya, Baran - RSPCB",27-07-2024 07:00:00,25.106006,76.469948,NH3,3,4,3
India,Rajasthan,Baran,"Bamboliya, Baran - RSPCB",27-07-2024 07:00:00,25.106006,76.469948,SO2,1,4,2
India,Rajasthan,Bharatpur,"Krishna Nagar, Bharatpur - RSPCB",27-07-2024 07:00:00,27.215415,77.50873,SO2,1,3,2
India,Rajasthan,Bhilwara,"Pratap Nagar, Bhilwara - RSPCB",27-07-2024 07:00:00,25.339605,74.618883,PM2.5,3,60,38
India,Rajasthan,Bhilwara,"Pratap Nagar, Bhilwara - RSPCB",27-07-2024 07:00:00,25.339605,74.618883,NO2,8,17,12
India,Rajasthan,Bhilwara,"Pratap Nagar, Bhilwara - RSPCB",27-07-2024 07:00:00,25.339605,74.618883,NH3,2,2,2
India,Rajasthan,Bhilwara,"Pratap Nagar, Bhilwara - RSPCB",27-07-2024 07:00:00,25.339605,74.618883,CO,4,36,11
India,Rajasthan,Bhilwara,"Pratap Nagar, Bhilwara - RSPCB",27-07-2024 07:00:00,25.339605,74.618883,OZONE,8,48,26
India,Rajasthan,Bhiwadi,"RIICO Ind. Area III, Bhiwadi - RSPCB",27-07-2024 07:00:00,28.194909,76.862296,CO,6,106,72
India,Rajasthan,Bikaner,"MM Ground, Bikaner - RSPCB",27-07-2024 07:00:00,28.018792,73.292658,NH3,4,20,9
India,Rajasthan,Chittorgarh,"Shastri Nagar, Chittorgarh - RSPCB",27-07-2024 07:00:00,24.892047,74.623527,PM10,40,117,85
India,Rajasthan,Chittorgarh,"Shastri Nagar, Chittorgarh - RSPCB",27-07-2024 07:00:00,24.892047,74.623527,CO,9,56,18
India,Rajasthan,Churu,"Subash Chowk, Churu - RSPCB",27-07-2024 07:00:00,28.296139,74.961696,PM2.5,17,52,34
India,Rajasthan,Churu,"Subash Chowk, Churu - RSPCB",27-07-2024 07:00:00,28.296139,74.961696,PM10,37,121,78
India,Rajasthan,Dausa,"Khatikan Mohalla, Dausa - RSPCB",27-07-2024 07:00:00,26.895552,76.334753,PM2.5,17,439,134
India,Rajasthan,Dausa,"Khatikan Mohalla, Dausa - RSPCB",27-07-2024 07:00:00,26.895552,76.334753,NH3,2,11,5
India,Rajasthan,Dholpur,"Raja Ganj, Dholpur - RSPCB",27-07-2024 07:00:00,26.699557,77.898881,PM2.5,NA,NA,NA
India,Rajasthan,Dholpur,"Raja Ganj, Dholpur - RSPCB",27-07-2024 07:00:00,26.699557,77.898881,PM10,NA,NA,NA
India,Rajasthan,Dholpur,"Raja Ganj, Dholpur - RSPCB",27-07-2024 07:00:00,26.699557,77.898881,SO2,NA,NA,NA
India,Rajasthan,Dholpur,"Raja Ganj, Dholpur - RSPCB",27-07-2024 07:00:00,26.699557,77.898881,CO,NA,NA,NA
India,Rajasthan,Dungarpur,"Bhoiwada, Dungarpur - RSPCB",27-07-2024 07:00:00,23.837789,73.714926,NO2,5,8,6
India,Rajasthan,Dungarpur,"Bhoiwada, Dungarpur - RSPCB",27-07-2024 07:00:00,23.837789,73.714926,OZONE,19,49,27
India,Rajasthan,Hanumangarh,"Housing Board, Hanumangarh - RSPCB",27-07-2024 07:00:00,29.610750,74.283608,PM2.5,5,57,26
India,Rajasthan,Jaipur,"Adarsh Nagar, Jaipur - RSPCB",27-07-2024 07:00:00,26.902909,75.836858,NH3,10,26,17
India,Rajasthan,Jaipur,"Adarsh Nagar, Jaipur - RSPCB",27-07-2024 07:00:00,26.902909,75.836858,OZONE,4,37,8
India,Rajasthan,Jaipur,"Police Commissionerate, Jaipur - RSPCB",27-07-2024 07:00:00,26.9164092,75.7994901,PM2.5,40,86,65
India,Rajasthan,Jaipur,"Police Commissionerate, Jaipur - RSPCB",27-07-2024 07:00:00,26.9164092,75.7994901,SO2,NA,NA,NA
India,Rajasthan,Jaipur,"Sector-2 Murlipura, Jaipur - RSPCB",27-07-2024 07:00:00,26.960669,75.771817,NO2,12,71,35
India,Rajasthan,Jaipur,"Sector-2 Murlipura, Jaipur - RSPCB",27-07-2024 07:00:00,26.960669,75.771817,NH3,1,9,4
India,Rajasthan,Jaipur,"Sector-2 Murlipura, Jaipur - RSPCB",27-07-2024 07:00:00,26.960669,75.771817,CO,12,74,31
India,Rajasthan,Jaipur,"Sector-2 Murlipura, Jaipur - RSPCB",27-07-2024 07:00:00,26.960669,75.771817,OZONE,14,38,18
India,Rajasthan,Jaipur,"Shastri Nagar, Jaipur - RSPCB",27-07-2024 07:00:00,26.9502929,75.730943,PM10,45,131,81
India,Rajasthan,Jaipur,"Shastri Nagar, Jaipur - RSPCB",27-07-2024 07:00:00,26.9502929,75.730943,NH3,3,11,6
India,Rajasthan,Jaisalmer,"Sadar Bazar, Jaisalmer - RSPCB",27-07-2024 07:00:00,26.912329,70.909168,SO2,7,10,8
India,Rajasthan,Jhalawar,"Rajlaxmi Nagar, Jhalawar - RSPCB",27-07-2024 07:00:00,24.588397,76.172782,PM2.5,7,294,83
India,Rajasthan,Jhalawar,"Rajlaxmi Nagar, Jhalawar - RSPCB",27-07-2024 07:00:00,24.588397,76.172782,OZONE,7,49,33
India,Rajasthan,Jhunjhunu,"Indra Nagar, Jhunjhunu - RSPCB",27-07-2024 07:00:00,28.108988,75.386577,CO,2,106,14
India,Rajasthan,Jodhpur,"Collectorate, Jodhpur - RSPCB",27-07-2024 07:00:00,26.268249,73.0193853,NO2,2,14,6
India,Rajasthan,Jodhpur,"Collectorate, Jodhpur - RSPCB",27-07-2024 07:00:00,26.268249,73.0193853,SO2,3,11,6
India,Rajasthan,Jodhpur,"Collectorate, Jodhpur - RSPCB",27-07-2024 07:00:00,26.268249,73.0193853,CO,1,102,15
India,Rajasthan,Jodhpur,"Digari Kalan, Jodhpur - RSPCB",27-07-2024 07:00:00,26.295810,73.082283,NO2,5,24,10
India,Rajasthan,Jodhpur,"Digari Kalan, Jodhpur - RSPCB",27-07-2024 07:00:00,26.295810,73.082283,OZONE,17,35,31
India,Rajasthan,Jodhpur,"Jhalamand, Jodhpur - RSPCB",27-07-2024 07:00:00,26.215415,73.070156,PM2.5,30,47,36
India,Rajasthan,Jodhpur,"Jhalamand, Jodhpur - RSPCB",27-07-2024 07:00:00,26.215415,73.070156,NO2,5,25,9
India,Rajasthan,Jodhpur,"Mandor, Jodhpur - RSPCB",27-07-2024 07:00:00,26.358805,73.047444,PM2.5,23,48,32
India,Rajasthan,Jodhpur,"Samrat Ashok Udhyan, Jodhpur - RSPCB",27-07-2024 07:00:00,26.253384,72.976571,OZONE,10,39,27
India,Rajasthan,Karauli,"Satyawati Vihar, Karauli - RSPCB",27-07-2024 07:00:00,26.506177,77.025989,PM10,7,43,19
India,Rajasthan,Karauli,"Satyawati Vihar, Karauli - RSPCB",27-07-2024 07:00:00,26.506177,77.025989,OZONE,1,81,11
India,Rajasthan,Kota,"Dhanmandi, Kota - RSPCB",27-07-2024 07:00:00,25.164090,75.858137,SO2,2,6,4
India,Rajasthan,Kota,"Dhanmandi, Kota - RSPCB",27-07-2024 07:00:00,25.164090,75.858137,CO,4,38,16
India,Rajasthan,Kota,"Nayapura, Kota - RSPCB",27-07-2024 07:00:00,25.196024,75.855668,OZONE,10,44,31
India,Rajasthan,Kota,"Shrinath Puram, Kota - RSPCB",27-07-2024 07:00:00,25.14389,75.821256,SO2,4,15,8
India,Rajasthan,Nagaur,"Karni Colony, Nagaur - RSPCB",27-07-2024 07:00:00,27.213494,73.734444,PM2.5,28,52,41
India,Rajasthan,Nagaur,"Karni Colony, Nagaur - RSPCB",27-07-2024 07:00:00,27.213494,73.734444,PM10,62,114,91
India,Rajasthan,Nagaur,"Karni Colony, Nagaur - RSPCB",27-07-2024 07:00:00,27.213494,73.734444,NH3,2,13,7
India,Rajasthan,Sikar,"Radhakishan Pura, Sikar - RSPCB",27-07-2024 07:00:00,27.608912,75.153302,PM2.5,6,53,31
India,Rajasthan,Sikar,"Radhakishan Pura, Sikar - RSPCB",27-07-2024 07:00:00,27.608912,75.153302,CO,2,22,5
India,Rajasthan,Sirohi,"Vedhaynath Colony, Sirohi - RSPCB",27-07-2024 07:00:00,24.885261,72.857549,NH3,3,6,5
India,Rajasthan,Sri Ganganagar,"Old City, Sri Ganganagar - RSPCB",27-07-2024 07:00:00,29.931624,73.864511,PM2.5,28,163,69
India,Rajasthan,Sri Ganganagar,"Old City, Sri Ganganagar - RSPCB",27-07-2024 07:00:00,29.931624,73.864511,NH3,8,13,11
India,Rajasthan,Sri Ganganagar,"Old City, Sri Ganganagar - RSPCB",27-07-2024 07:00:00,29.931624,73.864511,SO2,1,9,2
India,Rajasthan,Sri Ganganagar,"Old City, Sri Ganganagar - RSPCB",27-07-2024 07:00:00,29.931624,73.864511,OZONE,18,104,45
India,Rajasthan,Tonk,"Shastri Nagar, Tonk - RSPCB",27-07-2024 07:00:00,26.159933,75.780517,PM10,15,58,29
India,Rajasthan,Tonk,"Shastri Nagar, Tonk - RSPCB",27-07-2024 07:00:00,26.159933,75.780517,NO2,3,11,7
India,Rajasthan,Udaipur,"Ashok Nagar, Udaipur - RSPCB",27-07-2024 07:00:00,24.5886166,73.6321397,PM10,44,78,65
India,Sikkim,Gangtok,"Zero Point GICI, Gangtok - SSPCB",27-07-2024 07:00:00,27.338530,88.614099,PM10,5,14,9
India,Sikkim,Gangtok,"Zero Point GICI, Gangtok - SSPCB",27-07-2024 07:00:00,27.338530,88.614099,NO2,NA,NA,NA
India,Sikkim,Gangtok,"Zero Point GICI, Gangtok - SSPCB",27-07-2024 07:00:00,27.338530,88.614099,NH3,1,1,1
India,TamilNadu,Ariyalur,"Keelapalur, Ariyalur - TNPCB",27-07-2024 07:00:00,11.06825,79.07033,NO2,3,74,40
India,TamilNadu,Chennai,"Alandur Bus Depot, Chennai - CPCB",27-07-2024 07:00:00,12.9099161,80.1076538,CO,59,65,62
India,TamilNadu,Chennai,"Manali, Chennai - CPCB",27-07-2024 07:00:00,13.164544,80.26285,NO2,7,8,7
India,TamilNadu,Chennai,"Royapuram, Chennai - TNPCB",27-07-2024 07:00:00,13.1036,80.2909,NO2,NA,NA,NA
India,TamilNadu,Chennai,"Velachery Res. Area, Chennai - CPCB",27-07-2024 07:00:00,13.0052189,80.2398125,PM10,16,35,26
India,TamilNadu,Chennai,"Velachery Res. Area, Chennai - CPCB",27-07-2024 07:00:00,13.0052189,80.2398125,SO2,10,11,11
India,TamilNadu,Cuddalore,"Semmandalam, Cuddalore - TNPCB",27-07-2024 07:00:00,11.7637683,79.7499835,PM10,5,29,14
India,TamilNadu,Cuddalore,"Semmandalam, Cuddalore - TNPCB",27-07-2024 07:00:00,11.7637683,79.7499835,NH3,NA,NA,NA
India,TamilNadu,Ooty,"Bombay Castel, Ooty - TNPCB",27-07-2024 07:00:00,11.4068288,76.7138973,NO2,NA,NA,NA
India,TamilNadu,Ooty,"Bombay Castel, Ooty - TNPCB",27-07-2024 07:00:00,11.4068288,76.7138973,CO,NA,NA,NA
India,TamilNadu,Tirupur,"Kumaran College, Tirupur - TNPCB",27-07-2024 07:00:00,11.0973603,77.3228673,PM2.5,2,17,6
India,TamilNadu,Tirupur,"Kumaran College, Tirupur - TNPCB",27-07-2024 07:00:00,11.0973603,77.3228673,NH3,NA,NA,NA
India,TamilNadu,Vellore,"Vasanthapuram, Vellore - TNPCB",27-07-2024 07:00:00,12.909494,79.131861,PM2.5,5,35,23
India,TamilNadu,Vellore,"Vasanthapuram, Vellore - TNPCB",27-07-2024 07:00:00,12.909494,79.131861,CO,NA,NA,NA
India,TamilNadu,Vellore,"Vasanthapuram, Vellore - TNPCB",27-07-2024 07:00:00,12.909494,79.131861,OZONE,NA,NA,NA
India,TamilNadu,Virudhunagar,"Collectorate Office, Virudhunagar - TNPCB",27-07-2024 07:00:00,9.559382,77.948828,PM10,NA,NA,NA
India,TamilNadu,Virudhunagar,"Collectorate Office, Virudhunagar - TNPCB",27-07-2024 07:00:00,9.559382,77.948828,OZONE,NA,NA,NA
India,Telangana,Hyderabad,"Bollaram Industrial Area, Hyderabad - TSPCB",27-07-2024 07:00:00,17.540891,78.358528,PM2.5,3,32,17
India,Telangana,Hyderabad,"ECIL Kapra, Hyderabad - TSPCB",27-07-2024 07:00:00,17.470431,78.566959,PM10,39,95,65
India,Telangana,Hyderabad,"ECIL Kapra, Hyderabad - TSPCB",27-07-2024 07:00:00,17.470431,78.566959,SO2,4,11,6
India,Telangana,Hyderabad,"ICRISAT Patancheru, Hyderabad - TSPCB",27-07-2024 07:00:00,17.518400,78.278777,PM10,6,39,21
India,Telangana,Hyderabad,"ICRISAT Patancheru, Hyderabad - TSPCB",27-07-2024 07:00:00,17.518400,78.278777,OZONE,7,27,11
India,Telangana,Hyderabad,"IDA Pashamylaram, Hyderabad - TSPCB",27-07-2024 07:00:00,17.5316895,78.218939,PM2.5,3,34,14
India,Telangana,Hyderabad,"IDA Pashamylaram, Hyderabad - TSPCB",27-07-2024 07:00:00,17.5316895,78.218939,NO2,27,38,34
India,Telangana,Hyderabad,"IITH Kandi, Hyderabad - TSPCB",27-07-2024 07:00:00,17.585705,78.126199,SO2,NA,NA,NA
India,Telangana,Hyderabad,"IITH Kandi, Hyderabad - TSPCB",27-07-2024 07:00:00,17.585705,78.126199,OZONE,NA,NA,NA
India,Telangana,Hyderabad,"Kokapet, Hyderabad - TSPCB",27-07-2024 07:00:00,17.393559,78.339194,PM2.5,39,97,63
India,Telangana,Hyderabad,"Kompally Municipal Office, Hyderabad - TSPCB",27-07-2024 07:00:00,17.544899,78.486949,PM2.5,35,121,51
India,Telangana,Hyderabad,"Kompally Municipal Office, Hyderabad - TSPCB",27-07-2024 07:00:00,17.544899,78.486949,NO2,9,11,9
India,Telangana,Hyderabad,"Kompally Municipal Office, Hyderabad - TSPCB",27-07-2024 07:00:00,17.544899,78.486949,CO,13,14,14
India,Telangana,Hyderabad,"Nacharam_TSIIC IALA, Hyderabad - TSPCB",27-07-2024 07:00:00,17.429398,78.569354,PM10,51,59,57
India,Telangana,Hyderabad,"Sanathnagar, Hyderabad - TSPCB",27-07-2024 07:00:00,17.4559458,78.4332152,CO,16,32,21
India,Telangana,Hyderabad,"Zoo Park, Hyderabad - TSPCB",27-07-2024 07:00:00,17.349694,78.451437,CO,1,36,12
India,Uttar_Pradesh,Agra,"Manoharpur, Agra - UPPCB",27-07-2024 07:00:00,27.23711,78.01936,NH3,2,2,2
India,Uttar_Pradesh,Agra,"Manoharpur, Agra - UPPCB",27-07-2024 07:00:00,27.23711,78.01936,OZONE,12,19,15
India,Uttar_Pradesh,Agra,"Rohta, Agra - UPPCB",27-07-2024 07:00:00,27.106972,78.000111,NO2,4,4,4
India,Uttar_Pradesh,Agra,"Sector-3B Avas Vikas Colony, Agra - UPPCB",27-07-2024 07:00:00,27.19412,77.96237,NO2,20,22,21
India,Uttar_Pradesh,Agra,"Sector-3B Avas Vikas Colony, Agra - UPPCB",27-07-2024 07:00:00,27.19412,77.96237,OZONE,32,37,34
India,Uttar_Pradesh,Agra,"Shahjahan Garden, Agra - UPPCB",27-07-2024 07:00:00,27.169338,78.03582,NO2,NA,NA,NA
India,Uttar_Pradesh,Baghpat,"Sardar Patel Inter College, Baghpat - UPPCB",27-07-2024 07:00:00,28.964949,77.278761,SO2,13,23,19
India,Uttar_Pradesh,Baghpat,"Sardar Patel Inter College, Baghpat - UPPCB",27-07-2024 07:00:00,28.964949,77.278761,CO,46,77,60
India,Uttar_Pradesh,Baghpat,"Sardar Patel Inter College, Baghpat - UPPCB",27-07-2024 07:00:00,28.964949,77.278761,OZONE,4,27,5
India,Uttar_Pradesh,Bareilly,"Civil Lines, Bareilly - UPPCB",27-07-2024 07:00:00,28.359581,79.414455,NO2,2,3,2
India,Uttar_Pradesh,Bareilly,"Civil Lines, Bareilly - UPPCB",27-07-2024 07:00:00,28.359581,79.414455,OZONE,4,5,4
India,Uttar_Pradesh,Bulandshahr,"Yamunapuram, Bulandshahr - UPPCB",27-07-2024 07:00:00,28.406963,77.849831,PM2.5,5,60,29
India,Uttar_Pradesh,Bulandshahr,"Yamunapuram, Bulandshahr - UPPCB",27-07-2024 07:00:00,28.406963,77.849831,SO2,1,15,8
India,Uttar_Pradesh,Firozabad,"Nagla Bhau, Firozabad - UPPCB",27-07-2024 07:00:00,27.168897,78.376960,PM2.5,4,28,14
India,Uttar_Pradesh,Firozabad,"Nagla Bhau, Firozabad - UPPCB",27-07-2024 07:00:00,27.168897,78.376960,NO2,17,17,17
India,Uttar_Pradesh,Firozabad,"Nagla Bhau, Firozabad - UPPCB",27-07-2024 07:00:00,27.168897,78.376960,SO2,23,27,26
India,Uttar_Pradesh,Firozabad,"Vibhab Nagar, Firozabad - UPPCB",27-07-2024 07:00:00,27.1594,78.3953,SO2,NA,NA,NA
India,Uttar_Pradesh,Ghaziabad,"Indirapuram, Ghaziabad - UPPCB",27-07-2024 07:00:00,28.646233,77.358075,NO2,27,54,39
India,Uttar_Pradesh,Ghaziabad,"Indirapuram, Ghaziabad - UPPCB",27-07-2024 07:00:00,28.646233,77.358075,CO,27,101,36
India,Uttar_Pradesh,Ghaziabad,"Loni, Ghaziabad - UPPCB",27-07-2024 07:00:00,28.757294,77.278792,PM2.5,37,232,121
India,Uttar_Pradesh,Ghaziabad,"Loni, Ghaziabad - UPPCB",27-07-2024 07:00:00,28.757294,77.278792,PM10,24,139,88
India,Uttar_Pradesh,Ghaziabad,"Sanjay Nagar, Ghaziabad - UPPCB",27-07-2024 07:00:00,28.685382,77.453839,CO,18,76,27
India,Uttar_Pradesh,Greater Noida,"Knowledge Park - III, Greater Noida - UPPCB",27-07-2024 07:00:00,28.47272,77.482000,PM2.5,38,214,85
India,Uttar_Pradesh,Greater Noida,"Knowledge Park - III, Greater Noida - UPPCB",27-07-2024 07:00:00,28.47272,77.482000,NH3,8,20,12
India,Uttar_Pradesh,Greater Noida,"Knowledge Park - III, Greater Noida - UPPCB",27-07-2024 07:00:00,28.47272,77.482000,SO2,9,25,17
India,Uttar_Pradesh,Greater Noida,"Knowledge Park - III, Greater Noida - UPPCB",27-07-2024 07:00:00,28.47272,77.482000,OZONE,1,95,16
India,Uttar_Pradesh,Greater Noida,"Knowledge Park - V, Greater Noida - UPPCB",27-07-2024 07:00:00,28.557054,77.453663,PM2.5,46,212,107
India,Uttar_Pradesh,Greater Noida,"Knowledge Park - V, Greater Noida - UPPCB",27-07-2024 07:00:00,28.557054,77.453663,PM10,125,375,202
India,Uttar_Pradesh,Greater Noida,"Knowledge Park - V, Greater Noida - UPPCB",27-07-2024 07:00:00,28.557054,77.453663,OZONE,7,96,8
India,Uttar_Pradesh,Hapur,"Anand Vihar, Hapur - UPPCB",27-07-2024 07:00:00,28.725645,77.749675,PM10,11,63,41
India,Uttar_Pradesh,Hapur,"Anand Vihar, Hapur - UPPCB",27-07-2024 07:00:00,28.725645,77.749675,NO2,9,33,23
India,Uttar_Pradesh,Jhansi,"Shivaji Nagar, Jhansi - UPPCB",27-07-2024 07:00:00,25.4547,78.6039,OZONE,1,9,2
India,Uttar_Pradesh,Kanpur,"FTI Kidwai Nagar, Kanpur - UPPCB",27-07-2024 07:00:00,26.428282,80.327067,PM2.5,18,39,29
India,Uttar_Pradesh,Kanpur,"FTI Kidwai Nagar, Kanpur - UPPCB",27-07-2024 07:00:00,26.428282,80.327067,NO2,18,19,19
India,Uttar_Pradesh,Kanpur,"NSI Kalyanpur, Kanpur - UPPCB",27-07-2024 07:00:00,26.509954,80.249612,CO,31,48,36
India,Uttar_Pradesh,Kanpur,"Nehru Nagar, Kanpur - UPPCB",27-07-2024 07:00:00,26.4703136,80.3229863,CO,32,78,57
India,Uttar_Pradesh,Khurja,"Kalindi Kunj, Khurja - UPPCB",27-07-2024 07:00:00,28.2348927,77.8683002,PM2.5,21,219,59
India,Uttar_Pradesh,Khurja,"Kalindi Kunj, Khurja - UPPCB",27-07-2024 07:00:00,28.2348927,77.8683002,PM10,54,172,97
India,Uttar_Pradesh,Khurja,"Kalindi Kunj, Khurja - UPPCB",27-07-2024 07:00:00,28.2348927,77.8683002,CO,22,28,25
India,Uttar_Pradesh,Lucknow,"B R Ambedkar University, Lucknow - UPPCB",27-07-2024 07:00:00,26.766433,80.927299,SO2,13,14,13
India,Uttar_Pradesh,Lucknow,"Gomti Nagar, Lucknow - UPPCB",27-07-2024 07:00:00,26.868120,81.005119,CO,38,42,39
India,Uttar_Pradesh,Lucknow,"Gomti Nagar, Lucknow - UPPCB",27-07-2024 07:00:00,26.868120,81.005119,OZONE,41,47,42
India,Uttar_Pradesh,Lucknow,"Kendriya Vidyalaya, Lucknow - CPCB",27-07-2024 07:00:00,26.906111,80.948222,NO2,8,19,13
India,Uttar_Pradesh,Lucknow,"Lalbagh, Lucknow - CPCB",27-07-2024 07:00:00,26.8458805,80.9365541,PM10,46,140,76
India,Uttar_Pradesh,Lucknow,"Lalbagh, Lucknow - CPCB",27-07-2024 07:00:00,26.8458805,80.9365541,SO2,1,11,5
India,Uttar_Pradesh,Lucknow,"Lalbagh, Lucknow - CPCB",27-07-2024 07:00:00,26.8458805,80.9365541,OZONE,6,17,14
India,Uttar_Pradesh,Lucknow,"Talkatora District Industries Center, Lucknow - CPCB",27-07-2024 07:00:00,26.83399722,80.8917361,OZONE,2,80,6
India,Uttar_Pradesh,Meerut,"Ganga Nagar, Meerut - UPPCB",27-07-2024 07:00:00,28.999264,77.7590354,SO2,13,18,15
India,Uttar_Pradesh,Meerut,"Pallavpuram Phase 2, Meerut - UPPCB",27-07-2024 07:00:00,29.063510,77.709723,PM2.5,18,65,39
India,Uttar_Pradesh,Meerut,"Pallavpuram Phase 2, Meerut - UPPCB",27-07-2024 07:00:00,29.063510,77.709723,NH3,5,11,8
India,Uttar_Pradesh,Moradabad,"Buddhi Vihar, Moradabad - UPPCB",27-07-2024 07:00:00,28.83526,78.74460,NH3,2,2,2
India,Uttar_Pradesh,Moradabad,"Eco Herbal Park, Moradabad - UPPCB",27-07-2024 07:00:00,28.840739,78.697531,PM2.5,9,60,24
India,Uttar_Pradesh,Moradabad,"Employment Office, Moradabad - UPPCB",27-07-2024 07:00:00,28.88528,78.73880,PM2.5,24,64,37
India,Uttar_Pradesh,Moradabad,"Kashiram Nagar, Moradabad - UPPCB",27-07-2024 07:00:00,28.849399,78.742362,NO2,15,15,15
India,Uttar_Pradesh,Moradabad,"Kashiram Nagar, Moradabad - UPPCB",27-07-2024 07:00:00,28.849399,78.742362,SO2,13,43,29
India,Uttar_Pradesh,Moradabad,"Transport Nagar, Moradabad - UPPCB",27-07-2024 07:00:00,28.802625,78.753728,PM2.5,8,52,24
India,Uttar_Pradesh,Moradabad,"Transport Nagar, Moradabad - UPPCB",27-07-2024 07:00:00,28.802625,78.753728,PM10,17,82,37
India,Uttar_Pradesh,Muzaffarnagar,"New Mandi, Muzaffarnagar - UPPCB",27-07-2024 07:00:00,29.4723508,77.7194031,NH3,10,12,11
India,Uttar_Pradesh,Noida,"Sector - 125, Noida - UPPCB",27-07-2024 07:00:00,28.5447608,77.3231257,NH3,2,6,5
India,Uttar_Pradesh,Noida,"Sector - 62, Noida - IMD",27-07-2024 07:00:00,28.6245479,77.3577104,NO2,7,8,8
India,Uttar_Pradesh,Noida,"Sector-1, Noida - UPPCB",27-07-2024 07:00:00,28.5898,77.3101,PM10,19,182,91
India,Uttar_Pradesh,Noida,"Sector-1, Noida - UPPCB",27-07-2024 07:00:00,28.5898,77.3101,OZONE,6,124,8
India,Uttar_Pradesh,Noida,"Sector-116, Noida - UPPCB",27-07-2024 07:00:00,28.569230,77.393848,PM10,30,191,103
India,Uttar_Pradesh,Varanasi,"Ardhali Bazar, Varanasi - UPPCB",27-07-2024 07:00:00,25.3505986,82.9083074,NO2,35,39,37
India,Uttar_Pradesh,Varanasi,"Bhelupur, Varanasi - UPPCB",27-07-2024 07:00:00,25.301778,82.996789,CO,12,38,27
India,Uttar_Pradesh,Vrindavan,"Omex Eternity, Vrindavan - UPPCB",27-07-2024 07:00:00,27.5714090,77.6557570,PM2.5,8,27,15
India,Uttar_Pradesh,Vrindavan,"Omex Eternity, Vrindavan - UPPCB",27-07-2024 07:00:00,27.5714090,77.6557570,PM10,10,109,38
India,Uttarakhand,Kashipur,"Govt. Girls Inter College, Kashipur - UKPCB",27-07-2024 07:00:00,29.2124114,78.9611753,PM10,24,109,57
India,Uttarakhand,Rishikesh,"Shivaji Nagar, Rishikesh - UKPCB",27-07-2024 07:00:00,30.075911,78.2859547,PM2.5,13,59,28
India,West_Bengal,Asansol,"Asansol Court Area, Asansol - WBPCB",27-07-2024 07:00:00,23.685297,86.945968,NO2,25,44,31
India,West_Bengal,Asansol,"Asansol Court Area, Asansol - WBPCB",27-07-2024 07:00:00,23.685297,86.945968,SO2,9,17,13
India,West_Bengal,Asansol,"Mahabir Colliery, Asansol - WBPCB",27-07-2024 07:00:00,23.6181830,87.1057180,OZONE,27,76,31
India,West_Bengal,Asansol,"Trivenidevi Bhalotia College, Asansol - WBPCB",27-07-2024 07:00:00,23.616515,87.119133,SO2,28,37,32
India,West_Bengal,Barrackpore,"SVSPA Campus, Barrackpore - WBPCB",27-07-2024 07:00:00,22.7605581,88.3617589,NH3,1,3,2
India,West_Bengal,Barrackpore,"SVSPA Campus, Barrackpore - WBPCB",27-07-2024 07:00:00,22.7605581,88.3617589,SO2,4,5,4
India,West_Bengal,Barrackpore,"SVSPA Campus, Barrackpore - WBPCB",27-07-2024 07:00:00,22.7605581,88.3617589,CO,18,31,23
India,West_Bengal,Durgapur,"PCBL Residential Complex, Durgapur - WBPCB",27-07-2024 07:00:00,23.5087640,87.3544400,NO2,11,27,17
India,West_Bengal,Durgapur,"Sidhu Kanhu Indoor Stadium, Durgapur - WBPCB",27-07-2024 07:00:00,23.5404352,87.2892225,NO2,15,27,18
India,West_Bengal,Durgapur,"Sidhu Kanhu Indoor Stadium, Durgapur - WBPCB",27-07-2024 07:00:00,23.5404352,87.2892225,NH3,3,6,4
India,West_Bengal,Durgapur,"Sidhu Kanhu Indoor Stadium, Durgapur - WBPCB",27-07-2024 07:00:00,23.5404352,87.2892225,SO2,11,45,27
India,West_Bengal,Durgapur,"Sidhu Kanhu Indoor Stadium, Durgapur - WBPCB",27-07-2024 07:00:00,23.5404352,87.2892225,OZONE,3,24,5
India,West_Bengal,Howrah,"Belur Math, Howrah - WBPCB",27-07-2024 07:00:00,22.629801,88.352017,NO2,32,37,34
India,West_Bengal,Howrah,"Belur Math, Howrah - WBPCB",27-07-2024 07:00:00,22.629801,88.352017,NH3,5,6,5
India,West_Bengal,Howrah,"Belur Math, Howrah - WBPCB",27-07-2024 07:00:00,22.629801,88.352017,OZONE,13,19,16
India,West_Bengal,Howrah,"Botanical Garden, Howrah - WBPCB",27-07-2024 07:00:00,22.554954,88.292568,PM2.5,2,31,16
India,West_Bengal,Howrah,"Botanical Garden, Howrah - WBPCB",27-07-2024 07:00:00,22.554954,88.292568,NH3,2,2,2
India,West_Bengal,Howrah,"Botanical Garden, Howrah - WBPCB",27-07-2024 07:00:00,22.554954,88.292568,OZONE,18,41,26
India,West_Bengal,Howrah,"Ghusuri, Howrah - WBPCB",27-07-2024 07:00:00,22.611968,88.347422,PM10,22,48,36
India,West_Bengal,Howrah,"Ghusuri, Howrah - WBPCB",27-07-2024 07:00:00,22.611968,88.347422,OZONE,11,17,14
India,West_Bengal,Kolkata,"Ballygunge, Kolkata - WBPCB",27-07-2024 07:00:00,22.5367507,88.3638022,NO2,2,106,28
India,West_Bengal,Kolkata,"Ballygunge, Kolkata - WBPCB",27-07-2024 07:00:00,22.5367507,88.3638022,NH3,5,21,10
India,West_Bengal,Kolkata,"Bidhannagar, Kolkata - WBPCB",27-07-2024 07:00:00,22.58157048,88.41002457,NO2,18,29,21
India,West_Bengal,Kolkata,"Bidhannagar, Kolkata - WBPCB",27-07-2024 07:00:00,22.58157048,88.41002457,SO2,5,14,12
India,West_Bengal,Kolkata,"Fort William, Kolkata - WBPCB",27-07-2024 07:00:00,22.556640,88.342674,SO2,7,9,9
India,West_Bengal,Kolkata,"Jadavpur, Kolkata - WBPCB",27-07-2024 07:00:00,22.49929,88.36917,PM2.5,20,42,30
India,West_Bengal,Kolkata,"Jadavpur, Kolkata - WBPCB",27-07-2024 07:00:00,22.49929,88.36917,NH3,5,5,5
India,West_Bengal,Kolkata,"Rabindra Bharati University, Kolkata - WBPCB",27-07-2024 07:00:00,22.627847,88.380669,PM2.5,10,26,18
India,West_Bengal,Kolkata,"Rabindra Bharati University, Kolkata - WBPCB",27-07-2024 07:00:00,22.627847,88.380669,NO2,30,57,42
India,West_Bengal,Kolkata,"Rabindra Bharati University, Kolkata - WBPCB",27-07-2024 07:00:00,22.627847,88.380669,SO2,7,10,8
India,West_Bengal,Kolkata,"Rabindra Sarobar, Kolkata - WBPCB",27-07-2024 07:00:00,22.51106,88.35142,NH3,6,8,7
India,West_Bengal,Kolkata,"Victoria, Kolkata - WBPCB",27-07-2024 07:00:00,22.5448082,88.3403691,PM2.5,21,45,29
India,West_Bengal,Kolkata,"Victoria, Kolkata - WBPCB",27-07-2024 07:00:00,22.5448082,88.3403691,NH3,5,5,5
India,West_Bengal,Kolkata,"Victoria, Kolkata - WBPCB",27-07-2024 07:00:00,22.5448082,88.3403691,SO2,5,7,6
India,West_Bengal,Kolkata,"Victoria, Kolkata - WBPCB",27-07-2024 07:00:00,22.5448082,88.3403691,CO,16,28,18
India,West_Bengal,Siliguri,"Ward-32 Bapupara, Siliguri - WBPCB",27-07-2024 07:00:00,26.6879226,88.4152495,PM10,24,69,42
India,West_Bengal,Siliguri,"Ward-32 Bapupara, Siliguri - WBPCB",27-07-2024 07:00:00,26.6879226,88.4152495,NO2,18,20,19
India,Andhra_Pradesh,Anantapur,"Gulzarpet, Anantapur - APPCB",27-07-2024 07:00:00,14.675886,77.593027,NO2,17,19,18
India,Andhra_Pradesh,Anantapur,"Gulzarpet, Anantapur - APPCB",27-07-2024 07:00:00,14.675886,77.593027,NH3,4,5,5
India,Andhra_Pradesh,Anantapur,"Gulzarpet, Anantapur - APPCB",27-07-2024 07:00:00,14.675886,77.593027,SO2,4,5,4
India,Andhra_Pradesh,Chittoor,"Gangineni Cheruvu, Chittoor - APPCB",27-07-2024 07:00:00,13.204880,79.097889,CO,22,36,29
India,Andhra_Pradesh,Kadapa,"Yerramukkapalli, Kadapa - APPCB",27-07-2024 07:00:00,14.465052,78.824187,PM10,NA,NA,NA
India,Andhra_Pradesh,Kadapa,"Yerramukkapalli, Kadapa - APPCB",27-07-2024 07:00:00,14.465052,78.824187,NO2,NA,NA,NA
India,Andhra_Pradesh,Kadapa,"Yerramukkapalli, Kadapa - APPCB",27-07-2024 07:00:00,14.465052,78.824187,NH3,NA,NA,NA
India,Andhra_Pradesh,Kadapa,"Yerramukkapalli, Kadapa - APPCB",27-07-2024 07:00:00,14.465052,78.824187,OZONE,NA,NA,NA
India,Andhra_Pradesh,Rajamahendravaram,"Anand Kala Kshetram, Rajamahendravaram - APPCB",27-07-2024 07:00:00,16.9872867,81.7363176,SO2,11,12,11
India,Andhra_Pradesh,Tirupati,"Vaikuntapuram, Tirupati - APPCB",27-07-2024 07:00:00,13.615387,79.409230,PM10,45,101,72
India,Andhra_Pradesh,Vijayawada,"HB Colony, Vijayawada - APPCB",27-07-2024 07:00:00,16.536107,80.594233,NO2,8,23,13
India,Andhra_Pradesh,Vijayawada,"Kanuru, Vijayawada - APPCB",27-07-2024 07:00:00,16.486692,80.699436,OZONE,22,36,24
India,Andhra_Pradesh,Vijayawada,"Rajiv Gandhi Park, Vijayawada - APPCB",27-07-2024 07:00:00,16.509717,80.612222,NO2,26,38,31
India,Andhra_Pradesh,Vijayawada,"Rajiv Gandhi Park, Vijayawada - APPCB",27-07-2024 07:00:00,16.509717,80.612222,SO2,8,11,9
India,Andhra_Pradesh,Vijayawada,"Rajiv Nagar, Vijayawada - APPCB",27-07-2024 07:00:00,16.554731,80.649110,PM2.5,25,39,30
India,Andhra_Pradesh,Vijayawada,"Rajiv Nagar, Vijayawada - APPCB",27-07-2024 07:00:00,16.554731,80.649110,NO2,10,10,10
India,Andhra_Pradesh,Visakhapatnam,"GVM Corporation, Visakhapatnam - APPCB",27-07-2024 07:00:00,17.72,83.3,PM2.5,10,55,40
India,Andhra_Pradesh,Visakhapatnam,"GVM Corporation, Visakhapatnam - APPCB",27-07-2024 07:00:00,17.72,83.3,NO2,36,53,42
India,Arunachal_Pradesh,Naharlagun,"Naharlagun, Naharlagun - APSPCB",27-07-2024 07:00:00,27.103358,93.679645,CO,NA,NA,NA
India,Assam,Byrnihat,"Central Academy for SFS, Byrnihat - PCBA",27-07-2024 07:00:00,26.071318,91.87488,PM2.5,NA,NA,NA
India,Assam,Byrnihat,"Central Academy for SFS, Byrnihat - PCBA",27-07-2024 07:00:00,26.071318,91.87488,NO2,12,38,21
India,Assam,Guwahati,"IITG, Guwahati - PCBA",27-07-2024 07:00:00,26.2028636,91.70046436,NH3,5,5,5
India,Assam,Guwahati,"IITG, Guwahati - PCBA",27-07-2024 07:00:00,26.2028636,91.70046436,SO2,14,17,15
India,Assam,Guwahati,"LGBI Airport, Guwahati - PCBA",27-07-2024 07:00:00,26.10887,91.589544,NH3,1,10,3
India,Assam,Guwahati,"LGBI Airport, Guwahati - PCBA",27-07-2024 07:00:00,26.10887,91.589544,SO2,1,56,14
India,Assam,Guwahati,"Pan Bazaar, Guwahati - PCBA",27-07-2024 07:00:00,26.187500,91.744194,NO2,NA,NA,NA
India,Assam,Guwahati,"Railway Colony, Guwahati - PCBA",27-07-2024 07:00:00,26.181742,91.78063,PM2.5,25,81,41
India,Assam,Nagaon,"Christianpatty, Nagaon - PCBA",27-07-2024 07:00:00,26.349082,92.68449,PM10,15,35,19
India,Assam,Nagaon,"Christianpatty, Nagaon - PCBA",27-07-2024 07:00:00,26.349082,92.68449,OZONE,14,333,333
India,Assam,Nalbari,"Bata Chowk, Nalbari - PCBA",27-07-2024 07:00:00,26.446912,91.439057,CO,28,61,33
India,Assam,Silchar,"Tarapur, Silchar - PCBA",27-07-2024 07:00:00,24.82827,92.79525,SO2,1,4,4
India,Assam,Silchar,"Tarapur, Silchar - PCBA",27-07-2024 07:00:00,24.82827,92.79525,CO,28,61,43
India,Assam,Silchar,"Tarapur, Silchar - PCBA",27-07-2024 07:00:00,24.82827,92.79525,OZONE,NA,NA,NA
India,Assam,Sivasagar,"Girls College, Sivasagar - PCBA",27-07-2024 07:00:00,26.987634,94.636574,NO2,5,11,7
India,Assam,Sivasagar,"Girls College, Sivasagar - PCBA",27-07-2024 07:00:00,26.987634,94.636574,OZONE,1,9,1
India,Bihar,Araria,"Kharahiya Basti, Araria - BSPCB",27-07-2024 07:00:00,26.146529,87.454184,PM2.5,NA,NA,NA
India,Bihar,Araria,"Kharahiya Basti, Araria - BSPCB",27-07-2024 07:00:00,26.146529,87.454184,PM10,NA,NA,NA
India,Bihar,Arrah,"New DM Office, Arrah - BSPCB",27-07-2024 07:00:00,25.5626095,84.663264,PM2.5,NA,NA,NA
India,Bihar,Arrah,"New DM Office, Arrah - BSPCB",27-07-2024 07:00:00,25.5626095,84.663264,NO2,NA,NA,NA
India,Bihar,Bettiah,"Kamalnath Nagar, Bettiah - BSPCB",27-07-2024 07:00:00,26.80365,84.51954,NH3,13,28,17
India,Bihar,Bettiah,"Kamalnath Nagar, Bettiah - BSPCB",27-07-2024 07:00:00,26.80365,84.51954,CO,32,54,41
India,Bihar,Bhagalpur,"DM Office_Kachari Chowk, Bhagalpur - BSPCB",27-07-2024 07:00:00,25.251013,86.989001,NO2,16,36,28
India,Bihar,Bhagalpur,"DM Office_Kachari Chowk, Bhagalpur - BSPCB",27-07-2024 07:00:00,25.251013,86.989001,CO,39,100,51
India,Bihar,Bhagalpur,"DM Office_Kachari Chowk, Bhagalpur - BSPCB",27-07-2024 07:00:00,25.251013,86.989001,OZONE,44,51,47
India,Bihar,Bhagalpur,"Mayaganj, Bhagalpur - BSPCB",27-07-2024 07:00:00,25.265194,87.012947,PM2.5,40,150,68
India,Bihar,Bhagalpur,"Mayaganj, Bhagalpur - BSPCB",27-07-2024 07:00:00,25.265194,87.012947,NH3,4,19,10
India,Bihar,Bhagalpur,"Mayaganj, Bhagalpur - BSPCB",27-07-2024 07:00:00,25.265194,87.012947,SO2,33,38,35
India,Bihar,Buxar,"Charitra Van, Buxar - BSPCB (Formerly known as Central Jail)",27-07-2024 07:00:00,25.567520,83.966379,PM10,9,133,67
India,Bihar,Buxar,"Charitra Van, Buxar - BSPCB (Formerly known as Central Jail)",27-07-2024 07:00:00,25.567520,83.966379,OZONE,7,15,11
India,Bihar,Chhapra,"Darshan Nagar, Chhapra - BSPCB",27-07-2024 07:00:00,25.7808257,84.7446768,SO2,19,100,65
India,Bihar,Chhapra,"Darshan Nagar, Chhapra - BSPCB",27-07-2024 07:00:00,25.7808257,84.7446768,OZONE,8,40,29
India,Bihar,Gaya,"Collectorate, Gaya - BSPCB",27-07-2024 07:00:00,24.7955,84.9994,OZONE,20,22,20
India,Bihar,Gaya,"SFTI Kusdihra, Gaya - BSPCB",27-07-2024 07:00:00,24.762518,84.982348,PM10,21,45,31
India,Bihar,Katihar,"Mirchaibari, Katihar - BSPCB",27-07-2024 07:00:00,25.560083,87.553265,NH3,1,6,3
India,Bihar,Kishanganj,"SDM Office_Khagra, Kishanganj - BSPCB",27-07-2024 07:00:00,26.0881305,87.93840336,OZONE,19,98,20
India,Bihar,Manguraha,"Forest Rest House, Manguraha - BSPCB",27-07-2024 07:00:00,27.308328,84.531742,PM2.5,NA,NA,NA
India,Bihar,Motihari,"Gandak Colony, Motihari - BSPCB",27-07-2024 07:00:00,26.63086,84.90051,NH3,1,12,6
India,Bihar,Motihari,"Gandak Colony, Motihari - BSPCB",27-07-2024 07:00:00,26.63086,84.90051,OZONE,8,21,13
India,Bihar,Munger,"Town Hall, Munger - BSPCB",27-07-2024 07:00:00,25.376776,86.471523,PM10,6,464,165
India,Bihar,Munger,"Town Hall, Munger - BSPCB",27-07-2024 07:00:00,25.376776,86.471523,SO2,14,30,23
India,Bihar,Muzaffarpur,"Buddha Colony, Muzaffarpur - BSPCB",27-07-2024 07:00:00,26.11442,85.39813,NO2,22,51,32
India,Bihar,Muzaffarpur,"Buddha Colony, Muzaffarpur - BSPCB",27-07-2024 07:00:00,26.11442,85.39813,CO,25,49,33
India,Bihar,Patna,"DRM Office Danapur, Patna - BSPCB",27-07-2024 07:00:00,25.586562,85.043586,NO2,32,304,66
India,Bihar,Patna,"DRM Office Danapur, Patna - BSPCB",27-07-2024 07:00:00,25.586562,85.043586,OZONE,5,31,10
India,Bihar,Patna,"Govt. High School Shikarpur, Patna - BSPCB",27-07-2024 07:00:00,25.592539,85.227158,PM2.5,42,81,59
India,Bihar,Patna,"Govt. High School Shikarpur, Patna - BSPCB",27-07-2024 07:00:00,25.592539,85.227158,PM10,50,101,75
India,Bihar,Patna,"IGSC Planetarium Complex, Patna - BSPCB",27-07-2024 07:00:00,25.610369,85.132568,PM2.5,33,85,58
India,Bihar,Patna,"IGSC Planetarium Complex, Patna - BSPCB",27-07-2024 07:00:00,25.610369,85.132568,CO,16,20,17
India,Bihar,Patna,"IGSC Planetarium Complex, Patna - BSPCB",27-07-2024 07:00:00,25.610369,85.132568,OZONE,38,90,84
India,Bihar,Patna,"Muradpur, Patna - BSPCB",27-07-2024 07:00:00,25.619651,85.147382,SO2,5,6,6
India,Bihar,Patna,"Samanpura, Patna - BSPCB",27-07-2024 07:00:00,25.596727,85.085624,SO2,4,5,4
India,Bihar,Samastipur,"DM Office_Kasipur, Samastipur - BSPCB",27-07-2024 07:00:00,25.859655,85.77944,OZONE,1,71,3
India,Bihar,Sasaram,"Dada Peer, Sasaram - BSPCB",27-07-2024 07:00:00,24.952822,84.002396,PM10,3,74,32
India,Bihar,Sasaram,"Dada Peer, Sasaram - BSPCB",27-07-2024 07:00:00,24.952822,84.002396,NO2,9,10,9
India,Bihar,Siwan,"Chitragupta Nagar, Siwan - BSPCB",27-07-2024 07:00:00,26.2271665,84.3570427,PM10,NA,NA,NA
India,Bihar,Siwan,"Chitragupta Nagar, Siwan - BSPCB",27-07-2024 07:00:00,26.2271665,84.3570427,NO2,NA,NA,NA
India,Chandigarh,Chandigarh,"Sector-25, Chandigarh - CPCC",27-07-2024 07:00:00,30.751462,76.762879,NO2,13,54,26
India,Chandigarh,Chandigarh,"Sector-25, Chandigarh - CPCC",27-07-2024 07:00:00,30.751462,76.762879,NH3,14,27,20
India,Chandigarh,Chandigarh,"Sector-53, Chandigarh - CPCC",27-07-2024 07:00:00,30.719859,76.738637,PM10,19,80,49
India,Chandigarh,Chandigarh,"Sector-53, Chandigarh - CPCC",27-07-2024 07:00:00,30.719859,76.738637,NH3,3,13,8
India,Chhattisgarh,Bhilai,"32Bungalows, Bhilai - CECB",27-07-2024 07:00:00,21.194815,81.314770,PM10,14,23,19
India,Chhattisgarh,Bhilai,"32Bungalows, Bhilai - CECB",27-07-2024 07:00:00,21.194815,81.314770,SO2,9,11,10
India,Chhattisgarh,Bhilai,"Hathkhoj, Bhilai - CECB",27-07-2024 07:00:00,21.224231,81.408350,NH3,7,7,7
India,Chhattisgarh,Bilaspur,"Mangala, Bilaspur - NTPC",27-07-2024 07:00:00,22.08815,82.13737,NO2,12,14,12
India,Chhattisgarh,Chhal,"Nawapara SECL Colony, Chhal - CECB",27-07-2024 07:00:00,22.118125,83.140608,PM2.5,5,27,14
India,Chhattisgarh,Korba,"Rampur, Korba - CECB",27-07-2024 07:00:00,22.368195,82.746431,NH3,1,1,1
India,Chhattisgarh,Korba,"Rampur, Korba - CECB",27-07-2024 07:00:00,22.368195,82.746431,SO2,5,10,8
India,Chhattisgarh,Kunjemura,"OP Jindal School, Kunjemura - CECB",27-07-2024 07:00:00,22.126650,83.483212,SO2,2,5,4
India,Chhattisgarh,Raipur,"Bhatagaon New ISBT, Raipur - CECB",27-07-2024 07:00:00,21.219665,81.630094,NO2,4,5,4
India,Chhattisgarh,Raipur,"Siltara Phase-II, Raipur - CECB",27-07-2024 07:00:00,21.371751,81.664929,PM2.5,9,32,22
India,Chhattisgarh,Tumidih,"OP Jindal Industrial Park, Tumidih - CECB",27-07-2024 07:00:00,22.06631475,83.33820077,CO,12,19,17
India,Delhi,Delhi,"Alipur, Delhi - DPCC",27-07-2024 07:00:00,28.815329,77.153010,NO2,23,46,33
India,Delhi,Delhi,"Anand Vihar, Delhi - DPCC",27-07-2024 07:00:00,28.647622,77.3158090,NO2,21,175,68
India,Delhi,Delhi,"Ashok Vihar, Delhi - DPCC",27-07-2024 07:00:00,28.695381,77.181665,PM2.5,23,273,118
India,Delhi,Delhi,"Ashok Vihar, Delhi - DPCC",27-07-2024 07:00:00,28.695381,77.181665,NH3,7,24,15
India,Delhi,Delhi,"Bawana, Delhi - DPCC",27-07-2024 07:00:00,28.776200,77.051074,PM2.5,5,303,122
India,Delhi,Delhi,"Bawana, Delhi - DPCC",27-07-2024 07:00:00,28.776200,77.051074,CO,36,88,68
India,Delhi,Delhi,"Burari Crossing, Delhi - IMD",27-07-2024 07:00:00,28.7256504,77.2011573,PM2.5,6,217,79
India,Delhi,Delhi,"CRRI Mathura Road, Delhi - IMD",27-07-2024 07:00:00,28.5512005,77.2735737,PM2.5,10,105,47
India,Delhi,Delhi,"CRRI Mathura Road, Delhi - IMD",27-07-2024 07:00:00,28.5512005,77.2735737,CO,48,80,56
India,Delhi,Delhi,"Chandni Chowk, Delhi - IITM",27-07-2024 07:00:00,28.656756,77.227234,SO2,1,45,16
India,Delhi,Delhi,"Chandni Chowk, Delhi - IITM",27-07-2024 07:00:00,28.656756,77.227234,CO,7,79,21
India,Delhi,Delhi,"DTU, Delhi - CPCB",27-07-2024 07:00:00,28.7500499,77.1112615,PM10,20,198,95
India,Delhi,Delhi,"DTU, Delhi - CPCB",27-07-2024 07:00:00,28.7500499,77.1112615,CO,25,56,42
India,Delhi,Delhi,"Dwarka-Sector 8, Delhi - DPCC ",27-07-2024 07:00:00,28.5710274,77.0719006,PM10,30,255,133
India,Delhi,Delhi,"Jahangirpuri, Delhi - DPCC",27-07-2024 07:00:00,28.732820,77.170633,PM2.5,27,250,126
India,Delhi,Delhi,"Jahangirpuri, Delhi - DPCC",27-07-2024 07:00:00,28.732820,77.170633,PM10,29,277,171
India,Delhi,Delhi,"Jahangirpuri, Delhi - DPCC",27-07-2024 07:00:00,28.732820,77.170633,NO2,9,77,37
India,Delhi,Delhi,"Jawaharlal Nehru Stadium, Delhi - DPCC",27-07-2024 07:00:00,28.580280,77.233829,SO2,1,19,6
India,Delhi,Delhi,"Lodhi Road, Delhi - IMD",27-07-2024 07:00:00,28.5918245,77.2273074,PM2.5,NA,NA,NA
India,Delhi,Delhi,"Lodhi Road, Delhi - IMD",27-07-2024 07:00:00,28.5918245,77.2273074,NO2,NA,NA,NA
India,Delhi,Delhi,"Major Dhyan Chand National Stadium, Delhi - DPCC",27-07-2024 07:00:00,28.611281,77.237738,NH3,8,12,10
India,Delhi,Delhi,"Major Dhyan Chand National Stadium, Delhi - DPCC",27-07-2024 07:00:00,28.611281,77.237738,SO2,1,12,6
India,Delhi,Delhi,"Major Dhyan Chand National Stadium, Delhi - DPCC",27-07-2024 07:00:00,28.611281,77.237738,CO,42,108,58
India,Delhi,Delhi,"Mandir Marg, Delhi - DPCC",27-07-2024 07:00:00,28.636429,77.201067,OZONE,2,100,6
India,Delhi,Delhi,"Mundka, Delhi - DPCC",27-07-2024 07:00:00,28.684678,77.076574,CO,38,100,68
India,Delhi,Delhi,"NSIT Dwarka, Delhi - CPCB",27-07-2024 07:00:00,28.60909,77.0325413,PM2.5,37,200,116
India,Delhi,Delhi,"NSIT Dwarka, Delhi - CPCB",27-07-2024 07:00:00,28.60909,77.0325413,NO2,22,36,29
India,Delhi,Delhi,"Najafgarh, Delhi - DPCC",27-07-2024 07:00:00,28.570173,76.933762,NO2,6,19,9
India,Delhi,Delhi,"Najafgarh, Delhi - DPCC",27-07-2024 07:00:00,28.570173,76.933762,CO,38,98,52
India,Delhi,Delhi,"Najafgarh, Delhi - DPCC",27-07-2024 07:00:00,28.570173,76.933762,OZONE,6,58,24
India,Delhi,Delhi,"Narela, Delhi - DPCC",27-07-2024 07:00:00,28.822836,77.101981,PM2.5,27,158,82
India,Delhi,Delhi,"Narela, Delhi - DPCC",27-07-2024 07:00:00,28.822836,77.101981,SO2,4,18,9
India,Delhi,Delhi,"North Campus, DU, Delhi - IMD",27-07-2024 07:00:00,28.6573814,77.1585447,CO,30,79,57
India,Delhi,Delhi,"North Campus, DU, Delhi - IMD",27-07-2024 07:00:00,28.6573814,77.1585447,OZONE,7,34,12
India,Delhi,Delhi,"Patparganj, Delhi - DPCC",27-07-2024 07:00:00,28.623763,77.287209,PM10,19,189,103
India,Delhi,Delhi,"Punjabi Bagh, Delhi - DPCC",27-07-2024 07:00:00,28.674045,77.131023,PM10,19,255,122
India,Delhi,Delhi,"Pusa, Delhi - DPCC",27-07-2024 07:00:00,28.639652,77.146275,PM10,18,213,133
India,Delhi,Delhi,"Pusa, Delhi - DPCC",27-07-2024 07:00:00,28.639652,77.146275,SO2,2,9,6
India,Delhi,Delhi,"Pusa, Delhi - DPCC",27-07-2024 07:00:00,28.639652,77.146275,CO,21,107,44
India,Delhi,Delhi,"Pusa, Delhi - IMD",27-07-2024 07:00:00,28.636110,77.173332,OZONE,1,70,29
India,Delhi,Delhi,"R K Puram, Delhi - DPCC",27-07-2024 07:00:00,28.563262,77.186937,PM2.5,37,362,173
India,Delhi,Delhi,"R K Puram, Delhi - DPCC",27-07-2024 07:00:00,28.563262,77.186937,NO2,20,152,46
India,Delhi,Delhi,"Rohini, Delhi - DPCC",27-07-2024 07:00:00,28.732528,77.119920,PM2.5,42,301,142
India,Delhi,Delhi,"Rohini, Delhi - DPCC",27-07-2024 07:00:00,28.732528,77.119920,OZONE,19,59,26
India,Delhi,Delhi,"Shadipur, Delhi - CPCB",27-07-2024 07:00:00,28.6514781,77.1473105,PM10,26,145,80
India,Delhi,Delhi,"Shadipur, Delhi - CPCB",27-07-2024 07:00:00,28.6514781,77.1473105,SO2,2,59,18
India,Delhi,Delhi,"Sirifort, Delhi - CPCB",27-07-2024 07:00:00,28.5504249,77.2159377,NO2,18,54,38
India,Delhi,Delhi,"Sirifort, Delhi - CPCB",27-07-2024 07:00:00,28.5504249,77.2159377,NH3,8,11,10
India,Delhi,Delhi,"Sri Aurobindo Marg, Delhi - DPCC",27-07-2024 07:00:00,28.531346,77.190156,SO2,7,16,11
India,Delhi,Delhi,"Sri Aurobindo Marg, Delhi - DPCC",27-07-2024 07:00:00,28.531346,77.190156,CO,41,110,67
India,Delhi,Delhi,"Vivek Vihar, Delhi - DPCC",27-07-2024 07:00:00,28.672342,77.315260,OZONE,2,68,4
India,Delhi,Delhi,"Wazirpur, Delhi - DPCC",27-07-2024 07:00:00,28.699793,77.165453,NH3,NA,NA,NA
India,Delhi,Delhi,"Wazirpur, Delhi - DPCC",27-07-2024 07:00:00,28.699793,77.165453,OZONE,NA,NA,NA
India,Gujarat,Ahmedabad,"Chandkheda, Ahmedabad - IITM",27-07-2024 07:00:00,23.107969,72.574648,PM10,37,66,49
India,Gujarat,Ahmedabad,"Chandkheda, Ahmedabad - IITM",27-07-2024 07:00:00,23.107969,72.574648,OZONE,4,35,8
India,Gujarat,Ahmedabad,"Maninagar, Ahmedabad - GPCB",27-07-2024 07:00:00,23.002657,72.591912,PM10,90,126,109
India,Gujarat,Ahmedabad,"Raikhad, Ahmedabad - IITM",27-07-2024 07:00:00,23.020509,72.579261,PM10,54,129,76
India,Gujarat,Ahmedabad,"Rakhial, Ahmedabad - IITM",27-07-2024 07:00:00,23.016834,72.625775,PM2.5,54,114,75
India,Gujarat,Ahmedabad,"Rakhial, Ahmedabad - IITM",27-07-2024 07:00:00,23.016834,72.625775,CO,30,45,33
India,Gujarat,Ahmedabad,"SVPI Airport Hansol, Ahmedabad - IITM",27-07-2024 07:00:00,23.076793,72.627874,OZONE,8,34,12
India,Gujarat,Ahmedabad,"Sardar Vallabhbhai Patel Stadium, Ahmedabad - IITM",27-07-2024 07:00:00,23.043070,72.562968,NO2,NA,NA,NA
India,Gujarat,Ankleshwar,"GIDC, Ankleshwar - GPCB",27-07-2024 07:00:00,21.613267,73.010555,CO,34,75,52
India,Gujarat,Ankleshwar,"GIDC, Ankleshwar - GPCB",27-07-2024 07:00:00,21.613267,73.010555,OZONE,23,26,24
India,Gujarat,Gandhinagar,"GIFT City, Gandhinagar - IITM",27-07-2024 07:00:00,23.163798,72.677768,PM2.5,34,62,49
India,Gujarat,Gandhinagar,"Sector-10, Gandhinagar - GPCB",27-07-2024 07:00:00,23.221714,72.654328,NH3,1,1,1
India,Gujarat,Gandhinagar,"Sector-10, Gandhinagar - GPCB",27-07-2024 07:00:00,23.221714,72.654328,SO2,4,6,6
India,Gujarat,Surat,"Science Center, Surat - SMC",27-07-2024 07:00:00,21.170046,72.795405,PM10,35,70,52
India,Gujarat,Surat,"Science Center, Surat - SMC",27-07-2024 07:00:00,21.170046,72.795405,SO2,11,13,12
India,Gujarat,Vapi,"Phase-1 GIDC, Vapi - GPCB",27-07-2024 07:00:00,20.362421,72.918013,SO2,50,52,51
India,Haryana,Ambala,"Patti Mehar, Ambala - HSPCB",27-07-2024 07:00:00,30.379589,76.778328,OZONE,39,51,42
India,Haryana,Bahadurgarh,"Arya Nagar, Bahadurgarh - HSPCB",27-07-2024 07:00:00,28.6701,76.9254,SO2,4,106,17
India,Haryana,Ballabgarh,"Nathu Colony, Ballabgarh - HSPCB",27-07-2024 07:00:00,28.3419248,77.319699,NO2,8,25,11
India,Haryana,Bhiwani,"H.B. Colony, Bhiwani - HSPCB",27-07-2024 07:00:00,28.806223,76.141105,PM2.5,12,67,33
India,Haryana,Charkhi Dadri,"Mini Secretariat, Charkhi Dadri - HSPCB",27-07-2024 07:00:00,28.593883,76.270653,PM2.5,30,112,54
India,Haryana,Charkhi Dadri,"Mini Secretariat, Charkhi Dadri - HSPCB",27-07-2024 07:00:00,28.593883,76.270653,NH3,6,8,7
India,Haryana,Charkhi Dadri,"Mini Secretariat, Charkhi Dadri - HSPCB",27-07-2024 07:00:00,28.593883,76.270653,SO2,9,20,15
India,Haryana,Charkhi Dadri,"Mini Secretariat, Charkhi Dadri - HSPCB",27-07-2024 07:00:00,28.593883,76.270653,CO,14,46,23
India,Haryana,Dharuhera,"Municipal Corporation Office, Dharuhera -  HSPCB",27-07-2024 07:00:00,28.206800,76.799700,PM2.5,42,91,65
India,Haryana,Faridabad,"Sector 11, Faridabad - HSPCB",27-07-2024 07:00:00,28.376058,77.315741,PM10,NA,NA,NA
India,Haryana,Faridabad,"Sector- 16A, Faridabad - HSPCB",27-07-2024 07:00:00,28.4088421,77.3099081,CO,23,83,37
India,Haryana,Fatehabad,"Huda Sector, Fatehabad - HSPCB",27-07-2024 07:00:00,29.503664,75.467934,NO2,29,31,30
India,Haryana,Fatehabad,"Huda Sector, Fatehabad - HSPCB",27-07-2024 07:00:00,29.503664,75.467934,CO,119,120,120
India,Haryana,Gurugram,"Sector-51, Gurugram - HSPCB",27-07-2024 07:00:00,28.4227,77.0667,SO2,3,8,5
India,Haryana,Gurugram,"Teri Gram, Gurugram - HSPCB",27-07-2024 07:00:00,28.4275,77.1465,PM2.5,24,295,117
India,Haryana,Hisar,"Urban Estate-II, Hisar - HSPCB",27-07-2024 07:00:00,29.140560,75.744941,PM10,NA,NA,NA
India,Haryana,Hisar,"Urban Estate-II, Hisar - HSPCB",27-07-2024 07:00:00,29.140560,75.744941,CO,25,27,25
India,Haryana,Jind,"Police Lines, Jind - HSPCB",27-07-2024 07:00:00,29.307814,76.337619,PM2.5,20,46,35
India,Haryana,Jind,"Police Lines, Jind - HSPCB",27-07-2024 07:00:00,29.307814,76.337619,PM10,7,133,76
India,Haryana,Kaithal,"Rishi Nagar, Kaithal - HSPCB",27-07-2024 07:00:00,29.8006,76.4155,CO,4,46,35
India,Haryana,Karnal,"Sector-12, Karnal - HSPCB",27-07-2024 07:00:00,29.695300,77.002700,PM2.5,21,103,60
India,Haryana,Karnal,"Sector-12, Karnal - HSPCB",27-07-2024 07:00:00,29.695300,77.002700,NH3,10,13,11
India,Haryana,Karnal,"Sector-12, Karnal - HSPCB",27-07-2024 07:00:00,29.695300,77.002700,OZONE,10,44,39
India,Haryana,Kurukshetra,"Sector-7, Kurukshetra - HSPCB",27-07-2024 07:00:00,29.966942,76.875879,NO2,15,20,18
India,Haryana,Kurukshetra,"Sector-7, Kurukshetra - HSPCB",27-07-2024 07:00:00,29.966942,76.875879,OZONE,19,72,38
India,Haryana,Mandikhera,"General Hospital, Mandikhera - HSPCB",27-07-2024 07:00:00,27.9002,76.9938,NH3,NA,NA,NA
India,Haryana,Manesar,"Sector-2 IMT, Manesar - HSPCB",27-07-2024 07:00:00,28.360699,76.936090,SO2,NA,NA,NA
India,Haryana,Narnaul,"Shastri Nagar, Narnaul - HSPCB",27-07-2024 07:00:00,28.060249,76.113115,CO,7,46,22
India,Haryana,Panchkula,"Sector-6, Panchkula - HSPCB ",27-07-2024 07:00:00,30.7057778,76.8531805555555,NO2,17,21,20
India,Haryana,Panipat,"Sector-18, Panipat - HSPCB",27-07-2024 07:00:00,29.432304,76.972765,NH3,2,3,2
India,Haryana,Sirsa,"F-Block, Sirsa - HSPCB",27-07-2024 07:00:00,29.536400,75.015800,PM10,9,73,39
India,Haryana,Sonipat,"Murthal, Sonipat - HSPCB",27-07-2024 07:00:00,29.027200,77.062100,PM2.5,NA,NA,NA
India,Haryana,Yamuna Nagar,"Gobind Pura, Yamuna Nagar - HSPCB",27-07-2024 07:00:00,30.1480566,77.2893471,PM2.5,18,69,37
India,Haryana,Yamuna Nagar,"Gobind Pura, Yamuna Nagar - HSPCB",27-07-2024 07:00:00,30.1480566,77.2893471,SO2,NA,NA,NA
India,Haryana,Yamuna Nagar,"Gobind Pura, Yamuna Nagar - HSPCB",27-07-2024 07:00:00,30.1480566,77.2893471,CO,29,52,37
India,Himachal Pradesh,Baddi,"HIMUDA Complex Phase-1, Baddi - HPPCB",27-07-2024 07:00:00,30.943887,76.801991,PM2.5,42,312,135
India,Himachal Pradesh,Baddi,"HIMUDA Complex Phase-1, Baddi - HPPCB",27-07-2024 07:00:00,30.943887,76.801991,PM10,41,178,100
India,Himachal Pradesh,Baddi,"HIMUDA Complex Phase-1, Baddi - HPPCB",27-07-2024 07:00:00,30.943887,76.801991,NO2,10,36,21
India,Jharkhand,Dhanbad,"Kalakusuma, Dhanbad - DMC",27-07-2024 07:00:00,23.811548,86.481238,SO2,9,10,9
India,Jharkhand,Dhanbad,"Kalakusuma, Dhanbad - DMC",27-07-2024 07:00:00,23.811548,86.481238,CO,126,135,132
India,Jharkhand,Dhanbad,"Kalakusuma, Dhanbad - DMC",27-07-2024 07:00:00,23.811548,86.481238,OZONE,29,29,29
India,Jharkhand,Jorapokhar,"Tata Stadium, Jorapokhar - JSPCB",27-07-2024 07:00:00,23.707909,86.414670,NH3,NA,NA,NA
India,Jharkhand,Pathardih,"Mohalbani Ghat, Pathardih - DMC",27-07-2024 07:00:00,23.669880,86.411725,PM2.5,NA,NA,NA
India,Jharkhand,Pathardih,"Mohalbani Ghat, Pathardih - DMC",27-07-2024 07:00:00,23.669880,86.411725,SO2,NA,NA,NA
India,Karnataka,Bagalkot,"Vidayagiri, Bagalkot - KSPCB",27-07-2024 07:00:00,16.172806,75.659694,NH3,2,2,2
India,Karnataka,Bengaluru,"Bapuji Nagar, Bengaluru - KSPCB",27-07-2024 07:00:00,12.951913,77.539784,NH3,1,1,1
India,Karnataka,Bengaluru,"Hebbal, Bengaluru - KSPCB",27-07-2024 07:00:00,13.029152,77.585901,SO2,10,15,12
India,Karnataka,Bengaluru,"Hombegowda Nagar, Bengaluru - KSPCB",27-07-2024 07:00:00,12.938539,77.590100,OZONE,2,15,9
India,Karnataka,Bengaluru,"Jayanagar 5th Block, Bengaluru - KSPCB",27-07-2024 07:00:00,12.920984,77.584908,PM10,9,37,22
