country,state,city,station,last_update,latitude,longitude,pollutant_id,pollutant_min,pollutant_max,pollutant_avg
India,Andhra_Pradesh,Amaravati,"Secretariat, Amaravati - APPCB",18-05-2024 22:00:00,16.5150833,80.5181667,NO2,5,15,12
India,Andhra_Pradesh,Amaravati,"Secretariat, Amaravati - APPCB",18-05-2024 22:00:00,16.5150833,80.5181667,NH3,2,4,3
India,Andhra_Pradesh,Anantapur,"Gulzarpet, Anantapur - APPCB",18-05-2024 22:00:00,14.675886,77.593027,PM10,NA,NA,NA
India,Andhra_Pradesh,Anantapur,"Gulzarpet, Anantapur - APPCB",18-05-2024 22:00:00,14.675886,77.593027,CO,26,49,36
India,Andhra_Pradesh,Anantapur,"Gulzarpet, Anantapur - APPCB",18-05-2024 22:00:00,14.675886,77.593027,OZONE,1,24,12
India,Andhra_Pradesh,Chittoor,"Gangineni Cheruvu, Chittoor - APPCB",18-05-2024 22:00:00,13.204880,79.097889,PM2.5,17,269,77
India,Andhra_Pradesh,Chittoor,"Gangineni Cheruvu, Chittoor - APPCB",18-05-2024 22:00:00,13.204880,79.097889,PM10,20,163,69
India,Andhra_Pradesh,Chittoor,"Gangineni Cheruvu, Chittoor - APPCB",18-05-2024 22:00:00,13.204880,79.097889,OZONE,13,13,13
India,Andhra_Pradesh,Kadapa,"Yerramukkapalli, Kadapa - APPCB",18-05-2024 22:00:00,14.465052,78.824187,PM2.5,NA,NA,NA
India,Andhra_Pradesh,Kadapa,"Yerramukkapalli, Kadapa - APPCB",18-05-2024 22:00:00,14.465052,78.824187,NO2,12,13,12
India,Andhra_Pradesh,Kadapa,"Yerramukkapalli, Kadapa - APPCB",18-05-2024 22:00:00,14.465052,78.824187,NH3,3,3,3
India,Andhra_Pradesh,Kadapa,"Yerramukkapalli, Kadapa - APPCB",18-05-2024 22:00:00,14.465052,78.824187,CO,9,24,16
India,Andhra_Pradesh,Kadapa,"Yerramukkapalli, Kadapa - APPCB",18-05-2024 22:00:00,14.465052,78.824187,OZONE,4,30,18
India,Andhra_Pradesh,Tirupati,"Tirumala, Tirupati - APPCB",18-05-2024 22:00:00,13.67,79.35,PM10,19,57,35
India,Andhra_Pradesh,Tirupati,"Tirumala, Tirupati - APPCB",18-05-2024 22:00:00,13.67,79.35,NH3,1,2,1
India,Andhra_Pradesh,Vijayawada,"HB Colony, Vijayawada - APPCB",18-05-2024 22:00:00,16.536107,80.594233,PM2.5,38,41,40
India,Andhra_Pradesh,Vijayawada,"Kanuru, Vijayawada - APPCB",18-05-2024 22:00:00,16.486692,80.699436,SO2,2,6,5
India,Andhra_Pradesh,Vijayawada,"Rajiv Gandhi Park, Vijayawada - APPCB",18-05-2024 22:00:00,16.509717,80.612222,PM10,30,55,41
India,Andhra_Pradesh,Vijayawada,"Rajiv Gandhi Park, Vijayawada - APPCB",18-05-2024 22:00:00,16.509717,80.612222,SO2,6,9,6
India,Andhra_Pradesh,Vijayawada,"Rajiv Gandhi Park, Vijayawada - APPCB",18-05-2024 22:00:00,16.509717,80.612222,CO,36,36,36
India,Andhra_Pradesh,Vijayawada,"Rajiv Nagar, Vijayawada - APPCB",18-05-2024 22:00:00,16.554731,80.649110,PM2.5,42,60,44
India,Andhra_Pradesh,Vijayawada,"Rajiv Nagar, Vijayawada - APPCB",18-05-2024 22:00:00,16.554731,80.649110,NO2,12,13,13
India,Andhra_Pradesh,Vijayawada,"Rajiv Nagar, Vijayawada - APPCB",18-05-2024 22:00:00,16.554731,80.649110,CO,36,36,36
India,Andhra_Pradesh,Visakhapatnam,"GVM Corporation, Visakhapatnam - APPCB",18-05-2024 22:00:00,17.72,83.3,NH3,2,4,3
India,Assam,Byrnihat,"Central Academy for SFS, Byrnihat - PCBA",18-05-2024 22:00:00,26.071318,91.87488,PM2.5,43,357,129
India,Assam,Byrnihat,"Central Academy for SFS, Byrnihat - PCBA",18-05-2024 22:00:00,26.071318,91.87488,NO2,28,50,34
India,Assam,Guwahati,"IITG, Guwahati - PCBA",18-05-2024 22:00:00,26.2028636,91.70046436,NO2,NA,NA,NA
India,Assam,Guwahati,"LGBI Airport, Guwahati - PCBA",18-05-2024 22:00:00,26.10887,91.589544,SO2,10,12,11
India,Assam,Nagaon,"Christianpatty, Nagaon - PCBA",18-05-2024 22:00:00,26.349082,92.68449,NH3,2,3,2
India,Assam,Nalbari,"Bata Chowk, Nalbari - PCBA",18-05-2024 22:00:00,26.446912,91.439057,NH3,1,13,3
India,Assam,Silchar,"Tarapur, Silchar - PCBA",18-05-2024 22:00:00,24.82827,92.79525,NO2,13,13,13
India,Assam,Sivasagar,"Girls College, Sivasagar - PCBA",18-05-2024 22:00:00,26.987634,94.636574,PM10,44,78,55
India,Bihar,Arrah,"New DM Office, Arrah - BSPCB",18-05-2024 22:00:00,25.5626095,84.663264,PM2.5,40,133,71
India,Bihar,Arrah,"New DM Office, Arrah - BSPCB",18-05-2024 22:00:00,25.5626095,84.663264,NO2,9,32,16
India,Bihar,Arrah,"New DM Office, Arrah - BSPCB",18-05-2024 22:00:00,25.5626095,84.663264,CO,8,44,25
India,Bihar,Aurangabad,"Gurdeo Nagar, Aurangabad - BSPCB",18-05-2024 22:00:00,24.75746,84.366208,OZONE,47,130,98
India,Bihar,Bettiah,"Kamalnath Nagar, Bettiah - BSPCB",18-05-2024 22:00:00,26.80365,84.51954,PM10,NA,NA,NA
India,Bihar,Bettiah,"Kamalnath Nagar, Bettiah - BSPCB",18-05-2024 22:00:00,26.80365,84.51954,SO2,9,18,14
India,Bihar,Bhagalpur,"DM Office_Kachari Chowk, Bhagalpur - BSPCB",18-05-2024 22:00:00,25.251013,86.989001,NO2,46,79,60
India,Bihar,Bhagalpur,"DM Office_Kachari Chowk, Bhagalpur - BSPCB",18-05-2024 22:00:00,25.251013,86.989001,NH3,7,12,9
India,Bihar,Bhagalpur,"Mayaganj, Bhagalpur - BSPCB",18-05-2024 22:00:00,25.265194,87.012947,PM2.5,95,311,202
India,Bihar,Bhagalpur,"Mayaganj, Bhagalpur - BSPCB",18-05-2024 22:00:00,25.265194,87.012947,NO2,4,10,7
India,Bihar,Bihar Sharif,"D M Colony, Bihar Sharif - BSPCB",18-05-2024 22:00:00,25.204762,85.514960,PM2.5,12,93,51
India,Bihar,Bihar Sharif,"D M Colony, Bihar Sharif - BSPCB",18-05-2024 22:00:00,25.204762,85.514960,NH3,2,2,2
India,Bihar,Buxar,"Charitra Van, Buxar - BSPCB (Formerly known as Central Jail)",18-05-2024 22:00:00,25.567520,83.966379,NO2,1,1,1
India,Bihar,Buxar,"Charitra Van, Buxar - BSPCB (Formerly known as Central Jail)",18-05-2024 22:00:00,25.567520,83.966379,CO,24,122,74
India,Bihar,Gaya,"Collectorate, Gaya - BSPCB",18-05-2024 22:00:00,24.7955,84.9994,SO2,10,28,16
India,Bihar,Gaya,"SFTI Kusdihra, Gaya - BSPCB",18-05-2024 22:00:00,24.762518,84.982348,NO2,17,68,38
India,Bihar,Gaya,"SFTI Kusdihra, Gaya - BSPCB",18-05-2024 22:00:00,24.762518,84.982348,OZONE,3,91,62
India,Bihar,Hajipur,"Industrial Area, Hajipur - BSPCB",18-05-2024 22:00:00,25.697189,85.245900,PM2.5,166,357,258
India,Bihar,Katihar,"Mirchaibari, Katihar - BSPCB",18-05-2024 22:00:00,25.560083,87.553265,NO2,10,23,17
India,Bihar,Kishanganj,"SDM Office_Khagra, Kishanganj - BSPCB",18-05-2024 22:00:00,26.0881305,87.93840336,NH3,9,10,9
India,Bihar,Manguraha,"Forest Rest House, Manguraha - BSPCB",18-05-2024 22:00:00,27.308328,84.531742,PM10,NA,NA,NA
India,Bihar,Manguraha,"Forest Rest House, Manguraha - BSPCB",18-05-2024 22:00:00,27.308328,84.531742,NO2,21,25,23
India,Bihar,Manguraha,"Forest Rest House, Manguraha - BSPCB",18-05-2024 22:00:00,27.308328,84.531742,NH3,3,4,3
India,Bihar,Manguraha,"Forest Rest House, Manguraha - BSPCB",18-05-2024 22:00:00,27.308328,84.531742,CO,17,53,33
India,Bihar,Motihari,"Gandak Colony, Motihari - BSPCB",18-05-2024 22:00:00,26.63086,84.90051,PM2.5,160,302,228
India,Bihar,Munger,"Town Hall, Munger - BSPCB",18-05-2024 22:00:00,25.376776,86.471523,CO,4,90,77
India,Bihar,Muzaffarpur,"MIT-Daudpur Kothi, Muzaffarpur - BSPCB",18-05-2024 22:00:00,26.1403345,85.3650192,NO2,2,5,3
India,Bihar,Muzaffarpur,"MIT-Daudpur Kothi, Muzaffarpur - BSPCB",18-05-2024 22:00:00,26.1403345,85.3650192,NH3,1,1,1
India,Bihar,Muzaffarpur,"MIT-Daudpur Kothi, Muzaffarpur - BSPCB",18-05-2024 22:00:00,26.1403345,85.3650192,CO,9,115,106
India,Bihar,Muzaffarpur,"Muzaffarpur Collectorate, Muzaffarpur - BSPCB",18-05-2024 22:00:00,26.1209,85.3647,OZONE,59,97,74
India,Bihar,Patna,"DRM Office Danapur, Patna - BSPCB",18-05-2024 22:00:00,25.586562,85.043586,CO,12,108,45
India,Bihar,Patna,"Govt. High School Shikarpur, Patna - BSPCB",18-05-2024 22:00:00,25.592539,85.227158,PM2.5,151,337,249
India,Bihar,Patna,"Govt. High School Shikarpur, Patna - BSPCB",18-05-2024 22:00:00,25.592539,85.227158,PM10,138,227,173
India,Bihar,Patna,"Govt. High School Shikarpur, Patna - BSPCB",18-05-2024 22:00:00,25.592539,85.227158,NO2,19,26,23
India,Bihar,Patna,"Govt. High School Shikarpur, Patna - BSPCB",18-05-2024 22:00:00,25.592539,85.227158,SO2,8,13,10
India,Bihar,Patna,"Muradpur, Patna - BSPCB",18-05-2024 22:00:00,25.619651,85.147382,PM10,188,500,346
India,Bihar,Patna,"Muradpur, Patna - BSPCB",18-05-2024 22:00:00,25.619651,85.147382,NO2,14,117,57
India,Bihar,Patna,"Muradpur, Patna - BSPCB",18-05-2024 22:00:00,25.619651,85.147382,NH3,1,6,4
India,Bihar,Patna,"Rajbansi Nagar, Patna - BSPCB",18-05-2024 22:00:00,25.599486,85.113666,SO2,3,21,10
India,Bihar,Purnia,"Mariam Nagar, Purnia - BSPCB",18-05-2024 22:00:00,25.366336,87.117468,SO2,NA,NA,NA
India,Bihar,Purnia,"Mariam Nagar, Purnia - BSPCB",18-05-2024 22:00:00,25.366336,87.117468,CO,34,68,34
India,Bihar,Rajgir,"Dangi Tola, Rajgir - BSPCB",18-05-2024 22:00:00,25.03280,85.41948,SO2,2,6,4
India,Bihar,Rajgir,"Dangi Tola, Rajgir - BSPCB",18-05-2024 22:00:00,25.03280,85.41948,OZONE,27,49,36
India,Bihar,Saharsa,"Police Line, Saharsa - BSPCB",18-05-2024 22:00:00,25.892357,86.590325,PM2.5,87,332,197
India,Bihar,Saharsa,"Police Line, Saharsa - BSPCB",18-05-2024 22:00:00,25.892357,86.590325,CO,54,55,55
India,Bihar,Sasaram,"Dada Peer, Sasaram - BSPCB",18-05-2024 22:00:00,24.952822,84.002396,CO,30,88,64
India,Chandigarh,Chandigarh,"Sector 22, Chandigarh - CPCC",18-05-2024 22:00:00,30.735567,76.775714,SO2,11,54,33
India,Chandigarh,Chandigarh,"Sector-25, Chandigarh - CPCC",18-05-2024 22:00:00,30.751462,76.762879,PM2.5,73,257,177
India,Chandigarh,Chandigarh,"Sector-25, Chandigarh - CPCC",18-05-2024 22:00:00,30.751462,76.762879,PM10,77,280,158
India,Chandigarh,Chandigarh,"Sector-25, Chandigarh - CPCC",18-05-2024 22:00:00,30.751462,76.762879,CO,14,74,23
India,Chandigarh,Chandigarh,"Sector-53, Chandigarh - CPCC",18-05-2024 22:00:00,30.719859,76.738637,PM2.5,53,357,246
India,Chhattisgarh,Bhilai,"32Bungalows, Bhilai - CECB",18-05-2024 22:00:00,21.194815,81.314770,PM2.5,10,35,24
India,Chhattisgarh,Bhilai,"32Bungalows, Bhilai - CECB",18-05-2024 22:00:00,21.194815,81.314770,PM10,12,45,29
India,Chhattisgarh,Bhilai,"32Bungalows, Bhilai - CECB",18-05-2024 22:00:00,21.194815,81.314770,SO2,1,3,1
India,Chhattisgarh,Bhilai,"Civic Center, Bhilai - Bhilai Steel Plant",18-05-2024 22:00:00,21.185571,81.343175,NH3,3,8,5
India,Chhattisgarh,Bhilai,"Hathkhoj, Bhilai - CECB",18-05-2024 22:00:00,21.224231,81.408350,CO,8,80,12
India,Chhattisgarh,Bilaspur,"Mangala, Bilaspur - NTPC",18-05-2024 22:00:00,22.08815,82.13737,NO2,14,22,18
India,Chhattisgarh,Bilaspur,"Mangala, Bilaspur - NTPC",18-05-2024 22:00:00,22.08815,82.13737,CO,42,104,56
India,Chhattisgarh,Chhal,"Nawapara SECL Colony, Chhal - CECB",18-05-2024 22:00:00,22.118125,83.140608,NO2,9,37,23
India,Chhattisgarh,Korba,"Rampur, Korba - CECB",18-05-2024 22:00:00,22.368195,82.746431,SO2,1,2,1
India,Chhattisgarh,Korba,"Urja Nagar, Korba - CECB",18-05-2024 22:00:00,22.348441,82.549611,NO2,59,70,64
India,Chhattisgarh,Korba,"Urja Nagar, Korba - CECB",18-05-2024 22:00:00,22.348441,82.549611,SO2,1,3,2
India,Chhattisgarh,Kunjemura,"OP Jindal School, Kunjemura - CECB",18-05-2024 22:00:00,22.126650,83.483212,PM2.5,24,97,57
India,Chhattisgarh,Kunjemura,"OP Jindal School, Kunjemura - CECB",18-05-2024 22:00:00,22.126650,83.483212,PM10,39,181,95
India,Chhattisgarh,Milupara,"Govt. Higher Secondary School, Milupara - CECB",18-05-2024 22:00:00,22.1910172,83.5197009,PM2.5,14,65,38
India,Chhattisgarh,Milupara,"Govt. Higher Secondary School, Milupara - CECB",18-05-2024 22:00:00,22.1910172,83.5197009,NO2,12,82,51
India,Chhattisgarh,Raipur,"AIIMS, Raipur - CECB",18-05-2024 22:00:00,21.258815,81.578979,PM10,15,48,28
India,Chhattisgarh,Raipur,"Bhatagaon New ISBT, Raipur - CECB",18-05-2024 22:00:00,21.219665,81.630094,NH3,2,2,2
India,Chhattisgarh,Raipur,"Bhatagaon New ISBT, Raipur - CECB",18-05-2024 22:00:00,21.219665,81.630094,SO2,1,3,2
India,Chhattisgarh,Raipur,"Krishak Nagar, Raipur - CECB",18-05-2024 22:00:00,21.237755,81.705301,SO2,10,20,14
India,Chhattisgarh,Raipur,"Siltara Phase-II, Raipur - CECB",18-05-2024 22:00:00,21.371751,81.664929,PM2.5,43,69,54
India,Chhattisgarh,Raipur,"Siltara Phase-II, Raipur - CECB",18-05-2024 22:00:00,21.371751,81.664929,PM10,39,67,50
India,Chhattisgarh,Raipur,"Siltara Phase-II, Raipur - CECB",18-05-2024 22:00:00,21.371751,81.664929,CO,6,32,21
India,Delhi,Delhi,"Alipur, Delhi - DPCC",18-05-2024 22:00:00,28.815329,77.153010,PM10,149,424,298
India,Delhi,Delhi,"Alipur, Delhi - DPCC",18-05-2024 22:00:00,28.815329,77.153010,OZONE,1,200,118
India,Delhi,Delhi,"Anand Vihar, Delhi - DPCC",18-05-2024 22:00:00,28.647622,77.3158090,OZONE,6,78,37
India,Delhi,Delhi,"Ashok Vihar, Delhi - DPCC",18-05-2024 22:00:00,28.695381,77.181665,NO2,15,155,80
India,Delhi,Delhi,"Aya Nagar, Delhi - IMD",18-05-2024 22:00:00,28.4706914,77.1099364,CO,46,108,52
India,Delhi,Delhi,"Bawana, Delhi - DPCC",18-05-2024 22:00:00,28.776200,77.051074,PM2.5,83,404,268
India,Delhi,Delhi,"Bawana, Delhi - DPCC",18-05-2024 22:00:00,28.776200,77.051074,NH3,5,10,8
India,Delhi,Delhi,"Burari Crossing, Delhi - IMD",18-05-2024 22:00:00,28.7256504,77.2011573,OZONE,7,110,60
India,Delhi,Delhi,"DTU, Delhi - CPCB",18-05-2024 22:00:00,28.7500499,77.1112615,OZONE,26,122,37
India,Delhi,Delhi,"Dr. Karni Singh Shooting Range, Delhi - DPCC",18-05-2024 22:00:00,28.498571,77.264840,NO2,31,147,78
India,Delhi,Delhi,"IHBAS, Dilshad Garden, Delhi - CPCB",18-05-2024 22:00:00,28.6811736,77.3025234,NO2,21,40,35
India,Delhi,Delhi,"ITO, Delhi - CPCB",18-05-2024 22:00:00,28.628624,77.241060,PM2.5,27,325,258
India,Delhi,Delhi,"ITO, Delhi - CPCB",18-05-2024 22:00:00,28.628624,77.241060,CO,10,154,31
India,Delhi,Delhi,"Jawaharlal Nehru Stadium, Delhi - DPCC",18-05-2024 22:00:00,28.580280,77.233829,PM10,135,316,211
India,Delhi,Delhi,"Jawaharlal Nehru Stadium, Delhi - DPCC",18-05-2024 22:00:00,28.580280,77.233829,SO2,14,79,48
India,Delhi,Delhi,"Lodhi Road, Delhi - IMD",18-05-2024 22:00:00,28.5918245,77.2273074,NO2,8,40,22
India,Delhi,Delhi,"Lodhi Road, Delhi - IMD",18-05-2024 22:00:00,28.5918245,77.2273074,OZONE,3,77,39
India,Delhi,Delhi,"Major Dhyan Chand National Stadium, Delhi - DPCC",18-05-2024 22:00:00,28.611281,77.237738,NH3,8,12,10
India,Delhi,Delhi,"Major Dhyan Chand National Stadium, Delhi - DPCC",18-05-2024 22:00:00,28.611281,77.237738,OZONE,1,236,136
India,Delhi,Delhi,"Mundka, Delhi - DPCC",18-05-2024 22:00:00,28.684678,77.076574,PM2.5,83,427,269
India,Delhi,Delhi,"Mundka, Delhi - DPCC",18-05-2024 22:00:00,28.684678,77.076574,CO,36,98,49
India,Delhi,Delhi,"Najafgarh, Delhi - DPCC",18-05-2024 22:00:00,28.570173,76.933762,PM2.5,33,348,162
India,Delhi,Delhi,"Narela, Delhi - DPCC",18-05-2024 22:00:00,28.822836,77.101981,PM10,157,449,312
India,Delhi,Delhi,"Nehru Nagar, Delhi - DPCC",18-05-2024 22:00:00,28.567890,77.250515,PM2.5,75,332,223
India,Delhi,Delhi,"Nehru Nagar, Delhi - DPCC",18-05-2024 22:00:00,28.567890,77.250515,NO2,10,82,41
India,Delhi,Delhi,"Nehru Nagar, Delhi - DPCC",18-05-2024 22:00:00,28.567890,77.250515,NH3,4,9,5
India,Delhi,Delhi,"Okhla Phase-2, Delhi - DPCC",18-05-2024 22:00:00,28.530785,77.271255,PM2.5,68,328,216
India,Delhi,Delhi,"Okhla Phase-2, Delhi - DPCC",18-05-2024 22:00:00,28.530785,77.271255,PM10,157,436,283
India,Delhi,Delhi,"Patparganj, Delhi - DPCC",18-05-2024 22:00:00,28.623763,77.287209,NH3,7,10,8
India,Delhi,Delhi,"Pusa, Delhi - IMD",18-05-2024 22:00:00,28.636110,77.173332,PM10,NA,NA,NA
India,Delhi,Delhi,"R K Puram, Delhi - DPCC",18-05-2024 22:00:00,28.563262,77.186937,PM2.5,63,347,243
India,Delhi,Delhi,"R K Puram, Delhi - DPCC",18-05-2024 22:00:00,28.563262,77.186937,NO2,23,178,80
India,Delhi,Delhi,"R K Puram, Delhi - DPCC",18-05-2024 22:00:00,28.563262,77.186937,CO,26,130,89
India,Delhi,Delhi,"Rohini, Delhi - DPCC",18-05-2024 22:00:00,28.732528,77.119920,SO2,16,101,46
India,Delhi,Delhi,"Rohini, Delhi - DPCC",18-05-2024 22:00:00,28.732528,77.119920,CO,18,112,38
India,Delhi,Delhi,"Shadipur, Delhi - CPCB",18-05-2024 22:00:00,28.6514781,77.1473105,NO2,62,268,162
India,Delhi,Delhi,"Sonia Vihar, Delhi - DPCC",18-05-2024 22:00:00,28.710508,77.249485,NO2,16,128,68
India,Delhi,Delhi,"Sonia Vihar, Delhi - DPCC",18-05-2024 22:00:00,28.710508,77.249485,NH3,6,12,8
India,Delhi,Delhi,"Sonia Vihar, Delhi - DPCC",18-05-2024 22:00:00,28.710508,77.249485,OZONE,6,149,92
India,Delhi,Delhi,"Sri Aurobindo Marg, Delhi - DPCC",18-05-2024 22:00:00,28.531346,77.190156,NH3,8,14,10
India,Delhi,Delhi,"Sri Aurobindo Marg, Delhi - DPCC",18-05-2024 22:00:00,28.531346,77.190156,OZONE,2,134,65
India,Delhi,Delhi,"Vivek Vihar, Delhi - DPCC",18-05-2024 22:00:00,28.672342,77.315260,PM2.5,69,307,203
India,Delhi,Delhi,"Vivek Vihar, Delhi - DPCC",18-05-2024 22:00:00,28.672342,77.315260,SO2,27,67,45
India,Gujarat,Ahmedabad,"Chandkheda, Ahmedabad - IITM",18-05-2024 22:00:00,23.107969,72.574648,PM10,67,142,103
India,Gujarat,Ahmedabad,"Gyaspur, Ahmedabad - IITM",18-05-2024 22:00:00,22.977134,72.553024,NO2,39,50,46
India,Gujarat,Ahmedabad,"Gyaspur, Ahmedabad - IITM",18-05-2024 22:00:00,22.977134,72.553024,CO,46,69,53
India,Gujarat,Ahmedabad,"Maninagar, Ahmedabad - GPCB",18-05-2024 22:00:00,23.002657,72.591912,PM2.5,18,141,66
India,Gujarat,Ahmedabad,"Raikhad, Ahmedabad - IITM",18-05-2024 22:00:00,23.020509,72.579261,NO2,NA,NA,NA
India,Gujarat,Ahmedabad,"Rakhial, Ahmedabad - IITM",18-05-2024 22:00:00,23.016834,72.625775,SO2,6,22,13
India,Gujarat,Ahmedabad,"SVPI Airport Hansol, Ahmedabad - IITM",18-05-2024 22:00:00,23.076793,72.627874,PM2.5,NA,NA,NA
India,Gujarat,Ahmedabad,"SVPI Airport Hansol, Ahmedabad - IITM",18-05-2024 22:00:00,23.076793,72.627874,NO2,30,44,37
India,Gujarat,Ahmedabad,"Sardar Vallabhbhai Patel Stadium, Ahmedabad - IITM",18-05-2024 22:00:00,23.043070,72.562968,PM2.5,67,157,97
India,Gujarat,Ankleshwar,"GIDC, Ankleshwar - GPCB",18-05-2024 22:00:00,21.613267,73.010555,NO2,25,36,32
India,Gujarat,Ankleshwar,"GIDC, Ankleshwar - GPCB",18-05-2024 22:00:00,21.613267,73.010555,NH3,3,5,4
India,Gujarat,Surat,"Science Center, Surat - SMC",18-05-2024 22:00:00,21.170046,72.795405,SO2,11,15,13
India,Gujarat,Vatva,"Phase-4 GIDC, Vatva - GPCB",18-05-2024 22:00:00,22.969611,72.643500,PM2.5,16,58,34
India,Gujarat,Vatva,"Phase-4 GIDC, Vatva - GPCB",18-05-2024 22:00:00,22.969611,72.643500,NO2,22,106,46
India,Gujarat,Vatva,"Phase-4 GIDC, Vatva - GPCB",18-05-2024 22:00:00,22.969611,72.643500,SO2,3,30,11
India,Haryana,Ballabgarh,"Nathu Colony, Ballabgarh - HSPCB",18-05-2024 22:00:00,28.3419248,77.319699,PM10,111,443,280
India,Haryana,Ballabgarh,"Nathu Colony, Ballabgarh - HSPCB",18-05-2024 22:00:00,28.3419248,77.319699,CO,4,110,55
India,Haryana,Bhiwani,"H.B. Colony, Bhiwani - HSPCB",18-05-2024 22:00:00,28.806223,76.141105,PM2.5,100,294,198
India,Haryana,Bhiwani,"H.B. Colony, Bhiwani - HSPCB",18-05-2024 22:00:00,28.806223,76.141105,CO,10,34,17
India,Haryana,Charkhi Dadri,"Mini Secretariat, Charkhi Dadri - HSPCB",18-05-2024 22:00:00,28.593883,76.270653,PM2.5,72,185,116
India,Haryana,Charkhi Dadri,"Mini Secretariat, Charkhi Dadri - HSPCB",18-05-2024 22:00:00,28.593883,76.270653,PM10,58,109,82
India,Haryana,Charkhi Dadri,"Mini Secretariat, Charkhi Dadri - HSPCB",18-05-2024 22:00:00,28.593883,76.270653,NH3,6,8,7
India,Haryana,Dharuhera,"Municipal Corporation Office, Dharuhera -  HSPCB",18-05-2024 22:00:00,28.206800,76.799700,PM2.5,67,313,160
India,Haryana,Dharuhera,"Municipal Corporation Office, Dharuhera -  HSPCB",18-05-2024 22:00:00,28.206800,76.799700,PM10,86,500,222
India,Haryana,Dharuhera,"Municipal Corporation Office, Dharuhera -  HSPCB",18-05-2024 22:00:00,28.206800,76.799700,NH3,9,26,19
India,Haryana,Faridabad,"New Industrial Town, Faridabad - HSPCB",18-05-2024 22:00:00,28.39072,77.30059,PM10,187,500,300
India,Haryana,Fatehabad,"Huda Sector, Fatehabad - HSPCB",18-05-2024 22:00:00,29.503664,75.467934,PM2.5,63,197,139
India,Haryana,Fatehabad,"Huda Sector, Fatehabad - HSPCB",18-05-2024 22:00:00,29.503664,75.467934,PM10,121,172,141
India,Haryana,Gurugram,"Sector-51, Gurugram - HSPCB",18-05-2024 22:00:00,28.4227,77.0667,PM2.5,125,500,331
India,Haryana,Gurugram,"Sector-51, Gurugram - HSPCB",18-05-2024 22:00:00,28.4227,77.0667,NO2,2,29,17
India,Haryana,Gurugram,"Sector-51, Gurugram - HSPCB",18-05-2024 22:00:00,28.4227,77.0667,SO2,3,8,4
India,Haryana,Gurugram,"Teri Gram, Gurugram - HSPCB",18-05-2024 22:00:00,28.4275,77.1465,NO2,NA,NA,NA
India,Haryana,Gurugram,"Teri Gram, Gurugram - HSPCB",18-05-2024 22:00:00,28.4275,77.1465,CO,13,48,26
India,Haryana,Gurugram,"Teri Gram, Gurugram - HSPCB",18-05-2024 22:00:00,28.4275,77.1465,OZONE,29,105,64
India,Haryana,Gurugram,"Vikas Sadan, Gurugram - HSPCB",18-05-2024 22:00:00,28.4501238,77.0263051,NO2,5,26,14
India,Haryana,Gurugram,"Vikas Sadan, Gurugram - HSPCB",18-05-2024 22:00:00,28.4501238,77.0263051,SO2,7,64,25
India,Haryana,Hisar,"Urban Estate-II, Hisar - HSPCB",18-05-2024 22:00:00,29.140560,75.744941,NH3,NA,NA,NA
India,Haryana,Hisar,"Urban Estate-II, Hisar - HSPCB",18-05-2024 22:00:00,29.140560,75.744941,SO2,NA,NA,NA
India,Haryana,Jind,"Police Lines, Jind - HSPCB",18-05-2024 22:00:00,29.307814,76.337619,NO2,1,66,8
India,Haryana,Kaithal,"Rishi Nagar, Kaithal - HSPCB",18-05-2024 22:00:00,29.8006,76.4155,OZONE,7,17,11
India,Haryana,Mandikhera,"General Hospital, Mandikhera - HSPCB",18-05-2024 22:00:00,27.9002,76.9938,PM10,101,140,111
India,Haryana,Mandikhera,"General Hospital, Mandikhera - HSPCB",18-05-2024 22:00:00,27.9002,76.9938,NO2,19,24,22
India,Haryana,Manesar,"Sector-2 IMT, Manesar - HSPCB",18-05-2024 22:00:00,28.360699,76.936090,NO2,10,18,13
India,Haryana,Narnaul,"Shastri Nagar, Narnaul - HSPCB",18-05-2024 22:00:00,28.060249,76.113115,PM10,NA,NA,NA
India,Haryana,Narnaul,"Shastri Nagar, Narnaul - HSPCB",18-05-2024 22:00:00,28.060249,76.113115,NH3,NA,NA,NA
India,Haryana,Narnaul,"Shastri Nagar, Narnaul - HSPCB",18-05-2024 22:00:00,28.060249,76.113115,SO2,NA,NA,NA
India,Haryana,Palwal,"Shyam Nagar, Palwal - HSPCB",18-05-2024 22:00:00,28.1485564,77.3320667,NO2,23,25,24
India,Haryana,Panchkula,"Sector-6, Panchkula - HSPCB ",18-05-2024 22:00:00,30.7057778,76.8531805555555,PM2.5,139,315,235
India,Haryana,Rohtak,"MD University, Rohtak - HSPCB",18-05-2024 22:00:00,28.52123,76.37138,NO2,47,54,50
India,Haryana,Rohtak,"MD University, Rohtak - HSPCB",18-05-2024 22:00:00,28.52123,76.37138,SO2,6,8,7
India,Haryana,Sirsa,"F-Block, Sirsa - HSPCB",18-05-2024 22:00:00,29.536400,75.015800,NO2,NA,NA,NA
India,Haryana,Sirsa,"F-Block, Sirsa - HSPCB",18-05-2024 22:00:00,29.536400,75.015800,OZONE,NA,NA,NA
India,Haryana,Sonipat,"Murthal, Sonipat - HSPCB",18-05-2024 22:00:00,29.027200,77.062100,PM10,125,381,160
India,Haryana,Yamuna Nagar,"Gobind Pura, Yamuna Nagar - HSPCB",18-05-2024 22:00:00,30.1480566,77.2893471,SO2,NA,NA,NA
India,Haryana,Yamuna Nagar,"Gobind Pura, Yamuna Nagar - HSPCB",18-05-2024 22:00:00,30.1480566,77.2893471,OZONE,57,73,62
India,Himachal Pradesh,Baddi,"HIMUDA Complex Phase-1, Baddi - HPPCB",18-05-2024 22:00:00,30.943887,76.801991,OZONE,18,211,131
India,Jharkhand,Dhanbad,"Kalakusuma, Dhanbad - DMC",18-05-2024 22:00:00,23.811548,86.481238,SO2,NA,NA,NA
India,Jharkhand,Dhanbad,"Kalakusuma, Dhanbad - DMC",18-05-2024 22:00:00,23.811548,86.481238,CO,129,134,131
India,Jharkhand,Dhanbad,"Sardar Patel Nagar, Dhanbad - JSPCB",18-05-2024 22:00:00,23.80569,86.44268,CO,128,152,137
India,Jharkhand,Dhanbad,"Sardar Patel Nagar, Dhanbad - JSPCB",18-05-2024 22:00:00,23.80569,86.44268,OZONE,29,78,53
India,Jharkhand,Jorapokhar,"Tata Stadium, Jorapokhar - JSPCB",18-05-2024 22:00:00,23.707909,86.414670,SO2,NA,NA,NA
India,Jharkhand,Pathardih,"Mohalbani Ghat, Pathardih - DMC",18-05-2024 22:00:00,23.669880,86.411725,SO2,NA,NA,NA
India,Karnataka,Bagalkot,"Vidayagiri, Bagalkot - KSPCB",18-05-2024 22:00:00,16.172806,75.659694,NH3,1,2,1
India,Karnataka,Bagalkot,"Vidayagiri, Bagalkot - KSPCB",18-05-2024 22:00:00,16.172806,75.659694,CO,22,52,36
India,Karnataka,Belgaum,"Ramteerth Nagar, Belgaum - KSPCB",18-05-2024 22:00:00,15.888653,74.541751,SO2,9,9,9
India,Karnataka,Bengaluru,"Bapuji Nagar, Bengaluru - KSPCB",18-05-2024 22:00:00,12.951913,77.539784,PM10,20,60,44
India,Karnataka,Bengaluru,"Hebbal, Bengaluru - KSPCB",18-05-2024 22:00:00,13.029152,77.585901,CO,7,36,27
India,Karnataka,Bengaluru,"Hombegowda Nagar, Bengaluru - KSPCB",18-05-2024 22:00:00,12.938539,77.590100,NH3,2,2,2
India,Karnataka,Bengaluru,"Hombegowda Nagar, Bengaluru - KSPCB",18-05-2024 22:00:00,12.938539,77.590100,OZONE,18,57,36
India,Karnataka,Bengaluru,"Jayanagar 5th Block, Bengaluru - KSPCB",18-05-2024 22:00:00,12.920984,77.584908,NO2,18,30,22
India,Karnataka,Bengaluru,"Jayanagar 5th Block, Bengaluru - KSPCB",18-05-2024 22:00:00,12.920984,77.584908,NH3,1,2,2
India,Karnataka,Bengaluru,"Kasturi Nagar, Bengaluru - KSPCB",18-05-2024 22:00:00,13.003872,77.664217,CO,25,25,25
India,Karnataka,Bengaluru,"Peenya, Bengaluru - CPCB",18-05-2024 22:00:00,13.0270199,77.494094,NO2,NA,NA,NA
India,Karnataka,Bengaluru,"Peenya, Bengaluru - CPCB",18-05-2024 22:00:00,13.0270199,77.494094,CO,NA,NA,NA
India,Karnataka,Bengaluru,"RVCE-Mailasandra, Bengaluru - KSPCB",18-05-2024 22:00:00,12.921418,77.502466,PM2.5,11,44,28
India,Karnataka,Bengaluru,"Shivapura_Peenya, Bengaluru - KSPCB",18-05-2024 22:00:00,13.0246342,77.5080115,PM2.5,2,87,40
India,Karnataka,Bengaluru,"Silk Board, Bengaluru - KSPCB",18-05-2024 22:00:00,12.917348,77.622813,PM2.5,18,62,38
India,Karnataka,Bidar,"Naubad, Bidar - KSPCB",18-05-2024 22:00:00,17.930306,77.482194,OZONE,7,36,31
India,Karnataka,Chikkaballapur,"Chikkaballapur Rural, Chikkaballapur - KSPCB",18-05-2024 22:00:00,13.428828,77.731418,PM10,24,51,34
India,Karnataka,Chikkaballapur,"Chikkaballapur Rural, Chikkaballapur - KSPCB",18-05-2024 22:00:00,13.428828,77.731418,NO2,6,16,11
India,Karnataka,Chikkaballapur,"Chikkaballapur Rural, Chikkaballapur - KSPCB",18-05-2024 22:00:00,13.428828,77.731418,NH3,1,2,1
India,Karnataka,Chikkamagaluru,"Kalyana Nagara, Chikkamagaluru - KSPCB",18-05-2024 22:00:00,13.328028,75.797056,OZONE,13,63,38
India,Karnataka,Davanagere,"Devaraj Urs Badavane, Davanagere - KSPCB",18-05-2024 22:00:00,14.475800,75.905200,PM2.5,21,50,32
India,Karnataka,Davanagere,"Devaraj Urs Badavane, Davanagere - KSPCB",18-05-2024 22:00:00,14.475800,75.905200,PM10,18,61,32
India,Karnataka,Davanagere,"Devaraj Urs Badavane, Davanagere - KSPCB",18-05-2024 22:00:00,14.475800,75.905200,OZONE,16,21,19
India,Karnataka,Dharwad,"Kalabhavan, Dharwad - KSPCB",18-05-2024 22:00:00,15.459706,75.008381,OZONE,2,13,5
India,Karnataka,Gadag,"Panchal Nagar, Gadag - KSPCB",18-05-2024 22:00:00,15.411456,75.638133,CO,46,52,48
India,Karnataka,Hassan,"B.Katihalli, Hassan - KSPCB",18-05-2024 22:00:00,13.008556,76.125258,NO2,10,13,11
India,Karnataka,Hassan,"B.Katihalli, Hassan - KSPCB",18-05-2024 22:00:00,13.008556,76.125258,SO2,1,2,1
India,Karnataka,Hubballi,"Lingaraj Nagar, Hubballi - KSPCB",18-05-2024 22:00:00,15.3714823,75.1160168,NO2,10,10,10
India,Karnataka,Hubballi,"Lingaraj Nagar, Hubballi - KSPCB",18-05-2024 22:00:00,15.3714823,75.1160168,SO2,1,4,2
India,Karnataka,Hubballi,"Lingaraj Nagar, Hubballi - KSPCB",18-05-2024 22:00:00,15.3714823,75.1160168,OZONE,34,78,60
India,Karnataka,Kalaburagi,"Lal Bahadur Shastri Nagar, Kalaburagi - KSPCB",18-05-2024 22:00:00,17.321993,76.822628,PM10,NA,NA,NA
India,Karnataka,Kalaburagi,"Mahatma Basaveswar Colony, Kalaburgi - KSPCB",18-05-2024 22:00:00,17.336318,76.847397,PM10,18,48,34
India,Karnataka,Kalaburagi,"Mahatma Basaveswar Colony, Kalaburgi - KSPCB",18-05-2024 22:00:00,17.336318,76.847397,SO2,2,4,3
India,Karnataka,Kalaburagi,"Mahatma Basaveswar Colony, Kalaburgi - KSPCB",18-05-2024 22:00:00,17.336318,76.847397,OZONE,5,28,24
India,Karnataka,Karwar,"KHB Colony, Karwar - KSPCB",18-05-2024 22:00:00,14.816666,74.141003,OZONE,21,22,21
India,Karnataka,Kolar,"Tamaka Ind. Area, Kolar - KSPCB",18-05-2024 22:00:00,13.1276288,78.1570122,NO2,16,27,21
India,Karnataka,Kolar,"Tamaka Ind. Area, Kolar - KSPCB",18-05-2024 22:00:00,13.1276288,78.1570122,NH3,5,17,13
India,Karnataka,Koppal,"Diwator Nagar, Koppal - KSPCB",18-05-2024 22:00:00,15.347630,76.181767,NH3,6,9,8
India,Karnataka,Madikeri,"Stuart Hill, Madikeri - KSPCB",18-05-2024 22:00:00,12.415911,75.735050,PM2.5,3,28,16
India,Karnataka,Madikeri,"Stuart Hill, Madikeri - KSPCB",18-05-2024 22:00:00,12.415911,75.735050,PM10,7,28,18
India,Karnataka,Madikeri,"Stuart Hill, Madikeri - KSPCB",18-05-2024 22:00:00,12.415911,75.735050,OZONE,22,38,29
India,Karnataka,Mysuru,"Hebbal 1st Stage, Mysuru - KSPCB",18-05-2024 22:00:00,12.21041,76.37376,SO2,NA,NA,NA
India,Karnataka,Mysuru,"Hebbal 1st Stage, Mysuru - KSPCB",18-05-2024 22:00:00,12.21041,76.37376,CO,6,23,14
India,Karnataka,Raichur,"Haji Colony, Raichur - KSPCB",18-05-2024 22:00:00,16.208139,77.348417,NO2,12,41,23
India,Karnataka,Raichur,"Haji Colony, Raichur - KSPCB",18-05-2024 22:00:00,16.208139,77.348417,SO2,71,84,76
India,Karnataka,Raichur,"Haji Colony, Raichur - KSPCB",18-05-2024 22:00:00,16.208139,77.348417,OZONE,2,17,7
India,Karnataka,Ramanagara,"Vijay Nagar, Ramanagara - KSPCB",18-05-2024 22:00:00,12.733409,77.298051,OZONE,24,32,29
India,Karnataka,Udupi,"Brahmagiri, Udupi - KSPCB",18-05-2024 22:00:00,13.34194444,74.74694444,PM2.5,6,40,22
India,Karnataka,Udupi,"Brahmagiri, Udupi - KSPCB",18-05-2024 22:00:00,13.34194444,74.74694444,NH3,1,1,1
India,Karnataka,Vijayapura,"Ibrahimpur, Vijayapura - KSPCB",18-05-2024 22:00:00,16.802639,75.722694,PM2.5,26,31,30
India,Karnataka,Vijayapura,"Ibrahimpur, Vijayapura - KSPCB",18-05-2024 22:00:00,16.802639,75.722694,NH3,2,2,2
India,Karnataka,Yadgir,"Collector Office, Yadgir - KSPCB",18-05-2024 22:00:00,16.7602,77.1428,NH3,1,6,1
India,Kerala,Kollam,"Polayathode, Kollam - Kerala PCB",18-05-2024 22:00:00,8.8787,76.6073,PM10,NA,NA,NA
India,Kerala,Kollam,"Polayathode, Kollam - Kerala PCB",18-05-2024 22:00:00,8.8787,76.6073,NO2,NA,NA,NA
India,Kerala,Thiruvananthapuram,"Kariavattom, Thiruvananthapuram - Kerala PCB",18-05-2024 22:00:00,8.563700,76.886500,PM2.5,79,88,84
India,Kerala,Thiruvananthapuram,"Kariavattom, Thiruvananthapuram - Kerala PCB",18-05-2024 22:00:00,8.563700,76.886500,NO2,8,9,9
India,Kerala,Thiruvananthapuram,"Kariavattom, Thiruvananthapuram - Kerala PCB",18-05-2024 22:00:00,8.563700,76.886500,SO2,3,14,9
India,Kerala,Thiruvananthapuram,"Kariavattom, Thiruvananthapuram - Kerala PCB",18-05-2024 22:00:00,8.563700,76.886500,OZONE,28,31,30
India,Kerala,Thiruvananthapuram,"Plammoodu, Thiruvananthapuram - Kerala PCB",18-05-2024 22:00:00,8.5149093,76.9435879,NH3,1,1,1
India,Kerala,Thrissur,"Corporation Ground, Thrissur - Kerala PCB",18-05-2024 22:00:00,10.532400,76.215900,PM10,62,68,65
India,Kerala,Thrissur,"Corporation Ground, Thrissur - Kerala PCB",18-05-2024 22:00:00,10.532400,76.215900,OZONE,29,32,30
India,Madhya Pradesh,Bhopal,"Idgah Hills, Bhopal - MPPCB",18-05-2024 22:00:00,23.264759,77.381568,CO,16,49,30
India,Madhya Pradesh,Bhopal,"Idgah Hills, Bhopal - MPPCB",18-05-2024 22:00:00,23.264759,77.381568,OZONE,53,131,101
India,Madhya Pradesh,Bhopal,"T T Nagar, Bhopal - MPPCB",18-05-2024 22:00:00,23.233584,77.400574,NO2,29,56,39
India,Madhya Pradesh,Bhopal,"T T Nagar, Bhopal - MPPCB",18-05-2024 22:00:00,23.233584,77.400574,OZONE,60,123,105
India,Madhya Pradesh,Dewas,"Bhopal Chauraha, Dewas - MPPCB",18-05-2024 22:00:00,22.9682591,76.064118,NO2,12,14,13
India,Madhya Pradesh,Gwalior,"City Center, Gwalior - MPPCB",18-05-2024 22:00:00,26.203442,78.193251,NH3,3,7,4
India,Madhya Pradesh,Gwalior,"City Center, Gwalior - MPPCB",18-05-2024 22:00:00,26.203442,78.193251,CO,18,119,73
India,Madhya Pradesh,Gwalior,"Deen Dayal Nagar, Gwalior - MPPCB",18-05-2024 22:00:00,26.259242,78.216432,NO2,NA,NA,NA
India,Madhya Pradesh,Gwalior,"Phool Bagh, Gwalior - Mondelez Ind. Food",18-05-2024 22:00:00,26.210536,78.171,NO2,4,5,4
India,Madhya Pradesh,Indore,"Chhoti Gwaltoli, Indore - MPPCB",18-05-2024 22:00:00,22.4310,75.5213,SO2,7,25,18
India,Madhya Pradesh,Indore,"Maguda Nagar, Indore - IMC",18-05-2024 22:00:00,22.7524,75.8872,NO2,4,6,5
India,Madhya Pradesh,Indore,"Regional Park, Indore - IMC",18-05-2024 22:00:00,22.6780,75.8559,SO2,49,53,52
India,Madhya Pradesh,Indore,"Residency Area, Indore - IMC",18-05-2024 22:00:00,22.7084,75.8815,PM10,42,77,54
India,Madhya Pradesh,Indore,"Residency Area, Indore - IMC",18-05-2024 22:00:00,22.7084,75.8815,NO2,29,49,40
India,Madhya Pradesh,Jabalpur,"Govindh Bhavan Colony, Jabalpur - JMC",18-05-2024 22:00:00,23.163174,79.973061,PM10,38,137,74
India,Madhya Pradesh,Jabalpur,"Marhatal, Jabalpur - MPPCB",18-05-2024 22:00:00,23.168606,79.932247,PM10,57,130,81
India,Madhya Pradesh,Jabalpur,"Marhatal, Jabalpur - MPPCB",18-05-2024 22:00:00,23.168606,79.932247,NO2,14,117,44
India,Madhya Pradesh,Maihar,"Sahilara, Maihar - KJS Cements",18-05-2024 22:00:00,24.2613009,80.7231783,NO2,8,10,9
India,Madhya Pradesh,Sagar,"Deen Dayal Nagar, Sagar - MPPCB",18-05-2024 22:00:00,23.8640158,78.80289321,PM2.5,19,50,33
India,Madhya Pradesh,Sagar,"Deen Dayal Nagar, Sagar - MPPCB",18-05-2024 22:00:00,23.8640158,78.80289321,CO,56,64,59
India,Madhya Pradesh,Satna,"Bandhavgar Colony, Satna - Birla Cement",18-05-2024 22:00:00,24.58434363,80.8549414,CO,42,100,63
India,Madhya Pradesh,Singrauli,"Suryakiran Bhawan NCL, Singrauli - MPPCB",18-05-2024 22:00:00,24.108970,82.645580,PM10,40,104,63
India,Madhya Pradesh,Ujjain,"Mahakaleshwar Temple, Ujjain - MPPCB",18-05-2024 22:00:00,23.182719 ,75.768218 ,PM2.5,16,48,35
India,Maharashtra,Ahmednagar,"Tarakpur, Ahmednagar - MPCB",18-05-2024 22:00:00,19.10122,74.73339,PM10,80,140,100
India,Maharashtra,Ahmednagar,"Tarakpur, Ahmednagar - MPCB",18-05-2024 22:00:00,19.10122,74.73339,OZONE,52,152,128
India,Maharashtra,Amravati,"Shivneri Colony, Amravati - MPCB",18-05-2024 22:00:00,20.9402359,77.7895248,OZONE,3,93,66
India,Maharashtra,Amravati,"Shri Shivaji Science College, Amaravati - MPCB",18-05-2024 22:00:00,20.939198,77.765701,PM10,37,103,61
India,Maharashtra,Amravati,"Shri Shivaji Science College, Amaravati - MPCB",18-05-2024 22:00:00,20.939198,77.765701,NO2,8,56,17
India,Maharashtra,Amravati,"Shri Shivaji Science College, Amaravati - MPCB",18-05-2024 22:00:00,20.939198,77.765701,OZONE,2,76,56
India,Maharashtra,Aurangabad,"More Chowk Waluj, Aurangabad - MPCB",18-05-2024 22:00:00,19.8389439,75.244448,NH3,9,10,9
India,Maharashtra,Aurangabad,"Rachnakar Colony, Aurangabad - MPCB",18-05-2024 22:00:00,19.863756,75.321188,NO2,11,58,38
India,Maharashtra,Aurangabad,"Rachnakar Colony, Aurangabad - MPCB",18-05-2024 22:00:00,19.863756,75.321188,SO2,3,15,10
India,Maharashtra,Aurangabad,"Rachnakar Colony, Aurangabad - MPCB",18-05-2024 22:00:00,19.863756,75.321188,OZONE,36,102,63
India,Maharashtra,Badlapur,"Katrap, Badlapur - MPCB",18-05-2024 22:00:00,19.16485,73.23409,NO2,3,12,5
India,Maharashtra,Belapur,"CBD Belapur, Belapur - MPCB",18-05-2024 22:00:00,19.0243902,73.0406721,NH3,2,3,2
India,Maharashtra,Bhiwandi,"Gokul Nagar, Bhiwandi - MPCB",18-05-2024 22:00:00,19.309073,73.057223,OZONE,22,170,76
India,Maharashtra,Boisar,"Khaira, Boisar - MPCB",18-05-2024 22:00:00,19.786089,72.757971,PM2.5,2,336,48
India,Maharashtra,Boisar,"Khaira, Boisar - MPCB",18-05-2024 22:00:00,19.786089,72.757971,CO,1,68,22
India,Maharashtra,Chandrapur,"MIDC Khutala, Chandrapur - MPCB",18-05-2024 22:00:00,19.9775302,79.2337086,NO2,7,30,14
India,Maharashtra,Jalgaon,"Prabhat Colony, Jalgaon - MPCB",18-05-2024 22:00:00,21.001264,75.565602,PM10,104,218,132
India,Maharashtra,Jalgaon,"Prabhat Colony, Jalgaon - MPCB",18-05-2024 22:00:00,21.001264,75.565602,OZONE,15,144,114
India,Maharashtra,Jalna,"Old MIDC, Jalna - MPCB",18-05-2024 22:00:00,19.854616,75.905894,PM10,41,90,55
India,Maharashtra,Jalna,"Old MIDC, Jalna - MPCB",18-05-2024 22:00:00,19.854616,75.905894,CO,19,38,25
India,Maharashtra,Kalyan,"Khadakpada, Kalyan - MPCB",18-05-2024 22:00:00,19.25292,73.142019,PM2.5,24,53,35
India,Maharashtra,Kolhapur,"Sinchan Bhavan, Kolhapur - MPCB",18-05-2024 22:00:00,16.7143745,74.2426398,OZONE,43,141,118
India,Maharashtra,Latur,"Sawe Wadi, Latur - MPCB",18-05-2024 22:00:00,18.39963,76.57452,PM2.5,21,153,55
India,Maharashtra,Latur,"Sawe Wadi, Latur - MPCB",18-05-2024 22:00:00,18.39963,76.57452,NO2,13,83,34
India,Maharashtra,Latur,"Sawe Wadi, Latur - MPCB",18-05-2024 22:00:00,18.39963,76.57452,OZONE,15,88,65
India,Maharashtra,Mahad,"Kamble Tarf Birwadi, Mahad - MPCB",18-05-2024 22:00:00,18.1023399,73.4783687,NH3,4,10,6
India,Maharashtra,Malegaon,"Mahesh Nagar, Malegaon - MPCB",18-05-2024 22:00:00,20.555712,74.529236,PM10,86,161,114
India,Maharashtra,Mira-Bhayandar,"Bhayandar West, Mira-Bhayandar - MPCB",18-05-2024 22:00:00,19.296481,72.840923,PM10,48,142,75
India,Maharashtra,Mira-Bhayandar,"Bhayandar West, Mira-Bhayandar - MPCB",18-05-2024 22:00:00,19.296481,72.840923,SO2,1,6,2
India,Maharashtra,Mira-Bhayandar,"Bhayandar West, Mira-Bhayandar - MPCB",18-05-2024 22:00:00,19.296481,72.840923,OZONE,6,58,46
India,Maharashtra,Mumbai,"Borivali East, Mumbai - IITM",18-05-2024 22:00:00,19.23241,72.86895,PM10,48,93,73
India,Maharashtra,Mumbai,"Borivali East, Mumbai - IITM",18-05-2024 22:00:00,19.23241,72.86895,NH3,6,8,7
India,Maharashtra,Mumbai,"Borivali East, Mumbai - IITM",18-05-2024 22:00:00,19.23241,72.86895,OZONE,29,100,65
India,Maharashtra,Mumbai,"Borivali East, Mumbai - MPCB",18-05-2024 22:00:00,19.2243333,72.8658113,PM10,27,89,57
India,Maharashtra,Mumbai,"Chakala-Andheri East, Mumbai - IITM",18-05-2024 22:00:00,19.11074,72.86084,CO,1,14,4
India,Maharashtra,Mumbai,"Chembur, Mumbai - MPCB",18-05-2024 22:00:00,19.0364585,72.8954371,SO2,1,2,1
India,Maharashtra,Mumbai,"Chhatrapati Shivaji Intl. Airport (T2), Mumbai - MPCB",18-05-2024 22:00:00,19.10078,72.87462,PM10,62,98,79
India,Maharashtra,Mumbai,"Chhatrapati Shivaji Intl. Airport (T2), Mumbai - MPCB",18-05-2024 22:00:00,19.10078,72.87462,NO2,NA,NA,NA
India,Maharashtra,Mumbai,"Chhatrapati Shivaji Intl. Airport (T2), Mumbai - MPCB",18-05-2024 22:00:00,19.10078,72.87462,NH3,1,2,1
India,Maharashtra,Mumbai,"Colaba, Mumbai - MPCB",18-05-2024 22:00:00,18.910000,72.820000,NH3,1,1,1
India,Maharashtra,Mumbai,"Colaba, Mumbai - MPCB",18-05-2024 22:00:00,18.910000,72.820000,SO2,11,12,11
India,Maharashtra,Mumbai,"Ghatkopar, Mumbai - BMC",18-05-2024 22:00:00,19.083694,72.920967,CO,4,11,9
India,Maharashtra,Mumbai,"Kandivali East, Mumbai - MPCB",18-05-2024 22:00:00,19.205800,72.868200,OZONE,28,139,47
India,Maharashtra,Mumbai,"Kandivali West, Mumbai - BMC",18-05-2024 22:00:00,19.215859,72.831718,PM10,19,33,26
India,Maharashtra,Mumbai,"Kandivali West, Mumbai - BMC",18-05-2024 22:00:00,19.215859,72.831718,CO,4,21,13
India,Maharashtra,Mumbai,"Kherwadi_Bandra East, Mumbai - MPCB",18-05-2024 22:00:00,19.0632143,72.8456324,SO2,9,12,10
India,Maharashtra,Mumbai,"Khindipada-Bhandup West, Mumbai - IITM",18-05-2024 22:00:00,19.1653323,72.922099,PM10,24,124,63
India,Maharashtra,Mumbai,"Khindipada-Bhandup West, Mumbai - IITM",18-05-2024 22:00:00,19.1653323,72.922099,NO2,5,31,8
India,Maharashtra,Mumbai,"Khindipada-Bhandup West, Mumbai - IITM",18-05-2024 22:00:00,19.1653323,72.922099,SO2,1,13,7
India,Maharashtra,Mumbai,"Kurla, Mumbai - MPCB",18-05-2024 22:00:00,19.0863,72.8888,PM10,73,422,182
India,Maharashtra,Mumbai,"Mulund West, Mumbai - MPCB",18-05-2024 22:00:00,19.1750,72.9419,NO2,15,21,18
India,Maharashtra,Mumbai,"Navy Nagar-Colaba, Mumbai - IITM",18-05-2024 22:00:00,18.897756,72.813320,NO2,62,143,127
India,Maharashtra,Mumbai,"Navy Nagar-Colaba, Mumbai - IITM",18-05-2024 22:00:00,18.897756,72.813320,NH3,17,26,25
India,Maharashtra,Mumbai,"Navy Nagar-Colaba, Mumbai - IITM",18-05-2024 22:00:00,18.897756,72.813320,SO2,1,46,7
India,Maharashtra,Mumbai,"Navy Nagar-Colaba, Mumbai - IITM",18-05-2024 22:00:00,18.897756,72.813320,OZONE,45,83,70
India,Maharashtra,Mumbai,"Powai, Mumbai - MPCB",18-05-2024 22:00:00,19.137500,72.915056,PM10,60,109,86
India,Maharashtra,Mumbai,"Siddharth Nagar-Worli, Mumbai - IITM",18-05-2024 22:00:00,19.000083,72.813993,PM2.5,59,79,69
India,Maharashtra,Mumbai,"Siddharth Nagar-Worli, Mumbai - IITM",18-05-2024 22:00:00,19.000083,72.813993,NH3,8,9,9
India,Maharashtra,Mumbai,"Siddharth Nagar-Worli, Mumbai - IITM",18-05-2024 22:00:00,19.000083,72.813993,CO,48,67,63
India,Maharashtra,Mumbai,"Sion, Mumbai - MPCB",18-05-2024 22:00:00,19.047000,72.874600,PM10,68,107,87
India,Maharashtra,Mumbai,"Vile Parle West, Mumbai - MPCB",18-05-2024 22:00:00,19.10861,72.83622,NH3,11,11,11
India,Maharashtra,Mumbai,"Worli, Mumbai - MPCB",18-05-2024 22:00:00,18.9936162,72.8128113,PM2.5,23,66,40
India,Maharashtra,Mumbai,"Worli, Mumbai - MPCB",18-05-2024 22:00:00,18.9936162,72.8128113,SO2,11,12,11
India,Maharashtra,Nagpur,"Ambazari, Nagpur - MPCB",18-05-2024 22:00:00,21.121801,79.04952,PM2.5,9,84,35
India,Maharashtra,Nagpur,"Mahal, Nagpur - MPCB",18-05-2024 22:00:00,21.14472,79.107595,OZONE,3,59,42
India,Maharashtra,Nanded,"Sneh Nagar, Nanded - MPCB",18-05-2024 22:00:00,19.173852,77.296291,NH3,1,2,2
India,Maharashtra,Nanded,"Sneh Nagar, Nanded - MPCB",18-05-2024 22:00:00,19.173852,77.296291,SO2,2,6,4
India,Maharashtra,Nanded,"Sneh Nagar, Nanded - MPCB",18-05-2024 22:00:00,19.173852,77.296291,CO,34,64,43
India,Maharashtra,Nanded,"Sneh Nagar, Nanded - MPCB",18-05-2024 22:00:00,19.173852,77.296291,OZONE,8,122,94
India,Maharashtra,Nashik,"Hirawadi, Nashik - MPCB",18-05-2024 22:00:00,20.021503,73.813844,PM2.5,35,74,51
India,Maharashtra,Nashik,"Hirawadi, Nashik - MPCB",18-05-2024 22:00:00,20.021503,73.813844,NH3,3,4,4
India,Maharashtra,Nashik,"MIDC Ambad, Nashik - MPCB",18-05-2024 22:00:00,19.950220,73.731480,NO2,NA,NA,NA
India,Maharashtra,Nashik,"MIDC Ambad, Nashik - MPCB",18-05-2024 22:00:00,19.950220,73.731480,OZONE,55,73,64
India,Maharashtra,Nashik,"Pandav Nagari, Nashik - MPCB",18-05-2024 22:00:00,19.9591346,73.7788008,PM10,36,101,61
India,Maharashtra,Navi Mumbai,"Kopripada-Vashi, Navi Mumbai - MPCB",18-05-2024 22:00:00,19.090337,73.014232,NO2,29,71,37
India,Maharashtra,Navi Mumbai,"Nerul, Navi Mumbai - MPCB",18-05-2024 22:00:00,19.008751,73.016620,PM2.5,NA,NA,NA
India,Maharashtra,Navi Mumbai,"Nerul, Navi Mumbai - MPCB",18-05-2024 22:00:00,19.008751,73.016620,OZONE,35,44,36
India,Maharashtra,Navi Mumbai,"Sanpada, Navi Mumbai - MPCB",18-05-2024 22:00:00,19.0575752,73.0151367,CO,1,30,4
India,Maharashtra,Navi Mumbai,"Sector-19A Nerul, Navi Mumbai - IITM",18-05-2024 22:00:00,19.044,73.0325,SO2,1,13,4
India,Maharashtra,Navi Mumbai,"Sector-19A Nerul, Navi Mumbai - IITM",18-05-2024 22:00:00,19.044,73.0325,CO,34,103,63
India,Maharashtra,Navi Mumbai,"Sector-19A Nerul, Navi Mumbai - IITM",18-05-2024 22:00:00,19.044,73.0325,OZONE,1,69,26
India,Maharashtra,Navi Mumbai,"Sector-2E Kalamboli, Navi Mumbai - MPCB",18-05-2024 22:00:00,19.02579,73.10297,PM2.5,54,122,73
India,Maharashtra,Navi Mumbai,"Sector-2E Kalamboli, Navi Mumbai - MPCB",18-05-2024 22:00:00,19.02579,73.10297,OZONE,3,82,36
India,Maharashtra,Navi Mumbai,"Tondare-Taloja, Navi Mumbai - MPCB",18-05-2024 22:00:00,19.0630,73.1209,NO2,24,62,43
India,Maharashtra,Navi Mumbai,"Tondare-Taloja, Navi Mumbai - MPCB",18-05-2024 22:00:00,19.0630,73.1209,NH3,NA,NA,NA
India,Maharashtra,Navi Mumbai,"Tondare-Taloja, Navi Mumbai - MPCB",18-05-2024 22:00:00,19.0630,73.1209,SO2,NA,NA,NA
India,Maharashtra,Parbhani,"Masoom Colony, Parbhani - MPCB",18-05-2024 22:00:00,19.265594,76.761463,PM2.5,40,102,58
India,Maharashtra,Parbhani,"Masoom Colony, Parbhani - MPCB",18-05-2024 22:00:00,19.265594,76.761463,SO2,1,13,6
India,Maharashtra,Parbhani,"Masoom Colony, Parbhani - MPCB",18-05-2024 22:00:00,19.265594,76.761463,CO,22,62,42
India,Maharashtra,Pimpri-Chinchwad,"Gavalinagar, Pimpri Chinchwad - MPCB",18-05-2024 22:00:00,18.63673,73.82487,PM2.5,58,87,72
India,Maharashtra,Pimpri-Chinchwad,"Gavalinagar, Pimpri Chinchwad - MPCB",18-05-2024 22:00:00,18.63673,73.82487,NH3,1,5,3
India,Maharashtra,Pimpri-Chinchwad,"Gavalinagar, Pimpri Chinchwad - MPCB",18-05-2024 22:00:00,18.63673,73.82487,SO2,1,4,2
India,Maharashtra,Pimpri-Chinchwad,"Gavalinagar, Pimpri Chinchwad - MPCB",18-05-2024 22:00:00,18.63673,73.82487,CO,16,42,26
India,Maharashtra,Pimpri-Chinchwad,"Gavalinagar, Pimpri Chinchwad - MPCB",18-05-2024 22:00:00,18.63673,73.82487,OZONE,3,154,107
India,Maharashtra,Pimpri-Chinchwad,"Park Street Wakad, Pimpri Chinchwad - MPCB",18-05-2024 22:00:00,18.59051,73.77946,PM2.5,83,163,114
India,Maharashtra,Pimpri-Chinchwad,"Park Street Wakad, Pimpri Chinchwad - MPCB",18-05-2024 22:00:00,18.59051,73.77946,PM10,92,126,109
India,Maharashtra,Pimpri-Chinchwad,"Thergaon, Pimpri Chinchwad - MPCB",18-05-2024 22:00:00,18.616318,73.765797,NO2,15,88,40
India,Maharashtra,Pune,"Alandi, Pune - IITM",18-05-2024 22:00:00,18.675076,73.892743,PM10,56,452,111
India,Maharashtra,Pune,"Alandi, Pune - IITM",18-05-2024 22:00:00,18.675076,73.892743,NO2,20,65,38
India,Maharashtra,Pune,"Alandi, Pune - IITM",18-05-2024 22:00:00,18.675076,73.892743,OZONE,17,237,156
India,Maharashtra,Pune,"Karve Road, Pune - MPCB",18-05-2024 22:00:00,18.5011743,73.8165527,PM10,26,114,77
India,Maharashtra,Pune,"Mhada Colony, Pune - IITM",18-05-2024 22:00:00,18.573040,73.927715,PM10,59,111,87
India,Maharashtra,Pune,"Mhada Colony, Pune - IITM",18-05-2024 22:00:00,18.573040,73.927715,OZONE,6,245,126
India,Maharashtra,Pune,"Revenue Colony-Shivajinagar, Pune - IITM",18-05-2024 22:00:00,18.530085,73.849598,NO2,42,118,71
India,Maharashtra,Pune,"Revenue Colony-Shivajinagar, Pune - IITM",18-05-2024 22:00:00,18.530085,73.849598,OZONE,15,96,54
India,Maharashtra,Pune,"Transport Nagar-Nigdi, Pune - IITM",18-05-2024 22:00:00,18.664282,73.763966,CO,35,101,51
India,Maharashtra,Sangli,"Vijay Nagar, Sangli - MPCB",18-05-2024 22:00:00, 16.5038,74.3623,PM10,43,86,64
India,Maharashtra,Sangli,"Vijay Nagar, Sangli - MPCB",18-05-2024 22:00:00, 16.5038,74.3623,SO2,3,7,6
India,Maharashtra,Solapur,"Dnyaneshwar Nagar, Solapur - MPCB",18-05-2024 22:00:00,17.6336264,75.9132495,NH3,29,40,35
India,Maharashtra,Solapur,"Dnyaneshwar Nagar, Solapur - MPCB",18-05-2024 22:00:00,17.6336264,75.9132495,CO,12,26,15
India,Maharashtra,Solapur,"Ratandeep Housing Society, Solapur - MPCB",18-05-2024 22:00:00,17.65439,75.90649,PM2.5,47,65,55
India,Maharashtra,Solapur,"Ratandeep Housing Society, Solapur - MPCB",18-05-2024 22:00:00,17.65439,75.90649,NH3,9,14,11
India,Maharashtra,Thane,"Kasarvadavali, Thane - MPCB",18-05-2024 22:00:00,19.26777,72.97182,PM10,38,75,57
India,Maharashtra,Thane,"Kasarvadavali, Thane - MPCB",18-05-2024 22:00:00,19.26777,72.97182,CO,8,36,19
India,Maharashtra,Thane,"Pimpleshwar Mandir, Thane - MPCB",18-05-2024 22:00:00,19.192056,72.9585188,NH3,1,5,3
India,Maharashtra,Thane,"Pimpleshwar Mandir, Thane - MPCB",18-05-2024 22:00:00,19.192056,72.9585188,CO,1,56,18
India,Maharashtra,Thane,"Upvan Fort, Thane - MPCB",18-05-2024 22:00:00,19.222279,72.957979,SO2,1,8,4
India,Maharashtra,Thane,"Upvan Fort, Thane - MPCB",18-05-2024 22:00:00,19.222279,72.957979,CO,2,18,6
India,Maharashtra,Ulhasnagar,"Sidhi Vinayak Nagar, Ulhasnagar - MPCB",18-05-2024 22:00:00,19.235581,73.159121,PM10,69,120,97
India,Maharashtra,Ulhasnagar,"Sidhi Vinayak Nagar, Ulhasnagar - MPCB",18-05-2024 22:00:00,19.235581,73.159121,NO2,10,58,23
India,Maharashtra,Virar,"Bolinj, Virar - MPCB",18-05-2024 22:00:00,19.4458210,72.7988231,PM2.5,43,63,52
India,Maharashtra,Virar,"Bolinj, Virar - MPCB",18-05-2024 22:00:00,19.4458210,72.7988231,CO,10,56,17
India,Manipur,Imphal,"DM College of Science, Imphal - Manipur PCB",18-05-2024 22:00:00,24.8207389,93.9423085,CO,6,7,6
India,Nagaland,Kohima,"PWD Juction, Kohima - NPCB",18-05-2024 22:00:00,25.6635413,94.0989878,NH3,1,1,1
India,Odisha,Angul,"Hakimapada, Angul - OSPCB",18-05-2024 22:00:00,20.832874,85.104082,PM10,14,175,60
India,Odisha,Angul,"Hakimapada, Angul - OSPCB",18-05-2024 22:00:00,20.832874,85.104082,CO,26,83,41
India,Odisha,Angul,"Hakimapada, Angul - OSPCB",18-05-2024 22:00:00,20.832874,85.104082,OZONE,15,104,58
India,Odisha,Barbil,"Forest Office, Barbil - OSPCB",18-05-2024 22:00:00,22.1166054,85.3945546,SO2,6,23,12
India,Odisha,Baripada,"Meher Colony, Baripada - OSPCB",18-05-2024 22:00:00,21.941841,86.728318,PM2.5,7,92,59
India,Odisha,Baripada,"Meher Colony, Baripada - OSPCB",18-05-2024 22:00:00,21.941841,86.728318,SO2,1,11,5
India,Odisha,Bhubaneswar,"Lingraj Mandir, Bhubaneswar - OSPCB",18-05-2024 22:00:00,20.240790,85.836784,SO2,3,14,7
India,Odisha,Bileipada,"Tata Township, Bileipada - OSPCB",18-05-2024 22:00:00,22.06156703,85.47409613,CO,NA,NA,NA
India,Odisha,Brajrajnagar,"GM Office, Brajrajnagar - OSPCB",18-05-2024 22:00:00,21.8004996,83.8396977,CO,85,104,87
India,Odisha,Cuttack,"CDA Area, Cuttack - OSPCB",18-05-2024 22:00:00,20.48891     ,85.84768     ,PM10,1,88,33
India,Odisha,Keonjhar,"Jagamohanpur, Keonjhar - OSPCB",18-05-2024 22:00:00,21.643900,85.599355,OZONE,16,16,16
India,Odisha,Nayagarh,"Dabuna, Nayagarh - OSPCB",18-05-2024 22:00:00,21.847279,85.416905,NO2,7,13,8
India,Odisha,Nayagarh,"Dabuna, Nayagarh - OSPCB",18-05-2024 22:00:00,21.847279,85.416905,SO2,2,21,6
India,Odisha,Nayagarh,"Dabuna, Nayagarh - OSPCB",18-05-2024 22:00:00,21.847279,85.416905,OZONE,6,31,26
India,Odisha,Rairangpur,"Divisional Forest Office, Rairangpur - OSPCB",18-05-2024 22:00:00,22.265816,86.174829,OZONE,2,27,11
India,Odisha,Rourkela,"Fertilizer Township, Rourkela - OSPCB",18-05-2024 22:00:00,22.18972222,84.86277778,PM10,NA,NA,NA
India,Odisha,Rourkela,"Raghunathpali, Rourkela - OSPCB",18-05-2024 22:00:00,22.220833,84.809444,PM2.5,61,303,137
India,Odisha,Suakati,"OMC Colony, Suakati - OSPCB",18-05-2024 22:00:00,21.606865,85.510538,CO,19,24,23
India,Odisha,Talcher,"Talcher Coalfields,Talcher - OSPCB",18-05-2024 22:00:00,20.9360711,85.1707021,NO2,18,22,20
India,Odisha,Talcher,"Talcher Coalfields,Talcher - OSPCB",18-05-2024 22:00:00,20.9360711,85.1707021,SO2,27,77,36
India,Odisha,Talcher,"Talcher Coalfields,Talcher - OSPCB",18-05-2024 22:00:00,20.9360711,85.1707021,OZONE,25,26,25
India,Punjab,Amritsar,"Golden Temple, Amritsar - PPCB",18-05-2024 22:00:00,31.620000,74.876512,SO2,1,107,27
India,Punjab,Bathinda,"Hardev Nagar, Bathinda - PPCB",18-05-2024 22:00:00,30.233011,74.907758,SO2,3,78,35
India,Punjab,Bathinda,"Hardev Nagar, Bathinda - PPCB",18-05-2024 22:00:00,30.233011,74.907758,CO,2,159,107
India,Punjab,Jalandhar,"Civil Line, Jalandhar - PPCB",18-05-2024 22:00:00,31.321907,75.578914,PM10,86,164,127
India,Punjab,Jalandhar,"Civil Line, Jalandhar - PPCB",18-05-2024 22:00:00,31.321907,75.578914,NH3,5,5,5
India,Punjab,Khanna,"Kalal Majra, Khanna - PPCB",18-05-2024 22:00:00,30.736056 ,76.209694,NO2,25,29,28
India,Punjab,Khanna,"Kalal Majra, Khanna - PPCB",18-05-2024 22:00:00,30.736056 ,76.209694,CO,16,40,19
India,Punjab,Ludhiana,"Punjab Agricultural University, Ludhiana - PPCB",18-05-2024 22:00:00,30.9028,75.8086,NH3,5,5,5
India,Punjab,Mandi Gobindgarh,"RIMT University, Mandi Gobindgarh - PPCB",18-05-2024 22:00:00,30.649961,76.331442,PM10,132,485,282
India,Punjab,Mandi Gobindgarh,"RIMT University, Mandi Gobindgarh - PPCB",18-05-2024 22:00:00,30.649961,76.331442,SO2,20,106,42
India,Punjab,Patiala,"Model Town, Patiala - PPCB",18-05-2024 22:00:00,30.349388,76.366642,NH3,6,7,6
India,Punjab,Rupnagar,"Ratanpura, Rupnagar - Ambuja Cements",18-05-2024 22:00:00,31.0325454,76.5623046,CO,25,54,29
India,Rajasthan,Alwar,"Moti Doongri, Alwar - RSPCB",18-05-2024 22:00:00,27.554793,76.611536,NH3,3,8,5
India,Rajasthan,Banswara,"Rati Talai, Banswara - RSPCB",18-05-2024 22:00:00,23.555190,74.440010,NH3,4,15,7
India,Rajasthan,Baran,"Bamboliya, Baran - RSPCB",18-05-2024 22:00:00,25.106006,76.469948,CO,15,54,27
India,Rajasthan,Barmer,"Railway Colony, Barmer - RSPCB",18-05-2024 22:00:00,25.747299,71.393989,PM2.5,11,91,33
India,Rajasthan,Barmer,"Railway Colony, Barmer - RSPCB",18-05-2024 22:00:00,25.747299,71.393989,CO,44,84,74
India,Rajasthan,Bharatpur,"Krishna Nagar, Bharatpur - RSPCB",18-05-2024 22:00:00,27.215415,77.50873,NH3,NA,NA,NA
India,Rajasthan,Bhilwara,"Pratap Nagar, Bhilwara - RSPCB",18-05-2024 22:00:00,25.339605,74.618883,PM10,36,112,64
India,Rajasthan,Bhiwadi,"RIICO Ind. Area III, Bhiwadi - RSPCB",18-05-2024 22:00:00,28.194909,76.862296,NH3,4,32,15
India,Rajasthan,Bhiwadi,"Vasundhara Nagar_UIT, Bhiwadi - RSPCB",18-05-2024 22:00:00,28.207266,76.829265,OZONE,10,113,80
India,Rajasthan,Bikaner,"MM Ground, Bikaner - RSPCB",18-05-2024 22:00:00,28.018792,73.292658,NH3,9,13,11
India,Rajasthan,Bikaner,"MM Ground, Bikaner - RSPCB",18-05-2024 22:00:00,28.018792,73.292658,CO,12,40,20
India,Rajasthan,Bundi,"New Colony, Bundi - RSPCB",18-05-2024 22:00:00,25.435774,75.644272,NH3,4,6,5
India,Rajasthan,Bundi,"New Colony, Bundi - RSPCB",18-05-2024 22:00:00,25.435774,75.644272,SO2,5,20,9
India,Rajasthan,Chittorgarh,"Shastri Nagar, Chittorgarh - RSPCB",18-05-2024 22:00:00,24.892047,74.623527,NO2,3,13,10
India,Rajasthan,Chittorgarh,"Shastri Nagar, Chittorgarh - RSPCB",18-05-2024 22:00:00,24.892047,74.623527,SO2,3,22,7
India,Rajasthan,Dausa,"Khatikan Mohalla, Dausa - RSPCB",18-05-2024 22:00:00,26.895552,76.334753,PM2.5,37,232,82
India,Rajasthan,Dausa,"Khatikan Mohalla, Dausa - RSPCB",18-05-2024 22:00:00,26.895552,76.334753,PM10,132,411,196
India,Rajasthan,Dholpur,"Raja Ganj, Dholpur - RSPCB",18-05-2024 22:00:00,26.699557,77.898881,PM2.5,55,302,97
India,Rajasthan,Dholpur,"Raja Ganj, Dholpur - RSPCB",18-05-2024 22:00:00,26.699557,77.898881,PM10,100,416,173
India,Rajasthan,Dholpur,"Raja Ganj, Dholpur - RSPCB",18-05-2024 22:00:00,26.699557,77.898881,NH3,5,8,6
India,Rajasthan,Dholpur,"Raja Ganj, Dholpur - RSPCB",18-05-2024 22:00:00,26.699557,77.898881,SO2,5,37,15
India,Rajasthan,Dungarpur,"Bhoiwada, Dungarpur - RSPCB",18-05-2024 22:00:00,23.837789,73.714926,PM2.5,30,95,54
India,Rajasthan,Dungarpur,"Bhoiwada, Dungarpur - RSPCB",18-05-2024 22:00:00,23.837789,73.714926,PM10,55,131,91
India,Rajasthan,Dungarpur,"Bhoiwada, Dungarpur - RSPCB",18-05-2024 22:00:00,23.837789,73.714926,NO2,13,36,19
India,Rajasthan,Dungarpur,"Bhoiwada, Dungarpur - RSPCB",18-05-2024 22:00:00,23.837789,73.714926,SO2,3,13,7
India,Rajasthan,Jaipur,"Adarsh Nagar, Jaipur - RSPCB",18-05-2024 22:00:00,26.902909,75.836858,CO,16,87,39
India,Rajasthan,Jaipur,"Police Commissionerate, Jaipur - RSPCB",18-05-2024 22:00:00,26.9164092,75.7994901,PM2.5,73,213,125
India,Rajasthan,Jaipur,"Police Commissionerate, Jaipur - RSPCB",18-05-2024 22:00:00,26.9164092,75.7994901,PM10,101,205,145
India,Rajasthan,Jaipur,"Police Commissionerate, Jaipur - RSPCB",18-05-2024 22:00:00,26.9164092,75.7994901,NH3,3,6,4
India,Rajasthan,Jaipur,"Police Commissionerate, Jaipur - RSPCB",18-05-2024 22:00:00,26.9164092,75.7994901,SO2,5,53,15
India,Rajasthan,Jaipur,"RIICO Sitapura, Jaipur - RSPCB",18-05-2024 22:00:00,26.786682,75.827928,OZONE,2,164,98
India,Rajasthan,Jaipur,"Sector-2 Murlipura, Jaipur - RSPCB",18-05-2024 22:00:00,26.960669,75.771817,NO2,12,53,26
India,Rajasthan,Jaipur,"Shastri Nagar, Jaipur - RSPCB",18-05-2024 22:00:00,26.9502929,75.730943,PM2.5,50,242,112
India,Rajasthan,Jaipur,"Shastri Nagar, Jaipur - RSPCB",18-05-2024 22:00:00,26.9502929,75.730943,CO,16,89,32
India,Rajasthan,Jaipur,"Shastri Nagar, Jaipur - RSPCB",18-05-2024 22:00:00,26.9502929,75.730943,OZONE,12,81,35
India,Rajasthan,Jaisalmer,"Sadar Bazar, Jaisalmer - RSPCB",18-05-2024 22:00:00,26.912329,70.909168,PM10,NA,NA,NA
India,Rajasthan,Jalore,"Mudtra Sili, Jalore - RSPCB",18-05-2024 22:00:00,25.344694,72.626208,SO2,2,13,5
India,Rajasthan,Jhalawar,"Rajlaxmi Nagar, Jhalawar - RSPCB",18-05-2024 22:00:00,24.588397,76.172782,NH3,2,6,3
India,Rajasthan,Jhunjhunu,"Indra Nagar, Jhunjhunu - RSPCB",18-05-2024 22:00:00,28.108988,75.386577,SO2,3,11,5
India,Rajasthan,Jhunjhunu,"Indra Nagar, Jhunjhunu - RSPCB",18-05-2024 22:00:00,28.108988,75.386577,CO,16,57,27
India,Rajasthan,Jodhpur,"Collectorate, Jodhpur - RSPCB",18-05-2024 22:00:00,26.268249,73.0193853,NO2,24,26,25
India,Rajasthan,Jodhpur,"Digari Kalan, Jodhpur - RSPCB",18-05-2024 22:00:00,26.295810,73.082283,NO2,4,108,27
India,Rajasthan,Jodhpur,"Samrat Ashok Udhyan, Jodhpur - RSPCB",18-05-2024 22:00:00,26.253384,72.976571,OZONE,11,94,81
India,Rajasthan,Karauli,"Satyawati Vihar, Karauli - RSPCB",18-05-2024 22:00:00,26.506177,77.025989,PM10,78,446,142
India,Rajasthan,Kota,"Dhanmandi, Kota - RSPCB",18-05-2024 22:00:00,25.164090,75.858137,PM2.5,21,93,40
India,Rajasthan,Kota,"Dhanmandi, Kota - RSPCB",18-05-2024 22:00:00,25.164090,75.858137,NH3,3,31,6
India,Rajasthan,Kota,"Dhanmandi, Kota - RSPCB",18-05-2024 22:00:00,25.164090,75.858137,CO,5,104,53
India,Rajasthan,Kota,"Nayapura, Kota - RSPCB",18-05-2024 22:00:00,25.196024,75.855668,PM10,66,205,105
India,Rajasthan,Kota,"Shrinath Puram, Kota - RSPCB",18-05-2024 22:00:00,25.14389,75.821256,CO,20,104,43
India,Rajasthan,Nagaur,"Karni Colony, Nagaur - RSPCB",18-05-2024 22:00:00,27.213494,73.734444,PM10,66,238,116
India,Rajasthan,Nagaur,"Karni Colony, Nagaur - RSPCB",18-05-2024 22:00:00,27.213494,73.734444,NH3,10,19,14
India,Rajasthan,Pali,"Indira Colony Vistar, Pali - RSPCB",18-05-2024 22:00:00,25.771061, 73.340227,SO2,NA,NA,NA
India,Rajasthan,Rajsamand,"Dhoinda, Rajsamand - RSPCB",18-05-2024 22:00:00,25.036360,73.883502,PM2.5,15,85,33
India,Rajasthan,Rajsamand,"Dhoinda, Rajsamand - RSPCB",18-05-2024 22:00:00,25.036360,73.883502,NO2,2,21,10
India,Rajasthan,Rajsamand,"Dhoinda, Rajsamand - RSPCB",18-05-2024 22:00:00,25.036360,73.883502,SO2,3,42,19
India,Rajasthan,Sawai Madhopur,"Sahu Nagar, Sawai Madhopur - RSPCB",18-05-2024 22:00:00,26.031443,76.359327,NH3,NA,NA,NA
India,Rajasthan,Sawai Madhopur,"Sahu Nagar, Sawai Madhopur - RSPCB",18-05-2024 22:00:00,26.031443,76.359327,OZONE,6,144,66
India,Rajasthan,Sri Ganganagar,"Old City, Sri Ganganagar - RSPCB",18-05-2024 22:00:00,29.931624,73.864511,PM10,165,412,250
India,Rajasthan,Sri Ganganagar,"Old City, Sri Ganganagar - RSPCB",18-05-2024 22:00:00,29.931624,73.864511,NO2,19,108,36
India,Rajasthan,Sri Ganganagar,"Old City, Sri Ganganagar - RSPCB",18-05-2024 22:00:00,29.931624,73.864511,NH3,18,43,26
India,Rajasthan,Sri Ganganagar,"Old City, Sri Ganganagar - RSPCB",18-05-2024 22:00:00,29.931624,73.864511,OZONE,15,106,53
India,Rajasthan,Udaipur,"Ashok Nagar, Udaipur - RSPCB",18-05-2024 22:00:00,24.5886166,73.6321397,CO,2,88,47
India,Sikkim,Gangtok,"Zero Point GICI, Gangtok - SSPCB",18-05-2024 22:00:00,27.338530,88.614099,NO2,1,8,3
India,Sikkim,Gangtok,"Zero Point GICI, Gangtok - SSPCB",18-05-2024 22:00:00,27.338530,88.614099,NH3,1,1,1
India,TamilNadu,Ariyalur,"Keelapalur, Ariyalur - TNPCB",18-05-2024 22:00:00,11.06825,79.07033,PM2.5,4,37,16
India,TamilNadu,Ariyalur,"Keelapalur, Ariyalur - TNPCB",18-05-2024 22:00:00,11.06825,79.07033,PM10,8,31,16
India,TamilNadu,Ariyalur,"Keelapalur, Ariyalur - TNPCB",18-05-2024 22:00:00,11.06825,79.07033,NO2,7,8,8
India,TamilNadu,Chennai,"Alandur Bus Depot, Chennai - CPCB",18-05-2024 22:00:00,12.9099161,80.1076538,PM2.5,23,23,23
India,TamilNadu,Chennai,"Alandur Bus Depot, Chennai - CPCB",18-05-2024 22:00:00,12.9099161,80.1076538,OZONE,2,15,4
India,TamilNadu,Chennai,"Arumbakkam, Chennai - TNPCB",18-05-2024 22:00:00,13.0664,80.2112 ,PM2.5,NA,NA,NA
India,TamilNadu,Chennai,"Kodungaiyur, Chennai - TNPCB",18-05-2024 22:00:00,13.1278,80.2642,PM2.5,2,26,12
India,TamilNadu,Chennai,"Kodungaiyur, Chennai - TNPCB",18-05-2024 22:00:00,13.1278,80.2642,PM10,12,42,23
India,TamilNadu,Chennai,"Manali, Chennai - CPCB",18-05-2024 22:00:00,13.164544,80.26285,OZONE,6,18,13
India,TamilNadu,Chennai,"Velachery Res. Area, Chennai - CPCB",18-05-2024 22:00:00,13.0052189,80.2398125,NH3,12,20,17
India,TamilNadu,Chennai,"Velachery Res. Area, Chennai - CPCB",18-05-2024 22:00:00,13.0052189,80.2398125,CO,118,120,119
India,TamilNadu,Coimbatore,"PSG College of Arts and Science, Coimbatore - TNPCB",18-05-2024 22:00:00,11.0328,77.0349,PM2.5,23,83,43
India,TamilNadu,Coimbatore,"PSG College of Arts and Science, Coimbatore - TNPCB",18-05-2024 22:00:00,11.0328,77.0349,NO2,1,5,3
India,TamilNadu,Coimbatore,"PSG College of Arts and Science, Coimbatore - TNPCB",18-05-2024 22:00:00,11.0328,77.0349,NH3,1,1,1
India,TamilNadu,Cuddalore,"Kudikadu, Cuddalore - TNPCB",18-05-2024 22:00:00,11.6829898,79.7532099,SO2,10,10,10
India,TamilNadu,Cuddalore,"Semmandalam, Cuddalore - TNPCB",18-05-2024 22:00:00,11.7637683,79.7499835,NO2,5,13,8
India,TamilNadu,Cuddalore,"Semmandalam, Cuddalore - TNPCB",18-05-2024 22:00:00,11.7637683,79.7499835,OZONE,2,25,9
India,TamilNadu,Gummidipoondi,"Anthoni Pillai Nagar, Gummidipoondi - TNPCB",18-05-2024 22:00:00,13.4127,80.1081,PM10,22,126,56
India,TamilNadu,Ooty,"Bombay Castel, Ooty - TNPCB",18-05-2024 22:00:00,11.4068288,76.7138973,NO2,NA,NA,NA
India,TamilNadu,Ramanathapuram,"Chalai Bazaar, Ramanathapuram - TNPCB",18-05-2024 22:00:00,9.36399,78.831977,CO,4,13,9
India,TamilNadu,Salem,"Sona College of Technology, Salem - TNPCB",18-05-2024 22:00:00,11.679111,78.125052,PM2.5,8,41,28
India,TamilNadu,Salem,"Sona College of Technology, Salem - TNPCB",18-05-2024 22:00:00,11.679111,78.125052,NH3,1,1,1
India,TamilNadu,Thoothukudi,"Meelavittan, Thoothukudi - TNPCB",18-05-2024 22:00:00,8.816428 ,78.099039,PM10,18,125,53
India,TamilNadu,Vellore,"Vasanthapuram, Vellore - TNPCB",18-05-2024 22:00:00,12.909494,79.131861,NO2,6,22,11
India,TamilNadu,Vellore,"Vasanthapuram, Vellore - TNPCB",18-05-2024 22:00:00,12.909494,79.131861,NH3,1,1,1
India,Telangana,Hyderabad,"Bollaram Industrial Area, Hyderabad - TSPCB",18-05-2024 22:00:00,17.540891,78.358528,SO2,8,26,15
India,Telangana,Hyderabad,"Central University, Hyderabad - TSPCB",18-05-2024 22:00:00,17.460103,78.334361,PM10,13,52,31
India,Telangana,Hyderabad,"Central University, Hyderabad - TSPCB",18-05-2024 22:00:00,17.460103,78.334361,CO,8,32,25
India,Telangana,Hyderabad,"ICRISAT Patancheru, Hyderabad - TSPCB",18-05-2024 22:00:00,17.518400,78.278777,SO2,NA,NA,NA
India,Telangana,Hyderabad,"IITH Kandi, Hyderabad - TSPCB",18-05-2024 22:00:00,17.585705,78.126199,PM10,NA,NA,NA
India,Telangana,Hyderabad,"Kokapet, Hyderabad - TSPCB",18-05-2024 22:00:00,17.393559,78.339194,OZONE,1,7,4
India,Telangana,Hyderabad,"Kompally Municipal Office, Hyderabad - TSPCB",18-05-2024 22:00:00,17.544899,78.486949,PM10,NA,NA,NA
India,Telangana,Hyderabad,"New Malakpet, Hyderabad - TSPCB",18-05-2024 22:00:00,17.37206,78.50864,PM10,71,89,77
India,Telangana,Hyderabad,"Ramachandrapuram, Hyderabad - TSPCB",18-05-2024 22:00:00,17.528544,78.286195,OZONE,31,64,48
India,Telangana,Hyderabad,"Sanathnagar, Hyderabad - TSPCB",18-05-2024 22:00:00,17.4559458,78.4332152,CO,26,42,36
India,Telangana,Hyderabad,"Zoo Park, Hyderabad - TSPCB",18-05-2024 22:00:00,17.349694,78.451437,NO2,18,45,25
India,Telangana,Hyderabad,"Zoo Park, Hyderabad - TSPCB",18-05-2024 22:00:00,17.349694,78.451437,CO,21,63,50
India,Uttar_Pradesh,Agra,"Sector-3B Avas Vikas Colony, Agra - UPPCB",18-05-2024 22:00:00,27.19412,77.96237,PM2.5,21,51,34
India,Uttar_Pradesh,Agra,"Sector-3B Avas Vikas Colony, Agra - UPPCB",18-05-2024 22:00:00,27.19412,77.96237,SO2,13,17,14
India,Uttar_Pradesh,Agra,"Sector-3B Avas Vikas Colony, Agra - UPPCB",18-05-2024 22:00:00,27.19412,77.96237,OZONE,9,19,14
India,Uttar_Pradesh,Agra,"Shahjahan Garden, Agra - UPPCB",18-05-2024 22:00:00,27.169338,78.03582,CO,18,66,28
India,Uttar_Pradesh,Agra,"Shastripuram, Agra - UPPCB",18-05-2024 22:00:00,27.19862,77.92066,NO2,37,189,46
India,Uttar_Pradesh,Baghpat,"Sardar Patel Inter College, Baghpat - UPPCB",18-05-2024 22:00:00,28.964949,77.278761,CO,52,107,72
India,Uttar_Pradesh,Bareilly,"Civil Lines, Bareilly - UPPCB",18-05-2024 22:00:00,28.359581,79.414455,PM2.5,21,33,26
India,Uttar_Pradesh,Bareilly,"Civil Lines, Bareilly - UPPCB",18-05-2024 22:00:00,28.359581,79.414455,SO2,23,33,27
India,Uttar_Pradesh,Bareilly,"Civil Lines, Bareilly - UPPCB",18-05-2024 22:00:00,28.359581,79.414455,OZONE,6,60,30
India,Uttar_Pradesh,Bulandshahr,"Yamunapuram, Bulandshahr - UPPCB",18-05-2024 22:00:00,28.406963,77.849831,PM10,123,390,203
India,Uttar_Pradesh,Bulandshahr,"Yamunapuram, Bulandshahr - UPPCB",18-05-2024 22:00:00,28.406963,77.849831,NO2,16,193,96
India,Uttar_Pradesh,Bulandshahr,"Yamunapuram, Bulandshahr - UPPCB",18-05-2024 22:00:00,28.406963,77.849831,NH3,17,30,20
India,Uttar_Pradesh,Bulandshahr,"Yamunapuram, Bulandshahr - UPPCB",18-05-2024 22:00:00,28.406963,77.849831,SO2,25,85,51
India,Uttar_Pradesh,Firozabad,"Nagla Bhau, Firozabad - UPPCB",18-05-2024 22:00:00,27.168897,78.376960,CO,26,43,32
India,Uttar_Pradesh,Firozabad,"Vibhab Nagar, Firozabad - UPPCB",18-05-2024 22:00:00,27.1594,78.3953,PM10,75,115,97
India,Uttar_Pradesh,Firozabad,"Vibhab Nagar, Firozabad - UPPCB",18-05-2024 22:00:00,27.1594,78.3953,NO2,11,14,14
India,Uttar_Pradesh,Firozabad,"Vibhab Nagar, Firozabad - UPPCB",18-05-2024 22:00:00,27.1594,78.3953,OZONE,1,169,46
India,Uttar_Pradesh,Ghaziabad,"Indirapuram, Ghaziabad - UPPCB",18-05-2024 22:00:00,28.646233,77.358075,PM10,163,500,313
India,Uttar_Pradesh,Ghaziabad,"Loni, Ghaziabad - UPPCB",18-05-2024 22:00:00,28.757294,77.278792,NO2,18,117,68
India,Uttar_Pradesh,Ghaziabad,"Loni, Ghaziabad - UPPCB",18-05-2024 22:00:00,28.757294,77.278792,OZONE,3,167,83
India,Uttar_Pradesh,Ghaziabad,"Sanjay Nagar, Ghaziabad - UPPCB",18-05-2024 22:00:00,28.685382,77.453839,OZONE,3,196,96
India,Uttar_Pradesh,Ghaziabad,"Vasundhara, Ghaziabad - UPPCB",18-05-2024 22:00:00,28.6603346,77.3572563,PM2.5,52,247,135
India,Uttar_Pradesh,Ghaziabad,"Vasundhara, Ghaziabad - UPPCB",18-05-2024 22:00:00,28.6603346,77.3572563,NO2,42,146,88
India,Uttar_Pradesh,Gorakhpur,"Madan Mohan Malaviya University of Technology, Gorakhpur - UPPCB",18-05-2024 22:00:00,26.730136,83.433859,NO2,11,12,11
India,Uttar_Pradesh,Gorakhpur,"Madan Mohan Malaviya University of Technology, Gorakhpur - UPPCB",18-05-2024 22:00:00,26.730136,83.433859,NH3,1,2,2
India,Uttar_Pradesh,Greater Noida,"Knowledge Park - III, Greater Noida - UPPCB",18-05-2024 22:00:00,28.47272,77.482000,PM10,NA,NA,NA
India,Uttar_Pradesh,Greater Noida,"Knowledge Park - V, Greater Noida - UPPCB",18-05-2024 22:00:00,28.557054,77.453663,NO2,33,71,56
India,Uttar_Pradesh,Hapur,"Anand Vihar, Hapur - UPPCB",18-05-2024 22:00:00,28.725645,77.749675,PM2.5,48,304,121
India,Uttar_Pradesh,Hapur,"Anand Vihar, Hapur - UPPCB",18-05-2024 22:00:00,28.725645,77.749675,SO2,33,68,51
India,Uttar_Pradesh,Hapur,"Anand Vihar, Hapur - UPPCB",18-05-2024 22:00:00,28.725645,77.749675,CO,27,42,32
India,Uttar_Pradesh,Kanpur,"FTI Kidwai Nagar, Kanpur - UPPCB",18-05-2024 22:00:00,26.428282,80.327067,PM2.5,56,307,110
India,Uttar_Pradesh,Kanpur,"NSI Kalyanpur, Kanpur - UPPCB",18-05-2024 22:00:00,26.509954,80.249612,NO2,14,19,17
India,Uttar_Pradesh,Kanpur,"Nehru Nagar, Kanpur - UPPCB",18-05-2024 22:00:00,26.4703136,80.3229863,NO2,12,43,30
India,Uttar_Pradesh,Khurja,"Kalindi Kunj, Khurja - UPPCB",18-05-2024 22:00:00,28.2348927,77.8683002,PM10,NA,NA,NA
India,Uttar_Pradesh,Khurja,"Kalindi Kunj, Khurja - UPPCB",18-05-2024 22:00:00,28.2348927,77.8683002,SO2,NA,NA,NA
India,Uttar_Pradesh,Khurja,"Kalindi Kunj, Khurja - UPPCB",18-05-2024 22:00:00,28.2348927,77.8683002,CO,26,51,37
India,Uttar_Pradesh,Lucknow,"B R Ambedkar University, Lucknow - UPPCB",18-05-2024 22:00:00,26.766433,80.927299,PM2.5,45,304,122
India,Uttar_Pradesh,Lucknow,"B R Ambedkar University, Lucknow - UPPCB",18-05-2024 22:00:00,26.766433,80.927299,NH3,5,7,6
India,Uttar_Pradesh,Lucknow,"Kendriya Vidyalaya, Lucknow - CPCB",18-05-2024 22:00:00,26.906111,80.948222,CO,23,102,47
India,Uttar_Pradesh,Lucknow,"Kukrail Picnic Spot-1, Lucknow - UPPCB",18-05-2024 22:00:00,26.90723,80.98579,OZONE,12,59,46
India,Uttar_Pradesh,Meerut,"Ganga Nagar, Meerut - UPPCB",18-05-2024 22:00:00,28.999264,77.7590354,PM2.5,32,298,159
India,Uttar_Pradesh,Meerut,"Ganga Nagar, Meerut - UPPCB",18-05-2024 22:00:00,28.999264,77.7590354,NH3,9,19,13
India,Uttar_Pradesh,Meerut,"Jai Bhim Nagar, Meerut - UPPCB",18-05-2024 22:00:00,28.9535882,77.7622941,SO2,8,11,9
India,Uttar_Pradesh,Meerut,"Jai Bhim Nagar, Meerut - UPPCB",18-05-2024 22:00:00,28.9535882,77.7622941,OZONE,2,111,70
India,Uttar_Pradesh,Moradabad,"Buddhi Vihar, Moradabad - UPPCB",18-05-2024 22:00:00,28.83526,78.74460,PM2.5,50,184,122
India,Uttar_Pradesh,Moradabad,"Buddhi Vihar, Moradabad - UPPCB",18-05-2024 22:00:00,28.83526,78.74460,PM10,88,194,145
India,Uttar_Pradesh,Moradabad,"Buddhi Vihar, Moradabad - UPPCB",18-05-2024 22:00:00,28.83526,78.74460,SO2,22,43,31
India,Uttar_Pradesh,Moradabad,"Buddhi Vihar, Moradabad - UPPCB",18-05-2024 22:00:00,28.83526,78.74460,OZONE,8,202,67
India,Uttar_Pradesh,Moradabad,"Eco Herbal Park, Moradabad - UPPCB",18-05-2024 22:00:00,28.840739,78.697531,NH3,11,20,14
India,Uttar_Pradesh,Moradabad,"Employment Office, Moradabad - UPPCB",18-05-2024 22:00:00,28.88528,78.73880,PM2.5,52,134,88
India,Uttar_Pradesh,Moradabad,"Employment Office, Moradabad - UPPCB",18-05-2024 22:00:00,28.88528,78.73880,OZONE,8,107,76
India,Uttar_Pradesh,Moradabad,"Kashiram Nagar, Moradabad - UPPCB",18-05-2024 22:00:00,28.849399,78.742362,NH3,3,4,4
India,Uttar_Pradesh,Moradabad,"Kashiram Nagar, Moradabad - UPPCB",18-05-2024 22:00:00,28.849399,78.742362,CO,27,67,44
India,Uttar_Pradesh,Muzaffarnagar,"New Mandi, Muzaffarnagar - UPPCB",18-05-2024 22:00:00,29.4723508,77.7194031,NO2,22,74,39
India,Uttar_Pradesh,Muzaffarnagar,"New Mandi, Muzaffarnagar - UPPCB",18-05-2024 22:00:00,29.4723508,77.7194031,OZONE,5,125,82
India,Uttar_Pradesh,Noida,"Sector-1, Noida - UPPCB",18-05-2024 22:00:00,28.5898,77.3101,NH3,1,13,7
India,Uttar_Pradesh,Prayagraj,"Jhunsi, Prayagraj - UPPCB",18-05-2024 22:00:00,25.425602,81.917152,OZONE,17,109,58
India,Uttar_Pradesh,Prayagraj,"Motilal Nehru NIT, Prayagraj - UPPCB",18-05-2024 22:00:00,25.494,81.863,SO2,29,110,61
India,Uttar_Pradesh,Prayagraj,"Nagar Nigam, Prayagraj - UPPCB",18-05-2024 22:00:00,25.44919916 ,81.82735986 ,PM2.5,NA,NA,NA
India,Uttar_Pradesh,Prayagraj,"Nagar Nigam, Prayagraj - UPPCB",18-05-2024 22:00:00,25.44919916 ,81.82735986 ,CO,13,37,28
India,Uttar_Pradesh,Varanasi,"IESD Banaras Hindu University, Varanasi - UPPCB",18-05-2024 22:00:00,25.262326,82.995408,PM10,18,50,24
India,Uttar_Pradesh,Varanasi,"IESD Banaras Hindu University, Varanasi - UPPCB",18-05-2024 22:00:00,25.262326,82.995408,NH3,1,2,1
India,Uttar_Pradesh,Varanasi,"IESD Banaras Hindu University, Varanasi - UPPCB",18-05-2024 22:00:00,25.262326,82.995408,SO2,18,20,19
India,Uttar_Pradesh,Varanasi,"Maldahiya, Varanasi - UPPCB",18-05-2024 22:00:00,25.32393,82.99687,PM2.5,15,44,22
India,Uttar_Pradesh,Varanasi,"Maldahiya, Varanasi - UPPCB",18-05-2024 22:00:00,25.32393,82.99687,PM10,18,53,27
India,Uttar_Pradesh,Varanasi,"Maldahiya, Varanasi - UPPCB",18-05-2024 22:00:00,25.32393,82.99687,NO2,1,6,2
India,Uttar_Pradesh,Varanasi,"Maldahiya, Varanasi - UPPCB",18-05-2024 22:00:00,25.32393,82.99687,SO2,24,26,25
India,Uttar_Pradesh,Vrindavan,"Omex Eternity, Vrindavan - UPPCB",18-05-2024 22:00:00,27.5714090,77.6557570,PM2.5,29,137,55
India,Uttarakhand,Dehradun,"Doon University, Dehradun - UKPCB",18-05-2024 22:00:00,30.269444,78.044167,SO2,3,6,4
India,Uttarakhand,Kashipur,"Govt. Girls Inter College, Kashipur - UKPCB",18-05-2024 22:00:00,29.2124114,78.9611753,NH3,5,10,7
India,Uttarakhand,Kashipur,"Govt. Girls Inter College, Kashipur - UKPCB",18-05-2024 22:00:00,29.2124114,78.9611753,SO2,6,11,9
India,Uttarakhand,Kashipur,"Govt. Girls Inter College, Kashipur - UKPCB",18-05-2024 22:00:00,29.2124114,78.9611753,OZONE,24,157,105
India,West_Bengal,Asansol,"Asansol Court Area, Asansol - WBPCB",18-05-2024 22:00:00,23.685297,86.945968,PM2.5,130,287,209
India,West_Bengal,Asansol,"Asansol Court Area, Asansol - WBPCB",18-05-2024 22:00:00,23.685297,86.945968,CO,26,92,34
India,West_Bengal,Durgapur,"PCBL Residential Complex, Durgapur - WBPCB",18-05-2024 22:00:00,23.5087640,87.3544400,PM10,94,202,146
India,West_Bengal,Durgapur,"PCBL Residential Complex, Durgapur - WBPCB",18-05-2024 22:00:00,23.5087640,87.3544400,NH3,NA,NA,NA
India,West_Bengal,Durgapur,"Sidhu Kanhu Indoor Stadium, Durgapur - WBPCB",18-05-2024 22:00:00,23.5404352,87.2892225,PM10,126,212,157
India,West_Bengal,Durgapur,"Sidhu Kanhu Indoor Stadium, Durgapur - WBPCB",18-05-2024 22:00:00,23.5404352,87.2892225,SO2,5,91,31
India,West_Bengal,Haldia,"Priyambada Housing Estate, Haldia - WBPCB",18-05-2024 22:00:00,22.06047,88.109737,NO2,10,24,15
India,West_Bengal,Howrah,"Belur Math, Howrah - WBPCB",18-05-2024 22:00:00,22.629801,88.352017,PM10,34,106,68
India,West_Bengal,Howrah,"Belur Math, Howrah - WBPCB",18-05-2024 22:00:00,22.629801,88.352017,NH3,1,2,1
India,West_Bengal,Howrah,"Belur Math, Howrah - WBPCB",18-05-2024 22:00:00,22.629801,88.352017,SO2,7,8,8
India,West_Bengal,Howrah,"Ghusuri, Howrah - WBPCB",18-05-2024 22:00:00,22.611968,88.347422,PM10,29,126,73
India,West_Bengal,Howrah,"Padmapukur, Howrah - WBPCB",18-05-2024 22:00:00,22.5687319,88.2797276,SO2,15,81,37
India,West_Bengal,Kolkata,"Ballygunge, Kolkata - WBPCB",18-05-2024 22:00:00,22.5367507,88.3638022,PM2.5,15,96,42
India,West_Bengal,Kolkata,"Ballygunge, Kolkata - WBPCB",18-05-2024 22:00:00,22.5367507,88.3638022,PM10,24,107,53
India,West_Bengal,Kolkata,"Ballygunge, Kolkata - WBPCB",18-05-2024 22:00:00,22.5367507,88.3638022,SO2,5,23,11
India,West_Bengal,Kolkata,"Bidhannagar, Kolkata - WBPCB",18-05-2024 22:00:00,22.58157048,88.41002457,SO2,7,17,11
India,West_Bengal,Kolkata,"Jadavpur, Kolkata - WBPCB",18-05-2024 22:00:00,22.49929,88.36917,PM10,18,70,38
India,West_Bengal,Kolkata,"Jadavpur, Kolkata - WBPCB",18-05-2024 22:00:00,22.49929,88.36917,NO2,44,51,48
India,West_Bengal,Kolkata,"Rabindra Bharati University, Kolkata - WBPCB",18-05-2024 22:00:00,22.627847,88.380669,NO2,6,18,12
India,West_Bengal,Kolkata,"Rabindra Sarobar, Kolkata - WBPCB",18-05-2024 22:00:00,22.51106,88.35142,NH3,5,12,9
India,West_Bengal,Kolkata,"Victoria, Kolkata - WBPCB",18-05-2024 22:00:00,22.5448082,88.3403691,OZONE,10,71,43
India,West_Bengal,Siliguri,"Ward-32 Bapupara, Siliguri - WBPCB",18-05-2024 22:00:00,26.6879226,88.4152495,PM2.5,49,95,67
India,West_Bengal,Siliguri,"Ward-32 Bapupara, Siliguri - WBPCB",18-05-2024 22:00:00,26.6879226,88.4152495,PM10,57,124,82
India,West_Bengal,Siliguri,"Ward-32 Bapupara, Siliguri - WBPCB",18-05-2024 22:00:00,26.6879226,88.4152495,NH3,6,12,9
India,West_Bengal,Siliguri,"Ward-32 Bapupara, Siliguri - WBPCB",18-05-2024 22:00:00,26.6879226,88.4152495,CO,18,49,22
India,Andhra_Pradesh,Amaravati,"Secretariat, Amaravati - APPCB",18-05-2024 22:00:00,16.5150833,80.5181667,PM2.5,2,10,4
India,Andhra_Pradesh,Anantapur,"Gulzarpet, Anantapur - APPCB",18-05-2024 22:00:00,14.675886,77.593027,NH3,4,4,4
India,Andhra_Pradesh,Rajamahendravaram,"Anand Kala Kshetram, Rajamahendravaram - APPCB",18-05-2024 22:00:00,16.9872867,81.7363176,PM10,9,55,23
India,Andhra_Pradesh,Tirupati,"Tirumala, Tirupati - APPCB",18-05-2024 22:00:00,13.67,79.35,NO2,18,35,26
India,Andhra_Pradesh,Tirupati,"Vaikuntapuram, Tirupati - APPCB",18-05-2024 22:00:00,13.615387,79.409230,PM2.5,13,342,66
India,Andhra_Pradesh,Vijayawada,"HB Colony, Vijayawada - APPCB",18-05-2024 22:00:00,16.536107,80.594233,NH3,3,4,3
India,Andhra_Pradesh,Vijayawada,"HB Colony, Vijayawada - APPCB",18-05-2024 22:00:00,16.536107,80.594233,SO2,4,5,5
India,Andhra_Pradesh,Vijayawada,"HB Colony, Vijayawada - APPCB",18-05-2024 22:00:00,16.536107,80.594233,OZONE,7,87,28
India,Andhra_Pradesh,Vijayawada,"Kanuru, Vijayawada - APPCB",18-05-2024 22:00:00,16.486692,80.699436,CO,40,40,40
India,Andhra_Pradesh,Vijayawada,"Rajiv Nagar, Vijayawada - APPCB",18-05-2024 22:00:00,16.554731,80.649110,PM10,59,81,61
India,Andhra_Pradesh,Vijayawada,"Rajiv Nagar, Vijayawada - APPCB",18-05-2024 22:00:00,16.554731,80.649110,NH3,2,3,2
India,Andhra_Pradesh,Vijayawada,"Rajiv Nagar, Vijayawada - APPCB",18-05-2024 22:00:00,16.554731,80.649110,SO2,12,23,15
India,Andhra_Pradesh,Vijayawada,"Rajiv Nagar, Vijayawada - APPCB",18-05-2024 22:00:00,16.554731,80.649110,OZONE,15,27,19
India,Andhra_Pradesh,Visakhapatnam,"GVM Corporation, Visakhapatnam - APPCB",18-05-2024 22:00:00,17.72,83.3,CO,10,34,18
India,Andhra_Pradesh,Visakhapatnam,"GVM Corporation, Visakhapatnam - APPCB",18-05-2024 22:00:00,17.72,83.3,OZONE,5,48,11
India,Assam,Byrnihat,"Central Academy for SFS, Byrnihat - PCBA",18-05-2024 22:00:00,26.071318,91.87488,CO,20,36,25
India,Assam,Guwahati,"IITG, Guwahati - PCBA",18-05-2024 22:00:00,26.2028636,91.70046436,PM2.5,NA,NA,NA
India,Assam,Guwahati,"LGBI Airport, Guwahati - PCBA",18-05-2024 22:00:00,26.10887,91.589544,NH3,1,4,2
India,Assam,Guwahati,"Pan Bazaar, Guwahati - PCBA",18-05-2024 22:00:00,26.187500,91.744194,SO2,34,48,40
India,Assam,Guwahati,"Pan Bazaar, Guwahati - PCBA",18-05-2024 22:00:00,26.187500,91.744194,CO,18,38,29
India,Assam,Nalbari,"Bata Chowk, Nalbari - PCBA",18-05-2024 22:00:00,26.446912,91.439057,PM10,14,115,45
India,Assam,Nalbari,"Bata Chowk, Nalbari - PCBA",18-05-2024 22:00:00,26.446912,91.439057,CO,18,92,80
India,Assam,Silchar,"Tarapur, Silchar - PCBA",18-05-2024 22:00:00,24.82827,92.79525,NH3,1,1,1
India,Assam,Silchar,"Tarapur, Silchar - PCBA",18-05-2024 22:00:00,24.82827,92.79525,CO,14,44,25
India,Assam,Silchar,"Tarapur, Silchar - PCBA",18-05-2024 22:00:00,24.82827,92.79525,OZONE,1,19,7
India,Assam,Sivasagar,"Girls College, Sivasagar - PCBA",18-05-2024 22:00:00,26.987634,94.636574,CO,22,28,26
India,Bihar,Araria,"Kharahiya Basti, Araria - BSPCB",18-05-2024 22:00:00,26.146529,87.454184,PM2.5,36,248,87
India,Bihar,Araria,"Kharahiya Basti, Araria - BSPCB",18-05-2024 22:00:00,26.146529,87.454184,SO2,9,17,14
India,Bihar,Aurangabad,"Gurdeo Nagar, Aurangabad - BSPCB",18-05-2024 22:00:00,24.75746,84.366208,NH3,7,27,13
India,Bihar,Bettiah,"Kamalnath Nagar, Bettiah - BSPCB",18-05-2024 22:00:00,26.80365,84.51954,NO2,30,44,37
India,Bihar,Bhagalpur,"DM Office_Kachari Chowk, Bhagalpur - BSPCB",18-05-2024 22:00:00,25.251013,86.989001,PM2.5,88,305,176
India,Bihar,Bhagalpur,"Mayaganj, Bhagalpur - BSPCB",18-05-2024 22:00:00,25.265194,87.012947,PM10,83,164,122
India,Bihar,Bhagalpur,"Mayaganj, Bhagalpur - BSPCB",18-05-2024 22:00:00,25.265194,87.012947,NH3,7,9,8
India,Bihar,Bhagalpur,"Mayaganj, Bhagalpur - BSPCB",18-05-2024 22:00:00,25.265194,87.012947,SO2,11,12,12
India,Bihar,Bihar Sharif,"D M Colony, Bihar Sharif - BSPCB",18-05-2024 22:00:00,25.204762,85.514960,SO2,6,16,10
India,Bihar,Buxar,"Charitra Van, Buxar - BSPCB (Formerly known as Central Jail)",18-05-2024 22:00:00,25.567520,83.966379,PM10,123,314,200
India,Bihar,Buxar,"Charitra Van, Buxar - BSPCB (Formerly known as Central Jail)",18-05-2024 22:00:00,25.567520,83.966379,NH3,3,4,3
India,Bihar,Buxar,"Charitra Van, Buxar - BSPCB (Formerly known as Central Jail)",18-05-2024 22:00:00,25.567520,83.966379,SO2,3,27,10
India,Bihar,Gaya,"Collectorate, Gaya - BSPCB",18-05-2024 22:00:00,24.7955,84.9994,NO2,2,4,3
India,Bihar,Gaya,"Kareemganj, Gaya - BSPCB",18-05-2024 22:00:00,24.792403,84.992416,PM2.5,3,30,11
India,Bihar,Gaya,"Kareemganj, Gaya - BSPCB",18-05-2024 22:00:00,24.792403,84.992416,NO2,15,17,16
India,Bihar,Gaya,"SFTI Kusdihra, Gaya - BSPCB",18-05-2024 22:00:00,24.762518,84.982348,CO,16,38,24
India,Bihar,Hajipur,"Industrial Area, Hajipur - BSPCB",18-05-2024 22:00:00,25.697189,85.245900,NO2,34,59,44
India,Bihar,Hajipur,"Industrial Area, Hajipur - BSPCB",18-05-2024 22:00:00,25.697189,85.245900,NH3,17,24,21
India,Bihar,Katihar,"Mirchaibari, Katihar - BSPCB",18-05-2024 22:00:00,25.560083,87.553265,NH3,NA,NA,NA
India,Bihar,Kishanganj,"SDM Office_Khagra, Kishanganj - BSPCB",18-05-2024 22:00:00,26.0881305,87.93840336,OZONE,13,51,47
India,Bihar,Motihari,"Gandak Colony, Motihari - BSPCB",18-05-2024 22:00:00,26.63086,84.90051,SO2,4,21,11
India,Bihar,Muzaffarpur,"Buddha Colony, Muzaffarpur - BSPCB",18-05-2024 22:00:00,26.11442,85.39813,NO2,25,70,39
India,Bihar,Muzaffarpur,"Buddha Colony, Muzaffarpur - BSPCB",18-05-2024 22:00:00,26.11442,85.39813,NH3,7,12,10
India,Bihar,Muzaffarpur,"Buddha Colony, Muzaffarpur - BSPCB",18-05-2024 22:00:00,26.11442,85.39813,SO2,7,23,12
India,Bihar,Muzaffarpur,"Buddha Colony, Muzaffarpur - BSPCB",18-05-2024 22:00:00,26.11442,85.39813,CO,24,66,31
India,Bihar,Patna,"DRM Office Danapur, Patna - BSPCB",18-05-2024 22:00:00,25.586562,85.043586,PM2.5,134,315,243
India,Bihar,Patna,"IGSC Planetarium Complex, Patna - BSPCB",18-05-2024 22:00:00,25.610369,85.132568,PM2.5,88,340,207
India,Bihar,Patna,"IGSC Planetarium Complex, Patna - BSPCB",18-05-2024 22:00:00,25.610369,85.132568,NO2,10,11,11
India,Bihar,Patna,"Muradpur, Patna - BSPCB",18-05-2024 22:00:00,25.619651,85.147382,SO2,6,11,7
India,Bihar,Patna,"Muradpur, Patna - BSPCB",18-05-2024 22:00:00,25.619651,85.147382,CO,8,141,70
India,Bihar,Patna,"Rajbansi Nagar, Patna - BSPCB",18-05-2024 22:00:00,25.599486,85.113666,PM10,131,308,192
India,Bihar,Patna,"Rajbansi Nagar, Patna - BSPCB",18-05-2024 22:00:00,25.599486,85.113666,NH3,1,6,4
India,Bihar,Patna,"Rajbansi Nagar, Patna - BSPCB",18-05-2024 22:00:00,25.599486,85.113666,CO,13,117,51
India,Bihar,Patna,"Samanpura, Patna - BSPCB",18-05-2024 22:00:00,25.596727,85.085624,NO2,2,66,28
India,Bihar,Patna,"Samanpura, Patna - BSPCB",18-05-2024 22:00:00,25.596727,85.085624,NH3,7,12,9
India,Bihar,Purnia,"Mariam Nagar, Purnia - BSPCB",18-05-2024 22:00:00,25.366336,87.117468,PM10,NA,NA,NA
India,Bihar,Rajgir,"Dangi Tola, Rajgir - BSPCB",18-05-2024 22:00:00,25.03280,85.41948,PM2.5,28,95,52
India,Bihar,Rajgir,"Dangi Tola, Rajgir - BSPCB",18-05-2024 22:00:00,25.03280,85.41948,PM10,31,104,57
India,Bihar,Rajgir,"Dangi Tola, Rajgir - BSPCB",18-05-2024 22:00:00,25.03280,85.41948,NH3,3,4,3
India,Bihar,Saharsa,"Police Line, Saharsa - BSPCB",18-05-2024 22:00:00,25.892357,86.590325,NO2,7,7,7
India,Bihar,Saharsa,"Police Line, Saharsa - BSPCB",18-05-2024 22:00:00,25.892357,86.590325,NH3,9,9,9
India,Bihar,Samastipur,"DM Office_Kasipur, Samastipur - BSPCB",18-05-2024 22:00:00,25.859655,85.77944,PM2.5,25,469,178
India,Bihar,Samastipur,"DM Office_Kasipur, Samastipur - BSPCB",18-05-2024 22:00:00,25.859655,85.77944,NH3,4,4,4
India,Bihar,Samastipur,"DM Office_Kasipur, Samastipur - BSPCB",18-05-2024 22:00:00,25.859655,85.77944,SO2,NA,NA,NA
India,Bihar,Samastipur,"DM Office_Kasipur, Samastipur - BSPCB",18-05-2024 22:00:00,25.859655,85.77944,CO,5,135,80
India,Bihar,Sasaram,"Dada Peer, Sasaram - BSPCB",18-05-2024 22:00:00,24.952822,84.002396,NO2,6,96,54
India,Bihar,Sasaram,"Dada Peer, Sasaram - BSPCB",18-05-2024 22:00:00,24.952822,84.002396,NH3,1,28,16
India,Bihar,Sasaram,"Dada Peer, Sasaram - BSPCB",18-05-2024 22:00:00,24.952822,84.002396,OZONE,3,76,55
India,Bihar,Siwan,"Chitragupta Nagar, Siwan - BSPCB",18-05-2024 22:00:00,26.2271665,84.3570427,PM10,77,271,121
India,Bihar,Siwan,"Chitragupta Nagar, Siwan - BSPCB",18-05-2024 22:00:00,26.2271665,84.3570427,SO2,24,35,30
India,Chandigarh,Chandigarh,"Sector-25, Chandigarh - CPCC",18-05-2024 22:00:00,30.751462,76.762879,OZONE,1,105,32
India,Chandigarh,Chandigarh,"Sector-53, Chandigarh - CPCC",18-05-2024 22:00:00,30.719859,76.738637,SO2,10,44,24
India,Chhattisgarh,Bhilai,"32Bungalows, Bhilai - CECB",18-05-2024 22:00:00,21.194815,81.314770,NH3,6,6,6
India,Chhattisgarh,Bhilai,"32Bungalows, Bhilai - CECB",18-05-2024 22:00:00,21.194815,81.314770,CO,11,20,13
India,Chhattisgarh,Bhilai,"32Bungalows, Bhilai - CECB",18-05-2024 22:00:00,21.194815,81.314770,OZONE,6,32,20
India,Chhattisgarh,Bhilai,"Civic Center, Bhilai - Bhilai Steel Plant",18-05-2024 22:00:00,21.185571,81.343175,SO2,9,19,11
India,Chhattisgarh,Bhilai,"Civic Center, Bhilai - Bhilai Steel Plant",18-05-2024 22:00:00,21.185571,81.343175,CO,33,62,47
India,Chhattisgarh,Bhilai,"Hathkhoj, Bhilai - CECB",18-05-2024 22:00:00,21.224231,81.408350,NH3,8,9,9
India,Chhattisgarh,Bhilai,"Hathkhoj, Bhilai - CECB",18-05-2024 22:00:00,21.224231,81.408350,OZONE,18,35,31
India,Chhattisgarh,Bilaspur,"Mangala, Bilaspur - NTPC",18-05-2024 22:00:00,22.08815,82.13737,PM2.5,7,60,35
India,Chhattisgarh,Chhal,"Nawapara SECL Colony, Chhal - CECB",18-05-2024 22:00:00,22.118125,83.140608,PM10,18,164,59
India,Chhattisgarh,Chhal,"Nawapara SECL Colony, Chhal - CECB",18-05-2024 22:00:00,22.118125,83.140608,OZONE,8,67,51
India,Chhattisgarh,Korba,"Rampur, Korba - CECB",18-05-2024 22:00:00,22.368195,82.746431,PM2.5,16,66,40
India,Chhattisgarh,Korba,"Rampur, Korba - CECB",18-05-2024 22:00:00,22.368195,82.746431,CO,10,38,12
India,Chhattisgarh,Korba,"Rampur, Korba - CECB",18-05-2024 22:00:00,22.368195,82.746431,OZONE,8,13,11
India,Chhattisgarh,Korba,"Urja Nagar, Korba - CECB",18-05-2024 22:00:00,22.348441,82.549611,PM10,17,190,84
India,Chhattisgarh,Milupara,"Govt. Higher Secondary School, Milupara - CECB",18-05-2024 22:00:00,22.1910172,83.5197009,SO2,2,39,15
India,Chhattisgarh,Raipur,"AIIMS, Raipur - CECB",18-05-2024 22:00:00,21.258815,81.578979,NO2,9,11,10
India,Chhattisgarh,Raipur,"AIIMS, Raipur - CECB",18-05-2024 22:00:00,21.258815,81.578979,SO2,3,9,5
India,Chhattisgarh,Raipur,"AIIMS, Raipur - CECB",18-05-2024 22:00:00,21.258815,81.578979,CO,18,24,23
India,Chhattisgarh,Raipur,"Krishak Nagar, Raipur - CECB",18-05-2024 22:00:00,21.237755,81.705301,PM2.5,5,30,14
India,Chhattisgarh,Raipur,"Krishak Nagar, Raipur - CECB",18-05-2024 22:00:00,21.237755,81.705301,NH3,1,1,1
India,Chhattisgarh,Raipur,"Siltara Phase-II, Raipur - CECB",18-05-2024 22:00:00,21.371751,81.664929,NO2,16,40,30
India,Chhattisgarh,Tumidih,"OP Jindal Industrial Park, Tumidih - CECB",18-05-2024 22:00:00,22.06631475,83.33820077,PM2.5,NA,NA,NA
India,Chhattisgarh,Tumidih,"OP Jindal Industrial Park, Tumidih - CECB",18-05-2024 22:00:00,22.06631475,83.33820077,NH3,NA,NA,NA
India,Chhattisgarh,Tumidih,"OP Jindal Industrial Park, Tumidih - CECB",18-05-2024 22:00:00,22.06631475,83.33820077,OZONE,NA,NA,NA
India,Delhi,Delhi,"Alipur, Delhi - DPCC",18-05-2024 22:00:00,28.815329,77.153010,PM2.5,55,371,216
India,Delhi,Delhi,"Anand Vihar, Delhi - DPCC",18-05-2024 22:00:00,28.647622,77.3158090,PM10,NA,NA,NA
India,Delhi,Delhi,"Anand Vihar, Delhi - DPCC",18-05-2024 22:00:00,28.647622,77.3158090,NO2,NA,NA,NA
India,Delhi,Delhi,"Anand Vihar, Delhi - DPCC",18-05-2024 22:00:00,28.647622,77.3158090,SO2,NA,NA,NA
India,Delhi,Delhi,"Bawana, Delhi - DPCC",18-05-2024 22:00:00,28.776200,77.051074,CO,56,101,67
India,Delhi,Delhi,"Burari Crossing, Delhi - IMD",18-05-2024 22:00:00,28.7256504,77.2011573,PM2.5,92,333,236
India,Delhi,Delhi,"Burari Crossing, Delhi - IMD",18-05-2024 22:00:00,28.7256504,77.2011573,CO,33,104,47
India,Delhi,Delhi,"Chandni Chowk, Delhi - IITM",18-05-2024 22:00:00,28.656756,77.227234,PM10,181,417,290
India,Delhi,Delhi,"Chandni Chowk, Delhi - IITM",18-05-2024 22:00:00,28.656756,77.227234,CO,47,103,67
India,Delhi,Delhi,"DTU, Delhi - CPCB",18-05-2024 22:00:00,28.7500499,77.1112615,PM10,131,439,257
India,Delhi,Delhi,"DTU, Delhi - CPCB",18-05-2024 22:00:00,28.7500499,77.1112615,CO,8,68,17
India,Delhi,Delhi,"Dr. Karni Singh Shooting Range, Delhi - DPCC",18-05-2024 22:00:00,28.498571,77.264840,OZONE,3,262,100
India,Delhi,Delhi,"Dwarka-Sector 8, Delhi - DPCC ",18-05-2024 22:00:00,28.5710274,77.0719006,NO2,23,139,76
India,Delhi,Delhi,"Dwarka-Sector 8, Delhi - DPCC ",18-05-2024 22:00:00,28.5710274,77.0719006,CO,32,140,56
India,Delhi,Delhi,"IGI Airport (T3), Delhi - IMD",18-05-2024 22:00:00,28.5627763,77.1180053,OZONE,5,83,31
India,Delhi,Delhi,"Jahangirpuri, Delhi - DPCC",18-05-2024 22:00:00,28.732820,77.170633,PM2.5,80,395,267
India,Delhi,Delhi,"Jahangirpuri, Delhi - DPCC",18-05-2024 22:00:00,28.732820,77.170633,NO2,15,76,42
India,Delhi,Delhi,"Jahangirpuri, Delhi - DPCC",18-05-2024 22:00:00,28.732820,77.170633,NH3,1,6,4
India,Delhi,Delhi,"Jahangirpuri, Delhi - DPCC",18-05-2024 22:00:00,28.732820,77.170633,CO,26,108,71
India,Delhi,Delhi,"Lodhi Road, Delhi - IITM",18-05-2024 22:00:00,28.588333,77.221667,NO2,8,115,42
India,Delhi,Delhi,"Lodhi Road, Delhi - IMD",18-05-2024 22:00:00,28.5918245,77.2273074,CO,14,51,22
India,Delhi,Delhi,"Major Dhyan Chand National Stadium, Delhi - DPCC",18-05-2024 22:00:00,28.611281,77.237738,PM2.5,77,318,216
India,Delhi,Delhi,"Major Dhyan Chand National Stadium, Delhi - DPCC",18-05-2024 22:00:00,28.611281,77.237738,PM10,129,283,205
India,Delhi,Delhi,"Major Dhyan Chand National Stadium, Delhi - DPCC",18-05-2024 22:00:00,28.611281,77.237738,CO,134,183,162
India,Delhi,Delhi,"Mandir Marg, Delhi - DPCC",18-05-2024 22:00:00,28.636429,77.201067,NO2,51,144,106
India,Delhi,Delhi,"Mandir Marg, Delhi - DPCC",18-05-2024 22:00:00,28.636429,77.201067,OZONE,1,37,15
India,Delhi,Delhi,"Mundka, Delhi - DPCC",18-05-2024 22:00:00,28.684678,77.076574,SO2,12,69,36
India,Delhi,Delhi,"NSIT Dwarka, Delhi - CPCB",18-05-2024 22:00:00,28.60909,77.0325413,SO2,1,49,16
India,Delhi,Delhi,"Najafgarh, Delhi - DPCC",18-05-2024 22:00:00,28.570173,76.933762,NH3,6,23,10
India,Delhi,Delhi,"Najafgarh, Delhi - DPCC",18-05-2024 22:00:00,28.570173,76.933762,OZONE,15,148,101
India,Delhi,Delhi,"Narela, Delhi - DPCC",18-05-2024 22:00:00,28.822836,77.101981,PM2.5,67,406,247
India,Delhi,Delhi,"Narela, Delhi - DPCC",18-05-2024 22:00:00,28.822836,77.101981,NH3,7,13,9
India,Delhi,Delhi,"Narela, Delhi - DPCC",18-05-2024 22:00:00,28.822836,77.101981,SO2,9,101,48
India,Delhi,Delhi,"Nehru Nagar, Delhi - DPCC",18-05-2024 22:00:00,28.567890,77.250515,SO2,2,17,8
India,Delhi,Delhi,"Nehru Nagar, Delhi - DPCC",18-05-2024 22:00:00,28.567890,77.250515,CO,28,95,62
India,Delhi,Delhi,"Okhla Phase-2, Delhi - DPCC",18-05-2024 22:00:00,28.530785,77.271255,NH3,12,18,15
India,Delhi,Delhi,"Patparganj, Delhi - DPCC",18-05-2024 22:00:00,28.623763,77.287209,PM2.5,93,333,241
India,Delhi,Delhi,"Patparganj, Delhi - DPCC",18-05-2024 22:00:00,28.623763,77.287209,SO2,1,12,6
India,Delhi,Delhi,"Punjabi Bagh, Delhi - DPCC",18-05-2024 22:00:00,28.674045,77.131023,PM2.5,55,361,246
India,Delhi,Delhi,"Pusa, Delhi - DPCC",18-05-2024 22:00:00,28.639652,77.146275,NH3,5,10,8
India,Delhi,Delhi,"Pusa, Delhi - IMD",18-05-2024 22:00:00,28.636110,77.173332,NO2,NA,NA,NA
India,Delhi,Delhi,"Pusa, Delhi - IMD",18-05-2024 22:00:00,28.636110,77.173332,CO,NA,NA,NA
India,Delhi,Delhi,"R K Puram, Delhi - DPCC",18-05-2024 22:00:00,28.563262,77.186937,SO2,4,50,25
India,Delhi,Delhi,"Shadipur, Delhi - CPCB",18-05-2024 22:00:00,28.6514781,77.1473105,OZONE,9,43,26
India,Delhi,Delhi,"Sirifort, Delhi - CPCB",18-05-2024 22:00:00,28.5504249,77.2159377,OZONE,4,119,55
India,Delhi,Delhi,"Sonia Vihar, Delhi - DPCC",18-05-2024 22:00:00,28.710508,77.249485,CO,51,132,65
India,Delhi,Delhi,"Sri Aurobindo Marg, Delhi - DPCC",18-05-2024 22:00:00,28.531346,77.190156,NO2,9,77,36
India,Delhi,Delhi,"Vivek Vihar, Delhi - DPCC",18-05-2024 22:00:00,28.672342,77.315260,PM10,171,406,261
India,Delhi,Delhi,"Vivek Vihar, Delhi - DPCC",18-05-2024 22:00:00,28.672342,77.315260,CO,20,133,47
India,Delhi,Delhi,"Wazirpur, Delhi - DPCC",18-05-2024 22:00:00,28.699793,77.165453,NH3,8,15,12
India,Gujarat,Ahmedabad,"Chandkheda, Ahmedabad - IITM",18-05-2024 22:00:00,23.107969,72.574648,NH3,11,17,14
India,Gujarat,Ahmedabad,"Chandkheda, Ahmedabad - IITM",18-05-2024 22:00:00,23.107969,72.574648,OZONE,33,66,57
India,Gujarat,Ahmedabad,"Gyaspur, Ahmedabad - IITM",18-05-2024 22:00:00,22.977134,72.553024,OZONE,71,147,116
India,Gujarat,Ahmedabad,"Maninagar, Ahmedabad - GPCB",18-05-2024 22:00:00,23.002657,72.591912,OZONE,2,117,37
India,Gujarat,Ahmedabad,"Raikhad, Ahmedabad - IITM",18-05-2024 22:00:00,23.020509,72.579261,NH3,NA,NA,NA
India,Gujarat,Ahmedabad,"Sardar Vallabhbhai Patel Stadium, Ahmedabad - IITM",18-05-2024 22:00:00,23.043070,72.562968,PM10,86,132,108
India,Gujarat,Ankleshwar,"GIDC, Ankleshwar - GPCB",18-05-2024 22:00:00,21.613267,73.010555,CO,NA,NA,NA
India,Gujarat,Gandhinagar,"Sector-10, Gandhinagar - GPCB",18-05-2024 22:00:00,23.221714,72.654328,OZONE,3,69,42
India,Haryana,Ambala,"Patti Mehar, Ambala - HSPCB",18-05-2024 22:00:00,30.379589,76.778328,CO,30,61,40
India,Haryana,Bahadurgarh,"Arya Nagar, Bahadurgarh - HSPCB",18-05-2024 22:00:00,28.6701,76.9254,NO2,19,24,22
India,Haryana,Bahadurgarh,"Arya Nagar, Bahadurgarh - HSPCB",18-05-2024 22:00:00,28.6701,76.9254,SO2,6,49,19
India,Haryana,Bahadurgarh,"Arya Nagar, Bahadurgarh - HSPCB",18-05-2024 22:00:00,28.6701,76.9254,OZONE,32,40,36
India,Haryana,Bhiwani,"H.B. Colony, Bhiwani - HSPCB",18-05-2024 22:00:00,28.806223,76.141105,NO2,6,12,9
India,Haryana,Bhiwani,"H.B. Colony, Bhiwani - HSPCB",18-05-2024 22:00:00,28.806223,76.141105,SO2,6,11,8
India,Haryana,Charkhi Dadri,"Mini Secretariat, Charkhi Dadri - HSPCB",18-05-2024 22:00:00,28.593883,76.270653,OZONE,13,18,15
India,Haryana,Dharuhera,"Municipal Corporation Office, Dharuhera -  HSPCB",18-05-2024 22:00:00,28.206800,76.799700,NO2,47,112,79
India,Haryana,Dharuhera,"Municipal Corporation Office, Dharuhera -  HSPCB",18-05-2024 22:00:00,28.206800,76.799700,SO2,8,104,23
India,Haryana,Faridabad,"New Industrial Town, Faridabad - HSPCB",18-05-2024 22:00:00,28.39072,77.30059,NO2,8,25,16
India,Haryana,Faridabad,"Sector 11, Faridabad - HSPCB",18-05-2024 22:00:00,28.376058,77.315741,SO2,4,116,23
India,Haryana,Faridabad,"Sector 11, Faridabad - HSPCB",18-05-2024 22:00:00,28.376058,77.315741,OZONE,5,30,20
India,Haryana,Faridabad,"Sector 30, Faridabad - HSPCB",18-05-2024 22:00:00,28.4417,77.3217,PM10,198,223,209
India,Haryana,Faridabad,"Sector 30, Faridabad - HSPCB",18-05-2024 22:00:00,28.4417,77.3217,OZONE,58,62,60
India,Haryana,Faridabad,"Sector- 16A, Faridabad - HSPCB",18-05-2024 22:00:00,28.4088421,77.3099081,PM2.5,NA,NA,NA
India,Haryana,Fatehabad,"Huda Sector, Fatehabad - HSPCB",18-05-2024 22:00:00,29.503664,75.467934,SO2,2,71,12
India,Haryana,Gurugram,"NISE Gwal Pahari, Gurugram - IMD",18-05-2024 22:00:00,28.422681,77.148944,OZONE,4,122,78
India,Haryana,Gurugram,"Teri Gram, Gurugram - HSPCB",18-05-2024 22:00:00,28.4275,77.1465,PM2.5,NA,NA,NA
India,Haryana,Gurugram,"Teri Gram, Gurugram - HSPCB",18-05-2024 22:00:00,28.4275,77.1465,PM10,NA,NA,NA
India,Haryana,Gurugram,"Teri Gram, Gurugram - HSPCB",18-05-2024 22:00:00,28.4275,77.1465,SO2,NA,NA,NA
India,Haryana,Hisar,"Urban Estate-II, Hisar - HSPCB",18-05-2024 22:00:00,29.140560,75.744941,NO2,NA,NA,NA
India,Haryana,Hisar,"Urban Estate-II, Hisar - HSPCB",18-05-2024 22:00:00,29.140560,75.744941,CO,25,52,32
India,Haryana,Jind,"Police Lines, Jind - HSPCB",18-05-2024 22:00:00,29.307814,76.337619,PM10,112,149,130
India,Haryana,Jind,"Police Lines, Jind - HSPCB",18-05-2024 22:00:00,29.307814,76.337619,NH3,1,10,1
India,Haryana,Kaithal,"Rishi Nagar, Kaithal - HSPCB",18-05-2024 22:00:00,29.8006,76.4155,PM2.5,62,169,109
India,Haryana,Mandikhera,"General Hospital, Mandikhera - HSPCB",18-05-2024 22:00:00,27.9002,76.9938,NH3,16,20,18
India,Haryana,Mandikhera,"General Hospital, Mandikhera - HSPCB",18-05-2024 22:00:00,27.9002,76.9938,SO2,32,38,35
India,Haryana,Manesar,"Sector-2 IMT, Manesar - HSPCB",18-05-2024 22:00:00,28.360699,76.936090,OZONE,2,137,66
India,Haryana,Narnaul,"Shastri Nagar, Narnaul - HSPCB",18-05-2024 22:00:00,28.060249,76.113115,NO2,NA,NA,NA
India,Haryana,Palwal,"Shyam Nagar, Palwal - HSPCB",18-05-2024 22:00:00,28.1485564,77.3320667,CO,21,40,29
India,Haryana,Panchkula,"Sector-6, Panchkula - HSPCB ",18-05-2024 22:00:00,30.7057778,76.8531805555555,NO2,10,11,10
India,Haryana,Panipat,"Sector-18, Panipat - HSPCB",18-05-2024 22:00:00,29.432304,76.972765,NO2,31,32,31
India,Haryana,Panipat,"Sector-18, Panipat - HSPCB",18-05-2024 22:00:00,29.432304,76.972765,NH3,2,3,2
India,Haryana,Rohtak,"MD University, Rohtak - HSPCB",18-05-2024 22:00:00,28.52123,76.37138,PM2.5,42,368,169
India,Haryana,Rohtak,"MD University, Rohtak - HSPCB",18-05-2024 22:00:00,28.52123,76.37138,CO,22,88,49
India,Haryana,Sirsa,"F-Block, Sirsa - HSPCB",18-05-2024 22:00:00,29.536400,75.015800,SO2,NA,NA,NA
India,Haryana,Sonipat,"Murthal, Sonipat - HSPCB",18-05-2024 22:00:00,29.027200,77.062100,PM2.5,113,357,182
India,Haryana,Sonipat,"Murthal, Sonipat - HSPCB",18-05-2024 22:00:00,29.027200,77.062100,CO,2,36,18
India,Haryana,Yamuna Nagar,"Gobind Pura, Yamuna Nagar - HSPCB",18-05-2024 22:00:00,30.1480566,77.2893471,PM2.5,NA,NA,NA
India,Jharkhand,Dhanbad,"Kalakusuma, Dhanbad - DMC",18-05-2024 22:00:00,23.811548,86.481238,NO2,13,15,14
India,Jharkhand,Jorapokhar,"Tata Stadium, Jorapokhar - JSPCB",18-05-2024 22:00:00,23.707909,86.414670,NO2,NA,NA,NA
India,Jharkhand,Jorapokhar,"Tata Stadium, Jorapokhar - JSPCB",18-05-2024 22:00:00,23.707909,86.414670,NH3,NA,NA,NA
India,Jharkhand,Jorapokhar,"Tata Stadium, Jorapokhar - JSPCB",18-05-2024 22:00:00,23.707909,86.414670,CO,42,116,52
India,Jharkhand,Pathardih,"Mohalbani Ghat, Pathardih - DMC",18-05-2024 22:00:00,23.669880,86.411725,PM2.5,NA,NA,NA
India,Jharkhand,Pathardih,"Mohalbani Ghat, Pathardih - DMC",18-05-2024 22:00:00,23.669880,86.411725,PM10,NA,NA,NA
India,Karnataka,Belgaum,"Ramteerth Nagar, Belgaum - KSPCB",18-05-2024 22:00:00,15.888653,74.541751,PM2.5,16,35,25
India,Karnataka,Belgaum,"Ramteerth Nagar, Belgaum - KSPCB",18-05-2024 22:00:00,15.888653,74.541751,OZONE,19,20,20
India,Karnataka,Bengaluru,"Bapuji Nagar, Bengaluru - KSPCB",18-05-2024 22:00:00,12.951913,77.539784,PM2.5,13,40,29
India,Karnataka,Bengaluru,"Hombegowda Nagar, Bengaluru - KSPCB",18-05-2024 22:00:00,12.938539,77.590100,NO2,10,24,17
India,Karnataka,Bengaluru,"Hombegowda Nagar, Bengaluru - KSPCB",18-05-2024 22:00:00,12.938539,77.590100,CO,16,28,23
India,Karnataka,Bengaluru,"Jayanagar 5th Block, Bengaluru - KSPCB",18-05-2024 22:00:00,12.920984,77.584908,PM2.5,16,58,37
India,Karnataka,Bengaluru,"Kasturi Nagar, Bengaluru - KSPCB",18-05-2024 22:00:00,13.003872,77.664217,PM2.5,23,23,23
India,Karnataka,Bengaluru,"Kasturi Nagar, Bengaluru - KSPCB",18-05-2024 22:00:00,13.003872,77.664217,NO2,16,17,17
India,Karnataka,Bengaluru,"Peenya, Bengaluru - CPCB",18-05-2024 22:00:00,13.0270199,77.494094,NH3,NA,NA,NA
India,Karnataka,Bengaluru,"Peenya, Bengaluru - CPCB",18-05-2024 22:00:00,13.0270199,77.494094,SO2,NA,NA,NA
India,Karnataka,Bengaluru,"Sanegurava Halli, Bengaluru - KSPCB",18-05-2024 22:00:00,12.990328,77.5431385,NO2,23,37,27
India,Karnataka,Bengaluru,"Sanegurava Halli, Bengaluru - KSPCB",18-05-2024 22:00:00,12.990328,77.5431385,SO2,2,3,3
India,Karnataka,Bengaluru,"Shivapura_Peenya, Bengaluru - KSPCB",18-05-2024 22:00:00,13.0246342,77.5080115,NO2,15,16,15
India,Karnataka,Bengaluru,"Shivapura_Peenya, Bengaluru - KSPCB",18-05-2024 22:00:00,13.0246342,77.5080115,NH3,4,4,4
India,Karnataka,Bengaluru,"Shivapura_Peenya, Bengaluru - KSPCB",18-05-2024 22:00:00,13.0246342,77.5080115,OZONE,53,56,55
India,Karnataka,Bengaluru,"Silk Board, Bengaluru - KSPCB",18-05-2024 22:00:00,12.917348,77.622813,NH3,NA,NA,NA
India,Karnataka,Chamarajanagar,"Urban, Chamarajanagar - KSPCB",18-05-2024 22:00:00,11.55358,76.55521,PM2.5,20,45,28
India,Karnataka,Chamarajanagar,"Urban, Chamarajanagar - KSPCB",18-05-2024 22:00:00,11.55358,76.55521,PM10,35,58,41
India,Karnataka,Chamarajanagar,"Urban, Chamarajanagar - KSPCB",18-05-2024 22:00:00,11.55358,76.55521,NH3,2,2,2
India,Karnataka,Chamarajanagar,"Urban, Chamarajanagar - KSPCB",18-05-2024 22:00:00,11.55358,76.55521,OZONE,14,34,24
India,Karnataka,Chikkaballapur,"Chikkaballapur Rural, Chikkaballapur - KSPCB",18-05-2024 22:00:00,13.428828,77.731418,OZONE,24,25,24
India,Karnataka,Chikkamagaluru,"Kalyana Nagara, Chikkamagaluru - KSPCB",18-05-2024 22:00:00,13.328028,75.797056,PM10,NA,NA,NA
India,Karnataka,Chikkamagaluru,"Kalyana Nagara, Chikkamagaluru - KSPCB",18-05-2024 22:00:00,13.328028,75.797056,NH3,NA,NA,NA
India,Karnataka,Dharwad,"Kalabhavan, Dharwad - KSPCB",18-05-2024 22:00:00,15.459706,75.008381,PM10,NA,NA,NA
India,Karnataka,Dharwad,"Kalabhavan, Dharwad - KSPCB",18-05-2024 22:00:00,15.459706,75.008381,NH3,NA,NA,NA
India,Karnataka,Dharwad,"Kalabhavan, Dharwad - KSPCB",18-05-2024 22:00:00,15.459706,75.008381,SO2,NA,NA,NA
India,Karnataka,Gadag,"Panchal Nagar, Gadag - KSPCB",18-05-2024 22:00:00,15.411456,75.638133,SO2,6,20,14
India,Karnataka,Hassan,"B.Katihalli, Hassan - KSPCB",18-05-2024 22:00:00,13.008556,76.125258,PM10,21,99,61
India,Karnataka,Haveri,"Ashwini Nagar, Haveri - KSPCB",18-05-2024 22:00:00,14.791800,75.389600,PM2.5,23,58,38
India,Karnataka,Haveri,"Ashwini Nagar, Haveri - KSPCB",18-05-2024 22:00:00,14.791800,75.389600,CO,38,40,39
India,Karnataka,Hubballi,"Deshpande Nagar, Hubballi - KSPCB",18-05-2024 22:00:00,15.351773,75.140726,NO2,NA,NA,NA
India,Karnataka,Kalaburagi,"Lal Bahadur Shastri Nagar, Kalaburagi - KSPCB",18-05-2024 22:00:00,17.321993,76.822628,NH3,2,2,2
India,Karnataka,Kalaburagi,"Lal Bahadur Shastri Nagar, Kalaburagi - KSPCB",18-05-2024 22:00:00,17.321993,76.822628,CO,42,54,42
India,Karnataka,Kalaburagi,"Mahatma Basaveswar Colony, Kalaburgi - KSPCB",18-05-2024 22:00:00,17.336318,76.847397,PM2.5,12,34,23
India,Karnataka,Kalaburagi,"Mahatma Basaveswar Colony, Kalaburgi - KSPCB",18-05-2024 22:00:00,17.336318,76.847397,NH3,2,3,2
India,Karnataka,Karwar,"KHB Colony, Karwar - KSPCB",18-05-2024 22:00:00,14.816666,74.141003,PM2.5,27,60,41
India,Karnataka,Karwar,"KHB Colony, Karwar - KSPCB",18-05-2024 22:00:00,14.816666,74.141003,NO2,1,9,2
India,Karnataka,Kolar,"Tamaka Ind. Area, Kolar - KSPCB",18-05-2024 22:00:00,13.1276288,78.1570122,PM10,18,51,30
India,Karnataka,Kolar,"Tamaka Ind. Area, Kolar - KSPCB",18-05-2024 22:00:00,13.1276288,78.1570122,CO,4,18,13
India,Karnataka,Koppal,"Diwator Nagar, Koppal - KSPCB",18-05-2024 22:00:00,15.347630,76.181767,PM10,10,30,18
India,Karnataka,Koppal,"Diwator Nagar, Koppal - KSPCB",18-05-2024 22:00:00,15.347630,76.181767,NO2,32,63,47
India,Karnataka,Koppal,"Diwator Nagar, Koppal - KSPCB",18-05-2024 22:00:00,15.347630,76.181767,SO2,27,28,27
