country,state,city,station,last_update,latitude,longitude,pollutant_id,pollutant_min,pollutant_max,pollutant_avg
India,Andhra_Pradesh,Amaravati,"Secretariat, Amaravati - APPCB",09-03-2024 14:00:00,16.5150833,80.5181667,PM2.5,34,67,51
India,Andhra_Pradesh,Amaravati,"Secretariat, Amaravati - APPCB",09-03-2024 14:00:00,16.5150833,80.5181667,SO2,12,16,14
India,Andhra_Pradesh,Anantapur,"Gulzarpet, Anantapur - APPCB",09-03-2024 14:00:00,14.675886,77.593027,PM10,NA,NA,NA
India,Andhra_Pradesh,Anantapur,"Gulzarpet, Anantapur - APPCB",09-03-2024 14:00:00,14.675886,77.593027,SO2,6,11,9
India,Andhra_Pradesh,Kadapa,"Yerramukkapalli, Kadapa - APPCB",09-03-2024 14:00:00,14.465052,78.824187,PM2.5,32,56,45
India,Andhra_Pradesh,Kadapa,"Yerramukkapalli, Kadapa - APPCB",09-03-2024 14:00:00,14.465052,78.824187,NO2,8,8,8
India,Andhra_Pradesh,Kadapa,"Yerramukkapalli, Kadapa - APPCB",09-03-2024 14:00:00,14.465052,78.824187,CO,12,22,17
India,Andhra_Pradesh,Kadapa,"Yerramukkapalli, Kadapa - APPCB",09-03-2024 14:00:00,14.465052,78.824187,OZONE,30,98,45
India,Andhra_Pradesh,Rajamahendravaram,"Anand Kala Kshetram, Rajamahendravaram - APPCB",09-03-2024 14:00:00,16.9872867,81.7363176,NH3,4,5,4
India,Andhra_Pradesh,Tirupati,"Tirumala, Tirupati - APPCB",09-03-2024 14:00:00,13.67,79.35,PM2.5,45,111,72
India,Andhra_Pradesh,Tirupati,"Tirumala, Tirupati - APPCB",09-03-2024 14:00:00,13.67,79.35,SO2,2,22,11
India,Andhra_Pradesh,Tirupati,"Tirumala, Tirupati - APPCB",09-03-2024 14:00:00,13.67,79.35,OZONE,19,62,27
India,Andhra_Pradesh,Tirupati,"Vaikuntapuram, Tirupati - APPCB",09-03-2024 14:00:00,13.615387,79.409230,OZONE,3,55,15
India,Andhra_Pradesh,Vijayawada,"HB Colony, Vijayawada - APPCB",09-03-2024 14:00:00,16.536107,80.594233,CO,32,38,36
India,Andhra_Pradesh,Vijayawada,"Rajiv Gandhi Park, Vijayawada - APPCB",09-03-2024 14:00:00,16.509717,80.612222,PM10,49,101,67
India,Andhra_Pradesh,Vijayawada,"Rajiv Gandhi Park, Vijayawada - APPCB",09-03-2024 14:00:00,16.509717,80.612222,NO2,3,65,31
India,Andhra_Pradesh,Vijayawada,"Rajiv Nagar, Vijayawada - APPCB",09-03-2024 14:00:00,16.554731,80.649110,PM2.5,59,66,61
India,Andhra_Pradesh,Vijayawada,"Rajiv Nagar, Vijayawada - APPCB",09-03-2024 14:00:00,16.554731,80.649110,NO2,6,12,8
India,Andhra_Pradesh,Vijayawada,"Rajiv Nagar, Vijayawada - APPCB",09-03-2024 14:00:00,16.554731,80.649110,CO,34,34,34
India,Andhra_Pradesh,Visakhapatnam,"GVM Corporation, Visakhapatnam - APPCB",09-03-2024 14:00:00,17.72,83.3,OZONE,7,20,11
India,Assam,Guwahati,"IITG, Guwahati - PCBA",09-03-2024 14:00:00,26.2028636,91.70046436,CO,10,25,20
India,Assam,Guwahati,"IITG, Guwahati - PCBA",09-03-2024 14:00:00,26.2028636,91.70046436,OZONE,2,52,18
India,Assam,Guwahati,"LGBI Airport, Guwahati - PCBA",09-03-2024 14:00:00,26.10887,91.589544,NO2,8,53,27
India,Assam,Guwahati,"LGBI Airport, Guwahati - PCBA",09-03-2024 14:00:00,26.10887,91.589544,NH3,1,5,2
India,Assam,Guwahati,"Pan Bazaar, Guwahati - PCBA",09-03-2024 14:00:00,26.187500,91.744194,PM10,140,287,193
India,Assam,Guwahati,"Pan Bazaar, Guwahati - PCBA",09-03-2024 14:00:00,26.187500,91.744194,NH3,5,7,6
India,Assam,Guwahati,"Pan Bazaar, Guwahati - PCBA",09-03-2024 14:00:00,26.187500,91.744194,OZONE,18,19,18
India,Assam,Nagaon,"Christianpatty, Nagaon - PCBA",09-03-2024 14:00:00,26.349082,92.68449,PM10,103,268,162
India,Assam,Nalbari,"Bata Chowk, Nalbari - PCBA",09-03-2024 14:00:00,26.446912,91.439057,PM2.5,87,352,237
India,Assam,Nalbari,"Bata Chowk, Nalbari - PCBA",09-03-2024 14:00:00,26.446912,91.439057,CO,56,106,77
India,Assam,Silchar,"Tarapur, Silchar - PCBA",09-03-2024 14:00:00,24.82827,92.79525,NO2,17,48,33
India,Assam,Silchar,"Tarapur, Silchar - PCBA",09-03-2024 14:00:00,24.82827,92.79525,NH3,1,1,1
India,Assam,Sivasagar,"Girls College, Sivasagar - PCBA",09-03-2024 14:00:00,26.987634,94.636574,NH3,2,3,2
India,Assam,Sivasagar,"Girls College, Sivasagar - PCBA",09-03-2024 14:00:00,26.987634,94.636574,SO2,7,8,8
India,Assam,Sivasagar,"Girls College, Sivasagar - PCBA",09-03-2024 14:00:00,26.987634,94.636574,CO,26,32,29
India,Bihar,Araria,"Kharahiya Basti, Araria - BSPCB",09-03-2024 14:00:00,26.146529,87.454184,SO2,16,18,17
India,Bihar,Arrah,"New DM Office, Arrah - BSPCB",09-03-2024 14:00:00,25.5626095,84.663264,PM2.5,27,70,49
India,Bihar,Bettiah,"Kamalnath Nagar, Bettiah - BSPCB",09-03-2024 14:00:00,26.80365,84.51954,PM2.5,27,187,80
India,Bihar,Bettiah,"Kamalnath Nagar, Bettiah - BSPCB",09-03-2024 14:00:00,26.80365,84.51954,CO,62,71,63
India,Bihar,Bhagalpur,"DM Office_Kachari Chowk, Bhagalpur - BSPCB",09-03-2024 14:00:00,25.251013,86.989001,PM10,69,133,103
India,Bihar,Bihar Sharif,"D M Colony, Bihar Sharif - BSPCB",09-03-2024 14:00:00,25.204762,85.514960,NO2,8,11,9
India,Bihar,Buxar,"Charitra Van, Buxar - BSPCB (Formerly known as Central Jail)",09-03-2024 14:00:00,25.567520,83.966379,CO,58,75,71
India,Bihar,Chhapra,"Darshan Nagar, Chhapra - BSPCB",09-03-2024 14:00:00,25.7808257,84.7446768,NH3,7,11,9
India,Bihar,Chhapra,"Darshan Nagar, Chhapra - BSPCB",09-03-2024 14:00:00,25.7808257,84.7446768,CO,18,52,32
India,Bihar,Gaya,"Collectorate, Gaya - BSPCB",09-03-2024 14:00:00,24.7955,84.9994,NO2,1,3,2
India,Bihar,Gaya,"SFTI Kusdihra, Gaya - BSPCB",09-03-2024 14:00:00,24.762518,84.982348,PM2.5,24,94,60
India,Bihar,Gaya,"SFTI Kusdihra, Gaya - BSPCB",09-03-2024 14:00:00,24.762518,84.982348,PM10,36,102,66
India,Bihar,Gaya,"SFTI Kusdihra, Gaya - BSPCB",09-03-2024 14:00:00,24.762518,84.982348,NO2,16,93,39
India,Bihar,Gaya,"SFTI Kusdihra, Gaya - BSPCB",09-03-2024 14:00:00,24.762518,84.982348,NH3,1,4,3
India,Bihar,Gaya,"SFTI Kusdihra, Gaya - BSPCB",09-03-2024 14:00:00,24.762518,84.982348,SO2,6,9,7
India,Bihar,Hajipur,"Industrial Area, Hajipur - BSPCB",09-03-2024 14:00:00,25.697189,85.245900,PM10,131,208,164
India,Bihar,Katihar,"Mirchaibari, Katihar - BSPCB",09-03-2024 14:00:00,25.560083,87.553265,NH3,3,4,3
India,Bihar,Kishanganj,"SDM Office_Khagra, Kishanganj - BSPCB",09-03-2024 14:00:00,26.0881305,87.93840336,NO2,36,44,40
India,Bihar,Manguraha,"Forest Rest House, Manguraha - BSPCB",09-03-2024 14:00:00,27.308328,84.531742,NO2,6,18,10
India,Bihar,Motihari,"Gandak Colony, Motihari - BSPCB",09-03-2024 14:00:00,26.63086,84.90051,NH3,NA,NA,NA
India,Bihar,Munger,"Town Hall, Munger - BSPCB",09-03-2024 14:00:00,25.376776,86.471523,SO2,23,42,32
India,Bihar,Muzaffarpur,"Buddha Colony, Muzaffarpur - BSPCB",09-03-2024 14:00:00,26.11442,85.39813,OZONE,31,51,38
India,Bihar,Muzaffarpur,"Muzaffarpur Collectorate, Muzaffarpur - BSPCB",09-03-2024 14:00:00,26.1209,85.3647,NO2,7,13,10
India,Bihar,Muzaffarpur,"Muzaffarpur Collectorate, Muzaffarpur - BSPCB",09-03-2024 14:00:00,26.1209,85.3647,CO,22,99,56
India,Bihar,Patna,"Govt. High School Shikarpur, Patna - BSPCB",09-03-2024 14:00:00,25.592539,85.227158,PM2.5,76,131,100
India,Bihar,Patna,"Govt. High School Shikarpur, Patna - BSPCB",09-03-2024 14:00:00,25.592539,85.227158,PM10,95,156,121
India,Bihar,Patna,"IGSC Planetarium Complex, Patna - BSPCB",09-03-2024 14:00:00,25.610369,85.132568,SO2,NA,NA,NA
India,Bihar,Patna,"Muradpur, Patna - BSPCB",09-03-2024 14:00:00,25.619651,85.147382,NH3,2,4,3
India,Bihar,Patna,"Samanpura, Patna - BSPCB",09-03-2024 14:00:00,25.596727,85.085624,NH3,2,6,3
India,Bihar,Patna,"Samanpura, Patna - BSPCB",09-03-2024 14:00:00,25.596727,85.085624,SO2,15,16,15
India,Bihar,Purnia,"Mariam Nagar, Purnia - BSPCB",09-03-2024 14:00:00,25.366336,87.117468,NH3,1,1,1
India,Bihar,Rajgir,"Dangi Tola, Rajgir - BSPCB",09-03-2024 14:00:00,25.03280,85.41948,NH3,1,2,1
India,Bihar,Saharsa,"Police Line, Saharsa - BSPCB",09-03-2024 14:00:00,25.892357,86.590325,PM10,50,106,82
India,Bihar,Saharsa,"Police Line, Saharsa - BSPCB",09-03-2024 14:00:00,25.892357,86.590325,SO2,16,17,16
India,Bihar,Samastipur,"DM Office_Kasipur, Samastipur - BSPCB",09-03-2024 14:00:00,25.859655,85.77944,SO2,3,26,14
India,Bihar,Samastipur,"DM Office_Kasipur, Samastipur - BSPCB",09-03-2024 14:00:00,25.859655,85.77944,OZONE,9,30,17
India,Bihar,Siwan,"Chitragupta Nagar, Siwan - BSPCB",09-03-2024 14:00:00,26.2271665,84.3570427,NO2,9,32,15
India,Chandigarh,Chandigarh,"Sector-25, Chandigarh - CPCC",09-03-2024 14:00:00,30.751462,76.762879,CO,16,38,22
India,Chandigarh,Chandigarh,"Sector-53, Chandigarh - CPCC",09-03-2024 14:00:00,30.719859,76.738637,NO2,26,51,32
India,Chandigarh,Chandigarh,"Sector-53, Chandigarh - CPCC",09-03-2024 14:00:00,30.719859,76.738637,NH3,4,6,5
India,Chandigarh,Chandigarh,"Sector-53, Chandigarh - CPCC",09-03-2024 14:00:00,30.719859,76.738637,OZONE,30,74,45
India,Chhattisgarh,Bhilai,"32Bungalows, Bhilai - CECB",09-03-2024 14:00:00,21.194815,81.314770,PM10,43,108,73
India,Chhattisgarh,Bhilai,"32Bungalows, Bhilai - CECB",09-03-2024 14:00:00,21.194815,81.314770,OZONE,4,19,5
India,Chhattisgarh,Bhilai,"Hathkhoj, Bhilai - CECB",09-03-2024 14:00:00,21.224231,81.408350,PM10,65,140,104
India,Chhattisgarh,Bhilai,"Hathkhoj, Bhilai - CECB",09-03-2024 14:00:00,21.224231,81.408350,CO,10,36,19
India,Chhattisgarh,Bilaspur,"Mangala, Bilaspur - NTPC",09-03-2024 14:00:00,22.08815,82.13737,SO2,12,18,15
India,Chhattisgarh,Chhal,"Nawapara SECL Colony, Chhal - CECB",09-03-2024 14:00:00,22.118125,83.140608,NH3,1,2,1
India,Chhattisgarh,Korba,"Rampur, Korba - CECB",09-03-2024 14:00:00,22.368195,82.746431,PM10,17,39,27
India,Chhattisgarh,Korba,"Rampur, Korba - CECB",09-03-2024 14:00:00,22.368195,82.746431,NO2,15,44,34
India,Chhattisgarh,Korba,"Rampur, Korba - CECB",09-03-2024 14:00:00,22.368195,82.746431,CO,9,26,16
India,Chhattisgarh,Korba,"Urja Nagar, Korba - CECB",09-03-2024 14:00:00,22.348441,82.549611,OZONE,1,3,1
India,Chhattisgarh,Milupara,"Govt. Higher Secondary School, Milupara - CECB",09-03-2024 14:00:00,22.1910172,83.5197009,PM10,NA,NA,NA
India,Chhattisgarh,Raipur,"AIIMS, Raipur - CECB",09-03-2024 14:00:00,21.258815,81.578979,SO2,7,36,16
India,Chhattisgarh,Raipur,"AIIMS, Raipur - CECB",09-03-2024 14:00:00,21.258815,81.578979,OZONE,1,31,2
India,Chhattisgarh,Raipur,"Bhatagaon New ISBT, Raipur - CECB",09-03-2024 14:00:00,21.219665,81.630094,NH3,3,3,3
India,Chhattisgarh,Raipur,"Krishak Nagar, Raipur - CECB",09-03-2024 14:00:00,21.237755,81.705301,PM10,NA,NA,NA
India,Chhattisgarh,Raipur,"Siltara Phase-II, Raipur - CECB",09-03-2024 14:00:00,21.371751,81.664929,CO,17,52,33
India,Chhattisgarh,Raipur,"Siltara Phase-II, Raipur - CECB",09-03-2024 14:00:00,21.371751,81.664929,OZONE,3,27,5
India,Chhattisgarh,Tumidih,"OP Jindal Industrial Park, Tumidih - CECB",09-03-2024 14:00:00,22.06631475,83.33820077,NO2,8,36,19
India,Chhattisgarh,Tumidih,"OP Jindal Industrial Park, Tumidih - CECB",09-03-2024 14:00:00,22.06631475,83.33820077,NH3,1,3,2
India,Delhi,Delhi,"Alipur, Delhi - DPCC",09-03-2024 14:00:00,28.815329,77.153010,PM10,56,157,99
India,Delhi,Delhi,"Anand Vihar, Delhi - DPCC",09-03-2024 14:00:00,28.647622,77.3158090,NO2,49,118,82
India,Delhi,Delhi,"Anand Vihar, Delhi - DPCC",09-03-2024 14:00:00,28.647622,77.3158090,OZONE,13,54,29
India,Delhi,Delhi,"Ashok Vihar, Delhi - DPCC",09-03-2024 14:00:00,28.695381,77.181665,NO2,10,79,42
India,Delhi,Delhi,"Ashok Vihar, Delhi - DPCC",09-03-2024 14:00:00,28.695381,77.181665,NH3,10,10,10
India,Delhi,Delhi,"Aya Nagar, Delhi - IMD",09-03-2024 14:00:00,28.4706914,77.1099364,PM10,NA,NA,NA
India,Delhi,Delhi,"Bawana, Delhi - DPCC",09-03-2024 14:00:00,28.776200,77.051074,CO,10,36,24
India,Delhi,Delhi,"Burari Crossing, Delhi - IMD",09-03-2024 14:00:00,28.7256504,77.2011573,PM10,NA,NA,NA
India,Delhi,Delhi,"Burari Crossing, Delhi - IMD",09-03-2024 14:00:00,28.7256504,77.2011573,NO2,NA,NA,NA
India,Delhi,Delhi,"CRRI Mathura Road, Delhi - IMD",09-03-2024 14:00:00,28.5512005,77.2735737,NO2,NA,NA,NA
India,Delhi,Delhi,"DTU, Delhi - CPCB",09-03-2024 14:00:00,28.7500499,77.1112615,CO,18,35,29
India,Delhi,Delhi,"Dr. Karni Singh Shooting Range, Delhi - DPCC",09-03-2024 14:00:00,28.498571,77.264840,PM10,84,177,118
India,Delhi,Delhi,"Dr. Karni Singh Shooting Range, Delhi - DPCC",09-03-2024 14:00:00,28.498571,77.264840,NO2,40,139,81
India,Delhi,Delhi,"Dr. Karni Singh Shooting Range, Delhi - DPCC",09-03-2024 14:00:00,28.498571,77.264840,NH3,5,19,10
India,Delhi,Delhi,"Dwarka-Sector 8, Delhi - DPCC ",09-03-2024 14:00:00,28.5710274,77.0719006,PM10,105,324,163
India,Delhi,Delhi,"IGI Airport (T3), Delhi - IMD",09-03-2024 14:00:00,28.5627763,77.1180053,PM2.5,NA,NA,NA
India,Delhi,Delhi,"IGI Airport (T3), Delhi - IMD",09-03-2024 14:00:00,28.5627763,77.1180053,OZONE,2,53,20
India,Delhi,Delhi,"IHBAS, Dilshad Garden, Delhi - CPCB",09-03-2024 14:00:00,28.6811736,77.3025234,SO2,4,28,18
India,Delhi,Delhi,"ITO, Delhi - CPCB",09-03-2024 14:00:00,28.628624,77.241060,PM2.5,51,225,113
India,Delhi,Delhi,"ITO, Delhi - CPCB",09-03-2024 14:00:00,28.628624,77.241060,NO2,26,103,52
India,Delhi,Delhi,"ITO, Delhi - CPCB",09-03-2024 14:00:00,28.628624,77.241060,SO2,2,27,13
India,Delhi,Delhi,"ITO, Delhi - CPCB",09-03-2024 14:00:00,28.628624,77.241060,OZONE,14,66,41
India,Delhi,Delhi,"Jahangirpuri, Delhi - DPCC",09-03-2024 14:00:00,28.732820,77.170633,NO2,21,58,42
India,Delhi,Delhi,"Jahangirpuri, Delhi - DPCC",09-03-2024 14:00:00,28.732820,77.170633,NH3,8,12,10
India,Delhi,Delhi,"Jawaharlal Nehru Stadium, Delhi - DPCC",09-03-2024 14:00:00,28.580280,77.233829,NH3,5,8,6
India,Delhi,Delhi,"Lodhi Road, Delhi - IMD",09-03-2024 14:00:00,28.5918245,77.2273074,CO,16,25,23
India,Delhi,Delhi,"Major Dhyan Chand National Stadium, Delhi - DPCC",09-03-2024 14:00:00,28.611281,77.237738,NO2,26,120,68
India,Delhi,Delhi,"Mundka, Delhi - DPCC",09-03-2024 14:00:00,28.684678,77.076574,SO2,9,34,14
India,Delhi,Delhi,"Najafgarh, Delhi - DPCC",09-03-2024 14:00:00,28.570173,76.933762,NO2,5,22,13
India,Delhi,Delhi,"Najafgarh, Delhi - DPCC",09-03-2024 14:00:00,28.570173,76.933762,CO,1,77,46
India,Delhi,Delhi,"Narela, Delhi - DPCC",09-03-2024 14:00:00,28.822836,77.101981,PM10,77,181,127
India,Delhi,Delhi,"Narela, Delhi - DPCC",09-03-2024 14:00:00,28.822836,77.101981,NO2,10,56,29
India,Delhi,Delhi,"Narela, Delhi - DPCC",09-03-2024 14:00:00,28.822836,77.101981,SO2,7,23,13
India,Delhi,Delhi,"Nehru Nagar, Delhi - DPCC",09-03-2024 14:00:00,28.567890,77.250515,PM2.5,50,319,128
India,Delhi,Delhi,"Nehru Nagar, Delhi - DPCC",09-03-2024 14:00:00,28.567890,77.250515,OZONE,22,176,168
India,Delhi,Delhi,"New Moti Bagh, Delhi - MHUA",09-03-2024 14:00:00,28.57834,77.18400,PM2.5,45,302,154
India,Delhi,Delhi,"Okhla Phase-2, Delhi - DPCC",09-03-2024 14:00:00,28.530785,77.271255,NO2,48,150,92
India,Delhi,Delhi,"Patparganj, Delhi - DPCC",09-03-2024 14:00:00,28.623763,77.287209,SO2,16,20,18
India,Delhi,Delhi,"Punjabi Bagh, Delhi - DPCC",09-03-2024 14:00:00,28.674045,77.131023,NO2,14,28,20
India,Delhi,Delhi,"Punjabi Bagh, Delhi - DPCC",09-03-2024 14:00:00,28.674045,77.131023,SO2,17,26,22
India,Delhi,Delhi,"Punjabi Bagh, Delhi - DPCC",09-03-2024 14:00:00,28.674045,77.131023,OZONE,9,44,25
India,Delhi,Delhi,"Pusa, Delhi - DPCC",09-03-2024 14:00:00,28.639652,77.146275,PM2.5,46,256,140
India,Delhi,Delhi,"Pusa, Delhi - DPCC",09-03-2024 14:00:00,28.639652,77.146275,SO2,12,28,18
India,Delhi,Delhi,"Pusa, Delhi - IMD",09-03-2024 14:00:00,28.636110,77.173332,NO2,NA,NA,NA
India,Delhi,Delhi,"Pusa, Delhi - IMD",09-03-2024 14:00:00,28.636110,77.173332,CO,50,68,61
India,Delhi,Delhi,"Pusa, Delhi - IMD",09-03-2024 14:00:00,28.636110,77.173332,OZONE,11,20,16
India,Delhi,Delhi,"R K Puram, Delhi - DPCC",09-03-2024 14:00:00,28.563262,77.186937,PM2.5,61,315,143
India,Delhi,Delhi,"R K Puram, Delhi - DPCC",09-03-2024 14:00:00,28.563262,77.186937,PM10,94,197,129
India,Delhi,Delhi,"R K Puram, Delhi - DPCC",09-03-2024 14:00:00,28.563262,77.186937,NO2,17,73,40
India,Delhi,Delhi,"R K Puram, Delhi - DPCC",09-03-2024 14:00:00,28.563262,77.186937,SO2,2,29,10
India,Delhi,Delhi,"Sirifort, Delhi - CPCB",09-03-2024 14:00:00,28.5504249,77.2159377,PM10,84,178,116
India,Delhi,Delhi,"Sonia Vihar, Delhi - DPCC",09-03-2024 14:00:00,28.710508,77.249485,PM10,79,142,110
India,Delhi,Delhi,"Sonia Vihar, Delhi - DPCC",09-03-2024 14:00:00,28.710508,77.249485,NO2,18,93,36
India,Delhi,Delhi,"Sonia Vihar, Delhi - DPCC",09-03-2024 14:00:00,28.710508,77.249485,NH3,4,5,4
India,Delhi,Delhi,"Sonia Vihar, Delhi - DPCC",09-03-2024 14:00:00,28.710508,77.249485,SO2,9,18,13
India,Delhi,Delhi,"Sri Aurobindo Marg, Delhi - DPCC",09-03-2024 14:00:00,28.531346,77.190156,NO2,17,107,46
India,Delhi,Delhi,"Sri Aurobindo Marg, Delhi - DPCC",09-03-2024 14:00:00,28.531346,77.190156,NH3,6,7,6
India,Delhi,Delhi,"Sri Aurobindo Marg, Delhi - DPCC",09-03-2024 14:00:00,28.531346,77.190156,OZONE,1,51,19
India,Delhi,Delhi,"Vivek Vihar, Delhi - DPCC",09-03-2024 14:00:00,28.672342,77.315260,PM10,89,173,117
India,Delhi,Delhi,"Wazirpur, Delhi - DPCC",09-03-2024 14:00:00,28.699793,77.165453,SO2,18,38,25
India,Gujarat,Ahmedabad,"Chandkheda, Ahmedabad - IITM",09-03-2024 14:00:00,23.107969,72.574648,NO2,67,78,74
India,Gujarat,Ahmedabad,"Gyaspur, Ahmedabad - IITM",09-03-2024 14:00:00,22.977134,72.553024,PM2.5,53,281,129
India,Gujarat,Ahmedabad,"Gyaspur, Ahmedabad - IITM",09-03-2024 14:00:00,22.977134,72.553024,CO,23,26,24
India,Gujarat,Ahmedabad,"Raikhad, Ahmedabad - IITM",09-03-2024 14:00:00,23.020509,72.579261,NH3,1,1,1
India,Gujarat,Ahmedabad,"Rakhial, Ahmedabad - IITM",09-03-2024 14:00:00,23.016834,72.625775,OZONE,2,67,30
India,Gujarat,Ahmedabad,"SAC ISRO Satellite, Ahmedabad - IITM",09-03-2024 14:00:00,23.023389,72.515201,NO2,17,17,17
India,Gujarat,Ahmedabad,"SAC ISRO Satellite, Ahmedabad - IITM",09-03-2024 14:00:00,23.023389,72.515201,SO2,2,11,5
India,Gujarat,Ahmedabad,"SVPI Airport Hansol, Ahmedabad - IITM",09-03-2024 14:00:00,23.076793,72.627874,NH3,4,5,4
India,Gujarat,Ahmedabad,"Sardar Vallabhbhai Patel Stadium, Ahmedabad - IITM",09-03-2024 14:00:00,23.043070,72.562968,OZONE,4,9,6
India,Gujarat,Gandhinagar,"GIFT City, Gandhinagar - IITM",09-03-2024 14:00:00,23.163798,72.677768,NO2,25,25,25
India,Gujarat,Gandhinagar,"GIFT City, Gandhinagar - IITM",09-03-2024 14:00:00,23.163798,72.677768,CO,22,35,31
India,Gujarat,Gandhinagar,"IIPHG Lekawada, Gandhinagar - IITM",09-03-2024 14:00:00,23.243639,72.68994,PM2.5,70,197,105
India,Gujarat,Gandhinagar,"IIPHG Lekawada, Gandhinagar - IITM",09-03-2024 14:00:00,23.243639,72.68994,OZONE,6,46,25
India,Gujarat,Gandhinagar,"Sector-10, Gandhinagar - GPCB",09-03-2024 14:00:00,23.221714,72.654328,PM10,17,74,50
India,Gujarat,Nandesari,"GIDC, Nandesari - Nandesari Ind. Association",09-03-2024 14:00:00,22.410802,73.097923,PM2.5,47,199,89
India,Gujarat,Surat,"Science Center, Surat - SMC",09-03-2024 14:00:00,21.170046,72.795405,CO,44,84,57
India,Gujarat,Vapi,"Phase-1 GIDC, Vapi - GPCB",09-03-2024 14:00:00,20.362421,72.918013,PM10,52,173,105
India,Gujarat,Vapi,"Phase-1 GIDC, Vapi - GPCB",09-03-2024 14:00:00,20.362421,72.918013,NO2,28,35,31
India,Gujarat,Vapi,"Phase-1 GIDC, Vapi - GPCB",09-03-2024 14:00:00,20.362421,72.918013,NH3,8,10,9
India,Gujarat,Vatva,"Phase-4 GIDC, Vatva - GPCB",09-03-2024 14:00:00,22.969611,72.643500,CO,34,122,90
India,Haryana,Ambala,"Patti Mehar, Ambala - HSPCB",09-03-2024 14:00:00,30.379589,76.778328,SO2,1,25,10
India,Haryana,Bahadurgarh,"Arya Nagar, Bahadurgarh - HSPCB",09-03-2024 14:00:00,28.6701,76.9254,NO2,33,40,36
India,Haryana,Bhiwani,"H.B. Colony, Bhiwani - HSPCB",09-03-2024 14:00:00,28.806223,76.141105,CO,5,27,21
India,Haryana,Charkhi Dadri,"Mini Secretariat, Charkhi Dadri - HSPCB",09-03-2024 14:00:00,28.593883,76.270653,PM10,65,105,88
India,Haryana,Charkhi Dadri,"Mini Secretariat, Charkhi Dadri - HSPCB",09-03-2024 14:00:00,28.593883,76.270653,NO2,11,15,13
India,Haryana,Charkhi Dadri,"Mini Secretariat, Charkhi Dadri - HSPCB",09-03-2024 14:00:00,28.593883,76.270653,NH3,6,6,6
India,Haryana,Charkhi Dadri,"Mini Secretariat, Charkhi Dadri - HSPCB",09-03-2024 14:00:00,28.593883,76.270653,CO,17,22,19
India,Haryana,Dharuhera,"Municipal Corporation Office, Dharuhera -  HSPCB",09-03-2024 14:00:00,28.206800,76.799700,PM10,94,192,133
India,Haryana,Faridabad,"New Industrial Town, Faridabad - HSPCB",09-03-2024 14:00:00,28.39072,77.30059,SO2,17,23,19
India,Haryana,Faridabad,"Sector 11, Faridabad - HSPCB",09-03-2024 14:00:00,28.376058,77.315741,PM2.5,99,264,139
India,Haryana,Faridabad,"Sector 11, Faridabad - HSPCB",09-03-2024 14:00:00,28.376058,77.315741,NH3,6,6,6
India,Haryana,Fatehabad,"Huda Sector, Fatehabad - HSPCB",09-03-2024 14:00:00,29.503664,75.467934,PM2.5,37,122,62
India,Haryana,Fatehabad,"Huda Sector, Fatehabad - HSPCB",09-03-2024 14:00:00,29.503664,75.467934,SO2,3,14,7
India,Haryana,Gurugram,"Teri Gram, Gurugram - HSPCB",09-03-2024 14:00:00,28.4275,77.1465,OZONE,10,33,33
India,Haryana,Gurugram,"Vikas Sadan, Gurugram - HSPCB",09-03-2024 14:00:00,28.4501238,77.0263051,NO2,5,25,13
India,Haryana,Hisar,"Urban Estate-II, Hisar - HSPCB",09-03-2024 14:00:00,29.140560,75.744941,NO2,21,28,24
India,Haryana,Jind,"Police Lines, Jind - HSPCB",09-03-2024 14:00:00,29.307814,76.337619,NH3,2,6,4
India,Haryana,Kaithal,"Rishi Nagar, Kaithal - HSPCB",09-03-2024 14:00:00,29.8006,76.4155,CO,10,28,20
India,Haryana,Karnal,"Sector-12, Karnal - HSPCB",09-03-2024 14:00:00,29.695300,77.002700,CO,14,36,32
India,Haryana,Kurukshetra,"Sector-7, Kurukshetra - HSPCB",09-03-2024 14:00:00,29.966942,76.875879,PM10,55,75,66
India,Haryana,Mandikhera,"General Hospital, Mandikhera - HSPCB",09-03-2024 14:00:00,27.9002,76.9938,PM2.5,10,31,20
India,Haryana,Mandikhera,"General Hospital, Mandikhera - HSPCB",09-03-2024 14:00:00,27.9002,76.9938,PM10,44,77,63
India,Haryana,Mandikhera,"General Hospital, Mandikhera - HSPCB",09-03-2024 14:00:00,27.9002,76.9938,NO2,16,22,19
India,Haryana,Narnaul,"Shastri Nagar, Narnaul - HSPCB",09-03-2024 14:00:00,28.060249,76.113115,NO2,16,58,35
India,Haryana,Narnaul,"Shastri Nagar, Narnaul - HSPCB",09-03-2024 14:00:00,28.060249,76.113115,OZONE,23,53,48
India,Haryana,Panipat,"Sector-18, Panipat - HSPCB",09-03-2024 14:00:00,29.497973,76.993331,PM2.5,147,154,150
India,Haryana,Panipat,"Sector-18, Panipat - HSPCB",09-03-2024 14:00:00,29.497973,76.993331,PM10,84,86,85
India,Haryana,Yamuna Nagar,"Gobind Pura, Yamuna Nagar - HSPCB",09-03-2024 14:00:00,30.1480566,77.2893471,CO,42,102,52
India,Jharkhand,Dhanbad,"Kalakusuma, Dhanbad - DMC",09-03-2024 14:00:00,23.811548,86.481238,PM10,NA,NA,NA
India,Jharkhand,Dhanbad,"Sardar Patel Nagar, Dhanbad - JSPCB",09-03-2024 14:00:00,23.80569,86.44268,CO,107,185,178
India,Jharkhand,Pathardih,"Mohalbani Ghat, Pathardih - DMC",09-03-2024 14:00:00,23.669880,86.411725,PM10,10,223,81
India,Karnataka,Bagalkot,"Vidayagiri, Bagalkot - KSPCB",09-03-2024 14:00:00,16.172806,75.659694,PM2.5,25,37,36
India,Karnataka,Bagalkot,"Vidayagiri, Bagalkot - KSPCB",09-03-2024 14:00:00,16.172806,75.659694,NO2,9,10,9
India,Karnataka,Belgaum,"Ramteerth Nagar, Belgaum - KSPCB",09-03-2024 14:00:00,15.888653,74.541751,CO,41,52,45
India,Karnataka,Bengaluru,"BTM Layout, Bengaluru - CPCB",09-03-2024 14:00:00,12.9135218,77.5950804,SO2,10,10,10
India,Karnataka,Bengaluru,"Hebbal, Bengaluru - KSPCB",09-03-2024 14:00:00,13.029152,77.585901,PM2.5,NA,NA,NA
India,Karnataka,Bengaluru,"Hebbal, Bengaluru - KSPCB",09-03-2024 14:00:00,13.029152,77.585901,PM10,NA,NA,NA
India,Karnataka,Bengaluru,"Jayanagar 5th Block, Bengaluru - KSPCB",09-03-2024 14:00:00,12.920984,77.584908,CO,14,48,20
India,Karnataka,Bengaluru,"Jigani, Bengaluru - KSPCB",09-03-2024 14:00:00,12.7816279,77.6299145,PM2.5,39,142,90
India,Karnataka,Bengaluru,"Jigani, Bengaluru - KSPCB",09-03-2024 14:00:00,12.7816279,77.6299145,SO2,16,16,16
India,Karnataka,Bengaluru,"Jigani, Bengaluru - KSPCB",09-03-2024 14:00:00,12.7816279,77.6299145,CO,48,104,55
India,Karnataka,Bengaluru,"Kasturi Nagar, Bengaluru - KSPCB",09-03-2024 14:00:00,13.003872,77.664217,PM10,121,195,147
India,Karnataka,Bengaluru,"Kasturi Nagar, Bengaluru - KSPCB",09-03-2024 14:00:00,13.003872,77.664217,SO2,9,10,10
India,Karnataka,Bengaluru,"Peenya, Bengaluru - CPCB",09-03-2024 14:00:00,13.0270199,77.494094,PM10,54,106,70
India,Karnataka,Bengaluru,"RVCE-Mailasandra, Bengaluru - KSPCB",09-03-2024 14:00:00,12.921418,77.502466,CO,36,84,41
India,Karnataka,Bengaluru,"Shivapura_Peenya, Bengaluru - KSPCB",09-03-2024 14:00:00,13.0246342,77.5080115,PM2.5,11,217,71
India,Karnataka,Bengaluru,"Silk Board, Bengaluru - KSPCB",09-03-2024 14:00:00,12.917348,77.622813,NO2,NA,NA,NA
India,Karnataka,Bengaluru,"Silk Board, Bengaluru - KSPCB",09-03-2024 14:00:00,12.917348,77.622813,NH3,NA,NA,NA
India,Karnataka,Bengaluru,"Silk Board, Bengaluru - KSPCB",09-03-2024 14:00:00,12.917348,77.622813,SO2,5,17,9
India,Karnataka,Bengaluru,"Silk Board, Bengaluru - KSPCB",09-03-2024 14:00:00,12.917348,77.622813,CO,33,57,40
India,Karnataka,Bidar,"Naubad, Bidar - KSPCB",09-03-2024 14:00:00,17.930306,77.482194,PM10,71,146,95
India,Karnataka,Chamarajanagar,"Urban, Chamarajanagar - KSPCB",09-03-2024 14:00:00,11.55358,76.55521,PM10,44,56,48
India,Karnataka,Chamarajanagar,"Urban, Chamarajanagar - KSPCB",09-03-2024 14:00:00,11.55358,76.55521,NO2,24,29,29
India,Karnataka,Chamarajanagar,"Urban, Chamarajanagar - KSPCB",09-03-2024 14:00:00,11.55358,76.55521,NH3,1,2,1
India,Karnataka,Chikkaballapur,"Chikkaballapur Rural, Chikkaballapur - KSPCB",09-03-2024 14:00:00,13.428828,77.731418,OZONE,22,26,26
India,Karnataka,Chikkamagaluru,"Kalyana Nagara, Chikkamagaluru - KSPCB",09-03-2024 14:00:00,13.328028,75.797056,OZONE,52,62,55
India,Karnataka,Davanagere,"Devaraj Urs Badavane, Davanagere - KSPCB",09-03-2024 14:00:00,14.475800,75.905200,CO,18,21,19
India,Karnataka,Dharwad,"Kalabhavan, Dharwad - KSPCB",09-03-2024 14:00:00,15.459706,75.008381,OZONE,23,60,35
India,Karnataka,Gadag,"Panchal Nagar, Gadag - KSPCB",09-03-2024 14:00:00,15.411456,75.638133,SO2,13,20,16
India,Karnataka,Gadag,"Panchal Nagar, Gadag - KSPCB",09-03-2024 14:00:00,15.411456,75.638133,OZONE,50,85,63
India,Karnataka,Hassan,"B.Katihalli, Hassan - KSPCB",09-03-2024 14:00:00,13.008556,76.125258,NO2,NA,NA,NA
India,Karnataka,Hassan,"B.Katihalli, Hassan - KSPCB",09-03-2024 14:00:00,13.008556,76.125258,SO2,NA,NA,NA
India,Karnataka,Hassan,"B.Katihalli, Hassan - KSPCB",09-03-2024 14:00:00,13.008556,76.125258,OZONE,11,14,14
India,Karnataka,Haveri,"Ashwini Nagar, Haveri - KSPCB",09-03-2024 14:00:00,14.791800,75.389600,SO2,NA,NA,NA
India,Karnataka,Hubballi,"Deshpande Nagar, Hubballi - KSPCB",09-03-2024 14:00:00,15.351773,75.140726,NO2,NA,NA,NA
India,Karnataka,Hubballi,"Deshpande Nagar, Hubballi - KSPCB",09-03-2024 14:00:00,15.351773,75.140726,CO,85,108,90
India,Karnataka,Kalaburagi,"Mahatma Basaveswar Colony, Kalaburgi - KSPCB",09-03-2024 14:00:00,17.336318,76.847397,PM10,46,86,57
India,Karnataka,Karwar,"KHB Colony, Karwar - KSPCB",09-03-2024 14:00:00,14.816666,74.141003,NO2,5,9,6
India,Karnataka,Karwar,"KHB Colony, Karwar - KSPCB",09-03-2024 14:00:00,14.816666,74.141003,SO2,18,18,18
India,Karnataka,Karwar,"KHB Colony, Karwar - KSPCB",09-03-2024 14:00:00,14.816666,74.141003,CO,8,8,8
India,Karnataka,Kolar,"Tamaka Ind. Area, Kolar - KSPCB",09-03-2024 14:00:00,13.1276288,78.1570122,PM10,NA,NA,NA
India,Karnataka,Kolar,"Tamaka Ind. Area, Kolar - KSPCB",09-03-2024 14:00:00,13.1276288,78.1570122,OZONE,9,9,9
India,Karnataka,Koppal,"Diwator Nagar, Koppal - KSPCB",09-03-2024 14:00:00,15.347630,76.181767,OZONE,24,62,38
India,Karnataka,Mangalore,"Kadri, Mangalore - KSPCB",09-03-2024 14:00:00,12.889250,74.853000,PM2.5,37,151,66
India,Karnataka,Mangalore,"Kadri, Mangalore - KSPCB",09-03-2024 14:00:00,12.889250,74.853000,PM10,68,136,94
India,Karnataka,Mangalore,"Kadri, Mangalore - KSPCB",09-03-2024 14:00:00,12.889250,74.853000,CO,37,47,44
India,Karnataka,Mysuru,"Hebbal 1st Stage, Mysuru - KSPCB",09-03-2024 14:00:00,12.21041,76.37376,SO2,1,9,4
India,Karnataka,Raichur,"Haji Colony, Raichur - KSPCB",09-03-2024 14:00:00,16.208139,77.348417,PM2.5,21,79,36
India,Karnataka,Ramanagara,"Vijay Nagar, Ramanagara - KSPCB",09-03-2024 14:00:00,12.733409,77.298051,PM2.5,39,85,62
India,Karnataka,Ramanagara,"Vijay Nagar, Ramanagara - KSPCB",09-03-2024 14:00:00,12.733409,77.298051,PM10,36,63,49
India,Karnataka,Ramanagara,"Vijay Nagar, Ramanagara - KSPCB",09-03-2024 14:00:00,12.733409,77.298051,SO2,13,28,21
India,Karnataka,Tumakuru,"Thimmalapura, Tumakuru - KSPCB",09-03-2024 14:00:00,13.377516,77.099072,PM10,14,39,25
India,Karnataka,Tumakuru,"Thimmalapura, Tumakuru - KSPCB",09-03-2024 14:00:00,13.377516,77.099072,SO2,9,14,10
India,Karnataka,Vijayapura,"Ibrahimpur, Vijayapura - KSPCB",09-03-2024 14:00:00,16.802639,75.722694,SO2,6,56,30
India,Karnataka,Yadgir,"Collector Office, Yadgir - KSPCB",09-03-2024 14:00:00,16.7602,77.1428,NO2,4,12,7
India,Karnataka,Yadgir,"Collector Office, Yadgir - KSPCB",09-03-2024 14:00:00,16.7602,77.1428,CO,2,32,18
India,Kerala,Kannur,"Thavakkara, Kannur - Kerala PCB",09-03-2024 14:00:00,11.875000,75.373200,PM10,60,74,69
India,Kerala,Kochi,"Vyttila, Kochi - Kerala PCB",09-03-2024 14:00:00,9.969447,76.321186,PM2.5,17,89,37
India,Kerala,Kochi,"Vyttila, Kochi - Kerala PCB",09-03-2024 14:00:00,9.969447,76.321186,CO,59,62,61
India,Kerala,Kollam,"Polayathode, Kollam - Kerala PCB",09-03-2024 14:00:00,8.8787,76.6073,NO2,8,9,8
India,Kerala,Kollam,"Polayathode, Kollam - Kerala PCB",09-03-2024 14:00:00,8.8787,76.6073,NH3,1,1,1
India,Kerala,Thiruvananthapuram,"Kariavattom, Thiruvananthapuram - Kerala PCB",09-03-2024 14:00:00,8.563700,76.886500,NO2,8,10,9
India,Kerala,Thrissur,"Corporation Ground, Thrissur - Kerala PCB",09-03-2024 14:00:00,10.532400,76.215900,NH3,NA,NA,NA
India,Madhya Pradesh,Bhopal,"Idgah Hills, Bhopal - MPPCB",09-03-2024 14:00:00,23.264759,77.381568,NO2,15,95,32
India,Madhya Pradesh,Bhopal,"Paryavaran Parisar, Bhopal - MPPCB",09-03-2024 14:00:00,23.210494,77.425409,SO2,22,26,24
India,Madhya Pradesh,Dewas,"Bhopal Chauraha, Dewas - MPPCB",09-03-2024 14:00:00,22.9682591,76.064118,PM2.5,15,60,36
India,Madhya Pradesh,Dewas,"Bhopal Chauraha, Dewas - MPPCB",09-03-2024 14:00:00,22.9682591,76.064118,NO2,10,12,11
India,Madhya Pradesh,Dewas,"Bhopal Chauraha, Dewas - MPPCB",09-03-2024 14:00:00,22.9682591,76.064118,OZONE,13,67,29
India,Madhya Pradesh,Gwalior,"City Center, Gwalior - MPPCB",09-03-2024 14:00:00,26.203442,78.193251,NH3,5,13,10
India,Madhya Pradesh,Gwalior,"Deen Dayal Nagar, Gwalior - MPPCB",09-03-2024 14:00:00,26.259242,78.216432,PM10,63,274,144
India,Madhya Pradesh,Gwalior,"Deen Dayal Nagar, Gwalior - MPPCB",09-03-2024 14:00:00,26.259242,78.216432,NH3,2,9,5
India,Madhya Pradesh,Gwalior,"Maharaj Bada, Gwalior - MPPCB",09-03-2024 14:00:00,26.200388,78.147714,PM10,101,318,158
India,Madhya Pradesh,Indore,"Maguda Nagar, Indore - IMC",09-03-2024 14:00:00,22.7524,75.8872,SO2,13,40,23
India,Madhya Pradesh,Indore,"Residency Area, Indore - IMC",09-03-2024 14:00:00,22.7084,75.8815,SO2,22,36,25
India,Madhya Pradesh,Jabalpur,"Govindh Bhavan Colony, Jabalpur - JMC",09-03-2024 14:00:00,23.163174,79.973061,CO,4,22,13
India,Madhya Pradesh,Jabalpur,"Marhatal, Jabalpur - MPPCB",09-03-2024 14:00:00,23.168606,79.932247,PM10,54,160,98
India,Madhya Pradesh,Jabalpur,"Marhatal, Jabalpur - MPPCB",09-03-2024 14:00:00,23.168606,79.932247,SO2,5,13,9
India,Madhya Pradesh,Jabalpur,"Suhagi, Jabalpur - JMC",09-03-2024 14:00:00,23.218135,79.957770,PM2.5,23,302,130
India,Madhya Pradesh,Jabalpur,"Suhagi, Jabalpur - JMC",09-03-2024 14:00:00,23.218135,79.957770,CO,36,108,52
India,Madhya Pradesh,Katni,"Gole Bazar, Katni - MPPCB",09-03-2024 14:00:00,23.50016,80.23284,PM2.5,24,60,43
India,Madhya Pradesh,Katni,"Gole Bazar, Katni - MPPCB",09-03-2024 14:00:00,23.50016,80.23284,NH3,2,5,3
India,Madhya Pradesh,Katni,"Gole Bazar, Katni - MPPCB",09-03-2024 14:00:00,23.50016,80.23284,SO2,10,28,17
India,Madhya Pradesh,Maihar,"Sahilara, Maihar - KJS Cements",09-03-2024 14:00:00,24.2613009,80.7231783,CO,42,50,46
India,Madhya Pradesh,Pithampur,"Sector-2 Industrial Area, Pithampur - MPPCB",09-03-2024 14:00:00,22.624758,75.675238,NO2,6,21,10
India,Madhya Pradesh,Pithampur,"Sector-2 Industrial Area, Pithampur - MPPCB",09-03-2024 14:00:00,22.624758,75.675238,NH3,5,8,7
India,Madhya Pradesh,Pithampur,"Sector-2 Industrial Area, Pithampur - MPPCB",09-03-2024 14:00:00,22.624758,75.675238,SO2,10,16,13
India,Madhya Pradesh,Pithampur,"Sector-2 Industrial Area, Pithampur - MPPCB",09-03-2024 14:00:00,22.624758,75.675238,CO,51,71,61
India,Madhya Pradesh,Ratlam,"Shasthri Nagar, Ratlam - IPCA Lab",09-03-2024 14:00:00,23.331731,75.045981,NO2,16,94,45
India,Madhya Pradesh,Sagar,"Civil Lines, Sagar - MPPCB",09-03-2024 14:00:00,23.838586,78.759431,NO2,12,17,14
India,Madhya Pradesh,Sagar,"Civil Lines, Sagar - MPPCB",09-03-2024 14:00:00,23.838586,78.759431,SO2,2,9,5
India,Madhya Pradesh,Singrauli,"Suryakiran Bhawan NCL, Singrauli - MPPCB",09-03-2024 14:00:00,24.108970,82.645580,PM2.5,NA,NA,NA
India,Maharashtra,Ahmednagar,"Tarakpur, Ahmednagar - MPCB",09-03-2024 14:00:00,19.10122,74.73339,PM10,54,192,98
India,Maharashtra,Ahmednagar,"Tarakpur, Ahmednagar - MPCB",09-03-2024 14:00:00,19.10122,74.73339,NO2,18,153,55
India,Maharashtra,Ahmednagar,"Tarakpur, Ahmednagar - MPCB",09-03-2024 14:00:00,19.10122,74.73339,CO,12,121,35
India,Maharashtra,Akola,"Ramdaspeth, Akola - MPCB",09-03-2024 14:00:00,20.719516,77.000253,PM10,43,190,100
India,Maharashtra,Akola,"Ramdaspeth, Akola - MPCB",09-03-2024 14:00:00,20.719516,77.000253,NH3,4,12,7
India,Maharashtra,Akola,"Ramdaspeth, Akola - MPCB",09-03-2024 14:00:00,20.719516,77.000253,OZONE,2,124,57
India,Maharashtra,Amravati,"Shivneri Colony, Amravati - MPCB",09-03-2024 14:00:00,20.9402359,77.7895248,CO,12,39,15
India,Maharashtra,Amravati,"Shivneri Colony, Amravati - MPCB",09-03-2024 14:00:00,20.9402359,77.7895248,OZONE,6,164,155
India,Maharashtra,Aurangabad,"MIDC Chilkalthana, Aurangabad - MPCB",09-03-2024 14:00:00,19.875620,75.387310,CO,22,71,41
India,Maharashtra,Aurangabad,"Rachnakar Colony, Aurangabad - MPCB",09-03-2024 14:00:00,19.863756,75.321188,CO,7,49,21
India,Maharashtra,Badlapur,"Katrap, Badlapur - MPCB",09-03-2024 14:00:00,19.16485,73.23409,PM10,58,221,100
India,Maharashtra,Badlapur,"Katrap, Badlapur - MPCB",09-03-2024 14:00:00,19.16485,73.23409,NO2,5,21,12
India,Maharashtra,Belapur,"CBD Belapur, Belapur - MPCB",09-03-2024 14:00:00,19.0243902,73.0406721,PM2.5,44,100,71
India,Maharashtra,Belapur,"CBD Belapur, Belapur - MPCB",09-03-2024 14:00:00,19.0243902,73.0406721,PM10,84,142,116
India,Maharashtra,Belapur,"CBD Belapur, Belapur - MPCB",09-03-2024 14:00:00,19.0243902,73.0406721,NH3,15,45,27
India,Maharashtra,Belapur,"CBD Belapur, Belapur - MPCB",09-03-2024 14:00:00,19.0243902,73.0406721,OZONE,4,101,44
India,Maharashtra,Bhiwandi,"Gokul Nagar, Bhiwandi - MPCB",09-03-2024 14:00:00,19.309073,73.057223,PM10,NA,NA,NA
India,Maharashtra,Bhiwandi,"Gokul Nagar, Bhiwandi - MPCB",09-03-2024 14:00:00,19.309073,73.057223,SO2,NA,NA,NA
India,Maharashtra,Boisar,"Khaira, Boisar - MPCB",09-03-2024 14:00:00,19.786089,72.757971,PM10,NA,NA,NA
India,Maharashtra,Chandrapur,"Chauhan Colony, Chandrapur - MPCB",09-03-2024 14:00:00,19.962900,79.298714,PM10,64,159,100
India,Maharashtra,Dhule,"Deopur, Dhule - MPCB",09-03-2024 14:00:00,20.918946,74.776388,NO2,5,48,13
India,Maharashtra,Jalgaon,"Prabhat Colony, Jalgaon - MPCB",09-03-2024 14:00:00,21.001264,75.565602,NO2,12,123,52
India,Maharashtra,Jalgaon,"Prabhat Colony, Jalgaon - MPCB",09-03-2024 14:00:00,21.001264,75.565602,NH3,2,17,9
India,Maharashtra,Jalna,"Old MIDC, Jalna - MPCB",09-03-2024 14:00:00,19.854616,75.905894,PM10,39,98,69
India,Maharashtra,Kalyan,"Khadakpada, Kalyan - MPCB",09-03-2024 14:00:00,19.25292,73.142019,PM10,60,119,100
India,Maharashtra,Kalyan,"Khadakpada, Kalyan - MPCB",09-03-2024 14:00:00,19.25292,73.142019,NO2,27,36,31
India,Maharashtra,Kolhapur,"Shivaji University, Kolhapur - MPCB",09-03-2024 14:00:00,16.6870449,74.2505872,PM10,96,179,128
India,Maharashtra,Kolhapur,"Shivaji University, Kolhapur - MPCB",09-03-2024 14:00:00,16.6870449,74.2505872,NO2,27,109,54
India,Maharashtra,Kolhapur,"Shivaji University, Kolhapur - MPCB",09-03-2024 14:00:00,16.6870449,74.2505872,SO2,4,21,8
India,Maharashtra,Kolhapur,"Shivaji University, Kolhapur - MPCB",09-03-2024 14:00:00,16.6870449,74.2505872,CO,79,109,93
India,Maharashtra,Kolhapur,"Sinchan Bhavan, Kolhapur - MPCB",09-03-2024 14:00:00,16.7143745,74.2426398,SO2,2,10,5
India,Maharashtra,Kolhapur,"Sinchan Bhavan, Kolhapur - MPCB",09-03-2024 14:00:00,16.7143745,74.2426398,CO,8,61,41
India,Maharashtra,Latur,"Sawe Wadi, Latur - MPCB",09-03-2024 14:00:00,18.39963,76.57452,NO2,5,44,21
India,Maharashtra,Latur,"Sawe Wadi, Latur - MPCB",09-03-2024 14:00:00,18.39963,76.57452,CO,10,50,33
India,Maharashtra,Mahad,"Kamble Tarf Birwadi, Mahad - MPCB",09-03-2024 14:00:00,18.1023399,73.4783687,PM2.5,68,313,176
India,Maharashtra,Mahad,"Kamble Tarf Birwadi, Mahad - MPCB",09-03-2024 14:00:00,18.1023399,73.4783687,PM10,79,164,128
India,Maharashtra,Malegaon,"Mahesh Nagar, Malegaon - MPCB",09-03-2024 14:00:00,20.555712,74.529236,PM2.5,NA,NA,NA
India,Maharashtra,Malegaon,"Mahesh Nagar, Malegaon - MPCB",09-03-2024 14:00:00,20.555712,74.529236,SO2,NA,NA,NA
India,Maharashtra,Malegaon,"Mahesh Nagar, Malegaon - MPCB",09-03-2024 14:00:00,20.555712,74.529236,OZONE,12,130,32
India,Maharashtra,Mumbai,"Bandra Kurla Complex, Mumbai - MPCB",09-03-2024 14:00:00,19.065931,72.862131,PM10,82,375,166
India,Maharashtra,Mumbai,"Bandra Kurla Complex, Mumbai - MPCB",09-03-2024 14:00:00,19.065931,72.862131,NH3,3,7,5
India,Maharashtra,Mumbai,"Bandra Kurla Complex, Mumbai - MPCB",09-03-2024 14:00:00,19.065931,72.862131,SO2,4,23,10
India,Maharashtra,Mumbai,"Borivali East, Mumbai - MPCB",09-03-2024 14:00:00,19.2243333,72.8658113,PM2.5,38,113,65
India,Maharashtra,Mumbai,"Borivali East, Mumbai - MPCB",09-03-2024 14:00:00,19.2243333,72.8658113,NO2,12,76,22
India,Maharashtra,Mumbai,"Borivali East, Mumbai - MPCB",09-03-2024 14:00:00,19.2243333,72.8658113,CO,1,70,19
India,Maharashtra,Mumbai,"Chakala-Andheri East, Mumbai - IITM",09-03-2024 14:00:00,19.11074,72.86084,PM2.5,33,143,89
India,Maharashtra,Mumbai,"Chakala-Andheri East, Mumbai - IITM",09-03-2024 14:00:00,19.11074,72.86084,CO,2,100,60
India,Maharashtra,Mumbai,"Chakala-Andheri East, Mumbai - IITM",09-03-2024 14:00:00,19.11074,72.86084,OZONE,11,123,53
India,Maharashtra,Mumbai,"Chembur, Mumbai - MPCB",09-03-2024 14:00:00,19.0364585,72.8954371,PM2.5,62,220,130
India,Maharashtra,Mumbai,"Chhatrapati Shivaji Intl. Airport (T2), Mumbai - MPCB",09-03-2024 14:00:00,19.10078,72.87462,SO2,22,27,25
India,Maharashtra,Mumbai,"Chhatrapati Shivaji Intl. Airport (T2), Mumbai - MPCB",09-03-2024 14:00:00,19.10078,72.87462,CO,43,100,90
India,Maharashtra,Mumbai,"Colaba, Mumbai - MPCB",09-03-2024 14:00:00,18.910000,72.820000,NH3,1,1,1
India,Maharashtra,Mumbai,"Colaba, Mumbai - MPCB",09-03-2024 14:00:00,18.910000,72.820000,OZONE,4,11,9
India,Maharashtra,Mumbai,"Ghatkopar, Mumbai - BMC",09-03-2024 14:00:00,19.083694,72.920967,NO2,24,205,140
India,Maharashtra,Mumbai,"Ghatkopar, Mumbai - BMC",09-03-2024 14:00:00,19.083694,72.920967,CO,7,34,25
India,Maharashtra,Mumbai,"Kandivali East, Mumbai - MPCB",09-03-2024 14:00:00,19.205800,72.868200,SO2,80,87,82
India,Maharashtra,Mumbai,"Kandivali West, Mumbai - BMC",09-03-2024 14:00:00,19.215859,72.831718,NH3,1,3,2
India,Maharashtra,Mumbai,"Kherwadi_Bandra East, Mumbai - MPCB",09-03-2024 14:00:00,19.0632143,72.8456324,PM2.5,56,204,101
India,Maharashtra,Mumbai,"Kherwadi_Bandra East, Mumbai - MPCB",09-03-2024 14:00:00,19.0632143,72.8456324,PM10,109,188,135
India,Maharashtra,Mumbai,"Kherwadi_Bandra East, Mumbai - MPCB",09-03-2024 14:00:00,19.0632143,72.8456324,NH3,3,22,8
India,Maharashtra,Mumbai,"Mazgaon, Mumbai - IITM",09-03-2024 14:00:00,18.96702,72.84214,NH3,17,42,29
India,Maharashtra,Mumbai,"Mazgaon, Mumbai - IITM",09-03-2024 14:00:00,18.96702,72.84214,SO2,1,20,10
India,Maharashtra,Mumbai,"Mulund West, Mumbai - MPCB",09-03-2024 14:00:00,19.1750,72.9419,NH3,10,11,10
India,Maharashtra,Mumbai,"Navy Nagar-Colaba, Mumbai - IITM",09-03-2024 14:00:00,18.897756,72.813320,NH3,NA,NA,NA
India,Maharashtra,Mumbai,"Navy Nagar-Colaba, Mumbai - IITM",09-03-2024 14:00:00,18.897756,72.813320,CO,NA,NA,NA
India,Maharashtra,Mumbai,"Powai, Mumbai - MPCB",09-03-2024 14:00:00,19.137500,72.915056,PM2.5,25,77,42
India,Maharashtra,Mumbai,"Sewri, Mumbai - BMC",09-03-2024 14:00:00,19.000084,72.856730,PM2.5,34,89,64
India,Maharashtra,Mumbai,"Siddharth Nagar-Worli, Mumbai - IITM",09-03-2024 14:00:00,19.000083,72.813993,PM2.5,91,362,281
India,Maharashtra,Mumbai,"Siddharth Nagar-Worli, Mumbai - IITM",09-03-2024 14:00:00,19.000083,72.813993,NH3,5,7,6
India,Maharashtra,Mumbai,"Sion, Mumbai - MPCB",09-03-2024 14:00:00,19.047000,72.874600,NO2,12,79,45
India,Maharashtra,Mumbai,"Sion, Mumbai - MPCB",09-03-2024 14:00:00,19.047000,72.874600,SO2,35,41,38
India,Maharashtra,Mumbai,"Sion, Mumbai - MPCB",09-03-2024 14:00:00,19.047000,72.874600,CO,8,55,42
India,Maharashtra,Mumbai,"Vasai West, Mumbai - MPCB",09-03-2024 14:00:00,19.383200,72.820400,PM2.5,30,140,64
India,Maharashtra,Mumbai,"Vasai West, Mumbai - MPCB",09-03-2024 14:00:00,19.383200,72.820400,SO2,29,35,30
India,Maharashtra,Mumbai,"Worli, Mumbai - MPCB",09-03-2024 14:00:00,18.9936162,72.8128113,PM2.5,43,89,59
India,Maharashtra,Nagpur,"Ambazari, Nagpur - MPCB",09-03-2024 14:00:00,21.121801,79.04952,NH3,1,9,2
India,Maharashtra,Nagpur,"Mahal, Nagpur - MPCB",09-03-2024 14:00:00,21.14472,79.107595,PM2.5,64,228,105
India,Maharashtra,Nagpur,"Mahal, Nagpur - MPCB",09-03-2024 14:00:00,21.14472,79.107595,PM10,82,165,116
India,Maharashtra,Nagpur,"Mahal, Nagpur - MPCB",09-03-2024 14:00:00,21.14472,79.107595,NO2,7,53,22
India,Maharashtra,Nagpur,"Mahal, Nagpur - MPCB",09-03-2024 14:00:00,21.14472,79.107595,OZONE,18,115,61
India,Maharashtra,Nagpur,"Ram Nagar, Nagpur - MPCB",09-03-2024 14:00:00,21.143383,79.048912,NH3,3,9,5
India,Maharashtra,Nashik,"Hirawadi, Nashik - MPCB",09-03-2024 14:00:00,20.021503,73.813844,NO2,1,80,32
India,Maharashtra,Nashik,"Hirawadi, Nashik - MPCB",09-03-2024 14:00:00,20.021503,73.813844,SO2,1,24,6
India,Maharashtra,Nashik,"Hirawadi, Nashik - MPCB",09-03-2024 14:00:00,20.021503,73.813844,CO,1,57,27
India,Maharashtra,Nashik,"MIDC Ambad, Nashik - MPCB",09-03-2024 14:00:00,19.950220,73.731480,PM10,43,142,76
India,Maharashtra,Navi Mumbai,"Kopripada-Vashi, Navi Mumbai - MPCB",09-03-2024 14:00:00,19.090337,73.014232,NO2,26,113,67
India,Maharashtra,Navi Mumbai,"Kopripada-Vashi, Navi Mumbai - MPCB",09-03-2024 14:00:00,19.090337,73.014232,CO,8,53,28
India,Maharashtra,Navi Mumbai,"Mahape, Navi Mumbai - MPCB",09-03-2024 14:00:00,19.1135051,73.008978,NO2,38,39,38
India,Maharashtra,Navi Mumbai,"Mahape, Navi Mumbai - MPCB",09-03-2024 14:00:00,19.1135051,73.008978,NH3,3,5,3
India,Maharashtra,Navi Mumbai,"Mahape, Navi Mumbai - MPCB",09-03-2024 14:00:00,19.1135051,73.008978,CO,32,57,52
India,Maharashtra,Navi Mumbai,"Nerul, Navi Mumbai - MPCB",09-03-2024 14:00:00,19.008751,73.016620,PM2.5,46,163,92
India,Maharashtra,Navi Mumbai,"Nerul, Navi Mumbai - MPCB",09-03-2024 14:00:00,19.008751,73.016620,CO,41,70,68
India,Maharashtra,Navi Mumbai,"Sanpada, Navi Mumbai - MPCB",09-03-2024 14:00:00,19.0575752,73.0151367,PM10,103,165,122
India,Maharashtra,Navi Mumbai,"Sanpada, Navi Mumbai - MPCB",09-03-2024 14:00:00,19.0575752,73.0151367,NO2,3,23,10
India,Maharashtra,Navi Mumbai,"Sanpada, Navi Mumbai - MPCB",09-03-2024 14:00:00,19.0575752,73.0151367,NH3,3,4,4
India,Maharashtra,Navi Mumbai,"Sector-19A Nerul, Navi Mumbai - IITM",09-03-2024 14:00:00,19.044,73.0325,NO2,20,102,64
India,Maharashtra,Navi Mumbai,"Sector-19A Nerul, Navi Mumbai - IITM",09-03-2024 14:00:00,19.044,73.0325,NH3,1,9,3
India,Maharashtra,Navi Mumbai,"Sector-19A Nerul, Navi Mumbai - IITM",09-03-2024 14:00:00,19.044,73.0325,CO,2,52,27
India,Maharashtra,Navi Mumbai,"Sector-2E Kalamboli, Navi Mumbai - MPCB",09-03-2024 14:00:00,19.02579,73.10297,PM2.5,NA,NA,NA
India,Maharashtra,Navi Mumbai,"Sector-2E Kalamboli, Navi Mumbai - MPCB",09-03-2024 14:00:00,19.02579,73.10297,SO2,10,93,33
India,Maharashtra,Navi Mumbai,"Sector-2E Kalamboli, Navi Mumbai - MPCB",09-03-2024 14:00:00,19.02579,73.10297,OZONE,1,93,37
India,Maharashtra,Parbhani,"Masoom Colony, Parbhani - MPCB",09-03-2024 14:00:00,19.265594,76.761463,CO,8,52,34
India,Maharashtra,Parbhani,"Masoom Colony, Parbhani - MPCB",09-03-2024 14:00:00,19.265594,76.761463,OZONE,31,146,90
India,Maharashtra,Pimpri-Chinchwad,"Gavalinagar, Pimpri Chinchwad - MPCB",09-03-2024 14:00:00,18.63673,73.82487,OZONE,1,216,52
India,Maharashtra,Pimpri-Chinchwad,"Park Street Wakad, Pimpri Chinchwad - MPCB",09-03-2024 14:00:00,18.59051,73.77946,NH3,7,15,11
India,Maharashtra,Pimpri-Chinchwad,"Park Street Wakad, Pimpri Chinchwad - MPCB",09-03-2024 14:00:00,18.59051,73.77946,SO2,6,16,11
India,Maharashtra,Pimpri-Chinchwad,"Thergaon, Pimpri Chinchwad - MPCB",09-03-2024 14:00:00,18.616318,73.765797,CO,12,80,60
India,Maharashtra,Pune,"Katraj Dairy, Pune - MPCB",09-03-2024 14:00:00,18.454450,73.854155,SO2,4,14,8
India,Maharashtra,Pune,"Mhada Colony, Pune - IITM",09-03-2024 14:00:00,18.573040,73.927715,PM10,52,130,94
India,Maharashtra,Pune,"Mhada Colony, Pune - IITM",09-03-2024 14:00:00,18.573040,73.927715,CO,8,102,58
India,Maharashtra,Pune,"Revenue Colony-Shivajinagar, Pune - IITM",09-03-2024 14:00:00,18.530085,73.849598,NO2,79,159,111
India,Maharashtra,Pune,"Revenue Colony-Shivajinagar, Pune - IITM",09-03-2024 14:00:00,18.530085,73.849598,SO2,33,114,86
India,Maharashtra,Pune,"Savitribai Phule Pune University, Pune - MPCB",09-03-2024 14:00:00,18.547056,73.826908,CO,14,89,47
India,Maharashtra,Pune,"Transport Nagar-Nigdi, Pune - IITM",09-03-2024 14:00:00,18.664282,73.763966,CO,36,70,53
India,Maharashtra,Pune,"Transport Nagar-Nigdi, Pune - IITM",09-03-2024 14:00:00,18.664282,73.763966,OZONE,9,67,28
India,Maharashtra,Solapur,"Dnyaneshwar Nagar, Solapur - MPCB",09-03-2024 14:00:00,17.6336264,75.9132495,OZONE,32,104,62
India,Maharashtra,Solapur,"Solapur, Solapur - MPCB",09-03-2024 14:00:00,17.6599188,75.9063906,PM10,111,148,141
India,Maharashtra,Thane,"Kasarvadavali, Thane - MPCB",09-03-2024 14:00:00,19.26777,72.97182,OZONE,3,171,53
India,Maharashtra,Thane,"Pimpleshwar Mandir, Thane - MPCB",09-03-2024 14:00:00,19.192056,72.9585188,PM10,95,334,148
India,Maharashtra,Thane,"Pimpleshwar Mandir, Thane - MPCB",09-03-2024 14:00:00,19.192056,72.9585188,SO2,9,116,46
India,Maharashtra,Thane,"Upvan Fort, Thane - MPCB",09-03-2024 14:00:00,19.222279,72.957979,PM2.5,66,169,92
India,Maharashtra,Thane,"Upvan Fort, Thane - MPCB",09-03-2024 14:00:00,19.222279,72.957979,NH3,12,18,14
India,Maharashtra,Ulhasnagar,"Sidhi Vinayak Nagar, Ulhasnagar - MPCB",09-03-2024 14:00:00,19.235581,73.159121,PM10,68,113,96
India,Maharashtra,Virar,"Bolinj, Virar - MPCB",09-03-2024 14:00:00,19.4458210,72.7988231,NO2,7,44,22
India,Manipur,Imphal,"DM College of Science, Imphal - Manipur PCB",09-03-2024 14:00:00,24.8207389,93.9423085,PM10,14,109,44
India,Manipur,Imphal,"DM College of Science, Imphal - Manipur PCB",09-03-2024 14:00:00,24.8207389,93.9423085,NO2,7,8,7
India,Manipur,Imphal,"DM College of Science, Imphal - Manipur PCB",09-03-2024 14:00:00,24.8207389,93.9423085,NH3,2,2,2
India,Meghalaya,Shillong,"Lumpyngngad, Shillong - Meghalaya PCB",09-03-2024 14:00:00,25.5586,91.8985,OZONE,74,102,83
India,Mizoram,Aizawl,"Sikulpuikawn, Aizawl - Mizoram PCB",09-03-2024 14:00:00,23.7176342,92.7192841,PM10,47,103,66
India,Mizoram,Aizawl,"Sikulpuikawn, Aizawl - Mizoram PCB",09-03-2024 14:00:00,23.7176342,92.7192841,NH3,NA,NA,NA
India,Odisha,Angul,"Hakimapada, Angul - OSPCB",09-03-2024 14:00:00,20.832874,85.104082,PM2.5,80,479,222
India,Odisha,Angul,"Hakimapada, Angul - OSPCB",09-03-2024 14:00:00,20.832874,85.104082,NO2,8,42,23
India,Odisha,Angul,"Hakimapada, Angul - OSPCB",09-03-2024 14:00:00,20.832874,85.104082,SO2,19,126,67
India,Odisha,Balasore,"Kalidaspur, Balasore - OSPCB",09-03-2024 14:00:00,21.51161,86.89088,PM10,90,177,118
India,Odisha,Barbil,"Forest Office, Barbil - OSPCB",09-03-2024 14:00:00,22.1166054,85.3945546,NO2,4,15,7
India,Odisha,Baripada,"Meher Colony, Baripada - OSPCB",09-03-2024 14:00:00,21.941841,86.728318,CO,17,34,23
India,Odisha,Bhubaneswar,"Lingraj Mandir, Bhubaneswar - OSPCB",09-03-2024 14:00:00,20.240790,85.836784,PM2.5,75,310,170
India,Odisha,Bhubaneswar,"Lingraj Mandir, Bhubaneswar - OSPCB",09-03-2024 14:00:00,20.240790,85.836784,SO2,7,47,20
India,Odisha,Bileipada,"Tata Township, Bileipada - OSPCB",09-03-2024 14:00:00,22.06156703,85.47409613,PM2.5,66,177,98
India,Odisha,Bileipada,"Tata Township, Bileipada - OSPCB",09-03-2024 14:00:00,22.06156703,85.47409613,NO2,6,10,9
India,Odisha,Bileipada,"Tata Township, Bileipada - OSPCB",09-03-2024 14:00:00,22.06156703,85.47409613,NH3,11,11,11
India,Odisha,Bileipada,"Tata Township, Bileipada - OSPCB",09-03-2024 14:00:00,22.06156703,85.47409613,SO2,11,34,17
India,Odisha,Brajrajnagar,"GM Office, Brajrajnagar - OSPCB",09-03-2024 14:00:00,21.8004996,83.8396977,PM2.5,1,100,41
India,Odisha,Brajrajnagar,"GM Office, Brajrajnagar - OSPCB",09-03-2024 14:00:00,21.8004996,83.8396977,NH3,1,4,1
India,Odisha,Brajrajnagar,"GM Office, Brajrajnagar - OSPCB",09-03-2024 14:00:00,21.8004996,83.8396977,OZONE,18,20,19
India,Odisha,Byasanagar,"Ferro Chrome Colony, Byasanagar - OSPCB",09-03-2024 14:00:00,20.94185,86.11510,NH3,2,3,2
India,Odisha,Cuttack,"CDA Area, Cuttack - OSPCB",09-03-2024 14:00:00,20.48891     ,85.84768     ,PM2.5,62,173,103
India,Odisha,Keonjhar,"Jagamohanpur, Keonjhar - OSPCB",09-03-2024 14:00:00,21.643900,85.599355,NH3,6,12,9
India,Odisha,Rairangpur,"Divisional Forest Office, Rairangpur - OSPCB",09-03-2024 14:00:00,22.265816,86.174829,OZONE,3,52,24
India,Odisha,Rourkela,"Raghunathpali, Rourkela - OSPCB",09-03-2024 14:00:00,22.220833,84.809444,NH3,1,3,2
India,Odisha,Suakati,"OMC Colony, Suakati - OSPCB",09-03-2024 14:00:00,21.606865,85.510538,PM2.5,79,174,105
India,Odisha,Suakati,"OMC Colony, Suakati - OSPCB",09-03-2024 14:00:00,21.606865,85.510538,SO2,1,63,14
India,Odisha,Tensa,"Barsua Iron Ore Mines, Tensa - OSPCB",09-03-2024 14:00:00,21.869985,85.167016,OZONE,1,36,18
India,Puducherry,Puducherry,"Jawahar Nagar, Puducherry - PPCC",09-03-2024 14:00:00,11.9309,79.8027,CO,10,56,36
India,Punjab,Bathinda,"Hardev Nagar, Bathinda - PPCB",09-03-2024 14:00:00,30.233011,74.907758,PM10,21,108,70
India,Punjab,Ludhiana,"Punjab Agricultural University, Ludhiana - PPCB",09-03-2024 14:00:00,30.9028,75.8086,PM10,55,101,75
India,Punjab,Ludhiana,"Punjab Agricultural University, Ludhiana - PPCB",09-03-2024 14:00:00,30.9028,75.8086,SO2,5,12,9
India,Punjab,Ludhiana,"Punjab Agricultural University, Ludhiana - PPCB",09-03-2024 14:00:00,30.9028,75.8086,CO,2,102,56
India,Punjab,Mandi Gobindgarh,"RIMT University, Mandi Gobindgarh - PPCB",09-03-2024 14:00:00,30.649961,76.331442,PM10,109,467,294
India,Punjab,Mandi Gobindgarh,"RIMT University, Mandi Gobindgarh - PPCB",09-03-2024 14:00:00,30.649961,76.331442,OZONE,32,33,33
India,Punjab,Patiala,"Model Town, Patiala - PPCB",09-03-2024 14:00:00,30.349388,76.366642,PM10,62,101,77
India,Punjab,Patiala,"Model Town, Patiala - PPCB",09-03-2024 14:00:00,30.349388,76.366642,NO2,10,16,13
India,Punjab,Patiala,"Model Town, Patiala - PPCB",09-03-2024 14:00:00,30.349388,76.366642,SO2,3,24,11
India,Punjab,Rupnagar,"Ratanpura, Rupnagar - Ambuja Cements",09-03-2024 14:00:00,31.0325454,76.5623046,PM2.5,20,264,96
India,Punjab,Rupnagar,"Ratanpura, Rupnagar - Ambuja Cements",09-03-2024 14:00:00,31.0325454,76.5623046,CO,33,56,43
India,Rajasthan,Banswara,"Rati Talai, Banswara - RSPCB",09-03-2024 14:00:00,23.555190,74.440010,NH3,1,5,3
India,Rajasthan,Banswara,"Rati Talai, Banswara - RSPCB",09-03-2024 14:00:00,23.555190,74.440010,OZONE,6,124,64
India,Rajasthan,Baran,"Bamboliya, Baran - RSPCB",09-03-2024 14:00:00,25.106006,76.469948,PM2.5,NA,NA,NA
India,Rajasthan,Baran,"Bamboliya, Baran - RSPCB",09-03-2024 14:00:00,25.106006,76.469948,PM10,NA,NA,NA
India,Rajasthan,Barmer,"Railway Colony, Barmer - RSPCB",09-03-2024 14:00:00,25.747299,71.393989,CO,11,24,15
India,Rajasthan,Bharatpur,"Krishna Nagar, Bharatpur - RSPCB",09-03-2024 14:00:00,27.215415,77.50873,PM10,61,204,125
India,Rajasthan,Bharatpur,"Krishna Nagar, Bharatpur - RSPCB",09-03-2024 14:00:00,27.215415,77.50873,OZONE,38,128,63
India,Rajasthan,Bhilwara,"Pratap Nagar, Bhilwara - RSPCB",09-03-2024 14:00:00,25.339605,74.618883,PM10,23,163,78
India,Rajasthan,Bhiwadi,"RIICO Ind. Area III, Bhiwadi - RSPCB",09-03-2024 14:00:00,28.194909,76.862296,PM2.5,6,358,148
India,Rajasthan,Bhiwadi,"RIICO Ind. Area III, Bhiwadi - RSPCB",09-03-2024 14:00:00,28.194909,76.862296,SO2,1,30,13
India,Rajasthan,Bhiwadi,"RIICO Ind. Area III, Bhiwadi - RSPCB",09-03-2024 14:00:00,28.194909,76.862296,CO,3,110,85
India,Rajasthan,Bhiwadi,"Vasundhara Nagar_UIT, Bhiwadi - RSPCB",09-03-2024 14:00:00,28.207266,76.829265,PM2.5,13,99,47
India,Rajasthan,Bhiwadi,"Vasundhara Nagar_UIT, Bhiwadi - RSPCB",09-03-2024 14:00:00,28.207266,76.829265,PM10,59,176,120
India,Rajasthan,Bikaner,"MM Ground, Bikaner - RSPCB",09-03-2024 14:00:00,28.018792,73.292658,CO,18,72,42
India,Rajasthan,Chittorgarh,"Shastri Nagar, Chittorgarh - RSPCB",09-03-2024 14:00:00,24.892047,74.623527,NH3,6,12,9
India,Rajasthan,Chittorgarh,"Shastri Nagar, Chittorgarh - RSPCB",09-03-2024 14:00:00,24.892047,74.623527,SO2,6,118,26
India,Rajasthan,Dausa,"Khatikan Mohalla, Dausa - RSPCB",09-03-2024 14:00:00,26.895552,76.334753,PM10,92,274,127
India,Rajasthan,Dausa,"Khatikan Mohalla, Dausa - RSPCB",09-03-2024 14:00:00,26.895552,76.334753,CO,15,118,97
India,Rajasthan,Dholpur,"Raja Ganj, Dholpur - RSPCB",09-03-2024 14:00:00,26.699557,77.898881,OZONE,22,159,154
India,Rajasthan,Dungarpur,"Bhoiwada, Dungarpur - RSPCB",09-03-2024 14:00:00,23.837789,73.714926,NH3,3,4,3
India,Rajasthan,Jaipur,"Adarsh Nagar, Jaipur - RSPCB",09-03-2024 14:00:00,26.902909,75.836858,PM10,54,107,78
India,Rajasthan,Jaipur,"Mansarovar Sector-12, Jaipur - RSPCB",09-03-2024 14:00:00,26.843698,75.766894,PM2.5,29,109,53
India,Rajasthan,Jaipur,"Police Commissionerate, Jaipur - RSPCB",09-03-2024 14:00:00,26.9164092,75.7994901,NO2,17,115,37
India,Rajasthan,Jaisalmer,"Sadar Bazar, Jaisalmer - RSPCB",09-03-2024 14:00:00,26.912329,70.909168,PM2.5,14,170,52
India,Rajasthan,Jaisalmer,"Sadar Bazar, Jaisalmer - RSPCB",09-03-2024 14:00:00,26.912329,70.909168,NO2,14,110,33
India,Rajasthan,Jaisalmer,"Sadar Bazar, Jaisalmer - RSPCB",09-03-2024 14:00:00,26.912329,70.909168,SO2,4,12,8
India,Rajasthan,Jaisalmer,"Sadar Bazar, Jaisalmer - RSPCB",09-03-2024 14:00:00,26.912329,70.909168,OZONE,3,125,96
India,Rajasthan,Jhalawar,"Rajlaxmi Nagar, Jhalawar - RSPCB",09-03-2024 14:00:00,24.588397,76.172782,PM2.5,16,381,48
India,Rajasthan,Jhalawar,"Rajlaxmi Nagar, Jhalawar - RSPCB",09-03-2024 14:00:00,24.588397,76.172782,PM10,48,226,79
India,Rajasthan,Jhunjhunu,"Indra Nagar, Jhunjhunu - RSPCB",09-03-2024 14:00:00,28.108988,75.386577,SO2,2,11,6
India,Rajasthan,Jodhpur,"Digari Kalan, Jodhpur - RSPCB",09-03-2024 14:00:00,26.295810,73.082283,SO2,1,4,3
India,Rajasthan,Jodhpur,"Jhalamand, Jodhpur - RSPCB",09-03-2024 14:00:00,26.215415,73.070156,SO2,5,23,9
India,Rajasthan,Jodhpur,"Jhalamand, Jodhpur - RSPCB",09-03-2024 14:00:00,26.215415,73.070156,OZONE,49,99,80
India,Rajasthan,Jodhpur,"Mandor, Jodhpur - RSPCB",09-03-2024 14:00:00,26.358805,73.047444,NO2,24,40,31
India,Rajasthan,Jodhpur,"Mandor, Jodhpur - RSPCB",09-03-2024 14:00:00,26.358805,73.047444,CO,6,20,14
India,Rajasthan,Karauli,"Satyawati Vihar, Karauli - RSPCB",09-03-2024 14:00:00,26.506177,77.025989,PM2.5,67,290,124
India,Rajasthan,Kota,"Dhanmandi, Kota - RSPCB",09-03-2024 14:00:00,25.164090,75.858137,PM2.5,39,187,93
India,Rajasthan,Kota,"Shrinath Puram, Kota - RSPCB",09-03-2024 14:00:00,25.14389,75.821256,PM2.5,90,291,175
India,Rajasthan,Kota,"Shrinath Puram, Kota - RSPCB",09-03-2024 14:00:00,25.14389,75.821256,NO2,9,81,34
India,Rajasthan,Kota,"Shrinath Puram, Kota - RSPCB",09-03-2024 14:00:00,25.14389,75.821256,SO2,7,25,12
India,Rajasthan,Nagaur,"Karni Colony, Nagaur - RSPCB",09-03-2024 14:00:00,27.213494,73.734444,OZONE,56,83,74
India,Rajasthan,Pali,"Indira Colony Vistar, Pali - RSPCB",09-03-2024 14:00:00,25.771061, 73.340227,PM2.5,57,109,77
India,Rajasthan,Pali,"Indira Colony Vistar, Pali - RSPCB",09-03-2024 14:00:00,25.771061, 73.340227,NO2,18,70,41
India,Rajasthan,Rajsamand,"Dhoinda, Rajsamand - RSPCB",09-03-2024 14:00:00,25.036360,73.883502,NH3,4,4,4
India,Rajasthan,Sawai Madhopur,"Sahu Nagar, Sawai Madhopur - RSPCB",09-03-2024 14:00:00,26.031443,76.359327,CO,16,46,23
India,Rajasthan,Sikar,"Radhakishan Pura, Sikar - RSPCB",09-03-2024 14:00:00,27.608912,75.153302,NH3,2,5,4
India,Rajasthan,Sirohi,"Vedhaynath Colony, Sirohi - RSPCB",09-03-2024 14:00:00,24.885261,72.857549,NH3,3,8,5
India,Rajasthan,Sirohi,"Vedhaynath Colony, Sirohi - RSPCB",09-03-2024 14:00:00,24.885261,72.857549,CO,34,68,44
India,Rajasthan,Sri Ganganagar,"Old City, Sri Ganganagar - RSPCB",09-03-2024 14:00:00,29.931624,73.864511,OZONE,19,99,64
India,Rajasthan,Tonk,"Shastri Nagar, Tonk - RSPCB",09-03-2024 14:00:00,26.159933,75.780517,SO2,2,9,5
India,TamilNadu,Ariyalur,"Keelapalur, Ariyalur - TNPCB",09-03-2024 14:00:00,11.06825,79.07033,SO2,34,36,35
India,TamilNadu,Chennai,"Alandur Bus Depot, Chennai - CPCB",09-03-2024 14:00:00,12.9099161,80.1076538,CO,80,92,85
India,TamilNadu,Chennai,"Arumbakkam, Chennai - TNPCB",09-03-2024 14:00:00,13.0664,80.2112 ,NH3,2,6,4
India,TamilNadu,Chennai,"Kodungaiyur, Chennai - TNPCB",09-03-2024 14:00:00,13.1278,80.2642,OZONE,5,6,6
India,TamilNadu,Chennai,"Perungudi, Chennai - TNPCB",09-03-2024 14:00:00,12.9533,80.2357,PM2.5,56,170,75
India,TamilNadu,Chennai,"Perungudi, Chennai - TNPCB",09-03-2024 14:00:00,12.9533,80.2357,OZONE,3,8,4
India,TamilNadu,Chennai,"Royapuram, Chennai - TNPCB",09-03-2024 14:00:00,13.1036,80.2909,OZONE,NA,NA,NA
India,TamilNadu,Chennai,"Velachery Res. Area, Chennai - CPCB",09-03-2024 14:00:00,13.0052189,80.2398125,PM10,76,112,93
India,TamilNadu,Chennai,"Velachery Res. Area, Chennai - CPCB",09-03-2024 14:00:00,13.0052189,80.2398125,SO2,10,11,11
India,TamilNadu,Coimbatore,"PSG College of Arts and Science, Coimbatore - TNPCB",09-03-2024 14:00:00,11.0328,77.0349,PM2.5,42,103,63
India,TamilNadu,Gummidipoondi,"Anthoni Pillai Nagar, Gummidipoondi - TNPCB",09-03-2024 14:00:00,13.4127,80.1081,NH3,1,2,2
India,TamilNadu,Kanchipuram,"Kilambi, Kanchipuram - TNPCB",09-03-2024 14:00:00,12.864618,79.659968,PM10,NA,NA,NA
India,TamilNadu,Kanchipuram,"Kilambi, Kanchipuram - TNPCB",09-03-2024 14:00:00,12.864618,79.659968,OZONE,NA,NA,NA
India,TamilNadu,Ooty,"Bombay Castel, Ooty - TNPCB",09-03-2024 14:00:00,11.4068288,76.7138973,PM10,8,162,48
India,TamilNadu,Ooty,"Bombay Castel, Ooty - TNPCB",09-03-2024 14:00:00,11.4068288,76.7138973,CO,16,21,20
India,TamilNadu,Palkalaiperur,"Bharathidasan University, Palkalaiperur - TNPCB",09-03-2024 14:00:00,10.681158,78.741746,PM2.5,NA,NA,NA
India,TamilNadu,Palkalaiperur,"Bharathidasan University, Palkalaiperur - TNPCB",09-03-2024 14:00:00,10.681158,78.741746,PM10,NA,NA,NA
India,Telangana,Hyderabad,"Bollaram Industrial Area, Hyderabad - TSPCB",09-03-2024 14:00:00,17.540891,78.358528,PM2.5,13,187,76
India,Telangana,Hyderabad,"Bollaram Industrial Area, Hyderabad - TSPCB",09-03-2024 14:00:00,17.540891,78.358528,NO2,17,87,40
India,Telangana,Hyderabad,"Bollaram Industrial Area, Hyderabad - TSPCB",09-03-2024 14:00:00,17.540891,78.358528,CO,6,105,60
India,Telangana,Hyderabad,"ICRISAT Patancheru, Hyderabad - TSPCB",09-03-2024 14:00:00,17.518400,78.278777,NH3,2,2,2
India,Telangana,Hyderabad,"Kompally Municipal Office, Hyderabad - TSPCB",09-03-2024 14:00:00,17.544899,78.486949,NO2,8,11,9
India,Telangana,Hyderabad,"Nacharam_TSIIC IALA, Hyderabad - TSPCB",09-03-2024 14:00:00,17.429398,78.569354,PM10,71,102,82
India,Telangana,Hyderabad,"New Malakpet, Hyderabad - TSPCB",09-03-2024 14:00:00,17.37206,78.50864,NH3,4,5,4
India,Telangana,Hyderabad,"Sanathnagar, Hyderabad - TSPCB",09-03-2024 14:00:00,17.4559458,78.4332152,PM2.5,44,274,98
India,Telangana,Hyderabad,"Sanathnagar, Hyderabad - TSPCB",09-03-2024 14:00:00,17.4559458,78.4332152,NO2,26,31,28
India,Telangana,Hyderabad,"Zoo Park, Hyderabad - TSPCB",09-03-2024 14:00:00,17.349694,78.451437,PM2.5,48,112,70
India,Telangana,Hyderabad,"Zoo Park, Hyderabad - TSPCB",09-03-2024 14:00:00,17.349694,78.451437,NO2,23,43,32
India,Telangana,Hyderabad,"Zoo Park, Hyderabad - TSPCB",09-03-2024 14:00:00,17.349694,78.451437,SO2,1,9,4
India,Tripura,Agartala,"Bardowali, Agartala - Tripura SPCB",09-03-2024 14:00:00,23.8175497,91.2726974,NH3,2,3,2
India,Uttar_Pradesh,Agra,"Manoharpur, Agra - UPPCB",09-03-2024 14:00:00,27.23711,78.01936,OZONE,2,28,11
India,Uttar_Pradesh,Agra,"Rohta, Agra - UPPCB",09-03-2024 14:00:00,27.106972,78.000111,PM2.5,21,97,51
India,Uttar_Pradesh,Agra,"Rohta, Agra - UPPCB",09-03-2024 14:00:00,27.106972,78.000111,CO,2,24,9
India,Uttar_Pradesh,Agra,"Sanjay Palace, Agra - UPPCB",09-03-2024 14:00:00,27.19865833,78.00598056,PM2.5,10,52,29
India,Uttar_Pradesh,Agra,"Sector-3B Avas Vikas Colony, Agra - UPPCB",09-03-2024 14:00:00,27.19412,77.96237,NH3,2,6,4
India,Uttar_Pradesh,Agra,"Sector-3B Avas Vikas Colony, Agra - UPPCB",09-03-2024 14:00:00,27.19412,77.96237,OZONE,3,38,12
India,Uttar_Pradesh,Agra,"Shahjahan Garden, Agra - UPPCB",09-03-2024 14:00:00,27.169338,78.03582,CO,14,47,23
India,Uttar_Pradesh,Agra,"Shahjahan Garden, Agra - UPPCB",09-03-2024 14:00:00,27.169338,78.03582,OZONE,3,21,3
India,Uttar_Pradesh,Baghpat,"Sardar Patel Inter College, Baghpat - UPPCB",09-03-2024 14:00:00,28.964949,77.278761,PM2.5,25,89,57
India,Uttar_Pradesh,Baghpat,"Sardar Patel Inter College, Baghpat - UPPCB",09-03-2024 14:00:00,28.964949,77.278761,NH3,1,3,2
India,Uttar_Pradesh,Bareilly,"Civil Lines, Bareilly - UPPCB",09-03-2024 14:00:00,28.359581,79.414455,NO2,12,20,16
India,Uttar_Pradesh,Bareilly,"Rajendra Nagar, Bareilly - UPPCB",09-03-2024 14:00:00,28.38910936,79.42963708,NH3,1,1,1
India,Uttar_Pradesh,Bareilly,"Rajendra Nagar, Bareilly - UPPCB",09-03-2024 14:00:00,28.38910936,79.42963708,SO2,42,44,42
India,Uttar_Pradesh,Bareilly,"Rajendra Nagar, Bareilly - UPPCB",09-03-2024 14:00:00,28.38910936,79.42963708,CO,1,16,12
India,Uttar_Pradesh,Bulandshahr,"Yamunapuram, Bulandshahr - UPPCB",09-03-2024 14:00:00,28.406963,77.849831,PM2.5,31,153,84
India,Uttar_Pradesh,Bulandshahr,"Yamunapuram, Bulandshahr - UPPCB",09-03-2024 14:00:00,28.406963,77.849831,NO2,12,78,50
India,Uttar_Pradesh,Firozabad,"Nagla Bhau, Firozabad - UPPCB",09-03-2024 14:00:00,27.168897,78.376960,PM10,19,136,35
India,Uttar_Pradesh,Firozabad,"Nagla Bhau, Firozabad - UPPCB",09-03-2024 14:00:00,27.168897,78.376960,CO,14,27,24
India,Uttar_Pradesh,Firozabad,"Vibhab Nagar, Firozabad - UPPCB",09-03-2024 14:00:00,27.1594,78.3953,SO2,13,83,22
India,Uttar_Pradesh,Firozabad,"Vibhab Nagar, Firozabad - UPPCB",09-03-2024 14:00:00,27.1594,78.3953,CO,18,30,23
India,Uttar_Pradesh,Ghaziabad,"Loni, Ghaziabad - UPPCB",09-03-2024 14:00:00,28.757294,77.278792,OZONE,24,86,48
India,Uttar_Pradesh,Ghaziabad,"Sanjay Nagar, Ghaziabad - UPPCB",09-03-2024 14:00:00,28.685382,77.453839,NO2,NA,NA,NA
India,Uttar_Pradesh,Ghaziabad,"Sanjay Nagar, Ghaziabad - UPPCB",09-03-2024 14:00:00,28.685382,77.453839,SO2,NA,NA,NA
India,Uttar_Pradesh,Gorakhpur,"Madan Mohan Malaviya University of Technology, Gorakhpur - UPPCB",09-03-2024 14:00:00,26.730136,83.433859,NH3,1,1,1
India,Uttar_Pradesh,Hapur,"Anand Vihar, Hapur - UPPCB",09-03-2024 14:00:00,28.725645,77.749675,CO,22,63,51
India,Uttar_Pradesh,Jhansi,"Shivaji Nagar, Jhansi - UPPCB",09-03-2024 14:00:00,25.4547,78.6039,CO,10,22,16
India,Uttar_Pradesh,Jhansi,"Shivaji Nagar, Jhansi - UPPCB",09-03-2024 14:00:00,25.4547,78.6039,OZONE,2,15,8
India,Uttar_Pradesh,Kanpur,"FTI Kidwai Nagar, Kanpur - UPPCB",09-03-2024 14:00:00,26.428282,80.327067,CO,24,46,35
India,Uttar_Pradesh,Kanpur,"NSI Kalyanpur, Kanpur - UPPCB",09-03-2024 14:00:00,26.509954,80.249612,NH3,1,1,1
India,Uttar_Pradesh,Kanpur,"NSI Kalyanpur, Kanpur - UPPCB",09-03-2024 14:00:00,26.509954,80.249612,CO,33,50,38
India,Uttar_Pradesh,Kanpur,"Nehru Nagar, Kanpur - UPPCB",09-03-2024 14:00:00,26.4703136,80.3229863,PM2.5,30,88,54
India,Uttar_Pradesh,Khurja,"Kalindi Kunj, Khurja - UPPCB",09-03-2024 14:00:00,28.2348927,77.8683002,NO2,10,14,12
India,Uttar_Pradesh,Lucknow,"B R Ambedkar University, Lucknow - UPPCB",09-03-2024 14:00:00,26.766433,80.927299,CO,22,29,27
India,Uttar_Pradesh,Lucknow,"Kendriya Vidyalaya, Lucknow - CPCB",09-03-2024 14:00:00,26.906111,80.948222,PM2.5,39,96,70
India,Uttar_Pradesh,Lucknow,"Kendriya Vidyalaya, Lucknow - CPCB",09-03-2024 14:00:00,26.906111,80.948222,NO2,8,37,17
India,Uttar_Pradesh,Lucknow,"Kukrail Picnic Spot-1, Lucknow - UPPCB",09-03-2024 14:00:00,26.90723,80.98579,SO2,32,35,33
India,Uttar_Pradesh,Lucknow,"Talkatora District Industries Center, Lucknow - CPCB",09-03-2024 14:00:00,26.83399722,80.8917361,NO2,26,39,34
India,Uttar_Pradesh,Lucknow,"Talkatora District Industries Center, Lucknow - CPCB",09-03-2024 14:00:00,26.83399722,80.8917361,NH3,8,14,11
India,Uttar_Pradesh,Meerut,"Ganga Nagar, Meerut - UPPCB",09-03-2024 14:00:00,28.999264,77.7590354,PM2.5,11,68,39
India,Uttar_Pradesh,Meerut,"Ganga Nagar, Meerut - UPPCB",09-03-2024 14:00:00,28.999264,77.7590354,CO,17,34,31
India,Uttar_Pradesh,Meerut,"Jai Bhim Nagar, Meerut - UPPCB",09-03-2024 14:00:00,28.9535882,77.7622941,PM2.5,15,76,46
India,Uttar_Pradesh,Meerut,"Pallavpuram Phase 2, Meerut - UPPCB",09-03-2024 14:00:00,29.063510,77.709723,CO,35,66,48
India,Uttar_Pradesh,Moradabad,"Buddhi Vihar, Moradabad - UPPCB",09-03-2024 14:00:00,28.83526,78.74460,OZONE,16,43,23
India,Uttar_Pradesh,Moradabad,"Employment Office, Moradabad - UPPCB",09-03-2024 14:00:00,28.88528,78.73880,PM10,66,105,79
India,Uttar_Pradesh,Moradabad,"Employment Office, Moradabad - UPPCB",09-03-2024 14:00:00,28.88528,78.73880,NH3,4,4,4
India,Uttar_Pradesh,Moradabad,"Jigar Colony, Moradabad - UPPCB",09-03-2024 14:00:00,28.856664,78.772638,PM10,58,104,76
India,Uttar_Pradesh,Moradabad,"Kashiram Nagar, Moradabad - UPPCB",09-03-2024 14:00:00,28.849399,78.742362,OZONE,17,34,21
India,Uttar_Pradesh,Moradabad,"Transport Nagar, Moradabad - UPPCB",09-03-2024 14:00:00,28.802625,78.753728,PM2.5,13,60,32
India,Uttar_Pradesh,Muzaffarnagar,"New Mandi, Muzaffarnagar - UPPCB",09-03-2024 14:00:00,29.4723508,77.7194031,PM10,98,500,171
India,Uttar_Pradesh,Noida,"Sector - 125, Noida - UPPCB",09-03-2024 14:00:00,28.5447608,77.3231257,PM2.5,24,106,55
India,Uttar_Pradesh,Noida,"Sector - 125, Noida - UPPCB",09-03-2024 14:00:00,28.5447608,77.3231257,NO2,18,104,62
India,Uttar_Pradesh,Noida,"Sector - 125, Noida - UPPCB",09-03-2024 14:00:00,28.5447608,77.3231257,CO,16,44,33
India,Uttar_Pradesh,Noida,"Sector - 62, Noida - IMD",09-03-2024 14:00:00,28.6245479,77.3577104,PM10,NA,NA,NA
India,Uttar_Pradesh,Noida,"Sector - 62, Noida - IMD",09-03-2024 14:00:00,28.6245479,77.3577104,OZONE,7,30,17
India,Uttar_Pradesh,Noida,"Sector-1, Noida - UPPCB",09-03-2024 14:00:00,28.5898,77.3101,PM2.5,35,172,86
India,Uttar_Pradesh,Noida,"Sector-1, Noida - UPPCB",09-03-2024 14:00:00,28.5898,77.3101,SO2,4,14,8
India,Uttar_Pradesh,Noida,"Sector-116, Noida - UPPCB",09-03-2024 14:00:00,28.569230,77.393848,PM10,83,138,104
India,Uttar_Pradesh,Noida,"Sector-116, Noida - UPPCB",09-03-2024 14:00:00,28.569230,77.393848,SO2,13,31,22
India,Uttar_Pradesh,Noida,"Sector-116, Noida - UPPCB",09-03-2024 14:00:00,28.569230,77.393848,CO,16,57,43
India,Uttar_Pradesh,Prayagraj,"Jhunsi, Prayagraj - UPPCB",09-03-2024 14:00:00,25.425602,81.917152,NO2,6,6,6
India,Uttar_Pradesh,Prayagraj,"Motilal Nehru NIT, Prayagraj - UPPCB",09-03-2024 14:00:00,25.494,81.863,CO,8,21,16
India,Uttar_Pradesh,Prayagraj,"Nagar Nigam, Prayagraj - UPPCB",09-03-2024 14:00:00,25.44919916 ,81.82735986 ,NH3,2,6,4
India,Uttar_Pradesh,Prayagraj,"Nagar Nigam, Prayagraj - UPPCB",09-03-2024 14:00:00,25.44919916 ,81.82735986 ,OZONE,10,11,11
India,Uttar_Pradesh,Varanasi,"Bhelupur, Varanasi - UPPCB",09-03-2024 14:00:00,25.301778,82.996789,PM2.5,4,13,8
India,Uttar_Pradesh,Varanasi,"Maldahiya, Varanasi - UPPCB",09-03-2024 14:00:00,25.32393,82.99687,NO2,1,2,2
India,Uttar_Pradesh,Varanasi,"Maldahiya, Varanasi - UPPCB",09-03-2024 14:00:00,25.32393,82.99687,CO,2,22,4
India,Uttar_Pradesh,Vrindavan,"Omex Eternity, Vrindavan - UPPCB",09-03-2024 14:00:00,27.5714090,77.6557570,CO,32,74,58
India,Uttarakhand,Kashipur,"Govt. Girls Inter College, Kashipur - UKPCB",09-03-2024 14:00:00,29.2124114,78.9611753,CO,18,38,35
India,Uttarakhand,Rishikesh,"Shivaji Nagar, Rishikesh - UKPCB",09-03-2024 14:00:00,30.075911,78.2859547,NO2,7,41,17
India,Uttarakhand,Rishikesh,"Shivaji Nagar, Rishikesh - UKPCB",09-03-2024 14:00:00,30.075911,78.2859547,OZONE,15,97,33
India,West_Bengal,Asansol,"Asansol Court Area, Asansol - WBPCB",09-03-2024 14:00:00,23.685297,86.945968,NO2,9,53,24
India,West_Bengal,Haldia,"Priyambada Housing Estate, Haldia - WBPCB",09-03-2024 14:00:00,22.06047,88.109737,OZONE,9,158,39
India,West_Bengal,Howrah,"Belur Math, Howrah - WBPCB",09-03-2024 14:00:00,22.629801,88.352017,NH3,3,10,4
India,West_Bengal,Howrah,"Ghusuri, Howrah - WBPCB",09-03-2024 14:00:00,22.611968,88.347422,PM2.5,98,384,253
India,West_Bengal,Howrah,"Ghusuri, Howrah - WBPCB",09-03-2024 14:00:00,22.611968,88.347422,PM10,90,388,189
India,West_Bengal,Howrah,"Ghusuri, Howrah - WBPCB",09-03-2024 14:00:00,22.611968,88.347422,NH3,1,10,3
India,West_Bengal,Howrah,"Padmapukur, Howrah - WBPCB",09-03-2024 14:00:00,22.5687319,88.2797276,OZONE,5,77,39
India,West_Bengal,Kolkata,"Ballygunge, Kolkata - WBPCB",09-03-2024 14:00:00,22.5367507,88.3638022,PM2.5,55,265,127
India,West_Bengal,Kolkata,"Bidhannagar, Kolkata - WBPCB",09-03-2024 14:00:00,22.58157048,88.41002457,PM2.5,49,248,123
India,West_Bengal,Kolkata,"Bidhannagar, Kolkata - WBPCB",09-03-2024 14:00:00,22.58157048,88.41002457,OZONE,2,34,9
India,West_Bengal,Kolkata,"Fort William, Kolkata - WBPCB",09-03-2024 14:00:00,22.556640,88.342674,PM10,88,200,131
India,West_Bengal,Kolkata,"Jadavpur, Kolkata - WBPCB",09-03-2024 14:00:00,22.49929,88.36917,PM2.5,28,297,171
India,West_Bengal,Kolkata,"Jadavpur, Kolkata - WBPCB",09-03-2024 14:00:00,22.49929,88.36917,CO,8,101,53
India,West_Bengal,Kolkata,"Rabindra Sarobar, Kolkata - WBPCB",09-03-2024 14:00:00,22.51106,88.35142,CO,3,106,19
India,West_Bengal,Siliguri,"Ward-32 Bapupara, Siliguri - WBPCB",09-03-2024 14:00:00,26.6879226,88.4152495,NO2,29,120,68
India,West_Bengal,Siliguri,"Ward-32 Bapupara, Siliguri - WBPCB",09-03-2024 14:00:00,26.6879226,88.4152495,OZONE,10,76,37
India,Andhra_Pradesh,Anantapur,"Gulzarpet, Anantapur - APPCB",09-03-2024 14:00:00,14.675886,77.593027,CO,32,120,42
India,Andhra_Pradesh,Anantapur,"Gulzarpet, Anantapur - APPCB",09-03-2024 14:00:00,14.675886,77.593027,OZONE,4,87,29
India,Andhra_Pradesh,Chittoor,"Gangineni Cheruvu, Chittoor - APPCB",09-03-2024 14:00:00,13.204880,79.097889,PM2.5,31,92,60
India,Andhra_Pradesh,Kadapa,"Yerramukkapalli, Kadapa - APPCB",09-03-2024 14:00:00,14.465052,78.824187,SO2,2,3,2
India,Andhra_Pradesh,Tirupati,"Tirumala, Tirupati - APPCB",09-03-2024 14:00:00,13.67,79.35,PM10,49,91,73
India,Andhra_Pradesh,Tirupati,"Tirumala, Tirupati - APPCB",09-03-2024 14:00:00,13.67,79.35,NO2,14,51,27
India,Andhra_Pradesh,Tirupati,"Tirumala, Tirupati - APPCB",09-03-2024 14:00:00,13.67,79.35,CO,36,52,40
India,Andhra_Pradesh,Vijayawada,"HB Colony, Vijayawada - APPCB",09-03-2024 14:00:00,16.536107,80.594233,PM2.5,65,91,77
India,Andhra_Pradesh,Vijayawada,"HB Colony, Vijayawada - APPCB",09-03-2024 14:00:00,16.536107,80.594233,NO2,6,18,10
India,Andhra_Pradesh,Vijayawada,"HB Colony, Vijayawada - APPCB",09-03-2024 14:00:00,16.536107,80.594233,NH3,4,4,4
India,Andhra_Pradesh,Vijayawada,"HB Colony, Vijayawada - APPCB",09-03-2024 14:00:00,16.536107,80.594233,SO2,3,4,4
India,Andhra_Pradesh,Vijayawada,"HB Colony, Vijayawada - APPCB",09-03-2024 14:00:00,16.536107,80.594233,OZONE,1,29,11
India,Andhra_Pradesh,Vijayawada,"Rajiv Gandhi Park, Vijayawada - APPCB",09-03-2024 14:00:00,16.509717,80.612222,PM2.5,48,95,65
India,Andhra_Pradesh,Vijayawada,"Rajiv Gandhi Park, Vijayawada - APPCB",09-03-2024 14:00:00,16.509717,80.612222,NH3,3,7,6
India,Andhra_Pradesh,Vijayawada,"Rajiv Gandhi Park, Vijayawada - APPCB",09-03-2024 14:00:00,16.509717,80.612222,SO2,1,8,4
India,Andhra_Pradesh,Vijayawada,"Rajiv Nagar, Vijayawada - APPCB",09-03-2024 14:00:00,16.554731,80.649110,NH3,1,2,1
India,Andhra_Pradesh,Vijayawada,"Rajiv Nagar, Vijayawada - APPCB",09-03-2024 14:00:00,16.554731,80.649110,SO2,6,17,12
India,Andhra_Pradesh,Vijayawada,"Rajiv Nagar, Vijayawada - APPCB",09-03-2024 14:00:00,16.554731,80.649110,OZONE,6,29,13
India,Andhra_Pradesh,Visakhapatnam,"GVM Corporation, Visakhapatnam - APPCB",09-03-2024 14:00:00,17.72,83.3,PM10,60,145,80
India,Andhra_Pradesh,Visakhapatnam,"GVM Corporation, Visakhapatnam - APPCB",09-03-2024 14:00:00,17.72,83.3,SO2,5,18,12
India,Assam,Byrnihat,"Central Academy for SFS, Byrnihat - PCBA",09-03-2024 14:00:00,26.071318,91.87488,NO2,40,125,62
India,Assam,Byrnihat,"Central Academy for SFS, Byrnihat - PCBA",09-03-2024 14:00:00,26.071318,91.87488,NH3,2,8,7
India,Assam,Guwahati,"IITG, Guwahati - PCBA",09-03-2024 14:00:00,26.2028636,91.70046436,PM10,97,235,160
India,Assam,Guwahati,"LGBI Airport, Guwahati - PCBA",09-03-2024 14:00:00,26.10887,91.589544,SO2,10,15,13
India,Assam,Guwahati,"LGBI Airport, Guwahati - PCBA",09-03-2024 14:00:00,26.10887,91.589544,CO,20,76,33
India,Assam,Guwahati,"LGBI Airport, Guwahati - PCBA",09-03-2024 14:00:00,26.10887,91.589544,OZONE,3,77,37
India,Assam,Guwahati,"Pan Bazaar, Guwahati - PCBA",09-03-2024 14:00:00,26.187500,91.744194,NO2,4,25,11
India,Assam,Guwahati,"Pan Bazaar, Guwahati - PCBA",09-03-2024 14:00:00,26.187500,91.744194,SO2,71,101,83
India,Assam,Nagaon,"Christianpatty, Nagaon - PCBA",09-03-2024 14:00:00,26.349082,92.68449,NH3,2,9,4
India,Assam,Nalbari,"Bata Chowk, Nalbari - PCBA",09-03-2024 14:00:00,26.446912,91.439057,PM10,103,340,182
India,Assam,Nalbari,"Bata Chowk, Nalbari - PCBA",09-03-2024 14:00:00,26.446912,91.439057,NO2,13,55,28
India,Assam,Nalbari,"Bata Chowk, Nalbari - PCBA",09-03-2024 14:00:00,26.446912,91.439057,NH3,1,5,2
India,Assam,Nalbari,"Bata Chowk, Nalbari - PCBA",09-03-2024 14:00:00,26.446912,91.439057,SO2,4,6,5
India,Assam,Silchar,"Tarapur, Silchar - PCBA",09-03-2024 14:00:00,24.82827,92.79525,CO,27,36,31
India,Bihar,Araria,"Kharahiya Basti, Araria - BSPCB",09-03-2024 14:00:00,26.146529,87.454184,OZONE,10,11,10
India,Bihar,Arrah,"New DM Office, Arrah - BSPCB",09-03-2024 14:00:00,25.5626095,84.663264,CO,4,20,7
India,Bihar,Aurangabad,"Gurdeo Nagar, Aurangabad - BSPCB",09-03-2024 14:00:00,24.75746,84.366208,PM2.5,NA,NA,NA
India,Bihar,Aurangabad,"Gurdeo Nagar, Aurangabad - BSPCB",09-03-2024 14:00:00,24.75746,84.366208,NH3,6,8,7
India,Bihar,Bhagalpur,"Mayaganj, Bhagalpur - BSPCB",09-03-2024 14:00:00,25.265194,87.012947,PM2.5,40,183,79
India,Bihar,Bhagalpur,"Mayaganj, Bhagalpur - BSPCB",09-03-2024 14:00:00,25.265194,87.012947,SO2,11,12,12
India,Bihar,Bhagalpur,"Mayaganj, Bhagalpur - BSPCB",09-03-2024 14:00:00,25.265194,87.012947,OZONE,30,108,57
India,Bihar,Bihar Sharif,"D M Colony, Bihar Sharif - BSPCB",09-03-2024 14:00:00,25.204762,85.514960,PM2.5,72,180,105
India,Bihar,Bihar Sharif,"D M Colony, Bihar Sharif - BSPCB",09-03-2024 14:00:00,25.204762,85.514960,PM10,60,123,89
India,Bihar,Bihar Sharif,"D M Colony, Bihar Sharif - BSPCB",09-03-2024 14:00:00,25.204762,85.514960,SO2,1,22,8
India,Bihar,Buxar,"Charitra Van, Buxar - BSPCB (Formerly known as Central Jail)",09-03-2024 14:00:00,25.567520,83.966379,PM10,NA,NA,NA
India,Bihar,Buxar,"Charitra Van, Buxar - BSPCB (Formerly known as Central Jail)",09-03-2024 14:00:00,25.567520,83.966379,OZONE,24,144,86
India,Bihar,Chhapra,"Darshan Nagar, Chhapra - BSPCB",09-03-2024 14:00:00,25.7808257,84.7446768,SO2,8,80,35
India,Bihar,Gaya,"Collectorate, Gaya - BSPCB",09-03-2024 14:00:00,24.7955,84.9994,PM2.5,31,134,66
India,Bihar,Gaya,"Collectorate, Gaya - BSPCB",09-03-2024 14:00:00,24.7955,84.9994,CO,18,46,30
India,Bihar,Gaya,"Kareemganj, Gaya - BSPCB",09-03-2024 14:00:00,24.792403,84.992416,PM2.5,5,83,39
India,Bihar,Gaya,"Kareemganj, Gaya - BSPCB",09-03-2024 14:00:00,24.792403,84.992416,SO2,6,10,8
India,Bihar,Gaya,"Kareemganj, Gaya - BSPCB",09-03-2024 14:00:00,24.792403,84.992416,CO,1,109,41
India,Bihar,Hajipur,"Industrial Area, Hajipur - BSPCB",09-03-2024 14:00:00,25.697189,85.245900,NO2,33,54,42
India,Bihar,Hajipur,"Industrial Area, Hajipur - BSPCB",09-03-2024 14:00:00,25.697189,85.245900,NH3,14,18,16
India,Bihar,Hajipur,"Industrial Area, Hajipur - BSPCB",09-03-2024 14:00:00,25.697189,85.245900,CO,17,48,38
India,Bihar,Katihar,"Mirchaibari, Katihar - BSPCB",09-03-2024 14:00:00,25.560083,87.553265,PM2.5,15,160,85
India,Bihar,Katihar,"Mirchaibari, Katihar - BSPCB",09-03-2024 14:00:00,25.560083,87.553265,SO2,20,24,22
India,Bihar,Manguraha,"Forest Rest House, Manguraha - BSPCB",09-03-2024 14:00:00,27.308328,84.531742,PM10,26,129,61
India,Bihar,Manguraha,"Forest Rest House, Manguraha - BSPCB",09-03-2024 14:00:00,27.308328,84.531742,SO2,2,3,3
India,Bihar,Munger,"Town Hall, Munger - BSPCB",09-03-2024 14:00:00,25.376776,86.471523,NH3,1,2,2
India,Bihar,Munger,"Town Hall, Munger - BSPCB",09-03-2024 14:00:00,25.376776,86.471523,CO,2,185,111
India,Bihar,Muzaffarpur,"Buddha Colony, Muzaffarpur - BSPCB",09-03-2024 14:00:00,26.11442,85.39813,PM10,106,156,128
India,Bihar,Muzaffarpur,"Buddha Colony, Muzaffarpur - BSPCB",09-03-2024 14:00:00,26.11442,85.39813,NO2,20,49,32
India,Bihar,Muzaffarpur,"MIT-Daudpur Kothi, Muzaffarpur - BSPCB",09-03-2024 14:00:00,26.1403345,85.3650192,NH3,1,3,2
India,Bihar,Muzaffarpur,"MIT-Daudpur Kothi, Muzaffarpur - BSPCB",09-03-2024 14:00:00,26.1403345,85.3650192,OZONE,23,64,39
India,Bihar,Patna,"DRM Office Danapur, Patna - BSPCB",09-03-2024 14:00:00,25.586562,85.043586,PM2.5,75,121,87
India,Bihar,Patna,"DRM Office Danapur, Patna - BSPCB",09-03-2024 14:00:00,25.586562,85.043586,NO2,10,67,34
India,Bihar,Patna,"DRM Office Danapur, Patna - BSPCB",09-03-2024 14:00:00,25.586562,85.043586,SO2,8,10,9
India,Bihar,Patna,"DRM Office Danapur, Patna - BSPCB",09-03-2024 14:00:00,25.586562,85.043586,CO,16,64,31
India,Bihar,Patna,"Govt. High School Shikarpur, Patna - BSPCB",09-03-2024 14:00:00,25.592539,85.227158,NH3,3,5,5
India,Bihar,Patna,"Govt. High School Shikarpur, Patna - BSPCB",09-03-2024 14:00:00,25.592539,85.227158,CO,16,42,29
India,Bihar,Patna,"IGSC Planetarium Complex, Patna - BSPCB",09-03-2024 14:00:00,25.610369,85.132568,CO,14,17,16
India,Bihar,Patna,"Rajbansi Nagar, Patna - BSPCB",09-03-2024 14:00:00,25.599486,85.113666,PM2.5,38,88,68
India,Bihar,Patna,"Rajbansi Nagar, Patna - BSPCB",09-03-2024 14:00:00,25.599486,85.113666,SO2,1,13,8
India,Bihar,Patna,"Samanpura, Patna - BSPCB",09-03-2024 14:00:00,25.596727,85.085624,PM10,121,436,191
India,Bihar,Patna,"Samanpura, Patna - BSPCB",09-03-2024 14:00:00,25.596727,85.085624,OZONE,10,31,20
India,Bihar,Purnia,"Mariam Nagar, Purnia - BSPCB",09-03-2024 14:00:00,25.366336,87.117468,PM10,24,119,83
India,Bihar,Saharsa,"Police Line, Saharsa - BSPCB",09-03-2024 14:00:00,25.892357,86.590325,PM2.5,17,65,46
India,Bihar,Saharsa,"Police Line, Saharsa - BSPCB",09-03-2024 14:00:00,25.892357,86.590325,OZONE,22,52,34
India,Bihar,Samastipur,"DM Office_Kasipur, Samastipur - BSPCB",09-03-2024 14:00:00,25.859655,85.77944,CO,8,56,44
India,Bihar,Siwan,"Chitragupta Nagar, Siwan - BSPCB",09-03-2024 14:00:00,26.2271665,84.3570427,CO,13,140,56
India,Chandigarh,Chandigarh,"Sector 22, Chandigarh - CPCC",09-03-2024 14:00:00,30.735567,76.775714,NO2,12,56,23
India,Chandigarh,Chandigarh,"Sector 22, Chandigarh - CPCC",09-03-2024 14:00:00,30.735567,76.775714,CO,30,54,36
India,Chandigarh,Chandigarh,"Sector 22, Chandigarh - CPCC",09-03-2024 14:00:00,30.735567,76.775714,OZONE,43,180,91
India,Chandigarh,Chandigarh,"Sector-25, Chandigarh - CPCC",09-03-2024 14:00:00,30.751462,76.762879,PM2.5,90,160,116
India,Chandigarh,Chandigarh,"Sector-25, Chandigarh - CPCC",09-03-2024 14:00:00,30.751462,76.762879,PM10,93,133,112
India,Chhattisgarh,Bhilai,"Civic Center, Bhilai - Bhilai Steel Plant",09-03-2024 14:00:00,21.185571,81.343175,PM10,NA,NA,NA
India,Chhattisgarh,Bilaspur,"Mangala, Bilaspur - NTPC",09-03-2024 14:00:00,22.08815,82.13737,PM10,17,64,41
India,Chhattisgarh,Bilaspur,"Mangala, Bilaspur - NTPC",09-03-2024 14:00:00,22.08815,82.13737,NO2,17,22,18
India,Chhattisgarh,Chhal,"Nawapara SECL Colony, Chhal - CECB",09-03-2024 14:00:00,22.118125,83.140608,NO2,13,39,24
India,Chhattisgarh,Chhal,"Nawapara SECL Colony, Chhal - CECB",09-03-2024 14:00:00,22.118125,83.140608,SO2,NA,NA,NA
India,Chhattisgarh,Chhal,"Nawapara SECL Colony, Chhal - CECB",09-03-2024 14:00:00,22.118125,83.140608,OZONE,1,36,15
India,Chhattisgarh,Korba,"Urja Nagar, Korba - CECB",09-03-2024 14:00:00,22.348441,82.549611,PM2.5,10,58,24
India,Chhattisgarh,Korba,"Urja Nagar, Korba - CECB",09-03-2024 14:00:00,22.348441,82.549611,NO2,52,72,62
India,Chhattisgarh,Korba,"Urja Nagar, Korba - CECB",09-03-2024 14:00:00,22.348441,82.549611,SO2,2,10,4
India,Chhattisgarh,Kunjemura,"OP Jindal School, Kunjemura - CECB",09-03-2024 14:00:00,22.126650,83.483212,NH3,1,4,2
India,Chhattisgarh,Kunjemura,"OP Jindal School, Kunjemura - CECB",09-03-2024 14:00:00,22.126650,83.483212,CO,13,60,29
India,Chhattisgarh,Milupara,"Govt. Higher Secondary School, Milupara - CECB",09-03-2024 14:00:00,22.1910172,83.5197009,NO2,NA,NA,NA
India,Chhattisgarh,Milupara,"Govt. Higher Secondary School, Milupara - CECB",09-03-2024 14:00:00,22.1910172,83.5197009,NH3,NA,NA,NA
India,Chhattisgarh,Raipur,"Bhatagaon New ISBT, Raipur - CECB",09-03-2024 14:00:00,21.219665,81.630094,PM10,46,112,64
India,Chhattisgarh,Raipur,"Bhatagaon New ISBT, Raipur - CECB",09-03-2024 14:00:00,21.219665,81.630094,OZONE,3,6,3
India,Chhattisgarh,Raipur,"Krishak Nagar, Raipur - CECB",09-03-2024 14:00:00,21.237755,81.705301,NO2,NA,NA,NA
India,Chhattisgarh,Raipur,"Krishak Nagar, Raipur - CECB",09-03-2024 14:00:00,21.237755,81.705301,NH3,NA,NA,NA
India,Chhattisgarh,Tumidih,"OP Jindal Industrial Park, Tumidih - CECB",09-03-2024 14:00:00,22.06631475,83.33820077,PM2.5,13,294,46
India,Chhattisgarh,Tumidih,"OP Jindal Industrial Park, Tumidih - CECB",09-03-2024 14:00:00,22.06631475,83.33820077,OZONE,5,81,31
India,Delhi,Delhi,"Alipur, Delhi - DPCC",09-03-2024 14:00:00,28.815329,77.153010,OZONE,22,116,69
India,Delhi,Delhi,"Anand Vihar, Delhi - DPCC",09-03-2024 14:00:00,28.647622,77.3158090,PM2.5,63,313,138
India,Delhi,Delhi,"Ashok Vihar, Delhi - DPCC",09-03-2024 14:00:00,28.695381,77.181665,PM2.5,34,232,101
India,Delhi,Delhi,"Ashok Vihar, Delhi - DPCC",09-03-2024 14:00:00,28.695381,77.181665,PM10,95,170,131
India,Delhi,Delhi,"Aya Nagar, Delhi - IMD",09-03-2024 14:00:00,28.4706914,77.1099364,PM2.5,NA,NA,NA
India,Delhi,Delhi,"Aya Nagar, Delhi - IMD",09-03-2024 14:00:00,28.4706914,77.1099364,NO2,NA,NA,NA
India,Delhi,Delhi,"Bawana, Delhi - DPCC",09-03-2024 14:00:00,28.776200,77.051074,PM2.5,50,421,166
India,Delhi,Delhi,"Bawana, Delhi - DPCC",09-03-2024 14:00:00,28.776200,77.051074,NH3,5,7,6
India,Delhi,Delhi,"CRRI Mathura Road, Delhi - IMD",09-03-2024 14:00:00,28.5512005,77.2735737,PM2.5,NA,NA,NA
India,Delhi,Delhi,"CRRI Mathura Road, Delhi - IMD",09-03-2024 14:00:00,28.5512005,77.2735737,PM10,NA,NA,NA
India,Delhi,Delhi,"CRRI Mathura Road, Delhi - IMD",09-03-2024 14:00:00,28.5512005,77.2735737,CO,1,22,14
India,Delhi,Delhi,"Chandni Chowk, Delhi - IITM",09-03-2024 14:00:00,28.656756,77.227234,PM2.5,NA,NA,NA
India,Delhi,Delhi,"Chandni Chowk, Delhi - IITM",09-03-2024 14:00:00,28.656756,77.227234,PM10,NA,NA,NA
India,Delhi,Delhi,"Chandni Chowk, Delhi - IITM",09-03-2024 14:00:00,28.656756,77.227234,SO2,5,34,17
India,Delhi,Delhi,"Chandni Chowk, Delhi - IITM",09-03-2024 14:00:00,28.656756,77.227234,CO,136,150,144
India,Delhi,Delhi,"DTU, Delhi - CPCB",09-03-2024 14:00:00,28.7500499,77.1112615,PM10,78,187,124
India,Delhi,Delhi,"DTU, Delhi - CPCB",09-03-2024 14:00:00,28.7500499,77.1112615,NH3,9,11,10
India,Delhi,Delhi,"DTU, Delhi - CPCB",09-03-2024 14:00:00,28.7500499,77.1112615,OZONE,28,60,34
India,Delhi,Delhi,"Dr. Karni Singh Shooting Range, Delhi - DPCC",09-03-2024 14:00:00,28.498571,77.264840,SO2,1,20,6
India,Delhi,Delhi,"Dr. Karni Singh Shooting Range, Delhi - DPCC",09-03-2024 14:00:00,28.498571,77.264840,CO,18,70,39
India,Delhi,Delhi,"IHBAS, Dilshad Garden, Delhi - CPCB",09-03-2024 14:00:00,28.6811736,77.3025234,OZONE,18,33,25
India,Delhi,Delhi,"Jahangirpuri, Delhi - DPCC",09-03-2024 14:00:00,28.732820,77.170633,PM2.5,42,337,179
India,Delhi,Delhi,"Jahangirpuri, Delhi - DPCC",09-03-2024 14:00:00,28.732820,77.170633,PM10,105,257,172
India,Delhi,Delhi,"Jawaharlal Nehru Stadium, Delhi - DPCC",09-03-2024 14:00:00,28.580280,77.233829,PM2.5,29,159,73
India,Delhi,Delhi,"Jawaharlal Nehru Stadium, Delhi - DPCC",09-03-2024 14:00:00,28.580280,77.233829,NO2,26,125,64
India,Delhi,Delhi,"Jawaharlal Nehru Stadium, Delhi - DPCC",09-03-2024 14:00:00,28.580280,77.233829,CO,26,61,40
India,Delhi,Delhi,"Lodhi Road, Delhi - IMD",09-03-2024 14:00:00,28.5918245,77.2273074,PM10,NA,NA,NA
India,Delhi,Delhi,"Lodhi Road, Delhi - IMD",09-03-2024 14:00:00,28.5918245,77.2273074,OZONE,11,82,45
India,Delhi,Delhi,"Major Dhyan Chand National Stadium, Delhi - DPCC",09-03-2024 14:00:00,28.611281,77.237738,PM10,70,139,100
India,Delhi,Delhi,"Major Dhyan Chand National Stadium, Delhi - DPCC",09-03-2024 14:00:00,28.611281,77.237738,CO,76,102,87
India,Delhi,Delhi,"Mandir Marg, Delhi - DPCC",09-03-2024 14:00:00,28.636429,77.201067,PM2.5,47,175,100
India,Delhi,Delhi,"Mandir Marg, Delhi - DPCC",09-03-2024 14:00:00,28.636429,77.201067,NO2,89,148,138
India,Delhi,Delhi,"Mundka, Delhi - DPCC",09-03-2024 14:00:00,28.684678,77.076574,NH3,5,7,6
India,Delhi,Delhi,"Mundka, Delhi - DPCC",09-03-2024 14:00:00,28.684678,77.076574,OZONE,56,60,58
India,Delhi,Delhi,"NSIT Dwarka, Delhi - CPCB",09-03-2024 14:00:00,28.60909,77.0325413,NO2,40,58,49
India,Delhi,Delhi,"NSIT Dwarka, Delhi - CPCB",09-03-2024 14:00:00,28.60909,77.0325413,SO2,17,22,19
India,Delhi,Delhi,"NSIT Dwarka, Delhi - CPCB",09-03-2024 14:00:00,28.60909,77.0325413,OZONE,12,91,43
India,Delhi,Delhi,"Najafgarh, Delhi - DPCC",09-03-2024 14:00:00,28.570173,76.933762,PM2.5,30,340,168
India,Delhi,Delhi,"Najafgarh, Delhi - DPCC",09-03-2024 14:00:00,28.570173,76.933762,OZONE,8,150,71
India,Delhi,Delhi,"Narela, Delhi - DPCC",09-03-2024 14:00:00,28.822836,77.101981,NH3,6,7,6
India,Delhi,Delhi,"New Moti Bagh, Delhi - MHUA",09-03-2024 14:00:00,28.57834,77.18400,CO,16,44,29
India,Delhi,Delhi,"North Campus, DU, Delhi - IMD",09-03-2024 14:00:00,28.6573814,77.1585447,CO,2,46,8
India,Delhi,Delhi,"Patparganj, Delhi - DPCC",09-03-2024 14:00:00,28.623763,77.287209,PM10,101,170,129
India,Delhi,Delhi,"Patparganj, Delhi - DPCC",09-03-2024 14:00:00,28.623763,77.287209,NO2,29,60,45
India,Delhi,Delhi,"Patparganj, Delhi - DPCC",09-03-2024 14:00:00,28.623763,77.287209,CO,14,51,23
India,Delhi,Delhi,"Punjabi Bagh, Delhi - DPCC",09-03-2024 14:00:00,28.674045,77.131023,PM10,82,152,119
India,Delhi,Delhi,"Punjabi Bagh, Delhi - DPCC",09-03-2024 14:00:00,28.674045,77.131023,CO,28,55,46
India,Delhi,Delhi,"Pusa, Delhi - DPCC",09-03-2024 14:00:00,28.639652,77.146275,PM10,116,211,156
India,Delhi,Delhi,"Pusa, Delhi - IMD",09-03-2024 14:00:00,28.636110,77.173332,PM2.5,NA,NA,NA
India,Delhi,Delhi,"Rohini, Delhi - DPCC",09-03-2024 14:00:00,28.732528,77.119920,SO2,6,37,13
India,Delhi,Delhi,"Rohini, Delhi - DPCC",09-03-2024 14:00:00,28.732528,77.119920,CO,10,36,25
India,Delhi,Delhi,"Shadipur, Delhi - CPCB",09-03-2024 14:00:00,28.6514781,77.1473105,SO2,14,19,17
India,Delhi,Delhi,"Shadipur, Delhi - CPCB",09-03-2024 14:00:00,28.6514781,77.1473105,CO,32,99,44
India,Delhi,Delhi,"Shadipur, Delhi - CPCB",09-03-2024 14:00:00,28.6514781,77.1473105,OZONE,19,32,25
India,Delhi,Delhi,"Sirifort, Delhi - CPCB",09-03-2024 14:00:00,28.5504249,77.2159377,OZONE,14,77,33
India,Delhi,Delhi,"Vivek Vihar, Delhi - DPCC",09-03-2024 14:00:00,28.672342,77.315260,CO,12,42,25
India,Delhi,Delhi,"Wazirpur, Delhi - DPCC",09-03-2024 14:00:00,28.699793,77.165453,PM2.5,42,290,121
India,Delhi,Delhi,"Wazirpur, Delhi - DPCC",09-03-2024 14:00:00,28.699793,77.165453,OZONE,20,60,37
India,Gujarat,Ahmedabad,"Chandkheda, Ahmedabad - IITM",09-03-2024 14:00:00,23.107969,72.574648,OZONE,16,60,35
India,Gujarat,Ahmedabad,"Gyaspur, Ahmedabad - IITM",09-03-2024 14:00:00,22.977134,72.553024,SO2,3,6,4
India,Gujarat,Ahmedabad,"Raikhad, Ahmedabad - IITM",09-03-2024 14:00:00,23.020509,72.579261,PM2.5,28,500,162
India,Gujarat,Ahmedabad,"Raikhad, Ahmedabad - IITM",09-03-2024 14:00:00,23.020509,72.579261,PM10,24,500,114
India,Gujarat,Ahmedabad,"Raikhad, Ahmedabad - IITM",09-03-2024 14:00:00,23.020509,72.579261,SO2,4,15,6
India,Gujarat,Ahmedabad,"Raikhad, Ahmedabad - IITM",09-03-2024 14:00:00,23.020509,72.579261,CO,6,30,20
India,Gujarat,Ahmedabad,"SAC ISRO Satellite, Ahmedabad - IITM",09-03-2024 14:00:00,23.023389,72.515201,PM10,99,122,104
India,Gujarat,Ahmedabad,"SVPI Airport Hansol, Ahmedabad - IITM",09-03-2024 14:00:00,23.076793,72.627874,SO2,7,13,8
India,Gujarat,Ahmedabad,"SVPI Airport Hansol, Ahmedabad - IITM",09-03-2024 14:00:00,23.076793,72.627874,CO,22,73,41
India,Gujarat,Ahmedabad,"SVPI Airport Hansol, Ahmedabad - IITM",09-03-2024 14:00:00,23.076793,72.627874,OZONE,14,52,30
India,Gujarat,Ahmedabad,"Sardar Vallabhbhai Patel Stadium, Ahmedabad - IITM",09-03-2024 14:00:00,23.043070,72.562968,NO2,1,2,1
India,Gujarat,Ahmedabad,"Sardar Vallabhbhai Patel Stadium, Ahmedabad - IITM",09-03-2024 14:00:00,23.043070,72.562968,CO,28,38,33
India,Gujarat,Gandhinagar,"GIFT City, Gandhinagar - IITM",09-03-2024 14:00:00,23.163798,72.677768,PM10,62,99,72
India,Gujarat,Gandhinagar,"Sector-10, Gandhinagar - GPCB",09-03-2024 14:00:00,23.221714,72.654328,PM2.5,13,58,35
India,Gujarat,Gandhinagar,"Sector-10, Gandhinagar - GPCB",09-03-2024 14:00:00,23.221714,72.654328,NH3,1,1,1
India,Gujarat,Vapi,"Phase-1 GIDC, Vapi - GPCB",09-03-2024 14:00:00,20.362421,72.918013,PM2.5,22,253,82
India,Gujarat,Vapi,"Phase-1 GIDC, Vapi - GPCB",09-03-2024 14:00:00,20.362421,72.918013,SO2,47,48,47
India,Gujarat,Vatva,"Phase-4 GIDC, Vatva - GPCB",09-03-2024 14:00:00,22.969611,72.643500,NH3,1,2,2
India,Gujarat,Vatva,"Phase-4 GIDC, Vatva - GPCB",09-03-2024 14:00:00,22.969611,72.643500,SO2,1,27,10
India,Haryana,Ambala,"Patti Mehar, Ambala - HSPCB",09-03-2024 14:00:00,30.379589,76.778328,PM10,38,93,60
India,Haryana,Ambala,"Patti Mehar, Ambala - HSPCB",09-03-2024 14:00:00,30.379589,76.778328,OZONE,29,48,38
India,Haryana,Bahadurgarh,"Arya Nagar, Bahadurgarh - HSPCB",09-03-2024 14:00:00,28.6701,76.9254,PM10,60,117,98
India,Haryana,Bahadurgarh,"Arya Nagar, Bahadurgarh - HSPCB",09-03-2024 14:00:00,28.6701,76.9254,NH3,10,13,11
India,Haryana,Bahadurgarh,"Arya Nagar, Bahadurgarh - HSPCB",09-03-2024 14:00:00,28.6701,76.9254,SO2,12,14,13
India,Haryana,Ballabgarh,"Nathu Colony, Ballabgarh - HSPCB",09-03-2024 14:00:00,28.3419248,77.319699,NH3,1,2,2
India,Haryana,Dharuhera,"Municipal Corporation Office, Dharuhera -  HSPCB",09-03-2024 14:00:00,28.206800,76.799700,SO2,28,57,42
India,Haryana,Dharuhera,"Municipal Corporation Office, Dharuhera -  HSPCB",09-03-2024 14:00:00,28.206800,76.799700,OZONE,10,73,36
India,Haryana,Faridabad,"New Industrial Town, Faridabad - HSPCB",09-03-2024 14:00:00,28.39072,77.30059,PM10,114,199,139
India,Haryana,Faridabad,"New Industrial Town, Faridabad - HSPCB",09-03-2024 14:00:00,28.39072,77.30059,NH3,3,4,4
India,Haryana,Faridabad,"New Industrial Town, Faridabad - HSPCB",09-03-2024 14:00:00,28.39072,77.30059,CO,12,34,18
India,Haryana,Faridabad,"Sector 11, Faridabad - HSPCB",09-03-2024 14:00:00,28.376058,77.315741,CO,13,29,21
India,Haryana,Faridabad,"Sector 30, Faridabad - HSPCB",09-03-2024 14:00:00,28.4417,77.3217,NO2,29,33,31
India,Haryana,Gurugram,"Sector-51, Gurugram - HSPCB",09-03-2024 14:00:00,28.4227,77.0667,PM2.5,91,307,188
India,Haryana,Gurugram,"Sector-51, Gurugram - HSPCB",09-03-2024 14:00:00,28.4227,77.0667,NO2,13,29,23
India,Haryana,Gurugram,"Sector-51, Gurugram - HSPCB",09-03-2024 14:00:00,28.4227,77.0667,SO2,3,4,3
India,Haryana,Gurugram,"Sector-51, Gurugram - HSPCB",09-03-2024 14:00:00,28.4227,77.0667,OZONE,27,67,47
India,Haryana,Gurugram,"Teri Gram, Gurugram - HSPCB",09-03-2024 14:00:00,28.4275,77.1465,SO2,3,5,4
India,Haryana,Gurugram,"Vikas Sadan, Gurugram - HSPCB",09-03-2024 14:00:00,28.4501238,77.0263051,PM2.5,56,161,81
India,Haryana,Gurugram,"Vikas Sadan, Gurugram - HSPCB",09-03-2024 14:00:00,28.4501238,77.0263051,CO,54,140,100
India,Haryana,Gurugram,"Vikas Sadan, Gurugram - HSPCB",09-03-2024 14:00:00,28.4501238,77.0263051,OZONE,7,68,27
India,Haryana,Karnal,"Sector-12, Karnal - HSPCB",09-03-2024 14:00:00,29.695300,77.002700,SO2,12,13,12
India,Haryana,Kurukshetra,"Sector-7, Kurukshetra - HSPCB",09-03-2024 14:00:00,29.966942,76.875879,NH3,5,5,5
India,Haryana,Kurukshetra,"Sector-7, Kurukshetra - HSPCB",09-03-2024 14:00:00,29.966942,76.875879,SO2,2,74,24
India,Haryana,Kurukshetra,"Sector-7, Kurukshetra - HSPCB",09-03-2024 14:00:00,29.966942,76.875879,OZONE,38,75,38
India,Haryana,Mandikhera,"General Hospital, Mandikhera - HSPCB",09-03-2024 14:00:00,27.9002,76.9938,NH3,18,22,19
India,Haryana,Mandikhera,"General Hospital, Mandikhera - HSPCB",09-03-2024 14:00:00,27.9002,76.9938,CO,14,27,25
India,Haryana,Mandikhera,"General Hospital, Mandikhera - HSPCB",09-03-2024 14:00:00,27.9002,76.9938,OZONE,23,33,28
India,Haryana,Narnaul,"Shastri Nagar, Narnaul - HSPCB",09-03-2024 14:00:00,28.060249,76.113115,SO2,13,30,15
India,Haryana,Palwal,"Shyam Nagar, Palwal - HSPCB",09-03-2024 14:00:00,28.1485564,77.3320667,PM10,79,126,110
India,Haryana,Palwal,"Shyam Nagar, Palwal - HSPCB",09-03-2024 14:00:00,28.1485564,77.3320667,NH3,8,9,9
India,Haryana,Palwal,"Shyam Nagar, Palwal - HSPCB",09-03-2024 14:00:00,28.1485564,77.3320667,CO,24,34,29
India,Haryana,Panchkula,"Sector-6, Panchkula - HSPCB ",09-03-2024 14:00:00,30.7057778,76.8531805555555,SO2,11,12,12
India,Haryana,Panchkula,"Sector-6, Panchkula - HSPCB ",09-03-2024 14:00:00,30.7057778,76.8531805555555,CO,3,12,8
India,Haryana,Panipat,"Sector-18, Panipat - HSPCB",09-03-2024 14:00:00,29.497973,76.993331,NO2,31,32,31
India,Haryana,Panipat,"Sector-18, Panipat - HSPCB",09-03-2024 14:00:00,29.497973,76.993331,NH3,2,3,3
India,Haryana,Rohtak,"MD University, Rohtak - HSPCB",09-03-2024 14:00:00,28.52123,76.37138,SO2,5,8,7
India,Haryana,Sirsa,"F-Block, Sirsa - HSPCB",09-03-2024 14:00:00,29.536400,75.015800,PM10,28,68,44
India,Haryana,Sirsa,"F-Block, Sirsa - HSPCB",09-03-2024 14:00:00,29.536400,75.015800,CO,36,72,51
India,Haryana,Yamuna Nagar,"Gobind Pura, Yamuna Nagar - HSPCB",09-03-2024 14:00:00,30.1480566,77.2893471,PM10,64,102,79
India,Haryana,Yamuna Nagar,"Gobind Pura, Yamuna Nagar - HSPCB",09-03-2024 14:00:00,30.1480566,77.2893471,OZONE,24,37,27
India,Himachal Pradesh,Baddi,"HIMUDA Complex Phase-1, Baddi - HPPCB",09-03-2024 14:00:00,30.943887,76.801991,NO2,9,43,23
India,Jharkhand,Dhanbad,"Kalakusuma, Dhanbad - DMC",09-03-2024 14:00:00,23.811548,86.481238,SO2,NA,NA,NA
India,Jharkhand,Dhanbad,"Kalakusuma, Dhanbad - DMC",09-03-2024 14:00:00,23.811548,86.481238,OZONE,NA,NA,NA
India,Jharkhand,Pathardih,"Mohalbani Ghat, Pathardih - DMC",09-03-2024 14:00:00,23.669880,86.411725,PM2.5,7,261,62
India,Jharkhand,Pathardih,"Mohalbani Ghat, Pathardih - DMC",09-03-2024 14:00:00,23.669880,86.411725,NO2,14,165,90
India,Jharkhand,Pathardih,"Mohalbani Ghat, Pathardih - DMC",09-03-2024 14:00:00,23.669880,86.411725,SO2,14,132,51
India,Karnataka,Bagalkot,"Vidayagiri, Bagalkot - KSPCB",09-03-2024 14:00:00,16.172806,75.659694,PM10,45,46,46
India,Karnataka,Belgaum,"Ramteerth Nagar, Belgaum - KSPCB",09-03-2024 14:00:00,15.888653,74.541751,NO2,28,31,29
India,Karnataka,Belgaum,"Ramteerth Nagar, Belgaum - KSPCB",09-03-2024 14:00:00,15.888653,74.541751,NH3,33,34,34
India,Karnataka,Belgaum,"Ramteerth Nagar, Belgaum - KSPCB",09-03-2024 14:00:00,15.888653,74.541751,SO2,8,8,8
India,Karnataka,Bengaluru,"BTM Layout, Bengaluru - CPCB",09-03-2024 14:00:00,12.9135218,77.5950804,CO,43,45,44
India,Karnataka,Bengaluru,"Bapuji Nagar, Bengaluru - KSPCB",09-03-2024 14:00:00,12.951913,77.539784,SO2,6,9,7
India,Karnataka,Bengaluru,"Hebbal, Bengaluru - KSPCB",09-03-2024 14:00:00,13.029152,77.585901,SO2,NA,NA,NA
India,Karnataka,Bengaluru,"Hombegowda Nagar, Bengaluru - KSPCB",09-03-2024 14:00:00,12.938539,77.590100,PM2.5,45,195,76
India,Karnataka,Bengaluru,"Hombegowda Nagar, Bengaluru - KSPCB",09-03-2024 14:00:00,12.938539,77.590100,NO2,31,44,36
India,Karnataka,Bengaluru,"Hombegowda Nagar, Bengaluru - KSPCB",09-03-2024 14:00:00,12.938539,77.590100,OZONE,4,5,4
India,Karnataka,Bengaluru,"Jayanagar 5th Block, Bengaluru - KSPCB",09-03-2024 14:00:00,12.920984,77.584908,PM2.5,61,161,88
India,Karnataka,Bengaluru,"Jayanagar 5th Block, Bengaluru - KSPCB",09-03-2024 14:00:00,12.920984,77.584908,SO2,15,22,18
India,Karnataka,Bengaluru,"Kasturi Nagar, Bengaluru - KSPCB",09-03-2024 14:00:00,13.003872,77.664217,NH3,3,4,4
India,Karnataka,Bengaluru,"Peenya, Bengaluru - CPCB",09-03-2024 14:00:00,13.0270199,77.494094,CO,16,70,33
India,Karnataka,Bengaluru,"RVCE-Mailasandra, Bengaluru - KSPCB",09-03-2024 14:00:00,12.921418,77.502466,SO2,10,14,12
India,Karnataka,Bengaluru,"RVCE-Mailasandra, Bengaluru - KSPCB",09-03-2024 14:00:00,12.921418,77.502466,OZONE,21,21,21
India,Karnataka,Bidar,"Naubad, Bidar - KSPCB",09-03-2024 14:00:00,17.930306,77.482194,CO,41,76,60
India,Karnataka,Chamarajanagar,"Urban, Chamarajanagar - KSPCB",09-03-2024 14:00:00,11.55358,76.55521,PM2.5,26,43,33
India,Karnataka,Chamarajanagar,"Urban, Chamarajanagar - KSPCB",09-03-2024 14:00:00,11.55358,76.55521,OZONE,25,46,26
India,Karnataka,Chikkamagaluru,"Kalyana Nagara, Chikkamagaluru - KSPCB",09-03-2024 14:00:00,13.328028,75.797056,PM10,NA,NA,NA
India,Karnataka,Davanagere,"Devaraj Urs Badavane, Davanagere - KSPCB",09-03-2024 14:00:00,14.475800,75.905200,PM2.5,40,85,53
India,Karnataka,Davanagere,"Devaraj Urs Badavane, Davanagere - KSPCB",09-03-2024 14:00:00,14.475800,75.905200,OZONE,22,26,22
India,Karnataka,Dharwad,"Kalabhavan, Dharwad - KSPCB",09-03-2024 14:00:00,15.459706,75.008381,NH3,2,2,2
India,Karnataka,Gadag,"Panchal Nagar, Gadag - KSPCB",09-03-2024 14:00:00,15.411456,75.638133,NH3,1,3,2
India,Karnataka,Hassan,"B.Katihalli, Hassan - KSPCB",09-03-2024 14:00:00,13.008556,76.125258,PM10,NA,NA,NA
India,Karnataka,Hubballi,"Deshpande Nagar, Hubballi - KSPCB",09-03-2024 14:00:00,15.351773,75.140726,PM2.5,NA,NA,NA
India,Karnataka,Hubballi,"Lingaraj Nagar, Hubballi - KSPCB",09-03-2024 14:00:00,15.3714823,75.1160168,NH3,2,2,2
India,Karnataka,Kalaburagi,"Lal Bahadur Shastri Nagar, Kalaburagi - KSPCB",09-03-2024 14:00:00,17.321993,76.822628,NH3,2,2,2
India,Karnataka,Kalaburagi,"Mahatma Basaveswar Colony, Kalaburgi - KSPCB",09-03-2024 14:00:00,17.336318,76.847397,PM2.5,37,71,47
India,Karnataka,Karwar,"KHB Colony, Karwar - KSPCB",09-03-2024 14:00:00,14.816666,74.141003,OZONE,21,22,21
India,Karnataka,Koppal,"Diwator Nagar, Koppal - KSPCB",09-03-2024 14:00:00,15.347630,76.181767,NH3,3,6,5
India,Karnataka,Madikeri,"Stuart Hill, Madikeri - KSPCB",09-03-2024 14:00:00,12.415911,75.735050,NO2,2,8,4
India,Karnataka,Mangalore,"Kadri, Mangalore - KSPCB",09-03-2024 14:00:00,12.889250,74.853000,NH3,2,2,2
India,Karnataka,Mysuru,"Hebbal 1st Stage, Mysuru - KSPCB",09-03-2024 14:00:00,12.21041,76.37376,PM2.5,32,73,52
India,Karnataka,Mysuru,"Hebbal 1st Stage, Mysuru - KSPCB",09-03-2024 14:00:00,12.21041,76.37376,PM10,59,96,73
India,Karnataka,Mysuru,"Hebbal 1st Stage, Mysuru - KSPCB",09-03-2024 14:00:00,12.21041,76.37376,NH3,1,3,2
India,Karnataka,Raichur,"Haji Colony, Raichur - KSPCB",09-03-2024 14:00:00,16.208139,77.348417,NH3,1,3,2
India,Karnataka,Shivamogga,"Vinoba Nagara, Shivamogga - KSPCB",09-03-2024 14:00:00,13.940000,75.555917,NH3,2,4,3
India,Karnataka,Shivamogga,"Vinoba Nagara, Shivamogga - KSPCB",09-03-2024 14:00:00,13.940000,75.555917,CO,18,48,38
India,Karnataka,Vijayapura,"Ibrahimpur, Vijayapura - KSPCB",09-03-2024 14:00:00,16.802639,75.722694,PM10,38,40,39
India,Karnataka,Vijayapura,"Ibrahimpur, Vijayapura - KSPCB",09-03-2024 14:00:00,16.802639,75.722694,OZONE,13,16,15
India,Kerala,Eloor,"Udyogamandal, Eloor - Kerala PCB",09-03-2024 14:00:00,10.073232,76.302765,PM2.5,27,38,33
India,Kerala,Eloor,"Udyogamandal, Eloor - Kerala PCB",09-03-2024 14:00:00,10.073232,76.302765,NH3,1,1,1
India,Kerala,Eloor,"Udyogamandal, Eloor - Kerala PCB",09-03-2024 14:00:00,10.073232,76.302765,SO2,1,9,2
India,Kerala,Eloor,"Udyogamandal, Eloor - Kerala PCB",09-03-2024 14:00:00,10.073232,76.302765,CO,13,141,83
India,Kerala,Eloor,"Udyogamandal, Eloor - Kerala PCB",09-03-2024 14:00:00,10.073232,76.302765,OZONE,10,15,12
India,Kerala,Kannur,"Thavakkara, Kannur - Kerala PCB",09-03-2024 14:00:00,11.875000,75.373200,SO2,5,7,6
India,Kerala,Kannur,"Thavakkara, Kannur - Kerala PCB",09-03-2024 14:00:00,11.875000,75.373200,CO,28,35,33
India,Kerala,Kollam,"Polayathode, Kollam - Kerala PCB",09-03-2024 14:00:00,8.8787,76.6073,SO2,1,20,3
