country,state,city,station,last_update,latitude,longitude,pollutant_id,pollutant_min,pollutant_max,pollutant_avg
India,Andhra_Pradesh,Amaravati,"Secretariat, Amaravati - APPCB",20-07-2024 01:00:00,16.5150833,80.5181667,PM10,7,23,12
India,Andhra_Pradesh,Anantapur,"Gulzarpet, Anantapur - APPCB",20-07-2024 01:00:00,14.675886,77.593027,PM2.5,30,53,38
India,Andhra_Pradesh,Anantapur,"Gulzarpet, Anantapur - APPCB",20-07-2024 01:00:00,14.675886,77.593027,PM10,55,69,62
India,Andhra_Pradesh,Chittoor,"Gangineni Cheruvu, Chittoor - APPCB",20-07-2024 01:00:00,13.204880,79.097889,CO,NA,NA,NA
India,Andhra_Pradesh,Rajamahendravaram,"Anand Kala Kshetram, Rajamahendravaram - APPCB",20-07-2024 01:00:00,16.9872867,81.7363176,NH3,1,4,2
India,Andhra_Pradesh,Rajamahendravaram,"Anand Kala Kshetram, Rajamahendravaram - APPCB",20-07-2024 01:00:00,16.9872867,81.7363176,SO2,11,12,11
India,Andhra_Pradesh,Tirupati,"Tirumala, Tirupati - APPCB",20-07-2024 01:00:00,13.67,79.35,NH3,NA,NA,NA
India,Andhra_Pradesh,Tirupati,"Vaikuntapuram, Tirupati - APPCB",20-07-2024 01:00:00,13.615387,79.409230,CO,NA,NA,NA
India,Andhra_Pradesh,Vijayawada,"HB Colony, Vijayawada - APPCB",20-07-2024 01:00:00,16.536107,80.594233,NO2,6,13,8
India,Andhra_Pradesh,Vijayawada,"HB Colony, Vijayawada - APPCB",20-07-2024 01:00:00,16.536107,80.594233,SO2,5,7,6
India,Andhra_Pradesh,Vijayawada,"Rajiv Gandhi Park, Vijayawada - APPCB",20-07-2024 01:00:00,16.509717,80.612222,OZONE,22,26,22
India,Andhra_Pradesh,Visakhapatnam,"GVM Corporation, Visakhapatnam - APPCB",20-07-2024 01:00:00,17.72,83.3,NO2,36,44,40
India,Arunachal_Pradesh,Naharlagun,"Naharlagun, Naharlagun - APSPCB",20-07-2024 01:00:00,27.103358,93.679645,PM10,12,107,47
India,Arunachal_Pradesh,Naharlagun,"Naharlagun, Naharlagun - APSPCB",20-07-2024 01:00:00,27.103358,93.679645,SO2,4,4,4
India,Assam,Byrnihat,"Central Academy for SFS, Byrnihat - PCBA",20-07-2024 01:00:00,26.071318,91.87488,PM10,7,435,140
India,Assam,Byrnihat,"Central Academy for SFS, Byrnihat - PCBA",20-07-2024 01:00:00,26.071318,91.87488,NH3,11,20,15
India,Assam,Guwahati,"IITG, Guwahati - PCBA",20-07-2024 01:00:00,26.2028636,91.70046436,PM10,24,48,34
India,Assam,Guwahati,"LGBI Airport, Guwahati - PCBA",20-07-2024 01:00:00,26.10887,91.589544,NH3,1,8,3
India,Assam,Guwahati,"Railway Colony, Guwahati - PCBA",20-07-2024 01:00:00,26.181742,91.78063,NO2,3,3,3
India,Assam,Guwahati,"Railway Colony, Guwahati - PCBA",20-07-2024 01:00:00,26.181742,91.78063,CO,18,42,30
India,Assam,Nagaon,"Christianpatty, Nagaon - PCBA",20-07-2024 01:00:00,26.349082,92.68449,SO2,9,10,10
India,Assam,Nagaon,"Christianpatty, Nagaon - PCBA",20-07-2024 01:00:00,26.349082,92.68449,CO,21,67,50
India,Assam,Nalbari,"Bata Chowk, Nalbari - PCBA",20-07-2024 01:00:00,26.446912,91.439057,NO2,10,24,16
India,Assam,Nalbari,"Bata Chowk, Nalbari - PCBA",20-07-2024 01:00:00,26.446912,91.439057,SO2,3,36,8
India,Assam,Silchar,"Tarapur, Silchar - PCBA",20-07-2024 01:00:00,24.82827,92.79525,PM2.5,30,41,37
India,Assam,Silchar,"Tarapur, Silchar - PCBA",20-07-2024 01:00:00,24.82827,92.79525,PM10,45,61,50
India,Assam,Silchar,"Tarapur, Silchar - PCBA",20-07-2024 01:00:00,24.82827,92.79525,NO2,9,14,12
India,Assam,Silchar,"Tarapur, Silchar - PCBA",20-07-2024 01:00:00,24.82827,92.79525,NH3,1,1,1
India,Assam,Silchar,"Tarapur, Silchar - PCBA",20-07-2024 01:00:00,24.82827,92.79525,OZONE,1,9,3
India,Assam,Sivasagar,"Girls College, Sivasagar - PCBA",20-07-2024 01:00:00,26.987634,94.636574,SO2,5,10,8
India,Assam,Sivasagar,"Girls College, Sivasagar - PCBA",20-07-2024 01:00:00,26.987634,94.636574,CO,21,26,23
India,Bihar,Araria,"Kharahiya Basti, Araria - BSPCB",20-07-2024 01:00:00,26.146529,87.454184,PM2.5,NA,NA,NA
India,Bihar,Araria,"Kharahiya Basti, Araria - BSPCB",20-07-2024 01:00:00,26.146529,87.454184,NO2,4,20,7
India,Bihar,Araria,"Kharahiya Basti, Araria - BSPCB",20-07-2024 01:00:00,26.146529,87.454184,NH3,5,6,5
India,Bihar,Arrah,"New DM Office, Arrah - BSPCB",20-07-2024 01:00:00,25.5626095,84.663264,PM2.5,8,75,41
India,Bihar,Aurangabad,"Gurdeo Nagar, Aurangabad - BSPCB",20-07-2024 01:00:00,24.75746,84.366208,CO,27,32,29
India,Bihar,Bettiah,"Kamalnath Nagar, Bettiah - BSPCB",20-07-2024 01:00:00,26.80365,84.51954,PM10,NA,NA,NA
India,Bihar,Bettiah,"Kamalnath Nagar, Bettiah - BSPCB",20-07-2024 01:00:00,26.80365,84.51954,NH3,13,21,17
India,Bihar,Bettiah,"Kamalnath Nagar, Bettiah - BSPCB",20-07-2024 01:00:00,26.80365,84.51954,OZONE,2,10,5
India,Bihar,Bihar Sharif,"D M Colony, Bihar Sharif - BSPCB",20-07-2024 01:00:00,25.204762,85.514960,NH3,16,31,24
India,Bihar,Bihar Sharif,"D M Colony, Bihar Sharif - BSPCB",20-07-2024 01:00:00,25.204762,85.514960,SO2,2,4,3
India,Bihar,Chhapra,"Darshan Nagar, Chhapra - BSPCB",20-07-2024 01:00:00,25.7808257,84.7446768,NO2,NA,NA,NA
India,Bihar,Chhapra,"Darshan Nagar, Chhapra - BSPCB",20-07-2024 01:00:00,25.7808257,84.7446768,CO,18,67,55
India,Bihar,Gaya,"Collectorate, Gaya - BSPCB",20-07-2024 01:00:00,24.7955,84.9994,NO2,6,8,6
India,Bihar,Gaya,"Kareemganj, Gaya - BSPCB",20-07-2024 01:00:00,24.792403,84.992416,CO,23,56,47
India,Bihar,Gaya,"SFTI Kusdihra, Gaya - BSPCB",20-07-2024 01:00:00,24.762518,84.982348,PM10,35,56,47
India,Bihar,Hajipur,"Industrial Area, Hajipur - BSPCB",20-07-2024 01:00:00,25.697189,85.245900,PM10,53,96,76
India,Bihar,Hajipur,"Industrial Area, Hajipur - BSPCB",20-07-2024 01:00:00,25.697189,85.245900,NO2,5,13,8
India,Bihar,Katihar,"Mirchaibari, Katihar - BSPCB",20-07-2024 01:00:00,25.560083,87.553265,OZONE,4,4,4
India,Bihar,Kishanganj,"SDM Office_Khagra, Kishanganj - BSPCB",20-07-2024 01:00:00,26.0881305,87.93840336,NO2,23,52,36
India,Bihar,Kishanganj,"SDM Office_Khagra, Kishanganj - BSPCB",20-07-2024 01:00:00,26.0881305,87.93840336,NH3,6,8,7
India,Bihar,Motihari,"Gandak Colony, Motihari - BSPCB",20-07-2024 01:00:00,26.63086,84.90051,CO,1,37,18
India,Bihar,Munger,"Town Hall, Munger - BSPCB",20-07-2024 01:00:00,25.376776,86.471523,PM10,NA,NA,NA
India,Bihar,Munger,"Town Hall, Munger - BSPCB",20-07-2024 01:00:00,25.376776,86.471523,OZONE,2,11,5
India,Bihar,Muzaffarpur,"MIT-Daudpur Kothi, Muzaffarpur - BSPCB",20-07-2024 01:00:00,26.1403345,85.3650192,PM10,NA,NA,NA
India,Bihar,Muzaffarpur,"MIT-Daudpur Kothi, Muzaffarpur - BSPCB",20-07-2024 01:00:00,26.1403345,85.3650192,NH3,2,5,3
India,Bihar,Muzaffarpur,"MIT-Daudpur Kothi, Muzaffarpur - BSPCB",20-07-2024 01:00:00,26.1403345,85.3650192,SO2,9,14,11
India,Bihar,Muzaffarpur,"Muzaffarpur Collectorate, Muzaffarpur - BSPCB",20-07-2024 01:00:00,26.1209,85.3647,PM2.5,31,83,46
India,Bihar,Muzaffarpur,"Muzaffarpur Collectorate, Muzaffarpur - BSPCB",20-07-2024 01:00:00,26.1209,85.3647,CO,28,78,34
India,Bihar,Patna,"DRM Office Danapur, Patna - BSPCB",20-07-2024 01:00:00,25.586562,85.043586,NO2,25,57,38
India,Bihar,Patna,"DRM Office Danapur, Patna - BSPCB",20-07-2024 01:00:00,25.586562,85.043586,NH3,2,3,3
India,Bihar,Patna,"Muradpur, Patna - BSPCB",20-07-2024 01:00:00,25.619651,85.147382,PM2.5,34,135,65
India,Bihar,Patna,"Muradpur, Patna - BSPCB",20-07-2024 01:00:00,25.619651,85.147382,PM10,109,143,122
India,Bihar,Patna,"Muradpur, Patna - BSPCB",20-07-2024 01:00:00,25.619651,85.147382,NO2,1,54,13
India,Bihar,Patna,"Muradpur, Patna - BSPCB",20-07-2024 01:00:00,25.619651,85.147382,OZONE,5,62,20
India,Bihar,Patna,"Rajbansi Nagar, Patna - BSPCB",20-07-2024 01:00:00,25.599486,85.113666,PM2.5,29,60,42
India,Bihar,Patna,"Samanpura, Patna - BSPCB",20-07-2024 01:00:00,25.596727,85.085624,OZONE,40,97,53
India,Bihar,Samastipur,"DM Office_Kasipur, Samastipur - BSPCB",20-07-2024 01:00:00,25.859655,85.77944,NH3,2,2,2
India,Bihar,Sasaram,"Dada Peer, Sasaram - BSPCB",20-07-2024 01:00:00,24.952822,84.002396,CO,27,41,35
India,Bihar,Siwan,"Chitragupta Nagar, Siwan - BSPCB",20-07-2024 01:00:00,26.2271665,84.3570427,OZONE,1,9,3
India,Chandigarh,Chandigarh,"Sector 22, Chandigarh - CPCC",20-07-2024 01:00:00,30.735567,76.775714,NH3,4,33,15
India,Chandigarh,Chandigarh,"Sector 22, Chandigarh - CPCC",20-07-2024 01:00:00,30.735567,76.775714,SO2,2,7,4
India,Chandigarh,Chandigarh,"Sector-25, Chandigarh - CPCC",20-07-2024 01:00:00,30.751462,76.762879,NO2,10,50,19
India,Chandigarh,Chandigarh,"Sector-25, Chandigarh - CPCC",20-07-2024 01:00:00,30.751462,76.762879,SO2,NA,NA,NA
India,Chhattisgarh,Bhilai,"Civic Center, Bhilai - Bhilai Steel Plant",20-07-2024 01:00:00,21.185571,81.343175,CO,35,58,47
India,Chhattisgarh,Bhilai,"Civic Center, Bhilai - Bhilai Steel Plant",20-07-2024 01:00:00,21.185571,81.343175,OZONE,9,26,17
India,Chhattisgarh,Bilaspur,"Mangala, Bilaspur - NTPC",20-07-2024 01:00:00,22.08815,82.13737,CO,44,50,47
India,Chhattisgarh,Chhal,"Nawapara SECL Colony, Chhal - CECB",20-07-2024 01:00:00,22.118125,83.140608,PM2.5,5,33,18
India,Chhattisgarh,Chhal,"Nawapara SECL Colony, Chhal - CECB",20-07-2024 01:00:00,22.118125,83.140608,PM10,7,38,25
India,Chhattisgarh,Chhal,"Nawapara SECL Colony, Chhal - CECB",20-07-2024 01:00:00,22.118125,83.140608,NO2,24,49,33
India,Chhattisgarh,Korba,"Rampur, Korba - CECB",20-07-2024 01:00:00,22.368195,82.746431,PM2.5,13,32,21
India,Chhattisgarh,Korba,"Urja Nagar, Korba - CECB",20-07-2024 01:00:00,22.348441,82.549611,PM10,3,314,73
India,Chhattisgarh,Korba,"Urja Nagar, Korba - CECB",20-07-2024 01:00:00,22.348441,82.549611,CO,4,43,16
India,Chhattisgarh,Kunjemura,"OP Jindal School, Kunjemura - CECB",20-07-2024 01:00:00,22.126650,83.483212,OZONE,6,14,9
India,Chhattisgarh,Raipur,"AIIMS, Raipur - CECB",20-07-2024 01:00:00,21.258815,81.578979,CO,21,36,24
India,Chhattisgarh,Raipur,"Bhatagaon New ISBT, Raipur - CECB",20-07-2024 01:00:00,21.219665,81.630094,NH3,2,2,2
India,Chhattisgarh,Raipur,"Siltara Phase-II, Raipur - CECB",20-07-2024 01:00:00,21.371751,81.664929,CO,10,14,10
India,Chhattisgarh,Tumidih,"OP Jindal Industrial Park, Tumidih - CECB",20-07-2024 01:00:00,22.06631475,83.33820077,NO2,NA,NA,NA
India,Chhattisgarh,Tumidih,"OP Jindal Industrial Park, Tumidih - CECB",20-07-2024 01:00:00,22.06631475,83.33820077,NH3,NA,NA,NA
India,Chhattisgarh,Tumidih,"OP Jindal Industrial Park, Tumidih - CECB",20-07-2024 01:00:00,22.06631475,83.33820077,CO,12,28,20
India,Delhi,Delhi,"Ashok Vihar, Delhi - DPCC",20-07-2024 01:00:00,28.695381,77.181665,PM2.5,85,213,145
India,Delhi,Delhi,"Ashok Vihar, Delhi - DPCC",20-07-2024 01:00:00,28.695381,77.181665,OZONE,1,90,42
India,Delhi,Delhi,"Aya Nagar, Delhi - IMD",20-07-2024 01:00:00,28.4706914,77.1099364,PM2.5,NA,NA,NA
India,Delhi,Delhi,"Burari Crossing, Delhi - IMD",20-07-2024 01:00:00,28.7256504,77.2011573,PM10,66,152,104
India,Delhi,Delhi,"CRRI Mathura Road, Delhi - IMD",20-07-2024 01:00:00,28.5512005,77.2735737,PM10,76,138,104
India,Delhi,Delhi,"Chandni Chowk, Delhi - IITM",20-07-2024 01:00:00,28.656756,77.227234,SO2,3,47,21
India,Delhi,Delhi,"DTU, Delhi - CPCB",20-07-2024 01:00:00,28.7500499,77.1112615,NH3,16,32,19
India,Delhi,Delhi,"Dwarka-Sector 8, Delhi - DPCC ",20-07-2024 01:00:00,28.5710274,77.0719006,NO2,15,42,26
India,Delhi,Delhi,"IGI Airport (T3), Delhi - IMD",20-07-2024 01:00:00,28.5627763,77.1180053,PM2.5,58,272,116
India,Delhi,Delhi,"IHBAS, Dilshad Garden, Delhi - CPCB",20-07-2024 01:00:00,28.6811736,77.3025234,NO2,7,39,26
India,Delhi,Delhi,"IHBAS, Dilshad Garden, Delhi - CPCB",20-07-2024 01:00:00,28.6811736,77.3025234,OZONE,10,22,17
India,Delhi,Delhi,"Jahangirpuri, Delhi - DPCC",20-07-2024 01:00:00,28.732820,77.170633,SO2,7,28,16
India,Delhi,Delhi,"Jahangirpuri, Delhi - DPCC",20-07-2024 01:00:00,28.732820,77.170633,CO,33,91,67
India,Delhi,Delhi,"Lodhi Road, Delhi - IMD",20-07-2024 01:00:00,28.5918245,77.2273074,NO2,1,7,5
India,Delhi,Delhi,"Major Dhyan Chand National Stadium, Delhi - DPCC",20-07-2024 01:00:00,28.611281,77.237738,SO2,4,11,7
India,Delhi,Delhi,"Major Dhyan Chand National Stadium, Delhi - DPCC",20-07-2024 01:00:00,28.611281,77.237738,OZONE,1,37,10
India,Delhi,Delhi,"Mandir Marg, Delhi - DPCC",20-07-2024 01:00:00,28.636429,77.201067,NH3,5,9,6
India,Delhi,Delhi,"Mundka, Delhi - DPCC",20-07-2024 01:00:00,28.684678,77.076574,CO,37,66,49
India,Delhi,Delhi,"Mundka, Delhi - DPCC",20-07-2024 01:00:00,28.684678,77.076574,OZONE,2,99,51
India,Delhi,Delhi,"NSIT Dwarka, Delhi - CPCB",20-07-2024 01:00:00,28.60909,77.0325413,SO2,1,22,14
India,Delhi,Delhi,"Narela, Delhi - DPCC",20-07-2024 01:00:00,28.822836,77.101981,SO2,4,7,5
India,Delhi,Delhi,"Nehru Nagar, Delhi - DPCC",20-07-2024 01:00:00,28.567890,77.250515,PM10,99,134,116
India,Delhi,Delhi,"Nehru Nagar, Delhi - DPCC",20-07-2024 01:00:00,28.567890,77.250515,SO2,1,19,7
India,Delhi,Delhi,"Nehru Nagar, Delhi - DPCC",20-07-2024 01:00:00,28.567890,77.250515,CO,61,81,69
India,Delhi,Delhi,"North Campus, DU, Delhi - IMD",20-07-2024 01:00:00,28.6573814,77.1585447,CO,40,71,43
India,Delhi,Delhi,"Okhla Phase-2, Delhi - DPCC",20-07-2024 01:00:00,28.530785,77.271255,CO,46,83,64
India,Delhi,Delhi,"Punjabi Bagh, Delhi - DPCC",20-07-2024 01:00:00,28.674045,77.131023,PM2.5,97,277,159
India,Delhi,Delhi,"Punjabi Bagh, Delhi - DPCC",20-07-2024 01:00:00,28.674045,77.131023,PM10,103,197,142
India,Delhi,Delhi,"Pusa, Delhi - DPCC",20-07-2024 01:00:00,28.639652,77.146275,OZONE,6,45,15
India,Delhi,Delhi,"R K Puram, Delhi - DPCC",20-07-2024 01:00:00,28.563262,77.186937,CO,20,75,35
India,Delhi,Delhi,"Rohini, Delhi - DPCC",20-07-2024 01:00:00,28.732528,77.119920,OZONE,6,21,11
India,Delhi,Delhi,"Shadipur, Delhi - CPCB",20-07-2024 01:00:00,28.6514781,77.1473105,PM2.5,51,85,70
India,Delhi,Delhi,"Shadipur, Delhi - CPCB",20-07-2024 01:00:00,28.6514781,77.1473105,SO2,2,29,14
India,Delhi,Delhi,"Sirifort, Delhi - CPCB",20-07-2024 01:00:00,28.5504249,77.2159377,NH3,17,22,19
India,Delhi,Delhi,"Sonia Vihar, Delhi - DPCC",20-07-2024 01:00:00,28.710508,77.249485,CO,2,66,19
India,Delhi,Delhi,"Sri Aurobindo Marg, Delhi - DPCC",20-07-2024 01:00:00,28.531346,77.190156,NH3,5,12,8
India,Delhi,Delhi,"Vivek Vihar, Delhi - DPCC",20-07-2024 01:00:00,28.672342,77.315260,PM10,96,160,131
India,Delhi,Delhi,"Vivek Vihar, Delhi - DPCC",20-07-2024 01:00:00,28.672342,77.315260,CO,55,103,63
India,Delhi,Delhi,"Wazirpur, Delhi - DPCC",20-07-2024 01:00:00,28.699793,77.165453,OZONE,2,14,6
India,Gujarat,Ahmedabad,"Chandkheda, Ahmedabad - IITM",20-07-2024 01:00:00,23.107969,72.574648,NH3,7,12,9
India,Gujarat,Ahmedabad,"Chandkheda, Ahmedabad - IITM",20-07-2024 01:00:00,23.107969,72.574648,CO,54,64,60
India,Gujarat,Ahmedabad,"Gyaspur, Ahmedabad - IITM",20-07-2024 01:00:00,22.977134,72.553024,NO2,2,41,8
India,Gujarat,Ahmedabad,"Maninagar, Ahmedabad - GPCB",20-07-2024 01:00:00,23.002657,72.591912,PM10,31,80,51
India,Gujarat,Ahmedabad,"Maninagar, Ahmedabad - GPCB",20-07-2024 01:00:00,23.002657,72.591912,SO2,25,37,31
India,Gujarat,Ahmedabad,"Raikhad, Ahmedabad - IITM",20-07-2024 01:00:00,23.020509,72.579261,NH3,9,11,10
India,Gujarat,Ahmedabad,"Raikhad, Ahmedabad - IITM",20-07-2024 01:00:00,23.020509,72.579261,SO2,12,14,13
India,Gujarat,Ahmedabad,"Rakhial, Ahmedabad - IITM",20-07-2024 01:00:00,23.016834,72.625775,PM2.5,14,45,27
India,Gujarat,Ahmedabad,"Rakhial, Ahmedabad - IITM",20-07-2024 01:00:00,23.016834,72.625775,SO2,10,15,13
India,Gujarat,Ankleshwar,"GIDC, Ankleshwar - GPCB",20-07-2024 01:00:00,21.613267,73.010555,OZONE,21,46,25
India,Gujarat,Gandhinagar,"GIFT City, Gandhinagar - IITM",20-07-2024 01:00:00,23.163798,72.677768,PM10,34,110,54
India,Gujarat,Gandhinagar,"GIFT City, Gandhinagar - IITM",20-07-2024 01:00:00,23.163798,72.677768,NO2,9,26,16
India,Gujarat,Gandhinagar,"GIFT City, Gandhinagar - IITM",20-07-2024 01:00:00,23.163798,72.677768,NH3,2,4,3
India,Gujarat,Gandhinagar,"GIFT City, Gandhinagar - IITM",20-07-2024 01:00:00,23.163798,72.677768,SO2,6,17,13
India,Gujarat,Surat,"Science Center, Surat - SMC",20-07-2024 01:00:00,21.170046,72.795405,NO2,23,38,30
India,Gujarat,Surat,"Science Center, Surat - SMC",20-07-2024 01:00:00,21.170046,72.795405,CO,62,76,71
India,Gujarat,Vatva,"Phase-4 GIDC, Vatva - GPCB",20-07-2024 01:00:00,22.969611,72.643500,PM2.5,17,52,30
India,Gujarat,Vatva,"Phase-4 GIDC, Vatva - GPCB",20-07-2024 01:00:00,22.969611,72.643500,NO2,1,5,2
India,Gujarat,Vatva,"Phase-4 GIDC, Vatva - GPCB",20-07-2024 01:00:00,22.969611,72.643500,SO2,6,8,7
India,Gujarat,Vatva,"Phase-4 GIDC, Vatva - GPCB",20-07-2024 01:00:00,22.969611,72.643500,OZONE,13,19,17
India,Haryana,Ambala,"Patti Mehar, Ambala - HSPCB",20-07-2024 01:00:00,30.379589,76.778328,PM10,33,91,56
India,Haryana,Ballabgarh,"Nathu Colony, Ballabgarh - HSPCB",20-07-2024 01:00:00,28.3419248,77.319699,NH3,1,2,1
India,Haryana,Bhiwani,"H.B. Colony, Bhiwani - HSPCB",20-07-2024 01:00:00,28.806223,76.141105,SO2,6,89,17
India,Haryana,Charkhi Dadri,"Mini Secretariat, Charkhi Dadri - HSPCB",20-07-2024 01:00:00,28.593883,76.270653,NO2,15,23,17
India,Haryana,Charkhi Dadri,"Mini Secretariat, Charkhi Dadri - HSPCB",20-07-2024 01:00:00,28.593883,76.270653,OZONE,13,17,16
India,Haryana,Faridabad,"New Industrial Town, Faridabad - HSPCB",20-07-2024 01:00:00,28.39072,77.30059,NH3,1,3,1
India,Haryana,Faridabad,"New Industrial Town, Faridabad - HSPCB",20-07-2024 01:00:00,28.39072,77.30059,CO,10,112,37
India,Haryana,Faridabad,"Sector 11, Faridabad - HSPCB",20-07-2024 01:00:00,28.376058,77.315741,SO2,2,2,2
India,Haryana,Faridabad,"Sector 30, Faridabad - HSPCB",20-07-2024 01:00:00,28.4417,77.3217,CO,17,70,31
India,Haryana,Gurugram,"Sector-51, Gurugram - HSPCB",20-07-2024 01:00:00,28.4227,77.0667,PM2.5,48,243,120
India,Haryana,Gurugram,"Sector-51, Gurugram - HSPCB",20-07-2024 01:00:00,28.4227,77.0667,NO2,13,29,23
India,Haryana,Gurugram,"Sector-51, Gurugram - HSPCB",20-07-2024 01:00:00,28.4227,77.0667,OZONE,29,39,31
India,Haryana,Gurugram,"Teri Gram, Gurugram - HSPCB",20-07-2024 01:00:00,28.4275,77.1465,NH3,11,37,23
India,Haryana,Gurugram,"Teri Gram, Gurugram - HSPCB",20-07-2024 01:00:00,28.4275,77.1465,OZONE,13,44,16
India,Haryana,Gurugram,"Vikas Sadan, Gurugram - HSPCB",20-07-2024 01:00:00,28.4501238,77.0263051,SO2,11,60,34
India,Haryana,Gurugram,"Vikas Sadan, Gurugram - HSPCB",20-07-2024 01:00:00,28.4501238,77.0263051,OZONE,8,68,22
India,Haryana,Jind,"Police Lines, Jind - HSPCB",20-07-2024 01:00:00,29.307814,76.337619,PM10,54,113,79
India,Haryana,Jind,"Police Lines, Jind - HSPCB",20-07-2024 01:00:00,29.307814,76.337619,NH3,1,5,4
India,Haryana,Jind,"Police Lines, Jind - HSPCB",20-07-2024 01:00:00,29.307814,76.337619,SO2,1,2,1
India,Haryana,Jind,"Police Lines, Jind - HSPCB",20-07-2024 01:00:00,29.307814,76.337619,OZONE,42,123,111
India,Haryana,Kaithal,"Rishi Nagar, Kaithal - HSPCB",20-07-2024 01:00:00,29.8006,76.4155,NH3,8,8,8
India,Haryana,Kaithal,"Rishi Nagar, Kaithal - HSPCB",20-07-2024 01:00:00,29.8006,76.4155,SO2,2,15,8
India,Haryana,Kaithal,"Rishi Nagar, Kaithal - HSPCB",20-07-2024 01:00:00,29.8006,76.4155,OZONE,26,57,44
India,Haryana,Karnal,"Sector-12, Karnal - HSPCB",20-07-2024 01:00:00,29.695300,77.002700,PM10,27,94,64
India,Haryana,Karnal,"Sector-12, Karnal - HSPCB",20-07-2024 01:00:00,29.695300,77.002700,NO2,7,12,10
India,Haryana,Karnal,"Sector-12, Karnal - HSPCB",20-07-2024 01:00:00,29.695300,77.002700,OZONE,39,46,44
India,Haryana,Kurukshetra,"Sector-7, Kurukshetra - HSPCB",20-07-2024 01:00:00,29.966942,76.875879,NO2,16,20,19
India,Haryana,Kurukshetra,"Sector-7, Kurukshetra - HSPCB",20-07-2024 01:00:00,29.966942,76.875879,OZONE,10,139,52
India,Haryana,Mandikhera,"General Hospital, Mandikhera - HSPCB",20-07-2024 01:00:00,27.9002,76.9938,PM10,64,73,68
India,Haryana,Mandikhera,"General Hospital, Mandikhera - HSPCB",20-07-2024 01:00:00,27.9002,76.9938,OZONE,23,31,28
India,Haryana,Manesar,"Sector-2 IMT, Manesar - HSPCB",20-07-2024 01:00:00,28.360699,76.936090,PM10,20,117,57
India,Haryana,Manesar,"Sector-2 IMT, Manesar - HSPCB",20-07-2024 01:00:00,28.360699,76.936090,NO2,12,21,18
India,Haryana,Manesar,"Sector-2 IMT, Manesar - HSPCB",20-07-2024 01:00:00,28.360699,76.936090,CO,7,14,9
India,Haryana,Palwal,"Shyam Nagar, Palwal - HSPCB",20-07-2024 01:00:00,28.1485564,77.3320667,SO2,3,27,13
India,Haryana,Panchkula,"Sector-6, Panchkula - HSPCB ",20-07-2024 01:00:00,30.7057778,76.8531805555555,SO2,2,113,37
India,Haryana,Panipat,"Sector-18, Panipat - HSPCB",20-07-2024 01:00:00,29.432304,76.972765,PM2.5,75,101,91
India,Haryana,Panipat,"Sector-18, Panipat - HSPCB",20-07-2024 01:00:00,29.432304,76.972765,SO2,18,19,19
India,Haryana,Rohtak,"MD University, Rohtak - HSPCB",20-07-2024 01:00:00,28.52123,76.37138,NO2,31,66,45
India,Haryana,Rohtak,"MD University, Rohtak - HSPCB",20-07-2024 01:00:00,28.52123,76.37138,OZONE,47,56,50
India,Haryana,Sirsa,"F-Block, Sirsa - HSPCB",20-07-2024 01:00:00,29.536400,75.015800,NO2,9,13,10
India,Haryana,Sirsa,"F-Block, Sirsa - HSPCB",20-07-2024 01:00:00,29.536400,75.015800,SO2,5,102,28
India,Haryana,Sonipat,"Murthal, Sonipat - HSPCB",20-07-2024 01:00:00,29.027200,77.062100,NO2,37,44,40
India,Haryana,Yamuna Nagar,"Gobind Pura, Yamuna Nagar - HSPCB",20-07-2024 01:00:00,30.1480566,77.2893471,NH3,1,6,4
India,Haryana,Yamuna Nagar,"Gobind Pura, Yamuna Nagar - HSPCB",20-07-2024 01:00:00,30.1480566,77.2893471,OZONE,22,129,24
India,Jammu_and_Kashmir,Srinagar,"Rajbagh, Srinagar - JKSPCB",20-07-2024 01:00:00,34.066206,74.819820,PM2.5,18,55,37
India,Jammu_and_Kashmir,Srinagar,"Rajbagh, Srinagar - JKSPCB",20-07-2024 01:00:00,34.066206,74.819820,NH3,1,1,1
India,Jammu_and_Kashmir,Srinagar,"Rajbagh, Srinagar - JKSPCB",20-07-2024 01:00:00,34.066206,74.819820,SO2,1,106,27
India,Jharkhand,Jorapokhar,"Tata Stadium, Jorapokhar - JSPCB",20-07-2024 01:00:00,23.707909,86.414670,NH3,1,1,1
India,Jharkhand,Jorapokhar,"Tata Stadium, Jorapokhar - JSPCB",20-07-2024 01:00:00,23.707909,86.414670,SO2,NA,NA,NA
India,Jharkhand,Pathardih,"Mohalbani Ghat, Pathardih - DMC",20-07-2024 01:00:00,23.669880,86.411725,SO2,NA,NA,NA
India,Karnataka,Bagalkot,"Vidayagiri, Bagalkot - KSPCB",20-07-2024 01:00:00,16.172806,75.659694,NH3,2,2,2
India,Karnataka,Bagalkot,"Vidayagiri, Bagalkot - KSPCB",20-07-2024 01:00:00,16.172806,75.659694,CO,16,52,33
India,Karnataka,Belgaum,"Ramteerth Nagar, Belgaum - KSPCB",20-07-2024 01:00:00,15.888653,74.541751,PM2.5,6,55,24
India,Karnataka,Belgaum,"Ramteerth Nagar, Belgaum - KSPCB",20-07-2024 01:00:00,15.888653,74.541751,CO,35,51,44
India,Karnataka,Bengaluru,"Bapuji Nagar, Bengaluru - KSPCB",20-07-2024 01:00:00,12.951913,77.539784,NO2,14,16,15
India,Karnataka,Bengaluru,"Bapuji Nagar, Bengaluru - KSPCB",20-07-2024 01:00:00,12.951913,77.539784,OZONE,28,39,31
India,Karnataka,Bengaluru,"City Railway Station, Bengaluru - KSPCB",20-07-2024 01:00:00,12.9756843,77.5660749,PM10,60,113,93
India,Karnataka,Bengaluru,"Hombegowda Nagar, Bengaluru - KSPCB",20-07-2024 01:00:00,12.938539,77.590100,NO2,7,14,10
India,Karnataka,Bengaluru,"Hombegowda Nagar, Bengaluru - KSPCB",20-07-2024 01:00:00,12.938539,77.590100,CO,11,22,17
India,Karnataka,Bengaluru,"Jayanagar 5th Block, Bengaluru - KSPCB",20-07-2024 01:00:00,12.920984,77.584908,NO2,8,9,8
India,Karnataka,Bengaluru,"Jigani, Bengaluru - KSPCB",20-07-2024 01:00:00,12.7816279,77.6299145,NH3,NA,NA,NA
India,Karnataka,Bengaluru,"Jigani, Bengaluru - KSPCB",20-07-2024 01:00:00,12.7816279,77.6299145,CO,NA,NA,NA
India,Karnataka,Bengaluru,"Kasturi Nagar, Bengaluru - KSPCB",20-07-2024 01:00:00,13.003872,77.664217,PM2.5,27,31,28
India,Karnataka,Bengaluru,"Kasturi Nagar, Bengaluru - KSPCB",20-07-2024 01:00:00,13.003872,77.664217,PM10,35,40,37
India,Karnataka,Bengaluru,"Kasturi Nagar, Bengaluru - KSPCB",20-07-2024 01:00:00,13.003872,77.664217,NH3,3,4,4
India,Karnataka,Bengaluru,"Kasturi Nagar, Bengaluru - KSPCB",20-07-2024 01:00:00,13.003872,77.664217,OZONE,39,39,39
India,Karnataka,Bengaluru,"Peenya, Bengaluru - CPCB",20-07-2024 01:00:00,13.0270199,77.494094,CO,29,102,85
India,Karnataka,Bengaluru,"RVCE-Mailasandra, Bengaluru - KSPCB",20-07-2024 01:00:00,12.921418,77.502466,PM10,NA,NA,NA
India,Karnataka,Bengaluru,"Sanegurava Halli, Bengaluru - KSPCB",20-07-2024 01:00:00,12.990328,77.5431385,NO2,19,25,23
India,Karnataka,Bengaluru,"Sanegurava Halli, Bengaluru - KSPCB",20-07-2024 01:00:00,12.990328,77.5431385,SO2,2,3,3
India,Karnataka,Bengaluru,"Silk Board, Bengaluru - KSPCB",20-07-2024 01:00:00,12.917348,77.622813,PM2.5,5,21,11
India,Karnataka,Bidar,"Naubad, Bidar - KSPCB",20-07-2024 01:00:00,17.930306,77.482194,PM2.5,1,20,8
India,Karnataka,Chikkaballapur,"Chikkaballapur Rural, Chikkaballapur - KSPCB",20-07-2024 01:00:00,13.428828,77.731418,NH3,NA,NA,NA
India,Karnataka,Chikkaballapur,"Chikkaballapur Rural, Chikkaballapur - KSPCB",20-07-2024 01:00:00,13.428828,77.731418,CO,9,16,14
India,Karnataka,Chikkamagaluru,"Kalyana Nagara, Chikkamagaluru - KSPCB",20-07-2024 01:00:00,13.328028,75.797056,NO2,NA,NA,NA
India,Karnataka,Chikkamagaluru,"Kalyana Nagara, Chikkamagaluru - KSPCB",20-07-2024 01:00:00,13.328028,75.797056,CO,9,80,11
India,Karnataka,Davanagere,"Devaraj Urs Badavane, Davanagere - KSPCB",20-07-2024 01:00:00,14.475800,75.905200,PM2.5,NA,NA,NA
India,Karnataka,Davanagere,"Devaraj Urs Badavane, Davanagere - KSPCB",20-07-2024 01:00:00,14.475800,75.905200,PM10,1,13,8
India,Karnataka,Dharwad,"Kalabhavan, Dharwad - KSPCB",20-07-2024 01:00:00,15.459706,75.008381,PM10,27,90,49
India,Karnataka,Dharwad,"Kalabhavan, Dharwad - KSPCB",20-07-2024 01:00:00,15.459706,75.008381,NH3,2,4,3
India,Karnataka,Hassan,"B.Katihalli, Hassan - KSPCB",20-07-2024 01:00:00,13.008556,76.125258,PM2.5,NA,NA,NA
India,Karnataka,Hassan,"B.Katihalli, Hassan - KSPCB",20-07-2024 01:00:00,13.008556,76.125258,NO2,9,29,15
India,Karnataka,Hubballi,"Lingaraj Nagar, Hubballi - KSPCB",20-07-2024 01:00:00,15.3714823,75.1160168,PM10,37,85,52
India,Karnataka,Hubballi,"Lingaraj Nagar, Hubballi - KSPCB",20-07-2024 01:00:00,15.3714823,75.1160168,OZONE,18,25,21
India,Karnataka,Kalaburagi,"Lal Bahadur Shastri Nagar, Kalaburagi - KSPCB",20-07-2024 01:00:00,17.321993,76.822628,SO2,2,15,4
India,Karnataka,Kalaburagi,"Lal Bahadur Shastri Nagar, Kalaburagi - KSPCB",20-07-2024 01:00:00,17.321993,76.822628,OZONE,6,12,9
India,Karnataka,Kalaburagi,"Mahatma Basaveswar Colony, Kalaburgi - KSPCB",20-07-2024 01:00:00,17.336318,76.847397,NH3,2,3,2
India,Karnataka,Kalaburagi,"Mahatma Basaveswar Colony, Kalaburgi - KSPCB",20-07-2024 01:00:00,17.336318,76.847397,SO2,3,4,4
India,Karnataka,Koppal,"Diwator Nagar, Koppal - KSPCB",20-07-2024 01:00:00,15.347630,76.181767,NH3,4,9,7
India,Karnataka,Madikeri,"Stuart Hill, Madikeri - KSPCB",20-07-2024 01:00:00,12.415911,75.735050,NO2,1,6,2
India,Karnataka,Madikeri,"Stuart Hill, Madikeri - KSPCB",20-07-2024 01:00:00,12.415911,75.735050,NH3,1,2,1
India,Karnataka,Mangalore,"Kadri, Mangalore - KSPCB",20-07-2024 01:00:00,12.889250,74.853000,SO2,10,36,15
India,Karnataka,Mysuru,"Hebbal 1st Stage, Mysuru - KSPCB",20-07-2024 01:00:00,12.21041,76.37376,NH3,1,3,2
India,Karnataka,Mysuru,"Hebbal 1st Stage, Mysuru - KSPCB",20-07-2024 01:00:00,12.21041,76.37376,CO,2,30,16
India,Karnataka,Raichur,"Haji Colony, Raichur - KSPCB",20-07-2024 01:00:00,16.208139,77.348417,OZONE,4,9,7
India,Karnataka,Ramanagara,"Vijay Nagar, Ramanagara - KSPCB",20-07-2024 01:00:00,12.733409,77.298051,PM10,8,24,17
India,Karnataka,Ramanagara,"Vijay Nagar, Ramanagara - KSPCB",20-07-2024 01:00:00,12.733409,77.298051,NH3,2,3,3
India,Karnataka,Udupi,"Brahmagiri, Udupi - KSPCB",20-07-2024 01:00:00,13.34194444,74.74694444,PM2.5,NA,NA,NA
India,Karnataka,Udupi,"Brahmagiri, Udupi - KSPCB",20-07-2024 01:00:00,13.34194444,74.74694444,NO2,21,33,25
India,Karnataka,Udupi,"Brahmagiri, Udupi - KSPCB",20-07-2024 01:00:00,13.34194444,74.74694444,NH3,1,5,3
India,Karnataka,Vijayapura,"Ibrahimpur, Vijayapura - KSPCB",20-07-2024 01:00:00,16.802639,75.722694,PM2.5,22,27,25
India,Karnataka,Vijayapura,"Ibrahimpur, Vijayapura - KSPCB",20-07-2024 01:00:00,16.802639,75.722694,PM10,39,41,39
India,Karnataka,Vijayapura,"Ibrahimpur, Vijayapura - KSPCB",20-07-2024 01:00:00,16.802639,75.722694,CO,NA,NA,NA
India,Karnataka,Yadgir,"Collector Office, Yadgir - KSPCB",20-07-2024 01:00:00,16.7602,77.1428,PM2.5,3,19,11
India,Karnataka,Yadgir,"Collector Office, Yadgir - KSPCB",20-07-2024 01:00:00,16.7602,77.1428,NH3,1,2,1
India,Kerala,Kannur,"Thavakkara, Kannur - Kerala PCB",20-07-2024 01:00:00,11.875000,75.373200,PM10,38,44,41
India,Kerala,Kannur,"Thavakkara, Kannur - Kerala PCB",20-07-2024 01:00:00,11.875000,75.373200,OZONE,29,30,29
India,Kerala,Kollam,"Polayathode, Kollam - Kerala PCB",20-07-2024 01:00:00,8.8787,76.6073,NH3,1,1,1
India,Kerala,Kollam,"Polayathode, Kollam - Kerala PCB",20-07-2024 01:00:00,8.8787,76.6073,OZONE,29,34,32
India,Kerala,Thiruvananthapuram,"Kariavattom, Thiruvananthapuram - Kerala PCB",20-07-2024 01:00:00,8.563700,76.886500,NH3,1,1,1
India,Kerala,Thrissur,"Corporation Ground, Thrissur - Kerala PCB",20-07-2024 01:00:00,10.532400,76.215900,NO2,8,9,8
India,Madhya Pradesh,Bhopal,"Idgah Hills, Bhopal - MPPCB",20-07-2024 01:00:00,23.264759,77.381568,PM2.5,22,45,32
India,Madhya Pradesh,Bhopal,"Idgah Hills, Bhopal - MPPCB",20-07-2024 01:00:00,23.264759,77.381568,PM10,26,316,88
India,Madhya Pradesh,Bhopal,"Paryavaran Parisar, Bhopal - MPPCB",20-07-2024 01:00:00,23.210494,77.425409,NH3,1,11,2
India,Madhya Pradesh,Bhopal,"Paryavaran Parisar, Bhopal - MPPCB",20-07-2024 01:00:00,23.210494,77.425409,CO,5,146,36
India,Madhya Pradesh,Dewas,"Bhopal Chauraha, Dewas - MPPCB",20-07-2024 01:00:00,22.9682591,76.064118,NH3,3,3,3
India,Madhya Pradesh,Dewas,"Bhopal Chauraha, Dewas - MPPCB",20-07-2024 01:00:00,22.9682591,76.064118,CO,6,24,19
India,Madhya Pradesh,Gwalior,"City Center, Gwalior - MPPCB",20-07-2024 01:00:00,26.203442,78.193251,PM2.5,12,43,28
India,Madhya Pradesh,Gwalior,"City Center, Gwalior - MPPCB",20-07-2024 01:00:00,26.203442,78.193251,SO2,3,33,19
India,Madhya Pradesh,Gwalior,"Maharaj Bada, Gwalior - MPPCB",20-07-2024 01:00:00,26.200388,78.147714,NH3,5,50,11
India,Madhya Pradesh,Gwalior,"Maharaj Bada, Gwalior - MPPCB",20-07-2024 01:00:00,26.200388,78.147714,CO,18,102,36
India,Madhya Pradesh,Indore,"Chhoti Gwaltoli, Indore - MPPCB",20-07-2024 01:00:00,22.4310,75.5213,NO2,35,64,47
India,Madhya Pradesh,Indore,"Chhoti Gwaltoli, Indore - MPPCB",20-07-2024 01:00:00,22.4310,75.5213,SO2,9,12,10
India,Madhya Pradesh,Indore,"Residency Area, Indore - IMC",20-07-2024 01:00:00,22.7084,75.8815,PM10,10,27,18
India,Madhya Pradesh,Indore,"Residency Area, Indore - IMC",20-07-2024 01:00:00,22.7084,75.8815,NO2,21,28,25
India,Madhya Pradesh,Indore,"Residency Area, Indore - IMC",20-07-2024 01:00:00,22.7084,75.8815,OZONE,7,15,11
India,Madhya Pradesh,Jabalpur,"Gupteshwar, Jabalpur - JMC",20-07-2024 01:00:00,23.142888,79.916147,NH3,4,5,4
India,Madhya Pradesh,Jabalpur,"Marhatal, Jabalpur - MPPCB",20-07-2024 01:00:00,23.168606,79.932247,NO2,9,53,23
India,Madhya Pradesh,Jabalpur,"Marhatal, Jabalpur - MPPCB",20-07-2024 01:00:00,23.168606,79.932247,SO2,14,22,18
India,Madhya Pradesh,Jabalpur,"Suhagi, Jabalpur - JMC",20-07-2024 01:00:00,23.218135,79.957770,PM10,16,41,28
India,Madhya Pradesh,Maihar,"Sahilara, Maihar - KJS Cements",20-07-2024 01:00:00,24.2613009,80.7231783,CO,47,52,50
India,Madhya Pradesh,Mandideep,"Sector-D Industrial Area, Mandideep - MPPCB",20-07-2024 01:00:00,23.108440,77.511428,NO2,NA,NA,NA
India,Madhya Pradesh,Pithampur,"Sector-2 Industrial Area, Pithampur - MPPCB",20-07-2024 01:00:00,22.624758,75.675238,NH3,2,4,3
India,Madhya Pradesh,Ratlam,"Shasthri Nagar, Ratlam - IPCA Lab",20-07-2024 01:00:00,23.331731,75.045981,PM10,7,90,28
India,Madhya Pradesh,Ratlam,"Shasthri Nagar, Ratlam - IPCA Lab",20-07-2024 01:00:00,23.331731,75.045981,SO2,32,38,35
India,Madhya Pradesh,Sagar,"Civil Lines, Sagar - MPPCB",20-07-2024 01:00:00,23.838586,78.759431,CO,34,51,46
India,Madhya Pradesh,Sagar,"Deen Dayal Nagar, Sagar - MPPCB",20-07-2024 01:00:00,23.8640158,78.80289321,PM2.5,9,84,24
India,Madhya Pradesh,Sagar,"Deen Dayal Nagar, Sagar - MPPCB",20-07-2024 01:00:00,23.8640158,78.80289321,CO,32,40,34
India,Madhya Pradesh,Singrauli,"Suryakiran Bhawan NCL, Singrauli - MPPCB",20-07-2024 01:00:00,24.108970,82.645580,PM2.5,105,152,128
India,Madhya Pradesh,Singrauli,"Suryakiran Bhawan NCL, Singrauli - MPPCB",20-07-2024 01:00:00,24.108970,82.645580,PM10,140,163,151
India,Madhya Pradesh,Singrauli,"Suryakiran Bhawan NCL, Singrauli - MPPCB",20-07-2024 01:00:00,24.108970,82.645580,CO,20,84,49
India,Madhya Pradesh,Ujjain,"Mahakaleshwar Temple, Ujjain - MPPCB",20-07-2024 01:00:00,23.182719 ,75.768218 ,PM2.5,2,38,14
India,Madhya Pradesh,Ujjain,"Mahakaleshwar Temple, Ujjain - MPPCB",20-07-2024 01:00:00,23.182719 ,75.768218 ,PM10,21,70,35
India,Maharashtra,Ahmednagar,"Tarakpur, Ahmednagar - MPCB",20-07-2024 01:00:00,19.10122,74.73339,CO,6,54,23
India,Maharashtra,Akola,"Ramdaspeth, Akola - MPCB",20-07-2024 01:00:00,20.719516,77.000253,PM10,18,78,46
India,Maharashtra,Akola,"Ramdaspeth, Akola - MPCB",20-07-2024 01:00:00,20.719516,77.000253,SO2,13,31,16
India,Maharashtra,Amravati,"Shivneri Colony, Amravati - MPCB",20-07-2024 01:00:00,20.9402359,77.7895248,PM10,NA,NA,NA
India,Maharashtra,Amravati,"Shivneri Colony, Amravati - MPCB",20-07-2024 01:00:00,20.9402359,77.7895248,OZONE,6,18,12
India,Maharashtra,Amravati,"Shri Shivaji Science College, Amaravati - MPCB",20-07-2024 01:00:00,20.939198,77.765701,PM10,16,40,27
India,Maharashtra,Amravati,"Shri Shivaji Science College, Amaravati - MPCB",20-07-2024 01:00:00,20.939198,77.765701,SO2,1,2,2
India,Maharashtra,Aurangabad,"MIDC Chilkalthana, Aurangabad - MPCB",20-07-2024 01:00:00,19.875620,75.387310,CO,22,52,46
India,Maharashtra,Aurangabad,"More Chowk Waluj, Aurangabad - MPCB",20-07-2024 01:00:00,19.8389439,75.244448,SO2,NA,NA,NA
India,Maharashtra,Badlapur,"Katrap, Badlapur - MPCB",20-07-2024 01:00:00,19.16485,73.23409,NH3,2,4,3
India,Maharashtra,Belapur,"CBD Belapur, Belapur - MPCB",20-07-2024 01:00:00,19.0243902,73.0406721,CO,16,40,33
India,Maharashtra,Bhiwandi,"Gokul Nagar, Bhiwandi - MPCB",20-07-2024 01:00:00,19.309073,73.057223,SO2,6,12,9
India,Maharashtra,Boisar,"Khaira, Boisar - MPCB",20-07-2024 01:00:00,19.786089,72.757971,PM2.5,22,63,44
India,Maharashtra,Boisar,"Khaira, Boisar - MPCB",20-07-2024 01:00:00,19.786089,72.757971,OZONE,4,12,7
India,Maharashtra,Chandrapur,"Chauhan Colony, Chandrapur - MPCB",20-07-2024 01:00:00,19.962900,79.298714,PM2.5,6,32,19
India,Maharashtra,Chandrapur,"MIDC Khutala, Chandrapur - MPCB",20-07-2024 01:00:00,19.9775302,79.2337086,PM10,NA,NA,NA
India,Maharashtra,Chandrapur,"MIDC Khutala, Chandrapur - MPCB",20-07-2024 01:00:00,19.9775302,79.2337086,CO,12,28,16
India,Maharashtra,Dhule,"Deopur, Dhule - MPCB",20-07-2024 01:00:00,20.918946,74.776388,PM2.5,13,43,27
India,Maharashtra,Dhule,"Deopur, Dhule - MPCB",20-07-2024 01:00:00,20.918946,74.776388,PM10,36,81,55
India,Maharashtra,Dhule,"Deopur, Dhule - MPCB",20-07-2024 01:00:00,20.918946,74.776388,NH3,2,5,3
India,Maharashtra,Dhule,"Deopur, Dhule - MPCB",20-07-2024 01:00:00,20.918946,74.776388,SO2,2,2,2
India,Maharashtra,Jalgaon,"Prabhat Colony, Jalgaon - MPCB",20-07-2024 01:00:00,21.001264,75.565602,PM10,24,27,25
India,Maharashtra,Jalgaon,"Prabhat Colony, Jalgaon - MPCB",20-07-2024 01:00:00,21.001264,75.565602,CO,11,24,16
India,Maharashtra,Jalna,"Old MIDC, Jalna - MPCB",20-07-2024 01:00:00,19.854616,75.905894,CO,6,24,20
India,Maharashtra,Kalyan,"Khadakpada, Kalyan - MPCB",20-07-2024 01:00:00,19.25292,73.142019,PM2.5,NA,NA,NA
India,Maharashtra,Kalyan,"Khadakpada, Kalyan - MPCB",20-07-2024 01:00:00,19.25292,73.142019,SO2,8,13,11
India,Maharashtra,Kolhapur,"Sinchan Bhavan, Kolhapur - MPCB",20-07-2024 01:00:00,16.7143745,74.2426398,NH3,7,8,8
India,Maharashtra,Kolhapur,"Sinchan Bhavan, Kolhapur - MPCB",20-07-2024 01:00:00,16.7143745,74.2426398,SO2,NA,NA,NA
India,Maharashtra,Latur,"Sawe Wadi, Latur - MPCB",20-07-2024 01:00:00,18.39963,76.57452,NO2,2,43,15
India,Maharashtra,Latur,"Sawe Wadi, Latur - MPCB",20-07-2024 01:00:00,18.39963,76.57452,CO,5,22,13
India,Maharashtra,Latur,"Sawe Wadi, Latur - MPCB",20-07-2024 01:00:00,18.39963,76.57452,OZONE,10,35,22
India,Maharashtra,Mahad,"Kamble Tarf Birwadi, Mahad - MPCB",20-07-2024 01:00:00,18.1023399,73.4783687,NH3,2,10,4
India,Maharashtra,Mumbai,"Borivali East, Mumbai - MPCB",20-07-2024 01:00:00,19.2243333,72.8658113,PM10,NA,NA,NA
India,Maharashtra,Mumbai,"Borivali East, Mumbai - MPCB",20-07-2024 01:00:00,19.2243333,72.8658113,NH3,NA,NA,NA
India,Maharashtra,Mumbai,"Borivali East, Mumbai - MPCB",20-07-2024 01:00:00,19.2243333,72.8658113,CO,NA,NA,NA
India,Maharashtra,Mumbai,"Byculla, Mumbai - BMC",20-07-2024 01:00:00,18.9767,72.8380,CO,4,27,18
India,Maharashtra,Mumbai,"Byculla, Mumbai - BMC",20-07-2024 01:00:00,18.9767,72.8380,OZONE,16,27,20
India,Maharashtra,Mumbai,"Chembur, Mumbai - MPCB",20-07-2024 01:00:00,19.0364585,72.8954371,PM2.5,14,37,21
India,Maharashtra,Mumbai,"Chhatrapati Shivaji Intl. Airport (T2), Mumbai - MPCB",20-07-2024 01:00:00,19.10078,72.87462,NO2,NA,NA,NA
India,Maharashtra,Mumbai,"Chhatrapati Shivaji Intl. Airport (T2), Mumbai - MPCB",20-07-2024 01:00:00,19.10078,72.87462,OZONE,12,13,13
India,Maharashtra,Mumbai,"Colaba, Mumbai - MPCB",20-07-2024 01:00:00,18.910000,72.820000,PM2.5,NA,NA,NA
India,Maharashtra,Mumbai,"Colaba, Mumbai - MPCB",20-07-2024 01:00:00,18.910000,72.820000,PM10,NA,NA,NA
India,Maharashtra,Mumbai,"Colaba, Mumbai - MPCB",20-07-2024 01:00:00,18.910000,72.820000,NO2,NA,NA,NA
India,Maharashtra,Mumbai,"Colaba, Mumbai - MPCB",20-07-2024 01:00:00,18.910000,72.820000,CO,14,14,14
India,Maharashtra,Mumbai,"Deonar, Mumbai - IITM",20-07-2024 01:00:00,19.04946,72.9230,NO2,9,13,11
India,Maharashtra,Mumbai,"Kandivali East, Mumbai - MPCB",20-07-2024 01:00:00,19.205800,72.868200,PM2.5,1,17,7
India,Maharashtra,Mumbai,"Kandivali East, Mumbai - MPCB",20-07-2024 01:00:00,19.205800,72.868200,PM10,7,80,19
India,Maharashtra,Mumbai,"Kandivali West, Mumbai - BMC",20-07-2024 01:00:00,19.215859,72.831718,PM10,15,38,24
India,Maharashtra,Mumbai,"Kandivali West, Mumbai - BMC",20-07-2024 01:00:00,19.215859,72.831718,NH3,2,3,3
India,Maharashtra,Mumbai,"Kandivali West, Mumbai - BMC",20-07-2024 01:00:00,19.215859,72.831718,OZONE,5,18,10
India,Maharashtra,Mumbai,"Khindipada-Bhandup West, Mumbai - IITM",20-07-2024 01:00:00,19.1653323,72.922099,PM2.5,5,22,12
India,Maharashtra,Mumbai,"Khindipada-Bhandup West, Mumbai - IITM",20-07-2024 01:00:00,19.1653323,72.922099,NO2,3,6,4
India,Maharashtra,Mumbai,"Khindipada-Bhandup West, Mumbai - IITM",20-07-2024 01:00:00,19.1653323,72.922099,NH3,1,3,2
India,Maharashtra,Mumbai,"Khindipada-Bhandup West, Mumbai - IITM",20-07-2024 01:00:00,19.1653323,72.922099,SO2,4,8,6
India,Maharashtra,Mumbai,"Kurla, Mumbai - MPCB",20-07-2024 01:00:00,19.0863,72.8888,OZONE,28,29,28
India,Maharashtra,Mumbai,"Mindspace-Malad West, Mumbai - MPCB",20-07-2024 01:00:00,19.1878657,72.8304069,PM2.5,13,37,22
India,Maharashtra,Mumbai,"Mulund West, Mumbai - MPCB",20-07-2024 01:00:00,19.1750,72.9419,NO2,NA,NA,NA
India,Maharashtra,Mumbai,"Mulund West, Mumbai - MPCB",20-07-2024 01:00:00,19.1750,72.9419,NH3,NA,NA,NA
India,Maharashtra,Mumbai,"Powai, Mumbai - MPCB",20-07-2024 01:00:00,19.137500,72.915056,SO2,14,15,14
India,Maharashtra,Mumbai,"Sewri, Mumbai - BMC",20-07-2024 01:00:00,19.000084,72.856730,NO2,6,14,10
India,Maharashtra,Mumbai,"Shivaji Nagar, Mumbai - BMC",20-07-2024 01:00:00,19.060498,72.923356,SO2,1,7,4
India,Maharashtra,Mumbai,"Shivaji Nagar, Mumbai - BMC",20-07-2024 01:00:00,19.060498,72.923356,CO,11,103,73
India,Maharashtra,Mumbai,"Sion, Mumbai - MPCB",20-07-2024 01:00:00,19.047000,72.874600,NH3,1,1,1
India,Maharashtra,Mumbai,"Vasai West, Mumbai - MPCB",20-07-2024 01:00:00,19.383200,72.820400,PM2.5,7,143,35
India,Maharashtra,Mumbai,"Worli, Mumbai - MPCB",20-07-2024 01:00:00,18.9936162,72.8128113,OZONE,9,12,11
India,Maharashtra,Nagpur,"Ambazari, Nagpur - MPCB",20-07-2024 01:00:00,21.121801,79.04952,PM2.5,22,53,32
India,Maharashtra,Nagpur,"Ambazari, Nagpur - MPCB",20-07-2024 01:00:00,21.121801,79.04952,PM10,39,90,61
India,Maharashtra,Nagpur,"Ambazari, Nagpur - MPCB",20-07-2024 01:00:00,21.121801,79.04952,OZONE,2,19,8
India,Maharashtra,Nagpur,"Mahal, Nagpur - MPCB",20-07-2024 01:00:00,21.14472,79.107595,NO2,8,25,15
India,Maharashtra,Nagpur,"Opp GPO Civil Lines, Nagpur - MPCB",20-07-2024 01:00:00,21.152875,79.0517531,CO,14,61,31
India,Maharashtra,Nanded,"Sneh Nagar, Nanded - MPCB",20-07-2024 01:00:00,19.173852,77.296291,SO2,12,15,14
India,Maharashtra,Nashik,"Hirawadi, Nashik - MPCB",20-07-2024 01:00:00,20.021503,73.813844,PM10,15,73,39
India,Maharashtra,Nashik,"Hirawadi, Nashik - MPCB",20-07-2024 01:00:00,20.021503,73.813844,SO2,5,15,9
India,Maharashtra,Nashik,"MIDC Ambad, Nashik - MPCB",20-07-2024 01:00:00,19.950220,73.731480,PM2.5,17,69,32
India,Maharashtra,Nashik,"MIDC Ambad, Nashik - MPCB",20-07-2024 01:00:00,19.950220,73.731480,PM10,24,62,40
India,Maharashtra,Nashik,"MIDC Ambad, Nashik - MPCB",20-07-2024 01:00:00,19.950220,73.731480,CO,7,44,31
India,Maharashtra,Navi Mumbai,"Mahape, Navi Mumbai - MPCB",20-07-2024 01:00:00,19.1135051,73.008978,SO2,8,13,10
India,Maharashtra,Navi Mumbai,"Sanpada, Navi Mumbai - MPCB",20-07-2024 01:00:00,19.0575752,73.0151367,PM10,17,57,32
India,Maharashtra,Navi Mumbai,"Sector-19A Nerul, Navi Mumbai - IITM",20-07-2024 01:00:00,19.044,73.0325,CO,48,64,56
India,Maharashtra,Navi Mumbai,"Sector-2E Kalamboli, Navi Mumbai - MPCB",20-07-2024 01:00:00,19.02579,73.10297,PM2.5,7,55,25
India,Maharashtra,Navi Mumbai,"Sector-2E Kalamboli, Navi Mumbai - MPCB",20-07-2024 01:00:00,19.02579,73.10297,NH3,1,5,2
India,Maharashtra,Pimpri-Chinchwad,"Park Street Wakad, Pimpri Chinchwad - MPCB",20-07-2024 01:00:00,18.59051,73.77946,NH3,1,5,2
India,Maharashtra,Pimpri-Chinchwad,"Park Street Wakad, Pimpri Chinchwad - MPCB",20-07-2024 01:00:00,18.59051,73.77946,CO,8,33,22
India,Maharashtra,Pimpri-Chinchwad,"Park Street Wakad, Pimpri Chinchwad - MPCB",20-07-2024 01:00:00,18.59051,73.77946,OZONE,5,17,9
India,Maharashtra,Pimpri-Chinchwad,"Thergaon, Pimpri Chinchwad - MPCB",20-07-2024 01:00:00,18.616318,73.765797,SO2,2,3,3
India,Maharashtra,Pimpri-Chinchwad,"Thergaon, Pimpri Chinchwad - MPCB",20-07-2024 01:00:00,18.616318,73.765797,OZONE,2,9,4
India,Maharashtra,Pune,"Bhosari, Pune - IITM",20-07-2024 01:00:00,18.640051,73.848956,CO,20,70,49
India,Maharashtra,Pune,"Hadapsar, Pune - IITM",20-07-2024 01:00:00,18.501793,73.927532,NO2,23,37,30
India,Maharashtra,Pune,"Katraj Dairy, Pune - MPCB",20-07-2024 01:00:00,18.454450,73.854155,CO,49,50,50
India,Maharashtra,Pune,"Panchawati_Pashan, Pune - IITM",20-07-2024 01:00:00,18.536457,73.805454,NO2,16,20,19
India,Maharashtra,Pune,"Revenue Colony-Shivajinagar, Pune - IITM",20-07-2024 01:00:00,18.530085,73.849598,NO2,26,41,34
India,Maharashtra,Pune,"Revenue Colony-Shivajinagar, Pune - IITM",20-07-2024 01:00:00,18.530085,73.849598,CO,24,50,38
India,Maharashtra,Pune,"Savitribai Phule Pune University, Pune - MPCB",20-07-2024 01:00:00,18.547056,73.826908,NH3,2,5,3
India,Maharashtra,Pune,"Transport Nagar-Nigdi, Pune - IITM",20-07-2024 01:00:00,18.664282,73.763966,OZONE,12,47,32
India,Maharashtra,Solapur,"Ratandeep Housing Society, Solapur - MPCB",20-07-2024 01:00:00,17.65439,75.90649,OZONE,21,41,24
India,Maharashtra,Solapur,"Solapur, Solapur - MPCB",20-07-2024 01:00:00,17.6599188,75.9063906,PM10,101,123,105
India,Maharashtra,Thane,"Kasarvadavali, Thane - MPCB",20-07-2024 01:00:00,19.26777,72.97182,PM2.5,12,30,22
India,Maharashtra,Thane,"Pimpleshwar Mandir, Thane - MPCB",20-07-2024 01:00:00,19.192056,72.9585188,PM10,2,500,49
India,Maharashtra,Thane,"Pimpleshwar Mandir, Thane - MPCB",20-07-2024 01:00:00,19.192056,72.9585188,SO2,1,6,2
India,Maharashtra,Thane,"Pimpleshwar Mandir, Thane - MPCB",20-07-2024 01:00:00,19.192056,72.9585188,CO,1,92,42
India,Maharashtra,Thane,"Upvan Fort, Thane - MPCB",20-07-2024 01:00:00,19.222279,72.957979,CO,1,45,22
India,Maharashtra,Thane,"Upvan Fort, Thane - MPCB",20-07-2024 01:00:00,19.222279,72.957979,OZONE,1,11,5
India,Maharashtra,Ulhasnagar,"Sidhi Vinayak Nagar, Ulhasnagar - MPCB",20-07-2024 01:00:00,19.235581,73.159121,PM10,35,51,44
India,Maharashtra,Ulhasnagar,"Sidhi Vinayak Nagar, Ulhasnagar - MPCB",20-07-2024 01:00:00,19.235581,73.159121,NH3,2,5,3
India,Maharashtra,Virar,"Bolinj, Virar - MPCB",20-07-2024 01:00:00,19.4458210,72.7988231,PM2.5,16,51,29
India,Maharashtra,Virar,"Bolinj, Virar - MPCB",20-07-2024 01:00:00,19.4458210,72.7988231,NO2,9,31,20
India,Manipur,Imphal,"DM College of Science, Imphal - Manipur PCB",20-07-2024 01:00:00,24.8207389,93.9423085,PM10,7,50,19
India,Meghalaya,Shillong,"Lumpyngngad, Shillong - Meghalaya PCB",20-07-2024 01:00:00,25.5586,91.8985,NO2,1,2,1
India,Meghalaya,Shillong,"Lumpyngngad, Shillong - Meghalaya PCB",20-07-2024 01:00:00,25.5586,91.8985,SO2,36,38,37
India,Mizoram,Aizawl,"Sikulpuikawn, Aizawl - Mizoram PCB",20-07-2024 01:00:00,23.7176342,92.7192841,PM10,3,33,17
India,Mizoram,Aizawl,"Sikulpuikawn, Aizawl - Mizoram PCB",20-07-2024 01:00:00,23.7176342,92.7192841,CO,10,17,15
India,Nagaland,Kohima,"PWD Juction, Kohima - NPCB",20-07-2024 01:00:00,25.6635413,94.0989878,NH3,1,1,1
India,Nagaland,Kohima,"PWD Juction, Kohima - NPCB",20-07-2024 01:00:00,25.6635413,94.0989878,SO2,39,42,40
India,Odisha,Angul,"Hakimapada, Angul - OSPCB",20-07-2024 01:00:00,20.832874,85.104082,NO2,5,30,17
India,Odisha,Balasore,"Kalidaspur, Balasore - OSPCB",20-07-2024 01:00:00,21.51161,86.89088,PM2.5,2,48,24
India,Odisha,Balasore,"Kalidaspur, Balasore - OSPCB",20-07-2024 01:00:00,21.51161,86.89088,SO2,12,14,13
India,Odisha,Barbil,"Forest Office, Barbil - OSPCB",20-07-2024 01:00:00,22.1166054,85.3945546,PM10,18,128,47
India,Odisha,Baripada,"Meher Colony, Baripada - OSPCB",20-07-2024 01:00:00,21.941841,86.728318,PM10,20,58,36
India,Odisha,Baripada,"Meher Colony, Baripada - OSPCB",20-07-2024 01:00:00,21.941841,86.728318,NH3,NA,NA,NA
India,Odisha,Baripada,"Meher Colony, Baripada - OSPCB",20-07-2024 01:00:00,21.941841,86.728318,OZONE,15,328,83
India,Odisha,Bhubaneswar,"Lingraj Mandir, Bhubaneswar - OSPCB",20-07-2024 01:00:00,20.240790,85.836784,PM2.5,NA,NA,NA
India,Odisha,Bhubaneswar,"Patia, Bhubaneswar - OSPCB",20-07-2024 01:00:00,20.34652,85.81630,NO2,4,10,6
India,Odisha,Bhubaneswar,"Patia, Bhubaneswar - OSPCB",20-07-2024 01:00:00,20.34652,85.81630,SO2,2,4,3
India,Odisha,Bileipada,"Tata Township, Bileipada - OSPCB",20-07-2024 01:00:00,22.06156703,85.47409613,NO2,4,5,5
India,Odisha,Bileipada,"Tata Township, Bileipada - OSPCB",20-07-2024 01:00:00,22.06156703,85.47409613,SO2,7,11,9
India,Odisha,Brajrajnagar,"GM Office, Brajrajnagar - OSPCB",20-07-2024 01:00:00,21.8004996,83.8396977,OZONE,19,26,23
India,Odisha,Cuttack,"CDA Area, Cuttack - OSPCB",20-07-2024 01:00:00,20.48891     ,85.84768     ,PM10,NA,NA,NA
India,Odisha,Keonjhar,"Jagamohanpur, Keonjhar - OSPCB",20-07-2024 01:00:00,21.643900,85.599355,PM10,NA,NA,NA
India,Odisha,Nayagarh,"Dabuna, Nayagarh - OSPCB",20-07-2024 01:00:00,21.847279,85.416905,SO2,NA,NA,NA
India,Odisha,Rairangpur,"Divisional Forest Office, Rairangpur - OSPCB",20-07-2024 01:00:00,22.265816,86.174829,PM10,26,47,37
India,Odisha,Rairangpur,"Divisional Forest Office, Rairangpur - OSPCB",20-07-2024 01:00:00,22.265816,86.174829,NO2,NA,NA,NA
India,Odisha,Rourkela,"Fertilizer Township, Rourkela - OSPCB",20-07-2024 01:00:00,22.18972222,84.86277778,CO,18,29,23
India,Odisha,Suakati,"OMC Colony, Suakati - OSPCB",20-07-2024 01:00:00,21.606865,85.510538,SO2,6,8,7
India,Odisha,Talcher,"Talcher Coalfields,Talcher - OSPCB",20-07-2024 01:00:00,20.9360711,85.1707021,SO2,19,27,24
India,Puducherry,Puducherry,"Jawahar Nagar, Puducherry - PPCC",20-07-2024 01:00:00,11.9309,79.8027,SO2,8,14,11
India,Punjab,Amritsar,"Golden Temple, Amritsar - PPCB",20-07-2024 01:00:00,31.620000,74.876512,NH3,3,4,4
India,Punjab,Bathinda,"Hardev Nagar, Bathinda - PPCB",20-07-2024 01:00:00,30.233011,74.907758,PM2.5,63,244,116
India,Punjab,Jalandhar,"Civil Line, Jalandhar - PPCB",20-07-2024 01:00:00,31.321907,75.578914,PM10,57,107,84
India,Punjab,Khanna,"Kalal Majra, Khanna - PPCB",20-07-2024 01:00:00,30.736056 ,76.209694,PM10,48,109,82
India,Punjab,Khanna,"Kalal Majra, Khanna - PPCB",20-07-2024 01:00:00,30.736056 ,76.209694,CO,18,26,21
India,Punjab,Khanna,"Kalal Majra, Khanna - PPCB",20-07-2024 01:00:00,30.736056 ,76.209694,OZONE,26,48,41
India,Punjab,Ludhiana,"Punjab Agricultural University, Ludhiana - PPCB",20-07-2024 01:00:00,30.9028,75.8086,NO2,22,26,24
India,Punjab,Mandi Gobindgarh,"RIMT University, Mandi Gobindgarh - PPCB",20-07-2024 01:00:00,30.649961,76.331442,PM10,17,195,74
India,Punjab,Mandi Gobindgarh,"RIMT University, Mandi Gobindgarh - PPCB",20-07-2024 01:00:00,30.649961,76.331442,SO2,7,16,10
India,Punjab,Patiala,"Model Town, Patiala - PPCB",20-07-2024 01:00:00,30.349388,76.366642,NH3,5,5,5
India,Punjab,Patiala,"Model Town, Patiala - PPCB",20-07-2024 01:00:00,30.349388,76.366642,SO2,6,16,10
India,Punjab,Rupnagar,"Ratanpura, Rupnagar - Ambuja Cements",20-07-2024 01:00:00,31.0325454,76.5623046,SO2,4,5,4
India,Rajasthan,Ajmer,"Civil Lines,  Ajmer - RSPCB",20-07-2024 01:00:00,26.470859,74.646594,PM10,50,73,61
India,Rajasthan,Alwar,"Moti Doongri, Alwar - RSPCB",20-07-2024 01:00:00,27.554793,76.611536,PM10,49,85,66
India,Rajasthan,Banswara,"Rati Talai, Banswara - RSPCB",20-07-2024 01:00:00,23.555190,74.440010,PM2.5,3,92,37
India,Rajasthan,Banswara,"Rati Talai, Banswara - RSPCB",20-07-2024 01:00:00,23.555190,74.440010,PM10,3,96,39
India,Rajasthan,Barmer,"Railway Colony, Barmer - RSPCB",20-07-2024 01:00:00,25.747299,71.393989,PM2.5,2,36,17
India,Rajasthan,Barmer,"Railway Colony, Barmer - RSPCB",20-07-2024 01:00:00,25.747299,71.393989,NH3,4,7,5
India,Rajasthan,Barmer,"Railway Colony, Barmer - RSPCB",20-07-2024 01:00:00,25.747299,71.393989,CO,18,40,31
India,Rajasthan,Bharatpur,"Krishna Nagar, Bharatpur - RSPCB",20-07-2024 01:00:00,27.215415,77.50873,PM2.5,15,312,70
India,Rajasthan,Bharatpur,"Krishna Nagar, Bharatpur - RSPCB",20-07-2024 01:00:00,27.215415,77.50873,CO,31,173,92
India,Rajasthan,Bhilwara,"Pratap Nagar, Bhilwara - RSPCB",20-07-2024 01:00:00,25.339605,74.618883,NH3,1,2,2
India,Rajasthan,Bhiwadi,"Vasundhara Nagar_UIT, Bhiwadi - RSPCB",20-07-2024 01:00:00,28.207266,76.829265,NO2,14,128,36
India,Rajasthan,Bhiwadi,"Vasundhara Nagar_UIT, Bhiwadi - RSPCB",20-07-2024 01:00:00,28.207266,76.829265,CO,20,54,29
India,Rajasthan,Bhiwadi,"Vasundhara Nagar_UIT, Bhiwadi - RSPCB",20-07-2024 01:00:00,28.207266,76.829265,OZONE,NA,NA,NA
India,Rajasthan,Bundi,"New Colony, Bundi - RSPCB",20-07-2024 01:00:00,25.435774,75.644272,PM2.5,5,111,40
India,Rajasthan,Chittorgarh,"Shastri Nagar, Chittorgarh - RSPCB",20-07-2024 01:00:00,24.892047,74.623527,PM2.5,8,223,78
India,Rajasthan,Chittorgarh,"Shastri Nagar, Chittorgarh - RSPCB",20-07-2024 01:00:00,24.892047,74.623527,NO2,12,38,23
India,Rajasthan,Churu,"Subash Chowk, Churu - RSPCB",20-07-2024 01:00:00,28.296139,74.961696,PM2.5,25,57,41
India,Rajasthan,Churu,"Subash Chowk, Churu - RSPCB",20-07-2024 01:00:00,28.296139,74.961696,SO2,1,5,2
India,Rajasthan,Dholpur,"Raja Ganj, Dholpur - RSPCB",20-07-2024 01:00:00,26.699557,77.898881,NO2,2,12,6
India,Rajasthan,Dholpur,"Raja Ganj, Dholpur - RSPCB",20-07-2024 01:00:00,26.699557,77.898881,NH3,6,43,11
India,Rajasthan,Dholpur,"Raja Ganj, Dholpur - RSPCB",20-07-2024 01:00:00,26.699557,77.898881,SO2,3,12,7
India,Rajasthan,Dholpur,"Raja Ganj, Dholpur - RSPCB",20-07-2024 01:00:00,26.699557,77.898881,CO,6,22,11
India,Rajasthan,Dholpur,"Raja Ganj, Dholpur - RSPCB",20-07-2024 01:00:00,26.699557,77.898881,OZONE,51,85,57
India,Rajasthan,Dungarpur,"Bhoiwada, Dungarpur - RSPCB",20-07-2024 01:00:00,23.837789,73.714926,PM10,NA,NA,NA
India,Rajasthan,Dungarpur,"Bhoiwada, Dungarpur - RSPCB",20-07-2024 01:00:00,23.837789,73.714926,NH3,3,4,3
India,Rajasthan,Dungarpur,"Bhoiwada, Dungarpur - RSPCB",20-07-2024 01:00:00,23.837789,73.714926,SO2,2,8,4
India,Rajasthan,Jaipur,"Adarsh Nagar, Jaipur - RSPCB",20-07-2024 01:00:00,26.902909,75.836858,PM2.5,NA,NA,NA
India,Rajasthan,Jaipur,"Adarsh Nagar, Jaipur - RSPCB",20-07-2024 01:00:00,26.902909,75.836858,PM10,NA,NA,NA
India,Rajasthan,Jaipur,"Adarsh Nagar, Jaipur - RSPCB",20-07-2024 01:00:00,26.902909,75.836858,OZONE,36,64,50
India,Rajasthan,Jaipur,"Mansarovar Sector-12, Jaipur - RSPCB",20-07-2024 01:00:00,26.843698,75.766894,PM10,27,71,49
India,Rajasthan,Jaipur,"Mansarovar Sector-12, Jaipur - RSPCB",20-07-2024 01:00:00,26.843698,75.766894,CO,16,32,26
India,Rajasthan,Jaipur,"Mansarovar Sector-12, Jaipur - RSPCB",20-07-2024 01:00:00,26.843698,75.766894,OZONE,19,84,58
India,Rajasthan,Jaipur,"Police Commissionerate, Jaipur - RSPCB",20-07-2024 01:00:00,26.9164092,75.7994901,PM10,34,120,64
India,Rajasthan,Jaipur,"RIICO Sitapura, Jaipur - RSPCB",20-07-2024 01:00:00,26.786682,75.827928,SO2,1,1,1
India,Rajasthan,Jaipur,"RIICO Sitapura, Jaipur - RSPCB",20-07-2024 01:00:00,26.786682,75.827928,CO,26,105,92
India,Rajasthan,Jaipur,"Sector-2 Murlipura, Jaipur - RSPCB",20-07-2024 01:00:00,26.960669,75.771817,CO,1,14,11
India,Rajasthan,Jaipur,"Shastri Nagar, Jaipur - RSPCB",20-07-2024 01:00:00,26.9502929,75.730943,CO,21,68,45
India,Rajasthan,Jaisalmer,"Sadar Bazar, Jaisalmer - RSPCB",20-07-2024 01:00:00,26.912329,70.909168,PM10,8,105,50
India,Rajasthan,Jaisalmer,"Sadar Bazar, Jaisalmer - RSPCB",20-07-2024 01:00:00,26.912329,70.909168,OZONE,1,11,1
India,Rajasthan,Jalore,"Mudtra Sili, Jalore - RSPCB",20-07-2024 01:00:00,25.344694,72.626208,PM2.5,3,61,22
India,Rajasthan,Jhunjhunu,"Indra Nagar, Jhunjhunu - RSPCB",20-07-2024 01:00:00,28.108988,75.386577,SO2,3,4,4
India,Rajasthan,Jodhpur,"Mandor, Jodhpur - RSPCB",20-07-2024 01:00:00,26.358805,73.047444,PM10,4,46,28
India,Rajasthan,Jodhpur,"Mandor, Jodhpur - RSPCB",20-07-2024 01:00:00,26.358805,73.047444,CO,13,26,19
India,Rajasthan,Jodhpur,"Samrat Ashok Udhyan, Jodhpur - RSPCB",20-07-2024 01:00:00,26.253384,72.976571,OZONE,13,60,23
India,Rajasthan,Karauli,"Satyawati Vihar, Karauli - RSPCB",20-07-2024 01:00:00,26.506177,77.025989,NH3,NA,NA,NA
India,Rajasthan,Kota,"Dhanmandi, Kota - RSPCB",20-07-2024 01:00:00,25.164090,75.858137,CO,6,69,40
India,Rajasthan,Kota,"Nayapura, Kota - RSPCB",20-07-2024 01:00:00,25.196024,75.855668,PM10,19,103,51
India,Rajasthan,Kota,"Nayapura, Kota - RSPCB",20-07-2024 01:00:00,25.196024,75.855668,OZONE,21,80,34
India,Rajasthan,Kota,"Shrinath Puram, Kota - RSPCB",20-07-2024 01:00:00,25.14389,75.821256,PM2.5,21,315,106
India,Rajasthan,Kota,"Shrinath Puram, Kota - RSPCB",20-07-2024 01:00:00,25.14389,75.821256,NO2,14,48,22
India,Rajasthan,Kota,"Shrinath Puram, Kota - RSPCB",20-07-2024 01:00:00,25.14389,75.821256,SO2,4,13,8
India,Rajasthan,Pali,"Indira Colony Vistar, Pali - RSPCB",20-07-2024 01:00:00,25.771061, 73.340227,PM2.5,10,62,28
India,Rajasthan,Pali,"Indira Colony Vistar, Pali - RSPCB",20-07-2024 01:00:00,25.771061, 73.340227,SO2,6,8,7
India,Rajasthan,Pratapgarh,"Pragati Nagar, Pratapgarh - RSPCB",20-07-2024 01:00:00,24.041198,74.780702,NO2,4,22,12
India,Rajasthan,Rajsamand,"Dhoinda, Rajsamand - RSPCB",20-07-2024 01:00:00,25.036360,73.883502,PM10,34,75,47
India,Rajasthan,Rajsamand,"Dhoinda, Rajsamand - RSPCB",20-07-2024 01:00:00,25.036360,73.883502,SO2,7,11,9
India,Rajasthan,Sawai Madhopur,"Sahu Nagar, Sawai Madhopur - RSPCB",20-07-2024 01:00:00,26.031443,76.359327,NO2,1,6,3
India,Rajasthan,Sikar,"Radhakishan Pura, Sikar - RSPCB",20-07-2024 01:00:00,27.608912,75.153302,PM2.5,28,80,42
India,Rajasthan,Sikar,"Radhakishan Pura, Sikar - RSPCB",20-07-2024 01:00:00,27.608912,75.153302,PM10,26,98,45
India,Rajasthan,Sikar,"Radhakishan Pura, Sikar - RSPCB",20-07-2024 01:00:00,27.608912,75.153302,NO2,5,20,10
India,Rajasthan,Sikar,"Radhakishan Pura, Sikar - RSPCB",20-07-2024 01:00:00,27.608912,75.153302,NH3,7,16,10
India,Rajasthan,Sikar,"Radhakishan Pura, Sikar - RSPCB",20-07-2024 01:00:00,27.608912,75.153302,OZONE,28,164,66
India,Rajasthan,Sirohi,"Vedhaynath Colony, Sirohi - RSPCB",20-07-2024 01:00:00,24.885261,72.857549,NH3,3,7,5
India,Rajasthan,Tonk,"Shastri Nagar, Tonk - RSPCB",20-07-2024 01:00:00,26.159933,75.780517,NO2,5,11,9
India,Rajasthan,Udaipur,"Ashok Nagar, Udaipur - RSPCB",20-07-2024 01:00:00,24.5886166,73.6321397,PM10,35,110,72
India,Sikkim,Gangtok,"Zero Point GICI, Gangtok - SSPCB",20-07-2024 01:00:00,27.338530,88.614099,SO2,13,14,13
India,TamilNadu,Chennai,"Alandur Bus Depot, Chennai - CPCB",20-07-2024 01:00:00,12.9099161,80.1076538,PM10,23,408,89
India,TamilNadu,Chennai,"Kodungaiyur, Chennai - TNPCB",20-07-2024 01:00:00,13.1278,80.2642,PM10,8,58,38
India,TamilNadu,Chennai,"Manali, Chennai - CPCB",20-07-2024 01:00:00,13.164544,80.26285,CO,90,107,101
India,TamilNadu,Chennai,"Perungudi, Chennai - TNPCB",20-07-2024 01:00:00,12.9533,80.2357,PM2.5,7,22,14
India,TamilNadu,Chennai,"Perungudi, Chennai - TNPCB",20-07-2024 01:00:00,12.9533,80.2357,OZONE,12,16,14
India,TamilNadu,Chennai,"Royapuram, Chennai - TNPCB",20-07-2024 01:00:00,13.1036,80.2909,NH3,2,3,3
India,TamilNadu,Chennai,"Velachery Res. Area, Chennai - CPCB",20-07-2024 01:00:00,13.0052189,80.2398125,NH3,2,28,11
India,TamilNadu,Coimbatore,"PSG College of Arts and Science, Coimbatore - TNPCB",20-07-2024 01:00:00,11.0328,77.0349,CO,NA,NA,NA
India,TamilNadu,Cuddalore,"Kudikadu, Cuddalore - TNPCB",20-07-2024 01:00:00,11.6829898,79.7532099,PM10,10,44,21
India,TamilNadu,Gummidipoondi,"Anthoni Pillai Nagar, Gummidipoondi - TNPCB",20-07-2024 01:00:00,13.4127,80.1081,PM10,53,118,81
India,TamilNadu,Gummidipoondi,"Anthoni Pillai Nagar, Gummidipoondi - TNPCB",20-07-2024 01:00:00,13.4127,80.1081,NO2,14,33,22
India,TamilNadu,Ooty,"Bombay Castel, Ooty - TNPCB",20-07-2024 01:00:00,11.4068288,76.7138973,PM2.5,NA,NA,NA
India,TamilNadu,Ooty,"Bombay Castel, Ooty - TNPCB",20-07-2024 01:00:00,11.4068288,76.7138973,PM10,NA,NA,NA
India,TamilNadu,Ooty,"Bombay Castel, Ooty - TNPCB",20-07-2024 01:00:00,11.4068288,76.7138973,CO,19,19,19
India,TamilNadu,Palkalaiperur,"Bharathidasan University, Palkalaiperur - TNPCB",20-07-2024 01:00:00,10.681158,78.741746,CO,1,11,5
India,TamilNadu,Ramanathapuram,"Chalai Bazaar, Ramanathapuram - TNPCB",20-07-2024 01:00:00,9.36399,78.831977,NH3,1,1,1
India,TamilNadu,Thoothukudi,"Meelavittan, Thoothukudi - TNPCB",20-07-2024 01:00:00,8.816428 ,78.099039,PM10,32,117,69
India,TamilNadu,Vellore,"Vasanthapuram, Vellore - TNPCB",20-07-2024 01:00:00,12.909494,79.131861,PM10,8,42,21
India,TamilNadu,Vellore,"Vasanthapuram, Vellore - TNPCB",20-07-2024 01:00:00,12.909494,79.131861,SO2,NA,NA,NA
India,Telangana,Hyderabad,"Bollaram Industrial Area, Hyderabad - TSPCB",20-07-2024 01:00:00,17.540891,78.358528,PM10,NA,NA,NA
India,Telangana,Hyderabad,"Bollaram Industrial Area, Hyderabad - TSPCB",20-07-2024 01:00:00,17.540891,78.358528,NH3,NA,NA,NA
India,Telangana,Hyderabad,"Bollaram Industrial Area, Hyderabad - TSPCB",20-07-2024 01:00:00,17.540891,78.358528,CO,2,32,16
India,Telangana,Hyderabad,"Bollaram Industrial Area, Hyderabad - TSPCB",20-07-2024 01:00:00,17.540891,78.358528,OZONE,29,36,33
India,Telangana,Hyderabad,"Central University, Hyderabad - TSPCB",20-07-2024 01:00:00,17.460103,78.334361,SO2,3,10,6
India,Telangana,Hyderabad,"Central University, Hyderabad - TSPCB",20-07-2024 01:00:00,17.460103,78.334361,OZONE,3,4,3
India,Telangana,Hyderabad,"ECIL Kapra, Hyderabad - TSPCB",20-07-2024 01:00:00,17.470431,78.566959,PM2.5,48,52,50
India,Telangana,Hyderabad,"ECIL Kapra, Hyderabad - TSPCB",20-07-2024 01:00:00,17.470431,78.566959,NO2,1,23,8
India,Telangana,Hyderabad,"ICRISAT Patancheru, Hyderabad - TSPCB",20-07-2024 01:00:00,17.518400,78.278777,NH3,1,33,3
India,Telangana,Hyderabad,"IDA Pashamylaram, Hyderabad - TSPCB",20-07-2024 01:00:00,17.5316895,78.218939,OZONE,5,11,9
India,Telangana,Hyderabad,"IITH Kandi, Hyderabad - TSPCB",20-07-2024 01:00:00,17.585705,78.126199,SO2,NA,NA,NA
India,Telangana,Hyderabad,"IITH Kandi, Hyderabad - TSPCB",20-07-2024 01:00:00,17.585705,78.126199,OZONE,23,31,27
India,Telangana,Hyderabad,"Kokapet, Hyderabad - TSPCB",20-07-2024 01:00:00,17.393559,78.339194,PM10,74,87,80
India,Telangana,Hyderabad,"Kokapet, Hyderabad - TSPCB",20-07-2024 01:00:00,17.393559,78.339194,OZONE,5,8,6
India,Telangana,Hyderabad,"Kompally Municipal Office, Hyderabad - TSPCB",20-07-2024 01:00:00,17.544899,78.486949,PM2.5,NA,NA,NA
India,Telangana,Hyderabad,"Kompally Municipal Office, Hyderabad - TSPCB",20-07-2024 01:00:00,17.544899,78.486949,CO,6,7,7
India,Telangana,Hyderabad,"New Malakpet, Hyderabad - TSPCB",20-07-2024 01:00:00,17.37206,78.50864,PM10,59,74,64
India,Telangana,Hyderabad,"Ramachandrapuram, Hyderabad - TSPCB",20-07-2024 01:00:00,17.528544,78.286195,PM10,NA,NA,NA
India,Telangana,Hyderabad,"Ramachandrapuram, Hyderabad - TSPCB",20-07-2024 01:00:00,17.528544,78.286195,OZONE,16,33,19
India,Telangana,Hyderabad,"Somajiguda, Hyderabad - TSPCB",20-07-2024 01:00:00,17.417094,78.457437,NO2,NA,NA,NA
India,Telangana,Hyderabad,"Zoo Park, Hyderabad - TSPCB",20-07-2024 01:00:00,17.349694,78.451437,PM2.5,2,10,5
India,Telangana,Hyderabad,"Zoo Park, Hyderabad - TSPCB",20-07-2024 01:00:00,17.349694,78.451437,SO2,1,3,2
India,Tripura,Agartala,"Bardowali, Agartala - Tripura SPCB",20-07-2024 01:00:00,23.8175497,91.2726974,PM2.5,11,61,32
India,Tripura,Agartala,"Bardowali, Agartala - Tripura SPCB",20-07-2024 01:00:00,23.8175497,91.2726974,NO2,3,13,6
India,Tripura,Agartala,"Bardowali, Agartala - Tripura SPCB",20-07-2024 01:00:00,23.8175497,91.2726974,SO2,40,51,48
India,Uttar_Pradesh,Agra,"Manoharpur, Agra - UPPCB",20-07-2024 01:00:00,27.23711,78.01936,PM10,21,81,40
India,Uttar_Pradesh,Agra,"Rohta, Agra - UPPCB",20-07-2024 01:00:00,27.106972,78.000111,SO2,5,8,6
India,Uttar_Pradesh,Agra,"Sanjay Palace, Agra - UPPCB",20-07-2024 01:00:00,27.19865833,78.00598056,CO,10,16,12
India,Uttar_Pradesh,Agra,"Sanjay Palace, Agra - UPPCB",20-07-2024 01:00:00,27.19865833,78.00598056,OZONE,35,44,36
India,Uttar_Pradesh,Agra,"Sector-3B Avas Vikas Colony, Agra - UPPCB",20-07-2024 01:00:00,27.19412,77.96237,PM2.5,8,29,17
India,Uttar_Pradesh,Agra,"Sector-3B Avas Vikas Colony, Agra - UPPCB",20-07-2024 01:00:00,27.19412,77.96237,CO,10,20,14
India,Uttar_Pradesh,Agra,"Sector-3B Avas Vikas Colony, Agra - UPPCB",20-07-2024 01:00:00,27.19412,77.96237,OZONE,34,38,36
India,Uttar_Pradesh,Agra,"Shastripuram, Agra - UPPCB",20-07-2024 01:00:00,27.19862,77.92066,CO,12,15,13
India,Uttar_Pradesh,Agra,"Shastripuram, Agra - UPPCB",20-07-2024 01:00:00,27.19862,77.92066,OZONE,1,6,1
India,Uttar_Pradesh,Baghpat,"Sardar Patel Inter College, Baghpat - UPPCB",20-07-2024 01:00:00,28.964949,77.278761,PM10,86,136,110
India,Uttar_Pradesh,Bareilly,"Rajendra Nagar, Bareilly - UPPCB",20-07-2024 01:00:00,28.38910936,79.42963708,PM10,12,19,16
India,Uttar_Pradesh,Bareilly,"Rajendra Nagar, Bareilly - UPPCB",20-07-2024 01:00:00,28.38910936,79.42963708,NO2,2,2,2
India,Uttar_Pradesh,Bulandshahr,"Yamunapuram, Bulandshahr - UPPCB",20-07-2024 01:00:00,28.406963,77.849831,PM10,65,139,104
India,Uttar_Pradesh,Bulandshahr,"Yamunapuram, Bulandshahr - UPPCB",20-07-2024 01:00:00,28.406963,77.849831,OZONE,2,33,14
India,Uttar_Pradesh,Firozabad,"Nagla Bhau, Firozabad - UPPCB",20-07-2024 01:00:00,27.168897,78.376960,PM10,NA,NA,NA
India,Uttar_Pradesh,Firozabad,"Nagla Bhau, Firozabad - UPPCB",20-07-2024 01:00:00,27.168897,78.376960,NH3,NA,NA,NA
India,Uttar_Pradesh,Firozabad,"Nagla Bhau, Firozabad - UPPCB",20-07-2024 01:00:00,27.168897,78.376960,SO2,NA,NA,NA
India,Uttar_Pradesh,Firozabad,"Vibhab Nagar, Firozabad - UPPCB",20-07-2024 01:00:00,27.1594,78.3953,PM2.5,28,67,41
India,Uttar_Pradesh,Firozabad,"Vibhab Nagar, Firozabad - UPPCB",20-07-2024 01:00:00,27.1594,78.3953,NO2,10,14,14
India,Uttar_Pradesh,Ghaziabad,"Indirapuram, Ghaziabad - UPPCB",20-07-2024 01:00:00,28.646233,77.358075,PM10,115,168,137
India,Uttar_Pradesh,Ghaziabad,"Indirapuram, Ghaziabad - UPPCB",20-07-2024 01:00:00,28.646233,77.358075,NO2,39,71,50
India,Uttar_Pradesh,Ghaziabad,"Vasundhara, Ghaziabad - UPPCB",20-07-2024 01:00:00,28.6603346,77.3572563,PM2.5,92,253,146
India,Uttar_Pradesh,Gorakhpur,"Madan Mohan Malaviya University of Technology, Gorakhpur - UPPCB",20-07-2024 01:00:00,26.730136,83.433859,CO,1,22,6
India,Uttar_Pradesh,Greater Noida,"Knowledge Park - III, Greater Noida - UPPCB",20-07-2024 01:00:00,28.47272,77.482000,PM10,104,176,139
India,Uttar_Pradesh,Greater Noida,"Knowledge Park - III, Greater Noida - UPPCB",20-07-2024 01:00:00,28.47272,77.482000,NH3,7,14,11
India,Uttar_Pradesh,Greater Noida,"Knowledge Park - III, Greater Noida - UPPCB",20-07-2024 01:00:00,28.47272,77.482000,SO2,1,13,6
India,Uttar_Pradesh,Greater Noida,"Knowledge Park - V, Greater Noida - UPPCB",20-07-2024 01:00:00,28.557054,77.453663,NO2,13,36,20
India,Uttar_Pradesh,Greater Noida,"Knowledge Park - V, Greater Noida - UPPCB",20-07-2024 01:00:00,28.557054,77.453663,NH3,4,6,5
India,Uttar_Pradesh,Greater Noida,"Knowledge Park - V, Greater Noida - UPPCB",20-07-2024 01:00:00,28.557054,77.453663,OZONE,1,33,15
India,Uttar_Pradesh,Jhansi,"Shivaji Nagar, Jhansi - UPPCB",20-07-2024 01:00:00,25.4547,78.6039,PM10,22,127,49
India,Uttar_Pradesh,Jhansi,"Shivaji Nagar, Jhansi - UPPCB",20-07-2024 01:00:00,25.4547,78.6039,NO2,6,7,6
India,Uttar_Pradesh,Jhansi,"Shivaji Nagar, Jhansi - UPPCB",20-07-2024 01:00:00,25.4547,78.6039,OZONE,1,12,6
India,Uttar_Pradesh,Kanpur,"FTI Kidwai Nagar, Kanpur - UPPCB",20-07-2024 01:00:00,26.428282,80.327067,CO,29,50,37
India,Uttar_Pradesh,Kanpur,"FTI Kidwai Nagar, Kanpur - UPPCB",20-07-2024 01:00:00,26.428282,80.327067,OZONE,13,38,19
India,Uttar_Pradesh,Kanpur,"NSI Kalyanpur, Kanpur - UPPCB",20-07-2024 01:00:00,26.509954,80.249612,SO2,18,22,20
India,Uttar_Pradesh,Lucknow,"B R Ambedkar University, Lucknow - UPPCB",20-07-2024 01:00:00,26.766433,80.927299,NH3,2,3,3
India,Uttar_Pradesh,Lucknow,"B R Ambedkar University, Lucknow - UPPCB",20-07-2024 01:00:00,26.766433,80.927299,SO2,13,14,13
India,Uttar_Pradesh,Lucknow,"Gomti Nagar, Lucknow - UPPCB",20-07-2024 01:00:00,26.868120,81.005119,PM10,21,60,39
India,Uttar_Pradesh,Lucknow,"Gomti Nagar, Lucknow - UPPCB",20-07-2024 01:00:00,26.868120,81.005119,CO,38,42,40
India,Uttar_Pradesh,Lucknow,"Kukrail Picnic Spot-1, Lucknow - UPPCB",20-07-2024 01:00:00,26.90723,80.98579,OZONE,5,20,13
India,Uttar_Pradesh,Lucknow,"Lalbagh, Lucknow - CPCB",20-07-2024 01:00:00,26.8458805,80.9365541,CO,12,111,100
India,Uttar_Pradesh,Lucknow,"Lalbagh, Lucknow - CPCB",20-07-2024 01:00:00,26.8458805,80.9365541,OZONE,13,43,31
India,Uttar_Pradesh,Lucknow,"Talkatora District Industries Center, Lucknow - CPCB",20-07-2024 01:00:00,26.83399722,80.8917361,NO2,10,20,14
India,Uttar_Pradesh,Lucknow,"Talkatora District Industries Center, Lucknow - CPCB",20-07-2024 01:00:00,26.83399722,80.8917361,NH3,3,6,5
India,Uttar_Pradesh,Meerut,"Ganga Nagar, Meerut - UPPCB",20-07-2024 01:00:00,28.999264,77.7590354,OZONE,4,13,9
India,Uttar_Pradesh,Meerut,"Jai Bhim Nagar, Meerut - UPPCB",20-07-2024 01:00:00,28.9535882,77.7622941,SO2,7,8,8
India,Uttar_Pradesh,Moradabad,"Buddhi Vihar, Moradabad - UPPCB",20-07-2024 01:00:00,28.83526,78.74460,NO2,18,23,23
India,Uttar_Pradesh,Moradabad,"Buddhi Vihar, Moradabad - UPPCB",20-07-2024 01:00:00,28.83526,78.74460,SO2,22,27,24
India,Uttar_Pradesh,Moradabad,"Buddhi Vihar, Moradabad - UPPCB",20-07-2024 01:00:00,28.83526,78.74460,OZONE,6,18,9
India,Uttar_Pradesh,Moradabad,"Eco Herbal Park, Moradabad - UPPCB",20-07-2024 01:00:00,28.840739,78.697531,SO2,9,20,15
India,Uttar_Pradesh,Moradabad,"Eco Herbal Park, Moradabad - UPPCB",20-07-2024 01:00:00,28.840739,78.697531,CO,16,36,31
India,Uttar_Pradesh,Moradabad,"Employment Office, Moradabad - UPPCB",20-07-2024 01:00:00,28.88528,78.73880,PM10,30,52,39
India,Uttar_Pradesh,Moradabad,"Jigar Colony, Moradabad - UPPCB",20-07-2024 01:00:00,28.856664,78.772638,CO,1,38,4
India,Uttar_Pradesh,Moradabad,"Jigar Colony, Moradabad - UPPCB",20-07-2024 01:00:00,28.856664,78.772638,OZONE,3,15,6
India,Uttar_Pradesh,Moradabad,"Kashiram Nagar, Moradabad - UPPCB",20-07-2024 01:00:00,28.849399,78.742362,SO2,3,32,19
India,Uttar_Pradesh,Moradabad,"Transport Nagar, Moradabad - UPPCB",20-07-2024 01:00:00,28.802625,78.753728,PM2.5,21,43,32
India,Uttar_Pradesh,Moradabad,"Transport Nagar, Moradabad - UPPCB",20-07-2024 01:00:00,28.802625,78.753728,NH3,5,6,5
India,Uttar_Pradesh,Moradabad,"Transport Nagar, Moradabad - UPPCB",20-07-2024 01:00:00,28.802625,78.753728,OZONE,22,51,30
India,Uttar_Pradesh,Muzaffarnagar,"New Mandi, Muzaffarnagar - UPPCB",20-07-2024 01:00:00,29.4723508,77.7194031,PM2.5,65,231,117
India,Uttar_Pradesh,Muzaffarnagar,"New Mandi, Muzaffarnagar - UPPCB",20-07-2024 01:00:00,29.4723508,77.7194031,NO2,3,26,9
India,Uttar_Pradesh,Muzaffarnagar,"New Mandi, Muzaffarnagar - UPPCB",20-07-2024 01:00:00,29.4723508,77.7194031,SO2,13,28,21
India,Uttar_Pradesh,Noida,"Sector - 125, Noida - UPPCB",20-07-2024 01:00:00,28.5447608,77.3231257,NO2,2,71,23
India,Uttar_Pradesh,Noida,"Sector - 62, Noida - IMD",20-07-2024 01:00:00,28.6245479,77.3577104,CO,48,80,51
India,Uttar_Pradesh,Noida,"Sector-1, Noida - UPPCB",20-07-2024 01:00:00,28.5898,77.3101,SO2,9,15,12
India,Uttar_Pradesh,Noida,"Sector-116, Noida - UPPCB",20-07-2024 01:00:00,28.569230,77.393848,CO,13,100,63
India,Uttar_Pradesh,Prayagraj,"Jhunsi, Prayagraj - UPPCB",20-07-2024 01:00:00,25.425602,81.917152,CO,10,20,17
India,Uttar_Pradesh,Prayagraj,"Motilal Nehru NIT, Prayagraj - UPPCB",20-07-2024 01:00:00,25.494,81.863,SO2,17,53,26
India,Uttar_Pradesh,Prayagraj,"Nagar Nigam, Prayagraj - UPPCB",20-07-2024 01:00:00,25.44919916 ,81.82735986 ,CO,10,24,19
India,Uttar_Pradesh,Varanasi,"Bhelupur, Varanasi - UPPCB",20-07-2024 01:00:00,25.301778,82.996789,NH3,1,1,1
India,Uttar_Pradesh,Varanasi,"Bhelupur, Varanasi - UPPCB",20-07-2024 01:00:00,25.301778,82.996789,CO,12,20,18
India,Uttar_Pradesh,Varanasi,"IESD Banaras Hindu University, Varanasi - UPPCB",20-07-2024 01:00:00,25.262326,82.995408,CO,1,5,2
India,Uttar_Pradesh,Varanasi,"Maldahiya, Varanasi - UPPCB",20-07-2024 01:00:00,25.32393,82.99687,NH3,NA,NA,NA
India,Uttar_Pradesh,Vrindavan,"Omex Eternity, Vrindavan - UPPCB",20-07-2024 01:00:00,27.5714090,77.6557570,PM10,24,300,95
India,Uttarakhand,Dehradun,"Doon University, Dehradun - UKPCB",20-07-2024 01:00:00,30.269444,78.044167,OZONE,4,35,26
India,Uttarakhand,Rishikesh,"Shivaji Nagar, Rishikesh - UKPCB",20-07-2024 01:00:00,30.075911,78.2859547,NO2,NA,NA,NA
India,Uttarakhand,Rishikesh,"Shivaji Nagar, Rishikesh - UKPCB",20-07-2024 01:00:00,30.075911,78.2859547,NH3,NA,NA,NA
India,Uttarakhand,Rishikesh,"Shivaji Nagar, Rishikesh - UKPCB",20-07-2024 01:00:00,30.075911,78.2859547,CO,9,32,10
India,West_Bengal,Asansol,"Evelyn Lodge, Asansol - WBPCB",20-07-2024 01:00:00,23.6979360,86.9443950,CO,7,20,12
India,West_Bengal,Asansol,"Trivenidevi Bhalotia College, Asansol - WBPCB",20-07-2024 01:00:00,23.616515,87.119133,PM2.5,5,128,44
India,West_Bengal,Asansol,"Trivenidevi Bhalotia College, Asansol - WBPCB",20-07-2024 01:00:00,23.616515,87.119133,NH3,2,5,3
India,West_Bengal,Asansol,"Trivenidevi Bhalotia College, Asansol - WBPCB",20-07-2024 01:00:00,23.616515,87.119133,CO,61,85,77
India,West_Bengal,Barrackpore,"SVSPA Campus, Barrackpore - WBPCB",20-07-2024 01:00:00,22.7605581,88.3617589,CO,24,40,34
India,West_Bengal,Barrackpore,"SVSPA Campus, Barrackpore - WBPCB",20-07-2024 01:00:00,22.7605581,88.3617589,OZONE,3,18,9
India,West_Bengal,Durgapur,"PCBL Residential Complex, Durgapur - WBPCB",20-07-2024 01:00:00,23.5087640,87.3544400,PM10,6,87,43
India,West_Bengal,Durgapur,"Sidhu Kanhu Indoor Stadium, Durgapur - WBPCB",20-07-2024 01:00:00,23.5404352,87.2892225,PM2.5,NA,NA,NA
India,West_Bengal,Haldia,"Priyambada Housing Estate, Haldia - WBPCB",20-07-2024 01:00:00,22.06047,88.109737,PM2.5,8,279,51
India,West_Bengal,Haldia,"Priyambada Housing Estate, Haldia - WBPCB",20-07-2024 01:00:00,22.06047,88.109737,PM10,15,118,41
India,West_Bengal,Haldia,"Priyambada Housing Estate, Haldia - WBPCB",20-07-2024 01:00:00,22.06047,88.109737,NH3,2,3,2
India,West_Bengal,Howrah,"Belur Math, Howrah - WBPCB",20-07-2024 01:00:00,22.629801,88.352017,PM2.5,4,30,12
India,West_Bengal,Howrah,"Belur Math, Howrah - WBPCB",20-07-2024 01:00:00,22.629801,88.352017,NH3,5,6,5
India,West_Bengal,Howrah,"Belur Math, Howrah - WBPCB",20-07-2024 01:00:00,22.629801,88.352017,SO2,8,22,11
India,West_Bengal,Howrah,"Botanical Garden, Howrah - WBPCB",20-07-2024 01:00:00,22.554954,88.292568,PM10,15,61,37
India,West_Bengal,Howrah,"Botanical Garden, Howrah - WBPCB",20-07-2024 01:00:00,22.554954,88.292568,SO2,10,11,10
India,West_Bengal,Howrah,"Ghusuri, Howrah - WBPCB",20-07-2024 01:00:00,22.611968,88.347422,PM2.5,13,29,20
India,West_Bengal,Howrah,"Ghusuri, Howrah - WBPCB",20-07-2024 01:00:00,22.611968,88.347422,NO2,19,19,19
India,West_Bengal,Kolkata,"Ballygunge, Kolkata - WBPCB",20-07-2024 01:00:00,22.5367507,88.3638022,PM10,21,35,27
India,West_Bengal,Kolkata,"Bidhannagar, Kolkata - WBPCB",20-07-2024 01:00:00,22.58157048,88.41002457,CO,38,44,42
India,West_Bengal,Kolkata,"Fort William, Kolkata - WBPCB",20-07-2024 01:00:00,22.556640,88.342674,PM10,20,36,28
India,West_Bengal,Kolkata,"Fort William, Kolkata - WBPCB",20-07-2024 01:00:00,22.556640,88.342674,CO,14,30,24
India,West_Bengal,Kolkata,"Jadavpur, Kolkata - WBPCB",20-07-2024 01:00:00,22.49929,88.36917,NH3,4,5,5
India,West_Bengal,Kolkata,"Jadavpur, Kolkata - WBPCB",20-07-2024 01:00:00,22.49929,88.36917,OZONE,27,38,30
India,West_Bengal,Kolkata,"Rabindra Sarobar, Kolkata - WBPCB",20-07-2024 01:00:00,22.51106,88.35142,NO2,25,62,30
India,West_Bengal,Kolkata,"Rabindra Sarobar, Kolkata - WBPCB",20-07-2024 01:00:00,22.51106,88.35142,SO2,9,11,10
India,West_Bengal,Kolkata,"Victoria, Kolkata - WBPCB",20-07-2024 01:00:00,22.5448082,88.3403691,PM2.5,16,44,24
India,West_Bengal,Kolkata,"Victoria, Kolkata - WBPCB",20-07-2024 01:00:00,22.5448082,88.3403691,NO2,19,21,20
India,West_Bengal,Kolkata,"Victoria, Kolkata - WBPCB",20-07-2024 01:00:00,22.5448082,88.3403691,NH3,5,7,5
India,Andhra_Pradesh,Amaravati,"Secretariat, Amaravati - APPCB",20-07-2024 01:00:00,16.5150833,80.5181667,CO,14,90,23
India,Andhra_Pradesh,Amaravati,"Secretariat, Amaravati - APPCB",20-07-2024 01:00:00,16.5150833,80.5181667,OZONE,11,25,23
India,Andhra_Pradesh,Chittoor,"Gangineni Cheruvu, Chittoor - APPCB",20-07-2024 01:00:00,13.204880,79.097889,NO2,NA,NA,NA
India,Andhra_Pradesh,Chittoor,"Gangineni Cheruvu, Chittoor - APPCB",20-07-2024 01:00:00,13.204880,79.097889,SO2,NA,NA,NA
India,Andhra_Pradesh,Kadapa,"Yerramukkapalli, Kadapa - APPCB",20-07-2024 01:00:00,14.465052,78.824187,PM10,32,49,41
India,Andhra_Pradesh,Kadapa,"Yerramukkapalli, Kadapa - APPCB",20-07-2024 01:00:00,14.465052,78.824187,CO,22,40,32
India,Andhra_Pradesh,Rajamahendravaram,"Anand Kala Kshetram, Rajamahendravaram - APPCB",20-07-2024 01:00:00,16.9872867,81.7363176,NO2,3,30,7
India,Andhra_Pradesh,Tirupati,"Tirumala, Tirupati - APPCB",20-07-2024 01:00:00,13.67,79.35,PM10,13,65,30
India,Andhra_Pradesh,Tirupati,"Tirumala, Tirupati - APPCB",20-07-2024 01:00:00,13.67,79.35,NO2,12,27,19
India,Andhra_Pradesh,Tirupati,"Vaikuntapuram, Tirupati - APPCB",20-07-2024 01:00:00,13.615387,79.409230,PM2.5,NA,NA,NA
India,Andhra_Pradesh,Vijayawada,"HB Colony, Vijayawada - APPCB",20-07-2024 01:00:00,16.536107,80.594233,NH3,4,4,4
India,Andhra_Pradesh,Vijayawada,"Kanuru, Vijayawada - APPCB",20-07-2024 01:00:00,16.486692,80.699436,SO2,6,8,7
India,Andhra_Pradesh,Vijayawada,"Kanuru, Vijayawada - APPCB",20-07-2024 01:00:00,16.486692,80.699436,OZONE,30,31,30
India,Andhra_Pradesh,Vijayawada,"Rajiv Nagar, Vijayawada - APPCB",20-07-2024 01:00:00,16.554731,80.649110,PM2.5,24,43,30
India,Andhra_Pradesh,Vijayawada,"Rajiv Nagar, Vijayawada - APPCB",20-07-2024 01:00:00,16.554731,80.649110,NO2,10,10,10
India,Arunachal_Pradesh,Naharlagun,"Naharlagun, Naharlagun - APSPCB",20-07-2024 01:00:00,27.103358,93.679645,OZONE,3,3,3
India,Assam,Byrnihat,"Central Academy for SFS, Byrnihat - PCBA",20-07-2024 01:00:00,26.071318,91.87488,CO,7,26,12
India,Assam,Guwahati,"IITG, Guwahati - PCBA",20-07-2024 01:00:00,26.2028636,91.70046436,PM2.5,1,23,9
India,Assam,Guwahati,"IITG, Guwahati - PCBA",20-07-2024 01:00:00,26.2028636,91.70046436,NO2,1,3,1
India,Assam,Guwahati,"IITG, Guwahati - PCBA",20-07-2024 01:00:00,26.2028636,91.70046436,NH3,5,5,5
India,Assam,Guwahati,"IITG, Guwahati - PCBA",20-07-2024 01:00:00,26.2028636,91.70046436,CO,6,12,10
India,Assam,Guwahati,"LGBI Airport, Guwahati - PCBA",20-07-2024 01:00:00,26.10887,91.589544,SO2,8,14,10
India,Assam,Guwahati,"Railway Colony, Guwahati - PCBA",20-07-2024 01:00:00,26.181742,91.78063,PM2.5,21,92,49
India,Assam,Guwahati,"Railway Colony, Guwahati - PCBA",20-07-2024 01:00:00,26.181742,91.78063,PM10,22,92,50
India,Assam,Guwahati,"Railway Colony, Guwahati - PCBA",20-07-2024 01:00:00,26.181742,91.78063,SO2,2,5,3
India,Assam,Nagaon,"Christianpatty, Nagaon - PCBA",20-07-2024 01:00:00,26.349082,92.68449,PM10,15,35,18
India,Assam,Nagaon,"Christianpatty, Nagaon - PCBA",20-07-2024 01:00:00,26.349082,92.68449,NO2,1,23,9
India,Assam,Nalbari,"Bata Chowk, Nalbari - PCBA",20-07-2024 01:00:00,26.446912,91.439057,NH3,1,2,1
India,Assam,Sivasagar,"Girls College, Sivasagar - PCBA",20-07-2024 01:00:00,26.987634,94.636574,NH3,1,1,1
India,Assam,Sivasagar,"Girls College, Sivasagar - PCBA",20-07-2024 01:00:00,26.987634,94.636574,OZONE,1,9,2
India,Bihar,Araria,"Kharahiya Basti, Araria - BSPCB",20-07-2024 01:00:00,26.146529,87.454184,PM10,NA,NA,NA
India,Bihar,Araria,"Kharahiya Basti, Araria - BSPCB",20-07-2024 01:00:00,26.146529,87.454184,SO2,9,17,13
India,Bihar,Arrah,"New DM Office, Arrah - BSPCB",20-07-2024 01:00:00,25.5626095,84.663264,SO2,6,11,9
India,Bihar,Arrah,"New DM Office, Arrah - BSPCB",20-07-2024 01:00:00,25.5626095,84.663264,OZONE,7,29,15
India,Bihar,Aurangabad,"Gurdeo Nagar, Aurangabad - BSPCB",20-07-2024 01:00:00,24.75746,84.366208,NH3,2,5,3
India,Bihar,Bhagalpur,"DM Office_Kachari Chowk, Bhagalpur - BSPCB",20-07-2024 01:00:00,25.251013,86.989001,NO2,24,44,34
India,Bihar,Bhagalpur,"Mayaganj, Bhagalpur - BSPCB",20-07-2024 01:00:00,25.265194,87.012947,CO,20,53,45
India,Bihar,Bihar Sharif,"D M Colony, Bihar Sharif - BSPCB",20-07-2024 01:00:00,25.204762,85.514960,NO2,17,47,31
India,Bihar,Bihar Sharif,"D M Colony, Bihar Sharif - BSPCB",20-07-2024 01:00:00,25.204762,85.514960,CO,18,31,30
India,Bihar,Buxar,"Charitra Van, Buxar - BSPCB (Formerly known as Central Jail)",20-07-2024 01:00:00,25.567520,83.966379,PM10,33,241,97
India,Bihar,Buxar,"Charitra Van, Buxar - BSPCB (Formerly known as Central Jail)",20-07-2024 01:00:00,25.567520,83.966379,NH3,1,1,1
India,Bihar,Chhapra,"Darshan Nagar, Chhapra - BSPCB",20-07-2024 01:00:00,25.7808257,84.7446768,PM10,28,67,48
India,Bihar,Chhapra,"Darshan Nagar, Chhapra - BSPCB",20-07-2024 01:00:00,25.7808257,84.7446768,NH3,8,20,13
India,Bihar,Gaya,"Collectorate, Gaya - BSPCB",20-07-2024 01:00:00,24.7955,84.9994,CO,34,77,64
India,Bihar,Hajipur,"Industrial Area, Hajipur - BSPCB",20-07-2024 01:00:00,25.697189,85.245900,PM2.5,58,118,84
India,Bihar,Hajipur,"Industrial Area, Hajipur - BSPCB",20-07-2024 01:00:00,25.697189,85.245900,OZONE,23,80,31
India,Bihar,Katihar,"Mirchaibari, Katihar - BSPCB",20-07-2024 01:00:00,25.560083,87.553265,PM10,NA,NA,NA
India,Bihar,Katihar,"Mirchaibari, Katihar - BSPCB",20-07-2024 01:00:00,25.560083,87.553265,NO2,9,10,9
India,Bihar,Katihar,"Mirchaibari, Katihar - BSPCB",20-07-2024 01:00:00,25.560083,87.553265,SO2,8,14,10
India,Bihar,Katihar,"Mirchaibari, Katihar - BSPCB",20-07-2024 01:00:00,25.560083,87.553265,CO,14,40,24
India,Bihar,Kishanganj,"SDM Office_Khagra, Kishanganj - BSPCB",20-07-2024 01:00:00,26.0881305,87.93840336,SO2,2,17,11
India,Bihar,Motihari,"Gandak Colony, Motihari - BSPCB",20-07-2024 01:00:00,26.63086,84.90051,NH3,1,2,2
India,Bihar,Motihari,"Gandak Colony, Motihari - BSPCB",20-07-2024 01:00:00,26.63086,84.90051,SO2,3,7,5
India,Bihar,Munger,"Town Hall, Munger - BSPCB",20-07-2024 01:00:00,25.376776,86.471523,CO,14,42,32
India,Bihar,Muzaffarpur,"Buddha Colony, Muzaffarpur - BSPCB",20-07-2024 01:00:00,26.11442,85.39813,PM10,31,77,55
India,Bihar,Muzaffarpur,"Buddha Colony, Muzaffarpur - BSPCB",20-07-2024 01:00:00,26.11442,85.39813,CO,30,50,42
India,Bihar,Muzaffarpur,"Muzaffarpur Collectorate, Muzaffarpur - BSPCB",20-07-2024 01:00:00,26.1209,85.3647,NO2,28,34,31
India,Bihar,Muzaffarpur,"Muzaffarpur Collectorate, Muzaffarpur - BSPCB",20-07-2024 01:00:00,26.1209,85.3647,OZONE,34,115,44
India,Bihar,Patna,"DRM Office Danapur, Patna - BSPCB",20-07-2024 01:00:00,25.586562,85.043586,SO2,4,14,11
India,Bihar,Patna,"DRM Office Danapur, Patna - BSPCB",20-07-2024 01:00:00,25.586562,85.043586,CO,16,35,27
India,Bihar,Patna,"DRM Office Danapur, Patna - BSPCB",20-07-2024 01:00:00,25.586562,85.043586,OZONE,8,44,19
India,Bihar,Patna,"Govt. High School Shikarpur, Patna - BSPCB",20-07-2024 01:00:00,25.592539,85.227158,NH3,4,5,5
India,Bihar,Patna,"Govt. High School Shikarpur, Patna - BSPCB",20-07-2024 01:00:00,25.592539,85.227158,OZONE,48,53,50
India,Bihar,Patna,"IGSC Planetarium Complex, Patna - BSPCB",20-07-2024 01:00:00,25.610369,85.132568,PM2.5,43,93,65
India,Bihar,Patna,"Muradpur, Patna - BSPCB",20-07-2024 01:00:00,25.619651,85.147382,SO2,4,6,6
India,Bihar,Patna,"Rajbansi Nagar, Patna - BSPCB",20-07-2024 01:00:00,25.599486,85.113666,PM10,53,93,71
India,Bihar,Patna,"Rajbansi Nagar, Patna - BSPCB",20-07-2024 01:00:00,25.599486,85.113666,NH3,3,5,4
India,Bihar,Patna,"Rajbansi Nagar, Patna - BSPCB",20-07-2024 01:00:00,25.599486,85.113666,SO2,1,5,3
India,Bihar,Patna,"Rajbansi Nagar, Patna - BSPCB",20-07-2024 01:00:00,25.599486,85.113666,OZONE,13,52,20
India,Bihar,Patna,"Samanpura, Patna - BSPCB",20-07-2024 01:00:00,25.596727,85.085624,PM10,85,113,100
India,Bihar,Purnia,"Mariam Nagar, Purnia - BSPCB",20-07-2024 01:00:00,25.366336,87.117468,NO2,5,7,5
India,Bihar,Rajgir,"Dangi Tola, Rajgir - BSPCB",20-07-2024 01:00:00,25.03280,85.41948,PM2.5,10,42,26
India,Bihar,Sasaram,"Dada Peer, Sasaram - BSPCB",20-07-2024 01:00:00,24.952822,84.002396,SO2,5,8,6
India,Bihar,Siwan,"Chitragupta Nagar, Siwan - BSPCB",20-07-2024 01:00:00,26.2271665,84.3570427,NH3,1,10,5
India,Bihar,Siwan,"Chitragupta Nagar, Siwan - BSPCB",20-07-2024 01:00:00,26.2271665,84.3570427,SO2,NA,NA,NA
India,Chandigarh,Chandigarh,"Sector 22, Chandigarh - CPCC",20-07-2024 01:00:00,30.735567,76.775714,NO2,10,40,26
India,Chandigarh,Chandigarh,"Sector 22, Chandigarh - CPCC",20-07-2024 01:00:00,30.735567,76.775714,OZONE,34,125,76
India,Chandigarh,Chandigarh,"Sector-25, Chandigarh - CPCC",20-07-2024 01:00:00,30.751462,76.762879,CO,22,37,29
India,Chandigarh,Chandigarh,"Sector-25, Chandigarh - CPCC",20-07-2024 01:00:00,30.751462,76.762879,OZONE,11,160,20
India,Chandigarh,Chandigarh,"Sector-53, Chandigarh - CPCC",20-07-2024 01:00:00,30.719859,76.738637,PM2.5,7,163,63
India,Chandigarh,Chandigarh,"Sector-53, Chandigarh - CPCC",20-07-2024 01:00:00,30.719859,76.738637,CO,32,84,55
India,Chhattisgarh,Bhilai,"32Bungalows, Bhilai - CECB",20-07-2024 01:00:00,21.194815,81.314770,NO2,7,10,8
India,Chhattisgarh,Bhilai,"32Bungalows, Bhilai - CECB",20-07-2024 01:00:00,21.194815,81.314770,NH3,7,8,8
India,Chhattisgarh,Bhilai,"32Bungalows, Bhilai - CECB",20-07-2024 01:00:00,21.194815,81.314770,CO,11,25,16
India,Chhattisgarh,Bhilai,"Civic Center, Bhilai - Bhilai Steel Plant",20-07-2024 01:00:00,21.185571,81.343175,PM10,20,55,33
India,Chhattisgarh,Bilaspur,"Mangala, Bilaspur - NTPC",20-07-2024 01:00:00,22.08815,82.13737,PM10,27,70,42
India,Chhattisgarh,Chhal,"Nawapara SECL Colony, Chhal - CECB",20-07-2024 01:00:00,22.118125,83.140608,SO2,5,16,12
India,Chhattisgarh,Chhal,"Nawapara SECL Colony, Chhal - CECB",20-07-2024 01:00:00,22.118125,83.140608,OZONE,8,36,25
India,Chhattisgarh,Korba,"Urja Nagar, Korba - CECB",20-07-2024 01:00:00,22.348441,82.549611,NH3,2,8,4
India,Chhattisgarh,Kunjemura,"OP Jindal School, Kunjemura - CECB",20-07-2024 01:00:00,22.126650,83.483212,PM2.5,1,39,17
India,Chhattisgarh,Kunjemura,"OP Jindal School, Kunjemura - CECB",20-07-2024 01:00:00,22.126650,83.483212,CO,12,32,17
India,Chhattisgarh,Raipur,"AIIMS, Raipur - CECB",20-07-2024 01:00:00,21.258815,81.578979,NH3,6,6,6
India,Chhattisgarh,Raipur,"Bhatagaon New ISBT, Raipur - CECB",20-07-2024 01:00:00,21.219665,81.630094,CO,24,34,29
India,Chhattisgarh,Raipur,"Krishak Nagar, Raipur - CECB",20-07-2024 01:00:00,21.237755,81.705301,OZONE,3,20,13
India,Chhattisgarh,Raipur,"Siltara Phase-II, Raipur - CECB",20-07-2024 01:00:00,21.371751,81.664929,NO2,9,32,16
India,Chhattisgarh,Tumidih,"OP Jindal Industrial Park, Tumidih - CECB",20-07-2024 01:00:00,22.06631475,83.33820077,SO2,NA,NA,NA
India,Delhi,Delhi,"Alipur, Delhi - DPCC",20-07-2024 01:00:00,28.815329,77.153010,CO,15,25,19
India,Delhi,Delhi,"Anand Vihar, Delhi - DPCC",20-07-2024 01:00:00,28.647622,77.3158090,PM10,59,344,167
India,Delhi,Delhi,"Anand Vihar, Delhi - DPCC",20-07-2024 01:00:00,28.647622,77.3158090,SO2,22,26,23
India,Delhi,Delhi,"Anand Vihar, Delhi - DPCC",20-07-2024 01:00:00,28.647622,77.3158090,CO,38,103,44
India,Delhi,Delhi,"Ashok Vihar, Delhi - DPCC",20-07-2024 01:00:00,28.695381,77.181665,PM10,84,128,108
India,Delhi,Delhi,"Bawana, Delhi - DPCC",20-07-2024 01:00:00,28.776200,77.051074,NO2,9,35,20
India,Delhi,Delhi,"Burari Crossing, Delhi - IMD",20-07-2024 01:00:00,28.7256504,77.2011573,NO2,9,19,17
India,Delhi,Delhi,"CRRI Mathura Road, Delhi - IMD",20-07-2024 01:00:00,28.5512005,77.2735737,PM2.5,55,132,83
India,Delhi,Delhi,"Chandni Chowk, Delhi - IITM",20-07-2024 01:00:00,28.656756,77.227234,NH3,NA,NA,NA
India,Delhi,Delhi,"Chandni Chowk, Delhi - IITM",20-07-2024 01:00:00,28.656756,77.227234,CO,10,41,33
India,Delhi,Delhi,"Chandni Chowk, Delhi - IITM",20-07-2024 01:00:00,28.656756,77.227234,OZONE,1,8,3
India,Delhi,Delhi,"DTU, Delhi - CPCB",20-07-2024 01:00:00,28.7500499,77.1112615,NO2,38,69,61
India,Delhi,Delhi,"DTU, Delhi - CPCB",20-07-2024 01:00:00,28.7500499,77.1112615,SO2,45,58,47
India,Delhi,Delhi,"DTU, Delhi - CPCB",20-07-2024 01:00:00,28.7500499,77.1112615,CO,48,72,52
India,Delhi,Delhi,"Dr. Karni Singh Shooting Range, Delhi - DPCC",20-07-2024 01:00:00,28.498571,77.264840,PM10,98,141,119
India,Delhi,Delhi,"Dwarka-Sector 8, Delhi - DPCC ",20-07-2024 01:00:00,28.5710274,77.0719006,PM2.5,60,253,142
India,Delhi,Delhi,"IGI Airport (T3), Delhi - IMD",20-07-2024 01:00:00,28.5627763,77.1180053,PM10,72,170,110
India,Delhi,Delhi,"IHBAS, Dilshad Garden, Delhi - CPCB",20-07-2024 01:00:00,28.6811736,77.3025234,NH3,2,7,5
India,Delhi,Delhi,"Jawaharlal Nehru Stadium, Delhi - DPCC",20-07-2024 01:00:00,28.580280,77.233829,PM2.5,55,143,86
India,Delhi,Delhi,"Jawaharlal Nehru Stadium, Delhi - DPCC",20-07-2024 01:00:00,28.580280,77.233829,NO2,30,56,41
India,Delhi,Delhi,"Major Dhyan Chand National Stadium, Delhi - DPCC",20-07-2024 01:00:00,28.611281,77.237738,NO2,22,73,42
India,Delhi,Delhi,"Mandir Marg, Delhi - DPCC",20-07-2024 01:00:00,28.636429,77.201067,NO2,42,70,57
India,Delhi,Delhi,"NSIT Dwarka, Delhi - CPCB",20-07-2024 01:00:00,28.60909,77.0325413,PM10,66,117,97
India,Delhi,Delhi,"NSIT Dwarka, Delhi - CPCB",20-07-2024 01:00:00,28.60909,77.0325413,OZONE,2,28,15
India,Delhi,Delhi,"Najafgarh, Delhi - DPCC",20-07-2024 01:00:00,28.570173,76.933762,SO2,NA,NA,NA
India,Delhi,Delhi,"Najafgarh, Delhi - DPCC",20-07-2024 01:00:00,28.570173,76.933762,CO,NA,NA,NA
India,Delhi,Delhi,"Narela, Delhi - DPCC",20-07-2024 01:00:00,28.822836,77.101981,PM10,100,151,126
India,Delhi,Delhi,"Narela, Delhi - DPCC",20-07-2024 01:00:00,28.822836,77.101981,NH3,7,10,9
India,Delhi,Delhi,"Nehru Nagar, Delhi - DPCC",20-07-2024 01:00:00,28.567890,77.250515,PM2.5,80,197,123
India,Delhi,Delhi,"Nehru Nagar, Delhi - DPCC",20-07-2024 01:00:00,28.567890,77.250515,NH3,4,11,7
India,Delhi,Delhi,"Nehru Nagar, Delhi - DPCC",20-07-2024 01:00:00,28.567890,77.250515,OZONE,8,87,36
India,Delhi,Delhi,"Okhla Phase-2, Delhi - DPCC",20-07-2024 01:00:00,28.530785,77.271255,NO2,36,82,56
India,Delhi,Delhi,"Patparganj, Delhi - DPCC",20-07-2024 01:00:00,28.623763,77.287209,PM2.5,87,287,162
India,Delhi,Delhi,"Punjabi Bagh, Delhi - DPCC",20-07-2024 01:00:00,28.674045,77.131023,NO2,8,44,24
India,Delhi,Delhi,"Punjabi Bagh, Delhi - DPCC",20-07-2024 01:00:00,28.674045,77.131023,SO2,10,54,26
India,Delhi,Delhi,"R K Puram, Delhi - DPCC",20-07-2024 01:00:00,28.563262,77.186937,PM10,81,177,127
India,Delhi,Delhi,"Rohini, Delhi - DPCC",20-07-2024 01:00:00,28.732528,77.119920,PM2.5,77,302,155
India,Delhi,Delhi,"Rohini, Delhi - DPCC",20-07-2024 01:00:00,28.732528,77.119920,PM10,116,179,138
India,Delhi,Delhi,"Rohini, Delhi - DPCC",20-07-2024 01:00:00,28.732528,77.119920,NH3,13,18,15
India,Delhi,Delhi,"Rohini, Delhi - DPCC",20-07-2024 01:00:00,28.732528,77.119920,SO2,5,10,7
India,Delhi,Delhi,"Rohini, Delhi - DPCC",20-07-2024 01:00:00,28.732528,77.119920,CO,42,75,52
India,Delhi,Delhi,"Shadipur, Delhi - CPCB",20-07-2024 01:00:00,28.6514781,77.1473105,NO2,38,144,73
India,Delhi,Delhi,"Shadipur, Delhi - CPCB",20-07-2024 01:00:00,28.6514781,77.1473105,CO,39,80,62
India,Delhi,Delhi,"Sirifort, Delhi - CPCB",20-07-2024 01:00:00,28.5504249,77.2159377,CO,54,103,71
India,Delhi,Delhi,"Sonia Vihar, Delhi - DPCC",20-07-2024 01:00:00,28.710508,77.249485,PM10,105,153,126
India,Delhi,Delhi,"Sonia Vihar, Delhi - DPCC",20-07-2024 01:00:00,28.710508,77.249485,SO2,3,16,8
India,Delhi,Delhi,"Sri Aurobindo Marg, Delhi - DPCC",20-07-2024 01:00:00,28.531346,77.190156,PM10,74,144,111
India,Delhi,Delhi,"Vivek Vihar, Delhi - DPCC",20-07-2024 01:00:00,28.672342,77.315260,OZONE,4,30,10
India,Delhi,Delhi,"Wazirpur, Delhi - DPCC",20-07-2024 01:00:00,28.699793,77.165453,PM10,111,272,163
India,Delhi,Delhi,"Wazirpur, Delhi - DPCC",20-07-2024 01:00:00,28.699793,77.165453,SO2,2,9,6
India,Gujarat,Ahmedabad,"Chandkheda, Ahmedabad - IITM",20-07-2024 01:00:00,23.107969,72.574648,NO2,23,58,38
India,Gujarat,Ahmedabad,"Chandkheda, Ahmedabad - IITM",20-07-2024 01:00:00,23.107969,72.574648,SO2,11,20,15
India,Gujarat,Ahmedabad,"Gyaspur, Ahmedabad - IITM",20-07-2024 01:00:00,22.977134,72.553024,PM10,67,98,79
India,Gujarat,Ahmedabad,"Rakhial, Ahmedabad - IITM",20-07-2024 01:00:00,23.016834,72.625775,NH3,11,24,15
India,Gujarat,Ahmedabad,"SVPI Airport Hansol, Ahmedabad - IITM",20-07-2024 01:00:00,23.076793,72.627874,PM10,12,57,39
India,Gujarat,Ahmedabad,"SVPI Airport Hansol, Ahmedabad - IITM",20-07-2024 01:00:00,23.076793,72.627874,NH3,5,7,6
India,Gujarat,Ahmedabad,"Sardar Vallabhbhai Patel Stadium, Ahmedabad - IITM",20-07-2024 01:00:00,23.043070,72.562968,PM2.5,28,153,50
India,Gujarat,Ahmedabad,"Sardar Vallabhbhai Patel Stadium, Ahmedabad - IITM",20-07-2024 01:00:00,23.043070,72.562968,NO2,17,38,29
India,Gujarat,Ahmedabad,"Sardar Vallabhbhai Patel Stadium, Ahmedabad - IITM",20-07-2024 01:00:00,23.043070,72.562968,SO2,15,21,18
India,Gujarat,Ankleshwar,"GIDC, Ankleshwar - GPCB",20-07-2024 01:00:00,21.613267,73.010555,PM10,17,45,30
India,Gujarat,Ankleshwar,"GIDC, Ankleshwar - GPCB",20-07-2024 01:00:00,21.613267,73.010555,SO2,2,41,24
India,Gujarat,Surat,"Science Center, Surat - SMC",20-07-2024 01:00:00,21.170046,72.795405,PM2.5,7,43,20
India,Gujarat,Vatva,"Phase-4 GIDC, Vatva - GPCB",20-07-2024 01:00:00,22.969611,72.643500,PM10,24,63,44
India,Haryana,Ambala,"Patti Mehar, Ambala - HSPCB",20-07-2024 01:00:00,30.379589,76.778328,PM2.5,33,93,57
India,Haryana,Ambala,"Patti Mehar, Ambala - HSPCB",20-07-2024 01:00:00,30.379589,76.778328,NH3,5,12,8
India,Haryana,Ambala,"Patti Mehar, Ambala - HSPCB",20-07-2024 01:00:00,30.379589,76.778328,SO2,1,12,8
India,Haryana,Ambala,"Patti Mehar, Ambala - HSPCB",20-07-2024 01:00:00,30.379589,76.778328,CO,31,60,38
India,Haryana,Bahadurgarh,"Arya Nagar, Bahadurgarh - HSPCB",20-07-2024 01:00:00,28.6701,76.9254,CO,36,43,39
India,Haryana,Ballabgarh,"Nathu Colony, Ballabgarh - HSPCB",20-07-2024 01:00:00,28.3419248,77.319699,CO,6,31,24
India,Haryana,Charkhi Dadri,"Mini Secretariat, Charkhi Dadri - HSPCB",20-07-2024 01:00:00,28.593883,76.270653,PM2.5,50,154,84
India,Haryana,Charkhi Dadri,"Mini Secretariat, Charkhi Dadri - HSPCB",20-07-2024 01:00:00,28.593883,76.270653,CO,24,67,35
India,Haryana,Faridabad,"New Industrial Town, Faridabad - HSPCB",20-07-2024 01:00:00,28.39072,77.30059,SO2,10,18,13
India,Haryana,Faridabad,"Sector 30, Faridabad - HSPCB",20-07-2024 01:00:00,28.4417,77.3217,OZONE,7,10,9
India,Haryana,Faridabad,"Sector- 16A, Faridabad - HSPCB",20-07-2024 01:00:00,28.4088421,77.3099081,PM2.5,47,179,97
India,Haryana,Faridabad,"Sector- 16A, Faridabad - HSPCB",20-07-2024 01:00:00,28.4088421,77.3099081,SO2,24,30,26
India,Haryana,Gurugram,"Sector-51, Gurugram - HSPCB",20-07-2024 01:00:00,28.4227,77.0667,CO,32,52,37
India,Haryana,Hisar,"Urban Estate-II, Hisar - HSPCB",20-07-2024 01:00:00,29.140560,75.744941,PM10,NA,NA,NA
India,Haryana,Hisar,"Urban Estate-II, Hisar - HSPCB",20-07-2024 01:00:00,29.140560,75.744941,NO2,NA,NA,NA
India,Haryana,Hisar,"Urban Estate-II, Hisar - HSPCB",20-07-2024 01:00:00,29.140560,75.744941,CO,72,109,102
India,Haryana,Jind,"Police Lines, Jind - HSPCB",20-07-2024 01:00:00,29.307814,76.337619,PM2.5,32,70,51
India,Haryana,Jind,"Police Lines, Jind - HSPCB",20-07-2024 01:00:00,29.307814,76.337619,CO,1,92,31
India,Haryana,Kaithal,"Rishi Nagar, Kaithal - HSPCB",20-07-2024 01:00:00,29.8006,76.4155,CO,5,42,12
India,Haryana,Karnal,"Sector-12, Karnal - HSPCB",20-07-2024 01:00:00,29.695300,77.002700,PM2.5,5,15,10
India,Haryana,Kurukshetra,"Sector-7, Kurukshetra - HSPCB",20-07-2024 01:00:00,29.966942,76.875879,PM2.5,23,82,53
India,Haryana,Kurukshetra,"Sector-7, Kurukshetra - HSPCB",20-07-2024 01:00:00,29.966942,76.875879,NH3,4,6,6
India,Haryana,Mandikhera,"General Hospital, Mandikhera - HSPCB",20-07-2024 01:00:00,27.9002,76.9938,NO2,19,24,21
India,Haryana,Narnaul,"Shastri Nagar, Narnaul - HSPCB",20-07-2024 01:00:00,28.060249,76.113115,CO,14,62,25
India,Haryana,Panchkula,"Sector-6, Panchkula - HSPCB ",20-07-2024 01:00:00,30.7057778,76.8531805555555,CO,1,31,5
India,Haryana,Panipat,"Sector-18, Panipat - HSPCB",20-07-2024 01:00:00,29.432304,76.972765,OZONE,29,30,30
India,Haryana,Rohtak,"MD University, Rohtak - HSPCB",20-07-2024 01:00:00,28.52123,76.37138,SO2,6,8,7
India,Haryana,Yamuna Nagar,"Gobind Pura, Yamuna Nagar - HSPCB",20-07-2024 01:00:00,30.1480566,77.2893471,CO,11,52,47
India,Himachal Pradesh,Baddi,"HIMUDA Complex Phase-1, Baddi - HPPCB",20-07-2024 01:00:00,30.943887,76.801991,CO,18,42,30
India,Jammu_and_Kashmir,Srinagar,"Rajbagh, Srinagar - JKSPCB",20-07-2024 01:00:00,34.066206,74.819820,CO,12,22,15
India,Jharkhand,Dhanbad,"Kalakusuma, Dhanbad - DMC",20-07-2024 01:00:00,23.811548,86.481238,OZONE,29,29,29
India,Jharkhand,Jorapokhar,"Tata Stadium, Jorapokhar - JSPCB",20-07-2024 01:00:00,23.707909,86.414670,NO2,16,17,16
India,Jharkhand,Pathardih,"Mohalbani Ghat, Pathardih - DMC",20-07-2024 01:00:00,23.669880,86.411725,OZONE,32,53,46
India,Karnataka,Bagalkot,"Vidayagiri, Bagalkot - KSPCB",20-07-2024 01:00:00,16.172806,75.659694,NO2,10,11,11
India,Karnataka,Bagalkot,"Vidayagiri, Bagalkot - KSPCB",20-07-2024 01:00:00,16.172806,75.659694,OZONE,NA,NA,NA
India,Karnataka,Bengaluru,"BTM Layout, Bengaluru - CPCB",20-07-2024 01:00:00,12.9135218,77.5950804,NO2,28,46,37
India,Karnataka,Bengaluru,"BTM Layout, Bengaluru - CPCB",20-07-2024 01:00:00,12.9135218,77.5950804,NH3,6,9,7
India,Karnataka,Bengaluru,"Bapuji Nagar, Bengaluru - KSPCB",20-07-2024 01:00:00,12.951913,77.539784,CO,22,28,25
India,Karnataka,Bengaluru,"Jayanagar 5th Block, Bengaluru - KSPCB",20-07-2024 01:00:00,12.920984,77.584908,CO,6,26,20
India,Karnataka,Bengaluru,"Jigani, Bengaluru - KSPCB",20-07-2024 01:00:00,12.7816279,77.6299145,SO2,NA,NA,NA
India,Karnataka,Bengaluru,"Jigani, Bengaluru - KSPCB",20-07-2024 01:00:00,12.7816279,77.6299145,OZONE,NA,NA,NA
India,Karnataka,Bengaluru,"Peenya, Bengaluru - CPCB",20-07-2024 01:00:00,13.0270199,77.494094,PM10,NA,NA,NA
India,Karnataka,Bengaluru,"Peenya, Bengaluru - CPCB",20-07-2024 01:00:00,13.0270199,77.494094,NO2,35,36,36
India,Karnataka,Bengaluru,"Peenya, Bengaluru - CPCB",20-07-2024 01:00:00,13.0270199,77.494094,NH3,4,6,6
India,Karnataka,Bengaluru,"RVCE-Mailasandra, Bengaluru - KSPCB",20-07-2024 01:00:00,12.921418,77.502466,NO2,NA,NA,NA
India,Karnataka,Bengaluru,"RVCE-Mailasandra, Bengaluru - KSPCB",20-07-2024 01:00:00,12.921418,77.502466,CO,NA,NA,NA
India,Karnataka,Bengaluru,"Shivapura_Peenya, Bengaluru - KSPCB",20-07-2024 01:00:00,13.0246342,77.5080115,NO2,15,16,16
India,Karnataka,Bengaluru,"Shivapura_Peenya, Bengaluru - KSPCB",20-07-2024 01:00:00,13.0246342,77.5080115,NH3,4,4,4
India,Karnataka,Bengaluru,"Silk Board, Bengaluru - KSPCB",20-07-2024 01:00:00,12.917348,77.622813,PM10,20,84,42
India,Karnataka,Bidar,"Naubad, Bidar - KSPCB",20-07-2024 01:00:00,17.930306,77.482194,PM10,NA,NA,NA
India,Karnataka,Bidar,"Naubad, Bidar - KSPCB",20-07-2024 01:00:00,17.930306,77.482194,NH3,5,8,7
India,Karnataka,Bidar,"Naubad, Bidar - KSPCB",20-07-2024 01:00:00,17.930306,77.482194,OZONE,8,11,9
India,Karnataka,Chamarajanagar,"Urban, Chamarajanagar - KSPCB",20-07-2024 01:00:00,11.55358,76.55521,PM10,NA,NA,NA
India,Karnataka,Chikkaballapur,"Chikkaballapur Rural, Chikkaballapur - KSPCB",20-07-2024 01:00:00,13.428828,77.731418,SO2,5,18,13
India,Karnataka,Chikkamagaluru,"Kalyana Nagara, Chikkamagaluru - KSPCB",20-07-2024 01:00:00,13.328028,75.797056,PM2.5,NA,NA,NA
India,Karnataka,Dharwad,"Kalabhavan, Dharwad - KSPCB",20-07-2024 01:00:00,15.459706,75.008381,SO2,2,19,4
India,Karnataka,Dharwad,"Kalabhavan, Dharwad - KSPCB",20-07-2024 01:00:00,15.459706,75.008381,CO,9,46,34
India,Karnataka,Gadag,"Panchal Nagar, Gadag - KSPCB",20-07-2024 01:00:00,15.411456,75.638133,NO2,1,22,12
India,Karnataka,Gadag,"Panchal Nagar, Gadag - KSPCB",20-07-2024 01:00:00,15.411456,75.638133,SO2,7,24,15
India,Karnataka,Gadag,"Panchal Nagar, Gadag - KSPCB",20-07-2024 01:00:00,15.411456,75.638133,OZONE,14,20,18
India,Karnataka,Hassan,"B.Katihalli, Hassan - KSPCB",20-07-2024 01:00:00,13.008556,76.125258,CO,2,22,18
India,Karnataka,Hassan,"B.Katihalli, Hassan - KSPCB",20-07-2024 01:00:00,13.008556,76.125258,OZONE,2,16,13
India,Karnataka,Haveri,"Ashwini Nagar, Haveri - KSPCB",20-07-2024 01:00:00,14.791800,75.389600,NO2,30,36,32
India,Karnataka,Haveri,"Ashwini Nagar, Haveri - KSPCB",20-07-2024 01:00:00,14.791800,75.389600,OZONE,20,21,20
India,Karnataka,Hubballi,"Lingaraj Nagar, Hubballi - KSPCB",20-07-2024 01:00:00,15.3714823,75.1160168,SO2,1,9,1
India,Karnataka,Hubballi,"Lingaraj Nagar, Hubballi - KSPCB",20-07-2024 01:00:00,15.3714823,75.1160168,CO,2,48,17
India,Karnataka,Kalaburagi,"Mahatma Basaveswar Colony, Kalaburgi - KSPCB",20-07-2024 01:00:00,17.336318,76.847397,PM10,13,38,23
India,Karnataka,Kalaburagi,"Mahatma Basaveswar Colony, Kalaburgi - KSPCB",20-07-2024 01:00:00,17.336318,76.847397,NO2,8,15,11
India,Karnataka,Kalaburagi,"Mahatma Basaveswar Colony, Kalaburgi - KSPCB",20-07-2024 01:00:00,17.336318,76.847397,OZONE,4,14,6
India,Karnataka,Madikeri,"Stuart Hill, Madikeri - KSPCB",20-07-2024 01:00:00,12.415911,75.735050,CO,3,28,14
India,Karnataka,Mangalore,"Kadri, Mangalore - KSPCB",20-07-2024 01:00:00,12.889250,74.853000,PM2.5,14,44,25
India,Karnataka,Mangalore,"Kadri, Mangalore - KSPCB",20-07-2024 01:00:00,12.889250,74.853000,NH3,2,2,2
India,Karnataka,Mysuru,"Hebbal 1st Stage, Mysuru - KSPCB",20-07-2024 01:00:00,12.21041,76.37376,NO2,9,46,24
India,Karnataka,Ramanagara,"Vijay Nagar, Ramanagara - KSPCB",20-07-2024 01:00:00,12.733409,77.298051,NO2,5,10,7
India,Karnataka,Ramanagara,"Vijay Nagar, Ramanagara - KSPCB",20-07-2024 01:00:00,12.733409,77.298051,OZONE,28,31,29
India,Karnataka,Shivamogga,"Vinoba Nagara, Shivamogga - KSPCB",20-07-2024 01:00:00,13.940000,75.555917,PM10,29,50,39
India,Karnataka,Shivamogga,"Vinoba Nagara, Shivamogga - KSPCB",20-07-2024 01:00:00,13.940000,75.555917,NH3,1,4,2
India,Karnataka,Tumakuru,"Thimmalapura, Tumakuru - KSPCB",20-07-2024 01:00:00,13.377516,77.099072,CO,30,34,32
India,Karnataka,Tumakuru,"Thimmalapura, Tumakuru - KSPCB",20-07-2024 01:00:00,13.377516,77.099072,OZONE,6,11,9
India,Karnataka,Vijayapura,"Ibrahimpur, Vijayapura - KSPCB",20-07-2024 01:00:00,16.802639,75.722694,NO2,17,19,19
India,Karnataka,Vijayapura,"Ibrahimpur, Vijayapura - KSPCB",20-07-2024 01:00:00,16.802639,75.722694,NH3,2,2,2
India,Karnataka,Yadgir,"Collector Office, Yadgir - KSPCB",20-07-2024 01:00:00,16.7602,77.1428,CO,8,26,16
India,Kerala,Eloor,"Udyogamandal, Eloor - Kerala PCB",20-07-2024 01:00:00,10.073232,76.302765,SO2,1,3,1
India,Kerala,Kollam,"Polayathode, Kollam - Kerala PCB",20-07-2024 01:00:00,8.8787,76.6073,NO2,8,9,8
India,Kerala,Thiruvananthapuram,"Kariavattom, Thiruvananthapuram - Kerala PCB",20-07-2024 01:00:00,8.563700,76.886500,SO2,1,10,4
India,Kerala,Thrissur,"Corporation Ground, Thrissur - Kerala PCB",20-07-2024 01:00:00,10.532400,76.215900,SO2,NA,NA,NA
India,Madhya Pradesh,Bhopal,"Paryavaran Parisar, Bhopal - MPPCB",20-07-2024 01:00:00,23.210494,77.425409,PM2.5,17,62,34
India,Madhya Pradesh,Bhopal,"Paryavaran Parisar, Bhopal - MPPCB",20-07-2024 01:00:00,23.210494,77.425409,NO2,7,47,18
India,Madhya Pradesh,Bhopal,"T T Nagar, Bhopal - MPPCB",20-07-2024 01:00:00,23.233584,77.400574,PM10,30,48,39
India,Madhya Pradesh,Bhopal,"T T Nagar, Bhopal - MPPCB",20-07-2024 01:00:00,23.233584,77.400574,OZONE,21,33,27
