country,state,city,station,last_update,latitude,longitude,pollutant_id,pollutant_min,pollutant_max,pollutant_avg
India,Andhra_Pradesh,Amaravati,"Secretariat, Amaravati - APPCB",20-03-2024 12:00:00,16.5150833,80.5181667,OZONE,10,59,27
India,Andhra_Pradesh,Anantapur,"Gulzarpet, Anantapur - APPCB",20-03-2024 12:00:00,14.675886,77.593027,PM2.5,NA,NA,NA
India,Andhra_Pradesh,Anantapur,"Gulzarpet, Anantapur - APPCB",20-03-2024 12:00:00,14.675886,77.593027,OZONE,12,64,18
India,Andhra_Pradesh,Kadapa,"Yerramukkapalli, Kadapa - APPCB",20-03-2024 12:00:00,14.465052,78.824187,NO2,8,8,8
India,Andhra_Pradesh,Rajamahendravaram,"Anand Kala Kshetram, Rajamahendravaram - APPCB",20-03-2024 12:00:00,16.9872867,81.7363176,PM10,62,102,78
India,Andhra_Pradesh,Rajamahendravaram,"Anand Kala Kshetram, Rajamahendravaram - APPCB",20-03-2024 12:00:00,16.9872867,81.7363176,NH3,3,5,4
India,Andhra_Pradesh,Tirupati,"Tirumala, Tirupati - APPCB",20-03-2024 12:00:00,13.67,79.35,PM2.5,55,90,72
India,Andhra_Pradesh,Vijayawada,"HB Colony, Vijayawada - APPCB",20-03-2024 12:00:00,16.536107,80.594233,PM2.5,58,91,74
India,Andhra_Pradesh,Vijayawada,"HB Colony, Vijayawada - APPCB",20-03-2024 12:00:00,16.536107,80.594233,NH3,4,4,4
India,Andhra_Pradesh,Vijayawada,"HB Colony, Vijayawada - APPCB",20-03-2024 12:00:00,16.536107,80.594233,SO2,3,5,4
India,Andhra_Pradesh,Vijayawada,"Kanuru, Vijayawada - APPCB",20-03-2024 12:00:00,16.486692,80.699436,NH3,1,1,1
India,Andhra_Pradesh,Vijayawada,"Rajiv Gandhi Park, Vijayawada - APPCB",20-03-2024 12:00:00,16.509717,80.612222,CO,36,54,40
India,Andhra_Pradesh,Vijayawada,"Rajiv Nagar, Vijayawada - APPCB",20-03-2024 12:00:00,16.554731,80.649110,NO2,6,9,7
India,Andhra_Pradesh,Vijayawada,"Rajiv Nagar, Vijayawada - APPCB",20-03-2024 12:00:00,16.554731,80.649110,NH3,1,1,1
India,Andhra_Pradesh,Visakhapatnam,"GVM Corporation, Visakhapatnam - APPCB",20-03-2024 12:00:00,17.72,83.3,NO2,3,86,33
India,Arunachal_Pradesh,Naharlagun,"Naharlagun, Naharlagun - APSPCB",20-03-2024 12:00:00,27.103358,93.679645,PM2.5,61,365,179
India,Assam,Byrnihat,"Central Academy for SFS, Byrnihat - PCBA",20-03-2024 12:00:00,26.071318,91.87488,PM10,108,418,240
India,Assam,Byrnihat,"Central Academy for SFS, Byrnihat - PCBA",20-03-2024 12:00:00,26.071318,91.87488,SO2,10,13,11
India,Assam,Byrnihat,"Central Academy for SFS, Byrnihat - PCBA",20-03-2024 12:00:00,26.071318,91.87488,OZONE,10,15,12
India,Assam,Guwahati,"IITG, Guwahati - PCBA",20-03-2024 12:00:00,26.2028636,91.70046436,OZONE,3,37,4
India,Assam,Guwahati,"LGBI Airport, Guwahati - PCBA",20-03-2024 12:00:00,26.10887,91.589544,PM10,174,428,288
India,Assam,Guwahati,"Pan Bazaar, Guwahati - PCBA",20-03-2024 12:00:00,26.187500,91.744194,PM2.5,204,347,302
India,Assam,Guwahati,"Pan Bazaar, Guwahati - PCBA",20-03-2024 12:00:00,26.187500,91.744194,PM10,157,278,211
India,Assam,Guwahati,"Pan Bazaar, Guwahati - PCBA",20-03-2024 12:00:00,26.187500,91.744194,NO2,2,10,5
India,Assam,Guwahati,"Railway Colony, Guwahati - PCBA",20-03-2024 12:00:00,26.181742,91.78063,PM10,143,426,217
India,Assam,Nagaon,"Christianpatty, Nagaon - PCBA",20-03-2024 12:00:00,26.349082,92.68449,PM10,26,109,66
India,Assam,Nalbari,"Bata Chowk, Nalbari - PCBA",20-03-2024 12:00:00,26.446912,91.439057,PM10,108,292,166
India,Assam,Sivasagar,"Girls College, Sivasagar - PCBA",20-03-2024 12:00:00,26.987634,94.636574,NO2,12,33,21
India,Bihar,Araria,"Kharahiya Basti, Araria - BSPCB",20-03-2024 12:00:00,26.146529,87.454184,NO2,NA,NA,NA
India,Bihar,Araria,"Kharahiya Basti, Araria - BSPCB",20-03-2024 12:00:00,26.146529,87.454184,OZONE,6,11,10
India,Bihar,Arrah,"New DM Office, Arrah - BSPCB",20-03-2024 12:00:00,25.5626095,84.663264,PM10,24,157,88
India,Bihar,Arrah,"New DM Office, Arrah - BSPCB",20-03-2024 12:00:00,25.5626095,84.663264,OZONE,13,40,18
India,Bihar,Aurangabad,"Gurdeo Nagar, Aurangabad - BSPCB",20-03-2024 12:00:00,24.75746,84.366208,OZONE,17,39,20
India,Bihar,Bettiah,"Kamalnath Nagar, Bettiah - BSPCB",20-03-2024 12:00:00,26.80365,84.51954,PM2.5,NA,NA,NA
India,Bihar,Bettiah,"Kamalnath Nagar, Bettiah - BSPCB",20-03-2024 12:00:00,26.80365,84.51954,SO2,NA,NA,NA
India,Bihar,Bettiah,"Kamalnath Nagar, Bettiah - BSPCB",20-03-2024 12:00:00,26.80365,84.51954,OZONE,2,22,5
India,Bihar,Bhagalpur,"DM Office_Kachari Chowk, Bhagalpur - BSPCB",20-03-2024 12:00:00,25.251013,86.989001,PM2.5,NA,NA,NA
India,Bihar,Bhagalpur,"DM Office_Kachari Chowk, Bhagalpur - BSPCB",20-03-2024 12:00:00,25.251013,86.989001,PM10,36,223,120
India,Bihar,Bhagalpur,"DM Office_Kachari Chowk, Bhagalpur - BSPCB",20-03-2024 12:00:00,25.251013,86.989001,NH3,9,16,12
India,Bihar,Bhagalpur,"Mayaganj, Bhagalpur - BSPCB",20-03-2024 12:00:00,25.265194,87.012947,PM10,31,247,104
India,Bihar,Bihar Sharif,"D M Colony, Bihar Sharif - BSPCB",20-03-2024 12:00:00,25.204762,85.514960,SO2,4,16,8
India,Bihar,Buxar,"Charitra Van, Buxar - BSPCB (Formerly known as Central Jail)",20-03-2024 12:00:00,25.567520,83.966379,NO2,1,1,1
India,Bihar,Buxar,"Charitra Van, Buxar - BSPCB (Formerly known as Central Jail)",20-03-2024 12:00:00,25.567520,83.966379,CO,18,88,41
India,Bihar,Buxar,"Charitra Van, Buxar - BSPCB (Formerly known as Central Jail)",20-03-2024 12:00:00,25.567520,83.966379,OZONE,18,154,35
India,Bihar,Gaya,"Collectorate, Gaya - BSPCB",20-03-2024 12:00:00,24.7955,84.9994,PM2.5,31,187,92
India,Bihar,Gaya,"Collectorate, Gaya - BSPCB",20-03-2024 12:00:00,24.7955,84.9994,NO2,1,4,2
India,Bihar,Gaya,"Kareemganj, Gaya - BSPCB",20-03-2024 12:00:00,24.792403,84.992416,NH3,1,5,3
India,Bihar,Gaya,"Kareemganj, Gaya - BSPCB",20-03-2024 12:00:00,24.792403,84.992416,SO2,7,12,9
India,Bihar,Gaya,"Kareemganj, Gaya - BSPCB",20-03-2024 12:00:00,24.792403,84.992416,CO,4,100,48
India,Bihar,Gaya,"SFTI Kusdihra, Gaya - BSPCB",20-03-2024 12:00:00,24.762518,84.982348,PM2.5,50,198,102
India,Bihar,Hajipur,"Industrial Area, Hajipur - BSPCB",20-03-2024 12:00:00,25.697189,85.245900,NO2,40,72,50
India,Bihar,Hajipur,"Industrial Area, Hajipur - BSPCB",20-03-2024 12:00:00,25.697189,85.245900,OZONE,5,49,15
India,Bihar,Katihar,"Mirchaibari, Katihar - BSPCB",20-03-2024 12:00:00,25.560083,87.553265,SO2,20,25,22
India,Bihar,Manguraha,"Forest Rest House, Manguraha - BSPCB",20-03-2024 12:00:00,27.308328,84.531742,PM2.5,NA,NA,NA
India,Bihar,Manguraha,"Forest Rest House, Manguraha - BSPCB",20-03-2024 12:00:00,27.308328,84.531742,SO2,3,3,3
India,Bihar,Motihari,"Gandak Colony, Motihari - BSPCB",20-03-2024 12:00:00,26.63086,84.90051,PM10,29,159,100
India,Bihar,Munger,"Town Hall, Munger - BSPCB",20-03-2024 12:00:00,25.376776,86.471523,PM2.5,17,400,148
India,Bihar,Muzaffarpur,"Buddha Colony, Muzaffarpur - BSPCB",20-03-2024 12:00:00,26.11442,85.39813,SO2,2,17,7
India,Bihar,Muzaffarpur,"Buddha Colony, Muzaffarpur - BSPCB",20-03-2024 12:00:00,26.11442,85.39813,CO,37,77,45
India,Bihar,Muzaffarpur,"MIT-Daudpur Kothi, Muzaffarpur - BSPCB",20-03-2024 12:00:00,26.1403345,85.3650192,SO2,5,10,9
India,Bihar,Muzaffarpur,"MIT-Daudpur Kothi, Muzaffarpur - BSPCB",20-03-2024 12:00:00,26.1403345,85.3650192,CO,26,116,40
India,Bihar,Patna,"DRM Office Danapur, Patna - BSPCB",20-03-2024 12:00:00,25.586562,85.043586,PM10,74,191,100
India,Bihar,Patna,"Govt. High School Shikarpur, Patna - BSPCB",20-03-2024 12:00:00,25.592539,85.227158,PM10,89,198,129
India,Bihar,Patna,"IGSC Planetarium Complex, Patna - BSPCB",20-03-2024 12:00:00,25.610369,85.132568,NO2,11,14,14
India,Bihar,Patna,"Muradpur, Patna - BSPCB",20-03-2024 12:00:00,25.619651,85.147382,NO2,11,20,16
India,Bihar,Saharsa,"Police Line, Saharsa - BSPCB",20-03-2024 12:00:00,25.892357,86.590325,NH3,9,10,9
India,Bihar,Saharsa,"Police Line, Saharsa - BSPCB",20-03-2024 12:00:00,25.892357,86.590325,OZONE,8,66,32
India,Bihar,Samastipur,"DM Office_Kasipur, Samastipur - BSPCB",20-03-2024 12:00:00,25.859655,85.77944,NO2,30,51,39
India,Chandigarh,Chandigarh,"Sector 22, Chandigarh - CPCC",20-03-2024 12:00:00,30.735567,76.775714,PM2.5,23,97,58
India,Chandigarh,Chandigarh,"Sector 22, Chandigarh - CPCC",20-03-2024 12:00:00,30.735567,76.775714,NH3,4,9,7
India,Chandigarh,Chandigarh,"Sector-25, Chandigarh - CPCC",20-03-2024 12:00:00,30.751462,76.762879,PM2.5,96,169,132
India,Chandigarh,Chandigarh,"Sector-53, Chandigarh - CPCC",20-03-2024 12:00:00,30.719859,76.738637,NO2,36,90,61
India,Chhattisgarh,Bhilai,"32Bungalows, Bhilai - CECB",20-03-2024 12:00:00,21.194815,81.314770,CO,16,30,19
India,Chhattisgarh,Bhilai,"Hathkhoj, Bhilai - CECB",20-03-2024 12:00:00,21.224231,81.408350,SO2,10,14,11
India,Chhattisgarh,Bhilai,"Hathkhoj, Bhilai - CECB",20-03-2024 12:00:00,21.224231,81.408350,CO,11,68,26
India,Chhattisgarh,Korba,"Rampur, Korba - CECB",20-03-2024 12:00:00,22.368195,82.746431,PM2.5,11,25,18
India,Chhattisgarh,Korba,"Rampur, Korba - CECB",20-03-2024 12:00:00,22.368195,82.746431,NH3,2,4,3
India,Chhattisgarh,Korba,"Rampur, Korba - CECB",20-03-2024 12:00:00,22.368195,82.746431,CO,14,34,16
India,Chhattisgarh,Korba,"Rampur, Korba - CECB",20-03-2024 12:00:00,22.368195,82.746431,OZONE,2,16,2
India,Chhattisgarh,Korba,"Urja Nagar, Korba - CECB",20-03-2024 12:00:00,22.348441,82.549611,NH3,2,8,6
India,Chhattisgarh,Kunjemura,"OP Jindal School, Kunjemura - CECB",20-03-2024 12:00:00,22.126650,83.483212,NH3,2,3,2
India,Chhattisgarh,Kunjemura,"OP Jindal School, Kunjemura - CECB",20-03-2024 12:00:00,22.126650,83.483212,SO2,4,8,6
India,Chhattisgarh,Milupara,"Govt. Higher Secondary School, Milupara - CECB",20-03-2024 12:00:00,22.1910172,83.5197009,PM2.5,NA,NA,NA
India,Chhattisgarh,Milupara,"Govt. Higher Secondary School, Milupara - CECB",20-03-2024 12:00:00,22.1910172,83.5197009,CO,NA,NA,NA
India,Chhattisgarh,Raipur,"AIIMS, Raipur - CECB",20-03-2024 12:00:00,21.258815,81.578979,OZONE,1,3,1
India,Chhattisgarh,Raipur,"Bhatagaon New ISBT, Raipur - CECB",20-03-2024 12:00:00,21.219665,81.630094,PM2.5,1,26,15
India,Chhattisgarh,Raipur,"Bhatagaon New ISBT, Raipur - CECB",20-03-2024 12:00:00,21.219665,81.630094,PM10,12,39,23
India,Chhattisgarh,Raipur,"Bhatagaon New ISBT, Raipur - CECB",20-03-2024 12:00:00,21.219665,81.630094,OZONE,3,7,4
India,Chhattisgarh,Raipur,"Krishak Nagar, Raipur - CECB",20-03-2024 12:00:00,21.237755,81.705301,PM2.5,NA,NA,NA
India,Chhattisgarh,Raipur,"Krishak Nagar, Raipur - CECB",20-03-2024 12:00:00,21.237755,81.705301,NO2,NA,NA,NA
India,Chhattisgarh,Raipur,"Krishak Nagar, Raipur - CECB",20-03-2024 12:00:00,21.237755,81.705301,NH3,NA,NA,NA
India,Chhattisgarh,Raipur,"Siltara Phase-II, Raipur - CECB",20-03-2024 12:00:00,21.371751,81.664929,NO2,50,66,58
India,Chhattisgarh,Raipur,"Siltara Phase-II, Raipur - CECB",20-03-2024 12:00:00,21.371751,81.664929,CO,1,33,9
India,Chhattisgarh,Raipur,"Siltara Phase-II, Raipur - CECB",20-03-2024 12:00:00,21.371751,81.664929,OZONE,3,5,3
India,Chhattisgarh,Tumidih,"OP Jindal Industrial Park, Tumidih - CECB",20-03-2024 12:00:00,22.06631475,83.33820077,NO2,NA,NA,NA
India,Delhi,Delhi,"Ashok Vihar, Delhi - DPCC",20-03-2024 12:00:00,28.695381,77.181665,SO2,26,64,37
India,Delhi,Delhi,"Ashok Vihar, Delhi - DPCC",20-03-2024 12:00:00,28.695381,77.181665,OZONE,2,36,4
India,Delhi,Delhi,"Chandni Chowk, Delhi - IITM",20-03-2024 12:00:00,28.656756,77.227234,PM2.5,174,372,292
India,Delhi,Delhi,"Chandni Chowk, Delhi - IITM",20-03-2024 12:00:00,28.656756,77.227234,PM10,113,247,176
India,Delhi,Delhi,"DTU, Delhi - CPCB",20-03-2024 12:00:00,28.7500499,77.1112615,PM2.5,78,350,258
India,Delhi,Delhi,"DTU, Delhi - CPCB",20-03-2024 12:00:00,28.7500499,77.1112615,OZONE,26,50,29
India,Delhi,Delhi,"Dr. Karni Singh Shooting Range, Delhi - DPCC",20-03-2024 12:00:00,28.498571,77.264840,PM10,108,294,192
India,Delhi,Delhi,"Dr. Karni Singh Shooting Range, Delhi - DPCC",20-03-2024 12:00:00,28.498571,77.264840,NH3,6,10,8
India,Delhi,Delhi,"Dr. Karni Singh Shooting Range, Delhi - DPCC",20-03-2024 12:00:00,28.498571,77.264840,OZONE,1,259,189
India,Delhi,Delhi,"Dwarka-Sector 8, Delhi - DPCC ",20-03-2024 12:00:00,28.5710274,77.0719006,SO2,10,40,16
India,Delhi,Delhi,"Dwarka-Sector 8, Delhi - DPCC ",20-03-2024 12:00:00,28.5710274,77.0719006,CO,26,114,65
India,Delhi,Delhi,"IHBAS, Dilshad Garden, Delhi - CPCB",20-03-2024 12:00:00,28.6811736,77.3025234,PM2.5,40,141,77
India,Delhi,Delhi,"IHBAS, Dilshad Garden, Delhi - CPCB",20-03-2024 12:00:00,28.6811736,77.3025234,PM10,101,177,138
India,Delhi,Delhi,"ITO, Delhi - CPCB",20-03-2024 12:00:00,28.628624,77.241060,PM2.5,53,350,216
India,Delhi,Delhi,"ITO, Delhi - CPCB",20-03-2024 12:00:00,28.628624,77.241060,CO,18,111,73
India,Delhi,Delhi,"ITO, Delhi - CPCB",20-03-2024 12:00:00,28.628624,77.241060,OZONE,11,92,22
India,Delhi,Delhi,"Jahangirpuri, Delhi - DPCC",20-03-2024 12:00:00,28.732820,77.170633,NO2,27,142,93
India,Delhi,Delhi,"Jawaharlal Nehru Stadium, Delhi - DPCC",20-03-2024 12:00:00,28.580280,77.233829,OZONE,1,246,172
India,Delhi,Delhi,"Lodhi Road, Delhi - IITM",20-03-2024 12:00:00,28.588333,77.221667,CO,59,69,66
India,Delhi,Delhi,"Major Dhyan Chand National Stadium, Delhi - DPCC",20-03-2024 12:00:00,28.611281,77.237738,SO2,8,51,18
India,Delhi,Delhi,"Major Dhyan Chand National Stadium, Delhi - DPCC",20-03-2024 12:00:00,28.611281,77.237738,CO,38,109,79
India,Delhi,Delhi,"Mandir Marg, Delhi - DPCC",20-03-2024 12:00:00,28.636429,77.201067,CO,45,106,89
India,Delhi,Delhi,"Mundka, Delhi - DPCC",20-03-2024 12:00:00,28.684678,77.076574,CO,20,88,59
India,Delhi,Delhi,"NSIT Dwarka, Delhi - CPCB",20-03-2024 12:00:00,28.60909,77.0325413,SO2,7,34,16
India,Delhi,Delhi,"Najafgarh, Delhi - DPCC",20-03-2024 12:00:00,28.570173,76.933762,NO2,4,24,13
India,Delhi,Delhi,"Najafgarh, Delhi - DPCC",20-03-2024 12:00:00,28.570173,76.933762,CO,18,93,78
India,Delhi,Delhi,"Narela, Delhi - DPCC",20-03-2024 12:00:00,28.822836,77.101981,NH3,5,8,6
India,Delhi,Delhi,"Narela, Delhi - DPCC",20-03-2024 12:00:00,28.822836,77.101981,SO2,15,83,32
India,Delhi,Delhi,"Narela, Delhi - DPCC",20-03-2024 12:00:00,28.822836,77.101981,CO,38,86,68
India,Delhi,Delhi,"North Campus, DU, Delhi - IMD",20-03-2024 12:00:00,28.6573814,77.1585447,NO2,14,56,34
India,Delhi,Delhi,"Punjabi Bagh, Delhi - DPCC",20-03-2024 12:00:00,28.674045,77.131023,CO,8,73,42
India,Delhi,Delhi,"Punjabi Bagh, Delhi - DPCC",20-03-2024 12:00:00,28.674045,77.131023,OZONE,1,57,12
India,Delhi,Delhi,"Pusa, Delhi - DPCC",20-03-2024 12:00:00,28.639652,77.146275,SO2,11,60,24
India,Delhi,Delhi,"Pusa, Delhi - DPCC",20-03-2024 12:00:00,28.639652,77.146275,CO,8,102,32
India,Delhi,Delhi,"R K Puram, Delhi - DPCC",20-03-2024 12:00:00,28.563262,77.186937,NH3,2,3,3
India,Delhi,Delhi,"Shadipur, Delhi - CPCB",20-03-2024 12:00:00,28.6514781,77.1473105,NH3,1,14,10
India,Delhi,Delhi,"Sirifort, Delhi - CPCB",20-03-2024 12:00:00,28.5504249,77.2159377,SO2,42,67,47
India,Delhi,Delhi,"Sirifort, Delhi - CPCB",20-03-2024 12:00:00,28.5504249,77.2159377,OZONE,5,91,10
India,Delhi,Delhi,"Sonia Vihar, Delhi - DPCC",20-03-2024 12:00:00,28.710508,77.249485,NO2,19,86,52
India,Delhi,Delhi,"Sonia Vihar, Delhi - DPCC",20-03-2024 12:00:00,28.710508,77.249485,NH3,5,6,5
India,Delhi,Delhi,"Sri Aurobindo Marg, Delhi - DPCC",20-03-2024 12:00:00,28.531346,77.190156,NO2,19,103,61
India,Delhi,Delhi,"Vivek Vihar, Delhi - DPCC",20-03-2024 12:00:00,28.672342,77.315260,SO2,NA,NA,NA
India,Delhi,Delhi,"Vivek Vihar, Delhi - DPCC",20-03-2024 12:00:00,28.672342,77.315260,OZONE,16,70,36
India,Delhi,Delhi,"Wazirpur, Delhi - DPCC",20-03-2024 12:00:00,28.699793,77.165453,SO2,19,79,42
India,Gujarat,Ahmedabad,"Chandkheda, Ahmedabad - IITM",20-03-2024 12:00:00,23.107969,72.574648,SO2,5,41,13
India,Gujarat,Ahmedabad,"Gyaspur, Ahmedabad - IITM",20-03-2024 12:00:00,22.977134,72.553024,PM2.5,84,338,213
India,Gujarat,Ahmedabad,"Raikhad, Ahmedabad - IITM",20-03-2024 12:00:00,23.020509,72.579261,PM10,46,150,76
India,Gujarat,Ahmedabad,"Raikhad, Ahmedabad - IITM",20-03-2024 12:00:00,23.020509,72.579261,CO,22,160,51
India,Gujarat,Ahmedabad,"Rakhial, Ahmedabad - IITM",20-03-2024 12:00:00,23.016834,72.625775,NH3,3,26,18
India,Gujarat,Ahmedabad,"SAC ISRO Satellite, Ahmedabad - IITM",20-03-2024 12:00:00,23.023389,72.515201,OZONE,10,22,15
India,Gujarat,Ahmedabad,"SVPI Airport Hansol, Ahmedabad - IITM",20-03-2024 12:00:00,23.076793,72.627874,PM2.5,26,151,80
India,Gujarat,Ahmedabad,"SVPI Airport Hansol, Ahmedabad - IITM",20-03-2024 12:00:00,23.076793,72.627874,PM10,36,148,102
India,Gujarat,Ahmedabad,"Sardar Vallabhbhai Patel Stadium, Ahmedabad - IITM",20-03-2024 12:00:00,23.043070,72.562968,PM2.5,76,324,154
India,Gujarat,Ahmedabad,"Sardar Vallabhbhai Patel Stadium, Ahmedabad - IITM",20-03-2024 12:00:00,23.043070,72.562968,NH3,2,2,2
India,Gujarat,Ankleshwar,"GIDC, Ankleshwar - GPCB",20-03-2024 12:00:00,21.613267,73.010555,PM10,68,138,103
India,Gujarat,Ankleshwar,"GIDC, Ankleshwar - GPCB",20-03-2024 12:00:00,21.613267,73.010555,NO2,36,38,37
India,Gujarat,Gandhinagar,"GIFT City, Gandhinagar - IITM",20-03-2024 12:00:00,23.163798,72.677768,PM2.5,64,313,143
India,Gujarat,Gandhinagar,"GIFT City, Gandhinagar - IITM",20-03-2024 12:00:00,23.163798,72.677768,PM10,71,179,114
India,Gujarat,Gandhinagar,"IIPHG Lekawada, Gandhinagar - IITM",20-03-2024 12:00:00,23.243639,72.68994,NH3,6,7,7
India,Gujarat,Gandhinagar,"Sector-10, Gandhinagar - GPCB",20-03-2024 12:00:00,23.221714,72.654328,PM2.5,21,73,49
India,Gujarat,Gandhinagar,"Sector-10, Gandhinagar - GPCB",20-03-2024 12:00:00,23.221714,72.654328,OZONE,2,33,12
India,Gujarat,Nandesari,"GIDC, Nandesari - Nandesari Ind. Association",20-03-2024 12:00:00,22.410802,73.097923,PM10,78,443,255
India,Gujarat,Nandesari,"GIDC, Nandesari - Nandesari Ind. Association",20-03-2024 12:00:00,22.410802,73.097923,NO2,2,70,25
India,Gujarat,Surat,"Science Center, Surat - SMC",20-03-2024 12:00:00,21.170046,72.795405,CO,57,88,73
India,Gujarat,Vapi,"Phase-1 GIDC, Vapi - GPCB",20-03-2024 12:00:00,20.362421,72.918013,OZONE,1,2,1
India,Gujarat,Vatva,"Phase-4 GIDC, Vatva - GPCB",20-03-2024 12:00:00,22.969611,72.643500,SO2,8,130,42
India,Haryana,Ambala,"Patti Mehar, Ambala - HSPCB",20-03-2024 12:00:00,30.379589,76.778328,PM2.5,36,114,63
India,Haryana,Ambala,"Patti Mehar, Ambala - HSPCB",20-03-2024 12:00:00,30.379589,76.778328,PM10,37,98,53
India,Haryana,Bahadurgarh,"Arya Nagar, Bahadurgarh - HSPCB",20-03-2024 12:00:00,28.6701,76.9254,NO2,31,39,36
India,Haryana,Bhiwani,"H.B. Colony, Bhiwani - HSPCB",20-03-2024 12:00:00,28.806223,76.141105,PM10,63,135,87
India,Haryana,Bhiwani,"H.B. Colony, Bhiwani - HSPCB",20-03-2024 12:00:00,28.806223,76.141105,NH3,6,6,6
India,Haryana,Bhiwani,"H.B. Colony, Bhiwani - HSPCB",20-03-2024 12:00:00,28.806223,76.141105,CO,9,60,32
India,Haryana,Charkhi Dadri,"Mini Secretariat, Charkhi Dadri - HSPCB",20-03-2024 12:00:00,28.593883,76.270653,PM2.5,18,228,146
India,Haryana,Charkhi Dadri,"Mini Secretariat, Charkhi Dadri - HSPCB",20-03-2024 12:00:00,28.593883,76.270653,CO,24,59,45
India,Haryana,Dharuhera,"Municipal Corporation Office, Dharuhera -  HSPCB",20-03-2024 12:00:00,28.206800,76.799700,CO,67,110,101
India,Haryana,Faridabad,"New Industrial Town, Faridabad - HSPCB",20-03-2024 12:00:00,28.39072,77.30059,PM10,121,366,197
India,Haryana,Faridabad,"New Industrial Town, Faridabad - HSPCB",20-03-2024 12:00:00,28.39072,77.30059,SO2,13,16,15
India,Haryana,Faridabad,"New Industrial Town, Faridabad - HSPCB",20-03-2024 12:00:00,28.39072,77.30059,CO,12,46,34
India,Haryana,Faridabad,"Sector 11, Faridabad - HSPCB",20-03-2024 12:00:00,28.376058,77.315741,PM2.5,168,301,234
India,Haryana,Faridabad,"Sector 11, Faridabad - HSPCB",20-03-2024 12:00:00,28.376058,77.315741,PM10,127,409,233
India,Haryana,Faridabad,"Sector 30, Faridabad - HSPCB",20-03-2024 12:00:00,28.4417,77.3217,PM10,138,152,144
India,Haryana,Faridabad,"Sector 30, Faridabad - HSPCB",20-03-2024 12:00:00,28.4417,77.3217,NO2,30,33,31
India,Haryana,Faridabad,"Sector 30, Faridabad - HSPCB",20-03-2024 12:00:00,28.4417,77.3217,NH3,9,9,9
India,Haryana,Faridabad,"Sector- 16A, Faridabad - HSPCB",20-03-2024 12:00:00,28.4088421,77.3099081,PM2.5,71,362,203
India,Haryana,Faridabad,"Sector- 16A, Faridabad - HSPCB",20-03-2024 12:00:00,28.4088421,77.3099081,OZONE,14,14,14
India,Haryana,Gurugram,"Sector-51, Gurugram - HSPCB",20-03-2024 12:00:00,28.4227,77.0667,PM10,105,397,228
India,Haryana,Gurugram,"Sector-51, Gurugram - HSPCB",20-03-2024 12:00:00,28.4227,77.0667,NH3,7,14,9
India,Haryana,Gurugram,"Sector-51, Gurugram - HSPCB",20-03-2024 12:00:00,28.4227,77.0667,SO2,3,5,4
India,Haryana,Gurugram,"Teri Gram, Gurugram - HSPCB",20-03-2024 12:00:00,28.4275,77.1465,PM10,178,428,278
India,Haryana,Gurugram,"Teri Gram, Gurugram - HSPCB",20-03-2024 12:00:00,28.4275,77.1465,NH3,47,98,68
India,Haryana,Gurugram,"Vikas Sadan, Gurugram - HSPCB",20-03-2024 12:00:00,28.4501238,77.0263051,NO2,5,25,14
India,Haryana,Hisar,"Urban Estate-II, Hisar - HSPCB",20-03-2024 12:00:00,29.140560,75.744941,SO2,NA,NA,NA
India,Haryana,Jind,"Police Lines, Jind - HSPCB",20-03-2024 12:00:00,29.307814,76.337619,PM10,72,110,87
India,Haryana,Jind,"Police Lines, Jind - HSPCB",20-03-2024 12:00:00,29.307814,76.337619,OZONE,15,27,19
India,Haryana,Kaithal,"Rishi Nagar, Kaithal - HSPCB",20-03-2024 12:00:00,29.8006,76.4155,PM10,92,146,120
India,Haryana,Kaithal,"Rishi Nagar, Kaithal - HSPCB",20-03-2024 12:00:00,29.8006,76.4155,NO2,24,26,25
India,Haryana,Palwal,"Shyam Nagar, Palwal - HSPCB",20-03-2024 12:00:00,28.1485564,77.3320667,NO2,23,24,24
India,Haryana,Palwal,"Shyam Nagar, Palwal - HSPCB",20-03-2024 12:00:00,28.1485564,77.3320667,CO,26,39,33
India,Haryana,Panipat,"Sector-18, Panipat - HSPCB",20-03-2024 12:00:00,29.497973,76.993331,OZONE,30,30,30
India,Haryana,Rohtak,"MD University, Rohtak - HSPCB",20-03-2024 12:00:00,28.52123,76.37138,SO2,5,9,6
India,Haryana,Rohtak,"MD University, Rohtak - HSPCB",20-03-2024 12:00:00,28.52123,76.37138,OZONE,44,56,48
India,Haryana,Sirsa,"F-Block, Sirsa - HSPCB",20-03-2024 12:00:00,29.536400,75.015800,SO2,1,106,33
India,Haryana,Sirsa,"F-Block, Sirsa - HSPCB",20-03-2024 12:00:00,29.536400,75.015800,OZONE,3,146,25
India,Haryana,Sonipat,"Murthal, Sonipat - HSPCB",20-03-2024 12:00:00,29.027200,77.062100,NO2,37,44,40
India,Haryana,Sonipat,"Murthal, Sonipat - HSPCB",20-03-2024 12:00:00,29.027200,77.062100,SO2,13,29,20
India,Haryana,Yamuna Nagar,"Gobind Pura, Yamuna Nagar - HSPCB",20-03-2024 12:00:00,30.1480566,77.2893471,PM10,NA,NA,NA
India,Himachal Pradesh,Baddi,"HIMUDA Complex Phase-1, Baddi - HPPCB",20-03-2024 12:00:00,30.943887,76.801991,PM2.5,5,200,56
India,Himachal Pradesh,Baddi,"HIMUDA Complex Phase-1, Baddi - HPPCB",20-03-2024 12:00:00,30.943887,76.801991,NH3,3,5,4
India,Himachal Pradesh,Baddi,"HIMUDA Complex Phase-1, Baddi - HPPCB",20-03-2024 12:00:00,30.943887,76.801991,SO2,10,105,34
India,Himachal Pradesh,Baddi,"HIMUDA Complex Phase-1, Baddi - HPPCB",20-03-2024 12:00:00,30.943887,76.801991,OZONE,32,189,78
India,Jharkhand,Dhanbad,"Kalakusuma, Dhanbad - DMC",20-03-2024 12:00:00,23.811548,86.481238,PM2.5,1,66,20
India,Jharkhand,Dhanbad,"Kalakusuma, Dhanbad - DMC",20-03-2024 12:00:00,23.811548,86.481238,CO,129,140,132
India,Jharkhand,Dhanbad,"Sardar Patel Nagar, Dhanbad - JSPCB",20-03-2024 12:00:00,23.80569,86.44268,PM10,NA,NA,NA
India,Jharkhand,Pathardih,"Mohalbani Ghat, Pathardih - DMC",20-03-2024 12:00:00,23.669880,86.411725,NO2,NA,NA,NA
India,Jharkhand,Pathardih,"Mohalbani Ghat, Pathardih - DMC",20-03-2024 12:00:00,23.669880,86.411725,OZONE,9,29,10
India,Karnataka,Bagalkot,"Vidayagiri, Bagalkot - KSPCB",20-03-2024 12:00:00,16.172806,75.659694,CO,18,53,36
India,Karnataka,Bengaluru,"Hebbal, Bengaluru - KSPCB",20-03-2024 12:00:00,13.029152,77.585901,PM10,92,147,119
India,Karnataka,Bengaluru,"Hombegowda Nagar, Bengaluru - KSPCB",20-03-2024 12:00:00,12.938539,77.590100,PM2.5,69,152,96
India,Karnataka,Bengaluru,"Hombegowda Nagar, Bengaluru - KSPCB",20-03-2024 12:00:00,12.938539,77.590100,SO2,3,4,4
India,Karnataka,Bengaluru,"Jayanagar 5th Block, Bengaluru - KSPCB",20-03-2024 12:00:00,12.920984,77.584908,PM2.5,76,147,109
India,Karnataka,Bengaluru,"Jayanagar 5th Block, Bengaluru - KSPCB",20-03-2024 12:00:00,12.920984,77.584908,CO,14,62,22
India,Karnataka,Bengaluru,"Jigani, Bengaluru - KSPCB",20-03-2024 12:00:00,12.7816279,77.6299145,SO2,16,16,16
India,Karnataka,Bengaluru,"Kasturi Nagar, Bengaluru - KSPCB",20-03-2024 12:00:00,13.003872,77.664217,NH3,3,4,4
India,Karnataka,Bengaluru,"Kasturi Nagar, Bengaluru - KSPCB",20-03-2024 12:00:00,13.003872,77.664217,SO2,10,10,10
India,Karnataka,Bengaluru,"Peenya, Bengaluru - CPCB",20-03-2024 12:00:00,13.0270199,77.494094,NH3,3,3,3
India,Karnataka,Bengaluru,"Shivapura_Peenya, Bengaluru - KSPCB",20-03-2024 12:00:00,13.0246342,77.5080115,NH3,4,4,4
India,Karnataka,Bengaluru,"Shivapura_Peenya, Bengaluru - KSPCB",20-03-2024 12:00:00,13.0246342,77.5080115,CO,28,62,34
India,Karnataka,Bidar,"Naubad, Bidar - KSPCB",20-03-2024 12:00:00,17.930306,77.482194,PM2.5,47,88,70
India,Karnataka,Bidar,"Naubad, Bidar - KSPCB",20-03-2024 12:00:00,17.930306,77.482194,NO2,7,9,8
India,Karnataka,Bidar,"Naubad, Bidar - KSPCB",20-03-2024 12:00:00,17.930306,77.482194,OZONE,53,54,54
India,Karnataka,Chamarajanagar,"Urban, Chamarajanagar - KSPCB",20-03-2024 12:00:00,11.55358,76.55521,NO2,23,40,31
India,Karnataka,Chikkaballapur,"Chikkaballapur Rural, Chikkaballapur - KSPCB",20-03-2024 12:00:00,13.428828,77.731418,NH3,1,3,1
India,Karnataka,Chikkaballapur,"Chikkaballapur Rural, Chikkaballapur - KSPCB",20-03-2024 12:00:00,13.428828,77.731418,OZONE,25,26,26
India,Karnataka,Chikkamagaluru,"Kalyana Nagara, Chikkamagaluru - KSPCB",20-03-2024 12:00:00,13.328028,75.797056,NH3,3,5,4
India,Karnataka,Davanagere,"Devaraj Urs Badavane, Davanagere - KSPCB",20-03-2024 12:00:00,14.475800,75.905200,NH3,1,1,1
India,Karnataka,Dharwad,"Kalabhavan, Dharwad - KSPCB",20-03-2024 12:00:00,15.459706,75.008381,PM2.5,38,65,54
India,Karnataka,Dharwad,"Kalabhavan, Dharwad - KSPCB",20-03-2024 12:00:00,15.459706,75.008381,PM10,50,87,72
India,Karnataka,Dharwad,"Kalabhavan, Dharwad - KSPCB",20-03-2024 12:00:00,15.459706,75.008381,NH3,3,3,3
India,Karnataka,Dharwad,"Kalabhavan, Dharwad - KSPCB",20-03-2024 12:00:00,15.459706,75.008381,CO,34,88,58
India,Karnataka,Dharwad,"Kalabhavan, Dharwad - KSPCB",20-03-2024 12:00:00,15.459706,75.008381,OZONE,18,57,35
India,Karnataka,Hassan,"B.Katihalli, Hassan - KSPCB",20-03-2024 12:00:00,13.008556,76.125258,NO2,7,36,18
India,Karnataka,Haveri,"Ashwini Nagar, Haveri - KSPCB",20-03-2024 12:00:00,14.791800,75.389600,NH3,NA,NA,NA
India,Karnataka,Hubballi,"Deshpande Nagar, Hubballi - KSPCB",20-03-2024 12:00:00,15.351773,75.140726,NH3,4,5,4
India,Karnataka,Hubballi,"Deshpande Nagar, Hubballi - KSPCB",20-03-2024 12:00:00,15.351773,75.140726,OZONE,28,64,40
India,Karnataka,Hubballi,"Lingaraj Nagar, Hubballi - KSPCB",20-03-2024 12:00:00,15.3714823,75.1160168,NH3,NA,NA,NA
India,Karnataka,Kalaburagi,"Lal Bahadur Shastri Nagar, Kalaburagi - KSPCB",20-03-2024 12:00:00,17.321993,76.822628,CO,36,46,37
India,Karnataka,Karwar,"KHB Colony, Karwar - KSPCB",20-03-2024 12:00:00,14.816666,74.141003,NO2,4,12,7
India,Karnataka,Kolar,"Tamaka Ind. Area, Kolar - KSPCB",20-03-2024 12:00:00,13.1276288,78.1570122,NO2,21,33,26
India,Karnataka,Kolar,"Tamaka Ind. Area, Kolar - KSPCB",20-03-2024 12:00:00,13.1276288,78.1570122,SO2,9,18,14
India,Karnataka,Koppal,"Diwator Nagar, Koppal - KSPCB",20-03-2024 12:00:00,15.347630,76.181767,PM2.5,19,58,37
India,Karnataka,Koppal,"Diwator Nagar, Koppal - KSPCB",20-03-2024 12:00:00,15.347630,76.181767,PM10,28,65,44
India,Karnataka,Mangalore,"Kadri, Mangalore - KSPCB",20-03-2024 12:00:00,12.889250,74.853000,NO2,5,6,6
India,Karnataka,Mangalore,"Kadri, Mangalore - KSPCB",20-03-2024 12:00:00,12.889250,74.853000,OZONE,28,34,31
India,Karnataka,Mysuru,"Hebbal 1st Stage, Mysuru - KSPCB",20-03-2024 12:00:00,12.21041,76.37376,PM10,33,64,48
India,Karnataka,Ramanagara,"Vijay Nagar, Ramanagara - KSPCB",20-03-2024 12:00:00,12.733409,77.298051,SO2,17,34,25
India,Karnataka,Shivamogga,"Vinoba Nagara, Shivamogga - KSPCB",20-03-2024 12:00:00,13.940000,75.555917,NO2,11,31,14
India,Karnataka,Tumakuru,"Thimmalapura, Tumakuru - KSPCB",20-03-2024 12:00:00,13.377516,77.099072,PM2.5,15,26,21
India,Karnataka,Udupi,"Brahmagiri, Udupi - KSPCB",20-03-2024 12:00:00,13.34194444,74.74694444,PM2.5,37,88,60
India,Karnataka,Udupi,"Brahmagiri, Udupi - KSPCB",20-03-2024 12:00:00,13.34194444,74.74694444,CO,45,50,48
India,Karnataka,Vijayapura,"Ibrahimpur, Vijayapura - KSPCB",20-03-2024 12:00:00,16.802639,75.722694,CO,121,121,121
India,Karnataka,Yadgir,"Collector Office, Yadgir - KSPCB",20-03-2024 12:00:00,16.7602,77.1428,OZONE,18,20,19
India,Kerala,Kollam,"Polayathode, Kollam - Kerala PCB",20-03-2024 12:00:00,8.8787,76.6073,PM10,51,80,68
India,Kerala,Kollam,"Polayathode, Kollam - Kerala PCB",20-03-2024 12:00:00,8.8787,76.6073,OZONE,30,40,33
India,Kerala,Thiruvananthapuram,"Kariavattom, Thiruvananthapuram - Kerala PCB",20-03-2024 12:00:00,8.563700,76.886500,PM2.5,75,85,81
India,Kerala,Thiruvananthapuram,"Kariavattom, Thiruvananthapuram - Kerala PCB",20-03-2024 12:00:00,8.563700,76.886500,PM10,91,101,97
India,Kerala,Thrissur,"Corporation Ground, Thrissur - Kerala PCB",20-03-2024 12:00:00,10.532400,76.215900,PM2.5,43,52,47
India,Kerala,Thrissur,"Corporation Ground, Thrissur - Kerala PCB",20-03-2024 12:00:00,10.532400,76.215900,OZONE,27,32,30
India,Madhya Pradesh,Bhopal,"Idgah Hills, Bhopal - MPPCB",20-03-2024 12:00:00,23.264759,77.381568,PM2.5,13,72,31
India,Madhya Pradesh,Bhopal,"Idgah Hills, Bhopal - MPPCB",20-03-2024 12:00:00,23.264759,77.381568,NH3,3,6,4
India,Madhya Pradesh,Bhopal,"Paryavaran Parisar, Bhopal - MPPCB",20-03-2024 12:00:00,23.210494,77.425409,CO,18,56,33
India,Madhya Pradesh,Bhopal,"T T Nagar, Bhopal - MPPCB",20-03-2024 12:00:00,23.233584,77.400574,PM2.5,21,82,45
India,Madhya Pradesh,Dewas,"Bhopal Chauraha, Dewas - MPPCB",20-03-2024 12:00:00,22.9682591,76.064118,CO,10,53,30
India,Madhya Pradesh,Dewas,"Bhopal Chauraha, Dewas - MPPCB",20-03-2024 12:00:00,22.9682591,76.064118,OZONE,7,138,38
India,Madhya Pradesh,Gwalior,"City Center, Gwalior - MPPCB",20-03-2024 12:00:00,26.203442,78.193251,NH3,7,13,11
India,Madhya Pradesh,Gwalior,"Deen Dayal Nagar, Gwalior - MPPCB",20-03-2024 12:00:00,26.259242,78.216432,NH3,3,8,5
India,Madhya Pradesh,Gwalior,"Maharaj Bada, Gwalior - MPPCB",20-03-2024 12:00:00,26.200388,78.147714,PM2.5,42,160,88
India,Madhya Pradesh,Gwalior,"Maharaj Bada, Gwalior - MPPCB",20-03-2024 12:00:00,26.200388,78.147714,PM10,99,204,139
India,Madhya Pradesh,Gwalior,"Maharaj Bada, Gwalior - MPPCB",20-03-2024 12:00:00,26.200388,78.147714,NO2,17,63,38
India,Madhya Pradesh,Gwalior,"Maharaj Bada, Gwalior - MPPCB",20-03-2024 12:00:00,26.200388,78.147714,SO2,18,69,22
India,Madhya Pradesh,Indore,"Maguda Nagar, Indore - IMC",20-03-2024 12:00:00,22.7524,75.8872,OZONE,35,46,36
India,Madhya Pradesh,Indore,"Regional Park, Indore - IMC",20-03-2024 12:00:00,22.6780,75.8559,PM10,27,109,61
India,Madhya Pradesh,Jabalpur,"Govindh Bhavan Colony, Jabalpur - JMC",20-03-2024 12:00:00,23.163174,79.973061,PM2.5,17,82,39
India,Madhya Pradesh,Jabalpur,"Govindh Bhavan Colony, Jabalpur - JMC",20-03-2024 12:00:00,23.163174,79.973061,NH3,8,17,11
India,Madhya Pradesh,Jabalpur,"Gupteshwar, Jabalpur - JMC",20-03-2024 12:00:00,23.142888,79.916147,CO,7,47,12
India,Madhya Pradesh,Jabalpur,"Marhatal, Jabalpur - MPPCB",20-03-2024 12:00:00,23.168606,79.932247,NH3,4,5,4
India,Madhya Pradesh,Jabalpur,"Marhatal, Jabalpur - MPPCB",20-03-2024 12:00:00,23.168606,79.932247,OZONE,40,97,55
India,Madhya Pradesh,Katni,"Gole Bazar, Katni - MPPCB",20-03-2024 12:00:00,23.50016,80.23284,NO2,31,74,46
India,Madhya Pradesh,Katni,"Gole Bazar, Katni - MPPCB",20-03-2024 12:00:00,23.50016,80.23284,NH3,2,5,3
India,Madhya Pradesh,Maihar,"Sahilara, Maihar - KJS Cements",20-03-2024 12:00:00,24.2613009,80.7231783,PM2.5,14,38,25
India,Madhya Pradesh,Maihar,"Sahilara, Maihar - KJS Cements",20-03-2024 12:00:00,24.2613009,80.7231783,SO2,17,23,19
India,Madhya Pradesh,Mandideep,"Sector-D Industrial Area, Mandideep - MPPCB",20-03-2024 12:00:00,23.108440,77.511428,CO,11,102,16
India,Madhya Pradesh,Sagar,"Civil Lines, Sagar - MPPCB",20-03-2024 12:00:00,23.838586,78.759431,CO,4,26,18
India,Madhya Pradesh,Sagar,"Civil Lines, Sagar - MPPCB",20-03-2024 12:00:00,23.838586,78.759431,OZONE,24,132,57
India,Madhya Pradesh,Sagar,"Deen Dayal Nagar, Sagar - MPPCB",20-03-2024 12:00:00,23.8640158,78.80289321,PM2.5,12,41,24
India,Madhya Pradesh,Sagar,"Deen Dayal Nagar, Sagar - MPPCB",20-03-2024 12:00:00,23.8640158,78.80289321,PM10,25,251,47
India,Madhya Pradesh,Sagar,"Deen Dayal Nagar, Sagar - MPPCB",20-03-2024 12:00:00,23.8640158,78.80289321,CO,52,70,58
India,Madhya Pradesh,Satna,"Bandhavgar Colony, Satna - Birla Cement",20-03-2024 12:00:00,24.58434363,80.8549414,PM2.5,49,145,95
India,Madhya Pradesh,Satna,"Bandhavgar Colony, Satna - Birla Cement",20-03-2024 12:00:00,24.58434363,80.8549414,PM10,63,106,81
India,Madhya Pradesh,Singrauli,"Suryakiran Bhawan NCL, Singrauli - MPPCB",20-03-2024 12:00:00,24.108970,82.645580,CO,32,66,41
India,Madhya Pradesh,Ujjain,"Mahakaleshwar Temple, Ujjain - MPPCB",20-03-2024 12:00:00,23.182719 ,75.768218 ,OZONE,131,165,154
India,Maharashtra,Amravati,"Shivneri Colony, Amravati - MPCB",20-03-2024 12:00:00,20.9402359,77.7895248,NO2,12,34,22
India,Maharashtra,Amravati,"Shivneri Colony, Amravati - MPCB",20-03-2024 12:00:00,20.9402359,77.7895248,NH3,1,2,2
India,Maharashtra,Amravati,"Shri Shivaji Science College, Amaravati - MPCB",20-03-2024 12:00:00,20.939198,77.765701,NH3,1,4,2
India,Maharashtra,Amravati,"Shri Shivaji Science College, Amaravati - MPCB",20-03-2024 12:00:00,20.939198,77.765701,OZONE,47,140,69
India,Maharashtra,Aurangabad,"MIDC Chilkalthana, Aurangabad - MPCB",20-03-2024 12:00:00,19.875620,75.387310,NO2,4,146,34
India,Maharashtra,Aurangabad,"MIDC Chilkalthana, Aurangabad - MPCB",20-03-2024 12:00:00,19.875620,75.387310,CO,68,92,76
India,Maharashtra,Aurangabad,"Rachnakar Colony, Aurangabad - MPCB",20-03-2024 12:00:00,19.863756,75.321188,PM10,74,464,156
India,Maharashtra,Aurangabad,"Rachnakar Colony, Aurangabad - MPCB",20-03-2024 12:00:00,19.863756,75.321188,CO,10,98,25
India,Maharashtra,Aurangabad,"Rachnakar Colony, Aurangabad - MPCB",20-03-2024 12:00:00,19.863756,75.321188,OZONE,14,125,42
India,Maharashtra,Badlapur,"Katrap, Badlapur - MPCB",20-03-2024 12:00:00,19.16485,73.23409,NO2,1,12,6
India,Maharashtra,Belapur,"CBD Belapur, Belapur - MPCB",20-03-2024 12:00:00,19.0243902,73.0406721,NO2,10,101,40
India,Maharashtra,Belapur,"CBD Belapur, Belapur - MPCB",20-03-2024 12:00:00,19.0243902,73.0406721,NH3,11,55,25
India,Maharashtra,Belapur,"CBD Belapur, Belapur - MPCB",20-03-2024 12:00:00,19.0243902,73.0406721,CO,14,76,46
India,Maharashtra,Bhiwandi,"Gokul Nagar, Bhiwandi - MPCB",20-03-2024 12:00:00,19.309073,73.057223,PM2.5,71,308,181
India,Maharashtra,Bhiwandi,"Gokul Nagar, Bhiwandi - MPCB",20-03-2024 12:00:00,19.309073,73.057223,NO2,14,85,47
India,Maharashtra,Bhiwandi,"Gokul Nagar, Bhiwandi - MPCB",20-03-2024 12:00:00,19.309073,73.057223,OZONE,4,256,190
India,Maharashtra,Chandrapur,"MIDC Khutala, Chandrapur - MPCB",20-03-2024 12:00:00,19.9775302,79.2337086,NO2,14,33,24
India,Maharashtra,Dhule,"Deopur, Dhule - MPCB",20-03-2024 12:00:00,20.918946,74.776388,NH3,3,16,5
India,Maharashtra,Jalgaon,"Prabhat Colony, Jalgaon - MPCB",20-03-2024 12:00:00,21.001264,75.565602,PM10,73,176,124
India,Maharashtra,Jalgaon,"Prabhat Colony, Jalgaon - MPCB",20-03-2024 12:00:00,21.001264,75.565602,SO2,6,32,11
India,Maharashtra,Jalna,"Old MIDC, Jalna - MPCB",20-03-2024 12:00:00,19.854616,75.905894,SO2,1,19,7
India,Maharashtra,Jalna,"Old MIDC, Jalna - MPCB",20-03-2024 12:00:00,19.854616,75.905894,CO,23,29,26
India,Maharashtra,Kalyan,"Khadakpada, Kalyan - MPCB",20-03-2024 12:00:00,19.25292,73.142019,OZONE,8,25,14
India,Maharashtra,Kolhapur,"Shivaji University, Kolhapur - MPCB",20-03-2024 12:00:00,16.6870449,74.2505872,PM2.5,122,169,142
India,Maharashtra,Kolhapur,"Sinchan Bhavan, Kolhapur - MPCB",20-03-2024 12:00:00,16.7143745,74.2426398,PM10,57,167,104
India,Maharashtra,Kolhapur,"Sinchan Bhavan, Kolhapur - MPCB",20-03-2024 12:00:00,16.7143745,74.2426398,CO,24,56,41
India,Maharashtra,Latur,"Sawe Wadi, Latur - MPCB",20-03-2024 12:00:00,18.39963,76.57452,PM2.5,73,148,96
India,Maharashtra,Latur,"Sawe Wadi, Latur - MPCB",20-03-2024 12:00:00,18.39963,76.57452,PM10,82,112,95
India,Maharashtra,Latur,"Sawe Wadi, Latur - MPCB",20-03-2024 12:00:00,18.39963,76.57452,NH3,NA,NA,NA
India,Maharashtra,Mahad,"Kamble Tarf Birwadi, Mahad - MPCB",20-03-2024 12:00:00,18.1023399,73.4783687,SO2,12,132,31
India,Maharashtra,Mahad,"Kamble Tarf Birwadi, Mahad - MPCB",20-03-2024 12:00:00,18.1023399,73.4783687,OZONE,5,94,32
India,Maharashtra,Malegaon,"Mahesh Nagar, Malegaon - MPCB",20-03-2024 12:00:00,20.555712,74.529236,PM10,67,153,108
India,Maharashtra,Malegaon,"Mahesh Nagar, Malegaon - MPCB",20-03-2024 12:00:00,20.555712,74.529236,CO,14,70,27
India,Maharashtra,Malegaon,"Mahesh Nagar, Malegaon - MPCB",20-03-2024 12:00:00,20.555712,74.529236,OZONE,10,105,33
India,Maharashtra,Mira-Bhayandar,"Bhayandar West, Mira-Bhayandar - MPCB",20-03-2024 12:00:00,19.296481,72.840923,SO2,1,22,6
India,Maharashtra,Mira-Bhayandar,"Bhayandar West, Mira-Bhayandar - MPCB",20-03-2024 12:00:00,19.296481,72.840923,OZONE,2,136,26
India,Maharashtra,Mumbai,"Bandra Kurla Complex, Mumbai - MPCB",20-03-2024 12:00:00,19.065931,72.862131,PM2.5,72,253,133
India,Maharashtra,Mumbai,"Bandra Kurla Complex, Mumbai - MPCB",20-03-2024 12:00:00,19.065931,72.862131,OZONE,2,145,20
India,Maharashtra,Mumbai,"Borivali East, Mumbai - IITM",20-03-2024 12:00:00,19.23241,72.86895,NH3,1,2,2
India,Maharashtra,Mumbai,"Borivali East, Mumbai - IITM",20-03-2024 12:00:00,19.23241,72.86895,CO,38,66,52
India,Maharashtra,Mumbai,"Borivali East, Mumbai - MPCB",20-03-2024 12:00:00,19.2243333,72.8658113,PM2.5,NA,NA,NA
India,Maharashtra,Mumbai,"Borivali East, Mumbai - MPCB",20-03-2024 12:00:00,19.2243333,72.8658113,OZONE,NA,NA,NA
India,Maharashtra,Mumbai,"Byculla, Mumbai - BMC",20-03-2024 12:00:00,18.9767,72.8380,NH3,4,5,5
India,Maharashtra,Mumbai,"Byculla, Mumbai - BMC",20-03-2024 12:00:00,18.9767,72.8380,CO,15,62,39
India,Maharashtra,Mumbai,"Chakala-Andheri East, Mumbai - IITM",20-03-2024 12:00:00,19.11074,72.86084,PM10,75,115,95
India,Maharashtra,Mumbai,"Chakala-Andheri East, Mumbai - IITM",20-03-2024 12:00:00,19.11074,72.86084,NO2,91,186,130
India,Maharashtra,Mumbai,"Chakala-Andheri East, Mumbai - IITM",20-03-2024 12:00:00,19.11074,72.86084,NH3,8,29,14
India,Maharashtra,Mumbai,"Chakala-Andheri East, Mumbai - IITM",20-03-2024 12:00:00,19.11074,72.86084,CO,44,100,59
India,Maharashtra,Mumbai,"Chembur, Mumbai - MPCB",20-03-2024 12:00:00,19.0364585,72.8954371,PM2.5,77,145,108
India,Maharashtra,Mumbai,"Chembur, Mumbai - MPCB",20-03-2024 12:00:00,19.0364585,72.8954371,NH3,2,4,3
India,Maharashtra,Mumbai,"Chembur, Mumbai - MPCB",20-03-2024 12:00:00,19.0364585,72.8954371,SO2,1,26,5
India,Maharashtra,Mumbai,"Chhatrapati Shivaji Intl. Airport (T2), Mumbai - MPCB",20-03-2024 12:00:00,19.10078,72.87462,NO2,1,54,37
India,Maharashtra,Mumbai,"Chhatrapati Shivaji Intl. Airport (T2), Mumbai - MPCB",20-03-2024 12:00:00,19.10078,72.87462,SO2,22,29,26
India,Maharashtra,Mumbai,"Colaba, Mumbai - MPCB",20-03-2024 12:00:00,18.910000,72.820000,PM10,39,97,58
India,Maharashtra,Mumbai,"Colaba, Mumbai - MPCB",20-03-2024 12:00:00,18.910000,72.820000,CO,13,22,19
India,Maharashtra,Mumbai,"Ghatkopar, Mumbai - BMC",20-03-2024 12:00:00,19.083694,72.920967,OZONE,1,46,10
India,Maharashtra,Mumbai,"Kandivali East, Mumbai - MPCB",20-03-2024 12:00:00,19.205800,72.868200,PM2.5,63,197,113
India,Maharashtra,Mumbai,"Kandivali East, Mumbai - MPCB",20-03-2024 12:00:00,19.205800,72.868200,PM10,64,163,111
India,Maharashtra,Mumbai,"Kandivali East, Mumbai - MPCB",20-03-2024 12:00:00,19.205800,72.868200,OZONE,30,31,30
India,Maharashtra,Mumbai,"Kandivali West, Mumbai - BMC",20-03-2024 12:00:00,19.215859,72.831718,PM10,61,89,73
India,Maharashtra,Mumbai,"Kherwadi_Bandra East, Mumbai - MPCB",20-03-2024 12:00:00,19.0632143,72.8456324,NO2,13,137,56
India,Maharashtra,Mumbai,"Kurla, Mumbai - MPCB",20-03-2024 12:00:00,19.0863,72.8888,PM10,58,145,92
India,Maharashtra,Mumbai,"Mazgaon, Mumbai - IITM",20-03-2024 12:00:00,18.96702,72.84214,NO2,54,203,106
India,Maharashtra,Mumbai,"Mazgaon, Mumbai - IITM",20-03-2024 12:00:00,18.96702,72.84214,NH3,21,47,30
India,Maharashtra,Mumbai,"Mulund West, Mumbai - MPCB",20-03-2024 12:00:00,19.1750,72.9419,PM10,63,192,103
India,Maharashtra,Mumbai,"Mulund West, Mumbai - MPCB",20-03-2024 12:00:00,19.1750,72.9419,OZONE,7,7,7
India,Maharashtra,Mumbai,"Sewri, Mumbai - BMC",20-03-2024 12:00:00,19.000084,72.856730,NO2,34,106,63
India,Maharashtra,Mumbai,"Sewri, Mumbai - BMC",20-03-2024 12:00:00,19.000084,72.856730,NH3,2,11,8
India,Maharashtra,Mumbai,"Sewri, Mumbai - BMC",20-03-2024 12:00:00,19.000084,72.856730,OZONE,1,79,30
India,Maharashtra,Mumbai,"Shivaji Nagar, Mumbai - BMC",20-03-2024 12:00:00,19.060498,72.923356,SO2,4,50,14
India,Maharashtra,Mumbai,"Siddharth Nagar-Worli, Mumbai - IITM",20-03-2024 12:00:00,19.000083,72.813993,NH3,4,5,5
India,Maharashtra,Mumbai,"Sion, Mumbai - MPCB",20-03-2024 12:00:00,19.047000,72.874600,PM10,125,384,183
India,Maharashtra,Mumbai,"Vasai West, Mumbai - MPCB",20-03-2024 12:00:00,19.383200,72.820400,SO2,16,16,16
India,Maharashtra,Mumbai,"Vile Parle West, Mumbai - MPCB",20-03-2024 12:00:00,19.10861,72.83622,PM10,88,157,116
India,Maharashtra,Mumbai,"Vile Parle West, Mumbai - MPCB",20-03-2024 12:00:00,19.10861,72.83622,CO,43,46,45
India,Maharashtra,Mumbai,"Vile Parle West, Mumbai - MPCB",20-03-2024 12:00:00,19.10861,72.83622,OZONE,4,4,4
India,Maharashtra,Mumbai,"Worli, Mumbai - MPCB",20-03-2024 12:00:00,18.9936162,72.8128113,SO2,11,12,11
India,Maharashtra,Mumbai,"Worli, Mumbai - MPCB",20-03-2024 12:00:00,18.9936162,72.8128113,OZONE,8,12,9
India,Maharashtra,Nagpur,"Ambazari, Nagpur - MPCB",20-03-2024 12:00:00,21.121801,79.04952,NO2,17,81,35
India,Maharashtra,Nagpur,"Ambazari, Nagpur - MPCB",20-03-2024 12:00:00,21.121801,79.04952,OZONE,4,109,30
India,Maharashtra,Nagpur,"Mahal, Nagpur - MPCB",20-03-2024 12:00:00,21.14472,79.107595,PM2.5,42,90,65
India,Maharashtra,Nagpur,"Mahal, Nagpur - MPCB",20-03-2024 12:00:00,21.14472,79.107595,NH3,1,7,4
India,Maharashtra,Nagpur,"Opp GPO Civil Lines, Nagpur - MPCB",20-03-2024 12:00:00,21.152875,79.0517531,PM2.5,39,145,72
India,Maharashtra,Nagpur,"Opp GPO Civil Lines, Nagpur - MPCB",20-03-2024 12:00:00,21.152875,79.0517531,NO2,26,74,42
India,Maharashtra,Nagpur,"Ram Nagar, Nagpur - MPCB",20-03-2024 12:00:00,21.143383,79.048912,NH3,4,6,5
India,Maharashtra,Nagpur,"Ram Nagar, Nagpur - MPCB",20-03-2024 12:00:00,21.143383,79.048912,SO2,6,93,19
India,Maharashtra,Nagpur,"Ram Nagar, Nagpur - MPCB",20-03-2024 12:00:00,21.143383,79.048912,CO,20,35,26
India,Maharashtra,Nagpur,"Ram Nagar, Nagpur - MPCB",20-03-2024 12:00:00,21.143383,79.048912,OZONE,6,82,26
India,Maharashtra,Nanded,"Sneh Nagar, Nanded - MPCB",20-03-2024 12:00:00,19.173852,77.296291,PM2.5,80,270,155
India,Maharashtra,Nashik,"Gangapur Road, Nashik - MPCB",20-03-2024 12:00:00,20.0073285,73.7762427,NO2,10,23,16
India,Maharashtra,Nashik,"Hirawadi, Nashik - MPCB",20-03-2024 12:00:00,20.021503,73.813844,PM2.5,22,113,64
India,Maharashtra,Nashik,"MIDC Ambad, Nashik - MPCB",20-03-2024 12:00:00,19.950220,73.731480,OZONE,5,51,17
India,Maharashtra,Navi Mumbai,"Kopripada-Vashi, Navi Mumbai - MPCB",20-03-2024 12:00:00,19.090337,73.014232,SO2,8,37,17
India,Maharashtra,Navi Mumbai,"Mahape, Navi Mumbai - MPCB",20-03-2024 12:00:00,19.1135051,73.008978,NH3,3,5,3
India,Maharashtra,Navi Mumbai,"Nerul, Navi Mumbai - MPCB",20-03-2024 12:00:00,19.008751,73.016620,NH3,2,6,4
India,Maharashtra,Navi Mumbai,"Nerul, Navi Mumbai - MPCB",20-03-2024 12:00:00,19.008751,73.016620,SO2,12,13,13
India,Maharashtra,Navi Mumbai,"Sanpada, Navi Mumbai - MPCB",20-03-2024 12:00:00,19.0575752,73.0151367,PM10,92,248,142
India,Maharashtra,Navi Mumbai,"Sanpada, Navi Mumbai - MPCB",20-03-2024 12:00:00,19.0575752,73.0151367,NH3,7,43,16
India,Maharashtra,Navi Mumbai,"Sanpada, Navi Mumbai - MPCB",20-03-2024 12:00:00,19.0575752,73.0151367,OZONE,4,146,22
India,Maharashtra,Navi Mumbai,"Sector-19A Nerul, Navi Mumbai - IITM",20-03-2024 12:00:00,19.044,73.0325,PM10,70,180,120
India,Maharashtra,Navi Mumbai,"Sector-19A Nerul, Navi Mumbai - IITM",20-03-2024 12:00:00,19.044,73.0325,CO,4,90,81
India,Maharashtra,Navi Mumbai,"Sector-2E Kalamboli, Navi Mumbai - MPCB",20-03-2024 12:00:00,19.02579,73.10297,OZONE,4,80,26
India,Maharashtra,Navi Mumbai,"Tondare-Taloja, Navi Mumbai - MPCB",20-03-2024 12:00:00,19.0630,73.1209,SO2,10,73,34
India,Maharashtra,Navi Mumbai,"Tondare-Taloja, Navi Mumbai - MPCB",20-03-2024 12:00:00,19.0630,73.1209,CO,5,56,40
India,Maharashtra,Parbhani,"Masoom Colony, Parbhani - MPCB",20-03-2024 12:00:00,19.265594,76.761463,PM10,103,145,129
India,Maharashtra,Parbhani,"Masoom Colony, Parbhani - MPCB",20-03-2024 12:00:00,19.265594,76.761463,CO,20,54,43
India,Maharashtra,Pune,"Karve Road, Pune - MPCB",20-03-2024 12:00:00,18.5011743,73.8165527,PM10,111,129,121
India,Maharashtra,Pune,"Karve Road, Pune - MPCB",20-03-2024 12:00:00,18.5011743,73.8165527,NO2,2,2,2
India,Maharashtra,Pune,"Katraj Dairy, Pune - MPCB",20-03-2024 12:00:00,18.454450,73.854155,OZONE,18,46,29
India,Maharashtra,Pune,"Revenue Colony-Shivajinagar, Pune - IITM",20-03-2024 12:00:00,18.530085,73.849598,PM2.5,30,75,57
India,Maharashtra,Pune,"Savitribai Phule Pune University, Pune - MPCB",20-03-2024 12:00:00,18.547056,73.826908,CO,12,76,44
India,Maharashtra,Sangli,"Vijay Nagar, Sangli - MPCB",20-03-2024 12:00:00, 16.5038,74.3623,OZONE,9,59,31
India,Maharashtra,Solapur,"Ratandeep Housing Society, Solapur - MPCB",20-03-2024 12:00:00,17.65439,75.90649,SO2,3,17,7
India,Maharashtra,Solapur,"Ratandeep Housing Society, Solapur - MPCB",20-03-2024 12:00:00,17.65439,75.90649,OZONE,7,147,55
India,Maharashtra,Solapur,"Solapur, Solapur - MPCB",20-03-2024 12:00:00,17.6599188,75.9063906,PM2.5,NA,NA,NA
India,Maharashtra,Solapur,"Solapur, Solapur - MPCB",20-03-2024 12:00:00,17.6599188,75.9063906,SO2,NA,NA,NA
India,Maharashtra,Thane,"Upvan Fort, Thane - MPCB",20-03-2024 12:00:00,19.222279,72.957979,NH3,2,16,14
India,Maharashtra,Thane,"Upvan Fort, Thane - MPCB",20-03-2024 12:00:00,19.222279,72.957979,SO2,15,101,29
India,Maharashtra,Ulhasnagar,"Sidhi Vinayak Nagar, Ulhasnagar - MPCB",20-03-2024 12:00:00,19.235581,73.159121,PM2.5,61,227,138
India,Maharashtra,Ulhasnagar,"Sidhi Vinayak Nagar, Ulhasnagar - MPCB",20-03-2024 12:00:00,19.235581,73.159121,CO,2,96,39
India,Maharashtra,Virar,"Bolinj, Virar - MPCB",20-03-2024 12:00:00,19.4458210,72.7988231,CO,14,74,43
India,Manipur,Imphal,"DM College of Science, Imphal - Manipur PCB",20-03-2024 12:00:00,24.8207389,93.9423085,PM2.5,NA,NA,NA
India,Manipur,Imphal,"DM College of Science, Imphal - Manipur PCB",20-03-2024 12:00:00,24.8207389,93.9423085,OZONE,1,29,29
India,Manipur,Imphal,"Manipur University, Imphal - Manipur PCB",20-03-2024 12:00:00,24.7524239,93.9286218,NH3,1,1,1
India,Meghalaya,Shillong,"Lumpyngngad, Shillong - Meghalaya PCB",20-03-2024 12:00:00,25.5586,91.8985,PM2.5,40,301,139
India,Meghalaya,Shillong,"Lumpyngngad, Shillong - Meghalaya PCB",20-03-2024 12:00:00,25.5586,91.8985,PM10,35,126,77
India,Meghalaya,Shillong,"Lumpyngngad, Shillong - Meghalaya PCB",20-03-2024 12:00:00,25.5586,91.8985,SO2,38,56,43
India,Nagaland,Kohima,"PWD Juction, Kohima - NPCB",20-03-2024 12:00:00,25.6635413,94.0989878,SO2,29,30,30
India,Odisha,Angul,"Hakimapada, Angul - OSPCB",20-03-2024 12:00:00,20.832874,85.104082,PM2.5,15,167,67
India,Odisha,Angul,"Hakimapada, Angul - OSPCB",20-03-2024 12:00:00,20.832874,85.104082,NH3,NA,NA,NA
India,Odisha,Balasore,"Kalidaspur, Balasore - OSPCB",20-03-2024 12:00:00,21.51161,86.89088,NO2,5,38,16
India,Odisha,Balasore,"Kalidaspur, Balasore - OSPCB",20-03-2024 12:00:00,21.51161,86.89088,NH3,4,6,4
India,Odisha,Balasore,"Kalidaspur, Balasore - OSPCB",20-03-2024 12:00:00,21.51161,86.89088,OZONE,19,71,59
India,Odisha,Baripada,"Meher Colony, Baripada - OSPCB",20-03-2024 12:00:00,21.941841,86.728318,PM2.5,25,81,54
India,Odisha,Baripada,"Meher Colony, Baripada - OSPCB",20-03-2024 12:00:00,21.941841,86.728318,SO2,5,6,5
India,Odisha,Bhubaneswar,"Lingraj Mandir, Bhubaneswar - OSPCB",20-03-2024 12:00:00,20.240790,85.836784,PM2.5,NA,NA,NA
India,Odisha,Bhubaneswar,"Lingraj Mandir, Bhubaneswar - OSPCB",20-03-2024 12:00:00,20.240790,85.836784,PM10,NA,NA,NA
India,Odisha,Bhubaneswar,"Lingraj Mandir, Bhubaneswar - OSPCB",20-03-2024 12:00:00,20.240790,85.836784,OZONE,4,82,72
India,Odisha,Bhubaneswar,"Patia, Bhubaneswar - OSPCB",20-03-2024 12:00:00,20.34652,85.81630,NO2,6,36,19
India,Odisha,Bhubaneswar,"Patia, Bhubaneswar - OSPCB",20-03-2024 12:00:00,20.34652,85.81630,CO,66,104,75
India,Odisha,Brajrajnagar,"GM Office, Brajrajnagar - OSPCB",20-03-2024 12:00:00,21.8004996,83.8396977,PM2.5,2,72,30
India,Odisha,Byasanagar,"Ferro Chrome Colony, Byasanagar - OSPCB",20-03-2024 12:00:00,20.94185,86.11510,NO2,6,78,20
India,Odisha,Byasanagar,"Ferro Chrome Colony, Byasanagar - OSPCB",20-03-2024 12:00:00,20.94185,86.11510,SO2,4,52,12
India,Odisha,Byasanagar,"Ferro Chrome Colony, Byasanagar - OSPCB",20-03-2024 12:00:00,20.94185,86.11510,CO,56,105,76
India,Odisha,Cuttack,"CDA Area, Cuttack - OSPCB",20-03-2024 12:00:00,20.48891     ,85.84768     ,PM10,12,77,40
India,Odisha,Keonjhar,"Jagamohanpur, Keonjhar - OSPCB",20-03-2024 12:00:00,21.643900,85.599355,SO2,2,3,2
India,Odisha,Keonjhar,"Jagamohanpur, Keonjhar - OSPCB",20-03-2024 12:00:00,21.643900,85.599355,CO,12,46,16
India,Odisha,Rourkela,"Raghunathpali, Rourkela - OSPCB",20-03-2024 12:00:00,22.220833,84.809444,SO2,1,5,2
India,Odisha,Rourkela,"Raghunathpali, Rourkela - OSPCB",20-03-2024 12:00:00,22.220833,84.809444,CO,25,56,29
India,Odisha,Rourkela,"Sector-2, Rourkela - OSPCB",20-03-2024 12:00:00,22.24500000,84.88111111,PM10,28,103,59
India,Odisha,Rourkela,"Sector-2, Rourkela - OSPCB",20-03-2024 12:00:00,22.24500000,84.88111111,NO2,NA,NA,NA
India,Odisha,Rourkela,"Sector-2, Rourkela - OSPCB",20-03-2024 12:00:00,22.24500000,84.88111111,CO,9,66,23
India,Odisha,Talcher,"Talcher Coalfields,Talcher - OSPCB",20-03-2024 12:00:00,20.9360711,85.1707021,PM10,NA,NA,NA
India,Odisha,Talcher,"Talcher Coalfields,Talcher - OSPCB",20-03-2024 12:00:00,20.9360711,85.1707021,SO2,17,46,26
India,Odisha,Tensa,"Barsua Iron Ore Mines, Tensa - OSPCB",20-03-2024 12:00:00,21.869985,85.167016,NH3,8,15,11
India,Odisha,Tensa,"Barsua Iron Ore Mines, Tensa - OSPCB",20-03-2024 12:00:00,21.869985,85.167016,OZONE,8,50,16
India,Puducherry,Puducherry,"Jawahar Nagar, Puducherry - PPCC",20-03-2024 12:00:00,11.9309,79.8027,SO2,3,10,7
India,Punjab,Bathinda,"Hardev Nagar, Bathinda - PPCB",20-03-2024 12:00:00,30.233011,74.907758,NO2,28,30,29
India,Punjab,Jalandhar,"Civil Line, Jalandhar - PPCB",20-03-2024 12:00:00,31.321907,75.578914,PM2.5,71,207,118
India,Punjab,Jalandhar,"Civil Line, Jalandhar - PPCB",20-03-2024 12:00:00,31.321907,75.578914,OZONE,37,97,69
India,Punjab,Khanna,"Kalal Majra, Khanna - PPCB",20-03-2024 12:00:00,30.736056 ,76.209694,NO2,30,34,30
India,Punjab,Ludhiana,"Punjab Agricultural University, Ludhiana - PPCB",20-03-2024 12:00:00,30.9028,75.8086,PM10,27,135,95
India,Punjab,Mandi Gobindgarh,"RIMT University, Mandi Gobindgarh - PPCB",20-03-2024 12:00:00,30.649961,76.331442,SO2,2,8,5
India,Punjab,Rupnagar,"Ratanpura, Rupnagar - Ambuja Cements",20-03-2024 12:00:00,31.0325454,76.5623046,CO,30,53,42
India,Rajasthan,Ajmer,"Civil Lines,  Ajmer - RSPCB",20-03-2024 12:00:00,26.470859,74.646594,NO2,10,14,12
India,Rajasthan,Ajmer,"Civil Lines,  Ajmer - RSPCB",20-03-2024 12:00:00,26.470859,74.646594,SO2,10,25,15
India,Rajasthan,Alwar,"Moti Doongri, Alwar - RSPCB",20-03-2024 12:00:00,27.554793,76.611536,NO2,41,61,48
India,Rajasthan,Alwar,"Moti Doongri, Alwar - RSPCB",20-03-2024 12:00:00,27.554793,76.611536,NH3,5,9,7
India,Rajasthan,Banswara,"Rati Talai, Banswara - RSPCB",20-03-2024 12:00:00,23.555190,74.440010,SO2,8,74,28
India,Rajasthan,Baran,"Bamboliya, Baran - RSPCB",20-03-2024 12:00:00,25.106006,76.469948,OZONE,3,137,62
India,Rajasthan,Barmer,"Railway Colony, Barmer - RSPCB",20-03-2024 12:00:00,25.747299,71.393989,NO2,4,36,11
India,Rajasthan,Barmer,"Railway Colony, Barmer - RSPCB",20-03-2024 12:00:00,25.747299,71.393989,NH3,5,17,8
India,Rajasthan,Bharatpur,"Krishna Nagar, Bharatpur - RSPCB",20-03-2024 12:00:00,27.215415,77.50873,PM2.5,44,302,136
India,Rajasthan,Bhiwadi,"RIICO Ind. Area III, Bhiwadi - RSPCB",20-03-2024 12:00:00,28.194909,76.862296,NH3,1,8,6
India,Rajasthan,Bhiwadi,"Vasundhara Nagar_UIT, Bhiwadi - RSPCB",20-03-2024 12:00:00,28.207266,76.829265,NO2,27,100,63
India,Rajasthan,Bhiwadi,"Vasundhara Nagar_UIT, Bhiwadi - RSPCB",20-03-2024 12:00:00,28.207266,76.829265,SO2,9,29,19
India,Rajasthan,Bhiwadi,"Vasundhara Nagar_UIT, Bhiwadi - RSPCB",20-03-2024 12:00:00,28.207266,76.829265,CO,24,62,43
India,Rajasthan,Chittorgarh,"Shastri Nagar, Chittorgarh - RSPCB",20-03-2024 12:00:00,24.892047,74.623527,PM10,40,434,142
India,Rajasthan,Churu,"Subash Chowk, Churu - RSPCB",20-03-2024 12:00:00,28.296139,74.961696,NH3,10,14,12
India,Rajasthan,Churu,"Subash Chowk, Churu - RSPCB",20-03-2024 12:00:00,28.296139,74.961696,CO,12,50,34
India,Rajasthan,Dholpur,"Raja Ganj, Dholpur - RSPCB",20-03-2024 12:00:00,26.699557,77.898881,NH3,NA,NA,NA
India,Rajasthan,Dholpur,"Raja Ganj, Dholpur - RSPCB",20-03-2024 12:00:00,26.699557,77.898881,OZONE,10,167,70
India,Rajasthan,Dungarpur,"Bhoiwada, Dungarpur - RSPCB",20-03-2024 12:00:00,23.837789,73.714926,PM2.5,32,83,45
India,Rajasthan,Dungarpur,"Bhoiwada, Dungarpur - RSPCB",20-03-2024 12:00:00,23.837789,73.714926,NH3,4,5,5
India,Rajasthan,Jaipur,"Adarsh Nagar, Jaipur - RSPCB",20-03-2024 12:00:00,26.902909,75.836858,SO2,11,28,20
India,Rajasthan,Jaipur,"Mansarovar Sector-12, Jaipur - RSPCB",20-03-2024 12:00:00,26.843698,75.766894,PM2.5,19,68,46
India,Rajasthan,Jaipur,"Mansarovar Sector-12, Jaipur - RSPCB",20-03-2024 12:00:00,26.843698,75.766894,NH3,4,10,6
India,Rajasthan,Jaipur,"Mansarovar Sector-12, Jaipur - RSPCB",20-03-2024 12:00:00,26.843698,75.766894,SO2,4,9,6
India,Rajasthan,Jaipur,"Mansarovar Sector-12, Jaipur - RSPCB",20-03-2024 12:00:00,26.843698,75.766894,OZONE,26,43,30
India,Rajasthan,Jaipur,"Police Commissionerate, Jaipur - RSPCB",20-03-2024 12:00:00,26.9164092,75.7994901,PM2.5,46,83,65
India,Rajasthan,Jaipur,"RIICO Sitapura, Jaipur - RSPCB",20-03-2024 12:00:00,26.786682,75.827928,NH3,1,18,4
India,Rajasthan,Jaipur,"Shastri Nagar, Jaipur - RSPCB",20-03-2024 12:00:00,26.9502929,75.730943,PM2.5,32,213,86
India,Rajasthan,Jaipur,"Shastri Nagar, Jaipur - RSPCB",20-03-2024 12:00:00,26.9502929,75.730943,NO2,2,42,19
India,Rajasthan,Jalore,"Mudtra Sili, Jalore - RSPCB",20-03-2024 12:00:00,25.344694,72.626208,SO2,4,8,6
India,Rajasthan,Jalore,"Mudtra Sili, Jalore - RSPCB",20-03-2024 12:00:00,25.344694,72.626208,CO,16,49,23
India,Rajasthan,Jhalawar,"Rajlaxmi Nagar, Jhalawar - RSPCB",20-03-2024 12:00:00,24.588397,76.172782,PM2.5,8,298,78
India,Rajasthan,Jhalawar,"Rajlaxmi Nagar, Jhalawar - RSPCB",20-03-2024 12:00:00,24.588397,76.172782,NO2,14,60,29
India,Rajasthan,Jhalawar,"Rajlaxmi Nagar, Jhalawar - RSPCB",20-03-2024 12:00:00,24.588397,76.172782,SO2,4,28,11
India,Rajasthan,Jhunjhunu,"Indra Nagar, Jhunjhunu - RSPCB",20-03-2024 12:00:00,28.108988,75.386577,SO2,5,14,9
India,Rajasthan,Jodhpur,"Collectorate, Jodhpur - RSPCB",20-03-2024 12:00:00,26.268249,73.0193853,SO2,2,54,19
India,Rajasthan,Jodhpur,"Digari Kalan, Jodhpur - RSPCB",20-03-2024 12:00:00,26.295810,73.082283,PM10,43,140,86
India,Rajasthan,Jodhpur,"Samrat Ashok Udhyan, Jodhpur - RSPCB",20-03-2024 12:00:00,26.253384,72.976571,PM10,66,152,98
India,Rajasthan,Jodhpur,"Samrat Ashok Udhyan, Jodhpur - RSPCB",20-03-2024 12:00:00,26.253384,72.976571,CO,20,58,27
India,Rajasthan,Karauli,"Satyawati Vihar, Karauli - RSPCB",20-03-2024 12:00:00,26.506177,77.025989,NO2,11,34,20
India,Rajasthan,Kota,"Dhanmandi, Kota - RSPCB",20-03-2024 12:00:00,25.164090,75.858137,PM2.5,7,203,65
India,Rajasthan,Kota,"Dhanmandi, Kota - RSPCB",20-03-2024 12:00:00,25.164090,75.858137,PM10,54,287,111
India,Rajasthan,Kota,"Dhanmandi, Kota - RSPCB",20-03-2024 12:00:00,25.164090,75.858137,NH3,4,21,9
India,Rajasthan,Kota,"Dhanmandi, Kota - RSPCB",20-03-2024 12:00:00,25.164090,75.858137,SO2,3,118,29
India,Rajasthan,Kota,"Dhanmandi, Kota - RSPCB",20-03-2024 12:00:00,25.164090,75.858137,OZONE,1,177,177
India,Rajasthan,Kota,"Nayapura, Kota - RSPCB",20-03-2024 12:00:00,25.196024,75.855668,SO2,3,65,10
India,Rajasthan,Kota,"Shrinath Puram, Kota - RSPCB",20-03-2024 12:00:00,25.14389,75.821256,NH3,3,5,5
India,Rajasthan,Nagaur,"Karni Colony, Nagaur - RSPCB",20-03-2024 12:00:00,27.213494,73.734444,NH3,NA,NA,NA
India,Rajasthan,Nagaur,"Karni Colony, Nagaur - RSPCB",20-03-2024 12:00:00,27.213494,73.734444,SO2,1,9,4
India,Rajasthan,Pali,"Indira Colony Vistar, Pali - RSPCB",20-03-2024 12:00:00,25.771061, 73.340227,PM2.5,77,378,174
India,Rajasthan,Pali,"Indira Colony Vistar, Pali - RSPCB",20-03-2024 12:00:00,25.771061, 73.340227,NO2,39,69,50
India,Rajasthan,Pali,"Indira Colony Vistar, Pali - RSPCB",20-03-2024 12:00:00,25.771061, 73.340227,CO,50,103,71
India,Rajasthan,Pratapgarh,"Pragati Nagar, Pratapgarh - RSPCB",20-03-2024 12:00:00,24.041198,74.780702,PM2.5,11,88,38
India,Rajasthan,Rajsamand,"Dhoinda, Rajsamand - RSPCB",20-03-2024 12:00:00,25.036360,73.883502,PM10,30,138,68
India,Rajasthan,Rajsamand,"Dhoinda, Rajsamand - RSPCB",20-03-2024 12:00:00,25.036360,73.883502,NH3,1,1,1
India,Rajasthan,Rajsamand,"Dhoinda, Rajsamand - RSPCB",20-03-2024 12:00:00,25.036360,73.883502,CO,38,93,59
India,Rajasthan,Sawai Madhopur,"Sahu Nagar, Sawai Madhopur - RSPCB",20-03-2024 12:00:00,26.031443,76.359327,PM2.5,35,327,125
India,Rajasthan,Sawai Madhopur,"Sahu Nagar, Sawai Madhopur - RSPCB",20-03-2024 12:00:00,26.031443,76.359327,NH3,1,14,8
India,Rajasthan,Sawai Madhopur,"Sahu Nagar, Sawai Madhopur - RSPCB",20-03-2024 12:00:00,26.031443,76.359327,OZONE,11,139,67
India,Rajasthan,Sikar,"Radhakishan Pura, Sikar - RSPCB",20-03-2024 12:00:00,27.608912,75.153302,PM2.5,14,191,52
India,Rajasthan,Sikar,"Radhakishan Pura, Sikar - RSPCB",20-03-2024 12:00:00,27.608912,75.153302,OZONE,48,173,173
India,Rajasthan,Sirohi,"Vedhaynath Colony, Sirohi - RSPCB",20-03-2024 12:00:00,24.885261,72.857549,PM2.5,26,166,64
India,Rajasthan,Sirohi,"Vedhaynath Colony, Sirohi - RSPCB",20-03-2024 12:00:00,24.885261,72.857549,NH3,2,9,5
India,Rajasthan,Sri Ganganagar,"Old City, Sri Ganganagar - RSPCB",20-03-2024 12:00:00,29.931624,73.864511,OZONE,3,68,29
India,Rajasthan,Tonk,"Shastri Nagar, Tonk - RSPCB",20-03-2024 12:00:00,26.159933,75.780517,CO,9,74,21
India,Rajasthan,Tonk,"Shastri Nagar, Tonk - RSPCB",20-03-2024 12:00:00,26.159933,75.780517,OZONE,6,88,60
India,Rajasthan,Udaipur,"Ashok Nagar, Udaipur - RSPCB",20-03-2024 12:00:00,24.5886166,73.6321397,NO2,61,123,88
India,Rajasthan,Udaipur,"Ashok Nagar, Udaipur - RSPCB",20-03-2024 12:00:00,24.5886166,73.6321397,NH3,8,10,8
India,Rajasthan,Udaipur,"Ashok Nagar, Udaipur - RSPCB",20-03-2024 12:00:00,24.5886166,73.6321397,SO2,6,19,11
India,Sikkim,Gangtok,"Zero Point GICI, Gangtok - SSPCB",20-03-2024 12:00:00,27.338530,88.614099,NO2,1,10,5
India,TamilNadu,Ariyalur,"Keelapalur, Ariyalur - TNPCB",20-03-2024 12:00:00,11.06825,79.07033,PM2.5,47,210,89
India,TamilNadu,Ariyalur,"Keelapalur, Ariyalur - TNPCB",20-03-2024 12:00:00,11.06825,79.07033,PM10,34,78,57
India,TamilNadu,Chennai,"Kodungaiyur, Chennai - TNPCB",20-03-2024 12:00:00,13.1278,80.2642,SO2,1,9,4
India,TamilNadu,Chennai,"Kodungaiyur, Chennai - TNPCB",20-03-2024 12:00:00,13.1278,80.2642,CO,30,44,35
India,TamilNadu,Chennai,"Manali, Chennai - CPCB",20-03-2024 12:00:00,13.164544,80.26285,PM2.5,38,85,55
India,TamilNadu,Chennai,"Manali, Chennai - CPCB",20-03-2024 12:00:00,13.164544,80.26285,NH3,4,5,4
India,TamilNadu,Chennai,"Manali, Chennai - CPCB",20-03-2024 12:00:00,13.164544,80.26285,OZONE,6,16,15
India,TamilNadu,Chennai,"Perungudi, Chennai - TNPCB",20-03-2024 12:00:00,12.9533,80.2357,NO2,NA,NA,NA
India,TamilNadu,Chennai,"Royapuram, Chennai - TNPCB",20-03-2024 12:00:00,13.1036,80.2909,OZONE,7,18,11
India,TamilNadu,Chennai,"Velachery Res. Area, Chennai - CPCB",20-03-2024 12:00:00,13.0052189,80.2398125,PM2.5,59,102,78
India,TamilNadu,Chennai,"Velachery Res. Area, Chennai - CPCB",20-03-2024 12:00:00,13.0052189,80.2398125,NO2,7,37,13
India,TamilNadu,Coimbatore,"PSG College of Arts and Science, Coimbatore - TNPCB",20-03-2024 12:00:00,11.0328,77.0349,NH3,1,1,1
India,TamilNadu,Cuddalore,"Kudikadu, Cuddalore - TNPCB",20-03-2024 12:00:00,11.6829898,79.7532099,PM10,81,126,97
India,TamilNadu,Gummidipoondi,"Anthoni Pillai Nagar, Gummidipoondi - TNPCB",20-03-2024 12:00:00,13.4127,80.1081,NO2,10,19,13
India,TamilNadu,Gummidipoondi,"Anthoni Pillai Nagar, Gummidipoondi - TNPCB",20-03-2024 12:00:00,13.4127,80.1081,NH3,1,2,2
India,TamilNadu,Kanchipuram,"Kilambi, Kanchipuram - TNPCB",20-03-2024 12:00:00,12.864618,79.659968,PM2.5,NA,NA,NA
India,TamilNadu,Kanchipuram,"Kilambi, Kanchipuram - TNPCB",20-03-2024 12:00:00,12.864618,79.659968,PM10,NA,NA,NA
India,TamilNadu,Ooty,"Bombay Castel, Ooty - TNPCB",20-03-2024 12:00:00,11.4068288,76.7138973,NH3,NA,NA,NA
India,TamilNadu,Palkalaiperur,"Bharathidasan University, Palkalaiperur - TNPCB",20-03-2024 12:00:00,10.681158,78.741746,PM10,41,84,59
India,TamilNadu,Palkalaiperur,"Bharathidasan University, Palkalaiperur - TNPCB",20-03-2024 12:00:00,10.681158,78.741746,OZONE,1,1,1
India,TamilNadu,Ramanathapuram,"Chalai Bazaar, Ramanathapuram - TNPCB",20-03-2024 12:00:00,9.36399,78.831977,PM2.5,42,83,65
India,TamilNadu,Ramanathapuram,"Chalai Bazaar, Ramanathapuram - TNPCB",20-03-2024 12:00:00,9.36399,78.831977,PM10,61,114,79
India,TamilNadu,Salem,"Sona College of Technology, Salem - TNPCB",20-03-2024 12:00:00,11.679111,78.125052,NO2,NA,NA,NA
India,TamilNadu,Salem,"Sona College of Technology, Salem - TNPCB",20-03-2024 12:00:00,11.679111,78.125052,NH3,NA,NA,NA
India,TamilNadu,Thoothukudi,"Meelavittan, Thoothukudi - TNPCB",20-03-2024 12:00:00,8.816428 ,78.099039,NO2,13,38,21
India,TamilNadu,Tirupur,"Kumaran College, Tirupur - TNPCB",20-03-2024 12:00:00,11.0973603,77.3228673,PM10,NA,NA,NA
India,TamilNadu,Tirupur,"Kumaran College, Tirupur - TNPCB",20-03-2024 12:00:00,11.0973603,77.3228673,NO2,NA,NA,NA
India,TamilNadu,Vellore,"Vasanthapuram, Vellore - TNPCB",20-03-2024 12:00:00,12.909494,79.131861,SO2,NA,NA,NA
India,Telangana,Hyderabad,"Bollaram Industrial Area, Hyderabad - TSPCB",20-03-2024 12:00:00,17.540891,78.358528,NH3,2,3,2
India,Telangana,Hyderabad,"ECIL Kapra, Hyderabad - TSPCB",20-03-2024 12:00:00,17.470431,78.566959,PM10,57,76,66
India,Telangana,Hyderabad,"Kokapet, Hyderabad - TSPCB",20-03-2024 12:00:00,17.393559,78.339194,CO,26,27,26
India,Telangana,Hyderabad,"Kompally Municipal Office, Hyderabad - TSPCB",20-03-2024 12:00:00,17.544899,78.486949,CO,14,42,25
India,Telangana,Hyderabad,"Nacharam_TSIIC IALA, Hyderabad - TSPCB",20-03-2024 12:00:00,17.429398,78.569354,PM2.5,66,68,67
India,Telangana,Hyderabad,"New Malakpet, Hyderabad - TSPCB",20-03-2024 12:00:00,17.37206,78.50864,NO2,18,32,21
India,Telangana,Hyderabad,"New Malakpet, Hyderabad - TSPCB",20-03-2024 12:00:00,17.37206,78.50864,CO,12,44,16
India,Telangana,Hyderabad,"New Malakpet, Hyderabad - TSPCB",20-03-2024 12:00:00,17.37206,78.50864,OZONE,3,27,6
India,Telangana,Hyderabad,"Ramachandrapuram, Hyderabad - TSPCB",20-03-2024 12:00:00,17.528544,78.286195,PM10,62,91,66
India,Telangana,Hyderabad,"Ramachandrapuram, Hyderabad - TSPCB",20-03-2024 12:00:00,17.528544,78.286195,SO2,2,29,14
India,Telangana,Hyderabad,"Sanathnagar, Hyderabad - TSPCB",20-03-2024 12:00:00,17.4559458,78.4332152,PM2.5,61,87,75
India,Telangana,Hyderabad,"Zoo Park, Hyderabad - TSPCB",20-03-2024 12:00:00,17.349694,78.451437,CO,32,72,49
India,Tripura,Agartala,"Bardowali, Agartala - Tripura SPCB",20-03-2024 12:00:00,23.8175497,91.2726974,SO2,28,29,28
India,Uttar_Pradesh,Agra,"Manoharpur, Agra - UPPCB",20-03-2024 12:00:00,27.23711,78.01936,NO2,22,25,23
India,Uttar_Pradesh,Agra,"Manoharpur, Agra - UPPCB",20-03-2024 12:00:00,27.23711,78.01936,NH3,1,2,1
India,Uttar_Pradesh,Agra,"Manoharpur, Agra - UPPCB",20-03-2024 12:00:00,27.23711,78.01936,OZONE,2,35,15
India,Uttar_Pradesh,Agra,"Rohta, Agra - UPPCB",20-03-2024 12:00:00,27.106972,78.000111,PM10,25,142,72
India,Uttar_Pradesh,Agra,"Rohta, Agra - UPPCB",20-03-2024 12:00:00,27.106972,78.000111,NO2,3,3,3
India,Uttar_Pradesh,Agra,"Sector-3B Avas Vikas Colony, Agra - UPPCB",20-03-2024 12:00:00,27.19412,77.96237,PM10,32,129,86
India,Uttar_Pradesh,Agra,"Sector-3B Avas Vikas Colony, Agra - UPPCB",20-03-2024 12:00:00,27.19412,77.96237,SO2,23,26,24
India,Uttar_Pradesh,Agra,"Shahjahan Garden, Agra - UPPCB",20-03-2024 12:00:00,27.169338,78.03582,NO2,20,21,21
India,Uttar_Pradesh,Agra,"Shahjahan Garden, Agra - UPPCB",20-03-2024 12:00:00,27.169338,78.03582,NH3,8,10,9
India,Uttar_Pradesh,Agra,"Shastripuram, Agra - UPPCB",20-03-2024 12:00:00,27.19862,77.92066,NO2,38,82,42
India,Uttar_Pradesh,Bareilly,"Civil Lines, Bareilly - UPPCB",20-03-2024 12:00:00,28.359581,79.414455,PM10,50,163,104
India,Uttar_Pradesh,Bareilly,"Civil Lines, Bareilly - UPPCB",20-03-2024 12:00:00,28.359581,79.414455,NH3,1,5,1
India,Uttar_Pradesh,Bulandshahr,"Yamunapuram, Bulandshahr - UPPCB",20-03-2024 12:00:00,28.406963,77.849831,CO,17,86,59
India,Uttar_Pradesh,Firozabad,"Nagla Bhau, Firozabad - UPPCB",20-03-2024 12:00:00,27.168897,78.376960,PM2.5,21,128,62
India,Uttar_Pradesh,Firozabad,"Nagla Bhau, Firozabad - UPPCB",20-03-2024 12:00:00,27.168897,78.376960,NH3,2,2,2
India,Uttar_Pradesh,Firozabad,"Nagla Bhau, Firozabad - UPPCB",20-03-2024 12:00:00,27.168897,78.376960,OZONE,17,27,20
India,Uttar_Pradesh,Firozabad,"Vibhab Nagar, Firozabad - UPPCB",20-03-2024 12:00:00,27.1594,78.3953,SO2,13,35,22
India,Uttar_Pradesh,Ghaziabad,"Indirapuram, Ghaziabad - UPPCB",20-03-2024 12:00:00,28.646233,77.358075,NH3,10,14,12
India,Uttar_Pradesh,Ghaziabad,"Loni, Ghaziabad - UPPCB",20-03-2024 12:00:00,28.757294,77.278792,OZONE,2,215,34
India,Uttar_Pradesh,Ghaziabad,"Sanjay Nagar, Ghaziabad - UPPCB",20-03-2024 12:00:00,28.685382,77.453839,OZONE,1,102,20
India,Uttar_Pradesh,Gorakhpur,"Madan Mohan Malaviya University of Technology, Gorakhpur - UPPCB",20-03-2024 12:00:00,26.730136,83.433859,PM2.5,73,280,164
India,Uttar_Pradesh,Gorakhpur,"Madan Mohan Malaviya University of Technology, Gorakhpur - UPPCB",20-03-2024 12:00:00,26.730136,83.433859,CO,18,34,28
India,Uttar_Pradesh,Greater Noida,"Knowledge Park - V, Greater Noida - UPPCB",20-03-2024 12:00:00,28.557054,77.453663,OZONE,3,253,47
India,Uttar_Pradesh,Hapur,"Anand Vihar, Hapur - UPPCB",20-03-2024 12:00:00,28.725645,77.749675,PM2.5,49,281,151
India,Uttar_Pradesh,Hapur,"Anand Vihar, Hapur - UPPCB",20-03-2024 12:00:00,28.725645,77.749675,SO2,41,112,78
India,Uttar_Pradesh,Jhansi,"Shivaji Nagar, Jhansi - UPPCB",20-03-2024 12:00:00,25.4547,78.6039,NH3,6,6,6
India,Uttar_Pradesh,Kanpur,"FTI Kidwai Nagar, Kanpur - UPPCB",20-03-2024 12:00:00,26.428282,80.327067,PM2.5,38,203,91
India,Uttar_Pradesh,Kanpur,"NSI Kalyanpur, Kanpur - UPPCB",20-03-2024 12:00:00,26.509954,80.249612,NO2,13,14,14
India,Uttar_Pradesh,Kanpur,"NSI Kalyanpur, Kanpur - UPPCB",20-03-2024 12:00:00,26.509954,80.249612,NH3,1,2,1
India,Uttar_Pradesh,Khurja,"Kalindi Kunj, Khurja - UPPCB",20-03-2024 12:00:00,28.2348927,77.8683002,OZONE,19,52,21
India,Uttar_Pradesh,Lucknow,"Gomti Nagar, Lucknow - UPPCB",20-03-2024 12:00:00,26.868120,81.005119,NO2,8,16,10
India,Uttar_Pradesh,Lucknow,"Gomti Nagar, Lucknow - UPPCB",20-03-2024 12:00:00,26.868120,81.005119,OZONE,28,61,35
India,Uttar_Pradesh,Lucknow,"Kendriya Vidyalaya, Lucknow - CPCB",20-03-2024 12:00:00,26.906111,80.948222,SO2,4,7,6
India,Uttar_Pradesh,Lucknow,"Kendriya Vidyalaya, Lucknow - CPCB",20-03-2024 12:00:00,26.906111,80.948222,OZONE,7,57,30
India,Uttar_Pradesh,Lucknow,"Kukrail Picnic Spot-1, Lucknow - UPPCB",20-03-2024 12:00:00,26.90723,80.98579,PM2.5,63,313,146
India,Uttar_Pradesh,Lucknow,"Kukrail Picnic Spot-1, Lucknow - UPPCB",20-03-2024 12:00:00,26.90723,80.98579,PM10,70,173,109
India,Uttar_Pradesh,Lucknow,"Kukrail Picnic Spot-1, Lucknow - UPPCB",20-03-2024 12:00:00,26.90723,80.98579,OZONE,2,77,29
India,Uttar_Pradesh,Lucknow,"Lalbagh, Lucknow - CPCB",20-03-2024 12:00:00,26.8458805,80.9365541,PM2.5,54,306,158
India,Uttar_Pradesh,Lucknow,"Lalbagh, Lucknow - CPCB",20-03-2024 12:00:00,26.8458805,80.9365541,PM10,115,237,159
India,Uttar_Pradesh,Lucknow,"Lalbagh, Lucknow - CPCB",20-03-2024 12:00:00,26.8458805,80.9365541,CO,60,123,78
India,Uttar_Pradesh,Lucknow,"Talkatora District Industries Center, Lucknow - CPCB",20-03-2024 12:00:00,26.83399722,80.8917361,PM10,14,426,168
India,Uttar_Pradesh,Lucknow,"Talkatora District Industries Center, Lucknow - CPCB",20-03-2024 12:00:00,26.83399722,80.8917361,OZONE,2,81,17
India,Uttar_Pradesh,Meerut,"Ganga Nagar, Meerut - UPPCB",20-03-2024 12:00:00,28.999264,77.7590354,PM10,87,211,140
India,Uttar_Pradesh,Meerut,"Ganga Nagar, Meerut - UPPCB",20-03-2024 12:00:00,28.999264,77.7590354,SO2,17,64,36
India,Uttar_Pradesh,Meerut,"Jai Bhim Nagar, Meerut - UPPCB",20-03-2024 12:00:00,28.9535882,77.7622941,NH3,5,8,7
India,Uttar_Pradesh,Meerut,"Pallavpuram Phase 2, Meerut - UPPCB",20-03-2024 12:00:00,29.063510,77.709723,PM2.5,42,182,114
India,Uttar_Pradesh,Meerut,"Pallavpuram Phase 2, Meerut - UPPCB",20-03-2024 12:00:00,29.063510,77.709723,NH3,11,16,13
India,Uttar_Pradesh,Meerut,"Pallavpuram Phase 2, Meerut - UPPCB",20-03-2024 12:00:00,29.063510,77.709723,CO,38,80,70
India,Uttar_Pradesh,Moradabad,"Buddhi Vihar, Moradabad - UPPCB",20-03-2024 12:00:00,28.83526,78.74460,OZONE,11,40,15
India,Uttar_Pradesh,Moradabad,"Employment Office, Moradabad - UPPCB",20-03-2024 12:00:00,28.88528,78.73880,PM2.5,39,136,72
India,Uttar_Pradesh,Moradabad,"Employment Office, Moradabad - UPPCB",20-03-2024 12:00:00,28.88528,78.73880,OZONE,12,70,16
India,Uttar_Pradesh,Moradabad,"Jigar Colony, Moradabad - UPPCB",20-03-2024 12:00:00,28.856664,78.772638,NH3,5,5,5
India,Uttar_Pradesh,Moradabad,"Jigar Colony, Moradabad - UPPCB",20-03-2024 12:00:00,28.856664,78.772638,SO2,20,27,22
India,Uttar_Pradesh,Moradabad,"Kashiram Nagar, Moradabad - UPPCB",20-03-2024 12:00:00,28.849399,78.742362,SO2,30,42,33
India,Uttar_Pradesh,Moradabad,"Transport Nagar, Moradabad - UPPCB",20-03-2024 12:00:00,28.802625,78.753728,PM2.5,33,239,94
India,Uttar_Pradesh,Moradabad,"Transport Nagar, Moradabad - UPPCB",20-03-2024 12:00:00,28.802625,78.753728,NH3,6,6,6
India,Uttar_Pradesh,Moradabad,"Transport Nagar, Moradabad - UPPCB",20-03-2024 12:00:00,28.802625,78.753728,CO,39,42,41
India,Uttar_Pradesh,Noida,"Sector - 125, Noida - UPPCB",20-03-2024 12:00:00,28.5447608,77.3231257,PM10,79,248,144
India,Uttar_Pradesh,Noida,"Sector - 62, Noida - IMD",20-03-2024 12:00:00,28.6245479,77.3577104,PM10,109,407,231
India,Uttar_Pradesh,Noida,"Sector-1, Noida - UPPCB",20-03-2024 12:00:00,28.5898,77.3101,NH3,1,5,3
India,Uttar_Pradesh,Noida,"Sector-116, Noida - UPPCB",20-03-2024 12:00:00,28.569230,77.393848,OZONE,1,63,15
India,Uttar_Pradesh,Prayagraj,"Jhunsi, Prayagraj - UPPCB",20-03-2024 12:00:00,25.425602,81.917152,PM10,49,167,104
India,Uttar_Pradesh,Prayagraj,"Motilal Nehru NIT, Prayagraj - UPPCB",20-03-2024 12:00:00,25.494,81.863,PM2.5,24,84,56
India,Uttar_Pradesh,Prayagraj,"Motilal Nehru NIT, Prayagraj - UPPCB",20-03-2024 12:00:00,25.494,81.863,NH3,5,7,6
India,Uttar_Pradesh,Prayagraj,"Motilal Nehru NIT, Prayagraj - UPPCB",20-03-2024 12:00:00,25.494,81.863,SO2,21,24,22
India,Uttar_Pradesh,Prayagraj,"Nagar Nigam, Prayagraj - UPPCB",20-03-2024 12:00:00,25.44919916 ,81.82735986 ,NO2,5,5,5
India,Uttar_Pradesh,Varanasi,"Ardhali Bazar, Varanasi - UPPCB",20-03-2024 12:00:00,25.3505986,82.9083074,SO2,3,10,6
India,Uttar_Pradesh,Varanasi,"Ardhali Bazar, Varanasi - UPPCB",20-03-2024 12:00:00,25.3505986,82.9083074,OZONE,21,26,25
India,Uttar_Pradesh,Varanasi,"Bhelupur, Varanasi - UPPCB",20-03-2024 12:00:00,25.301778,82.996789,PM2.5,3,13,8
India,Uttar_Pradesh,Varanasi,"Bhelupur, Varanasi - UPPCB",20-03-2024 12:00:00,25.301778,82.996789,PM10,10,43,26
India,Uttar_Pradesh,Varanasi,"Bhelupur, Varanasi - UPPCB",20-03-2024 12:00:00,25.301778,82.996789,NO2,8,8,8
India,Uttar_Pradesh,Varanasi,"Bhelupur, Varanasi - UPPCB",20-03-2024 12:00:00,25.301778,82.996789,NH3,1,1,1
India,Uttar_Pradesh,Varanasi,"Maldahiya, Varanasi - UPPCB",20-03-2024 12:00:00,25.32393,82.99687,NH3,1,1,1
India,Uttar_Pradesh,Varanasi,"Maldahiya, Varanasi - UPPCB",20-03-2024 12:00:00,25.32393,82.99687,CO,1,44,14
India,Uttar_Pradesh,Vrindavan,"Omex Eternity, Vrindavan - UPPCB",20-03-2024 12:00:00,27.5714090,77.6557570,SO2,39,44,40
India,Uttarakhand,Dehradun,"Doon University, Dehradun - UKPCB",20-03-2024 12:00:00,30.269444,78.044167,NO2,1,5,2
India,Uttarakhand,Dehradun,"Doon University, Dehradun - UKPCB",20-03-2024 12:00:00,30.269444,78.044167,CO,23,54,37
India,Uttarakhand,Kashipur,"Govt. Girls Inter College, Kashipur - UKPCB",20-03-2024 12:00:00,29.2124114,78.9611753,PM2.5,48,262,103
India,Uttarakhand,Kashipur,"Govt. Girls Inter College, Kashipur - UKPCB",20-03-2024 12:00:00,29.2124114,78.9611753,NO2,3,39,11
India,Uttarakhand,Kashipur,"Govt. Girls Inter College, Kashipur - UKPCB",20-03-2024 12:00:00,29.2124114,78.9611753,CO,18,102,21
India,Uttarakhand,Rishikesh,"Shivaji Nagar, Rishikesh - UKPCB",20-03-2024 12:00:00,30.075911,78.2859547,NH3,2,3,2
India,Uttarakhand,Rishikesh,"Shivaji Nagar, Rishikesh - UKPCB",20-03-2024 12:00:00,30.075911,78.2859547,CO,12,37,21
India,West_Bengal,Asansol,"Asansol Court Area, Asansol - WBPCB",20-03-2024 12:00:00,23.685297,86.945968,NO2,15,35,26
India,West_Bengal,Asansol,"Asansol Court Area, Asansol - WBPCB",20-03-2024 12:00:00,23.685297,86.945968,NH3,3,13,7
India,West_Bengal,Asansol,"Asansol Court Area, Asansol - WBPCB",20-03-2024 12:00:00,23.685297,86.945968,SO2,7,20,12
India,West_Bengal,Durgapur,"Sidhu Kanhu Indoor Stadium, Durgapur - WBPCB",20-03-2024 12:00:00,23.5404352,87.2892225,NO2,23,36,27
India,West_Bengal,Howrah,"Ghusuri, Howrah - WBPCB",20-03-2024 12:00:00,22.611968,88.347422,PM2.5,43,107,79
India,West_Bengal,Howrah,"Ghusuri, Howrah - WBPCB",20-03-2024 12:00:00,22.611968,88.347422,PM10,34,122,84
India,West_Bengal,Howrah,"Padmapukur, Howrah - WBPCB",20-03-2024 12:00:00,22.5687319,88.2797276,NO2,NA,NA,NA
India,West_Bengal,Kolkata,"Ballygunge, Kolkata - WBPCB",20-03-2024 12:00:00,22.5367507,88.3638022,PM2.5,22,71,48
India,West_Bengal,Kolkata,"Ballygunge, Kolkata - WBPCB",20-03-2024 12:00:00,22.5367507,88.3638022,SO2,5,65,19
India,West_Bengal,Kolkata,"Ballygunge, Kolkata - WBPCB",20-03-2024 12:00:00,22.5367507,88.3638022,CO,2,21,10
India,West_Bengal,Kolkata,"Bidhannagar, Kolkata - WBPCB",20-03-2024 12:00:00,22.58157048,88.41002457,PM2.5,22,90,54
India,West_Bengal,Kolkata,"Bidhannagar, Kolkata - WBPCB",20-03-2024 12:00:00,22.58157048,88.41002457,PM10,34,108,73
India,West_Bengal,Kolkata,"Bidhannagar, Kolkata - WBPCB",20-03-2024 12:00:00,22.58157048,88.41002457,OZONE,14,107,31
India,West_Bengal,Kolkata,"Fort William, Kolkata - WBPCB",20-03-2024 12:00:00,22.556640,88.342674,OZONE,37,85,47
India,West_Bengal,Kolkata,"Jadavpur, Kolkata - WBPCB",20-03-2024 12:00:00,22.49929,88.36917,NH3,7,7,7
India,West_Bengal,Kolkata,"Jadavpur, Kolkata - WBPCB",20-03-2024 12:00:00,22.49929,88.36917,SO2,4,33,12
India,West_Bengal,Kolkata,"Jadavpur, Kolkata - WBPCB",20-03-2024 12:00:00,22.49929,88.36917,OZONE,7,76,11
India,West_Bengal,Kolkata,"Rabindra Bharati University, Kolkata - WBPCB",20-03-2024 12:00:00,22.627847,88.380669,PM10,23,109,68
India,West_Bengal,Kolkata,"Rabindra Sarobar, Kolkata - WBPCB",20-03-2024 12:00:00,22.51106,88.35142,PM2.5,20,64,41
India,West_Bengal,Siliguri,"Ward-32 Bapupara, Siliguri - WBPCB",20-03-2024 12:00:00,26.6879226,88.4152495,PM2.5,69,308,143
India,West_Bengal,Siliguri,"Ward-32 Bapupara, Siliguri - WBPCB",20-03-2024 12:00:00,26.6879226,88.4152495,PM10,93,221,137
India,West_Bengal,Siliguri,"Ward-32 Bapupara, Siliguri - WBPCB",20-03-2024 12:00:00,26.6879226,88.4152495,OZONE,15,74,33
India,Andhra_Pradesh,Amaravati,"Secretariat, Amaravati - APPCB",20-03-2024 12:00:00,16.5150833,80.5181667,PM2.5,24,62,48
India,Andhra_Pradesh,Amaravati,"Secretariat, Amaravati - APPCB",20-03-2024 12:00:00,16.5150833,80.5181667,PM10,43,111,64
India,Andhra_Pradesh,Anantapur,"Gulzarpet, Anantapur - APPCB",20-03-2024 12:00:00,14.675886,77.593027,CO,32,86,38
India,Andhra_Pradesh,Chittoor,"Gangineni Cheruvu, Chittoor - APPCB",20-03-2024 12:00:00,13.204880,79.097889,PM2.5,50,326,74
India,Andhra_Pradesh,Chittoor,"Gangineni Cheruvu, Chittoor - APPCB",20-03-2024 12:00:00,13.204880,79.097889,NH3,1,2,1
India,Andhra_Pradesh,Rajamahendravaram,"Anand Kala Kshetram, Rajamahendravaram - APPCB",20-03-2024 12:00:00,16.9872867,81.7363176,SO2,11,12,11
India,Andhra_Pradesh,Tirupati,"Vaikuntapuram, Tirupati - APPCB",20-03-2024 12:00:00,13.615387,79.409230,PM2.5,21,101,62
India,Andhra_Pradesh,Tirupati,"Vaikuntapuram, Tirupati - APPCB",20-03-2024 12:00:00,13.615387,79.409230,CO,10,18,13
India,Andhra_Pradesh,Vijayawada,"HB Colony, Vijayawada - APPCB",20-03-2024 12:00:00,16.536107,80.594233,CO,26,48,31
India,Andhra_Pradesh,Vijayawada,"Rajiv Gandhi Park, Vijayawada - APPCB",20-03-2024 12:00:00,16.509717,80.612222,PM2.5,49,80,67
India,Andhra_Pradesh,Vijayawada,"Rajiv Gandhi Park, Vijayawada - APPCB",20-03-2024 12:00:00,16.509717,80.612222,PM10,49,85,69
India,Andhra_Pradesh,Visakhapatnam,"GVM Corporation, Visakhapatnam - APPCB",20-03-2024 12:00:00,17.72,83.3,PM2.5,48,89,67
India,Andhra_Pradesh,Visakhapatnam,"GVM Corporation, Visakhapatnam - APPCB",20-03-2024 12:00:00,17.72,83.3,PM10,62,162,92
India,Andhra_Pradesh,Visakhapatnam,"GVM Corporation, Visakhapatnam - APPCB",20-03-2024 12:00:00,17.72,83.3,NH3,4,6,5
India,Assam,Byrnihat,"Central Academy for SFS, Byrnihat - PCBA",20-03-2024 12:00:00,26.071318,91.87488,PM2.5,150,443,329
India,Assam,Byrnihat,"Central Academy for SFS, Byrnihat - PCBA",20-03-2024 12:00:00,26.071318,91.87488,CO,12,76,30
India,Assam,Guwahati,"IITG, Guwahati - PCBA",20-03-2024 12:00:00,26.2028636,91.70046436,PM2.5,228,376,320
India,Assam,Guwahati,"IITG, Guwahati - PCBA",20-03-2024 12:00:00,26.2028636,91.70046436,NO2,2,10,4
India,Assam,Guwahati,"IITG, Guwahati - PCBA",20-03-2024 12:00:00,26.2028636,91.70046436,SO2,12,14,13
India,Assam,Guwahati,"LGBI Airport, Guwahati - PCBA",20-03-2024 12:00:00,26.10887,91.589544,NH3,1,7,4
India,Assam,Guwahati,"Pan Bazaar, Guwahati - PCBA",20-03-2024 12:00:00,26.187500,91.744194,CO,46,96,73
India,Assam,Guwahati,"Railway Colony, Guwahati - PCBA",20-03-2024 12:00:00,26.181742,91.78063,OZONE,1,34,25
India,Assam,Nagaon,"Christianpatty, Nagaon - PCBA",20-03-2024 12:00:00,26.349082,92.68449,PM2.5,28,153,76
India,Assam,Nagaon,"Christianpatty, Nagaon - PCBA",20-03-2024 12:00:00,26.349082,92.68449,CO,5,98,17
India,Assam,Nagaon,"Christianpatty, Nagaon - PCBA",20-03-2024 12:00:00,26.349082,92.68449,OZONE,7,130,20
India,Assam,Nalbari,"Bata Chowk, Nalbari - PCBA",20-03-2024 12:00:00,26.446912,91.439057,PM2.5,150,359,248
India,Assam,Nalbari,"Bata Chowk, Nalbari - PCBA",20-03-2024 12:00:00,26.446912,91.439057,NH3,2,4,2
India,Assam,Nalbari,"Bata Chowk, Nalbari - PCBA",20-03-2024 12:00:00,26.446912,91.439057,SO2,8,14,11
India,Assam,Silchar,"Tarapur, Silchar - PCBA",20-03-2024 12:00:00,24.82827,92.79525,CO,27,68,30
India,Assam,Sivasagar,"Girls College, Sivasagar - PCBA",20-03-2024 12:00:00,26.987634,94.636574,PM2.5,43,65,52
India,Bihar,Araria,"Kharahiya Basti, Araria - BSPCB",20-03-2024 12:00:00,26.146529,87.454184,PM2.5,NA,NA,NA
India,Bihar,Araria,"Kharahiya Basti, Araria - BSPCB",20-03-2024 12:00:00,26.146529,87.454184,SO2,NA,NA,NA
India,Bihar,Arrah,"New DM Office, Arrah - BSPCB",20-03-2024 12:00:00,25.5626095,84.663264,PM2.5,18,130,59
India,Bihar,Arrah,"New DM Office, Arrah - BSPCB",20-03-2024 12:00:00,25.5626095,84.663264,NH3,4,6,5
India,Bihar,Arrah,"New DM Office, Arrah - BSPCB",20-03-2024 12:00:00,25.5626095,84.663264,CO,2,16,7
India,Bihar,Aurangabad,"Gurdeo Nagar, Aurangabad - BSPCB",20-03-2024 12:00:00,24.75746,84.366208,PM2.5,NA,NA,NA
India,Bihar,Bettiah,"Kamalnath Nagar, Bettiah - BSPCB",20-03-2024 12:00:00,26.80365,84.51954,PM10,NA,NA,NA
India,Bihar,Bettiah,"Kamalnath Nagar, Bettiah - BSPCB",20-03-2024 12:00:00,26.80365,84.51954,NO2,8,8,8
India,Bihar,Bhagalpur,"Mayaganj, Bhagalpur - BSPCB",20-03-2024 12:00:00,25.265194,87.012947,PM2.5,42,393,182
India,Bihar,Bhagalpur,"Mayaganj, Bhagalpur - BSPCB",20-03-2024 12:00:00,25.265194,87.012947,NO2,2,14,10
India,Bihar,Bhagalpur,"Mayaganj, Bhagalpur - BSPCB",20-03-2024 12:00:00,25.265194,87.012947,OZONE,10,48,19
India,Bihar,Bihar Sharif,"D M Colony, Bihar Sharif - BSPCB",20-03-2024 12:00:00,25.204762,85.514960,NO2,9,11,9
India,Bihar,Chhapra,"Darshan Nagar, Chhapra - BSPCB",20-03-2024 12:00:00,25.7808257,84.7446768,PM2.5,35,325,174
India,Bihar,Chhapra,"Darshan Nagar, Chhapra - BSPCB",20-03-2024 12:00:00,25.7808257,84.7446768,CO,32,69,36
India,Bihar,Gaya,"Collectorate, Gaya - BSPCB",20-03-2024 12:00:00,24.7955,84.9994,SO2,6,21,13
India,Bihar,Gaya,"SFTI Kusdihra, Gaya - BSPCB",20-03-2024 12:00:00,24.762518,84.982348,OZONE,7,84,24
India,Bihar,Hajipur,"Industrial Area, Hajipur - BSPCB",20-03-2024 12:00:00,25.697189,85.245900,NH3,9,12,10
India,Bihar,Katihar,"Mirchaibari, Katihar - BSPCB",20-03-2024 12:00:00,25.560083,87.553265,PM2.5,13,217,88
India,Bihar,Katihar,"Mirchaibari, Katihar - BSPCB",20-03-2024 12:00:00,25.560083,87.553265,NO2,15,35,25
India,Bihar,Kishanganj,"SDM Office_Khagra, Kishanganj - BSPCB",20-03-2024 12:00:00,26.0881305,87.93840336,NH3,12,16,13
India,Bihar,Kishanganj,"SDM Office_Khagra, Kishanganj - BSPCB",20-03-2024 12:00:00,26.0881305,87.93840336,SO2,4,40,26
India,Bihar,Kishanganj,"SDM Office_Khagra, Kishanganj - BSPCB",20-03-2024 12:00:00,26.0881305,87.93840336,CO,2,14,5
India,Bihar,Motihari,"Gandak Colony, Motihari - BSPCB",20-03-2024 12:00:00,26.63086,84.90051,NO2,56,101,84
India,Bihar,Motihari,"Gandak Colony, Motihari - BSPCB",20-03-2024 12:00:00,26.63086,84.90051,NH3,9,16,13
India,Bihar,Muzaffarpur,"Buddha Colony, Muzaffarpur - BSPCB",20-03-2024 12:00:00,26.11442,85.39813,PM2.5,67,339,264
India,Bihar,Muzaffarpur,"Buddha Colony, Muzaffarpur - BSPCB",20-03-2024 12:00:00,26.11442,85.39813,PM10,77,301,198
India,Bihar,Muzaffarpur,"MIT-Daudpur Kothi, Muzaffarpur - BSPCB",20-03-2024 12:00:00,26.1403345,85.3650192,PM10,95,188,153
India,Bihar,Muzaffarpur,"Muzaffarpur Collectorate, Muzaffarpur - BSPCB",20-03-2024 12:00:00,26.1209,85.3647,CO,22,69,34
India,Bihar,Muzaffarpur,"Muzaffarpur Collectorate, Muzaffarpur - BSPCB",20-03-2024 12:00:00,26.1209,85.3647,OZONE,8,83,13
India,Bihar,Patna,"DRM Office Danapur, Patna - BSPCB",20-03-2024 12:00:00,25.586562,85.043586,PM2.5,36,261,84
India,Bihar,Patna,"DRM Office Danapur, Patna - BSPCB",20-03-2024 12:00:00,25.586562,85.043586,OZONE,4,45,14
India,Bihar,Patna,"Govt. High School Shikarpur, Patna - BSPCB",20-03-2024 12:00:00,25.592539,85.227158,NO2,20,28,22
India,Bihar,Patna,"Govt. High School Shikarpur, Patna - BSPCB",20-03-2024 12:00:00,25.592539,85.227158,NH3,4,5,5
India,Bihar,Patna,"Govt. High School Shikarpur, Patna - BSPCB",20-03-2024 12:00:00,25.592539,85.227158,CO,14,51,24
India,Bihar,Patna,"IGSC Planetarium Complex, Patna - BSPCB",20-03-2024 12:00:00,25.610369,85.132568,CO,9,14,12
India,Bihar,Patna,"Muradpur, Patna - BSPCB",20-03-2024 12:00:00,25.619651,85.147382,SO2,8,27,12
India,Bihar,Patna,"Muradpur, Patna - BSPCB",20-03-2024 12:00:00,25.619651,85.147382,OZONE,2,87,8
India,Bihar,Patna,"Rajbansi Nagar, Patna - BSPCB",20-03-2024 12:00:00,25.599486,85.113666,SO2,4,32,11
India,Bihar,Patna,"Samanpura, Patna - BSPCB",20-03-2024 12:00:00,25.596727,85.085624,PM2.5,46,219,99
India,Bihar,Patna,"Samanpura, Patna - BSPCB",20-03-2024 12:00:00,25.596727,85.085624,OZONE,19,92,73
India,Bihar,Purnia,"Mariam Nagar, Purnia - BSPCB",20-03-2024 12:00:00,25.366336,87.117468,PM10,31,187,130
India,Bihar,Purnia,"Mariam Nagar, Purnia - BSPCB",20-03-2024 12:00:00,25.366336,87.117468,CO,8,72,22
India,Bihar,Rajgir,"Dangi Tola, Rajgir - BSPCB",20-03-2024 12:00:00,25.03280,85.41948,PM10,NA,NA,NA
India,Bihar,Rajgir,"Dangi Tola, Rajgir - BSPCB",20-03-2024 12:00:00,25.03280,85.41948,NO2,NA,NA,NA
India,Bihar,Rajgir,"Dangi Tola, Rajgir - BSPCB",20-03-2024 12:00:00,25.03280,85.41948,NH3,NA,NA,NA
India,Bihar,Rajgir,"Dangi Tola, Rajgir - BSPCB",20-03-2024 12:00:00,25.03280,85.41948,CO,NA,NA,NA
India,Bihar,Saharsa,"Police Line, Saharsa - BSPCB",20-03-2024 12:00:00,25.892357,86.590325,NO2,6,9,7
India,Bihar,Samastipur,"DM Office_Kasipur, Samastipur - BSPCB",20-03-2024 12:00:00,25.859655,85.77944,PM2.5,28,277,98
India,Bihar,Samastipur,"DM Office_Kasipur, Samastipur - BSPCB",20-03-2024 12:00:00,25.859655,85.77944,NH3,2,4,4
India,Bihar,Samastipur,"DM Office_Kasipur, Samastipur - BSPCB",20-03-2024 12:00:00,25.859655,85.77944,OZONE,9,12,10
India,Bihar,Sasaram,"Dada Peer, Sasaram - BSPCB",20-03-2024 12:00:00,24.952822,84.002396,PM10,14,130,71
India,Bihar,Siwan,"Chitragupta Nagar, Siwan - BSPCB",20-03-2024 12:00:00,26.2271665,84.3570427,NO2,9,53,24
India,Chandigarh,Chandigarh,"Sector-25, Chandigarh - CPCC",20-03-2024 12:00:00,30.751462,76.762879,PM10,102,145,125
India,Chandigarh,Chandigarh,"Sector-25, Chandigarh - CPCC",20-03-2024 12:00:00,30.751462,76.762879,NH3,12,32,19
India,Chandigarh,Chandigarh,"Sector-53, Chandigarh - CPCC",20-03-2024 12:00:00,30.719859,76.738637,PM2.5,43,177,91
India,Chandigarh,Chandigarh,"Sector-53, Chandigarh - CPCC",20-03-2024 12:00:00,30.719859,76.738637,SO2,9,54,15
India,Chhattisgarh,Bhilai,"32Bungalows, Bhilai - CECB",20-03-2024 12:00:00,21.194815,81.314770,PM10,17,42,25
India,Chhattisgarh,Bhilai,"32Bungalows, Bhilai - CECB",20-03-2024 12:00:00,21.194815,81.314770,OZONE,4,6,4
India,Chhattisgarh,Bhilai,"Civic Center, Bhilai - Bhilai Steel Plant",20-03-2024 12:00:00,21.185571,81.343175,PM2.5,8,38,20
India,Chhattisgarh,Bhilai,"Civic Center, Bhilai - Bhilai Steel Plant",20-03-2024 12:00:00,21.185571,81.343175,NH3,5,6,5
India,Chhattisgarh,Bhilai,"Civic Center, Bhilai - Bhilai Steel Plant",20-03-2024 12:00:00,21.185571,81.343175,CO,34,60,49
India,Chhattisgarh,Bhilai,"Hathkhoj, Bhilai - CECB",20-03-2024 12:00:00,21.224231,81.408350,OZONE,15,42,31
India,Chhattisgarh,Chhal,"Nawapara SECL Colony, Chhal - CECB",20-03-2024 12:00:00,22.118125,83.140608,NO2,12,34,22
India,Chhattisgarh,Chhal,"Nawapara SECL Colony, Chhal - CECB",20-03-2024 12:00:00,22.118125,83.140608,OZONE,1,14,8
India,Chhattisgarh,Korba,"Rampur, Korba - CECB",20-03-2024 12:00:00,22.368195,82.746431,PM10,12,131,36
India,Chhattisgarh,Korba,"Rampur, Korba - CECB",20-03-2024 12:00:00,22.368195,82.746431,NO2,23,52,31
India,Chhattisgarh,Korba,"Rampur, Korba - CECB",20-03-2024 12:00:00,22.368195,82.746431,SO2,6,46,11
India,Chhattisgarh,Korba,"Urja Nagar, Korba - CECB",20-03-2024 12:00:00,22.348441,82.549611,CO,15,52,40
India,Chhattisgarh,Kunjemura,"OP Jindal School, Kunjemura - CECB",20-03-2024 12:00:00,22.126650,83.483212,PM10,9,79,33
India,Chhattisgarh,Kunjemura,"OP Jindal School, Kunjemura - CECB",20-03-2024 12:00:00,22.126650,83.483212,NO2,7,75,25
India,Chhattisgarh,Milupara,"Govt. Higher Secondary School, Milupara - CECB",20-03-2024 12:00:00,22.1910172,83.5197009,PM10,NA,NA,NA
India,Chhattisgarh,Milupara,"Govt. Higher Secondary School, Milupara - CECB",20-03-2024 12:00:00,22.1910172,83.5197009,NO2,NA,NA,NA
India,Chhattisgarh,Raipur,"AIIMS, Raipur - CECB",20-03-2024 12:00:00,21.258815,81.578979,PM2.5,11,28,19
India,Chhattisgarh,Raipur,"AIIMS, Raipur - CECB",20-03-2024 12:00:00,21.258815,81.578979,SO2,4,11,6
India,Chhattisgarh,Raipur,"AIIMS, Raipur - CECB",20-03-2024 12:00:00,21.258815,81.578979,CO,22,41,26
India,Chhattisgarh,Raipur,"Krishak Nagar, Raipur - CECB",20-03-2024 12:00:00,21.237755,81.705301,OZONE,3,8,6
India,Chhattisgarh,Raipur,"Siltara Phase-II, Raipur - CECB",20-03-2024 12:00:00,21.371751,81.664929,PM2.5,18,50,28
India,Chhattisgarh,Raipur,"Siltara Phase-II, Raipur - CECB",20-03-2024 12:00:00,21.371751,81.664929,NH3,3,3,3
India,Chhattisgarh,Tumidih,"OP Jindal Industrial Park, Tumidih - CECB",20-03-2024 12:00:00,22.06631475,83.33820077,CO,18,26,24
India,Chhattisgarh,Tumidih,"OP Jindal Industrial Park, Tumidih - CECB",20-03-2024 12:00:00,22.06631475,83.33820077,OZONE,27,46,34
India,Delhi,Delhi,"Alipur, Delhi - DPCC",20-03-2024 12:00:00,28.815329,77.153010,NH3,4,9,6
India,Delhi,Delhi,"Aya Nagar, Delhi - IMD",20-03-2024 12:00:00,28.4706914,77.1099364,NO2,17,26,22
India,Delhi,Delhi,"Aya Nagar, Delhi - IMD",20-03-2024 12:00:00,28.4706914,77.1099364,OZONE,4,40,12
India,Delhi,Delhi,"Bawana, Delhi - DPCC",20-03-2024 12:00:00,28.776200,77.051074,OZONE,5,110,21
India,Delhi,Delhi,"Burari Crossing, Delhi - IMD",20-03-2024 12:00:00,28.7256504,77.2011573,PM10,96,413,213
India,Delhi,Delhi,"CRRI Mathura Road, Delhi - IMD",20-03-2024 12:00:00,28.5512005,77.2735737,CO,35,129,104
India,Delhi,Delhi,"CRRI Mathura Road, Delhi - IMD",20-03-2024 12:00:00,28.5512005,77.2735737,OZONE,4,94,10
India,Delhi,Delhi,"Chandni Chowk, Delhi - IITM",20-03-2024 12:00:00,28.656756,77.227234,NO2,10,155,51
India,Delhi,Delhi,"Chandni Chowk, Delhi - IITM",20-03-2024 12:00:00,28.656756,77.227234,CO,60,114,72
India,Delhi,Delhi,"DTU, Delhi - CPCB",20-03-2024 12:00:00,28.7500499,77.1112615,NH3,7,17,12
India,Delhi,Delhi,"DTU, Delhi - CPCB",20-03-2024 12:00:00,28.7500499,77.1112615,CO,25,58,53
India,Delhi,Delhi,"IGI Airport (T3), Delhi - IMD",20-03-2024 12:00:00,28.5627763,77.1180053,NO2,28,71,49
India,Delhi,Delhi,"IHBAS, Dilshad Garden, Delhi - CPCB",20-03-2024 12:00:00,28.6811736,77.3025234,NO2,14,48,37
India,Delhi,Delhi,"IHBAS, Dilshad Garden, Delhi - CPCB",20-03-2024 12:00:00,28.6811736,77.3025234,NH3,4,7,5
India,Delhi,Delhi,"IHBAS, Dilshad Garden, Delhi - CPCB",20-03-2024 12:00:00,28.6811736,77.3025234,SO2,3,23,13
India,Delhi,Delhi,"IHBAS, Dilshad Garden, Delhi - CPCB",20-03-2024 12:00:00,28.6811736,77.3025234,CO,45,94,72
India,Delhi,Delhi,"ITO, Delhi - CPCB",20-03-2024 12:00:00,28.628624,77.241060,PM10,86,244,162
India,Delhi,Delhi,"Jahangirpuri, Delhi - DPCC",20-03-2024 12:00:00,28.732820,77.170633,SO2,1,58,22
India,Delhi,Delhi,"Jawaharlal Nehru Stadium, Delhi - DPCC",20-03-2024 12:00:00,28.580280,77.233829,SO2,15,101,43
India,Delhi,Delhi,"Lodhi Road, Delhi - IMD",20-03-2024 12:00:00,28.5918245,77.2273074,PM2.5,52,448,216
India,Delhi,Delhi,"Major Dhyan Chand National Stadium, Delhi - DPCC",20-03-2024 12:00:00,28.611281,77.237738,PM2.5,62,387,205
India,Delhi,Delhi,"Mandir Marg, Delhi - DPCC",20-03-2024 12:00:00,28.636429,77.201067,NO2,87,197,130
India,Delhi,Delhi,"Mundka, Delhi - DPCC",20-03-2024 12:00:00,28.684678,77.076574,PM10,114,448,281
India,Delhi,Delhi,"NSIT Dwarka, Delhi - CPCB",20-03-2024 12:00:00,28.60909,77.0325413,CO,28,100,39
India,Delhi,Delhi,"Najafgarh, Delhi - DPCC",20-03-2024 12:00:00,28.570173,76.933762,SO2,8,15,11
India,Delhi,Delhi,"Narela, Delhi - DPCC",20-03-2024 12:00:00,28.822836,77.101981,OZONE,4,156,156
India,Delhi,Delhi,"Nehru Nagar, Delhi - DPCC",20-03-2024 12:00:00,28.567890,77.250515,PM2.5,86,438,259
India,Delhi,Delhi,"Nehru Nagar, Delhi - DPCC",20-03-2024 12:00:00,28.567890,77.250515,NO2,10,36,22
India,Delhi,Delhi,"New Moti Bagh, Delhi - MHUA",20-03-2024 12:00:00,28.57834,77.18400,PM2.5,54,378,210
India,Delhi,Delhi,"North Campus, DU, Delhi - IMD",20-03-2024 12:00:00,28.6573814,77.1585447,PM2.5,75,345,229
India,Delhi,Delhi,"North Campus, DU, Delhi - IMD",20-03-2024 12:00:00,28.6573814,77.1585447,OZONE,2,56,10
India,Delhi,Delhi,"Okhla Phase-2, Delhi - DPCC",20-03-2024 12:00:00,28.530785,77.271255,OZONE,10,179,11
India,Delhi,Delhi,"Patparganj, Delhi - DPCC",20-03-2024 12:00:00,28.623763,77.287209,NO2,42,74,61
India,Delhi,Delhi,"Patparganj, Delhi - DPCC",20-03-2024 12:00:00,28.623763,77.287209,CO,16,68,42
India,Delhi,Delhi,"Patparganj, Delhi - DPCC",20-03-2024 12:00:00,28.623763,77.287209,OZONE,4,169,26
India,Delhi,Delhi,"Punjabi Bagh, Delhi - DPCC",20-03-2024 12:00:00,28.674045,77.131023,PM10,95,349,197
India,Delhi,Delhi,"Pusa, Delhi - IMD",20-03-2024 12:00:00,28.636110,77.173332,PM10,107,311,232
India,Delhi,Delhi,"Pusa, Delhi - IMD",20-03-2024 12:00:00,28.636110,77.173332,CO,74,106,104
India,Delhi,Delhi,"R K Puram, Delhi - DPCC",20-03-2024 12:00:00,28.563262,77.186937,NO2,15,73,44
India,Delhi,Delhi,"R K Puram, Delhi - DPCC",20-03-2024 12:00:00,28.563262,77.186937,SO2,6,49,19
India,Delhi,Delhi,"R K Puram, Delhi - DPCC",20-03-2024 12:00:00,28.563262,77.186937,OZONE,9,244,35
India,Delhi,Delhi,"Rohini, Delhi - DPCC",20-03-2024 12:00:00,28.732528,77.119920,PM10,90,385,235
India,Delhi,Delhi,"Rohini, Delhi - DPCC",20-03-2024 12:00:00,28.732528,77.119920,NH3,7,14,9
India,Delhi,Delhi,"Rohini, Delhi - DPCC",20-03-2024 12:00:00,28.732528,77.119920,SO2,9,85,25
India,Delhi,Delhi,"Shadipur, Delhi - CPCB",20-03-2024 12:00:00,28.6514781,77.1473105,PM2.5,99,345,276
India,Delhi,Delhi,"Shadipur, Delhi - CPCB",20-03-2024 12:00:00,28.6514781,77.1473105,SO2,8,23,16
India,Delhi,Delhi,"Sirifort, Delhi - CPCB",20-03-2024 12:00:00,28.5504249,77.2159377,NH3,4,9,6
India,Delhi,Delhi,"Sonia Vihar, Delhi - DPCC",20-03-2024 12:00:00,28.710508,77.249485,SO2,9,35,18
India,Delhi,Delhi,"Sonia Vihar, Delhi - DPCC",20-03-2024 12:00:00,28.710508,77.249485,OZONE,23,197,53
India,Delhi,Delhi,"Sri Aurobindo Marg, Delhi - DPCC",20-03-2024 12:00:00,28.531346,77.190156,PM2.5,57,353,189
India,Delhi,Delhi,"Sri Aurobindo Marg, Delhi - DPCC",20-03-2024 12:00:00,28.531346,77.190156,CO,10,78,46
India,Delhi,Delhi,"Vivek Vihar, Delhi - DPCC",20-03-2024 12:00:00,28.672342,77.315260,PM2.5,NA,NA,NA
India,Delhi,Delhi,"Vivek Vihar, Delhi - DPCC",20-03-2024 12:00:00,28.672342,77.315260,NO2,NA,NA,NA
India,Delhi,Delhi,"Vivek Vihar, Delhi - DPCC",20-03-2024 12:00:00,28.672342,77.315260,NH3,NA,NA,NA
India,Delhi,Delhi,"Vivek Vihar, Delhi - DPCC",20-03-2024 12:00:00,28.672342,77.315260,CO,7,56,50
India,Delhi,Delhi,"Wazirpur, Delhi - DPCC",20-03-2024 12:00:00,28.699793,77.165453,PM10,114,380,250
India,Gujarat,Ahmedabad,"Gyaspur, Ahmedabad - IITM",20-03-2024 12:00:00,22.977134,72.553024,NH3,9,10,10
India,Gujarat,Ahmedabad,"Gyaspur, Ahmedabad - IITM",20-03-2024 12:00:00,22.977134,72.553024,SO2,7,32,14
India,Gujarat,Ahmedabad,"Maninagar, Ahmedabad - GPCB",20-03-2024 12:00:00,23.002657,72.591912,PM2.5,27,176,73
India,Gujarat,Ahmedabad,"Maninagar, Ahmedabad - GPCB",20-03-2024 12:00:00,23.002657,72.591912,PM10,61,194,107
India,Gujarat,Ahmedabad,"Raikhad, Ahmedabad - IITM",20-03-2024 12:00:00,23.020509,72.579261,PM2.5,43,247,82
India,Gujarat,Ahmedabad,"Raikhad, Ahmedabad - IITM",20-03-2024 12:00:00,23.020509,72.579261,NO2,23,182,74
India,Gujarat,Ahmedabad,"SAC ISRO Satellite, Ahmedabad - IITM",20-03-2024 12:00:00,23.023389,72.515201,PM10,90,108,98
India,Gujarat,Ahmedabad,"SAC ISRO Satellite, Ahmedabad - IITM",20-03-2024 12:00:00,23.023389,72.515201,NO2,17,17,17
India,Gujarat,Ahmedabad,"SAC ISRO Satellite, Ahmedabad - IITM",20-03-2024 12:00:00,23.023389,72.515201,CO,23,42,24
India,Gujarat,Ahmedabad,"Sardar Vallabhbhai Patel Stadium, Ahmedabad - IITM",20-03-2024 12:00:00,23.043070,72.562968,SO2,1,13,7
India,Gujarat,Ahmedabad,"Sardar Vallabhbhai Patel Stadium, Ahmedabad - IITM",20-03-2024 12:00:00,23.043070,72.562968,CO,26,111,35
India,Gujarat,Ankleshwar,"GIDC, Ankleshwar - GPCB",20-03-2024 12:00:00,21.613267,73.010555,PM2.5,46,208,122
India,Gujarat,Ankleshwar,"GIDC, Ankleshwar - GPCB",20-03-2024 12:00:00,21.613267,73.010555,NH3,7,7,7
India,Gujarat,Gandhinagar,"IIPHG Lekawada, Gandhinagar - IITM",20-03-2024 12:00:00,23.243639,72.68994,PM10,41,178,109
India,Gujarat,Gandhinagar,"IIPHG Lekawada, Gandhinagar - IITM",20-03-2024 12:00:00,23.243639,72.68994,NO2,37,70,47
India,Gujarat,Gandhinagar,"IIPHG Lekawada, Gandhinagar - IITM",20-03-2024 12:00:00,23.243639,72.68994,SO2,4,11,8
India,Gujarat,Gandhinagar,"Sector-10, Gandhinagar - GPCB",20-03-2024 12:00:00,23.221714,72.654328,PM10,41,101,75
India,Gujarat,Nandesari,"GIDC, Nandesari - Nandesari Ind. Association",20-03-2024 12:00:00,22.410802,73.097923,PM2.5,50,429,254
India,Gujarat,Nandesari,"GIDC, Nandesari - Nandesari Ind. Association",20-03-2024 12:00:00,22.410802,73.097923,SO2,5,20,12
India,Gujarat,Surat,"Science Center, Surat - SMC",20-03-2024 12:00:00,21.170046,72.795405,NO2,29,50,40
India,Gujarat,Vapi,"Phase-1 GIDC, Vapi - GPCB",20-03-2024 12:00:00,20.362421,72.918013,PM10,79,310,137
India,Gujarat,Vapi,"Phase-1 GIDC, Vapi - GPCB",20-03-2024 12:00:00,20.362421,72.918013,NH3,2,2,2
India,Gujarat,Vapi,"Phase-1 GIDC, Vapi - GPCB",20-03-2024 12:00:00,20.362421,72.918013,SO2,46,52,49
India,Gujarat,Vapi,"Phase-1 GIDC, Vapi - GPCB",20-03-2024 12:00:00,20.362421,72.918013,CO,60,189,100
India,Gujarat,Vatva,"Phase-4 GIDC, Vatva - GPCB",20-03-2024 12:00:00,22.969611,72.643500,PM10,48,206,105
India,Gujarat,Vatva,"Phase-4 GIDC, Vatva - GPCB",20-03-2024 12:00:00,22.969611,72.643500,CO,4,135,46
India,Gujarat,Vatva,"Phase-4 GIDC, Vatva - GPCB",20-03-2024 12:00:00,22.969611,72.643500,OZONE,9,62,18
India,Haryana,Bahadurgarh,"Arya Nagar, Bahadurgarh - HSPCB",20-03-2024 12:00:00,28.6701,76.9254,NH3,10,12,11
India,Haryana,Bahadurgarh,"Arya Nagar, Bahadurgarh - HSPCB",20-03-2024 12:00:00,28.6701,76.9254,SO2,16,29,20
India,Haryana,Bahadurgarh,"Arya Nagar, Bahadurgarh - HSPCB",20-03-2024 12:00:00,28.6701,76.9254,OZONE,38,50,42
India,Haryana,Ballabgarh,"Nathu Colony, Ballabgarh - HSPCB",20-03-2024 12:00:00,28.3419248,77.319699,PM10,148,427,228
India,Haryana,Bhiwani,"H.B. Colony, Bhiwani - HSPCB",20-03-2024 12:00:00,28.806223,76.141105,PM2.5,69,230,102
India,Haryana,Bhiwani,"H.B. Colony, Bhiwani - HSPCB",20-03-2024 12:00:00,28.806223,76.141105,NO2,6,13,9
India,Haryana,Charkhi Dadri,"Mini Secretariat, Charkhi Dadri - HSPCB",20-03-2024 12:00:00,28.593883,76.270653,OZONE,13,17,15
India,Haryana,Dharuhera,"Municipal Corporation Office, Dharuhera -  HSPCB",20-03-2024 12:00:00,28.206800,76.799700,PM10,30,439,231
India,Haryana,Dharuhera,"Municipal Corporation Office, Dharuhera -  HSPCB",20-03-2024 12:00:00,28.206800,76.799700,SO2,15,40,25
India,Haryana,Faridabad,"New Industrial Town, Faridabad - HSPCB",20-03-2024 12:00:00,28.39072,77.30059,NO2,11,43,20
India,Haryana,Faridabad,"New Industrial Town, Faridabad - HSPCB",20-03-2024 12:00:00,28.39072,77.30059,NH3,2,8,5
India,Haryana,Faridabad,"Sector 11, Faridabad - HSPCB",20-03-2024 12:00:00,28.376058,77.315741,OZONE,3,69,6
India,Haryana,Faridabad,"Sector- 16A, Faridabad - HSPCB",20-03-2024 12:00:00,28.4088421,77.3099081,NO2,2,15,10
India,Haryana,Fatehabad,"Huda Sector, Fatehabad - HSPCB",20-03-2024 12:00:00,29.503664,75.467934,PM2.5,37,97,69
India,Haryana,Fatehabad,"Huda Sector, Fatehabad - HSPCB",20-03-2024 12:00:00,29.503664,75.467934,PM10,68,115,96
India,Haryana,Fatehabad,"Huda Sector, Fatehabad - HSPCB",20-03-2024 12:00:00,29.503664,75.467934,NH3,12,14,13
India,Haryana,Fatehabad,"Huda Sector, Fatehabad - HSPCB",20-03-2024 12:00:00,29.503664,75.467934,CO,6,14,7
India,Haryana,Gurugram,"Sector-51, Gurugram - HSPCB",20-03-2024 12:00:00,28.4227,77.0667,OZONE,27,67,46
India,Haryana,Gurugram,"Vikas Sadan, Gurugram - HSPCB",20-03-2024 12:00:00,28.4501238,77.0263051,PM2.5,94,256,169
India,Haryana,Hisar,"Urban Estate-II, Hisar - HSPCB",20-03-2024 12:00:00,29.140560,75.744941,NO2,21,44,34
India,Haryana,Jind,"Police Lines, Jind - HSPCB",20-03-2024 12:00:00,29.307814,76.337619,PM2.5,45,88,66
India,Haryana,Kaithal,"Rishi Nagar, Kaithal - HSPCB",20-03-2024 12:00:00,29.8006,76.4155,SO2,6,102,28
India,Haryana,Karnal,"Sector-12, Karnal - HSPCB",20-03-2024 12:00:00,29.695300,77.002700,PM10,60,121,90
India,Haryana,Karnal,"Sector-12, Karnal - HSPCB",20-03-2024 12:00:00,29.695300,77.002700,OZONE,20,33,26
India,Haryana,Kurukshetra,"Sector-7, Kurukshetra - HSPCB",20-03-2024 12:00:00,29.966942,76.875879,NO2,10,11,10
India,Haryana,Kurukshetra,"Sector-7, Kurukshetra - HSPCB",20-03-2024 12:00:00,29.966942,76.875879,CO,1,70,19
India,Haryana,Mandikhera,"General Hospital, Mandikhera - HSPCB",20-03-2024 12:00:00,27.9002,76.9938,NO2,18,21,19
India,Haryana,Mandikhera,"General Hospital, Mandikhera - HSPCB",20-03-2024 12:00:00,27.9002,76.9938,SO2,30,37,34
India,Haryana,Manesar,"Sector-2 IMT, Manesar - HSPCB",20-03-2024 12:00:00,28.360699,76.936090,NH3,1,4,3
India,Haryana,Manesar,"Sector-2 IMT, Manesar - HSPCB",20-03-2024 12:00:00,28.360699,76.936090,CO,14,41,35
India,Haryana,Narnaul,"Shastri Nagar, Narnaul - HSPCB",20-03-2024 12:00:00,28.060249,76.113115,PM10,23,104,51
India,Haryana,Narnaul,"Shastri Nagar, Narnaul - HSPCB",20-03-2024 12:00:00,28.060249,76.113115,SO2,13,14,13
India,Haryana,Palwal,"Shyam Nagar, Palwal - HSPCB",20-03-2024 12:00:00,28.1485564,77.3320667,PM10,76,155,111
India,Haryana,Palwal,"Shyam Nagar, Palwal - HSPCB",20-03-2024 12:00:00,28.1485564,77.3320667,SO2,4,22,15
