country,state,city,station,last_update,latitude,longitude,pollutant_id,pollutant_min,pollutant_max,pollutant_avg
India,Andhra_Pradesh,Anantapur,"Gulzarpet, Anantapur - APPCB",24-01-2024 04:00:00,14.675886,77.593027,PM2.5,36,60,48
India,Andhra_Pradesh,Anantapur,"Gulzarpet, Anantapur - APPCB",24-01-2024 04:00:00,14.675886,77.593027,NH3,NA,NA,NA
India,Andhra_Pradesh,Chittoor,"Gangineni Cheruvu, Chittoor - APPCB",24-01-2024 04:00:00,13.204880,79.097889,PM10,32,91,52
India,Andhra_Pradesh,Chittoor,"Gangineni Cheruvu, Chittoor - APPCB",24-01-2024 04:00:00,13.204880,79.097889,NO2,8,29,15
India,Andhra_Pradesh,Kadapa,"Yerramukkapalli, Kadapa - APPCB",24-01-2024 04:00:00,14.465052,78.824187,PM2.5,33,75,49
India,Andhra_Pradesh,Kadapa,"Yerramukkapalli, Kadapa - APPCB",24-01-2024 04:00:00,14.465052,78.824187,SO2,1,2,2
India,Andhra_Pradesh,Tirupati,"Tirumala, Tirupati - APPCB",24-01-2024 04:00:00,13.67,79.35,PM2.5,47,88,63
India,Andhra_Pradesh,Tirupati,"Tirumala, Tirupati - APPCB",24-01-2024 04:00:00,13.67,79.35,PM10,38,86,61
India,Andhra_Pradesh,Tirupati,"Tirumala, Tirupati - APPCB",24-01-2024 04:00:00,13.67,79.35,NH3,1,2,1
India,Andhra_Pradesh,Tirupati,"Tirumala, Tirupati - APPCB",24-01-2024 04:00:00,13.67,79.35,CO,34,56,44
India,Andhra_Pradesh,Tirupati,"Vaikuntapuram, Tirupati - APPCB",24-01-2024 04:00:00,13.615387,79.409230,PM2.5,21,59,31
India,Andhra_Pradesh,Tirupati,"Vaikuntapuram, Tirupati - APPCB",24-01-2024 04:00:00,13.615387,79.409230,NH3,2,4,3
India,Andhra_Pradesh,Tirupati,"Vaikuntapuram, Tirupati - APPCB",24-01-2024 04:00:00,13.615387,79.409230,SO2,4,5,5
India,Andhra_Pradesh,Tirupati,"Vaikuntapuram, Tirupati - APPCB",24-01-2024 04:00:00,13.615387,79.409230,CO,10,16,12
India,Andhra_Pradesh,Visakhapatnam,"GVM Corporation, Visakhapatnam - APPCB",24-01-2024 04:00:00,17.72,83.3,NO2,25,50,37
India,Andhra_Pradesh,Visakhapatnam,"GVM Corporation, Visakhapatnam - APPCB",24-01-2024 04:00:00,17.72,83.3,SO2,9,15,11
India,Arunachal_Pradesh,Naharlagun,"Naharlagun, Naharlagun - APSPCB",24-01-2024 04:00:00,27.103358,93.679645,NO2,2,2,2
India,Arunachal_Pradesh,Naharlagun,"Naharlagun, Naharlagun - APSPCB",24-01-2024 04:00:00,27.103358,93.679645,SO2,3,3,3
India,Assam,Guwahati,"IITG, Guwahati - PCBA",24-01-2024 04:00:00,26.2028636,91.70046436,PM2.5,159,427,290
India,Assam,Guwahati,"LGBI Airport, Guwahati - PCBA",24-01-2024 04:00:00,26.10887,91.589544,PM2.5,150,345,268
India,Assam,Guwahati,"LGBI Airport, Guwahati - PCBA",24-01-2024 04:00:00,26.10887,91.589544,PM10,76,370,186
India,Assam,Guwahati,"LGBI Airport, Guwahati - PCBA",24-01-2024 04:00:00,26.10887,91.589544,SO2,11,15,13
India,Assam,Guwahati,"Pan Bazaar, Guwahati - PCBA",24-01-2024 04:00:00,26.187500,91.744194,OZONE,17,17,17
India,Assam,Guwahati,"Railway Colony, Guwahati - PCBA",24-01-2024 04:00:00,26.181742,91.78063,CO,32,122,116
India,Assam,Nagaon,"Christianpatty, Nagaon - PCBA",24-01-2024 04:00:00,26.349082,92.68449,PM2.5,177,430,325
India,Assam,Nalbari,"Bata Chowk, Nalbari - PCBA",24-01-2024 04:00:00,26.446912,91.439057,NH3,1,8,3
India,Assam,Sivasagar,"Girls College, Sivasagar - PCBA",24-01-2024 04:00:00,26.987634,94.636574,NO2,6,39,21
India,Bihar,Araria,"Kharahiya Basti, Araria - BSPCB",24-01-2024 04:00:00,26.146529,87.454184,PM2.5,193,344,296
India,Bihar,Arrah,"New DM Office, Arrah - BSPCB",24-01-2024 04:00:00,25.5626095,84.663264,SO2,15,20,18
India,Bihar,Arrah,"New DM Office, Arrah - BSPCB",24-01-2024 04:00:00,25.5626095,84.663264,CO,4,52,21
India,Bihar,Aurangabad,"Gurdeo Nagar, Aurangabad - BSPCB",24-01-2024 04:00:00,24.75746,84.366208,SO2,NA,NA,NA
India,Bihar,Bettiah,"Kamalnath Nagar, Bettiah - BSPCB",24-01-2024 04:00:00,26.80365,84.51954,NH3,3,3,3
India,Bihar,Bhagalpur,"DM Office_Kachari Chowk, Bhagalpur - BSPCB",24-01-2024 04:00:00,25.251013,86.989001,NO2,22,78,42
India,Bihar,Bhagalpur,"Mayaganj, Bhagalpur - BSPCB",24-01-2024 04:00:00,25.265194,87.012947,PM2.5,190,388,337
India,Bihar,Bhagalpur,"Mayaganj, Bhagalpur - BSPCB",24-01-2024 04:00:00,25.265194,87.012947,CO,7,11,9
India,Bihar,Chhapra,"Darshan Nagar, Chhapra - BSPCB",24-01-2024 04:00:00,25.7808257,84.7446768,PM2.5,153,345,258
India,Bihar,Chhapra,"Darshan Nagar, Chhapra - BSPCB",24-01-2024 04:00:00,25.7808257,84.7446768,SO2,2,41,26
India,Bihar,Gaya,"Collectorate, Gaya - BSPCB",24-01-2024 04:00:00,24.7955,84.9994,NO2,17,22,19
India,Bihar,Gaya,"Kareemganj, Gaya - BSPCB",24-01-2024 04:00:00,24.792403,84.992416,NO2,30,31,30
India,Bihar,Kishanganj,"SDM Office_Khagra, Kishanganj - BSPCB",24-01-2024 04:00:00,26.0881305,87.93840336,CO,6,16,13
India,Bihar,Manguraha,"Forest Rest House, Manguraha - BSPCB",24-01-2024 04:00:00,27.308328,84.531742,CO,2,28,4
India,Bihar,Motihari,"Gandak Colony, Motihari - BSPCB",24-01-2024 04:00:00,26.63086,84.90051,CO,55,95,83
India,Bihar,Munger,"Town Hall, Munger - BSPCB",24-01-2024 04:00:00,25.376776,86.471523,NO2,8,9,9
India,Bihar,Munger,"Town Hall, Munger - BSPCB",24-01-2024 04:00:00,25.376776,86.471523,CO,42,82,63
India,Bihar,Muzaffarpur,"Buddha Colony, Muzaffarpur - BSPCB",24-01-2024 04:00:00,26.11442,85.39813,PM2.5,230,326,290
India,Bihar,Muzaffarpur,"Buddha Colony, Muzaffarpur - BSPCB",24-01-2024 04:00:00,26.11442,85.39813,PM10,167,265,203
India,Bihar,Muzaffarpur,"Buddha Colony, Muzaffarpur - BSPCB",24-01-2024 04:00:00,26.11442,85.39813,NO2,26,42,33
India,Bihar,Muzaffarpur,"Buddha Colony, Muzaffarpur - BSPCB",24-01-2024 04:00:00,26.11442,85.39813,NH3,16,23,19
India,Bihar,Muzaffarpur,"Buddha Colony, Muzaffarpur - BSPCB",24-01-2024 04:00:00,26.11442,85.39813,OZONE,44,104,68
India,Bihar,Muzaffarpur,"Muzaffarpur Collectorate, Muzaffarpur - BSPCB",24-01-2024 04:00:00,26.1209,85.3647,NO2,6,11,8
India,Bihar,Patna,"Govt. High School Shikarpur, Patna - BSPCB",24-01-2024 04:00:00,25.592539,85.227158,NH3,3,5,4
India,Bihar,Patna,"IGSC Planetarium Complex, Patna - BSPCB",24-01-2024 04:00:00,25.610369,85.132568,NO2,15,15,15
India,Bihar,Patna,"IGSC Planetarium Complex, Patna - BSPCB",24-01-2024 04:00:00,25.610369,85.132568,OZONE,12,15,14
India,Bihar,Patna,"Muradpur, Patna - BSPCB",24-01-2024 04:00:00,25.619651,85.147382,NH3,1,4,3
India,Bihar,Patna,"Muradpur, Patna - BSPCB",24-01-2024 04:00:00,25.619651,85.147382,OZONE,5,44,14
India,Bihar,Patna,"Samanpura, Patna - BSPCB",24-01-2024 04:00:00,25.596727,85.085624,PM10,214,432,341
India,Bihar,Rajgir,"Dangi Tola, Rajgir - BSPCB",24-01-2024 04:00:00,25.03280,85.41948,SO2,3,7,4
India,Bihar,Saharsa,"Police Line, Saharsa - BSPCB",24-01-2024 04:00:00,25.892357,86.590325,NH3,9,9,9
India,Bihar,Samastipur,"DM Office_Kasipur, Samastipur - BSPCB",24-01-2024 04:00:00,25.859655,85.77944,PM2.5,133,290,211
India,Bihar,Samastipur,"DM Office_Kasipur, Samastipur - BSPCB",24-01-2024 04:00:00,25.859655,85.77944,PM10,127,189,158
India,Bihar,Samastipur,"DM Office_Kasipur, Samastipur - BSPCB",24-01-2024 04:00:00,25.859655,85.77944,NH3,2,5,5
India,Bihar,Samastipur,"DM Office_Kasipur, Samastipur - BSPCB",24-01-2024 04:00:00,25.859655,85.77944,CO,8,27,9
India,Bihar,Sasaram,"Dada Peer, Sasaram - BSPCB",24-01-2024 04:00:00,24.952822,84.002396,PM10,101,161,130
India,Bihar,Sasaram,"Dada Peer, Sasaram - BSPCB",24-01-2024 04:00:00,24.952822,84.002396,SO2,18,23,21
India,Bihar,Siwan,"Chitragupta Nagar, Siwan - BSPCB",24-01-2024 04:00:00,26.2271665,84.3570427,SO2,12,35,28
India,Bihar,Siwan,"Chitragupta Nagar, Siwan - BSPCB",24-01-2024 04:00:00,26.2271665,84.3570427,OZONE,7,30,11
India,Chandigarh,Chandigarh,"Sector 22, Chandigarh - CPCC",24-01-2024 04:00:00,30.735567,76.775714,NH3,6,10,7
India,Chandigarh,Chandigarh,"Sector 22, Chandigarh - CPCC",24-01-2024 04:00:00,30.735567,76.775714,CO,57,106,97
India,Chandigarh,Chandigarh,"Sector-25, Chandigarh - CPCC",24-01-2024 04:00:00,30.751462,76.762879,OZONE,1,20,1
India,Chandigarh,Chandigarh,"Sector-53, Chandigarh - CPCC",24-01-2024 04:00:00,30.719859,76.738637,PM2.5,328,417,384
India,Chandigarh,Chandigarh,"Sector-53, Chandigarh - CPCC",24-01-2024 04:00:00,30.719859,76.738637,SO2,5,12,9
India,Chandigarh,Chandigarh,"Sector-53, Chandigarh - CPCC",24-01-2024 04:00:00,30.719859,76.738637,CO,59,126,109
India,Chhattisgarh,Bhilai,"32Bungalows, Bhilai - CECB",24-01-2024 04:00:00,21.194815,81.314770,PM2.5,71,125,89
India,Chhattisgarh,Bhilai,"32Bungalows, Bhilai - CECB",24-01-2024 04:00:00,21.194815,81.314770,PM10,61,106,84
India,Chhattisgarh,Bhilai,"32Bungalows, Bhilai - CECB",24-01-2024 04:00:00,21.194815,81.314770,NO2,19,31,25
India,Chhattisgarh,Bhilai,"Hathkhoj, Bhilai - CECB",24-01-2024 04:00:00,21.224231,81.408350,PM10,61,114,93
India,Chhattisgarh,Bilaspur,"Mangala, Bilaspur - NTPC",24-01-2024 04:00:00,22.08815,82.13737,CO,28,38,32
India,Chhattisgarh,Chhal,"Nawapara SECL Colony, Chhal - CECB",24-01-2024 04:00:00,22.118125,83.140608,SO2,8,21,15
India,Chhattisgarh,Chhal,"Nawapara SECL Colony, Chhal - CECB",24-01-2024 04:00:00,22.118125,83.140608,CO,61,106,98
India,Chhattisgarh,Korba,"Rampur, Korba - CECB",24-01-2024 04:00:00,22.368195,82.746431,PM2.5,26,79,51
India,Chhattisgarh,Korba,"Rampur, Korba - CECB",24-01-2024 04:00:00,22.368195,82.746431,OZONE,2,64,5
India,Chhattisgarh,Korba,"Urja Nagar, Korba - CECB",24-01-2024 04:00:00,22.348441,82.549611,PM2.5,14,44,29
India,Chhattisgarh,Korba,"Urja Nagar, Korba - CECB",24-01-2024 04:00:00,22.348441,82.549611,PM10,34,174,72
India,Chhattisgarh,Kunjemura,"OP Jindal School, Kunjemura - CECB",24-01-2024 04:00:00,22.126650,83.483212,SO2,1,36,14
India,Chhattisgarh,Milupara,"Govt. Higher Secondary School, Milupara - CECB",24-01-2024 04:00:00,22.1910172,83.5197009,PM10,29,76,48
India,Chhattisgarh,Milupara,"Govt. Higher Secondary School, Milupara - CECB",24-01-2024 04:00:00,22.1910172,83.5197009,NO2,20,43,26
India,Chhattisgarh,Milupara,"Govt. Higher Secondary School, Milupara - CECB",24-01-2024 04:00:00,22.1910172,83.5197009,OZONE,5,38,9
India,Chhattisgarh,Raipur,"AIIMS, Raipur - CECB",24-01-2024 04:00:00,21.258815,81.578979,NO2,43,71,54
India,Chhattisgarh,Raipur,"AIIMS, Raipur - CECB",24-01-2024 04:00:00,21.258815,81.578979,NH3,NA,NA,NA
India,Chhattisgarh,Raipur,"AIIMS, Raipur - CECB",24-01-2024 04:00:00,21.258815,81.578979,CO,32,77,61
India,Chhattisgarh,Raipur,"Bhatagaon New ISBT, Raipur - CECB",24-01-2024 04:00:00,21.219665,81.630094,NO2,43,67,61
India,Chhattisgarh,Raipur,"Siltara Phase-II, Raipur - CECB",24-01-2024 04:00:00,21.371751,81.664929,PM2.5,NA,NA,NA
India,Chhattisgarh,Raipur,"Siltara Phase-II, Raipur - CECB",24-01-2024 04:00:00,21.371751,81.664929,NO2,NA,NA,NA
India,Chhattisgarh,Raipur,"Siltara Phase-II, Raipur - CECB",24-01-2024 04:00:00,21.371751,81.664929,OZONE,3,3,3
India,Chhattisgarh,Tumidih,"OP Jindal Industrial Park, Tumidih - CECB",24-01-2024 04:00:00,22.06631475,83.33820077,OZONE,6,32,8
India,Delhi,Delhi,"Alipur, Delhi - DPCC",24-01-2024 04:00:00,28.815329,77.153010,PM10,193,342,252
India,Delhi,Delhi,"Anand Vihar, Delhi - DPCC",24-01-2024 04:00:00,28.647622,77.3158090,CO,45,84,58
India,Delhi,Delhi,"Ashok Vihar, Delhi - DPCC",24-01-2024 04:00:00,28.695381,77.181665,PM10,215,460,341
India,Delhi,Delhi,"Ashok Vihar, Delhi - DPCC",24-01-2024 04:00:00,28.695381,77.181665,CO,35,100,88
India,Delhi,Delhi,"Aya Nagar, Delhi - IMD",24-01-2024 04:00:00,28.4706914,77.1099364,PM2.5,82,397,285
India,Delhi,Delhi,"Bawana, Delhi - DPCC",24-01-2024 04:00:00,28.776200,77.051074,OZONE,3,72,4
India,Delhi,Delhi,"Burari Crossing, Delhi - IMD",24-01-2024 04:00:00,28.7256504,77.2011573,PM10,196,431,285
India,Delhi,Delhi,"CRRI Mathura Road, Delhi - IMD",24-01-2024 04:00:00,28.5512005,77.2735737,PM2.5,270,413,349
India,Delhi,Delhi,"DTU, Delhi - CPCB",24-01-2024 04:00:00,28.7500499,77.1112615,PM10,250,454,351
India,Delhi,Delhi,"DTU, Delhi - CPCB",24-01-2024 04:00:00,28.7500499,77.1112615,NO2,32,90,57
India,Delhi,Delhi,"DTU, Delhi - CPCB",24-01-2024 04:00:00,28.7500499,77.1112615,NH3,15,22,18
India,Delhi,Delhi,"Dr. Karni Singh Shooting Range, Delhi - DPCC",24-01-2024 04:00:00,28.498571,77.264840,NH3,7,12,9
India,Delhi,Delhi,"Dwarka-Sector 8, Delhi - DPCC ",24-01-2024 04:00:00,28.5710274,77.0719006,OZONE,5,69,6
India,Delhi,Delhi,"IHBAS, Dilshad Garden, Delhi - CPCB",24-01-2024 04:00:00,28.6811736,77.3025234,NO2,23,60,38
India,Delhi,Delhi,"ITO, Delhi - CPCB",24-01-2024 04:00:00,28.628624,77.241060,NH3,5,9,7
India,Delhi,Delhi,"Jahangirpuri, Delhi - DPCC",24-01-2024 04:00:00,28.732820,77.170633,NO2,20,55,32
India,Delhi,Delhi,"Jawaharlal Nehru Stadium, Delhi - DPCC",24-01-2024 04:00:00,28.580280,77.233829,PM2.5,304,448,379
India,Delhi,Delhi,"Jawaharlal Nehru Stadium, Delhi - DPCC",24-01-2024 04:00:00,28.580280,77.233829,PM10,155,437,304
India,Delhi,Delhi,"Jawaharlal Nehru Stadium, Delhi - DPCC",24-01-2024 04:00:00,28.580280,77.233829,NH3,9,13,11
India,Delhi,Delhi,"Jawaharlal Nehru Stadium, Delhi - DPCC",24-01-2024 04:00:00,28.580280,77.233829,SO2,4,13,8
India,Delhi,Delhi,"Lodhi Road, Delhi - IMD",24-01-2024 04:00:00,28.5918245,77.2273074,PM10,NA,NA,NA
India,Delhi,Delhi,"Lodhi Road, Delhi - IMD",24-01-2024 04:00:00,28.5918245,77.2273074,NO2,NA,NA,NA
India,Delhi,Delhi,"Major Dhyan Chand National Stadium, Delhi - DPCC",24-01-2024 04:00:00,28.611281,77.237738,NH3,11,18,15
India,Delhi,Delhi,"Major Dhyan Chand National Stadium, Delhi - DPCC",24-01-2024 04:00:00,28.611281,77.237738,CO,33,103,94
India,Delhi,Delhi,"Mandir Marg, Delhi - DPCC",24-01-2024 04:00:00,28.636429,77.201067,NO2,104,145,121
India,Delhi,Delhi,"Mandir Marg, Delhi - DPCC",24-01-2024 04:00:00,28.636429,77.201067,CO,44,104,99
India,Delhi,Delhi,"Mandir Marg, Delhi - DPCC",24-01-2024 04:00:00,28.636429,77.201067,OZONE,2,13,3
India,Delhi,Delhi,"Mundka, Delhi - DPCC",24-01-2024 04:00:00,28.684678,77.076574,PM2.5,343,500,412
India,Delhi,Delhi,"Mundka, Delhi - DPCC",24-01-2024 04:00:00,28.684678,77.076574,NO2,50,109,70
India,Delhi,Delhi,"Najafgarh, Delhi - DPCC",24-01-2024 04:00:00,28.570173,76.933762,PM2.5,280,450,353
India,Delhi,Delhi,"Najafgarh, Delhi - DPCC",24-01-2024 04:00:00,28.570173,76.933762,NO2,16,40,23
India,Delhi,Delhi,"Narela, Delhi - DPCC",24-01-2024 04:00:00,28.822836,77.101981,SO2,6,15,9
India,Delhi,Delhi,"Nehru Nagar, Delhi - DPCC",24-01-2024 04:00:00,28.567890,77.250515,NO2,24,91,49
India,Delhi,Delhi,"Nehru Nagar, Delhi - DPCC",24-01-2024 04:00:00,28.567890,77.250515,NH3,11,20,15
India,Delhi,Delhi,"North Campus, DU, Delhi - IMD",24-01-2024 04:00:00,28.6573814,77.1585447,PM2.5,323,423,378
India,Delhi,Delhi,"North Campus, DU, Delhi - IMD",24-01-2024 04:00:00,28.6573814,77.1585447,NO2,16,81,43
India,Delhi,Delhi,"Patparganj, Delhi - DPCC",24-01-2024 04:00:00,28.623763,77.287209,CO,38,86,77
India,Delhi,Delhi,"Punjabi Bagh, Delhi - DPCC",24-01-2024 04:00:00,28.674045,77.131023,PM10,158,451,325
India,Delhi,Delhi,"Punjabi Bagh, Delhi - DPCC",24-01-2024 04:00:00,28.674045,77.131023,SO2,7,10,8
India,Delhi,Delhi,"Pusa, Delhi - DPCC",24-01-2024 04:00:00,28.639652,77.146275,SO2,6,13,10
India,Delhi,Delhi,"R K Puram, Delhi - DPCC",24-01-2024 04:00:00,28.563262,77.186937,SO2,21,36,26
India,Delhi,Delhi,"Rohini, Delhi - DPCC",24-01-2024 04:00:00,28.732528,77.119920,PM10,212,434,319
India,Delhi,Delhi,"Rohini, Delhi - DPCC",24-01-2024 04:00:00,28.732528,77.119920,SO2,3,12,8
India,Delhi,Delhi,"Rohini, Delhi - DPCC",24-01-2024 04:00:00,28.732528,77.119920,OZONE,2,110,3
India,Delhi,Delhi,"Shadipur, Delhi - CPCB",24-01-2024 04:00:00,28.6514781,77.1473105,NH3,12,19,15
India,Delhi,Delhi,"Shadipur, Delhi - CPCB",24-01-2024 04:00:00,28.6514781,77.1473105,SO2,9,22,12
India,Delhi,Delhi,"Shadipur, Delhi - CPCB",24-01-2024 04:00:00,28.6514781,77.1473105,CO,37,104,87
India,Delhi,Delhi,"Sirifort, Delhi - CPCB",24-01-2024 04:00:00,28.5504249,77.2159377,PM2.5,322,483,399
India,Delhi,Delhi,"Sonia Vihar, Delhi - DPCC",24-01-2024 04:00:00,28.710508,77.249485,NO2,42,98,63
India,Delhi,Delhi,"Sri Aurobindo Marg, Delhi - DPCC",24-01-2024 04:00:00,28.531346,77.190156,NH3,8,13,11
India,Delhi,Delhi,"Sri Aurobindo Marg, Delhi - DPCC",24-01-2024 04:00:00,28.531346,77.190156,CO,40,107,101
India,Delhi,Delhi,"Vivek Vihar, Delhi - DPCC",24-01-2024 04:00:00,28.672342,77.315260,PM10,200,474,331
India,Delhi,Delhi,"Vivek Vihar, Delhi - DPCC",24-01-2024 04:00:00,28.672342,77.315260,NH3,4,10,7
India,Delhi,Delhi,"Vivek Vihar, Delhi - DPCC",24-01-2024 04:00:00,28.672342,77.315260,SO2,7,8,8
India,Delhi,Delhi,"Wazirpur, Delhi - DPCC",24-01-2024 04:00:00,28.699793,77.165453,SO2,19,41,28
India,Gujarat,Ahmedabad,"Chandkheda, Ahmedabad - IITM",24-01-2024 04:00:00,23.107969,72.574648,PM10,62,149,107
India,Gujarat,Ahmedabad,"Gyaspur, Ahmedabad - IITM",24-01-2024 04:00:00,22.977134,72.553024,PM2.5,79,457,226
India,Gujarat,Ahmedabad,"Gyaspur, Ahmedabad - IITM",24-01-2024 04:00:00,22.977134,72.553024,OZONE,10,12,12
India,Gujarat,Ahmedabad,"Raikhad, Ahmedabad - IITM",24-01-2024 04:00:00,23.020509,72.579261,PM10,24,104,68
India,Gujarat,Ahmedabad,"Raikhad, Ahmedabad - IITM",24-01-2024 04:00:00,23.020509,72.579261,NH3,4,5,4
India,Gujarat,Ahmedabad,"Raikhad, Ahmedabad - IITM",24-01-2024 04:00:00,23.020509,72.579261,CO,19,104,88
India,Gujarat,Ahmedabad,"Rakhial, Ahmedabad - IITM",24-01-2024 04:00:00,23.016834,72.625775,NH3,1,7,4
India,Gujarat,Ahmedabad,"SAC ISRO Bopal, Ahmedabad - IITM",24-01-2024 04:00:00,23.041137,72.456691,CO,17,39,38
India,Gujarat,Ahmedabad,"SAC ISRO Bopal, Ahmedabad - IITM",24-01-2024 04:00:00,23.041137,72.456691,OZONE,9,12,11
India,Gujarat,Ahmedabad,"SAC ISRO Satellite, Ahmedabad - IITM",24-01-2024 04:00:00,23.023389,72.515201,PM2.5,111,154,137
India,Gujarat,Ankleshwar,"GIDC, Ankleshwar - GPCB",24-01-2024 04:00:00,21.613267,73.010555,PM2.5,43,121,85
India,Gujarat,Ankleshwar,"GIDC, Ankleshwar - GPCB",24-01-2024 04:00:00,21.613267,73.010555,NH3,6,6,6
India,Gujarat,Gandhinagar,"GIFT City, Gandhinagar - IITM",24-01-2024 04:00:00,23.163798,72.677768,NH3,2,3,2
India,Gujarat,Gandhinagar,"GIFT City, Gandhinagar - IITM",24-01-2024 04:00:00,23.163798,72.677768,SO2,5,7,6
India,Gujarat,Gandhinagar,"IIPHG Lekawada, Gandhinagar - IITM",24-01-2024 04:00:00,23.243639,72.68994,NH3,3,4,3
India,Gujarat,Gandhinagar,"Sector-10, Gandhinagar - GPCB",24-01-2024 04:00:00,23.221714,72.654328,NH3,1,2,2
India,Gujarat,Surat,"Science Center, Surat - SMC",24-01-2024 04:00:00,21.170046,72.795405,PM2.5,12,60,37
India,Gujarat,Surat,"Science Center, Surat - SMC",24-01-2024 04:00:00,21.170046,72.795405,PM10,12,102,51
India,Gujarat,Vapi,"Phase-1 GIDC, Vapi - GPCB",24-01-2024 04:00:00,20.362421,72.918013,OZONE,1,6,1
India,Gujarat,Vatva,"Phase-4 GIDC, Vatva - GPCB",24-01-2024 04:00:00,22.969611,72.643500,NO2,NA,NA,NA
India,Haryana,Bahadurgarh,"Arya Nagar, Bahadurgarh - HSPCB",24-01-2024 04:00:00,28.6701,76.9254,OZONE,37,49,44
India,Haryana,Ballabgarh,"Nathu Colony, Ballabgarh - HSPCB",24-01-2024 04:00:00,28.3419248,77.319699,OZONE,1,13,2
India,Haryana,Bhiwani,"H.B. Colony, Bhiwani - HSPCB",24-01-2024 04:00:00,28.806223,76.141105,PM2.5,85,293,160
India,Haryana,Bhiwani,"H.B. Colony, Bhiwani - HSPCB",24-01-2024 04:00:00,28.806223,76.141105,NO2,6,10,9
India,Haryana,Bhiwani,"H.B. Colony, Bhiwani - HSPCB",24-01-2024 04:00:00,28.806223,76.141105,NH3,6,6,6
India,Haryana,Charkhi Dadri,"Mini Secretariat, Charkhi Dadri - HSPCB",24-01-2024 04:00:00,28.593883,76.270653,PM2.5,51,305,155
India,Haryana,Charkhi Dadri,"Mini Secretariat, Charkhi Dadri - HSPCB",24-01-2024 04:00:00,28.593883,76.270653,NH3,5,6,6
India,Haryana,Dharuhera,"Municipal Corporation Office, Dharuhera -  HSPCB",24-01-2024 04:00:00,28.206800,76.799700,SO2,9,20,15
India,Haryana,Dharuhera,"Municipal Corporation Office, Dharuhera -  HSPCB",24-01-2024 04:00:00,28.206800,76.799700,OZONE,1,43,1
India,Haryana,Faridabad,"New Industrial Town, Faridabad - HSPCB",24-01-2024 04:00:00,28.39072,77.30059,PM10,228,428,347
India,Haryana,Faridabad,"Sector 11, Faridabad - HSPCB",24-01-2024 04:00:00,28.376058,77.315741,PM10,98,196,148
India,Haryana,Faridabad,"Sector 11, Faridabad - HSPCB",24-01-2024 04:00:00,28.376058,77.315741,CO,46,76,68
India,Haryana,Faridabad,"Sector- 16A, Faridabad - HSPCB",24-01-2024 04:00:00,28.4088421,77.3099081,OZONE,14,14,14
India,Haryana,Fatehabad,"Huda Sector, Fatehabad - HSPCB",24-01-2024 04:00:00,29.503664,75.467934,PM10,NA,NA,NA
India,Haryana,Fatehabad,"Huda Sector, Fatehabad - HSPCB",24-01-2024 04:00:00,29.503664,75.467934,NH3,NA,NA,NA
India,Haryana,Fatehabad,"Huda Sector, Fatehabad - HSPCB",24-01-2024 04:00:00,29.503664,75.467934,OZONE,NA,NA,NA
India,Haryana,Gurugram,"NISE Gwal Pahari, Gurugram - IMD",24-01-2024 04:00:00,28.422681,77.148944,PM2.5,103,380,267
India,Haryana,Gurugram,"NISE Gwal Pahari, Gurugram - IMD",24-01-2024 04:00:00,28.422681,77.148944,NO2,10,40,28
India,Haryana,Gurugram,"Sector-51, Gurugram - HSPCB",24-01-2024 04:00:00,28.4227,77.0667,PM10,149,442,230
India,Haryana,Gurugram,"Teri Gram, Gurugram - HSPCB",24-01-2024 04:00:00,28.4275,77.1465,SO2,4,7,6
India,Haryana,Gurugram,"Vikas Sadan, Gurugram - HSPCB",24-01-2024 04:00:00,28.4501238,77.0263051,NO2,5,25,14
India,Haryana,Hisar,"Urban Estate-II, Hisar - HSPCB",24-01-2024 04:00:00,29.140560,75.744941,PM10,87,440,130
India,Haryana,Hisar,"Urban Estate-II, Hisar - HSPCB",24-01-2024 04:00:00,29.140560,75.744941,CO,41,76,53
India,Haryana,Jind,"Police Lines, Jind - HSPCB",24-01-2024 04:00:00,29.307814,76.337619,SO2,5,8,7
India,Haryana,Kaithal,"Rishi Nagar, Kaithal - HSPCB",24-01-2024 04:00:00,29.8006,76.4155,NH3,8,8,8
India,Haryana,Kaithal,"Rishi Nagar, Kaithal - HSPCB",24-01-2024 04:00:00,29.8006,76.4155,CO,11,74,31
India,Haryana,Karnal,"Sector-12, Karnal - HSPCB",24-01-2024 04:00:00,29.695300,77.002700,NO2,7,12,10
India,Haryana,Karnal,"Sector-12, Karnal - HSPCB",24-01-2024 04:00:00,29.695300,77.002700,NH3,10,13,11
India,Haryana,Karnal,"Sector-12, Karnal - HSPCB",24-01-2024 04:00:00,29.695300,77.002700,OZONE,30,31,31
India,Haryana,Kurukshetra,"Sector-7, Kurukshetra - HSPCB",24-01-2024 04:00:00,29.966942,76.875879,PM2.5,84,305,177
India,Haryana,Kurukshetra,"Sector-7, Kurukshetra - HSPCB",24-01-2024 04:00:00,29.966942,76.875879,CO,42,86,58
India,Haryana,Kurukshetra,"Sector-7, Kurukshetra - HSPCB",24-01-2024 04:00:00,29.966942,76.875879,OZONE,1,25,7
India,Haryana,Mandikhera,"General Hospital, Mandikhera - HSPCB",24-01-2024 04:00:00,27.9002,76.9938,NO2,16,22,19
India,Haryana,Mandikhera,"General Hospital, Mandikhera - HSPCB",24-01-2024 04:00:00,27.9002,76.9938,CO,48,102,93
India,Haryana,Manesar,"Sector-2 IMT, Manesar - HSPCB",24-01-2024 04:00:00,28.360699,76.936090,PM2.5,66,346,191
India,Haryana,Narnaul,"Shastri Nagar, Narnaul - HSPCB",24-01-2024 04:00:00,28.060249,76.113115,SO2,12,13,13
India,Haryana,Narnaul,"Shastri Nagar, Narnaul - HSPCB",24-01-2024 04:00:00,28.060249,76.113115,CO,18,40,21
India,Haryana,Narnaul,"Shastri Nagar, Narnaul - HSPCB",24-01-2024 04:00:00,28.060249,76.113115,OZONE,22,81,72
India,Haryana,Palwal,"Shyam Nagar, Palwal - HSPCB",24-01-2024 04:00:00,28.1485564,77.3320667,SO2,4,29,19
India,Haryana,Panipat,"Sector-18, Panipat - HSPCB",24-01-2024 04:00:00,29.497973,76.993331,PM10,103,110,107
India,Haryana,Panipat,"Sector-18, Panipat - HSPCB",24-01-2024 04:00:00,29.497973,76.993331,NO2,28,31,30
India,Haryana,Panipat,"Sector-18, Panipat - HSPCB",24-01-2024 04:00:00,29.497973,76.993331,NH3,2,3,2
India,Haryana,Panipat,"Sector-18, Panipat - HSPCB",24-01-2024 04:00:00,29.497973,76.993331,SO2,12,13,12
India,Haryana,Rohtak,"MD University, Rohtak - HSPCB",24-01-2024 04:00:00,28.52123,76.37138,CO,20,54,27
India,Haryana,Sirsa,"F-Block, Sirsa - HSPCB",24-01-2024 04:00:00,29.536400,75.015800,NH3,12,13,13
India,Haryana,Sirsa,"F-Block, Sirsa - HSPCB",24-01-2024 04:00:00,29.536400,75.015800,OZONE,20,34,29
India,Jharkhand,Dhanbad,"Kalakusuma, Dhanbad - DMC",24-01-2024 04:00:00,23.811548,86.481238,PM2.5,NA,NA,NA
India,Jharkhand,Dhanbad,"Sardar Patel Nagar, Dhanbad - JSPCB",24-01-2024 04:00:00,23.80569,86.44268,PM2.5,NA,NA,NA
India,Jharkhand,Dhanbad,"Sardar Patel Nagar, Dhanbad - JSPCB",24-01-2024 04:00:00,23.80569,86.44268,NO2,21,257,109
India,Jharkhand,Dhanbad,"Sardar Patel Nagar, Dhanbad - JSPCB",24-01-2024 04:00:00,23.80569,86.44268,CO,NA,NA,NA
India,Jharkhand,Pathardih,"Mohalbani Ghat, Pathardih - DMC",24-01-2024 04:00:00,23.669880,86.411725,NO2,10,248,98
India,Karnataka,Bagalkot,"Vidayagiri, Bagalkot - KSPCB",24-01-2024 04:00:00,16.172806,75.659694,PM2.5,19,27,27
India,Karnataka,Bagalkot,"Vidayagiri, Bagalkot - KSPCB",24-01-2024 04:00:00,16.172806,75.659694,SO2,9,10,9
India,Karnataka,Belgaum,"Ramteerth Nagar, Belgaum - KSPCB",24-01-2024 04:00:00,15.888653,74.541751,NO2,26,37,30
India,Karnataka,Bengaluru,"BTM Layout, Bengaluru - CPCB",24-01-2024 04:00:00,12.9135218,77.5950804,PM10,56,73,65
India,Karnataka,Bengaluru,"BTM Layout, Bengaluru - CPCB",24-01-2024 04:00:00,12.9135218,77.5950804,NO2,29,41,39
India,Karnataka,Bengaluru,"BTM Layout, Bengaluru - CPCB",24-01-2024 04:00:00,12.9135218,77.5950804,OZONE,16,41,28
India,Karnataka,Bengaluru,"Bapuji Nagar, Bengaluru - KSPCB",24-01-2024 04:00:00,12.951913,77.539784,PM10,56,117,87
India,Karnataka,Bengaluru,"Bapuji Nagar, Bengaluru - KSPCB",24-01-2024 04:00:00,12.951913,77.539784,NO2,9,12,10
India,Karnataka,Bengaluru,"City Railway Station, Bengaluru - KSPCB",24-01-2024 04:00:00,12.9756843,77.5660749,PM10,66,81,74
India,Karnataka,Bengaluru,"City Railway Station, Bengaluru - KSPCB",24-01-2024 04:00:00,12.9756843,77.5660749,NO2,21,29,25
India,Karnataka,Bengaluru,"City Railway Station, Bengaluru - KSPCB",24-01-2024 04:00:00,12.9756843,77.5660749,SO2,13,13,13
India,Karnataka,Bengaluru,"Hebbal, Bengaluru - KSPCB",24-01-2024 04:00:00,13.029152,77.585901,OZONE,7,22,8
India,Karnataka,Bengaluru,"Hombegowda Nagar, Bengaluru - KSPCB",24-01-2024 04:00:00,12.938539,77.590100,PM2.5,36,87,54
India,Karnataka,Bengaluru,"Hombegowda Nagar, Bengaluru - KSPCB",24-01-2024 04:00:00,12.938539,77.590100,SO2,4,5,4
India,Karnataka,Bengaluru,"Jayanagar 5th Block, Bengaluru - KSPCB",24-01-2024 04:00:00,12.920984,77.584908,CO,2,30,10
India,Karnataka,Bengaluru,"Jigani, Bengaluru - KSPCB",24-01-2024 04:00:00,12.7816279,77.6299145,NO2,21,37,33
India,Karnataka,Bengaluru,"Jigani, Bengaluru - KSPCB",24-01-2024 04:00:00,12.7816279,77.6299145,NH3,2,4,4
India,Karnataka,Bengaluru,"Jigani, Bengaluru - KSPCB",24-01-2024 04:00:00,12.7816279,77.6299145,SO2,6,12,11
India,Karnataka,Bengaluru,"Kasturi Nagar, Bengaluru - KSPCB",24-01-2024 04:00:00,13.003872,77.664217,NH3,3,4,4
India,Karnataka,Bengaluru,"Kasturi Nagar, Bengaluru - KSPCB",24-01-2024 04:00:00,13.003872,77.664217,CO,24,26,25
India,Karnataka,Bengaluru,"Kasturi Nagar, Bengaluru - KSPCB",24-01-2024 04:00:00,13.003872,77.664217,OZONE,4,150,63
India,Karnataka,Bengaluru,"Peenya, Bengaluru - CPCB",24-01-2024 04:00:00,13.0270199,77.494094,PM10,32,122,81
India,Karnataka,Bengaluru,"Peenya, Bengaluru - CPCB",24-01-2024 04:00:00,13.0270199,77.494094,NO2,19,27,23
India,Karnataka,Bengaluru,"Peenya, Bengaluru - CPCB",24-01-2024 04:00:00,13.0270199,77.494094,CO,24,62,31
India,Karnataka,Bengaluru,"RVCE-Mailasandra, Bengaluru - KSPCB",24-01-2024 04:00:00,12.921418,77.502466,CO,36,62,41
India,Karnataka,Bengaluru,"Silk Board, Bengaluru - KSPCB",24-01-2024 04:00:00,12.917348,77.622813,PM2.5,49,110,64
India,Karnataka,Bidar,"Naubad, Bidar - KSPCB",24-01-2024 04:00:00,17.930306,77.482194,NO2,NA,NA,NA
India,Karnataka,Bidar,"Naubad, Bidar - KSPCB",24-01-2024 04:00:00,17.930306,77.482194,NH3,NA,NA,NA
India,Karnataka,Bidar,"Naubad, Bidar - KSPCB",24-01-2024 04:00:00,17.930306,77.482194,SO2,NA,NA,NA
India,Karnataka,Bidar,"Naubad, Bidar - KSPCB",24-01-2024 04:00:00,17.930306,77.482194,CO,NA,NA,NA
India,Karnataka,Chikkaballapur,"Chikkaballapur Rural, Chikkaballapur - KSPCB",24-01-2024 04:00:00,13.428828,77.731418,PM10,46,150,79
India,Karnataka,Chikkaballapur,"Chikkaballapur Rural, Chikkaballapur - KSPCB",24-01-2024 04:00:00,13.428828,77.731418,NH3,1,1,1
India,Karnataka,Chikkamagaluru,"Kalyana Nagara, Chikkamagaluru - KSPCB",24-01-2024 04:00:00,13.328028,75.797056,NH3,2,6,4
India,Karnataka,Chikkamagaluru,"Kalyana Nagara, Chikkamagaluru - KSPCB",24-01-2024 04:00:00,13.328028,75.797056,CO,8,148,40
India,Karnataka,Davanagere,"Devaraj Urs Badavane, Davanagere - KSPCB",24-01-2024 04:00:00,14.475800,75.905200,PM10,25,74,47
India,Karnataka,Davanagere,"Devaraj Urs Badavane, Davanagere - KSPCB",24-01-2024 04:00:00,14.475800,75.905200,NO2,10,31,14
India,Karnataka,Dharwad,"Kalabhavan, Dharwad - KSPCB",24-01-2024 04:00:00,15.459706,75.008381,SO2,4,6,5
India,Karnataka,Dharwad,"Kalabhavan, Dharwad - KSPCB",24-01-2024 04:00:00,15.459706,75.008381,OZONE,3,58,33
India,Karnataka,Gadag,"Panchal Nagar, Gadag - KSPCB",24-01-2024 04:00:00,15.411456,75.638133,NH3,2,2,2
India,Karnataka,Hassan,"B.Katihalli, Hassan - KSPCB",24-01-2024 04:00:00,13.008556,76.125258,PM2.5,NA,NA,NA
India,Karnataka,Haveri,"Ashwini Nagar, Haveri - KSPCB",24-01-2024 04:00:00,14.791800,75.389600,OZONE,18,20,19
India,Karnataka,Hubballi,"Deshpande Nagar, Hubballi - KSPCB",24-01-2024 04:00:00,15.351773,75.140726,NO2,21,27,25
India,Karnataka,Hubballi,"Lingaraj Nagar, Hubballi - KSPCB",24-01-2024 04:00:00,15.3714823,75.1160168,SO2,1,21,4
India,Karnataka,Kalaburagi,"Lal Bahadur Shastri Nagar, Kalaburagi - KSPCB",24-01-2024 04:00:00,17.321993,76.822628,OZONE,1,84,34
India,Karnataka,Karwar,"KHB Colony, Karwar - KSPCB",24-01-2024 04:00:00,14.816666,74.141003,CO,1,154,1
India,Karnataka,Kolar,"Tamaka Ind. Area, Kolar - KSPCB",24-01-2024 04:00:00,13.1276288,78.1570122,PM10,NA,NA,NA
India,Karnataka,Kolar,"Tamaka Ind. Area, Kolar - KSPCB",24-01-2024 04:00:00,13.1276288,78.1570122,SO2,NA,NA,NA
India,Karnataka,Koppal,"Diwator Nagar, Koppal - KSPCB",24-01-2024 04:00:00,15.347630,76.181767,NH3,4,6,5
India,Karnataka,Madikeri,"Stuart Hill, Madikeri - KSPCB",24-01-2024 04:00:00,12.415911,75.735050,CO,NA,NA,NA
India,Karnataka,Mysuru,"Hebbal 1st Stage, Mysuru - KSPCB",24-01-2024 04:00:00,12.21041,76.37376,PM10,29,87,63
India,Karnataka,Raichur,"Haji Colony, Raichur - KSPCB",24-01-2024 04:00:00,16.208139,77.348417,OZONE,NA,NA,NA
India,Karnataka,Ramanagara,"Vijay Nagar, Ramanagara - KSPCB",24-01-2024 04:00:00,12.733409,77.298051,PM2.5,35,75,57
India,Karnataka,Ramanagara,"Vijay Nagar, Ramanagara - KSPCB",24-01-2024 04:00:00,12.733409,77.298051,PM10,38,63,47
India,Karnataka,Ramanagara,"Vijay Nagar, Ramanagara - KSPCB",24-01-2024 04:00:00,12.733409,77.298051,NH3,1,1,1
India,Karnataka,Shivamogga,"Vinoba Nagara, Shivamogga - KSPCB",24-01-2024 04:00:00,13.940000,75.555917,PM2.5,36,54,44
India,Karnataka,Shivamogga,"Vinoba Nagara, Shivamogga - KSPCB",24-01-2024 04:00:00,13.940000,75.555917,NO2,12,124,35
India,Karnataka,Shivamogga,"Vinoba Nagara, Shivamogga - KSPCB",24-01-2024 04:00:00,13.940000,75.555917,NH3,3,37,10
India,Karnataka,Udupi,"Brahmagiri, Udupi - KSPCB",24-01-2024 04:00:00,13.34194444,74.74694444,PM10,21,47,32
India,Karnataka,Udupi,"Brahmagiri, Udupi - KSPCB",24-01-2024 04:00:00,13.34194444,74.74694444,CO,40,46,43
India,Karnataka,Yadgir,"Collector Office, Yadgir - KSPCB",24-01-2024 04:00:00,16.7602,77.1428,PM2.5,40,101,61
India,Karnataka,Yadgir,"Collector Office, Yadgir - KSPCB",24-01-2024 04:00:00,16.7602,77.1428,NO2,5,8,6
India,Kerala,Eloor,"Udyogamandal, Eloor - Kerala PCB",24-01-2024 04:00:00,10.073232,76.302765,PM2.5,18,77,55
India,Kerala,Eloor,"Udyogamandal, Eloor - Kerala PCB",24-01-2024 04:00:00,10.073232,76.302765,PM10,26,62,48
India,Kerala,Eloor,"Udyogamandal, Eloor - Kerala PCB",24-01-2024 04:00:00,10.073232,76.302765,NH3,1,1,1
India,Kerala,Eloor,"Udyogamandal, Eloor - Kerala PCB",24-01-2024 04:00:00,10.073232,76.302765,CO,13,87,31
India,Kerala,Eloor,"Udyogamandal, Eloor - Kerala PCB",24-01-2024 04:00:00,10.073232,76.302765,OZONE,4,68,4
India,Kerala,Kannur,"Thavakkara, Kannur - Kerala PCB",24-01-2024 04:00:00,11.875000,75.373200,PM10,59,66,62
India,Kerala,Kannur,"Thavakkara, Kannur - Kerala PCB",24-01-2024 04:00:00,11.875000,75.373200,SO2,5,6,5
India,Kerala,Kollam,"Polayathode, Kollam - Kerala PCB",24-01-2024 04:00:00,8.8787,76.6073,PM2.5,66,168,112
India,Kerala,Kollam,"Polayathode, Kollam - Kerala PCB",24-01-2024 04:00:00,8.8787,76.6073,CO,10,32,18
India,Kerala,Thiruvananthapuram,"Kariavattom, Thiruvananthapuram - Kerala PCB",24-01-2024 04:00:00,8.563700,76.886500,CO,6,94,20
India,Kerala,Thiruvananthapuram,"Plammoodu, Thiruvananthapuram - Kerala PCB",24-01-2024 04:00:00,8.5149093,76.9435879,NO2,12,14,13
India,Kerala,Thiruvananthapuram,"Plammoodu, Thiruvananthapuram - Kerala PCB",24-01-2024 04:00:00,8.5149093,76.9435879,SO2,4,12,9
India,Kerala,Thiruvananthapuram,"Plammoodu, Thiruvananthapuram - Kerala PCB",24-01-2024 04:00:00,8.5149093,76.9435879,CO,21,55,26
India,Kerala,Thrissur,"Corporation Ground, Thrissur - Kerala PCB",24-01-2024 04:00:00,10.532400,76.215900,OZONE,20,32,22
India,Madhya Pradesh,Bhopal,"Idgah Hills, Bhopal - MPPCB",24-01-2024 04:00:00,23.264759,77.381568,PM10,38,151,88
India,Madhya Pradesh,Bhopal,"Idgah Hills, Bhopal - MPPCB",24-01-2024 04:00:00,23.264759,77.381568,NO2,12,58,25
India,Madhya Pradesh,Bhopal,"Idgah Hills, Bhopal - MPPCB",24-01-2024 04:00:00,23.264759,77.381568,SO2,3,24,9
India,Madhya Pradesh,Bhopal,"Paryavaran Parisar, Bhopal - MPPCB",24-01-2024 04:00:00,23.210494,77.425409,NH3,7,13,9
India,Madhya Pradesh,Bhopal,"Paryavaran Parisar, Bhopal - MPPCB",24-01-2024 04:00:00,23.210494,77.425409,SO2,20,29,24
India,Madhya Pradesh,Bhopal,"T T Nagar, Bhopal - MPPCB",24-01-2024 04:00:00,23.233584,77.400574,SO2,5,40,23
India,Madhya Pradesh,Gwalior,"Maharaj Bada, Gwalior - MPPCB",24-01-2024 04:00:00,26.200388,78.147714,NO2,10,116,41
India,Madhya Pradesh,Gwalior,"Phool Bagh, Gwalior - Mondelez Ind. Food",24-01-2024 04:00:00,26.210536,78.171,PM2.5,7,303,123
India,Madhya Pradesh,Gwalior,"Phool Bagh, Gwalior - Mondelez Ind. Food",24-01-2024 04:00:00,26.210536,78.171,PM10,16,174,97
India,Madhya Pradesh,Gwalior,"Phool Bagh, Gwalior - Mondelez Ind. Food",24-01-2024 04:00:00,26.210536,78.171,SO2,8,15,11
India,Madhya Pradesh,Indore,"Chhoti Gwaltoli, Indore - MPPCB",24-01-2024 04:00:00,22.4310,75.5213,CO,21,140,119
India,Madhya Pradesh,Indore,"Chhoti Gwaltoli, Indore - MPPCB",24-01-2024 04:00:00,22.4310,75.5213,OZONE,11,90,13
India,Madhya Pradesh,Indore,"Maguda Nagar, Indore - IMC",24-01-2024 04:00:00,22.7524,75.8872,PM10,28,163,76
India,Madhya Pradesh,Indore,"Maguda Nagar, Indore - IMC",24-01-2024 04:00:00,22.7524,75.8872,NH3,1,1,1
India,Madhya Pradesh,Indore,"Maguda Nagar, Indore - IMC",24-01-2024 04:00:00,22.7524,75.8872,CO,16,54,37
India,Madhya Pradesh,Indore,"Regional Park, Indore - IMC",24-01-2024 04:00:00,22.6780,75.8559,NO2,7,17,11
India,Madhya Pradesh,Indore,"Regional Park, Indore - IMC",24-01-2024 04:00:00,22.6780,75.8559,CO,18,53,39
India,Madhya Pradesh,Jabalpur,"Gupteshwar, Jabalpur - JMC",24-01-2024 04:00:00,23.142888,79.916147,SO2,8,56,22
India,Madhya Pradesh,Jabalpur,"Marhatal, Jabalpur - MPPCB",24-01-2024 04:00:00,23.168606,79.932247,NO2,30,105,53
India,Madhya Pradesh,Katni,"Gole Bazar, Katni - MPPCB",24-01-2024 04:00:00,23.50016,80.23284,PM10,50,134,103
India,Madhya Pradesh,Maihar,"Sahilara, Maihar - KJS Cements",24-01-2024 04:00:00,24.2613009,80.7231783,PM2.5,28,86,62
India,Madhya Pradesh,Mandideep,"Sector-D Industrial Area, Mandideep - MPPCB",24-01-2024 04:00:00,23.108440,77.511428,PM10,65,206,124
India,Madhya Pradesh,Ratlam,"Shasthri Nagar, Ratlam - IPCA Lab",24-01-2024 04:00:00,23.331731,75.045981,SO2,13,15,14
India,Madhya Pradesh,Sagar,"Deen Dayal Nagar, Sagar - MPPCB",24-01-2024 04:00:00,23.8640158,78.80289321,PM10,35,137,88
India,Madhya Pradesh,Satna,"Bandhavgar Colony, Satna - Birla Cement",24-01-2024 04:00:00,24.58434363,80.8549414,PM10,35,76,54
India,Madhya Pradesh,Satna,"Bandhavgar Colony, Satna - Birla Cement",24-01-2024 04:00:00,24.58434363,80.8549414,NO2,6,22,12
India,Madhya Pradesh,Satna,"Bandhavgar Colony, Satna - Birla Cement",24-01-2024 04:00:00,24.58434363,80.8549414,CO,18,61,51
India,Madhya Pradesh,Singrauli,"Suryakiran Bhawan NCL, Singrauli - MPPCB",24-01-2024 04:00:00,24.108970,82.645580,NH3,2,3,2
India,Madhya Pradesh,Ujjain,"Mahakaleshwar Temple, Ujjain - MPPCB",24-01-2024 04:00:00,23.182719 ,75.768218 ,NO2,8,77,34
India,Madhya Pradesh,Ujjain,"Mahakaleshwar Temple, Ujjain - MPPCB",24-01-2024 04:00:00,23.182719 ,75.768218 ,SO2,6,19,11
India,Madhya Pradesh,Ujjain,"Mahakaleshwar Temple, Ujjain - MPPCB",24-01-2024 04:00:00,23.182719 ,75.768218 ,OZONE,85,130,122
India,Maharashtra,Akola,"Ramdaspeth, Akola - MPCB",24-01-2024 04:00:00,20.719516,77.000253,CO,23,49,34
India,Maharashtra,Akola,"Ramdaspeth, Akola - MPCB",24-01-2024 04:00:00,20.719516,77.000253,OZONE,18,76,36
India,Maharashtra,Amravati,"Shivneri Colony, Amravati - MPCB",24-01-2024 04:00:00,20.9402359,77.7895248,SO2,8,63,21
India,Maharashtra,Amravati,"Shri Shivaji Science College, Amaravati - MPCB",24-01-2024 04:00:00,20.939198,77.765701,PM10,88,351,142
India,Maharashtra,Amravati,"Shri Shivaji Science College, Amaravati - MPCB",24-01-2024 04:00:00,20.939198,77.765701,NO2,10,81,28
India,Maharashtra,Aurangabad,"Rachnakar Colony, Aurangabad - MPCB",24-01-2024 04:00:00,19.863756,75.321188,NO2,11,48,31
India,Maharashtra,Badlapur,"Katrap, Badlapur - MPCB",24-01-2024 04:00:00,19.16485,73.23409,PM2.5,53,321,137
India,Maharashtra,Bhiwandi,"Gokul Nagar, Bhiwandi - MPCB",24-01-2024 04:00:00,19.309073,73.057223,NH3,1,2,2
India,Maharashtra,Boisar,"Khaira, Boisar - MPCB",24-01-2024 04:00:00,19.786089,72.757971,NO2,4,31,12
India,Maharashtra,Boisar,"Khaira, Boisar - MPCB",24-01-2024 04:00:00,19.786089,72.757971,CO,6,82,28
India,Maharashtra,Chandrapur,"Chauhan Colony, Chandrapur - MPCB",24-01-2024 04:00:00,19.962900,79.298714,PM10,70,136,108
India,Maharashtra,Chandrapur,"MIDC Khutala, Chandrapur - MPCB",24-01-2024 04:00:00,19.9775302,79.2337086,PM2.5,NA,NA,NA
India,Maharashtra,Chandrapur,"MIDC Khutala, Chandrapur - MPCB",24-01-2024 04:00:00,19.9775302,79.2337086,SO2,NA,NA,NA
India,Maharashtra,Dhule,"Deopur, Dhule - MPCB",24-01-2024 04:00:00,20.918946,74.776388,PM10,57,232,106
India,Maharashtra,Kalyan,"Khadakpada, Kalyan - MPCB",24-01-2024 04:00:00,19.25292,73.142019,PM10,39,145,99
India,Maharashtra,Kalyan,"Khadakpada, Kalyan - MPCB",24-01-2024 04:00:00,19.25292,73.142019,NO2,14,60,29
India,Maharashtra,Kolhapur,"Shivaji University, Kolhapur - MPCB",24-01-2024 04:00:00,16.6870449,74.2505872,PM10,54,156,105
India,Maharashtra,Latur,"Sawe Wadi, Latur - MPCB",24-01-2024 04:00:00,18.39963,76.57452,PM2.5,76,152,104
India,Maharashtra,Latur,"Sawe Wadi, Latur - MPCB",24-01-2024 04:00:00,18.39963,76.57452,OZONE,48,94,61
India,Maharashtra,Mahad,"Kamble Tarf Birwadi, Mahad - MPCB",24-01-2024 04:00:00,18.1023399,73.4783687,SO2,11,13,12
India,Maharashtra,Malegaon,"Mahesh Nagar, Malegaon - MPCB",24-01-2024 04:00:00,20.555712,74.529236,PM2.5,67,164,99
India,Maharashtra,Mira-Bhayandar,"Bhayandar West, Mira-Bhayandar - MPCB",24-01-2024 04:00:00,19.296481,72.840923,NH3,3,7,5
India,Maharashtra,Mumbai,"Borivali East, Mumbai - IITM",24-01-2024 04:00:00,19.23241,72.86895,PM10,56,163,101
India,Maharashtra,Mumbai,"Borivali East, Mumbai - MPCB",24-01-2024 04:00:00,19.2243333,72.8658113,NH3,1,2,1
India,Maharashtra,Mumbai,"Chembur, Mumbai - MPCB",24-01-2024 04:00:00,19.0364585,72.8954371,PM10,50,119,98
India,Maharashtra,Mumbai,"Chembur, Mumbai - MPCB",24-01-2024 04:00:00,19.0364585,72.8954371,NO2,24,94,58
India,Maharashtra,Mumbai,"Chembur, Mumbai - MPCB",24-01-2024 04:00:00,19.0364585,72.8954371,NH3,2,4,3
India,Maharashtra,Mumbai,"Chembur, Mumbai - MPCB",24-01-2024 04:00:00,19.0364585,72.8954371,SO2,2,12,6
India,Maharashtra,Mumbai,"Chhatrapati Shivaji Intl. Airport (T2), Mumbai - MPCB",24-01-2024 04:00:00,19.10078,72.87462,SO2,18,28,25
India,Maharashtra,Mumbai,"Chhatrapati Shivaji Intl. Airport (T2), Mumbai - MPCB",24-01-2024 04:00:00,19.10078,72.87462,CO,31,87,63
India,Maharashtra,Mumbai,"Deonar, Mumbai - IITM",24-01-2024 04:00:00,19.04946,72.9230,CO,4,69,59
India,Maharashtra,Mumbai,"Kandivali East, Mumbai - MPCB",24-01-2024 04:00:00,19.205800,72.868200,NO2,61,138,93
India,Maharashtra,Mumbai,"Kandivali East, Mumbai - MPCB",24-01-2024 04:00:00,19.205800,72.868200,NH3,4,12,6
India,Maharashtra,Mumbai,"Kandivali West, Mumbai - BMC",24-01-2024 04:00:00,19.215859,72.831718,PM10,59,103,74
India,Maharashtra,Mumbai,"Kandivali West, Mumbai - BMC",24-01-2024 04:00:00,19.215859,72.831718,NH3,1,3,3
India,Maharashtra,Mumbai,"Kandivali West, Mumbai - BMC",24-01-2024 04:00:00,19.215859,72.831718,SO2,7,16,11
India,Maharashtra,Mumbai,"Kandivali West, Mumbai - BMC",24-01-2024 04:00:00,19.215859,72.831718,CO,22,42,31
India,Maharashtra,Mumbai,"Kherwadi_Bandra East, Mumbai - MPCB",24-01-2024 04:00:00,19.0632143,72.8456324,PM2.5,38,158,73
India,Maharashtra,Mumbai,"Kurla, Mumbai - MPCB",24-01-2024 04:00:00,19.0863,72.8888,NO2,18,30,25
India,Maharashtra,Mumbai,"Kurla, Mumbai - MPCB",24-01-2024 04:00:00,19.0863,72.8888,NH3,3,4,3
India,Maharashtra,Mumbai,"Malad West, Mumbai - IITM",24-01-2024 04:00:00,19.19709,72.82204,PM10,NA,NA,NA
India,Maharashtra,Mumbai,"Malad West, Mumbai - IITM",24-01-2024 04:00:00,19.19709,72.82204,NH3,1,2,2
India,Maharashtra,Mumbai,"Mazgaon, Mumbai - IITM",24-01-2024 04:00:00,18.96702,72.84214,NO2,52,157,96
India,Maharashtra,Mumbai,"Mazgaon, Mumbai - IITM",24-01-2024 04:00:00,18.96702,72.84214,SO2,9,34,18
India,Maharashtra,Mumbai,"Mindspace-Malad West, Mumbai - MPCB",24-01-2024 04:00:00,19.1878657,72.8304069,NH3,8,9,8
India,Maharashtra,Mumbai,"Mindspace-Malad West, Mumbai - MPCB",24-01-2024 04:00:00,19.1878657,72.8304069,SO2,1,11,6
India,Maharashtra,Mumbai,"Mulund West, Mumbai - MPCB",24-01-2024 04:00:00,19.1750,72.9419,PM10,28,104,65
India,Maharashtra,Mumbai,"Powai, Mumbai - MPCB",24-01-2024 04:00:00,19.137500,72.915056,SO2,17,18,17
India,Maharashtra,Mumbai,"Sewri, Mumbai - BMC",24-01-2024 04:00:00,19.000084,72.856730,PM10,85,157,110
India,Maharashtra,Mumbai,"Sewri, Mumbai - BMC",24-01-2024 04:00:00,19.000084,72.856730,SO2,NA,NA,NA
India,Maharashtra,Mumbai,"Sewri, Mumbai - BMC",24-01-2024 04:00:00,19.000084,72.856730,CO,10,105,34
India,Maharashtra,Mumbai,"Sewri, Mumbai - BMC",24-01-2024 04:00:00,19.000084,72.856730,OZONE,1,124,53
India,Maharashtra,Mumbai,"Siddharth Nagar-Worli, Mumbai - IITM",24-01-2024 04:00:00,19.000083,72.813993,PM2.5,17,137,107
India,Maharashtra,Mumbai,"Siddharth Nagar-Worli, Mumbai - IITM",24-01-2024 04:00:00,19.000083,72.813993,PM10,76,124,111
India,Maharashtra,Mumbai,"Siddharth Nagar-Worli, Mumbai - IITM",24-01-2024 04:00:00,19.000083,72.813993,NH3,2,10,5
India,Maharashtra,Mumbai,"Siddharth Nagar-Worli, Mumbai - IITM",24-01-2024 04:00:00,19.000083,72.813993,CO,2,19,12
India,Maharashtra,Mumbai,"Sion, Mumbai - MPCB",24-01-2024 04:00:00,19.047000,72.874600,PM2.5,24,169,61
India,Maharashtra,Mumbai,"Sion, Mumbai - MPCB",24-01-2024 04:00:00,19.047000,72.874600,SO2,35,42,38
India,Maharashtra,Mumbai,"Vasai West, Mumbai - MPCB",24-01-2024 04:00:00,19.383200,72.820400,CO,10,22,16
India,Maharashtra,Mumbai,"Vile Parle West, Mumbai - MPCB",24-01-2024 04:00:00,19.10861,72.83622,NH3,6,11,10
India,Maharashtra,Mumbai,"Vile Parle West, Mumbai - MPCB",24-01-2024 04:00:00,19.10861,72.83622,SO2,13,14,14
India,Maharashtra,Mumbai,"Vile Parle West, Mumbai - MPCB",24-01-2024 04:00:00,19.10861,72.83622,OZONE,6,38,23
India,Maharashtra,Nagpur,"Mahal, Nagpur - MPCB",24-01-2024 04:00:00,21.14472,79.107595,CO,44,105,80
India,Maharashtra,Nagpur,"Opp GPO Civil Lines, Nagpur - MPCB",24-01-2024 04:00:00,21.152875,79.0517531,NO2,9,23,16
India,Maharashtra,Nagpur,"Opp GPO Civil Lines, Nagpur - MPCB",24-01-2024 04:00:00,21.152875,79.0517531,SO2,14,116,42
India,Maharashtra,Nagpur,"Ram Nagar, Nagpur - MPCB",24-01-2024 04:00:00,21.143383,79.048912,CO,26,47,39
India,Maharashtra,Nanded,"Sneh Nagar, Nanded - MPCB",24-01-2024 04:00:00,19.173852,77.296291,PM10,104,131,116
India,Maharashtra,Nanded,"Sneh Nagar, Nanded - MPCB",24-01-2024 04:00:00,19.173852,77.296291,NO2,30,48,37
India,Maharashtra,Nanded,"Sneh Nagar, Nanded - MPCB",24-01-2024 04:00:00,19.173852,77.296291,NH3,1,2,2
India,Maharashtra,Nashik,"Gangapur Road, Nashik - MPCB",24-01-2024 04:00:00,20.0073285,73.7762427,CO,18,18,18
India,Maharashtra,Nashik,"Hirawadi, Nashik - MPCB",24-01-2024 04:00:00,20.021503,73.813844,NO2,2,104,37
India,Maharashtra,Nashik,"MIDC Ambad, Nashik - MPCB",24-01-2024 04:00:00,19.950220,73.731480,PM2.5,47,131,73
India,Maharashtra,Nashik,"MIDC Ambad, Nashik - MPCB",24-01-2024 04:00:00,19.950220,73.731480,PM10,71,162,111
India,Maharashtra,Navi Mumbai,"Mahape, Navi Mumbai - MPCB",24-01-2024 04:00:00,19.1135051,73.008978,PM2.5,21,262,62
India,Maharashtra,Navi Mumbai,"Nerul, Navi Mumbai - MPCB",24-01-2024 04:00:00,19.008751,73.016620,PM2.5,16,90,62
India,Maharashtra,Navi Mumbai,"Nerul, Navi Mumbai - MPCB",24-01-2024 04:00:00,19.008751,73.016620,SO2,17,18,17
India,Maharashtra,Navi Mumbai,"Nerul, Navi Mumbai - MPCB",24-01-2024 04:00:00,19.008751,73.016620,CO,35,70,55
India,Maharashtra,Navi Mumbai,"Sanpada, Navi Mumbai - MPCB",24-01-2024 04:00:00,19.0575752,73.0151367,PM2.5,28,75,48
India,Maharashtra,Navi Mumbai,"Sanpada, Navi Mumbai - MPCB",24-01-2024 04:00:00,19.0575752,73.0151367,OZONE,6,113,31
India,Maharashtra,Navi Mumbai,"Tondare-Taloja, Navi Mumbai - MPCB",24-01-2024 04:00:00,19.0630,73.1209,PM10,80,125,109
India,Maharashtra,Navi Mumbai,"Tondare-Taloja, Navi Mumbai - MPCB",24-01-2024 04:00:00,19.0630,73.1209,NO2,14,81,50
India,Maharashtra,Navi Mumbai,"Tondare-Taloja, Navi Mumbai - MPCB",24-01-2024 04:00:00,19.0630,73.1209,SO2,38,101,65
India,Maharashtra,Parbhani,"Masoom Colony, Parbhani - MPCB",24-01-2024 04:00:00,19.265594,76.761463,CO,36,55,46
India,Maharashtra,Pimpri-Chinchwad,"Gavalinagar, Pimpri Chinchwad - MPCB",24-01-2024 04:00:00,18.63673,73.82487,PM10,91,132,117
India,Maharashtra,Pimpri-Chinchwad,"Gavalinagar, Pimpri Chinchwad - MPCB",24-01-2024 04:00:00,18.63673,73.82487,NO2,27,131,68
India,Maharashtra,Pimpri-Chinchwad,"Park Street Wakad, Pimpri Chinchwad - MPCB",24-01-2024 04:00:00,18.59051,73.77946,PM10,86,160,125
India,Maharashtra,Pimpri-Chinchwad,"Park Street Wakad, Pimpri Chinchwad - MPCB",24-01-2024 04:00:00,18.59051,73.77946,NH3,9,23,14
India,Maharashtra,Pimpri-Chinchwad,"Thergaon, Pimpri Chinchwad - MPCB",24-01-2024 04:00:00,18.616318,73.765797,SO2,NA,NA,NA
India,Maharashtra,Pimpri-Chinchwad,"Thergaon, Pimpri Chinchwad - MPCB",24-01-2024 04:00:00,18.616318,73.765797,OZONE,NA,NA,NA
India,Maharashtra,Pune,"Alandi, Pune - IITM",24-01-2024 04:00:00,18.675076,73.892743,PM10,39,123,83
India,Maharashtra,Pune,"Bhosari, Pune - IITM",24-01-2024 04:00:00,18.640051,73.848956,PM2.5,29,105,71
India,Maharashtra,Pune,"Karve Road, Pune - MPCB",24-01-2024 04:00:00,18.5011743,73.8165527,PM2.5,76,90,82
India,Maharashtra,Pune,"Katraj Dairy, Pune - MPCB",24-01-2024 04:00:00,18.454450,73.854155,PM2.5,46,302,103
India,Maharashtra,Pune,"Katraj Dairy, Pune - MPCB",24-01-2024 04:00:00,18.454450,73.854155,CO,28,106,96
India,Maharashtra,Pune,"Mhada Colony, Pune - IITM",24-01-2024 04:00:00,18.573040,73.927715,PM10,62,126,90
India,Maharashtra,Pune,"Revenue Colony-Shivajinagar, Pune - IITM",24-01-2024 04:00:00,18.530085,73.849598,PM2.5,42,131,76
India,Maharashtra,Pune,"Revenue Colony-Shivajinagar, Pune - IITM",24-01-2024 04:00:00,18.530085,73.849598,PM10,53,116,84
India,Maharashtra,Pune,"Revenue Colony-Shivajinagar, Pune - IITM",24-01-2024 04:00:00,18.530085,73.849598,NH3,11,30,21
India,Maharashtra,Pune,"Transport Nagar-Nigdi, Pune - IITM",24-01-2024 04:00:00,18.664282,73.763966,PM2.5,35,100,69
India,Maharashtra,Solapur,"Dnyaneshwar Nagar, Solapur - MPCB",24-01-2024 04:00:00,17.6336264,75.9132495,NO2,20,133,51
India,Maharashtra,Solapur,"Dnyaneshwar Nagar, Solapur - MPCB",24-01-2024 04:00:00,17.6336264,75.9132495,OZONE,26,141,61
India,Maharashtra,Solapur,"Ratandeep Housing Society, Solapur - MPCB",24-01-2024 04:00:00,17.65439,75.90649,NO2,20,150,68
India,Maharashtra,Solapur,"Ratandeep Housing Society, Solapur - MPCB",24-01-2024 04:00:00,17.65439,75.90649,CO,21,112,68
India,Maharashtra,Thane,"Kasarvadavali, Thane - MPCB",24-01-2024 04:00:00,19.26777,72.97182,NO2,18,76,36
India,Maharashtra,Thane,"Kasarvadavali, Thane - MPCB",24-01-2024 04:00:00,19.26777,72.97182,NH3,2,5,3
India,Maharashtra,Thane,"Kasarvadavali, Thane - MPCB",24-01-2024 04:00:00,19.26777,72.97182,CO,10,42,26
India,Maharashtra,Ulhasnagar,"Sidhi Vinayak Nagar, Ulhasnagar - MPCB",24-01-2024 04:00:00,19.235581,73.159121,NH3,2,4,3
India,Maharashtra,Virar,"Bolinj, Virar - MPCB",24-01-2024 04:00:00,19.4458210,72.7988231,CO,15,24,21
India,Meghalaya,Shillong,"JN Stadium, Shillong - Meghalaya PCB",24-01-2024 04:00:00,25.5803419,91.8942571,NO2,15,72,35
India,Meghalaya,Shillong,"Lumpyngngad, Shillong - Meghalaya PCB",24-01-2024 04:00:00,25.5586,91.8985,SO2,14,18,16
India,Meghalaya,Shillong,"Lumpyngngad, Shillong - Meghalaya PCB",24-01-2024 04:00:00,25.5586,91.8985,CO,8,25,18
India,Mizoram,Aizawl,"Sikulpuikawn, Aizawl - Mizoram PCB",24-01-2024 04:00:00,23.7176342,92.7192841,CO,11,18,15
India,Nagaland,Kohima,"PWD Juction, Kohima - NPCB",24-01-2024 04:00:00,25.6635413,94.0989878,CO,10,50,23
India,Odisha,Angul,"Hakimapada, Angul - OSPCB",24-01-2024 04:00:00,20.832874,85.104082,PM10,99,334,166
India,Odisha,Angul,"Hakimapada, Angul - OSPCB",24-01-2024 04:00:00,20.832874,85.104082,NH3,3,6,4
India,Odisha,Angul,"Hakimapada, Angul - OSPCB",24-01-2024 04:00:00,20.832874,85.104082,SO2,17,120,54
India,Odisha,Angul,"Hakimapada, Angul - OSPCB",24-01-2024 04:00:00,20.832874,85.104082,OZONE,21,131,38
India,Odisha,Balasore,"Kalidaspur, Balasore - OSPCB",24-01-2024 04:00:00,21.51161,86.89088,PM2.5,213,363,309
India,Odisha,Barbil,"Forest Office, Barbil - OSPCB",24-01-2024 04:00:00,22.1166054,85.3945546,PM10,83,421,184
India,Odisha,Barbil,"Forest Office, Barbil - OSPCB",24-01-2024 04:00:00,22.1166054,85.3945546,NH3,3,4,4
India,Odisha,Baripada,"Meher Colony, Baripada - OSPCB",24-01-2024 04:00:00,21.941841,86.728318,SO2,5,6,6
India,Odisha,Bhubaneswar,"Patia, Bhubaneswar - OSPCB",24-01-2024 04:00:00,20.34652,85.81630,NO2,19,39,28
India,Odisha,Bhubaneswar,"Patia, Bhubaneswar - OSPCB",24-01-2024 04:00:00,20.34652,85.81630,OZONE,58,130,101
India,Odisha,Bileipada,"Tata Township, Bileipada - OSPCB",24-01-2024 04:00:00,22.06156703,85.47409613,PM10,110,290,201
India,Odisha,Bileipada,"Tata Township, Bileipada - OSPCB",24-01-2024 04:00:00,22.06156703,85.47409613,NO2,6,15,11
India,Odisha,Bileipada,"Tata Township, Bileipada - OSPCB",24-01-2024 04:00:00,22.06156703,85.47409613,OZONE,18,24,19
India,Odisha,Brajrajnagar,"GM Office, Brajrajnagar - OSPCB",24-01-2024 04:00:00,21.8004996,83.8396977,NO2,15,63,33
India,Odisha,Brajrajnagar,"GM Office, Brajrajnagar - OSPCB",24-01-2024 04:00:00,21.8004996,83.8396977,SO2,12,12,12
India,Odisha,Byasanagar,"Ferro Chrome Colony, Byasanagar - OSPCB",24-01-2024 04:00:00,20.94185,86.11510,NO2,18,45,25
India,Odisha,Byasanagar,"Ferro Chrome Colony, Byasanagar - OSPCB",24-01-2024 04:00:00,20.94185,86.11510,CO,40,114,84
India,Odisha,Cuttack,"CDA Area, Cuttack - OSPCB",24-01-2024 04:00:00,20.48891     ,85.84768     ,PM10,111,188,149
India,Odisha,Cuttack,"CDA Area, Cuttack - OSPCB",24-01-2024 04:00:00,20.48891     ,85.84768     ,NO2,23,37,29
India,Odisha,Cuttack,"CDA Area, Cuttack - OSPCB",24-01-2024 04:00:00,20.48891     ,85.84768     ,CO,35,57,52
India,Odisha,Cuttack,"CDA Area, Cuttack - OSPCB",24-01-2024 04:00:00,20.48891     ,85.84768     ,OZONE,44,111,92
India,Odisha,Keonjhar,"Jagamohanpur, Keonjhar - OSPCB",24-01-2024 04:00:00,21.643900,85.599355,PM10,106,133,120
India,Odisha,Keonjhar,"Jagamohanpur, Keonjhar - OSPCB",24-01-2024 04:00:00,21.643900,85.599355,OZONE,1,21,2
India,Odisha,Nayagarh,"Dabuna, Nayagarh - OSPCB",24-01-2024 04:00:00,21.847279,85.416905,SO2,2,11,3
India,Odisha,Nayagarh,"Dabuna, Nayagarh - OSPCB",24-01-2024 04:00:00,21.847279,85.416905,OZONE,2,9,3
India,Odisha,Rourkela,"Fertilizer Township, Rourkela - OSPCB",24-01-2024 04:00:00,22.18972222,84.86277778,NO2,3,85,26
India,Odisha,Rourkela,"Fertilizer Township, Rourkela - OSPCB",24-01-2024 04:00:00,22.18972222,84.86277778,SO2,12,14,13
India,Odisha,Rourkela,"Raghunathpali, Rourkela - OSPCB",24-01-2024 04:00:00,22.220833,84.809444,CO,30,80,49
India,Odisha,Rourkela,"Sector-2, Rourkela - OSPCB",24-01-2024 04:00:00,22.24500000,84.88111111,PM2.5,NA,NA,NA
India,Odisha,Talcher,"Talcher Coalfields,Talcher - OSPCB",24-01-2024 04:00:00,20.9360711,85.1707021,PM10,47,138,95
India,Odisha,Talcher,"Talcher Coalfields,Talcher - OSPCB",24-01-2024 04:00:00,20.9360711,85.1707021,CO,2,39,23
India,Odisha,Tensa,"Barsua Iron Ore Mines, Tensa - OSPCB",24-01-2024 04:00:00,21.869985,85.167016,PM10,20,111,91
India,Odisha,Tensa,"Barsua Iron Ore Mines, Tensa - OSPCB",24-01-2024 04:00:00,21.869985,85.167016,OZONE,2,34,4
India,Puducherry,Puducherry,"Jawahar Nagar, Puducherry - PPCC",24-01-2024 04:00:00,11.9309,79.8027,NH3,1,2,2
India,Punjab,Amritsar,"Golden Temple, Amritsar - PPCB",24-01-2024 04:00:00,31.620000,74.876512,NH3,5,7,6
India,Punjab,Amritsar,"Golden Temple, Amritsar - PPCB",24-01-2024 04:00:00,31.620000,74.876512,OZONE,24,31,27
India,Punjab,Bathinda,"Hardev Nagar, Bathinda - PPCB",24-01-2024 04:00:00,30.233011,74.907758,PM2.5,33,122,64
India,Punjab,Bathinda,"Hardev Nagar, Bathinda - PPCB",24-01-2024 04:00:00,30.233011,74.907758,CO,2,104,27
India,Punjab,Jalandhar,"Civil Line, Jalandhar - PPCB",24-01-2024 04:00:00,31.321907,75.578914,NH3,4,5,5
India,Punjab,Jalandhar,"Civil Line, Jalandhar - PPCB",24-01-2024 04:00:00,31.321907,75.578914,OZONE,6,174,20
India,Punjab,Khanna,"Kalal Majra, Khanna - PPCB",24-01-2024 04:00:00,30.736056 ,76.209694,NO2,29,29,29
India,Punjab,Khanna,"Kalal Majra, Khanna - PPCB",24-01-2024 04:00:00,30.736056 ,76.209694,NH3,14,15,14
India,Punjab,Ludhiana,"Punjab Agricultural University, Ludhiana - PPCB",24-01-2024 04:00:00,30.9028,75.8086,NO2,27,35,31
India,Punjab,Ludhiana,"Punjab Agricultural University, Ludhiana - PPCB",24-01-2024 04:00:00,30.9028,75.8086,NH3,8,11,10
India,Punjab,Ludhiana,"Punjab Agricultural University, Ludhiana - PPCB",24-01-2024 04:00:00,30.9028,75.8086,CO,32,110,75
India,Punjab,Ludhiana,"Punjab Agricultural University, Ludhiana - PPCB",24-01-2024 04:00:00,30.9028,75.8086,OZONE,8,31,11
India,Punjab,Patiala,"Model Town, Patiala - PPCB",24-01-2024 04:00:00,30.349388,76.366642,NO2,27,34,30
India,Punjab,Rupnagar,"Ratanpura, Rupnagar - Ambuja Cements",24-01-2024 04:00:00,31.0325454,76.5623046,CO,78,116,100
India,Rajasthan,Ajmer,"Civil Lines,  Ajmer - RSPCB",24-01-2024 04:00:00,26.470859,74.646594,SO2,5,19,11
India,Rajasthan,Ajmer,"Civil Lines,  Ajmer - RSPCB",24-01-2024 04:00:00,26.470859,74.646594,CO,6,38,24
India,Rajasthan,Alwar,"Moti Doongri, Alwar - RSPCB",24-01-2024 04:00:00,27.554793,76.611536,PM10,58,175,102
India,Rajasthan,Alwar,"Moti Doongri, Alwar - RSPCB",24-01-2024 04:00:00,27.554793,76.611536,NO2,35,53,42
India,Rajasthan,Banswara,"Rati Talai, Banswara - RSPCB",24-01-2024 04:00:00,23.555190,74.440010,PM2.5,48,193,98
India,Rajasthan,Banswara,"Rati Talai, Banswara - RSPCB",24-01-2024 04:00:00,23.555190,74.440010,PM10,67,271,134
India,Rajasthan,Baran,"Bamboliya, Baran - RSPCB",24-01-2024 04:00:00,25.106006,76.469948,NH3,4,14,6
India,Rajasthan,Barmer,"Railway Colony, Barmer - RSPCB",24-01-2024 04:00:00,25.747299,71.393989,SO2,7,67,13
India,Rajasthan,Barmer,"Railway Colony, Barmer - RSPCB",24-01-2024 04:00:00,25.747299,71.393989,OZONE,27,98,50
India,Rajasthan,Bhilwara,"Pratap Nagar, Bhilwara - RSPCB",24-01-2024 04:00:00,25.339605,74.618883,PM2.5,27,342,203
India,Rajasthan,Bhiwadi,"RIICO Ind. Area III, Bhiwadi - RSPCB",24-01-2024 04:00:00,28.194909,76.862296,PM2.5,84,403,263
India,Rajasthan,Bikaner,"MM Ground, Bikaner - RSPCB",24-01-2024 04:00:00,28.018792,73.292658,NH3,14,17,15
India,Rajasthan,Bundi,"New Colony, Bundi - RSPCB",24-01-2024 04:00:00,25.435774,75.644272,PM2.5,96,349,217
India,Rajasthan,Bundi,"New Colony, Bundi - RSPCB",24-01-2024 04:00:00,25.435774,75.644272,PM10,103,403,165
India,Rajasthan,Churu,"Subash Chowk, Churu - RSPCB",24-01-2024 04:00:00,28.296139,74.961696,PM2.5,97,333,221
India,Rajasthan,Churu,"Subash Chowk, Churu - RSPCB",24-01-2024 04:00:00,28.296139,74.961696,NO2,32,50,41
India,Rajasthan,Churu,"Subash Chowk, Churu - RSPCB",24-01-2024 04:00:00,28.296139,74.961696,NH3,9,17,13
India,Rajasthan,Churu,"Subash Chowk, Churu - RSPCB",24-01-2024 04:00:00,28.296139,74.961696,CO,48,82,72
India,Rajasthan,Dholpur,"Raja Ganj, Dholpur - RSPCB",24-01-2024 04:00:00,26.699557,77.898881,PM10,89,214,138
India,Rajasthan,Dholpur,"Raja Ganj, Dholpur - RSPCB",24-01-2024 04:00:00,26.699557,77.898881,SO2,1,20,12
India,Rajasthan,Dungarpur,"Bhoiwada, Dungarpur - RSPCB",24-01-2024 04:00:00,23.837789,73.714926,PM10,38,267,126
India,Rajasthan,Dungarpur,"Bhoiwada, Dungarpur - RSPCB",24-01-2024 04:00:00,23.837789,73.714926,NO2,17,64,35
India,Rajasthan,Dungarpur,"Bhoiwada, Dungarpur - RSPCB",24-01-2024 04:00:00,23.837789,73.714926,CO,16,94,59
India,Rajasthan,Hanumangarh,"Housing Board, Hanumangarh - RSPCB",24-01-2024 04:00:00,29.610750,74.283608,PM10,161,404,259
India,Rajasthan,Hanumangarh,"Housing Board, Hanumangarh - RSPCB",24-01-2024 04:00:00,29.610750,74.283608,OZONE,3,9,7
India,Rajasthan,Jaipur,"Adarsh Nagar, Jaipur - RSPCB",24-01-2024 04:00:00,26.902909,75.836858,PM2.5,11,239,112
India,Rajasthan,Jaipur,"Adarsh Nagar, Jaipur - RSPCB",24-01-2024 04:00:00,26.902909,75.836858,NO2,34,126,67
India,Rajasthan,Jaipur,"Adarsh Nagar, Jaipur - RSPCB",24-01-2024 04:00:00,26.902909,75.836858,NH3,4,15,8
India,Rajasthan,Jaipur,"RIICO Sitapura, Jaipur - RSPCB",24-01-2024 04:00:00,26.786682,75.827928,NO2,26,194,73
India,Rajasthan,Jaipur,"Sector-2 Murlipura, Jaipur - RSPCB",24-01-2024 04:00:00,26.960669,75.771817,PM10,85,233,157
India,Rajasthan,Jaipur,"Shastri Nagar, Jaipur - RSPCB",24-01-2024 04:00:00,26.9502929,75.730943,NH3,6,30,17
India,Rajasthan,Jaipur,"Shastri Nagar, Jaipur - RSPCB",24-01-2024 04:00:00,26.9502929,75.730943,CO,23,106,71
India,Rajasthan,Jaisalmer,"Sadar Bazar, Jaisalmer - RSPCB",24-01-2024 04:00:00,26.912329,70.909168,NH3,9,10,9
India,Rajasthan,Jaisalmer,"Sadar Bazar, Jaisalmer - RSPCB",24-01-2024 04:00:00,26.912329,70.909168,SO2,4,6,5
India,Rajasthan,Jalore,"Mudtra Sili, Jalore - RSPCB",24-01-2024 04:00:00,25.344694,72.626208,NH3,1,27,12
India,Rajasthan,Jhalawar,"Rajlaxmi Nagar, Jhalawar - RSPCB",24-01-2024 04:00:00,24.588397,76.172782,PM2.5,33,357,165
India,Rajasthan,Jhalawar,"Rajlaxmi Nagar, Jhalawar - RSPCB",24-01-2024 04:00:00,24.588397,76.172782,CO,26,108,86
India,Rajasthan,Jhunjhunu,"Indra Nagar, Jhunjhunu - RSPCB",24-01-2024 04:00:00,28.108988,75.386577,NH3,14,27,20
India,Rajasthan,Jhunjhunu,"Indra Nagar, Jhunjhunu - RSPCB",24-01-2024 04:00:00,28.108988,75.386577,CO,57,103,71
India,Rajasthan,Jodhpur,"Collectorate, Jodhpur - RSPCB",24-01-2024 04:00:00,26.268249,73.0193853,CO,25,95,56
India,Rajasthan,Jodhpur,"Jhalamand, Jodhpur - RSPCB",24-01-2024 04:00:00,26.215415,73.070156,NO2,13,74,37
India,Rajasthan,Jodhpur,"Mandor, Jodhpur - RSPCB",24-01-2024 04:00:00,26.358805,73.047444,SO2,1,8,3
India,Rajasthan,Jodhpur,"Samrat Ashok Udhyan, Jodhpur - RSPCB",24-01-2024 04:00:00,26.253384,72.976571,PM2.5,77,359,208
India,Rajasthan,Jodhpur,"Samrat Ashok Udhyan, Jodhpur - RSPCB",24-01-2024 04:00:00,26.253384,72.976571,NO2,11,96,31
India,Rajasthan,Jodhpur,"Samrat Ashok Udhyan, Jodhpur - RSPCB",24-01-2024 04:00:00,26.253384,72.976571,CO,36,67,55
India,Rajasthan,Kota,"Dhanmandi, Kota - RSPCB",24-01-2024 04:00:00,25.164090,75.858137,PM2.5,91,386,287
India,Rajasthan,Kota,"Nayapura, Kota - RSPCB",24-01-2024 04:00:00,25.196024,75.855668,NO2,25,99,53
India,Rajasthan,Kota,"Nayapura, Kota - RSPCB",24-01-2024 04:00:00,25.196024,75.855668,SO2,2,39,12
India,Rajasthan,Kota,"Nayapura, Kota - RSPCB",24-01-2024 04:00:00,25.196024,75.855668,OZONE,1,121,2
India,Rajasthan,Kota,"Shrinath Puram, Kota - RSPCB",24-01-2024 04:00:00,25.14389,75.821256,NO2,66,313,148
India,Rajasthan,Nagaur,"Karni Colony, Nagaur - RSPCB",24-01-2024 04:00:00,27.213494,73.734444,SO2,1,22,6
India,Rajasthan,Pali,"Indira Colony Vistar, Pali - RSPCB",24-01-2024 04:00:00,25.771061, 73.340227,OZONE,10,97,55
India,Rajasthan,Sawai Madhopur,"Sahu Nagar, Sawai Madhopur - RSPCB",24-01-2024 04:00:00,26.031443,76.359327,NO2,6,8,7
India,Rajasthan,Sirohi,"Vedhaynath Colony, Sirohi - RSPCB",24-01-2024 04:00:00,24.885261,72.857549,PM2.5,22,153,65
India,Rajasthan,Sri Ganganagar,"Old City, Sri Ganganagar - RSPCB",24-01-2024 04:00:00,29.931624,73.864511,NO2,22,57,39
India,Rajasthan,Sri Ganganagar,"Old City, Sri Ganganagar - RSPCB",24-01-2024 04:00:00,29.931624,73.864511,NH3,4,13,9
India,Rajasthan,Tonk,"Shastri Nagar, Tonk - RSPCB",24-01-2024 04:00:00,26.159933,75.780517,CO,28,63,43
India,Rajasthan,Udaipur,"Ashok Nagar, Udaipur - RSPCB",24-01-2024 04:00:00,24.5886166,73.6321397,PM2.5,57,190,97
India,TamilNadu,Ariyalur,"Keelapalur, Ariyalur - TNPCB",24-01-2024 04:00:00,11.06825,79.07033,NO2,9,39,16
India,TamilNadu,Chennai,"Alandur Bus Depot, Chennai - CPCB",24-01-2024 04:00:00,12.9099161,80.1076538,NO2,17,201,46
India,TamilNadu,Chennai,"Arumbakkam, Chennai - TNPCB",24-01-2024 04:00:00,13.0664,80.2112 ,PM10,36,139,75
India,TamilNadu,Chennai,"Arumbakkam, Chennai - TNPCB",24-01-2024 04:00:00,13.0664,80.2112 ,NH3,1,5,3
India,TamilNadu,Chennai,"Gandhi Nagar_Ennore, Chennai - TNPCB",24-01-2024 04:00:00,13.218341,80.32027,SO2,11,15,14
India,TamilNadu,Chennai,"Kodungaiyur, Chennai - TNPCB",24-01-2024 04:00:00,13.1278,80.2642,PM2.5,17,62,28
India,TamilNadu,Chennai,"Kodungaiyur, Chennai - TNPCB",24-01-2024 04:00:00,13.1278,80.2642,NH3,3,5,4
India,TamilNadu,Chennai,"Kodungaiyur, Chennai - TNPCB",24-01-2024 04:00:00,13.1278,80.2642,SO2,1,11,4
India,TamilNadu,Chennai,"Kodungaiyur, Chennai - TNPCB",24-01-2024 04:00:00,13.1278,80.2642,OZONE,5,6,6
India,TamilNadu,Chennai,"Manali, Chennai - CPCB",24-01-2024 04:00:00,13.164544,80.26285,NO2,7,20,12
India,TamilNadu,Chennai,"Manali, Chennai - CPCB",24-01-2024 04:00:00,13.164544,80.26285,SO2,4,10,6
India,TamilNadu,Chennai,"Manali, Chennai - CPCB",24-01-2024 04:00:00,13.164544,80.26285,OZONE,7,18,11
India,TamilNadu,Chennai,"Perungudi, Chennai - TNPCB",24-01-2024 04:00:00,12.9533,80.2357,SO2,1,8,3
India,TamilNadu,Chennai,"Royapuram, Chennai - TNPCB",24-01-2024 04:00:00,13.1036,80.2909,SO2,NA,NA,NA
India,TamilNadu,Chennai,"Royapuram, Chennai - TNPCB",24-01-2024 04:00:00,13.1036,80.2909,OZONE,9,10,9
India,TamilNadu,Chennai,"Velachery Res. Area, Chennai - CPCB",24-01-2024 04:00:00,13.0052189,80.2398125,NO2,10,115,33
India,TamilNadu,Chennai,"Velachery Res. Area, Chennai - CPCB",24-01-2024 04:00:00,13.0052189,80.2398125,OZONE,8,65,13
India,TamilNadu,Coimbatore,"PSG College of Arts and Science, Coimbatore - TNPCB",24-01-2024 04:00:00,11.0328,77.0349,PM2.5,60,153,97
India,TamilNadu,Coimbatore,"PSG College of Arts and Science, Coimbatore - TNPCB",24-01-2024 04:00:00,11.0328,77.0349,OZONE,3,5,4
India,TamilNadu,Cuddalore,"Kudikadu, Cuddalore - TNPCB",24-01-2024 04:00:00,11.6829898,79.7532099,NH3,4,9,5
India,TamilNadu,Cuddalore,"Semmandalam, Cuddalore - TNPCB",24-01-2024 04:00:00,11.7637683,79.7499835,PM2.5,30,208,76
India,TamilNadu,Gummidipoondi,"Anthoni Pillai Nagar, Gummidipoondi - TNPCB",24-01-2024 04:00:00,13.4127,80.1081,NH3,2,2,2
India,TamilNadu,Ooty,"Bombay Castel, Ooty - TNPCB",24-01-2024 04:00:00,11.4068288,76.7138973,NH3,NA,NA,NA
India,TamilNadu,Ooty,"Bombay Castel, Ooty - TNPCB",24-01-2024 04:00:00,11.4068288,76.7138973,SO2,13,13,13
India,TamilNadu,Ooty,"Bombay Castel, Ooty - TNPCB",24-01-2024 04:00:00,11.4068288,76.7138973,CO,20,20,20
India,TamilNadu,Ramanathapuram,"Chalai Bazaar, Ramanathapuram - TNPCB",24-01-2024 04:00:00,9.36399,78.831977,PM10,NA,NA,NA
India,TamilNadu,Salem,"Sona College of Technology, Salem - TNPCB",24-01-2024 04:00:00,11.679111,78.125052,CO,34,36,35
India,TamilNadu,Thoothukudi,"Meelavittan, Thoothukudi - TNPCB",24-01-2024 04:00:00,8.816428 ,78.099039,NO2,26,50,36
India,TamilNadu,Thoothukudi,"Meelavittan, Thoothukudi - TNPCB",24-01-2024 04:00:00,8.816428 ,78.099039,SO2,5,18,11
India,TamilNadu,Tirupur,"Kumaran College, Tirupur - TNPCB",24-01-2024 04:00:00,11.0973603,77.3228673,PM10,36,129,63
India,TamilNadu,Tirupur,"Kumaran College, Tirupur - TNPCB",24-01-2024 04:00:00,11.0973603,77.3228673,NO2,6,68,21
India,TamilNadu,Tirupur,"Kumaran College, Tirupur - TNPCB",24-01-2024 04:00:00,11.0973603,77.3228673,SO2,17,19,19
India,TamilNadu,Virudhunagar,"Collectorate Office, Virudhunagar - TNPCB",24-01-2024 04:00:00,9.559382,77.948828,PM10,28,443,78
India,TamilNadu,Virudhunagar,"Collectorate Office, Virudhunagar - TNPCB",24-01-2024 04:00:00,9.559382,77.948828,CO,23,34,30
India,Telangana,Hyderabad,"Bollaram Industrial Area, Hyderabad - TSPCB",24-01-2024 04:00:00,17.540891,78.358528,PM10,49,139,102
India,Telangana,Hyderabad,"Central University, Hyderabad - TSPCB",24-01-2024 04:00:00,17.460103,78.334361,NH3,2,5,4
India,Telangana,Hyderabad,"Central University, Hyderabad - TSPCB",24-01-2024 04:00:00,17.460103,78.334361,SO2,4,9,7
India,Telangana,Hyderabad,"ICRISAT Patancheru, Hyderabad - TSPCB",24-01-2024 04:00:00,17.518400,78.278777,CO,62,86,80
India,Telangana,Hyderabad,"IITH Kandi, Hyderabad - TSPCB",24-01-2024 04:00:00,17.585705,78.126199,PM2.5,9,28,17
India,Telangana,Hyderabad,"Kompally Municipal Office, Hyderabad - TSPCB",24-01-2024 04:00:00,17.544899,78.486949,PM10,42,106,64
India,Telangana,Hyderabad,"Nacharam_TSIIC IALA, Hyderabad - TSPCB",24-01-2024 04:00:00,17.429398,78.569354,NO2,NA,NA,NA
India,Telangana,Hyderabad,"Nacharam_TSIIC IALA, Hyderabad - TSPCB",24-01-2024 04:00:00,17.429398,78.569354,OZONE,NA,NA,NA
India,Telangana,Hyderabad,"Ramachandrapuram, Hyderabad - TSPCB",24-01-2024 04:00:00,17.528544,78.286195,CO,21,36,36
India,Telangana,Hyderabad,"Ramachandrapuram, Hyderabad - TSPCB",24-01-2024 04:00:00,17.528544,78.286195,OZONE,2,43,16
India,Telangana,Hyderabad,"Sanathnagar, Hyderabad - TSPCB",24-01-2024 04:00:00,17.4559458,78.4332152,PM2.5,56,109,71
India,Telangana,Hyderabad,"Sanathnagar, Hyderabad - TSPCB",24-01-2024 04:00:00,17.4559458,78.4332152,SO2,4,26,8
India,Telangana,Hyderabad,"Sanathnagar, Hyderabad - TSPCB",24-01-2024 04:00:00,17.4559458,78.4332152,OZONE,13,29,14
India,Telangana,Hyderabad,"Somajiguda, Hyderabad - TSPCB",24-01-2024 04:00:00,17.417094,78.457437,NH3,5,6,5
India,Telangana,Hyderabad,"Somajiguda, Hyderabad - TSPCB",24-01-2024 04:00:00,17.417094,78.457437,OZONE,3,25,8
India,Telangana,Hyderabad,"Zoo Park, Hyderabad - TSPCB",24-01-2024 04:00:00,17.349694,78.451437,PM2.5,27,120,62
India,Telangana,Hyderabad,"Zoo Park, Hyderabad - TSPCB",24-01-2024 04:00:00,17.349694,78.451437,NO2,16,37,27
India,Tripura,Agartala,"Bardowali, Agartala - Tripura SPCB",24-01-2024 04:00:00,23.8175497,91.2726974,PM10,120,459,249
India,Uttar_Pradesh,Agra,"Manoharpur, Agra - UPPCB",24-01-2024 04:00:00,27.23711,78.01936,NH3,1,1,1
India,Uttar_Pradesh,Agra,"Rohta, Agra - UPPCB",24-01-2024 04:00:00,27.106972,78.000111,NH3,NA,NA,NA
India,Uttar_Pradesh,Agra,"Shahjahan Garden, Agra - UPPCB",24-01-2024 04:00:00,27.169338,78.03582,PM10,61,127,84
India,Uttar_Pradesh,Agra,"Shahjahan Garden, Agra - UPPCB",24-01-2024 04:00:00,27.169338,78.03582,NO2,20,20,20
India,Uttar_Pradesh,Agra,"Shahjahan Garden, Agra - UPPCB",24-01-2024 04:00:00,27.169338,78.03582,CO,22,62,49
India,Uttar_Pradesh,Baghpat,"Sardar Patel Inter College, Baghpat - UPPCB",24-01-2024 04:00:00,28.964949,77.278761,PM2.5,123,347,251
India,Uttar_Pradesh,Baghpat,"Sardar Patel Inter College, Baghpat - UPPCB",24-01-2024 04:00:00,28.964949,77.278761,CO,51,102,99
India,Uttar_Pradesh,Bareilly,"Civil Lines, Bareilly - UPPCB",24-01-2024 04:00:00,28.359581,79.414455,PM10,27,75,54
India,Uttar_Pradesh,Bareilly,"Civil Lines, Bareilly - UPPCB",24-01-2024 04:00:00,28.359581,79.414455,OZONE,3,21,5
India,Uttar_Pradesh,Bareilly,"Rajendra Nagar, Bareilly - UPPCB",24-01-2024 04:00:00,28.38910936,79.42963708,NO2,31,76,41
India,Uttar_Pradesh,Firozabad,"Vibhab Nagar, Firozabad - UPPCB",24-01-2024 04:00:00,27.1594,78.3953,PM2.5,49,196,90
India,Uttar_Pradesh,Firozabad,"Vibhab Nagar, Firozabad - UPPCB",24-01-2024 04:00:00,27.1594,78.3953,PM10,37,107,62
India,Uttar_Pradesh,Firozabad,"Vibhab Nagar, Firozabad - UPPCB",24-01-2024 04:00:00,27.1594,78.3953,NO2,13,14,14
India,Uttar_Pradesh,Firozabad,"Vibhab Nagar, Firozabad - UPPCB",24-01-2024 04:00:00,27.1594,78.3953,CO,32,64,49
India,Uttar_Pradesh,Ghaziabad,"Indirapuram, Ghaziabad - UPPCB",24-01-2024 04:00:00,28.646233,77.358075,PM10,154,408,287
India,Uttar_Pradesh,Ghaziabad,"Indirapuram, Ghaziabad - UPPCB",24-01-2024 04:00:00,28.646233,77.358075,NO2,87,116,100
India,Uttar_Pradesh,Ghaziabad,"Indirapuram, Ghaziabad - UPPCB",24-01-2024 04:00:00,28.646233,77.358075,CO,8,26,20
India,Uttar_Pradesh,Ghaziabad,"Sanjay Nagar, Ghaziabad - UPPCB",24-01-2024 04:00:00,28.685382,77.453839,PM10,139,355,225
India,Uttar_Pradesh,Ghaziabad,"Sanjay Nagar, Ghaziabad - UPPCB",24-01-2024 04:00:00,28.685382,77.453839,OZONE,2,126,3
India,Uttar_Pradesh,Gorakhpur,"Madan Mohan Malaviya University of Technology, Gorakhpur - UPPCB",24-01-2024 04:00:00,26.730136,83.433859,NH3,1,2,2
India,Uttar_Pradesh,Gorakhpur,"Madan Mohan Malaviya University of Technology, Gorakhpur - UPPCB",24-01-2024 04:00:00,26.730136,83.433859,OZONE,NA,NA,NA
India,Uttar_Pradesh,Greater Noida,"Knowledge Park - III, Greater Noida - UPPCB",24-01-2024 04:00:00,28.47272,77.482000,NO2,NA,NA,NA
India,Uttar_Pradesh,Greater Noida,"Knowledge Park - III, Greater Noida - UPPCB",24-01-2024 04:00:00,28.47272,77.482000,NH3,NA,NA,NA
India,Uttar_Pradesh,Greater Noida,"Knowledge Park - III, Greater Noida - UPPCB",24-01-2024 04:00:00,28.47272,77.482000,SO2,NA,NA,NA
India,Uttar_Pradesh,Greater Noida,"Knowledge Park - III, Greater Noida - UPPCB",24-01-2024 04:00:00,28.47272,77.482000,OZONE,NA,NA,NA
India,Uttar_Pradesh,Greater Noida,"Knowledge Park - V, Greater Noida - UPPCB",24-01-2024 04:00:00,28.557054,77.453663,PM10,100,494,274
India,Uttar_Pradesh,Greater Noida,"Knowledge Park - V, Greater Noida - UPPCB",24-01-2024 04:00:00,28.557054,77.453663,NO2,11,53,28
India,Uttar_Pradesh,Hapur,"Anand Vihar, Hapur - UPPCB",24-01-2024 04:00:00,28.725645,77.749675,PM2.5,91,351,223
India,Uttar_Pradesh,Hapur,"Anand Vihar, Hapur - UPPCB",24-01-2024 04:00:00,28.725645,77.749675,NO2,12,90,51
India,Uttar_Pradesh,Jhansi,"Shivaji Nagar, Jhansi - UPPCB",24-01-2024 04:00:00,25.4547,78.6039,NO2,15,40,24
India,Uttar_Pradesh,Kanpur,"FTI Kidwai Nagar, Kanpur - UPPCB",24-01-2024 04:00:00,26.428282,80.327067,OZONE,3,4,3
India,Uttar_Pradesh,Kanpur,"NSI Kalyanpur, Kanpur - UPPCB",24-01-2024 04:00:00,26.509954,80.249612,NO2,11,12,11
India,Uttar_Pradesh,Kanpur,"NSI Kalyanpur, Kanpur - UPPCB",24-01-2024 04:00:00,26.509954,80.249612,OZONE,8,58,20
India,Uttar_Pradesh,Kanpur,"Nehru Nagar, Kanpur - UPPCB",24-01-2024 04:00:00,26.4703136,80.3229863,CO,1,105,39
India,Uttar_Pradesh,Kanpur,"Nehru Nagar, Kanpur - UPPCB",24-01-2024 04:00:00,26.4703136,80.3229863,OZONE,15,22,20
India,Uttar_Pradesh,Khurja,"Kalindi Kunj, Khurja - UPPCB",24-01-2024 04:00:00,28.2348927,77.8683002,NO2,23,31,26
India,Uttar_Pradesh,Khurja,"Kalindi Kunj, Khurja - UPPCB",24-01-2024 04:00:00,28.2348927,77.8683002,NH3,1,2,1
India,Uttar_Pradesh,Lucknow,"B R Ambedkar University, Lucknow - UPPCB",24-01-2024 04:00:00,26.766433,80.927299,PM10,56,429,151
India,Uttar_Pradesh,Lucknow,"B R Ambedkar University, Lucknow - UPPCB",24-01-2024 04:00:00,26.766433,80.927299,SO2,24,28,25
India,Uttar_Pradesh,Lucknow,"Gomti Nagar, Lucknow - UPPCB",24-01-2024 04:00:00,26.868120,81.005119,NO2,5,8,6
India,Uttar_Pradesh,Lucknow,"Kendriya Vidyalaya, Lucknow - CPCB",24-01-2024 04:00:00,26.906111,80.948222,SO2,4,12,8
India,Uttar_Pradesh,Lucknow,"Kendriya Vidyalaya, Lucknow - CPCB",24-01-2024 04:00:00,26.906111,80.948222,CO,34,67,52
India,Uttar_Pradesh,Lucknow,"Lalbagh, Lucknow - CPCB",24-01-2024 04:00:00,26.8458805,80.9365541,PM10,NA,NA,NA
India,Uttar_Pradesh,Lucknow,"Lalbagh, Lucknow - CPCB",24-01-2024 04:00:00,26.8458805,80.9365541,SO2,NA,NA,NA
India,Uttar_Pradesh,Lucknow,"Talkatora District Industries Center, Lucknow - CPCB",24-01-2024 04:00:00,26.83399722,80.8917361,PM2.5,85,335,224
India,Uttar_Pradesh,Meerut,"Ganga Nagar, Meerut - UPPCB",24-01-2024 04:00:00,28.999264,77.7590354,SO2,9,29,21
India,Uttar_Pradesh,Meerut,"Jai Bhim Nagar, Meerut - UPPCB",24-01-2024 04:00:00,28.9535882,77.7622941,PM10,64,199,133
India,Uttar_Pradesh,Meerut,"Jai Bhim Nagar, Meerut - UPPCB",24-01-2024 04:00:00,28.9535882,77.7622941,NO2,30,81,51
India,Uttar_Pradesh,Meerut,"Jai Bhim Nagar, Meerut - UPPCB",24-01-2024 04:00:00,28.9535882,77.7622941,CO,54,100,77
India,Uttar_Pradesh,Moradabad,"Employment Office, Moradabad - UPPCB",24-01-2024 04:00:00,28.88528,78.73880,OZONE,NA,NA,NA
India,Uttar_Pradesh,Moradabad,"Jigar Colony, Moradabad - UPPCB",24-01-2024 04:00:00,28.856664,78.772638,OZONE,9,14,10
India,Uttar_Pradesh,Moradabad,"Kashiram Nagar, Moradabad - UPPCB",24-01-2024 04:00:00,28.849399,78.742362,NH3,4,4,4
India,Uttar_Pradesh,Moradabad,"Transport Nagar, Moradabad - UPPCB",24-01-2024 04:00:00,28.802625,78.753728,OZONE,14,19,17
India,Uttar_Pradesh,Muzaffarnagar,"New Mandi, Muzaffarnagar - UPPCB",24-01-2024 04:00:00,29.4723508,77.7194031,NH3,7,10,8
India,Uttar_Pradesh,Noida,"Sector - 125, Noida - UPPCB",24-01-2024 04:00:00,28.5447608,77.3231257,CO,48,111,99
India,Uttar_Pradesh,Noida,"Sector - 62, Noida - IMD",24-01-2024 04:00:00,28.6245479,77.3577104,PM2.5,171,398,339
India,Uttar_Pradesh,Noida,"Sector - 62, Noida - IMD",24-01-2024 04:00:00,28.6245479,77.3577104,OZONE,35,62,39
India,Uttar_Pradesh,Noida,"Sector-116, Noida - UPPCB",24-01-2024 04:00:00,28.569230,77.393848,OZONE,1,55,1
India,Uttar_Pradesh,Prayagraj,"Jhunsi, Prayagraj - UPPCB",24-01-2024 04:00:00,25.425602,81.917152,PM2.5,36,215,78
India,Uttar_Pradesh,Prayagraj,"Jhunsi, Prayagraj - UPPCB",24-01-2024 04:00:00,25.425602,81.917152,NH3,5,5,5
India,Uttar_Pradesh,Prayagraj,"Jhunsi, Prayagraj - UPPCB",24-01-2024 04:00:00,25.425602,81.917152,CO,39,106,80
India,Uttar_Pradesh,Prayagraj,"Motilal Nehru NIT, Prayagraj - UPPCB",24-01-2024 04:00:00,25.494,81.863,PM10,45,137,82
India,Uttar_Pradesh,Prayagraj,"Motilal Nehru NIT, Prayagraj - UPPCB",24-01-2024 04:00:00,25.494,81.863,CO,30,76,61
India,Uttar_Pradesh,Varanasi,"Bhelupur, Varanasi - UPPCB",24-01-2024 04:00:00,25.301778,82.996789,NO2,17,49,31
India,Uttar_Pradesh,Varanasi,"IESD Banaras Hindu University, Varanasi - UPPCB",24-01-2024 04:00:00,25.262326,82.995408,SO2,13,13,13
India,Uttar_Pradesh,Varanasi,"IESD Banaras Hindu University, Varanasi - UPPCB",24-01-2024 04:00:00,25.262326,82.995408,OZONE,1,2,1
India,Uttar_Pradesh,Varanasi,"Maldahiya, Varanasi - UPPCB",24-01-2024 04:00:00,25.32393,82.99687,NO2,4,26,13
India,Uttar_Pradesh,Vrindavan,"Omex Eternity, Vrindavan - UPPCB",24-01-2024 04:00:00,27.5714090,77.6557570,PM10,46,108,69
India,Uttar_Pradesh,Vrindavan,"Omex Eternity, Vrindavan - UPPCB",24-01-2024 04:00:00,27.5714090,77.6557570,NO2,2,3,3
India,Uttar_Pradesh,Vrindavan,"Omex Eternity, Vrindavan - UPPCB",24-01-2024 04:00:00,27.5714090,77.6557570,NH3,3,5,3
India,Uttarakhand,Dehradun,"Doon University, Dehradun - UKPCB",24-01-2024 04:00:00,30.269444,78.044167,CO,22,52,47
India,Uttarakhand,Kashipur,"Govt. Girls Inter College, Kashipur - UKPCB",24-01-2024 04:00:00,29.2124114,78.9611753,CO,48,103,87
India,Uttarakhand,Kashipur,"Govt. Girls Inter College, Kashipur - UKPCB",24-01-2024 04:00:00,29.2124114,78.9611753,OZONE,NA,NA,NA
India,West_Bengal,Asansol,"Asansol Court Area, Asansol - WBPCB",24-01-2024 04:00:00,23.685297,86.945968,NH3,6,15,7
India,West_Bengal,Barrackpore,"SVSPA Campus, Barrackpore - WBPCB",24-01-2024 04:00:00,22.7605581,88.3617589,NO2,20,88,43
India,West_Bengal,Barrackpore,"SVSPA Campus, Barrackpore - WBPCB",24-01-2024 04:00:00,22.7605581,88.3617589,CO,22,97,78
India,West_Bengal,Durgapur,"Sidhu Kanhu Indoor Stadium, Durgapur - WBPCB",24-01-2024 04:00:00,23.5404352,87.2892225,PM2.5,80,328,235
India,West_Bengal,Howrah,"Belur Math, Howrah - WBPCB",24-01-2024 04:00:00,22.629801,88.352017,NO2,14,46,31
India,West_Bengal,Howrah,"Belur Math, Howrah - WBPCB",24-01-2024 04:00:00,22.629801,88.352017,SO2,7,19,11
India,West_Bengal,Howrah,"Ghusuri, Howrah - WBPCB",24-01-2024 04:00:00,22.611968,88.347422,PM2.5,229,416,339
India,West_Bengal,Howrah,"Ghusuri, Howrah - WBPCB",24-01-2024 04:00:00,22.611968,88.347422,NH3,7,13,9
India,West_Bengal,Howrah,"Ghusuri, Howrah - WBPCB",24-01-2024 04:00:00,22.611968,88.347422,OZONE,10,17,10
India,West_Bengal,Howrah,"Padmapukur, Howrah - WBPCB",24-01-2024 04:00:00,22.5687319,88.2797276,PM2.5,98,346,250
India,West_Bengal,Howrah,"Padmapukur, Howrah - WBPCB",24-01-2024 04:00:00,22.5687319,88.2797276,NH3,10,54,24
India,West_Bengal,Kolkata,"Ballygunge, Kolkata - WBPCB",24-01-2024 04:00:00,22.5367507,88.3638022,PM2.5,194,357,300
India,West_Bengal,Kolkata,"Ballygunge, Kolkata - WBPCB",24-01-2024 04:00:00,22.5367507,88.3638022,PM10,131,404,200
India,West_Bengal,Kolkata,"Ballygunge, Kolkata - WBPCB",24-01-2024 04:00:00,22.5367507,88.3638022,SO2,5,37,22
India,West_Bengal,Kolkata,"Ballygunge, Kolkata - WBPCB",24-01-2024 04:00:00,22.5367507,88.3638022,CO,12,129,76
India,West_Bengal,Kolkata,"Ballygunge, Kolkata - WBPCB",24-01-2024 04:00:00,22.5367507,88.3638022,OZONE,5,99,12
India,West_Bengal,Kolkata,"Bidhannagar, Kolkata - WBPCB",24-01-2024 04:00:00,22.58157048,88.41002457,SO2,5,51,17
India,West_Bengal,Kolkata,"Fort William, Kolkata - WBPCB",24-01-2024 04:00:00,22.556640,88.342674,NH3,10,15,11
India,West_Bengal,Kolkata,"Jadavpur, Kolkata - WBPCB",24-01-2024 04:00:00,22.49929,88.36917,SO2,4,7,6
India,West_Bengal,Kolkata,"Jadavpur, Kolkata - WBPCB",24-01-2024 04:00:00,22.49929,88.36917,CO,18,101,81
India,West_Bengal,Kolkata,"Victoria, Kolkata - WBPCB",24-01-2024 04:00:00,22.5448082,88.3403691,PM10,124,258,178
India,West_Bengal,Kolkata,"Victoria, Kolkata - WBPCB",24-01-2024 04:00:00,22.5448082,88.3403691,OZONE,4,128,8
India,Andhra_Pradesh,Amaravati,"Secretariat, Amaravati - APPCB",24-01-2024 04:00:00,16.5150833,80.5181667,NO2,6,14,10
India,Andhra_Pradesh,Amaravati,"Secretariat, Amaravati - APPCB",24-01-2024 04:00:00,16.5150833,80.5181667,NH3,4,5,4
India,Andhra_Pradesh,Anantapur,"Gulzarpet, Anantapur - APPCB",24-01-2024 04:00:00,14.675886,77.593027,PM10,52,79,68
India,Andhra_Pradesh,Anantapur,"Gulzarpet, Anantapur - APPCB",24-01-2024 04:00:00,14.675886,77.593027,CO,26,48,32
India,Andhra_Pradesh,Chittoor,"Gangineni Cheruvu, Chittoor - APPCB",24-01-2024 04:00:00,13.204880,79.097889,PM2.5,33,99,56
India,Andhra_Pradesh,Chittoor,"Gangineni Cheruvu, Chittoor - APPCB",24-01-2024 04:00:00,13.204880,79.097889,SO2,1,12,6
India,Andhra_Pradesh,Kadapa,"Yerramukkapalli, Kadapa - APPCB",24-01-2024 04:00:00,14.465052,78.824187,PM10,30,61,41
India,Andhra_Pradesh,Rajamahendravaram,"Anand Kala Kshetram, Rajamahendravaram - APPCB",24-01-2024 04:00:00,16.9872867,81.7363176,PM10,63,130,86
India,Andhra_Pradesh,Rajamahendravaram,"Anand Kala Kshetram, Rajamahendravaram - APPCB",24-01-2024 04:00:00,16.9872867,81.7363176,NO2,11,31,19
India,Andhra_Pradesh,Rajamahendravaram,"Anand Kala Kshetram, Rajamahendravaram - APPCB",24-01-2024 04:00:00,16.9872867,81.7363176,CO,1,134,10
India,Andhra_Pradesh,Visakhapatnam,"GVM Corporation, Visakhapatnam - APPCB",24-01-2024 04:00:00,17.72,83.3,PM2.5,83,304,189
India,Andhra_Pradesh,Visakhapatnam,"GVM Corporation, Visakhapatnam - APPCB",24-01-2024 04:00:00,17.72,83.3,PM10,85,279,142
India,Andhra_Pradesh,Visakhapatnam,"GVM Corporation, Visakhapatnam - APPCB",24-01-2024 04:00:00,17.72,83.3,OZONE,8,30,12
India,Arunachal_Pradesh,Naharlagun,"Naharlagun, Naharlagun - APSPCB",24-01-2024 04:00:00,27.103358,93.679645,CO,11,65,39
India,Assam,Byrnihat,"Central Academy for SFS, Byrnihat - PCBA",24-01-2024 04:00:00,26.071318,91.87488,PM10,66,368,194
India,Assam,Byrnihat,"Central Academy for SFS, Byrnihat - PCBA",24-01-2024 04:00:00,26.071318,91.87488,CO,2,179,12
India,Assam,Guwahati,"IITG, Guwahati - PCBA",24-01-2024 04:00:00,26.2028636,91.70046436,PM10,109,331,185
India,Assam,Guwahati,"IITG, Guwahati - PCBA",24-01-2024 04:00:00,26.2028636,91.70046436,NH3,5,6,5
India,Assam,Guwahati,"LGBI Airport, Guwahati - PCBA",24-01-2024 04:00:00,26.10887,91.589544,NO2,13,84,32
India,Assam,Guwahati,"Pan Bazaar, Guwahati - PCBA",24-01-2024 04:00:00,26.187500,91.744194,NO2,NA,NA,NA
India,Assam,Guwahati,"Pan Bazaar, Guwahati - PCBA",24-01-2024 04:00:00,26.187500,91.744194,NH3,3,6,4
India,Assam,Guwahati,"Pan Bazaar, Guwahati - PCBA",24-01-2024 04:00:00,26.187500,91.744194,SO2,56,104,69
India,Assam,Guwahati,"Railway Colony, Guwahati - PCBA",24-01-2024 04:00:00,26.181742,91.78063,PM2.5,98,468,327
India,Assam,Guwahati,"Railway Colony, Guwahati - PCBA",24-01-2024 04:00:00,26.181742,91.78063,PM10,91,433,252
India,Assam,Silchar,"Tarapur, Silchar - PCBA",24-01-2024 04:00:00,24.82827,92.79525,NH3,1,1,1
India,Assam,Sivasagar,"Girls College, Sivasagar - PCBA",24-01-2024 04:00:00,26.987634,94.636574,NH3,3,3,3
India,Assam,Sivasagar,"Girls College, Sivasagar - PCBA",24-01-2024 04:00:00,26.987634,94.636574,OZONE,1,63,1
India,Bihar,Araria,"Kharahiya Basti, Araria - BSPCB",24-01-2024 04:00:00,26.146529,87.454184,NH3,6,7,6
India,Bihar,Araria,"Kharahiya Basti, Araria - BSPCB",24-01-2024 04:00:00,26.146529,87.454184,SO2,15,17,16
India,Bihar,Araria,"Kharahiya Basti, Araria - BSPCB",24-01-2024 04:00:00,26.146529,87.454184,OZONE,9,39,13
India,Bihar,Aurangabad,"Gurdeo Nagar, Aurangabad - BSPCB",24-01-2024 04:00:00,24.75746,84.366208,NO2,6,14,9
India,Bihar,Bettiah,"Kamalnath Nagar, Bettiah - BSPCB",24-01-2024 04:00:00,26.80365,84.51954,PM10,27,107,66
India,Bihar,Bhagalpur,"DM Office_Kachari Chowk, Bhagalpur - BSPCB",24-01-2024 04:00:00,25.251013,86.989001,PM2.5,308,397,356
India,Bihar,Bhagalpur,"DM Office_Kachari Chowk, Bhagalpur - BSPCB",24-01-2024 04:00:00,25.251013,86.989001,PM10,150,261,204
India,Bihar,Bhagalpur,"DM Office_Kachari Chowk, Bhagalpur - BSPCB",24-01-2024 04:00:00,25.251013,86.989001,NH3,3,5,4
India,Bihar,Bhagalpur,"Mayaganj, Bhagalpur - BSPCB",24-01-2024 04:00:00,25.265194,87.012947,NO2,3,20,8
India,Bihar,Bihar Sharif,"D M Colony, Bihar Sharif - BSPCB",24-01-2024 04:00:00,25.204762,85.514960,PM2.5,22,57,33
India,Bihar,Bihar Sharif,"D M Colony, Bihar Sharif - BSPCB",24-01-2024 04:00:00,25.204762,85.514960,SO2,2,14,7
India,Bihar,Bihar Sharif,"D M Colony, Bihar Sharif - BSPCB",24-01-2024 04:00:00,25.204762,85.514960,CO,7,62,41
India,Bihar,Bihar Sharif,"D M Colony, Bihar Sharif - BSPCB",24-01-2024 04:00:00,25.204762,85.514960,OZONE,3,13,7
India,Bihar,Gaya,"Collectorate, Gaya - BSPCB",24-01-2024 04:00:00,24.7955,84.9994,PM2.5,198,416,289
India,Bihar,Gaya,"Collectorate, Gaya - BSPCB",24-01-2024 04:00:00,24.7955,84.9994,CO,25,46,37
India,Bihar,Gaya,"SFTI Kusdihra, Gaya - BSPCB",24-01-2024 04:00:00,24.762518,84.982348,NO2,24,35,28
India,Bihar,Gaya,"SFTI Kusdihra, Gaya - BSPCB",24-01-2024 04:00:00,24.762518,84.982348,NH3,5,6,5
India,Bihar,Hajipur,"Industrial Area, Hajipur - BSPCB",24-01-2024 04:00:00,25.697189,85.245900,NO2,NA,NA,NA
India,Bihar,Hajipur,"Industrial Area, Hajipur - BSPCB",24-01-2024 04:00:00,25.697189,85.245900,NH3,NA,NA,NA
India,Bihar,Hajipur,"Industrial Area, Hajipur - BSPCB",24-01-2024 04:00:00,25.697189,85.245900,CO,31,68,57
India,Bihar,Hajipur,"Industrial Area, Hajipur - BSPCB",24-01-2024 04:00:00,25.697189,85.245900,OZONE,1,60,1
India,Bihar,Katihar,"Mirchaibari, Katihar - BSPCB",24-01-2024 04:00:00,25.560083,87.553265,SO2,20,26,23
India,Bihar,Kishanganj,"SDM Office_Khagra, Kishanganj - BSPCB",24-01-2024 04:00:00,26.0881305,87.93840336,PM10,132,315,230
India,Bihar,Kishanganj,"SDM Office_Khagra, Kishanganj - BSPCB",24-01-2024 04:00:00,26.0881305,87.93840336,SO2,8,19,14
India,Bihar,Manguraha,"Forest Rest House, Manguraha - BSPCB",24-01-2024 04:00:00,27.308328,84.531742,PM2.5,NA,NA,NA
India,Bihar,Manguraha,"Forest Rest House, Manguraha - BSPCB",24-01-2024 04:00:00,27.308328,84.531742,PM10,NA,NA,NA
India,Bihar,Manguraha,"Forest Rest House, Manguraha - BSPCB",24-01-2024 04:00:00,27.308328,84.531742,OZONE,4,85,42
India,Bihar,Motihari,"Gandak Colony, Motihari - BSPCB",24-01-2024 04:00:00,26.63086,84.90051,PM10,83,163,119
India,Bihar,Motihari,"Gandak Colony, Motihari - BSPCB",24-01-2024 04:00:00,26.63086,84.90051,SO2,1,3,2
India,Bihar,Motihari,"Gandak Colony, Motihari - BSPCB",24-01-2024 04:00:00,26.63086,84.90051,OZONE,47,81,60
India,Bihar,Muzaffarpur,"MIT-Daudpur Kothi, Muzaffarpur - BSPCB",24-01-2024 04:00:00,26.1403345,85.3650192,PM10,119,284,180
India,Bihar,Muzaffarpur,"Muzaffarpur Collectorate, Muzaffarpur - BSPCB",24-01-2024 04:00:00,26.1209,85.3647,PM2.5,218,317,271
India,Bihar,Muzaffarpur,"Muzaffarpur Collectorate, Muzaffarpur - BSPCB",24-01-2024 04:00:00,26.1209,85.3647,SO2,4,12,6
India,Bihar,Patna,"DRM Office Danapur, Patna - BSPCB",24-01-2024 04:00:00,25.586562,85.043586,PM10,128,440,326
India,Bihar,Patna,"DRM Office Danapur, Patna - BSPCB",24-01-2024 04:00:00,25.586562,85.043586,NH3,4,5,4
India,Bihar,Patna,"Govt. High School Shikarpur, Patna - BSPCB",24-01-2024 04:00:00,25.592539,85.227158,PM10,129,152,143
India,Bihar,Patna,"Govt. High School Shikarpur, Patna - BSPCB",24-01-2024 04:00:00,25.592539,85.227158,NO2,10,30,21
India,Bihar,Patna,"IGSC Planetarium Complex, Patna - BSPCB",24-01-2024 04:00:00,25.610369,85.132568,PM2.5,74,220,141
India,Bihar,Patna,"Muradpur, Patna - BSPCB",24-01-2024 04:00:00,25.619651,85.147382,PM10,220,438,358
India,Bihar,Patna,"Muradpur, Patna - BSPCB",24-01-2024 04:00:00,25.619651,85.147382,CO,92,128,116
India,Bihar,Patna,"Rajbansi Nagar, Patna - BSPCB",24-01-2024 04:00:00,25.599486,85.113666,PM2.5,115,316,266
India,Bihar,Patna,"Samanpura, Patna - BSPCB",24-01-2024 04:00:00,25.596727,85.085624,PM2.5,31,469,253
India,Bihar,Patna,"Samanpura, Patna - BSPCB",24-01-2024 04:00:00,25.596727,85.085624,NO2,14,16,14
India,Bihar,Patna,"Samanpura, Patna - BSPCB",24-01-2024 04:00:00,25.596727,85.085624,CO,104,121,111
India,Bihar,Purnia,"Mariam Nagar, Purnia - BSPCB",24-01-2024 04:00:00,25.366336,87.117468,PM10,127,204,168
India,Bihar,Purnia,"Mariam Nagar, Purnia - BSPCB",24-01-2024 04:00:00,25.366336,87.117468,NO2,12,14,13
India,Bihar,Rajgir,"Dangi Tola, Rajgir - BSPCB",24-01-2024 04:00:00,25.03280,85.41948,PM2.5,NA,NA,NA
India,Bihar,Rajgir,"Dangi Tola, Rajgir - BSPCB",24-01-2024 04:00:00,25.03280,85.41948,NH3,NA,NA,NA
India,Bihar,Rajgir,"Dangi Tola, Rajgir - BSPCB",24-01-2024 04:00:00,25.03280,85.41948,CO,7,18,10
India,Bihar,Rajgir,"Dangi Tola, Rajgir - BSPCB",24-01-2024 04:00:00,25.03280,85.41948,OZONE,22,27,22
India,Bihar,Samastipur,"DM Office_Kasipur, Samastipur - BSPCB",24-01-2024 04:00:00,25.859655,85.77944,OZONE,10,16,12
India,Bihar,Sasaram,"Dada Peer, Sasaram - BSPCB",24-01-2024 04:00:00,24.952822,84.002396,OZONE,4,5,4
India,Bihar,Siwan,"Chitragupta Nagar, Siwan - BSPCB",24-01-2024 04:00:00,26.2271665,84.3570427,PM10,NA,NA,NA
India,Chandigarh,Chandigarh,"Sector 22, Chandigarh - CPCC",24-01-2024 04:00:00,30.735567,76.775714,SO2,1,22,8
India,Chandigarh,Chandigarh,"Sector 22, Chandigarh - CPCC",24-01-2024 04:00:00,30.735567,76.775714,OZONE,2,71,3
India,Chandigarh,Chandigarh,"Sector-25, Chandigarh - CPCC",24-01-2024 04:00:00,30.751462,76.762879,PM10,141,272,205
India,Chandigarh,Chandigarh,"Sector-25, Chandigarh - CPCC",24-01-2024 04:00:00,30.751462,76.762879,NH3,9,23,14
India,Chandigarh,Chandigarh,"Sector-53, Chandigarh - CPCC",24-01-2024 04:00:00,30.719859,76.738637,PM10,179,415,304
India,Chhattisgarh,Bhilai,"Civic Center, Bhilai - Bhilai Steel Plant",24-01-2024 04:00:00,21.185571,81.343175,NO2,5,31,12
India,Chhattisgarh,Bhilai,"Civic Center, Bhilai - Bhilai Steel Plant",24-01-2024 04:00:00,21.185571,81.343175,CO,30,52,45
India,Chhattisgarh,Bhilai,"Hathkhoj, Bhilai - CECB",24-01-2024 04:00:00,21.224231,81.408350,CO,33,58,45
India,Chhattisgarh,Bhilai,"Hathkhoj, Bhilai - CECB",24-01-2024 04:00:00,21.224231,81.408350,OZONE,9,22,13
India,Chhattisgarh,Bilaspur,"Mangala, Bilaspur - NTPC",24-01-2024 04:00:00,22.08815,82.13737,NO2,10,11,11
India,Chhattisgarh,Korba,"Rampur, Korba - CECB",24-01-2024 04:00:00,22.368195,82.746431,CO,20,48,40
India,Chhattisgarh,Korba,"Urja Nagar, Korba - CECB",24-01-2024 04:00:00,22.348441,82.549611,NO2,57,77,65
India,Chhattisgarh,Korba,"Urja Nagar, Korba - CECB",24-01-2024 04:00:00,22.348441,82.549611,NH3,3,12,6
India,Chhattisgarh,Kunjemura,"OP Jindal School, Kunjemura - CECB",24-01-2024 04:00:00,22.126650,83.483212,CO,36,62,58
India,Chhattisgarh,Raipur,"AIIMS, Raipur - CECB",24-01-2024 04:00:00,21.258815,81.578979,SO2,4,77,14
India,Chhattisgarh,Raipur,"AIIMS, Raipur - CECB",24-01-2024 04:00:00,21.258815,81.578979,OZONE,1,2,1
India,Chhattisgarh,Raipur,"Bhatagaon New ISBT, Raipur - CECB",24-01-2024 04:00:00,21.219665,81.630094,OZONE,3,3,3
India,Chhattisgarh,Raipur,"Krishak Nagar, Raipur - CECB",24-01-2024 04:00:00,21.237755,81.705301,PM2.5,53,67,60
India,Chhattisgarh,Raipur,"Krishak Nagar, Raipur - CECB",24-01-2024 04:00:00,21.237755,81.705301,SO2,5,10,8
India,Chhattisgarh,Raipur,"Krishak Nagar, Raipur - CECB",24-01-2024 04:00:00,21.237755,81.705301,OZONE,3,4,3
India,Chhattisgarh,Raipur,"Siltara Phase-II, Raipur - CECB",24-01-2024 04:00:00,21.371751,81.664929,CO,46,58,55
India,Chhattisgarh,Tumidih,"OP Jindal Industrial Park, Tumidih - CECB",24-01-2024 04:00:00,22.06631475,83.33820077,NO2,11,32,19
India,Delhi,Delhi,"Alipur, Delhi - DPCC",24-01-2024 04:00:00,28.815329,77.153010,NH3,11,15,13
India,Delhi,Delhi,"Aya Nagar, Delhi - IMD",24-01-2024 04:00:00,28.4706914,77.1099364,PM10,108,426,241
India,Delhi,Delhi,"Bawana, Delhi - DPCC",24-01-2024 04:00:00,28.776200,77.051074,SO2,4,8,6
India,Delhi,Delhi,"Bawana, Delhi - DPCC",24-01-2024 04:00:00,28.776200,77.051074,CO,64,103,96
India,Delhi,Delhi,"Burari Crossing, Delhi - IMD",24-01-2024 04:00:00,28.7256504,77.2011573,PM2.5,228,409,344
India,Delhi,Delhi,"DTU, Delhi - CPCB",24-01-2024 04:00:00,28.7500499,77.1112615,SO2,26,28,28
India,Delhi,Delhi,"Dr. Karni Singh Shooting Range, Delhi - DPCC",24-01-2024 04:00:00,28.498571,77.264840,NO2,31,119,70
India,Delhi,Delhi,"IGI Airport (T3), Delhi - IMD",24-01-2024 04:00:00,28.5627763,77.1180053,PM2.5,209,444,349
India,Delhi,Delhi,"ITO, Delhi - CPCB",24-01-2024 04:00:00,28.628624,77.241060,PM2.5,NA,NA,NA
India,Delhi,Delhi,"ITO, Delhi - CPCB",24-01-2024 04:00:00,28.628624,77.241060,PM10,NA,NA,NA
India,Delhi,Delhi,"Jahangirpuri, Delhi - DPCC",24-01-2024 04:00:00,28.732820,77.170633,OZONE,8,41,8
India,Delhi,Delhi,"Jawaharlal Nehru Stadium, Delhi - DPCC",24-01-2024 04:00:00,28.580280,77.233829,CO,60,104,103
India,Delhi,Delhi,"Lodhi Road, Delhi - IITM",24-01-2024 04:00:00,28.588333,77.221667,NO2,67,124,93
India,Delhi,Delhi,"Lodhi Road, Delhi - IITM",24-01-2024 04:00:00,28.588333,77.221667,SO2,15,27,22
India,Delhi,Delhi,"Lodhi Road, Delhi - IMD",24-01-2024 04:00:00,28.5918245,77.2273074,OZONE,12,12,12
India,Delhi,Delhi,"Mandir Marg, Delhi - DPCC",24-01-2024 04:00:00,28.636429,77.201067,NH3,15,17,16
India,Delhi,Delhi,"Mundka, Delhi - DPCC",24-01-2024 04:00:00,28.684678,77.076574,PM10,200,450,341
India,Delhi,Delhi,"Mundka, Delhi - DPCC",24-01-2024 04:00:00,28.684678,77.076574,SO2,1,6,4
India,Delhi,Delhi,"NSIT Dwarka, Delhi - CPCB",24-01-2024 04:00:00,28.60909,77.0325413,NH3,9,13,11
India,Delhi,Delhi,"Najafgarh, Delhi - DPCC",24-01-2024 04:00:00,28.570173,76.933762,OZONE,3,86,8
India,Delhi,Delhi,"Narela, Delhi - DPCC",24-01-2024 04:00:00,28.822836,77.101981,PM2.5,361,476,415
India,Delhi,Delhi,"Nehru Nagar, Delhi - DPCC",24-01-2024 04:00:00,28.567890,77.250515,CO,47,124,78
India,Delhi,Delhi,"New Moti Bagh, Delhi - MHUA",24-01-2024 04:00:00,28.57834,77.18400,NO2,1,15,5
India,Delhi,Delhi,"Okhla Phase-2, Delhi - DPCC",24-01-2024 04:00:00,28.530785,77.271255,PM10,173,452,339
India,Delhi,Delhi,"Okhla Phase-2, Delhi - DPCC",24-01-2024 04:00:00,28.530785,77.271255,NO2,41,146,91
India,Delhi,Delhi,"Okhla Phase-2, Delhi - DPCC",24-01-2024 04:00:00,28.530785,77.271255,SO2,3,14,7
India,Delhi,Delhi,"Okhla Phase-2, Delhi - DPCC",24-01-2024 04:00:00,28.530785,77.271255,CO,66,115,112
India,Delhi,Delhi,"Patparganj, Delhi - DPCC",24-01-2024 04:00:00,28.623763,77.287209,PM10,207,479,344
India,Delhi,Delhi,"Punjabi Bagh, Delhi - DPCC",24-01-2024 04:00:00,28.674045,77.131023,CO,57,71,65
India,Delhi,Delhi,"Pusa, Delhi - DPCC",24-01-2024 04:00:00,28.639652,77.146275,PM10,170,473,352
India,Delhi,Delhi,"Pusa, Delhi - DPCC",24-01-2024 04:00:00,28.639652,77.146275,NH3,21,40,31
India,Delhi,Delhi,"Pusa, Delhi - DPCC",24-01-2024 04:00:00,28.639652,77.146275,CO,44,106,89
India,Delhi,Delhi,"Pusa, Delhi - IMD",24-01-2024 04:00:00,28.636110,77.173332,PM2.5,NA,NA,NA
India,Delhi,Delhi,"R K Puram, Delhi - DPCC",24-01-2024 04:00:00,28.563262,77.186937,CO,65,118,114
India,Delhi,Delhi,"Shadipur, Delhi - CPCB",24-01-2024 04:00:00,28.6514781,77.1473105,NO2,37,68,55
India,Delhi,Delhi,"Sonia Vihar, Delhi - DPCC",24-01-2024 04:00:00,28.710508,77.249485,SO2,4,9,6
India,Delhi,Delhi,"Sonia Vihar, Delhi - DPCC",24-01-2024 04:00:00,28.710508,77.249485,OZONE,3,106,5
India,Delhi,Delhi,"Sri Aurobindo Marg, Delhi - DPCC",24-01-2024 04:00:00,28.531346,77.190156,OZONE,4,20,5
India,Delhi,Delhi,"Wazirpur, Delhi - DPCC",24-01-2024 04:00:00,28.699793,77.165453,CO,26,70,42
India,Gujarat,Ahmedabad,"Gyaspur, Ahmedabad - IITM",24-01-2024 04:00:00,22.977134,72.553024,CO,8,26,12
India,Gujarat,Ahmedabad,"Maninagar, Ahmedabad - GPCB",24-01-2024 04:00:00,23.002657,72.591912,CO,8,80,42
India,Gujarat,Ahmedabad,"Raikhad, Ahmedabad - IITM",24-01-2024 04:00:00,23.020509,72.579261,OZONE,8,9,9
India,Gujarat,Ahmedabad,"Rakhial, Ahmedabad - IITM",24-01-2024 04:00:00,23.016834,72.625775,NO2,9,98,33
India,Gujarat,Ahmedabad,"Rakhial, Ahmedabad - IITM",24-01-2024 04:00:00,23.016834,72.625775,SO2,4,16,6
India,Gujarat,Ahmedabad,"Rakhial, Ahmedabad - IITM",24-01-2024 04:00:00,23.016834,72.625775,CO,2,94,59
India,Gujarat,Ahmedabad,"SAC ISRO Bopal, Ahmedabad - IITM",24-01-2024 04:00:00,23.041137,72.456691,PM2.5,58,373,146
India,Gujarat,Ahmedabad,"SAC ISRO Bopal, Ahmedabad - IITM",24-01-2024 04:00:00,23.041137,72.456691,PM10,53,268,104
India,Gujarat,Ahmedabad,"SAC ISRO Bopal, Ahmedabad - IITM",24-01-2024 04:00:00,23.041137,72.456691,NO2,8,10,10
India,Gujarat,Ahmedabad,"SAC ISRO Satellite, Ahmedabad - IITM",24-01-2024 04:00:00,23.023389,72.515201,PM10,91,104,99
India,Gujarat,Ahmedabad,"SAC ISRO Satellite, Ahmedabad - IITM",24-01-2024 04:00:00,23.023389,72.515201,CO,41,49,48
India,Gujarat,Ahmedabad,"SVPI Airport Hansol, Ahmedabad - IITM",24-01-2024 04:00:00,23.076793,72.627874,SO2,5,9,7
India,Gujarat,Ahmedabad,"Sardar Vallabhbhai Patel Stadium, Ahmedabad - IITM",24-01-2024 04:00:00,23.043070,72.562968,PM2.5,80,343,212
India,Gujarat,Ahmedabad,"Sardar Vallabhbhai Patel Stadium, Ahmedabad - IITM",24-01-2024 04:00:00,23.043070,72.562968,PM10,94,281,159
India,Gujarat,Ahmedabad,"Sardar Vallabhbhai Patel Stadium, Ahmedabad - IITM",24-01-2024 04:00:00,23.043070,72.562968,OZONE,1,14,1
India,Gujarat,Gandhinagar,"IIPHG Lekawada, Gandhinagar - IITM",24-01-2024 04:00:00,23.243639,72.68994,NO2,13,15,14
India,Gujarat,Gandhinagar,"IIPHG Lekawada, Gandhinagar - IITM",24-01-2024 04:00:00,23.243639,72.68994,CO,38,76,70
India,Gujarat,Gandhinagar,"Sector-10, Gandhinagar - GPCB",24-01-2024 04:00:00,23.221714,72.654328,PM2.5,23,84,52
India,Gujarat,Gandhinagar,"Sector-10, Gandhinagar - GPCB",24-01-2024 04:00:00,23.221714,72.654328,PM10,42,143,82
India,Gujarat,Gandhinagar,"Sector-10, Gandhinagar - GPCB",24-01-2024 04:00:00,23.221714,72.654328,CO,19,20,20
India,Gujarat,Gandhinagar,"Sector-10, Gandhinagar - GPCB",24-01-2024 04:00:00,23.221714,72.654328,OZONE,NA,NA,NA
India,Gujarat,Surat,"Science Center, Surat - SMC",24-01-2024 04:00:00,21.170046,72.795405,SO2,14,27,19
India,Gujarat,Vapi,"Phase-1 GIDC, Vapi - GPCB",24-01-2024 04:00:00,20.362421,72.918013,SO2,36,48,43
India,Gujarat,Vapi,"Phase-1 GIDC, Vapi - GPCB",24-01-2024 04:00:00,20.362421,72.918013,CO,89,182,111
India,Gujarat,Vatva,"Phase-4 GIDC, Vatva - GPCB",24-01-2024 04:00:00,22.969611,72.643500,PM10,NA,NA,NA
India,Gujarat,Vatva,"Phase-4 GIDC, Vatva - GPCB",24-01-2024 04:00:00,22.969611,72.643500,CO,NA,NA,NA
India,Haryana,Ambala,"Patti Mehar, Ambala - HSPCB",24-01-2024 04:00:00,30.379589,76.778328,PM10,50,178,129
India,Haryana,Ambala,"Patti Mehar, Ambala - HSPCB",24-01-2024 04:00:00,30.379589,76.778328,SO2,1,16,7
India,Haryana,Ambala,"Patti Mehar, Ambala - HSPCB",24-01-2024 04:00:00,30.379589,76.778328,CO,30,60,42
India,Haryana,Bahadurgarh,"Arya Nagar, Bahadurgarh - HSPCB",24-01-2024 04:00:00,28.6701,76.9254,PM10,131,252,179
India,Haryana,Bhiwani,"H.B. Colony, Bhiwani - HSPCB",24-01-2024 04:00:00,28.806223,76.141105,PM10,79,154,110
India,Haryana,Bhiwani,"H.B. Colony, Bhiwani - HSPCB",24-01-2024 04:00:00,28.806223,76.141105,SO2,4,12,10
India,Haryana,Charkhi Dadri,"Mini Secretariat, Charkhi Dadri - HSPCB",24-01-2024 04:00:00,28.593883,76.270653,NO2,10,16,12
India,Haryana,Dharuhera,"Municipal Corporation Office, Dharuhera -  HSPCB",24-01-2024 04:00:00,28.206800,76.799700,PM2.5,51,306,182
India,Haryana,Dharuhera,"Municipal Corporation Office, Dharuhera -  HSPCB",24-01-2024 04:00:00,28.206800,76.799700,NH3,9,26,18
India,Haryana,Faridabad,"New Industrial Town, Faridabad - HSPCB",24-01-2024 04:00:00,28.39072,77.30059,NO2,5,17,10
India,Haryana,Faridabad,"New Industrial Town, Faridabad - HSPCB",24-01-2024 04:00:00,28.39072,77.30059,SO2,8,28,19
India,Haryana,Faridabad,"Sector 11, Faridabad - HSPCB",24-01-2024 04:00:00,28.376058,77.315741,NH3,6,6,6
India,Haryana,Faridabad,"Sector 11, Faridabad - HSPCB",24-01-2024 04:00:00,28.376058,77.315741,SO2,8,9,8
India,Haryana,Faridabad,"Sector 30, Faridabad - HSPCB",24-01-2024 04:00:00,28.4417,77.3217,NO2,29,32,31
India,Haryana,Faridabad,"Sector- 16A, Faridabad - HSPCB",24-01-2024 04:00:00,28.4088421,77.3099081,NO2,10,48,27
India,Haryana,Fatehabad,"Huda Sector, Fatehabad - HSPCB",24-01-2024 04:00:00,29.503664,75.467934,PM2.5,NA,NA,NA
India,Haryana,Fatehabad,"Huda Sector, Fatehabad - HSPCB",24-01-2024 04:00:00,29.503664,75.467934,NO2,NA,NA,NA
India,Haryana,Gurugram,"NISE Gwal Pahari, Gurugram - IMD",24-01-2024 04:00:00,28.422681,77.148944,OZONE,17,98,83
India,Haryana,Gurugram,"Sector-51, Gurugram - HSPCB",24-01-2024 04:00:00,28.4227,77.0667,NO2,13,61,34
India,Haryana,Gurugram,"Teri Gram, Gurugram - HSPCB",24-01-2024 04:00:00,28.4275,77.1465,OZONE,10,14,11
India,Haryana,Gurugram,"Vikas Sadan, Gurugram - HSPCB",24-01-2024 04:00:00,28.4501238,77.0263051,OZONE,8,68,13
India,Haryana,Hisar,"Urban Estate-II, Hisar - HSPCB",24-01-2024 04:00:00,29.140560,75.744941,NO2,6,10,8
India,Haryana,Hisar,"Urban Estate-II, Hisar - HSPCB",24-01-2024 04:00:00,29.140560,75.744941,OZONE,13,54,19
India,Haryana,Jind,"Police Lines, Jind - HSPCB",24-01-2024 04:00:00,29.307814,76.337619,PM10,127,164,142
India,Haryana,Jind,"Police Lines, Jind - HSPCB",24-01-2024 04:00:00,29.307814,76.337619,CO,2,141,90
India,Haryana,Kaithal,"Rishi Nagar, Kaithal - HSPCB",24-01-2024 04:00:00,29.8006,76.4155,NO2,24,26,25
India,Haryana,Kaithal,"Rishi Nagar, Kaithal - HSPCB",24-01-2024 04:00:00,29.8006,76.4155,SO2,9,89,22
India,Haryana,Karnal,"Sector-12, Karnal - HSPCB",24-01-2024 04:00:00,29.695300,77.002700,PM10,72,126,103
India,Haryana,Kurukshetra,"Sector-7, Kurukshetra - HSPCB",24-01-2024 04:00:00,29.966942,76.875879,PM10,75,156,101
India,Haryana,Mandikhera,"General Hospital, Mandikhera - HSPCB",24-01-2024 04:00:00,27.9002,76.9938,PM2.5,13,46,27
India,Haryana,Mandikhera,"General Hospital, Mandikhera - HSPCB",24-01-2024 04:00:00,27.9002,76.9938,NH3,18,23,20
India,Haryana,Manesar,"Sector-2 IMT, Manesar - HSPCB",24-01-2024 04:00:00,28.360699,76.936090,CO,28,76,61
India,Haryana,Panipat,"Sector-18, Panipat - HSPCB",24-01-2024 04:00:00,29.497973,76.993331,PM2.5,111,122,117
India,Haryana,Rohtak,"MD University, Rohtak - HSPCB",24-01-2024 04:00:00,28.52123,76.37138,PM2.5,29,337,204
India,Haryana,Sirsa,"F-Block, Sirsa - HSPCB",24-01-2024 04:00:00,29.536400,75.015800,NO2,10,10,10
India,Haryana,Yamuna Nagar,"Gobind Pura, Yamuna Nagar - HSPCB",24-01-2024 04:00:00,30.1480566,77.2893471,PM2.5,67,316,155
India,Haryana,Yamuna Nagar,"Gobind Pura, Yamuna Nagar - HSPCB",24-01-2024 04:00:00,30.1480566,77.2893471,SO2,3,49,10
India,Himachal Pradesh,Baddi,"HIMUDA Complex Phase-1, Baddi - HPPCB",24-01-2024 04:00:00,30.943887,76.801991,PM2.5,NA,NA,NA
India,Jharkhand,Dhanbad,"Kalakusuma, Dhanbad - DMC",24-01-2024 04:00:00,23.811548,86.481238,NO2,32,33,33
India,Jharkhand,Dhanbad,"Sardar Patel Nagar, Dhanbad - JSPCB",24-01-2024 04:00:00,23.80569,86.44268,SO2,9,83,23
India,Jharkhand,Pathardih,"Mohalbani Ghat, Pathardih - DMC",24-01-2024 04:00:00,23.669880,86.411725,PM2.5,NA,NA,NA
India,Jharkhand,Pathardih,"Mohalbani Ghat, Pathardih - DMC",24-01-2024 04:00:00,23.669880,86.411725,SO2,24,99,39
India,Jharkhand,Pathardih,"Mohalbani Ghat, Pathardih - DMC",24-01-2024 04:00:00,23.669880,86.411725,OZONE,13,25,16
