country,state,city,station,last_update,latitude,longitude,pollutant_id,pollutant_min,pollutant_max,pollutant_avg
India,Andhra_Pradesh,Amaravati,"Secretariat, Amaravati - APPCB",17-03-2024 19:00:00,16.5150833,80.5181667,OZONE,9,50,41
India,Andhra_Pradesh,Anantapur,"Gulzarpet, Anantapur - APPCB",17-03-2024 19:00:00,14.675886,77.593027,NH3,2,3,3
India,Andhra_Pradesh,Chittoor,"Gangineni Cheruvu, Chittoor - APPCB",17-03-2024 19:00:00,13.204880,79.097889,PM10,27,89,48
India,Andhra_Pradesh,Chittoor,"Gangineni Cheruvu, Chittoor - APPCB",17-03-2024 19:00:00,13.204880,79.097889,CO,NA,NA,NA
India,Andhra_Pradesh,Kadapa,"Yerramukkapalli, Kadapa - APPCB",17-03-2024 19:00:00,14.465052,78.824187,PM10,21,120,45
India,Andhra_Pradesh,Kadapa,"Yerramukkapalli, Kadapa - APPCB",17-03-2024 19:00:00,14.465052,78.824187,CO,10,17,12
India,Andhra_Pradesh,Rajamahendravaram,"Anand Kala Kshetram, Rajamahendravaram - APPCB",17-03-2024 19:00:00,16.9872867,81.7363176,NO2,7,29,18
India,Andhra_Pradesh,Tirupati,"Tirumala, Tirupati - APPCB",17-03-2024 19:00:00,13.67,79.35,PM2.5,35,101,52
India,Andhra_Pradesh,Tirupati,"Tirumala, Tirupati - APPCB",17-03-2024 19:00:00,13.67,79.35,NO2,19,41,26
India,Andhra_Pradesh,Vijayawada,"HB Colony, Vijayawada - APPCB",17-03-2024 19:00:00,16.536107,80.594233,NO2,4,12,7
India,Andhra_Pradesh,Vijayawada,"HB Colony, Vijayawada - APPCB",17-03-2024 19:00:00,16.536107,80.594233,SO2,3,4,4
India,Andhra_Pradesh,Vijayawada,"Rajiv Gandhi Park, Vijayawada - APPCB",17-03-2024 19:00:00,16.509717,80.612222,PM10,NA,NA,NA
India,Andhra_Pradesh,Vijayawada,"Rajiv Gandhi Park, Vijayawada - APPCB",17-03-2024 19:00:00,16.509717,80.612222,CO,38,44,44
India,Andhra_Pradesh,Vijayawada,"Rajiv Nagar, Vijayawada - APPCB",17-03-2024 19:00:00,16.554731,80.649110,PM2.5,59,67,62
India,Andhra_Pradesh,Vijayawada,"Rajiv Nagar, Vijayawada - APPCB",17-03-2024 19:00:00,16.554731,80.649110,NH3,1,2,1
India,Andhra_Pradesh,Vijayawada,"Rajiv Nagar, Vijayawada - APPCB",17-03-2024 19:00:00,16.554731,80.649110,CO,34,34,34
India,Arunachal_Pradesh,Naharlagun,"Naharlagun, Naharlagun - APSPCB",17-03-2024 19:00:00,27.103358,93.679645,CO,15,34,16
India,Assam,Guwahati,"IITG, Guwahati - PCBA",17-03-2024 19:00:00,26.2028636,91.70046436,PM10,117,415,231
India,Assam,Guwahati,"IITG, Guwahati - PCBA",17-03-2024 19:00:00,26.2028636,91.70046436,OZONE,1,44,33
India,Assam,Guwahati,"LGBI Airport, Guwahati - PCBA",17-03-2024 19:00:00,26.10887,91.589544,SO2,10,16,12
India,Assam,Guwahati,"Pan Bazaar, Guwahati - PCBA",17-03-2024 19:00:00,26.187500,91.744194,NH3,6,9,7
India,Assam,Guwahati,"Pan Bazaar, Guwahati - PCBA",17-03-2024 19:00:00,26.187500,91.744194,CO,24,113,35
India,Assam,Guwahati,"Railway Colony, Guwahati - PCBA",17-03-2024 19:00:00,26.181742,91.78063,NO2,NA,NA,NA
India,Assam,Guwahati,"Railway Colony, Guwahati - PCBA",17-03-2024 19:00:00,26.181742,91.78063,OZONE,5,30,18
India,Assam,Nagaon,"Christianpatty, Nagaon - PCBA",17-03-2024 19:00:00,26.349082,92.68449,PM10,32,108,69
India,Assam,Nalbari,"Bata Chowk, Nalbari - PCBA",17-03-2024 19:00:00,26.446912,91.439057,PM10,115,281,161
India,Assam,Sivasagar,"Girls College, Sivasagar - PCBA",17-03-2024 19:00:00,26.987634,94.636574,NO2,14,22,17
India,Assam,Sivasagar,"Girls College, Sivasagar - PCBA",17-03-2024 19:00:00,26.987634,94.636574,NH3,2,2,2
India,Bihar,Arrah,"New DM Office, Arrah - BSPCB",17-03-2024 19:00:00,25.5626095,84.663264,PM10,NA,NA,NA
India,Bihar,Arrah,"New DM Office, Arrah - BSPCB",17-03-2024 19:00:00,25.5626095,84.663264,OZONE,NA,NA,NA
India,Bihar,Aurangabad,"Gurdeo Nagar, Aurangabad - BSPCB",17-03-2024 19:00:00,24.75746,84.366208,NO2,4,5,5
India,Bihar,Aurangabad,"Gurdeo Nagar, Aurangabad - BSPCB",17-03-2024 19:00:00,24.75746,84.366208,CO,32,70,66
India,Bihar,Bettiah,"Kamalnath Nagar, Bettiah - BSPCB",17-03-2024 19:00:00,26.80365,84.51954,PM10,63,199,117
India,Bihar,Bettiah,"Kamalnath Nagar, Bettiah - BSPCB",17-03-2024 19:00:00,26.80365,84.51954,NO2,34,52,42
India,Bihar,Bettiah,"Kamalnath Nagar, Bettiah - BSPCB",17-03-2024 19:00:00,26.80365,84.51954,OZONE,2,22,16
India,Bihar,Bhagalpur,"DM Office_Kachari Chowk, Bhagalpur - BSPCB",17-03-2024 19:00:00,25.251013,86.989001,NH3,9,12,10
India,Bihar,Bhagalpur,"DM Office_Kachari Chowk, Bhagalpur - BSPCB",17-03-2024 19:00:00,25.251013,86.989001,SO2,NA,NA,NA
India,Bihar,Bihar Sharif,"D M Colony, Bihar Sharif - BSPCB",17-03-2024 19:00:00,25.204762,85.514960,PM10,NA,NA,NA
India,Bihar,Chhapra,"Darshan Nagar, Chhapra - BSPCB",17-03-2024 19:00:00,25.7808257,84.7446768,PM2.5,87,362,225
India,Bihar,Chhapra,"Darshan Nagar, Chhapra - BSPCB",17-03-2024 19:00:00,25.7808257,84.7446768,PM10,84,276,148
India,Bihar,Chhapra,"Darshan Nagar, Chhapra - BSPCB",17-03-2024 19:00:00,25.7808257,84.7446768,NO2,19,28,23
India,Bihar,Chhapra,"Darshan Nagar, Chhapra - BSPCB",17-03-2024 19:00:00,25.7808257,84.7446768,SO2,6,66,30
India,Bihar,Gaya,"Kareemganj, Gaya - BSPCB",17-03-2024 19:00:00,24.792403,84.992416,SO2,6,12,10
India,Bihar,Gaya,"Kareemganj, Gaya - BSPCB",17-03-2024 19:00:00,24.792403,84.992416,CO,12,103,45
India,Bihar,Hajipur,"Industrial Area, Hajipur - BSPCB",17-03-2024 19:00:00,25.697189,85.245900,SO2,6,9,7
India,Bihar,Katihar,"Mirchaibari, Katihar - BSPCB",17-03-2024 19:00:00,25.560083,87.553265,NO2,16,41,28
India,Bihar,Kishanganj,"SDM Office_Khagra, Kishanganj - BSPCB",17-03-2024 19:00:00,26.0881305,87.93840336,PM2.5,25,324,92
India,Bihar,Kishanganj,"SDM Office_Khagra, Kishanganj - BSPCB",17-03-2024 19:00:00,26.0881305,87.93840336,OZONE,15,27,16
India,Bihar,Manguraha,"Forest Rest House, Manguraha - BSPCB",17-03-2024 19:00:00,27.308328,84.531742,CO,77,100,91
India,Bihar,Munger,"Town Hall, Munger - BSPCB",17-03-2024 19:00:00,25.376776,86.471523,CO,4,100,28
India,Bihar,Muzaffarpur,"MIT-Daudpur Kothi, Muzaffarpur - BSPCB",17-03-2024 19:00:00,26.1403345,85.3650192,PM2.5,NA,NA,NA
India,Bihar,Muzaffarpur,"MIT-Daudpur Kothi, Muzaffarpur - BSPCB",17-03-2024 19:00:00,26.1403345,85.3650192,NH3,1,10,4
India,Bihar,Muzaffarpur,"MIT-Daudpur Kothi, Muzaffarpur - BSPCB",17-03-2024 19:00:00,26.1403345,85.3650192,CO,38,113,70
India,Bihar,Patna,"Govt. High School Shikarpur, Patna - BSPCB",17-03-2024 19:00:00,25.592539,85.227158,CO,23,60,29
India,Bihar,Patna,"IGSC Planetarium Complex, Patna - BSPCB",17-03-2024 19:00:00,25.610369,85.132568,SO2,4,4,4
India,Bihar,Patna,"Muradpur, Patna - BSPCB",17-03-2024 19:00:00,25.619651,85.147382,PM10,148,500,293
India,Bihar,Patna,"Rajbansi Nagar, Patna - BSPCB",17-03-2024 19:00:00,25.599486,85.113666,NH3,2,4,4
India,Bihar,Patna,"Rajbansi Nagar, Patna - BSPCB",17-03-2024 19:00:00,25.599486,85.113666,OZONE,2,94,74
India,Bihar,Patna,"Samanpura, Patna - BSPCB",17-03-2024 19:00:00,25.596727,85.085624,PM2.5,67,384,218
India,Bihar,Patna,"Samanpura, Patna - BSPCB",17-03-2024 19:00:00,25.596727,85.085624,CO,39,145,53
India,Bihar,Purnia,"Mariam Nagar, Purnia - BSPCB",17-03-2024 19:00:00,25.366336,87.117468,NO2,5,7,6
India,Bihar,Rajgir,"Dangi Tola, Rajgir - BSPCB",17-03-2024 19:00:00,25.03280,85.41948,PM10,36,140,82
India,Bihar,Rajgir,"Dangi Tola, Rajgir - BSPCB",17-03-2024 19:00:00,25.03280,85.41948,NH3,1,1,1
India,Bihar,Saharsa,"Police Line, Saharsa - BSPCB",17-03-2024 19:00:00,25.892357,86.590325,PM2.5,35,203,124
India,Bihar,Saharsa,"Police Line, Saharsa - BSPCB",17-03-2024 19:00:00,25.892357,86.590325,OZONE,11,48,43
India,Bihar,Samastipur,"DM Office_Kasipur, Samastipur - BSPCB",17-03-2024 19:00:00,25.859655,85.77944,OZONE,9,12,11
India,Bihar,Siwan,"Chitragupta Nagar, Siwan - BSPCB",17-03-2024 19:00:00,26.2271665,84.3570427,CO,2,138,36
India,Chandigarh,Chandigarh,"Sector 22, Chandigarh - CPCC",17-03-2024 19:00:00,30.735567,76.775714,PM10,65,148,110
India,Chandigarh,Chandigarh,"Sector 22, Chandigarh - CPCC",17-03-2024 19:00:00,30.735567,76.775714,NO2,22,117,57
India,Chandigarh,Chandigarh,"Sector 22, Chandigarh - CPCC",17-03-2024 19:00:00,30.735567,76.775714,SO2,9,28,17
India,Chandigarh,Chandigarh,"Sector 22, Chandigarh - CPCC",17-03-2024 19:00:00,30.735567,76.775714,OZONE,3,181,139
India,Chandigarh,Chandigarh,"Sector-25, Chandigarh - CPCC",17-03-2024 19:00:00,30.751462,76.762879,OZONE,1,52,41
India,Chandigarh,Chandigarh,"Sector-53, Chandigarh - CPCC",17-03-2024 19:00:00,30.719859,76.738637,PM2.5,48,250,150
India,Chhattisgarh,Bhilai,"32Bungalows, Bhilai - CECB",17-03-2024 19:00:00,21.194815,81.314770,PM2.5,33,63,46
India,Chhattisgarh,Bhilai,"Hathkhoj, Bhilai - CECB",17-03-2024 19:00:00,21.224231,81.408350,PM2.5,26,81,50
India,Chhattisgarh,Bilaspur,"Mangala, Bilaspur - NTPC",17-03-2024 19:00:00,22.08815,82.13737,PM2.5,NA,NA,NA
India,Chhattisgarh,Chhal,"Nawapara SECL Colony, Chhal - CECB",17-03-2024 19:00:00,22.118125,83.140608,PM10,47,95,66
India,Chhattisgarh,Chhal,"Nawapara SECL Colony, Chhal - CECB",17-03-2024 19:00:00,22.118125,83.140608,NO2,13,42,22
India,Chhattisgarh,Milupara,"Govt. Higher Secondary School, Milupara - CECB",17-03-2024 19:00:00,22.1910172,83.5197009,PM10,NA,NA,NA
India,Chhattisgarh,Milupara,"Govt. Higher Secondary School, Milupara - CECB",17-03-2024 19:00:00,22.1910172,83.5197009,SO2,NA,NA,NA
India,Chhattisgarh,Raipur,"AIIMS, Raipur - CECB",17-03-2024 19:00:00,21.258815,81.578979,OZONE,NA,NA,NA
India,Chhattisgarh,Raipur,"Bhatagaon New ISBT, Raipur - CECB",17-03-2024 19:00:00,21.219665,81.630094,PM10,25,131,59
India,Chhattisgarh,Raipur,"Siltara Phase-II, Raipur - CECB",17-03-2024 19:00:00,21.371751,81.664929,SO2,9,56,18
India,Chhattisgarh,Raipur,"Siltara Phase-II, Raipur - CECB",17-03-2024 19:00:00,21.371751,81.664929,OZONE,3,48,18
India,Chhattisgarh,Tumidih,"OP Jindal Industrial Park, Tumidih - CECB",17-03-2024 19:00:00,22.06631475,83.33820077,SO2,5,11,7
India,Delhi,Delhi,"Alipur, Delhi - DPCC",17-03-2024 19:00:00,28.815329,77.153010,NH3,4,9,6
India,Delhi,Delhi,"Alipur, Delhi - DPCC",17-03-2024 19:00:00,28.815329,77.153010,CO,36,59,38
India,Delhi,Delhi,"Alipur, Delhi - DPCC",17-03-2024 19:00:00,28.815329,77.153010,OZONE,6,170,127
India,Delhi,Delhi,"Ashok Vihar, Delhi - DPCC",17-03-2024 19:00:00,28.695381,77.181665,NH3,9,12,11
India,Delhi,Delhi,"Ashok Vihar, Delhi - DPCC",17-03-2024 19:00:00,28.695381,77.181665,CO,15,66,21
India,Delhi,Delhi,"Ashok Vihar, Delhi - DPCC",17-03-2024 19:00:00,28.695381,77.181665,OZONE,2,17,13
India,Delhi,Delhi,"Aya Nagar, Delhi - IMD",17-03-2024 19:00:00,28.4706914,77.1099364,PM2.5,66,348,199
India,Delhi,Delhi,"Bawana, Delhi - DPCC",17-03-2024 19:00:00,28.776200,77.051074,NH3,5,7,6
India,Delhi,Delhi,"Bawana, Delhi - DPCC",17-03-2024 19:00:00,28.776200,77.051074,SO2,10,55,22
India,Delhi,Delhi,"Burari Crossing, Delhi - IMD",17-03-2024 19:00:00,28.7256504,77.2011573,PM10,97,293,172
India,Delhi,Delhi,"CRRI Mathura Road, Delhi - IMD",17-03-2024 19:00:00,28.5512005,77.2735737,CO,34,118,56
India,Delhi,Delhi,"Chandni Chowk, Delhi - IITM",17-03-2024 19:00:00,28.656756,77.227234,PM10,107,177,140
India,Delhi,Delhi,"DTU, Delhi - CPCB",17-03-2024 19:00:00,28.7500499,77.1112615,PM2.5,55,321,158
India,Delhi,Delhi,"DTU, Delhi - CPCB",17-03-2024 19:00:00,28.7500499,77.1112615,PM10,87,332,177
India,Delhi,Delhi,"DTU, Delhi - CPCB",17-03-2024 19:00:00,28.7500499,77.1112615,NH3,8,12,10
India,Delhi,Delhi,"DTU, Delhi - CPCB",17-03-2024 19:00:00,28.7500499,77.1112615,SO2,26,29,28
India,Delhi,Delhi,"DTU, Delhi - CPCB",17-03-2024 19:00:00,28.7500499,77.1112615,CO,18,45,29
India,Delhi,Delhi,"DTU, Delhi - CPCB",17-03-2024 19:00:00,28.7500499,77.1112615,OZONE,27,76,47
India,Delhi,Delhi,"Dr. Karni Singh Shooting Range, Delhi - DPCC",17-03-2024 19:00:00,28.498571,77.264840,PM2.5,64,316,170
India,Delhi,Delhi,"Dwarka-Sector 8, Delhi - DPCC ",17-03-2024 19:00:00,28.5710274,77.0719006,PM10,111,480,272
India,Delhi,Delhi,"Dwarka-Sector 8, Delhi - DPCC ",17-03-2024 19:00:00,28.5710274,77.0719006,SO2,7,48,17
India,Delhi,Delhi,"IGI Airport (T3), Delhi - IMD",17-03-2024 19:00:00,28.5627763,77.1180053,PM2.5,57,351,179
India,Delhi,Delhi,"IHBAS, Dilshad Garden, Delhi - CPCB",17-03-2024 19:00:00,28.6811736,77.3025234,OZONE,10,35,28
India,Delhi,Delhi,"ITO, Delhi - CPCB",17-03-2024 19:00:00,28.628624,77.241060,CO,30,89,35
India,Delhi,Delhi,"Jawaharlal Nehru Stadium, Delhi - DPCC",17-03-2024 19:00:00,28.580280,77.233829,NH3,5,11,7
India,Delhi,Delhi,"Lodhi Road, Delhi - IITM",17-03-2024 19:00:00,28.588333,77.221667,PM2.5,38,403,120
India,Delhi,Delhi,"Lodhi Road, Delhi - IITM",17-03-2024 19:00:00,28.588333,77.221667,PM10,54,435,121
India,Delhi,Delhi,"Lodhi Road, Delhi - IITM",17-03-2024 19:00:00,28.588333,77.221667,NH3,8,11,9
India,Delhi,Delhi,"Major Dhyan Chand National Stadium, Delhi - DPCC",17-03-2024 19:00:00,28.611281,77.237738,PM2.5,60,332,162
India,Delhi,Delhi,"Major Dhyan Chand National Stadium, Delhi - DPCC",17-03-2024 19:00:00,28.611281,77.237738,NO2,33,154,90
India,Delhi,Delhi,"Mandir Marg, Delhi - DPCC",17-03-2024 19:00:00,28.636429,77.201067,PM2.5,42,291,135
India,Delhi,Delhi,"Mandir Marg, Delhi - DPCC",17-03-2024 19:00:00,28.636429,77.201067,PM10,78,149,115
India,Delhi,Delhi,"Mandir Marg, Delhi - DPCC",17-03-2024 19:00:00,28.636429,77.201067,SO2,5,11,7
India,Delhi,Delhi,"Mandir Marg, Delhi - DPCC",17-03-2024 19:00:00,28.636429,77.201067,CO,55,94,62
India,Delhi,Delhi,"Mandir Marg, Delhi - DPCC",17-03-2024 19:00:00,28.636429,77.201067,OZONE,1,25,19
India,Delhi,Delhi,"Mundka, Delhi - DPCC",17-03-2024 19:00:00,28.684678,77.076574,NO2,15,96,56
India,Delhi,Delhi,"NSIT Dwarka, Delhi - CPCB",17-03-2024 19:00:00,28.60909,77.0325413,SO2,3,31,15
India,Delhi,Delhi,"Najafgarh, Delhi - DPCC",17-03-2024 19:00:00,28.570173,76.933762,CO,16,105,28
India,Delhi,Delhi,"Narela, Delhi - DPCC",17-03-2024 19:00:00,28.822836,77.101981,OZONE,18,140,115
India,Delhi,Delhi,"Okhla Phase-2, Delhi - DPCC",17-03-2024 19:00:00,28.530785,77.271255,NO2,49,210,121
India,Delhi,Delhi,"Patparganj, Delhi - DPCC",17-03-2024 19:00:00,28.623763,77.287209,SO2,17,19,18
India,Delhi,Delhi,"Punjabi Bagh, Delhi - DPCC",17-03-2024 19:00:00,28.674045,77.131023,NO2,16,33,25
India,Delhi,Delhi,"Punjabi Bagh, Delhi - DPCC",17-03-2024 19:00:00,28.674045,77.131023,SO2,18,29,24
India,Delhi,Delhi,"R K Puram, Delhi - DPCC",17-03-2024 19:00:00,28.563262,77.186937,SO2,6,40,15
India,Delhi,Delhi,"Rohini, Delhi - DPCC",17-03-2024 19:00:00,28.732528,77.119920,OZONE,3,108,85
India,Delhi,Delhi,"Sirifort, Delhi - CPCB",17-03-2024 19:00:00,28.5504249,77.2159377,NO2,144,178,167
India,Delhi,Delhi,"Sirifort, Delhi - CPCB",17-03-2024 19:00:00,28.5504249,77.2159377,CO,10,76,20
India,Delhi,Delhi,"Sirifort, Delhi - CPCB",17-03-2024 19:00:00,28.5504249,77.2159377,OZONE,3,99,57
India,Delhi,Delhi,"Sonia Vihar, Delhi - DPCC",17-03-2024 19:00:00,28.710508,77.249485,OZONE,17,173,131
India,Delhi,Delhi,"Sri Aurobindo Marg, Delhi - DPCC",17-03-2024 19:00:00,28.531346,77.190156,NO2,20,93,59
India,Delhi,Delhi,"Vivek Vihar, Delhi - DPCC",17-03-2024 19:00:00,28.672342,77.315260,SO2,30,55,38
India,Delhi,Delhi,"Wazirpur, Delhi - DPCC",17-03-2024 19:00:00,28.699793,77.165453,NO2,51,148,103
India,Gujarat,Ahmedabad,"Chandkheda, Ahmedabad - IITM",17-03-2024 19:00:00,23.107969,72.574648,OZONE,4,66,59
India,Gujarat,Ahmedabad,"Gyaspur, Ahmedabad - IITM",17-03-2024 19:00:00,22.977134,72.553024,PM2.5,87,357,221
India,Gujarat,Ahmedabad,"Maninagar, Ahmedabad - GPCB",17-03-2024 19:00:00,23.002657,72.591912,PM2.5,36,216,86
India,Gujarat,Ahmedabad,"Raikhad, Ahmedabad - IITM",17-03-2024 19:00:00,23.020509,72.579261,PM10,160,459,251
India,Gujarat,Ahmedabad,"Raikhad, Ahmedabad - IITM",17-03-2024 19:00:00,23.020509,72.579261,NH3,1,5,3
India,Gujarat,Ahmedabad,"Rakhial, Ahmedabad - IITM",17-03-2024 19:00:00,23.016834,72.625775,NO2,15,93,40
India,Gujarat,Ahmedabad,"Rakhial, Ahmedabad - IITM",17-03-2024 19:00:00,23.016834,72.625775,NH3,1,26,21
India,Gujarat,Ahmedabad,"Rakhial, Ahmedabad - IITM",17-03-2024 19:00:00,23.016834,72.625775,SO2,4,9,6
India,Gujarat,Ahmedabad,"Rakhial, Ahmedabad - IITM",17-03-2024 19:00:00,23.016834,72.625775,CO,NA,NA,NA
India,Gujarat,Ahmedabad,"SAC ISRO Satellite, Ahmedabad - IITM",17-03-2024 19:00:00,23.023389,72.515201,SO2,3,30,8
India,Gujarat,Ahmedabad,"Sardar Vallabhbhai Patel Stadium, Ahmedabad - IITM",17-03-2024 19:00:00,23.043070,72.562968,NO2,8,17,15
India,Gujarat,Ahmedabad,"Sardar Vallabhbhai Patel Stadium, Ahmedabad - IITM",17-03-2024 19:00:00,23.043070,72.562968,NH3,2,2,2
India,Gujarat,Ankleshwar,"GIDC, Ankleshwar - GPCB",17-03-2024 19:00:00,21.613267,73.010555,PM2.5,62,141,107
India,Gujarat,Gandhinagar,"GIFT City, Gandhinagar - IITM",17-03-2024 19:00:00,23.163798,72.677768,PM10,NA,NA,NA
India,Gujarat,Gandhinagar,"IIPHG Lekawada, Gandhinagar - IITM",17-03-2024 19:00:00,23.243639,72.68994,PM2.5,50,169,91
India,Gujarat,Gandhinagar,"IIPHG Lekawada, Gandhinagar - IITM",17-03-2024 19:00:00,23.243639,72.68994,PM10,71,145,110
India,Gujarat,Gandhinagar,"IIPHG Lekawada, Gandhinagar - IITM",17-03-2024 19:00:00,23.243639,72.68994,NO2,37,53,44
India,Gujarat,Gandhinagar,"IIPHG Lekawada, Gandhinagar - IITM",17-03-2024 19:00:00,23.243639,72.68994,OZONE,10,56,51
India,Gujarat,Gandhinagar,"Sector-10, Gandhinagar - GPCB",17-03-2024 19:00:00,23.221714,72.654328,PM2.5,30,67,47
India,Gujarat,Gandhinagar,"Sector-10, Gandhinagar - GPCB",17-03-2024 19:00:00,23.221714,72.654328,PM10,62,113,82
India,Gujarat,Gandhinagar,"Sector-10, Gandhinagar - GPCB",17-03-2024 19:00:00,23.221714,72.654328,NO2,6,18,13
India,Gujarat,Gandhinagar,"Sector-10, Gandhinagar - GPCB",17-03-2024 19:00:00,23.221714,72.654328,NH3,1,1,1
India,Gujarat,Gandhinagar,"Sector-10, Gandhinagar - GPCB",17-03-2024 19:00:00,23.221714,72.654328,CO,37,121,40
India,Gujarat,Nandesari,"GIDC, Nandesari - Nandesari Ind. Association",17-03-2024 19:00:00,22.410802,73.097923,SO2,1,14,8
India,Gujarat,Vatva,"Phase-4 GIDC, Vatva - GPCB",17-03-2024 19:00:00,22.969611,72.643500,SO2,7,33,15
India,Haryana,Ambala,"Patti Mehar, Ambala - HSPCB",17-03-2024 19:00:00,30.379589,76.778328,PM2.5,42,72,61
India,Haryana,Bahadurgarh,"Arya Nagar, Bahadurgarh - HSPCB",17-03-2024 19:00:00,28.6701,76.9254,PM10,69,177,130
India,Haryana,Bhiwani,"H.B. Colony, Bhiwani - HSPCB",17-03-2024 19:00:00,28.806223,76.141105,NO2,8,11,9
India,Haryana,Charkhi Dadri,"Mini Secretariat, Charkhi Dadri - HSPCB",17-03-2024 19:00:00,28.593883,76.270653,SO2,29,71,42
India,Haryana,Dharuhera,"Municipal Corporation Office, Dharuhera -  HSPCB",17-03-2024 19:00:00,28.206800,76.799700,PM10,114,301,205
India,Haryana,Faridabad,"New Industrial Town, Faridabad - HSPCB",17-03-2024 19:00:00,28.39072,77.30059,PM2.5,220,342,294
India,Haryana,Faridabad,"New Industrial Town, Faridabad - HSPCB",17-03-2024 19:00:00,28.39072,77.30059,OZONE,1,258,195
India,Haryana,Faridabad,"Sector 11, Faridabad - HSPCB",17-03-2024 19:00:00,28.376058,77.315741,PM10,114,182,139
India,Haryana,Faridabad,"Sector 11, Faridabad - HSPCB",17-03-2024 19:00:00,28.376058,77.315741,CO,26,52,32
India,Haryana,Faridabad,"Sector 30, Faridabad - HSPCB",17-03-2024 19:00:00,28.4417,77.3217,NO2,30,33,31
India,Haryana,Fatehabad,"Huda Sector, Fatehabad - HSPCB",17-03-2024 19:00:00,29.503664,75.467934,PM2.5,14,124,68
India,Haryana,Gurugram,"Sector-51, Gurugram - HSPCB",17-03-2024 19:00:00,28.4227,77.0667,CO,32,80,45
India,Haryana,Gurugram,"Teri Gram, Gurugram - HSPCB",17-03-2024 19:00:00,28.4275,77.1465,PM2.5,58,441,200
India,Haryana,Gurugram,"Teri Gram, Gurugram - HSPCB",17-03-2024 19:00:00,28.4275,77.1465,CO,18,40,24
India,Haryana,Gurugram,"Vikas Sadan, Gurugram - HSPCB",17-03-2024 19:00:00,28.4501238,77.0263051,OZONE,8,68,51
India,Haryana,Hisar,"Urban Estate-II, Hisar - HSPCB",17-03-2024 19:00:00,29.140560,75.744941,NO2,20,27,21
India,Haryana,Jind,"Police Lines, Jind - HSPCB",17-03-2024 19:00:00,29.307814,76.337619,PM2.5,34,97,62
India,Haryana,Kaithal,"Rishi Nagar, Kaithal - HSPCB",17-03-2024 19:00:00,29.8006,76.4155,PM2.5,NA,NA,NA
India,Haryana,Kaithal,"Rishi Nagar, Kaithal - HSPCB",17-03-2024 19:00:00,29.8006,76.4155,NH3,NA,NA,NA
India,Haryana,Kaithal,"Rishi Nagar, Kaithal - HSPCB",17-03-2024 19:00:00,29.8006,76.4155,CO,NA,NA,NA
India,Haryana,Kaithal,"Rishi Nagar, Kaithal - HSPCB",17-03-2024 19:00:00,29.8006,76.4155,OZONE,NA,NA,NA
India,Haryana,Karnal,"Sector-12, Karnal - HSPCB",17-03-2024 19:00:00,29.695300,77.002700,PM2.5,59,94,74
India,Haryana,Karnal,"Sector-12, Karnal - HSPCB",17-03-2024 19:00:00,29.695300,77.002700,PM10,42,88,71
India,Haryana,Karnal,"Sector-12, Karnal - HSPCB",17-03-2024 19:00:00,29.695300,77.002700,OZONE,30,35,32
India,Haryana,Kurukshetra,"Sector-7, Kurukshetra - HSPCB",17-03-2024 19:00:00,29.966942,76.875879,CO,2,32,14
India,Haryana,Manesar,"Sector-2 IMT, Manesar - HSPCB",17-03-2024 19:00:00,28.360699,76.936090,PM2.5,53,140,90
India,Haryana,Manesar,"Sector-2 IMT, Manesar - HSPCB",17-03-2024 19:00:00,28.360699,76.936090,SO2,5,13,9
India,Haryana,Manesar,"Sector-2 IMT, Manesar - HSPCB",17-03-2024 19:00:00,28.360699,76.936090,CO,12,37,18
India,Haryana,Narnaul,"Shastri Nagar, Narnaul - HSPCB",17-03-2024 19:00:00,28.060249,76.113115,PM10,45,111,71
India,Haryana,Narnaul,"Shastri Nagar, Narnaul - HSPCB",17-03-2024 19:00:00,28.060249,76.113115,SO2,13,13,13
India,Haryana,Narnaul,"Shastri Nagar, Narnaul - HSPCB",17-03-2024 19:00:00,28.060249,76.113115,OZONE,53,63,57
India,Haryana,Palwal,"Shyam Nagar, Palwal - HSPCB",17-03-2024 19:00:00,28.1485564,77.3320667,CO,15,111,41
India,Haryana,Rohtak,"MD University, Rohtak - HSPCB",17-03-2024 19:00:00,28.52123,76.37138,OZONE,46,51,49
India,Haryana,Sonipat,"Murthal, Sonipat - HSPCB",17-03-2024 19:00:00,29.027200,77.062100,NO2,37,44,40
India,Haryana,Yamuna Nagar,"Gobind Pura, Yamuna Nagar - HSPCB",17-03-2024 19:00:00,30.1480566,77.2893471,CO,40,67,49
India,Himachal Pradesh,Baddi,"HIMUDA Complex Phase-1, Baddi - HPPCB",17-03-2024 19:00:00,30.943887,76.801991,SO2,16,110,44
India,Himachal Pradesh,Baddi,"HIMUDA Complex Phase-1, Baddi - HPPCB",17-03-2024 19:00:00,30.943887,76.801991,CO,20,52,23
India,Himachal Pradesh,Baddi,"HIMUDA Complex Phase-1, Baddi - HPPCB",17-03-2024 19:00:00,30.943887,76.801991,OZONE,30,168,144
India,Jharkhand,Dhanbad,"Kalakusuma, Dhanbad - DMC",17-03-2024 19:00:00,23.811548,86.481238,OZONE,35,36,36
India,Karnataka,Bagalkot,"Vidayagiri, Bagalkot - KSPCB",17-03-2024 19:00:00,16.172806,75.659694,NH3,1,2,1
India,Karnataka,Bagalkot,"Vidayagiri, Bagalkot - KSPCB",17-03-2024 19:00:00,16.172806,75.659694,OZONE,1,6,4
India,Karnataka,Bengaluru,"BTM Layout, Bengaluru - CPCB",17-03-2024 19:00:00,12.9135218,77.5950804,OZONE,38,92,66
India,Karnataka,Bengaluru,"Bapuji Nagar, Bengaluru - KSPCB",17-03-2024 19:00:00,12.951913,77.539784,PM10,NA,NA,NA
India,Karnataka,Bengaluru,"Hebbal, Bengaluru - KSPCB",17-03-2024 19:00:00,13.029152,77.585901,SO2,NA,NA,NA
India,Karnataka,Bengaluru,"Hebbal, Bengaluru - KSPCB",17-03-2024 19:00:00,13.029152,77.585901,CO,14,26,22
India,Karnataka,Bengaluru,"Hombegowda Nagar, Bengaluru - KSPCB",17-03-2024 19:00:00,12.938539,77.590100,PM2.5,47,101,74
India,Karnataka,Bengaluru,"Hombegowda Nagar, Bengaluru - KSPCB",17-03-2024 19:00:00,12.938539,77.590100,PM10,56,102,83
India,Karnataka,Bengaluru,"Hombegowda Nagar, Bengaluru - KSPCB",17-03-2024 19:00:00,12.938539,77.590100,NO2,NA,NA,NA
India,Karnataka,Bengaluru,"Hombegowda Nagar, Bengaluru - KSPCB",17-03-2024 19:00:00,12.938539,77.590100,SO2,3,4,4
India,Karnataka,Bengaluru,"Jayanagar 5th Block, Bengaluru - KSPCB",17-03-2024 19:00:00,12.920984,77.584908,SO2,14,41,20
India,Karnataka,Bengaluru,"Jigani, Bengaluru - KSPCB",17-03-2024 19:00:00,12.7816279,77.6299145,OZONE,18,77,64
India,Karnataka,Bengaluru,"Kasturi Nagar, Bengaluru - KSPCB",17-03-2024 19:00:00,13.003872,77.664217,NH3,3,4,4
India,Karnataka,Bengaluru,"Kasturi Nagar, Bengaluru - KSPCB",17-03-2024 19:00:00,13.003872,77.664217,SO2,10,10,10
India,Karnataka,Bengaluru,"Peenya, Bengaluru - CPCB",17-03-2024 19:00:00,13.0270199,77.494094,PM2.5,39,68,51
India,Karnataka,Bengaluru,"Peenya, Bengaluru - CPCB",17-03-2024 19:00:00,13.0270199,77.494094,SO2,3,8,6
India,Karnataka,Bengaluru,"RVCE-Mailasandra, Bengaluru - KSPCB",17-03-2024 19:00:00,12.921418,77.502466,PM2.5,135,328,244
India,Karnataka,Bengaluru,"RVCE-Mailasandra, Bengaluru - KSPCB",17-03-2024 19:00:00,12.921418,77.502466,OZONE,10,10,10
India,Karnataka,Bengaluru,"Sanegurava Halli, Bengaluru - KSPCB",17-03-2024 19:00:00,12.990328,77.5431385,PM10,33,67,41
India,Karnataka,Bengaluru,"Sanegurava Halli, Bengaluru - KSPCB",17-03-2024 19:00:00,12.990328,77.5431385,SO2,1,6,3
India,Karnataka,Bengaluru,"Shivapura_Peenya, Bengaluru - KSPCB",17-03-2024 19:00:00,13.0246342,77.5080115,NO2,15,16,16
India,Karnataka,Bengaluru,"Shivapura_Peenya, Bengaluru - KSPCB",17-03-2024 19:00:00,13.0246342,77.5080115,SO2,5,52,16
India,Karnataka,Bengaluru,"Shivapura_Peenya, Bengaluru - KSPCB",17-03-2024 19:00:00,13.0246342,77.5080115,OZONE,54,56,54
India,Karnataka,Bengaluru,"Silk Board, Bengaluru - KSPCB",17-03-2024 19:00:00,12.917348,77.622813,SO2,8,24,11
India,Karnataka,Bengaluru,"Silk Board, Bengaluru - KSPCB",17-03-2024 19:00:00,12.917348,77.622813,CO,5,26,10
India,Karnataka,Chamarajanagar,"Urban, Chamarajanagar - KSPCB",17-03-2024 19:00:00,11.55358,76.55521,CO,22,28,27
India,Karnataka,Davanagere,"Devaraj Urs Badavane, Davanagere - KSPCB",17-03-2024 19:00:00,14.475800,75.905200,NH3,NA,NA,NA
India,Karnataka,Davanagere,"Devaraj Urs Badavane, Davanagere - KSPCB",17-03-2024 19:00:00,14.475800,75.905200,SO2,2,7,5
India,Karnataka,Gadag,"Panchal Nagar, Gadag - KSPCB",17-03-2024 19:00:00,15.411456,75.638133,PM10,48,71,60
India,Karnataka,Haveri,"Ashwini Nagar, Haveri - KSPCB",17-03-2024 19:00:00,14.791800,75.389600,PM2.5,39,98,60
India,Karnataka,Hubballi,"Lingaraj Nagar, Hubballi - KSPCB",17-03-2024 19:00:00,15.3714823,75.1160168,SO2,2,8,5
India,Karnataka,Hubballi,"Lingaraj Nagar, Hubballi - KSPCB",17-03-2024 19:00:00,15.3714823,75.1160168,OZONE,14,52,46
India,Karnataka,Kalaburagi,"Lal Bahadur Shastri Nagar, Kalaburagi - KSPCB",17-03-2024 19:00:00,17.321993,76.822628,PM2.5,27,168,68
India,Karnataka,Kalaburagi,"Lal Bahadur Shastri Nagar, Kalaburagi - KSPCB",17-03-2024 19:00:00,17.321993,76.822628,SO2,14,19,17
India,Karnataka,Kalaburagi,"Mahatma Basaveswar Colony, Kalaburgi - KSPCB",17-03-2024 19:00:00,17.336318,76.847397,NH3,2,3,2
India,Karnataka,Koppal,"Diwator Nagar, Koppal - KSPCB",17-03-2024 19:00:00,15.347630,76.181767,PM2.5,NA,NA,NA
India,Karnataka,Koppal,"Diwator Nagar, Koppal - KSPCB",17-03-2024 19:00:00,15.347630,76.181767,SO2,NA,NA,NA
India,Karnataka,Madikeri,"Stuart Hill, Madikeri - KSPCB",17-03-2024 19:00:00,12.415911,75.735050,PM10,55,121,78
India,Karnataka,Madikeri,"Stuart Hill, Madikeri - KSPCB",17-03-2024 19:00:00,12.415911,75.735050,CO,2,61,19
India,Karnataka,Mangalore,"Kadri, Mangalore - KSPCB",17-03-2024 19:00:00,12.889250,74.853000,PM2.5,40,66,54
India,Karnataka,Mysuru,"Hebbal 1st Stage, Mysuru - KSPCB",17-03-2024 19:00:00,12.21041,76.37376,CO,3,39,12
India,Karnataka,Ramanagara,"Vijay Nagar, Ramanagara - KSPCB",17-03-2024 19:00:00,12.733409,77.298051,NO2,4,11,7
India,Karnataka,Ramanagara,"Vijay Nagar, Ramanagara - KSPCB",17-03-2024 19:00:00,12.733409,77.298051,NH3,1,1,1
India,Karnataka,Ramanagara,"Vijay Nagar, Ramanagara - KSPCB",17-03-2024 19:00:00,12.733409,77.298051,OZONE,27,30,28
India,Karnataka,Shivamogga,"Vinoba Nagara, Shivamogga - KSPCB",17-03-2024 19:00:00,13.940000,75.555917,NO2,9,18,14
India,Karnataka,Tumakuru,"Thimmalapura, Tumakuru - KSPCB",17-03-2024 19:00:00,13.377516,77.099072,PM2.5,15,26,19
India,Karnataka,Udupi,"Brahmagiri, Udupi - KSPCB",17-03-2024 19:00:00,13.34194444,74.74694444,NH3,1,1,1
India,Karnataka,Vijayapura,"Ibrahimpur, Vijayapura - KSPCB",17-03-2024 19:00:00,16.802639,75.722694,PM2.5,26,31,30
India,Karnataka,Vijayapura,"Ibrahimpur, Vijayapura - KSPCB",17-03-2024 19:00:00,16.802639,75.722694,PM10,38,39,39
India,Karnataka,Yadgir,"Collector Office, Yadgir - KSPCB",17-03-2024 19:00:00,16.7602,77.1428,NO2,5,11,6
India,Kerala,Kannur,"Thavakkara, Kannur - Kerala PCB",17-03-2024 19:00:00,11.875000,75.373200,NO2,6,6,6
India,Kerala,Kannur,"Thavakkara, Kannur - Kerala PCB",17-03-2024 19:00:00,11.875000,75.373200,CO,29,34,32
India,Kerala,Thiruvananthapuram,"Kariavattom, Thiruvananthapuram - Kerala PCB",17-03-2024 19:00:00,8.563700,76.886500,SO2,5,13,8
India,Kerala,Thiruvananthapuram,"Kariavattom, Thiruvananthapuram - Kerala PCB",17-03-2024 19:00:00,8.563700,76.886500,OZONE,27,33,30
India,Kerala,Thiruvananthapuram,"Plammoodu, Thiruvananthapuram - Kerala PCB",17-03-2024 19:00:00,8.5149093,76.9435879,NO2,8,10,9
India,Kerala,Thrissur,"Corporation Ground, Thrissur - Kerala PCB",17-03-2024 19:00:00,10.532400,76.215900,PM10,NA,NA,NA
India,Kerala,Thrissur,"Corporation Ground, Thrissur - Kerala PCB",17-03-2024 19:00:00,10.532400,76.215900,SO2,NA,NA,NA
India,Madhya Pradesh,Bhopal,"Idgah Hills, Bhopal - MPPCB",17-03-2024 19:00:00,23.264759,77.381568,NH3,3,7,5
India,Madhya Pradesh,Bhopal,"Paryavaran Parisar, Bhopal - MPPCB",17-03-2024 19:00:00,23.210494,77.425409,PM10,77,162,103
India,Madhya Pradesh,Bhopal,"Paryavaran Parisar, Bhopal - MPPCB",17-03-2024 19:00:00,23.210494,77.425409,NH3,8,11,9
India,Madhya Pradesh,Bhopal,"Paryavaran Parisar, Bhopal - MPPCB",17-03-2024 19:00:00,23.210494,77.425409,OZONE,22,86,78
India,Madhya Pradesh,Bhopal,"T T Nagar, Bhopal - MPPCB",17-03-2024 19:00:00,23.233584,77.400574,PM10,80,144,109
India,Madhya Pradesh,Bhopal,"T T Nagar, Bhopal - MPPCB",17-03-2024 19:00:00,23.233584,77.400574,NH3,5,8,7
India,Madhya Pradesh,Dewas,"Bhopal Chauraha, Dewas - MPPCB",17-03-2024 19:00:00,22.9682591,76.064118,OZONE,13,55,45
India,Madhya Pradesh,Gwalior,"City Center, Gwalior - MPPCB",17-03-2024 19:00:00,26.203442,78.193251,NO2,16,103,46
India,Madhya Pradesh,Gwalior,"City Center, Gwalior - MPPCB",17-03-2024 19:00:00,26.203442,78.193251,CO,4,114,16
India,Madhya Pradesh,Gwalior,"Deen Dayal Nagar, Gwalior - MPPCB",17-03-2024 19:00:00,26.259242,78.216432,PM2.5,41,324,179
India,Madhya Pradesh,Gwalior,"Deen Dayal Nagar, Gwalior - MPPCB",17-03-2024 19:00:00,26.259242,78.216432,PM10,61,352,180
India,Madhya Pradesh,Gwalior,"Maharaj Bada, Gwalior - MPPCB",17-03-2024 19:00:00,26.200388,78.147714,PM2.5,35,230,99
India,Madhya Pradesh,Indore,"Chhoti Gwaltoli, Indore - MPPCB",17-03-2024 19:00:00,22.4310,75.5213,PM10,100,206,126
India,Madhya Pradesh,Indore,"Chhoti Gwaltoli, Indore - MPPCB",17-03-2024 19:00:00,22.4310,75.5213,NH3,4,6,5
India,Madhya Pradesh,Indore,"Regional Park, Indore - IMC",17-03-2024 19:00:00,22.6780,75.8559,PM2.5,44,371,82
India,Madhya Pradesh,Indore,"Regional Park, Indore - IMC",17-03-2024 19:00:00,22.6780,75.8559,CO,23,55,24
India,Madhya Pradesh,Indore,"Residency Area, Indore - IMC",17-03-2024 19:00:00,22.7084,75.8815,PM2.5,45,143,68
India,Madhya Pradesh,Jabalpur,"Govindh Bhavan Colony, Jabalpur - JMC",17-03-2024 19:00:00,23.163174,79.973061,PM10,64,103,78
India,Madhya Pradesh,Jabalpur,"Govindh Bhavan Colony, Jabalpur - JMC",17-03-2024 19:00:00,23.163174,79.973061,SO2,11,34,22
India,Madhya Pradesh,Jabalpur,"Gupteshwar, Jabalpur - JMC",17-03-2024 19:00:00,23.142888,79.916147,CO,10,38,17
India,Madhya Pradesh,Jabalpur,"Marhatal, Jabalpur - MPPCB",17-03-2024 19:00:00,23.168606,79.932247,PM2.5,45,103,63
India,Madhya Pradesh,Jabalpur,"Marhatal, Jabalpur - MPPCB",17-03-2024 19:00:00,23.168606,79.932247,SO2,9,17,11
India,Madhya Pradesh,Jabalpur,"Suhagi, Jabalpur - JMC",17-03-2024 19:00:00,23.218135,79.957770,NO2,34,39,37
India,Madhya Pradesh,Katni,"Gole Bazar, Katni - MPPCB",17-03-2024 19:00:00,23.50016,80.23284,NH3,2,4,3
India,Madhya Pradesh,Katni,"Gole Bazar, Katni - MPPCB",17-03-2024 19:00:00,23.50016,80.23284,CO,38,66,43
India,Madhya Pradesh,Mandideep,"Sector-D Industrial Area, Mandideep - MPPCB",17-03-2024 19:00:00,23.108440,77.511428,NH3,3,5,4
India,Madhya Pradesh,Pithampur,"Sector-2 Industrial Area, Pithampur - MPPCB",17-03-2024 19:00:00,22.624758,75.675238,PM10,99,224,139
India,Madhya Pradesh,Sagar,"Civil Lines, Sagar - MPPCB",17-03-2024 19:00:00,23.838586,78.759431,PM2.5,41,79,53
India,Madhya Pradesh,Sagar,"Civil Lines, Sagar - MPPCB",17-03-2024 19:00:00,23.838586,78.759431,NO2,8,31,17
India,Madhya Pradesh,Sagar,"Deen Dayal Nagar, Sagar - MPPCB",17-03-2024 19:00:00,23.8640158,78.80289321,PM10,17,88,34
India,Madhya Pradesh,Sagar,"Deen Dayal Nagar, Sagar - MPPCB",17-03-2024 19:00:00,23.8640158,78.80289321,SO2,10,13,11
India,Madhya Pradesh,Satna,"Bandhavgar Colony, Satna - Birla Cement",17-03-2024 19:00:00,24.58434363,80.8549414,PM10,29,88,57
India,Madhya Pradesh,Ujjain,"Mahakaleshwar Temple, Ujjain - MPPCB",17-03-2024 19:00:00,23.182719 ,75.768218 ,PM2.5,32,84,53
India,Madhya Pradesh,Ujjain,"Mahakaleshwar Temple, Ujjain - MPPCB",17-03-2024 19:00:00,23.182719 ,75.768218 ,NH3,4,6,5
India,Maharashtra,Akola,"Ramdaspeth, Akola - MPCB",17-03-2024 19:00:00,20.719516,77.000253,CO,22,100,26
India,Maharashtra,Amravati,"Shivneri Colony, Amravati - MPCB",17-03-2024 19:00:00,20.9402359,77.7895248,NO2,8,79,23
India,Maharashtra,Amravati,"Shivneri Colony, Amravati - MPCB",17-03-2024 19:00:00,20.9402359,77.7895248,NH3,1,2,2
India,Maharashtra,Amravati,"Shri Shivaji Science College, Amaravati - MPCB",17-03-2024 19:00:00,20.939198,77.765701,CO,26,110,29
India,Maharashtra,Aurangabad,"MIDC Chilkalthana, Aurangabad - MPCB",17-03-2024 19:00:00,19.875620,75.387310,NH3,3,4,4
India,Maharashtra,Aurangabad,"MIDC Chilkalthana, Aurangabad - MPCB",17-03-2024 19:00:00,19.875620,75.387310,OZONE,4,305,252
India,Maharashtra,Aurangabad,"More Chowk Waluj, Aurangabad - MPCB",17-03-2024 19:00:00,19.8389439,75.244448,PM10,41,121,77
India,Maharashtra,Aurangabad,"Rachnakar Colony, Aurangabad - MPCB",17-03-2024 19:00:00,19.863756,75.321188,NO2,16,24,19
India,Maharashtra,Badlapur,"Katrap, Badlapur - MPCB",17-03-2024 19:00:00,19.16485,73.23409,NO2,2,21,9
India,Maharashtra,Badlapur,"Katrap, Badlapur - MPCB",17-03-2024 19:00:00,19.16485,73.23409,CO,18,88,28
India,Maharashtra,Bhiwandi,"Gokul Nagar, Bhiwandi - MPCB",17-03-2024 19:00:00,19.309073,73.057223,PM10,27,212,127
India,Maharashtra,Bhiwandi,"Gokul Nagar, Bhiwandi - MPCB",17-03-2024 19:00:00,19.309073,73.057223,SO2,2,23,6
India,Maharashtra,Bhiwandi,"Gokul Nagar, Bhiwandi - MPCB",17-03-2024 19:00:00,19.309073,73.057223,CO,12,104,16
India,Maharashtra,Chandrapur,"Chauhan Colony, Chandrapur - MPCB",17-03-2024 19:00:00,19.962900,79.298714,PM2.5,43,90,66
India,Maharashtra,Chandrapur,"MIDC Khutala, Chandrapur - MPCB",17-03-2024 19:00:00,19.9775302,79.2337086,CO,26,92,29
India,Maharashtra,Dhule,"Deopur, Dhule - MPCB",17-03-2024 19:00:00,20.918946,74.776388,PM2.5,77,214,129
India,Maharashtra,Jalgaon,"Prabhat Colony, Jalgaon - MPCB",17-03-2024 19:00:00,21.001264,75.565602,NO2,12,123,47
India,Maharashtra,Jalgaon,"Prabhat Colony, Jalgaon - MPCB",17-03-2024 19:00:00,21.001264,75.565602,SO2,2,20,10
India,Maharashtra,Jalna,"Old MIDC, Jalna - MPCB",17-03-2024 19:00:00,19.854616,75.905894,PM2.5,125,255,170
India,Maharashtra,Jalna,"Old MIDC, Jalna - MPCB",17-03-2024 19:00:00,19.854616,75.905894,PM10,84,136,112
India,Maharashtra,Jalna,"Old MIDC, Jalna - MPCB",17-03-2024 19:00:00,19.854616,75.905894,NO2,18,49,36
India,Maharashtra,Jalna,"Old MIDC, Jalna - MPCB",17-03-2024 19:00:00,19.854616,75.905894,CO,24,40,28
India,Maharashtra,Jalna,"Old MIDC, Jalna - MPCB",17-03-2024 19:00:00,19.854616,75.905894,OZONE,11,303,240
India,Maharashtra,Kalyan,"Khadakpada, Kalyan - MPCB",17-03-2024 19:00:00,19.25292,73.142019,SO2,NA,NA,NA
India,Maharashtra,Kolhapur,"Shivaji University, Kolhapur - MPCB",17-03-2024 19:00:00,16.6870449,74.2505872,SO2,3,25,8
India,Maharashtra,Latur,"Sawe Wadi, Latur - MPCB",17-03-2024 19:00:00,18.39963,76.57452,NH3,3,10,9
India,Maharashtra,Latur,"Sawe Wadi, Latur - MPCB",17-03-2024 19:00:00,18.39963,76.57452,SO2,1,17,7
India,Maharashtra,Latur,"Sawe Wadi, Latur - MPCB",17-03-2024 19:00:00,18.39963,76.57452,CO,10,44,22
India,Maharashtra,Mahad,"Kamble Tarf Birwadi, Mahad - MPCB",17-03-2024 19:00:00,18.1023399,73.4783687,SO2,NA,NA,NA
India,Maharashtra,Malegaon,"Mahesh Nagar, Malegaon - MPCB",17-03-2024 19:00:00,20.555712,74.529236,NO2,8,38,15
India,Maharashtra,Malegaon,"Mahesh Nagar, Malegaon - MPCB",17-03-2024 19:00:00,20.555712,74.529236,OZONE,6,119,92
India,Maharashtra,Mumbai,"Bandra Kurla Complex, Mumbai - MPCB",17-03-2024 19:00:00,19.065931,72.862131,CO,11,27,14
India,Maharashtra,Mumbai,"Borivali East, Mumbai - MPCB",17-03-2024 19:00:00,19.2243333,72.8658113,NO2,NA,NA,NA
India,Maharashtra,Mumbai,"Byculla, Mumbai - BMC",17-03-2024 19:00:00,18.9767,72.8380,PM10,74,107,90
India,Maharashtra,Mumbai,"Chakala-Andheri East, Mumbai - IITM",17-03-2024 19:00:00,19.11074,72.86084,PM10,65,414,112
India,Maharashtra,Mumbai,"Chakala-Andheri East, Mumbai - IITM",17-03-2024 19:00:00,19.11074,72.86084,NO2,53,128,87
India,Maharashtra,Mumbai,"Chembur, Mumbai - MPCB",17-03-2024 19:00:00,19.0364585,72.8954371,NH3,2,3,3
India,Maharashtra,Mumbai,"Colaba, Mumbai - MPCB",17-03-2024 19:00:00,18.910000,72.820000,NH3,1,1,1
India,Maharashtra,Mumbai,"Ghatkopar, Mumbai - BMC",17-03-2024 19:00:00,19.083694,72.920967,CO,8,22,11
India,Maharashtra,Mumbai,"Kandivali East, Mumbai - MPCB",17-03-2024 19:00:00,19.205800,72.868200,PM2.5,73,198,126
India,Maharashtra,Mumbai,"Kandivali West, Mumbai - BMC",17-03-2024 19:00:00,19.215859,72.831718,PM10,62,100,79
India,Maharashtra,Mumbai,"Kandivali West, Mumbai - BMC",17-03-2024 19:00:00,19.215859,72.831718,NO2,11,62,29
India,Maharashtra,Mumbai,"Kandivali West, Mumbai - BMC",17-03-2024 19:00:00,19.215859,72.831718,CO,12,34,15
India,Maharashtra,Mumbai,"Kandivali West, Mumbai - BMC",17-03-2024 19:00:00,19.215859,72.831718,OZONE,2,46,33
India,Maharashtra,Mumbai,"Kherwadi_Bandra East, Mumbai - MPCB",17-03-2024 19:00:00,19.0632143,72.8456324,PM10,106,142,124
India,Maharashtra,Mumbai,"Kherwadi_Bandra East, Mumbai - MPCB",17-03-2024 19:00:00,19.0632143,72.8456324,OZONE,11,95,84
India,Maharashtra,Mumbai,"Kurla, Mumbai - MPCB",17-03-2024 19:00:00,19.0863,72.8888,PM2.5,56,141,89
India,Maharashtra,Mumbai,"Mazgaon, Mumbai - IITM",17-03-2024 19:00:00,18.96702,72.84214,PM10,101,133,119
India,Maharashtra,Mumbai,"Mindspace-Malad West, Mumbai - MPCB",17-03-2024 19:00:00,19.1878657,72.8304069,PM2.5,NA,NA,NA
India,Maharashtra,Mumbai,"Mindspace-Malad West, Mumbai - MPCB",17-03-2024 19:00:00,19.1878657,72.8304069,PM10,NA,NA,NA
India,Maharashtra,Mumbai,"Mindspace-Malad West, Mumbai - MPCB",17-03-2024 19:00:00,19.1878657,72.8304069,NO2,NA,NA,NA
India,Maharashtra,Mumbai,"Mindspace-Malad West, Mumbai - MPCB",17-03-2024 19:00:00,19.1878657,72.8304069,NH3,NA,NA,NA
India,Maharashtra,Mumbai,"Mindspace-Malad West, Mumbai - MPCB",17-03-2024 19:00:00,19.1878657,72.8304069,CO,NA,NA,NA
India,Maharashtra,Mumbai,"Mulund West, Mumbai - MPCB",17-03-2024 19:00:00,19.1750,72.9419,PM2.5,28,49,38
India,Maharashtra,Mumbai,"Mulund West, Mumbai - MPCB",17-03-2024 19:00:00,19.1750,72.9419,NH3,NA,NA,NA
India,Maharashtra,Mumbai,"Navy Nagar-Colaba, Mumbai - IITM",17-03-2024 19:00:00,18.897756,72.813320,PM2.5,55,131,74
India,Maharashtra,Mumbai,"Navy Nagar-Colaba, Mumbai - IITM",17-03-2024 19:00:00,18.897756,72.813320,NO2,37,185,81
India,Maharashtra,Mumbai,"Navy Nagar-Colaba, Mumbai - IITM",17-03-2024 19:00:00,18.897756,72.813320,NH3,13,30,20
India,Maharashtra,Mumbai,"Navy Nagar-Colaba, Mumbai - IITM",17-03-2024 19:00:00,18.897756,72.813320,OZONE,37,201,135
India,Maharashtra,Mumbai,"Sewri, Mumbai - BMC",17-03-2024 19:00:00,19.000084,72.856730,PM10,75,107,97
India,Maharashtra,Mumbai,"Shivaji Nagar, Mumbai - BMC",17-03-2024 19:00:00,19.060498,72.923356,PM10,31,500,77
India,Maharashtra,Mumbai,"Shivaji Nagar, Mumbai - BMC",17-03-2024 19:00:00,19.060498,72.923356,OZONE,8,99,60
India,Maharashtra,Mumbai,"Sion, Mumbai - MPCB",17-03-2024 19:00:00,19.047000,72.874600,NH3,1,1,1
India,Maharashtra,Mumbai,"Vile Parle West, Mumbai - MPCB",17-03-2024 19:00:00,19.10861,72.83622,PM10,102,131,117
India,Maharashtra,Mumbai,"Vile Parle West, Mumbai - MPCB",17-03-2024 19:00:00,19.10861,72.83622,SO2,13,14,14
India,Maharashtra,Mumbai,"Worli, Mumbai - MPCB",17-03-2024 19:00:00,18.9936162,72.8128113,PM2.5,14,22,18
India,Maharashtra,Nagpur,"Ambazari, Nagpur - MPCB",17-03-2024 19:00:00,21.121801,79.04952,PM10,72,120,96
India,Maharashtra,Nagpur,"Ambazari, Nagpur - MPCB",17-03-2024 19:00:00,21.121801,79.04952,NH3,3,7,4
India,Maharashtra,Nagpur,"Mahal, Nagpur - MPCB",17-03-2024 19:00:00,21.14472,79.107595,NH3,2,8,5
India,Maharashtra,Nagpur,"Mahal, Nagpur - MPCB",17-03-2024 19:00:00,21.14472,79.107595,OZONE,13,83,68
India,Maharashtra,Nagpur,"Opp GPO Civil Lines, Nagpur - MPCB",17-03-2024 19:00:00,21.152875,79.0517531,PM2.5,86,165,113
India,Maharashtra,Nagpur,"Opp GPO Civil Lines, Nagpur - MPCB",17-03-2024 19:00:00,21.152875,79.0517531,SO2,6,32,15
India,Maharashtra,Nagpur,"Ram Nagar, Nagpur - MPCB",17-03-2024 19:00:00,21.143383,79.048912,PM2.5,63,186,100
India,Maharashtra,Nanded,"Sneh Nagar, Nanded - MPCB",17-03-2024 19:00:00,19.173852,77.296291,PM10,79,110,94
India,Maharashtra,Nanded,"Sneh Nagar, Nanded - MPCB",17-03-2024 19:00:00,19.173852,77.296291,NO2,24,61,36
India,Maharashtra,Nanded,"Sneh Nagar, Nanded - MPCB",17-03-2024 19:00:00,19.173852,77.296291,NH3,1,2,1
India,Maharashtra,Nanded,"Sneh Nagar, Nanded - MPCB",17-03-2024 19:00:00,19.173852,77.296291,OZONE,24,101,73
India,Maharashtra,Nashik,"Gangapur Road, Nashik - MPCB",17-03-2024 19:00:00,20.0073285,73.7762427,PM10,NA,NA,NA
India,Maharashtra,Nashik,"Gangapur Road, Nashik - MPCB",17-03-2024 19:00:00,20.0073285,73.7762427,NH3,NA,NA,NA
India,Maharashtra,Nashik,"Gangapur Road, Nashik - MPCB",17-03-2024 19:00:00,20.0073285,73.7762427,OZONE,NA,NA,NA
India,Maharashtra,Nashik,"Hirawadi, Nashik - MPCB",17-03-2024 19:00:00,20.021503,73.813844,SO2,4,12,9
India,Maharashtra,Nashik,"MIDC Ambad, Nashik - MPCB",17-03-2024 19:00:00,19.950220,73.731480,NO2,11,51,24
India,Maharashtra,Nashik,"MIDC Ambad, Nashik - MPCB",17-03-2024 19:00:00,19.950220,73.731480,NH3,3,4,3
India,Maharashtra,Nashik,"Pandav Nagari, Nashik - MPCB",17-03-2024 19:00:00,19.9591346,73.7788008,CO,14,82,17
India,Maharashtra,Navi Mumbai,"Mahape, Navi Mumbai - MPCB",17-03-2024 19:00:00,19.1135051,73.008978,PM10,101,270,156
India,Maharashtra,Navi Mumbai,"Mahape, Navi Mumbai - MPCB",17-03-2024 19:00:00,19.1135051,73.008978,NH3,NA,NA,NA
India,Maharashtra,Navi Mumbai,"Sanpada, Navi Mumbai - MPCB",17-03-2024 19:00:00,19.0575752,73.0151367,SO2,2,47,12
India,Maharashtra,Navi Mumbai,"Sector-19A Nerul, Navi Mumbai - IITM",17-03-2024 19:00:00,19.044,73.0325,PM2.5,82,182,112
India,Maharashtra,Navi Mumbai,"Sector-19A Nerul, Navi Mumbai - IITM",17-03-2024 19:00:00,19.044,73.0325,PM10,99,146,116
India,Maharashtra,Navi Mumbai,"Sector-19A Nerul, Navi Mumbai - IITM",17-03-2024 19:00:00,19.044,73.0325,NH3,9,23,17
India,Maharashtra,Navi Mumbai,"Sector-2E Kalamboli, Navi Mumbai - MPCB",17-03-2024 19:00:00,19.02579,73.10297,NH3,2,5,4
India,Maharashtra,Navi Mumbai,"Sector-2E Kalamboli, Navi Mumbai - MPCB",17-03-2024 19:00:00,19.02579,73.10297,CO,13,53,17
India,Maharashtra,Navi Mumbai,"Tondare-Taloja, Navi Mumbai - MPCB",17-03-2024 19:00:00,19.0630,73.1209,PM2.5,77,150,99
India,Maharashtra,Navi Mumbai,"Tondare-Taloja, Navi Mumbai - MPCB",17-03-2024 19:00:00,19.0630,73.1209,NH3,NA,NA,NA
India,Maharashtra,Parbhani,"Masoom Colony, Parbhani - MPCB",17-03-2024 19:00:00,19.265594,76.761463,PM2.5,38,355,243
India,Maharashtra,Pimpri-Chinchwad,"Gavalinagar, Pimpri Chinchwad - MPCB",17-03-2024 19:00:00,18.63673,73.82487,PM2.5,68,138,94
India,Maharashtra,Pimpri-Chinchwad,"Thergaon, Pimpri Chinchwad - MPCB",17-03-2024 19:00:00,18.616318,73.765797,PM10,118,160,133
India,Maharashtra,Pimpri-Chinchwad,"Thergaon, Pimpri Chinchwad - MPCB",17-03-2024 19:00:00,18.616318,73.765797,SO2,2,9,5
India,Maharashtra,Pimpri-Chinchwad,"Thergaon, Pimpri Chinchwad - MPCB",17-03-2024 19:00:00,18.616318,73.765797,CO,18,89,32
India,Maharashtra,Pune,"Bhosari, Pune - IITM",17-03-2024 19:00:00,18.640051,73.848956,OZONE,4,118,90
India,Maharashtra,Pune,"Karve Road, Pune - MPCB",17-03-2024 19:00:00,18.5011743,73.8165527,PM2.5,NA,NA,NA
India,Maharashtra,Pune,"Karve Road, Pune - MPCB",17-03-2024 19:00:00,18.5011743,73.8165527,NO2,NA,NA,NA
India,Maharashtra,Pune,"Mhada Colony, Pune - IITM",17-03-2024 19:00:00,18.573040,73.927715,PM2.5,36,130,81
India,Maharashtra,Pune,"Mhada Colony, Pune - IITM",17-03-2024 19:00:00,18.573040,73.927715,CO,7,68,43
India,Maharashtra,Pune,"Revenue Colony-Shivajinagar, Pune - IITM",17-03-2024 19:00:00,18.530085,73.849598,NO2,77,154,114
India,Maharashtra,Pune,"Revenue Colony-Shivajinagar, Pune - IITM",17-03-2024 19:00:00,18.530085,73.849598,CO,98,116,113
India,Maharashtra,Pune,"Savitribai Phule Pune University, Pune - MPCB",17-03-2024 19:00:00,18.547056,73.826908,CO,14,76,20
India,Maharashtra,Pune,"Transport Nagar-Nigdi, Pune - IITM",17-03-2024 19:00:00,18.664282,73.763966,NO2,15,21,17
India,Maharashtra,Pune,"Transport Nagar-Nigdi, Pune - IITM",17-03-2024 19:00:00,18.664282,73.763966,OZONE,2,61,54
India,Maharashtra,Sangli,"Vijay Nagar, Sangli - MPCB",17-03-2024 19:00:00, 16.5038,74.3623,NO2,6,65,22
India,Maharashtra,Sangli,"Vijay Nagar, Sangli - MPCB",17-03-2024 19:00:00, 16.5038,74.3623,OZONE,58,58,58
India,Maharashtra,Solapur,"Dnyaneshwar Nagar, Solapur - MPCB",17-03-2024 19:00:00,17.6336264,75.9132495,PM10,103,162,123
India,Maharashtra,Solapur,"Ratandeep Housing Society, Solapur - MPCB",17-03-2024 19:00:00,17.65439,75.90649,NH3,9,14,11
India,Maharashtra,Thane,"Upvan Fort, Thane - MPCB",17-03-2024 19:00:00,19.222279,72.957979,SO2,13,38,20
India,Manipur,Imphal,"Manipur University, Imphal - Manipur PCB",17-03-2024 19:00:00,24.7524239,93.9286218,NO2,7,25,14
India,Manipur,Imphal,"Manipur University, Imphal - Manipur PCB",17-03-2024 19:00:00,24.7524239,93.9286218,NH3,NA,NA,NA
India,Meghalaya,Shillong,"Lumpyngngad, Shillong - Meghalaya PCB",17-03-2024 19:00:00,25.5586,91.8985,OZONE,79,132,89
India,Mizoram,Aizawl,"Sikulpuikawn, Aizawl - Mizoram PCB",17-03-2024 19:00:00,23.7176342,92.7192841,NH3,NA,NA,NA
India,Odisha,Balasore,"Kalidaspur, Balasore - OSPCB",17-03-2024 19:00:00,21.51161,86.89088,PM2.5,28,75,50
India,Odisha,Barbil,"Forest Office, Barbil - OSPCB",17-03-2024 19:00:00,22.1166054,85.3945546,CO,16,104,30
India,Odisha,Baripada,"Meher Colony, Baripada - OSPCB",17-03-2024 19:00:00,21.941841,86.728318,CO,22,36,33
India,Odisha,Bhubaneswar,"Lingraj Mandir, Bhubaneswar - OSPCB",17-03-2024 19:00:00,20.240790,85.836784,PM10,48,109,72
India,Odisha,Bhubaneswar,"Lingraj Mandir, Bhubaneswar - OSPCB",17-03-2024 19:00:00,20.240790,85.836784,SO2,1,7,3
India,Odisha,Bhubaneswar,"Lingraj Mandir, Bhubaneswar - OSPCB",17-03-2024 19:00:00,20.240790,85.836784,CO,48,62,57
India,Odisha,Brajrajnagar,"GM Office, Brajrajnagar - OSPCB",17-03-2024 19:00:00,21.8004996,83.8396977,PM2.5,7,56,32
India,Odisha,Brajrajnagar,"GM Office, Brajrajnagar - OSPCB",17-03-2024 19:00:00,21.8004996,83.8396977,NH3,1,2,1
India,Odisha,Byasanagar,"Ferro Chrome Colony, Byasanagar - OSPCB",17-03-2024 19:00:00,20.94185,86.11510,PM10,30,119,58
India,Odisha,Byasanagar,"Ferro Chrome Colony, Byasanagar - OSPCB",17-03-2024 19:00:00,20.94185,86.11510,SO2,3,10,5
India,Odisha,Byasanagar,"Ferro Chrome Colony, Byasanagar - OSPCB",17-03-2024 19:00:00,20.94185,86.11510,OZONE,16,104,86
India,Odisha,Cuttack,"CDA Area, Cuttack - OSPCB",17-03-2024 19:00:00,20.48891     ,85.84768     ,PM2.5,20,62,40
India,Odisha,Cuttack,"CDA Area, Cuttack - OSPCB",17-03-2024 19:00:00,20.48891     ,85.84768     ,OZONE,10,89,68
India,Odisha,Nayagarh,"Dabuna, Nayagarh - OSPCB",17-03-2024 19:00:00,21.847279,85.416905,NO2,3,12,5
India,Odisha,Rairangpur,"Divisional Forest Office, Rairangpur - OSPCB",17-03-2024 19:00:00,22.265816,86.174829,PM10,46,120,65
India,Odisha,Rairangpur,"Divisional Forest Office, Rairangpur - OSPCB",17-03-2024 19:00:00,22.265816,86.174829,SO2,2,3,2
India,Odisha,Rairangpur,"Divisional Forest Office, Rairangpur - OSPCB",17-03-2024 19:00:00,22.265816,86.174829,OZONE,11,41,32
India,Odisha,Rourkela,"Fertilizer Township, Rourkela - OSPCB",17-03-2024 19:00:00,22.18972222,84.86277778,NO2,14,111,30
India,Odisha,Rourkela,"Sector-2, Rourkela - OSPCB",17-03-2024 19:00:00,22.24500000,84.88111111,CO,18,73,45
India,Odisha,Suakati,"OMC Colony, Suakati - OSPCB",17-03-2024 19:00:00,21.606865,85.510538,CO,18,34,33
India,Odisha,Talcher,"Talcher Coalfields,Talcher - OSPCB",17-03-2024 19:00:00,20.9360711,85.1707021,PM10,56,138,86
India,Odisha,Talcher,"Talcher Coalfields,Talcher - OSPCB",17-03-2024 19:00:00,20.9360711,85.1707021,CO,8,62,34
India,Puducherry,Puducherry,"Jawahar Nagar, Puducherry - PPCC",17-03-2024 19:00:00,11.9309,79.8027,PM10,8,54,21
India,Punjab,Bathinda,"Hardev Nagar, Bathinda - PPCB",17-03-2024 19:00:00,30.233011,74.907758,CO,5,105,46
India,Punjab,Jalandhar,"Civil Line, Jalandhar - PPCB",17-03-2024 19:00:00,31.321907,75.578914,PM10,48,104,80
India,Punjab,Jalandhar,"Civil Line, Jalandhar - PPCB",17-03-2024 19:00:00,31.321907,75.578914,OZONE,36,82,60
India,Punjab,Khanna,"Kalal Majra, Khanna - PPCB",17-03-2024 19:00:00,30.736056 ,76.209694,NO2,30,34,31
India,Punjab,Khanna,"Kalal Majra, Khanna - PPCB",17-03-2024 19:00:00,30.736056 ,76.209694,NH3,15,16,15
India,Punjab,Ludhiana,"Punjab Agricultural University, Ludhiana - PPCB",17-03-2024 19:00:00,30.9028,75.8086,NH3,5,5,5
India,Punjab,Mandi Gobindgarh,"RIMT University, Mandi Gobindgarh - PPCB",17-03-2024 19:00:00,30.649961,76.331442,PM10,54,200,117
India,Punjab,Mandi Gobindgarh,"RIMT University, Mandi Gobindgarh - PPCB",17-03-2024 19:00:00,30.649961,76.331442,NH3,3,3,3
India,Punjab,Mandi Gobindgarh,"RIMT University, Mandi Gobindgarh - PPCB",17-03-2024 19:00:00,30.649961,76.331442,CO,4,46,25
India,Rajasthan,Ajmer,"Civil Lines,  Ajmer - RSPCB",17-03-2024 19:00:00,26.470859,74.646594,PM2.5,45,129,69
India,Rajasthan,Ajmer,"Civil Lines,  Ajmer - RSPCB",17-03-2024 19:00:00,26.470859,74.646594,PM10,53,135,80
India,Rajasthan,Ajmer,"Civil Lines,  Ajmer - RSPCB",17-03-2024 19:00:00,26.470859,74.646594,CO,12,67,27
India,Rajasthan,Ajmer,"Civil Lines,  Ajmer - RSPCB",17-03-2024 19:00:00,26.470859,74.646594,OZONE,16,95,83
India,Rajasthan,Barmer,"Railway Colony, Barmer - RSPCB",17-03-2024 19:00:00,25.747299,71.393989,NO2,9,43,15
India,Rajasthan,Barmer,"Railway Colony, Barmer - RSPCB",17-03-2024 19:00:00,25.747299,71.393989,CO,10,59,11
India,Rajasthan,Bhiwadi,"RIICO Ind. Area III, Bhiwadi - RSPCB",17-03-2024 19:00:00,28.194909,76.862296,PM2.5,50,306,200
India,Rajasthan,Bhiwadi,"Vasundhara Nagar_UIT, Bhiwadi - RSPCB",17-03-2024 19:00:00,28.207266,76.829265,NH3,NA,NA,NA
India,Rajasthan,Bikaner,"MM Ground, Bikaner - RSPCB",17-03-2024 19:00:00,28.018792,73.292658,SO2,1,10,4
India,Rajasthan,Bundi,"New Colony, Bundi - RSPCB",17-03-2024 19:00:00,25.435774,75.644272,NO2,11,71,23
India,Rajasthan,Bundi,"New Colony, Bundi - RSPCB",17-03-2024 19:00:00,25.435774,75.644272,CO,14,62,21
India,Rajasthan,Chittorgarh,"Shastri Nagar, Chittorgarh - RSPCB",17-03-2024 19:00:00,24.892047,74.623527,NH3,1,9,6
India,Rajasthan,Chittorgarh,"Shastri Nagar, Chittorgarh - RSPCB",17-03-2024 19:00:00,24.892047,74.623527,CO,6,72,13
India,Rajasthan,Churu,"Subash Chowk, Churu - RSPCB",17-03-2024 19:00:00,28.296139,74.961696,SO2,5,22,12
India,Rajasthan,Dausa,"Khatikan Mohalla, Dausa - RSPCB",17-03-2024 19:00:00,26.895552,76.334753,CO,48,118,106
India,Rajasthan,Dholpur,"Raja Ganj, Dholpur - RSPCB",17-03-2024 19:00:00,26.699557,77.898881,CO,24,42,24
India,Rajasthan,Dungarpur,"Bhoiwada, Dungarpur - RSPCB",17-03-2024 19:00:00,23.837789,73.714926,SO2,8,12,10
India,Rajasthan,Dungarpur,"Bhoiwada, Dungarpur - RSPCB",17-03-2024 19:00:00,23.837789,73.714926,OZONE,43,113,102
India,Rajasthan,Hanumangarh,"Housing Board, Hanumangarh - RSPCB",17-03-2024 19:00:00,29.610750,74.283608,PM2.5,40,469,182
India,Rajasthan,Hanumangarh,"Housing Board, Hanumangarh - RSPCB",17-03-2024 19:00:00,29.610750,74.283608,NH3,9,19,12
India,Rajasthan,Hanumangarh,"Housing Board, Hanumangarh - RSPCB",17-03-2024 19:00:00,29.610750,74.283608,CO,38,104,49
India,Rajasthan,Jaipur,"Adarsh Nagar, Jaipur - RSPCB",17-03-2024 19:00:00,26.902909,75.836858,PM2.5,17,101,51
India,Rajasthan,Jaipur,"Adarsh Nagar, Jaipur - RSPCB",17-03-2024 19:00:00,26.902909,75.836858,NH3,3,18,6
India,Rajasthan,Jaipur,"Adarsh Nagar, Jaipur - RSPCB",17-03-2024 19:00:00,26.902909,75.836858,CO,6,84,20
India,Rajasthan,Jaipur,"Police Commissionerate, Jaipur - RSPCB",17-03-2024 19:00:00,26.9164092,75.7994901,NO2,16,114,42
India,Rajasthan,Jaipur,"Police Commissionerate, Jaipur - RSPCB",17-03-2024 19:00:00,26.9164092,75.7994901,CO,26,76,33
India,Rajasthan,Jaipur,"RIICO Sitapura, Jaipur - RSPCB",17-03-2024 19:00:00,26.786682,75.827928,NO2,15,160,45
India,Rajasthan,Jaipur,"Shastri Nagar, Jaipur - RSPCB",17-03-2024 19:00:00,26.9502929,75.730943,CO,15,60,36
India,Rajasthan,Jaisalmer,"Sadar Bazar, Jaisalmer - RSPCB",17-03-2024 19:00:00,26.912329,70.909168,SO2,4,6,5
India,Rajasthan,Jaisalmer,"Sadar Bazar, Jaisalmer - RSPCB",17-03-2024 19:00:00,26.912329,70.909168,CO,1,42,4
India,Rajasthan,Jalore,"Mudtra Sili, Jalore - RSPCB",17-03-2024 19:00:00,25.344694,72.626208,PM10,80,166,108
India,Rajasthan,Jhalawar,"Rajlaxmi Nagar, Jhalawar - RSPCB",17-03-2024 19:00:00,24.588397,76.172782,PM10,63,137,92
India,Rajasthan,Jhalawar,"Rajlaxmi Nagar, Jhalawar - RSPCB",17-03-2024 19:00:00,24.588397,76.172782,NH3,4,5,4
India,Rajasthan,Jhalawar,"Rajlaxmi Nagar, Jhalawar - RSPCB",17-03-2024 19:00:00,24.588397,76.172782,OZONE,19,108,98
India,Rajasthan,Jodhpur,"Collectorate, Jodhpur - RSPCB",17-03-2024 19:00:00,26.268249,73.0193853,PM10,50,229,107
India,Rajasthan,Jodhpur,"Digari Kalan, Jodhpur - RSPCB",17-03-2024 19:00:00,26.295810,73.082283,NH3,NA,NA,NA
India,Rajasthan,Jodhpur,"Digari Kalan, Jodhpur - RSPCB",17-03-2024 19:00:00,26.295810,73.082283,OZONE,NA,NA,NA
India,Rajasthan,Jodhpur,"Jhalamand, Jodhpur - RSPCB",17-03-2024 19:00:00,26.215415,73.070156,NH3,2,3,3
India,Rajasthan,Jodhpur,"Mandor, Jodhpur - RSPCB",17-03-2024 19:00:00,26.358805,73.047444,PM2.5,23,44,33
India,Rajasthan,Jodhpur,"Mandor, Jodhpur - RSPCB",17-03-2024 19:00:00,26.358805,73.047444,SO2,2,10,5
India,Rajasthan,Jodhpur,"Samrat Ashok Udhyan, Jodhpur - RSPCB",17-03-2024 19:00:00,26.253384,72.976571,NO2,7,71,22
India,Rajasthan,Jodhpur,"Samrat Ashok Udhyan, Jodhpur - RSPCB",17-03-2024 19:00:00,26.253384,72.976571,SO2,2,13,5
India,Rajasthan,Jodhpur,"Samrat Ashok Udhyan, Jodhpur - RSPCB",17-03-2024 19:00:00,26.253384,72.976571,CO,22,70,31
India,Rajasthan,Kota,"Dhanmandi, Kota - RSPCB",17-03-2024 19:00:00,25.164090,75.858137,PM2.5,21,254,71
India,Rajasthan,Kota,"Dhanmandi, Kota - RSPCB",17-03-2024 19:00:00,25.164090,75.858137,PM10,70,235,113
India,Rajasthan,Kota,"Dhanmandi, Kota - RSPCB",17-03-2024 19:00:00,25.164090,75.858137,NH3,4,43,10
India,Rajasthan,Kota,"Dhanmandi, Kota - RSPCB",17-03-2024 19:00:00,25.164090,75.858137,SO2,4,51,13
India,Rajasthan,Kota,"Nayapura, Kota - RSPCB",17-03-2024 19:00:00,25.196024,75.855668,OZONE,9,151,124
India,Rajasthan,Kota,"Shrinath Puram, Kota - RSPCB",17-03-2024 19:00:00,25.14389,75.821256,PM2.5,64,316,198
India,Rajasthan,Kota,"Shrinath Puram, Kota - RSPCB",17-03-2024 19:00:00,25.14389,75.821256,SO2,7,35,11
India,Rajasthan,Kota,"Shrinath Puram, Kota - RSPCB",17-03-2024 19:00:00,25.14389,75.821256,CO,12,54,26
India,Rajasthan,Pali,"Indira Colony Vistar, Pali - RSPCB",17-03-2024 19:00:00,25.771061, 73.340227,PM2.5,70,407,134
India,Rajasthan,Pali,"Indira Colony Vistar, Pali - RSPCB",17-03-2024 19:00:00,25.771061, 73.340227,OZONE,38,92,86
India,Rajasthan,Pratapgarh,"Pragati Nagar, Pratapgarh - RSPCB",17-03-2024 19:00:00,24.041198,74.780702,SO2,6,11,8
India,Rajasthan,Pratapgarh,"Pragati Nagar, Pratapgarh - RSPCB",17-03-2024 19:00:00,24.041198,74.780702,OZONE,63,136,125
India,Rajasthan,Sawai Madhopur,"Sahu Nagar, Sawai Madhopur - RSPCB",17-03-2024 19:00:00,26.031443,76.359327,PM10,46,131,79
India,Rajasthan,Sawai Madhopur,"Sahu Nagar, Sawai Madhopur - RSPCB",17-03-2024 19:00:00,26.031443,76.359327,OZONE,14,137,112
India,Rajasthan,Sikar,"Radhakishan Pura, Sikar - RSPCB",17-03-2024 19:00:00,27.608912,75.153302,PM10,46,342,104
India,Rajasthan,Sirohi,"Vedhaynath Colony, Sirohi - RSPCB",17-03-2024 19:00:00,24.885261,72.857549,CO,26,68,46
India,Rajasthan,Sri Ganganagar,"Old City, Sri Ganganagar - RSPCB",17-03-2024 19:00:00,29.931624,73.864511,PM2.5,28,418,166
India,Rajasthan,Tonk,"Shastri Nagar, Tonk - RSPCB",17-03-2024 19:00:00,26.159933,75.780517,PM2.5,NA,NA,NA
India,Rajasthan,Tonk,"Shastri Nagar, Tonk - RSPCB",17-03-2024 19:00:00,26.159933,75.780517,NH3,NA,NA,NA
India,Rajasthan,Tonk,"Shastri Nagar, Tonk - RSPCB",17-03-2024 19:00:00,26.159933,75.780517,CO,12,26,15
India,Rajasthan,Udaipur,"Ashok Nagar, Udaipur - RSPCB",17-03-2024 19:00:00,24.5886166,73.6321397,NO2,68,123,91
India,Sikkim,Gangtok,"Zero Point GICI, Gangtok - SSPCB",17-03-2024 19:00:00,27.338530,88.614099,PM10,40,123,68
India,Sikkim,Gangtok,"Zero Point GICI, Gangtok - SSPCB",17-03-2024 19:00:00,27.338530,88.614099,SO2,10,11,10
India,TamilNadu,Chengalpattu,"Crescent University, Chengalpattu - TNPCB",17-03-2024 19:00:00,12.8777316,80.0834807,PM2.5,5,208,48
India,TamilNadu,Chengalpattu,"Crescent University, Chengalpattu - TNPCB",17-03-2024 19:00:00,12.8777316,80.0834807,SO2,19,23,21
India,TamilNadu,Chengalpattu,"Crescent University, Chengalpattu - TNPCB",17-03-2024 19:00:00,12.8777316,80.0834807,OZONE,6,7,6
India,TamilNadu,Chennai,"Alandur Bus Depot, Chennai - CPCB",17-03-2024 19:00:00,12.9099161,80.1076538,PM2.5,51,81,65
India,TamilNadu,Chennai,"Alandur Bus Depot, Chennai - CPCB",17-03-2024 19:00:00,12.9099161,80.1076538,PM10,51,81,65
India,TamilNadu,Chennai,"Alandur Bus Depot, Chennai - CPCB",17-03-2024 19:00:00,12.9099161,80.1076538,NO2,2,13,6
India,TamilNadu,Chennai,"Alandur Bus Depot, Chennai - CPCB",17-03-2024 19:00:00,12.9099161,80.1076538,SO2,2,6,3
India,TamilNadu,Chennai,"Kodungaiyur, Chennai - TNPCB",17-03-2024 19:00:00,13.1278,80.2642,PM10,NA,NA,NA
India,TamilNadu,Chennai,"Kodungaiyur, Chennai - TNPCB",17-03-2024 19:00:00,13.1278,80.2642,SO2,NA,NA,NA
India,TamilNadu,Chennai,"Kodungaiyur, Chennai - TNPCB",17-03-2024 19:00:00,13.1278,80.2642,CO,NA,NA,NA
India,TamilNadu,Chennai,"Manali, Chennai - CPCB",17-03-2024 19:00:00,13.164544,80.26285,OZONE,10,16,11
India,TamilNadu,Chennai,"Royapuram, Chennai - TNPCB",17-03-2024 19:00:00,13.1036,80.2909,PM10,11,26,19
India,TamilNadu,Chennai,"Velachery Res. Area, Chennai - CPCB",17-03-2024 19:00:00,13.0052189,80.2398125,PM10,33,63,48
India,TamilNadu,Chennai,"Velachery Res. Area, Chennai - CPCB",17-03-2024 19:00:00,13.0052189,80.2398125,NH3,6,10,8
India,TamilNadu,Cuddalore,"Kudikadu, Cuddalore - TNPCB",17-03-2024 19:00:00,11.6829898,79.7532099,NH3,NA,NA,NA
India,TamilNadu,Cuddalore,"Semmandalam, Cuddalore - TNPCB",17-03-2024 19:00:00,11.7637683,79.7499835,OZONE,NA,NA,NA
India,TamilNadu,Gummidipoondi,"Anthoni Pillai Nagar, Gummidipoondi - TNPCB",17-03-2024 19:00:00,13.4127,80.1081,SO2,1,31,11
India,Telangana,Hyderabad,"Bollaram Industrial Area, Hyderabad - TSPCB",17-03-2024 19:00:00,17.540891,78.358528,PM2.5,32,68,50
India,Telangana,Hyderabad,"Bollaram Industrial Area, Hyderabad - TSPCB",17-03-2024 19:00:00,17.540891,78.358528,NH3,2,3,2
India,Telangana,Hyderabad,"ECIL Kapra, Hyderabad - TSPCB",17-03-2024 19:00:00,17.470431,78.566959,PM2.5,49,52,50
India,Telangana,Hyderabad,"IITH Kandi, Hyderabad - TSPCB",17-03-2024 19:00:00,17.585705,78.126199,CO,9,33,22
India,Telangana,Hyderabad,"Kokapet, Hyderabad - TSPCB",17-03-2024 19:00:00,17.393559,78.339194,OZONE,NA,NA,NA
India,Telangana,Hyderabad,"Nacharam_TSIIC IALA, Hyderabad - TSPCB",17-03-2024 19:00:00,17.429398,78.569354,CO,13,13,13
India,Telangana,Hyderabad,"New Malakpet, Hyderabad - TSPCB",17-03-2024 19:00:00,17.37206,78.50864,PM10,57,70,64
India,Telangana,Hyderabad,"Ramachandrapuram, Hyderabad - TSPCB",17-03-2024 19:00:00,17.528544,78.286195,NH3,2,2,2
India,Telangana,Hyderabad,"Ramachandrapuram, Hyderabad - TSPCB",17-03-2024 19:00:00,17.528544,78.286195,SO2,3,26,16
India,Telangana,Hyderabad,"Ramachandrapuram, Hyderabad - TSPCB",17-03-2024 19:00:00,17.528544,78.286195,CO,26,34,31
India,Telangana,Hyderabad,"Ramachandrapuram, Hyderabad - TSPCB",17-03-2024 19:00:00,17.528544,78.286195,OZONE,5,35,26
India,Telangana,Hyderabad,"Sanathnagar, Hyderabad - TSPCB",17-03-2024 19:00:00,17.4559458,78.4332152,OZONE,14,18,15
India,Telangana,Hyderabad,"Somajiguda, Hyderabad - TSPCB",17-03-2024 19:00:00,17.417094,78.457437,PM10,NA,NA,NA
India,Telangana,Hyderabad,"Somajiguda, Hyderabad - TSPCB",17-03-2024 19:00:00,17.417094,78.457437,NH3,NA,NA,NA
India,Telangana,Hyderabad,"Somajiguda, Hyderabad - TSPCB",17-03-2024 19:00:00,17.417094,78.457437,SO2,NA,NA,NA
India,Telangana,Hyderabad,"Somajiguda, Hyderabad - TSPCB",17-03-2024 19:00:00,17.417094,78.457437,OZONE,18,22,20
India,Tripura,Agartala,"Bardowali, Agartala - Tripura SPCB",17-03-2024 19:00:00,23.8175497,91.2726974,CO,19,64,32
India,Uttar_Pradesh,Agra,"Manoharpur, Agra - UPPCB",17-03-2024 19:00:00,27.23711,78.01936,PM10,NA,NA,NA
India,Uttar_Pradesh,Agra,"Rohta, Agra - UPPCB",17-03-2024 19:00:00,27.106972,78.000111,SO2,5,15,10
India,Uttar_Pradesh,Agra,"Sanjay Palace, Agra - UPPCB",17-03-2024 19:00:00,27.19865833,78.00598056,PM2.5,15,83,38
India,Uttar_Pradesh,Agra,"Sector-3B Avas Vikas Colony, Agra - UPPCB",17-03-2024 19:00:00,27.19412,77.96237,PM2.5,18,83,37
India,Uttar_Pradesh,Agra,"Sector-3B Avas Vikas Colony, Agra - UPPCB",17-03-2024 19:00:00,27.19412,77.96237,PM10,39,141,74
India,Uttar_Pradesh,Agra,"Sector-3B Avas Vikas Colony, Agra - UPPCB",17-03-2024 19:00:00,27.19412,77.96237,NO2,10,22,16
India,Uttar_Pradesh,Agra,"Sector-3B Avas Vikas Colony, Agra - UPPCB",17-03-2024 19:00:00,27.19412,77.96237,OZONE,2,7,5
India,Uttar_Pradesh,Agra,"Shahjahan Garden, Agra - UPPCB",17-03-2024 19:00:00,27.169338,78.03582,NH3,7,9,8
India,Uttar_Pradesh,Agra,"Shahjahan Garden, Agra - UPPCB",17-03-2024 19:00:00,27.169338,78.03582,OZONE,1,333,304
India,Uttar_Pradesh,Agra,"Shastripuram, Agra - UPPCB",17-03-2024 19:00:00,27.19862,77.92066,NO2,36,98,45
India,Uttar_Pradesh,Bareilly,"Civil Lines, Bareilly - UPPCB",17-03-2024 19:00:00,28.359581,79.414455,NO2,14,26,17
India,Uttar_Pradesh,Bareilly,"Rajendra Nagar, Bareilly - UPPCB",17-03-2024 19:00:00,28.38910936,79.42963708,PM2.5,21,56,40
India,Uttar_Pradesh,Bulandshahr,"Yamunapuram, Bulandshahr - UPPCB",17-03-2024 19:00:00,28.406963,77.849831,NO2,18,176,86
India,Uttar_Pradesh,Bulandshahr,"Yamunapuram, Bulandshahr - UPPCB",17-03-2024 19:00:00,28.406963,77.849831,NH3,11,17,13
India,Uttar_Pradesh,Firozabad,"Nagla Bhau, Firozabad - UPPCB",17-03-2024 19:00:00,27.168897,78.376960,NO2,16,17,17
India,Uttar_Pradesh,Firozabad,"Vibhab Nagar, Firozabad - UPPCB",17-03-2024 19:00:00,27.1594,78.3953,PM2.5,45,154,79
India,Uttar_Pradesh,Firozabad,"Vibhab Nagar, Firozabad - UPPCB",17-03-2024 19:00:00,27.1594,78.3953,OZONE,20,54,39
India,Uttar_Pradesh,Ghaziabad,"Sanjay Nagar, Ghaziabad - UPPCB",17-03-2024 19:00:00,28.685382,77.453839,SO2,24,65,42
India,Uttar_Pradesh,Ghaziabad,"Vasundhara, Ghaziabad - UPPCB",17-03-2024 19:00:00,28.6603346,77.3572563,SO2,NA,NA,NA
India,Uttar_Pradesh,Greater Noida,"Knowledge Park - III, Greater Noida - UPPCB",17-03-2024 19:00:00,28.47272,77.482000,NH3,8,10,9
India,Uttar_Pradesh,Greater Noida,"Knowledge Park - III, Greater Noida - UPPCB",17-03-2024 19:00:00,28.47272,77.482000,OZONE,1,262,164
India,Uttar_Pradesh,Greater Noida,"Knowledge Park - V, Greater Noida - UPPCB",17-03-2024 19:00:00,28.557054,77.453663,PM2.5,67,316,141
India,Uttar_Pradesh,Greater Noida,"Knowledge Park - V, Greater Noida - UPPCB",17-03-2024 19:00:00,28.557054,77.453663,SO2,10,51,22
India,Uttar_Pradesh,Hapur,"Anand Vihar, Hapur - UPPCB",17-03-2024 19:00:00,28.725645,77.749675,CO,34,82,43
India,Uttar_Pradesh,Jhansi,"Shivaji Nagar, Jhansi - UPPCB",17-03-2024 19:00:00,25.4547,78.6039,PM10,10,85,34
India,Uttar_Pradesh,Jhansi,"Shivaji Nagar, Jhansi - UPPCB",17-03-2024 19:00:00,25.4547,78.6039,SO2,11,15,12
India,Uttar_Pradesh,Kanpur,"FTI Kidwai Nagar, Kanpur - UPPCB",17-03-2024 19:00:00,26.428282,80.327067,NO2,23,24,24
India,Uttar_Pradesh,Kanpur,"FTI Kidwai Nagar, Kanpur - UPPCB",17-03-2024 19:00:00,26.428282,80.327067,SO2,23,24,24
India,Uttar_Pradesh,Kanpur,"NSI Kalyanpur, Kanpur - UPPCB",17-03-2024 19:00:00,26.509954,80.249612,CO,24,62,37
India,Uttar_Pradesh,Khurja,"Kalindi Kunj, Khurja - UPPCB",17-03-2024 19:00:00,28.2348927,77.8683002,PM2.5,43,197,95
India,Uttar_Pradesh,Lucknow,"B R Ambedkar University, Lucknow - UPPCB",17-03-2024 19:00:00,26.766433,80.927299,NH3,5,6,5
India,Uttar_Pradesh,Lucknow,"B R Ambedkar University, Lucknow - UPPCB",17-03-2024 19:00:00,26.766433,80.927299,CO,23,38,25
India,Uttar_Pradesh,Lucknow,"B R Ambedkar University, Lucknow - UPPCB",17-03-2024 19:00:00,26.766433,80.927299,OZONE,1,81,73
India,Uttar_Pradesh,Lucknow,"Gomti Nagar, Lucknow - UPPCB",17-03-2024 19:00:00,26.868120,81.005119,NO2,9,11,10
India,Uttar_Pradesh,Lucknow,"Kukrail Picnic Spot-1, Lucknow - UPPCB",17-03-2024 19:00:00,26.90723,80.98579,NO2,8,9,8
India,Uttar_Pradesh,Lucknow,"Lalbagh, Lucknow - CPCB",17-03-2024 19:00:00,26.8458805,80.9365541,PM2.5,61,206,102
India,Uttar_Pradesh,Lucknow,"Lalbagh, Lucknow - CPCB",17-03-2024 19:00:00,26.8458805,80.9365541,NO2,6,27,12
India,Uttar_Pradesh,Lucknow,"Talkatora District Industries Center, Lucknow - CPCB",17-03-2024 19:00:00,26.83399722,80.8917361,NH3,10,18,14
India,Uttar_Pradesh,Meerut,"Pallavpuram Phase 2, Meerut - UPPCB",17-03-2024 19:00:00,29.063510,77.709723,PM2.5,47,249,114
India,Uttar_Pradesh,Moradabad,"Buddhi Vihar, Moradabad - UPPCB",17-03-2024 19:00:00,28.83526,78.74460,OZONE,13,34,27
India,Uttar_Pradesh,Moradabad,"Eco Herbal Park, Moradabad - UPPCB",17-03-2024 19:00:00,28.840739,78.697531,PM10,55,118,87
India,Uttar_Pradesh,Moradabad,"Employment Office, Moradabad - UPPCB",17-03-2024 19:00:00,28.88528,78.73880,PM2.5,32,180,81
India,Uttar_Pradesh,Moradabad,"Jigar Colony, Moradabad - UPPCB",17-03-2024 19:00:00,28.856664,78.772638,PM10,84,172,129
India,Uttar_Pradesh,Noida,"Sector - 125, Noida - UPPCB",17-03-2024 19:00:00,28.5447608,77.3231257,NH3,17,29,22
India,Uttar_Pradesh,Noida,"Sector - 62, Noida - IMD",17-03-2024 19:00:00,28.6245479,77.3577104,PM2.5,59,254,136
India,Uttar_Pradesh,Noida,"Sector - 62, Noida - IMD",17-03-2024 19:00:00,28.6245479,77.3577104,OZONE,8,53,42
India,Uttar_Pradesh,Noida,"Sector-1, Noida - UPPCB",17-03-2024 19:00:00,28.5898,77.3101,NO2,34,113,71
India,Uttar_Pradesh,Noida,"Sector-116, Noida - UPPCB",17-03-2024 19:00:00,28.569230,77.393848,PM10,127,195,155
India,Uttar_Pradesh,Noida,"Sector-116, Noida - UPPCB",17-03-2024 19:00:00,28.569230,77.393848,NH3,4,7,6
India,Uttar_Pradesh,Prayagraj,"Motilal Nehru NIT, Prayagraj - UPPCB",17-03-2024 19:00:00,25.494,81.863,NH3,6,7,6
India,Uttar_Pradesh,Prayagraj,"Nagar Nigam, Prayagraj - UPPCB",17-03-2024 19:00:00,25.44919916 ,81.82735986 ,PM10,66,195,105
India,Uttar_Pradesh,Prayagraj,"Nagar Nigam, Prayagraj - UPPCB",17-03-2024 19:00:00,25.44919916 ,81.82735986 ,NO2,5,5,5
India,Uttar_Pradesh,Prayagraj,"Nagar Nigam, Prayagraj - UPPCB",17-03-2024 19:00:00,25.44919916 ,81.82735986 ,NH3,4,9,7
India,Uttar_Pradesh,Varanasi,"Ardhali Bazar, Varanasi - UPPCB",17-03-2024 19:00:00,25.3505986,82.9083074,PM2.5,9,38,25
India,Uttar_Pradesh,Varanasi,"Ardhali Bazar, Varanasi - UPPCB",17-03-2024 19:00:00,25.3505986,82.9083074,PM10,12,49,31
India,Uttar_Pradesh,Varanasi,"Bhelupur, Varanasi - UPPCB",17-03-2024 19:00:00,25.301778,82.996789,PM2.5,6,21,13
India,Uttar_Pradesh,Varanasi,"IESD Banaras Hindu University, Varanasi - UPPCB",17-03-2024 19:00:00,25.262326,82.995408,PM10,20,50,35
India,Uttar_Pradesh,Varanasi,"IESD Banaras Hindu University, Varanasi - UPPCB",17-03-2024 19:00:00,25.262326,82.995408,NO2,2,3,2
India,Uttar_Pradesh,Varanasi,"Maldahiya, Varanasi - UPPCB",17-03-2024 19:00:00,25.32393,82.99687,SO2,37,57,46
India,Uttarakhand,Dehradun,"Doon University, Dehradun - UKPCB",17-03-2024 19:00:00,30.269444,78.044167,SO2,1,3,2
India,Uttarakhand,Kashipur,"Govt. Girls Inter College, Kashipur - UKPCB",17-03-2024 19:00:00,29.2124114,78.9611753,NO2,5,27,12
India,Uttarakhand,Kashipur,"Govt. Girls Inter College, Kashipur - UKPCB",17-03-2024 19:00:00,29.2124114,78.9611753,OZONE,4,56,39
India,Uttarakhand,Rishikesh,"Shivaji Nagar, Rishikesh - UKPCB",17-03-2024 19:00:00,30.075911,78.2859547,NH3,2,3,3
India,West_Bengal,Asansol,"Asansol Court Area, Asansol - WBPCB",17-03-2024 19:00:00,23.685297,86.945968,NO2,8,32,19
India,West_Bengal,Asansol,"Asansol Court Area, Asansol - WBPCB",17-03-2024 19:00:00,23.685297,86.945968,CO,16,59,44
India,West_Bengal,Durgapur,"Sidhu Kanhu Indoor Stadium, Durgapur - WBPCB",17-03-2024 19:00:00,23.5404352,87.2892225,NO2,23,30,26
India,West_Bengal,Durgapur,"Sidhu Kanhu Indoor Stadium, Durgapur - WBPCB",17-03-2024 19:00:00,23.5404352,87.2892225,SO2,15,41,27
India,West_Bengal,Haldia,"Priyambada Housing Estate, Haldia - WBPCB",17-03-2024 19:00:00,22.06047,88.109737,PM2.5,18,70,29
India,West_Bengal,Haldia,"Priyambada Housing Estate, Haldia - WBPCB",17-03-2024 19:00:00,22.06047,88.109737,PM10,45,114,68
India,West_Bengal,Haldia,"Priyambada Housing Estate, Haldia - WBPCB",17-03-2024 19:00:00,22.06047,88.109737,SO2,9,34,17
India,West_Bengal,Howrah,"Belur Math, Howrah - WBPCB",17-03-2024 19:00:00,22.629801,88.352017,PM2.5,40,88,60
India,West_Bengal,Howrah,"Belur Math, Howrah - WBPCB",17-03-2024 19:00:00,22.629801,88.352017,SO2,10,16,14
India,West_Bengal,Kolkata,"Ballygunge, Kolkata - WBPCB",17-03-2024 19:00:00,22.5367507,88.3638022,PM10,43,98,72
India,West_Bengal,Kolkata,"Ballygunge, Kolkata - WBPCB",17-03-2024 19:00:00,22.5367507,88.3638022,NH3,9,17,11
India,West_Bengal,Kolkata,"Fort William, Kolkata - WBPCB",17-03-2024 19:00:00,22.556640,88.342674,PM2.5,25,78,49
India,West_Bengal,Kolkata,"Fort William, Kolkata - WBPCB",17-03-2024 19:00:00,22.556640,88.342674,SO2,10,26,16
India,West_Bengal,Kolkata,"Fort William, Kolkata - WBPCB",17-03-2024 19:00:00,22.556640,88.342674,CO,18,30,26
India,West_Bengal,Kolkata,"Rabindra Bharati University, Kolkata - WBPCB",17-03-2024 19:00:00,22.627847,88.380669,CO,26,35,32
India,West_Bengal,Kolkata,"Rabindra Sarobar, Kolkata - WBPCB",17-03-2024 19:00:00,22.51106,88.35142,PM2.5,36,74,53
India,West_Bengal,Kolkata,"Rabindra Sarobar, Kolkata - WBPCB",17-03-2024 19:00:00,22.51106,88.35142,NO2,29,73,46
India,West_Bengal,Kolkata,"Rabindra Sarobar, Kolkata - WBPCB",17-03-2024 19:00:00,22.51106,88.35142,SO2,9,31,18
India,West_Bengal,Kolkata,"Rabindra Sarobar, Kolkata - WBPCB",17-03-2024 19:00:00,22.51106,88.35142,OZONE,3,90,63
India,Andhra_Pradesh,Amaravati,"Secretariat, Amaravati - APPCB",17-03-2024 19:00:00,16.5150833,80.5181667,NO2,3,11,7
India,Andhra_Pradesh,Amaravati,"Secretariat, Amaravati - APPCB",17-03-2024 19:00:00,16.5150833,80.5181667,CO,22,48,37
India,Andhra_Pradesh,Kadapa,"Yerramukkapalli, Kadapa - APPCB",17-03-2024 19:00:00,14.465052,78.824187,NO2,8,8,8
India,Andhra_Pradesh,Rajamahendravaram,"Anand Kala Kshetram, Rajamahendravaram - APPCB",17-03-2024 19:00:00,16.9872867,81.7363176,PM10,31,62,46
India,Andhra_Pradesh,Rajamahendravaram,"Anand Kala Kshetram, Rajamahendravaram - APPCB",17-03-2024 19:00:00,16.9872867,81.7363176,OZONE,12,28,24
India,Andhra_Pradesh,Tirupati,"Tirumala, Tirupati - APPCB",17-03-2024 19:00:00,13.67,79.35,CO,10,36,22
India,Andhra_Pradesh,Tirupati,"Vaikuntapuram, Tirupati - APPCB",17-03-2024 19:00:00,13.615387,79.409230,NH3,2,3,2
India,Andhra_Pradesh,Tirupati,"Vaikuntapuram, Tirupati - APPCB",17-03-2024 19:00:00,13.615387,79.409230,CO,8,14,12
India,Andhra_Pradesh,Tirupati,"Vaikuntapuram, Tirupati - APPCB",17-03-2024 19:00:00,13.615387,79.409230,OZONE,9,42,34
India,Andhra_Pradesh,Vijayawada,"HB Colony, Vijayawada - APPCB",17-03-2024 19:00:00,16.536107,80.594233,CO,28,32,32
India,Andhra_Pradesh,Vijayawada,"Kanuru, Vijayawada - APPCB",17-03-2024 19:00:00,16.486692,80.699436,NO2,14,19,15
India,Andhra_Pradesh,Vijayawada,"Rajiv Nagar, Vijayawada - APPCB",17-03-2024 19:00:00,16.554731,80.649110,NO2,6,11,9
India,Andhra_Pradesh,Vijayawada,"Rajiv Nagar, Vijayawada - APPCB",17-03-2024 19:00:00,16.554731,80.649110,SO2,13,21,16
India,Andhra_Pradesh,Visakhapatnam,"GVM Corporation, Visakhapatnam - APPCB",17-03-2024 19:00:00,17.72,83.3,PM10,28,119,67
India,Andhra_Pradesh,Visakhapatnam,"GVM Corporation, Visakhapatnam - APPCB",17-03-2024 19:00:00,17.72,83.3,SO2,10,20,13
India,Assam,Byrnihat,"Central Academy for SFS, Byrnihat - PCBA",17-03-2024 19:00:00,26.071318,91.87488,PM10,81,475,245
India,Assam,Guwahati,"IITG, Guwahati - PCBA",17-03-2024 19:00:00,26.2028636,91.70046436,SO2,12,14,12
India,Assam,Guwahati,"IITG, Guwahati - PCBA",17-03-2024 19:00:00,26.2028636,91.70046436,CO,10,28,13
India,Assam,Guwahati,"LGBI Airport, Guwahati - PCBA",17-03-2024 19:00:00,26.10887,91.589544,PM10,131,336,200
India,Assam,Guwahati,"LGBI Airport, Guwahati - PCBA",17-03-2024 19:00:00,26.10887,91.589544,NH3,1,7,3
India,Assam,Guwahati,"LGBI Airport, Guwahati - PCBA",17-03-2024 19:00:00,26.10887,91.589544,CO,11,72,16
India,Assam,Guwahati,"LGBI Airport, Guwahati - PCBA",17-03-2024 19:00:00,26.10887,91.589544,OZONE,1,78,66
India,Assam,Guwahati,"Pan Bazaar, Guwahati - PCBA",17-03-2024 19:00:00,26.187500,91.744194,PM10,155,429,272
India,Assam,Nagaon,"Christianpatty, Nagaon - PCBA",17-03-2024 19:00:00,26.349082,92.68449,SO2,2,16,9
India,Assam,Nagaon,"Christianpatty, Nagaon - PCBA",17-03-2024 19:00:00,26.349082,92.68449,CO,12,100,35
India,Assam,Nalbari,"Bata Chowk, Nalbari - PCBA",17-03-2024 19:00:00,26.446912,91.439057,PM2.5,90,233,168
India,Assam,Nalbari,"Bata Chowk, Nalbari - PCBA",17-03-2024 19:00:00,26.446912,91.439057,NO2,13,52,23
India,Assam,Nalbari,"Bata Chowk, Nalbari - PCBA",17-03-2024 19:00:00,26.446912,91.439057,NH3,1,3,1
India,Assam,Silchar,"Tarapur, Silchar - PCBA",17-03-2024 19:00:00,24.82827,92.79525,CO,21,48,43
India,Assam,Sivasagar,"Girls College, Sivasagar - PCBA",17-03-2024 19:00:00,26.987634,94.636574,PM2.5,31,41,36
India,Assam,Sivasagar,"Girls College, Sivasagar - PCBA",17-03-2024 19:00:00,26.987634,94.636574,OZONE,1,11,7
India,Bihar,Bettiah,"Kamalnath Nagar, Bettiah - BSPCB",17-03-2024 19:00:00,26.80365,84.51954,PM2.5,43,309,152
India,Bihar,Bettiah,"Kamalnath Nagar, Bettiah - BSPCB",17-03-2024 19:00:00,26.80365,84.51954,NH3,3,6,3
India,Bihar,Bettiah,"Kamalnath Nagar, Bettiah - BSPCB",17-03-2024 19:00:00,26.80365,84.51954,SO2,9,20,13
India,Bihar,Bhagalpur,"Mayaganj, Bhagalpur - BSPCB",17-03-2024 19:00:00,25.265194,87.012947,NO2,6,13,10
India,Bihar,Bhagalpur,"Mayaganj, Bhagalpur - BSPCB",17-03-2024 19:00:00,25.265194,87.012947,OZONE,10,39,30
India,Bihar,Bihar Sharif,"D M Colony, Bihar Sharif - BSPCB",17-03-2024 19:00:00,25.204762,85.514960,NO2,9,10,9
India,Bihar,Bihar Sharif,"D M Colony, Bihar Sharif - BSPCB",17-03-2024 19:00:00,25.204762,85.514960,CO,15,44,31
India,Bihar,Buxar,"Charitra Van, Buxar - BSPCB (Formerly known as Central Jail)",17-03-2024 19:00:00,25.567520,83.966379,OZONE,2,168,133
India,Bihar,Chhapra,"Darshan Nagar, Chhapra - BSPCB",17-03-2024 19:00:00,25.7808257,84.7446768,NH3,8,14,11
India,Bihar,Gaya,"Collectorate, Gaya - BSPCB",17-03-2024 19:00:00,24.7955,84.9994,NO2,1,4,2
India,Bihar,Gaya,"Collectorate, Gaya - BSPCB",17-03-2024 19:00:00,24.7955,84.9994,CO,2,92,15
India,Bihar,Gaya,"Collectorate, Gaya - BSPCB",17-03-2024 19:00:00,24.7955,84.9994,OZONE,54,75,68
India,Bihar,Gaya,"Kareemganj, Gaya - BSPCB",17-03-2024 19:00:00,24.792403,84.992416,NH3,1,4,3
India,Bihar,Hajipur,"Industrial Area, Hajipur - BSPCB",17-03-2024 19:00:00,25.697189,85.245900,NH3,5,12,9
India,Bihar,Katihar,"Mirchaibari, Katihar - BSPCB",17-03-2024 19:00:00,25.560083,87.553265,NH3,7,11,9
India,Bihar,Kishanganj,"SDM Office_Khagra, Kishanganj - BSPCB",17-03-2024 19:00:00,26.0881305,87.93840336,SO2,27,40,33
India,Bihar,Manguraha,"Forest Rest House, Manguraha - BSPCB",17-03-2024 19:00:00,27.308328,84.531742,PM2.5,20,87,35
India,Bihar,Manguraha,"Forest Rest House, Manguraha - BSPCB",17-03-2024 19:00:00,27.308328,84.531742,SO2,3,3,3
India,Bihar,Muzaffarpur,"MIT-Daudpur Kothi, Muzaffarpur - BSPCB",17-03-2024 19:00:00,26.1403345,85.3650192,NO2,5,10,7
India,Bihar,Muzaffarpur,"MIT-Daudpur Kothi, Muzaffarpur - BSPCB",17-03-2024 19:00:00,26.1403345,85.3650192,OZONE,8,92,68
India,Bihar,Muzaffarpur,"Muzaffarpur Collectorate, Muzaffarpur - BSPCB",17-03-2024 19:00:00,26.1209,85.3647,NO2,9,22,12
India,Bihar,Patna,"DRM Office Danapur, Patna - BSPCB",17-03-2024 19:00:00,25.586562,85.043586,OZONE,1,52,44
India,Bihar,Patna,"Govt. High School Shikarpur, Patna - BSPCB",17-03-2024 19:00:00,25.592539,85.227158,NH3,5,5,5
India,Bihar,Patna,"IGSC Planetarium Complex, Patna - BSPCB",17-03-2024 19:00:00,25.610369,85.132568,CO,9,10,9
India,Bihar,Patna,"IGSC Planetarium Complex, Patna - BSPCB",17-03-2024 19:00:00,25.610369,85.132568,OZONE,2,52,34
India,Bihar,Patna,"Muradpur, Patna - BSPCB",17-03-2024 19:00:00,25.619651,85.147382,CO,18,117,28
India,Bihar,Patna,"Samanpura, Patna - BSPCB",17-03-2024 19:00:00,25.596727,85.085624,NH3,5,10,7
India,Bihar,Patna,"Samanpura, Patna - BSPCB",17-03-2024 19:00:00,25.596727,85.085624,SO2,15,16,16
India,Bihar,Purnia,"Mariam Nagar, Purnia - BSPCB",17-03-2024 19:00:00,25.366336,87.117468,SO2,3,11,7
India,Bihar,Rajgir,"Dangi Tola, Rajgir - BSPCB",17-03-2024 19:00:00,25.03280,85.41948,NO2,1,1,1
India,Bihar,Saharsa,"Police Line, Saharsa - BSPCB",17-03-2024 19:00:00,25.892357,86.590325,NH3,8,9,9
India,Bihar,Samastipur,"DM Office_Kasipur, Samastipur - BSPCB",17-03-2024 19:00:00,25.859655,85.77944,SO2,7,14,12
India,Bihar,Samastipur,"DM Office_Kasipur, Samastipur - BSPCB",17-03-2024 19:00:00,25.859655,85.77944,CO,16,32,23
India,Bihar,Siwan,"Chitragupta Nagar, Siwan - BSPCB",17-03-2024 19:00:00,26.2271665,84.3570427,PM2.5,37,322,210
India,Bihar,Siwan,"Chitragupta Nagar, Siwan - BSPCB",17-03-2024 19:00:00,26.2271665,84.3570427,NO2,11,53,23
India,Bihar,Siwan,"Chitragupta Nagar, Siwan - BSPCB",17-03-2024 19:00:00,26.2271665,84.3570427,NH3,1,6,2
India,Chandigarh,Chandigarh,"Sector 22, Chandigarh - CPCC",17-03-2024 19:00:00,30.735567,76.775714,NH3,5,8,6
India,Chandigarh,Chandigarh,"Sector 22, Chandigarh - CPCC",17-03-2024 19:00:00,30.735567,76.775714,CO,33,69,39
India,Chandigarh,Chandigarh,"Sector-53, Chandigarh - CPCC",17-03-2024 19:00:00,30.719859,76.738637,NH3,3,5,4
India,Chandigarh,Chandigarh,"Sector-53, Chandigarh - CPCC",17-03-2024 19:00:00,30.719859,76.738637,OZONE,8,75,64
India,Chhattisgarh,Bhilai,"Hathkhoj, Bhilai - CECB",17-03-2024 19:00:00,21.224231,81.408350,NO2,19,42,29
India,Chhattisgarh,Bhilai,"Hathkhoj, Bhilai - CECB",17-03-2024 19:00:00,21.224231,81.408350,CO,15,62,35
India,Chhattisgarh,Bilaspur,"Mangala, Bilaspur - NTPC",17-03-2024 19:00:00,22.08815,82.13737,PM10,NA,NA,NA
India,Chhattisgarh,Chhal,"Nawapara SECL Colony, Chhal - CECB",17-03-2024 19:00:00,22.118125,83.140608,CO,28,55,47
India,Chhattisgarh,Korba,"Rampur, Korba - CECB",17-03-2024 19:00:00,22.368195,82.746431,PM2.5,29,50,38
India,Chhattisgarh,Korba,"Urja Nagar, Korba - CECB",17-03-2024 19:00:00,22.348441,82.549611,CO,31,41,36
India,Chhattisgarh,Milupara,"Govt. Higher Secondary School, Milupara - CECB",17-03-2024 19:00:00,22.1910172,83.5197009,OZONE,NA,NA,NA
India,Chhattisgarh,Raipur,"AIIMS, Raipur - CECB",17-03-2024 19:00:00,21.258815,81.578979,NO2,NA,NA,NA
India,Chhattisgarh,Raipur,"AIIMS, Raipur - CECB",17-03-2024 19:00:00,21.258815,81.578979,NH3,NA,NA,NA
India,Chhattisgarh,Raipur,"AIIMS, Raipur - CECB",17-03-2024 19:00:00,21.258815,81.578979,SO2,NA,NA,NA
India,Chhattisgarh,Raipur,"AIIMS, Raipur - CECB",17-03-2024 19:00:00,21.258815,81.578979,CO,NA,NA,NA
India,Chhattisgarh,Raipur,"Bhatagaon New ISBT, Raipur - CECB",17-03-2024 19:00:00,21.219665,81.630094,SO2,1,3,2
India,Chhattisgarh,Raipur,"Bhatagaon New ISBT, Raipur - CECB",17-03-2024 19:00:00,21.219665,81.630094,CO,19,36,29
India,Chhattisgarh,Raipur,"Bhatagaon New ISBT, Raipur - CECB",17-03-2024 19:00:00,21.219665,81.630094,OZONE,3,6,5
India,Chhattisgarh,Raipur,"Krishak Nagar, Raipur - CECB",17-03-2024 19:00:00,21.237755,81.705301,PM2.5,30,91,52
India,Chhattisgarh,Raipur,"Krishak Nagar, Raipur - CECB",17-03-2024 19:00:00,21.237755,81.705301,PM10,30,106,57
India,Chhattisgarh,Raipur,"Krishak Nagar, Raipur - CECB",17-03-2024 19:00:00,21.237755,81.705301,OZONE,3,12,8
India,Chhattisgarh,Raipur,"Siltara Phase-II, Raipur - CECB",17-03-2024 19:00:00,21.371751,81.664929,PM2.5,37,99,54
India,Chhattisgarh,Raipur,"Siltara Phase-II, Raipur - CECB",17-03-2024 19:00:00,21.371751,81.664929,PM10,37,115,80
India,Chhattisgarh,Tumidih,"OP Jindal Industrial Park, Tumidih - CECB",17-03-2024 19:00:00,22.06631475,83.33820077,NH3,2,3,3
India,Delhi,Delhi,"Alipur, Delhi - DPCC",17-03-2024 19:00:00,28.815329,77.153010,PM2.5,45,334,169
India,Delhi,Delhi,"Ashok Vihar, Delhi - DPCC",17-03-2024 19:00:00,28.695381,77.181665,NO2,16,117,59
India,Delhi,Delhi,"Ashok Vihar, Delhi - DPCC",17-03-2024 19:00:00,28.695381,77.181665,SO2,29,70,41
India,Delhi,Delhi,"Bawana, Delhi - DPCC",17-03-2024 19:00:00,28.776200,77.051074,NO2,13,75,42
India,Delhi,Delhi,"Burari Crossing, Delhi - IMD",17-03-2024 19:00:00,28.7256504,77.2011573,OZONE,14,58,38
India,Delhi,Delhi,"Chandni Chowk, Delhi - IITM",17-03-2024 19:00:00,28.656756,77.227234,PM2.5,175,336,255
India,Delhi,Delhi,"Chandni Chowk, Delhi - IITM",17-03-2024 19:00:00,28.656756,77.227234,NO2,21,86,42
India,Delhi,Delhi,"Chandni Chowk, Delhi - IITM",17-03-2024 19:00:00,28.656756,77.227234,CO,66,109,89
India,Delhi,Delhi,"Chandni Chowk, Delhi - IITM",17-03-2024 19:00:00,28.656756,77.227234,OZONE,23,211,97
India,Delhi,Delhi,"Dr. Karni Singh Shooting Range, Delhi - DPCC",17-03-2024 19:00:00,28.498571,77.264840,NO2,37,151,95
India,Delhi,Delhi,"Dr. Karni Singh Shooting Range, Delhi - DPCC",17-03-2024 19:00:00,28.498571,77.264840,OZONE,1,253,167
India,Delhi,Delhi,"Dwarka-Sector 8, Delhi - DPCC ",17-03-2024 19:00:00,28.5710274,77.0719006,OZONE,1,75,62
India,Delhi,Delhi,"IHBAS, Dilshad Garden, Delhi - CPCB",17-03-2024 19:00:00,28.6811736,77.3025234,CO,20,68,33
India,Delhi,Delhi,"ITO, Delhi - CPCB",17-03-2024 19:00:00,28.628624,77.241060,PM10,80,168,123
India,Delhi,Delhi,"ITO, Delhi - CPCB",17-03-2024 19:00:00,28.628624,77.241060,OZONE,11,83,67
India,Delhi,Delhi,"Jahangirpuri, Delhi - DPCC",17-03-2024 19:00:00,28.732820,77.170633,CO,41,107,54
India,Delhi,Delhi,"Jawaharlal Nehru Stadium, Delhi - DPCC",17-03-2024 19:00:00,28.580280,77.233829,PM10,98,188,147
India,Delhi,Delhi,"Jawaharlal Nehru Stadium, Delhi - DPCC",17-03-2024 19:00:00,28.580280,77.233829,OZONE,1,270,189
India,Delhi,Delhi,"Lodhi Road, Delhi - IITM",17-03-2024 19:00:00,28.588333,77.221667,NO2,80,124,94
India,Delhi,Delhi,"Lodhi Road, Delhi - IITM",17-03-2024 19:00:00,28.588333,77.221667,SO2,10,46,29
India,Delhi,Delhi,"Lodhi Road, Delhi - IMD",17-03-2024 19:00:00,28.5918245,77.2273074,PM10,86,171,113
India,Delhi,Delhi,"Lodhi Road, Delhi - IMD",17-03-2024 19:00:00,28.5918245,77.2273074,NO2,3,15,9
India,Delhi,Delhi,"Lodhi Road, Delhi - IMD",17-03-2024 19:00:00,28.5918245,77.2273074,CO,19,42,29
India,Delhi,Delhi,"Major Dhyan Chand National Stadium, Delhi - DPCC",17-03-2024 19:00:00,28.611281,77.237738,NH3,6,9,7
India,Delhi,Delhi,"Mundka, Delhi - DPCC",17-03-2024 19:00:00,28.684678,77.076574,PM2.5,47,427,254
India,Delhi,Delhi,"Mundka, Delhi - DPCC",17-03-2024 19:00:00,28.684678,77.076574,OZONE,14,14,14
India,Delhi,Delhi,"NSIT Dwarka, Delhi - CPCB",17-03-2024 19:00:00,28.60909,77.0325413,CO,28,100,33
India,Delhi,Delhi,"Najafgarh, Delhi - DPCC",17-03-2024 19:00:00,28.570173,76.933762,PM2.5,30,342,177
India,Delhi,Delhi,"Najafgarh, Delhi - DPCC",17-03-2024 19:00:00,28.570173,76.933762,NO2,5,23,13
India,Delhi,Delhi,"Najafgarh, Delhi - DPCC",17-03-2024 19:00:00,28.570173,76.933762,NH3,11,13,12
India,Delhi,Delhi,"Najafgarh, Delhi - DPCC",17-03-2024 19:00:00,28.570173,76.933762,SO2,4,22,12
India,Delhi,Delhi,"Narela, Delhi - DPCC",17-03-2024 19:00:00,28.822836,77.101981,SO2,10,86,37
India,Delhi,Delhi,"Nehru Nagar, Delhi - DPCC",17-03-2024 19:00:00,28.567890,77.250515,PM2.5,74,320,169
India,Delhi,Delhi,"Nehru Nagar, Delhi - DPCC",17-03-2024 19:00:00,28.567890,77.250515,NO2,10,23,16
India,Delhi,Delhi,"Nehru Nagar, Delhi - DPCC",17-03-2024 19:00:00,28.567890,77.250515,CO,44,88,68
India,Delhi,Delhi,"Nehru Nagar, Delhi - DPCC",17-03-2024 19:00:00,28.567890,77.250515,OZONE,2,158,119
India,Delhi,Delhi,"New Moti Bagh, Delhi - MHUA",17-03-2024 19:00:00,28.57834,77.18400,NO2,1,6,4
India,Delhi,Delhi,"Okhla Phase-2, Delhi - DPCC",17-03-2024 19:00:00,28.530785,77.271255,PM2.5,68,298,150
India,Delhi,Delhi,"Patparganj, Delhi - DPCC",17-03-2024 19:00:00,28.623763,77.287209,PM10,120,268,179
India,Delhi,Delhi,"Patparganj, Delhi - DPCC",17-03-2024 19:00:00,28.623763,77.287209,CO,18,56,23
India,Delhi,Delhi,"Punjabi Bagh, Delhi - DPCC",17-03-2024 19:00:00,28.674045,77.131023,PM10,97,199,154
India,Delhi,Delhi,"Pusa, Delhi - DPCC",17-03-2024 19:00:00,28.639652,77.146275,PM10,NA,NA,NA
India,Delhi,Delhi,"Pusa, Delhi - DPCC",17-03-2024 19:00:00,28.639652,77.146275,SO2,NA,NA,NA
India,Delhi,Delhi,"Pusa, Delhi - DPCC",17-03-2024 19:00:00,28.639652,77.146275,CO,NA,NA,NA
India,Delhi,Delhi,"Pusa, Delhi - IMD",17-03-2024 19:00:00,28.636110,77.173332,NO2,13,29,22
India,Delhi,Delhi,"R K Puram, Delhi - DPCC",17-03-2024 19:00:00,28.563262,77.186937,PM2.5,65,362,211
India,Delhi,Delhi,"R K Puram, Delhi - DPCC",17-03-2024 19:00:00,28.563262,77.186937,PM10,108,286,170
India,Delhi,Delhi,"R K Puram, Delhi - DPCC",17-03-2024 19:00:00,28.563262,77.186937,CO,18,116,29
India,Delhi,Delhi,"Rohini, Delhi - DPCC",17-03-2024 19:00:00,28.732528,77.119920,PM10,86,348,191
India,Delhi,Delhi,"Rohini, Delhi - DPCC",17-03-2024 19:00:00,28.732528,77.119920,NO2,16,68,44
India,Delhi,Delhi,"Rohini, Delhi - DPCC",17-03-2024 19:00:00,28.732528,77.119920,NH3,6,8,7
India,Delhi,Delhi,"Rohini, Delhi - DPCC",17-03-2024 19:00:00,28.732528,77.119920,CO,12,62,19
India,Delhi,Delhi,"Shadipur, Delhi - CPCB",17-03-2024 19:00:00,28.6514781,77.1473105,NO2,34,56,45
India,Delhi,Delhi,"Shadipur, Delhi - CPCB",17-03-2024 19:00:00,28.6514781,77.1473105,CO,36,80,61
India,Delhi,Delhi,"Sonia Vihar, Delhi - DPCC",17-03-2024 19:00:00,28.710508,77.249485,PM2.5,51,318,165
India,Delhi,Delhi,"Sonia Vihar, Delhi - DPCC",17-03-2024 19:00:00,28.710508,77.249485,PM10,82,216,152
India,Delhi,Delhi,"Sonia Vihar, Delhi - DPCC",17-03-2024 19:00:00,28.710508,77.249485,CO,46,83,51
India,Delhi,Delhi,"Sri Aurobindo Marg, Delhi - DPCC",17-03-2024 19:00:00,28.531346,77.190156,SO2,9,46,19
India,Delhi,Delhi,"Vivek Vihar, Delhi - DPCC",17-03-2024 19:00:00,28.672342,77.315260,NH3,5,7,6
India,Delhi,Delhi,"Vivek Vihar, Delhi - DPCC",17-03-2024 19:00:00,28.672342,77.315260,CO,12,54,20
India,Delhi,Delhi,"Wazirpur, Delhi - DPCC",17-03-2024 19:00:00,28.699793,77.165453,PM2.5,54,375,191
India,Gujarat,Ahmedabad,"Chandkheda, Ahmedabad - IITM",17-03-2024 19:00:00,23.107969,72.574648,PM2.5,78,336,144
India,Gujarat,Ahmedabad,"Chandkheda, Ahmedabad - IITM",17-03-2024 19:00:00,23.107969,72.574648,SO2,6,11,7
India,Gujarat,Ahmedabad,"Chandkheda, Ahmedabad - IITM",17-03-2024 19:00:00,23.107969,72.574648,CO,8,110,28
India,Gujarat,Ahmedabad,"Gyaspur, Ahmedabad - IITM",17-03-2024 19:00:00,22.977134,72.553024,SO2,7,26,13
India,Gujarat,Ahmedabad,"Gyaspur, Ahmedabad - IITM",17-03-2024 19:00:00,22.977134,72.553024,OZONE,9,69,56
India,Gujarat,Ahmedabad,"Maninagar, Ahmedabad - GPCB",17-03-2024 19:00:00,23.002657,72.591912,PM10,60,264,123
India,Gujarat,Ahmedabad,"Maninagar, Ahmedabad - GPCB",17-03-2024 19:00:00,23.002657,72.591912,SO2,1,14,7
India,Gujarat,Ahmedabad,"Raikhad, Ahmedabad - IITM",17-03-2024 19:00:00,23.020509,72.579261,PM2.5,222,455,316
India,Gujarat,Ahmedabad,"Rakhial, Ahmedabad - IITM",17-03-2024 19:00:00,23.016834,72.625775,PM2.5,31,199,83
India,Gujarat,Ahmedabad,"Rakhial, Ahmedabad - IITM",17-03-2024 19:00:00,23.016834,72.625775,OZONE,3,60,53
India,Gujarat,Ahmedabad,"SAC ISRO Satellite, Ahmedabad - IITM",17-03-2024 19:00:00,23.023389,72.515201,CO,26,30,28
India,Gujarat,Ahmedabad,"SAC ISRO Satellite, Ahmedabad - IITM",17-03-2024 19:00:00,23.023389,72.515201,OZONE,10,20,20
India,Gujarat,Ahmedabad,"SVPI Airport Hansol, Ahmedabad - IITM",17-03-2024 19:00:00,23.076793,72.627874,NO2,15,18,16
India,Gujarat,Ahmedabad,"SVPI Airport Hansol, Ahmedabad - IITM",17-03-2024 19:00:00,23.076793,72.627874,SO2,2,4,3
India,Gujarat,Ahmedabad,"SVPI Airport Hansol, Ahmedabad - IITM",17-03-2024 19:00:00,23.076793,72.627874,CO,20,105,27
India,Gujarat,Ahmedabad,"SVPI Airport Hansol, Ahmedabad - IITM",17-03-2024 19:00:00,23.076793,72.627874,OZONE,2,36,33
India,Gujarat,Ankleshwar,"GIDC, Ankleshwar - GPCB",17-03-2024 19:00:00,21.613267,73.010555,NO2,36,37,37
India,Gujarat,Gandhinagar,"GIFT City, Gandhinagar - IITM",17-03-2024 19:00:00,23.163798,72.677768,PM2.5,NA,NA,NA
India,Gujarat,Nandesari,"GIDC, Nandesari - Nandesari Ind. Association",17-03-2024 19:00:00,22.410802,73.097923,PM2.5,81,326,198
India,Gujarat,Surat,"Science Center, Surat - SMC",17-03-2024 19:00:00,21.170046,72.795405,SO2,17,23,20
India,Gujarat,Vapi,"Phase-1 GIDC, Vapi - GPCB",17-03-2024 19:00:00,20.362421,72.918013,PM10,92,262,137
India,Gujarat,Vatva,"Phase-4 GIDC, Vatva - GPCB",17-03-2024 19:00:00,22.969611,72.643500,PM2.5,36,304,107
India,Gujarat,Vatva,"Phase-4 GIDC, Vatva - GPCB",17-03-2024 19:00:00,22.969611,72.643500,OZONE,9,59,51
India,Haryana,Ambala,"Patti Mehar, Ambala - HSPCB",17-03-2024 19:00:00,30.379589,76.778328,SO2,1,99,71
India,Haryana,Bahadurgarh,"Arya Nagar, Bahadurgarh - HSPCB",17-03-2024 19:00:00,28.6701,76.9254,PM2.5,24,300,184
India,Haryana,Ballabgarh,"Nathu Colony, Ballabgarh - HSPCB",17-03-2024 19:00:00,28.3419248,77.319699,NO2,7,14,12
India,Haryana,Bhiwani,"H.B. Colony, Bhiwani - HSPCB",17-03-2024 19:00:00,28.806223,76.141105,NH3,5,6,6
India,Haryana,Bhiwani,"H.B. Colony, Bhiwani - HSPCB",17-03-2024 19:00:00,28.806223,76.141105,SO2,3,78,13
India,Haryana,Charkhi Dadri,"Mini Secretariat, Charkhi Dadri - HSPCB",17-03-2024 19:00:00,28.593883,76.270653,OZONE,14,18,16
India,Haryana,Dharuhera,"Municipal Corporation Office, Dharuhera -  HSPCB",17-03-2024 19:00:00,28.206800,76.799700,OZONE,14,48,45
India,Haryana,Faridabad,"New Industrial Town, Faridabad - HSPCB",17-03-2024 19:00:00,28.39072,77.30059,NO2,17,21,19
India,Haryana,Faridabad,"Sector 30, Faridabad - HSPCB",17-03-2024 19:00:00,28.4417,77.3217,PM10,145,162,152
India,Haryana,Fatehabad,"Huda Sector, Fatehabad - HSPCB",17-03-2024 19:00:00,29.503664,75.467934,SO2,2,19,8
India,Haryana,Fatehabad,"Huda Sector, Fatehabad - HSPCB",17-03-2024 19:00:00,29.503664,75.467934,CO,5,37,12
India,Haryana,Gurugram,"Sector-51, Gurugram - HSPCB",17-03-2024 19:00:00,28.4227,77.0667,PM2.5,77,391,217
India,Haryana,Gurugram,"Sector-51, Gurugram - HSPCB",17-03-2024 19:00:00,28.4227,77.0667,NO2,13,29,23
India,Haryana,Gurugram,"Sector-51, Gurugram - HSPCB",17-03-2024 19:00:00,28.4227,77.0667,OZONE,27,67,56
India,Haryana,Gurugram,"Teri Gram, Gurugram - HSPCB",17-03-2024 19:00:00,28.4275,77.1465,OZONE,13,24,24
India,Haryana,Hisar,"Urban Estate-II, Hisar - HSPCB",17-03-2024 19:00:00,29.140560,75.744941,SO2,50,85,71
India,Haryana,Jind,"Police Lines, Jind - HSPCB",17-03-2024 19:00:00,29.307814,76.337619,NO2,6,14,12
India,Haryana,Jind,"Police Lines, Jind - HSPCB",17-03-2024 19:00:00,29.307814,76.337619,SO2,5,102,29
India,Haryana,Kaithal,"Rishi Nagar, Kaithal - HSPCB",17-03-2024 19:00:00,29.8006,76.4155,PM10,NA,NA,NA
India,Haryana,Karnal,"Sector-12, Karnal - HSPCB",17-03-2024 19:00:00,29.695300,77.002700,NO2,7,12,10
India,Haryana,Karnal,"Sector-12, Karnal - HSPCB",17-03-2024 19:00:00,29.695300,77.002700,NH3,10,12,11
India,Haryana,Karnal,"Sector-12, Karnal - HSPCB",17-03-2024 19:00:00,29.695300,77.002700,CO,28,41,32
India,Haryana,Kurukshetra,"Sector-7, Kurukshetra - HSPCB",17-03-2024 19:00:00,29.966942,76.875879,PM10,65,108,84
India,Haryana,Mandikhera,"General Hospital, Mandikhera - HSPCB",17-03-2024 19:00:00,27.9002,76.9938,NO2,17,21,19
India,Haryana,Mandikhera,"General Hospital, Mandikhera - HSPCB",17-03-2024 19:00:00,27.9002,76.9938,NH3,18,22,20
India,Haryana,Mandikhera,"General Hospital, Mandikhera - HSPCB",17-03-2024 19:00:00,27.9002,76.9938,SO2,29,38,34
India,Haryana,Manesar,"Sector-2 IMT, Manesar - HSPCB",17-03-2024 19:00:00,28.360699,76.936090,PM10,53,114,86
India,Haryana,Manesar,"Sector-2 IMT, Manesar - HSPCB",17-03-2024 19:00:00,28.360699,76.936090,NO2,23,31,28
India,Haryana,Manesar,"Sector-2 IMT, Manesar - HSPCB",17-03-2024 19:00:00,28.360699,76.936090,OZONE,1,41,35
India,Haryana,Palwal,"Shyam Nagar, Palwal - HSPCB",17-03-2024 19:00:00,28.1485564,77.3320667,NO2,23,25,24
India,Haryana,Panipat,"Sector-18, Panipat - HSPCB",17-03-2024 19:00:00,29.497973,76.993331,SO2,18,19,19
India,Haryana,Panipat,"Sector-18, Panipat - HSPCB",17-03-2024 19:00:00,29.497973,76.993331,CO,24,26,25
India,Haryana,Rohtak,"MD University, Rohtak - HSPCB",17-03-2024 19:00:00,28.52123,76.37138,CO,32,76,46
India,Haryana,Sirsa,"F-Block, Sirsa - HSPCB",17-03-2024 19:00:00,29.536400,75.015800,NH3,12,13,13
India,Haryana,Sirsa,"F-Block, Sirsa - HSPCB",17-03-2024 19:00:00,29.536400,75.015800,OZONE,12,105,50
India,Haryana,Sonipat,"Murthal, Sonipat - HSPCB",17-03-2024 19:00:00,29.027200,77.062100,PM2.5,36,67,55
India,Haryana,Sonipat,"Murthal, Sonipat - HSPCB",17-03-2024 19:00:00,29.027200,77.062100,NH3,3,10,9
India,Haryana,Yamuna Nagar,"Gobind Pura, Yamuna Nagar - HSPCB",17-03-2024 19:00:00,30.1480566,77.2893471,PM10,82,136,103
India,Haryana,Yamuna Nagar,"Gobind Pura, Yamuna Nagar - HSPCB",17-03-2024 19:00:00,30.1480566,77.2893471,SO2,1,9,4
India,Haryana,Yamuna Nagar,"Gobind Pura, Yamuna Nagar - HSPCB",17-03-2024 19:00:00,30.1480566,77.2893471,OZONE,17,36,32
India,Jharkhand,Dhanbad,"Kalakusuma, Dhanbad - DMC",17-03-2024 19:00:00,23.811548,86.481238,PM2.5,51,64,58
India,Jharkhand,Dhanbad,"Kalakusuma, Dhanbad - DMC",17-03-2024 19:00:00,23.811548,86.481238,PM10,109,112,110
India,Karnataka,Bengaluru,"BTM Layout, Bengaluru - CPCB",17-03-2024 19:00:00,12.9135218,77.5950804,PM2.5,35,56,46
India,Karnataka,Bengaluru,"BTM Layout, Bengaluru - CPCB",17-03-2024 19:00:00,12.9135218,77.5950804,PM10,45,78,62
India,Karnataka,Bengaluru,"BTM Layout, Bengaluru - CPCB",17-03-2024 19:00:00,12.9135218,77.5950804,NO2,27,29,27
India,Karnataka,Bengaluru,"BTM Layout, Bengaluru - CPCB",17-03-2024 19:00:00,12.9135218,77.5950804,NH3,4,4,4
India,Karnataka,Bengaluru,"Hombegowda Nagar, Bengaluru - KSPCB",17-03-2024 19:00:00,12.938539,77.590100,CO,6,37,10
India,Karnataka,Bengaluru,"Jayanagar 5th Block, Bengaluru - KSPCB",17-03-2024 19:00:00,12.920984,77.584908,PM10,63,199,123
India,Karnataka,Bengaluru,"Jigani, Bengaluru - KSPCB",17-03-2024 19:00:00,12.7816279,77.6299145,PM2.5,17,118,73
India,Karnataka,Bengaluru,"Jigani, Bengaluru - KSPCB",17-03-2024 19:00:00,12.7816279,77.6299145,NH3,4,4,4
India,Karnataka,Bengaluru,"RVCE-Mailasandra, Bengaluru - KSPCB",17-03-2024 19:00:00,12.921418,77.502466,PM10,104,172,135
India,Karnataka,Bengaluru,"RVCE-Mailasandra, Bengaluru - KSPCB",17-03-2024 19:00:00,12.921418,77.502466,NO2,17,17,17
India,Karnataka,Bengaluru,"Sanegurava Halli, Bengaluru - KSPCB",17-03-2024 19:00:00,12.990328,77.5431385,CO,2,120,23
India,Karnataka,Bengaluru,"Silk Board, Bengaluru - KSPCB",17-03-2024 19:00:00,12.917348,77.622813,PM2.5,42,92,61
India,Karnataka,Bengaluru,"Silk Board, Bengaluru - KSPCB",17-03-2024 19:00:00,12.917348,77.622813,NH3,6,9,7
India,Karnataka,Chamarajanagar,"Urban, Chamarajanagar - KSPCB",17-03-2024 19:00:00,11.55358,76.55521,PM2.5,26,39,29
India,Karnataka,Chamarajanagar,"Urban, Chamarajanagar - KSPCB",17-03-2024 19:00:00,11.55358,76.55521,OZONE,25,29,28
India,Karnataka,Chikkaballapur,"Chikkaballapur Rural, Chikkaballapur - KSPCB",17-03-2024 19:00:00,13.428828,77.731418,SO2,14,28,21
India,Karnataka,Chikkamagaluru,"Kalyana Nagara, Chikkamagaluru - KSPCB",17-03-2024 19:00:00,13.328028,75.797056,CO,11,83,19
India,Karnataka,Davanagere,"Devaraj Urs Badavane, Davanagere - KSPCB",17-03-2024 19:00:00,14.475800,75.905200,CO,18,24,19
India,Karnataka,Davanagere,"Devaraj Urs Badavane, Davanagere - KSPCB",17-03-2024 19:00:00,14.475800,75.905200,OZONE,21,25,23
India,Karnataka,Dharwad,"Kalabhavan, Dharwad - KSPCB",17-03-2024 19:00:00,15.459706,75.008381,PM10,67,182,103
India,Karnataka,Dharwad,"Kalabhavan, Dharwad - KSPCB",17-03-2024 19:00:00,15.459706,75.008381,NO2,3,21,12
India,Karnataka,Haveri,"Ashwini Nagar, Haveri - KSPCB",17-03-2024 19:00:00,14.791800,75.389600,SO2,14,14,14
India,Karnataka,Haveri,"Ashwini Nagar, Haveri - KSPCB",17-03-2024 19:00:00,14.791800,75.389600,CO,36,38,37
India,Karnataka,Hubballi,"Deshpande Nagar, Hubballi - KSPCB",17-03-2024 19:00:00,15.351773,75.140726,PM2.5,50,94,72
India,Karnataka,Hubballi,"Deshpande Nagar, Hubballi - KSPCB",17-03-2024 19:00:00,15.351773,75.140726,NH3,4,4,4
India,Karnataka,Hubballi,"Lingaraj Nagar, Hubballi - KSPCB",17-03-2024 19:00:00,15.3714823,75.1160168,PM2.5,40,57,44
India,Karnataka,Hubballi,"Lingaraj Nagar, Hubballi - KSPCB",17-03-2024 19:00:00,15.3714823,75.1160168,PM10,49,69,55
India,Karnataka,Hubballi,"Lingaraj Nagar, Hubballi - KSPCB",17-03-2024 19:00:00,15.3714823,75.1160168,NH3,2,2,2
India,Karnataka,Kalaburagi,"Lal Bahadur Shastri Nagar, Kalaburagi - KSPCB",17-03-2024 19:00:00,17.321993,76.822628,PM10,37,129,74
India,Karnataka,Kalaburagi,"Mahatma Basaveswar Colony, Kalaburgi - KSPCB",17-03-2024 19:00:00,17.336318,76.847397,SO2,4,10,6
India,Karnataka,Karwar,"KHB Colony, Karwar - KSPCB",17-03-2024 19:00:00,14.816666,74.141003,CO,8,8,8
India,Karnataka,Kolar,"Tamaka Ind. Area, Kolar - KSPCB",17-03-2024 19:00:00,13.1276288,78.1570122,PM2.5,NA,NA,NA
India,Karnataka,Kolar,"Tamaka Ind. Area, Kolar - KSPCB",17-03-2024 19:00:00,13.1276288,78.1570122,OZONE,7,13,8
India,Karnataka,Koppal,"Diwator Nagar, Koppal - KSPCB",17-03-2024 19:00:00,15.347630,76.181767,PM10,NA,NA,NA
India,Karnataka,Madikeri,"Stuart Hill, Madikeri - KSPCB",17-03-2024 19:00:00,12.415911,75.735050,NH3,NA,NA,NA
India,Karnataka,Mangalore,"Kadri, Mangalore - KSPCB",17-03-2024 19:00:00,12.889250,74.853000,OZONE,30,33,32
India,Karnataka,Mysuru,"Hebbal 1st Stage, Mysuru - KSPCB",17-03-2024 19:00:00,12.21041,76.37376,OZONE,6,82,73
India,Karnataka,Raichur,"Haji Colony, Raichur - KSPCB",17-03-2024 19:00:00,16.208139,77.348417,PM2.5,NA,NA,NA
India,Karnataka,Raichur,"Haji Colony, Raichur - KSPCB",17-03-2024 19:00:00,16.208139,77.348417,PM10,NA,NA,NA
India,Karnataka,Raichur,"Haji Colony, Raichur - KSPCB",17-03-2024 19:00:00,16.208139,77.348417,NH3,NA,NA,NA
India,Karnataka,Raichur,"Haji Colony, Raichur - KSPCB",17-03-2024 19:00:00,16.208139,77.348417,CO,104,146,105
India,Karnataka,Ramanagara,"Vijay Nagar, Ramanagara - KSPCB",17-03-2024 19:00:00,12.733409,77.298051,SO2,12,31,23
India,Karnataka,Tumakuru,"Thimmalapura, Tumakuru - KSPCB",17-03-2024 19:00:00,13.377516,77.099072,SO2,8,15,9
India,Karnataka,Udupi,"Brahmagiri, Udupi - KSPCB",17-03-2024 19:00:00,13.34194444,74.74694444,CO,44,48,45
India,Karnataka,Yadgir,"Collector Office, Yadgir - KSPCB",17-03-2024 19:00:00,16.7602,77.1428,PM2.5,52,144,80
India,Karnataka,Yadgir,"Collector Office, Yadgir - KSPCB",17-03-2024 19:00:00,16.7602,77.1428,PM10,56,142,87
India,Karnataka,Yadgir,"Collector Office, Yadgir - KSPCB",17-03-2024 19:00:00,16.7602,77.1428,NH3,NA,NA,NA
India,Kerala,Kannur,"Thavakkara, Kannur - Kerala PCB",17-03-2024 19:00:00,11.875000,75.373200,PM10,62,72,68
India,Kerala,Kollam,"Polayathode, Kollam - Kerala PCB",17-03-2024 19:00:00,8.8787,76.6073,PM2.5,79,149,106
India,Kerala,Kollam,"Polayathode, Kollam - Kerala PCB",17-03-2024 19:00:00,8.8787,76.6073,NO2,8,9,8
India,Kerala,Kollam,"Polayathode, Kollam - Kerala PCB",17-03-2024 19:00:00,8.8787,76.6073,OZONE,31,37,36
India,Kerala,Thiruvananthapuram,"Kariavattom, Thiruvananthapuram - Kerala PCB",17-03-2024 19:00:00,8.563700,76.886500,NO2,8,9,9
India,Kerala,Thiruvananthapuram,"Kariavattom, Thiruvananthapuram - Kerala PCB",17-03-2024 19:00:00,8.563700,76.886500,NH3,1,1,1
India,Kerala,Thiruvananthapuram,"Plammoodu, Thiruvananthapuram - Kerala PCB",17-03-2024 19:00:00,8.5149093,76.9435879,PM2.5,31,97,49
India,Kerala,Thrissur,"Corporation Ground, Thrissur - Kerala PCB",17-03-2024 19:00:00,10.532400,76.215900,NO2,NA,NA,NA
India,Kerala,Thrissur,"Corporation Ground, Thrissur - Kerala PCB",17-03-2024 19:00:00,10.532400,76.215900,NH3,NA,NA,NA
India,Madhya Pradesh,Bhopal,"Idgah Hills, Bhopal - MPPCB",17-03-2024 19:00:00,23.264759,77.381568,PM2.5,30,60,41
India,Madhya Pradesh,Bhopal,"Idgah Hills, Bhopal - MPPCB",17-03-2024 19:00:00,23.264759,77.381568,SO2,9,28,15
India,Madhya Pradesh,Bhopal,"Idgah Hills, Bhopal - MPPCB",17-03-2024 19:00:00,23.264759,77.381568,CO,20,46,24
India,Madhya Pradesh,Bhopal,"Paryavaran Parisar, Bhopal - MPPCB",17-03-2024 19:00:00,23.210494,77.425409,PM2.5,30,103,51
India,Madhya Pradesh,Bhopal,"Paryavaran Parisar, Bhopal - MPPCB",17-03-2024 19:00:00,23.210494,77.425409,CO,15,74,34
