country,state,city,station,last_update,latitude,longitude,pollutant_id,pollutant_min,pollutant_max,pollutant_avg
India,Andhra_Pradesh,Amaravati,"Secretariat, Amaravati - APPCB",06-08-2024 01:00:00,16.5150833,80.5181667,PM2.5,8,30,17
India,Andhra_Pradesh,Amaravati,"Secretariat, Amaravati - APPCB",06-08-2024 01:00:00,16.5150833,80.5181667,NO2,4,17,9
India,Andhra_Pradesh,Anantapur,"Gulzarpet, Anantapur - APPCB",06-08-2024 01:00:00,14.675886,77.593027,CO,14,58,39
India,Andhra_Pradesh,Chittoor,"Gangineni Cheruvu, Chittoor - APPCB",06-08-2024 01:00:00,13.204880,79.097889,PM10,NA,NA,NA
India,Andhra_Pradesh,Kadapa,"Yerramukkapalli, Kadapa - APPCB",06-08-2024 01:00:00,14.465052,78.824187,NO2,5,6,5
India,Andhra_Pradesh,Rajamahendravaram,"Anand Kala Kshetram, Rajamahendravaram - APPCB",06-08-2024 01:00:00,16.9872867,81.7363176,OZONE,5,6,5
India,Andhra_Pradesh,Tirupati,"Vaikuntapuram, Tirupati - APPCB",06-08-2024 01:00:00,13.615387,79.409230,PM2.5,12,265,56
India,Andhra_Pradesh,Tirupati,"Vaikuntapuram, Tirupati - APPCB",06-08-2024 01:00:00,13.615387,79.409230,CO,12,24,20
India,Andhra_Pradesh,Vijayawada,"Kanuru, Vijayawada - APPCB",06-08-2024 01:00:00,16.486692,80.699436,PM10,44,75,53
India,Andhra_Pradesh,Vijayawada,"Rajiv Gandhi Park, Vijayawada - APPCB",06-08-2024 01:00:00,16.509717,80.612222,CO,34,42,34
India,Andhra_Pradesh,Visakhapatnam,"GVM Corporation, Visakhapatnam - APPCB",06-08-2024 01:00:00,17.72,83.3,CO,2,41,16
India,Assam,Byrnihat,"Central Academy for SFS, Byrnihat - PCBA",06-08-2024 01:00:00,26.071318,91.87488,PM2.5,38,260,78
India,Assam,Byrnihat,"Central Academy for SFS, Byrnihat - PCBA",06-08-2024 01:00:00,26.071318,91.87488,NH3,11,22,15
India,Assam,Guwahati,"IITG, Guwahati - PCBA",06-08-2024 01:00:00,26.2028636,91.70046436,PM10,7,52,32
India,Assam,Guwahati,"LGBI Airport, Guwahati - PCBA",06-08-2024 01:00:00,26.10887,91.589544,PM10,6,500,101
India,Assam,Guwahati,"LGBI Airport, Guwahati - PCBA",06-08-2024 01:00:00,26.10887,91.589544,NO2,3,22,10
India,Assam,Guwahati,"Railway Colony, Guwahati - PCBA",06-08-2024 01:00:00,26.181742,91.78063,NO2,3,3,3
India,Assam,Nagaon,"Christianpatty, Nagaon - PCBA",06-08-2024 01:00:00,26.349082,92.68449,NO2,1,13,4
India,Assam,Nalbari,"Bata Chowk, Nalbari - PCBA",06-08-2024 01:00:00,26.446912,91.439057,PM10,15,86,39
India,Assam,Nalbari,"Bata Chowk, Nalbari - PCBA",06-08-2024 01:00:00,26.446912,91.439057,CO,28,113,38
India,Assam,Silchar,"Tarapur, Silchar - PCBA",06-08-2024 01:00:00,24.82827,92.79525,PM10,44,58,49
India,Assam,Silchar,"Tarapur, Silchar - PCBA",06-08-2024 01:00:00,24.82827,92.79525,CO,30,40,35
India,Assam,Sivasagar,"Girls College, Sivasagar - PCBA",06-08-2024 01:00:00,26.987634,94.636574,PM2.5,39,55,46
India,Assam,Sivasagar,"Girls College, Sivasagar - PCBA",06-08-2024 01:00:00,26.987634,94.636574,NH3,1,2,1
India,Bihar,Araria,"Kharahiya Basti, Araria - BSPCB",06-08-2024 01:00:00,26.146529,87.454184,CO,NA,NA,NA
India,Bihar,Aurangabad,"Gurdeo Nagar, Aurangabad - BSPCB",06-08-2024 01:00:00,24.75746,84.366208,NO2,11,11,11
India,Bihar,Aurangabad,"Gurdeo Nagar, Aurangabad - BSPCB",06-08-2024 01:00:00,24.75746,84.366208,OZONE,3,45,22
India,Bihar,Bettiah,"Kamalnath Nagar, Bettiah - BSPCB",06-08-2024 01:00:00,26.80365,84.51954,PM10,NA,NA,NA
India,Bihar,Bettiah,"Kamalnath Nagar, Bettiah - BSPCB",06-08-2024 01:00:00,26.80365,84.51954,NH3,NA,NA,NA
India,Bihar,Bhagalpur,"DM Office_Kachari Chowk, Bhagalpur - BSPCB",06-08-2024 01:00:00,25.251013,86.989001,SO2,NA,NA,NA
India,Bihar,Bhagalpur,"DM Office_Kachari Chowk, Bhagalpur - BSPCB",06-08-2024 01:00:00,25.251013,86.989001,CO,47,100,75
India,Bihar,Bhagalpur,"Mayaganj, Bhagalpur - BSPCB",06-08-2024 01:00:00,25.265194,87.012947,PM10,93,177,132
India,Bihar,Bhagalpur,"Mayaganj, Bhagalpur - BSPCB",06-08-2024 01:00:00,25.265194,87.012947,NO2,7,9,8
India,Bihar,Bihar Sharif,"D M Colony, Bihar Sharif - BSPCB",06-08-2024 01:00:00,25.204762,85.514960,NO2,10,67,22
India,Bihar,Bihar Sharif,"D M Colony, Bihar Sharif - BSPCB",06-08-2024 01:00:00,25.204762,85.514960,CO,2,25,15
India,Bihar,Buxar,"Charitra Van, Buxar - BSPCB (Formerly known as Central Jail)",06-08-2024 01:00:00,25.567520,83.966379,PM10,NA,NA,NA
India,Bihar,Buxar,"Charitra Van, Buxar - BSPCB (Formerly known as Central Jail)",06-08-2024 01:00:00,25.567520,83.966379,NO2,3,6,5
India,Bihar,Buxar,"Charitra Van, Buxar - BSPCB (Formerly known as Central Jail)",06-08-2024 01:00:00,25.567520,83.966379,CO,42,103,68
India,Bihar,Chhapra,"Darshan Nagar, Chhapra - BSPCB",06-08-2024 01:00:00,25.7808257,84.7446768,CO,17,26,23
India,Bihar,Gaya,"Kareemganj, Gaya - BSPCB",06-08-2024 01:00:00,24.792403,84.992416,NH3,3,4,3
India,Bihar,Gaya,"SFTI Kusdihra, Gaya - BSPCB",06-08-2024 01:00:00,24.762518,84.982348,PM2.5,23,54,35
India,Bihar,Gaya,"SFTI Kusdihra, Gaya - BSPCB",06-08-2024 01:00:00,24.762518,84.982348,OZONE,2,17,8
India,Bihar,Hajipur,"Industrial Area, Hajipur - BSPCB",06-08-2024 01:00:00,25.697189,85.245900,OZONE,37,96,64
India,Bihar,Katihar,"Mirchaibari, Katihar - BSPCB",06-08-2024 01:00:00,25.560083,87.553265,PM2.5,12,43,30
India,Bihar,Katihar,"Mirchaibari, Katihar - BSPCB",06-08-2024 01:00:00,25.560083,87.553265,PM10,13,136,42
India,Bihar,Katihar,"Mirchaibari, Katihar - BSPCB",06-08-2024 01:00:00,25.560083,87.553265,CO,33,36,36
India,Bihar,Manguraha,"Forest Rest House, Manguraha - BSPCB",06-08-2024 01:00:00,27.308328,84.531742,PM2.5,NA,NA,NA
India,Bihar,Manguraha,"Forest Rest House, Manguraha - BSPCB",06-08-2024 01:00:00,27.308328,84.531742,OZONE,1,9,4
India,Bihar,Munger,"Town Hall, Munger - BSPCB",06-08-2024 01:00:00,25.376776,86.471523,NO2,2,3,2
India,Bihar,Munger,"Town Hall, Munger - BSPCB",06-08-2024 01:00:00,25.376776,86.471523,CO,2,18,11
India,Bihar,Muzaffarpur,"Buddha Colony, Muzaffarpur - BSPCB",06-08-2024 01:00:00,26.11442,85.39813,PM10,31,66,50
India,Bihar,Patna,"Govt. High School Shikarpur, Patna - BSPCB",06-08-2024 01:00:00,25.592539,85.227158,PM10,59,109,76
India,Bihar,Patna,"Govt. High School Shikarpur, Patna - BSPCB",06-08-2024 01:00:00,25.592539,85.227158,SO2,9,12,10
India,Bihar,Patna,"IGSC Planetarium Complex, Patna - BSPCB",06-08-2024 01:00:00,25.610369,85.132568,NO2,13,13,13
India,Bihar,Patna,"Muradpur, Patna - BSPCB",06-08-2024 01:00:00,25.619651,85.147382,CO,15,108,55
India,Bihar,Patna,"Samanpura, Patna - BSPCB",06-08-2024 01:00:00,25.596727,85.085624,NO2,10,54,21
India,Bihar,Rajgir,"Dangi Tola, Rajgir - BSPCB",06-08-2024 01:00:00,25.03280,85.41948,PM10,NA,NA,NA
India,Bihar,Rajgir,"Dangi Tola, Rajgir - BSPCB",06-08-2024 01:00:00,25.03280,85.41948,OZONE,26,37,33
India,Bihar,Saharsa,"Police Line, Saharsa - BSPCB",06-08-2024 01:00:00,25.892357,86.590325,NO2,NA,NA,NA
India,Bihar,Saharsa,"Police Line, Saharsa - BSPCB",06-08-2024 01:00:00,25.892357,86.590325,OZONE,2,65,32
India,Bihar,Samastipur,"DM Office_Kasipur, Samastipur - BSPCB",06-08-2024 01:00:00,25.859655,85.77944,SO2,15,36,24
India,Bihar,Sasaram,"Dada Peer, Sasaram - BSPCB",06-08-2024 01:00:00,24.952822,84.002396,PM10,6,30,15
India,Bihar,Sasaram,"Dada Peer, Sasaram - BSPCB",06-08-2024 01:00:00,24.952822,84.002396,SO2,4,9,6
India,Bihar,Sasaram,"Dada Peer, Sasaram - BSPCB",06-08-2024 01:00:00,24.952822,84.002396,CO,22,42,28
India,Bihar,Sasaram,"Dada Peer, Sasaram - BSPCB",06-08-2024 01:00:00,24.952822,84.002396,OZONE,4,17,8
India,Bihar,Siwan,"Chitragupta Nagar, Siwan - BSPCB",06-08-2024 01:00:00,26.2271665,84.3570427,NO2,NA,NA,NA
India,Bihar,Siwan,"Chitragupta Nagar, Siwan - BSPCB",06-08-2024 01:00:00,26.2271665,84.3570427,NH3,NA,NA,NA
India,Bihar,Siwan,"Chitragupta Nagar, Siwan - BSPCB",06-08-2024 01:00:00,26.2271665,84.3570427,CO,50,96,82
India,Chandigarh,Chandigarh,"Sector 22, Chandigarh - CPCC",06-08-2024 01:00:00,30.735567,76.775714,NH3,5,22,12
India,Chandigarh,Chandigarh,"Sector 22, Chandigarh - CPCC",06-08-2024 01:00:00,30.735567,76.775714,SO2,4,12,8
India,Chandigarh,Chandigarh,"Sector-25, Chandigarh - CPCC",06-08-2024 01:00:00,30.751462,76.762879,SO2,4,45,11
India,Chandigarh,Chandigarh,"Sector-25, Chandigarh - CPCC",06-08-2024 01:00:00,30.751462,76.762879,CO,16,30,25
India,Chandigarh,Chandigarh,"Sector-53, Chandigarh - CPCC",06-08-2024 01:00:00,30.719859,76.738637,CO,34,60,46
India,Chhattisgarh,Bhilai,"Civic Center, Bhilai - Bhilai Steel Plant",06-08-2024 01:00:00,21.185571,81.343175,PM2.5,5,31,15
India,Chhattisgarh,Bhilai,"Civic Center, Bhilai - Bhilai Steel Plant",06-08-2024 01:00:00,21.185571,81.343175,NH3,3,4,4
India,Chhattisgarh,Bhilai,"Hathkhoj, Bhilai - CECB",06-08-2024 01:00:00,21.224231,81.408350,PM10,22,84,45
India,Chhattisgarh,Bhilai,"Hathkhoj, Bhilai - CECB",06-08-2024 01:00:00,21.224231,81.408350,SO2,12,22,15
India,Chhattisgarh,Korba,"Urja Nagar, Korba - CECB",06-08-2024 01:00:00,22.348441,82.549611,PM10,7,34,18
India,Chhattisgarh,Korba,"Urja Nagar, Korba - CECB",06-08-2024 01:00:00,22.348441,82.549611,CO,6,34,14
India,Chhattisgarh,Kunjemura,"OP Jindal School, Kunjemura - CECB",06-08-2024 01:00:00,22.126650,83.483212,PM2.5,18,60,30
India,Chhattisgarh,Raipur,"AIIMS, Raipur - CECB",06-08-2024 01:00:00,21.258815,81.578979,SO2,2,9,4
India,Chhattisgarh,Raipur,"AIIMS, Raipur - CECB",06-08-2024 01:00:00,21.258815,81.578979,OZONE,1,20,2
India,Chhattisgarh,Raipur,"Krishak Nagar, Raipur - CECB",06-08-2024 01:00:00,21.237755,81.705301,PM2.5,8,32,18
India,Chhattisgarh,Raipur,"Krishak Nagar, Raipur - CECB",06-08-2024 01:00:00,21.237755,81.705301,PM10,11,41,25
India,Chhattisgarh,Raipur,"Siltara Phase-II, Raipur - CECB",06-08-2024 01:00:00,21.371751,81.664929,PM2.5,7,16,11
India,Chhattisgarh,Raipur,"Siltara Phase-II, Raipur - CECB",06-08-2024 01:00:00,21.371751,81.664929,NO2,7,10,8
India,Chhattisgarh,Tumidih,"OP Jindal Industrial Park, Tumidih - CECB",06-08-2024 01:00:00,22.06631475,83.33820077,PM2.5,NA,NA,NA
India,Chhattisgarh,Tumidih,"OP Jindal Industrial Park, Tumidih - CECB",06-08-2024 01:00:00,22.06631475,83.33820077,SO2,NA,NA,NA
India,Chhattisgarh,Tumidih,"OP Jindal Industrial Park, Tumidih - CECB",06-08-2024 01:00:00,22.06631475,83.33820077,OZONE,5,20,14
India,Delhi,Delhi,"Alipur, Delhi - DPCC",06-08-2024 01:00:00,28.815329,77.153010,NH3,5,7,6
India,Delhi,Delhi,"Alipur, Delhi - DPCC",06-08-2024 01:00:00,28.815329,77.153010,OZONE,9,24,15
India,Delhi,Delhi,"Anand Vihar, Delhi - DPCC",06-08-2024 01:00:00,28.647622,77.3158090,PM10,46,152,80
India,Delhi,Delhi,"Anand Vihar, Delhi - DPCC",06-08-2024 01:00:00,28.647622,77.3158090,SO2,21,38,34
India,Delhi,Delhi,"Ashok Vihar, Delhi - DPCC",06-08-2024 01:00:00,28.695381,77.181665,SO2,10,20,15
India,Delhi,Delhi,"Aya Nagar, Delhi - IMD",06-08-2024 01:00:00,28.4706914,77.1099364,PM2.5,9,66,38
India,Delhi,Delhi,"Bawana, Delhi - DPCC",06-08-2024 01:00:00,28.776200,77.051074,CO,3,50,36
India,Delhi,Delhi,"Burari Crossing, Delhi - IMD",06-08-2024 01:00:00,28.7256504,77.2011573,PM2.5,NA,NA,NA
India,Delhi,Delhi,"Burari Crossing, Delhi - IMD",06-08-2024 01:00:00,28.7256504,77.2011573,CO,2,26,17
India,Delhi,Delhi,"Burari Crossing, Delhi - IMD",06-08-2024 01:00:00,28.7256504,77.2011573,OZONE,24,44,34
India,Delhi,Delhi,"CRRI Mathura Road, Delhi - IMD",06-08-2024 01:00:00,28.5512005,77.2735737,NO2,10,13,10
India,Delhi,Delhi,"Chandni Chowk, Delhi - IITM",06-08-2024 01:00:00,28.656756,77.227234,PM2.5,42,42,42
India,Delhi,Delhi,"Chandni Chowk, Delhi - IITM",06-08-2024 01:00:00,28.656756,77.227234,NO2,72,89,80
India,Delhi,Delhi,"Chandni Chowk, Delhi - IITM",06-08-2024 01:00:00,28.656756,77.227234,NH3,9,12,11
India,Delhi,Delhi,"DTU, Delhi - CPCB",06-08-2024 01:00:00,28.7500499,77.1112615,PM2.5,5,61,22
India,Delhi,Delhi,"DTU, Delhi - CPCB",06-08-2024 01:00:00,28.7500499,77.1112615,PM10,16,96,50
India,Delhi,Delhi,"DTU, Delhi - CPCB",06-08-2024 01:00:00,28.7500499,77.1112615,NO2,38,45,42
India,Delhi,Delhi,"DTU, Delhi - CPCB",06-08-2024 01:00:00,28.7500499,77.1112615,NH3,8,9,9
India,Delhi,Delhi,"Dr. Karni Singh Shooting Range, Delhi - DPCC",06-08-2024 01:00:00,28.498571,77.264840,SO2,1,9,5
India,Delhi,Delhi,"Dr. Karni Singh Shooting Range, Delhi - DPCC",06-08-2024 01:00:00,28.498571,77.264840,OZONE,27,65,44
India,Delhi,Delhi,"Dwarka-Sector 8, Delhi - DPCC ",06-08-2024 01:00:00,28.5710274,77.0719006,SO2,8,13,8
India,Delhi,Delhi,"Dwarka-Sector 8, Delhi - DPCC ",06-08-2024 01:00:00,28.5710274,77.0719006,OZONE,22,58,34
India,Delhi,Delhi,"IGI Airport (T3), Delhi - IMD",06-08-2024 01:00:00,28.5627763,77.1180053,NO2,NA,NA,NA
India,Delhi,Delhi,"IHBAS, Dilshad Garden, Delhi - CPCB",06-08-2024 01:00:00,28.6811736,77.3025234,NO2,17,70,45
India,Delhi,Delhi,"ITO, Delhi - CPCB",06-08-2024 01:00:00,28.628624,77.241060,PM2.5,28,58,40
India,Delhi,Delhi,"Jahangirpuri, Delhi - DPCC",06-08-2024 01:00:00,28.732820,77.170633,PM2.5,13,68,37
India,Delhi,Delhi,"Jahangirpuri, Delhi - DPCC",06-08-2024 01:00:00,28.732820,77.170633,NH3,2,2,2
India,Delhi,Delhi,"Jawaharlal Nehru Stadium, Delhi - DPCC",06-08-2024 01:00:00,28.580280,77.233829,OZONE,2,40,20
India,Delhi,Delhi,"Lodhi Road, Delhi - IMD",06-08-2024 01:00:00,28.5918245,77.2273074,NO2,NA,NA,NA
India,Delhi,Delhi,"Major Dhyan Chand National Stadium, Delhi - DPCC",06-08-2024 01:00:00,28.611281,77.237738,OZONE,8,47,24
India,Delhi,Delhi,"Mundka, Delhi - DPCC",06-08-2024 01:00:00,28.684678,77.076574,PM10,17,68,46
India,Delhi,Delhi,"NSIT Dwarka, Delhi - CPCB",06-08-2024 01:00:00,28.60909,77.0325413,PM10,44,74,57
India,Delhi,Delhi,"Najafgarh, Delhi - DPCC",06-08-2024 01:00:00,28.570173,76.933762,PM10,17,41,26
India,Delhi,Delhi,"Najafgarh, Delhi - DPCC",06-08-2024 01:00:00,28.570173,76.933762,NO2,5,8,7
India,Delhi,Delhi,"Najafgarh, Delhi - DPCC",06-08-2024 01:00:00,28.570173,76.933762,CO,48,157,151
India,Delhi,Delhi,"Narela, Delhi - DPCC",06-08-2024 01:00:00,28.822836,77.101981,PM10,36,81,53
India,Delhi,Delhi,"Narela, Delhi - DPCC",06-08-2024 01:00:00,28.822836,77.101981,NH3,6,8,7
India,Delhi,Delhi,"New Moti Bagh, Delhi - MHUA",06-08-2024 01:00:00,28.57834,77.18400,NO2,6,8,7
India,Delhi,Delhi,"North Campus, DU, Delhi - IMD",06-08-2024 01:00:00,28.6573814,77.1585447,CO,27,37,35
India,Delhi,Delhi,"Okhla Phase-2, Delhi - DPCC",06-08-2024 01:00:00,28.530785,77.271255,NO2,11,44,24
India,Delhi,Delhi,"Okhla Phase-2, Delhi - DPCC",06-08-2024 01:00:00,28.530785,77.271255,NH3,10,19,12
India,Delhi,Delhi,"Patparganj, Delhi - DPCC",06-08-2024 01:00:00,28.623763,77.287209,PM10,38,95,59
India,Delhi,Delhi,"Patparganj, Delhi - DPCC",06-08-2024 01:00:00,28.623763,77.287209,SO2,4,9,7
India,Delhi,Delhi,"Punjabi Bagh, Delhi - DPCC",06-08-2024 01:00:00,28.674045,77.131023,NH3,3,8,5
India,Delhi,Delhi,"Pusa, Delhi - DPCC",06-08-2024 01:00:00,28.639652,77.146275,PM10,22,48,33
India,Delhi,Delhi,"Pusa, Delhi - IMD",06-08-2024 01:00:00,28.636110,77.173332,CO,NA,NA,NA
India,Delhi,Delhi,"R K Puram, Delhi - DPCC",06-08-2024 01:00:00,28.563262,77.186937,SO2,15,42,20
India,Delhi,Delhi,"Rohini, Delhi - DPCC",06-08-2024 01:00:00,28.732528,77.119920,NO2,11,41,24
India,Delhi,Delhi,"Shadipur, Delhi - CPCB",06-08-2024 01:00:00,28.6514781,77.1473105,PM10,50,90,69
India,Delhi,Delhi,"Sirifort, Delhi - CPCB",06-08-2024 01:00:00,28.5504249,77.2159377,PM10,32,83,48
India,Delhi,Delhi,"Sirifort, Delhi - CPCB",06-08-2024 01:00:00,28.5504249,77.2159377,NH3,6,11,10
India,Delhi,Delhi,"Sirifort, Delhi - CPCB",06-08-2024 01:00:00,28.5504249,77.2159377,SO2,32,81,58
India,Delhi,Delhi,"Sonia Vihar, Delhi - DPCC",06-08-2024 01:00:00,28.710508,77.249485,PM2.5,20,98,48
India,Delhi,Delhi,"Sonia Vihar, Delhi - DPCC",06-08-2024 01:00:00,28.710508,77.249485,CO,28,63,46
India,Delhi,Delhi,"Vivek Vihar, Delhi - DPCC",06-08-2024 01:00:00,28.672342,77.315260,SO2,7,10,8
India,Delhi,Delhi,"Vivek Vihar, Delhi - DPCC",06-08-2024 01:00:00,28.672342,77.315260,CO,40,63,56
India,Delhi,Delhi,"Wazirpur, Delhi - DPCC",06-08-2024 01:00:00,28.699793,77.165453,PM10,46,133,100
India,Delhi,Delhi,"Wazirpur, Delhi - DPCC",06-08-2024 01:00:00,28.699793,77.165453,SO2,3,10,7
India,Gujarat,Ahmedabad,"Chandkheda, Ahmedabad - IITM",06-08-2024 01:00:00,23.107969,72.574648,PM10,18,62,30
India,Gujarat,Ahmedabad,"Chandkheda, Ahmedabad - IITM",06-08-2024 01:00:00,23.107969,72.574648,NO2,20,49,32
India,Gujarat,Ahmedabad,"Chandkheda, Ahmedabad - IITM",06-08-2024 01:00:00,23.107969,72.574648,OZONE,10,38,19
India,Gujarat,Ahmedabad,"Gyaspur, Ahmedabad - IITM",06-08-2024 01:00:00,22.977134,72.553024,PM10,11,62,28
India,Gujarat,Ahmedabad,"Gyaspur, Ahmedabad - IITM",06-08-2024 01:00:00,22.977134,72.553024,NO2,27,42,32
India,Gujarat,Ahmedabad,"Maninagar, Ahmedabad - GPCB",06-08-2024 01:00:00,23.002657,72.591912,SO2,18,37,26
India,Gujarat,Ahmedabad,"Raikhad, Ahmedabad - IITM",06-08-2024 01:00:00,23.020509,72.579261,PM10,16,112,48
India,Gujarat,Ahmedabad,"Raikhad, Ahmedabad - IITM",06-08-2024 01:00:00,23.020509,72.579261,NO2,8,53,26
India,Gujarat,Ahmedabad,"Rakhial, Ahmedabad - IITM",06-08-2024 01:00:00,23.016834,72.625775,NH3,3,6,4
India,Gujarat,Ahmedabad,"Sardar Vallabhbhai Patel Stadium, Ahmedabad - IITM",06-08-2024 01:00:00,23.043070,72.562968,SO2,13,27,18
India,Gujarat,Gandhinagar,"GIFT City, Gandhinagar - IITM",06-08-2024 01:00:00,23.163798,72.677768,NO2,10,25,16
India,Gujarat,Gandhinagar,"GIFT City, Gandhinagar - IITM",06-08-2024 01:00:00,23.163798,72.677768,SO2,6,17,12
India,Gujarat,Gandhinagar,"GIFT City, Gandhinagar - IITM",06-08-2024 01:00:00,23.163798,72.677768,CO,18,40,30
India,Gujarat,Gandhinagar,"Sector-10, Gandhinagar - GPCB",06-08-2024 01:00:00,23.221714,72.654328,NH3,1,1,1
India,Gujarat,Surat,"Science Center, Surat - SMC",06-08-2024 01:00:00,21.170046,72.795405,PM10,19,62,36
India,Gujarat,Surat,"Science Center, Surat - SMC",06-08-2024 01:00:00,21.170046,72.795405,NO2,16,26,21
India,Gujarat,Surat,"Science Center, Surat - SMC",06-08-2024 01:00:00,21.170046,72.795405,SO2,11,13,12
India,Gujarat,Vapi,"Phase-1 GIDC, Vapi - GPCB",06-08-2024 01:00:00,20.362421,72.918013,PM2.5,NA,NA,NA
India,Gujarat,Vatva,"Phase-4 GIDC, Vatva - GPCB",06-08-2024 01:00:00,22.969611,72.643500,NH3,3,3,3
India,Haryana,Ambala,"Patti Mehar, Ambala - HSPCB",06-08-2024 01:00:00,30.379589,76.778328,PM10,31,57,44
India,Haryana,Ambala,"Patti Mehar, Ambala - HSPCB",06-08-2024 01:00:00,30.379589,76.778328,CO,30,62,38
India,Haryana,Bhiwani,"H.B. Colony, Bhiwani - HSPCB",06-08-2024 01:00:00,28.806223,76.141105,PM10,61,133,73
India,Haryana,Charkhi Dadri,"Mini Secretariat, Charkhi Dadri - HSPCB",06-08-2024 01:00:00,28.593883,76.270653,NO2,15,23,18
India,Haryana,Charkhi Dadri,"Mini Secretariat, Charkhi Dadri - HSPCB",06-08-2024 01:00:00,28.593883,76.270653,OZONE,13,17,16
India,Haryana,Faridabad,"New Industrial Town, Faridabad - HSPCB",06-08-2024 01:00:00,28.39072,77.30059,OZONE,9,22,17
India,Haryana,Faridabad,"Sector 11, Faridabad - HSPCB",06-08-2024 01:00:00,28.376058,77.315741,PM10,58,69,65
India,Haryana,Faridabad,"Sector 11, Faridabad - HSPCB",06-08-2024 01:00:00,28.376058,77.315741,SO2,4,86,9
India,Haryana,Fatehabad,"Huda Sector, Fatehabad - HSPCB",06-08-2024 01:00:00,29.503664,75.467934,PM2.5,29,30,30
India,Haryana,Gurugram,"Sector-51, Gurugram - HSPCB",06-08-2024 01:00:00,28.4227,77.0667,OZONE,28,32,31
India,Haryana,Gurugram,"Teri Gram, Gurugram - HSPCB",06-08-2024 01:00:00,28.4275,77.1465,CO,2,52,32
India,Haryana,Gurugram,"Vikas Sadan, Gurugram - HSPCB",06-08-2024 01:00:00,28.4501238,77.0263051,CO,49,129,86
India,Haryana,Hisar,"Urban Estate-II, Hisar - HSPCB",06-08-2024 01:00:00,29.140560,75.744941,CO,26,31,29
India,Haryana,Kaithal,"Rishi Nagar, Kaithal - HSPCB",06-08-2024 01:00:00,29.8006,76.4155,OZONE,2,47,12
India,Haryana,Karnal,"Sector-12, Karnal - HSPCB",06-08-2024 01:00:00,29.695300,77.002700,PM2.5,14,71,33
India,Haryana,Karnal,"Sector-12, Karnal - HSPCB",06-08-2024 01:00:00,29.695300,77.002700,PM10,20,50,33
India,Haryana,Karnal,"Sector-12, Karnal - HSPCB",06-08-2024 01:00:00,29.695300,77.002700,NO2,7,12,10
India,Haryana,Karnal,"Sector-12, Karnal - HSPCB",06-08-2024 01:00:00,29.695300,77.002700,NH3,10,13,11
India,Haryana,Manesar,"Sector-2 IMT, Manesar - HSPCB",06-08-2024 01:00:00,28.360699,76.936090,PM2.5,NA,NA,NA
India,Haryana,Manesar,"Sector-2 IMT, Manesar - HSPCB",06-08-2024 01:00:00,28.360699,76.936090,NO2,NA,NA,NA
India,Haryana,Manesar,"Sector-2 IMT, Manesar - HSPCB",06-08-2024 01:00:00,28.360699,76.936090,SO2,NA,NA,NA
India,Haryana,Narnaul,"Shastri Nagar, Narnaul - HSPCB",06-08-2024 01:00:00,28.060249,76.113115,NO2,16,32,26
India,Haryana,Palwal,"Shyam Nagar, Palwal - HSPCB",06-08-2024 01:00:00,28.1485564,77.3320667,NH3,8,9,9
India,Haryana,Panchkula,"Sector-6, Panchkula - HSPCB ",06-08-2024 01:00:00,30.7057778,76.8531805555555,PM2.5,12,74,37
India,Haryana,Panchkula,"Sector-6, Panchkula - HSPCB ",06-08-2024 01:00:00,30.7057778,76.8531805555555,CO,8,29,16
India,Haryana,Panipat,"Sector-18, Panipat - HSPCB",06-08-2024 01:00:00,29.432304,76.972765,PM10,57,66,61
India,Haryana,Sirsa,"F-Block, Sirsa - HSPCB",06-08-2024 01:00:00,29.536400,75.015800,PM10,17,50,32
India,Haryana,Sirsa,"F-Block, Sirsa - HSPCB",06-08-2024 01:00:00,29.536400,75.015800,NO2,8,20,11
India,Haryana,Sirsa,"F-Block, Sirsa - HSPCB",06-08-2024 01:00:00,29.536400,75.015800,SO2,7,15,11
India,Haryana,Sonipat,"Murthal, Sonipat - HSPCB",06-08-2024 01:00:00,29.027200,77.062100,NO2,37,44,40
India,Haryana,Sonipat,"Murthal, Sonipat - HSPCB",06-08-2024 01:00:00,29.027200,77.062100,NH3,7,10,9
India,Haryana,Sonipat,"Murthal, Sonipat - HSPCB",06-08-2024 01:00:00,29.027200,77.062100,CO,2,10,6
India,Haryana,Yamuna Nagar,"Gobind Pura, Yamuna Nagar - HSPCB",06-08-2024 01:00:00,30.1480566,77.2893471,SO2,1,18,6
India,Himachal Pradesh,Baddi,"HIMUDA Complex Phase-1, Baddi - HPPCB",06-08-2024 01:00:00,30.943887,76.801991,PM10,23,137,65
India,Himachal Pradesh,Baddi,"HIMUDA Complex Phase-1, Baddi - HPPCB",06-08-2024 01:00:00,30.943887,76.801991,NO2,9,30,16
India,Himachal Pradesh,Baddi,"HIMUDA Complex Phase-1, Baddi - HPPCB",06-08-2024 01:00:00,30.943887,76.801991,NH3,5,8,7
India,Jammu_and_Kashmir,Srinagar,"Rajbagh, Srinagar - JKSPCB",06-08-2024 01:00:00,34.066206,74.819820,NO2,7,7,7
India,Jammu_and_Kashmir,Srinagar,"Rajbagh, Srinagar - JKSPCB",06-08-2024 01:00:00,34.066206,74.819820,SO2,11,113,25
India,Jharkhand,Jorapokhar,"Tata Stadium, Jorapokhar - JSPCB",06-08-2024 01:00:00,23.707909,86.414670,CO,29,66,66
India,Jharkhand,Jorapokhar,"Tata Stadium, Jorapokhar - JSPCB",06-08-2024 01:00:00,23.707909,86.414670,OZONE,1,4,4
India,Karnataka,Bagalkot,"Vidayagiri, Bagalkot - KSPCB",06-08-2024 01:00:00,16.172806,75.659694,SO2,4,4,4
India,Karnataka,Belgaum,"Ramteerth Nagar, Belgaum - KSPCB",06-08-2024 01:00:00,15.888653,74.541751,PM10,12,49,26
India,Karnataka,Bengaluru,"BTM Layout, Bengaluru - CPCB",06-08-2024 01:00:00,12.9135218,77.5950804,NH3,7,9,7
India,Karnataka,Bengaluru,"BTM Layout, Bengaluru - CPCB",06-08-2024 01:00:00,12.9135218,77.5950804,CO,30,36,33
India,Karnataka,Bengaluru,"BTM Layout, Bengaluru - CPCB",06-08-2024 01:00:00,12.9135218,77.5950804,OZONE,18,29,20
India,Karnataka,Bengaluru,"Hombegowda Nagar, Bengaluru - KSPCB",06-08-2024 01:00:00,12.938539,77.590100,PM2.5,6,24,14
India,Karnataka,Bengaluru,"Hombegowda Nagar, Bengaluru - KSPCB",06-08-2024 01:00:00,12.938539,77.590100,CO,11,70,31
India,Karnataka,Bengaluru,"Jayanagar 5th Block, Bengaluru - KSPCB",06-08-2024 01:00:00,12.920984,77.584908,PM10,11,55,31
India,Karnataka,Bengaluru,"Jayanagar 5th Block, Bengaluru - KSPCB",06-08-2024 01:00:00,12.920984,77.584908,CO,13,133,77
India,Karnataka,Bengaluru,"Jigani, Bengaluru - KSPCB",06-08-2024 01:00:00,12.7816279,77.6299145,SO2,9,22,13
India,Karnataka,Bengaluru,"Kasturi Nagar, Bengaluru - KSPCB",06-08-2024 01:00:00,13.003872,77.664217,CO,24,25,25
India,Karnataka,Bengaluru,"Peenya, Bengaluru - CPCB",06-08-2024 01:00:00,13.0270199,77.494094,SO2,11,15,14
India,Karnataka,Bengaluru,"Peenya, Bengaluru - CPCB",06-08-2024 01:00:00,13.0270199,77.494094,OZONE,25,43,29
India,Karnataka,Bengaluru,"RVCE-Mailasandra, Bengaluru - KSPCB",06-08-2024 01:00:00,12.921418,77.502466,PM10,52,106,68
India,Karnataka,Bengaluru,"Sanegurava Halli, Bengaluru - KSPCB",06-08-2024 01:00:00,12.990328,77.5431385,PM10,35,72,42
India,Karnataka,Bengaluru,"Sanegurava Halli, Bengaluru - KSPCB",06-08-2024 01:00:00,12.990328,77.5431385,NO2,20,36,23
India,Karnataka,Bengaluru,"Shivapura_Peenya, Bengaluru - KSPCB",06-08-2024 01:00:00,13.0246342,77.5080115,PM2.5,21,78,42
India,Karnataka,Bidar,"Naubad, Bidar - KSPCB",06-08-2024 01:00:00,17.930306,77.482194,NH3,3,3,3
India,Karnataka,Bidar,"Naubad, Bidar - KSPCB",06-08-2024 01:00:00,17.930306,77.482194,CO,38,54,47
India,Karnataka,Chamarajanagar,"Urban, Chamarajanagar - KSPCB",06-08-2024 01:00:00,11.55358,76.55521,NO2,18,37,28
India,Karnataka,Chamarajanagar,"Urban, Chamarajanagar - KSPCB",06-08-2024 01:00:00,11.55358,76.55521,NH3,1,3,2
India,Karnataka,Chamarajanagar,"Urban, Chamarajanagar - KSPCB",06-08-2024 01:00:00,11.55358,76.55521,CO,12,32,21
India,Karnataka,Chamarajanagar,"Urban, Chamarajanagar - KSPCB",06-08-2024 01:00:00,11.55358,76.55521,OZONE,11,38,22
India,Karnataka,Chikkaballapur,"Chikkaballapur Rural, Chikkaballapur - KSPCB",06-08-2024 01:00:00,13.428828,77.731418,NH3,NA,NA,NA
India,Karnataka,Chikkamagaluru,"Kalyana Nagara, Chikkamagaluru - KSPCB",06-08-2024 01:00:00,13.328028,75.797056,PM2.5,2,56,26
India,Karnataka,Davanagere,"Devaraj Urs Badavane, Davanagere - KSPCB",06-08-2024 01:00:00,14.475800,75.905200,CO,14,18,15
India,Karnataka,Dharwad,"Kalabhavan, Dharwad - KSPCB",06-08-2024 01:00:00,15.459706,75.008381,PM10,61,83,68
India,Karnataka,Dharwad,"Kalabhavan, Dharwad - KSPCB",06-08-2024 01:00:00,15.459706,75.008381,CO,2,49,25
India,Karnataka,Dharwad,"Kalabhavan, Dharwad - KSPCB",06-08-2024 01:00:00,15.459706,75.008381,OZONE,8,18,14
India,Karnataka,Gadag,"Panchal Nagar, Gadag - KSPCB",06-08-2024 01:00:00,15.411456,75.638133,PM2.5,2,22,10
India,Karnataka,Haveri,"Ashwini Nagar, Haveri - KSPCB",06-08-2024 01:00:00,14.791800,75.389600,NH3,17,18,17
India,Karnataka,Hubballi,"Deshpande Nagar, Hubballi - KSPCB",06-08-2024 01:00:00,15.351773,75.140726,NO2,28,29,29
India,Karnataka,Hubballi,"Deshpande Nagar, Hubballi - KSPCB",06-08-2024 01:00:00,15.351773,75.140726,CO,NA,NA,NA
India,Karnataka,Hubballi,"Lingaraj Nagar, Hubballi - KSPCB",06-08-2024 01:00:00,15.3714823,75.1160168,SO2,1,3,1
India,Karnataka,Kalaburagi,"Mahatma Basaveswar Colony, Kalaburgi - KSPCB",06-08-2024 01:00:00,17.336318,76.847397,PM10,16,60,32
India,Karnataka,Kalaburagi,"Mahatma Basaveswar Colony, Kalaburgi - KSPCB",06-08-2024 01:00:00,17.336318,76.847397,NH3,2,3,2
India,Karnataka,Kalaburagi,"Mahatma Basaveswar Colony, Kalaburgi - KSPCB",06-08-2024 01:00:00,17.336318,76.847397,SO2,1,8,3
India,Karnataka,Kolar,"Tamaka Ind. Area, Kolar - KSPCB",06-08-2024 01:00:00,13.1276288,78.1570122,NO2,1,11,5
India,Karnataka,Kolar,"Tamaka Ind. Area, Kolar - KSPCB",06-08-2024 01:00:00,13.1276288,78.1570122,NH3,8,13,10
India,Karnataka,Madikeri,"Stuart Hill, Madikeri - KSPCB",06-08-2024 01:00:00,12.415911,75.735050,NH3,1,1,1
India,Karnataka,Madikeri,"Stuart Hill, Madikeri - KSPCB",06-08-2024 01:00:00,12.415911,75.735050,SO2,4,4,4
India,Karnataka,Madikeri,"Stuart Hill, Madikeri - KSPCB",06-08-2024 01:00:00,12.415911,75.735050,OZONE,12,14,13
India,Karnataka,Mangalore,"Kadri, Mangalore - KSPCB",06-08-2024 01:00:00,12.889250,74.853000,NH3,2,3,3
India,Karnataka,Mysuru,"Hebbal 1st Stage, Mysuru - KSPCB",06-08-2024 01:00:00,12.21041,76.37376,PM10,25,52,36
India,Karnataka,Shivamogga,"Vinoba Nagara, Shivamogga - KSPCB",06-08-2024 01:00:00,13.940000,75.555917,NH3,1,3,2
India,Karnataka,Udupi,"Brahmagiri, Udupi - KSPCB",06-08-2024 01:00:00,13.34194444,74.74694444,PM10,2,42,12
India,Karnataka,Udupi,"Brahmagiri, Udupi - KSPCB",06-08-2024 01:00:00,13.34194444,74.74694444,NH3,2,2,2
India,Karnataka,Yadgir,"Collector Office, Yadgir - KSPCB",06-08-2024 01:00:00,16.7602,77.1428,NO2,5,17,10
India,Karnataka,Yadgir,"Collector Office, Yadgir - KSPCB",06-08-2024 01:00:00,16.7602,77.1428,OZONE,17,21,19
India,Kerala,Eloor,"Udyogamandal, Eloor - Kerala PCB",06-08-2024 01:00:00,10.073232,76.302765,PM2.5,42,57,46
India,Kerala,Thiruvananthapuram,"Plammoodu, Thiruvananthapuram - Kerala PCB",06-08-2024 01:00:00,8.5149093,76.9435879,NO2,12,77,47
India,Kerala,Thiruvananthapuram,"Plammoodu, Thiruvananthapuram - Kerala PCB",06-08-2024 01:00:00,8.5149093,76.9435879,CO,4,29,17
India,Kerala,Thrissur,"Corporation Ground, Thrissur - Kerala PCB",06-08-2024 01:00:00,10.532400,76.215900,NO2,8,8,8
India,Kerala,Thrissur,"Corporation Ground, Thrissur - Kerala PCB",06-08-2024 01:00:00,10.532400,76.215900,CO,41,44,43
India,Kerala,Thrissur,"Corporation Ground, Thrissur - Kerala PCB",06-08-2024 01:00:00,10.532400,76.215900,OZONE,30,31,30
India,Madhya Pradesh,Bhopal,"Idgah Hills, Bhopal - MPPCB",06-08-2024 01:00:00,23.264759,77.381568,PM10,13,51,34
India,Madhya Pradesh,Bhopal,"Idgah Hills, Bhopal - MPPCB",06-08-2024 01:00:00,23.264759,77.381568,SO2,4,6,5
India,Madhya Pradesh,Bhopal,"Idgah Hills, Bhopal - MPPCB",06-08-2024 01:00:00,23.264759,77.381568,OZONE,11,19,14
India,Madhya Pradesh,Bhopal,"Paryavaran Parisar, Bhopal - MPPCB",06-08-2024 01:00:00,23.210494,77.425409,PM2.5,17,33,24
India,Madhya Pradesh,Bhopal,"Paryavaran Parisar, Bhopal - MPPCB",06-08-2024 01:00:00,23.210494,77.425409,PM10,13,41,25
India,Madhya Pradesh,Bhopal,"Paryavaran Parisar, Bhopal - MPPCB",06-08-2024 01:00:00,23.210494,77.425409,NO2,7,14,9
India,Madhya Pradesh,Bhopal,"Paryavaran Parisar, Bhopal - MPPCB",06-08-2024 01:00:00,23.210494,77.425409,CO,16,24,19
India,Madhya Pradesh,Dewas,"Bhopal Chauraha, Dewas - MPPCB",06-08-2024 01:00:00,22.9682591,76.064118,PM10,27,75,51
India,Madhya Pradesh,Dewas,"Bhopal Chauraha, Dewas - MPPCB",06-08-2024 01:00:00,22.9682591,76.064118,NO2,12,14,13
India,Madhya Pradesh,Dewas,"Bhopal Chauraha, Dewas - MPPCB",06-08-2024 01:00:00,22.9682591,76.064118,NH3,3,3,3
India,Madhya Pradesh,Dewas,"Bhopal Chauraha, Dewas - MPPCB",06-08-2024 01:00:00,22.9682591,76.064118,SO2,29,61,42
India,Madhya Pradesh,Gwalior,"City Center, Gwalior - MPPCB",06-08-2024 01:00:00,26.203442,78.193251,PM10,23,71,40
India,Madhya Pradesh,Gwalior,"City Center, Gwalior - MPPCB",06-08-2024 01:00:00,26.203442,78.193251,NO2,16,32,20
India,Madhya Pradesh,Gwalior,"City Center, Gwalior - MPPCB",06-08-2024 01:00:00,26.203442,78.193251,OZONE,21,74,56
India,Madhya Pradesh,Gwalior,"Deen Dayal Nagar, Gwalior - MPPCB",06-08-2024 01:00:00,26.259242,78.216432,NO2,2,37,15
India,Madhya Pradesh,Gwalior,"Deen Dayal Nagar, Gwalior - MPPCB",06-08-2024 01:00:00,26.259242,78.216432,NH3,3,7,5
India,Madhya Pradesh,Gwalior,"Maharaj Bada, Gwalior - MPPCB",06-08-2024 01:00:00,26.200388,78.147714,NO2,32,89,55
India,Madhya Pradesh,Gwalior,"Phool Bagh, Gwalior - Mondelez Ind. Food",06-08-2024 01:00:00,26.210536,78.171,PM10,18,84,50
India,Madhya Pradesh,Indore,"Chhoti Gwaltoli, Indore - MPPCB",06-08-2024 01:00:00,22.4310,75.5213,PM10,23,62,47
India,Madhya Pradesh,Indore,"Chhoti Gwaltoli, Indore - MPPCB",06-08-2024 01:00:00,22.4310,75.5213,OZONE,17,29,22
India,Madhya Pradesh,Indore,"Maguda Nagar, Indore - IMC",06-08-2024 01:00:00,22.7524,75.8872,SO2,32,38,35
India,Madhya Pradesh,Indore,"Residency Area, Indore - IMC",06-08-2024 01:00:00,22.7084,75.8815,SO2,24,25,25
India,Madhya Pradesh,Jabalpur,"Gupteshwar, Jabalpur - JMC",06-08-2024 01:00:00,23.142888,79.916147,PM2.5,NA,NA,NA
India,Madhya Pradesh,Jabalpur,"Gupteshwar, Jabalpur - JMC",06-08-2024 01:00:00,23.142888,79.916147,NH3,NA,NA,NA
India,Madhya Pradesh,Jabalpur,"Marhatal, Jabalpur - MPPCB",06-08-2024 01:00:00,23.168606,79.932247,PM10,7,30,19
India,Madhya Pradesh,Jabalpur,"Marhatal, Jabalpur - MPPCB",06-08-2024 01:00:00,23.168606,79.932247,NH3,2,5,3
India,Madhya Pradesh,Katni,"Gole Bazar, Katni - MPPCB",06-08-2024 01:00:00,23.50016,80.23284,PM10,21,107,50
India,Madhya Pradesh,Katni,"Gole Bazar, Katni - MPPCB",06-08-2024 01:00:00,23.50016,80.23284,SO2,8,23,15
India,Madhya Pradesh,Mandideep,"Sector-D Industrial Area, Mandideep - MPPCB",06-08-2024 01:00:00,23.108440,77.511428,NO2,2,35,6
India,Madhya Pradesh,Mandideep,"Sector-D Industrial Area, Mandideep - MPPCB",06-08-2024 01:00:00,23.108440,77.511428,SO2,6,12,8
India,Madhya Pradesh,Mandideep,"Sector-D Industrial Area, Mandideep - MPPCB",06-08-2024 01:00:00,23.108440,77.511428,CO,12,16,14
India,Madhya Pradesh,Pithampur,"Sector-2 Industrial Area, Pithampur - MPPCB",06-08-2024 01:00:00,22.624758,75.675238,NO2,4,11,6
India,Madhya Pradesh,Sagar,"Civil Lines, Sagar - MPPCB",06-08-2024 01:00:00,23.838586,78.759431,PM2.5,17,42,28
India,Madhya Pradesh,Sagar,"Civil Lines, Sagar - MPPCB",06-08-2024 01:00:00,23.838586,78.759431,PM10,20,51,34
India,Madhya Pradesh,Sagar,"Civil Lines, Sagar - MPPCB",06-08-2024 01:00:00,23.838586,78.759431,NH3,5,7,6
India,Madhya Pradesh,Sagar,"Civil Lines, Sagar - MPPCB",06-08-2024 01:00:00,23.838586,78.759431,SO2,1,7,4
India,Madhya Pradesh,Sagar,"Civil Lines, Sagar - MPPCB",06-08-2024 01:00:00,23.838586,78.759431,CO,28,43,37
India,Madhya Pradesh,Sagar,"Deen Dayal Nagar, Sagar - MPPCB",06-08-2024 01:00:00,23.8640158,78.80289321,PM10,19,78,42
India,Madhya Pradesh,Singrauli,"Suryakiran Bhawan NCL, Singrauli - MPPCB",06-08-2024 01:00:00,24.108970,82.645580,NO2,NA,NA,NA
India,Madhya Pradesh,Ujjain,"Mahakaleshwar Temple, Ujjain - MPPCB",06-08-2024 01:00:00,23.182719 ,75.768218 ,SO2,3,6,5
India,Madhya Pradesh,Ujjain,"Mahakaleshwar Temple, Ujjain - MPPCB",06-08-2024 01:00:00,23.182719 ,75.768218 ,OZONE,60,63,62
India,Maharashtra,Ahmednagar,"Tarakpur, Ahmednagar - MPCB",06-08-2024 01:00:00,19.10122,74.73339,PM10,NA,NA,NA
India,Maharashtra,Amravati,"Shivneri Colony, Amravati - MPCB",06-08-2024 01:00:00,20.9402359,77.7895248,PM10,16,59,40
India,Maharashtra,Amravati,"Shivneri Colony, Amravati - MPCB",06-08-2024 01:00:00,20.9402359,77.7895248,OZONE,2,15,8
India,Maharashtra,Amravati,"Shri Shivaji Science College, Amaravati - MPCB",06-08-2024 01:00:00,20.939198,77.765701,NH3,1,3,2
India,Maharashtra,Aurangabad,"MIDC Chilkalthana, Aurangabad - MPCB",06-08-2024 01:00:00,19.875620,75.387310,NH3,5,5,5
India,Maharashtra,Aurangabad,"More Chowk Waluj, Aurangabad - MPCB",06-08-2024 01:00:00,19.8389439,75.244448,PM10,26,91,43
India,Maharashtra,Aurangabad,"More Chowk Waluj, Aurangabad - MPCB",06-08-2024 01:00:00,19.8389439,75.244448,NH3,3,7,4
India,Maharashtra,Badlapur,"Katrap, Badlapur - MPCB",06-08-2024 01:00:00,19.16485,73.23409,NH3,3,4,3
India,Maharashtra,Badlapur,"Katrap, Badlapur - MPCB",06-08-2024 01:00:00,19.16485,73.23409,SO2,5,11,7
India,Maharashtra,Belapur,"CBD Belapur, Belapur - MPCB",06-08-2024 01:00:00,19.0243902,73.0406721,SO2,3,5,4
India,Maharashtra,Belapur,"CBD Belapur, Belapur - MPCB",06-08-2024 01:00:00,19.0243902,73.0406721,OZONE,12,16,12
India,Maharashtra,Bhiwandi,"Gokul Nagar, Bhiwandi - MPCB",06-08-2024 01:00:00,19.309073,73.057223,PM2.5,24,57,36
India,Maharashtra,Bhiwandi,"Gokul Nagar, Bhiwandi - MPCB",06-08-2024 01:00:00,19.309073,73.057223,NH3,2,3,2
India,Maharashtra,Bhiwandi,"Gokul Nagar, Bhiwandi - MPCB",06-08-2024 01:00:00,19.309073,73.057223,CO,9,87,51
India,Maharashtra,Bhiwandi,"Gokul Nagar, Bhiwandi - MPCB",06-08-2024 01:00:00,19.309073,73.057223,OZONE,7,13,11
India,Maharashtra,Boisar,"Khaira, Boisar - MPCB",06-08-2024 01:00:00,19.786089,72.757971,NO2,5,16,11
India,Maharashtra,Boisar,"Khaira, Boisar - MPCB",06-08-2024 01:00:00,19.786089,72.757971,SO2,1,15,5
India,Maharashtra,Chandrapur,"MIDC Khutala, Chandrapur - MPCB",06-08-2024 01:00:00,19.9775302,79.2337086,OZONE,2,21,10
India,Maharashtra,Dhule,"Deopur, Dhule - MPCB",06-08-2024 01:00:00,20.918946,74.776388,NH3,2,7,3
India,Maharashtra,Dhule,"Deopur, Dhule - MPCB",06-08-2024 01:00:00,20.918946,74.776388,SO2,1,1,1
India,Maharashtra,Dhule,"Deopur, Dhule - MPCB",06-08-2024 01:00:00,20.918946,74.776388,CO,16,34,18
India,Maharashtra,Jalgaon,"Prabhat Colony, Jalgaon - MPCB",06-08-2024 01:00:00,21.001264,75.565602,NO2,8,16,11
India,Maharashtra,Jalna,"Old MIDC, Jalna - MPCB",06-08-2024 01:00:00,19.854616,75.905894,PM2.5,6,32,18
India,Maharashtra,Kalyan,"Khadakpada, Kalyan - MPCB",06-08-2024 01:00:00,19.25292,73.142019,SO2,9,14,11
India,Maharashtra,Kalyan,"Khadakpada, Kalyan - MPCB",06-08-2024 01:00:00,19.25292,73.142019,OZONE,6,9,7
India,Maharashtra,Kolhapur,"Shivaji University, Kolhapur - MPCB",06-08-2024 01:00:00,16.6870449,74.2505872,PM10,NA,NA,NA
India,Maharashtra,Kolhapur,"Shivaji University, Kolhapur - MPCB",06-08-2024 01:00:00,16.6870449,74.2505872,SO2,NA,NA,NA
India,Maharashtra,Kolhapur,"Sinchan Bhavan, Kolhapur - MPCB",06-08-2024 01:00:00,16.7143745,74.2426398,PM2.5,7,28,14
India,Maharashtra,Kolhapur,"Sinchan Bhavan, Kolhapur - MPCB",06-08-2024 01:00:00,16.7143745,74.2426398,PM10,26,49,39
India,Maharashtra,Kolhapur,"Sinchan Bhavan, Kolhapur - MPCB",06-08-2024 01:00:00,16.7143745,74.2426398,NO2,1,6,2
India,Maharashtra,Latur,"Sawe Wadi, Latur - MPCB",06-08-2024 01:00:00,18.39963,76.57452,CO,4,35,22
India,Maharashtra,Malegaon,"Mahesh Nagar, Malegaon - MPCB",06-08-2024 01:00:00,20.555712,74.529236,NH3,1,5,2
India,Maharashtra,Mumbai,"Bandra Kurla Complex, Mumbai - MPCB",06-08-2024 01:00:00,19.065931,72.862131,CO,20,52,42
India,Maharashtra,Mumbai,"Borivali East, Mumbai - MPCB",06-08-2024 01:00:00,19.2243333,72.8658113,CO,4,24,23
India,Maharashtra,Mumbai,"Chembur, Mumbai - MPCB",06-08-2024 01:00:00,19.0364585,72.8954371,NH3,4,6,5
India,Maharashtra,Mumbai,"Chembur, Mumbai - MPCB",06-08-2024 01:00:00,19.0364585,72.8954371,SO2,1,2,1
India,Maharashtra,Mumbai,"Colaba, Mumbai - MPCB",06-08-2024 01:00:00,18.910000,72.820000,PM2.5,1,8,5
India,Maharashtra,Mumbai,"Colaba, Mumbai - MPCB",06-08-2024 01:00:00,18.910000,72.820000,CO,13,14,14
India,Maharashtra,Mumbai,"Kandivali West, Mumbai - BMC",06-08-2024 01:00:00,19.215859,72.831718,SO2,1,3,2
India,Maharashtra,Mumbai,"Kherwadi_Bandra East, Mumbai - MPCB",06-08-2024 01:00:00,19.0632143,72.8456324,NH3,6,8,7
India,Maharashtra,Mumbai,"Kurla, Mumbai - MPCB",06-08-2024 01:00:00,19.0863,72.8888,NO2,13,16,14
India,Maharashtra,Mumbai,"Kurla, Mumbai - MPCB",06-08-2024 01:00:00,19.0863,72.8888,SO2,19,32,25
India,Maharashtra,Mumbai,"Malad West, Mumbai - IITM",06-08-2024 01:00:00,19.19709,72.82204,PM2.5,7,46,22
India,Maharashtra,Mumbai,"Malad West, Mumbai - IITM",06-08-2024 01:00:00,19.19709,72.82204,CO,2,2,2
India,Maharashtra,Mumbai,"Malad West, Mumbai - IITM",06-08-2024 01:00:00,19.19709,72.82204,OZONE,5,9,5
India,Maharashtra,Mumbai,"Mindspace-Malad West, Mumbai - MPCB",06-08-2024 01:00:00,19.1878657,72.8304069,NH3,4,6,5
India,Maharashtra,Mumbai,"Mindspace-Malad West, Mumbai - MPCB",06-08-2024 01:00:00,19.1878657,72.8304069,SO2,4,6,5
India,Maharashtra,Mumbai,"Mulund West, Mumbai - MPCB",06-08-2024 01:00:00,19.1750,72.9419,NH3,10,10,10
India,Maharashtra,Mumbai,"Mulund West, Mumbai - MPCB",06-08-2024 01:00:00,19.1750,72.9419,CO,26,26,26
India,Maharashtra,Mumbai,"Navy Nagar-Colaba, Mumbai - IITM",06-08-2024 01:00:00,18.897756,72.813320,NH3,NA,NA,NA
India,Maharashtra,Mumbai,"Powai, Mumbai - MPCB",06-08-2024 01:00:00,19.137500,72.915056,OZONE,5,7,6
India,Maharashtra,Mumbai,"Sewri, Mumbai - BMC",06-08-2024 01:00:00,19.000084,72.856730,SO2,4,15,8
India,Maharashtra,Mumbai,"Shivaji Nagar, Mumbai - BMC",06-08-2024 01:00:00,19.060498,72.923356,OZONE,NA,NA,NA
India,Maharashtra,Mumbai,"Sion, Mumbai - MPCB",06-08-2024 01:00:00,19.047000,72.874600,NH3,1,1,1
India,Maharashtra,Mumbai,"Sion, Mumbai - MPCB",06-08-2024 01:00:00,19.047000,72.874600,CO,21,30,27
India,Maharashtra,Mumbai,"Vasai West, Mumbai - MPCB",06-08-2024 01:00:00,19.383200,72.820400,PM2.5,15,30,22
India,Maharashtra,Mumbai,"Vasai West, Mumbai - MPCB",06-08-2024 01:00:00,19.383200,72.820400,CO,10,16,14
India,Maharashtra,Mumbai,"Vasai West, Mumbai - MPCB",06-08-2024 01:00:00,19.383200,72.820400,OZONE,6,8,7
India,Maharashtra,Mumbai,"Vile Parle West, Mumbai - MPCB",06-08-2024 01:00:00,19.10861,72.83622,PM2.5,NA,NA,NA
India,Maharashtra,Mumbai,"Vile Parle West, Mumbai - MPCB",06-08-2024 01:00:00,19.10861,72.83622,NH3,NA,NA,NA
India,Maharashtra,Mumbai,"Worli, Mumbai - MPCB",06-08-2024 01:00:00,18.9936162,72.8128113,PM2.5,6,10,7
India,Maharashtra,Nagpur,"Ambazari, Nagpur - MPCB",06-08-2024 01:00:00,21.121801,79.04952,PM10,19,60,43
India,Maharashtra,Nagpur,"Ambazari, Nagpur - MPCB",06-08-2024 01:00:00,21.121801,79.04952,CO,10,50,34
India,Maharashtra,Nagpur,"Mahal, Nagpur - MPCB",06-08-2024 01:00:00,21.14472,79.107595,PM10,10,36,25
India,Maharashtra,Nagpur,"Opp GPO Civil Lines, Nagpur - MPCB",06-08-2024 01:00:00,21.152875,79.0517531,NO2,10,33,21
India,Maharashtra,Nanded,"Sneh Nagar, Nanded - MPCB",06-08-2024 01:00:00,19.173852,77.296291,SO2,5,8,6
India,Maharashtra,Nanded,"Sneh Nagar, Nanded - MPCB",06-08-2024 01:00:00,19.173852,77.296291,CO,18,31,24
India,Maharashtra,Nashik,"Gangapur Road, Nashik - MPCB",06-08-2024 01:00:00,20.0073285,73.7762427,PM10,3,42,21
India,Maharashtra,Nashik,"Gangapur Road, Nashik - MPCB",06-08-2024 01:00:00,20.0073285,73.7762427,SO2,2,8,5
India,Maharashtra,Nashik,"Hirawadi, Nashik - MPCB",06-08-2024 01:00:00,20.021503,73.813844,OZONE,8,31,16
India,Maharashtra,Nashik,"MIDC Ambad, Nashik - MPCB",06-08-2024 01:00:00,19.950220,73.731480,NO2,7,12,9
India,Maharashtra,Nashik,"MIDC Ambad, Nashik - MPCB",06-08-2024 01:00:00,19.950220,73.731480,SO2,1,7,5
India,Maharashtra,Nashik,"MIDC Ambad, Nashik - MPCB",06-08-2024 01:00:00,19.950220,73.731480,OZONE,14,20,16
India,Maharashtra,Nashik,"Pandav Nagari, Nashik - MPCB",06-08-2024 01:00:00,19.9591346,73.7788008,CO,14,20,18
India,Maharashtra,Nashik,"Pandav Nagari, Nashik - MPCB",06-08-2024 01:00:00,19.9591346,73.7788008,OZONE,14,27,18
India,Maharashtra,Navi Mumbai,"Nerul, Navi Mumbai - MPCB",06-08-2024 01:00:00,19.008751,73.016620,PM2.5,13,28,20
India,Maharashtra,Navi Mumbai,"Nerul, Navi Mumbai - MPCB",06-08-2024 01:00:00,19.008751,73.016620,NH3,3,4,3
India,Maharashtra,Navi Mumbai,"Nerul, Navi Mumbai - MPCB",06-08-2024 01:00:00,19.008751,73.016620,SO2,8,8,8
India,Maharashtra,Navi Mumbai,"Nerul, Navi Mumbai - MPCB",06-08-2024 01:00:00,19.008751,73.016620,CO,12,18,17
India,Maharashtra,Navi Mumbai,"Sector-19A Nerul, Navi Mumbai - IITM",06-08-2024 01:00:00,19.044,73.0325,NO2,5,14,10
India,Maharashtra,Navi Mumbai,"Sector-19A Nerul, Navi Mumbai - IITM",06-08-2024 01:00:00,19.044,73.0325,CO,44,81,66
India,Maharashtra,Navi Mumbai,"Sector-2E Kalamboli, Navi Mumbai - MPCB",06-08-2024 01:00:00,19.02579,73.10297,NO2,7,48,16
India,Maharashtra,Navi Mumbai,"Sector-2E Kalamboli, Navi Mumbai - MPCB",06-08-2024 01:00:00,19.02579,73.10297,SO2,1,16,7
India,Maharashtra,Navi Mumbai,"Sector-2E Kalamboli, Navi Mumbai - MPCB",06-08-2024 01:00:00,19.02579,73.10297,OZONE,1,13,2
India,Maharashtra,Navi Mumbai,"Tondare-Taloja, Navi Mumbai - MPCB",06-08-2024 01:00:00,19.0630,73.1209,PM2.5,10,34,21
India,Maharashtra,Parbhani,"Masoom Colony, Parbhani - MPCB",06-08-2024 01:00:00,19.265594,76.761463,PM10,22,47,33
India,Maharashtra,Parbhani,"Masoom Colony, Parbhani - MPCB",06-08-2024 01:00:00,19.265594,76.761463,CO,24,32,28
India,Maharashtra,Pimpri-Chinchwad,"Gavalinagar, Pimpri Chinchwad - MPCB",06-08-2024 01:00:00,18.63673,73.82487,PM2.5,14,33,21
India,Maharashtra,Pimpri-Chinchwad,"Gavalinagar, Pimpri Chinchwad - MPCB",06-08-2024 01:00:00,18.63673,73.82487,NH3,4,4,4
India,Maharashtra,Pimpri-Chinchwad,"Gavalinagar, Pimpri Chinchwad - MPCB",06-08-2024 01:00:00,18.63673,73.82487,SO2,2,3,2
India,Maharashtra,Pimpri-Chinchwad,"Gavalinagar, Pimpri Chinchwad - MPCB",06-08-2024 01:00:00,18.63673,73.82487,OZONE,1,17,6
India,Maharashtra,Pimpri-Chinchwad,"Park Street Wakad, Pimpri Chinchwad - MPCB",06-08-2024 01:00:00,18.59051,73.77946,SO2,1,5,2
India,Maharashtra,Pimpri-Chinchwad,"Savta Mali Nagar, Pimpri-Chinchwad - IITM",06-08-2024 01:00:00,18.614767,73.799516,OZONE,1,13,5
India,Maharashtra,Pimpri-Chinchwad,"Thergaon, Pimpri Chinchwad - MPCB",06-08-2024 01:00:00,18.616318,73.765797,PM10,2,18,6
India,Maharashtra,Pune,"Bhumkar Nagar, Pune - IITM",06-08-2024 01:00:00,18.605770,73.749976,PM10,17,60,38
India,Maharashtra,Pune,"Karve Road, Pune - MPCB",06-08-2024 01:00:00,18.5011743,73.8165527,NO2,1,9,4
India,Maharashtra,Pune,"Katraj Dairy, Pune - MPCB",06-08-2024 01:00:00,18.454450,73.854155,SO2,1,1,1
India,Maharashtra,Pune,"Panchawati_Pashan, Pune - IITM",06-08-2024 01:00:00,18.536457,73.805454,NO2,NA,NA,NA
India,Maharashtra,Pune,"Revenue Colony-Shivajinagar, Pune - IITM",06-08-2024 01:00:00,18.530085,73.849598,PM10,20,89,43
India,Maharashtra,Pune,"Revenue Colony-Shivajinagar, Pune - IITM",06-08-2024 01:00:00,18.530085,73.849598,CO,70,100,88
India,Maharashtra,Pune,"Revenue Colony-Shivajinagar, Pune - IITM",06-08-2024 01:00:00,18.530085,73.849598,OZONE,9,36,25
India,Maharashtra,Pune,"Savitribai Phule Pune University, Pune - MPCB",06-08-2024 01:00:00,18.547056,73.826908,PM2.5,9,27,17
India,Maharashtra,Pune,"Savitribai Phule Pune University, Pune - MPCB",06-08-2024 01:00:00,18.547056,73.826908,PM10,31,45,37
India,Maharashtra,Pune,"Savitribai Phule Pune University, Pune - MPCB",06-08-2024 01:00:00,18.547056,73.826908,NO2,10,28,19
India,Maharashtra,Pune,"Savitribai Phule Pune University, Pune - MPCB",06-08-2024 01:00:00,18.547056,73.826908,NH3,2,5,3
India,Maharashtra,Sangli,"Vijay Nagar, Sangli - MPCB",06-08-2024 01:00:00, 16.5038,74.3623,PM10,14,26,20
India,Maharashtra,Solapur,"Dnyaneshwar Nagar, Solapur - MPCB",06-08-2024 01:00:00,17.6336264,75.9132495,PM2.5,11,28,19
India,Maharashtra,Solapur,"Dnyaneshwar Nagar, Solapur - MPCB",06-08-2024 01:00:00,17.6336264,75.9132495,SO2,2,2,2
India,Maharashtra,Solapur,"Ratandeep Housing Society, Solapur - MPCB",06-08-2024 01:00:00,17.65439,75.90649,NH3,2,8,4
India,Maharashtra,Thane,"Pimpleshwar Mandir, Thane - MPCB",06-08-2024 01:00:00,19.192056,72.9585188,PM10,24,47,37
India,Maharashtra,Thane,"Pimpleshwar Mandir, Thane - MPCB",06-08-2024 01:00:00,19.192056,72.9585188,SO2,1,12,3
India,Maharashtra,Ulhasnagar,"Sidhi Vinayak Nagar, Ulhasnagar - MPCB",06-08-2024 01:00:00,19.235581,73.159121,CO,16,58,41
India,Maharashtra,Virar,"Bolinj, Virar - MPCB",06-08-2024 01:00:00,19.4458210,72.7988231,CO,10,64,42
India,Manipur,Imphal,"Manipur University, Imphal - Manipur PCB",06-08-2024 01:00:00,24.7524239,93.9286218,PM2.5,NA,NA,NA
India,Meghalaya,Shillong,"Lumpyngngad, Shillong - Meghalaya PCB",06-08-2024 01:00:00,25.5586,91.8985,OZONE,1,29,9
India,Mizoram,Aizawl,"Sikulpuikawn, Aizawl - Mizoram PCB",06-08-2024 01:00:00,23.7176342,92.7192841,PM10,8,54,25
India,Mizoram,Aizawl,"Sikulpuikawn, Aizawl - Mizoram PCB",06-08-2024 01:00:00,23.7176342,92.7192841,CO,7,14,11
India,Odisha,Angul,"Hakimapada, Angul - OSPCB",06-08-2024 01:00:00,20.832874,85.104082,CO,NA,NA,NA
India,Odisha,Balasore,"Kalidaspur, Balasore - OSPCB",06-08-2024 01:00:00,21.51161,86.89088,PM10,8,109,47
India,Odisha,Balasore,"Kalidaspur, Balasore - OSPCB",06-08-2024 01:00:00,21.51161,86.89088,NH3,1,1,1
India,Odisha,Balasore,"Kalidaspur, Balasore - OSPCB",06-08-2024 01:00:00,21.51161,86.89088,CO,72,88,79
India,Odisha,Barbil,"Forest Office, Barbil - OSPCB",06-08-2024 01:00:00,22.1166054,85.3945546,SO2,2,10,6
India,Odisha,Baripada,"Meher Colony, Baripada - OSPCB",06-08-2024 01:00:00,21.941841,86.728318,OZONE,31,83,55
India,Odisha,Bhubaneswar,"Lingraj Mandir, Bhubaneswar - OSPCB",06-08-2024 01:00:00,20.240790,85.836784,NO2,3,14,7
India,Odisha,Bhubaneswar,"Lingraj Mandir, Bhubaneswar - OSPCB",06-08-2024 01:00:00,20.240790,85.836784,NH3,3,4,3
India,Odisha,Bhubaneswar,"Lingraj Mandir, Bhubaneswar - OSPCB",06-08-2024 01:00:00,20.240790,85.836784,SO2,10,73,22
India,Odisha,Bileipada,"Tata Township, Bileipada - OSPCB",06-08-2024 01:00:00,22.06156703,85.47409613,NH3,11,12,11
India,Odisha,Bileipada,"Tata Township, Bileipada - OSPCB",06-08-2024 01:00:00,22.06156703,85.47409613,CO,9,37,12
India,Odisha,Brajrajnagar,"GM Office, Brajrajnagar - OSPCB",06-08-2024 01:00:00,21.8004996,83.8396977,PM10,4,50,20
India,Odisha,Keonjhar,"Jagamohanpur, Keonjhar - OSPCB",06-08-2024 01:00:00,21.643900,85.599355,SO2,8,15,10
India,Odisha,Keonjhar,"Jagamohanpur, Keonjhar - OSPCB",06-08-2024 01:00:00,21.643900,85.599355,CO,20,124,114
India,Odisha,Nayagarh,"Dabuna, Nayagarh - OSPCB",06-08-2024 01:00:00,21.847279,85.416905,PM2.5,8,31,19
India,Odisha,Nayagarh,"Dabuna, Nayagarh - OSPCB",06-08-2024 01:00:00,21.847279,85.416905,SO2,2,4,3
India,Odisha,Rourkela,"Raghunathpali, Rourkela - OSPCB",06-08-2024 01:00:00,22.220833,84.809444,PM10,12,69,43
India,Odisha,Rourkela,"Sector-2, Rourkela - OSPCB",06-08-2024 01:00:00,22.24500000,84.88111111,CO,8,29,17
India,Odisha,Suakati,"OMC Colony, Suakati - OSPCB",06-08-2024 01:00:00,21.606865,85.510538,NO2,15,20,16
India,Odisha,Talcher,"Talcher Coalfields,Talcher - OSPCB",06-08-2024 01:00:00,20.9360711,85.1707021,CO,60,122,89
India,Odisha,Tensa,"Barsua Iron Ore Mines, Tensa - OSPCB",06-08-2024 01:00:00,21.869985,85.167016,CO,7,22,9
India,Punjab,Amritsar,"Golden Temple, Amritsar - PPCB",06-08-2024 01:00:00,31.620000,74.876512,SO2,6,9,8
India,Punjab,Jalandhar,"Civil Line, Jalandhar - PPCB",06-08-2024 01:00:00,31.321907,75.578914,PM10,36,74,51
India,Punjab,Jalandhar,"Civil Line, Jalandhar - PPCB",06-08-2024 01:00:00,31.321907,75.578914,CO,13,24,19
India,Punjab,Khanna,"Kalal Majra, Khanna - PPCB",06-08-2024 01:00:00,30.736056 ,76.209694,PM10,45,84,67
India,Punjab,Khanna,"Kalal Majra, Khanna - PPCB",06-08-2024 01:00:00,30.736056 ,76.209694,SO2,5,12,7
India,Punjab,Ludhiana,"Punjab Agricultural University, Ludhiana - PPCB",06-08-2024 01:00:00,30.9028,75.8086,CO,16,78,49
India,Punjab,Mandi Gobindgarh,"RIMT University, Mandi Gobindgarh - PPCB",06-08-2024 01:00:00,30.649961,76.331442,PM2.5,33,172,83
India,Punjab,Mandi Gobindgarh,"RIMT University, Mandi Gobindgarh - PPCB",06-08-2024 01:00:00,30.649961,76.331442,OZONE,47,51,50
India,Rajasthan,Ajmer,"Civil Lines,  Ajmer - RSPCB",06-08-2024 01:00:00,26.470859,74.646594,PM2.5,23,65,32
India,Rajasthan,Ajmer,"Civil Lines,  Ajmer - RSPCB",06-08-2024 01:00:00,26.470859,74.646594,NO2,11,14,12
India,Rajasthan,Ajmer,"Civil Lines,  Ajmer - RSPCB",06-08-2024 01:00:00,26.470859,74.646594,OZONE,7,33,9
India,Rajasthan,Alwar,"Moti Doongri, Alwar - RSPCB",06-08-2024 01:00:00,27.554793,76.611536,CO,20,46,40
India,Rajasthan,Baran,"Bamboliya, Baran - RSPCB",06-08-2024 01:00:00,25.106006,76.469948,PM2.5,NA,NA,NA
India,Rajasthan,Baran,"Bamboliya, Baran - RSPCB",06-08-2024 01:00:00,25.106006,76.469948,CO,NA,NA,NA
India,Rajasthan,Barmer,"Railway Colony, Barmer - RSPCB",06-08-2024 01:00:00,25.747299,71.393989,PM10,20,54,36
India,Rajasthan,Barmer,"Railway Colony, Barmer - RSPCB",06-08-2024 01:00:00,25.747299,71.393989,NO2,2,8,5
India,Rajasthan,Bhiwadi,"RIICO Ind. Area III, Bhiwadi - RSPCB",06-08-2024 01:00:00,28.194909,76.862296,OZONE,16,52,34
India,Rajasthan,Bikaner,"MM Ground, Bikaner - RSPCB",06-08-2024 01:00:00,28.018792,73.292658,PM2.5,2,264,88
India,Rajasthan,Bikaner,"MM Ground, Bikaner - RSPCB",06-08-2024 01:00:00,28.018792,73.292658,NO2,7,43,20
India,Rajasthan,Bundi,"New Colony, Bundi - RSPCB",06-08-2024 01:00:00,25.435774,75.644272,SO2,1,3,2
India,Rajasthan,Bundi,"New Colony, Bundi - RSPCB",06-08-2024 01:00:00,25.435774,75.644272,OZONE,17,37,22
India,Rajasthan,Churu,"Subash Chowk, Churu - RSPCB",06-08-2024 01:00:00,28.296139,74.961696,PM2.5,10,70,35
India,Rajasthan,Dausa,"Khatikan Mohalla, Dausa - RSPCB",06-08-2024 01:00:00,26.895552,76.334753,NH3,2,5,4
India,Rajasthan,Dungarpur,"Bhoiwada, Dungarpur - RSPCB",06-08-2024 01:00:00,23.837789,73.714926,PM2.5,40,87,62
India,Rajasthan,Hanumangarh,"Housing Board, Hanumangarh - RSPCB",06-08-2024 01:00:00,29.610750,74.283608,PM10,40,83,63
India,Rajasthan,Hanumangarh,"Housing Board, Hanumangarh - RSPCB",06-08-2024 01:00:00,29.610750,74.283608,NO2,NA,NA,NA
India,Rajasthan,Jaipur,"Mansarovar Sector-12, Jaipur - RSPCB",06-08-2024 01:00:00,26.843698,75.766894,SO2,3,14,5
India,Rajasthan,Jaipur,"Police Commissionerate, Jaipur - RSPCB",06-08-2024 01:00:00,26.9164092,75.7994901,NH3,2,3,2
India,Rajasthan,Jaipur,"Police Commissionerate, Jaipur - RSPCB",06-08-2024 01:00:00,26.9164092,75.7994901,SO2,7,45,23
India,Rajasthan,Jaipur,"RIICO Sitapura, Jaipur - RSPCB",06-08-2024 01:00:00,26.786682,75.827928,PM10,20,31,26
India,Rajasthan,Jaipur,"RIICO Sitapura, Jaipur - RSPCB",06-08-2024 01:00:00,26.786682,75.827928,NH3,2,3,3
India,Rajasthan,Jaipur,"RIICO Sitapura, Jaipur - RSPCB",06-08-2024 01:00:00,26.786682,75.827928,OZONE,16,62,38
India,Rajasthan,Jaipur,"Sector-2 Murlipura, Jaipur - RSPCB",06-08-2024 01:00:00,26.960669,75.771817,NH3,NA,NA,NA
India,Rajasthan,Jaipur,"Shastri Nagar, Jaipur - RSPCB",06-08-2024 01:00:00,26.9502929,75.730943,PM2.5,19,40,27
India,Rajasthan,Jaipur,"Shastri Nagar, Jaipur - RSPCB",06-08-2024 01:00:00,26.9502929,75.730943,SO2,9,43,23
India,Rajasthan,Jaipur,"Shastri Nagar, Jaipur - RSPCB",06-08-2024 01:00:00,26.9502929,75.730943,CO,18,60,44
India,Rajasthan,Jalore,"Mudtra Sili, Jalore - RSPCB",06-08-2024 01:00:00,25.344694,72.626208,PM2.5,7,41,20
India,Rajasthan,Jalore,"Mudtra Sili, Jalore - RSPCB",06-08-2024 01:00:00,25.344694,72.626208,PM10,11,62,28
India,Rajasthan,Jhunjhunu,"Indra Nagar, Jhunjhunu - RSPCB",06-08-2024 01:00:00,28.108988,75.386577,SO2,3,4,3
India,Rajasthan,Jhunjhunu,"Indra Nagar, Jhunjhunu - RSPCB",06-08-2024 01:00:00,28.108988,75.386577,CO,46,105,85
India,Rajasthan,Jodhpur,"Collectorate, Jodhpur - RSPCB",06-08-2024 01:00:00,26.268249,73.0193853,SO2,1,11,6
India,Rajasthan,Jodhpur,"Digari Kalan, Jodhpur - RSPCB",06-08-2024 01:00:00,26.295810,73.082283,PM2.5,3,25,11
India,Rajasthan,Jodhpur,"Digari Kalan, Jodhpur - RSPCB",06-08-2024 01:00:00,26.295810,73.082283,SO2,1,5,4
India,Rajasthan,Jodhpur,"Digari Kalan, Jodhpur - RSPCB",06-08-2024 01:00:00,26.295810,73.082283,CO,14,29,25
India,Rajasthan,Jodhpur,"Jhalamand, Jodhpur - RSPCB",06-08-2024 01:00:00,26.215415,73.070156,NH3,2,3,3
India,Rajasthan,Jodhpur,"Jhalamand, Jodhpur - RSPCB",06-08-2024 01:00:00,26.215415,73.070156,CO,6,18,7
India,Rajasthan,Jodhpur,"Mandor, Jodhpur - RSPCB",06-08-2024 01:00:00,26.358805,73.047444,NO2,NA,NA,NA
India,Rajasthan,Jodhpur,"Mandor, Jodhpur - RSPCB",06-08-2024 01:00:00,26.358805,73.047444,NH3,NA,NA,NA
India,Rajasthan,Jodhpur,"Mandor, Jodhpur - RSPCB",06-08-2024 01:00:00,26.358805,73.047444,OZONE,14,43,43
India,Rajasthan,Jodhpur,"Samrat Ashok Udhyan, Jodhpur - RSPCB",06-08-2024 01:00:00,26.253384,72.976571,NO2,1,5,3
India,Rajasthan,Jodhpur,"Samrat Ashok Udhyan, Jodhpur - RSPCB",06-08-2024 01:00:00,26.253384,72.976571,NH3,2,4,3
India,Rajasthan,Karauli,"Satyawati Vihar, Karauli - RSPCB",06-08-2024 01:00:00,26.506177,77.025989,PM2.5,NA,NA,NA
India,Rajasthan,Kota,"Shrinath Puram, Kota - RSPCB",06-08-2024 01:00:00,25.14389,75.821256,NH3,NA,NA,NA
India,Rajasthan,Kota,"Shrinath Puram, Kota - RSPCB",06-08-2024 01:00:00,25.14389,75.821256,SO2,4,10,8
India,Rajasthan,Kota,"Shrinath Puram, Kota - RSPCB",06-08-2024 01:00:00,25.14389,75.821256,CO,8,83,36
India,Rajasthan,Nagaur,"Karni Colony, Nagaur - RSPCB",06-08-2024 01:00:00,27.213494,73.734444,SO2,4,9,6
India,Rajasthan,Pali,"Indira Colony Vistar, Pali - RSPCB",06-08-2024 01:00:00,25.771061, 73.340227,PM10,NA,NA,NA
India,Rajasthan,Pali,"Indira Colony Vistar, Pali - RSPCB",06-08-2024 01:00:00,25.771061, 73.340227,SO2,NA,NA,NA
India,Rajasthan,Pali,"Indira Colony Vistar, Pali - RSPCB",06-08-2024 01:00:00,25.771061, 73.340227,CO,NA,NA,NA
India,Rajasthan,Pratapgarh,"Pragati Nagar, Pratapgarh - RSPCB",06-08-2024 01:00:00,24.041198,74.780702,PM2.5,7,26,16
India,Rajasthan,Rajsamand,"Dhoinda, Rajsamand - RSPCB",06-08-2024 01:00:00,25.036360,73.883502,PM10,23,57,38
India,Rajasthan,Rajsamand,"Dhoinda, Rajsamand - RSPCB",06-08-2024 01:00:00,25.036360,73.883502,NH3,2,4,3
India,Rajasthan,Sikar,"Radhakishan Pura, Sikar - RSPCB",06-08-2024 01:00:00,27.608912,75.153302,SO2,1,2,1
India,Rajasthan,Sirohi,"Vedhaynath Colony, Sirohi - RSPCB",06-08-2024 01:00:00,24.885261,72.857549,NO2,1,9,4
India,Rajasthan,Sirohi,"Vedhaynath Colony, Sirohi - RSPCB",06-08-2024 01:00:00,24.885261,72.857549,OZONE,4,26,20
India,Rajasthan,Sri Ganganagar,"Old City, Sri Ganganagar - RSPCB",06-08-2024 01:00:00,29.931624,73.864511,OZONE,7,75,19
India,Rajasthan,Tonk,"Shastri Nagar, Tonk - RSPCB",06-08-2024 01:00:00,26.159933,75.780517,NO2,3,16,6
India,Sikkim,Gangtok,"Zero Point GICI, Gangtok - SSPCB",06-08-2024 01:00:00,27.338530,88.614099,PM2.5,6,13,9
India,Sikkim,Gangtok,"Zero Point GICI, Gangtok - SSPCB",06-08-2024 01:00:00,27.338530,88.614099,PM10,4,17,11
India,Sikkim,Gangtok,"Zero Point GICI, Gangtok - SSPCB",06-08-2024 01:00:00,27.338530,88.614099,SO2,12,12,12
India,TamilNadu,Ariyalur,"Keelapalur, Ariyalur - TNPCB",06-08-2024 01:00:00,11.06825,79.07033,NO2,NA,NA,NA
India,TamilNadu,Chennai,"Alandur Bus Depot, Chennai - CPCB",06-08-2024 01:00:00,12.9099161,80.1076538,SO2,1,30,6
India,TamilNadu,Chennai,"Arumbakkam, Chennai - TNPCB",06-08-2024 01:00:00,13.0664,80.2112 ,SO2,5,9,6
India,TamilNadu,Chennai,"Manali, Chennai - CPCB",06-08-2024 01:00:00,13.164544,80.26285,PM10,5,407,43
India,TamilNadu,Chennai,"Manali, Chennai - CPCB",06-08-2024 01:00:00,13.164544,80.26285,NO2,7,8,7
India,TamilNadu,Chennai,"Manali, Chennai - CPCB",06-08-2024 01:00:00,13.164544,80.26285,NH3,5,6,5
India,TamilNadu,Chennai,"Manali, Chennai - CPCB",06-08-2024 01:00:00,13.164544,80.26285,CO,46,122,114
India,TamilNadu,Chennai,"Perungudi, Chennai - TNPCB",06-08-2024 01:00:00,12.9533,80.2357,NH3,3,4,4
India,TamilNadu,Chennai,"Perungudi, Chennai - TNPCB",06-08-2024 01:00:00,12.9533,80.2357,SO2,1,7,4
India,TamilNadu,Chennai,"Perungudi, Chennai - TNPCB",06-08-2024 01:00:00,12.9533,80.2357,OZONE,6,17,11
India,TamilNadu,Chennai,"Velachery Res. Area, Chennai - CPCB",06-08-2024 01:00:00,13.0052189,80.2398125,PM2.5,15,32,26
India,TamilNadu,Coimbatore,"PSG College of Arts and Science, Coimbatore - TNPCB",06-08-2024 01:00:00,11.0328,77.0349,PM2.5,NA,NA,NA
India,TamilNadu,Coimbatore,"PSG College of Arts and Science, Coimbatore - TNPCB",06-08-2024 01:00:00,11.0328,77.0349,SO2,NA,NA,NA
India,TamilNadu,Cuddalore,"Semmandalam, Cuddalore - TNPCB",06-08-2024 01:00:00,11.7637683,79.7499835,NH3,NA,NA,NA
India,TamilNadu,Gummidipoondi,"Anthoni Pillai Nagar, Gummidipoondi - TNPCB",06-08-2024 01:00:00,13.4127,80.1081,NH3,1,4,3
India,TamilNadu,Gummidipoondi,"Anthoni Pillai Nagar, Gummidipoondi - TNPCB",06-08-2024 01:00:00,13.4127,80.1081,SO2,3,74,13
India,TamilNadu,Ooty,"Bombay Castel, Ooty - TNPCB",06-08-2024 01:00:00,11.4068288,76.7138973,SO2,NA,NA,NA
India,TamilNadu,Thoothukudi,"Meelavittan, Thoothukudi - TNPCB",06-08-2024 01:00:00,8.816428 ,78.099039,NO2,16,24,20
India,Telangana,Hyderabad,"Bollaram Industrial Area, Hyderabad - TSPCB",06-08-2024 01:00:00,17.540891,78.358528,NO2,12,30,17
India,Telangana,Hyderabad,"Central University, Hyderabad - TSPCB",06-08-2024 01:00:00,17.460103,78.334361,OZONE,3,4,4
India,Telangana,Hyderabad,"IDA Pashamylaram, Hyderabad - TSPCB",06-08-2024 01:00:00,17.5316895,78.218939,PM2.5,5,140,32
India,Telangana,Hyderabad,"IDA Pashamylaram, Hyderabad - TSPCB",06-08-2024 01:00:00,17.5316895,78.218939,NO2,28,55,41
India,Telangana,Hyderabad,"IDA Pashamylaram, Hyderabad - TSPCB",06-08-2024 01:00:00,17.5316895,78.218939,NH3,NA,NA,NA
India,Telangana,Hyderabad,"IITH Kandi, Hyderabad - TSPCB",06-08-2024 01:00:00,17.585705,78.126199,NH3,NA,NA,NA
India,Telangana,Hyderabad,"Kokapet, Hyderabad - TSPCB",06-08-2024 01:00:00,17.393559,78.339194,PM2.5,48,94,67
India,Telangana,Hyderabad,"Kokapet, Hyderabad - TSPCB",06-08-2024 01:00:00,17.393559,78.339194,SO2,7,9,8
India,Telangana,Hyderabad,"Kompally Municipal Office, Hyderabad - TSPCB",06-08-2024 01:00:00,17.544899,78.486949,NO2,NA,NA,NA
India,Telangana,Hyderabad,"Nacharam_TSIIC IALA, Hyderabad - TSPCB",06-08-2024 01:00:00,17.429398,78.569354,PM10,NA,NA,NA
India,Telangana,Hyderabad,"Nacharam_TSIIC IALA, Hyderabad - TSPCB",06-08-2024 01:00:00,17.429398,78.569354,NO2,NA,NA,NA
India,Telangana,Hyderabad,"New Malakpet, Hyderabad - TSPCB",06-08-2024 01:00:00,17.37206,78.50864,PM10,NA,NA,NA
India,Telangana,Hyderabad,"New Malakpet, Hyderabad - TSPCB",06-08-2024 01:00:00,17.37206,78.50864,NO2,NA,NA,NA
India,Telangana,Hyderabad,"New Malakpet, Hyderabad - TSPCB",06-08-2024 01:00:00,17.37206,78.50864,CO,16,40,25
India,Telangana,Hyderabad,"Ramachandrapuram, Hyderabad - TSPCB",06-08-2024 01:00:00,17.528544,78.286195,PM2.5,NA,NA,NA
India,Telangana,Hyderabad,"Ramachandrapuram, Hyderabad - TSPCB",06-08-2024 01:00:00,17.528544,78.286195,NO2,NA,NA,NA
India,Telangana,Hyderabad,"Ramachandrapuram, Hyderabad - TSPCB",06-08-2024 01:00:00,17.528544,78.286195,NH3,NA,NA,NA
India,Telangana,Hyderabad,"Ramachandrapuram, Hyderabad - TSPCB",06-08-2024 01:00:00,17.528544,78.286195,CO,22,30,29
India,Telangana,Hyderabad,"Ramachandrapuram, Hyderabad - TSPCB",06-08-2024 01:00:00,17.528544,78.286195,OZONE,23,56,34
India,Telangana,Hyderabad,"Somajiguda, Hyderabad - TSPCB",06-08-2024 01:00:00,17.417094,78.457437,NH3,NA,NA,NA
India,Telangana,Hyderabad,"Zoo Park, Hyderabad - TSPCB",06-08-2024 01:00:00,17.349694,78.451437,NO2,6,16,12
India,Telangana,Hyderabad,"Zoo Park, Hyderabad - TSPCB",06-08-2024 01:00:00,17.349694,78.451437,OZONE,16,28,18
India,Uttar_Pradesh,Agra,"Manoharpur, Agra - UPPCB",06-08-2024 01:00:00,27.23711,78.01936,NO2,18,18,18
India,Uttar_Pradesh,Agra,"Manoharpur, Agra - UPPCB",06-08-2024 01:00:00,27.23711,78.01936,NH3,2,2,2
India,Uttar_Pradesh,Agra,"Rohta, Agra - UPPCB",06-08-2024 01:00:00,27.106972,78.000111,PM2.5,2,16,5
India,Uttar_Pradesh,Agra,"Sanjay Palace, Agra - UPPCB",06-08-2024 01:00:00,27.19865833,78.00598056,NO2,2,3,2
India,Uttar_Pradesh,Agra,"Sector-3B Avas Vikas Colony, Agra - UPPCB",06-08-2024 01:00:00,27.19412,77.96237,PM10,4,22,15
India,Uttar_Pradesh,Agra,"Sector-3B Avas Vikas Colony, Agra - UPPCB",06-08-2024 01:00:00,27.19412,77.96237,SO2,NA,NA,NA
India,Uttar_Pradesh,Agra,"Shastripuram, Agra - UPPCB",06-08-2024 01:00:00,27.19862,77.92066,PM2.5,1,25,11
India,Uttar_Pradesh,Baghpat,"Sardar Patel Inter College, Baghpat - UPPCB",06-08-2024 01:00:00,28.964949,77.278761,PM2.5,2,15,7
India,Uttar_Pradesh,Bareilly,"Rajendra Nagar, Bareilly - UPPCB",06-08-2024 01:00:00,28.38910936,79.42963708,NO2,1,2,2
India,Uttar_Pradesh,Bareilly,"Rajendra Nagar, Bareilly - UPPCB",06-08-2024 01:00:00,28.38910936,79.42963708,NH3,1,1,1
India,Uttar_Pradesh,Bareilly,"Rajendra Nagar, Bareilly - UPPCB",06-08-2024 01:00:00,28.38910936,79.42963708,SO2,19,20,20
India,Uttar_Pradesh,Firozabad,"Vibhab Nagar, Firozabad - UPPCB",06-08-2024 01:00:00,27.1594,78.3953,NO2,14,14,14
India,Uttar_Pradesh,Ghaziabad,"Indirapuram, Ghaziabad - UPPCB",06-08-2024 01:00:00,28.646233,77.358075,PM2.5,16,55,30
India,Uttar_Pradesh,Ghaziabad,"Sanjay Nagar, Ghaziabad - UPPCB",06-08-2024 01:00:00,28.685382,77.453839,NH3,5,12,8
India,Uttar_Pradesh,Ghaziabad,"Vasundhara, Ghaziabad - UPPCB",06-08-2024 01:00:00,28.6603346,77.3572563,PM2.5,17,55,33
India,Uttar_Pradesh,Ghaziabad,"Vasundhara, Ghaziabad - UPPCB",06-08-2024 01:00:00,28.6603346,77.3572563,NH3,4,6,5
India,Uttar_Pradesh,Ghaziabad,"Vasundhara, Ghaziabad - UPPCB",06-08-2024 01:00:00,28.6603346,77.3572563,CO,8,152,27
India,Uttar_Pradesh,Gorakhpur,"Madan Mohan Malaviya University of Technology, Gorakhpur - UPPCB",06-08-2024 01:00:00,26.730136,83.433859,NO2,11,11,11
India,Uttar_Pradesh,Gorakhpur,"Madan Mohan Malaviya University of Technology, Gorakhpur - UPPCB",06-08-2024 01:00:00,26.730136,83.433859,SO2,22,24,23
India,Uttar_Pradesh,Greater Noida,"Knowledge Park - III, Greater Noida - UPPCB",06-08-2024 01:00:00,28.47272,77.482000,PM2.5,14,60,35
India,Uttar_Pradesh,Greater Noida,"Knowledge Park - III, Greater Noida - UPPCB",06-08-2024 01:00:00,28.47272,77.482000,OZONE,12,58,36
India,Uttar_Pradesh,Greater Noida,"Knowledge Park - V, Greater Noida - UPPCB",06-08-2024 01:00:00,28.557054,77.453663,PM10,63,159,105
India,Uttar_Pradesh,Greater Noida,"Knowledge Park - V, Greater Noida - UPPCB",06-08-2024 01:00:00,28.557054,77.453663,NH3,3,5,3
India,Uttar_Pradesh,Hapur,"Anand Vihar, Hapur - UPPCB",06-08-2024 01:00:00,28.725645,77.749675,PM2.5,10,46,27
India,Uttar_Pradesh,Hapur,"Anand Vihar, Hapur - UPPCB",06-08-2024 01:00:00,28.725645,77.749675,PM10,14,44,28
India,Uttar_Pradesh,Hapur,"Anand Vihar, Hapur - UPPCB",06-08-2024 01:00:00,28.725645,77.749675,NO2,8,26,15
India,Uttar_Pradesh,Hapur,"Anand Vihar, Hapur - UPPCB",06-08-2024 01:00:00,28.725645,77.749675,SO2,12,36,23
India,Uttar_Pradesh,Jhansi,"Shivaji Nagar, Jhansi - UPPCB",06-08-2024 01:00:00,25.4547,78.6039,OZONE,1,6,4
India,Uttar_Pradesh,Kanpur,"FTI Kidwai Nagar, Kanpur - UPPCB",06-08-2024 01:00:00,26.428282,80.327067,CO,17,30,29
India,Uttar_Pradesh,Kanpur,"Nehru Nagar, Kanpur - UPPCB",06-08-2024 01:00:00,26.4703136,80.3229863,CO,71,86,75
India,Uttar_Pradesh,Khurja,"Kalindi Kunj, Khurja - UPPCB",06-08-2024 01:00:00,28.2348927,77.8683002,PM10,20,143,69
India,Uttar_Pradesh,Khurja,"Kalindi Kunj, Khurja - UPPCB",06-08-2024 01:00:00,28.2348927,77.8683002,NH3,1,1,1
India,Uttar_Pradesh,Lucknow,"Gomti Nagar, Lucknow - UPPCB",06-08-2024 01:00:00,26.868120,81.005119,PM10,2,57,25
India,Uttar_Pradesh,Lucknow,"Gomti Nagar, Lucknow - UPPCB",06-08-2024 01:00:00,26.868120,81.005119,SO2,NA,NA,NA
India,Uttar_Pradesh,Lucknow,"Kendriya Vidyalaya, Lucknow - CPCB",06-08-2024 01:00:00,26.906111,80.948222,PM10,21,50,30
India,Uttar_Pradesh,Lucknow,"Kendriya Vidyalaya, Lucknow - CPCB",06-08-2024 01:00:00,26.906111,80.948222,OZONE,2,16,7
India,Uttar_Pradesh,Lucknow,"Kukrail Picnic Spot-1, Lucknow - UPPCB",06-08-2024 01:00:00,26.90723,80.98579,PM10,10,37,22
India,Uttar_Pradesh,Lucknow,"Kukrail Picnic Spot-1, Lucknow - UPPCB",06-08-2024 01:00:00,26.90723,80.98579,NH3,3,3,3
India,Uttar_Pradesh,Lucknow,"Lalbagh, Lucknow - CPCB",06-08-2024 01:00:00,26.8458805,80.9365541,PM2.5,5,170,49
India,Uttar_Pradesh,Lucknow,"Lalbagh, Lucknow - CPCB",06-08-2024 01:00:00,26.8458805,80.9365541,SO2,2,19,9
India,Uttar_Pradesh,Meerut,"Ganga Nagar, Meerut - UPPCB",06-08-2024 01:00:00,28.999264,77.7590354,PM10,10,55,34
India,Uttar_Pradesh,Meerut,"Ganga Nagar, Meerut - UPPCB",06-08-2024 01:00:00,28.999264,77.7590354,NH3,13,26,20
India,Uttar_Pradesh,Meerut,"Jai Bhim Nagar, Meerut - UPPCB",06-08-2024 01:00:00,28.9535882,77.7622941,CO,16,32,28
India,Uttar_Pradesh,Moradabad,"Buddhi Vihar, Moradabad - UPPCB",06-08-2024 01:00:00,28.83526,78.74460,SO2,17,23,20
India,Uttar_Pradesh,Moradabad,"Buddhi Vihar, Moradabad - UPPCB",06-08-2024 01:00:00,28.83526,78.74460,OZONE,7,15,9
India,Uttar_Pradesh,Moradabad,"Eco Herbal Park, Moradabad - UPPCB",06-08-2024 01:00:00,28.840739,78.697531,NH3,6,36,13
India,Uttar_Pradesh,Moradabad,"Eco Herbal Park, Moradabad - UPPCB",06-08-2024 01:00:00,28.840739,78.697531,SO2,8,20,14
India,Uttar_Pradesh,Moradabad,"Employment Office, Moradabad - UPPCB",06-08-2024 01:00:00,28.88528,78.73880,NO2,17,17,17
India,Uttar_Pradesh,Moradabad,"Employment Office, Moradabad - UPPCB",06-08-2024 01:00:00,28.88528,78.73880,NH3,3,3,3
India,Uttar_Pradesh,Moradabad,"Jigar Colony, Moradabad - UPPCB",06-08-2024 01:00:00,28.856664,78.772638,PM10,18,52,31
India,Uttar_Pradesh,Moradabad,"Jigar Colony, Moradabad - UPPCB",06-08-2024 01:00:00,28.856664,78.772638,NO2,14,16,15
India,Uttar_Pradesh,Moradabad,"Jigar Colony, Moradabad - UPPCB",06-08-2024 01:00:00,28.856664,78.772638,SO2,8,11,9
India,Uttar_Pradesh,Moradabad,"Kashiram Nagar, Moradabad - UPPCB",06-08-2024 01:00:00,28.849399,78.742362,PM10,26,51,38
India,Uttar_Pradesh,Moradabad,"Transport Nagar, Moradabad - UPPCB",06-08-2024 01:00:00,28.802625,78.753728,NO2,4,5,4
India,Uttar_Pradesh,Moradabad,"Transport Nagar, Moradabad - UPPCB",06-08-2024 01:00:00,28.802625,78.753728,CO,26,42,40
India,Uttar_Pradesh,Muzaffarnagar,"New Mandi, Muzaffarnagar - UPPCB",06-08-2024 01:00:00,29.4723508,77.7194031,CO,10,28,26
India,Uttar_Pradesh,Noida,"Sector - 125, Noida - UPPCB",06-08-2024 01:00:00,28.5447608,77.3231257,NH3,2,10,6
India,Uttar_Pradesh,Noida,"Sector - 62, Noida - IMD",06-08-2024 01:00:00,28.6245479,77.3577104,PM2.5,18,54,33
India,Uttar_Pradesh,Noida,"Sector - 62, Noida - IMD",06-08-2024 01:00:00,28.6245479,77.3577104,NO2,10,11,11
India,Uttar_Pradesh,Noida,"Sector - 62, Noida - IMD",06-08-2024 01:00:00,28.6245479,77.3577104,CO,20,34,28
India,Uttar_Pradesh,Noida,"Sector-1, Noida - UPPCB",06-08-2024 01:00:00,28.5898,77.3101,PM10,29,72,45
India,Uttar_Pradesh,Noida,"Sector-1, Noida - UPPCB",06-08-2024 01:00:00,28.5898,77.3101,NH3,5,7,6
India,Uttar_Pradesh,Noida,"Sector-116, Noida - UPPCB",06-08-2024 01:00:00,28.569230,77.393848,NH3,8,10,9
India,Uttar_Pradesh,Noida,"Sector-116, Noida - UPPCB",06-08-2024 01:00:00,28.569230,77.393848,SO2,6,23,15
India,Uttar_Pradesh,Prayagraj,"Jhunsi, Prayagraj - UPPCB",06-08-2024 01:00:00,25.425602,81.917152,NH3,5,5,5
India,Uttar_Pradesh,Prayagraj,"Motilal Nehru NIT, Prayagraj - UPPCB",06-08-2024 01:00:00,25.494,81.863,NO2,11,13,12
India,Uttar_Pradesh,Prayagraj,"Nagar Nigam, Prayagraj - UPPCB",06-08-2024 01:00:00,25.44919916 ,81.82735986 ,NH3,4,4,4
India,Uttar_Pradesh,Prayagraj,"Nagar Nigam, Prayagraj - UPPCB",06-08-2024 01:00:00,25.44919916 ,81.82735986 ,OZONE,11,12,11
India,Uttar_Pradesh,Varanasi,"Ardhali Bazar, Varanasi - UPPCB",06-08-2024 01:00:00,25.3505986,82.9083074,PM2.5,18,74,37
India,Uttar_Pradesh,Varanasi,"Ardhali Bazar, Varanasi - UPPCB",06-08-2024 01:00:00,25.3505986,82.9083074,PM10,24,98,49
India,Uttarakhand,Dehradun,"Doon University, Dehradun - UKPCB",06-08-2024 01:00:00,30.269444,78.044167,OZONE,6,36,24
India,Uttarakhand,Kashipur,"Govt. Girls Inter College, Kashipur - UKPCB",06-08-2024 01:00:00,29.2124114,78.9611753,NO2,5,7,6
India,West_Bengal,Asansol,"Asansol Court Area, Asansol - WBPCB",06-08-2024 01:00:00,23.685297,86.945968,OZONE,11,41,23
India,West_Bengal,Asansol,"Evelyn Lodge, Asansol - WBPCB",06-08-2024 01:00:00,23.6979360,86.9443950,PM2.5,9,72,42
India,West_Bengal,Asansol,"Evelyn Lodge, Asansol - WBPCB",06-08-2024 01:00:00,23.6979360,86.9443950,SO2,2,5,3
India,West_Bengal,Asansol,"Evelyn Lodge, Asansol - WBPCB",06-08-2024 01:00:00,23.6979360,86.9443950,CO,10,60,18
India,West_Bengal,Asansol,"Trivenidevi Bhalotia College, Asansol - WBPCB",06-08-2024 01:00:00,23.616515,87.119133,NO2,4,24,9
India,West_Bengal,Asansol,"Trivenidevi Bhalotia College, Asansol - WBPCB",06-08-2024 01:00:00,23.616515,87.119133,OZONE,10,65,26
India,West_Bengal,Durgapur,"Sidhu Kanhu Indoor Stadium, Durgapur - WBPCB",06-08-2024 01:00:00,23.5404352,87.2892225,SO2,9,53,26
India,West_Bengal,Durgapur,"Sidhu Kanhu Indoor Stadium, Durgapur - WBPCB",06-08-2024 01:00:00,23.5404352,87.2892225,CO,16,73,38
India,West_Bengal,Howrah,"Belur Math, Howrah - WBPCB",06-08-2024 01:00:00,22.629801,88.352017,PM10,32,75,53
India,West_Bengal,Howrah,"Belur Math, Howrah - WBPCB",06-08-2024 01:00:00,22.629801,88.352017,NO2,34,37,36
India,West_Bengal,Howrah,"Belur Math, Howrah - WBPCB",06-08-2024 01:00:00,22.629801,88.352017,CO,10,28,25
India,West_Bengal,Howrah,"Padmapukur, Howrah - WBPCB",06-08-2024 01:00:00,22.5687319,88.2797276,OZONE,12,21,15
India,West_Bengal,Kolkata,"Ballygunge, Kolkata - WBPCB",06-08-2024 01:00:00,22.5367507,88.3638022,PM2.5,NA,NA,NA
India,West_Bengal,Kolkata,"Ballygunge, Kolkata - WBPCB",06-08-2024 01:00:00,22.5367507,88.3638022,SO2,NA,NA,NA
India,West_Bengal,Kolkata,"Ballygunge, Kolkata - WBPCB",06-08-2024 01:00:00,22.5367507,88.3638022,OZONE,25,25,25
India,West_Bengal,Kolkata,"Bidhannagar, Kolkata - WBPCB",06-08-2024 01:00:00,22.58157048,88.41002457,PM10,26,60,38
India,West_Bengal,Kolkata,"Bidhannagar, Kolkata - WBPCB",06-08-2024 01:00:00,22.58157048,88.41002457,SO2,6,12,9
India,West_Bengal,Kolkata,"Fort William, Kolkata - WBPCB",06-08-2024 01:00:00,22.556640,88.342674,PM2.5,18,56,34
India,West_Bengal,Kolkata,"Fort William, Kolkata - WBPCB",06-08-2024 01:00:00,22.556640,88.342674,PM10,39,56,46
India,West_Bengal,Kolkata,"Jadavpur, Kolkata - WBPCB",06-08-2024 01:00:00,22.49929,88.36917,PM2.5,14,42,33
India,West_Bengal,Kolkata,"Rabindra Bharati University, Kolkata - WBPCB",06-08-2024 01:00:00,22.627847,88.380669,CO,24,34,28
India,West_Bengal,Kolkata,"Rabindra Sarobar, Kolkata - WBPCB",06-08-2024 01:00:00,22.51106,88.35142,PM10,26,48,36
India,West_Bengal,Kolkata,"Victoria, Kolkata - WBPCB",06-08-2024 01:00:00,22.5448082,88.3403691,PM2.5,27,48,36
India,West_Bengal,Kolkata,"Victoria, Kolkata - WBPCB",06-08-2024 01:00:00,22.5448082,88.3403691,PM10,50,66,58
India,West_Bengal,Kolkata,"Victoria, Kolkata - WBPCB",06-08-2024 01:00:00,22.5448082,88.3403691,CO,13,28,23
India,West_Bengal,Kolkata,"Victoria, Kolkata - WBPCB",06-08-2024 01:00:00,22.5448082,88.3403691,OZONE,6,23,11
India,West_Bengal,Siliguri,"Ward-32 Bapupara, Siliguri - WBPCB",06-08-2024 01:00:00,26.6879226,88.4152495,PM10,21,49,36
India,West_Bengal,Siliguri,"Ward-32 Bapupara, Siliguri - WBPCB",06-08-2024 01:00:00,26.6879226,88.4152495,NO2,18,20,19
India,Andhra_Pradesh,Anantapur,"Gulzarpet, Anantapur - APPCB",06-08-2024 01:00:00,14.675886,77.593027,PM2.5,34,64,46
India,Andhra_Pradesh,Anantapur,"Gulzarpet, Anantapur - APPCB",06-08-2024 01:00:00,14.675886,77.593027,NH3,5,5,5
India,Andhra_Pradesh,Chittoor,"Gangineni Cheruvu, Chittoor - APPCB",06-08-2024 01:00:00,13.204880,79.097889,SO2,NA,NA,NA
India,Andhra_Pradesh,Kadapa,"Yerramukkapalli, Kadapa - APPCB",06-08-2024 01:00:00,14.465052,78.824187,NH3,1,1,1
India,Andhra_Pradesh,Rajamahendravaram,"Anand Kala Kshetram, Rajamahendravaram - APPCB",06-08-2024 01:00:00,16.9872867,81.7363176,NH3,3,5,3
India,Andhra_Pradesh,Tirupati,"Tirumala, Tirupati - APPCB",06-08-2024 01:00:00,13.67,79.35,NO2,12,32,20
India,Andhra_Pradesh,Tirupati,"Vaikuntapuram, Tirupati - APPCB",06-08-2024 01:00:00,13.615387,79.409230,NH3,2,3,2
India,Andhra_Pradesh,Vijayawada,"HB Colony, Vijayawada - APPCB",06-08-2024 01:00:00,16.536107,80.594233,PM2.5,40,62,47
India,Andhra_Pradesh,Vijayawada,"Rajiv Gandhi Park, Vijayawada - APPCB",06-08-2024 01:00:00,16.509717,80.612222,PM2.5,31,70,51
India,Andhra_Pradesh,Vijayawada,"Rajiv Gandhi Park, Vijayawada - APPCB",06-08-2024 01:00:00,16.509717,80.612222,SO2,7,10,9
India,Andhra_Pradesh,Vijayawada,"Rajiv Nagar, Vijayawada - APPCB",06-08-2024 01:00:00,16.554731,80.649110,PM2.5,28,32,29
India,Assam,Byrnihat,"Central Academy for SFS, Byrnihat - PCBA",06-08-2024 01:00:00,26.071318,91.87488,NO2,10,28,17
India,Assam,Guwahati,"IITG, Guwahati - PCBA",06-08-2024 01:00:00,26.2028636,91.70046436,CO,6,11,8
India,Assam,Guwahati,"IITG, Guwahati - PCBA",06-08-2024 01:00:00,26.2028636,91.70046436,OZONE,7,32,17
India,Assam,Guwahati,"LGBI Airport, Guwahati - PCBA",06-08-2024 01:00:00,26.10887,91.589544,CO,34,54,41
India,Assam,Guwahati,"Railway Colony, Guwahati - PCBA",06-08-2024 01:00:00,26.181742,91.78063,SO2,3,3,3
India,Assam,Nagaon,"Christianpatty, Nagaon - PCBA",06-08-2024 01:00:00,26.349082,92.68449,NH3,1,2,1
India,Assam,Silchar,"Tarapur, Silchar - PCBA",06-08-2024 01:00:00,24.82827,92.79525,PM2.5,37,40,38
India,Assam,Sivasagar,"Girls College, Sivasagar - PCBA",06-08-2024 01:00:00,26.987634,94.636574,OZONE,1,5,2
India,Bihar,Aurangabad,"Gurdeo Nagar, Aurangabad - BSPCB",06-08-2024 01:00:00,24.75746,84.366208,CO,26,37,34
India,Bihar,Bettiah,"Kamalnath Nagar, Bettiah - BSPCB",06-08-2024 01:00:00,26.80365,84.51954,SO2,NA,NA,NA
India,Bihar,Bhagalpur,"DM Office_Kachari Chowk, Bhagalpur - BSPCB",06-08-2024 01:00:00,25.251013,86.989001,NH3,NA,NA,NA
India,Bihar,Bhagalpur,"Mayaganj, Bhagalpur - BSPCB",06-08-2024 01:00:00,25.265194,87.012947,PM2.5,103,315,210
India,Bihar,Buxar,"Charitra Van, Buxar - BSPCB (Formerly known as Central Jail)",06-08-2024 01:00:00,25.567520,83.966379,NH3,1,2,1
India,Bihar,Chhapra,"Darshan Nagar, Chhapra - BSPCB",06-08-2024 01:00:00,25.7808257,84.7446768,PM2.5,10,68,28
India,Bihar,Gaya,"Collectorate, Gaya - BSPCB",06-08-2024 01:00:00,24.7955,84.9994,PM2.5,22,132,56
India,Bihar,Gaya,"Collectorate, Gaya - BSPCB",06-08-2024 01:00:00,24.7955,84.9994,SO2,5,17,9
India,Bihar,Gaya,"Kareemganj, Gaya - BSPCB",06-08-2024 01:00:00,24.792403,84.992416,PM2.5,10,413,87
India,Bihar,Gaya,"Kareemganj, Gaya - BSPCB",06-08-2024 01:00:00,24.792403,84.992416,NO2,17,25,21
India,Bihar,Gaya,"Kareemganj, Gaya - BSPCB",06-08-2024 01:00:00,24.792403,84.992416,SO2,8,15,13
India,Bihar,Hajipur,"Industrial Area, Hajipur - BSPCB",06-08-2024 01:00:00,25.697189,85.245900,PM2.5,39,142,83
India,Bihar,Hajipur,"Industrial Area, Hajipur - BSPCB",06-08-2024 01:00:00,25.697189,85.245900,PM10,46,112,78
India,Bihar,Hajipur,"Industrial Area, Hajipur - BSPCB",06-08-2024 01:00:00,25.697189,85.245900,NH3,10,16,14
India,Bihar,Katihar,"Mirchaibari, Katihar - BSPCB",06-08-2024 01:00:00,25.560083,87.553265,SO2,7,15,10
India,Bihar,Kishanganj,"SDM Office_Khagra, Kishanganj - BSPCB",06-08-2024 01:00:00,26.0881305,87.93840336,PM10,13,218,95
India,Bihar,Kishanganj,"SDM Office_Khagra, Kishanganj - BSPCB",06-08-2024 01:00:00,26.0881305,87.93840336,SO2,2,21,14
India,Bihar,Kishanganj,"SDM Office_Khagra, Kishanganj - BSPCB",06-08-2024 01:00:00,26.0881305,87.93840336,CO,8,8,8
India,Bihar,Motihari,"Gandak Colony, Motihari - BSPCB",06-08-2024 01:00:00,26.63086,84.90051,PM2.5,27,223,75
India,Bihar,Motihari,"Gandak Colony, Motihari - BSPCB",06-08-2024 01:00:00,26.63086,84.90051,CO,26,44,34
India,Bihar,Munger,"Town Hall, Munger - BSPCB",06-08-2024 01:00:00,25.376776,86.471523,OZONE,2,5,2
India,Bihar,Muzaffarpur,"Buddha Colony, Muzaffarpur - BSPCB",06-08-2024 01:00:00,26.11442,85.39813,NO2,6,22,11
India,Bihar,Muzaffarpur,"Buddha Colony, Muzaffarpur - BSPCB",06-08-2024 01:00:00,26.11442,85.39813,SO2,2,8,5
India,Bihar,Muzaffarpur,"Buddha Colony, Muzaffarpur - BSPCB",06-08-2024 01:00:00,26.11442,85.39813,CO,18,36,27
India,Bihar,Muzaffarpur,"Muzaffarpur Collectorate, Muzaffarpur - BSPCB",06-08-2024 01:00:00,26.1209,85.3647,PM2.5,15,103,50
India,Bihar,Patna,"Govt. High School Shikarpur, Patna - BSPCB",06-08-2024 01:00:00,25.592539,85.227158,NH3,4,5,5
India,Bihar,Patna,"Govt. High School Shikarpur, Patna - BSPCB",06-08-2024 01:00:00,25.592539,85.227158,CO,53,96,74
India,Bihar,Patna,"Muradpur, Patna - BSPCB",06-08-2024 01:00:00,25.619651,85.147382,PM2.5,34,72,50
India,Bihar,Patna,"Muradpur, Patna - BSPCB",06-08-2024 01:00:00,25.619651,85.147382,NO2,11,29,18
India,Bihar,Patna,"Muradpur, Patna - BSPCB",06-08-2024 01:00:00,25.619651,85.147382,SO2,5,7,6
India,Bihar,Patna,"Rajbansi Nagar, Patna - BSPCB",06-08-2024 01:00:00,25.599486,85.113666,NO2,13,72,38
India,Bihar,Patna,"Rajbansi Nagar, Patna - BSPCB",06-08-2024 01:00:00,25.599486,85.113666,OZONE,2,18,8
India,Bihar,Patna,"Samanpura, Patna - BSPCB",06-08-2024 01:00:00,25.596727,85.085624,PM2.5,55,110,79
India,Bihar,Purnia,"Mariam Nagar, Purnia - BSPCB",06-08-2024 01:00:00,25.366336,87.117468,CO,25,68,43
India,Bihar,Rajgir,"Dangi Tola, Rajgir - BSPCB",06-08-2024 01:00:00,25.03280,85.41948,SO2,4,4,4
India,Bihar,Samastipur,"DM Office_Kasipur, Samastipur - BSPCB",06-08-2024 01:00:00,25.859655,85.77944,PM10,2,147,52
India,Bihar,Samastipur,"DM Office_Kasipur, Samastipur - BSPCB",06-08-2024 01:00:00,25.859655,85.77944,CO,88,108,102
India,Bihar,Sasaram,"Dada Peer, Sasaram - BSPCB",06-08-2024 01:00:00,24.952822,84.002396,PM2.5,5,25,13
India,Bihar,Sasaram,"Dada Peer, Sasaram - BSPCB",06-08-2024 01:00:00,24.952822,84.002396,NO2,9,10,9
India,Chandigarh,Chandigarh,"Sector 22, Chandigarh - CPCC",06-08-2024 01:00:00,30.735567,76.775714,CO,19,59,44
India,Chandigarh,Chandigarh,"Sector 22, Chandigarh - CPCC",06-08-2024 01:00:00,30.735567,76.775714,OZONE,16,50,32
India,Chandigarh,Chandigarh,"Sector-53, Chandigarh - CPCC",06-08-2024 01:00:00,30.719859,76.738637,OZONE,14,44,26
India,Chhattisgarh,Bhilai,"32Bungalows, Bhilai - CECB",06-08-2024 01:00:00,21.194815,81.314770,OZONE,6,7,7
India,Chhattisgarh,Bhilai,"Civic Center, Bhilai - Bhilai Steel Plant",06-08-2024 01:00:00,21.185571,81.343175,NO2,7,8,8
India,Chhattisgarh,Korba,"Urja Nagar, Korba - CECB",06-08-2024 01:00:00,22.348441,82.549611,NO2,15,27,23
India,Chhattisgarh,Raipur,"Krishak Nagar, Raipur - CECB",06-08-2024 01:00:00,21.237755,81.705301,NO2,5,5,5
India,Chhattisgarh,Tumidih,"OP Jindal Industrial Park, Tumidih - CECB",06-08-2024 01:00:00,22.06631475,83.33820077,NO2,6,35,19
India,Delhi,Delhi,"Alipur, Delhi - DPCC",06-08-2024 01:00:00,28.815329,77.153010,PM2.5,3,50,29
India,Delhi,Delhi,"Alipur, Delhi - DPCC",06-08-2024 01:00:00,28.815329,77.153010,PM10,20,74,35
India,Delhi,Delhi,"Alipur, Delhi - DPCC",06-08-2024 01:00:00,28.815329,77.153010,SO2,2,12,7
India,Delhi,Delhi,"Anand Vihar, Delhi - DPCC",06-08-2024 01:00:00,28.647622,77.3158090,PM2.5,35,93,54
India,Delhi,Delhi,"Ashok Vihar, Delhi - DPCC",06-08-2024 01:00:00,28.695381,77.181665,NO2,15,44,25
India,Delhi,Delhi,"Ashok Vihar, Delhi - DPCC",06-08-2024 01:00:00,28.695381,77.181665,NH3,6,15,10
India,Delhi,Delhi,"Bawana, Delhi - DPCC",06-08-2024 01:00:00,28.776200,77.051074,NO2,2,24,11
India,Delhi,Delhi,"Bawana, Delhi - DPCC",06-08-2024 01:00:00,28.776200,77.051074,SO2,12,16,14
India,Delhi,Delhi,"Dr. Karni Singh Shooting Range, Delhi - DPCC",06-08-2024 01:00:00,28.498571,77.264840,NH3,7,9,8
India,Delhi,Delhi,"Dwarka-Sector 8, Delhi - DPCC ",06-08-2024 01:00:00,28.5710274,77.0719006,PM2.5,22,57,36
India,Delhi,Delhi,"Dwarka-Sector 8, Delhi - DPCC ",06-08-2024 01:00:00,28.5710274,77.0719006,PM10,35,86,66
India,Delhi,Delhi,"Dwarka-Sector 8, Delhi - DPCC ",06-08-2024 01:00:00,28.5710274,77.0719006,NO2,16,68,35
India,Delhi,Delhi,"Dwarka-Sector 8, Delhi - DPCC ",06-08-2024 01:00:00,28.5710274,77.0719006,NH3,7,10,8
India,Delhi,Delhi,"IGI Airport (T3), Delhi - IMD",06-08-2024 01:00:00,28.5627763,77.1180053,PM2.5,NA,NA,NA
India,Delhi,Delhi,"IGI Airport (T3), Delhi - IMD",06-08-2024 01:00:00,28.5627763,77.1180053,PM10,NA,NA,NA
India,Delhi,Delhi,"ITO, Delhi - CPCB",06-08-2024 01:00:00,28.628624,77.241060,PM10,19,42,28
India,Delhi,Delhi,"ITO, Delhi - CPCB",06-08-2024 01:00:00,28.628624,77.241060,NH3,9,12,11
India,Delhi,Delhi,"Jahangirpuri, Delhi - DPCC",06-08-2024 01:00:00,28.732820,77.170633,PM10,40,123,74
India,Delhi,Delhi,"Jahangirpuri, Delhi - DPCC",06-08-2024 01:00:00,28.732820,77.170633,NO2,1,26,11
India,Delhi,Delhi,"Jahangirpuri, Delhi - DPCC",06-08-2024 01:00:00,28.732820,77.170633,OZONE,34,39,36
India,Delhi,Delhi,"Jawaharlal Nehru Stadium, Delhi - DPCC",06-08-2024 01:00:00,28.580280,77.233829,PM10,25,70,42
India,Delhi,Delhi,"Jawaharlal Nehru Stadium, Delhi - DPCC",06-08-2024 01:00:00,28.580280,77.233829,SO2,2,14,8
India,Delhi,Delhi,"Lodhi Road, Delhi - IMD",06-08-2024 01:00:00,28.5918245,77.2273074,PM2.5,NA,NA,NA
India,Delhi,Delhi,"Lodhi Road, Delhi - IMD",06-08-2024 01:00:00,28.5918245,77.2273074,PM10,NA,NA,NA
India,Delhi,Delhi,"Major Dhyan Chand National Stadium, Delhi - DPCC",06-08-2024 01:00:00,28.611281,77.237738,NH3,6,11,8
India,Delhi,Delhi,"Major Dhyan Chand National Stadium, Delhi - DPCC",06-08-2024 01:00:00,28.611281,77.237738,SO2,2,11,6
India,Delhi,Delhi,"Mandir Marg, Delhi - DPCC",06-08-2024 01:00:00,28.636429,77.201067,CO,24,48,35
India,Delhi,Delhi,"Mandir Marg, Delhi - DPCC",06-08-2024 01:00:00,28.636429,77.201067,OZONE,2,23,11
India,Delhi,Delhi,"Mundka, Delhi - DPCC",06-08-2024 01:00:00,28.684678,77.076574,PM2.5,10,38,24
India,Delhi,Delhi,"Mundka, Delhi - DPCC",06-08-2024 01:00:00,28.684678,77.076574,SO2,15,19,16
India,Delhi,Delhi,"Mundka, Delhi - DPCC",06-08-2024 01:00:00,28.684678,77.076574,CO,34,52,41
India,Delhi,Delhi,"Mundka, Delhi - DPCC",06-08-2024 01:00:00,28.684678,77.076574,OZONE,5,51,19
India,Delhi,Delhi,"NSIT Dwarka, Delhi - CPCB",06-08-2024 01:00:00,28.60909,77.0325413,NO2,15,29,22
India,Delhi,Delhi,"NSIT Dwarka, Delhi - CPCB",06-08-2024 01:00:00,28.60909,77.0325413,OZONE,8,12,9
India,Delhi,Delhi,"Najafgarh, Delhi - DPCC",06-08-2024 01:00:00,28.570173,76.933762,OZONE,5,27,15
India,Delhi,Delhi,"Narela, Delhi - DPCC",06-08-2024 01:00:00,28.822836,77.101981,SO2,4,11,6
India,Delhi,Delhi,"Nehru Nagar, Delhi - DPCC",06-08-2024 01:00:00,28.567890,77.250515,SO2,1,14,7
India,Delhi,Delhi,"Okhla Phase-2, Delhi - DPCC",06-08-2024 01:00:00,28.530785,77.271255,CO,38,79,64
India,Delhi,Delhi,"Patparganj, Delhi - DPCC",06-08-2024 01:00:00,28.623763,77.287209,PM2.5,15,52,34
India,Delhi,Delhi,"Patparganj, Delhi - DPCC",06-08-2024 01:00:00,28.623763,77.287209,NO2,11,36,18
India,Delhi,Delhi,"Patparganj, Delhi - DPCC",06-08-2024 01:00:00,28.623763,77.287209,OZONE,12,40,22
India,Delhi,Delhi,"Punjabi Bagh, Delhi - DPCC",06-08-2024 01:00:00,28.674045,77.131023,NO2,5,43,19
India,Delhi,Delhi,"Punjabi Bagh, Delhi - DPCC",06-08-2024 01:00:00,28.674045,77.131023,CO,18,45,36
India,Delhi,Delhi,"Pusa, Delhi - DPCC",06-08-2024 01:00:00,28.639652,77.146275,NO2,28,56,35
India,Delhi,Delhi,"R K Puram, Delhi - DPCC",06-08-2024 01:00:00,28.563262,77.186937,NH3,5,9,6
India,Delhi,Delhi,"R K Puram, Delhi - DPCC",06-08-2024 01:00:00,28.563262,77.186937,CO,13,33,25
India,Delhi,Delhi,"Rohini, Delhi - DPCC",06-08-2024 01:00:00,28.732528,77.119920,PM10,36,136,86
India,Delhi,Delhi,"Shadipur, Delhi - CPCB",06-08-2024 01:00:00,28.6514781,77.1473105,PM2.5,55,99,76
India,Delhi,Delhi,"Shadipur, Delhi - CPCB",06-08-2024 01:00:00,28.6514781,77.1473105,NO2,41,67,49
India,Delhi,Delhi,"Sirifort, Delhi - CPCB",06-08-2024 01:00:00,28.5504249,77.2159377,OZONE,6,65,20
India,Delhi,Delhi,"Sonia Vihar, Delhi - DPCC",06-08-2024 01:00:00,28.710508,77.249485,SO2,5,8,6
India,Delhi,Delhi,"Sri Aurobindo Marg, Delhi - DPCC",06-08-2024 01:00:00,28.531346,77.190156,PM2.5,15,55,30
India,Delhi,Delhi,"Vivek Vihar, Delhi - DPCC",06-08-2024 01:00:00,28.672342,77.315260,PM10,33,78,54
India,Delhi,Delhi,"Vivek Vihar, Delhi - DPCC",06-08-2024 01:00:00,28.672342,77.315260,NO2,15,39,24
India,Delhi,Delhi,"Wazirpur, Delhi - DPCC",06-08-2024 01:00:00,28.699793,77.165453,PM2.5,30,65,49
India,Gujarat,Ahmedabad,"Chandkheda, Ahmedabad - IITM",06-08-2024 01:00:00,23.107969,72.574648,NH3,6,10,8
India,Gujarat,Ahmedabad,"Chandkheda, Ahmedabad - IITM",06-08-2024 01:00:00,23.107969,72.574648,SO2,8,25,14
India,Gujarat,Ahmedabad,"Maninagar, Ahmedabad - GPCB",06-08-2024 01:00:00,23.002657,72.591912,CO,24,84,38
India,Gujarat,Ahmedabad,"Raikhad, Ahmedabad - IITM",06-08-2024 01:00:00,23.020509,72.579261,SO2,11,23,19
India,Gujarat,Ahmedabad,"Rakhial, Ahmedabad - IITM",06-08-2024 01:00:00,23.016834,72.625775,PM2.5,24,64,40
India,Gujarat,Ahmedabad,"Rakhial, Ahmedabad - IITM",06-08-2024 01:00:00,23.016834,72.625775,CO,17,27,21
India,Gujarat,Ahmedabad,"SVPI Airport Hansol, Ahmedabad - IITM",06-08-2024 01:00:00,23.076793,72.627874,NO2,35,53,42
India,Gujarat,Ahmedabad,"SVPI Airport Hansol, Ahmedabad - IITM",06-08-2024 01:00:00,23.076793,72.627874,CO,26,46,32
India,Gujarat,Ahmedabad,"Sardar Vallabhbhai Patel Stadium, Ahmedabad - IITM",06-08-2024 01:00:00,23.043070,72.562968,OZONE,11,37,24
India,Gujarat,Ankleshwar,"GIDC, Ankleshwar - GPCB",06-08-2024 01:00:00,21.613267,73.010555,NO2,19,26,22
India,Gujarat,Ankleshwar,"GIDC, Ankleshwar - GPCB",06-08-2024 01:00:00,21.613267,73.010555,NH3,2,3,3
India,Gujarat,Ankleshwar,"GIDC, Ankleshwar - GPCB",06-08-2024 01:00:00,21.613267,73.010555,CO,15,88,58
India,Gujarat,Gandhinagar,"GIFT City, Gandhinagar - IITM",06-08-2024 01:00:00,23.163798,72.677768,PM10,22,73,39
India,Gujarat,Gandhinagar,"Sector-10, Gandhinagar - GPCB",06-08-2024 01:00:00,23.221714,72.654328,PM10,NA,NA,NA
India,Gujarat,Surat,"Science Center, Surat - SMC",06-08-2024 01:00:00,21.170046,72.795405,CO,58,68,67
India,Gujarat,Vapi,"Phase-1 GIDC, Vapi - GPCB",06-08-2024 01:00:00,20.362421,72.918013,NH3,9,10,10
India,Gujarat,Vapi,"Phase-1 GIDC, Vapi - GPCB",06-08-2024 01:00:00,20.362421,72.918013,SO2,39,118,56
India,Gujarat,Vatva,"Phase-4 GIDC, Vatva - GPCB",06-08-2024 01:00:00,22.969611,72.643500,PM2.5,8,92,45
India,Gujarat,Vatva,"Phase-4 GIDC, Vatva - GPCB",06-08-2024 01:00:00,22.969611,72.643500,PM10,44,69,55
India,Gujarat,Vatva,"Phase-4 GIDC, Vatva - GPCB",06-08-2024 01:00:00,22.969611,72.643500,OZONE,4,9,5
India,Haryana,Ambala,"Patti Mehar, Ambala - HSPCB",06-08-2024 01:00:00,30.379589,76.778328,SO2,1,10,6
India,Haryana,Bahadurgarh,"Arya Nagar, Bahadurgarh - HSPCB",06-08-2024 01:00:00,28.6701,76.9254,PM2.5,15,43,27
India,Haryana,Bahadurgarh,"Arya Nagar, Bahadurgarh - HSPCB",06-08-2024 01:00:00,28.6701,76.9254,NO2,20,25,23
India,Haryana,Bahadurgarh,"Arya Nagar, Bahadurgarh - HSPCB",06-08-2024 01:00:00,28.6701,76.9254,SO2,4,9,7
India,Haryana,Ballabgarh,"Nathu Colony, Ballabgarh - HSPCB",06-08-2024 01:00:00,28.3419248,77.319699,NH3,2,3,2
India,Haryana,Ballabgarh,"Nathu Colony, Ballabgarh - HSPCB",06-08-2024 01:00:00,28.3419248,77.319699,OZONE,8,28,18
India,Haryana,Bhiwani,"H.B. Colony, Bhiwani - HSPCB",06-08-2024 01:00:00,28.806223,76.141105,OZONE,10,85,26
India,Haryana,Charkhi Dadri,"Mini Secretariat, Charkhi Dadri - HSPCB",06-08-2024 01:00:00,28.593883,76.270653,PM2.5,19,46,31
India,Haryana,Dharuhera,"Municipal Corporation Office, Dharuhera -  HSPCB",06-08-2024 01:00:00,28.206800,76.799700,NO2,NA,NA,NA
India,Haryana,Dharuhera,"Municipal Corporation Office, Dharuhera -  HSPCB",06-08-2024 01:00:00,28.206800,76.799700,OZONE,10,36,25
India,Haryana,Faridabad,"New Industrial Town, Faridabad - HSPCB",06-08-2024 01:00:00,28.39072,77.30059,PM2.5,20,87,48
India,Haryana,Faridabad,"Sector 11, Faridabad - HSPCB",06-08-2024 01:00:00,28.376058,77.315741,PM2.5,56,66,62
India,Haryana,Faridabad,"Sector 30, Faridabad - HSPCB",06-08-2024 01:00:00,28.4417,77.3217,CO,24,43,33
India,Haryana,Gurugram,"Sector-51, Gurugram - HSPCB",06-08-2024 01:00:00,28.4227,77.0667,PM2.5,NA,NA,NA
India,Haryana,Gurugram,"Teri Gram, Gurugram - HSPCB",06-08-2024 01:00:00,28.4275,77.1465,NH3,1,8,4
India,Haryana,Gurugram,"Teri Gram, Gurugram - HSPCB",06-08-2024 01:00:00,28.4275,77.1465,OZONE,9,33,17
India,Haryana,Gurugram,"Vikas Sadan, Gurugram - HSPCB",06-08-2024 01:00:00,28.4501238,77.0263051,NO2,5,26,15
India,Haryana,Gurugram,"Vikas Sadan, Gurugram - HSPCB",06-08-2024 01:00:00,28.4501238,77.0263051,OZONE,8,67,20
India,Haryana,Jind,"Police Lines, Jind - HSPCB",06-08-2024 01:00:00,29.307814,76.337619,PM10,22,39,28
India,Haryana,Kaithal,"Rishi Nagar, Kaithal - HSPCB",06-08-2024 01:00:00,29.8006,76.4155,NH3,11,12,11
India,Haryana,Kurukshetra,"Sector-7, Kurukshetra - HSPCB",06-08-2024 01:00:00,29.966942,76.875879,NH3,6,6,6
India,Haryana,Kurukshetra,"Sector-7, Kurukshetra - HSPCB",06-08-2024 01:00:00,29.966942,76.875879,SO2,1,77,11
India,Haryana,Kurukshetra,"Sector-7, Kurukshetra - HSPCB",06-08-2024 01:00:00,29.966942,76.875879,OZONE,1,4,2
India,Haryana,Mandikhera,"General Hospital, Mandikhera - HSPCB",06-08-2024 01:00:00,27.9002,76.9938,PM2.5,20,28,23
India,Haryana,Mandikhera,"General Hospital, Mandikhera - HSPCB",06-08-2024 01:00:00,27.9002,76.9938,NO2,18,24,22
India,Haryana,Mandikhera,"General Hospital, Mandikhera - HSPCB",06-08-2024 01:00:00,27.9002,76.9938,NH3,16,19,18
India,Haryana,Mandikhera,"General Hospital, Mandikhera - HSPCB",06-08-2024 01:00:00,27.9002,76.9938,SO2,29,41,34
India,Haryana,Mandikhera,"General Hospital, Mandikhera - HSPCB",06-08-2024 01:00:00,27.9002,76.9938,CO,4,13,7
India,Haryana,Manesar,"Sector-2 IMT, Manesar - HSPCB",06-08-2024 01:00:00,28.360699,76.936090,NH3,NA,NA,NA
India,Haryana,Narnaul,"Shastri Nagar, Narnaul - HSPCB",06-08-2024 01:00:00,28.060249,76.113115,PM10,27,49,41
India,Haryana,Palwal,"Shyam Nagar, Palwal - HSPCB",06-08-2024 01:00:00,28.1485564,77.3320667,NO2,23,25,24
India,Haryana,Panchkula,"Sector-6, Panchkula - HSPCB ",06-08-2024 01:00:00,30.7057778,76.8531805555555,SO2,2,28,6
India,Haryana,Sirsa,"F-Block, Sirsa - HSPCB",06-08-2024 01:00:00,29.536400,75.015800,NH3,9,15,12
India,Haryana,Sonipat,"Murthal, Sonipat - HSPCB",06-08-2024 01:00:00,29.027200,77.062100,OZONE,17,36,23
India,Himachal Pradesh,Baddi,"HIMUDA Complex Phase-1, Baddi - HPPCB",06-08-2024 01:00:00,30.943887,76.801991,SO2,7,9,8
India,Jammu_and_Kashmir,Srinagar,"Rajbagh, Srinagar - JKSPCB",06-08-2024 01:00:00,34.066206,74.819820,NH3,1,1,1
India,Jammu_and_Kashmir,Srinagar,"Rajbagh, Srinagar - JKSPCB",06-08-2024 01:00:00,34.066206,74.819820,CO,12,24,15
India,Karnataka,Belgaum,"Ramteerth Nagar, Belgaum - KSPCB",06-08-2024 01:00:00,15.888653,74.541751,PM2.5,10,42,22
India,Karnataka,Belgaum,"Ramteerth Nagar, Belgaum - KSPCB",06-08-2024 01:00:00,15.888653,74.541751,NO2,11,41,23
India,Karnataka,Belgaum,"Ramteerth Nagar, Belgaum - KSPCB",06-08-2024 01:00:00,15.888653,74.541751,SO2,9,10,10
India,Karnataka,Belgaum,"Ramteerth Nagar, Belgaum - KSPCB",06-08-2024 01:00:00,15.888653,74.541751,OZONE,20,21,20
India,Karnataka,Bengaluru,"BTM Layout, Bengaluru - CPCB",06-08-2024 01:00:00,12.9135218,77.5950804,NO2,31,40,34
India,Karnataka,Bengaluru,"Bapuji Nagar, Bengaluru - KSPCB",06-08-2024 01:00:00,12.951913,77.539784,NO2,15,16,15
India,Karnataka,Bengaluru,"Bapuji Nagar, Bengaluru - KSPCB",06-08-2024 01:00:00,12.951913,77.539784,CO,18,108,63
India,Karnataka,Bengaluru,"Hebbal, Bengaluru - KSPCB",06-08-2024 01:00:00,13.029152,77.585901,SO2,5,13,10
India,Karnataka,Bengaluru,"Hombegowda Nagar, Bengaluru - KSPCB",06-08-2024 01:00:00,12.938539,77.590100,SO2,4,56,8
India,Karnataka,Bengaluru,"Jayanagar 5th Block, Bengaluru - KSPCB",06-08-2024 01:00:00,12.920984,77.584908,SO2,15,27,18
India,Karnataka,Bengaluru,"Jigani, Bengaluru - KSPCB",06-08-2024 01:00:00,12.7816279,77.6299145,OZONE,31,36,35
India,Karnataka,Bengaluru,"Kasturi Nagar, Bengaluru - KSPCB",06-08-2024 01:00:00,13.003872,77.664217,SO2,20,20,20
India,Karnataka,Bengaluru,"Peenya, Bengaluru - CPCB",06-08-2024 01:00:00,13.0270199,77.494094,PM2.5,43,50,45
India,Karnataka,Bengaluru,"RVCE-Mailasandra, Bengaluru - KSPCB",06-08-2024 01:00:00,12.921418,77.502466,PM2.5,33,245,73
India,Karnataka,Bengaluru,"RVCE-Mailasandra, Bengaluru - KSPCB",06-08-2024 01:00:00,12.921418,77.502466,NO2,21,22,22
India,Karnataka,Bengaluru,"Shivapura_Peenya, Bengaluru - KSPCB",06-08-2024 01:00:00,13.0246342,77.5080115,NH3,4,4,4
India,Karnataka,Bidar,"Naubad, Bidar - KSPCB",06-08-2024 01:00:00,17.930306,77.482194,PM10,16,50,31
India,Karnataka,Chamarajanagar,"Urban, Chamarajanagar - KSPCB",06-08-2024 01:00:00,11.55358,76.55521,PM2.5,20,44,30
India,Karnataka,Chamarajanagar,"Urban, Chamarajanagar - KSPCB",06-08-2024 01:00:00,11.55358,76.55521,SO2,2,7,4
India,Karnataka,Chikkaballapur,"Chikkaballapur Rural, Chikkaballapur - KSPCB",06-08-2024 01:00:00,13.428828,77.731418,SO2,9,18,15
India,Karnataka,Dharwad,"Kalabhavan, Dharwad - KSPCB",06-08-2024 01:00:00,15.459706,75.008381,NO2,7,17,11
India,Karnataka,Dharwad,"Kalabhavan, Dharwad - KSPCB",06-08-2024 01:00:00,15.459706,75.008381,SO2,2,8,3
India,Karnataka,Hassan,"B.Katihalli, Hassan - KSPCB",06-08-2024 01:00:00,13.008556,76.125258,NO2,NA,NA,NA
India,Karnataka,Hassan,"B.Katihalli, Hassan - KSPCB",06-08-2024 01:00:00,13.008556,76.125258,SO2,NA,NA,NA
India,Karnataka,Haveri,"Ashwini Nagar, Haveri - KSPCB",06-08-2024 01:00:00,14.791800,75.389600,CO,36,38,37
India,Karnataka,Haveri,"Ashwini Nagar, Haveri - KSPCB",06-08-2024 01:00:00,14.791800,75.389600,OZONE,17,19,18
India,Karnataka,Hubballi,"Deshpande Nagar, Hubballi - KSPCB",06-08-2024 01:00:00,15.351773,75.140726,NH3,2,2,2
India,Karnataka,Hubballi,"Lingaraj Nagar, Hubballi - KSPCB",06-08-2024 01:00:00,15.3714823,75.1160168,OZONE,7,18,7
India,Karnataka,Kalaburagi,"Lal Bahadur Shastri Nagar, Kalaburagi - KSPCB",06-08-2024 01:00:00,17.321993,76.822628,PM2.5,10,32,17
India,Karnataka,Kalaburagi,"Lal Bahadur Shastri Nagar, Kalaburagi - KSPCB",06-08-2024 01:00:00,17.321993,76.822628,NO2,9,12,11
India,Karnataka,Kalaburagi,"Lal Bahadur Shastri Nagar, Kalaburagi - KSPCB",06-08-2024 01:00:00,17.321993,76.822628,OZONE,5,11,8
India,Karnataka,Kalaburagi,"Mahatma Basaveswar Colony, Kalaburgi - KSPCB",06-08-2024 01:00:00,17.336318,76.847397,NO2,8,14,11
India,Karnataka,Kalaburagi,"Mahatma Basaveswar Colony, Kalaburgi - KSPCB",06-08-2024 01:00:00,17.336318,76.847397,CO,22,30,26
India,Karnataka,Karwar,"KHB Colony, Karwar - KSPCB",06-08-2024 01:00:00,14.816666,74.141003,PM2.5,NA,NA,NA
India,Karnataka,Karwar,"KHB Colony, Karwar - KSPCB",06-08-2024 01:00:00,14.816666,74.141003,OZONE,21,22,21
India,Karnataka,Kolar,"Tamaka Ind. Area, Kolar - KSPCB",06-08-2024 01:00:00,13.1276288,78.1570122,SO2,69,77,71
India,Karnataka,Koppal,"Diwator Nagar, Koppal - KSPCB",06-08-2024 01:00:00,15.347630,76.181767,PM2.5,1,20,5
India,Karnataka,Koppal,"Diwator Nagar, Koppal - KSPCB",06-08-2024 01:00:00,15.347630,76.181767,NH3,5,9,7
India,Karnataka,Mangalore,"Kadri, Mangalore - KSPCB",06-08-2024 01:00:00,12.889250,74.853000,PM10,31,55,41
India,Karnataka,Mangalore,"Kadri, Mangalore - KSPCB",06-08-2024 01:00:00,12.889250,74.853000,CO,4,26,20
India,Karnataka,Mysuru,"Hebbal 1st Stage, Mysuru - KSPCB",06-08-2024 01:00:00,12.21041,76.37376,NO2,9,41,24
India,Karnataka,Mysuru,"Hebbal 1st Stage, Mysuru - KSPCB",06-08-2024 01:00:00,12.21041,76.37376,SO2,1,3,2
India,Karnataka,Raichur,"Haji Colony, Raichur - KSPCB",06-08-2024 01:00:00,16.208139,77.348417,PM2.5,2,18,7
India,Karnataka,Raichur,"Haji Colony, Raichur - KSPCB",06-08-2024 01:00:00,16.208139,77.348417,NO2,3,18,11
India,Karnataka,Raichur,"Haji Colony, Raichur - KSPCB",06-08-2024 01:00:00,16.208139,77.348417,CO,100,112,110
India,Karnataka,Shivamogga,"Vinoba Nagara, Shivamogga - KSPCB",06-08-2024 01:00:00,13.940000,75.555917,PM2.5,24,47,32
India,Karnataka,Shivamogga,"Vinoba Nagara, Shivamogga - KSPCB",06-08-2024 01:00:00,13.940000,75.555917,PM10,33,64,44
India,Karnataka,Shivamogga,"Vinoba Nagara, Shivamogga - KSPCB",06-08-2024 01:00:00,13.940000,75.555917,NO2,7,16,10
India,Karnataka,Tumakuru,"Thimmalapura, Tumakuru - KSPCB",06-08-2024 01:00:00,13.377516,77.099072,NO2,NA,NA,NA
India,Karnataka,Tumakuru,"Thimmalapura, Tumakuru - KSPCB",06-08-2024 01:00:00,13.377516,77.099072,NH3,NA,NA,NA
India,Karnataka,Udupi,"Brahmagiri, Udupi - KSPCB",06-08-2024 01:00:00,13.34194444,74.74694444,NO2,24,35,25
India,Karnataka,Udupi,"Brahmagiri, Udupi - KSPCB",06-08-2024 01:00:00,13.34194444,74.74694444,SO2,20,22,21
India,Karnataka,Vijayapura,"Ibrahimpur, Vijayapura - KSPCB",06-08-2024 01:00:00,16.802639,75.722694,PM2.5,22,26,25
India,Karnataka,Vijayapura,"Ibrahimpur, Vijayapura - KSPCB",06-08-2024 01:00:00,16.802639,75.722694,CO,112,134,123
India,Karnataka,Yadgir,"Collector Office, Yadgir - KSPCB",06-08-2024 01:00:00,16.7602,77.1428,PM2.5,22,53,33
India,Karnataka,Yadgir,"Collector Office, Yadgir - KSPCB",06-08-2024 01:00:00,16.7602,77.1428,NH3,1,1,1
India,Karnataka,Yadgir,"Collector Office, Yadgir - KSPCB",06-08-2024 01:00:00,16.7602,77.1428,SO2,8,25,18
India,Kerala,Eloor,"Udyogamandal, Eloor - Kerala PCB",06-08-2024 01:00:00,10.073232,76.302765,SO2,1,3,1
India,Kerala,Eloor,"Udyogamandal, Eloor - Kerala PCB",06-08-2024 01:00:00,10.073232,76.302765,OZONE,10,11,11
India,Kerala,Kollam,"Polayathode, Kollam - Kerala PCB",06-08-2024 01:00:00,8.8787,76.6073,SO2,1,9,4
India,Kerala,Kollam,"Polayathode, Kollam - Kerala PCB",06-08-2024 01:00:00,8.8787,76.6073,CO,14,17,16
India,Kerala,Thiruvananthapuram,"Kariavattom, Thiruvananthapuram - Kerala PCB",06-08-2024 01:00:00,8.563700,76.886500,PM10,53,64,59
India,Kerala,Thiruvananthapuram,"Kariavattom, Thiruvananthapuram - Kerala PCB",06-08-2024 01:00:00,8.563700,76.886500,NH3,1,1,1
India,Kerala,Thiruvananthapuram,"Kariavattom, Thiruvananthapuram - Kerala PCB",06-08-2024 01:00:00,8.563700,76.886500,CO,18,116,45
India,Kerala,Thrissur,"Corporation Ground, Thrissur - Kerala PCB",06-08-2024 01:00:00,10.532400,76.215900,PM10,46,51,49
India,Madhya Pradesh,Bhopal,"Paryavaran Parisar, Bhopal - MPPCB",06-08-2024 01:00:00,23.210494,77.425409,NH3,2,2,2
India,Madhya Pradesh,Bhopal,"Paryavaran Parisar, Bhopal - MPPCB",06-08-2024 01:00:00,23.210494,77.425409,SO2,6,9,7
India,Madhya Pradesh,Bhopal,"Paryavaran Parisar, Bhopal - MPPCB",06-08-2024 01:00:00,23.210494,77.425409,OZONE,20,48,27
India,Madhya Pradesh,Bhopal,"T T Nagar, Bhopal - MPPCB",06-08-2024 01:00:00,23.233584,77.400574,PM10,20,54,32
India,Madhya Pradesh,Bhopal,"T T Nagar, Bhopal - MPPCB",06-08-2024 01:00:00,23.233584,77.400574,OZONE,30,42,37
India,Madhya Pradesh,Dewas,"Bhopal Chauraha, Dewas - MPPCB",06-08-2024 01:00:00,22.9682591,76.064118,PM2.5,22,54,36
India,Madhya Pradesh,Dewas,"Bhopal Chauraha, Dewas - MPPCB",06-08-2024 01:00:00,22.9682591,76.064118,OZONE,12,36,23
India,Madhya Pradesh,Gwalior,"Deen Dayal Nagar, Gwalior - MPPCB",06-08-2024 01:00:00,26.259242,78.216432,SO2,12,14,13
India,Madhya Pradesh,Gwalior,"Maharaj Bada, Gwalior - MPPCB",06-08-2024 01:00:00,26.200388,78.147714,SO2,6,13,9
India,Madhya Pradesh,Gwalior,"Phool Bagh, Gwalior - Mondelez Ind. Food",06-08-2024 01:00:00,26.210536,78.171,PM2.5,16,76,44
India,Madhya Pradesh,Gwalior,"Phool Bagh, Gwalior - Mondelez Ind. Food",06-08-2024 01:00:00,26.210536,78.171,SO2,17,24,18
India,Madhya Pradesh,Indore,"Regional Park, Indore - IMC",06-08-2024 01:00:00,22.6780,75.8559,PM10,NA,NA,NA
India,Madhya Pradesh,Indore,"Regional Park, Indore - IMC",06-08-2024 01:00:00,22.6780,75.8559,CO,13,18,16
India,Madhya Pradesh,Indore,"Residency Area, Indore - IMC",06-08-2024 01:00:00,22.7084,75.8815,NO2,21,26,24
India,Madhya Pradesh,Indore,"Residency Area, Indore - IMC",06-08-2024 01:00:00,22.7084,75.8815,CO,8,9,9
