country,state,city,station,last_update,latitude,longitude,pollutant_id,pollutant_min,pollutant_max,pollutant_avg
India,Andhra_Pradesh,Amaravati,"Secretariat, Amaravati - APPCB",21-04-2024 19:00:00,16.5150833,80.5181667,SO2,10,14,13
India,Andhra_Pradesh,Anantapur,"Gulzarpet, Anantapur - APPCB",21-04-2024 19:00:00,14.675886,77.593027,PM10,65,97,78
India,Andhra_Pradesh,Tirupati,"Tirumala, Tirupati - APPCB",21-04-2024 19:00:00,13.67,79.35,PM2.5,50,98,69
India,Andhra_Pradesh,Tirupati,"Tirumala, Tirupati - APPCB",21-04-2024 19:00:00,13.67,79.35,CO,37,52,44
India,Andhra_Pradesh,Tirupati,"Tirumala, Tirupati - APPCB",21-04-2024 19:00:00,13.67,79.35,OZONE,28,82,65
India,Andhra_Pradesh,Vijayawada,"Rajiv Gandhi Park, Vijayawada - APPCB",21-04-2024 19:00:00,16.509717,80.612222,PM10,NA,NA,NA
India,Andhra_Pradesh,Vijayawada,"Rajiv Gandhi Park, Vijayawada - APPCB",21-04-2024 19:00:00,16.509717,80.612222,NO2,NA,NA,NA
India,Andhra_Pradesh,Vijayawada,"Rajiv Gandhi Park, Vijayawada - APPCB",21-04-2024 19:00:00,16.509717,80.612222,NH3,NA,NA,NA
India,Andhra_Pradesh,Vijayawada,"Rajiv Gandhi Park, Vijayawada - APPCB",21-04-2024 19:00:00,16.509717,80.612222,CO,NA,NA,NA
India,Andhra_Pradesh,Visakhapatnam,"GVM Corporation, Visakhapatnam - APPCB",21-04-2024 19:00:00,17.72,83.3,SO2,7,15,13
India,Andhra_Pradesh,Visakhapatnam,"GVM Corporation, Visakhapatnam - APPCB",21-04-2024 19:00:00,17.72,83.3,CO,8,86,31
India,Assam,Byrnihat,"Central Academy for SFS, Byrnihat - PCBA",21-04-2024 19:00:00,26.071318,91.87488,NO2,43,115,71
India,Assam,Guwahati,"IITG, Guwahati - PCBA",21-04-2024 19:00:00,26.2028636,91.70046436,NO2,NA,NA,NA
India,Assam,Guwahati,"LGBI Airport, Guwahati - PCBA",21-04-2024 19:00:00,26.10887,91.589544,PM10,44,210,88
India,Assam,Guwahati,"Railway Colony, Guwahati - PCBA",21-04-2024 19:00:00,26.181742,91.78063,PM10,NA,NA,NA
India,Assam,Nagaon,"Christianpatty, Nagaon - PCBA",21-04-2024 19:00:00,26.349082,92.68449,NO2,1,27,6
India,Assam,Nalbari,"Bata Chowk, Nalbari - PCBA",21-04-2024 19:00:00,26.446912,91.439057,PM10,40,121,64
India,Assam,Nalbari,"Bata Chowk, Nalbari - PCBA",21-04-2024 19:00:00,26.446912,91.439057,CO,29,70,52
India,Assam,Silchar,"Tarapur, Silchar - PCBA",21-04-2024 19:00:00,24.82827,92.79525,PM10,28,79,43
India,Assam,Silchar,"Tarapur, Silchar - PCBA",21-04-2024 19:00:00,24.82827,92.79525,SO2,3,3,3
India,Assam,Silchar,"Tarapur, Silchar - PCBA",21-04-2024 19:00:00,24.82827,92.79525,CO,18,44,32
India,Assam,Sivasagar,"Girls College, Sivasagar - PCBA",21-04-2024 19:00:00,26.987634,94.636574,PM10,40,66,50
India,Bihar,Bettiah,"Kamalnath Nagar, Bettiah - BSPCB",21-04-2024 19:00:00,26.80365,84.51954,SO2,7,17,12
India,Bihar,Bettiah,"Kamalnath Nagar, Bettiah - BSPCB",21-04-2024 19:00:00,26.80365,84.51954,OZONE,2,14,13
India,Bihar,Bhagalpur,"Mayaganj, Bhagalpur - BSPCB",21-04-2024 19:00:00,25.265194,87.012947,NH3,7,10,9
India,Bihar,Bhagalpur,"Mayaganj, Bhagalpur - BSPCB",21-04-2024 19:00:00,25.265194,87.012947,OZONE,16,93,67
India,Bihar,Bihar Sharif,"D M Colony, Bihar Sharif - BSPCB",21-04-2024 19:00:00,25.204762,85.514960,CO,46,71,53
India,Bihar,Bihar Sharif,"D M Colony, Bihar Sharif - BSPCB",21-04-2024 19:00:00,25.204762,85.514960,OZONE,19,52,23
India,Bihar,Chhapra,"Darshan Nagar, Chhapra - BSPCB",21-04-2024 19:00:00,25.7808257,84.7446768,NO2,19,32,25
India,Bihar,Chhapra,"Darshan Nagar, Chhapra - BSPCB",21-04-2024 19:00:00,25.7808257,84.7446768,CO,41,62,52
India,Bihar,Gaya,"Collectorate, Gaya - BSPCB",21-04-2024 19:00:00,24.7955,84.9994,NO2,1,3,2
India,Bihar,Gaya,"Collectorate, Gaya - BSPCB",21-04-2024 19:00:00,24.7955,84.9994,SO2,7,20,13
India,Bihar,Gaya,"Kareemganj, Gaya - BSPCB",21-04-2024 19:00:00,24.792403,84.992416,CO,12,22,19
India,Bihar,Gaya,"Kareemganj, Gaya - BSPCB",21-04-2024 19:00:00,24.792403,84.992416,OZONE,1,24,2
India,Bihar,Gaya,"SFTI Kusdihra, Gaya - BSPCB",21-04-2024 19:00:00,24.762518,84.982348,PM10,72,129,102
India,Bihar,Hajipur,"Industrial Area, Hajipur - BSPCB",21-04-2024 19:00:00,25.697189,85.245900,PM2.5,41,116,77
India,Bihar,Hajipur,"Industrial Area, Hajipur - BSPCB",21-04-2024 19:00:00,25.697189,85.245900,NO2,50,65,56
India,Bihar,Hajipur,"Industrial Area, Hajipur - BSPCB",21-04-2024 19:00:00,25.697189,85.245900,CO,18,44,21
India,Bihar,Katihar,"Mirchaibari, Katihar - BSPCB",21-04-2024 19:00:00,25.560083,87.553265,PM10,59,181,120
India,Bihar,Katihar,"Mirchaibari, Katihar - BSPCB",21-04-2024 19:00:00,25.560083,87.553265,CO,46,62,53
India,Bihar,Kishanganj,"SDM Office_Khagra, Kishanganj - BSPCB",21-04-2024 19:00:00,26.0881305,87.93840336,PM2.5,25,117,50
India,Bihar,Kishanganj,"SDM Office_Khagra, Kishanganj - BSPCB",21-04-2024 19:00:00,26.0881305,87.93840336,OZONE,25,35,26
India,Bihar,Munger,"Town Hall, Munger - BSPCB",21-04-2024 19:00:00,25.376776,86.471523,PM2.5,75,253,157
India,Bihar,Munger,"Town Hall, Munger - BSPCB",21-04-2024 19:00:00,25.376776,86.471523,NH3,2,2,2
India,Bihar,Muzaffarpur,"Buddha Colony, Muzaffarpur - BSPCB",21-04-2024 19:00:00,26.11442,85.39813,PM2.5,189,359,302
India,Bihar,Muzaffarpur,"Buddha Colony, Muzaffarpur - BSPCB",21-04-2024 19:00:00,26.11442,85.39813,SO2,6,16,9
India,Bihar,Muzaffarpur,"Muzaffarpur Collectorate, Muzaffarpur - BSPCB",21-04-2024 19:00:00,26.1209,85.3647,PM2.5,50,128,73
India,Bihar,Muzaffarpur,"Muzaffarpur Collectorate, Muzaffarpur - BSPCB",21-04-2024 19:00:00,26.1209,85.3647,CO,21,44,28
India,Bihar,Muzaffarpur,"Muzaffarpur Collectorate, Muzaffarpur - BSPCB",21-04-2024 19:00:00,26.1209,85.3647,OZONE,51,92,83
India,Bihar,Patna,"DRM Office Danapur, Patna - BSPCB",21-04-2024 19:00:00,25.586562,85.043586,NO2,7,78,34
India,Bihar,Patna,"DRM Office Danapur, Patna - BSPCB",21-04-2024 19:00:00,25.586562,85.043586,CO,11,52,17
India,Bihar,Patna,"DRM Office Danapur, Patna - BSPCB",21-04-2024 19:00:00,25.586562,85.043586,OZONE,32,64,62
India,Bihar,Patna,"Govt. High School Shikarpur, Patna - BSPCB",21-04-2024 19:00:00,25.592539,85.227158,PM10,144,299,202
India,Bihar,Patna,"Govt. High School Shikarpur, Patna - BSPCB",21-04-2024 19:00:00,25.592539,85.227158,NO2,15,21,18
India,Bihar,Patna,"IGSC Planetarium Complex, Patna - BSPCB",21-04-2024 19:00:00,25.610369,85.132568,SO2,5,5,5
India,Bihar,Patna,"Muradpur, Patna - BSPCB",21-04-2024 19:00:00,25.619651,85.147382,NO2,7,22,13
India,Bihar,Patna,"Samanpura, Patna - BSPCB",21-04-2024 19:00:00,25.596727,85.085624,SO2,6,11,8
India,Bihar,Purnia,"Mariam Nagar, Purnia - BSPCB",21-04-2024 19:00:00,25.366336,87.117468,NH3,6,21,9
India,Bihar,Rajgir,"Dangi Tola, Rajgir - BSPCB",21-04-2024 19:00:00,25.03280,85.41948,SO2,4,5,4
India,Bihar,Samastipur,"DM Office_Kasipur, Samastipur - BSPCB",21-04-2024 19:00:00,25.859655,85.77944,SO2,9,10,10
India,Bihar,Samastipur,"DM Office_Kasipur, Samastipur - BSPCB",21-04-2024 19:00:00,25.859655,85.77944,CO,20,22,20
India,Bihar,Samastipur,"DM Office_Kasipur, Samastipur - BSPCB",21-04-2024 19:00:00,25.859655,85.77944,OZONE,9,19,17
India,Chandigarh,Chandigarh,"Sector-25, Chandigarh - CPCC",21-04-2024 19:00:00,30.751462,76.762879,SO2,7,32,12
India,Chandigarh,Chandigarh,"Sector-25, Chandigarh - CPCC",21-04-2024 19:00:00,30.751462,76.762879,CO,14,31,15
India,Chandigarh,Chandigarh,"Sector-25, Chandigarh - CPCC",21-04-2024 19:00:00,30.751462,76.762879,OZONE,2,44,36
India,Chandigarh,Chandigarh,"Sector-53, Chandigarh - CPCC",21-04-2024 19:00:00,30.719859,76.738637,CO,31,77,36
India,Chhattisgarh,Bhilai,"32Bungalows, Bhilai - CECB",21-04-2024 19:00:00,21.194815,81.314770,PM10,48,84,65
India,Chhattisgarh,Bhilai,"32Bungalows, Bhilai - CECB",21-04-2024 19:00:00,21.194815,81.314770,SO2,3,8,5
India,Chhattisgarh,Bhilai,"32Bungalows, Bhilai - CECB",21-04-2024 19:00:00,21.194815,81.314770,CO,13,24,16
India,Chhattisgarh,Bilaspur,"Mangala, Bilaspur - NTPC",21-04-2024 19:00:00,22.08815,82.13737,NO2,NA,NA,NA
India,Chhattisgarh,Chhal,"Nawapara SECL Colony, Chhal - CECB",21-04-2024 19:00:00,22.118125,83.140608,PM2.5,NA,NA,NA
India,Chhattisgarh,Korba,"Rampur, Korba - CECB",21-04-2024 19:00:00,22.368195,82.746431,CO,17,42,23
India,Chhattisgarh,Korba,"Urja Nagar, Korba - CECB",21-04-2024 19:00:00,22.348441,82.549611,OZONE,NA,NA,NA
India,Chhattisgarh,Milupara,"Govt. Higher Secondary School, Milupara - CECB",21-04-2024 19:00:00,22.1910172,83.5197009,NO2,NA,NA,NA
India,Chhattisgarh,Raipur,"AIIMS, Raipur - CECB",21-04-2024 19:00:00,21.258815,81.578979,PM2.5,24,44,35
India,Chhattisgarh,Raipur,"AIIMS, Raipur - CECB",21-04-2024 19:00:00,21.258815,81.578979,SO2,5,13,8
India,Chhattisgarh,Raipur,"Bhatagaon New ISBT, Raipur - CECB",21-04-2024 19:00:00,21.219665,81.630094,PM2.5,18,58,32
India,Chhattisgarh,Raipur,"Bhatagaon New ISBT, Raipur - CECB",21-04-2024 19:00:00,21.219665,81.630094,PM10,21,97,43
India,Chhattisgarh,Raipur,"Bhatagaon New ISBT, Raipur - CECB",21-04-2024 19:00:00,21.219665,81.630094,NH3,2,2,2
India,Chhattisgarh,Raipur,"Krishak Nagar, Raipur - CECB",21-04-2024 19:00:00,21.237755,81.705301,PM10,25,56,42
India,Chhattisgarh,Raipur,"Krishak Nagar, Raipur - CECB",21-04-2024 19:00:00,21.237755,81.705301,CO,16,30,23
India,Chhattisgarh,Raipur,"Siltara Phase-II, Raipur - CECB",21-04-2024 19:00:00,21.371751,81.664929,PM10,42,146,86
India,Chhattisgarh,Raipur,"Siltara Phase-II, Raipur - CECB",21-04-2024 19:00:00,21.371751,81.664929,NO2,27,52,40
India,Chhattisgarh,Raipur,"Siltara Phase-II, Raipur - CECB",21-04-2024 19:00:00,21.371751,81.664929,NH3,3,3,3
India,Chhattisgarh,Raipur,"Siltara Phase-II, Raipur - CECB",21-04-2024 19:00:00,21.371751,81.664929,SO2,14,82,42
India,Chhattisgarh,Tumidih,"OP Jindal Industrial Park, Tumidih - CECB",21-04-2024 19:00:00,22.06631475,83.33820077,NO2,NA,NA,NA
India,Chhattisgarh,Tumidih,"OP Jindal Industrial Park, Tumidih - CECB",21-04-2024 19:00:00,22.06631475,83.33820077,CO,NA,NA,NA
India,Delhi,Delhi,"Alipur, Delhi - DPCC",21-04-2024 19:00:00,28.815329,77.153010,CO,32,50,37
India,Delhi,Delhi,"Aya Nagar, Delhi - IMD",21-04-2024 19:00:00,28.4706914,77.1099364,NO2,32,36,34
India,Delhi,Delhi,"Bawana, Delhi - DPCC",21-04-2024 19:00:00,28.776200,77.051074,SO2,9,39,18
India,Delhi,Delhi,"Bawana, Delhi - DPCC",21-04-2024 19:00:00,28.776200,77.051074,OZONE,27,119,102
India,Delhi,Delhi,"Burari Crossing, Delhi - IMD",21-04-2024 19:00:00,28.7256504,77.2011573,PM2.5,28,118,69
India,Delhi,Delhi,"Burari Crossing, Delhi - IMD",21-04-2024 19:00:00,28.7256504,77.2011573,NO2,12,26,19
India,Delhi,Delhi,"CRRI Mathura Road, Delhi - IMD",21-04-2024 19:00:00,28.5512005,77.2735737,NO2,9,17,12
India,Delhi,Delhi,"DTU, Delhi - CPCB",21-04-2024 19:00:00,28.7500499,77.1112615,PM2.5,38,258,103
India,Delhi,Delhi,"DTU, Delhi - CPCB",21-04-2024 19:00:00,28.7500499,77.1112615,PM10,73,194,123
India,Delhi,Delhi,"DTU, Delhi - CPCB",21-04-2024 19:00:00,28.7500499,77.1112615,NH3,11,13,12
India,Delhi,Delhi,"DTU, Delhi - CPCB",21-04-2024 19:00:00,28.7500499,77.1112615,SO2,33,43,36
India,Delhi,Delhi,"Dr. Karni Singh Shooting Range, Delhi - DPCC",21-04-2024 19:00:00,28.498571,77.264840,NO2,23,103,55
India,Delhi,Delhi,"Dr. Karni Singh Shooting Range, Delhi - DPCC",21-04-2024 19:00:00,28.498571,77.264840,OZONE,45,212,176
India,Delhi,Delhi,"Dwarka-Sector 8, Delhi - DPCC ",21-04-2024 19:00:00,28.5710274,77.0719006,PM2.5,27,218,78
India,Delhi,Delhi,"Dwarka-Sector 8, Delhi - DPCC ",21-04-2024 19:00:00,28.5710274,77.0719006,OZONE,13,63,57
India,Delhi,Delhi,"IGI Airport (T3), Delhi - IMD",21-04-2024 19:00:00,28.5627763,77.1180053,NO2,19,48,35
India,Delhi,Delhi,"IHBAS, Dilshad Garden, Delhi - CPCB",21-04-2024 19:00:00,28.6811736,77.3025234,PM2.5,64,101,75
India,Delhi,Delhi,"ITO, Delhi - CPCB",21-04-2024 19:00:00,28.628624,77.241060,PM10,48,119,85
India,Delhi,Delhi,"ITO, Delhi - CPCB",21-04-2024 19:00:00,28.628624,77.241060,CO,39,64,42
India,Delhi,Delhi,"ITO, Delhi - CPCB",21-04-2024 19:00:00,28.628624,77.241060,OZONE,10,65,60
India,Delhi,Delhi,"Jahangirpuri, Delhi - DPCC",21-04-2024 19:00:00,28.732820,77.170633,PM10,94,259,175
India,Delhi,Delhi,"Jawaharlal Nehru Stadium, Delhi - DPCC",21-04-2024 19:00:00,28.580280,77.233829,NO2,23,70,46
India,Delhi,Delhi,"Lodhi Road, Delhi - IITM",21-04-2024 19:00:00,28.588333,77.221667,PM2.5,72,307,106
India,Delhi,Delhi,"Lodhi Road, Delhi - IITM",21-04-2024 19:00:00,28.588333,77.221667,NH3,7,8,8
India,Delhi,Delhi,"Lodhi Road, Delhi - IITM",21-04-2024 19:00:00,28.588333,77.221667,CO,58,67,59
India,Delhi,Delhi,"Lodhi Road, Delhi - IMD",21-04-2024 19:00:00,28.5918245,77.2273074,OZONE,57,93,88
India,Delhi,Delhi,"Major Dhyan Chand National Stadium, Delhi - DPCC",21-04-2024 19:00:00,28.611281,77.237738,NH3,6,7,7
India,Delhi,Delhi,"Mandir Marg, Delhi - DPCC",21-04-2024 19:00:00,28.636429,77.201067,PM2.5,10,125,44
India,Delhi,Delhi,"Mandir Marg, Delhi - DPCC",21-04-2024 19:00:00,28.636429,77.201067,PM10,54,125,81
India,Delhi,Delhi,"Mandir Marg, Delhi - DPCC",21-04-2024 19:00:00,28.636429,77.201067,SO2,2,11,8
India,Delhi,Delhi,"Mundka, Delhi - DPCC",21-04-2024 19:00:00,28.684678,77.076574,PM10,84,298,174
India,Delhi,Delhi,"Mundka, Delhi - DPCC",21-04-2024 19:00:00,28.684678,77.076574,NH3,4,6,5
India,Delhi,Delhi,"Mundka, Delhi - DPCC",21-04-2024 19:00:00,28.684678,77.076574,OZONE,17,144,102
India,Delhi,Delhi,"NSIT Dwarka, Delhi - CPCB",21-04-2024 19:00:00,28.60909,77.0325413,NH3,9,13,10
India,Delhi,Delhi,"Najafgarh, Delhi - DPCC",21-04-2024 19:00:00,28.570173,76.933762,PM2.5,17,308,78
India,Delhi,Delhi,"Narela, Delhi - DPCC",21-04-2024 19:00:00,28.822836,77.101981,OZONE,39,142,124
India,Delhi,Delhi,"Nehru Nagar, Delhi - DPCC",21-04-2024 19:00:00,28.567890,77.250515,SO2,4,9,5
India,Delhi,Delhi,"Nehru Nagar, Delhi - DPCC",21-04-2024 19:00:00,28.567890,77.250515,CO,52,58,55
India,Delhi,Delhi,"North Campus, DU, Delhi - IMD",21-04-2024 19:00:00,28.6573814,77.1585447,NO2,8,44,22
India,Delhi,Delhi,"North Campus, DU, Delhi - IMD",21-04-2024 19:00:00,28.6573814,77.1585447,CO,62,96,72
India,Delhi,Delhi,"Okhla Phase-2, Delhi - DPCC",21-04-2024 19:00:00,28.530785,77.271255,CO,7,90,47
India,Delhi,Delhi,"Patparganj, Delhi - DPCC",21-04-2024 19:00:00,28.623763,77.287209,SO2,5,19,9
India,Delhi,Delhi,"Patparganj, Delhi - DPCC",21-04-2024 19:00:00,28.623763,77.287209,CO,40,87,54
India,Delhi,Delhi,"Patparganj, Delhi - DPCC",21-04-2024 19:00:00,28.623763,77.287209,OZONE,15,105,91
India,Delhi,Delhi,"Punjabi Bagh, Delhi - DPCC",21-04-2024 19:00:00,28.674045,77.131023,NO2,32,58,45
India,Delhi,Delhi,"Pusa, Delhi - DPCC",21-04-2024 19:00:00,28.639652,77.146275,PM10,114,228,155
India,Delhi,Delhi,"Pusa, Delhi - DPCC",21-04-2024 19:00:00,28.639652,77.146275,NO2,31,104,66
India,Delhi,Delhi,"R K Puram, Delhi - DPCC",21-04-2024 19:00:00,28.563262,77.186937,PM2.5,37,192,69
India,Delhi,Delhi,"R K Puram, Delhi - DPCC",21-04-2024 19:00:00,28.563262,77.186937,NO2,10,42,24
India,Delhi,Delhi,"R K Puram, Delhi - DPCC",21-04-2024 19:00:00,28.563262,77.186937,NH3,3,5,4
India,Delhi,Delhi,"R K Puram, Delhi - DPCC",21-04-2024 19:00:00,28.563262,77.186937,OZONE,45,159,147
India,Delhi,Delhi,"Rohini, Delhi - DPCC",21-04-2024 19:00:00,28.732528,77.119920,PM2.5,21,281,74
India,Delhi,Delhi,"Rohini, Delhi - DPCC",21-04-2024 19:00:00,28.732528,77.119920,OZONE,36,108,98
India,Delhi,Delhi,"Shadipur, Delhi - CPCB",21-04-2024 19:00:00,28.6514781,77.1473105,SO2,12,24,19
India,Delhi,Delhi,"Sirifort, Delhi - CPCB",21-04-2024 19:00:00,28.5504249,77.2159377,NH3,13,19,16
India,Delhi,Delhi,"Sonia Vihar, Delhi - DPCC",21-04-2024 19:00:00,28.710508,77.249485,NO2,12,52,28
India,Delhi,Delhi,"Sonia Vihar, Delhi - DPCC",21-04-2024 19:00:00,28.710508,77.249485,CO,44,62,48
India,Delhi,Delhi,"Vivek Vihar, Delhi - DPCC",21-04-2024 19:00:00,28.672342,77.315260,PM2.5,27,87,60
India,Delhi,Delhi,"Vivek Vihar, Delhi - DPCC",21-04-2024 19:00:00,28.672342,77.315260,NO2,21,62,44
India,Delhi,Delhi,"Vivek Vihar, Delhi - DPCC",21-04-2024 19:00:00,28.672342,77.315260,NH3,15,16,16
India,Delhi,Delhi,"Vivek Vihar, Delhi - DPCC",21-04-2024 19:00:00,28.672342,77.315260,SO2,28,79,44
India,Delhi,Delhi,"Wazirpur, Delhi - DPCC",21-04-2024 19:00:00,28.699793,77.165453,NH3,12,13,12
India,Gujarat,Ahmedabad,"Chandkheda, Ahmedabad - IITM",21-04-2024 19:00:00,23.107969,72.574648,PM10,54,143,90
India,Gujarat,Ahmedabad,"Gyaspur, Ahmedabad - IITM",21-04-2024 19:00:00,22.977134,72.553024,CO,40,61,45
India,Gujarat,Ahmedabad,"Maninagar, Ahmedabad - GPCB",21-04-2024 19:00:00,23.002657,72.591912,CO,60,122,81
India,Gujarat,Ahmedabad,"Raikhad, Ahmedabad - IITM",21-04-2024 19:00:00,23.020509,72.579261,NH3,5,6,6
India,Gujarat,Ahmedabad,"SAC ISRO Satellite, Ahmedabad - IITM",21-04-2024 19:00:00,23.023389,72.515201,PM2.5,113,129,125
India,Gujarat,Ahmedabad,"SVPI Airport Hansol, Ahmedabad - IITM",21-04-2024 19:00:00,23.076793,72.627874,OZONE,10,30,26
India,Gujarat,Ahmedabad,"Sardar Vallabhbhai Patel Stadium, Ahmedabad - IITM",21-04-2024 19:00:00,23.043070,72.562968,PM2.5,46,122,71
India,Gujarat,Gandhinagar,"Sector-10, Gandhinagar - GPCB",21-04-2024 19:00:00,23.221714,72.654328,NH3,1,1,1
India,Gujarat,Nandesari,"GIDC, Nandesari - Nandesari Ind. Association",21-04-2024 19:00:00,22.410802,73.097923,PM2.5,49,372,186
India,Haryana,Ambala,"Patti Mehar, Ambala - HSPCB",21-04-2024 19:00:00,30.379589,76.778328,SO2,3,43,31
India,Haryana,Bahadurgarh,"Arya Nagar, Bahadurgarh - HSPCB",21-04-2024 19:00:00,28.6701,76.9254,PM10,82,140,118
India,Haryana,Bahadurgarh,"Arya Nagar, Bahadurgarh - HSPCB",21-04-2024 19:00:00,28.6701,76.9254,SO2,10,37,21
India,Haryana,Bahadurgarh,"Arya Nagar, Bahadurgarh - HSPCB",21-04-2024 19:00:00,28.6701,76.9254,CO,90,102,97
India,Haryana,Ballabgarh,"Nathu Colony, Ballabgarh - HSPCB",21-04-2024 19:00:00,28.3419248,77.319699,PM10,83,172,113
India,Haryana,Ballabgarh,"Nathu Colony, Ballabgarh - HSPCB",21-04-2024 19:00:00,28.3419248,77.319699,NH3,1,2,1
India,Haryana,Bhiwani,"H.B. Colony, Bhiwani - HSPCB",21-04-2024 19:00:00,28.806223,76.141105,PM2.5,55,92,72
India,Haryana,Charkhi Dadri,"Mini Secretariat, Charkhi Dadri - HSPCB",21-04-2024 19:00:00,28.593883,76.270653,PM10,46,144,99
India,Haryana,Charkhi Dadri,"Mini Secretariat, Charkhi Dadri - HSPCB",21-04-2024 19:00:00,28.593883,76.270653,CO,20,76,31
India,Haryana,Charkhi Dadri,"Mini Secretariat, Charkhi Dadri - HSPCB",21-04-2024 19:00:00,28.593883,76.270653,OZONE,13,17,16
India,Haryana,Dharuhera,"Municipal Corporation Office, Dharuhera -  HSPCB",21-04-2024 19:00:00,28.206800,76.799700,NH3,9,26,19
India,Haryana,Faridabad,"New Industrial Town, Faridabad - HSPCB",21-04-2024 19:00:00,28.39072,77.30059,OZONE,34,246,77
India,Haryana,Faridabad,"Sector 11, Faridabad - HSPCB",21-04-2024 19:00:00,28.376058,77.315741,PM10,120,216,155
India,Haryana,Faridabad,"Sector 11, Faridabad - HSPCB",21-04-2024 19:00:00,28.376058,77.315741,OZONE,5,14,11
India,Haryana,Faridabad,"Sector 30, Faridabad - HSPCB",21-04-2024 19:00:00,28.4417,77.3217,NH3,9,9,9
India,Haryana,Fatehabad,"Huda Sector, Fatehabad - HSPCB",21-04-2024 19:00:00,29.503664,75.467934,CO,6,14,7
India,Haryana,Fatehabad,"Huda Sector, Fatehabad - HSPCB",21-04-2024 19:00:00,29.503664,75.467934,OZONE,38,62,52
India,Haryana,Gurugram,"Sector-51, Gurugram - HSPCB",21-04-2024 19:00:00,28.4227,77.0667,NH3,6,14,9
India,Haryana,Gurugram,"Teri Gram, Gurugram - HSPCB",21-04-2024 19:00:00,28.4275,77.1465,PM2.5,23,208,120
India,Haryana,Gurugram,"Teri Gram, Gurugram - HSPCB",21-04-2024 19:00:00,28.4275,77.1465,SO2,5,7,6
India,Haryana,Hisar,"Urban Estate-II, Hisar - HSPCB",21-04-2024 19:00:00,29.140560,75.744941,PM2.5,21,60,41
India,Haryana,Hisar,"Urban Estate-II, Hisar - HSPCB",21-04-2024 19:00:00,29.140560,75.744941,NO2,21,26,23
India,Haryana,Kaithal,"Rishi Nagar, Kaithal - HSPCB",21-04-2024 19:00:00,29.8006,76.4155,OZONE,21,94,40
India,Haryana,Karnal,"Sector-12, Karnal - HSPCB",21-04-2024 19:00:00,29.695300,77.002700,SO2,12,13,12
India,Haryana,Karnal,"Sector-12, Karnal - HSPCB",21-04-2024 19:00:00,29.695300,77.002700,OZONE,29,39,31
India,Haryana,Kurukshetra,"Sector-7, Kurukshetra - HSPCB",21-04-2024 19:00:00,29.966942,76.875879,PM10,55,119,90
India,Haryana,Kurukshetra,"Sector-7, Kurukshetra - HSPCB",21-04-2024 19:00:00,29.966942,76.875879,NO2,10,10,10
India,Haryana,Mandikhera,"General Hospital, Mandikhera - HSPCB",21-04-2024 19:00:00,27.9002,76.9938,NO2,19,24,21
India,Haryana,Mandikhera,"General Hospital, Mandikhera - HSPCB",21-04-2024 19:00:00,27.9002,76.9938,OZONE,22,29,26
India,Haryana,Manesar,"Sector-2 IMT, Manesar - HSPCB",21-04-2024 19:00:00,28.360699,76.936090,NO2,12,19,15
India,Haryana,Narnaul,"Shastri Nagar, Narnaul - HSPCB",21-04-2024 19:00:00,28.060249,76.113115,PM10,45,87,61
India,Haryana,Palwal,"Shyam Nagar, Palwal - HSPCB",21-04-2024 19:00:00,28.1485564,77.3320667,SO2,4,116,13
India,Haryana,Panchkula,"Sector-6, Panchkula - HSPCB ",21-04-2024 19:00:00,30.7057778,76.8531805555555,PM2.5,NA,NA,NA
India,Haryana,Panchkula,"Sector-6, Panchkula - HSPCB ",21-04-2024 19:00:00,30.7057778,76.8531805555555,NO2,NA,NA,NA
India,Haryana,Panchkula,"Sector-6, Panchkula - HSPCB ",21-04-2024 19:00:00,30.7057778,76.8531805555555,SO2,NA,NA,NA
India,Haryana,Panipat,"Sector-18, Panipat - HSPCB",21-04-2024 19:00:00,29.497973,76.993331,NO2,31,32,31
India,Haryana,Panipat,"Sector-18, Panipat - HSPCB",21-04-2024 19:00:00,29.497973,76.993331,SO2,18,19,19
India,Haryana,Rohtak,"MD University, Rohtak - HSPCB",21-04-2024 19:00:00,28.52123,76.37138,SO2,6,8,7
India,Haryana,Rohtak,"MD University, Rohtak - HSPCB",21-04-2024 19:00:00,28.52123,76.37138,OZONE,43,53,49
India,Haryana,Sirsa,"F-Block, Sirsa - HSPCB",21-04-2024 19:00:00,29.536400,75.015800,OZONE,61,101,97
India,Haryana,Sonipat,"Murthal, Sonipat - HSPCB",21-04-2024 19:00:00,29.027200,77.062100,PM10,106,106,106
India,Haryana,Sonipat,"Murthal, Sonipat - HSPCB",21-04-2024 19:00:00,29.027200,77.062100,NO2,37,44,40
India,Haryana,Yamuna Nagar,"Gobind Pura, Yamuna Nagar - HSPCB",21-04-2024 19:00:00,30.1480566,77.2893471,NH3,1,6,4
India,Haryana,Yamuna Nagar,"Gobind Pura, Yamuna Nagar - HSPCB",21-04-2024 19:00:00,30.1480566,77.2893471,SO2,3,112,15
India,Himachal Pradesh,Baddi,"HIMUDA Complex Phase-1, Baddi - HPPCB",21-04-2024 19:00:00,30.943887,76.801991,PM2.5,22,345,77
India,Himachal Pradesh,Baddi,"HIMUDA Complex Phase-1, Baddi - HPPCB",21-04-2024 19:00:00,30.943887,76.801991,NH3,3,8,4
India,Himachal Pradesh,Baddi,"HIMUDA Complex Phase-1, Baddi - HPPCB",21-04-2024 19:00:00,30.943887,76.801991,SO2,13,115,36
India,Jharkhand,Dhanbad,"Kalakusuma, Dhanbad - DMC",21-04-2024 19:00:00,23.811548,86.481238,PM2.5,4,84,34
India,Jharkhand,Dhanbad,"Kalakusuma, Dhanbad - DMC",21-04-2024 19:00:00,23.811548,86.481238,OZONE,25,43,36
India,Jharkhand,Dhanbad,"Sardar Patel Nagar, Dhanbad - JSPCB",21-04-2024 19:00:00,23.80569,86.44268,PM2.5,11,134,54
India,Jharkhand,Dhanbad,"Sardar Patel Nagar, Dhanbad - JSPCB",21-04-2024 19:00:00,23.80569,86.44268,PM10,89,193,121
India,Karnataka,Belgaum,"Ramteerth Nagar, Belgaum - KSPCB",21-04-2024 19:00:00,15.888653,74.541751,PM2.5,18,54,28
India,Karnataka,Bengaluru,"BTM Layout, Bengaluru - CPCB",21-04-2024 19:00:00,12.9135218,77.5950804,NH3,NA,NA,NA
India,Karnataka,Bengaluru,"BTM Layout, Bengaluru - CPCB",21-04-2024 19:00:00,12.9135218,77.5950804,OZONE,10,70,52
India,Karnataka,Bengaluru,"Bapuji Nagar, Bengaluru - KSPCB",21-04-2024 19:00:00,12.951913,77.539784,PM2.5,72,163,117
India,Karnataka,Bengaluru,"Bapuji Nagar, Bengaluru - KSPCB",21-04-2024 19:00:00,12.951913,77.539784,CO,26,46,33
India,Karnataka,Bengaluru,"Hebbal, Bengaluru - KSPCB",21-04-2024 19:00:00,13.029152,77.585901,OZONE,7,37,15
India,Karnataka,Bengaluru,"Hombegowda Nagar, Bengaluru - KSPCB",21-04-2024 19:00:00,12.938539,77.590100,PM10,62,104,80
India,Karnataka,Bengaluru,"Kasturi Nagar, Bengaluru - KSPCB",21-04-2024 19:00:00,13.003872,77.664217,PM10,63,135,99
India,Karnataka,Bengaluru,"Sanegurava Halli, Bengaluru - KSPCB",21-04-2024 19:00:00,12.990328,77.5431385,CO,6,37,15
India,Karnataka,Bengaluru,"Shivapura_Peenya, Bengaluru - KSPCB",21-04-2024 19:00:00,13.0246342,77.5080115,CO,24,50,31
India,Karnataka,Bengaluru,"Shivapura_Peenya, Bengaluru - KSPCB",21-04-2024 19:00:00,13.0246342,77.5080115,OZONE,53,55,54
India,Karnataka,Bengaluru,"Silk Board, Bengaluru - KSPCB",21-04-2024 19:00:00,12.917348,77.622813,SO2,7,15,10
India,Karnataka,Bidar,"Naubad, Bidar - KSPCB",21-04-2024 19:00:00,17.930306,77.482194,NO2,7,9,8
India,Karnataka,Bidar,"Naubad, Bidar - KSPCB",21-04-2024 19:00:00,17.930306,77.482194,NH3,2,3,3
India,Karnataka,Chamarajanagar,"Urban, Chamarajanagar - KSPCB",21-04-2024 19:00:00,11.55358,76.55521,CO,22,120,27
India,Karnataka,Chamarajanagar,"Urban, Chamarajanagar - KSPCB",21-04-2024 19:00:00,11.55358,76.55521,OZONE,24,36,34
India,Karnataka,Chikkaballapur,"Chikkaballapur Rural, Chikkaballapur - KSPCB",21-04-2024 19:00:00,13.428828,77.731418,PM2.5,53,95,72
India,Karnataka,Chikkamagaluru,"Kalyana Nagara, Chikkamagaluru - KSPCB",21-04-2024 19:00:00,13.328028,75.797056,NH3,2,3,3
India,Karnataka,Chikkamagaluru,"Kalyana Nagara, Chikkamagaluru - KSPCB",21-04-2024 19:00:00,13.328028,75.797056,SO2,1,2,1
India,Karnataka,Dharwad,"Kalabhavan, Dharwad - KSPCB",21-04-2024 19:00:00,15.459706,75.008381,NO2,NA,NA,NA
India,Karnataka,Dharwad,"Kalabhavan, Dharwad - KSPCB",21-04-2024 19:00:00,15.459706,75.008381,OZONE,2,56,20
India,Karnataka,Hassan,"B.Katihalli, Hassan - KSPCB",21-04-2024 19:00:00,13.008556,76.125258,PM10,NA,NA,NA
India,Karnataka,Hassan,"B.Katihalli, Hassan - KSPCB",21-04-2024 19:00:00,13.008556,76.125258,NO2,NA,NA,NA
India,Karnataka,Haveri,"Ashwini Nagar, Haveri - KSPCB",21-04-2024 19:00:00,14.791800,75.389600,PM2.5,59,92,69
India,Karnataka,Haveri,"Ashwini Nagar, Haveri - KSPCB",21-04-2024 19:00:00,14.791800,75.389600,CO,38,39,38
India,Karnataka,Hubballi,"Deshpande Nagar, Hubballi - KSPCB",21-04-2024 19:00:00,15.351773,75.140726,PM2.5,42,134,68
India,Karnataka,Hubballi,"Deshpande Nagar, Hubballi - KSPCB",21-04-2024 19:00:00,15.351773,75.140726,NO2,26,27,27
India,Karnataka,Kalaburagi,"Lal Bahadur Shastri Nagar, Kalaburagi - KSPCB",21-04-2024 19:00:00,17.321993,76.822628,NH3,2,2,2
India,Karnataka,Kalaburagi,"Lal Bahadur Shastri Nagar, Kalaburagi - KSPCB",21-04-2024 19:00:00,17.321993,76.822628,OZONE,1,40,24
India,Karnataka,Kalaburagi,"Mahatma Basaveswar Colony, Kalaburgi - KSPCB",21-04-2024 19:00:00,17.336318,76.847397,PM2.5,19,61,33
India,Karnataka,Kalaburagi,"Mahatma Basaveswar Colony, Kalaburgi - KSPCB",21-04-2024 19:00:00,17.336318,76.847397,SO2,2,22,4
India,Karnataka,Karwar,"KHB Colony, Karwar - KSPCB",21-04-2024 19:00:00,14.816666,74.141003,CO,10,10,10
India,Karnataka,Kolar,"Tamaka Ind. Area, Kolar - KSPCB",21-04-2024 19:00:00,13.1276288,78.1570122,PM2.5,NA,NA,NA
India,Karnataka,Koppal,"Diwator Nagar, Koppal - KSPCB",21-04-2024 19:00:00,15.347630,76.181767,NO2,34,58,45
India,Karnataka,Madikeri,"Stuart Hill, Madikeri - KSPCB",21-04-2024 19:00:00,12.415911,75.735050,PM2.5,22,56,45
India,Karnataka,Madikeri,"Stuart Hill, Madikeri - KSPCB",21-04-2024 19:00:00,12.415911,75.735050,OZONE,23,56,49
India,Karnataka,Mangalore,"Kadri, Mangalore - KSPCB",21-04-2024 19:00:00,12.889250,74.853000,PM2.5,34,107,59
India,Karnataka,Mysuru,"Hebbal 1st Stage, Mysuru - KSPCB",21-04-2024 19:00:00,12.21041,76.37376,SO2,1,4,2
India,Karnataka,Ramanagara,"Vijay Nagar, Ramanagara - KSPCB",21-04-2024 19:00:00,12.733409,77.298051,PM2.5,45,332,90
India,Karnataka,Ramanagara,"Vijay Nagar, Ramanagara - KSPCB",21-04-2024 19:00:00,12.733409,77.298051,PM10,39,160,61
India,Karnataka,Ramanagara,"Vijay Nagar, Ramanagara - KSPCB",21-04-2024 19:00:00,12.733409,77.298051,OZONE,28,31,29
India,Karnataka,Shivamogga,"Vinoba Nagara, Shivamogga - KSPCB",21-04-2024 19:00:00,13.940000,75.555917,CO,7,32,15
India,Karnataka,Shivamogga,"Vinoba Nagara, Shivamogga - KSPCB",21-04-2024 19:00:00,13.940000,75.555917,OZONE,5,103,88
India,Karnataka,Vijayapura,"Ibrahimpur, Vijayapura - KSPCB",21-04-2024 19:00:00,16.802639,75.722694,NO2,17,19,19
India,Kerala,Eloor,"Udyogamandal, Eloor - Kerala PCB",21-04-2024 19:00:00,10.073232,76.302765,PM2.5,36,52,42
India,Kerala,Eloor,"Udyogamandal, Eloor - Kerala PCB",21-04-2024 19:00:00,10.073232,76.302765,PM10,37,46,40
India,Kerala,Kollam,"Polayathode, Kollam - Kerala PCB",21-04-2024 19:00:00,8.8787,76.6073,CO,38,40,39
India,Kerala,Thiruvananthapuram,"Kariavattom, Thiruvananthapuram - Kerala PCB",21-04-2024 19:00:00,8.563700,76.886500,PM10,81,91,86
India,Kerala,Thiruvananthapuram,"Plammoodu, Thiruvananthapuram - Kerala PCB",21-04-2024 19:00:00,8.5149093,76.9435879,PM10,20,60,38
India,Kerala,Thiruvananthapuram,"Plammoodu, Thiruvananthapuram - Kerala PCB",21-04-2024 19:00:00,8.5149093,76.9435879,NH3,1,1,1
India,Kerala,Thrissur,"Corporation Ground, Thrissur - Kerala PCB",21-04-2024 19:00:00,10.532400,76.215900,PM2.5,45,52,48
India,Kerala,Thrissur,"Corporation Ground, Thrissur - Kerala PCB",21-04-2024 19:00:00,10.532400,76.215900,NO2,7,8,7
India,Madhya Pradesh,Bhopal,"Idgah Hills, Bhopal - MPPCB",21-04-2024 19:00:00,23.264759,77.381568,CO,21,68,32
India,Madhya Pradesh,Bhopal,"Paryavaran Parisar, Bhopal - MPPCB",21-04-2024 19:00:00,23.210494,77.425409,SO2,6,10,9
India,Madhya Pradesh,Bhopal,"T T Nagar, Bhopal - MPPCB",21-04-2024 19:00:00,23.233584,77.400574,OZONE,42,88,75
India,Madhya Pradesh,Dewas,"Bhopal Chauraha, Dewas - MPPCB",21-04-2024 19:00:00,22.9682591,76.064118,NO2,12,14,13
India,Madhya Pradesh,Gwalior,"City Center, Gwalior - MPPCB",21-04-2024 19:00:00,26.203442,78.193251,PM10,48,127,92
India,Madhya Pradesh,Gwalior,"City Center, Gwalior - MPPCB",21-04-2024 19:00:00,26.203442,78.193251,NO2,7,56,19
India,Madhya Pradesh,Gwalior,"Deen Dayal Nagar, Gwalior - MPPCB",21-04-2024 19:00:00,26.259242,78.216432,SO2,12,19,16
India,Madhya Pradesh,Gwalior,"Maharaj Bada, Gwalior - MPPCB",21-04-2024 19:00:00,26.200388,78.147714,NH3,3,13,6
India,Madhya Pradesh,Gwalior,"Phool Bagh, Gwalior - Mondelez Ind. Food",21-04-2024 19:00:00,26.210536,78.171,PM10,16,58,33
India,Madhya Pradesh,Gwalior,"Phool Bagh, Gwalior - Mondelez Ind. Food",21-04-2024 19:00:00,26.210536,78.171,CO,44,50,47
India,Madhya Pradesh,Indore,"Chhoti Gwaltoli, Indore - MPPCB",21-04-2024 19:00:00,22.4310,75.5213,PM10,44,129,87
India,Madhya Pradesh,Indore,"Maguda Nagar, Indore - IMC",21-04-2024 19:00:00,22.7524,75.8872,PM2.5,26,71,48
India,Madhya Pradesh,Indore,"Maguda Nagar, Indore - IMC",21-04-2024 19:00:00,22.7524,75.8872,NO2,4,6,5
India,Madhya Pradesh,Indore,"Maguda Nagar, Indore - IMC",21-04-2024 19:00:00,22.7524,75.8872,CO,21,26,25
India,Madhya Pradesh,Indore,"Residency Area, Indore - IMC",21-04-2024 19:00:00,22.7084,75.8815,NO2,32,51,40
India,Madhya Pradesh,Indore,"Residency Area, Indore - IMC",21-04-2024 19:00:00,22.7084,75.8815,SO2,23,29,26
India,Madhya Pradesh,Jabalpur,"Marhatal, Jabalpur - MPPCB",21-04-2024 19:00:00,23.168606,79.932247,PM10,58,124,89
India,Madhya Pradesh,Jabalpur,"Suhagi, Jabalpur - JMC",21-04-2024 19:00:00,23.218135,79.957770,PM10,NA,NA,NA
India,Madhya Pradesh,Katni,"Gole Bazar, Katni - MPPCB",21-04-2024 19:00:00,23.50016,80.23284,PM10,54,191,102
India,Madhya Pradesh,Maihar,"Sahilara, Maihar - KJS Cements",21-04-2024 19:00:00,24.2613009,80.7231783,PM2.5,7,43,23
India,Madhya Pradesh,Mandideep,"Sector-D Industrial Area, Mandideep - MPPCB",21-04-2024 19:00:00,23.108440,77.511428,PM2.5,21,74,39
India,Madhya Pradesh,Mandideep,"Sector-D Industrial Area, Mandideep - MPPCB",21-04-2024 19:00:00,23.108440,77.511428,PM10,53,132,84
India,Madhya Pradesh,Mandideep,"Sector-D Industrial Area, Mandideep - MPPCB",21-04-2024 19:00:00,23.108440,77.511428,CO,12,62,18
India,Madhya Pradesh,Sagar,"Civil Lines, Sagar - MPPCB",21-04-2024 19:00:00,23.838586,78.759431,NH3,4,5,4
India,Madhya Pradesh,Sagar,"Civil Lines, Sagar - MPPCB",21-04-2024 19:00:00,23.838586,78.759431,SO2,2,14,7
India,Madhya Pradesh,Sagar,"Deen Dayal Nagar, Sagar - MPPCB",21-04-2024 19:00:00,23.8640158,78.80289321,CO,29,82,72
India,Madhya Pradesh,Satna,"Bandhavgar Colony, Satna - Birla Cement",21-04-2024 19:00:00,24.58434363,80.8549414,CO,54,104,54
India,Madhya Pradesh,Singrauli,"Suryakiran Bhawan NCL, Singrauli - MPPCB",21-04-2024 19:00:00,24.108970,82.645580,PM2.5,99,421,235
India,Maharashtra,Ahmednagar,"Tarakpur, Ahmednagar - MPCB",21-04-2024 19:00:00,19.10122,74.73339,PM2.5,34,135,58
India,Maharashtra,Akola,"Ramdaspeth, Akola - MPCB",21-04-2024 19:00:00,20.719516,77.000253,SO2,14,21,17
India,Maharashtra,Amravati,"Shivneri Colony, Amravati - MPCB",21-04-2024 19:00:00,20.9402359,77.7895248,PM2.5,40,76,59
India,Maharashtra,Amravati,"Shri Shivaji Science College, Amaravati - MPCB",21-04-2024 19:00:00,20.939198,77.765701,NO2,4,106,20
India,Maharashtra,Amravati,"Shri Shivaji Science College, Amaravati - MPCB",21-04-2024 19:00:00,20.939198,77.765701,OZONE,28,128,110
India,Maharashtra,Aurangabad,"MIDC Chilkalthana, Aurangabad - MPCB",21-04-2024 19:00:00,19.875620,75.387310,PM2.5,65,203,89
India,Maharashtra,Aurangabad,"More Chowk Waluj, Aurangabad - MPCB",21-04-2024 19:00:00,19.8389439,75.244448,OZONE,44,98,74
India,Maharashtra,Aurangabad,"Rachnakar Colony, Aurangabad - MPCB",21-04-2024 19:00:00,19.863756,75.321188,PM10,NA,NA,NA
India,Maharashtra,Badlapur,"Katrap, Badlapur - MPCB",21-04-2024 19:00:00,19.16485,73.23409,NH3,2,3,2
India,Maharashtra,Belapur,"CBD Belapur, Belapur - MPCB",21-04-2024 19:00:00,19.0243902,73.0406721,PM2.5,58,127,80
India,Maharashtra,Belapur,"CBD Belapur, Belapur - MPCB",21-04-2024 19:00:00,19.0243902,73.0406721,NH3,2,3,2
India,Maharashtra,Chandrapur,"Chauhan Colony, Chandrapur - MPCB",21-04-2024 19:00:00,19.962900,79.298714,NO2,13,46,23
India,Maharashtra,Dhule,"Deopur, Dhule - MPCB",21-04-2024 19:00:00,20.918946,74.776388,NH3,1,11,4
India,Maharashtra,Jalgaon,"Prabhat Colony, Jalgaon - MPCB",21-04-2024 19:00:00,21.001264,75.565602,NO2,11,35,20
India,Maharashtra,Jalna,"Old MIDC, Jalna - MPCB",21-04-2024 19:00:00,19.854616,75.905894,SO2,NA,NA,NA
India,Maharashtra,Kalyan,"Khadakpada, Kalyan - MPCB",21-04-2024 19:00:00,19.25292,73.142019,PM10,NA,NA,NA
India,Maharashtra,Kalyan,"Khadakpada, Kalyan - MPCB",21-04-2024 19:00:00,19.25292,73.142019,CO,16,22,16
India,Maharashtra,Kolhapur,"Shivaji University, Kolhapur - MPCB",21-04-2024 19:00:00,16.6870449,74.2505872,SO2,1,6,3
India,Maharashtra,Latur,"Sawe Wadi, Latur - MPCB",21-04-2024 19:00:00,18.39963,76.57452,SO2,1,5,4
India,Maharashtra,Mira-Bhayandar,"Bhayandar West, Mira-Bhayandar - MPCB",21-04-2024 19:00:00,19.296481,72.840923,NO2,5,41,16
India,Maharashtra,Mira-Bhayandar,"Bhayandar West, Mira-Bhayandar - MPCB",21-04-2024 19:00:00,19.296481,72.840923,SO2,3,8,5
India,Maharashtra,Mumbai,"Bandra Kurla Complex, Mumbai - MPCB",21-04-2024 19:00:00,19.065931,72.862131,CO,15,38,17
India,Maharashtra,Mumbai,"Borivali East, Mumbai - IITM",21-04-2024 19:00:00,19.23241,72.86895,CO,22,58,47
India,Maharashtra,Mumbai,"Borivali East, Mumbai - IITM",21-04-2024 19:00:00,19.23241,72.86895,OZONE,44,101,100
India,Maharashtra,Mumbai,"Chakala-Andheri East, Mumbai - IITM",21-04-2024 19:00:00,19.11074,72.86084,PM10,77,500,124
India,Maharashtra,Mumbai,"Chakala-Andheri East, Mumbai - IITM",21-04-2024 19:00:00,19.11074,72.86084,NO2,NA,NA,NA
India,Maharashtra,Mumbai,"Chakala-Andheri East, Mumbai - IITM",21-04-2024 19:00:00,19.11074,72.86084,SO2,2,21,10
India,Maharashtra,Mumbai,"Chhatrapati Shivaji Intl. Airport (T2), Mumbai - MPCB",21-04-2024 19:00:00,19.10078,72.87462,SO2,17,22,19
India,Maharashtra,Mumbai,"Colaba, Mumbai - MPCB",21-04-2024 19:00:00,18.910000,72.820000,PM10,48,97,64
India,Maharashtra,Mumbai,"Ghatkopar, Mumbai - BMC",21-04-2024 19:00:00,19.083694,72.920967,CO,6,16,10
India,Maharashtra,Mumbai,"Kandivali East, Mumbai - MPCB",21-04-2024 19:00:00,19.205800,72.868200,SO2,6,7,7
India,Maharashtra,Mumbai,"Kandivali East, Mumbai - MPCB",21-04-2024 19:00:00,19.205800,72.868200,CO,28,32,30
India,Maharashtra,Mumbai,"Kherwadi_Bandra East, Mumbai - MPCB",21-04-2024 19:00:00,19.0632143,72.8456324,OZONE,20,87,76
India,Maharashtra,Mumbai,"Khindipada-Bhandup West, Mumbai - IITM",21-04-2024 19:00:00,19.1653323,72.922099,OZONE,8,24,21
India,Maharashtra,Mumbai,"Kurla, Mumbai - MPCB",21-04-2024 19:00:00,19.0863,72.8888,NH3,2,2,2
India,Maharashtra,Mumbai,"Kurla, Mumbai - MPCB",21-04-2024 19:00:00,19.0863,72.8888,SO2,32,32,32
India,Maharashtra,Mumbai,"Mindspace-Malad West, Mumbai - MPCB",21-04-2024 19:00:00,19.1878657,72.8304069,CO,9,22,11
India,Maharashtra,Mumbai,"Mulund West, Mumbai - MPCB",21-04-2024 19:00:00,19.1750,72.9419,SO2,13,13,13
India,Maharashtra,Mumbai,"Navy Nagar-Colaba, Mumbai - IITM",21-04-2024 19:00:00,18.897756,72.813320,PM10,41,90,61
India,Maharashtra,Mumbai,"Navy Nagar-Colaba, Mumbai - IITM",21-04-2024 19:00:00,18.897756,72.813320,CO,2,28,9
India,Maharashtra,Mumbai,"Powai, Mumbai - MPCB",21-04-2024 19:00:00,19.137500,72.915056,PM2.5,20,47,28
India,Maharashtra,Mumbai,"Sewri, Mumbai - BMC",21-04-2024 19:00:00,19.000084,72.856730,PM2.5,28,74,43
India,Maharashtra,Mumbai,"Sewri, Mumbai - BMC",21-04-2024 19:00:00,19.000084,72.856730,SO2,3,11,6
India,Maharashtra,Mumbai,"Shivaji Nagar, Mumbai - BMC",21-04-2024 19:00:00,19.060498,72.923356,PM2.5,15,45,31
India,Maharashtra,Mumbai,"Shivaji Nagar, Mumbai - BMC",21-04-2024 19:00:00,19.060498,72.923356,NO2,25,79,52
India,Maharashtra,Mumbai,"Sion, Mumbai - MPCB",21-04-2024 19:00:00,19.047000,72.874600,PM10,63,121,94
India,Maharashtra,Mumbai,"Sion, Mumbai - MPCB",21-04-2024 19:00:00,19.047000,72.874600,NO2,41,49,45
India,Maharashtra,Mumbai,"Vasai West, Mumbai - MPCB",21-04-2024 19:00:00,19.383200,72.820400,CO,28,39,29
India,Maharashtra,Mumbai,"Worli, Mumbai - MPCB",21-04-2024 19:00:00,18.9936162,72.8128113,PM2.5,12,35,19
India,Maharashtra,Mumbai,"Worli, Mumbai - MPCB",21-04-2024 19:00:00,18.9936162,72.8128113,PM10,43,279,81
India,Maharashtra,Mumbai,"Worli, Mumbai - MPCB",21-04-2024 19:00:00,18.9936162,72.8128113,OZONE,5,12,8
India,Maharashtra,Nagpur,"Ambazari, Nagpur - MPCB",21-04-2024 19:00:00,21.121801,79.04952,NO2,5,114,25
India,Maharashtra,Nagpur,"Ambazari, Nagpur - MPCB",21-04-2024 19:00:00,21.121801,79.04952,NH3,2,11,3
India,Maharashtra,Nagpur,"Ambazari, Nagpur - MPCB",21-04-2024 19:00:00,21.121801,79.04952,OZONE,6,96,85
India,Maharashtra,Nagpur,"Mahal, Nagpur - MPCB",21-04-2024 19:00:00,21.14472,79.107595,NH3,1,16,6
India,Maharashtra,Nagpur,"Mahal, Nagpur - MPCB",21-04-2024 19:00:00,21.14472,79.107595,SO2,2,109,35
India,Maharashtra,Nagpur,"Mahal, Nagpur - MPCB",21-04-2024 19:00:00,21.14472,79.107595,CO,16,144,38
India,Maharashtra,Nagpur,"Mahal, Nagpur - MPCB",21-04-2024 19:00:00,21.14472,79.107595,OZONE,5,81,70
India,Maharashtra,Nagpur,"Opp GPO Civil Lines, Nagpur - MPCB",21-04-2024 19:00:00,21.152875,79.0517531,NH3,3,14,5
India,Maharashtra,Nashik,"Hirawadi, Nashik - MPCB",21-04-2024 19:00:00,20.021503,73.813844,NH3,2,3,2
India,Maharashtra,Nashik,"MIDC Ambad, Nashik - MPCB",21-04-2024 19:00:00,19.950220,73.731480,SO2,8,47,17
India,Maharashtra,Nashik,"MIDC Ambad, Nashik - MPCB",21-04-2024 19:00:00,19.950220,73.731480,CO,10,58,19
India,Maharashtra,Nashik,"Pandav Nagari, Nashik - MPCB",21-04-2024 19:00:00,19.9591346,73.7788008,SO2,9,32,17
India,Maharashtra,Navi Mumbai,"Kopripada-Vashi, Navi Mumbai - MPCB",21-04-2024 19:00:00,19.090337,73.014232,PM2.5,21,75,50
India,Maharashtra,Navi Mumbai,"Kopripada-Vashi, Navi Mumbai - MPCB",21-04-2024 19:00:00,19.090337,73.014232,CO,5,24,9
India,Maharashtra,Navi Mumbai,"Mahape, Navi Mumbai - MPCB",21-04-2024 19:00:00,19.1135051,73.008978,NH3,1,2,1
India,Maharashtra,Navi Mumbai,"Mahape, Navi Mumbai - MPCB",21-04-2024 19:00:00,19.1135051,73.008978,CO,102,110,105
India,Maharashtra,Navi Mumbai,"Sanpada, Navi Mumbai - MPCB",21-04-2024 19:00:00,19.0575752,73.0151367,CO,2,44,5
India,Maharashtra,Navi Mumbai,"Sector-19A Nerul, Navi Mumbai - IITM",21-04-2024 19:00:00,19.044,73.0325,PM10,43,113,79
India,Maharashtra,Navi Mumbai,"Sector-19A Nerul, Navi Mumbai - IITM",21-04-2024 19:00:00,19.044,73.0325,SO2,9,30,17
India,Maharashtra,Navi Mumbai,"Sector-19A Nerul, Navi Mumbai - IITM",21-04-2024 19:00:00,19.044,73.0325,CO,23,46,31
India,Maharashtra,Navi Mumbai,"Sector-2E Kalamboli, Navi Mumbai - MPCB",21-04-2024 19:00:00,19.02579,73.10297,NO2,NA,NA,NA
India,Maharashtra,Navi Mumbai,"Tondare-Taloja, Navi Mumbai - MPCB",21-04-2024 19:00:00,19.0630,73.1209,CO,4,46,8
India,Maharashtra,Navi Mumbai,"Tondare-Taloja, Navi Mumbai - MPCB",21-04-2024 19:00:00,19.0630,73.1209,OZONE,8,81,60
India,Maharashtra,Parbhani,"Masoom Colony, Parbhani - MPCB",21-04-2024 19:00:00,19.265594,76.761463,NO2,17,29,21
India,Maharashtra,Parbhani,"Masoom Colony, Parbhani - MPCB",21-04-2024 19:00:00,19.265594,76.761463,OZONE,13,86,77
India,Maharashtra,Pimpri-Chinchwad,"Gavalinagar, Pimpri Chinchwad - MPCB",21-04-2024 19:00:00,18.63673,73.82487,NH3,1,5,3
India,Maharashtra,Pimpri-Chinchwad,"Park Street Wakad, Pimpri Chinchwad - MPCB",21-04-2024 19:00:00,18.59051,73.77946,CO,14,32,19
India,Maharashtra,Pimpri-Chinchwad,"Thergaon, Pimpri Chinchwad - MPCB",21-04-2024 19:00:00,18.616318,73.765797,PM2.5,62,142,89
India,Maharashtra,Pimpri-Chinchwad,"Thergaon, Pimpri Chinchwad - MPCB",21-04-2024 19:00:00,18.616318,73.765797,PM10,58,110,80
India,Maharashtra,Pimpri-Chinchwad,"Thergaon, Pimpri Chinchwad - MPCB",21-04-2024 19:00:00,18.616318,73.765797,CO,20,94,36
India,Maharashtra,Pune,"Bhosari, Pune - IITM",21-04-2024 19:00:00,18.640051,73.848956,CO,48,54,52
India,Maharashtra,Pune,"Katraj Dairy, Pune - MPCB",21-04-2024 19:00:00,18.454450,73.854155,NO2,17,26,20
India,Maharashtra,Pune,"Katraj Dairy, Pune - MPCB",21-04-2024 19:00:00,18.454450,73.854155,NH3,1,4,2
India,Maharashtra,Pune,"Katraj Dairy, Pune - MPCB",21-04-2024 19:00:00,18.454450,73.854155,CO,29,61,42
India,Maharashtra,Pune,"Revenue Colony-Shivajinagar, Pune - IITM",21-04-2024 19:00:00,18.530085,73.849598,SO2,64,119,93
India,Maharashtra,Pune,"Transport Nagar-Nigdi, Pune - IITM",21-04-2024 19:00:00,18.664282,73.763966,PM10,31,93,67
India,Maharashtra,Sangli,"Vijay Nagar, Sangli - MPCB",21-04-2024 19:00:00, 16.5038,74.3623,OZONE,6,169,135
India,Maharashtra,Solapur,"Dnyaneshwar Nagar, Solapur - MPCB",21-04-2024 19:00:00,17.6336264,75.9132495,PM2.5,30,105,61
India,Maharashtra,Solapur,"Dnyaneshwar Nagar, Solapur - MPCB",21-04-2024 19:00:00,17.6336264,75.9132495,SO2,2,4,3
India,Maharashtra,Solapur,"Ratandeep Housing Society, Solapur - MPCB",21-04-2024 19:00:00,17.65439,75.90649,PM2.5,41,76,58
India,Maharashtra,Solapur,"Ratandeep Housing Society, Solapur - MPCB",21-04-2024 19:00:00,17.65439,75.90649,PM10,57,105,74
India,Maharashtra,Thane,"Kasarvadavali, Thane - MPCB",21-04-2024 19:00:00,19.26777,72.97182,NO2,20,72,37
India,Maharashtra,Thane,"Pimpleshwar Mandir, Thane - MPCB",21-04-2024 19:00:00,19.192056,72.9585188,NO2,19,19,19
India,Maharashtra,Thane,"Pimpleshwar Mandir, Thane - MPCB",21-04-2024 19:00:00,19.192056,72.9585188,NH3,3,3,3
India,Maharashtra,Thane,"Upvan Fort, Thane - MPCB",21-04-2024 19:00:00,19.222279,72.957979,PM10,45,103,72
India,Maharashtra,Thane,"Upvan Fort, Thane - MPCB",21-04-2024 19:00:00,19.222279,72.957979,OZONE,44,86,69
India,Maharashtra,Ulhasnagar,"Sidhi Vinayak Nagar, Ulhasnagar - MPCB",21-04-2024 19:00:00,19.235581,73.159121,PM10,65,140,98
India,Maharashtra,Ulhasnagar,"Sidhi Vinayak Nagar, Ulhasnagar - MPCB",21-04-2024 19:00:00,19.235581,73.159121,OZONE,18,134,102
India,Maharashtra,Virar,"Bolinj, Virar - MPCB",21-04-2024 19:00:00,19.4458210,72.7988231,NH3,6,8,7
India,Manipur,Imphal,"DM College of Science, Imphal - Manipur PCB",21-04-2024 19:00:00,24.8207389,93.9423085,PM2.5,11,28,17
India,Manipur,Imphal,"DM College of Science, Imphal - Manipur PCB",21-04-2024 19:00:00,24.8207389,93.9423085,PM10,9,48,22
India,Manipur,Imphal,"DM College of Science, Imphal - Manipur PCB",21-04-2024 19:00:00,24.8207389,93.9423085,NO2,7,8,7
India,Manipur,Imphal,"DM College of Science, Imphal - Manipur PCB",21-04-2024 19:00:00,24.8207389,93.9423085,SO2,95,100,98
India,Manipur,Imphal,"Manipur University, Imphal - Manipur PCB",21-04-2024 19:00:00,24.7524239,93.9286218,OZONE,9,38,26
India,Meghalaya,Shillong,"Lumpyngngad, Shillong - Meghalaya PCB",21-04-2024 19:00:00,25.5586,91.8985,PM2.5,48,364,143
India,Meghalaya,Shillong,"Lumpyngngad, Shillong - Meghalaya PCB",21-04-2024 19:00:00,25.5586,91.8985,CO,6,12,7
India,Mizoram,Aizawl,"Sikulpuikawn, Aizawl - Mizoram PCB",21-04-2024 19:00:00,23.7176342,92.7192841,OZONE,1,16,7
India,Nagaland,Kohima,"PWD Juction, Kohima - NPCB",21-04-2024 19:00:00,25.6635413,94.0989878,NO2,3,6,3
India,Nagaland,Kohima,"PWD Juction, Kohima - NPCB",21-04-2024 19:00:00,25.6635413,94.0989878,CO,8,22,10
India,Nagaland,Kohima,"PWD Juction, Kohima - NPCB",21-04-2024 19:00:00,25.6635413,94.0989878,OZONE,11,30,17
India,Odisha,Angul,"Hakimapada, Angul - OSPCB",21-04-2024 19:00:00,20.832874,85.104082,PM2.5,67,227,130
India,Odisha,Angul,"Hakimapada, Angul - OSPCB",21-04-2024 19:00:00,20.832874,85.104082,PM10,80,262,142
India,Odisha,Balasore,"Kalidaspur, Balasore - OSPCB",21-04-2024 19:00:00,21.51161,86.89088,SO2,15,42,22
India,Odisha,Barbil,"Forest Office, Barbil - OSPCB",21-04-2024 19:00:00,22.1166054,85.3945546,CO,39,106,53
India,Odisha,Baripada,"Meher Colony, Baripada - OSPCB",21-04-2024 19:00:00,21.941841,86.728318,OZONE,22,205,158
India,Odisha,Bhubaneswar,"Lingraj Mandir, Bhubaneswar - OSPCB",21-04-2024 19:00:00,20.240790,85.836784,SO2,1,30,7
India,Odisha,Bhubaneswar,"Patia, Bhubaneswar - OSPCB",21-04-2024 19:00:00,20.34652,85.81630,PM2.5,8,160,58
India,Odisha,Brajrajnagar,"GM Office, Brajrajnagar - OSPCB",21-04-2024 19:00:00,21.8004996,83.8396977,NH3,1,2,1
India,Odisha,Brajrajnagar,"GM Office, Brajrajnagar - OSPCB",21-04-2024 19:00:00,21.8004996,83.8396977,SO2,30,31,30
India,Odisha,Byasanagar,"Ferro Chrome Colony, Byasanagar - OSPCB",21-04-2024 19:00:00,20.94185,86.11510,PM2.5,30,210,96
India,Odisha,Byasanagar,"Ferro Chrome Colony, Byasanagar - OSPCB",21-04-2024 19:00:00,20.94185,86.11510,PM10,69,147,113
India,Odisha,Byasanagar,"Ferro Chrome Colony, Byasanagar - OSPCB",21-04-2024 19:00:00,20.94185,86.11510,NO2,10,25,15
India,Odisha,Nayagarh,"Dabuna, Nayagarh - OSPCB",21-04-2024 19:00:00,21.847279,85.416905,NH3,5,5,5
India,Odisha,Nayagarh,"Dabuna, Nayagarh - OSPCB",21-04-2024 19:00:00,21.847279,85.416905,OZONE,25,52,42
India,Odisha,Rairangpur,"Divisional Forest Office, Rairangpur - OSPCB",21-04-2024 19:00:00,22.265816,86.174829,NO2,1,3,1
India,Odisha,Rourkela,"Raghunathpali, Rourkela - OSPCB",21-04-2024 19:00:00,22.220833,84.809444,NH3,1,3,2
India,Odisha,Rourkela,"Sector-2, Rourkela - OSPCB",21-04-2024 19:00:00,22.24500000,84.88111111,PM2.5,81,221,141
India,Odisha,Suakati,"OMC Colony, Suakati - OSPCB",21-04-2024 19:00:00,21.606865,85.510538,PM2.5,116,300,214
India,Odisha,Talcher,"Talcher Coalfields,Talcher - OSPCB",21-04-2024 19:00:00,20.9360711,85.1707021,SO2,104,129,115
India,Odisha,Talcher,"Talcher Coalfields,Talcher - OSPCB",21-04-2024 19:00:00,20.9360711,85.1707021,OZONE,21,34,25
India,Puducherry,Puducherry,"Jawahar Nagar, Puducherry - PPCC",21-04-2024 19:00:00,11.9309,79.8027,PM2.5,2,26,10
India,Puducherry,Puducherry,"Jawahar Nagar, Puducherry - PPCC",21-04-2024 19:00:00,11.9309,79.8027,NO2,1,9,4
India,Punjab,Amritsar,"Golden Temple, Amritsar - PPCB",21-04-2024 19:00:00,31.620000,74.876512,PM10,65,98,80
India,Punjab,Amritsar,"Golden Temple, Amritsar - PPCB",21-04-2024 19:00:00,31.620000,74.876512,NH3,5,8,6
India,Punjab,Amritsar,"Golden Temple, Amritsar - PPCB",21-04-2024 19:00:00,31.620000,74.876512,CO,6,38,22
India,Punjab,Jalandhar,"Civil Line, Jalandhar - PPCB",21-04-2024 19:00:00,31.321907,75.578914,PM10,27,91,57
India,Punjab,Jalandhar,"Civil Line, Jalandhar - PPCB",21-04-2024 19:00:00,31.321907,75.578914,SO2,7,13,9
India,Punjab,Jalandhar,"Civil Line, Jalandhar - PPCB",21-04-2024 19:00:00,31.321907,75.578914,CO,11,58,18
India,Punjab,Khanna,"Kalal Majra, Khanna - PPCB",21-04-2024 19:00:00,30.736056 ,76.209694,NH3,15,15,15
India,Punjab,Khanna,"Kalal Majra, Khanna - PPCB",21-04-2024 19:00:00,30.736056 ,76.209694,SO2,7,37,16
India,Punjab,Ludhiana,"Punjab Agricultural University, Ludhiana - PPCB",21-04-2024 19:00:00,30.9028,75.8086,NO2,19,19,19
India,Punjab,Mandi Gobindgarh,"RIMT University, Mandi Gobindgarh - PPCB",21-04-2024 19:00:00,30.649961,76.331442,PM10,66,402,187
India,Punjab,Patiala,"Model Town, Patiala - PPCB",21-04-2024 19:00:00,30.349388,76.366642,SO2,6,16,10
India,Punjab,Patiala,"Model Town, Patiala - PPCB",21-04-2024 19:00:00,30.349388,76.366642,CO,20,32,22
India,Rajasthan,Ajmer,"Civil Lines,  Ajmer - RSPCB",21-04-2024 19:00:00,26.470859,74.646594,PM2.5,28,63,46
India,Rajasthan,Ajmer,"Civil Lines,  Ajmer - RSPCB",21-04-2024 19:00:00,26.470859,74.646594,NO2,15,28,21
India,Rajasthan,Ajmer,"Civil Lines,  Ajmer - RSPCB",21-04-2024 19:00:00,26.470859,74.646594,NH3,10,16,13
India,Rajasthan,Ajmer,"Civil Lines,  Ajmer - RSPCB",21-04-2024 19:00:00,26.470859,74.646594,CO,17,46,35
India,Rajasthan,Alwar,"Moti Doongri, Alwar - RSPCB",21-04-2024 19:00:00,27.554793,76.611536,PM2.5,32,70,48
India,Rajasthan,Alwar,"Moti Doongri, Alwar - RSPCB",21-04-2024 19:00:00,27.554793,76.611536,SO2,1,34,18
India,Rajasthan,Alwar,"Moti Doongri, Alwar - RSPCB",21-04-2024 19:00:00,27.554793,76.611536,OZONE,10,37,17
India,Rajasthan,Banswara,"Rati Talai, Banswara - RSPCB",21-04-2024 19:00:00,23.555190,74.440010,PM10,43,82,60
India,Rajasthan,Banswara,"Rati Talai, Banswara - RSPCB",21-04-2024 19:00:00,23.555190,74.440010,OZONE,31,101,79
India,Rajasthan,Baran,"Bamboliya, Baran - RSPCB",21-04-2024 19:00:00,25.106006,76.469948,PM2.5,12,86,37
India,Rajasthan,Baran,"Bamboliya, Baran - RSPCB",21-04-2024 19:00:00,25.106006,76.469948,PM10,51,108,82
India,Rajasthan,Baran,"Bamboliya, Baran - RSPCB",21-04-2024 19:00:00,25.106006,76.469948,CO,16,40,19
India,Rajasthan,Bharatpur,"Krishna Nagar, Bharatpur - RSPCB",21-04-2024 19:00:00,27.215415,77.50873,SO2,7,22,13
India,Rajasthan,Bharatpur,"Krishna Nagar, Bharatpur - RSPCB",21-04-2024 19:00:00,27.215415,77.50873,CO,8,68,22
India,Rajasthan,Bharatpur,"Krishna Nagar, Bharatpur - RSPCB",21-04-2024 19:00:00,27.215415,77.50873,OZONE,52,121,108
India,Rajasthan,Bhiwadi,"RIICO Ind. Area III, Bhiwadi - RSPCB",21-04-2024 19:00:00,28.194909,76.862296,CO,NA,NA,NA
India,Rajasthan,Bhiwadi,"Vasundhara Nagar_UIT, Bhiwadi - RSPCB",21-04-2024 19:00:00,28.207266,76.829265,NH3,11,18,14
India,Rajasthan,Bhiwadi,"Vasundhara Nagar_UIT, Bhiwadi - RSPCB",21-04-2024 19:00:00,28.207266,76.829265,SO2,6,16,10
India,Rajasthan,Bhiwadi,"Vasundhara Nagar_UIT, Bhiwadi - RSPCB",21-04-2024 19:00:00,28.207266,76.829265,CO,12,24,16
India,Rajasthan,Bikaner,"MM Ground, Bikaner - RSPCB",21-04-2024 19:00:00,28.018792,73.292658,CO,14,44,23
India,Rajasthan,Bundi,"New Colony, Bundi - RSPCB",21-04-2024 19:00:00,25.435774,75.644272,PM2.5,2,36,17
India,Rajasthan,Bundi,"New Colony, Bundi - RSPCB",21-04-2024 19:00:00,25.435774,75.644272,CO,12,40,19
India,Rajasthan,Bundi,"New Colony, Bundi - RSPCB",21-04-2024 19:00:00,25.435774,75.644272,OZONE,56,122,102
India,Rajasthan,Chittorgarh,"Shastri Nagar, Chittorgarh - RSPCB",21-04-2024 19:00:00,24.892047,74.623527,PM10,62,178,92
India,Rajasthan,Chittorgarh,"Shastri Nagar, Chittorgarh - RSPCB",21-04-2024 19:00:00,24.892047,74.623527,SO2,2,14,6
India,Rajasthan,Churu,"Subash Chowk, Churu - RSPCB",21-04-2024 19:00:00,28.296139,74.961696,PM2.5,14,76,31
India,Rajasthan,Churu,"Subash Chowk, Churu - RSPCB",21-04-2024 19:00:00,28.296139,74.961696,NO2,2,41,13
India,Rajasthan,Churu,"Subash Chowk, Churu - RSPCB",21-04-2024 19:00:00,28.296139,74.961696,CO,3,30,15
India,Rajasthan,Dholpur,"Raja Ganj, Dholpur - RSPCB",21-04-2024 19:00:00,26.699557,77.898881,NH3,7,10,9
India,Rajasthan,Dungarpur,"Bhoiwada, Dungarpur - RSPCB",21-04-2024 19:00:00,23.837789,73.714926,SO2,5,12,8
India,Rajasthan,Dungarpur,"Bhoiwada, Dungarpur - RSPCB",21-04-2024 19:00:00,23.837789,73.714926,OZONE,10,74,56
India,Rajasthan,Hanumangarh,"Housing Board, Hanumangarh - RSPCB",21-04-2024 19:00:00,29.610750,74.283608,PM2.5,7,345,86
India,Rajasthan,Hanumangarh,"Housing Board, Hanumangarh - RSPCB",21-04-2024 19:00:00,29.610750,74.283608,PM10,67,409,171
India,Rajasthan,Hanumangarh,"Housing Board, Hanumangarh - RSPCB",21-04-2024 19:00:00,29.610750,74.283608,NO2,7,76,25
India,Rajasthan,Hanumangarh,"Housing Board, Hanumangarh - RSPCB",21-04-2024 19:00:00,29.610750,74.283608,NH3,5,14,9
India,Rajasthan,Hanumangarh,"Housing Board, Hanumangarh - RSPCB",21-04-2024 19:00:00,29.610750,74.283608,SO2,2,28,10
India,Rajasthan,Jaipur,"Mansarovar Sector-12, Jaipur - RSPCB",21-04-2024 19:00:00,26.843698,75.766894,PM2.5,14,71,33
India,Rajasthan,Jaipur,"Mansarovar Sector-12, Jaipur - RSPCB",21-04-2024 19:00:00,26.843698,75.766894,OZONE,9,73,25
India,Rajasthan,Jaipur,"Police Commissionerate, Jaipur - RSPCB",21-04-2024 19:00:00,26.9164092,75.7994901,NH3,5,8,7
India,Rajasthan,Jaipur,"RIICO Sitapura, Jaipur - RSPCB",21-04-2024 19:00:00,26.786682,75.827928,PM2.5,15,106,44
India,Rajasthan,Jaipur,"Sector-2 Murlipura, Jaipur - RSPCB",21-04-2024 19:00:00,26.960669,75.771817,NO2,22,79,40
India,Rajasthan,Jaisalmer,"Sadar Bazar, Jaisalmer - RSPCB",21-04-2024 19:00:00,26.912329,70.909168,PM2.5,2,39,18
India,Rajasthan,Jaisalmer,"Sadar Bazar, Jaisalmer - RSPCB",21-04-2024 19:00:00,26.912329,70.909168,PM10,43,121,70
India,Rajasthan,Jhalawar,"Rajlaxmi Nagar, Jhalawar - RSPCB",21-04-2024 19:00:00,24.588397,76.172782,PM2.5,3,46,18
India,Rajasthan,Jhalawar,"Rajlaxmi Nagar, Jhalawar - RSPCB",21-04-2024 19:00:00,24.588397,76.172782,NO2,11,19,15
India,Rajasthan,Jhalawar,"Rajlaxmi Nagar, Jhalawar - RSPCB",21-04-2024 19:00:00,24.588397,76.172782,OZONE,43,93,86
India,Rajasthan,Jhunjhunu,"Indra Nagar, Jhunjhunu - RSPCB",21-04-2024 19:00:00,28.108988,75.386577,SO2,2,11,5
India,Rajasthan,Jhunjhunu,"Indra Nagar, Jhunjhunu - RSPCB",21-04-2024 19:00:00,28.108988,75.386577,OZONE,29,132,123
India,Rajasthan,Jodhpur,"Collectorate, Jodhpur - RSPCB",21-04-2024 19:00:00,26.268249,73.0193853,PM10,45,146,104
India,Rajasthan,Jodhpur,"Collectorate, Jodhpur - RSPCB",21-04-2024 19:00:00,26.268249,73.0193853,CO,44,100,80
India,Rajasthan,Jodhpur,"Digari Kalan, Jodhpur - RSPCB",21-04-2024 19:00:00,26.295810,73.082283,PM2.5,3,63,29
India,Rajasthan,Jodhpur,"Digari Kalan, Jodhpur - RSPCB",21-04-2024 19:00:00,26.295810,73.082283,SO2,3,11,7
India,Rajasthan,Jodhpur,"Mandor, Jodhpur - RSPCB",21-04-2024 19:00:00,26.358805,73.047444,CO,12,31,15
India,Rajasthan,Jodhpur,"Samrat Ashok Udhyan, Jodhpur - RSPCB",21-04-2024 19:00:00,26.253384,72.976571,PM10,50,147,89
India,Rajasthan,Jodhpur,"Samrat Ashok Udhyan, Jodhpur - RSPCB",21-04-2024 19:00:00,26.253384,72.976571,NO2,4,24,11
India,Rajasthan,Jodhpur,"Samrat Ashok Udhyan, Jodhpur - RSPCB",21-04-2024 19:00:00,26.253384,72.976571,CO,4,18,7
India,Rajasthan,Jodhpur,"Samrat Ashok Udhyan, Jodhpur - RSPCB",21-04-2024 19:00:00,26.253384,72.976571,OZONE,47,140,126
India,Rajasthan,Karauli,"Satyawati Vihar, Karauli - RSPCB",21-04-2024 19:00:00,26.506177,77.025989,SO2,20,31,25
India,Rajasthan,Kota,"Dhanmandi, Kota - RSPCB",21-04-2024 19:00:00,25.164090,75.858137,SO2,6,60,16
India,Rajasthan,Kota,"Nayapura, Kota - RSPCB",21-04-2024 19:00:00,25.196024,75.855668,CO,12,50,20
India,Rajasthan,Kota,"Shrinath Puram, Kota - RSPCB",21-04-2024 19:00:00,25.14389,75.821256,PM10,46,104,68
India,Rajasthan,Nagaur,"Karni Colony, Nagaur - RSPCB",21-04-2024 19:00:00,27.213494,73.734444,SO2,2,8,4
India,Rajasthan,Nagaur,"Karni Colony, Nagaur - RSPCB",21-04-2024 19:00:00,27.213494,73.734444,OZONE,71,98,92
India,Rajasthan,Pali,"Indira Colony Vistar, Pali - RSPCB",21-04-2024 19:00:00,25.771061, 73.340227,PM2.5,22,197,93
India,Rajasthan,Pratapgarh,"Pragati Nagar, Pratapgarh - RSPCB",21-04-2024 19:00:00,24.041198,74.780702,OZONE,18,95,83
India,Rajasthan,Rajsamand,"Dhoinda, Rajsamand - RSPCB",21-04-2024 19:00:00,25.036360,73.883502,PM2.5,2,50,18
India,Rajasthan,Rajsamand,"Dhoinda, Rajsamand - RSPCB",21-04-2024 19:00:00,25.036360,73.883502,NO2,8,20,12
India,Rajasthan,Rajsamand,"Dhoinda, Rajsamand - RSPCB",21-04-2024 19:00:00,25.036360,73.883502,SO2,2,12,10
India,Rajasthan,Sawai Madhopur,"Sahu Nagar, Sawai Madhopur - RSPCB",21-04-2024 19:00:00,26.031443,76.359327,CO,NA,NA,NA
India,Rajasthan,Sikar,"Radhakishan Pura, Sikar - RSPCB",21-04-2024 19:00:00,27.608912,75.153302,PM2.5,8,54,24
India,Rajasthan,Sikar,"Radhakishan Pura, Sikar - RSPCB",21-04-2024 19:00:00,27.608912,75.153302,NH3,5,7,6
India,Rajasthan,Sikar,"Radhakishan Pura, Sikar - RSPCB",21-04-2024 19:00:00,27.608912,75.153302,OZONE,75,131,126
India,Rajasthan,Sirohi,"Vedhaynath Colony, Sirohi - RSPCB",21-04-2024 19:00:00,24.885261,72.857549,NO2,4,35,12
India,Rajasthan,Sirohi,"Vedhaynath Colony, Sirohi - RSPCB",21-04-2024 19:00:00,24.885261,72.857549,NH3,3,5,4
India,Rajasthan,Sri Ganganagar,"Old City, Sri Ganganagar - RSPCB",21-04-2024 19:00:00,29.931624,73.864511,PM10,100,185,135
India,Rajasthan,Sri Ganganagar,"Old City, Sri Ganganagar - RSPCB",21-04-2024 19:00:00,29.931624,73.864511,NH3,8,30,14
India,Rajasthan,Sri Ganganagar,"Old City, Sri Ganganagar - RSPCB",21-04-2024 19:00:00,29.931624,73.864511,SO2,4,9,6
India,Rajasthan,Tonk,"Shastri Nagar, Tonk - RSPCB",21-04-2024 19:00:00,26.159933,75.780517,NO2,9,46,16
India,Rajasthan,Udaipur,"Ashok Nagar, Udaipur - RSPCB",21-04-2024 19:00:00,24.5886166,73.6321397,NH3,8,11,9
India,Rajasthan,Udaipur,"Ashok Nagar, Udaipur - RSPCB",21-04-2024 19:00:00,24.5886166,73.6321397,CO,1,54,26
India,Sikkim,Gangtok,"Zero Point GICI, Gangtok - SSPCB",21-04-2024 19:00:00,27.338530,88.614099,PM10,28,61,41
India,TamilNadu,Ariyalur,"Keelapalur, Ariyalur - TNPCB",21-04-2024 19:00:00,11.06825,79.07033,PM10,25,61,35
India,TamilNadu,Chengalpattu,"Crescent University, Chengalpattu - TNPCB",21-04-2024 19:00:00,12.8777316,80.0834807,NO2,183,185,184
India,TamilNadu,Chennai,"Alandur Bus Depot, Chennai - CPCB",21-04-2024 19:00:00,12.9099161,80.1076538,SO2,1,7,2
India,TamilNadu,Chennai,"Arumbakkam, Chennai - TNPCB",21-04-2024 19:00:00,13.0664,80.2112 ,PM10,NA,NA,NA
India,TamilNadu,Chennai,"Arumbakkam, Chennai - TNPCB",21-04-2024 19:00:00,13.0664,80.2112 ,SO2,NA,NA,NA
India,TamilNadu,Chennai,"Kodungaiyur, Chennai - TNPCB",21-04-2024 19:00:00,13.1278,80.2642,PM10,NA,NA,NA
India,TamilNadu,Chennai,"Kodungaiyur, Chennai - TNPCB",21-04-2024 19:00:00,13.1278,80.2642,NO2,NA,NA,NA
India,TamilNadu,Chennai,"Kodungaiyur, Chennai - TNPCB",21-04-2024 19:00:00,13.1278,80.2642,NH3,NA,NA,NA
India,TamilNadu,Chennai,"Kodungaiyur, Chennai - TNPCB",21-04-2024 19:00:00,13.1278,80.2642,SO2,NA,NA,NA
India,TamilNadu,Chennai,"Manali, Chennai - CPCB",21-04-2024 19:00:00,13.164544,80.26285,PM10,23,77,51
India,TamilNadu,Chennai,"Manali, Chennai - CPCB",21-04-2024 19:00:00,13.164544,80.26285,SO2,1,15,5
India,TamilNadu,Chennai,"Manali, Chennai - CPCB",21-04-2024 19:00:00,13.164544,80.26285,OZONE,14,23,18
India,TamilNadu,Chennai,"Royapuram, Chennai - TNPCB",21-04-2024 19:00:00,13.1036,80.2909,NH3,NA,NA,NA
India,TamilNadu,Chennai,"Royapuram, Chennai - TNPCB",21-04-2024 19:00:00,13.1036,80.2909,OZONE,9,19,9
India,TamilNadu,Coimbatore,"PSG College of Arts and Science, Coimbatore - TNPCB",21-04-2024 19:00:00,11.0328,77.0349,PM2.5,20,77,47
India,TamilNadu,Coimbatore,"PSG College of Arts and Science, Coimbatore - TNPCB",21-04-2024 19:00:00,11.0328,77.0349,NH3,1,1,1
India,TamilNadu,Coimbatore,"PSG College of Arts and Science, Coimbatore - TNPCB",21-04-2024 19:00:00,11.0328,77.0349,SO2,22,27,24
India,TamilNadu,Coimbatore,"PSG College of Arts and Science, Coimbatore - TNPCB",21-04-2024 19:00:00,11.0328,77.0349,OZONE,3,5,4
India,TamilNadu,Cuddalore,"Kudikadu, Cuddalore - TNPCB",21-04-2024 19:00:00,11.6829898,79.7532099,PM2.5,30,100,59
India,TamilNadu,Cuddalore,"Kudikadu, Cuddalore - TNPCB",21-04-2024 19:00:00,11.6829898,79.7532099,NH3,4,4,4
India,TamilNadu,Gummidipoondi,"Anthoni Pillai Nagar, Gummidipoondi - TNPCB",21-04-2024 19:00:00,13.4127,80.1081,PM2.5,12,75,38
India,TamilNadu,Ooty,"Bombay Castel, Ooty - TNPCB",21-04-2024 19:00:00,11.4068288,76.7138973,NH3,NA,NA,NA
India,TamilNadu,Ooty,"Bombay Castel, Ooty - TNPCB",21-04-2024 19:00:00,11.4068288,76.7138973,SO2,13,13,13
India,TamilNadu,Ooty,"Bombay Castel, Ooty - TNPCB",21-04-2024 19:00:00,11.4068288,76.7138973,OZONE,5,6,5
India,TamilNadu,Palkalaiperur,"Bharathidasan University, Palkalaiperur - TNPCB",21-04-2024 19:00:00,10.681158,78.741746,PM10,NA,NA,NA
India,TamilNadu,Thoothukudi,"Meelavittan, Thoothukudi - TNPCB",21-04-2024 19:00:00,8.816428 ,78.099039,PM10,38,103,62
India,TamilNadu,Thoothukudi,"Meelavittan, Thoothukudi - TNPCB",21-04-2024 19:00:00,8.816428 ,78.099039,CO,5,72,30
India,TamilNadu,Thoothukudi,"Meelavittan, Thoothukudi - TNPCB",21-04-2024 19:00:00,8.816428 ,78.099039,OZONE,1,10,4
India,TamilNadu,Tirupur,"Kumaran College, Tirupur - TNPCB",21-04-2024 19:00:00,11.0973603,77.3228673,SO2,NA,NA,NA
India,TamilNadu,Tirupur,"Kumaran College, Tirupur - TNPCB",21-04-2024 19:00:00,11.0973603,77.3228673,OZONE,6,7,7
India,Telangana,Hyderabad,"Bollaram Industrial Area, Hyderabad - TSPCB",21-04-2024 19:00:00,17.540891,78.358528,SO2,23,124,43
India,Telangana,Hyderabad,"Bollaram Industrial Area, Hyderabad - TSPCB",21-04-2024 19:00:00,17.540891,78.358528,CO,12,64,23
India,Telangana,Hyderabad,"Bollaram Industrial Area, Hyderabad - TSPCB",21-04-2024 19:00:00,17.540891,78.358528,OZONE,34,35,35
India,Telangana,Hyderabad,"Central University, Hyderabad - TSPCB",21-04-2024 19:00:00,17.460103,78.334361,OZONE,3,4,4
India,Telangana,Hyderabad,"ECIL Kapra, Hyderabad - TSPCB",21-04-2024 19:00:00,17.470431,78.566959,PM2.5,35,64,47
India,Telangana,Hyderabad,"ECIL Kapra, Hyderabad - TSPCB",21-04-2024 19:00:00,17.470431,78.566959,PM10,48,68,56
India,Telangana,Hyderabad,"ICRISAT Patancheru, Hyderabad - TSPCB",21-04-2024 19:00:00,17.518400,78.278777,NO2,16,17,16
India,Telangana,Hyderabad,"IITH Kandi, Hyderabad - TSPCB",21-04-2024 19:00:00,17.585705,78.126199,SO2,4,9,6
India,Telangana,Hyderabad,"IITH Kandi, Hyderabad - TSPCB",21-04-2024 19:00:00,17.585705,78.126199,CO,6,26,16
India,Telangana,Hyderabad,"Kokapet, Hyderabad - TSPCB",21-04-2024 19:00:00,17.393559,78.339194,PM2.5,44,94,57
India,Telangana,Hyderabad,"New Malakpet, Hyderabad - TSPCB",21-04-2024 19:00:00,17.37206,78.50864,PM2.5,26,99,55
India,Telangana,Hyderabad,"New Malakpet, Hyderabad - TSPCB",21-04-2024 19:00:00,17.37206,78.50864,NH3,4,6,5
India,Telangana,Hyderabad,"Somajiguda, Hyderabad - TSPCB",21-04-2024 19:00:00,17.417094,78.457437,SO2,17,18,18
India,Telangana,Hyderabad,"Zoo Park, Hyderabad - TSPCB",21-04-2024 19:00:00,17.349694,78.451437,PM2.5,40,84,55
India,Telangana,Hyderabad,"Zoo Park, Hyderabad - TSPCB",21-04-2024 19:00:00,17.349694,78.451437,SO2,1,7,3
India,Tripura,Agartala,"Bardowali, Agartala - Tripura SPCB",21-04-2024 19:00:00,23.8175497,91.2726974,NO2,4,6,5
India,Tripura,Agartala,"Bardowali, Agartala - Tripura SPCB",21-04-2024 19:00:00,23.8175497,91.2726974,CO,10,20,17
India,Uttar_Pradesh,Agra,"Manoharpur, Agra - UPPCB",21-04-2024 19:00:00,27.23711,78.01936,PM10,18,81,42
India,Uttar_Pradesh,Agra,"Rohta, Agra - UPPCB",21-04-2024 19:00:00,27.106972,78.000111,PM2.5,15,85,45
India,Uttar_Pradesh,Agra,"Rohta, Agra - UPPCB",21-04-2024 19:00:00,27.106972,78.000111,SO2,3,9,7
India,Uttar_Pradesh,Agra,"Rohta, Agra - UPPCB",21-04-2024 19:00:00,27.106972,78.000111,CO,6,16,8
India,Uttar_Pradesh,Agra,"Sanjay Palace, Agra - UPPCB",21-04-2024 19:00:00,27.19865833,78.00598056,SO2,8,10,9
India,Uttar_Pradesh,Agra,"Sanjay Palace, Agra - UPPCB",21-04-2024 19:00:00,27.19865833,78.00598056,OZONE,17,72,52
India,Uttar_Pradesh,Agra,"Sector-3B Avas Vikas Colony, Agra - UPPCB",21-04-2024 19:00:00,27.19412,77.96237,PM2.5,10,49,29
India,Uttar_Pradesh,Agra,"Sector-3B Avas Vikas Colony, Agra - UPPCB",21-04-2024 19:00:00,27.19412,77.96237,PM10,32,120,74
India,Uttar_Pradesh,Agra,"Shahjahan Garden, Agra - UPPCB",21-04-2024 19:00:00,27.169338,78.03582,PM2.5,19,82,48
India,Uttar_Pradesh,Baghpat,"Sardar Patel Inter College, Baghpat - UPPCB",21-04-2024 19:00:00,28.964949,77.278761,SO2,17,126,63
India,Uttar_Pradesh,Bareilly,"Civil Lines, Bareilly - UPPCB",21-04-2024 19:00:00,28.359581,79.414455,NH3,NA,NA,NA
India,Uttar_Pradesh,Bareilly,"Civil Lines, Bareilly - UPPCB",21-04-2024 19:00:00,28.359581,79.414455,SO2,48,60,50
India,Uttar_Pradesh,Bareilly,"Rajendra Nagar, Bareilly - UPPCB",21-04-2024 19:00:00,28.38910936,79.42963708,PM10,63,115,89
India,Uttar_Pradesh,Bulandshahr,"Yamunapuram, Bulandshahr - UPPCB",21-04-2024 19:00:00,28.406963,77.849831,PM2.5,18,68,45
India,Uttar_Pradesh,Bulandshahr,"Yamunapuram, Bulandshahr - UPPCB",21-04-2024 19:00:00,28.406963,77.849831,CO,16,50,18
India,Uttar_Pradesh,Firozabad,"Nagla Bhau, Firozabad - UPPCB",21-04-2024 19:00:00,27.168897,78.376960,NO2,15,18,17
India,Uttar_Pradesh,Firozabad,"Nagla Bhau, Firozabad - UPPCB",21-04-2024 19:00:00,27.168897,78.376960,SO2,25,38,29
India,Uttar_Pradesh,Firozabad,"Vibhab Nagar, Firozabad - UPPCB",21-04-2024 19:00:00,27.1594,78.3953,PM10,34,83,59
India,Uttar_Pradesh,Firozabad,"Vibhab Nagar, Firozabad - UPPCB",21-04-2024 19:00:00,27.1594,78.3953,NH3,2,2,2
India,Uttar_Pradesh,Firozabad,"Vibhab Nagar, Firozabad - UPPCB",21-04-2024 19:00:00,27.1594,78.3953,CO,16,23,17
India,Uttar_Pradesh,Ghaziabad,"Loni, Ghaziabad - UPPCB",21-04-2024 19:00:00,28.757294,77.278792,PM10,108,173,133
India,Uttar_Pradesh,Ghaziabad,"Sanjay Nagar, Ghaziabad - UPPCB",21-04-2024 19:00:00,28.685382,77.453839,PM2.5,18,228,74
India,Uttar_Pradesh,Ghaziabad,"Sanjay Nagar, Ghaziabad - UPPCB",21-04-2024 19:00:00,28.685382,77.453839,NO2,19,48,33
India,Uttar_Pradesh,Ghaziabad,"Sanjay Nagar, Ghaziabad - UPPCB",21-04-2024 19:00:00,28.685382,77.453839,SO2,9,78,40
India,Uttar_Pradesh,Greater Noida,"Knowledge Park - III, Greater Noida - UPPCB",21-04-2024 19:00:00,28.47272,77.482000,PM2.5,32,85,56
India,Uttar_Pradesh,Greater Noida,"Knowledge Park - III, Greater Noida - UPPCB",21-04-2024 19:00:00,28.47272,77.482000,SO2,10,57,23
India,Uttar_Pradesh,Greater Noida,"Knowledge Park - V, Greater Noida - UPPCB",21-04-2024 19:00:00,28.557054,77.453663,PM2.5,41,84,61
India,Uttar_Pradesh,Jhansi,"Shivaji Nagar, Jhansi - UPPCB",21-04-2024 19:00:00,25.4547,78.6039,NH3,6,6,6
India,Uttar_Pradesh,Kanpur,"FTI Kidwai Nagar, Kanpur - UPPCB",21-04-2024 19:00:00,26.428282,80.327067,SO2,25,25,25
India,Uttar_Pradesh,Kanpur,"NSI Kalyanpur, Kanpur - UPPCB",21-04-2024 19:00:00,26.509954,80.249612,PM10,84,277,160
India,Uttar_Pradesh,Kanpur,"NSI Kalyanpur, Kanpur - UPPCB",21-04-2024 19:00:00,26.509954,80.249612,OZONE,29,55,40
India,Uttar_Pradesh,Khurja,"Kalindi Kunj, Khurja - UPPCB",21-04-2024 19:00:00,28.2348927,77.8683002,OZONE,28,39,36
India,Uttar_Pradesh,Lucknow,"B R Ambedkar University, Lucknow - UPPCB",21-04-2024 19:00:00,26.766433,80.927299,NO2,11,12,11
India,Uttar_Pradesh,Lucknow,"B R Ambedkar University, Lucknow - UPPCB",21-04-2024 19:00:00,26.766433,80.927299,NH3,5,8,6
India,Uttar_Pradesh,Lucknow,"Gomti Nagar, Lucknow - UPPCB",21-04-2024 19:00:00,26.868120,81.005119,PM2.5,88,325,245
India,Uttar_Pradesh,Lucknow,"Gomti Nagar, Lucknow - UPPCB",21-04-2024 19:00:00,26.868120,81.005119,PM10,86,192,147
India,Uttar_Pradesh,Lucknow,"Kendriya Vidyalaya, Lucknow - CPCB",21-04-2024 19:00:00,26.906111,80.948222,NO2,7,51,19
India,Uttar_Pradesh,Lucknow,"Kendriya Vidyalaya, Lucknow - CPCB",21-04-2024 19:00:00,26.906111,80.948222,OZONE,30,86,80
India,Uttar_Pradesh,Lucknow,"Kukrail Picnic Spot-1, Lucknow - UPPCB",21-04-2024 19:00:00,26.90723,80.98579,NO2,8,8,8
India,Uttar_Pradesh,Lucknow,"Lalbagh, Lucknow - CPCB",21-04-2024 19:00:00,26.8458805,80.9365541,PM2.5,54,314,187
India,Uttar_Pradesh,Lucknow,"Talkatora District Industries Center, Lucknow - CPCB",21-04-2024 19:00:00,26.83399722,80.8917361,PM2.5,78,337,252
India,Uttar_Pradesh,Lucknow,"Talkatora District Industries Center, Lucknow - CPCB",21-04-2024 19:00:00,26.83399722,80.8917361,NO2,26,80,49
India,Uttar_Pradesh,Lucknow,"Talkatora District Industries Center, Lucknow - CPCB",21-04-2024 19:00:00,26.83399722,80.8917361,NH3,9,20,13
India,Uttar_Pradesh,Lucknow,"Talkatora District Industries Center, Lucknow - CPCB",21-04-2024 19:00:00,26.83399722,80.8917361,SO2,1,73,8
India,Uttar_Pradesh,Meerut,"Ganga Nagar, Meerut - UPPCB",21-04-2024 19:00:00,28.999264,77.7590354,NH3,5,9,6
India,Uttar_Pradesh,Meerut,"Ganga Nagar, Meerut - UPPCB",21-04-2024 19:00:00,28.999264,77.7590354,CO,20,36,23
India,Uttar_Pradesh,Meerut,"Jai Bhim Nagar, Meerut - UPPCB",21-04-2024 19:00:00,28.9535882,77.7622941,PM2.5,10,58,32
India,Uttar_Pradesh,Meerut,"Jai Bhim Nagar, Meerut - UPPCB",21-04-2024 19:00:00,28.9535882,77.7622941,NO2,30,53,46
India,Uttar_Pradesh,Meerut,"Jai Bhim Nagar, Meerut - UPPCB",21-04-2024 19:00:00,28.9535882,77.7622941,NH3,7,17,9
India,Uttar_Pradesh,Meerut,"Pallavpuram Phase 2, Meerut - UPPCB",21-04-2024 19:00:00,29.063510,77.709723,SO2,9,32,21
India,Uttar_Pradesh,Moradabad,"Eco Herbal Park, Moradabad - UPPCB",21-04-2024 19:00:00,28.840739,78.697531,PM2.5,6,58,34
India,Uttar_Pradesh,Moradabad,"Eco Herbal Park, Moradabad - UPPCB",21-04-2024 19:00:00,28.840739,78.697531,PM10,41,148,92
India,Uttar_Pradesh,Moradabad,"Jigar Colony, Moradabad - UPPCB",21-04-2024 19:00:00,28.856664,78.772638,NO2,18,19,18
India,Uttar_Pradesh,Moradabad,"Jigar Colony, Moradabad - UPPCB",21-04-2024 19:00:00,28.856664,78.772638,OZONE,43,66,60
India,Uttar_Pradesh,Moradabad,"Kashiram Nagar, Moradabad - UPPCB",21-04-2024 19:00:00,28.849399,78.742362,PM2.5,17,98,55
India,Uttar_Pradesh,Moradabad,"Transport Nagar, Moradabad - UPPCB",21-04-2024 19:00:00,28.802625,78.753728,NO2,3,25,12
India,Uttar_Pradesh,Moradabad,"Transport Nagar, Moradabad - UPPCB",21-04-2024 19:00:00,28.802625,78.753728,NH3,5,5,5
India,Uttar_Pradesh,Moradabad,"Transport Nagar, Moradabad - UPPCB",21-04-2024 19:00:00,28.802625,78.753728,SO2,46,54,49
India,Uttar_Pradesh,Noida,"Sector - 62, Noida - IMD",21-04-2024 19:00:00,28.6245479,77.3577104,PM2.5,23,108,62
India,Uttar_Pradesh,Noida,"Sector - 62, Noida - IMD",21-04-2024 19:00:00,28.6245479,77.3577104,OZONE,19,42,39
India,Uttar_Pradesh,Noida,"Sector-1, Noida - UPPCB",21-04-2024 19:00:00,28.5898,77.3101,PM2.5,22,81,47
India,Uttar_Pradesh,Noida,"Sector-1, Noida - UPPCB",21-04-2024 19:00:00,28.5898,77.3101,PM10,110,175,134
India,Uttar_Pradesh,Noida,"Sector-1, Noida - UPPCB",21-04-2024 19:00:00,28.5898,77.3101,NH3,3,5,4
India,Uttar_Pradesh,Noida,"Sector-1, Noida - UPPCB",21-04-2024 19:00:00,28.5898,77.3101,OZONE,30,148,127
India,Uttar_Pradesh,Noida,"Sector-116, Noida - UPPCB",21-04-2024 19:00:00,28.569230,77.393848,PM2.5,27,85,52
India,Uttar_Pradesh,Noida,"Sector-116, Noida - UPPCB",21-04-2024 19:00:00,28.569230,77.393848,SO2,26,85,44
India,Uttar_Pradesh,Prayagraj,"Motilal Nehru NIT, Prayagraj - UPPCB",21-04-2024 19:00:00,25.494,81.863,NO2,11,12,12
India,Uttar_Pradesh,Prayagraj,"Motilal Nehru NIT, Prayagraj - UPPCB",21-04-2024 19:00:00,25.494,81.863,NH3,6,7,7
India,Uttar_Pradesh,Prayagraj,"Motilal Nehru NIT, Prayagraj - UPPCB",21-04-2024 19:00:00,25.494,81.863,CO,5,26,8
India,Uttar_Pradesh,Prayagraj,"Motilal Nehru NIT, Prayagraj - UPPCB",21-04-2024 19:00:00,25.494,81.863,OZONE,8,46,39
India,Uttar_Pradesh,Prayagraj,"Nagar Nigam, Prayagraj - UPPCB",21-04-2024 19:00:00,25.44919916 ,81.82735986 ,PM2.5,33,87,52
India,Uttar_Pradesh,Prayagraj,"Nagar Nigam, Prayagraj - UPPCB",21-04-2024 19:00:00,25.44919916 ,81.82735986 ,NH3,3,9,6
India,Uttar_Pradesh,Varanasi,"Ardhali Bazar, Varanasi - UPPCB",21-04-2024 19:00:00,25.3505986,82.9083074,NO2,20,44,28
India,Uttar_Pradesh,Varanasi,"IESD Banaras Hindu University, Varanasi - UPPCB",21-04-2024 19:00:00,25.262326,82.995408,PM2.5,NA,NA,NA
India,Uttar_Pradesh,Varanasi,"IESD Banaras Hindu University, Varanasi - UPPCB",21-04-2024 19:00:00,25.262326,82.995408,SO2,16,17,16
India,Uttar_Pradesh,Varanasi,"Maldahiya, Varanasi - UPPCB",21-04-2024 19:00:00,25.32393,82.99687,PM10,25,55,41
India,Uttar_Pradesh,Varanasi,"Maldahiya, Varanasi - UPPCB",21-04-2024 19:00:00,25.32393,82.99687,SO2,26,26,26
India,Uttar_Pradesh,Varanasi,"Maldahiya, Varanasi - UPPCB",21-04-2024 19:00:00,25.32393,82.99687,OZONE,1,26,23
India,Uttar_Pradesh,Vrindavan,"Omex Eternity, Vrindavan - UPPCB",21-04-2024 19:00:00,27.5714090,77.6557570,NO2,2,3,3
India,Uttar_Pradesh,Vrindavan,"Omex Eternity, Vrindavan - UPPCB",21-04-2024 19:00:00,27.5714090,77.6557570,OZONE,26,32,29
India,Uttarakhand,Dehradun,"Doon University, Dehradun - UKPCB",21-04-2024 19:00:00,30.269444,78.044167,NO2,1,5,2
India,Uttarakhand,Dehradun,"Doon University, Dehradun - UKPCB",21-04-2024 19:00:00,30.269444,78.044167,SO2,1,3,2
India,Uttarakhand,Rishikesh,"Shivaji Nagar, Rishikesh - UKPCB",21-04-2024 19:00:00,30.075911,78.2859547,PM2.5,19,96,53
India,West_Bengal,Asansol,"Asansol Court Area, Asansol - WBPCB",21-04-2024 19:00:00,23.685297,86.945968,PM2.5,135,325,220
India,West_Bengal,Asansol,"Asansol Court Area, Asansol - WBPCB",21-04-2024 19:00:00,23.685297,86.945968,PM10,129,209,164
India,West_Bengal,Asansol,"Asansol Court Area, Asansol - WBPCB",21-04-2024 19:00:00,23.685297,86.945968,NH3,10,32,15
India,West_Bengal,Barrackpore,"SVSPA Campus, Barrackpore - WBPCB",21-04-2024 19:00:00,22.7605581,88.3617589,NO2,11,27,17
India,West_Bengal,Barrackpore,"SVSPA Campus, Barrackpore - WBPCB",21-04-2024 19:00:00,22.7605581,88.3617589,CO,10,25,16
India,West_Bengal,Durgapur,"PCBL Residential Complex, Durgapur - WBPCB",21-04-2024 19:00:00,23.5087640,87.3544400,PM2.5,NA,NA,NA
India,West_Bengal,Durgapur,"PCBL Residential Complex, Durgapur - WBPCB",21-04-2024 19:00:00,23.5087640,87.3544400,NH3,NA,NA,NA
India,West_Bengal,Durgapur,"PCBL Residential Complex, Durgapur - WBPCB",21-04-2024 19:00:00,23.5087640,87.3544400,SO2,NA,NA,NA
India,West_Bengal,Durgapur,"Sidhu Kanhu Indoor Stadium, Durgapur - WBPCB",21-04-2024 19:00:00,23.5404352,87.2892225,PM10,137,264,190
India,West_Bengal,Haldia,"Priyambada Housing Estate, Haldia - WBPCB",21-04-2024 19:00:00,22.06047,88.109737,NO2,11,35,17
India,West_Bengal,Haldia,"Priyambada Housing Estate, Haldia - WBPCB",21-04-2024 19:00:00,22.06047,88.109737,OZONE,19,35,29
India,West_Bengal,Howrah,"Ghusuri, Howrah - WBPCB",21-04-2024 19:00:00,22.611968,88.347422,PM10,50,145,96
India,West_Bengal,Howrah,"Ghusuri, Howrah - WBPCB",21-04-2024 19:00:00,22.611968,88.347422,CO,2,17,6
India,West_Bengal,Howrah,"Padmapukur, Howrah - WBPCB",21-04-2024 19:00:00,22.5687319,88.2797276,PM2.5,30,138,59
India,West_Bengal,Howrah,"Padmapukur, Howrah - WBPCB",21-04-2024 19:00:00,22.5687319,88.2797276,OZONE,6,103,65
India,West_Bengal,Kolkata,"Ballygunge, Kolkata - WBPCB",21-04-2024 19:00:00,22.5367507,88.3638022,NH3,5,7,6
India,West_Bengal,Kolkata,"Ballygunge, Kolkata - WBPCB",21-04-2024 19:00:00,22.5367507,88.3638022,CO,3,20,15
India,West_Bengal,Kolkata,"Bidhannagar, Kolkata - WBPCB",21-04-2024 19:00:00,22.58157048,88.41002457,PM2.5,30,83,50
India,West_Bengal,Kolkata,"Fort William, Kolkata - WBPCB",21-04-2024 19:00:00,22.556640,88.342674,NO2,15,38,24
India,West_Bengal,Kolkata,"Fort William, Kolkata - WBPCB",21-04-2024 19:00:00,22.556640,88.342674,CO,6,28,20
India,West_Bengal,Kolkata,"Jadavpur, Kolkata - WBPCB",21-04-2024 19:00:00,22.49929,88.36917,PM2.5,21,78,47
India,West_Bengal,Kolkata,"Jadavpur, Kolkata - WBPCB",21-04-2024 19:00:00,22.49929,88.36917,SO2,2,24,7
India,West_Bengal,Kolkata,"Jadavpur, Kolkata - WBPCB",21-04-2024 19:00:00,22.49929,88.36917,CO,6,19,15
India,West_Bengal,Kolkata,"Rabindra Bharati University, Kolkata - WBPCB",21-04-2024 19:00:00,22.627847,88.380669,NO2,39,43,42
India,West_Bengal,Kolkata,"Rabindra Bharati University, Kolkata - WBPCB",21-04-2024 19:00:00,22.627847,88.380669,NH3,17,19,17
India,West_Bengal,Kolkata,"Rabindra Bharati University, Kolkata - WBPCB",21-04-2024 19:00:00,22.627847,88.380669,OZONE,18,174,118
India,West_Bengal,Kolkata,"Victoria, Kolkata - WBPCB",21-04-2024 19:00:00,22.5448082,88.3403691,PM10,47,120,79
India,West_Bengal,Siliguri,"Ward-32 Bapupara, Siliguri - WBPCB",21-04-2024 19:00:00,26.6879226,88.4152495,PM10,49,98,70
India,West_Bengal,Siliguri,"Ward-32 Bapupara, Siliguri - WBPCB",21-04-2024 19:00:00,26.6879226,88.4152495,CO,20,36,29
India,Andhra_Pradesh,Amaravati,"Secretariat, Amaravati - APPCB",21-04-2024 19:00:00,16.5150833,80.5181667,PM10,26,93,57
India,Andhra_Pradesh,Amaravati,"Secretariat, Amaravati - APPCB",21-04-2024 19:00:00,16.5150833,80.5181667,OZONE,6,59,53
India,Andhra_Pradesh,Anantapur,"Gulzarpet, Anantapur - APPCB",21-04-2024 19:00:00,14.675886,77.593027,SO2,6,13,10
India,Andhra_Pradesh,Tirupati,"Tirumala, Tirupati - APPCB",21-04-2024 19:00:00,13.67,79.35,NH3,1,1,1
India,Andhra_Pradesh,Vijayawada,"HB Colony, Vijayawada - APPCB",21-04-2024 19:00:00,16.536107,80.594233,PM10,NA,NA,NA
India,Andhra_Pradesh,Vijayawada,"Rajiv Gandhi Park, Vijayawada - APPCB",21-04-2024 19:00:00,16.509717,80.612222,PM2.5,NA,NA,NA
India,Andhra_Pradesh,Vijayawada,"Rajiv Nagar, Vijayawada - APPCB",21-04-2024 19:00:00,16.554731,80.649110,SO2,NA,NA,NA
India,Andhra_Pradesh,Vijayawada,"Rajiv Nagar, Vijayawada - APPCB",21-04-2024 19:00:00,16.554731,80.649110,OZONE,NA,NA,NA
India,Andhra_Pradesh,Visakhapatnam,"GVM Corporation, Visakhapatnam - APPCB",21-04-2024 19:00:00,17.72,83.3,NH3,3,6,4
India,Assam,Guwahati,"LGBI Airport, Guwahati - PCBA",21-04-2024 19:00:00,26.10887,91.589544,PM2.5,25,75,45
India,Assam,Guwahati,"Railway Colony, Guwahati - PCBA",21-04-2024 19:00:00,26.181742,91.78063,PM2.5,1,58,14
India,Assam,Guwahati,"Railway Colony, Guwahati - PCBA",21-04-2024 19:00:00,26.181742,91.78063,NO2,3,4,3
India,Assam,Guwahati,"Railway Colony, Guwahati - PCBA",21-04-2024 19:00:00,26.181742,91.78063,CO,13,45,19
India,Assam,Nagaon,"Christianpatty, Nagaon - PCBA",21-04-2024 19:00:00,26.349082,92.68449,SO2,NA,NA,NA
India,Assam,Nalbari,"Bata Chowk, Nalbari - PCBA",21-04-2024 19:00:00,26.446912,91.439057,PM2.5,35,65,45
India,Assam,Sivasagar,"Girls College, Sivasagar - PCBA",21-04-2024 19:00:00,26.987634,94.636574,CO,17,22,18
India,Bihar,Araria,"Kharahiya Basti, Araria - BSPCB",21-04-2024 19:00:00,26.146529,87.454184,PM2.5,NA,NA,NA
India,Bihar,Araria,"Kharahiya Basti, Araria - BSPCB",21-04-2024 19:00:00,26.146529,87.454184,PM10,NA,NA,NA
India,Bihar,Araria,"Kharahiya Basti, Araria - BSPCB",21-04-2024 19:00:00,26.146529,87.454184,NO2,5,33,9
India,Bihar,Araria,"Kharahiya Basti, Araria - BSPCB",21-04-2024 19:00:00,26.146529,87.454184,SO2,11,18,14
India,Bihar,Aurangabad,"Gurdeo Nagar, Aurangabad - BSPCB",21-04-2024 19:00:00,24.75746,84.366208,OZONE,31,94,89
India,Bihar,Bettiah,"Kamalnath Nagar, Bettiah - BSPCB",21-04-2024 19:00:00,26.80365,84.51954,NH3,3,8,5
India,Bihar,Bhagalpur,"DM Office_Kachari Chowk, Bhagalpur - BSPCB",21-04-2024 19:00:00,25.251013,86.989001,NO2,NA,NA,NA
India,Bihar,Bhagalpur,"DM Office_Kachari Chowk, Bhagalpur - BSPCB",21-04-2024 19:00:00,25.251013,86.989001,SO2,NA,NA,NA
India,Bihar,Bhagalpur,"DM Office_Kachari Chowk, Bhagalpur - BSPCB",21-04-2024 19:00:00,25.251013,86.989001,CO,NA,NA,NA
India,Bihar,Bhagalpur,"Mayaganj, Bhagalpur - BSPCB",21-04-2024 19:00:00,25.265194,87.012947,PM10,43,172,73
India,Bihar,Bhagalpur,"Mayaganj, Bhagalpur - BSPCB",21-04-2024 19:00:00,25.265194,87.012947,SO2,8,12,12
India,Bihar,Bihar Sharif,"D M Colony, Bihar Sharif - BSPCB",21-04-2024 19:00:00,25.204762,85.514960,SO2,1,15,9
India,Bihar,Chhapra,"Darshan Nagar, Chhapra - BSPCB",21-04-2024 19:00:00,25.7808257,84.7446768,PM2.5,85,150,115
India,Bihar,Gaya,"Kareemganj, Gaya - BSPCB",21-04-2024 19:00:00,24.792403,84.992416,PM10,70,131,101
India,Bihar,Gaya,"SFTI Kusdihra, Gaya - BSPCB",21-04-2024 19:00:00,24.762518,84.982348,CO,15,45,18
India,Bihar,Hajipur,"Industrial Area, Hajipur - BSPCB",21-04-2024 19:00:00,25.697189,85.245900,PM10,195,335,263
India,Bihar,Hajipur,"Industrial Area, Hajipur - BSPCB",21-04-2024 19:00:00,25.697189,85.245900,OZONE,10,94,84
India,Bihar,Katihar,"Mirchaibari, Katihar - BSPCB",21-04-2024 19:00:00,25.560083,87.553265,NO2,17,37,23
India,Bihar,Katihar,"Mirchaibari, Katihar - BSPCB",21-04-2024 19:00:00,25.560083,87.553265,SO2,17,22,20
India,Bihar,Kishanganj,"SDM Office_Khagra, Kishanganj - BSPCB",21-04-2024 19:00:00,26.0881305,87.93840336,NO2,28,32,29
India,Bihar,Motihari,"Gandak Colony, Motihari - BSPCB",21-04-2024 19:00:00,26.63086,84.90051,PM10,31,175,72
India,Bihar,Motihari,"Gandak Colony, Motihari - BSPCB",21-04-2024 19:00:00,26.63086,84.90051,NH3,5,17,12
India,Bihar,Muzaffarpur,"Buddha Colony, Muzaffarpur - BSPCB",21-04-2024 19:00:00,26.11442,85.39813,PM10,150,370,260
India,Bihar,Muzaffarpur,"Buddha Colony, Muzaffarpur - BSPCB",21-04-2024 19:00:00,26.11442,85.39813,NH3,13,19,16
India,Bihar,Muzaffarpur,"MIT-Daudpur Kothi, Muzaffarpur - BSPCB",21-04-2024 19:00:00,26.1403345,85.3650192,PM2.5,NA,NA,NA
India,Bihar,Muzaffarpur,"Muzaffarpur Collectorate, Muzaffarpur - BSPCB",21-04-2024 19:00:00,26.1209,85.3647,SO2,6,10,7
India,Bihar,Patna,"DRM Office Danapur, Patna - BSPCB",21-04-2024 19:00:00,25.586562,85.043586,NH3,3,3,3
India,Bihar,Patna,"Govt. High School Shikarpur, Patna - BSPCB",21-04-2024 19:00:00,25.592539,85.227158,CO,28,54,32
India,Bihar,Patna,"Rajbansi Nagar, Patna - BSPCB",21-04-2024 19:00:00,25.599486,85.113666,OZONE,16,137,115
India,Bihar,Purnia,"Mariam Nagar, Purnia - BSPCB",21-04-2024 19:00:00,25.366336,87.117468,PM10,67,265,138
India,Bihar,Purnia,"Mariam Nagar, Purnia - BSPCB",21-04-2024 19:00:00,25.366336,87.117468,SO2,5,9,8
India,Bihar,Saharsa,"Police Line, Saharsa - BSPCB",21-04-2024 19:00:00,25.892357,86.590325,SO2,16,17,16
India,Bihar,Saharsa,"Police Line, Saharsa - BSPCB",21-04-2024 19:00:00,25.892357,86.590325,CO,54,55,54
India,Bihar,Samastipur,"DM Office_Kasipur, Samastipur - BSPCB",21-04-2024 19:00:00,25.859655,85.77944,PM10,58,159,112
India,Bihar,Sasaram,"Dada Peer, Sasaram - BSPCB",21-04-2024 19:00:00,24.952822,84.002396,NH3,8,11,9
India,Chandigarh,Chandigarh,"Sector-25, Chandigarh - CPCC",21-04-2024 19:00:00,30.751462,76.762879,NO2,3,32,14
India,Chandigarh,Chandigarh,"Sector-25, Chandigarh - CPCC",21-04-2024 19:00:00,30.751462,76.762879,NH3,8,24,14
India,Chandigarh,Chandigarh,"Sector-53, Chandigarh - CPCC",21-04-2024 19:00:00,30.719859,76.738637,PM2.5,25,130,78
India,Chhattisgarh,Bhilai,"32Bungalows, Bhilai - CECB",21-04-2024 19:00:00,21.194815,81.314770,NH3,6,6,6
India,Chhattisgarh,Bhilai,"Civic Center, Bhilai - Bhilai Steel Plant",21-04-2024 19:00:00,21.185571,81.343175,NH3,3,5,3
India,Chhattisgarh,Bhilai,"Civic Center, Bhilai - Bhilai Steel Plant",21-04-2024 19:00:00,21.185571,81.343175,CO,18,114,38
India,Chhattisgarh,Chhal,"Nawapara SECL Colony, Chhal - CECB",21-04-2024 19:00:00,22.118125,83.140608,NO2,NA,NA,NA
India,Chhattisgarh,Chhal,"Nawapara SECL Colony, Chhal - CECB",21-04-2024 19:00:00,22.118125,83.140608,NH3,NA,NA,NA
India,Chhattisgarh,Korba,"Rampur, Korba - CECB",21-04-2024 19:00:00,22.368195,82.746431,SO2,12,24,17
India,Chhattisgarh,Korba,"Rampur, Korba - CECB",21-04-2024 19:00:00,22.368195,82.746431,OZONE,8,13,12
India,Chhattisgarh,Korba,"Urja Nagar, Korba - CECB",21-04-2024 19:00:00,22.348441,82.549611,NH3,5,10,7
India,Chhattisgarh,Milupara,"Govt. Higher Secondary School, Milupara - CECB",21-04-2024 19:00:00,22.1910172,83.5197009,SO2,NA,NA,NA
India,Chhattisgarh,Raipur,"AIIMS, Raipur - CECB",21-04-2024 19:00:00,21.258815,81.578979,CO,18,28,22
India,Chhattisgarh,Raipur,"Bhatagaon New ISBT, Raipur - CECB",21-04-2024 19:00:00,21.219665,81.630094,CO,18,34,27
India,Chhattisgarh,Raipur,"Krishak Nagar, Raipur - CECB",21-04-2024 19:00:00,21.237755,81.705301,OZONE,4,63,41
India,Chhattisgarh,Tumidih,"OP Jindal Industrial Park, Tumidih - CECB",21-04-2024 19:00:00,22.06631475,83.33820077,SO2,NA,NA,NA
India,Chhattisgarh,Tumidih,"OP Jindal Industrial Park, Tumidih - CECB",21-04-2024 19:00:00,22.06631475,83.33820077,OZONE,NA,NA,NA
India,Delhi,Delhi,"Alipur, Delhi - DPCC",21-04-2024 19:00:00,28.815329,77.153010,PM2.5,22,90,50
India,Delhi,Delhi,"Ashok Vihar, Delhi - DPCC",21-04-2024 19:00:00,28.695381,77.181665,PM2.5,11,172,71
India,Delhi,Delhi,"Ashok Vihar, Delhi - DPCC",21-04-2024 19:00:00,28.695381,77.181665,PM10,90,184,144
India,Delhi,Delhi,"Ashok Vihar, Delhi - DPCC",21-04-2024 19:00:00,28.695381,77.181665,SO2,18,52,31
India,Delhi,Delhi,"Ashok Vihar, Delhi - DPCC",21-04-2024 19:00:00,28.695381,77.181665,OZONE,8,31,29
India,Delhi,Delhi,"Aya Nagar, Delhi - IMD",21-04-2024 19:00:00,28.4706914,77.1099364,CO,46,72,62
India,Delhi,Delhi,"Bawana, Delhi - DPCC",21-04-2024 19:00:00,28.776200,77.051074,PM2.5,31,312,101
India,Delhi,Delhi,"Burari Crossing, Delhi - IMD",21-04-2024 19:00:00,28.7256504,77.2011573,OZONE,15,66,61
India,Delhi,Delhi,"CRRI Mathura Road, Delhi - IMD",21-04-2024 19:00:00,28.5512005,77.2735737,PM10,87,150,121
India,Delhi,Delhi,"CRRI Mathura Road, Delhi - IMD",21-04-2024 19:00:00,28.5512005,77.2735737,CO,25,58,29
India,Delhi,Delhi,"Dr. Karni Singh Shooting Range, Delhi - DPCC",21-04-2024 19:00:00,28.498571,77.264840,PM10,100,164,120
India,Delhi,Delhi,"Dwarka-Sector 8, Delhi - DPCC ",21-04-2024 19:00:00,28.5710274,77.0719006,CO,38,58,44
India,Delhi,Delhi,"IHBAS, Dilshad Garden, Delhi - CPCB",21-04-2024 19:00:00,28.6811736,77.3025234,NH3,9,12,11
India,Delhi,Delhi,"IHBAS, Dilshad Garden, Delhi - CPCB",21-04-2024 19:00:00,28.6811736,77.3025234,OZONE,14,42,31
India,Delhi,Delhi,"ITO, Delhi - CPCB",21-04-2024 19:00:00,28.628624,77.241060,NH3,1,6,3
India,Delhi,Delhi,"Jahangirpuri, Delhi - DPCC",21-04-2024 19:00:00,28.732820,77.170633,PM2.5,23,224,96
India,Delhi,Delhi,"Jahangirpuri, Delhi - DPCC",21-04-2024 19:00:00,28.732820,77.170633,NH3,12,42,22
India,Delhi,Delhi,"Jahangirpuri, Delhi - DPCC",21-04-2024 19:00:00,28.732820,77.170633,SO2,20,59,33
India,Delhi,Delhi,"Jahangirpuri, Delhi - DPCC",21-04-2024 19:00:00,28.732820,77.170633,CO,36,85,55
India,Delhi,Delhi,"Jawaharlal Nehru Stadium, Delhi - DPCC",21-04-2024 19:00:00,28.580280,77.233829,NH3,6,8,7
India,Delhi,Delhi,"Jawaharlal Nehru Stadium, Delhi - DPCC",21-04-2024 19:00:00,28.580280,77.233829,SO2,4,46,15
India,Delhi,Delhi,"Jawaharlal Nehru Stadium, Delhi - DPCC",21-04-2024 19:00:00,28.580280,77.233829,CO,20,41,29
India,Delhi,Delhi,"Lodhi Road, Delhi - IITM",21-04-2024 19:00:00,28.588333,77.221667,NO2,49,110,84
India,Delhi,Delhi,"Lodhi Road, Delhi - IITM",21-04-2024 19:00:00,28.588333,77.221667,OZONE,15,20,19
India,Delhi,Delhi,"Lodhi Road, Delhi - IMD",21-04-2024 19:00:00,28.5918245,77.2273074,PM10,70,136,89
India,Delhi,Delhi,"Major Dhyan Chand National Stadium, Delhi - DPCC",21-04-2024 19:00:00,28.611281,77.237738,SO2,6,13,9
India,Delhi,Delhi,"Major Dhyan Chand National Stadium, Delhi - DPCC",21-04-2024 19:00:00,28.611281,77.237738,CO,22,42,25
India,Delhi,Delhi,"Mundka, Delhi - DPCC",21-04-2024 19:00:00,28.684678,77.076574,PM2.5,20,331,115
India,Delhi,Delhi,"Mundka, Delhi - DPCC",21-04-2024 19:00:00,28.684678,77.076574,NO2,13,50,28
India,Delhi,Delhi,"NSIT Dwarka, Delhi - CPCB",21-04-2024 19:00:00,28.60909,77.0325413,PM2.5,132,316,243
India,Delhi,Delhi,"NSIT Dwarka, Delhi - CPCB",21-04-2024 19:00:00,28.60909,77.0325413,OZONE,20,81,74
India,Delhi,Delhi,"Najafgarh, Delhi - DPCC",21-04-2024 19:00:00,28.570173,76.933762,PM10,64,232,135
India,Delhi,Delhi,"Narela, Delhi - DPCC",21-04-2024 19:00:00,28.822836,77.101981,NO2,3,43,20
India,Delhi,Delhi,"Narela, Delhi - DPCC",21-04-2024 19:00:00,28.822836,77.101981,CO,28,45,32
India,Delhi,Delhi,"Nehru Nagar, Delhi - DPCC",21-04-2024 19:00:00,28.567890,77.250515,NO2,8,11,10
India,Delhi,Delhi,"Nehru Nagar, Delhi - DPCC",21-04-2024 19:00:00,28.567890,77.250515,OZONE,43,137,121
India,Delhi,Delhi,"New Moti Bagh, Delhi - MHUA",21-04-2024 19:00:00,28.57834,77.18400,NO2,5,17,9
India,Delhi,Delhi,"Okhla Phase-2, Delhi - DPCC",21-04-2024 19:00:00,28.530785,77.271255,PM2.5,18,87,44
India,Delhi,Delhi,"Okhla Phase-2, Delhi - DPCC",21-04-2024 19:00:00,28.530785,77.271255,NO2,29,95,63
India,Delhi,Delhi,"Patparganj, Delhi - DPCC",21-04-2024 19:00:00,28.623763,77.287209,PM2.5,23,95,51
India,Delhi,Delhi,"Punjabi Bagh, Delhi - DPCC",21-04-2024 19:00:00,28.674045,77.131023,CO,31,48,34
India,Delhi,Delhi,"Punjabi Bagh, Delhi - DPCC",21-04-2024 19:00:00,28.674045,77.131023,OZONE,8,30,28
India,Delhi,Delhi,"Pusa, Delhi - DPCC",21-04-2024 19:00:00,28.639652,77.146275,PM2.5,13,303,77
India,Delhi,Delhi,"Pusa, Delhi - IMD",21-04-2024 19:00:00,28.636110,77.173332,NO2,10,24,15
India,Delhi,Delhi,"R K Puram, Delhi - DPCC",21-04-2024 19:00:00,28.563262,77.186937,CO,12,36,20
India,Delhi,Delhi,"Sirifort, Delhi - CPCB",21-04-2024 19:00:00,28.5504249,77.2159377,NO2,76,100,86
India,Delhi,Delhi,"Sirifort, Delhi - CPCB",21-04-2024 19:00:00,28.5504249,77.2159377,OZONE,11,50,36
India,Delhi,Delhi,"Sri Aurobindo Marg, Delhi - DPCC",21-04-2024 19:00:00,28.531346,77.190156,PM2.5,28,140,55
India,Delhi,Delhi,"Sri Aurobindo Marg, Delhi - DPCC",21-04-2024 19:00:00,28.531346,77.190156,SO2,13,35,20
India,Delhi,Delhi,"Wazirpur, Delhi - DPCC",21-04-2024 19:00:00,28.699793,77.165453,SO2,8,31,16
India,Delhi,Delhi,"Wazirpur, Delhi - DPCC",21-04-2024 19:00:00,28.699793,77.165453,OZONE,16,80,75
India,Gujarat,Ahmedabad,"Chandkheda, Ahmedabad - IITM",21-04-2024 19:00:00,23.107969,72.574648,SO2,8,13,10
India,Gujarat,Ahmedabad,"Chandkheda, Ahmedabad - IITM",21-04-2024 19:00:00,23.107969,72.574648,CO,6,97,44
India,Gujarat,Ahmedabad,"Gyaspur, Ahmedabad - IITM",21-04-2024 19:00:00,22.977134,72.553024,PM2.5,41,345,86
India,Gujarat,Ahmedabad,"Gyaspur, Ahmedabad - IITM",21-04-2024 19:00:00,22.977134,72.553024,NO2,35,110,56
India,Gujarat,Ahmedabad,"Maninagar, Ahmedabad - GPCB",21-04-2024 19:00:00,23.002657,72.591912,PM2.5,20,217,64
India,Gujarat,Ahmedabad,"Maninagar, Ahmedabad - GPCB",21-04-2024 19:00:00,23.002657,72.591912,PM10,20,184,78
India,Gujarat,Ahmedabad,"Raikhad, Ahmedabad - IITM",21-04-2024 19:00:00,23.020509,72.579261,OZONE,11,28,21
India,Gujarat,Ahmedabad,"Rakhial, Ahmedabad - IITM",21-04-2024 19:00:00,23.016834,72.625775,NO2,18,32,26
India,Gujarat,Ahmedabad,"Rakhial, Ahmedabad - IITM",21-04-2024 19:00:00,23.016834,72.625775,CO,29,89,51
India,Gujarat,Ahmedabad,"SVPI Airport Hansol, Ahmedabad - IITM",21-04-2024 19:00:00,23.076793,72.627874,SO2,2,15,4
India,Gujarat,Ahmedabad,"Sardar Vallabhbhai Patel Stadium, Ahmedabad - IITM",21-04-2024 19:00:00,23.043070,72.562968,NH3,7,7,7
India,Gujarat,Ankleshwar,"GIDC, Ankleshwar - GPCB",21-04-2024 19:00:00,21.613267,73.010555,PM2.5,23,69,46
India,Gujarat,Gandhinagar,"IIPHG Lekawada, Gandhinagar - IITM",21-04-2024 19:00:00,23.243639,72.68994,NO2,33,44,36
India,Gujarat,Gandhinagar,"IIPHG Lekawada, Gandhinagar - IITM",21-04-2024 19:00:00,23.243639,72.68994,NH3,7,7,7
India,Gujarat,Gandhinagar,"IIPHG Lekawada, Gandhinagar - IITM",21-04-2024 19:00:00,23.243639,72.68994,OZONE,10,26,23
India,Gujarat,Gandhinagar,"Sector-10, Gandhinagar - GPCB",21-04-2024 19:00:00,23.221714,72.654328,PM10,20,65,41
India,Gujarat,Gandhinagar,"Sector-10, Gandhinagar - GPCB",21-04-2024 19:00:00,23.221714,72.654328,NO2,21,24,23
India,Gujarat,Gandhinagar,"Sector-10, Gandhinagar - GPCB",21-04-2024 19:00:00,23.221714,72.654328,CO,28,56,29
India,Gujarat,Nandesari,"GIDC, Nandesari - Nandesari Ind. Association",21-04-2024 19:00:00,22.410802,73.097923,NO2,8,32,19
India,Gujarat,Surat,"Science Center, Surat - SMC",21-04-2024 19:00:00,21.170046,72.795405,PM10,7,39,18
India,Gujarat,Vapi,"Phase-1 GIDC, Vapi - GPCB",21-04-2024 19:00:00,20.362421,72.918013,NO2,6,8,6
India,Gujarat,Vatva,"Phase-4 GIDC, Vatva - GPCB",21-04-2024 19:00:00,22.969611,72.643500,PM2.5,29,73,47
India,Haryana,Ambala,"Patti Mehar, Ambala - HSPCB",21-04-2024 19:00:00,30.379589,76.778328,PM2.5,23,82,50
India,Haryana,Ambala,"Patti Mehar, Ambala - HSPCB",21-04-2024 19:00:00,30.379589,76.778328,OZONE,24,40,32
India,Haryana,Bhiwani,"H.B. Colony, Bhiwani - HSPCB",21-04-2024 19:00:00,28.806223,76.141105,NO2,6,11,8
India,Haryana,Bhiwani,"H.B. Colony, Bhiwani - HSPCB",21-04-2024 19:00:00,28.806223,76.141105,NH3,5,6,6
India,Haryana,Bhiwani,"H.B. Colony, Bhiwani - HSPCB",21-04-2024 19:00:00,28.806223,76.141105,CO,17,40,35
India,Haryana,Bhiwani,"H.B. Colony, Bhiwani - HSPCB",21-04-2024 19:00:00,28.806223,76.141105,OZONE,10,34,19
India,Haryana,Dharuhera,"Municipal Corporation Office, Dharuhera -  HSPCB",21-04-2024 19:00:00,28.206800,76.799700,PM2.5,34,113,75
India,Haryana,Dharuhera,"Municipal Corporation Office, Dharuhera -  HSPCB",21-04-2024 19:00:00,28.206800,76.799700,PM10,106,197,158
India,Haryana,Dharuhera,"Municipal Corporation Office, Dharuhera -  HSPCB",21-04-2024 19:00:00,28.206800,76.799700,NO2,44,111,72
India,Haryana,Faridabad,"New Industrial Town, Faridabad - HSPCB",21-04-2024 19:00:00,28.39072,77.30059,PM10,99,183,137
India,Haryana,Faridabad,"Sector 11, Faridabad - HSPCB",21-04-2024 19:00:00,28.376058,77.315741,NO2,29,33,31
India,Haryana,Faridabad,"Sector 11, Faridabad - HSPCB",21-04-2024 19:00:00,28.376058,77.315741,CO,16,52,45
India,Haryana,Faridabad,"Sector 30, Faridabad - HSPCB",21-04-2024 19:00:00,28.4417,77.3217,OZONE,22,67,64
India,Haryana,Fatehabad,"Huda Sector, Fatehabad - HSPCB",21-04-2024 19:00:00,29.503664,75.467934,SO2,11,11,11
India,Haryana,Gurugram,"Sector-51, Gurugram - HSPCB",21-04-2024 19:00:00,28.4227,77.0667,NO2,13,29,23
India,Haryana,Gurugram,"Sector-51, Gurugram - HSPCB",21-04-2024 19:00:00,28.4227,77.0667,CO,33,50,40
India,Haryana,Gurugram,"Sector-51, Gurugram - HSPCB",21-04-2024 19:00:00,28.4227,77.0667,OZONE,27,67,56
India,Haryana,Gurugram,"Vikas Sadan, Gurugram - HSPCB",21-04-2024 19:00:00,28.4501238,77.0263051,SO2,12,35,30
India,Haryana,Hisar,"Urban Estate-II, Hisar - HSPCB",21-04-2024 19:00:00,29.140560,75.744941,PM10,63,112,87
India,Haryana,Hisar,"Urban Estate-II, Hisar - HSPCB",21-04-2024 19:00:00,29.140560,75.744941,SO2,1,98,60
India,Haryana,Jind,"Police Lines, Jind - HSPCB",21-04-2024 19:00:00,29.307814,76.337619,PM10,54,110,81
India,Haryana,Jind,"Police Lines, Jind - HSPCB",21-04-2024 19:00:00,29.307814,76.337619,NH3,2,5,4
India,Haryana,Jind,"Police Lines, Jind - HSPCB",21-04-2024 19:00:00,29.307814,76.337619,OZONE,14,28,25
India,Haryana,Karnal,"Sector-12, Karnal - HSPCB",21-04-2024 19:00:00,29.695300,77.002700,PM2.5,54,72,65
India,Haryana,Kurukshetra,"Sector-7, Kurukshetra - HSPCB",21-04-2024 19:00:00,29.966942,76.875879,SO2,2,3,2
India,Haryana,Kurukshetra,"Sector-7, Kurukshetra - HSPCB",21-04-2024 19:00:00,29.966942,76.875879,CO,4,18,7
India,Haryana,Narnaul,"Shastri Nagar, Narnaul - HSPCB",21-04-2024 19:00:00,28.060249,76.113115,OZONE,37,59,49
India,Haryana,Palwal,"Shyam Nagar, Palwal - HSPCB",21-04-2024 19:00:00,28.1485564,77.3320667,NO2,23,24,24
India,Haryana,Palwal,"Shyam Nagar, Palwal - HSPCB",21-04-2024 19:00:00,28.1485564,77.3320667,CO,21,62,28
India,Haryana,Palwal,"Shyam Nagar, Palwal - HSPCB",21-04-2024 19:00:00,28.1485564,77.3320667,OZONE,20,53,29
India,Haryana,Panipat,"Sector-18, Panipat - HSPCB",21-04-2024 19:00:00,29.497973,76.993331,PM10,80,91,83
India,Haryana,Rohtak,"MD University, Rohtak - HSPCB",21-04-2024 19:00:00,28.52123,76.37138,NO2,47,57,51
India,Haryana,Sirsa,"F-Block, Sirsa - HSPCB",21-04-2024 19:00:00,29.536400,75.015800,SO2,4,15,9
India,Haryana,Sonipat,"Murthal, Sonipat - HSPCB",21-04-2024 19:00:00,29.027200,77.062100,PM2.5,48,48,48
India,Haryana,Sonipat,"Murthal, Sonipat - HSPCB",21-04-2024 19:00:00,29.027200,77.062100,NH3,7,10,9
India,Haryana,Yamuna Nagar,"Gobind Pura, Yamuna Nagar - HSPCB",21-04-2024 19:00:00,30.1480566,77.2893471,PM2.5,46,81,67
India,Haryana,Yamuna Nagar,"Gobind Pura, Yamuna Nagar - HSPCB",21-04-2024 19:00:00,30.1480566,77.2893471,PM10,61,105,89
India,Haryana,Yamuna Nagar,"Gobind Pura, Yamuna Nagar - HSPCB",21-04-2024 19:00:00,30.1480566,77.2893471,NO2,11,29,18
India,Haryana,Yamuna Nagar,"Gobind Pura, Yamuna Nagar - HSPCB",21-04-2024 19:00:00,30.1480566,77.2893471,CO,22,53,40
India,Haryana,Yamuna Nagar,"Gobind Pura, Yamuna Nagar - HSPCB",21-04-2024 19:00:00,30.1480566,77.2893471,OZONE,21,38,32
India,Himachal Pradesh,Baddi,"HIMUDA Complex Phase-1, Baddi - HPPCB",21-04-2024 19:00:00,30.943887,76.801991,PM10,63,271,119
India,Jharkhand,Dhanbad,"Kalakusuma, Dhanbad - DMC",21-04-2024 19:00:00,23.811548,86.481238,NO2,NA,NA,NA
India,Jharkhand,Dhanbad,"Kalakusuma, Dhanbad - DMC",21-04-2024 19:00:00,23.811548,86.481238,CO,129,136,132
India,Jharkhand,Dhanbad,"Sardar Patel Nagar, Dhanbad - JSPCB",21-04-2024 19:00:00,23.80569,86.44268,OZONE,16,34,24
India,Karnataka,Bagalkot,"Vidayagiri, Bagalkot - KSPCB",21-04-2024 19:00:00,16.172806,75.659694,CO,10,57,28
India,Karnataka,Belgaum,"Ramteerth Nagar, Belgaum - KSPCB",21-04-2024 19:00:00,15.888653,74.541751,PM10,30,87,55
India,Karnataka,Bengaluru,"Hombegowda Nagar, Bengaluru - KSPCB",21-04-2024 19:00:00,12.938539,77.590100,NH3,1,2,2
India,Karnataka,Bengaluru,"Jayanagar 5th Block, Bengaluru - KSPCB",21-04-2024 19:00:00,12.920984,77.584908,NO2,NA,NA,NA
India,Karnataka,Bengaluru,"Jayanagar 5th Block, Bengaluru - KSPCB",21-04-2024 19:00:00,12.920984,77.584908,SO2,15,51,26
India,Karnataka,Bengaluru,"Jayanagar 5th Block, Bengaluru - KSPCB",21-04-2024 19:00:00,12.920984,77.584908,CO,4,7,5
India,Karnataka,Bengaluru,"Kasturi Nagar, Bengaluru - KSPCB",21-04-2024 19:00:00,13.003872,77.664217,CO,23,28,26
India,Karnataka,Bengaluru,"Peenya, Bengaluru - CPCB",21-04-2024 19:00:00,13.0270199,77.494094,CO,36,40,38
India,Karnataka,Bengaluru,"Peenya, Bengaluru - CPCB",21-04-2024 19:00:00,13.0270199,77.494094,OZONE,71,89,81
India,Karnataka,Bengaluru,"RVCE-Mailasandra, Bengaluru - KSPCB",21-04-2024 19:00:00,12.921418,77.502466,PM2.5,NA,NA,NA
India,Karnataka,Bengaluru,"RVCE-Mailasandra, Bengaluru - KSPCB",21-04-2024 19:00:00,12.921418,77.502466,PM10,NA,NA,NA
India,Karnataka,Bengaluru,"RVCE-Mailasandra, Bengaluru - KSPCB",21-04-2024 19:00:00,12.921418,77.502466,NO2,NA,NA,NA
India,Karnataka,Bengaluru,"RVCE-Mailasandra, Bengaluru - KSPCB",21-04-2024 19:00:00,12.921418,77.502466,CO,NA,NA,NA
India,Karnataka,Bengaluru,"Sanegurava Halli, Bengaluru - KSPCB",21-04-2024 19:00:00,12.990328,77.5431385,SO2,2,3,3
India,Karnataka,Bengaluru,"Silk Board, Bengaluru - KSPCB",21-04-2024 19:00:00,12.917348,77.622813,CO,11,52,18
India,Karnataka,Bidar,"Naubad, Bidar - KSPCB",21-04-2024 19:00:00,17.930306,77.482194,CO,66,108,79
India,Karnataka,Chamarajanagar,"Urban, Chamarajanagar - KSPCB",21-04-2024 19:00:00,11.55358,76.55521,NO2,23,35,30
India,Karnataka,Chamarajanagar,"Urban, Chamarajanagar - KSPCB",21-04-2024 19:00:00,11.55358,76.55521,NH3,2,3,2
India,Karnataka,Chikkaballapur,"Chikkaballapur Rural, Chikkaballapur - KSPCB",21-04-2024 19:00:00,13.428828,77.731418,NH3,1,2,1
India,Karnataka,Chikkamagaluru,"Kalyana Nagara, Chikkamagaluru - KSPCB",21-04-2024 19:00:00,13.328028,75.797056,PM2.5,34,92,47
India,Karnataka,Chikkamagaluru,"Kalyana Nagara, Chikkamagaluru - KSPCB",21-04-2024 19:00:00,13.328028,75.797056,PM10,47,67,53
India,Karnataka,Davanagere,"Devaraj Urs Badavane, Davanagere - KSPCB",21-04-2024 19:00:00,14.475800,75.905200,NH3,1,2,1
India,Karnataka,Haveri,"Ashwini Nagar, Haveri - KSPCB",21-04-2024 19:00:00,14.791800,75.389600,NH3,3,3,3
India,Karnataka,Hubballi,"Deshpande Nagar, Hubballi - KSPCB",21-04-2024 19:00:00,15.351773,75.140726,OZONE,1,9,5
India,Karnataka,Kalaburagi,"Lal Bahadur Shastri Nagar, Kalaburagi - KSPCB",21-04-2024 19:00:00,17.321993,76.822628,PM2.5,NA,NA,NA
India,Karnataka,Kalaburagi,"Lal Bahadur Shastri Nagar, Kalaburagi - KSPCB",21-04-2024 19:00:00,17.321993,76.822628,SO2,14,19,16
India,Karnataka,Kalaburagi,"Mahatma Basaveswar Colony, Kalaburgi - KSPCB",21-04-2024 19:00:00,17.336318,76.847397,PM10,26,77,44
India,Karnataka,Kalaburagi,"Mahatma Basaveswar Colony, Kalaburgi - KSPCB",21-04-2024 19:00:00,17.336318,76.847397,CO,32,56,42
India,Karnataka,Karwar,"KHB Colony, Karwar - KSPCB",21-04-2024 19:00:00,14.816666,74.141003,SO2,NA,NA,NA
India,Karnataka,Madikeri,"Stuart Hill, Madikeri - KSPCB",21-04-2024 19:00:00,12.415911,75.735050,NH3,1,2,1
India,Karnataka,Mangalore,"Kadri, Mangalore - KSPCB",21-04-2024 19:00:00,12.889250,74.853000,PM10,36,170,81
India,Karnataka,Mangalore,"Kadri, Mangalore - KSPCB",21-04-2024 19:00:00,12.889250,74.853000,SO2,16,20,19
India,Karnataka,Mangalore,"Kadri, Mangalore - KSPCB",21-04-2024 19:00:00,12.889250,74.853000,CO,36,58,37
India,Karnataka,Mysuru,"Hebbal 1st Stage, Mysuru - KSPCB",21-04-2024 19:00:00,12.21041,76.37376,NH3,1,2,2
India,Karnataka,Ramanagara,"Vijay Nagar, Ramanagara - KSPCB",21-04-2024 19:00:00,12.733409,77.298051,SO2,23,55,31
India,Karnataka,Shivamogga,"Vinoba Nagara, Shivamogga - KSPCB",21-04-2024 19:00:00,13.940000,75.555917,PM2.5,36,52,48
India,Karnataka,Shivamogga,"Vinoba Nagara, Shivamogga - KSPCB",21-04-2024 19:00:00,13.940000,75.555917,PM10,52,71,66
India,Karnataka,Shivamogga,"Vinoba Nagara, Shivamogga - KSPCB",21-04-2024 19:00:00,13.940000,75.555917,NH3,2,4,3
India,Karnataka,Shivamogga,"Vinoba Nagara, Shivamogga - KSPCB",21-04-2024 19:00:00,13.940000,75.555917,SO2,2,9,7
India,Karnataka,Tumakuru,"Thimmalapura, Tumakuru - KSPCB",21-04-2024 19:00:00,13.377516,77.099072,PM2.5,NA,NA,NA
India,Karnataka,Vijayapura,"Ibrahimpur, Vijayapura - KSPCB",21-04-2024 19:00:00,16.802639,75.722694,PM10,41,43,42
