country,state,city,station,last_update,latitude,longitude,pollutant_id,pollutant_min,pollutant_max,pollutant_avg
India,Andhra_Pradesh,Amaravati,"Secretariat, Amaravati - APPCB",22-05-2024 06:00:00,16.5150833,80.5181667,CO,8,30,24
India,Andhra_Pradesh,Anantapur,"Gulzarpet, Anantapur - APPCB",22-05-2024 06:00:00,14.675886,77.593027,NO2,NA,NA,NA
India,Andhra_Pradesh,Chittoor,"Gangineni Cheruvu, Chittoor - APPCB",22-05-2024 06:00:00,13.204880,79.097889,NO2,NA,NA,NA
India,Andhra_Pradesh,Chittoor,"Gangineni Cheruvu, Chittoor - APPCB",22-05-2024 06:00:00,13.204880,79.097889,CO,14,38,23
India,Andhra_Pradesh,Kadapa,"Yerramukkapalli, Kadapa - APPCB",22-05-2024 06:00:00,14.465052,78.824187,CO,4,44,10
India,Andhra_Pradesh,Rajamahendravaram,"Anand Kala Kshetram, Rajamahendravaram - APPCB",22-05-2024 06:00:00,16.9872867,81.7363176,NO2,13,31,21
India,Andhra_Pradesh,Rajamahendravaram,"Anand Kala Kshetram, Rajamahendravaram - APPCB",22-05-2024 06:00:00,16.9872867,81.7363176,OZONE,14,58,20
India,Andhra_Pradesh,Tirupati,"Tirumala, Tirupati - APPCB",22-05-2024 06:00:00,13.67,79.35,CO,30,52,43
India,Andhra_Pradesh,Tirupati,"Vaikuntapuram, Tirupati - APPCB",22-05-2024 06:00:00,13.615387,79.409230,PM2.5,NA,NA,NA
India,Andhra_Pradesh,Tirupati,"Vaikuntapuram, Tirupati - APPCB",22-05-2024 06:00:00,13.615387,79.409230,CO,10,14,11
India,Andhra_Pradesh,Tirupati,"Vaikuntapuram, Tirupati - APPCB",22-05-2024 06:00:00,13.615387,79.409230,OZONE,1,20,4
India,Andhra_Pradesh,Vijayawada,"HB Colony, Vijayawada - APPCB",22-05-2024 06:00:00,16.536107,80.594233,OZONE,21,34,34
India,Andhra_Pradesh,Vijayawada,"Kanuru, Vijayawada - APPCB",22-05-2024 06:00:00,16.486692,80.699436,NO2,20,21,21
India,Andhra_Pradesh,Vijayawada,"Rajiv Gandhi Park, Vijayawada - APPCB",22-05-2024 06:00:00,16.509717,80.612222,SO2,3,8,7
India,Andhra_Pradesh,Vijayawada,"Rajiv Gandhi Park, Vijayawada - APPCB",22-05-2024 06:00:00,16.509717,80.612222,CO,38,46,38
India,Andhra_Pradesh,Vijayawada,"Rajiv Gandhi Park, Vijayawada - APPCB",22-05-2024 06:00:00,16.509717,80.612222,OZONE,2,34,4
India,Andhra_Pradesh,Vijayawada,"Rajiv Nagar, Vijayawada - APPCB",22-05-2024 06:00:00,16.554731,80.649110,NO2,12,13,12
India,Andhra_Pradesh,Vijayawada,"Rajiv Nagar, Vijayawada - APPCB",22-05-2024 06:00:00,16.554731,80.649110,NH3,2,3,2
India,Andhra_Pradesh,Vijayawada,"Rajiv Nagar, Vijayawada - APPCB",22-05-2024 06:00:00,16.554731,80.649110,CO,36,36,36
India,Andhra_Pradesh,Visakhapatnam,"GVM Corporation, Visakhapatnam - APPCB",22-05-2024 06:00:00,17.72,83.3,OZONE,9,28,12
India,Assam,Byrnihat,"Central Academy for SFS, Byrnihat - PCBA",22-05-2024 06:00:00,26.071318,91.87488,PM10,42,500,219
India,Assam,Guwahati,"IITG, Guwahati - PCBA",22-05-2024 06:00:00,26.2028636,91.70046436,SO2,13,13,13
India,Assam,Guwahati,"LGBI Airport, Guwahati - PCBA",22-05-2024 06:00:00,26.10887,91.589544,NH3,1,6,3
India,Assam,Nagaon,"Christianpatty, Nagaon - PCBA",22-05-2024 06:00:00,26.349082,92.68449,NH3,2,11,4
India,Assam,Nalbari,"Bata Chowk, Nalbari - PCBA",22-05-2024 06:00:00,26.446912,91.439057,OZONE,6,32,8
India,Assam,Silchar,"Tarapur, Silchar - PCBA",22-05-2024 06:00:00,24.82827,92.79525,NH3,1,1,1
India,Assam,Sivasagar,"Girls College, Sivasagar - PCBA",22-05-2024 06:00:00,26.987634,94.636574,PM2.5,21,48,32
India,Assam,Sivasagar,"Girls College, Sivasagar - PCBA",22-05-2024 06:00:00,26.987634,94.636574,PM10,52,73,59
India,Bihar,Araria,"Kharahiya Basti, Araria - BSPCB",22-05-2024 06:00:00,26.146529,87.454184,PM10,NA,NA,NA
India,Bihar,Araria,"Kharahiya Basti, Araria - BSPCB",22-05-2024 06:00:00,26.146529,87.454184,OZONE,1,10,8
India,Bihar,Aurangabad,"Gurdeo Nagar, Aurangabad - BSPCB",22-05-2024 06:00:00,24.75746,84.366208,PM10,NA,NA,NA
India,Bihar,Aurangabad,"Gurdeo Nagar, Aurangabad - BSPCB",22-05-2024 06:00:00,24.75746,84.366208,OZONE,12,125,57
India,Bihar,Bettiah,"Kamalnath Nagar, Bettiah - BSPCB",22-05-2024 06:00:00,26.80365,84.51954,OZONE,1,12,5
India,Bihar,Bhagalpur,"DM Office_Kachari Chowk, Bhagalpur - BSPCB",22-05-2024 06:00:00,25.251013,86.989001,PM10,NA,NA,NA
India,Bihar,Bhagalpur,"DM Office_Kachari Chowk, Bhagalpur - BSPCB",22-05-2024 06:00:00,25.251013,86.989001,OZONE,43,51,46
India,Bihar,Bhagalpur,"Mayaganj, Bhagalpur - BSPCB",22-05-2024 06:00:00,25.265194,87.012947,NO2,2,11,6
India,Bihar,Bhagalpur,"Mayaganj, Bhagalpur - BSPCB",22-05-2024 06:00:00,25.265194,87.012947,OZONE,10,35,15
India,Bihar,Bihar Sharif,"D M Colony, Bihar Sharif - BSPCB",22-05-2024 06:00:00,25.204762,85.514960,PM10,NA,NA,NA
India,Bihar,Bihar Sharif,"D M Colony, Bihar Sharif - BSPCB",22-05-2024 06:00:00,25.204762,85.514960,NO2,8,10,9
India,Bihar,Buxar,"Charitra Van, Buxar - BSPCB (Formerly known as Central Jail)",22-05-2024 06:00:00,25.567520,83.966379,PM2.5,NA,NA,NA
India,Bihar,Buxar,"Charitra Van, Buxar - BSPCB (Formerly known as Central Jail)",22-05-2024 06:00:00,25.567520,83.966379,NO2,NA,NA,NA
India,Bihar,Buxar,"Charitra Van, Buxar - BSPCB (Formerly known as Central Jail)",22-05-2024 06:00:00,25.567520,83.966379,CO,49,92,63
India,Bihar,Buxar,"Charitra Van, Buxar - BSPCB (Formerly known as Central Jail)",22-05-2024 06:00:00,25.567520,83.966379,OZONE,7,147,43
India,Bihar,Gaya,"Kareemganj, Gaya - BSPCB",22-05-2024 06:00:00,24.792403,84.992416,PM10,NA,NA,NA
India,Bihar,Gaya,"Kareemganj, Gaya - BSPCB",22-05-2024 06:00:00,24.792403,84.992416,NO2,8,22,19
India,Bihar,Gaya,"SFTI Kusdihra, Gaya - BSPCB",22-05-2024 06:00:00,24.762518,84.982348,PM2.5,19,98,53
India,Bihar,Gaya,"SFTI Kusdihra, Gaya - BSPCB",22-05-2024 06:00:00,24.762518,84.982348,PM10,45,82,56
India,Bihar,Gaya,"SFTI Kusdihra, Gaya - BSPCB",22-05-2024 06:00:00,24.762518,84.982348,NH3,3,6,4
India,Bihar,Gaya,"SFTI Kusdihra, Gaya - BSPCB",22-05-2024 06:00:00,24.762518,84.982348,SO2,7,9,8
India,Bihar,Gaya,"SFTI Kusdihra, Gaya - BSPCB",22-05-2024 06:00:00,24.762518,84.982348,CO,7,36,32
India,Bihar,Katihar,"Mirchaibari, Katihar - BSPCB",22-05-2024 06:00:00,25.560083,87.553265,CO,1,40,31
India,Bihar,Munger,"Town Hall, Munger - BSPCB",22-05-2024 06:00:00,25.376776,86.471523,PM2.5,30,263,89
India,Bihar,Munger,"Town Hall, Munger - BSPCB",22-05-2024 06:00:00,25.376776,86.471523,NO2,4,6,5
India,Bihar,Muzaffarpur,"Buddha Colony, Muzaffarpur - BSPCB",22-05-2024 06:00:00,26.11442,85.39813,PM2.5,44,114,74
India,Bihar,Muzaffarpur,"Buddha Colony, Muzaffarpur - BSPCB",22-05-2024 06:00:00,26.11442,85.39813,PM10,47,118,84
India,Bihar,Muzaffarpur,"Buddha Colony, Muzaffarpur - BSPCB",22-05-2024 06:00:00,26.11442,85.39813,NH3,6,12,9
India,Bihar,Muzaffarpur,"Buddha Colony, Muzaffarpur - BSPCB",22-05-2024 06:00:00,26.11442,85.39813,CO,16,39,25
India,Bihar,Muzaffarpur,"Muzaffarpur Collectorate, Muzaffarpur - BSPCB",22-05-2024 06:00:00,26.1209,85.3647,SO2,6,19,11
India,Bihar,Patna,"DRM Office Danapur, Patna - BSPCB",22-05-2024 06:00:00,25.586562,85.043586,PM2.5,40,124,72
India,Bihar,Patna,"DRM Office Danapur, Patna - BSPCB",22-05-2024 06:00:00,25.586562,85.043586,SO2,5,11,7
India,Bihar,Patna,"Govt. High School Shikarpur, Patna - BSPCB",22-05-2024 06:00:00,25.592539,85.227158,NO2,21,24,22
India,Bihar,Patna,"Govt. High School Shikarpur, Patna - BSPCB",22-05-2024 06:00:00,25.592539,85.227158,CO,36,53,41
India,Bihar,Patna,"IGSC Planetarium Complex, Patna - BSPCB",22-05-2024 06:00:00,25.610369,85.132568,CO,9,14,12
India,Bihar,Patna,"Muradpur, Patna - BSPCB",22-05-2024 06:00:00,25.619651,85.147382,CO,36,70,55
India,Bihar,Patna,"Rajbansi Nagar, Patna - BSPCB",22-05-2024 06:00:00,25.599486,85.113666,NO2,5,57,27
India,Bihar,Patna,"Rajbansi Nagar, Patna - BSPCB",22-05-2024 06:00:00,25.599486,85.113666,CO,20,53,32
India,Bihar,Purnia,"Mariam Nagar, Purnia - BSPCB",22-05-2024 06:00:00,25.366336,87.117468,NO2,NA,NA,NA
India,Bihar,Rajgir,"Dangi Tola, Rajgir - BSPCB",22-05-2024 06:00:00,25.03280,85.41948,NH3,NA,NA,NA
India,Bihar,Saharsa,"Police Line, Saharsa - BSPCB",22-05-2024 06:00:00,25.892357,86.590325,SO2,16,17,16
India,Bihar,Samastipur,"DM Office_Kasipur, Samastipur - BSPCB",22-05-2024 06:00:00,25.859655,85.77944,CO,46,163,163
India,Bihar,Samastipur,"DM Office_Kasipur, Samastipur - BSPCB",22-05-2024 06:00:00,25.859655,85.77944,OZONE,1,9,3
India,Bihar,Sasaram,"Dada Peer, Sasaram - BSPCB",22-05-2024 06:00:00,24.952822,84.002396,PM2.5,3,19,10
India,Bihar,Siwan,"Chitragupta Nagar, Siwan - BSPCB",22-05-2024 06:00:00,26.2271665,84.3570427,PM2.5,NA,NA,NA
India,Chandigarh,Chandigarh,"Sector 22, Chandigarh - CPCC",22-05-2024 06:00:00,30.735567,76.775714,PM10,101,255,146
India,Chandigarh,Chandigarh,"Sector-25, Chandigarh - CPCC",22-05-2024 06:00:00,30.751462,76.762879,NH3,11,39,17
India,Chandigarh,Chandigarh,"Sector-25, Chandigarh - CPCC",22-05-2024 06:00:00,30.751462,76.762879,CO,20,100,49
India,Chandigarh,Chandigarh,"Sector-53, Chandigarh - CPCC",22-05-2024 06:00:00,30.719859,76.738637,NO2,11,146,38
India,Chhattisgarh,Bhilai,"32Bungalows, Bhilai - CECB",22-05-2024 06:00:00,21.194815,81.314770,NH3,6,7,6
India,Chhattisgarh,Bhilai,"Civic Center, Bhilai - Bhilai Steel Plant",22-05-2024 06:00:00,21.185571,81.343175,PM10,24,93,44
India,Chhattisgarh,Bhilai,"Civic Center, Bhilai - Bhilai Steel Plant",22-05-2024 06:00:00,21.185571,81.343175,CO,28,54,41
India,Chhattisgarh,Bhilai,"Hathkhoj, Bhilai - CECB",22-05-2024 06:00:00,21.224231,81.408350,NO2,8,33,14
India,Chhattisgarh,Bhilai,"Hathkhoj, Bhilai - CECB",22-05-2024 06:00:00,21.224231,81.408350,NH3,8,9,9
India,Chhattisgarh,Bilaspur,"Mangala, Bilaspur - NTPC",22-05-2024 06:00:00,22.08815,82.13737,PM10,25,86,52
India,Chhattisgarh,Korba,"Rampur, Korba - CECB",22-05-2024 06:00:00,22.368195,82.746431,OZONE,8,36,9
India,Chhattisgarh,Korba,"Urja Nagar, Korba - CECB",22-05-2024 06:00:00,22.348441,82.549611,NH3,2,13,5
India,Chhattisgarh,Korba,"Urja Nagar, Korba - CECB",22-05-2024 06:00:00,22.348441,82.549611,SO2,2,5,3
India,Chhattisgarh,Milupara,"Govt. Higher Secondary School, Milupara - CECB",22-05-2024 06:00:00,22.1910172,83.5197009,PM10,25,71,38
India,Chhattisgarh,Milupara,"Govt. Higher Secondary School, Milupara - CECB",22-05-2024 06:00:00,22.1910172,83.5197009,NH3,NA,NA,NA
India,Chhattisgarh,Raipur,"Bhatagaon New ISBT, Raipur - CECB",22-05-2024 06:00:00,21.219665,81.630094,NO2,2,8,5
India,Chhattisgarh,Raipur,"Bhatagaon New ISBT, Raipur - CECB",22-05-2024 06:00:00,21.219665,81.630094,NH3,2,2,2
India,Chhattisgarh,Tumidih,"OP Jindal Industrial Park, Tumidih - CECB",22-05-2024 06:00:00,22.06631475,83.33820077,SO2,NA,NA,NA
India,Chhattisgarh,Tumidih,"OP Jindal Industrial Park, Tumidih - CECB",22-05-2024 06:00:00,22.06631475,83.33820077,OZONE,NA,NA,NA
India,Delhi,Delhi,"Anand Vihar, Delhi - DPCC",22-05-2024 06:00:00,28.647622,77.3158090,PM2.5,23,330,192
India,Delhi,Delhi,"Bawana, Delhi - DPCC",22-05-2024 06:00:00,28.776200,77.051074,PM10,152,436,276
India,Delhi,Delhi,"Bawana, Delhi - DPCC",22-05-2024 06:00:00,28.776200,77.051074,NO2,8,47,23
India,Delhi,Delhi,"Bawana, Delhi - DPCC",22-05-2024 06:00:00,28.776200,77.051074,OZONE,9,263,17
India,Delhi,Delhi,"Burari Crossing, Delhi - IMD",22-05-2024 06:00:00,28.7256504,77.2011573,PM10,NA,NA,NA
India,Delhi,Delhi,"Burari Crossing, Delhi - IMD",22-05-2024 06:00:00,28.7256504,77.2011573,NO2,NA,NA,NA
India,Delhi,Delhi,"CRRI Mathura Road, Delhi - IMD",22-05-2024 06:00:00,28.5512005,77.2735737,OZONE,7,98,20
India,Delhi,Delhi,"Chandni Chowk, Delhi - IITM",22-05-2024 06:00:00,28.656756,77.227234,PM2.5,194,289,241
India,Delhi,Delhi,"Chandni Chowk, Delhi - IITM",22-05-2024 06:00:00,28.656756,77.227234,SO2,14,61,34
India,Delhi,Delhi,"Chandni Chowk, Delhi - IITM",22-05-2024 06:00:00,28.656756,77.227234,CO,48,74,54
India,Delhi,Delhi,"DTU, Delhi - CPCB",22-05-2024 06:00:00,28.7500499,77.1112615,PM10,133,334,220
India,Delhi,Delhi,"DTU, Delhi - CPCB",22-05-2024 06:00:00,28.7500499,77.1112615,OZONE,26,32,28
India,Delhi,Delhi,"Dr. Karni Singh Shooting Range, Delhi - DPCC",22-05-2024 06:00:00,28.498571,77.264840,PM2.5,NA,NA,NA
India,Delhi,Delhi,"Dwarka-Sector 8, Delhi - DPCC ",22-05-2024 06:00:00,28.5710274,77.0719006,PM10,155,403,226
India,Delhi,Delhi,"IGI Airport (T3), Delhi - IMD",22-05-2024 06:00:00,28.5627763,77.1180053,PM10,124,185,156
India,Delhi,Delhi,"IHBAS, Dilshad Garden, Delhi - CPCB",22-05-2024 06:00:00,28.6811736,77.3025234,PM2.5,92,200,128
India,Delhi,Delhi,"ITO, Delhi - CPCB",22-05-2024 06:00:00,28.628624,77.241060,NO2,1,106,59
India,Delhi,Delhi,"ITO, Delhi - CPCB",22-05-2024 06:00:00,28.628624,77.241060,NH3,3,10,6
India,Delhi,Delhi,"Jahangirpuri, Delhi - DPCC",22-05-2024 06:00:00,28.732820,77.170633,PM2.5,77,307,161
India,Delhi,Delhi,"Jahangirpuri, Delhi - DPCC",22-05-2024 06:00:00,28.732820,77.170633,PM10,157,428,262
India,Delhi,Delhi,"Jahangirpuri, Delhi - DPCC",22-05-2024 06:00:00,28.732820,77.170633,NH3,2,9,5
India,Delhi,Delhi,"Jahangirpuri, Delhi - DPCC",22-05-2024 06:00:00,28.732820,77.170633,CO,44,116,84
India,Delhi,Delhi,"Jahangirpuri, Delhi - DPCC",22-05-2024 06:00:00,28.732820,77.170633,OZONE,7,190,23
India,Delhi,Delhi,"Lodhi Road, Delhi - IITM",22-05-2024 06:00:00,28.588333,77.221667,PM10,57,138,92
India,Delhi,Delhi,"Lodhi Road, Delhi - IMD",22-05-2024 06:00:00,28.5918245,77.2273074,CO,16,33,26
India,Delhi,Delhi,"Lodhi Road, Delhi - IMD",22-05-2024 06:00:00,28.5918245,77.2273074,OZONE,11,69,15
India,Delhi,Delhi,"Major Dhyan Chand National Stadium, Delhi - DPCC",22-05-2024 06:00:00,28.611281,77.237738,PM2.5,107,217,160
India,Delhi,Delhi,"Major Dhyan Chand National Stadium, Delhi - DPCC",22-05-2024 06:00:00,28.611281,77.237738,OZONE,10,266,24
India,Delhi,Delhi,"NSIT Dwarka, Delhi - CPCB",22-05-2024 06:00:00,28.60909,77.0325413,PM10,164,314,218
India,Delhi,Delhi,"NSIT Dwarka, Delhi - CPCB",22-05-2024 06:00:00,28.60909,77.0325413,OZONE,11,105,17
India,Delhi,Delhi,"Najafgarh, Delhi - DPCC",22-05-2024 06:00:00,28.570173,76.933762,PM2.5,60,282,122
India,Delhi,Delhi,"Najafgarh, Delhi - DPCC",22-05-2024 06:00:00,28.570173,76.933762,PM10,134,286,201
India,Delhi,Delhi,"Narela, Delhi - DPCC",22-05-2024 06:00:00,28.822836,77.101981,SO2,17,52,29
India,Delhi,Delhi,"New Moti Bagh, Delhi - MHUA",22-05-2024 06:00:00,28.57834,77.18400,NO2,7,35,16
India,Delhi,Delhi,"Okhla Phase-2, Delhi - DPCC",22-05-2024 06:00:00,28.530785,77.271255,NH3,9,17,14
India,Delhi,Delhi,"Okhla Phase-2, Delhi - DPCC",22-05-2024 06:00:00,28.530785,77.271255,CO,53,99,77
India,Delhi,Delhi,"Pusa, Delhi - DPCC",22-05-2024 06:00:00,28.639652,77.146275,PM2.5,77,187,98
India,Delhi,Delhi,"Pusa, Delhi - DPCC",22-05-2024 06:00:00,28.639652,77.146275,CO,15,62,43
India,Delhi,Delhi,"Pusa, Delhi - IMD",22-05-2024 06:00:00,28.636110,77.173332,NO2,NA,NA,NA
India,Delhi,Delhi,"Pusa, Delhi - IMD",22-05-2024 06:00:00,28.636110,77.173332,CO,58,70,67
India,Delhi,Delhi,"R K Puram, Delhi - DPCC",22-05-2024 06:00:00,28.563262,77.186937,PM10,139,376,221
India,Delhi,Delhi,"R K Puram, Delhi - DPCC",22-05-2024 06:00:00,28.563262,77.186937,NH3,2,17,11
India,Delhi,Delhi,"R K Puram, Delhi - DPCC",22-05-2024 06:00:00,28.563262,77.186937,SO2,4,25,15
India,Delhi,Delhi,"Shadipur, Delhi - CPCB",22-05-2024 06:00:00,28.6514781,77.1473105,NH3,7,10,9
India,Delhi,Delhi,"Sirifort, Delhi - CPCB",22-05-2024 06:00:00,28.5504249,77.2159377,NH3,14,22,19
India,Delhi,Delhi,"Sirifort, Delhi - CPCB",22-05-2024 06:00:00,28.5504249,77.2159377,OZONE,8,143,31
India,Delhi,Delhi,"Sonia Vihar, Delhi - DPCC",22-05-2024 06:00:00,28.710508,77.249485,CO,62,106,90
India,Delhi,Delhi,"Sonia Vihar, Delhi - DPCC",22-05-2024 06:00:00,28.710508,77.249485,OZONE,13,194,40
India,Delhi,Delhi,"Sri Aurobindo Marg, Delhi - DPCC",22-05-2024 06:00:00,28.531346,77.190156,PM2.5,NA,NA,NA
India,Delhi,Delhi,"Sri Aurobindo Marg, Delhi - DPCC",22-05-2024 06:00:00,28.531346,77.190156,PM10,NA,NA,NA
India,Delhi,Delhi,"Sri Aurobindo Marg, Delhi - DPCC",22-05-2024 06:00:00,28.531346,77.190156,NH3,NA,NA,NA
India,Delhi,Delhi,"Vivek Vihar, Delhi - DPCC",22-05-2024 06:00:00,28.672342,77.315260,CO,22,72,45
India,Delhi,Delhi,"Wazirpur, Delhi - DPCC",22-05-2024 06:00:00,28.699793,77.165453,PM2.5,97,280,156
India,Gujarat,Ahmedabad,"Gyaspur, Ahmedabad - IITM",22-05-2024 06:00:00,22.977134,72.553024,PM2.5,79,381,156
India,Gujarat,Ahmedabad,"Gyaspur, Ahmedabad - IITM",22-05-2024 06:00:00,22.977134,72.553024,SO2,10,30,24
India,Gujarat,Ahmedabad,"Maninagar, Ahmedabad - GPCB",22-05-2024 06:00:00,23.002657,72.591912,CO,9,117,54
India,Gujarat,Ahmedabad,"Raikhad, Ahmedabad - IITM",22-05-2024 06:00:00,23.020509,72.579261,CO,6,132,18
India,Gujarat,Ahmedabad,"Rakhial, Ahmedabad - IITM",22-05-2024 06:00:00,23.016834,72.625775,PM2.5,44,332,89
India,Gujarat,Ahmedabad,"SVPI Airport Hansol, Ahmedabad - IITM",22-05-2024 06:00:00,23.076793,72.627874,NH3,5,6,5
India,Gujarat,Ahmedabad,"SVPI Airport Hansol, Ahmedabad - IITM",22-05-2024 06:00:00,23.076793,72.627874,CO,12,101,38
India,Gujarat,Ahmedabad,"Sardar Vallabhbhai Patel Stadium, Ahmedabad - IITM",22-05-2024 06:00:00,23.043070,72.562968,PM2.5,57,261,102
India,Gujarat,Ahmedabad,"Sardar Vallabhbhai Patel Stadium, Ahmedabad - IITM",22-05-2024 06:00:00,23.043070,72.562968,PM10,68,177,101
India,Gujarat,Ahmedabad,"Sardar Vallabhbhai Patel Stadium, Ahmedabad - IITM",22-05-2024 06:00:00,23.043070,72.562968,NO2,1,35,31
India,Gujarat,Ankleshwar,"GIDC, Ankleshwar - GPCB",22-05-2024 06:00:00,21.613267,73.010555,PM2.5,43,90,65
India,Gujarat,Gandhinagar,"Sector-10, Gandhinagar - GPCB",22-05-2024 06:00:00,23.221714,72.654328,PM2.5,25,72,43
India,Gujarat,Gandhinagar,"Sector-10, Gandhinagar - GPCB",22-05-2024 06:00:00,23.221714,72.654328,NO2,13,14,13
India,Gujarat,Vapi,"Phase-1 GIDC, Vapi - GPCB",22-05-2024 06:00:00,20.362421,72.918013,NH3,2,2,2
India,Gujarat,Vatva,"Phase-4 GIDC, Vatva - GPCB",22-05-2024 06:00:00,22.969611,72.643500,SO2,2,38,13
India,Haryana,Ambala,"Patti Mehar, Ambala - HSPCB",22-05-2024 06:00:00,30.379589,76.778328,PM2.5,54,86,66
India,Haryana,Ambala,"Patti Mehar, Ambala - HSPCB",22-05-2024 06:00:00,30.379589,76.778328,NH3,5,12,8
India,Haryana,Ambala,"Patti Mehar, Ambala - HSPCB",22-05-2024 06:00:00,30.379589,76.778328,SO2,27,61,53
India,Haryana,Ambala,"Patti Mehar, Ambala - HSPCB",22-05-2024 06:00:00,30.379589,76.778328,CO,30,60,38
India,Haryana,Bahadurgarh,"Arya Nagar, Bahadurgarh - HSPCB",22-05-2024 06:00:00,28.6701,76.9254,SO2,12,32,21
India,Haryana,Ballabgarh,"Nathu Colony, Ballabgarh - HSPCB",22-05-2024 06:00:00,28.3419248,77.319699,SO2,5,31,15
India,Haryana,Ballabgarh,"Nathu Colony, Ballabgarh - HSPCB",22-05-2024 06:00:00,28.3419248,77.319699,CO,14,62,39
India,Haryana,Ballabgarh,"Nathu Colony, Ballabgarh - HSPCB",22-05-2024 06:00:00,28.3419248,77.319699,OZONE,24,54,30
India,Haryana,Charkhi Dadri,"Mini Secretariat, Charkhi Dadri - HSPCB",22-05-2024 06:00:00,28.593883,76.270653,NH3,6,8,7
India,Haryana,Charkhi Dadri,"Mini Secretariat, Charkhi Dadri - HSPCB",22-05-2024 06:00:00,28.593883,76.270653,OZONE,13,18,15
India,Haryana,Dharuhera,"Municipal Corporation Office, Dharuhera -  HSPCB",22-05-2024 06:00:00,28.206800,76.799700,PM2.5,86,295,195
India,Haryana,Dharuhera,"Municipal Corporation Office, Dharuhera -  HSPCB",22-05-2024 06:00:00,28.206800,76.799700,NH3,9,26,19
India,Haryana,Dharuhera,"Municipal Corporation Office, Dharuhera -  HSPCB",22-05-2024 06:00:00,28.206800,76.799700,SO2,12,134,50
India,Haryana,Dharuhera,"Municipal Corporation Office, Dharuhera -  HSPCB",22-05-2024 06:00:00,28.206800,76.799700,CO,34,62,54
India,Haryana,Faridabad,"New Industrial Town, Faridabad - HSPCB",22-05-2024 06:00:00,28.39072,77.30059,PM2.5,200,335,298
India,Haryana,Faridabad,"New Industrial Town, Faridabad - HSPCB",22-05-2024 06:00:00,28.39072,77.30059,NH3,1,3,2
India,Haryana,Faridabad,"Sector 30, Faridabad - HSPCB",22-05-2024 06:00:00,28.4417,77.3217,PM2.5,NA,NA,NA
India,Haryana,Faridabad,"Sector 30, Faridabad - HSPCB",22-05-2024 06:00:00,28.4417,77.3217,SO2,NA,NA,NA
India,Haryana,Faridabad,"Sector 30, Faridabad - HSPCB",22-05-2024 06:00:00,28.4417,77.3217,CO,54,56,54
India,Haryana,Fatehabad,"Huda Sector, Fatehabad - HSPCB",22-05-2024 06:00:00,29.503664,75.467934,PM10,90,153,129
India,Haryana,Fatehabad,"Huda Sector, Fatehabad - HSPCB",22-05-2024 06:00:00,29.503664,75.467934,NH3,10,11,10
India,Haryana,Gurugram,"Sector-51, Gurugram - HSPCB",22-05-2024 06:00:00,28.4227,77.0667,NO2,13,29,23
India,Haryana,Gurugram,"Sector-51, Gurugram - HSPCB",22-05-2024 06:00:00,28.4227,77.0667,NH3,6,14,9
India,Haryana,Gurugram,"Teri Gram, Gurugram - HSPCB",22-05-2024 06:00:00,28.4275,77.1465,SO2,6,8,6
India,Haryana,Gurugram,"Vikas Sadan, Gurugram - HSPCB",22-05-2024 06:00:00,28.4501238,77.0263051,NO2,5,25,14
India,Haryana,Hisar,"Urban Estate-II, Hisar - HSPCB",22-05-2024 06:00:00,29.140560,75.744941,NH3,9,13,10
India,Haryana,Jind,"Police Lines, Jind - HSPCB",22-05-2024 06:00:00,29.307814,76.337619,NO2,NA,NA,NA
India,Haryana,Jind,"Police Lines, Jind - HSPCB",22-05-2024 06:00:00,29.307814,76.337619,SO2,1,95,15
India,Haryana,Kaithal,"Rishi Nagar, Kaithal - HSPCB",22-05-2024 06:00:00,29.8006,76.4155,PM10,146,296,215
India,Haryana,Kurukshetra,"Sector-7, Kurukshetra - HSPCB",22-05-2024 06:00:00,29.966942,76.875879,NO2,16,21,19
India,Haryana,Mandikhera,"General Hospital, Mandikhera - HSPCB",22-05-2024 06:00:00,27.9002,76.9938,PM10,106,170,141
India,Haryana,Manesar,"Sector-2 IMT, Manesar - HSPCB",22-05-2024 06:00:00,28.360699,76.936090,PM2.5,83,179,116
India,Haryana,Manesar,"Sector-2 IMT, Manesar - HSPCB",22-05-2024 06:00:00,28.360699,76.936090,NH3,2,5,3
India,Haryana,Narnaul,"Shastri Nagar, Narnaul - HSPCB",22-05-2024 06:00:00,28.060249,76.113115,OZONE,12,71,62
India,Haryana,Palwal,"Shyam Nagar, Palwal - HSPCB",22-05-2024 06:00:00,28.1485564,77.3320667,OZONE,5,52,12
India,Haryana,Panchkula,"Sector-6, Panchkula - HSPCB ",22-05-2024 06:00:00,30.7057778,76.8531805555555,PM2.5,NA,NA,NA
India,Haryana,Panchkula,"Sector-6, Panchkula - HSPCB ",22-05-2024 06:00:00,30.7057778,76.8531805555555,CO,NA,NA,NA
India,Haryana,Panipat,"Sector-18, Panipat - HSPCB",22-05-2024 06:00:00,29.432304,76.972765,PM10,88,96,89
India,Haryana,Panipat,"Sector-18, Panipat - HSPCB",22-05-2024 06:00:00,29.432304,76.972765,CO,24,26,26
India,Haryana,Sonipat,"Murthal, Sonipat - HSPCB",22-05-2024 06:00:00,29.027200,77.062100,PM10,103,196,142
India,Haryana,Sonipat,"Murthal, Sonipat - HSPCB",22-05-2024 06:00:00,29.027200,77.062100,NH3,5,10,9
India,Haryana,Sonipat,"Murthal, Sonipat - HSPCB",22-05-2024 06:00:00,29.027200,77.062100,CO,14,52,29
India,Haryana,Sonipat,"Murthal, Sonipat - HSPCB",22-05-2024 06:00:00,29.027200,77.062100,OZONE,16,35,19
India,Haryana,Yamuna Nagar,"Gobind Pura, Yamuna Nagar - HSPCB",22-05-2024 06:00:00,30.1480566,77.2893471,PM2.5,21,146,101
India,Haryana,Yamuna Nagar,"Gobind Pura, Yamuna Nagar - HSPCB",22-05-2024 06:00:00,30.1480566,77.2893471,NO2,11,21,16
India,Haryana,Yamuna Nagar,"Gobind Pura, Yamuna Nagar - HSPCB",22-05-2024 06:00:00,30.1480566,77.2893471,OZONE,38,64,46
India,Himachal Pradesh,Baddi,"HIMUDA Complex Phase-1, Baddi - HPPCB",22-05-2024 06:00:00,30.943887,76.801991,PM10,94,211,151
India,Himachal Pradesh,Baddi,"HIMUDA Complex Phase-1, Baddi - HPPCB",22-05-2024 06:00:00,30.943887,76.801991,NO2,11,58,30
India,Himachal Pradesh,Baddi,"HIMUDA Complex Phase-1, Baddi - HPPCB",22-05-2024 06:00:00,30.943887,76.801991,CO,22,56,43
India,Jammu_and_Kashmir,Srinagar,"Rajbagh, Srinagar - JKSPCB",22-05-2024 06:00:00,34.066206,74.819820,SO2,NA,NA,NA
India,Jammu_and_Kashmir,Srinagar,"Rajbagh, Srinagar - JKSPCB",22-05-2024 06:00:00,34.066206,74.819820,OZONE,12,15,12
India,Jharkhand,Dhanbad,"Kalakusuma, Dhanbad - DMC",22-05-2024 06:00:00,23.811548,86.481238,NO2,13,14,14
India,Jharkhand,Jorapokhar,"Tata Stadium, Jorapokhar - JSPCB",22-05-2024 06:00:00,23.707909,86.414670,SO2,NA,NA,NA
India,Jharkhand,Jorapokhar,"Tata Stadium, Jorapokhar - JSPCB",22-05-2024 06:00:00,23.707909,86.414670,OZONE,1,20,2
India,Karnataka,Bagalkot,"Vidayagiri, Bagalkot - KSPCB",22-05-2024 06:00:00,16.172806,75.659694,PM2.5,36,38,37
India,Karnataka,Bagalkot,"Vidayagiri, Bagalkot - KSPCB",22-05-2024 06:00:00,16.172806,75.659694,PM10,45,46,46
India,Karnataka,Bagalkot,"Vidayagiri, Bagalkot - KSPCB",22-05-2024 06:00:00,16.172806,75.659694,CO,18,60,44
India,Karnataka,Belgaum,"Ramteerth Nagar, Belgaum - KSPCB",22-05-2024 06:00:00,15.888653,74.541751,SO2,9,9,9
India,Karnataka,Bengaluru,"Bapuji Nagar, Bengaluru - KSPCB",22-05-2024 06:00:00,12.951913,77.539784,NH3,1,1,1
India,Karnataka,Bengaluru,"Jayanagar 5th Block, Bengaluru - KSPCB",22-05-2024 06:00:00,12.920984,77.584908,NO2,NA,NA,NA
India,Karnataka,Bengaluru,"Kasturi Nagar, Bengaluru - KSPCB",22-05-2024 06:00:00,13.003872,77.664217,CO,25,26,25
India,Karnataka,Bengaluru,"Peenya, Bengaluru - CPCB",22-05-2024 06:00:00,13.0270199,77.494094,SO2,13,17,15
India,Karnataka,Bengaluru,"RVCE-Mailasandra, Bengaluru - KSPCB",22-05-2024 06:00:00,12.921418,77.502466,PM2.5,10,75,31
India,Karnataka,Bengaluru,"RVCE-Mailasandra, Bengaluru - KSPCB",22-05-2024 06:00:00,12.921418,77.502466,NO2,16,17,17
India,Karnataka,Bengaluru,"RVCE-Mailasandra, Bengaluru - KSPCB",22-05-2024 06:00:00,12.921418,77.502466,CO,31,58,48
India,Karnataka,Bengaluru,"Sanegurava Halli, Bengaluru - KSPCB",22-05-2024 06:00:00,12.990328,77.5431385,NO2,14,33,26
India,Karnataka,Bengaluru,"Shivapura_Peenya, Bengaluru - KSPCB",22-05-2024 06:00:00,13.0246342,77.5080115,NO2,15,16,16
India,Karnataka,Bengaluru,"Shivapura_Peenya, Bengaluru - KSPCB",22-05-2024 06:00:00,13.0246342,77.5080115,NH3,4,4,4
India,Karnataka,Bengaluru,"Silk Board, Bengaluru - KSPCB",22-05-2024 06:00:00,12.917348,77.622813,PM2.5,12,70,24
India,Karnataka,Bengaluru,"Silk Board, Bengaluru - KSPCB",22-05-2024 06:00:00,12.917348,77.622813,SO2,5,10,7
India,Karnataka,Bidar,"Naubad, Bidar - KSPCB",22-05-2024 06:00:00,17.930306,77.482194,PM10,NA,NA,NA
India,Karnataka,Bidar,"Naubad, Bidar - KSPCB",22-05-2024 06:00:00,17.930306,77.482194,CO,75,101,85
India,Karnataka,Chamarajanagar,"Urban, Chamarajanagar - KSPCB",22-05-2024 06:00:00,11.55358,76.55521,SO2,2,6,3
India,Karnataka,Chikkaballapur,"Chikkaballapur Rural, Chikkaballapur - KSPCB",22-05-2024 06:00:00,13.428828,77.731418,PM10,12,32,22
India,Karnataka,Chikkaballapur,"Chikkaballapur Rural, Chikkaballapur - KSPCB",22-05-2024 06:00:00,13.428828,77.731418,OZONE,24,25,24
India,Karnataka,Chikkamagaluru,"Kalyana Nagara, Chikkamagaluru - KSPCB",22-05-2024 06:00:00,13.328028,75.797056,PM10,22,57,35
India,Karnataka,Chikkamagaluru,"Kalyana Nagara, Chikkamagaluru - KSPCB",22-05-2024 06:00:00,13.328028,75.797056,NO2,15,26,20
India,Karnataka,Chikkamagaluru,"Kalyana Nagara, Chikkamagaluru - KSPCB",22-05-2024 06:00:00,13.328028,75.797056,SO2,2,14,5
India,Karnataka,Chikkamagaluru,"Kalyana Nagara, Chikkamagaluru - KSPCB",22-05-2024 06:00:00,13.328028,75.797056,OZONE,15,42,16
India,Karnataka,Davanagere,"Devaraj Urs Badavane, Davanagere - KSPCB",22-05-2024 06:00:00,14.475800,75.905200,PM2.5,11,41,24
India,Karnataka,Davanagere,"Devaraj Urs Badavane, Davanagere - KSPCB",22-05-2024 06:00:00,14.475800,75.905200,PM10,14,59,27
India,Karnataka,Davanagere,"Devaraj Urs Badavane, Davanagere - KSPCB",22-05-2024 06:00:00,14.475800,75.905200,NO2,8,16,12
India,Karnataka,Dharwad,"Kalabhavan, Dharwad - KSPCB",22-05-2024 06:00:00,15.459706,75.008381,PM2.5,13,84,45
India,Karnataka,Dharwad,"Kalabhavan, Dharwad - KSPCB",22-05-2024 06:00:00,15.459706,75.008381,SO2,1,121,41
India,Karnataka,Dharwad,"Kalabhavan, Dharwad - KSPCB",22-05-2024 06:00:00,15.459706,75.008381,OZONE,2,75,16
India,Karnataka,Gadag,"Panchal Nagar, Gadag - KSPCB",22-05-2024 06:00:00,15.411456,75.638133,NO2,5,20,13
India,Karnataka,Hassan,"B.Katihalli, Hassan - KSPCB",22-05-2024 06:00:00,13.008556,76.125258,PM10,NA,NA,NA
India,Karnataka,Hassan,"B.Katihalli, Hassan - KSPCB",22-05-2024 06:00:00,13.008556,76.125258,SO2,1,2,1
India,Karnataka,Haveri,"Ashwini Nagar, Haveri - KSPCB",22-05-2024 06:00:00,14.791800,75.389600,NO2,27,45,32
India,Karnataka,Haveri,"Ashwini Nagar, Haveri - KSPCB",22-05-2024 06:00:00,14.791800,75.389600,OZONE,34,55,40
India,Karnataka,Hubballi,"Deshpande Nagar, Hubballi - KSPCB",22-05-2024 06:00:00,15.351773,75.140726,NO2,NA,NA,NA
India,Karnataka,Hubballi,"Deshpande Nagar, Hubballi - KSPCB",22-05-2024 06:00:00,15.351773,75.140726,NH3,NA,NA,NA
India,Karnataka,Hubballi,"Lingaraj Nagar, Hubballi - KSPCB",22-05-2024 06:00:00,15.3714823,75.1160168,OZONE,6,84,20
India,Karnataka,Kalaburagi,"Lal Bahadur Shastri Nagar, Kalaburagi - KSPCB",22-05-2024 06:00:00,17.321993,76.822628,PM2.5,8,163,39
India,Karnataka,Kalaburagi,"Mahatma Basaveswar Colony, Kalaburgi - KSPCB",22-05-2024 06:00:00,17.336318,76.847397,NH3,2,4,4
India,Karnataka,Karwar,"KHB Colony, Karwar - KSPCB",22-05-2024 06:00:00,14.816666,74.141003,NO2,NA,NA,NA
India,Karnataka,Karwar,"KHB Colony, Karwar - KSPCB",22-05-2024 06:00:00,14.816666,74.141003,SO2,NA,NA,NA
India,Karnataka,Koppal,"Diwator Nagar, Koppal - KSPCB",22-05-2024 06:00:00,15.347630,76.181767,PM2.5,3,42,21
India,Karnataka,Mangalore,"Kadri, Mangalore - KSPCB",22-05-2024 06:00:00,12.889250,74.853000,NO2,5,7,6
India,Karnataka,Mangalore,"Kadri, Mangalore - KSPCB",22-05-2024 06:00:00,12.889250,74.853000,CO,36,43,39
India,Karnataka,Mysuru,"Hebbal 1st Stage, Mysuru - KSPCB",22-05-2024 06:00:00,12.21041,76.37376,NH3,1,3,2
India,Karnataka,Raichur,"Haji Colony, Raichur - KSPCB",22-05-2024 06:00:00,16.208139,77.348417,PM10,NA,NA,NA
India,Karnataka,Ramanagara,"Vijay Nagar, Ramanagara - KSPCB",22-05-2024 06:00:00,12.733409,77.298051,PM2.5,2,70,22
India,Karnataka,Ramanagara,"Vijay Nagar, Ramanagara - KSPCB",22-05-2024 06:00:00,12.733409,77.298051,SO2,35,51,41
India,Karnataka,Shivamogga,"Vinoba Nagara, Shivamogga - KSPCB",22-05-2024 06:00:00,13.940000,75.555917,NH3,1,33,7
India,Karnataka,Vijayapura,"Ibrahimpur, Vijayapura - KSPCB",22-05-2024 06:00:00,16.802639,75.722694,NO2,17,19,19
India,Karnataka,Yadgir,"Collector Office, Yadgir - KSPCB",22-05-2024 06:00:00,16.7602,77.1428,SO2,12,35,22
India,Karnataka,Yadgir,"Collector Office, Yadgir - KSPCB",22-05-2024 06:00:00,16.7602,77.1428,CO,15,34,18
India,Kerala,Kollam,"Polayathode, Kollam - Kerala PCB",22-05-2024 06:00:00,8.8787,76.6073,NH3,1,1,1
India,Kerala,Thiruvananthapuram,"Kariavattom, Thiruvananthapuram - Kerala PCB",22-05-2024 06:00:00,8.563700,76.886500,CO,14,106,18
India,Kerala,Thiruvananthapuram,"Plammoodu, Thiruvananthapuram - Kerala PCB",22-05-2024 06:00:00,8.5149093,76.9435879,NH3,1,1,1
India,Kerala,Thiruvananthapuram,"Plammoodu, Thiruvananthapuram - Kerala PCB",22-05-2024 06:00:00,8.5149093,76.9435879,SO2,4,19,11
India,Kerala,Thrissur,"Corporation Ground, Thrissur - Kerala PCB",22-05-2024 06:00:00,10.532400,76.215900,OZONE,26,31,29
India,Madhya Pradesh,Bhopal,"Idgah Hills, Bhopal - MPPCB",22-05-2024 06:00:00,23.264759,77.381568,PM10,46,109,78
India,Madhya Pradesh,Bhopal,"Idgah Hills, Bhopal - MPPCB",22-05-2024 06:00:00,23.264759,77.381568,SO2,2,17,6
India,Madhya Pradesh,Bhopal,"Idgah Hills, Bhopal - MPPCB",22-05-2024 06:00:00,23.264759,77.381568,OZONE,50,115,76
India,Madhya Pradesh,Bhopal,"Paryavaran Parisar, Bhopal - MPPCB",22-05-2024 06:00:00,23.210494,77.425409,NO2,11,102,42
India,Madhya Pradesh,Bhopal,"Paryavaran Parisar, Bhopal - MPPCB",22-05-2024 06:00:00,23.210494,77.425409,SO2,8,11,9
India,Madhya Pradesh,Bhopal,"Paryavaran Parisar, Bhopal - MPPCB",22-05-2024 06:00:00,23.210494,77.425409,OZONE,6,121,27
India,Madhya Pradesh,Bhopal,"T T Nagar, Bhopal - MPPCB",22-05-2024 06:00:00,23.233584,77.400574,OZONE,51,107,71
India,Madhya Pradesh,Gwalior,"City Center, Gwalior - MPPCB",22-05-2024 06:00:00,26.203442,78.193251,NH3,3,5,4
India,Madhya Pradesh,Gwalior,"Deen Dayal Nagar, Gwalior - MPPCB",22-05-2024 06:00:00,26.259242,78.216432,PM2.5,39,201,101
India,Madhya Pradesh,Gwalior,"Maharaj Bada, Gwalior - MPPCB",22-05-2024 06:00:00,26.200388,78.147714,SO2,11,26,13
India,Madhya Pradesh,Gwalior,"Maharaj Bada, Gwalior - MPPCB",22-05-2024 06:00:00,26.200388,78.147714,OZONE,57,221,107
India,Madhya Pradesh,Gwalior,"Phool Bagh, Gwalior - Mondelez Ind. Food",22-05-2024 06:00:00,26.210536,78.171,CO,75,101,89
India,Madhya Pradesh,Indore,"Chhoti Gwaltoli, Indore - MPPCB",22-05-2024 06:00:00,22.4310,75.5213,NO2,39,167,79
India,Madhya Pradesh,Indore,"Chhoti Gwaltoli, Indore - MPPCB",22-05-2024 06:00:00,22.4310,75.5213,NH3,4,6,5
India,Madhya Pradesh,Indore,"Maguda Nagar, Indore - IMC",22-05-2024 06:00:00,22.7524,75.8872,PM10,32,114,59
India,Madhya Pradesh,Indore,"Maguda Nagar, Indore - IMC",22-05-2024 06:00:00,22.7524,75.8872,NO2,4,6,5
India,Madhya Pradesh,Indore,"Regional Park, Indore - IMC",22-05-2024 06:00:00,22.6780,75.8559,NH3,1,3,2
India,Madhya Pradesh,Indore,"Regional Park, Indore - IMC",22-05-2024 06:00:00,22.6780,75.8559,OZONE,9,27,11
India,Madhya Pradesh,Indore,"Residency Area, Indore - IMC",22-05-2024 06:00:00,22.7084,75.8815,NO2,34,64,46
India,Madhya Pradesh,Jabalpur,"Govindh Bhavan Colony, Jabalpur - JMC",22-05-2024 06:00:00,23.163174,79.973061,PM10,49,123,65
India,Madhya Pradesh,Jabalpur,"Govindh Bhavan Colony, Jabalpur - JMC",22-05-2024 06:00:00,23.163174,79.973061,NH3,3,4,3
India,Madhya Pradesh,Jabalpur,"Govindh Bhavan Colony, Jabalpur - JMC",22-05-2024 06:00:00,23.163174,79.973061,OZONE,61,245,118
India,Madhya Pradesh,Jabalpur,"Gupteshwar, Jabalpur - JMC",22-05-2024 06:00:00,23.142888,79.916147,PM2.5,33,73,48
India,Madhya Pradesh,Jabalpur,"Marhatal, Jabalpur - MPPCB",22-05-2024 06:00:00,23.168606,79.932247,CO,30,106,38
India,Madhya Pradesh,Jabalpur,"Suhagi, Jabalpur - JMC",22-05-2024 06:00:00,23.218135,79.957770,SO2,14,18,16
India,Madhya Pradesh,Jabalpur,"Suhagi, Jabalpur - JMC",22-05-2024 06:00:00,23.218135,79.957770,CO,9,38,24
India,Madhya Pradesh,Katni,"Gole Bazar, Katni - MPPCB",22-05-2024 06:00:00,23.50016,80.23284,PM2.5,33,88,45
India,Madhya Pradesh,Maihar,"Sahilara, Maihar - KJS Cements",22-05-2024 06:00:00,24.2613009,80.7231783,PM2.5,6,151,69
India,Madhya Pradesh,Mandideep,"Sector-D Industrial Area, Mandideep - MPPCB",22-05-2024 06:00:00,23.108440,77.511428,NH3,5,13,8
India,Madhya Pradesh,Pithampur,"Sector-2 Industrial Area, Pithampur - MPPCB",22-05-2024 06:00:00,22.624758,75.675238,SO2,11,14,12
India,Madhya Pradesh,Pithampur,"Sector-2 Industrial Area, Pithampur - MPPCB",22-05-2024 06:00:00,22.624758,75.675238,CO,41,57,51
India,Madhya Pradesh,Ratlam,"Shasthri Nagar, Ratlam - IPCA Lab",22-05-2024 06:00:00,23.331731,75.045981,PM10,NA,NA,NA
India,Madhya Pradesh,Sagar,"Civil Lines, Sagar - MPPCB",22-05-2024 06:00:00,23.838586,78.759431,NO2,6,33,16
India,Madhya Pradesh,Sagar,"Civil Lines, Sagar - MPPCB",22-05-2024 06:00:00,23.838586,78.759431,NH3,2,7,4
India,Madhya Pradesh,Sagar,"Deen Dayal Nagar, Sagar - MPPCB",22-05-2024 06:00:00,23.8640158,78.80289321,PM2.5,11,66,28
India,Madhya Pradesh,Sagar,"Deen Dayal Nagar, Sagar - MPPCB",22-05-2024 06:00:00,23.8640158,78.80289321,CO,57,72,64
India,Madhya Pradesh,Satna,"Bandhavgar Colony, Satna - Birla Cement",22-05-2024 06:00:00,24.58434363,80.8549414,PM2.5,15,68,45
India,Madhya Pradesh,Satna,"Bandhavgar Colony, Satna - Birla Cement",22-05-2024 06:00:00,24.58434363,80.8549414,PM10,34,55,45
India,Madhya Pradesh,Satna,"Bandhavgar Colony, Satna - Birla Cement",22-05-2024 06:00:00,24.58434363,80.8549414,NO2,32,65,39
India,Madhya Pradesh,Satna,"Bandhavgar Colony, Satna - Birla Cement",22-05-2024 06:00:00,24.58434363,80.8549414,CO,35,90,76
India,Madhya Pradesh,Singrauli,"Suryakiran Bhawan NCL, Singrauli - MPPCB",22-05-2024 06:00:00,24.108970,82.645580,NH3,4,7,4
India,Madhya Pradesh,Singrauli,"Suryakiran Bhawan NCL, Singrauli - MPPCB",22-05-2024 06:00:00,24.108970,82.645580,SO2,13,37,22
India,Madhya Pradesh,Ujjain,"Mahakaleshwar Temple, Ujjain - MPPCB",22-05-2024 06:00:00,23.182719 ,75.768218 ,NO2,13,50,28
India,Madhya Pradesh,Ujjain,"Mahakaleshwar Temple, Ujjain - MPPCB",22-05-2024 06:00:00,23.182719 ,75.768218 ,OZONE,94,151,129
India,Maharashtra,Akola,"Ramdaspeth, Akola - MPCB",22-05-2024 06:00:00,20.719516,77.000253,PM2.5,40,96,60
India,Maharashtra,Amravati,"Shivneri Colony, Amravati - MPCB",22-05-2024 06:00:00,20.9402359,77.7895248,PM10,46,100,70
India,Maharashtra,Amravati,"Shivneri Colony, Amravati - MPCB",22-05-2024 06:00:00,20.9402359,77.7895248,SO2,1,8,3
India,Maharashtra,Amravati,"Shivneri Colony, Amravati - MPCB",22-05-2024 06:00:00,20.9402359,77.7895248,OZONE,28,102,44
India,Maharashtra,Amravati,"Shri Shivaji Science College, Amaravati - MPCB",22-05-2024 06:00:00,20.939198,77.765701,PM2.5,33,55,44
India,Maharashtra,Aurangabad,"More Chowk Waluj, Aurangabad - MPCB",22-05-2024 06:00:00,19.8389439,75.244448,PM10,36,135,89
India,Maharashtra,Aurangabad,"Rachnakar Colony, Aurangabad - MPCB",22-05-2024 06:00:00,19.863756,75.321188,OZONE,29,96,31
India,Maharashtra,Badlapur,"Katrap, Badlapur - MPCB",22-05-2024 06:00:00,19.16485,73.23409,NO2,4,5,5
India,Maharashtra,Badlapur,"Katrap, Badlapur - MPCB",22-05-2024 06:00:00,19.16485,73.23409,SO2,7,19,13
India,Maharashtra,Belapur,"CBD Belapur, Belapur - MPCB",22-05-2024 06:00:00,19.0243902,73.0406721,PM10,59,131,90
India,Maharashtra,Belapur,"CBD Belapur, Belapur - MPCB",22-05-2024 06:00:00,19.0243902,73.0406721,NH3,2,3,2
India,Maharashtra,Bhiwandi,"Gokul Nagar, Bhiwandi - MPCB",22-05-2024 06:00:00,19.309073,73.057223,NO2,15,33,23
India,Maharashtra,Boisar,"Khaira, Boisar - MPCB",22-05-2024 06:00:00,19.786089,72.757971,NH3,NA,NA,NA
India,Maharashtra,Dhule,"Deopur, Dhule - MPCB",22-05-2024 06:00:00,20.918946,74.776388,OZONE,19,132,34
India,Maharashtra,Jalgaon,"Prabhat Colony, Jalgaon - MPCB",22-05-2024 06:00:00,21.001264,75.565602,PM2.5,22,332,150
India,Maharashtra,Jalna,"Old MIDC, Jalna - MPCB",22-05-2024 06:00:00,19.854616,75.905894,NO2,18,38,29
India,Maharashtra,Kalyan,"Khadakpada, Kalyan - MPCB",22-05-2024 06:00:00,19.25292,73.142019,PM10,62,126,101
India,Maharashtra,Kolhapur,"Shivaji University, Kolhapur - MPCB",22-05-2024 06:00:00,16.6870449,74.2505872,NH3,3,6,4
India,Maharashtra,Kolhapur,"Sinchan Bhavan, Kolhapur - MPCB",22-05-2024 06:00:00,16.7143745,74.2426398,PM2.5,16,42,30
India,Maharashtra,Kolhapur,"Sinchan Bhavan, Kolhapur - MPCB",22-05-2024 06:00:00,16.7143745,74.2426398,NO2,6,43,18
India,Maharashtra,Latur,"Sawe Wadi, Latur - MPCB",22-05-2024 06:00:00,18.39963,76.57452,PM2.5,45,93,64
India,Maharashtra,Malegaon,"Mahesh Nagar, Malegaon - MPCB",22-05-2024 06:00:00,20.555712,74.529236,NO2,26,128,55
India,Maharashtra,Malegaon,"Mahesh Nagar, Malegaon - MPCB",22-05-2024 06:00:00,20.555712,74.529236,OZONE,11,138,31
India,Maharashtra,Mira-Bhayandar,"Bhayandar West, Mira-Bhayandar - MPCB",22-05-2024 06:00:00,19.296481,72.840923,CO,18,27,20
India,Maharashtra,Mumbai,"Bandra Kurla Complex, Mumbai - MPCB",22-05-2024 06:00:00,19.065931,72.862131,NH3,7,22,11
India,Maharashtra,Mumbai,"Bandra Kurla Complex, Mumbai - MPCB",22-05-2024 06:00:00,19.065931,72.862131,CO,30,43,35
India,Maharashtra,Mumbai,"Borivali East, Mumbai - MPCB",22-05-2024 06:00:00,19.2243333,72.8658113,NO2,3,21,10
India,Maharashtra,Mumbai,"Borivali East, Mumbai - MPCB",22-05-2024 06:00:00,19.2243333,72.8658113,SO2,9,18,12
India,Maharashtra,Mumbai,"Chembur, Mumbai - MPCB",22-05-2024 06:00:00,19.0364585,72.8954371,NH3,3,5,4
India,Maharashtra,Mumbai,"Chembur, Mumbai - MPCB",22-05-2024 06:00:00,19.0364585,72.8954371,CO,6,29,10
India,Maharashtra,Mumbai,"Chembur, Mumbai - MPCB",22-05-2024 06:00:00,19.0364585,72.8954371,OZONE,10,74,35
India,Maharashtra,Mumbai,"Chhatrapati Shivaji Intl. Airport (T2), Mumbai - MPCB",22-05-2024 06:00:00,19.10078,72.87462,NO2,NA,NA,NA
India,Maharashtra,Mumbai,"Chhatrapati Shivaji Intl. Airport (T2), Mumbai - MPCB",22-05-2024 06:00:00,19.10078,72.87462,OZONE,4,7,5
India,Maharashtra,Mumbai,"Ghatkopar, Mumbai - BMC",22-05-2024 06:00:00,19.083694,72.920967,NH3,1,4,3
India,Maharashtra,Mumbai,"Ghatkopar, Mumbai - BMC",22-05-2024 06:00:00,19.083694,72.920967,OZONE,1,23,8
India,Maharashtra,Mumbai,"Kandivali East, Mumbai - MPCB",22-05-2024 06:00:00,19.205800,72.868200,OZONE,26,145,62
India,Maharashtra,Mumbai,"Kandivali West, Mumbai - BMC",22-05-2024 06:00:00,19.215859,72.831718,PM10,22,38,30
India,Maharashtra,Mumbai,"Kandivali West, Mumbai - BMC",22-05-2024 06:00:00,19.215859,72.831718,CO,8,16,10
India,Maharashtra,Mumbai,"Kherwadi_Bandra East, Mumbai - MPCB",22-05-2024 06:00:00,19.0632143,72.8456324,NH3,5,9,6
India,Maharashtra,Mumbai,"Khindipada-Bhandup West, Mumbai - IITM",22-05-2024 06:00:00,19.1653323,72.922099,NO2,4,10,7
India,Maharashtra,Mumbai,"Khindipada-Bhandup West, Mumbai - IITM",22-05-2024 06:00:00,19.1653323,72.922099,OZONE,1,16,5
India,Maharashtra,Mumbai,"Kurla, Mumbai - MPCB",22-05-2024 06:00:00,19.0863,72.8888,CO,3,12,8
India,Maharashtra,Mumbai,"Mazgaon, Mumbai - IITM",22-05-2024 06:00:00,18.96702,72.84214,OZONE,26,50,40
India,Maharashtra,Mumbai,"Mulund West, Mumbai - MPCB",22-05-2024 06:00:00,19.1750,72.9419,NH3,10,11,10
India,Maharashtra,Mumbai,"Mulund West, Mumbai - MPCB",22-05-2024 06:00:00,19.1750,72.9419,SO2,12,13,13
India,Maharashtra,Mumbai,"Navy Nagar-Colaba, Mumbai - IITM",22-05-2024 06:00:00,18.897756,72.813320,NO2,30,131,57
India,Maharashtra,Mumbai,"Sewri, Mumbai - BMC",22-05-2024 06:00:00,19.000084,72.856730,NO2,15,33,22
India,Maharashtra,Mumbai,"Sion, Mumbai - MPCB",22-05-2024 06:00:00,19.047000,72.874600,NO2,NA,NA,NA
India,Maharashtra,Mumbai,"Sion, Mumbai - MPCB",22-05-2024 06:00:00,19.047000,72.874600,CO,26,48,45
India,Maharashtra,Mumbai,"Vasai West, Mumbai - MPCB",22-05-2024 06:00:00,19.383200,72.820400,SO2,18,29,19
India,Maharashtra,Mumbai,"Vasai West, Mumbai - MPCB",22-05-2024 06:00:00,19.383200,72.820400,OZONE,6,35,15
India,Maharashtra,Mumbai,"Worli, Mumbai - MPCB",22-05-2024 06:00:00,18.9936162,72.8128113,SO2,11,12,12
India,Maharashtra,Nagpur,"Ambazari, Nagpur - MPCB",22-05-2024 06:00:00,21.121801,79.04952,SO2,10,77,32
India,Maharashtra,Nagpur,"Mahal, Nagpur - MPCB",22-05-2024 06:00:00,21.14472,79.107595,NO2,6,64,22
India,Maharashtra,Nagpur,"Opp GPO Civil Lines, Nagpur - MPCB",22-05-2024 06:00:00,21.152875,79.0517531,PM10,56,152,92
India,Maharashtra,Nagpur,"Opp GPO Civil Lines, Nagpur - MPCB",22-05-2024 06:00:00,21.152875,79.0517531,NO2,13,163,58
India,Maharashtra,Nanded,"Sneh Nagar, Nanded - MPCB",22-05-2024 06:00:00,19.173852,77.296291,OZONE,27,157,56
India,Maharashtra,Nashik,"Gangapur Road, Nashik - MPCB",22-05-2024 06:00:00,20.0073285,73.7762427,NH3,1,1,1
India,Maharashtra,Nashik,"Gangapur Road, Nashik - MPCB",22-05-2024 06:00:00,20.0073285,73.7762427,SO2,1,10,7
India,Maharashtra,Nashik,"Hirawadi, Nashik - MPCB",22-05-2024 06:00:00,20.021503,73.813844,OZONE,10,101,36
India,Maharashtra,Nashik,"MIDC Ambad, Nashik - MPCB",22-05-2024 06:00:00,19.950220,73.731480,NO2,11,27,14
India,Maharashtra,Nashik,"Pandav Nagari, Nashik - MPCB",22-05-2024 06:00:00,19.9591346,73.7788008,PM10,46,118,74
India,Maharashtra,Nashik,"Pandav Nagari, Nashik - MPCB",22-05-2024 06:00:00,19.9591346,73.7788008,NH3,NA,NA,NA
India,Maharashtra,Nashik,"Pandav Nagari, Nashik - MPCB",22-05-2024 06:00:00,19.9591346,73.7788008,CO,54,57,55
India,Maharashtra,Navi Mumbai,"Kopripada-Vashi, Navi Mumbai - MPCB",22-05-2024 06:00:00,19.090337,73.014232,NO2,11,11,11
India,Maharashtra,Navi Mumbai,"Kopripada-Vashi, Navi Mumbai - MPCB",22-05-2024 06:00:00,19.090337,73.014232,CO,5,26,10
India,Maharashtra,Navi Mumbai,"Mahape, Navi Mumbai - MPCB",22-05-2024 06:00:00,19.1135051,73.008978,PM2.5,34,122,68
India,Maharashtra,Navi Mumbai,"Mahape, Navi Mumbai - MPCB",22-05-2024 06:00:00,19.1135051,73.008978,NH3,1,3,2
India,Maharashtra,Navi Mumbai,"Nerul, Navi Mumbai - MPCB",22-05-2024 06:00:00,19.008751,73.016620,NO2,34,40,37
India,Maharashtra,Navi Mumbai,"Nerul, Navi Mumbai - MPCB",22-05-2024 06:00:00,19.008751,73.016620,NH3,2,3,3
India,Maharashtra,Navi Mumbai,"Nerul, Navi Mumbai - MPCB",22-05-2024 06:00:00,19.008751,73.016620,CO,23,28,26
India,Maharashtra,Navi Mumbai,"Sanpada, Navi Mumbai - MPCB",22-05-2024 06:00:00,19.0575752,73.0151367,CO,NA,NA,NA
India,Maharashtra,Navi Mumbai,"Sector-19A Nerul, Navi Mumbai - IITM",22-05-2024 06:00:00,19.044,73.0325,NH3,9,18,13
India,Maharashtra,Navi Mumbai,"Sector-19A Nerul, Navi Mumbai - IITM",22-05-2024 06:00:00,19.044,73.0325,SO2,2,13,5
India,Maharashtra,Navi Mumbai,"Tondare-Taloja, Navi Mumbai - MPCB",22-05-2024 06:00:00,19.0630,73.1209,PM10,68,123,97
India,Maharashtra,Parbhani,"Masoom Colony, Parbhani - MPCB",22-05-2024 06:00:00,19.265594,76.761463,PM2.5,43,127,76
India,Maharashtra,Parbhani,"Masoom Colony, Parbhani - MPCB",22-05-2024 06:00:00,19.265594,76.761463,NO2,18,91,34
India,Maharashtra,Parbhani,"Masoom Colony, Parbhani - MPCB",22-05-2024 06:00:00,19.265594,76.761463,NH3,2,8,6
India,Maharashtra,Pimpri-Chinchwad,"Park Street Wakad, Pimpri Chinchwad - MPCB",22-05-2024 06:00:00,18.59051,73.77946,NH3,1,7,4
India,Maharashtra,Pimpri-Chinchwad,"Park Street Wakad, Pimpri Chinchwad - MPCB",22-05-2024 06:00:00,18.59051,73.77946,OZONE,17,105,30
India,Maharashtra,Pune,"Bhosari, Pune - IITM",22-05-2024 06:00:00,18.640051,73.848956,OZONE,12,88,31
India,Maharashtra,Pune,"Karve Road, Pune - MPCB",22-05-2024 06:00:00,18.5011743,73.8165527,PM2.5,19,81,44
India,Maharashtra,Pune,"Transport Nagar-Nigdi, Pune - IITM",22-05-2024 06:00:00,18.664282,73.763966,PM2.5,39,91,64
India,Maharashtra,Pune,"Transport Nagar-Nigdi, Pune - IITM",22-05-2024 06:00:00,18.664282,73.763966,PM10,50,119,83
India,Maharashtra,Pune,"Transport Nagar-Nigdi, Pune - IITM",22-05-2024 06:00:00,18.664282,73.763966,OZONE,11,68,23
India,Maharashtra,Sangli,"Vijay Nagar, Sangli - MPCB",22-05-2024 06:00:00, 16.5038,74.3623,PM2.5,11,68,33
India,Maharashtra,Sangli,"Vijay Nagar, Sangli - MPCB",22-05-2024 06:00:00, 16.5038,74.3623,PM10,29,75,47
India,Maharashtra,Sangli,"Vijay Nagar, Sangli - MPCB",22-05-2024 06:00:00, 16.5038,74.3623,CO,17,46,25
India,Maharashtra,Solapur,"Dnyaneshwar Nagar, Solapur - MPCB",22-05-2024 06:00:00,17.6336264,75.9132495,NH3,NA,NA,NA
India,Maharashtra,Solapur,"Ratandeep Housing Society, Solapur - MPCB",22-05-2024 06:00:00,17.65439,75.90649,PM10,58,101,78
India,Maharashtra,Solapur,"Ratandeep Housing Society, Solapur - MPCB",22-05-2024 06:00:00,17.65439,75.90649,SO2,1,5,3
India,Maharashtra,Solapur,"Ratandeep Housing Society, Solapur - MPCB",22-05-2024 06:00:00,17.65439,75.90649,CO,14,36,22
India,Maharashtra,Solapur,"Solapur, Solapur - MPCB",22-05-2024 06:00:00,17.6599188,75.9063906,NO2,54,55,55
India,Maharashtra,Solapur,"Solapur, Solapur - MPCB",22-05-2024 06:00:00,17.6599188,75.9063906,SO2,103,108,104
India,Maharashtra,Thane,"Kasarvadavali, Thane - MPCB",22-05-2024 06:00:00,19.26777,72.97182,PM10,28,121,71
India,Maharashtra,Thane,"Pimpleshwar Mandir, Thane - MPCB",22-05-2024 06:00:00,19.192056,72.9585188,CO,4,92,44
India,Maharashtra,Thane,"Upvan Fort, Thane - MPCB",22-05-2024 06:00:00,19.222279,72.957979,NO2,NA,NA,NA
India,Maharashtra,Thane,"Upvan Fort, Thane - MPCB",22-05-2024 06:00:00,19.222279,72.957979,SO2,1,2,1
India,Maharashtra,Ulhasnagar,"Sidhi Vinayak Nagar, Ulhasnagar - MPCB",22-05-2024 06:00:00,19.235581,73.159121,CO,18,46,28
India,Maharashtra,Ulhasnagar,"Sidhi Vinayak Nagar, Ulhasnagar - MPCB",22-05-2024 06:00:00,19.235581,73.159121,OZONE,5,109,15
India,Manipur,Imphal,"DM College of Science, Imphal - Manipur PCB",22-05-2024 06:00:00,24.8207389,93.9423085,SO2,100,103,101
India,Meghalaya,Shillong,"Lumpyngngad, Shillong - Meghalaya PCB",22-05-2024 06:00:00,25.5586,91.8985,PM10,NA,NA,NA
India,Nagaland,Kohima,"PWD Juction, Kohima - NPCB",22-05-2024 06:00:00,25.6635413,94.0989878,NH3,NA,NA,NA
India,Odisha,Angul,"Hakimapada, Angul - OSPCB",22-05-2024 06:00:00,20.832874,85.104082,PM2.5,5,500,147
India,Odisha,Angul,"Hakimapada, Angul - OSPCB",22-05-2024 06:00:00,20.832874,85.104082,PM10,5,420,104
India,Odisha,Barbil,"Forest Office, Barbil - OSPCB",22-05-2024 06:00:00,22.1166054,85.3945546,PM2.5,12,65,43
India,Odisha,Barbil,"Forest Office, Barbil - OSPCB",22-05-2024 06:00:00,22.1166054,85.3945546,NH3,1,1,1
India,Odisha,Baripada,"Meher Colony, Baripada - OSPCB",22-05-2024 06:00:00,21.941841,86.728318,PM10,23,60,44
India,Odisha,Baripada,"Meher Colony, Baripada - OSPCB",22-05-2024 06:00:00,21.941841,86.728318,OZONE,1,95,6
India,Odisha,Bhubaneswar,"Lingraj Mandir, Bhubaneswar - OSPCB",22-05-2024 06:00:00,20.240790,85.836784,NH3,1,4,2
India,Odisha,Bhubaneswar,"Patia, Bhubaneswar - OSPCB",22-05-2024 06:00:00,20.34652,85.81630,SO2,1,8,6
India,Odisha,Bhubaneswar,"Patia, Bhubaneswar - OSPCB",22-05-2024 06:00:00,20.34652,85.81630,CO,14,26,17
India,Odisha,Bhubaneswar,"Patia, Bhubaneswar - OSPCB",22-05-2024 06:00:00,20.34652,85.81630,OZONE,11,81,17
India,Odisha,Bileipada,"Tata Township, Bileipada - OSPCB",22-05-2024 06:00:00,22.06156703,85.47409613,PM10,54,119,87
India,Odisha,Bileipada,"Tata Township, Bileipada - OSPCB",22-05-2024 06:00:00,22.06156703,85.47409613,NH3,11,12,12
India,Odisha,Bileipada,"Tata Township, Bileipada - OSPCB",22-05-2024 06:00:00,22.06156703,85.47409613,SO2,16,54,37
India,Odisha,Bileipada,"Tata Township, Bileipada - OSPCB",22-05-2024 06:00:00,22.06156703,85.47409613,OZONE,14,185,32
India,Odisha,Brajrajnagar,"GM Office, Brajrajnagar - OSPCB",22-05-2024 06:00:00,21.8004996,83.8396977,PM2.5,12,83,46
India,Odisha,Byasanagar,"Ferro Chrome Colony, Byasanagar - OSPCB",22-05-2024 06:00:00,20.94185,86.11510,PM2.5,2,75,21
India,Odisha,Byasanagar,"Ferro Chrome Colony, Byasanagar - OSPCB",22-05-2024 06:00:00,20.94185,86.11510,SO2,4,38,9
India,Odisha,Cuttack,"CDA Area, Cuttack - OSPCB",22-05-2024 06:00:00,20.48891     ,85.84768     ,CO,13,22,16
India,Odisha,Keonjhar,"Jagamohanpur, Keonjhar - OSPCB",22-05-2024 06:00:00,21.643900,85.599355,PM2.5,NA,NA,NA
India,Odisha,Keonjhar,"Jagamohanpur, Keonjhar - OSPCB",22-05-2024 06:00:00,21.643900,85.599355,NH3,NA,NA,NA
India,Odisha,Nayagarh,"Dabuna, Nayagarh - OSPCB",22-05-2024 06:00:00,21.847279,85.416905,PM2.5,29,71,47
India,Odisha,Nayagarh,"Dabuna, Nayagarh - OSPCB",22-05-2024 06:00:00,21.847279,85.416905,CO,10,18,13
India,Odisha,Nayagarh,"Dabuna, Nayagarh - OSPCB",22-05-2024 06:00:00,21.847279,85.416905,OZONE,4,45,10
India,Odisha,Rairangpur,"Divisional Forest Office, Rairangpur - OSPCB",22-05-2024 06:00:00,22.265816,86.174829,NH3,3,3,3
India,Odisha,Rourkela,"Fertilizer Township, Rourkela - OSPCB",22-05-2024 06:00:00,22.18972222,84.86277778,SO2,11,14,13
India,Odisha,Rourkela,"Raghunathpali, Rourkela - OSPCB",22-05-2024 06:00:00,22.220833,84.809444,PM2.5,46,175,117
India,Odisha,Rourkela,"Raghunathpali, Rourkela - OSPCB",22-05-2024 06:00:00,22.220833,84.809444,PM10,39,95,79
India,Odisha,Talcher,"Talcher Coalfields,Talcher - OSPCB",22-05-2024 06:00:00,20.9360711,85.1707021,PM2.5,2,311,96
India,Odisha,Talcher,"Talcher Coalfields,Talcher - OSPCB",22-05-2024 06:00:00,20.9360711,85.1707021,CO,20,107,42
India,Odisha,Tensa,"Barsua Iron Ore Mines, Tensa - OSPCB",22-05-2024 06:00:00,21.869985,85.167016,PM10,31,80,59
India,Odisha,Tensa,"Barsua Iron Ore Mines, Tensa - OSPCB",22-05-2024 06:00:00,21.869985,85.167016,NH3,1,2,2
India,Odisha,Tensa,"Barsua Iron Ore Mines, Tensa - OSPCB",22-05-2024 06:00:00,21.869985,85.167016,SO2,2,22,10
India,Puducherry,Puducherry,"Jawahar Nagar, Puducherry - PPCC",22-05-2024 06:00:00,11.9309,79.8027,SO2,4,11,7
India,Punjab,Bathinda,"Hardev Nagar, Bathinda - PPCB",22-05-2024 06:00:00,30.233011,74.907758,PM2.5,50,158,87
India,Punjab,Jalandhar,"Civil Line, Jalandhar - PPCB",22-05-2024 06:00:00,31.321907,75.578914,PM10,100,162,125
India,Punjab,Khanna,"Kalal Majra, Khanna - PPCB",22-05-2024 06:00:00,30.736056 ,76.209694,NH3,11,13,12
India,Punjab,Khanna,"Kalal Majra, Khanna - PPCB",22-05-2024 06:00:00,30.736056 ,76.209694,CO,26,48,39
India,Punjab,Patiala,"Model Town, Patiala - PPCB",22-05-2024 06:00:00,30.349388,76.366642,PM10,128,183,148
India,Rajasthan,Ajmer,"Civil Lines,  Ajmer - RSPCB",22-05-2024 06:00:00,26.470859,74.646594,PM10,62,171,99
India,Rajasthan,Ajmer,"Civil Lines,  Ajmer - RSPCB",22-05-2024 06:00:00,26.470859,74.646594,SO2,4,25,10
India,Rajasthan,Ajmer,"Civil Lines,  Ajmer - RSPCB",22-05-2024 06:00:00,26.470859,74.646594,CO,5,108,49
India,Rajasthan,Alwar,"Moti Doongri, Alwar - RSPCB",22-05-2024 06:00:00,27.554793,76.611536,CO,32,64,53
India,Rajasthan,Barmer,"Railway Colony, Barmer - RSPCB",22-05-2024 06:00:00,25.747299,71.393989,PM2.5,6,59,35
India,Rajasthan,Barmer,"Railway Colony, Barmer - RSPCB",22-05-2024 06:00:00,25.747299,71.393989,PM10,67,149,107
India,Rajasthan,Bharatpur,"Krishna Nagar, Bharatpur - RSPCB",22-05-2024 06:00:00,27.215415,77.50873,PM2.5,129,341,223
India,Rajasthan,Bharatpur,"Krishna Nagar, Bharatpur - RSPCB",22-05-2024 06:00:00,27.215415,77.50873,PM10,131,340,193
India,Rajasthan,Bharatpur,"Krishna Nagar, Bharatpur - RSPCB",22-05-2024 06:00:00,27.215415,77.50873,SO2,4,11,7
India,Rajasthan,Bharatpur,"Krishna Nagar, Bharatpur - RSPCB",22-05-2024 06:00:00,27.215415,77.50873,CO,32,58,49
India,Rajasthan,Bharatpur,"Krishna Nagar, Bharatpur - RSPCB",22-05-2024 06:00:00,27.215415,77.50873,OZONE,30,273,56
India,Rajasthan,Bhiwadi,"RIICO Ind. Area III, Bhiwadi - RSPCB",22-05-2024 06:00:00,28.194909,76.862296,NH3,3,24,11
India,Rajasthan,Bhiwadi,"Vasundhara Nagar_UIT, Bhiwadi - RSPCB",22-05-2024 06:00:00,28.207266,76.829265,PM2.5,91,352,198
India,Rajasthan,Bhiwadi,"Vasundhara Nagar_UIT, Bhiwadi - RSPCB",22-05-2024 06:00:00,28.207266,76.829265,PM10,177,401,260
India,Rajasthan,Bikaner,"MM Ground, Bikaner - RSPCB",22-05-2024 06:00:00,28.018792,73.292658,NH3,9,12,10
India,Rajasthan,Bundi,"New Colony, Bundi - RSPCB",22-05-2024 06:00:00,25.435774,75.644272,SO2,6,14,8
India,Rajasthan,Bundi,"New Colony, Bundi - RSPCB",22-05-2024 06:00:00,25.435774,75.644272,OZONE,51,134,67
India,Rajasthan,Chittorgarh,"Shastri Nagar, Chittorgarh - RSPCB",22-05-2024 06:00:00,24.892047,74.623527,NH3,NA,NA,NA
India,Rajasthan,Churu,"Subash Chowk, Churu - RSPCB",22-05-2024 06:00:00,28.296139,74.961696,PM10,61,159,105
India,Rajasthan,Churu,"Subash Chowk, Churu - RSPCB",22-05-2024 06:00:00,28.296139,74.961696,OZONE,34,137,74
India,Rajasthan,Dausa,"Khatikan Mohalla, Dausa - RSPCB",22-05-2024 06:00:00,26.895552,76.334753,OZONE,50,148,116
India,Rajasthan,Dholpur,"Raja Ganj, Dholpur - RSPCB",22-05-2024 06:00:00,26.699557,77.898881,NO2,16,35,30
India,Rajasthan,Dholpur,"Raja Ganj, Dholpur - RSPCB",22-05-2024 06:00:00,26.699557,77.898881,CO,12,38,27
India,Rajasthan,Dungarpur,"Bhoiwada, Dungarpur - RSPCB",22-05-2024 06:00:00,23.837789,73.714926,PM2.5,30,93,47
India,Rajasthan,Dungarpur,"Bhoiwada, Dungarpur - RSPCB",22-05-2024 06:00:00,23.837789,73.714926,PM10,56,121,82
India,Rajasthan,Dungarpur,"Bhoiwada, Dungarpur - RSPCB",22-05-2024 06:00:00,23.837789,73.714926,SO2,4,9,5
India,Rajasthan,Hanumangarh,"Housing Board, Hanumangarh - RSPCB",22-05-2024 06:00:00,29.610750,74.283608,SO2,7,41,22
India,Rajasthan,Jaipur,"Adarsh Nagar, Jaipur - RSPCB",22-05-2024 06:00:00,26.902909,75.836858,SO2,5,45,20
India,Rajasthan,Jaipur,"Adarsh Nagar, Jaipur - RSPCB",22-05-2024 06:00:00,26.902909,75.836858,CO,7,86,44
India,Rajasthan,Jaipur,"Adarsh Nagar, Jaipur - RSPCB",22-05-2024 06:00:00,26.902909,75.836858,OZONE,20,68,55
India,Rajasthan,Jaipur,"Sector-2 Murlipura, Jaipur - RSPCB",22-05-2024 06:00:00,26.960669,75.771817,NO2,6,46,19
India,Rajasthan,Jaipur,"Sector-2 Murlipura, Jaipur - RSPCB",22-05-2024 06:00:00,26.960669,75.771817,CO,48,102,74
India,Rajasthan,Jalore,"Mudtra Sili, Jalore - RSPCB",22-05-2024 06:00:00,25.344694,72.626208,PM2.5,31,60,44
India,Rajasthan,Jalore,"Mudtra Sili, Jalore - RSPCB",22-05-2024 06:00:00,25.344694,72.626208,NO2,4,47,14
India,Rajasthan,Jalore,"Mudtra Sili, Jalore - RSPCB",22-05-2024 06:00:00,25.344694,72.626208,NH3,5,11,7
India,Rajasthan,Jhalawar,"Rajlaxmi Nagar, Jhalawar - RSPCB",22-05-2024 06:00:00,24.588397,76.172782,NH3,1,2,2
India,Rajasthan,Jhunjhunu,"Indra Nagar, Jhunjhunu - RSPCB",22-05-2024 06:00:00,28.108988,75.386577,PM2.5,36,111,68
India,Rajasthan,Jodhpur,"Collectorate, Jodhpur - RSPCB",22-05-2024 06:00:00,26.268249,73.0193853,PM2.5,48,255,122
India,Rajasthan,Jodhpur,"Digari Kalan, Jodhpur - RSPCB",22-05-2024 06:00:00,26.295810,73.082283,SO2,3,8,5
India,Rajasthan,Jodhpur,"Jhalamand, Jodhpur - RSPCB",22-05-2024 06:00:00,26.215415,73.070156,PM2.5,17,53,32
India,Rajasthan,Jodhpur,"Jhalamand, Jodhpur - RSPCB",22-05-2024 06:00:00,26.215415,73.070156,PM10,55,154,91
India,Rajasthan,Jodhpur,"Jhalamand, Jodhpur - RSPCB",22-05-2024 06:00:00,26.215415,73.070156,NH3,5,10,6
India,Rajasthan,Jodhpur,"Jhalamand, Jodhpur - RSPCB",22-05-2024 06:00:00,26.215415,73.070156,SO2,5,14,7
India,Rajasthan,Jodhpur,"Jhalamand, Jodhpur - RSPCB",22-05-2024 06:00:00,26.215415,73.070156,OZONE,37,72,48
India,Rajasthan,Jodhpur,"Mandor, Jodhpur - RSPCB",22-05-2024 06:00:00,26.358805,73.047444,SO2,3,5,4
India,Rajasthan,Jodhpur,"Samrat Ashok Udhyan, Jodhpur - RSPCB",22-05-2024 06:00:00,26.253384,72.976571,SO2,4,9,6
India,Rajasthan,Karauli,"Satyawati Vihar, Karauli - RSPCB",22-05-2024 06:00:00,26.506177,77.025989,NO2,12,56,23
India,Rajasthan,Karauli,"Satyawati Vihar, Karauli - RSPCB",22-05-2024 06:00:00,26.506177,77.025989,SO2,5,33,17
India,Rajasthan,Kota,"Dhanmandi, Kota - RSPCB",22-05-2024 06:00:00,25.164090,75.858137,NH3,3,6,5
India,Rajasthan,Kota,"Dhanmandi, Kota - RSPCB",22-05-2024 06:00:00,25.164090,75.858137,CO,18,100,33
India,Rajasthan,Kota,"Dhanmandi, Kota - RSPCB",22-05-2024 06:00:00,25.164090,75.858137,OZONE,13,148,26
India,Rajasthan,Kota,"Nayapura, Kota - RSPCB",22-05-2024 06:00:00,25.196024,75.855668,SO2,4,8,5
India,Rajasthan,Kota,"Nayapura, Kota - RSPCB",22-05-2024 06:00:00,25.196024,75.855668,CO,12,101,39
India,Rajasthan,Kota,"Shrinath Puram, Kota - RSPCB",22-05-2024 06:00:00,25.14389,75.821256,NO2,9,89,37
India,Rajasthan,Kota,"Shrinath Puram, Kota - RSPCB",22-05-2024 06:00:00,25.14389,75.821256,SO2,1,38,14
India,Rajasthan,Nagaur,"Karni Colony, Nagaur - RSPCB",22-05-2024 06:00:00,27.213494,73.734444,NH3,9,20,13
India,Rajasthan,Nagaur,"Karni Colony, Nagaur - RSPCB",22-05-2024 06:00:00,27.213494,73.734444,SO2,1,16,5
India,Rajasthan,Nagaur,"Karni Colony, Nagaur - RSPCB",22-05-2024 06:00:00,27.213494,73.734444,CO,9,105,27
India,Rajasthan,Nagaur,"Karni Colony, Nagaur - RSPCB",22-05-2024 06:00:00,27.213494,73.734444,OZONE,35,70,42
India,Rajasthan,Pali,"Indira Colony Vistar, Pali - RSPCB",22-05-2024 06:00:00,25.771061, 73.340227,CO,8,94,56
India,Rajasthan,Rajsamand,"Dhoinda, Rajsamand - RSPCB",22-05-2024 06:00:00,25.036360,73.883502,CO,32,56,46
India,Rajasthan,Rajsamand,"Dhoinda, Rajsamand - RSPCB",22-05-2024 06:00:00,25.036360,73.883502,OZONE,8,31,15
India,Rajasthan,Sawai Madhopur,"Sahu Nagar, Sawai Madhopur - RSPCB",22-05-2024 06:00:00,26.031443,76.359327,CO,16,86,41
India,Rajasthan,Sawai Madhopur,"Sahu Nagar, Sawai Madhopur - RSPCB",22-05-2024 06:00:00,26.031443,76.359327,OZONE,26,124,73
India,Rajasthan,Sirohi,"Vedhaynath Colony, Sirohi - RSPCB",22-05-2024 06:00:00,24.885261,72.857549,NH3,3,10,5
India,Rajasthan,Sirohi,"Vedhaynath Colony, Sirohi - RSPCB",22-05-2024 06:00:00,24.885261,72.857549,CO,2,24,21
India,Rajasthan,Udaipur,"Ashok Nagar, Udaipur - RSPCB",22-05-2024 06:00:00,24.5886166,73.6321397,PM2.5,29,133,75
India,Rajasthan,Udaipur,"Ashok Nagar, Udaipur - RSPCB",22-05-2024 06:00:00,24.5886166,73.6321397,PM10,59,137,93
India,Rajasthan,Udaipur,"Ashok Nagar, Udaipur - RSPCB",22-05-2024 06:00:00,24.5886166,73.6321397,NO2,31,162,94
India,Rajasthan,Udaipur,"Ashok Nagar, Udaipur - RSPCB",22-05-2024 06:00:00,24.5886166,73.6321397,OZONE,31,71,49
India,Sikkim,Gangtok,"Zero Point GICI, Gangtok - SSPCB",22-05-2024 06:00:00,27.338530,88.614099,SO2,11,12,11
India,TamilNadu,Ariyalur,"Keelapalur, Ariyalur - TNPCB",22-05-2024 06:00:00,11.06825,79.07033,PM2.5,9,151,53
India,TamilNadu,Chennai,"Alandur Bus Depot, Chennai - CPCB",22-05-2024 06:00:00,12.9099161,80.1076538,PM10,23,23,23
India,TamilNadu,Chennai,"Arumbakkam, Chennai - TNPCB",22-05-2024 06:00:00,13.0664,80.2112 ,PM2.5,NA,NA,NA
India,TamilNadu,Chennai,"Kodungaiyur, Chennai - TNPCB",22-05-2024 06:00:00,13.1278,80.2642,NH3,3,5,4
India,TamilNadu,Chennai,"Manali, Chennai - CPCB",22-05-2024 06:00:00,13.164544,80.26285,OZONE,13,55,38
India,TamilNadu,Chennai,"Perungudi, Chennai - TNPCB",22-05-2024 06:00:00,12.9533,80.2357,NO2,2,9,5
India,TamilNadu,Chennai,"Perungudi, Chennai - TNPCB",22-05-2024 06:00:00,12.9533,80.2357,NH3,2,7,3
India,TamilNadu,Chennai,"Perungudi, Chennai - TNPCB",22-05-2024 06:00:00,12.9533,80.2357,CO,16,28,22
India,TamilNadu,Chennai,"Perungudi, Chennai - TNPCB",22-05-2024 06:00:00,12.9533,80.2357,OZONE,4,74,5
India,TamilNadu,Chennai,"Royapuram, Chennai - TNPCB",22-05-2024 06:00:00,13.1036,80.2909,PM2.5,2,42,23
India,TamilNadu,Chennai,"Royapuram, Chennai - TNPCB",22-05-2024 06:00:00,13.1036,80.2909,PM10,2,56,26
India,TamilNadu,Chennai,"Velachery Res. Area, Chennai - CPCB",22-05-2024 06:00:00,13.0052189,80.2398125,OZONE,35,53,42
India,TamilNadu,Coimbatore,"PSG College of Arts and Science, Coimbatore - TNPCB",22-05-2024 06:00:00,11.0328,77.0349,PM2.5,NA,NA,NA
India,TamilNadu,Ooty,"Bombay Castel, Ooty - TNPCB",22-05-2024 06:00:00,11.4068288,76.7138973,SO2,NA,NA,NA
India,TamilNadu,Palkalaiperur,"Bharathidasan University, Palkalaiperur - TNPCB",22-05-2024 06:00:00,10.681158,78.741746,SO2,28,29,29
India,TamilNadu,Ramanathapuram,"Chalai Bazaar, Ramanathapuram - TNPCB",22-05-2024 06:00:00,9.36399,78.831977,CO,8,16,14
India,TamilNadu,Salem,"Sona College of Technology, Salem - TNPCB",22-05-2024 06:00:00,11.679111,78.125052,PM10,NA,NA,NA
India,TamilNadu,Tirupur,"Kumaran College, Tirupur - TNPCB",22-05-2024 06:00:00,11.0973603,77.3228673,PM10,NA,NA,NA
India,TamilNadu,Tirupur,"Kumaran College, Tirupur - TNPCB",22-05-2024 06:00:00,11.0973603,77.3228673,NO2,NA,NA,NA
India,Telangana,Hyderabad,"Bollaram Industrial Area, Hyderabad - TSPCB",22-05-2024 06:00:00,17.540891,78.358528,NO2,17,27,20
India,Telangana,Hyderabad,"Central University, Hyderabad - TSPCB",22-05-2024 06:00:00,17.460103,78.334361,PM10,17,62,39
India,Telangana,Hyderabad,"Central University, Hyderabad - TSPCB",22-05-2024 06:00:00,17.460103,78.334361,NH3,2,6,4
India,Telangana,Hyderabad,"Central University, Hyderabad - TSPCB",22-05-2024 06:00:00,17.460103,78.334361,OZONE,3,4,4
India,Telangana,Hyderabad,"ECIL Kapra, Hyderabad - TSPCB",22-05-2024 06:00:00,17.470431,78.566959,NH3,NA,NA,NA
India,Telangana,Hyderabad,"IITH Kandi, Hyderabad - TSPCB",22-05-2024 06:00:00,17.585705,78.126199,NO2,NA,NA,NA
India,Telangana,Hyderabad,"IITH Kandi, Hyderabad - TSPCB",22-05-2024 06:00:00,17.585705,78.126199,OZONE,NA,NA,NA
India,Telangana,Hyderabad,"Kokapet, Hyderabad - TSPCB",22-05-2024 06:00:00,17.393559,78.339194,CO,16,28,27
India,Telangana,Hyderabad,"Kompally Municipal Office, Hyderabad - TSPCB",22-05-2024 06:00:00,17.544899,78.486949,OZONE,21,49,21
India,Telangana,Hyderabad,"Nacharam_TSIIC IALA, Hyderabad - TSPCB",22-05-2024 06:00:00,17.429398,78.569354,PM10,64,75,73
India,Telangana,Hyderabad,"Nacharam_TSIIC IALA, Hyderabad - TSPCB",22-05-2024 06:00:00,17.429398,78.569354,SO2,7,46,29
India,Telangana,Hyderabad,"New Malakpet, Hyderabad - TSPCB",22-05-2024 06:00:00,17.37206,78.50864,OZONE,16,45,26
India,Telangana,Hyderabad,"Ramachandrapuram, Hyderabad - TSPCB",22-05-2024 06:00:00,17.528544,78.286195,PM2.5,27,46,35
India,Telangana,Hyderabad,"Ramachandrapuram, Hyderabad - TSPCB",22-05-2024 06:00:00,17.528544,78.286195,NO2,9,9,9
India,Telangana,Hyderabad,"Sanathnagar, Hyderabad - TSPCB",22-05-2024 06:00:00,17.4559458,78.4332152,NO2,29,32,30
India,Telangana,Hyderabad,"Somajiguda, Hyderabad - TSPCB",22-05-2024 06:00:00,17.417094,78.457437,SO2,NA,NA,NA
India,Telangana,Hyderabad,"Zoo Park, Hyderabad - TSPCB",22-05-2024 06:00:00,17.349694,78.451437,NO2,13,34,24
India,Telangana,Hyderabad,"Zoo Park, Hyderabad - TSPCB",22-05-2024 06:00:00,17.349694,78.451437,CO,26,74,43
India,Telangana,Hyderabad,"Zoo Park, Hyderabad - TSPCB",22-05-2024 06:00:00,17.349694,78.451437,OZONE,16,28,17
India,Tripura,Agartala,"Bardowali, Agartala - Tripura SPCB",22-05-2024 06:00:00,23.8175497,91.2726974,NH3,2,4,2
India,Tripura,Agartala,"Bardowali, Agartala - Tripura SPCB",22-05-2024 06:00:00,23.8175497,91.2726974,SO2,34,38,36
India,Uttar_Pradesh,Agra,"Rohta, Agra - UPPCB",22-05-2024 06:00:00,27.106972,78.000111,NO2,11,11,11
India,Uttar_Pradesh,Agra,"Rohta, Agra - UPPCB",22-05-2024 06:00:00,27.106972,78.000111,SO2,5,9,7
India,Uttar_Pradesh,Agra,"Sanjay Palace, Agra - UPPCB",22-05-2024 06:00:00,27.19865833,78.00598056,PM2.5,13,56,28
India,Uttar_Pradesh,Agra,"Sanjay Palace, Agra - UPPCB",22-05-2024 06:00:00,27.19865833,78.00598056,PM10,34,137,79
India,Uttar_Pradesh,Agra,"Sector-3B Avas Vikas Colony, Agra - UPPCB",22-05-2024 06:00:00,27.19412,77.96237,NH3,6,24,11
India,Uttar_Pradesh,Agra,"Shahjahan Garden, Agra - UPPCB",22-05-2024 06:00:00,27.169338,78.03582,NH3,1,1,1
India,Uttar_Pradesh,Agra,"Shahjahan Garden, Agra - UPPCB",22-05-2024 06:00:00,27.169338,78.03582,OZONE,1,18,1
India,Uttar_Pradesh,Baghpat,"Sardar Patel Inter College, Baghpat - UPPCB",22-05-2024 06:00:00,28.964949,77.278761,CO,50,116,79
India,Uttar_Pradesh,Baghpat,"Sardar Patel Inter College, Baghpat - UPPCB",22-05-2024 06:00:00,28.964949,77.278761,OZONE,32,141,59
India,Uttar_Pradesh,Firozabad,"Nagla Bhau, Firozabad - UPPCB",22-05-2024 06:00:00,27.168897,78.376960,CO,18,35,30
India,Uttar_Pradesh,Firozabad,"Nagla Bhau, Firozabad - UPPCB",22-05-2024 06:00:00,27.168897,78.376960,OZONE,16,18,18
India,Uttar_Pradesh,Firozabad,"Vibhab Nagar, Firozabad - UPPCB",22-05-2024 06:00:00,27.1594,78.3953,SO2,1,56,11
India,Uttar_Pradesh,Firozabad,"Vibhab Nagar, Firozabad - UPPCB",22-05-2024 06:00:00,27.1594,78.3953,CO,8,32,28
India,Uttar_Pradesh,Ghaziabad,"Loni, Ghaziabad - UPPCB",22-05-2024 06:00:00,28.757294,77.278792,PM2.5,48,172,80
India,Uttar_Pradesh,Ghaziabad,"Loni, Ghaziabad - UPPCB",22-05-2024 06:00:00,28.757294,77.278792,CO,12,66,43
India,Uttar_Pradesh,Ghaziabad,"Loni, Ghaziabad - UPPCB",22-05-2024 06:00:00,28.757294,77.278792,OZONE,17,138,31
India,Uttar_Pradesh,Ghaziabad,"Sanjay Nagar, Ghaziabad - UPPCB",22-05-2024 06:00:00,28.685382,77.453839,NO2,21,112,42
India,Uttar_Pradesh,Ghaziabad,"Vasundhara, Ghaziabad - UPPCB",22-05-2024 06:00:00,28.6603346,77.3572563,OZONE,11,123,32
India,Uttar_Pradesh,Gorakhpur,"Madan Mohan Malaviya University of Technology, Gorakhpur - UPPCB",22-05-2024 06:00:00,26.730136,83.433859,NO2,11,11,11
India,Uttar_Pradesh,Greater Noida,"Knowledge Park - III, Greater Noida - UPPCB",22-05-2024 06:00:00,28.47272,77.482000,PM10,158,426,214
India,Uttar_Pradesh,Greater Noida,"Knowledge Park - V, Greater Noida - UPPCB",22-05-2024 06:00:00,28.557054,77.453663,SO2,8,15,12
India,Uttar_Pradesh,Hapur,"Anand Vihar, Hapur - UPPCB",22-05-2024 06:00:00,28.725645,77.749675,PM2.5,32,85,55
India,Uttar_Pradesh,Jhansi,"Shivaji Nagar, Jhansi - UPPCB",22-05-2024 06:00:00,25.4547,78.6039,PM2.5,NA,NA,NA
India,Uttar_Pradesh,Jhansi,"Shivaji Nagar, Jhansi - UPPCB",22-05-2024 06:00:00,25.4547,78.6039,NH3,4,6,6
India,Uttar_Pradesh,Jhansi,"Shivaji Nagar, Jhansi - UPPCB",22-05-2024 06:00:00,25.4547,78.6039,OZONE,9,32,24
India,Uttar_Pradesh,Kanpur,"NSI Kalyanpur, Kanpur - UPPCB",22-05-2024 06:00:00,26.509954,80.249612,SO2,16,24,20
India,Uttar_Pradesh,Kanpur,"NSI Kalyanpur, Kanpur - UPPCB",22-05-2024 06:00:00,26.509954,80.249612,CO,24,50,45
India,Uttar_Pradesh,Kanpur,"Nehru Nagar, Kanpur - UPPCB",22-05-2024 06:00:00,26.4703136,80.3229863,OZONE,30,220,40
India,Uttar_Pradesh,Khurja,"Kalindi Kunj, Khurja - UPPCB",22-05-2024 06:00:00,28.2348927,77.8683002,PM2.5,21,92,61
India,Uttar_Pradesh,Khurja,"Kalindi Kunj, Khurja - UPPCB",22-05-2024 06:00:00,28.2348927,77.8683002,SO2,54,86,60
India,Uttar_Pradesh,Khurja,"Kalindi Kunj, Khurja - UPPCB",22-05-2024 06:00:00,28.2348927,77.8683002,CO,24,53,48
India,Uttar_Pradesh,Lucknow,"Gomti Nagar, Lucknow - UPPCB",22-05-2024 06:00:00,26.868120,81.005119,OZONE,33,41,36
India,Uttar_Pradesh,Lucknow,"Kendriya Vidyalaya, Lucknow - CPCB",22-05-2024 06:00:00,26.906111,80.948222,NO2,5,24,10
India,Uttar_Pradesh,Lucknow,"Kendriya Vidyalaya, Lucknow - CPCB",22-05-2024 06:00:00,26.906111,80.948222,CO,20,44,34
India,Uttar_Pradesh,Lucknow,"Kukrail Picnic Spot-1, Lucknow - UPPCB",22-05-2024 06:00:00,26.90723,80.98579,PM2.5,44,94,67
India,Uttar_Pradesh,Lucknow,"Lalbagh, Lucknow - CPCB",22-05-2024 06:00:00,26.8458805,80.9365541,NO2,14,15,15
India,Uttar_Pradesh,Meerut,"Ganga Nagar, Meerut - UPPCB",22-05-2024 06:00:00,28.999264,77.7590354,PM2.5,27,67,45
India,Uttar_Pradesh,Meerut,"Ganga Nagar, Meerut - UPPCB",22-05-2024 06:00:00,28.999264,77.7590354,SO2,2,50,8
India,Uttar_Pradesh,Meerut,"Ganga Nagar, Meerut - UPPCB",22-05-2024 06:00:00,28.999264,77.7590354,CO,17,168,35
India,Uttar_Pradesh,Moradabad,"Buddhi Vihar, Moradabad - UPPCB",22-05-2024 06:00:00,28.83526,78.74460,PM10,48,111,72
India,Uttar_Pradesh,Moradabad,"Buddhi Vihar, Moradabad - UPPCB",22-05-2024 06:00:00,28.83526,78.74460,NH3,2,3,3
India,Uttar_Pradesh,Moradabad,"Employment Office, Moradabad - UPPCB",22-05-2024 06:00:00,28.88528,78.73880,PM2.5,26,67,43
India,Uttar_Pradesh,Moradabad,"Jigar Colony, Moradabad - UPPCB",22-05-2024 06:00:00,28.856664,78.772638,NH3,5,5,5
India,Uttar_Pradesh,Moradabad,"Kashiram Nagar, Moradabad - UPPCB",22-05-2024 06:00:00,28.849399,78.742362,PM2.5,22,93,58
India,Uttar_Pradesh,Moradabad,"Kashiram Nagar, Moradabad - UPPCB",22-05-2024 06:00:00,28.849399,78.742362,NO2,11,13,12
India,Uttar_Pradesh,Moradabad,"Kashiram Nagar, Moradabad - UPPCB",22-05-2024 06:00:00,28.849399,78.742362,NH3,4,4,4
India,Uttar_Pradesh,Moradabad,"Kashiram Nagar, Moradabad - UPPCB",22-05-2024 06:00:00,28.849399,78.742362,SO2,31,50,42
India,Uttar_Pradesh,Moradabad,"Kashiram Nagar, Moradabad - UPPCB",22-05-2024 06:00:00,28.849399,78.742362,CO,26,36,30
India,Uttar_Pradesh,Moradabad,"Transport Nagar, Moradabad - UPPCB",22-05-2024 06:00:00,28.802625,78.753728,PM10,48,128,78
India,Uttar_Pradesh,Moradabad,"Transport Nagar, Moradabad - UPPCB",22-05-2024 06:00:00,28.802625,78.753728,CO,40,42,42
India,Uttar_Pradesh,Moradabad,"Transport Nagar, Moradabad - UPPCB",22-05-2024 06:00:00,28.802625,78.753728,OZONE,15,43,18
India,Uttar_Pradesh,Muzaffarnagar,"New Mandi, Muzaffarnagar - UPPCB",22-05-2024 06:00:00,29.4723508,77.7194031,CO,34,76,42
India,Uttar_Pradesh,Noida,"Sector - 125, Noida - UPPCB",22-05-2024 06:00:00,28.5447608,77.3231257,PM2.5,82,316,154
India,Uttar_Pradesh,Noida,"Sector - 125, Noida - UPPCB",22-05-2024 06:00:00,28.5447608,77.3231257,OZONE,1,94,4
India,Uttar_Pradesh,Noida,"Sector - 62, Noida - IMD",22-05-2024 06:00:00,28.6245479,77.3577104,NO2,8,19,12
India,Uttar_Pradesh,Noida,"Sector - 62, Noida - IMD",22-05-2024 06:00:00,28.6245479,77.3577104,OZONE,21,50,28
India,Uttar_Pradesh,Noida,"Sector-1, Noida - UPPCB",22-05-2024 06:00:00,28.5898,77.3101,OZONE,16,199,51
India,Uttar_Pradesh,Noida,"Sector-116, Noida - UPPCB",22-05-2024 06:00:00,28.569230,77.393848,PM2.5,83,308,159
India,Uttar_Pradesh,Prayagraj,"Jhunsi, Prayagraj - UPPCB",22-05-2024 06:00:00,25.425602,81.917152,PM2.5,20,58,38
India,Uttar_Pradesh,Prayagraj,"Jhunsi, Prayagraj - UPPCB",22-05-2024 06:00:00,25.425602,81.917152,NH3,5,5,5
India,Uttar_Pradesh,Prayagraj,"Jhunsi, Prayagraj - UPPCB",22-05-2024 06:00:00,25.425602,81.917152,CO,4,20,13
India,Uttar_Pradesh,Prayagraj,"Motilal Nehru NIT, Prayagraj - UPPCB",22-05-2024 06:00:00,25.494,81.863,NO2,11,12,12
India,Uttar_Pradesh,Prayagraj,"Nagar Nigam, Prayagraj - UPPCB",22-05-2024 06:00:00,25.44919916 ,81.82735986 ,CO,7,38,21
India,Uttar_Pradesh,Varanasi,"Ardhali Bazar, Varanasi - UPPCB",22-05-2024 06:00:00,25.3505986,82.9083074,PM2.5,12,31,19
India,Uttar_Pradesh,Varanasi,"Ardhali Bazar, Varanasi - UPPCB",22-05-2024 06:00:00,25.3505986,82.9083074,PM10,16,42,27
India,Uttar_Pradesh,Varanasi,"Ardhali Bazar, Varanasi - UPPCB",22-05-2024 06:00:00,25.3505986,82.9083074,NO2,14,18,16
India,Uttar_Pradesh,Varanasi,"Bhelupur, Varanasi - UPPCB",22-05-2024 06:00:00,25.301778,82.996789,SO2,NA,NA,NA
India,Uttar_Pradesh,Varanasi,"IESD Banaras Hindu University, Varanasi - UPPCB",22-05-2024 06:00:00,25.262326,82.995408,NO2,2,2,2
India,Uttar_Pradesh,Varanasi,"Maldahiya, Varanasi - UPPCB",22-05-2024 06:00:00,25.32393,82.99687,CO,3,44,10
India,Uttar_Pradesh,Vrindavan,"Omex Eternity, Vrindavan - UPPCB",22-05-2024 06:00:00,27.5714090,77.6557570,NO2,2,3,3
India,Uttar_Pradesh,Vrindavan,"Omex Eternity, Vrindavan - UPPCB",22-05-2024 06:00:00,27.5714090,77.6557570,SO2,44,46,45
India,Uttarakhand,Kashipur,"Govt. Girls Inter College, Kashipur - UKPCB",22-05-2024 06:00:00,29.2124114,78.9611753,PM10,59,121,92
India,Uttarakhand,Kashipur,"Govt. Girls Inter College, Kashipur - UKPCB",22-05-2024 06:00:00,29.2124114,78.9611753,CO,6,48,26
India,Uttarakhand,Rishikesh,"Shivaji Nagar, Rishikesh - UKPCB",22-05-2024 06:00:00,30.075911,78.2859547,PM2.5,28,70,51
India,Uttarakhand,Rishikesh,"Shivaji Nagar, Rishikesh - UKPCB",22-05-2024 06:00:00,30.075911,78.2859547,CO,19,50,32
India,West_Bengal,Asansol,"Asansol Court Area, Asansol - WBPCB",22-05-2024 06:00:00,23.685297,86.945968,NO2,34,48,40
India,West_Bengal,Asansol,"Asansol Court Area, Asansol - WBPCB",22-05-2024 06:00:00,23.685297,86.945968,NH3,10,13,12
India,West_Bengal,Barrackpore,"SVSPA Campus, Barrackpore - WBPCB",22-05-2024 06:00:00,22.7605581,88.3617589,PM10,32,93,51
India,West_Bengal,Durgapur,"PCBL Residential Complex, Durgapur - WBPCB",22-05-2024 06:00:00,23.5087640,87.3544400,PM10,59,140,96
India,West_Bengal,Durgapur,"Sidhu Kanhu Indoor Stadium, Durgapur - WBPCB",22-05-2024 06:00:00,23.5404352,87.2892225,SO2,12,36,24
India,West_Bengal,Durgapur,"Sidhu Kanhu Indoor Stadium, Durgapur - WBPCB",22-05-2024 06:00:00,23.5404352,87.2892225,CO,30,66,38
India,West_Bengal,Haldia,"Priyambada Housing Estate, Haldia - WBPCB",22-05-2024 06:00:00,22.06047,88.109737,SO2,9,17,13
India,West_Bengal,Haldia,"Priyambada Housing Estate, Haldia - WBPCB",22-05-2024 06:00:00,22.06047,88.109737,CO,14,38,15
India,West_Bengal,Haldia,"Priyambada Housing Estate, Haldia - WBPCB",22-05-2024 06:00:00,22.06047,88.109737,OZONE,23,29,25
India,West_Bengal,Howrah,"Belur Math, Howrah - WBPCB",22-05-2024 06:00:00,22.629801,88.352017,SO2,7,8,8
India,West_Bengal,Howrah,"Belur Math, Howrah - WBPCB",22-05-2024 06:00:00,22.629801,88.352017,OZONE,15,63,20
India,West_Bengal,Howrah,"Ghusuri, Howrah - WBPCB",22-05-2024 06:00:00,22.611968,88.347422,OZONE,13,26,16
India,West_Bengal,Howrah,"Padmapukur, Howrah - WBPCB",22-05-2024 06:00:00,22.5687319,88.2797276,NH3,7,14,9
India,West_Bengal,Howrah,"Padmapukur, Howrah - WBPCB",22-05-2024 06:00:00,22.5687319,88.2797276,OZONE,20,67,21
India,West_Bengal,Kolkata,"Bidhannagar, Kolkata - WBPCB",22-05-2024 06:00:00,22.58157048,88.41002457,PM10,22,45,33
India,West_Bengal,Kolkata,"Fort William, Kolkata - WBPCB",22-05-2024 06:00:00,22.556640,88.342674,PM10,21,58,42
India,West_Bengal,Kolkata,"Fort William, Kolkata - WBPCB",22-05-2024 06:00:00,22.556640,88.342674,NO2,17,40,26
India,West_Bengal,Kolkata,"Jadavpur, Kolkata - WBPCB",22-05-2024 06:00:00,22.49929,88.36917,SO2,4,11,6
India,West_Bengal,Kolkata,"Rabindra Bharati University, Kolkata - WBPCB",22-05-2024 06:00:00,22.627847,88.380669,NH3,2,5,4
India,West_Bengal,Kolkata,"Victoria, Kolkata - WBPCB",22-05-2024 06:00:00,22.5448082,88.3403691,NH3,6,6,6
India,West_Bengal,Kolkata,"Victoria, Kolkata - WBPCB",22-05-2024 06:00:00,22.5448082,88.3403691,SO2,5,24,9
India,West_Bengal,Kolkata,"Victoria, Kolkata - WBPCB",22-05-2024 06:00:00,22.5448082,88.3403691,OZONE,11,42,15
India,Andhra_Pradesh,Amaravati,"Secretariat, Amaravati - APPCB",22-05-2024 06:00:00,16.5150833,80.5181667,NH3,3,4,4
India,Andhra_Pradesh,Anantapur,"Gulzarpet, Anantapur - APPCB",22-05-2024 06:00:00,14.675886,77.593027,PM2.5,NA,NA,NA
India,Andhra_Pradesh,Anantapur,"Gulzarpet, Anantapur - APPCB",22-05-2024 06:00:00,14.675886,77.593027,NH3,NA,NA,NA
India,Andhra_Pradesh,Anantapur,"Gulzarpet, Anantapur - APPCB",22-05-2024 06:00:00,14.675886,77.593027,SO2,NA,NA,NA
India,Andhra_Pradesh,Chittoor,"Gangineni Cheruvu, Chittoor - APPCB",22-05-2024 06:00:00,13.204880,79.097889,OZONE,13,13,13
India,Andhra_Pradesh,Rajamahendravaram,"Anand Kala Kshetram, Rajamahendravaram - APPCB",22-05-2024 06:00:00,16.9872867,81.7363176,CO,4,104,15
India,Andhra_Pradesh,Tirupati,"Tirumala, Tirupati - APPCB",22-05-2024 06:00:00,13.67,79.35,NO2,16,24,19
India,Andhra_Pradesh,Tirupati,"Vaikuntapuram, Tirupati - APPCB",22-05-2024 06:00:00,13.615387,79.409230,PM10,NA,NA,NA
India,Andhra_Pradesh,Tirupati,"Vaikuntapuram, Tirupati - APPCB",22-05-2024 06:00:00,13.615387,79.409230,NO2,8,20,16
India,Andhra_Pradesh,Tirupati,"Vaikuntapuram, Tirupati - APPCB",22-05-2024 06:00:00,13.615387,79.409230,NH3,2,4,3
India,Andhra_Pradesh,Vijayawada,"HB Colony, Vijayawada - APPCB",22-05-2024 06:00:00,16.536107,80.594233,PM2.5,41,50,47
India,Andhra_Pradesh,Vijayawada,"Kanuru, Vijayawada - APPCB",22-05-2024 06:00:00,16.486692,80.699436,SO2,6,7,7
India,Andhra_Pradesh,Vijayawada,"Kanuru, Vijayawada - APPCB",22-05-2024 06:00:00,16.486692,80.699436,CO,40,40,40
India,Andhra_Pradesh,Vijayawada,"Rajiv Gandhi Park, Vijayawada - APPCB",22-05-2024 06:00:00,16.509717,80.612222,PM2.5,31,72,46
India,Andhra_Pradesh,Vijayawada,"Rajiv Gandhi Park, Vijayawada - APPCB",22-05-2024 06:00:00,16.509717,80.612222,NO2,26,54,37
India,Andhra_Pradesh,Vijayawada,"Rajiv Gandhi Park, Vijayawada - APPCB",22-05-2024 06:00:00,16.509717,80.612222,NH3,2,6,4
India,Andhra_Pradesh,Vijayawada,"Rajiv Nagar, Vijayawada - APPCB",22-05-2024 06:00:00,16.554731,80.649110,SO2,15,19,16
India,Andhra_Pradesh,Vijayawada,"Rajiv Nagar, Vijayawada - APPCB",22-05-2024 06:00:00,16.554731,80.649110,OZONE,15,47,17
India,Andhra_Pradesh,Visakhapatnam,"GVM Corporation, Visakhapatnam - APPCB",22-05-2024 06:00:00,17.72,83.3,PM10,18,61,33
India,Andhra_Pradesh,Visakhapatnam,"GVM Corporation, Visakhapatnam - APPCB",22-05-2024 06:00:00,17.72,83.3,NH3,2,4,3
India,Andhra_Pradesh,Visakhapatnam,"GVM Corporation, Visakhapatnam - APPCB",22-05-2024 06:00:00,17.72,83.3,SO2,9,15,12
India,Andhra_Pradesh,Visakhapatnam,"GVM Corporation, Visakhapatnam - APPCB",22-05-2024 06:00:00,17.72,83.3,CO,2,18,9
India,Arunachal_Pradesh,Naharlagun,"Naharlagun, Naharlagun - APSPCB",22-05-2024 06:00:00,27.103358,93.679645,PM2.5,11,109,45
India,Arunachal_Pradesh,Naharlagun,"Naharlagun, Naharlagun - APSPCB",22-05-2024 06:00:00,27.103358,93.679645,NO2,3,3,3
India,Arunachal_Pradesh,Naharlagun,"Naharlagun, Naharlagun - APSPCB",22-05-2024 06:00:00,27.103358,93.679645,OZONE,2,2,2
India,Assam,Byrnihat,"Central Academy for SFS, Byrnihat - PCBA",22-05-2024 06:00:00,26.071318,91.87488,PM2.5,40,500,277
India,Assam,Byrnihat,"Central Academy for SFS, Byrnihat - PCBA",22-05-2024 06:00:00,26.071318,91.87488,NH3,16,21,18
India,Assam,Byrnihat,"Central Academy for SFS, Byrnihat - PCBA",22-05-2024 06:00:00,26.071318,91.87488,SO2,8,45,17
India,Assam,Guwahati,"IITG, Guwahati - PCBA",22-05-2024 06:00:00,26.2028636,91.70046436,NH3,5,5,5
India,Assam,Guwahati,"LGBI Airport, Guwahati - PCBA",22-05-2024 06:00:00,26.10887,91.589544,PM10,36,420,116
India,Assam,Guwahati,"Railway Colony, Guwahati - PCBA",22-05-2024 06:00:00,26.181742,91.78063,PM2.5,37,278,123
India,Assam,Guwahati,"Railway Colony, Guwahati - PCBA",22-05-2024 06:00:00,26.181742,91.78063,CO,26,63,43
India,Assam,Nagaon,"Christianpatty, Nagaon - PCBA",22-05-2024 06:00:00,26.349082,92.68449,SO2,1,78,21
India,Assam,Nagaon,"Christianpatty, Nagaon - PCBA",22-05-2024 06:00:00,26.349082,92.68449,OZONE,3,97,43
India,Assam,Nalbari,"Bata Chowk, Nalbari - PCBA",22-05-2024 06:00:00,26.446912,91.439057,NH3,2,3,2
India,Assam,Silchar,"Tarapur, Silchar - PCBA",22-05-2024 06:00:00,24.82827,92.79525,PM2.5,31,51,40
India,Assam,Silchar,"Tarapur, Silchar - PCBA",22-05-2024 06:00:00,24.82827,92.79525,PM10,51,88,72
India,Assam,Silchar,"Tarapur, Silchar - PCBA",22-05-2024 06:00:00,24.82827,92.79525,SO2,1,24,13
India,Bihar,Bettiah,"Kamalnath Nagar, Bettiah - BSPCB",22-05-2024 06:00:00,26.80365,84.51954,PM2.5,NA,NA,NA
India,Bihar,Bettiah,"Kamalnath Nagar, Bettiah - BSPCB",22-05-2024 06:00:00,26.80365,84.51954,PM10,NA,NA,NA
India,Bihar,Bettiah,"Kamalnath Nagar, Bettiah - BSPCB",22-05-2024 06:00:00,26.80365,84.51954,NH3,NA,NA,NA
India,Bihar,Bettiah,"Kamalnath Nagar, Bettiah - BSPCB",22-05-2024 06:00:00,26.80365,84.51954,SO2,NA,NA,NA
India,Bihar,Bhagalpur,"Mayaganj, Bhagalpur - BSPCB",22-05-2024 06:00:00,25.265194,87.012947,PM2.5,55,200,91
India,Bihar,Bhagalpur,"Mayaganj, Bhagalpur - BSPCB",22-05-2024 06:00:00,25.265194,87.012947,NH3,7,9,8
India,Bihar,Buxar,"Charitra Van, Buxar - BSPCB (Formerly known as Central Jail)",22-05-2024 06:00:00,25.567520,83.966379,SO2,7,13,10
India,Bihar,Gaya,"Collectorate, Gaya - BSPCB",22-05-2024 06:00:00,24.7955,84.9994,SO2,7,12,9
India,Bihar,Gaya,"Collectorate, Gaya - BSPCB",22-05-2024 06:00:00,24.7955,84.9994,CO,20,120,90
India,Bihar,Gaya,"SFTI Kusdihra, Gaya - BSPCB",22-05-2024 06:00:00,24.762518,84.982348,OZONE,5,61,12
India,Bihar,Hajipur,"Industrial Area, Hajipur - BSPCB",22-05-2024 06:00:00,25.697189,85.245900,PM10,59,175,110
India,Bihar,Hajipur,"Industrial Area, Hajipur - BSPCB",22-05-2024 06:00:00,25.697189,85.245900,NH3,14,18,16
India,Bihar,Hajipur,"Industrial Area, Hajipur - BSPCB",22-05-2024 06:00:00,25.697189,85.245900,OZONE,9,176,47
India,Bihar,Katihar,"Mirchaibari, Katihar - BSPCB",22-05-2024 06:00:00,25.560083,87.553265,PM2.5,17,45,30
India,Bihar,Kishanganj,"SDM Office_Khagra, Kishanganj - BSPCB",22-05-2024 06:00:00,26.0881305,87.93840336,PM2.5,12,37,23
India,Bihar,Kishanganj,"SDM Office_Khagra, Kishanganj - BSPCB",22-05-2024 06:00:00,26.0881305,87.93840336,CO,8,12,8
India,Bihar,Manguraha,"Forest Rest House, Manguraha - BSPCB",22-05-2024 06:00:00,27.308328,84.531742,NO2,18,27,22
India,Bihar,Manguraha,"Forest Rest House, Manguraha - BSPCB",22-05-2024 06:00:00,27.308328,84.531742,OZONE,2,112,5
India,Bihar,Motihari,"Gandak Colony, Motihari - BSPCB",22-05-2024 06:00:00,26.63086,84.90051,PM10,45,129,89
India,Bihar,Motihari,"Gandak Colony, Motihari - BSPCB",22-05-2024 06:00:00,26.63086,84.90051,NO2,24,65,35
India,Bihar,Munger,"Town Hall, Munger - BSPCB",22-05-2024 06:00:00,25.376776,86.471523,NH3,2,3,3
India,Bihar,Muzaffarpur,"Buddha Colony, Muzaffarpur - BSPCB",22-05-2024 06:00:00,26.11442,85.39813,SO2,4,6,5
India,Bihar,Muzaffarpur,"MIT-Daudpur Kothi, Muzaffarpur - BSPCB",22-05-2024 06:00:00,26.1403345,85.3650192,CO,16,113,58
India,Bihar,Muzaffarpur,"Muzaffarpur Collectorate, Muzaffarpur - BSPCB",22-05-2024 06:00:00,26.1209,85.3647,PM2.5,38,72,57
India,Bihar,Muzaffarpur,"Muzaffarpur Collectorate, Muzaffarpur - BSPCB",22-05-2024 06:00:00,26.1209,85.3647,CO,27,56,46
India,Bihar,Patna,"DRM Office Danapur, Patna - BSPCB",22-05-2024 06:00:00,25.586562,85.043586,NH3,2,3,3
India,Bihar,Patna,"DRM Office Danapur, Patna - BSPCB",22-05-2024 06:00:00,25.586562,85.043586,OZONE,16,73,27
India,Bihar,Patna,"Muradpur, Patna - BSPCB",22-05-2024 06:00:00,25.619651,85.147382,SO2,2,10,6
India,Bihar,Patna,"Muradpur, Patna - BSPCB",22-05-2024 06:00:00,25.619651,85.147382,OZONE,5,62,6
India,Bihar,Patna,"Samanpura, Patna - BSPCB",22-05-2024 06:00:00,25.596727,85.085624,NO2,5,21,10
India,Bihar,Patna,"Samanpura, Patna - BSPCB",22-05-2024 06:00:00,25.596727,85.085624,SO2,3,10,5
India,Bihar,Purnia,"Mariam Nagar, Purnia - BSPCB",22-05-2024 06:00:00,25.366336,87.117468,SO2,NA,NA,NA
India,Bihar,Rajgir,"Dangi Tola, Rajgir - BSPCB",22-05-2024 06:00:00,25.03280,85.41948,NO2,14,17,15
India,Bihar,Saharsa,"Police Line, Saharsa - BSPCB",22-05-2024 06:00:00,25.892357,86.590325,PM10,20,96,48
India,Bihar,Saharsa,"Police Line, Saharsa - BSPCB",22-05-2024 06:00:00,25.892357,86.590325,CO,54,55,55
India,Bihar,Sasaram,"Dada Peer, Sasaram - BSPCB",22-05-2024 06:00:00,24.952822,84.002396,PM10,9,54,26
India,Bihar,Sasaram,"Dada Peer, Sasaram - BSPCB",22-05-2024 06:00:00,24.952822,84.002396,SO2,NA,NA,NA
India,Bihar,Sasaram,"Dada Peer, Sasaram - BSPCB",22-05-2024 06:00:00,24.952822,84.002396,OZONE,13,84,34
India,Bihar,Siwan,"Chitragupta Nagar, Siwan - BSPCB",22-05-2024 06:00:00,26.2271665,84.3570427,CO,96,113,109
India,Bihar,Siwan,"Chitragupta Nagar, Siwan - BSPCB",22-05-2024 06:00:00,26.2271665,84.3570427,OZONE,22,61,29
India,Chandigarh,Chandigarh,"Sector 22, Chandigarh - CPCC",22-05-2024 06:00:00,30.735567,76.775714,PM2.5,67,277,105
India,Chandigarh,Chandigarh,"Sector 22, Chandigarh - CPCC",22-05-2024 06:00:00,30.735567,76.775714,NO2,9,143,36
India,Chandigarh,Chandigarh,"Sector 22, Chandigarh - CPCC",22-05-2024 06:00:00,30.735567,76.775714,SO2,11,47,20
India,Chandigarh,Chandigarh,"Sector 22, Chandigarh - CPCC",22-05-2024 06:00:00,30.735567,76.775714,OZONE,23,301,151
India,Chhattisgarh,Bhilai,"32Bungalows, Bhilai - CECB",22-05-2024 06:00:00,21.194815,81.314770,CO,11,48,32
India,Chhattisgarh,Bhilai,"32Bungalows, Bhilai - CECB",22-05-2024 06:00:00,21.194815,81.314770,OZONE,8,80,13
India,Chhattisgarh,Bilaspur,"Mangala, Bilaspur - NTPC",22-05-2024 06:00:00,22.08815,82.13737,PM2.5,26,71,47
India,Chhattisgarh,Korba,"Rampur, Korba - CECB",22-05-2024 06:00:00,22.368195,82.746431,PM10,31,117,59
India,Chhattisgarh,Korba,"Rampur, Korba - CECB",22-05-2024 06:00:00,22.368195,82.746431,SO2,1,36,9
India,Chhattisgarh,Kunjemura,"OP Jindal School, Kunjemura - CECB",22-05-2024 06:00:00,22.126650,83.483212,SO2,1,8,5
India,Chhattisgarh,Kunjemura,"OP Jindal School, Kunjemura - CECB",22-05-2024 06:00:00,22.126650,83.483212,OZONE,5,50,14
India,Chhattisgarh,Raipur,"Bhatagaon New ISBT, Raipur - CECB",22-05-2024 06:00:00,21.219665,81.630094,CO,12,32,18
India,Chhattisgarh,Raipur,"Krishak Nagar, Raipur - CECB",22-05-2024 06:00:00,21.237755,81.705301,PM2.5,12,39,24
India,Chhattisgarh,Raipur,"Krishak Nagar, Raipur - CECB",22-05-2024 06:00:00,21.237755,81.705301,PM10,16,88,39
India,Chhattisgarh,Raipur,"Krishak Nagar, Raipur - CECB",22-05-2024 06:00:00,21.237755,81.705301,OZONE,7,94,18
India,Chhattisgarh,Raipur,"Siltara Phase-II, Raipur - CECB",22-05-2024 06:00:00,21.371751,81.664929,NO2,19,44,30
India,Chhattisgarh,Raipur,"Siltara Phase-II, Raipur - CECB",22-05-2024 06:00:00,21.371751,81.664929,NH3,3,3,3
India,Chhattisgarh,Tumidih,"OP Jindal Industrial Park, Tumidih - CECB",22-05-2024 06:00:00,22.06631475,83.33820077,PM2.5,NA,NA,NA
India,Chhattisgarh,Tumidih,"OP Jindal Industrial Park, Tumidih - CECB",22-05-2024 06:00:00,22.06631475,83.33820077,CO,NA,NA,NA
India,Delhi,Delhi,"Alipur, Delhi - DPCC",22-05-2024 06:00:00,28.815329,77.153010,SO2,15,45,25
India,Delhi,Delhi,"Alipur, Delhi - DPCC",22-05-2024 06:00:00,28.815329,77.153010,OZONE,28,246,59
India,Delhi,Delhi,"Ashok Vihar, Delhi - DPCC",22-05-2024 06:00:00,28.695381,77.181665,PM10,149,401,227
India,Delhi,Delhi,"Aya Nagar, Delhi - IMD",22-05-2024 06:00:00,28.4706914,77.1099364,PM2.5,76,434,139
India,Delhi,Delhi,"Burari Crossing, Delhi - IMD",22-05-2024 06:00:00,28.7256504,77.2011573,CO,19,69,38
India,Delhi,Delhi,"CRRI Mathura Road, Delhi - IMD",22-05-2024 06:00:00,28.5512005,77.2735737,NO2,3,44,12
India,Delhi,Delhi,"DTU, Delhi - CPCB",22-05-2024 06:00:00,28.7500499,77.1112615,PM2.5,121,329,253
India,Delhi,Delhi,"DTU, Delhi - CPCB",22-05-2024 06:00:00,28.7500499,77.1112615,CO,30,162,162
India,Delhi,Delhi,"Dr. Karni Singh Shooting Range, Delhi - DPCC",22-05-2024 06:00:00,28.498571,77.264840,NH3,NA,NA,NA
India,Delhi,Delhi,"Dr. Karni Singh Shooting Range, Delhi - DPCC",22-05-2024 06:00:00,28.498571,77.264840,CO,NA,NA,NA
India,Delhi,Delhi,"Dwarka-Sector 8, Delhi - DPCC ",22-05-2024 06:00:00,28.5710274,77.0719006,CO,48,94,69
India,Delhi,Delhi,"IGI Airport (T3), Delhi - IMD",22-05-2024 06:00:00,28.5627763,77.1180053,PM2.5,70,181,118
India,Delhi,Delhi,"IHBAS, Dilshad Garden, Delhi - CPCB",22-05-2024 06:00:00,28.6811736,77.3025234,NH3,1,6,3
India,Delhi,Delhi,"ITO, Delhi - CPCB",22-05-2024 06:00:00,28.628624,77.241060,CO,23,100,43
India,Delhi,Delhi,"Jawaharlal Nehru Stadium, Delhi - DPCC",22-05-2024 06:00:00,28.580280,77.233829,NO2,6,28,13
India,Delhi,Delhi,"Jawaharlal Nehru Stadium, Delhi - DPCC",22-05-2024 06:00:00,28.580280,77.233829,CO,18,109,82
India,Delhi,Delhi,"Lodhi Road, Delhi - IMD",22-05-2024 06:00:00,28.5918245,77.2273074,NO2,10,26,14
India,Delhi,Delhi,"Major Dhyan Chand National Stadium, Delhi - DPCC",22-05-2024 06:00:00,28.611281,77.237738,NO2,23,132,59
India,Delhi,Delhi,"Major Dhyan Chand National Stadium, Delhi - DPCC",22-05-2024 06:00:00,28.611281,77.237738,SO2,14,27,18
India,Delhi,Delhi,"NSIT Dwarka, Delhi - CPCB",22-05-2024 06:00:00,28.60909,77.0325413,NO2,19,45,28
India,Delhi,Delhi,"Narela, Delhi - DPCC",22-05-2024 06:00:00,28.822836,77.101981,PM10,179,446,270
India,Delhi,Delhi,"Narela, Delhi - DPCC",22-05-2024 06:00:00,28.822836,77.101981,CO,38,78,64
India,Delhi,Delhi,"Narela, Delhi - DPCC",22-05-2024 06:00:00,28.822836,77.101981,OZONE,29,186,45
India,Delhi,Delhi,"Nehru Nagar, Delhi - DPCC",22-05-2024 06:00:00,28.567890,77.250515,CO,32,72,59
India,Delhi,Delhi,"North Campus, DU, Delhi - IMD",22-05-2024 06:00:00,28.6573814,77.1585447,NO2,20,79,34
India,Delhi,Delhi,"Okhla Phase-2, Delhi - DPCC",22-05-2024 06:00:00,28.530785,77.271255,SO2,7,15,11
India,Delhi,Delhi,"Punjabi Bagh, Delhi - DPCC",22-05-2024 06:00:00,28.674045,77.131023,PM2.5,67,320,191
India,Delhi,Delhi,"Pusa, Delhi - DPCC",22-05-2024 06:00:00,28.639652,77.146275,OZONE,12,210,25
India,Delhi,Delhi,"Pusa, Delhi - IMD",22-05-2024 06:00:00,28.636110,77.173332,PM2.5,NA,NA,NA
India,Delhi,Delhi,"Pusa, Delhi - IMD",22-05-2024 06:00:00,28.636110,77.173332,PM10,NA,NA,NA
India,Delhi,Delhi,"R K Puram, Delhi - DPCC",22-05-2024 06:00:00,28.563262,77.186937,CO,40,154,154
India,Delhi,Delhi,"Shadipur, Delhi - CPCB",22-05-2024 06:00:00,28.6514781,77.1473105,NO2,79,147,115
India,Delhi,Delhi,"Sirifort, Delhi - CPCB",22-05-2024 06:00:00,28.5504249,77.2159377,NO2,28,61,49
India,Delhi,Delhi,"Sonia Vihar, Delhi - DPCC",22-05-2024 06:00:00,28.710508,77.249485,NO2,23,98,42
India,Delhi,Delhi,"Sri Aurobindo Marg, Delhi - DPCC",22-05-2024 06:00:00,28.531346,77.190156,SO2,NA,NA,NA
India,Delhi,Delhi,"Sri Aurobindo Marg, Delhi - DPCC",22-05-2024 06:00:00,28.531346,77.190156,CO,NA,NA,NA
India,Delhi,Delhi,"Wazirpur, Delhi - DPCC",22-05-2024 06:00:00,28.699793,77.165453,NH3,9,19,15
India,Delhi,Delhi,"Wazirpur, Delhi - DPCC",22-05-2024 06:00:00,28.699793,77.165453,OZONE,11,254,37
India,Gujarat,Ahmedabad,"Chandkheda, Ahmedabad - IITM",22-05-2024 06:00:00,23.107969,72.574648,CO,1,137,37
India,Gujarat,Ahmedabad,"Gyaspur, Ahmedabad - IITM",22-05-2024 06:00:00,22.977134,72.553024,CO,26,73,39
India,Gujarat,Ahmedabad,"Maninagar, Ahmedabad - GPCB",22-05-2024 06:00:00,23.002657,72.591912,SO2,11,103,49
India,Gujarat,Ahmedabad,"Raikhad, Ahmedabad - IITM",22-05-2024 06:00:00,23.020509,72.579261,NO2,NA,NA,NA
India,Gujarat,Ahmedabad,"Raikhad, Ahmedabad - IITM",22-05-2024 06:00:00,23.020509,72.579261,SO2,9,28,20
India,Gujarat,Ahmedabad,"SVPI Airport Hansol, Ahmedabad - IITM",22-05-2024 06:00:00,23.076793,72.627874,SO2,4,15,8
India,Gujarat,Ahmedabad,"Sardar Vallabhbhai Patel Stadium, Ahmedabad - IITM",22-05-2024 06:00:00,23.043070,72.562968,CO,20,117,37
India,Gujarat,Gandhinagar,"Sector-10, Gandhinagar - GPCB",22-05-2024 06:00:00,23.221714,72.654328,PM10,24,113,61
India,Gujarat,Vapi,"Phase-1 GIDC, Vapi - GPCB",22-05-2024 06:00:00,20.362421,72.918013,NO2,6,7,6
India,Gujarat,Vapi,"Phase-1 GIDC, Vapi - GPCB",22-05-2024 06:00:00,20.362421,72.918013,SO2,44,47,45
India,Gujarat,Vatva,"Phase-4 GIDC, Vatva - GPCB",22-05-2024 06:00:00,22.969611,72.643500,CO,34,36,35
India,Haryana,Ambala,"Patti Mehar, Ambala - HSPCB",22-05-2024 06:00:00,30.379589,76.778328,PM10,56,183,85
India,Haryana,Bahadurgarh,"Arya Nagar, Bahadurgarh - HSPCB",22-05-2024 06:00:00,28.6701,76.9254,CO,94,103,99
India,Haryana,Bhiwani,"H.B. Colony, Bhiwani - HSPCB",22-05-2024 06:00:00,28.806223,76.141105,CO,14,149,72
India,Haryana,Faridabad,"New Industrial Town, Faridabad - HSPCB",22-05-2024 06:00:00,28.39072,77.30059,PM10,164,379,216
India,Haryana,Faridabad,"New Industrial Town, Faridabad - HSPCB",22-05-2024 06:00:00,28.39072,77.30059,CO,10,43,30
India,Haryana,Faridabad,"New Industrial Town, Faridabad - HSPCB",22-05-2024 06:00:00,28.39072,77.30059,OZONE,20,122,28
India,Haryana,Faridabad,"Sector 11, Faridabad - HSPCB",22-05-2024 06:00:00,28.376058,77.315741,PM10,137,228,163
India,Haryana,Faridabad,"Sector 11, Faridabad - HSPCB",22-05-2024 06:00:00,28.376058,77.315741,NO2,30,32,31
India,Haryana,Faridabad,"Sector 11, Faridabad - HSPCB",22-05-2024 06:00:00,28.376058,77.315741,SO2,3,4,4
India,Haryana,Faridabad,"Sector 30, Faridabad - HSPCB",22-05-2024 06:00:00,28.4417,77.3217,PM10,NA,NA,NA
India,Haryana,Faridabad,"Sector 30, Faridabad - HSPCB",22-05-2024 06:00:00,28.4417,77.3217,NH3,NA,NA,NA
India,Haryana,Faridabad,"Sector- 16A, Faridabad - HSPCB",22-05-2024 06:00:00,28.4088421,77.3099081,PM2.5,57,157,96
India,Haryana,Gurugram,"Sector-51, Gurugram - HSPCB",22-05-2024 06:00:00,28.4227,77.0667,PM10,167,357,229
India,Haryana,Gurugram,"Teri Gram, Gurugram - HSPCB",22-05-2024 06:00:00,28.4275,77.1465,NO2,8,24,18
India,Haryana,Jind,"Police Lines, Jind - HSPCB",22-05-2024 06:00:00,29.307814,76.337619,CO,1,118,30
India,Haryana,Kurukshetra,"Sector-7, Kurukshetra - HSPCB",22-05-2024 06:00:00,29.966942,76.875879,PM10,111,134,123
India,Haryana,Kurukshetra,"Sector-7, Kurukshetra - HSPCB",22-05-2024 06:00:00,29.966942,76.875879,SO2,2,3,2
India,Haryana,Kurukshetra,"Sector-7, Kurukshetra - HSPCB",22-05-2024 06:00:00,29.966942,76.875879,CO,16,30,27
India,Haryana,Mandikhera,"General Hospital, Mandikhera - HSPCB",22-05-2024 06:00:00,27.9002,76.9938,PM2.5,36,70,55
India,Haryana,Mandikhera,"General Hospital, Mandikhera - HSPCB",22-05-2024 06:00:00,27.9002,76.9938,NO2,20,24,21
India,Haryana,Mandikhera,"General Hospital, Mandikhera - HSPCB",22-05-2024 06:00:00,27.9002,76.9938,OZONE,22,33,27
India,Haryana,Manesar,"Sector-2 IMT, Manesar - HSPCB",22-05-2024 06:00:00,28.360699,76.936090,SO2,1,24,9
India,Haryana,Narnaul,"Shastri Nagar, Narnaul - HSPCB",22-05-2024 06:00:00,28.060249,76.113115,NO2,15,87,46
India,Haryana,Palwal,"Shyam Nagar, Palwal - HSPCB",22-05-2024 06:00:00,28.1485564,77.3320667,PM2.5,66,100,85
India,Haryana,Palwal,"Shyam Nagar, Palwal - HSPCB",22-05-2024 06:00:00,28.1485564,77.3320667,SO2,3,21,10
India,Haryana,Panchkula,"Sector-6, Panchkula - HSPCB ",22-05-2024 06:00:00,30.7057778,76.8531805555555,OZONE,NA,NA,NA
India,Haryana,Rohtak,"MD University, Rohtak - HSPCB",22-05-2024 06:00:00,28.52123,76.37138,PM2.5,84,383,225
India,Haryana,Yamuna Nagar,"Gobind Pura, Yamuna Nagar - HSPCB",22-05-2024 06:00:00,30.1480566,77.2893471,PM10,28,142,116
India,Jammu_and_Kashmir,Srinagar,"Rajbagh, Srinagar - JKSPCB",22-05-2024 06:00:00,34.066206,74.819820,PM10,NA,NA,NA
India,Jammu_and_Kashmir,Srinagar,"Rajbagh, Srinagar - JKSPCB",22-05-2024 06:00:00,34.066206,74.819820,CO,20,26,23
India,Jharkhand,Dhanbad,"Kalakusuma, Dhanbad - DMC",22-05-2024 06:00:00,23.811548,86.481238,CO,128,133,131
India,Jharkhand,Dhanbad,"Sardar Patel Nagar, Dhanbad - JSPCB",22-05-2024 06:00:00,23.80569,86.44268,SO2,5,50,13
India,Karnataka,Bagalkot,"Vidayagiri, Bagalkot - KSPCB",22-05-2024 06:00:00,16.172806,75.659694,NH3,1,2,1
India,Karnataka,Bengaluru,"Bapuji Nagar, Bengaluru - KSPCB",22-05-2024 06:00:00,12.951913,77.539784,PM10,33,130,73
India,Karnataka,Bengaluru,"Hebbal, Bengaluru - KSPCB",22-05-2024 06:00:00,13.029152,77.585901,NH3,1,1,1
India,Karnataka,Bengaluru,"Hebbal, Bengaluru - KSPCB",22-05-2024 06:00:00,13.029152,77.585901,OZONE,7,15,7
India,Karnataka,Bengaluru,"Hombegowda Nagar, Bengaluru - KSPCB",22-05-2024 06:00:00,12.938539,77.590100,NH3,1,2,2
India,Karnataka,Bengaluru,"Jayanagar 5th Block, Bengaluru - KSPCB",22-05-2024 06:00:00,12.920984,77.584908,PM2.5,NA,NA,NA
India,Karnataka,Bengaluru,"Kasturi Nagar, Bengaluru - KSPCB",22-05-2024 06:00:00,13.003872,77.664217,NO2,16,17,17
India,Karnataka,Bengaluru,"RVCE-Mailasandra, Bengaluru - KSPCB",22-05-2024 06:00:00,12.921418,77.502466,SO2,7,9,8
India,Karnataka,Bengaluru,"Silk Board, Bengaluru - KSPCB",22-05-2024 06:00:00,12.917348,77.622813,PM10,31,200,76
India,Karnataka,Bidar,"Naubad, Bidar - KSPCB",22-05-2024 06:00:00,17.930306,77.482194,NO2,7,8,8
India,Karnataka,Bidar,"Naubad, Bidar - KSPCB",22-05-2024 06:00:00,17.930306,77.482194,NH3,3,3,3
India,Karnataka,Davanagere,"Devaraj Urs Badavane, Davanagere - KSPCB",22-05-2024 06:00:00,14.475800,75.905200,NH3,1,2,1
India,Karnataka,Gadag,"Panchal Nagar, Gadag - KSPCB",22-05-2024 06:00:00,15.411456,75.638133,PM10,25,45,32
India,Karnataka,Gadag,"Panchal Nagar, Gadag - KSPCB",22-05-2024 06:00:00,15.411456,75.638133,NH3,1,4,2
India,Karnataka,Gadag,"Panchal Nagar, Gadag - KSPCB",22-05-2024 06:00:00,15.411456,75.638133,SO2,9,15,13
India,Karnataka,Hassan,"B.Katihalli, Hassan - KSPCB",22-05-2024 06:00:00,13.008556,76.125258,NO2,10,13,11
India,Karnataka,Hassan,"B.Katihalli, Hassan - KSPCB",22-05-2024 06:00:00,13.008556,76.125258,NH3,4,6,5
India,Karnataka,Hassan,"B.Katihalli, Hassan - KSPCB",22-05-2024 06:00:00,13.008556,76.125258,OZONE,1,4,3
India,Karnataka,Haveri,"Ashwini Nagar, Haveri - KSPCB",22-05-2024 06:00:00,14.791800,75.389600,PM2.5,14,28,23
India,Karnataka,Haveri,"Ashwini Nagar, Haveri - KSPCB",22-05-2024 06:00:00,14.791800,75.389600,NH3,3,3,3
India,Karnataka,Haveri,"Ashwini Nagar, Haveri - KSPCB",22-05-2024 06:00:00,14.791800,75.389600,SO2,14,14,14
India,Karnataka,Hubballi,"Lingaraj Nagar, Hubballi - KSPCB",22-05-2024 06:00:00,15.3714823,75.1160168,PM2.5,33,60,46
India,Karnataka,Hubballi,"Lingaraj Nagar, Hubballi - KSPCB",22-05-2024 06:00:00,15.3714823,75.1160168,NO2,11,17,14
India,Karnataka,Hubballi,"Lingaraj Nagar, Hubballi - KSPCB",22-05-2024 06:00:00,15.3714823,75.1160168,SO2,1,7,2
India,Karnataka,Hubballi,"Lingaraj Nagar, Hubballi - KSPCB",22-05-2024 06:00:00,15.3714823,75.1160168,CO,11,40,23
India,Karnataka,Kalaburagi,"Lal Bahadur Shastri Nagar, Kalaburagi - KSPCB",22-05-2024 06:00:00,17.321993,76.822628,PM10,18,128,47
India,Karnataka,Kalaburagi,"Lal Bahadur Shastri Nagar, Kalaburagi - KSPCB",22-05-2024 06:00:00,17.321993,76.822628,NO2,10,12,11
India,Karnataka,Kalaburagi,"Lal Bahadur Shastri Nagar, Kalaburagi - KSPCB",22-05-2024 06:00:00,17.321993,76.822628,OZONE,7,53,28
India,Karnataka,Kalaburagi,"Mahatma Basaveswar Colony, Kalaburgi - KSPCB",22-05-2024 06:00:00,17.336318,76.847397,PM10,17,65,40
India,Karnataka,Kalaburagi,"Mahatma Basaveswar Colony, Kalaburgi - KSPCB",22-05-2024 06:00:00,17.336318,76.847397,SO2,2,4,3
India,Karnataka,Karwar,"KHB Colony, Karwar - KSPCB",22-05-2024 06:00:00,14.816666,74.141003,PM10,NA,NA,NA
India,Karnataka,Kolar,"Tamaka Ind. Area, Kolar - KSPCB",22-05-2024 06:00:00,13.1276288,78.1570122,NO2,16,31,22
India,Karnataka,Koppal,"Diwator Nagar, Koppal - KSPCB",22-05-2024 06:00:00,15.347630,76.181767,OZONE,43,165,122
India,Karnataka,Madikeri,"Stuart Hill, Madikeri - KSPCB",22-05-2024 06:00:00,12.415911,75.735050,OZONE,14,25,20
India,Karnataka,Mysuru,"Hebbal 1st Stage, Mysuru - KSPCB",22-05-2024 06:00:00,12.21041,76.37376,NO2,6,32,21
India,Karnataka,Mysuru,"Hebbal 1st Stage, Mysuru - KSPCB",22-05-2024 06:00:00,12.21041,76.37376,CO,4,44,15
India,Karnataka,Raichur,"Haji Colony, Raichur - KSPCB",22-05-2024 06:00:00,16.208139,77.348417,CO,88,105,97
India,Karnataka,Ramanagara,"Vijay Nagar, Ramanagara - KSPCB",22-05-2024 06:00:00,12.733409,77.298051,PM10,10,37,23
India,Karnataka,Ramanagara,"Vijay Nagar, Ramanagara - KSPCB",22-05-2024 06:00:00,12.733409,77.298051,CO,9,38,18
India,Karnataka,Ramanagara,"Vijay Nagar, Ramanagara - KSPCB",22-05-2024 06:00:00,12.733409,77.298051,OZONE,27,31,29
India,Karnataka,Shivamogga,"Vinoba Nagara, Shivamogga - KSPCB",22-05-2024 06:00:00,13.940000,75.555917,OZONE,5,40,23
India,Karnataka,Tumakuru,"Thimmalapura, Tumakuru - KSPCB",22-05-2024 06:00:00,13.377516,77.099072,PM2.5,15,45,31
India,Karnataka,Tumakuru,"Thimmalapura, Tumakuru - KSPCB",22-05-2024 06:00:00,13.377516,77.099072,PM10,28,150,86
India,Karnataka,Udupi,"Brahmagiri, Udupi - KSPCB",22-05-2024 06:00:00,13.34194444,74.74694444,PM2.5,NA,NA,NA
India,Karnataka,Udupi,"Brahmagiri, Udupi - KSPCB",22-05-2024 06:00:00,13.34194444,74.74694444,NH3,1,1,1
India,Karnataka,Vijayapura,"Ibrahimpur, Vijayapura - KSPCB",22-05-2024 06:00:00,16.802639,75.722694,NH3,2,2,2
India,Karnataka,Yadgir,"Collector Office, Yadgir - KSPCB",22-05-2024 06:00:00,16.7602,77.1428,PM2.5,15,57,32
India,Kerala,Kollam,"Polayathode, Kollam - Kerala PCB",22-05-2024 06:00:00,8.8787,76.6073,PM2.5,5,63,25
India,Kerala,Thiruvananthapuram,"Kariavattom, Thiruvananthapuram - Kerala PCB",22-05-2024 06:00:00,8.563700,76.886500,PM10,65,96,78
India,Kerala,Thiruvananthapuram,"Kariavattom, Thiruvananthapuram - Kerala PCB",22-05-2024 06:00:00,8.563700,76.886500,OZONE,27,33,29
India,Kerala,Thiruvananthapuram,"Plammoodu, Thiruvananthapuram - Kerala PCB",22-05-2024 06:00:00,8.5149093,76.9435879,PM10,2,29,14
India,Kerala,Thiruvananthapuram,"Plammoodu, Thiruvananthapuram - Kerala PCB",22-05-2024 06:00:00,8.5149093,76.9435879,OZONE,5,54,25
India,Kerala,Thrissur,"Corporation Ground, Thrissur - Kerala PCB",22-05-2024 06:00:00,10.532400,76.215900,PM2.5,42,51,47
