country,state,city,station,last_update,latitude,longitude,pollutant_id,pollutant_min,pollutant_max,pollutant_avg
India,Andhra_Pradesh,Anantapur,"Gulzarpet, Anantapur - APPCB",15-06-2024 06:00:00,14.675886,77.593027,CO,12,42,15
India,Andhra_Pradesh,Kadapa,"Yerramukkapalli, Kadapa - APPCB",15-06-2024 06:00:00,14.465052,78.824187,OZONE,NA,NA,NA
India,Andhra_Pradesh,Rajamahendravaram,"Anand Kala Kshetram, Rajamahendravaram - APPCB",15-06-2024 06:00:00,16.9872867,81.7363176,PM2.5,22,41,31
India,Andhra_Pradesh,Tirupati,"Vaikuntapuram, Tirupati - APPCB",15-06-2024 06:00:00,13.615387,79.409230,NH3,2,3,2
India,Andhra_Pradesh,Vijayawada,"Rajiv Gandhi Park, Vijayawada - APPCB",15-06-2024 06:00:00,16.509717,80.612222,PM2.5,40,61,50
India,Andhra_Pradesh,Vijayawada,"Rajiv Gandhi Park, Vijayawada - APPCB",15-06-2024 06:00:00,16.509717,80.612222,SO2,6,9,8
India,Andhra_Pradesh,Vijayawada,"Rajiv Nagar, Vijayawada - APPCB",15-06-2024 06:00:00,16.554731,80.649110,PM2.5,47,140,57
India,Andhra_Pradesh,Vijayawada,"Rajiv Nagar, Vijayawada - APPCB",15-06-2024 06:00:00,16.554731,80.649110,PM10,53,127,63
India,Andhra_Pradesh,Vijayawada,"Rajiv Nagar, Vijayawada - APPCB",15-06-2024 06:00:00,16.554731,80.649110,NO2,10,10,10
India,Assam,Byrnihat,"Central Academy for SFS, Byrnihat - PCBA",15-06-2024 06:00:00,26.071318,91.87488,PM2.5,42,352,136
India,Assam,Guwahati,"IITG, Guwahati - PCBA",15-06-2024 06:00:00,26.2028636,91.70046436,SO2,NA,NA,NA
India,Assam,Guwahati,"LGBI Airport, Guwahati - PCBA",15-06-2024 06:00:00,26.10887,91.589544,PM2.5,NA,NA,NA
India,Assam,Guwahati,"Pan Bazaar, Guwahati - PCBA",15-06-2024 06:00:00,26.187500,91.744194,PM2.5,10,74,23
India,Assam,Guwahati,"Pan Bazaar, Guwahati - PCBA",15-06-2024 06:00:00,26.187500,91.744194,OZONE,16,17,17
India,Assam,Guwahati,"Railway Colony, Guwahati - PCBA",15-06-2024 06:00:00,26.181742,91.78063,NO2,3,4,3
India,Assam,Guwahati,"Railway Colony, Guwahati - PCBA",15-06-2024 06:00:00,26.181742,91.78063,SO2,1,2,2
India,Assam,Nagaon,"Christianpatty, Nagaon - PCBA",15-06-2024 06:00:00,26.349082,92.68449,NO2,1,33,8
India,Assam,Nagaon,"Christianpatty, Nagaon - PCBA",15-06-2024 06:00:00,26.349082,92.68449,NH3,NA,NA,NA
India,Assam,Nagaon,"Christianpatty, Nagaon - PCBA",15-06-2024 06:00:00,26.349082,92.68449,CO,25,100,52
India,Assam,Nalbari,"Bata Chowk, Nalbari - PCBA",15-06-2024 06:00:00,26.446912,91.439057,NO2,10,25,19
India,Bihar,Arrah,"New DM Office, Arrah - BSPCB",15-06-2024 06:00:00,25.5626095,84.663264,OZONE,8,28,17
India,Bihar,Aurangabad,"Gurdeo Nagar, Aurangabad - BSPCB",15-06-2024 06:00:00,24.75746,84.366208,NH3,5,30,13
India,Bihar,Aurangabad,"Gurdeo Nagar, Aurangabad - BSPCB",15-06-2024 06:00:00,24.75746,84.366208,SO2,10,23,16
India,Bihar,Aurangabad,"Gurdeo Nagar, Aurangabad - BSPCB",15-06-2024 06:00:00,24.75746,84.366208,CO,4,23,15
India,Bihar,Bettiah,"Kamalnath Nagar, Bettiah - BSPCB",15-06-2024 06:00:00,26.80365,84.51954,PM2.5,NA,NA,NA
India,Bihar,Bhagalpur,"DM Office_Kachari Chowk, Bhagalpur - BSPCB",15-06-2024 06:00:00,25.251013,86.989001,NH3,3,6,5
India,Bihar,Bihar Sharif,"D M Colony, Bihar Sharif - BSPCB",15-06-2024 06:00:00,25.204762,85.514960,PM10,NA,NA,NA
India,Bihar,Bihar Sharif,"D M Colony, Bihar Sharif - BSPCB",15-06-2024 06:00:00,25.204762,85.514960,NO2,8,9,9
India,Bihar,Bihar Sharif,"D M Colony, Bihar Sharif - BSPCB",15-06-2024 06:00:00,25.204762,85.514960,OZONE,22,116,73
India,Bihar,Chhapra,"Darshan Nagar, Chhapra - BSPCB",15-06-2024 06:00:00,25.7808257,84.7446768,PM10,35,132,77
India,Bihar,Gaya,"Kareemganj, Gaya - BSPCB",15-06-2024 06:00:00,24.792403,84.992416,SO2,9,10,10
India,Bihar,Gaya,"SFTI Kusdihra, Gaya - BSPCB",15-06-2024 06:00:00,24.762518,84.982348,NH3,2,10,6
India,Bihar,Hajipur,"Industrial Area, Hajipur - BSPCB",15-06-2024 06:00:00,25.697189,85.245900,PM10,52,301,120
India,Bihar,Hajipur,"Industrial Area, Hajipur - BSPCB",15-06-2024 06:00:00,25.697189,85.245900,NO2,10,33,19
India,Bihar,Hajipur,"Industrial Area, Hajipur - BSPCB",15-06-2024 06:00:00,25.697189,85.245900,SO2,3,9,5
India,Bihar,Motihari,"Gandak Colony, Motihari - BSPCB",15-06-2024 06:00:00,26.63086,84.90051,CO,4,18,4
India,Bihar,Munger,"Town Hall, Munger - BSPCB",15-06-2024 06:00:00,25.376776,86.471523,NO2,4,6,5
India,Bihar,Muzaffarpur,"Buddha Colony, Muzaffarpur - BSPCB",15-06-2024 06:00:00,26.11442,85.39813,NO2,11,24,16
India,Bihar,Muzaffarpur,"Buddha Colony, Muzaffarpur - BSPCB",15-06-2024 06:00:00,26.11442,85.39813,CO,17,27,21
India,Bihar,Muzaffarpur,"Muzaffarpur Collectorate, Muzaffarpur - BSPCB",15-06-2024 06:00:00,26.1209,85.3647,OZONE,48,242,241
India,Bihar,Patna,"DRM Office Danapur, Patna - BSPCB",15-06-2024 06:00:00,25.586562,85.043586,NO2,15,24,20
India,Bihar,Patna,"Govt. High School Shikarpur, Patna - BSPCB",15-06-2024 06:00:00,25.592539,85.227158,PM10,53,324,119
India,Bihar,Patna,"Govt. High School Shikarpur, Patna - BSPCB",15-06-2024 06:00:00,25.592539,85.227158,NH3,4,5,5
India,Bihar,Patna,"Muradpur, Patna - BSPCB",15-06-2024 06:00:00,25.619651,85.147382,SO2,5,14,6
India,Bihar,Patna,"Muradpur, Patna - BSPCB",15-06-2024 06:00:00,25.619651,85.147382,CO,44,78,50
India,Bihar,Patna,"Rajbansi Nagar, Patna - BSPCB",15-06-2024 06:00:00,25.599486,85.113666,PM10,72,151,115
India,Bihar,Patna,"Rajbansi Nagar, Patna - BSPCB",15-06-2024 06:00:00,25.599486,85.113666,NH3,4,7,5
India,Bihar,Patna,"Rajbansi Nagar, Patna - BSPCB",15-06-2024 06:00:00,25.599486,85.113666,SO2,2,22,12
India,Bihar,Patna,"Samanpura, Patna - BSPCB",15-06-2024 06:00:00,25.596727,85.085624,NO2,7,34,14
India,Bihar,Patna,"Samanpura, Patna - BSPCB",15-06-2024 06:00:00,25.596727,85.085624,NH3,7,28,10
India,Bihar,Purnia,"Mariam Nagar, Purnia - BSPCB",15-06-2024 06:00:00,25.366336,87.117468,PM10,10,121,32
India,Bihar,Rajgir,"Dangi Tola, Rajgir - BSPCB",15-06-2024 06:00:00,25.03280,85.41948,NH3,1,2,2
India,Bihar,Rajgir,"Dangi Tola, Rajgir - BSPCB",15-06-2024 06:00:00,25.03280,85.41948,OZONE,26,38,34
India,Bihar,Saharsa,"Police Line, Saharsa - BSPCB",15-06-2024 06:00:00,25.892357,86.590325,NO2,6,9,7
India,Bihar,Saharsa,"Police Line, Saharsa - BSPCB",15-06-2024 06:00:00,25.892357,86.590325,NH3,9,9,9
India,Bihar,Samastipur,"DM Office_Kasipur, Samastipur - BSPCB",15-06-2024 06:00:00,25.859655,85.77944,CO,17,52,25
India,Bihar,Sasaram,"Dada Peer, Sasaram - BSPCB",15-06-2024 06:00:00,24.952822,84.002396,PM2.5,6,76,26
India,Bihar,Siwan,"Chitragupta Nagar, Siwan - BSPCB",15-06-2024 06:00:00,26.2271665,84.3570427,CO,64,137,94
India,Chandigarh,Chandigarh,"Sector 22, Chandigarh - CPCC",15-06-2024 06:00:00,30.735567,76.775714,OZONE,36,272,69
India,Chandigarh,Chandigarh,"Sector-25, Chandigarh - CPCC",15-06-2024 06:00:00,30.751462,76.762879,CO,12,30,27
India,Chandigarh,Chandigarh,"Sector-25, Chandigarh - CPCC",15-06-2024 06:00:00,30.751462,76.762879,OZONE,4,49,16
India,Chandigarh,Chandigarh,"Sector-53, Chandigarh - CPCC",15-06-2024 06:00:00,30.719859,76.738637,PM10,118,490,158
India,Chandigarh,Chandigarh,"Sector-53, Chandigarh - CPCC",15-06-2024 06:00:00,30.719859,76.738637,CO,35,70,56
India,Chhattisgarh,Bhilai,"Civic Center, Bhilai - Bhilai Steel Plant",15-06-2024 06:00:00,21.185571,81.343175,SO2,9,12,10
India,Chhattisgarh,Bhilai,"Hathkhoj, Bhilai - CECB",15-06-2024 06:00:00,21.224231,81.408350,NO2,4,15,7
India,Chhattisgarh,Bilaspur,"Mangala, Bilaspur - NTPC",15-06-2024 06:00:00,22.08815,82.13737,CO,36,44,39
India,Chhattisgarh,Korba,"Rampur, Korba - CECB",15-06-2024 06:00:00,22.368195,82.746431,PM2.5,28,80,47
India,Chhattisgarh,Kunjemura,"OP Jindal School, Kunjemura - CECB",15-06-2024 06:00:00,22.126650,83.483212,OZONE,4,20,4
India,Chhattisgarh,Milupara,"Govt. Higher Secondary School, Milupara - CECB",15-06-2024 06:00:00,22.1910172,83.5197009,OZONE,11,63,19
India,Chhattisgarh,Raipur,"Bhatagaon New ISBT, Raipur - CECB",15-06-2024 06:00:00,21.219665,81.630094,PM2.5,21,77,48
India,Chhattisgarh,Raipur,"Krishak Nagar, Raipur - CECB",15-06-2024 06:00:00,21.237755,81.705301,NO2,5,5,5
India,Chhattisgarh,Raipur,"Krishak Nagar, Raipur - CECB",15-06-2024 06:00:00,21.237755,81.705301,OZONE,9,47,17
India,Chhattisgarh,Tumidih,"OP Jindal Industrial Park, Tumidih - CECB",15-06-2024 06:00:00,22.06631475,83.33820077,NO2,NA,NA,NA
India,Chhattisgarh,Tumidih,"OP Jindal Industrial Park, Tumidih - CECB",15-06-2024 06:00:00,22.06631475,83.33820077,NH3,NA,NA,NA
India,Delhi,Delhi,"Anand Vihar, Delhi - DPCC",15-06-2024 06:00:00,28.647622,77.3158090,PM10,133,500,320
India,Delhi,Delhi,"Anand Vihar, Delhi - DPCC",15-06-2024 06:00:00,28.647622,77.3158090,OZONE,88,110,93
India,Delhi,Delhi,"Ashok Vihar, Delhi - DPCC",15-06-2024 06:00:00,28.695381,77.181665,NH3,8,18,12
India,Delhi,Delhi,"Ashok Vihar, Delhi - DPCC",15-06-2024 06:00:00,28.695381,77.181665,CO,28,42,34
India,Delhi,Delhi,"Aya Nagar, Delhi - IMD",15-06-2024 06:00:00,28.4706914,77.1099364,PM10,77,393,145
India,Delhi,Delhi,"Bawana, Delhi - DPCC",15-06-2024 06:00:00,28.776200,77.051074,PM2.5,49,105,65
India,Delhi,Delhi,"Bawana, Delhi - DPCC",15-06-2024 06:00:00,28.776200,77.051074,SO2,11,90,23
India,Delhi,Delhi,"Burari Crossing, Delhi - IMD",15-06-2024 06:00:00,28.7256504,77.2011573,PM10,110,461,229
India,Delhi,Delhi,"CRRI Mathura Road, Delhi - IMD",15-06-2024 06:00:00,28.5512005,77.2735737,PM2.5,44,123,72
India,Delhi,Delhi,"CRRI Mathura Road, Delhi - IMD",15-06-2024 06:00:00,28.5512005,77.2735737,CO,19,44,32
India,Delhi,Delhi,"DTU, Delhi - CPCB",15-06-2024 06:00:00,28.7500499,77.1112615,SO2,39,47,43
India,Delhi,Delhi,"Dwarka-Sector 8, Delhi - DPCC ",15-06-2024 06:00:00,28.5710274,77.0719006,NO2,12,39,21
India,Delhi,Delhi,"Dwarka-Sector 8, Delhi - DPCC ",15-06-2024 06:00:00,28.5710274,77.0719006,NH3,5,7,6
India,Delhi,Delhi,"IHBAS, Dilshad Garden, Delhi - CPCB",15-06-2024 06:00:00,28.6811736,77.3025234,PM10,118,193,154
India,Delhi,Delhi,"ITO, Delhi - CPCB",15-06-2024 06:00:00,28.628624,77.241060,PM2.5,34,133,75
India,Delhi,Delhi,"Jahangirpuri, Delhi - DPCC",15-06-2024 06:00:00,28.732820,77.170633,SO2,24,43,31
India,Delhi,Delhi,"Jawaharlal Nehru Stadium, Delhi - DPCC",15-06-2024 06:00:00,28.580280,77.233829,NO2,13,77,37
India,Delhi,Delhi,"Jawaharlal Nehru Stadium, Delhi - DPCC",15-06-2024 06:00:00,28.580280,77.233829,SO2,10,21,14
India,Delhi,Delhi,"Jawaharlal Nehru Stadium, Delhi - DPCC",15-06-2024 06:00:00,28.580280,77.233829,OZONE,23,120,54
India,Delhi,Delhi,"Lodhi Road, Delhi - IMD",15-06-2024 06:00:00,28.5918245,77.2273074,CO,21,27,26
India,Delhi,Delhi,"Mandir Marg, Delhi - DPCC",15-06-2024 06:00:00,28.636429,77.201067,NO2,43,80,68
India,Delhi,Delhi,"Mandir Marg, Delhi - DPCC",15-06-2024 06:00:00,28.636429,77.201067,CO,31,42,33
India,Delhi,Delhi,"Mundka, Delhi - DPCC",15-06-2024 06:00:00,28.684678,77.076574,NH3,4,13,8
India,Delhi,Delhi,"Narela, Delhi - DPCC",15-06-2024 06:00:00,28.822836,77.101981,PM10,96,449,208
India,Delhi,Delhi,"Narela, Delhi - DPCC",15-06-2024 06:00:00,28.822836,77.101981,SO2,7,47,17
India,Delhi,Delhi,"Narela, Delhi - DPCC",15-06-2024 06:00:00,28.822836,77.101981,CO,17,44,41
India,Delhi,Delhi,"Nehru Nagar, Delhi - DPCC",15-06-2024 06:00:00,28.567890,77.250515,SO2,4,9,6
India,Delhi,Delhi,"Okhla Phase-2, Delhi - DPCC",15-06-2024 06:00:00,28.530785,77.271255,NH3,8,13,10
India,Delhi,Delhi,"Okhla Phase-2, Delhi - DPCC",15-06-2024 06:00:00,28.530785,77.271255,SO2,7,10,8
India,Delhi,Delhi,"Okhla Phase-2, Delhi - DPCC",15-06-2024 06:00:00,28.530785,77.271255,OZONE,26,66,35
India,Delhi,Delhi,"Pusa, Delhi - DPCC",15-06-2024 06:00:00,28.639652,77.146275,PM2.5,27,75,45
India,Delhi,Delhi,"Pusa, Delhi - DPCC",15-06-2024 06:00:00,28.639652,77.146275,PM10,90,448,230
India,Delhi,Delhi,"Pusa, Delhi - DPCC",15-06-2024 06:00:00,28.639652,77.146275,OZONE,28,60,36
India,Delhi,Delhi,"Pusa, Delhi - IMD",15-06-2024 06:00:00,28.636110,77.173332,CO,20,74,34
India,Delhi,Delhi,"R K Puram, Delhi - DPCC",15-06-2024 06:00:00,28.563262,77.186937,NH3,4,10,6
India,Delhi,Delhi,"R K Puram, Delhi - DPCC",15-06-2024 06:00:00,28.563262,77.186937,CO,8,30,18
India,Delhi,Delhi,"Rohini, Delhi - DPCC",15-06-2024 06:00:00,28.732528,77.119920,PM2.5,37,87,54
India,Delhi,Delhi,"Shadipur, Delhi - CPCB",15-06-2024 06:00:00,28.6514781,77.1473105,OZONE,13,145,21
India,Delhi,Delhi,"Sri Aurobindo Marg, Delhi - DPCC",15-06-2024 06:00:00,28.531346,77.190156,NH3,4,7,5
India,Delhi,Delhi,"Vivek Vihar, Delhi - DPCC",15-06-2024 06:00:00,28.672342,77.315260,PM2.5,38,76,56
India,Delhi,Delhi,"Wazirpur, Delhi - DPCC",15-06-2024 06:00:00,28.699793,77.165453,OZONE,NA,NA,NA
India,Gujarat,Ahmedabad,"Chandkheda, Ahmedabad - IITM",15-06-2024 06:00:00,23.107969,72.574648,SO2,1,7,4
India,Gujarat,Ahmedabad,"Chandkheda, Ahmedabad - IITM",15-06-2024 06:00:00,23.107969,72.574648,OZONE,20,51,20
India,Gujarat,Ahmedabad,"Rakhial, Ahmedabad - IITM",15-06-2024 06:00:00,23.016834,72.625775,NO2,NA,NA,NA
India,Gujarat,Ahmedabad,"SVPI Airport Hansol, Ahmedabad - IITM",15-06-2024 06:00:00,23.076793,72.627874,NO2,2,39,12
India,Gujarat,Ahmedabad,"Sardar Vallabhbhai Patel Stadium, Ahmedabad - IITM",15-06-2024 06:00:00,23.043070,72.562968,PM10,31,162,72
India,Gujarat,Ahmedabad,"Sardar Vallabhbhai Patel Stadium, Ahmedabad - IITM",15-06-2024 06:00:00,23.043070,72.562968,CO,16,26,20
India,Gujarat,Ankleshwar,"GIDC, Ankleshwar - GPCB",15-06-2024 06:00:00,21.613267,73.010555,CO,12,74,63
India,Gujarat,Gandhinagar,"GIFT City, Gandhinagar - IITM",15-06-2024 06:00:00,23.163798,72.677768,PM2.5,19,78,41
India,Gujarat,Gandhinagar,"GIFT City, Gandhinagar - IITM",15-06-2024 06:00:00,23.163798,72.677768,PM10,28,119,60
India,Gujarat,Gandhinagar,"GIFT City, Gandhinagar - IITM",15-06-2024 06:00:00,23.163798,72.677768,SO2,NA,NA,NA
India,Gujarat,Gandhinagar,"GIFT City, Gandhinagar - IITM",15-06-2024 06:00:00,23.163798,72.677768,CO,16,24,18
India,Gujarat,Gandhinagar,"GIFT City, Gandhinagar - IITM",15-06-2024 06:00:00,23.163798,72.677768,OZONE,11,69,24
India,Gujarat,Nandesari,"GIDC, Nandesari - Nandesari Ind. Association",15-06-2024 06:00:00,22.410802,73.097923,PM10,67,184,120
India,Gujarat,Surat,"Science Center, Surat - SMC",15-06-2024 06:00:00,21.170046,72.795405,PM2.5,NA,NA,NA
India,Gujarat,Surat,"Science Center, Surat - SMC",15-06-2024 06:00:00,21.170046,72.795405,SO2,9,12,11
India,Gujarat,Vapi,"Phase-1 GIDC, Vapi - GPCB",15-06-2024 06:00:00,20.362421,72.918013,NO2,6,7,6
India,Gujarat,Vapi,"Phase-1 GIDC, Vapi - GPCB",15-06-2024 06:00:00,20.362421,72.918013,NH3,2,2,2
India,Gujarat,Vatva,"Phase-4 GIDC, Vatva - GPCB",15-06-2024 06:00:00,22.969611,72.643500,PM10,49,76,59
India,Gujarat,Vatva,"Phase-4 GIDC, Vatva - GPCB",15-06-2024 06:00:00,22.969611,72.643500,OZONE,29,30,30
India,Haryana,Ambala,"Patti Mehar, Ambala - HSPCB",15-06-2024 06:00:00,30.379589,76.778328,NO2,7,21,14
India,Haryana,Ambala,"Patti Mehar, Ambala - HSPCB",15-06-2024 06:00:00,30.379589,76.778328,SO2,8,38,13
India,Haryana,Ambala,"Patti Mehar, Ambala - HSPCB",15-06-2024 06:00:00,30.379589,76.778328,CO,30,60,37
India,Haryana,Bahadurgarh,"Arya Nagar, Bahadurgarh - HSPCB",15-06-2024 06:00:00,28.6701,76.9254,PM2.5,61,268,121
India,Haryana,Bahadurgarh,"Arya Nagar, Bahadurgarh - HSPCB",15-06-2024 06:00:00,28.6701,76.9254,NO2,20,27,23
India,Haryana,Bahadurgarh,"Arya Nagar, Bahadurgarh - HSPCB",15-06-2024 06:00:00,28.6701,76.9254,NH3,8,10,9
India,Haryana,Ballabgarh,"Nathu Colony, Ballabgarh - HSPCB",15-06-2024 06:00:00,28.3419248,77.319699,SO2,4,119,34
India,Haryana,Bhiwani,"H.B. Colony, Bhiwani - HSPCB",15-06-2024 06:00:00,28.806223,76.141105,NH3,4,6,6
India,Haryana,Bhiwani,"H.B. Colony, Bhiwani - HSPCB",15-06-2024 06:00:00,28.806223,76.141105,CO,25,64,53
India,Haryana,Charkhi Dadri,"Mini Secretariat, Charkhi Dadri - HSPCB",15-06-2024 06:00:00,28.593883,76.270653,PM10,23,331,116
India,Haryana,Faridabad,"New Industrial Town, Faridabad - HSPCB",15-06-2024 06:00:00,28.39072,77.30059,PM10,110,500,292
India,Haryana,Faridabad,"New Industrial Town, Faridabad - HSPCB",15-06-2024 06:00:00,28.39072,77.30059,NO2,3,12,9
India,Haryana,Faridabad,"New Industrial Town, Faridabad - HSPCB",15-06-2024 06:00:00,28.39072,77.30059,SO2,5,6,6
India,Haryana,Faridabad,"Sector 11, Faridabad - HSPCB",15-06-2024 06:00:00,28.376058,77.315741,PM2.5,61,324,186
India,Haryana,Faridabad,"Sector 11, Faridabad - HSPCB",15-06-2024 06:00:00,28.376058,77.315741,NH3,6,6,6
India,Haryana,Faridabad,"Sector 11, Faridabad - HSPCB",15-06-2024 06:00:00,28.376058,77.315741,SO2,1,120,18
India,Haryana,Faridabad,"Sector 30, Faridabad - HSPCB",15-06-2024 06:00:00,28.4417,77.3217,CO,18,18,18
India,Haryana,Faridabad,"Sector- 16A, Faridabad - HSPCB",15-06-2024 06:00:00,28.4088421,77.3099081,PM2.5,8,83,35
India,Haryana,Fatehabad,"Huda Sector, Fatehabad - HSPCB",15-06-2024 06:00:00,29.503664,75.467934,PM10,59,307,138
India,Haryana,Gurugram,"NISE Gwal Pahari, Gurugram - IMD",15-06-2024 06:00:00,28.422681,77.148944,NO2,6,57,12
India,Haryana,Gurugram,"Sector-51, Gurugram - HSPCB",15-06-2024 06:00:00,28.4227,77.0667,SO2,2,4,3
India,Haryana,Gurugram,"Sector-51, Gurugram - HSPCB",15-06-2024 06:00:00,28.4227,77.0667,OZONE,26,72,31
India,Haryana,Gurugram,"Teri Gram, Gurugram - HSPCB",15-06-2024 06:00:00,28.4275,77.1465,PM10,146,403,224
India,Haryana,Gurugram,"Teri Gram, Gurugram - HSPCB",15-06-2024 06:00:00,28.4275,77.1465,NH3,1,70,27
India,Haryana,Gurugram,"Teri Gram, Gurugram - HSPCB",15-06-2024 06:00:00,28.4275,77.1465,SO2,3,6,4
India,Haryana,Hisar,"Urban Estate-II, Hisar - HSPCB",15-06-2024 06:00:00,29.140560,75.744941,CO,26,35,29
India,Haryana,Hisar,"Urban Estate-II, Hisar - HSPCB",15-06-2024 06:00:00,29.140560,75.744941,OZONE,28,77,48
India,Haryana,Jind,"Police Lines, Jind - HSPCB",15-06-2024 06:00:00,29.307814,76.337619,PM2.5,44,214,93
India,Haryana,Jind,"Police Lines, Jind - HSPCB",15-06-2024 06:00:00,29.307814,76.337619,NH3,1,5,1
India,Haryana,Jind,"Police Lines, Jind - HSPCB",15-06-2024 06:00:00,29.307814,76.337619,OZONE,17,33,21
India,Haryana,Kaithal,"Rishi Nagar, Kaithal - HSPCB",15-06-2024 06:00:00,29.8006,76.4155,SO2,9,135,29
India,Haryana,Karnal,"Sector-12, Karnal - HSPCB",15-06-2024 06:00:00,29.695300,77.002700,PM10,2,152,112
India,Haryana,Karnal,"Sector-12, Karnal - HSPCB",15-06-2024 06:00:00,29.695300,77.002700,NH3,10,13,11
India,Haryana,Kurukshetra,"Sector-7, Kurukshetra - HSPCB",15-06-2024 06:00:00,29.966942,76.875879,PM10,111,169,140
India,Haryana,Kurukshetra,"Sector-7, Kurukshetra - HSPCB",15-06-2024 06:00:00,29.966942,76.875879,NH3,5,5,5
India,Haryana,Kurukshetra,"Sector-7, Kurukshetra - HSPCB",15-06-2024 06:00:00,29.966942,76.875879,OZONE,54,105,72
India,Haryana,Mandikhera,"General Hospital, Mandikhera - HSPCB",15-06-2024 06:00:00,27.9002,76.9938,PM10,NA,NA,NA
India,Haryana,Mandikhera,"General Hospital, Mandikhera - HSPCB",15-06-2024 06:00:00,27.9002,76.9938,NH3,NA,NA,NA
India,Haryana,Manesar,"Sector-2 IMT, Manesar - HSPCB",15-06-2024 06:00:00,28.360699,76.936090,CO,5,10,7
India,Haryana,Narnaul,"Shastri Nagar, Narnaul - HSPCB",15-06-2024 06:00:00,28.060249,76.113115,SO2,12,49,40
India,Haryana,Narnaul,"Shastri Nagar, Narnaul - HSPCB",15-06-2024 06:00:00,28.060249,76.113115,CO,8,48,22
India,Haryana,Panchkula,"Sector-6, Panchkula - HSPCB ",15-06-2024 06:00:00,30.7057778,76.8531805555555,CO,4,15,14
India,Haryana,Panipat,"Sector-18, Panipat - HSPCB",15-06-2024 06:00:00,29.432304,76.972765,PM10,103,105,104
India,Haryana,Panipat,"Sector-18, Panipat - HSPCB",15-06-2024 06:00:00,29.432304,76.972765,NH3,2,3,3
India,Haryana,Panipat,"Sector-18, Panipat - HSPCB",15-06-2024 06:00:00,29.432304,76.972765,OZONE,30,30,30
India,Haryana,Sirsa,"F-Block, Sirsa - HSPCB",15-06-2024 06:00:00,29.536400,75.015800,NH3,12,14,13
India,Haryana,Sonipat,"Murthal, Sonipat - HSPCB",15-06-2024 06:00:00,29.027200,77.062100,CO,24,26,25
India,Himachal Pradesh,Baddi,"HIMUDA Complex Phase-1, Baddi - HPPCB",15-06-2024 06:00:00,30.943887,76.801991,NH3,4,7,6
India,Himachal Pradesh,Baddi,"HIMUDA Complex Phase-1, Baddi - HPPCB",15-06-2024 06:00:00,30.943887,76.801991,CO,16,44,37
India,Jharkhand,Dhanbad,"Sardar Patel Nagar, Dhanbad - JSPCB",15-06-2024 06:00:00,23.80569,86.44268,PM10,NA,NA,NA
India,Karnataka,Belgaum,"Ramteerth Nagar, Belgaum - KSPCB",15-06-2024 06:00:00,15.888653,74.541751,PM10,13,88,27
India,Karnataka,Belgaum,"Ramteerth Nagar, Belgaum - KSPCB",15-06-2024 06:00:00,15.888653,74.541751,SO2,9,9,9
India,Karnataka,Belgaum,"Ramteerth Nagar, Belgaum - KSPCB",15-06-2024 06:00:00,15.888653,74.541751,OZONE,19,20,20
India,Karnataka,Bengaluru,"Bapuji Nagar, Bengaluru - KSPCB",15-06-2024 06:00:00,12.951913,77.539784,OZONE,22,28,25
India,Karnataka,Bengaluru,"Hebbal, Bengaluru - KSPCB",15-06-2024 06:00:00,13.029152,77.585901,PM2.5,10,35,19
India,Karnataka,Bengaluru,"Hebbal, Bengaluru - KSPCB",15-06-2024 06:00:00,13.029152,77.585901,NH3,1,1,1
India,Karnataka,Bengaluru,"Hebbal, Bengaluru - KSPCB",15-06-2024 06:00:00,13.029152,77.585901,CO,6,34,15
India,Karnataka,Bengaluru,"Jayanagar 5th Block, Bengaluru - KSPCB",15-06-2024 06:00:00,12.920984,77.584908,NO2,9,20,12
India,Karnataka,Bengaluru,"Jayanagar 5th Block, Bengaluru - KSPCB",15-06-2024 06:00:00,12.920984,77.584908,CO,16,18,16
India,Karnataka,Bengaluru,"Jigani, Bengaluru - KSPCB",15-06-2024 06:00:00,12.7816279,77.6299145,PM2.5,37,39,38
India,Karnataka,Bengaluru,"Jigani, Bengaluru - KSPCB",15-06-2024 06:00:00,12.7816279,77.6299145,NO2,42,43,42
India,Karnataka,Bengaluru,"Kasturi Nagar, Bengaluru - KSPCB",15-06-2024 06:00:00,13.003872,77.664217,NO2,16,17,17
India,Karnataka,Bengaluru,"Kasturi Nagar, Bengaluru - KSPCB",15-06-2024 06:00:00,13.003872,77.664217,NH3,3,4,4
India,Karnataka,Bengaluru,"Kasturi Nagar, Bengaluru - KSPCB",15-06-2024 06:00:00,13.003872,77.664217,CO,24,26,25
India,Karnataka,Bengaluru,"Peenya, Bengaluru - CPCB",15-06-2024 06:00:00,13.0270199,77.494094,PM2.5,35,43,38
India,Karnataka,Bengaluru,"Peenya, Bengaluru - CPCB",15-06-2024 06:00:00,13.0270199,77.494094,PM10,45,55,49
India,Karnataka,Bengaluru,"Peenya, Bengaluru - CPCB",15-06-2024 06:00:00,13.0270199,77.494094,SO2,12,15,14
India,Karnataka,Bengaluru,"Peenya, Bengaluru - CPCB",15-06-2024 06:00:00,13.0270199,77.494094,CO,78,84,80
India,Karnataka,Bengaluru,"Sanegurava Halli, Bengaluru - KSPCB",15-06-2024 06:00:00,12.990328,77.5431385,NO2,21,33,24
India,Karnataka,Bengaluru,"Shivapura_Peenya, Bengaluru - KSPCB",15-06-2024 06:00:00,13.0246342,77.5080115,SO2,3,10,5
India,Karnataka,Bengaluru,"Shivapura_Peenya, Bengaluru - KSPCB",15-06-2024 06:00:00,13.0246342,77.5080115,CO,18,33,24
India,Karnataka,Bengaluru,"Silk Board, Bengaluru - KSPCB",15-06-2024 06:00:00,12.917348,77.622813,SO2,NA,NA,NA
India,Karnataka,Bengaluru,"Silk Board, Bengaluru - KSPCB",15-06-2024 06:00:00,12.917348,77.622813,CO,16,32,28
India,Karnataka,Bidar,"Naubad, Bidar - KSPCB",15-06-2024 06:00:00,17.930306,77.482194,CO,76,90,81
India,Karnataka,Bidar,"Naubad, Bidar - KSPCB",15-06-2024 06:00:00,17.930306,77.482194,OZONE,26,26,26
India,Karnataka,Chamarajanagar,"Urban, Chamarajanagar - KSPCB",15-06-2024 06:00:00,11.55358,76.55521,PM2.5,20,46,31
India,Karnataka,Chamarajanagar,"Urban, Chamarajanagar - KSPCB",15-06-2024 06:00:00,11.55358,76.55521,NO2,22,35,29
India,Karnataka,Chikkamagaluru,"Kalyana Nagara, Chikkamagaluru - KSPCB",15-06-2024 06:00:00,13.328028,75.797056,PM10,22,62,38
India,Karnataka,Chikkamagaluru,"Kalyana Nagara, Chikkamagaluru - KSPCB",15-06-2024 06:00:00,13.328028,75.797056,NH3,2,4,3
India,Karnataka,Davanagere,"Devaraj Urs Badavane, Davanagere - KSPCB",15-06-2024 06:00:00,14.475800,75.905200,SO2,4,9,6
India,Karnataka,Davanagere,"Devaraj Urs Badavane, Davanagere - KSPCB",15-06-2024 06:00:00,14.475800,75.905200,CO,10,26,24
India,Karnataka,Davanagere,"Devaraj Urs Badavane, Davanagere - KSPCB",15-06-2024 06:00:00,14.475800,75.905200,OZONE,17,22,21
India,Karnataka,Dharwad,"Kalabhavan, Dharwad - KSPCB",15-06-2024 06:00:00,15.459706,75.008381,NH3,2,3,3
India,Karnataka,Gadag,"Panchal Nagar, Gadag - KSPCB",15-06-2024 06:00:00,15.411456,75.638133,NO2,7,34,15
India,Karnataka,Gadag,"Panchal Nagar, Gadag - KSPCB",15-06-2024 06:00:00,15.411456,75.638133,NH3,1,4,2
India,Karnataka,Gadag,"Panchal Nagar, Gadag - KSPCB",15-06-2024 06:00:00,15.411456,75.638133,CO,40,43,41
India,Karnataka,Hassan,"B.Katihalli, Hassan - KSPCB",15-06-2024 06:00:00,13.008556,76.125258,PM10,46,135,103
India,Karnataka,Hassan,"B.Katihalli, Hassan - KSPCB",15-06-2024 06:00:00,13.008556,76.125258,SO2,1,2,1
India,Karnataka,Hubballi,"Lingaraj Nagar, Hubballi - KSPCB",15-06-2024 06:00:00,15.3714823,75.1160168,PM2.5,29,62,45
India,Karnataka,Kalaburagi,"Lal Bahadur Shastri Nagar, Kalaburagi - KSPCB",15-06-2024 06:00:00,17.321993,76.822628,CO,34,38,35
India,Karnataka,Kalaburagi,"Mahatma Basaveswar Colony, Kalaburgi - KSPCB",15-06-2024 06:00:00,17.336318,76.847397,PM2.5,7,34,12
India,Karnataka,Kalaburagi,"Mahatma Basaveswar Colony, Kalaburgi - KSPCB",15-06-2024 06:00:00,17.336318,76.847397,PM10,14,62,23
India,Karnataka,Kalaburagi,"Mahatma Basaveswar Colony, Kalaburgi - KSPCB",15-06-2024 06:00:00,17.336318,76.847397,NO2,8,13,10
India,Karnataka,Kalaburagi,"Mahatma Basaveswar Colony, Kalaburgi - KSPCB",15-06-2024 06:00:00,17.336318,76.847397,SO2,2,13,4
India,Karnataka,Kalaburagi,"Mahatma Basaveswar Colony, Kalaburgi - KSPCB",15-06-2024 06:00:00,17.336318,76.847397,OZONE,1,8,5
India,Karnataka,Karwar,"KHB Colony, Karwar - KSPCB",15-06-2024 06:00:00,14.816666,74.141003,PM10,NA,NA,NA
India,Karnataka,Karwar,"KHB Colony, Karwar - KSPCB",15-06-2024 06:00:00,14.816666,74.141003,NH3,NA,NA,NA
India,Karnataka,Kolar,"Tamaka Ind. Area, Kolar - KSPCB",15-06-2024 06:00:00,13.1276288,78.1570122,PM10,21,75,45
India,Karnataka,Kolar,"Tamaka Ind. Area, Kolar - KSPCB",15-06-2024 06:00:00,13.1276288,78.1570122,NH3,5,10,7
India,Karnataka,Koppal,"Diwator Nagar, Koppal - KSPCB",15-06-2024 06:00:00,15.347630,76.181767,NO2,NA,NA,NA
India,Karnataka,Koppal,"Diwator Nagar, Koppal - KSPCB",15-06-2024 06:00:00,15.347630,76.181767,SO2,NA,NA,NA
India,Karnataka,Madikeri,"Stuart Hill, Madikeri - KSPCB",15-06-2024 06:00:00,12.415911,75.735050,NH3,NA,NA,NA
India,Karnataka,Madikeri,"Stuart Hill, Madikeri - KSPCB",15-06-2024 06:00:00,12.415911,75.735050,OZONE,9,18,15
India,Karnataka,Mangalore,"Kadri, Mangalore - KSPCB",15-06-2024 06:00:00,12.889250,74.853000,PM2.5,23,53,34
India,Karnataka,Mangalore,"Kadri, Mangalore - KSPCB",15-06-2024 06:00:00,12.889250,74.853000,NH3,1,2,2
India,Karnataka,Mangalore,"Kadri, Mangalore - KSPCB",15-06-2024 06:00:00,12.889250,74.853000,CO,37,42,39
India,Karnataka,Mysuru,"Hebbal 1st Stage, Mysuru - KSPCB",15-06-2024 06:00:00,12.21041,76.37376,NO2,8,31,19
India,Karnataka,Mysuru,"Hebbal 1st Stage, Mysuru - KSPCB",15-06-2024 06:00:00,12.21041,76.37376,NH3,1,3,2
India,Karnataka,Shivamogga,"Vinoba Nagara, Shivamogga - KSPCB",15-06-2024 06:00:00,13.940000,75.555917,NH3,2,24,7
India,Karnataka,Udupi,"Brahmagiri, Udupi - KSPCB",15-06-2024 06:00:00,13.34194444,74.74694444,PM2.5,3,32,16
India,Karnataka,Udupi,"Brahmagiri, Udupi - KSPCB",15-06-2024 06:00:00,13.34194444,74.74694444,SO2,17,20,18
India,Karnataka,Vijayapura,"Ibrahimpur, Vijayapura - KSPCB",15-06-2024 06:00:00,16.802639,75.722694,PM2.5,26,31,30
India,Kerala,Eloor,"Udyogamandal, Eloor - Kerala PCB",15-06-2024 06:00:00,10.073232,76.302765,NH3,1,1,1
India,Kerala,Kollam,"Polayathode, Kollam - Kerala PCB",15-06-2024 06:00:00,8.8787,76.6073,PM2.5,NA,NA,NA
India,Kerala,Thiruvananthapuram,"Kariavattom, Thiruvananthapuram - Kerala PCB",15-06-2024 06:00:00,8.563700,76.886500,OZONE,36,37,36
India,Kerala,Thrissur,"Corporation Ground, Thrissur - Kerala PCB",15-06-2024 06:00:00,10.532400,76.215900,SO2,NA,NA,NA
India,Madhya Pradesh,Bhopal,"T T Nagar, Bhopal - MPPCB",15-06-2024 06:00:00,23.233584,77.400574,PM2.5,15,45,32
India,Madhya Pradesh,Dewas,"Bhopal Chauraha, Dewas - MPPCB",15-06-2024 06:00:00,22.9682591,76.064118,NO2,12,15,13
India,Madhya Pradesh,Gwalior,"City Center, Gwalior - MPPCB",15-06-2024 06:00:00,26.203442,78.193251,PM2.5,26,56,37
India,Madhya Pradesh,Gwalior,"Deen Dayal Nagar, Gwalior - MPPCB",15-06-2024 06:00:00,26.259242,78.216432,PM10,57,180,107
India,Madhya Pradesh,Gwalior,"Deen Dayal Nagar, Gwalior - MPPCB",15-06-2024 06:00:00,26.259242,78.216432,SO2,14,24,19
India,Madhya Pradesh,Gwalior,"Phool Bagh, Gwalior - Mondelez Ind. Food",15-06-2024 06:00:00,26.210536,78.171,SO2,26,30,28
India,Madhya Pradesh,Indore,"Maguda Nagar, Indore - IMC",15-06-2024 06:00:00,22.7524,75.8872,NH3,1,1,1
India,Madhya Pradesh,Indore,"Maguda Nagar, Indore - IMC",15-06-2024 06:00:00,22.7524,75.8872,SO2,27,37,32
India,Madhya Pradesh,Indore,"Maguda Nagar, Indore - IMC",15-06-2024 06:00:00,22.7524,75.8872,CO,18,26,25
India,Madhya Pradesh,Indore,"Regional Park, Indore - IMC",15-06-2024 06:00:00,22.6780,75.8559,NH3,1,1,1
India,Madhya Pradesh,Indore,"Regional Park, Indore - IMC",15-06-2024 06:00:00,22.6780,75.8559,SO2,48,52,51
India,Madhya Pradesh,Indore,"Regional Park, Indore - IMC",15-06-2024 06:00:00,22.6780,75.8559,OZONE,5,17,7
India,Madhya Pradesh,Indore,"Residency Area, Indore - IMC",15-06-2024 06:00:00,22.7084,75.8815,OZONE,7,15,10
India,Madhya Pradesh,Jabalpur,"Govindh Bhavan Colony, Jabalpur - JMC",15-06-2024 06:00:00,23.163174,79.973061,PM10,49,148,75
India,Madhya Pradesh,Jabalpur,"Govindh Bhavan Colony, Jabalpur - JMC",15-06-2024 06:00:00,23.163174,79.973061,CO,12,18,15
India,Madhya Pradesh,Jabalpur,"Gupteshwar, Jabalpur - JMC",15-06-2024 06:00:00,23.142888,79.916147,OZONE,32,72,54
India,Madhya Pradesh,Jabalpur,"Marhatal, Jabalpur - MPPCB",15-06-2024 06:00:00,23.168606,79.932247,PM10,42,112,84
India,Madhya Pradesh,Jabalpur,"Marhatal, Jabalpur - MPPCB",15-06-2024 06:00:00,23.168606,79.932247,NH3,4,7,5
India,Madhya Pradesh,Jabalpur,"Marhatal, Jabalpur - MPPCB",15-06-2024 06:00:00,23.168606,79.932247,SO2,7,17,13
India,Madhya Pradesh,Jabalpur,"Marhatal, Jabalpur - MPPCB",15-06-2024 06:00:00,23.168606,79.932247,CO,28,70,41
India,Madhya Pradesh,Jabalpur,"Suhagi, Jabalpur - JMC",15-06-2024 06:00:00,23.218135,79.957770,PM2.5,32,95,49
India,Madhya Pradesh,Jabalpur,"Suhagi, Jabalpur - JMC",15-06-2024 06:00:00,23.218135,79.957770,PM10,25,74,38
India,Madhya Pradesh,Jabalpur,"Suhagi, Jabalpur - JMC",15-06-2024 06:00:00,23.218135,79.957770,SO2,18,20,19
India,Madhya Pradesh,Jabalpur,"Suhagi, Jabalpur - JMC",15-06-2024 06:00:00,23.218135,79.957770,CO,36,60,45
India,Madhya Pradesh,Mandideep,"Sector-D Industrial Area, Mandideep - MPPCB",15-06-2024 06:00:00,23.108440,77.511428,PM2.5,28,358,100
India,Madhya Pradesh,Mandideep,"Sector-D Industrial Area, Mandideep - MPPCB",15-06-2024 06:00:00,23.108440,77.511428,PM10,28,216,89
India,Madhya Pradesh,Mandideep,"Sector-D Industrial Area, Mandideep - MPPCB",15-06-2024 06:00:00,23.108440,77.511428,OZONE,8,31,13
India,Madhya Pradesh,Sagar,"Civil Lines, Sagar - MPPCB",15-06-2024 06:00:00,23.838586,78.759431,OZONE,64,138,77
India,Madhya Pradesh,Ujjain,"Mahakaleshwar Temple, Ujjain - MPPCB",15-06-2024 06:00:00,23.182719 ,75.768218 ,NH3,5,6,5
India,Madhya Pradesh,Ujjain,"Mahakaleshwar Temple, Ujjain - MPPCB",15-06-2024 06:00:00,23.182719 ,75.768218 ,OZONE,60,68,65
India,Maharashtra,Ahmednagar,"Tarakpur, Ahmednagar - MPCB",15-06-2024 06:00:00,19.10122,74.73339,PM10,22,80,58
India,Maharashtra,Ahmednagar,"Tarakpur, Ahmednagar - MPCB",15-06-2024 06:00:00,19.10122,74.73339,SO2,7,65,20
India,Maharashtra,Ahmednagar,"Tarakpur, Ahmednagar - MPCB",15-06-2024 06:00:00,19.10122,74.73339,OZONE,3,44,8
India,Maharashtra,Akola,"Ramdaspeth, Akola - MPCB",15-06-2024 06:00:00,20.719516,77.000253,NO2,7,150,24
India,Maharashtra,Akola,"Ramdaspeth, Akola - MPCB",15-06-2024 06:00:00,20.719516,77.000253,CO,13,42,17
India,Maharashtra,Amravati,"Shivneri Colony, Amravati - MPCB",15-06-2024 06:00:00,20.9402359,77.7895248,SO2,1,6,1
India,Maharashtra,Aurangabad,"MIDC Chilkalthana, Aurangabad - MPCB",15-06-2024 06:00:00,19.875620,75.387310,PM10,25,62,44
India,Maharashtra,Aurangabad,"MIDC Chilkalthana, Aurangabad - MPCB",15-06-2024 06:00:00,19.875620,75.387310,NO2,3,32,12
India,Maharashtra,Aurangabad,"MIDC Chilkalthana, Aurangabad - MPCB",15-06-2024 06:00:00,19.875620,75.387310,NH3,5,6,5
India,Maharashtra,Aurangabad,"MIDC Chilkalthana, Aurangabad - MPCB",15-06-2024 06:00:00,19.875620,75.387310,OZONE,16,127,59
India,Maharashtra,Aurangabad,"More Chowk Waluj, Aurangabad - MPCB",15-06-2024 06:00:00,19.8389439,75.244448,NH3,NA,NA,NA
India,Maharashtra,Aurangabad,"More Chowk Waluj, Aurangabad - MPCB",15-06-2024 06:00:00,19.8389439,75.244448,SO2,NA,NA,NA
India,Maharashtra,Aurangabad,"More Chowk Waluj, Aurangabad - MPCB",15-06-2024 06:00:00,19.8389439,75.244448,CO,NA,NA,NA
India,Maharashtra,Aurangabad,"Rachnakar Colony, Aurangabad - MPCB",15-06-2024 06:00:00,19.863756,75.321188,PM10,NA,NA,NA
India,Maharashtra,Aurangabad,"Rachnakar Colony, Aurangabad - MPCB",15-06-2024 06:00:00,19.863756,75.321188,NH3,NA,NA,NA
India,Maharashtra,Aurangabad,"Rachnakar Colony, Aurangabad - MPCB",15-06-2024 06:00:00,19.863756,75.321188,CO,NA,NA,NA
India,Maharashtra,Belapur,"CBD Belapur, Belapur - MPCB",15-06-2024 06:00:00,19.0243902,73.0406721,OZONE,15,48,28
India,Maharashtra,Bhiwandi,"Gokul Nagar, Bhiwandi - MPCB",15-06-2024 06:00:00,19.309073,73.057223,PM10,43,71,57
India,Maharashtra,Bhiwandi,"Gokul Nagar, Bhiwandi - MPCB",15-06-2024 06:00:00,19.309073,73.057223,NO2,17,53,31
India,Maharashtra,Bhiwandi,"Gokul Nagar, Bhiwandi - MPCB",15-06-2024 06:00:00,19.309073,73.057223,NH3,2,4,3
India,Maharashtra,Bhiwandi,"Gokul Nagar, Bhiwandi - MPCB",15-06-2024 06:00:00,19.309073,73.057223,OZONE,14,83,18
India,Maharashtra,Boisar,"Khaira, Boisar - MPCB",15-06-2024 06:00:00,19.786089,72.757971,PM2.5,12,141,64
India,Maharashtra,Boisar,"Khaira, Boisar - MPCB",15-06-2024 06:00:00,19.786089,72.757971,NO2,4,24,13
India,Maharashtra,Chandrapur,"Chauhan Colony, Chandrapur - MPCB",15-06-2024 06:00:00,19.962900,79.298714,PM10,25,66,48
India,Maharashtra,Chandrapur,"Chauhan Colony, Chandrapur - MPCB",15-06-2024 06:00:00,19.962900,79.298714,NO2,11,20,14
India,Maharashtra,Chandrapur,"Chauhan Colony, Chandrapur - MPCB",15-06-2024 06:00:00,19.962900,79.298714,OZONE,16,17,17
India,Maharashtra,Chandrapur,"MIDC Khutala, Chandrapur - MPCB",15-06-2024 06:00:00,19.9775302,79.2337086,PM2.5,33,65,41
India,Maharashtra,Chandrapur,"MIDC Khutala, Chandrapur - MPCB",15-06-2024 06:00:00,19.9775302,79.2337086,SO2,2,80,27
India,Maharashtra,Dhule,"Deopur, Dhule - MPCB",15-06-2024 06:00:00,20.918946,74.776388,SO2,9,15,12
India,Maharashtra,Jalna,"Old MIDC, Jalna - MPCB",15-06-2024 06:00:00,19.854616,75.905894,PM10,16,48,30
India,Maharashtra,Jalna,"Old MIDC, Jalna - MPCB",15-06-2024 06:00:00,19.854616,75.905894,OZONE,15,60,16
India,Maharashtra,Kalyan,"Khadakpada, Kalyan - MPCB",15-06-2024 06:00:00,19.25292,73.142019,OZONE,8,11,9
India,Maharashtra,Kolhapur,"Shivaji University, Kolhapur - MPCB",15-06-2024 06:00:00,16.6870449,74.2505872,PM10,26,72,52
India,Maharashtra,Kolhapur,"Shivaji University, Kolhapur - MPCB",15-06-2024 06:00:00,16.6870449,74.2505872,SO2,1,2,2
India,Maharashtra,Kolhapur,"Shivaji University, Kolhapur - MPCB",15-06-2024 06:00:00,16.6870449,74.2505872,OZONE,13,34,20
India,Maharashtra,Latur,"Sawe Wadi, Latur - MPCB",15-06-2024 06:00:00,18.39963,76.57452,SO2,2,5,4
India,Maharashtra,Malegaon,"Mahesh Nagar, Malegaon - MPCB",15-06-2024 06:00:00,20.555712,74.529236,CO,10,36,17
India,Maharashtra,Mira-Bhayandar,"Bhayandar West, Mira-Bhayandar - MPCB",15-06-2024 06:00:00,19.296481,72.840923,PM2.5,13,37,23
India,Maharashtra,Mira-Bhayandar,"Bhayandar West, Mira-Bhayandar - MPCB",15-06-2024 06:00:00,19.296481,72.840923,NO2,14,42,27
India,Maharashtra,Mumbai,"Borivali East, Mumbai - MPCB",15-06-2024 06:00:00,19.2243333,72.8658113,NO2,2,6,4
India,Maharashtra,Mumbai,"Chembur, Mumbai - MPCB",15-06-2024 06:00:00,19.0364585,72.8954371,PM10,17,46,27
India,Maharashtra,Mumbai,"Colaba, Mumbai - MPCB",15-06-2024 06:00:00,18.910000,72.820000,PM10,11,100,51
India,Maharashtra,Mumbai,"Colaba, Mumbai - MPCB",15-06-2024 06:00:00,18.910000,72.820000,NO2,19,21,19
India,Maharashtra,Mumbai,"Kandivali East, Mumbai - MPCB",15-06-2024 06:00:00,19.205800,72.868200,NO2,23,54,33
India,Maharashtra,Mumbai,"Kandivali East, Mumbai - MPCB",15-06-2024 06:00:00,19.205800,72.868200,SO2,8,11,9
India,Maharashtra,Mumbai,"Kandivali West, Mumbai - BMC",15-06-2024 06:00:00,19.215859,72.831718,NO2,12,36,24
India,Maharashtra,Mumbai,"Khindipada-Bhandup West, Mumbai - IITM",15-06-2024 06:00:00,19.1653323,72.922099,PM10,5,36,20
India,Maharashtra,Mumbai,"Khindipada-Bhandup West, Mumbai - IITM",15-06-2024 06:00:00,19.1653323,72.922099,CO,34,76,57
India,Maharashtra,Mumbai,"Kurla, Mumbai - MPCB",15-06-2024 06:00:00,19.0863,72.8888,PM10,81,241,101
India,Maharashtra,Mumbai,"Malad West, Mumbai - IITM",15-06-2024 06:00:00,19.19709,72.82204,NH3,3,8,5
India,Maharashtra,Mumbai,"Mazgaon, Mumbai - IITM",15-06-2024 06:00:00,18.96702,72.84214,PM10,1,18,11
India,Maharashtra,Mumbai,"Mindspace-Malad West, Mumbai - MPCB",15-06-2024 06:00:00,19.1878657,72.8304069,CO,19,46,28
India,Maharashtra,Mumbai,"Mindspace-Malad West, Mumbai - MPCB",15-06-2024 06:00:00,19.1878657,72.8304069,OZONE,12,34,14
India,Maharashtra,Mumbai,"Mulund West, Mumbai - MPCB",15-06-2024 06:00:00,19.1750,72.9419,NH3,10,10,10
India,Maharashtra,Mumbai,"Mulund West, Mumbai - MPCB",15-06-2024 06:00:00,19.1750,72.9419,CO,34,34,34
India,Maharashtra,Mumbai,"Navy Nagar-Colaba, Mumbai - IITM",15-06-2024 06:00:00,18.897756,72.813320,PM10,6,30,21
India,Maharashtra,Mumbai,"Navy Nagar-Colaba, Mumbai - IITM",15-06-2024 06:00:00,18.897756,72.813320,CO,9,18,12
India,Maharashtra,Mumbai,"Powai, Mumbai - MPCB",15-06-2024 06:00:00,19.137500,72.915056,SO2,14,15,14
India,Maharashtra,Mumbai,"Sewri, Mumbai - BMC",15-06-2024 06:00:00,19.000084,72.856730,PM2.5,12,27,16
India,Maharashtra,Mumbai,"Sion, Mumbai - MPCB",15-06-2024 06:00:00,19.047000,72.874600,PM10,18,102,53
India,Maharashtra,Mumbai,"Sion, Mumbai - MPCB",15-06-2024 06:00:00,19.047000,72.874600,SO2,26,26,26
India,Maharashtra,Mumbai,"Sion, Mumbai - MPCB",15-06-2024 06:00:00,19.047000,72.874600,OZONE,25,30,29
India,Maharashtra,Mumbai,"Vasai West, Mumbai - MPCB",15-06-2024 06:00:00,19.383200,72.820400,PM2.5,NA,NA,NA
India,Maharashtra,Mumbai,"Vile Parle West, Mumbai - MPCB",15-06-2024 06:00:00,19.10861,72.83622,SO2,13,16,15
India,Maharashtra,Mumbai,"Vile Parle West, Mumbai - MPCB",15-06-2024 06:00:00,19.10861,72.83622,CO,32,32,32
India,Maharashtra,Mumbai,"Worli, Mumbai - MPCB",15-06-2024 06:00:00,18.9936162,72.8128113,NO2,13,13,13
India,Maharashtra,Nagpur,"Ambazari, Nagpur - MPCB",15-06-2024 06:00:00,21.121801,79.04952,NO2,4,28,16
India,Maharashtra,Nagpur,"Mahal, Nagpur - MPCB",15-06-2024 06:00:00,21.14472,79.107595,NO2,5,26,15
India,Maharashtra,Nagpur,"Mahal, Nagpur - MPCB",15-06-2024 06:00:00,21.14472,79.107595,NH3,2,5,4
India,Maharashtra,Nagpur,"Mahal, Nagpur - MPCB",15-06-2024 06:00:00,21.14472,79.107595,SO2,1,11,5
India,Maharashtra,Nagpur,"Opp GPO Civil Lines, Nagpur - MPCB",15-06-2024 06:00:00,21.152875,79.0517531,PM2.5,17,70,47
India,Maharashtra,Nagpur,"Opp GPO Civil Lines, Nagpur - MPCB",15-06-2024 06:00:00,21.152875,79.0517531,NH3,3,5,4
India,Maharashtra,Nanded,"Sneh Nagar, Nanded - MPCB",15-06-2024 06:00:00,19.173852,77.296291,NO2,22,30,24
India,Maharashtra,Nashik,"Gangapur Road, Nashik - MPCB",15-06-2024 06:00:00,20.0073285,73.7762427,PM2.5,19,49,31
India,Maharashtra,Nashik,"Hirawadi, Nashik - MPCB",15-06-2024 06:00:00,20.021503,73.813844,NO2,5,17,10
India,Maharashtra,Nashik,"Hirawadi, Nashik - MPCB",15-06-2024 06:00:00,20.021503,73.813844,OZONE,14,76,23
India,Maharashtra,Nashik,"MIDC Ambad, Nashik - MPCB",15-06-2024 06:00:00,19.950220,73.731480,PM10,NA,NA,NA
India,Maharashtra,Nashik,"MIDC Ambad, Nashik - MPCB",15-06-2024 06:00:00,19.950220,73.731480,CO,NA,NA,NA
India,Maharashtra,Nashik,"Pandav Nagari, Nashik - MPCB",15-06-2024 06:00:00,19.9591346,73.7788008,PM2.5,17,43,32
India,Maharashtra,Nashik,"Pandav Nagari, Nashik - MPCB",15-06-2024 06:00:00,19.9591346,73.7788008,OZONE,18,48,25
India,Maharashtra,Navi Mumbai,"Kopripada-Vashi, Navi Mumbai - MPCB",15-06-2024 06:00:00,19.090337,73.014232,PM10,31,94,58
India,Maharashtra,Navi Mumbai,"Kopripada-Vashi, Navi Mumbai - MPCB",15-06-2024 06:00:00,19.090337,73.014232,NH3,5,10,7
India,Maharashtra,Navi Mumbai,"Mahape, Navi Mumbai - MPCB",15-06-2024 06:00:00,19.1135051,73.008978,PM2.5,9,45,24
India,Maharashtra,Navi Mumbai,"Mahape, Navi Mumbai - MPCB",15-06-2024 06:00:00,19.1135051,73.008978,SO2,15,15,15
India,Maharashtra,Navi Mumbai,"Nerul, Navi Mumbai - MPCB",15-06-2024 06:00:00,19.008751,73.016620,PM2.5,4,26,14
India,Maharashtra,Navi Mumbai,"Sanpada, Navi Mumbai - MPCB",15-06-2024 06:00:00,19.0575752,73.0151367,PM2.5,1,51,18
India,Maharashtra,Navi Mumbai,"Sanpada, Navi Mumbai - MPCB",15-06-2024 06:00:00,19.0575752,73.0151367,NO2,12,35,21
India,Maharashtra,Navi Mumbai,"Sanpada, Navi Mumbai - MPCB",15-06-2024 06:00:00,19.0575752,73.0151367,SO2,1,4,2
India,Maharashtra,Navi Mumbai,"Sector-19A Nerul, Navi Mumbai - IITM",15-06-2024 06:00:00,19.044,73.0325,OZONE,1,10,1
India,Maharashtra,Navi Mumbai,"Sector-2E Kalamboli, Navi Mumbai - MPCB",15-06-2024 06:00:00,19.02579,73.10297,NO2,12,30,20
India,Maharashtra,Navi Mumbai,"Tondare-Taloja, Navi Mumbai - MPCB",15-06-2024 06:00:00,19.0630,73.1209,NH3,3,8,5
India,Maharashtra,Pune,"Alandi, Pune - IITM",15-06-2024 06:00:00,18.675076,73.892743,CO,32,43,38
India,Maharashtra,Pune,"Hadapsar, Pune - IITM",15-06-2024 06:00:00,18.501793,73.927532,PM2.5,20,85,53
India,Maharashtra,Pune,"Hadapsar, Pune - IITM",15-06-2024 06:00:00,18.501793,73.927532,OZONE,14,24,17
India,Maharashtra,Pune,"Karve Road, Pune - MPCB",15-06-2024 06:00:00,18.5011743,73.8165527,NO2,1,10,3
India,Maharashtra,Pune,"Karve Road, Pune - MPCB",15-06-2024 06:00:00,18.5011743,73.8165527,CO,5,48,10
India,Maharashtra,Pune,"Revenue Colony-Shivajinagar, Pune - IITM",15-06-2024 06:00:00,18.530085,73.849598,PM10,21,50,37
India,Maharashtra,Pune,"Revenue Colony-Shivajinagar, Pune - IITM",15-06-2024 06:00:00,18.530085,73.849598,NO2,23,41,33
India,Maharashtra,Pune,"Revenue Colony-Shivajinagar, Pune - IITM",15-06-2024 06:00:00,18.530085,73.849598,SO2,NA,NA,NA
India,Maharashtra,Pune,"Revenue Colony-Shivajinagar, Pune - IITM",15-06-2024 06:00:00,18.530085,73.849598,OZONE,8,26,13
India,Maharashtra,Pune,"Savitribai Phule Pune University, Pune - MPCB",15-06-2024 06:00:00,18.547056,73.826908,PM2.5,11,29,18
India,Maharashtra,Sangli,"Vijay Nagar, Sangli - MPCB",15-06-2024 06:00:00, 16.5038,74.3623,PM2.5,8,28,17
India,Maharashtra,Sangli,"Vijay Nagar, Sangli - MPCB",15-06-2024 06:00:00, 16.5038,74.3623,NO2,3,13,7
India,Maharashtra,Sangli,"Vijay Nagar, Sangli - MPCB",15-06-2024 06:00:00, 16.5038,74.3623,CO,10,21,13
India,Maharashtra,Solapur,"Dnyaneshwar Nagar, Solapur - MPCB",15-06-2024 06:00:00,17.6336264,75.9132495,NO2,4,18,8
India,Maharashtra,Solapur,"Dnyaneshwar Nagar, Solapur - MPCB",15-06-2024 06:00:00,17.6336264,75.9132495,OZONE,4,21,11
India,Maharashtra,Thane,"Kasarvadavali, Thane - MPCB",15-06-2024 06:00:00,19.26777,72.97182,NO2,12,39,24
India,Maharashtra,Thane,"Kasarvadavali, Thane - MPCB",15-06-2024 06:00:00,19.26777,72.97182,SO2,3,13,7
India,Maharashtra,Thane,"Upvan Fort, Thane - MPCB",15-06-2024 06:00:00,19.222279,72.957979,SO2,3,6,5
India,Maharashtra,Ulhasnagar,"Sidhi Vinayak Nagar, Ulhasnagar - MPCB",15-06-2024 06:00:00,19.235581,73.159121,PM2.5,31,78,50
India,Manipur,Imphal,"Manipur University, Imphal - Manipur PCB",15-06-2024 06:00:00,24.7524239,93.9286218,PM2.5,14,66,33
India,Manipur,Imphal,"Manipur University, Imphal - Manipur PCB",15-06-2024 06:00:00,24.7524239,93.9286218,SO2,97,101,100
India,Manipur,Imphal,"Manipur University, Imphal - Manipur PCB",15-06-2024 06:00:00,24.7524239,93.9286218,CO,8,14,12
India,Meghalaya,Shillong,"Lumpyngngad, Shillong - Meghalaya PCB",15-06-2024 06:00:00,25.5586,91.8985,PM10,NA,NA,NA
India,Mizoram,Aizawl,"Sikulpuikawn, Aizawl - Mizoram PCB",15-06-2024 06:00:00,23.7176342,92.7192841,PM2.5,8,35,17
India,Mizoram,Aizawl,"Sikulpuikawn, Aizawl - Mizoram PCB",15-06-2024 06:00:00,23.7176342,92.7192841,CO,8,16,9
India,Nagaland,Kohima,"PWD Juction, Kohima - NPCB",15-06-2024 06:00:00,25.6635413,94.0989878,PM10,24,81,58
India,Nagaland,Kohima,"PWD Juction, Kohima - NPCB",15-06-2024 06:00:00,25.6635413,94.0989878,SO2,36,40,37
India,Odisha,Angul,"Hakimapada, Angul - OSPCB",15-06-2024 06:00:00,20.832874,85.104082,PM10,53,144,84
India,Odisha,Angul,"Hakimapada, Angul - OSPCB",15-06-2024 06:00:00,20.832874,85.104082,NH3,1,1,1
India,Odisha,Balasore,"Kalidaspur, Balasore - OSPCB",15-06-2024 06:00:00,21.51161,86.89088,PM2.5,33,72,54
India,Odisha,Balasore,"Kalidaspur, Balasore - OSPCB",15-06-2024 06:00:00,21.51161,86.89088,OZONE,21,81,30
India,Odisha,Barbil,"Forest Office, Barbil - OSPCB",15-06-2024 06:00:00,22.1166054,85.3945546,NO2,5,10,7
India,Odisha,Barbil,"Forest Office, Barbil - OSPCB",15-06-2024 06:00:00,22.1166054,85.3945546,CO,27,52,42
India,Odisha,Baripada,"Meher Colony, Baripada - OSPCB",15-06-2024 06:00:00,21.941841,86.728318,PM2.5,63,99,80
India,Odisha,Bhubaneswar,"Lingraj Mandir, Bhubaneswar - OSPCB",15-06-2024 06:00:00,20.240790,85.836784,NH3,1,1,1
India,Odisha,Bileipada,"Tata Township, Bileipada - OSPCB",15-06-2024 06:00:00,22.06156703,85.47409613,SO2,49,102,68
India,Odisha,Brajrajnagar,"GM Office, Brajrajnagar - OSPCB",15-06-2024 06:00:00,21.8004996,83.8396977,NO2,15,18,16
India,Odisha,Byasanagar,"Ferro Chrome Colony, Byasanagar - OSPCB",15-06-2024 06:00:00,20.94185,86.11510,NH3,2,3,2
India,Odisha,Byasanagar,"Ferro Chrome Colony, Byasanagar - OSPCB",15-06-2024 06:00:00,20.94185,86.11510,CO,27,46,33
India,Odisha,Byasanagar,"Ferro Chrome Colony, Byasanagar - OSPCB",15-06-2024 06:00:00,20.94185,86.11510,OZONE,16,226,47
India,Odisha,Cuttack,"CDA Area, Cuttack - OSPCB",15-06-2024 06:00:00,20.48891     ,85.84768     ,PM10,43,106,77
India,Odisha,Nayagarh,"Dabuna, Nayagarh - OSPCB",15-06-2024 06:00:00,21.847279,85.416905,PM2.5,55,117,92
India,Odisha,Nayagarh,"Dabuna, Nayagarh - OSPCB",15-06-2024 06:00:00,21.847279,85.416905,NH3,4,5,5
India,Odisha,Rairangpur,"Divisional Forest Office, Rairangpur - OSPCB",15-06-2024 06:00:00,22.265816,86.174829,NO2,2,3,2
India,Odisha,Rourkela,"Fertilizer Township, Rourkela - OSPCB",15-06-2024 06:00:00,22.18972222,84.86277778,SO2,NA,NA,NA
India,Odisha,Rourkela,"Fertilizer Township, Rourkela - OSPCB",15-06-2024 06:00:00,22.18972222,84.86277778,CO,9,40,11
India,Odisha,Rourkela,"Sector-2, Rourkela - OSPCB",15-06-2024 06:00:00,22.24500000,84.88111111,PM2.5,92,228,160
India,Odisha,Rourkela,"Sector-2, Rourkela - OSPCB",15-06-2024 06:00:00,22.24500000,84.88111111,CO,20,52,35
India,Odisha,Suakati,"OMC Colony, Suakati - OSPCB",15-06-2024 06:00:00,21.606865,85.510538,PM10,60,100,82
India,Odisha,Suakati,"OMC Colony, Suakati - OSPCB",15-06-2024 06:00:00,21.606865,85.510538,CO,12,19,16
India,Odisha,Suakati,"OMC Colony, Suakati - OSPCB",15-06-2024 06:00:00,21.606865,85.510538,OZONE,1,44,16
India,Odisha,Talcher,"Talcher Coalfields,Talcher - OSPCB",15-06-2024 06:00:00,20.9360711,85.1707021,NH3,3,4,3
India,Odisha,Talcher,"Talcher Coalfields,Talcher - OSPCB",15-06-2024 06:00:00,20.9360711,85.1707021,SO2,20,45,24
India,Puducherry,Puducherry,"Jawahar Nagar, Puducherry - PPCC",15-06-2024 06:00:00,11.9309,79.8027,PM2.5,6,52,26
India,Punjab,Amritsar,"Golden Temple, Amritsar - PPCB",15-06-2024 06:00:00,31.620000,74.876512,NO2,9,99,35
India,Punjab,Bathinda,"Hardev Nagar, Bathinda - PPCB",15-06-2024 06:00:00,30.233011,74.907758,PM10,76,148,102
India,Punjab,Bathinda,"Hardev Nagar, Bathinda - PPCB",15-06-2024 06:00:00,30.233011,74.907758,SO2,11,65,27
India,Punjab,Jalandhar,"Civil Line, Jalandhar - PPCB",15-06-2024 06:00:00,31.321907,75.578914,SO2,11,18,13
India,Punjab,Jalandhar,"Civil Line, Jalandhar - PPCB",15-06-2024 06:00:00,31.321907,75.578914,OZONE,10,82,25
India,Punjab,Ludhiana,"Punjab Agricultural University, Ludhiana - PPCB",15-06-2024 06:00:00,30.9028,75.8086,OZONE,17,51,24
India,Punjab,Mandi Gobindgarh,"RIMT University, Mandi Gobindgarh - PPCB",15-06-2024 06:00:00,30.649961,76.331442,NH3,7,7,7
India,Punjab,Patiala,"Model Town, Patiala - PPCB",15-06-2024 06:00:00,30.349388,76.366642,PM10,103,183,129
India,Punjab,Patiala,"Model Town, Patiala - PPCB",15-06-2024 06:00:00,30.349388,76.366642,NH3,5,5,5
India,Punjab,Rupnagar,"Ratanpura, Rupnagar - Ambuja Cements",15-06-2024 06:00:00,31.0325454,76.5623046,NO2,8,44,26
India,Rajasthan,Alwar,"Moti Doongri, Alwar - RSPCB",15-06-2024 06:00:00,27.554793,76.611536,NO2,19,30,25
India,Rajasthan,Alwar,"Moti Doongri, Alwar - RSPCB",15-06-2024 06:00:00,27.554793,76.611536,CO,20,43,23
India,Rajasthan,Baran,"Bamboliya, Baran - RSPCB",15-06-2024 06:00:00,25.106006,76.469948,PM10,47,134,92
India,Rajasthan,Baran,"Bamboliya, Baran - RSPCB",15-06-2024 06:00:00,25.106006,76.469948,NH3,3,6,5
India,Rajasthan,Barmer,"Railway Colony, Barmer - RSPCB",15-06-2024 06:00:00,25.747299,71.393989,NO2,3,20,7
India,Rajasthan,Barmer,"Railway Colony, Barmer - RSPCB",15-06-2024 06:00:00,25.747299,71.393989,NH3,5,21,10
India,Rajasthan,Bharatpur,"Krishna Nagar, Bharatpur - RSPCB",15-06-2024 06:00:00,27.215415,77.50873,PM2.5,27,184,64
India,Rajasthan,Bhilwara,"Pratap Nagar, Bhilwara - RSPCB",15-06-2024 06:00:00,25.339605,74.618883,CO,18,42,27
India,Rajasthan,Bhiwadi,"RIICO Ind. Area III, Bhiwadi - RSPCB",15-06-2024 06:00:00,28.194909,76.862296,PM10,40,384,130
India,Rajasthan,Bhiwadi,"Vasundhara Nagar_UIT, Bhiwadi - RSPCB",15-06-2024 06:00:00,28.207266,76.829265,NH3,NA,NA,NA
India,Rajasthan,Bhiwadi,"Vasundhara Nagar_UIT, Bhiwadi - RSPCB",15-06-2024 06:00:00,28.207266,76.829265,OZONE,NA,NA,NA
India,Rajasthan,Bikaner,"MM Ground, Bikaner - RSPCB",15-06-2024 06:00:00,28.018792,73.292658,PM10,79,197,133
India,Rajasthan,Churu,"Subash Chowk, Churu - RSPCB",15-06-2024 06:00:00,28.296139,74.961696,NH3,13,24,17
India,Rajasthan,Dholpur,"Raja Ganj, Dholpur - RSPCB",15-06-2024 06:00:00,26.699557,77.898881,NH3,2,18,7
India,Rajasthan,Dungarpur,"Bhoiwada, Dungarpur - RSPCB",15-06-2024 06:00:00,23.837789,73.714926,NH3,1,2,2
India,Rajasthan,Dungarpur,"Bhoiwada, Dungarpur - RSPCB",15-06-2024 06:00:00,23.837789,73.714926,SO2,1,9,4
India,Rajasthan,Hanumangarh,"Housing Board, Hanumangarh - RSPCB",15-06-2024 06:00:00,29.610750,74.283608,OZONE,2,24,5
India,Rajasthan,Jaipur,"Adarsh Nagar, Jaipur - RSPCB",15-06-2024 06:00:00,26.902909,75.836858,NO2,21,74,36
India,Rajasthan,Jaipur,"Adarsh Nagar, Jaipur - RSPCB",15-06-2024 06:00:00,26.902909,75.836858,NH3,5,10,6
India,Rajasthan,Jaipur,"Adarsh Nagar, Jaipur - RSPCB",15-06-2024 06:00:00,26.902909,75.836858,SO2,7,35,18
India,Rajasthan,Jaipur,"Police Commissionerate, Jaipur - RSPCB",15-06-2024 06:00:00,26.9164092,75.7994901,PM10,66,129,109
India,Rajasthan,Jaipur,"Police Commissionerate, Jaipur - RSPCB",15-06-2024 06:00:00,26.9164092,75.7994901,NO2,21,49,28
India,Rajasthan,Jaipur,"Police Commissionerate, Jaipur - RSPCB",15-06-2024 06:00:00,26.9164092,75.7994901,OZONE,13,69,40
India,Rajasthan,Jaipur,"RIICO Sitapura, Jaipur - RSPCB",15-06-2024 06:00:00,26.786682,75.827928,NH3,1,29,14
India,Rajasthan,Jaipur,"RIICO Sitapura, Jaipur - RSPCB",15-06-2024 06:00:00,26.786682,75.827928,CO,8,38,28
India,Rajasthan,Jaipur,"RIICO Sitapura, Jaipur - RSPCB",15-06-2024 06:00:00,26.786682,75.827928,OZONE,8,144,38
India,Rajasthan,Jaipur,"Shastri Nagar, Jaipur - RSPCB",15-06-2024 06:00:00,26.9502929,75.730943,PM10,86,467,144
India,Rajasthan,Jhalawar,"Rajlaxmi Nagar, Jhalawar - RSPCB",15-06-2024 06:00:00,24.588397,76.172782,PM2.5,16,54,31
India,Rajasthan,Jhalawar,"Rajlaxmi Nagar, Jhalawar - RSPCB",15-06-2024 06:00:00,24.588397,76.172782,NH3,2,3,2
India,Rajasthan,Jhunjhunu,"Indra Nagar, Jhunjhunu - RSPCB",15-06-2024 06:00:00,28.108988,75.386577,NH3,19,32,26
India,Rajasthan,Jhunjhunu,"Indra Nagar, Jhunjhunu - RSPCB",15-06-2024 06:00:00,28.108988,75.386577,OZONE,20,71,42
India,Rajasthan,Jodhpur,"Collectorate, Jodhpur - RSPCB",15-06-2024 06:00:00,26.268249,73.0193853,PM2.5,18,125,58
India,Rajasthan,Jodhpur,"Collectorate, Jodhpur - RSPCB",15-06-2024 06:00:00,26.268249,73.0193853,NO2,2,22,9
India,Rajasthan,Jodhpur,"Collectorate, Jodhpur - RSPCB",15-06-2024 06:00:00,26.268249,73.0193853,CO,2,119,26
India,Rajasthan,Jodhpur,"Collectorate, Jodhpur - RSPCB",15-06-2024 06:00:00,26.268249,73.0193853,OZONE,7,261,14
India,Rajasthan,Jodhpur,"Samrat Ashok Udhyan, Jodhpur - RSPCB",15-06-2024 06:00:00,26.253384,72.976571,NH3,3,4,3
India,Rajasthan,Jodhpur,"Samrat Ashok Udhyan, Jodhpur - RSPCB",15-06-2024 06:00:00,26.253384,72.976571,OZONE,21,65,38
India,Rajasthan,Karauli,"Satyawati Vihar, Karauli - RSPCB",15-06-2024 06:00:00,26.506177,77.025989,PM2.5,30,60,45
India,Rajasthan,Kota,"Dhanmandi, Kota - RSPCB",15-06-2024 06:00:00,25.164090,75.858137,OZONE,15,160,83
India,Rajasthan,Kota,"Nayapura, Kota - RSPCB",15-06-2024 06:00:00,25.196024,75.855668,PM10,76,148,111
India,Rajasthan,Kota,"Shrinath Puram, Kota - RSPCB",15-06-2024 06:00:00,25.14389,75.821256,NO2,2,55,20
India,Rajasthan,Nagaur,"Karni Colony, Nagaur - RSPCB",15-06-2024 06:00:00,27.213494,73.734444,NH3,7,16,11
India,Rajasthan,Pratapgarh,"Pragati Nagar, Pratapgarh - RSPCB",15-06-2024 06:00:00,24.041198,74.780702,NO2,8,32,14
India,Rajasthan,Rajsamand,"Dhoinda, Rajsamand - RSPCB",15-06-2024 06:00:00,25.036360,73.883502,NH3,1,2,1
India,Rajasthan,Rajsamand,"Dhoinda, Rajsamand - RSPCB",15-06-2024 06:00:00,25.036360,73.883502,OZONE,28,104,47
India,Rajasthan,Sawai Madhopur,"Sahu Nagar, Sawai Madhopur - RSPCB",15-06-2024 06:00:00,26.031443,76.359327,PM2.5,41,108,57
India,Rajasthan,Sawai Madhopur,"Sahu Nagar, Sawai Madhopur - RSPCB",15-06-2024 06:00:00,26.031443,76.359327,NO2,15,22,19
India,Rajasthan,Sikar,"Radhakishan Pura, Sikar - RSPCB",15-06-2024 06:00:00,27.608912,75.153302,NO2,10,25,14
India,Rajasthan,Sikar,"Radhakishan Pura, Sikar - RSPCB",15-06-2024 06:00:00,27.608912,75.153302,NH3,4,6,6
India,Rajasthan,Sirohi,"Vedhaynath Colony, Sirohi - RSPCB",15-06-2024 06:00:00,24.885261,72.857549,PM10,NA,NA,NA
India,Rajasthan,Sirohi,"Vedhaynath Colony, Sirohi - RSPCB",15-06-2024 06:00:00,24.885261,72.857549,OZONE,22,85,34
India,Rajasthan,Sri Ganganagar,"Old City, Sri Ganganagar - RSPCB",15-06-2024 06:00:00,29.931624,73.864511,PM2.5,NA,NA,NA
India,Rajasthan,Sri Ganganagar,"Old City, Sri Ganganagar - RSPCB",15-06-2024 06:00:00,29.931624,73.864511,PM10,NA,NA,NA
India,Rajasthan,Sri Ganganagar,"Old City, Sri Ganganagar - RSPCB",15-06-2024 06:00:00,29.931624,73.864511,NO2,14,61,30
India,Rajasthan,Sri Ganganagar,"Old City, Sri Ganganagar - RSPCB",15-06-2024 06:00:00,29.931624,73.864511,SO2,1,8,4
India,Rajasthan,Sri Ganganagar,"Old City, Sri Ganganagar - RSPCB",15-06-2024 06:00:00,29.931624,73.864511,CO,12,100,58
India,Rajasthan,Tonk,"Shastri Nagar, Tonk - RSPCB",15-06-2024 06:00:00,26.159933,75.780517,PM10,63,165,98
India,Rajasthan,Tonk,"Shastri Nagar, Tonk - RSPCB",15-06-2024 06:00:00,26.159933,75.780517,NH3,NA,NA,NA
India,Rajasthan,Udaipur,"Ashok Nagar, Udaipur - RSPCB",15-06-2024 06:00:00,24.5886166,73.6321397,NH3,6,29,14
India,Rajasthan,Udaipur,"Ashok Nagar, Udaipur - RSPCB",15-06-2024 06:00:00,24.5886166,73.6321397,CO,1,102,17
India,Sikkim,Gangtok,"Zero Point GICI, Gangtok - SSPCB",15-06-2024 06:00:00,27.338530,88.614099,SO2,12,12,12
India,Sikkim,Gangtok,"Zero Point GICI, Gangtok - SSPCB",15-06-2024 06:00:00,27.338530,88.614099,OZONE,16,44,22
India,TamilNadu,Chennai,"Alandur Bus Depot, Chennai - CPCB",15-06-2024 06:00:00,12.9099161,80.1076538,PM2.5,24,27,25
India,TamilNadu,Chennai,"Alandur Bus Depot, Chennai - CPCB",15-06-2024 06:00:00,12.9099161,80.1076538,PM10,24,27,25
India,TamilNadu,Chennai,"Alandur Bus Depot, Chennai - CPCB",15-06-2024 06:00:00,12.9099161,80.1076538,SO2,2,13,7
India,TamilNadu,Chennai,"Alandur Bus Depot, Chennai - CPCB",15-06-2024 06:00:00,12.9099161,80.1076538,CO,60,64,62
India,TamilNadu,Chennai,"Arumbakkam, Chennai - TNPCB",15-06-2024 06:00:00,13.0664,80.2112 ,SO2,3,27,10
India,TamilNadu,Chennai,"Kodungaiyur, Chennai - TNPCB",15-06-2024 06:00:00,13.1278,80.2642,NO2,11,59,22
India,TamilNadu,Chennai,"Kodungaiyur, Chennai - TNPCB",15-06-2024 06:00:00,13.1278,80.2642,SO2,1,7,4
India,TamilNadu,Chennai,"Manali, Chennai - CPCB",15-06-2024 06:00:00,13.164544,80.26285,PM10,29,106,60
India,TamilNadu,Chennai,"Manali, Chennai - CPCB",15-06-2024 06:00:00,13.164544,80.26285,NH3,5,5,5
India,TamilNadu,Chennai,"Perungudi, Chennai - TNPCB",15-06-2024 06:00:00,12.9533,80.2357,SO2,2,5,3
India,TamilNadu,Chennai,"Royapuram, Chennai - TNPCB",15-06-2024 06:00:00,13.1036,80.2909,CO,26,60,34
India,TamilNadu,Chennai,"Velachery Res. Area, Chennai - CPCB",15-06-2024 06:00:00,13.0052189,80.2398125,PM2.5,15,74,36
India,TamilNadu,Chennai,"Velachery Res. Area, Chennai - CPCB",15-06-2024 06:00:00,13.0052189,80.2398125,PM10,15,74,36
India,TamilNadu,Coimbatore,"PSG College of Arts and Science, Coimbatore - TNPCB",15-06-2024 06:00:00,11.0328,77.0349,NH3,NA,NA,NA
India,TamilNadu,Coimbatore,"PSG College of Arts and Science, Coimbatore - TNPCB",15-06-2024 06:00:00,11.0328,77.0349,CO,6,12,12
India,TamilNadu,Cuddalore,"Semmandalam, Cuddalore - TNPCB",15-06-2024 06:00:00,11.7637683,79.7499835,PM2.5,NA,NA,NA
India,TamilNadu,Gummidipoondi,"Anthoni Pillai Nagar, Gummidipoondi - TNPCB",15-06-2024 06:00:00,13.4127,80.1081,PM10,59,201,102
India,TamilNadu,Ooty,"Bombay Castel, Ooty - TNPCB",15-06-2024 06:00:00,11.4068288,76.7138973,PM2.5,13,86,37
India,TamilNadu,Ooty,"Bombay Castel, Ooty - TNPCB",15-06-2024 06:00:00,11.4068288,76.7138973,SO2,14,34,17
India,TamilNadu,Ramanathapuram,"Chalai Bazaar, Ramanathapuram - TNPCB",15-06-2024 06:00:00,9.36399,78.831977,NH3,1,1,1
India,TamilNadu,Ramanathapuram,"Chalai Bazaar, Ramanathapuram - TNPCB",15-06-2024 06:00:00,9.36399,78.831977,CO,2,6,3
India,TamilNadu,Salem,"Sona College of Technology, Salem - TNPCB",15-06-2024 06:00:00,11.679111,78.125052,PM2.5,NA,NA,NA
India,TamilNadu,Tirupur,"Kumaran College, Tirupur - TNPCB",15-06-2024 06:00:00,11.0973603,77.3228673,CO,16,32,20
India,Telangana,Hyderabad,"Central University, Hyderabad - TSPCB",15-06-2024 06:00:00,17.460103,78.334361,NO2,17,30,25
India,Telangana,Hyderabad,"ICRISAT Patancheru, Hyderabad - TSPCB",15-06-2024 06:00:00,17.518400,78.278777,OZONE,6,18,10
India,Telangana,Hyderabad,"IITH Kandi, Hyderabad - TSPCB",15-06-2024 06:00:00,17.585705,78.126199,SO2,7,12,10
India,Telangana,Hyderabad,"Kokapet, Hyderabad - TSPCB",15-06-2024 06:00:00,17.393559,78.339194,NH3,1,2,1
India,Telangana,Hyderabad,"Kokapet, Hyderabad - TSPCB",15-06-2024 06:00:00,17.393559,78.339194,CO,20,32,32
India,Telangana,Hyderabad,"Kompally Municipal Office, Hyderabad - TSPCB",15-06-2024 06:00:00,17.544899,78.486949,CO,NA,NA,NA
India,Telangana,Hyderabad,"New Malakpet, Hyderabad - TSPCB",15-06-2024 06:00:00,17.37206,78.50864,PM10,70,90,77
India,Telangana,Hyderabad,"New Malakpet, Hyderabad - TSPCB",15-06-2024 06:00:00,17.37206,78.50864,NH3,2,3,3
India,Telangana,Hyderabad,"Ramachandrapuram, Hyderabad - TSPCB",15-06-2024 06:00:00,17.528544,78.286195,PM2.5,NA,NA,NA
India,Telangana,Hyderabad,"Ramachandrapuram, Hyderabad - TSPCB",15-06-2024 06:00:00,17.528544,78.286195,SO2,NA,NA,NA
India,Telangana,Hyderabad,"Ramachandrapuram, Hyderabad - TSPCB",15-06-2024 06:00:00,17.528544,78.286195,OZONE,NA,NA,NA
India,Telangana,Hyderabad,"Sanathnagar, Hyderabad - TSPCB",15-06-2024 06:00:00,17.4559458,78.4332152,PM2.5,25,52,33
India,Telangana,Hyderabad,"Somajiguda, Hyderabad - TSPCB",15-06-2024 06:00:00,17.417094,78.457437,PM10,NA,NA,NA
India,Telangana,Hyderabad,"Zoo Park, Hyderabad - TSPCB",15-06-2024 06:00:00,17.349694,78.451437,PM2.5,NA,NA,NA
India,Telangana,Hyderabad,"Zoo Park, Hyderabad - TSPCB",15-06-2024 06:00:00,17.349694,78.451437,OZONE,17,23,19
India,Tripura,Agartala,"Bardowali, Agartala - Tripura SPCB",15-06-2024 06:00:00,23.8175497,91.2726974,SO2,41,44,43
India,Tripura,Agartala,"Bardowali, Agartala - Tripura SPCB",15-06-2024 06:00:00,23.8175497,91.2726974,CO,10,19,13
India,Tripura,Agartala,"Bardowali, Agartala - Tripura SPCB",15-06-2024 06:00:00,23.8175497,91.2726974,OZONE,10,22,13
India,Uttar_Pradesh,Agra,"Manoharpur, Agra - UPPCB",15-06-2024 06:00:00,27.23711,78.01936,PM10,20,30,25
India,Uttar_Pradesh,Agra,"Manoharpur, Agra - UPPCB",15-06-2024 06:00:00,27.23711,78.01936,CO,4,6,6
India,Uttar_Pradesh,Agra,"Manoharpur, Agra - UPPCB",15-06-2024 06:00:00,27.23711,78.01936,OZONE,1,23,3
India,Uttar_Pradesh,Agra,"Rohta, Agra - UPPCB",15-06-2024 06:00:00,27.106972,78.000111,PM10,6,49,29
India,Uttar_Pradesh,Agra,"Rohta, Agra - UPPCB",15-06-2024 06:00:00,27.106972,78.000111,CO,2,10,7
India,Uttar_Pradesh,Agra,"Sanjay Palace, Agra - UPPCB",15-06-2024 06:00:00,27.19865833,78.00598056,PM10,16,142,35
India,Uttar_Pradesh,Agra,"Sanjay Palace, Agra - UPPCB",15-06-2024 06:00:00,27.19865833,78.00598056,SO2,4,13,8
India,Uttar_Pradesh,Agra,"Sector-3B Avas Vikas Colony, Agra - UPPCB",15-06-2024 06:00:00,27.19412,77.96237,PM2.5,11,34,21
India,Uttar_Pradesh,Agra,"Sector-3B Avas Vikas Colony, Agra - UPPCB",15-06-2024 06:00:00,27.19412,77.96237,OZONE,12,14,12
India,Uttar_Pradesh,Agra,"Shahjahan Garden, Agra - UPPCB",15-06-2024 06:00:00,27.169338,78.03582,PM2.5,28,46,34
India,Uttar_Pradesh,Agra,"Shahjahan Garden, Agra - UPPCB",15-06-2024 06:00:00,27.169338,78.03582,PM10,59,129,88
India,Uttar_Pradesh,Agra,"Shahjahan Garden, Agra - UPPCB",15-06-2024 06:00:00,27.169338,78.03582,NH3,4,11,7
India,Uttar_Pradesh,Agra,"Shahjahan Garden, Agra - UPPCB",15-06-2024 06:00:00,27.169338,78.03582,CO,10,20,13
India,Uttar_Pradesh,Agra,"Shastripuram, Agra - UPPCB",15-06-2024 06:00:00,27.19862,77.92066,SO2,NA,NA,NA
India,Uttar_Pradesh,Baghpat,"Sardar Patel Inter College, Baghpat - UPPCB",15-06-2024 06:00:00,28.964949,77.278761,NO2,11,45,20
India,Uttar_Pradesh,Bareilly,"Civil Lines, Bareilly - UPPCB",15-06-2024 06:00:00,28.359581,79.414455,OZONE,NA,NA,NA
India,Uttar_Pradesh,Firozabad,"Nagla Bhau, Firozabad - UPPCB",15-06-2024 06:00:00,27.168897,78.376960,PM10,33,84,61
India,Uttar_Pradesh,Firozabad,"Nagla Bhau, Firozabad - UPPCB",15-06-2024 06:00:00,27.168897,78.376960,SO2,17,21,18
India,Uttar_Pradesh,Firozabad,"Vibhab Nagar, Firozabad - UPPCB",15-06-2024 06:00:00,27.1594,78.3953,PM2.5,29,99,66
India,Uttar_Pradesh,Firozabad,"Vibhab Nagar, Firozabad - UPPCB",15-06-2024 06:00:00,27.1594,78.3953,PM10,39,122,82
India,Uttar_Pradesh,Firozabad,"Vibhab Nagar, Firozabad - UPPCB",15-06-2024 06:00:00,27.1594,78.3953,CO,6,16,14
India,Uttar_Pradesh,Ghaziabad,"Indirapuram, Ghaziabad - UPPCB",15-06-2024 06:00:00,28.646233,77.358075,PM2.5,30,98,57
India,Uttar_Pradesh,Ghaziabad,"Indirapuram, Ghaziabad - UPPCB",15-06-2024 06:00:00,28.646233,77.358075,PM10,83,432,218
India,Uttar_Pradesh,Ghaziabad,"Loni, Ghaziabad - UPPCB",15-06-2024 06:00:00,28.757294,77.278792,NO2,5,38,19
India,Uttar_Pradesh,Ghaziabad,"Loni, Ghaziabad - UPPCB",15-06-2024 06:00:00,28.757294,77.278792,CO,18,42,37
India,Uttar_Pradesh,Ghaziabad,"Sanjay Nagar, Ghaziabad - UPPCB",15-06-2024 06:00:00,28.685382,77.453839,SO2,14,20,17
India,Uttar_Pradesh,Ghaziabad,"Vasundhara, Ghaziabad - UPPCB",15-06-2024 06:00:00,28.6603346,77.3572563,SO2,2,29,11
India,Uttar_Pradesh,Gorakhpur,"Madan Mohan Malaviya University of Technology, Gorakhpur - UPPCB",15-06-2024 06:00:00,26.730136,83.433859,PM2.5,56,183,92
India,Uttar_Pradesh,Greater Noida,"Knowledge Park - III, Greater Noida - UPPCB",15-06-2024 06:00:00,28.47272,77.482000,PM2.5,NA,NA,NA
India,Uttar_Pradesh,Greater Noida,"Knowledge Park - III, Greater Noida - UPPCB",15-06-2024 06:00:00,28.47272,77.482000,PM10,NA,NA,NA
India,Uttar_Pradesh,Greater Noida,"Knowledge Park - III, Greater Noida - UPPCB",15-06-2024 06:00:00,28.47272,77.482000,SO2,NA,NA,NA
India,Uttar_Pradesh,Greater Noida,"Knowledge Park - III, Greater Noida - UPPCB",15-06-2024 06:00:00,28.47272,77.482000,CO,NA,NA,NA
India,Uttar_Pradesh,Greater Noida,"Knowledge Park - V, Greater Noida - UPPCB",15-06-2024 06:00:00,28.557054,77.453663,PM10,105,496,255
India,Uttar_Pradesh,Greater Noida,"Knowledge Park - V, Greater Noida - UPPCB",15-06-2024 06:00:00,28.557054,77.453663,OZONE,39,80,48
India,Uttar_Pradesh,Hapur,"Anand Vihar, Hapur - UPPCB",15-06-2024 06:00:00,28.725645,77.749675,PM2.5,22,64,35
India,Uttar_Pradesh,Hapur,"Anand Vihar, Hapur - UPPCB",15-06-2024 06:00:00,28.725645,77.749675,NO2,9,92,31
India,Uttar_Pradesh,Jhansi,"Shivaji Nagar, Jhansi - UPPCB",15-06-2024 06:00:00,25.4547,78.6039,SO2,17,22,19
India,Uttar_Pradesh,Kanpur,"FTI Kidwai Nagar, Kanpur - UPPCB",15-06-2024 06:00:00,26.428282,80.327067,NO2,24,36,32
India,Uttar_Pradesh,Kanpur,"FTI Kidwai Nagar, Kanpur - UPPCB",15-06-2024 06:00:00,26.428282,80.327067,CO,26,46,32
India,Uttar_Pradesh,Kanpur,"NSI Kalyanpur, Kanpur - UPPCB",15-06-2024 06:00:00,26.509954,80.249612,NO2,11,13,13
India,Uttar_Pradesh,Kanpur,"NSI Kalyanpur, Kanpur - UPPCB",15-06-2024 06:00:00,26.509954,80.249612,SO2,17,22,19
India,Uttar_Pradesh,Kanpur,"Nehru Nagar, Kanpur - UPPCB",15-06-2024 06:00:00,26.4703136,80.3229863,SO2,3,12,9
India,Uttar_Pradesh,Kanpur,"Nehru Nagar, Kanpur - UPPCB",15-06-2024 06:00:00,26.4703136,80.3229863,OZONE,13,244,24
India,Uttar_Pradesh,Khurja,"Kalindi Kunj, Khurja - UPPCB",15-06-2024 06:00:00,28.2348927,77.8683002,PM2.5,NA,NA,NA
India,Uttar_Pradesh,Khurja,"Kalindi Kunj, Khurja - UPPCB",15-06-2024 06:00:00,28.2348927,77.8683002,NO2,8,25,18
India,Uttar_Pradesh,Lucknow,"B R Ambedkar University, Lucknow - UPPCB",15-06-2024 06:00:00,26.766433,80.927299,SO2,14,17,15
India,Uttar_Pradesh,Lucknow,"B R Ambedkar University, Lucknow - UPPCB",15-06-2024 06:00:00,26.766433,80.927299,OZONE,12,49,23
India,Uttar_Pradesh,Lucknow,"Gomti Nagar, Lucknow - UPPCB",15-06-2024 06:00:00,26.868120,81.005119,PM2.5,52,221,117
India,Uttar_Pradesh,Lucknow,"Kendriya Vidyalaya, Lucknow - CPCB",15-06-2024 06:00:00,26.906111,80.948222,PM2.5,78,218,138
India,Uttar_Pradesh,Lucknow,"Kendriya Vidyalaya, Lucknow - CPCB",15-06-2024 06:00:00,26.906111,80.948222,SO2,5,11,7
India,Uttar_Pradesh,Lucknow,"Kukrail Picnic Spot-1, Lucknow - UPPCB",15-06-2024 06:00:00,26.90723,80.98579,PM2.5,26,77,48
India,Uttar_Pradesh,Lucknow,"Kukrail Picnic Spot-1, Lucknow - UPPCB",15-06-2024 06:00:00,26.90723,80.98579,NO2,13,13,13
India,Uttar_Pradesh,Lucknow,"Kukrail Picnic Spot-1, Lucknow - UPPCB",15-06-2024 06:00:00,26.90723,80.98579,NH3,2,2,2
India,Uttar_Pradesh,Lucknow,"Lalbagh, Lucknow - CPCB",15-06-2024 06:00:00,26.8458805,80.9365541,SO2,5,21,13
India,Uttar_Pradesh,Lucknow,"Talkatora District Industries Center, Lucknow - CPCB",15-06-2024 06:00:00,26.83399722,80.8917361,NO2,11,14,12
India,Uttar_Pradesh,Lucknow,"Talkatora District Industries Center, Lucknow - CPCB",15-06-2024 06:00:00,26.83399722,80.8917361,SO2,1,17,9
India,Uttar_Pradesh,Lucknow,"Talkatora District Industries Center, Lucknow - CPCB",15-06-2024 06:00:00,26.83399722,80.8917361,OZONE,16,176,38
India,Uttar_Pradesh,Meerut,"Jai Bhim Nagar, Meerut - UPPCB",15-06-2024 06:00:00,28.9535882,77.7622941,NH3,7,11,8
India,Uttar_Pradesh,Meerut,"Jai Bhim Nagar, Meerut - UPPCB",15-06-2024 06:00:00,28.9535882,77.7622941,SO2,5,21,9
India,Uttar_Pradesh,Meerut,"Jai Bhim Nagar, Meerut - UPPCB",15-06-2024 06:00:00,28.9535882,77.7622941,CO,32,50,38
India,Uttar_Pradesh,Meerut,"Pallavpuram Phase 2, Meerut - UPPCB",15-06-2024 06:00:00,29.063510,77.709723,PM10,107,341,182
India,Uttar_Pradesh,Moradabad,"Buddhi Vihar, Moradabad - UPPCB",15-06-2024 06:00:00,28.83526,78.74460,NO2,23,23,23
India,Uttar_Pradesh,Moradabad,"Eco Herbal Park, Moradabad - UPPCB",15-06-2024 06:00:00,28.840739,78.697531,CO,10,30,20
India,Uttar_Pradesh,Moradabad,"Eco Herbal Park, Moradabad - UPPCB",15-06-2024 06:00:00,28.840739,78.697531,OZONE,24,141,42
India,Uttar_Pradesh,Moradabad,"Jigar Colony, Moradabad - UPPCB",15-06-2024 06:00:00,28.856664,78.772638,SO2,23,28,26
India,Uttar_Pradesh,Moradabad,"Jigar Colony, Moradabad - UPPCB",15-06-2024 06:00:00,28.856664,78.772638,OZONE,13,31,15
India,Uttar_Pradesh,Moradabad,"Kashiram Nagar, Moradabad - UPPCB",15-06-2024 06:00:00,28.849399,78.742362,PM2.5,NA,NA,NA
India,Uttar_Pradesh,Moradabad,"Transport Nagar, Moradabad - UPPCB",15-06-2024 06:00:00,28.802625,78.753728,SO2,18,33,24
India,Uttar_Pradesh,Moradabad,"Transport Nagar, Moradabad - UPPCB",15-06-2024 06:00:00,28.802625,78.753728,OZONE,8,53,19
India,Uttar_Pradesh,Muzaffarnagar,"New Mandi, Muzaffarnagar - UPPCB",15-06-2024 06:00:00,29.4723508,77.7194031,NO2,4,22,12
India,Uttar_Pradesh,Muzaffarnagar,"New Mandi, Muzaffarnagar - UPPCB",15-06-2024 06:00:00,29.4723508,77.7194031,CO,30,60,36
India,Uttar_Pradesh,Muzaffarnagar,"New Mandi, Muzaffarnagar - UPPCB",15-06-2024 06:00:00,29.4723508,77.7194031,OZONE,14,72,23
India,Uttar_Pradesh,Noida,"Sector - 125, Noida - UPPCB",15-06-2024 06:00:00,28.5447608,77.3231257,PM2.5,35,413,91
India,Uttar_Pradesh,Noida,"Sector - 125, Noida - UPPCB",15-06-2024 06:00:00,28.5447608,77.3231257,PM10,174,500,300
India,Uttar_Pradesh,Noida,"Sector - 62, Noida - IMD",15-06-2024 06:00:00,28.6245479,77.3577104,PM2.5,44,143,70
India,Uttar_Pradesh,Noida,"Sector - 62, Noida - IMD",15-06-2024 06:00:00,28.6245479,77.3577104,CO,14,20,18
India,Uttar_Pradesh,Noida,"Sector-1, Noida - UPPCB",15-06-2024 06:00:00,28.5898,77.3101,SO2,5,18,10
India,Uttar_Pradesh,Noida,"Sector-1, Noida - UPPCB",15-06-2024 06:00:00,28.5898,77.3101,OZONE,17,84,35
India,Uttar_Pradesh,Noida,"Sector-116, Noida - UPPCB",15-06-2024 06:00:00,28.569230,77.393848,PM10,89,500,200
India,Uttar_Pradesh,Noida,"Sector-116, Noida - UPPCB",15-06-2024 06:00:00,28.569230,77.393848,SO2,2,26,15
India,Uttar_Pradesh,Prayagraj,"Jhunsi, Prayagraj - UPPCB",15-06-2024 06:00:00,25.425602,81.917152,OZONE,9,95,25
India,Uttar_Pradesh,Varanasi,"Bhelupur, Varanasi - UPPCB",15-06-2024 06:00:00,25.301778,82.996789,OZONE,1,36,6
India,Uttar_Pradesh,Varanasi,"IESD Banaras Hindu University, Varanasi - UPPCB",15-06-2024 06:00:00,25.262326,82.995408,NO2,1,2,2
India,Uttar_Pradesh,Varanasi,"Maldahiya, Varanasi - UPPCB",15-06-2024 06:00:00,25.32393,82.99687,PM10,29,67,42
India,Uttar_Pradesh,Varanasi,"Maldahiya, Varanasi - UPPCB",15-06-2024 06:00:00,25.32393,82.99687,SO2,28,42,32
India,Uttar_Pradesh,Vrindavan,"Omex Eternity, Vrindavan - UPPCB",15-06-2024 06:00:00,27.5714090,77.6557570,NO2,12,12,12
India,Uttarakhand,Dehradun,"Doon University, Dehradun - UKPCB",15-06-2024 06:00:00,30.269444,78.044167,PM10,102,170,135
India,Uttarakhand,Dehradun,"Doon University, Dehradun - UKPCB",15-06-2024 06:00:00,30.269444,78.044167,OZONE,31,178,67
India,Uttarakhand,Kashipur,"Govt. Girls Inter College, Kashipur - UKPCB",15-06-2024 06:00:00,29.2124114,78.9611753,SO2,9,16,11
India,Uttarakhand,Kashipur,"Govt. Girls Inter College, Kashipur - UKPCB",15-06-2024 06:00:00,29.2124114,78.9611753,OZONE,21,104,33
India,West_Bengal,Asansol,"Asansol Court Area, Asansol - WBPCB",15-06-2024 06:00:00,23.685297,86.945968,NO2,34,63,44
India,West_Bengal,Asansol,"Asansol Court Area, Asansol - WBPCB",15-06-2024 06:00:00,23.685297,86.945968,NH3,11,14,12
India,West_Bengal,Asansol,"Evelyn Lodge, Asansol - WBPCB",15-06-2024 06:00:00,23.6979360,86.9443950,PM2.5,62,150,99
India,West_Bengal,Barrackpore,"SVSPA Campus, Barrackpore - WBPCB",15-06-2024 06:00:00,22.7605581,88.3617589,OZONE,NA,NA,NA
India,West_Bengal,Durgapur,"PCBL Residential Complex, Durgapur - WBPCB",15-06-2024 06:00:00,23.5087640,87.3544400,NH3,1,2,1
India,West_Bengal,Durgapur,"PCBL Residential Complex, Durgapur - WBPCB",15-06-2024 06:00:00,23.5087640,87.3544400,CO,14,102,42
India,West_Bengal,Durgapur,"Sidhu Kanhu Indoor Stadium, Durgapur - WBPCB",15-06-2024 06:00:00,23.5404352,87.2892225,NH3,2,27,6
India,West_Bengal,Durgapur,"Sidhu Kanhu Indoor Stadium, Durgapur - WBPCB",15-06-2024 06:00:00,23.5404352,87.2892225,OZONE,7,93,26
India,West_Bengal,Haldia,"Priyambada Housing Estate, Haldia - WBPCB",15-06-2024 06:00:00,22.06047,88.109737,NH3,7,9,8
India,West_Bengal,Howrah,"Belur Math, Howrah - WBPCB",15-06-2024 06:00:00,22.629801,88.352017,PM10,48,111,75
India,West_Bengal,Howrah,"Botanical Garden, Howrah - WBPCB",15-06-2024 06:00:00,22.554954,88.292568,PM10,46,107,80
India,West_Bengal,Howrah,"Botanical Garden, Howrah - WBPCB",15-06-2024 06:00:00,22.554954,88.292568,OZONE,41,108,46
India,West_Bengal,Howrah,"Padmapukur, Howrah - WBPCB",15-06-2024 06:00:00,22.5687319,88.2797276,PM10,66,108,88
India,West_Bengal,Howrah,"Padmapukur, Howrah - WBPCB",15-06-2024 06:00:00,22.5687319,88.2797276,NH3,6,16,8
India,West_Bengal,Howrah,"Padmapukur, Howrah - WBPCB",15-06-2024 06:00:00,22.5687319,88.2797276,SO2,6,43,15
India,West_Bengal,Kolkata,"Bidhannagar, Kolkata - WBPCB",15-06-2024 06:00:00,22.58157048,88.41002457,OZONE,31,98,41
India,West_Bengal,Kolkata,"Fort William, Kolkata - WBPCB",15-06-2024 06:00:00,22.556640,88.342674,PM10,54,108,78
India,West_Bengal,Kolkata,"Jadavpur, Kolkata - WBPCB",15-06-2024 06:00:00,22.49929,88.36917,PM2.5,44,76,59
India,West_Bengal,Kolkata,"Jadavpur, Kolkata - WBPCB",15-06-2024 06:00:00,22.49929,88.36917,PM10,40,85,57
India,West_Bengal,Kolkata,"Jadavpur, Kolkata - WBPCB",15-06-2024 06:00:00,22.49929,88.36917,CO,22,34,28
India,West_Bengal,Kolkata,"Rabindra Sarobar, Kolkata - WBPCB",15-06-2024 06:00:00,22.51106,88.35142,PM2.5,25,52,38
India,West_Bengal,Kolkata,"Victoria, Kolkata - WBPCB",15-06-2024 06:00:00,22.5448082,88.3403691,PM2.5,28,65,43
India,West_Bengal,Kolkata,"Victoria, Kolkata - WBPCB",15-06-2024 06:00:00,22.5448082,88.3403691,CO,NA,NA,NA
India,West_Bengal,Kolkata,"Victoria, Kolkata - WBPCB",15-06-2024 06:00:00,22.5448082,88.3403691,OZONE,31,64,34
India,Andhra_Pradesh,Amaravati,"Secretariat, Amaravati - APPCB",15-06-2024 06:00:00,16.5150833,80.5181667,PM2.5,5,36,19
India,Andhra_Pradesh,Amaravati,"Secretariat, Amaravati - APPCB",15-06-2024 06:00:00,16.5150833,80.5181667,NH3,3,4,4
India,Andhra_Pradesh,Amaravati,"Secretariat, Amaravati - APPCB",15-06-2024 06:00:00,16.5150833,80.5181667,CO,9,64,36
India,Andhra_Pradesh,Anantapur,"Gulzarpet, Anantapur - APPCB",15-06-2024 06:00:00,14.675886,77.593027,SO2,4,5,4
India,Andhra_Pradesh,Chittoor,"Gangineni Cheruvu, Chittoor - APPCB",15-06-2024 06:00:00,13.204880,79.097889,PM10,36,69,53
India,Andhra_Pradesh,Chittoor,"Gangineni Cheruvu, Chittoor - APPCB",15-06-2024 06:00:00,13.204880,79.097889,OZONE,53,53,53
India,Andhra_Pradesh,Kadapa,"Yerramukkapalli, Kadapa - APPCB",15-06-2024 06:00:00,14.465052,78.824187,CO,7,48,12
India,Andhra_Pradesh,Rajamahendravaram,"Anand Kala Kshetram, Rajamahendravaram - APPCB",15-06-2024 06:00:00,16.9872867,81.7363176,PM10,23,65,43
India,Andhra_Pradesh,Tirupati,"Tirumala, Tirupati - APPCB",15-06-2024 06:00:00,13.67,79.35,PM2.5,16,51,25
India,Andhra_Pradesh,Tirupati,"Tirumala, Tirupati - APPCB",15-06-2024 06:00:00,13.67,79.35,NO2,15,29,20
India,Andhra_Pradesh,Tirupati,"Vaikuntapuram, Tirupati - APPCB",15-06-2024 06:00:00,13.615387,79.409230,PM10,48,384,86
India,Andhra_Pradesh,Vijayawada,"HB Colony, Vijayawada - APPCB",15-06-2024 06:00:00,16.536107,80.594233,NH3,4,4,4
India,Andhra_Pradesh,Vijayawada,"HB Colony, Vijayawada - APPCB",15-06-2024 06:00:00,16.536107,80.594233,SO2,6,7,6
India,Andhra_Pradesh,Vijayawada,"HB Colony, Vijayawada - APPCB",15-06-2024 06:00:00,16.536107,80.594233,CO,36,36,36
India,Andhra_Pradesh,Vijayawada,"HB Colony, Vijayawada - APPCB",15-06-2024 06:00:00,16.536107,80.594233,OZONE,9,35,17
India,Andhra_Pradesh,Vijayawada,"Rajiv Gandhi Park, Vijayawada - APPCB",15-06-2024 06:00:00,16.509717,80.612222,PM10,43,64,53
India,Andhra_Pradesh,Vijayawada,"Rajiv Gandhi Park, Vijayawada - APPCB",15-06-2024 06:00:00,16.509717,80.612222,NO2,15,53,31
India,Andhra_Pradesh,Visakhapatnam,"GVM Corporation, Visakhapatnam - APPCB",15-06-2024 06:00:00,17.72,83.3,NH3,3,6,4
India,Assam,Byrnihat,"Central Academy for SFS, Byrnihat - PCBA",15-06-2024 06:00:00,26.071318,91.87488,NH3,16,20,17
India,Assam,Byrnihat,"Central Academy for SFS, Byrnihat - PCBA",15-06-2024 06:00:00,26.071318,91.87488,CO,4,14,6
India,Assam,Guwahati,"IITG, Guwahati - PCBA",15-06-2024 06:00:00,26.2028636,91.70046436,NO2,NA,NA,NA
India,Assam,Guwahati,"IITG, Guwahati - PCBA",15-06-2024 06:00:00,26.2028636,91.70046436,OZONE,6,30,8
India,Assam,Guwahati,"LGBI Airport, Guwahati - PCBA",15-06-2024 06:00:00,26.10887,91.589544,PM10,NA,NA,NA
India,Assam,Guwahati,"LGBI Airport, Guwahati - PCBA",15-06-2024 06:00:00,26.10887,91.589544,NO2,6,28,15
India,Assam,Guwahati,"LGBI Airport, Guwahati - PCBA",15-06-2024 06:00:00,26.10887,91.589544,OZONE,20,28,21
India,Assam,Guwahati,"Railway Colony, Guwahati - PCBA",15-06-2024 06:00:00,26.181742,91.78063,CO,24,33,27
India,Assam,Nagaon,"Christianpatty, Nagaon - PCBA",15-06-2024 06:00:00,26.349082,92.68449,SO2,7,13,11
India,Assam,Nalbari,"Bata Chowk, Nalbari - PCBA",15-06-2024 06:00:00,26.446912,91.439057,NH3,1,1,1
India,Assam,Nalbari,"Bata Chowk, Nalbari - PCBA",15-06-2024 06:00:00,26.446912,91.439057,CO,8,48,36
India,Assam,Nalbari,"Bata Chowk, Nalbari - PCBA",15-06-2024 06:00:00,26.446912,91.439057,OZONE,21,47,42
India,Assam,Silchar,"Tarapur, Silchar - PCBA",15-06-2024 06:00:00,24.82827,92.79525,PM2.5,26,35,31
India,Assam,Silchar,"Tarapur, Silchar - PCBA",15-06-2024 06:00:00,24.82827,92.79525,CO,27,42,36
India,Assam,Sivasagar,"Girls College, Sivasagar - PCBA",15-06-2024 06:00:00,26.987634,94.636574,PM2.5,28,86,39
India,Assam,Sivasagar,"Girls College, Sivasagar - PCBA",15-06-2024 06:00:00,26.987634,94.636574,PM10,42,64,52
India,Assam,Sivasagar,"Girls College, Sivasagar - PCBA",15-06-2024 06:00:00,26.987634,94.636574,NO2,9,15,10
India,Assam,Sivasagar,"Girls College, Sivasagar - PCBA",15-06-2024 06:00:00,26.987634,94.636574,SO2,3,14,8
India,Bihar,Arrah,"New DM Office, Arrah - BSPCB",15-06-2024 06:00:00,25.5626095,84.663264,PM2.5,20,85,49
India,Bihar,Arrah,"New DM Office, Arrah - BSPCB",15-06-2024 06:00:00,25.5626095,84.663264,CO,12,26,18
India,Bihar,Aurangabad,"Gurdeo Nagar, Aurangabad - BSPCB",15-06-2024 06:00:00,24.75746,84.366208,PM10,NA,NA,NA
India,Bihar,Bettiah,"Kamalnath Nagar, Bettiah - BSPCB",15-06-2024 06:00:00,26.80365,84.51954,SO2,NA,NA,NA
India,Bihar,Bhagalpur,"DM Office_Kachari Chowk, Bhagalpur - BSPCB",15-06-2024 06:00:00,25.251013,86.989001,PM10,58,162,111
India,Bihar,Bhagalpur,"DM Office_Kachari Chowk, Bhagalpur - BSPCB",15-06-2024 06:00:00,25.251013,86.989001,NO2,21,41,31
India,Bihar,Bhagalpur,"Mayaganj, Bhagalpur - BSPCB",15-06-2024 06:00:00,25.265194,87.012947,SO2,19,41,29
India,Bihar,Bhagalpur,"Mayaganj, Bhagalpur - BSPCB",15-06-2024 06:00:00,25.265194,87.012947,OZONE,11,47,17
India,Bihar,Chhapra,"Darshan Nagar, Chhapra - BSPCB",15-06-2024 06:00:00,25.7808257,84.7446768,NO2,1,1,1
India,Bihar,Chhapra,"Darshan Nagar, Chhapra - BSPCB",15-06-2024 06:00:00,25.7808257,84.7446768,CO,28,50,35
India,Bihar,Chhapra,"Darshan Nagar, Chhapra - BSPCB",15-06-2024 06:00:00,25.7808257,84.7446768,OZONE,1,11,2
India,Bihar,Gaya,"Collectorate, Gaya - BSPCB",15-06-2024 06:00:00,24.7955,84.9994,NO2,3,5,4
India,Bihar,Gaya,"Collectorate, Gaya - BSPCB",15-06-2024 06:00:00,24.7955,84.9994,OZONE,50,78,68
India,Bihar,Gaya,"Kareemganj, Gaya - BSPCB",15-06-2024 06:00:00,24.792403,84.992416,PM2.5,45,147,75
India,Bihar,Gaya,"SFTI Kusdihra, Gaya - BSPCB",15-06-2024 06:00:00,24.762518,84.982348,NO2,12,41,20
India,Bihar,Gaya,"SFTI Kusdihra, Gaya - BSPCB",15-06-2024 06:00:00,24.762518,84.982348,CO,10,36,31
India,Bihar,Hajipur,"Industrial Area, Hajipur - BSPCB",15-06-2024 06:00:00,25.697189,85.245900,OZONE,43,175,64
India,Bihar,Katihar,"Mirchaibari, Katihar - BSPCB",15-06-2024 06:00:00,25.560083,87.553265,PM10,21,120,50
India,Bihar,Katihar,"Mirchaibari, Katihar - BSPCB",15-06-2024 06:00:00,25.560083,87.553265,NH3,1,1,1
India,Bihar,Katihar,"Mirchaibari, Katihar - BSPCB",15-06-2024 06:00:00,25.560083,87.553265,OZONE,3,6,4
India,Bihar,Kishanganj,"SDM Office_Khagra, Kishanganj - BSPCB",15-06-2024 06:00:00,26.0881305,87.93840336,CO,5,10,6
India,Bihar,Kishanganj,"SDM Office_Khagra, Kishanganj - BSPCB",15-06-2024 06:00:00,26.0881305,87.93840336,OZONE,27,54,27
India,Bihar,Manguraha,"Forest Rest House, Manguraha - BSPCB",15-06-2024 06:00:00,27.308328,84.531742,PM2.5,NA,NA,NA
India,Bihar,Motihari,"Gandak Colony, Motihari - BSPCB",15-06-2024 06:00:00,26.63086,84.90051,NH3,NA,NA,NA
India,Bihar,Muzaffarpur,"Buddha Colony, Muzaffarpur - BSPCB",15-06-2024 06:00:00,26.11442,85.39813,SO2,1,8,4
India,Bihar,Muzaffarpur,"MIT-Daudpur Kothi, Muzaffarpur - BSPCB",15-06-2024 06:00:00,26.1403345,85.3650192,SO2,9,9,9
India,Bihar,Muzaffarpur,"Muzaffarpur Collectorate, Muzaffarpur - BSPCB",15-06-2024 06:00:00,26.1209,85.3647,PM2.5,19,218,82
India,Bihar,Patna,"DRM Office Danapur, Patna - BSPCB",15-06-2024 06:00:00,25.586562,85.043586,PM2.5,38,319,137
India,Bihar,Patna,"DRM Office Danapur, Patna - BSPCB",15-06-2024 06:00:00,25.586562,85.043586,PM10,79,155,118
India,Bihar,Patna,"IGSC Planetarium Complex, Patna - BSPCB",15-06-2024 06:00:00,25.610369,85.132568,SO2,4,6,5
India,Bihar,Patna,"Muradpur, Patna - BSPCB",15-06-2024 06:00:00,25.619651,85.147382,NO2,13,63,31
India,Bihar,Patna,"Rajbansi Nagar, Patna - BSPCB",15-06-2024 06:00:00,25.599486,85.113666,OZONE,8,66,19
India,Bihar,Purnia,"Mariam Nagar, Purnia - BSPCB",15-06-2024 06:00:00,25.366336,87.117468,PM2.5,13,253,48
India,Bihar,Purnia,"Mariam Nagar, Purnia - BSPCB",15-06-2024 06:00:00,25.366336,87.117468,NO2,4,9,6
India,Bihar,Rajgir,"Dangi Tola, Rajgir - BSPCB",15-06-2024 06:00:00,25.03280,85.41948,NO2,14,16,15
India,Bihar,Rajgir,"Dangi Tola, Rajgir - BSPCB",15-06-2024 06:00:00,25.03280,85.41948,SO2,4,4,4
India,Bihar,Rajgir,"Dangi Tola, Rajgir - BSPCB",15-06-2024 06:00:00,25.03280,85.41948,CO,38,38,38
India,Bihar,Saharsa,"Police Line, Saharsa - BSPCB",15-06-2024 06:00:00,25.892357,86.590325,SO2,16,17,17
India,Bihar,Saharsa,"Police Line, Saharsa - BSPCB",15-06-2024 06:00:00,25.892357,86.590325,CO,54,56,55
India,Bihar,Sasaram,"Dada Peer, Sasaram - BSPCB",15-06-2024 06:00:00,24.952822,84.002396,OZONE,9,56,15
India,Bihar,Siwan,"Chitragupta Nagar, Siwan - BSPCB",15-06-2024 06:00:00,26.2271665,84.3570427,PM2.5,NA,NA,NA
India,Bihar,Siwan,"Chitragupta Nagar, Siwan - BSPCB",15-06-2024 06:00:00,26.2271665,84.3570427,SO2,8,33,28
India,Chandigarh,Chandigarh,"Sector 22, Chandigarh - CPCC",15-06-2024 06:00:00,30.735567,76.775714,NH3,4,24,11
India,Chhattisgarh,Bhilai,"32Bungalows, Bhilai - CECB",15-06-2024 06:00:00,21.194815,81.314770,NO2,10,14,12
India,Chhattisgarh,Bhilai,"Civic Center, Bhilai - Bhilai Steel Plant",15-06-2024 06:00:00,21.185571,81.343175,PM2.5,19,32,26
India,Chhattisgarh,Bhilai,"Civic Center, Bhilai - Bhilai Steel Plant",15-06-2024 06:00:00,21.185571,81.343175,NO2,7,8,8
India,Chhattisgarh,Bhilai,"Hathkhoj, Bhilai - CECB",15-06-2024 06:00:00,21.224231,81.408350,NH3,9,10,10
India,Chhattisgarh,Bhilai,"Hathkhoj, Bhilai - CECB",15-06-2024 06:00:00,21.224231,81.408350,CO,6,23,11
India,Chhattisgarh,Bhilai,"Hathkhoj, Bhilai - CECB",15-06-2024 06:00:00,21.224231,81.408350,OZONE,26,41,30
India,Chhattisgarh,Bilaspur,"Mangala, Bilaspur - NTPC",15-06-2024 06:00:00,22.08815,82.13737,PM2.5,25,75,50
India,Chhattisgarh,Chhal,"Nawapara SECL Colony, Chhal - CECB",15-06-2024 06:00:00,22.118125,83.140608,PM10,37,184,67
India,Chhattisgarh,Chhal,"Nawapara SECL Colony, Chhal - CECB",15-06-2024 06:00:00,22.118125,83.140608,NO2,16,32,21
India,Chhattisgarh,Chhal,"Nawapara SECL Colony, Chhal - CECB",15-06-2024 06:00:00,22.118125,83.140608,OZONE,38,168,48
India,Chhattisgarh,Korba,"Rampur, Korba - CECB",15-06-2024 06:00:00,22.368195,82.746431,OZONE,5,36,6
India,Chhattisgarh,Kunjemura,"OP Jindal School, Kunjemura - CECB",15-06-2024 06:00:00,22.126650,83.483212,SO2,1,5,3
India,Chhattisgarh,Kunjemura,"OP Jindal School, Kunjemura - CECB",15-06-2024 06:00:00,22.126650,83.483212,CO,22,46,34
India,Chhattisgarh,Milupara,"Govt. Higher Secondary School, Milupara - CECB",15-06-2024 06:00:00,22.1910172,83.5197009,PM2.5,24,56,39
India,Chhattisgarh,Milupara,"Govt. Higher Secondary School, Milupara - CECB",15-06-2024 06:00:00,22.1910172,83.5197009,PM10,53,99,69
India,Chhattisgarh,Milupara,"Govt. Higher Secondary School, Milupara - CECB",15-06-2024 06:00:00,22.1910172,83.5197009,NH3,NA,NA,NA
India,Chhattisgarh,Milupara,"Govt. Higher Secondary School, Milupara - CECB",15-06-2024 06:00:00,22.1910172,83.5197009,SO2,1,37,14
India,Chhattisgarh,Milupara,"Govt. Higher Secondary School, Milupara - CECB",15-06-2024 06:00:00,22.1910172,83.5197009,CO,5,48,6
India,Chhattisgarh,Raipur,"Bhatagaon New ISBT, Raipur - CECB",15-06-2024 06:00:00,21.219665,81.630094,NO2,4,5,4
India,Chhattisgarh,Raipur,"Bhatagaon New ISBT, Raipur - CECB",15-06-2024 06:00:00,21.219665,81.630094,NH3,2,2,2
India,Chhattisgarh,Raipur,"Krishak Nagar, Raipur - CECB",15-06-2024 06:00:00,21.237755,81.705301,PM10,20,68,42
India,Chhattisgarh,Raipur,"Siltara Phase-II, Raipur - CECB",15-06-2024 06:00:00,21.371751,81.664929,SO2,NA,NA,NA
India,Chhattisgarh,Raipur,"Siltara Phase-II, Raipur - CECB",15-06-2024 06:00:00,21.371751,81.664929,OZONE,NA,NA,NA
India,Chhattisgarh,Tumidih,"OP Jindal Industrial Park, Tumidih - CECB",15-06-2024 06:00:00,22.06631475,83.33820077,PM2.5,NA,NA,NA
India,Chhattisgarh,Tumidih,"OP Jindal Industrial Park, Tumidih - CECB",15-06-2024 06:00:00,22.06631475,83.33820077,PM10,NA,NA,NA
India,Chhattisgarh,Tumidih,"OP Jindal Industrial Park, Tumidih - CECB",15-06-2024 06:00:00,22.06631475,83.33820077,SO2,NA,NA,NA
India,Chhattisgarh,Tumidih,"OP Jindal Industrial Park, Tumidih - CECB",15-06-2024 06:00:00,22.06631475,83.33820077,OZONE,NA,NA,NA
India,Delhi,Delhi,"Alipur, Delhi - DPCC",15-06-2024 06:00:00,28.815329,77.153010,PM2.5,45,127,71
India,Delhi,Delhi,"Anand Vihar, Delhi - DPCC",15-06-2024 06:00:00,28.647622,77.3158090,NH3,NA,NA,NA
India,Delhi,Delhi,"Anand Vihar, Delhi - DPCC",15-06-2024 06:00:00,28.647622,77.3158090,CO,137,142,140
India,Delhi,Delhi,"Ashok Vihar, Delhi - DPCC",15-06-2024 06:00:00,28.695381,77.181665,OZONE,37,86,51
India,Delhi,Delhi,"Burari Crossing, Delhi - IMD",15-06-2024 06:00:00,28.7256504,77.2011573,NO2,11,16,14
India,Delhi,Delhi,"Burari Crossing, Delhi - IMD",15-06-2024 06:00:00,28.7256504,77.2011573,CO,16,21,20
India,Delhi,Delhi,"Burari Crossing, Delhi - IMD",15-06-2024 06:00:00,28.7256504,77.2011573,OZONE,24,49,39
India,Delhi,Delhi,"CRRI Mathura Road, Delhi - IMD",15-06-2024 06:00:00,28.5512005,77.2735737,NO2,18,38,30
India,Delhi,Delhi,"CRRI Mathura Road, Delhi - IMD",15-06-2024 06:00:00,28.5512005,77.2735737,OZONE,6,34,12
India,Delhi,Delhi,"Chandni Chowk, Delhi - IITM",15-06-2024 06:00:00,28.656756,77.227234,PM2.5,42,356,302
India,Delhi,Delhi,"DTU, Delhi - CPCB",15-06-2024 06:00:00,28.7500499,77.1112615,PM10,108,500,225
India,Delhi,Delhi,"DTU, Delhi - CPCB",15-06-2024 06:00:00,28.7500499,77.1112615,NH3,7,12,8
India,Delhi,Delhi,"Dr. Karni Singh Shooting Range, Delhi - DPCC",15-06-2024 06:00:00,28.498571,77.264840,PM2.5,30,65,44
India,Delhi,Delhi,"Dr. Karni Singh Shooting Range, Delhi - DPCC",15-06-2024 06:00:00,28.498571,77.264840,PM10,83,371,167
India,Delhi,Delhi,"Dwarka-Sector 8, Delhi - DPCC ",15-06-2024 06:00:00,28.5710274,77.0719006,PM2.5,28,95,55
India,Delhi,Delhi,"Dwarka-Sector 8, Delhi - DPCC ",15-06-2024 06:00:00,28.5710274,77.0719006,CO,22,40,29
India,Delhi,Delhi,"Dwarka-Sector 8, Delhi - DPCC ",15-06-2024 06:00:00,28.5710274,77.0719006,OZONE,24,83,48
India,Delhi,Delhi,"IGI Airport (T3), Delhi - IMD",15-06-2024 06:00:00,28.5627763,77.1180053,OZONE,5,33,9
India,Delhi,Delhi,"IHBAS, Dilshad Garden, Delhi - CPCB",15-06-2024 06:00:00,28.6811736,77.3025234,NO2,18,44,28
India,Delhi,Delhi,"IHBAS, Dilshad Garden, Delhi - CPCB",15-06-2024 06:00:00,28.6811736,77.3025234,NH3,5,8,7
India,Delhi,Delhi,"IHBAS, Dilshad Garden, Delhi - CPCB",15-06-2024 06:00:00,28.6811736,77.3025234,CO,10,111,35
India,Delhi,Delhi,"ITO, Delhi - CPCB",15-06-2024 06:00:00,28.628624,77.241060,SO2,3,18,12
India,Delhi,Delhi,"Jawaharlal Nehru Stadium, Delhi - DPCC",15-06-2024 06:00:00,28.580280,77.233829,PM10,64,415,174
India,Delhi,Delhi,"Major Dhyan Chand National Stadium, Delhi - DPCC",15-06-2024 06:00:00,28.611281,77.237738,SO2,4,19,11
India,Delhi,Delhi,"Mandir Marg, Delhi - DPCC",15-06-2024 06:00:00,28.636429,77.201067,PM2.5,20,72,40
India,Delhi,Delhi,"Mandir Marg, Delhi - DPCC",15-06-2024 06:00:00,28.636429,77.201067,PM10,64,256,134
India,Delhi,Delhi,"Mundka, Delhi - DPCC",15-06-2024 06:00:00,28.684678,77.076574,PM2.5,42,130,70
India,Delhi,Delhi,"Mundka, Delhi - DPCC",15-06-2024 06:00:00,28.684678,77.076574,SO2,6,21,11
India,Delhi,Delhi,"Mundka, Delhi - DPCC",15-06-2024 06:00:00,28.684678,77.076574,CO,22,46,41
India,Delhi,Delhi,"NSIT Dwarka, Delhi - CPCB",15-06-2024 06:00:00,28.60909,77.0325413,NH3,5,8,7
India,Delhi,Delhi,"NSIT Dwarka, Delhi - CPCB",15-06-2024 06:00:00,28.60909,77.0325413,CO,36,75,53
India,Delhi,Delhi,"NSIT Dwarka, Delhi - CPCB",15-06-2024 06:00:00,28.60909,77.0325413,OZONE,16,56,31
India,Delhi,Delhi,"Najafgarh, Delhi - DPCC",15-06-2024 06:00:00,28.570173,76.933762,NH3,5,8,6
India,Delhi,Delhi,"Najafgarh, Delhi - DPCC",15-06-2024 06:00:00,28.570173,76.933762,CO,40,49,44
India,Delhi,Delhi,"Nehru Nagar, Delhi - DPCC",15-06-2024 06:00:00,28.567890,77.250515,PM2.5,13,75,46
India,Delhi,Delhi,"Nehru Nagar, Delhi - DPCC",15-06-2024 06:00:00,28.567890,77.250515,NO2,6,36,18
India,Delhi,Delhi,"Nehru Nagar, Delhi - DPCC",15-06-2024 06:00:00,28.567890,77.250515,NH3,3,9,5
India,Delhi,Delhi,"Nehru Nagar, Delhi - DPCC",15-06-2024 06:00:00,28.567890,77.250515,CO,54,72,58
India,Delhi,Delhi,"North Campus, DU, Delhi - IMD",15-06-2024 06:00:00,28.6573814,77.1585447,CO,54,73,70
India,Delhi,Delhi,"Punjabi Bagh, Delhi - DPCC",15-06-2024 06:00:00,28.674045,77.131023,NH3,3,5,4
India,Delhi,Delhi,"Punjabi Bagh, Delhi - DPCC",15-06-2024 06:00:00,28.674045,77.131023,CO,39,47,42
India,Delhi,Delhi,"Pusa, Delhi - IMD",15-06-2024 06:00:00,28.636110,77.173332,PM2.5,10,384,177
India,Delhi,Delhi,"Pusa, Delhi - IMD",15-06-2024 06:00:00,28.636110,77.173332,NO2,11,23,14
India,Delhi,Delhi,"R K Puram, Delhi - DPCC",15-06-2024 06:00:00,28.563262,77.186937,OZONE,30,107,59
India,Delhi,Delhi,"Rohini, Delhi - DPCC",15-06-2024 06:00:00,28.732528,77.119920,PM10,102,432,213
India,Delhi,Delhi,"Rohini, Delhi - DPCC",15-06-2024 06:00:00,28.732528,77.119920,NO2,11,35,21
India,Delhi,Delhi,"Rohini, Delhi - DPCC",15-06-2024 06:00:00,28.732528,77.119920,NH3,8,13,10
India,Delhi,Delhi,"Rohini, Delhi - DPCC",15-06-2024 06:00:00,28.732528,77.119920,SO2,9,30,16
India,Delhi,Delhi,"Rohini, Delhi - DPCC",15-06-2024 06:00:00,28.732528,77.119920,CO,10,24,18
India,Delhi,Delhi,"Sirifort, Delhi - CPCB",15-06-2024 06:00:00,28.5504249,77.2159377,PM2.5,43,110,63
India,Delhi,Delhi,"Sirifort, Delhi - CPCB",15-06-2024 06:00:00,28.5504249,77.2159377,SO2,48,50,49
India,Delhi,Delhi,"Sirifort, Delhi - CPCB",15-06-2024 06:00:00,28.5504249,77.2159377,CO,10,18,13
India,Delhi,Delhi,"Sirifort, Delhi - CPCB",15-06-2024 06:00:00,28.5504249,77.2159377,OZONE,10,40,14
India,Delhi,Delhi,"Sonia Vihar, Delhi - DPCC",15-06-2024 06:00:00,28.710508,77.249485,PM10,95,356,178
India,Delhi,Delhi,"Sonia Vihar, Delhi - DPCC",15-06-2024 06:00:00,28.710508,77.249485,NH3,5,8,6
India,Delhi,Delhi,"Sri Aurobindo Marg, Delhi - DPCC",15-06-2024 06:00:00,28.531346,77.190156,PM2.5,32,73,48
India,Delhi,Delhi,"Vivek Vihar, Delhi - DPCC",15-06-2024 06:00:00,28.672342,77.315260,PM10,95,420,226
India,Delhi,Delhi,"Vivek Vihar, Delhi - DPCC",15-06-2024 06:00:00,28.672342,77.315260,NH3,16,17,16
India,Delhi,Delhi,"Wazirpur, Delhi - DPCC",15-06-2024 06:00:00,28.699793,77.165453,PM10,94,443,208
India,Gujarat,Ahmedabad,"Chandkheda, Ahmedabad - IITM",15-06-2024 06:00:00,23.107969,72.574648,PM10,24,101,49
India,Gujarat,Ahmedabad,"Chandkheda, Ahmedabad - IITM",15-06-2024 06:00:00,23.107969,72.574648,NO2,64,95,91
India,Gujarat,Ahmedabad,"Gyaspur, Ahmedabad - IITM",15-06-2024 06:00:00,22.977134,72.553024,PM2.5,41,282,98
India,Gujarat,Ahmedabad,"Gyaspur, Ahmedabad - IITM",15-06-2024 06:00:00,22.977134,72.553024,PM10,42,178,88
India,Gujarat,Ahmedabad,"Gyaspur, Ahmedabad - IITM",15-06-2024 06:00:00,22.977134,72.553024,CO,32,59,47
India,Gujarat,Ahmedabad,"Gyaspur, Ahmedabad - IITM",15-06-2024 06:00:00,22.977134,72.553024,OZONE,2,57,6
India,Gujarat,Ahmedabad,"Raikhad, Ahmedabad - IITM",15-06-2024 06:00:00,23.020509,72.579261,PM2.5,8,305,59
India,Gujarat,Ahmedabad,"Raikhad, Ahmedabad - IITM",15-06-2024 06:00:00,23.020509,72.579261,CO,14,33,23
India,Gujarat,Ahmedabad,"Rakhial, Ahmedabad - IITM",15-06-2024 06:00:00,23.016834,72.625775,CO,NA,NA,NA
India,Gujarat,Ahmedabad,"SVPI Airport Hansol, Ahmedabad - IITM",15-06-2024 06:00:00,23.076793,72.627874,NH3,1,4,2
India,Gujarat,Ahmedabad,"SVPI Airport Hansol, Ahmedabad - IITM",15-06-2024 06:00:00,23.076793,72.627874,CO,4,30,7
India,Gujarat,Ankleshwar,"GIDC, Ankleshwar - GPCB",15-06-2024 06:00:00,21.613267,73.010555,PM10,26,54,41
India,Gujarat,Gandhinagar,"GIFT City, Gandhinagar - IITM",15-06-2024 06:00:00,23.163798,72.677768,NH3,NA,NA,NA
India,Gujarat,Surat,"Science Center, Surat - SMC",15-06-2024 06:00:00,21.170046,72.795405,CO,45,72,66
India,Haryana,Ambala,"Patti Mehar, Ambala - HSPCB",15-06-2024 06:00:00,30.379589,76.778328,NH3,5,12,8
India,Haryana,Ambala,"Patti Mehar, Ambala - HSPCB",15-06-2024 06:00:00,30.379589,76.778328,OZONE,39,59,48
India,Haryana,Bahadurgarh,"Arya Nagar, Bahadurgarh - HSPCB",15-06-2024 06:00:00,28.6701,76.9254,CO,92,102,98
India,Haryana,Ballabgarh,"Nathu Colony, Ballabgarh - HSPCB",15-06-2024 06:00:00,28.3419248,77.319699,NH3,1,2,1
India,Haryana,Ballabgarh,"Nathu Colony, Ballabgarh - HSPCB",15-06-2024 06:00:00,28.3419248,77.319699,CO,5,79,19
India,Haryana,Ballabgarh,"Nathu Colony, Ballabgarh - HSPCB",15-06-2024 06:00:00,28.3419248,77.319699,OZONE,15,75,36
India,Haryana,Charkhi Dadri,"Mini Secretariat, Charkhi Dadri - HSPCB",15-06-2024 06:00:00,28.593883,76.270653,PM2.5,28,419,205
India,Haryana,Dharuhera,"Municipal Corporation Office, Dharuhera -  HSPCB",15-06-2024 06:00:00,28.206800,76.799700,PM10,25,86,53
India,Haryana,Dharuhera,"Municipal Corporation Office, Dharuhera -  HSPCB",15-06-2024 06:00:00,28.206800,76.799700,NH3,9,26,18
India,Haryana,Dharuhera,"Municipal Corporation Office, Dharuhera -  HSPCB",15-06-2024 06:00:00,28.206800,76.799700,CO,8,117,15
India,Haryana,Faridabad,"New Industrial Town, Faridabad - HSPCB",15-06-2024 06:00:00,28.39072,77.30059,OZONE,20,123,20
India,Haryana,Faridabad,"Sector 30, Faridabad - HSPCB",15-06-2024 06:00:00,28.4417,77.3217,SO2,5,38,7
India,Haryana,Faridabad,"Sector- 16A, Faridabad - HSPCB",15-06-2024 06:00:00,28.4088421,77.3099081,CO,NA,NA,NA
India,Haryana,Faridabad,"Sector- 16A, Faridabad - HSPCB",15-06-2024 06:00:00,28.4088421,77.3099081,OZONE,NA,NA,NA
India,Haryana,Fatehabad,"Huda Sector, Fatehabad - HSPCB",15-06-2024 06:00:00,29.503664,75.467934,NO2,28,31,30
India,Haryana,Fatehabad,"Huda Sector, Fatehabad - HSPCB",15-06-2024 06:00:00,29.503664,75.467934,OZONE,10,26,18
India,Haryana,Gurugram,"NISE Gwal Pahari, Gurugram - IMD",15-06-2024 06:00:00,28.422681,77.148944,PM10,40,465,181
India,Haryana,Gurugram,"Sector-51, Gurugram - HSPCB",15-06-2024 06:00:00,28.4227,77.0667,NO2,13,29,23
India,Haryana,Gurugram,"Teri Gram, Gurugram - HSPCB",15-06-2024 06:00:00,28.4275,77.1465,PM2.5,163,445,286
India,Haryana,Gurugram,"Teri Gram, Gurugram - HSPCB",15-06-2024 06:00:00,28.4275,77.1465,NO2,1,61,36
India,Haryana,Gurugram,"Teri Gram, Gurugram - HSPCB",15-06-2024 06:00:00,28.4275,77.1465,OZONE,50,63,53
India,Haryana,Gurugram,"Vikas Sadan, Gurugram - HSPCB",15-06-2024 06:00:00,28.4501238,77.0263051,NO2,5,25,14
India,Haryana,Gurugram,"Vikas Sadan, Gurugram - HSPCB",15-06-2024 06:00:00,28.4501238,77.0263051,SO2,7,88,37
India,Haryana,Gurugram,"Vikas Sadan, Gurugram - HSPCB",15-06-2024 06:00:00,28.4501238,77.0263051,CO,49,129,68
India,Haryana,Hisar,"Urban Estate-II, Hisar - HSPCB",15-06-2024 06:00:00,29.140560,75.744941,PM2.5,53,291,106
India,Haryana,Hisar,"Urban Estate-II, Hisar - HSPCB",15-06-2024 06:00:00,29.140560,75.744941,PM10,55,158,128
India,Haryana,Jind,"Police Lines, Jind - HSPCB",15-06-2024 06:00:00,29.307814,76.337619,NO2,1,44,7
India,Haryana,Karnal,"Sector-12, Karnal - HSPCB",15-06-2024 06:00:00,29.695300,77.002700,PM2.5,1,130,87
India,Haryana,Karnal,"Sector-12, Karnal - HSPCB",15-06-2024 06:00:00,29.695300,77.002700,SO2,12,13,12
India,Haryana,Karnal,"Sector-12, Karnal - HSPCB",15-06-2024 06:00:00,29.695300,77.002700,CO,6,32,15
India,Haryana,Karnal,"Sector-12, Karnal - HSPCB",15-06-2024 06:00:00,29.695300,77.002700,OZONE,1,29,27
India,Haryana,Mandikhera,"General Hospital, Mandikhera - HSPCB",15-06-2024 06:00:00,27.9002,76.9938,CO,24,88,34
India,Haryana,Manesar,"Sector-2 IMT, Manesar - HSPCB",15-06-2024 06:00:00,28.360699,76.936090,PM10,9,267,86
India,Haryana,Narnaul,"Shastri Nagar, Narnaul - HSPCB",15-06-2024 06:00:00,28.060249,76.113115,PM2.5,27,52,41
India,Haryana,Panchkula,"Sector-6, Panchkula - HSPCB ",15-06-2024 06:00:00,30.7057778,76.8531805555555,SO2,2,81,36
India,Haryana,Panipat,"Sector-18, Panipat - HSPCB",15-06-2024 06:00:00,29.432304,76.972765,NO2,31,32,31
India,Haryana,Panipat,"Sector-18, Panipat - HSPCB",15-06-2024 06:00:00,29.432304,76.972765,CO,24,26,25
India,Haryana,Rohtak,"MD University, Rohtak - HSPCB",15-06-2024 06:00:00,28.52123,76.37138,CO,36,51,43
India,Haryana,Sirsa,"F-Block, Sirsa - HSPCB",15-06-2024 06:00:00,29.536400,75.015800,PM10,96,135,114
India,Haryana,Sirsa,"F-Block, Sirsa - HSPCB",15-06-2024 06:00:00,29.536400,75.015800,NO2,9,10,10
India,Haryana,Sirsa,"F-Block, Sirsa - HSPCB",15-06-2024 06:00:00,29.536400,75.015800,SO2,13,18,15
India,Haryana,Sonipat,"Murthal, Sonipat - HSPCB",15-06-2024 06:00:00,29.027200,77.062100,PM10,47,405,140
India,Haryana,Yamuna Nagar,"Gobind Pura, Yamuna Nagar - HSPCB",15-06-2024 06:00:00,30.1480566,77.2893471,PM2.5,86,160,125
India,Haryana,Yamuna Nagar,"Gobind Pura, Yamuna Nagar - HSPCB",15-06-2024 06:00:00,30.1480566,77.2893471,NH3,1,6,4
India,Karnataka,Bagalkot,"Vidayagiri, Bagalkot - KSPCB",15-06-2024 06:00:00,16.172806,75.659694,NH3,1,2,1
India,Karnataka,Bagalkot,"Vidayagiri, Bagalkot - KSPCB",15-06-2024 06:00:00,16.172806,75.659694,SO2,1,9,7
India,Karnataka,Bagalkot,"Vidayagiri, Bagalkot - KSPCB",15-06-2024 06:00:00,16.172806,75.659694,CO,20,52,34
India,Karnataka,Bagalkot,"Vidayagiri, Bagalkot - KSPCB",15-06-2024 06:00:00,16.172806,75.659694,OZONE,14,31,17
India,Karnataka,Belgaum,"Ramteerth Nagar, Belgaum - KSPCB",15-06-2024 06:00:00,15.888653,74.541751,CO,37,46,43
India,Karnataka,Bengaluru,"Bapuji Nagar, Bengaluru - KSPCB",15-06-2024 06:00:00,12.951913,77.539784,PM2.5,24,84,45
India,Karnataka,Bengaluru,"Bapuji Nagar, Bengaluru - KSPCB",15-06-2024 06:00:00,12.951913,77.539784,SO2,6,8,7
India,Karnataka,Bengaluru,"City Railway Station, Bengaluru - KSPCB",15-06-2024 06:00:00,12.9756843,77.5660749,SO2,NA,NA,NA
India,Karnataka,Bengaluru,"Hebbal, Bengaluru - KSPCB",15-06-2024 06:00:00,13.029152,77.585901,PM10,25,56,36
India,Karnataka,Bengaluru,"Hebbal, Bengaluru - KSPCB",15-06-2024 06:00:00,13.029152,77.585901,OZONE,6,54,7
India,Karnataka,Bengaluru,"Hombegowda Nagar, Bengaluru - KSPCB",15-06-2024 06:00:00,12.938539,77.590100,NO2,8,25,14
India,Karnataka,Bengaluru,"Hombegowda Nagar, Bengaluru - KSPCB",15-06-2024 06:00:00,12.938539,77.590100,CO,14,54,21
India,Karnataka,Bengaluru,"Jayanagar 5th Block, Bengaluru - KSPCB",15-06-2024 06:00:00,12.920984,77.584908,PM2.5,18,500,121
India,Karnataka,Bengaluru,"Jigani, Bengaluru - KSPCB",15-06-2024 06:00:00,12.7816279,77.6299145,NH3,4,4,4
India,Karnataka,Bengaluru,"Peenya, Bengaluru - CPCB",15-06-2024 06:00:00,13.0270199,77.494094,NO2,15,28,21
India,Karnataka,Bengaluru,"RVCE-Mailasandra, Bengaluru - KSPCB",15-06-2024 06:00:00,12.921418,77.502466,NO2,16,17,17
India,Karnataka,Bengaluru,"RVCE-Mailasandra, Bengaluru - KSPCB",15-06-2024 06:00:00,12.921418,77.502466,SO2,6,8,7
India,Karnataka,Bengaluru,"RVCE-Mailasandra, Bengaluru - KSPCB",15-06-2024 06:00:00,12.921418,77.502466,CO,51,72,63
India,Karnataka,Bengaluru,"Sanegurava Halli, Bengaluru - KSPCB",15-06-2024 06:00:00,12.990328,77.5431385,SO2,2,4,3
India,Karnataka,Bengaluru,"Shivapura_Peenya, Bengaluru - KSPCB",15-06-2024 06:00:00,13.0246342,77.5080115,PM10,34,77,57
India,Karnataka,Chikkaballapur,"Chikkaballapur Rural, Chikkaballapur - KSPCB",15-06-2024 06:00:00,13.428828,77.731418,NO2,4,11,7
India,Karnataka,Chikkaballapur,"Chikkaballapur Rural, Chikkaballapur - KSPCB",15-06-2024 06:00:00,13.428828,77.731418,NH3,1,1,1
India,Karnataka,Chikkaballapur,"Chikkaballapur Rural, Chikkaballapur - KSPCB",15-06-2024 06:00:00,13.428828,77.731418,CO,16,28,17
India,Karnataka,Chikkaballapur,"Chikkaballapur Rural, Chikkaballapur - KSPCB",15-06-2024 06:00:00,13.428828,77.731418,OZONE,25,25,25
India,Karnataka,Chikkamagaluru,"Kalyana Nagara, Chikkamagaluru - KSPCB",15-06-2024 06:00:00,13.328028,75.797056,NO2,19,31,25
India,Karnataka,Chikkamagaluru,"Kalyana Nagara, Chikkamagaluru - KSPCB",15-06-2024 06:00:00,13.328028,75.797056,SO2,1,5,3
India,Karnataka,Davanagere,"Devaraj Urs Badavane, Davanagere - KSPCB",15-06-2024 06:00:00,14.475800,75.905200,NO2,8,14,10
