country,state,city,station,last_update,latitude,longitude,pollutant_id,pollutant_min,pollutant_max,pollutant_avg
India,Andhra_Pradesh,Anantapur,"Gulzarpet, Anantapur - APPCB",01-03-2024 22:00:00,14.675886,77.593027,CO,30,60,37
India,Andhra_Pradesh,Anantapur,"Gulzarpet, Anantapur - APPCB",01-03-2024 22:00:00,14.675886,77.593027,OZONE,8,48,39
India,Andhra_Pradesh,Chittoor,"Gangineni Cheruvu, Chittoor - APPCB",01-03-2024 22:00:00,13.204880,79.097889,PM2.5,NA,NA,NA
India,Andhra_Pradesh,Chittoor,"Gangineni Cheruvu, Chittoor - APPCB",01-03-2024 22:00:00,13.204880,79.097889,PM10,NA,NA,NA
India,Andhra_Pradesh,Chittoor,"Gangineni Cheruvu, Chittoor - APPCB",01-03-2024 22:00:00,13.204880,79.097889,NH3,NA,NA,NA
India,Andhra_Pradesh,Kadapa,"Yerramukkapalli, Kadapa - APPCB",01-03-2024 22:00:00,14.465052,78.824187,CO,10,30,14
India,Andhra_Pradesh,Tirupati,"Tirumala, Tirupati - APPCB",01-03-2024 22:00:00,13.67,79.35,NO2,23,60,39
India,Andhra_Pradesh,Tirupati,"Tirumala, Tirupati - APPCB",01-03-2024 22:00:00,13.67,79.35,NH3,1,2,1
India,Andhra_Pradesh,Tirupati,"Vaikuntapuram, Tirupati - APPCB",01-03-2024 22:00:00,13.615387,79.409230,PM10,17,422,80
India,Andhra_Pradesh,Tirupati,"Vaikuntapuram, Tirupati - APPCB",01-03-2024 22:00:00,13.615387,79.409230,SO2,4,5,5
India,Andhra_Pradesh,Vijayawada,"HB Colony, Vijayawada - APPCB",01-03-2024 22:00:00,16.536107,80.594233,SO2,3,4,3
India,Andhra_Pradesh,Vijayawada,"HB Colony, Vijayawada - APPCB",01-03-2024 22:00:00,16.536107,80.594233,OZONE,1,31,19
India,Andhra_Pradesh,Vijayawada,"Kanuru, Vijayawada - APPCB",01-03-2024 22:00:00,16.486692,80.699436,NH3,1,1,1
India,Andhra_Pradesh,Vijayawada,"Kanuru, Vijayawada - APPCB",01-03-2024 22:00:00,16.486692,80.699436,CO,48,48,48
India,Andhra_Pradesh,Vijayawada,"Rajiv Nagar, Vijayawada - APPCB",01-03-2024 22:00:00,16.554731,80.649110,OZONE,23,47,38
India,Andhra_Pradesh,Visakhapatnam,"GVM Corporation, Visakhapatnam - APPCB",01-03-2024 22:00:00,17.72,83.3,SO2,9,24,13
India,Andhra_Pradesh,Visakhapatnam,"GVM Corporation, Visakhapatnam - APPCB",01-03-2024 22:00:00,17.72,83.3,CO,6,60,21
India,Arunachal_Pradesh,Naharlagun,"Naharlagun, Naharlagun - APSPCB",01-03-2024 22:00:00,27.103358,93.679645,PM10,36,147,69
India,Arunachal_Pradesh,Naharlagun,"Naharlagun, Naharlagun - APSPCB",01-03-2024 22:00:00,27.103358,93.679645,NO2,3,3,3
India,Arunachal_Pradesh,Naharlagun,"Naharlagun, Naharlagun - APSPCB",01-03-2024 22:00:00,27.103358,93.679645,SO2,4,4,4
India,Assam,Byrnihat,"Central Academy for SFS, Byrnihat - PCBA",01-03-2024 22:00:00,26.071318,91.87488,PM2.5,NA,NA,NA
India,Assam,Byrnihat,"Central Academy for SFS, Byrnihat - PCBA",01-03-2024 22:00:00,26.071318,91.87488,SO2,9,11,9
India,Assam,Guwahati,"IITG, Guwahati - PCBA",01-03-2024 22:00:00,26.2028636,91.70046436,CO,12,28,16
India,Assam,Guwahati,"LGBI Airport, Guwahati - PCBA",01-03-2024 22:00:00,26.10887,91.589544,PM2.5,140,329,259
India,Assam,Guwahati,"Pan Bazaar, Guwahati - PCBA",01-03-2024 22:00:00,26.187500,91.744194,PM10,106,334,164
India,Assam,Guwahati,"Pan Bazaar, Guwahati - PCBA",01-03-2024 22:00:00,26.187500,91.744194,NH3,5,6,6
India,Assam,Guwahati,"Pan Bazaar, Guwahati - PCBA",01-03-2024 22:00:00,26.187500,91.744194,OZONE,17,18,18
India,Assam,Nagaon,"Christianpatty, Nagaon - PCBA",01-03-2024 22:00:00,26.349082,92.68449,NH3,2,43,6
India,Assam,Nalbari,"Bata Chowk, Nalbari - PCBA",01-03-2024 22:00:00,26.446912,91.439057,PM2.5,70,412,183
India,Assam,Silchar,"Tarapur, Silchar - PCBA",01-03-2024 22:00:00,24.82827,92.79525,PM2.5,46,70,54
India,Assam,Sivasagar,"Girls College, Sivasagar - PCBA",01-03-2024 22:00:00,26.987634,94.636574,CO,14,65,26
India,Bihar,Araria,"Kharahiya Basti, Araria - BSPCB",01-03-2024 22:00:00,26.146529,87.454184,PM10,114,280,167
India,Bihar,Arrah,"New DM Office, Arrah - BSPCB",01-03-2024 22:00:00,25.5626095,84.663264,NH3,4,6,5
India,Bihar,Aurangabad,"Gurdeo Nagar, Aurangabad - BSPCB",01-03-2024 22:00:00,24.75746,84.366208,CO,38,72,71
India,Bihar,Aurangabad,"Gurdeo Nagar, Aurangabad - BSPCB",01-03-2024 22:00:00,24.75746,84.366208,OZONE,2,77,34
India,Bihar,Bettiah,"Kamalnath Nagar, Bettiah - BSPCB",01-03-2024 22:00:00,26.80365,84.51954,NH3,3,3,3
India,Bihar,Bettiah,"Kamalnath Nagar, Bettiah - BSPCB",01-03-2024 22:00:00,26.80365,84.51954,CO,62,64,63
India,Bihar,Bhagalpur,"DM Office_Kachari Chowk, Bhagalpur - BSPCB",01-03-2024 22:00:00,25.251013,86.989001,PM10,NA,NA,NA
India,Bihar,Bhagalpur,"DM Office_Kachari Chowk, Bhagalpur - BSPCB",01-03-2024 22:00:00,25.251013,86.989001,CO,22,97,62
India,Bihar,Bihar Sharif,"D M Colony, Bihar Sharif - BSPCB",01-03-2024 22:00:00,25.204762,85.514960,NH3,NA,NA,NA
India,Bihar,Buxar,"Charitra Van, Buxar - BSPCB (Formerly known as Central Jail)",01-03-2024 22:00:00,25.567520,83.966379,PM10,NA,NA,NA
India,Bihar,Buxar,"Charitra Van, Buxar - BSPCB (Formerly known as Central Jail)",01-03-2024 22:00:00,25.567520,83.966379,NH3,1,3,2
India,Bihar,Buxar,"Charitra Van, Buxar - BSPCB (Formerly known as Central Jail)",01-03-2024 22:00:00,25.567520,83.966379,SO2,16,18,17
India,Bihar,Chhapra,"Darshan Nagar, Chhapra - BSPCB",01-03-2024 22:00:00,25.7808257,84.7446768,CO,30,57,50
India,Bihar,Gaya,"Collectorate, Gaya - BSPCB",01-03-2024 22:00:00,24.7955,84.9994,NO2,1,3,2
India,Bihar,Gaya,"Collectorate, Gaya - BSPCB",01-03-2024 22:00:00,24.7955,84.9994,SO2,5,29,13
India,Bihar,Gaya,"Kareemganj, Gaya - BSPCB",01-03-2024 22:00:00,24.792403,84.992416,OZONE,2,33,11
India,Bihar,Hajipur,"Industrial Area, Hajipur - BSPCB",01-03-2024 22:00:00,25.697189,85.245900,PM2.5,31,170,65
India,Bihar,Katihar,"Mirchaibari, Katihar - BSPCB",01-03-2024 22:00:00,25.560083,87.553265,PM10,23,178,101
India,Bihar,Kishanganj,"SDM Office_Khagra, Kishanganj - BSPCB",01-03-2024 22:00:00,26.0881305,87.93840336,CO,2,22,10
India,Bihar,Motihari,"Gandak Colony, Motihari - BSPCB",01-03-2024 22:00:00,26.63086,84.90051,PM2.5,33,180,83
India,Bihar,Munger,"Town Hall, Munger - BSPCB",01-03-2024 22:00:00,25.376776,86.471523,PM2.5,53,425,216
India,Bihar,Muzaffarpur,"Buddha Colony, Muzaffarpur - BSPCB",01-03-2024 22:00:00,26.11442,85.39813,OZONE,45,69,52
India,Bihar,Muzaffarpur,"MIT-Daudpur Kothi, Muzaffarpur - BSPCB",01-03-2024 22:00:00,26.1403345,85.3650192,PM2.5,33,143,70
India,Bihar,Muzaffarpur,"MIT-Daudpur Kothi, Muzaffarpur - BSPCB",01-03-2024 22:00:00,26.1403345,85.3650192,NO2,5,9,8
India,Bihar,Muzaffarpur,"MIT-Daudpur Kothi, Muzaffarpur - BSPCB",01-03-2024 22:00:00,26.1403345,85.3650192,CO,19,126,113
India,Bihar,Muzaffarpur,"Muzaffarpur Collectorate, Muzaffarpur - BSPCB",01-03-2024 22:00:00,26.1209,85.3647,NO2,10,39,18
India,Bihar,Muzaffarpur,"Muzaffarpur Collectorate, Muzaffarpur - BSPCB",01-03-2024 22:00:00,26.1209,85.3647,CO,16,74,40
India,Bihar,Patna,"DRM Office Danapur, Patna - BSPCB",01-03-2024 22:00:00,25.586562,85.043586,NO2,11,90,44
India,Bihar,Patna,"IGSC Planetarium Complex, Patna - BSPCB",01-03-2024 22:00:00,25.610369,85.132568,OZONE,3,31,20
India,Bihar,Patna,"Muradpur, Patna - BSPCB",01-03-2024 22:00:00,25.619651,85.147382,PM2.5,67,322,178
India,Bihar,Patna,"Muradpur, Patna - BSPCB",01-03-2024 22:00:00,25.619651,85.147382,OZONE,10,93,53
India,Bihar,Patna,"Rajbansi Nagar, Patna - BSPCB",01-03-2024 22:00:00,25.599486,85.113666,PM2.5,92,305,180
India,Bihar,Patna,"Samanpura, Patna - BSPCB",01-03-2024 22:00:00,25.596727,85.085624,NO2,41,86,67
India,Bihar,Patna,"Samanpura, Patna - BSPCB",01-03-2024 22:00:00,25.596727,85.085624,SO2,15,16,16
India,Bihar,Purnia,"Mariam Nagar, Purnia - BSPCB",01-03-2024 22:00:00,25.366336,87.117468,NO2,11,14,13
India,Bihar,Rajgir,"Dangi Tola, Rajgir - BSPCB",01-03-2024 22:00:00,25.03280,85.41948,PM2.5,35,120,62
India,Bihar,Saharsa,"Police Line, Saharsa - BSPCB",01-03-2024 22:00:00,25.892357,86.590325,PM2.5,30,283,107
India,Bihar,Samastipur,"DM Office_Kasipur, Samastipur - BSPCB",01-03-2024 22:00:00,25.859655,85.77944,PM10,43,449,139
India,Bihar,Sasaram,"Dada Peer, Sasaram - BSPCB",01-03-2024 22:00:00,24.952822,84.002396,NH3,7,14,11
India,Bihar,Siwan,"Chitragupta Nagar, Siwan - BSPCB",01-03-2024 22:00:00,26.2271665,84.3570427,PM2.5,22,300,140
India,Chandigarh,Chandigarh,"Sector 22, Chandigarh - CPCC",01-03-2024 22:00:00,30.735567,76.775714,SO2,13,57,26
India,Chhattisgarh,Bhilai,"32Bungalows, Bhilai - CECB",01-03-2024 22:00:00,21.194815,81.314770,NO2,26,36,33
India,Chhattisgarh,Bhilai,"32Bungalows, Bhilai - CECB",01-03-2024 22:00:00,21.194815,81.314770,SO2,3,7,5
India,Chhattisgarh,Bhilai,"Civic Center, Bhilai - Bhilai Steel Plant",01-03-2024 22:00:00,21.185571,81.343175,PM10,NA,NA,NA
India,Chhattisgarh,Bhilai,"Civic Center, Bhilai - Bhilai Steel Plant",01-03-2024 22:00:00,21.185571,81.343175,SO2,NA,NA,NA
India,Chhattisgarh,Bhilai,"Civic Center, Bhilai - Bhilai Steel Plant",01-03-2024 22:00:00,21.185571,81.343175,OZONE,9,32,20
India,Chhattisgarh,Bhilai,"Hathkhoj, Bhilai - CECB",01-03-2024 22:00:00,21.224231,81.408350,NH3,7,9,8
India,Chhattisgarh,Chhal,"Nawapara SECL Colony, Chhal - CECB",01-03-2024 22:00:00,22.118125,83.140608,NH3,2,2,2
India,Chhattisgarh,Korba,"Urja Nagar, Korba - CECB",01-03-2024 22:00:00,22.348441,82.549611,PM10,28,500,135
India,Chhattisgarh,Korba,"Urja Nagar, Korba - CECB",01-03-2024 22:00:00,22.348441,82.549611,NO2,31,91,69
India,Chhattisgarh,Kunjemura,"OP Jindal School, Kunjemura - CECB",01-03-2024 22:00:00,22.126650,83.483212,OZONE,4,69,45
India,Chhattisgarh,Milupara,"Govt. Higher Secondary School, Milupara - CECB",01-03-2024 22:00:00,22.1910172,83.5197009,NH3,1,2,2
India,Chhattisgarh,Milupara,"Govt. Higher Secondary School, Milupara - CECB",01-03-2024 22:00:00,22.1910172,83.5197009,SO2,NA,NA,NA
India,Chhattisgarh,Raipur,"AIIMS, Raipur - CECB",01-03-2024 22:00:00,21.258815,81.578979,NO2,NA,NA,NA
India,Chhattisgarh,Raipur,"AIIMS, Raipur - CECB",01-03-2024 22:00:00,21.258815,81.578979,OZONE,1,40,12
India,Chhattisgarh,Raipur,"Bhatagaon New ISBT, Raipur - CECB",01-03-2024 22:00:00,21.219665,81.630094,PM2.5,27,89,51
India,Chhattisgarh,Raipur,"Krishak Nagar, Raipur - CECB",01-03-2024 22:00:00,21.237755,81.705301,PM2.5,40,61,49
India,Chhattisgarh,Raipur,"Krishak Nagar, Raipur - CECB",01-03-2024 22:00:00,21.237755,81.705301,PM10,57,105,80
India,Chhattisgarh,Raipur,"Krishak Nagar, Raipur - CECB",01-03-2024 22:00:00,21.237755,81.705301,CO,30,45,32
India,Chhattisgarh,Tumidih,"OP Jindal Industrial Park, Tumidih - CECB",01-03-2024 22:00:00,22.06631475,83.33820077,NO2,10,51,20
India,Delhi,Delhi,"Alipur, Delhi - DPCC",01-03-2024 22:00:00,28.815329,77.153010,PM10,117,255,166
India,Delhi,Delhi,"Alipur, Delhi - DPCC",01-03-2024 22:00:00,28.815329,77.153010,CO,34,92,50
India,Delhi,Delhi,"Anand Vihar, Delhi - DPCC",01-03-2024 22:00:00,28.647622,77.3158090,PM2.5,98,354,267
India,Delhi,Delhi,"Anand Vihar, Delhi - DPCC",01-03-2024 22:00:00,28.647622,77.3158090,NO2,71,241,145
India,Delhi,Delhi,"Anand Vihar, Delhi - DPCC",01-03-2024 22:00:00,28.647622,77.3158090,NH3,2,16,8
India,Delhi,Delhi,"Ashok Vihar, Delhi - DPCC",01-03-2024 22:00:00,28.695381,77.181665,OZONE,4,23,13
India,Delhi,Delhi,"Aya Nagar, Delhi - IMD",01-03-2024 22:00:00,28.4706914,77.1099364,PM10,74,207,143
India,Delhi,Delhi,"Aya Nagar, Delhi - IMD",01-03-2024 22:00:00,28.4706914,77.1099364,NO2,9,141,34
India,Delhi,Delhi,"Burari Crossing, Delhi - IMD",01-03-2024 22:00:00,28.7256504,77.2011573,NO2,NA,NA,NA
India,Delhi,Delhi,"CRRI Mathura Road, Delhi - IMD",01-03-2024 22:00:00,28.5512005,77.2735737,CO,1,122,15
India,Delhi,Delhi,"DTU, Delhi - CPCB",01-03-2024 22:00:00,28.7500499,77.1112615,NH3,12,24,17
India,Delhi,Delhi,"Dr. Karni Singh Shooting Range, Delhi - DPCC",01-03-2024 22:00:00,28.498571,77.264840,PM2.5,63,310,185
India,Delhi,Delhi,"IGI Airport (T3), Delhi - IMD",01-03-2024 22:00:00,28.5627763,77.1180053,CO,30,110,41
India,Delhi,Delhi,"IGI Airport (T3), Delhi - IMD",01-03-2024 22:00:00,28.5627763,77.1180053,OZONE,1,82,45
India,Delhi,Delhi,"IHBAS, Dilshad Garden, Delhi - CPCB",01-03-2024 22:00:00,28.6811736,77.3025234,OZONE,8,42,33
India,Delhi,Delhi,"ITO, Delhi - CPCB",01-03-2024 22:00:00,28.628624,77.241060,NH3,3,16,8
India,Delhi,Delhi,"ITO, Delhi - CPCB",01-03-2024 22:00:00,28.628624,77.241060,OZONE,13,106,45
India,Delhi,Delhi,"Jahangirpuri, Delhi - DPCC",01-03-2024 22:00:00,28.732820,77.170633,PM2.5,92,421,268
India,Delhi,Delhi,"Lodhi Road, Delhi - IITM",01-03-2024 22:00:00,28.588333,77.221667,NH3,NA,NA,NA
India,Delhi,Delhi,"Lodhi Road, Delhi - IITM",01-03-2024 22:00:00,28.588333,77.221667,CO,NA,NA,NA
India,Delhi,Delhi,"Lodhi Road, Delhi - IMD",01-03-2024 22:00:00,28.5918245,77.2273074,OZONE,6,151,72
India,Delhi,Delhi,"Major Dhyan Chand National Stadium, Delhi - DPCC",01-03-2024 22:00:00,28.611281,77.237738,SO2,7,45,20
India,Delhi,Delhi,"Major Dhyan Chand National Stadium, Delhi - DPCC",01-03-2024 22:00:00,28.611281,77.237738,OZONE,2,224,113
India,Delhi,Delhi,"Mundka, Delhi - DPCC",01-03-2024 22:00:00,28.684678,77.076574,PM2.5,NA,NA,NA
India,Delhi,Delhi,"Mundka, Delhi - DPCC",01-03-2024 22:00:00,28.684678,77.076574,NO2,NA,NA,NA
India,Delhi,Delhi,"NSIT Dwarka, Delhi - CPCB",01-03-2024 22:00:00,28.60909,77.0325413,NO2,67,86,77
India,Delhi,Delhi,"Najafgarh, Delhi - DPCC",01-03-2024 22:00:00,28.570173,76.933762,SO2,8,17,12
India,Delhi,Delhi,"Najafgarh, Delhi - DPCC",01-03-2024 22:00:00,28.570173,76.933762,OZONE,7,236,142
India,Delhi,Delhi,"Narela, Delhi - DPCC",01-03-2024 22:00:00,28.822836,77.101981,CO,42,86,51
India,Delhi,Delhi,"Nehru Nagar, Delhi - DPCC",01-03-2024 22:00:00,28.567890,77.250515,PM10,117,272,175
India,Delhi,Delhi,"Nehru Nagar, Delhi - DPCC",01-03-2024 22:00:00,28.567890,77.250515,OZONE,2,252,125
India,Delhi,Delhi,"Okhla Phase-2, Delhi - DPCC",01-03-2024 22:00:00,28.530785,77.271255,PM10,127,408,215
India,Delhi,Delhi,"Okhla Phase-2, Delhi - DPCC",01-03-2024 22:00:00,28.530785,77.271255,CO,40,126,53
India,Delhi,Delhi,"Patparganj, Delhi - DPCC",01-03-2024 22:00:00,28.623763,77.287209,NO2,40,86,62
India,Delhi,Delhi,"Patparganj, Delhi - DPCC",01-03-2024 22:00:00,28.623763,77.287209,OZONE,3,194,97
India,Delhi,Delhi,"Punjabi Bagh, Delhi - DPCC",01-03-2024 22:00:00,28.674045,77.131023,NH3,2,2,2
India,Delhi,Delhi,"Punjabi Bagh, Delhi - DPCC",01-03-2024 22:00:00,28.674045,77.131023,CO,12,110,30
India,Delhi,Delhi,"Pusa, Delhi - DPCC",01-03-2024 22:00:00,28.639652,77.146275,PM2.5,95,324,202
India,Delhi,Delhi,"Pusa, Delhi - DPCC",01-03-2024 22:00:00,28.639652,77.146275,PM10,127,374,198
India,Delhi,Delhi,"Pusa, Delhi - DPCC",01-03-2024 22:00:00,28.639652,77.146275,NH3,7,10,8
India,Delhi,Delhi,"Pusa, Delhi - DPCC",01-03-2024 22:00:00,28.639652,77.146275,CO,112,139,114
India,Delhi,Delhi,"Pusa, Delhi - IMD",01-03-2024 22:00:00,28.636110,77.173332,OZONE,NA,NA,NA
India,Delhi,Delhi,"R K Puram, Delhi - DPCC",01-03-2024 22:00:00,28.563262,77.186937,PM2.5,81,337,215
India,Delhi,Delhi,"R K Puram, Delhi - DPCC",01-03-2024 22:00:00,28.563262,77.186937,SO2,6,35,17
India,Delhi,Delhi,"Rohini, Delhi - DPCC",01-03-2024 22:00:00,28.732528,77.119920,NH3,9,16,11
India,Delhi,Delhi,"Rohini, Delhi - DPCC",01-03-2024 22:00:00,28.732528,77.119920,CO,32,106,49
India,Delhi,Delhi,"Rohini, Delhi - DPCC",01-03-2024 22:00:00,28.732528,77.119920,OZONE,2,256,109
India,Delhi,Delhi,"Shadipur, Delhi - CPCB",01-03-2024 22:00:00,28.6514781,77.1473105,NH3,1,20,12
India,Delhi,Delhi,"Shadipur, Delhi - CPCB",01-03-2024 22:00:00,28.6514781,77.1473105,SO2,3,28,18
India,Delhi,Delhi,"Shadipur, Delhi - CPCB",01-03-2024 22:00:00,28.6514781,77.1473105,CO,2,101,26
India,Delhi,Delhi,"Sonia Vihar, Delhi - DPCC",01-03-2024 22:00:00,28.710508,77.249485,PM2.5,111,344,240
India,Delhi,Delhi,"Sri Aurobindo Marg, Delhi - DPCC",01-03-2024 22:00:00,28.531346,77.190156,PM2.5,68,278,169
India,Delhi,Delhi,"Vivek Vihar, Delhi - DPCC",01-03-2024 22:00:00,28.672342,77.315260,NH3,4,12,6
India,Delhi,Delhi,"Wazirpur, Delhi - DPCC",01-03-2024 22:00:00,28.699793,77.165453,SO2,11,51,31
India,Gujarat,Ahmedabad,"Chandkheda, Ahmedabad - IITM",01-03-2024 22:00:00,23.107969,72.574648,SO2,7,23,10
India,Gujarat,Ahmedabad,"Gyaspur, Ahmedabad - IITM",01-03-2024 22:00:00,22.977134,72.553024,NO2,21,22,22
India,Gujarat,Ahmedabad,"Gyaspur, Ahmedabad - IITM",01-03-2024 22:00:00,22.977134,72.553024,SO2,5,20,9
India,Gujarat,Ahmedabad,"Raikhad, Ahmedabad - IITM",01-03-2024 22:00:00,23.020509,72.579261,PM10,109,393,181
India,Gujarat,Ahmedabad,"Raikhad, Ahmedabad - IITM",01-03-2024 22:00:00,23.020509,72.579261,NO2,89,360,153
India,Gujarat,Ahmedabad,"Rakhial, Ahmedabad - IITM",01-03-2024 22:00:00,23.016834,72.625775,OZONE,5,46,27
India,Gujarat,Ahmedabad,"SAC ISRO Bopal, Ahmedabad - IITM",01-03-2024 22:00:00,23.041137,72.456691,PM10,46,178,122
India,Gujarat,Ahmedabad,"SAC ISRO Satellite, Ahmedabad - IITM",01-03-2024 22:00:00,23.023389,72.515201,SO2,13,41,21
India,Gujarat,Ahmedabad,"SAC ISRO Satellite, Ahmedabad - IITM",01-03-2024 22:00:00,23.023389,72.515201,OZONE,10,26,20
India,Gujarat,Ahmedabad,"Sardar Vallabhbhai Patel Stadium, Ahmedabad - IITM",01-03-2024 22:00:00,23.043070,72.562968,NO2,NA,NA,NA
India,Gujarat,Ahmedabad,"Sardar Vallabhbhai Patel Stadium, Ahmedabad - IITM",01-03-2024 22:00:00,23.043070,72.562968,NH3,NA,NA,NA
India,Gujarat,Vapi,"Phase-1 GIDC, Vapi - GPCB",01-03-2024 22:00:00,20.362421,72.918013,NH3,8,9,8
India,Gujarat,Vatva,"Phase-4 GIDC, Vatva - GPCB",01-03-2024 22:00:00,22.969611,72.643500,PM2.5,112,331,230
India,Gujarat,Vatva,"Phase-4 GIDC, Vatva - GPCB",01-03-2024 22:00:00,22.969611,72.643500,NH3,1,1,1
India,Gujarat,Vatva,"Phase-4 GIDC, Vatva - GPCB",01-03-2024 22:00:00,22.969611,72.643500,OZONE,11,42,31
India,Haryana,Ambala,"Patti Mehar, Ambala - HSPCB",01-03-2024 22:00:00,30.379589,76.778328,PM10,35,203,78
India,Haryana,Ambala,"Patti Mehar, Ambala - HSPCB",01-03-2024 22:00:00,30.379589,76.778328,NO2,6,9,8
India,Haryana,Ambala,"Patti Mehar, Ambala - HSPCB",01-03-2024 22:00:00,30.379589,76.778328,CO,30,60,40
India,Haryana,Bahadurgarh,"Arya Nagar, Bahadurgarh - HSPCB",01-03-2024 22:00:00,28.6701,76.9254,CO,42,56,50
India,Haryana,Ballabgarh,"Nathu Colony, Ballabgarh - HSPCB",01-03-2024 22:00:00,28.3419248,77.319699,PM2.5,81,355,248
India,Haryana,Ballabgarh,"Nathu Colony, Ballabgarh - HSPCB",01-03-2024 22:00:00,28.3419248,77.319699,PM10,75,238,150
India,Haryana,Bhiwani,"H.B. Colony, Bhiwani - HSPCB",01-03-2024 22:00:00,28.806223,76.141105,NH3,5,6,6
India,Haryana,Bhiwani,"H.B. Colony, Bhiwani - HSPCB",01-03-2024 22:00:00,28.806223,76.141105,CO,14,60,23
India,Haryana,Charkhi Dadri,"Mini Secretariat, Charkhi Dadri - HSPCB",01-03-2024 22:00:00,28.593883,76.270653,NH3,5,5,5
India,Haryana,Dharuhera,"Municipal Corporation Office, Dharuhera -  HSPCB",01-03-2024 22:00:00,28.206800,76.799700,PM10,116,277,191
India,Haryana,Faridabad,"New Industrial Town, Faridabad - HSPCB",01-03-2024 22:00:00,28.39072,77.30059,CO,12,64,22
India,Haryana,Faridabad,"Sector 11, Faridabad - HSPCB",01-03-2024 22:00:00,28.376058,77.315741,SO2,3,10,6
India,Haryana,Fatehabad,"Huda Sector, Fatehabad - HSPCB",01-03-2024 22:00:00,29.503664,75.467934,CO,5,12,7
India,Haryana,Gurugram,"Teri Gram, Gurugram - HSPCB",01-03-2024 22:00:00,28.4275,77.1465,OZONE,10,24,24
India,Haryana,Hisar,"Urban Estate-II, Hisar - HSPCB",01-03-2024 22:00:00,29.140560,75.744941,PM10,62,115,94
India,Haryana,Jind,"Police Lines, Jind - HSPCB",01-03-2024 22:00:00,29.307814,76.337619,NH3,2,6,4
India,Haryana,Kaithal,"Rishi Nagar, Kaithal - HSPCB",01-03-2024 22:00:00,29.8006,76.4155,PM2.5,70,184,118
India,Haryana,Kaithal,"Rishi Nagar, Kaithal - HSPCB",01-03-2024 22:00:00,29.8006,76.4155,OZONE,8,17,16
India,Haryana,Kurukshetra,"Sector-7, Kurukshetra - HSPCB",01-03-2024 22:00:00,29.966942,76.875879,PM10,88,151,119
India,Haryana,Kurukshetra,"Sector-7, Kurukshetra - HSPCB",01-03-2024 22:00:00,29.966942,76.875879,SO2,3,32,8
India,Haryana,Kurukshetra,"Sector-7, Kurukshetra - HSPCB",01-03-2024 22:00:00,29.966942,76.875879,CO,14,52,42
India,Haryana,Mandikhera,"General Hospital, Mandikhera - HSPCB",01-03-2024 22:00:00,27.9002,76.9938,SO2,28,37,34
India,Haryana,Mandikhera,"General Hospital, Mandikhera - HSPCB",01-03-2024 22:00:00,27.9002,76.9938,CO,29,40,31
India,Haryana,Manesar,"Sector-2 IMT, Manesar - HSPCB",01-03-2024 22:00:00,28.360699,76.936090,PM10,8,120,66
India,Haryana,Manesar,"Sector-2 IMT, Manesar - HSPCB",01-03-2024 22:00:00,28.360699,76.936090,OZONE,5,31,24
India,Haryana,Palwal,"Shyam Nagar, Palwal - HSPCB",01-03-2024 22:00:00,28.1485564,77.3320667,PM2.5,57,166,82
India,Haryana,Palwal,"Shyam Nagar, Palwal - HSPCB",01-03-2024 22:00:00,28.1485564,77.3320667,PM10,96,180,117
India,Haryana,Panchkula,"Sector-6, Panchkula - HSPCB ",01-03-2024 22:00:00,30.7057778,76.8531805555555,SO2,11,13,12
India,Haryana,Panchkula,"Sector-6, Panchkula - HSPCB ",01-03-2024 22:00:00,30.7057778,76.8531805555555,CO,7,12,9
India,Haryana,Panipat,"Sector-18, Panipat - HSPCB",01-03-2024 22:00:00,29.497973,76.993331,PM2.5,81,86,83
India,Haryana,Panipat,"Sector-18, Panipat - HSPCB",01-03-2024 22:00:00,29.497973,76.993331,PM10,88,91,90
India,Haryana,Panipat,"Sector-18, Panipat - HSPCB",01-03-2024 22:00:00,29.497973,76.993331,NH3,2,3,3
India,Haryana,Rohtak,"MD University, Rohtak - HSPCB",01-03-2024 22:00:00,28.52123,76.37138,CO,33,82,60
India,Haryana,Sirsa,"F-Block, Sirsa - HSPCB",01-03-2024 22:00:00,29.536400,75.015800,PM10,31,50,39
India,Haryana,Sirsa,"F-Block, Sirsa - HSPCB",01-03-2024 22:00:00,29.536400,75.015800,OZONE,35,84,68
India,Haryana,Yamuna Nagar,"Gobind Pura, Yamuna Nagar - HSPCB",01-03-2024 22:00:00,30.1480566,77.2893471,NO2,11,28,15
India,Haryana,Yamuna Nagar,"Gobind Pura, Yamuna Nagar - HSPCB",01-03-2024 22:00:00,30.1480566,77.2893471,OZONE,19,31,27
India,Himachal Pradesh,Baddi,"HIMUDA Complex Phase-1, Baddi - HPPCB",01-03-2024 22:00:00,30.943887,76.801991,PM10,80,335,181
India,Jharkhand,Dhanbad,"Kalakusuma, Dhanbad - DMC",01-03-2024 22:00:00,23.811548,86.481238,CO,128,136,130
India,Jharkhand,Dhanbad,"Sardar Patel Nagar, Dhanbad - JSPCB",01-03-2024 22:00:00,23.80569,86.44268,PM10,42,267,113
India,Jharkhand,Dhanbad,"Sardar Patel Nagar, Dhanbad - JSPCB",01-03-2024 22:00:00,23.80569,86.44268,OZONE,9,71,25
India,Jharkhand,Pathardih,"Mohalbani Ghat, Pathardih - DMC",01-03-2024 22:00:00,23.669880,86.411725,PM10,51,277,122
India,Jharkhand,Pathardih,"Mohalbani Ghat, Pathardih - DMC",01-03-2024 22:00:00,23.669880,86.411725,NO2,14,181,110
India,Karnataka,Bagalkot,"Vidayagiri, Bagalkot - KSPCB",01-03-2024 22:00:00,16.172806,75.659694,PM2.5,19,37,36
India,Karnataka,Bagalkot,"Vidayagiri, Bagalkot - KSPCB",01-03-2024 22:00:00,16.172806,75.659694,CO,14,50,32
India,Karnataka,Belgaum,"Ramteerth Nagar, Belgaum - KSPCB",01-03-2024 22:00:00,15.888653,74.541751,PM10,39,82,55
India,Karnataka,Belgaum,"Ramteerth Nagar, Belgaum - KSPCB",01-03-2024 22:00:00,15.888653,74.541751,NH3,34,34,34
India,Karnataka,Bengaluru,"BTM Layout, Bengaluru - CPCB",01-03-2024 22:00:00,12.9135218,77.5950804,NH3,5,5,5
India,Karnataka,Bengaluru,"Bapuji Nagar, Bengaluru - KSPCB",01-03-2024 22:00:00,12.951913,77.539784,NH3,1,1,1
India,Karnataka,Bengaluru,"Hombegowda Nagar, Bengaluru - KSPCB",01-03-2024 22:00:00,12.938539,77.590100,OZONE,4,5,4
India,Karnataka,Bengaluru,"Jayanagar 5th Block, Bengaluru - KSPCB",01-03-2024 22:00:00,12.920984,77.584908,NO2,10,405,76
India,Karnataka,Bengaluru,"Jayanagar 5th Block, Bengaluru - KSPCB",01-03-2024 22:00:00,12.920984,77.584908,NH3,2,3,2
India,Karnataka,Bengaluru,"Jigani, Bengaluru - KSPCB",01-03-2024 22:00:00,12.7816279,77.6299145,NO2,31,32,32
India,Karnataka,Bengaluru,"Jigani, Bengaluru - KSPCB",01-03-2024 22:00:00,12.7816279,77.6299145,OZONE,9,64,48
India,Karnataka,Bengaluru,"Kasturi Nagar, Bengaluru - KSPCB",01-03-2024 22:00:00,13.003872,77.664217,PM2.5,71,99,82
India,Karnataka,Bengaluru,"Shivapura_Peenya, Bengaluru - KSPCB",01-03-2024 22:00:00,13.0246342,77.5080115,PM10,54,76,62
India,Karnataka,Bengaluru,"Shivapura_Peenya, Bengaluru - KSPCB",01-03-2024 22:00:00,13.0246342,77.5080115,CO,28,54,35
India,Karnataka,Bengaluru,"Silk Board, Bengaluru - KSPCB",01-03-2024 22:00:00,12.917348,77.622813,PM10,57,112,87
India,Karnataka,Bengaluru,"Silk Board, Bengaluru - KSPCB",01-03-2024 22:00:00,12.917348,77.622813,NO2,20,29,23
India,Karnataka,Bidar,"Naubad, Bidar - KSPCB",01-03-2024 22:00:00,17.930306,77.482194,SO2,15,17,16
India,Karnataka,Chamarajanagar,"Urban, Chamarajanagar - KSPCB",01-03-2024 22:00:00,11.55358,76.55521,PM10,38,63,45
India,Karnataka,Chamarajanagar,"Urban, Chamarajanagar - KSPCB",01-03-2024 22:00:00,11.55358,76.55521,NO2,23,53,33
India,Karnataka,Chikkaballapur,"Chikkaballapur Rural, Chikkaballapur - KSPCB",01-03-2024 22:00:00,13.428828,77.731418,PM2.5,30,136,69
India,Karnataka,Chikkaballapur,"Chikkaballapur Rural, Chikkaballapur - KSPCB",01-03-2024 22:00:00,13.428828,77.731418,OZONE,24,26,25
India,Karnataka,Chikkamagaluru,"Kalyana Nagara, Chikkamagaluru - KSPCB",01-03-2024 22:00:00,13.328028,75.797056,NH3,3,4,3
India,Karnataka,Dharwad,"Kalabhavan, Dharwad - KSPCB",01-03-2024 22:00:00,15.459706,75.008381,PM2.5,43,65,50
India,Karnataka,Dharwad,"Kalabhavan, Dharwad - KSPCB",01-03-2024 22:00:00,15.459706,75.008381,OZONE,2,36,21
India,Karnataka,Hassan,"B.Katihalli, Hassan - KSPCB",01-03-2024 22:00:00,13.008556,76.125258,PM10,26,191,77
India,Karnataka,Hassan,"B.Katihalli, Hassan - KSPCB",01-03-2024 22:00:00,13.008556,76.125258,OZONE,NA,NA,NA
India,Karnataka,Haveri,"Ashwini Nagar, Haveri - KSPCB",01-03-2024 22:00:00,14.791800,75.389600,OZONE,18,26,23
India,Karnataka,Hubballi,"Deshpande Nagar, Hubballi - KSPCB",01-03-2024 22:00:00,15.351773,75.140726,PM2.5,28,85,55
India,Karnataka,Hubballi,"Deshpande Nagar, Hubballi - KSPCB",01-03-2024 22:00:00,15.351773,75.140726,SO2,15,20,17
India,Karnataka,Hubballi,"Deshpande Nagar, Hubballi - KSPCB",01-03-2024 22:00:00,15.351773,75.140726,OZONE,1,44,27
India,Karnataka,Hubballi,"Lingaraj Nagar, Hubballi - KSPCB",01-03-2024 22:00:00,15.3714823,75.1160168,CO,37,110,70
India,Karnataka,Kalaburagi,"Lal Bahadur Shastri Nagar, Kalaburagi - KSPCB",01-03-2024 22:00:00,17.321993,76.822628,PM10,24,107,56
India,Karnataka,Kalaburagi,"Mahatma Basaveswar Colony, Kalaburgi - KSPCB",01-03-2024 22:00:00,17.336318,76.847397,NH3,2,4,4
India,Karnataka,Kalaburagi,"Mahatma Basaveswar Colony, Kalaburgi - KSPCB",01-03-2024 22:00:00,17.336318,76.847397,OZONE,7,22,16
India,Karnataka,Karwar,"KHB Colony, Karwar - KSPCB",01-03-2024 22:00:00,14.816666,74.141003,SO2,18,18,18
India,Karnataka,Kolar,"Tamaka Ind. Area, Kolar - KSPCB",01-03-2024 22:00:00,13.1276288,78.1570122,PM2.5,20,471,66
India,Karnataka,Kolar,"Tamaka Ind. Area, Kolar - KSPCB",01-03-2024 22:00:00,13.1276288,78.1570122,PM10,32,115,74
India,Karnataka,Koppal,"Diwator Nagar, Koppal - KSPCB",01-03-2024 22:00:00,15.347630,76.181767,CO,38,68,41
India,Karnataka,Madikeri,"Stuart Hill, Madikeri - KSPCB",01-03-2024 22:00:00,12.415911,75.735050,PM2.5,16,62,38
India,Karnataka,Madikeri,"Stuart Hill, Madikeri - KSPCB",01-03-2024 22:00:00,12.415911,75.735050,NO2,6,9,8
India,Karnataka,Mangalore,"Kadri, Mangalore - KSPCB",01-03-2024 22:00:00,12.889250,74.853000,NO2,5,7,6
India,Karnataka,Mangalore,"Kadri, Mangalore - KSPCB",01-03-2024 22:00:00,12.889250,74.853000,SO2,19,21,20
India,Karnataka,Mangalore,"Kadri, Mangalore - KSPCB",01-03-2024 22:00:00,12.889250,74.853000,CO,30,44,39
India,Karnataka,Raichur,"Haji Colony, Raichur - KSPCB",01-03-2024 22:00:00,16.208139,77.348417,PM2.5,12,71,27
India,Karnataka,Raichur,"Haji Colony, Raichur - KSPCB",01-03-2024 22:00:00,16.208139,77.348417,PM10,47,270,96
India,Karnataka,Ramanagara,"Vijay Nagar, Ramanagara - KSPCB",01-03-2024 22:00:00,12.733409,77.298051,NO2,2,18,5
India,Karnataka,Shivamogga,"Vinoba Nagara, Shivamogga - KSPCB",01-03-2024 22:00:00,13.940000,75.555917,OZONE,8,86,60
India,Karnataka,Tumakuru,"Thimmalapura, Tumakuru - KSPCB",01-03-2024 22:00:00,13.377516,77.099072,OZONE,9,51,39
India,Karnataka,Udupi,"Brahmagiri, Udupi - KSPCB",01-03-2024 22:00:00,13.34194444,74.74694444,OZONE,23,23,23
India,Karnataka,Yadgir,"Collector Office, Yadgir - KSPCB",01-03-2024 22:00:00,16.7602,77.1428,SO2,11,22,16
India,Kerala,Kannur,"Thavakkara, Kannur - Kerala PCB",01-03-2024 22:00:00,11.875000,75.373200,PM2.5,49,60,55
India,Kerala,Kannur,"Thavakkara, Kannur - Kerala PCB",01-03-2024 22:00:00,11.875000,75.373200,PM10,65,74,69
India,Kerala,Kannur,"Thavakkara, Kannur - Kerala PCB",01-03-2024 22:00:00,11.875000,75.373200,CO,30,35,32
India,Kerala,Kollam,"Polayathode, Kollam - Kerala PCB",01-03-2024 22:00:00,8.8787,76.6073,NO2,8,9,8
India,Kerala,Kollam,"Polayathode, Kollam - Kerala PCB",01-03-2024 22:00:00,8.8787,76.6073,CO,5,52,15
India,Kerala,Thiruvananthapuram,"Kariavattom, Thiruvananthapuram - Kerala PCB",01-03-2024 22:00:00,8.563700,76.886500,PM10,78,91,83
India,Kerala,Thiruvananthapuram,"Kariavattom, Thiruvananthapuram - Kerala PCB",01-03-2024 22:00:00,8.563700,76.886500,NH3,1,1,1
India,Kerala,Thiruvananthapuram,"Plammoodu, Thiruvananthapuram - Kerala PCB",01-03-2024 22:00:00,8.5149093,76.9435879,PM10,24,114,50
India,Kerala,Thrissur,"Corporation Ground, Thrissur - Kerala PCB",01-03-2024 22:00:00,10.532400,76.215900,PM10,58,68,64
India,Madhya Pradesh,Bhopal,"Idgah Hills, Bhopal - MPPCB",01-03-2024 22:00:00,23.264759,77.381568,PM2.5,28,103,52
India,Madhya Pradesh,Bhopal,"Idgah Hills, Bhopal - MPPCB",01-03-2024 22:00:00,23.264759,77.381568,NO2,19,79,35
India,Madhya Pradesh,Bhopal,"Idgah Hills, Bhopal - MPPCB",01-03-2024 22:00:00,23.264759,77.381568,NH3,2,2,2
India,Madhya Pradesh,Bhopal,"Paryavaran Parisar, Bhopal - MPPCB",01-03-2024 22:00:00,23.210494,77.425409,PM2.5,20,257,85
India,Madhya Pradesh,Bhopal,"Paryavaran Parisar, Bhopal - MPPCB",01-03-2024 22:00:00,23.210494,77.425409,SO2,20,38,24
India,Madhya Pradesh,Dewas,"Bhopal Chauraha, Dewas - MPPCB",01-03-2024 22:00:00,22.9682591,76.064118,PM10,NA,NA,NA
India,Madhya Pradesh,Gwalior,"City Center, Gwalior - MPPCB",01-03-2024 22:00:00,26.203442,78.193251,CO,11,106,25
India,Madhya Pradesh,Gwalior,"City Center, Gwalior - MPPCB",01-03-2024 22:00:00,26.203442,78.193251,OZONE,9,48,26
India,Madhya Pradesh,Gwalior,"Deen Dayal Nagar, Gwalior - MPPCB",01-03-2024 22:00:00,26.259242,78.216432,NH3,3,12,6
India,Madhya Pradesh,Gwalior,"Maharaj Bada, Gwalior - MPPCB",01-03-2024 22:00:00,26.200388,78.147714,PM10,74,407,151
India,Madhya Pradesh,Indore,"Chhoti Gwaltoli, Indore - MPPCB",01-03-2024 22:00:00,22.4310,75.5213,NH3,3,7,5
India,Madhya Pradesh,Indore,"Residency Area, Indore - IMC",01-03-2024 22:00:00,22.7084,75.8815,SO2,22,26,24
India,Madhya Pradesh,Jabalpur,"Govindh Bhavan Colony, Jabalpur - JMC",01-03-2024 22:00:00,23.163174,79.973061,PM10,28,70,42
India,Madhya Pradesh,Jabalpur,"Govindh Bhavan Colony, Jabalpur - JMC",01-03-2024 22:00:00,23.163174,79.973061,OZONE,10,158,148
India,Madhya Pradesh,Jabalpur,"Marhatal, Jabalpur - MPPCB",01-03-2024 22:00:00,23.168606,79.932247,NH3,3,5,4
India,Madhya Pradesh,Jabalpur,"Marhatal, Jabalpur - MPPCB",01-03-2024 22:00:00,23.168606,79.932247,SO2,3,16,8
India,Madhya Pradesh,Jabalpur,"Marhatal, Jabalpur - MPPCB",01-03-2024 22:00:00,23.168606,79.932247,CO,16,122,62
India,Madhya Pradesh,Jabalpur,"Suhagi, Jabalpur - JMC",01-03-2024 22:00:00,23.218135,79.957770,OZONE,7,143,71
India,Madhya Pradesh,Katni,"Gole Bazar, Katni - MPPCB",01-03-2024 22:00:00,23.50016,80.23284,PM2.5,37,178,78
India,Madhya Pradesh,Katni,"Gole Bazar, Katni - MPPCB",01-03-2024 22:00:00,23.50016,80.23284,NO2,35,101,64
India,Madhya Pradesh,Katni,"Gole Bazar, Katni - MPPCB",01-03-2024 22:00:00,23.50016,80.23284,OZONE,4,112,90
India,Madhya Pradesh,Maihar,"Sahilara, Maihar - KJS Cements",01-03-2024 22:00:00,24.2613009,80.7231783,CO,46,52,51
India,Madhya Pradesh,Pithampur,"Sector-2 Industrial Area, Pithampur - MPPCB",01-03-2024 22:00:00,22.624758,75.675238,OZONE,33,78,64
India,Madhya Pradesh,Ratlam,"Shasthri Nagar, Ratlam - IPCA Lab",01-03-2024 22:00:00,23.331731,75.045981,PM2.5,NA,NA,NA
India,Madhya Pradesh,Singrauli,"Suryakiran Bhawan NCL, Singrauli - MPPCB",01-03-2024 22:00:00,24.108970,82.645580,SO2,32,120,60
India,Madhya Pradesh,Singrauli,"Suryakiran Bhawan NCL, Singrauli - MPPCB",01-03-2024 22:00:00,24.108970,82.645580,CO,26,124,69
India,Maharashtra,Ahmednagar,"Tarakpur, Ahmednagar - MPCB",01-03-2024 22:00:00,19.10122,74.73339,NH3,3,7,4
India,Maharashtra,Akola,"Ramdaspeth, Akola - MPCB",01-03-2024 22:00:00,20.719516,77.000253,SO2,7,20,11
India,Maharashtra,Akola,"Ramdaspeth, Akola - MPCB",01-03-2024 22:00:00,20.719516,77.000253,OZONE,17,91,56
India,Maharashtra,Aurangabad,"MIDC Chilkalthana, Aurangabad - MPCB",01-03-2024 22:00:00,19.875620,75.387310,PM10,66,299,124
India,Maharashtra,Aurangabad,"More Chowk Waluj, Aurangabad - MPCB",01-03-2024 22:00:00,19.8389439,75.244448,NH3,1,1,1
India,Maharashtra,Aurangabad,"More Chowk Waluj, Aurangabad - MPCB",01-03-2024 22:00:00,19.8389439,75.244448,SO2,11,14,12
India,Maharashtra,Aurangabad,"Rachnakar Colony, Aurangabad - MPCB",01-03-2024 22:00:00,19.863756,75.321188,SO2,7,29,16
India,Maharashtra,Aurangabad,"Rachnakar Colony, Aurangabad - MPCB",01-03-2024 22:00:00,19.863756,75.321188,CO,14,127,35
India,Maharashtra,Badlapur,"Katrap, Badlapur - MPCB",01-03-2024 22:00:00,19.16485,73.23409,SO2,20,58,32
India,Maharashtra,Badlapur,"Katrap, Badlapur - MPCB",01-03-2024 22:00:00,19.16485,73.23409,CO,22,106,34
India,Maharashtra,Belapur,"CBD Belapur, Belapur - MPCB",01-03-2024 22:00:00,19.0243902,73.0406721,NO2,29,80,56
India,Maharashtra,Belapur,"CBD Belapur, Belapur - MPCB",01-03-2024 22:00:00,19.0243902,73.0406721,NH3,16,62,36
India,Maharashtra,Belapur,"CBD Belapur, Belapur - MPCB",01-03-2024 22:00:00,19.0243902,73.0406721,SO2,1,8,3
India,Maharashtra,Boisar,"Khaira, Boisar - MPCB",01-03-2024 22:00:00,19.786089,72.757971,NH3,11,24,16
India,Maharashtra,Boisar,"Khaira, Boisar - MPCB",01-03-2024 22:00:00,19.786089,72.757971,OZONE,33,64,57
India,Maharashtra,Chandrapur,"Chauhan Colony, Chandrapur - MPCB",01-03-2024 22:00:00,19.962900,79.298714,OZONE,6,6,6
India,Maharashtra,Chandrapur,"MIDC Khutala, Chandrapur - MPCB",01-03-2024 22:00:00,19.9775302,79.2337086,PM10,NA,NA,NA
India,Maharashtra,Dhule,"Deopur, Dhule - MPCB",01-03-2024 22:00:00,20.918946,74.776388,NH3,1,14,4
India,Maharashtra,Dhule,"Deopur, Dhule - MPCB",01-03-2024 22:00:00,20.918946,74.776388,CO,13,56,29
India,Maharashtra,Jalgaon,"Prabhat Colony, Jalgaon - MPCB",01-03-2024 22:00:00,21.001264,75.565602,PM10,61,348,134
India,Maharashtra,Jalna,"Old MIDC, Jalna - MPCB",01-03-2024 22:00:00,19.854616,75.905894,OZONE,21,200,106
India,Maharashtra,Kalyan,"Khadakpada, Kalyan - MPCB",01-03-2024 22:00:00,19.25292,73.142019,NH3,1,2,1
India,Maharashtra,Kolhapur,"Shivaji University, Kolhapur - MPCB",01-03-2024 22:00:00,16.6870449,74.2505872,CO,68,114,81
India,Maharashtra,Kolhapur,"Sinchan Bhavan, Kolhapur - MPCB",01-03-2024 22:00:00,16.7143745,74.2426398,PM2.5,55,351,118
India,Maharashtra,Kolhapur,"Sinchan Bhavan, Kolhapur - MPCB",01-03-2024 22:00:00,16.7143745,74.2426398,CO,10,65,31
India,Maharashtra,Kolhapur,"Sinchan Bhavan, Kolhapur - MPCB",01-03-2024 22:00:00,16.7143745,74.2426398,OZONE,19,118,77
India,Maharashtra,Mahad,"Kamble Tarf Birwadi, Mahad - MPCB",01-03-2024 22:00:00,18.1023399,73.4783687,NO2,23,85,35
India,Maharashtra,Malegaon,"Mahesh Nagar, Malegaon - MPCB",01-03-2024 22:00:00,20.555712,74.529236,PM2.5,70,144,94
India,Maharashtra,Malegaon,"Mahesh Nagar, Malegaon - MPCB",01-03-2024 22:00:00,20.555712,74.529236,NO2,5,21,11
India,Maharashtra,Malegaon,"Mahesh Nagar, Malegaon - MPCB",01-03-2024 22:00:00,20.555712,74.529236,SO2,7,17,11
India,Maharashtra,Mumbai,"Bandra Kurla Complex, Mumbai - MPCB",01-03-2024 22:00:00,19.065931,72.862131,PM10,52,308,130
India,Maharashtra,Mumbai,"Borivali East, Mumbai - IITM",01-03-2024 22:00:00,19.23241,72.86895,NO2,NA,NA,NA
India,Maharashtra,Mumbai,"Byculla, Mumbai - BMC",01-03-2024 22:00:00,18.9767,72.8380,PM10,58,110,88
India,Maharashtra,Mumbai,"Chakala-Andheri East, Mumbai - IITM",01-03-2024 22:00:00,19.11074,72.86084,PM2.5,59,171,114
India,Maharashtra,Mumbai,"Chembur, Mumbai - MPCB",01-03-2024 22:00:00,19.0364585,72.8954371,PM10,38,107,80
India,Maharashtra,Mumbai,"Chembur, Mumbai - MPCB",01-03-2024 22:00:00,19.0364585,72.8954371,NH3,3,7,5
India,Maharashtra,Mumbai,"Chembur, Mumbai - MPCB",01-03-2024 22:00:00,19.0364585,72.8954371,SO2,1,30,9
India,Maharashtra,Mumbai,"Chhatrapati Shivaji Intl. Airport (T2), Mumbai - MPCB",01-03-2024 22:00:00,19.10078,72.87462,NO2,6,79,34
India,Maharashtra,Mumbai,"Chhatrapati Shivaji Intl. Airport (T2), Mumbai - MPCB",01-03-2024 22:00:00,19.10078,72.87462,SO2,25,34,30
India,Maharashtra,Mumbai,"Kandivali West, Mumbai - BMC",01-03-2024 22:00:00,19.215859,72.831718,PM10,59,109,88
India,Maharashtra,Mumbai,"Kherwadi_Bandra East, Mumbai - MPCB",01-03-2024 22:00:00,19.0632143,72.8456324,PM2.5,53,130,90
India,Maharashtra,Mumbai,"Kherwadi_Bandra East, Mumbai - MPCB",01-03-2024 22:00:00,19.0632143,72.8456324,PM10,65,139,107
India,Maharashtra,Mumbai,"Kherwadi_Bandra East, Mumbai - MPCB",01-03-2024 22:00:00,19.0632143,72.8456324,NO2,8,109,51
India,Maharashtra,Mumbai,"Kherwadi_Bandra East, Mumbai - MPCB",01-03-2024 22:00:00,19.0632143,72.8456324,SO2,6,28,11
India,Maharashtra,Mumbai,"Kherwadi_Bandra East, Mumbai - MPCB",01-03-2024 22:00:00,19.0632143,72.8456324,CO,10,105,15
India,Maharashtra,Mumbai,"Kherwadi_Bandra East, Mumbai - MPCB",01-03-2024 22:00:00,19.0632143,72.8456324,OZONE,3,63,41
India,Maharashtra,Mumbai,"Khindipada-Bhandup West, Mumbai - IITM",01-03-2024 22:00:00,19.1653323,72.922099,PM2.5,17,75,51
India,Maharashtra,Mumbai,"Khindipada-Bhandup West, Mumbai - IITM",01-03-2024 22:00:00,19.1653323,72.922099,NO2,6,48,18
India,Maharashtra,Mumbai,"Mulund West, Mumbai - MPCB",01-03-2024 22:00:00,19.1750,72.9419,CO,30,30,30
India,Maharashtra,Mumbai,"Navy Nagar-Colaba, Mumbai - IITM",01-03-2024 22:00:00,18.897756,72.813320,PM2.5,71,132,97
India,Maharashtra,Mumbai,"Navy Nagar-Colaba, Mumbai - IITM",01-03-2024 22:00:00,18.897756,72.813320,PM10,80,143,114
India,Maharashtra,Mumbai,"Powai, Mumbai - MPCB",01-03-2024 22:00:00,19.137500,72.915056,OZONE,23,161,72
India,Maharashtra,Mumbai,"Sewri, Mumbai - BMC",01-03-2024 22:00:00,19.000084,72.856730,SO2,1,21,10
India,Maharashtra,Mumbai,"Sewri, Mumbai - BMC",01-03-2024 22:00:00,19.000084,72.856730,OZONE,2,61,35
India,Maharashtra,Mumbai,"Shivaji Nagar, Mumbai - BMC",01-03-2024 22:00:00,19.060498,72.923356,NH3,5,9,8
India,Maharashtra,Mumbai,"Shivaji Nagar, Mumbai - BMC",01-03-2024 22:00:00,19.060498,72.923356,OZONE,1,84,27
India,Maharashtra,Mumbai,"Siddharth Nagar-Worli, Mumbai - IITM",01-03-2024 22:00:00,19.000083,72.813993,CO,31,106,102
India,Maharashtra,Mumbai,"Siddharth Nagar-Worli, Mumbai - IITM",01-03-2024 22:00:00,19.000083,72.813993,OZONE,15,102,40
India,Maharashtra,Mumbai,"Vasai West, Mumbai - MPCB",01-03-2024 22:00:00,19.383200,72.820400,PM10,50,146,96
India,Maharashtra,Mumbai,"Vasai West, Mumbai - MPCB",01-03-2024 22:00:00,19.383200,72.820400,CO,18,42,22
India,Maharashtra,Mumbai,"Vile Parle West, Mumbai - MPCB",01-03-2024 22:00:00,19.10861,72.83622,PM2.5,NA,NA,NA
India,Maharashtra,Mumbai,"Vile Parle West, Mumbai - MPCB",01-03-2024 22:00:00,19.10861,72.83622,NO2,NA,NA,NA
India,Maharashtra,Mumbai,"Worli, Mumbai - MPCB",01-03-2024 22:00:00,18.9936162,72.8128113,PM10,32,155,94
India,Maharashtra,Mumbai,"Worli, Mumbai - MPCB",01-03-2024 22:00:00,18.9936162,72.8128113,SO2,9,11,10
India,Maharashtra,Nagpur,"Ambazari, Nagpur - MPCB",01-03-2024 22:00:00,21.121801,79.04952,SO2,14,47,29
India,Maharashtra,Nagpur,"Ambazari, Nagpur - MPCB",01-03-2024 22:00:00,21.121801,79.04952,OZONE,7,127,56
India,Maharashtra,Nagpur,"Mahal, Nagpur - MPCB",01-03-2024 22:00:00,21.14472,79.107595,SO2,42,82,59
India,Maharashtra,Nagpur,"Opp GPO Civil Lines, Nagpur - MPCB",01-03-2024 22:00:00,21.152875,79.0517531,NH3,2,4,3
India,Maharashtra,Nagpur,"Opp GPO Civil Lines, Nagpur - MPCB",01-03-2024 22:00:00,21.152875,79.0517531,SO2,10,61,27
India,Maharashtra,Nagpur,"Ram Nagar, Nagpur - MPCB",01-03-2024 22:00:00,21.143383,79.048912,CO,11,35,15
India,Maharashtra,Nanded,"Sneh Nagar, Nanded - MPCB",01-03-2024 22:00:00,19.173852,77.296291,PM2.5,26,111,65
India,Maharashtra,Nashik,"Gangapur Road, Nashik - MPCB",01-03-2024 22:00:00,20.0073285,73.7762427,SO2,1,5,3
India,Maharashtra,Nashik,"Hirawadi, Nashik - MPCB",01-03-2024 22:00:00,20.021503,73.813844,NH3,1,2,2
India,Maharashtra,Nashik,"Hirawadi, Nashik - MPCB",01-03-2024 22:00:00,20.021503,73.813844,SO2,2,11,5
India,Maharashtra,Nashik,"Pandav Nagari, Nashik - MPCB",01-03-2024 22:00:00,19.9591346,73.7788008,PM2.5,51,84,62
India,Maharashtra,Nashik,"Pandav Nagari, Nashik - MPCB",01-03-2024 22:00:00,19.9591346,73.7788008,CO,18,66,25
India,Maharashtra,Nashik,"Pandav Nagari, Nashik - MPCB",01-03-2024 22:00:00,19.9591346,73.7788008,OZONE,21,99,72
India,Maharashtra,Navi Mumbai,"Kopripada-Vashi, Navi Mumbai - MPCB",01-03-2024 22:00:00,19.090337,73.014232,PM2.5,38,399,179
India,Maharashtra,Navi Mumbai,"Kopripada-Vashi, Navi Mumbai - MPCB",01-03-2024 22:00:00,19.090337,73.014232,NH3,7,30,16
India,Maharashtra,Navi Mumbai,"Kopripada-Vashi, Navi Mumbai - MPCB",01-03-2024 22:00:00,19.090337,73.014232,OZONE,7,106,49
India,Maharashtra,Navi Mumbai,"Mahape, Navi Mumbai - MPCB",01-03-2024 22:00:00,19.1135051,73.008978,SO2,26,27,26
India,Maharashtra,Navi Mumbai,"Nerul, Navi Mumbai - MPCB",01-03-2024 22:00:00,19.008751,73.016620,OZONE,37,55,39
India,Maharashtra,Navi Mumbai,"Sanpada, Navi Mumbai - MPCB",01-03-2024 22:00:00,19.0575752,73.0151367,CO,8,64,14
India,Maharashtra,Pimpri-Chinchwad,"Park Street Wakad, Pimpri Chinchwad - MPCB",01-03-2024 22:00:00,18.59051,73.77946,PM2.5,103,240,135
India,Maharashtra,Pimpri-Chinchwad,"Thergaon, Pimpri Chinchwad - MPCB",01-03-2024 22:00:00,18.616318,73.765797,SO2,NA,NA,NA
India,Maharashtra,Pune,"Bhosari, Pune - IITM",01-03-2024 22:00:00,18.640051,73.848956,CO,36,47,45
India,Maharashtra,Pune,"Karve Road, Pune - MPCB",01-03-2024 22:00:00,18.5011743,73.8165527,PM2.5,37,183,75
India,Maharashtra,Pune,"Karve Road, Pune - MPCB",01-03-2024 22:00:00,18.5011743,73.8165527,CO,32,105,58
India,Maharashtra,Pune,"Mhada Colony, Pune - IITM",01-03-2024 22:00:00,18.573040,73.927715,PM10,53,110,85
India,Maharashtra,Pune,"Mhada Colony, Pune - IITM",01-03-2024 22:00:00,18.573040,73.927715,CO,71,129,101
India,Maharashtra,Pune,"Mhada Colony, Pune - IITM",01-03-2024 22:00:00,18.573040,73.927715,OZONE,17,36,26
India,Maharashtra,Pune,"Savitribai Phule Pune University, Pune - MPCB",01-03-2024 22:00:00,18.547056,73.826908,SO2,13,20,16
India,Maharashtra,Pune,"Savitribai Phule Pune University, Pune - MPCB",01-03-2024 22:00:00,18.547056,73.826908,OZONE,4,212,78
India,Maharashtra,Pune,"Transport Nagar-Nigdi, Pune - IITM",01-03-2024 22:00:00,18.664282,73.763966,CO,46,71,56
India,Maharashtra,Sangli,"Vijay Nagar, Sangli - MPCB",01-03-2024 22:00:00, 16.5038,74.3623,CO,12,60,22
India,Maharashtra,Solapur,"Dnyaneshwar Nagar, Solapur - MPCB",01-03-2024 22:00:00,17.6336264,75.9132495,PM2.5,64,260,102
India,Maharashtra,Solapur,"Dnyaneshwar Nagar, Solapur - MPCB",01-03-2024 22:00:00,17.6336264,75.9132495,NO2,11,36,19
India,Maharashtra,Solapur,"Dnyaneshwar Nagar, Solapur - MPCB",01-03-2024 22:00:00,17.6336264,75.9132495,CO,7,40,12
India,Maharashtra,Solapur,"Ratandeep Housing Society, Solapur - MPCB",01-03-2024 22:00:00,17.65439,75.90649,NO2,13,58,25
India,Maharashtra,Solapur,"Ratandeep Housing Society, Solapur - MPCB",01-03-2024 22:00:00,17.65439,75.90649,SO2,5,112,23
India,Maharashtra,Solapur,"Solapur, Solapur - MPCB",01-03-2024 22:00:00,17.6599188,75.9063906,NO2,55,55,55
India,Maharashtra,Thane,"Kasarvadavali, Thane - MPCB",01-03-2024 22:00:00,19.26777,72.97182,PM2.5,65,130,87
India,Maharashtra,Thane,"Kasarvadavali, Thane - MPCB",01-03-2024 22:00:00,19.26777,72.97182,NH3,8,18,12
India,Maharashtra,Thane,"Pimpleshwar Mandir, Thane - MPCB",01-03-2024 22:00:00,19.192056,72.9585188,NH3,3,3,3
India,Maharashtra,Thane,"Upvan Fort, Thane - MPCB",01-03-2024 22:00:00,19.222279,72.957979,NO2,10,81,39
India,Maharashtra,Ulhasnagar,"Sidhi Vinayak Nagar, Ulhasnagar - MPCB",01-03-2024 22:00:00,19.235581,73.159121,NH3,2,8,3
India,Maharashtra,Ulhasnagar,"Sidhi Vinayak Nagar, Ulhasnagar - MPCB",01-03-2024 22:00:00,19.235581,73.159121,SO2,3,22,13
India,Maharashtra,Ulhasnagar,"Sidhi Vinayak Nagar, Ulhasnagar - MPCB",01-03-2024 22:00:00,19.235581,73.159121,CO,19,107,23
India,Maharashtra,Virar,"Bolinj, Virar - MPCB",01-03-2024 22:00:00,19.4458210,72.7988231,PM10,78,171,125
India,Maharashtra,Virar,"Bolinj, Virar - MPCB",01-03-2024 22:00:00,19.4458210,72.7988231,NH3,6,10,7
India,Maharashtra,Virar,"Bolinj, Virar - MPCB",01-03-2024 22:00:00,19.4458210,72.7988231,CO,22,102,26
India,Manipur,Imphal,"DM College of Science, Imphal - Manipur PCB",01-03-2024 22:00:00,24.8207389,93.9423085,PM2.5,14,82,35
India,Manipur,Imphal,"DM College of Science, Imphal - Manipur PCB",01-03-2024 22:00:00,24.8207389,93.9423085,PM10,25,97,44
India,Mizoram,Aizawl,"Sikulpuikawn, Aizawl - Mizoram PCB",01-03-2024 22:00:00,23.7176342,92.7192841,PM2.5,55,109,73
India,Mizoram,Aizawl,"Sikulpuikawn, Aizawl - Mizoram PCB",01-03-2024 22:00:00,23.7176342,92.7192841,SO2,2,2,2
India,Mizoram,Aizawl,"Sikulpuikawn, Aizawl - Mizoram PCB",01-03-2024 22:00:00,23.7176342,92.7192841,CO,14,22,18
India,Nagaland,Kohima,"PWD Juction, Kohima - NPCB",01-03-2024 22:00:00,25.6635413,94.0989878,SO2,28,30,28
India,Odisha,Angul,"Hakimapada, Angul - OSPCB",01-03-2024 22:00:00,20.832874,85.104082,NH3,1,2,1
India,Odisha,Balasore,"Kalidaspur, Balasore - OSPCB",01-03-2024 22:00:00,21.51161,86.89088,NH3,4,12,7
India,Odisha,Balasore,"Kalidaspur, Balasore - OSPCB",01-03-2024 22:00:00,21.51161,86.89088,SO2,17,75,29
India,Odisha,Baripada,"Meher Colony, Baripada - OSPCB",01-03-2024 22:00:00,21.941841,86.728318,PM10,42,140,109
India,Odisha,Bhubaneswar,"Lingraj Mandir, Bhubaneswar - OSPCB",01-03-2024 22:00:00,20.240790,85.836784,PM10,44,160,105
India,Odisha,Bhubaneswar,"Patia, Bhubaneswar - OSPCB",01-03-2024 22:00:00,20.34652,85.81630,PM2.5,52,98,77
India,Odisha,Bhubaneswar,"Patia, Bhubaneswar - OSPCB",01-03-2024 22:00:00,20.34652,85.81630,NH3,3,8,4
India,Odisha,Brajrajnagar,"GM Office, Brajrajnagar - OSPCB",01-03-2024 22:00:00,21.8004996,83.8396977,PM2.5,26,281,78
India,Odisha,Brajrajnagar,"GM Office, Brajrajnagar - OSPCB",01-03-2024 22:00:00,21.8004996,83.8396977,NH3,1,2,2
India,Odisha,Byasanagar,"Ferro Chrome Colony, Byasanagar - OSPCB",01-03-2024 22:00:00,20.94185,86.11510,PM2.5,100,220,159
India,Odisha,Byasanagar,"Ferro Chrome Colony, Byasanagar - OSPCB",01-03-2024 22:00:00,20.94185,86.11510,NH3,2,5,3
India,Odisha,Nayagarh,"Dabuna, Nayagarh - OSPCB",01-03-2024 22:00:00,21.847279,85.416905,PM2.5,72,220,120
India,Odisha,Rairangpur,"Divisional Forest Office, Rairangpur - OSPCB",01-03-2024 22:00:00,22.265816,86.174829,CO,14,38,24
India,Odisha,Rourkela,"Fertilizer Township, Rourkela - OSPCB",01-03-2024 22:00:00,22.18972222,84.86277778,PM2.5,4,69,30
India,Odisha,Rourkela,"Fertilizer Township, Rourkela - OSPCB",01-03-2024 22:00:00,22.18972222,84.86277778,SO2,NA,NA,NA
India,Odisha,Rourkela,"Raghunathpali, Rourkela - OSPCB",01-03-2024 22:00:00,22.220833,84.809444,PM10,54,349,121
India,Odisha,Rourkela,"Raghunathpali, Rourkela - OSPCB",01-03-2024 22:00:00,22.220833,84.809444,NO2,17,172,52
India,Odisha,Rourkela,"Sector-2, Rourkela - OSPCB",01-03-2024 22:00:00,22.24500000,84.88111111,PM2.5,46,187,93
India,Odisha,Suakati,"OMC Colony, Suakati - OSPCB",01-03-2024 22:00:00,21.606865,85.510538,NH3,NA,NA,NA
India,Odisha,Suakati,"OMC Colony, Suakati - OSPCB",01-03-2024 22:00:00,21.606865,85.510538,SO2,NA,NA,NA
India,Odisha,Tensa,"Barsua Iron Ore Mines, Tensa - OSPCB",01-03-2024 22:00:00,21.869985,85.167016,PM2.5,44,89,63
India,Odisha,Tensa,"Barsua Iron Ore Mines, Tensa - OSPCB",01-03-2024 22:00:00,21.869985,85.167016,NO2,28,80,53
India,Odisha,Tensa,"Barsua Iron Ore Mines, Tensa - OSPCB",01-03-2024 22:00:00,21.869985,85.167016,SO2,11,21,15
India,Punjab,Amritsar,"Golden Temple, Amritsar - PPCB",01-03-2024 22:00:00,31.620000,74.876512,CO,12,66,34
India,Punjab,Bathinda,"Hardev Nagar, Bathinda - PPCB",01-03-2024 22:00:00,30.233011,74.907758,PM10,80,184,127
India,Punjab,Jalandhar,"Civil Line, Jalandhar - PPCB",01-03-2024 22:00:00,31.321907,75.578914,PM2.5,17,83,55
India,Punjab,Ludhiana,"Punjab Agricultural University, Ludhiana - PPCB",01-03-2024 22:00:00,30.9028,75.8086,NH3,4,11,6
India,Punjab,Mandi Gobindgarh,"RIMT University, Mandi Gobindgarh - PPCB",01-03-2024 22:00:00,30.649961,76.331442,NH3,NA,NA,NA
India,Punjab,Mandi Gobindgarh,"RIMT University, Mandi Gobindgarh - PPCB",01-03-2024 22:00:00,30.649961,76.331442,CO,18,34,25
India,Punjab,Patiala,"Model Town, Patiala - PPCB",01-03-2024 22:00:00,30.349388,76.366642,PM2.5,66,214,112
India,Rajasthan,Ajmer,"Civil Lines,  Ajmer - RSPCB",01-03-2024 22:00:00,26.470859,74.646594,PM2.5,47,100,68
India,Rajasthan,Ajmer,"Civil Lines,  Ajmer - RSPCB",01-03-2024 22:00:00,26.470859,74.646594,SO2,12,17,15
India,Rajasthan,Alwar,"Moti Doongri, Alwar - RSPCB",01-03-2024 22:00:00,27.554793,76.611536,NH3,5,10,7
India,Rajasthan,Alwar,"Moti Doongri, Alwar - RSPCB",01-03-2024 22:00:00,27.554793,76.611536,SO2,4,61,31
India,Rajasthan,Alwar,"Moti Doongri, Alwar - RSPCB",01-03-2024 22:00:00,27.554793,76.611536,OZONE,7,22,18
India,Rajasthan,Banswara,"Rati Talai, Banswara - RSPCB",01-03-2024 22:00:00,23.555190,74.440010,PM10,53,117,79
India,Rajasthan,Banswara,"Rati Talai, Banswara - RSPCB",01-03-2024 22:00:00,23.555190,74.440010,NO2,9,57,24
India,Rajasthan,Baran,"Bamboliya, Baran - RSPCB",01-03-2024 22:00:00,25.106006,76.469948,PM2.5,24,83,52
India,Rajasthan,Baran,"Bamboliya, Baran - RSPCB",01-03-2024 22:00:00,25.106006,76.469948,NH3,2,5,4
India,Rajasthan,Barmer,"Railway Colony, Barmer - RSPCB",01-03-2024 22:00:00,25.747299,71.393989,CO,10,108,22
India,Rajasthan,Bharatpur,"Krishna Nagar, Bharatpur - RSPCB",01-03-2024 22:00:00,27.215415,77.50873,PM2.5,5,47,21
India,Rajasthan,Bharatpur,"Krishna Nagar, Bharatpur - RSPCB",01-03-2024 22:00:00,27.215415,77.50873,NH3,12,19,15
India,Rajasthan,Bhilwara,"Pratap Nagar, Bhilwara - RSPCB",01-03-2024 22:00:00,25.339605,74.618883,PM2.5,45,282,101
India,Rajasthan,Bhilwara,"Pratap Nagar, Bhilwara - RSPCB",01-03-2024 22:00:00,25.339605,74.618883,NH3,1,2,2
India,Rajasthan,Bhilwara,"Pratap Nagar, Bhilwara - RSPCB",01-03-2024 22:00:00,25.339605,74.618883,CO,20,45,22
India,Rajasthan,Bhilwara,"Pratap Nagar, Bhilwara - RSPCB",01-03-2024 22:00:00,25.339605,74.618883,OZONE,13,75,62
India,Rajasthan,Bhiwadi,"RIICO Ind. Area III, Bhiwadi - RSPCB",01-03-2024 22:00:00,28.194909,76.862296,SO2,6,19,12
India,Rajasthan,Bhiwadi,"Vasundhara Nagar_UIT, Bhiwadi - RSPCB",01-03-2024 22:00:00,28.207266,76.829265,PM10,135,440,242
India,Rajasthan,Bikaner,"MM Ground, Bikaner - RSPCB",01-03-2024 22:00:00,28.018792,73.292658,PM10,53,415,165
India,Rajasthan,Bikaner,"MM Ground, Bikaner - RSPCB",01-03-2024 22:00:00,28.018792,73.292658,NO2,36,98,68
India,Rajasthan,Bundi,"New Colony, Bundi - RSPCB",01-03-2024 22:00:00,25.435774,75.644272,PM10,48,151,97
India,Rajasthan,Bundi,"New Colony, Bundi - RSPCB",01-03-2024 22:00:00,25.435774,75.644272,NH3,3,4,3
India,Rajasthan,Bundi,"New Colony, Bundi - RSPCB",01-03-2024 22:00:00,25.435774,75.644272,OZONE,20,112,91
India,Rajasthan,Chittorgarh,"Shastri Nagar, Chittorgarh - RSPCB",01-03-2024 22:00:00,24.892047,74.623527,NO2,9,64,25
India,Rajasthan,Chittorgarh,"Shastri Nagar, Chittorgarh - RSPCB",01-03-2024 22:00:00,24.892047,74.623527,NH3,67,70,69
India,Rajasthan,Chittorgarh,"Shastri Nagar, Chittorgarh - RSPCB",01-03-2024 22:00:00,24.892047,74.623527,CO,12,24,15
India,Rajasthan,Churu,"Subash Chowk, Churu - RSPCB",01-03-2024 22:00:00,28.296139,74.961696,PM2.5,47,301,107
India,Rajasthan,Churu,"Subash Chowk, Churu - RSPCB",01-03-2024 22:00:00,28.296139,74.961696,OZONE,57,129,105
India,Rajasthan,Dausa,"Khatikan Mohalla, Dausa - RSPCB",01-03-2024 22:00:00,26.895552,76.334753,NH3,NA,NA,NA
India,Rajasthan,Dholpur,"Raja Ganj, Dholpur - RSPCB",01-03-2024 22:00:00,26.699557,77.898881,PM2.5,27,220,100
India,Rajasthan,Hanumangarh,"Housing Board, Hanumangarh - RSPCB",01-03-2024 22:00:00,29.610750,74.283608,PM10,106,308,176
India,Rajasthan,Hanumangarh,"Housing Board, Hanumangarh - RSPCB",01-03-2024 22:00:00,29.610750,74.283608,CO,28,66,41
India,Rajasthan,Jaipur,"Adarsh Nagar, Jaipur - RSPCB",01-03-2024 22:00:00,26.902909,75.836858,PM10,48,110,77
India,Rajasthan,Jaipur,"Adarsh Nagar, Jaipur - RSPCB",01-03-2024 22:00:00,26.902909,75.836858,SO2,5,71,16
India,Rajasthan,Jaipur,"Adarsh Nagar, Jaipur - RSPCB",01-03-2024 22:00:00,26.902909,75.836858,OZONE,22,49,35
India,Rajasthan,Jaipur,"Mansarovar Sector-12, Jaipur - RSPCB",01-03-2024 22:00:00,26.843698,75.766894,CO,68,87,70
India,Rajasthan,Jaipur,"Mansarovar Sector-12, Jaipur - RSPCB",01-03-2024 22:00:00,26.843698,75.766894,OZONE,6,11,9
India,Rajasthan,Jaipur,"Police Commissionerate, Jaipur - RSPCB",01-03-2024 22:00:00,26.9164092,75.7994901,PM10,68,131,103
India,Rajasthan,Jaipur,"Police Commissionerate, Jaipur - RSPCB",01-03-2024 22:00:00,26.9164092,75.7994901,OZONE,30,82,55
India,Rajasthan,Jaipur,"RIICO Sitapura, Jaipur - RSPCB",01-03-2024 22:00:00,26.786682,75.827928,PM10,39,272,126
India,Rajasthan,Jaipur,"RIICO Sitapura, Jaipur - RSPCB",01-03-2024 22:00:00,26.786682,75.827928,NO2,18,106,38
India,Rajasthan,Jaipur,"Sector-2 Murlipura, Jaipur - RSPCB",01-03-2024 22:00:00,26.960669,75.771817,NO2,3,20,9
India,Rajasthan,Jaipur,"Shastri Nagar, Jaipur - RSPCB",01-03-2024 22:00:00,26.9502929,75.730943,NO2,11,49,29
India,Rajasthan,Jaipur,"Shastri Nagar, Jaipur - RSPCB",01-03-2024 22:00:00,26.9502929,75.730943,NH3,1,8,4
India,Rajasthan,Jaisalmer,"Sadar Bazar, Jaisalmer - RSPCB",01-03-2024 22:00:00,26.912329,70.909168,PM10,54,145,107
India,Rajasthan,Jalore,"Mudtra Sili, Jalore - RSPCB",01-03-2024 22:00:00,25.344694,72.626208,PM2.5,38,168,78
India,Rajasthan,Jhalawar,"Rajlaxmi Nagar, Jhalawar - RSPCB",01-03-2024 22:00:00,24.588397,76.172782,NO2,3,24,9
India,Rajasthan,Jhunjhunu,"Indra Nagar, Jhunjhunu - RSPCB",01-03-2024 22:00:00,28.108988,75.386577,PM10,85,321,148
India,Rajasthan,Jodhpur,"Collectorate, Jodhpur - RSPCB",01-03-2024 22:00:00,26.268249,73.0193853,PM2.5,41,300,164
India,Rajasthan,Jodhpur,"Digari Kalan, Jodhpur - RSPCB",01-03-2024 22:00:00,26.295810,73.082283,PM2.5,42,129,61
India,Rajasthan,Jodhpur,"Digari Kalan, Jodhpur - RSPCB",01-03-2024 22:00:00,26.295810,73.082283,NO2,8,103,28
India,Rajasthan,Jodhpur,"Jhalamand, Jodhpur - RSPCB",01-03-2024 22:00:00,26.215415,73.070156,NO2,30,57,38
India,Rajasthan,Jodhpur,"Jhalamand, Jodhpur - RSPCB",01-03-2024 22:00:00,26.215415,73.070156,NH3,3,6,4
India,Rajasthan,Jodhpur,"Jhalamand, Jodhpur - RSPCB",01-03-2024 22:00:00,26.215415,73.070156,SO2,6,22,12
India,Rajasthan,Jodhpur,"Jhalamand, Jodhpur - RSPCB",01-03-2024 22:00:00,26.215415,73.070156,CO,12,60,16
India,Rajasthan,Jodhpur,"Mandor, Jodhpur - RSPCB",01-03-2024 22:00:00,26.358805,73.047444,PM10,67,232,117
India,Rajasthan,Jodhpur,"Mandor, Jodhpur - RSPCB",01-03-2024 22:00:00,26.358805,73.047444,SO2,1,12,5
India,Rajasthan,Jodhpur,"Samrat Ashok Udhyan, Jodhpur - RSPCB",01-03-2024 22:00:00,26.253384,72.976571,PM2.5,37,126,62
India,Rajasthan,Jodhpur,"Samrat Ashok Udhyan, Jodhpur - RSPCB",01-03-2024 22:00:00,26.253384,72.976571,NO2,9,68,28
India,Rajasthan,Karauli,"Satyawati Vihar, Karauli - RSPCB",01-03-2024 22:00:00,26.506177,77.025989,PM10,37,107,65
India,Rajasthan,Karauli,"Satyawati Vihar, Karauli - RSPCB",01-03-2024 22:00:00,26.506177,77.025989,NH3,3,7,4
India,Rajasthan,Karauli,"Satyawati Vihar, Karauli - RSPCB",01-03-2024 22:00:00,26.506177,77.025989,OZONE,17,40,23
India,Rajasthan,Kota,"Dhanmandi, Kota - RSPCB",01-03-2024 22:00:00,25.164090,75.858137,SO2,8,83,21
India,Rajasthan,Kota,"Nayapura, Kota - RSPCB",01-03-2024 22:00:00,25.196024,75.855668,PM2.5,27,302,68
India,Rajasthan,Kota,"Nayapura, Kota - RSPCB",01-03-2024 22:00:00,25.196024,75.855668,PM10,53,262,111
India,Rajasthan,Kota,"Nayapura, Kota - RSPCB",01-03-2024 22:00:00,25.196024,75.855668,OZONE,25,122,85
India,Rajasthan,Kota,"Shrinath Puram, Kota - RSPCB",01-03-2024 22:00:00,25.14389,75.821256,SO2,4,77,14
India,Rajasthan,Nagaur,"Karni Colony, Nagaur - RSPCB",01-03-2024 22:00:00,27.213494,73.734444,SO2,1,11,6
India,Rajasthan,Nagaur,"Karni Colony, Nagaur - RSPCB",01-03-2024 22:00:00,27.213494,73.734444,CO,18,36,27
India,Rajasthan,Nagaur,"Karni Colony, Nagaur - RSPCB",01-03-2024 22:00:00,27.213494,73.734444,OZONE,47,79,68
India,Rajasthan,Pali,"Indira Colony Vistar, Pali - RSPCB",01-03-2024 22:00:00,25.771061, 73.340227,PM2.5,81,302,162
India,Rajasthan,Pali,"Indira Colony Vistar, Pali - RSPCB",01-03-2024 22:00:00,25.771061, 73.340227,SO2,8,21,11
India,Rajasthan,Pali,"Indira Colony Vistar, Pali - RSPCB",01-03-2024 22:00:00,25.771061, 73.340227,OZONE,19,222,83
India,Rajasthan,Pratapgarh,"Pragati Nagar, Pratapgarh - RSPCB",01-03-2024 22:00:00,24.041198,74.780702,PM2.5,36,108,66
India,Rajasthan,Pratapgarh,"Pragati Nagar, Pratapgarh - RSPCB",01-03-2024 22:00:00,24.041198,74.780702,PM10,53,404,133
India,Rajasthan,Pratapgarh,"Pragati Nagar, Pratapgarh - RSPCB",01-03-2024 22:00:00,24.041198,74.780702,NH3,6,9,7
India,Rajasthan,Pratapgarh,"Pragati Nagar, Pratapgarh - RSPCB",01-03-2024 22:00:00,24.041198,74.780702,OZONE,48,145,123
India,Rajasthan,Rajsamand,"Dhoinda, Rajsamand - RSPCB",01-03-2024 22:00:00,25.036360,73.883502,NO2,8,65,28
India,Rajasthan,Rajsamand,"Dhoinda, Rajsamand - RSPCB",01-03-2024 22:00:00,25.036360,73.883502,NH3,4,6,5
India,Rajasthan,Sawai Madhopur,"Sahu Nagar, Sawai Madhopur - RSPCB",01-03-2024 22:00:00,26.031443,76.359327,PM10,8,125,61
India,Rajasthan,Sawai Madhopur,"Sahu Nagar, Sawai Madhopur - RSPCB",01-03-2024 22:00:00,26.031443,76.359327,CO,10,53,14
India,Rajasthan,Sawai Madhopur,"Sahu Nagar, Sawai Madhopur - RSPCB",01-03-2024 22:00:00,26.031443,76.359327,OZONE,32,123,82
India,Rajasthan,Sri Ganganagar,"Old City, Sri Ganganagar - RSPCB",01-03-2024 22:00:00,29.931624,73.864511,PM2.5,82,412,184
India,Rajasthan,Tonk,"Shastri Nagar, Tonk - RSPCB",01-03-2024 22:00:00,26.159933,75.780517,PM2.5,38,179,80
India,Rajasthan,Tonk,"Shastri Nagar, Tonk - RSPCB",01-03-2024 22:00:00,26.159933,75.780517,PM10,44,141,88
India,Rajasthan,Udaipur,"Ashok Nagar, Udaipur - RSPCB",01-03-2024 22:00:00,24.5886166,73.6321397,PM2.5,93,292,194
India,Rajasthan,Udaipur,"Ashok Nagar, Udaipur - RSPCB",01-03-2024 22:00:00,24.5886166,73.6321397,PM10,110,188,150
India,TamilNadu,Chengalpattu,"Crescent University, Chengalpattu - TNPCB",01-03-2024 22:00:00,12.8777316,80.0834807,SO2,23,26,25
India,TamilNadu,Chengalpattu,"Crescent University, Chengalpattu - TNPCB",01-03-2024 22:00:00,12.8777316,80.0834807,OZONE,6,6,6
India,TamilNadu,Chennai,"Arumbakkam, Chennai - TNPCB",01-03-2024 22:00:00,13.0664,80.2112 ,PM10,52,130,86
India,TamilNadu,Chennai,"Gandhi Nagar_Ennore, Chennai - TNPCB",01-03-2024 22:00:00,13.218341,80.32027,SO2,11,13,12
India,TamilNadu,Chennai,"Manali, Chennai - CPCB",01-03-2024 22:00:00,13.164544,80.26285,CO,16,106,54
India,TamilNadu,Chennai,"Perungudi, Chennai - TNPCB",01-03-2024 22:00:00,12.9533,80.2357,PM10,58,139,87
India,TamilNadu,Chennai,"Perungudi, Chennai - TNPCB",01-03-2024 22:00:00,12.9533,80.2357,NH3,2,3,2
India,TamilNadu,Chennai,"Royapuram, Chennai - TNPCB",01-03-2024 22:00:00,13.1036,80.2909,OZONE,8,11,9
India,TamilNadu,Chennai,"Velachery Res. Area, Chennai - CPCB",01-03-2024 22:00:00,13.0052189,80.2398125,PM2.5,7,180,49
India,TamilNadu,Coimbatore,"PSG College of Arts and Science, Coimbatore - TNPCB",01-03-2024 22:00:00,11.0328,77.0349,PM2.5,38,103,64
India,TamilNadu,Coimbatore,"PSG College of Arts and Science, Coimbatore - TNPCB",01-03-2024 22:00:00,11.0328,77.0349,OZONE,3,5,4
India,TamilNadu,Gummidipoondi,"Anthoni Pillai Nagar, Gummidipoondi - TNPCB",01-03-2024 22:00:00,13.4127,80.1081,PM10,46,222,100
India,TamilNadu,Gummidipoondi,"Anthoni Pillai Nagar, Gummidipoondi - TNPCB",01-03-2024 22:00:00,13.4127,80.1081,NH3,2,2,2
India,TamilNadu,Kanchipuram,"Kilambi, Kanchipuram - TNPCB",01-03-2024 22:00:00,12.864618,79.659968,PM2.5,NA,NA,NA
India,TamilNadu,Kanchipuram,"Kilambi, Kanchipuram - TNPCB",01-03-2024 22:00:00,12.864618,79.659968,SO2,NA,NA,NA
India,TamilNadu,Ooty,"Bombay Castel, Ooty - TNPCB",01-03-2024 22:00:00,11.4068288,76.7138973,PM2.5,10,72,37
India,TamilNadu,Ooty,"Bombay Castel, Ooty - TNPCB",01-03-2024 22:00:00,11.4068288,76.7138973,NH3,NA,NA,NA
India,TamilNadu,Palkalaiperur,"Bharathidasan University, Palkalaiperur - TNPCB",01-03-2024 22:00:00,10.681158,78.741746,PM10,37,500,70
India,TamilNadu,Ramanathapuram,"Chalai Bazaar, Ramanathapuram - TNPCB",01-03-2024 22:00:00,9.36399,78.831977,SO2,6,10,8
India,TamilNadu,Salem,"Sona College of Technology, Salem - TNPCB",01-03-2024 22:00:00,11.679111,78.125052,PM10,NA,NA,NA
India,TamilNadu,Salem,"Sona College of Technology, Salem - TNPCB",01-03-2024 22:00:00,11.679111,78.125052,CO,42,43,43
India,TamilNadu,Thoothukudi,"Meelavittan, Thoothukudi - TNPCB",01-03-2024 22:00:00,8.816428 ,78.099039,OZONE,2,11,7
India,TamilNadu,Tirupur,"Kumaran College, Tirupur - TNPCB",01-03-2024 22:00:00,11.0973603,77.3228673,PM10,NA,NA,NA
India,TamilNadu,Tirupur,"Kumaran College, Tirupur - TNPCB",01-03-2024 22:00:00,11.0973603,77.3228673,SO2,NA,NA,NA
India,TamilNadu,Vellore,"Vasanthapuram, Vellore - TNPCB",01-03-2024 22:00:00,12.909494,79.131861,NO2,NA,NA,NA
India,TamilNadu,Virudhunagar,"Collectorate Office, Virudhunagar - TNPCB",01-03-2024 22:00:00,9.559382,77.948828,PM2.5,NA,NA,NA
India,TamilNadu,Virudhunagar,"Collectorate Office, Virudhunagar - TNPCB",01-03-2024 22:00:00,9.559382,77.948828,PM10,NA,NA,NA
India,TamilNadu,Virudhunagar,"Collectorate Office, Virudhunagar - TNPCB",01-03-2024 22:00:00,9.559382,77.948828,SO2,NA,NA,NA
India,TamilNadu,Virudhunagar,"Collectorate Office, Virudhunagar - TNPCB",01-03-2024 22:00:00,9.559382,77.948828,OZONE,6,6,6
India,Telangana,Hyderabad,"Bollaram Industrial Area, Hyderabad - TSPCB",01-03-2024 22:00:00,17.540891,78.358528,PM10,68,141,94
India,Telangana,Hyderabad,"ECIL Kapra, Hyderabad - TSPCB",01-03-2024 22:00:00,17.470431,78.566959,NH3,6,7,6
India,Telangana,Hyderabad,"ICRISAT Patancheru, Hyderabad - TSPCB",01-03-2024 22:00:00,17.518400,78.278777,PM10,60,107,88
India,Telangana,Hyderabad,"ICRISAT Patancheru, Hyderabad - TSPCB",01-03-2024 22:00:00,17.518400,78.278777,NH3,2,2,2
India,Telangana,Hyderabad,"IITH Kandi, Hyderabad - TSPCB",01-03-2024 22:00:00,17.585705,78.126199,OZONE,7,27,26
India,Telangana,Hyderabad,"Kokapet, Hyderabad - TSPCB",01-03-2024 22:00:00,17.393559,78.339194,SO2,10,10,10
India,Telangana,Hyderabad,"Kompally Municipal Office, Hyderabad - TSPCB",01-03-2024 22:00:00,17.544899,78.486949,PM10,39,100,61
India,Telangana,Hyderabad,"Kompally Municipal Office, Hyderabad - TSPCB",01-03-2024 22:00:00,17.544899,78.486949,NO2,15,17,16
India,Telangana,Hyderabad,"Kompally Municipal Office, Hyderabad - TSPCB",01-03-2024 22:00:00,17.544899,78.486949,NH3,6,7,6
India,Telangana,Hyderabad,"New Malakpet, Hyderabad - TSPCB",01-03-2024 22:00:00,17.37206,78.50864,PM10,56,77,66
India,Telangana,Hyderabad,"Ramachandrapuram, Hyderabad - TSPCB",01-03-2024 22:00:00,17.528544,78.286195,SO2,10,18,14
India,Telangana,Hyderabad,"Sanathnagar, Hyderabad - TSPCB",01-03-2024 22:00:00,17.4559458,78.4332152,NO2,12,417,132
India,Tripura,Agartala,"Bardowali, Agartala - Tripura SPCB",01-03-2024 22:00:00,23.8175497,91.2726974,NH3,2,4,3
India,Uttar_Pradesh,Agra,"Manoharpur, Agra - UPPCB",01-03-2024 22:00:00,27.23711,78.01936,PM2.5,NA,NA,NA
India,Uttar_Pradesh,Agra,"Manoharpur, Agra - UPPCB",01-03-2024 22:00:00,27.23711,78.01936,PM10,NA,NA,NA
India,Uttar_Pradesh,Agra,"Rohta, Agra - UPPCB",01-03-2024 22:00:00,27.106972,78.000111,CO,3,26,4
India,Uttar_Pradesh,Agra,"Rohta, Agra - UPPCB",01-03-2024 22:00:00,27.106972,78.000111,OZONE,20,22,21
India,Uttar_Pradesh,Agra,"Sanjay Palace, Agra - UPPCB",01-03-2024 22:00:00,27.19865833,78.00598056,PM2.5,12,67,40
India,Uttar_Pradesh,Agra,"Sanjay Palace, Agra - UPPCB",01-03-2024 22:00:00,27.19865833,78.00598056,NO2,29,71,48
India,Uttar_Pradesh,Agra,"Sanjay Palace, Agra - UPPCB",01-03-2024 22:00:00,27.19865833,78.00598056,CO,20,128,36
India,Uttar_Pradesh,Agra,"Sector-3B Avas Vikas Colony, Agra - UPPCB",01-03-2024 22:00:00,27.19412,77.96237,NO2,14,49,31
India,Uttar_Pradesh,Agra,"Shahjahan Garden, Agra - UPPCB",01-03-2024 22:00:00,27.169338,78.03582,NH3,8,12,10
India,Uttar_Pradesh,Agra,"Shahjahan Garden, Agra - UPPCB",01-03-2024 22:00:00,27.169338,78.03582,CO,1,62,2
India,Uttar_Pradesh,Agra,"Shastripuram, Agra - UPPCB",01-03-2024 22:00:00,27.19862,77.92066,NO2,22,29,27
India,Uttar_Pradesh,Baghpat,"Sardar Patel Inter College, Baghpat - UPPCB",01-03-2024 22:00:00,28.964949,77.278761,NO2,23,80,52
India,Uttar_Pradesh,Bareilly,"Civil Lines, Bareilly - UPPCB",01-03-2024 22:00:00,28.359581,79.414455,PM10,61,110,86
India,Uttar_Pradesh,Bareilly,"Rajendra Nagar, Bareilly - UPPCB",01-03-2024 22:00:00,28.38910936,79.42963708,NO2,18,39,30
India,Uttar_Pradesh,Bulandshahr,"Yamunapuram, Bulandshahr - UPPCB",01-03-2024 22:00:00,28.406963,77.849831,PM10,72,190,128
India,Uttar_Pradesh,Firozabad,"Nagla Bhau, Firozabad - UPPCB",01-03-2024 22:00:00,27.168897,78.376960,PM2.5,17,185,50
India,Uttar_Pradesh,Firozabad,"Vibhab Nagar, Firozabad - UPPCB",01-03-2024 22:00:00,27.1594,78.3953,NO2,12,14,14
India,Uttar_Pradesh,Ghaziabad,"Indirapuram, Ghaziabad - UPPCB",01-03-2024 22:00:00,28.646233,77.358075,PM10,122,295,177
India,Uttar_Pradesh,Ghaziabad,"Indirapuram, Ghaziabad - UPPCB",01-03-2024 22:00:00,28.646233,77.358075,NO2,47,111,72
India,Uttar_Pradesh,Ghaziabad,"Loni, Ghaziabad - UPPCB",01-03-2024 22:00:00,28.757294,77.278792,NO2,25,68,40
India,Uttar_Pradesh,Ghaziabad,"Sanjay Nagar, Ghaziabad - UPPCB",01-03-2024 22:00:00,28.685382,77.453839,PM2.5,61,318,160
India,Uttar_Pradesh,Ghaziabad,"Sanjay Nagar, Ghaziabad - UPPCB",01-03-2024 22:00:00,28.685382,77.453839,PM10,92,226,146
India,Uttar_Pradesh,Ghaziabad,"Sanjay Nagar, Ghaziabad - UPPCB",01-03-2024 22:00:00,28.685382,77.453839,SO2,19,69,34
India,Uttar_Pradesh,Ghaziabad,"Vasundhara, Ghaziabad - UPPCB",01-03-2024 22:00:00,28.6603346,77.3572563,CO,6,120,49
India,Uttar_Pradesh,Gorakhpur,"Madan Mohan Malaviya University of Technology, Gorakhpur - UPPCB",01-03-2024 22:00:00,26.730136,83.433859,SO2,25,36,29
India,Uttar_Pradesh,Hapur,"Anand Vihar, Hapur - UPPCB",01-03-2024 22:00:00,28.725645,77.749675,SO2,22,87,46
India,Uttar_Pradesh,Jhansi,"Shivaji Nagar, Jhansi - UPPCB",01-03-2024 22:00:00,25.4547,78.6039,CO,10,40,12
India,Uttar_Pradesh,Kanpur,"FTI Kidwai Nagar, Kanpur - UPPCB",01-03-2024 22:00:00,26.428282,80.327067,PM2.5,30,177,94
India,Uttar_Pradesh,Kanpur,"NSI Kalyanpur, Kanpur - UPPCB",01-03-2024 22:00:00,26.509954,80.249612,PM2.5,27,136,79
India,Uttar_Pradesh,Kanpur,"NSI Kalyanpur, Kanpur - UPPCB",01-03-2024 22:00:00,26.509954,80.249612,SO2,22,27,22
India,Uttar_Pradesh,Kanpur,"Nehru Nagar, Kanpur - UPPCB",01-03-2024 22:00:00,26.4703136,80.3229863,CO,1,108,56
India,Uttar_Pradesh,Lucknow,"Kukrail Picnic Spot-1, Lucknow - UPPCB",01-03-2024 22:00:00,26.90723,80.98579,NH3,2,2,2
India,Uttar_Pradesh,Lucknow,"Talkatora District Industries Center, Lucknow - CPCB",01-03-2024 22:00:00,26.83399722,80.8917361,PM10,97,142,126
India,Uttar_Pradesh,Meerut,"Ganga Nagar, Meerut - UPPCB",01-03-2024 22:00:00,28.999264,77.7590354,PM10,96,164,123
India,Uttar_Pradesh,Meerut,"Ganga Nagar, Meerut - UPPCB",01-03-2024 22:00:00,28.999264,77.7590354,NH3,6,11,8
India,Uttar_Pradesh,Meerut,"Pallavpuram Phase 2, Meerut - UPPCB",01-03-2024 22:00:00,29.063510,77.709723,PM2.5,NA,NA,NA
India,Uttar_Pradesh,Meerut,"Pallavpuram Phase 2, Meerut - UPPCB",01-03-2024 22:00:00,29.063510,77.709723,SO2,NA,NA,NA
India,Uttar_Pradesh,Meerut,"Pallavpuram Phase 2, Meerut - UPPCB",01-03-2024 22:00:00,29.063510,77.709723,CO,52,94,70
India,Uttar_Pradesh,Meerut,"Pallavpuram Phase 2, Meerut - UPPCB",01-03-2024 22:00:00,29.063510,77.709723,OZONE,51,176,108
India,Uttar_Pradesh,Moradabad,"Eco Herbal Park, Moradabad - UPPCB",01-03-2024 22:00:00,28.840739,78.697531,CO,4,74,24
India,Uttar_Pradesh,Moradabad,"Eco Herbal Park, Moradabad - UPPCB",01-03-2024 22:00:00,28.840739,78.697531,OZONE,5,33,15
India,Uttar_Pradesh,Moradabad,"Employment Office, Moradabad - UPPCB",01-03-2024 22:00:00,28.88528,78.73880,PM2.5,NA,NA,NA
India,Uttar_Pradesh,Moradabad,"Employment Office, Moradabad - UPPCB",01-03-2024 22:00:00,28.88528,78.73880,NO2,NA,NA,NA
India,Uttar_Pradesh,Moradabad,"Employment Office, Moradabad - UPPCB",01-03-2024 22:00:00,28.88528,78.73880,NH3,NA,NA,NA
India,Uttar_Pradesh,Moradabad,"Employment Office, Moradabad - UPPCB",01-03-2024 22:00:00,28.88528,78.73880,OZONE,30,133,85
India,Uttar_Pradesh,Moradabad,"Jigar Colony, Moradabad - UPPCB",01-03-2024 22:00:00,28.856664,78.772638,PM2.5,52,114,69
India,Uttar_Pradesh,Moradabad,"Kashiram Nagar, Moradabad - UPPCB",01-03-2024 22:00:00,28.849399,78.742362,NO2,18,32,26
India,Uttar_Pradesh,Moradabad,"Kashiram Nagar, Moradabad - UPPCB",01-03-2024 22:00:00,28.849399,78.742362,NH3,4,4,4
India,Uttar_Pradesh,Moradabad,"Kashiram Nagar, Moradabad - UPPCB",01-03-2024 22:00:00,28.849399,78.742362,CO,38,50,44
India,Uttar_Pradesh,Muzaffarnagar,"New Mandi, Muzaffarnagar - UPPCB",01-03-2024 22:00:00,29.4723508,77.7194031,PM2.5,NA,NA,NA
India,Uttar_Pradesh,Noida,"Sector - 125, Noida - UPPCB",01-03-2024 22:00:00,28.5447608,77.3231257,PM10,95,366,160
India,Uttar_Pradesh,Noida,"Sector - 62, Noida - IMD",01-03-2024 22:00:00,28.6245479,77.3577104,CO,22,51,25
India,Uttar_Pradesh,Noida,"Sector-1, Noida - UPPCB",01-03-2024 22:00:00,28.5898,77.3101,NO2,44,144,91
India,Uttar_Pradesh,Noida,"Sector-116, Noida - UPPCB",01-03-2024 22:00:00,28.569230,77.393848,PM10,90,231,156
India,Uttar_Pradesh,Noida,"Sector-116, Noida - UPPCB",01-03-2024 22:00:00,28.569230,77.393848,CO,2,105,36
India,Uttar_Pradesh,Noida,"Sector-116, Noida - UPPCB",01-03-2024 22:00:00,28.569230,77.393848,OZONE,3,16,10
India,Uttar_Pradesh,Prayagraj,"Motilal Nehru NIT, Prayagraj - UPPCB",01-03-2024 22:00:00,25.494,81.863,NH3,5,7,6
India,Uttar_Pradesh,Prayagraj,"Motilal Nehru NIT, Prayagraj - UPPCB",01-03-2024 22:00:00,25.494,81.863,CO,11,44,19
India,Uttar_Pradesh,Prayagraj,"Motilal Nehru NIT, Prayagraj - UPPCB",01-03-2024 22:00:00,25.494,81.863,OZONE,5,30,21
India,Uttar_Pradesh,Prayagraj,"Nagar Nigam, Prayagraj - UPPCB",01-03-2024 22:00:00,25.44919916 ,81.82735986 ,PM2.5,14,157,66
India,Uttar_Pradesh,Prayagraj,"Nagar Nigam, Prayagraj - UPPCB",01-03-2024 22:00:00,25.44919916 ,81.82735986 ,PM10,28,215,112
India,Uttar_Pradesh,Prayagraj,"Nagar Nigam, Prayagraj - UPPCB",01-03-2024 22:00:00,25.44919916 ,81.82735986 ,NH3,5,10,8
India,Uttar_Pradesh,Varanasi,"Ardhali Bazar, Varanasi - UPPCB",01-03-2024 22:00:00,25.3505986,82.9083074,PM2.5,12,44,26
India,Uttar_Pradesh,Varanasi,"Ardhali Bazar, Varanasi - UPPCB",01-03-2024 22:00:00,25.3505986,82.9083074,PM10,12,47,28
India,Uttar_Pradesh,Varanasi,"Ardhali Bazar, Varanasi - UPPCB",01-03-2024 22:00:00,25.3505986,82.9083074,NO2,13,42,24
India,Uttar_Pradesh,Varanasi,"Bhelupur, Varanasi - UPPCB",01-03-2024 22:00:00,25.301778,82.996789,CO,16,85,36
India,Uttar_Pradesh,Varanasi,"IESD Banaras Hindu University, Varanasi - UPPCB",01-03-2024 22:00:00,25.262326,82.995408,PM10,16,40,29
India,Uttar_Pradesh,Varanasi,"IESD Banaras Hindu University, Varanasi - UPPCB",01-03-2024 22:00:00,25.262326,82.995408,CO,16,36,21
India,Uttar_Pradesh,Varanasi,"IESD Banaras Hindu University, Varanasi - UPPCB",01-03-2024 22:00:00,25.262326,82.995408,OZONE,NA,NA,NA
India,Uttar_Pradesh,Varanasi,"Maldahiya, Varanasi - UPPCB",01-03-2024 22:00:00,25.32393,82.99687,SO2,40,49,44
India,Uttar_Pradesh,Varanasi,"Maldahiya, Varanasi - UPPCB",01-03-2024 22:00:00,25.32393,82.99687,CO,5,58,22
India,Uttar_Pradesh,Vrindavan,"Omex Eternity, Vrindavan - UPPCB",01-03-2024 22:00:00,27.5714090,77.6557570,PM2.5,5,75,38
India,Uttar_Pradesh,Vrindavan,"Omex Eternity, Vrindavan - UPPCB",01-03-2024 22:00:00,27.5714090,77.6557570,OZONE,30,32,31
India,Uttarakhand,Dehradun,"Doon University, Dehradun - UKPCB",01-03-2024 22:00:00,30.269444,78.044167,PM2.5,29,231,106
India,Uttarakhand,Dehradun,"Doon University, Dehradun - UKPCB",01-03-2024 22:00:00,30.269444,78.044167,CO,27,52,35
India,West_Bengal,Barrackpore,"SVSPA Campus, Barrackpore - WBPCB",01-03-2024 22:00:00,22.7605581,88.3617589,PM10,99,254,151
India,West_Bengal,Barrackpore,"SVSPA Campus, Barrackpore - WBPCB",01-03-2024 22:00:00,22.7605581,88.3617589,OZONE,8,156,85
India,West_Bengal,Haldia,"Priyambada Housing Estate, Haldia - WBPCB",01-03-2024 22:00:00,22.06047,88.109737,NH3,3,5,4
India,West_Bengal,Haldia,"Priyambada Housing Estate, Haldia - WBPCB",01-03-2024 22:00:00,22.06047,88.109737,SO2,6,22,12
India,West_Bengal,Howrah,"Belur Math, Howrah - WBPCB",01-03-2024 22:00:00,22.629801,88.352017,PM10,94,173,126
India,West_Bengal,Kolkata,"Ballygunge, Kolkata - WBPCB",01-03-2024 22:00:00,22.5367507,88.3638022,PM2.5,68,221,137
India,West_Bengal,Kolkata,"Ballygunge, Kolkata - WBPCB",01-03-2024 22:00:00,22.5367507,88.3638022,PM10,98,162,129
India,West_Bengal,Kolkata,"Ballygunge, Kolkata - WBPCB",01-03-2024 22:00:00,22.5367507,88.3638022,NO2,32,132,76
India,West_Bengal,Kolkata,"Ballygunge, Kolkata - WBPCB",01-03-2024 22:00:00,22.5367507,88.3638022,NH3,12,17,14
India,West_Bengal,Kolkata,"Bidhannagar, Kolkata - WBPCB",01-03-2024 22:00:00,22.58157048,88.41002457,OZONE,5,131,54
India,West_Bengal,Kolkata,"Jadavpur, Kolkata - WBPCB",01-03-2024 22:00:00,22.49929,88.36917,PM10,91,157,133
India,West_Bengal,Kolkata,"Jadavpur, Kolkata - WBPCB",01-03-2024 22:00:00,22.49929,88.36917,NO2,2,26,6
India,West_Bengal,Kolkata,"Jadavpur, Kolkata - WBPCB",01-03-2024 22:00:00,22.49929,88.36917,CO,4,62,23
India,West_Bengal,Kolkata,"Rabindra Bharati University, Kolkata - WBPCB",01-03-2024 22:00:00,22.627847,88.380669,NO2,20,22,21
India,West_Bengal,Kolkata,"Rabindra Sarobar, Kolkata - WBPCB",01-03-2024 22:00:00,22.51106,88.35142,NH3,4,15,8
India,West_Bengal,Kolkata,"Victoria, Kolkata - WBPCB",01-03-2024 22:00:00,22.5448082,88.3403691,NH3,1,14,6
India,West_Bengal,Siliguri,"Ward-32 Bapupara, Siliguri - WBPCB",01-03-2024 22:00:00,26.6879226,88.4152495,PM2.5,NA,NA,NA
India,West_Bengal,Siliguri,"Ward-32 Bapupara, Siliguri - WBPCB",01-03-2024 22:00:00,26.6879226,88.4152495,PM10,6,271,140
India,Andhra_Pradesh,Amaravati,"Secretariat, Amaravati - APPCB",01-03-2024 22:00:00,16.5150833,80.5181667,PM10,53,91,67
India,Andhra_Pradesh,Anantapur,"Gulzarpet, Anantapur - APPCB",01-03-2024 22:00:00,14.675886,77.593027,PM2.5,24,52,39
India,Andhra_Pradesh,Anantapur,"Gulzarpet, Anantapur - APPCB",01-03-2024 22:00:00,14.675886,77.593027,NO2,NA,NA,NA
India,Andhra_Pradesh,Chittoor,"Gangineni Cheruvu, Chittoor - APPCB",01-03-2024 22:00:00,13.204880,79.097889,NO2,NA,NA,NA
India,Andhra_Pradesh,Kadapa,"Yerramukkapalli, Kadapa - APPCB",01-03-2024 22:00:00,14.465052,78.824187,PM10,35,55,43
India,Andhra_Pradesh,Kadapa,"Yerramukkapalli, Kadapa - APPCB",01-03-2024 22:00:00,14.465052,78.824187,NO2,8,8,8
India,Andhra_Pradesh,Rajamahendravaram,"Anand Kala Kshetram, Rajamahendravaram - APPCB",01-03-2024 22:00:00,16.9872867,81.7363176,PM2.5,73,104,87
India,Andhra_Pradesh,Rajamahendravaram,"Anand Kala Kshetram, Rajamahendravaram - APPCB",01-03-2024 22:00:00,16.9872867,81.7363176,PM10,81,122,97
India,Andhra_Pradesh,Rajamahendravaram,"Anand Kala Kshetram, Rajamahendravaram - APPCB",01-03-2024 22:00:00,16.9872867,81.7363176,NO2,13,57,29
India,Andhra_Pradesh,Rajamahendravaram,"Anand Kala Kshetram, Rajamahendravaram - APPCB",01-03-2024 22:00:00,16.9872867,81.7363176,CO,25,55,32
India,Andhra_Pradesh,Tirupati,"Tirumala, Tirupati - APPCB",01-03-2024 22:00:00,13.67,79.35,PM10,28,80,50
India,Andhra_Pradesh,Tirupati,"Tirumala, Tirupati - APPCB",01-03-2024 22:00:00,13.67,79.35,CO,36,62,45
India,Andhra_Pradesh,Tirupati,"Tirumala, Tirupati - APPCB",01-03-2024 22:00:00,13.67,79.35,OZONE,6,46,30
India,Andhra_Pradesh,Tirupati,"Vaikuntapuram, Tirupati - APPCB",01-03-2024 22:00:00,13.615387,79.409230,NH3,2,3,3
India,Andhra_Pradesh,Vijayawada,"HB Colony, Vijayawada - APPCB",01-03-2024 22:00:00,16.536107,80.594233,PM10,49,84,64
India,Andhra_Pradesh,Vijayawada,"HB Colony, Vijayawada - APPCB",01-03-2024 22:00:00,16.536107,80.594233,NO2,6,20,13
India,Andhra_Pradesh,Vijayawada,"HB Colony, Vijayawada - APPCB",01-03-2024 22:00:00,16.536107,80.594233,NH3,4,5,4
India,Andhra_Pradesh,Vijayawada,"Kanuru, Vijayawada - APPCB",01-03-2024 22:00:00,16.486692,80.699436,SO2,5,8,6
India,Andhra_Pradesh,Vijayawada,"Rajiv Gandhi Park, Vijayawada - APPCB",01-03-2024 22:00:00,16.509717,80.612222,SO2,5,7,6
India,Andhra_Pradesh,Vijayawada,"Rajiv Gandhi Park, Vijayawada - APPCB",01-03-2024 22:00:00,16.509717,80.612222,CO,31,32,32
India,Andhra_Pradesh,Vijayawada,"Rajiv Gandhi Park, Vijayawada - APPCB",01-03-2024 22:00:00,16.509717,80.612222,OZONE,1,55,33
India,Andhra_Pradesh,Vijayawada,"Rajiv Nagar, Vijayawada - APPCB",01-03-2024 22:00:00,16.554731,80.649110,NO2,5,12,8
India,Arunachal_Pradesh,Naharlagun,"Naharlagun, Naharlagun - APSPCB",01-03-2024 22:00:00,27.103358,93.679645,OZONE,2,2,2
India,Assam,Byrnihat,"Central Academy for SFS, Byrnihat - PCBA",01-03-2024 22:00:00,26.071318,91.87488,OZONE,12,20,20
India,Assam,Guwahati,"IITG, Guwahati - PCBA",01-03-2024 22:00:00,26.2028636,91.70046436,SO2,12,14,13
India,Assam,Guwahati,"Railway Colony, Guwahati - PCBA",01-03-2024 22:00:00,26.181742,91.78063,NO2,3,4,3
India,Assam,Nagaon,"Christianpatty, Nagaon - PCBA",01-03-2024 22:00:00,26.349082,92.68449,CO,13,129,70
India,Assam,Nalbari,"Bata Chowk, Nalbari - PCBA",01-03-2024 22:00:00,26.446912,91.439057,PM10,56,478,176
India,Assam,Nalbari,"Bata Chowk, Nalbari - PCBA",01-03-2024 22:00:00,26.446912,91.439057,NO2,14,41,22
India,Assam,Silchar,"Tarapur, Silchar - PCBA",01-03-2024 22:00:00,24.82827,92.79525,NH3,1,1,1
India,Bihar,Arrah,"New DM Office, Arrah - BSPCB",01-03-2024 22:00:00,25.5626095,84.663264,PM10,71,145,100
India,Bihar,Arrah,"New DM Office, Arrah - BSPCB",01-03-2024 22:00:00,25.5626095,84.663264,SO2,15,21,18
India,Bihar,Arrah,"New DM Office, Arrah - BSPCB",01-03-2024 22:00:00,25.5626095,84.663264,OZONE,14,37,15
India,Bihar,Bettiah,"Kamalnath Nagar, Bettiah - BSPCB",01-03-2024 22:00:00,26.80365,84.51954,PM2.5,42,325,182
India,Bihar,Bettiah,"Kamalnath Nagar, Bettiah - BSPCB",01-03-2024 22:00:00,26.80365,84.51954,NO2,31,45,39
India,Bihar,Bhagalpur,"Mayaganj, Bhagalpur - BSPCB",01-03-2024 22:00:00,25.265194,87.012947,NO2,5,16,9
India,Bihar,Bihar Sharif,"D M Colony, Bihar Sharif - BSPCB",01-03-2024 22:00:00,25.204762,85.514960,PM2.5,NA,NA,NA
India,Bihar,Bihar Sharif,"D M Colony, Bihar Sharif - BSPCB",01-03-2024 22:00:00,25.204762,85.514960,OZONE,4,4,4
India,Bihar,Chhapra,"Darshan Nagar, Chhapra - BSPCB",01-03-2024 22:00:00,25.7808257,84.7446768,SO2,24,106,51
India,Bihar,Gaya,"SFTI Kusdihra, Gaya - BSPCB",01-03-2024 22:00:00,24.762518,84.982348,PM10,39,93,61
India,Bihar,Gaya,"SFTI Kusdihra, Gaya - BSPCB",01-03-2024 22:00:00,24.762518,84.982348,NH3,3,6,4
India,Bihar,Gaya,"SFTI Kusdihra, Gaya - BSPCB",01-03-2024 22:00:00,24.762518,84.982348,SO2,5,9,7
India,Bihar,Gaya,"SFTI Kusdihra, Gaya - BSPCB",01-03-2024 22:00:00,24.762518,84.982348,CO,16,56,20
India,Bihar,Hajipur,"Industrial Area, Hajipur - BSPCB",01-03-2024 22:00:00,25.697189,85.245900,NH3,11,63,18
India,Bihar,Katihar,"Mirchaibari, Katihar - BSPCB",01-03-2024 22:00:00,25.560083,87.553265,CO,13,13,13
India,Bihar,Kishanganj,"SDM Office_Khagra, Kishanganj - BSPCB",01-03-2024 22:00:00,26.0881305,87.93840336,PM2.5,12,396,138
India,Bihar,Manguraha,"Forest Rest House, Manguraha - BSPCB",01-03-2024 22:00:00,27.308328,84.531742,NH3,NA,NA,NA
India,Bihar,Manguraha,"Forest Rest House, Manguraha - BSPCB",01-03-2024 22:00:00,27.308328,84.531742,SO2,NA,NA,NA
India,Bihar,Manguraha,"Forest Rest House, Manguraha - BSPCB",01-03-2024 22:00:00,27.308328,84.531742,OZONE,23,82,69
India,Bihar,Motihari,"Gandak Colony, Motihari - BSPCB",01-03-2024 22:00:00,26.63086,84.90051,SO2,1,6,3
India,Bihar,Munger,"Town Hall, Munger - BSPCB",01-03-2024 22:00:00,25.376776,86.471523,PM10,63,453,200
India,Bihar,Munger,"Town Hall, Munger - BSPCB",01-03-2024 22:00:00,25.376776,86.471523,NH3,1,2,2
India,Bihar,Munger,"Town Hall, Munger - BSPCB",01-03-2024 22:00:00,25.376776,86.471523,CO,62,90,64
India,Bihar,Muzaffarpur,"Buddha Colony, Muzaffarpur - BSPCB",01-03-2024 22:00:00,26.11442,85.39813,NO2,NA,NA,NA
India,Bihar,Muzaffarpur,"Buddha Colony, Muzaffarpur - BSPCB",01-03-2024 22:00:00,26.11442,85.39813,CO,20,71,51
India,Bihar,Muzaffarpur,"MIT-Daudpur Kothi, Muzaffarpur - BSPCB",01-03-2024 22:00:00,26.1403345,85.3650192,SO2,10,17,15
India,Bihar,Patna,"DRM Office Danapur, Patna - BSPCB",01-03-2024 22:00:00,25.586562,85.043586,NH3,3,4,3
India,Bihar,Patna,"DRM Office Danapur, Patna - BSPCB",01-03-2024 22:00:00,25.586562,85.043586,SO2,7,9,8
India,Bihar,Patna,"DRM Office Danapur, Patna - BSPCB",01-03-2024 22:00:00,25.586562,85.043586,OZONE,1,66,34
India,Bihar,Patna,"Govt. High School Shikarpur, Patna - BSPCB",01-03-2024 22:00:00,25.592539,85.227158,NH3,4,4,4
India,Bihar,Patna,"IGSC Planetarium Complex, Patna - BSPCB",01-03-2024 22:00:00,25.610369,85.132568,PM2.5,36,161,86
India,Bihar,Patna,"IGSC Planetarium Complex, Patna - BSPCB",01-03-2024 22:00:00,25.610369,85.132568,CO,13,18,15
India,Bihar,Patna,"Muradpur, Patna - BSPCB",01-03-2024 22:00:00,25.619651,85.147382,NO2,11,24,16
India,Bihar,Patna,"Rajbansi Nagar, Patna - BSPCB",01-03-2024 22:00:00,25.599486,85.113666,NO2,38,66,48
India,Bihar,Patna,"Rajbansi Nagar, Patna - BSPCB",01-03-2024 22:00:00,25.599486,85.113666,OZONE,3,82,35
India,Bihar,Patna,"Samanpura, Patna - BSPCB",01-03-2024 22:00:00,25.596727,85.085624,PM10,121,453,223
India,Bihar,Purnia,"Mariam Nagar, Purnia - BSPCB",01-03-2024 22:00:00,25.366336,87.117468,PM2.5,38,283,109
India,Bihar,Purnia,"Mariam Nagar, Purnia - BSPCB",01-03-2024 22:00:00,25.366336,87.117468,PM10,69,290,116
India,Bihar,Purnia,"Mariam Nagar, Purnia - BSPCB",01-03-2024 22:00:00,25.366336,87.117468,OZONE,7,92,34
India,Bihar,Rajgir,"Dangi Tola, Rajgir - BSPCB",01-03-2024 22:00:00,25.03280,85.41948,NO2,NA,NA,NA
India,Bihar,Rajgir,"Dangi Tola, Rajgir - BSPCB",01-03-2024 22:00:00,25.03280,85.41948,NH3,1,1,1
India,Bihar,Rajgir,"Dangi Tola, Rajgir - BSPCB",01-03-2024 22:00:00,25.03280,85.41948,SO2,NA,NA,NA
India,Bihar,Samastipur,"DM Office_Kasipur, Samastipur - BSPCB",01-03-2024 22:00:00,25.859655,85.77944,NH3,2,4,3
India,Bihar,Sasaram,"Dada Peer, Sasaram - BSPCB",01-03-2024 22:00:00,24.952822,84.002396,NO2,13,30,19
India,Bihar,Siwan,"Chitragupta Nagar, Siwan - BSPCB",01-03-2024 22:00:00,26.2271665,84.3570427,NO2,14,94,30
India,Bihar,Siwan,"Chitragupta Nagar, Siwan - BSPCB",01-03-2024 22:00:00,26.2271665,84.3570427,CO,13,177,164
India,Bihar,Siwan,"Chitragupta Nagar, Siwan - BSPCB",01-03-2024 22:00:00,26.2271665,84.3570427,OZONE,29,93,76
India,Chandigarh,Chandigarh,"Sector 22, Chandigarh - CPCC",01-03-2024 22:00:00,30.735567,76.775714,CO,46,78,57
India,Chandigarh,Chandigarh,"Sector-25, Chandigarh - CPCC",01-03-2024 22:00:00,30.751462,76.762879,NO2,19,51,34
India,Chandigarh,Chandigarh,"Sector-25, Chandigarh - CPCC",01-03-2024 22:00:00,30.751462,76.762879,CO,28,93,56
India,Chandigarh,Chandigarh,"Sector-25, Chandigarh - CPCC",01-03-2024 22:00:00,30.751462,76.762879,OZONE,1,35,14
India,Chandigarh,Chandigarh,"Sector-53, Chandigarh - CPCC",01-03-2024 22:00:00,30.719859,76.738637,NH3,4,8,6
India,Chandigarh,Chandigarh,"Sector-53, Chandigarh - CPCC",01-03-2024 22:00:00,30.719859,76.738637,CO,50,117,77
India,Chhattisgarh,Bhilai,"32Bungalows, Bhilai - CECB",01-03-2024 22:00:00,21.194815,81.314770,PM10,33,97,70
India,Chhattisgarh,Bhilai,"Civic Center, Bhilai - Bhilai Steel Plant",01-03-2024 22:00:00,21.185571,81.343175,NO2,NA,NA,NA
India,Chhattisgarh,Bhilai,"Civic Center, Bhilai - Bhilai Steel Plant",01-03-2024 22:00:00,21.185571,81.343175,NH3,NA,NA,NA
India,Chhattisgarh,Bhilai,"Hathkhoj, Bhilai - CECB",01-03-2024 22:00:00,21.224231,81.408350,PM2.5,42,198,85
India,Chhattisgarh,Bhilai,"Hathkhoj, Bhilai - CECB",01-03-2024 22:00:00,21.224231,81.408350,PM10,44,192,113
India,Chhattisgarh,Bhilai,"Hathkhoj, Bhilai - CECB",01-03-2024 22:00:00,21.224231,81.408350,OZONE,8,26,16
India,Chhattisgarh,Korba,"Rampur, Korba - CECB",01-03-2024 22:00:00,22.368195,82.746431,CO,20,35,25
India,Chhattisgarh,Korba,"Rampur, Korba - CECB",01-03-2024 22:00:00,22.368195,82.746431,OZONE,1,7,4
India,Chhattisgarh,Korba,"Urja Nagar, Korba - CECB",01-03-2024 22:00:00,22.348441,82.549611,OZONE,1,33,11
India,Chhattisgarh,Kunjemura,"OP Jindal School, Kunjemura - CECB",01-03-2024 22:00:00,22.126650,83.483212,CO,22,55,30
India,Chhattisgarh,Milupara,"Govt. Higher Secondary School, Milupara - CECB",01-03-2024 22:00:00,22.1910172,83.5197009,PM2.5,1,33,17
India,Chhattisgarh,Milupara,"Govt. Higher Secondary School, Milupara - CECB",01-03-2024 22:00:00,22.1910172,83.5197009,OZONE,1,67,53
India,Chhattisgarh,Raipur,"Krishak Nagar, Raipur - CECB",01-03-2024 22:00:00,21.237755,81.705301,SO2,9,24,13
India,Chhattisgarh,Raipur,"Siltara Phase-II, Raipur - CECB",01-03-2024 22:00:00,21.371751,81.664929,SO2,5,57,18
India,Delhi,Delhi,"Alipur, Delhi - DPCC",01-03-2024 22:00:00,28.815329,77.153010,PM2.5,78,319,167
India,Delhi,Delhi,"Alipur, Delhi - DPCC",01-03-2024 22:00:00,28.815329,77.153010,NO2,31,105,68
India,Delhi,Delhi,"Alipur, Delhi - DPCC",01-03-2024 22:00:00,28.815329,77.153010,SO2,6,33,16
India,Delhi,Delhi,"Ashok Vihar, Delhi - DPCC",01-03-2024 22:00:00,28.695381,77.181665,PM2.5,70,321,167
India,Delhi,Delhi,"Ashok Vihar, Delhi - DPCC",01-03-2024 22:00:00,28.695381,77.181665,PM10,129,366,188
India,Delhi,Delhi,"Ashok Vihar, Delhi - DPCC",01-03-2024 22:00:00,28.695381,77.181665,NO2,45,127,86
India,Delhi,Delhi,"Aya Nagar, Delhi - IMD",01-03-2024 22:00:00,28.4706914,77.1099364,CO,23,50,29
India,Delhi,Delhi,"Bawana, Delhi - DPCC",01-03-2024 22:00:00,28.776200,77.051074,PM10,175,430,255
India,Delhi,Delhi,"Bawana, Delhi - DPCC",01-03-2024 22:00:00,28.776200,77.051074,NH3,5,8,7
India,Delhi,Delhi,"Burari Crossing, Delhi - IMD",01-03-2024 22:00:00,28.7256504,77.2011573,PM2.5,NA,NA,NA
India,Delhi,Delhi,"Burari Crossing, Delhi - IMD",01-03-2024 22:00:00,28.7256504,77.2011573,PM10,NA,NA,NA
India,Delhi,Delhi,"Chandni Chowk, Delhi - IITM",01-03-2024 22:00:00,28.656756,77.227234,CO,123,152,130
India,Delhi,Delhi,"Chandni Chowk, Delhi - IITM",01-03-2024 22:00:00,28.656756,77.227234,OZONE,24,31,29
India,Delhi,Delhi,"DTU, Delhi - CPCB",01-03-2024 22:00:00,28.7500499,77.1112615,OZONE,26,100,43
India,Delhi,Delhi,"Dr. Karni Singh Shooting Range, Delhi - DPCC",01-03-2024 22:00:00,28.498571,77.264840,PM10,118,234,164
India,Delhi,Delhi,"Dr. Karni Singh Shooting Range, Delhi - DPCC",01-03-2024 22:00:00,28.498571,77.264840,SO2,5,38,14
India,Delhi,Delhi,"Dwarka-Sector 8, Delhi - DPCC ",01-03-2024 22:00:00,28.5710274,77.0719006,OZONE,1,102,61
India,Delhi,Delhi,"IHBAS, Dilshad Garden, Delhi - CPCB",01-03-2024 22:00:00,28.6811736,77.3025234,PM10,116,173,138
India,Delhi,Delhi,"IHBAS, Dilshad Garden, Delhi - CPCB",01-03-2024 22:00:00,28.6811736,77.3025234,SO2,4,26,17
India,Delhi,Delhi,"ITO, Delhi - CPCB",01-03-2024 22:00:00,28.628624,77.241060,PM10,104,226,169
India,Delhi,Delhi,"ITO, Delhi - CPCB",01-03-2024 22:00:00,28.628624,77.241060,NO2,34,307,152
India,Delhi,Delhi,"Jawaharlal Nehru Stadium, Delhi - DPCC",01-03-2024 22:00:00,28.580280,77.233829,NO2,57,140,106
India,Delhi,Delhi,"Lodhi Road, Delhi - IMD",01-03-2024 22:00:00,28.5918245,77.2273074,PM2.5,49,281,165
India,Delhi,Delhi,"Major Dhyan Chand National Stadium, Delhi - DPCC",01-03-2024 22:00:00,28.611281,77.237738,PM10,101,220,156
India,Delhi,Delhi,"Major Dhyan Chand National Stadium, Delhi - DPCC",01-03-2024 22:00:00,28.611281,77.237738,NH3,6,10,8
India,Delhi,Delhi,"Mandir Marg, Delhi - DPCC",01-03-2024 22:00:00,28.636429,77.201067,SO2,7,10,9
India,Delhi,Delhi,"Mandir Marg, Delhi - DPCC",01-03-2024 22:00:00,28.636429,77.201067,OZONE,6,33,19
India,Delhi,Delhi,"Mundka, Delhi - DPCC",01-03-2024 22:00:00,28.684678,77.076574,SO2,NA,NA,NA
India,Delhi,Delhi,"NSIT Dwarka, Delhi - CPCB",01-03-2024 22:00:00,28.60909,77.0325413,SO2,14,18,15
India,Delhi,Delhi,"NSIT Dwarka, Delhi - CPCB",01-03-2024 22:00:00,28.60909,77.0325413,CO,23,77,44
India,Delhi,Delhi,"Najafgarh, Delhi - DPCC",01-03-2024 22:00:00,28.570173,76.933762,NO2,7,8,7
India,Delhi,Delhi,"Najafgarh, Delhi - DPCC",01-03-2024 22:00:00,28.570173,76.933762,CO,8,77,24
India,Delhi,Delhi,"Narela, Delhi - DPCC",01-03-2024 22:00:00,28.822836,77.101981,NO2,39,106,66
India,Delhi,Delhi,"Narela, Delhi - DPCC",01-03-2024 22:00:00,28.822836,77.101981,SO2,4,39,17
India,Delhi,Delhi,"Narela, Delhi - DPCC",01-03-2024 22:00:00,28.822836,77.101981,OZONE,3,236,111
India,Delhi,Delhi,"Nehru Nagar, Delhi - DPCC",01-03-2024 22:00:00,28.567890,77.250515,NO2,12,59,30
India,Delhi,Delhi,"Patparganj, Delhi - DPCC",01-03-2024 22:00:00,28.623763,77.287209,PM2.5,60,245,142
India,Delhi,Delhi,"Patparganj, Delhi - DPCC",01-03-2024 22:00:00,28.623763,77.287209,NH3,7,13,9
India,Delhi,Delhi,"Patparganj, Delhi - DPCC",01-03-2024 22:00:00,28.623763,77.287209,SO2,1,17,7
India,Delhi,Delhi,"Pusa, Delhi - IMD",01-03-2024 22:00:00,28.636110,77.173332,PM2.5,NA,NA,NA
India,Delhi,Delhi,"Rohini, Delhi - DPCC",01-03-2024 22:00:00,28.732528,77.119920,PM2.5,77,374,252
India,Delhi,Delhi,"Shadipur, Delhi - CPCB",01-03-2024 22:00:00,28.6514781,77.1473105,PM10,164,429,243
India,Delhi,Delhi,"Sirifort, Delhi - CPCB",01-03-2024 22:00:00,28.5504249,77.2159377,NH3,6,14,10
India,Delhi,Delhi,"Sirifort, Delhi - CPCB",01-03-2024 22:00:00,28.5504249,77.2159377,SO2,39,59,44
India,Delhi,Delhi,"Sonia Vihar, Delhi - DPCC",01-03-2024 22:00:00,28.710508,77.249485,PM10,166,323,241
India,Delhi,Delhi,"Sonia Vihar, Delhi - DPCC",01-03-2024 22:00:00,28.710508,77.249485,SO2,6,37,19
India,Delhi,Delhi,"Sonia Vihar, Delhi - DPCC",01-03-2024 22:00:00,28.710508,77.249485,CO,46,110,72
India,Delhi,Delhi,"Sri Aurobindo Marg, Delhi - DPCC",01-03-2024 22:00:00,28.531346,77.190156,CO,24,90,56
India,Gujarat,Ahmedabad,"Chandkheda, Ahmedabad - IITM",01-03-2024 22:00:00,23.107969,72.574648,PM10,91,184,135
India,Gujarat,Ahmedabad,"Chandkheda, Ahmedabad - IITM",01-03-2024 22:00:00,23.107969,72.574648,OZONE,5,71,47
India,Gujarat,Ahmedabad,"Gyaspur, Ahmedabad - IITM",01-03-2024 22:00:00,22.977134,72.553024,PM2.5,22,378,98
India,Gujarat,Ahmedabad,"Gyaspur, Ahmedabad - IITM",01-03-2024 22:00:00,22.977134,72.553024,NH3,4,4,4
India,Gujarat,Ahmedabad,"Maninagar, Ahmedabad - GPCB",01-03-2024 22:00:00,23.002657,72.591912,PM10,48,269,160
India,Gujarat,Ahmedabad,"Maninagar, Ahmedabad - GPCB",01-03-2024 22:00:00,23.002657,72.591912,CO,10,112,46
India,Gujarat,Ahmedabad,"Raikhad, Ahmedabad - IITM",01-03-2024 22:00:00,23.020509,72.579261,PM2.5,144,460,302
India,Gujarat,Ahmedabad,"Rakhial, Ahmedabad - IITM",01-03-2024 22:00:00,23.016834,72.625775,PM2.5,62,339,186
India,Gujarat,Ahmedabad,"Rakhial, Ahmedabad - IITM",01-03-2024 22:00:00,23.016834,72.625775,PM10,76,281,153
India,Gujarat,Ahmedabad,"SAC ISRO Satellite, Ahmedabad - IITM",01-03-2024 22:00:00,23.023389,72.515201,NO2,17,18,17
India,Gujarat,Ahmedabad,"SVPI Airport Hansol, Ahmedabad - IITM",01-03-2024 22:00:00,23.076793,72.627874,CO,22,87,32
India,Gujarat,Ahmedabad,"Sardar Vallabhbhai Patel Stadium, Ahmedabad - IITM",01-03-2024 22:00:00,23.043070,72.562968,PM10,NA,NA,NA
India,Gujarat,Ankleshwar,"GIDC, Ankleshwar - GPCB",01-03-2024 22:00:00,21.613267,73.010555,PM2.5,44,176,115
India,Gujarat,Ankleshwar,"GIDC, Ankleshwar - GPCB",01-03-2024 22:00:00,21.613267,73.010555,PM10,38,117,91
India,Gujarat,Ankleshwar,"GIDC, Ankleshwar - GPCB",01-03-2024 22:00:00,21.613267,73.010555,NH3,7,7,7
India,Gujarat,Ankleshwar,"GIDC, Ankleshwar - GPCB",01-03-2024 22:00:00,21.613267,73.010555,SO2,13,73,33
India,Gujarat,Gandhinagar,"IIPHG Lekawada, Gandhinagar - IITM",01-03-2024 22:00:00,23.243639,72.68994,NH3,3,3,3
India,Gujarat,Gandhinagar,"IIPHG Lekawada, Gandhinagar - IITM",01-03-2024 22:00:00,23.243639,72.68994,OZONE,7,45,26
India,Gujarat,Gandhinagar,"Sector-10, Gandhinagar - GPCB",01-03-2024 22:00:00,23.221714,72.654328,NH3,1,2,2
India,Gujarat,Gandhinagar,"Sector-10, Gandhinagar - GPCB",01-03-2024 22:00:00,23.221714,72.654328,SO2,5,16,8
India,Gujarat,Nandesari,"GIDC, Nandesari - Nandesari Ind. Association",01-03-2024 22:00:00,22.410802,73.097923,PM10,114,324,218
India,Gujarat,Nandesari,"GIDC, Nandesari - Nandesari Ind. Association",01-03-2024 22:00:00,22.410802,73.097923,NO2,2,42,12
India,Gujarat,Surat,"Science Center, Surat - SMC",01-03-2024 22:00:00,21.170046,72.795405,NO2,24,37,31
India,Gujarat,Vapi,"Phase-1 GIDC, Vapi - GPCB",01-03-2024 22:00:00,20.362421,72.918013,CO,1,184,158
India,Gujarat,Vatva,"Phase-4 GIDC, Vatva - GPCB",01-03-2024 22:00:00,22.969611,72.643500,NO2,35,209,63
India,Gujarat,Vatva,"Phase-4 GIDC, Vatva - GPCB",01-03-2024 22:00:00,22.969611,72.643500,CO,39,168,70
India,Haryana,Ambala,"Patti Mehar, Ambala - HSPCB",01-03-2024 22:00:00,30.379589,76.778328,NH3,6,8,8
India,Haryana,Bahadurgarh,"Arya Nagar, Bahadurgarh - HSPCB",01-03-2024 22:00:00,28.6701,76.9254,PM10,113,194,151
India,Haryana,Bahadurgarh,"Arya Nagar, Bahadurgarh - HSPCB",01-03-2024 22:00:00,28.6701,76.9254,NO2,32,40,36
India,Haryana,Ballabgarh,"Nathu Colony, Ballabgarh - HSPCB",01-03-2024 22:00:00,28.3419248,77.319699,NO2,12,13,12
India,Haryana,Ballabgarh,"Nathu Colony, Ballabgarh - HSPCB",01-03-2024 22:00:00,28.3419248,77.319699,NH3,1,2,2
India,Haryana,Bhiwani,"H.B. Colony, Bhiwani - HSPCB",01-03-2024 22:00:00,28.806223,76.141105,PM2.5,30,266,129
India,Haryana,Bhiwani,"H.B. Colony, Bhiwani - HSPCB",01-03-2024 22:00:00,28.806223,76.141105,OZONE,5,57,12
India,Haryana,Charkhi Dadri,"Mini Secretariat, Charkhi Dadri - HSPCB",01-03-2024 22:00:00,28.593883,76.270653,PM2.5,67,201,113
India,Haryana,Charkhi Dadri,"Mini Secretariat, Charkhi Dadri - HSPCB",01-03-2024 22:00:00,28.593883,76.270653,NO2,8,9,9
India,Haryana,Dharuhera,"Municipal Corporation Office, Dharuhera -  HSPCB",01-03-2024 22:00:00,28.206800,76.799700,SO2,10,34,20
India,Haryana,Dharuhera,"Municipal Corporation Office, Dharuhera -  HSPCB",01-03-2024 22:00:00,28.206800,76.799700,CO,18,73,28
India,Haryana,Faridabad,"New Industrial Town, Faridabad - HSPCB",01-03-2024 22:00:00,28.39072,77.30059,PM2.5,3,320,154
India,Haryana,Faridabad,"New Industrial Town, Faridabad - HSPCB",01-03-2024 22:00:00,28.39072,77.30059,OZONE,36,250,100
India,Haryana,Faridabad,"Sector 11, Faridabad - HSPCB",01-03-2024 22:00:00,28.376058,77.315741,PM10,103,281,163
India,Haryana,Faridabad,"Sector 11, Faridabad - HSPCB",01-03-2024 22:00:00,28.376058,77.315741,CO,14,48,19
India,Haryana,Faridabad,"Sector 30, Faridabad - HSPCB",01-03-2024 22:00:00,28.4417,77.3217,NO2,30,33,31
India,Haryana,Fatehabad,"Huda Sector, Fatehabad - HSPCB",01-03-2024 22:00:00,29.503664,75.467934,PM10,80,120,101
India,Haryana,Fatehabad,"Huda Sector, Fatehabad - HSPCB",01-03-2024 22:00:00,29.503664,75.467934,NH3,10,10,10
India,Haryana,Gurugram,"Sector-51, Gurugram - HSPCB",01-03-2024 22:00:00,28.4227,77.0667,CO,28,111,33
India,Haryana,Gurugram,"Sector-51, Gurugram - HSPCB",01-03-2024 22:00:00,28.4227,77.0667,OZONE,27,67,56
India,Haryana,Gurugram,"Teri Gram, Gurugram - HSPCB",01-03-2024 22:00:00,28.4275,77.1465,NO2,26,57,42
India,Haryana,Gurugram,"Vikas Sadan, Gurugram - HSPCB",01-03-2024 22:00:00,28.4501238,77.0263051,PM2.5,35,500,135
India,Haryana,Gurugram,"Vikas Sadan, Gurugram - HSPCB",01-03-2024 22:00:00,28.4501238,77.0263051,CO,54,138,95
India,Haryana,Jind,"Police Lines, Jind - HSPCB",01-03-2024 22:00:00,29.307814,76.337619,PM2.5,62,180,114
India,Haryana,Jind,"Police Lines, Jind - HSPCB",01-03-2024 22:00:00,29.307814,76.337619,SO2,10,104,26
India,Haryana,Jind,"Police Lines, Jind - HSPCB",01-03-2024 22:00:00,29.307814,76.337619,OZONE,1,22,21
India,Haryana,Kaithal,"Rishi Nagar, Kaithal - HSPCB",01-03-2024 22:00:00,29.8006,76.4155,CO,12,72,59
India,Haryana,Karnal,"Sector-12, Karnal - HSPCB",01-03-2024 22:00:00,29.695300,77.002700,PM10,71,234,108
India,Haryana,Karnal,"Sector-12, Karnal - HSPCB",01-03-2024 22:00:00,29.695300,77.002700,CO,33,63,54
India,Haryana,Kurukshetra,"Sector-7, Kurukshetra - HSPCB",01-03-2024 22:00:00,29.966942,76.875879,NO2,10,10,10
India,Haryana,Mandikhera,"General Hospital, Mandikhera - HSPCB",01-03-2024 22:00:00,27.9002,76.9938,PM2.5,32,65,47
India,Haryana,Manesar,"Sector-2 IMT, Manesar - HSPCB",01-03-2024 22:00:00,28.360699,76.936090,SO2,5,57,20
India,Haryana,Narnaul,"Shastri Nagar, Narnaul - HSPCB",01-03-2024 22:00:00,28.060249,76.113115,NO2,16,58,35
India,Haryana,Narnaul,"Shastri Nagar, Narnaul - HSPCB",01-03-2024 22:00:00,28.060249,76.113115,CO,8,14,11
India,Haryana,Palwal,"Shyam Nagar, Palwal - HSPCB",01-03-2024 22:00:00,28.1485564,77.3320667,NH3,8,9,9
India,Haryana,Rohtak,"MD University, Rohtak - HSPCB",01-03-2024 22:00:00,28.52123,76.37138,PM2.5,8,311,109
India,Haryana,Rohtak,"MD University, Rohtak - HSPCB",01-03-2024 22:00:00,28.52123,76.37138,NO2,45,58,52
India,Haryana,Sirsa,"F-Block, Sirsa - HSPCB",01-03-2024 22:00:00,29.536400,75.015800,PM2.5,44,79,58
India,Haryana,Yamuna Nagar,"Gobind Pura, Yamuna Nagar - HSPCB",01-03-2024 22:00:00,30.1480566,77.2893471,PM2.5,80,295,137
India,Himachal Pradesh,Baddi,"HIMUDA Complex Phase-1, Baddi - HPPCB",01-03-2024 22:00:00,30.943887,76.801991,CO,12,55,22
India,Himachal Pradesh,Baddi,"HIMUDA Complex Phase-1, Baddi - HPPCB",01-03-2024 22:00:00,30.943887,76.801991,OZONE,8,63,53
India,Jharkhand,Dhanbad,"Kalakusuma, Dhanbad - DMC",01-03-2024 22:00:00,23.811548,86.481238,PM10,55,285,148
India,Jharkhand,Dhanbad,"Kalakusuma, Dhanbad - DMC",01-03-2024 22:00:00,23.811548,86.481238,OZONE,17,81,39
India,Jharkhand,Dhanbad,"Sardar Patel Nagar, Dhanbad - JSPCB",01-03-2024 22:00:00,23.80569,86.44268,NO2,14,169,126
India,Jharkhand,Dhanbad,"Sardar Patel Nagar, Dhanbad - JSPCB",01-03-2024 22:00:00,23.80569,86.44268,SO2,6,122,35
India,Karnataka,Belgaum,"Ramteerth Nagar, Belgaum - KSPCB",01-03-2024 22:00:00,15.888653,74.541751,SO2,8,9,9
India,Karnataka,Bengaluru,"BTM Layout, Bengaluru - CPCB",01-03-2024 22:00:00,12.9135218,77.5950804,NO2,35,42,37
India,Karnataka,Bengaluru,"BTM Layout, Bengaluru - CPCB",01-03-2024 22:00:00,12.9135218,77.5950804,OZONE,29,86,67
India,Karnataka,Bengaluru,"Bapuji Nagar, Bengaluru - KSPCB",01-03-2024 22:00:00,12.951913,77.539784,SO2,4,6,5
India,Karnataka,Bengaluru,"Bapuji Nagar, Bengaluru - KSPCB",01-03-2024 22:00:00,12.951913,77.539784,CO,24,35,32
India,Karnataka,Bengaluru,"Bapuji Nagar, Bengaluru - KSPCB",01-03-2024 22:00:00,12.951913,77.539784,OZONE,4,14,10
India,Karnataka,Bengaluru,"Hebbal, Bengaluru - KSPCB",01-03-2024 22:00:00,13.029152,77.585901,OZONE,8,16,10
India,Karnataka,Bengaluru,"Hombegowda Nagar, Bengaluru - KSPCB",01-03-2024 22:00:00,12.938539,77.590100,NH3,2,2,2
India,Karnataka,Bengaluru,"Jigani, Bengaluru - KSPCB",01-03-2024 22:00:00,12.7816279,77.6299145,PM2.5,NA,NA,NA
India,Karnataka,Bengaluru,"Jigani, Bengaluru - KSPCB",01-03-2024 22:00:00,12.7816279,77.6299145,SO2,16,16,16
India,Karnataka,Bengaluru,"Kasturi Nagar, Bengaluru - KSPCB",01-03-2024 22:00:00,13.003872,77.664217,NO2,16,17,17
India,Karnataka,Bengaluru,"Kasturi Nagar, Bengaluru - KSPCB",01-03-2024 22:00:00,13.003872,77.664217,NH3,3,4,4
India,Karnataka,Bengaluru,"Kasturi Nagar, Bengaluru - KSPCB",01-03-2024 22:00:00,13.003872,77.664217,OZONE,27,90,77
India,Karnataka,Bengaluru,"Peenya, Bengaluru - CPCB",01-03-2024 22:00:00,13.0270199,77.494094,PM2.5,27,52,41
India,Karnataka,Bengaluru,"Peenya, Bengaluru - CPCB",01-03-2024 22:00:00,13.0270199,77.494094,PM10,34,65,51
India,Karnataka,Bengaluru,"Peenya, Bengaluru - CPCB",01-03-2024 22:00:00,13.0270199,77.494094,NO2,14,27,22
India,Karnataka,Bengaluru,"RVCE-Mailasandra, Bengaluru - KSPCB",01-03-2024 22:00:00,12.921418,77.502466,NO2,38,39,39
India,Karnataka,Bengaluru,"RVCE-Mailasandra, Bengaluru - KSPCB",01-03-2024 22:00:00,12.921418,77.502466,SO2,7,9,8
India,Karnataka,Bengaluru,"RVCE-Mailasandra, Bengaluru - KSPCB",01-03-2024 22:00:00,12.921418,77.502466,OZONE,42,43,43
India,Karnataka,Bengaluru,"Shivapura_Peenya, Bengaluru - KSPCB",01-03-2024 22:00:00,13.0246342,77.5080115,PM2.5,14,115,51
India,Karnataka,Bengaluru,"Silk Board, Bengaluru - KSPCB",01-03-2024 22:00:00,12.917348,77.622813,CO,31,44,39
India,Karnataka,Bidar,"Naubad, Bidar - KSPCB",01-03-2024 22:00:00,17.930306,77.482194,NH3,3,3,3
India,Karnataka,Chikkaballapur,"Chikkaballapur Rural, Chikkaballapur - KSPCB",01-03-2024 22:00:00,13.428828,77.731418,CO,8,30,10
India,Karnataka,Chikkamagaluru,"Kalyana Nagara, Chikkamagaluru - KSPCB",01-03-2024 22:00:00,13.328028,75.797056,PM2.5,46,82,62
India,Karnataka,Chikkamagaluru,"Kalyana Nagara, Chikkamagaluru - KSPCB",01-03-2024 22:00:00,13.328028,75.797056,SO2,2,5,3
