country,state,city,station,last_update,latitude,longitude,pollutant_id,pollutant_min,pollutant_max,pollutant_avg
India,Andhra_Pradesh,Anantapur,"Gulzarpet, Anantapur - APPCB",03-04-2024 08:00:00,14.675886,77.593027,PM10,72,103,88
India,Andhra_Pradesh,Anantapur,"Gulzarpet, Anantapur - APPCB",03-04-2024 08:00:00,14.675886,77.593027,SO2,5,10,7
India,Andhra_Pradesh,Anantapur,"Gulzarpet, Anantapur - APPCB",03-04-2024 08:00:00,14.675886,77.593027,OZONE,9,66,22
India,Andhra_Pradesh,Chittoor,"Gangineni Cheruvu, Chittoor - APPCB",03-04-2024 08:00:00,13.204880,79.097889,NO2,4,11,6
India,Andhra_Pradesh,Tirupati,"Tirumala, Tirupati - APPCB",03-04-2024 08:00:00,13.67,79.35,OZONE,18,85,27
India,Andhra_Pradesh,Tirupati,"Vaikuntapuram, Tirupati - APPCB",03-04-2024 08:00:00,13.615387,79.409230,PM2.5,NA,NA,NA
India,Andhra_Pradesh,Tirupati,"Vaikuntapuram, Tirupati - APPCB",03-04-2024 08:00:00,13.615387,79.409230,NO2,NA,NA,NA
India,Andhra_Pradesh,Vijayawada,"Rajiv Nagar, Vijayawada - APPCB",03-04-2024 08:00:00,16.554731,80.649110,PM2.5,42,85,48
India,Andhra_Pradesh,Visakhapatnam,"GVM Corporation, Visakhapatnam - APPCB",03-04-2024 08:00:00,17.72,83.3,NO2,33,47,39
India,Andhra_Pradesh,Visakhapatnam,"GVM Corporation, Visakhapatnam - APPCB",03-04-2024 08:00:00,17.72,83.3,NH3,3,5,3
India,Assam,Byrnihat,"Central Academy for SFS, Byrnihat - PCBA",03-04-2024 08:00:00,26.071318,91.87488,PM2.5,97,499,288
India,Assam,Byrnihat,"Central Academy for SFS, Byrnihat - PCBA",03-04-2024 08:00:00,26.071318,91.87488,NH3,3,8,5
India,Assam,Byrnihat,"Central Academy for SFS, Byrnihat - PCBA",03-04-2024 08:00:00,26.071318,91.87488,OZONE,17,22,21
India,Assam,Guwahati,"IITG, Guwahati - PCBA",03-04-2024 08:00:00,26.2028636,91.70046436,NH3,5,5,5
India,Assam,Guwahati,"IITG, Guwahati - PCBA",03-04-2024 08:00:00,26.2028636,91.70046436,OZONE,2,43,9
India,Assam,Guwahati,"Pan Bazaar, Guwahati - PCBA",03-04-2024 08:00:00,26.187500,91.744194,PM2.5,37,185,79
India,Assam,Guwahati,"Railway Colony, Guwahati - PCBA",03-04-2024 08:00:00,26.181742,91.78063,PM2.5,1,500,214
India,Assam,Guwahati,"Railway Colony, Guwahati - PCBA",03-04-2024 08:00:00,26.181742,91.78063,CO,12,125,38
India,Assam,Nalbari,"Bata Chowk, Nalbari - PCBA",03-04-2024 08:00:00,26.446912,91.439057,NO2,11,59,21
India,Assam,Silchar,"Tarapur, Silchar - PCBA",03-04-2024 08:00:00,24.82827,92.79525,PM2.5,23,39,33
India,Assam,Silchar,"Tarapur, Silchar - PCBA",03-04-2024 08:00:00,24.82827,92.79525,CO,28,35,34
India,Assam,Silchar,"Tarapur, Silchar - PCBA",03-04-2024 08:00:00,24.82827,92.79525,OZONE,1,21,1
India,Bihar,Araria,"Kharahiya Basti, Araria - BSPCB",03-04-2024 08:00:00,26.146529,87.454184,PM2.5,21,430,129
India,Bihar,Araria,"Kharahiya Basti, Araria - BSPCB",03-04-2024 08:00:00,26.146529,87.454184,PM10,NA,NA,NA
India,Bihar,Arrah,"New DM Office, Arrah - BSPCB",03-04-2024 08:00:00,25.5626095,84.663264,OZONE,9,43,15
India,Bihar,Aurangabad,"Gurdeo Nagar, Aurangabad - BSPCB",03-04-2024 08:00:00,24.75746,84.366208,NH3,2,6,5
India,Bihar,Bettiah,"Kamalnath Nagar, Bettiah - BSPCB",03-04-2024 08:00:00,26.80365,84.51954,PM10,51,114,86
India,Bihar,Bhagalpur,"Mayaganj, Bhagalpur - BSPCB",03-04-2024 08:00:00,25.265194,87.012947,PM10,31,127,71
India,Bihar,Bihar Sharif,"D M Colony, Bihar Sharif - BSPCB",03-04-2024 08:00:00,25.204762,85.514960,NO2,NA,NA,NA
India,Bihar,Buxar,"Charitra Van, Buxar - BSPCB (Formerly known as Central Jail)",03-04-2024 08:00:00,25.567520,83.966379,SO2,NA,NA,NA
India,Bihar,Chhapra,"Darshan Nagar, Chhapra - BSPCB",03-04-2024 08:00:00,25.7808257,84.7446768,NO2,23,29,26
India,Bihar,Gaya,"Collectorate, Gaya - BSPCB",03-04-2024 08:00:00,24.7955,84.9994,SO2,5,19,11
India,Bihar,Gaya,"Collectorate, Gaya - BSPCB",03-04-2024 08:00:00,24.7955,84.9994,CO,9,48,28
India,Bihar,Gaya,"Kareemganj, Gaya - BSPCB",03-04-2024 08:00:00,24.792403,84.992416,NH3,1,7,3
India,Bihar,Gaya,"Kareemganj, Gaya - BSPCB",03-04-2024 08:00:00,24.792403,84.992416,SO2,6,10,8
India,Bihar,Gaya,"SFTI Kusdihra, Gaya - BSPCB",03-04-2024 08:00:00,24.762518,84.982348,PM10,71,101,84
India,Bihar,Gaya,"SFTI Kusdihra, Gaya - BSPCB",03-04-2024 08:00:00,24.762518,84.982348,NH3,4,5,4
India,Bihar,Gaya,"SFTI Kusdihra, Gaya - BSPCB",03-04-2024 08:00:00,24.762518,84.982348,OZONE,7,78,18
India,Bihar,Hajipur,"Industrial Area, Hajipur - BSPCB",03-04-2024 08:00:00,25.697189,85.245900,PM10,145,408,236
India,Bihar,Hajipur,"Industrial Area, Hajipur - BSPCB",03-04-2024 08:00:00,25.697189,85.245900,OZONE,12,68,22
India,Bihar,Katihar,"Mirchaibari, Katihar - BSPCB",03-04-2024 08:00:00,25.560083,87.553265,NO2,26,38,31
India,Bihar,Katihar,"Mirchaibari, Katihar - BSPCB",03-04-2024 08:00:00,25.560083,87.553265,NH3,6,9,8
India,Bihar,Kishanganj,"SDM Office_Khagra, Kishanganj - BSPCB",03-04-2024 08:00:00,26.0881305,87.93840336,CO,1,15,7
India,Bihar,Motihari,"Gandak Colony, Motihari - BSPCB",03-04-2024 08:00:00,26.63086,84.90051,SO2,NA,NA,NA
India,Bihar,Munger,"Town Hall, Munger - BSPCB",03-04-2024 08:00:00,25.376776,86.471523,NO2,8,9,9
India,Bihar,Munger,"Town Hall, Munger - BSPCB",03-04-2024 08:00:00,25.376776,86.471523,NH3,1,2,2
India,Bihar,Munger,"Town Hall, Munger - BSPCB",03-04-2024 08:00:00,25.376776,86.471523,OZONE,28,141,29
India,Bihar,Muzaffarpur,"MIT-Daudpur Kothi, Muzaffarpur - BSPCB",03-04-2024 08:00:00,26.1403345,85.3650192,NO2,5,8,7
India,Bihar,Muzaffarpur,"MIT-Daudpur Kothi, Muzaffarpur - BSPCB",03-04-2024 08:00:00,26.1403345,85.3650192,OZONE,14,80,32
India,Bihar,Patna,"DRM Office Danapur, Patna - BSPCB",03-04-2024 08:00:00,25.586562,85.043586,PM10,118,145,131
India,Bihar,Patna,"Govt. High School Shikarpur, Patna - BSPCB",03-04-2024 08:00:00,25.592539,85.227158,PM2.5,89,205,143
India,Bihar,Patna,"Govt. High School Shikarpur, Patna - BSPCB",03-04-2024 08:00:00,25.592539,85.227158,SO2,7,14,10
India,Bihar,Patna,"Muradpur, Patna - BSPCB",03-04-2024 08:00:00,25.619651,85.147382,PM10,185,333,257
India,Bihar,Patna,"Muradpur, Patna - BSPCB",03-04-2024 08:00:00,25.619651,85.147382,CO,9,56,22
India,Bihar,Patna,"Rajbansi Nagar, Patna - BSPCB",03-04-2024 08:00:00,25.599486,85.113666,OZONE,9,114,36
India,Bihar,Patna,"Samanpura, Patna - BSPCB",03-04-2024 08:00:00,25.596727,85.085624,NO2,22,48,35
India,Bihar,Purnia,"Mariam Nagar, Purnia - BSPCB",03-04-2024 08:00:00,25.366336,87.117468,PM2.5,NA,NA,NA
India,Bihar,Purnia,"Mariam Nagar, Purnia - BSPCB",03-04-2024 08:00:00,25.366336,87.117468,SO2,6,14,11
India,Bihar,Rajgir,"Dangi Tola, Rajgir - BSPCB",03-04-2024 08:00:00,25.03280,85.41948,PM2.5,18,60,34
India,Bihar,Rajgir,"Dangi Tola, Rajgir - BSPCB",03-04-2024 08:00:00,25.03280,85.41948,SO2,4,4,4
India,Bihar,Saharsa,"Police Line, Saharsa - BSPCB",03-04-2024 08:00:00,25.892357,86.590325,CO,18,74,25
India,Bihar,Samastipur,"DM Office_Kasipur, Samastipur - BSPCB",03-04-2024 08:00:00,25.859655,85.77944,PM2.5,33,197,77
India,Bihar,Samastipur,"DM Office_Kasipur, Samastipur - BSPCB",03-04-2024 08:00:00,25.859655,85.77944,NO2,4,16,9
India,Bihar,Samastipur,"DM Office_Kasipur, Samastipur - BSPCB",03-04-2024 08:00:00,25.859655,85.77944,NH3,4,4,4
India,Bihar,Samastipur,"DM Office_Kasipur, Samastipur - BSPCB",03-04-2024 08:00:00,25.859655,85.77944,SO2,2,63,18
India,Bihar,Sasaram,"Dada Peer, Sasaram - BSPCB",03-04-2024 08:00:00,24.952822,84.002396,SO2,20,28,25
India,Bihar,Siwan,"Chitragupta Nagar, Siwan - BSPCB",03-04-2024 08:00:00,26.2271665,84.3570427,NO2,10,47,23
India,Bihar,Siwan,"Chitragupta Nagar, Siwan - BSPCB",03-04-2024 08:00:00,26.2271665,84.3570427,NH3,1,5,2
India,Bihar,Siwan,"Chitragupta Nagar, Siwan - BSPCB",03-04-2024 08:00:00,26.2271665,84.3570427,CO,58,136,84
India,Chandigarh,Chandigarh,"Sector 22, Chandigarh - CPCC",03-04-2024 08:00:00,30.735567,76.775714,CO,24,64,47
India,Chandigarh,Chandigarh,"Sector-25, Chandigarh - CPCC",03-04-2024 08:00:00,30.751462,76.762879,PM10,101,125,110
India,Chandigarh,Chandigarh,"Sector-25, Chandigarh - CPCC",03-04-2024 08:00:00,30.751462,76.762879,NO2,4,32,13
India,Chandigarh,Chandigarh,"Sector-25, Chandigarh - CPCC",03-04-2024 08:00:00,30.751462,76.762879,NH3,8,18,14
India,Chandigarh,Chandigarh,"Sector-53, Chandigarh - CPCC",03-04-2024 08:00:00,30.719859,76.738637,PM2.5,30,207,88
India,Chandigarh,Chandigarh,"Sector-53, Chandigarh - CPCC",03-04-2024 08:00:00,30.719859,76.738637,OZONE,5,57,13
India,Chhattisgarh,Bhilai,"Civic Center, Bhilai - Bhilai Steel Plant",03-04-2024 08:00:00,21.185571,81.343175,NH3,3,5,5
India,Chhattisgarh,Bhilai,"Civic Center, Bhilai - Bhilai Steel Plant",03-04-2024 08:00:00,21.185571,81.343175,OZONE,9,80,12
India,Chhattisgarh,Korba,"Rampur, Korba - CECB",03-04-2024 08:00:00,22.368195,82.746431,SO2,7,72,19
India,Chhattisgarh,Korba,"Urja Nagar, Korba - CECB",03-04-2024 08:00:00,22.348441,82.549611,PM10,NA,NA,NA
India,Chhattisgarh,Korba,"Urja Nagar, Korba - CECB",03-04-2024 08:00:00,22.348441,82.549611,NH3,3,6,5
India,Chhattisgarh,Korba,"Urja Nagar, Korba - CECB",03-04-2024 08:00:00,22.348441,82.549611,SO2,2,6,4
India,Chhattisgarh,Korba,"Urja Nagar, Korba - CECB",03-04-2024 08:00:00,22.348441,82.549611,CO,26,50,42
India,Chhattisgarh,Korba,"Urja Nagar, Korba - CECB",03-04-2024 08:00:00,22.348441,82.549611,OZONE,1,4,1
India,Chhattisgarh,Kunjemura,"OP Jindal School, Kunjemura - CECB",03-04-2024 08:00:00,22.126650,83.483212,NO2,24,144,72
India,Chhattisgarh,Kunjemura,"OP Jindal School, Kunjemura - CECB",03-04-2024 08:00:00,22.126650,83.483212,NH3,1,4,2
India,Chhattisgarh,Kunjemura,"OP Jindal School, Kunjemura - CECB",03-04-2024 08:00:00,22.126650,83.483212,SO2,6,70,20
India,Chhattisgarh,Milupara,"Govt. Higher Secondary School, Milupara - CECB",03-04-2024 08:00:00,22.1910172,83.5197009,NH3,NA,NA,NA
India,Chhattisgarh,Raipur,"AIIMS, Raipur - CECB",03-04-2024 08:00:00,21.258815,81.578979,NO2,NA,NA,NA
India,Chhattisgarh,Raipur,"AIIMS, Raipur - CECB",03-04-2024 08:00:00,21.258815,81.578979,OZONE,NA,NA,NA
India,Chhattisgarh,Raipur,"Bhatagaon New ISBT, Raipur - CECB",03-04-2024 08:00:00,21.219665,81.630094,NH3,2,3,3
India,Chhattisgarh,Raipur,"Krishak Nagar, Raipur - CECB",03-04-2024 08:00:00,21.237755,81.705301,NH3,1,1,1
India,Chhattisgarh,Raipur,"Siltara Phase-II, Raipur - CECB",03-04-2024 08:00:00,21.371751,81.664929,NH3,3,3,3
India,Chhattisgarh,Raipur,"Siltara Phase-II, Raipur - CECB",03-04-2024 08:00:00,21.371751,81.664929,SO2,6,88,38
India,Chhattisgarh,Tumidih,"OP Jindal Industrial Park, Tumidih - CECB",03-04-2024 08:00:00,22.06631475,83.33820077,PM2.5,43,184,90
India,Chhattisgarh,Tumidih,"OP Jindal Industrial Park, Tumidih - CECB",03-04-2024 08:00:00,22.06631475,83.33820077,NO2,14,62,31
India,Chhattisgarh,Tumidih,"OP Jindal Industrial Park, Tumidih - CECB",03-04-2024 08:00:00,22.06631475,83.33820077,OZONE,6,104,13
India,Delhi,Delhi,"Alipur, Delhi - DPCC",03-04-2024 08:00:00,28.815329,77.153010,NO2,5,82,31
India,Delhi,Delhi,"Anand Vihar, Delhi - DPCC",03-04-2024 08:00:00,28.647622,77.3158090,SO2,27,67,40
India,Delhi,Delhi,"Anand Vihar, Delhi - DPCC",03-04-2024 08:00:00,28.647622,77.3158090,OZONE,4,92,10
India,Delhi,Delhi,"Ashok Vihar, Delhi - DPCC",03-04-2024 08:00:00,28.695381,77.181665,PM2.5,29,237,109
India,Delhi,Delhi,"Ashok Vihar, Delhi - DPCC",03-04-2024 08:00:00,28.695381,77.181665,PM10,140,252,165
India,Delhi,Delhi,"Ashok Vihar, Delhi - DPCC",03-04-2024 08:00:00,28.695381,77.181665,CO,9,64,39
India,Delhi,Delhi,"Aya Nagar, Delhi - IMD",03-04-2024 08:00:00,28.4706914,77.1099364,PM2.5,27,195,94
India,Delhi,Delhi,"Aya Nagar, Delhi - IMD",03-04-2024 08:00:00,28.4706914,77.1099364,NO2,58,63,61
India,Delhi,Delhi,"Burari Crossing, Delhi - IMD",03-04-2024 08:00:00,28.7256504,77.2011573,NO2,16,22,19
India,Delhi,Delhi,"Burari Crossing, Delhi - IMD",03-04-2024 08:00:00,28.7256504,77.2011573,OZONE,15,66,24
India,Delhi,Delhi,"Chandni Chowk, Delhi - IITM",03-04-2024 08:00:00,28.656756,77.227234,CO,38,50,49
India,Delhi,Delhi,"DTU, Delhi - CPCB",03-04-2024 08:00:00,28.7500499,77.1112615,OZONE,NA,NA,NA
India,Delhi,Delhi,"Dr. Karni Singh Shooting Range, Delhi - DPCC",03-04-2024 08:00:00,28.498571,77.264840,PM10,103,206,131
India,Delhi,Delhi,"IGI Airport (T3), Delhi - IMD",03-04-2024 08:00:00,28.5627763,77.1180053,OZONE,1,39,3
India,Delhi,Delhi,"Jahangirpuri, Delhi - DPCC",03-04-2024 08:00:00,28.732820,77.170633,NO2,28,130,82
India,Delhi,Delhi,"Jahangirpuri, Delhi - DPCC",03-04-2024 08:00:00,28.732820,77.170633,NH3,1,14,8
India,Delhi,Delhi,"Jawaharlal Nehru Stadium, Delhi - DPCC",03-04-2024 08:00:00,28.580280,77.233829,NH3,5,8,6
India,Delhi,Delhi,"Lodhi Road, Delhi - IITM",03-04-2024 08:00:00,28.588333,77.221667,PM2.5,37,500,272
India,Delhi,Delhi,"Lodhi Road, Delhi - IITM",03-04-2024 08:00:00,28.588333,77.221667,OZONE,15,19,15
India,Delhi,Delhi,"Major Dhyan Chand National Stadium, Delhi - DPCC",03-04-2024 08:00:00,28.611281,77.237738,PM10,66,165,108
India,Delhi,Delhi,"Mundka, Delhi - DPCC",03-04-2024 08:00:00,28.684678,77.076574,SO2,11,51,20
India,Delhi,Delhi,"Mundka, Delhi - DPCC",03-04-2024 08:00:00,28.684678,77.076574,CO,26,72,58
India,Delhi,Delhi,"Mundka, Delhi - DPCC",03-04-2024 08:00:00,28.684678,77.076574,OZONE,26,137,42
India,Delhi,Delhi,"Najafgarh, Delhi - DPCC",03-04-2024 08:00:00,28.570173,76.933762,CO,20,82,39
India,Delhi,Delhi,"Nehru Nagar, Delhi - DPCC",03-04-2024 08:00:00,28.567890,77.250515,PM10,93,209,140
India,Delhi,Delhi,"Nehru Nagar, Delhi - DPCC",03-04-2024 08:00:00,28.567890,77.250515,NH3,8,10,9
India,Delhi,Delhi,"Nehru Nagar, Delhi - DPCC",03-04-2024 08:00:00,28.567890,77.250515,OZONE,2,89,6
India,Delhi,Delhi,"North Campus, DU, Delhi - IMD",03-04-2024 08:00:00,28.6573814,77.1585447,PM2.5,NA,NA,NA
India,Delhi,Delhi,"North Campus, DU, Delhi - IMD",03-04-2024 08:00:00,28.6573814,77.1585447,NO2,NA,NA,NA
India,Delhi,Delhi,"North Campus, DU, Delhi - IMD",03-04-2024 08:00:00,28.6573814,77.1585447,OZONE,NA,NA,NA
India,Delhi,Delhi,"Okhla Phase-2, Delhi - DPCC",03-04-2024 08:00:00,28.530785,77.271255,PM2.5,20,322,114
India,Delhi,Delhi,"Okhla Phase-2, Delhi - DPCC",03-04-2024 08:00:00,28.530785,77.271255,SO2,9,19,12
India,Delhi,Delhi,"Patparganj, Delhi - DPCC",03-04-2024 08:00:00,28.623763,77.287209,NO2,25,77,41
India,Delhi,Delhi,"Patparganj, Delhi - DPCC",03-04-2024 08:00:00,28.623763,77.287209,SO2,18,21,19
India,Delhi,Delhi,"Patparganj, Delhi - DPCC",03-04-2024 08:00:00,28.623763,77.287209,OZONE,4,98,28
India,Delhi,Delhi,"Punjabi Bagh, Delhi - DPCC",03-04-2024 08:00:00,28.674045,77.131023,NO2,23,81,55
India,Delhi,Delhi,"Pusa, Delhi - DPCC",03-04-2024 08:00:00,28.639652,77.146275,NH3,5,9,7
India,Delhi,Delhi,"Pusa, Delhi - DPCC",03-04-2024 08:00:00,28.639652,77.146275,OZONE,9,60,12
India,Delhi,Delhi,"Pusa, Delhi - IMD",03-04-2024 08:00:00,28.636110,77.173332,PM2.5,19,233,128
India,Delhi,Delhi,"R K Puram, Delhi - DPCC",03-04-2024 08:00:00,28.563262,77.186937,PM10,110,304,146
India,Delhi,Delhi,"Shadipur, Delhi - CPCB",03-04-2024 08:00:00,28.6514781,77.1473105,PM2.5,128,344,241
India,Delhi,Delhi,"Shadipur, Delhi - CPCB",03-04-2024 08:00:00,28.6514781,77.1473105,PM10,129,287,186
India,Delhi,Delhi,"Shadipur, Delhi - CPCB",03-04-2024 08:00:00,28.6514781,77.1473105,NO2,54,86,72
India,Delhi,Delhi,"Sirifort, Delhi - CPCB",03-04-2024 08:00:00,28.5504249,77.2159377,PM10,97,296,139
India,Delhi,Delhi,"Sirifort, Delhi - CPCB",03-04-2024 08:00:00,28.5504249,77.2159377,NO2,16,74,57
India,Delhi,Delhi,"Sri Aurobindo Marg, Delhi - DPCC",03-04-2024 08:00:00,28.531346,77.190156,OZONE,7,47,7
India,Gujarat,Ahmedabad,"Chandkheda, Ahmedabad - IITM",03-04-2024 08:00:00,23.107969,72.574648,PM10,63,130,94
India,Gujarat,Ahmedabad,"Gyaspur, Ahmedabad - IITM",03-04-2024 08:00:00,22.977134,72.553024,PM10,105,480,178
India,Gujarat,Ahmedabad,"Maninagar, Ahmedabad - GPCB",03-04-2024 08:00:00,23.002657,72.591912,PM2.5,45,304,125
India,Gujarat,Ahmedabad,"Maninagar, Ahmedabad - GPCB",03-04-2024 08:00:00,23.002657,72.591912,NO2,25,80,45
India,Gujarat,Ahmedabad,"Maninagar, Ahmedabad - GPCB",03-04-2024 08:00:00,23.002657,72.591912,CO,38,78,50
India,Gujarat,Ahmedabad,"Raikhad, Ahmedabad - IITM",03-04-2024 08:00:00,23.020509,72.579261,OZONE,7,34,10
India,Gujarat,Ahmedabad,"Rakhial, Ahmedabad - IITM",03-04-2024 08:00:00,23.016834,72.625775,NH3,8,21,16
India,Gujarat,Ahmedabad,"SAC ISRO Satellite, Ahmedabad - IITM",03-04-2024 08:00:00,23.023389,72.515201,NO2,17,17,17
India,Gujarat,Ahmedabad,"SVPI Airport Hansol, Ahmedabad - IITM",03-04-2024 08:00:00,23.076793,72.627874,PM2.5,64,101,78
India,Gujarat,Ahmedabad,"SVPI Airport Hansol, Ahmedabad - IITM",03-04-2024 08:00:00,23.076793,72.627874,PM10,68,117,95
India,Gujarat,Ahmedabad,"SVPI Airport Hansol, Ahmedabad - IITM",03-04-2024 08:00:00,23.076793,72.627874,NH3,4,5,4
India,Gujarat,Ahmedabad,"SVPI Airport Hansol, Ahmedabad - IITM",03-04-2024 08:00:00,23.076793,72.627874,SO2,4,52,15
India,Gujarat,Ahmedabad,"Sardar Vallabhbhai Patel Stadium, Ahmedabad - IITM",03-04-2024 08:00:00,23.043070,72.562968,NO2,31,41,39
India,Gujarat,Ahmedabad,"Sardar Vallabhbhai Patel Stadium, Ahmedabad - IITM",03-04-2024 08:00:00,23.043070,72.562968,NH3,7,7,7
India,Gujarat,Ahmedabad,"Sardar Vallabhbhai Patel Stadium, Ahmedabad - IITM",03-04-2024 08:00:00,23.043070,72.562968,SO2,3,14,9
India,Gujarat,Ankleshwar,"GIDC, Ankleshwar - GPCB",03-04-2024 08:00:00,21.613267,73.010555,NO2,35,35,35
India,Gujarat,Gandhinagar,"IIPHG Lekawada, Gandhinagar - IITM",03-04-2024 08:00:00,23.243639,72.68994,PM2.5,56,134,78
India,Gujarat,Gandhinagar,"IIPHG Lekawada, Gandhinagar - IITM",03-04-2024 08:00:00,23.243639,72.68994,NO2,38,45,41
India,Gujarat,Gandhinagar,"IIPHG Lekawada, Gandhinagar - IITM",03-04-2024 08:00:00,23.243639,72.68994,NH3,6,7,7
India,Gujarat,Gandhinagar,"IIPHG Lekawada, Gandhinagar - IITM",03-04-2024 08:00:00,23.243639,72.68994,OZONE,11,45,12
India,Gujarat,Nandesari,"GIDC, Nandesari - Nandesari Ind. Association",03-04-2024 08:00:00,22.410802,73.097923,PM2.5,100,440,254
India,Gujarat,Nandesari,"GIDC, Nandesari - Nandesari Ind. Association",03-04-2024 08:00:00,22.410802,73.097923,NO2,1,18,10
India,Gujarat,Vatva,"Phase-4 GIDC, Vatva - GPCB",03-04-2024 08:00:00,22.969611,72.643500,PM2.5,NA,NA,NA
India,Haryana,Ambala,"Patti Mehar, Ambala - HSPCB",03-04-2024 08:00:00,30.379589,76.778328,PM2.5,32,83,50
India,Haryana,Ambala,"Patti Mehar, Ambala - HSPCB",03-04-2024 08:00:00,30.379589,76.778328,NH3,5,12,8
India,Haryana,Bahadurgarh,"Arya Nagar, Bahadurgarh - HSPCB",03-04-2024 08:00:00,28.6701,76.9254,PM10,93,376,154
India,Haryana,Bahadurgarh,"Arya Nagar, Bahadurgarh - HSPCB",03-04-2024 08:00:00,28.6701,76.9254,NO2,33,39,36
India,Haryana,Bahadurgarh,"Arya Nagar, Bahadurgarh - HSPCB",03-04-2024 08:00:00,28.6701,76.9254,OZONE,39,51,46
India,Haryana,Ballabgarh,"Nathu Colony, Ballabgarh - HSPCB",03-04-2024 08:00:00,28.3419248,77.319699,PM2.5,74,319,156
India,Haryana,Charkhi Dadri,"Mini Secretariat, Charkhi Dadri - HSPCB",03-04-2024 08:00:00,28.593883,76.270653,NO2,15,24,18
India,Haryana,Charkhi Dadri,"Mini Secretariat, Charkhi Dadri - HSPCB",03-04-2024 08:00:00,28.593883,76.270653,CO,30,105,59
India,Haryana,Charkhi Dadri,"Mini Secretariat, Charkhi Dadri - HSPCB",03-04-2024 08:00:00,28.593883,76.270653,OZONE,14,18,15
India,Haryana,Dharuhera,"Municipal Corporation Office, Dharuhera -  HSPCB",03-04-2024 08:00:00,28.206800,76.799700,PM2.5,33,266,93
India,Haryana,Faridabad,"New Industrial Town, Faridabad - HSPCB",03-04-2024 08:00:00,28.39072,77.30059,NH3,2,5,3
India,Haryana,Faridabad,"New Industrial Town, Faridabad - HSPCB",03-04-2024 08:00:00,28.39072,77.30059,CO,8,37,27
India,Haryana,Gurugram,"Sector-51, Gurugram - HSPCB",03-04-2024 08:00:00,28.4227,77.0667,NH3,7,14,9
India,Haryana,Gurugram,"Teri Gram, Gurugram - HSPCB",03-04-2024 08:00:00,28.4275,77.1465,PM2.5,64,267,156
India,Haryana,Gurugram,"Teri Gram, Gurugram - HSPCB",03-04-2024 08:00:00,28.4275,77.1465,NH3,53,86,64
India,Haryana,Gurugram,"Teri Gram, Gurugram - HSPCB",03-04-2024 08:00:00,28.4275,77.1465,CO,12,27,25
India,Haryana,Hisar,"Urban Estate-II, Hisar - HSPCB",03-04-2024 08:00:00,29.140560,75.744941,OZONE,63,151,72
India,Haryana,Jind,"Police Lines, Jind - HSPCB",03-04-2024 08:00:00,29.307814,76.337619,NO2,4,13,10
India,Haryana,Karnal,"Sector-12, Karnal - HSPCB",03-04-2024 08:00:00,29.695300,77.002700,CO,20,35,26
India,Haryana,Kurukshetra,"Sector-7, Kurukshetra - HSPCB",03-04-2024 08:00:00,29.966942,76.875879,CO,4,26,16
India,Haryana,Mandikhera,"General Hospital, Mandikhera - HSPCB",03-04-2024 08:00:00,27.9002,76.9938,PM10,63,167,93
India,Haryana,Mandikhera,"General Hospital, Mandikhera - HSPCB",03-04-2024 08:00:00,27.9002,76.9938,NH3,17,19,18
India,Haryana,Mandikhera,"General Hospital, Mandikhera - HSPCB",03-04-2024 08:00:00,27.9002,76.9938,OZONE,22,32,26
India,Haryana,Manesar,"Sector-2 IMT, Manesar - HSPCB",03-04-2024 08:00:00,28.360699,76.936090,PM2.5,32,97,57
India,Haryana,Manesar,"Sector-2 IMT, Manesar - HSPCB",03-04-2024 08:00:00,28.360699,76.936090,NO2,19,30,26
India,Haryana,Palwal,"Shyam Nagar, Palwal - HSPCB",03-04-2024 08:00:00,28.1485564,77.3320667,PM10,68,130,95
India,Haryana,Panipat,"Sector-18, Panipat - HSPCB",03-04-2024 08:00:00,29.497973,76.993331,PM2.5,90,94,92
India,Haryana,Panipat,"Sector-18, Panipat - HSPCB",03-04-2024 08:00:00,29.497973,76.993331,NO2,31,32,31
India,Haryana,Rohtak,"MD University, Rohtak - HSPCB",03-04-2024 08:00:00,28.52123,76.37138,PM2.5,1,15,6
India,Haryana,Sirsa,"F-Block, Sirsa - HSPCB",03-04-2024 08:00:00,29.536400,75.015800,PM10,38,105,59
India,Haryana,Sonipat,"Murthal, Sonipat - HSPCB",03-04-2024 08:00:00,29.027200,77.062100,NO2,37,44,40
India,Haryana,Sonipat,"Murthal, Sonipat - HSPCB",03-04-2024 08:00:00,29.027200,77.062100,CO,12,28,24
India,Haryana,Yamuna Nagar,"Gobind Pura, Yamuna Nagar - HSPCB",03-04-2024 08:00:00,30.1480566,77.2893471,PM2.5,46,105,63
India,Himachal Pradesh,Baddi,"HIMUDA Complex Phase-1, Baddi - HPPCB",03-04-2024 08:00:00,30.943887,76.801991,NO2,9,41,21
India,Himachal Pradesh,Baddi,"HIMUDA Complex Phase-1, Baddi - HPPCB",03-04-2024 08:00:00,30.943887,76.801991,NH3,3,7,4
India,Himachal Pradesh,Baddi,"HIMUDA Complex Phase-1, Baddi - HPPCB",03-04-2024 08:00:00,30.943887,76.801991,OZONE,42,146,57
India,Jammu_and_Kashmir,Srinagar,"Rajbagh, Srinagar - JKSPCB",03-04-2024 08:00:00,34.066206,74.819820,PM2.5,NA,NA,NA
India,Karnataka,Bagalkot,"Vidayagiri, Bagalkot - KSPCB",03-04-2024 08:00:00,16.172806,75.659694,CO,16,51,38
India,Karnataka,Bengaluru,"Bapuji Nagar, Bengaluru - KSPCB",03-04-2024 08:00:00,12.951913,77.539784,PM2.5,43,228,98
India,Karnataka,Bengaluru,"Hebbal, Bengaluru - KSPCB",03-04-2024 08:00:00,13.029152,77.585901,PM10,50,103,78
India,Karnataka,Bengaluru,"Hebbal, Bengaluru - KSPCB",03-04-2024 08:00:00,13.029152,77.585901,SO2,11,16,13
India,Karnataka,Bengaluru,"Hebbal, Bengaluru - KSPCB",03-04-2024 08:00:00,13.029152,77.585901,CO,10,48,13
India,Karnataka,Bengaluru,"Hombegowda Nagar, Bengaluru - KSPCB",03-04-2024 08:00:00,12.938539,77.590100,PM10,56,104,75
India,Karnataka,Bengaluru,"Jayanagar 5th Block, Bengaluru - KSPCB",03-04-2024 08:00:00,12.920984,77.584908,PM10,63,139,97
India,Karnataka,Bengaluru,"Jayanagar 5th Block, Bengaluru - KSPCB",03-04-2024 08:00:00,12.920984,77.584908,NH3,1,5,2
India,Karnataka,Bengaluru,"Jigani, Bengaluru - KSPCB",03-04-2024 08:00:00,12.7816279,77.6299145,NH3,4,4,4
India,Karnataka,Bengaluru,"Kasturi Nagar, Bengaluru - KSPCB",03-04-2024 08:00:00,13.003872,77.664217,PM2.5,75,316,113
India,Karnataka,Bengaluru,"Kasturi Nagar, Bengaluru - KSPCB",03-04-2024 08:00:00,13.003872,77.664217,NO2,16,17,16
India,Karnataka,Bengaluru,"Kasturi Nagar, Bengaluru - KSPCB",03-04-2024 08:00:00,13.003872,77.664217,SO2,10,10,10
India,Karnataka,Bengaluru,"RVCE-Mailasandra, Bengaluru - KSPCB",03-04-2024 08:00:00,12.921418,77.502466,OZONE,10,10,10
India,Karnataka,Bengaluru,"Sanegurava Halli, Bengaluru - KSPCB",03-04-2024 08:00:00,12.990328,77.5431385,NO2,23,56,29
India,Karnataka,Bengaluru,"Shivapura_Peenya, Bengaluru - KSPCB",03-04-2024 08:00:00,13.0246342,77.5080115,PM10,30,93,69
India,Karnataka,Bengaluru,"Shivapura_Peenya, Bengaluru - KSPCB",03-04-2024 08:00:00,13.0246342,77.5080115,NH3,4,4,4
India,Karnataka,Bengaluru,"Silk Board, Bengaluru - KSPCB",03-04-2024 08:00:00,12.917348,77.622813,NO2,18,28,22
India,Karnataka,Bengaluru,"Silk Board, Bengaluru - KSPCB",03-04-2024 08:00:00,12.917348,77.622813,SO2,5,17,9
India,Karnataka,Chamarajanagar,"Urban, Chamarajanagar - KSPCB",03-04-2024 08:00:00,11.55358,76.55521,OZONE,14,51,18
India,Karnataka,Chikkaballapur,"Chikkaballapur Rural, Chikkaballapur - KSPCB",03-04-2024 08:00:00,13.428828,77.731418,NO2,7,14,10
India,Karnataka,Chikkaballapur,"Chikkaballapur Rural, Chikkaballapur - KSPCB",03-04-2024 08:00:00,13.428828,77.731418,OZONE,25,26,25
India,Karnataka,Dharwad,"Kalabhavan, Dharwad - KSPCB",03-04-2024 08:00:00,15.459706,75.008381,PM2.5,47,79,63
India,Karnataka,Dharwad,"Kalabhavan, Dharwad - KSPCB",03-04-2024 08:00:00,15.459706,75.008381,PM10,61,90,74
India,Karnataka,Gadag,"Panchal Nagar, Gadag - KSPCB",03-04-2024 08:00:00,15.411456,75.638133,CO,40,56,43
India,Karnataka,Gadag,"Panchal Nagar, Gadag - KSPCB",03-04-2024 08:00:00,15.411456,75.638133,OZONE,29,83,35
India,Karnataka,Hassan,"B.Katihalli, Hassan - KSPCB",03-04-2024 08:00:00,13.008556,76.125258,NO2,4,16,12
India,Karnataka,Haveri,"Ashwini Nagar, Haveri - KSPCB",03-04-2024 08:00:00,14.791800,75.389600,PM2.5,37,61,47
India,Karnataka,Haveri,"Ashwini Nagar, Haveri - KSPCB",03-04-2024 08:00:00,14.791800,75.389600,NO2,28,39,32
India,Karnataka,Kalaburagi,"Lal Bahadur Shastri Nagar, Kalaburagi - KSPCB",03-04-2024 08:00:00,17.321993,76.822628,CO,42,53,44
India,Karnataka,Kalaburagi,"Mahatma Basaveswar Colony, Kalaburgi - KSPCB",03-04-2024 08:00:00,17.336318,76.847397,PM2.5,28,72,46
India,Karnataka,Kalaburagi,"Mahatma Basaveswar Colony, Kalaburgi - KSPCB",03-04-2024 08:00:00,17.336318,76.847397,SO2,2,57,12
India,Karnataka,Koppal,"Diwator Nagar, Koppal - KSPCB",03-04-2024 08:00:00,15.347630,76.181767,NO2,1,33,13
India,Karnataka,Madikeri,"Stuart Hill, Madikeri - KSPCB",03-04-2024 08:00:00,12.415911,75.735050,CO,4,58,26
India,Karnataka,Mangalore,"Kadri, Mangalore - KSPCB",03-04-2024 08:00:00,12.889250,74.853000,NO2,5,6,6
India,Karnataka,Mangalore,"Kadri, Mangalore - KSPCB",03-04-2024 08:00:00,12.889250,74.853000,OZONE,30,33,31
India,Karnataka,Mysuru,"Hebbal 1st Stage, Mysuru - KSPCB",03-04-2024 08:00:00,12.21041,76.37376,NH3,1,3,2
India,Karnataka,Mysuru,"Hebbal 1st Stage, Mysuru - KSPCB",03-04-2024 08:00:00,12.21041,76.37376,SO2,2,9,3
India,Karnataka,Raichur,"Haji Colony, Raichur - KSPCB",03-04-2024 08:00:00,16.208139,77.348417,NO2,23,57,37
India,Karnataka,Raichur,"Haji Colony, Raichur - KSPCB",03-04-2024 08:00:00,16.208139,77.348417,CO,96,114,102
India,Karnataka,Shivamogga,"Vinoba Nagara, Shivamogga - KSPCB",03-04-2024 08:00:00,13.940000,75.555917,PM2.5,37,53,42
India,Karnataka,Tumakuru,"Thimmalapura, Tumakuru - KSPCB",03-04-2024 08:00:00,13.377516,77.099072,PM2.5,NA,NA,NA
India,Karnataka,Udupi,"Brahmagiri, Udupi - KSPCB",03-04-2024 08:00:00,13.34194444,74.74694444,PM10,49,103,75
India,Karnataka,Udupi,"Brahmagiri, Udupi - KSPCB",03-04-2024 08:00:00,13.34194444,74.74694444,NH3,1,1,1
India,Karnataka,Udupi,"Brahmagiri, Udupi - KSPCB",03-04-2024 08:00:00,13.34194444,74.74694444,CO,46,49,46
India,Karnataka,Vijayapura,"Ibrahimpur, Vijayapura - KSPCB",03-04-2024 08:00:00,16.802639,75.722694,PM2.5,26,31,30
India,Karnataka,Vijayapura,"Ibrahimpur, Vijayapura - KSPCB",03-04-2024 08:00:00,16.802639,75.722694,NH3,2,2,2
India,Karnataka,Vijayapura,"Ibrahimpur, Vijayapura - KSPCB",03-04-2024 08:00:00,16.802639,75.722694,OZONE,14,16,15
India,Karnataka,Yadgir,"Collector Office, Yadgir - KSPCB",03-04-2024 08:00:00,16.7602,77.1428,OZONE,18,20,19
India,Kerala,Eloor,"Udyogamandal, Eloor - Kerala PCB",03-04-2024 08:00:00,10.073232,76.302765,NH3,1,1,1
India,Kerala,Eloor,"Udyogamandal, Eloor - Kerala PCB",03-04-2024 08:00:00,10.073232,76.302765,SO2,1,24,5
India,Kerala,Kannur,"Thavakkara, Kannur - Kerala PCB",03-04-2024 08:00:00,11.875000,75.373200,PM2.5,NA,NA,NA
India,Kerala,Kannur,"Thavakkara, Kannur - Kerala PCB",03-04-2024 08:00:00,11.875000,75.373200,PM10,NA,NA,NA
India,Kerala,Kannur,"Thavakkara, Kannur - Kerala PCB",03-04-2024 08:00:00,11.875000,75.373200,OZONE,NA,NA,NA
India,Kerala,Kollam,"Polayathode, Kollam - Kerala PCB",03-04-2024 08:00:00,8.8787,76.6073,PM2.5,NA,NA,NA
India,Kerala,Kollam,"Polayathode, Kollam - Kerala PCB",03-04-2024 08:00:00,8.8787,76.6073,NO2,NA,NA,NA
India,Kerala,Thiruvananthapuram,"Kariavattom, Thiruvananthapuram - Kerala PCB",03-04-2024 08:00:00,8.563700,76.886500,NH3,1,1,1
India,Kerala,Thiruvananthapuram,"Plammoodu, Thiruvananthapuram - Kerala PCB",03-04-2024 08:00:00,8.5149093,76.9435879,PM10,12,50,31
India,Kerala,Thrissur,"Corporation Ground, Thrissur - Kerala PCB",03-04-2024 08:00:00,10.532400,76.215900,PM2.5,44,52,48
India,Kerala,Thrissur,"Corporation Ground, Thrissur - Kerala PCB",03-04-2024 08:00:00,10.532400,76.215900,OZONE,27,32,30
India,Madhya Pradesh,Bhopal,"Idgah Hills, Bhopal - MPPCB",03-04-2024 08:00:00,23.264759,77.381568,SO2,18,21,19
India,Madhya Pradesh,Bhopal,"T T Nagar, Bhopal - MPPCB",03-04-2024 08:00:00,23.233584,77.400574,PM10,116,167,144
India,Madhya Pradesh,Bhopal,"T T Nagar, Bhopal - MPPCB",03-04-2024 08:00:00,23.233584,77.400574,SO2,14,28,21
India,Madhya Pradesh,Bhopal,"T T Nagar, Bhopal - MPPCB",03-04-2024 08:00:00,23.233584,77.400574,CO,22,52,35
India,Madhya Pradesh,Bhopal,"T T Nagar, Bhopal - MPPCB",03-04-2024 08:00:00,23.233584,77.400574,OZONE,47,128,58
India,Madhya Pradesh,Dewas,"Bhopal Chauraha, Dewas - MPPCB",03-04-2024 08:00:00,22.9682591,76.064118,NO2,12,14,13
India,Madhya Pradesh,Dewas,"Bhopal Chauraha, Dewas - MPPCB",03-04-2024 08:00:00,22.9682591,76.064118,NH3,3,3,3
India,Madhya Pradesh,Dewas,"Bhopal Chauraha, Dewas - MPPCB",03-04-2024 08:00:00,22.9682591,76.064118,SO2,4,38,22
India,Madhya Pradesh,Gwalior,"Deen Dayal Nagar, Gwalior - MPPCB",03-04-2024 08:00:00,26.259242,78.216432,PM2.5,30,251,99
India,Madhya Pradesh,Gwalior,"Deen Dayal Nagar, Gwalior - MPPCB",03-04-2024 08:00:00,26.259242,78.216432,PM10,84,373,161
India,Madhya Pradesh,Gwalior,"Maharaj Bada, Gwalior - MPPCB",03-04-2024 08:00:00,26.200388,78.147714,PM10,89,413,161
India,Madhya Pradesh,Indore,"Chhoti Gwaltoli, Indore - MPPCB",03-04-2024 08:00:00,22.4310,75.5213,PM10,134,246,170
India,Madhya Pradesh,Indore,"Chhoti Gwaltoli, Indore - MPPCB",03-04-2024 08:00:00,22.4310,75.5213,NH3,2,6,4
India,Madhya Pradesh,Indore,"Regional Park, Indore - IMC",03-04-2024 08:00:00,22.6780,75.8559,NH3,1,2,1
India,Madhya Pradesh,Indore,"Regional Park, Indore - IMC",03-04-2024 08:00:00,22.6780,75.8559,CO,26,40,35
India,Madhya Pradesh,Indore,"Residency Area, Indore - IMC",03-04-2024 08:00:00,22.7084,75.8815,PM2.5,63,273,119
India,Madhya Pradesh,Indore,"Residency Area, Indore - IMC",03-04-2024 08:00:00,22.7084,75.8815,OZONE,10,17,11
India,Madhya Pradesh,Jabalpur,"Govindh Bhavan Colony, Jabalpur - JMC",03-04-2024 08:00:00,23.163174,79.973061,PM2.5,52,300,114
India,Madhya Pradesh,Jabalpur,"Marhatal, Jabalpur - MPPCB",03-04-2024 08:00:00,23.168606,79.932247,PM2.5,52,331,157
India,Madhya Pradesh,Jabalpur,"Marhatal, Jabalpur - MPPCB",03-04-2024 08:00:00,23.168606,79.932247,NO2,14,110,40
India,Madhya Pradesh,Jabalpur,"Marhatal, Jabalpur - MPPCB",03-04-2024 08:00:00,23.168606,79.932247,NH3,2,5,3
India,Madhya Pradesh,Jabalpur,"Marhatal, Jabalpur - MPPCB",03-04-2024 08:00:00,23.168606,79.932247,CO,34,146,57
India,Madhya Pradesh,Katni,"Gole Bazar, Katni - MPPCB",03-04-2024 08:00:00,23.50016,80.23284,OZONE,28,118,40
India,Madhya Pradesh,Mandideep,"Sector-D Industrial Area, Mandideep - MPPCB",03-04-2024 08:00:00,23.108440,77.511428,OZONE,16,59,24
India,Madhya Pradesh,Pithampur,"Sector-2 Industrial Area, Pithampur - MPPCB",03-04-2024 08:00:00,22.624758,75.675238,NO2,5,29,16
India,Madhya Pradesh,Pithampur,"Sector-2 Industrial Area, Pithampur - MPPCB",03-04-2024 08:00:00,22.624758,75.675238,OZONE,12,75,39
India,Madhya Pradesh,Sagar,"Civil Lines, Sagar - MPPCB",03-04-2024 08:00:00,23.838586,78.759431,PM2.5,33,97,57
India,Madhya Pradesh,Sagar,"Civil Lines, Sagar - MPPCB",03-04-2024 08:00:00,23.838586,78.759431,NH3,4,6,5
India,Madhya Pradesh,Sagar,"Civil Lines, Sagar - MPPCB",03-04-2024 08:00:00,23.838586,78.759431,CO,7,36,16
India,Madhya Pradesh,Sagar,"Deen Dayal Nagar, Sagar - MPPCB",03-04-2024 08:00:00,23.8640158,78.80289321,CO,42,109,66
India,Madhya Pradesh,Satna,"Bandhavgar Colony, Satna - Birla Cement",03-04-2024 08:00:00,24.58434363,80.8549414,PM2.5,51,215,133
India,Madhya Pradesh,Satna,"Bandhavgar Colony, Satna - Birla Cement",03-04-2024 08:00:00,24.58434363,80.8549414,OZONE,57,85,59
India,Madhya Pradesh,Singrauli,"Suryakiran Bhawan NCL, Singrauli - MPPCB",03-04-2024 08:00:00,24.108970,82.645580,PM2.5,49,295,105
India,Maharashtra,Ahmednagar,"Tarakpur, Ahmednagar - MPCB",03-04-2024 08:00:00,19.10122,74.73339,SO2,13,23,17
India,Maharashtra,Amravati,"Shivneri Colony, Amravati - MPCB",03-04-2024 08:00:00,20.9402359,77.7895248,PM10,101,143,118
India,Maharashtra,Amravati,"Shivneri Colony, Amravati - MPCB",03-04-2024 08:00:00,20.9402359,77.7895248,NH3,1,3,2
India,Maharashtra,Amravati,"Shri Shivaji Science College, Amaravati - MPCB",03-04-2024 08:00:00,20.939198,77.765701,PM10,109,161,126
India,Maharashtra,Amravati,"Shri Shivaji Science College, Amaravati - MPCB",03-04-2024 08:00:00,20.939198,77.765701,NO2,5,75,22
India,Maharashtra,Aurangabad,"MIDC Chilkalthana, Aurangabad - MPCB",03-04-2024 08:00:00,19.875620,75.387310,NO2,3,67,19
India,Maharashtra,Aurangabad,"MIDC Chilkalthana, Aurangabad - MPCB",03-04-2024 08:00:00,19.875620,75.387310,OZONE,19,88,38
India,Maharashtra,Aurangabad,"Rachnakar Colony, Aurangabad - MPCB",03-04-2024 08:00:00,19.863756,75.321188,PM2.5,NA,NA,NA
India,Maharashtra,Aurangabad,"Rachnakar Colony, Aurangabad - MPCB",03-04-2024 08:00:00,19.863756,75.321188,NO2,NA,NA,NA
India,Maharashtra,Aurangabad,"Rachnakar Colony, Aurangabad - MPCB",03-04-2024 08:00:00,19.863756,75.321188,OZONE,37,120,37
India,Maharashtra,Badlapur,"Katrap, Badlapur - MPCB",03-04-2024 08:00:00,19.16485,73.23409,PM2.5,86,271,151
India,Maharashtra,Badlapur,"Katrap, Badlapur - MPCB",03-04-2024 08:00:00,19.16485,73.23409,NH3,1,3,2
India,Maharashtra,Belapur,"CBD Belapur, Belapur - MPCB",03-04-2024 08:00:00,19.0243902,73.0406721,CO,22,38,27
India,Maharashtra,Bhiwandi,"Gokul Nagar, Bhiwandi - MPCB",03-04-2024 08:00:00,19.309073,73.057223,PM2.5,40,260,97
India,Maharashtra,Bhiwandi,"Gokul Nagar, Bhiwandi - MPCB",03-04-2024 08:00:00,19.309073,73.057223,SO2,2,21,7
India,Maharashtra,Boisar,"Khaira, Boisar - MPCB",03-04-2024 08:00:00,19.786089,72.757971,PM2.5,NA,NA,NA
India,Maharashtra,Boisar,"Khaira, Boisar - MPCB",03-04-2024 08:00:00,19.786089,72.757971,NH3,NA,NA,NA
India,Maharashtra,Chandrapur,"Chauhan Colony, Chandrapur - MPCB",03-04-2024 08:00:00,19.962900,79.298714,PM2.5,100,311,184
India,Maharashtra,Chandrapur,"Chauhan Colony, Chandrapur - MPCB",03-04-2024 08:00:00,19.962900,79.298714,CO,24,48,25
India,Maharashtra,Chandrapur,"MIDC Khutala, Chandrapur - MPCB",03-04-2024 08:00:00,19.9775302,79.2337086,PM10,NA,NA,NA
India,Maharashtra,Chandrapur,"MIDC Khutala, Chandrapur - MPCB",03-04-2024 08:00:00,19.9775302,79.2337086,CO,NA,NA,NA
India,Maharashtra,Dhule,"Deopur, Dhule - MPCB",03-04-2024 08:00:00,20.918946,74.776388,PM10,125,148,136
India,Maharashtra,Dhule,"Deopur, Dhule - MPCB",03-04-2024 08:00:00,20.918946,74.776388,NO2,4,10,7
India,Maharashtra,Jalgaon,"Prabhat Colony, Jalgaon - MPCB",03-04-2024 08:00:00,21.001264,75.565602,NO2,14,93,32
India,Maharashtra,Jalgaon,"Prabhat Colony, Jalgaon - MPCB",03-04-2024 08:00:00,21.001264,75.565602,NH3,3,12,7
India,Maharashtra,Jalgaon,"Prabhat Colony, Jalgaon - MPCB",03-04-2024 08:00:00,21.001264,75.565602,SO2,13,56,21
India,Maharashtra,Kalyan,"Khadakpada, Kalyan - MPCB",03-04-2024 08:00:00,19.25292,73.142019,NO2,32,44,37
India,Maharashtra,Kalyan,"Khadakpada, Kalyan - MPCB",03-04-2024 08:00:00,19.25292,73.142019,OZONE,8,29,9
India,Maharashtra,Kolhapur,"Shivaji University, Kolhapur - MPCB",03-04-2024 08:00:00,16.6870449,74.2505872,PM2.5,59,255,151
India,Maharashtra,Kolhapur,"Shivaji University, Kolhapur - MPCB",03-04-2024 08:00:00,16.6870449,74.2505872,PM10,139,197,165
India,Maharashtra,Kolhapur,"Shivaji University, Kolhapur - MPCB",03-04-2024 08:00:00,16.6870449,74.2505872,SO2,3,12,7
India,Maharashtra,Kolhapur,"Sinchan Bhavan, Kolhapur - MPCB",03-04-2024 08:00:00,16.7143745,74.2426398,NO2,11,55,23
India,Maharashtra,Latur,"Sawe Wadi, Latur - MPCB",03-04-2024 08:00:00,18.39963,76.57452,PM2.5,65,112,91
India,Maharashtra,Latur,"Sawe Wadi, Latur - MPCB",03-04-2024 08:00:00,18.39963,76.57452,PM10,103,123,112
India,Maharashtra,Latur,"Sawe Wadi, Latur - MPCB",03-04-2024 08:00:00,18.39963,76.57452,NO2,9,85,28
India,Maharashtra,Mahad,"Kamble Tarf Birwadi, Mahad - MPCB",03-04-2024 08:00:00,18.1023399,73.4783687,OZONE,5,83,9
India,Maharashtra,Mira-Bhayandar,"Bhayandar West, Mira-Bhayandar - MPCB",03-04-2024 08:00:00,19.296481,72.840923,PM2.5,69,134,93
India,Maharashtra,Mira-Bhayandar,"Bhayandar West, Mira-Bhayandar - MPCB",03-04-2024 08:00:00,19.296481,72.840923,CO,14,40,27
India,Maharashtra,Mumbai,"Bandra Kurla Complex, Mumbai - MPCB",03-04-2024 08:00:00,19.065931,72.862131,NH3,2,6,4
India,Maharashtra,Mumbai,"Bandra Kurla Complex, Mumbai - MPCB",03-04-2024 08:00:00,19.065931,72.862131,SO2,1,2,1
India,Maharashtra,Mumbai,"Borivali East, Mumbai - MPCB",03-04-2024 08:00:00,19.2243333,72.8658113,SO2,5,7,6
India,Maharashtra,Mumbai,"Byculla, Mumbai - BMC",03-04-2024 08:00:00,18.9767,72.8380,PM2.5,34,72,52
India,Maharashtra,Mumbai,"Byculla, Mumbai - BMC",03-04-2024 08:00:00,18.9767,72.8380,OZONE,7,81,38
India,Maharashtra,Mumbai,"Chakala-Andheri East, Mumbai - IITM",03-04-2024 08:00:00,19.11074,72.86084,NO2,61,132,93
India,Maharashtra,Mumbai,"Chakala-Andheri East, Mumbai - IITM",03-04-2024 08:00:00,19.11074,72.86084,CO,2,54,46
India,Maharashtra,Mumbai,"Chakala-Andheri East, Mumbai - IITM",03-04-2024 08:00:00,19.11074,72.86084,OZONE,13,78,39
India,Maharashtra,Mumbai,"Chembur, Mumbai - MPCB",03-04-2024 08:00:00,19.0364585,72.8954371,CO,24,38,29
India,Maharashtra,Mumbai,"Chhatrapati Shivaji Intl. Airport (T2), Mumbai - MPCB",03-04-2024 08:00:00,19.10078,72.87462,PM2.5,63,180,113
India,Maharashtra,Mumbai,"Chhatrapati Shivaji Intl. Airport (T2), Mumbai - MPCB",03-04-2024 08:00:00,19.10078,72.87462,NO2,2,49,23
India,Maharashtra,Mumbai,"Colaba, Mumbai - MPCB",03-04-2024 08:00:00,18.910000,72.820000,CO,12,18,15
India,Maharashtra,Mumbai,"Ghatkopar, Mumbai - BMC",03-04-2024 08:00:00,19.083694,72.920967,NO2,15,35,22
India,Maharashtra,Mumbai,"Ghatkopar, Mumbai - BMC",03-04-2024 08:00:00,19.083694,72.920967,NH3,3,11,6
India,Maharashtra,Mumbai,"Kandivali West, Mumbai - BMC",03-04-2024 08:00:00,19.215859,72.831718,SO2,1,4,3
India,Maharashtra,Mumbai,"Kandivali West, Mumbai - BMC",03-04-2024 08:00:00,19.215859,72.831718,CO,8,42,15
India,Maharashtra,Mumbai,"Kherwadi_Bandra East, Mumbai - MPCB",03-04-2024 08:00:00,19.0632143,72.8456324,PM10,114,184,152
India,Maharashtra,Mumbai,"Kherwadi_Bandra East, Mumbai - MPCB",03-04-2024 08:00:00,19.0632143,72.8456324,SO2,12,20,16
India,Maharashtra,Mumbai,"Kurla, Mumbai - MPCB",03-04-2024 08:00:00,19.0863,72.8888,PM2.5,35,304,119
India,Maharashtra,Mumbai,"Kurla, Mumbai - MPCB",03-04-2024 08:00:00,19.0863,72.8888,PM10,83,263,151
India,Maharashtra,Mumbai,"Kurla, Mumbai - MPCB",03-04-2024 08:00:00,19.0863,72.8888,NH3,2,2,2
India,Maharashtra,Mumbai,"Mazgaon, Mumbai - IITM",03-04-2024 08:00:00,18.96702,72.84214,PM2.5,95,355,190
India,Maharashtra,Mumbai,"Mazgaon, Mumbai - IITM",03-04-2024 08:00:00,18.96702,72.84214,PM10,109,341,163
India,Maharashtra,Mumbai,"Mindspace-Malad West, Mumbai - MPCB",03-04-2024 08:00:00,19.1878657,72.8304069,PM10,81,137,114
India,Maharashtra,Mumbai,"Mindspace-Malad West, Mumbai - MPCB",03-04-2024 08:00:00,19.1878657,72.8304069,SO2,4,8,6
India,Maharashtra,Mumbai,"Mindspace-Malad West, Mumbai - MPCB",03-04-2024 08:00:00,19.1878657,72.8304069,CO,12,26,19
India,Maharashtra,Mumbai,"Mindspace-Malad West, Mumbai - MPCB",03-04-2024 08:00:00,19.1878657,72.8304069,OZONE,7,103,23
India,Maharashtra,Mumbai,"Mulund West, Mumbai - MPCB",03-04-2024 08:00:00,19.1750,72.9419,PM10,101,243,160
India,Maharashtra,Mumbai,"Mulund West, Mumbai - MPCB",03-04-2024 08:00:00,19.1750,72.9419,OZONE,7,7,7
India,Maharashtra,Mumbai,"Navy Nagar-Colaba, Mumbai - IITM",03-04-2024 08:00:00,18.897756,72.813320,SO2,3,8,5
India,Maharashtra,Mumbai,"Navy Nagar-Colaba, Mumbai - IITM",03-04-2024 08:00:00,18.897756,72.813320,OZONE,53,130,92
India,Maharashtra,Mumbai,"Powai, Mumbai - MPCB",03-04-2024 08:00:00,19.137500,72.915056,NO2,18,38,25
India,Maharashtra,Mumbai,"Sewri, Mumbai - BMC",03-04-2024 08:00:00,19.000084,72.856730,CO,16,56,26
India,Maharashtra,Mumbai,"Sewri, Mumbai - BMC",03-04-2024 08:00:00,19.000084,72.856730,OZONE,2,61,19
India,Maharashtra,Mumbai,"Shivaji Nagar, Mumbai - BMC",03-04-2024 08:00:00,19.060498,72.923356,NH3,4,8,6
India,Maharashtra,Mumbai,"Siddharth Nagar-Worli, Mumbai - IITM",03-04-2024 08:00:00,19.000083,72.813993,PM10,140,247,198
India,Maharashtra,Mumbai,"Sion, Mumbai - MPCB",03-04-2024 08:00:00,19.047000,72.874600,NO2,12,45,26
India,Maharashtra,Mumbai,"Vasai West, Mumbai - MPCB",03-04-2024 08:00:00,19.383200,72.820400,NH3,NA,NA,NA
India,Maharashtra,Mumbai,"Vile Parle West, Mumbai - MPCB",03-04-2024 08:00:00,19.10861,72.83622,PM2.5,57,89,73
India,Maharashtra,Mumbai,"Vile Parle West, Mumbai - MPCB",03-04-2024 08:00:00,19.10861,72.83622,CO,42,44,43
India,Maharashtra,Mumbai,"Worli, Mumbai - MPCB",03-04-2024 08:00:00,18.9936162,72.8128113,NO2,14,15,14
India,Maharashtra,Nagpur,"Ambazari, Nagpur - MPCB",03-04-2024 08:00:00,21.121801,79.04952,PM2.5,64,140,89
India,Maharashtra,Nagpur,"Opp GPO Civil Lines, Nagpur - MPCB",03-04-2024 08:00:00,21.152875,79.0517531,PM2.5,48,164,79
India,Maharashtra,Nagpur,"Opp GPO Civil Lines, Nagpur - MPCB",03-04-2024 08:00:00,21.152875,79.0517531,NH3,3,16,6
India,Maharashtra,Nagpur,"Ram Nagar, Nagpur - MPCB",03-04-2024 08:00:00,21.143383,79.048912,PM2.5,48,231,89
India,Maharashtra,Nagpur,"Ram Nagar, Nagpur - MPCB",03-04-2024 08:00:00,21.143383,79.048912,PM10,89,149,110
India,Maharashtra,Nanded,"Sneh Nagar, Nanded - MPCB",03-04-2024 08:00:00,19.173852,77.296291,PM2.5,NA,NA,NA
India,Maharashtra,Nanded,"Sneh Nagar, Nanded - MPCB",03-04-2024 08:00:00,19.173852,77.296291,NH3,NA,NA,NA
India,Maharashtra,Nanded,"Sneh Nagar, Nanded - MPCB",03-04-2024 08:00:00,19.173852,77.296291,CO,31,42,35
India,Maharashtra,Nashik,"Gangapur Road, Nashik - MPCB",03-04-2024 08:00:00,20.0073285,73.7762427,PM2.5,61,95,76
India,Maharashtra,Nashik,"Gangapur Road, Nashik - MPCB",03-04-2024 08:00:00,20.0073285,73.7762427,OZONE,18,91,38
India,Maharashtra,Nashik,"MIDC Ambad, Nashik - MPCB",03-04-2024 08:00:00,19.950220,73.731480,PM2.5,63,97,76
India,Maharashtra,Nashik,"MIDC Ambad, Nashik - MPCB",03-04-2024 08:00:00,19.950220,73.731480,CO,8,64,23
India,Maharashtra,Nashik,"Pandav Nagari, Nashik - MPCB",03-04-2024 08:00:00,19.9591346,73.7788008,CO,12,44,20
India,Maharashtra,Navi Mumbai,"Kopripada-Vashi, Navi Mumbai - MPCB",03-04-2024 08:00:00,19.090337,73.014232,PM2.5,61,442,176
India,Maharashtra,Navi Mumbai,"Kopripada-Vashi, Navi Mumbai - MPCB",03-04-2024 08:00:00,19.090337,73.014232,NO2,11,73,42
India,Maharashtra,Navi Mumbai,"Kopripada-Vashi, Navi Mumbai - MPCB",03-04-2024 08:00:00,19.090337,73.014232,SO2,NA,NA,NA
India,Maharashtra,Navi Mumbai,"Mahape, Navi Mumbai - MPCB",03-04-2024 08:00:00,19.1135051,73.008978,PM10,128,456,199
India,Maharashtra,Navi Mumbai,"Mahape, Navi Mumbai - MPCB",03-04-2024 08:00:00,19.1135051,73.008978,NO2,37,38,38
India,Maharashtra,Navi Mumbai,"Mahape, Navi Mumbai - MPCB",03-04-2024 08:00:00,19.1135051,73.008978,NH3,3,3,3
India,Maharashtra,Navi Mumbai,"Mahape, Navi Mumbai - MPCB",03-04-2024 08:00:00,19.1135051,73.008978,CO,44,63,60
India,Maharashtra,Navi Mumbai,"Nerul, Navi Mumbai - MPCB",03-04-2024 08:00:00,19.008751,73.016620,PM2.5,85,193,113
India,Maharashtra,Navi Mumbai,"Nerul, Navi Mumbai - MPCB",03-04-2024 08:00:00,19.008751,73.016620,NO2,15,25,20
India,Maharashtra,Navi Mumbai,"Nerul, Navi Mumbai - MPCB",03-04-2024 08:00:00,19.008751,73.016620,SO2,13,14,14
India,Maharashtra,Navi Mumbai,"Nerul, Navi Mumbai - MPCB",03-04-2024 08:00:00,19.008751,73.016620,OZONE,30,38,35
India,Maharashtra,Navi Mumbai,"Sanpada, Navi Mumbai - MPCB",03-04-2024 08:00:00,19.0575752,73.0151367,PM2.5,74,154,101
India,Maharashtra,Navi Mumbai,"Sector-19A Nerul, Navi Mumbai - IITM",03-04-2024 08:00:00,19.044,73.0325,NO2,32,83,54
India,Maharashtra,Navi Mumbai,"Sector-2E Kalamboli, Navi Mumbai - MPCB",03-04-2024 08:00:00,19.02579,73.10297,PM10,112,125,118
India,Maharashtra,Navi Mumbai,"Sector-2E Kalamboli, Navi Mumbai - MPCB",03-04-2024 08:00:00,19.02579,73.10297,SO2,6,40,15
India,Maharashtra,Navi Mumbai,"Sector-2E Kalamboli, Navi Mumbai - MPCB",03-04-2024 08:00:00,19.02579,73.10297,OZONE,4,68,8
India,Maharashtra,Parbhani,"Masoom Colony, Parbhani - MPCB",03-04-2024 08:00:00,19.265594,76.761463,NH3,13,15,14
India,Maharashtra,Parbhani,"Masoom Colony, Parbhani - MPCB",03-04-2024 08:00:00,19.265594,76.761463,CO,15,70,41
India,Maharashtra,Pimpri-Chinchwad,"Gavalinagar, Pimpri Chinchwad - MPCB",03-04-2024 08:00:00,18.63673,73.82487,NH3,1,6,3
India,Maharashtra,Pimpri-Chinchwad,"Gavalinagar, Pimpri Chinchwad - MPCB",03-04-2024 08:00:00,18.63673,73.82487,CO,12,40,23
India,Maharashtra,Pimpri-Chinchwad,"Gavalinagar, Pimpri Chinchwad - MPCB",03-04-2024 08:00:00,18.63673,73.82487,OZONE,31,210,57
India,Maharashtra,Pimpri-Chinchwad,"Park Street Wakad, Pimpri Chinchwad - MPCB",03-04-2024 08:00:00,18.59051,73.77946,CO,NA,NA,NA
India,Maharashtra,Pimpri-Chinchwad,"Thergaon, Pimpri Chinchwad - MPCB",03-04-2024 08:00:00,18.616318,73.765797,PM2.5,100,277,182
India,Maharashtra,Pimpri-Chinchwad,"Thergaon, Pimpri Chinchwad - MPCB",03-04-2024 08:00:00,18.616318,73.765797,OZONE,24,210,50
India,Maharashtra,Pune,"Bhosari, Pune - IITM",03-04-2024 08:00:00,18.640051,73.848956,NO2,11,13,12
India,Maharashtra,Pune,"Bhosari, Pune - IITM",03-04-2024 08:00:00,18.640051,73.848956,OZONE,15,88,36
India,Maharashtra,Pune,"Karve Road, Pune - MPCB",03-04-2024 08:00:00,18.5011743,73.8165527,PM2.5,81,86,85
India,Maharashtra,Pune,"Karve Road, Pune - MPCB",03-04-2024 08:00:00,18.5011743,73.8165527,PM10,127,133,131
India,Maharashtra,Pune,"Katraj Dairy, Pune - MPCB",03-04-2024 08:00:00,18.454450,73.854155,PM10,64,116,87
India,Maharashtra,Pune,"Katraj Dairy, Pune - MPCB",03-04-2024 08:00:00,18.454450,73.854155,NH3,2,6,3
India,Maharashtra,Pune,"Katraj Dairy, Pune - MPCB",03-04-2024 08:00:00,18.454450,73.854155,SO2,1,7,4
India,Maharashtra,Pune,"Katraj Dairy, Pune - MPCB",03-04-2024 08:00:00,18.454450,73.854155,CO,24,96,40
India,Maharashtra,Pune,"Revenue Colony-Shivajinagar, Pune - IITM",03-04-2024 08:00:00,18.530085,73.849598,SO2,63,111,89
India,Maharashtra,Pune,"Revenue Colony-Shivajinagar, Pune - IITM",03-04-2024 08:00:00,18.530085,73.849598,OZONE,1,58,14
India,Maharashtra,Pune,"Savitribai Phule Pune University, Pune - MPCB",03-04-2024 08:00:00,18.547056,73.826908,OZONE,2,300,30
India,Maharashtra,Pune,"Transport Nagar-Nigdi, Pune - IITM",03-04-2024 08:00:00,18.664282,73.763966,PM10,44,104,76
India,Maharashtra,Pune,"Transport Nagar-Nigdi, Pune - IITM",03-04-2024 08:00:00,18.664282,73.763966,NO2,16,18,17
India,Maharashtra,Pune,"Transport Nagar-Nigdi, Pune - IITM",03-04-2024 08:00:00,18.664282,73.763966,OZONE,22,79,35
India,Maharashtra,Sangli,"Vijay Nagar, Sangli - MPCB",03-04-2024 08:00:00, 16.5038,74.3623,PM2.5,52,134,79
India,Maharashtra,Solapur,"Ratandeep Housing Society, Solapur - MPCB",03-04-2024 08:00:00,17.65439,75.90649,PM10,100,122,111
India,Maharashtra,Solapur,"Ratandeep Housing Society, Solapur - MPCB",03-04-2024 08:00:00,17.65439,75.90649,OZONE,31,184,63
India,Maharashtra,Solapur,"Solapur, Solapur - MPCB",03-04-2024 08:00:00,17.6599188,75.9063906,SO2,101,106,103
India,Maharashtra,Thane,"Kasarvadavali, Thane - MPCB",03-04-2024 08:00:00,19.26777,72.97182,PM2.5,70,140,99
India,Maharashtra,Thane,"Kasarvadavali, Thane - MPCB",03-04-2024 08:00:00,19.26777,72.97182,NO2,24,69,44
India,Maharashtra,Thane,"Pimpleshwar Mandir, Thane - MPCB",03-04-2024 08:00:00,19.192056,72.9585188,NH3,1,10,3
India,Maharashtra,Thane,"Upvan Fort, Thane - MPCB",03-04-2024 08:00:00,19.222279,72.957979,OZONE,28,165,48
India,Maharashtra,Ulhasnagar,"Sidhi Vinayak Nagar, Ulhasnagar - MPCB",03-04-2024 08:00:00,19.235581,73.159121,PM2.5,110,195,160
India,Maharashtra,Ulhasnagar,"Sidhi Vinayak Nagar, Ulhasnagar - MPCB",03-04-2024 08:00:00,19.235581,73.159121,NH3,2,4,2
India,Maharashtra,Ulhasnagar,"Sidhi Vinayak Nagar, Ulhasnagar - MPCB",03-04-2024 08:00:00,19.235581,73.159121,OZONE,8,138,28
India,Maharashtra,Virar,"Bolinj, Virar - MPCB",03-04-2024 08:00:00,19.4458210,72.7988231,CO,12,112,50
India,Maharashtra,Virar,"Bolinj, Virar - MPCB",03-04-2024 08:00:00,19.4458210,72.7988231,OZONE,2,132,45
India,Manipur,Imphal,"DM College of Science, Imphal - Manipur PCB",03-04-2024 08:00:00,24.8207389,93.9423085,PM2.5,22,123,38
India,Manipur,Imphal,"DM College of Science, Imphal - Manipur PCB",03-04-2024 08:00:00,24.8207389,93.9423085,CO,6,6,6
India,Meghalaya,Shillong,"Lumpyngngad, Shillong - Meghalaya PCB",03-04-2024 08:00:00,25.5586,91.8985,SO2,39,45,41
India,Mizoram,Aizawl,"Sikulpuikawn, Aizawl - Mizoram PCB",03-04-2024 08:00:00,23.7176342,92.7192841,PM2.5,33,96,62
India,Mizoram,Aizawl,"Sikulpuikawn, Aizawl - Mizoram PCB",03-04-2024 08:00:00,23.7176342,92.7192841,PM10,44,113,80
India,Mizoram,Aizawl,"Sikulpuikawn, Aizawl - Mizoram PCB",03-04-2024 08:00:00,23.7176342,92.7192841,SO2,2,2,2
India,Nagaland,Kohima,"PWD Juction, Kohima - NPCB",03-04-2024 08:00:00,25.6635413,94.0989878,PM10,91,138,110
India,Odisha,Angul,"Hakimapada, Angul - OSPCB",03-04-2024 08:00:00,20.832874,85.104082,NO2,8,28,20
India,Odisha,Angul,"Hakimapada, Angul - OSPCB",03-04-2024 08:00:00,20.832874,85.104082,SO2,5,101,29
India,Odisha,Baripada,"Meher Colony, Baripada - OSPCB",03-04-2024 08:00:00,21.941841,86.728318,PM10,123,155,139
India,Odisha,Baripada,"Meher Colony, Baripada - OSPCB",03-04-2024 08:00:00,21.941841,86.728318,NO2,1,2,1
India,Odisha,Baripada,"Meher Colony, Baripada - OSPCB",03-04-2024 08:00:00,21.941841,86.728318,CO,24,52,27
India,Odisha,Bhubaneswar,"Lingraj Mandir, Bhubaneswar - OSPCB",03-04-2024 08:00:00,20.240790,85.836784,PM10,32,100,67
India,Odisha,Bhubaneswar,"Lingraj Mandir, Bhubaneswar - OSPCB",03-04-2024 08:00:00,20.240790,85.836784,NO2,2,16,9
India,Odisha,Bhubaneswar,"Lingraj Mandir, Bhubaneswar - OSPCB",03-04-2024 08:00:00,20.240790,85.836784,NH3,2,3,2
India,Odisha,Bhubaneswar,"Patia, Bhubaneswar - OSPCB",03-04-2024 08:00:00,20.34652,85.81630,CO,57,85,75
India,Odisha,Brajrajnagar,"GM Office, Brajrajnagar - OSPCB",03-04-2024 08:00:00,21.8004996,83.8396977,SO2,NA,NA,NA
India,Odisha,Byasanagar,"Ferro Chrome Colony, Byasanagar - OSPCB",03-04-2024 08:00:00,20.94185,86.11510,CO,91,104,97
India,Odisha,Cuttack,"CDA Area, Cuttack - OSPCB",03-04-2024 08:00:00,20.48891     ,85.84768     ,NO2,12,27,16
India,Odisha,Keonjhar,"Jagamohanpur, Keonjhar - OSPCB",03-04-2024 08:00:00,21.643900,85.599355,OZONE,1,58,1
India,Odisha,Nayagarh,"Dabuna, Nayagarh - OSPCB",03-04-2024 08:00:00,21.847279,85.416905,CO,29,54,47
India,Odisha,Rairangpur,"Divisional Forest Office, Rairangpur - OSPCB",03-04-2024 08:00:00,22.265816,86.174829,CO,20,96,33
India,Odisha,Rourkela,"Raghunathpali, Rourkela - OSPCB",03-04-2024 08:00:00,22.220833,84.809444,SO2,1,18,6
India,Odisha,Rourkela,"Raghunathpali, Rourkela - OSPCB",03-04-2024 08:00:00,22.220833,84.809444,OZONE,17,162,22
India,Odisha,Rourkela,"Sector-2, Rourkela - OSPCB",03-04-2024 08:00:00,22.24500000,84.88111111,NO2,NA,NA,NA
India,Odisha,Suakati,"OMC Colony, Suakati - OSPCB",03-04-2024 08:00:00,21.606865,85.510538,SO2,27,113,41
India,Odisha,Talcher,"Talcher Coalfields,Talcher - OSPCB",03-04-2024 08:00:00,20.9360711,85.1707021,NO2,14,26,20
India,Odisha,Tensa,"Barsua Iron Ore Mines, Tensa - OSPCB",03-04-2024 08:00:00,21.869985,85.167016,PM10,20,115,100
India,Puducherry,Puducherry,"Jawahar Nagar, Puducherry - PPCC",03-04-2024 08:00:00,11.9309,79.8027,NH3,2,6,4
India,Puducherry,Puducherry,"Jawahar Nagar, Puducherry - PPCC",03-04-2024 08:00:00,11.9309,79.8027,SO2,4,10,7
India,Punjab,Bathinda,"Hardev Nagar, Bathinda - PPCB",03-04-2024 08:00:00,30.233011,74.907758,NO2,26,30,28
India,Punjab,Khanna,"Kalal Majra, Khanna - PPCB",03-04-2024 08:00:00,30.736056 ,76.209694,CO,20,24,22
India,Punjab,Ludhiana,"Punjab Agricultural University, Ludhiana - PPCB",03-04-2024 08:00:00,30.9028,75.8086,PM10,49,137,92
India,Rajasthan,Ajmer,"Civil Lines,  Ajmer - RSPCB",03-04-2024 08:00:00,26.470859,74.646594,NH3,5,5,5
India,Rajasthan,Alwar,"Moti Doongri, Alwar - RSPCB",03-04-2024 08:00:00,27.554793,76.611536,SO2,10,88,35
India,Rajasthan,Alwar,"Moti Doongri, Alwar - RSPCB",03-04-2024 08:00:00,27.554793,76.611536,OZONE,15,42,20
India,Rajasthan,Baran,"Bamboliya, Baran - RSPCB",03-04-2024 08:00:00,25.106006,76.469948,NO2,8,112,39
India,Rajasthan,Baran,"Bamboliya, Baran - RSPCB",03-04-2024 08:00:00,25.106006,76.469948,CO,11,78,32
India,Rajasthan,Barmer,"Railway Colony, Barmer - RSPCB",03-04-2024 08:00:00,25.747299,71.393989,PM10,46,150,98
India,Rajasthan,Barmer,"Railway Colony, Barmer - RSPCB",03-04-2024 08:00:00,25.747299,71.393989,CO,8,32,10
India,Rajasthan,Bharatpur,"Krishna Nagar, Bharatpur - RSPCB",03-04-2024 08:00:00,27.215415,77.50873,OZONE,27,121,45
India,Rajasthan,Bhilwara,"Pratap Nagar, Bhilwara - RSPCB",03-04-2024 08:00:00,25.339605,74.618883,OZONE,15,94,26
India,Rajasthan,Bhiwadi,"RIICO Ind. Area III, Bhiwadi - RSPCB",03-04-2024 08:00:00,28.194909,76.862296,PM10,101,241,148
India,Rajasthan,Bhiwadi,"RIICO Ind. Area III, Bhiwadi - RSPCB",03-04-2024 08:00:00,28.194909,76.862296,NO2,2,6,4
India,Rajasthan,Bhiwadi,"RIICO Ind. Area III, Bhiwadi - RSPCB",03-04-2024 08:00:00,28.194909,76.862296,SO2,3,101,48
India,Rajasthan,Bhiwadi,"Vasundhara Nagar_UIT, Bhiwadi - RSPCB",03-04-2024 08:00:00,28.207266,76.829265,CO,10,44,30
India,Rajasthan,Bikaner,"MM Ground, Bikaner - RSPCB",03-04-2024 08:00:00,28.018792,73.292658,SO2,3,14,7
India,Rajasthan,Bundi,"New Colony, Bundi - RSPCB",03-04-2024 08:00:00,25.435774,75.644272,NH3,2,3,3
India,Rajasthan,Churu,"Subash Chowk, Churu - RSPCB",03-04-2024 08:00:00,28.296139,74.961696,OZONE,58,151,78
India,Rajasthan,Dausa,"Khatikan Mohalla, Dausa - RSPCB",03-04-2024 08:00:00,26.895552,76.334753,OZONE,7,161,104
India,Rajasthan,Dungarpur,"Bhoiwada, Dungarpur - RSPCB",03-04-2024 08:00:00,23.837789,73.714926,NO2,8,29,15
India,Rajasthan,Hanumangarh,"Housing Board, Hanumangarh - RSPCB",03-04-2024 08:00:00,29.610750,74.283608,PM10,98,199,138
India,Rajasthan,Jaipur,"Adarsh Nagar, Jaipur - RSPCB",03-04-2024 08:00:00,26.902909,75.836858,PM2.5,30,88,58
India,Rajasthan,Jaipur,"Adarsh Nagar, Jaipur - RSPCB",03-04-2024 08:00:00,26.902909,75.836858,CO,2,52,15
India,Rajasthan,Jaipur,"Mansarovar Sector-12, Jaipur - RSPCB",03-04-2024 08:00:00,26.843698,75.766894,NH3,2,15,7
India,Rajasthan,Jaipur,"Police Commissionerate, Jaipur - RSPCB",03-04-2024 08:00:00,26.9164092,75.7994901,PM10,102,147,120
India,Rajasthan,Jaipur,"Police Commissionerate, Jaipur - RSPCB",03-04-2024 08:00:00,26.9164092,75.7994901,OZONE,25,90,61
India,Rajasthan,Jaipur,"RIICO Sitapura, Jaipur - RSPCB",03-04-2024 08:00:00,26.786682,75.827928,PM10,92,226,154
India,Rajasthan,Jaipur,"RIICO Sitapura, Jaipur - RSPCB",03-04-2024 08:00:00,26.786682,75.827928,NO2,17,127,47
India,Rajasthan,Jaipur,"RIICO Sitapura, Jaipur - RSPCB",03-04-2024 08:00:00,26.786682,75.827928,SO2,11,42,22
India,Rajasthan,Jaipur,"Sector-2 Murlipura, Jaipur - RSPCB",03-04-2024 08:00:00,26.960669,75.771817,CO,26,69,36
India,Rajasthan,Jaipur,"Shastri Nagar, Jaipur - RSPCB",03-04-2024 08:00:00,26.9502929,75.730943,NH3,1,16,6
India,Rajasthan,Jaipur,"Shastri Nagar, Jaipur - RSPCB",03-04-2024 08:00:00,26.9502929,75.730943,OZONE,36,104,60
India,Rajasthan,Jaisalmer,"Sadar Bazar, Jaisalmer - RSPCB",03-04-2024 08:00:00,26.912329,70.909168,NH3,3,31,10
India,Rajasthan,Jaisalmer,"Sadar Bazar, Jaisalmer - RSPCB",03-04-2024 08:00:00,26.912329,70.909168,CO,12,107,27
India,Rajasthan,Jalore,"Mudtra Sili, Jalore - RSPCB",03-04-2024 08:00:00,25.344694,72.626208,NO2,3,62,18
India,Rajasthan,Jhalawar,"Rajlaxmi Nagar, Jhalawar - RSPCB",03-04-2024 08:00:00,24.588397,76.172782,NO2,21,64,32
India,Rajasthan,Jhalawar,"Rajlaxmi Nagar, Jhalawar - RSPCB",03-04-2024 08:00:00,24.588397,76.172782,SO2,4,15,8
India,Rajasthan,Jhunjhunu,"Indra Nagar, Jhunjhunu - RSPCB",03-04-2024 08:00:00,28.108988,75.386577,NO2,19,61,36
India,Rajasthan,Jhunjhunu,"Indra Nagar, Jhunjhunu - RSPCB",03-04-2024 08:00:00,28.108988,75.386577,SO2,3,17,7
India,Rajasthan,Jodhpur,"Collectorate, Jodhpur - RSPCB",03-04-2024 08:00:00,26.268249,73.0193853,NO2,35,39,38
India,Rajasthan,Jodhpur,"Collectorate, Jodhpur - RSPCB",03-04-2024 08:00:00,26.268249,73.0193853,CO,24,94,66
India,Rajasthan,Jodhpur,"Digari Kalan, Jodhpur - RSPCB",03-04-2024 08:00:00,26.295810,73.082283,PM2.5,22,101,57
India,Rajasthan,Jodhpur,"Mandor, Jodhpur - RSPCB",03-04-2024 08:00:00,26.358805,73.047444,CO,12,32,15
India,Rajasthan,Jodhpur,"Samrat Ashok Udhyan, Jodhpur - RSPCB",03-04-2024 08:00:00,26.253384,72.976571,NO2,2,51,14
India,Rajasthan,Jodhpur,"Samrat Ashok Udhyan, Jodhpur - RSPCB",03-04-2024 08:00:00,26.253384,72.976571,CO,14,43,31
India,Rajasthan,Karauli,"Satyawati Vihar, Karauli - RSPCB",03-04-2024 08:00:00,26.506177,77.025989,SO2,20,85,28
India,Rajasthan,Kota,"Dhanmandi, Kota - RSPCB",03-04-2024 08:00:00,25.164090,75.858137,SO2,8,114,36
India,Rajasthan,Kota,"Nayapura, Kota - RSPCB",03-04-2024 08:00:00,25.196024,75.855668,PM10,109,276,153
India,Rajasthan,Kota,"Nayapura, Kota - RSPCB",03-04-2024 08:00:00,25.196024,75.855668,NO2,18,127,68
India,Rajasthan,Kota,"Shrinath Puram, Kota - RSPCB",03-04-2024 08:00:00,25.14389,75.821256,NO2,29,166,53
India,Rajasthan,Kota,"Shrinath Puram, Kota - RSPCB",03-04-2024 08:00:00,25.14389,75.821256,SO2,9,57,18
India,Rajasthan,Kota,"Shrinath Puram, Kota - RSPCB",03-04-2024 08:00:00,25.14389,75.821256,OZONE,10,88,43
India,Rajasthan,Nagaur,"Karni Colony, Nagaur - RSPCB",03-04-2024 08:00:00,27.213494,73.734444,PM2.5,21,111,48
India,Rajasthan,Pali,"Indira Colony Vistar, Pali - RSPCB",03-04-2024 08:00:00,25.771061, 73.340227,OZONE,28,80,46
India,Rajasthan,Pratapgarh,"Pragati Nagar, Pratapgarh - RSPCB",03-04-2024 08:00:00,24.041198,74.780702,NH3,4,6,4
India,Rajasthan,Pratapgarh,"Pragati Nagar, Pratapgarh - RSPCB",03-04-2024 08:00:00,24.041198,74.780702,OZONE,38,103,52
India,Rajasthan,Rajsamand,"Dhoinda, Rajsamand - RSPCB",03-04-2024 08:00:00,25.036360,73.883502,OZONE,28,50,41
India,Rajasthan,Sawai Madhopur,"Sahu Nagar, Sawai Madhopur - RSPCB",03-04-2024 08:00:00,26.031443,76.359327,SO2,2,31,5
India,Rajasthan,Sawai Madhopur,"Sahu Nagar, Sawai Madhopur - RSPCB",03-04-2024 08:00:00,26.031443,76.359327,OZONE,8,107,34
India,Rajasthan,Sikar,"Radhakishan Pura, Sikar - RSPCB",03-04-2024 08:00:00,27.608912,75.153302,OZONE,4,113,40
India,Rajasthan,Sirohi,"Vedhaynath Colony, Sirohi - RSPCB",03-04-2024 08:00:00,24.885261,72.857549,NH3,2,4,3
India,Rajasthan,Sirohi,"Vedhaynath Colony, Sirohi - RSPCB",03-04-2024 08:00:00,24.885261,72.857549,OZONE,51,118,66
India,Rajasthan,Tonk,"Shastri Nagar, Tonk - RSPCB",03-04-2024 08:00:00,26.159933,75.780517,NH3,3,43,11
India,Rajasthan,Tonk,"Shastri Nagar, Tonk - RSPCB",03-04-2024 08:00:00,26.159933,75.780517,CO,3,106,17
India,Rajasthan,Udaipur,"Ashok Nagar, Udaipur - RSPCB",03-04-2024 08:00:00,24.5886166,73.6321397,PM2.5,64,274,167
India,Rajasthan,Udaipur,"Ashok Nagar, Udaipur - RSPCB",03-04-2024 08:00:00,24.5886166,73.6321397,OZONE,13,47,30
India,Sikkim,Gangtok,"Zero Point GICI, Gangtok - SSPCB",03-04-2024 08:00:00,27.338530,88.614099,CO,16,25,20
India,Sikkim,Gangtok,"Zero Point GICI, Gangtok - SSPCB",03-04-2024 08:00:00,27.338530,88.614099,OZONE,36,108,42
India,TamilNadu,Chengalpattu,"Crescent University, Chengalpattu - TNPCB",03-04-2024 08:00:00,12.8777316,80.0834807,NH3,NA,NA,NA
India,TamilNadu,Chennai,"Alandur Bus Depot, Chennai - CPCB",03-04-2024 08:00:00,12.9099161,80.1076538,PM2.5,33,62,43
India,TamilNadu,Chennai,"Alandur Bus Depot, Chennai - CPCB",03-04-2024 08:00:00,12.9099161,80.1076538,OZONE,1,7,4
India,TamilNadu,Chennai,"Arumbakkam, Chennai - TNPCB",03-04-2024 08:00:00,13.0664,80.2112 ,PM2.5,8,47,21
India,TamilNadu,Chennai,"Arumbakkam, Chennai - TNPCB",03-04-2024 08:00:00,13.0664,80.2112 ,NO2,10,18,14
India,TamilNadu,Chennai,"Arumbakkam, Chennai - TNPCB",03-04-2024 08:00:00,13.0664,80.2112 ,NH3,2,11,6
India,TamilNadu,Chennai,"Arumbakkam, Chennai - TNPCB",03-04-2024 08:00:00,13.0664,80.2112 ,SO2,1,7,4
India,TamilNadu,Chennai,"Kodungaiyur, Chennai - TNPCB",03-04-2024 08:00:00,13.1278,80.2642,PM10,17,79,45
India,TamilNadu,Chennai,"Kodungaiyur, Chennai - TNPCB",03-04-2024 08:00:00,13.1278,80.2642,SO2,2,11,5
India,TamilNadu,Chennai,"Perungudi, Chennai - TNPCB",03-04-2024 08:00:00,12.9533,80.2357,PM2.5,5,45,25
India,TamilNadu,Chennai,"Perungudi, Chennai - TNPCB",03-04-2024 08:00:00,12.9533,80.2357,SO2,2,7,4
India,TamilNadu,Chennai,"Royapuram, Chennai - TNPCB",03-04-2024 08:00:00,13.1036,80.2909,NO2,11,18,15
India,TamilNadu,Chennai,"Royapuram, Chennai - TNPCB",03-04-2024 08:00:00,13.1036,80.2909,NH3,1,1,1
India,TamilNadu,Coimbatore,"PSG College of Arts and Science, Coimbatore - TNPCB",03-04-2024 08:00:00,11.0328,77.0349,OZONE,NA,NA,NA
India,TamilNadu,Cuddalore,"Semmandalam, Cuddalore - TNPCB",03-04-2024 08:00:00,11.7637683,79.7499835,OZONE,1,2,2
India,TamilNadu,Gummidipoondi,"Anthoni Pillai Nagar, Gummidipoondi - TNPCB",03-04-2024 08:00:00,13.4127,80.1081,NH3,1,2,2
India,TamilNadu,Ooty,"Bombay Castel, Ooty - TNPCB",03-04-2024 08:00:00,11.4068288,76.7138973,PM2.5,30,157,54
India,TamilNadu,Palkalaiperur,"Bharathidasan University, Palkalaiperur - TNPCB",03-04-2024 08:00:00,10.681158,78.741746,OZONE,NA,NA,NA
India,TamilNadu,Salem,"Sona College of Technology, Salem - TNPCB",03-04-2024 08:00:00,11.679111,78.125052,SO2,NA,NA,NA
India,TamilNadu,Thoothukudi,"Meelavittan, Thoothukudi - TNPCB",03-04-2024 08:00:00,8.816428 ,78.099039,OZONE,NA,NA,NA
India,TamilNadu,Virudhunagar,"Collectorate Office, Virudhunagar - TNPCB",03-04-2024 08:00:00,9.559382,77.948828,SO2,6,10,8
India,Telangana,Hyderabad,"Bollaram Industrial Area, Hyderabad - TSPCB",03-04-2024 08:00:00,17.540891,78.358528,NH3,2,6,3
India,Telangana,Hyderabad,"Bollaram Industrial Area, Hyderabad - TSPCB",03-04-2024 08:00:00,17.540891,78.358528,CO,2,120,52
India,Telangana,Hyderabad,"Central University, Hyderabad - TSPCB",03-04-2024 08:00:00,17.460103,78.334361,SO2,7,10,9
India,Telangana,Hyderabad,"Central University, Hyderabad - TSPCB",03-04-2024 08:00:00,17.460103,78.334361,OZONE,3,4,4
India,Telangana,Hyderabad,"ECIL Kapra, Hyderabad - TSPCB",03-04-2024 08:00:00,17.470431,78.566959,NH3,7,10,7
India,Telangana,Hyderabad,"ICRISAT Patancheru, Hyderabad - TSPCB",03-04-2024 08:00:00,17.518400,78.278777,PM2.5,38,88,55
India,Telangana,Hyderabad,"ICRISAT Patancheru, Hyderabad - TSPCB",03-04-2024 08:00:00,17.518400,78.278777,PM10,48,123,77
India,Telangana,Hyderabad,"ICRISAT Patancheru, Hyderabad - TSPCB",03-04-2024 08:00:00,17.518400,78.278777,SO2,12,32,19
India,Telangana,Hyderabad,"Kokapet, Hyderabad - TSPCB",03-04-2024 08:00:00,17.393559,78.339194,PM10,73,89,81
India,Telangana,Hyderabad,"Kokapet, Hyderabad - TSPCB",03-04-2024 08:00:00,17.393559,78.339194,CO,18,24,24
India,Telangana,Hyderabad,"Kompally Municipal Office, Hyderabad - TSPCB",03-04-2024 08:00:00,17.544899,78.486949,NH3,NA,NA,NA
India,Telangana,Hyderabad,"Kompally Municipal Office, Hyderabad - TSPCB",03-04-2024 08:00:00,17.544899,78.486949,CO,23,56,44
India,Telangana,Hyderabad,"New Malakpet, Hyderabad - TSPCB",03-04-2024 08:00:00,17.37206,78.50864,PM10,76,97,85
India,Telangana,Hyderabad,"Ramachandrapuram, Hyderabad - TSPCB",03-04-2024 08:00:00,17.528544,78.286195,PM10,59,79,69
India,Telangana,Hyderabad,"Ramachandrapuram, Hyderabad - TSPCB",03-04-2024 08:00:00,17.528544,78.286195,NO2,8,11,10
India,Telangana,Hyderabad,"Sanathnagar, Hyderabad - TSPCB",03-04-2024 08:00:00,17.4559458,78.4332152,NO2,19,30,29
India,Telangana,Hyderabad,"Sanathnagar, Hyderabad - TSPCB",03-04-2024 08:00:00,17.4559458,78.4332152,SO2,1,28,8
India,Telangana,Hyderabad,"Somajiguda, Hyderabad - TSPCB",03-04-2024 08:00:00,17.417094,78.457437,PM2.5,18,237,71
India,Telangana,Hyderabad,"Somajiguda, Hyderabad - TSPCB",03-04-2024 08:00:00,17.417094,78.457437,NO2,18,39,24
India,Telangana,Hyderabad,"Somajiguda, Hyderabad - TSPCB",03-04-2024 08:00:00,17.417094,78.457437,SO2,12,12,12
India,Telangana,Hyderabad,"Somajiguda, Hyderabad - TSPCB",03-04-2024 08:00:00,17.417094,78.457437,CO,6,40,10
India,Telangana,Hyderabad,"Zoo Park, Hyderabad - TSPCB",03-04-2024 08:00:00,17.349694,78.451437,CO,34,86,55
India,Tripura,Agartala,"Bardowali, Agartala - Tripura SPCB",03-04-2024 08:00:00,23.8175497,91.2726974,NO2,4,9,6
India,Tripura,Agartala,"Bardowali, Agartala - Tripura SPCB",03-04-2024 08:00:00,23.8175497,91.2726974,OZONE,1,33,5
India,Uttar_Pradesh,Agra,"Manoharpur, Agra - UPPCB",03-04-2024 08:00:00,27.23711,78.01936,SO2,5,13,8
India,Uttar_Pradesh,Agra,"Manoharpur, Agra - UPPCB",03-04-2024 08:00:00,27.23711,78.01936,CO,6,16,11
India,Uttar_Pradesh,Agra,"Rohta, Agra - UPPCB",03-04-2024 08:00:00,27.106972,78.000111,CO,5,20,13
India,Uttar_Pradesh,Agra,"Rohta, Agra - UPPCB",03-04-2024 08:00:00,27.106972,78.000111,OZONE,16,18,18
India,Uttar_Pradesh,Agra,"Sanjay Palace, Agra - UPPCB",03-04-2024 08:00:00,27.19865833,78.00598056,PM10,25,84,50
India,Uttar_Pradesh,Agra,"Sanjay Palace, Agra - UPPCB",03-04-2024 08:00:00,27.19865833,78.00598056,SO2,6,11,8
India,Uttar_Pradesh,Agra,"Sanjay Palace, Agra - UPPCB",03-04-2024 08:00:00,27.19865833,78.00598056,CO,2,74,42
India,Uttar_Pradesh,Agra,"Sector-3B Avas Vikas Colony, Agra - UPPCB",03-04-2024 08:00:00,27.19412,77.96237,SO2,10,14,12
India,Uttar_Pradesh,Agra,"Sector-3B Avas Vikas Colony, Agra - UPPCB",03-04-2024 08:00:00,27.19412,77.96237,CO,7,17,13
India,Uttar_Pradesh,Agra,"Sector-3B Avas Vikas Colony, Agra - UPPCB",03-04-2024 08:00:00,27.19412,77.96237,OZONE,2,6,3
India,Uttar_Pradesh,Baghpat,"Sardar Patel Inter College, Baghpat - UPPCB",03-04-2024 08:00:00,28.964949,77.278761,PM2.5,20,80,46
India,Uttar_Pradesh,Bareilly,"Civil Lines, Bareilly - UPPCB",03-04-2024 08:00:00,28.359581,79.414455,PM2.5,4,9,6
India,Uttar_Pradesh,Bareilly,"Civil Lines, Bareilly - UPPCB",03-04-2024 08:00:00,28.359581,79.414455,NO2,2,3,2
India,Uttar_Pradesh,Bareilly,"Rajendra Nagar, Bareilly - UPPCB",03-04-2024 08:00:00,28.38910936,79.42963708,PM2.5,16,35,23
India,Uttar_Pradesh,Bareilly,"Rajendra Nagar, Bareilly - UPPCB",03-04-2024 08:00:00,28.38910936,79.42963708,PM10,41,80,57
India,Uttar_Pradesh,Bulandshahr,"Yamunapuram, Bulandshahr - UPPCB",03-04-2024 08:00:00,28.406963,77.849831,CO,20,66,51
India,Uttar_Pradesh,Firozabad,"Nagla Bhau, Firozabad - UPPCB",03-04-2024 08:00:00,27.168897,78.376960,NO2,17,17,17
India,Uttar_Pradesh,Firozabad,"Vibhab Nagar, Firozabad - UPPCB",03-04-2024 08:00:00,27.1594,78.3953,PM10,28,88,47
India,Uttar_Pradesh,Ghaziabad,"Loni, Ghaziabad - UPPCB",03-04-2024 08:00:00,28.757294,77.278792,CO,4,100,80
India,Uttar_Pradesh,Ghaziabad,"Loni, Ghaziabad - UPPCB",03-04-2024 08:00:00,28.757294,77.278792,OZONE,2,88,14
India,Uttar_Pradesh,Ghaziabad,"Sanjay Nagar, Ghaziabad - UPPCB",03-04-2024 08:00:00,28.685382,77.453839,PM2.5,17,319,133
India,Uttar_Pradesh,Ghaziabad,"Vasundhara, Ghaziabad - UPPCB",03-04-2024 08:00:00,28.6603346,77.3572563,CO,1,70,35
India,Uttar_Pradesh,Gorakhpur,"Madan Mohan Malaviya University of Technology, Gorakhpur - UPPCB",03-04-2024 08:00:00,26.730136,83.433859,PM2.5,41,169,79
India,Uttar_Pradesh,Gorakhpur,"Madan Mohan Malaviya University of Technology, Gorakhpur - UPPCB",03-04-2024 08:00:00,26.730136,83.433859,NO2,2,2,2
India,Uttar_Pradesh,Gorakhpur,"Madan Mohan Malaviya University of Technology, Gorakhpur - UPPCB",03-04-2024 08:00:00,26.730136,83.433859,OZONE,21,57,28
India,Uttar_Pradesh,Greater Noida,"Knowledge Park - V, Greater Noida - UPPCB",03-04-2024 08:00:00,28.557054,77.453663,PM2.5,32,306,112
India,Uttar_Pradesh,Hapur,"Anand Vihar, Hapur - UPPCB",03-04-2024 08:00:00,28.725645,77.749675,PM10,NA,NA,NA
India,Uttar_Pradesh,Hapur,"Anand Vihar, Hapur - UPPCB",03-04-2024 08:00:00,28.725645,77.749675,NH3,1,27,16
India,Uttar_Pradesh,Hapur,"Anand Vihar, Hapur - UPPCB",03-04-2024 08:00:00,28.725645,77.749675,SO2,13,107,79
India,Uttar_Pradesh,Jhansi,"Shivaji Nagar, Jhansi - UPPCB",03-04-2024 08:00:00,25.4547,78.6039,NH3,6,6,6
India,Uttar_Pradesh,Kanpur,"FTI Kidwai Nagar, Kanpur - UPPCB",03-04-2024 08:00:00,26.428282,80.327067,NH3,3,4,3
India,Uttar_Pradesh,Kanpur,"NSI Kalyanpur, Kanpur - UPPCB",03-04-2024 08:00:00,26.509954,80.249612,PM2.5,9,163,85
India,Uttar_Pradesh,Khurja,"Kalindi Kunj, Khurja - UPPCB",03-04-2024 08:00:00,28.2348927,77.8683002,OZONE,31,37,31
India,Uttar_Pradesh,Lucknow,"Gomti Nagar, Lucknow - UPPCB",03-04-2024 08:00:00,26.868120,81.005119,CO,38,44,38
India,Uttar_Pradesh,Lucknow,"Gomti Nagar, Lucknow - UPPCB",03-04-2024 08:00:00,26.868120,81.005119,OZONE,32,40,33
India,Uttar_Pradesh,Lucknow,"Kukrail Picnic Spot-1, Lucknow - UPPCB",03-04-2024 08:00:00,26.90723,80.98579,NO2,8,9,8
India,Uttar_Pradesh,Lucknow,"Kukrail Picnic Spot-1, Lucknow - UPPCB",03-04-2024 08:00:00,26.90723,80.98579,NH3,2,2,2
India,Uttar_Pradesh,Lucknow,"Lalbagh, Lucknow - CPCB",03-04-2024 08:00:00,26.8458805,80.9365541,CO,12,81,29
India,Uttar_Pradesh,Lucknow,"Talkatora District Industries Center, Lucknow - CPCB",03-04-2024 08:00:00,26.83399722,80.8917361,CO,10,38,30
India,Uttar_Pradesh,Meerut,"Ganga Nagar, Meerut - UPPCB",03-04-2024 08:00:00,28.999264,77.7590354,PM10,83,138,112
India,Uttar_Pradesh,Meerut,"Ganga Nagar, Meerut - UPPCB",03-04-2024 08:00:00,28.999264,77.7590354,SO2,12,38,24
India,Uttar_Pradesh,Meerut,"Jai Bhim Nagar, Meerut - UPPCB",03-04-2024 08:00:00,28.9535882,77.7622941,PM10,74,133,89
India,Uttar_Pradesh,Meerut,"Pallavpuram Phase 2, Meerut - UPPCB",03-04-2024 08:00:00,29.063510,77.709723,NH3,6,11,9
India,Uttar_Pradesh,Moradabad,"Buddhi Vihar, Moradabad - UPPCB",03-04-2024 08:00:00,28.83526,78.74460,NH3,2,2,2
India,Uttar_Pradesh,Moradabad,"Eco Herbal Park, Moradabad - UPPCB",03-04-2024 08:00:00,28.840739,78.697531,NH3,5,44,10
India,Uttar_Pradesh,Moradabad,"Eco Herbal Park, Moradabad - UPPCB",03-04-2024 08:00:00,28.840739,78.697531,OZONE,3,122,43
India,Uttar_Pradesh,Moradabad,"Employment Office, Moradabad - UPPCB",03-04-2024 08:00:00,28.88528,78.73880,PM10,60,146,85
India,Uttar_Pradesh,Moradabad,"Employment Office, Moradabad - UPPCB",03-04-2024 08:00:00,28.88528,78.73880,OZONE,13,59,16
India,Uttar_Pradesh,Moradabad,"Jigar Colony, Moradabad - UPPCB",03-04-2024 08:00:00,28.856664,78.772638,PM10,83,140,107
India,Uttar_Pradesh,Moradabad,"Jigar Colony, Moradabad - UPPCB",03-04-2024 08:00:00,28.856664,78.772638,NO2,22,23,23
India,Uttar_Pradesh,Moradabad,"Kashiram Nagar, Moradabad - UPPCB",03-04-2024 08:00:00,28.849399,78.742362,PM2.5,23,160,63
India,Uttar_Pradesh,Moradabad,"Kashiram Nagar, Moradabad - UPPCB",03-04-2024 08:00:00,28.849399,78.742362,CO,24,47,40
India,Uttar_Pradesh,Moradabad,"Transport Nagar, Moradabad - UPPCB",03-04-2024 08:00:00,28.802625,78.753728,NO2,7,21,14
India,Uttar_Pradesh,Moradabad,"Transport Nagar, Moradabad - UPPCB",03-04-2024 08:00:00,28.802625,78.753728,CO,39,42,41
India,Uttar_Pradesh,Muzaffarnagar,"New Mandi, Muzaffarnagar - UPPCB",03-04-2024 08:00:00,29.4723508,77.7194031,PM2.5,35,359,140
India,Uttar_Pradesh,Muzaffarnagar,"New Mandi, Muzaffarnagar - UPPCB",03-04-2024 08:00:00,29.4723508,77.7194031,NO2,21,42,30
India,Uttar_Pradesh,Noida,"Sector - 125, Noida - UPPCB",03-04-2024 08:00:00,28.5447608,77.3231257,CO,31,86,65
India,Uttar_Pradesh,Noida,"Sector-1, Noida - UPPCB",03-04-2024 08:00:00,28.5898,77.3101,NO2,25,86,48
India,Uttar_Pradesh,Noida,"Sector-1, Noida - UPPCB",03-04-2024 08:00:00,28.5898,77.3101,CO,19,71,40
India,Uttar_Pradesh,Noida,"Sector-116, Noida - UPPCB",03-04-2024 08:00:00,28.569230,77.393848,NH3,6,9,7
India,Uttar_Pradesh,Prayagraj,"Jhunsi, Prayagraj - UPPCB",03-04-2024 08:00:00,25.425602,81.917152,CO,5,20,14
India,Uttar_Pradesh,Prayagraj,"Motilal Nehru NIT, Prayagraj - UPPCB",03-04-2024 08:00:00,25.494,81.863,OZONE,5,37,7
India,Uttar_Pradesh,Prayagraj,"Nagar Nigam, Prayagraj - UPPCB",03-04-2024 08:00:00,25.44919916 ,81.82735986 ,PM10,27,471,107
India,Uttar_Pradesh,Prayagraj,"Nagar Nigam, Prayagraj - UPPCB",03-04-2024 08:00:00,25.44919916 ,81.82735986 ,SO2,7,81,34
India,Uttar_Pradesh,Varanasi,"IESD Banaras Hindu University, Varanasi - UPPCB",03-04-2024 08:00:00,25.262326,82.995408,PM10,22,51,33
India,Uttar_Pradesh,Varanasi,"IESD Banaras Hindu University, Varanasi - UPPCB",03-04-2024 08:00:00,25.262326,82.995408,SO2,15,16,15
India,Uttar_Pradesh,Varanasi,"IESD Banaras Hindu University, Varanasi - UPPCB",03-04-2024 08:00:00,25.262326,82.995408,OZONE,NA,NA,NA
India,Uttar_Pradesh,Varanasi,"Maldahiya, Varanasi - UPPCB",03-04-2024 08:00:00,25.32393,82.99687,NO2,1,7,2
India,Uttar_Pradesh,Vrindavan,"Omex Eternity, Vrindavan - UPPCB",03-04-2024 08:00:00,27.5714090,77.6557570,OZONE,29,33,31
India,Uttarakhand,Dehradun,"Doon University, Dehradun - UKPCB",03-04-2024 08:00:00,30.269444,78.044167,SO2,1,4,2
India,Uttarakhand,Kashipur,"Govt. Girls Inter College, Kashipur - UKPCB",03-04-2024 08:00:00,29.2124114,78.9611753,NO2,4,16,7
India,Uttarakhand,Rishikesh,"Shivaji Nagar, Rishikesh - UKPCB",03-04-2024 08:00:00,30.075911,78.2859547,NH3,2,4,3
India,West_Bengal,Asansol,"Asansol Court Area, Asansol - WBPCB",03-04-2024 08:00:00,23.685297,86.945968,PM10,136,176,156
India,West_Bengal,Durgapur,"PCBL Residential Complex, Durgapur - WBPCB",03-04-2024 08:00:00,23.5087640,87.3544400,NH3,1,3,2
India,West_Bengal,Durgapur,"Sidhu Kanhu Indoor Stadium, Durgapur - WBPCB",03-04-2024 08:00:00,23.5404352,87.2892225,PM2.5,47,288,172
India,West_Bengal,Haldia,"Priyambada Housing Estate, Haldia - WBPCB",03-04-2024 08:00:00,22.06047,88.109737,PM2.5,9,55,32
India,West_Bengal,Haldia,"Priyambada Housing Estate, Haldia - WBPCB",03-04-2024 08:00:00,22.06047,88.109737,NO2,10,44,20
India,West_Bengal,Howrah,"Belur Math, Howrah - WBPCB",03-04-2024 08:00:00,22.629801,88.352017,CO,2,30,7
India,West_Bengal,Howrah,"Padmapukur, Howrah - WBPCB",03-04-2024 08:00:00,22.5687319,88.2797276,PM10,64,153,111
India,West_Bengal,Kolkata,"Ballygunge, Kolkata - WBPCB",03-04-2024 08:00:00,22.5367507,88.3638022,PM2.5,54,114,80
India,West_Bengal,Kolkata,"Ballygunge, Kolkata - WBPCB",03-04-2024 08:00:00,22.5367507,88.3638022,OZONE,13,127,19
India,West_Bengal,Kolkata,"Bidhannagar, Kolkata - WBPCB",03-04-2024 08:00:00,22.58157048,88.41002457,OZONE,12,151,21
India,West_Bengal,Kolkata,"Fort William, Kolkata - WBPCB",03-04-2024 08:00:00,22.556640,88.342674,NO2,17,116,39
India,West_Bengal,Kolkata,"Jadavpur, Kolkata - WBPCB",03-04-2024 08:00:00,22.49929,88.36917,OZONE,10,125,15
India,West_Bengal,Kolkata,"Rabindra Bharati University, Kolkata - WBPCB",03-04-2024 08:00:00,22.627847,88.380669,PM2.5,41,83,65
India,West_Bengal,Kolkata,"Rabindra Bharati University, Kolkata - WBPCB",03-04-2024 08:00:00,22.627847,88.380669,PM10,62,118,96
India,West_Bengal,Kolkata,"Rabindra Bharati University, Kolkata - WBPCB",03-04-2024 08:00:00,22.627847,88.380669,NO2,19,21,20
India,West_Bengal,Kolkata,"Rabindra Sarobar, Kolkata - WBPCB",03-04-2024 08:00:00,22.51106,88.35142,SO2,9,36,20
India,West_Bengal,Kolkata,"Victoria, Kolkata - WBPCB",03-04-2024 08:00:00,22.5448082,88.3403691,PM10,75,138,110
India,West_Bengal,Kolkata,"Victoria, Kolkata - WBPCB",03-04-2024 08:00:00,22.5448082,88.3403691,NO2,7,20,9
India,West_Bengal,Siliguri,"Ward-32 Bapupara, Siliguri - WBPCB",03-04-2024 08:00:00,26.6879226,88.4152495,PM2.5,78,181,109
India,West_Bengal,Siliguri,"Ward-32 Bapupara, Siliguri - WBPCB",03-04-2024 08:00:00,26.6879226,88.4152495,NH3,1,12,8
India,West_Bengal,Siliguri,"Ward-32 Bapupara, Siliguri - WBPCB",03-04-2024 08:00:00,26.6879226,88.4152495,SO2,7,11,9
India,West_Bengal,Siliguri,"Ward-32 Bapupara, Siliguri - WBPCB",03-04-2024 08:00:00,26.6879226,88.4152495,OZONE,9,68,18
India,Andhra_Pradesh,Amaravati,"Secretariat, Amaravati - APPCB",03-04-2024 08:00:00,16.5150833,80.5181667,NO2,5,10,7
India,Andhra_Pradesh,Amaravati,"Secretariat, Amaravati - APPCB",03-04-2024 08:00:00,16.5150833,80.5181667,NH3,4,5,5
India,Andhra_Pradesh,Amaravati,"Secretariat, Amaravati - APPCB",03-04-2024 08:00:00,16.5150833,80.5181667,CO,14,45,26
India,Andhra_Pradesh,Chittoor,"Gangineni Cheruvu, Chittoor - APPCB",03-04-2024 08:00:00,13.204880,79.097889,CO,2,16,16
India,Andhra_Pradesh,Kadapa,"Yerramukkapalli, Kadapa - APPCB",03-04-2024 08:00:00,14.465052,78.824187,PM10,24,58,40
India,Andhra_Pradesh,Kadapa,"Yerramukkapalli, Kadapa - APPCB",03-04-2024 08:00:00,14.465052,78.824187,OZONE,17,91,36
India,Andhra_Pradesh,Rajamahendravaram,"Anand Kala Kshetram, Rajamahendravaram - APPCB",03-04-2024 08:00:00,16.9872867,81.7363176,OZONE,16,24,20
India,Andhra_Pradesh,Tirupati,"Tirumala, Tirupati - APPCB",03-04-2024 08:00:00,13.67,79.35,NO2,12,42,23
India,Andhra_Pradesh,Tirupati,"Tirumala, Tirupati - APPCB",03-04-2024 08:00:00,13.67,79.35,NH3,1,2,1
India,Andhra_Pradesh,Tirupati,"Vaikuntapuram, Tirupati - APPCB",03-04-2024 08:00:00,13.615387,79.409230,PM10,NA,NA,NA
India,Andhra_Pradesh,Tirupati,"Vaikuntapuram, Tirupati - APPCB",03-04-2024 08:00:00,13.615387,79.409230,NH3,NA,NA,NA
India,Andhra_Pradesh,Tirupati,"Vaikuntapuram, Tirupati - APPCB",03-04-2024 08:00:00,13.615387,79.409230,SO2,NA,NA,NA
India,Andhra_Pradesh,Vijayawada,"HB Colony, Vijayawada - APPCB",03-04-2024 08:00:00,16.536107,80.594233,SO2,3,4,3
India,Andhra_Pradesh,Vijayawada,"Rajiv Gandhi Park, Vijayawada - APPCB",03-04-2024 08:00:00,16.509717,80.612222,PM2.5,34,87,56
India,Andhra_Pradesh,Vijayawada,"Rajiv Gandhi Park, Vijayawada - APPCB",03-04-2024 08:00:00,16.509717,80.612222,SO2,5,10,7
India,Andhra_Pradesh,Vijayawada,"Rajiv Nagar, Vijayawada - APPCB",03-04-2024 08:00:00,16.554731,80.649110,PM10,59,107,65
India,Andhra_Pradesh,Vijayawada,"Rajiv Nagar, Vijayawada - APPCB",03-04-2024 08:00:00,16.554731,80.649110,OZONE,5,41,9
India,Andhra_Pradesh,Visakhapatnam,"GVM Corporation, Visakhapatnam - APPCB",03-04-2024 08:00:00,17.72,83.3,CO,12,82,22
India,Andhra_Pradesh,Visakhapatnam,"GVM Corporation, Visakhapatnam - APPCB",03-04-2024 08:00:00,17.72,83.3,OZONE,8,13,9
India,Assam,Guwahati,"IITG, Guwahati - PCBA",03-04-2024 08:00:00,26.2028636,91.70046436,CO,8,31,20
India,Assam,Guwahati,"LGBI Airport, Guwahati - PCBA",03-04-2024 08:00:00,26.10887,91.589544,PM10,116,311,178
India,Assam,Guwahati,"Pan Bazaar, Guwahati - PCBA",03-04-2024 08:00:00,26.187500,91.744194,NO2,1,14,5
India,Assam,Nagaon,"Christianpatty, Nagaon - PCBA",03-04-2024 08:00:00,26.349082,92.68449,NO2,2,106,14
India,Assam,Nagaon,"Christianpatty, Nagaon - PCBA",03-04-2024 08:00:00,26.349082,92.68449,SO2,5,47,21
India,Assam,Nalbari,"Bata Chowk, Nalbari - PCBA",03-04-2024 08:00:00,26.446912,91.439057,PM10,70,396,180
India,Assam,Nalbari,"Bata Chowk, Nalbari - PCBA",03-04-2024 08:00:00,26.446912,91.439057,SO2,1,10,4
India,Assam,Nalbari,"Bata Chowk, Nalbari - PCBA",03-04-2024 08:00:00,26.446912,91.439057,CO,20,158,150
India,Assam,Nalbari,"Bata Chowk, Nalbari - PCBA",03-04-2024 08:00:00,26.446912,91.439057,OZONE,30,181,62
India,Assam,Silchar,"Tarapur, Silchar - PCBA",03-04-2024 08:00:00,24.82827,92.79525,NO2,13,13,13
India,Bihar,Araria,"Kharahiya Basti, Araria - BSPCB",03-04-2024 08:00:00,26.146529,87.454184,OZONE,6,11,6
India,Bihar,Arrah,"New DM Office, Arrah - BSPCB",03-04-2024 08:00:00,25.5626095,84.663264,PM10,61,173,101
India,Bihar,Aurangabad,"Gurdeo Nagar, Aurangabad - BSPCB",03-04-2024 08:00:00,24.75746,84.366208,PM2.5,NA,NA,NA
India,Bihar,Aurangabad,"Gurdeo Nagar, Aurangabad - BSPCB",03-04-2024 08:00:00,24.75746,84.366208,PM10,NA,NA,NA
India,Bihar,Aurangabad,"Gurdeo Nagar, Aurangabad - BSPCB",03-04-2024 08:00:00,24.75746,84.366208,CO,30,78,70
India,Bihar,Bettiah,"Kamalnath Nagar, Bettiah - BSPCB",03-04-2024 08:00:00,26.80365,84.51954,NO2,8,8,8
India,Bihar,Bettiah,"Kamalnath Nagar, Bettiah - BSPCB",03-04-2024 08:00:00,26.80365,84.51954,SO2,9,21,16
India,Bihar,Bhagalpur,"DM Office_Kachari Chowk, Bhagalpur - BSPCB",03-04-2024 08:00:00,25.251013,86.989001,NO2,40,90,70
India,Bihar,Bhagalpur,"DM Office_Kachari Chowk, Bhagalpur - BSPCB",03-04-2024 08:00:00,25.251013,86.989001,OZONE,44,49,46
India,Bihar,Bhagalpur,"Mayaganj, Bhagalpur - BSPCB",03-04-2024 08:00:00,25.265194,87.012947,PM2.5,37,227,93
India,Bihar,Bhagalpur,"Mayaganj, Bhagalpur - BSPCB",03-04-2024 08:00:00,25.265194,87.012947,NO2,4,11,7
India,Bihar,Bhagalpur,"Mayaganj, Bhagalpur - BSPCB",03-04-2024 08:00:00,25.265194,87.012947,SO2,11,12,12
India,Bihar,Bihar Sharif,"D M Colony, Bihar Sharif - BSPCB",03-04-2024 08:00:00,25.204762,85.514960,OZONE,NA,NA,NA
India,Bihar,Buxar,"Charitra Van, Buxar - BSPCB (Formerly known as Central Jail)",03-04-2024 08:00:00,25.567520,83.966379,NH3,NA,NA,NA
India,Bihar,Buxar,"Charitra Van, Buxar - BSPCB (Formerly known as Central Jail)",03-04-2024 08:00:00,25.567520,83.966379,CO,59,100,75
India,Bihar,Chhapra,"Darshan Nagar, Chhapra - BSPCB",03-04-2024 08:00:00,25.7808257,84.7446768,PM10,100,151,124
India,Bihar,Chhapra,"Darshan Nagar, Chhapra - BSPCB",03-04-2024 08:00:00,25.7808257,84.7446768,OZONE,1,10,3
India,Bihar,Gaya,"Kareemganj, Gaya - BSPCB",03-04-2024 08:00:00,24.792403,84.992416,NO2,28,31,30
India,Bihar,Gaya,"SFTI Kusdihra, Gaya - BSPCB",03-04-2024 08:00:00,24.762518,84.982348,PM2.5,35,94,66
India,Bihar,Hajipur,"Industrial Area, Hajipur - BSPCB",03-04-2024 08:00:00,25.697189,85.245900,PM2.5,64,111,83
India,Bihar,Hajipur,"Industrial Area, Hajipur - BSPCB",03-04-2024 08:00:00,25.697189,85.245900,NO2,29,73,46
India,Bihar,Hajipur,"Industrial Area, Hajipur - BSPCB",03-04-2024 08:00:00,25.697189,85.245900,CO,16,64,38
India,Bihar,Katihar,"Mirchaibari, Katihar - BSPCB",03-04-2024 08:00:00,25.560083,87.553265,PM2.5,22,73,48
India,Bihar,Katihar,"Mirchaibari, Katihar - BSPCB",03-04-2024 08:00:00,25.560083,87.553265,OZONE,11,20,12
India,Bihar,Kishanganj,"SDM Office_Khagra, Kishanganj - BSPCB",03-04-2024 08:00:00,26.0881305,87.93840336,NO2,29,34,31
India,Bihar,Kishanganj,"SDM Office_Khagra, Kishanganj - BSPCB",03-04-2024 08:00:00,26.0881305,87.93840336,NH3,9,11,10
India,Bihar,Kishanganj,"SDM Office_Khagra, Kishanganj - BSPCB",03-04-2024 08:00:00,26.0881305,87.93840336,SO2,34,104,50
India,Bihar,Manguraha,"Forest Rest House, Manguraha - BSPCB",03-04-2024 08:00:00,27.308328,84.531742,PM10,NA,NA,NA
India,Bihar,Manguraha,"Forest Rest House, Manguraha - BSPCB",03-04-2024 08:00:00,27.308328,84.531742,NO2,NA,NA,NA
India,Bihar,Manguraha,"Forest Rest House, Manguraha - BSPCB",03-04-2024 08:00:00,27.308328,84.531742,NH3,NA,NA,NA
India,Bihar,Muzaffarpur,"Buddha Colony, Muzaffarpur - BSPCB",03-04-2024 08:00:00,26.11442,85.39813,PM2.5,126,294,203
India,Bihar,Muzaffarpur,"Buddha Colony, Muzaffarpur - BSPCB",03-04-2024 08:00:00,26.11442,85.39813,NH3,15,19,18
India,Bihar,Muzaffarpur,"MIT-Daudpur Kothi, Muzaffarpur - BSPCB",03-04-2024 08:00:00,26.1403345,85.3650192,SO2,18,29,24
India,Bihar,Muzaffarpur,"Muzaffarpur Collectorate, Muzaffarpur - BSPCB",03-04-2024 08:00:00,26.1209,85.3647,OZONE,33,94,58
India,Bihar,Patna,"DRM Office Danapur, Patna - BSPCB",03-04-2024 08:00:00,25.586562,85.043586,PM2.5,65,153,94
India,Bihar,Patna,"DRM Office Danapur, Patna - BSPCB",03-04-2024 08:00:00,25.586562,85.043586,NO2,12,60,33
India,Bihar,Patna,"Govt. High School Shikarpur, Patna - BSPCB",03-04-2024 08:00:00,25.592539,85.227158,OZONE,1,59,3
India,Bihar,Patna,"IGSC Planetarium Complex, Patna - BSPCB",03-04-2024 08:00:00,25.610369,85.132568,OZONE,24,38,32
India,Bihar,Patna,"Rajbansi Nagar, Patna - BSPCB",03-04-2024 08:00:00,25.599486,85.113666,PM10,139,186,154
India,Bihar,Patna,"Samanpura, Patna - BSPCB",03-04-2024 08:00:00,25.596727,85.085624,OZONE,29,59,32
India,Bihar,Purnia,"Mariam Nagar, Purnia - BSPCB",03-04-2024 08:00:00,25.366336,87.117468,CO,8,66,52
India,Bihar,Rajgir,"Dangi Tola, Rajgir - BSPCB",03-04-2024 08:00:00,25.03280,85.41948,CO,10,11,10
India,Bihar,Saharsa,"Police Line, Saharsa - BSPCB",03-04-2024 08:00:00,25.892357,86.590325,NO2,6,8,7
India,Bihar,Samastipur,"DM Office_Kasipur, Samastipur - BSPCB",03-04-2024 08:00:00,25.859655,85.77944,CO,4,110,44
India,Bihar,Siwan,"Chitragupta Nagar, Siwan - BSPCB",03-04-2024 08:00:00,26.2271665,84.3570427,SO2,22,35,32
India,Chandigarh,Chandigarh,"Sector 22, Chandigarh - CPCC",03-04-2024 08:00:00,30.735567,76.775714,PM2.5,32,157,79
India,Chandigarh,Chandigarh,"Sector-25, Chandigarh - CPCC",03-04-2024 08:00:00,30.751462,76.762879,PM2.5,94,142,114
India,Chandigarh,Chandigarh,"Sector-25, Chandigarh - CPCC",03-04-2024 08:00:00,30.751462,76.762879,CO,10,30,25
India,Chandigarh,Chandigarh,"Sector-53, Chandigarh - CPCC",03-04-2024 08:00:00,30.719859,76.738637,NH3,5,7,6
India,Chandigarh,Chandigarh,"Sector-53, Chandigarh - CPCC",03-04-2024 08:00:00,30.719859,76.738637,SO2,7,30,15
India,Chandigarh,Chandigarh,"Sector-53, Chandigarh - CPCC",03-04-2024 08:00:00,30.719859,76.738637,CO,38,84,59
India,Chhattisgarh,Chhal,"Nawapara SECL Colony, Chhal - CECB",03-04-2024 08:00:00,22.118125,83.140608,NH3,2,2,2
India,Chhattisgarh,Chhal,"Nawapara SECL Colony, Chhal - CECB",03-04-2024 08:00:00,22.118125,83.140608,SO2,6,15,12
India,Chhattisgarh,Korba,"Rampur, Korba - CECB",03-04-2024 08:00:00,22.368195,82.746431,OZONE,2,33,2
India,Chhattisgarh,Milupara,"Govt. Higher Secondary School, Milupara - CECB",03-04-2024 08:00:00,22.1910172,83.5197009,PM10,72,171,106
India,Chhattisgarh,Milupara,"Govt. Higher Secondary School, Milupara - CECB",03-04-2024 08:00:00,22.1910172,83.5197009,CO,26,96,65
India,Chhattisgarh,Raipur,"AIIMS, Raipur - CECB",03-04-2024 08:00:00,21.258815,81.578979,PM2.5,NA,NA,NA
India,Chhattisgarh,Raipur,"Krishak Nagar, Raipur - CECB",03-04-2024 08:00:00,21.237755,81.705301,PM2.5,2,85,54
India,Chhattisgarh,Raipur,"Krishak Nagar, Raipur - CECB",03-04-2024 08:00:00,21.237755,81.705301,PM10,46,124,87
India,Chhattisgarh,Raipur,"Krishak Nagar, Raipur - CECB",03-04-2024 08:00:00,21.237755,81.705301,OZONE,2,56,3
India,Chhattisgarh,Raipur,"Siltara Phase-II, Raipur - CECB",03-04-2024 08:00:00,21.371751,81.664929,PM2.5,47,251,138
India,Chhattisgarh,Raipur,"Siltara Phase-II, Raipur - CECB",03-04-2024 08:00:00,21.371751,81.664929,PM10,53,197,135
India,Chhattisgarh,Tumidih,"OP Jindal Industrial Park, Tumidih - CECB",03-04-2024 08:00:00,22.06631475,83.33820077,SO2,6,29,8
India,Delhi,Delhi,"Alipur, Delhi - DPCC",03-04-2024 08:00:00,28.815329,77.153010,NH3,4,7,5
India,Delhi,Delhi,"Alipur, Delhi - DPCC",03-04-2024 08:00:00,28.815329,77.153010,CO,31,68,57
India,Delhi,Delhi,"Anand Vihar, Delhi - DPCC",03-04-2024 08:00:00,28.647622,77.3158090,PM2.5,32,329,163
India,Delhi,Delhi,"Ashok Vihar, Delhi - DPCC",03-04-2024 08:00:00,28.695381,77.181665,NO2,12,98,41
India,Delhi,Delhi,"Ashok Vihar, Delhi - DPCC",03-04-2024 08:00:00,28.695381,77.181665,SO2,22,54,36
India,Delhi,Delhi,"Ashok Vihar, Delhi - DPCC",03-04-2024 08:00:00,28.695381,77.181665,OZONE,2,20,5
India,Delhi,Delhi,"Aya Nagar, Delhi - IMD",03-04-2024 08:00:00,28.4706914,77.1099364,OZONE,4,27,5
India,Delhi,Delhi,"Bawana, Delhi - DPCC",03-04-2024 08:00:00,28.776200,77.051074,SO2,10,47,20
India,Delhi,Delhi,"Burari Crossing, Delhi - IMD",03-04-2024 08:00:00,28.7256504,77.2011573,PM2.5,54,330,124
India,Delhi,Delhi,"Burari Crossing, Delhi - IMD",03-04-2024 08:00:00,28.7256504,77.2011573,PM10,111,301,154
India,Delhi,Delhi,"CRRI Mathura Road, Delhi - IMD",03-04-2024 08:00:00,28.5512005,77.2735737,NO2,NA,NA,NA
India,Delhi,Delhi,"CRRI Mathura Road, Delhi - IMD",03-04-2024 08:00:00,28.5512005,77.2735737,CO,NA,NA,NA
India,Delhi,Delhi,"CRRI Mathura Road, Delhi - IMD",03-04-2024 08:00:00,28.5512005,77.2735737,OZONE,NA,NA,NA
India,Delhi,Delhi,"Chandni Chowk, Delhi - IITM",03-04-2024 08:00:00,28.656756,77.227234,SO2,19,58,40
India,Delhi,Delhi,"DTU, Delhi - CPCB",03-04-2024 08:00:00,28.7500499,77.1112615,NH3,NA,NA,NA
India,Delhi,Delhi,"DTU, Delhi - CPCB",03-04-2024 08:00:00,28.7500499,77.1112615,SO2,NA,NA,NA
India,Delhi,Delhi,"DTU, Delhi - CPCB",03-04-2024 08:00:00,28.7500499,77.1112615,CO,NA,NA,NA
India,Delhi,Delhi,"Dr. Karni Singh Shooting Range, Delhi - DPCC",03-04-2024 08:00:00,28.498571,77.264840,SO2,18,49,28
India,Delhi,Delhi,"Dwarka-Sector 8, Delhi - DPCC ",03-04-2024 08:00:00,28.5710274,77.0719006,NO2,12,76,40
India,Delhi,Delhi,"Dwarka-Sector 8, Delhi - DPCC ",03-04-2024 08:00:00,28.5710274,77.0719006,SO2,7,85,18
India,Delhi,Delhi,"IHBAS, Dilshad Garden, Delhi - CPCB",03-04-2024 08:00:00,28.6811736,77.3025234,OZONE,6,59,10
India,Delhi,Delhi,"Jahangirpuri, Delhi - DPCC",03-04-2024 08:00:00,28.732820,77.170633,PM10,135,407,202
India,Delhi,Delhi,"Jahangirpuri, Delhi - DPCC",03-04-2024 08:00:00,28.732820,77.170633,CO,34,109,73
India,Delhi,Delhi,"Lodhi Road, Delhi - IITM",03-04-2024 08:00:00,28.588333,77.221667,NO2,68,116,89
India,Delhi,Delhi,"Major Dhyan Chand National Stadium, Delhi - DPCC",03-04-2024 08:00:00,28.611281,77.237738,NO2,26,128,73
India,Delhi,Delhi,"Major Dhyan Chand National Stadium, Delhi - DPCC",03-04-2024 08:00:00,28.611281,77.237738,OZONE,2,134,15
India,Delhi,Delhi,"Mandir Marg, Delhi - DPCC",03-04-2024 08:00:00,28.636429,77.201067,PM2.5,17,155,68
India,Delhi,Delhi,"Mandir Marg, Delhi - DPCC",03-04-2024 08:00:00,28.636429,77.201067,NO2,115,128,121
India,Delhi,Delhi,"Mandir Marg, Delhi - DPCC",03-04-2024 08:00:00,28.636429,77.201067,OZONE,9,30,11
India,Delhi,Delhi,"NSIT Dwarka, Delhi - CPCB",03-04-2024 08:00:00,28.60909,77.0325413,PM2.5,84,325,183
India,Delhi,Delhi,"Najafgarh, Delhi - DPCC",03-04-2024 08:00:00,28.570173,76.933762,PM10,70,232,122
India,Delhi,Delhi,"Najafgarh, Delhi - DPCC",03-04-2024 08:00:00,28.570173,76.933762,NH3,1,10,5
India,Delhi,Delhi,"Narela, Delhi - DPCC",03-04-2024 08:00:00,28.822836,77.101981,NO2,11,101,51
India,Delhi,Delhi,"Narela, Delhi - DPCC",03-04-2024 08:00:00,28.822836,77.101981,SO2,12,69,25
India,Delhi,Delhi,"Narela, Delhi - DPCC",03-04-2024 08:00:00,28.822836,77.101981,CO,43,84,66
India,Delhi,Delhi,"Narela, Delhi - DPCC",03-04-2024 08:00:00,28.822836,77.101981,OZONE,7,130,21
India,Delhi,Delhi,"New Moti Bagh, Delhi - MHUA",03-04-2024 08:00:00,28.57834,77.18400,CO,8,54,44
India,Delhi,Delhi,"North Campus, DU, Delhi - IMD",03-04-2024 08:00:00,28.6573814,77.1585447,PM10,NA,NA,NA
India,Delhi,Delhi,"Okhla Phase-2, Delhi - DPCC",03-04-2024 08:00:00,28.530785,77.271255,PM10,111,370,164
India,Delhi,Delhi,"Okhla Phase-2, Delhi - DPCC",03-04-2024 08:00:00,28.530785,77.271255,OZONE,9,82,16
India,Delhi,Delhi,"Punjabi Bagh, Delhi - DPCC",03-04-2024 08:00:00,28.674045,77.131023,NH3,3,6,5
India,Delhi,Delhi,"Pusa, Delhi - DPCC",03-04-2024 08:00:00,28.639652,77.146275,PM10,101,223,146
India,Delhi,Delhi,"Pusa, Delhi - DPCC",03-04-2024 08:00:00,28.639652,77.146275,NO2,55,157,99
India,Delhi,Delhi,"Pusa, Delhi - DPCC",03-04-2024 08:00:00,28.639652,77.146275,CO,18,102,37
India,Delhi,Delhi,"Pusa, Delhi - IMD",03-04-2024 08:00:00,28.636110,77.173332,NO2,10,18,13
India,Delhi,Delhi,"Pusa, Delhi - IMD",03-04-2024 08:00:00,28.636110,77.173332,OZONE,6,43,13
India,Delhi,Delhi,"R K Puram, Delhi - DPCC",03-04-2024 08:00:00,28.563262,77.186937,NO2,44,130,85
India,Delhi,Delhi,"R K Puram, Delhi - DPCC",03-04-2024 08:00:00,28.563262,77.186937,SO2,12,57,26
India,Delhi,Delhi,"R K Puram, Delhi - DPCC",03-04-2024 08:00:00,28.563262,77.186937,OZONE,7,153,9
India,Delhi,Delhi,"Rohini, Delhi - DPCC",03-04-2024 08:00:00,28.732528,77.119920,PM10,84,268,157
India,Delhi,Delhi,"Rohini, Delhi - DPCC",03-04-2024 08:00:00,28.732528,77.119920,NO2,3,108,45
India,Delhi,Delhi,"Rohini, Delhi - DPCC",03-04-2024 08:00:00,28.732528,77.119920,CO,16,97,58
India,Delhi,Delhi,"Rohini, Delhi - DPCC",03-04-2024 08:00:00,28.732528,77.119920,OZONE,4,87,14
India,Delhi,Delhi,"Shadipur, Delhi - CPCB",03-04-2024 08:00:00,28.6514781,77.1473105,NH3,2,11,6
India,Delhi,Delhi,"Sirifort, Delhi - CPCB",03-04-2024 08:00:00,28.5504249,77.2159377,NH3,2,13,9
India,Delhi,Delhi,"Sirifort, Delhi - CPCB",03-04-2024 08:00:00,28.5504249,77.2159377,CO,3,102,41
India,Delhi,Delhi,"Sonia Vihar, Delhi - DPCC",03-04-2024 08:00:00,28.710508,77.249485,NH3,4,6,5
India,Delhi,Delhi,"Sri Aurobindo Marg, Delhi - DPCC",03-04-2024 08:00:00,28.531346,77.190156,PM2.5,32,357,88
India,Delhi,Delhi,"Sri Aurobindo Marg, Delhi - DPCC",03-04-2024 08:00:00,28.531346,77.190156,SO2,9,86,19
India,Delhi,Delhi,"Vivek Vihar, Delhi - DPCC",03-04-2024 08:00:00,28.672342,77.315260,PM10,121,254,161
India,Delhi,Delhi,"Vivek Vihar, Delhi - DPCC",03-04-2024 08:00:00,28.672342,77.315260,NO2,26,107,56
India,Delhi,Delhi,"Vivek Vihar, Delhi - DPCC",03-04-2024 08:00:00,28.672342,77.315260,OZONE,4,83,17
India,Delhi,Delhi,"Wazirpur, Delhi - DPCC",03-04-2024 08:00:00,28.699793,77.165453,PM2.5,31,315,143
India,Gujarat,Ahmedabad,"Chandkheda, Ahmedabad - IITM",03-04-2024 08:00:00,23.107969,72.574648,PM2.5,61,181,98
India,Gujarat,Ahmedabad,"Chandkheda, Ahmedabad - IITM",03-04-2024 08:00:00,23.107969,72.574648,OZONE,4,47,8
India,Gujarat,Ahmedabad,"Gyaspur, Ahmedabad - IITM",03-04-2024 08:00:00,22.977134,72.553024,SO2,3,5,4
India,Gujarat,Ahmedabad,"Maninagar, Ahmedabad - GPCB",03-04-2024 08:00:00,23.002657,72.591912,SO2,21,86,49
India,Gujarat,Ahmedabad,"Raikhad, Ahmedabad - IITM",03-04-2024 08:00:00,23.020509,72.579261,NH3,NA,NA,NA
India,Gujarat,Ahmedabad,"Raikhad, Ahmedabad - IITM",03-04-2024 08:00:00,23.020509,72.579261,CO,24,104,59
India,Gujarat,Ankleshwar,"GIDC, Ankleshwar - GPCB",03-04-2024 08:00:00,21.613267,73.010555,PM10,107,153,123
India,Gujarat,Gandhinagar,"Sector-10, Gandhinagar - GPCB",03-04-2024 08:00:00,23.221714,72.654328,PM2.5,26,61,46
India,Gujarat,Gandhinagar,"Sector-10, Gandhinagar - GPCB",03-04-2024 08:00:00,23.221714,72.654328,PM10,47,103,71
India,Gujarat,Gandhinagar,"Sector-10, Gandhinagar - GPCB",03-04-2024 08:00:00,23.221714,72.654328,CO,31,84,55
India,Gujarat,Surat,"Science Center, Surat - SMC",03-04-2024 08:00:00,21.170046,72.795405,SO2,2,10,5
India,Gujarat,Surat,"Science Center, Surat - SMC",03-04-2024 08:00:00,21.170046,72.795405,CO,28,74,37
India,Gujarat,Vapi,"Phase-1 GIDC, Vapi - GPCB",03-04-2024 08:00:00,20.362421,72.918013,PM10,83,163,115
India,Gujarat,Vapi,"Phase-1 GIDC, Vapi - GPCB",03-04-2024 08:00:00,20.362421,72.918013,SO2,51,52,52
India,Gujarat,Vatva,"Phase-4 GIDC, Vatva - GPCB",03-04-2024 08:00:00,22.969611,72.643500,NO2,NA,NA,NA
India,Gujarat,Vatva,"Phase-4 GIDC, Vatva - GPCB",03-04-2024 08:00:00,22.969611,72.643500,NH3,NA,NA,NA
India,Gujarat,Vatva,"Phase-4 GIDC, Vatva - GPCB",03-04-2024 08:00:00,22.969611,72.643500,CO,NA,NA,NA
India,Haryana,Bhiwani,"H.B. Colony, Bhiwani - HSPCB",03-04-2024 08:00:00,28.806223,76.141105,NO2,4,12,9
India,Haryana,Bhiwani,"H.B. Colony, Bhiwani - HSPCB",03-04-2024 08:00:00,28.806223,76.141105,SO2,3,89,21
India,Haryana,Charkhi Dadri,"Mini Secretariat, Charkhi Dadri - HSPCB",03-04-2024 08:00:00,28.593883,76.270653,PM2.5,83,261,141
India,Haryana,Charkhi Dadri,"Mini Secretariat, Charkhi Dadri - HSPCB",03-04-2024 08:00:00,28.593883,76.270653,NH3,6,8,7
India,Haryana,Dharuhera,"Municipal Corporation Office, Dharuhera -  HSPCB",03-04-2024 08:00:00,28.206800,76.799700,PM10,90,242,159
India,Haryana,Dharuhera,"Municipal Corporation Office, Dharuhera -  HSPCB",03-04-2024 08:00:00,28.206800,76.799700,NH3,9,26,19
India,Haryana,Faridabad,"Sector 11, Faridabad - HSPCB",03-04-2024 08:00:00,28.376058,77.315741,NO2,31,32,31
India,Haryana,Faridabad,"Sector 11, Faridabad - HSPCB",03-04-2024 08:00:00,28.376058,77.315741,NH3,6,6,6
India,Haryana,Faridabad,"Sector 11, Faridabad - HSPCB",03-04-2024 08:00:00,28.376058,77.315741,CO,26,66,51
India,Haryana,Faridabad,"Sector 30, Faridabad - HSPCB",03-04-2024 08:00:00,28.4417,77.3217,PM2.5,91,99,95
India,Haryana,Faridabad,"Sector 30, Faridabad - HSPCB",03-04-2024 08:00:00,28.4417,77.3217,CO,16,94,59
India,Haryana,Faridabad,"Sector- 16A, Faridabad - HSPCB",03-04-2024 08:00:00,28.4088421,77.3099081,CO,1,44,19
India,Haryana,Faridabad,"Sector- 16A, Faridabad - HSPCB",03-04-2024 08:00:00,28.4088421,77.3099081,OZONE,14,14,14
India,Haryana,Fatehabad,"Huda Sector, Fatehabad - HSPCB",03-04-2024 08:00:00,29.503664,75.467934,CO,5,9,7
India,Haryana,Gurugram,"Sector-51, Gurugram - HSPCB",03-04-2024 08:00:00,28.4227,77.0667,PM2.5,71,411,256
India,Haryana,Gurugram,"Sector-51, Gurugram - HSPCB",03-04-2024 08:00:00,28.4227,77.0667,SO2,1,6,3
India,Haryana,Gurugram,"Sector-51, Gurugram - HSPCB",03-04-2024 08:00:00,28.4227,77.0667,CO,22,76,58
India,Haryana,Gurugram,"Teri Gram, Gurugram - HSPCB",03-04-2024 08:00:00,28.4275,77.1465,OZONE,15,77,71
India,Haryana,Gurugram,"Vikas Sadan, Gurugram - HSPCB",03-04-2024 08:00:00,28.4501238,77.0263051,OZONE,7,69,10
India,Haryana,Hisar,"Urban Estate-II, Hisar - HSPCB",03-04-2024 08:00:00,29.140560,75.744941,NO2,20,26,22
India,Haryana,Hisar,"Urban Estate-II, Hisar - HSPCB",03-04-2024 08:00:00,29.140560,75.744941,SO2,6,95,51
India,Haryana,Jind,"Police Lines, Jind - HSPCB",03-04-2024 08:00:00,29.307814,76.337619,PM2.5,12,69,35
India,Haryana,Jind,"Police Lines, Jind - HSPCB",03-04-2024 08:00:00,29.307814,76.337619,CO,4,106,45
India,Haryana,Kaithal,"Rishi Nagar, Kaithal - HSPCB",03-04-2024 08:00:00,29.8006,76.4155,NH3,8,8,8
India,Haryana,Kurukshetra,"Sector-7, Kurukshetra - HSPCB",03-04-2024 08:00:00,29.966942,76.875879,PM10,46,106,75
India,Haryana,Kurukshetra,"Sector-7, Kurukshetra - HSPCB",03-04-2024 08:00:00,29.966942,76.875879,NH3,5,5,5
India,Haryana,Kurukshetra,"Sector-7, Kurukshetra - HSPCB",03-04-2024 08:00:00,29.966942,76.875879,SO2,1,81,25
India,Haryana,Kurukshetra,"Sector-7, Kurukshetra - HSPCB",03-04-2024 08:00:00,29.966942,76.875879,OZONE,12,91,36
India,Haryana,Mandikhera,"General Hospital, Mandikhera - HSPCB",03-04-2024 08:00:00,27.9002,76.9938,CO,3,30,19
India,Haryana,Manesar,"Sector-2 IMT, Manesar - HSPCB",03-04-2024 08:00:00,28.360699,76.936090,OZONE,1,41,5
India,Haryana,Narnaul,"Shastri Nagar, Narnaul - HSPCB",03-04-2024 08:00:00,28.060249,76.113115,NH3,4,24,11
India,Haryana,Narnaul,"Shastri Nagar, Narnaul - HSPCB",03-04-2024 08:00:00,28.060249,76.113115,OZONE,33,62,50
India,Haryana,Palwal,"Shyam Nagar, Palwal - HSPCB",03-04-2024 08:00:00,28.1485564,77.3320667,NO2,23,24,24
India,Haryana,Panchkula,"Sector-6, Panchkula - HSPCB ",03-04-2024 08:00:00,30.7057778,76.8531805555555,SO2,NA,NA,NA
India,Haryana,Panipat,"Sector-18, Panipat - HSPCB",03-04-2024 08:00:00,29.497973,76.993331,OZONE,29,30,30
India,Haryana,Rohtak,"MD University, Rohtak - HSPCB",03-04-2024 08:00:00,28.52123,76.37138,CO,34,74,48
India,Haryana,Sirsa,"F-Block, Sirsa - HSPCB",03-04-2024 08:00:00,29.536400,75.015800,PM2.5,32,108,50
India,Haryana,Sirsa,"F-Block, Sirsa - HSPCB",03-04-2024 08:00:00,29.536400,75.015800,NO2,10,10,10
India,Haryana,Sirsa,"F-Block, Sirsa - HSPCB",03-04-2024 08:00:00,29.536400,75.015800,OZONE,56,99,62
India,Haryana,Sonipat,"Murthal, Sonipat - HSPCB",03-04-2024 08:00:00,29.027200,77.062100,PM2.5,52,89,69
India,Haryana,Sonipat,"Murthal, Sonipat - HSPCB",03-04-2024 08:00:00,29.027200,77.062100,OZONE,17,36,20
India,Haryana,Yamuna Nagar,"Gobind Pura, Yamuna Nagar - HSPCB",03-04-2024 08:00:00,30.1480566,77.2893471,NO2,11,29,18
India,Himachal Pradesh,Baddi,"HIMUDA Complex Phase-1, Baddi - HPPCB",03-04-2024 08:00:00,30.943887,76.801991,PM2.5,20,335,91
India,Jammu_and_Kashmir,Srinagar,"Rajbagh, Srinagar - JKSPCB",03-04-2024 08:00:00,34.066206,74.819820,PM10,NA,NA,NA
India,Jharkhand,Dhanbad,"Sardar Patel Nagar, Dhanbad - JSPCB",03-04-2024 08:00:00,23.80569,86.44268,SO2,NA,NA,NA
India,Karnataka,Bagalkot,"Vidayagiri, Bagalkot - KSPCB",03-04-2024 08:00:00,16.172806,75.659694,NH3,1,2,1
India,Karnataka,Bengaluru,"BTM Layout, Bengaluru - CPCB",03-04-2024 08:00:00,12.9135218,77.5950804,PM10,NA,NA,NA
India,Karnataka,Bengaluru,"BTM Layout, Bengaluru - CPCB",03-04-2024 08:00:00,12.9135218,77.5950804,CO,NA,NA,NA
India,Karnataka,Bengaluru,"Bapuji Nagar, Bengaluru - KSPCB",03-04-2024 08:00:00,12.951913,77.539784,NO2,8,13,11
India,Karnataka,Bengaluru,"Hombegowda Nagar, Bengaluru - KSPCB",03-04-2024 08:00:00,12.938539,77.590100,OZONE,4,5,4
India,Karnataka,Bengaluru,"Kasturi Nagar, Bengaluru - KSPCB",03-04-2024 08:00:00,13.003872,77.664217,CO,22,25,24
India,Karnataka,Bengaluru,"Kasturi Nagar, Bengaluru - KSPCB",03-04-2024 08:00:00,13.003872,77.664217,OZONE,20,127,37
India,Karnataka,Bengaluru,"RVCE-Mailasandra, Bengaluru - KSPCB",03-04-2024 08:00:00,12.921418,77.502466,NO2,16,17,17
