country,state,city,station,last_update,latitude,longitude,pollutant_id,pollutant_min,pollutant_max,pollutant_avg
India,Andhra_Pradesh,Amaravati,"Secretariat, Amaravati - APPCB",04-05-2024 01:00:00,16.5150833,80.5181667,PM10,28,94,58
India,Andhra_Pradesh,Amaravati,"Secretariat, Amaravati - APPCB",04-05-2024 01:00:00,16.5150833,80.5181667,NO2,3,10,6
India,Andhra_Pradesh,Anantapur,"Gulzarpet, Anantapur - APPCB",04-05-2024 01:00:00,14.675886,77.593027,PM2.5,71,79,74
India,Andhra_Pradesh,Chittoor,"Gangineni Cheruvu, Chittoor - APPCB",04-05-2024 01:00:00,13.204880,79.097889,NH3,NA,NA,NA
India,Andhra_Pradesh,Chittoor,"Gangineni Cheruvu, Chittoor - APPCB",04-05-2024 01:00:00,13.204880,79.097889,CO,18,64,36
India,Andhra_Pradesh,Tirupati,"Tirumala, Tirupati - APPCB",04-05-2024 01:00:00,13.67,79.35,PM10,36,78,59
India,Andhra_Pradesh,Tirupati,"Tirumala, Tirupati - APPCB",04-05-2024 01:00:00,13.67,79.35,NH3,1,2,1
India,Andhra_Pradesh,Tirupati,"Tirumala, Tirupati - APPCB",04-05-2024 01:00:00,13.67,79.35,SO2,1,11,5
India,Andhra_Pradesh,Tirupati,"Vaikuntapuram, Tirupati - APPCB",04-05-2024 01:00:00,13.615387,79.409230,SO2,5,5,5
India,Andhra_Pradesh,Tirupati,"Vaikuntapuram, Tirupati - APPCB",04-05-2024 01:00:00,13.615387,79.409230,CO,10,16,12
India,Andhra_Pradesh,Tirupati,"Vaikuntapuram, Tirupati - APPCB",04-05-2024 01:00:00,13.615387,79.409230,OZONE,2,30,13
India,Andhra_Pradesh,Vijayawada,"Kanuru, Vijayawada - APPCB",04-05-2024 01:00:00,16.486692,80.699436,NO2,14,91,24
India,Andhra_Pradesh,Vijayawada,"Rajiv Gandhi Park, Vijayawada - APPCB",04-05-2024 01:00:00,16.509717,80.612222,NH3,1,5,3
India,Andhra_Pradesh,Vijayawada,"Rajiv Nagar, Vijayawada - APPCB",04-05-2024 01:00:00,16.554731,80.649110,PM10,59,61,59
India,Andhra_Pradesh,Vijayawada,"Rajiv Nagar, Vijayawada - APPCB",04-05-2024 01:00:00,16.554731,80.649110,NH3,2,3,3
India,Andhra_Pradesh,Visakhapatnam,"GVM Corporation, Visakhapatnam - APPCB",04-05-2024 01:00:00,17.72,83.3,NH3,3,5,3
India,Andhra_Pradesh,Visakhapatnam,"GVM Corporation, Visakhapatnam - APPCB",04-05-2024 01:00:00,17.72,83.3,SO2,8,15,13
India,Arunachal_Pradesh,Naharlagun,"Naharlagun, Naharlagun - APSPCB",04-05-2024 01:00:00,27.103358,93.679645,SO2,4,4,4
India,Arunachal_Pradesh,Naharlagun,"Naharlagun, Naharlagun - APSPCB",04-05-2024 01:00:00,27.103358,93.679645,CO,9,20,17
India,Assam,Byrnihat,"Central Academy for SFS, Byrnihat - PCBA",04-05-2024 01:00:00,26.071318,91.87488,CO,38,74,48
India,Assam,Guwahati,"IITG, Guwahati - PCBA",04-05-2024 01:00:00,26.2028636,91.70046436,PM2.5,59,139,90
India,Assam,Guwahati,"IITG, Guwahati - PCBA",04-05-2024 01:00:00,26.2028636,91.70046436,NH3,5,5,5
India,Assam,Guwahati,"LGBI Airport, Guwahati - PCBA",04-05-2024 01:00:00,26.10887,91.589544,PM10,118,500,237
India,Assam,Guwahati,"Pan Bazaar, Guwahati - PCBA",04-05-2024 01:00:00,26.187500,91.744194,OZONE,17,17,17
India,Assam,Guwahati,"Railway Colony, Guwahati - PCBA",04-05-2024 01:00:00,26.181742,91.78063,NO2,3,3,3
India,Assam,Nagaon,"Christianpatty, Nagaon - PCBA",04-05-2024 01:00:00,26.349082,92.68449,PM2.5,63,113,85
India,Assam,Nagaon,"Christianpatty, Nagaon - PCBA",04-05-2024 01:00:00,26.349082,92.68449,PM10,70,106,89
India,Assam,Nagaon,"Christianpatty, Nagaon - PCBA",04-05-2024 01:00:00,26.349082,92.68449,CO,33,68,55
India,Assam,Silchar,"Tarapur, Silchar - PCBA",04-05-2024 01:00:00,24.82827,92.79525,OZONE,1,24,4
India,Assam,Sivasagar,"Girls College, Sivasagar - PCBA",04-05-2024 01:00:00,26.987634,94.636574,NO2,10,20,15
India,Assam,Sivasagar,"Girls College, Sivasagar - PCBA",04-05-2024 01:00:00,26.987634,94.636574,NH3,1,2,2
India,Bihar,Araria,"Kharahiya Basti, Araria - BSPCB",04-05-2024 01:00:00,26.146529,87.454184,PM10,100,262,149
India,Bihar,Araria,"Kharahiya Basti, Araria - BSPCB",04-05-2024 01:00:00,26.146529,87.454184,OZONE,8,10,10
India,Bihar,Arrah,"New DM Office, Arrah - BSPCB",04-05-2024 01:00:00,25.5626095,84.663264,NH3,NA,NA,NA
India,Bihar,Aurangabad,"Gurdeo Nagar, Aurangabad - BSPCB",04-05-2024 01:00:00,24.75746,84.366208,PM10,NA,NA,NA
India,Bihar,Aurangabad,"Gurdeo Nagar, Aurangabad - BSPCB",04-05-2024 01:00:00,24.75746,84.366208,NH3,11,26,19
India,Bihar,Bettiah,"Kamalnath Nagar, Bettiah - BSPCB",04-05-2024 01:00:00,26.80365,84.51954,PM2.5,85,343,227
India,Bihar,Bhagalpur,"DM Office_Kachari Chowk, Bhagalpur - BSPCB",04-05-2024 01:00:00,25.251013,86.989001,NH3,NA,NA,NA
India,Bihar,Bhagalpur,"DM Office_Kachari Chowk, Bhagalpur - BSPCB",04-05-2024 01:00:00,25.251013,86.989001,OZONE,18,48,47
India,Bihar,Bihar Sharif,"D M Colony, Bihar Sharif - BSPCB",04-05-2024 01:00:00,25.204762,85.514960,NO2,9,10,9
India,Bihar,Bihar Sharif,"D M Colony, Bihar Sharif - BSPCB",04-05-2024 01:00:00,25.204762,85.514960,NH3,2,2,2
India,Bihar,Bihar Sharif,"D M Colony, Bihar Sharif - BSPCB",04-05-2024 01:00:00,25.204762,85.514960,OZONE,15,55,41
India,Bihar,Buxar,"Charitra Van, Buxar - BSPCB (Formerly known as Central Jail)",04-05-2024 01:00:00,25.567520,83.966379,SO2,NA,NA,NA
India,Bihar,Chhapra,"Darshan Nagar, Chhapra - BSPCB",04-05-2024 01:00:00,25.7808257,84.7446768,PM2.5,NA,NA,NA
India,Bihar,Chhapra,"Darshan Nagar, Chhapra - BSPCB",04-05-2024 01:00:00,25.7808257,84.7446768,OZONE,NA,NA,NA
India,Bihar,Hajipur,"Industrial Area, Hajipur - BSPCB",04-05-2024 01:00:00,25.697189,85.245900,PM2.5,60,357,155
India,Bihar,Kishanganj,"SDM Office_Khagra, Kishanganj - BSPCB",04-05-2024 01:00:00,26.0881305,87.93840336,PM2.5,82,257,152
India,Bihar,Kishanganj,"SDM Office_Khagra, Kishanganj - BSPCB",04-05-2024 01:00:00,26.0881305,87.93840336,PM10,140,404,220
India,Bihar,Manguraha,"Forest Rest House, Manguraha - BSPCB",04-05-2024 01:00:00,27.308328,84.531742,SO2,NA,NA,NA
India,Bihar,Motihari,"Gandak Colony, Motihari - BSPCB",04-05-2024 01:00:00,26.63086,84.90051,PM10,NA,NA,NA
India,Bihar,Motihari,"Gandak Colony, Motihari - BSPCB",04-05-2024 01:00:00,26.63086,84.90051,SO2,NA,NA,NA
India,Bihar,Munger,"Town Hall, Munger - BSPCB",04-05-2024 01:00:00,25.376776,86.471523,PM10,75,371,137
India,Bihar,Muzaffarpur,"MIT-Daudpur Kothi, Muzaffarpur - BSPCB",04-05-2024 01:00:00,26.1403345,85.3650192,PM2.5,127,377,248
India,Bihar,Muzaffarpur,"Muzaffarpur Collectorate, Muzaffarpur - BSPCB",04-05-2024 01:00:00,26.1209,85.3647,CO,27,74,35
India,Bihar,Patna,"DRM Office Danapur, Patna - BSPCB",04-05-2024 01:00:00,25.586562,85.043586,PM10,110,272,178
India,Bihar,Patna,"Govt. High School Shikarpur, Patna - BSPCB",04-05-2024 01:00:00,25.592539,85.227158,PM2.5,127,344,244
India,Bihar,Patna,"Govt. High School Shikarpur, Patna - BSPCB",04-05-2024 01:00:00,25.592539,85.227158,NH3,4,6,5
India,Bihar,Patna,"IGSC Planetarium Complex, Patna - BSPCB",04-05-2024 01:00:00,25.610369,85.132568,PM2.5,78,407,229
India,Bihar,Patna,"Muradpur, Patna - BSPCB",04-05-2024 01:00:00,25.619651,85.147382,PM2.5,248,392,332
India,Bihar,Patna,"Muradpur, Patna - BSPCB",04-05-2024 01:00:00,25.619651,85.147382,PM10,155,500,277
India,Bihar,Patna,"Rajbansi Nagar, Patna - BSPCB",04-05-2024 01:00:00,25.599486,85.113666,PM2.5,21,328,209
India,Bihar,Patna,"Rajbansi Nagar, Patna - BSPCB",04-05-2024 01:00:00,25.599486,85.113666,NO2,29,109,56
India,Bihar,Patna,"Rajbansi Nagar, Patna - BSPCB",04-05-2024 01:00:00,25.599486,85.113666,CO,23,112,81
India,Bihar,Patna,"Samanpura, Patna - BSPCB",04-05-2024 01:00:00,25.596727,85.085624,PM10,135,499,284
India,Bihar,Rajgir,"Dangi Tola, Rajgir - BSPCB",04-05-2024 01:00:00,25.03280,85.41948,CO,22,64,46
India,Bihar,Saharsa,"Police Line, Saharsa - BSPCB",04-05-2024 01:00:00,25.892357,86.590325,PM10,NA,NA,NA
India,Bihar,Sasaram,"Dada Peer, Sasaram - BSPCB",04-05-2024 01:00:00,24.952822,84.002396,PM10,73,171,101
India,Bihar,Sasaram,"Dada Peer, Sasaram - BSPCB",04-05-2024 01:00:00,24.952822,84.002396,NO2,8,100,46
India,Bihar,Sasaram,"Dada Peer, Sasaram - BSPCB",04-05-2024 01:00:00,24.952822,84.002396,SO2,22,23,23
India,Bihar,Sasaram,"Dada Peer, Sasaram - BSPCB",04-05-2024 01:00:00,24.952822,84.002396,OZONE,20,116,57
India,Bihar,Siwan,"Chitragupta Nagar, Siwan - BSPCB",04-05-2024 01:00:00,26.2271665,84.3570427,CO,38,152,121
India,Chandigarh,Chandigarh,"Sector 22, Chandigarh - CPCC",04-05-2024 01:00:00,30.735567,76.775714,PM10,72,164,109
India,Chandigarh,Chandigarh,"Sector-25, Chandigarh - CPCC",04-05-2024 01:00:00,30.751462,76.762879,NH3,8,16,12
India,Chandigarh,Chandigarh,"Sector-25, Chandigarh - CPCC",04-05-2024 01:00:00,30.751462,76.762879,CO,10,26,17
India,Chhattisgarh,Bhilai,"32Bungalows, Bhilai - CECB",04-05-2024 01:00:00,21.194815,81.314770,PM10,75,157,113
India,Chhattisgarh,Bhilai,"Civic Center, Bhilai - Bhilai Steel Plant",04-05-2024 01:00:00,21.185571,81.343175,CO,34,86,56
India,Chhattisgarh,Bhilai,"Hathkhoj, Bhilai - CECB",04-05-2024 01:00:00,21.224231,81.408350,NO2,10,74,30
India,Chhattisgarh,Bhilai,"Hathkhoj, Bhilai - CECB",04-05-2024 01:00:00,21.224231,81.408350,SO2,28,114,55
India,Chhattisgarh,Chhal,"Nawapara SECL Colony, Chhal - CECB",04-05-2024 01:00:00,22.118125,83.140608,NH3,2,2,2
India,Chhattisgarh,Korba,"Rampur, Korba - CECB",04-05-2024 01:00:00,22.368195,82.746431,PM2.5,25,75,46
India,Chhattisgarh,Korba,"Rampur, Korba - CECB",04-05-2024 01:00:00,22.368195,82.746431,OZONE,16,54,30
India,Chhattisgarh,Kunjemura,"OP Jindal School, Kunjemura - CECB",04-05-2024 01:00:00,22.126650,83.483212,CO,16,92,43
India,Chhattisgarh,Raipur,"AIIMS, Raipur - CECB",04-05-2024 01:00:00,21.258815,81.578979,NO2,25,80,42
India,Chhattisgarh,Raipur,"AIIMS, Raipur - CECB",04-05-2024 01:00:00,21.258815,81.578979,NH3,6,6,6
India,Chhattisgarh,Raipur,"Bhatagaon New ISBT, Raipur - CECB",04-05-2024 01:00:00,21.219665,81.630094,PM10,43,161,92
India,Chhattisgarh,Raipur,"Bhatagaon New ISBT, Raipur - CECB",04-05-2024 01:00:00,21.219665,81.630094,SO2,2,4,3
India,Chhattisgarh,Raipur,"Krishak Nagar, Raipur - CECB",04-05-2024 01:00:00,21.237755,81.705301,CO,24,50,37
India,Chhattisgarh,Raipur,"Siltara Phase-II, Raipur - CECB",04-05-2024 01:00:00,21.371751,81.664929,NO2,35,74,50
India,Chhattisgarh,Raipur,"Siltara Phase-II, Raipur - CECB",04-05-2024 01:00:00,21.371751,81.664929,NH3,3,3,3
India,Delhi,Delhi,"Alipur, Delhi - DPCC",04-05-2024 01:00:00,28.815329,77.153010,OZONE,16,163,77
India,Delhi,Delhi,"Anand Vihar, Delhi - DPCC",04-05-2024 01:00:00,28.647622,77.3158090,NO2,76,149,108
India,Delhi,Delhi,"Anand Vihar, Delhi - DPCC",04-05-2024 01:00:00,28.647622,77.3158090,OZONE,6,115,37
India,Delhi,Delhi,"Ashok Vihar, Delhi - DPCC",04-05-2024 01:00:00,28.695381,77.181665,NH3,8,19,13
India,Delhi,Delhi,"Ashok Vihar, Delhi - DPCC",04-05-2024 01:00:00,28.695381,77.181665,CO,28,93,66
India,Delhi,Delhi,"Ashok Vihar, Delhi - DPCC",04-05-2024 01:00:00,28.695381,77.181665,OZONE,3,139,53
India,Delhi,Delhi,"Aya Nagar, Delhi - IMD",04-05-2024 01:00:00,28.4706914,77.1099364,OZONE,18,74,54
India,Delhi,Delhi,"Bawana, Delhi - DPCC",04-05-2024 01:00:00,28.776200,77.051074,PM2.5,140,456,315
India,Delhi,Delhi,"CRRI Mathura Road, Delhi - IMD",04-05-2024 01:00:00,28.5512005,77.2735737,NO2,10,20,15
India,Delhi,Delhi,"CRRI Mathura Road, Delhi - IMD",04-05-2024 01:00:00,28.5512005,77.2735737,OZONE,3,69,11
India,Delhi,Delhi,"Chandni Chowk, Delhi - IITM",04-05-2024 01:00:00,28.656756,77.227234,OZONE,8,15,11
India,Delhi,Delhi,"DTU, Delhi - CPCB",04-05-2024 01:00:00,28.7500499,77.1112615,SO2,36,56,41
India,Delhi,Delhi,"Dr. Karni Singh Shooting Range, Delhi - DPCC",04-05-2024 01:00:00,28.498571,77.264840,PM2.5,87,404,237
India,Delhi,Delhi,"Dr. Karni Singh Shooting Range, Delhi - DPCC",04-05-2024 01:00:00,28.498571,77.264840,NH3,4,7,6
India,Delhi,Delhi,"Dr. Karni Singh Shooting Range, Delhi - DPCC",04-05-2024 01:00:00,28.498571,77.264840,CO,28,108,86
India,Delhi,Delhi,"Dwarka-Sector 8, Delhi - DPCC ",04-05-2024 01:00:00,28.5710274,77.0719006,PM2.5,80,490,272
India,Delhi,Delhi,"Dwarka-Sector 8, Delhi - DPCC ",04-05-2024 01:00:00,28.5710274,77.0719006,PM10,160,495,317
India,Delhi,Delhi,"IGI Airport (T3), Delhi - IMD",04-05-2024 01:00:00,28.5627763,77.1180053,PM10,127,489,269
India,Delhi,Delhi,"IHBAS, Dilshad Garden, Delhi - CPCB",04-05-2024 01:00:00,28.6811736,77.3025234,NH3,9,11,10
India,Delhi,Delhi,"IHBAS, Dilshad Garden, Delhi - CPCB",04-05-2024 01:00:00,28.6811736,77.3025234,SO2,6,18,11
India,Delhi,Delhi,"Jahangirpuri, Delhi - DPCC",04-05-2024 01:00:00,28.732820,77.170633,OZONE,6,93,29
India,Delhi,Delhi,"Jawaharlal Nehru Stadium, Delhi - DPCC",04-05-2024 01:00:00,28.580280,77.233829,OZONE,2,274,53
India,Delhi,Delhi,"Lodhi Road, Delhi - IITM",04-05-2024 01:00:00,28.588333,77.221667,NH3,8,12,10
India,Delhi,Delhi,"Lodhi Road, Delhi - IITM",04-05-2024 01:00:00,28.588333,77.221667,CO,58,68,62
India,Delhi,Delhi,"Lodhi Road, Delhi - IMD",04-05-2024 01:00:00,28.5918245,77.2273074,PM10,118,325,168
India,Delhi,Delhi,"Major Dhyan Chand National Stadium, Delhi - DPCC",04-05-2024 01:00:00,28.611281,77.237738,SO2,21,124,39
India,Delhi,Delhi,"Mundka, Delhi - DPCC",04-05-2024 01:00:00,28.684678,77.076574,SO2,16,123,57
India,Delhi,Delhi,"NSIT Dwarka, Delhi - CPCB",04-05-2024 01:00:00,28.60909,77.0325413,NH3,11,18,14
India,Delhi,Delhi,"NSIT Dwarka, Delhi - CPCB",04-05-2024 01:00:00,28.60909,77.0325413,SO2,3,56,24
India,Delhi,Delhi,"Najafgarh, Delhi - DPCC",04-05-2024 01:00:00,28.570173,76.933762,NO2,25,145,76
India,Delhi,Delhi,"Najafgarh, Delhi - DPCC",04-05-2024 01:00:00,28.570173,76.933762,CO,16,84,51
India,Delhi,Delhi,"Narela, Delhi - DPCC",04-05-2024 01:00:00,28.822836,77.101981,OZONE,24,171,74
India,Delhi,Delhi,"Nehru Nagar, Delhi - DPCC",04-05-2024 01:00:00,28.567890,77.250515,OZONE,2,198,40
India,Delhi,Delhi,"New Moti Bagh, Delhi - MHUA",04-05-2024 01:00:00,28.57834,77.18400,PM2.5,68,396,242
India,Delhi,Delhi,"New Moti Bagh, Delhi - MHUA",04-05-2024 01:00:00,28.57834,77.18400,NO2,6,46,18
India,Delhi,Delhi,"Okhla Phase-2, Delhi - DPCC",04-05-2024 01:00:00,28.530785,77.271255,PM10,158,423,268
India,Delhi,Delhi,"Patparganj, Delhi - DPCC",04-05-2024 01:00:00,28.623763,77.287209,PM2.5,65,333,228
India,Delhi,Delhi,"Patparganj, Delhi - DPCC",04-05-2024 01:00:00,28.623763,77.287209,NH3,5,9,7
India,Delhi,Delhi,"Patparganj, Delhi - DPCC",04-05-2024 01:00:00,28.623763,77.287209,CO,42,105,87
India,Delhi,Delhi,"Punjabi Bagh, Delhi - DPCC",04-05-2024 01:00:00,28.674045,77.131023,NO2,45,92,69
India,Delhi,Delhi,"Punjabi Bagh, Delhi - DPCC",04-05-2024 01:00:00,28.674045,77.131023,NH3,4,5,4
India,Delhi,Delhi,"Punjabi Bagh, Delhi - DPCC",04-05-2024 01:00:00,28.674045,77.131023,CO,29,72,54
India,Delhi,Delhi,"Pusa, Delhi - DPCC",04-05-2024 01:00:00,28.639652,77.146275,NO2,77,176,118
India,Delhi,Delhi,"Pusa, Delhi - IMD",04-05-2024 01:00:00,28.636110,77.173332,CO,33,74,42
India,Delhi,Delhi,"R K Puram, Delhi - DPCC",04-05-2024 01:00:00,28.563262,77.186937,CO,15,112,88
India,Delhi,Delhi,"Shadipur, Delhi - CPCB",04-05-2024 01:00:00,28.6514781,77.1473105,NH3,9,10,10
India,Delhi,Delhi,"Sonia Vihar, Delhi - DPCC",04-05-2024 01:00:00,28.710508,77.249485,OZONE,7,151,70
India,Delhi,Delhi,"Sri Aurobindo Marg, Delhi - DPCC",04-05-2024 01:00:00,28.531346,77.190156,SO2,17,65,27
India,Delhi,Delhi,"Vivek Vihar, Delhi - DPCC",04-05-2024 01:00:00,28.672342,77.315260,PM2.5,73,369,244
India,Delhi,Delhi,"Vivek Vihar, Delhi - DPCC",04-05-2024 01:00:00,28.672342,77.315260,NO2,27,105,61
India,Delhi,Delhi,"Vivek Vihar, Delhi - DPCC",04-05-2024 01:00:00,28.672342,77.315260,NH3,16,16,16
India,Delhi,Delhi,"Wazirpur, Delhi - DPCC",04-05-2024 01:00:00,28.699793,77.165453,OZONE,8,201,40
India,Gujarat,Ahmedabad,"Gyaspur, Ahmedabad - IITM",04-05-2024 01:00:00,22.977134,72.553024,PM10,73,397,143
India,Gujarat,Ahmedabad,"Gyaspur, Ahmedabad - IITM",04-05-2024 01:00:00,22.977134,72.553024,NH3,3,21,12
India,Gujarat,Ahmedabad,"Gyaspur, Ahmedabad - IITM",04-05-2024 01:00:00,22.977134,72.553024,CO,16,72,47
India,Gujarat,Ahmedabad,"Raikhad, Ahmedabad - IITM",04-05-2024 01:00:00,23.020509,72.579261,PM10,88,171,131
India,Gujarat,Ahmedabad,"Raikhad, Ahmedabad - IITM",04-05-2024 01:00:00,23.020509,72.579261,CO,18,118,65
India,Gujarat,Ahmedabad,"Rakhial, Ahmedabad - IITM",04-05-2024 01:00:00,23.016834,72.625775,PM2.5,74,368,182
India,Gujarat,Ahmedabad,"Rakhial, Ahmedabad - IITM",04-05-2024 01:00:00,23.016834,72.625775,PM10,95,379,162
India,Gujarat,Ahmedabad,"SAC ISRO Satellite, Ahmedabad - IITM",04-05-2024 01:00:00,23.023389,72.515201,PM2.5,83,84,84
India,Gujarat,Ahmedabad,"SAC ISRO Satellite, Ahmedabad - IITM",04-05-2024 01:00:00,23.023389,72.515201,NO2,32,33,32
India,Gujarat,Ahmedabad,"SVPI Airport Hansol, Ahmedabad - IITM",04-05-2024 01:00:00,23.076793,72.627874,PM10,85,281,137
India,Gujarat,Ahmedabad,"Sardar Vallabhbhai Patel Stadium, Ahmedabad - IITM",04-05-2024 01:00:00,23.043070,72.562968,PM10,100,335,132
India,Gujarat,Ahmedabad,"Sardar Vallabhbhai Patel Stadium, Ahmedabad - IITM",04-05-2024 01:00:00,23.043070,72.562968,SO2,4,10,7
India,Gujarat,Ankleshwar,"GIDC, Ankleshwar - GPCB",04-05-2024 01:00:00,21.613267,73.010555,NH3,6,6,6
India,Gujarat,Gandhinagar,"Sector-10, Gandhinagar - GPCB",04-05-2024 01:00:00,23.221714,72.654328,PM10,37,282,81
India,Gujarat,Gandhinagar,"Sector-10, Gandhinagar - GPCB",04-05-2024 01:00:00,23.221714,72.654328,SO2,6,11,7
India,Gujarat,Gandhinagar,"Sector-10, Gandhinagar - GPCB",04-05-2024 01:00:00,23.221714,72.654328,CO,37,102,70
India,Gujarat,Nandesari,"GIDC, Nandesari - Nandesari Ind. Association",04-05-2024 01:00:00,22.410802,73.097923,PM10,84,426,188
India,Gujarat,Vapi,"Phase-1 GIDC, Vapi - GPCB",04-05-2024 01:00:00,20.362421,72.918013,NO2,6,7,6
India,Gujarat,Vapi,"Phase-1 GIDC, Vapi - GPCB",04-05-2024 01:00:00,20.362421,72.918013,OZONE,1,4,1
India,Gujarat,Vatva,"Phase-4 GIDC, Vatva - GPCB",04-05-2024 01:00:00,22.969611,72.643500,OZONE,10,51,22
India,Haryana,Ambala,"Patti Mehar, Ambala - HSPCB",04-05-2024 01:00:00,30.379589,76.778328,OZONE,34,50,40
India,Haryana,Bahadurgarh,"Arya Nagar, Bahadurgarh - HSPCB",04-05-2024 01:00:00,28.6701,76.9254,PM2.5,61,397,231
India,Haryana,Ballabgarh,"Nathu Colony, Ballabgarh - HSPCB",04-05-2024 01:00:00,28.3419248,77.319699,PM2.5,20,418,308
India,Haryana,Ballabgarh,"Nathu Colony, Ballabgarh - HSPCB",04-05-2024 01:00:00,28.3419248,77.319699,PM10,27,424,257
India,Haryana,Ballabgarh,"Nathu Colony, Ballabgarh - HSPCB",04-05-2024 01:00:00,28.3419248,77.319699,SO2,1,93,36
India,Haryana,Charkhi Dadri,"Mini Secretariat, Charkhi Dadri - HSPCB",04-05-2024 01:00:00,28.593883,76.270653,PM2.5,75,330,209
India,Haryana,Charkhi Dadri,"Mini Secretariat, Charkhi Dadri - HSPCB",04-05-2024 01:00:00,28.593883,76.270653,PM10,75,214,141
India,Haryana,Charkhi Dadri,"Mini Secretariat, Charkhi Dadri - HSPCB",04-05-2024 01:00:00,28.593883,76.270653,NO2,14,23,18
India,Haryana,Charkhi Dadri,"Mini Secretariat, Charkhi Dadri - HSPCB",04-05-2024 01:00:00,28.593883,76.270653,NH3,6,8,7
India,Haryana,Charkhi Dadri,"Mini Secretariat, Charkhi Dadri - HSPCB",04-05-2024 01:00:00,28.593883,76.270653,CO,28,106,85
India,Haryana,Dharuhera,"Municipal Corporation Office, Dharuhera -  HSPCB",04-05-2024 01:00:00,28.206800,76.799700,CO,9,60,38
India,Haryana,Faridabad,"New Industrial Town, Faridabad - HSPCB",04-05-2024 01:00:00,28.39072,77.30059,NH3,3,4,3
India,Haryana,Faridabad,"Sector 11, Faridabad - HSPCB",04-05-2024 01:00:00,28.376058,77.315741,NH3,6,6,6
India,Haryana,Faridabad,"Sector 11, Faridabad - HSPCB",04-05-2024 01:00:00,28.376058,77.315741,CO,10,59,50
India,Haryana,Faridabad,"Sector- 16A, Faridabad - HSPCB",04-05-2024 01:00:00,28.4088421,77.3099081,PM2.5,77,378,213
India,Haryana,Faridabad,"Sector- 16A, Faridabad - HSPCB",04-05-2024 01:00:00,28.4088421,77.3099081,NO2,2,48,10
India,Haryana,Gurugram,"Vikas Sadan, Gurugram - HSPCB",04-05-2024 01:00:00,28.4501238,77.0263051,PM2.5,306,500,367
India,Haryana,Gurugram,"Vikas Sadan, Gurugram - HSPCB",04-05-2024 01:00:00,28.4501238,77.0263051,SO2,9,70,40
India,Haryana,Hisar,"Urban Estate-II, Hisar - HSPCB",04-05-2024 01:00:00,29.140560,75.744941,SO2,NA,NA,NA
India,Haryana,Jind,"Police Lines, Jind - HSPCB",04-05-2024 01:00:00,29.307814,76.337619,PM2.5,58,223,131
India,Haryana,Jind,"Police Lines, Jind - HSPCB",04-05-2024 01:00:00,29.307814,76.337619,NH3,1,6,4
India,Haryana,Jind,"Police Lines, Jind - HSPCB",04-05-2024 01:00:00,29.307814,76.337619,OZONE,8,24,11
India,Haryana,Kaithal,"Rishi Nagar, Kaithal - HSPCB",04-05-2024 01:00:00,29.8006,76.4155,PM10,124,174,147
India,Haryana,Kaithal,"Rishi Nagar, Kaithal - HSPCB",04-05-2024 01:00:00,29.8006,76.4155,NO2,24,26,25
India,Haryana,Kaithal,"Rishi Nagar, Kaithal - HSPCB",04-05-2024 01:00:00,29.8006,76.4155,SO2,33,55,43
India,Haryana,Kaithal,"Rishi Nagar, Kaithal - HSPCB",04-05-2024 01:00:00,29.8006,76.4155,CO,14,60,46
India,Haryana,Karnal,"Sector-12, Karnal - HSPCB",04-05-2024 01:00:00,29.695300,77.002700,OZONE,31,37,32
India,Haryana,Kurukshetra,"Sector-7, Kurukshetra - HSPCB",04-05-2024 01:00:00,29.966942,76.875879,NO2,9,10,10
India,Haryana,Kurukshetra,"Sector-7, Kurukshetra - HSPCB",04-05-2024 01:00:00,29.966942,76.875879,CO,3,30,20
India,Haryana,Mandikhera,"General Hospital, Mandikhera - HSPCB",04-05-2024 01:00:00,27.9002,76.9938,PM2.5,26,75,48
India,Haryana,Narnaul,"Shastri Nagar, Narnaul - HSPCB",04-05-2024 01:00:00,28.060249,76.113115,PM2.5,72,157,101
India,Haryana,Palwal,"Shyam Nagar, Palwal - HSPCB",04-05-2024 01:00:00,28.1485564,77.3320667,NO2,23,25,24
India,Haryana,Palwal,"Shyam Nagar, Palwal - HSPCB",04-05-2024 01:00:00,28.1485564,77.3320667,NH3,8,9,9
India,Haryana,Panchkula,"Sector-6, Panchkula - HSPCB ",04-05-2024 01:00:00,30.7057778,76.8531805555555,PM2.5,NA,NA,NA
India,Haryana,Panipat,"Sector-18, Panipat - HSPCB",04-05-2024 01:00:00,29.497973,76.993331,CO,24,26,24
India,Haryana,Rohtak,"MD University, Rohtak - HSPCB",04-05-2024 01:00:00,28.52123,76.37138,SO2,6,8,7
India,Haryana,Rohtak,"MD University, Rohtak - HSPCB",04-05-2024 01:00:00,28.52123,76.37138,CO,16,110,93
India,Haryana,Sirsa,"F-Block, Sirsa - HSPCB",04-05-2024 01:00:00,29.536400,75.015800,NO2,10,11,10
India,Haryana,Sonipat,"Murthal, Sonipat - HSPCB",04-05-2024 01:00:00,29.027200,77.062100,NH3,7,10,9
India,Haryana,Yamuna Nagar,"Gobind Pura, Yamuna Nagar - HSPCB",04-05-2024 01:00:00,30.1480566,77.2893471,PM2.5,70,132,96
India,Himachal Pradesh,Baddi,"HIMUDA Complex Phase-1, Baddi - HPPCB",04-05-2024 01:00:00,30.943887,76.801991,PM10,78,253,153
India,Jharkhand,Dhanbad,"Kalakusuma, Dhanbad - DMC",04-05-2024 01:00:00,23.811548,86.481238,PM2.5,1,215,50
India,Jharkhand,Dhanbad,"Kalakusuma, Dhanbad - DMC",04-05-2024 01:00:00,23.811548,86.481238,OZONE,26,71,31
India,Jharkhand,Pathardih,"Mohalbani Ghat, Pathardih - DMC",04-05-2024 01:00:00,23.669880,86.411725,NO2,NA,NA,NA
India,Jharkhand,Pathardih,"Mohalbani Ghat, Pathardih - DMC",04-05-2024 01:00:00,23.669880,86.411725,OZONE,27,31,29
India,Karnataka,Bagalkot,"Vidayagiri, Bagalkot - KSPCB",04-05-2024 01:00:00,16.172806,75.659694,PM2.5,20,37,36
India,Karnataka,Bagalkot,"Vidayagiri, Bagalkot - KSPCB",04-05-2024 01:00:00,16.172806,75.659694,CO,14,57,34
India,Karnataka,Belgaum,"Ramteerth Nagar, Belgaum - KSPCB",04-05-2024 01:00:00,15.888653,74.541751,PM10,29,102,64
India,Karnataka,Belgaum,"Ramteerth Nagar, Belgaum - KSPCB",04-05-2024 01:00:00,15.888653,74.541751,CO,34,53,39
India,Karnataka,Belgaum,"Ramteerth Nagar, Belgaum - KSPCB",04-05-2024 01:00:00,15.888653,74.541751,OZONE,19,20,19
India,Karnataka,Bengaluru,"BTM Layout, Bengaluru - CPCB",04-05-2024 01:00:00,12.9135218,77.5950804,PM2.5,32,36,34
India,Karnataka,Bengaluru,"BTM Layout, Bengaluru - CPCB",04-05-2024 01:00:00,12.9135218,77.5950804,SO2,NA,NA,NA
India,Karnataka,Bengaluru,"Bapuji Nagar, Bengaluru - KSPCB",04-05-2024 01:00:00,12.951913,77.539784,NH3,1,1,1
India,Karnataka,Bengaluru,"Bapuji Nagar, Bengaluru - KSPCB",04-05-2024 01:00:00,12.951913,77.539784,SO2,6,9,7
India,Karnataka,Bengaluru,"Hebbal, Bengaluru - KSPCB",04-05-2024 01:00:00,13.029152,77.585901,NO2,NA,NA,NA
India,Karnataka,Bengaluru,"Hombegowda Nagar, Bengaluru - KSPCB",04-05-2024 01:00:00,12.938539,77.590100,PM2.5,32,193,74
India,Karnataka,Bengaluru,"Hombegowda Nagar, Bengaluru - KSPCB",04-05-2024 01:00:00,12.938539,77.590100,CO,22,66,45
India,Karnataka,Bengaluru,"Kasturi Nagar, Bengaluru - KSPCB",04-05-2024 01:00:00,13.003872,77.664217,PM2.5,7,500,112
India,Karnataka,Bengaluru,"Peenya, Bengaluru - CPCB",04-05-2024 01:00:00,13.0270199,77.494094,PM2.5,35,82,56
India,Karnataka,Bengaluru,"Peenya, Bengaluru - CPCB",04-05-2024 01:00:00,13.0270199,77.494094,OZONE,9,31,18
India,Karnataka,Bengaluru,"Sanegurava Halli, Bengaluru - KSPCB",04-05-2024 01:00:00,12.990328,77.5431385,NO2,23,51,29
India,Karnataka,Bengaluru,"Shivapura_Peenya, Bengaluru - KSPCB",04-05-2024 01:00:00,13.0246342,77.5080115,PM2.5,NA,NA,NA
India,Karnataka,Bengaluru,"Shivapura_Peenya, Bengaluru - KSPCB",04-05-2024 01:00:00,13.0246342,77.5080115,CO,23,58,37
India,Karnataka,Bidar,"Naubad, Bidar - KSPCB",04-05-2024 01:00:00,17.930306,77.482194,NH3,2,3,3
India,Karnataka,Chamarajanagar,"Urban, Chamarajanagar - KSPCB",04-05-2024 01:00:00,11.55358,76.55521,PM10,58,59,58
India,Karnataka,Chamarajanagar,"Urban, Chamarajanagar - KSPCB",04-05-2024 01:00:00,11.55358,76.55521,NH3,2,2,2
India,Karnataka,Chamarajanagar,"Urban, Chamarajanagar - KSPCB",04-05-2024 01:00:00,11.55358,76.55521,SO2,6,10,8
India,Karnataka,Chamarajanagar,"Urban, Chamarajanagar - KSPCB",04-05-2024 01:00:00,11.55358,76.55521,OZONE,37,39,38
India,Karnataka,Chikkaballapur,"Chikkaballapur Rural, Chikkaballapur - KSPCB",04-05-2024 01:00:00,13.428828,77.731418,PM2.5,50,83,67
India,Karnataka,Chikkaballapur,"Chikkaballapur Rural, Chikkaballapur - KSPCB",04-05-2024 01:00:00,13.428828,77.731418,OZONE,24,25,25
India,Karnataka,Chikkamagaluru,"Kalyana Nagara, Chikkamagaluru - KSPCB",04-05-2024 01:00:00,13.328028,75.797056,NO2,16,28,20
India,Karnataka,Davanagere,"Devaraj Urs Badavane, Davanagere - KSPCB",04-05-2024 01:00:00,14.475800,75.905200,NO2,11,16,13
India,Karnataka,Davanagere,"Devaraj Urs Badavane, Davanagere - KSPCB",04-05-2024 01:00:00,14.475800,75.905200,NH3,1,2,2
India,Karnataka,Dharwad,"Kalabhavan, Dharwad - KSPCB",04-05-2024 01:00:00,15.459706,75.008381,OZONE,2,23,9
India,Karnataka,Gadag,"Panchal Nagar, Gadag - KSPCB",04-05-2024 01:00:00,15.411456,75.638133,PM2.5,27,83,55
India,Karnataka,Hassan,"B.Katihalli, Hassan - KSPCB",04-05-2024 01:00:00,13.008556,76.125258,NH3,4,6,5
India,Karnataka,Hubballi,"Deshpande Nagar, Hubballi - KSPCB",04-05-2024 01:00:00,15.351773,75.140726,NO2,27,27,27
India,Karnataka,Hubballi,"Lingaraj Nagar, Hubballi - KSPCB",04-05-2024 01:00:00,15.3714823,75.1160168,NO2,7,10,9
India,Karnataka,Hubballi,"Lingaraj Nagar, Hubballi - KSPCB",04-05-2024 01:00:00,15.3714823,75.1160168,SO2,2,31,6
India,Karnataka,Kalaburagi,"Lal Bahadur Shastri Nagar, Kalaburagi - KSPCB",04-05-2024 01:00:00,17.321993,76.822628,PM2.5,NA,NA,NA
India,Karnataka,Kalaburagi,"Lal Bahadur Shastri Nagar, Kalaburagi - KSPCB",04-05-2024 01:00:00,17.321993,76.822628,NO2,11,12,12
India,Karnataka,Kalaburagi,"Lal Bahadur Shastri Nagar, Kalaburagi - KSPCB",04-05-2024 01:00:00,17.321993,76.822628,SO2,22,24,23
India,Karnataka,Kalaburagi,"Lal Bahadur Shastri Nagar, Kalaburagi - KSPCB",04-05-2024 01:00:00,17.321993,76.822628,CO,44,48,46
India,Karnataka,Kalaburagi,"Mahatma Basaveswar Colony, Kalaburgi - KSPCB",04-05-2024 01:00:00,17.336318,76.847397,NH3,3,4,3
India,Karnataka,Kalaburagi,"Mahatma Basaveswar Colony, Kalaburgi - KSPCB",04-05-2024 01:00:00,17.336318,76.847397,SO2,5,13,8
India,Karnataka,Kalaburagi,"Mahatma Basaveswar Colony, Kalaburgi - KSPCB",04-05-2024 01:00:00,17.336318,76.847397,CO,34,62,50
India,Karnataka,Kolar,"Tamaka Ind. Area, Kolar - KSPCB",04-05-2024 01:00:00,13.1276288,78.1570122,NO2,NA,NA,NA
India,Karnataka,Kolar,"Tamaka Ind. Area, Kolar - KSPCB",04-05-2024 01:00:00,13.1276288,78.1570122,CO,NA,NA,NA
India,Karnataka,Koppal,"Diwator Nagar, Koppal - KSPCB",04-05-2024 01:00:00,15.347630,76.181767,PM10,16,38,28
India,Karnataka,Koppal,"Diwator Nagar, Koppal - KSPCB",04-05-2024 01:00:00,15.347630,76.181767,OZONE,23,170,28
India,Karnataka,Madikeri,"Stuart Hill, Madikeri - KSPCB",04-05-2024 01:00:00,12.415911,75.735050,NH3,1,3,1
India,Karnataka,Mangalore,"Kadri, Mangalore - KSPCB",04-05-2024 01:00:00,12.889250,74.853000,NO2,5,6,6
India,Karnataka,Mangalore,"Kadri, Mangalore - KSPCB",04-05-2024 01:00:00,12.889250,74.853000,CO,36,41,40
India,Karnataka,Mysuru,"Hebbal 1st Stage, Mysuru - KSPCB",04-05-2024 01:00:00,12.21041,76.37376,PM2.5,27,74,41
India,Karnataka,Mysuru,"Hebbal 1st Stage, Mysuru - KSPCB",04-05-2024 01:00:00,12.21041,76.37376,SO2,1,5,3
India,Karnataka,Ramanagara,"Vijay Nagar, Ramanagara - KSPCB",04-05-2024 01:00:00,12.733409,77.298051,NH3,3,4,3
India,Karnataka,Ramanagara,"Vijay Nagar, Ramanagara - KSPCB",04-05-2024 01:00:00,12.733409,77.298051,CO,2,40,33
India,Karnataka,Shivamogga,"Vinoba Nagara, Shivamogga - KSPCB",04-05-2024 01:00:00,13.940000,75.555917,CO,12,40,33
India,Karnataka,Tumakuru,"Thimmalapura, Tumakuru - KSPCB",04-05-2024 01:00:00,13.377516,77.099072,PM10,122,189,153
India,Karnataka,Tumakuru,"Thimmalapura, Tumakuru - KSPCB",04-05-2024 01:00:00,13.377516,77.099072,NO2,25,60,41
India,Karnataka,Yadgir,"Collector Office, Yadgir - KSPCB",04-05-2024 01:00:00,16.7602,77.1428,PM10,38,91,61
India,Kerala,Eloor,"Udyogamandal, Eloor - Kerala PCB",04-05-2024 01:00:00,10.073232,76.302765,NH3,1,1,1
India,Kerala,Eloor,"Udyogamandal, Eloor - Kerala PCB",04-05-2024 01:00:00,10.073232,76.302765,SO2,1,45,5
India,Kerala,Eloor,"Udyogamandal, Eloor - Kerala PCB",04-05-2024 01:00:00,10.073232,76.302765,CO,11,122,64
India,Kerala,Kollam,"Polayathode, Kollam - Kerala PCB",04-05-2024 01:00:00,8.8787,76.6073,PM10,67,101,82
India,Kerala,Kollam,"Polayathode, Kollam - Kerala PCB",04-05-2024 01:00:00,8.8787,76.6073,NO2,8,9,8
India,Kerala,Thiruvananthapuram,"Kariavattom, Thiruvananthapuram - Kerala PCB",04-05-2024 01:00:00,8.563700,76.886500,NH3,1,1,1
India,Kerala,Thiruvananthapuram,"Plammoodu, Thiruvananthapuram - Kerala PCB",04-05-2024 01:00:00,8.5149093,76.9435879,PM2.5,13,60,28
India,Kerala,Thrissur,"Corporation Ground, Thrissur - Kerala PCB",04-05-2024 01:00:00,10.532400,76.215900,PM2.5,45,50,48
India,Kerala,Thrissur,"Corporation Ground, Thrissur - Kerala PCB",04-05-2024 01:00:00,10.532400,76.215900,NH3,NA,NA,NA
India,Kerala,Thrissur,"Corporation Ground, Thrissur - Kerala PCB",04-05-2024 01:00:00,10.532400,76.215900,SO2,1,3,1
India,Madhya Pradesh,Bhopal,"Paryavaran Parisar, Bhopal - MPPCB",04-05-2024 01:00:00,23.210494,77.425409,OZONE,4,141,50
India,Madhya Pradesh,Bhopal,"T T Nagar, Bhopal - MPPCB",04-05-2024 01:00:00,23.233584,77.400574,PM2.5,38,119,65
India,Madhya Pradesh,Bhopal,"T T Nagar, Bhopal - MPPCB",04-05-2024 01:00:00,23.233584,77.400574,NO2,17,62,33
India,Madhya Pradesh,Dewas,"Bhopal Chauraha, Dewas - MPPCB",04-05-2024 01:00:00,22.9682591,76.064118,PM2.5,38,182,74
India,Madhya Pradesh,Dewas,"Bhopal Chauraha, Dewas - MPPCB",04-05-2024 01:00:00,22.9682591,76.064118,SO2,5,77,26
India,Madhya Pradesh,Dewas,"Bhopal Chauraha, Dewas - MPPCB",04-05-2024 01:00:00,22.9682591,76.064118,CO,15,111,62
India,Madhya Pradesh,Gwalior,"City Center, Gwalior - MPPCB",04-05-2024 01:00:00,26.203442,78.193251,NH3,1,10,5
India,Madhya Pradesh,Gwalior,"Maharaj Bada, Gwalior - MPPCB",04-05-2024 01:00:00,26.200388,78.147714,PM2.5,23,220,71
India,Madhya Pradesh,Gwalior,"Maharaj Bada, Gwalior - MPPCB",04-05-2024 01:00:00,26.200388,78.147714,CO,2,28,22
India,Madhya Pradesh,Gwalior,"Maharaj Bada, Gwalior - MPPCB",04-05-2024 01:00:00,26.200388,78.147714,OZONE,26,204,69
India,Madhya Pradesh,Indore,"Chhoti Gwaltoli, Indore - MPPCB",04-05-2024 01:00:00,22.4310,75.5213,PM10,112,258,150
India,Madhya Pradesh,Indore,"Chhoti Gwaltoli, Indore - MPPCB",04-05-2024 01:00:00,22.4310,75.5213,NO2,41,175,92
India,Madhya Pradesh,Indore,"Chhoti Gwaltoli, Indore - MPPCB",04-05-2024 01:00:00,22.4310,75.5213,NH3,2,7,5
India,Madhya Pradesh,Indore,"Chhoti Gwaltoli, Indore - MPPCB",04-05-2024 01:00:00,22.4310,75.5213,CO,52,125,100
India,Madhya Pradesh,Indore,"Maguda Nagar, Indore - IMC",04-05-2024 01:00:00,22.7524,75.8872,OZONE,36,58,39
India,Madhya Pradesh,Indore,"Regional Park, Indore - IMC",04-05-2024 01:00:00,22.6780,75.8559,PM2.5,50,178,97
India,Madhya Pradesh,Indore,"Regional Park, Indore - IMC",04-05-2024 01:00:00,22.6780,75.8559,SO2,52,55,53
India,Madhya Pradesh,Indore,"Regional Park, Indore - IMC",04-05-2024 01:00:00,22.6780,75.8559,OZONE,9,36,13
India,Madhya Pradesh,Jabalpur,"Govindh Bhavan Colony, Jabalpur - JMC",04-05-2024 01:00:00,23.163174,79.973061,NO2,9,42,21
India,Madhya Pradesh,Jabalpur,"Govindh Bhavan Colony, Jabalpur - JMC",04-05-2024 01:00:00,23.163174,79.973061,CO,20,48,31
India,Madhya Pradesh,Jabalpur,"Gupteshwar, Jabalpur - JMC",04-05-2024 01:00:00,23.142888,79.916147,NH3,8,11,9
India,Madhya Pradesh,Jabalpur,"Suhagi, Jabalpur - JMC",04-05-2024 01:00:00,23.218135,79.957770,PM2.5,28,297,128
India,Madhya Pradesh,Jabalpur,"Suhagi, Jabalpur - JMC",04-05-2024 01:00:00,23.218135,79.957770,CO,24,122,100
India,Madhya Pradesh,Jabalpur,"Suhagi, Jabalpur - JMC",04-05-2024 01:00:00,23.218135,79.957770,OZONE,2,284,47
India,Madhya Pradesh,Katni,"Gole Bazar, Katni - MPPCB",04-05-2024 01:00:00,23.50016,80.23284,NO2,34,168,92
India,Madhya Pradesh,Katni,"Gole Bazar, Katni - MPPCB",04-05-2024 01:00:00,23.50016,80.23284,OZONE,3,168,57
India,Madhya Pradesh,Pithampur,"Sector-2 Industrial Area, Pithampur - MPPCB",04-05-2024 01:00:00,22.624758,75.675238,PM2.5,38,122,62
India,Madhya Pradesh,Ratlam,"Shasthri Nagar, Ratlam - IPCA Lab",04-05-2024 01:00:00,23.331731,75.045981,SO2,30,35,32
India,Madhya Pradesh,Sagar,"Civil Lines, Sagar - MPPCB",04-05-2024 01:00:00,23.838586,78.759431,PM2.5,23,73,48
India,Madhya Pradesh,Sagar,"Deen Dayal Nagar, Sagar - MPPCB",04-05-2024 01:00:00,23.8640158,78.80289321,PM2.5,18,52,33
India,Madhya Pradesh,Sagar,"Deen Dayal Nagar, Sagar - MPPCB",04-05-2024 01:00:00,23.8640158,78.80289321,NO2,23,25,24
India,Madhya Pradesh,Sagar,"Deen Dayal Nagar, Sagar - MPPCB",04-05-2024 01:00:00,23.8640158,78.80289321,SO2,8,18,11
India,Madhya Pradesh,Satna,"Bandhavgar Colony, Satna - Birla Cement",04-05-2024 01:00:00,24.58434363,80.8549414,NO2,4,4,4
India,Madhya Pradesh,Satna,"Bandhavgar Colony, Satna - Birla Cement",04-05-2024 01:00:00,24.58434363,80.8549414,CO,32,114,86
India,Madhya Pradesh,Singrauli,"Suryakiran Bhawan NCL, Singrauli - MPPCB",04-05-2024 01:00:00,24.108970,82.645580,NO2,NA,NA,NA
India,Madhya Pradesh,Singrauli,"Suryakiran Bhawan NCL, Singrauli - MPPCB",04-05-2024 01:00:00,24.108970,82.645580,SO2,NA,NA,NA
India,Madhya Pradesh,Ujjain,"Mahakaleshwar Temple, Ujjain - MPPCB",04-05-2024 01:00:00,23.182719 ,75.768218 ,OZONE,97,162,142
India,Maharashtra,Ahmednagar,"Tarakpur, Ahmednagar - MPCB",04-05-2024 01:00:00,19.10122,74.73339,NO2,15,160,62
India,Maharashtra,Akola,"Ramdaspeth, Akola - MPCB",04-05-2024 01:00:00,20.719516,77.000253,PM10,95,183,116
India,Maharashtra,Akola,"Ramdaspeth, Akola - MPCB",04-05-2024 01:00:00,20.719516,77.000253,NH3,6,16,9
India,Maharashtra,Aurangabad,"More Chowk Waluj, Aurangabad - MPCB",04-05-2024 01:00:00,19.8389439,75.244448,OZONE,5,98,47
India,Maharashtra,Aurangabad,"Rachnakar Colony, Aurangabad - MPCB",04-05-2024 01:00:00,19.863756,75.321188,PM10,153,400,222
India,Maharashtra,Badlapur,"Katrap, Badlapur - MPCB",04-05-2024 01:00:00,19.16485,73.23409,SO2,4,16,10
India,Maharashtra,Belapur,"CBD Belapur, Belapur - MPCB",04-05-2024 01:00:00,19.0243902,73.0406721,CO,16,32,24
India,Maharashtra,Bhiwandi,"Gokul Nagar, Bhiwandi - MPCB",04-05-2024 01:00:00,19.309073,73.057223,SO2,18,25,21
India,Maharashtra,Chandrapur,"Chauhan Colony, Chandrapur - MPCB",04-05-2024 01:00:00,19.962900,79.298714,NH3,1,1,1
India,Maharashtra,Jalgaon,"Prabhat Colony, Jalgaon - MPCB",04-05-2024 01:00:00,21.001264,75.565602,NH3,1,15,10
India,Maharashtra,Jalna,"Old MIDC, Jalna - MPCB",04-05-2024 01:00:00,19.854616,75.905894,CO,20,50,40
India,Maharashtra,Jalna,"Old MIDC, Jalna - MPCB",04-05-2024 01:00:00,19.854616,75.905894,OZONE,14,278,91
India,Maharashtra,Mahad,"Kamble Tarf Birwadi, Mahad - MPCB",04-05-2024 01:00:00,18.1023399,73.4783687,NO2,NA,NA,NA
India,Maharashtra,Mahad,"Kamble Tarf Birwadi, Mahad - MPCB",04-05-2024 01:00:00,18.1023399,73.4783687,CO,NA,NA,NA
India,Maharashtra,Malegaon,"Mahesh Nagar, Malegaon - MPCB",04-05-2024 01:00:00,20.555712,74.529236,OZONE,20,91,50
India,Maharashtra,Mira-Bhayandar,"Bhayandar West, Mira-Bhayandar - MPCB",04-05-2024 01:00:00,19.296481,72.840923,PM2.5,11,96,62
India,Maharashtra,Mira-Bhayandar,"Bhayandar West, Mira-Bhayandar - MPCB",04-05-2024 01:00:00,19.296481,72.840923,NH3,2,4,3
India,Maharashtra,Mira-Bhayandar,"Bhayandar West, Mira-Bhayandar - MPCB",04-05-2024 01:00:00,19.296481,72.840923,SO2,2,6,4
India,Maharashtra,Mumbai,"Bandra Kurla Complex, Mumbai - MPCB",04-05-2024 01:00:00,19.065931,72.862131,SO2,4,5,4
India,Maharashtra,Mumbai,"Borivali East, Mumbai - IITM",04-05-2024 01:00:00,19.23241,72.86895,PM10,78,110,96
India,Maharashtra,Mumbai,"Byculla, Mumbai - BMC",04-05-2024 01:00:00,18.9767,72.8380,PM2.5,13,41,27
India,Maharashtra,Mumbai,"Byculla, Mumbai - BMC",04-05-2024 01:00:00,18.9767,72.8380,PM10,38,78,62
India,Maharashtra,Mumbai,"Byculla, Mumbai - BMC",04-05-2024 01:00:00,18.9767,72.8380,OZONE,26,71,53
India,Maharashtra,Mumbai,"Chembur, Mumbai - MPCB",04-05-2024 01:00:00,19.0364585,72.8954371,NH3,3,4,4
India,Maharashtra,Mumbai,"Colaba, Mumbai - MPCB",04-05-2024 01:00:00,18.910000,72.820000,NO2,19,22,20
India,Maharashtra,Mumbai,"Ghatkopar, Mumbai - BMC",04-05-2024 01:00:00,19.083694,72.920967,NO2,NA,NA,NA
India,Maharashtra,Mumbai,"Kandivali East, Mumbai - MPCB",04-05-2024 01:00:00,19.205800,72.868200,OZONE,30,31,30
India,Maharashtra,Mumbai,"Kandivali West, Mumbai - BMC",04-05-2024 01:00:00,19.215859,72.831718,PM10,36,75,56
India,Maharashtra,Mumbai,"Kandivali West, Mumbai - BMC",04-05-2024 01:00:00,19.215859,72.831718,SO2,1,2,1
India,Maharashtra,Mumbai,"Kandivali West, Mumbai - BMC",04-05-2024 01:00:00,19.215859,72.831718,CO,5,15,10
India,Maharashtra,Mumbai,"Kherwadi_Bandra East, Mumbai - MPCB",04-05-2024 01:00:00,19.0632143,72.8456324,PM10,70,113,100
India,Maharashtra,Mumbai,"Khindipada-Bhandup West, Mumbai - IITM",04-05-2024 01:00:00,19.1653323,72.922099,SO2,4,11,6
India,Maharashtra,Mumbai,"Kurla, Mumbai - MPCB",04-05-2024 01:00:00,19.0863,72.8888,PM10,78,210,128
India,Maharashtra,Mumbai,"Mazgaon, Mumbai - IITM",04-05-2024 01:00:00,18.96702,72.84214,SO2,NA,NA,NA
India,Maharashtra,Mumbai,"Mulund West, Mumbai - MPCB",04-05-2024 01:00:00,19.1750,72.9419,PM10,82,154,113
India,Maharashtra,Mumbai,"Mulund West, Mumbai - MPCB",04-05-2024 01:00:00,19.1750,72.9419,SO2,13,13,13
India,Maharashtra,Mumbai,"Navy Nagar-Colaba, Mumbai - IITM",04-05-2024 01:00:00,18.897756,72.813320,PM2.5,29,66,49
India,Maharashtra,Mumbai,"Navy Nagar-Colaba, Mumbai - IITM",04-05-2024 01:00:00,18.897756,72.813320,PM10,75,145,108
India,Maharashtra,Mumbai,"Powai, Mumbai - MPCB",04-05-2024 01:00:00,19.137500,72.915056,SO2,35,49,41
India,Maharashtra,Mumbai,"Sewri, Mumbai - BMC",04-05-2024 01:00:00,19.000084,72.856730,PM10,5,32,17
India,Maharashtra,Mumbai,"Siddharth Nagar-Worli, Mumbai - IITM",04-05-2024 01:00:00,19.000083,72.813993,PM10,84,137,116
India,Maharashtra,Mumbai,"Siddharth Nagar-Worli, Mumbai - IITM",04-05-2024 01:00:00,19.000083,72.813993,NH3,3,7,4
India,Maharashtra,Mumbai,"Siddharth Nagar-Worli, Mumbai - IITM",04-05-2024 01:00:00,19.000083,72.813993,CO,20,40,35
India,Maharashtra,Mumbai,"Sion, Mumbai - MPCB",04-05-2024 01:00:00,19.047000,72.874600,PM10,80,158,110
India,Maharashtra,Mumbai,"Sion, Mumbai - MPCB",04-05-2024 01:00:00,19.047000,72.874600,NO2,92,101,97
India,Maharashtra,Mumbai,"Sion, Mumbai - MPCB",04-05-2024 01:00:00,19.047000,72.874600,SO2,33,36,34
India,Maharashtra,Mumbai,"Vile Parle West, Mumbai - MPCB",04-05-2024 01:00:00,19.10861,72.83622,PM10,97,135,115
India,Maharashtra,Mumbai,"Vile Parle West, Mumbai - MPCB",04-05-2024 01:00:00,19.10861,72.83622,NH3,11,11,11
India,Maharashtra,Mumbai,"Worli, Mumbai - MPCB",04-05-2024 01:00:00,18.9936162,72.8128113,SO2,12,12,12
India,Maharashtra,Mumbai,"Worli, Mumbai - MPCB",04-05-2024 01:00:00,18.9936162,72.8128113,OZONE,7,12,9
India,Maharashtra,Nagpur,"Ambazari, Nagpur - MPCB",04-05-2024 01:00:00,21.121801,79.04952,NO2,10,126,41
India,Maharashtra,Nagpur,"Ambazari, Nagpur - MPCB",04-05-2024 01:00:00,21.121801,79.04952,NH3,3,18,5
India,Maharashtra,Nagpur,"Mahal, Nagpur - MPCB",04-05-2024 01:00:00,21.14472,79.107595,SO2,7,108,53
India,Maharashtra,Nagpur,"Opp GPO Civil Lines, Nagpur - MPCB",04-05-2024 01:00:00,21.152875,79.0517531,NO2,14,18,16
India,Maharashtra,Nanded,"Sneh Nagar, Nanded - MPCB",04-05-2024 01:00:00,19.173852,77.296291,NO2,15,98,41
India,Maharashtra,Nashik,"Gangapur Road, Nashik - MPCB",04-05-2024 01:00:00,20.0073285,73.7762427,CO,13,72,53
India,Maharashtra,Nashik,"Hirawadi, Nashik - MPCB",04-05-2024 01:00:00,20.021503,73.813844,OZONE,4,103,52
India,Maharashtra,Nashik,"MIDC Ambad, Nashik - MPCB",04-05-2024 01:00:00,19.950220,73.731480,NH3,4,6,5
India,Maharashtra,Navi Mumbai,"Nerul, Navi Mumbai - MPCB",04-05-2024 01:00:00,19.008751,73.016620,NO2,27,45,36
India,Maharashtra,Navi Mumbai,"Sector-2E Kalamboli, Navi Mumbai - MPCB",04-05-2024 01:00:00,19.02579,73.10297,CO,9,32,13
India,Maharashtra,Parbhani,"Masoom Colony, Parbhani - MPCB",04-05-2024 01:00:00,19.265594,76.761463,PM10,110,404,160
India,Maharashtra,Parbhani,"Masoom Colony, Parbhani - MPCB",04-05-2024 01:00:00,19.265594,76.761463,SO2,5,16,10
India,Maharashtra,Parbhani,"Masoom Colony, Parbhani - MPCB",04-05-2024 01:00:00,19.265594,76.761463,CO,12,113,50
India,Maharashtra,Pimpri-Chinchwad,"Gavalinagar, Pimpri Chinchwad - MPCB",04-05-2024 01:00:00,18.63673,73.82487,PM10,81,112,95
India,Maharashtra,Pimpri-Chinchwad,"Thergaon, Pimpri Chinchwad - MPCB",04-05-2024 01:00:00,18.616318,73.765797,NO2,18,74,42
India,Maharashtra,Pimpri-Chinchwad,"Thergaon, Pimpri Chinchwad - MPCB",04-05-2024 01:00:00,18.616318,73.765797,NH3,2,9,5
India,Maharashtra,Pimpri-Chinchwad,"Thergaon, Pimpri Chinchwad - MPCB",04-05-2024 01:00:00,18.616318,73.765797,SO2,1,10,4
India,Maharashtra,Pune,"Alandi, Pune - IITM",04-05-2024 01:00:00,18.675076,73.892743,PM2.5,30,94,69
India,Maharashtra,Pune,"Bhosari, Pune - IITM",04-05-2024 01:00:00,18.640051,73.848956,PM10,64,121,94
India,Maharashtra,Pune,"Bhosari, Pune - IITM",04-05-2024 01:00:00,18.640051,73.848956,NO2,9,14,11
India,Maharashtra,Pune,"Katraj Dairy, Pune - MPCB",04-05-2024 01:00:00,18.454450,73.854155,PM2.5,43,73,57
India,Maharashtra,Pune,"Katraj Dairy, Pune - MPCB",04-05-2024 01:00:00,18.454450,73.854155,PM10,56,96,75
India,Maharashtra,Pune,"Mhada Colony, Pune - IITM",04-05-2024 01:00:00,18.573040,73.927715,NO2,25,63,44
India,Maharashtra,Pune,"Revenue Colony-Shivajinagar, Pune - IITM",04-05-2024 01:00:00,18.530085,73.849598,PM2.5,25,236,82
India,Maharashtra,Pune,"Revenue Colony-Shivajinagar, Pune - IITM",04-05-2024 01:00:00,18.530085,73.849598,SO2,30,116,82
India,Maharashtra,Pune,"Savitribai Phule Pune University, Pune - MPCB",04-05-2024 01:00:00,18.547056,73.826908,PM2.5,44,103,64
India,Maharashtra,Pune,"Savitribai Phule Pune University, Pune - MPCB",04-05-2024 01:00:00,18.547056,73.826908,NH3,2,4,3
India,Maharashtra,Pune,"Transport Nagar-Nigdi, Pune - IITM",04-05-2024 01:00:00,18.664282,73.763966,CO,24,45,39
India,Maharashtra,Solapur,"Ratandeep Housing Society, Solapur - MPCB",04-05-2024 01:00:00,17.65439,75.90649,NO2,21,140,60
India,Maharashtra,Solapur,"Ratandeep Housing Society, Solapur - MPCB",04-05-2024 01:00:00,17.65439,75.90649,NH3,8,24,22
India,Maharashtra,Solapur,"Ratandeep Housing Society, Solapur - MPCB",04-05-2024 01:00:00,17.65439,75.90649,CO,10,122,68
India,Maharashtra,Thane,"Kasarvadavali, Thane - MPCB",04-05-2024 01:00:00,19.26777,72.97182,PM2.5,47,119,79
India,Maharashtra,Thane,"Pimpleshwar Mandir, Thane - MPCB",04-05-2024 01:00:00,19.192056,72.9585188,CO,2,65,21
India,Maharashtra,Thane,"Upvan Fort, Thane - MPCB",04-05-2024 01:00:00,19.222279,72.957979,NH3,4,5,4
India,Maharashtra,Ulhasnagar,"Sidhi Vinayak Nagar, Ulhasnagar - MPCB",04-05-2024 01:00:00,19.235581,73.159121,CO,12,42,28
India,Maharashtra,Virar,"Bolinj, Virar - MPCB",04-05-2024 01:00:00,19.4458210,72.7988231,PM10,81,157,113
India,Manipur,Imphal,"DM College of Science, Imphal - Manipur PCB",04-05-2024 01:00:00,24.8207389,93.9423085,OZONE,NA,NA,NA
India,Manipur,Imphal,"Manipur University, Imphal - Manipur PCB",04-05-2024 01:00:00,24.7524239,93.9286218,NO2,NA,NA,NA
India,Meghalaya,Shillong,"Lumpyngngad, Shillong - Meghalaya PCB",04-05-2024 01:00:00,25.5586,91.8985,PM2.5,29,208,78
India,Meghalaya,Shillong,"Lumpyngngad, Shillong - Meghalaya PCB",04-05-2024 01:00:00,25.5586,91.8985,PM10,35,111,64
India,Nagaland,Kohima,"PWD Juction, Kohima - NPCB",04-05-2024 01:00:00,25.6635413,94.0989878,SO2,33,38,35
India,Odisha,Angul,"Hakimapada, Angul - OSPCB",04-05-2024 01:00:00,20.832874,85.104082,PM10,103,401,233
India,Odisha,Angul,"Hakimapada, Angul - OSPCB",04-05-2024 01:00:00,20.832874,85.104082,SO2,11,128,64
India,Odisha,Angul,"Hakimapada, Angul - OSPCB",04-05-2024 01:00:00,20.832874,85.104082,OZONE,6,302,127
India,Odisha,Balasore,"Kalidaspur, Balasore - OSPCB",04-05-2024 01:00:00,21.51161,86.89088,OZONE,10,156,43
India,Odisha,Barbil,"Forest Office, Barbil - OSPCB",04-05-2024 01:00:00,22.1166054,85.3945546,NO2,NA,NA,NA
India,Odisha,Baripada,"Meher Colony, Baripada - OSPCB",04-05-2024 01:00:00,21.941841,86.728318,NH3,1,15,5
India,Odisha,Baripada,"Meher Colony, Baripada - OSPCB",04-05-2024 01:00:00,21.941841,86.728318,OZONE,49,269,86
India,Odisha,Bhubaneswar,"Patia, Bhubaneswar - OSPCB",04-05-2024 01:00:00,20.34652,85.81630,SO2,1,29,10
India,Odisha,Bileipada,"Tata Township, Bileipada - OSPCB",04-05-2024 01:00:00,22.06156703,85.47409613,NH3,NA,NA,NA
India,Odisha,Brajrajnagar,"GM Office, Brajrajnagar - OSPCB",04-05-2024 01:00:00,21.8004996,83.8396977,PM10,37,190,99
India,Odisha,Brajrajnagar,"GM Office, Brajrajnagar - OSPCB",04-05-2024 01:00:00,21.8004996,83.8396977,NH3,6,7,6
India,Odisha,Brajrajnagar,"GM Office, Brajrajnagar - OSPCB",04-05-2024 01:00:00,21.8004996,83.8396977,CO,102,103,103
India,Odisha,Brajrajnagar,"GM Office, Brajrajnagar - OSPCB",04-05-2024 01:00:00,21.8004996,83.8396977,OZONE,1,95,36
India,Odisha,Byasanagar,"Ferro Chrome Colony, Byasanagar - OSPCB",04-05-2024 01:00:00,20.94185,86.11510,NH3,1,4,2
India,Odisha,Cuttack,"CDA Area, Cuttack - OSPCB",04-05-2024 01:00:00,20.48891     ,85.84768     ,NH3,1,2,1
India,Odisha,Cuttack,"CDA Area, Cuttack - OSPCB",04-05-2024 01:00:00,20.48891     ,85.84768     ,OZONE,2,160,48
India,Odisha,Nayagarh,"Dabuna, Nayagarh - OSPCB",04-05-2024 01:00:00,21.847279,85.416905,CO,6,70,48
India,Odisha,Nayagarh,"Dabuna, Nayagarh - OSPCB",04-05-2024 01:00:00,21.847279,85.416905,OZONE,1,38,21
India,Odisha,Rairangpur,"Divisional Forest Office, Rairangpur - OSPCB",04-05-2024 01:00:00,22.265816,86.174829,NH3,3,3,3
India,Odisha,Rourkela,"Fertilizer Township, Rourkela - OSPCB",04-05-2024 01:00:00,22.18972222,84.86277778,PM10,97,183,140
India,Odisha,Rourkela,"Raghunathpali, Rourkela - OSPCB",04-05-2024 01:00:00,22.220833,84.809444,PM2.5,193,359,298
India,Odisha,Rourkela,"Sector-2, Rourkela - OSPCB",04-05-2024 01:00:00,22.24500000,84.88111111,PM2.5,56,322,128
India,Odisha,Suakati,"OMC Colony, Suakati - OSPCB",04-05-2024 01:00:00,21.606865,85.510538,SO2,6,48,21
India,Odisha,Talcher,"Talcher Coalfields,Talcher - OSPCB",04-05-2024 01:00:00,20.9360711,85.1707021,NO2,17,23,20
India,Odisha,Talcher,"Talcher Coalfields,Talcher - OSPCB",04-05-2024 01:00:00,20.9360711,85.1707021,CO,18,126,66
India,Odisha,Tensa,"Barsua Iron Ore Mines, Tensa - OSPCB",04-05-2024 01:00:00,21.869985,85.167016,PM2.5,52,77,67
India,Odisha,Tensa,"Barsua Iron Ore Mines, Tensa - OSPCB",04-05-2024 01:00:00,21.869985,85.167016,NH3,1,2,1
India,Puducherry,Puducherry,"Jawahar Nagar, Puducherry - PPCC",04-05-2024 01:00:00,11.9309,79.8027,NH3,2,4,3
India,Punjab,Bathinda,"Hardev Nagar, Bathinda - PPCB",04-05-2024 01:00:00,30.233011,74.907758,NO2,28,33,30
India,Punjab,Jalandhar,"Civil Line, Jalandhar - PPCB",04-05-2024 01:00:00,31.321907,75.578914,OZONE,32,55,35
India,Punjab,Khanna,"Kalal Majra, Khanna - PPCB",04-05-2024 01:00:00,30.736056 ,76.209694,OZONE,41,48,45
India,Punjab,Mandi Gobindgarh,"RIMT University, Mandi Gobindgarh - PPCB",04-05-2024 01:00:00,30.649961,76.331442,PM2.5,56,304,135
India,Punjab,Mandi Gobindgarh,"RIMT University, Mandi Gobindgarh - PPCB",04-05-2024 01:00:00,30.649961,76.331442,NH3,6,6,6
India,Punjab,Mandi Gobindgarh,"RIMT University, Mandi Gobindgarh - PPCB",04-05-2024 01:00:00,30.649961,76.331442,CO,5,32,25
India,Punjab,Patiala,"Model Town, Patiala - PPCB",04-05-2024 01:00:00,30.349388,76.366642,PM10,87,151,126
India,Rajasthan,Ajmer,"Civil Lines,  Ajmer - RSPCB",04-05-2024 01:00:00,26.470859,74.646594,NH3,10,14,12
India,Rajasthan,Alwar,"Moti Doongri, Alwar - RSPCB",04-05-2024 01:00:00,27.554793,76.611536,NO2,32,65,43
India,Rajasthan,Alwar,"Moti Doongri, Alwar - RSPCB",04-05-2024 01:00:00,27.554793,76.611536,CO,38,63,45
India,Rajasthan,Banswara,"Rati Talai, Banswara - RSPCB",04-05-2024 01:00:00,23.555190,74.440010,PM10,77,304,158
India,Rajasthan,Baran,"Bamboliya, Baran - RSPCB",04-05-2024 01:00:00,25.106006,76.469948,NH3,4,23,9
India,Rajasthan,Barmer,"Railway Colony, Barmer - RSPCB",04-05-2024 01:00:00,25.747299,71.393989,SO2,4,15,7
India,Rajasthan,Barmer,"Railway Colony, Barmer - RSPCB",04-05-2024 01:00:00,25.747299,71.393989,OZONE,27,99,72
India,Rajasthan,Bharatpur,"Krishna Nagar, Bharatpur - RSPCB",04-05-2024 01:00:00,27.215415,77.50873,PM10,106,358,176
India,Rajasthan,Bharatpur,"Krishna Nagar, Bharatpur - RSPCB",04-05-2024 01:00:00,27.215415,77.50873,OZONE,13,164,82
India,Rajasthan,Bhiwadi,"RIICO Ind. Area III, Bhiwadi - RSPCB",04-05-2024 01:00:00,28.194909,76.862296,SO2,14,42,23
India,Rajasthan,Bhiwadi,"Vasundhara Nagar_UIT, Bhiwadi - RSPCB",04-05-2024 01:00:00,28.207266,76.829265,CO,12,58,40
India,Rajasthan,Bikaner,"MM Ground, Bikaner - RSPCB",04-05-2024 01:00:00,28.018792,73.292658,NO2,21,134,53
India,Rajasthan,Bikaner,"MM Ground, Bikaner - RSPCB",04-05-2024 01:00:00,28.018792,73.292658,SO2,1,17,5
India,Rajasthan,Bikaner,"MM Ground, Bikaner - RSPCB",04-05-2024 01:00:00,28.018792,73.292658,OZONE,8,96,41
India,Rajasthan,Chittorgarh,"Shastri Nagar, Chittorgarh - RSPCB",04-05-2024 01:00:00,24.892047,74.623527,NH3,9,11,10
India,Rajasthan,Chittorgarh,"Shastri Nagar, Chittorgarh - RSPCB",04-05-2024 01:00:00,24.892047,74.623527,SO2,7,81,16
India,Rajasthan,Dholpur,"Raja Ganj, Dholpur - RSPCB",04-05-2024 01:00:00,26.699557,77.898881,PM2.5,NA,NA,NA
India,Rajasthan,Dungarpur,"Bhoiwada, Dungarpur - RSPCB",04-05-2024 01:00:00,23.837789,73.714926,PM2.5,22,83,47
India,Rajasthan,Dungarpur,"Bhoiwada, Dungarpur - RSPCB",04-05-2024 01:00:00,23.837789,73.714926,NO2,14,25,18
India,Rajasthan,Dungarpur,"Bhoiwada, Dungarpur - RSPCB",04-05-2024 01:00:00,23.837789,73.714926,SO2,2,4,2
India,Rajasthan,Hanumangarh,"Housing Board, Hanumangarh - RSPCB",04-05-2024 01:00:00,29.610750,74.283608,NO2,11,96,44
India,Rajasthan,Hanumangarh,"Housing Board, Hanumangarh - RSPCB",04-05-2024 01:00:00,29.610750,74.283608,OZONE,13,68,30
India,Rajasthan,Jaipur,"Mansarovar Sector-12, Jaipur - RSPCB",04-05-2024 01:00:00,26.843698,75.766894,PM10,75,415,158
India,Rajasthan,Jaipur,"Mansarovar Sector-12, Jaipur - RSPCB",04-05-2024 01:00:00,26.843698,75.766894,SO2,7,42,15
India,Rajasthan,Jaipur,"Police Commissionerate, Jaipur - RSPCB",04-05-2024 01:00:00,26.9164092,75.7994901,PM10,60,236,122
India,Rajasthan,Jaipur,"Police Commissionerate, Jaipur - RSPCB",04-05-2024 01:00:00,26.9164092,75.7994901,SO2,9,37,20
India,Rajasthan,Jaipur,"RIICO Sitapura, Jaipur - RSPCB",04-05-2024 01:00:00,26.786682,75.827928,NH3,1,6,3
India,Rajasthan,Jaipur,"RIICO Sitapura, Jaipur - RSPCB",04-05-2024 01:00:00,26.786682,75.827928,SO2,11,25,16
India,Rajasthan,Jaipur,"Sector-2 Murlipura, Jaipur - RSPCB",04-05-2024 01:00:00,26.960669,75.771817,OZONE,4,86,30
India,Rajasthan,Jaipur,"Shastri Nagar, Jaipur - RSPCB",04-05-2024 01:00:00,26.9502929,75.730943,PM2.5,62,174,97
India,Rajasthan,Jaipur,"Shastri Nagar, Jaipur - RSPCB",04-05-2024 01:00:00,26.9502929,75.730943,PM10,88,160,121
India,Rajasthan,Jaisalmer,"Sadar Bazar, Jaisalmer - RSPCB",04-05-2024 01:00:00,26.912329,70.909168,PM10,57,173,108
India,Rajasthan,Jalore,"Mudtra Sili, Jalore - RSPCB",04-05-2024 01:00:00,25.344694,72.626208,PM2.5,30,238,55
India,Rajasthan,Jalore,"Mudtra Sili, Jalore - RSPCB",04-05-2024 01:00:00,25.344694,72.626208,NH3,4,18,6
India,Rajasthan,Jalore,"Mudtra Sili, Jalore - RSPCB",04-05-2024 01:00:00,25.344694,72.626208,OZONE,15,138,84
India,Rajasthan,Jhalawar,"Rajlaxmi Nagar, Jhalawar - RSPCB",04-05-2024 01:00:00,24.588397,76.172782,SO2,5,13,9
India,Rajasthan,Jhunjhunu,"Indra Nagar, Jhunjhunu - RSPCB",04-05-2024 01:00:00,28.108988,75.386577,PM2.5,17,253,81
India,Rajasthan,Jhunjhunu,"Indra Nagar, Jhunjhunu - RSPCB",04-05-2024 01:00:00,28.108988,75.386577,NO2,13,99,38
India,Rajasthan,Jhunjhunu,"Indra Nagar, Jhunjhunu - RSPCB",04-05-2024 01:00:00,28.108988,75.386577,OZONE,5,62,24
India,Rajasthan,Jodhpur,"Digari Kalan, Jodhpur - RSPCB",04-05-2024 01:00:00,26.295810,73.082283,PM10,76,431,154
India,Rajasthan,Jodhpur,"Jhalamand, Jodhpur - RSPCB",04-05-2024 01:00:00,26.215415,73.070156,NO2,2,91,41
India,Rajasthan,Jodhpur,"Jhalamand, Jodhpur - RSPCB",04-05-2024 01:00:00,26.215415,73.070156,CO,10,84,41
India,Rajasthan,Jodhpur,"Jhalamand, Jodhpur - RSPCB",04-05-2024 01:00:00,26.215415,73.070156,OZONE,29,118,64
India,Rajasthan,Jodhpur,"Mandor, Jodhpur - RSPCB",04-05-2024 01:00:00,26.358805,73.047444,PM10,82,244,140
India,Rajasthan,Jodhpur,"Mandor, Jodhpur - RSPCB",04-05-2024 01:00:00,26.358805,73.047444,NO2,19,129,67
India,Rajasthan,Jodhpur,"Mandor, Jodhpur - RSPCB",04-05-2024 01:00:00,26.358805,73.047444,CO,17,53,35
India,Rajasthan,Jodhpur,"Samrat Ashok Udhyan, Jodhpur - RSPCB",04-05-2024 01:00:00,26.253384,72.976571,NO2,4,157,62
India,Rajasthan,Kota,"Dhanmandi, Kota - RSPCB",04-05-2024 01:00:00,25.164090,75.858137,PM2.5,17,303,91
India,Rajasthan,Kota,"Dhanmandi, Kota - RSPCB",04-05-2024 01:00:00,25.164090,75.858137,PM10,72,183,116
India,Rajasthan,Kota,"Dhanmandi, Kota - RSPCB",04-05-2024 01:00:00,25.164090,75.858137,SO2,6,107,21
India,Rajasthan,Kota,"Nayapura, Kota - RSPCB",04-05-2024 01:00:00,25.196024,75.855668,PM10,49,275,120
India,Rajasthan,Kota,"Nayapura, Kota - RSPCB",04-05-2024 01:00:00,25.196024,75.855668,SO2,5,34,13
India,Rajasthan,Kota,"Shrinath Puram, Kota - RSPCB",04-05-2024 01:00:00,25.14389,75.821256,PM2.5,38,311,117
India,Rajasthan,Kota,"Shrinath Puram, Kota - RSPCB",04-05-2024 01:00:00,25.14389,75.821256,NH3,4,22,9
India,Rajasthan,Kota,"Shrinath Puram, Kota - RSPCB",04-05-2024 01:00:00,25.14389,75.821256,SO2,8,101,22
India,Rajasthan,Kota,"Shrinath Puram, Kota - RSPCB",04-05-2024 01:00:00,25.14389,75.821256,CO,33,72,46
India,Rajasthan,Kota,"Shrinath Puram, Kota - RSPCB",04-05-2024 01:00:00,25.14389,75.821256,OZONE,5,92,33
India,Rajasthan,Nagaur,"Karni Colony, Nagaur - RSPCB",04-05-2024 01:00:00,27.213494,73.734444,NH3,6,11,9
India,Rajasthan,Nagaur,"Karni Colony, Nagaur - RSPCB",04-05-2024 01:00:00,27.213494,73.734444,CO,16,59,35
India,Rajasthan,Pratapgarh,"Pragati Nagar, Pratapgarh - RSPCB",04-05-2024 01:00:00,24.041198,74.780702,PM2.5,31,160,60
India,Rajasthan,Pratapgarh,"Pragati Nagar, Pratapgarh - RSPCB",04-05-2024 01:00:00,24.041198,74.780702,NH3,3,9,4
India,Rajasthan,Pratapgarh,"Pragati Nagar, Pratapgarh - RSPCB",04-05-2024 01:00:00,24.041198,74.780702,SO2,5,10,7
India,Rajasthan,Rajsamand,"Dhoinda, Rajsamand - RSPCB",04-05-2024 01:00:00,25.036360,73.883502,PM2.5,15,167,54
India,Rajasthan,Rajsamand,"Dhoinda, Rajsamand - RSPCB",04-05-2024 01:00:00,25.036360,73.883502,NO2,4,42,19
India,Rajasthan,Rajsamand,"Dhoinda, Rajsamand - RSPCB",04-05-2024 01:00:00,25.036360,73.883502,SO2,14,84,42
India,Rajasthan,Rajsamand,"Dhoinda, Rajsamand - RSPCB",04-05-2024 01:00:00,25.036360,73.883502,CO,29,88,65
India,Rajasthan,Sawai Madhopur,"Sahu Nagar, Sawai Madhopur - RSPCB",04-05-2024 01:00:00,26.031443,76.359327,PM10,55,376,146
India,Rajasthan,Sikar,"Radhakishan Pura, Sikar - RSPCB",04-05-2024 01:00:00,27.608912,75.153302,NH3,1,2,1
India,Rajasthan,Sikar,"Radhakishan Pura, Sikar - RSPCB",04-05-2024 01:00:00,27.608912,75.153302,SO2,1,6,3
India,Rajasthan,Sirohi,"Vedhaynath Colony, Sirohi - RSPCB",04-05-2024 01:00:00,24.885261,72.857549,PM10,45,184,74
India,Rajasthan,Sirohi,"Vedhaynath Colony, Sirohi - RSPCB",04-05-2024 01:00:00,24.885261,72.857549,NO2,7,58,19
India,Rajasthan,Sirohi,"Vedhaynath Colony, Sirohi - RSPCB",04-05-2024 01:00:00,24.885261,72.857549,NH3,3,5,4
India,Rajasthan,Sirohi,"Vedhaynath Colony, Sirohi - RSPCB",04-05-2024 01:00:00,24.885261,72.857549,CO,2,38,17
India,Rajasthan,Sri Ganganagar,"Old City, Sri Ganganagar - RSPCB",04-05-2024 01:00:00,29.931624,73.864511,SO2,4,17,9
India,Rajasthan,Tonk,"Shastri Nagar, Tonk - RSPCB",04-05-2024 01:00:00,26.159933,75.780517,SO2,1,23,7
India,Rajasthan,Udaipur,"Ashok Nagar, Udaipur - RSPCB",04-05-2024 01:00:00,24.5886166,73.6321397,PM2.5,56,189,110
India,Rajasthan,Udaipur,"Ashok Nagar, Udaipur - RSPCB",04-05-2024 01:00:00,24.5886166,73.6321397,PM10,108,153,125
India,Rajasthan,Udaipur,"Ashok Nagar, Udaipur - RSPCB",04-05-2024 01:00:00,24.5886166,73.6321397,OZONE,8,110,40
India,Sikkim,Gangtok,"Zero Point GICI, Gangtok - SSPCB",04-05-2024 01:00:00,27.338530,88.614099,NH3,1,1,1
India,TamilNadu,Ariyalur,"Keelapalur, Ariyalur - TNPCB",04-05-2024 01:00:00,11.06825,79.07033,PM2.5,26,71,46
India,TamilNadu,Chennai,"Alandur Bus Depot, Chennai - CPCB",04-05-2024 01:00:00,12.9099161,80.1076538,CO,65,103,77
India,TamilNadu,Chennai,"Alandur Bus Depot, Chennai - CPCB",04-05-2024 01:00:00,12.9099161,80.1076538,OZONE,5,9,6
India,TamilNadu,Chennai,"Kodungaiyur, Chennai - TNPCB",04-05-2024 01:00:00,13.1278,80.2642,PM10,20,100,47
India,TamilNadu,Chennai,"Manali, Chennai - CPCB",04-05-2024 01:00:00,13.164544,80.26285,OZONE,NA,NA,NA
India,TamilNadu,Chennai,"Perungudi, Chennai - TNPCB",04-05-2024 01:00:00,12.9533,80.2357,SO2,1,8,4
India,TamilNadu,Chennai,"Royapuram, Chennai - TNPCB",04-05-2024 01:00:00,13.1036,80.2909,PM2.5,12,30,24
India,TamilNadu,Chennai,"Royapuram, Chennai - TNPCB",04-05-2024 01:00:00,13.1036,80.2909,NO2,2,13,8
India,TamilNadu,Chennai,"Royapuram, Chennai - TNPCB",04-05-2024 01:00:00,13.1036,80.2909,NH3,1,1,1
India,TamilNadu,Chennai,"Royapuram, Chennai - TNPCB",04-05-2024 01:00:00,13.1036,80.2909,OZONE,9,11,9
India,TamilNadu,Cuddalore,"Kudikadu, Cuddalore - TNPCB",04-05-2024 01:00:00,11.6829898,79.7532099,PM2.5,47,102,66
India,TamilNadu,Cuddalore,"Kudikadu, Cuddalore - TNPCB",04-05-2024 01:00:00,11.6829898,79.7532099,PM10,57,114,80
India,TamilNadu,Cuddalore,"Kudikadu, Cuddalore - TNPCB",04-05-2024 01:00:00,11.6829898,79.7532099,NO2,NA,NA,NA
India,TamilNadu,Cuddalore,"Semmandalam, Cuddalore - TNPCB",04-05-2024 01:00:00,11.7637683,79.7499835,NO2,2,11,4
India,TamilNadu,Palkalaiperur,"Bharathidasan University, Palkalaiperur - TNPCB",04-05-2024 01:00:00,10.681158,78.741746,OZONE,1,5,1
India,TamilNadu,Ramanathapuram,"Chalai Bazaar, Ramanathapuram - TNPCB",04-05-2024 01:00:00,9.36399,78.831977,CO,2,7,5
India,TamilNadu,Salem,"Sona College of Technology, Salem - TNPCB",04-05-2024 01:00:00,11.679111,78.125052,NH3,1,1,1
India,TamilNadu,Thoothukudi,"Meelavittan, Thoothukudi - TNPCB",04-05-2024 01:00:00,8.816428 ,78.099039,PM10,48,98,72
India,TamilNadu,Thoothukudi,"Meelavittan, Thoothukudi - TNPCB",04-05-2024 01:00:00,8.816428 ,78.099039,CO,3,124,72
India,TamilNadu,Thoothukudi,"Meelavittan, Thoothukudi - TNPCB",04-05-2024 01:00:00,8.816428 ,78.099039,OZONE,21,196,46
India,TamilNadu,Tirupur,"Kumaran College, Tirupur - TNPCB",04-05-2024 01:00:00,11.0973603,77.3228673,NO2,NA,NA,NA
India,TamilNadu,Tirupur,"Kumaran College, Tirupur - TNPCB",04-05-2024 01:00:00,11.0973603,77.3228673,CO,20,41,31
India,TamilNadu,Vellore,"Vasanthapuram, Vellore - TNPCB",04-05-2024 01:00:00,12.909494,79.131861,PM2.5,NA,NA,NA
India,TamilNadu,Virudhunagar,"Collectorate Office, Virudhunagar - TNPCB",04-05-2024 01:00:00,9.559382,77.948828,SO2,NA,NA,NA
India,TamilNadu,Virudhunagar,"Collectorate Office, Virudhunagar - TNPCB",04-05-2024 01:00:00,9.559382,77.948828,CO,27,28,28
India,Telangana,Hyderabad,"Bollaram Industrial Area, Hyderabad - TSPCB",04-05-2024 01:00:00,17.540891,78.358528,PM2.5,NA,NA,NA
India,Telangana,Hyderabad,"Bollaram Industrial Area, Hyderabad - TSPCB",04-05-2024 01:00:00,17.540891,78.358528,NH3,3,19,6
India,Telangana,Hyderabad,"ECIL Kapra, Hyderabad - TSPCB",04-05-2024 01:00:00,17.470431,78.566959,PM10,61,82,69
India,Telangana,Hyderabad,"ECIL Kapra, Hyderabad - TSPCB",04-05-2024 01:00:00,17.470431,78.566959,OZONE,6,68,26
India,Telangana,Hyderabad,"Kokapet, Hyderabad - TSPCB",04-05-2024 01:00:00,17.393559,78.339194,PM2.5,NA,NA,NA
India,Telangana,Hyderabad,"Kokapet, Hyderabad - TSPCB",04-05-2024 01:00:00,17.393559,78.339194,OZONE,3,7,4
India,Telangana,Hyderabad,"Kompally Municipal Office, Hyderabad - TSPCB",04-05-2024 01:00:00,17.544899,78.486949,PM2.5,39,61,50
India,Telangana,Hyderabad,"New Malakpet, Hyderabad - TSPCB",04-05-2024 01:00:00,17.37206,78.50864,PM10,64,133,104
India,Telangana,Hyderabad,"Ramachandrapuram, Hyderabad - TSPCB",04-05-2024 01:00:00,17.528544,78.286195,PM10,NA,NA,NA
India,Telangana,Hyderabad,"Sanathnagar, Hyderabad - TSPCB",04-05-2024 01:00:00,17.4559458,78.4332152,PM2.5,40,185,100
India,Telangana,Hyderabad,"Sanathnagar, Hyderabad - TSPCB",04-05-2024 01:00:00,17.4559458,78.4332152,SO2,7,24,13
India,Telangana,Hyderabad,"Sanathnagar, Hyderabad - TSPCB",04-05-2024 01:00:00,17.4559458,78.4332152,CO,26,68,46
India,Telangana,Hyderabad,"Sanathnagar, Hyderabad - TSPCB",04-05-2024 01:00:00,17.4559458,78.4332152,OZONE,14,18,15
India,Telangana,Hyderabad,"Somajiguda, Hyderabad - TSPCB",04-05-2024 01:00:00,17.417094,78.457437,NO2,19,83,44
India,Telangana,Hyderabad,"Somajiguda, Hyderabad - TSPCB",04-05-2024 01:00:00,17.417094,78.457437,SO2,18,32,22
India,Telangana,Hyderabad,"Somajiguda, Hyderabad - TSPCB",04-05-2024 01:00:00,17.417094,78.457437,CO,20,106,66
India,Telangana,Hyderabad,"Somajiguda, Hyderabad - TSPCB",04-05-2024 01:00:00,17.417094,78.457437,OZONE,10,57,14
India,Telangana,Hyderabad,"Zoo Park, Hyderabad - TSPCB",04-05-2024 01:00:00,17.349694,78.451437,PM2.5,24,174,109
India,Telangana,Hyderabad,"Zoo Park, Hyderabad - TSPCB",04-05-2024 01:00:00,17.349694,78.451437,CO,29,117,89
India,Telangana,Hyderabad,"Zoo Park, Hyderabad - TSPCB",04-05-2024 01:00:00,17.349694,78.451437,OZONE,14,52,20
India,Uttar_Pradesh,Agra,"Manoharpur, Agra - UPPCB",04-05-2024 01:00:00,27.23711,78.01936,NO2,26,26,26
India,Uttar_Pradesh,Agra,"Rohta, Agra - UPPCB",04-05-2024 01:00:00,27.106972,78.000111,NH3,2,2,2
India,Uttar_Pradesh,Agra,"Sanjay Palace, Agra - UPPCB",04-05-2024 01:00:00,27.19865833,78.00598056,PM2.5,13,67,35
India,Uttar_Pradesh,Agra,"Sanjay Palace, Agra - UPPCB",04-05-2024 01:00:00,27.19865833,78.00598056,OZONE,2,53,18
India,Uttar_Pradesh,Agra,"Shahjahan Garden, Agra - UPPCB",04-05-2024 01:00:00,27.169338,78.03582,OZONE,NA,NA,NA
India,Uttar_Pradesh,Agra,"Shastripuram, Agra - UPPCB",04-05-2024 01:00:00,27.19862,77.92066,PM2.5,4,226,75
India,Uttar_Pradesh,Bareilly,"Civil Lines, Bareilly - UPPCB",04-05-2024 01:00:00,28.359581,79.414455,CO,12,113,49
India,Uttar_Pradesh,Bareilly,"Rajendra Nagar, Bareilly - UPPCB",04-05-2024 01:00:00,28.38910936,79.42963708,CO,6,101,52
India,Uttar_Pradesh,Bulandshahr,"Yamunapuram, Bulandshahr - UPPCB",04-05-2024 01:00:00,28.406963,77.849831,PM10,102,282,187
India,Uttar_Pradesh,Bulandshahr,"Yamunapuram, Bulandshahr - UPPCB",04-05-2024 01:00:00,28.406963,77.849831,CO,20,82,53
India,Uttar_Pradesh,Firozabad,"Nagla Bhau, Firozabad - UPPCB",04-05-2024 01:00:00,27.168897,78.376960,NH3,2,2,2
India,Uttar_Pradesh,Firozabad,"Vibhab Nagar, Firozabad - UPPCB",04-05-2024 01:00:00,27.1594,78.3953,CO,12,33,21
India,Uttar_Pradesh,Ghaziabad,"Indirapuram, Ghaziabad - UPPCB",04-05-2024 01:00:00,28.646233,77.358075,PM2.5,62,267,154
India,Uttar_Pradesh,Ghaziabad,"Indirapuram, Ghaziabad - UPPCB",04-05-2024 01:00:00,28.646233,77.358075,PM10,156,354,234
India,Uttar_Pradesh,Ghaziabad,"Indirapuram, Ghaziabad - UPPCB",04-05-2024 01:00:00,28.646233,77.358075,NO2,30,79,58
India,Uttar_Pradesh,Ghaziabad,"Loni, Ghaziabad - UPPCB",04-05-2024 01:00:00,28.757294,77.278792,OZONE,20,126,60
India,Uttar_Pradesh,Ghaziabad,"Vasundhara, Ghaziabad - UPPCB",04-05-2024 01:00:00,28.6603346,77.3572563,PM10,121,228,153
India,Uttar_Pradesh,Ghaziabad,"Vasundhara, Ghaziabad - UPPCB",04-05-2024 01:00:00,28.6603346,77.3572563,CO,2,76,49
India,Uttar_Pradesh,Ghaziabad,"Vasundhara, Ghaziabad - UPPCB",04-05-2024 01:00:00,28.6603346,77.3572563,OZONE,27,151,68
India,Uttar_Pradesh,Greater Noida,"Knowledge Park - III, Greater Noida - UPPCB",04-05-2024 01:00:00,28.47272,77.482000,PM10,176,421,266
India,Uttar_Pradesh,Greater Noida,"Knowledge Park - III, Greater Noida - UPPCB",04-05-2024 01:00:00,28.47272,77.482000,NO2,21,160,98
India,Uttar_Pradesh,Greater Noida,"Knowledge Park - III, Greater Noida - UPPCB",04-05-2024 01:00:00,28.47272,77.482000,NH3,NA,NA,NA
India,Uttar_Pradesh,Greater Noida,"Knowledge Park - V, Greater Noida - UPPCB",04-05-2024 01:00:00,28.557054,77.453663,PM2.5,77,348,201
India,Uttar_Pradesh,Greater Noida,"Knowledge Park - V, Greater Noida - UPPCB",04-05-2024 01:00:00,28.557054,77.453663,NO2,22,57,39
India,Uttar_Pradesh,Greater Noida,"Knowledge Park - V, Greater Noida - UPPCB",04-05-2024 01:00:00,28.557054,77.453663,SO2,2,79,33
India,Uttar_Pradesh,Hapur,"Anand Vihar, Hapur - UPPCB",04-05-2024 01:00:00,28.725645,77.749675,NO2,4,66,18
India,Uttar_Pradesh,Hapur,"Anand Vihar, Hapur - UPPCB",04-05-2024 01:00:00,28.725645,77.749675,SO2,13,101,52
India,Uttar_Pradesh,Jhansi,"Shivaji Nagar, Jhansi - UPPCB",04-05-2024 01:00:00,25.4547,78.6039,NO2,1,101,30
India,Uttar_Pradesh,Jhansi,"Shivaji Nagar, Jhansi - UPPCB",04-05-2024 01:00:00,25.4547,78.6039,OZONE,8,75,50
India,Uttar_Pradesh,Kanpur,"FTI Kidwai Nagar, Kanpur - UPPCB",04-05-2024 01:00:00,26.428282,80.327067,SO2,25,26,25
India,Uttar_Pradesh,Kanpur,"FTI Kidwai Nagar, Kanpur - UPPCB",04-05-2024 01:00:00,26.428282,80.327067,OZONE,9,14,11
India,Uttar_Pradesh,Kanpur,"NSI Kalyanpur, Kanpur - UPPCB",04-05-2024 01:00:00,26.509954,80.249612,CO,36,84,59
India,Uttar_Pradesh,Khurja,"Kalindi Kunj, Khurja - UPPCB",04-05-2024 01:00:00,28.2348927,77.8683002,NO2,3,4,3
India,Uttar_Pradesh,Khurja,"Kalindi Kunj, Khurja - UPPCB",04-05-2024 01:00:00,28.2348927,77.8683002,NH3,1,2,2
India,Uttar_Pradesh,Lucknow,"B R Ambedkar University, Lucknow - UPPCB",04-05-2024 01:00:00,26.766433,80.927299,CO,22,35,28
India,Uttar_Pradesh,Lucknow,"Kendriya Vidyalaya, Lucknow - CPCB",04-05-2024 01:00:00,26.906111,80.948222,PM10,113,142,127
India,Uttar_Pradesh,Lucknow,"Kendriya Vidyalaya, Lucknow - CPCB",04-05-2024 01:00:00,26.906111,80.948222,OZONE,21,151,78
India,Uttar_Pradesh,Lucknow,"Lalbagh, Lucknow - CPCB",04-05-2024 01:00:00,26.8458805,80.9365541,SO2,1,17,8
India,Uttar_Pradesh,Lucknow,"Lalbagh, Lucknow - CPCB",04-05-2024 01:00:00,26.8458805,80.9365541,CO,51,114,100
India,Uttar_Pradesh,Lucknow,"Talkatora District Industries Center, Lucknow - CPCB",04-05-2024 01:00:00,26.83399722,80.8917361,NH3,9,25,14
India,Uttar_Pradesh,Meerut,"Ganga Nagar, Meerut - UPPCB",04-05-2024 01:00:00,28.999264,77.7590354,PM2.5,36,293,113
India,Uttar_Pradesh,Meerut,"Pallavpuram Phase 2, Meerut - UPPCB",04-05-2024 01:00:00,29.063510,77.709723,PM10,127,333,208
India,Uttar_Pradesh,Meerut,"Pallavpuram Phase 2, Meerut - UPPCB",04-05-2024 01:00:00,29.063510,77.709723,OZONE,10,81,33
India,Uttar_Pradesh,Moradabad,"Buddhi Vihar, Moradabad - UPPCB",04-05-2024 01:00:00,28.83526,78.74460,SO2,14,21,17
India,Uttar_Pradesh,Moradabad,"Employment Office, Moradabad - UPPCB",04-05-2024 01:00:00,28.88528,78.73880,PM2.5,32,77,55
India,Uttar_Pradesh,Moradabad,"Employment Office, Moradabad - UPPCB",04-05-2024 01:00:00,28.88528,78.73880,PM10,99,143,118
India,Uttar_Pradesh,Moradabad,"Employment Office, Moradabad - UPPCB",04-05-2024 01:00:00,28.88528,78.73880,CO,11,60,36
India,Uttar_Pradesh,Moradabad,"Jigar Colony, Moradabad - UPPCB",04-05-2024 01:00:00,28.856664,78.772638,PM10,86,148,120
India,Uttar_Pradesh,Moradabad,"Kashiram Nagar, Moradabad - UPPCB",04-05-2024 01:00:00,28.849399,78.742362,SO2,38,53,46
India,Uttar_Pradesh,Moradabad,"Kashiram Nagar, Moradabad - UPPCB",04-05-2024 01:00:00,28.849399,78.742362,CO,31,48,40
India,Uttar_Pradesh,Moradabad,"Transport Nagar, Moradabad - UPPCB",04-05-2024 01:00:00,28.802625,78.753728,PM2.5,25,133,56
India,Uttar_Pradesh,Moradabad,"Transport Nagar, Moradabad - UPPCB",04-05-2024 01:00:00,28.802625,78.753728,PM10,67,139,104
India,Uttar_Pradesh,Moradabad,"Transport Nagar, Moradabad - UPPCB",04-05-2024 01:00:00,28.802625,78.753728,SO2,49,65,56
India,Uttar_Pradesh,Muzaffarnagar,"New Mandi, Muzaffarnagar - UPPCB",04-05-2024 01:00:00,29.4723508,77.7194031,PM10,144,322,211
India,Uttar_Pradesh,Muzaffarnagar,"New Mandi, Muzaffarnagar - UPPCB",04-05-2024 01:00:00,29.4723508,77.7194031,OZONE,34,81,49
India,Uttar_Pradesh,Noida,"Sector - 62, Noida - IMD",04-05-2024 01:00:00,28.6245479,77.3577104,NO2,9,33,20
India,Uttar_Pradesh,Noida,"Sector - 62, Noida - IMD",04-05-2024 01:00:00,28.6245479,77.3577104,CO,24,40,32
India,Uttar_Pradesh,Noida,"Sector-1, Noida - UPPCB",04-05-2024 01:00:00,28.5898,77.3101,OZONE,1,205,47
India,Uttar_Pradesh,Noida,"Sector-116, Noida - UPPCB",04-05-2024 01:00:00,28.569230,77.393848,PM2.5,72,339,207
India,Uttar_Pradesh,Noida,"Sector-116, Noida - UPPCB",04-05-2024 01:00:00,28.569230,77.393848,SO2,10,59,29
India,Uttar_Pradesh,Prayagraj,"Jhunsi, Prayagraj - UPPCB",04-05-2024 01:00:00,25.425602,81.917152,PM2.5,26,91,50
India,Uttar_Pradesh,Prayagraj,"Motilal Nehru NIT, Prayagraj - UPPCB",04-05-2024 01:00:00,25.494,81.863,PM2.5,21,59,38
India,Uttar_Pradesh,Prayagraj,"Motilal Nehru NIT, Prayagraj - UPPCB",04-05-2024 01:00:00,25.494,81.863,NH3,6,8,6
India,Uttar_Pradesh,Prayagraj,"Nagar Nigam, Prayagraj - UPPCB",04-05-2024 01:00:00,25.44919916 ,81.82735986 ,PM2.5,41,103,62
India,Uttar_Pradesh,Prayagraj,"Nagar Nigam, Prayagraj - UPPCB",04-05-2024 01:00:00,25.44919916 ,81.82735986 ,NH3,1,8,5
India,Uttar_Pradesh,Varanasi,"Ardhali Bazar, Varanasi - UPPCB",04-05-2024 01:00:00,25.3505986,82.9083074,PM10,20,100,62
India,Uttar_Pradesh,Varanasi,"IESD Banaras Hindu University, Varanasi - UPPCB",04-05-2024 01:00:00,25.262326,82.995408,PM10,22,74,39
India,Uttar_Pradesh,Varanasi,"IESD Banaras Hindu University, Varanasi - UPPCB",04-05-2024 01:00:00,25.262326,82.995408,OZONE,1,5,3
India,Uttar_Pradesh,Varanasi,"Maldahiya, Varanasi - UPPCB",04-05-2024 01:00:00,25.32393,82.99687,PM2.5,17,46,29
India,Uttar_Pradesh,Vrindavan,"Omex Eternity, Vrindavan - UPPCB",04-05-2024 01:00:00,27.5714090,77.6557570,PM10,48,266,116
India,Uttarakhand,Dehradun,"Doon University, Dehradun - UKPCB",04-05-2024 01:00:00,30.269444,78.044167,PM2.5,60,128,88
India,Uttarakhand,Kashipur,"Govt. Girls Inter College, Kashipur - UKPCB",04-05-2024 01:00:00,29.2124114,78.9611753,PM2.5,61,161,95
India,Uttarakhand,Kashipur,"Govt. Girls Inter College, Kashipur - UKPCB",04-05-2024 01:00:00,29.2124114,78.9611753,NO2,17,31,25
India,Uttarakhand,Kashipur,"Govt. Girls Inter College, Kashipur - UKPCB",04-05-2024 01:00:00,29.2124114,78.9611753,NH3,4,7,6
India,Uttarakhand,Rishikesh,"Shivaji Nagar, Rishikesh - UKPCB",04-05-2024 01:00:00,30.075911,78.2859547,CO,16,56,32
India,West_Bengal,Asansol,"Asansol Court Area, Asansol - WBPCB",04-05-2024 01:00:00,23.685297,86.945968,NO2,21,140,48
India,West_Bengal,Asansol,"Asansol Court Area, Asansol - WBPCB",04-05-2024 01:00:00,23.685297,86.945968,NH3,7,19,10
India,West_Bengal,Asansol,"Asansol Court Area, Asansol - WBPCB",04-05-2024 01:00:00,23.685297,86.945968,SO2,6,19,11
India,West_Bengal,Barrackpore,"SVSPA Campus, Barrackpore - WBPCB",04-05-2024 01:00:00,22.7605581,88.3617589,NH3,1,2,1
India,West_Bengal,Barrackpore,"SVSPA Campus, Barrackpore - WBPCB",04-05-2024 01:00:00,22.7605581,88.3617589,OZONE,2,91,39
India,West_Bengal,Durgapur,"PCBL Residential Complex, Durgapur - WBPCB",04-05-2024 01:00:00,23.5087640,87.3544400,PM2.5,NA,NA,NA
India,West_Bengal,Durgapur,"PCBL Residential Complex, Durgapur - WBPCB",04-05-2024 01:00:00,23.5087640,87.3544400,PM10,NA,NA,NA
India,West_Bengal,Durgapur,"Sidhu Kanhu Indoor Stadium, Durgapur - WBPCB",04-05-2024 01:00:00,23.5404352,87.2892225,PM2.5,103,319,229
India,West_Bengal,Durgapur,"Sidhu Kanhu Indoor Stadium, Durgapur - WBPCB",04-05-2024 01:00:00,23.5404352,87.2892225,NH3,4,8,5
India,West_Bengal,Haldia,"Priyambada Housing Estate, Haldia - WBPCB",04-05-2024 01:00:00,22.06047,88.109737,CO,18,34,23
India,West_Bengal,Howrah,"Padmapukur, Howrah - WBPCB",04-05-2024 01:00:00,22.5687319,88.2797276,PM10,45,143,94
India,West_Bengal,Kolkata,"Ballygunge, Kolkata - WBPCB",04-05-2024 01:00:00,22.5367507,88.3638022,NH3,6,10,8
India,West_Bengal,Kolkata,"Jadavpur, Kolkata - WBPCB",04-05-2024 01:00:00,22.49929,88.36917,PM10,34,110,76
India,West_Bengal,Kolkata,"Rabindra Bharati University, Kolkata - WBPCB",04-05-2024 01:00:00,22.627847,88.380669,SO2,7,12,8
India,West_Bengal,Kolkata,"Rabindra Sarobar, Kolkata - WBPCB",04-05-2024 01:00:00,22.51106,88.35142,PM2.5,23,85,52
India,West_Bengal,Kolkata,"Rabindra Sarobar, Kolkata - WBPCB",04-05-2024 01:00:00,22.51106,88.35142,NH3,6,11,9
India,West_Bengal,Kolkata,"Rabindra Sarobar, Kolkata - WBPCB",04-05-2024 01:00:00,22.51106,88.35142,OZONE,21,114,51
India,West_Bengal,Kolkata,"Victoria, Kolkata - WBPCB",04-05-2024 01:00:00,22.5448082,88.3403691,NO2,14,209,41
India,West_Bengal,Kolkata,"Victoria, Kolkata - WBPCB",04-05-2024 01:00:00,22.5448082,88.3403691,OZONE,12,87,35
India,West_Bengal,Siliguri,"Ward-32 Bapupara, Siliguri - WBPCB",04-05-2024 01:00:00,26.6879226,88.4152495,PM2.5,63,115,85
India,West_Bengal,Siliguri,"Ward-32 Bapupara, Siliguri - WBPCB",04-05-2024 01:00:00,26.6879226,88.4152495,PM10,104,167,130
India,Andhra_Pradesh,Amaravati,"Secretariat, Amaravati - APPCB",04-05-2024 01:00:00,16.5150833,80.5181667,SO2,6,11,9
India,Andhra_Pradesh,Amaravati,"Secretariat, Amaravati - APPCB",04-05-2024 01:00:00,16.5150833,80.5181667,CO,2,62,26
India,Andhra_Pradesh,Anantapur,"Gulzarpet, Anantapur - APPCB",04-05-2024 01:00:00,14.675886,77.593027,NO2,12,13,12
India,Andhra_Pradesh,Anantapur,"Gulzarpet, Anantapur - APPCB",04-05-2024 01:00:00,14.675886,77.593027,NH3,4,4,4
India,Andhra_Pradesh,Anantapur,"Gulzarpet, Anantapur - APPCB",04-05-2024 01:00:00,14.675886,77.593027,CO,22,123,67
India,Andhra_Pradesh,Chittoor,"Gangineni Cheruvu, Chittoor - APPCB",04-05-2024 01:00:00,13.204880,79.097889,PM2.5,NA,NA,NA
India,Andhra_Pradesh,Chittoor,"Gangineni Cheruvu, Chittoor - APPCB",04-05-2024 01:00:00,13.204880,79.097889,PM10,NA,NA,NA
India,Andhra_Pradesh,Kadapa,"Yerramukkapalli, Kadapa - APPCB",04-05-2024 01:00:00,14.465052,78.824187,PM10,NA,NA,NA
India,Andhra_Pradesh,Kadapa,"Yerramukkapalli, Kadapa - APPCB",04-05-2024 01:00:00,14.465052,78.824187,CO,NA,NA,NA
India,Andhra_Pradesh,Kadapa,"Yerramukkapalli, Kadapa - APPCB",04-05-2024 01:00:00,14.465052,78.824187,OZONE,NA,NA,NA
India,Andhra_Pradesh,Tirupati,"Tirumala, Tirupati - APPCB",04-05-2024 01:00:00,13.67,79.35,OZONE,24,58,32
India,Andhra_Pradesh,Vijayawada,"HB Colony, Vijayawada - APPCB",04-05-2024 01:00:00,16.536107,80.594233,PM2.5,37,62,48
India,Andhra_Pradesh,Vijayawada,"HB Colony, Vijayawada - APPCB",04-05-2024 01:00:00,16.536107,80.594233,NO2,6,13,9
India,Andhra_Pradesh,Vijayawada,"HB Colony, Vijayawada - APPCB",04-05-2024 01:00:00,16.536107,80.594233,NH3,4,4,4
India,Andhra_Pradesh,Vijayawada,"HB Colony, Vijayawada - APPCB",04-05-2024 01:00:00,16.536107,80.594233,SO2,5,7,6
India,Andhra_Pradesh,Vijayawada,"HB Colony, Vijayawada - APPCB",04-05-2024 01:00:00,16.536107,80.594233,OZONE,17,313,35
India,Andhra_Pradesh,Vijayawada,"Kanuru, Vijayawada - APPCB",04-05-2024 01:00:00,16.486692,80.699436,PM10,53,81,64
India,Andhra_Pradesh,Vijayawada,"Kanuru, Vijayawada - APPCB",04-05-2024 01:00:00,16.486692,80.699436,SO2,7,14,11
India,Andhra_Pradesh,Vijayawada,"Kanuru, Vijayawada - APPCB",04-05-2024 01:00:00,16.486692,80.699436,OZONE,28,28,28
India,Andhra_Pradesh,Vijayawada,"Rajiv Gandhi Park, Vijayawada - APPCB",04-05-2024 01:00:00,16.509717,80.612222,PM2.5,39,144,76
India,Andhra_Pradesh,Vijayawada,"Rajiv Gandhi Park, Vijayawada - APPCB",04-05-2024 01:00:00,16.509717,80.612222,PM10,34,105,64
India,Andhra_Pradesh,Vijayawada,"Rajiv Gandhi Park, Vijayawada - APPCB",04-05-2024 01:00:00,16.509717,80.612222,SO2,7,9,8
India,Andhra_Pradesh,Vijayawada,"Rajiv Gandhi Park, Vijayawada - APPCB",04-05-2024 01:00:00,16.509717,80.612222,CO,36,42,41
India,Andhra_Pradesh,Visakhapatnam,"GVM Corporation, Visakhapatnam - APPCB",04-05-2024 01:00:00,17.72,83.3,CO,1,94,56
India,Assam,Guwahati,"IITG, Guwahati - PCBA",04-05-2024 01:00:00,26.2028636,91.70046436,CO,8,12,10
India,Assam,Guwahati,"LGBI Airport, Guwahati - PCBA",04-05-2024 01:00:00,26.10887,91.589544,NH3,3,5,4
India,Assam,Guwahati,"LGBI Airport, Guwahati - PCBA",04-05-2024 01:00:00,26.10887,91.589544,OZONE,2,24,10
India,Assam,Guwahati,"Pan Bazaar, Guwahati - PCBA",04-05-2024 01:00:00,26.187500,91.744194,PM2.5,32,59,46
India,Assam,Guwahati,"Railway Colony, Guwahati - PCBA",04-05-2024 01:00:00,26.181742,91.78063,PM10,79,424,200
India,Assam,Guwahati,"Railway Colony, Guwahati - PCBA",04-05-2024 01:00:00,26.181742,91.78063,CO,13,66,29
India,Assam,Guwahati,"Railway Colony, Guwahati - PCBA",04-05-2024 01:00:00,26.181742,91.78063,OZONE,3,32,12
India,Assam,Nagaon,"Christianpatty, Nagaon - PCBA",04-05-2024 01:00:00,26.349082,92.68449,NO2,1,31,11
India,Assam,Silchar,"Tarapur, Silchar - PCBA",04-05-2024 01:00:00,24.82827,92.79525,NO2,12,13,13
India,Assam,Sivasagar,"Girls College, Sivasagar - PCBA",04-05-2024 01:00:00,26.987634,94.636574,PM2.5,37,53,46
India,Bihar,Araria,"Kharahiya Basti, Araria - BSPCB",04-05-2024 01:00:00,26.146529,87.454184,NH3,6,7,7
India,Bihar,Araria,"Kharahiya Basti, Araria - BSPCB",04-05-2024 01:00:00,26.146529,87.454184,SO2,13,17,16
India,Bihar,Arrah,"New DM Office, Arrah - BSPCB",04-05-2024 01:00:00,25.5626095,84.663264,PM2.5,NA,NA,NA
India,Bihar,Bettiah,"Kamalnath Nagar, Bettiah - BSPCB",04-05-2024 01:00:00,26.80365,84.51954,SO2,6,23,12
India,Bihar,Bhagalpur,"DM Office_Kachari Chowk, Bhagalpur - BSPCB",04-05-2024 01:00:00,25.251013,86.989001,PM10,NA,NA,NA
India,Bihar,Bhagalpur,"DM Office_Kachari Chowk, Bhagalpur - BSPCB",04-05-2024 01:00:00,25.251013,86.989001,NO2,58,226,93
India,Bihar,Bhagalpur,"DM Office_Kachari Chowk, Bhagalpur - BSPCB",04-05-2024 01:00:00,25.251013,86.989001,SO2,16,17,16
India,Bihar,Bhagalpur,"Mayaganj, Bhagalpur - BSPCB",04-05-2024 01:00:00,25.265194,87.012947,PM2.5,58,263,124
India,Bihar,Bhagalpur,"Mayaganj, Bhagalpur - BSPCB",04-05-2024 01:00:00,25.265194,87.012947,PM10,51,139,88
India,Bihar,Bhagalpur,"Mayaganj, Bhagalpur - BSPCB",04-05-2024 01:00:00,25.265194,87.012947,NH3,7,10,8
India,Bihar,Bhagalpur,"Mayaganj, Bhagalpur - BSPCB",04-05-2024 01:00:00,25.265194,87.012947,CO,8,10,9
India,Bihar,Bihar Sharif,"D M Colony, Bihar Sharif - BSPCB",04-05-2024 01:00:00,25.204762,85.514960,SO2,1,15,12
India,Bihar,Buxar,"Charitra Van, Buxar - BSPCB (Formerly known as Central Jail)",04-05-2024 01:00:00,25.567520,83.966379,PM2.5,NA,NA,NA
India,Bihar,Buxar,"Charitra Van, Buxar - BSPCB (Formerly known as Central Jail)",04-05-2024 01:00:00,25.567520,83.966379,NO2,1,1,1
India,Bihar,Buxar,"Charitra Van, Buxar - BSPCB (Formerly known as Central Jail)",04-05-2024 01:00:00,25.567520,83.966379,NH3,3,4,3
India,Bihar,Buxar,"Charitra Van, Buxar - BSPCB (Formerly known as Central Jail)",04-05-2024 01:00:00,25.567520,83.966379,OZONE,23,304,87
India,Bihar,Chhapra,"Darshan Nagar, Chhapra - BSPCB",04-05-2024 01:00:00,25.7808257,84.7446768,NH3,NA,NA,NA
India,Bihar,Chhapra,"Darshan Nagar, Chhapra - BSPCB",04-05-2024 01:00:00,25.7808257,84.7446768,SO2,NA,NA,NA
India,Bihar,Gaya,"Collectorate, Gaya - BSPCB",04-05-2024 01:00:00,24.7955,84.9994,PM2.5,38,334,151
India,Bihar,Gaya,"Collectorate, Gaya - BSPCB",04-05-2024 01:00:00,24.7955,84.9994,NO2,1,4,2
India,Bihar,Gaya,"Collectorate, Gaya - BSPCB",04-05-2024 01:00:00,24.7955,84.9994,OZONE,47,77,63
India,Bihar,Gaya,"Kareemganj, Gaya - BSPCB",04-05-2024 01:00:00,24.792403,84.992416,PM10,39,166,92
India,Bihar,Gaya,"Kareemganj, Gaya - BSPCB",04-05-2024 01:00:00,24.792403,84.992416,OZONE,3,16,13
India,Bihar,Gaya,"SFTI Kusdihra, Gaya - BSPCB",04-05-2024 01:00:00,24.762518,84.982348,PM2.5,43,200,111
India,Bihar,Gaya,"SFTI Kusdihra, Gaya - BSPCB",04-05-2024 01:00:00,24.762518,84.982348,PM10,50,106,82
India,Bihar,Gaya,"SFTI Kusdihra, Gaya - BSPCB",04-05-2024 01:00:00,24.762518,84.982348,OZONE,5,92,47
India,Bihar,Hajipur,"Industrial Area, Hajipur - BSPCB",04-05-2024 01:00:00,25.697189,85.245900,PM10,150,500,276
India,Bihar,Katihar,"Mirchaibari, Katihar - BSPCB",04-05-2024 01:00:00,25.560083,87.553265,OZONE,12,58,21
India,Bihar,Kishanganj,"SDM Office_Khagra, Kishanganj - BSPCB",04-05-2024 01:00:00,26.0881305,87.93840336,OZONE,26,85,57
India,Bihar,Manguraha,"Forest Rest House, Manguraha - BSPCB",04-05-2024 01:00:00,27.308328,84.531742,PM10,NA,NA,NA
India,Bihar,Manguraha,"Forest Rest House, Manguraha - BSPCB",04-05-2024 01:00:00,27.308328,84.531742,NO2,11,24,18
India,Bihar,Manguraha,"Forest Rest House, Manguraha - BSPCB",04-05-2024 01:00:00,27.308328,84.531742,CO,6,74,71
India,Bihar,Motihari,"Gandak Colony, Motihari - BSPCB",04-05-2024 01:00:00,26.63086,84.90051,PM2.5,NA,NA,NA
India,Bihar,Motihari,"Gandak Colony, Motihari - BSPCB",04-05-2024 01:00:00,26.63086,84.90051,NH3,NA,NA,NA
India,Bihar,Munger,"Town Hall, Munger - BSPCB",04-05-2024 01:00:00,25.376776,86.471523,PM2.5,63,364,140
India,Bihar,Munger,"Town Hall, Munger - BSPCB",04-05-2024 01:00:00,25.376776,86.471523,NO2,4,6,5
India,Bihar,Muzaffarpur,"Buddha Colony, Muzaffarpur - BSPCB",04-05-2024 01:00:00,26.11442,85.39813,PM10,143,324,212
India,Bihar,Muzaffarpur,"MIT-Daudpur Kothi, Muzaffarpur - BSPCB",04-05-2024 01:00:00,26.1403345,85.3650192,PM10,101,224,142
India,Bihar,Muzaffarpur,"MIT-Daudpur Kothi, Muzaffarpur - BSPCB",04-05-2024 01:00:00,26.1403345,85.3650192,CO,6,101,43
India,Bihar,Muzaffarpur,"Muzaffarpur Collectorate, Muzaffarpur - BSPCB",04-05-2024 01:00:00,26.1209,85.3647,PM2.5,66,405,175
India,Bihar,Patna,"DRM Office Danapur, Patna - BSPCB",04-05-2024 01:00:00,25.586562,85.043586,NO2,10,137,61
India,Bihar,Patna,"DRM Office Danapur, Patna - BSPCB",04-05-2024 01:00:00,25.586562,85.043586,CO,20,130,86
India,Bihar,Patna,"Govt. High School Shikarpur, Patna - BSPCB",04-05-2024 01:00:00,25.592539,85.227158,SO2,8,12,10
India,Bihar,Patna,"Govt. High School Shikarpur, Patna - BSPCB",04-05-2024 01:00:00,25.592539,85.227158,OZONE,1,59,14
India,Bihar,Patna,"Muradpur, Patna - BSPCB",04-05-2024 01:00:00,25.619651,85.147382,NO2,27,116,72
India,Bihar,Patna,"Rajbansi Nagar, Patna - BSPCB",04-05-2024 01:00:00,25.599486,85.113666,NH3,8,29,14
India,Bihar,Patna,"Rajbansi Nagar, Patna - BSPCB",04-05-2024 01:00:00,25.599486,85.113666,OZONE,5,167,34
India,Bihar,Patna,"Samanpura, Patna - BSPCB",04-05-2024 01:00:00,25.596727,85.085624,SO2,8,21,12
India,Bihar,Patna,"Samanpura, Patna - BSPCB",04-05-2024 01:00:00,25.596727,85.085624,OZONE,4,194,63
India,Bihar,Rajgir,"Dangi Tola, Rajgir - BSPCB",04-05-2024 01:00:00,25.03280,85.41948,PM2.5,28,223,81
India,Bihar,Rajgir,"Dangi Tola, Rajgir - BSPCB",04-05-2024 01:00:00,25.03280,85.41948,PM10,32,153,79
India,Bihar,Rajgir,"Dangi Tola, Rajgir - BSPCB",04-05-2024 01:00:00,25.03280,85.41948,SO2,4,11,5
India,Bihar,Saharsa,"Police Line, Saharsa - BSPCB",04-05-2024 01:00:00,25.892357,86.590325,NH3,9,9,9
India,Bihar,Saharsa,"Police Line, Saharsa - BSPCB",04-05-2024 01:00:00,25.892357,86.590325,OZONE,12,50,28
India,Bihar,Samastipur,"DM Office_Kasipur, Samastipur - BSPCB",04-05-2024 01:00:00,25.859655,85.77944,NH3,1,5,3
India,Bihar,Samastipur,"DM Office_Kasipur, Samastipur - BSPCB",04-05-2024 01:00:00,25.859655,85.77944,SO2,10,10,10
India,Bihar,Samastipur,"DM Office_Kasipur, Samastipur - BSPCB",04-05-2024 01:00:00,25.859655,85.77944,CO,22,22,22
India,Bihar,Sasaram,"Dada Peer, Sasaram - BSPCB",04-05-2024 01:00:00,24.952822,84.002396,NH3,7,28,15
India,Bihar,Sasaram,"Dada Peer, Sasaram - BSPCB",04-05-2024 01:00:00,24.952822,84.002396,CO,86,87,87
India,Bihar,Siwan,"Chitragupta Nagar, Siwan - BSPCB",04-05-2024 01:00:00,26.2271665,84.3570427,NO2,21,106,37
India,Chandigarh,Chandigarh,"Sector 22, Chandigarh - CPCC",04-05-2024 01:00:00,30.735567,76.775714,NO2,16,53,27
India,Chandigarh,Chandigarh,"Sector 22, Chandigarh - CPCC",04-05-2024 01:00:00,30.735567,76.775714,NH3,5,14,7
India,Chandigarh,Chandigarh,"Sector-25, Chandigarh - CPCC",04-05-2024 01:00:00,30.751462,76.762879,PM2.5,67,153,107
India,Chandigarh,Chandigarh,"Sector-53, Chandigarh - CPCC",04-05-2024 01:00:00,30.719859,76.738637,NH3,3,6,4
India,Chhattisgarh,Bhilai,"Civic Center, Bhilai - Bhilai Steel Plant",04-05-2024 01:00:00,21.185571,81.343175,PM10,46,113,75
India,Chhattisgarh,Chhal,"Nawapara SECL Colony, Chhal - CECB",04-05-2024 01:00:00,22.118125,83.140608,PM10,75,111,93
India,Chhattisgarh,Chhal,"Nawapara SECL Colony, Chhal - CECB",04-05-2024 01:00:00,22.118125,83.140608,NO2,18,76,32
India,Chhattisgarh,Korba,"Rampur, Korba - CECB",04-05-2024 01:00:00,22.368195,82.746431,NO2,18,82,40
India,Chhattisgarh,Korba,"Urja Nagar, Korba - CECB",04-05-2024 01:00:00,22.348441,82.549611,OZONE,1,9,2
India,Chhattisgarh,Kunjemura,"OP Jindal School, Kunjemura - CECB",04-05-2024 01:00:00,22.126650,83.483212,PM2.5,47,348,168
India,Chhattisgarh,Kunjemura,"OP Jindal School, Kunjemura - CECB",04-05-2024 01:00:00,22.126650,83.483212,OZONE,4,122,42
India,Chhattisgarh,Milupara,"Govt. Higher Secondary School, Milupara - CECB",04-05-2024 01:00:00,22.1910172,83.5197009,PM2.5,NA,NA,NA
India,Chhattisgarh,Milupara,"Govt. Higher Secondary School, Milupara - CECB",04-05-2024 01:00:00,22.1910172,83.5197009,SO2,NA,NA,NA
India,Chhattisgarh,Milupara,"Govt. Higher Secondary School, Milupara - CECB",04-05-2024 01:00:00,22.1910172,83.5197009,CO,5,68,43
India,Chhattisgarh,Raipur,"Bhatagaon New ISBT, Raipur - CECB",04-05-2024 01:00:00,21.219665,81.630094,PM2.5,22,80,51
India,Chhattisgarh,Raipur,"Siltara Phase-II, Raipur - CECB",04-05-2024 01:00:00,21.371751,81.664929,PM10,64,183,117
India,Chhattisgarh,Tumidih,"OP Jindal Industrial Park, Tumidih - CECB",04-05-2024 01:00:00,22.06631475,83.33820077,PM10,63,482,131
India,Chhattisgarh,Tumidih,"OP Jindal Industrial Park, Tumidih - CECB",04-05-2024 01:00:00,22.06631475,83.33820077,SO2,5,25,8
India,Delhi,Delhi,"Alipur, Delhi - DPCC",04-05-2024 01:00:00,28.815329,77.153010,PM10,133,412,241
India,Delhi,Delhi,"Anand Vihar, Delhi - DPCC",04-05-2024 01:00:00,28.647622,77.3158090,PM10,155,402,283
India,Delhi,Delhi,"Anand Vihar, Delhi - DPCC",04-05-2024 01:00:00,28.647622,77.3158090,NH3,3,9,6
India,Delhi,Delhi,"Ashok Vihar, Delhi - DPCC",04-05-2024 01:00:00,28.695381,77.181665,PM10,154,345,278
India,Delhi,Delhi,"Aya Nagar, Delhi - IMD",04-05-2024 01:00:00,28.4706914,77.1099364,PM2.5,NA,NA,NA
India,Delhi,Delhi,"Aya Nagar, Delhi - IMD",04-05-2024 01:00:00,28.4706914,77.1099364,CO,39,100,47
India,Delhi,Delhi,"Bawana, Delhi - DPCC",04-05-2024 01:00:00,28.776200,77.051074,PM10,163,445,320
India,Delhi,Delhi,"Bawana, Delhi - DPCC",04-05-2024 01:00:00,28.776200,77.051074,NO2,15,92,48
India,Delhi,Delhi,"Bawana, Delhi - DPCC",04-05-2024 01:00:00,28.776200,77.051074,SO2,11,107,44
India,Delhi,Delhi,"Burari Crossing, Delhi - IMD",04-05-2024 01:00:00,28.7256504,77.2011573,PM2.5,97,392,256
India,Delhi,Delhi,"DTU, Delhi - CPCB",04-05-2024 01:00:00,28.7500499,77.1112615,PM10,144,500,306
India,Delhi,Delhi,"IHBAS, Dilshad Garden, Delhi - CPCB",04-05-2024 01:00:00,28.6811736,77.3025234,PM2.5,79,199,136
India,Delhi,Delhi,"IHBAS, Dilshad Garden, Delhi - CPCB",04-05-2024 01:00:00,28.6811736,77.3025234,NO2,25,78,44
India,Delhi,Delhi,"ITO, Delhi - CPCB",04-05-2024 01:00:00,28.628624,77.241060,PM2.5,62,342,213
India,Delhi,Delhi,"ITO, Delhi - CPCB",04-05-2024 01:00:00,28.628624,77.241060,NH3,2,7,4
India,Delhi,Delhi,"ITO, Delhi - CPCB",04-05-2024 01:00:00,28.628624,77.241060,OZONE,13,93,32
India,Delhi,Delhi,"Jahangirpuri, Delhi - DPCC",04-05-2024 01:00:00,28.732820,77.170633,PM2.5,72,422,273
India,Delhi,Delhi,"Jawaharlal Nehru Stadium, Delhi - DPCC",04-05-2024 01:00:00,28.580280,77.233829,PM10,136,380,218
India,Delhi,Delhi,"Jawaharlal Nehru Stadium, Delhi - DPCC",04-05-2024 01:00:00,28.580280,77.233829,NO2,30,184,113
India,Delhi,Delhi,"Jawaharlal Nehru Stadium, Delhi - DPCC",04-05-2024 01:00:00,28.580280,77.233829,SO2,13,82,35
India,Delhi,Delhi,"Lodhi Road, Delhi - IITM",04-05-2024 01:00:00,28.588333,77.221667,PM2.5,99,340,183
India,Delhi,Delhi,"Lodhi Road, Delhi - IMD",04-05-2024 01:00:00,28.5918245,77.2273074,CO,10,28,17
India,Delhi,Delhi,"Lodhi Road, Delhi - IMD",04-05-2024 01:00:00,28.5918245,77.2273074,OZONE,6,77,22
India,Delhi,Delhi,"Mundka, Delhi - DPCC",04-05-2024 01:00:00,28.684678,77.076574,PM10,172,474,352
India,Delhi,Delhi,"NSIT Dwarka, Delhi - CPCB",04-05-2024 01:00:00,28.60909,77.0325413,PM2.5,243,500,383
India,Delhi,Delhi,"NSIT Dwarka, Delhi - CPCB",04-05-2024 01:00:00,28.60909,77.0325413,CO,25,50,40
India,Delhi,Delhi,"Najafgarh, Delhi - DPCC",04-05-2024 01:00:00,28.570173,76.933762,NH3,5,16,11
India,Delhi,Delhi,"Narela, Delhi - DPCC",04-05-2024 01:00:00,28.822836,77.101981,PM2.5,55,396,251
India,Delhi,Delhi,"Narela, Delhi - DPCC",04-05-2024 01:00:00,28.822836,77.101981,NO2,10,80,42
India,Delhi,Delhi,"Nehru Nagar, Delhi - DPCC",04-05-2024 01:00:00,28.567890,77.250515,PM2.5,74,401,253
India,Delhi,Delhi,"Nehru Nagar, Delhi - DPCC",04-05-2024 01:00:00,28.567890,77.250515,PM10,137,387,223
India,Delhi,Delhi,"Nehru Nagar, Delhi - DPCC",04-05-2024 01:00:00,28.567890,77.250515,NO2,7,32,19
India,Delhi,Delhi,"Nehru Nagar, Delhi - DPCC",04-05-2024 01:00:00,28.567890,77.250515,NH3,2,3,3
India,Delhi,Delhi,"North Campus, DU, Delhi - IMD",04-05-2024 01:00:00,28.6573814,77.1585447,OZONE,NA,NA,NA
India,Delhi,Delhi,"Okhla Phase-2, Delhi - DPCC",04-05-2024 01:00:00,28.530785,77.271255,PM2.5,66,396,225
India,Delhi,Delhi,"Okhla Phase-2, Delhi - DPCC",04-05-2024 01:00:00,28.530785,77.271255,NH3,6,10,8
India,Delhi,Delhi,"Punjabi Bagh, Delhi - DPCC",04-05-2024 01:00:00,28.674045,77.131023,PM2.5,71,392,261
India,Delhi,Delhi,"Punjabi Bagh, Delhi - DPCC",04-05-2024 01:00:00,28.674045,77.131023,PM10,147,407,263
India,Delhi,Delhi,"Pusa, Delhi - DPCC",04-05-2024 01:00:00,28.639652,77.146275,NH3,3,8,6
India,Delhi,Delhi,"Pusa, Delhi - DPCC",04-05-2024 01:00:00,28.639652,77.146275,CO,9,112,62
India,Delhi,Delhi,"Pusa, Delhi - IMD",04-05-2024 01:00:00,28.636110,77.173332,PM10,171,352,253
India,Delhi,Delhi,"Pusa, Delhi - IMD",04-05-2024 01:00:00,28.636110,77.173332,NO2,10,23,16
India,Delhi,Delhi,"R K Puram, Delhi - DPCC",04-05-2024 01:00:00,28.563262,77.186937,OZONE,14,257,64
India,Delhi,Delhi,"Rohini, Delhi - DPCC",04-05-2024 01:00:00,28.732528,77.119920,NO2,14,92,55
India,Delhi,Delhi,"Rohini, Delhi - DPCC",04-05-2024 01:00:00,28.732528,77.119920,NH3,6,11,9
India,Delhi,Delhi,"Rohini, Delhi - DPCC",04-05-2024 01:00:00,28.732528,77.119920,SO2,12,95,34
India,Delhi,Delhi,"Rohini, Delhi - DPCC",04-05-2024 01:00:00,28.732528,77.119920,CO,16,80,51
India,Delhi,Delhi,"Rohini, Delhi - DPCC",04-05-2024 01:00:00,28.732528,77.119920,OZONE,4,198,73
India,Delhi,Delhi,"Shadipur, Delhi - CPCB",04-05-2024 01:00:00,28.6514781,77.1473105,PM2.5,142,500,327
India,Delhi,Delhi,"Shadipur, Delhi - CPCB",04-05-2024 01:00:00,28.6514781,77.1473105,CO,16,104,84
India,Delhi,Delhi,"Sirifort, Delhi - CPCB",04-05-2024 01:00:00,28.5504249,77.2159377,NH3,26,32,29
India,Delhi,Delhi,"Sonia Vihar, Delhi - DPCC",04-05-2024 01:00:00,28.710508,77.249485,SO2,12,67,27
India,Delhi,Delhi,"Sri Aurobindo Marg, Delhi - DPCC",04-05-2024 01:00:00,28.531346,77.190156,PM10,151,358,211
India,Delhi,Delhi,"Sri Aurobindo Marg, Delhi - DPCC",04-05-2024 01:00:00,28.531346,77.190156,NH3,5,9,7
India,Delhi,Delhi,"Sri Aurobindo Marg, Delhi - DPCC",04-05-2024 01:00:00,28.531346,77.190156,OZONE,10,90,34
India,Delhi,Delhi,"Wazirpur, Delhi - DPCC",04-05-2024 01:00:00,28.699793,77.165453,PM2.5,79,421,269
India,Delhi,Delhi,"Wazirpur, Delhi - DPCC",04-05-2024 01:00:00,28.699793,77.165453,NO2,43,137,86
India,Delhi,Delhi,"Wazirpur, Delhi - DPCC",04-05-2024 01:00:00,28.699793,77.165453,CO,36,100,75
India,Gujarat,Ahmedabad,"Chandkheda, Ahmedabad - IITM",04-05-2024 01:00:00,23.107969,72.574648,SO2,3,11,6
India,Gujarat,Ahmedabad,"Maninagar, Ahmedabad - GPCB",04-05-2024 01:00:00,23.002657,72.591912,PM2.5,35,210,82
India,Gujarat,Ahmedabad,"Maninagar, Ahmedabad - GPCB",04-05-2024 01:00:00,23.002657,72.591912,NO2,25,129,51
India,Gujarat,Ahmedabad,"Maninagar, Ahmedabad - GPCB",04-05-2024 01:00:00,23.002657,72.591912,SO2,NA,NA,NA
India,Gujarat,Ahmedabad,"Raikhad, Ahmedabad - IITM",04-05-2024 01:00:00,23.020509,72.579261,NO2,NA,NA,NA
India,Gujarat,Ahmedabad,"Raikhad, Ahmedabad - IITM",04-05-2024 01:00:00,23.020509,72.579261,SO2,5,30,8
India,Gujarat,Ahmedabad,"Rakhial, Ahmedabad - IITM",04-05-2024 01:00:00,23.016834,72.625775,NO2,12,52,39
India,Gujarat,Ahmedabad,"Rakhial, Ahmedabad - IITM",04-05-2024 01:00:00,23.016834,72.625775,NH3,5,16,10
India,Gujarat,Ahmedabad,"SVPI Airport Hansol, Ahmedabad - IITM",04-05-2024 01:00:00,23.076793,72.627874,NH3,7,8,8
India,Gujarat,Ahmedabad,"SVPI Airport Hansol, Ahmedabad - IITM",04-05-2024 01:00:00,23.076793,72.627874,CO,26,157,78
India,Gujarat,Ankleshwar,"GIDC, Ankleshwar - GPCB",04-05-2024 01:00:00,21.613267,73.010555,PM2.5,47,114,74
India,Gujarat,Ankleshwar,"GIDC, Ankleshwar - GPCB",04-05-2024 01:00:00,21.613267,73.010555,SO2,2,50,18
India,Gujarat,Nandesari,"GIDC, Nandesari - Nandesari Ind. Association",04-05-2024 01:00:00,22.410802,73.097923,PM2.5,50,378,186
India,Gujarat,Vapi,"Phase-1 GIDC, Vapi - GPCB",04-05-2024 01:00:00,20.362421,72.918013,NH3,2,2,2
India,Haryana,Ambala,"Patti Mehar, Ambala - HSPCB",04-05-2024 01:00:00,30.379589,76.778328,PM2.5,29,70,49
India,Haryana,Ambala,"Patti Mehar, Ambala - HSPCB",04-05-2024 01:00:00,30.379589,76.778328,NO2,3,5,4
India,Haryana,Ballabgarh,"Nathu Colony, Ballabgarh - HSPCB",04-05-2024 01:00:00,28.3419248,77.319699,CO,4,111,59
India,Haryana,Bhiwani,"H.B. Colony, Bhiwani - HSPCB",04-05-2024 01:00:00,28.806223,76.141105,NH3,6,6,6
India,Haryana,Bhiwani,"H.B. Colony, Bhiwani - HSPCB",04-05-2024 01:00:00,28.806223,76.141105,SO2,3,23,14
India,Haryana,Bhiwani,"H.B. Colony, Bhiwani - HSPCB",04-05-2024 01:00:00,28.806223,76.141105,OZONE,22,28,24
India,Haryana,Dharuhera,"Municipal Corporation Office, Dharuhera -  HSPCB",04-05-2024 01:00:00,28.206800,76.799700,PM10,141,325,212
India,Haryana,Dharuhera,"Municipal Corporation Office, Dharuhera -  HSPCB",04-05-2024 01:00:00,28.206800,76.799700,NH3,9,26,18
India,Haryana,Faridabad,"New Industrial Town, Faridabad - HSPCB",04-05-2024 01:00:00,28.39072,77.30059,CO,12,50,36
India,Haryana,Faridabad,"Sector 30, Faridabad - HSPCB",04-05-2024 01:00:00,28.4417,77.3217,NH3,9,9,9
India,Haryana,Faridabad,"Sector 30, Faridabad - HSPCB",04-05-2024 01:00:00,28.4417,77.3217,SO2,5,6,6
India,Haryana,Fatehabad,"Huda Sector, Fatehabad - HSPCB",04-05-2024 01:00:00,29.503664,75.467934,PM2.5,52,344,172
India,Haryana,Fatehabad,"Huda Sector, Fatehabad - HSPCB",04-05-2024 01:00:00,29.503664,75.467934,NO2,28,32,30
India,Haryana,Fatehabad,"Huda Sector, Fatehabad - HSPCB",04-05-2024 01:00:00,29.503664,75.467934,NH3,10,10,10
India,Haryana,Fatehabad,"Huda Sector, Fatehabad - HSPCB",04-05-2024 01:00:00,29.503664,75.467934,CO,5,18,10
India,Haryana,Gurugram,"Sector-51, Gurugram - HSPCB",04-05-2024 01:00:00,28.4227,77.0667,CO,36,103,68
India,Haryana,Gurugram,"Sector-51, Gurugram - HSPCB",04-05-2024 01:00:00,28.4227,77.0667,OZONE,27,67,54
India,Haryana,Gurugram,"Teri Gram, Gurugram - HSPCB",04-05-2024 01:00:00,28.4275,77.1465,PM10,211,474,336
India,Haryana,Gurugram,"Teri Gram, Gurugram - HSPCB",04-05-2024 01:00:00,28.4275,77.1465,OZONE,3,24,9
India,Haryana,Gurugram,"Vikas Sadan, Gurugram - HSPCB",04-05-2024 01:00:00,28.4501238,77.0263051,OZONE,8,68,22
India,Haryana,Hisar,"Urban Estate-II, Hisar - HSPCB",04-05-2024 01:00:00,29.140560,75.744941,PM10,NA,NA,NA
India,Haryana,Hisar,"Urban Estate-II, Hisar - HSPCB",04-05-2024 01:00:00,29.140560,75.744941,NO2,NA,NA,NA
India,Haryana,Jind,"Police Lines, Jind - HSPCB",04-05-2024 01:00:00,29.307814,76.337619,CO,4,94,48
India,Haryana,Karnal,"Sector-12, Karnal - HSPCB",04-05-2024 01:00:00,29.695300,77.002700,PM2.5,NA,NA,NA
India,Haryana,Karnal,"Sector-12, Karnal - HSPCB",04-05-2024 01:00:00,29.695300,77.002700,CO,23,40,34
India,Haryana,Kurukshetra,"Sector-7, Kurukshetra - HSPCB",04-05-2024 01:00:00,29.966942,76.875879,PM10,94,161,128
India,Haryana,Manesar,"Sector-2 IMT, Manesar - HSPCB",04-05-2024 01:00:00,28.360699,76.936090,CO,21,52,38
India,Haryana,Narnaul,"Shastri Nagar, Narnaul - HSPCB",04-05-2024 01:00:00,28.060249,76.113115,NH3,5,27,15
India,Haryana,Narnaul,"Shastri Nagar, Narnaul - HSPCB",04-05-2024 01:00:00,28.060249,76.113115,SO2,13,44,17
India,Haryana,Narnaul,"Shastri Nagar, Narnaul - HSPCB",04-05-2024 01:00:00,28.060249,76.113115,OZONE,37,64,51
India,Haryana,Palwal,"Shyam Nagar, Palwal - HSPCB",04-05-2024 01:00:00,28.1485564,77.3320667,PM2.5,54,96,75
India,Haryana,Panchkula,"Sector-6, Panchkula - HSPCB ",04-05-2024 01:00:00,30.7057778,76.8531805555555,OZONE,52,55,54
India,Haryana,Panipat,"Sector-18, Panipat - HSPCB",04-05-2024 01:00:00,29.497973,76.993331,SO2,18,19,19
India,Haryana,Rohtak,"MD University, Rohtak - HSPCB",04-05-2024 01:00:00,28.52123,76.37138,PM2.5,76,365,178
India,Haryana,Sirsa,"F-Block, Sirsa - HSPCB",04-05-2024 01:00:00,29.536400,75.015800,PM2.5,52,233,117
India,Haryana,Sirsa,"F-Block, Sirsa - HSPCB",04-05-2024 01:00:00,29.536400,75.015800,SO2,NA,NA,NA
India,Haryana,Sonipat,"Murthal, Sonipat - HSPCB",04-05-2024 01:00:00,29.027200,77.062100,NO2,37,44,40
India,Haryana,Sonipat,"Murthal, Sonipat - HSPCB",04-05-2024 01:00:00,29.027200,77.062100,OZONE,16,36,23
India,Haryana,Yamuna Nagar,"Gobind Pura, Yamuna Nagar - HSPCB",04-05-2024 01:00:00,30.1480566,77.2893471,OZONE,17,34,25
India,Himachal Pradesh,Baddi,"HIMUDA Complex Phase-1, Baddi - HPPCB",04-05-2024 01:00:00,30.943887,76.801991,SO2,10,99,39
India,Himachal Pradesh,Baddi,"HIMUDA Complex Phase-1, Baddi - HPPCB",04-05-2024 01:00:00,30.943887,76.801991,OZONE,32,172,95
India,Jharkhand,Dhanbad,"Sardar Patel Nagar, Dhanbad - JSPCB",04-05-2024 01:00:00,23.80569,86.44268,PM10,NA,NA,NA
India,Jharkhand,Dhanbad,"Sardar Patel Nagar, Dhanbad - JSPCB",04-05-2024 01:00:00,23.80569,86.44268,SO2,NA,NA,NA
India,Jharkhand,Dhanbad,"Sardar Patel Nagar, Dhanbad - JSPCB",04-05-2024 01:00:00,23.80569,86.44268,CO,38,137,92
India,Jharkhand,Pathardih,"Mohalbani Ghat, Pathardih - DMC",04-05-2024 01:00:00,23.669880,86.411725,SO2,NA,NA,NA
India,Karnataka,Belgaum,"Ramteerth Nagar, Belgaum - KSPCB",04-05-2024 01:00:00,15.888653,74.541751,NH3,2,6,4
India,Karnataka,Bengaluru,"Bapuji Nagar, Bengaluru - KSPCB",04-05-2024 01:00:00,12.951913,77.539784,NO2,10,11,11
India,Karnataka,Bengaluru,"Bapuji Nagar, Bengaluru - KSPCB",04-05-2024 01:00:00,12.951913,77.539784,CO,28,86,52
India,Karnataka,Bengaluru,"Hebbal, Bengaluru - KSPCB",04-05-2024 01:00:00,13.029152,77.585901,CO,6,30,17
India,Karnataka,Bengaluru,"Hombegowda Nagar, Bengaluru - KSPCB",04-05-2024 01:00:00,12.938539,77.590100,SO2,1,4,2
India,Karnataka,Bengaluru,"Jayanagar 5th Block, Bengaluru - KSPCB",04-05-2024 01:00:00,12.920984,77.584908,PM2.5,37,87,64
India,Karnataka,Bengaluru,"Jayanagar 5th Block, Bengaluru - KSPCB",04-05-2024 01:00:00,12.920984,77.584908,PM10,39,112,76
India,Karnataka,Bengaluru,"Kasturi Nagar, Bengaluru - KSPCB",04-05-2024 01:00:00,13.003872,77.664217,PM10,10,293,81
India,Karnataka,Bengaluru,"Kasturi Nagar, Bengaluru - KSPCB",04-05-2024 01:00:00,13.003872,77.664217,NO2,16,17,16
India,Karnataka,Bengaluru,"Peenya, Bengaluru - CPCB",04-05-2024 01:00:00,13.0270199,77.494094,NO2,9,31,22
India,Karnataka,Bengaluru,"Sanegurava Halli, Bengaluru - KSPCB",04-05-2024 01:00:00,12.990328,77.5431385,SO2,2,3,3
India,Karnataka,Bengaluru,"Shivapura_Peenya, Bengaluru - KSPCB",04-05-2024 01:00:00,13.0246342,77.5080115,NH3,4,4,4
India,Karnataka,Bidar,"Naubad, Bidar - KSPCB",04-05-2024 01:00:00,17.930306,77.482194,SO2,16,24,18
India,Karnataka,Bidar,"Naubad, Bidar - KSPCB",04-05-2024 01:00:00,17.930306,77.482194,CO,46,105,78
India,Karnataka,Chamarajanagar,"Urban, Chamarajanagar - KSPCB",04-05-2024 01:00:00,11.55358,76.55521,PM2.5,30,46,44
India,Karnataka,Chikkaballapur,"Chikkaballapur Rural, Chikkaballapur - KSPCB",04-05-2024 01:00:00,13.428828,77.731418,PM10,53,114,88
