country,state,city,station,last_update,latitude,longitude,pollutant_id,pollutant_min,pollutant_max,pollutant_avg
India,Andhra_Pradesh,Amaravati,"Secretariat, Amaravati - APPCB",10-09-2024 23:00:00,16.5150833,80.5181667,PM10,9,34,18
India,Andhra_Pradesh,Amaravati,"Secretariat, Amaravati - APPCB",10-09-2024 23:00:00,16.5150833,80.5181667,NO2,3,8,5
India,Andhra_Pradesh,Amaravati,"Secretariat, Amaravati - APPCB",10-09-2024 23:00:00,16.5150833,80.5181667,SO2,23,25,24
India,Andhra_Pradesh,Amaravati,"Secretariat, Amaravati - APPCB",10-09-2024 23:00:00,16.5150833,80.5181667,OZONE,7,23,19
India,Andhra_Pradesh,Anantapur,"Gulzarpet, Anantapur - APPCB",10-09-2024 23:00:00,14.675886,77.593027,PM10,23,57,43
India,Andhra_Pradesh,Anantapur,"Gulzarpet, Anantapur - APPCB",10-09-2024 23:00:00,14.675886,77.593027,CO,12,30,22
India,Andhra_Pradesh,Anantapur,"Gulzarpet, Anantapur - APPCB",10-09-2024 23:00:00,14.675886,77.593027,OZONE,6,16,14
India,Andhra_Pradesh,Chittoor,"Gangineni Cheruvu, Chittoor - APPCB",10-09-2024 23:00:00,13.204880,79.097889,PM2.5,21,80,50
India,Andhra_Pradesh,Kadapa,"Yerramukkapalli, Kadapa - APPCB",10-09-2024 23:00:00,14.465052,78.824187,PM2.5,NA,NA,NA
India,Andhra_Pradesh,Kadapa,"Yerramukkapalli, Kadapa - APPCB",10-09-2024 23:00:00,14.465052,78.824187,NO2,NA,NA,NA
India,Andhra_Pradesh,Kadapa,"Yerramukkapalli, Kadapa - APPCB",10-09-2024 23:00:00,14.465052,78.824187,OZONE,NA,NA,NA
India,Andhra_Pradesh,Tirupati,"Tirumala, Tirupati - APPCB",10-09-2024 23:00:00,13.67,79.35,PM10,14,33,25
India,Andhra_Pradesh,Tirupati,"Vaikuntapuram, Tirupati - APPCB",10-09-2024 23:00:00,13.615387,79.409230,PM10,43,44,43
India,Andhra_Pradesh,Tirupati,"Vaikuntapuram, Tirupati - APPCB",10-09-2024 23:00:00,13.615387,79.409230,NO2,15,59,21
India,Andhra_Pradesh,Tirupati,"Vaikuntapuram, Tirupati - APPCB",10-09-2024 23:00:00,13.615387,79.409230,SO2,1,7,5
India,Andhra_Pradesh,Vijayawada,"Kanuru, Vijayawada - APPCB",10-09-2024 23:00:00,16.486692,80.699436,NO2,NA,NA,NA
India,Andhra_Pradesh,Vijayawada,"Kanuru, Vijayawada - APPCB",10-09-2024 23:00:00,16.486692,80.699436,CO,10,24,14
India,Andhra_Pradesh,Vijayawada,"Rajiv Gandhi Park, Vijayawada - APPCB",10-09-2024 23:00:00,16.509717,80.612222,SO2,6,8,7
India,Assam,Byrnihat,"Central Academy for SFS, Byrnihat - PCBA",10-09-2024 23:00:00,26.071318,91.87488,NH3,4,48,14
India,Assam,Guwahati,"LGBI Airport, Guwahati - PCBA",10-09-2024 23:00:00,26.10887,91.589544,PM2.5,8,500,79
India,Assam,Guwahati,"LGBI Airport, Guwahati - PCBA",10-09-2024 23:00:00,26.10887,91.589544,NO2,5,37,16
India,Assam,Guwahati,"LGBI Airport, Guwahati - PCBA",10-09-2024 23:00:00,26.10887,91.589544,CO,40,56,48
India,Assam,Guwahati,"Railway Colony, Guwahati - PCBA",10-09-2024 23:00:00,26.181742,91.78063,NO2,3,4,3
India,Assam,Nagaon,"Christianpatty, Nagaon - PCBA",10-09-2024 23:00:00,26.349082,92.68449,NH3,1,1,1
India,Assam,Nalbari,"Bata Chowk, Nalbari - PCBA",10-09-2024 23:00:00,26.446912,91.439057,CO,18,48,33
India,Assam,Silchar,"Tarapur, Silchar - PCBA",10-09-2024 23:00:00,24.82827,92.79525,PM10,13,71,25
India,Assam,Sivasagar,"Girls College, Sivasagar - PCBA",10-09-2024 23:00:00,26.987634,94.636574,PM2.5,5,62,31
India,Bihar,Aurangabad,"Gurdeo Nagar, Aurangabad - BSPCB",10-09-2024 23:00:00,24.75746,84.366208,PM2.5,2,40,14
India,Bihar,Aurangabad,"Gurdeo Nagar, Aurangabad - BSPCB",10-09-2024 23:00:00,24.75746,84.366208,OZONE,12,34,18
India,Bihar,Begusarai,"Lohiyanagar, Begusarai - BSPCB (Formerly known as DRCC Anandpur)",10-09-2024 23:00:00,25.42742023,86.13886079,NO2,11,42,30
India,Bihar,Begusarai,"Lohiyanagar, Begusarai - BSPCB (Formerly known as DRCC Anandpur)",10-09-2024 23:00:00,25.42742023,86.13886079,CO,32,60,45
India,Bihar,Bettiah,"Kamalnath Nagar, Bettiah - BSPCB",10-09-2024 23:00:00,26.80365,84.51954,PM2.5,3,52,25
India,Bihar,Bettiah,"Kamalnath Nagar, Bettiah - BSPCB",10-09-2024 23:00:00,26.80365,84.51954,NO2,24,30,28
India,Bihar,Bettiah,"Kamalnath Nagar, Bettiah - BSPCB",10-09-2024 23:00:00,26.80365,84.51954,SO2,10,21,18
India,Bihar,Bettiah,"Kamalnath Nagar, Bettiah - BSPCB",10-09-2024 23:00:00,26.80365,84.51954,OZONE,2,13,5
India,Bihar,Bhagalpur,"DM Office_Kachari Chowk, Bhagalpur - BSPCB",10-09-2024 23:00:00,25.251013,86.989001,NO2,19,40,28
India,Bihar,Bhagalpur,"Mayaganj, Bhagalpur - BSPCB",10-09-2024 23:00:00,25.265194,87.012947,PM10,58,115,88
India,Bihar,Bhagalpur,"Mayaganj, Bhagalpur - BSPCB",10-09-2024 23:00:00,25.265194,87.012947,NO2,8,14,9
India,Bihar,Bihar Sharif,"D M Colony, Bihar Sharif - BSPCB",10-09-2024 23:00:00,25.204762,85.514960,PM2.5,20,53,37
India,Bihar,Buxar,"Charitra Van, Buxar - BSPCB (Formerly known as Central Jail)",10-09-2024 23:00:00,25.567520,83.966379,OZONE,13,32,21
India,Bihar,Gaya,"Collectorate, Gaya - BSPCB",10-09-2024 23:00:00,24.7955,84.9994,CO,57,68,63
India,Bihar,Gaya,"SFTI Kusdihra, Gaya - BSPCB",10-09-2024 23:00:00,24.762518,84.982348,PM10,13,34,26
India,Bihar,Hajipur,"Industrial Area, Hajipur - BSPCB",10-09-2024 23:00:00,25.697189,85.245900,PM10,46,94,64
India,Bihar,Katihar,"Mirchaibari, Katihar - BSPCB",10-09-2024 23:00:00,25.560083,87.553265,NH3,1,4,2
India,Bihar,Katihar,"Mirchaibari, Katihar - BSPCB",10-09-2024 23:00:00,25.560083,87.553265,CO,26,36,28
India,Bihar,Katihar,"Mirchaibari, Katihar - BSPCB",10-09-2024 23:00:00,25.560083,87.553265,OZONE,30,36,33
India,Bihar,Kishanganj,"SDM Office_Khagra, Kishanganj - BSPCB",10-09-2024 23:00:00,26.0881305,87.93840336,NO2,28,31,29
India,Bihar,Motihari,"Gandak Colony, Motihari - BSPCB",10-09-2024 23:00:00,26.63086,84.90051,PM2.5,NA,NA,NA
India,Bihar,Motihari,"Gandak Colony, Motihari - BSPCB",10-09-2024 23:00:00,26.63086,84.90051,PM10,NA,NA,NA
India,Bihar,Motihari,"Gandak Colony, Motihari - BSPCB",10-09-2024 23:00:00,26.63086,84.90051,CO,32,64,48
India,Bihar,Muzaffarpur,"Buddha Colony, Muzaffarpur - BSPCB",10-09-2024 23:00:00,26.11442,85.39813,NO2,10,22,14
India,Bihar,Muzaffarpur,"Buddha Colony, Muzaffarpur - BSPCB",10-09-2024 23:00:00,26.11442,85.39813,OZONE,22,36,33
India,Bihar,Muzaffarpur,"MIT-Daudpur Kothi, Muzaffarpur - BSPCB",10-09-2024 23:00:00,26.1403345,85.3650192,PM2.5,7,90,37
India,Bihar,Muzaffarpur,"MIT-Daudpur Kothi, Muzaffarpur - BSPCB",10-09-2024 23:00:00,26.1403345,85.3650192,OZONE,21,67,51
India,Bihar,Patna,"DRM Office Danapur, Patna - BSPCB",10-09-2024 23:00:00,25.586562,85.043586,NO2,12,30,19
India,Bihar,Patna,"Muradpur, Patna - BSPCB",10-09-2024 23:00:00,25.619651,85.147382,PM2.5,6,64,22
India,Bihar,Patna,"Muradpur, Patna - BSPCB",10-09-2024 23:00:00,25.619651,85.147382,NO2,13,15,14
India,Bihar,Patna,"Muradpur, Patna - BSPCB",10-09-2024 23:00:00,25.619651,85.147382,NH3,6,6,6
India,Bihar,Patna,"Muradpur, Patna - BSPCB",10-09-2024 23:00:00,25.619651,85.147382,SO2,5,7,6
India,Bihar,Patna,"Rajbansi Nagar, Patna - BSPCB",10-09-2024 23:00:00,25.599486,85.113666,CO,20,40,33
India,Bihar,Patna,"Samanpura, Patna - BSPCB",10-09-2024 23:00:00,25.596727,85.085624,SO2,NA,NA,NA
India,Bihar,Rajgir,"Dangi Tola, Rajgir - BSPCB",10-09-2024 23:00:00,25.03280,85.41948,SO2,NA,NA,NA
India,Bihar,Samastipur,"DM Office_Kasipur, Samastipur - BSPCB",10-09-2024 23:00:00,25.859655,85.77944,NH3,3,4,4
India,Bihar,Samastipur,"DM Office_Kasipur, Samastipur - BSPCB",10-09-2024 23:00:00,25.859655,85.77944,CO,56,135,104
India,Bihar,Siwan,"Chitragupta Nagar, Siwan - BSPCB",10-09-2024 23:00:00,26.2271665,84.3570427,NH3,2,3,3
India,Bihar,Siwan,"Chitragupta Nagar, Siwan - BSPCB",10-09-2024 23:00:00,26.2271665,84.3570427,CO,20,98,50
India,Chandigarh,Chandigarh,"Sector-25, Chandigarh - CPCC",10-09-2024 23:00:00,30.751462,76.762879,OZONE,15,55,23
India,Chandigarh,Chandigarh,"Sector-53, Chandigarh - CPCC",10-09-2024 23:00:00,30.719859,76.738637,NH3,1,19,4
India,Chhattisgarh,Bhilai,"Civic Center, Bhilai - Bhilai Steel Plant",10-09-2024 23:00:00,21.185571,81.343175,NH3,3,4,4
India,Chhattisgarh,Bhilai,"Civic Center, Bhilai - Bhilai Steel Plant",10-09-2024 23:00:00,21.185571,81.343175,CO,12,58,39
India,Chhattisgarh,Bhilai,"Hathkhoj, Bhilai - CECB",10-09-2024 23:00:00,21.224231,81.408350,PM2.5,6,26,16
India,Chhattisgarh,Bhilai,"Hathkhoj, Bhilai - CECB",10-09-2024 23:00:00,21.224231,81.408350,NO2,8,25,15
India,Chhattisgarh,Bilaspur,"Mangala, Bilaspur - NTPC",10-09-2024 23:00:00,22.08815,82.13737,NO2,14,16,14
India,Chhattisgarh,Bilaspur,"Mangala, Bilaspur - NTPC",10-09-2024 23:00:00,22.08815,82.13737,SO2,10,13,11
India,Chhattisgarh,Chhal,"Nawapara SECL Colony, Chhal - CECB",10-09-2024 23:00:00,22.118125,83.140608,NO2,11,96,26
India,Chhattisgarh,Chhal,"Nawapara SECL Colony, Chhal - CECB",10-09-2024 23:00:00,22.118125,83.140608,OZONE,13,32,18
India,Chhattisgarh,Korba,"Urja Nagar, Korba - CECB",10-09-2024 23:00:00,22.348441,82.549611,PM10,14,30,15
India,Chhattisgarh,Milupara,"Govt. Higher Secondary School, Milupara - CECB",10-09-2024 23:00:00,22.1910172,83.5197009,CO,NA,NA,NA
India,Chhattisgarh,Raipur,"AIIMS, Raipur - CECB",10-09-2024 23:00:00,21.258815,81.578979,NH3,6,6,6
India,Chhattisgarh,Raipur,"Krishak Nagar, Raipur - CECB",10-09-2024 23:00:00,21.237755,81.705301,PM2.5,2,17,8
India,Chhattisgarh,Raipur,"Siltara Phase-II, Raipur - CECB",10-09-2024 23:00:00,21.371751,81.664929,PM10,NA,NA,NA
India,Chhattisgarh,Raipur,"Siltara Phase-II, Raipur - CECB",10-09-2024 23:00:00,21.371751,81.664929,NO2,6,26,11
India,Chhattisgarh,Tumidih,"OP Jindal Industrial Park, Tumidih - CECB",10-09-2024 23:00:00,22.06631475,83.33820077,PM10,NA,NA,NA
India,Chhattisgarh,Tumidih,"OP Jindal Industrial Park, Tumidih - CECB",10-09-2024 23:00:00,22.06631475,83.33820077,OZONE,6,11,9
India,Delhi,Delhi,"Anand Vihar, Delhi - DPCC",10-09-2024 23:00:00,28.647622,77.3158090,PM10,NA,NA,NA
India,Delhi,Delhi,"Aya Nagar, Delhi - IMD",10-09-2024 23:00:00,28.4706914,77.1099364,PM2.5,NA,NA,NA
India,Delhi,Delhi,"Aya Nagar, Delhi - IMD",10-09-2024 23:00:00,28.4706914,77.1099364,NO2,NA,NA,NA
India,Delhi,Delhi,"Bawana, Delhi - DPCC",10-09-2024 23:00:00,28.776200,77.051074,SO2,4,13,6
India,Delhi,Delhi,"Chandni Chowk, Delhi - IITM",10-09-2024 23:00:00,28.656756,77.227234,NH3,NA,NA,NA
India,Delhi,Delhi,"DTU, Delhi - CPCB",10-09-2024 23:00:00,28.7500499,77.1112615,PM2.5,12,60,40
India,Delhi,Delhi,"Dwarka-Sector 8, Delhi - DPCC ",10-09-2024 23:00:00,28.5710274,77.0719006,SO2,7,11,9
India,Delhi,Delhi,"Jawaharlal Nehru Stadium, Delhi - DPCC",10-09-2024 23:00:00,28.580280,77.233829,PM2.5,8,75,45
India,Delhi,Delhi,"Jawaharlal Nehru Stadium, Delhi - DPCC",10-09-2024 23:00:00,28.580280,77.233829,NH3,4,5,4
India,Delhi,Delhi,"Lodhi Road, Delhi - IMD",10-09-2024 23:00:00,28.5918245,77.2273074,CO,14,34,22
India,Delhi,Delhi,"Major Dhyan Chand National Stadium, Delhi - DPCC",10-09-2024 23:00:00,28.611281,77.237738,PM2.5,33,193,94
India,Delhi,Delhi,"Major Dhyan Chand National Stadium, Delhi - DPCC",10-09-2024 23:00:00,28.611281,77.237738,PM10,23,129,92
India,Delhi,Delhi,"Major Dhyan Chand National Stadium, Delhi - DPCC",10-09-2024 23:00:00,28.611281,77.237738,NH3,3,5,4
India,Delhi,Delhi,"Major Dhyan Chand National Stadium, Delhi - DPCC",10-09-2024 23:00:00,28.611281,77.237738,CO,32,98,57
India,Delhi,Delhi,"Mandir Marg, Delhi - DPCC",10-09-2024 23:00:00,28.636429,77.201067,NO2,44,63,55
India,Delhi,Delhi,"Mandir Marg, Delhi - DPCC",10-09-2024 23:00:00,28.636429,77.201067,SO2,3,20,10
India,Delhi,Delhi,"Mandir Marg, Delhi - DPCC",10-09-2024 23:00:00,28.636429,77.201067,CO,22,104,46
India,Delhi,Delhi,"NSIT Dwarka, Delhi - CPCB",10-09-2024 23:00:00,28.60909,77.0325413,PM10,30,119,86
India,Delhi,Delhi,"Najafgarh, Delhi - DPCC",10-09-2024 23:00:00,28.570173,76.933762,SO2,10,34,14
India,Delhi,Delhi,"Narela, Delhi - DPCC",10-09-2024 23:00:00,28.822836,77.101981,NO2,17,45,28
India,Delhi,Delhi,"Narela, Delhi - DPCC",10-09-2024 23:00:00,28.822836,77.101981,SO2,4,10,6
India,Delhi,Delhi,"Punjabi Bagh, Delhi - DPCC",10-09-2024 23:00:00,28.674045,77.131023,PM10,27,163,104
India,Delhi,Delhi,"Pusa, Delhi - DPCC",10-09-2024 23:00:00,28.639652,77.146275,PM10,11,149,92
India,Delhi,Delhi,"Pusa, Delhi - DPCC",10-09-2024 23:00:00,28.639652,77.146275,NO2,36,81,60
India,Delhi,Delhi,"Pusa, Delhi - IMD",10-09-2024 23:00:00,28.636110,77.173332,PM2.5,29,145,82
India,Delhi,Delhi,"R K Puram, Delhi - DPCC",10-09-2024 23:00:00,28.563262,77.186937,PM10,7,156,93
India,Delhi,Delhi,"R K Puram, Delhi - DPCC",10-09-2024 23:00:00,28.563262,77.186937,NH3,2,4,3
India,Delhi,Delhi,"R K Puram, Delhi - DPCC",10-09-2024 23:00:00,28.563262,77.186937,SO2,16,40,24
India,Delhi,Delhi,"R K Puram, Delhi - DPCC",10-09-2024 23:00:00,28.563262,77.186937,CO,10,51,19
India,Delhi,Delhi,"Rohini, Delhi - DPCC",10-09-2024 23:00:00,28.732528,77.119920,NO2,15,70,43
India,Delhi,Delhi,"Shadipur, Delhi - CPCB",10-09-2024 23:00:00,28.6514781,77.1473105,SO2,2,21,12
India,Delhi,Delhi,"Sirifort, Delhi - CPCB",10-09-2024 23:00:00,28.5504249,77.2159377,OZONE,11,46,23
India,Delhi,Delhi,"Sonia Vihar, Delhi - DPCC",10-09-2024 23:00:00,28.710508,77.249485,NO2,15,50,28
India,Delhi,Delhi,"Sonia Vihar, Delhi - DPCC",10-09-2024 23:00:00,28.710508,77.249485,OZONE,10,93,41
India,Delhi,Delhi,"Sri Aurobindo Marg, Delhi - DPCC",10-09-2024 23:00:00,28.531346,77.190156,NO2,10,55,26
India,Delhi,Delhi,"Sri Aurobindo Marg, Delhi - DPCC",10-09-2024 23:00:00,28.531346,77.190156,CO,41,105,55
India,Delhi,Delhi,"Vivek Vihar, Delhi - DPCC",10-09-2024 23:00:00,28.672342,77.315260,PM2.5,22,176,70
India,Delhi,Delhi,"Wazirpur, Delhi - DPCC",10-09-2024 23:00:00,28.699793,77.165453,NO2,34,92,62
India,Delhi,Delhi,"Wazirpur, Delhi - DPCC",10-09-2024 23:00:00,28.699793,77.165453,CO,6,103,66
India,Delhi,Delhi,"Wazirpur, Delhi - DPCC",10-09-2024 23:00:00,28.699793,77.165453,OZONE,2,110,11
India,Gujarat,Ahmedabad,"Chandkheda, Ahmedabad - IITM",10-09-2024 23:00:00,23.107969,72.574648,SO2,4,16,10
India,Gujarat,Ahmedabad,"Gyaspur, Ahmedabad - IITM",10-09-2024 23:00:00,22.977134,72.553024,NH3,4,6,4
India,Gujarat,Ahmedabad,"Gyaspur, Ahmedabad - IITM",10-09-2024 23:00:00,22.977134,72.553024,CO,26,34,29
India,Gujarat,Ahmedabad,"Gyaspur, Ahmedabad - IITM",10-09-2024 23:00:00,22.977134,72.553024,OZONE,5,31,27
India,Gujarat,Ahmedabad,"Maninagar, Ahmedabad - GPCB",10-09-2024 23:00:00,23.002657,72.591912,CO,14,31,21
India,Gujarat,Ahmedabad,"Maninagar, Ahmedabad - GPCB",10-09-2024 23:00:00,23.002657,72.591912,OZONE,5,58,38
India,Gujarat,Ahmedabad,"Rakhial, Ahmedabad - IITM",10-09-2024 23:00:00,23.016834,72.625775,PM10,52,121,88
India,Gujarat,Ahmedabad,"Rakhial, Ahmedabad - IITM",10-09-2024 23:00:00,23.016834,72.625775,NH3,1,3,2
India,Gujarat,Ahmedabad,"SAC ISRO Satellite, Ahmedabad - IITM",10-09-2024 23:00:00,23.023389,72.515201,PM2.5,26,66,42
India,Gujarat,Ahmedabad,"SAC ISRO Satellite, Ahmedabad - IITM",10-09-2024 23:00:00,23.023389,72.515201,NH3,1,3,1
India,Gujarat,Ahmedabad,"SAC ISRO Satellite, Ahmedabad - IITM",10-09-2024 23:00:00,23.023389,72.515201,CO,24,36,29
India,Gujarat,Ahmedabad,"SAC ISRO Satellite, Ahmedabad - IITM",10-09-2024 23:00:00,23.023389,72.515201,OZONE,9,32,26
India,Gujarat,Ahmedabad,"SVPI Airport Hansol, Ahmedabad - IITM",10-09-2024 23:00:00,23.076793,72.627874,NO2,27,49,33
India,Gujarat,Ahmedabad,"SVPI Airport Hansol, Ahmedabad - IITM",10-09-2024 23:00:00,23.076793,72.627874,SO2,8,15,10
India,Gujarat,Ahmedabad,"Sardar Vallabhbhai Patel Stadium, Ahmedabad - IITM",10-09-2024 23:00:00,23.043070,72.562968,NO2,13,31,20
India,Gujarat,Ahmedabad,"Sardar Vallabhbhai Patel Stadium, Ahmedabad - IITM",10-09-2024 23:00:00,23.043070,72.562968,CO,24,34,30
India,Gujarat,Ankleshwar,"GIDC, Ankleshwar - GPCB",10-09-2024 23:00:00,21.613267,73.010555,PM2.5,19,76,40
India,Gujarat,Gandhinagar,"GIFT City, Gandhinagar - IITM",10-09-2024 23:00:00,23.163798,72.677768,SO2,4,6,5
India,Gujarat,Gandhinagar,"GIFT City, Gandhinagar - IITM",10-09-2024 23:00:00,23.163798,72.677768,OZONE,3,13,8
India,Gujarat,Gandhinagar,"Sector-10, Gandhinagar - GPCB",10-09-2024 23:00:00,23.221714,72.654328,PM2.5,32,66,52
India,Gujarat,Gandhinagar,"Sector-10, Gandhinagar - GPCB",10-09-2024 23:00:00,23.221714,72.654328,NO2,19,20,20
India,Gujarat,Surat,"Science Center, Surat - SMC",10-09-2024 23:00:00,21.170046,72.795405,PM2.5,12,59,29
India,Gujarat,Vapi,"Phase-1 GIDC, Vapi - GPCB",10-09-2024 23:00:00,20.362421,72.918013,NO2,13,14,14
India,Gujarat,Vapi,"Phase-1 GIDC, Vapi - GPCB",10-09-2024 23:00:00,20.362421,72.918013,SO2,25,57,47
India,Gujarat,Vatva,"Phase-4 GIDC, Vatva - GPCB",10-09-2024 23:00:00,22.969611,72.643500,OZONE,9,41,26
India,Haryana,Ballabgarh,"Nathu Colony, Ballabgarh - HSPCB",10-09-2024 23:00:00,28.3419248,77.319699,NH3,3,3,3
India,Haryana,Ballabgarh,"Nathu Colony, Ballabgarh - HSPCB",10-09-2024 23:00:00,28.3419248,77.319699,CO,6,63,19
India,Haryana,Ballabgarh,"Nathu Colony, Ballabgarh - HSPCB",10-09-2024 23:00:00,28.3419248,77.319699,OZONE,2,41,28
India,Haryana,Bhiwani,"H.B. Colony, Bhiwani - HSPCB",10-09-2024 23:00:00,28.806223,76.141105,NH3,5,12,7
India,Haryana,Dharuhera,"Municipal Corporation Office, Dharuhera -  HSPCB",10-09-2024 23:00:00,28.206800,76.799700,PM10,27,101,64
India,Haryana,Dharuhera,"Municipal Corporation Office, Dharuhera -  HSPCB",10-09-2024 23:00:00,28.206800,76.799700,NH3,9,26,20
India,Haryana,Dharuhera,"Municipal Corporation Office, Dharuhera -  HSPCB",10-09-2024 23:00:00,28.206800,76.799700,CO,9,26,15
India,Haryana,Dharuhera,"Municipal Corporation Office, Dharuhera -  HSPCB",10-09-2024 23:00:00,28.206800,76.799700,OZONE,10,71,42
India,Haryana,Faridabad,"New Industrial Town, Faridabad - HSPCB",10-09-2024 23:00:00,28.39072,77.30059,PM10,16,106,64
India,Haryana,Faridabad,"Sector 11, Faridabad - HSPCB",10-09-2024 23:00:00,28.376058,77.315741,NH3,6,6,6
India,Haryana,Faridabad,"Sector 11, Faridabad - HSPCB",10-09-2024 23:00:00,28.376058,77.315741,CO,24,40,32
India,Haryana,Faridabad,"Sector- 16A, Faridabad - HSPCB",10-09-2024 23:00:00,28.4088421,77.3099081,PM2.5,3,88,45
India,Haryana,Fatehabad,"Huda Sector, Fatehabad - HSPCB",10-09-2024 23:00:00,29.503664,75.467934,SO2,10,16,14
India,Haryana,Gurugram,"Teri Gram, Gurugram - HSPCB",10-09-2024 23:00:00,28.4275,77.1465,PM10,22,103,71
India,Haryana,Gurugram,"Teri Gram, Gurugram - HSPCB",10-09-2024 23:00:00,28.4275,77.1465,NH3,4,30,20
India,Haryana,Gurugram,"Teri Gram, Gurugram - HSPCB",10-09-2024 23:00:00,28.4275,77.1465,SO2,1,16,9
India,Haryana,Hisar,"Urban Estate-II, Hisar - HSPCB",10-09-2024 23:00:00,29.140560,75.744941,PM10,37,105,71
India,Haryana,Hisar,"Urban Estate-II, Hisar - HSPCB",10-09-2024 23:00:00,29.140560,75.744941,SO2,2,138,51
India,Haryana,Jind,"Police Lines, Jind - HSPCB",10-09-2024 23:00:00,29.307814,76.337619,PM10,27,131,57
India,Haryana,Kaithal,"Rishi Nagar, Kaithal - HSPCB",10-09-2024 23:00:00,29.8006,76.4155,NO2,24,26,25
India,Haryana,Karnal,"Sector-12, Karnal - HSPCB",10-09-2024 23:00:00,29.695300,77.002700,NH3,10,12,11
India,Haryana,Karnal,"Sector-12, Karnal - HSPCB",10-09-2024 23:00:00,29.695300,77.002700,SO2,12,13,13
India,Haryana,Karnal,"Sector-12, Karnal - HSPCB",10-09-2024 23:00:00,29.695300,77.002700,CO,18,56,29
India,Haryana,Kurukshetra,"Sector-7, Kurukshetra - HSPCB",10-09-2024 23:00:00,29.966942,76.875879,SO2,2,3,2
India,Haryana,Mandikhera,"General Hospital, Mandikhera - HSPCB",10-09-2024 23:00:00,27.9002,76.9938,PM2.5,94,111,102
India,Haryana,Mandikhera,"General Hospital, Mandikhera - HSPCB",10-09-2024 23:00:00,27.9002,76.9938,CO,48,96,56
India,Haryana,Narnaul,"Shastri Nagar, Narnaul - HSPCB",10-09-2024 23:00:00,28.060249,76.113115,PM10,38,71,56
India,Haryana,Narnaul,"Shastri Nagar, Narnaul - HSPCB",10-09-2024 23:00:00,28.060249,76.113115,NO2,15,48,28
India,Haryana,Panchkula,"Sector-6, Panchkula - HSPCB ",10-09-2024 23:00:00,30.7057778,76.8531805555555,PM2.5,4,89,39
India,Haryana,Panchkula,"Sector-6, Panchkula - HSPCB ",10-09-2024 23:00:00,30.7057778,76.8531805555555,NO2,18,22,20
India,Haryana,Panchkula,"Sector-6, Panchkula - HSPCB ",10-09-2024 23:00:00,30.7057778,76.8531805555555,SO2,4,10,5
India,Haryana,Panipat,"Sector-18, Panipat - HSPCB",10-09-2024 23:00:00,29.432304,76.972765,PM10,72,80,76
India,Haryana,Sirsa,"F-Block, Sirsa - HSPCB",10-09-2024 23:00:00,29.536400,75.015800,NH3,5,7,6
India,Haryana,Sirsa,"F-Block, Sirsa - HSPCB",10-09-2024 23:00:00,29.536400,75.015800,SO2,11,36,25
India,Haryana,Yamuna Nagar,"Gobind Pura, Yamuna Nagar - HSPCB",10-09-2024 23:00:00,30.1480566,77.2893471,NH3,1,6,4
India,Haryana,Yamuna Nagar,"Gobind Pura, Yamuna Nagar - HSPCB",10-09-2024 23:00:00,30.1480566,77.2893471,SO2,1,15,7
India,Himachal Pradesh,Baddi,"HIMUDA Complex Phase-1, Baddi - HPPCB",10-09-2024 23:00:00,30.943887,76.801991,PM10,22,155,67
India,Himachal Pradesh,Baddi,"HIMUDA Complex Phase-1, Baddi - HPPCB",10-09-2024 23:00:00,30.943887,76.801991,NO2,14,76,34
India,Himachal Pradesh,Baddi,"HIMUDA Complex Phase-1, Baddi - HPPCB",10-09-2024 23:00:00,30.943887,76.801991,CO,24,68,44
India,Jammu_and_Kashmir,Srinagar,"Rajbagh, Srinagar - JKSPCB",10-09-2024 23:00:00,34.066206,74.819820,CO,11,16,14
India,Jharkhand,Jorapokhar,"Tata Stadium, Jorapokhar - JSPCB",10-09-2024 23:00:00,23.707909,86.414670,PM10,NA,NA,NA
India,Karnataka,Bagalkot,"Vidayagiri, Bagalkot - KSPCB",10-09-2024 23:00:00,16.172806,75.659694,NH3,2,2,2
India,Karnataka,Bengaluru,"BTM Layout, Bengaluru - CPCB",10-09-2024 23:00:00,12.9135218,77.5950804,PM2.5,24,37,29
India,Karnataka,Bengaluru,"Bapuji Nagar, Bengaluru - KSPCB",10-09-2024 23:00:00,12.951913,77.539784,PM10,28,65,46
India,Karnataka,Bengaluru,"Hebbal, Bengaluru - KSPCB",10-09-2024 23:00:00,13.029152,77.585901,PM2.5,18,38,27
India,Karnataka,Bengaluru,"Hebbal, Bengaluru - KSPCB",10-09-2024 23:00:00,13.029152,77.585901,PM10,12,41,26
India,Karnataka,Bengaluru,"Hebbal, Bengaluru - KSPCB",10-09-2024 23:00:00,13.029152,77.585901,CO,12,23,20
India,Karnataka,Bengaluru,"Hombegowda Nagar, Bengaluru - KSPCB",10-09-2024 23:00:00,12.938539,77.590100,PM2.5,11,40,22
India,Karnataka,Bengaluru,"Jayanagar 5th Block, Bengaluru - KSPCB",10-09-2024 23:00:00,12.920984,77.584908,PM2.5,13,27,20
India,Karnataka,Bengaluru,"Jayanagar 5th Block, Bengaluru - KSPCB",10-09-2024 23:00:00,12.920984,77.584908,CO,4,36,19
India,Karnataka,Bengaluru,"Jigani, Bengaluru - KSPCB",10-09-2024 23:00:00,12.7816279,77.6299145,NO2,27,29,28
India,Karnataka,Bengaluru,"Kasturi Nagar, Bengaluru - KSPCB",10-09-2024 23:00:00,13.003872,77.664217,CO,24,26,26
India,Karnataka,Bengaluru,"Peenya, Bengaluru - CPCB",10-09-2024 23:00:00,13.0270199,77.494094,PM10,39,55,48
India,Karnataka,Bengaluru,"RVCE-Mailasandra, Bengaluru - KSPCB",10-09-2024 23:00:00,12.921418,77.502466,PM2.5,10,83,40
India,Karnataka,Bengaluru,"Sanegurava Halli, Bengaluru - KSPCB",10-09-2024 23:00:00,12.990328,77.5431385,CO,9,38,17
India,Karnataka,Bengaluru,"Shivapura_Peenya, Bengaluru - KSPCB",10-09-2024 23:00:00,13.0246342,77.5080115,PM10,26,66,44
India,Karnataka,Bengaluru,"Silk Board, Bengaluru - KSPCB",10-09-2024 23:00:00,12.917348,77.622813,PM10,33,155,96
India,Karnataka,Bengaluru,"Silk Board, Bengaluru - KSPCB",10-09-2024 23:00:00,12.917348,77.622813,CO,18,89,48
India,Karnataka,Bidar,"Naubad, Bidar - KSPCB",10-09-2024 23:00:00,17.930306,77.482194,NO2,6,7,6
India,Karnataka,Bidar,"Naubad, Bidar - KSPCB",10-09-2024 23:00:00,17.930306,77.482194,SO2,20,26,22
India,Karnataka,Chamarajanagar,"Urban, Chamarajanagar - KSPCB",10-09-2024 23:00:00,11.55358,76.55521,SO2,2,9,4
India,Karnataka,Chamarajanagar,"Urban, Chamarajanagar - KSPCB",10-09-2024 23:00:00,11.55358,76.55521,OZONE,14,39,27
India,Karnataka,Chikkaballapur,"Chikkaballapur Rural, Chikkaballapur - KSPCB",10-09-2024 23:00:00,13.428828,77.731418,OZONE,24,25,24
India,Karnataka,Chikkamagaluru,"Kalyana Nagara, Chikkamagaluru - KSPCB",10-09-2024 23:00:00,13.328028,75.797056,NH3,2,3,2
India,Karnataka,Chikkamagaluru,"Kalyana Nagara, Chikkamagaluru - KSPCB",10-09-2024 23:00:00,13.328028,75.797056,SO2,1,7,3
India,Karnataka,Chikkamagaluru,"Kalyana Nagara, Chikkamagaluru - KSPCB",10-09-2024 23:00:00,13.328028,75.797056,CO,7,93,34
India,Karnataka,Davanagere,"Devaraj Urs Badavane, Davanagere - KSPCB",10-09-2024 23:00:00,14.475800,75.905200,PM10,8,27,18
India,Karnataka,Davanagere,"Devaraj Urs Badavane, Davanagere - KSPCB",10-09-2024 23:00:00,14.475800,75.905200,NO2,8,10,9
India,Karnataka,Dharwad,"Kalabhavan, Dharwad - KSPCB",10-09-2024 23:00:00,15.459706,75.008381,NO2,15,20,17
India,Karnataka,Dharwad,"Kalabhavan, Dharwad - KSPCB",10-09-2024 23:00:00,15.459706,75.008381,CO,10,62,45
India,Karnataka,Dharwad,"Kalabhavan, Dharwad - KSPCB",10-09-2024 23:00:00,15.459706,75.008381,OZONE,9,17,13
India,Karnataka,Hassan,"B.Katihalli, Hassan - KSPCB",10-09-2024 23:00:00,13.008556,76.125258,PM10,8,43,28
India,Karnataka,Hassan,"B.Katihalli, Hassan - KSPCB",10-09-2024 23:00:00,13.008556,76.125258,NH3,1,2,1
India,Karnataka,Haveri,"Ashwini Nagar, Haveri - KSPCB",10-09-2024 23:00:00,14.791800,75.389600,PM10,14,39,27
India,Karnataka,Haveri,"Ashwini Nagar, Haveri - KSPCB",10-09-2024 23:00:00,14.791800,75.389600,NH3,2,5,4
India,Karnataka,Hubballi,"Deshpande Nagar, Hubballi - KSPCB",10-09-2024 23:00:00,15.351773,75.140726,NO2,NA,NA,NA
India,Karnataka,Hubballi,"Deshpande Nagar, Hubballi - KSPCB",10-09-2024 23:00:00,15.351773,75.140726,NH3,NA,NA,NA
India,Karnataka,Hubballi,"Deshpande Nagar, Hubballi - KSPCB",10-09-2024 23:00:00,15.351773,75.140726,OZONE,17,17,17
India,Karnataka,Kalaburagi,"Lal Bahadur Shastri Nagar, Kalaburagi - KSPCB",10-09-2024 23:00:00,17.321993,76.822628,PM2.5,25,62,35
India,Karnataka,Kalaburagi,"Lal Bahadur Shastri Nagar, Kalaburagi - KSPCB",10-09-2024 23:00:00,17.321993,76.822628,NH3,1,6,3
India,Karnataka,Kalaburagi,"Mahatma Basaveswar Colony, Kalaburgi - KSPCB",10-09-2024 23:00:00,17.336318,76.847397,PM10,9,51,28
India,Karnataka,Kolar,"Tamaka Ind. Area, Kolar - KSPCB",10-09-2024 23:00:00,13.1276288,78.1570122,NH3,1,3,2
India,Karnataka,Kolar,"Tamaka Ind. Area, Kolar - KSPCB",10-09-2024 23:00:00,13.1276288,78.1570122,OZONE,16,20,20
India,Karnataka,Koppal,"Diwator Nagar, Koppal - KSPCB",10-09-2024 23:00:00,15.347630,76.181767,CO,28,37,35
India,Karnataka,Koppal,"Diwator Nagar, Koppal - KSPCB",10-09-2024 23:00:00,15.347630,76.181767,OZONE,7,17,14
India,Karnataka,Madikeri,"Stuart Hill, Madikeri - KSPCB",10-09-2024 23:00:00,12.415911,75.735050,SO2,4,4,4
India,Karnataka,Mangalore,"Kadri, Mangalore - KSPCB",10-09-2024 23:00:00,12.889250,74.853000,PM2.5,9,26,15
India,Karnataka,Mangalore,"Kadri, Mangalore - KSPCB",10-09-2024 23:00:00,12.889250,74.853000,NH3,7,10,9
India,Karnataka,Mangalore,"Kadri, Mangalore - KSPCB",10-09-2024 23:00:00,12.889250,74.853000,SO2,16,18,18
India,Karnataka,Mangalore,"Kadri, Mangalore - KSPCB",10-09-2024 23:00:00,12.889250,74.853000,OZONE,30,32,31
India,Karnataka,Mysuru,"Hebbal 1st Stage, Mysuru - KSPCB",10-09-2024 23:00:00,12.21041,76.37376,OZONE,6,64,42
India,Karnataka,Raichur,"Haji Colony, Raichur - KSPCB",10-09-2024 23:00:00,16.208139,77.348417,PM2.5,NA,NA,NA
India,Karnataka,Ramanagara,"Vijay Nagar, Ramanagara - KSPCB",10-09-2024 23:00:00,12.733409,77.298051,PM2.5,6,26,16
India,Karnataka,Ramanagara,"Vijay Nagar, Ramanagara - KSPCB",10-09-2024 23:00:00,12.733409,77.298051,PM10,19,41,27
India,Karnataka,Ramanagara,"Vijay Nagar, Ramanagara - KSPCB",10-09-2024 23:00:00,12.733409,77.298051,NO2,4,13,7
India,Karnataka,Shivamogga,"Vinoba Nagara, Shivamogga - KSPCB",10-09-2024 23:00:00,13.940000,75.555917,PM2.5,24,51,33
India,Karnataka,Shivamogga,"Vinoba Nagara, Shivamogga - KSPCB",10-09-2024 23:00:00,13.940000,75.555917,NH3,2,3,3
India,Karnataka,Shivamogga,"Vinoba Nagara, Shivamogga - KSPCB",10-09-2024 23:00:00,13.940000,75.555917,CO,6,40,30
India,Karnataka,Tumakuru,"Thimmalapura, Tumakuru - KSPCB",10-09-2024 23:00:00,13.377516,77.099072,NO2,17,17,17
India,Karnataka,Udupi,"Brahmagiri, Udupi - KSPCB",10-09-2024 23:00:00,13.34194444,74.74694444,PM2.5,3,36,12
India,Karnataka,Udupi,"Brahmagiri, Udupi - KSPCB",10-09-2024 23:00:00,13.34194444,74.74694444,NO2,22,28,25
India,Karnataka,Udupi,"Brahmagiri, Udupi - KSPCB",10-09-2024 23:00:00,13.34194444,74.74694444,SO2,19,91,32
India,Karnataka,Vijayapura,"Ibrahimpur, Vijayapura - KSPCB",10-09-2024 23:00:00,16.802639,75.722694,NH3,2,2,2
India,Karnataka,Yadgir,"Collector Office, Yadgir - KSPCB",10-09-2024 23:00:00,16.7602,77.1428,OZONE,18,20,19
India,Kerala,Kollam,"Polayathode, Kollam - Kerala PCB",10-09-2024 23:00:00,8.8787,76.6073,NH3,1,1,1
India,Kerala,Thiruvananthapuram,"Kariavattom, Thiruvananthapuram - Kerala PCB",10-09-2024 23:00:00,8.563700,76.886500,CO,18,45,31
India,Kerala,Thiruvananthapuram,"Plammoodu, Thiruvananthapuram - Kerala PCB",10-09-2024 23:00:00,8.5149093,76.9435879,SO2,10,22,16
India,Kerala,Thrissur,"Corporation Ground, Thrissur - Kerala PCB",10-09-2024 23:00:00,10.532400,76.215900,CO,40,46,42
India,Kerala,Thrissur,"Corporation Ground, Thrissur - Kerala PCB",10-09-2024 23:00:00,10.532400,76.215900,OZONE,30,31,30
India,Madhya Pradesh,Bhopal,"Paryavaran Parisar, Bhopal - MPPCB",10-09-2024 23:00:00,23.210494,77.425409,NH3,2,2,2
India,Madhya Pradesh,Bhopal,"Paryavaran Parisar, Bhopal - MPPCB",10-09-2024 23:00:00,23.210494,77.425409,CO,18,32,22
India,Madhya Pradesh,Bhopal,"T T Nagar, Bhopal - MPPCB",10-09-2024 23:00:00,23.233584,77.400574,PM2.5,10,40,26
India,Madhya Pradesh,Bhopal,"T T Nagar, Bhopal - MPPCB",10-09-2024 23:00:00,23.233584,77.400574,PM10,22,58,36
India,Madhya Pradesh,Dewas,"Bhopal Chauraha, Dewas - MPPCB",10-09-2024 23:00:00,22.9682591,76.064118,NO2,7,13,12
India,Madhya Pradesh,Gwalior,"City Center, Gwalior - MPPCB",10-09-2024 23:00:00,26.203442,78.193251,SO2,24,33,29
India,Madhya Pradesh,Gwalior,"City Center, Gwalior - MPPCB",10-09-2024 23:00:00,26.203442,78.193251,CO,30,68,50
India,Madhya Pradesh,Gwalior,"Deen Dayal Nagar, Gwalior - MPPCB",10-09-2024 23:00:00,26.259242,78.216432,NO2,NA,NA,NA
India,Madhya Pradesh,Gwalior,"Deen Dayal Nagar, Gwalior - MPPCB",10-09-2024 23:00:00,26.259242,78.216432,CO,43,47,45
India,Madhya Pradesh,Gwalior,"Phool Bagh, Gwalior - Mondelez Ind. Food",10-09-2024 23:00:00,26.210536,78.171,NO2,4,6,4
India,Madhya Pradesh,Indore,"Chhoti Gwaltoli, Indore - MPPCB",10-09-2024 23:00:00,22.4310,75.5213,PM10,31,74,52
India,Madhya Pradesh,Indore,"Chhoti Gwaltoli, Indore - MPPCB",10-09-2024 23:00:00,22.4310,75.5213,NO2,37,66,48
India,Madhya Pradesh,Indore,"Chhoti Gwaltoli, Indore - MPPCB",10-09-2024 23:00:00,22.4310,75.5213,SO2,11,16,14
India,Madhya Pradesh,Indore,"Chhoti Gwaltoli, Indore - MPPCB",10-09-2024 23:00:00,22.4310,75.5213,OZONE,23,45,33
India,Madhya Pradesh,Indore,"Regional Park, Indore - IMC",10-09-2024 23:00:00,22.6780,75.8559,PM10,NA,NA,NA
India,Madhya Pradesh,Indore,"Regional Park, Indore - IMC",10-09-2024 23:00:00,22.6780,75.8559,SO2,39,51,41
India,Madhya Pradesh,Indore,"Regional Park, Indore - IMC",10-09-2024 23:00:00,22.6780,75.8559,CO,9,18,13
India,Madhya Pradesh,Indore,"Regional Park, Indore - IMC",10-09-2024 23:00:00,22.6780,75.8559,OZONE,5,10,6
India,Madhya Pradesh,Indore,"Residency Area, Indore - IMC",10-09-2024 23:00:00,22.7084,75.8815,PM10,NA,NA,NA
India,Madhya Pradesh,Indore,"Residency Area, Indore - IMC",10-09-2024 23:00:00,22.7084,75.8815,SO2,23,25,24
India,Madhya Pradesh,Jabalpur,"Gupteshwar, Jabalpur - JMC",10-09-2024 23:00:00,23.142888,79.916147,PM2.5,24,74,44
India,Madhya Pradesh,Jabalpur,"Gupteshwar, Jabalpur - JMC",10-09-2024 23:00:00,23.142888,79.916147,PM10,20,70,40
India,Madhya Pradesh,Jabalpur,"Suhagi, Jabalpur - JMC",10-09-2024 23:00:00,23.218135,79.957770,PM2.5,10,20,15
India,Madhya Pradesh,Jabalpur,"Suhagi, Jabalpur - JMC",10-09-2024 23:00:00,23.218135,79.957770,NO2,15,17,16
India,Madhya Pradesh,Katni,"Gole Bazar, Katni - MPPCB",10-09-2024 23:00:00,23.50016,80.23284,CO,10,26,14
India,Madhya Pradesh,Maihar,"Sahilara, Maihar - KJS Cements",10-09-2024 23:00:00,24.2613009,80.7231783,NO2,10,12,10
India,Madhya Pradesh,Maihar,"Sahilara, Maihar - KJS Cements",10-09-2024 23:00:00,24.2613009,80.7231783,SO2,10,11,11
India,Madhya Pradesh,Mandideep,"Sector-D Industrial Area, Mandideep - MPPCB",10-09-2024 23:00:00,23.108440,77.511428,PM10,20,66,40
India,Madhya Pradesh,Mandideep,"Sector-D Industrial Area, Mandideep - MPPCB",10-09-2024 23:00:00,23.108440,77.511428,CO,20,29,24
India,Madhya Pradesh,Sagar,"Civil Lines, Sagar - MPPCB",10-09-2024 23:00:00,23.838586,78.759431,NO2,2,19,6
India,Madhya Pradesh,Sagar,"Deen Dayal Nagar, Sagar - MPPCB",10-09-2024 23:00:00,23.8640158,78.80289321,PM10,11,484,87
India,Madhya Pradesh,Satna,"Bandhavgar Colony, Satna - Birla Cement",10-09-2024 23:00:00,24.58434363,80.8549414,PM2.5,7,20,12
India,Madhya Pradesh,Satna,"Bandhavgar Colony, Satna - Birla Cement",10-09-2024 23:00:00,24.58434363,80.8549414,PM10,57,62,60
India,Madhya Pradesh,Satna,"Bandhavgar Colony, Satna - Birla Cement",10-09-2024 23:00:00,24.58434363,80.8549414,NO2,4,4,4
India,Madhya Pradesh,Singrauli,"Suryakiran Bhawan NCL, Singrauli - MPPCB",10-09-2024 23:00:00,24.108970,82.645580,PM2.5,13,71,49
India,Madhya Pradesh,Singrauli,"Suryakiran Bhawan NCL, Singrauli - MPPCB",10-09-2024 23:00:00,24.108970,82.645580,SO2,21,35,27
India,Madhya Pradesh,Ujjain,"Mahakaleshwar Temple, Ujjain - MPPCB",10-09-2024 23:00:00,23.182719 ,75.768218 ,NO2,NA,NA,NA
India,Madhya Pradesh,Ujjain,"Mahakaleshwar Temple, Ujjain - MPPCB",10-09-2024 23:00:00,23.182719 ,75.768218 ,CO,24,26,25
India,Maharashtra,Amravati,"Shri Shivaji Science College, Amaravati - MPCB",10-09-2024 23:00:00,20.939198,77.765701,CO,22,33,29
India,Maharashtra,Amravati,"Shri Shivaji Science College, Amaravati - MPCB",10-09-2024 23:00:00,20.939198,77.765701,OZONE,10,24,18
India,Maharashtra,Aurangabad,"MIDC Chilkalthana, Aurangabad - MPCB",10-09-2024 23:00:00,19.875620,75.387310,PM2.5,3,34,24
India,Maharashtra,Aurangabad,"MIDC Chilkalthana, Aurangabad - MPCB",10-09-2024 23:00:00,19.875620,75.387310,PM10,27,52,39
India,Maharashtra,Aurangabad,"MIDC Chilkalthana, Aurangabad - MPCB",10-09-2024 23:00:00,19.875620,75.387310,SO2,1,7,4
India,Maharashtra,Aurangabad,"MIDC Chilkalthana, Aurangabad - MPCB",10-09-2024 23:00:00,19.875620,75.387310,OZONE,3,20,16
India,Maharashtra,Aurangabad,"Rachnakar Colony, Aurangabad - MPCB",10-09-2024 23:00:00,19.863756,75.321188,PM2.5,28,38,32
India,Maharashtra,Aurangabad,"Rachnakar Colony, Aurangabad - MPCB",10-09-2024 23:00:00,19.863756,75.321188,NO2,22,27,24
India,Maharashtra,Chandrapur,"Chauhan Colony, Chandrapur - MPCB",10-09-2024 23:00:00,19.962900,79.298714,NH3,2,4,3
India,Maharashtra,Chandrapur,"Chauhan Colony, Chandrapur - MPCB",10-09-2024 23:00:00,19.962900,79.298714,CO,26,31,28
India,Maharashtra,Chandrapur,"MIDC Khutala, Chandrapur - MPCB",10-09-2024 23:00:00,19.9775302,79.2337086,PM10,NA,NA,NA
India,Maharashtra,Chandrapur,"MIDC Khutala, Chandrapur - MPCB",10-09-2024 23:00:00,19.9775302,79.2337086,NO2,NA,NA,NA
India,Maharashtra,Chandrapur,"MIDC Khutala, Chandrapur - MPCB",10-09-2024 23:00:00,19.9775302,79.2337086,NH3,NA,NA,NA
India,Maharashtra,Chandrapur,"MIDC Khutala, Chandrapur - MPCB",10-09-2024 23:00:00,19.9775302,79.2337086,OZONE,4,15,12
India,Maharashtra,Dhule,"Deopur, Dhule - MPCB",10-09-2024 23:00:00,20.918946,74.776388,PM10,28,48,38
India,Maharashtra,Jalna,"Old MIDC, Jalna - MPCB",10-09-2024 23:00:00,19.854616,75.905894,NO2,NA,NA,NA
India,Maharashtra,Jalna,"Old MIDC, Jalna - MPCB",10-09-2024 23:00:00,19.854616,75.905894,SO2,NA,NA,NA
India,Maharashtra,Latur,"Sawe Wadi, Latur - MPCB",10-09-2024 23:00:00,18.39963,76.57452,NO2,4,25,10
India,Maharashtra,Latur,"Sawe Wadi, Latur - MPCB",10-09-2024 23:00:00,18.39963,76.57452,NH3,10,12,11
India,Maharashtra,Mahad,"Kamble Tarf Birwadi, Mahad - MPCB",10-09-2024 23:00:00,18.1023399,73.4783687,NH3,2,6,4
India,Maharashtra,Malegaon,"Mahesh Nagar, Malegaon - MPCB",10-09-2024 23:00:00,20.555712,74.529236,PM2.5,21,74,42
India,Maharashtra,Mumbai,"Bandra Kurla Complex, Mumbai - MPCB",10-09-2024 23:00:00,19.065931,72.862131,NO2,NA,NA,NA
India,Maharashtra,Mumbai,"Borivali East, Mumbai - IITM",10-09-2024 23:00:00,19.23241,72.86895,PM10,NA,NA,NA
India,Maharashtra,Mumbai,"Byculla, Mumbai - BMC",10-09-2024 23:00:00,18.9767,72.8380,PM10,7,28,17
India,Maharashtra,Mumbai,"Colaba, Mumbai - MPCB",10-09-2024 23:00:00,18.910000,72.820000,PM2.5,10,20,15
India,Maharashtra,Mumbai,"Colaba, Mumbai - MPCB",10-09-2024 23:00:00,18.910000,72.820000,NO2,25,26,26
India,Maharashtra,Mumbai,"Colaba, Mumbai - MPCB",10-09-2024 23:00:00,18.910000,72.820000,CO,9,10,10
India,Maharashtra,Mumbai,"Ghatkopar, Mumbai - BMC",10-09-2024 23:00:00,19.083694,72.920967,PM10,11,35,20
India,Maharashtra,Mumbai,"Ghatkopar, Mumbai - BMC",10-09-2024 23:00:00,19.083694,72.920967,NH3,10,17,12
India,Maharashtra,Mumbai,"Ghatkopar, Mumbai - BMC",10-09-2024 23:00:00,19.083694,72.920967,SO2,1,1,1
India,Maharashtra,Mumbai,"Kandivali East, Mumbai - MPCB",10-09-2024 23:00:00,19.205800,72.868200,NO2,2,9,5
India,Maharashtra,Mumbai,"Kandivali East, Mumbai - MPCB",10-09-2024 23:00:00,19.205800,72.868200,NH3,1,2,2
India,Maharashtra,Mumbai,"Kandivali West, Mumbai - BMC",10-09-2024 23:00:00,19.215859,72.831718,NH3,2,4,3
India,Maharashtra,Mumbai,"Kherwadi_Bandra East, Mumbai - MPCB",10-09-2024 23:00:00,19.0632143,72.8456324,CO,12,24,19
India,Maharashtra,Mumbai,"Kherwadi_Bandra East, Mumbai - MPCB",10-09-2024 23:00:00,19.0632143,72.8456324,OZONE,1,19,9
India,Maharashtra,Mumbai,"Khindipada-Bhandup West, Mumbai - IITM",10-09-2024 23:00:00,19.1653323,72.922099,NO2,NA,NA,NA
India,Maharashtra,Mumbai,"Malad West, Mumbai - IITM",10-09-2024 23:00:00,19.19709,72.82204,NO2,5,15,8
India,Maharashtra,Mumbai,"Malad West, Mumbai - IITM",10-09-2024 23:00:00,19.19709,72.82204,NH3,4,6,5
India,Maharashtra,Mumbai,"Malad West, Mumbai - IITM",10-09-2024 23:00:00,19.19709,72.82204,CO,2,2,2
India,Maharashtra,Mumbai,"Mindspace-Malad West, Mumbai - MPCB",10-09-2024 23:00:00,19.1878657,72.8304069,SO2,2,5,4
India,Maharashtra,Mumbai,"Mulund West, Mumbai - MPCB",10-09-2024 23:00:00,19.1750,72.9419,NO2,16,17,16
India,Maharashtra,Mumbai,"Mulund West, Mumbai - MPCB",10-09-2024 23:00:00,19.1750,72.9419,OZONE,7,8,7
India,Maharashtra,Mumbai,"Navy Nagar-Colaba, Mumbai - IITM",10-09-2024 23:00:00,18.897756,72.813320,PM2.5,NA,NA,NA
India,Maharashtra,Mumbai,"Powai, Mumbai - MPCB",10-09-2024 23:00:00,19.137500,72.915056,OZONE,5,6,5
India,Maharashtra,Mumbai,"Sewri, Mumbai - BMC",10-09-2024 23:00:00,19.000084,72.856730,NH3,4,10,6
India,Maharashtra,Mumbai,"Sewri, Mumbai - BMC",10-09-2024 23:00:00,19.000084,72.856730,OZONE,3,19,13
India,Maharashtra,Mumbai,"Shivaji Nagar, Mumbai - BMC",10-09-2024 23:00:00,19.060498,72.923356,CO,4,72,51
India,Maharashtra,Mumbai,"Sion, Mumbai - MPCB",10-09-2024 23:00:00,19.047000,72.874600,PM2.5,10,79,26
India,Maharashtra,Mumbai,"Vasai West, Mumbai - MPCB",10-09-2024 23:00:00,19.383200,72.820400,SO2,24,25,24
India,Maharashtra,Mumbai,"Vasai West, Mumbai - MPCB",10-09-2024 23:00:00,19.383200,72.820400,CO,18,40,19
India,Maharashtra,Mumbai,"Vile Parle West, Mumbai - MPCB",10-09-2024 23:00:00,19.10861,72.83622,SO2,8,8,8
India,Maharashtra,Mumbai,"Worli, Mumbai - MPCB",10-09-2024 23:00:00,18.9936162,72.8128113,CO,5,10,8
India,Maharashtra,Mumbai,"Worli, Mumbai - MPCB",10-09-2024 23:00:00,18.9936162,72.8128113,OZONE,6,10,8
India,Maharashtra,Nagpur,"Ambazari, Nagpur - MPCB",10-09-2024 23:00:00,21.121801,79.04952,PM10,42,66,54
India,Maharashtra,Nagpur,"Ambazari, Nagpur - MPCB",10-09-2024 23:00:00,21.121801,79.04952,CO,12,66,39
India,Maharashtra,Nagpur,"Mahal, Nagpur - MPCB",10-09-2024 23:00:00,21.14472,79.107595,NO2,6,26,15
India,Maharashtra,Nagpur,"Mahal, Nagpur - MPCB",10-09-2024 23:00:00,21.14472,79.107595,NH3,3,9,5
India,Maharashtra,Nagpur,"Mahal, Nagpur - MPCB",10-09-2024 23:00:00,21.14472,79.107595,OZONE,5,10,6
India,Maharashtra,Nagpur,"Opp GPO Civil Lines, Nagpur - MPCB",10-09-2024 23:00:00,21.152875,79.0517531,PM2.5,11,45,26
India,Maharashtra,Nagpur,"Opp GPO Civil Lines, Nagpur - MPCB",10-09-2024 23:00:00,21.152875,79.0517531,PM10,16,38,26
India,Maharashtra,Nagpur,"Opp GPO Civil Lines, Nagpur - MPCB",10-09-2024 23:00:00,21.152875,79.0517531,CO,16,72,42
India,Maharashtra,Nagpur,"Ram Nagar, Nagpur - MPCB",10-09-2024 23:00:00,21.143383,79.048912,PM2.5,23,55,35
India,Maharashtra,Nanded,"Sneh Nagar, Nanded - MPCB",10-09-2024 23:00:00,19.173852,77.296291,OZONE,15,60,30
India,Maharashtra,Nashik,"Gangapur Road, Nashik - MPCB",10-09-2024 23:00:00,20.0073285,73.7762427,SO2,7,14,9
India,Maharashtra,Nashik,"Gangapur Road, Nashik - MPCB",10-09-2024 23:00:00,20.0073285,73.7762427,CO,4,51,16
India,Maharashtra,Nashik,"Hirawadi, Nashik - MPCB",10-09-2024 23:00:00,20.021503,73.813844,NH3,1,2,1
India,Maharashtra,Nashik,"Hirawadi, Nashik - MPCB",10-09-2024 23:00:00,20.021503,73.813844,CO,13,26,18
India,Maharashtra,Nashik,"MIDC Ambad, Nashik - MPCB",10-09-2024 23:00:00,19.950220,73.731480,PM10,42,84,58
India,Maharashtra,Nashik,"MIDC Ambad, Nashik - MPCB",10-09-2024 23:00:00,19.950220,73.731480,NO2,6,16,9
India,Maharashtra,Nashik,"MIDC Ambad, Nashik - MPCB",10-09-2024 23:00:00,19.950220,73.731480,CO,28,48,44
India,Maharashtra,Navi Mumbai,"Mahape, Navi Mumbai - MPCB",10-09-2024 23:00:00,19.1135051,73.008978,NO2,NA,NA,NA
India,Maharashtra,Navi Mumbai,"Mahape, Navi Mumbai - MPCB",10-09-2024 23:00:00,19.1135051,73.008978,SO2,NA,NA,NA
India,Maharashtra,Navi Mumbai,"Mahape, Navi Mumbai - MPCB",10-09-2024 23:00:00,19.1135051,73.008978,OZONE,12,14,14
India,Maharashtra,Navi Mumbai,"Nerul, Navi Mumbai - MPCB",10-09-2024 23:00:00,19.008751,73.016620,PM10,NA,NA,NA
India,Maharashtra,Navi Mumbai,"Nerul, Navi Mumbai - MPCB",10-09-2024 23:00:00,19.008751,73.016620,NO2,19,26,22
India,Maharashtra,Navi Mumbai,"Nerul, Navi Mumbai - MPCB",10-09-2024 23:00:00,19.008751,73.016620,CO,16,17,16
India,Maharashtra,Navi Mumbai,"Sanpada, Navi Mumbai - MPCB",10-09-2024 23:00:00,19.0575752,73.0151367,NO2,12,42,23
India,Maharashtra,Navi Mumbai,"Sector-19A Nerul, Navi Mumbai - IITM",10-09-2024 23:00:00,19.044,73.0325,SO2,1,6,3
India,Maharashtra,Parbhani,"Masoom Colony, Parbhani - MPCB",10-09-2024 23:00:00,19.265594,76.761463,SO2,1,2,1
India,Maharashtra,Pimpri-Chinchwad,"Gavalinagar, Pimpri Chinchwad - MPCB",10-09-2024 23:00:00,18.63673,73.82487,NH3,4,4,4
India,Maharashtra,Pimpri-Chinchwad,"Gavalinagar, Pimpri Chinchwad - MPCB",10-09-2024 23:00:00,18.63673,73.82487,SO2,1,3,2
India,Maharashtra,Pimpri-Chinchwad,"Park Street Wakad, Pimpri Chinchwad - MPCB",10-09-2024 23:00:00,18.59051,73.77946,NO2,12,25,16
India,Maharashtra,Pimpri-Chinchwad,"Savta Mali Nagar, Pimpri-Chinchwad - IITM",10-09-2024 23:00:00,18.614767,73.799516,NO2,9,153,41
India,Maharashtra,Pimpri-Chinchwad,"Thergaon, Pimpri Chinchwad - MPCB",10-09-2024 23:00:00,18.616318,73.765797,NH3,1,7,3
India,Maharashtra,Pimpri-Chinchwad,"Thergaon, Pimpri Chinchwad - MPCB",10-09-2024 23:00:00,18.616318,73.765797,CO,4,50,28
India,Maharashtra,Pune,"Bhumkar Nagar, Pune - IITM",10-09-2024 23:00:00,18.605770,73.749976,PM2.5,10,114,29
India,Maharashtra,Pune,"Karve Road, Pune - MPCB",10-09-2024 23:00:00,18.5011743,73.8165527,CO,1,48,23
India,Maharashtra,Pune,"Katraj Dairy, Pune - MPCB",10-09-2024 23:00:00,18.454450,73.854155,CO,4,63,38
India,Maharashtra,Pune,"Panchawati_Pashan, Pune - IITM",10-09-2024 23:00:00,18.536457,73.805454,PM10,8,24,14
India,Maharashtra,Pune,"Panchawati_Pashan, Pune - IITM",10-09-2024 23:00:00,18.536457,73.805454,CO,27,48,40
India,Maharashtra,Pune,"Panchawati_Pashan, Pune - IITM",10-09-2024 23:00:00,18.536457,73.805454,OZONE,2,17,6
India,Maharashtra,Pune,"Revenue Colony-Shivajinagar, Pune - IITM",10-09-2024 23:00:00,18.530085,73.849598,PM2.5,18,35,26
India,Maharashtra,Sangli,"Vijay Nagar, Sangli - MPCB",10-09-2024 23:00:00, 16.5038,74.3623,PM2.5,3,22,9
India,Maharashtra,Solapur,"Ratandeep Housing Society, Solapur - MPCB",10-09-2024 23:00:00,17.65439,75.90649,PM10,23,50,34
India,Maharashtra,Thane,"Kasarvadavali, Thane - MPCB",10-09-2024 23:00:00,19.26777,72.97182,NO2,7,23,14
India,Maharashtra,Thane,"Kasarvadavali, Thane - MPCB",10-09-2024 23:00:00,19.26777,72.97182,SO2,5,11,9
India,Maharashtra,Thane,"Upvan Fort, Thane - MPCB",10-09-2024 23:00:00,19.222279,72.957979,CO,11,51,23
India,Maharashtra,Ulhasnagar,"Sidhi Vinayak Nagar, Ulhasnagar - MPCB",10-09-2024 23:00:00,19.235581,73.159121,NO2,13,30,19
India,Maharashtra,Ulhasnagar,"Sidhi Vinayak Nagar, Ulhasnagar - MPCB",10-09-2024 23:00:00,19.235581,73.159121,OZONE,2,40,14
India,Maharashtra,Virar,"Bolinj, Virar - MPCB",10-09-2024 23:00:00,19.4458210,72.7988231,PM2.5,23,77,45
India,Maharashtra,Virar,"Bolinj, Virar - MPCB",10-09-2024 23:00:00,19.4458210,72.7988231,NH3,1,4,2
India,Maharashtra,Virar,"Bolinj, Virar - MPCB",10-09-2024 23:00:00,19.4458210,72.7988231,SO2,1,3,2
India,Maharashtra,Virar,"Bolinj, Virar - MPCB",10-09-2024 23:00:00,19.4458210,72.7988231,CO,8,70,38
India,Meghalaya,Shillong,"Lumpyngngad, Shillong - Meghalaya PCB",10-09-2024 23:00:00,25.5586,91.8985,PM10,NA,NA,NA
India,Meghalaya,Shillong,"Lumpyngngad, Shillong - Meghalaya PCB",10-09-2024 23:00:00,25.5586,91.8985,OZONE,1,27,2
India,Mizoram,Aizawl,"Sikulpuikawn, Aizawl - Mizoram PCB",10-09-2024 23:00:00,23.7176342,92.7192841,SO2,3,3,3
India,Mizoram,Aizawl,"Sikulpuikawn, Aizawl - Mizoram PCB",10-09-2024 23:00:00,23.7176342,92.7192841,OZONE,16,68,33
India,Nagaland,Kohima,"PWD Juction, Kohima - NPCB",10-09-2024 23:00:00,25.6635413,94.0989878,NO2,3,6,4
India,Nagaland,Kohima,"PWD Juction, Kohima - NPCB",10-09-2024 23:00:00,25.6635413,94.0989878,OZONE,1,8,2
India,Odisha,Balasore,"Kalidaspur, Balasore - OSPCB",10-09-2024 23:00:00,21.51161,86.89088,PM2.5,2,25,11
India,Odisha,Balasore,"Kalidaspur, Balasore - OSPCB",10-09-2024 23:00:00,21.51161,86.89088,CO,68,68,68
India,Odisha,Barbil,"Forest Office, Barbil - OSPCB",10-09-2024 23:00:00,22.1166054,85.3945546,PM10,36,85,55
India,Odisha,Barbil,"Forest Office, Barbil - OSPCB",10-09-2024 23:00:00,22.1166054,85.3945546,OZONE,18,43,31
India,Odisha,Bhubaneswar,"Lingraj Mandir, Bhubaneswar - OSPCB",10-09-2024 23:00:00,20.240790,85.836784,NO2,2,10,6
India,Odisha,Bhubaneswar,"Lingraj Mandir, Bhubaneswar - OSPCB",10-09-2024 23:00:00,20.240790,85.836784,NH3,3,4,4
India,Odisha,Bhubaneswar,"Lingraj Mandir, Bhubaneswar - OSPCB",10-09-2024 23:00:00,20.240790,85.836784,OZONE,18,46,42
India,Odisha,Bileipada,"Tata Township, Bileipada - OSPCB",10-09-2024 23:00:00,22.06156703,85.47409613,NO2,9,15,13
India,Odisha,Byasanagar,"Ferro Chrome Colony, Byasanagar - OSPCB",10-09-2024 23:00:00,20.94185,86.11510,NH3,1,2,2
India,Odisha,Cuttack,"CDA Area, Cuttack - OSPCB",10-09-2024 23:00:00,20.48891     ,85.84768     ,PM2.5,7,38,21
India,Odisha,Cuttack,"CDA Area, Cuttack - OSPCB",10-09-2024 23:00:00,20.48891     ,85.84768     ,CO,3,38,22
India,Odisha,Keonjhar,"Jagamohanpur, Keonjhar - OSPCB",10-09-2024 23:00:00,21.643900,85.599355,OZONE,55,105,86
India,Odisha,Rairangpur,"Divisional Forest Office, Rairangpur - OSPCB",10-09-2024 23:00:00,22.265816,86.174829,NO2,6,6,6
India,Odisha,Rairangpur,"Divisional Forest Office, Rairangpur - OSPCB",10-09-2024 23:00:00,22.265816,86.174829,OZONE,7,22,12
India,Odisha,Rourkela,"Fertilizer Township, Rourkela - OSPCB",10-09-2024 23:00:00,22.18972222,84.86277778,PM2.5,NA,NA,NA
India,Odisha,Rourkela,"Sector-2, Rourkela - OSPCB",10-09-2024 23:00:00,22.24500000,84.88111111,PM2.5,7,43,19
India,Odisha,Suakati,"OMC Colony, Suakati - OSPCB",10-09-2024 23:00:00,21.606865,85.510538,PM2.5,9,58,28
India,Odisha,Talcher,"Talcher Coalfields,Talcher - OSPCB",10-09-2024 23:00:00,20.9360711,85.1707021,PM10,3,114,40
India,Odisha,Tensa,"Barsua Iron Ore Mines, Tensa - OSPCB",10-09-2024 23:00:00,21.869985,85.167016,CO,25,41,33
India,Puducherry,Puducherry,"Jawahar Nagar, Puducherry - PPCC",10-09-2024 23:00:00,11.9309,79.8027,PM10,25,75,39
India,Puducherry,Puducherry,"Jawahar Nagar, Puducherry - PPCC",10-09-2024 23:00:00,11.9309,79.8027,SO2,7,15,11
India,Punjab,Amritsar,"Golden Temple, Amritsar - PPCB",10-09-2024 23:00:00,31.620000,74.876512,SO2,9,11,10
India,Punjab,Jalandhar,"Civil Line, Jalandhar - PPCB",10-09-2024 23:00:00,31.321907,75.578914,PM2.5,15,72,41
India,Punjab,Jalandhar,"Civil Line, Jalandhar - PPCB",10-09-2024 23:00:00,31.321907,75.578914,OZONE,22,69,40
India,Punjab,Ludhiana,"Punjab Agricultural University, Ludhiana - PPCB",10-09-2024 23:00:00,30.9028,75.8086,NO2,16,24,19
India,Punjab,Ludhiana,"Punjab Agricultural University, Ludhiana - PPCB",10-09-2024 23:00:00,30.9028,75.8086,SO2,4,39,14
India,Punjab,Ludhiana,"Punjab Agricultural University, Ludhiana - PPCB",10-09-2024 23:00:00,30.9028,75.8086,OZONE,12,69,17
India,Punjab,Mandi Gobindgarh,"RIMT University, Mandi Gobindgarh - PPCB",10-09-2024 23:00:00,30.649961,76.331442,PM2.5,33,419,99
India,Punjab,Mandi Gobindgarh,"RIMT University, Mandi Gobindgarh - PPCB",10-09-2024 23:00:00,30.649961,76.331442,NO2,15,26,25
India,Punjab,Mandi Gobindgarh,"RIMT University, Mandi Gobindgarh - PPCB",10-09-2024 23:00:00,30.649961,76.331442,NH3,5,6,6
India,Punjab,Mandi Gobindgarh,"RIMT University, Mandi Gobindgarh - PPCB",10-09-2024 23:00:00,30.649961,76.331442,OZONE,45,51,50
India,Punjab,Patiala,"Model Town, Patiala - PPCB",10-09-2024 23:00:00,30.349388,76.366642,PM10,27,60,43
India,Punjab,Patiala,"Model Town, Patiala - PPCB",10-09-2024 23:00:00,30.349388,76.366642,NO2,6,22,19
India,Punjab,Patiala,"Model Town, Patiala - PPCB",10-09-2024 23:00:00,30.349388,76.366642,SO2,2,12,8
India,Punjab,Patiala,"Model Town, Patiala - PPCB",10-09-2024 23:00:00,30.349388,76.366642,OZONE,18,37,26
India,Punjab,Rupnagar,"Ratanpura, Rupnagar - Ambuja Cements",10-09-2024 23:00:00,31.0325454,76.5623046,CO,34,66,50
India,Rajasthan,Banswara,"Rati Talai, Banswara - RSPCB",10-09-2024 23:00:00,23.555190,74.440010,PM2.5,8,73,31
India,Rajasthan,Baran,"Bamboliya, Baran - RSPCB",10-09-2024 23:00:00,25.106006,76.469948,NH3,2,4,3
India,Rajasthan,Barmer,"Railway Colony, Barmer - RSPCB",10-09-2024 23:00:00,25.747299,71.393989,CO,14,26,19
India,Rajasthan,Bharatpur,"Krishna Nagar, Bharatpur - RSPCB",10-09-2024 23:00:00,27.215415,77.50873,PM10,15,42,30
India,Rajasthan,Bhilwara,"Pratap Nagar, Bhilwara - RSPCB",10-09-2024 23:00:00,25.339605,74.618883,OZONE,1,51,20
India,Rajasthan,Bhiwadi,"RIICO Ind. Area III, Bhiwadi - RSPCB",10-09-2024 23:00:00,28.194909,76.862296,CO,2,101,31
India,Rajasthan,Bhiwadi,"Vasundhara Nagar_UIT, Bhiwadi - RSPCB",10-09-2024 23:00:00,28.207266,76.829265,PM2.5,12,137,46
India,Rajasthan,Bhiwadi,"Vasundhara Nagar_UIT, Bhiwadi - RSPCB",10-09-2024 23:00:00,28.207266,76.829265,NO2,8,14,12
India,Rajasthan,Bikaner,"MM Ground, Bikaner - RSPCB",10-09-2024 23:00:00,28.018792,73.292658,PM10,54,411,143
India,Rajasthan,Bundi,"New Colony, Bundi - RSPCB",10-09-2024 23:00:00,25.435774,75.644272,NH3,1,3,1
India,Rajasthan,Chittorgarh,"Shastri Nagar, Chittorgarh - RSPCB",10-09-2024 23:00:00,24.892047,74.623527,PM2.5,37,167,65
India,Rajasthan,Churu,"Subash Chowk, Churu - RSPCB",10-09-2024 23:00:00,28.296139,74.961696,PM2.5,20,67,43
India,Rajasthan,Dausa,"Khatikan Mohalla, Dausa - RSPCB",10-09-2024 23:00:00,26.895552,76.334753,NH3,7,10,8
India,Rajasthan,Dholpur,"Raja Ganj, Dholpur - RSPCB",10-09-2024 23:00:00,26.699557,77.898881,OZONE,7,22,14
India,Rajasthan,Jaipur,"Adarsh Nagar, Jaipur - RSPCB",10-09-2024 23:00:00,26.902909,75.836858,NH3,2,17,7
India,Rajasthan,Jaipur,"Adarsh Nagar, Jaipur - RSPCB",10-09-2024 23:00:00,26.902909,75.836858,CO,30,100,50
India,Rajasthan,Jaipur,"Police Commissionerate, Jaipur - RSPCB",10-09-2024 23:00:00,26.9164092,75.7994901,PM2.5,46,77,62
India,Rajasthan,Jaipur,"Police Commissionerate, Jaipur - RSPCB",10-09-2024 23:00:00,26.9164092,75.7994901,OZONE,15,59,40
India,Rajasthan,Jaipur,"RIICO Sitapura, Jaipur - RSPCB",10-09-2024 23:00:00,26.786682,75.827928,PM2.5,14,78,49
India,Rajasthan,Jaipur,"RIICO Sitapura, Jaipur - RSPCB",10-09-2024 23:00:00,26.786682,75.827928,PM10,17,112,74
India,Rajasthan,Jaipur,"RIICO Sitapura, Jaipur - RSPCB",10-09-2024 23:00:00,26.786682,75.827928,NO2,9,42,26
India,Rajasthan,Jaipur,"RIICO Sitapura, Jaipur - RSPCB",10-09-2024 23:00:00,26.786682,75.827928,OZONE,28,177,121
India,Rajasthan,Jaipur,"Sector-2 Murlipura, Jaipur - RSPCB",10-09-2024 23:00:00,26.960669,75.771817,NH3,1,2,2
India,Rajasthan,Jaipur,"Shastri Nagar, Jaipur - RSPCB",10-09-2024 23:00:00,26.9502929,75.730943,PM2.5,32,90,68
India,Rajasthan,Jaipur,"Shastri Nagar, Jaipur - RSPCB",10-09-2024 23:00:00,26.9502929,75.730943,NH3,3,13,6
India,Rajasthan,Jaisalmer,"Sadar Bazar, Jaisalmer - RSPCB",10-09-2024 23:00:00,26.912329,70.909168,PM2.5,16,35,24
India,Rajasthan,Jaisalmer,"Sadar Bazar, Jaisalmer - RSPCB",10-09-2024 23:00:00,26.912329,70.909168,PM10,49,95,68
India,Rajasthan,Jaisalmer,"Sadar Bazar, Jaisalmer - RSPCB",10-09-2024 23:00:00,26.912329,70.909168,SO2,2,6,3
India,Rajasthan,Jalore,"Mudtra Sili, Jalore - RSPCB",10-09-2024 23:00:00,25.344694,72.626208,OZONE,17,54,30
India,Rajasthan,Jhalawar,"Rajlaxmi Nagar, Jhalawar - RSPCB",10-09-2024 23:00:00,24.588397,76.172782,PM2.5,24,82,42
India,Rajasthan,Jhalawar,"Rajlaxmi Nagar, Jhalawar - RSPCB",10-09-2024 23:00:00,24.588397,76.172782,NO2,7,13,11
India,Rajasthan,Jhunjhunu,"Indra Nagar, Jhunjhunu - RSPCB",10-09-2024 23:00:00,28.108988,75.386577,PM2.5,7,46,24
India,Rajasthan,Jhunjhunu,"Indra Nagar, Jhunjhunu - RSPCB",10-09-2024 23:00:00,28.108988,75.386577,NO2,8,22,13
India,Rajasthan,Jhunjhunu,"Indra Nagar, Jhunjhunu - RSPCB",10-09-2024 23:00:00,28.108988,75.386577,SO2,2,3,3
India,Rajasthan,Jodhpur,"Digari Kalan, Jodhpur - RSPCB",10-09-2024 23:00:00,26.295810,73.082283,PM10,20,77,42
India,Rajasthan,Jodhpur,"Mandor, Jodhpur - RSPCB",10-09-2024 23:00:00,26.358805,73.047444,NH3,3,7,4
India,Rajasthan,Jodhpur,"Samrat Ashok Udhyan, Jodhpur - RSPCB",10-09-2024 23:00:00,26.253384,72.976571,PM10,31,101,66
India,Rajasthan,Karauli,"Satyawati Vihar, Karauli - RSPCB",10-09-2024 23:00:00,26.506177,77.025989,CO,17,26,21
India,Rajasthan,Kota,"Nayapura, Kota - RSPCB",10-09-2024 23:00:00,25.196024,75.855668,NH3,3,9,7
India,Rajasthan,Kota,"Shrinath Puram, Kota - RSPCB",10-09-2024 23:00:00,25.14389,75.821256,NO2,10,29,17
India,Rajasthan,Kota,"Shrinath Puram, Kota - RSPCB",10-09-2024 23:00:00,25.14389,75.821256,NH3,2,3,2
India,Rajasthan,Nagaur,"Karni Colony, Nagaur - RSPCB",10-09-2024 23:00:00,27.213494,73.734444,PM10,29,145,75
India,Rajasthan,Nagaur,"Karni Colony, Nagaur - RSPCB",10-09-2024 23:00:00,27.213494,73.734444,NH3,5,7,6
India,Rajasthan,Pali,"Indira Colony Vistar, Pali - RSPCB",10-09-2024 23:00:00,25.771061, 73.340227,PM2.5,10,72,41
India,Rajasthan,Pratapgarh,"Pragati Nagar, Pratapgarh - RSPCB",10-09-2024 23:00:00,24.041198,74.780702,PM2.5,19,62,38
India,Rajasthan,Pratapgarh,"Pragati Nagar, Pratapgarh - RSPCB",10-09-2024 23:00:00,24.041198,74.780702,NO2,2,23,7
India,Rajasthan,Pratapgarh,"Pragati Nagar, Pratapgarh - RSPCB",10-09-2024 23:00:00,24.041198,74.780702,NH3,3,5,4
India,Rajasthan,Rajsamand,"Dhoinda, Rajsamand - RSPCB",10-09-2024 23:00:00,25.036360,73.883502,PM10,12,67,35
India,Rajasthan,Rajsamand,"Dhoinda, Rajsamand - RSPCB",10-09-2024 23:00:00,25.036360,73.883502,NO2,5,19,9
India,Rajasthan,Sawai Madhopur,"Sahu Nagar, Sawai Madhopur - RSPCB",10-09-2024 23:00:00,26.031443,76.359327,CO,2,48,13
India,Rajasthan,Sawai Madhopur,"Sahu Nagar, Sawai Madhopur - RSPCB",10-09-2024 23:00:00,26.031443,76.359327,OZONE,37,206,82
India,Rajasthan,Sikar,"Radhakishan Pura, Sikar - RSPCB",10-09-2024 23:00:00,27.608912,75.153302,CO,18,30,22
India,Rajasthan,Sri Ganganagar,"Old City, Sri Ganganagar - RSPCB",10-09-2024 23:00:00,29.931624,73.864511,CO,45,102,77
India,Rajasthan,Tonk,"Shastri Nagar, Tonk - RSPCB",10-09-2024 23:00:00,26.159933,75.780517,SO2,1,4,3
India,Rajasthan,Tonk,"Shastri Nagar, Tonk - RSPCB",10-09-2024 23:00:00,26.159933,75.780517,OZONE,6,62,46
India,Rajasthan,Udaipur,"Ashok Nagar, Udaipur - RSPCB",10-09-2024 23:00:00,24.5886166,73.6321397,PM2.5,8,80,39
India,Rajasthan,Udaipur,"Ashok Nagar, Udaipur - RSPCB",10-09-2024 23:00:00,24.5886166,73.6321397,CO,8,100,64
India,Sikkim,Gangtok,"Zero Point GICI, Gangtok - SSPCB",10-09-2024 23:00:00,27.338530,88.614099,CO,4,10,5
India,TamilNadu,Chennai,"Alandur Bus Depot, Chennai - CPCB",10-09-2024 23:00:00,12.9099161,80.1076538,NO2,4,7,5
India,TamilNadu,Chennai,"Alandur Bus Depot, Chennai - CPCB",10-09-2024 23:00:00,12.9099161,80.1076538,SO2,1,6,3
India,TamilNadu,Chennai,"Arumbakkam, Chennai - TNPCB",10-09-2024 23:00:00,13.0664,80.2112 ,PM10,16,94,48
India,TamilNadu,Chennai,"Arumbakkam, Chennai - TNPCB",10-09-2024 23:00:00,13.0664,80.2112 ,SO2,3,12,7
India,TamilNadu,Chennai,"Kodungaiyur, Chennai - TNPCB",10-09-2024 23:00:00,13.1278,80.2642,CO,22,56,39
India,TamilNadu,Chennai,"Manali, Chennai - CPCB",10-09-2024 23:00:00,13.164544,80.26285,PM2.5,10,52,23
India,TamilNadu,Chennai,"Manali, Chennai - CPCB",10-09-2024 23:00:00,13.164544,80.26285,PM10,9,48,21
India,TamilNadu,Chennai,"Manali, Chennai - CPCB",10-09-2024 23:00:00,13.164544,80.26285,OZONE,6,24,12
India,TamilNadu,Chennai,"Perungudi, Chennai - TNPCB",10-09-2024 23:00:00,12.9533,80.2357,NO2,3,10,6
India,TamilNadu,Chennai,"Royapuram, Chennai - TNPCB",10-09-2024 23:00:00,13.1036,80.2909,NH3,3,4,3
India,TamilNadu,Chennai,"Royapuram, Chennai - TNPCB",10-09-2024 23:00:00,13.1036,80.2909,CO,20,52,36
India,TamilNadu,Chennai,"Velachery Res. Area, Chennai - CPCB",10-09-2024 23:00:00,13.0052189,80.2398125,NO2,21,34,27
India,TamilNadu,Coimbatore,"PSG College of Arts and Science, Coimbatore - TNPCB",10-09-2024 23:00:00,11.0328,77.0349,PM2.5,17,39,28
India,TamilNadu,Coimbatore,"SIDCO Kurichi, Coimbatore - TNPCB",10-09-2024 23:00:00,10.942451,76.978996,PM2.5,2,143,53
India,TamilNadu,Coimbatore,"SIDCO Kurichi, Coimbatore - TNPCB",10-09-2024 23:00:00,10.942451,76.978996,SO2,14,16,15
India,TamilNadu,Cuddalore,"Kudikadu, Cuddalore - TNPCB",10-09-2024 23:00:00,11.6829898,79.7532099,PM2.5,8,53,20
India,TamilNadu,Cuddalore,"Kudikadu, Cuddalore - TNPCB",10-09-2024 23:00:00,11.6829898,79.7532099,NH3,NA,NA,NA
India,TamilNadu,Cuddalore,"Kudikadu, Cuddalore - TNPCB",10-09-2024 23:00:00,11.6829898,79.7532099,OZONE,NA,NA,NA
India,TamilNadu,Cuddalore,"Semmandalam, Cuddalore - TNPCB",10-09-2024 23:00:00,11.7637683,79.7499835,PM10,10,59,27
India,TamilNadu,Dindigul,"Mendonsa Colony, Dindigul - TNPCB",10-09-2024 23:00:00,10.358535,77.984321,NH3,1,1,1
India,TamilNadu,Gummidipoondi,"Anthoni Pillai Nagar, Gummidipoondi - TNPCB",10-09-2024 23:00:00,13.4127,80.1081,NO2,11,35,19
India,TamilNadu,Ooty,"Bombay Castel, Ooty - TNPCB",10-09-2024 23:00:00,11.4068288,76.7138973,SO2,15,18,17
India,TamilNadu,Ooty,"Bombay Castel, Ooty - TNPCB",10-09-2024 23:00:00,11.4068288,76.7138973,CO,23,26,24
India,TamilNadu,Ramanathapuram,"Chalai Bazaar, Ramanathapuram - TNPCB",10-09-2024 23:00:00,9.36399,78.831977,PM10,16,81,33
India,TamilNadu,Thoothukudi,"Meelavittan, Thoothukudi - TNPCB",10-09-2024 23:00:00,8.816428 ,78.099039,NO2,19,28,22
India,TamilNadu,Tirunelveli,"Municipal Corporation Office, Tirunelveli - TNPCB",10-09-2024 23:00:00,8.728442,77.6962,SO2,19,21,19
India,TamilNadu,Tirunelveli,"Municipal Corporation Office, Tirunelveli - TNPCB",10-09-2024 23:00:00,8.728442,77.6962,CO,20,22,21
India,TamilNadu,Tirupur,"Kumaran College, Tirupur - TNPCB",10-09-2024 23:00:00,11.0973603,77.3228673,SO2,29,31,30
India,TamilNadu,Vellore,"Vasanthapuram, Vellore - TNPCB",10-09-2024 23:00:00,12.909494,79.131861,NO2,1,22,13
India,TamilNadu,Vellore,"Vasanthapuram, Vellore - TNPCB",10-09-2024 23:00:00,12.909494,79.131861,NH3,NA,NA,NA
India,TamilNadu,Vellore,"Vasanthapuram, Vellore - TNPCB",10-09-2024 23:00:00,12.909494,79.131861,SO2,NA,NA,NA
India,TamilNadu,Virudhunagar,"Collectorate Office, Virudhunagar - TNPCB",10-09-2024 23:00:00,9.559382,77.948828,SO2,NA,NA,NA
India,TamilNadu,Virudhunagar,"Collectorate Office, Virudhunagar - TNPCB",10-09-2024 23:00:00,9.559382,77.948828,OZONE,6,7,6
India,Telangana,Hyderabad,"Bollaram Industrial Area, Hyderabad - TSPCB",10-09-2024 23:00:00,17.540891,78.358528,PM10,20,59,35
India,Telangana,Hyderabad,"Bollaram Industrial Area, Hyderabad - TSPCB",10-09-2024 23:00:00,17.540891,78.358528,NH3,3,9,4
India,Telangana,Hyderabad,"Bollaram Industrial Area, Hyderabad - TSPCB",10-09-2024 23:00:00,17.540891,78.358528,SO2,9,71,28
India,Telangana,Hyderabad,"Bollaram Industrial Area, Hyderabad - TSPCB",10-09-2024 23:00:00,17.540891,78.358528,CO,22,41,36
India,Telangana,Hyderabad,"Central University, Hyderabad - TSPCB",10-09-2024 23:00:00,17.460103,78.334361,PM10,14,26,22
India,Telangana,Hyderabad,"ECIL Kapra, Hyderabad - TSPCB",10-09-2024 23:00:00,17.470431,78.566959,PM2.5,64,72,66
India,Telangana,Hyderabad,"ECIL Kapra, Hyderabad - TSPCB",10-09-2024 23:00:00,17.470431,78.566959,NH3,4,6,5
India,Telangana,Hyderabad,"ECIL Kapra, Hyderabad - TSPCB",10-09-2024 23:00:00,17.470431,78.566959,CO,5,39,26
India,Telangana,Hyderabad,"ECIL Kapra, Hyderabad - TSPCB",10-09-2024 23:00:00,17.470431,78.566959,OZONE,5,57,40
India,Telangana,Hyderabad,"ICRISAT Patancheru, Hyderabad - TSPCB",10-09-2024 23:00:00,17.518400,78.278777,NH3,1,4,2
India,Telangana,Hyderabad,"IDA Pashamylaram, Hyderabad - TSPCB",10-09-2024 23:00:00,17.5316895,78.218939,NO2,21,36,26
India,Telangana,Hyderabad,"IDA Pashamylaram, Hyderabad - TSPCB",10-09-2024 23:00:00,17.5316895,78.218939,SO2,1,11,5
India,Telangana,Hyderabad,"IITH Kandi, Hyderabad - TSPCB",10-09-2024 23:00:00,17.585705,78.126199,CO,14,25,18
India,Telangana,Hyderabad,"Kokapet, Hyderabad - TSPCB",10-09-2024 23:00:00,17.393559,78.339194,PM2.5,39,52,42
India,Telangana,Hyderabad,"Kompally Municipal Office, Hyderabad - TSPCB",10-09-2024 23:00:00,17.544899,78.486949,CO,9,17,16
India,Telangana,Hyderabad,"Sanathnagar, Hyderabad - TSPCB",10-09-2024 23:00:00,17.4559458,78.4332152,NO2,25,243,53
India,Telangana,Hyderabad,"Somajiguda, Hyderabad - TSPCB",10-09-2024 23:00:00,17.417094,78.457437,PM10,62,77,66
India,Telangana,Hyderabad,"Somajiguda, Hyderabad - TSPCB",10-09-2024 23:00:00,17.417094,78.457437,SO2,23,28,25
India,Telangana,Hyderabad,"Zoo Park, Hyderabad - TSPCB",10-09-2024 23:00:00,17.349694,78.451437,PM10,11,20,15
India,Telangana,Hyderabad,"Zoo Park, Hyderabad - TSPCB",10-09-2024 23:00:00,17.349694,78.451437,NO2,7,14,11
India,Telangana,Hyderabad,"Zoo Park, Hyderabad - TSPCB",10-09-2024 23:00:00,17.349694,78.451437,NH3,NA,NA,NA
India,Tripura,Agartala,"Bardowali, Agartala - Tripura SPCB",10-09-2024 23:00:00,23.8175497,91.2726974,PM2.5,11,318,71
India,Uttar_Pradesh,Agra,"Manoharpur, Agra - UPPCB",10-09-2024 23:00:00,27.23711,78.01936,CO,7,10,7
India,Uttar_Pradesh,Agra,"Manoharpur, Agra - UPPCB",10-09-2024 23:00:00,27.23711,78.01936,OZONE,1,2,1
India,Uttar_Pradesh,Agra,"Rohta, Agra - UPPCB",10-09-2024 23:00:00,27.106972,78.000111,PM10,14,32,21
India,Uttar_Pradesh,Agra,"Rohta, Agra - UPPCB",10-09-2024 23:00:00,27.106972,78.000111,NH3,NA,NA,NA
India,Uttar_Pradesh,Agra,"Rohta, Agra - UPPCB",10-09-2024 23:00:00,27.106972,78.000111,CO,4,10,8
India,Uttar_Pradesh,Agra,"Rohta, Agra - UPPCB",10-09-2024 23:00:00,27.106972,78.000111,OZONE,13,14,14
India,Uttar_Pradesh,Agra,"Sanjay Palace, Agra - UPPCB",10-09-2024 23:00:00,27.19865833,78.00598056,CO,4,66,26
India,Uttar_Pradesh,Agra,"Sector-3B Avas Vikas Colony, Agra - UPPCB",10-09-2024 23:00:00,27.19412,77.96237,OZONE,17,22,20
India,Uttar_Pradesh,Agra,"Shahjahan Garden, Agra - UPPCB",10-09-2024 23:00:00,27.169338,78.03582,PM2.5,NA,NA,NA
India,Uttar_Pradesh,Agra,"Shahjahan Garden, Agra - UPPCB",10-09-2024 23:00:00,27.169338,78.03582,CO,6,18,14
India,Uttar_Pradesh,Agra,"Shastripuram, Agra - UPPCB",10-09-2024 23:00:00,27.19862,77.92066,PM2.5,6,41,20
India,Uttar_Pradesh,Agra,"Shastripuram, Agra - UPPCB",10-09-2024 23:00:00,27.19862,77.92066,PM10,NA,NA,NA
India,Uttar_Pradesh,Agra,"Shastripuram, Agra - UPPCB",10-09-2024 23:00:00,27.19862,77.92066,NO2,20,56,24
India,Uttar_Pradesh,Baghpat,"Sardar Patel Inter College, Baghpat - UPPCB",10-09-2024 23:00:00,28.964949,77.278761,PM2.5,3,37,13
India,Uttar_Pradesh,Baghpat,"Sardar Patel Inter College, Baghpat - UPPCB",10-09-2024 23:00:00,28.964949,77.278761,NH3,1,2,1
India,Uttar_Pradesh,Bareilly,"Civil Lines, Bareilly - UPPCB",10-09-2024 23:00:00,28.359581,79.414455,PM10,21,40,28
India,Uttar_Pradesh,Bareilly,"Rajendra Nagar, Bareilly - UPPCB",10-09-2024 23:00:00,28.38910936,79.42963708,OZONE,1,11,4
India,Uttar_Pradesh,Bulandshahr,"Yamunapuram, Bulandshahr - UPPCB",10-09-2024 23:00:00,28.406963,77.849831,NH3,5,9,6
India,Uttar_Pradesh,Bulandshahr,"Yamunapuram, Bulandshahr - UPPCB",10-09-2024 23:00:00,28.406963,77.849831,CO,20,43,23
India,Uttar_Pradesh,Firozabad,"Nagla Bhau, Firozabad - UPPCB",10-09-2024 23:00:00,27.168897,78.376960,PM2.5,13,43,27
India,Uttar_Pradesh,Firozabad,"Nagla Bhau, Firozabad - UPPCB",10-09-2024 23:00:00,27.168897,78.376960,NO2,16,17,17
India,Uttar_Pradesh,Firozabad,"Vibhab Nagar, Firozabad - UPPCB",10-09-2024 23:00:00,27.1594,78.3953,PM2.5,25,63,44
India,Uttar_Pradesh,Firozabad,"Vibhab Nagar, Firozabad - UPPCB",10-09-2024 23:00:00,27.1594,78.3953,PM10,23,57,40
India,Uttar_Pradesh,Firozabad,"Vibhab Nagar, Firozabad - UPPCB",10-09-2024 23:00:00,27.1594,78.3953,OZONE,12,23,14
India,Uttar_Pradesh,Ghaziabad,"Indirapuram, Ghaziabad - UPPCB",10-09-2024 23:00:00,28.646233,77.358075,CO,24,82,44
India,Uttar_Pradesh,Ghaziabad,"Loni, Ghaziabad - UPPCB",10-09-2024 23:00:00,28.757294,77.278792,NH3,1,12,3
India,Uttar_Pradesh,Ghaziabad,"Sanjay Nagar, Ghaziabad - UPPCB",10-09-2024 23:00:00,28.685382,77.453839,CO,4,60,40
India,Uttar_Pradesh,Ghaziabad,"Sanjay Nagar, Ghaziabad - UPPCB",10-09-2024 23:00:00,28.685382,77.453839,OZONE,1,39,21
India,Uttar_Pradesh,Ghaziabad,"Vasundhara, Ghaziabad - UPPCB",10-09-2024 23:00:00,28.6603346,77.3572563,PM10,31,124,88
India,Uttar_Pradesh,Ghaziabad,"Vasundhara, Ghaziabad - UPPCB",10-09-2024 23:00:00,28.6603346,77.3572563,NO2,18,49,30
India,Uttar_Pradesh,Ghaziabad,"Vasundhara, Ghaziabad - UPPCB",10-09-2024 23:00:00,28.6603346,77.3572563,NH3,3,5,4
India,Uttar_Pradesh,Ghaziabad,"Vasundhara, Ghaziabad - UPPCB",10-09-2024 23:00:00,28.6603346,77.3572563,SO2,1,117,23
India,Uttar_Pradesh,Ghaziabad,"Vasundhara, Ghaziabad - UPPCB",10-09-2024 23:00:00,28.6603346,77.3572563,OZONE,5,176,54
India,Uttar_Pradesh,Gorakhpur,"Madan Mohan Malaviya University of Technology, Gorakhpur - UPPCB",10-09-2024 23:00:00,26.730136,83.433859,CO,6,16,10
India,Uttar_Pradesh,Greater Noida,"Knowledge Park - III, Greater Noida - UPPCB",10-09-2024 23:00:00,28.47272,77.482000,SO2,16,16,16
India,Uttar_Pradesh,Hapur,"Anand Vihar, Hapur - UPPCB",10-09-2024 23:00:00,28.725645,77.749675,CO,34,49,41
India,Uttar_Pradesh,Hapur,"Anand Vihar, Hapur - UPPCB",10-09-2024 23:00:00,28.725645,77.749675,OZONE,3,15,6
India,Uttar_Pradesh,Jhansi,"Shivaji Nagar, Jhansi - UPPCB",10-09-2024 23:00:00,25.4547,78.6039,NH3,4,4,4
India,Uttar_Pradesh,Kanpur,"FTI Kidwai Nagar, Kanpur - UPPCB",10-09-2024 23:00:00,26.428282,80.327067,NH3,2,2,2
India,Uttar_Pradesh,Kanpur,"NSI Kalyanpur, Kanpur - UPPCB",10-09-2024 23:00:00,26.509954,80.249612,PM10,25,57,42
India,Uttar_Pradesh,Kanpur,"Nehru Nagar, Kanpur - UPPCB",10-09-2024 23:00:00,26.4703136,80.3229863,PM2.5,23,79,48
India,Uttar_Pradesh,Khurja,"Kalindi Kunj, Khurja - UPPCB",10-09-2024 23:00:00,28.2348927,77.8683002,CO,16,30,21
India,Uttar_Pradesh,Lucknow,"B R Ambedkar University, Lucknow - UPPCB",10-09-2024 23:00:00,26.766433,80.927299,CO,10,32,12
India,Uttar_Pradesh,Lucknow,"Gomti Nagar, Lucknow - UPPCB",10-09-2024 23:00:00,26.868120,81.005119,NO2,9,10,10
India,Uttar_Pradesh,Lucknow,"Gomti Nagar, Lucknow - UPPCB",10-09-2024 23:00:00,26.868120,81.005119,OZONE,39,46,44
India,Uttar_Pradesh,Lucknow,"Kendriya Vidyalaya, Lucknow - CPCB",10-09-2024 23:00:00,26.906111,80.948222,NO2,8,22,14
India,Uttar_Pradesh,Lucknow,"Kendriya Vidyalaya, Lucknow - CPCB",10-09-2024 23:00:00,26.906111,80.948222,SO2,1,26,7
India,Uttar_Pradesh,Lucknow,"Kendriya Vidyalaya, Lucknow - CPCB",10-09-2024 23:00:00,26.906111,80.948222,OZONE,6,46,29
India,Uttar_Pradesh,Lucknow,"Kukrail Picnic Spot-1, Lucknow - UPPCB",10-09-2024 23:00:00,26.90723,80.98579,PM10,24,34,30
India,Uttar_Pradesh,Lucknow,"Kukrail Picnic Spot-1, Lucknow - UPPCB",10-09-2024 23:00:00,26.90723,80.98579,NO2,19,19,19
India,Uttar_Pradesh,Lucknow,"Talkatora District Industries Center, Lucknow - CPCB",10-09-2024 23:00:00,26.83399722,80.8917361,PM2.5,10,99,56
India,Uttar_Pradesh,Lucknow,"Talkatora District Industries Center, Lucknow - CPCB",10-09-2024 23:00:00,26.83399722,80.8917361,SO2,7,15,10
India,Uttar_Pradesh,Meerut,"Ganga Nagar, Meerut - UPPCB",10-09-2024 23:00:00,28.999264,77.7590354,PM2.5,5,44,19
India,Uttar_Pradesh,Meerut,"Ganga Nagar, Meerut - UPPCB",10-09-2024 23:00:00,28.999264,77.7590354,CO,34,62,50
India,Uttar_Pradesh,Meerut,"Jai Bhim Nagar, Meerut - UPPCB",10-09-2024 23:00:00,28.9535882,77.7622941,PM10,10,52,29
India,Uttar_Pradesh,Meerut,"Pallavpuram Phase 2, Meerut - UPPCB",10-09-2024 23:00:00,29.063510,77.709723,PM2.5,5,60,26
India,Uttar_Pradesh,Meerut,"Pallavpuram Phase 2, Meerut - UPPCB",10-09-2024 23:00:00,29.063510,77.709723,PM10,8,62,30
India,Uttar_Pradesh,Meerut,"Pallavpuram Phase 2, Meerut - UPPCB",10-09-2024 23:00:00,29.063510,77.709723,NO2,6,62,22
India,Uttar_Pradesh,Meerut,"Pallavpuram Phase 2, Meerut - UPPCB",10-09-2024 23:00:00,29.063510,77.709723,CO,26,64,46
India,Uttar_Pradesh,Moradabad,"Buddhi Vihar, Moradabad - UPPCB",10-09-2024 23:00:00,28.83526,78.74460,PM2.5,16,69,37
India,Uttar_Pradesh,Moradabad,"Buddhi Vihar, Moradabad - UPPCB",10-09-2024 23:00:00,28.83526,78.74460,CO,18,49,25
India,Uttar_Pradesh,Moradabad,"Jigar Colony, Moradabad - UPPCB",10-09-2024 23:00:00,28.856664,78.772638,NH3,3,8,3
India,Uttar_Pradesh,Moradabad,"Jigar Colony, Moradabad - UPPCB",10-09-2024 23:00:00,28.856664,78.772638,CO,3,82,29
India,Uttar_Pradesh,Moradabad,"Kashiram Nagar, Moradabad - UPPCB",10-09-2024 23:00:00,28.849399,78.742362,SO2,8,45,24
India,Uttar_Pradesh,Muzaffarnagar,"New Mandi, Muzaffarnagar - UPPCB",10-09-2024 23:00:00,29.4723508,77.7194031,OZONE,12,43,24
India,Uttar_Pradesh,Noida,"Sector - 125, Noida - UPPCB",10-09-2024 23:00:00,28.5447608,77.3231257,OZONE,4,17,5
India,Uttar_Pradesh,Noida,"Sector - 62, Noida - IMD",10-09-2024 23:00:00,28.6245479,77.3577104,PM2.5,NA,NA,NA
India,Uttar_Pradesh,Noida,"Sector-1, Noida - UPPCB",10-09-2024 23:00:00,28.5898,77.3101,PM2.5,26,98,74
India,Uttar_Pradesh,Noida,"Sector-116, Noida - UPPCB",10-09-2024 23:00:00,28.569230,77.393848,NO2,13,80,37
India,Uttar_Pradesh,Prayagraj,"Motilal Nehru NIT, Prayagraj - UPPCB",10-09-2024 23:00:00,25.494,81.863,NO2,12,12,12
India,Uttar_Pradesh,Prayagraj,"Motilal Nehru NIT, Prayagraj - UPPCB",10-09-2024 23:00:00,25.494,81.863,NH3,7,7,7
India,Uttar_Pradesh,Prayagraj,"Nagar Nigam, Prayagraj - UPPCB",10-09-2024 23:00:00,25.44919916 ,81.82735986 ,SO2,7,69,33
India,Uttar_Pradesh,Varanasi,"Ardhali Bazar, Varanasi - UPPCB",10-09-2024 23:00:00,25.3505986,82.9083074,PM10,2,52,28
India,Uttar_Pradesh,Varanasi,"Ardhali Bazar, Varanasi - UPPCB",10-09-2024 23:00:00,25.3505986,82.9083074,CO,14,113,37
India,Uttar_Pradesh,Varanasi,"Ardhali Bazar, Varanasi - UPPCB",10-09-2024 23:00:00,25.3505986,82.9083074,OZONE,11,24,21
India,Uttar_Pradesh,Varanasi,"IESD Banaras Hindu University, Varanasi - UPPCB",10-09-2024 23:00:00,25.262326,82.995408,SO2,38,68,55
India,Uttar_Pradesh,Varanasi,"Maldahiya, Varanasi - UPPCB",10-09-2024 23:00:00,25.32393,82.99687,OZONE,1,5,2
India,Uttar_Pradesh,Vrindavan,"Omex Eternity, Vrindavan - UPPCB",10-09-2024 23:00:00,27.5714090,77.6557570,SO2,19,22,20
India,Uttarakhand,Dehradun,"Doon University, Dehradun - UKPCB",10-09-2024 23:00:00,30.269444,78.044167,PM2.5,4,47,25
India,Uttarakhand,Dehradun,"Doon University, Dehradun - UKPCB",10-09-2024 23:00:00,30.269444,78.044167,PM10,16,47,29
India,Uttarakhand,Kashipur,"Govt. Girls Inter College, Kashipur - UKPCB",10-09-2024 23:00:00,29.2124114,78.9611753,NO2,13,14,13
India,Uttarakhand,Rishikesh,"Shivaji Nagar, Rishikesh - UKPCB",10-09-2024 23:00:00,30.075911,78.2859547,NH3,1,2,2
India,West_Bengal,Asansol,"Asansol Court Area, Asansol - WBPCB",10-09-2024 23:00:00,23.685297,86.945968,NH3,8,10,9
India,West_Bengal,Asansol,"Evelyn Lodge, Asansol - WBPCB",10-09-2024 23:00:00,23.6979360,86.9443950,PM10,27,69,45
India,West_Bengal,Asansol,"Mahabir Colliery, Asansol - WBPCB",10-09-2024 23:00:00,23.6181830,87.1057180,NO2,9,58,24
India,West_Bengal,Asansol,"Mahabir Colliery, Asansol - WBPCB",10-09-2024 23:00:00,23.6181830,87.1057180,OZONE,3,43,23
India,West_Bengal,Asansol,"Trivenidevi Bhalotia College, Asansol - WBPCB",10-09-2024 23:00:00,23.616515,87.119133,NH3,1,2,1
India,West_Bengal,Barrackpore,"SVSPA Campus, Barrackpore - WBPCB",10-09-2024 23:00:00,22.7605581,88.3617589,PM2.5,29,74,51
India,West_Bengal,Barrackpore,"SVSPA Campus, Barrackpore - WBPCB",10-09-2024 23:00:00,22.7605581,88.3617589,NH3,3,5,3
India,West_Bengal,Barrackpore,"SVSPA Campus, Barrackpore - WBPCB",10-09-2024 23:00:00,22.7605581,88.3617589,SO2,5,7,6
India,West_Bengal,Durgapur,"Mahishkapur Road_B-Zone, Durgapur - WBPCB",10-09-2024 23:00:00,23.567923,87.306843,PM10,NA,NA,NA
India,West_Bengal,Durgapur,"Mahishkapur Road_B-Zone, Durgapur - WBPCB",10-09-2024 23:00:00,23.567923,87.306843,SO2,4,5,4
India,West_Bengal,Durgapur,"PCBL Residential Complex, Durgapur - WBPCB",10-09-2024 23:00:00,23.5087640,87.3544400,SO2,3,4,3
India,West_Bengal,Durgapur,"Sidhu Kanhu Indoor Stadium, Durgapur - WBPCB",10-09-2024 23:00:00,23.5404352,87.2892225,NO2,13,29,17
India,West_Bengal,Durgapur,"Sidhu Kanhu Indoor Stadium, Durgapur - WBPCB",10-09-2024 23:00:00,23.5404352,87.2892225,NH3,4,5,4
India,West_Bengal,Haldia,"Priyambada Housing Estate, Haldia - WBPCB",10-09-2024 23:00:00,22.06047,88.109737,PM10,17,53,33
India,West_Bengal,Haldia,"Priyambada Housing Estate, Haldia - WBPCB",10-09-2024 23:00:00,22.06047,88.109737,CO,26,34,29
India,West_Bengal,Howrah,"Belur Math, Howrah - WBPCB",10-09-2024 23:00:00,22.629801,88.352017,PM2.5,6,26,17
India,West_Bengal,Howrah,"Belur Math, Howrah - WBPCB",10-09-2024 23:00:00,22.629801,88.352017,SO2,12,14,13
India,West_Bengal,Howrah,"Botanical Garden, Howrah - WBPCB",10-09-2024 23:00:00,22.554954,88.292568,NO2,4,31,8
India,West_Bengal,Howrah,"Botanical Garden, Howrah - WBPCB",10-09-2024 23:00:00,22.554954,88.292568,CO,17,30,22
India,West_Bengal,Howrah,"Ghusuri, Howrah - WBPCB",10-09-2024 23:00:00,22.611968,88.347422,PM2.5,19,43,28
India,West_Bengal,Howrah,"Ghusuri, Howrah - WBPCB",10-09-2024 23:00:00,22.611968,88.347422,NO2,21,22,22
India,West_Bengal,Howrah,"Ghusuri, Howrah - WBPCB",10-09-2024 23:00:00,22.611968,88.347422,CO,4,22,12
India,West_Bengal,Howrah,"Ghusuri, Howrah - WBPCB",10-09-2024 23:00:00,22.611968,88.347422,OZONE,21,35,26
India,West_Bengal,Howrah,"Padmapukur, Howrah - WBPCB",10-09-2024 23:00:00,22.5687319,88.2797276,NO2,15,168,42
India,West_Bengal,Kolkata,"Ballygunge, Kolkata - WBPCB",10-09-2024 23:00:00,22.5367507,88.3638022,NH3,8,13,10
India,West_Bengal,Kolkata,"Bidhannagar, Kolkata - WBPCB",10-09-2024 23:00:00,22.58157048,88.41002457,PM10,26,49,36
India,West_Bengal,Kolkata,"Bidhannagar, Kolkata - WBPCB",10-09-2024 23:00:00,22.58157048,88.41002457,SO2,1,26,14
India,West_Bengal,Kolkata,"Bidhannagar, Kolkata - WBPCB",10-09-2024 23:00:00,22.58157048,88.41002457,CO,21,25,24
India,West_Bengal,Kolkata,"Fort William, Kolkata - WBPCB",10-09-2024 23:00:00,22.556640,88.342674,PM10,24,48,36
India,West_Bengal,Kolkata,"Fort William, Kolkata - WBPCB",10-09-2024 23:00:00,22.556640,88.342674,SO2,6,7,6
India,West_Bengal,Kolkata,"Jadavpur, Kolkata - WBPCB",10-09-2024 23:00:00,22.49929,88.36917,PM2.5,14,30,22
India,West_Bengal,Kolkata,"Jadavpur, Kolkata - WBPCB",10-09-2024 23:00:00,22.49929,88.36917,NO2,18,21,19
India,West_Bengal,Kolkata,"Rabindra Bharati University, Kolkata - WBPCB",10-09-2024 23:00:00,22.627847,88.380669,NO2,56,85,76
India,West_Bengal,Kolkata,"Rabindra Bharati University, Kolkata - WBPCB",10-09-2024 23:00:00,22.627847,88.380669,OZONE,39,104,63
India,West_Bengal,Kolkata,"Rabindra Sarobar, Kolkata - WBPCB",10-09-2024 23:00:00,22.51106,88.35142,NO2,20,28,24
India,West_Bengal,Kolkata,"Rabindra Sarobar, Kolkata - WBPCB",10-09-2024 23:00:00,22.51106,88.35142,CO,10,23,19
India,West_Bengal,Kolkata,"Victoria, Kolkata - WBPCB",10-09-2024 23:00:00,22.5448082,88.3403691,PM10,40,59,50
India,West_Bengal,Siliguri,"Ward-32 Bapupara, Siliguri - WBPCB",10-09-2024 23:00:00,26.6879226,88.4152495,CO,16,32,24
India,Andhra_Pradesh,Amaravati,"Secretariat, Amaravati - APPCB",10-09-2024 23:00:00,16.5150833,80.5181667,PM2.5,3,18,11
India,Andhra_Pradesh,Amaravati,"Secretariat, Amaravati - APPCB",10-09-2024 23:00:00,16.5150833,80.5181667,CO,23,50,34
India,Andhra_Pradesh,Anantapur,"Gulzarpet, Anantapur - APPCB",10-09-2024 23:00:00,14.675886,77.593027,PM2.5,18,61,35
India,Andhra_Pradesh,Chittoor,"Gangineni Cheruvu, Chittoor - APPCB",10-09-2024 23:00:00,13.204880,79.097889,PM10,27,97,62
India,Andhra_Pradesh,Kadapa,"Yerramukkapalli, Kadapa - APPCB",10-09-2024 23:00:00,14.465052,78.824187,NH3,NA,NA,NA
India,Andhra_Pradesh,Kadapa,"Yerramukkapalli, Kadapa - APPCB",10-09-2024 23:00:00,14.465052,78.824187,CO,NA,NA,NA
India,Andhra_Pradesh,Rajamahendravaram,"Anand Kala Kshetram, Rajamahendravaram - APPCB",10-09-2024 23:00:00,16.9872867,81.7363176,CO,4,55,38
India,Andhra_Pradesh,Tirupati,"Tirumala, Tirupati - APPCB",10-09-2024 23:00:00,13.67,79.35,SO2,4,11,8
India,Andhra_Pradesh,Tirupati,"Tirumala, Tirupati - APPCB",10-09-2024 23:00:00,13.67,79.35,OZONE,15,23,19
India,Andhra_Pradesh,Tirupati,"Vaikuntapuram, Tirupati - APPCB",10-09-2024 23:00:00,13.615387,79.409230,PM2.5,43,44,43
India,Andhra_Pradesh,Tirupati,"Vaikuntapuram, Tirupati - APPCB",10-09-2024 23:00:00,13.615387,79.409230,OZONE,20,42,36
India,Andhra_Pradesh,Vijayawada,"Kanuru, Vijayawada - APPCB",10-09-2024 23:00:00,16.486692,80.699436,PM10,NA,NA,NA
India,Andhra_Pradesh,Vijayawada,"Kanuru, Vijayawada - APPCB",10-09-2024 23:00:00,16.486692,80.699436,OZONE,17,19,18
India,Andhra_Pradesh,Vijayawada,"Rajiv Gandhi Park, Vijayawada - APPCB",10-09-2024 23:00:00,16.509717,80.612222,PM10,31,60,46
India,Andhra_Pradesh,Vijayawada,"Rajiv Gandhi Park, Vijayawada - APPCB",10-09-2024 23:00:00,16.509717,80.612222,OZONE,25,44,36
India,Andhra_Pradesh,Visakhapatnam,"GVM Corporation, Visakhapatnam - APPCB",10-09-2024 23:00:00,17.72,83.3,PM2.5,60,92,75
India,Arunachal_Pradesh,Naharlagun,"Naharlagun, Naharlagun - APSPCB",10-09-2024 23:00:00,27.103358,93.679645,PM2.5,10,63,36
India,Assam,Byrnihat,"Central Academy for SFS, Byrnihat - PCBA",10-09-2024 23:00:00,26.071318,91.87488,SO2,8,59,19
India,Assam,Byrnihat,"Central Academy for SFS, Byrnihat - PCBA",10-09-2024 23:00:00,26.071318,91.87488,CO,NA,NA,NA
India,Assam,Nagaon,"Christianpatty, Nagaon - PCBA",10-09-2024 23:00:00,26.349082,92.68449,SO2,9,11,10
India,Bihar,Araria,"Kharahiya Basti, Araria - BSPCB",10-09-2024 23:00:00,26.146529,87.454184,OZONE,4,25,19
India,Bihar,Arrah,"New DM Office, Arrah - BSPCB",10-09-2024 23:00:00,25.5626095,84.663264,PM2.5,13,32,20
India,Bihar,Aurangabad,"Gurdeo Nagar, Aurangabad - BSPCB",10-09-2024 23:00:00,24.75746,84.366208,NH3,3,3,3
India,Bihar,Begusarai,"Lohiyanagar, Begusarai - BSPCB (Formerly known as DRCC Anandpur)",10-09-2024 23:00:00,25.42742023,86.13886079,NH3,11,16,14
India,Bihar,Bhagalpur,"DM Office_Kachari Chowk, Bhagalpur - BSPCB",10-09-2024 23:00:00,25.251013,86.989001,PM10,17,304,61
India,Bihar,Bhagalpur,"DM Office_Kachari Chowk, Bhagalpur - BSPCB",10-09-2024 23:00:00,25.251013,86.989001,SO2,8,78,33
India,Bihar,Bhagalpur,"Mayaganj, Bhagalpur - BSPCB",10-09-2024 23:00:00,25.265194,87.012947,PM2.5,30,100,51
India,Bihar,Bihar Sharif,"D M Colony, Bihar Sharif - BSPCB",10-09-2024 23:00:00,25.204762,85.514960,OZONE,1,9,6
India,Bihar,Chhapra,"Darshan Nagar, Chhapra - BSPCB",10-09-2024 23:00:00,25.7808257,84.7446768,SO2,2,6,4
India,Bihar,Gaya,"Kareemganj, Gaya - BSPCB",10-09-2024 23:00:00,24.792403,84.992416,SO2,11,17,15
India,Bihar,Gaya,"SFTI Kusdihra, Gaya - BSPCB",10-09-2024 23:00:00,24.762518,84.982348,NH3,1,3,2
India,Bihar,Gaya,"SFTI Kusdihra, Gaya - BSPCB",10-09-2024 23:00:00,24.762518,84.982348,CO,2,25,22
India,Bihar,Hajipur,"Industrial Area, Hajipur - BSPCB",10-09-2024 23:00:00,25.697189,85.245900,NO2,3,8,5
India,Bihar,Katihar,"Mirchaibari, Katihar - BSPCB",10-09-2024 23:00:00,25.560083,87.553265,PM2.5,17,48,34
India,Bihar,Katihar,"Mirchaibari, Katihar - BSPCB",10-09-2024 23:00:00,25.560083,87.553265,NO2,9,10,9
India,Bihar,Katihar,"Mirchaibari, Katihar - BSPCB",10-09-2024 23:00:00,25.560083,87.553265,SO2,9,15,12
India,Bihar,Kishanganj,"SDM Office_Khagra, Kishanganj - BSPCB",10-09-2024 23:00:00,26.0881305,87.93840336,NH3,7,8,8
India,Bihar,Kishanganj,"SDM Office_Khagra, Kishanganj - BSPCB",10-09-2024 23:00:00,26.0881305,87.93840336,SO2,2,35,15
India,Bihar,Kishanganj,"SDM Office_Khagra, Kishanganj - BSPCB",10-09-2024 23:00:00,26.0881305,87.93840336,CO,4,4,4
India,Bihar,Motihari,"Gandak Colony, Motihari - BSPCB",10-09-2024 23:00:00,26.63086,84.90051,SO2,1,9,3
India,Bihar,Munger,"Town Hall, Munger - BSPCB",10-09-2024 23:00:00,25.376776,86.471523,PM2.5,10,47,29
India,Bihar,Muzaffarpur,"Buddha Colony, Muzaffarpur - BSPCB",10-09-2024 23:00:00,26.11442,85.39813,PM10,30,50,39
India,Bihar,Muzaffarpur,"MIT-Daudpur Kothi, Muzaffarpur - BSPCB",10-09-2024 23:00:00,26.1403345,85.3650192,NO2,4,7,6
India,Bihar,Patna,"DRM Office Danapur, Patna - BSPCB",10-09-2024 23:00:00,25.586562,85.043586,PM2.5,5,44,20
India,Bihar,Patna,"DRM Office Danapur, Patna - BSPCB",10-09-2024 23:00:00,25.586562,85.043586,SO2,2,6,4
India,Bihar,Patna,"DRM Office Danapur, Patna - BSPCB",10-09-2024 23:00:00,25.586562,85.043586,OZONE,9,162,86
India,Bihar,Patna,"Govt. High School Shikarpur, Patna - BSPCB",10-09-2024 23:00:00,25.592539,85.227158,PM2.5,31,44,36
India,Bihar,Patna,"Govt. High School Shikarpur, Patna - BSPCB",10-09-2024 23:00:00,25.592539,85.227158,PM10,37,68,53
India,Bihar,Patna,"Govt. High School Shikarpur, Patna - BSPCB",10-09-2024 23:00:00,25.592539,85.227158,NO2,1,7,6
India,Bihar,Patna,"Govt. High School Shikarpur, Patna - BSPCB",10-09-2024 23:00:00,25.592539,85.227158,SO2,4,48,10
India,Bihar,Patna,"IGSC Planetarium Complex, Patna - BSPCB",10-09-2024 23:00:00,25.610369,85.132568,SO2,6,8,7
India,Bihar,Patna,"Muradpur, Patna - BSPCB",10-09-2024 23:00:00,25.619651,85.147382,CO,1,136,93
India,Bihar,Patna,"Rajbansi Nagar, Patna - BSPCB",10-09-2024 23:00:00,25.599486,85.113666,PM10,50,74,58
India,Bihar,Patna,"Rajbansi Nagar, Patna - BSPCB",10-09-2024 23:00:00,25.599486,85.113666,NH3,2,9,4
India,Bihar,Patna,"Samanpura, Patna - BSPCB",10-09-2024 23:00:00,25.596727,85.085624,PM2.5,NA,NA,NA
India,Bihar,Patna,"Samanpura, Patna - BSPCB",10-09-2024 23:00:00,25.596727,85.085624,NO2,NA,NA,NA
India,Bihar,Saharsa,"Police Line, Saharsa - BSPCB",10-09-2024 23:00:00,25.892357,86.590325,PM10,18,78,44
India,Bihar,Saharsa,"Police Line, Saharsa - BSPCB",10-09-2024 23:00:00,25.892357,86.590325,NH3,9,9,9
India,Bihar,Saharsa,"Police Line, Saharsa - BSPCB",10-09-2024 23:00:00,25.892357,86.590325,SO2,16,17,17
India,Bihar,Samastipur,"DM Office_Kasipur, Samastipur - BSPCB",10-09-2024 23:00:00,25.859655,85.77944,PM2.5,3,342,86
India,Bihar,Sasaram,"Dada Peer, Sasaram - BSPCB",10-09-2024 23:00:00,24.952822,84.002396,PM2.5,2,13,8
India,Bihar,Siwan,"Chitragupta Nagar, Siwan - BSPCB",10-09-2024 23:00:00,26.2271665,84.3570427,PM10,2,500,139
India,Bihar,Siwan,"Chitragupta Nagar, Siwan - BSPCB",10-09-2024 23:00:00,26.2271665,84.3570427,NO2,3,10,6
India,Chandigarh,Chandigarh,"Sector 22, Chandigarh - CPCC",10-09-2024 23:00:00,30.735567,76.775714,SO2,4,11,7
India,Chandigarh,Chandigarh,"Sector-25, Chandigarh - CPCC",10-09-2024 23:00:00,30.751462,76.762879,PM2.5,NA,NA,NA
India,Chandigarh,Chandigarh,"Sector-25, Chandigarh - CPCC",10-09-2024 23:00:00,30.751462,76.762879,NO2,NA,NA,NA
India,Chandigarh,Chandigarh,"Sector-25, Chandigarh - CPCC",10-09-2024 23:00:00,30.751462,76.762879,SO2,NA,NA,NA
India,Chandigarh,Chandigarh,"Sector-25, Chandigarh - CPCC",10-09-2024 23:00:00,30.751462,76.762879,CO,21,42,33
India,Chandigarh,Chandigarh,"Sector-53, Chandigarh - CPCC",10-09-2024 23:00:00,30.719859,76.738637,PM10,17,500,135
India,Chhattisgarh,Bhilai,"32Bungalows, Bhilai - CECB",10-09-2024 23:00:00,21.194815,81.314770,NO2,6,8,7
India,Chhattisgarh,Bhilai,"Civic Center, Bhilai - Bhilai Steel Plant",10-09-2024 23:00:00,21.185571,81.343175,PM10,9,23,16
India,Chhattisgarh,Bhilai,"Civic Center, Bhilai - Bhilai Steel Plant",10-09-2024 23:00:00,21.185571,81.343175,SO2,2,29,10
India,Chhattisgarh,Bhilai,"Hathkhoj, Bhilai - CECB",10-09-2024 23:00:00,21.224231,81.408350,PM10,13,31,20
India,Chhattisgarh,Bhilai,"Hathkhoj, Bhilai - CECB",10-09-2024 23:00:00,21.224231,81.408350,NH3,5,6,5
India,Chhattisgarh,Bhilai,"Hathkhoj, Bhilai - CECB",10-09-2024 23:00:00,21.224231,81.408350,SO2,7,18,10
India,Chhattisgarh,Bilaspur,"Mangala, Bilaspur - NTPC",10-09-2024 23:00:00,22.08815,82.13737,PM10,NA,NA,NA
India,Chhattisgarh,Chhal,"Nawapara SECL Colony, Chhal - CECB",10-09-2024 23:00:00,22.118125,83.140608,PM10,2,20,8
India,Chhattisgarh,Chhal,"Nawapara SECL Colony, Chhal - CECB",10-09-2024 23:00:00,22.118125,83.140608,NH3,1,2,2
India,Chhattisgarh,Chhal,"Nawapara SECL Colony, Chhal - CECB",10-09-2024 23:00:00,22.118125,83.140608,CO,10,28,22
India,Chhattisgarh,Korba,"Rampur, Korba - CECB",10-09-2024 23:00:00,22.368195,82.746431,CO,24,30,27
India,Chhattisgarh,Korba,"Urja Nagar, Korba - CECB",10-09-2024 23:00:00,22.348441,82.549611,NH3,3,5,4
India,Chhattisgarh,Korba,"Urja Nagar, Korba - CECB",10-09-2024 23:00:00,22.348441,82.549611,CO,11,23,20
India,Chhattisgarh,Kunjemura,"OP Jindal School, Kunjemura - CECB",10-09-2024 23:00:00,22.126650,83.483212,NH3,2,2,2
India,Chhattisgarh,Milupara,"Govt. Higher Secondary School, Milupara - CECB",10-09-2024 23:00:00,22.1910172,83.5197009,SO2,NA,NA,NA
India,Chhattisgarh,Milupara,"Govt. Higher Secondary School, Milupara - CECB",10-09-2024 23:00:00,22.1910172,83.5197009,OZONE,NA,NA,NA
India,Chhattisgarh,Raipur,"AIIMS, Raipur - CECB",10-09-2024 23:00:00,21.258815,81.578979,PM10,5,20,11
India,Chhattisgarh,Raipur,"AIIMS, Raipur - CECB",10-09-2024 23:00:00,21.258815,81.578979,OZONE,1,2,2
India,Chhattisgarh,Raipur,"Bhatagaon New ISBT, Raipur - CECB",10-09-2024 23:00:00,21.219665,81.630094,PM10,3,17,9
India,Chhattisgarh,Raipur,"Krishak Nagar, Raipur - CECB",10-09-2024 23:00:00,21.237755,81.705301,PM10,5,24,12
India,Chhattisgarh,Raipur,"Siltara Phase-II, Raipur - CECB",10-09-2024 23:00:00,21.371751,81.664929,PM2.5,NA,NA,NA
India,Chhattisgarh,Raipur,"Siltara Phase-II, Raipur - CECB",10-09-2024 23:00:00,21.371751,81.664929,SO2,3,11,8
India,Chhattisgarh,Raipur,"Siltara Phase-II, Raipur - CECB",10-09-2024 23:00:00,21.371751,81.664929,CO,10,26,11
India,Chhattisgarh,Tumidih,"OP Jindal Industrial Park, Tumidih - CECB",10-09-2024 23:00:00,22.06631475,83.33820077,NO2,NA,NA,NA
India,Chhattisgarh,Tumidih,"OP Jindal Industrial Park, Tumidih - CECB",10-09-2024 23:00:00,22.06631475,83.33820077,NH3,NA,NA,NA
India,Delhi,Delhi,"Ashok Vihar, Delhi - DPCC",10-09-2024 23:00:00,28.695381,77.181665,OZONE,12,253,45
India,Delhi,Delhi,"Burari Crossing, Delhi - IMD",10-09-2024 23:00:00,28.7256504,77.2011573,PM2.5,23,180,69
India,Delhi,Delhi,"Chandni Chowk, Delhi - IITM",10-09-2024 23:00:00,28.656756,77.227234,CO,66,126,90
India,Delhi,Delhi,"DTU, Delhi - CPCB",10-09-2024 23:00:00,28.7500499,77.1112615,PM10,26,125,84
India,Delhi,Delhi,"DTU, Delhi - CPCB",10-09-2024 23:00:00,28.7500499,77.1112615,NO2,53,64,56
India,Delhi,Delhi,"Dr. Karni Singh Shooting Range, Delhi - DPCC",10-09-2024 23:00:00,28.498571,77.264840,SO2,8,14,11
India,Delhi,Delhi,"Dr. Karni Singh Shooting Range, Delhi - DPCC",10-09-2024 23:00:00,28.498571,77.264840,OZONE,10,104,52
India,Delhi,Delhi,"IGI Airport (T3), Delhi - IMD",10-09-2024 23:00:00,28.5627763,77.1180053,PM10,22,189,109
India,Delhi,Delhi,"IHBAS, Dilshad Garden, Delhi - CPCB",10-09-2024 23:00:00,28.6811736,77.3025234,NO2,29,68,56
India,Delhi,Delhi,"IHBAS, Dilshad Garden, Delhi - CPCB",10-09-2024 23:00:00,28.6811736,77.3025234,OZONE,10,12,11
India,Delhi,Delhi,"ITO, Delhi - CPCB",10-09-2024 23:00:00,28.628624,77.241060,SO2,5,23,18
India,Delhi,Delhi,"Jahangirpuri, Delhi - DPCC",10-09-2024 23:00:00,28.732820,77.170633,NO2,7,17,11
India,Delhi,Delhi,"Jahangirpuri, Delhi - DPCC",10-09-2024 23:00:00,28.732820,77.170633,OZONE,9,219,38
India,Delhi,Delhi,"Jawaharlal Nehru Stadium, Delhi - DPCC",10-09-2024 23:00:00,28.580280,77.233829,PM10,19,129,73
India,Delhi,Delhi,"Jawaharlal Nehru Stadium, Delhi - DPCC",10-09-2024 23:00:00,28.580280,77.233829,SO2,1,16,6
India,Delhi,Delhi,"Jawaharlal Nehru Stadium, Delhi - DPCC",10-09-2024 23:00:00,28.580280,77.233829,CO,22,81,34
India,Delhi,Delhi,"Lodhi Road, Delhi - IMD",10-09-2024 23:00:00,28.5918245,77.2273074,PM2.5,NA,NA,NA
India,Delhi,Delhi,"Lodhi Road, Delhi - IMD",10-09-2024 23:00:00,28.5918245,77.2273074,NO2,NA,NA,NA
India,Delhi,Delhi,"Mandir Marg, Delhi - DPCC",10-09-2024 23:00:00,28.636429,77.201067,PM2.5,17,240,75
India,Delhi,Delhi,"Mandir Marg, Delhi - DPCC",10-09-2024 23:00:00,28.636429,77.201067,PM10,17,123,72
India,Delhi,Delhi,"Mandir Marg, Delhi - DPCC",10-09-2024 23:00:00,28.636429,77.201067,NH3,4,8,6
India,Delhi,Delhi,"Mundka, Delhi - DPCC",10-09-2024 23:00:00,28.684678,77.076574,SO2,14,20,15
India,Delhi,Delhi,"NSIT Dwarka, Delhi - CPCB",10-09-2024 23:00:00,28.60909,77.0325413,OZONE,21,46,23
India,Delhi,Delhi,"Najafgarh, Delhi - DPCC",10-09-2024 23:00:00,28.570173,76.933762,PM2.5,8,95,57
India,Delhi,Delhi,"Najafgarh, Delhi - DPCC",10-09-2024 23:00:00,28.570173,76.933762,OZONE,17,36,20
India,Delhi,Delhi,"Narela, Delhi - DPCC",10-09-2024 23:00:00,28.822836,77.101981,PM10,39,138,85
India,Delhi,Delhi,"Nehru Nagar, Delhi - DPCC",10-09-2024 23:00:00,28.567890,77.250515,PM10,19,161,91
India,Delhi,Delhi,"Nehru Nagar, Delhi - DPCC",10-09-2024 23:00:00,28.567890,77.250515,NO2,9,26,17
India,Delhi,Delhi,"Nehru Nagar, Delhi - DPCC",10-09-2024 23:00:00,28.567890,77.250515,SO2,9,11,10
India,Delhi,Delhi,"Nehru Nagar, Delhi - DPCC",10-09-2024 23:00:00,28.567890,77.250515,CO,52,77,64
India,Delhi,Delhi,"North Campus, DU, Delhi - IMD",10-09-2024 23:00:00,28.6573814,77.1585447,PM2.5,2,146,63
India,Delhi,Delhi,"North Campus, DU, Delhi - IMD",10-09-2024 23:00:00,28.6573814,77.1585447,PM10,11,132,80
India,Delhi,Delhi,"North Campus, DU, Delhi - IMD",10-09-2024 23:00:00,28.6573814,77.1585447,OZONE,5,11,7
India,Delhi,Delhi,"Okhla Phase-2, Delhi - DPCC",10-09-2024 23:00:00,28.530785,77.271255,PM2.5,2,110,66
India,Delhi,Delhi,"Okhla Phase-2, Delhi - DPCC",10-09-2024 23:00:00,28.530785,77.271255,PM10,17,182,100
India,Delhi,Delhi,"Okhla Phase-2, Delhi - DPCC",10-09-2024 23:00:00,28.530785,77.271255,NO2,30,82,54
India,Delhi,Delhi,"Okhla Phase-2, Delhi - DPCC",10-09-2024 23:00:00,28.530785,77.271255,SO2,3,9,6
India,Delhi,Delhi,"Okhla Phase-2, Delhi - DPCC",10-09-2024 23:00:00,28.530785,77.271255,CO,19,100,40
India,Delhi,Delhi,"Patparganj, Delhi - DPCC",10-09-2024 23:00:00,28.623763,77.287209,PM2.5,10,123,70
India,Delhi,Delhi,"Patparganj, Delhi - DPCC",10-09-2024 23:00:00,28.623763,77.287209,SO2,1,6,4
India,Delhi,Delhi,"Patparganj, Delhi - DPCC",10-09-2024 23:00:00,28.623763,77.287209,CO,12,54,22
India,Delhi,Delhi,"Punjabi Bagh, Delhi - DPCC",10-09-2024 23:00:00,28.674045,77.131023,SO2,11,42,27
India,Delhi,Delhi,"Pusa, Delhi - DPCC",10-09-2024 23:00:00,28.639652,77.146275,PM2.5,10,127,69
India,Delhi,Delhi,"Pusa, Delhi - DPCC",10-09-2024 23:00:00,28.639652,77.146275,NH3,2,5,3
India,Delhi,Delhi,"Pusa, Delhi - DPCC",10-09-2024 23:00:00,28.639652,77.146275,CO,26,104,60
India,Delhi,Delhi,"Pusa, Delhi - DPCC",10-09-2024 23:00:00,28.639652,77.146275,OZONE,4,67,8
India,Delhi,Delhi,"Pusa, Delhi - IMD",10-09-2024 23:00:00,28.636110,77.173332,PM10,7,129,87
India,Delhi,Delhi,"Rohini, Delhi - DPCC",10-09-2024 23:00:00,28.732528,77.119920,PM2.5,22,213,74
India,Delhi,Delhi,"Rohini, Delhi - DPCC",10-09-2024 23:00:00,28.732528,77.119920,SO2,5,13,7
India,Delhi,Delhi,"Shadipur, Delhi - CPCB",10-09-2024 23:00:00,28.6514781,77.1473105,PM2.5,52,220,138
India,Delhi,Delhi,"Sonia Vihar, Delhi - DPCC",10-09-2024 23:00:00,28.710508,77.249485,NH3,4,9,6
India,Delhi,Delhi,"Sri Aurobindo Marg, Delhi - DPCC",10-09-2024 23:00:00,28.531346,77.190156,PM10,44,144,98
India,Delhi,Delhi,"Vivek Vihar, Delhi - DPCC",10-09-2024 23:00:00,28.672342,77.315260,SO2,4,6,5
India,Delhi,Delhi,"Vivek Vihar, Delhi - DPCC",10-09-2024 23:00:00,28.672342,77.315260,CO,71,105,87
India,Gujarat,Ahmedabad,"Chandkheda, Ahmedabad - IITM",10-09-2024 23:00:00,23.107969,72.574648,PM2.5,22,68,46
India,Gujarat,Ahmedabad,"Gyaspur, Ahmedabad - IITM",10-09-2024 23:00:00,22.977134,72.553024,PM10,31,126,60
India,Gujarat,Ahmedabad,"SAC ISRO Satellite, Ahmedabad - IITM",10-09-2024 23:00:00,23.023389,72.515201,SO2,3,5,4
India,Gujarat,Ahmedabad,"SVPI Airport Hansol, Ahmedabad - IITM",10-09-2024 23:00:00,23.076793,72.627874,PM2.5,50,179,92
India,Gujarat,Ahmedabad,"SVPI Airport Hansol, Ahmedabad - IITM",10-09-2024 23:00:00,23.076793,72.627874,NH3,3,4,4
India,Gujarat,Ahmedabad,"Sardar Vallabhbhai Patel Stadium, Ahmedabad - IITM",10-09-2024 23:00:00,23.043070,72.562968,PM10,47,92,67
India,Gujarat,Ankleshwar,"GIDC, Ankleshwar - GPCB",10-09-2024 23:00:00,21.613267,73.010555,NO2,62,74,67
India,Gujarat,Ankleshwar,"GIDC, Ankleshwar - GPCB",10-09-2024 23:00:00,21.613267,73.010555,NH3,3,4,3
India,Gujarat,Gandhinagar,"Sector-10, Gandhinagar - GPCB",10-09-2024 23:00:00,23.221714,72.654328,NH3,2,2,2
India,Gujarat,Surat,"Science Center, Surat - SMC",10-09-2024 23:00:00,21.170046,72.795405,NO2,23,45,31
India,Gujarat,Vapi,"Phase-1 GIDC, Vapi - GPCB",10-09-2024 23:00:00,20.362421,72.918013,PM2.5,13,43,26
India,Gujarat,Vapi,"Phase-1 GIDC, Vapi - GPCB",10-09-2024 23:00:00,20.362421,72.918013,NH3,10,10,10
India,Gujarat,Vapi,"Phase-1 GIDC, Vapi - GPCB",10-09-2024 23:00:00,20.362421,72.918013,OZONE,5,6,5
India,Gujarat,Vatva,"Phase-4 GIDC, Vatva - GPCB",10-09-2024 23:00:00,22.969611,72.643500,PM10,31,128,68
India,Gujarat,Vatva,"Phase-4 GIDC, Vatva - GPCB",10-09-2024 23:00:00,22.969611,72.643500,NO2,26,31,29
India,Gujarat,Vatva,"Phase-4 GIDC, Vatva - GPCB",10-09-2024 23:00:00,22.969611,72.643500,NH3,1,1,1
India,Haryana,Ambala,"Patti Mehar, Ambala - HSPCB",10-09-2024 23:00:00,30.379589,76.778328,PM2.5,4,104,54
India,Haryana,Ambala,"Patti Mehar, Ambala - HSPCB",10-09-2024 23:00:00,30.379589,76.778328,PM10,34,120,63
India,Haryana,Ambala,"Patti Mehar, Ambala - HSPCB",10-09-2024 23:00:00,30.379589,76.778328,NO2,8,20,14
India,Haryana,Bahadurgarh,"Arya Nagar, Bahadurgarh - HSPCB",10-09-2024 23:00:00,28.6701,76.9254,PM2.5,12,98,67
India,Haryana,Bahadurgarh,"Arya Nagar, Bahadurgarh - HSPCB",10-09-2024 23:00:00,28.6701,76.9254,CO,16,36,25
India,Haryana,Bhiwani,"H.B. Colony, Bhiwani - HSPCB",10-09-2024 23:00:00,28.806223,76.141105,PM10,28,85,63
India,Haryana,Bhiwani,"H.B. Colony, Bhiwani - HSPCB",10-09-2024 23:00:00,28.806223,76.141105,CO,36,62,45
India,Haryana,Bhiwani,"H.B. Colony, Bhiwani - HSPCB",10-09-2024 23:00:00,28.806223,76.141105,OZONE,12,57,27
India,Haryana,Charkhi Dadri,"Mini Secretariat, Charkhi Dadri - HSPCB",10-09-2024 23:00:00,28.593883,76.270653,PM10,26,108,66
India,Haryana,Dharuhera,"Municipal Corporation Office, Dharuhera -  HSPCB",10-09-2024 23:00:00,28.206800,76.799700,PM2.5,29,114,68
India,Haryana,Faridabad,"New Industrial Town, Faridabad - HSPCB",10-09-2024 23:00:00,28.39072,77.30059,CO,8,32,12
India,Haryana,Faridabad,"New Industrial Town, Faridabad - HSPCB",10-09-2024 23:00:00,28.39072,77.30059,OZONE,7,26,17
India,Haryana,Faridabad,"Sector 11, Faridabad - HSPCB",10-09-2024 23:00:00,28.376058,77.315741,PM10,61,70,65
India,Haryana,Faridabad,"Sector- 16A, Faridabad - HSPCB",10-09-2024 23:00:00,28.4088421,77.3099081,SO2,24,27,26
India,Haryana,Faridabad,"Sector- 16A, Faridabad - HSPCB",10-09-2024 23:00:00,28.4088421,77.3099081,CO,40,86,50
India,Haryana,Fatehabad,"Huda Sector, Fatehabad - HSPCB",10-09-2024 23:00:00,29.503664,75.467934,PM10,36,103,75
India,Haryana,Fatehabad,"Huda Sector, Fatehabad - HSPCB",10-09-2024 23:00:00,29.503664,75.467934,NO2,36,38,37
India,Haryana,Fatehabad,"Huda Sector, Fatehabad - HSPCB",10-09-2024 23:00:00,29.503664,75.467934,NH3,12,13,13
India,Haryana,Gurugram,"Sector-51, Gurugram - HSPCB",10-09-2024 23:00:00,28.4227,77.0667,CO,24,44,27
India,Haryana,Gurugram,"Teri Gram, Gurugram - HSPCB",10-09-2024 23:00:00,28.4275,77.1465,PM2.5,24,132,82
India,Haryana,Hisar,"Urban Estate-II, Hisar - HSPCB",10-09-2024 23:00:00,29.140560,75.744941,NH3,4,5,4
India,Haryana,Kaithal,"Rishi Nagar, Kaithal - HSPCB",10-09-2024 23:00:00,29.8006,76.4155,OZONE,26,100,44
India,Haryana,Karnal,"Sector-12, Karnal - HSPCB",10-09-2024 23:00:00,29.695300,77.002700,PM10,23,48,33
India,Haryana,Karnal,"Sector-12, Karnal - HSPCB",10-09-2024 23:00:00,29.695300,77.002700,NO2,7,12,10
India,Haryana,Karnal,"Sector-12, Karnal - HSPCB",10-09-2024 23:00:00,29.695300,77.002700,OZONE,36,45,39
India,Haryana,Kurukshetra,"Sector-7, Kurukshetra - HSPCB",10-09-2024 23:00:00,29.966942,76.875879,PM2.5,15,65,36
India,Haryana,Kurukshetra,"Sector-7, Kurukshetra - HSPCB",10-09-2024 23:00:00,29.966942,76.875879,PM10,19,69,40
India,Haryana,Kurukshetra,"Sector-7, Kurukshetra - HSPCB",10-09-2024 23:00:00,29.966942,76.875879,NH3,2,5,4
India,Haryana,Mandikhera,"General Hospital, Mandikhera - HSPCB",10-09-2024 23:00:00,27.9002,76.9938,OZONE,22,31,27
India,Haryana,Manesar,"Sector-2 IMT, Manesar - HSPCB",10-09-2024 23:00:00,28.360699,76.936090,NO2,NA,NA,NA
India,Haryana,Narnaul,"Shastri Nagar, Narnaul - HSPCB",10-09-2024 23:00:00,28.060249,76.113115,SO2,10,139,54
India,Haryana,Narnaul,"Shastri Nagar, Narnaul - HSPCB",10-09-2024 23:00:00,28.060249,76.113115,OZONE,6,75,41
India,Haryana,Palwal,"Shyam Nagar, Palwal - HSPCB",10-09-2024 23:00:00,28.1485564,77.3320667,NO2,23,24,24
India,Haryana,Palwal,"Shyam Nagar, Palwal - HSPCB",10-09-2024 23:00:00,28.1485564,77.3320667,NH3,9,9,9
India,Haryana,Palwal,"Shyam Nagar, Palwal - HSPCB",10-09-2024 23:00:00,28.1485564,77.3320667,SO2,12,13,12
India,Haryana,Palwal,"Shyam Nagar, Palwal - HSPCB",10-09-2024 23:00:00,28.1485564,77.3320667,OZONE,8,13,10
India,Haryana,Panchkula,"Sector-6, Panchkula - HSPCB ",10-09-2024 23:00:00,30.7057778,76.8531805555555,CO,4,22,9
India,Haryana,Panipat,"Sector-18, Panipat - HSPCB",10-09-2024 23:00:00,29.432304,76.972765,SO2,18,19,19
India,Haryana,Rohtak,"MD University, Rohtak - HSPCB",10-09-2024 23:00:00,28.52123,76.37138,NO2,32,40,35
India,Haryana,Rohtak,"MD University, Rohtak - HSPCB",10-09-2024 23:00:00,28.52123,76.37138,CO,20,32,28
India,Haryana,Sirsa,"F-Block, Sirsa - HSPCB",10-09-2024 23:00:00,29.536400,75.015800,OZONE,36,84,68
India,Haryana,Yamuna Nagar,"Gobind Pura, Yamuna Nagar - HSPCB",10-09-2024 23:00:00,30.1480566,77.2893471,PM2.5,22,69,43
India,Jammu_and_Kashmir,Srinagar,"Rajbagh, Srinagar - JKSPCB",10-09-2024 23:00:00,34.066206,74.819820,SO2,4,72,23
India,Jharkhand,Jorapokhar,"Tata Stadium, Jorapokhar - JSPCB",10-09-2024 23:00:00,23.707909,86.414670,PM2.5,NA,NA,NA
India,Jharkhand,Jorapokhar,"Tata Stadium, Jorapokhar - JSPCB",10-09-2024 23:00:00,23.707909,86.414670,NO2,NA,NA,NA
India,Jharkhand,Jorapokhar,"Tata Stadium, Jorapokhar - JSPCB",10-09-2024 23:00:00,23.707909,86.414670,NH3,NA,NA,NA
India,Karnataka,Bagalkot,"Vidayagiri, Bagalkot - KSPCB",10-09-2024 23:00:00,16.172806,75.659694,SO2,4,4,4
India,Karnataka,Bagalkot,"Vidayagiri, Bagalkot - KSPCB",10-09-2024 23:00:00,16.172806,75.659694,CO,24,48,38
India,Karnataka,Belgaum,"Ramteerth Nagar, Belgaum - KSPCB",10-09-2024 23:00:00,15.888653,74.541751,PM2.5,11,24,18
India,Karnataka,Belgaum,"Ramteerth Nagar, Belgaum - KSPCB",10-09-2024 23:00:00,15.888653,74.541751,OZONE,19,21,20
India,Karnataka,Bengaluru,"BTM Layout, Bengaluru - CPCB",10-09-2024 23:00:00,12.9135218,77.5950804,SO2,11,21,15
India,Karnataka,Bengaluru,"Bapuji Nagar, Bengaluru - KSPCB",10-09-2024 23:00:00,12.951913,77.539784,NO2,14,16,15
India,Karnataka,Bengaluru,"Bapuji Nagar, Bengaluru - KSPCB",10-09-2024 23:00:00,12.951913,77.539784,SO2,5,6,6
India,Karnataka,Bengaluru,"Bapuji Nagar, Bengaluru - KSPCB",10-09-2024 23:00:00,12.951913,77.539784,OZONE,26,37,31
India,Karnataka,Bengaluru,"City Railway Station, Bengaluru - KSPCB",10-09-2024 23:00:00,12.9756843,77.5660749,SO2,14,19,17
India,Karnataka,Bengaluru,"City Railway Station, Bengaluru - KSPCB",10-09-2024 23:00:00,12.9756843,77.5660749,CO,52,82,69
India,Karnataka,Bengaluru,"Hebbal, Bengaluru - KSPCB",10-09-2024 23:00:00,13.029152,77.585901,NH3,1,1,1
India,Karnataka,Bengaluru,"Hebbal, Bengaluru - KSPCB",10-09-2024 23:00:00,13.029152,77.585901,SO2,1,19,14
India,Karnataka,Bengaluru,"Hombegowda Nagar, Bengaluru - KSPCB",10-09-2024 23:00:00,12.938539,77.590100,OZONE,7,24,17
India,Karnataka,Bengaluru,"Jayanagar 5th Block, Bengaluru - KSPCB",10-09-2024 23:00:00,12.920984,77.584908,SO2,6,12,10
India,Karnataka,Bengaluru,"Jayanagar 5th Block, Bengaluru - KSPCB",10-09-2024 23:00:00,12.920984,77.584908,OZONE,11,12,11
India,Karnataka,Bengaluru,"Peenya, Bengaluru - CPCB",10-09-2024 23:00:00,13.0270199,77.494094,NH3,4,5,5
