country,state,city,station,last_update,latitude,longitude,pollutant_id,pollutant_min,pollutant_max,pollutant_avg
India,Andhra_Pradesh,Amaravati,"Secretariat, Amaravati - APPCB",23-04-2024 18:00:00,16.5150833,80.5181667,NO2,3,20,9
India,Andhra_Pradesh,Anantapur,"Gulzarpet, Anantapur - APPCB",23-04-2024 18:00:00,14.675886,77.593027,PM2.5,NA,NA,NA
India,Andhra_Pradesh,Anantapur,"Gulzarpet, Anantapur - APPCB",23-04-2024 18:00:00,14.675886,77.593027,NH3,NA,NA,NA
India,Andhra_Pradesh,Kadapa,"Yerramukkapalli, Kadapa - APPCB",23-04-2024 18:00:00,14.465052,78.824187,SO2,NA,NA,NA
India,Andhra_Pradesh,Tirupati,"Tirumala, Tirupati - APPCB",23-04-2024 18:00:00,13.67,79.35,NH3,1,1,1
India,Andhra_Pradesh,Tirupati,"Vaikuntapuram, Tirupati - APPCB",23-04-2024 18:00:00,13.615387,79.409230,NH3,NA,NA,NA
India,Andhra_Pradesh,Vijayawada,"Kanuru, Vijayawada - APPCB",23-04-2024 18:00:00,16.486692,80.699436,CO,50,62,56
India,Andhra_Pradesh,Vijayawada,"Rajiv Gandhi Park, Vijayawada - APPCB",23-04-2024 18:00:00,16.509717,80.612222,NO2,34,53,41
India,Andhra_Pradesh,Vijayawada,"Rajiv Gandhi Park, Vijayawada - APPCB",23-04-2024 18:00:00,16.509717,80.612222,OZONE,33,51,48
India,Andhra_Pradesh,Vijayawada,"Rajiv Nagar, Vijayawada - APPCB",23-04-2024 18:00:00,16.554731,80.649110,PM10,59,89,62
India,Andhra_Pradesh,Visakhapatnam,"GVM Corporation, Visakhapatnam - APPCB",23-04-2024 18:00:00,17.72,83.3,NO2,34,77,48
India,Assam,Byrnihat,"Central Academy for SFS, Byrnihat - PCBA",23-04-2024 18:00:00,26.071318,91.87488,NH3,7,9,8
India,Assam,Guwahati,"IITG, Guwahati - PCBA",23-04-2024 18:00:00,26.2028636,91.70046436,PM2.5,45,106,62
India,Assam,Guwahati,"IITG, Guwahati - PCBA",23-04-2024 18:00:00,26.2028636,91.70046436,SO2,11,13,12
India,Assam,Guwahati,"LGBI Airport, Guwahati - PCBA",23-04-2024 18:00:00,26.10887,91.589544,NH3,2,6,5
India,Assam,Guwahati,"LGBI Airport, Guwahati - PCBA",23-04-2024 18:00:00,26.10887,91.589544,CO,29,56,52
India,Assam,Guwahati,"LGBI Airport, Guwahati - PCBA",23-04-2024 18:00:00,26.10887,91.589544,OZONE,7,21,11
India,Assam,Guwahati,"Pan Bazaar, Guwahati - PCBA",23-04-2024 18:00:00,26.187500,91.744194,OZONE,15,18,17
India,Assam,Guwahati,"Railway Colony, Guwahati - PCBA",23-04-2024 18:00:00,26.181742,91.78063,NO2,3,3,3
India,Assam,Guwahati,"Railway Colony, Guwahati - PCBA",23-04-2024 18:00:00,26.181742,91.78063,SO2,16,22,19
India,Assam,Nalbari,"Bata Chowk, Nalbari - PCBA",23-04-2024 18:00:00,26.446912,91.439057,NH3,1,2,2
India,Assam,Silchar,"Tarapur, Silchar - PCBA",23-04-2024 18:00:00,24.82827,92.79525,PM2.5,23,29,26
India,Bihar,Araria,"Kharahiya Basti, Araria - BSPCB",23-04-2024 18:00:00,26.146529,87.454184,PM10,76,306,138
India,Bihar,Araria,"Kharahiya Basti, Araria - BSPCB",23-04-2024 18:00:00,26.146529,87.454184,NO2,5,130,18
India,Bihar,Aurangabad,"Gurdeo Nagar, Aurangabad - BSPCB",23-04-2024 18:00:00,24.75746,84.366208,NO2,3,6,5
India,Bihar,Bhagalpur,"Mayaganj, Bhagalpur - BSPCB",23-04-2024 18:00:00,25.265194,87.012947,SO2,3,12,11
India,Bihar,Bihar Sharif,"D M Colony, Bihar Sharif - BSPCB",23-04-2024 18:00:00,25.204762,85.514960,PM2.5,8,57,30
India,Bihar,Bihar Sharif,"D M Colony, Bihar Sharif - BSPCB",23-04-2024 18:00:00,25.204762,85.514960,PM10,12,84,44
India,Bihar,Bihar Sharif,"D M Colony, Bihar Sharif - BSPCB",23-04-2024 18:00:00,25.204762,85.514960,CO,44,58,54
India,Bihar,Chhapra,"Darshan Nagar, Chhapra - BSPCB",23-04-2024 18:00:00,25.7808257,84.7446768,OZONE,1,8,1
India,Bihar,Gaya,"Collectorate, Gaya - BSPCB",23-04-2024 18:00:00,24.7955,84.9994,SO2,5,35,16
India,Bihar,Gaya,"Kareemganj, Gaya - BSPCB",23-04-2024 18:00:00,24.792403,84.992416,NH3,1,6,4
India,Bihar,Gaya,"Kareemganj, Gaya - BSPCB",23-04-2024 18:00:00,24.792403,84.992416,SO2,4,10,7
India,Bihar,Gaya,"SFTI Kusdihra, Gaya - BSPCB",23-04-2024 18:00:00,24.762518,84.982348,PM2.5,20,88,52
India,Bihar,Gaya,"SFTI Kusdihra, Gaya - BSPCB",23-04-2024 18:00:00,24.762518,84.982348,NO2,19,79,46
India,Bihar,Katihar,"Mirchaibari, Katihar - BSPCB",23-04-2024 18:00:00,25.560083,87.553265,PM10,38,186,103
India,Bihar,Katihar,"Mirchaibari, Katihar - BSPCB",23-04-2024 18:00:00,25.560083,87.553265,SO2,16,21,19
India,Bihar,Kishanganj,"SDM Office_Khagra, Kishanganj - BSPCB",23-04-2024 18:00:00,26.0881305,87.93840336,PM2.5,38,306,102
India,Bihar,Kishanganj,"SDM Office_Khagra, Kishanganj - BSPCB",23-04-2024 18:00:00,26.0881305,87.93840336,NH3,9,10,9
India,Bihar,Kishanganj,"SDM Office_Khagra, Kishanganj - BSPCB",23-04-2024 18:00:00,26.0881305,87.93840336,SO2,2,9,3
India,Bihar,Manguraha,"Forest Rest House, Manguraha - BSPCB",23-04-2024 18:00:00,27.308328,84.531742,NO2,NA,NA,NA
India,Bihar,Muzaffarpur,"Buddha Colony, Muzaffarpur - BSPCB",23-04-2024 18:00:00,26.11442,85.39813,SO2,6,25,13
India,Bihar,Muzaffarpur,"Muzaffarpur Collectorate, Muzaffarpur - BSPCB",23-04-2024 18:00:00,26.1209,85.3647,NO2,3,253,63
India,Bihar,Patna,"DRM Office Danapur, Patna - BSPCB",23-04-2024 18:00:00,25.586562,85.043586,PM2.5,32,173,88
India,Bihar,Patna,"Govt. High School Shikarpur, Patna - BSPCB",23-04-2024 18:00:00,25.592539,85.227158,PM2.5,49,265,139
India,Bihar,Patna,"Govt. High School Shikarpur, Patna - BSPCB",23-04-2024 18:00:00,25.592539,85.227158,NO2,17,22,20
India,Bihar,Patna,"Govt. High School Shikarpur, Patna - BSPCB",23-04-2024 18:00:00,25.592539,85.227158,NH3,5,5,5
India,Bihar,Patna,"IGSC Planetarium Complex, Patna - BSPCB",23-04-2024 18:00:00,25.610369,85.132568,NO2,11,12,11
India,Bihar,Patna,"Muradpur, Patna - BSPCB",23-04-2024 18:00:00,25.619651,85.147382,PM10,108,470,277
India,Bihar,Patna,"Muradpur, Patna - BSPCB",23-04-2024 18:00:00,25.619651,85.147382,NO2,6,18,13
India,Bihar,Patna,"Muradpur, Patna - BSPCB",23-04-2024 18:00:00,25.619651,85.147382,SO2,7,15,10
India,Bihar,Patna,"Muradpur, Patna - BSPCB",23-04-2024 18:00:00,25.619651,85.147382,CO,17,54,23
India,Bihar,Patna,"Muradpur, Patna - BSPCB",23-04-2024 18:00:00,25.619651,85.147382,OZONE,5,76,71
India,Bihar,Patna,"Samanpura, Patna - BSPCB",23-04-2024 18:00:00,25.596727,85.085624,PM10,NA,NA,NA
India,Bihar,Purnia,"Mariam Nagar, Purnia - BSPCB",23-04-2024 18:00:00,25.366336,87.117468,PM10,63,185,102
India,Bihar,Purnia,"Mariam Nagar, Purnia - BSPCB",23-04-2024 18:00:00,25.366336,87.117468,NH3,2,12,9
India,Bihar,Purnia,"Mariam Nagar, Purnia - BSPCB",23-04-2024 18:00:00,25.366336,87.117468,SO2,6,13,9
India,Bihar,Rajgir,"Dangi Tola, Rajgir - BSPCB",23-04-2024 18:00:00,25.03280,85.41948,PM2.5,12,55,26
India,Bihar,Sasaram,"Dada Peer, Sasaram - BSPCB",23-04-2024 18:00:00,24.952822,84.002396,PM10,16,117,61
India,Bihar,Sasaram,"Dada Peer, Sasaram - BSPCB",23-04-2024 18:00:00,24.952822,84.002396,SO2,16,23,21
India,Chandigarh,Chandigarh,"Sector-53, Chandigarh - CPCC",23-04-2024 18:00:00,30.719859,76.738637,PM10,49,127,95
India,Chandigarh,Chandigarh,"Sector-53, Chandigarh - CPCC",23-04-2024 18:00:00,30.719859,76.738637,CO,35,84,41
India,Chhattisgarh,Bhilai,"32Bungalows, Bhilai - CECB",23-04-2024 18:00:00,21.194815,81.314770,CO,14,28,20
India,Chhattisgarh,Bhilai,"Civic Center, Bhilai - Bhilai Steel Plant",23-04-2024 18:00:00,21.185571,81.343175,OZONE,8,64,49
India,Chhattisgarh,Bhilai,"Hathkhoj, Bhilai - CECB",23-04-2024 18:00:00,21.224231,81.408350,OZONE,6,24,18
India,Chhattisgarh,Chhal,"Nawapara SECL Colony, Chhal - CECB",23-04-2024 18:00:00,22.118125,83.140608,NO2,24,96,41
India,Chhattisgarh,Korba,"Rampur, Korba - CECB",23-04-2024 18:00:00,22.368195,82.746431,NH3,1,1,1
India,Chhattisgarh,Raipur,"AIIMS, Raipur - CECB",23-04-2024 18:00:00,21.258815,81.578979,CO,24,38,34
India,Chhattisgarh,Raipur,"Krishak Nagar, Raipur - CECB",23-04-2024 18:00:00,21.237755,81.705301,PM2.5,16,55,30
India,Chhattisgarh,Raipur,"Siltara Phase-II, Raipur - CECB",23-04-2024 18:00:00,21.371751,81.664929,CO,16,48,31
India,Chhattisgarh,Tumidih,"OP Jindal Industrial Park, Tumidih - CECB",23-04-2024 18:00:00,22.06631475,83.33820077,PM2.5,19,75,36
India,Chhattisgarh,Tumidih,"OP Jindal Industrial Park, Tumidih - CECB",23-04-2024 18:00:00,22.06631475,83.33820077,NO2,13,64,40
India,Delhi,Delhi,"Alipur, Delhi - DPCC",23-04-2024 18:00:00,28.815329,77.153010,CO,36,72,42
India,Delhi,Delhi,"Anand Vihar, Delhi - DPCC",23-04-2024 18:00:00,28.647622,77.3158090,CO,49,106,61
India,Delhi,Delhi,"Anand Vihar, Delhi - DPCC",23-04-2024 18:00:00,28.647622,77.3158090,OZONE,5,165,93
India,Delhi,Delhi,"Bawana, Delhi - DPCC",23-04-2024 18:00:00,28.776200,77.051074,PM2.5,32,401,237
India,Delhi,Delhi,"Bawana, Delhi - DPCC",23-04-2024 18:00:00,28.776200,77.051074,NH3,5,7,6
India,Delhi,Delhi,"Burari Crossing, Delhi - IMD",23-04-2024 18:00:00,28.7256504,77.2011573,NO2,12,28,22
India,Delhi,Delhi,"Burari Crossing, Delhi - IMD",23-04-2024 18:00:00,28.7256504,77.2011573,OZONE,6,95,69
India,Delhi,Delhi,"CRRI Mathura Road, Delhi - IMD",23-04-2024 18:00:00,28.5512005,77.2735737,PM10,NA,NA,NA
India,Delhi,Delhi,"Chandni Chowk, Delhi - IITM",23-04-2024 18:00:00,28.656756,77.227234,PM10,92,250,153
India,Delhi,Delhi,"Chandni Chowk, Delhi - IITM",23-04-2024 18:00:00,28.656756,77.227234,OZONE,3,7,6
India,Delhi,Delhi,"DTU, Delhi - CPCB",23-04-2024 18:00:00,28.7500499,77.1112615,CO,19,53,29
India,Delhi,Delhi,"Dr. Karni Singh Shooting Range, Delhi - DPCC",23-04-2024 18:00:00,28.498571,77.264840,NO2,26,173,74
India,Delhi,Delhi,"Dr. Karni Singh Shooting Range, Delhi - DPCC",23-04-2024 18:00:00,28.498571,77.264840,OZONE,1,274,195
India,Delhi,Delhi,"Dwarka-Sector 8, Delhi - DPCC ",23-04-2024 18:00:00,28.5710274,77.0719006,NO2,19,87,50
India,Delhi,Delhi,"IGI Airport (T3), Delhi - IMD",23-04-2024 18:00:00,28.5627763,77.1180053,NO2,6,56,28
India,Delhi,Delhi,"IHBAS, Dilshad Garden, Delhi - CPCB",23-04-2024 18:00:00,28.6811736,77.3025234,PM2.5,62,178,98
India,Delhi,Delhi,"IHBAS, Dilshad Garden, Delhi - CPCB",23-04-2024 18:00:00,28.6811736,77.3025234,PM10,47,187,133
India,Delhi,Delhi,"ITO, Delhi - CPCB",23-04-2024 18:00:00,28.628624,77.241060,OZONE,7,88,70
India,Delhi,Delhi,"Jahangirpuri, Delhi - DPCC",23-04-2024 18:00:00,28.732820,77.170633,PM10,132,437,261
India,Delhi,Delhi,"Lodhi Road, Delhi - IITM",23-04-2024 18:00:00,28.588333,77.221667,PM2.5,44,337,161
India,Delhi,Delhi,"Lodhi Road, Delhi - IITM",23-04-2024 18:00:00,28.588333,77.221667,NO2,51,129,97
India,Delhi,Delhi,"Lodhi Road, Delhi - IITM",23-04-2024 18:00:00,28.588333,77.221667,NH3,7,10,9
India,Delhi,Delhi,"Lodhi Road, Delhi - IITM",23-04-2024 18:00:00,28.588333,77.221667,SO2,14,39,26
India,Delhi,Delhi,"Lodhi Road, Delhi - IITM",23-04-2024 18:00:00,28.588333,77.221667,CO,60,66,61
India,Delhi,Delhi,"Lodhi Road, Delhi - IMD",23-04-2024 18:00:00,28.5918245,77.2273074,PM10,66,208,118
India,Delhi,Delhi,"Major Dhyan Chand National Stadium, Delhi - DPCC",23-04-2024 18:00:00,28.611281,77.237738,NO2,32,171,108
India,Delhi,Delhi,"Major Dhyan Chand National Stadium, Delhi - DPCC",23-04-2024 18:00:00,28.611281,77.237738,SO2,7,18,14
India,Delhi,Delhi,"Mandir Marg, Delhi - DPCC",23-04-2024 18:00:00,28.636429,77.201067,PM2.5,18,246,97
India,Delhi,Delhi,"Mandir Marg, Delhi - DPCC",23-04-2024 18:00:00,28.636429,77.201067,NH3,5,8,6
India,Delhi,Delhi,"Mandir Marg, Delhi - DPCC",23-04-2024 18:00:00,28.636429,77.201067,CO,2,50,21
India,Delhi,Delhi,"Mundka, Delhi - DPCC",23-04-2024 18:00:00,28.684678,77.076574,SO2,10,102,43
India,Delhi,Delhi,"Mundka, Delhi - DPCC",23-04-2024 18:00:00,28.684678,77.076574,CO,35,80,41
India,Delhi,Delhi,"NSIT Dwarka, Delhi - CPCB",23-04-2024 18:00:00,28.60909,77.0325413,PM2.5,NA,NA,NA
India,Delhi,Delhi,"NSIT Dwarka, Delhi - CPCB",23-04-2024 18:00:00,28.60909,77.0325413,PM10,NA,NA,NA
India,Delhi,Delhi,"NSIT Dwarka, Delhi - CPCB",23-04-2024 18:00:00,28.60909,77.0325413,SO2,NA,NA,NA
India,Delhi,Delhi,"Najafgarh, Delhi - DPCC",23-04-2024 18:00:00,28.570173,76.933762,NH3,5,24,9
India,Delhi,Delhi,"Narela, Delhi - DPCC",23-04-2024 18:00:00,28.822836,77.101981,NO2,12,85,47
India,Delhi,Delhi,"Nehru Nagar, Delhi - DPCC",23-04-2024 18:00:00,28.567890,77.250515,CO,52,67,56
India,Delhi,Delhi,"New Moti Bagh, Delhi - MHUA",23-04-2024 18:00:00,28.57834,77.18400,NO2,6,38,20
India,Delhi,Delhi,"New Moti Bagh, Delhi - MHUA",23-04-2024 18:00:00,28.57834,77.18400,CO,27,107,35
India,Delhi,Delhi,"North Campus, DU, Delhi - IMD",23-04-2024 18:00:00,28.6573814,77.1585447,NO2,NA,NA,NA
India,Delhi,Delhi,"Okhla Phase-2, Delhi - DPCC",23-04-2024 18:00:00,28.530785,77.271255,NO2,32,143,91
India,Delhi,Delhi,"Okhla Phase-2, Delhi - DPCC",23-04-2024 18:00:00,28.530785,77.271255,OZONE,10,142,112
India,Delhi,Delhi,"Patparganj, Delhi - DPCC",23-04-2024 18:00:00,28.623763,77.287209,PM2.5,27,203,99
India,Delhi,Delhi,"Punjabi Bagh, Delhi - DPCC",23-04-2024 18:00:00,28.674045,77.131023,SO2,14,60,43
India,Delhi,Delhi,"Punjabi Bagh, Delhi - DPCC",23-04-2024 18:00:00,28.674045,77.131023,CO,33,69,39
India,Delhi,Delhi,"Pusa, Delhi - DPCC",23-04-2024 18:00:00,28.639652,77.146275,PM10,111,456,202
India,Delhi,Delhi,"Pusa, Delhi - DPCC",23-04-2024 18:00:00,28.639652,77.146275,NH3,5,8,7
India,Delhi,Delhi,"Pusa, Delhi - DPCC",23-04-2024 18:00:00,28.639652,77.146275,OZONE,9,129,97
India,Delhi,Delhi,"R K Puram, Delhi - DPCC",23-04-2024 18:00:00,28.563262,77.186937,PM2.5,41,280,147
India,Delhi,Delhi,"R K Puram, Delhi - DPCC",23-04-2024 18:00:00,28.563262,77.186937,NO2,11,69,43
India,Delhi,Delhi,"R K Puram, Delhi - DPCC",23-04-2024 18:00:00,28.563262,77.186937,OZONE,10,266,204
India,Delhi,Delhi,"Rohini, Delhi - DPCC",23-04-2024 18:00:00,28.732528,77.119920,NH3,8,12,9
India,Delhi,Delhi,"Shadipur, Delhi - CPCB",23-04-2024 18:00:00,28.6514781,77.1473105,PM2.5,58,342,211
India,Delhi,Delhi,"Shadipur, Delhi - CPCB",23-04-2024 18:00:00,28.6514781,77.1473105,NO2,49,81,64
India,Delhi,Delhi,"Sirifort, Delhi - CPCB",23-04-2024 18:00:00,28.5504249,77.2159377,PM10,104,500,180
India,Delhi,Delhi,"Sirifort, Delhi - CPCB",23-04-2024 18:00:00,28.5504249,77.2159377,NO2,42,87,68
India,Delhi,Delhi,"Sirifort, Delhi - CPCB",23-04-2024 18:00:00,28.5504249,77.2159377,OZONE,6,146,90
India,Delhi,Delhi,"Sri Aurobindo Marg, Delhi - DPCC",23-04-2024 18:00:00,28.531346,77.190156,NO2,17,92,49
India,Delhi,Delhi,"Vivek Vihar, Delhi - DPCC",23-04-2024 18:00:00,28.672342,77.315260,PM2.5,30,197,106
India,Delhi,Delhi,"Wazirpur, Delhi - DPCC",23-04-2024 18:00:00,28.699793,77.165453,SO2,9,43,20
India,Delhi,Delhi,"Wazirpur, Delhi - DPCC",23-04-2024 18:00:00,28.699793,77.165453,OZONE,3,171,132
India,Gujarat,Ahmedabad,"Gyaspur, Ahmedabad - IITM",23-04-2024 18:00:00,22.977134,72.553024,CO,32,66,40
India,Gujarat,Ahmedabad,"Maninagar, Ahmedabad - GPCB",23-04-2024 18:00:00,23.002657,72.591912,SO2,2,136,79
India,Gujarat,Ahmedabad,"Maninagar, Ahmedabad - GPCB",23-04-2024 18:00:00,23.002657,72.591912,OZONE,10,67,51
India,Gujarat,Ahmedabad,"Rakhial, Ahmedabad - IITM",23-04-2024 18:00:00,23.016834,72.625775,CO,36,96,66
India,Gujarat,Ahmedabad,"SAC ISRO Satellite, Ahmedabad - IITM",23-04-2024 18:00:00,23.023389,72.515201,PM10,92,93,92
India,Gujarat,Ahmedabad,"SAC ISRO Satellite, Ahmedabad - IITM",23-04-2024 18:00:00,23.023389,72.515201,SO2,2,10,5
India,Gujarat,Ahmedabad,"SAC ISRO Satellite, Ahmedabad - IITM",23-04-2024 18:00:00,23.023389,72.515201,CO,26,28,26
India,Gujarat,Ahmedabad,"SAC ISRO Satellite, Ahmedabad - IITM",23-04-2024 18:00:00,23.023389,72.515201,OZONE,13,21,21
India,Gujarat,Ahmedabad,"SVPI Airport Hansol, Ahmedabad - IITM",23-04-2024 18:00:00,23.076793,72.627874,PM10,68,107,93
India,Gujarat,Ahmedabad,"Sardar Vallabhbhai Patel Stadium, Ahmedabad - IITM",23-04-2024 18:00:00,23.043070,72.562968,PM2.5,54,98,81
India,Gujarat,Ahmedabad,"Sardar Vallabhbhai Patel Stadium, Ahmedabad - IITM",23-04-2024 18:00:00,23.043070,72.562968,CO,21,58,34
India,Gujarat,Gandhinagar,"IIPHG Lekawada, Gandhinagar - IITM",23-04-2024 18:00:00,23.243639,72.68994,PM2.5,37,91,75
India,Gujarat,Gandhinagar,"IIPHG Lekawada, Gandhinagar - IITM",23-04-2024 18:00:00,23.243639,72.68994,NO2,25,30,27
India,Gujarat,Gandhinagar,"IIPHG Lekawada, Gandhinagar - IITM",23-04-2024 18:00:00,23.243639,72.68994,CO,31,48,33
India,Gujarat,Gandhinagar,"Sector-10, Gandhinagar - GPCB",23-04-2024 18:00:00,23.221714,72.654328,OZONE,4,47,42
India,Gujarat,Vapi,"Phase-1 GIDC, Vapi - GPCB",23-04-2024 18:00:00,20.362421,72.918013,PM2.5,22,123,47
India,Gujarat,Vapi,"Phase-1 GIDC, Vapi - GPCB",23-04-2024 18:00:00,20.362421,72.918013,NO2,6,7,7
India,Gujarat,Vapi,"Phase-1 GIDC, Vapi - GPCB",23-04-2024 18:00:00,20.362421,72.918013,NH3,2,2,2
India,Gujarat,Vapi,"Phase-1 GIDC, Vapi - GPCB",23-04-2024 18:00:00,20.362421,72.918013,OZONE,7,10,9
India,Haryana,Ambala,"Patti Mehar, Ambala - HSPCB",23-04-2024 18:00:00,30.379589,76.778328,PM10,43,84,65
India,Haryana,Ambala,"Patti Mehar, Ambala - HSPCB",23-04-2024 18:00:00,30.379589,76.778328,NH3,7,8,8
India,Haryana,Ambala,"Patti Mehar, Ambala - HSPCB",23-04-2024 18:00:00,30.379589,76.778328,OZONE,27,52,43
India,Haryana,Bahadurgarh,"Arya Nagar, Bahadurgarh - HSPCB",23-04-2024 18:00:00,28.6701,76.9254,NH3,NA,NA,NA
India,Haryana,Bahadurgarh,"Arya Nagar, Bahadurgarh - HSPCB",23-04-2024 18:00:00,28.6701,76.9254,CO,94,100,98
India,Haryana,Ballabgarh,"Nathu Colony, Ballabgarh - HSPCB",23-04-2024 18:00:00,28.3419248,77.319699,PM10,90,178,139
India,Haryana,Ballabgarh,"Nathu Colony, Ballabgarh - HSPCB",23-04-2024 18:00:00,28.3419248,77.319699,OZONE,1,27,24
India,Haryana,Bhiwani,"H.B. Colony, Bhiwani - HSPCB",23-04-2024 18:00:00,28.806223,76.141105,SO2,1,77,12
India,Haryana,Charkhi Dadri,"Mini Secretariat, Charkhi Dadri - HSPCB",23-04-2024 18:00:00,28.593883,76.270653,PM2.5,57,219,140
India,Haryana,Charkhi Dadri,"Mini Secretariat, Charkhi Dadri - HSPCB",23-04-2024 18:00:00,28.593883,76.270653,OZONE,14,16,16
India,Haryana,Faridabad,"New Industrial Town, Faridabad - HSPCB",23-04-2024 18:00:00,28.39072,77.30059,CO,10,46,15
India,Haryana,Faridabad,"Sector 11, Faridabad - HSPCB",23-04-2024 18:00:00,28.376058,77.315741,NO2,30,33,31
India,Haryana,Faridabad,"Sector 30, Faridabad - HSPCB",23-04-2024 18:00:00,28.4417,77.3217,NO2,29,32,31
India,Haryana,Faridabad,"Sector 30, Faridabad - HSPCB",23-04-2024 18:00:00,28.4417,77.3217,NH3,9,9,9
India,Haryana,Faridabad,"Sector- 16A, Faridabad - HSPCB",23-04-2024 18:00:00,28.4088421,77.3099081,SO2,NA,NA,NA
India,Haryana,Fatehabad,"Huda Sector, Fatehabad - HSPCB",23-04-2024 18:00:00,29.503664,75.467934,NH3,9,10,10
India,Haryana,Fatehabad,"Huda Sector, Fatehabad - HSPCB",23-04-2024 18:00:00,29.503664,75.467934,OZONE,44,67,58
India,Haryana,Gurugram,"Sector-51, Gurugram - HSPCB",23-04-2024 18:00:00,28.4227,77.0667,SO2,2,4,3
India,Haryana,Gurugram,"Teri Gram, Gurugram - HSPCB",23-04-2024 18:00:00,28.4275,77.1465,PM2.5,85,321,181
India,Haryana,Gurugram,"Teri Gram, Gurugram - HSPCB",23-04-2024 18:00:00,28.4275,77.1465,NO2,28,101,51
India,Haryana,Gurugram,"Teri Gram, Gurugram - HSPCB",23-04-2024 18:00:00,28.4275,77.1465,OZONE,27,68,46
India,Haryana,Gurugram,"Vikas Sadan, Gurugram - HSPCB",23-04-2024 18:00:00,28.4501238,77.0263051,PM2.5,8,500,327
India,Haryana,Hisar,"Urban Estate-II, Hisar - HSPCB",23-04-2024 18:00:00,29.140560,75.744941,PM2.5,27,98,70
India,Haryana,Jind,"Police Lines, Jind - HSPCB",23-04-2024 18:00:00,29.307814,76.337619,PM2.5,14,96,63
India,Haryana,Kurukshetra,"Sector-7, Kurukshetra - HSPCB",23-04-2024 18:00:00,29.966942,76.875879,PM2.5,41,128,86
India,Haryana,Kurukshetra,"Sector-7, Kurukshetra - HSPCB",23-04-2024 18:00:00,29.966942,76.875879,NO2,10,10,10
India,Haryana,Mandikhera,"General Hospital, Mandikhera - HSPCB",23-04-2024 18:00:00,27.9002,76.9938,PM10,28,128,84
India,Haryana,Palwal,"Shyam Nagar, Palwal - HSPCB",23-04-2024 18:00:00,28.1485564,77.3320667,NH3,9,9,9
India,Haryana,Palwal,"Shyam Nagar, Palwal - HSPCB",23-04-2024 18:00:00,28.1485564,77.3320667,SO2,5,95,16
India,Haryana,Palwal,"Shyam Nagar, Palwal - HSPCB",23-04-2024 18:00:00,28.1485564,77.3320667,CO,20,41,24
India,Haryana,Panchkula,"Sector-6, Panchkula - HSPCB ",23-04-2024 18:00:00,30.7057778,76.8531805555555,SO2,2,20,4
India,Haryana,Rohtak,"MD University, Rohtak - HSPCB",23-04-2024 18:00:00,28.52123,76.37138,NO2,47,55,51
India,Haryana,Sirsa,"F-Block, Sirsa - HSPCB",23-04-2024 18:00:00,29.536400,75.015800,PM2.5,42,96,64
India,Haryana,Sonipat,"Murthal, Sonipat - HSPCB",23-04-2024 18:00:00,29.027200,77.062100,NO2,37,44,40
India,Himachal Pradesh,Baddi,"HIMUDA Complex Phase-1, Baddi - HPPCB",23-04-2024 18:00:00,30.943887,76.801991,PM10,35,210,89
India,Himachal Pradesh,Baddi,"HIMUDA Complex Phase-1, Baddi - HPPCB",23-04-2024 18:00:00,30.943887,76.801991,SO2,9,60,22
India,Himachal Pradesh,Baddi,"HIMUDA Complex Phase-1, Baddi - HPPCB",23-04-2024 18:00:00,30.943887,76.801991,CO,8,41,11
India,Jharkhand,Pathardih,"Mohalbani Ghat, Pathardih - DMC",23-04-2024 18:00:00,23.669880,86.411725,SO2,NA,NA,NA
India,Karnataka,Bagalkot,"Vidayagiri, Bagalkot - KSPCB",23-04-2024 18:00:00,16.172806,75.659694,PM10,45,46,46
India,Karnataka,Bagalkot,"Vidayagiri, Bagalkot - KSPCB",23-04-2024 18:00:00,16.172806,75.659694,CO,22,52,35
India,Karnataka,Bagalkot,"Vidayagiri, Bagalkot - KSPCB",23-04-2024 18:00:00,16.172806,75.659694,OZONE,NA,NA,NA
India,Karnataka,Bengaluru,"Bapuji Nagar, Bengaluru - KSPCB",23-04-2024 18:00:00,12.951913,77.539784,PM2.5,57,151,91
India,Karnataka,Bengaluru,"Bapuji Nagar, Bengaluru - KSPCB",23-04-2024 18:00:00,12.951913,77.539784,CO,14,47,28
India,Karnataka,Bengaluru,"Hebbal, Bengaluru - KSPCB",23-04-2024 18:00:00,13.029152,77.585901,OZONE,7,27,20
India,Karnataka,Bengaluru,"Jayanagar 5th Block, Bengaluru - KSPCB",23-04-2024 18:00:00,12.920984,77.584908,SO2,8,39,18
India,Karnataka,Bengaluru,"Kasturi Nagar, Bengaluru - KSPCB",23-04-2024 18:00:00,13.003872,77.664217,PM10,68,500,126
India,Karnataka,Bengaluru,"Shivapura_Peenya, Bengaluru - KSPCB",23-04-2024 18:00:00,13.0246342,77.5080115,SO2,3,18,10
India,Karnataka,Bengaluru,"Shivapura_Peenya, Bengaluru - KSPCB",23-04-2024 18:00:00,13.0246342,77.5080115,CO,22,75,30
India,Karnataka,Bengaluru,"Silk Board, Bengaluru - KSPCB",23-04-2024 18:00:00,12.917348,77.622813,PM2.5,56,124,76
India,Karnataka,Bengaluru,"Silk Board, Bengaluru - KSPCB",23-04-2024 18:00:00,12.917348,77.622813,NO2,6,19,12
India,Karnataka,Chamarajanagar,"Urban, Chamarajanagar - KSPCB",23-04-2024 18:00:00,11.55358,76.55521,PM10,34,52,41
India,Karnataka,Chamarajanagar,"Urban, Chamarajanagar - KSPCB",23-04-2024 18:00:00,11.55358,76.55521,CO,12,119,20
India,Karnataka,Chikkaballapur,"Chikkaballapur Rural, Chikkaballapur - KSPCB",23-04-2024 18:00:00,13.428828,77.731418,NO2,6,17,10
India,Karnataka,Chikkamagaluru,"Kalyana Nagara, Chikkamagaluru - KSPCB",23-04-2024 18:00:00,13.328028,75.797056,NO2,16,27,21
India,Karnataka,Dharwad,"Kalabhavan, Dharwad - KSPCB",23-04-2024 18:00:00,15.459706,75.008381,PM10,66,109,91
India,Karnataka,Dharwad,"Kalabhavan, Dharwad - KSPCB",23-04-2024 18:00:00,15.459706,75.008381,NO2,7,29,14
India,Karnataka,Dharwad,"Kalabhavan, Dharwad - KSPCB",23-04-2024 18:00:00,15.459706,75.008381,NH3,3,3,3
India,Karnataka,Gadag,"Panchal Nagar, Gadag - KSPCB",23-04-2024 18:00:00,15.411456,75.638133,PM10,NA,NA,NA
India,Karnataka,Gadag,"Panchal Nagar, Gadag - KSPCB",23-04-2024 18:00:00,15.411456,75.638133,NO2,NA,NA,NA
India,Karnataka,Gadag,"Panchal Nagar, Gadag - KSPCB",23-04-2024 18:00:00,15.411456,75.638133,NH3,NA,NA,NA
India,Karnataka,Hassan,"B.Katihalli, Hassan - KSPCB",23-04-2024 18:00:00,13.008556,76.125258,OZONE,4,10,5
India,Karnataka,Haveri,"Ashwini Nagar, Haveri - KSPCB",23-04-2024 18:00:00,14.791800,75.389600,NH3,NA,NA,NA
India,Karnataka,Hubballi,"Deshpande Nagar, Hubballi - KSPCB",23-04-2024 18:00:00,15.351773,75.140726,PM2.5,NA,NA,NA
India,Karnataka,Hubballi,"Lingaraj Nagar, Hubballi - KSPCB",23-04-2024 18:00:00,15.3714823,75.1160168,CO,2,2,1
India,Karnataka,Kalaburagi,"Lal Bahadur Shastri Nagar, Kalaburagi - KSPCB",23-04-2024 18:00:00,17.321993,76.822628,NH3,2,2,2
India,Karnataka,Kalaburagi,"Lal Bahadur Shastri Nagar, Kalaburagi - KSPCB",23-04-2024 18:00:00,17.321993,76.822628,SO2,19,21,20
India,Karnataka,Kalaburagi,"Mahatma Basaveswar Colony, Kalaburgi - KSPCB",23-04-2024 18:00:00,17.336318,76.847397,PM10,26,49,40
India,Karnataka,Kolar,"Tamaka Ind. Area, Kolar - KSPCB",23-04-2024 18:00:00,13.1276288,78.1570122,OZONE,NA,NA,NA
India,Karnataka,Koppal,"Diwator Nagar, Koppal - KSPCB",23-04-2024 18:00:00,15.347630,76.181767,NO2,33,58,45
India,Karnataka,Koppal,"Diwator Nagar, Koppal - KSPCB",23-04-2024 18:00:00,15.347630,76.181767,CO,92,132,122
India,Karnataka,Koppal,"Diwator Nagar, Koppal - KSPCB",23-04-2024 18:00:00,15.347630,76.181767,OZONE,71,147,123
India,Karnataka,Madikeri,"Stuart Hill, Madikeri - KSPCB",23-04-2024 18:00:00,12.415911,75.735050,PM10,19,61,36
India,Karnataka,Madikeri,"Stuart Hill, Madikeri - KSPCB",23-04-2024 18:00:00,12.415911,75.735050,NH3,1,2,1
India,Karnataka,Madikeri,"Stuart Hill, Madikeri - KSPCB",23-04-2024 18:00:00,12.415911,75.735050,SO2,4,4,4
India,Karnataka,Madikeri,"Stuart Hill, Madikeri - KSPCB",23-04-2024 18:00:00,12.415911,75.735050,CO,4,78,25
India,Karnataka,Madikeri,"Stuart Hill, Madikeri - KSPCB",23-04-2024 18:00:00,12.415911,75.735050,OZONE,28,52,44
India,Karnataka,Mangalore,"Kadri, Mangalore - KSPCB",23-04-2024 18:00:00,12.889250,74.853000,PM2.5,21,64,47
India,Karnataka,Mangalore,"Kadri, Mangalore - KSPCB",23-04-2024 18:00:00,12.889250,74.853000,PM10,56,115,91
India,Karnataka,Mangalore,"Kadri, Mangalore - KSPCB",23-04-2024 18:00:00,12.889250,74.853000,OZONE,30,32,31
India,Karnataka,Mysuru,"Hebbal 1st Stage, Mysuru - KSPCB",23-04-2024 18:00:00,12.21041,76.37376,PM10,30,75,49
India,Karnataka,Ramanagara,"Vijay Nagar, Ramanagara - KSPCB",23-04-2024 18:00:00,12.733409,77.298051,PM10,24,62,46
India,Karnataka,Ramanagara,"Vijay Nagar, Ramanagara - KSPCB",23-04-2024 18:00:00,12.733409,77.298051,CO,10,32,23
India,Karnataka,Shivamogga,"Vinoba Nagara, Shivamogga - KSPCB",23-04-2024 18:00:00,13.940000,75.555917,PM2.5,22,50,33
India,Karnataka,Shivamogga,"Vinoba Nagara, Shivamogga - KSPCB",23-04-2024 18:00:00,13.940000,75.555917,NO2,10,24,14
India,Karnataka,Shivamogga,"Vinoba Nagara, Shivamogga - KSPCB",23-04-2024 18:00:00,13.940000,75.555917,OZONE,10,79,63
India,Karnataka,Tumakuru,"Thimmalapura, Tumakuru - KSPCB",23-04-2024 18:00:00,13.377516,77.099072,NO2,NA,NA,NA
India,Karnataka,Tumakuru,"Thimmalapura, Tumakuru - KSPCB",23-04-2024 18:00:00,13.377516,77.099072,NH3,NA,NA,NA
India,Karnataka,Tumakuru,"Thimmalapura, Tumakuru - KSPCB",23-04-2024 18:00:00,13.377516,77.099072,SO2,8,14,10
India,Karnataka,Tumakuru,"Thimmalapura, Tumakuru - KSPCB",23-04-2024 18:00:00,13.377516,77.099072,CO,30,33,31
India,Karnataka,Tumakuru,"Thimmalapura, Tumakuru - KSPCB",23-04-2024 18:00:00,13.377516,77.099072,OZONE,11,37,34
India,Kerala,Eloor,"Udyogamandal, Eloor - Kerala PCB",23-04-2024 18:00:00,10.073232,76.302765,PM2.5,32,53,45
India,Kerala,Eloor,"Udyogamandal, Eloor - Kerala PCB",23-04-2024 18:00:00,10.073232,76.302765,NH3,1,1,1
India,Kerala,Eloor,"Udyogamandal, Eloor - Kerala PCB",23-04-2024 18:00:00,10.073232,76.302765,SO2,1,5,2
India,Kerala,Eloor,"Udyogamandal, Eloor - Kerala PCB",23-04-2024 18:00:00,10.073232,76.302765,CO,14,100,69
India,Kerala,Kannur,"Thavakkara, Kannur - Kerala PCB",23-04-2024 18:00:00,11.875000,75.373200,NH3,1,1,1
India,Kerala,Thiruvananthapuram,"Kariavattom, Thiruvananthapuram - Kerala PCB",23-04-2024 18:00:00,8.563700,76.886500,CO,18,42,21
India,Kerala,Thiruvananthapuram,"Plammoodu, Thiruvananthapuram - Kerala PCB",23-04-2024 18:00:00,8.5149093,76.9435879,CO,13,32,24
India,Kerala,Thrissur,"Corporation Ground, Thrissur - Kerala PCB",23-04-2024 18:00:00,10.532400,76.215900,NH3,NA,NA,NA
India,Madhya Pradesh,Bhopal,"T T Nagar, Bhopal - MPPCB",23-04-2024 18:00:00,23.233584,77.400574,SO2,4,34,21
India,Madhya Pradesh,Dewas,"Bhopal Chauraha, Dewas - MPPCB",23-04-2024 18:00:00,22.9682591,76.064118,PM2.5,16,159,74
India,Madhya Pradesh,Gwalior,"City Center, Gwalior - MPPCB",23-04-2024 18:00:00,26.203442,78.193251,NO2,8,116,33
India,Madhya Pradesh,Gwalior,"City Center, Gwalior - MPPCB",23-04-2024 18:00:00,26.203442,78.193251,OZONE,19,74,70
India,Madhya Pradesh,Gwalior,"Deen Dayal Nagar, Gwalior - MPPCB",23-04-2024 18:00:00,26.259242,78.216432,NH3,6,11,8
India,Madhya Pradesh,Gwalior,"Deen Dayal Nagar, Gwalior - MPPCB",23-04-2024 18:00:00,26.259242,78.216432,OZONE,10,192,192
India,Madhya Pradesh,Gwalior,"Maharaj Bada, Gwalior - MPPCB",23-04-2024 18:00:00,26.200388,78.147714,OZONE,8,158,145
India,Madhya Pradesh,Gwalior,"Phool Bagh, Gwalior - Mondelez Ind. Food",23-04-2024 18:00:00,26.210536,78.171,NO2,4,5,4
India,Madhya Pradesh,Indore,"Maguda Nagar, Indore - IMC",23-04-2024 18:00:00,22.7524,75.8872,SO2,NA,NA,NA
India,Madhya Pradesh,Indore,"Maguda Nagar, Indore - IMC",23-04-2024 18:00:00,22.7524,75.8872,OZONE,NA,NA,NA
India,Madhya Pradesh,Indore,"Regional Park, Indore - IMC",23-04-2024 18:00:00,22.6780,75.8559,CO,22,28,24
India,Madhya Pradesh,Indore,"Residency Area, Indore - IMC",23-04-2024 18:00:00,22.7084,75.8815,SO2,24,31,27
India,Madhya Pradesh,Indore,"Residency Area, Indore - IMC",23-04-2024 18:00:00,22.7084,75.8815,OZONE,9,19,17
India,Madhya Pradesh,Jabalpur,"Govindh Bhavan Colony, Jabalpur - JMC",23-04-2024 18:00:00,23.163174,79.973061,PM10,NA,NA,NA
India,Madhya Pradesh,Jabalpur,"Gupteshwar, Jabalpur - JMC",23-04-2024 18:00:00,23.142888,79.916147,PM10,32,65,45
India,Madhya Pradesh,Jabalpur,"Marhatal, Jabalpur - MPPCB",23-04-2024 18:00:00,23.168606,79.932247,PM2.5,26,56,37
India,Madhya Pradesh,Jabalpur,"Marhatal, Jabalpur - MPPCB",23-04-2024 18:00:00,23.168606,79.932247,NO2,6,36,18
India,Madhya Pradesh,Jabalpur,"Marhatal, Jabalpur - MPPCB",23-04-2024 18:00:00,23.168606,79.932247,OZONE,57,87,82
India,Madhya Pradesh,Jabalpur,"Suhagi, Jabalpur - JMC",23-04-2024 18:00:00,23.218135,79.957770,PM10,30,76,52
India,Madhya Pradesh,Katni,"Gole Bazar, Katni - MPPCB",23-04-2024 18:00:00,23.50016,80.23284,NO2,28,72,41
India,Madhya Pradesh,Katni,"Gole Bazar, Katni - MPPCB",23-04-2024 18:00:00,23.50016,80.23284,NH3,2,8,6
India,Madhya Pradesh,Katni,"Gole Bazar, Katni - MPPCB",23-04-2024 18:00:00,23.50016,80.23284,SO2,9,108,44
India,Madhya Pradesh,Katni,"Gole Bazar, Katni - MPPCB",23-04-2024 18:00:00,23.50016,80.23284,OZONE,41,89,81
India,Madhya Pradesh,Maihar,"Sahilara, Maihar - KJS Cements",23-04-2024 18:00:00,24.2613009,80.7231783,PM2.5,1,56,30
India,Madhya Pradesh,Maihar,"Sahilara, Maihar - KJS Cements",23-04-2024 18:00:00,24.2613009,80.7231783,CO,58,66,61
India,Madhya Pradesh,Mandideep,"Sector-D Industrial Area, Mandideep - MPPCB",23-04-2024 18:00:00,23.108440,77.511428,NO2,8,31,17
India,Madhya Pradesh,Pithampur,"Sector-2 Industrial Area, Pithampur - MPPCB",23-04-2024 18:00:00,22.624758,75.675238,PM2.5,12,128,55
India,Madhya Pradesh,Pithampur,"Sector-2 Industrial Area, Pithampur - MPPCB",23-04-2024 18:00:00,22.624758,75.675238,PM10,76,149,113
India,Madhya Pradesh,Sagar,"Civil Lines, Sagar - MPPCB",23-04-2024 18:00:00,23.838586,78.759431,OZONE,49,92,83
India,Madhya Pradesh,Singrauli,"Suryakiran Bhawan NCL, Singrauli - MPPCB",23-04-2024 18:00:00,24.108970,82.645580,PM10,45,80,59
India,Madhya Pradesh,Ujjain,"Mahakaleshwar Temple, Ujjain - MPPCB",23-04-2024 18:00:00,23.182719 ,75.768218 ,OZONE,112,154,151
India,Maharashtra,Ahmednagar,"Tarakpur, Ahmednagar - MPCB",23-04-2024 18:00:00,19.10122,74.73339,NH3,4,7,5
India,Maharashtra,Akola,"Ramdaspeth, Akola - MPCB",23-04-2024 18:00:00,20.719516,77.000253,PM10,57,110,77
India,Maharashtra,Amravati,"Shivneri Colony, Amravati - MPCB",23-04-2024 18:00:00,20.9402359,77.7895248,PM10,53,106,70
India,Maharashtra,Amravati,"Shivneri Colony, Amravati - MPCB",23-04-2024 18:00:00,20.9402359,77.7895248,SO2,1,31,3
India,Maharashtra,Aurangabad,"MIDC Chilkalthana, Aurangabad - MPCB",23-04-2024 18:00:00,19.875620,75.387310,CO,4,70,48
India,Maharashtra,Aurangabad,"More Chowk Waluj, Aurangabad - MPCB",23-04-2024 18:00:00,19.8389439,75.244448,NH3,9,11,10
India,Maharashtra,Badlapur,"Katrap, Badlapur - MPCB",23-04-2024 18:00:00,19.16485,73.23409,PM2.5,40,86,58
India,Maharashtra,Badlapur,"Katrap, Badlapur - MPCB",23-04-2024 18:00:00,19.16485,73.23409,PM10,50,124,83
India,Maharashtra,Badlapur,"Katrap, Badlapur - MPCB",23-04-2024 18:00:00,19.16485,73.23409,NO2,10,47,21
India,Maharashtra,Boisar,"Khaira, Boisar - MPCB",23-04-2024 18:00:00,19.786089,72.757971,NH3,5,14,8
India,Maharashtra,Chandrapur,"Chauhan Colony, Chandrapur - MPCB",23-04-2024 18:00:00,19.962900,79.298714,PM10,NA,NA,NA
India,Maharashtra,Chandrapur,"MIDC Khutala, Chandrapur - MPCB",23-04-2024 18:00:00,19.9775302,79.2337086,PM2.5,NA,NA,NA
India,Maharashtra,Dhule,"Deopur, Dhule - MPCB",23-04-2024 18:00:00,20.918946,74.776388,OZONE,4,99,85
India,Maharashtra,Jalgaon,"Prabhat Colony, Jalgaon - MPCB",23-04-2024 18:00:00,21.001264,75.565602,NO2,10,125,45
India,Maharashtra,Jalna,"Old MIDC, Jalna - MPCB",23-04-2024 18:00:00,19.854616,75.905894,OZONE,13,113,68
India,Maharashtra,Kalyan,"Khadakpada, Kalyan - MPCB",23-04-2024 18:00:00,19.25292,73.142019,PM10,55,139,103
India,Maharashtra,Kalyan,"Khadakpada, Kalyan - MPCB",23-04-2024 18:00:00,19.25292,73.142019,NO2,27,35,30
India,Maharashtra,Kolhapur,"Shivaji University, Kolhapur - MPCB",23-04-2024 18:00:00,16.6870449,74.2505872,PM2.5,34,165,73
India,Maharashtra,Kolhapur,"Shivaji University, Kolhapur - MPCB",23-04-2024 18:00:00,16.6870449,74.2505872,PM10,78,146,110
India,Maharashtra,Kolhapur,"Shivaji University, Kolhapur - MPCB",23-04-2024 18:00:00,16.6870449,74.2505872,NH3,4,6,5
India,Maharashtra,Kolhapur,"Sinchan Bhavan, Kolhapur - MPCB",23-04-2024 18:00:00,16.7143745,74.2426398,NH3,7,8,8
India,Maharashtra,Mahad,"Kamble Tarf Birwadi, Mahad - MPCB",23-04-2024 18:00:00,18.1023399,73.4783687,SO2,3,106,35
India,Maharashtra,Mahad,"Kamble Tarf Birwadi, Mahad - MPCB",23-04-2024 18:00:00,18.1023399,73.4783687,OZONE,3,73,47
India,Maharashtra,Malegaon,"Mahesh Nagar, Malegaon - MPCB",23-04-2024 18:00:00,20.555712,74.529236,PM10,101,156,122
India,Maharashtra,Mira-Bhayandar,"Bhayandar West, Mira-Bhayandar - MPCB",23-04-2024 18:00:00,19.296481,72.840923,PM10,35,282,109
India,Maharashtra,Mumbai,"Bandra Kurla Complex, Mumbai - MPCB",23-04-2024 18:00:00,19.065931,72.862131,SO2,1,2,1
India,Maharashtra,Mumbai,"Bandra Kurla Complex, Mumbai - MPCB",23-04-2024 18:00:00,19.065931,72.862131,CO,18,36,29
India,Maharashtra,Mumbai,"Borivali East, Mumbai - IITM",23-04-2024 18:00:00,19.23241,72.86895,PM2.5,30,49,40
India,Maharashtra,Mumbai,"Borivali East, Mumbai - IITM",23-04-2024 18:00:00,19.23241,72.86895,NO2,16,75,52
India,Maharashtra,Mumbai,"Borivali East, Mumbai - MPCB",23-04-2024 18:00:00,19.2243333,72.8658113,PM2.5,12,41,27
India,Maharashtra,Mumbai,"Borivali East, Mumbai - MPCB",23-04-2024 18:00:00,19.2243333,72.8658113,SO2,6,11,8
India,Maharashtra,Mumbai,"Chhatrapati Shivaji Intl. Airport (T2), Mumbai - MPCB",23-04-2024 18:00:00,19.10078,72.87462,PM2.5,27,72,48
India,Maharashtra,Mumbai,"Chhatrapati Shivaji Intl. Airport (T2), Mumbai - MPCB",23-04-2024 18:00:00,19.10078,72.87462,PM10,48,129,89
India,Maharashtra,Mumbai,"Chhatrapati Shivaji Intl. Airport (T2), Mumbai - MPCB",23-04-2024 18:00:00,19.10078,72.87462,OZONE,3,7,6
India,Maharashtra,Mumbai,"Colaba, Mumbai - MPCB",23-04-2024 18:00:00,18.910000,72.820000,SO2,11,13,11
India,Maharashtra,Mumbai,"Colaba, Mumbai - MPCB",23-04-2024 18:00:00,18.910000,72.820000,OZONE,11,12,11
India,Maharashtra,Mumbai,"Ghatkopar, Mumbai - BMC",23-04-2024 18:00:00,19.083694,72.920967,NO2,1,31,22
India,Maharashtra,Mumbai,"Kandivali West, Mumbai - BMC",23-04-2024 18:00:00,19.215859,72.831718,PM10,17,33,24
India,Maharashtra,Mumbai,"Kandivali West, Mumbai - BMC",23-04-2024 18:00:00,19.215859,72.831718,OZONE,18,75,52
India,Maharashtra,Mumbai,"Kherwadi_Bandra East, Mumbai - MPCB",23-04-2024 18:00:00,19.0632143,72.8456324,PM10,39,107,74
India,Maharashtra,Mumbai,"Kherwadi_Bandra East, Mumbai - MPCB",23-04-2024 18:00:00,19.0632143,72.8456324,NH3,4,17,6
India,Maharashtra,Mumbai,"Kurla, Mumbai - MPCB",23-04-2024 18:00:00,19.0863,72.8888,CO,8,18,11
India,Maharashtra,Mumbai,"Kurla, Mumbai - MPCB",23-04-2024 18:00:00,19.0863,72.8888,OZONE,29,41,35
India,Maharashtra,Mumbai,"Mazgaon, Mumbai - IITM",23-04-2024 18:00:00,18.96702,72.84214,PM10,45,195,123
India,Maharashtra,Mumbai,"Mindspace-Malad West, Mumbai - MPCB",23-04-2024 18:00:00,19.1878657,72.8304069,CO,10,21,13
India,Maharashtra,Mumbai,"Mulund West, Mumbai - MPCB",23-04-2024 18:00:00,19.1750,72.9419,CO,36,36,36
India,Maharashtra,Mumbai,"Navy Nagar-Colaba, Mumbai - IITM",23-04-2024 18:00:00,18.897756,72.813320,PM2.5,24,51,37
India,Maharashtra,Mumbai,"Navy Nagar-Colaba, Mumbai - IITM",23-04-2024 18:00:00,18.897756,72.813320,CO,12,40,30
India,Maharashtra,Mumbai,"Powai, Mumbai - MPCB",23-04-2024 18:00:00,19.137500,72.915056,CO,28,37,33
India,Maharashtra,Mumbai,"Powai, Mumbai - MPCB",23-04-2024 18:00:00,19.137500,72.915056,OZONE,33,82,60
India,Maharashtra,Mumbai,"Sewri, Mumbai - BMC",23-04-2024 18:00:00,19.000084,72.856730,PM2.5,26,74,51
India,Maharashtra,Mumbai,"Sewri, Mumbai - BMC",23-04-2024 18:00:00,19.000084,72.856730,NO2,22,59,34
India,Maharashtra,Mumbai,"Sewri, Mumbai - BMC",23-04-2024 18:00:00,19.000084,72.856730,SO2,3,8,6
India,Maharashtra,Mumbai,"Shivaji Nagar, Mumbai - BMC",23-04-2024 18:00:00,19.060498,72.923356,SO2,NA,NA,NA
India,Maharashtra,Mumbai,"Shivaji Nagar, Mumbai - BMC",23-04-2024 18:00:00,19.060498,72.923356,CO,22,40,28
India,Maharashtra,Mumbai,"Sion, Mumbai - MPCB",23-04-2024 18:00:00,19.047000,72.874600,PM2.5,20,53,39
India,Maharashtra,Mumbai,"Vasai West, Mumbai - MPCB",23-04-2024 18:00:00,19.383200,72.820400,PM2.5,22,103,42
India,Maharashtra,Mumbai,"Vasai West, Mumbai - MPCB",23-04-2024 18:00:00,19.383200,72.820400,SO2,16,16,16
India,Maharashtra,Mumbai,"Vile Parle West, Mumbai - MPCB",23-04-2024 18:00:00,19.10861,72.83622,PM2.5,17,57,36
India,Maharashtra,Mumbai,"Vile Parle West, Mumbai - MPCB",23-04-2024 18:00:00,19.10861,72.83622,PM10,49,107,82
India,Maharashtra,Mumbai,"Vile Parle West, Mumbai - MPCB",23-04-2024 18:00:00,19.10861,72.83622,NH3,11,11,11
India,Maharashtra,Mumbai,"Vile Parle West, Mumbai - MPCB",23-04-2024 18:00:00,19.10861,72.83622,CO,2,2,2
India,Maharashtra,Mumbai,"Vile Parle West, Mumbai - MPCB",23-04-2024 18:00:00,19.10861,72.83622,OZONE,3,3,3
India,Maharashtra,Nagpur,"Ambazari, Nagpur - MPCB",23-04-2024 18:00:00,21.121801,79.04952,PM2.5,37,74,58
India,Maharashtra,Nagpur,"Ambazari, Nagpur - MPCB",23-04-2024 18:00:00,21.121801,79.04952,NH3,2,6,3
India,Maharashtra,Nagpur,"Opp GPO Civil Lines, Nagpur - MPCB",23-04-2024 18:00:00,21.152875,79.0517531,OZONE,3,80,66
India,Maharashtra,Nanded,"Sneh Nagar, Nanded - MPCB",23-04-2024 18:00:00,19.173852,77.296291,OZONE,37,115,98
India,Maharashtra,Nashik,"Gangapur Road, Nashik - MPCB",23-04-2024 18:00:00,20.0073285,73.7762427,NO2,10,18,15
India,Maharashtra,Nashik,"Hirawadi, Nashik - MPCB",23-04-2024 18:00:00,20.021503,73.813844,PM10,59,69,66
India,Maharashtra,Nashik,"MIDC Ambad, Nashik - MPCB",23-04-2024 18:00:00,19.950220,73.731480,NO2,8,43,18
India,Maharashtra,Nashik,"Pandav Nagari, Nashik - MPCB",23-04-2024 18:00:00,19.9591346,73.7788008,OZONE,8,69,52
India,Maharashtra,Navi Mumbai,"Mahape, Navi Mumbai - MPCB",23-04-2024 18:00:00,19.1135051,73.008978,CO,102,112,106
India,Maharashtra,Navi Mumbai,"Nerul, Navi Mumbai - MPCB",23-04-2024 18:00:00,19.008751,73.016620,PM10,47,176,113
India,Maharashtra,Navi Mumbai,"Sanpada, Navi Mumbai - MPCB",23-04-2024 18:00:00,19.0575752,73.0151367,CO,4,22,10
India,Maharashtra,Navi Mumbai,"Sector-19A Nerul, Navi Mumbai - IITM",23-04-2024 18:00:00,19.044,73.0325,PM2.5,22,86,60
India,Maharashtra,Navi Mumbai,"Sector-19A Nerul, Navi Mumbai - IITM",23-04-2024 18:00:00,19.044,73.0325,PM10,27,103,72
India,Maharashtra,Navi Mumbai,"Sector-19A Nerul, Navi Mumbai - IITM",23-04-2024 18:00:00,19.044,73.0325,NO2,20,92,50
India,Maharashtra,Navi Mumbai,"Sector-19A Nerul, Navi Mumbai - IITM",23-04-2024 18:00:00,19.044,73.0325,NH3,5,8,7
India,Maharashtra,Navi Mumbai,"Sector-2E Kalamboli, Navi Mumbai - MPCB",23-04-2024 18:00:00,19.02579,73.10297,PM10,47,192,100
India,Maharashtra,Navi Mumbai,"Tondare-Taloja, Navi Mumbai - MPCB",23-04-2024 18:00:00,19.0630,73.1209,PM10,67,153,99
India,Maharashtra,Pimpri-Chinchwad,"Gavalinagar, Pimpri Chinchwad - MPCB",23-04-2024 18:00:00,18.63673,73.82487,NH3,1,12,4
India,Maharashtra,Pune,"Karve Road, Pune - MPCB",23-04-2024 18:00:00,18.5011743,73.8165527,OZONE,44,160,88
India,Maharashtra,Pune,"Katraj Dairy, Pune - MPCB",23-04-2024 18:00:00,18.454450,73.854155,SO2,1,3,2
India,Maharashtra,Pune,"Mhada Colony, Pune - IITM",23-04-2024 18:00:00,18.573040,73.927715,PM2.5,26,96,55
India,Maharashtra,Pune,"Revenue Colony-Shivajinagar, Pune - IITM",23-04-2024 18:00:00,18.530085,73.849598,NH3,7,15,10
India,Maharashtra,Pune,"Transport Nagar-Nigdi, Pune - IITM",23-04-2024 18:00:00,18.664282,73.763966,OZONE,5,73,51
India,Maharashtra,Sangli,"Vijay Nagar, Sangli - MPCB",23-04-2024 18:00:00, 16.5038,74.3623,NO2,9,38,23
India,Maharashtra,Solapur,"Dnyaneshwar Nagar, Solapur - MPCB",23-04-2024 18:00:00,17.6336264,75.9132495,PM10,65,108,79
India,Maharashtra,Solapur,"Dnyaneshwar Nagar, Solapur - MPCB",23-04-2024 18:00:00,17.6336264,75.9132495,SO2,2,8,3
India,Maharashtra,Solapur,"Dnyaneshwar Nagar, Solapur - MPCB",23-04-2024 18:00:00,17.6336264,75.9132495,OZONE,23,88,67
India,Maharashtra,Solapur,"Ratandeep Housing Society, Solapur - MPCB",23-04-2024 18:00:00,17.65439,75.90649,CO,16,44,23
India,Maharashtra,Thane,"Kasarvadavali, Thane - MPCB",23-04-2024 18:00:00,19.26777,72.97182,OZONE,24,90,77
India,Maharashtra,Thane,"Pimpleshwar Mandir, Thane - MPCB",23-04-2024 18:00:00,19.192056,72.9585188,OZONE,1,66,45
India,Maharashtra,Thane,"Upvan Fort, Thane - MPCB",23-04-2024 18:00:00,19.222279,72.957979,NO2,8,45,18
India,Maharashtra,Thane,"Upvan Fort, Thane - MPCB",23-04-2024 18:00:00,19.222279,72.957979,SO2,8,26,13
India,Maharashtra,Ulhasnagar,"Sidhi Vinayak Nagar, Ulhasnagar - MPCB",23-04-2024 18:00:00,19.235581,73.159121,SO2,12,61,26
India,Maharashtra,Virar,"Bolinj, Virar - MPCB",23-04-2024 18:00:00,19.4458210,72.7988231,NO2,7,47,14
India,Maharashtra,Virar,"Bolinj, Virar - MPCB",23-04-2024 18:00:00,19.4458210,72.7988231,SO2,6,18,9
India,Manipur,Imphal,"DM College of Science, Imphal - Manipur PCB",23-04-2024 18:00:00,24.8207389,93.9423085,PM10,21,67,37
India,Manipur,Imphal,"DM College of Science, Imphal - Manipur PCB",23-04-2024 18:00:00,24.8207389,93.9423085,NO2,7,8,7
India,Manipur,Imphal,"Manipur University, Imphal - Manipur PCB",23-04-2024 18:00:00,24.7524239,93.9286218,CO,9,22,10
India,Meghalaya,Shillong,"Lumpyngngad, Shillong - Meghalaya PCB",23-04-2024 18:00:00,25.5586,91.8985,PM10,44,135,73
India,Meghalaya,Shillong,"Lumpyngngad, Shillong - Meghalaya PCB",23-04-2024 18:00:00,25.5586,91.8985,NO2,1,2,1
India,Meghalaya,Shillong,"Lumpyngngad, Shillong - Meghalaya PCB",23-04-2024 18:00:00,25.5586,91.8985,SO2,40,50,43
India,Mizoram,Aizawl,"Sikulpuikawn, Aizawl - Mizoram PCB",23-04-2024 18:00:00,23.7176342,92.7192841,NH3,NA,NA,NA
India,Nagaland,Kohima,"PWD Juction, Kohima - NPCB",23-04-2024 18:00:00,25.6635413,94.0989878,NO2,3,9,4
India,Nagaland,Kohima,"PWD Juction, Kohima - NPCB",23-04-2024 18:00:00,25.6635413,94.0989878,SO2,32,38,34
India,Odisha,Angul,"Hakimapada, Angul - OSPCB",23-04-2024 18:00:00,20.832874,85.104082,PM10,37,306,114
India,Odisha,Angul,"Hakimapada, Angul - OSPCB",23-04-2024 18:00:00,20.832874,85.104082,SO2,8,117,45
India,Odisha,Angul,"Hakimapada, Angul - OSPCB",23-04-2024 18:00:00,20.832874,85.104082,CO,8,117,62
India,Odisha,Balasore,"Kalidaspur, Balasore - OSPCB",23-04-2024 18:00:00,21.51161,86.89088,OZONE,4,138,125
India,Odisha,Barbil,"Forest Office, Barbil - OSPCB",23-04-2024 18:00:00,22.1166054,85.3945546,SO2,8,74,20
India,Odisha,Barbil,"Forest Office, Barbil - OSPCB",23-04-2024 18:00:00,22.1166054,85.3945546,CO,15,56,29
India,Odisha,Baripada,"Meher Colony, Baripada - OSPCB",23-04-2024 18:00:00,21.941841,86.728318,NH3,1,7,4
India,Odisha,Baripada,"Meher Colony, Baripada - OSPCB",23-04-2024 18:00:00,21.941841,86.728318,CO,30,80,60
India,Odisha,Bhubaneswar,"Lingraj Mandir, Bhubaneswar - OSPCB",23-04-2024 18:00:00,20.240790,85.836784,NH3,2,4,2
India,Odisha,Bhubaneswar,"Patia, Bhubaneswar - OSPCB",23-04-2024 18:00:00,20.34652,85.81630,PM10,55,113,80
India,Odisha,Bhubaneswar,"Patia, Bhubaneswar - OSPCB",23-04-2024 18:00:00,20.34652,85.81630,OZONE,49,262,176
India,Odisha,Bileipada,"Tata Township, Bileipada - OSPCB",23-04-2024 18:00:00,22.06156703,85.47409613,NH3,11,11,11
India,Odisha,Bileipada,"Tata Township, Bileipada - OSPCB",23-04-2024 18:00:00,22.06156703,85.47409613,OZONE,33,38,37
India,Odisha,Brajrajnagar,"GM Office, Brajrajnagar - OSPCB",23-04-2024 18:00:00,21.8004996,83.8396977,NO2,15,20,16
India,Odisha,Byasanagar,"Ferro Chrome Colony, Byasanagar - OSPCB",23-04-2024 18:00:00,20.94185,86.11510,NO2,15,58,22
India,Odisha,Byasanagar,"Ferro Chrome Colony, Byasanagar - OSPCB",23-04-2024 18:00:00,20.94185,86.11510,OZONE,35,237,160
India,Odisha,Cuttack,"CDA Area, Cuttack - OSPCB",23-04-2024 18:00:00,20.48891     ,85.84768     ,NH3,1,2,2
India,Odisha,Keonjhar,"Jagamohanpur, Keonjhar - OSPCB",23-04-2024 18:00:00,21.643900,85.599355,NO2,9,56,26
India,Odisha,Keonjhar,"Jagamohanpur, Keonjhar - OSPCB",23-04-2024 18:00:00,21.643900,85.599355,SO2,5,26,8
India,Odisha,Nayagarh,"Dabuna, Nayagarh - OSPCB",23-04-2024 18:00:00,21.847279,85.416905,PM10,36,252,94
India,Odisha,Nayagarh,"Dabuna, Nayagarh - OSPCB",23-04-2024 18:00:00,21.847279,85.416905,NH3,5,5,5
India,Odisha,Rourkela,"Fertilizer Township, Rourkela - OSPCB",23-04-2024 18:00:00,22.18972222,84.86277778,PM10,39,106,73
India,Odisha,Rourkela,"Fertilizer Township, Rourkela - OSPCB",23-04-2024 18:00:00,22.18972222,84.86277778,SO2,12,14,13
India,Odisha,Rourkela,"Raghunathpali, Rourkela - OSPCB",23-04-2024 18:00:00,22.220833,84.809444,SO2,7,8,7
India,Odisha,Rourkela,"Sector-2, Rourkela - OSPCB",23-04-2024 18:00:00,22.24500000,84.88111111,PM10,51,98,77
India,Odisha,Rourkela,"Sector-2, Rourkela - OSPCB",23-04-2024 18:00:00,22.24500000,84.88111111,CO,12,29,15
India,Puducherry,Puducherry,"Jawahar Nagar, Puducherry - PPCC",23-04-2024 18:00:00,11.9309,79.8027,PM10,6,34,18
India,Puducherry,Puducherry,"Jawahar Nagar, Puducherry - PPCC",23-04-2024 18:00:00,11.9309,79.8027,NO2,1,15,6
India,Puducherry,Puducherry,"Jawahar Nagar, Puducherry - PPCC",23-04-2024 18:00:00,11.9309,79.8027,SO2,2,10,7
India,Punjab,Amritsar,"Golden Temple, Amritsar - PPCB",23-04-2024 18:00:00,31.620000,74.876512,SO2,8,23,18
India,Punjab,Amritsar,"Golden Temple, Amritsar - PPCB",23-04-2024 18:00:00,31.620000,74.876512,CO,6,48,32
India,Punjab,Bathinda,"Hardev Nagar, Bathinda - PPCB",23-04-2024 18:00:00,30.233011,74.907758,PM10,51,223,113
India,Punjab,Bathinda,"Hardev Nagar, Bathinda - PPCB",23-04-2024 18:00:00,30.233011,74.907758,SO2,2,22,13
India,Punjab,Khanna,"Kalal Majra, Khanna - PPCB",23-04-2024 18:00:00,30.736056 ,76.209694,PM10,69,107,88
India,Punjab,Ludhiana,"Punjab Agricultural University, Ludhiana - PPCB",23-04-2024 18:00:00,30.9028,75.8086,SO2,6,39,17
India,Punjab,Mandi Gobindgarh,"RIMT University, Mandi Gobindgarh - PPCB",23-04-2024 18:00:00,30.649961,76.331442,NO2,33,33,33
India,Punjab,Mandi Gobindgarh,"RIMT University, Mandi Gobindgarh - PPCB",23-04-2024 18:00:00,30.649961,76.331442,CO,9,38,28
India,Punjab,Patiala,"Model Town, Patiala - PPCB",23-04-2024 18:00:00,30.349388,76.366642,SO2,7,37,21
India,Rajasthan,Ajmer,"Civil Lines,  Ajmer - RSPCB",23-04-2024 18:00:00,26.470859,74.646594,PM10,51,117,76
India,Rajasthan,Ajmer,"Civil Lines,  Ajmer - RSPCB",23-04-2024 18:00:00,26.470859,74.646594,NO2,11,18,15
India,Rajasthan,Ajmer,"Civil Lines,  Ajmer - RSPCB",23-04-2024 18:00:00,26.470859,74.646594,NH3,8,12,10
India,Rajasthan,Ajmer,"Civil Lines,  Ajmer - RSPCB",23-04-2024 18:00:00,26.470859,74.646594,CO,5,56,41
India,Rajasthan,Alwar,"Moti Doongri, Alwar - RSPCB",23-04-2024 18:00:00,27.554793,76.611536,PM2.5,33,57,45
India,Rajasthan,Alwar,"Moti Doongri, Alwar - RSPCB",23-04-2024 18:00:00,27.554793,76.611536,NH3,4,7,5
India,Rajasthan,Alwar,"Moti Doongri, Alwar - RSPCB",23-04-2024 18:00:00,27.554793,76.611536,CO,25,85,41
India,Rajasthan,Banswara,"Rati Talai, Banswara - RSPCB",23-04-2024 18:00:00,23.555190,74.440010,NH3,2,3,3
India,Rajasthan,Banswara,"Rati Talai, Banswara - RSPCB",23-04-2024 18:00:00,23.555190,74.440010,CO,12,54,24
India,Rajasthan,Baran,"Bamboliya, Baran - RSPCB",23-04-2024 18:00:00,25.106006,76.469948,PM2.5,11,203,54
India,Rajasthan,Baran,"Bamboliya, Baran - RSPCB",23-04-2024 18:00:00,25.106006,76.469948,CO,14,68,18
India,Rajasthan,Barmer,"Railway Colony, Barmer - RSPCB",23-04-2024 18:00:00,25.747299,71.393989,PM2.5,10,34,24
India,Rajasthan,Barmer,"Railway Colony, Barmer - RSPCB",23-04-2024 18:00:00,25.747299,71.393989,SO2,3,14,7
India,Rajasthan,Barmer,"Railway Colony, Barmer - RSPCB",23-04-2024 18:00:00,25.747299,71.393989,OZONE,57,119,108
India,Rajasthan,Bharatpur,"Krishna Nagar, Bharatpur - RSPCB",23-04-2024 18:00:00,27.215415,77.50873,NO2,9,177,37
India,Rajasthan,Bharatpur,"Krishna Nagar, Bharatpur - RSPCB",23-04-2024 18:00:00,27.215415,77.50873,SO2,1,13,10
India,Rajasthan,Bharatpur,"Krishna Nagar, Bharatpur - RSPCB",23-04-2024 18:00:00,27.215415,77.50873,CO,2,137,10
India,Rajasthan,Bhilwara,"Pratap Nagar, Bhilwara - RSPCB",23-04-2024 18:00:00,25.339605,74.618883,PM10,22,74,42
India,Rajasthan,Bhiwadi,"RIICO Ind. Area III, Bhiwadi - RSPCB",23-04-2024 18:00:00,28.194909,76.862296,NH3,3,17,9
India,Rajasthan,Bhiwadi,"RIICO Ind. Area III, Bhiwadi - RSPCB",23-04-2024 18:00:00,28.194909,76.862296,OZONE,4,89,62
India,Rajasthan,Bikaner,"MM Ground, Bikaner - RSPCB",23-04-2024 18:00:00,28.018792,73.292658,SO2,1,12,5
India,Rajasthan,Bundi,"New Colony, Bundi - RSPCB",23-04-2024 18:00:00,25.435774,75.644272,PM10,47,188,94
India,Rajasthan,Chittorgarh,"Shastri Nagar, Chittorgarh - RSPCB",23-04-2024 18:00:00,24.892047,74.623527,NH3,3,12,10
India,Rajasthan,Chittorgarh,"Shastri Nagar, Chittorgarh - RSPCB",23-04-2024 18:00:00,24.892047,74.623527,OZONE,11,129,108
India,Rajasthan,Churu,"Subash Chowk, Churu - RSPCB",23-04-2024 18:00:00,28.296139,74.961696,PM2.5,18,64,41
India,Rajasthan,Churu,"Subash Chowk, Churu - RSPCB",23-04-2024 18:00:00,28.296139,74.961696,NH3,13,20,16
India,Rajasthan,Dholpur,"Raja Ganj, Dholpur - RSPCB",23-04-2024 18:00:00,26.699557,77.898881,OZONE,21,89,67
India,Rajasthan,Dungarpur,"Bhoiwada, Dungarpur - RSPCB",23-04-2024 18:00:00,23.837789,73.714926,SO2,4,9,6
India,Rajasthan,Dungarpur,"Bhoiwada, Dungarpur - RSPCB",23-04-2024 18:00:00,23.837789,73.714926,CO,9,199,85
India,Rajasthan,Hanumangarh,"Housing Board, Hanumangarh - RSPCB",23-04-2024 18:00:00,29.610750,74.283608,PM10,46,355,148
India,Rajasthan,Jaipur,"Adarsh Nagar, Jaipur - RSPCB",23-04-2024 18:00:00,26.902909,75.836858,NO2,27,71,42
India,Rajasthan,Jaipur,"Adarsh Nagar, Jaipur - RSPCB",23-04-2024 18:00:00,26.902909,75.836858,OZONE,23,44,42
India,Rajasthan,Jaipur,"Mansarovar Sector-12, Jaipur - RSPCB",23-04-2024 18:00:00,26.843698,75.766894,NO2,16,94,30
India,Rajasthan,Jaipur,"Police Commissionerate, Jaipur - RSPCB",23-04-2024 18:00:00,26.9164092,75.7994901,NH3,6,8,7
India,Rajasthan,Jaipur,"Police Commissionerate, Jaipur - RSPCB",23-04-2024 18:00:00,26.9164092,75.7994901,SO2,5,80,27
India,Rajasthan,Jaipur,"RIICO Sitapura, Jaipur - RSPCB",23-04-2024 18:00:00,26.786682,75.827928,PM2.5,13,323,63
India,Rajasthan,Jaipur,"RIICO Sitapura, Jaipur - RSPCB",23-04-2024 18:00:00,26.786682,75.827928,NO2,20,210,56
India,Rajasthan,Jaipur,"RIICO Sitapura, Jaipur - RSPCB",23-04-2024 18:00:00,26.786682,75.827928,SO2,10,26,14
India,Rajasthan,Jaipur,"Sector-2 Murlipura, Jaipur - RSPCB",23-04-2024 18:00:00,26.960669,75.771817,PM2.5,24,58,37
India,Rajasthan,Jaipur,"Sector-2 Murlipura, Jaipur - RSPCB",23-04-2024 18:00:00,26.960669,75.771817,NO2,21,69,40
India,Rajasthan,Jaipur,"Shastri Nagar, Jaipur - RSPCB",23-04-2024 18:00:00,26.9502929,75.730943,NO2,27,74,48
India,Rajasthan,Jaipur,"Shastri Nagar, Jaipur - RSPCB",23-04-2024 18:00:00,26.9502929,75.730943,SO2,6,32,18
India,Rajasthan,Jaisalmer,"Sadar Bazar, Jaisalmer - RSPCB",23-04-2024 18:00:00,26.912329,70.909168,NO2,18,82,33
India,Rajasthan,Jhalawar,"Rajlaxmi Nagar, Jhalawar - RSPCB",23-04-2024 18:00:00,24.588397,76.172782,NH3,2,3,2
India,Rajasthan,Jhalawar,"Rajlaxmi Nagar, Jhalawar - RSPCB",23-04-2024 18:00:00,24.588397,76.172782,SO2,2,12,6
India,Rajasthan,Jhunjhunu,"Indra Nagar, Jhunjhunu - RSPCB",23-04-2024 18:00:00,28.108988,75.386577,PM2.5,14,72,39
India,Rajasthan,Jhunjhunu,"Indra Nagar, Jhunjhunu - RSPCB",23-04-2024 18:00:00,28.108988,75.386577,SO2,1,10,3
India,Rajasthan,Jodhpur,"Collectorate, Jodhpur - RSPCB",23-04-2024 18:00:00,26.268249,73.0193853,OZONE,4,156,129
India,Rajasthan,Jodhpur,"Digari Kalan, Jodhpur - RSPCB",23-04-2024 18:00:00,26.295810,73.082283,CO,12,56,16
India,Rajasthan,Jodhpur,"Jhalamand, Jodhpur - RSPCB",23-04-2024 18:00:00,26.215415,73.070156,NO2,4,102,30
India,Rajasthan,Jodhpur,"Jhalamand, Jodhpur - RSPCB",23-04-2024 18:00:00,26.215415,73.070156,OZONE,23,104,96
India,Rajasthan,Karauli,"Satyawati Vihar, Karauli - RSPCB",23-04-2024 18:00:00,26.506177,77.025989,CO,8,28,18
India,Rajasthan,Kota,"Dhanmandi, Kota - RSPCB",23-04-2024 18:00:00,25.164090,75.858137,PM10,44,233,91
India,Rajasthan,Kota,"Dhanmandi, Kota - RSPCB",23-04-2024 18:00:00,25.164090,75.858137,NO2,13,144,42
India,Rajasthan,Kota,"Dhanmandi, Kota - RSPCB",23-04-2024 18:00:00,25.164090,75.858137,CO,12,121,18
India,Rajasthan,Kota,"Nayapura, Kota - RSPCB",23-04-2024 18:00:00,25.196024,75.855668,NO2,10,119,40
India,Rajasthan,Kota,"Shrinath Puram, Kota - RSPCB",23-04-2024 18:00:00,25.14389,75.821256,CO,12,59,21
India,Rajasthan,Nagaur,"Karni Colony, Nagaur - RSPCB",23-04-2024 18:00:00,27.213494,73.734444,CO,14,34,19
India,Rajasthan,Pali,"Indira Colony Vistar, Pali - RSPCB",23-04-2024 18:00:00,25.771061, 73.340227,OZONE,27,71,63
India,Rajasthan,Pratapgarh,"Pragati Nagar, Pratapgarh - RSPCB",23-04-2024 18:00:00,24.041198,74.780702,PM2.5,16,59,29
India,Rajasthan,Rajsamand,"Dhoinda, Rajsamand - RSPCB",23-04-2024 18:00:00,25.036360,73.883502,SO2,1,2,2
India,Rajasthan,Sawai Madhopur,"Sahu Nagar, Sawai Madhopur - RSPCB",23-04-2024 18:00:00,26.031443,76.359327,PM10,47,325,112
India,Rajasthan,Sawai Madhopur,"Sahu Nagar, Sawai Madhopur - RSPCB",23-04-2024 18:00:00,26.031443,76.359327,CO,4,106,46
India,Rajasthan,Sikar,"Radhakishan Pura, Sikar - RSPCB",23-04-2024 18:00:00,27.608912,75.153302,OZONE,3,157,137
India,Rajasthan,Sirohi,"Vedhaynath Colony, Sirohi - RSPCB",23-04-2024 18:00:00,24.885261,72.857549,PM2.5,12,51,25
India,Rajasthan,Sirohi,"Vedhaynath Colony, Sirohi - RSPCB",23-04-2024 18:00:00,24.885261,72.857549,NH3,2,4,3
India,Rajasthan,Sirohi,"Vedhaynath Colony, Sirohi - RSPCB",23-04-2024 18:00:00,24.885261,72.857549,CO,14,38,17
India,Rajasthan,Sri Ganganagar,"Old City, Sri Ganganagar - RSPCB",23-04-2024 18:00:00,29.931624,73.864511,NO2,19,103,63
India,Rajasthan,Tonk,"Shastri Nagar, Tonk - RSPCB",23-04-2024 18:00:00,26.159933,75.780517,NO2,9,69,25
India,Rajasthan,Tonk,"Shastri Nagar, Tonk - RSPCB",23-04-2024 18:00:00,26.159933,75.780517,NH3,2,19,7
India,TamilNadu,Ariyalur,"Keelapalur, Ariyalur - TNPCB",23-04-2024 18:00:00,11.06825,79.07033,PM2.5,21,43,31
India,TamilNadu,Ariyalur,"Keelapalur, Ariyalur - TNPCB",23-04-2024 18:00:00,11.06825,79.07033,PM10,20,40,28
India,TamilNadu,Chengalpattu,"Crescent University, Chengalpattu - TNPCB",23-04-2024 18:00:00,12.8777316,80.0834807,PM2.5,NA,NA,NA
India,TamilNadu,Chengalpattu,"Crescent University, Chengalpattu - TNPCB",23-04-2024 18:00:00,12.8777316,80.0834807,PM10,NA,NA,NA
India,TamilNadu,Chennai,"Alandur Bus Depot, Chennai - CPCB",23-04-2024 18:00:00,12.9099161,80.1076538,NO2,11,28,19
India,TamilNadu,Chennai,"Alandur Bus Depot, Chennai - CPCB",23-04-2024 18:00:00,12.9099161,80.1076538,CO,35,105,60
India,TamilNadu,Chennai,"Alandur Bus Depot, Chennai - CPCB",23-04-2024 18:00:00,12.9099161,80.1076538,OZONE,1,11,8
India,TamilNadu,Chennai,"Arumbakkam, Chennai - TNPCB",23-04-2024 18:00:00,13.0664,80.2112 ,PM10,12,55,32
India,TamilNadu,Chennai,"Kodungaiyur, Chennai - TNPCB",23-04-2024 18:00:00,13.1278,80.2642,PM2.5,3,19,12
India,TamilNadu,Chennai,"Kodungaiyur, Chennai - TNPCB",23-04-2024 18:00:00,13.1278,80.2642,PM10,3,47,26
India,TamilNadu,Chennai,"Manali, Chennai - CPCB",23-04-2024 18:00:00,13.164544,80.26285,NO2,8,10,9
India,TamilNadu,Chennai,"Manali, Chennai - CPCB",23-04-2024 18:00:00,13.164544,80.26285,SO2,3,8,5
India,TamilNadu,Chennai,"Perungudi, Chennai - TNPCB",23-04-2024 18:00:00,12.9533,80.2357,CO,4,110,45
India,TamilNadu,Chennai,"Velachery Res. Area, Chennai - CPCB",23-04-2024 18:00:00,13.0052189,80.2398125,PM2.5,16,48,26
India,TamilNadu,Chennai,"Velachery Res. Area, Chennai - CPCB",23-04-2024 18:00:00,13.0052189,80.2398125,NH3,7,15,11
India,TamilNadu,Cuddalore,"Semmandalam, Cuddalore - TNPCB",23-04-2024 18:00:00,11.7637683,79.7499835,PM2.5,NA,NA,NA
India,TamilNadu,Cuddalore,"Semmandalam, Cuddalore - TNPCB",23-04-2024 18:00:00,11.7637683,79.7499835,NO2,NA,NA,NA
India,TamilNadu,Kanchipuram,"Kilambi, Kanchipuram - TNPCB",23-04-2024 18:00:00,12.864618,79.659968,OZONE,67,84,75
India,TamilNadu,Salem,"Sona College of Technology, Salem - TNPCB",23-04-2024 18:00:00,11.679111,78.125052,OZONE,4,5,4
India,TamilNadu,Tirupur,"Kumaran College, Tirupur - TNPCB",23-04-2024 18:00:00,11.0973603,77.3228673,PM2.5,7,29,19
India,TamilNadu,Tirupur,"Kumaran College, Tirupur - TNPCB",23-04-2024 18:00:00,11.0973603,77.3228673,NH3,NA,NA,NA
India,TamilNadu,Vellore,"Vasanthapuram, Vellore - TNPCB",23-04-2024 18:00:00,12.909494,79.131861,NH3,1,1,1
India,Telangana,Hyderabad,"Bollaram Industrial Area, Hyderabad - TSPCB",23-04-2024 18:00:00,17.540891,78.358528,SO2,7,24,17
India,Telangana,Hyderabad,"Central University, Hyderabad - TSPCB",23-04-2024 18:00:00,17.460103,78.334361,NO2,13,47,27
India,Telangana,Hyderabad,"IITH Kandi, Hyderabad - TSPCB",23-04-2024 18:00:00,17.585705,78.126199,NO2,NA,NA,NA
India,Telangana,Hyderabad,"IITH Kandi, Hyderabad - TSPCB",23-04-2024 18:00:00,17.585705,78.126199,SO2,NA,NA,NA
India,Telangana,Hyderabad,"Kokapet, Hyderabad - TSPCB",23-04-2024 18:00:00,17.393559,78.339194,PM2.5,NA,NA,NA
India,Telangana,Hyderabad,"Kokapet, Hyderabad - TSPCB",23-04-2024 18:00:00,17.393559,78.339194,PM10,NA,NA,NA
India,Telangana,Hyderabad,"Kompally Municipal Office, Hyderabad - TSPCB",23-04-2024 18:00:00,17.544899,78.486949,CO,14,26,17
India,Telangana,Hyderabad,"Nacharam_TSIIC IALA, Hyderabad - TSPCB",23-04-2024 18:00:00,17.429398,78.569354,SO2,NA,NA,NA
India,Telangana,Hyderabad,"Sanathnagar, Hyderabad - TSPCB",23-04-2024 18:00:00,17.4559458,78.4332152,PM2.5,39,78,56
India,Telangana,Hyderabad,"Sanathnagar, Hyderabad - TSPCB",23-04-2024 18:00:00,17.4559458,78.4332152,CO,30,40,35
India,Telangana,Hyderabad,"Sanathnagar, Hyderabad - TSPCB",23-04-2024 18:00:00,17.4559458,78.4332152,OZONE,10,17,15
India,Telangana,Hyderabad,"Somajiguda, Hyderabad - TSPCB",23-04-2024 18:00:00,17.417094,78.457437,PM2.5,35,66,47
India,Telangana,Hyderabad,"Somajiguda, Hyderabad - TSPCB",23-04-2024 18:00:00,17.417094,78.457437,NH3,6,8,7
India,Telangana,Hyderabad,"Zoo Park, Hyderabad - TSPCB",23-04-2024 18:00:00,17.349694,78.451437,SO2,1,5,3
India,Tripura,Agartala,"Bardowali, Agartala - Tripura SPCB",23-04-2024 18:00:00,23.8175497,91.2726974,PM10,79,138,111
India,Tripura,Agartala,"Bardowali, Agartala - Tripura SPCB",23-04-2024 18:00:00,23.8175497,91.2726974,NH3,1,2,2
India,Tripura,Agartala,"Bardowali, Agartala - Tripura SPCB",23-04-2024 18:00:00,23.8175497,91.2726974,SO2,30,31,30
India,Uttar_Pradesh,Agra,"Manoharpur, Agra - UPPCB",23-04-2024 18:00:00,27.23711,78.01936,NH3,2,2,2
India,Uttar_Pradesh,Agra,"Manoharpur, Agra - UPPCB",23-04-2024 18:00:00,27.23711,78.01936,SO2,13,24,17
India,Uttar_Pradesh,Agra,"Rohta, Agra - UPPCB",23-04-2024 18:00:00,27.106972,78.000111,SO2,2,25,8
India,Uttar_Pradesh,Agra,"Sector-3B Avas Vikas Colony, Agra - UPPCB",23-04-2024 18:00:00,27.19412,77.96237,PM10,28,160,51
India,Uttar_Pradesh,Agra,"Sector-3B Avas Vikas Colony, Agra - UPPCB",23-04-2024 18:00:00,27.19412,77.96237,CO,6,22,8
India,Uttar_Pradesh,Agra,"Shahjahan Garden, Agra - UPPCB",23-04-2024 18:00:00,27.169338,78.03582,OZONE,1,38,17
India,Uttar_Pradesh,Agra,"Shastripuram, Agra - UPPCB",23-04-2024 18:00:00,27.19862,77.92066,OZONE,1,14,10
India,Uttar_Pradesh,Baghpat,"Sardar Patel Inter College, Baghpat - UPPCB",23-04-2024 18:00:00,28.964949,77.278761,SO2,19,115,69
India,Uttar_Pradesh,Bareilly,"Civil Lines, Bareilly - UPPCB",23-04-2024 18:00:00,28.359581,79.414455,SO2,48,61,52
India,Uttar_Pradesh,Bareilly,"Rajendra Nagar, Bareilly - UPPCB",23-04-2024 18:00:00,28.38910936,79.42963708,PM10,37,95,67
India,Uttar_Pradesh,Bareilly,"Rajendra Nagar, Bareilly - UPPCB",23-04-2024 18:00:00,28.38910936,79.42963708,CO,2,54,6
India,Uttar_Pradesh,Bulandshahr,"Yamunapuram, Bulandshahr - UPPCB",23-04-2024 18:00:00,28.406963,77.849831,NO2,9,173,63
India,Uttar_Pradesh,Firozabad,"Vibhab Nagar, Firozabad - UPPCB",23-04-2024 18:00:00,27.1594,78.3953,PM2.5,30,90,55
India,Uttar_Pradesh,Firozabad,"Vibhab Nagar, Firozabad - UPPCB",23-04-2024 18:00:00,27.1594,78.3953,NO2,13,14,14
India,Uttar_Pradesh,Firozabad,"Vibhab Nagar, Firozabad - UPPCB",23-04-2024 18:00:00,27.1594,78.3953,SO2,14,65,32
India,Uttar_Pradesh,Ghaziabad,"Indirapuram, Ghaziabad - UPPCB",23-04-2024 18:00:00,28.646233,77.358075,PM2.5,25,194,98
India,Uttar_Pradesh,Ghaziabad,"Indirapuram, Ghaziabad - UPPCB",23-04-2024 18:00:00,28.646233,77.358075,SO2,5,24,16
India,Uttar_Pradesh,Ghaziabad,"Loni, Ghaziabad - UPPCB",23-04-2024 18:00:00,28.757294,77.278792,PM10,110,232,177
India,Uttar_Pradesh,Ghaziabad,"Sanjay Nagar, Ghaziabad - UPPCB",23-04-2024 18:00:00,28.685382,77.453839,SO2,16,61,33
India,Uttar_Pradesh,Ghaziabad,"Vasundhara, Ghaziabad - UPPCB",23-04-2024 18:00:00,28.6603346,77.3572563,NO2,20,142,80
India,Uttar_Pradesh,Ghaziabad,"Vasundhara, Ghaziabad - UPPCB",23-04-2024 18:00:00,28.6603346,77.3572563,OZONE,5,65,50
India,Uttar_Pradesh,Gorakhpur,"Madan Mohan Malaviya University of Technology, Gorakhpur - UPPCB",23-04-2024 18:00:00,26.730136,83.433859,NH3,1,1,1
India,Uttar_Pradesh,Gorakhpur,"Madan Mohan Malaviya University of Technology, Gorakhpur - UPPCB",23-04-2024 18:00:00,26.730136,83.433859,SO2,34,51,41
India,Uttar_Pradesh,Greater Noida,"Knowledge Park - III, Greater Noida - UPPCB",23-04-2024 18:00:00,28.47272,77.482000,SO2,6,33,18
India,Uttar_Pradesh,Hapur,"Anand Vihar, Hapur - UPPCB",23-04-2024 18:00:00,28.725645,77.749675,NO2,6,91,26
India,Uttar_Pradesh,Hapur,"Anand Vihar, Hapur - UPPCB",23-04-2024 18:00:00,28.725645,77.749675,CO,23,38,25
India,Uttar_Pradesh,Kanpur,"FTI Kidwai Nagar, Kanpur - UPPCB",23-04-2024 18:00:00,26.428282,80.327067,CO,28,54,33
India,Uttar_Pradesh,Kanpur,"NSI Kalyanpur, Kanpur - UPPCB",23-04-2024 18:00:00,26.509954,80.249612,SO2,19,43,23
India,Uttar_Pradesh,Kanpur,"Nehru Nagar, Kanpur - UPPCB",23-04-2024 18:00:00,26.4703136,80.3229863,NO2,20,35,28
India,Uttar_Pradesh,Kanpur,"Nehru Nagar, Kanpur - UPPCB",23-04-2024 18:00:00,26.4703136,80.3229863,CO,34,59,48
India,Uttar_Pradesh,Khurja,"Kalindi Kunj, Khurja - UPPCB",23-04-2024 18:00:00,28.2348927,77.8683002,OZONE,28,44,35
India,Uttar_Pradesh,Lucknow,"B R Ambedkar University, Lucknow - UPPCB",23-04-2024 18:00:00,26.766433,80.927299,PM2.5,47,104,75
India,Uttar_Pradesh,Lucknow,"Kendriya Vidyalaya, Lucknow - CPCB",23-04-2024 18:00:00,26.906111,80.948222,NO2,7,88,31
India,Uttar_Pradesh,Lucknow,"Kukrail Picnic Spot-1, Lucknow - UPPCB",23-04-2024 18:00:00,26.90723,80.98579,NO2,8,9,8
India,Uttar_Pradesh,Lucknow,"Kukrail Picnic Spot-1, Lucknow - UPPCB",23-04-2024 18:00:00,26.90723,80.98579,SO2,25,30,27
India,Uttar_Pradesh,Lucknow,"Lalbagh, Lucknow - CPCB",23-04-2024 18:00:00,26.8458805,80.9365541,PM10,75,403,141
India,Uttar_Pradesh,Lucknow,"Talkatora District Industries Center, Lucknow - CPCB",23-04-2024 18:00:00,26.83399722,80.8917361,PM2.5,92,308,174
India,Uttar_Pradesh,Meerut,"Ganga Nagar, Meerut - UPPCB",23-04-2024 18:00:00,28.999264,77.7590354,NH3,5,15,8
India,Uttar_Pradesh,Meerut,"Jai Bhim Nagar, Meerut - UPPCB",23-04-2024 18:00:00,28.9535882,77.7622941,NH3,7,15,10
India,Uttar_Pradesh,Meerut,"Pallavpuram Phase 2, Meerut - UPPCB",23-04-2024 18:00:00,29.063510,77.709723,NH3,9,14,11
India,Uttar_Pradesh,Moradabad,"Buddhi Vihar, Moradabad - UPPCB",23-04-2024 18:00:00,28.83526,78.74460,PM10,52,231,127
India,Uttar_Pradesh,Moradabad,"Eco Herbal Park, Moradabad - UPPCB",23-04-2024 18:00:00,28.840739,78.697531,NO2,11,72,40
India,Uttar_Pradesh,Moradabad,"Employment Office, Moradabad - UPPCB",23-04-2024 18:00:00,28.88528,78.73880,NO2,14,19,18
India,Uttar_Pradesh,Moradabad,"Jigar Colony, Moradabad - UPPCB",23-04-2024 18:00:00,28.856664,78.772638,PM2.5,21,196,60
India,Uttar_Pradesh,Moradabad,"Transport Nagar, Moradabad - UPPCB",23-04-2024 18:00:00,28.802625,78.753728,SO2,48,53,50
India,Uttar_Pradesh,Muzaffarnagar,"New Mandi, Muzaffarnagar - UPPCB",23-04-2024 18:00:00,29.4723508,77.7194031,OZONE,15,109,90
India,Uttar_Pradesh,Noida,"Sector-1, Noida - UPPCB",23-04-2024 18:00:00,28.5898,77.3101,NO2,35,143,88
India,Uttar_Pradesh,Noida,"Sector-1, Noida - UPPCB",23-04-2024 18:00:00,28.5898,77.3101,NH3,1,5,3
India,Uttar_Pradesh,Noida,"Sector-1, Noida - UPPCB",23-04-2024 18:00:00,28.5898,77.3101,CO,12,80,19
India,Uttar_Pradesh,Noida,"Sector-116, Noida - UPPCB",23-04-2024 18:00:00,28.569230,77.393848,SO2,28,45,38
India,Uttar_Pradesh,Prayagraj,"Motilal Nehru NIT, Prayagraj - UPPCB",23-04-2024 18:00:00,25.494,81.863,NO2,12,12,12
India,Uttar_Pradesh,Prayagraj,"Motilal Nehru NIT, Prayagraj - UPPCB",23-04-2024 18:00:00,25.494,81.863,SO2,26,50,32
India,Uttar_Pradesh,Prayagraj,"Nagar Nigam, Prayagraj - UPPCB",23-04-2024 18:00:00,25.44919916 ,81.82735986 ,PM10,35,500,107
India,Uttar_Pradesh,Varanasi,"Bhelupur, Varanasi - UPPCB",23-04-2024 18:00:00,25.301778,82.996789,NH3,1,2,1
India,Uttar_Pradesh,Varanasi,"Bhelupur, Varanasi - UPPCB",23-04-2024 18:00:00,25.301778,82.996789,CO,14,62,15
India,Uttar_Pradesh,Varanasi,"IESD Banaras Hindu University, Varanasi - UPPCB",23-04-2024 18:00:00,25.262326,82.995408,NH3,1,3,2
India,Uttar_Pradesh,Varanasi,"Maldahiya, Varanasi - UPPCB",23-04-2024 18:00:00,25.32393,82.99687,PM10,14,52,26
India,Uttar_Pradesh,Vrindavan,"Omex Eternity, Vrindavan - UPPCB",23-04-2024 18:00:00,27.5714090,77.6557570,PM2.5,11,43,21
India,Uttar_Pradesh,Vrindavan,"Omex Eternity, Vrindavan - UPPCB",23-04-2024 18:00:00,27.5714090,77.6557570,SO2,41,44,42
India,Uttar_Pradesh,Vrindavan,"Omex Eternity, Vrindavan - UPPCB",23-04-2024 18:00:00,27.5714090,77.6557570,OZONE,27,33,30
India,Uttarakhand,Dehradun,"Doon University, Dehradun - UKPCB",23-04-2024 18:00:00,30.269444,78.044167,OZONE,44,147,122
India,Uttarakhand,Kashipur,"Govt. Girls Inter College, Kashipur - UKPCB",23-04-2024 18:00:00,29.2124114,78.9611753,SO2,7,11,9
India,West_Bengal,Asansol,"Asansol Court Area, Asansol - WBPCB",23-04-2024 18:00:00,23.685297,86.945968,PM2.5,68,208,141
India,West_Bengal,Asansol,"Asansol Court Area, Asansol - WBPCB",23-04-2024 18:00:00,23.685297,86.945968,CO,32,66,50
India,West_Bengal,Asansol,"Asansol Court Area, Asansol - WBPCB",23-04-2024 18:00:00,23.685297,86.945968,OZONE,25,40,30
India,West_Bengal,Durgapur,"PCBL Residential Complex, Durgapur - WBPCB",23-04-2024 18:00:00,23.5087640,87.3544400,NO2,NA,NA,NA
India,West_Bengal,Durgapur,"PCBL Residential Complex, Durgapur - WBPCB",23-04-2024 18:00:00,23.5087640,87.3544400,CO,NA,NA,NA
India,West_Bengal,Durgapur,"Sidhu Kanhu Indoor Stadium, Durgapur - WBPCB",23-04-2024 18:00:00,23.5404352,87.2892225,PM2.5,51,212,101
India,West_Bengal,Durgapur,"Sidhu Kanhu Indoor Stadium, Durgapur - WBPCB",23-04-2024 18:00:00,23.5404352,87.2892225,PM10,67,197,115
India,West_Bengal,Durgapur,"Sidhu Kanhu Indoor Stadium, Durgapur - WBPCB",23-04-2024 18:00:00,23.5404352,87.2892225,NH3,4,6,5
India,West_Bengal,Durgapur,"Sidhu Kanhu Indoor Stadium, Durgapur - WBPCB",23-04-2024 18:00:00,23.5404352,87.2892225,OZONE,6,93,72
India,West_Bengal,Haldia,"Priyambada Housing Estate, Haldia - WBPCB",23-04-2024 18:00:00,22.06047,88.109737,SO2,4,67,35
India,West_Bengal,Haldia,"Priyambada Housing Estate, Haldia - WBPCB",23-04-2024 18:00:00,22.06047,88.109737,CO,22,43,23
India,West_Bengal,Howrah,"Belur Math, Howrah - WBPCB",23-04-2024 18:00:00,22.629801,88.352017,PM10,65,169,107
India,West_Bengal,Howrah,"Belur Math, Howrah - WBPCB",23-04-2024 18:00:00,22.629801,88.352017,OZONE,8,79,67
India,West_Bengal,Howrah,"Ghusuri, Howrah - WBPCB",23-04-2024 18:00:00,22.611968,88.347422,PM10,105,216,141
India,West_Bengal,Kolkata,"Ballygunge, Kolkata - WBPCB",23-04-2024 18:00:00,22.5367507,88.3638022,PM10,65,132,97
India,West_Bengal,Kolkata,"Bidhannagar, Kolkata - WBPCB",23-04-2024 18:00:00,22.58157048,88.41002457,PM10,53,132,87
India,West_Bengal,Kolkata,"Bidhannagar, Kolkata - WBPCB",23-04-2024 18:00:00,22.58157048,88.41002457,CO,28,76,31
India,West_Bengal,Kolkata,"Bidhannagar, Kolkata - WBPCB",23-04-2024 18:00:00,22.58157048,88.41002457,OZONE,9,114,97
India,West_Bengal,Kolkata,"Fort William, Kolkata - WBPCB",23-04-2024 18:00:00,22.556640,88.342674,PM2.5,60,183,93
India,West_Bengal,Kolkata,"Jadavpur, Kolkata - WBPCB",23-04-2024 18:00:00,22.49929,88.36917,NH3,NA,NA,NA
India,West_Bengal,Kolkata,"Jadavpur, Kolkata - WBPCB",23-04-2024 18:00:00,22.49929,88.36917,OZONE,38,38,38
India,West_Bengal,Kolkata,"Rabindra Bharati University, Kolkata - WBPCB",23-04-2024 18:00:00,22.627847,88.380669,PM2.5,48,171,79
India,West_Bengal,Kolkata,"Rabindra Bharati University, Kolkata - WBPCB",23-04-2024 18:00:00,22.627847,88.380669,CO,28,60,31
India,West_Bengal,Kolkata,"Rabindra Sarobar, Kolkata - WBPCB",23-04-2024 18:00:00,22.51106,88.35142,PM2.5,38,87,60
India,West_Bengal,Kolkata,"Victoria, Kolkata - WBPCB",23-04-2024 18:00:00,22.5448082,88.3403691,NO2,6,22,18
India,West_Bengal,Kolkata,"Victoria, Kolkata - WBPCB",23-04-2024 18:00:00,22.5448082,88.3403691,NH3,2,4,4
India,West_Bengal,Kolkata,"Victoria, Kolkata - WBPCB",23-04-2024 18:00:00,22.5448082,88.3403691,CO,69,110,71
India,Andhra_Pradesh,Amaravati,"Secretariat, Amaravati - APPCB",23-04-2024 18:00:00,16.5150833,80.5181667,SO2,6,31,15
India,Andhra_Pradesh,Anantapur,"Gulzarpet, Anantapur - APPCB",23-04-2024 18:00:00,14.675886,77.593027,SO2,3,24,10
India,Andhra_Pradesh,Anantapur,"Gulzarpet, Anantapur - APPCB",23-04-2024 18:00:00,14.675886,77.593027,CO,20,84,27
India,Andhra_Pradesh,Anantapur,"Gulzarpet, Anantapur - APPCB",23-04-2024 18:00:00,14.675886,77.593027,OZONE,61,62,62
India,Andhra_Pradesh,Chittoor,"Gangineni Cheruvu, Chittoor - APPCB",23-04-2024 18:00:00,13.204880,79.097889,PM10,NA,NA,NA
India,Andhra_Pradesh,Kadapa,"Yerramukkapalli, Kadapa - APPCB",23-04-2024 18:00:00,14.465052,78.824187,PM2.5,NA,NA,NA
India,Andhra_Pradesh,Rajamahendravaram,"Anand Kala Kshetram, Rajamahendravaram - APPCB",23-04-2024 18:00:00,16.9872867,81.7363176,OZONE,15,38,30
India,Andhra_Pradesh,Tirupati,"Tirumala, Tirupati - APPCB",23-04-2024 18:00:00,13.67,79.35,NO2,18,42,27
India,Andhra_Pradesh,Tirupati,"Tirumala, Tirupati - APPCB",23-04-2024 18:00:00,13.67,79.35,OZONE,14,69,59
India,Andhra_Pradesh,Tirupati,"Vaikuntapuram, Tirupati - APPCB",23-04-2024 18:00:00,13.615387,79.409230,SO2,NA,NA,NA
India,Andhra_Pradesh,Vijayawada,"HB Colony, Vijayawada - APPCB",23-04-2024 18:00:00,16.536107,80.594233,PM2.5,41,53,46
India,Andhra_Pradesh,Vijayawada,"HB Colony, Vijayawada - APPCB",23-04-2024 18:00:00,16.536107,80.594233,NO2,3,15,7
India,Andhra_Pradesh,Visakhapatnam,"GVM Corporation, Visakhapatnam - APPCB",23-04-2024 18:00:00,17.72,83.3,SO2,7,19,14
India,Andhra_Pradesh,Visakhapatnam,"GVM Corporation, Visakhapatnam - APPCB",23-04-2024 18:00:00,17.72,83.3,CO,5,88,23
India,Assam,Byrnihat,"Central Academy for SFS, Byrnihat - PCBA",23-04-2024 18:00:00,26.071318,91.87488,PM2.5,263,500,359
India,Assam,Byrnihat,"Central Academy for SFS, Byrnihat - PCBA",23-04-2024 18:00:00,26.071318,91.87488,NO2,42,88,57
India,Assam,Guwahati,"IITG, Guwahati - PCBA",23-04-2024 18:00:00,26.2028636,91.70046436,NO2,1,2,1
India,Assam,Guwahati,"IITG, Guwahati - PCBA",23-04-2024 18:00:00,26.2028636,91.70046436,CO,10,12,10
India,Assam,Guwahati,"LGBI Airport, Guwahati - PCBA",23-04-2024 18:00:00,26.10887,91.589544,NO2,26,71,54
India,Assam,Guwahati,"LGBI Airport, Guwahati - PCBA",23-04-2024 18:00:00,26.10887,91.589544,SO2,9,13,10
India,Assam,Guwahati,"Pan Bazaar, Guwahati - PCBA",23-04-2024 18:00:00,26.187500,91.744194,PM2.5,21,47,33
India,Assam,Guwahati,"Pan Bazaar, Guwahati - PCBA",23-04-2024 18:00:00,26.187500,91.744194,PM10,28,164,70
India,Assam,Guwahati,"Pan Bazaar, Guwahati - PCBA",23-04-2024 18:00:00,26.187500,91.744194,NH3,2,6,1
India,Assam,Guwahati,"Railway Colony, Guwahati - PCBA",23-04-2024 18:00:00,26.181742,91.78063,PM2.5,43,303,101
India,Assam,Guwahati,"Railway Colony, Guwahati - PCBA",23-04-2024 18:00:00,26.181742,91.78063,PM10,47,188,92
India,Assam,Nalbari,"Bata Chowk, Nalbari - PCBA",23-04-2024 18:00:00,26.446912,91.439057,PM10,52,218,120
India,Assam,Silchar,"Tarapur, Silchar - PCBA",23-04-2024 18:00:00,24.82827,92.79525,OZONE,1,34,12
India,Assam,Sivasagar,"Girls College, Sivasagar - PCBA",23-04-2024 18:00:00,26.987634,94.636574,CO,17,20,19
India,Bihar,Araria,"Kharahiya Basti, Araria - BSPCB",23-04-2024 18:00:00,26.146529,87.454184,NH3,6,7,6
India,Bihar,Araria,"Kharahiya Basti, Araria - BSPCB",23-04-2024 18:00:00,26.146529,87.454184,CO,16,31,25
India,Bihar,Arrah,"New DM Office, Arrah - BSPCB",23-04-2024 18:00:00,25.5626095,84.663264,NO2,2,31,12
India,Bihar,Arrah,"New DM Office, Arrah - BSPCB",23-04-2024 18:00:00,25.5626095,84.663264,OZONE,12,48,19
India,Bihar,Bettiah,"Kamalnath Nagar, Bettiah - BSPCB",23-04-2024 18:00:00,26.80365,84.51954,PM2.5,77,263,158
India,Bihar,Bettiah,"Kamalnath Nagar, Bettiah - BSPCB",23-04-2024 18:00:00,26.80365,84.51954,SO2,9,23,14
India,Bihar,Bhagalpur,"DM Office_Kachari Chowk, Bhagalpur - BSPCB",23-04-2024 18:00:00,25.251013,86.989001,PM2.5,23,107,57
India,Bihar,Bhagalpur,"DM Office_Kachari Chowk, Bhagalpur - BSPCB",23-04-2024 18:00:00,25.251013,86.989001,CO,32,84,55
India,Bihar,Bhagalpur,"Mayaganj, Bhagalpur - BSPCB",23-04-2024 18:00:00,25.265194,87.012947,NH3,8,10,9
India,Bihar,Bhagalpur,"Mayaganj, Bhagalpur - BSPCB",23-04-2024 18:00:00,25.265194,87.012947,OZONE,25,97,72
India,Bihar,Chhapra,"Darshan Nagar, Chhapra - BSPCB",23-04-2024 18:00:00,25.7808257,84.7446768,NO2,17,29,23
India,Bihar,Gaya,"Collectorate, Gaya - BSPCB",23-04-2024 18:00:00,24.7955,84.9994,NO2,2,4,3
India,Bihar,Gaya,"Kareemganj, Gaya - BSPCB",23-04-2024 18:00:00,24.792403,84.992416,PM10,14,96,47
India,Bihar,Gaya,"Kareemganj, Gaya - BSPCB",23-04-2024 18:00:00,24.792403,84.992416,NO2,30,31,30
India,Bihar,Gaya,"Kareemganj, Gaya - BSPCB",23-04-2024 18:00:00,24.792403,84.992416,OZONE,2,21,5
India,Bihar,Gaya,"SFTI Kusdihra, Gaya - BSPCB",23-04-2024 18:00:00,24.762518,84.982348,NH3,3,7,5
India,Bihar,Gaya,"SFTI Kusdihra, Gaya - BSPCB",23-04-2024 18:00:00,24.762518,84.982348,SO2,8,11,9
India,Bihar,Hajipur,"Industrial Area, Hajipur - BSPCB",23-04-2024 18:00:00,25.697189,85.245900,PM10,103,341,200
India,Bihar,Katihar,"Mirchaibari, Katihar - BSPCB",23-04-2024 18:00:00,25.560083,87.553265,NO2,23,36,31
India,Bihar,Katihar,"Mirchaibari, Katihar - BSPCB",23-04-2024 18:00:00,25.560083,87.553265,NH3,5,10,7
India,Bihar,Katihar,"Mirchaibari, Katihar - BSPCB",23-04-2024 18:00:00,25.560083,87.553265,CO,44,60,52
India,Bihar,Kishanganj,"SDM Office_Khagra, Kishanganj - BSPCB",23-04-2024 18:00:00,26.0881305,87.93840336,NO2,28,34,30
India,Bihar,Manguraha,"Forest Rest House, Manguraha - BSPCB",23-04-2024 18:00:00,27.308328,84.531742,PM2.5,NA,NA,NA
India,Bihar,Manguraha,"Forest Rest House, Manguraha - BSPCB",23-04-2024 18:00:00,27.308328,84.531742,NH3,NA,NA,NA
India,Bihar,Motihari,"Gandak Colony, Motihari - BSPCB",23-04-2024 18:00:00,26.63086,84.90051,SO2,3,8,7
India,Bihar,Munger,"Town Hall, Munger - BSPCB",23-04-2024 18:00:00,25.376776,86.471523,NH3,2,2,2
India,Bihar,Munger,"Town Hall, Munger - BSPCB",23-04-2024 18:00:00,25.376776,86.471523,CO,2,107,17
India,Bihar,Muzaffarpur,"Buddha Colony, Muzaffarpur - BSPCB",23-04-2024 18:00:00,26.11442,85.39813,PM10,122,240,185
India,Bihar,Muzaffarpur,"Buddha Colony, Muzaffarpur - BSPCB",23-04-2024 18:00:00,26.11442,85.39813,CO,16,44,20
India,Bihar,Muzaffarpur,"Buddha Colony, Muzaffarpur - BSPCB",23-04-2024 18:00:00,26.11442,85.39813,OZONE,10,115,61
India,Bihar,Muzaffarpur,"Muzaffarpur Collectorate, Muzaffarpur - BSPCB",23-04-2024 18:00:00,26.1209,85.3647,PM2.5,46,197,101
India,Bihar,Muzaffarpur,"Muzaffarpur Collectorate, Muzaffarpur - BSPCB",23-04-2024 18:00:00,26.1209,85.3647,SO2,6,10,8
India,Bihar,Muzaffarpur,"Muzaffarpur Collectorate, Muzaffarpur - BSPCB",23-04-2024 18:00:00,26.1209,85.3647,CO,34,66,42
India,Bihar,Muzaffarpur,"Muzaffarpur Collectorate, Muzaffarpur - BSPCB",23-04-2024 18:00:00,26.1209,85.3647,OZONE,60,106,92
India,Bihar,Patna,"Govt. High School Shikarpur, Patna - BSPCB",23-04-2024 18:00:00,25.592539,85.227158,SO2,8,12,10
India,Bihar,Patna,"Govt. High School Shikarpur, Patna - BSPCB",23-04-2024 18:00:00,25.592539,85.227158,CO,29,44,34
India,Bihar,Patna,"Muradpur, Patna - BSPCB",23-04-2024 18:00:00,25.619651,85.147382,NH3,2,5,3
India,Bihar,Patna,"Rajbansi Nagar, Patna - BSPCB",23-04-2024 18:00:00,25.599486,85.113666,PM10,102,160,131
India,Bihar,Rajgir,"Dangi Tola, Rajgir - BSPCB",23-04-2024 18:00:00,25.03280,85.41948,NO2,17,20,18
India,Bihar,Rajgir,"Dangi Tola, Rajgir - BSPCB",23-04-2024 18:00:00,25.03280,85.41948,OZONE,31,37,34
India,Bihar,Saharsa,"Police Line, Saharsa - BSPCB",23-04-2024 18:00:00,25.892357,86.590325,NH3,9,9,9
India,Bihar,Saharsa,"Police Line, Saharsa - BSPCB",23-04-2024 18:00:00,25.892357,86.590325,OZONE,6,49,37
India,Bihar,Sasaram,"Dada Peer, Sasaram - BSPCB",23-04-2024 18:00:00,24.952822,84.002396,NO2,8,40,14
India,Bihar,Sasaram,"Dada Peer, Sasaram - BSPCB",23-04-2024 18:00:00,24.952822,84.002396,CO,60,88,78
India,Bihar,Siwan,"Chitragupta Nagar, Siwan - BSPCB",23-04-2024 18:00:00,26.2271665,84.3570427,NO2,15,36,23
India,Chandigarh,Chandigarh,"Sector 22, Chandigarh - CPCC",23-04-2024 18:00:00,30.735567,76.775714,NO2,20,104,41
India,Chandigarh,Chandigarh,"Sector 22, Chandigarh - CPCC",23-04-2024 18:00:00,30.735567,76.775714,SO2,5,41,15
India,Chandigarh,Chandigarh,"Sector-25, Chandigarh - CPCC",23-04-2024 18:00:00,30.751462,76.762879,SO2,12,127,83
India,Chandigarh,Chandigarh,"Sector-53, Chandigarh - CPCC",23-04-2024 18:00:00,30.719859,76.738637,PM2.5,15,87,52
India,Chhattisgarh,Bhilai,"32Bungalows, Bhilai - CECB",23-04-2024 18:00:00,21.194815,81.314770,SO2,3,6,4
India,Chhattisgarh,Bhilai,"Civic Center, Bhilai - Bhilai Steel Plant",23-04-2024 18:00:00,21.185571,81.343175,NO2,15,18,16
India,Chhattisgarh,Bhilai,"Hathkhoj, Bhilai - CECB",23-04-2024 18:00:00,21.224231,81.408350,CO,10,110,44
India,Chhattisgarh,Bilaspur,"Mangala, Bilaspur - NTPC",23-04-2024 18:00:00,22.08815,82.13737,PM10,12,64,29
India,Chhattisgarh,Chhal,"Nawapara SECL Colony, Chhal - CECB",23-04-2024 18:00:00,22.118125,83.140608,SO2,10,26,17
India,Chhattisgarh,Raipur,"AIIMS, Raipur - CECB",23-04-2024 18:00:00,21.258815,81.578979,NH3,NA,NA,NA
India,Chhattisgarh,Raipur,"AIIMS, Raipur - CECB",23-04-2024 18:00:00,21.258815,81.578979,SO2,4,15,7
India,Chhattisgarh,Raipur,"AIIMS, Raipur - CECB",23-04-2024 18:00:00,21.258815,81.578979,OZONE,1,46,28
India,Chhattisgarh,Raipur,"Bhatagaon New ISBT, Raipur - CECB",23-04-2024 18:00:00,21.219665,81.630094,SO2,1,2,2
India,Chhattisgarh,Raipur,"Bhatagaon New ISBT, Raipur - CECB",23-04-2024 18:00:00,21.219665,81.630094,OZONE,3,17,8
India,Chhattisgarh,Raipur,"Krishak Nagar, Raipur - CECB",23-04-2024 18:00:00,21.237755,81.705301,NH3,NA,NA,NA
India,Chhattisgarh,Raipur,"Krishak Nagar, Raipur - CECB",23-04-2024 18:00:00,21.237755,81.705301,OZONE,1,54,19
India,Chhattisgarh,Raipur,"Siltara Phase-II, Raipur - CECB",23-04-2024 18:00:00,21.371751,81.664929,PM2.5,36,71,56
India,Chhattisgarh,Raipur,"Siltara Phase-II, Raipur - CECB",23-04-2024 18:00:00,21.371751,81.664929,PM10,43,112,79
India,Chhattisgarh,Tumidih,"OP Jindal Industrial Park, Tumidih - CECB",23-04-2024 18:00:00,22.06631475,83.33820077,SO2,5,8,6
India,Delhi,Delhi,"Alipur, Delhi - DPCC",23-04-2024 18:00:00,28.815329,77.153010,SO2,8,63,28
India,Delhi,Delhi,"Anand Vihar, Delhi - DPCC",23-04-2024 18:00:00,28.647622,77.3158090,PM2.5,37,315,184
India,Delhi,Delhi,"Ashok Vihar, Delhi - DPCC",23-04-2024 18:00:00,28.695381,77.181665,PM10,97,431,214
India,Delhi,Delhi,"Ashok Vihar, Delhi - DPCC",23-04-2024 18:00:00,28.695381,77.181665,NO2,13,114,60
India,Delhi,Delhi,"Ashok Vihar, Delhi - DPCC",23-04-2024 18:00:00,28.695381,77.181665,NH3,9,20,14
India,Delhi,Delhi,"Aya Nagar, Delhi - IMD",23-04-2024 18:00:00,28.4706914,77.1099364,PM2.5,NA,NA,NA
India,Delhi,Delhi,"Aya Nagar, Delhi - IMD",23-04-2024 18:00:00,28.4706914,77.1099364,NO2,NA,NA,NA
India,Delhi,Delhi,"Bawana, Delhi - DPCC",23-04-2024 18:00:00,28.776200,77.051074,OZONE,2,165,133
India,Delhi,Delhi,"Burari Crossing, Delhi - IMD",23-04-2024 18:00:00,28.7256504,77.2011573,PM2.5,48,307,146
India,Delhi,Delhi,"Burari Crossing, Delhi - IMD",23-04-2024 18:00:00,28.7256504,77.2011573,CO,10,47,16
India,Delhi,Delhi,"Chandni Chowk, Delhi - IITM",23-04-2024 18:00:00,28.656756,77.227234,PM2.5,81,297,226
India,Delhi,Delhi,"Chandni Chowk, Delhi - IITM",23-04-2024 18:00:00,28.656756,77.227234,SO2,12,74,36
India,Delhi,Delhi,"DTU, Delhi - CPCB",23-04-2024 18:00:00,28.7500499,77.1112615,PM10,67,374,198
India,Delhi,Delhi,"DTU, Delhi - CPCB",23-04-2024 18:00:00,28.7500499,77.1112615,OZONE,28,235,186
India,Delhi,Delhi,"Dr. Karni Singh Shooting Range, Delhi - DPCC",23-04-2024 18:00:00,28.498571,77.264840,PM10,67,378,164
India,Delhi,Delhi,"Dr. Karni Singh Shooting Range, Delhi - DPCC",23-04-2024 18:00:00,28.498571,77.264840,SO2,15,34,21
India,Delhi,Delhi,"Dwarka-Sector 8, Delhi - DPCC ",23-04-2024 18:00:00,28.5710274,77.0719006,PM2.5,31,359,175
India,Delhi,Delhi,"Dwarka-Sector 8, Delhi - DPCC ",23-04-2024 18:00:00,28.5710274,77.0719006,PM10,94,500,245
India,Delhi,Delhi,"Dwarka-Sector 8, Delhi - DPCC ",23-04-2024 18:00:00,28.5710274,77.0719006,SO2,4,26,17
India,Delhi,Delhi,"IGI Airport (T3), Delhi - IMD",23-04-2024 18:00:00,28.5627763,77.1180053,PM2.5,45,211,143
India,Delhi,Delhi,"IHBAS, Dilshad Garden, Delhi - CPCB",23-04-2024 18:00:00,28.6811736,77.3025234,OZONE,4,53,43
India,Delhi,Delhi,"ITO, Delhi - CPCB",23-04-2024 18:00:00,28.628624,77.241060,NO2,40,200,84
India,Delhi,Delhi,"ITO, Delhi - CPCB",23-04-2024 18:00:00,28.628624,77.241060,NH3,2,9,5
India,Delhi,Delhi,"Jahangirpuri, Delhi - DPCC",23-04-2024 18:00:00,28.732820,77.170633,NH3,9,67,22
India,Delhi,Delhi,"Jawaharlal Nehru Stadium, Delhi - DPCC",23-04-2024 18:00:00,28.580280,77.233829,NO2,34,150,91
India,Delhi,Delhi,"Jawaharlal Nehru Stadium, Delhi - DPCC",23-04-2024 18:00:00,28.580280,77.233829,NH3,5,9,7
India,Delhi,Delhi,"Jawaharlal Nehru Stadium, Delhi - DPCC",23-04-2024 18:00:00,28.580280,77.233829,CO,28,100,34
India,Delhi,Delhi,"Lodhi Road, Delhi - IITM",23-04-2024 18:00:00,28.588333,77.221667,OZONE,15,22,20
India,Delhi,Delhi,"Major Dhyan Chand National Stadium, Delhi - DPCC",23-04-2024 18:00:00,28.611281,77.237738,PM10,52,284,155
India,Delhi,Delhi,"Mandir Marg, Delhi - DPCC",23-04-2024 18:00:00,28.636429,77.201067,NO2,36,111,84
India,Delhi,Delhi,"Najafgarh, Delhi - DPCC",23-04-2024 18:00:00,28.570173,76.933762,PM2.5,3,368,158
India,Delhi,Delhi,"Nehru Nagar, Delhi - DPCC",23-04-2024 18:00:00,28.567890,77.250515,PM2.5,36,155,88
India,Delhi,Delhi,"Nehru Nagar, Delhi - DPCC",23-04-2024 18:00:00,28.567890,77.250515,SO2,4,6,5
India,Delhi,Delhi,"North Campus, DU, Delhi - IMD",23-04-2024 18:00:00,28.6573814,77.1585447,CO,74,112,91
India,Delhi,Delhi,"Patparganj, Delhi - DPCC",23-04-2024 18:00:00,28.623763,77.287209,SO2,3,5,4
India,Delhi,Delhi,"Punjabi Bagh, Delhi - DPCC",23-04-2024 18:00:00,28.674045,77.131023,PM2.5,17,337,195
India,Delhi,Delhi,"Punjabi Bagh, Delhi - DPCC",23-04-2024 18:00:00,28.674045,77.131023,NO2,43,82,61
India,Delhi,Delhi,"Pusa, Delhi - DPCC",23-04-2024 18:00:00,28.639652,77.146275,NO2,20,144,90
India,Delhi,Delhi,"Pusa, Delhi - IMD",23-04-2024 18:00:00,28.636110,77.173332,PM10,102,348,175
India,Delhi,Delhi,"Pusa, Delhi - IMD",23-04-2024 18:00:00,28.636110,77.173332,NO2,16,45,31
India,Delhi,Delhi,"Pusa, Delhi - IMD",23-04-2024 18:00:00,28.636110,77.173332,CO,82,101,92
India,Delhi,Delhi,"Shadipur, Delhi - CPCB",23-04-2024 18:00:00,28.6514781,77.1473105,NH3,6,14,8
India,Delhi,Delhi,"Shadipur, Delhi - CPCB",23-04-2024 18:00:00,28.6514781,77.1473105,CO,19,36,22
India,Delhi,Delhi,"Sri Aurobindo Marg, Delhi - DPCC",23-04-2024 18:00:00,28.531346,77.190156,PM10,60,379,150
India,Delhi,Delhi,"Sri Aurobindo Marg, Delhi - DPCC",23-04-2024 18:00:00,28.531346,77.190156,NH3,6,9,7
India,Delhi,Delhi,"Sri Aurobindo Marg, Delhi - DPCC",23-04-2024 18:00:00,28.531346,77.190156,CO,10,60,17
India,Delhi,Delhi,"Wazirpur, Delhi - DPCC",23-04-2024 18:00:00,28.699793,77.165453,NH3,12,13,12
India,Gujarat,Ahmedabad,"Chandkheda, Ahmedabad - IITM",23-04-2024 18:00:00,23.107969,72.574648,PM10,53,121,90
India,Gujarat,Ahmedabad,"Chandkheda, Ahmedabad - IITM",23-04-2024 18:00:00,23.107969,72.574648,NO2,43,78,63
India,Gujarat,Ahmedabad,"Chandkheda, Ahmedabad - IITM",23-04-2024 18:00:00,23.107969,72.574648,SO2,2,15,8
India,Gujarat,Ahmedabad,"Chandkheda, Ahmedabad - IITM",23-04-2024 18:00:00,23.107969,72.574648,OZONE,8,49,40
India,Gujarat,Ahmedabad,"Gyaspur, Ahmedabad - IITM",23-04-2024 18:00:00,22.977134,72.553024,SO2,6,18,10
India,Gujarat,Ahmedabad,"Raikhad, Ahmedabad - IITM",23-04-2024 18:00:00,23.020509,72.579261,NO2,38,48,44
India,Gujarat,Ahmedabad,"Raikhad, Ahmedabad - IITM",23-04-2024 18:00:00,23.020509,72.579261,SO2,6,18,9
India,Gujarat,Ahmedabad,"Rakhial, Ahmedabad - IITM",23-04-2024 18:00:00,23.016834,72.625775,OZONE,4,38,21
India,Gujarat,Ahmedabad,"SAC ISRO Satellite, Ahmedabad - IITM",23-04-2024 18:00:00,23.023389,72.515201,PM2.5,116,119,118
India,Gujarat,Ahmedabad,"SVPI Airport Hansol, Ahmedabad - IITM",23-04-2024 18:00:00,23.076793,72.627874,PM2.5,41,76,52
India,Gujarat,Ahmedabad,"SVPI Airport Hansol, Ahmedabad - IITM",23-04-2024 18:00:00,23.076793,72.627874,NH3,5,6,6
India,Gujarat,Ahmedabad,"Sardar Vallabhbhai Patel Stadium, Ahmedabad - IITM",23-04-2024 18:00:00,23.043070,72.562968,NH3,7,9,7
India,Gujarat,Ahmedabad,"Sardar Vallabhbhai Patel Stadium, Ahmedabad - IITM",23-04-2024 18:00:00,23.043070,72.562968,OZONE,8,45,29
India,Gujarat,Ankleshwar,"GIDC, Ankleshwar - GPCB",23-04-2024 18:00:00,21.613267,73.010555,NH3,7,7,7
India,Gujarat,Ankleshwar,"GIDC, Ankleshwar - GPCB",23-04-2024 18:00:00,21.613267,73.010555,OZONE,22,37,32
India,Gujarat,Gandhinagar,"IIPHG Lekawada, Gandhinagar - IITM",23-04-2024 18:00:00,23.243639,72.68994,NH3,4,6,5
India,Gujarat,Nandesari,"GIDC, Nandesari - Nandesari Ind. Association",23-04-2024 18:00:00,22.410802,73.097923,PM10,101,352,179
India,Gujarat,Vapi,"Phase-1 GIDC, Vapi - GPCB",23-04-2024 18:00:00,20.362421,72.918013,PM10,32,99,62
India,Gujarat,Vatva,"Phase-4 GIDC, Vatva - GPCB",23-04-2024 18:00:00,22.969611,72.643500,NO2,25,117,58
India,Gujarat,Vatva,"Phase-4 GIDC, Vatva - GPCB",23-04-2024 18:00:00,22.969611,72.643500,NH3,1,5,1
India,Haryana,Ambala,"Patti Mehar, Ambala - HSPCB",23-04-2024 18:00:00,30.379589,76.778328,NO2,3,4,4
India,Haryana,Ballabgarh,"Nathu Colony, Ballabgarh - HSPCB",23-04-2024 18:00:00,28.3419248,77.319699,PM2.5,91,301,161
India,Haryana,Dharuhera,"Municipal Corporation Office, Dharuhera -  HSPCB",23-04-2024 18:00:00,28.206800,76.799700,NH3,9,26,19
India,Haryana,Dharuhera,"Municipal Corporation Office, Dharuhera -  HSPCB",23-04-2024 18:00:00,28.206800,76.799700,SO2,8,30,14
India,Haryana,Faridabad,"Sector 11, Faridabad - HSPCB",23-04-2024 18:00:00,28.376058,77.315741,CO,26,52,38
India,Haryana,Faridabad,"Sector 30, Faridabad - HSPCB",23-04-2024 18:00:00,28.4417,77.3217,PM2.5,89,102,96
India,Haryana,Faridabad,"Sector 30, Faridabad - HSPCB",23-04-2024 18:00:00,28.4417,77.3217,CO,56,63,61
India,Haryana,Faridabad,"Sector- 16A, Faridabad - HSPCB",23-04-2024 18:00:00,28.4088421,77.3099081,NO2,12,39,24
India,Haryana,Gurugram,"Sector-51, Gurugram - HSPCB",23-04-2024 18:00:00,28.4227,77.0667,PM10,81,403,179
India,Haryana,Gurugram,"Sector-51, Gurugram - HSPCB",23-04-2024 18:00:00,28.4227,77.0667,OZONE,27,67,57
India,Haryana,Gurugram,"Teri Gram, Gurugram - HSPCB",23-04-2024 18:00:00,28.4275,77.1465,CO,12,63,20
India,Haryana,Gurugram,"Vikas Sadan, Gurugram - HSPCB",23-04-2024 18:00:00,28.4501238,77.0263051,CO,54,151,121
India,Haryana,Hisar,"Urban Estate-II, Hisar - HSPCB",23-04-2024 18:00:00,29.140560,75.744941,SO2,NA,NA,NA
India,Haryana,Hisar,"Urban Estate-II, Hisar - HSPCB",23-04-2024 18:00:00,29.140560,75.744941,CO,25,59,30
India,Haryana,Jind,"Police Lines, Jind - HSPCB",23-04-2024 18:00:00,29.307814,76.337619,PM10,58,129,105
India,Haryana,Jind,"Police Lines, Jind - HSPCB",23-04-2024 18:00:00,29.307814,76.337619,NO2,8,16,11
India,Haryana,Jind,"Police Lines, Jind - HSPCB",23-04-2024 18:00:00,29.307814,76.337619,NH3,2,6,4
India,Haryana,Kaithal,"Rishi Nagar, Kaithal - HSPCB",23-04-2024 18:00:00,29.8006,76.4155,NH3,8,8,8
India,Haryana,Karnal,"Sector-12, Karnal - HSPCB",23-04-2024 18:00:00,29.695300,77.002700,SO2,12,13,12
India,Haryana,Kurukshetra,"Sector-7, Kurukshetra - HSPCB",23-04-2024 18:00:00,29.966942,76.875879,PM10,27,252,122
India,Haryana,Kurukshetra,"Sector-7, Kurukshetra - HSPCB",23-04-2024 18:00:00,29.966942,76.875879,SO2,2,3,2
India,Haryana,Mandikhera,"General Hospital, Mandikhera - HSPCB",23-04-2024 18:00:00,27.9002,76.9938,NO2,17,23,21
India,Haryana,Mandikhera,"General Hospital, Mandikhera - HSPCB",23-04-2024 18:00:00,27.9002,76.9938,NH3,15,20,18
India,Haryana,Mandikhera,"General Hospital, Mandikhera - HSPCB",23-04-2024 18:00:00,27.9002,76.9938,SO2,32,42,35
India,Haryana,Manesar,"Sector-2 IMT, Manesar - HSPCB",23-04-2024 18:00:00,28.360699,76.936090,PM2.5,26,344,140
India,Haryana,Manesar,"Sector-2 IMT, Manesar - HSPCB",23-04-2024 18:00:00,28.360699,76.936090,NO2,13,27,18
India,Haryana,Manesar,"Sector-2 IMT, Manesar - HSPCB",23-04-2024 18:00:00,28.360699,76.936090,NH3,1,3,2
India,Haryana,Narnaul,"Shastri Nagar, Narnaul - HSPCB",23-04-2024 18:00:00,28.060249,76.113115,PM2.5,54,323,101
India,Haryana,Narnaul,"Shastri Nagar, Narnaul - HSPCB",23-04-2024 18:00:00,28.060249,76.113115,CO,10,42,30
India,Haryana,Palwal,"Shyam Nagar, Palwal - HSPCB",23-04-2024 18:00:00,28.1485564,77.3320667,PM2.5,45,77,62
India,Haryana,Panchkula,"Sector-6, Panchkula - HSPCB ",23-04-2024 18:00:00,30.7057778,76.8531805555555,PM2.5,40,123,81
India,Haryana,Panchkula,"Sector-6, Panchkula - HSPCB ",23-04-2024 18:00:00,30.7057778,76.8531805555555,OZONE,36,60,46
India,Haryana,Panipat,"Sector-18, Panipat - HSPCB",23-04-2024 18:00:00,29.497973,76.993331,PM10,90,97,93
India,Haryana,Panipat,"Sector-18, Panipat - HSPCB",23-04-2024 18:00:00,29.497973,76.993331,OZONE,30,30,30
India,Haryana,Sirsa,"F-Block, Sirsa - HSPCB",23-04-2024 18:00:00,29.536400,75.015800,PM10,45,121,83
India,Haryana,Sirsa,"F-Block, Sirsa - HSPCB",23-04-2024 18:00:00,29.536400,75.015800,NO2,9,11,10
India,Haryana,Sirsa,"F-Block, Sirsa - HSPCB",23-04-2024 18:00:00,29.536400,75.015800,SO2,4,13,9
India,Haryana,Sonipat,"Murthal, Sonipat - HSPCB",23-04-2024 18:00:00,29.027200,77.062100,SO2,13,29,20
India,Haryana,Sonipat,"Murthal, Sonipat - HSPCB",23-04-2024 18:00:00,29.027200,77.062100,OZONE,17,36,33
India,Haryana,Yamuna Nagar,"Gobind Pura, Yamuna Nagar - HSPCB",23-04-2024 18:00:00,30.1480566,77.2893471,PM10,54,190,120
India,Haryana,Yamuna Nagar,"Gobind Pura, Yamuna Nagar - HSPCB",23-04-2024 18:00:00,30.1480566,77.2893471,NO2,11,29,18
India,Haryana,Yamuna Nagar,"Gobind Pura, Yamuna Nagar - HSPCB",23-04-2024 18:00:00,30.1480566,77.2893471,CO,27,72,41
India,Himachal Pradesh,Baddi,"HIMUDA Complex Phase-1, Baddi - HPPCB",23-04-2024 18:00:00,30.943887,76.801991,PM2.5,7,82,31
India,Jharkhand,Dhanbad,"Kalakusuma, Dhanbad - DMC",23-04-2024 18:00:00,23.811548,86.481238,PM2.5,2,71,25
India,Jharkhand,Dhanbad,"Kalakusuma, Dhanbad - DMC",23-04-2024 18:00:00,23.811548,86.481238,NO2,197,408,321
India,Jharkhand,Dhanbad,"Kalakusuma, Dhanbad - DMC",23-04-2024 18:00:00,23.811548,86.481238,CO,130,134,131
India,Jharkhand,Dhanbad,"Sardar Patel Nagar, Dhanbad - JSPCB",23-04-2024 18:00:00,23.80569,86.44268,NO2,192,403,313
India,Jharkhand,Pathardih,"Mohalbani Ghat, Pathardih - DMC",23-04-2024 18:00:00,23.669880,86.411725,NO2,NA,NA,NA
India,Karnataka,Bagalkot,"Vidayagiri, Bagalkot - KSPCB",23-04-2024 18:00:00,16.172806,75.659694,PM2.5,25,37,36
India,Karnataka,Bagalkot,"Vidayagiri, Bagalkot - KSPCB",23-04-2024 18:00:00,16.172806,75.659694,NO2,9,10,9
India,Karnataka,Bagalkot,"Vidayagiri, Bagalkot - KSPCB",23-04-2024 18:00:00,16.172806,75.659694,NH3,1,2,1
India,Karnataka,Belgaum,"Ramteerth Nagar, Belgaum - KSPCB",23-04-2024 18:00:00,15.888653,74.541751,PM2.5,14,42,22
India,Karnataka,Bengaluru,"BTM Layout, Bengaluru - CPCB",23-04-2024 18:00:00,12.9135218,77.5950804,PM2.5,33,50,40
India,Karnataka,Bengaluru,"BTM Layout, Bengaluru - CPCB",23-04-2024 18:00:00,12.9135218,77.5950804,NO2,31,44,35
India,Karnataka,Bengaluru,"BTM Layout, Bengaluru - CPCB",23-04-2024 18:00:00,12.9135218,77.5950804,CO,22,30,24
India,Karnataka,Bengaluru,"Bapuji Nagar, Bengaluru - KSPCB",23-04-2024 18:00:00,12.951913,77.539784,PM10,52,123,82
India,Karnataka,Bengaluru,"Bapuji Nagar, Bengaluru - KSPCB",23-04-2024 18:00:00,12.951913,77.539784,NO2,10,11,10
India,Karnataka,Bengaluru,"Hebbal, Bengaluru - KSPCB",23-04-2024 18:00:00,13.029152,77.585901,SO2,16,26,20
India,Karnataka,Bengaluru,"Hebbal, Bengaluru - KSPCB",23-04-2024 18:00:00,13.029152,77.585901,CO,4,52,15
India,Karnataka,Bengaluru,"Peenya, Bengaluru - CPCB",23-04-2024 18:00:00,13.0270199,77.494094,SO2,9,12,11
India,Karnataka,Bengaluru,"Peenya, Bengaluru - CPCB",23-04-2024 18:00:00,13.0270199,77.494094,OZONE,1,1,1
India,Karnataka,Bengaluru,"Sanegurava Halli, Bengaluru - KSPCB",23-04-2024 18:00:00,12.990328,77.5431385,PM10,39,67,49
India,Karnataka,Bengaluru,"Shivapura_Peenya, Bengaluru - KSPCB",23-04-2024 18:00:00,13.0246342,77.5080115,PM2.5,9,160,50
India,Karnataka,Bengaluru,"Shivapura_Peenya, Bengaluru - KSPCB",23-04-2024 18:00:00,13.0246342,77.5080115,NO2,15,16,15
India,Karnataka,Bengaluru,"Silk Board, Bengaluru - KSPCB",23-04-2024 18:00:00,12.917348,77.622813,NH3,NA,NA,NA
India,Karnataka,Chamarajanagar,"Urban, Chamarajanagar - KSPCB",23-04-2024 18:00:00,11.55358,76.55521,PM2.5,22,39,28
India,Karnataka,Chikkaballapur,"Chikkaballapur Rural, Chikkaballapur - KSPCB",23-04-2024 18:00:00,13.428828,77.731418,PM2.5,23,102,56
India,Karnataka,Davanagere,"Devaraj Urs Badavane, Davanagere - KSPCB",23-04-2024 18:00:00,14.475800,75.905200,PM2.5,NA,NA,NA
India,Karnataka,Davanagere,"Devaraj Urs Badavane, Davanagere - KSPCB",23-04-2024 18:00:00,14.475800,75.905200,NH3,NA,NA,NA
India,Karnataka,Davanagere,"Devaraj Urs Badavane, Davanagere - KSPCB",23-04-2024 18:00:00,14.475800,75.905200,CO,8,22,19
India,Karnataka,Dharwad,"Kalabhavan, Dharwad - KSPCB",23-04-2024 18:00:00,15.459706,75.008381,CO,34,144,138
India,Karnataka,Gadag,"Panchal Nagar, Gadag - KSPCB",23-04-2024 18:00:00,15.411456,75.638133,SO2,NA,NA,NA
India,Karnataka,Hassan,"B.Katihalli, Hassan - KSPCB",23-04-2024 18:00:00,13.008556,76.125258,PM2.5,33,67,47
India,Karnataka,Hassan,"B.Katihalli, Hassan - KSPCB",23-04-2024 18:00:00,13.008556,76.125258,PM10,36,100,65
India,Karnataka,Haveri,"Ashwini Nagar, Haveri - KSPCB",23-04-2024 18:00:00,14.791800,75.389600,CO,36,38,38
India,Karnataka,Hubballi,"Deshpande Nagar, Hubballi - KSPCB",23-04-2024 18:00:00,15.351773,75.140726,NO2,NA,NA,NA
India,Karnataka,Kalaburagi,"Lal Bahadur Shastri Nagar, Kalaburagi - KSPCB",23-04-2024 18:00:00,17.321993,76.822628,OZONE,5,66,54
India,Karnataka,Kalaburagi,"Mahatma Basaveswar Colony, Kalaburgi - KSPCB",23-04-2024 18:00:00,17.336318,76.847397,SO2,2,13,3
India,Karnataka,Kolar,"Tamaka Ind. Area, Kolar - KSPCB",23-04-2024 18:00:00,13.1276288,78.1570122,PM10,NA,NA,NA
India,Karnataka,Kolar,"Tamaka Ind. Area, Kolar - KSPCB",23-04-2024 18:00:00,13.1276288,78.1570122,NO2,NA,NA,NA
India,Karnataka,Kolar,"Tamaka Ind. Area, Kolar - KSPCB",23-04-2024 18:00:00,13.1276288,78.1570122,NH3,NA,NA,NA
India,Karnataka,Kolar,"Tamaka Ind. Area, Kolar - KSPCB",23-04-2024 18:00:00,13.1276288,78.1570122,SO2,NA,NA,NA
India,Karnataka,Kolar,"Tamaka Ind. Area, Kolar - KSPCB",23-04-2024 18:00:00,13.1276288,78.1570122,CO,NA,NA,NA
India,Karnataka,Mangalore,"Kadri, Mangalore - KSPCB",23-04-2024 18:00:00,12.889250,74.853000,NO2,6,7,6
India,Karnataka,Mangalore,"Kadri, Mangalore - KSPCB",23-04-2024 18:00:00,12.889250,74.853000,NH3,2,2,2
India,Karnataka,Mangalore,"Kadri, Mangalore - KSPCB",23-04-2024 18:00:00,12.889250,74.853000,SO2,16,19,17
India,Karnataka,Mysuru,"Hebbal 1st Stage, Mysuru - KSPCB",23-04-2024 18:00:00,12.21041,76.37376,NH3,1,2,2
India,Karnataka,Ramanagara,"Vijay Nagar, Ramanagara - KSPCB",23-04-2024 18:00:00,12.733409,77.298051,OZONE,27,35,30
India,Karnataka,Shivamogga,"Vinoba Nagara, Shivamogga - KSPCB",23-04-2024 18:00:00,13.940000,75.555917,PM10,34,76,48
India,Karnataka,Shivamogga,"Vinoba Nagara, Shivamogga - KSPCB",23-04-2024 18:00:00,13.940000,75.555917,NH3,2,5,3
India,Karnataka,Shivamogga,"Vinoba Nagara, Shivamogga - KSPCB",23-04-2024 18:00:00,13.940000,75.555917,SO2,2,11,7
India,Karnataka,Shivamogga,"Vinoba Nagara, Shivamogga - KSPCB",23-04-2024 18:00:00,13.940000,75.555917,CO,16,42,30
India,Karnataka,Tumakuru,"Thimmalapura, Tumakuru - KSPCB",23-04-2024 18:00:00,13.377516,77.099072,PM10,105,237,158
India,Karnataka,Vijayapura,"Ibrahimpur, Vijayapura - KSPCB",23-04-2024 18:00:00,16.802639,75.722694,PM10,NA,NA,NA
India,Karnataka,Yadgir,"Collector Office, Yadgir - KSPCB",23-04-2024 18:00:00,16.7602,77.1428,PM2.5,28,79,48
India,Karnataka,Yadgir,"Collector Office, Yadgir - KSPCB",23-04-2024 18:00:00,16.7602,77.1428,NO2,5,8,6
India,Karnataka,Yadgir,"Collector Office, Yadgir - KSPCB",23-04-2024 18:00:00,16.7602,77.1428,OZONE,18,20,19
India,Kerala,Eloor,"Udyogamandal, Eloor - Kerala PCB",23-04-2024 18:00:00,10.073232,76.302765,PM10,34,47,42
India,Kerala,Kannur,"Thavakkara, Kannur - Kerala PCB",23-04-2024 18:00:00,11.875000,75.373200,PM2.5,67,78,72
India,Kerala,Kannur,"Thavakkara, Kannur - Kerala PCB",23-04-2024 18:00:00,11.875000,75.373200,NO2,6,7,6
India,Kerala,Kollam,"Polayathode, Kollam - Kerala PCB",23-04-2024 18:00:00,8.8787,76.6073,NH3,1,1,1
India,Kerala,Thiruvananthapuram,"Kariavattom, Thiruvananthapuram - Kerala PCB",23-04-2024 18:00:00,8.563700,76.886500,OZONE,26,33,30
India,Kerala,Thiruvananthapuram,"Plammoodu, Thiruvananthapuram - Kerala PCB",23-04-2024 18:00:00,8.5149093,76.9435879,NH3,1,5,1
India,Kerala,Thiruvananthapuram,"Plammoodu, Thiruvananthapuram - Kerala PCB",23-04-2024 18:00:00,8.5149093,76.9435879,OZONE,8,65,14
India,Kerala,Thrissur,"Corporation Ground, Thrissur - Kerala PCB",23-04-2024 18:00:00,10.532400,76.215900,PM2.5,45,51,48
India,Kerala,Thrissur,"Corporation Ground, Thrissur - Kerala PCB",23-04-2024 18:00:00,10.532400,76.215900,NO2,7,8,7
India,Kerala,Thrissur,"Corporation Ground, Thrissur - Kerala PCB",23-04-2024 18:00:00,10.532400,76.215900,SO2,NA,NA,NA
India,Kerala,Thrissur,"Corporation Ground, Thrissur - Kerala PCB",23-04-2024 18:00:00,10.532400,76.215900,OZONE,28,32,30
India,Madhya Pradesh,Bhopal,"Idgah Hills, Bhopal - MPPCB",23-04-2024 18:00:00,23.264759,77.381568,PM10,56,95,69
India,Madhya Pradesh,Bhopal,"Paryavaran Parisar, Bhopal - MPPCB",23-04-2024 18:00:00,23.210494,77.425409,PM2.5,22,67,43
India,Madhya Pradesh,Bhopal,"Paryavaran Parisar, Bhopal - MPPCB",23-04-2024 18:00:00,23.210494,77.425409,NH3,6,8,7
India,Madhya Pradesh,Bhopal,"Paryavaran Parisar, Bhopal - MPPCB",23-04-2024 18:00:00,23.210494,77.425409,OZONE,43,85,80
India,Madhya Pradesh,Bhopal,"T T Nagar, Bhopal - MPPCB",23-04-2024 18:00:00,23.233584,77.400574,NO2,3,24,10
India,Madhya Pradesh,Bhopal,"T T Nagar, Bhopal - MPPCB",23-04-2024 18:00:00,23.233584,77.400574,OZONE,43,81,66
India,Madhya Pradesh,Dewas,"Bhopal Chauraha, Dewas - MPPCB",23-04-2024 18:00:00,22.9682591,76.064118,SO2,22,44,32
India,Madhya Pradesh,Gwalior,"Deen Dayal Nagar, Gwalior - MPPCB",23-04-2024 18:00:00,26.259242,78.216432,PM10,25,412,147
India,Madhya Pradesh,Gwalior,"Maharaj Bada, Gwalior - MPPCB",23-04-2024 18:00:00,26.200388,78.147714,PM2.5,23,193,68
India,Madhya Pradesh,Gwalior,"Maharaj Bada, Gwalior - MPPCB",23-04-2024 18:00:00,26.200388,78.147714,NO2,12,122,45
India,Madhya Pradesh,Gwalior,"Maharaj Bada, Gwalior - MPPCB",23-04-2024 18:00:00,26.200388,78.147714,NH3,2,29,10
India,Madhya Pradesh,Gwalior,"Maharaj Bada, Gwalior - MPPCB",23-04-2024 18:00:00,26.200388,78.147714,SO2,7,41,17
