country,state,city,station,last_update,latitude,longitude,pollutant_id,pollutant_min,pollutant_max,pollutant_avg
India,Andhra_Pradesh,Amaravati,"Secretariat, Amaravati - APPCB",09-01-2024 09:00:00,16.5150833,80.5181667,CO,10,54,42
India,Andhra_Pradesh,Anantapur,"Gulzarpet, Anantapur - APPCB",09-01-2024 09:00:00,14.675886,77.593027,PM2.5,40,62,52
India,Andhra_Pradesh,Anantapur,"Gulzarpet, Anantapur - APPCB",09-01-2024 09:00:00,14.675886,77.593027,CO,26,38,32
India,Andhra_Pradesh,Chittoor,"Gangineni Cheruvu, Chittoor - APPCB",09-01-2024 09:00:00,13.204880,79.097889,PM10,14,61,33
India,Andhra_Pradesh,Chittoor,"Gangineni Cheruvu, Chittoor - APPCB",09-01-2024 09:00:00,13.204880,79.097889,NO2,7,25,13
India,Andhra_Pradesh,Kadapa,"Yerramukkapalli, Kadapa - APPCB",09-01-2024 09:00:00,14.465052,78.824187,PM2.5,11,331,93
India,Andhra_Pradesh,Kadapa,"Yerramukkapalli, Kadapa - APPCB",09-01-2024 09:00:00,14.465052,78.824187,NO2,11,20,13
India,Andhra_Pradesh,Rajamahendravaram,"Anand Kala Kshetram, Rajamahendravaram - APPCB",09-01-2024 09:00:00,16.9872867,81.7363176,PM10,124,177,138
India,Andhra_Pradesh,Tirupati,"Tirumala, Tirupati - APPCB",09-01-2024 09:00:00,13.67,79.35,PM2.5,12,78,38
India,Andhra_Pradesh,Tirupati,"Vaikuntapuram, Tirupati - APPCB",09-01-2024 09:00:00,13.615387,79.409230,SO2,4,5,5
India,Andhra_Pradesh,Tirupati,"Vaikuntapuram, Tirupati - APPCB",09-01-2024 09:00:00,13.615387,79.409230,CO,14,16,14
India,Andhra_Pradesh,Vijayawada,"HB Colony, Vijayawada - APPCB",09-01-2024 09:00:00,16.536107,80.594233,PM2.5,49,88,61
India,Andhra_Pradesh,Vijayawada,"Rajiv Gandhi Park, Vijayawada - APPCB",09-01-2024 09:00:00,16.509717,80.612222,PM2.5,62,98,82
India,Andhra_Pradesh,Vijayawada,"Rajiv Gandhi Park, Vijayawada - APPCB",09-01-2024 09:00:00,16.509717,80.612222,NH3,3,8,7
India,Andhra_Pradesh,Vijayawada,"Rajiv Gandhi Park, Vijayawada - APPCB",09-01-2024 09:00:00,16.509717,80.612222,CO,40,42,42
India,Assam,Guwahati,"IITG, Guwahati - PCBA",09-01-2024 09:00:00,26.2028636,91.70046436,NO2,1,19,8
India,Assam,Guwahati,"IITG, Guwahati - PCBA",09-01-2024 09:00:00,26.2028636,91.70046436,SO2,11,12,11
India,Assam,Guwahati,"LGBI Airport, Guwahati - PCBA",09-01-2024 09:00:00,26.10887,91.589544,PM10,107,294,153
India,Assam,Guwahati,"LGBI Airport, Guwahati - PCBA",09-01-2024 09:00:00,26.10887,91.589544,NO2,11,84,31
India,Assam,Guwahati,"LGBI Airport, Guwahati - PCBA",09-01-2024 09:00:00,26.10887,91.589544,SO2,9,11,10
India,Assam,Guwahati,"Pan Bazaar, Guwahati - PCBA",09-01-2024 09:00:00,26.187500,91.744194,PM10,103,351,169
India,Assam,Guwahati,"Pan Bazaar, Guwahati - PCBA",09-01-2024 09:00:00,26.187500,91.744194,OZONE,16,17,17
India,Assam,Guwahati,"Railway Colony, Guwahati - PCBA",09-01-2024 09:00:00,26.181742,91.78063,OZONE,11,54,24
India,Assam,Nagaon,"Christianpatty, Nagaon - PCBA",09-01-2024 09:00:00,26.349082,92.68449,OZONE,5,50,8
India,Assam,Nalbari,"Bata Chowk, Nalbari - PCBA",09-01-2024 09:00:00,26.446912,91.439057,NO2,45,73,54
India,Bihar,Araria,"Kharahiya Basti, Araria - BSPCB",09-01-2024 09:00:00,26.146529,87.454184,PM10,100,413,209
India,Bihar,Araria,"Kharahiya Basti, Araria - BSPCB",09-01-2024 09:00:00,26.146529,87.454184,NO2,6,12,7
India,Bihar,Araria,"Kharahiya Basti, Araria - BSPCB",09-01-2024 09:00:00,26.146529,87.454184,SO2,13,17,15
India,Bihar,Aurangabad,"Gurdeo Nagar, Aurangabad - BSPCB",09-01-2024 09:00:00,24.75746,84.366208,PM10,45,162,96
India,Bihar,Bettiah,"Kamalnath Nagar, Bettiah - BSPCB",09-01-2024 09:00:00,26.80365,84.51954,NH3,3,3,3
India,Bihar,Bettiah,"Kamalnath Nagar, Bettiah - BSPCB",09-01-2024 09:00:00,26.80365,84.51954,SO2,13,21,17
India,Bihar,Bhagalpur,"DM Office_Kachari Chowk, Bhagalpur - BSPCB",09-01-2024 09:00:00,25.251013,86.989001,PM2.5,207,368,347
India,Bihar,Bhagalpur,"DM Office_Kachari Chowk, Bhagalpur - BSPCB",09-01-2024 09:00:00,25.251013,86.989001,NO2,23,63,43
India,Bihar,Bhagalpur,"Mayaganj, Bhagalpur - BSPCB",09-01-2024 09:00:00,25.265194,87.012947,PM10,103,500,203
India,Bihar,Bihar Sharif,"D M Colony, Bihar Sharif - BSPCB",09-01-2024 09:00:00,25.204762,85.514960,SO2,2,10,6
India,Bihar,Gaya,"Kareemganj, Gaya - BSPCB",09-01-2024 09:00:00,24.792403,84.992416,PM2.5,32,92,59
India,Bihar,Hajipur,"Industrial Area, Hajipur - BSPCB",09-01-2024 09:00:00,25.697189,85.245900,NO2,12,50,24
India,Bihar,Hajipur,"Industrial Area, Hajipur - BSPCB",09-01-2024 09:00:00,25.697189,85.245900,SO2,6,7,6
India,Bihar,Hajipur,"Industrial Area, Hajipur - BSPCB",09-01-2024 09:00:00,25.697189,85.245900,CO,56,94,76
India,Bihar,Katihar,"Mirchaibari, Katihar - BSPCB",09-01-2024 09:00:00,25.560083,87.553265,PM2.5,67,352,195
India,Bihar,Katihar,"Mirchaibari, Katihar - BSPCB",09-01-2024 09:00:00,25.560083,87.553265,NH3,3,4,4
India,Bihar,Kishanganj,"SDM Office_Khagra, Kishanganj - BSPCB",09-01-2024 09:00:00,26.0881305,87.93840336,NO2,28,33,30
India,Bihar,Kishanganj,"SDM Office_Khagra, Kishanganj - BSPCB",09-01-2024 09:00:00,26.0881305,87.93840336,OZONE,28,36,35
India,Bihar,Manguraha,"Forest Rest House, Manguraha - BSPCB",09-01-2024 09:00:00,27.308328,84.531742,NH3,2,3,2
India,Bihar,Manguraha,"Forest Rest House, Manguraha - BSPCB",09-01-2024 09:00:00,27.308328,84.531742,CO,2,32,13
India,Bihar,Manguraha,"Forest Rest House, Manguraha - BSPCB",09-01-2024 09:00:00,27.308328,84.531742,OZONE,11,34,31
India,Bihar,Munger,"Town Hall, Munger - BSPCB",09-01-2024 09:00:00,25.376776,86.471523,CO,6,40,11
India,Bihar,Muzaffarpur,"MIT-Daudpur Kothi, Muzaffarpur - BSPCB",09-01-2024 09:00:00,26.1403345,85.3650192,PM2.5,143,342,237
India,Bihar,Patna,"DRM Office Danapur, Patna - BSPCB",09-01-2024 09:00:00,25.586562,85.043586,PM2.5,238,395,327
India,Bihar,Patna,"DRM Office Danapur, Patna - BSPCB",09-01-2024 09:00:00,25.586562,85.043586,PM10,126,456,264
India,Bihar,Patna,"Muradpur, Patna - BSPCB",09-01-2024 09:00:00,25.619651,85.147382,NH3,1,9,4
India,Bihar,Patna,"Rajbansi Nagar, Patna - BSPCB",09-01-2024 09:00:00,25.599486,85.113666,PM2.5,192,302,258
India,Bihar,Patna,"Rajbansi Nagar, Patna - BSPCB",09-01-2024 09:00:00,25.599486,85.113666,NO2,57,85,70
India,Bihar,Purnia,"Mariam Nagar, Purnia - BSPCB",09-01-2024 09:00:00,25.366336,87.117468,NH3,2,2,2
India,Bihar,Rajgir,"Dangi Tola, Rajgir - BSPCB",09-01-2024 09:00:00,25.03280,85.41948,PM2.5,140,355,261
India,Bihar,Saharsa,"Police Line, Saharsa - BSPCB",09-01-2024 09:00:00,25.892357,86.590325,OZONE,2,6,2
India,Bihar,Samastipur,"DM Office_Kasipur, Samastipur - BSPCB",09-01-2024 09:00:00,25.859655,85.77944,NO2,2,6,4
India,Bihar,Samastipur,"DM Office_Kasipur, Samastipur - BSPCB",09-01-2024 09:00:00,25.859655,85.77944,NH3,3,4,4
India,Bihar,Samastipur,"DM Office_Kasipur, Samastipur - BSPCB",09-01-2024 09:00:00,25.859655,85.77944,CO,20,35,32
India,Bihar,Sasaram,"Dada Peer, Sasaram - BSPCB",09-01-2024 09:00:00,24.952822,84.002396,NH3,4,9,7
India,Bihar,Siwan,"Chitragupta Nagar, Siwan - BSPCB",09-01-2024 09:00:00,26.2271665,84.3570427,NO2,22,76,39
India,Bihar,Siwan,"Chitragupta Nagar, Siwan - BSPCB",09-01-2024 09:00:00,26.2271665,84.3570427,SO2,31,35,32
India,Chandigarh,Chandigarh,"Sector 22, Chandigarh - CPCC",09-01-2024 09:00:00,30.735567,76.775714,PM2.5,143,431,312
India,Chandigarh,Chandigarh,"Sector-25, Chandigarh - CPCC",09-01-2024 09:00:00,30.751462,76.762879,OZONE,1,12,3
India,Chandigarh,Chandigarh,"Sector-53, Chandigarh - CPCC",09-01-2024 09:00:00,30.719859,76.738637,NH3,5,7,6
India,Chhattisgarh,Bhilai,"Civic Center, Bhilai - Bhilai Steel Plant",09-01-2024 09:00:00,21.185571,81.343175,SO2,NA,NA,NA
India,Chhattisgarh,Bhilai,"Hathkhoj, Bhilai - CECB",09-01-2024 09:00:00,21.224231,81.408350,NH3,7,8,8
India,Chhattisgarh,Bilaspur,"Mangala, Bilaspur - NTPC",09-01-2024 09:00:00,22.08815,82.13737,PM2.5,46,88,70
India,Chhattisgarh,Chhal,"Nawapara SECL Colony, Chhal - CECB",09-01-2024 09:00:00,22.118125,83.140608,NO2,13,57,25
India,Chhattisgarh,Chhal,"Nawapara SECL Colony, Chhal - CECB",09-01-2024 09:00:00,22.118125,83.140608,SO2,10,70,24
India,Chhattisgarh,Chhal,"Nawapara SECL Colony, Chhal - CECB",09-01-2024 09:00:00,22.118125,83.140608,OZONE,7,78,10
India,Chhattisgarh,Korba,"Urja Nagar, Korba - CECB",09-01-2024 09:00:00,22.348441,82.549611,CO,37,46,41
India,Chhattisgarh,Korba,"Urja Nagar, Korba - CECB",09-01-2024 09:00:00,22.348441,82.549611,OZONE,47,48,47
India,Chhattisgarh,Kunjemura,"OP Jindal School, Kunjemura - CECB",09-01-2024 09:00:00,22.126650,83.483212,PM2.5,59,89,74
India,Chhattisgarh,Kunjemura,"OP Jindal School, Kunjemura - CECB",09-01-2024 09:00:00,22.126650,83.483212,NO2,32,215,74
India,Chhattisgarh,Milupara,"Govt. Higher Secondary School, Milupara - CECB",09-01-2024 09:00:00,22.1910172,83.5197009,PM2.5,75,101,85
India,Chhattisgarh,Milupara,"Govt. Higher Secondary School, Milupara - CECB",09-01-2024 09:00:00,22.1910172,83.5197009,NO2,16,56,28
India,Chhattisgarh,Raipur,"AIIMS, Raipur - CECB",09-01-2024 09:00:00,21.258815,81.578979,PM10,89,157,128
India,Chhattisgarh,Raipur,"AIIMS, Raipur - CECB",09-01-2024 09:00:00,21.258815,81.578979,CO,36,77,62
India,Chhattisgarh,Raipur,"Krishak Nagar, Raipur - CECB",09-01-2024 09:00:00,21.237755,81.705301,CO,36,56,47
India,Chhattisgarh,Raipur,"Siltara Phase-II, Raipur - CECB",09-01-2024 09:00:00,21.371751,81.664929,SO2,NA,NA,NA
India,Chhattisgarh,Raipur,"Siltara Phase-II, Raipur - CECB",09-01-2024 09:00:00,21.371751,81.664929,OZONE,NA,NA,NA
India,Delhi,Delhi,"Alipur, Delhi - DPCC",09-01-2024 09:00:00,28.815329,77.153010,PM2.5,128,388,289
India,Delhi,Delhi,"Alipur, Delhi - DPCC",09-01-2024 09:00:00,28.815329,77.153010,SO2,5,13,9
India,Delhi,Delhi,"Anand Vihar, Delhi - DPCC",09-01-2024 09:00:00,28.647622,77.3158090,NO2,52,159,98
India,Delhi,Delhi,"Anand Vihar, Delhi - DPCC",09-01-2024 09:00:00,28.647622,77.3158090,SO2,11,24,18
India,Delhi,Delhi,"Ashok Vihar, Delhi - DPCC",09-01-2024 09:00:00,28.695381,77.181665,SO2,14,41,23
India,Delhi,Delhi,"Bawana, Delhi - DPCC",09-01-2024 09:00:00,28.776200,77.051074,SO2,4,10,6
India,Delhi,Delhi,"DTU, Delhi - CPCB",09-01-2024 09:00:00,28.7500499,77.1112615,NO2,17,52,31
India,Delhi,Delhi,"Dr. Karni Singh Shooting Range, Delhi - DPCC",09-01-2024 09:00:00,28.498571,77.264840,NH3,6,20,8
India,Delhi,Delhi,"Dwarka-Sector 8, Delhi - DPCC ",09-01-2024 09:00:00,28.5710274,77.0719006,SO2,6,17,11
India,Delhi,Delhi,"Dwarka-Sector 8, Delhi - DPCC ",09-01-2024 09:00:00,28.5710274,77.0719006,OZONE,8,33,12
India,Delhi,Delhi,"IHBAS, Dilshad Garden, Delhi - CPCB",09-01-2024 09:00:00,28.6811736,77.3025234,NO2,35,46,41
India,Delhi,Delhi,"ITO, Delhi - CPCB",09-01-2024 09:00:00,28.628624,77.241060,PM10,136,378,240
India,Delhi,Delhi,"ITO, Delhi - CPCB",09-01-2024 09:00:00,28.628624,77.241060,NO2,13,70,31
India,Delhi,Delhi,"ITO, Delhi - CPCB",09-01-2024 09:00:00,28.628624,77.241060,NH3,5,15,8
India,Delhi,Delhi,"ITO, Delhi - CPCB",09-01-2024 09:00:00,28.628624,77.241060,SO2,12,31,21
India,Delhi,Delhi,"Jawaharlal Nehru Stadium, Delhi - DPCC",09-01-2024 09:00:00,28.580280,77.233829,PM2.5,305,479,377
India,Delhi,Delhi,"Jawaharlal Nehru Stadium, Delhi - DPCC",09-01-2024 09:00:00,28.580280,77.233829,CO,44,116,54
India,Delhi,Delhi,"Lodhi Road, Delhi - IMD",09-01-2024 09:00:00,28.5918245,77.2273074,PM10,160,449,318
India,Delhi,Delhi,"Lodhi Road, Delhi - IMD",09-01-2024 09:00:00,28.5918245,77.2273074,CO,72,112,80
India,Delhi,Delhi,"Major Dhyan Chand National Stadium, Delhi - DPCC",09-01-2024 09:00:00,28.611281,77.237738,SO2,14,20,17
India,Delhi,Delhi,"Mandir Marg, Delhi - DPCC",09-01-2024 09:00:00,28.636429,77.201067,PM10,181,465,343
India,Delhi,Delhi,"Mandir Marg, Delhi - DPCC",09-01-2024 09:00:00,28.636429,77.201067,NO2,55,81,64
India,Delhi,Delhi,"Mundka, Delhi - DPCC",09-01-2024 09:00:00,28.684678,77.076574,PM10,191,424,328
India,Delhi,Delhi,"NSIT Dwarka, Delhi - CPCB",09-01-2024 09:00:00,28.60909,77.0325413,CO,6,105,31
India,Delhi,Delhi,"Najafgarh, Delhi - DPCC",09-01-2024 09:00:00,28.570173,76.933762,NO2,19,55,39
India,Delhi,Delhi,"Najafgarh, Delhi - DPCC",09-01-2024 09:00:00,28.570173,76.933762,SO2,4,10,7
India,Delhi,Delhi,"New Moti Bagh, Delhi - MHUA",09-01-2024 09:00:00,28.57834,77.18400,NO2,1,11,6
India,Delhi,Delhi,"Okhla Phase-2, Delhi - DPCC",09-01-2024 09:00:00,28.530785,77.271255,PM2.5,322,500,415
India,Delhi,Delhi,"Okhla Phase-2, Delhi - DPCC",09-01-2024 09:00:00,28.530785,77.271255,PM10,199,500,387
India,Delhi,Delhi,"Patparganj, Delhi - DPCC",09-01-2024 09:00:00,28.623763,77.287209,PM2.5,315,500,414
India,Delhi,Delhi,"Patparganj, Delhi - DPCC",09-01-2024 09:00:00,28.623763,77.287209,CO,6,112,25
India,Delhi,Delhi,"Punjabi Bagh, Delhi - DPCC",09-01-2024 09:00:00,28.674045,77.131023,PM2.5,313,488,403
India,Delhi,Delhi,"Punjabi Bagh, Delhi - DPCC",09-01-2024 09:00:00,28.674045,77.131023,OZONE,7,19,8
India,Delhi,Delhi,"Pusa, Delhi - DPCC",09-01-2024 09:00:00,28.639652,77.146275,NH3,2,3,2
India,Delhi,Delhi,"Pusa, Delhi - DPCC",09-01-2024 09:00:00,28.639652,77.146275,SO2,6,18,11
India,Delhi,Delhi,"Pusa, Delhi - IMD",09-01-2024 09:00:00,28.636110,77.173332,PM2.5,137,435,323
India,Delhi,Delhi,"Pusa, Delhi - IMD",09-01-2024 09:00:00,28.636110,77.173332,PM10,153,411,267
India,Delhi,Delhi,"Pusa, Delhi - IMD",09-01-2024 09:00:00,28.636110,77.173332,CO,52,101,64
India,Delhi,Delhi,"Pusa, Delhi - IMD",09-01-2024 09:00:00,28.636110,77.173332,OZONE,26,35,27
India,Delhi,Delhi,"Shadipur, Delhi - CPCB",09-01-2024 09:00:00,28.6514781,77.1473105,PM10,193,493,366
India,Delhi,Delhi,"Shadipur, Delhi - CPCB",09-01-2024 09:00:00,28.6514781,77.1473105,OZONE,14,32,22
India,Delhi,Delhi,"Sirifort, Delhi - CPCB",09-01-2024 09:00:00,28.5504249,77.2159377,NO2,26,168,132
India,Delhi,Delhi,"Sirifort, Delhi - CPCB",09-01-2024 09:00:00,28.5504249,77.2159377,NH3,3,12,9
India,Delhi,Delhi,"Sirifort, Delhi - CPCB",09-01-2024 09:00:00,28.5504249,77.2159377,OZONE,13,38,17
India,Delhi,Delhi,"Sonia Vihar, Delhi - DPCC",09-01-2024 09:00:00,28.710508,77.249485,NO2,39,70,54
India,Delhi,Delhi,"Sonia Vihar, Delhi - DPCC",09-01-2024 09:00:00,28.710508,77.249485,OZONE,4,39,8
India,Delhi,Delhi,"Sri Aurobindo Marg, Delhi - DPCC",09-01-2024 09:00:00,28.531346,77.190156,PM10,198,436,363
India,Delhi,Delhi,"Vivek Vihar, Delhi - DPCC",09-01-2024 09:00:00,28.672342,77.315260,NO2,45,113,75
India,Delhi,Delhi,"Vivek Vihar, Delhi - DPCC",09-01-2024 09:00:00,28.672342,77.315260,CO,30,123,42
India,Gujarat,Ahmedabad,"Chandkheda, Ahmedabad - IITM",09-01-2024 09:00:00,23.107969,72.574648,PM2.5,68,191,110
India,Gujarat,Ahmedabad,"Chandkheda, Ahmedabad - IITM",09-01-2024 09:00:00,23.107969,72.574648,CO,2,76,25
India,Gujarat,Ahmedabad,"Gyaspur, Ahmedabad - IITM",09-01-2024 09:00:00,22.977134,72.553024,PM2.5,87,302,142
India,Gujarat,Ahmedabad,"Rakhial, Ahmedabad - IITM",09-01-2024 09:00:00,23.016834,72.625775,PM2.5,72,273,151
India,Gujarat,Ahmedabad,"Rakhial, Ahmedabad - IITM",09-01-2024 09:00:00,23.016834,72.625775,SO2,1,5,3
India,Gujarat,Ahmedabad,"SAC ISRO Bopal, Ahmedabad - IITM",09-01-2024 09:00:00,23.041137,72.456691,PM10,77,155,115
India,Gujarat,Ahmedabad,"SAC ISRO Bopal, Ahmedabad - IITM",09-01-2024 09:00:00,23.041137,72.456691,OZONE,9,12,9
India,Gujarat,Ahmedabad,"SAC ISRO Satellite, Ahmedabad - IITM",09-01-2024 09:00:00,23.023389,72.515201,NH3,2,4,3
India,Gujarat,Ahmedabad,"SVPI Airport Hansol, Ahmedabad - IITM",09-01-2024 09:00:00,23.076793,72.627874,OZONE,4,18,6
India,Gujarat,Ankleshwar,"GIDC, Ankleshwar - GPCB",09-01-2024 09:00:00,21.613267,73.010555,PM10,86,117,99
India,Gujarat,Ankleshwar,"GIDC, Ankleshwar - GPCB",09-01-2024 09:00:00,21.613267,73.010555,NO2,33,37,34
India,Gujarat,Gandhinagar,"GIFT City, Gandhinagar - IITM",09-01-2024 09:00:00,23.163798,72.677768,PM2.5,93,198,129
India,Gujarat,Gandhinagar,"GIFT City, Gandhinagar - IITM",09-01-2024 09:00:00,23.163798,72.677768,CO,18,34,31
India,Gujarat,Gandhinagar,"IIPHG Lekawada, Gandhinagar - IITM",09-01-2024 09:00:00,23.243639,72.68994,CO,23,40,31
India,Gujarat,Gandhinagar,"Sector-10, Gandhinagar - GPCB",09-01-2024 09:00:00,23.221714,72.654328,PM2.5,35,64,50
India,Gujarat,Gandhinagar,"Sector-10, Gandhinagar - GPCB",09-01-2024 09:00:00,23.221714,72.654328,OZONE,1,36,4
India,Gujarat,Surat,"Science Center, Surat - SMC",09-01-2024 09:00:00,21.170046,72.795405,SO2,12,16,15
India,Gujarat,Vapi,"Phase-1 GIDC, Vapi - GPCB",09-01-2024 09:00:00,20.362421,72.918013,OZONE,1,3,1
India,Gujarat,Vatva,"Phase-4 GIDC, Vatva - GPCB",09-01-2024 09:00:00,22.969611,72.643500,PM10,67,122,93
India,Gujarat,Vatva,"Phase-4 GIDC, Vatva - GPCB",09-01-2024 09:00:00,22.969611,72.643500,NO2,10,63,26
India,Haryana,Ambala,"Patti Mehar, Ambala - HSPCB",09-01-2024 09:00:00,30.379589,76.778328,PM10,25,131,81
India,Haryana,Ambala,"Patti Mehar, Ambala - HSPCB",09-01-2024 09:00:00,30.379589,76.778328,NO2,7,21,14
India,Haryana,Ambala,"Patti Mehar, Ambala - HSPCB",09-01-2024 09:00:00,30.379589,76.778328,CO,30,60,50
India,Haryana,Bahadurgarh,"Arya Nagar, Bahadurgarh - HSPCB",09-01-2024 09:00:00,28.6701,76.9254,NH3,11,12,12
India,Haryana,Bahadurgarh,"Arya Nagar, Bahadurgarh - HSPCB",09-01-2024 09:00:00,28.6701,76.9254,CO,38,56,47
India,Haryana,Ballabgarh,"Nathu Colony, Ballabgarh - HSPCB",09-01-2024 09:00:00,28.3419248,77.319699,SO2,1,26,14
India,Haryana,Charkhi Dadri,"Mini Secretariat, Charkhi Dadri - HSPCB",09-01-2024 09:00:00,28.593883,76.270653,OZONE,13,18,16
India,Haryana,Dharuhera,"Municipal Corporation Office, Dharuhera -  HSPCB",09-01-2024 09:00:00,28.206800,76.799700,NH3,9,26,20
India,Haryana,Faridabad,"New Industrial Town, Faridabad - HSPCB",09-01-2024 09:00:00,28.39072,77.30059,OZONE,30,127,49
India,Haryana,Faridabad,"Sector 30, Faridabad - HSPCB",09-01-2024 09:00:00,28.4417,77.3217,PM10,137,154,144
India,Haryana,Faridabad,"Sector 30, Faridabad - HSPCB",09-01-2024 09:00:00,28.4417,77.3217,NH3,14,14,14
India,Haryana,Faridabad,"Sector 30, Faridabad - HSPCB",09-01-2024 09:00:00,28.4417,77.3217,SO2,3,59,8
India,Haryana,Faridabad,"Sector 30, Faridabad - HSPCB",09-01-2024 09:00:00,28.4417,77.3217,OZONE,3,8,3
India,Haryana,Faridabad,"Sector- 16A, Faridabad - HSPCB",09-01-2024 09:00:00,28.4088421,77.3099081,PM2.5,288,461,369
India,Haryana,Faridabad,"Sector- 16A, Faridabad - HSPCB",09-01-2024 09:00:00,28.4088421,77.3099081,CO,14,80,40
India,Haryana,Faridabad,"Sector- 16A, Faridabad - HSPCB",09-01-2024 09:00:00,28.4088421,77.3099081,OZONE,14,14,14
India,Haryana,Fatehabad,"Huda Sector, Fatehabad - HSPCB",09-01-2024 09:00:00,29.503664,75.467934,CO,6,12,9
India,Haryana,Gurugram,"Sector-51, Gurugram - HSPCB",09-01-2024 09:00:00,28.4227,77.0667,PM2.5,114,421,301
India,Haryana,Gurugram,"Sector-51, Gurugram - HSPCB",09-01-2024 09:00:00,28.4227,77.0667,SO2,2,4,3
India,Haryana,Gurugram,"Sector-51, Gurugram - HSPCB",09-01-2024 09:00:00,28.4227,77.0667,CO,68,112,90
India,Haryana,Gurugram,"Teri Gram, Gurugram - HSPCB",09-01-2024 09:00:00,28.4275,77.1465,OZONE,8,18,10
India,Haryana,Gurugram,"Vikas Sadan, Gurugram - HSPCB",09-01-2024 09:00:00,28.4501238,77.0263051,NO2,5,25,14
India,Haryana,Gurugram,"Vikas Sadan, Gurugram - HSPCB",09-01-2024 09:00:00,28.4501238,77.0263051,CO,54,138,99
India,Haryana,Hisar,"Urban Estate-II, Hisar - HSPCB",09-01-2024 09:00:00,29.140560,75.744941,CO,101,106,102
India,Haryana,Kaithal,"Rishi Nagar, Kaithal - HSPCB",09-01-2024 09:00:00,29.8006,76.4155,NH3,7,8,8
India,Haryana,Karnal,"Sector-12, Karnal - HSPCB",09-01-2024 09:00:00,29.695300,77.002700,PM2.5,29,136,74
India,Haryana,Karnal,"Sector-12, Karnal - HSPCB",09-01-2024 09:00:00,29.695300,77.002700,OZONE,32,33,32
India,Haryana,Kurukshetra,"Sector-7, Kurukshetra - HSPCB",09-01-2024 09:00:00,29.966942,76.875879,CO,1,38,8
India,Haryana,Mandikhera,"General Hospital, Mandikhera - HSPCB",09-01-2024 09:00:00,27.9002,76.9938,CO,48,60,53
India,Haryana,Palwal,"Shyam Nagar, Palwal - HSPCB",09-01-2024 09:00:00,28.1485564,77.3320667,PM2.5,NA,NA,NA
India,Haryana,Palwal,"Shyam Nagar, Palwal - HSPCB",09-01-2024 09:00:00,28.1485564,77.3320667,OZONE,1,6,1
India,Haryana,Panchkula,"Sector-6, Panchkula - HSPCB ",09-01-2024 09:00:00,30.7057778,76.8531805555555,PM2.5,51,321,202
India,Haryana,Panchkula,"Sector-6, Panchkula - HSPCB ",09-01-2024 09:00:00,30.7057778,76.8531805555555,OZONE,42,61,50
India,Haryana,Sirsa,"F-Block, Sirsa - HSPCB",09-01-2024 09:00:00,29.536400,75.015800,NH3,12,13,13
India,Haryana,Sonipat,"Murthal, Sonipat - HSPCB",09-01-2024 09:00:00,29.027200,77.062100,CO,20,32,26
India,Himachal Pradesh,Baddi,"HIMUDA Complex Phase-1, Baddi - HPPCB",09-01-2024 09:00:00,30.943887,76.801991,CO,44,86,54
India,Himachal Pradesh,Baddi,"HIMUDA Complex Phase-1, Baddi - HPPCB",09-01-2024 09:00:00,30.943887,76.801991,OZONE,9,47,12
India,Jharkhand,Dhanbad,"Kalakusuma, Dhanbad - DMC",09-01-2024 09:00:00,23.811548,86.481238,CO,102,114,105
India,Jharkhand,Pathardih,"Mohalbani Ghat, Pathardih - DMC",09-01-2024 09:00:00,23.669880,86.411725,NO2,NA,NA,NA
India,Jharkhand,Pathardih,"Mohalbani Ghat, Pathardih - DMC",09-01-2024 09:00:00,23.669880,86.411725,CO,NA,NA,NA
India,Karnataka,Belgaum,"Ramteerth Nagar, Belgaum - KSPCB",09-01-2024 09:00:00,15.888653,74.541751,OZONE,19,27,19
India,Karnataka,Bengaluru,"BTM Layout, Bengaluru - CPCB",09-01-2024 09:00:00,12.9135218,77.5950804,SO2,NA,NA,NA
India,Karnataka,Bengaluru,"BTM Layout, Bengaluru - CPCB",09-01-2024 09:00:00,12.9135218,77.5950804,CO,NA,NA,NA
India,Karnataka,Bengaluru,"Bapuji Nagar, Bengaluru - KSPCB",09-01-2024 09:00:00,12.951913,77.539784,NO2,9,12,10
India,Karnataka,Bengaluru,"Bapuji Nagar, Bengaluru - KSPCB",09-01-2024 09:00:00,12.951913,77.539784,OZONE,11,12,11
India,Karnataka,Bengaluru,"Hebbal, Bengaluru - KSPCB",09-01-2024 09:00:00,13.029152,77.585901,PM10,19,68,40
India,Karnataka,Bengaluru,"Hebbal, Bengaluru - KSPCB",09-01-2024 09:00:00,13.029152,77.585901,OZONE,7,12,7
India,Karnataka,Bengaluru,"Jayanagar 5th Block, Bengaluru - KSPCB",09-01-2024 09:00:00,12.920984,77.584908,NO2,10,14,12
India,Karnataka,Bengaluru,"Jayanagar 5th Block, Bengaluru - KSPCB",09-01-2024 09:00:00,12.920984,77.584908,CO,4,46,9
India,Karnataka,Bengaluru,"Jigani, Bengaluru - KSPCB",09-01-2024 09:00:00,12.7816279,77.6299145,SO2,6,11,9
India,Karnataka,Bengaluru,"Jigani, Bengaluru - KSPCB",09-01-2024 09:00:00,12.7816279,77.6299145,CO,38,58,45
India,Karnataka,Bengaluru,"Kasturi Nagar, Bengaluru - KSPCB",09-01-2024 09:00:00,13.003872,77.664217,PM2.5,33,78,47
India,Karnataka,Bengaluru,"Peenya, Bengaluru - CPCB",09-01-2024 09:00:00,13.0270199,77.494094,NH3,1,2,1
India,Karnataka,Bengaluru,"RVCE-Mailasandra, Bengaluru - KSPCB",09-01-2024 09:00:00,12.921418,77.502466,SO2,4,4,4
India,Karnataka,Bengaluru,"Silk Board, Bengaluru - KSPCB",09-01-2024 09:00:00,12.917348,77.622813,PM10,13,74,40
India,Karnataka,Bengaluru,"Silk Board, Bengaluru - KSPCB",09-01-2024 09:00:00,12.917348,77.622813,CO,4,22,14
India,Karnataka,Bidar,"Naubad, Bidar - KSPCB",09-01-2024 09:00:00,17.930306,77.482194,NO2,7,8,8
India,Karnataka,Chikkaballapur,"Chikkaballapur Rural, Chikkaballapur - KSPCB",09-01-2024 09:00:00,13.428828,77.731418,NO2,7,11,8
India,Karnataka,Chikkaballapur,"Chikkaballapur Rural, Chikkaballapur - KSPCB",09-01-2024 09:00:00,13.428828,77.731418,NH3,1,1,1
India,Karnataka,Chikkaballapur,"Chikkaballapur Rural, Chikkaballapur - KSPCB",09-01-2024 09:00:00,13.428828,77.731418,SO2,18,25,21
India,Karnataka,Chikkaballapur,"Chikkaballapur Rural, Chikkaballapur - KSPCB",09-01-2024 09:00:00,13.428828,77.731418,OZONE,24,25,25
India,Karnataka,Chikkamagaluru,"Kalyana Nagara, Chikkamagaluru - KSPCB",09-01-2024 09:00:00,13.328028,75.797056,PM2.5,6,40,21
India,Karnataka,Chikkamagaluru,"Kalyana Nagara, Chikkamagaluru - KSPCB",09-01-2024 09:00:00,13.328028,75.797056,NH3,2,5,3
India,Karnataka,Chikkamagaluru,"Kalyana Nagara, Chikkamagaluru - KSPCB",09-01-2024 09:00:00,13.328028,75.797056,OZONE,12,28,16
India,Karnataka,Davanagere,"Devaraj Urs Badavane, Davanagere - KSPCB",09-01-2024 09:00:00,14.475800,75.905200,NH3,1,1,1
India,Karnataka,Dharwad,"Kalabhavan, Dharwad - KSPCB",09-01-2024 09:00:00,15.459706,75.008381,NO2,12,23,17
India,Karnataka,Dharwad,"Kalabhavan, Dharwad - KSPCB",09-01-2024 09:00:00,15.459706,75.008381,OZONE,2,26,10
India,Karnataka,Gadag,"Panchal Nagar, Gadag - KSPCB",09-01-2024 09:00:00,15.411456,75.638133,PM10,33,65,46
India,Karnataka,Hassan,"B.Katihalli, Hassan - KSPCB",09-01-2024 09:00:00,13.008556,76.125258,PM2.5,10,53,29
India,Karnataka,Hassan,"B.Katihalli, Hassan - KSPCB",09-01-2024 09:00:00,13.008556,76.125258,PM10,14,61,31
India,Karnataka,Haveri,"Ashwini Nagar, Haveri - KSPCB",09-01-2024 09:00:00,14.791800,75.389600,NO2,20,145,37
India,Karnataka,Hubballi,"Deshpande Nagar, Hubballi - KSPCB",09-01-2024 09:00:00,15.351773,75.140726,PM2.5,14,67,41
India,Karnataka,Kalaburagi,"Lal Bahadur Shastri Nagar, Kalaburagi - KSPCB",09-01-2024 09:00:00,17.321993,76.822628,SO2,16,18,17
India,Karnataka,Kalaburagi,"Mahatma Basaveswar Colony, Kalaburgi - KSPCB",09-01-2024 09:00:00,17.336318,76.847397,PM10,22,110,48
India,Karnataka,Kalaburagi,"Mahatma Basaveswar Colony, Kalaburgi - KSPCB",09-01-2024 09:00:00,17.336318,76.847397,OZONE,16,29,22
India,Karnataka,Karwar,"KHB Colony, Karwar - KSPCB",09-01-2024 09:00:00,14.816666,74.141003,PM2.5,33,143,67
India,Karnataka,Kolar,"Tamaka Ind. Area, Kolar - KSPCB",09-01-2024 09:00:00,13.1276288,78.1570122,NH3,5,6,6
India,Karnataka,Koppal,"Diwator Nagar, Koppal - KSPCB",09-01-2024 09:00:00,15.347630,76.181767,NO2,NA,NA,NA
India,Karnataka,Madikeri,"Stuart Hill, Madikeri - KSPCB",09-01-2024 09:00:00,12.415911,75.735050,CO,2,34,13
India,Karnataka,Mangalore,"Kadri, Mangalore - KSPCB",09-01-2024 09:00:00,12.889250,74.853000,PM2.5,7,86,32
India,Karnataka,Mangalore,"Kadri, Mangalore - KSPCB",09-01-2024 09:00:00,12.889250,74.853000,CO,41,55,43
India,Karnataka,Mysuru,"Hebbal 1st Stage, Mysuru - KSPCB",09-01-2024 09:00:00,12.21041,76.37376,NO2,7,53,28
India,Karnataka,Ramanagara,"Vijay Nagar, Ramanagara - KSPCB",09-01-2024 09:00:00,12.733409,77.298051,PM2.5,3,78,23
India,Karnataka,Ramanagara,"Vijay Nagar, Ramanagara - KSPCB",09-01-2024 09:00:00,12.733409,77.298051,PM10,11,53,25
India,Karnataka,Shivamogga,"Vinoba Nagara, Shivamogga - KSPCB",09-01-2024 09:00:00,13.940000,75.555917,OZONE,17,38,18
India,Karnataka,Tumakuru,"Thimmalapura, Tumakuru - KSPCB",09-01-2024 09:00:00,13.377516,77.099072,NO2,NA,NA,NA
India,Karnataka,Vijayapura,"Ibrahimpur, Vijayapura - KSPCB",09-01-2024 09:00:00,16.802639,75.722694,SO2,1,4,2
India,Karnataka,Yadgir,"Collector Office, Yadgir - KSPCB",09-01-2024 09:00:00,16.7602,77.1428,PM2.5,38,88,67
India,Karnataka,Yadgir,"Collector Office, Yadgir - KSPCB",09-01-2024 09:00:00,16.7602,77.1428,NH3,NA,NA,NA
India,Karnataka,Yadgir,"Collector Office, Yadgir - KSPCB",09-01-2024 09:00:00,16.7602,77.1428,OZONE,18,19,19
India,Kerala,Eloor,"Udyogamandal, Eloor - Kerala PCB",09-01-2024 09:00:00,10.073232,76.302765,NO2,NA,NA,NA
India,Kerala,Kannur,"Thavakkara, Kannur - Kerala PCB",09-01-2024 09:00:00,11.875000,75.373200,PM2.5,NA,NA,NA
India,Kerala,Kannur,"Thavakkara, Kannur - Kerala PCB",09-01-2024 09:00:00,11.875000,75.373200,NO2,NA,NA,NA
India,Kerala,Thiruvananthapuram,"Kariavattom, Thiruvananthapuram - Kerala PCB",09-01-2024 09:00:00,8.563700,76.886500,NH3,1,1,1
India,Kerala,Thiruvananthapuram,"Kariavattom, Thiruvananthapuram - Kerala PCB",09-01-2024 09:00:00,8.563700,76.886500,CO,6,38,17
India,Kerala,Thiruvananthapuram,"Plammoodu, Thiruvananthapuram - Kerala PCB",09-01-2024 09:00:00,8.5149093,76.9435879,PM2.5,NA,NA,NA
India,Kerala,Thiruvananthapuram,"Plammoodu, Thiruvananthapuram - Kerala PCB",09-01-2024 09:00:00,8.5149093,76.9435879,PM10,NA,NA,NA
India,Kerala,Thiruvananthapuram,"Plammoodu, Thiruvananthapuram - Kerala PCB",09-01-2024 09:00:00,8.5149093,76.9435879,OZONE,7,26,12
India,Kerala,Thrissur,"Corporation Ground, Thrissur - Kerala PCB",09-01-2024 09:00:00,10.532400,76.215900,PM2.5,NA,NA,NA
India,Madhya Pradesh,Bhopal,"Idgah Hills, Bhopal - MPPCB",09-01-2024 09:00:00,23.264759,77.381568,PM10,149,249,183
India,Madhya Pradesh,Bhopal,"Idgah Hills, Bhopal - MPPCB",09-01-2024 09:00:00,23.264759,77.381568,NH3,4,6,5
India,Madhya Pradesh,Bhopal,"Paryavaran Parisar, Bhopal - MPPCB",09-01-2024 09:00:00,23.210494,77.425409,PM10,113,197,148
India,Madhya Pradesh,Bhopal,"T T Nagar, Bhopal - MPPCB",09-01-2024 09:00:00,23.233584,77.400574,PM10,122,222,152
India,Madhya Pradesh,Bhopal,"T T Nagar, Bhopal - MPPCB",09-01-2024 09:00:00,23.233584,77.400574,SO2,9,47,25
India,Madhya Pradesh,Damoh,"Shrivastav Colony, Damoh - MPPCB",09-01-2024 09:00:00,23.81748678,79.446246,PM10,28,106,70
India,Madhya Pradesh,Damoh,"Shrivastav Colony, Damoh - MPPCB",09-01-2024 09:00:00,23.81748678,79.446246,NO2,6,8,7
India,Madhya Pradesh,Dewas,"Bhopal Chauraha, Dewas - MPPCB",09-01-2024 09:00:00,22.9682591,76.064118,PM10,65,169,114
India,Madhya Pradesh,Dewas,"Bhopal Chauraha, Dewas - MPPCB",09-01-2024 09:00:00,22.9682591,76.064118,CO,30,54,37
India,Madhya Pradesh,Gwalior,"City Center, Gwalior - MPPCB",09-01-2024 09:00:00,26.203442,78.193251,NO2,25,48,34
India,Madhya Pradesh,Gwalior,"City Center, Gwalior - MPPCB",09-01-2024 09:00:00,26.203442,78.193251,NH3,6,10,9
India,Madhya Pradesh,Gwalior,"Maharaj Bada, Gwalior - MPPCB",09-01-2024 09:00:00,26.200388,78.147714,NO2,18,110,51
India,Madhya Pradesh,Indore,"Chhoti Gwaltoli, Indore - MPPCB",09-01-2024 09:00:00,22.4310,75.5213,CO,62,118,79
India,Madhya Pradesh,Indore,"Chhoti Gwaltoli, Indore - MPPCB",09-01-2024 09:00:00,22.4310,75.5213,OZONE,14,115,37
India,Madhya Pradesh,Indore,"Maguda Nagar, Indore - IMC",09-01-2024 09:00:00,22.7524,75.8872,PM2.5,82,301,137
India,Madhya Pradesh,Indore,"Maguda Nagar, Indore - IMC",09-01-2024 09:00:00,22.7524,75.8872,NH3,2,3,2
India,Madhya Pradesh,Indore,"Residency Area, Indore - IMC",09-01-2024 09:00:00,22.7084,75.8815,SO2,16,51,28
India,Madhya Pradesh,Indore,"Residency Area, Indore - IMC",09-01-2024 09:00:00,22.7084,75.8815,CO,11,18,14
India,Madhya Pradesh,Jabalpur,"Govindh Bhavan Colony, Jabalpur - JMC",09-01-2024 09:00:00,23.163174,79.973061,OZONE,6,80,8
India,Madhya Pradesh,Jabalpur,"Gupteshwar, Jabalpur - JMC",09-01-2024 09:00:00,23.142888,79.916147,SO2,1,10,6
India,Madhya Pradesh,Jabalpur,"Gupteshwar, Jabalpur - JMC",09-01-2024 09:00:00,23.142888,79.916147,CO,52,101,65
India,Madhya Pradesh,Jabalpur,"Marhatal, Jabalpur - MPPCB",09-01-2024 09:00:00,23.168606,79.932247,CO,24,78,38
India,Madhya Pradesh,Jabalpur,"Suhagi, Jabalpur - JMC",09-01-2024 09:00:00,23.218135,79.957770,NO2,47,91,56
India,Madhya Pradesh,Jabalpur,"Suhagi, Jabalpur - JMC",09-01-2024 09:00:00,23.218135,79.957770,CO,40,105,49
India,Madhya Pradesh,Katni,"Gole Bazar, Katni - MPPCB",09-01-2024 09:00:00,23.50016,80.23284,PM2.5,47,280,133
India,Madhya Pradesh,Katni,"Gole Bazar, Katni - MPPCB",09-01-2024 09:00:00,23.50016,80.23284,SO2,3,28,14
India,Madhya Pradesh,Maihar,"Sahilara, Maihar - KJS Cements",09-01-2024 09:00:00,24.2613009,80.7231783,PM2.5,59,113,89
India,Madhya Pradesh,Maihar,"Sahilara, Maihar - KJS Cements",09-01-2024 09:00:00,24.2613009,80.7231783,SO2,11,14,12
India,Madhya Pradesh,Mandideep,"Sector-D Industrial Area, Mandideep - MPPCB",09-01-2024 09:00:00,23.108440,77.511428,NH3,5,9,7
India,Madhya Pradesh,Mandideep,"Sector-D Industrial Area, Mandideep - MPPCB",09-01-2024 09:00:00,23.108440,77.511428,CO,36,102,51
India,Madhya Pradesh,Mandideep,"Sector-D Industrial Area, Mandideep - MPPCB",09-01-2024 09:00:00,23.108440,77.511428,OZONE,15,43,20
India,Madhya Pradesh,Pithampur,"Sector-2 Industrial Area, Pithampur - MPPCB",09-01-2024 09:00:00,22.624758,75.675238,NO2,7,34,17
India,Madhya Pradesh,Pithampur,"Sector-2 Industrial Area, Pithampur - MPPCB",09-01-2024 09:00:00,22.624758,75.675238,SO2,11,17,13
India,Madhya Pradesh,Sagar,"Civil Lines, Sagar - MPPCB",09-01-2024 09:00:00,23.838586,78.759431,PM2.5,98,332,251
India,Madhya Pradesh,Sagar,"Civil Lines, Sagar - MPPCB",09-01-2024 09:00:00,23.838586,78.759431,PM10,122,212,164
India,Madhya Pradesh,Sagar,"Civil Lines, Sagar - MPPCB",09-01-2024 09:00:00,23.838586,78.759431,SO2,1,6,4
India,Madhya Pradesh,Sagar,"Deen Dayal Nagar, Sagar - MPPCB",09-01-2024 09:00:00,23.8640158,78.80289321,PM10,38,173,98
India,Madhya Pradesh,Satna,"Bandhavgar Colony, Satna - Birla Cement",09-01-2024 09:00:00,24.58434363,80.8549414,SO2,2,6,4
India,Madhya Pradesh,Ujjain,"Mahakaleshwar Temple, Ujjain - MPPCB",09-01-2024 09:00:00,23.182719 ,75.768218 ,PM2.5,138,312,252
India,Madhya Pradesh,Ujjain,"Mahakaleshwar Temple, Ujjain - MPPCB",09-01-2024 09:00:00,23.182719 ,75.768218 ,SO2,6,26,13
India,Maharashtra,Ahmednagar,"Tarakpur, Ahmednagar - MPCB",09-01-2024 09:00:00,19.10122,74.73339,NH3,2,7,4
India,Maharashtra,Akola,"Ramdaspeth, Akola - MPCB",09-01-2024 09:00:00,20.719516,77.000253,CO,22,84,30
India,Maharashtra,Akola,"Ramdaspeth, Akola - MPCB",09-01-2024 09:00:00,20.719516,77.000253,OZONE,18,78,42
India,Maharashtra,Amravati,"Shri Shivaji Science College, Amaravati - MPCB",09-01-2024 09:00:00,20.939198,77.765701,PM2.5,133,234,172
India,Maharashtra,Amravati,"Shri Shivaji Science College, Amaravati - MPCB",09-01-2024 09:00:00,20.939198,77.765701,PM10,110,450,163
India,Maharashtra,Amravati,"Shri Shivaji Science College, Amaravati - MPCB",09-01-2024 09:00:00,20.939198,77.765701,OZONE,9,55,31
India,Maharashtra,Aurangabad,"MIDC Chilkalthana, Aurangabad - MPCB",09-01-2024 09:00:00,19.875620,75.387310,PM10,76,128,102
India,Maharashtra,Belapur,"CBD Belapur, Belapur - MPCB",09-01-2024 09:00:00,19.0243902,73.0406721,CO,20,68,51
India,Maharashtra,Bhiwandi,"Gokul Nagar, Bhiwandi - MPCB",09-01-2024 09:00:00,19.309073,73.057223,PM10,120,209,164
India,Maharashtra,Bhiwandi,"Gokul Nagar, Bhiwandi - MPCB",09-01-2024 09:00:00,19.309073,73.057223,NO2,39,115,72
India,Maharashtra,Bhiwandi,"Gokul Nagar, Bhiwandi - MPCB",09-01-2024 09:00:00,19.309073,73.057223,SO2,5,28,12
India,Maharashtra,Chandrapur,"Chauhan Colony, Chandrapur - MPCB",09-01-2024 09:00:00,19.962900,79.298714,SO2,4,60,15
India,Maharashtra,Chandrapur,"Chauhan Colony, Chandrapur - MPCB",09-01-2024 09:00:00,19.962900,79.298714,CO,3,112,5
India,Maharashtra,Chandrapur,"Chauhan Colony, Chandrapur - MPCB",09-01-2024 09:00:00,19.962900,79.298714,OZONE,9,21,13
India,Maharashtra,Dhule,"Deopur, Dhule - MPCB",09-01-2024 09:00:00,20.918946,74.776388,PM2.5,103,403,218
India,Maharashtra,Dhule,"Deopur, Dhule - MPCB",09-01-2024 09:00:00,20.918946,74.776388,NH3,1,10,5
India,Maharashtra,Dhule,"Deopur, Dhule - MPCB",09-01-2024 09:00:00,20.918946,74.776388,CO,28,89,36
India,Maharashtra,Jalgaon,"Prabhat Colony, Jalgaon - MPCB",09-01-2024 09:00:00,21.001264,75.565602,NH3,3,12,9
India,Maharashtra,Jalna,"Old MIDC, Jalna - MPCB",09-01-2024 09:00:00,19.854616,75.905894,SO2,3,5,4
India,Maharashtra,Jalna,"Old MIDC, Jalna - MPCB",09-01-2024 09:00:00,19.854616,75.905894,OZONE,9,69,18
India,Maharashtra,Kalyan,"Khadakpada, Kalyan - MPCB",09-01-2024 09:00:00,19.25292,73.142019,PM2.5,27,116,68
India,Maharashtra,Kolhapur,"Shivaji University, Kolhapur - MPCB",09-01-2024 09:00:00,16.6870449,74.2505872,PM2.5,70,97,86
India,Maharashtra,Latur,"Sawe Wadi, Latur - MPCB",09-01-2024 09:00:00,18.39963,76.57452,PM2.5,47,110,79
India,Maharashtra,Mahad,"Kamble Tarf Birwadi, Mahad - MPCB",09-01-2024 09:00:00,18.1023399,73.4783687,NO2,16,122,33
India,Maharashtra,Mahad,"Kamble Tarf Birwadi, Mahad - MPCB",09-01-2024 09:00:00,18.1023399,73.4783687,NH3,4,6,5
India,Maharashtra,Mahad,"Kamble Tarf Birwadi, Mahad - MPCB",09-01-2024 09:00:00,18.1023399,73.4783687,CO,12,56,25
India,Maharashtra,Malegaon,"Mahesh Nagar, Malegaon - MPCB",09-01-2024 09:00:00,20.555712,74.529236,CO,26,106,41
India,Maharashtra,Mira-Bhayandar,"Bhayandar West, Mira-Bhayandar - MPCB",09-01-2024 09:00:00,19.296481,72.840923,SO2,6,18,9
India,Maharashtra,Mira-Bhayandar,"Bhayandar West, Mira-Bhayandar - MPCB",09-01-2024 09:00:00,19.296481,72.840923,CO,16,66,50
India,Maharashtra,Mumbai,"Bandra Kurla Complex, Mumbai - MPCB",09-01-2024 09:00:00,19.065931,72.862131,NH3,8,22,17
India,Maharashtra,Mumbai,"Borivali East, Mumbai - IITM",09-01-2024 09:00:00,19.23241,72.86895,PM2.5,42,71,58
India,Maharashtra,Mumbai,"Borivali East, Mumbai - IITM",09-01-2024 09:00:00,19.23241,72.86895,PM10,33,92,66
India,Maharashtra,Mumbai,"Borivali East, Mumbai - IITM",09-01-2024 09:00:00,19.23241,72.86895,OZONE,4,167,8
India,Maharashtra,Mumbai,"Borivali East, Mumbai - MPCB",09-01-2024 09:00:00,19.2243333,72.8658113,CO,3,135,6
India,Maharashtra,Mumbai,"Chembur, Mumbai - MPCB",09-01-2024 09:00:00,19.0364585,72.8954371,NO2,16,114,70
India,Maharashtra,Mumbai,"Chembur, Mumbai - MPCB",09-01-2024 09:00:00,19.0364585,72.8954371,SO2,1,20,6
India,Maharashtra,Mumbai,"Chembur, Mumbai - MPCB",09-01-2024 09:00:00,19.0364585,72.8954371,CO,4,74,64
India,Maharashtra,Mumbai,"Chhatrapati Shivaji Intl. Airport (T2), Mumbai - MPCB",09-01-2024 09:00:00,19.10078,72.87462,PM10,43,119,96
India,Maharashtra,Mumbai,"Chhatrapati Shivaji Intl. Airport (T2), Mumbai - MPCB",09-01-2024 09:00:00,19.10078,72.87462,CO,45,101,94
India,Maharashtra,Mumbai,"Colaba, Mumbai - MPCB",09-01-2024 09:00:00,18.910000,72.820000,PM2.5,44,125,77
India,Maharashtra,Mumbai,"Colaba, Mumbai - MPCB",09-01-2024 09:00:00,18.910000,72.820000,NH3,1,1,1
India,Maharashtra,Mumbai,"Colaba, Mumbai - MPCB",09-01-2024 09:00:00,18.910000,72.820000,CO,10,26,17
India,Maharashtra,Mumbai,"Kurla, Mumbai - MPCB",09-01-2024 09:00:00,19.0863,72.8888,PM2.5,38,219,100
India,Maharashtra,Mumbai,"Kurla, Mumbai - MPCB",09-01-2024 09:00:00,19.0863,72.8888,NO2,19,46,29
India,Maharashtra,Mumbai,"Malad West, Mumbai - IITM",09-01-2024 09:00:00,19.19709,72.82204,SO2,1,22,9
India,Maharashtra,Mumbai,"Mindspace-Malad West, Mumbai - MPCB",09-01-2024 09:00:00,19.1878657,72.8304069,NO2,21,95,46
India,Maharashtra,Mumbai,"Mulund West, Mumbai - MPCB",09-01-2024 09:00:00,19.1750,72.9419,PM10,56,116,83
India,Maharashtra,Mumbai,"Mulund West, Mumbai - MPCB",09-01-2024 09:00:00,19.1750,72.9419,NO2,22,34,25
India,Maharashtra,Mumbai,"Navy Nagar-Colaba, Mumbai - IITM",09-01-2024 09:00:00,18.897756,72.813320,PM10,41,171,97
India,Maharashtra,Mumbai,"Powai, Mumbai - MPCB",09-01-2024 09:00:00,19.137500,72.915056,PM10,74,159,115
India,Maharashtra,Mumbai,"Powai, Mumbai - MPCB",09-01-2024 09:00:00,19.137500,72.915056,NH3,1,1,1
India,Maharashtra,Mumbai,"Powai, Mumbai - MPCB",09-01-2024 09:00:00,19.137500,72.915056,SO2,43,46,45
India,Maharashtra,Mumbai,"Sewri, Mumbai - BMC",09-01-2024 09:00:00,19.000084,72.856730,PM10,53,119,97
India,Maharashtra,Mumbai,"Sion, Mumbai - MPCB",09-01-2024 09:00:00,19.047000,72.874600,PM10,61,156,121
India,Maharashtra,Mumbai,"Vasai West, Mumbai - MPCB",09-01-2024 09:00:00,19.383200,72.820400,CO,30,48,41
India,Maharashtra,Mumbai,"Vile Parle West, Mumbai - MPCB",09-01-2024 09:00:00,19.10861,72.83622,PM2.5,29,124,75
India,Maharashtra,Mumbai,"Vile Parle West, Mumbai - MPCB",09-01-2024 09:00:00,19.10861,72.83622,OZONE,3,3,3
India,Maharashtra,Mumbai,"Worli, Mumbai - MPCB",09-01-2024 09:00:00,18.9936162,72.8128113,PM2.5,48,90,71
India,Maharashtra,Mumbai,"Worli, Mumbai - MPCB",09-01-2024 09:00:00,18.9936162,72.8128113,OZONE,6,9,8
India,Maharashtra,Nagpur,"Ambazari, Nagpur - MPCB",09-01-2024 09:00:00,21.121801,79.04952,PM2.5,84,185,119
India,Maharashtra,Nagpur,"Ambazari, Nagpur - MPCB",09-01-2024 09:00:00,21.121801,79.04952,NO2,27,126,57
India,Maharashtra,Nagpur,"Ambazari, Nagpur - MPCB",09-01-2024 09:00:00,21.121801,79.04952,NH3,2,14,5
India,Maharashtra,Nagpur,"Ambazari, Nagpur - MPCB",09-01-2024 09:00:00,21.121801,79.04952,CO,22,120,30
India,Maharashtra,Nagpur,"Opp GPO Civil Lines, Nagpur - MPCB",09-01-2024 09:00:00,21.152875,79.0517531,PM2.5,82,177,122
India,Maharashtra,Nagpur,"Opp GPO Civil Lines, Nagpur - MPCB",09-01-2024 09:00:00,21.152875,79.0517531,NO2,38,147,78
India,Maharashtra,Nagpur,"Ram Nagar, Nagpur - MPCB",09-01-2024 09:00:00,21.143383,79.048912,CO,24,97,53
India,Maharashtra,Nanded,"Sneh Nagar, Nanded - MPCB",09-01-2024 09:00:00,19.173852,77.296291,PM10,89,127,105
India,Maharashtra,Nanded,"Sneh Nagar, Nanded - MPCB",09-01-2024 09:00:00,19.173852,77.296291,NO2,33,148,70
India,Maharashtra,Nanded,"Sneh Nagar, Nanded - MPCB",09-01-2024 09:00:00,19.173852,77.296291,OZONE,22,65,47
India,Maharashtra,Nashik,"Gangapur Road, Nashik - MPCB",09-01-2024 09:00:00,20.0073285,73.7762427,SO2,1,5,3
India,Maharashtra,Navi Mumbai,"Kopripada-Vashi, Navi Mumbai - MPCB",09-01-2024 09:00:00,19.090337,73.014232,PM2.5,35,313,112
India,Maharashtra,Navi Mumbai,"Kopripada-Vashi, Navi Mumbai - MPCB",09-01-2024 09:00:00,19.090337,73.014232,NH3,5,43,15
India,Maharashtra,Navi Mumbai,"Mahape, Navi Mumbai - MPCB",09-01-2024 09:00:00,19.1135051,73.008978,PM2.5,34,87,71
India,Maharashtra,Navi Mumbai,"Mahape, Navi Mumbai - MPCB",09-01-2024 09:00:00,19.1135051,73.008978,NO2,38,39,38
India,Maharashtra,Navi Mumbai,"Mahape, Navi Mumbai - MPCB",09-01-2024 09:00:00,19.1135051,73.008978,CO,24,53,41
India,Maharashtra,Navi Mumbai,"Nerul, Navi Mumbai - MPCB",09-01-2024 09:00:00,19.008751,73.016620,SO2,17,21,20
India,Maharashtra,Navi Mumbai,"Sector-19A Nerul, Navi Mumbai - IITM",09-01-2024 09:00:00,19.044,73.0325,NO2,27,170,82
India,Maharashtra,Navi Mumbai,"Sector-19A Nerul, Navi Mumbai - IITM",09-01-2024 09:00:00,19.044,73.0325,SO2,11,46,24
India,Maharashtra,Navi Mumbai,"Sector-19A Nerul, Navi Mumbai - IITM",09-01-2024 09:00:00,19.044,73.0325,CO,18,110,82
India,Maharashtra,Navi Mumbai,"Sector-2E Kalamboli, Navi Mumbai - MPCB",09-01-2024 09:00:00,19.02579,73.10297,CO,8,95,55
India,Maharashtra,Navi Mumbai,"Sector-2E Kalamboli, Navi Mumbai - MPCB",09-01-2024 09:00:00,19.02579,73.10297,OZONE,1,77,2
India,Maharashtra,Navi Mumbai,"Tondare-Taloja, Navi Mumbai - MPCB",09-01-2024 09:00:00,19.0630,73.1209,SO2,8,49,31
India,Maharashtra,Navi Mumbai,"Tondare-Taloja, Navi Mumbai - MPCB",09-01-2024 09:00:00,19.0630,73.1209,OZONE,2,85,5
India,Maharashtra,Pimpri-Chinchwad,"Gavalinagar, Pimpri Chinchwad - MPCB",09-01-2024 09:00:00,18.63673,73.82487,PM10,55,206,131
India,Maharashtra,Pimpri-Chinchwad,"Park Street Wakad, Pimpri Chinchwad - MPCB",09-01-2024 09:00:00,18.59051,73.77946,PM2.5,164,306,234
India,Maharashtra,Pimpri-Chinchwad,"Park Street Wakad, Pimpri Chinchwad - MPCB",09-01-2024 09:00:00,18.59051,73.77946,OZONE,1,77,1
India,Maharashtra,Pimpri-Chinchwad,"Thergaon, Pimpri Chinchwad - MPCB",09-01-2024 09:00:00,18.616318,73.765797,PM2.5,105,257,180
India,Maharashtra,Pimpri-Chinchwad,"Thergaon, Pimpri Chinchwad - MPCB",09-01-2024 09:00:00,18.616318,73.765797,NH3,8,24,12
India,Maharashtra,Pimpri-Chinchwad,"Thergaon, Pimpri Chinchwad - MPCB",09-01-2024 09:00:00,18.616318,73.765797,CO,23,106,45
India,Maharashtra,Pune,"Karve Road, Pune - MPCB",09-01-2024 09:00:00,18.5011743,73.8165527,CO,44,62,56
India,Maharashtra,Pune,"Katraj Dairy, Pune - MPCB",09-01-2024 09:00:00,18.454450,73.854155,PM2.5,52,80,61
India,Maharashtra,Pune,"Katraj Dairy, Pune - MPCB",09-01-2024 09:00:00,18.454450,73.854155,NO2,20,37,26
India,Maharashtra,Pune,"Mhada Colony, Pune - IITM",09-01-2024 09:00:00,18.573040,73.927715,PM2.5,43,154,95
India,Maharashtra,Pune,"Mhada Colony, Pune - IITM",09-01-2024 09:00:00,18.573040,73.927715,NO2,49,90,69
India,Maharashtra,Pune,"Revenue Colony-Shivajinagar, Pune - IITM",09-01-2024 09:00:00,18.530085,73.849598,PM2.5,71,291,167
India,Maharashtra,Pune,"Revenue Colony-Shivajinagar, Pune - IITM",09-01-2024 09:00:00,18.530085,73.849598,NO2,131,225,181
India,Maharashtra,Pune,"Revenue Colony-Shivajinagar, Pune - IITM",09-01-2024 09:00:00,18.530085,73.849598,SO2,106,133,120
India,Maharashtra,Pune,"Revenue Colony-Shivajinagar, Pune - IITM",09-01-2024 09:00:00,18.530085,73.849598,CO,107,126,107
India,Maharashtra,Pune,"Savitribai Phule Pune University, Pune - MPCB",09-01-2024 09:00:00,18.547056,73.826908,PM2.5,41,161,111
India,Maharashtra,Pune,"Savitribai Phule Pune University, Pune - MPCB",09-01-2024 09:00:00,18.547056,73.826908,OZONE,NA,NA,NA
India,Maharashtra,Pune,"Transport Nagar-Nigdi, Pune - IITM",09-01-2024 09:00:00,18.664282,73.763966,PM2.5,33,205,104
India,Maharashtra,Pune,"Transport Nagar-Nigdi, Pune - IITM",09-01-2024 09:00:00,18.664282,73.763966,NO2,26,32,29
India,Maharashtra,Pune,"Transport Nagar-Nigdi, Pune - IITM",09-01-2024 09:00:00,18.664282,73.763966,OZONE,1,48,2
India,Maharashtra,Sangli,"Vijay Nagar, Sangli - MPCB",09-01-2024 09:00:00, 16.5038,74.3623,PM10,46,79,63
India,Maharashtra,Sangli,"Vijay Nagar, Sangli - MPCB",09-01-2024 09:00:00, 16.5038,74.3623,OZONE,11,48,17
India,Maharashtra,Solapur,"Dnyaneshwar Nagar, Solapur - MPCB",09-01-2024 09:00:00,17.6336264,75.9132495,PM2.5,28,113,77
India,Maharashtra,Solapur,"Dnyaneshwar Nagar, Solapur - MPCB",09-01-2024 09:00:00,17.6336264,75.9132495,NH3,13,30,22
India,Maharashtra,Solapur,"Solapur, Solapur - MPCB",09-01-2024 09:00:00,17.6599188,75.9063906,SO2,31,37,34
India,Maharashtra,Solapur,"Solapur, Solapur - MPCB",09-01-2024 09:00:00,17.6599188,75.9063906,OZONE,32,66,33
India,Maharashtra,Thane,"Kasarvadavali, Thane - MPCB",09-01-2024 09:00:00,19.26777,72.97182,PM10,NA,NA,NA
India,Maharashtra,Thane,"Kasarvadavali, Thane - MPCB",09-01-2024 09:00:00,19.26777,72.97182,OZONE,1,74,2
India,Maharashtra,Thane,"Upvan Fort, Thane - MPCB",09-01-2024 09:00:00,19.222279,72.957979,NO2,23,106,47
India,Maharashtra,Thane,"Upvan Fort, Thane - MPCB",09-01-2024 09:00:00,19.222279,72.957979,OZONE,12,175,27
India,Maharashtra,Ulhasnagar,"Sidhi Vinayak Nagar, Ulhasnagar - MPCB",09-01-2024 09:00:00,19.235581,73.159121,NO2,10,85,38
India,Maharashtra,Ulhasnagar,"Sidhi Vinayak Nagar, Ulhasnagar - MPCB",09-01-2024 09:00:00,19.235581,73.159121,SO2,6,84,21
India,Maharashtra,Virar,"Bolinj, Virar - MPCB",09-01-2024 09:00:00,19.4458210,72.7988231,NO2,16,79,34
India,Maharashtra,Virar,"Bolinj, Virar - MPCB",09-01-2024 09:00:00,19.4458210,72.7988231,OZONE,2,88,27
India,Manipur,Imphal,"DM College of Science, Imphal - Manipur PCB",09-01-2024 09:00:00,24.8207389,93.9423085,PM2.5,22,119,43
India,Manipur,Imphal,"DM College of Science, Imphal - Manipur PCB",09-01-2024 09:00:00,24.8207389,93.9423085,PM10,22,284,62
India,Manipur,Imphal,"DM College of Science, Imphal - Manipur PCB",09-01-2024 09:00:00,24.8207389,93.9423085,NH3,2,2,2
India,Manipur,Imphal,"DM College of Science, Imphal - Manipur PCB",09-01-2024 09:00:00,24.8207389,93.9423085,SO2,76,80,78
India,Manipur,Imphal,"Manipur University, Imphal - Manipur PCB",09-01-2024 09:00:00,24.7524239,93.9286218,NH3,NA,NA,NA
India,Manipur,Imphal,"Manipur University, Imphal - Manipur PCB",09-01-2024 09:00:00,24.7524239,93.9286218,SO2,51,63,61
India,Meghalaya,Shillong,"Lumpyngngad, Shillong - Meghalaya PCB",09-01-2024 09:00:00,25.5586,91.8985,NH3,1,1,1
India,Mizoram,Aizawl,"Sikulpuikawn, Aizawl - Mizoram PCB",09-01-2024 09:00:00,23.7176342,92.7192841,PM2.5,25,45,34
India,Nagaland,Kohima,"PWD Juction, Kohima - NPCB",09-01-2024 09:00:00,25.6635413,94.0989878,PM2.5,29,173,71
India,Nagaland,Kohima,"PWD Juction, Kohima - NPCB",09-01-2024 09:00:00,25.6635413,94.0989878,SO2,82,92,87
India,Odisha,Angul,"Hakimapada, Angul - OSPCB",09-01-2024 09:00:00,20.832874,85.104082,CO,10,123,76
India,Odisha,Balasore,"Kalidaspur, Balasore - OSPCB",09-01-2024 09:00:00,21.51161,86.89088,NO2,12,59,22
India,Odisha,Balasore,"Kalidaspur, Balasore - OSPCB",09-01-2024 09:00:00,21.51161,86.89088,SO2,20,63,35
India,Odisha,Barbil,"Forest Office, Barbil - OSPCB",09-01-2024 09:00:00,22.1166054,85.3945546,OZONE,3,119,7
India,Odisha,Bhubaneswar,"Lingraj Mandir, Bhubaneswar - OSPCB",09-01-2024 09:00:00,20.240790,85.836784,PM2.5,320,365,339
India,Odisha,Bhubaneswar,"Lingraj Mandir, Bhubaneswar - OSPCB",09-01-2024 09:00:00,20.240790,85.836784,NH3,3,5,4
India,Odisha,Bileipada,"Tata Township, Bileipada - OSPCB",09-01-2024 09:00:00,22.06156703,85.47409613,OZONE,10,20,12
India,Odisha,Brajrajnagar,"GM Office, Brajrajnagar - OSPCB",09-01-2024 09:00:00,21.8004996,83.8396977,NH3,1,2,2
India,Odisha,Byasanagar,"Ferro Chrome Colony, Byasanagar - OSPCB",09-01-2024 09:00:00,20.94185,86.11510,NO2,16,45,23
India,Odisha,Byasanagar,"Ferro Chrome Colony, Byasanagar - OSPCB",09-01-2024 09:00:00,20.94185,86.11510,NH3,3,4,3
India,Odisha,Byasanagar,"Ferro Chrome Colony, Byasanagar - OSPCB",09-01-2024 09:00:00,20.94185,86.11510,SO2,4,21,11
India,Odisha,Nayagarh,"Dabuna, Nayagarh - OSPCB",09-01-2024 09:00:00,21.847279,85.416905,PM2.5,174,307,265
India,Odisha,Nayagarh,"Dabuna, Nayagarh - OSPCB",09-01-2024 09:00:00,21.847279,85.416905,NO2,30,33,31
India,Odisha,Nayagarh,"Dabuna, Nayagarh - OSPCB",09-01-2024 09:00:00,21.847279,85.416905,NH3,4,5,4
India,Odisha,Nayagarh,"Dabuna, Nayagarh - OSPCB",09-01-2024 09:00:00,21.847279,85.416905,CO,34,40,39
India,Odisha,Rairangpur,"Divisional Forest Office, Rairangpur - OSPCB",09-01-2024 09:00:00,22.265816,86.174829,PM2.5,86,421,277
India,Odisha,Rairangpur,"Divisional Forest Office, Rairangpur - OSPCB",09-01-2024 09:00:00,22.265816,86.174829,PM10,91,408,176
India,Odisha,Rairangpur,"Divisional Forest Office, Rairangpur - OSPCB",09-01-2024 09:00:00,22.265816,86.174829,SO2,5,38,14
India,Odisha,Rourkela,"Raghunathpali, Rourkela - OSPCB",09-01-2024 09:00:00,22.220833,84.809444,CO,50,112,64
India,Odisha,Rourkela,"Raghunathpali, Rourkela - OSPCB",09-01-2024 09:00:00,22.220833,84.809444,OZONE,16,91,17
India,Odisha,Suakati,"OMC Colony, Suakati - OSPCB",09-01-2024 09:00:00,21.606865,85.510538,NO2,81,239,113
India,Odisha,Suakati,"OMC Colony, Suakati - OSPCB",09-01-2024 09:00:00,21.606865,85.510538,SO2,1,30,12
India,Odisha,Talcher,"Talcher Coalfields,Talcher - OSPCB",09-01-2024 09:00:00,20.9360711,85.1707021,PM2.5,68,500,287
India,Odisha,Talcher,"Talcher Coalfields,Talcher - OSPCB",09-01-2024 09:00:00,20.9360711,85.1707021,NO2,43,54,47
India,Odisha,Talcher,"Talcher Coalfields,Talcher - OSPCB",09-01-2024 09:00:00,20.9360711,85.1707021,SO2,20,106,38
India,Odisha,Tensa,"Barsua Iron Ore Mines, Tensa - OSPCB",09-01-2024 09:00:00,21.869985,85.167016,PM10,113,181,142
India,Puducherry,Puducherry,"Jawahar Nagar, Puducherry - PPCC",09-01-2024 09:00:00,11.9309,79.8027,OZONE,9,51,34
India,Punjab,Amritsar,"Golden Temple, Amritsar - PPCB",09-01-2024 09:00:00,31.620000,74.876512,PM2.5,123,274,192
India,Punjab,Amritsar,"Golden Temple, Amritsar - PPCB",09-01-2024 09:00:00,31.620000,74.876512,CO,22,26,24
India,Punjab,Bathinda,"Hardev Nagar, Bathinda - PPCB",09-01-2024 09:00:00,30.233011,74.907758,NO2,32,34,33
India,Punjab,Bathinda,"Hardev Nagar, Bathinda - PPCB",09-01-2024 09:00:00,30.233011,74.907758,CO,3,104,18
India,Punjab,Jalandhar,"Civil Line, Jalandhar - PPCB",09-01-2024 09:00:00,31.321907,75.578914,CO,50,75,57
India,Punjab,Khanna,"Kalal Majra, Khanna - PPCB",09-01-2024 09:00:00,30.736056 ,76.209694,SO2,10,21,16
India,Punjab,Ludhiana,"Punjab Agricultural University, Ludhiana - PPCB",09-01-2024 09:00:00,30.9028,75.8086,NO2,20,22,21
India,Punjab,Mandi Gobindgarh,"RIMT University, Mandi Gobindgarh - PPCB",09-01-2024 09:00:00,30.649961,76.331442,OZONE,37,42,41
India,Punjab,Patiala,"Model Town, Patiala - PPCB",09-01-2024 09:00:00,30.349388,76.366642,PM10,66,108,84
India,Punjab,Rupnagar,"Ratanpura, Rupnagar - Ambuja Cements",09-01-2024 09:00:00,31.0325454,76.5623046,PM10,62,181,102
India,Punjab,Rupnagar,"Ratanpura, Rupnagar - Ambuja Cements",09-01-2024 09:00:00,31.0325454,76.5623046,CO,60,101,81
India,Rajasthan,Ajmer,"Civil Lines,  Ajmer - RSPCB",09-01-2024 09:00:00,26.470859,74.646594,PM2.5,70,316,176
India,Rajasthan,Ajmer,"Civil Lines,  Ajmer - RSPCB",09-01-2024 09:00:00,26.470859,74.646594,NH3,28,49,37
India,Rajasthan,Ajmer,"Civil Lines,  Ajmer - RSPCB",09-01-2024 09:00:00,26.470859,74.646594,CO,21,57,28
India,Rajasthan,Alwar,"Moti Doongri, Alwar - RSPCB",09-01-2024 09:00:00,27.554793,76.611536,PM2.5,62,175,122
India,Rajasthan,Alwar,"Moti Doongri, Alwar - RSPCB",09-01-2024 09:00:00,27.554793,76.611536,SO2,6,33,19
India,Rajasthan,Banswara,"Rati Talai, Banswara - RSPCB",09-01-2024 09:00:00,23.555190,74.440010,NO2,34,59,44
India,Rajasthan,Banswara,"Rati Talai, Banswara - RSPCB",09-01-2024 09:00:00,23.555190,74.440010,SO2,23,41,31
India,Rajasthan,Baran,"Bamboliya, Baran - RSPCB",09-01-2024 09:00:00,25.106006,76.469948,NH3,3,12,5
India,Rajasthan,Baran,"Bamboliya, Baran - RSPCB",09-01-2024 09:00:00,25.106006,76.469948,SO2,4,16,6
India,Rajasthan,Baran,"Bamboliya, Baran - RSPCB",09-01-2024 09:00:00,25.106006,76.469948,OZONE,2,69,8
India,Rajasthan,Bharatpur,"Krishna Nagar, Bharatpur - RSPCB",09-01-2024 09:00:00,27.215415,77.50873,CO,46,102,55
India,Rajasthan,Bhilwara,"Pratap Nagar, Bhilwara - RSPCB",09-01-2024 09:00:00,25.339605,74.618883,NH3,4,12,6
India,Rajasthan,Bhiwadi,"RIICO Ind. Area III, Bhiwadi - RSPCB",09-01-2024 09:00:00,28.194909,76.862296,PM2.5,117,386,277
India,Rajasthan,Bhiwadi,"RIICO Ind. Area III, Bhiwadi - RSPCB",09-01-2024 09:00:00,28.194909,76.862296,NO2,21,45,28
India,Rajasthan,Bikaner,"MM Ground, Bikaner - RSPCB",09-01-2024 09:00:00,28.018792,73.292658,PM2.5,161,383,283
India,Rajasthan,Chittorgarh,"Shastri Nagar, Chittorgarh - RSPCB",09-01-2024 09:00:00,24.892047,74.623527,NO2,20,63,40
India,Rajasthan,Churu,"Subash Chowk, Churu - RSPCB",09-01-2024 09:00:00,28.296139,74.961696,PM2.5,92,326,216
India,Rajasthan,Churu,"Subash Chowk, Churu - RSPCB",09-01-2024 09:00:00,28.296139,74.961696,NO2,20,59,34
India,Rajasthan,Churu,"Subash Chowk, Churu - RSPCB",09-01-2024 09:00:00,28.296139,74.961696,NH3,9,16,12
India,Rajasthan,Dausa,"Khatikan Mohalla, Dausa - RSPCB",09-01-2024 09:00:00,26.895552,76.334753,PM10,99,197,168
India,Rajasthan,Dausa,"Khatikan Mohalla, Dausa - RSPCB",09-01-2024 09:00:00,26.895552,76.334753,NO2,14,46,24
India,Rajasthan,Dausa,"Khatikan Mohalla, Dausa - RSPCB",09-01-2024 09:00:00,26.895552,76.334753,SO2,7,8,8
India,Rajasthan,Dungarpur,"Bhoiwada, Dungarpur - RSPCB",09-01-2024 09:00:00,23.837789,73.714926,PM2.5,90,297,197
India,Rajasthan,Dungarpur,"Bhoiwada, Dungarpur - RSPCB",09-01-2024 09:00:00,23.837789,73.714926,NO2,18,28,22
India,Rajasthan,Dungarpur,"Bhoiwada, Dungarpur - RSPCB",09-01-2024 09:00:00,23.837789,73.714926,NH3,8,9,8
India,Rajasthan,Jaipur,"Adarsh Nagar, Jaipur - RSPCB",09-01-2024 09:00:00,26.902909,75.836858,PM2.5,119,329,274
India,Rajasthan,Jaipur,"Adarsh Nagar, Jaipur - RSPCB",09-01-2024 09:00:00,26.902909,75.836858,OZONE,11,54,20
India,Rajasthan,Jaipur,"Mansarovar Sector-12, Jaipur - RSPCB",09-01-2024 09:00:00,26.843698,75.766894,NH3,1,16,8
India,Rajasthan,Jaipur,"Mansarovar Sector-12, Jaipur - RSPCB",09-01-2024 09:00:00,26.843698,75.766894,CO,21,135,95
India,Rajasthan,Jaipur,"Mansarovar Sector-12, Jaipur - RSPCB",09-01-2024 09:00:00,26.843698,75.766894,OZONE,1,57,1
India,Rajasthan,Jaipur,"RIICO Sitapura, Jaipur - RSPCB",09-01-2024 09:00:00,26.786682,75.827928,NH3,5,35,9
India,Rajasthan,Jaipur,"Sector-2 Murlipura, Jaipur - RSPCB",09-01-2024 09:00:00,26.960669,75.771817,NH3,8,8,8
India,Rajasthan,Jaipur,"Sector-2 Murlipura, Jaipur - RSPCB",09-01-2024 09:00:00,26.960669,75.771817,OZONE,5,72,8
India,Rajasthan,Jaipur,"Shastri Nagar, Jaipur - RSPCB",09-01-2024 09:00:00,26.9502929,75.730943,PM2.5,186,343,293
India,Rajasthan,Jaisalmer,"Sadar Bazar, Jaisalmer - RSPCB",09-01-2024 09:00:00,26.912329,70.909168,PM2.5,59,220,107
India,Rajasthan,Jaisalmer,"Sadar Bazar, Jaisalmer - RSPCB",09-01-2024 09:00:00,26.912329,70.909168,NH3,9,11,10
India,Rajasthan,Jhalawar,"Rajlaxmi Nagar, Jhalawar - RSPCB",09-01-2024 09:00:00,24.588397,76.172782,PM2.5,242,341,297
India,Rajasthan,Jhunjhunu,"Indra Nagar, Jhunjhunu - RSPCB",09-01-2024 09:00:00,28.108988,75.386577,CO,46,78,49
India,Rajasthan,Jodhpur,"Digari Kalan, Jodhpur - RSPCB",09-01-2024 09:00:00,26.295810,73.082283,NH3,4,6,6
India,Rajasthan,Jodhpur,"Digari Kalan, Jodhpur - RSPCB",09-01-2024 09:00:00,26.295810,73.082283,CO,22,57,35
India,Rajasthan,Jodhpur,"Digari Kalan, Jodhpur - RSPCB",09-01-2024 09:00:00,26.295810,73.082283,OZONE,25,107,38
India,Rajasthan,Jodhpur,"Jhalamand, Jodhpur - RSPCB",09-01-2024 09:00:00,26.215415,73.070156,NO2,15,49,24
India,Rajasthan,Jodhpur,"Jhalamand, Jodhpur - RSPCB",09-01-2024 09:00:00,26.215415,73.070156,NH3,6,18,7
India,Rajasthan,Jodhpur,"Mandor, Jodhpur - RSPCB",09-01-2024 09:00:00,26.358805,73.047444,PM10,68,131,100
India,Rajasthan,Jodhpur,"Samrat Ashok Udhyan, Jodhpur - RSPCB",09-01-2024 09:00:00,26.253384,72.976571,CO,42,75,48
India,Rajasthan,Karauli,"Satyawati Vihar, Karauli - RSPCB",09-01-2024 09:00:00,26.506177,77.025989,PM2.5,313,371,341
India,Rajasthan,Karauli,"Satyawati Vihar, Karauli - RSPCB",09-01-2024 09:00:00,26.506177,77.025989,NO2,6,23,13
India,Rajasthan,Karauli,"Satyawati Vihar, Karauli - RSPCB",09-01-2024 09:00:00,26.506177,77.025989,OZONE,7,41,17
India,Rajasthan,Kota,"Dhanmandi, Kota - RSPCB",09-01-2024 09:00:00,25.164090,75.858137,SO2,3,9,5
India,Rajasthan,Kota,"Nayapura, Kota - RSPCB",09-01-2024 09:00:00,25.196024,75.855668,NH3,12,25,16
India,Rajasthan,Pali,"Indira Colony Vistar, Pali - RSPCB",09-01-2024 09:00:00,25.771061, 73.340227,CO,2,86,19
India,Rajasthan,Pali,"Indira Colony Vistar, Pali - RSPCB",09-01-2024 09:00:00,25.771061, 73.340227,OZONE,14,175,15
India,Rajasthan,Rajsamand,"Dhoinda, Rajsamand - RSPCB",09-01-2024 09:00:00,25.036360,73.883502,PM2.5,127,408,269
India,Rajasthan,Rajsamand,"Dhoinda, Rajsamand - RSPCB",09-01-2024 09:00:00,25.036360,73.883502,NH3,1,6,4
India,Rajasthan,Rajsamand,"Dhoinda, Rajsamand - RSPCB",09-01-2024 09:00:00,25.036360,73.883502,OZONE,4,53,11
India,Rajasthan,Sawai Madhopur,"Sahu Nagar, Sawai Madhopur - RSPCB",09-01-2024 09:00:00,26.031443,76.359327,OZONE,128,142,136
India,Rajasthan,Sri Ganganagar,"Old City, Sri Ganganagar - RSPCB",09-01-2024 09:00:00,29.931624,73.864511,CO,106,126,108
India,Rajasthan,Tonk,"Shastri Nagar, Tonk - RSPCB",09-01-2024 09:00:00,26.159933,75.780517,PM10,175,257,206
India,Rajasthan,Tonk,"Shastri Nagar, Tonk - RSPCB",09-01-2024 09:00:00,26.159933,75.780517,NH3,5,12,7
India,Rajasthan,Udaipur,"Ashok Nagar, Udaipur - RSPCB",09-01-2024 09:00:00,24.5886166,73.6321397,SO2,5,54,16
India,Rajasthan,Udaipur,"Ashok Nagar, Udaipur - RSPCB",09-01-2024 09:00:00,24.5886166,73.6321397,CO,42,125,53
India,Sikkim,Gangtok,"Zero Point GICI, Gangtok - SSPCB",09-01-2024 09:00:00,27.338530,88.614099,PM2.5,13,34,21
India,Sikkim,Gangtok,"Zero Point GICI, Gangtok - SSPCB",09-01-2024 09:00:00,27.338530,88.614099,NH3,1,1,1
India,TamilNadu,Ariyalur,"Keelapalur, Ariyalur - TNPCB",09-01-2024 09:00:00,11.06825,79.07033,NO2,13,30,22
India,TamilNadu,Chengalpattu,"Crescent University, Chengalpattu - TNPCB",09-01-2024 09:00:00,12.8777316,80.0834807,CO,27,32,28
India,TamilNadu,Chennai,"Alandur Bus Depot, Chennai - CPCB",09-01-2024 09:00:00,12.9099161,80.1076538,SO2,24,31,28
India,TamilNadu,Chennai,"Alandur Bus Depot, Chennai - CPCB",09-01-2024 09:00:00,12.9099161,80.1076538,OZONE,17,22,18
India,TamilNadu,Chennai,"Arumbakkam, Chennai - TNPCB",09-01-2024 09:00:00,13.0664,80.2112 ,NH3,3,9,5
India,TamilNadu,Chennai,"Gandhi Nagar_Ennore, Chennai - TNPCB",09-01-2024 09:00:00,13.218341,80.32027,OZONE,3,4,3
India,TamilNadu,Chennai,"Manali, Chennai - CPCB",09-01-2024 09:00:00,13.164544,80.26285,SO2,1,46,9
India,TamilNadu,Chennai,"Perungudi, Chennai - TNPCB",09-01-2024 09:00:00,12.9533,80.2357,NH3,2,2,2
India,TamilNadu,Chennai,"Royapuram, Chennai - TNPCB",09-01-2024 09:00:00,13.1036,80.2909,PM10,20,68,48
India,TamilNadu,Chennai,"Royapuram, Chennai - TNPCB",09-01-2024 09:00:00,13.1036,80.2909,CO,23,31,26
India,TamilNadu,Chennai,"Velachery Res. Area, Chennai - CPCB",09-01-2024 09:00:00,13.0052189,80.2398125,PM10,32,69,52
India,TamilNadu,Chennai,"Velachery Res. Area, Chennai - CPCB",09-01-2024 09:00:00,13.0052189,80.2398125,NO2,9,58,25
India,TamilNadu,Chennai,"Velachery Res. Area, Chennai - CPCB",09-01-2024 09:00:00,13.0052189,80.2398125,SO2,11,11,11
India,TamilNadu,Coimbatore,"PSG College of Arts and Science, Coimbatore - TNPCB",09-01-2024 09:00:00,11.0328,77.0349,SO2,3,7,4
India,TamilNadu,Coimbatore,"PSG College of Arts and Science, Coimbatore - TNPCB",09-01-2024 09:00:00,11.0328,77.0349,CO,2,31,1
India,TamilNadu,Cuddalore,"Kudikadu, Cuddalore - TNPCB",09-01-2024 09:00:00,11.6829898,79.7532099,SO2,17,21,19
India,TamilNadu,Gummidipoondi,"Anthoni Pillai Nagar, Gummidipoondi - TNPCB",09-01-2024 09:00:00,13.4127,80.1081,PM2.5,37,367,132
India,TamilNadu,Gummidipoondi,"Anthoni Pillai Nagar, Gummidipoondi - TNPCB",09-01-2024 09:00:00,13.4127,80.1081,PM10,56,210,114
India,TamilNadu,Gummidipoondi,"Anthoni Pillai Nagar, Gummidipoondi - TNPCB",09-01-2024 09:00:00,13.4127,80.1081,NO2,8,21,11
India,TamilNadu,Ramanathapuram,"Chalai Bazaar, Ramanathapuram - TNPCB",09-01-2024 09:00:00,9.36399,78.831977,PM2.5,3,28,13
India,TamilNadu,Ramanathapuram,"Chalai Bazaar, Ramanathapuram - TNPCB",09-01-2024 09:00:00,9.36399,78.831977,SO2,4,8,6
India,TamilNadu,Salem,"Sona College of Technology, Salem - TNPCB",09-01-2024 09:00:00,11.679111,78.125052,PM2.5,2,78,19
India,TamilNadu,Salem,"Sona College of Technology, Salem - TNPCB",09-01-2024 09:00:00,11.679111,78.125052,CO,32,33,32
India,TamilNadu,Thoothukudi,"Meelavittan, Thoothukudi - TNPCB",09-01-2024 09:00:00,8.816428 ,78.099039,NO2,7,14,10
India,TamilNadu,Thoothukudi,"Meelavittan, Thoothukudi - TNPCB",09-01-2024 09:00:00,8.816428 ,78.099039,SO2,7,124,17
India,TamilNadu,Thoothukudi,"Meelavittan, Thoothukudi - TNPCB",09-01-2024 09:00:00,8.816428 ,78.099039,OZONE,1,10,5
India,TamilNadu,Tiruchirappalli,"St Joseph College, Tiruchirappalli - TNPCB",09-01-2024 09:00:00,10.830158,78.691849,PM10,16,61,32
India,TamilNadu,Tirupur,"Kumaran College, Tirupur - TNPCB",09-01-2024 09:00:00,11.0973603,77.3228673,PM10,29,69,43
India,TamilNadu,Vellore,"Vasanthapuram, Vellore - TNPCB",09-01-2024 09:00:00,12.909494,79.131861,CO,65,66,65
India,TamilNadu,Vellore,"Vasanthapuram, Vellore - TNPCB",09-01-2024 09:00:00,12.909494,79.131861,OZONE,1,2,1
India,TamilNadu,Virudhunagar,"Collectorate Office, Virudhunagar - TNPCB",09-01-2024 09:00:00,9.559382,77.948828,OZONE,NA,NA,NA
India,Telangana,Hyderabad,"Bollaram Industrial Area, Hyderabad - TSPCB",09-01-2024 09:00:00,17.540891,78.358528,OZONE,36,40,39
India,Telangana,Hyderabad,"Central University, Hyderabad - TSPCB",09-01-2024 09:00:00,17.460103,78.334361,PM2.5,25,82,56
India,Telangana,Hyderabad,"Central University, Hyderabad - TSPCB",09-01-2024 09:00:00,17.460103,78.334361,SO2,3,10,7
India,Telangana,Hyderabad,"ICRISAT Patancheru, Hyderabad - TSPCB",09-01-2024 09:00:00,17.518400,78.278777,NH3,2,2,2
India,Telangana,Hyderabad,"ICRISAT Patancheru, Hyderabad - TSPCB",09-01-2024 09:00:00,17.518400,78.278777,CO,48,95,72
India,Telangana,Hyderabad,"IITH Kandi, Hyderabad - TSPCB",09-01-2024 09:00:00,17.585705,78.126199,NH3,NA,NA,NA
India,Telangana,Hyderabad,"Kokapet, Hyderabad - TSPCB",09-01-2024 09:00:00,17.393559,78.339194,NO2,NA,NA,NA
India,Telangana,Hyderabad,"Kokapet, Hyderabad - TSPCB",09-01-2024 09:00:00,17.393559,78.339194,NH3,NA,NA,NA
India,Telangana,Hyderabad,"Nacharam_TSIIC IALA, Hyderabad - TSPCB",09-01-2024 09:00:00,17.429398,78.569354,NO2,NA,NA,NA
India,Telangana,Hyderabad,"New Malakpet, Hyderabad - TSPCB",09-01-2024 09:00:00,17.37206,78.50864,PM10,54,62,58
India,Telangana,Hyderabad,"New Malakpet, Hyderabad - TSPCB",09-01-2024 09:00:00,17.37206,78.50864,SO2,8,13,10
India,Telangana,Hyderabad,"Zoo Park, Hyderabad - TSPCB",09-01-2024 09:00:00,17.349694,78.451437,PM2.5,53,151,91
India,Telangana,Hyderabad,"Zoo Park, Hyderabad - TSPCB",09-01-2024 09:00:00,17.349694,78.451437,OZONE,18,55,21
India,Tripura,Agartala,"Bardowali, Agartala - Tripura SPCB",09-01-2024 09:00:00,23.8175497,91.2726974,NO2,14,35,22
India,Uttar_Pradesh,Agra,"Sanjay Palace, Agra - UPPCB",09-01-2024 09:00:00,27.19865833,78.00598056,NO2,37,80,57
India,Uttar_Pradesh,Agra,"Sanjay Palace, Agra - UPPCB",09-01-2024 09:00:00,27.19865833,78.00598056,SO2,1,14,7
India,Uttar_Pradesh,Agra,"Sanjay Palace, Agra - UPPCB",09-01-2024 09:00:00,27.19865833,78.00598056,CO,24,101,59
India,Uttar_Pradesh,Agra,"Sector-3B Avas Vikas Colony, Agra - UPPCB",09-01-2024 09:00:00,27.19412,77.96237,SO2,9,14,10
India,Uttar_Pradesh,Agra,"Sector-3B Avas Vikas Colony, Agra - UPPCB",09-01-2024 09:00:00,27.19412,77.96237,CO,12,20,14
India,Uttar_Pradesh,Agra,"Shahjahan Garden, Agra - UPPCB",09-01-2024 09:00:00,27.169338,78.03582,PM10,48,170,102
India,Uttar_Pradesh,Agra,"Shastripuram, Agra - UPPCB",09-01-2024 09:00:00,27.19862,77.92066,NO2,23,27,27
India,Uttar_Pradesh,Baghpat,"Sardar Patel Inter College, Baghpat - UPPCB",09-01-2024 09:00:00,28.964949,77.278761,NO2,34,85,54
India,Uttar_Pradesh,Bareilly,"Civil Lines, Bareilly - UPPCB",09-01-2024 09:00:00,28.359581,79.414455,NO2,15,30,21
India,Uttar_Pradesh,Bareilly,"Rajendra Nagar, Bareilly - UPPCB",09-01-2024 09:00:00,28.38910936,79.42963708,CO,26,46,36
India,Uttar_Pradesh,Bareilly,"Rajendra Nagar, Bareilly - UPPCB",09-01-2024 09:00:00,28.38910936,79.42963708,OZONE,9,11,11
India,Uttar_Pradesh,Bulandshahr,"Yamunapuram, Bulandshahr - UPPCB",09-01-2024 09:00:00,28.406963,77.849831,CO,6,94,37
India,Uttar_Pradesh,Firozabad,"Nagla Bhau, Firozabad - UPPCB",09-01-2024 09:00:00,27.168897,78.376960,NO2,20,25,23
India,Uttar_Pradesh,Firozabad,"Vibhab Nagar, Firozabad - UPPCB",09-01-2024 09:00:00,27.1594,78.3953,NH3,1,2,2
India,Uttar_Pradesh,Ghaziabad,"Indirapuram, Ghaziabad - UPPCB",09-01-2024 09:00:00,28.646233,77.358075,PM10,153,485,347
India,Uttar_Pradesh,Ghaziabad,"Indirapuram, Ghaziabad - UPPCB",09-01-2024 09:00:00,28.646233,77.358075,NO2,74,163,121
India,Uttar_Pradesh,Ghaziabad,"Loni, Ghaziabad - UPPCB",09-01-2024 09:00:00,28.757294,77.278792,PM2.5,119,408,268
India,Uttar_Pradesh,Ghaziabad,"Loni, Ghaziabad - UPPCB",09-01-2024 09:00:00,28.757294,77.278792,PM10,94,402,216
India,Uttar_Pradesh,Ghaziabad,"Loni, Ghaziabad - UPPCB",09-01-2024 09:00:00,28.757294,77.278792,NO2,16,57,27
India,Uttar_Pradesh,Ghaziabad,"Sanjay Nagar, Ghaziabad - UPPCB",09-01-2024 09:00:00,28.685382,77.453839,NH3,6,12,9
India,Uttar_Pradesh,Ghaziabad,"Sanjay Nagar, Ghaziabad - UPPCB",09-01-2024 09:00:00,28.685382,77.453839,SO2,2,34,13
India,Uttar_Pradesh,Gorakhpur,"Madan Mohan Malaviya University of Technology, Gorakhpur - UPPCB",09-01-2024 09:00:00,26.730136,83.433859,PM2.5,68,304,127
India,Uttar_Pradesh,Gorakhpur,"Madan Mohan Malaviya University of Technology, Gorakhpur - UPPCB",09-01-2024 09:00:00,26.730136,83.433859,OZONE,3,52,3
India,Uttar_Pradesh,Greater Noida,"Knowledge Park - III, Greater Noida - UPPCB",09-01-2024 09:00:00,28.47272,77.482000,NO2,25,56,42
India,Uttar_Pradesh,Greater Noida,"Knowledge Park - V, Greater Noida - UPPCB",09-01-2024 09:00:00,28.557054,77.453663,PM2.5,252,434,357
India,Uttar_Pradesh,Greater Noida,"Knowledge Park - V, Greater Noida - UPPCB",09-01-2024 09:00:00,28.557054,77.453663,NH3,4,6,5
India,Uttar_Pradesh,Hapur,"Anand Vihar, Hapur - UPPCB",09-01-2024 09:00:00,28.725645,77.749675,SO2,8,97,39
India,Uttar_Pradesh,Kanpur,"FTI Kidwai Nagar, Kanpur - UPPCB",09-01-2024 09:00:00,26.428282,80.327067,SO2,19,19,19
India,Uttar_Pradesh,Kanpur,"FTI Kidwai Nagar, Kanpur - UPPCB",09-01-2024 09:00:00,26.428282,80.327067,CO,42,66,49
India,Uttar_Pradesh,Kanpur,"NSI Kalyanpur, Kanpur - UPPCB",09-01-2024 09:00:00,26.509954,80.249612,NH3,1,3,3
India,Uttar_Pradesh,Kanpur,"NSI Kalyanpur, Kanpur - UPPCB",09-01-2024 09:00:00,26.509954,80.249612,OZONE,26,91,33
India,Uttar_Pradesh,Kanpur,"Nehru Nagar, Kanpur - UPPCB",09-01-2024 09:00:00,26.4703136,80.3229863,NO2,3,114,40
India,Uttar_Pradesh,Khurja,"Kalindi Kunj, Khurja - UPPCB",09-01-2024 09:00:00,28.2348927,77.8683002,NH3,NA,NA,NA
India,Uttar_Pradesh,Khurja,"Kalindi Kunj, Khurja - UPPCB",09-01-2024 09:00:00,28.2348927,77.8683002,CO,38,51,48
India,Uttar_Pradesh,Lucknow,"B R Ambedkar University, Lucknow - UPPCB",09-01-2024 09:00:00,26.766433,80.927299,OZONE,2,48,5
India,Uttar_Pradesh,Lucknow,"Kendriya Vidyalaya, Lucknow - CPCB",09-01-2024 09:00:00,26.906111,80.948222,SO2,1,4,1
India,Uttar_Pradesh,Lucknow,"Kendriya Vidyalaya, Lucknow - CPCB",09-01-2024 09:00:00,26.906111,80.948222,OZONE,6,46,9
India,Uttar_Pradesh,Lucknow,"Kukrail Picnic Spot-1, Lucknow - UPPCB",09-01-2024 09:00:00,26.90723,80.98579,SO2,25,27,26
India,Uttar_Pradesh,Lucknow,"Talkatora District Industries Center, Lucknow - CPCB",09-01-2024 09:00:00,26.83399722,80.8917361,PM2.5,187,347,282
India,Uttar_Pradesh,Lucknow,"Talkatora District Industries Center, Lucknow - CPCB",09-01-2024 09:00:00,26.83399722,80.8917361,NO2,31,48,37
India,Uttar_Pradesh,Lucknow,"Talkatora District Industries Center, Lucknow - CPCB",09-01-2024 09:00:00,26.83399722,80.8917361,CO,8,74,32
India,Uttar_Pradesh,Meerut,"Ganga Nagar, Meerut - UPPCB",09-01-2024 09:00:00,28.999264,77.7590354,PM2.5,106,344,200
India,Uttar_Pradesh,Meerut,"Ganga Nagar, Meerut - UPPCB",09-01-2024 09:00:00,28.999264,77.7590354,PM10,92,250,140
India,Uttar_Pradesh,Meerut,"Ganga Nagar, Meerut - UPPCB",09-01-2024 09:00:00,28.999264,77.7590354,NH3,6,11,8
India,Uttar_Pradesh,Meerut,"Ganga Nagar, Meerut - UPPCB",09-01-2024 09:00:00,28.999264,77.7590354,SO2,8,37,20
India,Uttar_Pradesh,Meerut,"Jai Bhim Nagar, Meerut - UPPCB",09-01-2024 09:00:00,28.9535882,77.7622941,NO2,22,59,33
India,Uttar_Pradesh,Meerut,"Pallavpuram Phase 2, Meerut - UPPCB",09-01-2024 09:00:00,29.063510,77.709723,PM10,62,179,111
India,Uttar_Pradesh,Moradabad,"Eco Herbal Park, Moradabad - UPPCB",09-01-2024 09:00:00,28.840739,78.697531,PM2.5,47,151,75
India,Uttar_Pradesh,Moradabad,"Kashiram Nagar, Moradabad - UPPCB",09-01-2024 09:00:00,28.849399,78.742362,NO2,15,22,19
India,Uttar_Pradesh,Moradabad,"Kashiram Nagar, Moradabad - UPPCB",09-01-2024 09:00:00,28.849399,78.742362,OZONE,15,138,16
India,Uttar_Pradesh,Moradabad,"Transport Nagar, Moradabad - UPPCB",09-01-2024 09:00:00,28.802625,78.753728,NH3,6,6,6
India,Uttar_Pradesh,Muzaffarnagar,"New Mandi, Muzaffarnagar - UPPCB",09-01-2024 09:00:00,29.4723508,77.7194031,CO,49,100,55
India,Uttar_Pradesh,Noida,"Sector - 125, Noida - UPPCB",09-01-2024 09:00:00,28.5447608,77.3231257,SO2,1,18,11
India,Uttar_Pradesh,Noida,"Sector - 62, Noida - IMD",09-01-2024 09:00:00,28.6245479,77.3577104,CO,82,108,88
India,Uttar_Pradesh,Noida,"Sector-1, Noida - UPPCB",09-01-2024 09:00:00,28.5898,77.3101,SO2,6,23,16
India,Uttar_Pradesh,Noida,"Sector-116, Noida - UPPCB",09-01-2024 09:00:00,28.569230,77.393848,CO,14,122,33
India,Uttar_Pradesh,Prayagraj,"Jhunsi, Prayagraj - UPPCB",09-01-2024 09:00:00,25.425602,81.917152,NO2,6,6,6
India,Uttar_Pradesh,Prayagraj,"Jhunsi, Prayagraj - UPPCB",09-01-2024 09:00:00,25.425602,81.917152,CO,26,100,66
India,Uttar_Pradesh,Vrindavan,"Omex Eternity, Vrindavan - UPPCB",09-01-2024 09:00:00,27.5714090,77.6557570,SO2,34,35,34
India,Uttar_Pradesh,Vrindavan,"Omex Eternity, Vrindavan - UPPCB",09-01-2024 09:00:00,27.5714090,77.6557570,OZONE,24,25,25
India,Uttarakhand,Dehradun,"Doon University, Dehradun - UKPCB",09-01-2024 09:00:00,30.269444,78.044167,NO2,1,8,4
India,Uttarakhand,Dehradun,"Doon University, Dehradun - UKPCB",09-01-2024 09:00:00,30.269444,78.044167,OZONE,NA,NA,NA
India,Uttarakhand,Kashipur,"Govt. Girls Inter College, Kashipur - UKPCB",09-01-2024 09:00:00,29.2124114,78.9611753,PM10,48,120,89
India,Uttarakhand,Kashipur,"Govt. Girls Inter College, Kashipur - UKPCB",09-01-2024 09:00:00,29.2124114,78.9611753,SO2,8,10,8
India,Uttarakhand,Kashipur,"Govt. Girls Inter College, Kashipur - UKPCB",09-01-2024 09:00:00,29.2124114,78.9611753,OZONE,1,10,3
India,Uttarakhand,Rishikesh,"Shivaji Nagar, Rishikesh - UKPCB",09-01-2024 09:00:00,30.075911,78.2859547,CO,42,64,49
India,West_Bengal,Barrackpore,"SVSPA Campus, Barrackpore - WBPCB",09-01-2024 09:00:00,22.7605581,88.3617589,SO2,7,12,8
India,West_Bengal,Durgapur,"Sidhu Kanhu Indoor Stadium, Durgapur - WBPCB",09-01-2024 09:00:00,23.5404352,87.2892225,OZONE,2,71,3
India,West_Bengal,Haldia,"Priyambada Housing Estate, Haldia - WBPCB",09-01-2024 09:00:00,22.06047,88.109737,CO,33,75,57
India,West_Bengal,Haldia,"Priyambada Housing Estate, Haldia - WBPCB",09-01-2024 09:00:00,22.06047,88.109737,OZONE,13,68,15
India,West_Bengal,Howrah,"Ghusuri, Howrah - WBPCB",09-01-2024 09:00:00,22.611968,88.347422,OZONE,6,29,9
India,West_Bengal,Howrah,"Padmapukur, Howrah - WBPCB",09-01-2024 09:00:00,22.5687319,88.2797276,PM2.5,192,314,254
India,West_Bengal,Howrah,"Padmapukur, Howrah - WBPCB",09-01-2024 09:00:00,22.5687319,88.2797276,PM10,145,194,167
India,West_Bengal,Howrah,"Padmapukur, Howrah - WBPCB",09-01-2024 09:00:00,22.5687319,88.2797276,NH3,10,26,15
India,West_Bengal,Howrah,"Padmapukur, Howrah - WBPCB",09-01-2024 09:00:00,22.5687319,88.2797276,SO2,9,41,20
India,West_Bengal,Kolkata,"Ballygunge, Kolkata - WBPCB",09-01-2024 09:00:00,22.5367507,88.3638022,PM2.5,250,314,286
India,West_Bengal,Kolkata,"Ballygunge, Kolkata - WBPCB",09-01-2024 09:00:00,22.5367507,88.3638022,OZONE,6,87,26
India,West_Bengal,Kolkata,"Bidhannagar, Kolkata - WBPCB",09-01-2024 09:00:00,22.58157048,88.41002457,PM2.5,197,272,234
India,West_Bengal,Kolkata,"Bidhannagar, Kolkata - WBPCB",09-01-2024 09:00:00,22.58157048,88.41002457,NO2,14,44,27
India,West_Bengal,Kolkata,"Bidhannagar, Kolkata - WBPCB",09-01-2024 09:00:00,22.58157048,88.41002457,NH3,10,11,10
India,West_Bengal,Kolkata,"Bidhannagar, Kolkata - WBPCB",09-01-2024 09:00:00,22.58157048,88.41002457,SO2,4,26,11
India,West_Bengal,Kolkata,"Bidhannagar, Kolkata - WBPCB",09-01-2024 09:00:00,22.58157048,88.41002457,CO,40,66,53
India,West_Bengal,Kolkata,"Fort William, Kolkata - WBPCB",09-01-2024 09:00:00,22.556640,88.342674,NH3,8,10,9
India,West_Bengal,Kolkata,"Fort William, Kolkata - WBPCB",09-01-2024 09:00:00,22.556640,88.342674,CO,21,70,40
India,West_Bengal,Kolkata,"Rabindra Bharati University, Kolkata - WBPCB",09-01-2024 09:00:00,22.627847,88.380669,PM2.5,100,328,242
India,West_Bengal,Kolkata,"Rabindra Sarobar, Kolkata - WBPCB",09-01-2024 09:00:00,22.51106,88.35142,NO2,22,125,62
India,West_Bengal,Kolkata,"Rabindra Sarobar, Kolkata - WBPCB",09-01-2024 09:00:00,22.51106,88.35142,CO,22,88,33
India,West_Bengal,Kolkata,"Victoria, Kolkata - WBPCB",09-01-2024 09:00:00,22.5448082,88.3403691,PM10,144,193,172
India,Andhra_Pradesh,Amaravati,"Secretariat, Amaravati - APPCB",09-01-2024 09:00:00,16.5150833,80.5181667,PM2.5,150,302,233
India,Andhra_Pradesh,Anantapur,"Gulzarpet, Anantapur - APPCB",09-01-2024 09:00:00,14.675886,77.593027,OZONE,24,37,30
India,Andhra_Pradesh,Kadapa,"Yerramukkapalli, Kadapa - APPCB",09-01-2024 09:00:00,14.465052,78.824187,NH3,NA,NA,NA
India,Andhra_Pradesh,Kadapa,"Yerramukkapalli, Kadapa - APPCB",09-01-2024 09:00:00,14.465052,78.824187,SO2,1,2,2
India,Andhra_Pradesh,Rajamahendravaram,"Anand Kala Kshetram, Rajamahendravaram - APPCB",09-01-2024 09:00:00,16.9872867,81.7363176,OZONE,15,31,18
India,Andhra_Pradesh,Tirupati,"Tirumala, Tirupati - APPCB",09-01-2024 09:00:00,13.67,79.35,OZONE,29,47,42
India,Andhra_Pradesh,Vijayawada,"HB Colony, Vijayawada - APPCB",09-01-2024 09:00:00,16.536107,80.594233,NO2,6,24,13
India,Andhra_Pradesh,Visakhapatnam,"GVM Corporation, Visakhapatnam - APPCB",09-01-2024 09:00:00,17.72,83.3,NH3,NA,NA,NA
India,Arunachal_Pradesh,Naharlagun,"Naharlagun, Naharlagun - APSPCB",09-01-2024 09:00:00,27.103358,93.679645,CO,12,61,22
India,Assam,Byrnihat,"Central Academy for SFS, Byrnihat - PCBA",09-01-2024 09:00:00,26.071318,91.87488,OZONE,5,7,6
India,Assam,Guwahati,"IITG, Guwahati - PCBA",09-01-2024 09:00:00,26.2028636,91.70046436,PM2.5,83,343,258
India,Assam,Guwahati,"IITG, Guwahati - PCBA",09-01-2024 09:00:00,26.2028636,91.70046436,OZONE,2,19,3
India,Assam,Guwahati,"LGBI Airport, Guwahati - PCBA",09-01-2024 09:00:00,26.10887,91.589544,PM2.5,163,360,255
India,Assam,Guwahati,"LGBI Airport, Guwahati - PCBA",09-01-2024 09:00:00,26.10887,91.589544,OZONE,1,125,8
India,Assam,Guwahati,"Pan Bazaar, Guwahati - PCBA",09-01-2024 09:00:00,26.187500,91.744194,PM2.5,84,351,246
India,Assam,Guwahati,"Pan Bazaar, Guwahati - PCBA",09-01-2024 09:00:00,26.187500,91.744194,NH3,3,5,4
India,Assam,Guwahati,"Railway Colony, Guwahati - PCBA",09-01-2024 09:00:00,26.181742,91.78063,PM10,85,438,199
India,Assam,Nagaon,"Christianpatty, Nagaon - PCBA",09-01-2024 09:00:00,26.349082,92.68449,NH3,3,7,4
India,Assam,Nalbari,"Bata Chowk, Nalbari - PCBA",09-01-2024 09:00:00,26.446912,91.439057,PM10,119,490,238
India,Assam,Nalbari,"Bata Chowk, Nalbari - PCBA",09-01-2024 09:00:00,26.446912,91.439057,SO2,4,26,12
India,Assam,Silchar,"Tarapur, Silchar - PCBA",09-01-2024 09:00:00,24.82827,92.79525,NO2,24,40,29
India,Assam,Sivasagar,"Girls College, Sivasagar - PCBA",09-01-2024 09:00:00,26.987634,94.636574,PM10,35,93,60
India,Bihar,Araria,"Kharahiya Basti, Araria - BSPCB",09-01-2024 09:00:00,26.146529,87.454184,NH3,6,8,7
India,Bihar,Arrah,"New DM Office, Arrah - BSPCB",09-01-2024 09:00:00,25.5626095,84.663264,SO2,6,22,18
India,Bihar,Arrah,"New DM Office, Arrah - BSPCB",09-01-2024 09:00:00,25.5626095,84.663264,OZONE,12,33,13
India,Bihar,Aurangabad,"Gurdeo Nagar, Aurangabad - BSPCB",09-01-2024 09:00:00,24.75746,84.366208,SO2,NA,NA,NA
India,Bihar,Aurangabad,"Gurdeo Nagar, Aurangabad - BSPCB",09-01-2024 09:00:00,24.75746,84.366208,OZONE,1,68,1
India,Bihar,Bettiah,"Kamalnath Nagar, Bettiah - BSPCB",09-01-2024 09:00:00,26.80365,84.51954,CO,9,83,56
India,Bihar,Bhagalpur,"DM Office_Kachari Chowk, Bhagalpur - BSPCB",09-01-2024 09:00:00,25.251013,86.989001,CO,36,70,43
India,Bihar,Bhagalpur,"DM Office_Kachari Chowk, Bhagalpur - BSPCB",09-01-2024 09:00:00,25.251013,86.989001,OZONE,17,45,20
India,Bihar,Bihar Sharif,"D M Colony, Bihar Sharif - BSPCB",09-01-2024 09:00:00,25.204762,85.514960,CO,10,42,29
India,Bihar,Chhapra,"Darshan Nagar, Chhapra - BSPCB",09-01-2024 09:00:00,25.7808257,84.7446768,NH3,NA,NA,NA
India,Bihar,Chhapra,"Darshan Nagar, Chhapra - BSPCB",09-01-2024 09:00:00,25.7808257,84.7446768,CO,17,29,18
India,Bihar,Gaya,"Collectorate, Gaya - BSPCB",09-01-2024 09:00:00,24.7955,84.9994,PM2.5,197,362,281
India,Bihar,Gaya,"Collectorate, Gaya - BSPCB",09-01-2024 09:00:00,24.7955,84.9994,SO2,18,36,23
India,Bihar,Gaya,"Kareemganj, Gaya - BSPCB",09-01-2024 09:00:00,24.792403,84.992416,NO2,30,31,30
India,Bihar,Gaya,"Kareemganj, Gaya - BSPCB",09-01-2024 09:00:00,24.792403,84.992416,NH3,1,6,3
India,Bihar,Gaya,"SFTI Kusdihra, Gaya - BSPCB",09-01-2024 09:00:00,24.762518,84.982348,SO2,6,10,8
India,Bihar,Gaya,"SFTI Kusdihra, Gaya - BSPCB",09-01-2024 09:00:00,24.762518,84.982348,OZONE,6,55,8
India,Bihar,Hajipur,"Industrial Area, Hajipur - BSPCB",09-01-2024 09:00:00,25.697189,85.245900,OZONE,5,83,19
India,Bihar,Katihar,"Mirchaibari, Katihar - BSPCB",09-01-2024 09:00:00,25.560083,87.553265,PM10,85,332,164
India,Bihar,Katihar,"Mirchaibari, Katihar - BSPCB",09-01-2024 09:00:00,25.560083,87.553265,SO2,16,26,22
India,Bihar,Katihar,"Mirchaibari, Katihar - BSPCB",09-01-2024 09:00:00,25.560083,87.553265,OZONE,18,28,25
India,Bihar,Kishanganj,"SDM Office_Khagra, Kishanganj - BSPCB",09-01-2024 09:00:00,26.0881305,87.93840336,SO2,11,23,14
India,Bihar,Kishanganj,"SDM Office_Khagra, Kishanganj - BSPCB",09-01-2024 09:00:00,26.0881305,87.93840336,CO,2,12,9
India,Bihar,Motihari,"Gandak Colony, Motihari - BSPCB",09-01-2024 09:00:00,26.63086,84.90051,CO,29,107,69
India,Bihar,Muzaffarpur,"Buddha Colony, Muzaffarpur - BSPCB",09-01-2024 09:00:00,26.11442,85.39813,PM10,NA,NA,NA
India,Bihar,Muzaffarpur,"Buddha Colony, Muzaffarpur - BSPCB",09-01-2024 09:00:00,26.11442,85.39813,NO2,NA,NA,NA
India,Bihar,Muzaffarpur,"Buddha Colony, Muzaffarpur - BSPCB",09-01-2024 09:00:00,26.11442,85.39813,NH3,NA,NA,NA
India,Bihar,Muzaffarpur,"MIT-Daudpur Kothi, Muzaffarpur - BSPCB",09-01-2024 09:00:00,26.1403345,85.3650192,CO,83,106,89
India,Bihar,Muzaffarpur,"Muzaffarpur Collectorate, Muzaffarpur - BSPCB",09-01-2024 09:00:00,26.1209,85.3647,CO,16,56,38
India,Bihar,Patna,"DRM Office Danapur, Patna - BSPCB",09-01-2024 09:00:00,25.586562,85.043586,NH3,4,5,4
India,Bihar,Patna,"Govt. High School Shikarpur, Patna - BSPCB",09-01-2024 09:00:00,25.592539,85.227158,NO2,15,23,19
India,Bihar,Patna,"Govt. High School Shikarpur, Patna - BSPCB",09-01-2024 09:00:00,25.592539,85.227158,OZONE,4,45,12
India,Bihar,Patna,"Muradpur, Patna - BSPCB",09-01-2024 09:00:00,25.619651,85.147382,CO,62,139,83
India,Bihar,Patna,"Samanpura, Patna - BSPCB",09-01-2024 09:00:00,25.596727,85.085624,PM2.5,252,500,326
India,Bihar,Patna,"Samanpura, Patna - BSPCB",09-01-2024 09:00:00,25.596727,85.085624,SO2,3,6,4
India,Bihar,Purnia,"Mariam Nagar, Purnia - BSPCB",09-01-2024 09:00:00,25.366336,87.117468,PM10,93,239,142
India,Bihar,Purnia,"Mariam Nagar, Purnia - BSPCB",09-01-2024 09:00:00,25.366336,87.117468,SO2,15,20,18
India,Bihar,Saharsa,"Police Line, Saharsa - BSPCB",09-01-2024 09:00:00,25.892357,86.590325,SO2,18,18,18
India,Bihar,Sasaram,"Dada Peer, Sasaram - BSPCB",09-01-2024 09:00:00,24.952822,84.002396,CO,26,66,49
India,Bihar,Sasaram,"Dada Peer, Sasaram - BSPCB",09-01-2024 09:00:00,24.952822,84.002396,OZONE,3,4,4
India,Chandigarh,Chandigarh,"Sector 22, Chandigarh - CPCC",09-01-2024 09:00:00,30.735567,76.775714,CO,48,84,53
India,Chandigarh,Chandigarh,"Sector-53, Chandigarh - CPCC",09-01-2024 09:00:00,30.719859,76.738637,PM2.5,150,407,309
India,Chandigarh,Chandigarh,"Sector-53, Chandigarh - CPCC",09-01-2024 09:00:00,30.719859,76.738637,SO2,1,11,4
India,Chandigarh,Chandigarh,"Sector-53, Chandigarh - CPCC",09-01-2024 09:00:00,30.719859,76.738637,CO,60,82,64
India,Chandigarh,Chandigarh,"Sector-53, Chandigarh - CPCC",09-01-2024 09:00:00,30.719859,76.738637,OZONE,6,26,19
India,Chhattisgarh,Bhilai,"32Bungalows, Bhilai - CECB",09-01-2024 09:00:00,21.194815,81.314770,SO2,9,16,12
India,Chhattisgarh,Bhilai,"Civic Center, Bhilai - Bhilai Steel Plant",09-01-2024 09:00:00,21.185571,81.343175,NO2,NA,NA,NA
India,Chhattisgarh,Bhilai,"Hathkhoj, Bhilai - CECB",09-01-2024 09:00:00,21.224231,81.408350,PM2.5,88,272,148
India,Chhattisgarh,Bhilai,"Hathkhoj, Bhilai - CECB",09-01-2024 09:00:00,21.224231,81.408350,SO2,18,69,35
India,Chhattisgarh,Bilaspur,"Mangala, Bilaspur - NTPC",09-01-2024 09:00:00,22.08815,82.13737,NO2,8,11,9
India,Chhattisgarh,Korba,"Rampur, Korba - CECB",09-01-2024 09:00:00,22.368195,82.746431,SO2,8,29,12
India,Chhattisgarh,Kunjemura,"OP Jindal School, Kunjemura - CECB",09-01-2024 09:00:00,22.126650,83.483212,PM10,64,296,122
India,Chhattisgarh,Kunjemura,"OP Jindal School, Kunjemura - CECB",09-01-2024 09:00:00,22.126650,83.483212,NH3,1,5,2
India,Chhattisgarh,Milupara,"Govt. Higher Secondary School, Milupara - CECB",09-01-2024 09:00:00,22.1910172,83.5197009,CO,34,58,44
India,Chhattisgarh,Raipur,"AIIMS, Raipur - CECB",09-01-2024 09:00:00,21.258815,81.578979,NO2,51,73,61
India,Chhattisgarh,Raipur,"AIIMS, Raipur - CECB",09-01-2024 09:00:00,21.258815,81.578979,NH3,4,4,4
India,Chhattisgarh,Raipur,"Bhatagaon New ISBT, Raipur - CECB",09-01-2024 09:00:00,21.219665,81.630094,PM2.5,51,86,72
India,Chhattisgarh,Raipur,"Bhatagaon New ISBT, Raipur - CECB",09-01-2024 09:00:00,21.219665,81.630094,CO,30,94,54
India,Chhattisgarh,Raipur,"Bhatagaon New ISBT, Raipur - CECB",09-01-2024 09:00:00,21.219665,81.630094,OZONE,3,7,3
India,Chhattisgarh,Raipur,"Krishak Nagar, Raipur - CECB",09-01-2024 09:00:00,21.237755,81.705301,NO2,21,41,34
India,Chhattisgarh,Raipur,"Krishak Nagar, Raipur - CECB",09-01-2024 09:00:00,21.237755,81.705301,OZONE,2,4,2
India,Chhattisgarh,Raipur,"Siltara Phase-II, Raipur - CECB",09-01-2024 09:00:00,21.371751,81.664929,PM10,NA,NA,NA
India,Chhattisgarh,Tumidih,"OP Jindal Industrial Park, Tumidih - CECB",09-01-2024 09:00:00,22.06631475,83.33820077,PM10,63,232,116
India,Delhi,Delhi,"Alipur, Delhi - DPCC",09-01-2024 09:00:00,28.815329,77.153010,NO2,22,59,37
India,Delhi,Delhi,"Alipur, Delhi - DPCC",09-01-2024 09:00:00,28.815329,77.153010,CO,36,81,47
India,Delhi,Delhi,"Anand Vihar, Delhi - DPCC",09-01-2024 09:00:00,28.647622,77.3158090,PM2.5,338,500,436
India,Delhi,Delhi,"Anand Vihar, Delhi - DPCC",09-01-2024 09:00:00,28.647622,77.3158090,CO,115,155,123
India,Delhi,Delhi,"CRRI Mathura Road, Delhi - IMD",09-01-2024 09:00:00,28.5512005,77.2735737,PM10,143,443,274
India,Delhi,Delhi,"CRRI Mathura Road, Delhi - IMD",09-01-2024 09:00:00,28.5512005,77.2735737,NO2,23,26,25
India,Delhi,Delhi,"CRRI Mathura Road, Delhi - IMD",09-01-2024 09:00:00,28.5512005,77.2735737,CO,1,48,12
India,Delhi,Delhi,"CRRI Mathura Road, Delhi - IMD",09-01-2024 09:00:00,28.5512005,77.2735737,OZONE,34,50,34
India,Delhi,Delhi,"DTU, Delhi - CPCB",09-01-2024 09:00:00,28.7500499,77.1112615,OZONE,19,20,19
India,Delhi,Delhi,"Dr. Karni Singh Shooting Range, Delhi - DPCC",09-01-2024 09:00:00,28.498571,77.264840,PM10,196,480,368
India,Delhi,Delhi,"Dr. Karni Singh Shooting Range, Delhi - DPCC",09-01-2024 09:00:00,28.498571,77.264840,NO2,49,139,86
India,Delhi,Delhi,"Dr. Karni Singh Shooting Range, Delhi - DPCC",09-01-2024 09:00:00,28.498571,77.264840,CO,56,109,73
India,Delhi,Delhi,"IHBAS, Dilshad Garden, Delhi - CPCB",09-01-2024 09:00:00,28.6811736,77.3025234,PM10,116,404,270
India,Delhi,Delhi,"IHBAS, Dilshad Garden, Delhi - CPCB",09-01-2024 09:00:00,28.6811736,77.3025234,SO2,2,34,18
India,Delhi,Delhi,"IHBAS, Dilshad Garden, Delhi - CPCB",09-01-2024 09:00:00,28.6811736,77.3025234,OZONE,1,45,4
India,Delhi,Delhi,"Jahangirpuri, Delhi - DPCC",09-01-2024 09:00:00,28.732820,77.170633,PM2.5,250,500,386
India,Delhi,Delhi,"Jahangirpuri, Delhi - DPCC",09-01-2024 09:00:00,28.732820,77.170633,SO2,11,28,18
India,Delhi,Delhi,"Lodhi Road, Delhi - IMD",09-01-2024 09:00:00,28.5918245,77.2273074,PM2.5,202,440,339
India,Delhi,Delhi,"Major Dhyan Chand National Stadium, Delhi - DPCC",09-01-2024 09:00:00,28.611281,77.237738,PM2.5,315,479,390
India,Delhi,Delhi,"Major Dhyan Chand National Stadium, Delhi - DPCC",09-01-2024 09:00:00,28.611281,77.237738,PM10,184,459,345
India,Delhi,Delhi,"Major Dhyan Chand National Stadium, Delhi - DPCC",09-01-2024 09:00:00,28.611281,77.237738,NO2,41,133,83
India,Delhi,Delhi,"Mandir Marg, Delhi - DPCC",09-01-2024 09:00:00,28.636429,77.201067,SO2,1,5,3
India,Delhi,Delhi,"Mundka, Delhi - DPCC",09-01-2024 09:00:00,28.684678,77.076574,PM2.5,322,456,389
India,Delhi,Delhi,"Mundka, Delhi - DPCC",09-01-2024 09:00:00,28.684678,77.076574,SO2,13,38,20
India,Delhi,Delhi,"Najafgarh, Delhi - DPCC",09-01-2024 09:00:00,28.570173,76.933762,PM2.5,180,409,306
India,Delhi,Delhi,"Narela, Delhi - DPCC",09-01-2024 09:00:00,28.822836,77.101981,SO2,5,13,8
India,Delhi,Delhi,"Narela, Delhi - DPCC",09-01-2024 09:00:00,28.822836,77.101981,CO,58,104,80
India,Delhi,Delhi,"Nehru Nagar, Delhi - DPCC",09-01-2024 09:00:00,28.567890,77.250515,CO,41,111,53
India,Delhi,Delhi,"North Campus, DU, Delhi - IMD",09-01-2024 09:00:00,28.6573814,77.1585447,PM2.5,278,421,361
India,Delhi,Delhi,"Okhla Phase-2, Delhi - DPCC",09-01-2024 09:00:00,28.530785,77.271255,OZONE,5,26,17
India,Delhi,Delhi,"Patparganj, Delhi - DPCC",09-01-2024 09:00:00,28.623763,77.287209,OZONE,7,37,12
India,Delhi,Delhi,"Punjabi Bagh, Delhi - DPCC",09-01-2024 09:00:00,28.674045,77.131023,NO2,77,96,85
India,Delhi,Delhi,"Pusa, Delhi - DPCC",09-01-2024 09:00:00,28.639652,77.146275,PM10,241,500,396
India,Delhi,Delhi,"Pusa, Delhi - DPCC",09-01-2024 09:00:00,28.639652,77.146275,NO2,37,111,65
India,Delhi,Delhi,"R K Puram, Delhi - DPCC",09-01-2024 09:00:00,28.563262,77.186937,PM2.5,310,500,409
India,Delhi,Delhi,"R K Puram, Delhi - DPCC",09-01-2024 09:00:00,28.563262,77.186937,NO2,7,150,36
India,Delhi,Delhi,"R K Puram, Delhi - DPCC",09-01-2024 09:00:00,28.563262,77.186937,NH3,2,10,4
India,Delhi,Delhi,"Rohini, Delhi - DPCC",09-01-2024 09:00:00,28.732528,77.119920,PM2.5,253,441,356
India,Delhi,Delhi,"Rohini, Delhi - DPCC",09-01-2024 09:00:00,28.732528,77.119920,NH3,7,10,8
India,Delhi,Delhi,"Rohini, Delhi - DPCC",09-01-2024 09:00:00,28.732528,77.119920,OZONE,2,63,12
India,Delhi,Delhi,"Shadipur, Delhi - CPCB",09-01-2024 09:00:00,28.6514781,77.1473105,PM2.5,305,477,387
India,Delhi,Delhi,"Shadipur, Delhi - CPCB",09-01-2024 09:00:00,28.6514781,77.1473105,NO2,37,54,45
India,Delhi,Delhi,"Sirifort, Delhi - CPCB",09-01-2024 09:00:00,28.5504249,77.2159377,PM10,202,498,375
India,Delhi,Delhi,"Sirifort, Delhi - CPCB",09-01-2024 09:00:00,28.5504249,77.2159377,SO2,27,31,28
India,Delhi,Delhi,"Sonia Vihar, Delhi - DPCC",09-01-2024 09:00:00,28.710508,77.249485,NH3,6,7,6
India,Delhi,Delhi,"Sri Aurobindo Marg, Delhi - DPCC",09-01-2024 09:00:00,28.531346,77.190156,NO2,42,125,78
India,Delhi,Delhi,"Sri Aurobindo Marg, Delhi - DPCC",09-01-2024 09:00:00,28.531346,77.190156,OZONE,3,11,4
India,Delhi,Delhi,"Vivek Vihar, Delhi - DPCC",09-01-2024 09:00:00,28.672342,77.315260,SO2,7,8,8
India,Delhi,Delhi,"Wazirpur, Delhi - DPCC",09-01-2024 09:00:00,28.699793,77.165453,PM2.5,297,477,395
India,Delhi,Delhi,"Wazirpur, Delhi - DPCC",09-01-2024 09:00:00,28.699793,77.165453,CO,13,105,32
India,Delhi,Delhi,"Wazirpur, Delhi - DPCC",09-01-2024 09:00:00,28.699793,77.165453,OZONE,11,33,14
India,Gujarat,Ahmedabad,"Chandkheda, Ahmedabad - IITM",09-01-2024 09:00:00,23.107969,72.574648,NO2,5,9,7
India,Gujarat,Ahmedabad,"Chandkheda, Ahmedabad - IITM",09-01-2024 09:00:00,23.107969,72.574648,OZONE,21,23,21
India,Gujarat,Ahmedabad,"Gyaspur, Ahmedabad - IITM",09-01-2024 09:00:00,22.977134,72.553024,PM10,97,179,122
India,Gujarat,Ahmedabad,"Gyaspur, Ahmedabad - IITM",09-01-2024 09:00:00,22.977134,72.553024,NO2,13,17,14
India,Gujarat,Ahmedabad,"Maninagar, Ahmedabad - GPCB",09-01-2024 09:00:00,23.002657,72.591912,PM10,83,137,115
India,Gujarat,Ahmedabad,"Maninagar, Ahmedabad - GPCB",09-01-2024 09:00:00,23.002657,72.591912,OZONE,7,107,17
India,Gujarat,Ahmedabad,"Raikhad, Ahmedabad - IITM",09-01-2024 09:00:00,23.020509,72.579261,NO2,17,17,17
India,Gujarat,Ahmedabad,"SAC ISRO Bopal, Ahmedabad - IITM",09-01-2024 09:00:00,23.041137,72.456691,PM2.5,82,306,184
India,Gujarat,Ahmedabad,"SAC ISRO Bopal, Ahmedabad - IITM",09-01-2024 09:00:00,23.041137,72.456691,CO,22,28,22
India,Gujarat,Ahmedabad,"SAC ISRO Satellite, Ahmedabad - IITM",09-01-2024 09:00:00,23.023389,72.515201,PM2.5,75,97,83
India,Gujarat,Ahmedabad,"SAC ISRO Satellite, Ahmedabad - IITM",09-01-2024 09:00:00,23.023389,72.515201,SO2,4,8,5
India,Gujarat,Ahmedabad,"SVPI Airport Hansol, Ahmedabad - IITM",09-01-2024 09:00:00,23.076793,72.627874,PM2.5,74,262,118
India,Gujarat,Ahmedabad,"SVPI Airport Hansol, Ahmedabad - IITM",09-01-2024 09:00:00,23.076793,72.627874,PM10,78,128,97
India,Gujarat,Ahmedabad,"SVPI Airport Hansol, Ahmedabad - IITM",09-01-2024 09:00:00,23.076793,72.627874,NO2,9,10,10
India,Gujarat,Ahmedabad,"Sardar Vallabhbhai Patel Stadium, Ahmedabad - IITM",09-01-2024 09:00:00,23.043070,72.562968,PM2.5,85,188,121
India,Gujarat,Ahmedabad,"Sardar Vallabhbhai Patel Stadium, Ahmedabad - IITM",09-01-2024 09:00:00,23.043070,72.562968,PM10,102,145,122
India,Gujarat,Gandhinagar,"GIFT City, Gandhinagar - IITM",09-01-2024 09:00:00,23.163798,72.677768,PM10,79,116,96
India,Gujarat,Gandhinagar,"GIFT City, Gandhinagar - IITM",09-01-2024 09:00:00,23.163798,72.677768,SO2,4,6,6
India,Gujarat,Gandhinagar,"GIFT City, Gandhinagar - IITM",09-01-2024 09:00:00,23.163798,72.677768,OZONE,2,19,5
India,Gujarat,Gandhinagar,"IIPHG Lekawada, Gandhinagar - IITM",09-01-2024 09:00:00,23.243639,72.68994,PM10,57,102,66
India,Gujarat,Gandhinagar,"IIPHG Lekawada, Gandhinagar - IITM",09-01-2024 09:00:00,23.243639,72.68994,SO2,4,9,6
India,Gujarat,Gandhinagar,"Sector-10, Gandhinagar - GPCB",09-01-2024 09:00:00,23.221714,72.654328,NH3,2,2,2
India,Gujarat,Surat,"Science Center, Surat - SMC",09-01-2024 09:00:00,21.170046,72.795405,NO2,7,15,10
India,Gujarat,Vapi,"Phase-1 GIDC, Vapi - GPCB",09-01-2024 09:00:00,20.362421,72.918013,NH3,6,6,6
India,Gujarat,Vapi,"Phase-1 GIDC, Vapi - GPCB",09-01-2024 09:00:00,20.362421,72.918013,SO2,41,51,48
India,Gujarat,Vapi,"Phase-1 GIDC, Vapi - GPCB",09-01-2024 09:00:00,20.362421,72.918013,CO,NA,NA,NA
India,Haryana,Ambala,"Patti Mehar, Ambala - HSPCB",09-01-2024 09:00:00,30.379589,76.778328,PM2.5,24,89,66
India,Haryana,Bahadurgarh,"Arya Nagar, Bahadurgarh - HSPCB",09-01-2024 09:00:00,28.6701,76.9254,PM2.5,139,346,282
India,Haryana,Ballabgarh,"Nathu Colony, Ballabgarh - HSPCB",09-01-2024 09:00:00,28.3419248,77.319699,PM10,187,405,312
India,Haryana,Ballabgarh,"Nathu Colony, Ballabgarh - HSPCB",09-01-2024 09:00:00,28.3419248,77.319699,CO,22,90,48
India,Haryana,Ballabgarh,"Nathu Colony, Ballabgarh - HSPCB",09-01-2024 09:00:00,28.3419248,77.319699,OZONE,4,15,5
India,Haryana,Bhiwani,"H.B. Colony, Bhiwani - HSPCB",09-01-2024 09:00:00,28.806223,76.141105,SO2,5,13,11
India,Haryana,Bhiwani,"H.B. Colony, Bhiwani - HSPCB",09-01-2024 09:00:00,28.806223,76.141105,CO,86,101,95
India,Haryana,Charkhi Dadri,"Mini Secretariat, Charkhi Dadri - HSPCB",09-01-2024 09:00:00,28.593883,76.270653,NO2,3,21,10
India,Haryana,Dharuhera,"Municipal Corporation Office, Dharuhera -  HSPCB",09-01-2024 09:00:00,28.206800,76.799700,SO2,4,10,7
India,Haryana,Faridabad,"Sector 11, Faridabad - HSPCB",09-01-2024 09:00:00,28.376058,77.315741,CO,28,88,57
India,Haryana,Faridabad,"Sector 30, Faridabad - HSPCB",09-01-2024 09:00:00,28.4417,77.3217,PM2.5,175,219,193
India,Haryana,Fatehabad,"Huda Sector, Fatehabad - HSPCB",09-01-2024 09:00:00,29.503664,75.467934,NO2,29,31,30
India,Haryana,Fatehabad,"Huda Sector, Fatehabad - HSPCB",09-01-2024 09:00:00,29.503664,75.467934,NH3,10,10,10
India,Haryana,Fatehabad,"Huda Sector, Fatehabad - HSPCB",09-01-2024 09:00:00,29.503664,75.467934,OZONE,20,28,24
India,Haryana,Gurugram,"Sector-51, Gurugram - HSPCB",09-01-2024 09:00:00,28.4227,77.0667,NH3,7,23,11
India,Haryana,Gurugram,"Teri Gram, Gurugram - HSPCB",09-01-2024 09:00:00,28.4275,77.1465,PM2.5,93,377,246
India,Haryana,Hisar,"Urban Estate-II, Hisar - HSPCB",09-01-2024 09:00:00,29.140560,75.744941,PM10,81,142,109
India,Haryana,Hisar,"Urban Estate-II, Hisar - HSPCB",09-01-2024 09:00:00,29.140560,75.744941,OZONE,28,74,40
India,Haryana,Jind,"Police Lines, Jind - HSPCB",09-01-2024 09:00:00,29.307814,76.337619,PM2.5,57,204,108
India,Haryana,Kaithal,"Rishi Nagar, Kaithal - HSPCB",09-01-2024 09:00:00,29.8006,76.4155,NO2,24,26,25
India,Haryana,Kurukshetra,"Sector-7, Kurukshetra - HSPCB",09-01-2024 09:00:00,29.966942,76.875879,PM2.5,50,105,82
India,Haryana,Kurukshetra,"Sector-7, Kurukshetra - HSPCB",09-01-2024 09:00:00,29.966942,76.875879,SO2,1,47,17
India,Haryana,Manesar,"Sector-2 IMT, Manesar - HSPCB",09-01-2024 09:00:00,28.360699,76.936090,CO,33,102,40
India,Haryana,Manesar,"Sector-2 IMT, Manesar - HSPCB",09-01-2024 09:00:00,28.360699,76.936090,OZONE,7,20,10
India,Haryana,Narnaul,"Shastri Nagar, Narnaul - HSPCB",09-01-2024 09:00:00,28.060249,76.113115,NH3,5,15,11
India,Haryana,Narnaul,"Shastri Nagar, Narnaul - HSPCB",09-01-2024 09:00:00,28.060249,76.113115,CO,10,34,13
India,Haryana,Narnaul,"Shastri Nagar, Narnaul - HSPCB",09-01-2024 09:00:00,28.060249,76.113115,OZONE,11,86,58
India,Haryana,Palwal,"Shyam Nagar, Palwal - HSPCB",09-01-2024 09:00:00,28.1485564,77.3320667,PM10,NA,NA,NA
India,Haryana,Palwal,"Shyam Nagar, Palwal - HSPCB",09-01-2024 09:00:00,28.1485564,77.3320667,NH3,NA,NA,NA
India,Haryana,Panchkula,"Sector-6, Panchkula - HSPCB ",09-01-2024 09:00:00,30.7057778,76.8531805555555,SO2,11,12,12
India,Haryana,Rohtak,"MD University, Rohtak - HSPCB",09-01-2024 09:00:00,28.52123,76.37138,PM2.5,317,395,351
India,Haryana,Rohtak,"MD University, Rohtak - HSPCB",09-01-2024 09:00:00,28.52123,76.37138,SO2,5,8,7
India,Haryana,Rohtak,"MD University, Rohtak - HSPCB",09-01-2024 09:00:00,28.52123,76.37138,OZONE,35,42,38
India,Haryana,Sonipat,"Murthal, Sonipat - HSPCB",09-01-2024 09:00:00,29.027200,77.062100,NH3,7,10,9
India,Haryana,Yamuna Nagar,"Gobind Pura, Yamuna Nagar - HSPCB",09-01-2024 09:00:00,30.1480566,77.2893471,NO2,11,28,18
India,Himachal Pradesh,Baddi,"HIMUDA Complex Phase-1, Baddi - HPPCB",09-01-2024 09:00:00,30.943887,76.801991,PM2.5,85,453,283
India,Jharkhand,Dhanbad,"Kalakusuma, Dhanbad - DMC",09-01-2024 09:00:00,23.811548,86.481238,PM2.5,5,196,91
India,Jharkhand,Dhanbad,"Kalakusuma, Dhanbad - DMC",09-01-2024 09:00:00,23.811548,86.481238,PM10,64,185,135
India,Jharkhand,Dhanbad,"Sardar Patel Nagar, Dhanbad - JSPCB",09-01-2024 09:00:00,23.80569,86.44268,PM10,NA,NA,NA
India,Jharkhand,Dhanbad,"Sardar Patel Nagar, Dhanbad - JSPCB",09-01-2024 09:00:00,23.80569,86.44268,SO2,NA,NA,NA
India,Jharkhand,Pathardih,"Mohalbani Ghat, Pathardih - DMC",09-01-2024 09:00:00,23.669880,86.411725,PM2.5,NA,NA,NA
India,Karnataka,Bagalkot,"Vidayagiri, Bagalkot - KSPCB",09-01-2024 09:00:00,16.172806,75.659694,CO,30,59,39
India,Karnataka,Bagalkot,"Vidayagiri, Bagalkot - KSPCB",09-01-2024 09:00:00,16.172806,75.659694,OZONE,19,27,21
India,Karnataka,Belgaum,"Ramteerth Nagar, Belgaum - KSPCB",09-01-2024 09:00:00,15.888653,74.541751,PM2.5,28,61,44
India,Karnataka,Belgaum,"Ramteerth Nagar, Belgaum - KSPCB",09-01-2024 09:00:00,15.888653,74.541751,NH3,33,34,33
India,Karnataka,Belgaum,"Ramteerth Nagar, Belgaum - KSPCB",09-01-2024 09:00:00,15.888653,74.541751,CO,48,70,65
India,Karnataka,Bengaluru,"BTM Layout, Bengaluru - CPCB",09-01-2024 09:00:00,12.9135218,77.5950804,PM10,NA,NA,NA
India,Karnataka,Bengaluru,"Bapuji Nagar, Bengaluru - KSPCB",09-01-2024 09:00:00,12.951913,77.539784,NH3,1,1,1
India,Karnataka,Bengaluru,"Bapuji Nagar, Bengaluru - KSPCB",09-01-2024 09:00:00,12.951913,77.539784,SO2,6,7,7
India,Karnataka,Bengaluru,"Bapuji Nagar, Bengaluru - KSPCB",09-01-2024 09:00:00,12.951913,77.539784,CO,26,76,35
India,Karnataka,Bengaluru,"Hombegowda Nagar, Bengaluru - KSPCB",09-01-2024 09:00:00,12.938539,77.590100,NO2,22,34,32
India,Karnataka,Bengaluru,"Hombegowda Nagar, Bengaluru - KSPCB",09-01-2024 09:00:00,12.938539,77.590100,NH3,1,2,2
India,Karnataka,Bengaluru,"Jigani, Bengaluru - KSPCB",09-01-2024 09:00:00,12.7816279,77.6299145,OZONE,18,49,44
India,Karnataka,Bengaluru,"Kasturi Nagar, Bengaluru - KSPCB",09-01-2024 09:00:00,13.003872,77.664217,SO2,8,8,8
India,Karnataka,Bengaluru,"Kasturi Nagar, Bengaluru - KSPCB",09-01-2024 09:00:00,13.003872,77.664217,OZONE,19,69,52
India,Karnataka,Bengaluru,"Peenya, Bengaluru - CPCB",09-01-2024 09:00:00,13.0270199,77.494094,NO2,21,28,24
India,Karnataka,Bengaluru,"RVCE-Mailasandra, Bengaluru - KSPCB",09-01-2024 09:00:00,12.921418,77.502466,CO,39,48,42
India,Karnataka,Bengaluru,"Shivapura_Peenya, Bengaluru - KSPCB",09-01-2024 09:00:00,13.0246342,77.5080115,PM2.5,2,72,20
India,Karnataka,Bengaluru,"Shivapura_Peenya, Bengaluru - KSPCB",09-01-2024 09:00:00,13.0246342,77.5080115,OZONE,12,52,40
India,Karnataka,Bengaluru,"Silk Board, Bengaluru - KSPCB",09-01-2024 09:00:00,12.917348,77.622813,NO2,15,19,17
India,Karnataka,Bengaluru,"Silk Board, Bengaluru - KSPCB",09-01-2024 09:00:00,12.917348,77.622813,NH3,2,3,2
India,Karnataka,Bengaluru,"Silk Board, Bengaluru - KSPCB",09-01-2024 09:00:00,12.917348,77.622813,OZONE,10,18,12
India,Karnataka,Bidar,"Naubad, Bidar - KSPCB",09-01-2024 09:00:00,17.930306,77.482194,PM2.5,67,177,101
India,Karnataka,Bidar,"Naubad, Bidar - KSPCB",09-01-2024 09:00:00,17.930306,77.482194,NH3,2,3,3
India,Karnataka,Bidar,"Naubad, Bidar - KSPCB",09-01-2024 09:00:00,17.930306,77.482194,CO,22,58,52
India,Karnataka,Chamarajanagar,"Urban, Chamarajanagar - KSPCB",09-01-2024 09:00:00,11.55358,76.55521,PM2.5,21,48,31
India,Karnataka,Chamarajanagar,"Urban, Chamarajanagar - KSPCB",09-01-2024 09:00:00,11.55358,76.55521,NO2,23,39,30
India,Karnataka,Davanagere,"Devaraj Urs Badavane, Davanagere - KSPCB",09-01-2024 09:00:00,14.475800,75.905200,NO2,9,12,10
India,Karnataka,Davanagere,"Devaraj Urs Badavane, Davanagere - KSPCB",09-01-2024 09:00:00,14.475800,75.905200,SO2,3,5,4
India,Karnataka,Davanagere,"Devaraj Urs Badavane, Davanagere - KSPCB",09-01-2024 09:00:00,14.475800,75.905200,CO,14,18,16
India,Karnataka,Davanagere,"Devaraj Urs Badavane, Davanagere - KSPCB",09-01-2024 09:00:00,14.475800,75.905200,OZONE,21,31,23
India,Karnataka,Dharwad,"Kalabhavan, Dharwad - KSPCB",09-01-2024 09:00:00,15.459706,75.008381,NH3,3,3,3
India,Karnataka,Dharwad,"Kalabhavan, Dharwad - KSPCB",09-01-2024 09:00:00,15.459706,75.008381,CO,32,100,52
India,Karnataka,Gadag,"Panchal Nagar, Gadag - KSPCB",09-01-2024 09:00:00,15.411456,75.638133,PM2.5,20,49,32
India,Karnataka,Gadag,"Panchal Nagar, Gadag - KSPCB",09-01-2024 09:00:00,15.411456,75.638133,SO2,8,10,9
India,Karnataka,Gadag,"Panchal Nagar, Gadag - KSPCB",09-01-2024 09:00:00,15.411456,75.638133,CO,48,60,56
India,Karnataka,Gadag,"Panchal Nagar, Gadag - KSPCB",09-01-2024 09:00:00,15.411456,75.638133,OZONE,25,53,29
India,Karnataka,Haveri,"Ashwini Nagar, Haveri - KSPCB",09-01-2024 09:00:00,14.791800,75.389600,PM2.5,40,95,54
India,Karnataka,Haveri,"Ashwini Nagar, Haveri - KSPCB",09-01-2024 09:00:00,14.791800,75.389600,SO2,13,14,14
India,Karnataka,Hubballi,"Deshpande Nagar, Hubballi - KSPCB",09-01-2024 09:00:00,15.351773,75.140726,NH3,6,15,10
India,Karnataka,Hubballi,"Lingaraj Nagar, Hubballi - KSPCB",09-01-2024 09:00:00,15.3714823,75.1160168,PM2.5,21,52,39
India,Karnataka,Hubballi,"Lingaraj Nagar, Hubballi - KSPCB",09-01-2024 09:00:00,15.3714823,75.1160168,CO,36,50,41
India,Karnataka,Kalaburagi,"Lal Bahadur Shastri Nagar, Kalaburagi - KSPCB",09-01-2024 09:00:00,17.321993,76.822628,OZONE,13,42,30
India,Karnataka,Kalaburagi,"Mahatma Basaveswar Colony, Kalaburgi - KSPCB",09-01-2024 09:00:00,17.336318,76.847397,SO2,3,13,5
