country,state,city,station,last_update,latitude,longitude,pollutant_id,pollutant_min,pollutant_max,pollutant_avg
India,Andhra_Pradesh,Amaravati,"Secretariat, Amaravati - APPCB",04-04-2024 08:00:00,16.5150833,80.5181667,PM10,18,52,36
India,Andhra_Pradesh,Amaravati,"Secretariat, Amaravati - APPCB",04-04-2024 08:00:00,16.5150833,80.5181667,NH3,4,5,5
India,Andhra_Pradesh,Amaravati,"Secretariat, Amaravati - APPCB",04-04-2024 08:00:00,16.5150833,80.5181667,SO2,13,18,16
India,Andhra_Pradesh,Anantapur,"Gulzarpet, Anantapur - APPCB",04-04-2024 08:00:00,14.675886,77.593027,PM10,67,105,79
India,Andhra_Pradesh,Chittoor,"Gangineni Cheruvu, Chittoor - APPCB",04-04-2024 08:00:00,13.204880,79.097889,SO2,1,91,15
India,Andhra_Pradesh,Chittoor,"Gangineni Cheruvu, Chittoor - APPCB",04-04-2024 08:00:00,13.204880,79.097889,OZONE,135,135,135
India,Andhra_Pradesh,Kadapa,"Yerramukkapalli, Kadapa - APPCB",04-04-2024 08:00:00,14.465052,78.824187,CO,8,30,14
India,Andhra_Pradesh,Kadapa,"Yerramukkapalli, Kadapa - APPCB",04-04-2024 08:00:00,14.465052,78.824187,OZONE,15,85,37
India,Andhra_Pradesh,Rajamahendravaram,"Anand Kala Kshetram, Rajamahendravaram - APPCB",04-04-2024 08:00:00,16.9872867,81.7363176,NO2,5,17,10
India,Andhra_Pradesh,Tirupati,"Vaikuntapuram, Tirupati - APPCB",04-04-2024 08:00:00,13.615387,79.409230,SO2,4,5,5
India,Andhra_Pradesh,Vijayawada,"HB Colony, Vijayawada - APPCB",04-04-2024 08:00:00,16.536107,80.594233,PM10,48,66,57
India,Andhra_Pradesh,Vijayawada,"HB Colony, Vijayawada - APPCB",04-04-2024 08:00:00,16.536107,80.594233,SO2,3,4,4
India,Andhra_Pradesh,Vijayawada,"Kanuru, Vijayawada - APPCB",04-04-2024 08:00:00,16.486692,80.699436,NO2,NA,NA,NA
India,Andhra_Pradesh,Vijayawada,"Kanuru, Vijayawada - APPCB",04-04-2024 08:00:00,16.486692,80.699436,OZONE,28,29,28
India,Andhra_Pradesh,Vijayawada,"Rajiv Gandhi Park, Vijayawada - APPCB",04-04-2024 08:00:00,16.509717,80.612222,PM2.5,33,62,48
India,Andhra_Pradesh,Vijayawada,"Rajiv Gandhi Park, Vijayawada - APPCB",04-04-2024 08:00:00,16.509717,80.612222,PM10,31,65,48
India,Andhra_Pradesh,Vijayawada,"Rajiv Nagar, Vijayawada - APPCB",04-04-2024 08:00:00,16.554731,80.649110,SO2,11,22,16
India,Andhra_Pradesh,Vijayawada,"Rajiv Nagar, Vijayawada - APPCB",04-04-2024 08:00:00,16.554731,80.649110,CO,37,44,44
India,Andhra_Pradesh,Visakhapatnam,"GVM Corporation, Visakhapatnam - APPCB",04-04-2024 08:00:00,17.72,83.3,PM10,63,159,108
India,Andhra_Pradesh,Visakhapatnam,"GVM Corporation, Visakhapatnam - APPCB",04-04-2024 08:00:00,17.72,83.3,CO,14,76,16
India,Arunachal_Pradesh,Naharlagun,"Naharlagun, Naharlagun - APSPCB",04-04-2024 08:00:00,27.103358,93.679645,PM10,21,99,59
India,Arunachal_Pradesh,Naharlagun,"Naharlagun, Naharlagun - APSPCB",04-04-2024 08:00:00,27.103358,93.679645,OZONE,2,2,2
India,Assam,Byrnihat,"Central Academy for SFS, Byrnihat - PCBA",04-04-2024 08:00:00,26.071318,91.87488,PM2.5,15,404,174
India,Assam,Byrnihat,"Central Academy for SFS, Byrnihat - PCBA",04-04-2024 08:00:00,26.071318,91.87488,SO2,5,18,14
India,Assam,Byrnihat,"Central Academy for SFS, Byrnihat - PCBA",04-04-2024 08:00:00,26.071318,91.87488,OZONE,19,21,21
India,Assam,Guwahati,"IITG, Guwahati - PCBA",04-04-2024 08:00:00,26.2028636,91.70046436,PM10,66,302,164
India,Assam,Guwahati,"IITG, Guwahati - PCBA",04-04-2024 08:00:00,26.2028636,91.70046436,NH3,5,5,5
India,Assam,Guwahati,"IITG, Guwahati - PCBA",04-04-2024 08:00:00,26.2028636,91.70046436,OZONE,7,38,11
India,Assam,Guwahati,"LGBI Airport, Guwahati - PCBA",04-04-2024 08:00:00,26.10887,91.589544,PM2.5,37,170,82
India,Assam,Guwahati,"Pan Bazaar, Guwahati - PCBA",04-04-2024 08:00:00,26.187500,91.744194,PM2.5,29,65,42
India,Assam,Guwahati,"Pan Bazaar, Guwahati - PCBA",04-04-2024 08:00:00,26.187500,91.744194,SO2,34,57,43
India,Assam,Guwahati,"Railway Colony, Guwahati - PCBA",04-04-2024 08:00:00,26.181742,91.78063,CO,NA,NA,NA
India,Assam,Nagaon,"Christianpatty, Nagaon - PCBA",04-04-2024 08:00:00,26.349082,92.68449,CO,2,68,48
India,Assam,Silchar,"Tarapur, Silchar - PCBA",04-04-2024 08:00:00,24.82827,92.79525,OZONE,1,14,1
India,Assam,Sivasagar,"Girls College, Sivasagar - PCBA",04-04-2024 08:00:00,26.987634,94.636574,PM2.5,39,53,45
India,Bihar,Araria,"Kharahiya Basti, Araria - BSPCB",04-04-2024 08:00:00,26.146529,87.454184,SO2,9,22,17
India,Bihar,Arrah,"New DM Office, Arrah - BSPCB",04-04-2024 08:00:00,25.5626095,84.663264,SO2,13,22,17
India,Bihar,Arrah,"New DM Office, Arrah - BSPCB",04-04-2024 08:00:00,25.5626095,84.663264,OZONE,12,59,18
India,Bihar,Bettiah,"Kamalnath Nagar, Bettiah - BSPCB",04-04-2024 08:00:00,26.80365,84.51954,NO2,NA,NA,NA
India,Bihar,Bhagalpur,"DM Office_Kachari Chowk, Bhagalpur - BSPCB",04-04-2024 08:00:00,25.251013,86.989001,OZONE,45,50,47
India,Bihar,Bihar Sharif,"D M Colony, Bihar Sharif - BSPCB",04-04-2024 08:00:00,25.204762,85.514960,SO2,3,13,7
India,Bihar,Gaya,"Kareemganj, Gaya - BSPCB",04-04-2024 08:00:00,24.792403,84.992416,SO2,5,12,8
India,Bihar,Gaya,"SFTI Kusdihra, Gaya - BSPCB",04-04-2024 08:00:00,24.762518,84.982348,PM10,NA,NA,NA
India,Bihar,Hajipur,"Industrial Area, Hajipur - BSPCB",04-04-2024 08:00:00,25.697189,85.245900,NH3,1,3,1
India,Bihar,Hajipur,"Industrial Area, Hajipur - BSPCB",04-04-2024 08:00:00,25.697189,85.245900,SO2,5,9,7
India,Bihar,Katihar,"Mirchaibari, Katihar - BSPCB",04-04-2024 08:00:00,25.560083,87.553265,PM2.5,NA,NA,NA
India,Bihar,Katihar,"Mirchaibari, Katihar - BSPCB",04-04-2024 08:00:00,25.560083,87.553265,OZONE,NA,NA,NA
India,Bihar,Kishanganj,"SDM Office_Khagra, Kishanganj - BSPCB",04-04-2024 08:00:00,26.0881305,87.93840336,NH3,10,12,11
India,Bihar,Kishanganj,"SDM Office_Khagra, Kishanganj - BSPCB",04-04-2024 08:00:00,26.0881305,87.93840336,CO,2,23,7
India,Bihar,Manguraha,"Forest Rest House, Manguraha - BSPCB",04-04-2024 08:00:00,27.308328,84.531742,PM2.5,NA,NA,NA
India,Bihar,Manguraha,"Forest Rest House, Manguraha - BSPCB",04-04-2024 08:00:00,27.308328,84.531742,PM10,41,139,75
India,Bihar,Munger,"Town Hall, Munger - BSPCB",04-04-2024 08:00:00,25.376776,86.471523,PM2.5,87,243,136
India,Bihar,Muzaffarpur,"Buddha Colony, Muzaffarpur - BSPCB",04-04-2024 08:00:00,26.11442,85.39813,NO2,20,98,40
India,Bihar,Muzaffarpur,"MIT-Daudpur Kothi, Muzaffarpur - BSPCB",04-04-2024 08:00:00,26.1403345,85.3650192,NO2,5,8,7
India,Bihar,Muzaffarpur,"Muzaffarpur Collectorate, Muzaffarpur - BSPCB",04-04-2024 08:00:00,26.1209,85.3647,NO2,7,148,52
India,Bihar,Patna,"DRM Office Danapur, Patna - BSPCB",04-04-2024 08:00:00,25.586562,85.043586,PM2.5,NA,NA,NA
India,Bihar,Patna,"DRM Office Danapur, Patna - BSPCB",04-04-2024 08:00:00,25.586562,85.043586,CO,NA,NA,NA
India,Bihar,Patna,"Govt. High School Shikarpur, Patna - BSPCB",04-04-2024 08:00:00,25.592539,85.227158,CO,32,64,45
India,Bihar,Patna,"IGSC Planetarium Complex, Patna - BSPCB",04-04-2024 08:00:00,25.610369,85.132568,NO2,10,12,11
India,Bihar,Patna,"IGSC Planetarium Complex, Patna - BSPCB",04-04-2024 08:00:00,25.610369,85.132568,OZONE,21,41,35
India,Bihar,Patna,"Muradpur, Patna - BSPCB",04-04-2024 08:00:00,25.619651,85.147382,OZONE,1,42,2
India,Bihar,Patna,"Rajbansi Nagar, Patna - BSPCB",04-04-2024 08:00:00,25.599486,85.113666,PM10,133,414,180
India,Bihar,Patna,"Rajbansi Nagar, Patna - BSPCB",04-04-2024 08:00:00,25.599486,85.113666,NO2,22,44,29
India,Bihar,Patna,"Rajbansi Nagar, Patna - BSPCB",04-04-2024 08:00:00,25.599486,85.113666,NH3,6,12,8
India,Bihar,Patna,"Samanpura, Patna - BSPCB",04-04-2024 08:00:00,25.596727,85.085624,PM10,189,373,270
India,Bihar,Patna,"Samanpura, Patna - BSPCB",04-04-2024 08:00:00,25.596727,85.085624,SO2,6,7,6
India,Bihar,Patna,"Samanpura, Patna - BSPCB",04-04-2024 08:00:00,25.596727,85.085624,CO,26,122,82
India,Bihar,Purnia,"Mariam Nagar, Purnia - BSPCB",04-04-2024 08:00:00,25.366336,87.117468,PM10,102,407,191
India,Bihar,Purnia,"Mariam Nagar, Purnia - BSPCB",04-04-2024 08:00:00,25.366336,87.117468,NH3,2,2,2
India,Bihar,Rajgir,"Dangi Tola, Rajgir - BSPCB",04-04-2024 08:00:00,25.03280,85.41948,PM2.5,18,58,32
India,Bihar,Rajgir,"Dangi Tola, Rajgir - BSPCB",04-04-2024 08:00:00,25.03280,85.41948,CO,9,11,10
India,Bihar,Saharsa,"Police Line, Saharsa - BSPCB",04-04-2024 08:00:00,25.892357,86.590325,NH3,9,9,9
India,Bihar,Samastipur,"DM Office_Kasipur, Samastipur - BSPCB",04-04-2024 08:00:00,25.859655,85.77944,CO,6,35,29
India,Bihar,Samastipur,"DM Office_Kasipur, Samastipur - BSPCB",04-04-2024 08:00:00,25.859655,85.77944,OZONE,9,24,9
India,Bihar,Sasaram,"Dada Peer, Sasaram - BSPCB",04-04-2024 08:00:00,24.952822,84.002396,NO2,8,27,16
India,Bihar,Sasaram,"Dada Peer, Sasaram - BSPCB",04-04-2024 08:00:00,24.952822,84.002396,CO,47,130,109
India,Bihar,Sasaram,"Dada Peer, Sasaram - BSPCB",04-04-2024 08:00:00,24.952822,84.002396,OZONE,9,92,28
India,Bihar,Siwan,"Chitragupta Nagar, Siwan - BSPCB",04-04-2024 08:00:00,26.2271665,84.3570427,NH3,1,11,3
India,Chandigarh,Chandigarh,"Sector 22, Chandigarh - CPCC",04-04-2024 08:00:00,30.735567,76.775714,PM2.5,23,177,91
India,Chandigarh,Chandigarh,"Sector 22, Chandigarh - CPCC",04-04-2024 08:00:00,30.735567,76.775714,PM10,44,147,105
India,Chandigarh,Chandigarh,"Sector-25, Chandigarh - CPCC",04-04-2024 08:00:00,30.751462,76.762879,PM10,102,141,121
India,Chandigarh,Chandigarh,"Sector-53, Chandigarh - CPCC",04-04-2024 08:00:00,30.719859,76.738637,NO2,6,105,38
India,Chhattisgarh,Bhilai,"32Bungalows, Bhilai - CECB",04-04-2024 08:00:00,21.194815,81.314770,OZONE,4,82,6
India,Chhattisgarh,Bhilai,"Civic Center, Bhilai - Bhilai Steel Plant",04-04-2024 08:00:00,21.185571,81.343175,PM2.5,39,125,64
India,Chhattisgarh,Chhal,"Nawapara SECL Colony, Chhal - CECB",04-04-2024 08:00:00,22.118125,83.140608,NO2,16,75,42
India,Chhattisgarh,Korba,"Rampur, Korba - CECB",04-04-2024 08:00:00,22.368195,82.746431,OZONE,2,12,3
India,Chhattisgarh,Korba,"Urja Nagar, Korba - CECB",04-04-2024 08:00:00,22.348441,82.549611,PM10,NA,NA,NA
India,Chhattisgarh,Korba,"Urja Nagar, Korba - CECB",04-04-2024 08:00:00,22.348441,82.549611,OZONE,1,5,1
India,Chhattisgarh,Kunjemura,"OP Jindal School, Kunjemura - CECB",04-04-2024 08:00:00,22.126650,83.483212,NH3,1,6,2
India,Chhattisgarh,Milupara,"Govt. Higher Secondary School, Milupara - CECB",04-04-2024 08:00:00,22.1910172,83.5197009,NO2,25,76,50
India,Chhattisgarh,Raipur,"AIIMS, Raipur - CECB",04-04-2024 08:00:00,21.258815,81.578979,SO2,7,48,20
India,Chhattisgarh,Raipur,"Bhatagaon New ISBT, Raipur - CECB",04-04-2024 08:00:00,21.219665,81.630094,PM10,40,173,97
India,Chhattisgarh,Raipur,"Bhatagaon New ISBT, Raipur - CECB",04-04-2024 08:00:00,21.219665,81.630094,NO2,62,115,85
India,Chhattisgarh,Raipur,"Bhatagaon New ISBT, Raipur - CECB",04-04-2024 08:00:00,21.219665,81.630094,SO2,1,4,2
India,Chhattisgarh,Raipur,"Krishak Nagar, Raipur - CECB",04-04-2024 08:00:00,21.237755,81.705301,PM2.5,41,114,70
India,Chhattisgarh,Raipur,"Krishak Nagar, Raipur - CECB",04-04-2024 08:00:00,21.237755,81.705301,NO2,23,45,32
India,Chhattisgarh,Raipur,"Krishak Nagar, Raipur - CECB",04-04-2024 08:00:00,21.237755,81.705301,CO,32,70,36
India,Chhattisgarh,Raipur,"Siltara Phase-II, Raipur - CECB",04-04-2024 08:00:00,21.371751,81.664929,PM2.5,57,148,85
India,Chhattisgarh,Raipur,"Siltara Phase-II, Raipur - CECB",04-04-2024 08:00:00,21.371751,81.664929,NH3,3,3,3
India,Delhi,Delhi,"Alipur, Delhi - DPCC",04-04-2024 08:00:00,28.815329,77.153010,NO2,6,84,27
India,Delhi,Delhi,"Alipur, Delhi - DPCC",04-04-2024 08:00:00,28.815329,77.153010,NH3,3,6,4
India,Delhi,Delhi,"Alipur, Delhi - DPCC",04-04-2024 08:00:00,28.815329,77.153010,CO,28,57,39
India,Delhi,Delhi,"Alipur, Delhi - DPCC",04-04-2024 08:00:00,28.815329,77.153010,OZONE,5,195,33
India,Delhi,Delhi,"Anand Vihar, Delhi - DPCC",04-04-2024 08:00:00,28.647622,77.3158090,CO,109,132,125
India,Delhi,Delhi,"Bawana, Delhi - DPCC",04-04-2024 08:00:00,28.776200,77.051074,NH3,4,7,5
India,Delhi,Delhi,"Burari Crossing, Delhi - IMD",04-04-2024 08:00:00,28.7256504,77.2011573,PM2.5,92,335,199
India,Delhi,Delhi,"CRRI Mathura Road, Delhi - IMD",04-04-2024 08:00:00,28.5512005,77.2735737,PM2.5,NA,NA,NA
India,Delhi,Delhi,"DTU, Delhi - CPCB",04-04-2024 08:00:00,28.7500499,77.1112615,SO2,32,35,33
India,Delhi,Delhi,"DTU, Delhi - CPCB",04-04-2024 08:00:00,28.7500499,77.1112615,CO,18,60,40
India,Delhi,Delhi,"DTU, Delhi - CPCB",04-04-2024 08:00:00,28.7500499,77.1112615,OZONE,29,201,35
India,Delhi,Delhi,"IHBAS, Dilshad Garden, Delhi - CPCB",04-04-2024 08:00:00,28.6811736,77.3025234,PM10,116,299,173
India,Delhi,Delhi,"IHBAS, Dilshad Garden, Delhi - CPCB",04-04-2024 08:00:00,28.6811736,77.3025234,CO,10,60,29
India,Delhi,Delhi,"Jahangirpuri, Delhi - DPCC",04-04-2024 08:00:00,28.732820,77.170633,SO2,12,87,37
India,Delhi,Delhi,"Jahangirpuri, Delhi - DPCC",04-04-2024 08:00:00,28.732820,77.170633,OZONE,4,92,9
India,Delhi,Delhi,"Jawaharlal Nehru Stadium, Delhi - DPCC",04-04-2024 08:00:00,28.580280,77.233829,NO2,40,147,94
India,Delhi,Delhi,"Lodhi Road, Delhi - IMD",04-04-2024 08:00:00,28.5918245,77.2273074,CO,16,36,32
India,Delhi,Delhi,"Major Dhyan Chand National Stadium, Delhi - DPCC",04-04-2024 08:00:00,28.611281,77.237738,PM2.5,41,277,115
India,Delhi,Delhi,"Mandir Marg, Delhi - DPCC",04-04-2024 08:00:00,28.636429,77.201067,NH3,6,6,6
India,Delhi,Delhi,"Najafgarh, Delhi - DPCC",04-04-2024 08:00:00,28.570173,76.933762,NO2,21,107,47
India,Delhi,Delhi,"Narela, Delhi - DPCC",04-04-2024 08:00:00,28.822836,77.101981,PM10,88,300,163
India,Delhi,Delhi,"Narela, Delhi - DPCC",04-04-2024 08:00:00,28.822836,77.101981,OZONE,9,244,39
India,Delhi,Delhi,"Nehru Nagar, Delhi - DPCC",04-04-2024 08:00:00,28.567890,77.250515,PM10,69,277,156
India,Delhi,Delhi,"Nehru Nagar, Delhi - DPCC",04-04-2024 08:00:00,28.567890,77.250515,CO,27,104,57
India,Delhi,Delhi,"Nehru Nagar, Delhi - DPCC",04-04-2024 08:00:00,28.567890,77.250515,OZONE,2,178,13
India,Delhi,Delhi,"Okhla Phase-2, Delhi - DPCC",04-04-2024 08:00:00,28.530785,77.271255,PM10,86,377,192
India,Delhi,Delhi,"Okhla Phase-2, Delhi - DPCC",04-04-2024 08:00:00,28.530785,77.271255,NH3,6,10,8
India,Delhi,Delhi,"Patparganj, Delhi - DPCC",04-04-2024 08:00:00,28.623763,77.287209,CO,4,102,31
India,Delhi,Delhi,"Patparganj, Delhi - DPCC",04-04-2024 08:00:00,28.623763,77.287209,OZONE,5,219,21
India,Delhi,Delhi,"Pusa, Delhi - DPCC",04-04-2024 08:00:00,28.639652,77.146275,PM2.5,28,217,87
India,Delhi,Delhi,"Pusa, Delhi - DPCC",04-04-2024 08:00:00,28.639652,77.146275,PM10,73,246,159
India,Delhi,Delhi,"Pusa, Delhi - DPCC",04-04-2024 08:00:00,28.639652,77.146275,OZONE,10,113,20
India,Delhi,Delhi,"R K Puram, Delhi - DPCC",04-04-2024 08:00:00,28.563262,77.186937,NO2,35,150,88
India,Delhi,Delhi,"R K Puram, Delhi - DPCC",04-04-2024 08:00:00,28.563262,77.186937,OZONE,5,258,12
India,Delhi,Delhi,"Rohini, Delhi - DPCC",04-04-2024 08:00:00,28.732528,77.119920,PM10,86,271,177
India,Delhi,Delhi,"Rohini, Delhi - DPCC",04-04-2024 08:00:00,28.732528,77.119920,CO,13,76,41
India,Delhi,Delhi,"Shadipur, Delhi - CPCB",04-04-2024 08:00:00,28.6514781,77.1473105,PM10,94,500,246
India,Delhi,Delhi,"Sirifort, Delhi - CPCB",04-04-2024 08:00:00,28.5504249,77.2159377,NH3,8,15,12
India,Delhi,Delhi,"Sirifort, Delhi - CPCB",04-04-2024 08:00:00,28.5504249,77.2159377,CO,15,108,67
India,Delhi,Delhi,"Sonia Vihar, Delhi - DPCC",04-04-2024 08:00:00,28.710508,77.249485,PM2.5,49,305,133
India,Delhi,Delhi,"Sonia Vihar, Delhi - DPCC",04-04-2024 08:00:00,28.710508,77.249485,NO2,19,100,53
India,Delhi,Delhi,"Sri Aurobindo Marg, Delhi - DPCC",04-04-2024 08:00:00,28.531346,77.190156,NO2,35,111,69
India,Delhi,Delhi,"Vivek Vihar, Delhi - DPCC",04-04-2024 08:00:00,28.672342,77.315260,PM10,100,413,214
India,Delhi,Delhi,"Vivek Vihar, Delhi - DPCC",04-04-2024 08:00:00,28.672342,77.315260,NH3,14,16,15
India,Delhi,Delhi,"Vivek Vihar, Delhi - DPCC",04-04-2024 08:00:00,28.672342,77.315260,CO,10,102,40
India,Delhi,Delhi,"Wazirpur, Delhi - DPCC",04-04-2024 08:00:00,28.699793,77.165453,PM2.5,51,282,135
India,Gujarat,Ahmedabad,"Chandkheda, Ahmedabad - IITM",04-04-2024 08:00:00,23.107969,72.574648,PM2.5,34,192,91
India,Gujarat,Ahmedabad,"Gyaspur, Ahmedabad - IITM",04-04-2024 08:00:00,22.977134,72.553024,NO2,28,61,47
India,Gujarat,Ahmedabad,"Maninagar, Ahmedabad - GPCB",04-04-2024 08:00:00,23.002657,72.591912,PM10,56,186,99
India,Gujarat,Ahmedabad,"Maninagar, Ahmedabad - GPCB",04-04-2024 08:00:00,23.002657,72.591912,OZONE,13,59,27
India,Gujarat,Ahmedabad,"Raikhad, Ahmedabad - IITM",04-04-2024 08:00:00,23.020509,72.579261,PM2.5,83,189,129
India,Gujarat,Ahmedabad,"Raikhad, Ahmedabad - IITM",04-04-2024 08:00:00,23.020509,72.579261,SO2,5,21,10
India,Gujarat,Ahmedabad,"Rakhial, Ahmedabad - IITM",04-04-2024 08:00:00,23.016834,72.625775,NH3,10,21,18
India,Gujarat,Ahmedabad,"SAC ISRO Satellite, Ahmedabad - IITM",04-04-2024 08:00:00,23.023389,72.515201,PM10,105,109,109
India,Gujarat,Ahmedabad,"SVPI Airport Hansol, Ahmedabad - IITM",04-04-2024 08:00:00,23.076793,72.627874,PM2.5,26,78,46
India,Gujarat,Ahmedabad,"SVPI Airport Hansol, Ahmedabad - IITM",04-04-2024 08:00:00,23.076793,72.627874,CO,20,36,32
India,Gujarat,Ahmedabad,"Sardar Vallabhbhai Patel Stadium, Ahmedabad - IITM",04-04-2024 08:00:00,23.043070,72.562968,SO2,4,19,10
India,Gujarat,Gandhinagar,"IIPHG Lekawada, Gandhinagar - IITM",04-04-2024 08:00:00,23.243639,72.68994,NH3,6,7,7
India,Gujarat,Gandhinagar,"Sector-10, Gandhinagar - GPCB",04-04-2024 08:00:00,23.221714,72.654328,PM2.5,22,69,40
India,Gujarat,Nandesari,"GIDC, Nandesari - Nandesari Ind. Association",04-04-2024 08:00:00,22.410802,73.097923,PM2.5,77,330,167
India,Gujarat,Surat,"Science Center, Surat - SMC",04-04-2024 08:00:00,21.170046,72.795405,SO2,2,9,5
India,Gujarat,Vapi,"Phase-1 GIDC, Vapi - GPCB",04-04-2024 08:00:00,20.362421,72.918013,PM2.5,43,110,66
India,Gujarat,Vapi,"Phase-1 GIDC, Vapi - GPCB",04-04-2024 08:00:00,20.362421,72.918013,SO2,51,52,52
India,Gujarat,Vatva,"Phase-4 GIDC, Vatva - GPCB",04-04-2024 08:00:00,22.969611,72.643500,NH3,1,10,6
India,Haryana,Ambala,"Patti Mehar, Ambala - HSPCB",04-04-2024 08:00:00,30.379589,76.778328,SO2,1,105,61
India,Haryana,Ballabgarh,"Nathu Colony, Ballabgarh - HSPCB",04-04-2024 08:00:00,28.3419248,77.319699,OZONE,5,37,7
India,Haryana,Bhiwani,"H.B. Colony, Bhiwani - HSPCB",04-04-2024 08:00:00,28.806223,76.141105,PM2.5,6,500,167
India,Haryana,Bhiwani,"H.B. Colony, Bhiwani - HSPCB",04-04-2024 08:00:00,28.806223,76.141105,NO2,3,11,9
India,Haryana,Bhiwani,"H.B. Colony, Bhiwani - HSPCB",04-04-2024 08:00:00,28.806223,76.141105,OZONE,7,31,13
India,Haryana,Charkhi Dadri,"Mini Secretariat, Charkhi Dadri - HSPCB",04-04-2024 08:00:00,28.593883,76.270653,OZONE,14,17,15
India,Haryana,Dharuhera,"Municipal Corporation Office, Dharuhera -  HSPCB",04-04-2024 08:00:00,28.206800,76.799700,NH3,NA,NA,NA
India,Haryana,Faridabad,"Sector 11, Faridabad - HSPCB",04-04-2024 08:00:00,28.376058,77.315741,NO2,31,33,32
India,Haryana,Faridabad,"Sector 11, Faridabad - HSPCB",04-04-2024 08:00:00,28.376058,77.315741,SO2,6,117,15
India,Haryana,Faridabad,"Sector 30, Faridabad - HSPCB",04-04-2024 08:00:00,28.4417,77.3217,CO,40,65,61
India,Haryana,Faridabad,"Sector- 16A, Faridabad - HSPCB",04-04-2024 08:00:00,28.4088421,77.3099081,NO2,16,61,40
India,Haryana,Faridabad,"Sector- 16A, Faridabad - HSPCB",04-04-2024 08:00:00,28.4088421,77.3099081,SO2,20,25,23
India,Haryana,Faridabad,"Sector- 16A, Faridabad - HSPCB",04-04-2024 08:00:00,28.4088421,77.3099081,CO,5,85,31
India,Haryana,Fatehabad,"Huda Sector, Fatehabad - HSPCB",04-04-2024 08:00:00,29.503664,75.467934,PM10,81,115,95
India,Haryana,Fatehabad,"Huda Sector, Fatehabad - HSPCB",04-04-2024 08:00:00,29.503664,75.467934,NO2,34,48,38
India,Haryana,Gurugram,"Sector-51, Gurugram - HSPCB",04-04-2024 08:00:00,28.4227,77.0667,PM10,109,252,169
India,Haryana,Gurugram,"Sector-51, Gurugram - HSPCB",04-04-2024 08:00:00,28.4227,77.0667,NO2,13,29,23
India,Haryana,Gurugram,"Teri Gram, Gurugram - HSPCB",04-04-2024 08:00:00,28.4275,77.1465,PM2.5,91,385,226
India,Haryana,Gurugram,"Vikas Sadan, Gurugram - HSPCB",04-04-2024 08:00:00,28.4501238,77.0263051,CO,65,150,106
India,Haryana,Hisar,"Urban Estate-II, Hisar - HSPCB",04-04-2024 08:00:00,29.140560,75.744941,PM2.5,NA,NA,NA
India,Haryana,Jind,"Police Lines, Jind - HSPCB",04-04-2024 08:00:00,29.307814,76.337619,NO2,4,16,11
India,Haryana,Jind,"Police Lines, Jind - HSPCB",04-04-2024 08:00:00,29.307814,76.337619,NH3,2,6,4
India,Haryana,Jind,"Police Lines, Jind - HSPCB",04-04-2024 08:00:00,29.307814,76.337619,SO2,1,38,12
India,Haryana,Karnal,"Sector-12, Karnal - HSPCB",04-04-2024 08:00:00,29.695300,77.002700,SO2,12,13,12
India,Haryana,Mandikhera,"General Hospital, Mandikhera - HSPCB",04-04-2024 08:00:00,27.9002,76.9938,SO2,31,39,34
India,Haryana,Manesar,"Sector-2 IMT, Manesar - HSPCB",04-04-2024 08:00:00,28.360699,76.936090,PM10,80,158,115
India,Haryana,Manesar,"Sector-2 IMT, Manesar - HSPCB",04-04-2024 08:00:00,28.360699,76.936090,SO2,1,16,6
India,Haryana,Narnaul,"Shastri Nagar, Narnaul - HSPCB",04-04-2024 08:00:00,28.060249,76.113115,PM2.5,7,318,72
India,Haryana,Narnaul,"Shastri Nagar, Narnaul - HSPCB",04-04-2024 08:00:00,28.060249,76.113115,OZONE,39,54,44
India,Haryana,Palwal,"Shyam Nagar, Palwal - HSPCB",04-04-2024 08:00:00,28.1485564,77.3320667,OZONE,8,66,12
India,Haryana,Panipat,"Sector-18, Panipat - HSPCB",04-04-2024 08:00:00,29.497973,76.993331,PM2.5,89,93,91
India,Haryana,Sonipat,"Murthal, Sonipat - HSPCB",04-04-2024 08:00:00,29.027200,77.062100,SO2,12,29,20
India,Haryana,Sonipat,"Murthal, Sonipat - HSPCB",04-04-2024 08:00:00,29.027200,77.062100,CO,12,28,18
India,Haryana,Yamuna Nagar,"Gobind Pura, Yamuna Nagar - HSPCB",04-04-2024 08:00:00,30.1480566,77.2893471,PM10,72,151,104
India,Himachal Pradesh,Baddi,"HIMUDA Complex Phase-1, Baddi - HPPCB",04-04-2024 08:00:00,30.943887,76.801991,PM2.5,13,301,101
India,Karnataka,Bagalkot,"Vidayagiri, Bagalkot - KSPCB",04-04-2024 08:00:00,16.172806,75.659694,PM10,49,50,50
India,Karnataka,Bagalkot,"Vidayagiri, Bagalkot - KSPCB",04-04-2024 08:00:00,16.172806,75.659694,NO2,9,10,9
India,Karnataka,Bagalkot,"Vidayagiri, Bagalkot - KSPCB",04-04-2024 08:00:00,16.172806,75.659694,NH3,1,2,1
India,Karnataka,Belgaum,"Ramteerth Nagar, Belgaum - KSPCB",04-04-2024 08:00:00,15.888653,74.541751,PM10,NA,NA,NA
India,Karnataka,Belgaum,"Ramteerth Nagar, Belgaum - KSPCB",04-04-2024 08:00:00,15.888653,74.541751,OZONE,17,19,18
India,Karnataka,Bengaluru,"BTM Layout, Bengaluru - CPCB",04-04-2024 08:00:00,12.9135218,77.5950804,PM10,31,75,53
India,Karnataka,Bengaluru,"BTM Layout, Bengaluru - CPCB",04-04-2024 08:00:00,12.9135218,77.5950804,OZONE,22,110,80
India,Karnataka,Bengaluru,"Hebbal, Bengaluru - KSPCB",04-04-2024 08:00:00,13.029152,77.585901,NO2,NA,NA,NA
India,Karnataka,Bengaluru,"Hombegowda Nagar, Bengaluru - KSPCB",04-04-2024 08:00:00,12.938539,77.590100,PM2.5,34,68,45
India,Karnataka,Bengaluru,"Hombegowda Nagar, Bengaluru - KSPCB",04-04-2024 08:00:00,12.938539,77.590100,NO2,10,41,18
India,Karnataka,Bengaluru,"Jayanagar 5th Block, Bengaluru - KSPCB",04-04-2024 08:00:00,12.920984,77.584908,PM2.5,40,86,63
India,Karnataka,Bengaluru,"Jayanagar 5th Block, Bengaluru - KSPCB",04-04-2024 08:00:00,12.920984,77.584908,PM10,54,136,87
India,Karnataka,Bengaluru,"Jigani, Bengaluru - KSPCB",04-04-2024 08:00:00,12.7816279,77.6299145,NH3,4,4,4
India,Karnataka,Bengaluru,"Kasturi Nagar, Bengaluru - KSPCB",04-04-2024 08:00:00,13.003872,77.664217,PM10,91,387,139
India,Karnataka,Bengaluru,"Kasturi Nagar, Bengaluru - KSPCB",04-04-2024 08:00:00,13.003872,77.664217,CO,22,26,25
India,Karnataka,Bengaluru,"Silk Board, Bengaluru - KSPCB",04-04-2024 08:00:00,12.917348,77.622813,PM2.5,25,72,47
India,Karnataka,Bengaluru,"Silk Board, Bengaluru - KSPCB",04-04-2024 08:00:00,12.917348,77.622813,OZONE,19,27,20
India,Karnataka,Chamarajanagar,"Urban, Chamarajanagar - KSPCB",04-04-2024 08:00:00,11.55358,76.55521,PM10,34,65,45
India,Karnataka,Chamarajanagar,"Urban, Chamarajanagar - KSPCB",04-04-2024 08:00:00,11.55358,76.55521,SO2,2,9,4
India,Karnataka,Chikkaballapur,"Chikkaballapur Rural, Chikkaballapur - KSPCB",04-04-2024 08:00:00,13.428828,77.731418,PM10,52,113,79
India,Karnataka,Chikkaballapur,"Chikkaballapur Rural, Chikkaballapur - KSPCB",04-04-2024 08:00:00,13.428828,77.731418,CO,14,74,23
India,Karnataka,Chikkamagaluru,"Kalyana Nagara, Chikkamagaluru - KSPCB",04-04-2024 08:00:00,13.328028,75.797056,PM2.5,7,32,19
India,Karnataka,Chikkamagaluru,"Kalyana Nagara, Chikkamagaluru - KSPCB",04-04-2024 08:00:00,13.328028,75.797056,NO2,13,27,18
India,Karnataka,Dharwad,"Kalabhavan, Dharwad - KSPCB",04-04-2024 08:00:00,15.459706,75.008381,PM2.5,56,67,60
India,Karnataka,Dharwad,"Kalabhavan, Dharwad - KSPCB",04-04-2024 08:00:00,15.459706,75.008381,SO2,2,7,4
India,Karnataka,Dharwad,"Kalabhavan, Dharwad - KSPCB",04-04-2024 08:00:00,15.459706,75.008381,OZONE,2,30,3
India,Karnataka,Gadag,"Panchal Nagar, Gadag - KSPCB",04-04-2024 08:00:00,15.411456,75.638133,PM10,44,67,55
India,Karnataka,Gadag,"Panchal Nagar, Gadag - KSPCB",04-04-2024 08:00:00,15.411456,75.638133,NH3,2,4,2
India,Karnataka,Hassan,"B.Katihalli, Hassan - KSPCB",04-04-2024 08:00:00,13.008556,76.125258,PM10,66,155,110
India,Karnataka,Hubballi,"Deshpande Nagar, Hubballi - KSPCB",04-04-2024 08:00:00,15.351773,75.140726,NO2,26,27,27
India,Karnataka,Hubballi,"Lingaraj Nagar, Hubballi - KSPCB",04-04-2024 08:00:00,15.3714823,75.1160168,NH3,2,3,2
India,Karnataka,Hubballi,"Lingaraj Nagar, Hubballi - KSPCB",04-04-2024 08:00:00,15.3714823,75.1160168,OZONE,10,44,16
India,Karnataka,Kalaburagi,"Lal Bahadur Shastri Nagar, Kalaburagi - KSPCB",04-04-2024 08:00:00,17.321993,76.822628,PM10,44,117,81
India,Karnataka,Kalaburagi,"Lal Bahadur Shastri Nagar, Kalaburagi - KSPCB",04-04-2024 08:00:00,17.321993,76.822628,NH3,2,2,2
India,Karnataka,Karwar,"KHB Colony, Karwar - KSPCB",04-04-2024 08:00:00,14.816666,74.141003,PM10,60,108,78
India,Karnataka,Karwar,"KHB Colony, Karwar - KSPCB",04-04-2024 08:00:00,14.816666,74.141003,NH3,1,8,2
India,Karnataka,Kolar,"Tamaka Ind. Area, Kolar - KSPCB",04-04-2024 08:00:00,13.1276288,78.1570122,SO2,12,19,15
India,Karnataka,Madikeri,"Stuart Hill, Madikeri - KSPCB",04-04-2024 08:00:00,12.415911,75.735050,PM10,26,46,34
India,Karnataka,Madikeri,"Stuart Hill, Madikeri - KSPCB",04-04-2024 08:00:00,12.415911,75.735050,NH3,1,2,1
India,Karnataka,Mangalore,"Kadri, Mangalore - KSPCB",04-04-2024 08:00:00,12.889250,74.853000,SO2,NA,NA,NA
India,Karnataka,Mysuru,"Hebbal 1st Stage, Mysuru - KSPCB",04-04-2024 08:00:00,12.21041,76.37376,NH3,1,3,2
India,Karnataka,Raichur,"Haji Colony, Raichur - KSPCB",04-04-2024 08:00:00,16.208139,77.348417,PM2.5,19,61,35
India,Karnataka,Ramanagara,"Vijay Nagar, Ramanagara - KSPCB",04-04-2024 08:00:00,12.733409,77.298051,PM2.5,32,80,52
India,Karnataka,Ramanagara,"Vijay Nagar, Ramanagara - KSPCB",04-04-2024 08:00:00,12.733409,77.298051,PM10,28,52,42
India,Karnataka,Ramanagara,"Vijay Nagar, Ramanagara - KSPCB",04-04-2024 08:00:00,12.733409,77.298051,NO2,3,12,5
India,Karnataka,Shivamogga,"Vinoba Nagara, Shivamogga - KSPCB",04-04-2024 08:00:00,13.940000,75.555917,PM10,46,83,54
India,Karnataka,Shivamogga,"Vinoba Nagara, Shivamogga - KSPCB",04-04-2024 08:00:00,13.940000,75.555917,NO2,9,15,13
India,Karnataka,Shivamogga,"Vinoba Nagara, Shivamogga - KSPCB",04-04-2024 08:00:00,13.940000,75.555917,NH3,2,3,3
India,Karnataka,Shivamogga,"Vinoba Nagara, Shivamogga - KSPCB",04-04-2024 08:00:00,13.940000,75.555917,SO2,1,12,5
India,Karnataka,Udupi,"Brahmagiri, Udupi - KSPCB",04-04-2024 08:00:00,13.34194444,74.74694444,PM10,NA,NA,NA
India,Karnataka,Vijayapura,"Ibrahimpur, Vijayapura - KSPCB",04-04-2024 08:00:00,16.802639,75.722694,NO2,17,19,19
India,Karnataka,Yadgir,"Collector Office, Yadgir - KSPCB",04-04-2024 08:00:00,16.7602,77.1428,PM10,62,107,86
India,Kerala,Kollam,"Polayathode, Kollam - Kerala PCB",04-04-2024 08:00:00,8.8787,76.6073,PM10,32,64,45
India,Kerala,Kollam,"Polayathode, Kollam - Kerala PCB",04-04-2024 08:00:00,8.8787,76.6073,CO,8,39,19
India,Kerala,Thiruvananthapuram,"Kariavattom, Thiruvananthapuram - Kerala PCB",04-04-2024 08:00:00,8.563700,76.886500,NO2,8,10,9
India,Kerala,Thiruvananthapuram,"Plammoodu, Thiruvananthapuram - Kerala PCB",04-04-2024 08:00:00,8.5149093,76.9435879,NO2,8,10,8
India,Madhya Pradesh,Bhopal,"Paryavaran Parisar, Bhopal - MPPCB",04-04-2024 08:00:00,23.210494,77.425409,NH3,7,9,8
India,Madhya Pradesh,Bhopal,"Paryavaran Parisar, Bhopal - MPPCB",04-04-2024 08:00:00,23.210494,77.425409,SO2,3,14,7
India,Madhya Pradesh,Bhopal,"Paryavaran Parisar, Bhopal - MPPCB",04-04-2024 08:00:00,23.210494,77.425409,OZONE,22,99,57
India,Madhya Pradesh,Bhopal,"T T Nagar, Bhopal - MPPCB",04-04-2024 08:00:00,23.233584,77.400574,OZONE,41,120,62
India,Madhya Pradesh,Dewas,"Bhopal Chauraha, Dewas - MPPCB",04-04-2024 08:00:00,22.9682591,76.064118,NO2,12,14,13
India,Madhya Pradesh,Gwalior,"City Center, Gwalior - MPPCB",04-04-2024 08:00:00,26.203442,78.193251,PM10,49,140,96
India,Madhya Pradesh,Gwalior,"City Center, Gwalior - MPPCB",04-04-2024 08:00:00,26.203442,78.193251,NO2,8,53,23
India,Madhya Pradesh,Gwalior,"City Center, Gwalior - MPPCB",04-04-2024 08:00:00,26.203442,78.193251,SO2,17,104,37
India,Madhya Pradesh,Gwalior,"Deen Dayal Nagar, Gwalior - MPPCB",04-04-2024 08:00:00,26.259242,78.216432,PM2.5,37,313,79
India,Madhya Pradesh,Gwalior,"Deen Dayal Nagar, Gwalior - MPPCB",04-04-2024 08:00:00,26.259242,78.216432,PM10,104,356,157
India,Madhya Pradesh,Indore,"Maguda Nagar, Indore - IMC",04-04-2024 08:00:00,22.7524,75.8872,SO2,32,51,35
India,Madhya Pradesh,Indore,"Maguda Nagar, Indore - IMC",04-04-2024 08:00:00,22.7524,75.8872,OZONE,37,48,39
India,Madhya Pradesh,Indore,"Residency Area, Indore - IMC",04-04-2024 08:00:00,22.7084,75.8815,PM10,50,157,89
India,Madhya Pradesh,Jabalpur,"Gupteshwar, Jabalpur - JMC",04-04-2024 08:00:00,23.142888,79.916147,PM2.5,58,260,123
India,Madhya Pradesh,Jabalpur,"Gupteshwar, Jabalpur - JMC",04-04-2024 08:00:00,23.142888,79.916147,PM10,69,144,109
India,Madhya Pradesh,Jabalpur,"Gupteshwar, Jabalpur - JMC",04-04-2024 08:00:00,23.142888,79.916147,CO,22,90,58
India,Madhya Pradesh,Jabalpur,"Marhatal, Jabalpur - MPPCB",04-04-2024 08:00:00,23.168606,79.932247,NH3,2,3,2
India,Madhya Pradesh,Jabalpur,"Marhatal, Jabalpur - MPPCB",04-04-2024 08:00:00,23.168606,79.932247,SO2,4,38,13
India,Madhya Pradesh,Jabalpur,"Suhagi, Jabalpur - JMC",04-04-2024 08:00:00,23.218135,79.957770,PM2.5,78,342,207
India,Madhya Pradesh,Katni,"Gole Bazar, Katni - MPPCB",04-04-2024 08:00:00,23.50016,80.23284,PM2.5,31,310,89
India,Madhya Pradesh,Katni,"Gole Bazar, Katni - MPPCB",04-04-2024 08:00:00,23.50016,80.23284,OZONE,10,125,53
India,Madhya Pradesh,Mandideep,"Sector-D Industrial Area, Mandideep - MPPCB",04-04-2024 08:00:00,23.108440,77.511428,SO2,3,48,16
India,Madhya Pradesh,Pithampur,"Sector-2 Industrial Area, Pithampur - MPPCB",04-04-2024 08:00:00,22.624758,75.675238,OZONE,21,80,44
India,Madhya Pradesh,Ratlam,"Shasthri Nagar, Ratlam - IPCA Lab",04-04-2024 08:00:00,23.331731,75.045981,SO2,43,67,52
India,Madhya Pradesh,Sagar,"Civil Lines, Sagar - MPPCB",04-04-2024 08:00:00,23.838586,78.759431,PM10,87,172,112
India,Madhya Pradesh,Sagar,"Civil Lines, Sagar - MPPCB",04-04-2024 08:00:00,23.838586,78.759431,SO2,NA,NA,NA
India,Madhya Pradesh,Sagar,"Civil Lines, Sagar - MPPCB",04-04-2024 08:00:00,23.838586,78.759431,CO,12,57,31
India,Madhya Pradesh,Sagar,"Deen Dayal Nagar, Sagar - MPPCB",04-04-2024 08:00:00,23.8640158,78.80289321,PM10,29,107,60
India,Madhya Pradesh,Sagar,"Deen Dayal Nagar, Sagar - MPPCB",04-04-2024 08:00:00,23.8640158,78.80289321,CO,2,92,52
India,Madhya Pradesh,Satna,"Bandhavgar Colony, Satna - Birla Cement",04-04-2024 08:00:00,24.58434363,80.8549414,PM2.5,NA,NA,NA
India,Madhya Pradesh,Singrauli,"Suryakiran Bhawan NCL, Singrauli - MPPCB",04-04-2024 08:00:00,24.108970,82.645580,NH3,3,6,5
India,Maharashtra,Ahmednagar,"Tarakpur, Ahmednagar - MPCB",04-04-2024 08:00:00,19.10122,74.73339,PM10,55,158,116
India,Maharashtra,Akola,"Ramdaspeth, Akola - MPCB",04-04-2024 08:00:00,20.719516,77.000253,SO2,12,49,26
India,Maharashtra,Akola,"Ramdaspeth, Akola - MPCB",04-04-2024 08:00:00,20.719516,77.000253,CO,14,115,27
India,Maharashtra,Akola,"Ramdaspeth, Akola - MPCB",04-04-2024 08:00:00,20.719516,77.000253,OZONE,3,147,43
India,Maharashtra,Amravati,"Shri Shivaji Science College, Amaravati - MPCB",04-04-2024 08:00:00,20.939198,77.765701,PM10,111,169,135
India,Maharashtra,Amravati,"Shri Shivaji Science College, Amaravati - MPCB",04-04-2024 08:00:00,20.939198,77.765701,SO2,1,59,7
India,Maharashtra,Aurangabad,"MIDC Chilkalthana, Aurangabad - MPCB",04-04-2024 08:00:00,19.875620,75.387310,NO2,7,115,23
India,Maharashtra,Aurangabad,"MIDC Chilkalthana, Aurangabad - MPCB",04-04-2024 08:00:00,19.875620,75.387310,NH3,3,4,4
India,Maharashtra,Aurangabad,"More Chowk Waluj, Aurangabad - MPCB",04-04-2024 08:00:00,19.8389439,75.244448,PM10,25,144,85
India,Maharashtra,Badlapur,"Katrap, Badlapur - MPCB",04-04-2024 08:00:00,19.16485,73.23409,PM10,88,206,137
India,Maharashtra,Badlapur,"Katrap, Badlapur - MPCB",04-04-2024 08:00:00,19.16485,73.23409,NO2,11,33,19
India,Maharashtra,Belapur,"CBD Belapur, Belapur - MPCB",04-04-2024 08:00:00,19.0243902,73.0406721,CO,20,42,27
India,Maharashtra,Bhiwandi,"Gokul Nagar, Bhiwandi - MPCB",04-04-2024 08:00:00,19.309073,73.057223,PM10,88,126,105
India,Maharashtra,Bhiwandi,"Gokul Nagar, Bhiwandi - MPCB",04-04-2024 08:00:00,19.309073,73.057223,SO2,1,13,5
India,Maharashtra,Bhiwandi,"Gokul Nagar, Bhiwandi - MPCB",04-04-2024 08:00:00,19.309073,73.057223,OZONE,11,161,24
India,Maharashtra,Boisar,"Khaira, Boisar - MPCB",04-04-2024 08:00:00,19.786089,72.757971,SO2,NA,NA,NA
India,Maharashtra,Boisar,"Khaira, Boisar - MPCB",04-04-2024 08:00:00,19.786089,72.757971,OZONE,NA,NA,NA
India,Maharashtra,Chandrapur,"MIDC Khutala, Chandrapur - MPCB",04-04-2024 08:00:00,19.9775302,79.2337086,PM2.5,68,134,90
India,Maharashtra,Chandrapur,"MIDC Khutala, Chandrapur - MPCB",04-04-2024 08:00:00,19.9775302,79.2337086,PM10,69,112,89
India,Maharashtra,Dhule,"Deopur, Dhule - MPCB",04-04-2024 08:00:00,20.918946,74.776388,CO,15,33,23
India,Maharashtra,Dhule,"Deopur, Dhule - MPCB",04-04-2024 08:00:00,20.918946,74.776388,OZONE,16,93,28
India,Maharashtra,Kalyan,"Khadakpada, Kalyan - MPCB",04-04-2024 08:00:00,19.25292,73.142019,OZONE,7,29,9
India,Maharashtra,Kolhapur,"Shivaji University, Kolhapur - MPCB",04-04-2024 08:00:00,16.6870449,74.2505872,OZONE,NA,NA,NA
India,Maharashtra,Kolhapur,"Sinchan Bhavan, Kolhapur - MPCB",04-04-2024 08:00:00,16.7143745,74.2426398,PM2.5,NA,NA,NA
India,Maharashtra,Kolhapur,"Sinchan Bhavan, Kolhapur - MPCB",04-04-2024 08:00:00,16.7143745,74.2426398,OZONE,15,177,38
India,Maharashtra,Mahad,"Kamble Tarf Birwadi, Mahad - MPCB",04-04-2024 08:00:00,18.1023399,73.4783687,PM10,70,125,101
India,Maharashtra,Mahad,"Kamble Tarf Birwadi, Mahad - MPCB",04-04-2024 08:00:00,18.1023399,73.4783687,OZONE,5,69,11
India,Maharashtra,Malegaon,"Mahesh Nagar, Malegaon - MPCB",04-04-2024 08:00:00,20.555712,74.529236,CO,6,48,18
India,Maharashtra,Mira-Bhayandar,"Bhayandar West, Mira-Bhayandar - MPCB",04-04-2024 08:00:00,19.296481,72.840923,NO2,6,31,15
India,Maharashtra,Mumbai,"Borivali East, Mumbai - IITM",04-04-2024 08:00:00,19.23241,72.86895,NO2,100,173,142
India,Maharashtra,Mumbai,"Borivali East, Mumbai - MPCB",04-04-2024 08:00:00,19.2243333,72.8658113,NO2,4,32,12
India,Maharashtra,Mumbai,"Borivali East, Mumbai - MPCB",04-04-2024 08:00:00,19.2243333,72.8658113,CO,1,48,9
India,Maharashtra,Mumbai,"Byculla, Mumbai - BMC",04-04-2024 08:00:00,18.9767,72.8380,SO2,1,36,6
India,Maharashtra,Mumbai,"Chakala-Andheri East, Mumbai - IITM",04-04-2024 08:00:00,19.11074,72.86084,NO2,71,130,99
India,Maharashtra,Mumbai,"Chembur, Mumbai - MPCB",04-04-2024 08:00:00,19.0364585,72.8954371,SO2,1,28,5
India,Maharashtra,Mumbai,"Chembur, Mumbai - MPCB",04-04-2024 08:00:00,19.0364585,72.8954371,CO,22,42,30
India,Maharashtra,Mumbai,"Chembur, Mumbai - MPCB",04-04-2024 08:00:00,19.0364585,72.8954371,OZONE,1,116,12
India,Maharashtra,Mumbai,"Colaba, Mumbai - MPCB",04-04-2024 08:00:00,18.910000,72.820000,PM10,27,115,57
India,Maharashtra,Mumbai,"Kandivali East, Mumbai - MPCB",04-04-2024 08:00:00,19.205800,72.868200,CO,24,28,25
India,Maharashtra,Mumbai,"Kandivali West, Mumbai - BMC",04-04-2024 08:00:00,19.215859,72.831718,PM10,26,76,50
India,Maharashtra,Mumbai,"Kherwadi_Bandra East, Mumbai - MPCB",04-04-2024 08:00:00,19.0632143,72.8456324,PM2.5,27,89,57
India,Maharashtra,Mumbai,"Kherwadi_Bandra East, Mumbai - MPCB",04-04-2024 08:00:00,19.0632143,72.8456324,PM10,64,175,111
India,Maharashtra,Mumbai,"Kherwadi_Bandra East, Mumbai - MPCB",04-04-2024 08:00:00,19.0632143,72.8456324,SO2,13,57,19
India,Maharashtra,Mumbai,"Kherwadi_Bandra East, Mumbai - MPCB",04-04-2024 08:00:00,19.0632143,72.8456324,OZONE,1,81,14
India,Maharashtra,Mumbai,"Khindipada-Bhandup West, Mumbai - IITM",04-04-2024 08:00:00,19.1653323,72.922099,NO2,6,16,9
India,Maharashtra,Mumbai,"Khindipada-Bhandup West, Mumbai - IITM",04-04-2024 08:00:00,19.1653323,72.922099,CO,1,38,1
India,Maharashtra,Mumbai,"Kurla, Mumbai - MPCB",04-04-2024 08:00:00,19.0863,72.8888,CO,7,26,16
India,Maharashtra,Mumbai,"Kurla, Mumbai - MPCB",04-04-2024 08:00:00,19.0863,72.8888,OZONE,28,42,30
India,Maharashtra,Mumbai,"Mazgaon, Mumbai - IITM",04-04-2024 08:00:00,18.96702,72.84214,NH3,16,29,20
India,Maharashtra,Mumbai,"Mazgaon, Mumbai - IITM",04-04-2024 08:00:00,18.96702,72.84214,OZONE,30,108,47
India,Maharashtra,Mumbai,"Mindspace-Malad West, Mumbai - MPCB",04-04-2024 08:00:00,19.1878657,72.8304069,PM10,6,105,64
India,Maharashtra,Mumbai,"Mindspace-Malad West, Mumbai - MPCB",04-04-2024 08:00:00,19.1878657,72.8304069,NO2,5,74,31
India,Maharashtra,Mumbai,"Mindspace-Malad West, Mumbai - MPCB",04-04-2024 08:00:00,19.1878657,72.8304069,NH3,3,5,4
India,Maharashtra,Mumbai,"Mindspace-Malad West, Mumbai - MPCB",04-04-2024 08:00:00,19.1878657,72.8304069,CO,12,36,17
India,Maharashtra,Mumbai,"Mulund West, Mumbai - MPCB",04-04-2024 08:00:00,19.1750,72.9419,CO,36,36,36
India,Maharashtra,Mumbai,"Navy Nagar-Colaba, Mumbai - IITM",04-04-2024 08:00:00,18.897756,72.813320,NH3,8,14,10
India,Maharashtra,Mumbai,"Powai, Mumbai - MPCB",04-04-2024 08:00:00,19.137500,72.915056,PM10,45,193,107
India,Maharashtra,Mumbai,"Powai, Mumbai - MPCB",04-04-2024 08:00:00,19.137500,72.915056,OZONE,25,87,32
India,Maharashtra,Mumbai,"Sewri, Mumbai - BMC",04-04-2024 08:00:00,19.000084,72.856730,CO,18,42,26
India,Maharashtra,Mumbai,"Shivaji Nagar, Mumbai - BMC",04-04-2024 08:00:00,19.060498,72.923356,NH3,4,9,6
India,Maharashtra,Mumbai,"Shivaji Nagar, Mumbai - BMC",04-04-2024 08:00:00,19.060498,72.923356,SO2,1,101,13
India,Maharashtra,Mumbai,"Siddharth Nagar-Worli, Mumbai - IITM",04-04-2024 08:00:00,19.000083,72.813993,NH3,4,7,5
India,Maharashtra,Mumbai,"Sion, Mumbai - MPCB",04-04-2024 08:00:00,19.047000,72.874600,PM2.5,44,159,75
India,Maharashtra,Mumbai,"Sion, Mumbai - MPCB",04-04-2024 08:00:00,19.047000,72.874600,OZONE,23,27,23
India,Maharashtra,Mumbai,"Vasai West, Mumbai - MPCB",04-04-2024 08:00:00,19.383200,72.820400,SO2,16,16,16
India,Maharashtra,Mumbai,"Vasai West, Mumbai - MPCB",04-04-2024 08:00:00,19.383200,72.820400,OZONE,15,59,20
India,Maharashtra,Mumbai,"Vile Parle West, Mumbai - MPCB",04-04-2024 08:00:00,19.10861,72.83622,NO2,9,16,11
India,Maharashtra,Mumbai,"Worli, Mumbai - MPCB",04-04-2024 08:00:00,18.9936162,72.8128113,OZONE,6,9,8
India,Maharashtra,Nagpur,"Ambazari, Nagpur - MPCB",04-04-2024 08:00:00,21.121801,79.04952,NH3,NA,NA,NA
India,Maharashtra,Nagpur,"Mahal, Nagpur - MPCB",04-04-2024 08:00:00,21.14472,79.107595,NH3,3,43,10
India,Maharashtra,Nagpur,"Mahal, Nagpur - MPCB",04-04-2024 08:00:00,21.14472,79.107595,SO2,25,115,79
India,Maharashtra,Nagpur,"Mahal, Nagpur - MPCB",04-04-2024 08:00:00,21.14472,79.107595,CO,36,164,71
India,Maharashtra,Nagpur,"Opp GPO Civil Lines, Nagpur - MPCB",04-04-2024 08:00:00,21.152875,79.0517531,PM10,104,185,143
India,Maharashtra,Nagpur,"Opp GPO Civil Lines, Nagpur - MPCB",04-04-2024 08:00:00,21.152875,79.0517531,NO2,19,211,95
India,Maharashtra,Nagpur,"Opp GPO Civil Lines, Nagpur - MPCB",04-04-2024 08:00:00,21.152875,79.0517531,NH3,3,17,8
India,Maharashtra,Nagpur,"Opp GPO Civil Lines, Nagpur - MPCB",04-04-2024 08:00:00,21.152875,79.0517531,OZONE,3,155,12
India,Maharashtra,Nagpur,"Ram Nagar, Nagpur - MPCB",04-04-2024 08:00:00,21.143383,79.048912,PM10,2,186,138
India,Maharashtra,Nagpur,"Ram Nagar, Nagpur - MPCB",04-04-2024 08:00:00,21.143383,79.048912,NH3,3,10,5
India,Maharashtra,Nashik,"Hirawadi, Nashik - MPCB",04-04-2024 08:00:00,20.021503,73.813844,NH3,1,2,1
India,Maharashtra,Nashik,"MIDC Ambad, Nashik - MPCB",04-04-2024 08:00:00,19.950220,73.731480,PM2.5,49,111,73
India,Maharashtra,Nashik,"MIDC Ambad, Nashik - MPCB",04-04-2024 08:00:00,19.950220,73.731480,PM10,48,111,75
India,Maharashtra,Nashik,"MIDC Ambad, Nashik - MPCB",04-04-2024 08:00:00,19.950220,73.731480,SO2,5,22,12
India,Maharashtra,Nashik,"MIDC Ambad, Nashik - MPCB",04-04-2024 08:00:00,19.950220,73.731480,CO,8,30,12
India,Maharashtra,Navi Mumbai,"Kopripada-Vashi, Navi Mumbai - MPCB",04-04-2024 08:00:00,19.090337,73.014232,PM10,54,454,201
India,Maharashtra,Navi Mumbai,"Mahape, Navi Mumbai - MPCB",04-04-2024 08:00:00,19.1135051,73.008978,CO,44,66,62
India,Maharashtra,Navi Mumbai,"Nerul, Navi Mumbai - MPCB",04-04-2024 08:00:00,19.008751,73.016620,PM10,103,312,163
India,Maharashtra,Navi Mumbai,"Sanpada, Navi Mumbai - MPCB",04-04-2024 08:00:00,19.0575752,73.0151367,PM2.5,46,139,80
India,Maharashtra,Navi Mumbai,"Sanpada, Navi Mumbai - MPCB",04-04-2024 08:00:00,19.0575752,73.0151367,CO,8,29,21
India,Maharashtra,Navi Mumbai,"Sector-19A Nerul, Navi Mumbai - IITM",04-04-2024 08:00:00,19.044,73.0325,PM2.5,61,221,125
India,Maharashtra,Navi Mumbai,"Sector-19A Nerul, Navi Mumbai - IITM",04-04-2024 08:00:00,19.044,73.0325,SO2,11,18,16
India,Maharashtra,Navi Mumbai,"Sector-2E Kalamboli, Navi Mumbai - MPCB",04-04-2024 08:00:00,19.02579,73.10297,PM10,91,120,107
India,Maharashtra,Navi Mumbai,"Sector-2E Kalamboli, Navi Mumbai - MPCB",04-04-2024 08:00:00,19.02579,73.10297,NO2,27,67,48
India,Maharashtra,Navi Mumbai,"Sector-2E Kalamboli, Navi Mumbai - MPCB",04-04-2024 08:00:00,19.02579,73.10297,SO2,4,28,14
India,Maharashtra,Parbhani,"Masoom Colony, Parbhani - MPCB",04-04-2024 08:00:00,19.265594,76.761463,PM2.5,43,295,120
India,Maharashtra,Parbhani,"Masoom Colony, Parbhani - MPCB",04-04-2024 08:00:00,19.265594,76.761463,NH3,9,15,13
India,Maharashtra,Pimpri-Chinchwad,"Gavalinagar, Pimpri Chinchwad - MPCB",04-04-2024 08:00:00,18.63673,73.82487,PM10,89,137,109
India,Maharashtra,Pimpri-Chinchwad,"Park Street Wakad, Pimpri Chinchwad - MPCB",04-04-2024 08:00:00,18.59051,73.77946,PM10,146,349,203
India,Maharashtra,Pimpri-Chinchwad,"Thergaon, Pimpri Chinchwad - MPCB",04-04-2024 08:00:00,18.616318,73.765797,PM10,79,132,102
India,Maharashtra,Pune,"Bhosari, Pune - IITM",04-04-2024 08:00:00,18.640051,73.848956,NO2,11,13,12
India,Maharashtra,Pune,"Bhosari, Pune - IITM",04-04-2024 08:00:00,18.640051,73.848956,OZONE,3,98,33
India,Maharashtra,Pune,"Karve Road, Pune - MPCB",04-04-2024 08:00:00,18.5011743,73.8165527,CO,74,74,74
India,Maharashtra,Pune,"Katraj Dairy, Pune - MPCB",04-04-2024 08:00:00,18.454450,73.854155,PM10,77,112,94
India,Maharashtra,Pune,"Katraj Dairy, Pune - MPCB",04-04-2024 08:00:00,18.454450,73.854155,NH3,2,7,3
India,Maharashtra,Pune,"Katraj Dairy, Pune - MPCB",04-04-2024 08:00:00,18.454450,73.854155,SO2,1,7,2
India,Maharashtra,Pune,"Revenue Colony-Shivajinagar, Pune - IITM",04-04-2024 08:00:00,18.530085,73.849598,CO,108,117,109
India,Maharashtra,Pune,"Savitribai Phule Pune University, Pune - MPCB",04-04-2024 08:00:00,18.547056,73.826908,SO2,9,16,13
India,Maharashtra,Pune,"Transport Nagar-Nigdi, Pune - IITM",04-04-2024 08:00:00,18.664282,73.763966,NO2,16,19,17
India,Maharashtra,Sangli,"Vijay Nagar, Sangli - MPCB",04-04-2024 08:00:00, 16.5038,74.3623,PM10,82,131,110
India,Maharashtra,Sangli,"Vijay Nagar, Sangli - MPCB",04-04-2024 08:00:00, 16.5038,74.3623,NO2,12,52,26
India,Maharashtra,Sangli,"Vijay Nagar, Sangli - MPCB",04-04-2024 08:00:00, 16.5038,74.3623,CO,17,62,31
India,Maharashtra,Sangli,"Vijay Nagar, Sangli - MPCB",04-04-2024 08:00:00, 16.5038,74.3623,OZONE,8,89,23
India,Maharashtra,Solapur,"Dnyaneshwar Nagar, Solapur - MPCB",04-04-2024 08:00:00,17.6336264,75.9132495,SO2,8,21,12
India,Maharashtra,Solapur,"Ratandeep Housing Society, Solapur - MPCB",04-04-2024 08:00:00,17.65439,75.90649,PM10,99,129,116
India,Maharashtra,Thane,"Kasarvadavali, Thane - MPCB",04-04-2024 08:00:00,19.26777,72.97182,SO2,1,22,5
India,Maharashtra,Thane,"Pimpleshwar Mandir, Thane - MPCB",04-04-2024 08:00:00,19.192056,72.9585188,SO2,4,120,27
India,Maharashtra,Thane,"Upvan Fort, Thane - MPCB",04-04-2024 08:00:00,19.222279,72.957979,NH3,10,14,12
India,Maharashtra,Thane,"Upvan Fort, Thane - MPCB",04-04-2024 08:00:00,19.222279,72.957979,CO,7,36,24
India,Maharashtra,Ulhasnagar,"Sidhi Vinayak Nagar, Ulhasnagar - MPCB",04-04-2024 08:00:00,19.235581,73.159121,PM10,86,145,118
India,Maharashtra,Ulhasnagar,"Sidhi Vinayak Nagar, Ulhasnagar - MPCB",04-04-2024 08:00:00,19.235581,73.159121,CO,8,46,29
India,Maharashtra,Virar,"Bolinj, Virar - MPCB",04-04-2024 08:00:00,19.4458210,72.7988231,OZONE,5,130,30
India,Manipur,Imphal,"DM College of Science, Imphal - Manipur PCB",04-04-2024 08:00:00,24.8207389,93.9423085,NO2,7,8,7
India,Manipur,Imphal,"DM College of Science, Imphal - Manipur PCB",04-04-2024 08:00:00,24.8207389,93.9423085,OZONE,1,10,6
India,Manipur,Imphal,"Manipur University, Imphal - Manipur PCB",04-04-2024 08:00:00,24.7524239,93.9286218,PM2.5,48,128,68
India,Manipur,Imphal,"Manipur University, Imphal - Manipur PCB",04-04-2024 08:00:00,24.7524239,93.9286218,NO2,7,14,9
India,Manipur,Imphal,"Manipur University, Imphal - Manipur PCB",04-04-2024 08:00:00,24.7524239,93.9286218,SO2,83,88,85
India,Meghalaya,Shillong,"Lumpyngngad, Shillong - Meghalaya PCB",04-04-2024 08:00:00,25.5586,91.8985,CO,8,10,9
India,Mizoram,Aizawl,"Sikulpuikawn, Aizawl - Mizoram PCB",04-04-2024 08:00:00,23.7176342,92.7192841,PM10,68,111,96
India,Mizoram,Aizawl,"Sikulpuikawn, Aizawl - Mizoram PCB",04-04-2024 08:00:00,23.7176342,92.7192841,CO,11,16,13
India,Nagaland,Kohima,"PWD Juction, Kohima - NPCB",04-04-2024 08:00:00,25.6635413,94.0989878,SO2,31,32,31
India,Odisha,Angul,"Hakimapada, Angul - OSPCB",04-04-2024 08:00:00,20.832874,85.104082,NH3,NA,NA,NA
India,Odisha,Balasore,"Kalidaspur, Balasore - OSPCB",04-04-2024 08:00:00,21.51161,86.89088,OZONE,8,91,12
India,Odisha,Barbil,"Forest Office, Barbil - OSPCB",04-04-2024 08:00:00,22.1166054,85.3945546,NO2,1,2,2
India,Odisha,Baripada,"Meher Colony, Baripada - OSPCB",04-04-2024 08:00:00,21.941841,86.728318,OZONE,10,110,27
India,Odisha,Bhubaneswar,"Lingraj Mandir, Bhubaneswar - OSPCB",04-04-2024 08:00:00,20.240790,85.836784,PM10,27,86,58
India,Odisha,Bhubaneswar,"Patia, Bhubaneswar - OSPCB",04-04-2024 08:00:00,20.34652,85.81630,PM2.5,8,65,33
India,Odisha,Bhubaneswar,"Patia, Bhubaneswar - OSPCB",04-04-2024 08:00:00,20.34652,85.81630,SO2,1,4,3
India,Odisha,Bhubaneswar,"Patia, Bhubaneswar - OSPCB",04-04-2024 08:00:00,20.34652,85.81630,OZONE,4,95,16
India,Odisha,Bileipada,"Tata Township, Bileipada - OSPCB",04-04-2024 08:00:00,22.06156703,85.47409613,NO2,9,13,11
India,Odisha,Bileipada,"Tata Township, Bileipada - OSPCB",04-04-2024 08:00:00,22.06156703,85.47409613,SO2,1,69,7
India,Odisha,Byasanagar,"Ferro Chrome Colony, Byasanagar - OSPCB",04-04-2024 08:00:00,20.94185,86.11510,NO2,8,27,13
India,Odisha,Cuttack,"CDA Area, Cuttack - OSPCB",04-04-2024 08:00:00,20.48891     ,85.84768     ,OZONE,6,88,7
India,Odisha,Keonjhar,"Jagamohanpur, Keonjhar - OSPCB",04-04-2024 08:00:00,21.643900,85.599355,OZONE,NA,NA,NA
India,Odisha,Rairangpur,"Divisional Forest Office, Rairangpur - OSPCB",04-04-2024 08:00:00,22.265816,86.174829,OZONE,9,81,19
India,Odisha,Rourkela,"Sector-2, Rourkela - OSPCB",04-04-2024 08:00:00,22.24500000,84.88111111,CO,16,72,45
India,Odisha,Talcher,"Talcher Coalfields,Talcher - OSPCB",04-04-2024 08:00:00,20.9360711,85.1707021,NO2,17,38,20
India,Odisha,Talcher,"Talcher Coalfields,Talcher - OSPCB",04-04-2024 08:00:00,20.9360711,85.1707021,NH3,3,4,3
India,Odisha,Talcher,"Talcher Coalfields,Talcher - OSPCB",04-04-2024 08:00:00,20.9360711,85.1707021,SO2,21,42,31
India,Odisha,Tensa,"Barsua Iron Ore Mines, Tensa - OSPCB",04-04-2024 08:00:00,21.869985,85.167016,PM10,100,127,114
India,Odisha,Tensa,"Barsua Iron Ore Mines, Tensa - OSPCB",04-04-2024 08:00:00,21.869985,85.167016,SO2,NA,NA,NA
India,Punjab,Amritsar,"Golden Temple, Amritsar - PPCB",04-04-2024 08:00:00,31.620000,74.876512,PM2.5,34,132,58
India,Punjab,Amritsar,"Golden Temple, Amritsar - PPCB",04-04-2024 08:00:00,31.620000,74.876512,PM10,65,111,78
India,Punjab,Jalandhar,"Civil Line, Jalandhar - PPCB",04-04-2024 08:00:00,31.321907,75.578914,PM10,71,115,96
India,Punjab,Jalandhar,"Civil Line, Jalandhar - PPCB",04-04-2024 08:00:00,31.321907,75.578914,NH3,2,5,5
India,Punjab,Khanna,"Kalal Majra, Khanna - PPCB",04-04-2024 08:00:00,30.736056 ,76.209694,PM10,46,89,71
India,Punjab,Khanna,"Kalal Majra, Khanna - PPCB",04-04-2024 08:00:00,30.736056 ,76.209694,OZONE,8,95,16
India,Punjab,Ludhiana,"Punjab Agricultural University, Ludhiana - PPCB",04-04-2024 08:00:00,30.9028,75.8086,NH3,3,6,4
India,Punjab,Ludhiana,"Punjab Agricultural University, Ludhiana - PPCB",04-04-2024 08:00:00,30.9028,75.8086,OZONE,10,61,11
India,Punjab,Mandi Gobindgarh,"RIMT University, Mandi Gobindgarh - PPCB",04-04-2024 08:00:00,30.649961,76.331442,CO,14,33,28
India,Punjab,Patiala,"Model Town, Patiala - PPCB",04-04-2024 08:00:00,30.349388,76.366642,PM10,68,132,98
India,Punjab,Patiala,"Model Town, Patiala - PPCB",04-04-2024 08:00:00,30.349388,76.366642,SO2,4,19,9
India,Punjab,Patiala,"Model Town, Patiala - PPCB",04-04-2024 08:00:00,30.349388,76.366642,CO,16,63,28
India,Punjab,Rupnagar,"Ratanpura, Rupnagar - Ambuja Cements",04-04-2024 08:00:00,31.0325454,76.5623046,PM10,20,456,204
India,Rajasthan,Ajmer,"Civil Lines,  Ajmer - RSPCB",04-04-2024 08:00:00,26.470859,74.646594,PM2.5,36,82,57
India,Rajasthan,Banswara,"Rati Talai, Banswara - RSPCB",04-04-2024 08:00:00,23.555190,74.440010,NH3,4,10,5
India,Rajasthan,Baran,"Bamboliya, Baran - RSPCB",04-04-2024 08:00:00,25.106006,76.469948,PM10,73,162,111
India,Rajasthan,Baran,"Bamboliya, Baran - RSPCB",04-04-2024 08:00:00,25.106006,76.469948,SO2,5,21,9
India,Rajasthan,Barmer,"Railway Colony, Barmer - RSPCB",04-04-2024 08:00:00,25.747299,71.393989,PM2.5,18,69,36
India,Rajasthan,Barmer,"Railway Colony, Barmer - RSPCB",04-04-2024 08:00:00,25.747299,71.393989,SO2,7,10,8
India,Rajasthan,Bharatpur,"Krishna Nagar, Bharatpur - RSPCB",04-04-2024 08:00:00,27.215415,77.50873,PM10,94,239,151
India,Rajasthan,Bharatpur,"Krishna Nagar, Bharatpur - RSPCB",04-04-2024 08:00:00,27.215415,77.50873,SO2,4,15,11
India,Rajasthan,Bharatpur,"Krishna Nagar, Bharatpur - RSPCB",04-04-2024 08:00:00,27.215415,77.50873,CO,22,92,55
India,Rajasthan,Bhilwara,"Pratap Nagar, Bhilwara - RSPCB",04-04-2024 08:00:00,25.339605,74.618883,NH3,3,6,4
India,Rajasthan,Bhiwadi,"RIICO Ind. Area III, Bhiwadi - RSPCB",04-04-2024 08:00:00,28.194909,76.862296,NO2,3,57,46
India,Rajasthan,Bhiwadi,"RIICO Ind. Area III, Bhiwadi - RSPCB",04-04-2024 08:00:00,28.194909,76.862296,SO2,2,74,18
India,Rajasthan,Bhiwadi,"RIICO Ind. Area III, Bhiwadi - RSPCB",04-04-2024 08:00:00,28.194909,76.862296,CO,1,146,63
India,Rajasthan,Bhiwadi,"Vasundhara Nagar_UIT, Bhiwadi - RSPCB",04-04-2024 08:00:00,28.207266,76.829265,PM10,104,324,213
India,Rajasthan,Bikaner,"MM Ground, Bikaner - RSPCB",04-04-2024 08:00:00,28.018792,73.292658,PM2.5,19,68,41
India,Rajasthan,Bundi,"New Colony, Bundi - RSPCB",04-04-2024 08:00:00,25.435774,75.644272,NO2,5,98,20
India,Rajasthan,Bundi,"New Colony, Bundi - RSPCB",04-04-2024 08:00:00,25.435774,75.644272,NH3,2,3,3
India,Rajasthan,Churu,"Subash Chowk, Churu - RSPCB",04-04-2024 08:00:00,28.296139,74.961696,PM2.5,28,71,42
India,Rajasthan,Dausa,"Khatikan Mohalla, Dausa - RSPCB",04-04-2024 08:00:00,26.895552,76.334753,PM2.5,24,202,78
India,Rajasthan,Dausa,"Khatikan Mohalla, Dausa - RSPCB",04-04-2024 08:00:00,26.895552,76.334753,PM10,114,275,161
India,Rajasthan,Dholpur,"Raja Ganj, Dholpur - RSPCB",04-04-2024 08:00:00,26.699557,77.898881,PM2.5,30,315,95
India,Rajasthan,Hanumangarh,"Housing Board, Hanumangarh - RSPCB",04-04-2024 08:00:00,29.610750,74.283608,CO,20,77,57
India,Rajasthan,Jaipur,"Adarsh Nagar, Jaipur - RSPCB",04-04-2024 08:00:00,26.902909,75.836858,PM2.5,50,93,69
India,Rajasthan,Jaipur,"Adarsh Nagar, Jaipur - RSPCB",04-04-2024 08:00:00,26.902909,75.836858,OZONE,6,47,20
India,Rajasthan,Jaipur,"Mansarovar Sector-12, Jaipur - RSPCB",04-04-2024 08:00:00,26.843698,75.766894,PM10,112,328,165
India,Rajasthan,Jaipur,"Mansarovar Sector-12, Jaipur - RSPCB",04-04-2024 08:00:00,26.843698,75.766894,SO2,1,11,6
India,Rajasthan,Jaipur,"Mansarovar Sector-12, Jaipur - RSPCB",04-04-2024 08:00:00,26.843698,75.766894,OZONE,13,157,112
India,Rajasthan,Jaipur,"Sector-2 Murlipura, Jaipur - RSPCB",04-04-2024 08:00:00,26.960669,75.771817,NH3,4,12,7
India,Rajasthan,Jaipur,"Sector-2 Murlipura, Jaipur - RSPCB",04-04-2024 08:00:00,26.960669,75.771817,OZONE,2,85,28
India,Rajasthan,Jaipur,"Shastri Nagar, Jaipur - RSPCB",04-04-2024 08:00:00,26.9502929,75.730943,PM10,110,162,135
India,Rajasthan,Jaisalmer,"Sadar Bazar, Jaisalmer - RSPCB",04-04-2024 08:00:00,26.912329,70.909168,PM10,92,218,127
India,Rajasthan,Jalore,"Mudtra Sili, Jalore - RSPCB",04-04-2024 08:00:00,25.344694,72.626208,CO,10,24,15
India,Rajasthan,Jhunjhunu,"Indra Nagar, Jhunjhunu - RSPCB",04-04-2024 08:00:00,28.108988,75.386577,PM2.5,28,156,56
India,Rajasthan,Jhunjhunu,"Indra Nagar, Jhunjhunu - RSPCB",04-04-2024 08:00:00,28.108988,75.386577,NO2,26,51,35
India,Rajasthan,Jhunjhunu,"Indra Nagar, Jhunjhunu - RSPCB",04-04-2024 08:00:00,28.108988,75.386577,NH3,26,48,37
India,Rajasthan,Jhunjhunu,"Indra Nagar, Jhunjhunu - RSPCB",04-04-2024 08:00:00,28.108988,75.386577,SO2,4,17,8
India,Rajasthan,Jhunjhunu,"Indra Nagar, Jhunjhunu - RSPCB",04-04-2024 08:00:00,28.108988,75.386577,OZONE,28,74,37
India,Rajasthan,Jodhpur,"Collectorate, Jodhpur - RSPCB",04-04-2024 08:00:00,26.268249,73.0193853,PM2.5,44,253,132
India,Rajasthan,Jodhpur,"Digari Kalan, Jodhpur - RSPCB",04-04-2024 08:00:00,26.295810,73.082283,PM2.5,18,69,45
India,Rajasthan,Jodhpur,"Digari Kalan, Jodhpur - RSPCB",04-04-2024 08:00:00,26.295810,73.082283,NO2,5,85,31
India,Rajasthan,Jodhpur,"Jhalamand, Jodhpur - RSPCB",04-04-2024 08:00:00,26.215415,73.070156,PM10,79,232,129
India,Rajasthan,Jodhpur,"Jhalamand, Jodhpur - RSPCB",04-04-2024 08:00:00,26.215415,73.070156,NO2,29,42,35
India,Rajasthan,Jodhpur,"Mandor, Jodhpur - RSPCB",04-04-2024 08:00:00,26.358805,73.047444,PM10,99,273,144
India,Rajasthan,Jodhpur,"Mandor, Jodhpur - RSPCB",04-04-2024 08:00:00,26.358805,73.047444,NH3,5,8,7
India,Rajasthan,Jodhpur,"Samrat Ashok Udhyan, Jodhpur - RSPCB",04-04-2024 08:00:00,26.253384,72.976571,PM10,61,235,124
India,Rajasthan,Karauli,"Satyawati Vihar, Karauli - RSPCB",04-04-2024 08:00:00,26.506177,77.025989,OZONE,5,42,10
India,Rajasthan,Kota,"Nayapura, Kota - RSPCB",04-04-2024 08:00:00,25.196024,75.855668,PM2.5,23,163,56
India,Rajasthan,Kota,"Nayapura, Kota - RSPCB",04-04-2024 08:00:00,25.196024,75.855668,PM10,79,187,122
India,Rajasthan,Kota,"Shrinath Puram, Kota - RSPCB",04-04-2024 08:00:00,25.14389,75.821256,NO2,18,89,34
India,Rajasthan,Nagaur,"Karni Colony, Nagaur - RSPCB",04-04-2024 08:00:00,27.213494,73.734444,NH3,6,17,10
India,Rajasthan,Pali,"Indira Colony Vistar, Pali - RSPCB",04-04-2024 08:00:00,25.771061, 73.340227,NO2,18,36,24
India,Rajasthan,Rajsamand,"Dhoinda, Rajsamand - RSPCB",04-04-2024 08:00:00,25.036360,73.883502,PM2.5,17,150,37
India,Rajasthan,Rajsamand,"Dhoinda, Rajsamand - RSPCB",04-04-2024 08:00:00,25.036360,73.883502,NO2,5,23,11
India,Rajasthan,Sikar,"Radhakishan Pura, Sikar - RSPCB",04-04-2024 08:00:00,27.608912,75.153302,OZONE,45,98,72
India,Rajasthan,Sirohi,"Vedhaynath Colony, Sirohi - RSPCB",04-04-2024 08:00:00,24.885261,72.857549,SO2,3,12,8
India,Rajasthan,Sirohi,"Vedhaynath Colony, Sirohi - RSPCB",04-04-2024 08:00:00,24.885261,72.857549,OZONE,39,98,48
India,Rajasthan,Sri Ganganagar,"Old City, Sri Ganganagar - RSPCB",04-04-2024 08:00:00,29.931624,73.864511,NH3,5,20,12
India,Rajasthan,Udaipur,"Ashok Nagar, Udaipur - RSPCB",04-04-2024 08:00:00,24.5886166,73.6321397,PM10,65,148,89
India,Rajasthan,Udaipur,"Ashok Nagar, Udaipur - RSPCB",04-04-2024 08:00:00,24.5886166,73.6321397,SO2,5,14,9
India,Rajasthan,Udaipur,"Ashok Nagar, Udaipur - RSPCB",04-04-2024 08:00:00,24.5886166,73.6321397,CO,8,74,21
India,Sikkim,Gangtok,"Zero Point GICI, Gangtok - SSPCB",04-04-2024 08:00:00,27.338530,88.614099,PM2.5,31,42,36
India,Sikkim,Gangtok,"Zero Point GICI, Gangtok - SSPCB",04-04-2024 08:00:00,27.338530,88.614099,NH3,1,1,1
India,Sikkim,Gangtok,"Zero Point GICI, Gangtok - SSPCB",04-04-2024 08:00:00,27.338530,88.614099,CO,17,26,19
India,Sikkim,Gangtok,"Zero Point GICI, Gangtok - SSPCB",04-04-2024 08:00:00,27.338530,88.614099,OZONE,34,129,44
India,TamilNadu,Ariyalur,"Keelapalur, Ariyalur - TNPCB",04-04-2024 08:00:00,11.06825,79.07033,NO2,29,263,151
India,TamilNadu,Chennai,"Alandur Bus Depot, Chennai - CPCB",04-04-2024 08:00:00,12.9099161,80.1076538,NO2,4,23,9
India,TamilNadu,Chennai,"Alandur Bus Depot, Chennai - CPCB",04-04-2024 08:00:00,12.9099161,80.1076538,OZONE,2,14,10
India,TamilNadu,Chennai,"Arumbakkam, Chennai - TNPCB",04-04-2024 08:00:00,13.0664,80.2112 ,PM10,22,64,46
India,TamilNadu,Coimbatore,"PSG College of Arts and Science, Coimbatore - TNPCB",04-04-2024 08:00:00,11.0328,77.0349,SO2,NA,NA,NA
India,TamilNadu,Cuddalore,"Kudikadu, Cuddalore - TNPCB",04-04-2024 08:00:00,11.6829898,79.7532099,PM10,NA,NA,NA
India,TamilNadu,Cuddalore,"Semmandalam, Cuddalore - TNPCB",04-04-2024 08:00:00,11.7637683,79.7499835,OZONE,1,2,2
India,TamilNadu,Gummidipoondi,"Anthoni Pillai Nagar, Gummidipoondi - TNPCB",04-04-2024 08:00:00,13.4127,80.1081,PM2.5,18,155,51
India,TamilNadu,Palkalaiperur,"Bharathidasan University, Palkalaiperur - TNPCB",04-04-2024 08:00:00,10.681158,78.741746,OZONE,1,1,1
India,TamilNadu,Ramanathapuram,"Chalai Bazaar, Ramanathapuram - TNPCB",04-04-2024 08:00:00,9.36399,78.831977,CO,2,10,5
India,TamilNadu,Ramanathapuram,"Chalai Bazaar, Ramanathapuram - TNPCB",04-04-2024 08:00:00,9.36399,78.831977,OZONE,13,14,14
India,TamilNadu,Thoothukudi,"Meelavittan, Thoothukudi - TNPCB",04-04-2024 08:00:00,8.816428 ,78.099039,CO,4,64,38
India,TamilNadu,Tirupur,"Kumaran College, Tirupur - TNPCB",04-04-2024 08:00:00,11.0973603,77.3228673,CO,30,99,36
India,TamilNadu,Vellore,"Vasanthapuram, Vellore - TNPCB",04-04-2024 08:00:00,12.909494,79.131861,PM2.5,13,67,30
India,TamilNadu,Virudhunagar,"Collectorate Office, Virudhunagar - TNPCB",04-04-2024 08:00:00,9.559382,77.948828,PM2.5,30,74,42
India,TamilNadu,Virudhunagar,"Collectorate Office, Virudhunagar - TNPCB",04-04-2024 08:00:00,9.559382,77.948828,NH3,6,6,6
India,TamilNadu,Virudhunagar,"Collectorate Office, Virudhunagar - TNPCB",04-04-2024 08:00:00,9.559382,77.948828,CO,26,28,28
India,Telangana,Hyderabad,"Bollaram Industrial Area, Hyderabad - TSPCB",04-04-2024 08:00:00,17.540891,78.358528,PM10,67,147,104
India,Telangana,Hyderabad,"Central University, Hyderabad - TSPCB",04-04-2024 08:00:00,17.460103,78.334361,PM2.5,28,58,39
India,Telangana,Hyderabad,"Nacharam_TSIIC IALA, Hyderabad - TSPCB",04-04-2024 08:00:00,17.429398,78.569354,SO2,NA,NA,NA
India,Telangana,Hyderabad,"Ramachandrapuram, Hyderabad - TSPCB",04-04-2024 08:00:00,17.528544,78.286195,SO2,NA,NA,NA
India,Telangana,Hyderabad,"Ramachandrapuram, Hyderabad - TSPCB",04-04-2024 08:00:00,17.528544,78.286195,OZONE,13,41,17
India,Telangana,Hyderabad,"Sanathnagar, Hyderabad - TSPCB",04-04-2024 08:00:00,17.4559458,78.4332152,PM2.5,50,88,69
India,Telangana,Hyderabad,"Sanathnagar, Hyderabad - TSPCB",04-04-2024 08:00:00,17.4559458,78.4332152,CO,38,47,41
India,Telangana,Hyderabad,"Somajiguda, Hyderabad - TSPCB",04-04-2024 08:00:00,17.417094,78.457437,SO2,12,13,12
India,Telangana,Hyderabad,"Zoo Park, Hyderabad - TSPCB",04-04-2024 08:00:00,17.349694,78.451437,SO2,2,7,5
India,Tripura,Agartala,"Bardowali, Agartala - Tripura SPCB",04-04-2024 08:00:00,23.8175497,91.2726974,PM2.5,53,136,90
India,Uttar_Pradesh,Agra,"Manoharpur, Agra - UPPCB",04-04-2024 08:00:00,27.23711,78.01936,CO,10,15,12
India,Uttar_Pradesh,Agra,"Manoharpur, Agra - UPPCB",04-04-2024 08:00:00,27.23711,78.01936,OZONE,1,69,9
India,Uttar_Pradesh,Agra,"Rohta, Agra - UPPCB",04-04-2024 08:00:00,27.106972,78.000111,NO2,2,2,2
India,Uttar_Pradesh,Agra,"Rohta, Agra - UPPCB",04-04-2024 08:00:00,27.106972,78.000111,SO2,3,12,6
India,Uttar_Pradesh,Agra,"Shastripuram, Agra - UPPCB",04-04-2024 08:00:00,27.19862,77.92066,PM10,54,150,96
India,Uttar_Pradesh,Agra,"Shastripuram, Agra - UPPCB",04-04-2024 08:00:00,27.19862,77.92066,OZONE,1,14,1
India,Uttar_Pradesh,Baghpat,"Sardar Patel Inter College, Baghpat - UPPCB",04-04-2024 08:00:00,28.964949,77.278761,PM10,NA,NA,NA
India,Uttar_Pradesh,Baghpat,"Sardar Patel Inter College, Baghpat - UPPCB",04-04-2024 08:00:00,28.964949,77.278761,OZONE,18,79,26
India,Uttar_Pradesh,Bareilly,"Civil Lines, Bareilly - UPPCB",04-04-2024 08:00:00,28.359581,79.414455,PM10,35,125,67
India,Uttar_Pradesh,Bareilly,"Civil Lines, Bareilly - UPPCB",04-04-2024 08:00:00,28.359581,79.414455,SO2,45,49,47
India,Uttar_Pradesh,Bulandshahr,"Yamunapuram, Bulandshahr - UPPCB",04-04-2024 08:00:00,28.406963,77.849831,OZONE,9,148,20
India,Uttar_Pradesh,Firozabad,"Nagla Bhau, Firozabad - UPPCB",04-04-2024 08:00:00,27.168897,78.376960,NH3,2,2,2
India,Uttar_Pradesh,Firozabad,"Nagla Bhau, Firozabad - UPPCB",04-04-2024 08:00:00,27.168897,78.376960,OZONE,16,19,16
India,Uttar_Pradesh,Ghaziabad,"Loni, Ghaziabad - UPPCB",04-04-2024 08:00:00,28.757294,77.278792,PM2.5,31,378,114
India,Uttar_Pradesh,Ghaziabad,"Loni, Ghaziabad - UPPCB",04-04-2024 08:00:00,28.757294,77.278792,SO2,9,35,22
India,Uttar_Pradesh,Ghaziabad,"Sanjay Nagar, Ghaziabad - UPPCB",04-04-2024 08:00:00,28.685382,77.453839,CO,12,98,33
India,Uttar_Pradesh,Ghaziabad,"Vasundhara, Ghaziabad - UPPCB",04-04-2024 08:00:00,28.6603346,77.3572563,PM10,77,179,127
India,Uttar_Pradesh,Ghaziabad,"Vasundhara, Ghaziabad - UPPCB",04-04-2024 08:00:00,28.6603346,77.3572563,SO2,16,120,56
India,Uttar_Pradesh,Gorakhpur,"Madan Mohan Malaviya University of Technology, Gorakhpur - UPPCB",04-04-2024 08:00:00,26.730136,83.433859,PM2.5,31,185,93
India,Uttar_Pradesh,Hapur,"Anand Vihar, Hapur - UPPCB",04-04-2024 08:00:00,28.725645,77.749675,PM2.5,20,163,79
India,Uttar_Pradesh,Hapur,"Anand Vihar, Hapur - UPPCB",04-04-2024 08:00:00,28.725645,77.749675,NO2,3,141,44
India,Uttar_Pradesh,Hapur,"Anand Vihar, Hapur - UPPCB",04-04-2024 08:00:00,28.725645,77.749675,NH3,6,23,8
India,Uttar_Pradesh,Jhansi,"Shivaji Nagar, Jhansi - UPPCB",04-04-2024 08:00:00,25.4547,78.6039,PM2.5,18,120,43
India,Uttar_Pradesh,Jhansi,"Shivaji Nagar, Jhansi - UPPCB",04-04-2024 08:00:00,25.4547,78.6039,OZONE,2,39,8
India,Uttar_Pradesh,Kanpur,"FTI Kidwai Nagar, Kanpur - UPPCB",04-04-2024 08:00:00,26.428282,80.327067,PM2.5,44,186,92
India,Uttar_Pradesh,Kanpur,"FTI Kidwai Nagar, Kanpur - UPPCB",04-04-2024 08:00:00,26.428282,80.327067,CO,28,60,49
India,Uttar_Pradesh,Kanpur,"NSI Kalyanpur, Kanpur - UPPCB",04-04-2024 08:00:00,26.509954,80.249612,NH3,2,3,2
India,Uttar_Pradesh,Kanpur,"NSI Kalyanpur, Kanpur - UPPCB",04-04-2024 08:00:00,26.509954,80.249612,OZONE,2,40,35
India,Uttar_Pradesh,Khurja,"Kalindi Kunj, Khurja - UPPCB",04-04-2024 08:00:00,28.2348927,77.8683002,PM2.5,34,170,95
India,Uttar_Pradesh,Khurja,"Kalindi Kunj, Khurja - UPPCB",04-04-2024 08:00:00,28.2348927,77.8683002,PM10,32,120,82
India,Uttar_Pradesh,Khurja,"Kalindi Kunj, Khurja - UPPCB",04-04-2024 08:00:00,28.2348927,77.8683002,SO2,51,66,56
India,Uttar_Pradesh,Khurja,"Kalindi Kunj, Khurja - UPPCB",04-04-2024 08:00:00,28.2348927,77.8683002,OZONE,31,39,32
India,Uttar_Pradesh,Lucknow,"B R Ambedkar University, Lucknow - UPPCB",04-04-2024 08:00:00,26.766433,80.927299,NH3,5,7,5
India,Uttar_Pradesh,Lucknow,"Gomti Nagar, Lucknow - UPPCB",04-04-2024 08:00:00,26.868120,81.005119,PM10,51,142,94
India,Uttar_Pradesh,Lucknow,"Kukrail Picnic Spot-1, Lucknow - UPPCB",04-04-2024 08:00:00,26.90723,80.98579,NO2,8,9,8
India,Uttar_Pradesh,Lucknow,"Kukrail Picnic Spot-1, Lucknow - UPPCB",04-04-2024 08:00:00,26.90723,80.98579,SO2,23,32,26
India,Uttar_Pradesh,Lucknow,"Lalbagh, Lucknow - CPCB",04-04-2024 08:00:00,26.8458805,80.9365541,NO2,4,31,13
India,Uttar_Pradesh,Meerut,"Ganga Nagar, Meerut - UPPCB",04-04-2024 08:00:00,28.999264,77.7590354,NO2,16,104,42
India,Uttar_Pradesh,Meerut,"Ganga Nagar, Meerut - UPPCB",04-04-2024 08:00:00,28.999264,77.7590354,CO,16,92,44
India,Uttar_Pradesh,Meerut,"Pallavpuram Phase 2, Meerut - UPPCB",04-04-2024 08:00:00,29.063510,77.709723,SO2,NA,NA,NA
India,Uttar_Pradesh,Meerut,"Pallavpuram Phase 2, Meerut - UPPCB",04-04-2024 08:00:00,29.063510,77.709723,OZONE,6,88,28
India,Uttar_Pradesh,Moradabad,"Buddhi Vihar, Moradabad - UPPCB",04-04-2024 08:00:00,28.83526,78.74460,NH3,2,2,2
India,Uttar_Pradesh,Moradabad,"Buddhi Vihar, Moradabad - UPPCB",04-04-2024 08:00:00,28.83526,78.74460,CO,22,35,33
India,Uttar_Pradesh,Moradabad,"Eco Herbal Park, Moradabad - UPPCB",04-04-2024 08:00:00,28.840739,78.697531,NH3,4,32,9
India,Uttar_Pradesh,Moradabad,"Employment Office, Moradabad - UPPCB",04-04-2024 08:00:00,28.88528,78.73880,PM2.5,28,92,62
India,Uttar_Pradesh,Moradabad,"Employment Office, Moradabad - UPPCB",04-04-2024 08:00:00,28.88528,78.73880,PM10,50,132,102
India,Uttar_Pradesh,Moradabad,"Jigar Colony, Moradabad - UPPCB",04-04-2024 08:00:00,28.856664,78.772638,NO2,19,25,21
India,Uttar_Pradesh,Moradabad,"Kashiram Nagar, Moradabad - UPPCB",04-04-2024 08:00:00,28.849399,78.742362,NH3,4,4,4
India,Uttar_Pradesh,Moradabad,"Kashiram Nagar, Moradabad - UPPCB",04-04-2024 08:00:00,28.849399,78.742362,SO2,30,43,36
India,Uttar_Pradesh,Moradabad,"Transport Nagar, Moradabad - UPPCB",04-04-2024 08:00:00,28.802625,78.753728,NO2,10,27,18
India,Uttar_Pradesh,Moradabad,"Transport Nagar, Moradabad - UPPCB",04-04-2024 08:00:00,28.802625,78.753728,OZONE,14,43,16
India,Uttar_Pradesh,Noida,"Sector - 125, Noida - UPPCB",04-04-2024 08:00:00,28.5447608,77.3231257,PM10,51,401,119
India,Uttar_Pradesh,Noida,"Sector - 125, Noida - UPPCB",04-04-2024 08:00:00,28.5447608,77.3231257,NH3,5,17,13
India,Uttar_Pradesh,Noida,"Sector - 125, Noida - UPPCB",04-04-2024 08:00:00,28.5447608,77.3231257,SO2,7,111,29
India,Uttar_Pradesh,Noida,"Sector - 62, Noida - IMD",04-04-2024 08:00:00,28.6245479,77.3577104,CO,43,88,80
India,Uttar_Pradesh,Noida,"Sector-1, Noida - UPPCB",04-04-2024 08:00:00,28.5898,77.3101,OZONE,5,277,25
India,Uttar_Pradesh,Prayagraj,"Motilal Nehru NIT, Prayagraj - UPPCB",04-04-2024 08:00:00,25.494,81.863,PM2.5,NA,NA,NA
India,Uttar_Pradesh,Prayagraj,"Motilal Nehru NIT, Prayagraj - UPPCB",04-04-2024 08:00:00,25.494,81.863,NH3,NA,NA,NA
India,Uttar_Pradesh,Prayagraj,"Motilal Nehru NIT, Prayagraj - UPPCB",04-04-2024 08:00:00,25.494,81.863,SO2,NA,NA,NA
India,Uttar_Pradesh,Prayagraj,"Nagar Nigam, Prayagraj - UPPCB",04-04-2024 08:00:00,25.44919916 ,81.82735986 ,NO2,5,5,5
India,Uttar_Pradesh,Varanasi,"Ardhali Bazar, Varanasi - UPPCB",04-04-2024 08:00:00,25.3505986,82.9083074,SO2,17,41,27
India,Uttar_Pradesh,Varanasi,"Ardhali Bazar, Varanasi - UPPCB",04-04-2024 08:00:00,25.3505986,82.9083074,CO,2,23,12
India,Uttar_Pradesh,Varanasi,"Bhelupur, Varanasi - UPPCB",04-04-2024 08:00:00,25.301778,82.996789,NH3,1,2,2
India,Uttar_Pradesh,Varanasi,"IESD Banaras Hindu University, Varanasi - UPPCB",04-04-2024 08:00:00,25.262326,82.995408,NH3,2,4,3
India,Uttar_Pradesh,Varanasi,"Maldahiya, Varanasi - UPPCB",04-04-2024 08:00:00,25.32393,82.99687,NH3,1,3,1
India,Uttar_Pradesh,Varanasi,"Maldahiya, Varanasi - UPPCB",04-04-2024 08:00:00,25.32393,82.99687,SO2,25,26,26
India,Uttarakhand,Dehradun,"Doon University, Dehradun - UKPCB",04-04-2024 08:00:00,30.269444,78.044167,PM2.5,14,83,56
India,Uttarakhand,Dehradun,"Doon University, Dehradun - UKPCB",04-04-2024 08:00:00,30.269444,78.044167,SO2,2,4,2
India,Uttarakhand,Kashipur,"Govt. Girls Inter College, Kashipur - UKPCB",04-04-2024 08:00:00,29.2124114,78.9611753,PM2.5,29,127,79
India,Uttarakhand,Kashipur,"Govt. Girls Inter College, Kashipur - UKPCB",04-04-2024 08:00:00,29.2124114,78.9611753,OZONE,18,73,26
India,Uttarakhand,Rishikesh,"Shivaji Nagar, Rishikesh - UKPCB",04-04-2024 08:00:00,30.075911,78.2859547,NH3,2,4,3
India,West_Bengal,Durgapur,"PCBL Residential Complex, Durgapur - WBPCB",04-04-2024 08:00:00,23.5087640,87.3544400,PM10,NA,NA,NA
India,West_Bengal,Durgapur,"PCBL Residential Complex, Durgapur - WBPCB",04-04-2024 08:00:00,23.5087640,87.3544400,NH3,2,4,3
India,West_Bengal,Durgapur,"PCBL Residential Complex, Durgapur - WBPCB",04-04-2024 08:00:00,23.5087640,87.3544400,OZONE,6,123,14
India,West_Bengal,Durgapur,"Sidhu Kanhu Indoor Stadium, Durgapur - WBPCB",04-04-2024 08:00:00,23.5404352,87.2892225,PM2.5,86,315,219
India,West_Bengal,Durgapur,"Sidhu Kanhu Indoor Stadium, Durgapur - WBPCB",04-04-2024 08:00:00,23.5404352,87.2892225,PM10,110,203,159
India,West_Bengal,Haldia,"Priyambada Housing Estate, Haldia - WBPCB",04-04-2024 08:00:00,22.06047,88.109737,SO2,7,24,17
India,West_Bengal,Howrah,"Padmapukur, Howrah - WBPCB",04-04-2024 08:00:00,22.5687319,88.2797276,PM2.5,35,77,51
India,West_Bengal,Howrah,"Padmapukur, Howrah - WBPCB",04-04-2024 08:00:00,22.5687319,88.2797276,OZONE,7,98,9
India,West_Bengal,Kolkata,"Ballygunge, Kolkata - WBPCB",04-04-2024 08:00:00,22.5367507,88.3638022,PM2.5,46,105,70
India,West_Bengal,Kolkata,"Ballygunge, Kolkata - WBPCB",04-04-2024 08:00:00,22.5367507,88.3638022,OZONE,16,155,23
India,West_Bengal,Kolkata,"Bidhannagar, Kolkata - WBPCB",04-04-2024 08:00:00,22.58157048,88.41002457,NO2,18,35,24
India,West_Bengal,Kolkata,"Bidhannagar, Kolkata - WBPCB",04-04-2024 08:00:00,22.58157048,88.41002457,OZONE,20,128,28
India,West_Bengal,Kolkata,"Fort William, Kolkata - WBPCB",04-04-2024 08:00:00,22.556640,88.342674,PM10,61,135,93
India,West_Bengal,Kolkata,"Fort William, Kolkata - WBPCB",04-04-2024 08:00:00,22.556640,88.342674,NO2,2,37,20
India,West_Bengal,Kolkata,"Jadavpur, Kolkata - WBPCB",04-04-2024 08:00:00,22.49929,88.36917,SO2,4,30,10
India,West_Bengal,Kolkata,"Jadavpur, Kolkata - WBPCB",04-04-2024 08:00:00,22.49929,88.36917,CO,20,40,24
India,West_Bengal,Kolkata,"Rabindra Bharati University, Kolkata - WBPCB",04-04-2024 08:00:00,22.627847,88.380669,NO2,NA,NA,NA
India,West_Bengal,Kolkata,"Rabindra Sarobar, Kolkata - WBPCB",04-04-2024 08:00:00,22.51106,88.35142,PM10,28,98,60
India,West_Bengal,Kolkata,"Victoria, Kolkata - WBPCB",04-04-2024 08:00:00,22.5448082,88.3403691,NO2,7,9,8
India,Andhra_Pradesh,Amaravati,"Secretariat, Amaravati - APPCB",04-04-2024 08:00:00,16.5150833,80.5181667,PM2.5,7,33,20
India,Andhra_Pradesh,Amaravati,"Secretariat, Amaravati - APPCB",04-04-2024 08:00:00,16.5150833,80.5181667,NO2,3,10,6
India,Andhra_Pradesh,Amaravati,"Secretariat, Amaravati - APPCB",04-04-2024 08:00:00,16.5150833,80.5181667,OZONE,1,36,2
India,Andhra_Pradesh,Anantapur,"Gulzarpet, Anantapur - APPCB",04-04-2024 08:00:00,14.675886,77.593027,PM2.5,22,56,37
India,Andhra_Pradesh,Anantapur,"Gulzarpet, Anantapur - APPCB",04-04-2024 08:00:00,14.675886,77.593027,SO2,4,16,7
India,Andhra_Pradesh,Anantapur,"Gulzarpet, Anantapur - APPCB",04-04-2024 08:00:00,14.675886,77.593027,OZONE,7,63,18
India,Andhra_Pradesh,Chittoor,"Gangineni Cheruvu, Chittoor - APPCB",04-04-2024 08:00:00,13.204880,79.097889,PM2.5,11,362,123
India,Andhra_Pradesh,Kadapa,"Yerramukkapalli, Kadapa - APPCB",04-04-2024 08:00:00,14.465052,78.824187,NO2,8,8,8
India,Andhra_Pradesh,Kadapa,"Yerramukkapalli, Kadapa - APPCB",04-04-2024 08:00:00,14.465052,78.824187,SO2,2,2,2
India,Andhra_Pradesh,Tirupati,"Tirumala, Tirupati - APPCB",04-04-2024 08:00:00,13.67,79.35,PM2.5,11,92,39
India,Andhra_Pradesh,Tirupati,"Vaikuntapuram, Tirupati - APPCB",04-04-2024 08:00:00,13.615387,79.409230,PM10,NA,NA,NA
India,Andhra_Pradesh,Vijayawada,"HB Colony, Vijayawada - APPCB",04-04-2024 08:00:00,16.536107,80.594233,CO,26,38,38
India,Andhra_Pradesh,Vijayawada,"Rajiv Nagar, Vijayawada - APPCB",04-04-2024 08:00:00,16.554731,80.649110,OZONE,5,24,6
India,Andhra_Pradesh,Visakhapatnam,"GVM Corporation, Visakhapatnam - APPCB",04-04-2024 08:00:00,17.72,83.3,NH3,3,5,4
India,Arunachal_Pradesh,Naharlagun,"Naharlagun, Naharlagun - APSPCB",04-04-2024 08:00:00,27.103358,93.679645,NO2,3,3,3
India,Arunachal_Pradesh,Naharlagun,"Naharlagun, Naharlagun - APSPCB",04-04-2024 08:00:00,27.103358,93.679645,SO2,4,4,4
India,Assam,Guwahati,"IITG, Guwahati - PCBA",04-04-2024 08:00:00,26.2028636,91.70046436,SO2,11,12,12
India,Assam,Guwahati,"IITG, Guwahati - PCBA",04-04-2024 08:00:00,26.2028636,91.70046436,CO,8,12,10
India,Assam,Guwahati,"Pan Bazaar, Guwahati - PCBA",04-04-2024 08:00:00,26.187500,91.744194,CO,21,29,24
India,Assam,Guwahati,"Railway Colony, Guwahati - PCBA",04-04-2024 08:00:00,26.181742,91.78063,PM10,NA,NA,NA
India,Assam,Nagaon,"Christianpatty, Nagaon - PCBA",04-04-2024 08:00:00,26.349082,92.68449,NH3,7,12,9
India,Assam,Nagaon,"Christianpatty, Nagaon - PCBA",04-04-2024 08:00:00,26.349082,92.68449,OZONE,33,100,48
India,Assam,Silchar,"Tarapur, Silchar - PCBA",04-04-2024 08:00:00,24.82827,92.79525,PM10,26,89,57
India,Assam,Sivasagar,"Girls College, Sivasagar - PCBA",04-04-2024 08:00:00,26.987634,94.636574,NH3,1,1,1
India,Bihar,Araria,"Kharahiya Basti, Araria - BSPCB",04-04-2024 08:00:00,26.146529,87.454184,PM2.5,45,307,149
India,Bihar,Araria,"Kharahiya Basti, Araria - BSPCB",04-04-2024 08:00:00,26.146529,87.454184,NO2,6,22,8
India,Bihar,Araria,"Kharahiya Basti, Araria - BSPCB",04-04-2024 08:00:00,26.146529,87.454184,NH3,7,8,7
India,Bihar,Arrah,"New DM Office, Arrah - BSPCB",04-04-2024 08:00:00,25.5626095,84.663264,PM10,65,171,101
India,Bihar,Arrah,"New DM Office, Arrah - BSPCB",04-04-2024 08:00:00,25.5626095,84.663264,NO2,10,64,21
India,Bihar,Aurangabad,"Gurdeo Nagar, Aurangabad - BSPCB",04-04-2024 08:00:00,24.75746,84.366208,NH3,3,6,5
India,Bihar,Bettiah,"Kamalnath Nagar, Bettiah - BSPCB",04-04-2024 08:00:00,26.80365,84.51954,PM10,NA,NA,NA
India,Bihar,Bettiah,"Kamalnath Nagar, Bettiah - BSPCB",04-04-2024 08:00:00,26.80365,84.51954,CO,NA,NA,NA
India,Bihar,Bhagalpur,"DM Office_Kachari Chowk, Bhagalpur - BSPCB",04-04-2024 08:00:00,25.251013,86.989001,SO2,16,17,16
India,Bihar,Bhagalpur,"Mayaganj, Bhagalpur - BSPCB",04-04-2024 08:00:00,25.265194,87.012947,NO2,4,26,9
India,Bihar,Bihar Sharif,"D M Colony, Bihar Sharif - BSPCB",04-04-2024 08:00:00,25.204762,85.514960,PM10,30,100,71
India,Bihar,Chhapra,"Darshan Nagar, Chhapra - BSPCB",04-04-2024 08:00:00,25.7808257,84.7446768,PM10,100,155,127
India,Bihar,Chhapra,"Darshan Nagar, Chhapra - BSPCB",04-04-2024 08:00:00,25.7808257,84.7446768,OZONE,1,9,2
India,Bihar,Gaya,"SFTI Kusdihra, Gaya - BSPCB",04-04-2024 08:00:00,24.762518,84.982348,PM2.5,NA,NA,NA
India,Bihar,Hajipur,"Industrial Area, Hajipur - BSPCB",04-04-2024 08:00:00,25.697189,85.245900,OZONE,1,75,9
India,Bihar,Katihar,"Mirchaibari, Katihar - BSPCB",04-04-2024 08:00:00,25.560083,87.553265,NH3,NA,NA,NA
India,Bihar,Katihar,"Mirchaibari, Katihar - BSPCB",04-04-2024 08:00:00,25.560083,87.553265,CO,NA,NA,NA
India,Bihar,Manguraha,"Forest Rest House, Manguraha - BSPCB",04-04-2024 08:00:00,27.308328,84.531742,OZONE,18,158,21
India,Bihar,Motihari,"Gandak Colony, Motihari - BSPCB",04-04-2024 08:00:00,26.63086,84.90051,PM10,24,66,45
India,Bihar,Motihari,"Gandak Colony, Motihari - BSPCB",04-04-2024 08:00:00,26.63086,84.90051,SO2,3,16,9
India,Bihar,Motihari,"Gandak Colony, Motihari - BSPCB",04-04-2024 08:00:00,26.63086,84.90051,CO,8,38,28
India,Bihar,Munger,"Town Hall, Munger - BSPCB",04-04-2024 08:00:00,25.376776,86.471523,NO2,8,9,9
India,Bihar,Munger,"Town Hall, Munger - BSPCB",04-04-2024 08:00:00,25.376776,86.471523,NH3,1,2,2
India,Bihar,Munger,"Town Hall, Munger - BSPCB",04-04-2024 08:00:00,25.376776,86.471523,CO,5,8,5
India,Bihar,Muzaffarpur,"Buddha Colony, Muzaffarpur - BSPCB",04-04-2024 08:00:00,26.11442,85.39813,OZONE,31,65,45
India,Bihar,Muzaffarpur,"MIT-Daudpur Kothi, Muzaffarpur - BSPCB",04-04-2024 08:00:00,26.1403345,85.3650192,NH3,1,4,2
India,Bihar,Muzaffarpur,"Muzaffarpur Collectorate, Muzaffarpur - BSPCB",04-04-2024 08:00:00,26.1209,85.3647,PM2.5,61,157,94
India,Bihar,Muzaffarpur,"Muzaffarpur Collectorate, Muzaffarpur - BSPCB",04-04-2024 08:00:00,26.1209,85.3647,CO,22,104,24
India,Bihar,Patna,"DRM Office Danapur, Patna - BSPCB",04-04-2024 08:00:00,25.586562,85.043586,PM10,NA,NA,NA
India,Bihar,Patna,"DRM Office Danapur, Patna - BSPCB",04-04-2024 08:00:00,25.586562,85.043586,NH3,NA,NA,NA
India,Bihar,Patna,"DRM Office Danapur, Patna - BSPCB",04-04-2024 08:00:00,25.586562,85.043586,OZONE,NA,NA,NA
India,Bihar,Patna,"Govt. High School Shikarpur, Patna - BSPCB",04-04-2024 08:00:00,25.592539,85.227158,OZONE,1,59,3
India,Bihar,Patna,"IGSC Planetarium Complex, Patna - BSPCB",04-04-2024 08:00:00,25.610369,85.132568,PM2.5,45,311,150
India,Bihar,Patna,"IGSC Planetarium Complex, Patna - BSPCB",04-04-2024 08:00:00,25.610369,85.132568,CO,12,13,13
India,Bihar,Patna,"Muradpur, Patna - BSPCB",04-04-2024 08:00:00,25.619651,85.147382,SO2,9,16,13
India,Bihar,Purnia,"Mariam Nagar, Purnia - BSPCB",04-04-2024 08:00:00,25.366336,87.117468,PM2.5,23,237,110
India,Bihar,Purnia,"Mariam Nagar, Purnia - BSPCB",04-04-2024 08:00:00,25.366336,87.117468,CO,8,110,70
India,Bihar,Purnia,"Mariam Nagar, Purnia - BSPCB",04-04-2024 08:00:00,25.366336,87.117468,OZONE,5,25,9
India,Bihar,Saharsa,"Police Line, Saharsa - BSPCB",04-04-2024 08:00:00,25.892357,86.590325,SO2,16,16,16
India,Bihar,Saharsa,"Police Line, Saharsa - BSPCB",04-04-2024 08:00:00,25.892357,86.590325,OZONE,11,53,17
India,Bihar,Samastipur,"DM Office_Kasipur, Samastipur - BSPCB",04-04-2024 08:00:00,25.859655,85.77944,PM2.5,37,325,131
India,Bihar,Samastipur,"DM Office_Kasipur, Samastipur - BSPCB",04-04-2024 08:00:00,25.859655,85.77944,NH3,4,5,4
India,Bihar,Sasaram,"Dada Peer, Sasaram - BSPCB",04-04-2024 08:00:00,24.952822,84.002396,PM10,78,167,112
India,Bihar,Siwan,"Chitragupta Nagar, Siwan - BSPCB",04-04-2024 08:00:00,26.2271665,84.3570427,PM2.5,17,110,48
India,Chandigarh,Chandigarh,"Sector 22, Chandigarh - CPCC",04-04-2024 08:00:00,30.735567,76.775714,SO2,5,99,32
India,Chandigarh,Chandigarh,"Sector 22, Chandigarh - CPCC",04-04-2024 08:00:00,30.735567,76.775714,OZONE,9,182,49
India,Chandigarh,Chandigarh,"Sector-25, Chandigarh - CPCC",04-04-2024 08:00:00,30.751462,76.762879,CO,8,40,28
India,Chandigarh,Chandigarh,"Sector-53, Chandigarh - CPCC",04-04-2024 08:00:00,30.719859,76.738637,PM10,40,191,115
India,Chandigarh,Chandigarh,"Sector-53, Chandigarh - CPCC",04-04-2024 08:00:00,30.719859,76.738637,SO2,14,51,28
India,Chhattisgarh,Bhilai,"Civic Center, Bhilai - Bhilai Steel Plant",04-04-2024 08:00:00,21.185571,81.343175,NO2,15,17,16
India,Chhattisgarh,Bhilai,"Hathkhoj, Bhilai - CECB",04-04-2024 08:00:00,21.224231,81.408350,PM10,88,186,129
India,Chhattisgarh,Bhilai,"Hathkhoj, Bhilai - CECB",04-04-2024 08:00:00,21.224231,81.408350,NO2,12,49,31
India,Chhattisgarh,Bhilai,"Hathkhoj, Bhilai - CECB",04-04-2024 08:00:00,21.224231,81.408350,SO2,5,36,16
India,Chhattisgarh,Bhilai,"Hathkhoj, Bhilai - CECB",04-04-2024 08:00:00,21.224231,81.408350,CO,8,90,47
India,Chhattisgarh,Bhilai,"Hathkhoj, Bhilai - CECB",04-04-2024 08:00:00,21.224231,81.408350,OZONE,4,21,8
India,Chhattisgarh,Chhal,"Nawapara SECL Colony, Chhal - CECB",04-04-2024 08:00:00,22.118125,83.140608,PM2.5,3,313,201
India,Chhattisgarh,Chhal,"Nawapara SECL Colony, Chhal - CECB",04-04-2024 08:00:00,22.118125,83.140608,SO2,6,72,24
India,Chhattisgarh,Korba,"Rampur, Korba - CECB",04-04-2024 08:00:00,22.368195,82.746431,CO,26,56,51
India,Chhattisgarh,Korba,"Urja Nagar, Korba - CECB",04-04-2024 08:00:00,22.348441,82.549611,NO2,51,82,66
India,Chhattisgarh,Kunjemura,"OP Jindal School, Kunjemura - CECB",04-04-2024 08:00:00,22.126650,83.483212,SO2,10,76,30
India,Chhattisgarh,Kunjemura,"OP Jindal School, Kunjemura - CECB",04-04-2024 08:00:00,22.126650,83.483212,CO,22,115,112
India,Chhattisgarh,Raipur,"AIIMS, Raipur - CECB",04-04-2024 08:00:00,21.258815,81.578979,NO2,32,86,47
India,Chhattisgarh,Raipur,"Bhatagaon New ISBT, Raipur - CECB",04-04-2024 08:00:00,21.219665,81.630094,PM2.5,3,212,50
India,Chhattisgarh,Raipur,"Krishak Nagar, Raipur - CECB",04-04-2024 08:00:00,21.237755,81.705301,SO2,13,50,26
India,Chhattisgarh,Raipur,"Siltara Phase-II, Raipur - CECB",04-04-2024 08:00:00,21.371751,81.664929,PM10,42,172,114
India,Chhattisgarh,Tumidih,"OP Jindal Industrial Park, Tumidih - CECB",04-04-2024 08:00:00,22.06631475,83.33820077,PM10,NA,NA,NA
India,Chhattisgarh,Tumidih,"OP Jindal Industrial Park, Tumidih - CECB",04-04-2024 08:00:00,22.06631475,83.33820077,NO2,NA,NA,NA
India,Chhattisgarh,Tumidih,"OP Jindal Industrial Park, Tumidih - CECB",04-04-2024 08:00:00,22.06631475,83.33820077,NH3,NA,NA,NA
India,Chhattisgarh,Tumidih,"OP Jindal Industrial Park, Tumidih - CECB",04-04-2024 08:00:00,22.06631475,83.33820077,CO,28,76,70
India,Chhattisgarh,Tumidih,"OP Jindal Industrial Park, Tumidih - CECB",04-04-2024 08:00:00,22.06631475,83.33820077,OZONE,19,132,26
India,Delhi,Delhi,"Anand Vihar, Delhi - DPCC",04-04-2024 08:00:00,28.647622,77.3158090,SO2,26,108,44
India,Delhi,Delhi,"Anand Vihar, Delhi - DPCC",04-04-2024 08:00:00,28.647622,77.3158090,OZONE,4,115,13
India,Delhi,Delhi,"Aya Nagar, Delhi - IMD",04-04-2024 08:00:00,28.4706914,77.1099364,NO2,60,64,62
India,Delhi,Delhi,"Bawana, Delhi - DPCC",04-04-2024 08:00:00,28.776200,77.051074,SO2,12,103,28
India,Delhi,Delhi,"Bawana, Delhi - DPCC",04-04-2024 08:00:00,28.776200,77.051074,CO,38,84,51
India,Delhi,Delhi,"Bawana, Delhi - DPCC",04-04-2024 08:00:00,28.776200,77.051074,OZONE,17,182,54
India,Delhi,Delhi,"Burari Crossing, Delhi - IMD",04-04-2024 08:00:00,28.7256504,77.2011573,PM10,120,253,173
India,Delhi,Delhi,"Burari Crossing, Delhi - IMD",04-04-2024 08:00:00,28.7256504,77.2011573,CO,16,40,35
India,Delhi,Delhi,"CRRI Mathura Road, Delhi - IMD",04-04-2024 08:00:00,28.5512005,77.2735737,PM10,NA,NA,NA
India,Delhi,Delhi,"Chandni Chowk, Delhi - IITM",04-04-2024 08:00:00,28.656756,77.227234,PM2.5,NA,NA,NA
India,Delhi,Delhi,"Chandni Chowk, Delhi - IITM",04-04-2024 08:00:00,28.656756,77.227234,CO,NA,NA,NA
India,Delhi,Delhi,"DTU, Delhi - CPCB",04-04-2024 08:00:00,28.7500499,77.1112615,NH3,13,24,17
India,Delhi,Delhi,"Dr. Karni Singh Shooting Range, Delhi - DPCC",04-04-2024 08:00:00,28.498571,77.264840,SO2,21,74,33
India,Delhi,Delhi,"Dwarka-Sector 8, Delhi - DPCC ",04-04-2024 08:00:00,28.5710274,77.0719006,PM2.5,33,316,147
India,Delhi,Delhi,"Dwarka-Sector 8, Delhi - DPCC ",04-04-2024 08:00:00,28.5710274,77.0719006,NO2,11,104,55
India,Delhi,Delhi,"Dwarka-Sector 8, Delhi - DPCC ",04-04-2024 08:00:00,28.5710274,77.0719006,SO2,7,26,14
India,Delhi,Delhi,"Dwarka-Sector 8, Delhi - DPCC ",04-04-2024 08:00:00,28.5710274,77.0719006,CO,44,138,79
India,Delhi,Delhi,"Dwarka-Sector 8, Delhi - DPCC ",04-04-2024 08:00:00,28.5710274,77.0719006,OZONE,2,109,12
India,Delhi,Delhi,"IGI Airport (T3), Delhi - IMD",04-04-2024 08:00:00,28.5627763,77.1180053,PM2.5,NA,NA,NA
India,Delhi,Delhi,"IHBAS, Dilshad Garden, Delhi - CPCB",04-04-2024 08:00:00,28.6811736,77.3025234,NH3,9,11,10
India,Delhi,Delhi,"IHBAS, Dilshad Garden, Delhi - CPCB",04-04-2024 08:00:00,28.6811736,77.3025234,OZONE,6,63,9
India,Delhi,Delhi,"ITO, Delhi - CPCB",04-04-2024 08:00:00,28.628624,77.241060,PM2.5,39,242,88
India,Delhi,Delhi,"ITO, Delhi - CPCB",04-04-2024 08:00:00,28.628624,77.241060,SO2,5,33,20
India,Delhi,Delhi,"ITO, Delhi - CPCB",04-04-2024 08:00:00,28.628624,77.241060,CO,20,108,58
India,Delhi,Delhi,"Jahangirpuri, Delhi - DPCC",04-04-2024 08:00:00,28.732820,77.170633,PM2.5,47,311,148
India,Delhi,Delhi,"Jahangirpuri, Delhi - DPCC",04-04-2024 08:00:00,28.732820,77.170633,NH3,4,18,13
India,Delhi,Delhi,"Jahangirpuri, Delhi - DPCC",04-04-2024 08:00:00,28.732820,77.170633,CO,37,111,59
India,Delhi,Delhi,"Lodhi Road, Delhi - IITM",04-04-2024 08:00:00,28.588333,77.221667,NO2,80,132,98
India,Delhi,Delhi,"Lodhi Road, Delhi - IMD",04-04-2024 08:00:00,28.5918245,77.2273074,PM2.5,35,197,91
India,Delhi,Delhi,"Lodhi Road, Delhi - IMD",04-04-2024 08:00:00,28.5918245,77.2273074,NO2,2,9,5
India,Delhi,Delhi,"Major Dhyan Chand National Stadium, Delhi - DPCC",04-04-2024 08:00:00,28.611281,77.237738,NO2,34,174,92
India,Delhi,Delhi,"Major Dhyan Chand National Stadium, Delhi - DPCC",04-04-2024 08:00:00,28.611281,77.237738,OZONE,2,249,21
India,Delhi,Delhi,"Mandir Marg, Delhi - DPCC",04-04-2024 08:00:00,28.636429,77.201067,PM2.5,33,211,83
India,Delhi,Delhi,"Mandir Marg, Delhi - DPCC",04-04-2024 08:00:00,28.636429,77.201067,SO2,6,10,8
India,Delhi,Delhi,"Mandir Marg, Delhi - DPCC",04-04-2024 08:00:00,28.636429,77.201067,OZONE,4,32,8
India,Delhi,Delhi,"Mundka, Delhi - DPCC",04-04-2024 08:00:00,28.684678,77.076574,PM10,79,472,244
India,Delhi,Delhi,"Najafgarh, Delhi - DPCC",04-04-2024 08:00:00,28.570173,76.933762,CO,2,50,28
India,Delhi,Delhi,"Najafgarh, Delhi - DPCC",04-04-2024 08:00:00,28.570173,76.933762,OZONE,11,213,39
India,Delhi,Delhi,"Narela, Delhi - DPCC",04-04-2024 08:00:00,28.822836,77.101981,NO2,14,81,44
India,Delhi,Delhi,"Okhla Phase-2, Delhi - DPCC",04-04-2024 08:00:00,28.530785,77.271255,NO2,47,142,98
India,Delhi,Delhi,"Okhla Phase-2, Delhi - DPCC",04-04-2024 08:00:00,28.530785,77.271255,OZONE,10,183,15
India,Delhi,Delhi,"Patparganj, Delhi - DPCC",04-04-2024 08:00:00,28.623763,77.287209,NH3,6,13,9
India,Delhi,Delhi,"Patparganj, Delhi - DPCC",04-04-2024 08:00:00,28.623763,77.287209,SO2,15,22,19
India,Delhi,Delhi,"Punjabi Bagh, Delhi - DPCC",04-04-2024 08:00:00,28.674045,77.131023,NO2,48,93,71
India,Delhi,Delhi,"Punjabi Bagh, Delhi - DPCC",04-04-2024 08:00:00,28.674045,77.131023,OZONE,1,56,4
India,Delhi,Delhi,"Pusa, Delhi - IMD",04-04-2024 08:00:00,28.636110,77.173332,OZONE,3,64,10
India,Delhi,Delhi,"Rohini, Delhi - DPCC",04-04-2024 08:00:00,28.732528,77.119920,OZONE,3,238,21
India,Delhi,Delhi,"Shadipur, Delhi - CPCB",04-04-2024 08:00:00,28.6514781,77.1473105,NH3,2,7,5
India,Delhi,Delhi,"Shadipur, Delhi - CPCB",04-04-2024 08:00:00,28.6514781,77.1473105,OZONE,15,42,27
India,Delhi,Delhi,"Sirifort, Delhi - CPCB",04-04-2024 08:00:00,28.5504249,77.2159377,SO2,23,36,28
India,Delhi,Delhi,"Sonia Vihar, Delhi - DPCC",04-04-2024 08:00:00,28.710508,77.249485,PM10,86,371,177
India,Delhi,Delhi,"Sri Aurobindo Marg, Delhi - DPCC",04-04-2024 08:00:00,28.531346,77.190156,SO2,8,23,16
India,Delhi,Delhi,"Vivek Vihar, Delhi - DPCC",04-04-2024 08:00:00,28.672342,77.315260,SO2,33,107,53
India,Delhi,Delhi,"Wazirpur, Delhi - DPCC",04-04-2024 08:00:00,28.699793,77.165453,NH3,8,10,9
India,Delhi,Delhi,"Wazirpur, Delhi - DPCC",04-04-2024 08:00:00,28.699793,77.165453,SO2,4,105,37
India,Delhi,Delhi,"Wazirpur, Delhi - DPCC",04-04-2024 08:00:00,28.699793,77.165453,CO,3,104,29
India,Gujarat,Ahmedabad,"Chandkheda, Ahmedabad - IITM",04-04-2024 08:00:00,23.107969,72.574648,PM10,35,131,85
India,Gujarat,Ahmedabad,"Chandkheda, Ahmedabad - IITM",04-04-2024 08:00:00,23.107969,72.574648,NH3,3,5,4
India,Gujarat,Ahmedabad,"Maninagar, Ahmedabad - GPCB",04-04-2024 08:00:00,23.002657,72.591912,PM2.5,40,266,92
India,Gujarat,Ahmedabad,"Maninagar, Ahmedabad - GPCB",04-04-2024 08:00:00,23.002657,72.591912,SO2,NA,NA,NA
India,Gujarat,Ahmedabad,"Raikhad, Ahmedabad - IITM",04-04-2024 08:00:00,23.020509,72.579261,CO,24,74,39
India,Gujarat,Ahmedabad,"Raikhad, Ahmedabad - IITM",04-04-2024 08:00:00,23.020509,72.579261,OZONE,10,32,13
India,Gujarat,Ahmedabad,"Rakhial, Ahmedabad - IITM",04-04-2024 08:00:00,23.016834,72.625775,NO2,16,58,28
India,Gujarat,Ahmedabad,"Rakhial, Ahmedabad - IITM",04-04-2024 08:00:00,23.016834,72.625775,SO2,4,33,10
India,Gujarat,Ahmedabad,"SVPI Airport Hansol, Ahmedabad - IITM",04-04-2024 08:00:00,23.076793,72.627874,NH3,4,5,4
India,Gujarat,Ahmedabad,"Sardar Vallabhbhai Patel Stadium, Ahmedabad - IITM",04-04-2024 08:00:00,23.043070,72.562968,PM2.5,51,102,72
India,Gujarat,Ahmedabad,"Sardar Vallabhbhai Patel Stadium, Ahmedabad - IITM",04-04-2024 08:00:00,23.043070,72.562968,NO2,40,41,40
India,Gujarat,Ankleshwar,"GIDC, Ankleshwar - GPCB",04-04-2024 08:00:00,21.613267,73.010555,NH3,6,6,6
India,Gujarat,Ankleshwar,"GIDC, Ankleshwar - GPCB",04-04-2024 08:00:00,21.613267,73.010555,OZONE,22,35,26
India,Gujarat,Gandhinagar,"IIPHG Lekawada, Gandhinagar - IITM",04-04-2024 08:00:00,23.243639,72.68994,PM2.5,41,81,67
India,Gujarat,Gandhinagar,"IIPHG Lekawada, Gandhinagar - IITM",04-04-2024 08:00:00,23.243639,72.68994,OZONE,13,38,17
India,Gujarat,Nandesari,"GIDC, Nandesari - Nandesari Ind. Association",04-04-2024 08:00:00,22.410802,73.097923,PM10,110,379,165
India,Gujarat,Nandesari,"GIDC, Nandesari - Nandesari Ind. Association",04-04-2024 08:00:00,22.410802,73.097923,NO2,3,93,22
India,Gujarat,Surat,"Science Center, Surat - SMC",04-04-2024 08:00:00,21.170046,72.795405,NO2,33,53,41
India,Gujarat,Vapi,"Phase-1 GIDC, Vapi - GPCB",04-04-2024 08:00:00,20.362421,72.918013,PM10,55,488,102
India,Haryana,Ambala,"Patti Mehar, Ambala - HSPCB",04-04-2024 08:00:00,30.379589,76.778328,NO2,7,21,14
India,Haryana,Bahadurgarh,"Arya Nagar, Bahadurgarh - HSPCB",04-04-2024 08:00:00,28.6701,76.9254,PM2.5,14,100,51
India,Haryana,Bahadurgarh,"Arya Nagar, Bahadurgarh - HSPCB",04-04-2024 08:00:00,28.6701,76.9254,CO,40,60,52
India,Haryana,Ballabgarh,"Nathu Colony, Ballabgarh - HSPCB",04-04-2024 08:00:00,28.3419248,77.319699,NO2,12,13,12
India,Haryana,Bhiwani,"H.B. Colony, Bhiwani - HSPCB",04-04-2024 08:00:00,28.806223,76.141105,PM10,7,412,90
India,Haryana,Bhiwani,"H.B. Colony, Bhiwani - HSPCB",04-04-2024 08:00:00,28.806223,76.141105,CO,17,39,24
India,Haryana,Charkhi Dadri,"Mini Secretariat, Charkhi Dadri - HSPCB",04-04-2024 08:00:00,28.593883,76.270653,NH3,6,8,7
India,Haryana,Charkhi Dadri,"Mini Secretariat, Charkhi Dadri - HSPCB",04-04-2024 08:00:00,28.593883,76.270653,SO2,1,42,9
India,Haryana,Charkhi Dadri,"Mini Secretariat, Charkhi Dadri - HSPCB",04-04-2024 08:00:00,28.593883,76.270653,CO,28,90,46
India,Haryana,Dharuhera,"Municipal Corporation Office, Dharuhera -  HSPCB",04-04-2024 08:00:00,28.206800,76.799700,NO2,NA,NA,NA
India,Haryana,Dharuhera,"Municipal Corporation Office, Dharuhera -  HSPCB",04-04-2024 08:00:00,28.206800,76.799700,OZONE,NA,NA,NA
India,Haryana,Faridabad,"New Industrial Town, Faridabad - HSPCB",04-04-2024 08:00:00,28.39072,77.30059,PM2.5,126,498,304
India,Haryana,Faridabad,"New Industrial Town, Faridabad - HSPCB",04-04-2024 08:00:00,28.39072,77.30059,PM10,110,465,224
India,Haryana,Faridabad,"New Industrial Town, Faridabad - HSPCB",04-04-2024 08:00:00,28.39072,77.30059,NH3,2,8,5
India,Haryana,Faridabad,"Sector 11, Faridabad - HSPCB",04-04-2024 08:00:00,28.376058,77.315741,PM2.5,172,412,280
India,Haryana,Faridabad,"Sector 30, Faridabad - HSPCB",04-04-2024 08:00:00,28.4417,77.3217,PM10,NA,NA,NA
India,Haryana,Fatehabad,"Huda Sector, Fatehabad - HSPCB",04-04-2024 08:00:00,29.503664,75.467934,PM2.5,28,90,52
India,Haryana,Gurugram,"Sector-51, Gurugram - HSPCB",04-04-2024 08:00:00,28.4227,77.0667,SO2,3,4,4
India,Haryana,Gurugram,"Teri Gram, Gurugram - HSPCB",04-04-2024 08:00:00,28.4275,77.1465,SO2,3,5,4
India,Haryana,Gurugram,"Vikas Sadan, Gurugram - HSPCB",04-04-2024 08:00:00,28.4501238,77.0263051,SO2,31,70,43
India,Haryana,Kaithal,"Rishi Nagar, Kaithal - HSPCB",04-04-2024 08:00:00,29.8006,76.4155,NH3,8,8,8
India,Haryana,Kaithal,"Rishi Nagar, Kaithal - HSPCB",04-04-2024 08:00:00,29.8006,76.4155,CO,5,37,21
India,Haryana,Manesar,"Sector-2 IMT, Manesar - HSPCB",04-04-2024 08:00:00,28.360699,76.936090,OZONE,1,52,3
India,Haryana,Narnaul,"Shastri Nagar, Narnaul - HSPCB",04-04-2024 08:00:00,28.060249,76.113115,SO2,13,39,15
India,Haryana,Narnaul,"Shastri Nagar, Narnaul - HSPCB",04-04-2024 08:00:00,28.060249,76.113115,CO,16,42,31
India,Haryana,Palwal,"Shyam Nagar, Palwal - HSPCB",04-04-2024 08:00:00,28.1485564,77.3320667,NO2,23,24,24
India,Haryana,Palwal,"Shyam Nagar, Palwal - HSPCB",04-04-2024 08:00:00,28.1485564,77.3320667,SO2,10,22,16
India,Haryana,Panipat,"Sector-18, Panipat - HSPCB",04-04-2024 08:00:00,29.497973,76.993331,NO2,31,32,31
India,Haryana,Rohtak,"MD University, Rohtak - HSPCB",04-04-2024 08:00:00,28.52123,76.37138,SO2,6,8,7
India,Haryana,Rohtak,"MD University, Rohtak - HSPCB",04-04-2024 08:00:00,28.52123,76.37138,CO,20,59,44
India,Haryana,Rohtak,"MD University, Rohtak - HSPCB",04-04-2024 08:00:00,28.52123,76.37138,OZONE,44,52,49
India,Haryana,Sirsa,"F-Block, Sirsa - HSPCB",04-04-2024 08:00:00,29.536400,75.015800,NH3,10,16,13
India,Haryana,Sirsa,"F-Block, Sirsa - HSPCB",04-04-2024 08:00:00,29.536400,75.015800,SO2,5,76,31
India,Haryana,Sonipat,"Murthal, Sonipat - HSPCB",04-04-2024 08:00:00,29.027200,77.062100,PM10,107,130,108
India,Haryana,Sonipat,"Murthal, Sonipat - HSPCB",04-04-2024 08:00:00,29.027200,77.062100,NO2,37,44,40
India,Haryana,Sonipat,"Murthal, Sonipat - HSPCB",04-04-2024 08:00:00,29.027200,77.062100,NH3,7,10,9
India,Jharkhand,Dhanbad,"Kalakusuma, Dhanbad - DMC",04-04-2024 08:00:00,23.811548,86.481238,CO,125,136,130
India,Jharkhand,Dhanbad,"Sardar Patel Nagar, Dhanbad - JSPCB",04-04-2024 08:00:00,23.80569,86.44268,PM2.5,9,371,100
India,Jharkhand,Dhanbad,"Sardar Patel Nagar, Dhanbad - JSPCB",04-04-2024 08:00:00,23.80569,86.44268,PM10,37,482,158
India,Karnataka,Belgaum,"Ramteerth Nagar, Belgaum - KSPCB",04-04-2024 08:00:00,15.888653,74.541751,PM2.5,NA,NA,NA
India,Karnataka,Belgaum,"Ramteerth Nagar, Belgaum - KSPCB",04-04-2024 08:00:00,15.888653,74.541751,NO2,NA,NA,NA
India,Karnataka,Belgaum,"Ramteerth Nagar, Belgaum - KSPCB",04-04-2024 08:00:00,15.888653,74.541751,NH3,NA,NA,NA
India,Karnataka,Bengaluru,"BTM Layout, Bengaluru - CPCB",04-04-2024 08:00:00,12.9135218,77.5950804,PM2.5,34,57,43
India,Karnataka,Bengaluru,"Hebbal, Bengaluru - KSPCB",04-04-2024 08:00:00,13.029152,77.585901,CO,NA,NA,NA
India,Karnataka,Bengaluru,"Hombegowda Nagar, Bengaluru - KSPCB",04-04-2024 08:00:00,12.938539,77.590100,NH3,1,2,1
India,Karnataka,Bengaluru,"Jigani, Bengaluru - KSPCB",04-04-2024 08:00:00,12.7816279,77.6299145,NO2,31,32,32
India,Karnataka,Bengaluru,"Kasturi Nagar, Bengaluru - KSPCB",04-04-2024 08:00:00,13.003872,77.664217,NO2,16,17,17
India,Karnataka,Bengaluru,"RVCE-Mailasandra, Bengaluru - KSPCB",04-04-2024 08:00:00,12.921418,77.502466,PM10,62,125,90
India,Karnataka,Bengaluru,"RVCE-Mailasandra, Bengaluru - KSPCB",04-04-2024 08:00:00,12.921418,77.502466,SO2,5,11,8
India,Karnataka,Bengaluru,"Shivapura_Peenya, Bengaluru - KSPCB",04-04-2024 08:00:00,13.0246342,77.5080115,PM10,35,83,62
India,Karnataka,Bengaluru,"Shivapura_Peenya, Bengaluru - KSPCB",04-04-2024 08:00:00,13.0246342,77.5080115,SO2,4,19,12
India,Karnataka,Bengaluru,"Silk Board, Bengaluru - KSPCB",04-04-2024 08:00:00,12.917348,77.622813,PM10,32,95,62
India,Karnataka,Bengaluru,"Silk Board, Bengaluru - KSPCB",04-04-2024 08:00:00,12.917348,77.622813,SO2,3,13,9
India,Karnataka,Bidar,"Naubad, Bidar - KSPCB",04-04-2024 08:00:00,17.930306,77.482194,OZONE,15,53,24
India,Karnataka,Chikkaballapur,"Chikkaballapur Rural, Chikkaballapur - KSPCB",04-04-2024 08:00:00,13.428828,77.731418,PM2.5,43,91,62
India,Karnataka,Dharwad,"Kalabhavan, Dharwad - KSPCB",04-04-2024 08:00:00,15.459706,75.008381,PM10,66,81,71
India,Karnataka,Dharwad,"Kalabhavan, Dharwad - KSPCB",04-04-2024 08:00:00,15.459706,75.008381,NO2,1,23,12
India,Karnataka,Gadag,"Panchal Nagar, Gadag - KSPCB",04-04-2024 08:00:00,15.411456,75.638133,SO2,11,16,14
India,Karnataka,Gadag,"Panchal Nagar, Gadag - KSPCB",04-04-2024 08:00:00,15.411456,75.638133,OZONE,32,75,37
India,Karnataka,Hassan,"B.Katihalli, Hassan - KSPCB",04-04-2024 08:00:00,13.008556,76.125258,PM2.5,45,87,66
India,Karnataka,Hassan,"B.Katihalli, Hassan - KSPCB",04-04-2024 08:00:00,13.008556,76.125258,NO2,12,17,14
India,Karnataka,Hassan,"B.Katihalli, Hassan - KSPCB",04-04-2024 08:00:00,13.008556,76.125258,OZONE,1,2,2
India,Karnataka,Haveri,"Ashwini Nagar, Haveri - KSPCB",04-04-2024 08:00:00,14.791800,75.389600,NH3,2,4,3
India,Karnataka,Hubballi,"Deshpande Nagar, Hubballi - KSPCB",04-04-2024 08:00:00,15.351773,75.140726,NH3,4,6,5
India,Karnataka,Hubballi,"Deshpande Nagar, Hubballi - KSPCB",04-04-2024 08:00:00,15.351773,75.140726,OZONE,1,6,1
India,Karnataka,Hubballi,"Lingaraj Nagar, Hubballi - KSPCB",04-04-2024 08:00:00,15.3714823,75.1160168,PM2.5,38,56,49
India,Karnataka,Hubballi,"Lingaraj Nagar, Hubballi - KSPCB",04-04-2024 08:00:00,15.3714823,75.1160168,PM10,48,66,58
India,Karnataka,Kalaburagi,"Lal Bahadur Shastri Nagar, Kalaburagi - KSPCB",04-04-2024 08:00:00,17.321993,76.822628,NO2,11,12,12
India,Karnataka,Kalaburagi,"Lal Bahadur Shastri Nagar, Kalaburagi - KSPCB",04-04-2024 08:00:00,17.321993,76.822628,CO,42,54,45
India,Karnataka,Kalaburagi,"Lal Bahadur Shastri Nagar, Kalaburagi - KSPCB",04-04-2024 08:00:00,17.321993,76.822628,OZONE,19,97,34
India,Karnataka,Karwar,"KHB Colony, Karwar - KSPCB",04-04-2024 08:00:00,14.816666,74.141003,NO2,1,17,5
India,Karnataka,Kolar,"Tamaka Ind. Area, Kolar - KSPCB",04-04-2024 08:00:00,13.1276288,78.1570122,PM10,48,121,72
India,Karnataka,Kolar,"Tamaka Ind. Area, Kolar - KSPCB",04-04-2024 08:00:00,13.1276288,78.1570122,NO2,20,44,30
India,Karnataka,Kolar,"Tamaka Ind. Area, Kolar - KSPCB",04-04-2024 08:00:00,13.1276288,78.1570122,CO,6,6,6
India,Karnataka,Madikeri,"Stuart Hill, Madikeri - KSPCB",04-04-2024 08:00:00,12.415911,75.735050,NO2,1,16,5
India,Karnataka,Madikeri,"Stuart Hill, Madikeri - KSPCB",04-04-2024 08:00:00,12.415911,75.735050,CO,7,194,54
India,Karnataka,Mangalore,"Kadri, Mangalore - KSPCB",04-04-2024 08:00:00,12.889250,74.853000,PM2.5,48,78,63
India,Karnataka,Mysuru,"Hebbal 1st Stage, Mysuru - KSPCB",04-04-2024 08:00:00,12.21041,76.37376,PM2.5,17,42,27
India,Karnataka,Mysuru,"Hebbal 1st Stage, Mysuru - KSPCB",04-04-2024 08:00:00,12.21041,76.37376,NO2,5,46,23
India,Karnataka,Mysuru,"Hebbal 1st Stage, Mysuru - KSPCB",04-04-2024 08:00:00,12.21041,76.37376,OZONE,8,104,12
India,Karnataka,Raichur,"Haji Colony, Raichur - KSPCB",04-04-2024 08:00:00,16.208139,77.348417,NH3,1,3,2
India,Karnataka,Raichur,"Haji Colony, Raichur - KSPCB",04-04-2024 08:00:00,16.208139,77.348417,SO2,67,97,78
India,Karnataka,Raichur,"Haji Colony, Raichur - KSPCB",04-04-2024 08:00:00,16.208139,77.348417,CO,100,117,103
India,Karnataka,Shivamogga,"Vinoba Nagara, Shivamogga - KSPCB",04-04-2024 08:00:00,13.940000,75.555917,CO,4,36,11
India,Karnataka,Shivamogga,"Vinoba Nagara, Shivamogga - KSPCB",04-04-2024 08:00:00,13.940000,75.555917,OZONE,17,85,33
India,Karnataka,Tumakuru,"Thimmalapura, Tumakuru - KSPCB",04-04-2024 08:00:00,13.377516,77.099072,CO,29,35,32
India,Karnataka,Udupi,"Brahmagiri, Udupi - KSPCB",04-04-2024 08:00:00,13.34194444,74.74694444,NH3,NA,NA,NA
India,Karnataka,Udupi,"Brahmagiri, Udupi - KSPCB",04-04-2024 08:00:00,13.34194444,74.74694444,CO,23,48,26
India,Karnataka,Udupi,"Brahmagiri, Udupi - KSPCB",04-04-2024 08:00:00,13.34194444,74.74694444,OZONE,18,38,28
India,Karnataka,Vijayapura,"Ibrahimpur, Vijayapura - KSPCB",04-04-2024 08:00:00,16.802639,75.722694,NH3,2,2,2
India,Karnataka,Yadgir,"Collector Office, Yadgir - KSPCB",04-04-2024 08:00:00,16.7602,77.1428,NH3,NA,NA,NA
India,Karnataka,Yadgir,"Collector Office, Yadgir - KSPCB",04-04-2024 08:00:00,16.7602,77.1428,CO,8,24,15
India,Kerala,Eloor,"Udyogamandal, Eloor - Kerala PCB",04-04-2024 08:00:00,10.073232,76.302765,NH3,1,1,1
India,Kerala,Kollam,"Polayathode, Kollam - Kerala PCB",04-04-2024 08:00:00,8.8787,76.6073,PM2.5,16,69,37
India,Kerala,Kollam,"Polayathode, Kollam - Kerala PCB",04-04-2024 08:00:00,8.8787,76.6073,OZONE,32,38,33
India,Kerala,Thiruvananthapuram,"Kariavattom, Thiruvananthapuram - Kerala PCB",04-04-2024 08:00:00,8.563700,76.886500,PM2.5,73,89,82
India,Kerala,Thiruvananthapuram,"Kariavattom, Thiruvananthapuram - Kerala PCB",04-04-2024 08:00:00,8.563700,76.886500,NH3,1,1,1
India,Kerala,Thiruvananthapuram,"Plammoodu, Thiruvananthapuram - Kerala PCB",04-04-2024 08:00:00,8.5149093,76.9435879,SO2,6,14,10
India,Madhya Pradesh,Bhopal,"Idgah Hills, Bhopal - MPPCB",04-04-2024 08:00:00,23.264759,77.381568,PM2.5,22,117,63
India,Madhya Pradesh,Bhopal,"Idgah Hills, Bhopal - MPPCB",04-04-2024 08:00:00,23.264759,77.381568,NH3,5,7,6
India,Madhya Pradesh,Bhopal,"Idgah Hills, Bhopal - MPPCB",04-04-2024 08:00:00,23.264759,77.381568,CO,30,72,38
India,Madhya Pradesh,Bhopal,"Idgah Hills, Bhopal - MPPCB",04-04-2024 08:00:00,23.264759,77.381568,OZONE,30,95,38
India,Madhya Pradesh,Bhopal,"Paryavaran Parisar, Bhopal - MPPCB",04-04-2024 08:00:00,23.210494,77.425409,NO2,11,72,22
India,Madhya Pradesh,Dewas,"Bhopal Chauraha, Dewas - MPPCB",04-04-2024 08:00:00,22.9682591,76.064118,CO,14,52,30
India,Madhya Pradesh,Dewas,"Bhopal Chauraha, Dewas - MPPCB",04-04-2024 08:00:00,22.9682591,76.064118,OZONE,32,96,45
