country,state,city,station,last_update,latitude,longitude,pollutant_id,pollutant_min,pollutant_max,pollutant_avg
India,Andhra_Pradesh,Amaravati,"Secretariat, Amaravati - APPCB",03-06-2024 16:00:00,16.5150833,80.5181667,NO2,3,18,8
India,Andhra_Pradesh,Anantapur,"Gulzarpet, Anantapur - APPCB",03-06-2024 16:00:00,14.675886,77.593027,CO,11,60,40
India,Andhra_Pradesh,Anantapur,"Gulzarpet, Anantapur - APPCB",03-06-2024 16:00:00,14.675886,77.593027,OZONE,7,40,11
India,Andhra_Pradesh,Kadapa,"Yerramukkapalli, Kadapa - APPCB",03-06-2024 16:00:00,14.465052,78.824187,NO2,12,13,12
India,Andhra_Pradesh,Kadapa,"Yerramukkapalli, Kadapa - APPCB",03-06-2024 16:00:00,14.465052,78.824187,CO,5,28,21
India,Andhra_Pradesh,Rajamahendravaram,"Anand Kala Kshetram, Rajamahendravaram - APPCB",03-06-2024 16:00:00,16.9872867,81.7363176,PM10,12,77,47
India,Andhra_Pradesh,Tirupati,"Tirumala, Tirupati - APPCB",03-06-2024 16:00:00,13.67,79.35,NO2,10,38,25
India,Andhra_Pradesh,Tirupati,"Vaikuntapuram, Tirupati - APPCB",03-06-2024 16:00:00,13.615387,79.409230,PM10,2,81,22
India,Andhra_Pradesh,Vijayawada,"HB Colony, Vijayawada - APPCB",03-06-2024 16:00:00,16.536107,80.594233,SO2,6,7,6
India,Andhra_Pradesh,Vijayawada,"HB Colony, Vijayawada - APPCB",03-06-2024 16:00:00,16.536107,80.594233,OZONE,15,47,30
India,Andhra_Pradesh,Vijayawada,"Rajiv Nagar, Vijayawada - APPCB",03-06-2024 16:00:00,16.554731,80.649110,PM2.5,47,47,47
India,Andhra_Pradesh,Vijayawada,"Rajiv Nagar, Vijayawada - APPCB",03-06-2024 16:00:00,16.554731,80.649110,NH3,1,2,2
India,Andhra_Pradesh,Vijayawada,"Rajiv Nagar, Vijayawada - APPCB",03-06-2024 16:00:00,16.554731,80.649110,SO2,14,27,18
India,Andhra_Pradesh,Visakhapatnam,"GVM Corporation, Visakhapatnam - APPCB",03-06-2024 16:00:00,17.72,83.3,NO2,NA,NA,NA
India,Andhra_Pradesh,Visakhapatnam,"GVM Corporation, Visakhapatnam - APPCB",03-06-2024 16:00:00,17.72,83.3,CO,2,28,18
India,Arunachal_Pradesh,Naharlagun,"Naharlagun, Naharlagun - APSPCB",03-06-2024 16:00:00,27.103358,93.679645,CO,2,17,9
India,Assam,Byrnihat,"Central Academy for SFS, Byrnihat - PCBA",03-06-2024 16:00:00,26.071318,91.87488,NO2,4,59,19
India,Assam,Byrnihat,"Central Academy for SFS, Byrnihat - PCBA",03-06-2024 16:00:00,26.071318,91.87488,CO,2,44,21
India,Assam,Guwahati,"IITG, Guwahati - PCBA",03-06-2024 16:00:00,26.2028636,91.70046436,NO2,NA,NA,NA
India,Assam,Guwahati,"IITG, Guwahati - PCBA",03-06-2024 16:00:00,26.2028636,91.70046436,OZONE,17,44,34
India,Assam,Guwahati,"LGBI Airport, Guwahati - PCBA",03-06-2024 16:00:00,26.10887,91.589544,SO2,NA,NA,NA
India,Assam,Guwahati,"Pan Bazaar, Guwahati - PCBA",03-06-2024 16:00:00,26.187500,91.744194,OZONE,16,18,17
India,Assam,Silchar,"Tarapur, Silchar - PCBA",03-06-2024 16:00:00,24.82827,92.79525,SO2,NA,NA,NA
India,Assam,Silchar,"Tarapur, Silchar - PCBA",03-06-2024 16:00:00,24.82827,92.79525,CO,14,60,28
India,Assam,Sivasagar,"Girls College, Sivasagar - PCBA",03-06-2024 16:00:00,26.987634,94.636574,PM2.5,27,50,33
India,Assam,Sivasagar,"Girls College, Sivasagar - PCBA",03-06-2024 16:00:00,26.987634,94.636574,OZONE,6,26,6
India,Bihar,Araria,"Kharahiya Basti, Araria - BSPCB",03-06-2024 16:00:00,26.146529,87.454184,CO,14,31,25
India,Bihar,Arrah,"New DM Office, Arrah - BSPCB",03-06-2024 16:00:00,25.5626095,84.663264,SO2,2,33,14
India,Bihar,Aurangabad,"Gurdeo Nagar, Aurangabad - BSPCB",03-06-2024 16:00:00,24.75746,84.366208,OZONE,29,154,99
India,Bihar,Bettiah,"Kamalnath Nagar, Bettiah - BSPCB",03-06-2024 16:00:00,26.80365,84.51954,NO2,25,32,30
India,Bihar,Bettiah,"Kamalnath Nagar, Bettiah - BSPCB",03-06-2024 16:00:00,26.80365,84.51954,OZONE,1,18,14
India,Bihar,Bhagalpur,"Mayaganj, Bhagalpur - BSPCB",03-06-2024 16:00:00,25.265194,87.012947,PM10,36,137,103
India,Bihar,Bhagalpur,"Mayaganj, Bhagalpur - BSPCB",03-06-2024 16:00:00,25.265194,87.012947,NO2,2,11,6
India,Bihar,Bhagalpur,"Mayaganj, Bhagalpur - BSPCB",03-06-2024 16:00:00,25.265194,87.012947,OZONE,7,40,27
India,Bihar,Buxar,"Charitra Van, Buxar - BSPCB (Formerly known as Central Jail)",03-06-2024 16:00:00,25.567520,83.966379,PM10,NA,NA,NA
India,Bihar,Buxar,"Charitra Van, Buxar - BSPCB (Formerly known as Central Jail)",03-06-2024 16:00:00,25.567520,83.966379,NH3,NA,NA,NA
India,Bihar,Gaya,"Collectorate, Gaya - BSPCB",03-06-2024 16:00:00,24.7955,84.9994,OZONE,48,83,63
India,Bihar,Gaya,"Kareemganj, Gaya - BSPCB",03-06-2024 16:00:00,24.792403,84.992416,CO,22,22,22
India,Bihar,Gaya,"SFTI Kusdihra, Gaya - BSPCB",03-06-2024 16:00:00,24.762518,84.982348,NO2,NA,NA,NA
India,Bihar,Gaya,"SFTI Kusdihra, Gaya - BSPCB",03-06-2024 16:00:00,24.762518,84.982348,NH3,1,8,4
India,Bihar,Gaya,"SFTI Kusdihra, Gaya - BSPCB",03-06-2024 16:00:00,24.762518,84.982348,SO2,6,10,9
India,Bihar,Hajipur,"Industrial Area, Hajipur - BSPCB",03-06-2024 16:00:00,25.697189,85.245900,PM10,65,130,102
India,Bihar,Katihar,"Mirchaibari, Katihar - BSPCB",03-06-2024 16:00:00,25.560083,87.553265,PM2.5,32,85,51
India,Bihar,Kishanganj,"SDM Office_Khagra, Kishanganj - BSPCB",03-06-2024 16:00:00,26.0881305,87.93840336,PM2.5,20,47,29
India,Bihar,Kishanganj,"SDM Office_Khagra, Kishanganj - BSPCB",03-06-2024 16:00:00,26.0881305,87.93840336,NO2,30,64,35
India,Bihar,Motihari,"Gandak Colony, Motihari - BSPCB",03-06-2024 16:00:00,26.63086,84.90051,NH3,4,7,5
India,Bihar,Munger,"Town Hall, Munger - BSPCB",03-06-2024 16:00:00,25.376776,86.471523,NH3,2,3,3
India,Bihar,Muzaffarpur,"MIT-Daudpur Kothi, Muzaffarpur - BSPCB",03-06-2024 16:00:00,26.1403345,85.3650192,PM2.5,50,233,104
India,Bihar,Muzaffarpur,"MIT-Daudpur Kothi, Muzaffarpur - BSPCB",03-06-2024 16:00:00,26.1403345,85.3650192,NO2,4,6,5
India,Bihar,Muzaffarpur,"Muzaffarpur Collectorate, Muzaffarpur - BSPCB",03-06-2024 16:00:00,26.1209,85.3647,SO2,6,17,10
India,Bihar,Muzaffarpur,"Muzaffarpur Collectorate, Muzaffarpur - BSPCB",03-06-2024 16:00:00,26.1209,85.3647,OZONE,22,75,36
India,Bihar,Patna,"DRM Office Danapur, Patna - BSPCB",03-06-2024 16:00:00,25.586562,85.043586,NH3,2,3,3
India,Bihar,Patna,"Govt. High School Shikarpur, Patna - BSPCB",03-06-2024 16:00:00,25.592539,85.227158,OZONE,1,59,44
India,Bihar,Patna,"Muradpur, Patna - BSPCB",03-06-2024 16:00:00,25.619651,85.147382,PM2.5,80,441,182
India,Bihar,Patna,"Rajbansi Nagar, Patna - BSPCB",03-06-2024 16:00:00,25.599486,85.113666,NO2,12,52,28
India,Bihar,Patna,"Rajbansi Nagar, Patna - BSPCB",03-06-2024 16:00:00,25.599486,85.113666,CO,26,62,40
India,Bihar,Patna,"Rajbansi Nagar, Patna - BSPCB",03-06-2024 16:00:00,25.599486,85.113666,OZONE,10,76,43
India,Bihar,Patna,"Samanpura, Patna - BSPCB",03-06-2024 16:00:00,25.596727,85.085624,NH3,8,19,11
India,Bihar,Patna,"Samanpura, Patna - BSPCB",03-06-2024 16:00:00,25.596727,85.085624,OZONE,33,156,151
India,Bihar,Rajgir,"Dangi Tola, Rajgir - BSPCB",03-06-2024 16:00:00,25.03280,85.41948,NH3,1,2,2
India,Bihar,Saharsa,"Police Line, Saharsa - BSPCB",03-06-2024 16:00:00,25.892357,86.590325,SO2,16,17,16
India,Bihar,Saharsa,"Police Line, Saharsa - BSPCB",03-06-2024 16:00:00,25.892357,86.590325,OZONE,23,82,54
India,Bihar,Siwan,"Chitragupta Nagar, Siwan - BSPCB",03-06-2024 16:00:00,26.2271665,84.3570427,PM10,NA,NA,NA
India,Bihar,Siwan,"Chitragupta Nagar, Siwan - BSPCB",03-06-2024 16:00:00,26.2271665,84.3570427,NH3,1,6,2
India,Bihar,Siwan,"Chitragupta Nagar, Siwan - BSPCB",03-06-2024 16:00:00,26.2271665,84.3570427,CO,86,140,117
India,Chandigarh,Chandigarh,"Sector 22, Chandigarh - CPCC",03-06-2024 16:00:00,30.735567,76.775714,NH3,7,22,12
India,Chandigarh,Chandigarh,"Sector-25, Chandigarh - CPCC",03-06-2024 16:00:00,30.751462,76.762879,PM10,167,227,194
India,Chandigarh,Chandigarh,"Sector-53, Chandigarh - CPCC",03-06-2024 16:00:00,30.719859,76.738637,PM2.5,80,290,158
India,Chandigarh,Chandigarh,"Sector-53, Chandigarh - CPCC",03-06-2024 16:00:00,30.719859,76.738637,PM10,149,300,189
India,Chhattisgarh,Bhilai,"32Bungalows, Bhilai - CECB",03-06-2024 16:00:00,21.194815,81.314770,PM10,48,100,70
India,Chhattisgarh,Bhilai,"32Bungalows, Bhilai - CECB",03-06-2024 16:00:00,21.194815,81.314770,NH3,6,7,7
India,Chhattisgarh,Bhilai,"32Bungalows, Bhilai - CECB",03-06-2024 16:00:00,21.194815,81.314770,CO,14,34,14
India,Chhattisgarh,Bhilai,"Civic Center, Bhilai - Bhilai Steel Plant",03-06-2024 16:00:00,21.185571,81.343175,PM10,26,68,46
India,Chhattisgarh,Bhilai,"Civic Center, Bhilai - Bhilai Steel Plant",03-06-2024 16:00:00,21.185571,81.343175,OZONE,27,60,51
India,Chhattisgarh,Bhilai,"Hathkhoj, Bhilai - CECB",03-06-2024 16:00:00,21.224231,81.408350,SO2,11,17,13
India,Chhattisgarh,Bilaspur,"Mangala, Bilaspur - NTPC",03-06-2024 16:00:00,22.08815,82.13737,PM2.5,27,68,43
India,Chhattisgarh,Bilaspur,"Mangala, Bilaspur - NTPC",03-06-2024 16:00:00,22.08815,82.13737,PM10,30,127,58
India,Chhattisgarh,Korba,"Rampur, Korba - CECB",03-06-2024 16:00:00,22.368195,82.746431,NO2,NA,NA,NA
India,Chhattisgarh,Kunjemura,"OP Jindal School, Kunjemura - CECB",03-06-2024 16:00:00,22.126650,83.483212,NO2,20,55,33
India,Chhattisgarh,Raipur,"AIIMS, Raipur - CECB",03-06-2024 16:00:00,21.258815,81.578979,PM10,NA,NA,NA
India,Chhattisgarh,Raipur,"AIIMS, Raipur - CECB",03-06-2024 16:00:00,21.258815,81.578979,NO2,NA,NA,NA
India,Chhattisgarh,Raipur,"AIIMS, Raipur - CECB",03-06-2024 16:00:00,21.258815,81.578979,SO2,NA,NA,NA
India,Chhattisgarh,Raipur,"Bhatagaon New ISBT, Raipur - CECB",03-06-2024 16:00:00,21.219665,81.630094,CO,13,25,18
India,Chhattisgarh,Raipur,"Krishak Nagar, Raipur - CECB",03-06-2024 16:00:00,21.237755,81.705301,PM2.5,15,41,27
India,Chhattisgarh,Raipur,"Siltara Phase-II, Raipur - CECB",03-06-2024 16:00:00,21.371751,81.664929,PM10,24,178,76
India,Chhattisgarh,Raipur,"Siltara Phase-II, Raipur - CECB",03-06-2024 16:00:00,21.371751,81.664929,NO2,25,70,34
India,Chhattisgarh,Raipur,"Siltara Phase-II, Raipur - CECB",03-06-2024 16:00:00,21.371751,81.664929,NH3,3,3,3
India,Delhi,Delhi,"Alipur, Delhi - DPCC",03-06-2024 16:00:00,28.815329,77.153010,CO,39,60,46
India,Delhi,Delhi,"Anand Vihar, Delhi - DPCC",03-06-2024 16:00:00,28.647622,77.3158090,NO2,NA,NA,NA
India,Delhi,Delhi,"Anand Vihar, Delhi - DPCC",03-06-2024 16:00:00,28.647622,77.3158090,NH3,NA,NA,NA
India,Delhi,Delhi,"Anand Vihar, Delhi - DPCC",03-06-2024 16:00:00,28.647622,77.3158090,CO,91,103,95
India,Delhi,Delhi,"Burari Crossing, Delhi - IMD",03-06-2024 16:00:00,28.7256504,77.2011573,NO2,15,17,16
India,Delhi,Delhi,"CRRI Mathura Road, Delhi - IMD",03-06-2024 16:00:00,28.5512005,77.2735737,PM2.5,5,140,61
India,Delhi,Delhi,"CRRI Mathura Road, Delhi - IMD",03-06-2024 16:00:00,28.5512005,77.2735737,OZONE,4,61,41
India,Delhi,Delhi,"Chandni Chowk, Delhi - IITM",03-06-2024 16:00:00,28.656756,77.227234,PM2.5,NA,NA,NA
India,Delhi,Delhi,"Chandni Chowk, Delhi - IITM",03-06-2024 16:00:00,28.656756,77.227234,CO,53,66,54
India,Delhi,Delhi,"Dr. Karni Singh Shooting Range, Delhi - DPCC",03-06-2024 16:00:00,28.498571,77.264840,NH3,5,7,6
India,Delhi,Delhi,"Dr. Karni Singh Shooting Range, Delhi - DPCC",03-06-2024 16:00:00,28.498571,77.264840,SO2,14,21,16
India,Delhi,Delhi,"Dwarka-Sector 8, Delhi - DPCC ",03-06-2024 16:00:00,28.5710274,77.0719006,PM10,111,259,156
India,Delhi,Delhi,"IGI Airport (T3), Delhi - IMD",03-06-2024 16:00:00,28.5627763,77.1180053,PM10,83,140,107
India,Delhi,Delhi,"IGI Airport (T3), Delhi - IMD",03-06-2024 16:00:00,28.5627763,77.1180053,OZONE,4,56,38
India,Delhi,Delhi,"IHBAS, Dilshad Garden, Delhi - CPCB",03-06-2024 16:00:00,28.6811736,77.3025234,NH3,2,10,6
India,Delhi,Delhi,"IHBAS, Dilshad Garden, Delhi - CPCB",03-06-2024 16:00:00,28.6811736,77.3025234,CO,8,40,20
India,Delhi,Delhi,"ITO, Delhi - CPCB",03-06-2024 16:00:00,28.628624,77.241060,NH3,6,7,7
India,Delhi,Delhi,"Jahangirpuri, Delhi - DPCC",03-06-2024 16:00:00,28.732820,77.170633,PM10,NA,NA,NA
India,Delhi,Delhi,"Jawaharlal Nehru Stadium, Delhi - DPCC",03-06-2024 16:00:00,28.580280,77.233829,NO2,11,81,33
India,Delhi,Delhi,"Jawaharlal Nehru Stadium, Delhi - DPCC",03-06-2024 16:00:00,28.580280,77.233829,SO2,13,22,17
India,Delhi,Delhi,"Lodhi Road, Delhi - IMD",03-06-2024 16:00:00,28.5918245,77.2273074,PM10,76,186,122
India,Delhi,Delhi,"Lodhi Road, Delhi - IMD",03-06-2024 16:00:00,28.5918245,77.2273074,NO2,3,11,6
India,Delhi,Delhi,"Major Dhyan Chand National Stadium, Delhi - DPCC",03-06-2024 16:00:00,28.611281,77.237738,PM10,70,173,117
India,Delhi,Delhi,"Major Dhyan Chand National Stadium, Delhi - DPCC",03-06-2024 16:00:00,28.611281,77.237738,CO,42,84,52
India,Delhi,Delhi,"Mandir Marg, Delhi - DPCC",03-06-2024 16:00:00,28.636429,77.201067,PM2.5,8,280,77
India,Delhi,Delhi,"Mandir Marg, Delhi - DPCC",03-06-2024 16:00:00,28.636429,77.201067,CO,22,48,31
India,Delhi,Delhi,"Mundka, Delhi - DPCC",03-06-2024 16:00:00,28.684678,77.076574,NO2,36,92,61
India,Delhi,Delhi,"NSIT Dwarka, Delhi - CPCB",03-06-2024 16:00:00,28.60909,77.0325413,NH3,12,13,13
India,Delhi,Delhi,"Najafgarh, Delhi - DPCC",03-06-2024 16:00:00,28.570173,76.933762,NO2,5,25,11
India,Delhi,Delhi,"Najafgarh, Delhi - DPCC",03-06-2024 16:00:00,28.570173,76.933762,CO,38,54,44
India,Delhi,Delhi,"Narela, Delhi - DPCC",03-06-2024 16:00:00,28.822836,77.101981,PM2.5,47,139,79
India,Delhi,Delhi,"Narela, Delhi - DPCC",03-06-2024 16:00:00,28.822836,77.101981,NO2,1,71,14
India,Delhi,Delhi,"Nehru Nagar, Delhi - DPCC",03-06-2024 16:00:00,28.567890,77.250515,NO2,4,48,18
India,Delhi,Delhi,"Nehru Nagar, Delhi - DPCC",03-06-2024 16:00:00,28.567890,77.250515,OZONE,39,267,259
India,Delhi,Delhi,"Okhla Phase-2, Delhi - DPCC",03-06-2024 16:00:00,28.530785,77.271255,NH3,9,16,13
India,Delhi,Delhi,"Punjabi Bagh, Delhi - DPCC",03-06-2024 16:00:00,28.674045,77.131023,SO2,6,53,31
India,Delhi,Delhi,"Pusa, Delhi - DPCC",03-06-2024 16:00:00,28.639652,77.146275,SO2,5,31,14
India,Delhi,Delhi,"Rohini, Delhi - DPCC",03-06-2024 16:00:00,28.732528,77.119920,NO2,10,147,34
India,Delhi,Delhi,"Rohini, Delhi - DPCC",03-06-2024 16:00:00,28.732528,77.119920,OZONE,18,173,173
India,Delhi,Delhi,"Sirifort, Delhi - CPCB",03-06-2024 16:00:00,28.5504249,77.2159377,PM2.5,55,167,74
India,Delhi,Delhi,"Sri Aurobindo Marg, Delhi - DPCC",03-06-2024 16:00:00,28.531346,77.190156,PM2.5,42,92,57
India,Delhi,Delhi,"Vivek Vihar, Delhi - DPCC",03-06-2024 16:00:00,28.672342,77.315260,NH3,16,17,17
India,Delhi,Delhi,"Wazirpur, Delhi - DPCC",03-06-2024 16:00:00,28.699793,77.165453,NH3,12,15,14
India,Gujarat,Ahmedabad,"Gyaspur, Ahmedabad - IITM",03-06-2024 16:00:00,22.977134,72.553024,SO2,27,28,28
India,Gujarat,Ahmedabad,"Gyaspur, Ahmedabad - IITM",03-06-2024 16:00:00,22.977134,72.553024,OZONE,15,22,20
India,Gujarat,Ahmedabad,"Maninagar, Ahmedabad - GPCB",03-06-2024 16:00:00,23.002657,72.591912,SO2,3,103,39
India,Gujarat,Ahmedabad,"Raikhad, Ahmedabad - IITM",03-06-2024 16:00:00,23.020509,72.579261,NH3,3,3,3
India,Gujarat,Ahmedabad,"SVPI Airport Hansol, Ahmedabad - IITM",03-06-2024 16:00:00,23.076793,72.627874,PM10,71,122,98
India,Gujarat,Ahmedabad,"SVPI Airport Hansol, Ahmedabad - IITM",03-06-2024 16:00:00,23.076793,72.627874,CO,9,18,10
India,Gujarat,Ahmedabad,"Sardar Vallabhbhai Patel Stadium, Ahmedabad - IITM",03-06-2024 16:00:00,23.043070,72.562968,PM2.5,61,118,90
India,Gujarat,Ankleshwar,"GIDC, Ankleshwar - GPCB",03-06-2024 16:00:00,21.613267,73.010555,PM10,42,88,61
India,Gujarat,Ankleshwar,"GIDC, Ankleshwar - GPCB",03-06-2024 16:00:00,21.613267,73.010555,NH3,3,6,6
India,Gujarat,Gandhinagar,"Sector-10, Gandhinagar - GPCB",03-06-2024 16:00:00,23.221714,72.654328,SO2,3,4,4
India,Gujarat,Surat,"Science Center, Surat - SMC",03-06-2024 16:00:00,21.170046,72.795405,PM10,NA,NA,NA
India,Gujarat,Vapi,"Phase-1 GIDC, Vapi - GPCB",03-06-2024 16:00:00,20.362421,72.918013,SO2,NA,NA,NA
India,Gujarat,Vapi,"Phase-1 GIDC, Vapi - GPCB",03-06-2024 16:00:00,20.362421,72.918013,OZONE,1,1,1
India,Gujarat,Vatva,"Phase-4 GIDC, Vatva - GPCB",03-06-2024 16:00:00,22.969611,72.643500,PM10,47,96,69
India,Gujarat,Vatva,"Phase-4 GIDC, Vatva - GPCB",03-06-2024 16:00:00,22.969611,72.643500,NH3,14,21,18
India,Gujarat,Vatva,"Phase-4 GIDC, Vatva - GPCB",03-06-2024 16:00:00,22.969611,72.643500,CO,35,36,36
India,Haryana,Bahadurgarh,"Arya Nagar, Bahadurgarh - HSPCB",03-06-2024 16:00:00,28.6701,76.9254,NO2,20,26,23
India,Haryana,Ballabgarh,"Nathu Colony, Ballabgarh - HSPCB",03-06-2024 16:00:00,28.3419248,77.319699,CO,9,109,33
India,Haryana,Bhiwani,"H.B. Colony, Bhiwani - HSPCB",03-06-2024 16:00:00,28.806223,76.141105,PM10,53,115,87
India,Haryana,Bhiwani,"H.B. Colony, Bhiwani - HSPCB",03-06-2024 16:00:00,28.806223,76.141105,NH3,4,6,6
India,Haryana,Bhiwani,"H.B. Colony, Bhiwani - HSPCB",03-06-2024 16:00:00,28.806223,76.141105,CO,25,96,63
India,Haryana,Bhiwani,"H.B. Colony, Bhiwani - HSPCB",03-06-2024 16:00:00,28.806223,76.141105,OZONE,10,15,12
India,Haryana,Charkhi Dadri,"Mini Secretariat, Charkhi Dadri - HSPCB",03-06-2024 16:00:00,28.593883,76.270653,PM10,67,108,83
India,Haryana,Dharuhera,"Municipal Corporation Office, Dharuhera -  HSPCB",03-06-2024 16:00:00,28.206800,76.799700,SO2,5,10,7
India,Haryana,Dharuhera,"Municipal Corporation Office, Dharuhera -  HSPCB",03-06-2024 16:00:00,28.206800,76.799700,CO,8,42,19
India,Haryana,Faridabad,"Sector 11, Faridabad - HSPCB",03-06-2024 16:00:00,28.376058,77.315741,CO,16,46,33
India,Haryana,Faridabad,"Sector 30, Faridabad - HSPCB",03-06-2024 16:00:00,28.4417,77.3217,PM2.5,202,251,232
India,Haryana,Faridabad,"Sector- 16A, Faridabad - HSPCB",03-06-2024 16:00:00,28.4088421,77.3099081,PM2.5,NA,NA,NA
India,Haryana,Fatehabad,"Huda Sector, Fatehabad - HSPCB",03-06-2024 16:00:00,29.503664,75.467934,CO,6,18,10
India,Haryana,Gurugram,"Sector-51, Gurugram - HSPCB",03-06-2024 16:00:00,28.4227,77.0667,NO2,13,29,23
India,Haryana,Gurugram,"Sector-51, Gurugram - HSPCB",03-06-2024 16:00:00,28.4227,77.0667,NH3,6,14,9
India,Haryana,Gurugram,"Sector-51, Gurugram - HSPCB",03-06-2024 16:00:00,28.4227,77.0667,OZONE,29,79,41
India,Haryana,Gurugram,"Vikas Sadan, Gurugram - HSPCB",03-06-2024 16:00:00,28.4501238,77.0263051,SO2,9,107,29
India,Haryana,Gurugram,"Vikas Sadan, Gurugram - HSPCB",03-06-2024 16:00:00,28.4501238,77.0263051,OZONE,8,67,44
India,Haryana,Hisar,"Urban Estate-II, Hisar - HSPCB",03-06-2024 16:00:00,29.140560,75.744941,NO2,9,11,10
India,Haryana,Jind,"Police Lines, Jind - HSPCB",03-06-2024 16:00:00,29.307814,76.337619,OZONE,15,33,27
India,Haryana,Kaithal,"Rishi Nagar, Kaithal - HSPCB",03-06-2024 16:00:00,29.8006,76.4155,NO2,24,26,25
India,Haryana,Kaithal,"Rishi Nagar, Kaithal - HSPCB",03-06-2024 16:00:00,29.8006,76.4155,SO2,1,28,16
India,Haryana,Kaithal,"Rishi Nagar, Kaithal - HSPCB",03-06-2024 16:00:00,29.8006,76.4155,OZONE,13,24,22
India,Haryana,Karnal,"Sector-12, Karnal - HSPCB",03-06-2024 16:00:00,29.695300,77.002700,SO2,12,13,12
India,Haryana,Karnal,"Sector-12, Karnal - HSPCB",03-06-2024 16:00:00,29.695300,77.002700,OZONE,29,32,30
India,Haryana,Kurukshetra,"Sector-7, Kurukshetra - HSPCB",03-06-2024 16:00:00,29.966942,76.875879,NO2,10,10,10
India,Haryana,Kurukshetra,"Sector-7, Kurukshetra - HSPCB",03-06-2024 16:00:00,29.966942,76.875879,NH3,3,5,5
India,Haryana,Kurukshetra,"Sector-7, Kurukshetra - HSPCB",03-06-2024 16:00:00,29.966942,76.875879,SO2,2,3,2
India,Haryana,Mandikhera,"General Hospital, Mandikhera - HSPCB",03-06-2024 16:00:00,27.9002,76.9938,PM2.5,18,38,27
India,Haryana,Manesar,"Sector-2 IMT, Manesar - HSPCB",03-06-2024 16:00:00,28.360699,76.936090,NH3,2,5,4
India,Haryana,Manesar,"Sector-2 IMT, Manesar - HSPCB",03-06-2024 16:00:00,28.360699,76.936090,CO,10,28,21
India,Haryana,Narnaul,"Shastri Nagar, Narnaul - HSPCB",03-06-2024 16:00:00,28.060249,76.113115,PM10,27,61,45
India,Haryana,Narnaul,"Shastri Nagar, Narnaul - HSPCB",03-06-2024 16:00:00,28.060249,76.113115,NO2,16,86,42
India,Haryana,Palwal,"Shyam Nagar, Palwal - HSPCB",03-06-2024 16:00:00,28.1485564,77.3320667,OZONE,12,57,41
India,Haryana,Panchkula,"Sector-6, Panchkula - HSPCB ",03-06-2024 16:00:00,30.7057778,76.8531805555555,SO2,2,10,3
India,Haryana,Rohtak,"MD University, Rohtak - HSPCB",03-06-2024 16:00:00,28.52123,76.37138,PM2.5,9,500,153
India,Haryana,Rohtak,"MD University, Rohtak - HSPCB",03-06-2024 16:00:00,28.52123,76.37138,NO2,48,53,51
India,Haryana,Rohtak,"MD University, Rohtak - HSPCB",03-06-2024 16:00:00,28.52123,76.37138,SO2,5,8,7
India,Haryana,Sirsa,"F-Block, Sirsa - HSPCB",03-06-2024 16:00:00,29.536400,75.015800,PM2.5,45,187,89
India,Haryana,Sonipat,"Murthal, Sonipat - HSPCB",03-06-2024 16:00:00,29.027200,77.062100,PM2.5,NA,NA,NA
India,Haryana,Sonipat,"Murthal, Sonipat - HSPCB",03-06-2024 16:00:00,29.027200,77.062100,NH3,7,10,9
India,Haryana,Sonipat,"Murthal, Sonipat - HSPCB",03-06-2024 16:00:00,29.027200,77.062100,CO,24,26,25
India,Haryana,Yamuna Nagar,"Gobind Pura, Yamuna Nagar - HSPCB",03-06-2024 16:00:00,30.1480566,77.2893471,PM10,NA,NA,NA
India,Himachal Pradesh,Baddi,"HIMUDA Complex Phase-1, Baddi - HPPCB",03-06-2024 16:00:00,30.943887,76.801991,NO2,9,50,26
India,Jammu_and_Kashmir,Srinagar,"Rajbagh, Srinagar - JKSPCB",03-06-2024 16:00:00,34.066206,74.819820,SO2,NA,NA,NA
India,Jharkhand,Dhanbad,"Sardar Patel Nagar, Dhanbad - JSPCB",03-06-2024 16:00:00,23.80569,86.44268,CO,101,176,137
India,Jharkhand,Pathardih,"Mohalbani Ghat, Pathardih - DMC",03-06-2024 16:00:00,23.669880,86.411725,PM10,NA,NA,NA
India,Jharkhand,Pathardih,"Mohalbani Ghat, Pathardih - DMC",03-06-2024 16:00:00,23.669880,86.411725,SO2,NA,NA,NA
India,Karnataka,Bagalkot,"Vidayagiri, Bagalkot - KSPCB",03-06-2024 16:00:00,16.172806,75.659694,NO2,NA,NA,NA
India,Karnataka,Bagalkot,"Vidayagiri, Bagalkot - KSPCB",03-06-2024 16:00:00,16.172806,75.659694,SO2,NA,NA,NA
India,Karnataka,Bagalkot,"Vidayagiri, Bagalkot - KSPCB",03-06-2024 16:00:00,16.172806,75.659694,OZONE,NA,NA,NA
India,Karnataka,Bengaluru,"Bapuji Nagar, Bengaluru - KSPCB",03-06-2024 16:00:00,12.951913,77.539784,NH3,1,1,1
India,Karnataka,Bengaluru,"Bapuji Nagar, Bengaluru - KSPCB",03-06-2024 16:00:00,12.951913,77.539784,CO,10,66,54
India,Karnataka,Bengaluru,"Hebbal, Bengaluru - KSPCB",03-06-2024 16:00:00,13.029152,77.585901,SO2,9,29,18
India,Karnataka,Bengaluru,"Hombegowda Nagar, Bengaluru - KSPCB",03-06-2024 16:00:00,12.938539,77.590100,PM10,8,36,23
India,Karnataka,Bengaluru,"Jigani, Bengaluru - KSPCB",03-06-2024 16:00:00,12.7816279,77.6299145,NH3,4,5,5
India,Karnataka,Bengaluru,"Jigani, Bengaluru - KSPCB",03-06-2024 16:00:00,12.7816279,77.6299145,CO,24,74,33
India,Karnataka,Bengaluru,"Kasturi Nagar, Bengaluru - KSPCB",03-06-2024 16:00:00,13.003872,77.664217,NO2,16,17,17
India,Karnataka,Bengaluru,"Kasturi Nagar, Bengaluru - KSPCB",03-06-2024 16:00:00,13.003872,77.664217,SO2,10,10,10
India,Karnataka,Bengaluru,"Kasturi Nagar, Bengaluru - KSPCB",03-06-2024 16:00:00,13.003872,77.664217,CO,24,25,25
India,Karnataka,Bengaluru,"Kasturi Nagar, Bengaluru - KSPCB",03-06-2024 16:00:00,13.003872,77.664217,OZONE,7,64,39
India,Karnataka,Bengaluru,"Peenya, Bengaluru - CPCB",03-06-2024 16:00:00,13.0270199,77.494094,NO2,19,27,22
India,Karnataka,Bengaluru,"Peenya, Bengaluru - CPCB",03-06-2024 16:00:00,13.0270199,77.494094,NH3,3,4,3
India,Karnataka,Bengaluru,"RVCE-Mailasandra, Bengaluru - KSPCB",03-06-2024 16:00:00,12.921418,77.502466,SO2,7,11,8
India,Karnataka,Bengaluru,"Sanegurava Halli, Bengaluru - KSPCB",03-06-2024 16:00:00,12.990328,77.5431385,SO2,2,3,3
India,Karnataka,Bengaluru,"Shivapura_Peenya, Bengaluru - KSPCB",03-06-2024 16:00:00,13.0246342,77.5080115,PM2.5,18,53,32
India,Karnataka,Bengaluru,"Shivapura_Peenya, Bengaluru - KSPCB",03-06-2024 16:00:00,13.0246342,77.5080115,PM10,19,56,33
India,Karnataka,Bengaluru,"Shivapura_Peenya, Bengaluru - KSPCB",03-06-2024 16:00:00,13.0246342,77.5080115,NO2,15,16,15
India,Karnataka,Bengaluru,"Shivapura_Peenya, Bengaluru - KSPCB",03-06-2024 16:00:00,13.0246342,77.5080115,CO,18,30,23
India,Karnataka,Bengaluru,"Silk Board, Bengaluru - KSPCB",03-06-2024 16:00:00,12.917348,77.622813,NH3,NA,NA,NA
India,Karnataka,Bidar,"Naubad, Bidar - KSPCB",03-06-2024 16:00:00,17.930306,77.482194,PM10,NA,NA,NA
India,Karnataka,Bidar,"Naubad, Bidar - KSPCB",03-06-2024 16:00:00,17.930306,77.482194,OZONE,22,30,26
India,Karnataka,Chamarajanagar,"Urban, Chamarajanagar - KSPCB",03-06-2024 16:00:00,11.55358,76.55521,PM10,34,59,44
India,Karnataka,Chamarajanagar,"Urban, Chamarajanagar - KSPCB",03-06-2024 16:00:00,11.55358,76.55521,NH3,1,2,2
India,Karnataka,Chamarajanagar,"Urban, Chamarajanagar - KSPCB",03-06-2024 16:00:00,11.55358,76.55521,OZONE,14,35,28
India,Karnataka,Davanagere,"Devaraj Urs Badavane, Davanagere - KSPCB",03-06-2024 16:00:00,14.475800,75.905200,PM2.5,1,48,26
India,Karnataka,Davanagere,"Devaraj Urs Badavane, Davanagere - KSPCB",03-06-2024 16:00:00,14.475800,75.905200,SO2,1,113,10
India,Karnataka,Dharwad,"Kalabhavan, Dharwad - KSPCB",03-06-2024 16:00:00,15.459706,75.008381,PM10,38,97,66
India,Karnataka,Gadag,"Panchal Nagar, Gadag - KSPCB",03-06-2024 16:00:00,15.411456,75.638133,NH3,1,3,2
India,Karnataka,Hassan,"B.Katihalli, Hassan - KSPCB",03-06-2024 16:00:00,13.008556,76.125258,OZONE,1,23,13
India,Karnataka,Haveri,"Ashwini Nagar, Haveri - KSPCB",03-06-2024 16:00:00,14.791800,75.389600,NO2,NA,NA,NA
India,Karnataka,Haveri,"Ashwini Nagar, Haveri - KSPCB",03-06-2024 16:00:00,14.791800,75.389600,NH3,NA,NA,NA
India,Karnataka,Hubballi,"Lingaraj Nagar, Hubballi - KSPCB",03-06-2024 16:00:00,15.3714823,75.1160168,SO2,1,25,3
India,Karnataka,Kalaburagi,"Mahatma Basaveswar Colony, Kalaburgi - KSPCB",03-06-2024 16:00:00,17.336318,76.847397,NH3,2,4,3
India,Karnataka,Karwar,"KHB Colony, Karwar - KSPCB",03-06-2024 16:00:00,14.816666,74.141003,OZONE,21,22,21
India,Karnataka,Kolar,"Tamaka Ind. Area, Kolar - KSPCB",03-06-2024 16:00:00,13.1276288,78.1570122,PM10,17,44,32
India,Karnataka,Kolar,"Tamaka Ind. Area, Kolar - KSPCB",03-06-2024 16:00:00,13.1276288,78.1570122,NH3,6,9,7
India,Karnataka,Kolar,"Tamaka Ind. Area, Kolar - KSPCB",03-06-2024 16:00:00,13.1276288,78.1570122,SO2,10,10,10
India,Karnataka,Kolar,"Tamaka Ind. Area, Kolar - KSPCB",03-06-2024 16:00:00,13.1276288,78.1570122,OZONE,23,51,42
India,Karnataka,Koppal,"Diwator Nagar, Koppal - KSPCB",03-06-2024 16:00:00,15.347630,76.181767,CO,6,8,7
India,Karnataka,Madikeri,"Stuart Hill, Madikeri - KSPCB",03-06-2024 16:00:00,12.415911,75.735050,NO2,1,4,2
India,Karnataka,Madikeri,"Stuart Hill, Madikeri - KSPCB",03-06-2024 16:00:00,12.415911,75.735050,NH3,1,2,1
India,Karnataka,Raichur,"Haji Colony, Raichur - KSPCB",03-06-2024 16:00:00,16.208139,77.348417,NO2,NA,NA,NA
India,Karnataka,Raichur,"Haji Colony, Raichur - KSPCB",03-06-2024 16:00:00,16.208139,77.348417,OZONE,2,5,4
India,Karnataka,Shivamogga,"Vinoba Nagara, Shivamogga - KSPCB",03-06-2024 16:00:00,13.940000,75.555917,CO,6,42,21
India,Karnataka,Tumakuru,"Thimmalapura, Tumakuru - KSPCB",03-06-2024 16:00:00,13.377516,77.099072,CO,28,34,31
India,Karnataka,Tumakuru,"Thimmalapura, Tumakuru - KSPCB",03-06-2024 16:00:00,13.377516,77.099072,OZONE,12,40,25
India,Karnataka,Yadgir,"Collector Office, Yadgir - KSPCB",03-06-2024 16:00:00,16.7602,77.1428,OZONE,17,31,20
India,Kerala,Kannur,"Thavakkara, Kannur - Kerala PCB",03-06-2024 16:00:00,11.875000,75.373200,PM2.5,44,54,49
India,Kerala,Thiruvananthapuram,"Kariavattom, Thiruvananthapuram - Kerala PCB",03-06-2024 16:00:00,8.563700,76.886500,NH3,1,1,1
India,Kerala,Thiruvananthapuram,"Kariavattom, Thiruvananthapuram - Kerala PCB",03-06-2024 16:00:00,8.563700,76.886500,OZONE,36,36,36
India,Kerala,Thiruvananthapuram,"Plammoodu, Thiruvananthapuram - Kerala PCB",03-06-2024 16:00:00,8.5149093,76.9435879,SO2,7,15,9
India,Madhya Pradesh,Bhopal,"Idgah Hills, Bhopal - MPPCB",03-06-2024 16:00:00,23.264759,77.381568,NH3,4,5,4
India,Madhya Pradesh,Bhopal,"Paryavaran Parisar, Bhopal - MPPCB",03-06-2024 16:00:00,23.210494,77.425409,PM2.5,30,250,79
India,Madhya Pradesh,Bhopal,"Paryavaran Parisar, Bhopal - MPPCB",03-06-2024 16:00:00,23.210494,77.425409,NO2,11,62,21
India,Madhya Pradesh,Bhopal,"T T Nagar, Bhopal - MPPCB",03-06-2024 16:00:00,23.233584,77.400574,PM10,91,165,119
India,Madhya Pradesh,Bhopal,"T T Nagar, Bhopal - MPPCB",03-06-2024 16:00:00,23.233584,77.400574,NO2,17,36,23
India,Madhya Pradesh,Bhopal,"T T Nagar, Bhopal - MPPCB",03-06-2024 16:00:00,23.233584,77.400574,OZONE,36,85,67
India,Madhya Pradesh,Gwalior,"City Center, Gwalior - MPPCB",03-06-2024 16:00:00,26.203442,78.193251,CO,22,56,35
India,Madhya Pradesh,Gwalior,"Deen Dayal Nagar, Gwalior - MPPCB",03-06-2024 16:00:00,26.259242,78.216432,PM2.5,27,158,62
India,Madhya Pradesh,Gwalior,"Deen Dayal Nagar, Gwalior - MPPCB",03-06-2024 16:00:00,26.259242,78.216432,NO2,10,75,30
India,Madhya Pradesh,Gwalior,"Deen Dayal Nagar, Gwalior - MPPCB",03-06-2024 16:00:00,26.259242,78.216432,SO2,13,19,17
India,Madhya Pradesh,Gwalior,"Maharaj Bada, Gwalior - MPPCB",03-06-2024 16:00:00,26.200388,78.147714,PM2.5,15,62,35
India,Madhya Pradesh,Gwalior,"Maharaj Bada, Gwalior - MPPCB",03-06-2024 16:00:00,26.200388,78.147714,SO2,7,31,15
India,Madhya Pradesh,Gwalior,"Maharaj Bada, Gwalior - MPPCB",03-06-2024 16:00:00,26.200388,78.147714,CO,18,109,29
India,Madhya Pradesh,Gwalior,"Phool Bagh, Gwalior - Mondelez Ind. Food",03-06-2024 16:00:00,26.210536,78.171,PM2.5,29,370,160
India,Madhya Pradesh,Gwalior,"Phool Bagh, Gwalior - Mondelez Ind. Food",03-06-2024 16:00:00,26.210536,78.171,SO2,25,32,28
India,Madhya Pradesh,Indore,"Chhoti Gwaltoli, Indore - MPPCB",03-06-2024 16:00:00,22.4310,75.5213,CO,8,64,50
India,Madhya Pradesh,Indore,"Maguda Nagar, Indore - IMC",03-06-2024 16:00:00,22.7524,75.8872,PM2.5,41,116,57
India,Madhya Pradesh,Indore,"Residency Area, Indore - IMC",03-06-2024 16:00:00,22.7084,75.8815,CO,8,14,12
India,Madhya Pradesh,Jabalpur,"Govindh Bhavan Colony, Jabalpur - JMC",03-06-2024 16:00:00,23.163174,79.973061,PM2.5,48,78,62
India,Madhya Pradesh,Jabalpur,"Govindh Bhavan Colony, Jabalpur - JMC",03-06-2024 16:00:00,23.163174,79.973061,PM10,62,133,96
India,Madhya Pradesh,Jabalpur,"Govindh Bhavan Colony, Jabalpur - JMC",03-06-2024 16:00:00,23.163174,79.973061,SO2,13,61,30
India,Madhya Pradesh,Jabalpur,"Gupteshwar, Jabalpur - JMC",03-06-2024 16:00:00,23.142888,79.916147,NO2,6,68,20
India,Madhya Pradesh,Jabalpur,"Gupteshwar, Jabalpur - JMC",03-06-2024 16:00:00,23.142888,79.916147,SO2,5,47,14
India,Madhya Pradesh,Jabalpur,"Gupteshwar, Jabalpur - JMC",03-06-2024 16:00:00,23.142888,79.916147,OZONE,15,80,71
India,Madhya Pradesh,Jabalpur,"Marhatal, Jabalpur - MPPCB",03-06-2024 16:00:00,23.168606,79.932247,PM10,75,131,107
India,Madhya Pradesh,Jabalpur,"Suhagi, Jabalpur - JMC",03-06-2024 16:00:00,23.218135,79.957770,NO2,39,46,42
India,Madhya Pradesh,Jabalpur,"Suhagi, Jabalpur - JMC",03-06-2024 16:00:00,23.218135,79.957770,NH3,2,2,2
India,Madhya Pradesh,Jabalpur,"Suhagi, Jabalpur - JMC",03-06-2024 16:00:00,23.218135,79.957770,SO2,14,18,16
India,Madhya Pradesh,Jabalpur,"Suhagi, Jabalpur - JMC",03-06-2024 16:00:00,23.218135,79.957770,OZONE,3,110,92
India,Madhya Pradesh,Katni,"Gole Bazar, Katni - MPPCB",03-06-2024 16:00:00,23.50016,80.23284,SO2,22,39,28
India,Madhya Pradesh,Maihar,"Sahilara, Maihar - KJS Cements",03-06-2024 16:00:00,24.2613009,80.7231783,PM10,7,129,60
India,Madhya Pradesh,Maihar,"Sahilara, Maihar - KJS Cements",03-06-2024 16:00:00,24.2613009,80.7231783,SO2,13,15,13
India,Madhya Pradesh,Pithampur,"Sector-2 Industrial Area, Pithampur - MPPCB",03-06-2024 16:00:00,22.624758,75.675238,NO2,5,28,10
India,Madhya Pradesh,Ratlam,"Shasthri Nagar, Ratlam - IPCA Lab",03-06-2024 16:00:00,23.331731,75.045981,PM2.5,29,57,44
India,Madhya Pradesh,Ratlam,"Shasthri Nagar, Ratlam - IPCA Lab",03-06-2024 16:00:00,23.331731,75.045981,NO2,13,13,13
India,Madhya Pradesh,Sagar,"Civil Lines, Sagar - MPPCB",03-06-2024 16:00:00,23.838586,78.759431,OZONE,58,174,174
India,Madhya Pradesh,Sagar,"Deen Dayal Nagar, Sagar - MPPCB",03-06-2024 16:00:00,23.8640158,78.80289321,CO,54,68,60
India,Madhya Pradesh,Singrauli,"Suryakiran Bhawan NCL, Singrauli - MPPCB",03-06-2024 16:00:00,24.108970,82.645580,PM2.5,43,152,67
India,Madhya Pradesh,Singrauli,"Suryakiran Bhawan NCL, Singrauli - MPPCB",03-06-2024 16:00:00,24.108970,82.645580,NH3,3,5,4
India,Madhya Pradesh,Ujjain,"Mahakaleshwar Temple, Ujjain - MPPCB",03-06-2024 16:00:00,23.182719 ,75.768218 ,PM2.5,44,84,59
India,Madhya Pradesh,Ujjain,"Mahakaleshwar Temple, Ujjain - MPPCB",03-06-2024 16:00:00,23.182719 ,75.768218 ,OZONE,73,75,74
India,Maharashtra,Akola,"Ramdaspeth, Akola - MPCB",03-06-2024 16:00:00,20.719516,77.000253,PM10,56,214,84
India,Maharashtra,Amravati,"Shivneri Colony, Amravati - MPCB",03-06-2024 16:00:00,20.9402359,77.7895248,PM2.5,35,68,49
India,Maharashtra,Amravati,"Shivneri Colony, Amravati - MPCB",03-06-2024 16:00:00,20.9402359,77.7895248,SO2,3,13,6
India,Maharashtra,Amravati,"Shri Shivaji Science College, Amaravati - MPCB",03-06-2024 16:00:00,20.939198,77.765701,PM2.5,28,166,65
India,Maharashtra,Amravati,"Shri Shivaji Science College, Amaravati - MPCB",03-06-2024 16:00:00,20.939198,77.765701,SO2,4,9,6
India,Maharashtra,Aurangabad,"More Chowk Waluj, Aurangabad - MPCB",03-06-2024 16:00:00,19.8389439,75.244448,NH3,9,10,9
India,Maharashtra,Aurangabad,"More Chowk Waluj, Aurangabad - MPCB",03-06-2024 16:00:00,19.8389439,75.244448,SO2,3,7,5
India,Maharashtra,Aurangabad,"Rachnakar Colony, Aurangabad - MPCB",03-06-2024 16:00:00,19.863756,75.321188,OZONE,24,98,74
India,Maharashtra,Badlapur,"Katrap, Badlapur - MPCB",03-06-2024 16:00:00,19.16485,73.23409,PM2.5,25,72,58
India,Maharashtra,Belapur,"CBD Belapur, Belapur - MPCB",03-06-2024 16:00:00,19.0243902,73.0406721,NO2,25,78,42
India,Maharashtra,Bhiwandi,"Gokul Nagar, Bhiwandi - MPCB",03-06-2024 16:00:00,19.309073,73.057223,NH3,1,5,3
India,Maharashtra,Bhiwandi,"Gokul Nagar, Bhiwandi - MPCB",03-06-2024 16:00:00,19.309073,73.057223,OZONE,11,95,52
India,Maharashtra,Chandrapur,"Chauhan Colony, Chandrapur - MPCB",03-06-2024 16:00:00,19.962900,79.298714,SO2,1,86,19
India,Maharashtra,Chandrapur,"MIDC Khutala, Chandrapur - MPCB",03-06-2024 16:00:00,19.9775302,79.2337086,PM10,29,77,56
India,Maharashtra,Dhule,"Deopur, Dhule - MPCB",03-06-2024 16:00:00,20.918946,74.776388,SO2,3,29,11
India,Maharashtra,Jalna,"Old MIDC, Jalna - MPCB",03-06-2024 16:00:00,19.854616,75.905894,PM2.5,25,47,39
India,Maharashtra,Jalna,"Old MIDC, Jalna - MPCB",03-06-2024 16:00:00,19.854616,75.905894,SO2,5,7,6
India,Maharashtra,Jalna,"Old MIDC, Jalna - MPCB",03-06-2024 16:00:00,19.854616,75.905894,OZONE,7,101,34
India,Maharashtra,Kalyan,"Khadakpada, Kalyan - MPCB",03-06-2024 16:00:00,19.25292,73.142019,PM2.5,14,31,22
India,Maharashtra,Kalyan,"Khadakpada, Kalyan - MPCB",03-06-2024 16:00:00,19.25292,73.142019,PM10,73,121,96
India,Maharashtra,Kalyan,"Khadakpada, Kalyan - MPCB",03-06-2024 16:00:00,19.25292,73.142019,CO,12,18,15
India,Maharashtra,Kalyan,"Khadakpada, Kalyan - MPCB",03-06-2024 16:00:00,19.25292,73.142019,OZONE,8,11,10
India,Maharashtra,Kolhapur,"Shivaji University, Kolhapur - MPCB",03-06-2024 16:00:00,16.6870449,74.2505872,NO2,10,30,17
India,Maharashtra,Kolhapur,"Shivaji University, Kolhapur - MPCB",03-06-2024 16:00:00,16.6870449,74.2505872,CO,44,68,58
India,Maharashtra,Kolhapur,"Shivaji University, Kolhapur - MPCB",03-06-2024 16:00:00,16.6870449,74.2505872,OZONE,12,65,45
India,Maharashtra,Latur,"Sawe Wadi, Latur - MPCB",03-06-2024 16:00:00,18.39963,76.57452,PM10,49,102,66
India,Maharashtra,Latur,"Sawe Wadi, Latur - MPCB",03-06-2024 16:00:00,18.39963,76.57452,SO2,1,6,4
India,Maharashtra,Latur,"Sawe Wadi, Latur - MPCB",03-06-2024 16:00:00,18.39963,76.57452,CO,6,72,31
India,Maharashtra,Mahad,"Kamble Tarf Birwadi, Mahad - MPCB",03-06-2024 16:00:00,18.1023399,73.4783687,PM10,NA,NA,NA
India,Maharashtra,Malegaon,"Mahesh Nagar, Malegaon - MPCB",03-06-2024 16:00:00,20.555712,74.529236,PM10,82,131,105
India,Maharashtra,Malegaon,"Mahesh Nagar, Malegaon - MPCB",03-06-2024 16:00:00,20.555712,74.529236,NO2,14,52,28
India,Maharashtra,Mira-Bhayandar,"Bhayandar West, Mira-Bhayandar - MPCB",03-06-2024 16:00:00,19.296481,72.840923,SO2,2,4,3
India,Maharashtra,Mumbai,"Bandra Kurla Complex, Mumbai - MPCB",03-06-2024 16:00:00,19.065931,72.862131,PM10,59,110,76
India,Maharashtra,Mumbai,"Chakala-Andheri East, Mumbai - IITM",03-06-2024 16:00:00,19.11074,72.86084,PM2.5,17,72,32
India,Maharashtra,Mumbai,"Chembur, Mumbai - MPCB",03-06-2024 16:00:00,19.0364585,72.8954371,PM2.5,20,59,31
India,Maharashtra,Mumbai,"Chembur, Mumbai - MPCB",03-06-2024 16:00:00,19.0364585,72.8954371,PM10,43,68,54
India,Maharashtra,Mumbai,"Chembur, Mumbai - MPCB",03-06-2024 16:00:00,19.0364585,72.8954371,NO2,12,28,20
India,Maharashtra,Mumbai,"Chhatrapati Shivaji Intl. Airport (T2), Mumbai - MPCB",03-06-2024 16:00:00,19.10078,72.87462,PM2.5,27,48,37
India,Maharashtra,Mumbai,"Chhatrapati Shivaji Intl. Airport (T2), Mumbai - MPCB",03-06-2024 16:00:00,19.10078,72.87462,NH3,1,11,3
India,Maharashtra,Mumbai,"Ghatkopar, Mumbai - BMC",03-06-2024 16:00:00,19.083694,72.920967,NO2,2,63,28
India,Maharashtra,Mumbai,"Kandivali West, Mumbai - BMC",03-06-2024 16:00:00,19.215859,72.831718,PM2.5,10,34,20
India,Maharashtra,Mumbai,"Kherwadi_Bandra East, Mumbai - MPCB",03-06-2024 16:00:00,19.0632143,72.8456324,NH3,7,14,9
India,Maharashtra,Mumbai,"Kherwadi_Bandra East, Mumbai - MPCB",03-06-2024 16:00:00,19.0632143,72.8456324,SO2,1,4,3
India,Maharashtra,Mumbai,"Khindipada-Bhandup West, Mumbai - IITM",03-06-2024 16:00:00,19.1653323,72.922099,SO2,2,8,4
India,Maharashtra,Mumbai,"Kurla, Mumbai - MPCB",03-06-2024 16:00:00,19.0863,72.8888,PM2.5,15,153,45
India,Maharashtra,Mumbai,"Kurla, Mumbai - MPCB",03-06-2024 16:00:00,19.0863,72.8888,OZONE,26,28,28
India,Maharashtra,Mumbai,"Mulund West, Mumbai - MPCB",03-06-2024 16:00:00,19.1750,72.9419,PM2.5,23,56,37
India,Maharashtra,Mumbai,"Mulund West, Mumbai - MPCB",03-06-2024 16:00:00,19.1750,72.9419,PM10,43,107,69
India,Maharashtra,Mumbai,"Mulund West, Mumbai - MPCB",03-06-2024 16:00:00,19.1750,72.9419,NH3,10,11,11
India,Maharashtra,Mumbai,"Mulund West, Mumbai - MPCB",03-06-2024 16:00:00,19.1750,72.9419,OZONE,7,8,7
India,Maharashtra,Mumbai,"Navy Nagar-Colaba, Mumbai - IITM",03-06-2024 16:00:00,18.897756,72.813320,PM2.5,19,39,28
India,Maharashtra,Mumbai,"Navy Nagar-Colaba, Mumbai - IITM",03-06-2024 16:00:00,18.897756,72.813320,OZONE,37,60,47
India,Maharashtra,Mumbai,"Siddharth Nagar-Worli, Mumbai - IITM",03-06-2024 16:00:00,19.000083,72.813993,PM2.5,48,71,61
India,Maharashtra,Mumbai,"Siddharth Nagar-Worli, Mumbai - IITM",03-06-2024 16:00:00,19.000083,72.813993,PM10,61,95,77
India,Maharashtra,Mumbai,"Siddharth Nagar-Worli, Mumbai - IITM",03-06-2024 16:00:00,19.000083,72.813993,OZONE,26,48,36
India,Maharashtra,Mumbai,"Sion, Mumbai - MPCB",03-06-2024 16:00:00,19.047000,72.874600,PM2.5,26,47,39
India,Maharashtra,Mumbai,"Sion, Mumbai - MPCB",03-06-2024 16:00:00,19.047000,72.874600,PM10,48,102,71
India,Maharashtra,Mumbai,"Vasai West, Mumbai - MPCB",03-06-2024 16:00:00,19.383200,72.820400,NH3,4,4,4
India,Maharashtra,Mumbai,"Vasai West, Mumbai - MPCB",03-06-2024 16:00:00,19.383200,72.820400,OZONE,15,32,25
India,Maharashtra,Mumbai,"Vile Parle West, Mumbai - MPCB",03-06-2024 16:00:00,19.10861,72.83622,NH3,11,11,11
India,Maharashtra,Mumbai,"Worli, Mumbai - MPCB",03-06-2024 16:00:00,18.9936162,72.8128113,NO2,12,13,13
India,Maharashtra,Nagpur,"Ambazari, Nagpur - MPCB",03-06-2024 16:00:00,21.121801,79.04952,OZONE,4,91,63
India,Maharashtra,Nagpur,"Mahal, Nagpur - MPCB",03-06-2024 16:00:00,21.14472,79.107595,NO2,15,88,33
India,Maharashtra,Nagpur,"Mahal, Nagpur - MPCB",03-06-2024 16:00:00,21.14472,79.107595,SO2,5,52,18
India,Maharashtra,Nagpur,"Opp GPO Civil Lines, Nagpur - MPCB",03-06-2024 16:00:00,21.152875,79.0517531,PM10,36,113,62
India,Maharashtra,Nagpur,"Opp GPO Civil Lines, Nagpur - MPCB",03-06-2024 16:00:00,21.152875,79.0517531,NO2,15,124,35
India,Maharashtra,Nagpur,"Opp GPO Civil Lines, Nagpur - MPCB",03-06-2024 16:00:00,21.152875,79.0517531,NH3,3,10,5
India,Maharashtra,Nagpur,"Opp GPO Civil Lines, Nagpur - MPCB",03-06-2024 16:00:00,21.152875,79.0517531,OZONE,6,63,36
India,Maharashtra,Nashik,"Gangapur Road, Nashik - MPCB",03-06-2024 16:00:00,20.0073285,73.7762427,PM2.5,45,120,67
India,Maharashtra,Nashik,"Hirawadi, Nashik - MPCB",03-06-2024 16:00:00,20.021503,73.813844,NO2,11,39,22
India,Maharashtra,Nashik,"MIDC Ambad, Nashik - MPCB",03-06-2024 16:00:00,19.950220,73.731480,SO2,16,33,22
India,Maharashtra,Nashik,"Pandav Nagari, Nashik - MPCB",03-06-2024 16:00:00,19.9591346,73.7788008,NO2,18,63,35
India,Maharashtra,Nashik,"Pandav Nagari, Nashik - MPCB",03-06-2024 16:00:00,19.9591346,73.7788008,OZONE,21,62,41
India,Maharashtra,Navi Mumbai,"Kopripada-Vashi, Navi Mumbai - MPCB",03-06-2024 16:00:00,19.090337,73.014232,PM2.5,72,73,72
India,Maharashtra,Navi Mumbai,"Kopripada-Vashi, Navi Mumbai - MPCB",03-06-2024 16:00:00,19.090337,73.014232,PM10,109,110,109
India,Maharashtra,Navi Mumbai,"Kopripada-Vashi, Navi Mumbai - MPCB",03-06-2024 16:00:00,19.090337,73.014232,NH3,3,7,4
India,Maharashtra,Navi Mumbai,"Kopripada-Vashi, Navi Mumbai - MPCB",03-06-2024 16:00:00,19.090337,73.014232,OZONE,151,166,157
India,Maharashtra,Navi Mumbai,"Mahape, Navi Mumbai - MPCB",03-06-2024 16:00:00,19.1135051,73.008978,PM2.5,16,93,33
India,Maharashtra,Navi Mumbai,"Mahape, Navi Mumbai - MPCB",03-06-2024 16:00:00,19.1135051,73.008978,PM10,51,183,84
India,Maharashtra,Navi Mumbai,"Mahape, Navi Mumbai - MPCB",03-06-2024 16:00:00,19.1135051,73.008978,CO,23,42,28
India,Maharashtra,Navi Mumbai,"Nerul, Navi Mumbai - MPCB",03-06-2024 16:00:00,19.008751,73.016620,PM10,52,118,84
India,Maharashtra,Navi Mumbai,"Nerul, Navi Mumbai - MPCB",03-06-2024 16:00:00,19.008751,73.016620,CO,10,14,12
India,Maharashtra,Navi Mumbai,"Sanpada, Navi Mumbai - MPCB",03-06-2024 16:00:00,19.0575752,73.0151367,PM2.5,13,38,24
India,Maharashtra,Navi Mumbai,"Sanpada, Navi Mumbai - MPCB",03-06-2024 16:00:00,19.0575752,73.0151367,OZONE,27,121,83
India,Maharashtra,Navi Mumbai,"Sector-19A Nerul, Navi Mumbai - IITM",03-06-2024 16:00:00,19.044,73.0325,PM2.5,NA,NA,NA
India,Maharashtra,Navi Mumbai,"Sector-19A Nerul, Navi Mumbai - IITM",03-06-2024 16:00:00,19.044,73.0325,PM10,NA,NA,NA
India,Maharashtra,Navi Mumbai,"Sector-19A Nerul, Navi Mumbai - IITM",03-06-2024 16:00:00,19.044,73.0325,NO2,9,34,20
India,Maharashtra,Navi Mumbai,"Sector-2E Kalamboli, Navi Mumbai - MPCB",03-06-2024 16:00:00,19.02579,73.10297,PM2.5,36,120,71
India,Maharashtra,Navi Mumbai,"Sector-2E Kalamboli, Navi Mumbai - MPCB",03-06-2024 16:00:00,19.02579,73.10297,PM10,84,177,118
India,Maharashtra,Navi Mumbai,"Sector-2E Kalamboli, Navi Mumbai - MPCB",03-06-2024 16:00:00,19.02579,73.10297,NO2,11,26,19
India,Maharashtra,Navi Mumbai,"Sector-2E Kalamboli, Navi Mumbai - MPCB",03-06-2024 16:00:00,19.02579,73.10297,NH3,1,2,2
India,Maharashtra,Navi Mumbai,"Sector-2E Kalamboli, Navi Mumbai - MPCB",03-06-2024 16:00:00,19.02579,73.10297,OZONE,2,44,29
India,Maharashtra,Navi Mumbai,"Tondare-Taloja, Navi Mumbai - MPCB",03-06-2024 16:00:00,19.0630,73.1209,NH3,2,5,4
India,Maharashtra,Parbhani,"Masoom Colony, Parbhani - MPCB",03-06-2024 16:00:00,19.265594,76.761463,PM2.5,23,94,55
India,Maharashtra,Pimpri-Chinchwad,"Gavalinagar, Pimpri Chinchwad - MPCB",03-06-2024 16:00:00,18.63673,73.82487,SO2,1,4,2
India,Maharashtra,Pune,"Hadapsar, Pune - IITM",03-06-2024 16:00:00,18.501793,73.927532,PM10,36,112,67
India,Maharashtra,Pune,"Karve Road, Pune - MPCB",03-06-2024 16:00:00,18.5011743,73.8165527,PM10,7,110,60
India,Maharashtra,Pune,"Karve Road, Pune - MPCB",03-06-2024 16:00:00,18.5011743,73.8165527,OZONE,4,60,40
India,Maharashtra,Pune,"Mhada Colony, Pune - IITM",03-06-2024 16:00:00,18.573040,73.927715,PM2.5,6,96,40
India,Maharashtra,Pune,"Revenue Colony-Shivajinagar, Pune - IITM",03-06-2024 16:00:00,18.530085,73.849598,PM2.5,50,88,66
India,Maharashtra,Pune,"Savitribai Phule Pune University, Pune - MPCB",03-06-2024 16:00:00,18.547056,73.826908,PM2.5,NA,NA,NA
India,Maharashtra,Sangli,"Vijay Nagar, Sangli - MPCB",03-06-2024 16:00:00, 16.5038,74.3623,PM2.5,14,34,23
India,Maharashtra,Solapur,"Dnyaneshwar Nagar, Solapur - MPCB",03-06-2024 16:00:00,17.6336264,75.9132495,PM2.5,12,100,47
India,Maharashtra,Solapur,"Dnyaneshwar Nagar, Solapur - MPCB",03-06-2024 16:00:00,17.6336264,75.9132495,NH3,2,20,15
India,Maharashtra,Solapur,"Dnyaneshwar Nagar, Solapur - MPCB",03-06-2024 16:00:00,17.6336264,75.9132495,CO,16,36,22
India,Maharashtra,Solapur,"Dnyaneshwar Nagar, Solapur - MPCB",03-06-2024 16:00:00,17.6336264,75.9132495,OZONE,16,77,54
India,Maharashtra,Thane,"Kasarvadavali, Thane - MPCB",03-06-2024 16:00:00,19.26777,72.97182,PM2.5,17,47,32
India,Maharashtra,Thane,"Kasarvadavali, Thane - MPCB",03-06-2024 16:00:00,19.26777,72.97182,PM10,24,80,47
India,Maharashtra,Thane,"Pimpleshwar Mandir, Thane - MPCB",03-06-2024 16:00:00,19.192056,72.9585188,PM10,70,105,89
India,Maharashtra,Thane,"Pimpleshwar Mandir, Thane - MPCB",03-06-2024 16:00:00,19.192056,72.9585188,SO2,1,4,1
India,Maharashtra,Thane,"Upvan Fort, Thane - MPCB",03-06-2024 16:00:00,19.222279,72.957979,PM2.5,18,56,35
India,Maharashtra,Thane,"Upvan Fort, Thane - MPCB",03-06-2024 16:00:00,19.222279,72.957979,PM10,43,77,62
India,Maharashtra,Virar,"Bolinj, Virar - MPCB",03-06-2024 16:00:00,19.4458210,72.7988231,CO,8,50,14
India,Manipur,Imphal,"Manipur University, Imphal - Manipur PCB",03-06-2024 16:00:00,24.7524239,93.9286218,NO2,6,10,8
India,Meghalaya,Shillong,"Lumpyngngad, Shillong - Meghalaya PCB",03-06-2024 16:00:00,25.5586,91.8985,OZONE,1,7,4
India,Mizoram,Aizawl,"Sikulpuikawn, Aizawl - Mizoram PCB",03-06-2024 16:00:00,23.7176342,92.7192841,OZONE,2,7,3
India,Nagaland,Kohima,"PWD Juction, Kohima - NPCB",03-06-2024 16:00:00,25.6635413,94.0989878,PM2.5,17,93,56
India,Nagaland,Kohima,"PWD Juction, Kohima - NPCB",03-06-2024 16:00:00,25.6635413,94.0989878,NO2,2,6,3
India,Odisha,Barbil,"Forest Office, Barbil - OSPCB",03-06-2024 16:00:00,22.1166054,85.3945546,NO2,6,9,8
India,Odisha,Barbil,"Forest Office, Barbil - OSPCB",03-06-2024 16:00:00,22.1166054,85.3945546,SO2,4,14,8
India,Odisha,Baripada,"Meher Colony, Baripada - OSPCB",03-06-2024 16:00:00,21.941841,86.728318,OZONE,53,117,68
India,Odisha,Bhubaneswar,"Patia, Bhubaneswar - OSPCB",03-06-2024 16:00:00,20.34652,85.81630,PM10,11,111,43
India,Odisha,Bhubaneswar,"Patia, Bhubaneswar - OSPCB",03-06-2024 16:00:00,20.34652,85.81630,NO2,5,43,11
India,Odisha,Bhubaneswar,"Patia, Bhubaneswar - OSPCB",03-06-2024 16:00:00,20.34652,85.81630,SO2,2,4,2
India,Odisha,Bhubaneswar,"Patia, Bhubaneswar - OSPCB",03-06-2024 16:00:00,20.34652,85.81630,CO,18,25,23
India,Odisha,Bhubaneswar,"Patia, Bhubaneswar - OSPCB",03-06-2024 16:00:00,20.34652,85.81630,OZONE,6,99,52
India,Odisha,Bileipada,"Tata Township, Bileipada - OSPCB",03-06-2024 16:00:00,22.06156703,85.47409613,CO,11,18,12
India,Odisha,Brajrajnagar,"GM Office, Brajrajnagar - OSPCB",03-06-2024 16:00:00,21.8004996,83.8396977,PM10,NA,NA,NA
India,Odisha,Byasanagar,"Ferro Chrome Colony, Byasanagar - OSPCB",03-06-2024 16:00:00,20.94185,86.11510,SO2,3,82,22
India,Odisha,Cuttack,"CDA Area, Cuttack - OSPCB",03-06-2024 16:00:00,20.48891     ,85.84768     ,PM10,13,121,45
India,Odisha,Cuttack,"CDA Area, Cuttack - OSPCB",03-06-2024 16:00:00,20.48891     ,85.84768     ,NH3,1,6,1
India,Odisha,Keonjhar,"Jagamohanpur, Keonjhar - OSPCB",03-06-2024 16:00:00,21.643900,85.599355,PM2.5,8,59,16
India,Odisha,Nayagarh,"Dabuna, Nayagarh - OSPCB",03-06-2024 16:00:00,21.847279,85.416905,CO,11,20,13
India,Odisha,Rairangpur,"Divisional Forest Office, Rairangpur - OSPCB",03-06-2024 16:00:00,22.265816,86.174829,PM2.5,39,74,52
India,Odisha,Rairangpur,"Divisional Forest Office, Rairangpur - OSPCB",03-06-2024 16:00:00,22.265816,86.174829,NH3,4,4,4
India,Odisha,Rourkela,"Raghunathpali, Rourkela - OSPCB",03-06-2024 16:00:00,22.220833,84.809444,SO2,7,8,7
India,Odisha,Suakati,"OMC Colony, Suakati - OSPCB",03-06-2024 16:00:00,21.606865,85.510538,PM2.5,23,110,53
India,Odisha,Suakati,"OMC Colony, Suakati - OSPCB",03-06-2024 16:00:00,21.606865,85.510538,PM10,32,89,62
India,Odisha,Talcher,"Talcher Coalfields,Talcher - OSPCB",03-06-2024 16:00:00,20.9360711,85.1707021,PM2.5,9,104,49
India,Odisha,Talcher,"Talcher Coalfields,Talcher - OSPCB",03-06-2024 16:00:00,20.9360711,85.1707021,NO2,17,21,20
India,Odisha,Talcher,"Talcher Coalfields,Talcher - OSPCB",03-06-2024 16:00:00,20.9360711,85.1707021,CO,21,96,70
India,Odisha,Tensa,"Barsua Iron Ore Mines, Tensa - OSPCB",03-06-2024 16:00:00,21.869985,85.167016,NH3,NA,NA,NA
India,Puducherry,Puducherry,"Jawahar Nagar, Puducherry - PPCC",03-06-2024 16:00:00,11.9309,79.8027,CO,36,42,39
India,Punjab,Amritsar,"Golden Temple, Amritsar - PPCB",03-06-2024 16:00:00,31.620000,74.876512,NH3,4,15,8
India,Punjab,Bathinda,"Hardev Nagar, Bathinda - PPCB",03-06-2024 16:00:00,30.233011,74.907758,NO2,31,33,32
India,Punjab,Bathinda,"Hardev Nagar, Bathinda - PPCB",03-06-2024 16:00:00,30.233011,74.907758,SO2,9,30,24
India,Punjab,Jalandhar,"Civil Line, Jalandhar - PPCB",03-06-2024 16:00:00,31.321907,75.578914,PM2.5,95,227,157
India,Punjab,Khanna,"Kalal Majra, Khanna - PPCB",03-06-2024 16:00:00,30.736056 ,76.209694,SO2,5,41,17
India,Punjab,Mandi Gobindgarh,"RIMT University, Mandi Gobindgarh - PPCB",03-06-2024 16:00:00,30.649961,76.331442,NO2,17,28,25
India,Punjab,Patiala,"Model Town, Patiala - PPCB",03-06-2024 16:00:00,30.349388,76.366642,NO2,21,25,24
India,Punjab,Patiala,"Model Town, Patiala - PPCB",03-06-2024 16:00:00,30.349388,76.366642,NH3,6,6,6
India,Rajasthan,Ajmer,"Civil Lines,  Ajmer - RSPCB",03-06-2024 16:00:00,26.470859,74.646594,NO2,23,24,23
India,Rajasthan,Ajmer,"Civil Lines,  Ajmer - RSPCB",03-06-2024 16:00:00,26.470859,74.646594,NH3,5,5,5
India,Rajasthan,Alwar,"Moti Doongri, Alwar - RSPCB",03-06-2024 16:00:00,27.554793,76.611536,PM2.5,41,89,62
India,Rajasthan,Alwar,"Moti Doongri, Alwar - RSPCB",03-06-2024 16:00:00,27.554793,76.611536,PM10,44,101,72
India,Rajasthan,Banswara,"Rati Talai, Banswara - RSPCB",03-06-2024 16:00:00,23.555190,74.440010,NH3,2,5,4
India,Rajasthan,Banswara,"Rati Talai, Banswara - RSPCB",03-06-2024 16:00:00,23.555190,74.440010,SO2,3,14,6
India,Rajasthan,Banswara,"Rati Talai, Banswara - RSPCB",03-06-2024 16:00:00,23.555190,74.440010,CO,26,46,35
India,Rajasthan,Banswara,"Rati Talai, Banswara - RSPCB",03-06-2024 16:00:00,23.555190,74.440010,OZONE,23,107,59
India,Rajasthan,Baran,"Bamboliya, Baran - RSPCB",03-06-2024 16:00:00,25.106006,76.469948,PM2.5,3,73,24
India,Rajasthan,Baran,"Bamboliya, Baran - RSPCB",03-06-2024 16:00:00,25.106006,76.469948,PM10,43,298,98
India,Rajasthan,Barmer,"Railway Colony, Barmer - RSPCB",03-06-2024 16:00:00,25.747299,71.393989,CO,8,20,14
India,Rajasthan,Barmer,"Railway Colony, Barmer - RSPCB",03-06-2024 16:00:00,25.747299,71.393989,OZONE,17,86,39
India,Rajasthan,Bharatpur,"Krishna Nagar, Bharatpur - RSPCB",03-06-2024 16:00:00,27.215415,77.50873,NO2,6,41,22
India,Rajasthan,Bharatpur,"Krishna Nagar, Bharatpur - RSPCB",03-06-2024 16:00:00,27.215415,77.50873,OZONE,36,160,75
India,Rajasthan,Bhilwara,"Pratap Nagar, Bhilwara - RSPCB",03-06-2024 16:00:00,25.339605,74.618883,NO2,8,22,14
India,Rajasthan,Bikaner,"MM Ground, Bikaner - RSPCB",03-06-2024 16:00:00,28.018792,73.292658,NO2,11,56,31
India,Rajasthan,Bikaner,"MM Ground, Bikaner - RSPCB",03-06-2024 16:00:00,28.018792,73.292658,NH3,7,9,8
India,Rajasthan,Bikaner,"MM Ground, Bikaner - RSPCB",03-06-2024 16:00:00,28.018792,73.292658,OZONE,36,70,54
India,Rajasthan,Bundi,"New Colony, Bundi - RSPCB",03-06-2024 16:00:00,25.435774,75.644272,PM2.5,14,314,44
India,Rajasthan,Bundi,"New Colony, Bundi - RSPCB",03-06-2024 16:00:00,25.435774,75.644272,NH3,5,6,5
India,Rajasthan,Churu,"Subash Chowk, Churu - RSPCB",03-06-2024 16:00:00,28.296139,74.961696,OZONE,46,119,91
India,Rajasthan,Dausa,"Khatikan Mohalla, Dausa - RSPCB",03-06-2024 16:00:00,26.895552,76.334753,PM10,71,317,134
India,Rajasthan,Dausa,"Khatikan Mohalla, Dausa - RSPCB",03-06-2024 16:00:00,26.895552,76.334753,SO2,4,9,6
India,Rajasthan,Dausa,"Khatikan Mohalla, Dausa - RSPCB",03-06-2024 16:00:00,26.895552,76.334753,OZONE,20,164,96
India,Rajasthan,Dholpur,"Raja Ganj, Dholpur - RSPCB",03-06-2024 16:00:00,26.699557,77.898881,PM10,87,161,118
India,Rajasthan,Hanumangarh,"Housing Board, Hanumangarh - RSPCB",03-06-2024 16:00:00,29.610750,74.283608,NH3,3,10,6
India,Rajasthan,Jaipur,"Adarsh Nagar, Jaipur - RSPCB",03-06-2024 16:00:00,26.902909,75.836858,CO,1,44,23
India,Rajasthan,Jaipur,"Adarsh Nagar, Jaipur - RSPCB",03-06-2024 16:00:00,26.902909,75.836858,OZONE,18,84,63
India,Rajasthan,Jaipur,"Mansarovar Sector-12, Jaipur - RSPCB",03-06-2024 16:00:00,26.843698,75.766894,PM10,NA,NA,NA
India,Rajasthan,Jaipur,"Mansarovar Sector-12, Jaipur - RSPCB",03-06-2024 16:00:00,26.843698,75.766894,SO2,NA,NA,NA
India,Rajasthan,Jaipur,"Police Commissionerate, Jaipur - RSPCB",03-06-2024 16:00:00,26.9164092,75.7994901,NO2,20,39,30
India,Rajasthan,Jaipur,"Police Commissionerate, Jaipur - RSPCB",03-06-2024 16:00:00,26.9164092,75.7994901,CO,12,61,42
India,Rajasthan,Jaipur,"RIICO Sitapura, Jaipur - RSPCB",03-06-2024 16:00:00,26.786682,75.827928,PM2.5,9,63,34
India,Rajasthan,Jaipur,"Sector-2 Murlipura, Jaipur - RSPCB",03-06-2024 16:00:00,26.960669,75.771817,NH3,1,5,3
India,Rajasthan,Jaipur,"Sector-2 Murlipura, Jaipur - RSPCB",03-06-2024 16:00:00,26.960669,75.771817,OZONE,10,100,77
India,Rajasthan,Jhunjhunu,"Indra Nagar, Jhunjhunu - RSPCB",03-06-2024 16:00:00,28.108988,75.386577,NO2,16,36,21
India,Rajasthan,Jodhpur,"Digari Kalan, Jodhpur - RSPCB",03-06-2024 16:00:00,26.295810,73.082283,PM2.5,14,99,51
India,Rajasthan,Jodhpur,"Digari Kalan, Jodhpur - RSPCB",03-06-2024 16:00:00,26.295810,73.082283,NO2,3,33,12
India,Rajasthan,Jodhpur,"Jhalamand, Jodhpur - RSPCB",03-06-2024 16:00:00,26.215415,73.070156,PM10,28,461,102
India,Rajasthan,Jodhpur,"Mandor, Jodhpur - RSPCB",03-06-2024 16:00:00,26.358805,73.047444,NH3,2,5,3
India,Rajasthan,Jodhpur,"Samrat Ashok Udhyan, Jodhpur - RSPCB",03-06-2024 16:00:00,26.253384,72.976571,PM10,43,481,129
India,Rajasthan,Jodhpur,"Samrat Ashok Udhyan, Jodhpur - RSPCB",03-06-2024 16:00:00,26.253384,72.976571,NH3,2,12,3
India,Rajasthan,Jodhpur,"Samrat Ashok Udhyan, Jodhpur - RSPCB",03-06-2024 16:00:00,26.253384,72.976571,OZONE,40,80,58
India,Rajasthan,Karauli,"Satyawati Vihar, Karauli - RSPCB",03-06-2024 16:00:00,26.506177,77.025989,SO2,11,25,18
India,Rajasthan,Kota,"Dhanmandi, Kota - RSPCB",03-06-2024 16:00:00,25.164090,75.858137,PM10,48,431,113
India,Rajasthan,Kota,"Dhanmandi, Kota - RSPCB",03-06-2024 16:00:00,25.164090,75.858137,NO2,13,70,28
India,Rajasthan,Pali,"Indira Colony Vistar, Pali - RSPCB",03-06-2024 16:00:00,25.771061, 73.340227,PM10,81,299,144
India,Rajasthan,Pali,"Indira Colony Vistar, Pali - RSPCB",03-06-2024 16:00:00,25.771061, 73.340227,NO2,26,58,41
India,Rajasthan,Pali,"Indira Colony Vistar, Pali - RSPCB",03-06-2024 16:00:00,25.771061, 73.340227,SO2,6,10,8
India,Rajasthan,Pali,"Indira Colony Vistar, Pali - RSPCB",03-06-2024 16:00:00,25.771061, 73.340227,CO,4,64,48
India,Rajasthan,Pali,"Indira Colony Vistar, Pali - RSPCB",03-06-2024 16:00:00,25.771061, 73.340227,OZONE,28,53,42
India,Rajasthan,Pratapgarh,"Pragati Nagar, Pratapgarh - RSPCB",03-06-2024 16:00:00,24.041198,74.780702,SO2,2,10,4
India,Rajasthan,Rajsamand,"Dhoinda, Rajsamand - RSPCB",03-06-2024 16:00:00,25.036360,73.883502,PM2.5,10,53,23
India,Rajasthan,Rajsamand,"Dhoinda, Rajsamand - RSPCB",03-06-2024 16:00:00,25.036360,73.883502,NH3,1,3,1
India,Rajasthan,Sawai Madhopur,"Sahu Nagar, Sawai Madhopur - RSPCB",03-06-2024 16:00:00,26.031443,76.359327,NO2,15,22,18
India,Rajasthan,Sawai Madhopur,"Sahu Nagar, Sawai Madhopur - RSPCB",03-06-2024 16:00:00,26.031443,76.359327,OZONE,46,114,93
India,Rajasthan,Sikar,"Radhakishan Pura, Sikar - RSPCB",03-06-2024 16:00:00,27.608912,75.153302,PM10,27,211,95
India,Rajasthan,Sikar,"Radhakishan Pura, Sikar - RSPCB",03-06-2024 16:00:00,27.608912,75.153302,NO2,13,36,22
India,Rajasthan,Sikar,"Radhakishan Pura, Sikar - RSPCB",03-06-2024 16:00:00,27.608912,75.153302,SO2,2,7,3
India,Rajasthan,Sikar,"Radhakishan Pura, Sikar - RSPCB",03-06-2024 16:00:00,27.608912,75.153302,CO,14,34,30
India,Rajasthan,Sri Ganganagar,"Old City, Sri Ganganagar - RSPCB",03-06-2024 16:00:00,29.931624,73.864511,NO2,8,124,36
India,Rajasthan,Tonk,"Shastri Nagar, Tonk - RSPCB",03-06-2024 16:00:00,26.159933,75.780517,NO2,7,30,14
India,Rajasthan,Udaipur,"Ashok Nagar, Udaipur - RSPCB",03-06-2024 16:00:00,24.5886166,73.6321397,NH3,4,8,6
India,TamilNadu,Chennai,"Alandur Bus Depot, Chennai - CPCB",03-06-2024 16:00:00,12.9099161,80.1076538,NH3,7,10,8
India,TamilNadu,Chennai,"Alandur Bus Depot, Chennai - CPCB",03-06-2024 16:00:00,12.9099161,80.1076538,CO,60,66,63
India,TamilNadu,Chennai,"Kodungaiyur, Chennai - TNPCB",03-06-2024 16:00:00,13.1278,80.2642,OZONE,50,74,66
India,TamilNadu,Chennai,"Perungudi, Chennai - TNPCB",03-06-2024 16:00:00,12.9533,80.2357,PM2.5,17,48,32
India,TamilNadu,Chennai,"Perungudi, Chennai - TNPCB",03-06-2024 16:00:00,12.9533,80.2357,OZONE,1,13,7
India,TamilNadu,Chennai,"Royapuram, Chennai - TNPCB",03-06-2024 16:00:00,13.1036,80.2909,NH3,NA,NA,NA
India,TamilNadu,Coimbatore,"PSG College of Arts and Science, Coimbatore - TNPCB",03-06-2024 16:00:00,11.0328,77.0349,NH3,1,1,1
India,TamilNadu,Coimbatore,"PSG College of Arts and Science, Coimbatore - TNPCB",03-06-2024 16:00:00,11.0328,77.0349,CO,6,14,10
India,TamilNadu,Coimbatore,"PSG College of Arts and Science, Coimbatore - TNPCB",03-06-2024 16:00:00,11.0328,77.0349,OZONE,3,5,4
India,TamilNadu,Cuddalore,"Kudikadu, Cuddalore - TNPCB",03-06-2024 16:00:00,11.6829898,79.7532099,PM2.5,10,78,32
India,TamilNadu,Cuddalore,"Semmandalam, Cuddalore - TNPCB",03-06-2024 16:00:00,11.7637683,79.7499835,NH3,2,3,2
India,TamilNadu,Gummidipoondi,"Anthoni Pillai Nagar, Gummidipoondi - TNPCB",03-06-2024 16:00:00,13.4127,80.1081,NH3,3,6,5
India,TamilNadu,Ooty,"Bombay Castel, Ooty - TNPCB",03-06-2024 16:00:00,11.4068288,76.7138973,NH3,NA,NA,NA
India,TamilNadu,Ramanathapuram,"Chalai Bazaar, Ramanathapuram - TNPCB",03-06-2024 16:00:00,9.36399,78.831977,PM10,NA,NA,NA
India,TamilNadu,Salem,"Sona College of Technology, Salem - TNPCB",03-06-2024 16:00:00,11.679111,78.125052,NO2,NA,NA,NA
India,TamilNadu,Salem,"Sona College of Technology, Salem - TNPCB",03-06-2024 16:00:00,11.679111,78.125052,NH3,NA,NA,NA
India,TamilNadu,Salem,"Sona College of Technology, Salem - TNPCB",03-06-2024 16:00:00,11.679111,78.125052,SO2,NA,NA,NA
India,TamilNadu,Salem,"Sona College of Technology, Salem - TNPCB",03-06-2024 16:00:00,11.679111,78.125052,CO,37,40,39
India,TamilNadu,Salem,"Sona College of Technology, Salem - TNPCB",03-06-2024 16:00:00,11.679111,78.125052,OZONE,2,3,3
India,TamilNadu,Thoothukudi,"Meelavittan, Thoothukudi - TNPCB",03-06-2024 16:00:00,8.816428 ,78.099039,SO2,NA,NA,NA
India,TamilNadu,Thoothukudi,"Meelavittan, Thoothukudi - TNPCB",03-06-2024 16:00:00,8.816428 ,78.099039,CO,7,174,60
India,TamilNadu,Vellore,"Vasanthapuram, Vellore - TNPCB",03-06-2024 16:00:00,12.909494,79.131861,OZONE,1,1,1
India,Telangana,Hyderabad,"Central University, Hyderabad - TSPCB",03-06-2024 16:00:00,17.460103,78.334361,PM2.5,10,48,27
India,Telangana,Hyderabad,"Central University, Hyderabad - TSPCB",03-06-2024 16:00:00,17.460103,78.334361,NO2,15,43,26
India,Telangana,Hyderabad,"Central University, Hyderabad - TSPCB",03-06-2024 16:00:00,17.460103,78.334361,NH3,2,7,4
India,Telangana,Hyderabad,"ICRISAT Patancheru, Hyderabad - TSPCB",03-06-2024 16:00:00,17.518400,78.278777,PM2.5,2,180,53
India,Telangana,Hyderabad,"IITH Kandi, Hyderabad - TSPCB",03-06-2024 16:00:00,17.585705,78.126199,PM10,NA,NA,NA
India,Telangana,Hyderabad,"IITH Kandi, Hyderabad - TSPCB",03-06-2024 16:00:00,17.585705,78.126199,NH3,NA,NA,NA
India,Telangana,Hyderabad,"IITH Kandi, Hyderabad - TSPCB",03-06-2024 16:00:00,17.585705,78.126199,OZONE,NA,NA,NA
India,Telangana,Hyderabad,"Kokapet, Hyderabad - TSPCB",03-06-2024 16:00:00,17.393559,78.339194,SO2,10,11,10
India,Telangana,Hyderabad,"Kompally Municipal Office, Hyderabad - TSPCB",03-06-2024 16:00:00,17.544899,78.486949,NO2,NA,NA,NA
India,Telangana,Hyderabad,"Kompally Municipal Office, Hyderabad - TSPCB",03-06-2024 16:00:00,17.544899,78.486949,SO2,NA,NA,NA
India,Telangana,Hyderabad,"Nacharam_TSIIC IALA, Hyderabad - TSPCB",03-06-2024 16:00:00,17.429398,78.569354,PM10,65,89,85
India,Telangana,Hyderabad,"Nacharam_TSIIC IALA, Hyderabad - TSPCB",03-06-2024 16:00:00,17.429398,78.569354,NO2,12,17,16
India,Telangana,Hyderabad,"New Malakpet, Hyderabad - TSPCB",03-06-2024 16:00:00,17.37206,78.50864,SO2,18,20,19
India,Telangana,Hyderabad,"New Malakpet, Hyderabad - TSPCB",03-06-2024 16:00:00,17.37206,78.50864,CO,6,34,21
India,Telangana,Hyderabad,"Ramachandrapuram, Hyderabad - TSPCB",03-06-2024 16:00:00,17.528544,78.286195,PM2.5,NA,NA,NA
India,Telangana,Hyderabad,"Ramachandrapuram, Hyderabad - TSPCB",03-06-2024 16:00:00,17.528544,78.286195,PM10,NA,NA,NA
India,Telangana,Hyderabad,"Ramachandrapuram, Hyderabad - TSPCB",03-06-2024 16:00:00,17.528544,78.286195,NO2,NA,NA,NA
India,Telangana,Hyderabad,"Ramachandrapuram, Hyderabad - TSPCB",03-06-2024 16:00:00,17.528544,78.286195,NH3,NA,NA,NA
India,Telangana,Hyderabad,"Ramachandrapuram, Hyderabad - TSPCB",03-06-2024 16:00:00,17.528544,78.286195,SO2,NA,NA,NA
India,Telangana,Hyderabad,"Sanathnagar, Hyderabad - TSPCB",03-06-2024 16:00:00,17.4559458,78.4332152,PM2.5,23,58,46
India,Telangana,Hyderabad,"Sanathnagar, Hyderabad - TSPCB",03-06-2024 16:00:00,17.4559458,78.4332152,NO2,26,32,30
India,Telangana,Hyderabad,"Sanathnagar, Hyderabad - TSPCB",03-06-2024 16:00:00,17.4559458,78.4332152,CO,30,42,36
India,Telangana,Hyderabad,"Zoo Park, Hyderabad - TSPCB",03-06-2024 16:00:00,17.349694,78.451437,PM2.5,NA,NA,NA
India,Telangana,Hyderabad,"Zoo Park, Hyderabad - TSPCB",03-06-2024 16:00:00,17.349694,78.451437,PM10,NA,NA,NA
India,Telangana,Hyderabad,"Zoo Park, Hyderabad - TSPCB",03-06-2024 16:00:00,17.349694,78.451437,SO2,2,19,4
India,Telangana,Hyderabad,"Zoo Park, Hyderabad - TSPCB",03-06-2024 16:00:00,17.349694,78.451437,CO,15,58,30
India,Tripura,Agartala,"Bardowali, Agartala - Tripura SPCB",03-06-2024 16:00:00,23.8175497,91.2726974,PM2.5,45,99,75
India,Uttar_Pradesh,Agra,"Manoharpur, Agra - UPPCB",03-06-2024 16:00:00,27.23711,78.01936,PM10,15,58,30
India,Uttar_Pradesh,Agra,"Shahjahan Garden, Agra - UPPCB",03-06-2024 16:00:00,27.169338,78.03582,PM10,27,122,85
India,Uttar_Pradesh,Agra,"Shahjahan Garden, Agra - UPPCB",03-06-2024 16:00:00,27.169338,78.03582,CO,12,42,17
India,Uttar_Pradesh,Agra,"Shastripuram, Agra - UPPCB",03-06-2024 16:00:00,27.19862,77.92066,PM10,NA,NA,NA
India,Uttar_Pradesh,Agra,"Shastripuram, Agra - UPPCB",03-06-2024 16:00:00,27.19862,77.92066,NO2,34,49,36
India,Uttar_Pradesh,Agra,"Shastripuram, Agra - UPPCB",03-06-2024 16:00:00,27.19862,77.92066,NH3,3,5,4
India,Uttar_Pradesh,Baghpat,"Sardar Patel Inter College, Baghpat - UPPCB",03-06-2024 16:00:00,28.964949,77.278761,SO2,23,76,45
India,Uttar_Pradesh,Bareilly,"Civil Lines, Bareilly - UPPCB",03-06-2024 16:00:00,28.359581,79.414455,PM10,19,35,26
India,Uttar_Pradesh,Bareilly,"Civil Lines, Bareilly - UPPCB",03-06-2024 16:00:00,28.359581,79.414455,CO,2,89,21
India,Uttar_Pradesh,Bareilly,"Rajendra Nagar, Bareilly - UPPCB",03-06-2024 16:00:00,28.38910936,79.42963708,PM10,54,272,92
India,Uttar_Pradesh,Bulandshahr,"Yamunapuram, Bulandshahr - UPPCB",03-06-2024 16:00:00,28.406963,77.849831,NO2,13,57,30
India,Uttar_Pradesh,Bulandshahr,"Yamunapuram, Bulandshahr - UPPCB",03-06-2024 16:00:00,28.406963,77.849831,SO2,14,49,25
India,Uttar_Pradesh,Bulandshahr,"Yamunapuram, Bulandshahr - UPPCB",03-06-2024 16:00:00,28.406963,77.849831,OZONE,8,137,76
India,Uttar_Pradesh,Firozabad,"Nagla Bhau, Firozabad - UPPCB",03-06-2024 16:00:00,27.168897,78.376960,PM2.5,13,162,44
India,Uttar_Pradesh,Firozabad,"Vibhab Nagar, Firozabad - UPPCB",03-06-2024 16:00:00,27.1594,78.3953,NO2,11,14,14
India,Uttar_Pradesh,Ghaziabad,"Indirapuram, Ghaziabad - UPPCB",03-06-2024 16:00:00,28.646233,77.358075,NH3,11,18,13
India,Uttar_Pradesh,Ghaziabad,"Loni, Ghaziabad - UPPCB",03-06-2024 16:00:00,28.757294,77.278792,OZONE,2,52,26
India,Uttar_Pradesh,Ghaziabad,"Sanjay Nagar, Ghaziabad - UPPCB",03-06-2024 16:00:00,28.685382,77.453839,PM2.5,33,173,72
India,Uttar_Pradesh,Ghaziabad,"Sanjay Nagar, Ghaziabad - UPPCB",03-06-2024 16:00:00,28.685382,77.453839,CO,6,92,36
India,Uttar_Pradesh,Ghaziabad,"Vasundhara, Ghaziabad - UPPCB",03-06-2024 16:00:00,28.6603346,77.3572563,CO,6,80,44
India,Uttar_Pradesh,Gorakhpur,"Madan Mohan Malaviya University of Technology, Gorakhpur - UPPCB",03-06-2024 16:00:00,26.730136,83.433859,NO2,11,11,11
India,Uttar_Pradesh,Greater Noida,"Knowledge Park - III, Greater Noida - UPPCB",03-06-2024 16:00:00,28.47272,77.482000,PM2.5,55,308,116
India,Uttar_Pradesh,Greater Noida,"Knowledge Park - V, Greater Noida - UPPCB",03-06-2024 16:00:00,28.557054,77.453663,CO,14,71,39
India,Uttar_Pradesh,Jhansi,"Shivaji Nagar, Jhansi - UPPCB",03-06-2024 16:00:00,25.4547,78.6039,NH3,5,6,6
India,Uttar_Pradesh,Jhansi,"Shivaji Nagar, Jhansi - UPPCB",03-06-2024 16:00:00,25.4547,78.6039,CO,8,86,16
India,Uttar_Pradesh,Kanpur,"NSI Kalyanpur, Kanpur - UPPCB",03-06-2024 16:00:00,26.509954,80.249612,PM2.5,48,110,76
India,Uttar_Pradesh,Kanpur,"NSI Kalyanpur, Kanpur - UPPCB",03-06-2024 16:00:00,26.509954,80.249612,NO2,15,16,16
India,Uttar_Pradesh,Kanpur,"Nehru Nagar, Kanpur - UPPCB",03-06-2024 16:00:00,26.4703136,80.3229863,PM10,20,87,54
India,Uttar_Pradesh,Kanpur,"Nehru Nagar, Kanpur - UPPCB",03-06-2024 16:00:00,26.4703136,80.3229863,CO,66,89,76
India,Uttar_Pradesh,Khurja,"Kalindi Kunj, Khurja - UPPCB",03-06-2024 16:00:00,28.2348927,77.8683002,NH3,1,2,1
India,Uttar_Pradesh,Khurja,"Kalindi Kunj, Khurja - UPPCB",03-06-2024 16:00:00,28.2348927,77.8683002,CO,24,47,38
India,Uttar_Pradesh,Khurja,"Kalindi Kunj, Khurja - UPPCB",03-06-2024 16:00:00,28.2348927,77.8683002,OZONE,76,162,109
India,Uttar_Pradesh,Lucknow,"Gomti Nagar, Lucknow - UPPCB",03-06-2024 16:00:00,26.868120,81.005119,PM10,64,113,90
India,Uttar_Pradesh,Lucknow,"Kukrail Picnic Spot-1, Lucknow - UPPCB",03-06-2024 16:00:00,26.90723,80.98579,NO2,13,13,13
India,Uttar_Pradesh,Lucknow,"Kukrail Picnic Spot-1, Lucknow - UPPCB",03-06-2024 16:00:00,26.90723,80.98579,NH3,2,2,2
India,Uttar_Pradesh,Lucknow,"Kukrail Picnic Spot-1, Lucknow - UPPCB",03-06-2024 16:00:00,26.90723,80.98579,CO,19,30,24
India,Uttar_Pradesh,Lucknow,"Talkatora District Industries Center, Lucknow - CPCB",03-06-2024 16:00:00,26.83399722,80.8917361,NO2,35,59,45
India,Uttar_Pradesh,Lucknow,"Talkatora District Industries Center, Lucknow - CPCB",03-06-2024 16:00:00,26.83399722,80.8917361,CO,3,38,20
India,Uttar_Pradesh,Meerut,"Ganga Nagar, Meerut - UPPCB",03-06-2024 16:00:00,28.999264,77.7590354,PM2.5,32,82,51
India,Uttar_Pradesh,Meerut,"Ganga Nagar, Meerut - UPPCB",03-06-2024 16:00:00,28.999264,77.7590354,SO2,19,49,31
India,Uttar_Pradesh,Meerut,"Ganga Nagar, Meerut - UPPCB",03-06-2024 16:00:00,28.999264,77.7590354,OZONE,1,128,64
India,Uttar_Pradesh,Moradabad,"Buddhi Vihar, Moradabad - UPPCB",03-06-2024 16:00:00,28.83526,78.74460,PM10,93,188,127
India,Uttar_Pradesh,Moradabad,"Eco Herbal Park, Moradabad - UPPCB",03-06-2024 16:00:00,28.840739,78.697531,PM2.5,32,98,71
India,Uttar_Pradesh,Moradabad,"Eco Herbal Park, Moradabad - UPPCB",03-06-2024 16:00:00,28.840739,78.697531,NH3,7,13,9
India,Uttar_Pradesh,Moradabad,"Employment Office, Moradabad - UPPCB",03-06-2024 16:00:00,28.88528,78.73880,PM2.5,37,96,60
India,Uttar_Pradesh,Moradabad,"Employment Office, Moradabad - UPPCB",03-06-2024 16:00:00,28.88528,78.73880,PM10,82,196,125
India,Uttar_Pradesh,Moradabad,"Employment Office, Moradabad - UPPCB",03-06-2024 16:00:00,28.88528,78.73880,NO2,17,17,17
India,Uttar_Pradesh,Moradabad,"Employment Office, Moradabad - UPPCB",03-06-2024 16:00:00,28.88528,78.73880,OZONE,12,86,36
India,Uttar_Pradesh,Moradabad,"Jigar Colony, Moradabad - UPPCB",03-06-2024 16:00:00,28.856664,78.772638,CO,24,50,39
India,Uttar_Pradesh,Moradabad,"Kashiram Nagar, Moradabad - UPPCB",03-06-2024 16:00:00,28.849399,78.742362,NO2,12,13,12
India,Uttar_Pradesh,Moradabad,"Kashiram Nagar, Moradabad - UPPCB",03-06-2024 16:00:00,28.849399,78.742362,NH3,4,4,4
India,Uttar_Pradesh,Moradabad,"Kashiram Nagar, Moradabad - UPPCB",03-06-2024 16:00:00,28.849399,78.742362,OZONE,22,104,65
India,Uttar_Pradesh,Moradabad,"Transport Nagar, Moradabad - UPPCB",03-06-2024 16:00:00,28.802625,78.753728,PM10,97,175,118
India,Uttar_Pradesh,Noida,"Sector-1, Noida - UPPCB",03-06-2024 16:00:00,28.5898,77.3101,NO2,13,65,37
India,Uttar_Pradesh,Noida,"Sector-1, Noida - UPPCB",03-06-2024 16:00:00,28.5898,77.3101,SO2,7,21,12
India,Uttar_Pradesh,Noida,"Sector-1, Noida - UPPCB",03-06-2024 16:00:00,28.5898,77.3101,OZONE,18,176,150
India,Uttar_Pradesh,Noida,"Sector-116, Noida - UPPCB",03-06-2024 16:00:00,28.569230,77.393848,NO2,28,79,45
India,Uttar_Pradesh,Noida,"Sector-116, Noida - UPPCB",03-06-2024 16:00:00,28.569230,77.393848,SO2,10,34,23
India,Uttar_Pradesh,Noida,"Sector-116, Noida - UPPCB",03-06-2024 16:00:00,28.569230,77.393848,OZONE,36,159,107
India,Uttar_Pradesh,Prayagraj,"Jhunsi, Prayagraj - UPPCB",03-06-2024 16:00:00,25.425602,81.917152,OZONE,12,79,51
India,Uttar_Pradesh,Prayagraj,"Motilal Nehru NIT, Prayagraj - UPPCB",03-06-2024 16:00:00,25.494,81.863,PM2.5,17,61,33
India,Uttar_Pradesh,Prayagraj,"Motilal Nehru NIT, Prayagraj - UPPCB",03-06-2024 16:00:00,25.494,81.863,PM10,16,102,58
India,Uttar_Pradesh,Prayagraj,"Motilal Nehru NIT, Prayagraj - UPPCB",03-06-2024 16:00:00,25.494,81.863,SO2,14,80,25
India,Uttar_Pradesh,Prayagraj,"Motilal Nehru NIT, Prayagraj - UPPCB",03-06-2024 16:00:00,25.494,81.863,OZONE,8,91,27
India,Uttar_Pradesh,Prayagraj,"Nagar Nigam, Prayagraj - UPPCB",03-06-2024 16:00:00,25.44919916 ,81.82735986 ,SO2,4,134,63
India,Uttar_Pradesh,Prayagraj,"Nagar Nigam, Prayagraj - UPPCB",03-06-2024 16:00:00,25.44919916 ,81.82735986 ,OZONE,10,12,12
India,Uttar_Pradesh,Varanasi,"Ardhali Bazar, Varanasi - UPPCB",03-06-2024 16:00:00,25.3505986,82.9083074,PM2.5,20,47,31
India,Uttar_Pradesh,Varanasi,"Ardhali Bazar, Varanasi - UPPCB",03-06-2024 16:00:00,25.3505986,82.9083074,OZONE,50,52,51
India,Uttar_Pradesh,Varanasi,"Bhelupur, Varanasi - UPPCB",03-06-2024 16:00:00,25.301778,82.996789,SO2,30,32,31
India,Uttar_Pradesh,Varanasi,"IESD Banaras Hindu University, Varanasi - UPPCB",03-06-2024 16:00:00,25.262326,82.995408,NO2,2,2,2
India,Uttar_Pradesh,Varanasi,"IESD Banaras Hindu University, Varanasi - UPPCB",03-06-2024 16:00:00,25.262326,82.995408,SO2,20,22,21
India,Uttar_Pradesh,Varanasi,"Maldahiya, Varanasi - UPPCB",03-06-2024 16:00:00,25.32393,82.99687,SO2,25,26,25
India,Uttar_Pradesh,Varanasi,"Maldahiya, Varanasi - UPPCB",03-06-2024 16:00:00,25.32393,82.99687,CO,2,36,12
India,Uttar_Pradesh,Varanasi,"Maldahiya, Varanasi - UPPCB",03-06-2024 16:00:00,25.32393,82.99687,OZONE,2,23,16
India,Uttar_Pradesh,Vrindavan,"Omex Eternity, Vrindavan - UPPCB",03-06-2024 16:00:00,27.5714090,77.6557570,SO2,42,49,45
India,Uttarakhand,Dehradun,"Doon University, Dehradun - UKPCB",03-06-2024 16:00:00,30.269444,78.044167,CO,16,28,21
India,Uttarakhand,Rishikesh,"Shivaji Nagar, Rishikesh - UKPCB",03-06-2024 16:00:00,30.075911,78.2859547,PM2.5,46,102,78
India,West_Bengal,Asansol,"Asansol Court Area, Asansol - WBPCB",03-06-2024 16:00:00,23.685297,86.945968,PM2.5,51,187,103
India,West_Bengal,Asansol,"Asansol Court Area, Asansol - WBPCB",03-06-2024 16:00:00,23.685297,86.945968,NO2,13,380,144
India,West_Bengal,Asansol,"Asansol Court Area, Asansol - WBPCB",03-06-2024 16:00:00,23.685297,86.945968,CO,10,62,35
India,West_Bengal,Barrackpore,"SVSPA Campus, Barrackpore - WBPCB",03-06-2024 16:00:00,22.7605581,88.3617589,NH3,1,1,1
India,West_Bengal,Durgapur,"PCBL Residential Complex, Durgapur - WBPCB",03-06-2024 16:00:00,23.5087640,87.3544400,NH3,1,1,1
India,West_Bengal,Durgapur,"Sidhu Kanhu Indoor Stadium, Durgapur - WBPCB",03-06-2024 16:00:00,23.5404352,87.2892225,CO,18,82,30
India,West_Bengal,Haldia,"Priyambada Housing Estate, Haldia - WBPCB",03-06-2024 16:00:00,22.06047,88.109737,NO2,11,29,15
India,West_Bengal,Haldia,"Priyambada Housing Estate, Haldia - WBPCB",03-06-2024 16:00:00,22.06047,88.109737,SO2,9,23,14
India,West_Bengal,Howrah,"Belur Math, Howrah - WBPCB",03-06-2024 16:00:00,22.629801,88.352017,PM2.5,25,46,37
India,West_Bengal,Howrah,"Padmapukur, Howrah - WBPCB",03-06-2024 16:00:00,22.5687319,88.2797276,NO2,21,39,29
India,West_Bengal,Howrah,"Padmapukur, Howrah - WBPCB",03-06-2024 16:00:00,22.5687319,88.2797276,CO,6,101,44
India,West_Bengal,Kolkata,"Ballygunge, Kolkata - WBPCB",03-06-2024 16:00:00,22.5367507,88.3638022,PM10,27,57,43
India,West_Bengal,Kolkata,"Ballygunge, Kolkata - WBPCB",03-06-2024 16:00:00,22.5367507,88.3638022,NO2,6,52,16
India,West_Bengal,Kolkata,"Ballygunge, Kolkata - WBPCB",03-06-2024 16:00:00,22.5367507,88.3638022,OZONE,27,95,66
India,West_Bengal,Kolkata,"Bidhannagar, Kolkata - WBPCB",03-06-2024 16:00:00,22.58157048,88.41002457,PM10,34,82,52
India,West_Bengal,Kolkata,"Bidhannagar, Kolkata - WBPCB",03-06-2024 16:00:00,22.58157048,88.41002457,NO2,16,26,20
India,West_Bengal,Kolkata,"Fort William, Kolkata - WBPCB",03-06-2024 16:00:00,22.556640,88.342674,PM10,40,71,52
India,West_Bengal,Kolkata,"Fort William, Kolkata - WBPCB",03-06-2024 16:00:00,22.556640,88.342674,SO2,4,20,7
India,West_Bengal,Kolkata,"Fort William, Kolkata - WBPCB",03-06-2024 16:00:00,22.556640,88.342674,CO,16,23,21
India,West_Bengal,Kolkata,"Jadavpur, Kolkata - WBPCB",03-06-2024 16:00:00,22.49929,88.36917,PM10,36,61,49
India,West_Bengal,Kolkata,"Jadavpur, Kolkata - WBPCB",03-06-2024 16:00:00,22.49929,88.36917,SO2,6,8,7
India,West_Bengal,Kolkata,"Rabindra Sarobar, Kolkata - WBPCB",03-06-2024 16:00:00,22.51106,88.35142,PM2.5,17,35,25
India,West_Bengal,Kolkata,"Rabindra Sarobar, Kolkata - WBPCB",03-06-2024 16:00:00,22.51106,88.35142,NO2,38,58,41
India,West_Bengal,Kolkata,"Rabindra Sarobar, Kolkata - WBPCB",03-06-2024 16:00:00,22.51106,88.35142,NH3,7,8,8
India,West_Bengal,Kolkata,"Victoria, Kolkata - WBPCB",03-06-2024 16:00:00,22.5448082,88.3403691,PM10,40,75,57
India,West_Bengal,Kolkata,"Victoria, Kolkata - WBPCB",03-06-2024 16:00:00,22.5448082,88.3403691,NO2,23,30,26
India,West_Bengal,Kolkata,"Victoria, Kolkata - WBPCB",03-06-2024 16:00:00,22.5448082,88.3403691,SO2,6,8,7
India,West_Bengal,Kolkata,"Victoria, Kolkata - WBPCB",03-06-2024 16:00:00,22.5448082,88.3403691,CO,20,34,31
India,West_Bengal,Siliguri,"Ward-32 Bapupara, Siliguri - WBPCB",03-06-2024 16:00:00,26.6879226,88.4152495,NH3,10,10,10
India,Andhra_Pradesh,Amaravati,"Secretariat, Amaravati - APPCB",03-06-2024 16:00:00,16.5150833,80.5181667,PM10,17,105,47
India,Andhra_Pradesh,Amaravati,"Secretariat, Amaravati - APPCB",03-06-2024 16:00:00,16.5150833,80.5181667,CO,10,70,27
India,Andhra_Pradesh,Anantapur,"Gulzarpet, Anantapur - APPCB",03-06-2024 16:00:00,14.675886,77.593027,NH3,4,4,4
India,Andhra_Pradesh,Anantapur,"Gulzarpet, Anantapur - APPCB",03-06-2024 16:00:00,14.675886,77.593027,SO2,3,9,6
India,Andhra_Pradesh,Chittoor,"Gangineni Cheruvu, Chittoor - APPCB",03-06-2024 16:00:00,13.204880,79.097889,PM10,NA,NA,NA
India,Andhra_Pradesh,Kadapa,"Yerramukkapalli, Kadapa - APPCB",03-06-2024 16:00:00,14.465052,78.824187,PM2.5,32,59,38
India,Andhra_Pradesh,Kadapa,"Yerramukkapalli, Kadapa - APPCB",03-06-2024 16:00:00,14.465052,78.824187,OZONE,63,65,65
India,Andhra_Pradesh,Rajamahendravaram,"Anand Kala Kshetram, Rajamahendravaram - APPCB",03-06-2024 16:00:00,16.9872867,81.7363176,PM2.5,8,65,38
India,Andhra_Pradesh,Rajamahendravaram,"Anand Kala Kshetram, Rajamahendravaram - APPCB",03-06-2024 16:00:00,16.9872867,81.7363176,NO2,8,65,20
India,Andhra_Pradesh,Tirupati,"Tirumala, Tirupati - APPCB",03-06-2024 16:00:00,13.67,79.35,NH3,1,1,1
India,Andhra_Pradesh,Tirupati,"Tirumala, Tirupati - APPCB",03-06-2024 16:00:00,13.67,79.35,CO,40,61,47
India,Andhra_Pradesh,Tirupati,"Vaikuntapuram, Tirupati - APPCB",03-06-2024 16:00:00,13.615387,79.409230,OZONE,13,67,32
India,Andhra_Pradesh,Vijayawada,"Kanuru, Vijayawada - APPCB",03-06-2024 16:00:00,16.486692,80.699436,NH3,3,4,4
India,Andhra_Pradesh,Vijayawada,"Rajiv Gandhi Park, Vijayawada - APPCB",03-06-2024 16:00:00,16.509717,80.612222,PM2.5,42,75,57
India,Andhra_Pradesh,Vijayawada,"Rajiv Nagar, Vijayawada - APPCB",03-06-2024 16:00:00,16.554731,80.649110,PM10,53,53,53
India,Andhra_Pradesh,Vijayawada,"Rajiv Nagar, Vijayawada - APPCB",03-06-2024 16:00:00,16.554731,80.649110,CO,38,38,38
India,Arunachal_Pradesh,Naharlagun,"Naharlagun, Naharlagun - APSPCB",03-06-2024 16:00:00,27.103358,93.679645,PM2.5,NA,NA,NA
India,Arunachal_Pradesh,Naharlagun,"Naharlagun, Naharlagun - APSPCB",03-06-2024 16:00:00,27.103358,93.679645,OZONE,2,3,2
India,Assam,Byrnihat,"Central Academy for SFS, Byrnihat - PCBA",03-06-2024 16:00:00,26.071318,91.87488,SO2,4,40,15
India,Assam,Guwahati,"IITG, Guwahati - PCBA",03-06-2024 16:00:00,26.2028636,91.70046436,PM10,11,45,25
India,Assam,Guwahati,"IITG, Guwahati - PCBA",03-06-2024 16:00:00,26.2028636,91.70046436,SO2,12,13,13
India,Assam,Guwahati,"IITG, Guwahati - PCBA",03-06-2024 16:00:00,26.2028636,91.70046436,CO,7,10,8
India,Assam,Guwahati,"LGBI Airport, Guwahati - PCBA",03-06-2024 16:00:00,26.10887,91.589544,PM2.5,NA,NA,NA
India,Assam,Guwahati,"LGBI Airport, Guwahati - PCBA",03-06-2024 16:00:00,26.10887,91.589544,NO2,NA,NA,NA
India,Assam,Guwahati,"LGBI Airport, Guwahati - PCBA",03-06-2024 16:00:00,26.10887,91.589544,NH3,NA,NA,NA
India,Assam,Guwahati,"Pan Bazaar, Guwahati - PCBA",03-06-2024 16:00:00,26.187500,91.744194,CO,16,28,24
India,Assam,Guwahati,"Railway Colony, Guwahati - PCBA",03-06-2024 16:00:00,26.181742,91.78063,CO,20,40,24
India,Assam,Nagaon,"Christianpatty, Nagaon - PCBA",03-06-2024 16:00:00,26.349082,92.68449,NO2,1,10,4
India,Assam,Nagaon,"Christianpatty, Nagaon - PCBA",03-06-2024 16:00:00,26.349082,92.68449,CO,38,65,52
India,Assam,Nalbari,"Bata Chowk, Nalbari - PCBA",03-06-2024 16:00:00,26.446912,91.439057,PM2.5,3,57,25
India,Assam,Nalbari,"Bata Chowk, Nalbari - PCBA",03-06-2024 16:00:00,26.446912,91.439057,CO,22,44,43
India,Assam,Sivasagar,"Girls College, Sivasagar - PCBA",03-06-2024 16:00:00,26.987634,94.636574,PM10,40,55,45
India,Assam,Sivasagar,"Girls College, Sivasagar - PCBA",03-06-2024 16:00:00,26.987634,94.636574,NH3,1,3,2
India,Bihar,Araria,"Kharahiya Basti, Araria - BSPCB",03-06-2024 16:00:00,26.146529,87.454184,NH3,6,7,7
India,Bihar,Bettiah,"Kamalnath Nagar, Bettiah - BSPCB",03-06-2024 16:00:00,26.80365,84.51954,PM10,94,133,113
India,Bihar,Bettiah,"Kamalnath Nagar, Bettiah - BSPCB",03-06-2024 16:00:00,26.80365,84.51954,CO,56,72,66
India,Bihar,Bhagalpur,"Mayaganj, Bhagalpur - BSPCB",03-06-2024 16:00:00,25.265194,87.012947,SO2,11,12,12
India,Bihar,Bihar Sharif,"D M Colony, Bihar Sharif - BSPCB",03-06-2024 16:00:00,25.204762,85.514960,PM10,35,119,81
India,Bihar,Bihar Sharif,"D M Colony, Bihar Sharif - BSPCB",03-06-2024 16:00:00,25.204762,85.514960,NO2,10,12,11
India,Bihar,Bihar Sharif,"D M Colony, Bihar Sharif - BSPCB",03-06-2024 16:00:00,25.204762,85.514960,OZONE,3,46,20
India,Bihar,Buxar,"Charitra Van, Buxar - BSPCB (Formerly known as Central Jail)",03-06-2024 16:00:00,25.567520,83.966379,NO2,NA,NA,NA
India,Bihar,Chhapra,"Darshan Nagar, Chhapra - BSPCB",03-06-2024 16:00:00,25.7808257,84.7446768,PM2.5,23,72,48
India,Bihar,Chhapra,"Darshan Nagar, Chhapra - BSPCB",03-06-2024 16:00:00,25.7808257,84.7446768,NH3,5,8,6
India,Bihar,Chhapra,"Darshan Nagar, Chhapra - BSPCB",03-06-2024 16:00:00,25.7808257,84.7446768,OZONE,1,10,5
India,Bihar,Gaya,"Collectorate, Gaya - BSPCB",03-06-2024 16:00:00,24.7955,84.9994,SO2,5,22,10
India,Bihar,Gaya,"Kareemganj, Gaya - BSPCB",03-06-2024 16:00:00,24.792403,84.992416,PM10,23,110,62
India,Bihar,Gaya,"SFTI Kusdihra, Gaya - BSPCB",03-06-2024 16:00:00,24.762518,84.982348,PM2.5,31,144,86
India,Bihar,Katihar,"Mirchaibari, Katihar - BSPCB",03-06-2024 16:00:00,25.560083,87.553265,PM10,NA,NA,NA
India,Bihar,Katihar,"Mirchaibari, Katihar - BSPCB",03-06-2024 16:00:00,25.560083,87.553265,NO2,3,4,4
India,Bihar,Kishanganj,"SDM Office_Khagra, Kishanganj - BSPCB",03-06-2024 16:00:00,26.0881305,87.93840336,CO,5,10,7
India,Bihar,Manguraha,"Forest Rest House, Manguraha - BSPCB",03-06-2024 16:00:00,27.308328,84.531742,PM2.5,18,35,25
India,Bihar,Manguraha,"Forest Rest House, Manguraha - BSPCB",03-06-2024 16:00:00,27.308328,84.531742,NO2,15,31,20
India,Bihar,Manguraha,"Forest Rest House, Manguraha - BSPCB",03-06-2024 16:00:00,27.308328,84.531742,NH3,1,4,3
India,Bihar,Manguraha,"Forest Rest House, Manguraha - BSPCB",03-06-2024 16:00:00,27.308328,84.531742,OZONE,1,88,26
India,Bihar,Motihari,"Gandak Colony, Motihari - BSPCB",03-06-2024 16:00:00,26.63086,84.90051,PM2.5,23,83,53
India,Bihar,Motihari,"Gandak Colony, Motihari - BSPCB",03-06-2024 16:00:00,26.63086,84.90051,CO,4,40,12
India,Bihar,Munger,"Town Hall, Munger - BSPCB",03-06-2024 16:00:00,25.376776,86.471523,PM10,48,109,83
India,Bihar,Munger,"Town Hall, Munger - BSPCB",03-06-2024 16:00:00,25.376776,86.471523,CO,42,64,47
India,Bihar,Munger,"Town Hall, Munger - BSPCB",03-06-2024 16:00:00,25.376776,86.471523,OZONE,27,35,30
India,Bihar,Muzaffarpur,"Buddha Colony, Muzaffarpur - BSPCB",03-06-2024 16:00:00,26.11442,85.39813,NH3,3,9,6
India,Bihar,Muzaffarpur,"Buddha Colony, Muzaffarpur - BSPCB",03-06-2024 16:00:00,26.11442,85.39813,SO2,2,9,4
India,Bihar,Muzaffarpur,"Muzaffarpur Collectorate, Muzaffarpur - BSPCB",03-06-2024 16:00:00,26.1209,85.3647,PM2.5,32,364,87
India,Bihar,Patna,"IGSC Planetarium Complex, Patna - BSPCB",03-06-2024 16:00:00,25.610369,85.132568,PM2.5,55,170,102
India,Bihar,Patna,"IGSC Planetarium Complex, Patna - BSPCB",03-06-2024 16:00:00,25.610369,85.132568,CO,11,16,13
India,Bihar,Patna,"Muradpur, Patna - BSPCB",03-06-2024 16:00:00,25.619651,85.147382,CO,38,78,59
India,Bihar,Patna,"Rajbansi Nagar, Patna - BSPCB",03-06-2024 16:00:00,25.599486,85.113666,NH3,2,3,2
India,Bihar,Patna,"Samanpura, Patna - BSPCB",03-06-2024 16:00:00,25.596727,85.085624,PM2.5,66,144,94
India,Bihar,Patna,"Samanpura, Patna - BSPCB",03-06-2024 16:00:00,25.596727,85.085624,CO,40,72,57
India,Bihar,Rajgir,"Dangi Tola, Rajgir - BSPCB",03-06-2024 16:00:00,25.03280,85.41948,SO2,1,11,4
India,Bihar,Samastipur,"DM Office_Kasipur, Samastipur - BSPCB",03-06-2024 16:00:00,25.859655,85.77944,NO2,NA,NA,NA
India,Bihar,Samastipur,"DM Office_Kasipur, Samastipur - BSPCB",03-06-2024 16:00:00,25.859655,85.77944,SO2,NA,NA,NA
India,Bihar,Sasaram,"Dada Peer, Sasaram - BSPCB",03-06-2024 16:00:00,24.952822,84.002396,SO2,20,23,23
India,Bihar,Sasaram,"Dada Peer, Sasaram - BSPCB",03-06-2024 16:00:00,24.952822,84.002396,OZONE,17,83,65
India,Chandigarh,Chandigarh,"Sector-25, Chandigarh - CPCC",03-06-2024 16:00:00,30.751462,76.762879,NH3,8,21,14
India,Chandigarh,Chandigarh,"Sector-25, Chandigarh - CPCC",03-06-2024 16:00:00,30.751462,76.762879,CO,4,40,20
India,Chandigarh,Chandigarh,"Sector-53, Chandigarh - CPCC",03-06-2024 16:00:00,30.719859,76.738637,NH3,6,10,8
India,Chandigarh,Chandigarh,"Sector-53, Chandigarh - CPCC",03-06-2024 16:00:00,30.719859,76.738637,SO2,6,40,14
India,Chhattisgarh,Bhilai,"32Bungalows, Bhilai - CECB",03-06-2024 16:00:00,21.194815,81.314770,OZONE,8,70,37
India,Chhattisgarh,Bhilai,"Civic Center, Bhilai - Bhilai Steel Plant",03-06-2024 16:00:00,21.185571,81.343175,NO2,7,8,8
India,Chhattisgarh,Bhilai,"Hathkhoj, Bhilai - CECB",03-06-2024 16:00:00,21.224231,81.408350,NO2,5,15,9
India,Chhattisgarh,Chhal,"Nawapara SECL Colony, Chhal - CECB",03-06-2024 16:00:00,22.118125,83.140608,PM2.5,NA,NA,NA
India,Chhattisgarh,Chhal,"Nawapara SECL Colony, Chhal - CECB",03-06-2024 16:00:00,22.118125,83.140608,NO2,NA,NA,NA
India,Chhattisgarh,Korba,"Urja Nagar, Korba - CECB",03-06-2024 16:00:00,22.348441,82.549611,PM10,1,462,126
India,Chhattisgarh,Kunjemura,"OP Jindal School, Kunjemura - CECB",03-06-2024 16:00:00,22.126650,83.483212,NH3,2,3,2
India,Chhattisgarh,Kunjemura,"OP Jindal School, Kunjemura - CECB",03-06-2024 16:00:00,22.126650,83.483212,OZONE,7,53,32
India,Chhattisgarh,Milupara,"Govt. Higher Secondary School, Milupara - CECB",03-06-2024 16:00:00,22.1910172,83.5197009,PM2.5,NA,NA,NA
India,Chhattisgarh,Raipur,"AIIMS, Raipur - CECB",03-06-2024 16:00:00,21.258815,81.578979,CO,20,20,20
India,Chhattisgarh,Raipur,"Bhatagaon New ISBT, Raipur - CECB",03-06-2024 16:00:00,21.219665,81.630094,NO2,1,5,3
India,Chhattisgarh,Raipur,"Bhatagaon New ISBT, Raipur - CECB",03-06-2024 16:00:00,21.219665,81.630094,NH3,2,2,2
India,Chhattisgarh,Raipur,"Bhatagaon New ISBT, Raipur - CECB",03-06-2024 16:00:00,21.219665,81.630094,SO2,1,4,2
India,Chhattisgarh,Raipur,"Krishak Nagar, Raipur - CECB",03-06-2024 16:00:00,21.237755,81.705301,PM10,16,122,43
India,Chhattisgarh,Tumidih,"OP Jindal Industrial Park, Tumidih - CECB",03-06-2024 16:00:00,22.06631475,83.33820077,PM2.5,NA,NA,NA
India,Delhi,Delhi,"Anand Vihar, Delhi - DPCC",03-06-2024 16:00:00,28.647622,77.3158090,PM10,NA,NA,NA
India,Delhi,Delhi,"Anand Vihar, Delhi - DPCC",03-06-2024 16:00:00,28.647622,77.3158090,OZONE,25,56,42
India,Delhi,Delhi,"Ashok Vihar, Delhi - DPCC",03-06-2024 16:00:00,28.695381,77.181665,PM10,79,194,130
India,Delhi,Delhi,"Ashok Vihar, Delhi - DPCC",03-06-2024 16:00:00,28.695381,77.181665,NH3,15,20,17
India,Delhi,Delhi,"Burari Crossing, Delhi - IMD",03-06-2024 16:00:00,28.7256504,77.2011573,OZONE,26,84,62
India,Delhi,Delhi,"DTU, Delhi - CPCB",03-06-2024 16:00:00,28.7500499,77.1112615,PM2.5,69,239,130
India,Delhi,Delhi,"DTU, Delhi - CPCB",03-06-2024 16:00:00,28.7500499,77.1112615,CO,30,47,37
India,Delhi,Delhi,"Dr. Karni Singh Shooting Range, Delhi - DPCC",03-06-2024 16:00:00,28.498571,77.264840,PM2.5,53,171,80
India,Delhi,Delhi,"IHBAS, Dilshad Garden, Delhi - CPCB",03-06-2024 16:00:00,28.6811736,77.3025234,SO2,13,24,17
India,Delhi,Delhi,"IHBAS, Dilshad Garden, Delhi - CPCB",03-06-2024 16:00:00,28.6811736,77.3025234,OZONE,15,39,26
India,Delhi,Delhi,"ITO, Delhi - CPCB",03-06-2024 16:00:00,28.628624,77.241060,PM10,35,114,74
India,Delhi,Delhi,"Jawaharlal Nehru Stadium, Delhi - DPCC",03-06-2024 16:00:00,28.580280,77.233829,PM2.5,20,57,39
India,Delhi,Delhi,"Jawaharlal Nehru Stadium, Delhi - DPCC",03-06-2024 16:00:00,28.580280,77.233829,PM10,75,175,125
India,Delhi,Delhi,"Jawaharlal Nehru Stadium, Delhi - DPCC",03-06-2024 16:00:00,28.580280,77.233829,NH3,6,7,6
India,Delhi,Delhi,"Lodhi Road, Delhi - IITM",03-06-2024 16:00:00,28.588333,77.221667,PM2.5,25,457,97
India,Delhi,Delhi,"Lodhi Road, Delhi - IITM",03-06-2024 16:00:00,28.588333,77.221667,SO2,14,31,20
India,Delhi,Delhi,"Lodhi Road, Delhi - IMD",03-06-2024 16:00:00,28.5918245,77.2273074,CO,24,30,27
India,Delhi,Delhi,"Lodhi Road, Delhi - IMD",03-06-2024 16:00:00,28.5918245,77.2273074,OZONE,45,89,59
India,Delhi,Delhi,"Major Dhyan Chand National Stadium, Delhi - DPCC",03-06-2024 16:00:00,28.611281,77.237738,PM2.5,50,103,72
India,Delhi,Delhi,"Major Dhyan Chand National Stadium, Delhi - DPCC",03-06-2024 16:00:00,28.611281,77.237738,SO2,8,26,14
India,Delhi,Delhi,"Major Dhyan Chand National Stadium, Delhi - DPCC",03-06-2024 16:00:00,28.611281,77.237738,OZONE,13,198,185
India,Delhi,Delhi,"Mandir Marg, Delhi - DPCC",03-06-2024 16:00:00,28.636429,77.201067,NO2,71,90,78
India,Delhi,Delhi,"Mandir Marg, Delhi - DPCC",03-06-2024 16:00:00,28.636429,77.201067,OZONE,46,116,78
India,Delhi,Delhi,"NSIT Dwarka, Delhi - CPCB",03-06-2024 16:00:00,28.60909,77.0325413,CO,35,60,46
India,Delhi,Delhi,"Narela, Delhi - DPCC",03-06-2024 16:00:00,28.822836,77.101981,PM10,111,294,153
India,Delhi,Delhi,"Nehru Nagar, Delhi - DPCC",03-06-2024 16:00:00,28.567890,77.250515,PM10,80,194,133
India,Delhi,Delhi,"Nehru Nagar, Delhi - DPCC",03-06-2024 16:00:00,28.567890,77.250515,NH3,2,6,4
India,Delhi,Delhi,"Patparganj, Delhi - DPCC",03-06-2024 16:00:00,28.623763,77.287209,NH3,NA,NA,NA
India,Delhi,Delhi,"Punjabi Bagh, Delhi - DPCC",03-06-2024 16:00:00,28.674045,77.131023,NH3,5,6,6
India,Delhi,Delhi,"Pusa, Delhi - DPCC",03-06-2024 16:00:00,28.639652,77.146275,PM2.5,33,97,56
India,Delhi,Delhi,"Pusa, Delhi - DPCC",03-06-2024 16:00:00,28.639652,77.146275,NO2,53,151,74
India,Delhi,Delhi,"Pusa, Delhi - DPCC",03-06-2024 16:00:00,28.639652,77.146275,OZONE,17,94,63
India,Delhi,Delhi,"R K Puram, Delhi - DPCC",03-06-2024 16:00:00,28.563262,77.186937,NH3,4,22,6
India,Delhi,Delhi,"R K Puram, Delhi - DPCC",03-06-2024 16:00:00,28.563262,77.186937,SO2,4,29,16
India,Delhi,Delhi,"R K Puram, Delhi - DPCC",03-06-2024 16:00:00,28.563262,77.186937,CO,5,79,24
India,Delhi,Delhi,"Rohini, Delhi - DPCC",03-06-2024 16:00:00,28.732528,77.119920,PM2.5,42,253,88
India,Delhi,Delhi,"Sirifort, Delhi - CPCB",03-06-2024 16:00:00,28.5504249,77.2159377,NH3,20,29,26
India,Delhi,Delhi,"Sri Aurobindo Marg, Delhi - DPCC",03-06-2024 16:00:00,28.531346,77.190156,SO2,9,21,14
India,Delhi,Delhi,"Vivek Vihar, Delhi - DPCC",03-06-2024 16:00:00,28.672342,77.315260,CO,56,90,65
India,Delhi,Delhi,"Wazirpur, Delhi - DPCC",03-06-2024 16:00:00,28.699793,77.165453,PM2.5,45,170,86
India,Gujarat,Ahmedabad,"Chandkheda, Ahmedabad - IITM",03-06-2024 16:00:00,23.107969,72.574648,CO,26,28,28
India,Gujarat,Ahmedabad,"Maninagar, Ahmedabad - GPCB",03-06-2024 16:00:00,23.002657,72.591912,PM2.5,24,59,42
India,Gujarat,Ahmedabad,"Raikhad, Ahmedabad - IITM",03-06-2024 16:00:00,23.020509,72.579261,PM2.5,224,355,302
India,Gujarat,Ahmedabad,"Raikhad, Ahmedabad - IITM",03-06-2024 16:00:00,23.020509,72.579261,NO2,60,61,60
India,Gujarat,Ahmedabad,"SVPI Airport Hansol, Ahmedabad - IITM",03-06-2024 16:00:00,23.076793,72.627874,SO2,3,9,5
India,Gujarat,Ahmedabad,"SVPI Airport Hansol, Ahmedabad - IITM",03-06-2024 16:00:00,23.076793,72.627874,OZONE,27,71,56
India,Gujarat,Ahmedabad,"Sardar Vallabhbhai Patel Stadium, Ahmedabad - IITM",03-06-2024 16:00:00,23.043070,72.562968,CO,48,51,50
India,Gujarat,Ankleshwar,"GIDC, Ankleshwar - GPCB",03-06-2024 16:00:00,21.613267,73.010555,SO2,1,33,8
India,Gujarat,Ankleshwar,"GIDC, Ankleshwar - GPCB",03-06-2024 16:00:00,21.613267,73.010555,OZONE,22,30,28
India,Gujarat,Gandhinagar,"Sector-10, Gandhinagar - GPCB",03-06-2024 16:00:00,23.221714,72.654328,NO2,13,23,18
India,Gujarat,Gandhinagar,"Sector-10, Gandhinagar - GPCB",03-06-2024 16:00:00,23.221714,72.654328,OZONE,24,56,40
India,Gujarat,Surat,"Science Center, Surat - SMC",03-06-2024 16:00:00,21.170046,72.795405,NO2,14,24,20
India,Gujarat,Vapi,"Phase-1 GIDC, Vapi - GPCB",03-06-2024 16:00:00,20.362421,72.918013,PM2.5,NA,NA,NA
India,Gujarat,Vatva,"Phase-4 GIDC, Vatva - GPCB",03-06-2024 16:00:00,22.969611,72.643500,SO2,24,39,32
India,Haryana,Ambala,"Patti Mehar, Ambala - HSPCB",03-06-2024 16:00:00,30.379589,76.778328,OZONE,38,55,46
India,Haryana,Bahadurgarh,"Arya Nagar, Bahadurgarh - HSPCB",03-06-2024 16:00:00,28.6701,76.9254,CO,87,102,99
India,Haryana,Ballabgarh,"Nathu Colony, Ballabgarh - HSPCB",03-06-2024 16:00:00,28.3419248,77.319699,PM2.5,40,308,91
India,Haryana,Ballabgarh,"Nathu Colony, Ballabgarh - HSPCB",03-06-2024 16:00:00,28.3419248,77.319699,NO2,11,13,12
India,Haryana,Ballabgarh,"Nathu Colony, Ballabgarh - HSPCB",03-06-2024 16:00:00,28.3419248,77.319699,NH3,1,2,2
India,Haryana,Charkhi Dadri,"Mini Secretariat, Charkhi Dadri - HSPCB",03-06-2024 16:00:00,28.593883,76.270653,PM2.5,84,181,112
India,Haryana,Charkhi Dadri,"Mini Secretariat, Charkhi Dadri - HSPCB",03-06-2024 16:00:00,28.593883,76.270653,CO,26,112,53
India,Haryana,Charkhi Dadri,"Mini Secretariat, Charkhi Dadri - HSPCB",03-06-2024 16:00:00,28.593883,76.270653,OZONE,13,18,15
India,Haryana,Dharuhera,"Municipal Corporation Office, Dharuhera -  HSPCB",03-06-2024 16:00:00,28.206800,76.799700,PM10,13,112,83
India,Haryana,Faridabad,"New Industrial Town, Faridabad - HSPCB",03-06-2024 16:00:00,28.39072,77.30059,PM10,132,284,173
India,Haryana,Faridabad,"New Industrial Town, Faridabad - HSPCB",03-06-2024 16:00:00,28.39072,77.30059,OZONE,27,149,112
India,Haryana,Faridabad,"Sector 11, Faridabad - HSPCB",03-06-2024 16:00:00,28.376058,77.315741,PM2.5,112,383,236
India,Haryana,Faridabad,"Sector 11, Faridabad - HSPCB",03-06-2024 16:00:00,28.376058,77.315741,SO2,3,118,22
India,Haryana,Faridabad,"Sector 30, Faridabad - HSPCB",03-06-2024 16:00:00,28.4417,77.3217,NO2,4,4,4
India,Haryana,Faridabad,"Sector 30, Faridabad - HSPCB",03-06-2024 16:00:00,28.4417,77.3217,CO,16,52,16
India,Haryana,Faridabad,"Sector 30, Faridabad - HSPCB",03-06-2024 16:00:00,28.4417,77.3217,OZONE,16,65,49
India,Haryana,Faridabad,"Sector- 16A, Faridabad - HSPCB",03-06-2024 16:00:00,28.4088421,77.3099081,NO2,NA,NA,NA
India,Haryana,Faridabad,"Sector- 16A, Faridabad - HSPCB",03-06-2024 16:00:00,28.4088421,77.3099081,SO2,NA,NA,NA
India,Haryana,Fatehabad,"Huda Sector, Fatehabad - HSPCB",03-06-2024 16:00:00,29.503664,75.467934,NO2,29,31,30
India,Haryana,Fatehabad,"Huda Sector, Fatehabad - HSPCB",03-06-2024 16:00:00,29.503664,75.467934,NH3,9,11,10
India,Haryana,Fatehabad,"Huda Sector, Fatehabad - HSPCB",03-06-2024 16:00:00,29.503664,75.467934,SO2,1,18,8
India,Haryana,Gurugram,"NISE Gwal Pahari, Gurugram - IMD",03-06-2024 16:00:00,28.422681,77.148944,OZONE,13,90,62
India,Haryana,Gurugram,"Sector-51, Gurugram - HSPCB",03-06-2024 16:00:00,28.4227,77.0667,PM10,115,155,133
India,Haryana,Gurugram,"Teri Gram, Gurugram - HSPCB",03-06-2024 16:00:00,28.4275,77.1465,PM2.5,NA,NA,NA
India,Haryana,Gurugram,"Vikas Sadan, Gurugram - HSPCB",03-06-2024 16:00:00,28.4501238,77.0263051,CO,54,148,118
India,Haryana,Hisar,"Urban Estate-II, Hisar - HSPCB",03-06-2024 16:00:00,29.140560,75.744941,NH3,4,4,4
India,Haryana,Hisar,"Urban Estate-II, Hisar - HSPCB",03-06-2024 16:00:00,29.140560,75.744941,CO,25,39,28
India,Haryana,Jind,"Police Lines, Jind - HSPCB",03-06-2024 16:00:00,29.307814,76.337619,PM10,99,156,124
India,Haryana,Jind,"Police Lines, Jind - HSPCB",03-06-2024 16:00:00,29.307814,76.337619,NO2,1,106,6
India,Haryana,Jind,"Police Lines, Jind - HSPCB",03-06-2024 16:00:00,29.307814,76.337619,NH3,35,48,4
India,Haryana,Kaithal,"Rishi Nagar, Kaithal - HSPCB",03-06-2024 16:00:00,29.8006,76.4155,CO,3,52,27
India,Haryana,Karnal,"Sector-12, Karnal - HSPCB",03-06-2024 16:00:00,29.695300,77.002700,PM2.5,158,199,172
India,Haryana,Karnal,"Sector-12, Karnal - HSPCB",03-06-2024 16:00:00,29.695300,77.002700,NH3,10,13,11
India,Haryana,Kurukshetra,"Sector-7, Kurukshetra - HSPCB",03-06-2024 16:00:00,29.966942,76.875879,CO,6,25,19
India,Haryana,Kurukshetra,"Sector-7, Kurukshetra - HSPCB",03-06-2024 16:00:00,29.966942,76.875879,OZONE,45,93,60
India,Haryana,Mandikhera,"General Hospital, Mandikhera - HSPCB",03-06-2024 16:00:00,27.9002,76.9938,PM10,50,102,77
India,Haryana,Mandikhera,"General Hospital, Mandikhera - HSPCB",03-06-2024 16:00:00,27.9002,76.9938,NH3,16,20,18
India,Haryana,Mandikhera,"General Hospital, Mandikhera - HSPCB",03-06-2024 16:00:00,27.9002,76.9938,SO2,29,37,34
India,Haryana,Mandikhera,"General Hospital, Mandikhera - HSPCB",03-06-2024 16:00:00,27.9002,76.9938,CO,17,28,26
India,Haryana,Manesar,"Sector-2 IMT, Manesar - HSPCB",03-06-2024 16:00:00,28.360699,76.936090,PM10,34,124,65
India,Haryana,Manesar,"Sector-2 IMT, Manesar - HSPCB",03-06-2024 16:00:00,28.360699,76.936090,SO2,1,113,28
India,Haryana,Palwal,"Shyam Nagar, Palwal - HSPCB",03-06-2024 16:00:00,28.1485564,77.3320667,NH3,8,9,9
India,Haryana,Palwal,"Shyam Nagar, Palwal - HSPCB",03-06-2024 16:00:00,28.1485564,77.3320667,SO2,1,16,9
India,Haryana,Panchkula,"Sector-6, Panchkula - HSPCB ",03-06-2024 16:00:00,30.7057778,76.8531805555555,NO2,10,11,10
India,Haryana,Panipat,"Sector-18, Panipat - HSPCB",03-06-2024 16:00:00,29.432304,76.972765,PM10,101,102,101
India,Haryana,Sirsa,"F-Block, Sirsa - HSPCB",03-06-2024 16:00:00,29.536400,75.015800,NH3,12,13,13
India,Haryana,Sirsa,"F-Block, Sirsa - HSPCB",03-06-2024 16:00:00,29.536400,75.015800,OZONE,20,73,40
India,Haryana,Yamuna Nagar,"Gobind Pura, Yamuna Nagar - HSPCB",03-06-2024 16:00:00,30.1480566,77.2893471,SO2,NA,NA,NA
India,Jharkhand,Dhanbad,"Kalakusuma, Dhanbad - DMC",03-06-2024 16:00:00,23.811548,86.481238,NO2,NA,NA,NA
India,Jharkhand,Dhanbad,"Kalakusuma, Dhanbad - DMC",03-06-2024 16:00:00,23.811548,86.481238,CO,130,131,130
India,Jharkhand,Dhanbad,"Kalakusuma, Dhanbad - DMC",03-06-2024 16:00:00,23.811548,86.481238,OZONE,37,37,37
India,Jharkhand,Dhanbad,"Sardar Patel Nagar, Dhanbad - JSPCB",03-06-2024 16:00:00,23.80569,86.44268,SO2,NA,NA,NA
India,Karnataka,Bagalkot,"Vidayagiri, Bagalkot - KSPCB",03-06-2024 16:00:00,16.172806,75.659694,PM2.5,NA,NA,NA
India,Karnataka,Belgaum,"Ramteerth Nagar, Belgaum - KSPCB",03-06-2024 16:00:00,15.888653,74.541751,PM2.5,12,22,16
India,Karnataka,Bengaluru,"Bapuji Nagar, Bengaluru - KSPCB",03-06-2024 16:00:00,12.951913,77.539784,PM2.5,7,137,36
India,Karnataka,Bengaluru,"Kasturi Nagar, Bengaluru - KSPCB",03-06-2024 16:00:00,13.003872,77.664217,NH3,3,4,4
India,Karnataka,Bengaluru,"Sanegurava Halli, Bengaluru - KSPCB",03-06-2024 16:00:00,12.990328,77.5431385,NO2,21,31,24
India,Karnataka,Bengaluru,"Sanegurava Halli, Bengaluru - KSPCB",03-06-2024 16:00:00,12.990328,77.5431385,CO,12,156,53
India,Karnataka,Bidar,"Naubad, Bidar - KSPCB",03-06-2024 16:00:00,17.930306,77.482194,NO2,NA,NA,NA
India,Karnataka,Bidar,"Naubad, Bidar - KSPCB",03-06-2024 16:00:00,17.930306,77.482194,CO,74,82,77
India,Karnataka,Chamarajanagar,"Urban, Chamarajanagar - KSPCB",03-06-2024 16:00:00,11.55358,76.55521,SO2,2,8,4
India,Karnataka,Chikkaballapur,"Chikkaballapur Rural, Chikkaballapur - KSPCB",03-06-2024 16:00:00,13.428828,77.731418,NH3,1,1,1
India,Karnataka,Chikkaballapur,"Chikkaballapur Rural, Chikkaballapur - KSPCB",03-06-2024 16:00:00,13.428828,77.731418,SO2,20,25,22
India,Karnataka,Chikkaballapur,"Chikkaballapur Rural, Chikkaballapur - KSPCB",03-06-2024 16:00:00,13.428828,77.731418,OZONE,24,25,25
India,Karnataka,Dharwad,"Kalabhavan, Dharwad - KSPCB",03-06-2024 16:00:00,15.459706,75.008381,PM2.5,28,70,47
India,Karnataka,Gadag,"Panchal Nagar, Gadag - KSPCB",03-06-2024 16:00:00,15.411456,75.638133,PM2.5,3,28,16
India,Karnataka,Gadag,"Panchal Nagar, Gadag - KSPCB",03-06-2024 16:00:00,15.411456,75.638133,CO,46,54,50
India,Karnataka,Haveri,"Ashwini Nagar, Haveri - KSPCB",03-06-2024 16:00:00,14.791800,75.389600,CO,37,38,38
India,Karnataka,Hubballi,"Lingaraj Nagar, Hubballi - KSPCB",03-06-2024 16:00:00,15.3714823,75.1160168,PM10,61,82,74
India,Karnataka,Hubballi,"Lingaraj Nagar, Hubballi - KSPCB",03-06-2024 16:00:00,15.3714823,75.1160168,NO2,13,21,15
India,Karnataka,Hubballi,"Lingaraj Nagar, Hubballi - KSPCB",03-06-2024 16:00:00,15.3714823,75.1160168,CO,2,26,13
India,Karnataka,Hubballi,"Lingaraj Nagar, Hubballi - KSPCB",03-06-2024 16:00:00,15.3714823,75.1160168,OZONE,8,38,24
India,Karnataka,Kalaburagi,"Mahatma Basaveswar Colony, Kalaburgi - KSPCB",03-06-2024 16:00:00,17.336318,76.847397,PM10,15,63,33
India,Karnataka,Kalaburagi,"Mahatma Basaveswar Colony, Kalaburgi - KSPCB",03-06-2024 16:00:00,17.336318,76.847397,SO2,3,13,8
India,Karnataka,Karwar,"KHB Colony, Karwar - KSPCB",03-06-2024 16:00:00,14.816666,74.141003,CO,9,10,10
India,Karnataka,Koppal,"Diwator Nagar, Koppal - KSPCB",03-06-2024 16:00:00,15.347630,76.181767,OZONE,12,25,19
India,Karnataka,Madikeri,"Stuart Hill, Madikeri - KSPCB",03-06-2024 16:00:00,12.415911,75.735050,PM10,22,42,34
India,Karnataka,Madikeri,"Stuart Hill, Madikeri - KSPCB",03-06-2024 16:00:00,12.415911,75.735050,SO2,4,4,4
India,Karnataka,Mangalore,"Kadri, Mangalore - KSPCB",03-06-2024 16:00:00,12.889250,74.853000,PM2.5,NA,NA,NA
India,Karnataka,Mangalore,"Kadri, Mangalore - KSPCB",03-06-2024 16:00:00,12.889250,74.853000,SO2,30,31,30
India,Karnataka,Mangalore,"Kadri, Mangalore - KSPCB",03-06-2024 16:00:00,12.889250,74.853000,OZONE,31,32,32
India,Karnataka,Mysuru,"Hebbal 1st Stage, Mysuru - KSPCB",03-06-2024 16:00:00,12.21041,76.37376,PM2.5,8,49,21
India,Karnataka,Raichur,"Haji Colony, Raichur - KSPCB",03-06-2024 16:00:00,16.208139,77.348417,SO2,NA,NA,NA
India,Karnataka,Raichur,"Haji Colony, Raichur - KSPCB",03-06-2024 16:00:00,16.208139,77.348417,CO,76,102,99
India,Karnataka,Ramanagara,"Vijay Nagar, Ramanagara - KSPCB",03-06-2024 16:00:00,12.733409,77.298051,PM2.5,NA,NA,NA
India,Karnataka,Ramanagara,"Vijay Nagar, Ramanagara - KSPCB",03-06-2024 16:00:00,12.733409,77.298051,OZONE,18,36,29
India,Karnataka,Shivamogga,"Vinoba Nagara, Shivamogga - KSPCB",03-06-2024 16:00:00,13.940000,75.555917,NO2,18,62,28
India,Karnataka,Shivamogga,"Vinoba Nagara, Shivamogga - KSPCB",03-06-2024 16:00:00,13.940000,75.555917,SO2,2,11,5
India,Karnataka,Shivamogga,"Vinoba Nagara, Shivamogga - KSPCB",03-06-2024 16:00:00,13.940000,75.555917,OZONE,4,62,29
India,Karnataka,Tumakuru,"Thimmalapura, Tumakuru - KSPCB",03-06-2024 16:00:00,13.377516,77.099072,PM10,46,137,94
India,Karnataka,Tumakuru,"Thimmalapura, Tumakuru - KSPCB",03-06-2024 16:00:00,13.377516,77.099072,SO2,5,21,8
India,Karnataka,Udupi,"Brahmagiri, Udupi - KSPCB",03-06-2024 16:00:00,13.34194444,74.74694444,NO2,27,29,27
India,Karnataka,Udupi,"Brahmagiri, Udupi - KSPCB",03-06-2024 16:00:00,13.34194444,74.74694444,NH3,1,1,1
India,Karnataka,Udupi,"Brahmagiri, Udupi - KSPCB",03-06-2024 16:00:00,13.34194444,74.74694444,SO2,16,18,17
India,Karnataka,Udupi,"Brahmagiri, Udupi - KSPCB",03-06-2024 16:00:00,13.34194444,74.74694444,CO,49,57,54
