country,state,city,station,last_update,latitude,longitude,pollutant_id,pollutant_min,pollutant_max,pollutant_avg
India,Andhra_Pradesh,Amaravati,"Secretariat, Amaravati - APPCB",29-06-2024 13:00:00,16.5150833,80.5181667,NO2,5,28,10
India,Andhra_Pradesh,Amaravati,"Secretariat, Amaravati - APPCB",29-06-2024 13:00:00,16.5150833,80.5181667,NH3,1,4,3
India,Andhra_Pradesh,Amaravati,"Secretariat, Amaravati - APPCB",29-06-2024 13:00:00,16.5150833,80.5181667,SO2,16,22,18
India,Andhra_Pradesh,Anantapur,"Gulzarpet, Anantapur - APPCB",29-06-2024 13:00:00,14.675886,77.593027,NH3,4,4,4
India,Andhra_Pradesh,Anantapur,"Gulzarpet, Anantapur - APPCB",29-06-2024 13:00:00,14.675886,77.593027,SO2,3,5,4
India,Andhra_Pradesh,Chittoor,"Gangineni Cheruvu, Chittoor - APPCB",29-06-2024 13:00:00,13.204880,79.097889,PM2.5,NA,NA,NA
India,Andhra_Pradesh,Chittoor,"Gangineni Cheruvu, Chittoor - APPCB",29-06-2024 13:00:00,13.204880,79.097889,SO2,NA,NA,NA
India,Andhra_Pradesh,Chittoor,"Gangineni Cheruvu, Chittoor - APPCB",29-06-2024 13:00:00,13.204880,79.097889,CO,30,30,30
India,Andhra_Pradesh,Kadapa,"Yerramukkapalli, Kadapa - APPCB",29-06-2024 13:00:00,14.465052,78.824187,PM2.5,NA,NA,NA
India,Andhra_Pradesh,Kadapa,"Yerramukkapalli, Kadapa - APPCB",29-06-2024 13:00:00,14.465052,78.824187,SO2,NA,NA,NA
India,Andhra_Pradesh,Rajamahendravaram,"Anand Kala Kshetram, Rajamahendravaram - APPCB",29-06-2024 13:00:00,16.9872867,81.7363176,PM10,11,59,35
India,Andhra_Pradesh,Tirupati,"Tirumala, Tirupati - APPCB",29-06-2024 13:00:00,13.67,79.35,NH3,1,2,1
India,Andhra_Pradesh,Tirupati,"Vaikuntapuram, Tirupati - APPCB",29-06-2024 13:00:00,13.615387,79.409230,PM2.5,NA,NA,NA
India,Andhra_Pradesh,Tirupati,"Vaikuntapuram, Tirupati - APPCB",29-06-2024 13:00:00,13.615387,79.409230,OZONE,25,38,29
India,Andhra_Pradesh,Vijayawada,"Rajiv Gandhi Park, Vijayawada - APPCB",29-06-2024 13:00:00,16.509717,80.612222,NO2,28,42,33
India,Andhra_Pradesh,Vijayawada,"Rajiv Nagar, Vijayawada - APPCB",29-06-2024 13:00:00,16.554731,80.649110,NO2,10,10,10
India,Arunachal_Pradesh,Naharlagun,"Naharlagun, Naharlagun - APSPCB",29-06-2024 13:00:00,27.103358,93.679645,NO2,3,3,3
India,Assam,Byrnihat,"Central Academy for SFS, Byrnihat - PCBA",29-06-2024 13:00:00,26.071318,91.87488,PM10,NA,NA,NA
India,Assam,Byrnihat,"Central Academy for SFS, Byrnihat - PCBA",29-06-2024 13:00:00,26.071318,91.87488,NH3,13,17,15
India,Assam,Guwahati,"LGBI Airport, Guwahati - PCBA",29-06-2024 13:00:00,26.10887,91.589544,OZONE,21,26,24
India,Assam,Nagaon,"Christianpatty, Nagaon - PCBA",29-06-2024 13:00:00,26.349082,92.68449,NO2,1,22,5
India,Assam,Nalbari,"Bata Chowk, Nalbari - PCBA",29-06-2024 13:00:00,26.446912,91.439057,PM2.5,15,50,26
India,Assam,Silchar,"Tarapur, Silchar - PCBA",29-06-2024 13:00:00,24.82827,92.79525,PM10,44,49,46
India,Assam,Silchar,"Tarapur, Silchar - PCBA",29-06-2024 13:00:00,24.82827,92.79525,NO2,11,11,11
India,Assam,Sivasagar,"Girls College, Sivasagar - PCBA",29-06-2024 13:00:00,26.987634,94.636574,PM10,44,62,50
India,Bihar,Araria,"Kharahiya Basti, Araria - BSPCB",29-06-2024 13:00:00,26.146529,87.454184,PM2.5,NA,NA,NA
India,Bihar,Araria,"Kharahiya Basti, Araria - BSPCB",29-06-2024 13:00:00,26.146529,87.454184,PM10,NA,NA,NA
India,Bihar,Araria,"Kharahiya Basti, Araria - BSPCB",29-06-2024 13:00:00,26.146529,87.454184,NO2,NA,NA,NA
India,Bihar,Arrah,"New DM Office, Arrah - BSPCB",29-06-2024 13:00:00,25.5626095,84.663264,CO,12,30,18
India,Bihar,Aurangabad,"Gurdeo Nagar, Aurangabad - BSPCB",29-06-2024 13:00:00,24.75746,84.366208,PM10,20,67,35
India,Bihar,Aurangabad,"Gurdeo Nagar, Aurangabad - BSPCB",29-06-2024 13:00:00,24.75746,84.366208,CO,8,41,28
India,Bihar,Bettiah,"Kamalnath Nagar, Bettiah - BSPCB",29-06-2024 13:00:00,26.80365,84.51954,OZONE,2,9,6
India,Bihar,Bhagalpur,"DM Office_Kachari Chowk, Bhagalpur - BSPCB",29-06-2024 13:00:00,25.251013,86.989001,PM2.5,18,78,44
India,Bihar,Bhagalpur,"DM Office_Kachari Chowk, Bhagalpur - BSPCB",29-06-2024 13:00:00,25.251013,86.989001,SO2,18,20,19
India,Bihar,Bhagalpur,"Mayaganj, Bhagalpur - BSPCB",29-06-2024 13:00:00,25.265194,87.012947,SO2,24,36,31
India,Bihar,Bhagalpur,"Mayaganj, Bhagalpur - BSPCB",29-06-2024 13:00:00,25.265194,87.012947,OZONE,8,16,10
India,Bihar,Buxar,"Charitra Van, Buxar - BSPCB (Formerly known as Central Jail)",29-06-2024 13:00:00,25.567520,83.966379,PM2.5,2,283,85
India,Bihar,Chhapra,"Darshan Nagar, Chhapra - BSPCB",29-06-2024 13:00:00,25.7808257,84.7446768,NH3,5,11,9
India,Bihar,Gaya,"Collectorate, Gaya - BSPCB",29-06-2024 13:00:00,24.7955,84.9994,NO2,8,12,10
India,Bihar,Gaya,"Kareemganj, Gaya - BSPCB",29-06-2024 13:00:00,24.792403,84.992416,OZONE,14,107,48
India,Bihar,Gaya,"SFTI Kusdihra, Gaya - BSPCB",29-06-2024 13:00:00,24.762518,84.982348,PM10,23,50,34
India,Bihar,Gaya,"SFTI Kusdihra, Gaya - BSPCB",29-06-2024 13:00:00,24.762518,84.982348,OZONE,20,78,33
India,Bihar,Hajipur,"Industrial Area, Hajipur - BSPCB",29-06-2024 13:00:00,25.697189,85.245900,PM10,52,95,69
India,Bihar,Hajipur,"Industrial Area, Hajipur - BSPCB",29-06-2024 13:00:00,25.697189,85.245900,NH3,10,20,14
India,Bihar,Katihar,"Mirchaibari, Katihar - BSPCB",29-06-2024 13:00:00,25.560083,87.553265,OZONE,4,4,4
India,Bihar,Kishanganj,"SDM Office_Khagra, Kishanganj - BSPCB",29-06-2024 13:00:00,26.0881305,87.93840336,PM10,NA,NA,NA
India,Bihar,Kishanganj,"SDM Office_Khagra, Kishanganj - BSPCB",29-06-2024 13:00:00,26.0881305,87.93840336,NO2,43,45,44
India,Bihar,Kishanganj,"SDM Office_Khagra, Kishanganj - BSPCB",29-06-2024 13:00:00,26.0881305,87.93840336,OZONE,34,40,37
India,Bihar,Manguraha,"Forest Rest House, Manguraha - BSPCB",29-06-2024 13:00:00,27.308328,84.531742,PM10,NA,NA,NA
India,Bihar,Motihari,"Gandak Colony, Motihari - BSPCB",29-06-2024 13:00:00,26.63086,84.90051,PM2.5,10,58,39
India,Bihar,Motihari,"Gandak Colony, Motihari - BSPCB",29-06-2024 13:00:00,26.63086,84.90051,PM10,13,78,51
India,Bihar,Motihari,"Gandak Colony, Motihari - BSPCB",29-06-2024 13:00:00,26.63086,84.90051,NO2,4,28,12
India,Bihar,Munger,"Town Hall, Munger - BSPCB",29-06-2024 13:00:00,25.376776,86.471523,PM2.5,NA,NA,NA
India,Bihar,Munger,"Town Hall, Munger - BSPCB",29-06-2024 13:00:00,25.376776,86.471523,OZONE,1,14,3
India,Bihar,Muzaffarpur,"Buddha Colony, Muzaffarpur - BSPCB",29-06-2024 13:00:00,26.11442,85.39813,PM2.5,40,59,50
India,Bihar,Muzaffarpur,"Buddha Colony, Muzaffarpur - BSPCB",29-06-2024 13:00:00,26.11442,85.39813,NO2,12,43,20
India,Bihar,Muzaffarpur,"Buddha Colony, Muzaffarpur - BSPCB",29-06-2024 13:00:00,26.11442,85.39813,OZONE,34,85,52
India,Bihar,Muzaffarpur,"MIT-Daudpur Kothi, Muzaffarpur - BSPCB",29-06-2024 13:00:00,26.1403345,85.3650192,PM2.5,NA,NA,NA
India,Bihar,Muzaffarpur,"MIT-Daudpur Kothi, Muzaffarpur - BSPCB",29-06-2024 13:00:00,26.1403345,85.3650192,CO,NA,NA,NA
India,Bihar,Muzaffarpur,"Muzaffarpur Collectorate, Muzaffarpur - BSPCB",29-06-2024 13:00:00,26.1209,85.3647,SO2,5,8,6
India,Bihar,Muzaffarpur,"Muzaffarpur Collectorate, Muzaffarpur - BSPCB",29-06-2024 13:00:00,26.1209,85.3647,CO,21,45,21
India,Bihar,Patna,"DRM Office Danapur, Patna - BSPCB",29-06-2024 13:00:00,25.586562,85.043586,NO2,16,28,20
India,Bihar,Patna,"DRM Office Danapur, Patna - BSPCB",29-06-2024 13:00:00,25.586562,85.043586,CO,13,40,27
India,Bihar,Patna,"IGSC Planetarium Complex, Patna - BSPCB",29-06-2024 13:00:00,25.610369,85.132568,SO2,3,6,5
India,Bihar,Patna,"IGSC Planetarium Complex, Patna - BSPCB",29-06-2024 13:00:00,25.610369,85.132568,CO,7,15,12
India,Bihar,Patna,"Rajbansi Nagar, Patna - BSPCB",29-06-2024 13:00:00,25.599486,85.113666,SO2,1,12,6
India,Bihar,Patna,"Rajbansi Nagar, Patna - BSPCB",29-06-2024 13:00:00,25.599486,85.113666,CO,17,48,25
India,Bihar,Patna,"Samanpura, Patna - BSPCB",29-06-2024 13:00:00,25.596727,85.085624,SO2,3,6,5
India,Bihar,Patna,"Samanpura, Patna - BSPCB",29-06-2024 13:00:00,25.596727,85.085624,OZONE,24,88,49
India,Bihar,Purnia,"Mariam Nagar, Purnia - BSPCB",29-06-2024 13:00:00,25.366336,87.117468,NO2,5,6,5
India,Bihar,Rajgir,"Dangi Tola, Rajgir - BSPCB",29-06-2024 13:00:00,25.03280,85.41948,PM10,1,57,26
India,Bihar,Saharsa,"Police Line, Saharsa - BSPCB",29-06-2024 13:00:00,25.892357,86.590325,PM10,43,118,70
India,Bihar,Samastipur,"DM Office_Kasipur, Samastipur - BSPCB",29-06-2024 13:00:00,25.859655,85.77944,SO2,NA,NA,NA
India,Bihar,Siwan,"Chitragupta Nagar, Siwan - BSPCB",29-06-2024 13:00:00,26.2271665,84.3570427,NH3,2,9,4
India,Bihar,Siwan,"Chitragupta Nagar, Siwan - BSPCB",29-06-2024 13:00:00,26.2271665,84.3570427,CO,52,105,81
India,Chandigarh,Chandigarh,"Sector 22, Chandigarh - CPCC",29-06-2024 13:00:00,30.735567,76.775714,PM10,54,126,86
India,Chandigarh,Chandigarh,"Sector-25, Chandigarh - CPCC",29-06-2024 13:00:00,30.751462,76.762879,NH3,11,19,14
India,Chandigarh,Chandigarh,"Sector-53, Chandigarh - CPCC",29-06-2024 13:00:00,30.719859,76.738637,SO2,7,39,14
India,Chhattisgarh,Bhilai,"32Bungalows, Bhilai - CECB",29-06-2024 13:00:00,21.194815,81.314770,OZONE,7,13,8
India,Chhattisgarh,Bhilai,"Civic Center, Bhilai - Bhilai Steel Plant",29-06-2024 13:00:00,21.185571,81.343175,CO,34,50,41
India,Chhattisgarh,Bhilai,"Hathkhoj, Bhilai - CECB",29-06-2024 13:00:00,21.224231,81.408350,PM2.5,NA,NA,NA
India,Chhattisgarh,Bhilai,"Hathkhoj, Bhilai - CECB",29-06-2024 13:00:00,21.224231,81.408350,NO2,NA,NA,NA
India,Chhattisgarh,Bhilai,"Hathkhoj, Bhilai - CECB",29-06-2024 13:00:00,21.224231,81.408350,CO,7,16,9
India,Chhattisgarh,Bilaspur,"Mangala, Bilaspur - NTPC",29-06-2024 13:00:00,22.08815,82.13737,CO,34,44,38
India,Chhattisgarh,Korba,"Rampur, Korba - CECB",29-06-2024 13:00:00,22.368195,82.746431,PM2.5,4,61,25
India,Chhattisgarh,Korba,"Rampur, Korba - CECB",29-06-2024 13:00:00,22.368195,82.746431,CO,22,40,29
India,Chhattisgarh,Korba,"Urja Nagar, Korba - CECB",29-06-2024 13:00:00,22.348441,82.549611,PM2.5,1,19,6
India,Chhattisgarh,Korba,"Urja Nagar, Korba - CECB",29-06-2024 13:00:00,22.348441,82.549611,PM10,4,403,64
India,Chhattisgarh,Korba,"Urja Nagar, Korba - CECB",29-06-2024 13:00:00,22.348441,82.549611,CO,24,81,31
India,Chhattisgarh,Kunjemura,"OP Jindal School, Kunjemura - CECB",29-06-2024 13:00:00,22.126650,83.483212,PM10,6,66,31
India,Chhattisgarh,Kunjemura,"OP Jindal School, Kunjemura - CECB",29-06-2024 13:00:00,22.126650,83.483212,NO2,11,57,25
India,Chhattisgarh,Kunjemura,"OP Jindal School, Kunjemura - CECB",29-06-2024 13:00:00,22.126650,83.483212,NH3,2,4,3
India,Chhattisgarh,Raipur,"AIIMS, Raipur - CECB",29-06-2024 13:00:00,21.258815,81.578979,OZONE,1,4,2
India,Chhattisgarh,Raipur,"Bhatagaon New ISBT, Raipur - CECB",29-06-2024 13:00:00,21.219665,81.630094,SO2,4,6,5
India,Chhattisgarh,Raipur,"Bhatagaon New ISBT, Raipur - CECB",29-06-2024 13:00:00,21.219665,81.630094,CO,15,34,17
India,Chhattisgarh,Raipur,"Bhatagaon New ISBT, Raipur - CECB",29-06-2024 13:00:00,21.219665,81.630094,OZONE,3,7,4
India,Chhattisgarh,Raipur,"Krishak Nagar, Raipur - CECB",29-06-2024 13:00:00,21.237755,81.705301,NO2,5,5,5
India,Chhattisgarh,Raipur,"Krishak Nagar, Raipur - CECB",29-06-2024 13:00:00,21.237755,81.705301,NH3,1,1,1
India,Chhattisgarh,Raipur,"Siltara Phase-II, Raipur - CECB",29-06-2024 13:00:00,21.371751,81.664929,PM2.5,65,227,114
India,Chhattisgarh,Raipur,"Siltara Phase-II, Raipur - CECB",29-06-2024 13:00:00,21.371751,81.664929,NH3,3,3,3
India,Chhattisgarh,Raipur,"Siltara Phase-II, Raipur - CECB",29-06-2024 13:00:00,21.371751,81.664929,SO2,8,14,11
India,Chhattisgarh,Raipur,"Siltara Phase-II, Raipur - CECB",29-06-2024 13:00:00,21.371751,81.664929,OZONE,3,5,3
India,Chhattisgarh,Tumidih,"OP Jindal Industrial Park, Tumidih - CECB",29-06-2024 13:00:00,22.06631475,83.33820077,PM10,5,64,24
India,Chhattisgarh,Tumidih,"OP Jindal Industrial Park, Tumidih - CECB",29-06-2024 13:00:00,22.06631475,83.33820077,NH3,1,2,1
India,Delhi,Delhi,"Alipur, Delhi - DPCC",29-06-2024 13:00:00,28.815329,77.153010,NH3,6,9,7
India,Delhi,Delhi,"Ashok Vihar, Delhi - DPCC",29-06-2024 13:00:00,28.695381,77.181665,NH3,4,11,8
India,Delhi,Delhi,"Ashok Vihar, Delhi - DPCC",29-06-2024 13:00:00,28.695381,77.181665,CO,14,81,35
India,Delhi,Delhi,"Aya Nagar, Delhi - IMD",29-06-2024 13:00:00,28.4706914,77.1099364,PM10,21,128,76
India,Delhi,Delhi,"Aya Nagar, Delhi - IMD",29-06-2024 13:00:00,28.4706914,77.1099364,NO2,6,17,11
India,Delhi,Delhi,"Bawana, Delhi - DPCC",29-06-2024 13:00:00,28.776200,77.051074,PM2.5,10,311,118
India,Delhi,Delhi,"Bawana, Delhi - DPCC",29-06-2024 13:00:00,28.776200,77.051074,PM10,14,195,105
India,Delhi,Delhi,"Bawana, Delhi - DPCC",29-06-2024 13:00:00,28.776200,77.051074,NO2,5,37,22
India,Delhi,Delhi,"Bawana, Delhi - DPCC",29-06-2024 13:00:00,28.776200,77.051074,NH3,9,32,14
India,Delhi,Delhi,"Bawana, Delhi - DPCC",29-06-2024 13:00:00,28.776200,77.051074,CO,40,88,60
India,Delhi,Delhi,"Burari Crossing, Delhi - IMD",29-06-2024 13:00:00,28.7256504,77.2011573,PM2.5,20,247,93
India,Delhi,Delhi,"Burari Crossing, Delhi - IMD",29-06-2024 13:00:00,28.7256504,77.2011573,NO2,4,13,9
India,Delhi,Delhi,"Burari Crossing, Delhi - IMD",29-06-2024 13:00:00,28.7256504,77.2011573,OZONE,1,89,40
India,Delhi,Delhi,"CRRI Mathura Road, Delhi - IMD",29-06-2024 13:00:00,28.5512005,77.2735737,CO,26,54,45
India,Delhi,Delhi,"CRRI Mathura Road, Delhi - IMD",29-06-2024 13:00:00,28.5512005,77.2735737,OZONE,7,60,8
India,Delhi,Delhi,"Dwarka-Sector 8, Delhi - DPCC ",29-06-2024 13:00:00,28.5710274,77.0719006,NH3,5,25,9
India,Delhi,Delhi,"Dwarka-Sector 8, Delhi - DPCC ",29-06-2024 13:00:00,28.5710274,77.0719006,OZONE,6,37,10
India,Delhi,Delhi,"IGI Airport (T3), Delhi - IMD",29-06-2024 13:00:00,28.5627763,77.1180053,PM2.5,31,175,69
India,Delhi,Delhi,"IHBAS, Dilshad Garden, Delhi - CPCB",29-06-2024 13:00:00,28.6811736,77.3025234,PM10,39,154,89
India,Delhi,Delhi,"ITO, Delhi - CPCB",29-06-2024 13:00:00,28.628624,77.241060,OZONE,18,31,24
India,Delhi,Delhi,"Jawaharlal Nehru Stadium, Delhi - DPCC",29-06-2024 13:00:00,28.580280,77.233829,SO2,2,18,9
India,Delhi,Delhi,"Jawaharlal Nehru Stadium, Delhi - DPCC",29-06-2024 13:00:00,28.580280,77.233829,CO,26,75,38
India,Delhi,Delhi,"Lodhi Road, Delhi - IMD",29-06-2024 13:00:00,28.5918245,77.2273074,NO2,NA,NA,NA
India,Delhi,Delhi,"Major Dhyan Chand National Stadium, Delhi - DPCC",29-06-2024 13:00:00,28.611281,77.237738,NO2,16,82,45
India,Delhi,Delhi,"Mundka, Delhi - DPCC",29-06-2024 13:00:00,28.684678,77.076574,NO2,23,99,69
India,Delhi,Delhi,"Najafgarh, Delhi - DPCC",29-06-2024 13:00:00,28.570173,76.933762,PM10,19,197,71
India,Delhi,Delhi,"Najafgarh, Delhi - DPCC",29-06-2024 13:00:00,28.570173,76.933762,NH3,8,22,13
India,Delhi,Delhi,"Narela, Delhi - DPCC",29-06-2024 13:00:00,28.822836,77.101981,OZONE,57,171,91
India,Delhi,Delhi,"Nehru Nagar, Delhi - DPCC",29-06-2024 13:00:00,28.567890,77.250515,NH3,2,3,3
India,Delhi,Delhi,"Nehru Nagar, Delhi - DPCC",29-06-2024 13:00:00,28.567890,77.250515,CO,52,100,67
India,Delhi,Delhi,"New Moti Bagh, Delhi - MHUA",29-06-2024 13:00:00,28.57834,77.18400,NO2,5,26,12
India,Delhi,Delhi,"North Campus, DU, Delhi - IMD",29-06-2024 13:00:00,28.6573814,77.1585447,PM2.5,NA,NA,NA
India,Delhi,Delhi,"North Campus, DU, Delhi - IMD",29-06-2024 13:00:00,28.6573814,77.1585447,OZONE,7,18,7
India,Delhi,Delhi,"Okhla Phase-2, Delhi - DPCC",29-06-2024 13:00:00,28.530785,77.271255,PM10,48,188,117
India,Delhi,Delhi,"Okhla Phase-2, Delhi - DPCC",29-06-2024 13:00:00,28.530785,77.271255,NH3,10,26,17
India,Delhi,Delhi,"Okhla Phase-2, Delhi - DPCC",29-06-2024 13:00:00,28.530785,77.271255,SO2,6,19,11
India,Delhi,Delhi,"Patparganj, Delhi - DPCC",29-06-2024 13:00:00,28.623763,77.287209,PM10,45,334,112
India,Delhi,Delhi,"Punjabi Bagh, Delhi - DPCC",29-06-2024 13:00:00,28.674045,77.131023,CO,24,62,42
India,Delhi,Delhi,"Pusa, Delhi - DPCC",29-06-2024 13:00:00,28.639652,77.146275,NH3,4,7,6
India,Delhi,Delhi,"Pusa, Delhi - IMD",29-06-2024 13:00:00,28.636110,77.173332,CO,49,84,81
India,Delhi,Delhi,"Pusa, Delhi - IMD",29-06-2024 13:00:00,28.636110,77.173332,OZONE,21,36,26
India,Delhi,Delhi,"R K Puram, Delhi - DPCC",29-06-2024 13:00:00,28.563262,77.186937,NO2,NA,NA,NA
India,Delhi,Delhi,"R K Puram, Delhi - DPCC",29-06-2024 13:00:00,28.563262,77.186937,NH3,NA,NA,NA
India,Delhi,Delhi,"Rohini, Delhi - DPCC",29-06-2024 13:00:00,28.732528,77.119920,CO,26,66,46
India,Delhi,Delhi,"Sri Aurobindo Marg, Delhi - DPCC",29-06-2024 13:00:00,28.531346,77.190156,NH3,7,17,11
India,Delhi,Delhi,"Vivek Vihar, Delhi - DPCC",29-06-2024 13:00:00,28.672342,77.315260,NH3,11,18,16
India,Delhi,Delhi,"Wazirpur, Delhi - DPCC",29-06-2024 13:00:00,28.699793,77.165453,NO2,34,75,51
India,Delhi,Delhi,"Wazirpur, Delhi - DPCC",29-06-2024 13:00:00,28.699793,77.165453,OZONE,4,54,22
India,Gujarat,Ahmedabad,"Maninagar, Ahmedabad - GPCB",29-06-2024 13:00:00,23.002657,72.591912,PM10,50,100,68
India,Gujarat,Ahmedabad,"Rakhial, Ahmedabad - IITM",29-06-2024 13:00:00,23.016834,72.625775,PM2.5,1,222,46
India,Gujarat,Ahmedabad,"Rakhial, Ahmedabad - IITM",29-06-2024 13:00:00,23.016834,72.625775,SO2,9,20,12
India,Gujarat,Ahmedabad,"SVPI Airport Hansol, Ahmedabad - IITM",29-06-2024 13:00:00,23.076793,72.627874,OZONE,NA,NA,NA
India,Gujarat,Ahmedabad,"Sardar Vallabhbhai Patel Stadium, Ahmedabad - IITM",29-06-2024 13:00:00,23.043070,72.562968,SO2,13,21,16
India,Gujarat,Gandhinagar,"Sector-10, Gandhinagar - GPCB",29-06-2024 13:00:00,23.221714,72.654328,PM2.5,20,53,35
India,Gujarat,Gandhinagar,"Sector-10, Gandhinagar - GPCB",29-06-2024 13:00:00,23.221714,72.654328,NH3,3,3,3
India,Gujarat,Gandhinagar,"Sector-10, Gandhinagar - GPCB",29-06-2024 13:00:00,23.221714,72.654328,SO2,5,6,6
India,Gujarat,Gandhinagar,"Sector-10, Gandhinagar - GPCB",29-06-2024 13:00:00,23.221714,72.654328,OZONE,22,23,22
India,Gujarat,Surat,"Science Center, Surat - SMC",29-06-2024 13:00:00,21.170046,72.795405,PM2.5,9,81,33
India,Gujarat,Surat,"Science Center, Surat - SMC",29-06-2024 13:00:00,21.170046,72.795405,PM10,NA,NA,NA
India,Gujarat,Surat,"Science Center, Surat - SMC",29-06-2024 13:00:00,21.170046,72.795405,SO2,11,14,12
India,Gujarat,Vatva,"Phase-4 GIDC, Vatva - GPCB",29-06-2024 13:00:00,22.969611,72.643500,NO2,29,120,53
India,Gujarat,Vatva,"Phase-4 GIDC, Vatva - GPCB",29-06-2024 13:00:00,22.969611,72.643500,SO2,6,9,8
India,Haryana,Ambala,"Patti Mehar, Ambala - HSPCB",29-06-2024 13:00:00,30.379589,76.778328,OZONE,49,65,58
India,Haryana,Bahadurgarh,"Arya Nagar, Bahadurgarh - HSPCB",29-06-2024 13:00:00,28.6701,76.9254,NO2,21,24,23
India,Haryana,Ballabgarh,"Nathu Colony, Ballabgarh - HSPCB",29-06-2024 13:00:00,28.3419248,77.319699,PM10,15,500,222
India,Haryana,Ballabgarh,"Nathu Colony, Ballabgarh - HSPCB",29-06-2024 13:00:00,28.3419248,77.319699,NO2,8,14,12
India,Haryana,Ballabgarh,"Nathu Colony, Ballabgarh - HSPCB",29-06-2024 13:00:00,28.3419248,77.319699,SO2,2,118,29
India,Haryana,Bhiwani,"H.B. Colony, Bhiwani - HSPCB",29-06-2024 13:00:00,28.806223,76.141105,PM2.5,34,66,47
India,Haryana,Bhiwani,"H.B. Colony, Bhiwani - HSPCB",29-06-2024 13:00:00,28.806223,76.141105,PM10,31,59,47
India,Haryana,Charkhi Dadri,"Mini Secretariat, Charkhi Dadri - HSPCB",29-06-2024 13:00:00,28.593883,76.270653,PM2.5,17,460,146
India,Haryana,Faridabad,"New Industrial Town, Faridabad - HSPCB",29-06-2024 13:00:00,28.39072,77.30059,OZONE,34,58,39
India,Haryana,Faridabad,"Sector 11, Faridabad - HSPCB",29-06-2024 13:00:00,28.376058,77.315741,NH3,6,7,6
India,Haryana,Faridabad,"Sector- 16A, Faridabad - HSPCB",29-06-2024 13:00:00,28.4088421,77.3099081,PM2.5,NA,NA,NA
India,Haryana,Faridabad,"Sector- 16A, Faridabad - HSPCB",29-06-2024 13:00:00,28.4088421,77.3099081,SO2,NA,NA,NA
India,Haryana,Faridabad,"Sector- 16A, Faridabad - HSPCB",29-06-2024 13:00:00,28.4088421,77.3099081,CO,NA,NA,NA
India,Haryana,Fatehabad,"Huda Sector, Fatehabad - HSPCB",29-06-2024 13:00:00,29.503664,75.467934,NO2,29,31,30
India,Haryana,Gurugram,"NISE Gwal Pahari, Gurugram - IMD",29-06-2024 13:00:00,28.422681,77.148944,PM2.5,NA,NA,NA
India,Haryana,Gurugram,"NISE Gwal Pahari, Gurugram - IMD",29-06-2024 13:00:00,28.422681,77.148944,PM10,NA,NA,NA
India,Haryana,Gurugram,"Sector-51, Gurugram - HSPCB",29-06-2024 13:00:00,28.4227,77.0667,PM2.5,84,254,129
India,Haryana,Gurugram,"Teri Gram, Gurugram - HSPCB",29-06-2024 13:00:00,28.4275,77.1465,PM2.5,53,437,169
India,Haryana,Gurugram,"Teri Gram, Gurugram - HSPCB",29-06-2024 13:00:00,28.4275,77.1465,PM10,63,413,141
India,Haryana,Gurugram,"Vikas Sadan, Gurugram - HSPCB",29-06-2024 13:00:00,28.4501238,77.0263051,NO2,5,25,14
India,Haryana,Hisar,"Urban Estate-II, Hisar - HSPCB",29-06-2024 13:00:00,29.140560,75.744941,PM2.5,30,79,60
India,Haryana,Jind,"Police Lines, Jind - HSPCB",29-06-2024 13:00:00,29.307814,76.337619,PM2.5,14,69,40
India,Haryana,Kaithal,"Rishi Nagar, Kaithal - HSPCB",29-06-2024 13:00:00,29.8006,76.4155,NH3,8,8,8
India,Haryana,Karnal,"Sector-12, Karnal - HSPCB",29-06-2024 13:00:00,29.695300,77.002700,PM10,25,56,44
India,Haryana,Kurukshetra,"Sector-7, Kurukshetra - HSPCB",29-06-2024 13:00:00,29.966942,76.875879,PM10,28,146,81
India,Haryana,Kurukshetra,"Sector-7, Kurukshetra - HSPCB",29-06-2024 13:00:00,29.966942,76.875879,SO2,2,3,2
India,Haryana,Mandikhera,"General Hospital, Mandikhera - HSPCB",29-06-2024 13:00:00,27.9002,76.9938,NO2,18,26,22
India,Haryana,Mandikhera,"General Hospital, Mandikhera - HSPCB",29-06-2024 13:00:00,27.9002,76.9938,NH3,16,20,18
India,Haryana,Mandikhera,"General Hospital, Mandikhera - HSPCB",29-06-2024 13:00:00,27.9002,76.9938,CO,23,38,34
India,Haryana,Manesar,"Sector-2 IMT, Manesar - HSPCB",29-06-2024 13:00:00,28.360699,76.936090,NO2,24,33,28
India,Haryana,Narnaul,"Shastri Nagar, Narnaul - HSPCB",29-06-2024 13:00:00,28.060249,76.113115,PM10,30,181,75
India,Haryana,Narnaul,"Shastri Nagar, Narnaul - HSPCB",29-06-2024 13:00:00,28.060249,76.113115,NO2,15,32,26
India,Haryana,Panipat,"Sector-18, Panipat - HSPCB",29-06-2024 13:00:00,29.432304,76.972765,NH3,2,3,2
India,Haryana,Panipat,"Sector-18, Panipat - HSPCB",29-06-2024 13:00:00,29.432304,76.972765,SO2,18,19,19
India,Haryana,Rohtak,"MD University, Rohtak - HSPCB",29-06-2024 13:00:00,28.52123,76.37138,CO,20,48,40
India,Haryana,Sirsa,"F-Block, Sirsa - HSPCB",29-06-2024 13:00:00,29.536400,75.015800,PM2.5,24,45,43
India,Haryana,Sirsa,"F-Block, Sirsa - HSPCB",29-06-2024 13:00:00,29.536400,75.015800,NH3,11,14,13
India,Haryana,Sirsa,"F-Block, Sirsa - HSPCB",29-06-2024 13:00:00,29.536400,75.015800,SO2,4,45,7
India,Haryana,Sonipat,"Murthal, Sonipat - HSPCB",29-06-2024 13:00:00,29.027200,77.062100,PM2.5,19,437,62
India,Haryana,Sonipat,"Murthal, Sonipat - HSPCB",29-06-2024 13:00:00,29.027200,77.062100,PM10,1,483,73
India,Haryana,Yamuna Nagar,"Gobind Pura, Yamuna Nagar - HSPCB",29-06-2024 13:00:00,30.1480566,77.2893471,PM2.5,36,79,55
India,Haryana,Yamuna Nagar,"Gobind Pura, Yamuna Nagar - HSPCB",29-06-2024 13:00:00,30.1480566,77.2893471,NH3,1,6,4
India,Haryana,Yamuna Nagar,"Gobind Pura, Yamuna Nagar - HSPCB",29-06-2024 13:00:00,30.1480566,77.2893471,OZONE,29,38,33
India,Jammu_and_Kashmir,Srinagar,"Rajbagh, Srinagar - JKSPCB",29-06-2024 13:00:00,34.066206,74.819820,SO2,NA,NA,NA
India,Jammu_and_Kashmir,Srinagar,"Rajbagh, Srinagar - JKSPCB",29-06-2024 13:00:00,34.066206,74.819820,OZONE,12,13,12
India,Jharkhand,Dhanbad,"Kalakusuma, Dhanbad - DMC",29-06-2024 13:00:00,23.811548,86.481238,SO2,9,10,9
India,Jharkhand,Dhanbad,"Kalakusuma, Dhanbad - DMC",29-06-2024 13:00:00,23.811548,86.481238,OZONE,29,29,29
India,Jharkhand,Pathardih,"Mohalbani Ghat, Pathardih - DMC",29-06-2024 13:00:00,23.669880,86.411725,SO2,10,23,14
India,Jharkhand,Pathardih,"Mohalbani Ghat, Pathardih - DMC",29-06-2024 13:00:00,23.669880,86.411725,OZONE,16,30,22
India,Karnataka,Bagalkot,"Vidayagiri, Bagalkot - KSPCB",29-06-2024 13:00:00,16.172806,75.659694,CO,20,50,41
India,Karnataka,Belgaum,"Ramteerth Nagar, Belgaum - KSPCB",29-06-2024 13:00:00,15.888653,74.541751,PM10,NA,NA,NA
India,Karnataka,Belgaum,"Ramteerth Nagar, Belgaum - KSPCB",29-06-2024 13:00:00,15.888653,74.541751,SO2,NA,NA,NA
India,Karnataka,Belgaum,"Ramteerth Nagar, Belgaum - KSPCB",29-06-2024 13:00:00,15.888653,74.541751,CO,NA,NA,NA
India,Karnataka,Belgaum,"Ramteerth Nagar, Belgaum - KSPCB",29-06-2024 13:00:00,15.888653,74.541751,OZONE,NA,NA,NA
India,Karnataka,Bengaluru,"Hebbal, Bengaluru - KSPCB",29-06-2024 13:00:00,13.029152,77.585901,SO2,20,26,23
India,Karnataka,Bengaluru,"Hombegowda Nagar, Bengaluru - KSPCB",29-06-2024 13:00:00,12.938539,77.590100,SO2,3,5,4
India,Karnataka,Bengaluru,"Hombegowda Nagar, Bengaluru - KSPCB",29-06-2024 13:00:00,12.938539,77.590100,CO,12,28,18
India,Karnataka,Bengaluru,"Jayanagar 5th Block, Bengaluru - KSPCB",29-06-2024 13:00:00,12.920984,77.584908,CO,6,31,22
India,Karnataka,Bengaluru,"Jayanagar 5th Block, Bengaluru - KSPCB",29-06-2024 13:00:00,12.920984,77.584908,OZONE,4,19,13
India,Karnataka,Bengaluru,"Jigani, Bengaluru - KSPCB",29-06-2024 13:00:00,12.7816279,77.6299145,OZONE,NA,NA,NA
India,Karnataka,Bengaluru,"Kasturi Nagar, Bengaluru - KSPCB",29-06-2024 13:00:00,13.003872,77.664217,PM10,43,54,49
India,Karnataka,Bengaluru,"Kasturi Nagar, Bengaluru - KSPCB",29-06-2024 13:00:00,13.003872,77.664217,NO2,16,17,17
India,Karnataka,Bengaluru,"Peenya, Bengaluru - CPCB",29-06-2024 13:00:00,13.0270199,77.494094,NO2,NA,NA,NA
India,Karnataka,Bengaluru,"Peenya, Bengaluru - CPCB",29-06-2024 13:00:00,13.0270199,77.494094,NH3,NA,NA,NA
India,Karnataka,Bengaluru,"Peenya, Bengaluru - CPCB",29-06-2024 13:00:00,13.0270199,77.494094,SO2,12,18,14
India,Karnataka,Bengaluru,"RVCE-Mailasandra, Bengaluru - KSPCB",29-06-2024 13:00:00,12.921418,77.502466,SO2,7,8,8
India,Karnataka,Bengaluru,"Silk Board, Bengaluru - KSPCB",29-06-2024 13:00:00,12.917348,77.622813,NH3,1,1,1
India,Karnataka,Bengaluru,"Silk Board, Bengaluru - KSPCB",29-06-2024 13:00:00,12.917348,77.622813,SO2,8,14,11
India,Karnataka,Chamarajanagar,"Urban, Chamarajanagar - KSPCB",29-06-2024 13:00:00,11.55358,76.55521,PM2.5,22,45,33
India,Karnataka,Chamarajanagar,"Urban, Chamarajanagar - KSPCB",29-06-2024 13:00:00,11.55358,76.55521,OZONE,25,39,31
India,Karnataka,Chikkaballapur,"Chikkaballapur Rural, Chikkaballapur - KSPCB",29-06-2024 13:00:00,13.428828,77.731418,NO2,5,9,7
India,Karnataka,Chikkaballapur,"Chikkaballapur Rural, Chikkaballapur - KSPCB",29-06-2024 13:00:00,13.428828,77.731418,NH3,1,1,1
India,Karnataka,Chikkaballapur,"Chikkaballapur Rural, Chikkaballapur - KSPCB",29-06-2024 13:00:00,13.428828,77.731418,CO,11,22,14
India,Karnataka,Chikkamagaluru,"Kalyana Nagara, Chikkamagaluru - KSPCB",29-06-2024 13:00:00,13.328028,75.797056,NO2,22,35,26
India,Karnataka,Davanagere,"Devaraj Urs Badavane, Davanagere - KSPCB",29-06-2024 13:00:00,14.475800,75.905200,NH3,1,2,1
India,Karnataka,Davanagere,"Devaraj Urs Badavane, Davanagere - KSPCB",29-06-2024 13:00:00,14.475800,75.905200,CO,20,24,22
India,Karnataka,Dharwad,"Kalabhavan, Dharwad - KSPCB",29-06-2024 13:00:00,15.459706,75.008381,NH3,3,3,3
India,Karnataka,Dharwad,"Kalabhavan, Dharwad - KSPCB",29-06-2024 13:00:00,15.459706,75.008381,CO,10,59,27
India,Karnataka,Gadag,"Panchal Nagar, Gadag - KSPCB",29-06-2024 13:00:00,15.411456,75.638133,CO,45,50,47
India,Karnataka,Hassan,"B.Katihalli, Hassan - KSPCB",29-06-2024 13:00:00,13.008556,76.125258,NH3,1,2,1
India,Karnataka,Hassan,"B.Katihalli, Hassan - KSPCB",29-06-2024 13:00:00,13.008556,76.125258,CO,14,27,18
India,Karnataka,Haveri,"Ashwini Nagar, Haveri - KSPCB",29-06-2024 13:00:00,14.791800,75.389600,PM2.5,14,27,21
India,Karnataka,Haveri,"Ashwini Nagar, Haveri - KSPCB",29-06-2024 13:00:00,14.791800,75.389600,SO2,10,13,12
India,Karnataka,Kalaburagi,"Lal Bahadur Shastri Nagar, Kalaburagi - KSPCB",29-06-2024 13:00:00,17.321993,76.822628,PM2.5,6,53,23
India,Karnataka,Kalaburagi,"Lal Bahadur Shastri Nagar, Kalaburagi - KSPCB",29-06-2024 13:00:00,17.321993,76.822628,NO2,10,12,10
India,Karnataka,Kalaburagi,"Lal Bahadur Shastri Nagar, Kalaburagi - KSPCB",29-06-2024 13:00:00,17.321993,76.822628,NH3,2,3,3
India,Karnataka,Kalaburagi,"Lal Bahadur Shastri Nagar, Kalaburagi - KSPCB",29-06-2024 13:00:00,17.321993,76.822628,SO2,NA,NA,NA
India,Karnataka,Kalaburagi,"Mahatma Basaveswar Colony, Kalaburgi - KSPCB",29-06-2024 13:00:00,17.336318,76.847397,OZONE,5,18,6
India,Karnataka,Karwar,"KHB Colony, Karwar - KSPCB",29-06-2024 13:00:00,14.816666,74.141003,NO2,NA,NA,NA
India,Karnataka,Karwar,"KHB Colony, Karwar - KSPCB",29-06-2024 13:00:00,14.816666,74.141003,CO,8,8,8
India,Karnataka,Karwar,"KHB Colony, Karwar - KSPCB",29-06-2024 13:00:00,14.816666,74.141003,OZONE,21,22,21
India,Karnataka,Kolar,"Tamaka Ind. Area, Kolar - KSPCB",29-06-2024 13:00:00,13.1276288,78.1570122,NH3,NA,NA,NA
India,Karnataka,Koppal,"Diwator Nagar, Koppal - KSPCB",29-06-2024 13:00:00,15.347630,76.181767,PM2.5,5,20,11
India,Karnataka,Koppal,"Diwator Nagar, Koppal - KSPCB",29-06-2024 13:00:00,15.347630,76.181767,NH3,5,10,8
India,Karnataka,Koppal,"Diwator Nagar, Koppal - KSPCB",29-06-2024 13:00:00,15.347630,76.181767,SO2,30,31,30
India,Karnataka,Madikeri,"Stuart Hill, Madikeri - KSPCB",29-06-2024 13:00:00,12.415911,75.735050,NO2,1,3,2
India,Karnataka,Madikeri,"Stuart Hill, Madikeri - KSPCB",29-06-2024 13:00:00,12.415911,75.735050,OZONE,13,17,15
India,Karnataka,Mysuru,"Hebbal 1st Stage, Mysuru - KSPCB",29-06-2024 13:00:00,12.21041,76.37376,PM2.5,10,45,20
India,Karnataka,Mysuru,"Hebbal 1st Stage, Mysuru - KSPCB",29-06-2024 13:00:00,12.21041,76.37376,PM10,24,62,33
India,Karnataka,Raichur,"Haji Colony, Raichur - KSPCB",29-06-2024 13:00:00,16.208139,77.348417,NH3,2,3,3
India,Karnataka,Raichur,"Haji Colony, Raichur - KSPCB",29-06-2024 13:00:00,16.208139,77.348417,SO2,67,72,70
India,Karnataka,Raichur,"Haji Colony, Raichur - KSPCB",29-06-2024 13:00:00,16.208139,77.348417,CO,90,104,97
India,Karnataka,Shivamogga,"Vinoba Nagara, Shivamogga - KSPCB",29-06-2024 13:00:00,13.940000,75.555917,PM2.5,28,59,37
India,Karnataka,Shivamogga,"Vinoba Nagara, Shivamogga - KSPCB",29-06-2024 13:00:00,13.940000,75.555917,PM10,37,72,51
India,Karnataka,Shivamogga,"Vinoba Nagara, Shivamogga - KSPCB",29-06-2024 13:00:00,13.940000,75.555917,NH3,2,10,4
India,Karnataka,Tumakuru,"Thimmalapura, Tumakuru - KSPCB",29-06-2024 13:00:00,13.377516,77.099072,PM10,67,176,115
India,Karnataka,Tumakuru,"Thimmalapura, Tumakuru - KSPCB",29-06-2024 13:00:00,13.377516,77.099072,NO2,17,17,17
India,Karnataka,Tumakuru,"Thimmalapura, Tumakuru - KSPCB",29-06-2024 13:00:00,13.377516,77.099072,NH3,2,3,2
India,Karnataka,Tumakuru,"Thimmalapura, Tumakuru - KSPCB",29-06-2024 13:00:00,13.377516,77.099072,OZONE,7,15,9
India,Karnataka,Udupi,"Brahmagiri, Udupi - KSPCB",29-06-2024 13:00:00,13.34194444,74.74694444,CO,48,52,52
India,Karnataka,Vijayapura,"Ibrahimpur, Vijayapura - KSPCB",29-06-2024 13:00:00,16.802639,75.722694,PM2.5,NA,NA,NA
India,Karnataka,Vijayapura,"Ibrahimpur, Vijayapura - KSPCB",29-06-2024 13:00:00,16.802639,75.722694,NO2,NA,NA,NA
India,Karnataka,Yadgir,"Collector Office, Yadgir - KSPCB",29-06-2024 13:00:00,16.7602,77.1428,PM2.5,5,26,12
India,Karnataka,Yadgir,"Collector Office, Yadgir - KSPCB",29-06-2024 13:00:00,16.7602,77.1428,PM10,19,43,34
India,Kerala,Kannur,"Thavakkara, Kannur - Kerala PCB",29-06-2024 13:00:00,11.875000,75.373200,CO,63,72,67
India,Kerala,Kollam,"Polayathode, Kollam - Kerala PCB",29-06-2024 13:00:00,8.8787,76.6073,NO2,8,9,8
India,Kerala,Thiruvananthapuram,"Plammoodu, Thiruvananthapuram - Kerala PCB",29-06-2024 13:00:00,8.5149093,76.9435879,SO2,7,14,11
India,Kerala,Thrissur,"Corporation Ground, Thrissur - Kerala PCB",29-06-2024 13:00:00,10.532400,76.215900,PM2.5,33,40,36
India,Madhya Pradesh,Bhopal,"Paryavaran Parisar, Bhopal - MPPCB",29-06-2024 13:00:00,23.210494,77.425409,PM2.5,2,40,13
India,Madhya Pradesh,Bhopal,"T T Nagar, Bhopal - MPPCB",29-06-2024 13:00:00,23.233584,77.400574,NH3,4,6,5
India,Madhya Pradesh,Damoh,"Shrivastav Colony, Damoh - MPPCB",29-06-2024 13:00:00,23.81748678,79.446246,PM2.5,1,402,34
India,Madhya Pradesh,Damoh,"Shrivastav Colony, Damoh - MPPCB",29-06-2024 13:00:00,23.81748678,79.446246,PM10,1,280,27
India,Madhya Pradesh,Dewas,"Bhopal Chauraha, Dewas - MPPCB",29-06-2024 13:00:00,22.9682591,76.064118,PM2.5,15,61,26
India,Madhya Pradesh,Dewas,"Bhopal Chauraha, Dewas - MPPCB",29-06-2024 13:00:00,22.9682591,76.064118,PM10,24,68,34
India,Madhya Pradesh,Gwalior,"City Center, Gwalior - MPPCB",29-06-2024 13:00:00,26.203442,78.193251,PM10,9,44,27
India,Madhya Pradesh,Gwalior,"City Center, Gwalior - MPPCB",29-06-2024 13:00:00,26.203442,78.193251,NO2,9,28,14
India,Madhya Pradesh,Gwalior,"City Center, Gwalior - MPPCB",29-06-2024 13:00:00,26.203442,78.193251,SO2,15,59,32
India,Madhya Pradesh,Gwalior,"City Center, Gwalior - MPPCB",29-06-2024 13:00:00,26.203442,78.193251,OZONE,25,82,47
India,Madhya Pradesh,Gwalior,"Deen Dayal Nagar, Gwalior - MPPCB",29-06-2024 13:00:00,26.259242,78.216432,OZONE,31,85,48
India,Madhya Pradesh,Gwalior,"Phool Bagh, Gwalior - Mondelez Ind. Food",29-06-2024 13:00:00,26.210536,78.171,SO2,17,23,21
India,Madhya Pradesh,Indore,"Chhoti Gwaltoli, Indore - MPPCB",29-06-2024 13:00:00,22.4310,75.5213,SO2,10,12,11
India,Madhya Pradesh,Indore,"Regional Park, Indore - IMC",29-06-2024 13:00:00,22.6780,75.8559,NH3,NA,NA,NA
India,Madhya Pradesh,Indore,"Regional Park, Indore - IMC",29-06-2024 13:00:00,22.6780,75.8559,OZONE,5,8,6
India,Madhya Pradesh,Indore,"Residency Area, Indore - IMC",29-06-2024 13:00:00,22.7084,75.8815,SO2,21,23,22
India,Madhya Pradesh,Indore,"Residency Area, Indore - IMC",29-06-2024 13:00:00,22.7084,75.8815,CO,10,12,10
India,Madhya Pradesh,Jabalpur,"Govindh Bhavan Colony, Jabalpur - JMC",29-06-2024 13:00:00,23.163174,79.973061,PM10,14,30,21
India,Madhya Pradesh,Jabalpur,"Govindh Bhavan Colony, Jabalpur - JMC",29-06-2024 13:00:00,23.163174,79.973061,NO2,5,13,9
India,Madhya Pradesh,Jabalpur,"Govindh Bhavan Colony, Jabalpur - JMC",29-06-2024 13:00:00,23.163174,79.973061,CO,2,18,13
India,Madhya Pradesh,Jabalpur,"Gupteshwar, Jabalpur - JMC",29-06-2024 13:00:00,23.142888,79.916147,SO2,NA,NA,NA
India,Madhya Pradesh,Jabalpur,"Marhatal, Jabalpur - MPPCB",29-06-2024 13:00:00,23.168606,79.932247,NH3,3,6,5
India,Madhya Pradesh,Maihar,"Sahilara, Maihar - KJS Cements",29-06-2024 13:00:00,24.2613009,80.7231783,SO2,9,12,10
India,Madhya Pradesh,Mandideep,"Sector-D Industrial Area, Mandideep - MPPCB",29-06-2024 13:00:00,23.108440,77.511428,CO,17,43,24
India,Madhya Pradesh,Pithampur,"Sector-2 Industrial Area, Pithampur - MPPCB",29-06-2024 13:00:00,22.624758,75.675238,SO2,13,16,14
India,Madhya Pradesh,Sagar,"Civil Lines, Sagar - MPPCB",29-06-2024 13:00:00,23.838586,78.759431,PM10,4,87,37
India,Madhya Pradesh,Sagar,"Civil Lines, Sagar - MPPCB",29-06-2024 13:00:00,23.838586,78.759431,NO2,3,16,8
India,Madhya Pradesh,Sagar,"Civil Lines, Sagar - MPPCB",29-06-2024 13:00:00,23.838586,78.759431,NH3,2,2,2
India,Madhya Pradesh,Sagar,"Deen Dayal Nagar, Sagar - MPPCB",29-06-2024 13:00:00,23.8640158,78.80289321,SO2,11,69,16
India,Madhya Pradesh,Satna,"Bandhavgar Colony, Satna - Birla Cement",29-06-2024 13:00:00,24.58434363,80.8549414,PM2.5,3,28,13
India,Madhya Pradesh,Satna,"Bandhavgar Colony, Satna - Birla Cement",29-06-2024 13:00:00,24.58434363,80.8549414,SO2,1,3,2
India,Madhya Pradesh,Ujjain,"Mahakaleshwar Temple, Ujjain - MPPCB",29-06-2024 13:00:00,23.182719 ,75.768218 ,SO2,5,10,6
India,Maharashtra,Ahmednagar,"Tarakpur, Ahmednagar - MPCB",29-06-2024 13:00:00,19.10122,74.73339,PM2.5,43,72,57
India,Maharashtra,Ahmednagar,"Tarakpur, Ahmednagar - MPCB",29-06-2024 13:00:00,19.10122,74.73339,NH3,5,14,7
India,Maharashtra,Akola,"Ramdaspeth, Akola - MPCB",29-06-2024 13:00:00,20.719516,77.000253,PM2.5,12,47,26
India,Maharashtra,Akola,"Ramdaspeth, Akola - MPCB",29-06-2024 13:00:00,20.719516,77.000253,NO2,5,45,17
India,Maharashtra,Akola,"Ramdaspeth, Akola - MPCB",29-06-2024 13:00:00,20.719516,77.000253,CO,16,62,23
India,Maharashtra,Amravati,"Shivneri Colony, Amravati - MPCB",29-06-2024 13:00:00,20.9402359,77.7895248,NO2,3,16,8
India,Maharashtra,Amravati,"Shri Shivaji Science College, Amaravati - MPCB",29-06-2024 13:00:00,20.939198,77.765701,CO,14,47,16
India,Maharashtra,Aurangabad,"MIDC Chilkalthana, Aurangabad - MPCB",29-06-2024 13:00:00,19.875620,75.387310,NH3,5,5,5
India,Maharashtra,Aurangabad,"MIDC Chilkalthana, Aurangabad - MPCB",29-06-2024 13:00:00,19.875620,75.387310,SO2,NA,NA,NA
India,Maharashtra,Aurangabad,"More Chowk Waluj, Aurangabad - MPCB",29-06-2024 13:00:00,19.8389439,75.244448,SO2,7,21,16
India,Maharashtra,Badlapur,"Katrap, Badlapur - MPCB",29-06-2024 13:00:00,19.16485,73.23409,NO2,16,27,23
India,Maharashtra,Belapur,"CBD Belapur, Belapur - MPCB",29-06-2024 13:00:00,19.0243902,73.0406721,PM2.5,24,48,35
India,Maharashtra,Belapur,"CBD Belapur, Belapur - MPCB",29-06-2024 13:00:00,19.0243902,73.0406721,PM10,26,46,36
India,Maharashtra,Bhiwandi,"Gokul Nagar, Bhiwandi - MPCB",29-06-2024 13:00:00,19.309073,73.057223,SO2,8,18,14
India,Maharashtra,Bhiwandi,"Gokul Nagar, Bhiwandi - MPCB",29-06-2024 13:00:00,19.309073,73.057223,CO,16,76,30
India,Maharashtra,Bhiwandi,"Gokul Nagar, Bhiwandi - MPCB",29-06-2024 13:00:00,19.309073,73.057223,OZONE,14,35,17
India,Maharashtra,Boisar,"Khaira, Boisar - MPCB",29-06-2024 13:00:00,19.786089,72.757971,SO2,NA,NA,NA
India,Maharashtra,Chandrapur,"Chauhan Colony, Chandrapur - MPCB",29-06-2024 13:00:00,19.962900,79.298714,PM2.5,14,51,26
India,Maharashtra,Chandrapur,"Chauhan Colony, Chandrapur - MPCB",29-06-2024 13:00:00,19.962900,79.298714,PM10,14,60,31
India,Maharashtra,Chandrapur,"Chauhan Colony, Chandrapur - MPCB",29-06-2024 13:00:00,19.962900,79.298714,NH3,1,4,2
India,Maharashtra,Chandrapur,"Chauhan Colony, Chandrapur - MPCB",29-06-2024 13:00:00,19.962900,79.298714,SO2,3,3,3
India,Maharashtra,Chandrapur,"Chauhan Colony, Chandrapur - MPCB",29-06-2024 13:00:00,19.962900,79.298714,OZONE,31,34,32
India,Maharashtra,Chandrapur,"MIDC Khutala, Chandrapur - MPCB",29-06-2024 13:00:00,19.9775302,79.2337086,NO2,13,46,26
India,Maharashtra,Chandrapur,"MIDC Khutala, Chandrapur - MPCB",29-06-2024 13:00:00,19.9775302,79.2337086,NH3,2,13,8
India,Maharashtra,Chandrapur,"MIDC Khutala, Chandrapur - MPCB",29-06-2024 13:00:00,19.9775302,79.2337086,OZONE,5,25,12
India,Maharashtra,Dhule,"Deopur, Dhule - MPCB",29-06-2024 13:00:00,20.918946,74.776388,PM10,23,93,55
India,Maharashtra,Jalgaon,"Prabhat Colony, Jalgaon - MPCB",29-06-2024 13:00:00,21.001264,75.565602,PM10,14,59,32
India,Maharashtra,Jalgaon,"Prabhat Colony, Jalgaon - MPCB",29-06-2024 13:00:00,21.001264,75.565602,NO2,5,16,9
India,Maharashtra,Jalgaon,"Prabhat Colony, Jalgaon - MPCB",29-06-2024 13:00:00,21.001264,75.565602,SO2,2,6,5
India,Maharashtra,Jalna,"Old MIDC, Jalna - MPCB",29-06-2024 13:00:00,19.854616,75.905894,PM10,29,72,41
India,Maharashtra,Kalyan,"Khadakpada, Kalyan - MPCB",29-06-2024 13:00:00,19.25292,73.142019,NO2,23,36,30
India,Maharashtra,Kalyan,"Khadakpada, Kalyan - MPCB",29-06-2024 13:00:00,19.25292,73.142019,SO2,20,31,26
India,Maharashtra,Kolhapur,"Shivaji University, Kolhapur - MPCB",29-06-2024 13:00:00,16.6870449,74.2505872,OZONE,14,37,23
India,Maharashtra,Kolhapur,"Sinchan Bhavan, Kolhapur - MPCB",29-06-2024 13:00:00,16.7143745,74.2426398,PM10,17,79,50
India,Maharashtra,Latur,"Sawe Wadi, Latur - MPCB",29-06-2024 13:00:00,18.39963,76.57452,NH3,4,5,5
India,Maharashtra,Latur,"Sawe Wadi, Latur - MPCB",29-06-2024 13:00:00,18.39963,76.57452,SO2,4,6,5
India,Maharashtra,Latur,"Sawe Wadi, Latur - MPCB",29-06-2024 13:00:00,18.39963,76.57452,OZONE,30,60,33
India,Maharashtra,Mahad,"Kamble Tarf Birwadi, Mahad - MPCB",29-06-2024 13:00:00,18.1023399,73.4783687,PM2.5,21,61,39
India,Maharashtra,Mahad,"Kamble Tarf Birwadi, Mahad - MPCB",29-06-2024 13:00:00,18.1023399,73.4783687,CO,4,30,21
India,Maharashtra,Malegaon,"Mahesh Nagar, Malegaon - MPCB",29-06-2024 13:00:00,20.555712,74.529236,PM2.5,25,82,49
India,Maharashtra,Mira-Bhayandar,"Bhayandar West, Mira-Bhayandar - MPCB",29-06-2024 13:00:00,19.296481,72.840923,OZONE,6,26,14
India,Maharashtra,Mumbai,"Bandra Kurla Complex, Mumbai - MPCB",29-06-2024 13:00:00,19.065931,72.862131,OZONE,NA,NA,NA
India,Maharashtra,Mumbai,"Borivali East, Mumbai - IITM",29-06-2024 13:00:00,19.23241,72.86895,PM10,36,64,52
India,Maharashtra,Mumbai,"Borivali East, Mumbai - IITM",29-06-2024 13:00:00,19.23241,72.86895,NH3,5,8,7
India,Maharashtra,Mumbai,"Borivali East, Mumbai - IITM",29-06-2024 13:00:00,19.23241,72.86895,OZONE,3,29,16
India,Maharashtra,Mumbai,"Borivali East, Mumbai - MPCB",29-06-2024 13:00:00,19.2243333,72.8658113,PM10,NA,NA,NA
India,Maharashtra,Mumbai,"Borivali East, Mumbai - MPCB",29-06-2024 13:00:00,19.2243333,72.8658113,CO,NA,NA,NA
India,Maharashtra,Mumbai,"Borivali East, Mumbai - MPCB",29-06-2024 13:00:00,19.2243333,72.8658113,OZONE,NA,NA,NA
India,Maharashtra,Mumbai,"Byculla, Mumbai - BMC",29-06-2024 13:00:00,18.9767,72.8380,PM10,NA,NA,NA
India,Maharashtra,Mumbai,"Byculla, Mumbai - BMC",29-06-2024 13:00:00,18.9767,72.8380,NO2,NA,NA,NA
India,Maharashtra,Mumbai,"Byculla, Mumbai - BMC",29-06-2024 13:00:00,18.9767,72.8380,OZONE,NA,NA,NA
India,Maharashtra,Mumbai,"Chakala-Andheri East, Mumbai - IITM",29-06-2024 13:00:00,19.11074,72.86084,PM2.5,23,45,35
India,Maharashtra,Mumbai,"Chakala-Andheri East, Mumbai - IITM",29-06-2024 13:00:00,19.11074,72.86084,NO2,23,31,27
India,Maharashtra,Mumbai,"Chakala-Andheri East, Mumbai - IITM",29-06-2024 13:00:00,19.11074,72.86084,SO2,1,21,9
India,Maharashtra,Mumbai,"Chembur, Mumbai - MPCB",29-06-2024 13:00:00,19.0364585,72.8954371,NH3,2,4,3
India,Maharashtra,Mumbai,"Chembur, Mumbai - MPCB",29-06-2024 13:00:00,19.0364585,72.8954371,SO2,1,32,6
India,Maharashtra,Mumbai,"Chhatrapati Shivaji Intl. Airport (T2), Mumbai - MPCB",29-06-2024 13:00:00,19.10078,72.87462,PM10,27,59,50
India,Maharashtra,Mumbai,"Chhatrapati Shivaji Intl. Airport (T2), Mumbai - MPCB",29-06-2024 13:00:00,19.10078,72.87462,NO2,10,46,26
India,Maharashtra,Mumbai,"Chhatrapati Shivaji Intl. Airport (T2), Mumbai - MPCB",29-06-2024 13:00:00,19.10078,72.87462,SO2,16,19,18
India,Maharashtra,Mumbai,"Chhatrapati Shivaji Intl. Airport (T2), Mumbai - MPCB",29-06-2024 13:00:00,19.10078,72.87462,CO,14,23,15
India,Maharashtra,Mumbai,"Colaba, Mumbai - MPCB",29-06-2024 13:00:00,18.910000,72.820000,SO2,9,10,10
India,Maharashtra,Mumbai,"Deonar, Mumbai - IITM",29-06-2024 13:00:00,19.04946,72.9230,NH3,6,8,7
India,Maharashtra,Mumbai,"Deonar, Mumbai - IITM",29-06-2024 13:00:00,19.04946,72.9230,OZONE,1,12,4
India,Maharashtra,Mumbai,"Ghatkopar, Mumbai - BMC",29-06-2024 13:00:00,19.083694,72.920967,OZONE,11,24,16
India,Maharashtra,Mumbai,"Kandivali East, Mumbai - MPCB",29-06-2024 13:00:00,19.205800,72.868200,PM10,28,206,103
India,Maharashtra,Mumbai,"Kandivali East, Mumbai - MPCB",29-06-2024 13:00:00,19.205800,72.868200,SO2,6,7,7
India,Maharashtra,Mumbai,"Kandivali West, Mumbai - BMC",29-06-2024 13:00:00,19.215859,72.831718,NO2,8,27,17
India,Maharashtra,Mumbai,"Kandivali West, Mumbai - BMC",29-06-2024 13:00:00,19.215859,72.831718,OZONE,18,24,21
India,Maharashtra,Mumbai,"Kherwadi_Bandra East, Mumbai - MPCB",29-06-2024 13:00:00,19.0632143,72.8456324,PM2.5,11,36,23
India,Maharashtra,Mumbai,"Kherwadi_Bandra East, Mumbai - MPCB",29-06-2024 13:00:00,19.0632143,72.8456324,PM10,39,55,48
India,Maharashtra,Mumbai,"Kherwadi_Bandra East, Mumbai - MPCB",29-06-2024 13:00:00,19.0632143,72.8456324,NH3,1,4,1
India,Maharashtra,Mumbai,"Kherwadi_Bandra East, Mumbai - MPCB",29-06-2024 13:00:00,19.0632143,72.8456324,SO2,1,2,2
India,Maharashtra,Mumbai,"Kurla, Mumbai - MPCB",29-06-2024 13:00:00,19.0863,72.8888,NO2,9,11,10
India,Maharashtra,Mumbai,"Kurla, Mumbai - MPCB",29-06-2024 13:00:00,19.0863,72.8888,SO2,32,32,32
India,Maharashtra,Mumbai,"Mazgaon, Mumbai - IITM",29-06-2024 13:00:00,18.96702,72.84214,NO2,25,60,37
India,Maharashtra,Mumbai,"Mindspace-Malad West, Mumbai - MPCB",29-06-2024 13:00:00,19.1878657,72.8304069,PM10,28,47,40
India,Maharashtra,Mumbai,"Mindspace-Malad West, Mumbai - MPCB",29-06-2024 13:00:00,19.1878657,72.8304069,SO2,5,13,9
India,Maharashtra,Mumbai,"Mindspace-Malad West, Mumbai - MPCB",29-06-2024 13:00:00,19.1878657,72.8304069,OZONE,16,40,28
India,Maharashtra,Mumbai,"Mulund West, Mumbai - MPCB",29-06-2024 13:00:00,19.1750,72.9419,PM10,14,459,75
India,Maharashtra,Mumbai,"Mulund West, Mumbai - MPCB",29-06-2024 13:00:00,19.1750,72.9419,NH3,10,10,10
India,Maharashtra,Mumbai,"Mulund West, Mumbai - MPCB",29-06-2024 13:00:00,19.1750,72.9419,CO,33,34,34
India,Maharashtra,Mumbai,"Navy Nagar-Colaba, Mumbai - IITM",29-06-2024 13:00:00,18.897756,72.813320,PM10,43,67,57
India,Maharashtra,Mumbai,"Powai, Mumbai - MPCB",29-06-2024 13:00:00,19.137500,72.915056,PM10,23,50,39
India,Maharashtra,Mumbai,"Sewri, Mumbai - BMC",29-06-2024 13:00:00,19.000084,72.856730,NH3,1,3,2
India,Maharashtra,Mumbai,"Siddharth Nagar-Worli, Mumbai - IITM",29-06-2024 13:00:00,19.000083,72.813993,CO,50,66,58
India,Maharashtra,Mumbai,"Sion, Mumbai - MPCB",29-06-2024 13:00:00,19.047000,72.874600,PM2.5,29,51,42
India,Maharashtra,Mumbai,"Sion, Mumbai - MPCB",29-06-2024 13:00:00,19.047000,72.874600,CO,40,57,44
India,Maharashtra,Mumbai,"Vasai West, Mumbai - MPCB",29-06-2024 13:00:00,19.383200,72.820400,PM2.5,19,73,35
India,Maharashtra,Mumbai,"Vasai West, Mumbai - MPCB",29-06-2024 13:00:00,19.383200,72.820400,PM10,60,91,74
India,Maharashtra,Mumbai,"Vasai West, Mumbai - MPCB",29-06-2024 13:00:00,19.383200,72.820400,NH3,4,4,4
India,Maharashtra,Nagpur,"Ambazari, Nagpur - MPCB",29-06-2024 13:00:00,21.121801,79.04952,NH3,2,5,3
India,Maharashtra,Nagpur,"Ambazari, Nagpur - MPCB",29-06-2024 13:00:00,21.121801,79.04952,SO2,8,15,12
India,Maharashtra,Nagpur,"Mahal, Nagpur - MPCB",29-06-2024 13:00:00,21.14472,79.107595,NO2,3,21,11
India,Maharashtra,Nagpur,"Mahal, Nagpur - MPCB",29-06-2024 13:00:00,21.14472,79.107595,NH3,1,4,3
India,Maharashtra,Nagpur,"Mahal, Nagpur - MPCB",29-06-2024 13:00:00,21.14472,79.107595,OZONE,9,21,18
India,Maharashtra,Nagpur,"Opp GPO Civil Lines, Nagpur - MPCB",29-06-2024 13:00:00,21.152875,79.0517531,PM2.5,NA,NA,NA
India,Maharashtra,Nagpur,"Ram Nagar, Nagpur - MPCB",29-06-2024 13:00:00,21.143383,79.048912,PM2.5,14,33,23
India,Maharashtra,Nagpur,"Ram Nagar, Nagpur - MPCB",29-06-2024 13:00:00,21.143383,79.048912,CO,7,21,8
India,Maharashtra,Nanded,"Sneh Nagar, Nanded - MPCB",29-06-2024 13:00:00,19.173852,77.296291,PM10,11,52,31
India,Maharashtra,Nanded,"Sneh Nagar, Nanded - MPCB",29-06-2024 13:00:00,19.173852,77.296291,CO,18,28,22
India,Maharashtra,Nashik,"Gangapur Road, Nashik - MPCB",29-06-2024 13:00:00,20.0073285,73.7762427,OZONE,6,30,12
India,Maharashtra,Nashik,"Hirawadi, Nashik - MPCB",29-06-2024 13:00:00,20.021503,73.813844,PM2.5,13,28,20
India,Maharashtra,Nashik,"Hirawadi, Nashik - MPCB",29-06-2024 13:00:00,20.021503,73.813844,PM10,17,36,27
India,Maharashtra,Nashik,"Hirawadi, Nashik - MPCB",29-06-2024 13:00:00,20.021503,73.813844,NO2,2,11,5
India,Maharashtra,Nashik,"Hirawadi, Nashik - MPCB",29-06-2024 13:00:00,20.021503,73.813844,NH3,2,4,3
India,Maharashtra,Nashik,"MIDC Ambad, Nashik - MPCB",29-06-2024 13:00:00,19.950220,73.731480,NO2,10,14,12
India,Maharashtra,Nashik,"MIDC Ambad, Nashik - MPCB",29-06-2024 13:00:00,19.950220,73.731480,SO2,1,6,2
India,Maharashtra,Nashik,"MIDC Ambad, Nashik - MPCB",29-06-2024 13:00:00,19.950220,73.731480,OZONE,16,30,19
India,Maharashtra,Nashik,"Pandav Nagari, Nashik - MPCB",29-06-2024 13:00:00,19.9591346,73.7788008,OZONE,20,23,23
India,Maharashtra,Navi Mumbai,"Kopripada-Vashi, Navi Mumbai - MPCB",29-06-2024 13:00:00,19.090337,73.014232,NH3,5,10,7
India,Maharashtra,Navi Mumbai,"Kopripada-Vashi, Navi Mumbai - MPCB",29-06-2024 13:00:00,19.090337,73.014232,CO,10,42,16
India,Maharashtra,Navi Mumbai,"Kopripada-Vashi, Navi Mumbai - MPCB",29-06-2024 13:00:00,19.090337,73.014232,OZONE,5,26,11
India,Maharashtra,Navi Mumbai,"Nerul, Navi Mumbai - MPCB",29-06-2024 13:00:00,19.008751,73.016620,PM2.5,19,36,25
India,Maharashtra,Navi Mumbai,"Sanpada, Navi Mumbai - MPCB",29-06-2024 13:00:00,19.0575752,73.0151367,CO,7,22,8
India,Maharashtra,Navi Mumbai,"Sector-19A Nerul, Navi Mumbai - IITM",29-06-2024 13:00:00,19.044,73.0325,PM10,NA,NA,NA
India,Maharashtra,Navi Mumbai,"Sector-2E Kalamboli, Navi Mumbai - MPCB",29-06-2024 13:00:00,19.02579,73.10297,PM2.5,NA,NA,NA
India,Maharashtra,Navi Mumbai,"Tondare-Taloja, Navi Mumbai - MPCB",29-06-2024 13:00:00,19.0630,73.1209,SO2,1,19,6
India,Maharashtra,Pimpri-Chinchwad,"Gavalinagar, Pimpri Chinchwad - MPCB",29-06-2024 13:00:00,18.63673,73.82487,PM2.5,9,39,24
India,Maharashtra,Pimpri-Chinchwad,"Park Street Wakad, Pimpri Chinchwad - MPCB",29-06-2024 13:00:00,18.59051,73.77946,PM2.5,7,45,23
India,Maharashtra,Pimpri-Chinchwad,"Park Street Wakad, Pimpri Chinchwad - MPCB",29-06-2024 13:00:00,18.59051,73.77946,PM10,23,52,33
India,Maharashtra,Pimpri-Chinchwad,"Park Street Wakad, Pimpri Chinchwad - MPCB",29-06-2024 13:00:00,18.59051,73.77946,OZONE,1,17,4
India,Maharashtra,Pimpri-Chinchwad,"Thergaon, Pimpri Chinchwad - MPCB",29-06-2024 13:00:00,18.616318,73.765797,SO2,2,3,2
India,Maharashtra,Pune,"Bhosari, Pune - IITM",29-06-2024 13:00:00,18.640051,73.848956,PM10,14,54,37
India,Maharashtra,Pune,"Bhosari, Pune - IITM",29-06-2024 13:00:00,18.640051,73.848956,NO2,7,10,9
India,Maharashtra,Pune,"Bhosari, Pune - IITM",29-06-2024 13:00:00,18.640051,73.848956,CO,30,108,61
India,Maharashtra,Pune,"Bhumkar Nagar, Pune - IITM",29-06-2024 13:00:00,18.605770,73.749976,PM2.5,7,40,22
India,Maharashtra,Pune,"Hadapsar, Pune - IITM",29-06-2024 13:00:00,18.501793,73.927532,PM2.5,4,75,18
India,Maharashtra,Pune,"Hadapsar, Pune - IITM",29-06-2024 13:00:00,18.501793,73.927532,CO,64,106,82
India,Maharashtra,Pune,"Katraj Dairy, Pune - MPCB",29-06-2024 13:00:00,18.454450,73.854155,NH3,1,3,1
India,Maharashtra,Pune,"Katraj Dairy, Pune - MPCB",29-06-2024 13:00:00,18.454450,73.854155,OZONE,26,39,32
India,Maharashtra,Pune,"Savitribai Phule Pune University, Pune - MPCB",29-06-2024 13:00:00,18.547056,73.826908,PM2.5,9,32,21
India,Maharashtra,Pune,"Savitribai Phule Pune University, Pune - MPCB",29-06-2024 13:00:00,18.547056,73.826908,SO2,1,4,3
India,Maharashtra,Pune,"Transport Nagar-Nigdi, Pune - IITM",29-06-2024 13:00:00,18.664282,73.763966,PM2.5,23,64,37
India,Maharashtra,Pune,"Transport Nagar-Nigdi, Pune - IITM",29-06-2024 13:00:00,18.664282,73.763966,CO,6,86,58
India,Maharashtra,Sangli,"Vijay Nagar, Sangli - MPCB",29-06-2024 13:00:00, 16.5038,74.3623,NO2,4,19,9
India,Maharashtra,Solapur,"Dnyaneshwar Nagar, Solapur - MPCB",29-06-2024 13:00:00,17.6336264,75.9132495,PM10,27,86,42
India,Maharashtra,Solapur,"Dnyaneshwar Nagar, Solapur - MPCB",29-06-2024 13:00:00,17.6336264,75.9132495,NO2,2,9,5
India,Maharashtra,Solapur,"Dnyaneshwar Nagar, Solapur - MPCB",29-06-2024 13:00:00,17.6336264,75.9132495,CO,8,16,10
India,Maharashtra,Solapur,"Ratandeep Housing Society, Solapur - MPCB",29-06-2024 13:00:00,17.65439,75.90649,OZONE,16,31,20
India,Maharashtra,Thane,"Pimpleshwar Mandir, Thane - MPCB",29-06-2024 13:00:00,19.192056,72.9585188,NH3,4,4,4
India,Maharashtra,Thane,"Pimpleshwar Mandir, Thane - MPCB",29-06-2024 13:00:00,19.192056,72.9585188,SO2,NA,NA,NA
India,Maharashtra,Thane,"Upvan Fort, Thane - MPCB",29-06-2024 13:00:00,19.222279,72.957979,OZONE,2,12,5
India,Maharashtra,Ulhasnagar,"Sidhi Vinayak Nagar, Ulhasnagar - MPCB",29-06-2024 13:00:00,19.235581,73.159121,PM10,40,64,52
India,Maharashtra,Ulhasnagar,"Sidhi Vinayak Nagar, Ulhasnagar - MPCB",29-06-2024 13:00:00,19.235581,73.159121,NO2,3,30,11
India,Maharashtra,Ulhasnagar,"Sidhi Vinayak Nagar, Ulhasnagar - MPCB",29-06-2024 13:00:00,19.235581,73.159121,OZONE,3,22,8
India,Maharashtra,Virar,"Bolinj, Virar - MPCB",29-06-2024 13:00:00,19.4458210,72.7988231,PM10,38,75,53
India,Maharashtra,Virar,"Bolinj, Virar - MPCB",29-06-2024 13:00:00,19.4458210,72.7988231,NO2,7,22,15
India,Manipur,Imphal,"DM College of Science, Imphal - Manipur PCB",29-06-2024 13:00:00,24.8207389,93.9423085,SO2,NA,NA,NA
India,Meghalaya,Shillong,"Lumpyngngad, Shillong - Meghalaya PCB",29-06-2024 13:00:00,25.5586,91.8985,PM10,NA,NA,NA
India,Meghalaya,Shillong,"Lumpyngngad, Shillong - Meghalaya PCB",29-06-2024 13:00:00,25.5586,91.8985,SO2,NA,NA,NA
India,Nagaland,Kohima,"PWD Juction, Kohima - NPCB",29-06-2024 13:00:00,25.6635413,94.0989878,NO2,3,6,3
India,Nagaland,Kohima,"PWD Juction, Kohima - NPCB",29-06-2024 13:00:00,25.6635413,94.0989878,NH3,1,1,1
India,Nagaland,Kohima,"PWD Juction, Kohima - NPCB",29-06-2024 13:00:00,25.6635413,94.0989878,CO,1,17,9
India,Odisha,Angul,"Hakimapada, Angul - OSPCB",29-06-2024 13:00:00,20.832874,85.104082,CO,4,126,31
India,Odisha,Balasore,"Kalidaspur, Balasore - OSPCB",29-06-2024 13:00:00,21.51161,86.89088,CO,40,101,73
India,Odisha,Barbil,"Forest Office, Barbil - OSPCB",29-06-2024 13:00:00,22.1166054,85.3945546,NO2,4,8,6
India,Odisha,Bhubaneswar,"Lingraj Mandir, Bhubaneswar - OSPCB",29-06-2024 13:00:00,20.240790,85.836784,PM2.5,2,177,44
India,Odisha,Bhubaneswar,"Lingraj Mandir, Bhubaneswar - OSPCB",29-06-2024 13:00:00,20.240790,85.836784,PM10,10,272,81
India,Odisha,Bhubaneswar,"Lingraj Mandir, Bhubaneswar - OSPCB",29-06-2024 13:00:00,20.240790,85.836784,NO2,9,20,15
India,Odisha,Bhubaneswar,"Lingraj Mandir, Bhubaneswar - OSPCB",29-06-2024 13:00:00,20.240790,85.836784,SO2,5,14,9
India,Odisha,Bhubaneswar,"Patia, Bhubaneswar - OSPCB",29-06-2024 13:00:00,20.34652,85.81630,PM10,35,90,51
India,Odisha,Bileipada,"Tata Township, Bileipada - OSPCB",29-06-2024 13:00:00,22.06156703,85.47409613,SO2,1,27,8
India,Odisha,Brajrajnagar,"GM Office, Brajrajnagar - OSPCB",29-06-2024 13:00:00,21.8004996,83.8396977,NH3,16,16,16
India,Odisha,Byasanagar,"Ferro Chrome Colony, Byasanagar - OSPCB",29-06-2024 13:00:00,20.94185,86.11510,PM10,1,66,33
India,Odisha,Byasanagar,"Ferro Chrome Colony, Byasanagar - OSPCB",29-06-2024 13:00:00,20.94185,86.11510,SO2,2,7,4
India,Odisha,Keonjhar,"Jagamohanpur, Keonjhar - OSPCB",29-06-2024 13:00:00,21.643900,85.599355,PM2.5,NA,NA,NA
India,Odisha,Keonjhar,"Jagamohanpur, Keonjhar - OSPCB",29-06-2024 13:00:00,21.643900,85.599355,OZONE,7,50,50
India,Odisha,Nayagarh,"Dabuna, Nayagarh - OSPCB",29-06-2024 13:00:00,21.847279,85.416905,NO2,NA,NA,NA
India,Odisha,Rairangpur,"Divisional Forest Office, Rairangpur - OSPCB",29-06-2024 13:00:00,22.265816,86.174829,NO2,14,14,14
India,Odisha,Rairangpur,"Divisional Forest Office, Rairangpur - OSPCB",29-06-2024 13:00:00,22.265816,86.174829,CO,10,24,13
India,Odisha,Rourkela,"Fertilizer Township, Rourkela - OSPCB",29-06-2024 13:00:00,22.18972222,84.86277778,PM2.5,NA,NA,NA
India,Odisha,Rourkela,"Fertilizer Township, Rourkela - OSPCB",29-06-2024 13:00:00,22.18972222,84.86277778,SO2,11,15,13
India,Odisha,Rourkela,"Fertilizer Township, Rourkela - OSPCB",29-06-2024 13:00:00,22.18972222,84.86277778,CO,10,26,22
India,Odisha,Rourkela,"Raghunathpali, Rourkela - OSPCB",29-06-2024 13:00:00,22.220833,84.809444,NH3,1,3,2
India,Odisha,Rourkela,"Sector-2, Rourkela - OSPCB",29-06-2024 13:00:00,22.24500000,84.88111111,PM2.5,12,100,42
India,Odisha,Rourkela,"Sector-2, Rourkela - OSPCB",29-06-2024 13:00:00,22.24500000,84.88111111,PM10,13,61,39
India,Odisha,Suakati,"OMC Colony, Suakati - OSPCB",29-06-2024 13:00:00,21.606865,85.510538,PM2.5,12,47,26
India,Odisha,Suakati,"OMC Colony, Suakati - OSPCB",29-06-2024 13:00:00,21.606865,85.510538,PM10,20,36,27
India,Odisha,Talcher,"Talcher Coalfields,Talcher - OSPCB",29-06-2024 13:00:00,20.9360711,85.1707021,PM10,7,79,38
India,Odisha,Tensa,"Barsua Iron Ore Mines, Tensa - OSPCB",29-06-2024 13:00:00,21.869985,85.167016,PM10,26,98,55
India,Punjab,Amritsar,"Golden Temple, Amritsar - PPCB",29-06-2024 13:00:00,31.620000,74.876512,PM2.5,55,297,162
India,Punjab,Amritsar,"Golden Temple, Amritsar - PPCB",29-06-2024 13:00:00,31.620000,74.876512,NH3,5,8,6
India,Punjab,Jalandhar,"Civil Line, Jalandhar - PPCB",29-06-2024 13:00:00,31.321907,75.578914,OZONE,26,68,43
India,Punjab,Khanna,"Kalal Majra, Khanna - PPCB",29-06-2024 13:00:00,30.736056 ,76.209694,SO2,3,11,6
India,Punjab,Khanna,"Kalal Majra, Khanna - PPCB",29-06-2024 13:00:00,30.736056 ,76.209694,CO,20,26,23
India,Punjab,Ludhiana,"Punjab Agricultural University, Ludhiana - PPCB",29-06-2024 13:00:00,30.9028,75.8086,PM2.5,36,162,63
India,Punjab,Ludhiana,"Punjab Agricultural University, Ludhiana - PPCB",29-06-2024 13:00:00,30.9028,75.8086,PM10,38,128,65
India,Punjab,Ludhiana,"Punjab Agricultural University, Ludhiana - PPCB",29-06-2024 13:00:00,30.9028,75.8086,NO2,22,26,24
India,Punjab,Ludhiana,"Punjab Agricultural University, Ludhiana - PPCB",29-06-2024 13:00:00,30.9028,75.8086,CO,31,71,37
India,Punjab,Patiala,"Model Town, Patiala - PPCB",29-06-2024 13:00:00,30.349388,76.366642,PM2.5,23,72,47
India,Punjab,Patiala,"Model Town, Patiala - PPCB",29-06-2024 13:00:00,30.349388,76.366642,PM10,39,96,57
India,Punjab,Patiala,"Model Town, Patiala - PPCB",29-06-2024 13:00:00,30.349388,76.366642,NO2,16,26,20
India,Punjab,Patiala,"Model Town, Patiala - PPCB",29-06-2024 13:00:00,30.349388,76.366642,NH3,4,5,5
India,Rajasthan,Ajmer,"Civil Lines,  Ajmer - RSPCB",29-06-2024 13:00:00,26.470859,74.646594,PM2.5,17,86,57
India,Rajasthan,Alwar,"Moti Doongri, Alwar - RSPCB",29-06-2024 13:00:00,27.554793,76.611536,PM10,30,74,47
India,Rajasthan,Baran,"Bamboliya, Baran - RSPCB",29-06-2024 13:00:00,25.106006,76.469948,PM2.5,NA,NA,NA
India,Rajasthan,Barmer,"Railway Colony, Barmer - RSPCB",29-06-2024 13:00:00,25.747299,71.393989,PM10,14,51,27
India,Rajasthan,Barmer,"Railway Colony, Barmer - RSPCB",29-06-2024 13:00:00,25.747299,71.393989,NH3,5,16,10
India,Rajasthan,Barmer,"Railway Colony, Barmer - RSPCB",29-06-2024 13:00:00,25.747299,71.393989,CO,11,26,17
India,Rajasthan,Barmer,"Railway Colony, Barmer - RSPCB",29-06-2024 13:00:00,25.747299,71.393989,OZONE,4,59,16
India,Rajasthan,Bhilwara,"Pratap Nagar, Bhilwara - RSPCB",29-06-2024 13:00:00,25.339605,74.618883,SO2,4,13,9
India,Rajasthan,Bhilwara,"Pratap Nagar, Bhilwara - RSPCB",29-06-2024 13:00:00,25.339605,74.618883,OZONE,5,66,21
India,Rajasthan,Bhiwadi,"RIICO Ind. Area III, Bhiwadi - RSPCB",29-06-2024 13:00:00,28.194909,76.862296,NH3,3,21,10
India,Rajasthan,Bhiwadi,"RIICO Ind. Area III, Bhiwadi - RSPCB",29-06-2024 13:00:00,28.194909,76.862296,OZONE,10,92,47
India,Rajasthan,Bhiwadi,"Vasundhara Nagar_UIT, Bhiwadi - RSPCB",29-06-2024 13:00:00,28.207266,76.829265,NO2,12,50,28
India,Rajasthan,Bhiwadi,"Vasundhara Nagar_UIT, Bhiwadi - RSPCB",29-06-2024 13:00:00,28.207266,76.829265,NH3,16,28,21
India,Rajasthan,Bundi,"New Colony, Bundi - RSPCB",29-06-2024 13:00:00,25.435774,75.644272,PM10,7,50,35
India,Rajasthan,Bundi,"New Colony, Bundi - RSPCB",29-06-2024 13:00:00,25.435774,75.644272,NH3,4,21,7
India,Rajasthan,Chittorgarh,"Shastri Nagar, Chittorgarh - RSPCB",29-06-2024 13:00:00,24.892047,74.623527,PM10,41,177,80
India,Rajasthan,Chittorgarh,"Shastri Nagar, Chittorgarh - RSPCB",29-06-2024 13:00:00,24.892047,74.623527,NH3,1,9,5
India,Rajasthan,Chittorgarh,"Shastri Nagar, Chittorgarh - RSPCB",29-06-2024 13:00:00,24.892047,74.623527,OZONE,9,55,34
India,Rajasthan,Churu,"Subash Chowk, Churu - RSPCB",29-06-2024 13:00:00,28.296139,74.961696,NO2,10,19,13
India,Rajasthan,Dausa,"Khatikan Mohalla, Dausa - RSPCB",29-06-2024 13:00:00,26.895552,76.334753,PM10,21,130,61
India,Rajasthan,Dholpur,"Raja Ganj, Dholpur - RSPCB",29-06-2024 13:00:00,26.699557,77.898881,CO,9,24,15
India,Rajasthan,Dungarpur,"Bhoiwada, Dungarpur - RSPCB",29-06-2024 13:00:00,23.837789,73.714926,NH3,2,5,3
India,Rajasthan,Jaipur,"Adarsh Nagar, Jaipur - RSPCB",29-06-2024 13:00:00,26.902909,75.836858,PM10,2,55,31
India,Rajasthan,Jaipur,"Adarsh Nagar, Jaipur - RSPCB",29-06-2024 13:00:00,26.902909,75.836858,SO2,9,32,14
India,Rajasthan,Jaipur,"Adarsh Nagar, Jaipur - RSPCB",29-06-2024 13:00:00,26.902909,75.836858,OZONE,19,60,31
India,Rajasthan,Jaipur,"Mansarovar Sector-12, Jaipur - RSPCB",29-06-2024 13:00:00,26.843698,75.766894,OZONE,27,65,37
India,Rajasthan,Jaipur,"Police Commissionerate, Jaipur - RSPCB",29-06-2024 13:00:00,26.9164092,75.7994901,NO2,8,13,10
India,Rajasthan,Jaipur,"Police Commissionerate, Jaipur - RSPCB",29-06-2024 13:00:00,26.9164092,75.7994901,OZONE,34,87,46
India,Rajasthan,Jaipur,"Sector-2 Murlipura, Jaipur - RSPCB",29-06-2024 13:00:00,26.960669,75.771817,SO2,7,12,9
India,Rajasthan,Jaipur,"Sector-2 Murlipura, Jaipur - RSPCB",29-06-2024 13:00:00,26.960669,75.771817,CO,16,68,37
India,Rajasthan,Jaipur,"Sector-2 Murlipura, Jaipur - RSPCB",29-06-2024 13:00:00,26.960669,75.771817,OZONE,6,37,12
India,Rajasthan,Jaipur,"Shastri Nagar, Jaipur - RSPCB",29-06-2024 13:00:00,26.9502929,75.730943,NO2,25,88,46
India,Rajasthan,Jaipur,"Shastri Nagar, Jaipur - RSPCB",29-06-2024 13:00:00,26.9502929,75.730943,NH3,7,14,10
India,Rajasthan,Jalore,"Mudtra Sili, Jalore - RSPCB",29-06-2024 13:00:00,25.344694,72.626208,CO,14,22,17
India,Rajasthan,Jhunjhunu,"Indra Nagar, Jhunjhunu - RSPCB",29-06-2024 13:00:00,28.108988,75.386577,PM2.5,2,46,20
India,Rajasthan,Jhunjhunu,"Indra Nagar, Jhunjhunu - RSPCB",29-06-2024 13:00:00,28.108988,75.386577,NH3,13,64,30
India,Rajasthan,Jodhpur,"Digari Kalan, Jodhpur - RSPCB",29-06-2024 13:00:00,26.295810,73.082283,PM2.5,2,24,13
India,Rajasthan,Jodhpur,"Digari Kalan, Jodhpur - RSPCB",29-06-2024 13:00:00,26.295810,73.082283,PM10,6,41,22
India,Rajasthan,Jodhpur,"Mandor, Jodhpur - RSPCB",29-06-2024 13:00:00,26.358805,73.047444,NO2,24,74,40
India,Rajasthan,Jodhpur,"Samrat Ashok Udhyan, Jodhpur - RSPCB",29-06-2024 13:00:00,26.253384,72.976571,NO2,7,65,24
India,Rajasthan,Jodhpur,"Samrat Ashok Udhyan, Jodhpur - RSPCB",29-06-2024 13:00:00,26.253384,72.976571,OZONE,17,73,31
India,Rajasthan,Karauli,"Satyawati Vihar, Karauli - RSPCB",29-06-2024 13:00:00,26.506177,77.025989,NO2,4,25,11
India,Rajasthan,Karauli,"Satyawati Vihar, Karauli - RSPCB",29-06-2024 13:00:00,26.506177,77.025989,NH3,4,12,7
India,Rajasthan,Kota,"Dhanmandi, Kota - RSPCB",29-06-2024 13:00:00,25.164090,75.858137,PM10,36,80,56
India,Rajasthan,Kota,"Nayapura, Kota - RSPCB",29-06-2024 13:00:00,25.196024,75.855668,PM10,19,89,40
India,Rajasthan,Kota,"Nayapura, Kota - RSPCB",29-06-2024 13:00:00,25.196024,75.855668,NH3,2,59,6
India,Rajasthan,Kota,"Nayapura, Kota - RSPCB",29-06-2024 13:00:00,25.196024,75.855668,SO2,11,36,18
India,Rajasthan,Kota,"Nayapura, Kota - RSPCB",29-06-2024 13:00:00,25.196024,75.855668,CO,11,126,13
India,Rajasthan,Kota,"Shrinath Puram, Kota - RSPCB",29-06-2024 13:00:00,25.14389,75.821256,NH3,10,15,13
India,Rajasthan,Kota,"Shrinath Puram, Kota - RSPCB",29-06-2024 13:00:00,25.14389,75.821256,OZONE,26,40,30
India,Rajasthan,Nagaur,"Karni Colony, Nagaur - RSPCB",29-06-2024 13:00:00,27.213494,73.734444,PM10,8,45,26
India,Rajasthan,Pali,"Indira Colony Vistar, Pali - RSPCB",29-06-2024 13:00:00,25.771061, 73.340227,PM10,23,61,43
India,Rajasthan,Pali,"Indira Colony Vistar, Pali - RSPCB",29-06-2024 13:00:00,25.771061, 73.340227,NH3,4,8,6
India,Rajasthan,Pali,"Indira Colony Vistar, Pali - RSPCB",29-06-2024 13:00:00,25.771061, 73.340227,OZONE,16,36,23
India,Rajasthan,Pratapgarh,"Pragati Nagar, Pratapgarh - RSPCB",29-06-2024 13:00:00,24.041198,74.780702,PM2.5,6,34,19
India,Rajasthan,Pratapgarh,"Pragati Nagar, Pratapgarh - RSPCB",29-06-2024 13:00:00,24.041198,74.780702,CO,9,27,12
India,Rajasthan,Rajsamand,"Dhoinda, Rajsamand - RSPCB",29-06-2024 13:00:00,25.036360,73.883502,NH3,1,16,4
India,Rajasthan,Sawai Madhopur,"Sahu Nagar, Sawai Madhopur - RSPCB",29-06-2024 13:00:00,26.031443,76.359327,PM10,6,46,22
India,Rajasthan,Sawai Madhopur,"Sahu Nagar, Sawai Madhopur - RSPCB",29-06-2024 13:00:00,26.031443,76.359327,OZONE,29,95,38
India,Rajasthan,Sikar,"Radhakishan Pura, Sikar - RSPCB",29-06-2024 13:00:00,27.608912,75.153302,PM2.5,12,38,26
India,Rajasthan,Sikar,"Radhakishan Pura, Sikar - RSPCB",29-06-2024 13:00:00,27.608912,75.153302,PM10,29,93,53
India,Rajasthan,Sikar,"Radhakishan Pura, Sikar - RSPCB",29-06-2024 13:00:00,27.608912,75.153302,OZONE,17,71,34
India,Rajasthan,Sri Ganganagar,"Old City, Sri Ganganagar - RSPCB",29-06-2024 13:00:00,29.931624,73.864511,PM2.5,NA,NA,NA
India,Rajasthan,Sri Ganganagar,"Old City, Sri Ganganagar - RSPCB",29-06-2024 13:00:00,29.931624,73.864511,OZONE,18,53,41
India,Rajasthan,Tonk,"Shastri Nagar, Tonk - RSPCB",29-06-2024 13:00:00,26.159933,75.780517,OZONE,1,86,7
India,Rajasthan,Udaipur,"Ashok Nagar, Udaipur - RSPCB",29-06-2024 13:00:00,24.5886166,73.6321397,NH3,4,15,8
India,Sikkim,Gangtok,"Zero Point GICI, Gangtok - SSPCB",29-06-2024 13:00:00,27.338530,88.614099,PM10,5,18,10
India,Sikkim,Gangtok,"Zero Point GICI, Gangtok - SSPCB",29-06-2024 13:00:00,27.338530,88.614099,SO2,12,12,12
India,TamilNadu,Ariyalur,"Keelapalur, Ariyalur - TNPCB",29-06-2024 13:00:00,11.06825,79.07033,NH3,1,2,2
India,TamilNadu,Chennai,"Arumbakkam, Chennai - TNPCB",29-06-2024 13:00:00,13.0664,80.2112 ,PM10,36,85,56
India,TamilNadu,Chennai,"Kodungaiyur, Chennai - TNPCB",29-06-2024 13:00:00,13.1278,80.2642,PM2.5,13,69,23
India,TamilNadu,Chennai,"Kodungaiyur, Chennai - TNPCB",29-06-2024 13:00:00,13.1278,80.2642,SO2,2,7,5
India,TamilNadu,Chennai,"Kodungaiyur, Chennai - TNPCB",29-06-2024 13:00:00,13.1278,80.2642,CO,22,44,35
India,TamilNadu,Chennai,"Manali, Chennai - CPCB",29-06-2024 13:00:00,13.164544,80.26285,PM2.5,NA,NA,NA
India,TamilNadu,Chennai,"Manali, Chennai - CPCB",29-06-2024 13:00:00,13.164544,80.26285,PM10,34,132,70
India,TamilNadu,Chennai,"Perungudi, Chennai - TNPCB",29-06-2024 13:00:00,12.9533,80.2357,PM10,30,202,84
India,TamilNadu,Chennai,"Perungudi, Chennai - TNPCB",29-06-2024 13:00:00,12.9533,80.2357,NH3,3,5,4
India,TamilNadu,Chennai,"Perungudi, Chennai - TNPCB",29-06-2024 13:00:00,12.9533,80.2357,CO,28,36,31
India,TamilNadu,Chennai,"Perungudi, Chennai - TNPCB",29-06-2024 13:00:00,12.9533,80.2357,OZONE,7,16,14
India,TamilNadu,Chennai,"Royapuram, Chennai - TNPCB",29-06-2024 13:00:00,13.1036,80.2909,NO2,13,38,25
India,TamilNadu,Chennai,"Royapuram, Chennai - TNPCB",29-06-2024 13:00:00,13.1036,80.2909,CO,23,46,38
India,TamilNadu,Chennai,"Velachery Res. Area, Chennai - CPCB",29-06-2024 13:00:00,13.0052189,80.2398125,PM2.5,23,45,34
India,TamilNadu,Coimbatore,"PSG College of Arts and Science, Coimbatore - TNPCB",29-06-2024 13:00:00,11.0328,77.0349,PM2.5,10,33,22
India,TamilNadu,Coimbatore,"PSG College of Arts and Science, Coimbatore - TNPCB",29-06-2024 13:00:00,11.0328,77.0349,SO2,31,42,39
India,TamilNadu,Cuddalore,"Semmandalam, Cuddalore - TNPCB",29-06-2024 13:00:00,11.7637683,79.7499835,PM2.5,7,87,23
India,TamilNadu,Ooty,"Bombay Castel, Ooty - TNPCB",29-06-2024 13:00:00,11.4068288,76.7138973,NO2,1,9,3
India,TamilNadu,Ramanathapuram,"Chalai Bazaar, Ramanathapuram - TNPCB",29-06-2024 13:00:00,9.36399,78.831977,CO,NA,NA,NA
India,TamilNadu,Thoothukudi,"Meelavittan, Thoothukudi - TNPCB",29-06-2024 13:00:00,8.816428 ,78.099039,NO2,24,34,28
India,TamilNadu,Thoothukudi,"Meelavittan, Thoothukudi - TNPCB",29-06-2024 13:00:00,8.816428 ,78.099039,OZONE,1,5,3
India,TamilNadu,Tirupur,"Kumaran College, Tirupur - TNPCB",29-06-2024 13:00:00,11.0973603,77.3228673,SO2,17,18,18
India,Telangana,Hyderabad,"Bollaram Industrial Area, Hyderabad - TSPCB",29-06-2024 13:00:00,17.540891,78.358528,NO2,14,22,18
India,Telangana,Hyderabad,"Bollaram Industrial Area, Hyderabad - TSPCB",29-06-2024 13:00:00,17.540891,78.358528,SO2,11,31,22
India,Telangana,Hyderabad,"Central University, Hyderabad - TSPCB",29-06-2024 13:00:00,17.460103,78.334361,NH3,3,6,4
India,Telangana,Hyderabad,"Central University, Hyderabad - TSPCB",29-06-2024 13:00:00,17.460103,78.334361,OZONE,3,4,3
India,Telangana,Hyderabad,"ICRISAT Patancheru, Hyderabad - TSPCB",29-06-2024 13:00:00,17.518400,78.278777,CO,7,49,21
India,Telangana,Hyderabad,"IDA Pashamylaram, Hyderabad - TSPCB",29-06-2024 13:00:00,17.5316895,78.218939,OZONE,5,12,7
India,Telangana,Hyderabad,"IITH Kandi, Hyderabad - TSPCB",29-06-2024 13:00:00,17.585705,78.126199,NH3,NA,NA,NA
India,Telangana,Hyderabad,"IITH Kandi, Hyderabad - TSPCB",29-06-2024 13:00:00,17.585705,78.126199,CO,16,28,26
India,Telangana,Hyderabad,"Kokapet, Hyderabad - TSPCB",29-06-2024 13:00:00,17.393559,78.339194,PM10,76,122,88
India,Telangana,Hyderabad,"Kokapet, Hyderabad - TSPCB",29-06-2024 13:00:00,17.393559,78.339194,CO,18,22,18
India,Telangana,Hyderabad,"Kompally Municipal Office, Hyderabad - TSPCB",29-06-2024 13:00:00,17.544899,78.486949,PM2.5,NA,NA,NA
India,Telangana,Hyderabad,"Nacharam_TSIIC IALA, Hyderabad - TSPCB",29-06-2024 13:00:00,17.429398,78.569354,OZONE,6,30,9
India,Telangana,Hyderabad,"Ramachandrapuram, Hyderabad - TSPCB",29-06-2024 13:00:00,17.528544,78.286195,PM2.5,34,52,42
India,Telangana,Hyderabad,"Ramachandrapuram, Hyderabad - TSPCB",29-06-2024 13:00:00,17.528544,78.286195,CO,19,30,28
India,Telangana,Hyderabad,"Somajiguda, Hyderabad - TSPCB",29-06-2024 13:00:00,17.417094,78.457437,OZONE,6,12,6
India,Telangana,Hyderabad,"Zoo Park, Hyderabad - TSPCB",29-06-2024 13:00:00,17.349694,78.451437,CO,5,40,14
India,Tripura,Agartala,"Bardowali, Agartala - Tripura SPCB",29-06-2024 13:00:00,23.8175497,91.2726974,PM2.5,9,44,28
India,Uttar_Pradesh,Agra,"Manoharpur, Agra - UPPCB",29-06-2024 13:00:00,27.23711,78.01936,PM10,6,32,20
India,Uttar_Pradesh,Agra,"Manoharpur, Agra - UPPCB",29-06-2024 13:00:00,27.23711,78.01936,NH3,2,3,3
India,Uttar_Pradesh,Agra,"Manoharpur, Agra - UPPCB",29-06-2024 13:00:00,27.23711,78.01936,CO,5,10,8
India,Uttar_Pradesh,Agra,"Rohta, Agra - UPPCB",29-06-2024 13:00:00,27.106972,78.000111,NH3,2,2,2
India,Uttar_Pradesh,Agra,"Rohta, Agra - UPPCB",29-06-2024 13:00:00,27.106972,78.000111,SO2,4,9,5
India,Uttar_Pradesh,Agra,"Rohta, Agra - UPPCB",29-06-2024 13:00:00,27.106972,78.000111,CO,4,16,8
India,Uttar_Pradesh,Agra,"Sanjay Palace, Agra - UPPCB",29-06-2024 13:00:00,27.19865833,78.00598056,NO2,2,5,3
India,Uttar_Pradesh,Agra,"Sanjay Palace, Agra - UPPCB",29-06-2024 13:00:00,27.19865833,78.00598056,SO2,3,12,8
India,Uttar_Pradesh,Agra,"Shahjahan Garden, Agra - UPPCB",29-06-2024 13:00:00,27.169338,78.03582,PM10,NA,NA,NA
India,Uttar_Pradesh,Agra,"Shahjahan Garden, Agra - UPPCB",29-06-2024 13:00:00,27.169338,78.03582,NO2,NA,NA,NA
India,Uttar_Pradesh,Agra,"Shahjahan Garden, Agra - UPPCB",29-06-2024 13:00:00,27.169338,78.03582,SO2,NA,NA,NA
India,Uttar_Pradesh,Baghpat,"Sardar Patel Inter College, Baghpat - UPPCB",29-06-2024 13:00:00,28.964949,77.278761,NH3,2,2,2
India,Uttar_Pradesh,Baghpat,"Sardar Patel Inter College, Baghpat - UPPCB",29-06-2024 13:00:00,28.964949,77.278761,SO2,19,48,33
India,Uttar_Pradesh,Bareilly,"Civil Lines, Bareilly - UPPCB",29-06-2024 13:00:00,28.359581,79.414455,PM2.5,7,16,12
India,Uttar_Pradesh,Bareilly,"Civil Lines, Bareilly - UPPCB",29-06-2024 13:00:00,28.359581,79.414455,NH3,NA,NA,NA
India,Uttar_Pradesh,Bareilly,"Rajendra Nagar, Bareilly - UPPCB",29-06-2024 13:00:00,28.38910936,79.42963708,NH3,1,3,1
India,Uttar_Pradesh,Bulandshahr,"Yamunapuram, Bulandshahr - UPPCB",29-06-2024 13:00:00,28.406963,77.849831,PM2.5,10,143,61
India,Uttar_Pradesh,Firozabad,"Nagla Bhau, Firozabad - UPPCB",29-06-2024 13:00:00,27.168897,78.376960,OZONE,15,17,16
India,Uttar_Pradesh,Firozabad,"Vibhab Nagar, Firozabad - UPPCB",29-06-2024 13:00:00,27.1594,78.3953,CO,8,30,15
India,Uttar_Pradesh,Ghaziabad,"Loni, Ghaziabad - UPPCB",29-06-2024 13:00:00,28.757294,77.278792,PM10,32,197,114
India,Uttar_Pradesh,Ghaziabad,"Loni, Ghaziabad - UPPCB",29-06-2024 13:00:00,28.757294,77.278792,NH3,2,8,4
India,Uttar_Pradesh,Ghaziabad,"Sanjay Nagar, Ghaziabad - UPPCB",29-06-2024 13:00:00,28.685382,77.453839,SO2,12,28,20
India,Uttar_Pradesh,Gorakhpur,"Madan Mohan Malaviya University of Technology, Gorakhpur - UPPCB",29-06-2024 13:00:00,26.730136,83.433859,OZONE,9,10,10
India,Uttar_Pradesh,Greater Noida,"Knowledge Park - III, Greater Noida - UPPCB",29-06-2024 13:00:00,28.47272,77.482000,NH3,8,19,11
India,Uttar_Pradesh,Greater Noida,"Knowledge Park - III, Greater Noida - UPPCB",29-06-2024 13:00:00,28.47272,77.482000,CO,17,52,39
India,Uttar_Pradesh,Greater Noida,"Knowledge Park - V, Greater Noida - UPPCB",29-06-2024 13:00:00,28.557054,77.453663,CO,16,70,52
India,Uttar_Pradesh,Hapur,"Anand Vihar, Hapur - UPPCB",29-06-2024 13:00:00,28.725645,77.749675,PM2.5,13,62,40
India,Uttar_Pradesh,Hapur,"Anand Vihar, Hapur - UPPCB",29-06-2024 13:00:00,28.725645,77.749675,SO2,12,19,15
India,Uttar_Pradesh,Jhansi,"Shivaji Nagar, Jhansi - UPPCB",29-06-2024 13:00:00,25.4547,78.6039,PM10,10,96,45
India,Uttar_Pradesh,Jhansi,"Shivaji Nagar, Jhansi - UPPCB",29-06-2024 13:00:00,25.4547,78.6039,SO2,18,22,20
India,Uttar_Pradesh,Jhansi,"Shivaji Nagar, Jhansi - UPPCB",29-06-2024 13:00:00,25.4547,78.6039,CO,6,12,7
India,Uttar_Pradesh,Kanpur,"NSI Kalyanpur, Kanpur - UPPCB",29-06-2024 13:00:00,26.509954,80.249612,NH3,1,1,1
India,Uttar_Pradesh,Khurja,"Kalindi Kunj, Khurja - UPPCB",29-06-2024 13:00:00,28.2348927,77.8683002,PM2.5,NA,NA,NA
India,Uttar_Pradesh,Lucknow,"Gomti Nagar, Lucknow - UPPCB",29-06-2024 13:00:00,26.868120,81.005119,CO,36,44,37
India,Uttar_Pradesh,Lucknow,"Kendriya Vidyalaya, Lucknow - CPCB",29-06-2024 13:00:00,26.906111,80.948222,PM2.5,8,81,34
India,Uttar_Pradesh,Lucknow,"Kendriya Vidyalaya, Lucknow - CPCB",29-06-2024 13:00:00,26.906111,80.948222,SO2,3,25,9
India,Uttar_Pradesh,Lucknow,"Kendriya Vidyalaya, Lucknow - CPCB",29-06-2024 13:00:00,26.906111,80.948222,OZONE,6,33,12
India,Uttar_Pradesh,Lucknow,"Kukrail Picnic Spot-1, Lucknow - UPPCB",29-06-2024 13:00:00,26.90723,80.98579,SO2,30,34,31
India,Uttar_Pradesh,Lucknow,"Lalbagh, Lucknow - CPCB",29-06-2024 13:00:00,26.8458805,80.9365541,SO2,1,25,14
India,Uttar_Pradesh,Lucknow,"Talkatora District Industries Center, Lucknow - CPCB",29-06-2024 13:00:00,26.83399722,80.8917361,NO2,11,13,12
India,Uttar_Pradesh,Meerut,"Ganga Nagar, Meerut - UPPCB",29-06-2024 13:00:00,28.999264,77.7590354,PM2.5,7,58,34
India,Uttar_Pradesh,Meerut,"Ganga Nagar, Meerut - UPPCB",29-06-2024 13:00:00,28.999264,77.7590354,NH3,11,40,21
India,Uttar_Pradesh,Meerut,"Ganga Nagar, Meerut - UPPCB",29-06-2024 13:00:00,28.999264,77.7590354,CO,100,116,110
India,Uttar_Pradesh,Meerut,"Jai Bhim Nagar, Meerut - UPPCB",29-06-2024 13:00:00,28.9535882,77.7622941,PM10,25,112,76
India,Uttar_Pradesh,Meerut,"Jai Bhim Nagar, Meerut - UPPCB",29-06-2024 13:00:00,28.9535882,77.7622941,OZONE,16,125,40
India,Uttar_Pradesh,Meerut,"Pallavpuram Phase 2, Meerut - UPPCB",29-06-2024 13:00:00,29.063510,77.709723,SO2,15,90,25
India,Uttar_Pradesh,Moradabad,"Buddhi Vihar, Moradabad - UPPCB",29-06-2024 13:00:00,28.83526,78.74460,NH3,3,3,3
India,Uttar_Pradesh,Moradabad,"Buddhi Vihar, Moradabad - UPPCB",29-06-2024 13:00:00,28.83526,78.74460,OZONE,5,18,6
India,Uttar_Pradesh,Moradabad,"Eco Herbal Park, Moradabad - UPPCB",29-06-2024 13:00:00,28.840739,78.697531,OZONE,3,92,24
India,Uttar_Pradesh,Moradabad,"Employment Office, Moradabad - UPPCB",29-06-2024 13:00:00,28.88528,78.73880,NO2,17,22,17
India,Uttar_Pradesh,Moradabad,"Employment Office, Moradabad - UPPCB",29-06-2024 13:00:00,28.88528,78.73880,NH3,4,4,4
India,Uttar_Pradesh,Moradabad,"Employment Office, Moradabad - UPPCB",29-06-2024 13:00:00,28.88528,78.73880,OZONE,16,50,22
India,Uttar_Pradesh,Moradabad,"Jigar Colony, Moradabad - UPPCB",29-06-2024 13:00:00,28.856664,78.772638,PM2.5,26,80,47
India,Uttar_Pradesh,Moradabad,"Jigar Colony, Moradabad - UPPCB",29-06-2024 13:00:00,28.856664,78.772638,SO2,19,22,21
India,Uttar_Pradesh,Moradabad,"Kashiram Nagar, Moradabad - UPPCB",29-06-2024 13:00:00,28.849399,78.742362,PM10,NA,NA,NA
India,Uttar_Pradesh,Moradabad,"Kashiram Nagar, Moradabad - UPPCB",29-06-2024 13:00:00,28.849399,78.742362,NO2,10,13,12
India,Uttar_Pradesh,Moradabad,"Kashiram Nagar, Moradabad - UPPCB",29-06-2024 13:00:00,28.849399,78.742362,CO,14,44,34
India,Uttar_Pradesh,Muzaffarnagar,"New Mandi, Muzaffarnagar - UPPCB",29-06-2024 13:00:00,29.4723508,77.7194031,PM2.5,28,238,92
India,Uttar_Pradesh,Muzaffarnagar,"New Mandi, Muzaffarnagar - UPPCB",29-06-2024 13:00:00,29.4723508,77.7194031,CO,24,46,37
India,Uttar_Pradesh,Noida,"Sector - 125, Noida - UPPCB",29-06-2024 13:00:00,28.5447608,77.3231257,SO2,NA,NA,NA
India,Uttar_Pradesh,Noida,"Sector-1, Noida - UPPCB",29-06-2024 13:00:00,28.5898,77.3101,PM10,NA,NA,NA
India,Uttar_Pradesh,Prayagraj,"Jhunsi, Prayagraj - UPPCB",29-06-2024 13:00:00,25.425602,81.917152,PM10,15,76,40
India,Uttar_Pradesh,Prayagraj,"Jhunsi, Prayagraj - UPPCB",29-06-2024 13:00:00,25.425602,81.917152,NO2,5,6,6
India,Uttar_Pradesh,Prayagraj,"Jhunsi, Prayagraj - UPPCB",29-06-2024 13:00:00,25.425602,81.917152,CO,9,16,11
India,Uttar_Pradesh,Prayagraj,"Motilal Nehru NIT, Prayagraj - UPPCB",29-06-2024 13:00:00,25.494,81.863,PM10,13,40,25
India,Uttar_Pradesh,Varanasi,"Ardhali Bazar, Varanasi - UPPCB",29-06-2024 13:00:00,25.3505986,82.9083074,PM2.5,15,34,24
India,Uttar_Pradesh,Varanasi,"Bhelupur, Varanasi - UPPCB",29-06-2024 13:00:00,25.301778,82.996789,PM10,25,52,41
India,Uttar_Pradesh,Varanasi,"Bhelupur, Varanasi - UPPCB",29-06-2024 13:00:00,25.301778,82.996789,CO,12,29,15
India,Uttar_Pradesh,Varanasi,"IESD Banaras Hindu University, Varanasi - UPPCB",29-06-2024 13:00:00,25.262326,82.995408,PM2.5,3,11,7
India,Uttar_Pradesh,Varanasi,"Maldahiya, Varanasi - UPPCB",29-06-2024 13:00:00,25.32393,82.99687,PM2.5,14,41,23
India,Uttar_Pradesh,Varanasi,"Maldahiya, Varanasi - UPPCB",29-06-2024 13:00:00,25.32393,82.99687,PM10,12,34,19
India,Uttar_Pradesh,Varanasi,"Maldahiya, Varanasi - UPPCB",29-06-2024 13:00:00,25.32393,82.99687,SO2,29,32,29
India,Uttar_Pradesh,Vrindavan,"Omex Eternity, Vrindavan - UPPCB",29-06-2024 13:00:00,27.5714090,77.6557570,PM10,15,291,89
India,Uttar_Pradesh,Vrindavan,"Omex Eternity, Vrindavan - UPPCB",29-06-2024 13:00:00,27.5714090,77.6557570,OZONE,22,26,25
India,Uttarakhand,Dehradun,"Doon University, Dehradun - UKPCB",29-06-2024 13:00:00,30.269444,78.044167,PM2.5,8,62,38
India,Uttarakhand,Rishikesh,"Shivaji Nagar, Rishikesh - UKPCB",29-06-2024 13:00:00,30.075911,78.2859547,NO2,7,12,9
India,Uttarakhand,Rishikesh,"Shivaji Nagar, Rishikesh - UKPCB",29-06-2024 13:00:00,30.075911,78.2859547,SO2,3,5,4
India,West_Bengal,Asansol,"Asansol Court Area, Asansol - WBPCB",29-06-2024 13:00:00,23.685297,86.945968,PM2.5,42,156,70
India,West_Bengal,Asansol,"Asansol Court Area, Asansol - WBPCB",29-06-2024 13:00:00,23.685297,86.945968,NO2,19,42,34
India,West_Bengal,Asansol,"Asansol Court Area, Asansol - WBPCB",29-06-2024 13:00:00,23.685297,86.945968,SO2,10,15,13
India,West_Bengal,Asansol,"Asansol Court Area, Asansol - WBPCB",29-06-2024 13:00:00,23.685297,86.945968,OZONE,13,86,59
India,West_Bengal,Asansol,"Evelyn Lodge, Asansol - WBPCB",29-06-2024 13:00:00,23.6979360,86.9443950,PM2.5,16,100,41
India,West_Bengal,Asansol,"Evelyn Lodge, Asansol - WBPCB",29-06-2024 13:00:00,23.6979360,86.9443950,PM10,20,108,58
India,West_Bengal,Asansol,"Evelyn Lodge, Asansol - WBPCB",29-06-2024 13:00:00,23.6979360,86.9443950,NH3,NA,NA,NA
India,West_Bengal,Asansol,"Mahabir Colliery, Asansol - WBPCB",29-06-2024 13:00:00,23.6181830,87.1057180,PM10,33,151,77
India,West_Bengal,Barrackpore,"SVSPA Campus, Barrackpore - WBPCB",29-06-2024 13:00:00,22.7605581,88.3617589,PM2.5,13,48,27
India,West_Bengal,Barrackpore,"SVSPA Campus, Barrackpore - WBPCB",29-06-2024 13:00:00,22.7605581,88.3617589,SO2,4,7,5
India,West_Bengal,Durgapur,"Sidhu Kanhu Indoor Stadium, Durgapur - WBPCB",29-06-2024 13:00:00,23.5404352,87.2892225,SO2,13,44,29
India,West_Bengal,Haldia,"Priyambada Housing Estate, Haldia - WBPCB",29-06-2024 13:00:00,22.06047,88.109737,NO2,10,15,11
India,West_Bengal,Haldia,"Priyambada Housing Estate, Haldia - WBPCB",29-06-2024 13:00:00,22.06047,88.109737,CO,23,36,25
India,West_Bengal,Howrah,"Botanical Garden, Howrah - WBPCB",29-06-2024 13:00:00,22.554954,88.292568,CO,24,39,26
India,West_Bengal,Howrah,"Botanical Garden, Howrah - WBPCB",29-06-2024 13:00:00,22.554954,88.292568,OZONE,4,35,16
India,West_Bengal,Howrah,"Ghusuri, Howrah - WBPCB",29-06-2024 13:00:00,22.611968,88.347422,PM2.5,16,41,25
India,West_Bengal,Howrah,"Padmapukur, Howrah - WBPCB",29-06-2024 13:00:00,22.5687319,88.2797276,PM10,30,58,42
India,West_Bengal,Howrah,"Padmapukur, Howrah - WBPCB",29-06-2024 13:00:00,22.5687319,88.2797276,CO,9,57,25
India,West_Bengal,Howrah,"Padmapukur, Howrah - WBPCB",29-06-2024 13:00:00,22.5687319,88.2797276,OZONE,19,28,22
India,West_Bengal,Kolkata,"Ballygunge, Kolkata - WBPCB",29-06-2024 13:00:00,22.5367507,88.3638022,PM10,16,32,22
India,West_Bengal,Kolkata,"Ballygunge, Kolkata - WBPCB",29-06-2024 13:00:00,22.5367507,88.3638022,CO,6,22,10
India,West_Bengal,Kolkata,"Ballygunge, Kolkata - WBPCB",29-06-2024 13:00:00,22.5367507,88.3638022,OZONE,21,25,22
India,West_Bengal,Kolkata,"Bidhannagar, Kolkata - WBPCB",29-06-2024 13:00:00,22.58157048,88.41002457,NO2,41,47,44
India,West_Bengal,Kolkata,"Bidhannagar, Kolkata - WBPCB",29-06-2024 13:00:00,22.58157048,88.41002457,OZONE,10,54,13
India,West_Bengal,Kolkata,"Fort William, Kolkata - WBPCB",29-06-2024 13:00:00,22.556640,88.342674,PM2.5,10,30,14
India,West_Bengal,Kolkata,"Fort William, Kolkata - WBPCB",29-06-2024 13:00:00,22.556640,88.342674,OZONE,20,38,32
India,West_Bengal,Kolkata,"Jadavpur, Kolkata - WBPCB",29-06-2024 13:00:00,22.49929,88.36917,OZONE,19,26,21
India,West_Bengal,Kolkata,"Rabindra Bharati University, Kolkata - WBPCB",29-06-2024 13:00:00,22.627847,88.380669,NH3,12,13,13
India,West_Bengal,Kolkata,"Rabindra Bharati University, Kolkata - WBPCB",29-06-2024 13:00:00,22.627847,88.380669,SO2,10,14,12
India,West_Bengal,Kolkata,"Rabindra Sarobar, Kolkata - WBPCB",29-06-2024 13:00:00,22.51106,88.35142,PM10,24,30,26
India,West_Bengal,Kolkata,"Victoria, Kolkata - WBPCB",29-06-2024 13:00:00,22.5448082,88.3403691,PM10,36,57,48
India,West_Bengal,Kolkata,"Victoria, Kolkata - WBPCB",29-06-2024 13:00:00,22.5448082,88.3403691,NO2,25,37,30
India,West_Bengal,Kolkata,"Victoria, Kolkata - WBPCB",29-06-2024 13:00:00,22.5448082,88.3403691,OZONE,9,25,14
India,West_Bengal,Siliguri,"Ward-32 Bapupara, Siliguri - WBPCB",29-06-2024 13:00:00,26.6879226,88.4152495,PM2.5,22,32,28
India,West_Bengal,Siliguri,"Ward-32 Bapupara, Siliguri - WBPCB",29-06-2024 13:00:00,26.6879226,88.4152495,PM10,17,49,30
India,West_Bengal,Siliguri,"Ward-32 Bapupara, Siliguri - WBPCB",29-06-2024 13:00:00,26.6879226,88.4152495,SO2,7,9,8
India,Andhra_Pradesh,Anantapur,"Gulzarpet, Anantapur - APPCB",29-06-2024 13:00:00,14.675886,77.593027,PM2.5,31,70,43
India,Andhra_Pradesh,Anantapur,"Gulzarpet, Anantapur - APPCB",29-06-2024 13:00:00,14.675886,77.593027,CO,12,33,19
India,Andhra_Pradesh,Rajamahendravaram,"Anand Kala Kshetram, Rajamahendravaram - APPCB",29-06-2024 13:00:00,16.9872867,81.7363176,PM2.5,10,38,22
India,Andhra_Pradesh,Tirupati,"Tirumala, Tirupati - APPCB",29-06-2024 13:00:00,13.67,79.35,SO2,3,13,9
India,Andhra_Pradesh,Vijayawada,"Rajiv Gandhi Park, Vijayawada - APPCB",29-06-2024 13:00:00,16.509717,80.612222,OZONE,33,33,33
India,Andhra_Pradesh,Vijayawada,"Rajiv Nagar, Vijayawada - APPCB",29-06-2024 13:00:00,16.554731,80.649110,PM10,53,110,59
India,Andhra_Pradesh,Vijayawada,"Rajiv Nagar, Vijayawada - APPCB",29-06-2024 13:00:00,16.554731,80.649110,NH3,2,2,2
India,Arunachal_Pradesh,Naharlagun,"Naharlagun, Naharlagun - APSPCB",29-06-2024 13:00:00,27.103358,93.679645,PM2.5,1,57,12
India,Arunachal_Pradesh,Naharlagun,"Naharlagun, Naharlagun - APSPCB",29-06-2024 13:00:00,27.103358,93.679645,CO,4,12,6
India,Arunachal_Pradesh,Naharlagun,"Naharlagun, Naharlagun - APSPCB",29-06-2024 13:00:00,27.103358,93.679645,OZONE,3,3,3
India,Assam,Byrnihat,"Central Academy for SFS, Byrnihat - PCBA",29-06-2024 13:00:00,26.071318,91.87488,PM2.5,3,98,39
India,Assam,Byrnihat,"Central Academy for SFS, Byrnihat - PCBA",29-06-2024 13:00:00,26.071318,91.87488,NO2,1,39,20
India,Assam,Byrnihat,"Central Academy for SFS, Byrnihat - PCBA",29-06-2024 13:00:00,26.071318,91.87488,SO2,9,61,29
India,Assam,Guwahati,"LGBI Airport, Guwahati - PCBA",29-06-2024 13:00:00,26.10887,91.589544,PM10,NA,NA,NA
India,Assam,Guwahati,"LGBI Airport, Guwahati - PCBA",29-06-2024 13:00:00,26.10887,91.589544,SO2,4,13,10
India,Assam,Guwahati,"Railway Colony, Guwahati - PCBA",29-06-2024 13:00:00,26.181742,91.78063,NO2,3,4,3
India,Assam,Nagaon,"Christianpatty, Nagaon - PCBA",29-06-2024 13:00:00,26.349082,92.68449,SO2,10,12,10
India,Assam,Nalbari,"Bata Chowk, Nalbari - PCBA",29-06-2024 13:00:00,26.446912,91.439057,PM10,19,110,33
India,Assam,Nalbari,"Bata Chowk, Nalbari - PCBA",29-06-2024 13:00:00,26.446912,91.439057,OZONE,26,147,69
India,Assam,Silchar,"Tarapur, Silchar - PCBA",29-06-2024 13:00:00,24.82827,92.79525,CO,28,31,29
India,Assam,Sivasagar,"Girls College, Sivasagar - PCBA",29-06-2024 13:00:00,26.987634,94.636574,NH3,1,2,1
India,Assam,Sivasagar,"Girls College, Sivasagar - PCBA",29-06-2024 13:00:00,26.987634,94.636574,OZONE,NA,NA,NA
India,Bihar,Araria,"Kharahiya Basti, Araria - BSPCB",29-06-2024 13:00:00,26.146529,87.454184,NH3,NA,NA,NA
India,Bihar,Araria,"Kharahiya Basti, Araria - BSPCB",29-06-2024 13:00:00,26.146529,87.454184,SO2,NA,NA,NA
India,Bihar,Arrah,"New DM Office, Arrah - BSPCB",29-06-2024 13:00:00,25.5626095,84.663264,PM2.5,10,30,20
India,Bihar,Arrah,"New DM Office, Arrah - BSPCB",29-06-2024 13:00:00,25.5626095,84.663264,PM10,16,86,50
India,Bihar,Aurangabad,"Gurdeo Nagar, Aurangabad - BSPCB",29-06-2024 13:00:00,24.75746,84.366208,OZONE,14,86,46
India,Bihar,Bettiah,"Kamalnath Nagar, Bettiah - BSPCB",29-06-2024 13:00:00,26.80365,84.51954,NH3,11,49,27
India,Bihar,Bettiah,"Kamalnath Nagar, Bettiah - BSPCB",29-06-2024 13:00:00,26.80365,84.51954,SO2,11,24,15
India,Bihar,Bhagalpur,"DM Office_Kachari Chowk, Bhagalpur - BSPCB",29-06-2024 13:00:00,25.251013,86.989001,OZONE,44,48,46
India,Bihar,Bhagalpur,"Mayaganj, Bhagalpur - BSPCB",29-06-2024 13:00:00,25.265194,87.012947,NO2,6,8,7
India,Bihar,Bihar Sharif,"D M Colony, Bihar Sharif - BSPCB",29-06-2024 13:00:00,25.204762,85.514960,NO2,8,9,9
India,Bihar,Bihar Sharif,"D M Colony, Bihar Sharif - BSPCB",29-06-2024 13:00:00,25.204762,85.514960,OZONE,10,95,34
India,Bihar,Chhapra,"Darshan Nagar, Chhapra - BSPCB",29-06-2024 13:00:00,25.7808257,84.7446768,PM2.5,17,47,32
India,Bihar,Chhapra,"Darshan Nagar, Chhapra - BSPCB",29-06-2024 13:00:00,25.7808257,84.7446768,SO2,26,64,44
India,Bihar,Chhapra,"Darshan Nagar, Chhapra - BSPCB",29-06-2024 13:00:00,25.7808257,84.7446768,OZONE,1,5,2
India,Bihar,Gaya,"Collectorate, Gaya - BSPCB",29-06-2024 13:00:00,24.7955,84.9994,PM2.5,7,268,59
India,Bihar,Gaya,"Collectorate, Gaya - BSPCB",29-06-2024 13:00:00,24.7955,84.9994,SO2,4,21,10
India,Bihar,Gaya,"Collectorate, Gaya - BSPCB",29-06-2024 13:00:00,24.7955,84.9994,CO,44,86,52
India,Bihar,Gaya,"Kareemganj, Gaya - BSPCB",29-06-2024 13:00:00,24.792403,84.992416,PM2.5,5,43,19
India,Bihar,Gaya,"Kareemganj, Gaya - BSPCB",29-06-2024 13:00:00,24.792403,84.992416,NO2,29,32,31
India,Bihar,Hajipur,"Industrial Area, Hajipur - BSPCB",29-06-2024 13:00:00,25.697189,85.245900,PM2.5,50,113,74
India,Bihar,Hajipur,"Industrial Area, Hajipur - BSPCB",29-06-2024 13:00:00,25.697189,85.245900,NO2,6,19,11
India,Bihar,Hajipur,"Industrial Area, Hajipur - BSPCB",29-06-2024 13:00:00,25.697189,85.245900,SO2,7,10,8
India,Bihar,Katihar,"Mirchaibari, Katihar - BSPCB",29-06-2024 13:00:00,25.560083,87.553265,SO2,9,16,12
India,Bihar,Manguraha,"Forest Rest House, Manguraha - BSPCB",29-06-2024 13:00:00,27.308328,84.531742,NH3,NA,NA,NA
India,Bihar,Muzaffarpur,"Buddha Colony, Muzaffarpur - BSPCB",29-06-2024 13:00:00,26.11442,85.39813,NH3,4,10,6
India,Bihar,Muzaffarpur,"MIT-Daudpur Kothi, Muzaffarpur - BSPCB",29-06-2024 13:00:00,26.1403345,85.3650192,NH3,7,11,9
India,Bihar,Patna,"DRM Office Danapur, Patna - BSPCB",29-06-2024 13:00:00,25.586562,85.043586,PM2.5,11,47,26
India,Bihar,Patna,"Govt. High School Shikarpur, Patna - BSPCB",29-06-2024 13:00:00,25.592539,85.227158,CO,29,44,35
India,Bihar,Patna,"Muradpur, Patna - BSPCB",29-06-2024 13:00:00,25.619651,85.147382,CO,15,59,27
India,Bihar,Patna,"Rajbansi Nagar, Patna - BSPCB",29-06-2024 13:00:00,25.599486,85.113666,PM10,NA,NA,NA
India,Bihar,Patna,"Rajbansi Nagar, Patna - BSPCB",29-06-2024 13:00:00,25.599486,85.113666,OZONE,8,44,29
India,Bihar,Patna,"Samanpura, Patna - BSPCB",29-06-2024 13:00:00,25.596727,85.085624,PM2.5,32,71,57
India,Bihar,Purnia,"Mariam Nagar, Purnia - BSPCB",29-06-2024 13:00:00,25.366336,87.117468,PM2.5,20,55,35
India,Bihar,Purnia,"Mariam Nagar, Purnia - BSPCB",29-06-2024 13:00:00,25.366336,87.117468,NH3,1,1,1
India,Bihar,Purnia,"Mariam Nagar, Purnia - BSPCB",29-06-2024 13:00:00,25.366336,87.117468,CO,31,60,47
India,Bihar,Rajgir,"Dangi Tola, Rajgir - BSPCB",29-06-2024 13:00:00,25.03280,85.41948,PM2.5,5,52,25
India,Bihar,Saharsa,"Police Line, Saharsa - BSPCB",29-06-2024 13:00:00,25.892357,86.590325,CO,53,55,54
India,Bihar,Saharsa,"Police Line, Saharsa - BSPCB",29-06-2024 13:00:00,25.892357,86.590325,OZONE,16,43,25
India,Bihar,Samastipur,"DM Office_Kasipur, Samastipur - BSPCB",29-06-2024 13:00:00,25.859655,85.77944,PM10,NA,NA,NA
India,Bihar,Samastipur,"DM Office_Kasipur, Samastipur - BSPCB",29-06-2024 13:00:00,25.859655,85.77944,NH3,NA,NA,NA
India,Bihar,Siwan,"Chitragupta Nagar, Siwan - BSPCB",29-06-2024 13:00:00,26.2271665,84.3570427,PM2.5,20,103,67
India,Bihar,Siwan,"Chitragupta Nagar, Siwan - BSPCB",29-06-2024 13:00:00,26.2271665,84.3570427,PM10,17,86,54
India,Bihar,Siwan,"Chitragupta Nagar, Siwan - BSPCB",29-06-2024 13:00:00,26.2271665,84.3570427,NO2,19,192,43
India,Chandigarh,Chandigarh,"Sector-25, Chandigarh - CPCC",29-06-2024 13:00:00,30.751462,76.762879,CO,12,26,21
India,Chandigarh,Chandigarh,"Sector-53, Chandigarh - CPCC",29-06-2024 13:00:00,30.719859,76.738637,CO,38,57,52
India,Chhattisgarh,Bhilai,"32Bungalows, Bhilai - CECB",29-06-2024 13:00:00,21.194815,81.314770,PM10,16,31,21
India,Chhattisgarh,Bhilai,"32Bungalows, Bhilai - CECB",29-06-2024 13:00:00,21.194815,81.314770,CO,10,12,11
India,Chhattisgarh,Bhilai,"Civic Center, Bhilai - Bhilai Steel Plant",29-06-2024 13:00:00,21.185571,81.343175,PM10,11,17,14
India,Chhattisgarh,Bhilai,"Civic Center, Bhilai - Bhilai Steel Plant",29-06-2024 13:00:00,21.185571,81.343175,OZONE,14,25,15
India,Chhattisgarh,Bhilai,"Hathkhoj, Bhilai - CECB",29-06-2024 13:00:00,21.224231,81.408350,PM10,NA,NA,NA
India,Chhattisgarh,Chhal,"Nawapara SECL Colony, Chhal - CECB",29-06-2024 13:00:00,22.118125,83.140608,NO2,6,26,14
India,Chhattisgarh,Chhal,"Nawapara SECL Colony, Chhal - CECB",29-06-2024 13:00:00,22.118125,83.140608,NH3,2,2,2
India,Chhattisgarh,Chhal,"Nawapara SECL Colony, Chhal - CECB",29-06-2024 13:00:00,22.118125,83.140608,OZONE,13,79,19
India,Chhattisgarh,Korba,"Urja Nagar, Korba - CECB",29-06-2024 13:00:00,22.348441,82.549611,OZONE,1,4,1
India,Chhattisgarh,Raipur,"AIIMS, Raipur - CECB",29-06-2024 13:00:00,21.258815,81.578979,PM10,16,39,24
India,Chhattisgarh,Raipur,"Krishak Nagar, Raipur - CECB",29-06-2024 13:00:00,21.237755,81.705301,PM10,8,23,12
India,Chhattisgarh,Raipur,"Krishak Nagar, Raipur - CECB",29-06-2024 13:00:00,21.237755,81.705301,SO2,8,15,11
India,Chhattisgarh,Raipur,"Krishak Nagar, Raipur - CECB",29-06-2024 13:00:00,21.237755,81.705301,OZONE,4,13,6
India,Chhattisgarh,Tumidih,"OP Jindal Industrial Park, Tumidih - CECB",29-06-2024 13:00:00,22.06631475,83.33820077,NO2,8,55,21
India,Chhattisgarh,Tumidih,"OP Jindal Industrial Park, Tumidih - CECB",29-06-2024 13:00:00,22.06631475,83.33820077,OZONE,9,35,10
India,Delhi,Delhi,"Alipur, Delhi - DPCC",29-06-2024 13:00:00,28.815329,77.153010,PM2.5,12,308,130
India,Delhi,Delhi,"Alipur, Delhi - DPCC",29-06-2024 13:00:00,28.815329,77.153010,CO,26,74,42
India,Delhi,Delhi,"Ashok Vihar, Delhi - DPCC",29-06-2024 13:00:00,28.695381,77.181665,NO2,27,83,54
India,Delhi,Delhi,"Ashok Vihar, Delhi - DPCC",29-06-2024 13:00:00,28.695381,77.181665,SO2,7,13,11
India,Delhi,Delhi,"Burari Crossing, Delhi - IMD",29-06-2024 13:00:00,28.7256504,77.2011573,CO,35,82,67
India,Delhi,Delhi,"DTU, Delhi - CPCB",29-06-2024 13:00:00,28.7500499,77.1112615,PM10,NA,NA,NA
India,Delhi,Delhi,"DTU, Delhi - CPCB",29-06-2024 13:00:00,28.7500499,77.1112615,OZONE,16,74,27
India,Delhi,Delhi,"Dr. Karni Singh Shooting Range, Delhi - DPCC",29-06-2024 13:00:00,28.498571,77.264840,NH3,4,9,7
India,Delhi,Delhi,"Dr. Karni Singh Shooting Range, Delhi - DPCC",29-06-2024 13:00:00,28.498571,77.264840,SO2,6,9,8
India,Delhi,Delhi,"IGI Airport (T3), Delhi - IMD",29-06-2024 13:00:00,28.5627763,77.1180053,CO,26,57,52
India,Delhi,Delhi,"IHBAS, Dilshad Garden, Delhi - CPCB",29-06-2024 13:00:00,28.6811736,77.3025234,SO2,4,29,15
India,Delhi,Delhi,"ITO, Delhi - CPCB",29-06-2024 13:00:00,28.628624,77.241060,PM10,32,272,111
India,Delhi,Delhi,"Lodhi Road, Delhi - IMD",29-06-2024 13:00:00,28.5918245,77.2273074,CO,30,48,48
India,Delhi,Delhi,"Major Dhyan Chand National Stadium, Delhi - DPCC",29-06-2024 13:00:00,28.611281,77.237738,SO2,2,11,6
India,Delhi,Delhi,"Mundka, Delhi - DPCC",29-06-2024 13:00:00,28.684678,77.076574,CO,44,88,62
India,Delhi,Delhi,"Najafgarh, Delhi - DPCC",29-06-2024 13:00:00,28.570173,76.933762,CO,42,101,50
India,Delhi,Delhi,"Najafgarh, Delhi - DPCC",29-06-2024 13:00:00,28.570173,76.933762,OZONE,11,29,19
India,Delhi,Delhi,"Narela, Delhi - DPCC",29-06-2024 13:00:00,28.822836,77.101981,NO2,17,58,28
India,Delhi,Delhi,"Narela, Delhi - DPCC",29-06-2024 13:00:00,28.822836,77.101981,NH3,6,10,8
India,Delhi,Delhi,"Narela, Delhi - DPCC",29-06-2024 13:00:00,28.822836,77.101981,SO2,2,6,4
India,Delhi,Delhi,"Nehru Nagar, Delhi - DPCC",29-06-2024 13:00:00,28.567890,77.250515,PM10,47,198,118
India,Delhi,Delhi,"Nehru Nagar, Delhi - DPCC",29-06-2024 13:00:00,28.567890,77.250515,SO2,2,6,4
India,Delhi,Delhi,"North Campus, DU, Delhi - IMD",29-06-2024 13:00:00,28.6573814,77.1585447,PM10,26,214,116
India,Delhi,Delhi,"Okhla Phase-2, Delhi - DPCC",29-06-2024 13:00:00,28.530785,77.271255,NO2,16,83,45
India,Delhi,Delhi,"Okhla Phase-2, Delhi - DPCC",29-06-2024 13:00:00,28.530785,77.271255,OZONE,4,41,19
India,Delhi,Delhi,"Patparganj, Delhi - DPCC",29-06-2024 13:00:00,28.623763,77.287209,NO2,16,56,34
India,Delhi,Delhi,"Patparganj, Delhi - DPCC",29-06-2024 13:00:00,28.623763,77.287209,CO,9,102,60
India,Delhi,Delhi,"Pusa, Delhi - DPCC",29-06-2024 13:00:00,28.639652,77.146275,PM10,69,267,134
India,Delhi,Delhi,"Pusa, Delhi - IMD",29-06-2024 13:00:00,28.636110,77.173332,PM10,65,135,99
India,Delhi,Delhi,"R K Puram, Delhi - DPCC",29-06-2024 13:00:00,28.563262,77.186937,PM2.5,NA,NA,NA
India,Delhi,Delhi,"R K Puram, Delhi - DPCC",29-06-2024 13:00:00,28.563262,77.186937,SO2,NA,NA,NA
India,Delhi,Delhi,"R K Puram, Delhi - DPCC",29-06-2024 13:00:00,28.563262,77.186937,CO,NA,NA,NA
India,Delhi,Delhi,"R K Puram, Delhi - DPCC",29-06-2024 13:00:00,28.563262,77.186937,OZONE,NA,NA,NA
India,Delhi,Delhi,"Rohini, Delhi - DPCC",29-06-2024 13:00:00,28.732528,77.119920,SO2,6,7,6
India,Delhi,Delhi,"Rohini, Delhi - DPCC",29-06-2024 13:00:00,28.732528,77.119920,OZONE,4,26,14
India,Delhi,Delhi,"Shadipur, Delhi - CPCB",29-06-2024 13:00:00,28.6514781,77.1473105,PM2.5,26,72,49
India,Delhi,Delhi,"Sirifort, Delhi - CPCB",29-06-2024 13:00:00,28.5504249,77.2159377,SO2,48,58,54
India,Delhi,Delhi,"Sonia Vihar, Delhi - DPCC",29-06-2024 13:00:00,28.710508,77.249485,SO2,1,9,6
India,Delhi,Delhi,"Sonia Vihar, Delhi - DPCC",29-06-2024 13:00:00,28.710508,77.249485,OZONE,8,202,84
India,Delhi,Delhi,"Vivek Vihar, Delhi - DPCC",29-06-2024 13:00:00,28.672342,77.315260,CO,13,70,59
India,Delhi,Delhi,"Wazirpur, Delhi - DPCC",29-06-2024 13:00:00,28.699793,77.165453,NH3,2,11,9
India,Gujarat,Ahmedabad,"Chandkheda, Ahmedabad - IITM",29-06-2024 13:00:00,23.107969,72.574648,SO2,6,21,13
India,Gujarat,Ahmedabad,"Gyaspur, Ahmedabad - IITM",29-06-2024 13:00:00,22.977134,72.553024,PM2.5,85,126,113
India,Gujarat,Ahmedabad,"Maninagar, Ahmedabad - GPCB",29-06-2024 13:00:00,23.002657,72.591912,PM2.5,20,61,42
India,Gujarat,Ahmedabad,"Maninagar, Ahmedabad - GPCB",29-06-2024 13:00:00,23.002657,72.591912,NO2,31,60,40
India,Gujarat,Ahmedabad,"Maninagar, Ahmedabad - GPCB",29-06-2024 13:00:00,23.002657,72.591912,OZONE,1,19,7
India,Gujarat,Ahmedabad,"Raikhad, Ahmedabad - IITM",29-06-2024 13:00:00,23.020509,72.579261,PM2.5,19,282,52
India,Gujarat,Ahmedabad,"SVPI Airport Hansol, Ahmedabad - IITM",29-06-2024 13:00:00,23.076793,72.627874,PM10,NA,NA,NA
India,Gujarat,Ahmedabad,"Sardar Vallabhbhai Patel Stadium, Ahmedabad - IITM",29-06-2024 13:00:00,23.043070,72.562968,PM2.5,17,74,52
India,Gujarat,Ahmedabad,"Sardar Vallabhbhai Patel Stadium, Ahmedabad - IITM",29-06-2024 13:00:00,23.043070,72.562968,NO2,22,80,36
India,Gujarat,Ankleshwar,"GIDC, Ankleshwar - GPCB",29-06-2024 13:00:00,21.613267,73.010555,PM2.5,23,57,37
India,Gujarat,Ankleshwar,"GIDC, Ankleshwar - GPCB",29-06-2024 13:00:00,21.613267,73.010555,PM10,19,45,30
India,Gujarat,Ankleshwar,"GIDC, Ankleshwar - GPCB",29-06-2024 13:00:00,21.613267,73.010555,NO2,15,26,20
India,Gujarat,Ankleshwar,"GIDC, Ankleshwar - GPCB",29-06-2024 13:00:00,21.613267,73.010555,CO,52,65,56
India,Gujarat,Gandhinagar,"GIFT City, Gandhinagar - IITM",29-06-2024 13:00:00,23.163798,72.677768,OZONE,5,24,9
India,Gujarat,Gandhinagar,"Sector-10, Gandhinagar - GPCB",29-06-2024 13:00:00,23.221714,72.654328,PM10,27,75,43
India,Gujarat,Surat,"Science Center, Surat - SMC",29-06-2024 13:00:00,21.170046,72.795405,CO,68,78,70
India,Gujarat,Vapi,"Phase-1 GIDC, Vapi - GPCB",29-06-2024 13:00:00,20.362421,72.918013,NH3,2,2,2
India,Haryana,Bahadurgarh,"Arya Nagar, Bahadurgarh - HSPCB",29-06-2024 13:00:00,28.6701,76.9254,NH3,8,9,9
India,Haryana,Bahadurgarh,"Arya Nagar, Bahadurgarh - HSPCB",29-06-2024 13:00:00,28.6701,76.9254,CO,92,103,96
India,Haryana,Bahadurgarh,"Arya Nagar, Bahadurgarh - HSPCB",29-06-2024 13:00:00,28.6701,76.9254,OZONE,34,43,36
India,Haryana,Ballabgarh,"Nathu Colony, Ballabgarh - HSPCB",29-06-2024 13:00:00,28.3419248,77.319699,PM2.5,14,500,254
India,Haryana,Bhiwani,"H.B. Colony, Bhiwani - HSPCB",29-06-2024 13:00:00,28.806223,76.141105,SO2,3,21,9
India,Haryana,Bhiwani,"H.B. Colony, Bhiwani - HSPCB",29-06-2024 13:00:00,28.806223,76.141105,CO,39,66,54
India,Haryana,Charkhi Dadri,"Mini Secretariat, Charkhi Dadri - HSPCB",29-06-2024 13:00:00,28.593883,76.270653,NO2,15,22,18
India,Haryana,Charkhi Dadri,"Mini Secretariat, Charkhi Dadri - HSPCB",29-06-2024 13:00:00,28.593883,76.270653,CO,28,101,87
India,Haryana,Faridabad,"New Industrial Town, Faridabad - HSPCB",29-06-2024 13:00:00,28.39072,77.30059,PM2.5,30,368,132
India,Haryana,Faridabad,"Sector 11, Faridabad - HSPCB",29-06-2024 13:00:00,28.376058,77.315741,PM2.5,9,500,188
India,Haryana,Faridabad,"Sector 11, Faridabad - HSPCB",29-06-2024 13:00:00,28.376058,77.315741,OZONE,13,29,17
India,Haryana,Faridabad,"Sector- 16A, Faridabad - HSPCB",29-06-2024 13:00:00,28.4088421,77.3099081,NO2,NA,NA,NA
India,Haryana,Faridabad,"Sector- 16A, Faridabad - HSPCB",29-06-2024 13:00:00,28.4088421,77.3099081,OZONE,NA,NA,NA
India,Haryana,Fatehabad,"Huda Sector, Fatehabad - HSPCB",29-06-2024 13:00:00,29.503664,75.467934,PM2.5,17,25,25
India,Haryana,Fatehabad,"Huda Sector, Fatehabad - HSPCB",29-06-2024 13:00:00,29.503664,75.467934,NH3,9,10,10
India,Haryana,Fatehabad,"Huda Sector, Fatehabad - HSPCB",29-06-2024 13:00:00,29.503664,75.467934,SO2,4,17,11
India,Haryana,Fatehabad,"Huda Sector, Fatehabad - HSPCB",29-06-2024 13:00:00,29.503664,75.467934,CO,43,46,45
India,Haryana,Gurugram,"NISE Gwal Pahari, Gurugram - IMD",29-06-2024 13:00:00,28.422681,77.148944,CO,5,30,26
India,Haryana,Gurugram,"NISE Gwal Pahari, Gurugram - IMD",29-06-2024 13:00:00,28.422681,77.148944,OZONE,2,33,2
India,Haryana,Gurugram,"Sector-51, Gurugram - HSPCB",29-06-2024 13:00:00,28.4227,77.0667,NO2,13,29,23
India,Haryana,Gurugram,"Sector-51, Gurugram - HSPCB",29-06-2024 13:00:00,28.4227,77.0667,SO2,2,3,3
India,Haryana,Gurugram,"Sector-51, Gurugram - HSPCB",29-06-2024 13:00:00,28.4227,77.0667,OZONE,29,33,30
India,Haryana,Gurugram,"Teri Gram, Gurugram - HSPCB",29-06-2024 13:00:00,28.4275,77.1465,NH3,23,40,34
India,Haryana,Gurugram,"Vikas Sadan, Gurugram - HSPCB",29-06-2024 13:00:00,28.4501238,77.0263051,CO,49,130,80
India,Haryana,Gurugram,"Vikas Sadan, Gurugram - HSPCB",29-06-2024 13:00:00,28.4501238,77.0263051,OZONE,7,68,23
India,Haryana,Hisar,"Urban Estate-II, Hisar - HSPCB",29-06-2024 13:00:00,29.140560,75.744941,SO2,1,52,11
India,Haryana,Kaithal,"Rishi Nagar, Kaithal - HSPCB",29-06-2024 13:00:00,29.8006,76.4155,PM10,61,97,73
India,Haryana,Kaithal,"Rishi Nagar, Kaithal - HSPCB",29-06-2024 13:00:00,29.8006,76.4155,CO,4,92,26
India,Haryana,Karnal,"Sector-12, Karnal - HSPCB",29-06-2024 13:00:00,29.695300,77.002700,OZONE,23,30,25
India,Haryana,Kurukshetra,"Sector-7, Kurukshetra - HSPCB",29-06-2024 13:00:00,29.966942,76.875879,PM2.5,29,251,100
India,Haryana,Kurukshetra,"Sector-7, Kurukshetra - HSPCB",29-06-2024 13:00:00,29.966942,76.875879,CO,12,23,18
India,Haryana,Panchkula,"Sector-6, Panchkula - HSPCB ",29-06-2024 13:00:00,30.7057778,76.8531805555555,PM2.5,41,97,67
India,Haryana,Panipat,"Sector-18, Panipat - HSPCB",29-06-2024 13:00:00,29.432304,76.972765,OZONE,30,30,30
India,Haryana,Rohtak,"MD University, Rohtak - HSPCB",29-06-2024 13:00:00,28.52123,76.37138,PM2.5,33,500,248
India,Haryana,Sirsa,"F-Block, Sirsa - HSPCB",29-06-2024 13:00:00,29.536400,75.015800,OZONE,5,156,67
India,Haryana,Sonipat,"Murthal, Sonipat - HSPCB",29-06-2024 13:00:00,29.027200,77.062100,NO2,37,44,40
