country,state,city,station,last_update,latitude,longitude,pollutant_id,pollutant_min,pollutant_max,pollutant_avg
India,Andhra_Pradesh,Amaravati,"Secretariat, Amaravati - APPCB",20-03-2024 06:00:00,16.5150833,80.5181667,PM10,23,111,55
India,Andhra_Pradesh,Amaravati,"Secretariat, Amaravati - APPCB",20-03-2024 06:00:00,16.5150833,80.5181667,NH3,4,5,5
India,Andhra_Pradesh,Chittoor,"Gangineni Cheruvu, Chittoor - APPCB",20-03-2024 06:00:00,13.204880,79.097889,PM10,NA,NA,NA
India,Andhra_Pradesh,Chittoor,"Gangineni Cheruvu, Chittoor - APPCB",20-03-2024 06:00:00,13.204880,79.097889,NO2,NA,NA,NA
India,Andhra_Pradesh,Chittoor,"Gangineni Cheruvu, Chittoor - APPCB",20-03-2024 06:00:00,13.204880,79.097889,NH3,NA,NA,NA
India,Andhra_Pradesh,Kadapa,"Yerramukkapalli, Kadapa - APPCB",20-03-2024 06:00:00,14.465052,78.824187,SO2,1,3,2
India,Andhra_Pradesh,Kadapa,"Yerramukkapalli, Kadapa - APPCB",20-03-2024 06:00:00,14.465052,78.824187,OZONE,17,85,30
India,Andhra_Pradesh,Rajamahendravaram,"Anand Kala Kshetram, Rajamahendravaram - APPCB",20-03-2024 06:00:00,16.9872867,81.7363176,NO2,11,32,18
India,Andhra_Pradesh,Tirupati,"Tirumala, Tirupati - APPCB",20-03-2024 06:00:00,13.67,79.35,NH3,1,1,1
India,Andhra_Pradesh,Tirupati,"Tirumala, Tirupati - APPCB",20-03-2024 06:00:00,13.67,79.35,SO2,3,13,6
India,Andhra_Pradesh,Tirupati,"Vaikuntapuram, Tirupati - APPCB",20-03-2024 06:00:00,13.615387,79.409230,PM2.5,44,101,76
India,Andhra_Pradesh,Vijayawada,"HB Colony, Vijayawada - APPCB",20-03-2024 06:00:00,16.536107,80.594233,PM2.5,58,91,69
India,Andhra_Pradesh,Vijayawada,"HB Colony, Vijayawada - APPCB",20-03-2024 06:00:00,16.536107,80.594233,NO2,4,12,7
India,Andhra_Pradesh,Vijayawada,"HB Colony, Vijayawada - APPCB",20-03-2024 06:00:00,16.536107,80.594233,SO2,3,5,4
India,Andhra_Pradesh,Vijayawada,"HB Colony, Vijayawada - APPCB",20-03-2024 06:00:00,16.536107,80.594233,OZONE,5,36,13
India,Andhra_Pradesh,Vijayawada,"Kanuru, Vijayawada - APPCB",20-03-2024 06:00:00,16.486692,80.699436,PM2.5,52,77,64
India,Andhra_Pradesh,Vijayawada,"Rajiv Nagar, Vijayawada - APPCB",20-03-2024 06:00:00,16.554731,80.649110,PM2.5,44,62,50
India,Andhra_Pradesh,Vijayawada,"Rajiv Nagar, Vijayawada - APPCB",20-03-2024 06:00:00,16.554731,80.649110,SO2,9,17,13
India,Andhra_Pradesh,Visakhapatnam,"GVM Corporation, Visakhapatnam - APPCB",20-03-2024 06:00:00,17.72,83.3,PM2.5,48,89,66
India,Andhra_Pradesh,Visakhapatnam,"GVM Corporation, Visakhapatnam - APPCB",20-03-2024 06:00:00,17.72,83.3,NH3,4,9,6
India,Assam,Byrnihat,"Central Academy for SFS, Byrnihat - PCBA",20-03-2024 06:00:00,26.071318,91.87488,PM10,108,444,272
India,Assam,Byrnihat,"Central Academy for SFS, Byrnihat - PCBA",20-03-2024 06:00:00,26.071318,91.87488,CO,36,76,39
India,Assam,Byrnihat,"Central Academy for SFS, Byrnihat - PCBA",20-03-2024 06:00:00,26.071318,91.87488,OZONE,12,15,13
India,Assam,Guwahati,"IITG, Guwahati - PCBA",20-03-2024 06:00:00,26.2028636,91.70046436,CO,19,36,30
India,Assam,Guwahati,"IITG, Guwahati - PCBA",20-03-2024 06:00:00,26.2028636,91.70046436,OZONE,3,37,5
India,Assam,Guwahati,"LGBI Airport, Guwahati - PCBA",20-03-2024 06:00:00,26.10887,91.589544,PM10,177,428,290
India,Assam,Guwahati,"Pan Bazaar, Guwahati - PCBA",20-03-2024 06:00:00,26.187500,91.744194,OZONE,18,19,18
India,Assam,Silchar,"Tarapur, Silchar - PCBA",20-03-2024 06:00:00,24.82827,92.79525,OZONE,1,4,1
India,Assam,Sivasagar,"Girls College, Sivasagar - PCBA",20-03-2024 06:00:00,26.987634,94.636574,OZONE,1,12,2
India,Bihar,Araria,"Kharahiya Basti, Araria - BSPCB",20-03-2024 06:00:00,26.146529,87.454184,NO2,6,8,7
India,Bihar,Araria,"Kharahiya Basti, Araria - BSPCB",20-03-2024 06:00:00,26.146529,87.454184,OZONE,6,11,9
India,Bihar,Arrah,"New DM Office, Arrah - BSPCB",20-03-2024 06:00:00,25.5626095,84.663264,PM2.5,18,230,87
India,Bihar,Aurangabad,"Gurdeo Nagar, Aurangabad - BSPCB",20-03-2024 06:00:00,24.75746,84.366208,NO2,3,6,5
India,Bihar,Bettiah,"Kamalnath Nagar, Bettiah - BSPCB",20-03-2024 06:00:00,26.80365,84.51954,PM2.5,NA,NA,NA
India,Bihar,Bettiah,"Kamalnath Nagar, Bettiah - BSPCB",20-03-2024 06:00:00,26.80365,84.51954,NH3,3,3,3
India,Bihar,Bhagalpur,"Mayaganj, Bhagalpur - BSPCB",20-03-2024 06:00:00,25.265194,87.012947,CO,8,10,9
India,Bihar,Bihar Sharif,"D M Colony, Bihar Sharif - BSPCB",20-03-2024 06:00:00,25.204762,85.514960,PM2.5,60,117,83
India,Bihar,Bihar Sharif,"D M Colony, Bihar Sharif - BSPCB",20-03-2024 06:00:00,25.204762,85.514960,OZONE,NA,NA,NA
India,Bihar,Buxar,"Charitra Van, Buxar - BSPCB (Formerly known as Central Jail)",20-03-2024 06:00:00,25.567520,83.966379,NO2,NA,NA,NA
India,Bihar,Chhapra,"Darshan Nagar, Chhapra - BSPCB",20-03-2024 06:00:00,25.7808257,84.7446768,NH3,7,15,11
India,Bihar,Gaya,"Collectorate, Gaya - BSPCB",20-03-2024 06:00:00,24.7955,84.9994,PM2.5,31,187,92
India,Bihar,Gaya,"Kareemganj, Gaya - BSPCB",20-03-2024 06:00:00,24.792403,84.992416,SO2,8,12,10
India,Bihar,Gaya,"SFTI Kusdihra, Gaya - BSPCB",20-03-2024 06:00:00,24.762518,84.982348,NH3,1,6,2
India,Bihar,Hajipur,"Industrial Area, Hajipur - BSPCB",20-03-2024 06:00:00,25.697189,85.245900,PM2.5,38,228,88
India,Bihar,Katihar,"Mirchaibari, Katihar - BSPCB",20-03-2024 06:00:00,25.560083,87.553265,OZONE,21,27,24
India,Bihar,Kishanganj,"SDM Office_Khagra, Kishanganj - BSPCB",20-03-2024 06:00:00,26.0881305,87.93840336,OZONE,27,47,27
India,Bihar,Manguraha,"Forest Rest House, Manguraha - BSPCB",20-03-2024 06:00:00,27.308328,84.531742,PM10,41,155,99
India,Bihar,Manguraha,"Forest Rest House, Manguraha - BSPCB",20-03-2024 06:00:00,27.308328,84.531742,NO2,8,17,15
India,Bihar,Manguraha,"Forest Rest House, Manguraha - BSPCB",20-03-2024 06:00:00,27.308328,84.531742,SO2,3,3,3
India,Bihar,Motihari,"Gandak Colony, Motihari - BSPCB",20-03-2024 06:00:00,26.63086,84.90051,PM10,46,159,109
India,Bihar,Munger,"Town Hall, Munger - BSPCB",20-03-2024 06:00:00,25.376776,86.471523,PM10,21,424,163
India,Bihar,Munger,"Town Hall, Munger - BSPCB",20-03-2024 06:00:00,25.376776,86.471523,NO2,7,10,9
India,Bihar,Munger,"Town Hall, Munger - BSPCB",20-03-2024 06:00:00,25.376776,86.471523,NH3,1,2,2
India,Bihar,Muzaffarpur,"Buddha Colony, Muzaffarpur - BSPCB",20-03-2024 06:00:00,26.11442,85.39813,NH3,15,33,19
India,Bihar,Muzaffarpur,"Buddha Colony, Muzaffarpur - BSPCB",20-03-2024 06:00:00,26.11442,85.39813,SO2,4,17,10
India,Bihar,Muzaffarpur,"MIT-Daudpur Kothi, Muzaffarpur - BSPCB",20-03-2024 06:00:00,26.1403345,85.3650192,PM10,126,195,166
India,Bihar,Muzaffarpur,"MIT-Daudpur Kothi, Muzaffarpur - BSPCB",20-03-2024 06:00:00,26.1403345,85.3650192,CO,26,116,58
India,Bihar,Muzaffarpur,"MIT-Daudpur Kothi, Muzaffarpur - BSPCB",20-03-2024 06:00:00,26.1403345,85.3650192,OZONE,6,73,12
India,Bihar,Patna,"DRM Office Danapur, Patna - BSPCB",20-03-2024 06:00:00,25.586562,85.043586,OZONE,4,45,17
India,Bihar,Patna,"Govt. High School Shikarpur, Patna - BSPCB",20-03-2024 06:00:00,25.592539,85.227158,NO2,20,28,22
India,Bihar,Patna,"Govt. High School Shikarpur, Patna - BSPCB",20-03-2024 06:00:00,25.592539,85.227158,CO,14,73,20
India,Bihar,Patna,"IGSC Planetarium Complex, Patna - BSPCB",20-03-2024 06:00:00,25.610369,85.132568,PM2.5,33,320,152
India,Bihar,Patna,"Muradpur, Patna - BSPCB",20-03-2024 06:00:00,25.619651,85.147382,CO,12,105,24
India,Bihar,Patna,"Samanpura, Patna - BSPCB",20-03-2024 06:00:00,25.596727,85.085624,SO2,15,16,16
India,Bihar,Purnia,"Mariam Nagar, Purnia - BSPCB",20-03-2024 06:00:00,25.366336,87.117468,OZONE,9,39,10
India,Bihar,Rajgir,"Dangi Tola, Rajgir - BSPCB",20-03-2024 06:00:00,25.03280,85.41948,PM2.5,NA,NA,NA
India,Bihar,Rajgir,"Dangi Tola, Rajgir - BSPCB",20-03-2024 06:00:00,25.03280,85.41948,NO2,NA,NA,NA
India,Bihar,Saharsa,"Police Line, Saharsa - BSPCB",20-03-2024 06:00:00,25.892357,86.590325,CO,11,105,52
India,Bihar,Samastipur,"DM Office_Kasipur, Samastipur - BSPCB",20-03-2024 06:00:00,25.859655,85.77944,PM10,38,187,123
India,Bihar,Samastipur,"DM Office_Kasipur, Samastipur - BSPCB",20-03-2024 06:00:00,25.859655,85.77944,NH3,2,5,4
India,Bihar,Samastipur,"DM Office_Kasipur, Samastipur - BSPCB",20-03-2024 06:00:00,25.859655,85.77944,OZONE,9,12,9
India,Bihar,Siwan,"Chitragupta Nagar, Siwan - BSPCB",20-03-2024 06:00:00,26.2271665,84.3570427,PM2.5,43,344,179
India,Bihar,Siwan,"Chitragupta Nagar, Siwan - BSPCB",20-03-2024 06:00:00,26.2271665,84.3570427,PM10,42,237,140
India,Chandigarh,Chandigarh,"Sector 22, Chandigarh - CPCC",20-03-2024 06:00:00,30.735567,76.775714,PM10,36,163,93
India,Chandigarh,Chandigarh,"Sector 22, Chandigarh - CPCC",20-03-2024 06:00:00,30.735567,76.775714,CO,28,70,49
India,Chandigarh,Chandigarh,"Sector 22, Chandigarh - CPCC",20-03-2024 06:00:00,30.735567,76.775714,OZONE,3,160,28
India,Chandigarh,Chandigarh,"Sector-25, Chandigarh - CPCC",20-03-2024 06:00:00,30.751462,76.762879,OZONE,1,50,3
India,Chandigarh,Chandigarh,"Sector-53, Chandigarh - CPCC",20-03-2024 06:00:00,30.719859,76.738637,OZONE,4,76,9
India,Chhattisgarh,Bhilai,"Civic Center, Bhilai - Bhilai Steel Plant",20-03-2024 06:00:00,21.185571,81.343175,NH3,5,6,5
India,Chhattisgarh,Bhilai,"Civic Center, Bhilai - Bhilai Steel Plant",20-03-2024 06:00:00,21.185571,81.343175,CO,34,60,45
India,Chhattisgarh,Bhilai,"Hathkhoj, Bhilai - CECB",20-03-2024 06:00:00,21.224231,81.408350,PM10,18,86,41
India,Chhattisgarh,Bhilai,"Hathkhoj, Bhilai - CECB",20-03-2024 06:00:00,21.224231,81.408350,NH3,8,8,8
India,Chhattisgarh,Bilaspur,"Mangala, Bilaspur - NTPC",20-03-2024 06:00:00,22.08815,82.13737,PM2.5,11,31,21
India,Chhattisgarh,Korba,"Urja Nagar, Korba - CECB",20-03-2024 06:00:00,22.348441,82.549611,NO2,66,75,71
India,Chhattisgarh,Kunjemura,"OP Jindal School, Kunjemura - CECB",20-03-2024 06:00:00,22.126650,83.483212,PM2.5,5,30,18
India,Chhattisgarh,Kunjemura,"OP Jindal School, Kunjemura - CECB",20-03-2024 06:00:00,22.126650,83.483212,SO2,4,6,5
India,Chhattisgarh,Milupara,"Govt. Higher Secondary School, Milupara - CECB",20-03-2024 06:00:00,22.1910172,83.5197009,PM2.5,NA,NA,NA
India,Chhattisgarh,Milupara,"Govt. Higher Secondary School, Milupara - CECB",20-03-2024 06:00:00,22.1910172,83.5197009,PM10,NA,NA,NA
India,Chhattisgarh,Raipur,"Krishak Nagar, Raipur - CECB",20-03-2024 06:00:00,21.237755,81.705301,PM2.5,NA,NA,NA
India,Chhattisgarh,Raipur,"Krishak Nagar, Raipur - CECB",20-03-2024 06:00:00,21.237755,81.705301,SO2,NA,NA,NA
India,Chhattisgarh,Raipur,"Siltara Phase-II, Raipur - CECB",20-03-2024 06:00:00,21.371751,81.664929,NO2,50,66,58
India,Chhattisgarh,Raipur,"Siltara Phase-II, Raipur - CECB",20-03-2024 06:00:00,21.371751,81.664929,NH3,3,3,3
India,Delhi,Delhi,"Alipur, Delhi - DPCC",20-03-2024 06:00:00,28.815329,77.153010,PM10,81,410,213
India,Delhi,Delhi,"Alipur, Delhi - DPCC",20-03-2024 06:00:00,28.815329,77.153010,NH3,4,14,7
India,Delhi,Delhi,"Burari Crossing, Delhi - IMD",20-03-2024 06:00:00,28.7256504,77.2011573,PM10,96,413,223
India,Delhi,Delhi,"Burari Crossing, Delhi - IMD",20-03-2024 06:00:00,28.7256504,77.2011573,CO,42,81,58
India,Delhi,Delhi,"Chandni Chowk, Delhi - IITM",20-03-2024 06:00:00,28.656756,77.227234,PM2.5,174,359,277
India,Delhi,Delhi,"Chandni Chowk, Delhi - IITM",20-03-2024 06:00:00,28.656756,77.227234,OZONE,17,231,72
India,Delhi,Delhi,"Dr. Karni Singh Shooting Range, Delhi - DPCC",20-03-2024 06:00:00,28.498571,77.264840,PM2.5,60,358,182
India,Delhi,Delhi,"Dr. Karni Singh Shooting Range, Delhi - DPCC",20-03-2024 06:00:00,28.498571,77.264840,PM10,108,345,188
India,Delhi,Delhi,"Dr. Karni Singh Shooting Range, Delhi - DPCC",20-03-2024 06:00:00,28.498571,77.264840,NH3,6,10,8
India,Delhi,Delhi,"Dr. Karni Singh Shooting Range, Delhi - DPCC",20-03-2024 06:00:00,28.498571,77.264840,CO,28,108,89
India,Delhi,Delhi,"Dr. Karni Singh Shooting Range, Delhi - DPCC",20-03-2024 06:00:00,28.498571,77.264840,OZONE,NA,NA,NA
India,Delhi,Delhi,"Dwarka-Sector 8, Delhi - DPCC ",20-03-2024 06:00:00,28.5710274,77.0719006,PM2.5,65,406,233
India,Delhi,Delhi,"Dwarka-Sector 8, Delhi - DPCC ",20-03-2024 06:00:00,28.5710274,77.0719006,PM10,120,478,286
India,Delhi,Delhi,"IGI Airport (T3), Delhi - IMD",20-03-2024 06:00:00,28.5627763,77.1180053,PM10,82,363,181
India,Delhi,Delhi,"IHBAS, Dilshad Garden, Delhi - CPCB",20-03-2024 06:00:00,28.6811736,77.3025234,PM10,101,159,135
India,Delhi,Delhi,"ITO, Delhi - CPCB",20-03-2024 06:00:00,28.628624,77.241060,SO2,4,30,14
India,Delhi,Delhi,"ITO, Delhi - CPCB",20-03-2024 06:00:00,28.628624,77.241060,OZONE,11,92,12
India,Delhi,Delhi,"Jahangirpuri, Delhi - DPCC",20-03-2024 06:00:00,28.732820,77.170633,SO2,1,103,26
India,Delhi,Delhi,"Jawaharlal Nehru Stadium, Delhi - DPCC",20-03-2024 06:00:00,28.580280,77.233829,SO2,15,73,40
India,Delhi,Delhi,"Lodhi Road, Delhi - IITM",20-03-2024 06:00:00,28.588333,77.221667,OZONE,15,20,16
India,Delhi,Delhi,"Lodhi Road, Delhi - IMD",20-03-2024 06:00:00,28.5918245,77.2273074,CO,6,54,31
India,Delhi,Delhi,"Major Dhyan Chand National Stadium, Delhi - DPCC",20-03-2024 06:00:00,28.611281,77.237738,PM2.5,62,379,191
India,Delhi,Delhi,"Major Dhyan Chand National Stadium, Delhi - DPCC",20-03-2024 06:00:00,28.611281,77.237738,NO2,32,151,97
India,Delhi,Delhi,"Major Dhyan Chand National Stadium, Delhi - DPCC",20-03-2024 06:00:00,28.611281,77.237738,SO2,8,37,19
India,Delhi,Delhi,"Mundka, Delhi - DPCC",20-03-2024 06:00:00,28.684678,77.076574,SO2,10,96,36
India,Delhi,Delhi,"Mundka, Delhi - DPCC",20-03-2024 06:00:00,28.684678,77.076574,OZONE,14,14,14
India,Delhi,Delhi,"Narela, Delhi - DPCC",20-03-2024 06:00:00,28.822836,77.101981,CO,38,91,74
India,Delhi,Delhi,"Narela, Delhi - DPCC",20-03-2024 06:00:00,28.822836,77.101981,OZONE,2,152,20
India,Delhi,Delhi,"Nehru Nagar, Delhi - DPCC",20-03-2024 06:00:00,28.567890,77.250515,PM2.5,86,390,241
India,Delhi,Delhi,"Nehru Nagar, Delhi - DPCC",20-03-2024 06:00:00,28.567890,77.250515,PM10,121,351,209
India,Delhi,Delhi,"New Moti Bagh, Delhi - MHUA",20-03-2024 06:00:00,28.57834,77.18400,CO,18,102,76
India,Delhi,Delhi,"North Campus, DU, Delhi - IMD",20-03-2024 06:00:00,28.6573814,77.1585447,NO2,7,56,31
India,Delhi,Delhi,"North Campus, DU, Delhi - IMD",20-03-2024 06:00:00,28.6573814,77.1585447,CO,5,121,102
India,Delhi,Delhi,"North Campus, DU, Delhi - IMD",20-03-2024 06:00:00,28.6573814,77.1585447,OZONE,2,56,2
India,Delhi,Delhi,"Okhla Phase-2, Delhi - DPCC",20-03-2024 06:00:00,28.530785,77.271255,CO,48,117,108
India,Delhi,Delhi,"Patparganj, Delhi - DPCC",20-03-2024 06:00:00,28.623763,77.287209,OZONE,5,169,9
India,Delhi,Delhi,"Punjabi Bagh, Delhi - DPCC",20-03-2024 06:00:00,28.674045,77.131023,PM10,95,402,192
India,Delhi,Delhi,"Punjabi Bagh, Delhi - DPCC",20-03-2024 06:00:00,28.674045,77.131023,NH3,2,3,2
India,Delhi,Delhi,"Punjabi Bagh, Delhi - DPCC",20-03-2024 06:00:00,28.674045,77.131023,CO,8,73,55
India,Delhi,Delhi,"Pusa, Delhi - DPCC",20-03-2024 06:00:00,28.639652,77.146275,CO,8,102,37
India,Delhi,Delhi,"R K Puram, Delhi - DPCC",20-03-2024 06:00:00,28.563262,77.186937,OZONE,9,244,10
India,Delhi,Delhi,"Shadipur, Delhi - CPCB",20-03-2024 06:00:00,28.6514781,77.1473105,PM2.5,99,345,272
India,Delhi,Delhi,"Shadipur, Delhi - CPCB",20-03-2024 06:00:00,28.6514781,77.1473105,NH3,1,14,11
India,Delhi,Delhi,"Shadipur, Delhi - CPCB",20-03-2024 06:00:00,28.6514781,77.1473105,SO2,8,23,17
India,Delhi,Delhi,"Sirifort, Delhi - CPCB",20-03-2024 06:00:00,28.5504249,77.2159377,OZONE,4,91,8
India,Delhi,Delhi,"Sonia Vihar, Delhi - DPCC",20-03-2024 06:00:00,28.710508,77.249485,PM2.5,42,369,198
India,Delhi,Delhi,"Sonia Vihar, Delhi - DPCC",20-03-2024 06:00:00,28.710508,77.249485,PM10,83,417,190
India,Delhi,Delhi,"Sri Aurobindo Marg, Delhi - DPCC",20-03-2024 06:00:00,28.531346,77.190156,NH3,5,10,7
India,Delhi,Delhi,"Sri Aurobindo Marg, Delhi - DPCC",20-03-2024 06:00:00,28.531346,77.190156,CO,10,78,61
India,Delhi,Delhi,"Sri Aurobindo Marg, Delhi - DPCC",20-03-2024 06:00:00,28.531346,77.190156,OZONE,1,52,1
India,Gujarat,Ahmedabad,"Chandkheda, Ahmedabad - IITM",20-03-2024 06:00:00,23.107969,72.574648,NO2,24,31,28
India,Gujarat,Ahmedabad,"Chandkheda, Ahmedabad - IITM",20-03-2024 06:00:00,23.107969,72.574648,CO,2,108,51
India,Gujarat,Ahmedabad,"Gyaspur, Ahmedabad - IITM",20-03-2024 06:00:00,22.977134,72.553024,NH3,9,10,10
India,Gujarat,Ahmedabad,"Gyaspur, Ahmedabad - IITM",20-03-2024 06:00:00,22.977134,72.553024,OZONE,8,80,9
India,Gujarat,Ahmedabad,"Maninagar, Ahmedabad - GPCB",20-03-2024 06:00:00,23.002657,72.591912,PM2.5,27,306,105
India,Gujarat,Ahmedabad,"Rakhial, Ahmedabad - IITM",20-03-2024 06:00:00,23.016834,72.625775,NH3,3,26,18
India,Gujarat,Ahmedabad,"Rakhial, Ahmedabad - IITM",20-03-2024 06:00:00,23.016834,72.625775,CO,5,105,95
India,Gujarat,Ahmedabad,"SAC ISRO Satellite, Ahmedabad - IITM",20-03-2024 06:00:00,23.023389,72.515201,OZONE,10,24,13
India,Gujarat,Ahmedabad,"SVPI Airport Hansol, Ahmedabad - IITM",20-03-2024 06:00:00,23.076793,72.627874,PM10,60,151,114
India,Gujarat,Ahmedabad,"SVPI Airport Hansol, Ahmedabad - IITM",20-03-2024 06:00:00,23.076793,72.627874,NH3,4,5,4
India,Gujarat,Ahmedabad,"Sardar Vallabhbhai Patel Stadium, Ahmedabad - IITM",20-03-2024 06:00:00,23.043070,72.562968,SO2,1,21,9
India,Gujarat,Ahmedabad,"Sardar Vallabhbhai Patel Stadium, Ahmedabad - IITM",20-03-2024 06:00:00,23.043070,72.562968,CO,26,111,65
India,Gujarat,Ankleshwar,"GIDC, Ankleshwar - GPCB",20-03-2024 06:00:00,21.613267,73.010555,PM2.5,46,201,104
India,Gujarat,Ankleshwar,"GIDC, Ankleshwar - GPCB",20-03-2024 06:00:00,21.613267,73.010555,NH3,7,7,7
India,Gujarat,Ankleshwar,"GIDC, Ankleshwar - GPCB",20-03-2024 06:00:00,21.613267,73.010555,OZONE,20,39,22
India,Gujarat,Gandhinagar,"IIPHG Lekawada, Gandhinagar - IITM",20-03-2024 06:00:00,23.243639,72.68994,NO2,37,70,46
India,Gujarat,Gandhinagar,"IIPHG Lekawada, Gandhinagar - IITM",20-03-2024 06:00:00,23.243639,72.68994,NH3,6,7,7
India,Gujarat,Nandesari,"GIDC, Nandesari - Nandesari Ind. Association",20-03-2024 06:00:00,22.410802,73.097923,PM10,78,443,222
India,Gujarat,Nandesari,"GIDC, Nandesari - Nandesari Ind. Association",20-03-2024 06:00:00,22.410802,73.097923,NO2,2,70,23
India,Gujarat,Nandesari,"GIDC, Nandesari - Nandesari Ind. Association",20-03-2024 06:00:00,22.410802,73.097923,SO2,2,15,11
India,Gujarat,Vapi,"Phase-1 GIDC, Vapi - GPCB",20-03-2024 06:00:00,20.362421,72.918013,PM2.5,46,195,106
India,Gujarat,Vapi,"Phase-1 GIDC, Vapi - GPCB",20-03-2024 06:00:00,20.362421,72.918013,PM10,79,150,112
India,Gujarat,Vapi,"Phase-1 GIDC, Vapi - GPCB",20-03-2024 06:00:00,20.362421,72.918013,OZONE,1,2,1
India,Gujarat,Vatva,"Phase-4 GIDC, Vatva - GPCB",20-03-2024 06:00:00,22.969611,72.643500,NO2,39,354,145
India,Gujarat,Vatva,"Phase-4 GIDC, Vatva - GPCB",20-03-2024 06:00:00,22.969611,72.643500,CO,4,135,78
India,Haryana,Ambala,"Patti Mehar, Ambala - HSPCB",20-03-2024 06:00:00,30.379589,76.778328,PM2.5,36,89,58
India,Haryana,Ambala,"Patti Mehar, Ambala - HSPCB",20-03-2024 06:00:00,30.379589,76.778328,NO2,8,21,15
India,Haryana,Ambala,"Patti Mehar, Ambala - HSPCB",20-03-2024 06:00:00,30.379589,76.778328,NH3,5,12,9
India,Haryana,Bahadurgarh,"Arya Nagar, Bahadurgarh - HSPCB",20-03-2024 06:00:00,28.6701,76.9254,PM2.5,48,324,185
India,Haryana,Bahadurgarh,"Arya Nagar, Bahadurgarh - HSPCB",20-03-2024 06:00:00,28.6701,76.9254,OZONE,30,50,43
India,Haryana,Ballabgarh,"Nathu Colony, Ballabgarh - HSPCB",20-03-2024 06:00:00,28.3419248,77.319699,PM2.5,48,403,271
India,Haryana,Ballabgarh,"Nathu Colony, Ballabgarh - HSPCB",20-03-2024 06:00:00,28.3419248,77.319699,OZONE,1,40,2
India,Haryana,Bhiwani,"H.B. Colony, Bhiwani - HSPCB",20-03-2024 06:00:00,28.806223,76.141105,CO,9,60,36
India,Haryana,Charkhi Dadri,"Mini Secretariat, Charkhi Dadri - HSPCB",20-03-2024 06:00:00,28.593883,76.270653,CO,24,60,46
India,Haryana,Dharuhera,"Municipal Corporation Office, Dharuhera -  HSPCB",20-03-2024 06:00:00,28.206800,76.799700,PM10,123,439,230
India,Haryana,Faridabad,"New Industrial Town, Faridabad - HSPCB",20-03-2024 06:00:00,28.39072,77.30059,PM2.5,164,394,298
India,Haryana,Faridabad,"New Industrial Town, Faridabad - HSPCB",20-03-2024 06:00:00,28.39072,77.30059,NO2,11,28,18
India,Haryana,Faridabad,"New Industrial Town, Faridabad - HSPCB",20-03-2024 06:00:00,28.39072,77.30059,CO,12,51,39
India,Haryana,Faridabad,"New Industrial Town, Faridabad - HSPCB",20-03-2024 06:00:00,28.39072,77.30059,OZONE,7,254,31
India,Haryana,Faridabad,"Sector 11, Faridabad - HSPCB",20-03-2024 06:00:00,28.376058,77.315741,NO2,30,33,31
India,Haryana,Faridabad,"Sector 11, Faridabad - HSPCB",20-03-2024 06:00:00,28.376058,77.315741,NH3,6,6,6
India,Haryana,Faridabad,"Sector 30, Faridabad - HSPCB",20-03-2024 06:00:00,28.4417,77.3217,PM2.5,93,98,96
India,Haryana,Faridabad,"Sector 30, Faridabad - HSPCB",20-03-2024 06:00:00,28.4417,77.3217,NH3,9,9,9
India,Haryana,Faridabad,"Sector 30, Faridabad - HSPCB",20-03-2024 06:00:00,28.4417,77.3217,OZONE,5,117,5
India,Haryana,Gurugram,"Teri Gram, Gurugram - HSPCB",20-03-2024 06:00:00,28.4275,77.1465,NO2,12,74,44
India,Haryana,Gurugram,"Teri Gram, Gurugram - HSPCB",20-03-2024 06:00:00,28.4275,77.1465,SO2,1,5,4
India,Haryana,Gurugram,"Teri Gram, Gurugram - HSPCB",20-03-2024 06:00:00,28.4275,77.1465,OZONE,13,18,15
India,Haryana,Hisar,"Urban Estate-II, Hisar - HSPCB",20-03-2024 06:00:00,29.140560,75.744941,OZONE,23,151,60
India,Haryana,Jind,"Police Lines, Jind - HSPCB",20-03-2024 06:00:00,29.307814,76.337619,NO2,7,15,11
India,Haryana,Karnal,"Sector-12, Karnal - HSPCB",20-03-2024 06:00:00,29.695300,77.002700,CO,15,90,48
India,Haryana,Kurukshetra,"Sector-7, Kurukshetra - HSPCB",20-03-2024 06:00:00,29.966942,76.875879,SO2,1,88,25
India,Haryana,Narnaul,"Shastri Nagar, Narnaul - HSPCB",20-03-2024 06:00:00,28.060249,76.113115,PM10,23,116,58
India,Haryana,Narnaul,"Shastri Nagar, Narnaul - HSPCB",20-03-2024 06:00:00,28.060249,76.113115,CO,8,14,10
India,Haryana,Panchkula,"Sector-6, Panchkula - HSPCB ",20-03-2024 06:00:00,30.7057778,76.8531805555555,CO,4,12,11
India,Haryana,Panipat,"Sector-18, Panipat - HSPCB",20-03-2024 06:00:00,29.497973,76.993331,PM10,74,85,77
India,Haryana,Panipat,"Sector-18, Panipat - HSPCB",20-03-2024 06:00:00,29.497973,76.993331,SO2,18,19,19
India,Haryana,Panipat,"Sector-18, Panipat - HSPCB",20-03-2024 06:00:00,29.497973,76.993331,CO,24,26,25
India,Haryana,Panipat,"Sector-18, Panipat - HSPCB",20-03-2024 06:00:00,29.497973,76.993331,OZONE,30,30,30
India,Haryana,Rohtak,"MD University, Rohtak - HSPCB",20-03-2024 06:00:00,28.52123,76.37138,SO2,5,9,7
India,Haryana,Rohtak,"MD University, Rohtak - HSPCB",20-03-2024 06:00:00,28.52123,76.37138,OZONE,41,56,50
India,Haryana,Sirsa,"F-Block, Sirsa - HSPCB",20-03-2024 06:00:00,29.536400,75.015800,PM2.5,34,294,86
India,Haryana,Sonipat,"Murthal, Sonipat - HSPCB",20-03-2024 06:00:00,29.027200,77.062100,PM10,61,109,83
India,Haryana,Yamuna Nagar,"Gobind Pura, Yamuna Nagar - HSPCB",20-03-2024 06:00:00,30.1480566,77.2893471,NH3,1,6,4
India,Haryana,Yamuna Nagar,"Gobind Pura, Yamuna Nagar - HSPCB",20-03-2024 06:00:00,30.1480566,77.2893471,SO2,2,139,18
India,Haryana,Yamuna Nagar,"Gobind Pura, Yamuna Nagar - HSPCB",20-03-2024 06:00:00,30.1480566,77.2893471,CO,6,92,64
India,Haryana,Yamuna Nagar,"Gobind Pura, Yamuna Nagar - HSPCB",20-03-2024 06:00:00,30.1480566,77.2893471,OZONE,15,45,20
India,Himachal Pradesh,Baddi,"HIMUDA Complex Phase-1, Baddi - HPPCB",20-03-2024 06:00:00,30.943887,76.801991,SO2,10,105,29
India,Jharkhand,Dhanbad,"Kalakusuma, Dhanbad - DMC",20-03-2024 06:00:00,23.811548,86.481238,OZONE,10,38,11
India,Jharkhand,Dhanbad,"Sardar Patel Nagar, Dhanbad - JSPCB",20-03-2024 06:00:00,23.80569,86.44268,CO,NA,NA,NA
India,Jharkhand,Pathardih,"Mohalbani Ghat, Pathardih - DMC",20-03-2024 06:00:00,23.669880,86.411725,PM10,NA,NA,NA
India,Jharkhand,Pathardih,"Mohalbani Ghat, Pathardih - DMC",20-03-2024 06:00:00,23.669880,86.411725,OZONE,NA,NA,NA
India,Karnataka,Bagalkot,"Vidayagiri, Bagalkot - KSPCB",20-03-2024 06:00:00,16.172806,75.659694,NH3,1,2,1
India,Karnataka,Bagalkot,"Vidayagiri, Bagalkot - KSPCB",20-03-2024 06:00:00,16.172806,75.659694,SO2,9,10,9
India,Karnataka,Bengaluru,"BTM Layout, Bengaluru - CPCB",20-03-2024 06:00:00,12.9135218,77.5950804,NH3,4,4,4
India,Karnataka,Bengaluru,"Bapuji Nagar, Bengaluru - KSPCB",20-03-2024 06:00:00,12.951913,77.539784,PM10,NA,NA,NA
India,Karnataka,Bengaluru,"Hombegowda Nagar, Bengaluru - KSPCB",20-03-2024 06:00:00,12.938539,77.590100,CO,11,14,12
India,Karnataka,Bengaluru,"Jayanagar 5th Block, Bengaluru - KSPCB",20-03-2024 06:00:00,12.920984,77.584908,PM2.5,63,147,100
India,Karnataka,Bengaluru,"Jayanagar 5th Block, Bengaluru - KSPCB",20-03-2024 06:00:00,12.920984,77.584908,SO2,17,32,24
India,Karnataka,Bengaluru,"Kasturi Nagar, Bengaluru - KSPCB",20-03-2024 06:00:00,13.003872,77.664217,PM10,85,223,166
India,Karnataka,Bengaluru,"RVCE-Mailasandra, Bengaluru - KSPCB",20-03-2024 06:00:00,12.921418,77.502466,PM2.5,106,346,289
India,Karnataka,Bengaluru,"Sanegurava Halli, Bengaluru - KSPCB",20-03-2024 06:00:00,12.990328,77.5431385,PM10,37,82,51
India,Karnataka,Bengaluru,"Shivapura_Peenya, Bengaluru - KSPCB",20-03-2024 06:00:00,13.0246342,77.5080115,PM2.5,17,155,69
India,Karnataka,Bengaluru,"Shivapura_Peenya, Bengaluru - KSPCB",20-03-2024 06:00:00,13.0246342,77.5080115,NH3,4,4,4
India,Karnataka,Bengaluru,"Shivapura_Peenya, Bengaluru - KSPCB",20-03-2024 06:00:00,13.0246342,77.5080115,SO2,7,41,20
India,Karnataka,Bengaluru,"Shivapura_Peenya, Bengaluru - KSPCB",20-03-2024 06:00:00,13.0246342,77.5080115,OZONE,53,56,54
India,Karnataka,Bengaluru,"Silk Board, Bengaluru - KSPCB",20-03-2024 06:00:00,12.917348,77.622813,NO2,18,34,25
India,Karnataka,Bengaluru,"Silk Board, Bengaluru - KSPCB",20-03-2024 06:00:00,12.917348,77.622813,SO2,9,23,14
India,Karnataka,Bidar,"Naubad, Bidar - KSPCB",20-03-2024 06:00:00,17.930306,77.482194,PM10,84,110,98
India,Karnataka,Bidar,"Naubad, Bidar - KSPCB",20-03-2024 06:00:00,17.930306,77.482194,SO2,15,20,17
India,Karnataka,Bidar,"Naubad, Bidar - KSPCB",20-03-2024 06:00:00,17.930306,77.482194,CO,50,85,73
India,Karnataka,Bidar,"Naubad, Bidar - KSPCB",20-03-2024 06:00:00,17.930306,77.482194,OZONE,53,54,54
India,Karnataka,Chikkaballapur,"Chikkaballapur Rural, Chikkaballapur - KSPCB",20-03-2024 06:00:00,13.428828,77.731418,PM2.5,60,291,102
India,Karnataka,Chikkaballapur,"Chikkaballapur Rural, Chikkaballapur - KSPCB",20-03-2024 06:00:00,13.428828,77.731418,NH3,1,14,2
India,Karnataka,Chikkaballapur,"Chikkaballapur Rural, Chikkaballapur - KSPCB",20-03-2024 06:00:00,13.428828,77.731418,OZONE,25,26,26
India,Karnataka,Davanagere,"Devaraj Urs Badavane, Davanagere - KSPCB",20-03-2024 06:00:00,14.475800,75.905200,NO2,11,19,14
India,Karnataka,Dharwad,"Kalabhavan, Dharwad - KSPCB",20-03-2024 06:00:00,15.459706,75.008381,NO2,7,29,16
India,Karnataka,Gadag,"Panchal Nagar, Gadag - KSPCB",20-03-2024 06:00:00,15.411456,75.638133,PM10,41,79,55
India,Karnataka,Gadag,"Panchal Nagar, Gadag - KSPCB",20-03-2024 06:00:00,15.411456,75.638133,CO,40,59,53
India,Karnataka,Gadag,"Panchal Nagar, Gadag - KSPCB",20-03-2024 06:00:00,15.411456,75.638133,OZONE,26,95,46
India,Karnataka,Hassan,"B.Katihalli, Hassan - KSPCB",20-03-2024 06:00:00,13.008556,76.125258,PM10,52,93,65
India,Karnataka,Hassan,"B.Katihalli, Hassan - KSPCB",20-03-2024 06:00:00,13.008556,76.125258,NO2,7,36,18
India,Karnataka,Hassan,"B.Katihalli, Hassan - KSPCB",20-03-2024 06:00:00,13.008556,76.125258,NH3,2,5,4
India,Karnataka,Hassan,"B.Katihalli, Hassan - KSPCB",20-03-2024 06:00:00,13.008556,76.125258,SO2,6,38,16
India,Karnataka,Hassan,"B.Katihalli, Hassan - KSPCB",20-03-2024 06:00:00,13.008556,76.125258,CO,6,31,12
India,Karnataka,Haveri,"Ashwini Nagar, Haveri - KSPCB",20-03-2024 06:00:00,14.791800,75.389600,PM10,NA,NA,NA
India,Karnataka,Haveri,"Ashwini Nagar, Haveri - KSPCB",20-03-2024 06:00:00,14.791800,75.389600,SO2,NA,NA,NA
India,Karnataka,Haveri,"Ashwini Nagar, Haveri - KSPCB",20-03-2024 06:00:00,14.791800,75.389600,OZONE,NA,NA,NA
India,Karnataka,Hubballi,"Deshpande Nagar, Hubballi - KSPCB",20-03-2024 06:00:00,15.351773,75.140726,PM2.5,47,99,74
India,Karnataka,Hubballi,"Deshpande Nagar, Hubballi - KSPCB",20-03-2024 06:00:00,15.351773,75.140726,NO2,26,28,27
India,Karnataka,Kalaburagi,"Lal Bahadur Shastri Nagar, Kalaburagi - KSPCB",20-03-2024 06:00:00,17.321993,76.822628,NO2,11,12,11
India,Karnataka,Kalaburagi,"Mahatma Basaveswar Colony, Kalaburgi - KSPCB",20-03-2024 06:00:00,17.336318,76.847397,SO2,5,23,9
India,Karnataka,Karwar,"KHB Colony, Karwar - KSPCB",20-03-2024 06:00:00,14.816666,74.141003,PM10,55,164,94
India,Karnataka,Karwar,"KHB Colony, Karwar - KSPCB",20-03-2024 06:00:00,14.816666,74.141003,OZONE,21,22,21
India,Karnataka,Kolar,"Tamaka Ind. Area, Kolar - KSPCB",20-03-2024 06:00:00,13.1276288,78.1570122,CO,NA,NA,NA
India,Karnataka,Kolar,"Tamaka Ind. Area, Kolar - KSPCB",20-03-2024 06:00:00,13.1276288,78.1570122,OZONE,12,14,14
India,Karnataka,Koppal,"Diwator Nagar, Koppal - KSPCB",20-03-2024 06:00:00,15.347630,76.181767,NO2,1,17,8
India,Karnataka,Madikeri,"Stuart Hill, Madikeri - KSPCB",20-03-2024 06:00:00,12.415911,75.735050,PM10,42,60,49
India,Karnataka,Madikeri,"Stuart Hill, Madikeri - KSPCB",20-03-2024 06:00:00,12.415911,75.735050,NO2,2,7,4
India,Karnataka,Madikeri,"Stuart Hill, Madikeri - KSPCB",20-03-2024 06:00:00,12.415911,75.735050,NH3,NA,NA,NA
India,Karnataka,Madikeri,"Stuart Hill, Madikeri - KSPCB",20-03-2024 06:00:00,12.415911,75.735050,SO2,4,5,5
India,Karnataka,Mangalore,"Kadri, Mangalore - KSPCB",20-03-2024 06:00:00,12.889250,74.853000,OZONE,28,33,31
India,Karnataka,Mysuru,"Hebbal 1st Stage, Mysuru - KSPCB",20-03-2024 06:00:00,12.21041,76.37376,NO2,8,43,23
India,Karnataka,Mysuru,"Hebbal 1st Stage, Mysuru - KSPCB",20-03-2024 06:00:00,12.21041,76.37376,NH3,1,3,2
India,Karnataka,Mysuru,"Hebbal 1st Stage, Mysuru - KSPCB",20-03-2024 06:00:00,12.21041,76.37376,SO2,2,8,4
India,Karnataka,Mysuru,"Hebbal 1st Stage, Mysuru - KSPCB",20-03-2024 06:00:00,12.21041,76.37376,CO,5,100,11
India,Karnataka,Ramanagara,"Vijay Nagar, Ramanagara - KSPCB",20-03-2024 06:00:00,12.733409,77.298051,NO2,3,12,7
India,Karnataka,Ramanagara,"Vijay Nagar, Ramanagara - KSPCB",20-03-2024 06:00:00,12.733409,77.298051,SO2,17,35,25
India,Karnataka,Ramanagara,"Vijay Nagar, Ramanagara - KSPCB",20-03-2024 06:00:00,12.733409,77.298051,CO,2,48,12
India,Karnataka,Shivamogga,"Vinoba Nagara, Shivamogga - KSPCB",20-03-2024 06:00:00,13.940000,75.555917,PM2.5,29,60,51
India,Karnataka,Tumakuru,"Thimmalapura, Tumakuru - KSPCB",20-03-2024 06:00:00,13.377516,77.099072,OZONE,7,32,27
India,Karnataka,Udupi,"Brahmagiri, Udupi - KSPCB",20-03-2024 06:00:00,13.34194444,74.74694444,PM2.5,37,73,55
India,Karnataka,Vijayapura,"Ibrahimpur, Vijayapura - KSPCB",20-03-2024 06:00:00,16.802639,75.722694,PM2.5,26,31,30
India,Karnataka,Yadgir,"Collector Office, Yadgir - KSPCB",20-03-2024 06:00:00,16.7602,77.1428,CO,4,30,16
India,Kerala,Kannur,"Thavakkara, Kannur - Kerala PCB",20-03-2024 06:00:00,11.875000,75.373200,PM2.5,53,61,56
India,Kerala,Kannur,"Thavakkara, Kannur - Kerala PCB",20-03-2024 06:00:00,11.875000,75.373200,PM10,65,75,69
India,Kerala,Kollam,"Polayathode, Kollam - Kerala PCB",20-03-2024 06:00:00,8.8787,76.6073,CO,4,29,13
India,Kerala,Thiruvananthapuram,"Kariavattom, Thiruvananthapuram - Kerala PCB",20-03-2024 06:00:00,8.563700,76.886500,PM2.5,75,85,81
India,Kerala,Thiruvananthapuram,"Kariavattom, Thiruvananthapuram - Kerala PCB",20-03-2024 06:00:00,8.563700,76.886500,PM10,91,101,97
India,Kerala,Thiruvananthapuram,"Kariavattom, Thiruvananthapuram - Kerala PCB",20-03-2024 06:00:00,8.563700,76.886500,CO,18,40,23
India,Kerala,Thiruvananthapuram,"Plammoodu, Thiruvananthapuram - Kerala PCB",20-03-2024 06:00:00,8.5149093,76.9435879,NO2,8,10,9
India,Kerala,Thiruvananthapuram,"Plammoodu, Thiruvananthapuram - Kerala PCB",20-03-2024 06:00:00,8.5149093,76.9435879,NH3,2,2,2
India,Kerala,Thrissur,"Corporation Ground, Thrissur - Kerala PCB",20-03-2024 06:00:00,10.532400,76.215900,NO2,7,8,7
India,Kerala,Thrissur,"Corporation Ground, Thrissur - Kerala PCB",20-03-2024 06:00:00,10.532400,76.215900,SO2,1,14,4
India,Madhya Pradesh,Bhopal,"Idgah Hills, Bhopal - MPPCB",20-03-2024 06:00:00,23.264759,77.381568,PM10,45,125,86
India,Madhya Pradesh,Bhopal,"Idgah Hills, Bhopal - MPPCB",20-03-2024 06:00:00,23.264759,77.381568,NO2,7,39,20
India,Madhya Pradesh,Bhopal,"Idgah Hills, Bhopal - MPPCB",20-03-2024 06:00:00,23.264759,77.381568,NH3,3,5,4
India,Madhya Pradesh,Bhopal,"T T Nagar, Bhopal - MPPCB",20-03-2024 06:00:00,23.233584,77.400574,PM2.5,21,87,48
India,Madhya Pradesh,Bhopal,"T T Nagar, Bhopal - MPPCB",20-03-2024 06:00:00,23.233584,77.400574,PM10,66,140,99
India,Madhya Pradesh,Dewas,"Bhopal Chauraha, Dewas - MPPCB",20-03-2024 06:00:00,22.9682591,76.064118,NO2,9,15,13
India,Madhya Pradesh,Dewas,"Bhopal Chauraha, Dewas - MPPCB",20-03-2024 06:00:00,22.9682591,76.064118,NH3,2,3,3
India,Madhya Pradesh,Dewas,"Bhopal Chauraha, Dewas - MPPCB",20-03-2024 06:00:00,22.9682591,76.064118,CO,10,46,26
India,Madhya Pradesh,Gwalior,"City Center, Gwalior - MPPCB",20-03-2024 06:00:00,26.203442,78.193251,NO2,20,96,46
India,Madhya Pradesh,Gwalior,"City Center, Gwalior - MPPCB",20-03-2024 06:00:00,26.203442,78.193251,OZONE,10,80,17
India,Madhya Pradesh,Gwalior,"Maharaj Bada, Gwalior - MPPCB",20-03-2024 06:00:00,26.200388,78.147714,NO2,17,63,40
India,Madhya Pradesh,Gwalior,"Maharaj Bada, Gwalior - MPPCB",20-03-2024 06:00:00,26.200388,78.147714,SO2,18,69,23
India,Madhya Pradesh,Jabalpur,"Govindh Bhavan Colony, Jabalpur - JMC",20-03-2024 06:00:00,23.163174,79.973061,PM2.5,17,95,48
India,Madhya Pradesh,Jabalpur,"Govindh Bhavan Colony, Jabalpur - JMC",20-03-2024 06:00:00,23.163174,79.973061,SO2,9,32,18
India,Madhya Pradesh,Jabalpur,"Gupteshwar, Jabalpur - JMC",20-03-2024 06:00:00,23.142888,79.916147,NO2,2,41,13
India,Madhya Pradesh,Jabalpur,"Marhatal, Jabalpur - MPPCB",20-03-2024 06:00:00,23.168606,79.932247,NO2,10,51,27
India,Madhya Pradesh,Jabalpur,"Marhatal, Jabalpur - MPPCB",20-03-2024 06:00:00,23.168606,79.932247,CO,7,54,5
India,Madhya Pradesh,Katni,"Gole Bazar, Katni - MPPCB",20-03-2024 06:00:00,23.50016,80.23284,NH3,2,5,3
India,Madhya Pradesh,Pithampur,"Sector-2 Industrial Area, Pithampur - MPPCB",20-03-2024 06:00:00,22.624758,75.675238,PM2.5,68,261,115
India,Madhya Pradesh,Pithampur,"Sector-2 Industrial Area, Pithampur - MPPCB",20-03-2024 06:00:00,22.624758,75.675238,NH3,6,9,8
India,Madhya Pradesh,Pithampur,"Sector-2 Industrial Area, Pithampur - MPPCB",20-03-2024 06:00:00,22.624758,75.675238,SO2,11,16,14
India,Madhya Pradesh,Pithampur,"Sector-2 Industrial Area, Pithampur - MPPCB",20-03-2024 06:00:00,22.624758,75.675238,CO,25,51,41
India,Madhya Pradesh,Ratlam,"Shasthri Nagar, Ratlam - IPCA Lab",20-03-2024 06:00:00,23.331731,75.045981,PM10,91,423,171
India,Madhya Pradesh,Ratlam,"Shasthri Nagar, Ratlam - IPCA Lab",20-03-2024 06:00:00,23.331731,75.045981,SO2,36,43,38
India,Madhya Pradesh,Sagar,"Civil Lines, Sagar - MPPCB",20-03-2024 06:00:00,23.838586,78.759431,SO2,6,31,11
India,Madhya Pradesh,Sagar,"Civil Lines, Sagar - MPPCB",20-03-2024 06:00:00,23.838586,78.759431,OZONE,33,132,58
India,Madhya Pradesh,Sagar,"Deen Dayal Nagar, Sagar - MPPCB",20-03-2024 06:00:00,23.8640158,78.80289321,CO,44,70,62
India,Madhya Pradesh,Singrauli,"Suryakiran Bhawan NCL, Singrauli - MPPCB",20-03-2024 06:00:00,24.108970,82.645580,PM2.5,21,152,70
India,Madhya Pradesh,Singrauli,"Suryakiran Bhawan NCL, Singrauli - MPPCB",20-03-2024 06:00:00,24.108970,82.645580,PM10,30,164,95
India,Madhya Pradesh,Ujjain,"Mahakaleshwar Temple, Ujjain - MPPCB",20-03-2024 06:00:00,23.182719 ,75.768218 ,OZONE,131,165,158
India,Maharashtra,Ahmednagar,"Tarakpur, Ahmednagar - MPCB",20-03-2024 06:00:00,19.10122,74.73339,PM2.5,36,183,108
India,Maharashtra,Ahmednagar,"Tarakpur, Ahmednagar - MPCB",20-03-2024 06:00:00,19.10122,74.73339,OZONE,7,213,53
India,Maharashtra,Akola,"Ramdaspeth, Akola - MPCB",20-03-2024 06:00:00,20.719516,77.000253,PM2.5,23,98,72
India,Maharashtra,Akola,"Ramdaspeth, Akola - MPCB",20-03-2024 06:00:00,20.719516,77.000253,NH3,4,9,6
India,Maharashtra,Akola,"Ramdaspeth, Akola - MPCB",20-03-2024 06:00:00,20.719516,77.000253,CO,24,106,36
India,Maharashtra,Amravati,"Shri Shivaji Science College, Amaravati - MPCB",20-03-2024 06:00:00,20.939198,77.765701,PM2.5,53,97,78
India,Maharashtra,Aurangabad,"More Chowk Waluj, Aurangabad - MPCB",20-03-2024 06:00:00,19.8389439,75.244448,NH3,1,2,1
India,Maharashtra,Aurangabad,"Rachnakar Colony, Aurangabad - MPCB",20-03-2024 06:00:00,19.863756,75.321188,NO2,14,23,19
India,Maharashtra,Badlapur,"Katrap, Badlapur - MPCB",20-03-2024 06:00:00,19.16485,73.23409,PM2.5,73,308,141
India,Maharashtra,Bhiwandi,"Gokul Nagar, Bhiwandi - MPCB",20-03-2024 06:00:00,19.309073,73.057223,OZONE,4,97,27
India,Maharashtra,Chandrapur,"Chauhan Colony, Chandrapur - MPCB",20-03-2024 06:00:00,19.962900,79.298714,OZONE,8,9,9
India,Maharashtra,Chandrapur,"MIDC Khutala, Chandrapur - MPCB",20-03-2024 06:00:00,19.9775302,79.2337086,PM2.5,46,324,85
India,Maharashtra,Chandrapur,"MIDC Khutala, Chandrapur - MPCB",20-03-2024 06:00:00,19.9775302,79.2337086,NO2,14,34,25
India,Maharashtra,Chandrapur,"MIDC Khutala, Chandrapur - MPCB",20-03-2024 06:00:00,19.9775302,79.2337086,SO2,20,23,22
India,Maharashtra,Dhule,"Deopur, Dhule - MPCB",20-03-2024 06:00:00,20.918946,74.776388,SO2,16,25,21
India,Maharashtra,Dhule,"Deopur, Dhule - MPCB",20-03-2024 06:00:00,20.918946,74.776388,OZONE,10,89,20
India,Maharashtra,Jalgaon,"Prabhat Colony, Jalgaon - MPCB",20-03-2024 06:00:00,21.001264,75.565602,CO,13,33,21
India,Maharashtra,Jalna,"Old MIDC, Jalna - MPCB",20-03-2024 06:00:00,19.854616,75.905894,NH3,6,8,7
India,Maharashtra,Jalna,"Old MIDC, Jalna - MPCB",20-03-2024 06:00:00,19.854616,75.905894,SO2,1,10,5
India,Maharashtra,Jalna,"Old MIDC, Jalna - MPCB",20-03-2024 06:00:00,19.854616,75.905894,OZONE,12,172,25
India,Maharashtra,Kalyan,"Khadakpada, Kalyan - MPCB",20-03-2024 06:00:00,19.25292,73.142019,PM2.5,23,92,48
India,Maharashtra,Kalyan,"Khadakpada, Kalyan - MPCB",20-03-2024 06:00:00,19.25292,73.142019,PM10,89,284,131
India,Maharashtra,Kolhapur,"Shivaji University, Kolhapur - MPCB",20-03-2024 06:00:00,16.6870449,74.2505872,NH3,4,9,6
India,Maharashtra,Kolhapur,"Shivaji University, Kolhapur - MPCB",20-03-2024 06:00:00,16.6870449,74.2505872,CO,46,97,54
India,Maharashtra,Kolhapur,"Shivaji University, Kolhapur - MPCB",20-03-2024 06:00:00,16.6870449,74.2505872,OZONE,14,137,40
India,Maharashtra,Kolhapur,"Sinchan Bhavan, Kolhapur - MPCB",20-03-2024 06:00:00,16.7143745,74.2426398,PM10,57,176,99
India,Maharashtra,Kolhapur,"Sinchan Bhavan, Kolhapur - MPCB",20-03-2024 06:00:00,16.7143745,74.2426398,SO2,1,25,5
India,Maharashtra,Latur,"Sawe Wadi, Latur - MPCB",20-03-2024 06:00:00,18.39963,76.57452,PM2.5,61,148,89
India,Maharashtra,Latur,"Sawe Wadi, Latur - MPCB",20-03-2024 06:00:00,18.39963,76.57452,NO2,5,29,14
India,Maharashtra,Latur,"Sawe Wadi, Latur - MPCB",20-03-2024 06:00:00,18.39963,76.57452,OZONE,42,106,65
India,Maharashtra,Mahad,"Kamble Tarf Birwadi, Mahad - MPCB",20-03-2024 06:00:00,18.1023399,73.4783687,NO2,23,93,38
India,Maharashtra,Mahad,"Kamble Tarf Birwadi, Mahad - MPCB",20-03-2024 06:00:00,18.1023399,73.4783687,SO2,12,115,37
India,Maharashtra,Malegaon,"Mahesh Nagar, Malegaon - MPCB",20-03-2024 06:00:00,20.555712,74.529236,NH3,6,9,8
India,Maharashtra,Malegaon,"Mahesh Nagar, Malegaon - MPCB",20-03-2024 06:00:00,20.555712,74.529236,CO,14,70,28
India,Maharashtra,Mira-Bhayandar,"Bhayandar West, Mira-Bhayandar - MPCB",20-03-2024 06:00:00,19.296481,72.840923,PM10,118,178,143
India,Maharashtra,Mira-Bhayandar,"Bhayandar West, Mira-Bhayandar - MPCB",20-03-2024 06:00:00,19.296481,72.840923,OZONE,4,136,23
India,Maharashtra,Mumbai,"Bandra Kurla Complex, Mumbai - MPCB",20-03-2024 06:00:00,19.065931,72.862131,PM10,116,299,162
India,Maharashtra,Mumbai,"Borivali East, Mumbai - IITM",20-03-2024 06:00:00,19.23241,72.86895,NO2,45,78,58
India,Maharashtra,Mumbai,"Byculla, Mumbai - BMC",20-03-2024 06:00:00,18.9767,72.8380,NO2,15,24,19
India,Maharashtra,Mumbai,"Byculla, Mumbai - BMC",20-03-2024 06:00:00,18.9767,72.8380,OZONE,5,165,41
India,Maharashtra,Mumbai,"Chakala-Andheri East, Mumbai - IITM",20-03-2024 06:00:00,19.11074,72.86084,NH3,8,23,12
India,Maharashtra,Mumbai,"Chakala-Andheri East, Mumbai - IITM",20-03-2024 06:00:00,19.11074,72.86084,CO,44,100,63
India,Maharashtra,Mumbai,"Chembur, Mumbai - MPCB",20-03-2024 06:00:00,19.0364585,72.8954371,PM2.5,77,147,110
India,Maharashtra,Mumbai,"Chembur, Mumbai - MPCB",20-03-2024 06:00:00,19.0364585,72.8954371,SO2,1,11,3
India,Maharashtra,Mumbai,"Colaba, Mumbai - MPCB",20-03-2024 06:00:00,18.910000,72.820000,PM2.5,27,69,41
India,Maharashtra,Mumbai,"Colaba, Mumbai - MPCB",20-03-2024 06:00:00,18.910000,72.820000,NH3,1,1,1
India,Maharashtra,Mumbai,"Ghatkopar, Mumbai - BMC",20-03-2024 06:00:00,19.083694,72.920967,OZONE,1,46,3
India,Maharashtra,Mumbai,"Kandivali East, Mumbai - MPCB",20-03-2024 06:00:00,19.205800,72.868200,PM2.5,63,196,103
India,Maharashtra,Mumbai,"Kandivali East, Mumbai - MPCB",20-03-2024 06:00:00,19.205800,72.868200,PM10,74,163,104
India,Maharashtra,Mumbai,"Kandivali West, Mumbai - BMC",20-03-2024 06:00:00,19.215859,72.831718,NO2,13,75,34
India,Maharashtra,Mumbai,"Kandivali West, Mumbai - BMC",20-03-2024 06:00:00,19.215859,72.831718,NH3,1,2,2
India,Maharashtra,Mumbai,"Kherwadi_Bandra East, Mumbai - MPCB",20-03-2024 06:00:00,19.0632143,72.8456324,NO2,13,93,48
India,Maharashtra,Mumbai,"Kherwadi_Bandra East, Mumbai - MPCB",20-03-2024 06:00:00,19.0632143,72.8456324,NH3,5,22,12
India,Maharashtra,Mumbai,"Kherwadi_Bandra East, Mumbai - MPCB",20-03-2024 06:00:00,19.0632143,72.8456324,OZONE,1,141,28
India,Maharashtra,Mumbai,"Khindipada-Bhandup West, Mumbai - IITM",20-03-2024 06:00:00,19.1653323,72.922099,PM10,NA,NA,NA
India,Maharashtra,Mumbai,"Khindipada-Bhandup West, Mumbai - IITM",20-03-2024 06:00:00,19.1653323,72.922099,NO2,NA,NA,NA
India,Maharashtra,Mumbai,"Khindipada-Bhandup West, Mumbai - IITM",20-03-2024 06:00:00,19.1653323,72.922099,SO2,NA,NA,NA
India,Maharashtra,Mumbai,"Mulund West, Mumbai - MPCB",20-03-2024 06:00:00,19.1750,72.9419,PM2.5,20,62,38
India,Maharashtra,Mumbai,"Mulund West, Mumbai - MPCB",20-03-2024 06:00:00,19.1750,72.9419,NH3,10,11,10
India,Maharashtra,Mumbai,"Mulund West, Mumbai - MPCB",20-03-2024 06:00:00,19.1750,72.9419,SO2,13,13,13
India,Maharashtra,Mumbai,"Mulund West, Mumbai - MPCB",20-03-2024 06:00:00,19.1750,72.9419,CO,32,33,33
India,Maharashtra,Mumbai,"Navy Nagar-Colaba, Mumbai - IITM",20-03-2024 06:00:00,18.897756,72.813320,NH3,12,23,15
India,Maharashtra,Mumbai,"Powai, Mumbai - MPCB",20-03-2024 06:00:00,19.137500,72.915056,PM2.5,29,75,46
India,Maharashtra,Mumbai,"Powai, Mumbai - MPCB",20-03-2024 06:00:00,19.137500,72.915056,NH3,1,2,1
India,Maharashtra,Mumbai,"Powai, Mumbai - MPCB",20-03-2024 06:00:00,19.137500,72.915056,SO2,31,40,34
India,Maharashtra,Mumbai,"Sewri, Mumbai - BMC",20-03-2024 06:00:00,19.000084,72.856730,PM2.5,41,87,64
India,Maharashtra,Mumbai,"Shivaji Nagar, Mumbai - BMC",20-03-2024 06:00:00,19.060498,72.923356,PM2.5,59,99,77
India,Maharashtra,Mumbai,"Shivaji Nagar, Mumbai - BMC",20-03-2024 06:00:00,19.060498,72.923356,PM10,116,166,128
India,Maharashtra,Mumbai,"Siddharth Nagar-Worli, Mumbai - IITM",20-03-2024 06:00:00,19.000083,72.813993,NH3,NA,NA,NA
India,Maharashtra,Mumbai,"Sion, Mumbai - MPCB",20-03-2024 06:00:00,19.047000,72.874600,PM2.5,36,93,56
India,Maharashtra,Mumbai,"Sion, Mumbai - MPCB",20-03-2024 06:00:00,19.047000,72.874600,NO2,14,75,42
India,Maharashtra,Mumbai,"Vasai West, Mumbai - MPCB",20-03-2024 06:00:00,19.383200,72.820400,PM2.5,30,130,59
India,Maharashtra,Mumbai,"Vasai West, Mumbai - MPCB",20-03-2024 06:00:00,19.383200,72.820400,PM10,83,132,107
India,Maharashtra,Mumbai,"Vile Parle West, Mumbai - MPCB",20-03-2024 06:00:00,19.10861,72.83622,PM2.5,42,94,61
India,Maharashtra,Mumbai,"Vile Parle West, Mumbai - MPCB",20-03-2024 06:00:00,19.10861,72.83622,NH3,9,11,10
India,Maharashtra,Mumbai,"Vile Parle West, Mumbai - MPCB",20-03-2024 06:00:00,19.10861,72.83622,OZONE,4,4,4
India,Maharashtra,Mumbai,"Worli, Mumbai - MPCB",20-03-2024 06:00:00,18.9936162,72.8128113,PM2.5,15,30,20
India,Maharashtra,Mumbai,"Worli, Mumbai - MPCB",20-03-2024 06:00:00,18.9936162,72.8128113,OZONE,8,12,10
India,Maharashtra,Nagpur,"Ambazari, Nagpur - MPCB",20-03-2024 06:00:00,21.121801,79.04952,NH3,3,7,4
India,Maharashtra,Nagpur,"Opp GPO Civil Lines, Nagpur - MPCB",20-03-2024 06:00:00,21.152875,79.0517531,NO2,26,74,46
India,Maharashtra,Nagpur,"Ram Nagar, Nagpur - MPCB",20-03-2024 06:00:00,21.143383,79.048912,OZONE,6,82,13
India,Maharashtra,Nanded,"Sneh Nagar, Nanded - MPCB",20-03-2024 06:00:00,19.173852,77.296291,PM2.5,80,275,165
India,Maharashtra,Nashik,"Gangapur Road, Nashik - MPCB",20-03-2024 06:00:00,20.0073285,73.7762427,PM2.5,51,123,77
India,Maharashtra,Nashik,"Gangapur Road, Nashik - MPCB",20-03-2024 06:00:00,20.0073285,73.7762427,NH3,1,2,1
India,Maharashtra,Nashik,"Gangapur Road, Nashik - MPCB",20-03-2024 06:00:00,20.0073285,73.7762427,SO2,1,8,4
India,Maharashtra,Nashik,"Hirawadi, Nashik - MPCB",20-03-2024 06:00:00,20.021503,73.813844,PM10,46,105,77
India,Maharashtra,Nashik,"MIDC Ambad, Nashik - MPCB",20-03-2024 06:00:00,19.950220,73.731480,PM10,51,92,72
India,Maharashtra,Nashik,"MIDC Ambad, Nashik - MPCB",20-03-2024 06:00:00,19.950220,73.731480,NO2,8,44,20
India,Maharashtra,Nashik,"MIDC Ambad, Nashik - MPCB",20-03-2024 06:00:00,19.950220,73.731480,SO2,4,22,12
India,Maharashtra,Nashik,"Pandav Nagari, Nashik - MPCB",20-03-2024 06:00:00,19.9591346,73.7788008,PM2.5,26,79,54
India,Maharashtra,Navi Mumbai,"Kopripada-Vashi, Navi Mumbai - MPCB",20-03-2024 06:00:00,19.090337,73.014232,NO2,29,126,73
India,Maharashtra,Navi Mumbai,"Kopripada-Vashi, Navi Mumbai - MPCB",20-03-2024 06:00:00,19.090337,73.014232,CO,10,84,68
India,Maharashtra,Navi Mumbai,"Kopripada-Vashi, Navi Mumbai - MPCB",20-03-2024 06:00:00,19.090337,73.014232,OZONE,8,96,14
India,Maharashtra,Navi Mumbai,"Mahape, Navi Mumbai - MPCB",20-03-2024 06:00:00,19.1135051,73.008978,NH3,3,5,3
India,Maharashtra,Navi Mumbai,"Nerul, Navi Mumbai - MPCB",20-03-2024 06:00:00,19.008751,73.016620,NH3,2,5,3
India,Maharashtra,Navi Mumbai,"Nerul, Navi Mumbai - MPCB",20-03-2024 06:00:00,19.008751,73.016620,SO2,12,18,14
India,Maharashtra,Navi Mumbai,"Sanpada, Navi Mumbai - MPCB",20-03-2024 06:00:00,19.0575752,73.0151367,NH3,6,23,10
India,Maharashtra,Navi Mumbai,"Sanpada, Navi Mumbai - MPCB",20-03-2024 06:00:00,19.0575752,73.0151367,CO,8,68,50
India,Maharashtra,Navi Mumbai,"Sanpada, Navi Mumbai - MPCB",20-03-2024 06:00:00,19.0575752,73.0151367,OZONE,4,146,6
India,Maharashtra,Navi Mumbai,"Sector-19A Nerul, Navi Mumbai - IITM",20-03-2024 06:00:00,19.044,73.0325,CO,1,90,78
India,Maharashtra,Navi Mumbai,"Sector-2E Kalamboli, Navi Mumbai - MPCB",20-03-2024 06:00:00,19.02579,73.10297,PM2.5,39,80,58
India,Maharashtra,Navi Mumbai,"Sector-2E Kalamboli, Navi Mumbai - MPCB",20-03-2024 06:00:00,19.02579,73.10297,NH3,2,6,4
India,Maharashtra,Navi Mumbai,"Sector-2E Kalamboli, Navi Mumbai - MPCB",20-03-2024 06:00:00,19.02579,73.10297,OZONE,4,77,5
India,Maharashtra,Parbhani,"Masoom Colony, Parbhani - MPCB",20-03-2024 06:00:00,19.265594,76.761463,PM2.5,58,293,195
India,Maharashtra,Pimpri-Chinchwad,"Gavalinagar, Pimpri Chinchwad - MPCB",20-03-2024 06:00:00,18.63673,73.82487,PM2.5,46,98,75
India,Maharashtra,Pimpri-Chinchwad,"Gavalinagar, Pimpri Chinchwad - MPCB",20-03-2024 06:00:00,18.63673,73.82487,CO,8,50,37
India,Maharashtra,Pimpri-Chinchwad,"Park Street Wakad, Pimpri Chinchwad - MPCB",20-03-2024 06:00:00,18.59051,73.77946,PM2.5,81,205,155
India,Maharashtra,Pimpri-Chinchwad,"Park Street Wakad, Pimpri Chinchwad - MPCB",20-03-2024 06:00:00,18.59051,73.77946,PM10,89,156,133
India,Maharashtra,Pimpri-Chinchwad,"Park Street Wakad, Pimpri Chinchwad - MPCB",20-03-2024 06:00:00,18.59051,73.77946,CO,3,58,39
India,Maharashtra,Pimpri-Chinchwad,"Thergaon, Pimpri Chinchwad - MPCB",20-03-2024 06:00:00,18.616318,73.765797,PM2.5,84,308,180
India,Maharashtra,Pimpri-Chinchwad,"Thergaon, Pimpri Chinchwad - MPCB",20-03-2024 06:00:00,18.616318,73.765797,SO2,4,9,6
India,Maharashtra,Pune,"Karve Road, Pune - MPCB",20-03-2024 06:00:00,18.5011743,73.8165527,PM2.5,67,78,73
India,Maharashtra,Pune,"Karve Road, Pune - MPCB",20-03-2024 06:00:00,18.5011743,73.8165527,OZONE,5,6,6
India,Maharashtra,Pune,"Mhada Colony, Pune - IITM",20-03-2024 06:00:00,18.573040,73.927715,PM2.5,25,112,66
India,Maharashtra,Pune,"Revenue Colony-Shivajinagar, Pune - IITM",20-03-2024 06:00:00,18.530085,73.849598,NO2,59,161,109
India,Maharashtra,Pune,"Revenue Colony-Shivajinagar, Pune - IITM",20-03-2024 06:00:00,18.530085,73.849598,OZONE,1,55,15
India,Maharashtra,Pune,"Savitribai Phule Pune University, Pune - MPCB",20-03-2024 06:00:00,18.547056,73.826908,OZONE,1,229,10
India,Maharashtra,Pune,"Transport Nagar-Nigdi, Pune - IITM",20-03-2024 06:00:00,18.664282,73.763966,PM2.5,14,120,56
India,Maharashtra,Sangli,"Vijay Nagar, Sangli - MPCB",20-03-2024 06:00:00, 16.5038,74.3623,PM2.5,55,138,89
India,Maharashtra,Sangli,"Vijay Nagar, Sangli - MPCB",20-03-2024 06:00:00, 16.5038,74.3623,PM10,86,125,106
India,Maharashtra,Solapur,"Dnyaneshwar Nagar, Solapur - MPCB",20-03-2024 06:00:00,17.6336264,75.9132495,PM2.5,87,203,150
India,Maharashtra,Solapur,"Dnyaneshwar Nagar, Solapur - MPCB",20-03-2024 06:00:00,17.6336264,75.9132495,NH3,11,35,16
India,Maharashtra,Solapur,"Dnyaneshwar Nagar, Solapur - MPCB",20-03-2024 06:00:00,17.6336264,75.9132495,CO,14,44,26
India,Maharashtra,Solapur,"Dnyaneshwar Nagar, Solapur - MPCB",20-03-2024 06:00:00,17.6336264,75.9132495,OZONE,39,112,54
India,Maharashtra,Solapur,"Ratandeep Housing Society, Solapur - MPCB",20-03-2024 06:00:00,17.65439,75.90649,PM2.5,70,280,114
India,Maharashtra,Solapur,"Ratandeep Housing Society, Solapur - MPCB",20-03-2024 06:00:00,17.65439,75.90649,NO2,22,116,60
India,Maharashtra,Solapur,"Solapur, Solapur - MPCB",20-03-2024 06:00:00,17.6599188,75.9063906,PM2.5,NA,NA,NA
India,Maharashtra,Thane,"Kasarvadavali, Thane - MPCB",20-03-2024 06:00:00,19.26777,72.97182,PM2.5,54,176,78
India,Maharashtra,Thane,"Pimpleshwar Mandir, Thane - MPCB",20-03-2024 06:00:00,19.192056,72.9585188,PM10,12,337,134
India,Maharashtra,Thane,"Pimpleshwar Mandir, Thane - MPCB",20-03-2024 06:00:00,19.192056,72.9585188,NO2,6,20,11
India,Maharashtra,Thane,"Pimpleshwar Mandir, Thane - MPCB",20-03-2024 06:00:00,19.192056,72.9585188,CO,26,115,83
India,Maharashtra,Thane,"Upvan Fort, Thane - MPCB",20-03-2024 06:00:00,19.222279,72.957979,PM2.5,63,225,110
India,Maharashtra,Thane,"Upvan Fort, Thane - MPCB",20-03-2024 06:00:00,19.222279,72.957979,CO,5,57,29
India,Maharashtra,Ulhasnagar,"Sidhi Vinayak Nagar, Ulhasnagar - MPCB",20-03-2024 06:00:00,19.235581,73.159121,NO2,7,47,28
India,Maharashtra,Ulhasnagar,"Sidhi Vinayak Nagar, Ulhasnagar - MPCB",20-03-2024 06:00:00,19.235581,73.159121,CO,2,96,63
India,Maharashtra,Virar,"Bolinj, Virar - MPCB",20-03-2024 06:00:00,19.4458210,72.7988231,PM2.5,72,216,119
India,Maharashtra,Virar,"Bolinj, Virar - MPCB",20-03-2024 06:00:00,19.4458210,72.7988231,NO2,7,64,26
India,Maharashtra,Virar,"Bolinj, Virar - MPCB",20-03-2024 06:00:00,19.4458210,72.7988231,CO,14,113,43
India,Manipur,Imphal,"DM College of Science, Imphal - Manipur PCB",20-03-2024 06:00:00,24.8207389,93.9423085,NO2,7,8,7
India,Mizoram,Aizawl,"Sikulpuikawn, Aizawl - Mizoram PCB",20-03-2024 06:00:00,23.7176342,92.7192841,PM2.5,23,186,69
India,Nagaland,Kohima,"PWD Juction, Kohima - NPCB",20-03-2024 06:00:00,25.6635413,94.0989878,OZONE,14,43,18
India,Odisha,Angul,"Hakimapada, Angul - OSPCB",20-03-2024 06:00:00,20.832874,85.104082,PM2.5,15,461,84
India,Odisha,Balasore,"Kalidaspur, Balasore - OSPCB",20-03-2024 06:00:00,21.51161,86.89088,PM10,11,118,65
India,Odisha,Balasore,"Kalidaspur, Balasore - OSPCB",20-03-2024 06:00:00,21.51161,86.89088,CO,40,76,52
India,Odisha,Balasore,"Kalidaspur, Balasore - OSPCB",20-03-2024 06:00:00,21.51161,86.89088,OZONE,19,71,49
India,Odisha,Barbil,"Forest Office, Barbil - OSPCB",20-03-2024 06:00:00,22.1166054,85.3945546,NH3,4,5,4
India,Odisha,Baripada,"Meher Colony, Baripada - OSPCB",20-03-2024 06:00:00,21.941841,86.728318,PM2.5,30,81,62
India,Odisha,Baripada,"Meher Colony, Baripada - OSPCB",20-03-2024 06:00:00,21.941841,86.728318,NO2,1,2,1
India,Odisha,Baripada,"Meher Colony, Baripada - OSPCB",20-03-2024 06:00:00,21.941841,86.728318,CO,18,35,25
India,Odisha,Bhubaneswar,"Lingraj Mandir, Bhubaneswar - OSPCB",20-03-2024 06:00:00,20.240790,85.836784,PM2.5,NA,NA,NA
India,Odisha,Bhubaneswar,"Lingraj Mandir, Bhubaneswar - OSPCB",20-03-2024 06:00:00,20.240790,85.836784,SO2,1,30,9
India,Odisha,Bhubaneswar,"Lingraj Mandir, Bhubaneswar - OSPCB",20-03-2024 06:00:00,20.240790,85.836784,CO,45,103,59
India,Odisha,Bhubaneswar,"Patia, Bhubaneswar - OSPCB",20-03-2024 06:00:00,20.34652,85.81630,NO2,3,36,18
India,Odisha,Bhubaneswar,"Patia, Bhubaneswar - OSPCB",20-03-2024 06:00:00,20.34652,85.81630,OZONE,18,78,55
India,Odisha,Bileipada,"Tata Township, Bileipada - OSPCB",20-03-2024 06:00:00,22.06156703,85.47409613,NH3,NA,NA,NA
India,Odisha,Brajrajnagar,"GM Office, Brajrajnagar - OSPCB",20-03-2024 06:00:00,21.8004996,83.8396977,NO2,13,18,14
India,Odisha,Brajrajnagar,"GM Office, Brajrajnagar - OSPCB",20-03-2024 06:00:00,21.8004996,83.8396977,CO,46,99,73
India,Odisha,Byasanagar,"Ferro Chrome Colony, Byasanagar - OSPCB",20-03-2024 06:00:00,20.94185,86.11510,NO2,6,68,18
India,Odisha,Cuttack,"CDA Area, Cuttack - OSPCB",20-03-2024 06:00:00,20.48891     ,85.84768     ,OZONE,11,73,53
India,Odisha,Keonjhar,"Jagamohanpur, Keonjhar - OSPCB",20-03-2024 06:00:00,21.643900,85.599355,NO2,10,94,30
India,Odisha,Keonjhar,"Jagamohanpur, Keonjhar - OSPCB",20-03-2024 06:00:00,21.643900,85.599355,CO,13,46,19
India,Odisha,Keonjhar,"Jagamohanpur, Keonjhar - OSPCB",20-03-2024 06:00:00,21.643900,85.599355,OZONE,1,49,24
India,Odisha,Nayagarh,"Dabuna, Nayagarh - OSPCB",20-03-2024 06:00:00,21.847279,85.416905,PM10,24,54,37
India,Odisha,Rairangpur,"Divisional Forest Office, Rairangpur - OSPCB",20-03-2024 06:00:00,22.265816,86.174829,NH3,5,5,5
India,Odisha,Rourkela,"Fertilizer Township, Rourkela - OSPCB",20-03-2024 06:00:00,22.18972222,84.86277778,PM2.5,NA,NA,NA
India,Odisha,Rourkela,"Fertilizer Township, Rourkela - OSPCB",20-03-2024 06:00:00,22.18972222,84.86277778,PM10,NA,NA,NA
India,Odisha,Rourkela,"Fertilizer Township, Rourkela - OSPCB",20-03-2024 06:00:00,22.18972222,84.86277778,CO,18,22,19
India,Odisha,Rourkela,"Sector-2, Rourkela - OSPCB",20-03-2024 06:00:00,22.24500000,84.88111111,PM2.5,23,78,49
India,Odisha,Rourkela,"Sector-2, Rourkela - OSPCB",20-03-2024 06:00:00,22.24500000,84.88111111,NO2,NA,NA,NA
India,Odisha,Talcher,"Talcher Coalfields,Talcher - OSPCB",20-03-2024 06:00:00,20.9360711,85.1707021,SO2,17,46,27
India,Odisha,Talcher,"Talcher Coalfields,Talcher - OSPCB",20-03-2024 06:00:00,20.9360711,85.1707021,OZONE,2,16,5
India,Puducherry,Puducherry,"Jawahar Nagar, Puducherry - PPCC",20-03-2024 06:00:00,11.9309,79.8027,CO,18,102,29
India,Punjab,Bathinda,"Hardev Nagar, Bathinda - PPCB",20-03-2024 06:00:00,30.233011,74.907758,PM2.5,25,134,67
India,Punjab,Jalandhar,"Civil Line, Jalandhar - PPCB",20-03-2024 06:00:00,31.321907,75.578914,NH3,5,5,5
India,Punjab,Ludhiana,"Punjab Agricultural University, Ludhiana - PPCB",20-03-2024 06:00:00,30.9028,75.8086,SO2,4,20,12
India,Punjab,Mandi Gobindgarh,"RIMT University, Mandi Gobindgarh - PPCB",20-03-2024 06:00:00,30.649961,76.331442,SO2,3,16,7
India,Punjab,Patiala,"Model Town, Patiala - PPCB",20-03-2024 06:00:00,30.349388,76.366642,OZONE,21,120,38
India,Punjab,Rupnagar,"Ratanpura, Rupnagar - Ambuja Cements",20-03-2024 06:00:00,31.0325454,76.5623046,SO2,8,11,10
India,Rajasthan,Ajmer,"Civil Lines,  Ajmer - RSPCB",20-03-2024 06:00:00,26.470859,74.646594,PM2.5,35,120,72
India,Rajasthan,Ajmer,"Civil Lines,  Ajmer - RSPCB",20-03-2024 06:00:00,26.470859,74.646594,SO2,10,25,16
India,Rajasthan,Ajmer,"Civil Lines,  Ajmer - RSPCB",20-03-2024 06:00:00,26.470859,74.646594,CO,14,99,24
India,Rajasthan,Alwar,"Moti Doongri, Alwar - RSPCB",20-03-2024 06:00:00,27.554793,76.611536,OZONE,18,29,21
India,Rajasthan,Banswara,"Rati Talai, Banswara - RSPCB",20-03-2024 06:00:00,23.555190,74.440010,OZONE,7,145,42
India,Rajasthan,Baran,"Bamboliya, Baran - RSPCB",20-03-2024 06:00:00,25.106006,76.469948,NH3,3,55,12
India,Rajasthan,Barmer,"Railway Colony, Barmer - RSPCB",20-03-2024 06:00:00,25.747299,71.393989,PM2.5,17,67,30
India,Rajasthan,Barmer,"Railway Colony, Barmer - RSPCB",20-03-2024 06:00:00,25.747299,71.393989,NH3,5,17,8
India,Rajasthan,Bharatpur,"Krishna Nagar, Bharatpur - RSPCB",20-03-2024 06:00:00,27.215415,77.50873,CO,8,66,54
India,Rajasthan,Bhilwara,"Pratap Nagar, Bhilwara - RSPCB",20-03-2024 06:00:00,25.339605,74.618883,NH3,1,1,1
India,Rajasthan,Bhiwadi,"Vasundhara Nagar_UIT, Bhiwadi - RSPCB",20-03-2024 06:00:00,28.207266,76.829265,NH3,NA,NA,NA
India,Rajasthan,Bhiwadi,"Vasundhara Nagar_UIT, Bhiwadi - RSPCB",20-03-2024 06:00:00,28.207266,76.829265,SO2,NA,NA,NA
India,Rajasthan,Bikaner,"MM Ground, Bikaner - RSPCB",20-03-2024 06:00:00,28.018792,73.292658,NO2,18,81,44
India,Rajasthan,Bundi,"New Colony, Bundi - RSPCB",20-03-2024 06:00:00,25.435774,75.644272,PM10,47,332,101
India,Rajasthan,Bundi,"New Colony, Bundi - RSPCB",20-03-2024 06:00:00,25.435774,75.644272,CO,8,80,26
India,Rajasthan,Bundi,"New Colony, Bundi - RSPCB",20-03-2024 06:00:00,25.435774,75.644272,OZONE,9,140,58
India,Rajasthan,Chittorgarh,"Shastri Nagar, Chittorgarh - RSPCB",20-03-2024 06:00:00,24.892047,74.623527,PM10,40,434,137
India,Rajasthan,Chittorgarh,"Shastri Nagar, Chittorgarh - RSPCB",20-03-2024 06:00:00,24.892047,74.623527,CO,2,57,44
India,Rajasthan,Churu,"Subash Chowk, Churu - RSPCB",20-03-2024 06:00:00,28.296139,74.961696,SO2,4,15,9
India,Rajasthan,Churu,"Subash Chowk, Churu - RSPCB",20-03-2024 06:00:00,28.296139,74.961696,CO,12,46,24
India,Rajasthan,Dausa,"Khatikan Mohalla, Dausa - RSPCB",20-03-2024 06:00:00,26.895552,76.334753,NO2,28,103,52
India,Rajasthan,Dholpur,"Raja Ganj, Dholpur - RSPCB",20-03-2024 06:00:00,26.699557,77.898881,PM2.5,52,340,158
India,Rajasthan,Dholpur,"Raja Ganj, Dholpur - RSPCB",20-03-2024 06:00:00,26.699557,77.898881,NO2,7,67,25
India,Rajasthan,Dungarpur,"Bhoiwada, Dungarpur - RSPCB",20-03-2024 06:00:00,23.837789,73.714926,PM2.5,32,83,45
India,Rajasthan,Dungarpur,"Bhoiwada, Dungarpur - RSPCB",20-03-2024 06:00:00,23.837789,73.714926,SO2,7,11,9
India,Rajasthan,Hanumangarh,"Housing Board, Hanumangarh - RSPCB",20-03-2024 06:00:00,29.610750,74.283608,CO,40,109,65
India,Rajasthan,Jaipur,"Adarsh Nagar, Jaipur - RSPCB",20-03-2024 06:00:00,26.902909,75.836858,PM10,58,118,87
India,Rajasthan,Jaipur,"Adarsh Nagar, Jaipur - RSPCB",20-03-2024 06:00:00,26.902909,75.836858,SO2,11,28,21
India,Rajasthan,Jaipur,"Police Commissionerate, Jaipur - RSPCB",20-03-2024 06:00:00,26.9164092,75.7994901,PM10,65,140,108
India,Rajasthan,Jaipur,"Police Commissionerate, Jaipur - RSPCB",20-03-2024 06:00:00,26.9164092,75.7994901,CO,26,50,33
India,Rajasthan,Jaipur,"Sector-2 Murlipura, Jaipur - RSPCB",20-03-2024 06:00:00,26.960669,75.771817,NO2,4,28,13
India,Rajasthan,Jaipur,"Shastri Nagar, Jaipur - RSPCB",20-03-2024 06:00:00,26.9502929,75.730943,CO,2,102,32
India,Rajasthan,Jaipur,"Shastri Nagar, Jaipur - RSPCB",20-03-2024 06:00:00,26.9502929,75.730943,OZONE,28,74,48
India,Rajasthan,Jaisalmer,"Sadar Bazar, Jaisalmer - RSPCB",20-03-2024 06:00:00,26.912329,70.909168,PM10,72,305,124
India,Rajasthan,Jaisalmer,"Sadar Bazar, Jaisalmer - RSPCB",20-03-2024 06:00:00,26.912329,70.909168,NO2,11,65,29
India,Rajasthan,Jaisalmer,"Sadar Bazar, Jaisalmer - RSPCB",20-03-2024 06:00:00,26.912329,70.909168,SO2,5,15,7
India,Rajasthan,Jalore,"Mudtra Sili, Jalore - RSPCB",20-03-2024 06:00:00,25.344694,72.626208,PM2.5,37,306,73
India,Rajasthan,Jhalawar,"Rajlaxmi Nagar, Jhalawar - RSPCB",20-03-2024 06:00:00,24.588397,76.172782,PM10,35,189,102
India,Rajasthan,Jhalawar,"Rajlaxmi Nagar, Jhalawar - RSPCB",20-03-2024 06:00:00,24.588397,76.172782,CO,30,108,79
India,Rajasthan,Jhunjhunu,"Indra Nagar, Jhunjhunu - RSPCB",20-03-2024 06:00:00,28.108988,75.386577,NO2,23,47,34
India,Rajasthan,Jhunjhunu,"Indra Nagar, Jhunjhunu - RSPCB",20-03-2024 06:00:00,28.108988,75.386577,NH3,24,34,29
India,Rajasthan,Jodhpur,"Collectorate, Jodhpur - RSPCB",20-03-2024 06:00:00,26.268249,73.0193853,NO2,35,39,37
India,Rajasthan,Jodhpur,"Collectorate, Jodhpur - RSPCB",20-03-2024 06:00:00,26.268249,73.0193853,OZONE,28,115,77
India,Rajasthan,Jodhpur,"Digari Kalan, Jodhpur - RSPCB",20-03-2024 06:00:00,26.295810,73.082283,NH3,5,10,7
India,Rajasthan,Jodhpur,"Jhalamand, Jodhpur - RSPCB",20-03-2024 06:00:00,26.215415,73.070156,NO2,13,53,31
India,Rajasthan,Jodhpur,"Samrat Ashok Udhyan, Jodhpur - RSPCB",20-03-2024 06:00:00,26.253384,72.976571,PM10,66,241,118
India,Rajasthan,Jodhpur,"Samrat Ashok Udhyan, Jodhpur - RSPCB",20-03-2024 06:00:00,26.253384,72.976571,OZONE,7,150,86
India,Rajasthan,Karauli,"Satyawati Vihar, Karauli - RSPCB",20-03-2024 06:00:00,26.506177,77.025989,PM2.5,13,57,28
India,Rajasthan,Karauli,"Satyawati Vihar, Karauli - RSPCB",20-03-2024 06:00:00,26.506177,77.025989,NO2,11,40,21
India,Rajasthan,Karauli,"Satyawati Vihar, Karauli - RSPCB",20-03-2024 06:00:00,26.506177,77.025989,SO2,7,26,12
India,Rajasthan,Karauli,"Satyawati Vihar, Karauli - RSPCB",20-03-2024 06:00:00,26.506177,77.025989,CO,7,40,14
India,Rajasthan,Kota,"Dhanmandi, Kota - RSPCB",20-03-2024 06:00:00,25.164090,75.858137,PM2.5,7,187,74
India,Rajasthan,Kota,"Dhanmandi, Kota - RSPCB",20-03-2024 06:00:00,25.164090,75.858137,PM10,54,287,118
India,Rajasthan,Kota,"Dhanmandi, Kota - RSPCB",20-03-2024 06:00:00,25.164090,75.858137,NH3,4,21,10
India,Rajasthan,Kota,"Nayapura, Kota - RSPCB",20-03-2024 06:00:00,25.196024,75.855668,OZONE,6,156,34
India,Rajasthan,Kota,"Shrinath Puram, Kota - RSPCB",20-03-2024 06:00:00,25.14389,75.821256,SO2,6,37,13
India,Rajasthan,Nagaur,"Karni Colony, Nagaur - RSPCB",20-03-2024 06:00:00,27.213494,73.734444,PM2.5,14,83,35
India,Rajasthan,Nagaur,"Karni Colony, Nagaur - RSPCB",20-03-2024 06:00:00,27.213494,73.734444,PM10,69,203,113
India,Rajasthan,Nagaur,"Karni Colony, Nagaur - RSPCB",20-03-2024 06:00:00,27.213494,73.734444,NH3,NA,NA,NA
India,Rajasthan,Pali,"Indira Colony Vistar, Pali - RSPCB",20-03-2024 06:00:00,25.771061, 73.340227,PM2.5,77,378,177
India,Rajasthan,Pali,"Indira Colony Vistar, Pali - RSPCB",20-03-2024 06:00:00,25.771061, 73.340227,NO2,39,69,50
India,Rajasthan,Pali,"Indira Colony Vistar, Pali - RSPCB",20-03-2024 06:00:00,25.771061, 73.340227,SO2,8,13,10
India,Rajasthan,Pali,"Indira Colony Vistar, Pali - RSPCB",20-03-2024 06:00:00,25.771061, 73.340227,OZONE,19,84,40
India,Rajasthan,Pratapgarh,"Pragati Nagar, Pratapgarh - RSPCB",20-03-2024 06:00:00,24.041198,74.780702,NO2,5,64,27
India,Rajasthan,Sawai Madhopur,"Sahu Nagar, Sawai Madhopur - RSPCB",20-03-2024 06:00:00,26.031443,76.359327,NH3,1,13,8
India,Rajasthan,Sikar,"Radhakishan Pura, Sikar - RSPCB",20-03-2024 06:00:00,27.608912,75.153302,NO2,9,52,17
India,Rajasthan,Sikar,"Radhakishan Pura, Sikar - RSPCB",20-03-2024 06:00:00,27.608912,75.153302,SO2,2,17,6
India,Rajasthan,Sirohi,"Vedhaynath Colony, Sirohi - RSPCB",20-03-2024 06:00:00,24.885261,72.857549,PM2.5,26,249,68
India,Rajasthan,Sirohi,"Vedhaynath Colony, Sirohi - RSPCB",20-03-2024 06:00:00,24.885261,72.857549,PM10,38,183,75
India,Rajasthan,Tonk,"Shastri Nagar, Tonk - RSPCB",20-03-2024 06:00:00,26.159933,75.780517,NH3,3,41,10
India,Rajasthan,Tonk,"Shastri Nagar, Tonk - RSPCB",20-03-2024 06:00:00,26.159933,75.780517,OZONE,6,88,54
India,Rajasthan,Udaipur,"Ashok Nagar, Udaipur - RSPCB",20-03-2024 06:00:00,24.5886166,73.6321397,OZONE,3,83,7
India,Sikkim,Gangtok,"Zero Point GICI, Gangtok - SSPCB",20-03-2024 06:00:00,27.338530,88.614099,OZONE,63,191,86
India,TamilNadu,Ariyalur,"Keelapalur, Ariyalur - TNPCB",20-03-2024 06:00:00,11.06825,79.07033,SO2,35,37,36
India,TamilNadu,Chengalpattu,"Crescent University, Chengalpattu - TNPCB",20-03-2024 06:00:00,12.8777316,80.0834807,SO2,19,31,20
India,TamilNadu,Chennai,"Alandur Bus Depot, Chennai - CPCB",20-03-2024 06:00:00,12.9099161,80.1076538,NO2,4,16,7
India,TamilNadu,Chennai,"Alandur Bus Depot, Chennai - CPCB",20-03-2024 06:00:00,12.9099161,80.1076538,NH3,2,24,7
India,TamilNadu,Chennai,"Alandur Bus Depot, Chennai - CPCB",20-03-2024 06:00:00,12.9099161,80.1076538,CO,78,105,99
India,TamilNadu,Chennai,"Arumbakkam, Chennai - TNPCB",20-03-2024 06:00:00,13.0664,80.2112 ,NH3,2,6,4
India,TamilNadu,Chennai,"Kodungaiyur, Chennai - TNPCB",20-03-2024 06:00:00,13.1278,80.2642,PM2.5,11,43,29
India,TamilNadu,Chennai,"Kodungaiyur, Chennai - TNPCB",20-03-2024 06:00:00,13.1278,80.2642,PM10,34,104,74
India,TamilNadu,Chennai,"Kodungaiyur, Chennai - TNPCB",20-03-2024 06:00:00,13.1278,80.2642,NO2,7,23,12
India,TamilNadu,Chennai,"Kodungaiyur, Chennai - TNPCB",20-03-2024 06:00:00,13.1278,80.2642,NH3,3,4,3
India,TamilNadu,Chennai,"Manali, Chennai - CPCB",20-03-2024 06:00:00,13.164544,80.26285,PM10,31,74,54
India,TamilNadu,Chennai,"Perungudi, Chennai - TNPCB",20-03-2024 06:00:00,12.9533,80.2357,PM10,NA,NA,NA
India,TamilNadu,Chennai,"Perungudi, Chennai - TNPCB",20-03-2024 06:00:00,12.9533,80.2357,CO,NA,NA,NA
India,TamilNadu,Chennai,"Royapuram, Chennai - TNPCB",20-03-2024 06:00:00,13.1036,80.2909,PM2.5,25,71,51
India,TamilNadu,Chennai,"Velachery Res. Area, Chennai - CPCB",20-03-2024 06:00:00,13.0052189,80.2398125,CO,2,112,45
India,TamilNadu,Coimbatore,"PSG College of Arts and Science, Coimbatore - TNPCB",20-03-2024 06:00:00,11.0328,77.0349,CO,5,6,5
India,TamilNadu,Cuddalore,"Kudikadu, Cuddalore - TNPCB",20-03-2024 06:00:00,11.6829898,79.7532099,NO2,21,29,26
India,TamilNadu,Gummidipoondi,"Anthoni Pillai Nagar, Gummidipoondi - TNPCB",20-03-2024 06:00:00,13.4127,80.1081,NH3,1,2,2
India,TamilNadu,Ooty,"Bombay Castel, Ooty - TNPCB",20-03-2024 06:00:00,11.4068288,76.7138973,PM10,45,144,74
India,TamilNadu,Ooty,"Bombay Castel, Ooty - TNPCB",20-03-2024 06:00:00,11.4068288,76.7138973,NO2,4,113,30
India,TamilNadu,Salem,"Sona College of Technology, Salem - TNPCB",20-03-2024 06:00:00,11.679111,78.125052,NH3,NA,NA,NA
India,TamilNadu,Tirupur,"Kumaran College, Tirupur - TNPCB",20-03-2024 06:00:00,11.0973603,77.3228673,NO2,NA,NA,NA
India,TamilNadu,Vellore,"Vasanthapuram, Vellore - TNPCB",20-03-2024 06:00:00,12.909494,79.131861,PM10,55,94,77
India,TamilNadu,Vellore,"Vasanthapuram, Vellore - TNPCB",20-03-2024 06:00:00,12.909494,79.131861,NO2,2,11,6
India,Telangana,Hyderabad,"ECIL Kapra, Hyderabad - TSPCB",20-03-2024 06:00:00,17.470431,78.566959,PM10,57,76,65
India,Telangana,Hyderabad,"ECIL Kapra, Hyderabad - TSPCB",20-03-2024 06:00:00,17.470431,78.566959,NO2,9,12,12
India,Telangana,Hyderabad,"ICRISAT Patancheru, Hyderabad - TSPCB",20-03-2024 06:00:00,17.518400,78.278777,OZONE,9,93,39
India,Telangana,Hyderabad,"Kokapet, Hyderabad - TSPCB",20-03-2024 06:00:00,17.393559,78.339194,PM10,71,83,76
India,Telangana,Hyderabad,"Kompally Municipal Office, Hyderabad - TSPCB",20-03-2024 06:00:00,17.544899,78.486949,PM10,38,94,61
India,Telangana,Hyderabad,"Kompally Municipal Office, Hyderabad - TSPCB",20-03-2024 06:00:00,17.544899,78.486949,NH3,5,6,6
India,Telangana,Hyderabad,"Ramachandrapuram, Hyderabad - TSPCB",20-03-2024 06:00:00,17.528544,78.286195,NH3,3,3,3
India,Telangana,Hyderabad,"Somajiguda, Hyderabad - TSPCB",20-03-2024 06:00:00,17.417094,78.457437,OZONE,10,31,17
India,Telangana,Hyderabad,"Zoo Park, Hyderabad - TSPCB",20-03-2024 06:00:00,17.349694,78.451437,NO2,17,42,28
India,Telangana,Hyderabad,"Zoo Park, Hyderabad - TSPCB",20-03-2024 06:00:00,17.349694,78.451437,CO,32,72,68
India,Telangana,Hyderabad,"Zoo Park, Hyderabad - TSPCB",20-03-2024 06:00:00,17.349694,78.451437,OZONE,16,44,21
India,Tripura,Agartala,"Bardowali, Agartala - Tripura SPCB",20-03-2024 06:00:00,23.8175497,91.2726974,SO2,28,29,28
India,Uttar_Pradesh,Agra,"Manoharpur, Agra - UPPCB",20-03-2024 06:00:00,27.23711,78.01936,SO2,9,14,12
India,Uttar_Pradesh,Agra,"Rohta, Agra - UPPCB",20-03-2024 06:00:00,27.106972,78.000111,NH3,1,1,1
India,Uttar_Pradesh,Agra,"Sanjay Palace, Agra - UPPCB",20-03-2024 06:00:00,27.19865833,78.00598056,OZONE,21,75,48
India,Uttar_Pradesh,Agra,"Sector-3B Avas Vikas Colony, Agra - UPPCB",20-03-2024 06:00:00,27.19412,77.96237,NO2,6,35,18
India,Uttar_Pradesh,Agra,"Shahjahan Garden, Agra - UPPCB",20-03-2024 06:00:00,27.169338,78.03582,NO2,20,21,21
India,Uttar_Pradesh,Agra,"Shahjahan Garden, Agra - UPPCB",20-03-2024 06:00:00,27.169338,78.03582,CO,14,34,31
India,Uttar_Pradesh,Agra,"Shahjahan Garden, Agra - UPPCB",20-03-2024 06:00:00,27.169338,78.03582,OZONE,NA,NA,NA
India,Uttar_Pradesh,Agra,"Shastripuram, Agra - UPPCB",20-03-2024 06:00:00,27.19862,77.92066,PM10,63,188,130
India,Uttar_Pradesh,Agra,"Shastripuram, Agra - UPPCB",20-03-2024 06:00:00,27.19862,77.92066,NO2,38,51,40
India,Uttar_Pradesh,Bareilly,"Civil Lines, Bareilly - UPPCB",20-03-2024 06:00:00,28.359581,79.414455,NH3,1,6,2
India,Uttar_Pradesh,Bulandshahr,"Yamunapuram, Bulandshahr - UPPCB",20-03-2024 06:00:00,28.406963,77.849831,NO2,7,152,80
India,Uttar_Pradesh,Bulandshahr,"Yamunapuram, Bulandshahr - UPPCB",20-03-2024 06:00:00,28.406963,77.849831,SO2,24,64,37
India,Uttar_Pradesh,Bulandshahr,"Yamunapuram, Bulandshahr - UPPCB",20-03-2024 06:00:00,28.406963,77.849831,CO,17,92,55
India,Uttar_Pradesh,Firozabad,"Nagla Bhau, Firozabad - UPPCB",20-03-2024 06:00:00,27.168897,78.376960,NO2,17,17,17
India,Uttar_Pradesh,Firozabad,"Nagla Bhau, Firozabad - UPPCB",20-03-2024 06:00:00,27.168897,78.376960,NH3,2,2,2
India,Uttar_Pradesh,Firozabad,"Vibhab Nagar, Firozabad - UPPCB",20-03-2024 06:00:00,27.1594,78.3953,PM2.5,NA,NA,NA
India,Uttar_Pradesh,Firozabad,"Vibhab Nagar, Firozabad - UPPCB",20-03-2024 06:00:00,27.1594,78.3953,PM10,NA,NA,NA
India,Uttar_Pradesh,Firozabad,"Vibhab Nagar, Firozabad - UPPCB",20-03-2024 06:00:00,27.1594,78.3953,CO,8,34,29
India,Uttar_Pradesh,Firozabad,"Vibhab Nagar, Firozabad - UPPCB",20-03-2024 06:00:00,27.1594,78.3953,OZONE,20,57,31
India,Uttar_Pradesh,Ghaziabad,"Indirapuram, Ghaziabad - UPPCB",20-03-2024 06:00:00,28.646233,77.358075,CO,1,104,66
India,Uttar_Pradesh,Ghaziabad,"Indirapuram, Ghaziabad - UPPCB",20-03-2024 06:00:00,28.646233,77.358075,OZONE,1,47,5
India,Uttar_Pradesh,Ghaziabad,"Loni, Ghaziabad - UPPCB",20-03-2024 06:00:00,28.757294,77.278792,PM10,78,342,168
India,Uttar_Pradesh,Ghaziabad,"Sanjay Nagar, Ghaziabad - UPPCB",20-03-2024 06:00:00,28.685382,77.453839,NH3,7,17,12
India,Uttar_Pradesh,Ghaziabad,"Vasundhara, Ghaziabad - UPPCB",20-03-2024 06:00:00,28.6603346,77.3572563,PM10,84,230,142
India,Uttar_Pradesh,Ghaziabad,"Vasundhara, Ghaziabad - UPPCB",20-03-2024 06:00:00,28.6603346,77.3572563,NH3,9,20,13
India,Uttar_Pradesh,Gorakhpur,"Madan Mohan Malaviya University of Technology, Gorakhpur - UPPCB",20-03-2024 06:00:00,26.730136,83.433859,OZONE,8,69,12
India,Uttar_Pradesh,Greater Noida,"Knowledge Park - III, Greater Noida - UPPCB",20-03-2024 06:00:00,28.47272,77.482000,PM10,133,432,259
India,Uttar_Pradesh,Greater Noida,"Knowledge Park - III, Greater Noida - UPPCB",20-03-2024 06:00:00,28.47272,77.482000,CO,3,103,72
India,Uttar_Pradesh,Greater Noida,"Knowledge Park - V, Greater Noida - UPPCB",20-03-2024 06:00:00,28.557054,77.453663,NH3,2,4,3
India,Uttar_Pradesh,Hapur,"Anand Vihar, Hapur - UPPCB",20-03-2024 06:00:00,28.725645,77.749675,PM2.5,49,366,183
India,Uttar_Pradesh,Hapur,"Anand Vihar, Hapur - UPPCB",20-03-2024 06:00:00,28.725645,77.749675,PM10,69,232,130
India,Uttar_Pradesh,Hapur,"Anand Vihar, Hapur - UPPCB",20-03-2024 06:00:00,28.725645,77.749675,SO2,41,134,82
India,Uttar_Pradesh,Hapur,"Anand Vihar, Hapur - UPPCB",20-03-2024 06:00:00,28.725645,77.749675,CO,17,103,61
India,Uttar_Pradesh,Hapur,"Anand Vihar, Hapur - UPPCB",20-03-2024 06:00:00,28.725645,77.749675,OZONE,9,139,26
India,Uttar_Pradesh,Kanpur,"FTI Kidwai Nagar, Kanpur - UPPCB",20-03-2024 06:00:00,26.428282,80.327067,SO2,24,25,24
India,Uttar_Pradesh,Kanpur,"NSI Kalyanpur, Kanpur - UPPCB",20-03-2024 06:00:00,26.509954,80.249612,PM2.5,NA,NA,NA
India,Uttar_Pradesh,Kanpur,"NSI Kalyanpur, Kanpur - UPPCB",20-03-2024 06:00:00,26.509954,80.249612,PM10,NA,NA,NA
India,Uttar_Pradesh,Kanpur,"NSI Kalyanpur, Kanpur - UPPCB",20-03-2024 06:00:00,26.509954,80.249612,OZONE,34,55,45
India,Uttar_Pradesh,Lucknow,"B R Ambedkar University, Lucknow - UPPCB",20-03-2024 06:00:00,26.766433,80.927299,PM2.5,46,318,169
India,Uttar_Pradesh,Lucknow,"Kendriya Vidyalaya, Lucknow - CPCB",20-03-2024 06:00:00,26.906111,80.948222,PM10,87,171,126
India,Uttar_Pradesh,Lucknow,"Kendriya Vidyalaya, Lucknow - CPCB",20-03-2024 06:00:00,26.906111,80.948222,NH3,4,23,15
India,Uttar_Pradesh,Lucknow,"Kendriya Vidyalaya, Lucknow - CPCB",20-03-2024 06:00:00,26.906111,80.948222,SO2,4,7,6
India,Uttar_Pradesh,Lucknow,"Kukrail Picnic Spot-1, Lucknow - UPPCB",20-03-2024 06:00:00,26.90723,80.98579,PM10,70,148,106
India,Uttar_Pradesh,Lucknow,"Kukrail Picnic Spot-1, Lucknow - UPPCB",20-03-2024 06:00:00,26.90723,80.98579,SO2,32,40,35
India,Uttar_Pradesh,Lucknow,"Kukrail Picnic Spot-1, Lucknow - UPPCB",20-03-2024 06:00:00,26.90723,80.98579,OZONE,2,80,5
India,Uttar_Pradesh,Lucknow,"Talkatora District Industries Center, Lucknow - CPCB",20-03-2024 06:00:00,26.83399722,80.8917361,PM2.5,53,251,116
India,Uttar_Pradesh,Lucknow,"Talkatora District Industries Center, Lucknow - CPCB",20-03-2024 06:00:00,26.83399722,80.8917361,SO2,1,24,10
India,Uttar_Pradesh,Meerut,"Ganga Nagar, Meerut - UPPCB",20-03-2024 06:00:00,28.999264,77.7590354,PM10,87,211,137
India,Uttar_Pradesh,Meerut,"Ganga Nagar, Meerut - UPPCB",20-03-2024 06:00:00,28.999264,77.7590354,CO,5,73,55
India,Uttar_Pradesh,Meerut,"Pallavpuram Phase 2, Meerut - UPPCB",20-03-2024 06:00:00,29.063510,77.709723,PM2.5,42,312,138
India,Uttar_Pradesh,Moradabad,"Buddhi Vihar, Moradabad - UPPCB",20-03-2024 06:00:00,28.83526,78.74460,PM2.5,26,308,156
India,Uttar_Pradesh,Moradabad,"Eco Herbal Park, Moradabad - UPPCB",20-03-2024 06:00:00,28.840739,78.697531,PM10,44,133,93
India,Uttar_Pradesh,Moradabad,"Employment Office, Moradabad - UPPCB",20-03-2024 06:00:00,28.88528,78.73880,NO2,19,20,19
India,Uttar_Pradesh,Moradabad,"Employment Office, Moradabad - UPPCB",20-03-2024 06:00:00,28.88528,78.73880,OZONE,12,70,13
India,Uttar_Pradesh,Moradabad,"Jigar Colony, Moradabad - UPPCB",20-03-2024 06:00:00,28.856664,78.772638,NH3,5,5,5
India,Uttar_Pradesh,Moradabad,"Kashiram Nagar, Moradabad - UPPCB",20-03-2024 06:00:00,28.849399,78.742362,SO2,30,42,33
India,Uttar_Pradesh,Moradabad,"Kashiram Nagar, Moradabad - UPPCB",20-03-2024 06:00:00,28.849399,78.742362,CO,30,62,59
India,Uttar_Pradesh,Moradabad,"Kashiram Nagar, Moradabad - UPPCB",20-03-2024 06:00:00,28.849399,78.742362,OZONE,15,69,18
India,Uttar_Pradesh,Moradabad,"Transport Nagar, Moradabad - UPPCB",20-03-2024 06:00:00,28.802625,78.753728,PM2.5,33,239,93
India,Uttar_Pradesh,Moradabad,"Transport Nagar, Moradabad - UPPCB",20-03-2024 06:00:00,28.802625,78.753728,NH3,6,6,6
India,Uttar_Pradesh,Moradabad,"Transport Nagar, Moradabad - UPPCB",20-03-2024 06:00:00,28.802625,78.753728,CO,30,42,41
India,Uttar_Pradesh,Muzaffarnagar,"New Mandi, Muzaffarnagar - UPPCB",20-03-2024 06:00:00,29.4723508,77.7194031,NO2,37,62,47
India,Uttar_Pradesh,Noida,"Sector - 125, Noida - UPPCB",20-03-2024 06:00:00,28.5447608,77.3231257,NO2,33,256,142
India,Uttar_Pradesh,Noida,"Sector-1, Noida - UPPCB",20-03-2024 06:00:00,28.5898,77.3101,PM2.5,42,376,182
India,Uttar_Pradesh,Noida,"Sector-1, Noida - UPPCB",20-03-2024 06:00:00,28.5898,77.3101,PM10,109,331,202
India,Uttar_Pradesh,Noida,"Sector-1, Noida - UPPCB",20-03-2024 06:00:00,28.5898,77.3101,NO2,32,112,77
India,Uttar_Pradesh,Noida,"Sector-1, Noida - UPPCB",20-03-2024 06:00:00,28.5898,77.3101,OZONE,1,263,5
India,Uttar_Pradesh,Noida,"Sector-116, Noida - UPPCB",20-03-2024 06:00:00,28.569230,77.393848,PM2.5,61,367,197
India,Uttar_Pradesh,Noida,"Sector-116, Noida - UPPCB",20-03-2024 06:00:00,28.569230,77.393848,SO2,19,71,36
India,Uttar_Pradesh,Varanasi,"Bhelupur, Varanasi - UPPCB",20-03-2024 06:00:00,25.301778,82.996789,OZONE,1,46,4
India,Uttar_Pradesh,Varanasi,"IESD Banaras Hindu University, Varanasi - UPPCB",20-03-2024 06:00:00,25.262326,82.995408,CO,4,33,6
India,Uttar_Pradesh,Varanasi,"Maldahiya, Varanasi - UPPCB",20-03-2024 06:00:00,25.32393,82.99687,PM2.5,8,46,24
India,Uttar_Pradesh,Varanasi,"Maldahiya, Varanasi - UPPCB",20-03-2024 06:00:00,25.32393,82.99687,NO2,1,2,2
India,Uttar_Pradesh,Vrindavan,"Omex Eternity, Vrindavan - UPPCB",20-03-2024 06:00:00,27.5714090,77.6557570,SO2,39,44,40
India,Uttarakhand,Kashipur,"Govt. Girls Inter College, Kashipur - UKPCB",20-03-2024 06:00:00,29.2124114,78.9611753,OZONE,6,64,19
India,Uttarakhand,Rishikesh,"Shivaji Nagar, Rishikesh - UKPCB",20-03-2024 06:00:00,30.075911,78.2859547,PM2.5,22,79,43
India,Uttarakhand,Rishikesh,"Shivaji Nagar, Rishikesh - UKPCB",20-03-2024 06:00:00,30.075911,78.2859547,NO2,5,28,12
India,West_Bengal,Asansol,"Asansol Court Area, Asansol - WBPCB",20-03-2024 06:00:00,23.685297,86.945968,SO2,7,25,13
India,West_Bengal,Barrackpore,"SVSPA Campus, Barrackpore - WBPCB",20-03-2024 06:00:00,22.7605581,88.3617589,PM2.5,42,175,80
India,West_Bengal,Durgapur,"Sidhu Kanhu Indoor Stadium, Durgapur - WBPCB",20-03-2024 06:00:00,23.5404352,87.2892225,PM2.5,42,121,74
India,West_Bengal,Durgapur,"Sidhu Kanhu Indoor Stadium, Durgapur - WBPCB",20-03-2024 06:00:00,23.5404352,87.2892225,PM10,45,121,88
India,West_Bengal,Durgapur,"Sidhu Kanhu Indoor Stadium, Durgapur - WBPCB",20-03-2024 06:00:00,23.5404352,87.2892225,CO,18,64,25
India,West_Bengal,Haldia,"Priyambada Housing Estate, Haldia - WBPCB",20-03-2024 06:00:00,22.06047,88.109737,NO2,11,53,29
India,West_Bengal,Howrah,"Ghusuri, Howrah - WBPCB",20-03-2024 06:00:00,22.611968,88.347422,PM2.5,48,177,101
India,West_Bengal,Howrah,"Ghusuri, Howrah - WBPCB",20-03-2024 06:00:00,22.611968,88.347422,SO2,5,6,6
India,West_Bengal,Howrah,"Padmapukur, Howrah - WBPCB",20-03-2024 06:00:00,22.5687319,88.2797276,PM2.5,NA,NA,NA
India,West_Bengal,Howrah,"Padmapukur, Howrah - WBPCB",20-03-2024 06:00:00,22.5687319,88.2797276,CO,18,91,35
India,West_Bengal,Kolkata,"Ballygunge, Kolkata - WBPCB",20-03-2024 06:00:00,22.5367507,88.3638022,NO2,15,75,41
India,West_Bengal,Kolkata,"Ballygunge, Kolkata - WBPCB",20-03-2024 06:00:00,22.5367507,88.3638022,CO,6,20,8
India,West_Bengal,Kolkata,"Bidhannagar, Kolkata - WBPCB",20-03-2024 06:00:00,22.58157048,88.41002457,SO2,12,24,19
India,West_Bengal,Kolkata,"Bidhannagar, Kolkata - WBPCB",20-03-2024 06:00:00,22.58157048,88.41002457,CO,4,20,12
India,West_Bengal,Kolkata,"Jadavpur, Kolkata - WBPCB",20-03-2024 06:00:00,22.49929,88.36917,NH3,7,7,7
India,West_Bengal,Kolkata,"Jadavpur, Kolkata - WBPCB",20-03-2024 06:00:00,22.49929,88.36917,SO2,4,33,15
India,West_Bengal,Kolkata,"Rabindra Sarobar, Kolkata - WBPCB",20-03-2024 06:00:00,22.51106,88.35142,NO2,10,92,53
India,West_Bengal,Kolkata,"Victoria, Kolkata - WBPCB",20-03-2024 06:00:00,22.5448082,88.3403691,PM10,43,100,82
India,West_Bengal,Siliguri,"Ward-32 Bapupara, Siliguri - WBPCB",20-03-2024 06:00:00,26.6879226,88.4152495,PM2.5,69,308,186
India,Andhra_Pradesh,Amaravati,"Secretariat, Amaravati - APPCB",20-03-2024 06:00:00,16.5150833,80.5181667,NO2,4,15,8
India,Andhra_Pradesh,Amaravati,"Secretariat, Amaravati - APPCB",20-03-2024 06:00:00,16.5150833,80.5181667,CO,22,127,43
India,Andhra_Pradesh,Amaravati,"Secretariat, Amaravati - APPCB",20-03-2024 06:00:00,16.5150833,80.5181667,OZONE,1,56,21
India,Andhra_Pradesh,Anantapur,"Gulzarpet, Anantapur - APPCB",20-03-2024 06:00:00,14.675886,77.593027,PM2.5,NA,NA,NA
India,Andhra_Pradesh,Anantapur,"Gulzarpet, Anantapur - APPCB",20-03-2024 06:00:00,14.675886,77.593027,NO2,NA,NA,NA
India,Andhra_Pradesh,Anantapur,"Gulzarpet, Anantapur - APPCB",20-03-2024 06:00:00,14.675886,77.593027,OZONE,NA,NA,NA
India,Andhra_Pradesh,Chittoor,"Gangineni Cheruvu, Chittoor - APPCB",20-03-2024 06:00:00,13.204880,79.097889,SO2,NA,NA,NA
India,Andhra_Pradesh,Kadapa,"Yerramukkapalli, Kadapa - APPCB",20-03-2024 06:00:00,14.465052,78.824187,PM10,26,114,56
India,Andhra_Pradesh,Kadapa,"Yerramukkapalli, Kadapa - APPCB",20-03-2024 06:00:00,14.465052,78.824187,NO2,8,8,8
India,Andhra_Pradesh,Rajamahendravaram,"Anand Kala Kshetram, Rajamahendravaram - APPCB",20-03-2024 06:00:00,16.9872867,81.7363176,PM2.5,32,75,56
India,Andhra_Pradesh,Rajamahendravaram,"Anand Kala Kshetram, Rajamahendravaram - APPCB",20-03-2024 06:00:00,16.9872867,81.7363176,PM10,55,95,74
India,Andhra_Pradesh,Rajamahendravaram,"Anand Kala Kshetram, Rajamahendravaram - APPCB",20-03-2024 06:00:00,16.9872867,81.7363176,NH3,3,5,4
India,Andhra_Pradesh,Tirupati,"Tirumala, Tirupati - APPCB",20-03-2024 06:00:00,13.67,79.35,PM10,49,113,74
India,Andhra_Pradesh,Tirupati,"Tirumala, Tirupati - APPCB",20-03-2024 06:00:00,13.67,79.35,CO,18,34,23
India,Andhra_Pradesh,Tirupati,"Vaikuntapuram, Tirupati - APPCB",20-03-2024 06:00:00,13.615387,79.409230,PM10,44,101,77
India,Andhra_Pradesh,Tirupati,"Vaikuntapuram, Tirupati - APPCB",20-03-2024 06:00:00,13.615387,79.409230,NO2,15,22,18
India,Andhra_Pradesh,Tirupati,"Vaikuntapuram, Tirupati - APPCB",20-03-2024 06:00:00,13.615387,79.409230,OZONE,8,48,18
India,Andhra_Pradesh,Vijayawada,"HB Colony, Vijayawada - APPCB",20-03-2024 06:00:00,16.536107,80.594233,CO,26,38,26
India,Andhra_Pradesh,Vijayawada,"Kanuru, Vijayawada - APPCB",20-03-2024 06:00:00,16.486692,80.699436,NH3,1,1,1
India,Andhra_Pradesh,Vijayawada,"Kanuru, Vijayawada - APPCB",20-03-2024 06:00:00,16.486692,80.699436,OZONE,28,33,28
India,Andhra_Pradesh,Vijayawada,"Rajiv Gandhi Park, Vijayawada - APPCB",20-03-2024 06:00:00,16.509717,80.612222,PM2.5,34,80,61
India,Andhra_Pradesh,Vijayawada,"Rajiv Gandhi Park, Vijayawada - APPCB",20-03-2024 06:00:00,16.509717,80.612222,NH3,5,7,6
India,Andhra_Pradesh,Vijayawada,"Rajiv Gandhi Park, Vijayawada - APPCB",20-03-2024 06:00:00,16.509717,80.612222,SO2,7,10,8
India,Andhra_Pradesh,Visakhapatnam,"GVM Corporation, Visakhapatnam - APPCB",20-03-2024 06:00:00,17.72,83.3,SO2,10,19,15
India,Andhra_Pradesh,Visakhapatnam,"GVM Corporation, Visakhapatnam - APPCB",20-03-2024 06:00:00,17.72,83.3,OZONE,5,63,29
India,Arunachal_Pradesh,Naharlagun,"Naharlagun, Naharlagun - APSPCB",20-03-2024 06:00:00,27.103358,93.679645,PM2.5,61,365,151
India,Arunachal_Pradesh,Naharlagun,"Naharlagun, Naharlagun - APSPCB",20-03-2024 06:00:00,27.103358,93.679645,SO2,4,4,4
India,Assam,Byrnihat,"Central Academy for SFS, Byrnihat - PCBA",20-03-2024 06:00:00,26.071318,91.87488,PM2.5,150,472,352
India,Assam,Guwahati,"IITG, Guwahati - PCBA",20-03-2024 06:00:00,26.2028636,91.70046436,PM2.5,228,377,315
India,Assam,Guwahati,"IITG, Guwahati - PCBA",20-03-2024 06:00:00,26.2028636,91.70046436,PM10,157,379,228
India,Assam,Guwahati,"IITG, Guwahati - PCBA",20-03-2024 06:00:00,26.2028636,91.70046436,NH3,5,5,5
India,Assam,Guwahati,"IITG, Guwahati - PCBA",20-03-2024 06:00:00,26.2028636,91.70046436,SO2,12,14,13
India,Assam,Guwahati,"LGBI Airport, Guwahati - PCBA",20-03-2024 06:00:00,26.10887,91.589544,PM2.5,309,402,362
India,Assam,Guwahati,"LGBI Airport, Guwahati - PCBA",20-03-2024 06:00:00,26.10887,91.589544,CO,7,100,67
India,Assam,Guwahati,"Pan Bazaar, Guwahati - PCBA",20-03-2024 06:00:00,26.187500,91.744194,NO2,2,10,6
India,Assam,Nagaon,"Christianpatty, Nagaon - PCBA",20-03-2024 06:00:00,26.349082,92.68449,PM10,26,109,73
India,Assam,Nalbari,"Bata Chowk, Nalbari - PCBA",20-03-2024 06:00:00,26.446912,91.439057,PM2.5,150,359,253
India,Assam,Nalbari,"Bata Chowk, Nalbari - PCBA",20-03-2024 06:00:00,26.446912,91.439057,NO2,13,46,23
India,Assam,Nalbari,"Bata Chowk, Nalbari - PCBA",20-03-2024 06:00:00,26.446912,91.439057,OZONE,21,132,42
India,Assam,Silchar,"Tarapur, Silchar - PCBA",20-03-2024 06:00:00,24.82827,92.79525,PM2.5,29,52,41
India,Assam,Silchar,"Tarapur, Silchar - PCBA",20-03-2024 06:00:00,24.82827,92.79525,PM10,23,100,58
India,Assam,Silchar,"Tarapur, Silchar - PCBA",20-03-2024 06:00:00,24.82827,92.79525,SO2,5,25,13
India,Assam,Silchar,"Tarapur, Silchar - PCBA",20-03-2024 06:00:00,24.82827,92.79525,CO,27,68,43
India,Assam,Sivasagar,"Girls College, Sivasagar - PCBA",20-03-2024 06:00:00,26.987634,94.636574,PM2.5,37,65,51
India,Assam,Sivasagar,"Girls College, Sivasagar - PCBA",20-03-2024 06:00:00,26.987634,94.636574,NO2,12,33,20
India,Assam,Sivasagar,"Girls College, Sivasagar - PCBA",20-03-2024 06:00:00,26.987634,94.636574,NH3,2,2,2
India,Assam,Sivasagar,"Girls College, Sivasagar - PCBA",20-03-2024 06:00:00,26.987634,94.636574,SO2,5,10,5
India,Bihar,Arrah,"New DM Office, Arrah - BSPCB",20-03-2024 06:00:00,25.5626095,84.663264,NO2,8,35,20
India,Bihar,Arrah,"New DM Office, Arrah - BSPCB",20-03-2024 06:00:00,25.5626095,84.663264,NH3,4,7,5
India,Bihar,Bettiah,"Kamalnath Nagar, Bettiah - BSPCB",20-03-2024 06:00:00,26.80365,84.51954,PM10,NA,NA,NA
India,Bihar,Bettiah,"Kamalnath Nagar, Bettiah - BSPCB",20-03-2024 06:00:00,26.80365,84.51954,NO2,8,8,8
India,Bihar,Bettiah,"Kamalnath Nagar, Bettiah - BSPCB",20-03-2024 06:00:00,26.80365,84.51954,SO2,1,21,14
India,Bihar,Bettiah,"Kamalnath Nagar, Bettiah - BSPCB",20-03-2024 06:00:00,26.80365,84.51954,OZONE,2,22,3
India,Bihar,Bhagalpur,"DM Office_Kachari Chowk, Bhagalpur - BSPCB",20-03-2024 06:00:00,25.251013,86.989001,PM2.5,NA,NA,NA
India,Bihar,Bhagalpur,"DM Office_Kachari Chowk, Bhagalpur - BSPCB",20-03-2024 06:00:00,25.251013,86.989001,NO2,15,84,49
India,Bihar,Bhagalpur,"Mayaganj, Bhagalpur - BSPCB",20-03-2024 06:00:00,25.265194,87.012947,SO2,11,12,12
India,Bihar,Bihar Sharif,"D M Colony, Bihar Sharif - BSPCB",20-03-2024 06:00:00,25.204762,85.514960,PM10,47,100,70
India,Bihar,Buxar,"Charitra Van, Buxar - BSPCB (Formerly known as Central Jail)",20-03-2024 06:00:00,25.567520,83.966379,SO2,16,20,18
India,Bihar,Buxar,"Charitra Van, Buxar - BSPCB (Formerly known as Central Jail)",20-03-2024 06:00:00,25.567520,83.966379,OZONE,14,154,56
India,Bihar,Gaya,"Collectorate, Gaya - BSPCB",20-03-2024 06:00:00,24.7955,84.9994,NO2,1,3,2
India,Bihar,Gaya,"Collectorate, Gaya - BSPCB",20-03-2024 06:00:00,24.7955,84.9994,OZONE,40,85,59
India,Bihar,Gaya,"Kareemganj, Gaya - BSPCB",20-03-2024 06:00:00,24.792403,84.992416,OZONE,2,34,16
India,Bihar,Hajipur,"Industrial Area, Hajipur - BSPCB",20-03-2024 06:00:00,25.697189,85.245900,SO2,6,8,7
India,Bihar,Hajipur,"Industrial Area, Hajipur - BSPCB",20-03-2024 06:00:00,25.697189,85.245900,CO,39,84,47
India,Bihar,Hajipur,"Industrial Area, Hajipur - BSPCB",20-03-2024 06:00:00,25.697189,85.245900,OZONE,5,49,8
India,Bihar,Katihar,"Mirchaibari, Katihar - BSPCB",20-03-2024 06:00:00,25.560083,87.553265,PM10,28,187,126
India,Bihar,Katihar,"Mirchaibari, Katihar - BSPCB",20-03-2024 06:00:00,25.560083,87.553265,SO2,19,25,22
India,Bihar,Manguraha,"Forest Rest House, Manguraha - BSPCB",20-03-2024 06:00:00,27.308328,84.531742,CO,66,86,73
India,Bihar,Motihari,"Gandak Colony, Motihari - BSPCB",20-03-2024 06:00:00,26.63086,84.90051,NO2,62,101,85
India,Bihar,Motihari,"Gandak Colony, Motihari - BSPCB",20-03-2024 06:00:00,26.63086,84.90051,NH3,10,16,14
India,Bihar,Motihari,"Gandak Colony, Motihari - BSPCB",20-03-2024 06:00:00,26.63086,84.90051,SO2,NA,NA,NA
India,Bihar,Motihari,"Gandak Colony, Motihari - BSPCB",20-03-2024 06:00:00,26.63086,84.90051,CO,117,142,134
India,Bihar,Munger,"Town Hall, Munger - BSPCB",20-03-2024 06:00:00,25.376776,86.471523,PM2.5,17,400,185
India,Bihar,Munger,"Town Hall, Munger - BSPCB",20-03-2024 06:00:00,25.376776,86.471523,CO,2,8,4
India,Bihar,Muzaffarpur,"Buddha Colony, Muzaffarpur - BSPCB",20-03-2024 06:00:00,26.11442,85.39813,PM10,169,301,227
India,Bihar,Muzaffarpur,"Buddha Colony, Muzaffarpur - BSPCB",20-03-2024 06:00:00,26.11442,85.39813,CO,40,77,66
India,Bihar,Muzaffarpur,"MIT-Daudpur Kothi, Muzaffarpur - BSPCB",20-03-2024 06:00:00,26.1403345,85.3650192,NO2,5,10,7
India,Bihar,Muzaffarpur,"Muzaffarpur Collectorate, Muzaffarpur - BSPCB",20-03-2024 06:00:00,26.1209,85.3647,NO2,8,18,11
India,Bihar,Muzaffarpur,"Muzaffarpur Collectorate, Muzaffarpur - BSPCB",20-03-2024 06:00:00,26.1209,85.3647,OZONE,8,83,9
India,Bihar,Patna,"DRM Office Danapur, Patna - BSPCB",20-03-2024 06:00:00,25.586562,85.043586,PM2.5,36,288,134
India,Bihar,Patna,"DRM Office Danapur, Patna - BSPCB",20-03-2024 06:00:00,25.586562,85.043586,PM10,74,227,129
India,Bihar,Patna,"Rajbansi Nagar, Patna - BSPCB",20-03-2024 06:00:00,25.599486,85.113666,PM10,38,261,129
India,Bihar,Patna,"Rajbansi Nagar, Patna - BSPCB",20-03-2024 06:00:00,25.599486,85.113666,NO2,13,36,22
India,Bihar,Patna,"Samanpura, Patna - BSPCB",20-03-2024 06:00:00,25.596727,85.085624,PM2.5,46,335,161
India,Bihar,Patna,"Samanpura, Patna - BSPCB",20-03-2024 06:00:00,25.596727,85.085624,OZONE,19,92,58
India,Bihar,Purnia,"Mariam Nagar, Purnia - BSPCB",20-03-2024 06:00:00,25.366336,87.117468,PM10,129,188,161
India,Bihar,Purnia,"Mariam Nagar, Purnia - BSPCB",20-03-2024 06:00:00,25.366336,87.117468,NH3,2,5,2
India,Bihar,Purnia,"Mariam Nagar, Purnia - BSPCB",20-03-2024 06:00:00,25.366336,87.117468,SO2,4,6,6
India,Bihar,Purnia,"Mariam Nagar, Purnia - BSPCB",20-03-2024 06:00:00,25.366336,87.117468,CO,39,72,63
India,Bihar,Rajgir,"Dangi Tola, Rajgir - BSPCB",20-03-2024 06:00:00,25.03280,85.41948,OZONE,22,27,22
India,Bihar,Saharsa,"Police Line, Saharsa - BSPCB",20-03-2024 06:00:00,25.892357,86.590325,PM2.5,15,386,206
India,Bihar,Saharsa,"Police Line, Saharsa - BSPCB",20-03-2024 06:00:00,25.892357,86.590325,NO2,6,9,7
India,Bihar,Saharsa,"Police Line, Saharsa - BSPCB",20-03-2024 06:00:00,25.892357,86.590325,OZONE,8,66,30
India,Bihar,Sasaram,"Dada Peer, Sasaram - BSPCB",20-03-2024 06:00:00,24.952822,84.002396,NO2,10,22,16
India,Bihar,Sasaram,"Dada Peer, Sasaram - BSPCB",20-03-2024 06:00:00,24.952822,84.002396,SO2,20,24,21
India,Bihar,Sasaram,"Dada Peer, Sasaram - BSPCB",20-03-2024 06:00:00,24.952822,84.002396,CO,94,118,109
India,Bihar,Siwan,"Chitragupta Nagar, Siwan - BSPCB",20-03-2024 06:00:00,26.2271665,84.3570427,SO2,3,35,29
India,Chandigarh,Chandigarh,"Sector-25, Chandigarh - CPCC",20-03-2024 06:00:00,30.751462,76.762879,CO,15,62,39
India,Chandigarh,Chandigarh,"Sector-53, Chandigarh - CPCC",20-03-2024 06:00:00,30.719859,76.738637,PM2.5,43,277,119
India,Chandigarh,Chandigarh,"Sector-53, Chandigarh - CPCC",20-03-2024 06:00:00,30.719859,76.738637,SO2,9,31,13
India,Chhattisgarh,Bhilai,"32Bungalows, Bhilai - CECB",20-03-2024 06:00:00,21.194815,81.314770,PM2.5,19,40,29
India,Chhattisgarh,Bhilai,"Civic Center, Bhilai - Bhilai Steel Plant",20-03-2024 06:00:00,21.185571,81.343175,PM2.5,8,38,21
India,Chhattisgarh,Bhilai,"Civic Center, Bhilai - Bhilai Steel Plant",20-03-2024 06:00:00,21.185571,81.343175,PM10,18,66,36
India,Chhattisgarh,Bhilai,"Hathkhoj, Bhilai - CECB",20-03-2024 06:00:00,21.224231,81.408350,NO2,18,53,26
India,Chhattisgarh,Bhilai,"Hathkhoj, Bhilai - CECB",20-03-2024 06:00:00,21.224231,81.408350,OZONE,31,42,36
India,Chhattisgarh,Bilaspur,"Mangala, Bilaspur - NTPC",20-03-2024 06:00:00,22.08815,82.13737,PM10,10,37,20
India,Chhattisgarh,Bilaspur,"Mangala, Bilaspur - NTPC",20-03-2024 06:00:00,22.08815,82.13737,NO2,20,20,20
India,Chhattisgarh,Bilaspur,"Mangala, Bilaspur - NTPC",20-03-2024 06:00:00,22.08815,82.13737,SO2,7,23,19
India,Chhattisgarh,Chhal,"Nawapara SECL Colony, Chhal - CECB",20-03-2024 06:00:00,22.118125,83.140608,PM2.5,NA,NA,NA
India,Chhattisgarh,Korba,"Urja Nagar, Korba - CECB",20-03-2024 06:00:00,22.348441,82.549611,NH3,6,9,7
India,Chhattisgarh,Korba,"Urja Nagar, Korba - CECB",20-03-2024 06:00:00,22.348441,82.549611,CO,25,51,36
India,Chhattisgarh,Kunjemura,"OP Jindal School, Kunjemura - CECB",20-03-2024 06:00:00,22.126650,83.483212,OZONE,12,48,30
India,Chhattisgarh,Milupara,"Govt. Higher Secondary School, Milupara - CECB",20-03-2024 06:00:00,22.1910172,83.5197009,NH3,NA,NA,NA
India,Chhattisgarh,Raipur,"AIIMS, Raipur - CECB",20-03-2024 06:00:00,21.258815,81.578979,PM10,NA,NA,NA
India,Chhattisgarh,Raipur,"AIIMS, Raipur - CECB",20-03-2024 06:00:00,21.258815,81.578979,CO,22,41,27
India,Chhattisgarh,Raipur,"AIIMS, Raipur - CECB",20-03-2024 06:00:00,21.258815,81.578979,OZONE,1,4,1
India,Chhattisgarh,Raipur,"Bhatagaon New ISBT, Raipur - CECB",20-03-2024 06:00:00,21.219665,81.630094,SO2,1,4,2
India,Chhattisgarh,Raipur,"Krishak Nagar, Raipur - CECB",20-03-2024 06:00:00,21.237755,81.705301,NO2,NA,NA,NA
India,Chhattisgarh,Raipur,"Krishak Nagar, Raipur - CECB",20-03-2024 06:00:00,21.237755,81.705301,NH3,NA,NA,NA
India,Chhattisgarh,Raipur,"Siltara Phase-II, Raipur - CECB",20-03-2024 06:00:00,21.371751,81.664929,PM2.5,20,43,29
India,Chhattisgarh,Raipur,"Siltara Phase-II, Raipur - CECB",20-03-2024 06:00:00,21.371751,81.664929,OZONE,3,4,3
India,Chhattisgarh,Tumidih,"OP Jindal Industrial Park, Tumidih - CECB",20-03-2024 06:00:00,22.06631475,83.33820077,PM2.5,NA,NA,NA
India,Chhattisgarh,Tumidih,"OP Jindal Industrial Park, Tumidih - CECB",20-03-2024 06:00:00,22.06631475,83.33820077,NO2,NA,NA,NA
India,Chhattisgarh,Tumidih,"OP Jindal Industrial Park, Tumidih - CECB",20-03-2024 06:00:00,22.06631475,83.33820077,NH3,NA,NA,NA
India,Chhattisgarh,Tumidih,"OP Jindal Industrial Park, Tumidih - CECB",20-03-2024 06:00:00,22.06631475,83.33820077,CO,NA,NA,NA
India,Delhi,Delhi,"Alipur, Delhi - DPCC",20-03-2024 06:00:00,28.815329,77.153010,NO2,10,110,55
India,Delhi,Delhi,"Alipur, Delhi - DPCC",20-03-2024 06:00:00,28.815329,77.153010,SO2,10,101,26
India,Delhi,Delhi,"Alipur, Delhi - DPCC",20-03-2024 06:00:00,28.815329,77.153010,CO,40,104,49
India,Delhi,Delhi,"Alipur, Delhi - DPCC",20-03-2024 06:00:00,28.815329,77.153010,OZONE,3,151,4
India,Delhi,Delhi,"Ashok Vihar, Delhi - DPCC",20-03-2024 06:00:00,28.695381,77.181665,PM2.5,42,393,199
India,Delhi,Delhi,"Ashok Vihar, Delhi - DPCC",20-03-2024 06:00:00,28.695381,77.181665,NH3,11,15,12
India,Delhi,Delhi,"Ashok Vihar, Delhi - DPCC",20-03-2024 06:00:00,28.695381,77.181665,SO2,26,58,37
India,Delhi,Delhi,"Aya Nagar, Delhi - IMD",20-03-2024 06:00:00,28.4706914,77.1099364,PM10,104,378,184
India,Delhi,Delhi,"Aya Nagar, Delhi - IMD",20-03-2024 06:00:00,28.4706914,77.1099364,OZONE,4,40,6
India,Delhi,Delhi,"Bawana, Delhi - DPCC",20-03-2024 06:00:00,28.776200,77.051074,PM10,106,426,250
India,Delhi,Delhi,"Bawana, Delhi - DPCC",20-03-2024 06:00:00,28.776200,77.051074,NO2,11,84,45
India,Delhi,Delhi,"Burari Crossing, Delhi - IMD",20-03-2024 06:00:00,28.7256504,77.2011573,NO2,4,5,4
India,Delhi,Delhi,"CRRI Mathura Road, Delhi - IMD",20-03-2024 06:00:00,28.5512005,77.2735737,CO,54,129,122
India,Delhi,Delhi,"CRRI Mathura Road, Delhi - IMD",20-03-2024 06:00:00,28.5512005,77.2735737,OZONE,4,94,5
India,Delhi,Delhi,"Chandni Chowk, Delhi - IITM",20-03-2024 06:00:00,28.656756,77.227234,CO,42,114,86
India,Delhi,Delhi,"DTU, Delhi - CPCB",20-03-2024 06:00:00,28.7500499,77.1112615,PM2.5,78,405,267
India,Delhi,Delhi,"DTU, Delhi - CPCB",20-03-2024 06:00:00,28.7500499,77.1112615,PM10,105,425,240
India,Delhi,Delhi,"DTU, Delhi - CPCB",20-03-2024 06:00:00,28.7500499,77.1112615,SO2,27,30,28
India,Delhi,Delhi,"Dwarka-Sector 8, Delhi - DPCC ",20-03-2024 06:00:00,28.5710274,77.0719006,SO2,10,38,17
India,Delhi,Delhi,"IGI Airport (T3), Delhi - IMD",20-03-2024 06:00:00,28.5627763,77.1180053,PM2.5,27,377,190
India,Delhi,Delhi,"IGI Airport (T3), Delhi - IMD",20-03-2024 06:00:00,28.5627763,77.1180053,NO2,28,71,50
India,Delhi,Delhi,"IHBAS, Dilshad Garden, Delhi - CPCB",20-03-2024 06:00:00,28.6811736,77.3025234,NO2,14,48,38
India,Delhi,Delhi,"IHBAS, Dilshad Garden, Delhi - CPCB",20-03-2024 06:00:00,28.6811736,77.3025234,CO,45,94,79
India,Delhi,Delhi,"ITO, Delhi - CPCB",20-03-2024 06:00:00,28.628624,77.241060,PM10,86,303,165
India,Delhi,Delhi,"Jawaharlal Nehru Stadium, Delhi - DPCC",20-03-2024 06:00:00,28.580280,77.233829,PM2.5,39,328,152
India,Delhi,Delhi,"Jawaharlal Nehru Stadium, Delhi - DPCC",20-03-2024 06:00:00,28.580280,77.233829,PM10,89,278,164
India,Delhi,Delhi,"Jawaharlal Nehru Stadium, Delhi - DPCC",20-03-2024 06:00:00,28.580280,77.233829,NH3,5,12,8
India,Delhi,Delhi,"Jawaharlal Nehru Stadium, Delhi - DPCC",20-03-2024 06:00:00,28.580280,77.233829,CO,18,116,99
India,Delhi,Delhi,"Lodhi Road, Delhi - IITM",20-03-2024 06:00:00,28.588333,77.221667,CO,59,70,68
India,Delhi,Delhi,"Major Dhyan Chand National Stadium, Delhi - DPCC",20-03-2024 06:00:00,28.611281,77.237738,PM10,90,288,163
India,Delhi,Delhi,"Major Dhyan Chand National Stadium, Delhi - DPCC",20-03-2024 06:00:00,28.611281,77.237738,NH3,6,11,8
India,Delhi,Delhi,"Major Dhyan Chand National Stadium, Delhi - DPCC",20-03-2024 06:00:00,28.611281,77.237738,CO,38,109,101
India,Delhi,Delhi,"Major Dhyan Chand National Stadium, Delhi - DPCC",20-03-2024 06:00:00,28.611281,77.237738,OZONE,2,214,2
India,Delhi,Delhi,"Mandir Marg, Delhi - DPCC",20-03-2024 06:00:00,28.636429,77.201067,PM10,69,231,136
India,Delhi,Delhi,"Mandir Marg, Delhi - DPCC",20-03-2024 06:00:00,28.636429,77.201067,CO,45,106,99
India,Delhi,Delhi,"NSIT Dwarka, Delhi - CPCB",20-03-2024 06:00:00,28.60909,77.0325413,NH3,6,21,11
India,Delhi,Delhi,"Najafgarh, Delhi - DPCC",20-03-2024 06:00:00,28.570173,76.933762,PM10,70,358,156
India,Delhi,Delhi,"Nehru Nagar, Delhi - DPCC",20-03-2024 06:00:00,28.567890,77.250515,SO2,11,28,16
India,Delhi,Delhi,"New Moti Bagh, Delhi - MHUA",20-03-2024 06:00:00,28.57834,77.18400,PM2.5,54,378,196
India,Delhi,Delhi,"New Moti Bagh, Delhi - MHUA",20-03-2024 06:00:00,28.57834,77.18400,NO2,1,6,3
India,Delhi,Delhi,"North Campus, DU, Delhi - IMD",20-03-2024 06:00:00,28.6573814,77.1585447,PM2.5,75,388,213
India,Delhi,Delhi,"Okhla Phase-2, Delhi - DPCC",20-03-2024 06:00:00,28.530785,77.271255,PM10,110,404,211
India,Delhi,Delhi,"Okhla Phase-2, Delhi - DPCC",20-03-2024 06:00:00,28.530785,77.271255,SO2,10,18,14
India,Delhi,Delhi,"Okhla Phase-2, Delhi - DPCC",20-03-2024 06:00:00,28.530785,77.271255,OZONE,10,179,11
India,Delhi,Delhi,"Patparganj, Delhi - DPCC",20-03-2024 06:00:00,28.623763,77.287209,PM10,115,405,241
India,Delhi,Delhi,"Pusa, Delhi - DPCC",20-03-2024 06:00:00,28.639652,77.146275,PM2.5,57,329,181
India,Delhi,Delhi,"Pusa, Delhi - DPCC",20-03-2024 06:00:00,28.639652,77.146275,OZONE,9,104,10
India,Delhi,Delhi,"R K Puram, Delhi - DPCC",20-03-2024 06:00:00,28.563262,77.186937,NO2,15,73,43
India,Delhi,Delhi,"R K Puram, Delhi - DPCC",20-03-2024 06:00:00,28.563262,77.186937,NH3,2,3,3
India,Delhi,Delhi,"R K Puram, Delhi - DPCC",20-03-2024 06:00:00,28.563262,77.186937,CO,22,118,99
India,Delhi,Delhi,"Rohini, Delhi - DPCC",20-03-2024 06:00:00,28.732528,77.119920,NH3,7,14,9
India,Delhi,Delhi,"Rohini, Delhi - DPCC",20-03-2024 06:00:00,28.732528,77.119920,SO2,9,101,27
India,Delhi,Delhi,"Rohini, Delhi - DPCC",20-03-2024 06:00:00,28.732528,77.119920,CO,16,105,71
India,Delhi,Delhi,"Shadipur, Delhi - CPCB",20-03-2024 06:00:00,28.6514781,77.1473105,PM10,97,404,262
India,Delhi,Delhi,"Shadipur, Delhi - CPCB",20-03-2024 06:00:00,28.6514781,77.1473105,NO2,40,56,47
India,Delhi,Delhi,"Sirifort, Delhi - CPCB",20-03-2024 06:00:00,28.5504249,77.2159377,NH3,4,9,6
India,Delhi,Delhi,"Sonia Vihar, Delhi - DPCC",20-03-2024 06:00:00,28.710508,77.249485,NH3,5,6,5
India,Delhi,Delhi,"Sonia Vihar, Delhi - DPCC",20-03-2024 06:00:00,28.710508,77.249485,OZONE,23,197,28
India,Delhi,Delhi,"Sri Aurobindo Marg, Delhi - DPCC",20-03-2024 06:00:00,28.531346,77.190156,PM2.5,57,345,168
India,Delhi,Delhi,"Vivek Vihar, Delhi - DPCC",20-03-2024 06:00:00,28.672342,77.315260,PM2.5,NA,NA,NA
India,Delhi,Delhi,"Vivek Vihar, Delhi - DPCC",20-03-2024 06:00:00,28.672342,77.315260,PM10,NA,NA,NA
India,Delhi,Delhi,"Vivek Vihar, Delhi - DPCC",20-03-2024 06:00:00,28.672342,77.315260,NO2,NA,NA,NA
India,Delhi,Delhi,"Vivek Vihar, Delhi - DPCC",20-03-2024 06:00:00,28.672342,77.315260,SO2,NA,NA,NA
India,Delhi,Delhi,"Vivek Vihar, Delhi - DPCC",20-03-2024 06:00:00,28.672342,77.315260,CO,NA,NA,NA
India,Delhi,Delhi,"Wazirpur, Delhi - DPCC",20-03-2024 06:00:00,28.699793,77.165453,OZONE,3,63,3
India,Gujarat,Ahmedabad,"Chandkheda, Ahmedabad - IITM",20-03-2024 06:00:00,23.107969,72.574648,PM2.5,60,328,153
India,Gujarat,Ahmedabad,"Chandkheda, Ahmedabad - IITM",20-03-2024 06:00:00,23.107969,72.574648,PM10,60,202,120
India,Gujarat,Ahmedabad,"Gyaspur, Ahmedabad - IITM",20-03-2024 06:00:00,22.977134,72.553024,CO,1,101,71
India,Gujarat,Ahmedabad,"Maninagar, Ahmedabad - GPCB",20-03-2024 06:00:00,23.002657,72.591912,CO,8,106,50
India,Gujarat,Ahmedabad,"Raikhad, Ahmedabad - IITM",20-03-2024 06:00:00,23.020509,72.579261,SO2,4,22,8
India,Gujarat,Ahmedabad,"Rakhial, Ahmedabad - IITM",20-03-2024 06:00:00,23.016834,72.625775,NO2,16,87,48
India,Gujarat,Ahmedabad,"SAC ISRO Satellite, Ahmedabad - IITM",20-03-2024 06:00:00,23.023389,72.515201,PM2.5,129,159,145
India,Gujarat,Ahmedabad,"SAC ISRO Satellite, Ahmedabad - IITM",20-03-2024 06:00:00,23.023389,72.515201,CO,23,43,24
India,Gujarat,Ahmedabad,"SVPI Airport Hansol, Ahmedabad - IITM",20-03-2024 06:00:00,23.076793,72.627874,OZONE,1,38,4
India,Gujarat,Ahmedabad,"Sardar Vallabhbhai Patel Stadium, Ahmedabad - IITM",20-03-2024 06:00:00,23.043070,72.562968,NO2,4,17,14
India,Gujarat,Gandhinagar,"GIFT City, Gandhinagar - IITM",20-03-2024 06:00:00,23.163798,72.677768,NH3,NA,NA,NA
