country,state,city,station,last_update,latitude,longitude,pollutant_id,pollutant_min,pollutant_max,pollutant_avg
India,Andhra_Pradesh,Amaravati,"Secretariat, Amaravati - APPCB",19-01-2024 18:00:00,16.5150833,80.5181667,PM2.5,20,65,39
India,Andhra_Pradesh,Kadapa,"Yerramukkapalli, Kadapa - APPCB",19-01-2024 18:00:00,14.465052,78.824187,NO2,9,11,10
India,Andhra_Pradesh,Kadapa,"Yerramukkapalli, Kadapa - APPCB",19-01-2024 18:00:00,14.465052,78.824187,SO2,1,2,2
India,Andhra_Pradesh,Kadapa,"Yerramukkapalli, Kadapa - APPCB",19-01-2024 18:00:00,14.465052,78.824187,OZONE,15,59,41
India,Andhra_Pradesh,Rajamahendravaram,"Anand Kala Kshetram, Rajamahendravaram - APPCB",19-01-2024 18:00:00,16.9872867,81.7363176,OZONE,5,9,6
India,Andhra_Pradesh,Tirupati,"Tirumala, Tirupati - APPCB",19-01-2024 18:00:00,13.67,79.35,PM2.5,42,102,74
India,Andhra_Pradesh,Tirupati,"Tirumala, Tirupati - APPCB",19-01-2024 18:00:00,13.67,79.35,NH3,1,2,2
India,Andhra_Pradesh,Tirupati,"Vaikuntapuram, Tirupati - APPCB",19-01-2024 18:00:00,13.615387,79.409230,NH3,2,3,3
India,Andhra_Pradesh,Vijayawada,"HB Colony, Vijayawada - APPCB",19-01-2024 18:00:00,16.536107,80.594233,CO,23,28,25
India,Andhra_Pradesh,Vijayawada,"Rajiv Gandhi Park, Vijayawada - APPCB",19-01-2024 18:00:00,16.509717,80.612222,PM2.5,24,69,37
India,Andhra_Pradesh,Vijayawada,"Rajiv Gandhi Park, Vijayawada - APPCB",19-01-2024 18:00:00,16.509717,80.612222,NH3,2,7,6
India,Andhra_Pradesh,Visakhapatnam,"GVM Corporation, Visakhapatnam - APPCB",19-01-2024 18:00:00,17.72,83.3,PM10,56,278,134
India,Andhra_Pradesh,Visakhapatnam,"GVM Corporation, Visakhapatnam - APPCB",19-01-2024 18:00:00,17.72,83.3,NH3,3,7,4
India,Arunachal_Pradesh,Naharlagun,"Naharlagun, Naharlagun - APSPCB",19-01-2024 18:00:00,27.103358,93.679645,PM2.5,17,118,53
India,Assam,Byrnihat,"Central Academy for SFS, Byrnihat - PCBA",19-01-2024 18:00:00,26.071318,91.87488,PM10,76,437,220
India,Assam,Byrnihat,"Central Academy for SFS, Byrnihat - PCBA",19-01-2024 18:00:00,26.071318,91.87488,CO,8,186,73
India,Assam,Guwahati,"LGBI Airport, Guwahati - PCBA",19-01-2024 18:00:00,26.10887,91.589544,NH3,1,10,4
India,Assam,Guwahati,"Pan Bazaar, Guwahati - PCBA",19-01-2024 18:00:00,26.187500,91.744194,PM2.5,98,444,288
India,Assam,Guwahati,"Pan Bazaar, Guwahati - PCBA",19-01-2024 18:00:00,26.187500,91.744194,CO,34,129,52
India,Assam,Guwahati,"Railway Colony, Guwahati - PCBA",19-01-2024 18:00:00,26.181742,91.78063,PM2.5,92,498,314
India,Assam,Guwahati,"Railway Colony, Guwahati - PCBA",19-01-2024 18:00:00,26.181742,91.78063,CO,31,123,53
India,Assam,Nagaon,"Christianpatty, Nagaon - PCBA",19-01-2024 18:00:00,26.349082,92.68449,SO2,11,25,16
India,Assam,Nagaon,"Christianpatty, Nagaon - PCBA",19-01-2024 18:00:00,26.349082,92.68449,OZONE,3,84,54
India,Assam,Nalbari,"Bata Chowk, Nalbari - PCBA",19-01-2024 18:00:00,26.446912,91.439057,NH3,9,21,12
India,Assam,Silchar,"Tarapur, Silchar - PCBA",19-01-2024 18:00:00,24.82827,92.79525,PM2.5,NA,NA,NA
India,Assam,Silchar,"Tarapur, Silchar - PCBA",19-01-2024 18:00:00,24.82827,92.79525,PM10,NA,NA,NA
India,Assam,Silchar,"Tarapur, Silchar - PCBA",19-01-2024 18:00:00,24.82827,92.79525,NO2,NA,NA,NA
India,Assam,Sivasagar,"Girls College, Sivasagar - PCBA",19-01-2024 18:00:00,26.987634,94.636574,PM10,29,84,45
India,Bihar,Araria,"Kharahiya Basti, Araria - BSPCB",19-01-2024 18:00:00,26.146529,87.454184,PM10,129,387,210
India,Bihar,Araria,"Kharahiya Basti, Araria - BSPCB",19-01-2024 18:00:00,26.146529,87.454184,SO2,13,17,15
India,Bihar,Arrah,"New DM Office, Arrah - BSPCB",19-01-2024 18:00:00,25.5626095,84.663264,NH3,4,7,5
India,Bihar,Arrah,"New DM Office, Arrah - BSPCB",19-01-2024 18:00:00,25.5626095,84.663264,CO,4,14,10
India,Bihar,Bettiah,"Kamalnath Nagar, Bettiah - BSPCB",19-01-2024 18:00:00,26.80365,84.51954,OZONE,35,72,57
India,Bihar,Bhagalpur,"Mayaganj, Bhagalpur - BSPCB",19-01-2024 18:00:00,25.265194,87.012947,PM2.5,283,410,338
India,Bihar,Bhagalpur,"Mayaganj, Bhagalpur - BSPCB",19-01-2024 18:00:00,25.265194,87.012947,PM10,133,293,182
India,Bihar,Bhagalpur,"Mayaganj, Bhagalpur - BSPCB",19-01-2024 18:00:00,25.265194,87.012947,OZONE,21,43,36
India,Bihar,Bihar Sharif,"D M Colony, Bihar Sharif - BSPCB",19-01-2024 18:00:00,25.204762,85.514960,PM10,75,205,127
India,Bihar,Bihar Sharif,"D M Colony, Bihar Sharif - BSPCB",19-01-2024 18:00:00,25.204762,85.514960,CO,3,46,27
India,Bihar,Gaya,"Kareemganj, Gaya - BSPCB",19-01-2024 18:00:00,24.792403,84.992416,SO2,7,10,8
India,Bihar,Gaya,"SFTI Kusdihra, Gaya - BSPCB",19-01-2024 18:00:00,24.762518,84.982348,NH3,4,6,6
India,Bihar,Hajipur,"Industrial Area, Hajipur - BSPCB",19-01-2024 18:00:00,25.697189,85.245900,PM10,138,280,188
India,Bihar,Katihar,"Mirchaibari, Katihar - BSPCB",19-01-2024 18:00:00,25.560083,87.553265,PM2.5,103,283,171
India,Bihar,Katihar,"Mirchaibari, Katihar - BSPCB",19-01-2024 18:00:00,25.560083,87.553265,PM10,132,211,162
India,Bihar,Katihar,"Mirchaibari, Katihar - BSPCB",19-01-2024 18:00:00,25.560083,87.553265,OZONE,18,23,20
India,Bihar,Manguraha,"Forest Rest House, Manguraha - BSPCB",19-01-2024 18:00:00,27.308328,84.531742,PM2.5,NA,NA,NA
India,Bihar,Manguraha,"Forest Rest House, Manguraha - BSPCB",19-01-2024 18:00:00,27.308328,84.531742,NH3,2,3,2
India,Bihar,Motihari,"Gandak Colony, Motihari - BSPCB",19-01-2024 18:00:00,26.63086,84.90051,PM2.5,107,267,178
India,Bihar,Motihari,"Gandak Colony, Motihari - BSPCB",19-01-2024 18:00:00,26.63086,84.90051,PM10,100,152,123
India,Bihar,Muzaffarpur,"Muzaffarpur Collectorate, Muzaffarpur - BSPCB",19-01-2024 18:00:00,26.1209,85.3647,PM2.5,58,500,203
India,Bihar,Muzaffarpur,"Muzaffarpur Collectorate, Muzaffarpur - BSPCB",19-01-2024 18:00:00,26.1209,85.3647,OZONE,13,57,39
India,Bihar,Patna,"DRM Office Danapur, Patna - BSPCB",19-01-2024 18:00:00,25.586562,85.043586,PM2.5,308,371,328
India,Bihar,Patna,"Govt. High School Shikarpur, Patna - BSPCB",19-01-2024 18:00:00,25.592539,85.227158,NH3,3,6,4
India,Bihar,Patna,"Govt. High School Shikarpur, Patna - BSPCB",19-01-2024 18:00:00,25.592539,85.227158,SO2,1,7,3
India,Bihar,Patna,"IGSC Planetarium Complex, Patna - BSPCB",19-01-2024 18:00:00,25.610369,85.132568,SO2,68,100,92
India,Bihar,Patna,"Muradpur, Patna - BSPCB",19-01-2024 18:00:00,25.619651,85.147382,PM2.5,171,346,264
India,Bihar,Patna,"Muradpur, Patna - BSPCB",19-01-2024 18:00:00,25.619651,85.147382,NH3,NA,NA,NA
India,Bihar,Patna,"Rajbansi Nagar, Patna - BSPCB",19-01-2024 18:00:00,25.599486,85.113666,PM2.5,180,320,240
India,Bihar,Patna,"Rajbansi Nagar, Patna - BSPCB",19-01-2024 18:00:00,25.599486,85.113666,PM10,173,378,223
India,Bihar,Patna,"Rajbansi Nagar, Patna - BSPCB",19-01-2024 18:00:00,25.599486,85.113666,SO2,8,34,16
India,Bihar,Patna,"Samanpura, Patna - BSPCB",19-01-2024 18:00:00,25.596727,85.085624,NO2,13,15,14
India,Bihar,Patna,"Samanpura, Patna - BSPCB",19-01-2024 18:00:00,25.596727,85.085624,OZONE,33,68,56
India,Bihar,Purnia,"Mariam Nagar, Purnia - BSPCB",19-01-2024 18:00:00,25.366336,87.117468,NO2,12,14,13
India,Bihar,Rajgir,"Dangi Tola, Rajgir - BSPCB",19-01-2024 18:00:00,25.03280,85.41948,SO2,3,13,5
India,Bihar,Rajgir,"Dangi Tola, Rajgir - BSPCB",19-01-2024 18:00:00,25.03280,85.41948,OZONE,22,25,24
India,Bihar,Saharsa,"Police Line, Saharsa - BSPCB",19-01-2024 18:00:00,25.892357,86.590325,PM10,138,249,177
India,Bihar,Saharsa,"Police Line, Saharsa - BSPCB",19-01-2024 18:00:00,25.892357,86.590325,NH3,9,9,9
India,Bihar,Samastipur,"DM Office_Kasipur, Samastipur - BSPCB",19-01-2024 18:00:00,25.859655,85.77944,NO2,2,6,5
India,Bihar,Sasaram,"Dada Peer, Sasaram - BSPCB",19-01-2024 18:00:00,24.952822,84.002396,SO2,21,23,23
India,Bihar,Sasaram,"Dada Peer, Sasaram - BSPCB",19-01-2024 18:00:00,24.952822,84.002396,OZONE,4,5,4
India,Bihar,Siwan,"Chitragupta Nagar, Siwan - BSPCB",19-01-2024 18:00:00,26.2271665,84.3570427,NO2,15,66,22
India,Bihar,Siwan,"Chitragupta Nagar, Siwan - BSPCB",19-01-2024 18:00:00,26.2271665,84.3570427,SO2,17,35,31
India,Bihar,Siwan,"Chitragupta Nagar, Siwan - BSPCB",19-01-2024 18:00:00,26.2271665,84.3570427,CO,103,170,121
India,Chandigarh,Chandigarh,"Sector 22, Chandigarh - CPCC",19-01-2024 18:00:00,30.735567,76.775714,PM10,191,500,362
India,Chandigarh,Chandigarh,"Sector-25, Chandigarh - CPCC",19-01-2024 18:00:00,30.751462,76.762879,PM2.5,233,346,308
India,Chandigarh,Chandigarh,"Sector-53, Chandigarh - CPCC",19-01-2024 18:00:00,30.719859,76.738637,PM10,167,429,309
India,Chhattisgarh,Bhilai,"32Bungalows, Bhilai - CECB",19-01-2024 18:00:00,21.194815,81.314770,PM2.5,85,146,104
India,Chhattisgarh,Bhilai,"32Bungalows, Bhilai - CECB",19-01-2024 18:00:00,21.194815,81.314770,OZONE,4,5,5
India,Chhattisgarh,Bhilai,"Civic Center, Bhilai - Bhilai Steel Plant",19-01-2024 18:00:00,21.185571,81.343175,SO2,8,12,10
India,Chhattisgarh,Bhilai,"Civic Center, Bhilai - Bhilai Steel Plant",19-01-2024 18:00:00,21.185571,81.343175,OZONE,6,26,17
India,Chhattisgarh,Bilaspur,"Mangala, Bilaspur - NTPC",19-01-2024 18:00:00,22.08815,82.13737,SO2,1,50,24
India,Chhattisgarh,Bilaspur,"Mangala, Bilaspur - NTPC",19-01-2024 18:00:00,22.08815,82.13737,CO,20,39,34
India,Chhattisgarh,Chhal,"Nawapara SECL Colony, Chhal - CECB",19-01-2024 18:00:00,22.118125,83.140608,NH3,2,2,2
India,Chhattisgarh,Korba,"Rampur, Korba - CECB",19-01-2024 18:00:00,22.368195,82.746431,NH3,4,7,5
India,Chhattisgarh,Korba,"Urja Nagar, Korba - CECB",19-01-2024 18:00:00,22.348441,82.549611,CO,44,84,53
India,Chhattisgarh,Kunjemura,"OP Jindal School, Kunjemura - CECB",19-01-2024 18:00:00,22.126650,83.483212,PM2.5,16,50,32
India,Chhattisgarh,Kunjemura,"OP Jindal School, Kunjemura - CECB",19-01-2024 18:00:00,22.126650,83.483212,PM10,25,50,36
India,Chhattisgarh,Kunjemura,"OP Jindal School, Kunjemura - CECB",19-01-2024 18:00:00,22.126650,83.483212,SO2,NA,NA,NA
India,Chhattisgarh,Kunjemura,"OP Jindal School, Kunjemura - CECB",19-01-2024 18:00:00,22.126650,83.483212,CO,45,71,45
India,Chhattisgarh,Milupara,"Govt. Higher Secondary School, Milupara - CECB",19-01-2024 18:00:00,22.1910172,83.5197009,PM10,NA,NA,NA
India,Chhattisgarh,Milupara,"Govt. Higher Secondary School, Milupara - CECB",19-01-2024 18:00:00,22.1910172,83.5197009,NO2,NA,NA,NA
India,Chhattisgarh,Milupara,"Govt. Higher Secondary School, Milupara - CECB",19-01-2024 18:00:00,22.1910172,83.5197009,NH3,NA,NA,NA
India,Chhattisgarh,Raipur,"Bhatagaon New ISBT, Raipur - CECB",19-01-2024 18:00:00,21.219665,81.630094,PM2.5,53,80,65
India,Chhattisgarh,Raipur,"Krishak Nagar, Raipur - CECB",19-01-2024 18:00:00,21.237755,81.705301,PM2.5,70,81,74
India,Chhattisgarh,Raipur,"Siltara Phase-II, Raipur - CECB",19-01-2024 18:00:00,21.371751,81.664929,CO,39,58,41
India,Chhattisgarh,Tumidih,"OP Jindal Industrial Park, Tumidih - CECB",19-01-2024 18:00:00,22.06631475,83.33820077,OZONE,4,23,22
India,Delhi,Delhi,"Alipur, Delhi - DPCC",19-01-2024 18:00:00,28.815329,77.153010,NO2,29,87,52
India,Delhi,Delhi,"Alipur, Delhi - DPCC",19-01-2024 18:00:00,28.815329,77.153010,OZONE,4,41,20
India,Delhi,Delhi,"Anand Vihar, Delhi - DPCC",19-01-2024 18:00:00,28.647622,77.3158090,PM10,189,375,290
India,Delhi,Delhi,"Anand Vihar, Delhi - DPCC",19-01-2024 18:00:00,28.647622,77.3158090,OZONE,15,17,15
India,Delhi,Delhi,"Ashok Vihar, Delhi - DPCC",19-01-2024 18:00:00,28.695381,77.181665,SO2,12,23,17
India,Delhi,Delhi,"Ashok Vihar, Delhi - DPCC",19-01-2024 18:00:00,28.695381,77.181665,OZONE,4,7,6
India,Delhi,Delhi,"Aya Nagar, Delhi - IMD",19-01-2024 18:00:00,28.4706914,77.1099364,PM2.5,77,376,198
India,Delhi,Delhi,"Aya Nagar, Delhi - IMD",19-01-2024 18:00:00,28.4706914,77.1099364,PM10,104,350,162
India,Delhi,Delhi,"Aya Nagar, Delhi - IMD",19-01-2024 18:00:00,28.4706914,77.1099364,NO2,18,30,23
India,Delhi,Delhi,"Bawana, Delhi - DPCC",19-01-2024 18:00:00,28.776200,77.051074,NO2,16,81,46
India,Delhi,Delhi,"Bawana, Delhi - DPCC",19-01-2024 18:00:00,28.776200,77.051074,SO2,4,8,6
India,Delhi,Delhi,"Burari Crossing, Delhi - IMD",19-01-2024 18:00:00,28.7256504,77.2011573,NO2,8,13,11
India,Delhi,Delhi,"Burari Crossing, Delhi - IMD",19-01-2024 18:00:00,28.7256504,77.2011573,CO,102,104,103
India,Delhi,Delhi,"Burari Crossing, Delhi - IMD",19-01-2024 18:00:00,28.7256504,77.2011573,OZONE,22,45,32
India,Delhi,Delhi,"CRRI Mathura Road, Delhi - IMD",19-01-2024 18:00:00,28.5512005,77.2735737,CO,56,90,62
India,Delhi,Delhi,"DTU, Delhi - CPCB",19-01-2024 18:00:00,28.7500499,77.1112615,NH3,17,30,23
India,Delhi,Delhi,"DTU, Delhi - CPCB",19-01-2024 18:00:00,28.7500499,77.1112615,CO,54,70,64
India,Delhi,Delhi,"Dr. Karni Singh Shooting Range, Delhi - DPCC",19-01-2024 18:00:00,28.498571,77.264840,PM2.5,261,402,337
India,Delhi,Delhi,"Dr. Karni Singh Shooting Range, Delhi - DPCC",19-01-2024 18:00:00,28.498571,77.264840,OZONE,1,24,18
India,Delhi,Delhi,"Dwarka-Sector 8, Delhi - DPCC ",19-01-2024 18:00:00,28.5710274,77.0719006,CO,64,105,73
India,Delhi,Delhi,"IGI Airport (T3), Delhi - IMD",19-01-2024 18:00:00,28.5627763,77.1180053,PM2.5,210,372,303
India,Delhi,Delhi,"IGI Airport (T3), Delhi - IMD",19-01-2024 18:00:00,28.5627763,77.1180053,PM10,129,298,177
India,Delhi,Delhi,"ITO, Delhi - CPCB",19-01-2024 18:00:00,28.628624,77.241060,NO2,18,67,35
India,Delhi,Delhi,"ITO, Delhi - CPCB",19-01-2024 18:00:00,28.628624,77.241060,OZONE,28,49,31
India,Delhi,Delhi,"Jahangirpuri, Delhi - DPCC",19-01-2024 18:00:00,28.732820,77.170633,NH3,7,10,8
India,Delhi,Delhi,"Jahangirpuri, Delhi - DPCC",19-01-2024 18:00:00,28.732820,77.170633,SO2,12,23,16
India,Delhi,Delhi,"Lodhi Road, Delhi - IITM",19-01-2024 18:00:00,28.588333,77.221667,PM2.5,129,417,255
India,Delhi,Delhi,"Lodhi Road, Delhi - IMD",19-01-2024 18:00:00,28.5918245,77.2273074,PM10,136,333,223
India,Delhi,Delhi,"Lodhi Road, Delhi - IMD",19-01-2024 18:00:00,28.5918245,77.2273074,CO,25,101,57
India,Delhi,Delhi,"Major Dhyan Chand National Stadium, Delhi - DPCC",19-01-2024 18:00:00,28.611281,77.237738,PM2.5,312,426,356
India,Delhi,Delhi,"Major Dhyan Chand National Stadium, Delhi - DPCC",19-01-2024 18:00:00,28.611281,77.237738,CO,21,103,30
India,Delhi,Delhi,"Major Dhyan Chand National Stadium, Delhi - DPCC",19-01-2024 18:00:00,28.611281,77.237738,OZONE,3,3,3
India,Delhi,Delhi,"Mundka, Delhi - DPCC",19-01-2024 18:00:00,28.684678,77.076574,NO2,54,130,84
India,Delhi,Delhi,"Mundka, Delhi - DPCC",19-01-2024 18:00:00,28.684678,77.076574,SO2,3,7,5
India,Delhi,Delhi,"Mundka, Delhi - DPCC",19-01-2024 18:00:00,28.684678,77.076574,OZONE,1,10,5
India,Delhi,Delhi,"NSIT Dwarka, Delhi - CPCB",19-01-2024 18:00:00,28.60909,77.0325413,CO,38,102,49
India,Delhi,Delhi,"Narela, Delhi - DPCC",19-01-2024 18:00:00,28.822836,77.101981,SO2,5,15,8
India,Delhi,Delhi,"Nehru Nagar, Delhi - DPCC",19-01-2024 18:00:00,28.567890,77.250515,PM2.5,321,421,370
India,Delhi,Delhi,"Nehru Nagar, Delhi - DPCC",19-01-2024 18:00:00,28.567890,77.250515,SO2,2,14,9
India,Delhi,Delhi,"North Campus, DU, Delhi - IMD",19-01-2024 18:00:00,28.6573814,77.1585447,CO,53,102,56
India,Delhi,Delhi,"Okhla Phase-2, Delhi - DPCC",19-01-2024 18:00:00,28.530785,77.271255,PM10,184,335,252
India,Delhi,Delhi,"Patparganj, Delhi - DPCC",19-01-2024 18:00:00,28.623763,77.287209,PM10,197,352,267
India,Delhi,Delhi,"Patparganj, Delhi - DPCC",19-01-2024 18:00:00,28.623763,77.287209,NO2,42,60,51
India,Delhi,Delhi,"Pusa, Delhi - DPCC",19-01-2024 18:00:00,28.639652,77.146275,PM2.5,262,394,348
India,Delhi,Delhi,"Pusa, Delhi - DPCC",19-01-2024 18:00:00,28.639652,77.146275,NH3,18,29,23
India,Delhi,Delhi,"Pusa, Delhi - IMD",19-01-2024 18:00:00,28.636110,77.173332,PM10,90,238,166
India,Delhi,Delhi,"Pusa, Delhi - IMD",19-01-2024 18:00:00,28.636110,77.173332,CO,99,111,100
India,Delhi,Delhi,"R K Puram, Delhi - DPCC",19-01-2024 18:00:00,28.563262,77.186937,CO,64,107,79
India,Delhi,Delhi,"Rohini, Delhi - DPCC",19-01-2024 18:00:00,28.732528,77.119920,NH3,9,13,10
India,Delhi,Delhi,"Rohini, Delhi - DPCC",19-01-2024 18:00:00,28.732528,77.119920,SO2,9,20,12
India,Delhi,Delhi,"Shadipur, Delhi - CPCB",19-01-2024 18:00:00,28.6514781,77.1473105,PM2.5,158,497,357
India,Delhi,Delhi,"Shadipur, Delhi - CPCB",19-01-2024 18:00:00,28.6514781,77.1473105,NO2,41,83,62
India,Delhi,Delhi,"Shadipur, Delhi - CPCB",19-01-2024 18:00:00,28.6514781,77.1473105,OZONE,22,261,110
India,Delhi,Delhi,"Sonia Vihar, Delhi - DPCC",19-01-2024 18:00:00,28.710508,77.249485,CO,67,103,87
India,Delhi,Delhi,"Wazirpur, Delhi - DPCC",19-01-2024 18:00:00,28.699793,77.165453,NH3,4,7,6
India,Delhi,Delhi,"Wazirpur, Delhi - DPCC",19-01-2024 18:00:00,28.699793,77.165453,SO2,19,38,28
India,Delhi,Delhi,"Wazirpur, Delhi - DPCC",19-01-2024 18:00:00,28.699793,77.165453,OZONE,2,30,17
India,Gujarat,Ahmedabad,"Chandkheda, Ahmedabad - IITM",19-01-2024 18:00:00,23.107969,72.574648,NO2,20,27,23
India,Gujarat,Ahmedabad,"Chandkheda, Ahmedabad - IITM",19-01-2024 18:00:00,23.107969,72.574648,SO2,NA,NA,NA
India,Gujarat,Ahmedabad,"Gyaspur, Ahmedabad - IITM",19-01-2024 18:00:00,22.977134,72.553024,OZONE,19,19,19
India,Gujarat,Ahmedabad,"Raikhad, Ahmedabad - IITM",19-01-2024 18:00:00,23.020509,72.579261,OZONE,20,20,20
India,Gujarat,Ahmedabad,"Rakhial, Ahmedabad - IITM",19-01-2024 18:00:00,23.016834,72.625775,PM10,NA,NA,NA
India,Gujarat,Ahmedabad,"Rakhial, Ahmedabad - IITM",19-01-2024 18:00:00,23.016834,72.625775,OZONE,1,19,19
India,Gujarat,Ahmedabad,"SAC ISRO Satellite, Ahmedabad - IITM",19-01-2024 18:00:00,23.023389,72.515201,NH3,3,4,3
India,Gujarat,Ahmedabad,"Sardar Vallabhbhai Patel Stadium, Ahmedabad - IITM",19-01-2024 18:00:00,23.043070,72.562968,SO2,6,8,7
India,Gujarat,Ahmedabad,"Sardar Vallabhbhai Patel Stadium, Ahmedabad - IITM",19-01-2024 18:00:00,23.043070,72.562968,OZONE,1,10,10
India,Gujarat,Ankleshwar,"GIDC, Ankleshwar - GPCB",19-01-2024 18:00:00,21.613267,73.010555,NH3,6,6,6
India,Gujarat,Gandhinagar,"GIFT City, Gandhinagar - IITM",19-01-2024 18:00:00,23.163798,72.677768,NH3,2,3,2
India,Gujarat,Gandhinagar,"IIPHG Lekawada, Gandhinagar - IITM",19-01-2024 18:00:00,23.243639,72.68994,OZONE,16,25,16
India,Gujarat,Gandhinagar,"Sector-10, Gandhinagar - GPCB",19-01-2024 18:00:00,23.221714,72.654328,PM10,40,132,82
India,Gujarat,Gandhinagar,"Sector-10, Gandhinagar - GPCB",19-01-2024 18:00:00,23.221714,72.654328,NO2,NA,NA,NA
India,Gujarat,Gandhinagar,"Sector-10, Gandhinagar - GPCB",19-01-2024 18:00:00,23.221714,72.654328,SO2,NA,NA,NA
India,Gujarat,Vapi,"Phase-1 GIDC, Vapi - GPCB",19-01-2024 18:00:00,20.362421,72.918013,CO,1,181,181
India,Gujarat,Vatva,"Phase-4 GIDC, Vatva - GPCB",19-01-2024 18:00:00,22.969611,72.643500,CO,38,40,39
India,Haryana,Ambala,"Patti Mehar, Ambala - HSPCB",19-01-2024 18:00:00,30.379589,76.778328,PM2.5,62,143,86
India,Haryana,Ambala,"Patti Mehar, Ambala - HSPCB",19-01-2024 18:00:00,30.379589,76.778328,NH3,5,12,8
India,Haryana,Ambala,"Patti Mehar, Ambala - HSPCB",19-01-2024 18:00:00,30.379589,76.778328,CO,30,60,46
India,Haryana,Bahadurgarh,"Arya Nagar, Bahadurgarh - HSPCB",19-01-2024 18:00:00,28.6701,76.9254,NH3,10,12,12
India,Haryana,Ballabgarh,"Nathu Colony, Ballabgarh - HSPCB",19-01-2024 18:00:00,28.3419248,77.319699,PM2.5,136,245,184
India,Haryana,Ballabgarh,"Nathu Colony, Ballabgarh - HSPCB",19-01-2024 18:00:00,28.3419248,77.319699,CO,24,152,50
India,Haryana,Bhiwani,"H.B. Colony, Bhiwani - HSPCB",19-01-2024 18:00:00,28.806223,76.141105,NH3,4,6,6
India,Haryana,Bhiwani,"H.B. Colony, Bhiwani - HSPCB",19-01-2024 18:00:00,28.806223,76.141105,CO,40,93,62
India,Haryana,Charkhi Dadri,"Mini Secretariat, Charkhi Dadri - HSPCB",19-01-2024 18:00:00,28.593883,76.270653,PM10,9,151,108
India,Haryana,Charkhi Dadri,"Mini Secretariat, Charkhi Dadri - HSPCB",19-01-2024 18:00:00,28.593883,76.270653,NH3,5,6,6
India,Haryana,Faridabad,"New Industrial Town, Faridabad - HSPCB",19-01-2024 18:00:00,28.39072,77.30059,NO2,NA,NA,NA
India,Haryana,Faridabad,"New Industrial Town, Faridabad - HSPCB",19-01-2024 18:00:00,28.39072,77.30059,NH3,NA,NA,NA
India,Haryana,Faridabad,"Sector 11, Faridabad - HSPCB",19-01-2024 18:00:00,28.376058,77.315741,OZONE,3,5,3
India,Haryana,Faridabad,"Sector 30, Faridabad - HSPCB",19-01-2024 18:00:00,28.4417,77.3217,NO2,30,33,31
India,Haryana,Faridabad,"Sector 30, Faridabad - HSPCB",19-01-2024 18:00:00,28.4417,77.3217,CO,84,118,90
India,Haryana,Faridabad,"Sector- 16A, Faridabad - HSPCB",19-01-2024 18:00:00,28.4088421,77.3099081,PM2.5,261,387,322
India,Haryana,Gurugram,"NISE Gwal Pahari, Gurugram - IMD",19-01-2024 18:00:00,28.422681,77.148944,CO,16,20,18
India,Haryana,Gurugram,"Sector-51, Gurugram - HSPCB",19-01-2024 18:00:00,28.4227,77.0667,NO2,13,45,26
India,Haryana,Gurugram,"Teri Gram, Gurugram - HSPCB",19-01-2024 18:00:00,28.4275,77.1465,NO2,2,60,31
India,Haryana,Gurugram,"Vikas Sadan, Gurugram - HSPCB",19-01-2024 18:00:00,28.4501238,77.0263051,PM2.5,37,281,105
India,Haryana,Gurugram,"Vikas Sadan, Gurugram - HSPCB",19-01-2024 18:00:00,28.4501238,77.0263051,OZONE,8,67,50
India,Haryana,Hisar,"Urban Estate-II, Hisar - HSPCB",19-01-2024 18:00:00,29.140560,75.744941,PM10,62,123,86
India,Haryana,Hisar,"Urban Estate-II, Hisar - HSPCB",19-01-2024 18:00:00,29.140560,75.744941,NO2,5,9,7
India,Haryana,Hisar,"Urban Estate-II, Hisar - HSPCB",19-01-2024 18:00:00,29.140560,75.744941,CO,40,117,63
India,Haryana,Jind,"Police Lines, Jind - HSPCB",19-01-2024 18:00:00,29.307814,76.337619,PM2.5,58,314,110
India,Haryana,Kaithal,"Rishi Nagar, Kaithal - HSPCB",19-01-2024 18:00:00,29.8006,76.4155,NO2,24,26,25
India,Haryana,Kaithal,"Rishi Nagar, Kaithal - HSPCB",19-01-2024 18:00:00,29.8006,76.4155,NH3,8,8,8
India,Haryana,Kurukshetra,"Sector-7, Kurukshetra - HSPCB",19-01-2024 18:00:00,29.966942,76.875879,PM2.5,168,314,221
India,Haryana,Mandikhera,"General Hospital, Mandikhera - HSPCB",19-01-2024 18:00:00,27.9002,76.9938,CO,40,53,45
India,Haryana,Manesar,"Sector-2 IMT, Manesar - HSPCB",19-01-2024 18:00:00,28.360699,76.936090,PM10,97,160,124
India,Haryana,Manesar,"Sector-2 IMT, Manesar - HSPCB",19-01-2024 18:00:00,28.360699,76.936090,CO,15,48,20
India,Haryana,Narnaul,"Shastri Nagar, Narnaul - HSPCB",19-01-2024 18:00:00,28.060249,76.113115,CO,10,46,15
India,Haryana,Panipat,"Sector-18, Panipat - HSPCB",19-01-2024 18:00:00,29.497973,76.993331,SO2,12,13,12
India,Haryana,Panipat,"Sector-18, Panipat - HSPCB",19-01-2024 18:00:00,29.497973,76.993331,OZONE,30,34,32
India,Haryana,Sirsa,"F-Block, Sirsa - HSPCB",19-01-2024 18:00:00,29.536400,75.015800,PM2.5,55,230,108
India,Haryana,Sirsa,"F-Block, Sirsa - HSPCB",19-01-2024 18:00:00,29.536400,75.015800,SO2,7,17,13
India,Haryana,Sonipat,"Murthal, Sonipat - HSPCB",19-01-2024 18:00:00,29.027200,77.062100,PM10,113,164,138
India,Haryana,Sonipat,"Murthal, Sonipat - HSPCB",19-01-2024 18:00:00,29.027200,77.062100,CO,30,52,46
India,Haryana,Yamuna Nagar,"Gobind Pura, Yamuna Nagar - HSPCB",19-01-2024 18:00:00,30.1480566,77.2893471,NO2,11,28,18
India,Himachal Pradesh,Baddi,"HIMUDA Complex Phase-1, Baddi - HPPCB",19-01-2024 18:00:00,30.943887,76.801991,NH3,8,13,10
India,Jharkhand,Dhanbad,"Kalakusuma, Dhanbad - DMC",19-01-2024 18:00:00,23.811548,86.481238,SO2,111,116,113
India,Jharkhand,Dhanbad,"Sardar Patel Nagar, Dhanbad - JSPCB",19-01-2024 18:00:00,23.80569,86.44268,OZONE,13,21,16
India,Jharkhand,Pathardih,"Mohalbani Ghat, Pathardih - DMC",19-01-2024 18:00:00,23.669880,86.411725,PM2.5,NA,NA,NA
India,Jharkhand,Pathardih,"Mohalbani Ghat, Pathardih - DMC",19-01-2024 18:00:00,23.669880,86.411725,PM10,NA,NA,NA
India,Karnataka,Bagalkot,"Vidayagiri, Bagalkot - KSPCB",19-01-2024 18:00:00,16.172806,75.659694,OZONE,5,39,33
India,Karnataka,Belgaum,"Ramteerth Nagar, Belgaum - KSPCB",19-01-2024 18:00:00,15.888653,74.541751,CO,37,57,44
India,Karnataka,Bengaluru,"BTM Layout, Bengaluru - CPCB",19-01-2024 18:00:00,12.9135218,77.5950804,OZONE,17,40,27
India,Karnataka,Bengaluru,"Hebbal, Bengaluru - KSPCB",19-01-2024 18:00:00,13.029152,77.585901,SO2,8,20,14
India,Karnataka,Bengaluru,"Hebbal, Bengaluru - KSPCB",19-01-2024 18:00:00,13.029152,77.585901,CO,2,72,14
India,Karnataka,Bengaluru,"Hombegowda Nagar, Bengaluru - KSPCB",19-01-2024 18:00:00,12.938539,77.590100,PM10,56,168,84
India,Karnataka,Bengaluru,"Hombegowda Nagar, Bengaluru - KSPCB",19-01-2024 18:00:00,12.938539,77.590100,NO2,35,46,40
India,Karnataka,Bengaluru,"Hombegowda Nagar, Bengaluru - KSPCB",19-01-2024 18:00:00,12.938539,77.590100,CO,14,20,18
India,Karnataka,Bengaluru,"Jigani, Bengaluru - KSPCB",19-01-2024 18:00:00,12.7816279,77.6299145,PM10,36,127,89
India,Karnataka,Bengaluru,"Jigani, Bengaluru - KSPCB",19-01-2024 18:00:00,12.7816279,77.6299145,SO2,6,10,9
India,Karnataka,Bengaluru,"Kasturi Nagar, Bengaluru - KSPCB",19-01-2024 18:00:00,13.003872,77.664217,NO2,16,17,17
India,Karnataka,Bengaluru,"Peenya, Bengaluru - CPCB",19-01-2024 18:00:00,13.0270199,77.494094,NH3,5,5,5
India,Karnataka,Bengaluru,"RVCE-Mailasandra, Bengaluru - KSPCB",19-01-2024 18:00:00,12.921418,77.502466,NH3,4,4,4
India,Karnataka,Bengaluru,"Shivapura_Peenya, Bengaluru - KSPCB",19-01-2024 18:00:00,13.0246342,77.5080115,PM10,45,219,89
India,Karnataka,Bengaluru,"Shivapura_Peenya, Bengaluru - KSPCB",19-01-2024 18:00:00,13.0246342,77.5080115,OZONE,1,181,134
India,Karnataka,Bidar,"Naubad, Bidar - KSPCB",19-01-2024 18:00:00,17.930306,77.482194,PM10,86,137,100
India,Karnataka,Bidar,"Naubad, Bidar - KSPCB",19-01-2024 18:00:00,17.930306,77.482194,SO2,15,21,16
India,Karnataka,Chamarajanagar,"Urban, Chamarajanagar - KSPCB",19-01-2024 18:00:00,11.55358,76.55521,PM2.5,21,47,31
India,Karnataka,Chikkaballapur,"Chikkaballapur Rural, Chikkaballapur - KSPCB",19-01-2024 18:00:00,13.428828,77.731418,PM10,40,167,79
India,Karnataka,Chikkaballapur,"Chikkaballapur Rural, Chikkaballapur - KSPCB",19-01-2024 18:00:00,13.428828,77.731418,NH3,1,1,1
India,Karnataka,Chikkamagaluru,"Kalyana Nagara, Chikkamagaluru - KSPCB",19-01-2024 18:00:00,13.328028,75.797056,PM10,34,73,54
India,Karnataka,Chikkamagaluru,"Kalyana Nagara, Chikkamagaluru - KSPCB",19-01-2024 18:00:00,13.328028,75.797056,SO2,1,5,3
India,Karnataka,Davanagere,"Devaraj Urs Badavane, Davanagere - KSPCB",19-01-2024 18:00:00,14.475800,75.905200,NO2,5,15,10
India,Karnataka,Davanagere,"Devaraj Urs Badavane, Davanagere - KSPCB",19-01-2024 18:00:00,14.475800,75.905200,SO2,1,5,4
India,Karnataka,Davanagere,"Devaraj Urs Badavane, Davanagere - KSPCB",19-01-2024 18:00:00,14.475800,75.905200,CO,14,46,16
India,Karnataka,Dharwad,"Kalabhavan, Dharwad - KSPCB",19-01-2024 18:00:00,15.459706,75.008381,NH3,3,3,3
India,Karnataka,Hassan,"B.Katihalli, Hassan - KSPCB",19-01-2024 18:00:00,13.008556,76.125258,PM2.5,55,133,81
India,Karnataka,Hassan,"B.Katihalli, Hassan - KSPCB",19-01-2024 18:00:00,13.008556,76.125258,NH3,3,5,3
India,Karnataka,Hubballi,"Deshpande Nagar, Hubballi - KSPCB",19-01-2024 18:00:00,15.351773,75.140726,PM10,NA,NA,NA
India,Karnataka,Kalaburagi,"Lal Bahadur Shastri Nagar, Kalaburagi - KSPCB",19-01-2024 18:00:00,17.321993,76.822628,PM10,2,90,26
India,Karnataka,Kalaburagi,"Lal Bahadur Shastri Nagar, Kalaburagi - KSPCB",19-01-2024 18:00:00,17.321993,76.822628,CO,34,50,37
India,Karnataka,Kalaburagi,"Mahatma Basaveswar Colony, Kalaburgi - KSPCB",19-01-2024 18:00:00,17.336318,76.847397,OZONE,11,34,29
India,Karnataka,Karwar,"KHB Colony, Karwar - KSPCB",19-01-2024 18:00:00,14.816666,74.141003,PM10,36,108,72
India,Karnataka,Karwar,"KHB Colony, Karwar - KSPCB",19-01-2024 18:00:00,14.816666,74.141003,NO2,5,10,7
India,Karnataka,Karwar,"KHB Colony, Karwar - KSPCB",19-01-2024 18:00:00,14.816666,74.141003,NH3,2,3,2
India,Karnataka,Karwar,"KHB Colony, Karwar - KSPCB",19-01-2024 18:00:00,14.816666,74.141003,OZONE,21,22,22
India,Karnataka,Kolar,"Tamaka Ind. Area, Kolar - KSPCB",19-01-2024 18:00:00,13.1276288,78.1570122,NH3,6,8,7
India,Karnataka,Kolar,"Tamaka Ind. Area, Kolar - KSPCB",19-01-2024 18:00:00,13.1276288,78.1570122,SO2,13,21,14
India,Karnataka,Koppal,"Diwator Nagar, Koppal - KSPCB",19-01-2024 18:00:00,15.347630,76.181767,OZONE,11,57,45
India,Karnataka,Madikeri,"Stuart Hill, Madikeri - KSPCB",19-01-2024 18:00:00,12.415911,75.735050,SO2,4,4,4
India,Karnataka,Madikeri,"Stuart Hill, Madikeri - KSPCB",19-01-2024 18:00:00,12.415911,75.735050,CO,4,41,14
India,Karnataka,Mangalore,"Kadri, Mangalore - KSPCB",19-01-2024 18:00:00,12.889250,74.853000,OZONE,30,31,31
India,Karnataka,Mysuru,"Hebbal 1st Stage, Mysuru - KSPCB",19-01-2024 18:00:00,12.21041,76.37376,PM2.5,42,63,55
India,Karnataka,Mysuru,"Hebbal 1st Stage, Mysuru - KSPCB",19-01-2024 18:00:00,12.21041,76.37376,NH3,1,5,3
India,Karnataka,Mysuru,"Hebbal 1st Stage, Mysuru - KSPCB",19-01-2024 18:00:00,12.21041,76.37376,SO2,1,8,2
India,Karnataka,Raichur,"Haji Colony, Raichur - KSPCB",19-01-2024 18:00:00,16.208139,77.348417,PM10,NA,NA,NA
India,Karnataka,Raichur,"Haji Colony, Raichur - KSPCB",19-01-2024 18:00:00,16.208139,77.348417,OZONE,3,16,6
India,Karnataka,Shivamogga,"Vinoba Nagara, Shivamogga - KSPCB",19-01-2024 18:00:00,13.940000,75.555917,OZONE,23,63,41
India,Karnataka,Yadgir,"Collector Office, Yadgir - KSPCB",19-01-2024 18:00:00,16.7602,77.1428,NH3,1,1,1
India,Kerala,Eloor,"Udyogamandal, Eloor - Kerala PCB",19-01-2024 18:00:00,10.073232,76.302765,NO2,4,4,4
India,Kerala,Eloor,"Udyogamandal, Eloor - Kerala PCB",19-01-2024 18:00:00,10.073232,76.302765,CO,4,79,48
India,Kerala,Kannur,"Thavakkara, Kannur - Kerala PCB",19-01-2024 18:00:00,11.875000,75.373200,PM2.5,42,51,47
India,Kerala,Kannur,"Thavakkara, Kannur - Kerala PCB",19-01-2024 18:00:00,11.875000,75.373200,SO2,4,6,5
India,Kerala,Kollam,"Polayathode, Kollam - Kerala PCB",19-01-2024 18:00:00,8.8787,76.6073,PM10,NA,NA,NA
India,Kerala,Kollam,"Polayathode, Kollam - Kerala PCB",19-01-2024 18:00:00,8.8787,76.6073,NH3,NA,NA,NA
India,Kerala,Kollam,"Polayathode, Kollam - Kerala PCB",19-01-2024 18:00:00,8.8787,76.6073,OZONE,32,37,35
India,Kerala,Thiruvananthapuram,"Kariavattom, Thiruvananthapuram - Kerala PCB",19-01-2024 18:00:00,8.563700,76.886500,PM2.5,62,72,67
India,Kerala,Thiruvananthapuram,"Kariavattom, Thiruvananthapuram - Kerala PCB",19-01-2024 18:00:00,8.563700,76.886500,NO2,8,10,9
India,Kerala,Thiruvananthapuram,"Plammoodu, Thiruvananthapuram - Kerala PCB",19-01-2024 18:00:00,8.5149093,76.9435879,NH3,NA,NA,NA
India,Kerala,Thiruvananthapuram,"Plammoodu, Thiruvananthapuram - Kerala PCB",19-01-2024 18:00:00,8.5149093,76.9435879,SO2,NA,NA,NA
India,Kerala,Thiruvananthapuram,"Plammoodu, Thiruvananthapuram - Kerala PCB",19-01-2024 18:00:00,8.5149093,76.9435879,CO,20,26,23
India,Kerala,Thrissur,"Corporation Ground, Thrissur - Kerala PCB",19-01-2024 18:00:00,10.532400,76.215900,PM2.5,45,55,50
India,Kerala,Thrissur,"Corporation Ground, Thrissur - Kerala PCB",19-01-2024 18:00:00,10.532400,76.215900,CO,14,126,19
India,Madhya Pradesh,Bhopal,"Idgah Hills, Bhopal - MPPCB",19-01-2024 18:00:00,23.264759,77.381568,PM10,NA,NA,NA
India,Madhya Pradesh,Bhopal,"Idgah Hills, Bhopal - MPPCB",19-01-2024 18:00:00,23.264759,77.381568,NH3,NA,NA,NA
India,Madhya Pradesh,Bhopal,"Paryavaran Parisar, Bhopal - MPPCB",19-01-2024 18:00:00,23.210494,77.425409,OZONE,14,67,52
India,Madhya Pradesh,Bhopal,"T T Nagar, Bhopal - MPPCB",19-01-2024 18:00:00,23.233584,77.400574,PM2.5,67,198,138
India,Madhya Pradesh,Bhopal,"T T Nagar, Bhopal - MPPCB",19-01-2024 18:00:00,23.233584,77.400574,PM10,84,135,116
India,Madhya Pradesh,Damoh,"Shrivastav Colony, Damoh - MPPCB",19-01-2024 18:00:00,23.81748678,79.446246,PM2.5,28,51,39
India,Madhya Pradesh,Damoh,"Shrivastav Colony, Damoh - MPPCB",19-01-2024 18:00:00,23.81748678,79.446246,PM10,NA,NA,NA
India,Madhya Pradesh,Dewas,"Bhopal Chauraha, Dewas - MPPCB",19-01-2024 18:00:00,22.9682591,76.064118,NH3,3,3,3
India,Madhya Pradesh,Gwalior,"City Center, Gwalior - MPPCB",19-01-2024 18:00:00,26.203442,78.193251,NH3,5,7,6
India,Madhya Pradesh,Gwalior,"City Center, Gwalior - MPPCB",19-01-2024 18:00:00,26.203442,78.193251,OZONE,17,20,19
India,Madhya Pradesh,Gwalior,"Maharaj Bada, Gwalior - MPPCB",19-01-2024 18:00:00,26.200388,78.147714,OZONE,24,45,40
India,Madhya Pradesh,Indore,"Chhoti Gwaltoli, Indore - MPPCB",19-01-2024 18:00:00,22.4310,75.5213,NH3,4,6,5
India,Madhya Pradesh,Indore,"Maguda Nagar, Indore - IMC",19-01-2024 18:00:00,22.7524,75.8872,PM2.5,49,176,84
India,Madhya Pradesh,Indore,"Maguda Nagar, Indore - IMC",19-01-2024 18:00:00,22.7524,75.8872,CO,21,27,22
India,Madhya Pradesh,Indore,"Regional Park, Indore - IMC",19-01-2024 18:00:00,22.6780,75.8559,CO,NA,NA,NA
India,Madhya Pradesh,Indore,"Residency Area, Indore - IMC",19-01-2024 18:00:00,22.7084,75.8815,NO2,31,55,39
India,Madhya Pradesh,Indore,"Residency Area, Indore - IMC",19-01-2024 18:00:00,22.7084,75.8815,CO,12,16,12
India,Madhya Pradesh,Jabalpur,"Govindh Bhavan Colony, Jabalpur - JMC",19-01-2024 18:00:00,23.163174,79.973061,PM2.5,67,302,144
India,Madhya Pradesh,Jabalpur,"Govindh Bhavan Colony, Jabalpur - JMC",19-01-2024 18:00:00,23.163174,79.973061,PM10,68,151,106
India,Madhya Pradesh,Jabalpur,"Govindh Bhavan Colony, Jabalpur - JMC",19-01-2024 18:00:00,23.163174,79.973061,OZONE,14,90,81
India,Madhya Pradesh,Jabalpur,"Gupteshwar, Jabalpur - JMC",19-01-2024 18:00:00,23.142888,79.916147,PM10,56,161,91
India,Madhya Pradesh,Jabalpur,"Gupteshwar, Jabalpur - JMC",19-01-2024 18:00:00,23.142888,79.916147,OZONE,2,99,75
India,Madhya Pradesh,Jabalpur,"Marhatal, Jabalpur - MPPCB",19-01-2024 18:00:00,23.168606,79.932247,PM2.5,227,349,299
India,Madhya Pradesh,Jabalpur,"Marhatal, Jabalpur - MPPCB",19-01-2024 18:00:00,23.168606,79.932247,SO2,18,32,19
India,Madhya Pradesh,Jabalpur,"Suhagi, Jabalpur - JMC",19-01-2024 18:00:00,23.218135,79.957770,NO2,37,41,39
India,Madhya Pradesh,Jabalpur,"Suhagi, Jabalpur - JMC",19-01-2024 18:00:00,23.218135,79.957770,SO2,7,21,12
India,Madhya Pradesh,Katni,"Gole Bazar, Katni - MPPCB",19-01-2024 18:00:00,23.50016,80.23284,NO2,8,94,42
India,Madhya Pradesh,Maihar,"Sahilara, Maihar - KJS Cements",19-01-2024 18:00:00,24.2613009,80.7231783,PM2.5,61,219,104
India,Madhya Pradesh,Mandideep,"Sector-D Industrial Area, Mandideep - MPPCB",19-01-2024 18:00:00,23.108440,77.511428,PM2.5,38,82,62
India,Madhya Pradesh,Mandideep,"Sector-D Industrial Area, Mandideep - MPPCB",19-01-2024 18:00:00,23.108440,77.511428,NH3,6,9,8
India,Madhya Pradesh,Pithampur,"Sector-2 Industrial Area, Pithampur - MPPCB",19-01-2024 18:00:00,22.624758,75.675238,CO,50,94,51
India,Madhya Pradesh,Sagar,"Deen Dayal Nagar, Sagar - MPPCB",19-01-2024 18:00:00,23.8640158,78.80289321,SO2,4,13,9
India,Madhya Pradesh,Satna,"Bandhavgar Colony, Satna - Birla Cement",19-01-2024 18:00:00,24.58434363,80.8549414,PM2.5,2,18,9
India,Madhya Pradesh,Satna,"Bandhavgar Colony, Satna - Birla Cement",19-01-2024 18:00:00,24.58434363,80.8549414,SO2,5,9,7
India,Madhya Pradesh,Satna,"Bandhavgar Colony, Satna - Birla Cement",19-01-2024 18:00:00,24.58434363,80.8549414,CO,32,42,36
India,Maharashtra,Ahmednagar,"Tarakpur, Ahmednagar - MPCB",19-01-2024 18:00:00,19.10122,74.73339,CO,14,104,41
India,Maharashtra,Akola,"Ramdaspeth, Akola - MPCB",19-01-2024 18:00:00,20.719516,77.000253,PM2.5,61,302,121
India,Maharashtra,Akola,"Ramdaspeth, Akola - MPCB",19-01-2024 18:00:00,20.719516,77.000253,NO2,12,96,24
India,Maharashtra,Akola,"Ramdaspeth, Akola - MPCB",19-01-2024 18:00:00,20.719516,77.000253,OZONE,10,74,59
India,Maharashtra,Amravati,"Shri Shivaji Science College, Amaravati - MPCB",19-01-2024 18:00:00,20.939198,77.765701,NH3,2,5,2
India,Maharashtra,Aurangabad,"MIDC Chilkalthana, Aurangabad - MPCB",19-01-2024 18:00:00,19.875620,75.387310,SO2,1,9,5
India,Maharashtra,Aurangabad,"Rachnakar Colony, Aurangabad - MPCB",19-01-2024 18:00:00,19.863756,75.321188,PM2.5,160,272,231
India,Maharashtra,Badlapur,"Katrap, Badlapur - MPCB",19-01-2024 18:00:00,19.16485,73.23409,PM2.5,84,279,168
India,Maharashtra,Badlapur,"Katrap, Badlapur - MPCB",19-01-2024 18:00:00,19.16485,73.23409,NH3,2,4,3
India,Maharashtra,Belapur,"CBD Belapur, Belapur - MPCB",19-01-2024 18:00:00,19.0243902,73.0406721,PM10,98,116,104
India,Maharashtra,Belapur,"CBD Belapur, Belapur - MPCB",19-01-2024 18:00:00,19.0243902,73.0406721,NO2,23,69,44
India,Maharashtra,Boisar,"Khaira, Boisar - MPCB",19-01-2024 18:00:00,19.786089,72.757971,PM2.5,90,304,176
India,Maharashtra,Jalgaon,"Prabhat Colony, Jalgaon - MPCB",19-01-2024 18:00:00,21.001264,75.565602,PM2.5,63,95,81
India,Maharashtra,Jalgaon,"Prabhat Colony, Jalgaon - MPCB",19-01-2024 18:00:00,21.001264,75.565602,OZONE,29,84,73
India,Maharashtra,Jalna,"Old MIDC, Jalna - MPCB",19-01-2024 18:00:00,19.854616,75.905894,OZONE,20,99,79
India,Maharashtra,Kalyan,"Khadakpada, Kalyan - MPCB",19-01-2024 18:00:00,19.25292,73.142019,NO2,NA,NA,NA
India,Maharashtra,Kalyan,"Khadakpada, Kalyan - MPCB",19-01-2024 18:00:00,19.25292,73.142019,NH3,NA,NA,NA
India,Maharashtra,Kalyan,"Khadakpada, Kalyan - MPCB",19-01-2024 18:00:00,19.25292,73.142019,OZONE,10,44,34
India,Maharashtra,Kolhapur,"Shivaji University, Kolhapur - MPCB",19-01-2024 18:00:00,16.6870449,74.2505872,PM2.5,82,94,86
India,Maharashtra,Kolhapur,"Sinchan Bhavan, Kolhapur - MPCB",19-01-2024 18:00:00,16.7143745,74.2426398,PM2.5,NA,NA,NA
India,Maharashtra,Latur,"Sawe Wadi, Latur - MPCB",19-01-2024 18:00:00,18.39963,76.57452,PM2.5,60,165,108
India,Maharashtra,Latur,"Sawe Wadi, Latur - MPCB",19-01-2024 18:00:00,18.39963,76.57452,NO2,12,131,47
India,Maharashtra,Malegaon,"Mahesh Nagar, Malegaon - MPCB",19-01-2024 18:00:00,20.555712,74.529236,PM2.5,59,165,79
India,Maharashtra,Malegaon,"Mahesh Nagar, Malegaon - MPCB",19-01-2024 18:00:00,20.555712,74.529236,SO2,3,14,10
India,Maharashtra,Malegaon,"Mahesh Nagar, Malegaon - MPCB",19-01-2024 18:00:00,20.555712,74.529236,CO,12,76,28
India,Maharashtra,Mira-Bhayandar,"Bhayandar West, Mira-Bhayandar - MPCB",19-01-2024 18:00:00,19.296481,72.840923,PM10,114,247,151
India,Maharashtra,Mira-Bhayandar,"Bhayandar West, Mira-Bhayandar - MPCB",19-01-2024 18:00:00,19.296481,72.840923,NH3,5,8,6
India,Maharashtra,Mumbai,"Bandra Kurla Complex, Mumbai - MPCB",19-01-2024 18:00:00,19.065931,72.862131,PM2.5,65,148,101
India,Maharashtra,Mumbai,"Bandra Kurla Complex, Mumbai - MPCB",19-01-2024 18:00:00,19.065931,72.862131,NO2,19,59,38
India,Maharashtra,Mumbai,"Borivali East, Mumbai - IITM",19-01-2024 18:00:00,19.23241,72.86895,NO2,42,100,68
India,Maharashtra,Mumbai,"Borivali East, Mumbai - IITM",19-01-2024 18:00:00,19.23241,72.86895,NH3,3,4,3
India,Maharashtra,Mumbai,"Borivali East, Mumbai - IITM",19-01-2024 18:00:00,19.23241,72.86895,CO,1,42,2
India,Maharashtra,Mumbai,"Borivali East, Mumbai - IITM",19-01-2024 18:00:00,19.23241,72.86895,OZONE,6,103,103
India,Maharashtra,Mumbai,"Borivali East, Mumbai - MPCB",19-01-2024 18:00:00,19.2243333,72.8658113,PM10,49,145,77
India,Maharashtra,Mumbai,"Borivali East, Mumbai - MPCB",19-01-2024 18:00:00,19.2243333,72.8658113,SO2,6,9,7
India,Maharashtra,Mumbai,"Chakala-Andheri East, Mumbai - IITM",19-01-2024 18:00:00,19.11074,72.86084,SO2,NA,NA,NA
India,Maharashtra,Mumbai,"Chakala-Andheri East, Mumbai - IITM",19-01-2024 18:00:00,19.11074,72.86084,OZONE,44,72,64
India,Maharashtra,Mumbai,"Chembur, Mumbai - MPCB",19-01-2024 18:00:00,19.0364585,72.8954371,NH3,2,4,3
India,Maharashtra,Mumbai,"Chembur, Mumbai - MPCB",19-01-2024 18:00:00,19.0364585,72.8954371,CO,33,70,39
India,Maharashtra,Mumbai,"Chhatrapati Shivaji Intl. Airport (T2), Mumbai - MPCB",19-01-2024 18:00:00,19.10078,72.87462,NO2,1,51,27
India,Maharashtra,Mumbai,"Chhatrapati Shivaji Intl. Airport (T2), Mumbai - MPCB",19-01-2024 18:00:00,19.10078,72.87462,NH3,4,8,6
India,Maharashtra,Mumbai,"Ghatkopar, Mumbai - BMC",19-01-2024 18:00:00,19.083694,72.920967,NH3,NA,NA,NA
India,Maharashtra,Mumbai,"Ghatkopar, Mumbai - BMC",19-01-2024 18:00:00,19.083694,72.920967,SO2,1,4,2
India,Maharashtra,Mumbai,"Kandivali East, Mumbai - MPCB",19-01-2024 18:00:00,19.205800,72.868200,PM10,88,164,116
India,Maharashtra,Mumbai,"Kherwadi_Bandra East, Mumbai - MPCB",19-01-2024 18:00:00,19.0632143,72.8456324,CO,12,72,25
India,Maharashtra,Mumbai,"Kherwadi_Bandra East, Mumbai - MPCB",19-01-2024 18:00:00,19.0632143,72.8456324,OZONE,1,65,47
India,Maharashtra,Mumbai,"Khindipada-Bhandup West, Mumbai - IITM",19-01-2024 18:00:00,19.1653323,72.922099,PM2.5,84,235,114
India,Maharashtra,Mumbai,"Khindipada-Bhandup West, Mumbai - IITM",19-01-2024 18:00:00,19.1653323,72.922099,SO2,1,24,4
India,Maharashtra,Mumbai,"Kurla, Mumbai - MPCB",19-01-2024 18:00:00,19.0863,72.8888,PM2.5,65,169,104
India,Maharashtra,Mumbai,"Kurla, Mumbai - MPCB",19-01-2024 18:00:00,19.0863,72.8888,OZONE,28,33,30
India,Maharashtra,Mumbai,"Malad West, Mumbai - IITM",19-01-2024 18:00:00,19.19709,72.82204,PM2.5,NA,NA,NA
India,Maharashtra,Mumbai,"Malad West, Mumbai - IITM",19-01-2024 18:00:00,19.19709,72.82204,PM10,NA,NA,NA
India,Maharashtra,Mumbai,"Malad West, Mumbai - IITM",19-01-2024 18:00:00,19.19709,72.82204,NH3,NA,NA,NA
India,Maharashtra,Mumbai,"Mulund West, Mumbai - MPCB",19-01-2024 18:00:00,19.1750,72.9419,PM2.5,34,95,57
India,Maharashtra,Mumbai,"Mulund West, Mumbai - MPCB",19-01-2024 18:00:00,19.1750,72.9419,OZONE,8,8,8
India,Maharashtra,Mumbai,"Powai, Mumbai - MPCB",19-01-2024 18:00:00,19.137500,72.915056,CO,32,48,43
India,Maharashtra,Mumbai,"Powai, Mumbai - MPCB",19-01-2024 18:00:00,19.137500,72.915056,OZONE,27,60,44
India,Maharashtra,Mumbai,"Siddharth Nagar-Worli, Mumbai - IITM",19-01-2024 18:00:00,19.000083,72.813993,PM2.5,17,290,165
India,Maharashtra,Mumbai,"Siddharth Nagar-Worli, Mumbai - IITM",19-01-2024 18:00:00,19.000083,72.813993,NO2,52,138,75
India,Maharashtra,Mumbai,"Siddharth Nagar-Worli, Mumbai - IITM",19-01-2024 18:00:00,19.000083,72.813993,CO,2,24,11
India,Maharashtra,Mumbai,"Sion, Mumbai - MPCB",19-01-2024 18:00:00,19.047000,72.874600,NH3,1,2,1
India,Maharashtra,Mumbai,"Sion, Mumbai - MPCB",19-01-2024 18:00:00,19.047000,72.874600,SO2,31,34,32
India,Maharashtra,Mumbai,"Vasai West, Mumbai - MPCB",19-01-2024 18:00:00,19.383200,72.820400,NH3,4,4,4
India,Maharashtra,Mumbai,"Vasai West, Mumbai - MPCB",19-01-2024 18:00:00,19.383200,72.820400,SO2,19,21,20
India,Maharashtra,Mumbai,"Vasai West, Mumbai - MPCB",19-01-2024 18:00:00,19.383200,72.820400,CO,10,42,17
India,Maharashtra,Mumbai,"Worli, Mumbai - MPCB",19-01-2024 18:00:00,18.9936162,72.8128113,OZONE,7,10,8
India,Maharashtra,Nagpur,"Mahal, Nagpur - MPCB",19-01-2024 18:00:00,21.14472,79.107595,SO2,19,34,27
India,Maharashtra,Nagpur,"Mahal, Nagpur - MPCB",19-01-2024 18:00:00,21.14472,79.107595,OZONE,20,82,66
India,Maharashtra,Nagpur,"Ram Nagar, Nagpur - MPCB",19-01-2024 18:00:00,21.143383,79.048912,OZONE,28,76,62
India,Maharashtra,Nanded,"Sneh Nagar, Nanded - MPCB",19-01-2024 18:00:00,19.173852,77.296291,NO2,34,138,74
India,Maharashtra,Nanded,"Sneh Nagar, Nanded - MPCB",19-01-2024 18:00:00,19.173852,77.296291,NH3,2,3,2
India,Maharashtra,Nashik,"Gangapur Road, Nashik - MPCB",19-01-2024 18:00:00,20.0073285,73.7762427,PM2.5,66,131,89
India,Maharashtra,Nashik,"Hirawadi, Nashik - MPCB",19-01-2024 18:00:00,20.021503,73.813844,NO2,11,82,33
India,Maharashtra,Nashik,"Hirawadi, Nashik - MPCB",19-01-2024 18:00:00,20.021503,73.813844,NH3,1,2,1
India,Maharashtra,Nashik,"Hirawadi, Nashik - MPCB",19-01-2024 18:00:00,20.021503,73.813844,OZONE,10,114,96
India,Maharashtra,Nashik,"MIDC Ambad, Nashik - MPCB",19-01-2024 18:00:00,19.950220,73.731480,NO2,10,54,29
India,Maharashtra,Nashik,"MIDC Ambad, Nashik - MPCB",19-01-2024 18:00:00,19.950220,73.731480,CO,26,57,31
India,Maharashtra,Nashik,"Pandav Nagari, Nashik - MPCB",19-01-2024 18:00:00,19.9591346,73.7788008,NH3,5,8,7
India,Maharashtra,Navi Mumbai,"Mahape, Navi Mumbai - MPCB",19-01-2024 18:00:00,19.1135051,73.008978,CO,28,46,35
India,Maharashtra,Navi Mumbai,"Nerul, Navi Mumbai - MPCB",19-01-2024 18:00:00,19.008751,73.016620,NO2,21,36,27
India,Maharashtra,Navi Mumbai,"Sanpada, Navi Mumbai - MPCB",19-01-2024 18:00:00,19.0575752,73.0151367,NO2,5,26,18
India,Maharashtra,Navi Mumbai,"Sanpada, Navi Mumbai - MPCB",19-01-2024 18:00:00,19.0575752,73.0151367,SO2,10,55,23
India,Maharashtra,Navi Mumbai,"Sector-19A Nerul, Navi Mumbai - IITM",19-01-2024 18:00:00,19.044,73.0325,CO,26,90,46
India,Maharashtra,Navi Mumbai,"Sector-19A Nerul, Navi Mumbai - IITM",19-01-2024 18:00:00,19.044,73.0325,OZONE,1,214,155
India,Maharashtra,Navi Mumbai,"Sector-2E Kalamboli, Navi Mumbai - MPCB",19-01-2024 18:00:00,19.02579,73.10297,PM2.5,NA,NA,NA
India,Maharashtra,Navi Mumbai,"Sector-2E Kalamboli, Navi Mumbai - MPCB",19-01-2024 18:00:00,19.02579,73.10297,SO2,NA,NA,NA
India,Maharashtra,Navi Mumbai,"Tondare-Taloja, Navi Mumbai - MPCB",19-01-2024 18:00:00,19.0630,73.1209,OZONE,NA,NA,NA
India,Maharashtra,Parbhani,"Masoom Colony, Parbhani - MPCB",19-01-2024 18:00:00,19.265594,76.761463,NO2,12,119,36
India,Maharashtra,Parbhani,"Masoom Colony, Parbhani - MPCB",19-01-2024 18:00:00,19.265594,76.761463,NH3,4,4,4
India,Maharashtra,Pimpri-Chinchwad,"Park Street Wakad, Pimpri Chinchwad - MPCB",19-01-2024 18:00:00,18.59051,73.77946,SO2,3,13,6
India,Maharashtra,Pimpri-Chinchwad,"Thergaon, Pimpri Chinchwad - MPCB",19-01-2024 18:00:00,18.616318,73.765797,PM2.5,103,319,208
India,Maharashtra,Pimpri-Chinchwad,"Thergaon, Pimpri Chinchwad - MPCB",19-01-2024 18:00:00,18.616318,73.765797,CO,30,80,43
India,Maharashtra,Pune,"Alandi, Pune - IITM",19-01-2024 18:00:00,18.675076,73.892743,NO2,20,27,24
India,Maharashtra,Pune,"Alandi, Pune - IITM",19-01-2024 18:00:00,18.675076,73.892743,CO,44,66,50
India,Maharashtra,Pune,"Karve Road, Pune - MPCB",19-01-2024 18:00:00,18.5011743,73.8165527,PM2.5,67,79,70
India,Maharashtra,Pune,"Karve Road, Pune - MPCB",19-01-2024 18:00:00,18.5011743,73.8165527,PM10,111,125,114
India,Maharashtra,Pune,"Karve Road, Pune - MPCB",19-01-2024 18:00:00,18.5011743,73.8165527,OZONE,5,6,5
India,Maharashtra,Pune,"Mhada Colony, Pune - IITM",19-01-2024 18:00:00,18.573040,73.927715,PM10,63,121,97
India,Maharashtra,Pune,"Mhada Colony, Pune - IITM",19-01-2024 18:00:00,18.573040,73.927715,OZONE,1,23,21
India,Maharashtra,Pune,"Revenue Colony-Shivajinagar, Pune - IITM",19-01-2024 18:00:00,18.530085,73.849598,PM2.5,NA,NA,NA
India,Maharashtra,Pune,"Revenue Colony-Shivajinagar, Pune - IITM",19-01-2024 18:00:00,18.530085,73.849598,CO,96,111,104
India,Maharashtra,Pune,"Revenue Colony-Shivajinagar, Pune - IITM",19-01-2024 18:00:00,18.530085,73.849598,OZONE,13,54,46
India,Maharashtra,Pune,"Savitribai Phule Pune University, Pune - MPCB",19-01-2024 18:00:00,18.547056,73.826908,SO2,2,6,4
India,Maharashtra,Sangli,"Vijay Nagar, Sangli - MPCB",19-01-2024 18:00:00, 16.5038,74.3623,PM10,54,162,116
India,Maharashtra,Solapur,"Dnyaneshwar Nagar, Solapur - MPCB",19-01-2024 18:00:00,17.6336264,75.9132495,CO,20,62,20
India,Maharashtra,Solapur,"Ratandeep Housing Society, Solapur - MPCB",19-01-2024 18:00:00,17.65439,75.90649,PM2.5,NA,NA,NA
India,Maharashtra,Solapur,"Ratandeep Housing Society, Solapur - MPCB",19-01-2024 18:00:00,17.65439,75.90649,NH3,9,13,10
India,Maharashtra,Solapur,"Solapur, Solapur - MPCB",19-01-2024 18:00:00,17.6599188,75.9063906,PM10,90,146,118
India,Maharashtra,Thane,"Kasarvadavali, Thane - MPCB",19-01-2024 18:00:00,19.26777,72.97182,SO2,11,35,18
India,Maharashtra,Thane,"Upvan Fort, Thane - MPCB",19-01-2024 18:00:00,19.222279,72.957979,NO2,15,82,38
India,Maharashtra,Ulhasnagar,"Sidhi Vinayak Nagar, Ulhasnagar - MPCB",19-01-2024 18:00:00,19.235581,73.159121,PM10,119,166,141
India,Maharashtra,Ulhasnagar,"Sidhi Vinayak Nagar, Ulhasnagar - MPCB",19-01-2024 18:00:00,19.235581,73.159121,NO2,17,52,30
India,Maharashtra,Ulhasnagar,"Sidhi Vinayak Nagar, Ulhasnagar - MPCB",19-01-2024 18:00:00,19.235581,73.159121,SO2,17,108,41
India,Maharashtra,Ulhasnagar,"Sidhi Vinayak Nagar, Ulhasnagar - MPCB",19-01-2024 18:00:00,19.235581,73.159121,OZONE,2,198,168
India,Maharashtra,Virar,"Bolinj, Virar - MPCB",19-01-2024 18:00:00,19.4458210,72.7988231,PM2.5,61,99,74
India,Maharashtra,Virar,"Bolinj, Virar - MPCB",19-01-2024 18:00:00,19.4458210,72.7988231,NO2,18,108,35
India,Maharashtra,Virar,"Bolinj, Virar - MPCB",19-01-2024 18:00:00,19.4458210,72.7988231,CO,19,124,22
India,Manipur,Imphal,"DM College of Science, Imphal - Manipur PCB",19-01-2024 18:00:00,24.8207389,93.9423085,PM2.5,17,87,33
India,Manipur,Imphal,"Manipur University, Imphal - Manipur PCB",19-01-2024 18:00:00,24.7524239,93.9286218,PM2.5,NA,NA,NA
India,Meghalaya,Shillong,"JN Stadium, Shillong - Meghalaya PCB",19-01-2024 18:00:00,25.5803419,91.8942571,PM10,23,121,58
India,Meghalaya,Shillong,"JN Stadium, Shillong - Meghalaya PCB",19-01-2024 18:00:00,25.5803419,91.8942571,NH3,2,5,3
India,Meghalaya,Shillong,"JN Stadium, Shillong - Meghalaya PCB",19-01-2024 18:00:00,25.5803419,91.8942571,CO,19,103,34
India,Meghalaya,Shillong,"Lumpyngngad, Shillong - Meghalaya PCB",19-01-2024 18:00:00,25.5586,91.8985,CO,6,42,22
India,Nagaland,Kohima,"PWD Juction, Kohima - NPCB",19-01-2024 18:00:00,25.6635413,94.0989878,PM2.5,49,221,96
India,Nagaland,Kohima,"PWD Juction, Kohima - NPCB",19-01-2024 18:00:00,25.6635413,94.0989878,PM10,49,148,81
India,Odisha,Angul,"Hakimapada, Angul - OSPCB",19-01-2024 18:00:00,20.832874,85.104082,NO2,20,63,37
India,Odisha,Balasore,"Kalidaspur, Balasore - OSPCB",19-01-2024 18:00:00,21.51161,86.89088,SO2,16,46,24
India,Odisha,Balasore,"Kalidaspur, Balasore - OSPCB",19-01-2024 18:00:00,21.51161,86.89088,OZONE,7,57,41
India,Odisha,Barbil,"Forest Office, Barbil - OSPCB",19-01-2024 18:00:00,22.1166054,85.3945546,NO2,3,351,32
India,Odisha,Barbil,"Forest Office, Barbil - OSPCB",19-01-2024 18:00:00,22.1166054,85.3945546,NH3,1,65,7
India,Odisha,Baripada,"Meher Colony, Baripada - OSPCB",19-01-2024 18:00:00,21.941841,86.728318,PM10,78,134,103
India,Odisha,Baripada,"Meher Colony, Baripada - OSPCB",19-01-2024 18:00:00,21.941841,86.728318,NO2,2,4,3
India,Odisha,Bhubaneswar,"Lingraj Mandir, Bhubaneswar - OSPCB",19-01-2024 18:00:00,20.240790,85.836784,PM10,NA,NA,NA
India,Odisha,Bhubaneswar,"Lingraj Mandir, Bhubaneswar - OSPCB",19-01-2024 18:00:00,20.240790,85.836784,NO2,NA,NA,NA
India,Odisha,Bhubaneswar,"Lingraj Mandir, Bhubaneswar - OSPCB",19-01-2024 18:00:00,20.240790,85.836784,SO2,NA,NA,NA
India,Odisha,Bhubaneswar,"Lingraj Mandir, Bhubaneswar - OSPCB",19-01-2024 18:00:00,20.240790,85.836784,OZONE,3,100,79
India,Odisha,Bileipada,"Tata Township, Bileipada - OSPCB",19-01-2024 18:00:00,22.06156703,85.47409613,SO2,2,35,13
India,Odisha,Byasanagar,"Ferro Chrome Colony, Byasanagar - OSPCB",19-01-2024 18:00:00,20.94185,86.11510,OZONE,22,81,68
India,Odisha,Cuttack,"CDA Area, Cuttack - OSPCB",19-01-2024 18:00:00,20.48891     ,85.84768     ,PM10,72,194,113
India,Odisha,Cuttack,"CDA Area, Cuttack - OSPCB",19-01-2024 18:00:00,20.48891     ,85.84768     ,NO2,23,47,28
India,Odisha,Cuttack,"CDA Area, Cuttack - OSPCB",19-01-2024 18:00:00,20.48891     ,85.84768     ,OZONE,26,77,61
India,Odisha,Nayagarh,"Dabuna, Nayagarh - OSPCB",19-01-2024 18:00:00,21.847279,85.416905,PM2.5,46,113,72
India,Odisha,Rairangpur,"Divisional Forest Office, Rairangpur - OSPCB",19-01-2024 18:00:00,22.265816,86.174829,PM10,61,120,75
India,Odisha,Rairangpur,"Divisional Forest Office, Rairangpur - OSPCB",19-01-2024 18:00:00,22.265816,86.174829,NH3,3,3,3
India,Odisha,Rourkela,"Fertilizer Township, Rourkela - OSPCB",19-01-2024 18:00:00,22.18972222,84.86277778,PM2.5,54,102,82
India,Odisha,Rourkela,"Fertilizer Township, Rourkela - OSPCB",19-01-2024 18:00:00,22.18972222,84.86277778,PM10,65,117,86
India,Odisha,Rourkela,"Raghunathpali, Rourkela - OSPCB",19-01-2024 18:00:00,22.220833,84.809444,NH3,1,7,5
India,Odisha,Rourkela,"Sector-2, Rourkela - OSPCB",19-01-2024 18:00:00,22.24500000,84.88111111,CO,22,52,49
India,Odisha,Suakati,"OMC Colony, Suakati - OSPCB",19-01-2024 18:00:00,21.606865,85.510538,NH3,3,5,4
India,Odisha,Suakati,"OMC Colony, Suakati - OSPCB",19-01-2024 18:00:00,21.606865,85.510538,SO2,NA,NA,NA
India,Odisha,Talcher,"Talcher Coalfields,Talcher - OSPCB",19-01-2024 18:00:00,20.9360711,85.1707021,PM2.5,27,326,129
India,Odisha,Tensa,"Barsua Iron Ore Mines, Tensa - OSPCB",19-01-2024 18:00:00,21.869985,85.167016,NO2,58,76,66
India,Odisha,Tensa,"Barsua Iron Ore Mines, Tensa - OSPCB",19-01-2024 18:00:00,21.869985,85.167016,SO2,10,18,14
India,Puducherry,Puducherry,"Jawahar Nagar, Puducherry - PPCC",19-01-2024 18:00:00,11.9309,79.8027,PM2.5,19,62,30
India,Puducherry,Puducherry,"Jawahar Nagar, Puducherry - PPCC",19-01-2024 18:00:00,11.9309,79.8027,PM10,19,59,34
India,Puducherry,Puducherry,"Jawahar Nagar, Puducherry - PPCC",19-01-2024 18:00:00,11.9309,79.8027,NO2,6,27,14
India,Punjab,Amritsar,"Golden Temple, Amritsar - PPCB",19-01-2024 18:00:00,31.620000,74.876512,PM10,108,180,129
India,Punjab,Amritsar,"Golden Temple, Amritsar - PPCB",19-01-2024 18:00:00,31.620000,74.876512,OZONE,25,31,28
India,Punjab,Bathinda,"Hardev Nagar, Bathinda - PPCB",19-01-2024 18:00:00,30.233011,74.907758,CO,7,96,29
India,Punjab,Jalandhar,"Civil Line, Jalandhar - PPCB",19-01-2024 18:00:00,31.321907,75.578914,PM10,NA,NA,NA
India,Punjab,Khanna,"Kalal Majra, Khanna - PPCB",19-01-2024 18:00:00,30.736056 ,76.209694,PM10,70,130,96
India,Punjab,Khanna,"Kalal Majra, Khanna - PPCB",19-01-2024 18:00:00,30.736056 ,76.209694,CO,6,24,18
India,Punjab,Ludhiana,"Punjab Agricultural University, Ludhiana - PPCB",19-01-2024 18:00:00,30.9028,75.8086,SO2,1,16,9
India,Punjab,Mandi Gobindgarh,"RIMT University, Mandi Gobindgarh - PPCB",19-01-2024 18:00:00,30.649961,76.331442,PM2.5,76,362,190
India,Punjab,Mandi Gobindgarh,"RIMT University, Mandi Gobindgarh - PPCB",19-01-2024 18:00:00,30.649961,76.331442,SO2,NA,NA,NA
India,Punjab,Mandi Gobindgarh,"RIMT University, Mandi Gobindgarh - PPCB",19-01-2024 18:00:00,30.649961,76.331442,OZONE,24,34,31
India,Punjab,Rupnagar,"Ratanpura, Rupnagar - Ambuja Cements",19-01-2024 18:00:00,31.0325454,76.5623046,CO,76,112,98
India,Rajasthan,Ajmer,"Civil Lines,  Ajmer - RSPCB",19-01-2024 18:00:00,26.470859,74.646594,PM2.5,3,154,80
India,Rajasthan,Ajmer,"Civil Lines,  Ajmer - RSPCB",19-01-2024 18:00:00,26.470859,74.646594,CO,17,73,32
India,Rajasthan,Ajmer,"Civil Lines,  Ajmer - RSPCB",19-01-2024 18:00:00,26.470859,74.646594,OZONE,2,53,32
India,Rajasthan,Alwar,"Moti Doongri, Alwar - RSPCB",19-01-2024 18:00:00,27.554793,76.611536,PM2.5,33,152,75
India,Rajasthan,Alwar,"Moti Doongri, Alwar - RSPCB",19-01-2024 18:00:00,27.554793,76.611536,NO2,33,50,40
India,Rajasthan,Alwar,"Moti Doongri, Alwar - RSPCB",19-01-2024 18:00:00,27.554793,76.611536,OZONE,7,17,12
India,Rajasthan,Baran,"Bamboliya, Baran - RSPCB",19-01-2024 18:00:00,25.106006,76.469948,NO2,2,35,25
India,Rajasthan,Baran,"Bamboliya, Baran - RSPCB",19-01-2024 18:00:00,25.106006,76.469948,NH3,2,6,5
India,Rajasthan,Barmer,"Railway Colony, Barmer - RSPCB",19-01-2024 18:00:00,25.747299,71.393989,PM10,40,126,88
India,Rajasthan,Barmer,"Railway Colony, Barmer - RSPCB",19-01-2024 18:00:00,25.747299,71.393989,SO2,1,21,12
India,Rajasthan,Bharatpur,"Krishna Nagar, Bharatpur - RSPCB",19-01-2024 18:00:00,27.215415,77.50873,PM10,121,203,144
India,Rajasthan,Bhilwara,"Pratap Nagar, Bhilwara - RSPCB",19-01-2024 18:00:00,25.339605,74.618883,NH3,3,6,4
India,Rajasthan,Bhilwara,"Pratap Nagar, Bhilwara - RSPCB",19-01-2024 18:00:00,25.339605,74.618883,SO2,4,50,17
India,Rajasthan,Bikaner,"MM Ground, Bikaner - RSPCB",19-01-2024 18:00:00,28.018792,73.292658,PM2.5,187,396,318
India,Rajasthan,Bikaner,"MM Ground, Bikaner - RSPCB",19-01-2024 18:00:00,28.018792,73.292658,PM10,137,428,240
India,Rajasthan,Bikaner,"MM Ground, Bikaner - RSPCB",19-01-2024 18:00:00,28.018792,73.292658,OZONE,1,87,47
India,Rajasthan,Bundi,"New Colony, Bundi - RSPCB",19-01-2024 18:00:00,25.435774,75.644272,OZONE,5,97,55
India,Rajasthan,Chittorgarh,"Shastri Nagar, Chittorgarh - RSPCB",19-01-2024 18:00:00,24.892047,74.623527,OZONE,6,87,61
India,Rajasthan,Churu,"Subash Chowk, Churu - RSPCB",19-01-2024 18:00:00,28.296139,74.961696,CO,57,107,79
India,Rajasthan,Dausa,"Khatikan Mohalla, Dausa - RSPCB",19-01-2024 18:00:00,26.895552,76.334753,PM10,38,165,98
India,Rajasthan,Dholpur,"Raja Ganj, Dholpur - RSPCB",19-01-2024 18:00:00,26.699557,77.898881,PM10,102,161,124
India,Rajasthan,Dholpur,"Raja Ganj, Dholpur - RSPCB",19-01-2024 18:00:00,26.699557,77.898881,CO,23,54,32
India,Rajasthan,Dholpur,"Raja Ganj, Dholpur - RSPCB",19-01-2024 18:00:00,26.699557,77.898881,OZONE,12,42,33
India,Rajasthan,Dungarpur,"Bhoiwada, Dungarpur - RSPCB",19-01-2024 18:00:00,23.837789,73.714926,NH3,7,8,7
India,Rajasthan,Hanumangarh,"Housing Board, Hanumangarh - RSPCB",19-01-2024 18:00:00,29.610750,74.283608,NH3,12,20,15
India,Rajasthan,Hanumangarh,"Housing Board, Hanumangarh - RSPCB",19-01-2024 18:00:00,29.610750,74.283608,SO2,2,7,4
India,Rajasthan,Jaipur,"Adarsh Nagar, Jaipur - RSPCB",19-01-2024 18:00:00,26.902909,75.836858,PM2.5,69,242,133
India,Rajasthan,Jaipur,"Adarsh Nagar, Jaipur - RSPCB",19-01-2024 18:00:00,26.902909,75.836858,PM10,73,159,104
India,Rajasthan,Jaipur,"Adarsh Nagar, Jaipur - RSPCB",19-01-2024 18:00:00,26.902909,75.836858,NO2,27,112,54
India,Rajasthan,Jaipur,"Mansarovar Sector-12, Jaipur - RSPCB",19-01-2024 18:00:00,26.843698,75.766894,CO,38,104,62
India,Rajasthan,Jaipur,"RIICO Sitapura, Jaipur - RSPCB",19-01-2024 18:00:00,26.786682,75.827928,PM10,43,204,114
India,Rajasthan,Jaipur,"RIICO Sitapura, Jaipur - RSPCB",19-01-2024 18:00:00,26.786682,75.827928,OZONE,1,74,40
India,Rajasthan,Jaisalmer,"Sadar Bazar, Jaisalmer - RSPCB",19-01-2024 18:00:00,26.912329,70.909168,CO,20,64,35
India,Rajasthan,Jaisalmer,"Sadar Bazar, Jaisalmer - RSPCB",19-01-2024 18:00:00,26.912329,70.909168,OZONE,4,100,88
India,Rajasthan,Jalore,"Mudtra Sili, Jalore - RSPCB",19-01-2024 18:00:00,25.344694,72.626208,NH3,7,14,10
India,Rajasthan,Jhalawar,"Rajlaxmi Nagar, Jhalawar - RSPCB",19-01-2024 18:00:00,24.588397,76.172782,SO2,3,11,5
India,Rajasthan,Jhalawar,"Rajlaxmi Nagar, Jhalawar - RSPCB",19-01-2024 18:00:00,24.588397,76.172782,CO,30,56,39
India,Rajasthan,Jhunjhunu,"Indra Nagar, Jhunjhunu - RSPCB",19-01-2024 18:00:00,28.108988,75.386577,PM2.5,63,330,210
India,Rajasthan,Jodhpur,"Collectorate, Jodhpur - RSPCB",19-01-2024 18:00:00,26.268249,73.0193853,NO2,22,24,23
India,Rajasthan,Jodhpur,"Digari Kalan, Jodhpur - RSPCB",19-01-2024 18:00:00,26.295810,73.082283,PM10,62,164,111
India,Rajasthan,Jodhpur,"Jhalamand, Jodhpur - RSPCB",19-01-2024 18:00:00,26.215415,73.070156,PM10,68,235,128
India,Rajasthan,Jodhpur,"Jhalamand, Jodhpur - RSPCB",19-01-2024 18:00:00,26.215415,73.070156,NH3,6,9,8
India,Rajasthan,Karauli,"Satyawati Vihar, Karauli - RSPCB",19-01-2024 18:00:00,26.506177,77.025989,NO2,3,25,11
India,Rajasthan,Karauli,"Satyawati Vihar, Karauli - RSPCB",19-01-2024 18:00:00,26.506177,77.025989,NH3,8,9,8
India,Rajasthan,Kota,"Dhanmandi, Kota - RSPCB",19-01-2024 18:00:00,25.164090,75.858137,NO2,31,350,93
India,Rajasthan,Kota,"Nayapura, Kota - RSPCB",19-01-2024 18:00:00,25.196024,75.855668,NO2,14,96,41
India,Rajasthan,Kota,"Nayapura, Kota - RSPCB",19-01-2024 18:00:00,25.196024,75.855668,NH3,4,11,8
India,Rajasthan,Kota,"Shrinath Puram, Kota - RSPCB",19-01-2024 18:00:00,25.14389,75.821256,PM10,75,192,128
India,Rajasthan,Nagaur,"Karni Colony, Nagaur - RSPCB",19-01-2024 18:00:00,27.213494,73.734444,SO2,2,11,5
India,Rajasthan,Pali,"Indira Colony Vistar, Pali - RSPCB",19-01-2024 18:00:00,25.771061, 73.340227,CO,4,68,36
India,Rajasthan,Pratapgarh,"Pragati Nagar, Pratapgarh - RSPCB",19-01-2024 18:00:00,24.041198,74.780702,PM2.5,39,211,129
India,Rajasthan,Sirohi,"Vedhaynath Colony, Sirohi - RSPCB",19-01-2024 18:00:00,24.885261,72.857549,OZONE,2,126,95
India,Rajasthan,Udaipur,"Ashok Nagar, Udaipur - RSPCB",19-01-2024 18:00:00,24.5886166,73.6321397,NO2,37,127,75
India,Sikkim,Gangtok,"Zero Point GICI, Gangtok - SSPCB",19-01-2024 18:00:00,27.338530,88.614099,PM2.5,18,35,24
India,Sikkim,Gangtok,"Zero Point GICI, Gangtok - SSPCB",19-01-2024 18:00:00,27.338530,88.614099,PM10,15,66,33
India,Sikkim,Gangtok,"Zero Point GICI, Gangtok - SSPCB",19-01-2024 18:00:00,27.338530,88.614099,SO2,NA,NA,NA
India,TamilNadu,Ariyalur,"Keelapalur, Ariyalur - TNPCB",19-01-2024 18:00:00,11.06825,79.07033,SO2,NA,NA,NA
India,TamilNadu,Chengalpattu,"Crescent University, Chengalpattu - TNPCB",19-01-2024 18:00:00,12.8777316,80.0834807,OZONE,6,6,6
India,TamilNadu,Chennai,"Alandur Bus Depot, Chennai - CPCB",19-01-2024 18:00:00,12.9099161,80.1076538,CO,1,130,104
India,TamilNadu,Chennai,"Arumbakkam, Chennai - TNPCB",19-01-2024 18:00:00,13.0664,80.2112 ,NH3,1,4,3
India,TamilNadu,Chennai,"Kodungaiyur, Chennai - TNPCB",19-01-2024 18:00:00,13.1278,80.2642,PM2.5,9,74,29
India,TamilNadu,Chennai,"Kodungaiyur, Chennai - TNPCB",19-01-2024 18:00:00,13.1278,80.2642,NO2,7,22,14
India,TamilNadu,Chennai,"Kodungaiyur, Chennai - TNPCB",19-01-2024 18:00:00,13.1278,80.2642,NH3,3,4,4
India,TamilNadu,Chennai,"Kodungaiyur, Chennai - TNPCB",19-01-2024 18:00:00,13.1278,80.2642,CO,13,40,30
India,TamilNadu,Chennai,"Manali, Chennai - CPCB",19-01-2024 18:00:00,13.164544,80.26285,PM10,30,147,85
India,TamilNadu,Chennai,"Manali, Chennai - CPCB",19-01-2024 18:00:00,13.164544,80.26285,NH3,1,10,5
India,TamilNadu,Chennai,"Manali, Chennai - CPCB",19-01-2024 18:00:00,13.164544,80.26285,SO2,4,12,7
India,TamilNadu,Chennai,"Perungudi, Chennai - TNPCB",19-01-2024 18:00:00,12.9533,80.2357,PM2.5,25,151,52
India,TamilNadu,Chennai,"Royapuram, Chennai - TNPCB",19-01-2024 18:00:00,13.1036,80.2909,PM10,22,129,49
India,TamilNadu,Chennai,"Royapuram, Chennai - TNPCB",19-01-2024 18:00:00,13.1036,80.2909,NH3,1,1,1
India,TamilNadu,Chennai,"Velachery Res. Area, Chennai - CPCB",19-01-2024 18:00:00,13.0052189,80.2398125,PM10,33,62,45
India,TamilNadu,Coimbatore,"PSG College of Arts and Science, Coimbatore - TNPCB",19-01-2024 18:00:00,11.0328,77.0349,OZONE,3,5,4
India,TamilNadu,Cuddalore,"Semmandalam, Cuddalore - TNPCB",19-01-2024 18:00:00,11.7637683,79.7499835,NO2,4,25,12
India,TamilNadu,Gummidipoondi,"Anthoni Pillai Nagar, Gummidipoondi - TNPCB",19-01-2024 18:00:00,13.4127,80.1081,NH3,2,2,2
India,TamilNadu,Ooty,"Bombay Castel, Ooty - TNPCB",19-01-2024 18:00:00,11.4068288,76.7138973,PM2.5,18,183,87
India,TamilNadu,Ooty,"Bombay Castel, Ooty - TNPCB",19-01-2024 18:00:00,11.4068288,76.7138973,PM10,16,124,73
India,TamilNadu,Palkalaiperur,"Bharathidasan University, Palkalaiperur - TNPCB",19-01-2024 18:00:00,10.681158,78.741746,PM10,19,85,31
India,TamilNadu,Ramanathapuram,"Chalai Bazaar, Ramanathapuram - TNPCB",19-01-2024 18:00:00,9.36399,78.831977,PM2.5,6,31,18
India,TamilNadu,Ramanathapuram,"Chalai Bazaar, Ramanathapuram - TNPCB",19-01-2024 18:00:00,9.36399,78.831977,OZONE,13,14,14
India,TamilNadu,Thoothukudi,"Meelavittan, Thoothukudi - TNPCB",19-01-2024 18:00:00,8.816428 ,78.099039,PM10,16,44,26
India,TamilNadu,Tiruchirappalli,"St Joseph College, Tiruchirappalli - TNPCB",19-01-2024 18:00:00,10.830158,78.691849,NO2,4,5,5
India,TamilNadu,Tiruchirappalli,"St Joseph College, Tiruchirappalli - TNPCB",19-01-2024 18:00:00,10.830158,78.691849,NH3,3,3,3
India,TamilNadu,Tirupur,"Kumaran College, Tirupur - TNPCB",19-01-2024 18:00:00,11.0973603,77.3228673,NO2,5,51,16
India,TamilNadu,Tirupur,"Kumaran College, Tirupur - TNPCB",19-01-2024 18:00:00,11.0973603,77.3228673,CO,16,88,23
India,TamilNadu,Vellore,"Vasanthapuram, Vellore - TNPCB",19-01-2024 18:00:00,12.909494,79.131861,NO2,3,14,8
India,TamilNadu,Virudhunagar,"Collectorate Office, Virudhunagar - TNPCB",19-01-2024 18:00:00,9.559382,77.948828,NO2,NA,NA,NA
India,Telangana,Hyderabad,"Bollaram Industrial Area, Hyderabad - TSPCB",19-01-2024 18:00:00,17.540891,78.358528,PM2.5,58,147,82
India,Telangana,Hyderabad,"Bollaram Industrial Area, Hyderabad - TSPCB",19-01-2024 18:00:00,17.540891,78.358528,PM10,NA,NA,NA
India,Telangana,Hyderabad,"Bollaram Industrial Area, Hyderabad - TSPCB",19-01-2024 18:00:00,17.540891,78.358528,CO,23,46,29
India,Telangana,Hyderabad,"Central University, Hyderabad - TSPCB",19-01-2024 18:00:00,17.460103,78.334361,SO2,3,10,6
India,Telangana,Hyderabad,"Central University, Hyderabad - TSPCB",19-01-2024 18:00:00,17.460103,78.334361,OZONE,3,4,4
India,Telangana,Hyderabad,"ECIL Kapra, Hyderabad - TSPCB",19-01-2024 18:00:00,17.470431,78.566959,PM2.5,42,62,57
India,Telangana,Hyderabad,"ECIL Kapra, Hyderabad - TSPCB",19-01-2024 18:00:00,17.470431,78.566959,PM10,65,92,74
India,Telangana,Hyderabad,"ECIL Kapra, Hyderabad - TSPCB",19-01-2024 18:00:00,17.470431,78.566959,CO,7,34,16
India,Telangana,Hyderabad,"ICRISAT Patancheru, Hyderabad - TSPCB",19-01-2024 18:00:00,17.518400,78.278777,PM2.5,41,73,55
India,Telangana,Hyderabad,"ICRISAT Patancheru, Hyderabad - TSPCB",19-01-2024 18:00:00,17.518400,78.278777,SO2,4,16,8
India,Telangana,Hyderabad,"IITH Kandi, Hyderabad - TSPCB",19-01-2024 18:00:00,17.585705,78.126199,PM2.5,10,45,19
India,Telangana,Hyderabad,"IITH Kandi, Hyderabad - TSPCB",19-01-2024 18:00:00,17.585705,78.126199,NO2,9,10,10
India,Telangana,Hyderabad,"IITH Kandi, Hyderabad - TSPCB",19-01-2024 18:00:00,17.585705,78.126199,OZONE,28,37,30
India,Telangana,Hyderabad,"Kompally Municipal Office, Hyderabad - TSPCB",19-01-2024 18:00:00,17.544899,78.486949,PM2.5,NA,NA,NA
India,Telangana,Hyderabad,"Kompally Municipal Office, Hyderabad - TSPCB",19-01-2024 18:00:00,17.544899,78.486949,OZONE,23,65,51
India,Telangana,Hyderabad,"Nacharam_TSIIC IALA, Hyderabad - TSPCB",19-01-2024 18:00:00,17.429398,78.569354,PM10,50,124,76
India,Telangana,Hyderabad,"New Malakpet, Hyderabad - TSPCB",19-01-2024 18:00:00,17.37206,78.50864,NO2,21,29,24
India,Telangana,Hyderabad,"Ramachandrapuram, Hyderabad - TSPCB",19-01-2024 18:00:00,17.528544,78.286195,PM2.5,35,43,41
India,Telangana,Hyderabad,"Ramachandrapuram, Hyderabad - TSPCB",19-01-2024 18:00:00,17.528544,78.286195,CO,30,37,35
India,Telangana,Hyderabad,"Sanathnagar, Hyderabad - TSPCB",19-01-2024 18:00:00,17.4559458,78.4332152,CO,38,54,45
India,Telangana,Hyderabad,"Somajiguda, Hyderabad - TSPCB",19-01-2024 18:00:00,17.417094,78.457437,NO2,NA,NA,NA
India,Telangana,Hyderabad,"Somajiguda, Hyderabad - TSPCB",19-01-2024 18:00:00,17.417094,78.457437,NH3,NA,NA,NA
India,Telangana,Hyderabad,"Zoo Park, Hyderabad - TSPCB",19-01-2024 18:00:00,17.349694,78.451437,NO2,NA,NA,NA
India,Telangana,Hyderabad,"Zoo Park, Hyderabad - TSPCB",19-01-2024 18:00:00,17.349694,78.451437,CO,40,40,40
India,Tripura,Agartala,"Bardowali, Agartala - Tripura SPCB",19-01-2024 18:00:00,23.8175497,91.2726974,SO2,23,25,24
India,Tripura,Agartala,"Bardowali, Agartala - Tripura SPCB",19-01-2024 18:00:00,23.8175497,91.2726974,CO,32,98,37
India,Uttar_Pradesh,Agra,"Manoharpur, Agra - UPPCB",19-01-2024 18:00:00,27.23711,78.01936,PM2.5,32,53,42
India,Uttar_Pradesh,Agra,"Manoharpur, Agra - UPPCB",19-01-2024 18:00:00,27.23711,78.01936,NH3,1,1,1
India,Uttar_Pradesh,Agra,"Rohta, Agra - UPPCB",19-01-2024 18:00:00,27.106972,78.000111,PM10,47,110,63
India,Uttar_Pradesh,Agra,"Rohta, Agra - UPPCB",19-01-2024 18:00:00,27.106972,78.000111,NO2,10,10,10
India,Uttar_Pradesh,Agra,"Rohta, Agra - UPPCB",19-01-2024 18:00:00,27.106972,78.000111,NH3,1,2,2
India,Uttar_Pradesh,Agra,"Sector-3B Avas Vikas Colony, Agra - UPPCB",19-01-2024 18:00:00,27.19412,77.96237,NH3,4,6,5
India,Uttar_Pradesh,Agra,"Shahjahan Garden, Agra - UPPCB",19-01-2024 18:00:00,27.169338,78.03582,PM10,42,76,57
India,Uttar_Pradesh,Agra,"Shahjahan Garden, Agra - UPPCB",19-01-2024 18:00:00,27.169338,78.03582,OZONE,1,11,6
India,Uttar_Pradesh,Agra,"Shastripuram, Agra - UPPCB",19-01-2024 18:00:00,27.19862,77.92066,SO2,10,16,14
India,Uttar_Pradesh,Bareilly,"Civil Lines, Bareilly - UPPCB",19-01-2024 18:00:00,28.359581,79.414455,SO2,38,40,39
India,Uttar_Pradesh,Bareilly,"Rajendra Nagar, Bareilly - UPPCB",19-01-2024 18:00:00,28.38910936,79.42963708,NO2,26,56,37
India,Uttar_Pradesh,Firozabad,"Nagla Bhau, Firozabad - UPPCB",19-01-2024 18:00:00,27.168897,78.376960,NH3,2,2,2
India,Uttar_Pradesh,Firozabad,"Nagla Bhau, Firozabad - UPPCB",19-01-2024 18:00:00,27.168897,78.376960,SO2,10,19,14
India,Uttar_Pradesh,Firozabad,"Nagla Bhau, Firozabad - UPPCB",19-01-2024 18:00:00,27.168897,78.376960,OZONE,17,30,18
India,Uttar_Pradesh,Ghaziabad,"Indirapuram, Ghaziabad - UPPCB",19-01-2024 18:00:00,28.646233,77.358075,PM2.5,124,306,235
India,Uttar_Pradesh,Ghaziabad,"Indirapuram, Ghaziabad - UPPCB",19-01-2024 18:00:00,28.646233,77.358075,CO,4,98,41
India,Uttar_Pradesh,Ghaziabad,"Indirapuram, Ghaziabad - UPPCB",19-01-2024 18:00:00,28.646233,77.358075,OZONE,2,8,4
India,Uttar_Pradesh,Ghaziabad,"Loni, Ghaziabad - UPPCB",19-01-2024 18:00:00,28.757294,77.278792,NH3,3,5,4
India,Uttar_Pradesh,Ghaziabad,"Sanjay Nagar, Ghaziabad - UPPCB",19-01-2024 18:00:00,28.685382,77.453839,PM10,112,218,157
India,Uttar_Pradesh,Ghaziabad,"Sanjay Nagar, Ghaziabad - UPPCB",19-01-2024 18:00:00,28.685382,77.453839,NH3,13,16,14
India,Uttar_Pradesh,Ghaziabad,"Sanjay Nagar, Ghaziabad - UPPCB",19-01-2024 18:00:00,28.685382,77.453839,OZONE,3,11,7
India,Uttar_Pradesh,Ghaziabad,"Vasundhara, Ghaziabad - UPPCB",19-01-2024 18:00:00,28.6603346,77.3572563,PM10,107,180,153
India,Uttar_Pradesh,Ghaziabad,"Vasundhara, Ghaziabad - UPPCB",19-01-2024 18:00:00,28.6603346,77.3572563,NO2,55,103,68
India,Uttar_Pradesh,Ghaziabad,"Vasundhara, Ghaziabad - UPPCB",19-01-2024 18:00:00,28.6603346,77.3572563,CO,18,102,34
India,Uttar_Pradesh,Ghaziabad,"Vasundhara, Ghaziabad - UPPCB",19-01-2024 18:00:00,28.6603346,77.3572563,OZONE,2,13,8
India,Uttar_Pradesh,Greater Noida,"Knowledge Park - III, Greater Noida - UPPCB",19-01-2024 18:00:00,28.47272,77.482000,PM2.5,NA,NA,NA
India,Uttar_Pradesh,Greater Noida,"Knowledge Park - III, Greater Noida - UPPCB",19-01-2024 18:00:00,28.47272,77.482000,PM10,NA,NA,NA
India,Uttar_Pradesh,Greater Noida,"Knowledge Park - III, Greater Noida - UPPCB",19-01-2024 18:00:00,28.47272,77.482000,NO2,NA,NA,NA
India,Uttar_Pradesh,Greater Noida,"Knowledge Park - III, Greater Noida - UPPCB",19-01-2024 18:00:00,28.47272,77.482000,OZONE,8,17,13
India,Uttar_Pradesh,Hapur,"Anand Vihar, Hapur - UPPCB",19-01-2024 18:00:00,28.725645,77.749675,PM2.5,73,197,118
India,Uttar_Pradesh,Hapur,"Anand Vihar, Hapur - UPPCB",19-01-2024 18:00:00,28.725645,77.749675,PM10,88,152,118
India,Uttar_Pradesh,Kanpur,"FTI Kidwai Nagar, Kanpur - UPPCB",19-01-2024 18:00:00,26.428282,80.327067,NO2,14,15,14
India,Uttar_Pradesh,Kanpur,"NSI Kalyanpur, Kanpur - UPPCB",19-01-2024 18:00:00,26.509954,80.249612,NH3,1,5,3
India,Uttar_Pradesh,Kanpur,"NSI Kalyanpur, Kanpur - UPPCB",19-01-2024 18:00:00,26.509954,80.249612,SO2,22,25,23
India,Uttar_Pradesh,Kanpur,"NSI Kalyanpur, Kanpur - UPPCB",19-01-2024 18:00:00,26.509954,80.249612,CO,44,90,62
India,Uttar_Pradesh,Kanpur,"Nehru Nagar, Kanpur - UPPCB",19-01-2024 18:00:00,26.4703136,80.3229863,PM2.5,74,316,180
India,Uttar_Pradesh,Kanpur,"Nehru Nagar, Kanpur - UPPCB",19-01-2024 18:00:00,26.4703136,80.3229863,OZONE,14,51,38
India,Uttar_Pradesh,Khurja,"Kalindi Kunj, Khurja - UPPCB",19-01-2024 18:00:00,28.2348927,77.8683002,NO2,21,26,23
India,Uttar_Pradesh,Khurja,"Kalindi Kunj, Khurja - UPPCB",19-01-2024 18:00:00,28.2348927,77.8683002,CO,20,30,25
India,Uttar_Pradesh,Khurja,"Kalindi Kunj, Khurja - UPPCB",19-01-2024 18:00:00,28.2348927,77.8683002,OZONE,22,38,29
India,Uttar_Pradesh,Lucknow,"B R Ambedkar University, Lucknow - UPPCB",19-01-2024 18:00:00,26.766433,80.927299,NO2,11,12,12
India,Uttar_Pradesh,Lucknow,"Gomti Nagar, Lucknow - UPPCB",19-01-2024 18:00:00,26.868120,81.005119,SO2,4,33,12
India,Uttar_Pradesh,Lucknow,"Kendriya Vidyalaya, Lucknow - CPCB",19-01-2024 18:00:00,26.906111,80.948222,SO2,4,10,8
India,Uttar_Pradesh,Lucknow,"Kendriya Vidyalaya, Lucknow - CPCB",19-01-2024 18:00:00,26.906111,80.948222,OZONE,6,39,21
India,Uttar_Pradesh,Lucknow,"Lalbagh, Lucknow - CPCB",19-01-2024 18:00:00,26.8458805,80.9365541,NH3,11,13,12
India,Uttar_Pradesh,Lucknow,"Lalbagh, Lucknow - CPCB",19-01-2024 18:00:00,26.8458805,80.9365541,SO2,1,18,7
India,Uttar_Pradesh,Lucknow,"Talkatora District Industries Center, Lucknow - CPCB",19-01-2024 18:00:00,26.83399722,80.8917361,OZONE,2,81,50
India,Uttar_Pradesh,Meerut,"Ganga Nagar, Meerut - UPPCB",19-01-2024 18:00:00,28.999264,77.7590354,NO2,NA,NA,NA
India,Uttar_Pradesh,Meerut,"Ganga Nagar, Meerut - UPPCB",19-01-2024 18:00:00,28.999264,77.7590354,CO,26,91,74
India,Uttar_Pradesh,Meerut,"Jai Bhim Nagar, Meerut - UPPCB",19-01-2024 18:00:00,28.9535882,77.7622941,PM10,78,128,100
India,Uttar_Pradesh,Meerut,"Jai Bhim Nagar, Meerut - UPPCB",19-01-2024 18:00:00,28.9535882,77.7622941,CO,44,86,55
India,Uttar_Pradesh,Meerut,"Jai Bhim Nagar, Meerut - UPPCB",19-01-2024 18:00:00,28.9535882,77.7622941,OZONE,14,33,22
India,Uttar_Pradesh,Moradabad,"Buddhi Vihar, Moradabad - UPPCB",19-01-2024 18:00:00,28.83526,78.74460,PM10,79,115,98
India,Uttar_Pradesh,Moradabad,"Buddhi Vihar, Moradabad - UPPCB",19-01-2024 18:00:00,28.83526,78.74460,NH3,7,10,8
India,Uttar_Pradesh,Moradabad,"Employment Office, Moradabad - UPPCB",19-01-2024 18:00:00,28.88528,78.73880,NO2,22,23,23
India,Uttar_Pradesh,Moradabad,"Employment Office, Moradabad - UPPCB",19-01-2024 18:00:00,28.88528,78.73880,SO2,23,25,24
India,Uttar_Pradesh,Moradabad,"Jigar Colony, Moradabad - UPPCB",19-01-2024 18:00:00,28.856664,78.772638,NH3,5,6,5
India,Uttar_Pradesh,Moradabad,"Kashiram Nagar, Moradabad - UPPCB",19-01-2024 18:00:00,28.849399,78.742362,NO2,18,34,24
India,Uttar_Pradesh,Moradabad,"Transport Nagar, Moradabad - UPPCB",19-01-2024 18:00:00,28.802625,78.753728,PM2.5,75,186,108
India,Uttar_Pradesh,Moradabad,"Transport Nagar, Moradabad - UPPCB",19-01-2024 18:00:00,28.802625,78.753728,SO2,36,41,39
India,Uttar_Pradesh,Noida,"Sector - 125, Noida - UPPCB",19-01-2024 18:00:00,28.5447608,77.3231257,PM2.5,85,500,234
India,Uttar_Pradesh,Noida,"Sector - 125, Noida - UPPCB",19-01-2024 18:00:00,28.5447608,77.3231257,SO2,3,16,6
India,Uttar_Pradesh,Noida,"Sector - 62, Noida - IMD",19-01-2024 18:00:00,28.6245479,77.3577104,PM10,144,341,235
India,Uttar_Pradesh,Noida,"Sector-116, Noida - UPPCB",19-01-2024 18:00:00,28.569230,77.393848,OZONE,5,16,11
India,Uttar_Pradesh,Prayagraj,"Jhunsi, Prayagraj - UPPCB",19-01-2024 18:00:00,25.425602,81.917152,SO2,31,32,31
India,Uttar_Pradesh,Prayagraj,"Motilal Nehru NIT, Prayagraj - UPPCB",19-01-2024 18:00:00,25.494,81.863,PM2.5,89,213,134
India,Uttar_Pradesh,Prayagraj,"Motilal Nehru NIT, Prayagraj - UPPCB",19-01-2024 18:00:00,25.494,81.863,NH3,6,7,6
India,Uttar_Pradesh,Prayagraj,"Nagar Nigam, Prayagraj - UPPCB",19-01-2024 18:00:00,25.44919916 ,81.82735986 ,NO2,9,9,9
India,Uttar_Pradesh,Prayagraj,"Nagar Nigam, Prayagraj - UPPCB",19-01-2024 18:00:00,25.44919916 ,81.82735986 ,NH3,3,10,6
India,Uttar_Pradesh,Varanasi,"Ardhali Bazar, Varanasi - UPPCB",19-01-2024 18:00:00,25.3505986,82.9083074,PM2.5,38,61,46
India,Uttar_Pradesh,Varanasi,"Ardhali Bazar, Varanasi - UPPCB",19-01-2024 18:00:00,25.3505986,82.9083074,PM10,49,79,59
India,Uttar_Pradesh,Varanasi,"Ardhali Bazar, Varanasi - UPPCB",19-01-2024 18:00:00,25.3505986,82.9083074,NO2,11,27,21
India,Uttar_Pradesh,Varanasi,"Ardhali Bazar, Varanasi - UPPCB",19-01-2024 18:00:00,25.3505986,82.9083074,SO2,7,18,14
India,Uttar_Pradesh,Varanasi,"Bhelupur, Varanasi - UPPCB",19-01-2024 18:00:00,25.301778,82.996789,NO2,16,40,25
India,Uttar_Pradesh,Varanasi,"IESD Banaras Hindu University, Varanasi - UPPCB",19-01-2024 18:00:00,25.262326,82.995408,PM2.5,21,39,28
India,Uttar_Pradesh,Varanasi,"Maldahiya, Varanasi - UPPCB",19-01-2024 18:00:00,25.32393,82.99687,PM10,49,80,62
India,Uttar_Pradesh,Varanasi,"Maldahiya, Varanasi - UPPCB",19-01-2024 18:00:00,25.32393,82.99687,NO2,3,17,10
India,Uttar_Pradesh,Varanasi,"Maldahiya, Varanasi - UPPCB",19-01-2024 18:00:00,25.32393,82.99687,NH3,1,1,1
India,Uttar_Pradesh,Varanasi,"Maldahiya, Varanasi - UPPCB",19-01-2024 18:00:00,25.32393,82.99687,SO2,33,35,34
India,Uttar_Pradesh,Vrindavan,"Omex Eternity, Vrindavan - UPPCB",19-01-2024 18:00:00,27.5714090,77.6557570,NH3,3,5,3
India,Uttar_Pradesh,Vrindavan,"Omex Eternity, Vrindavan - UPPCB",19-01-2024 18:00:00,27.5714090,77.6557570,CO,20,38,26
India,Uttarakhand,Dehradun,"Doon University, Dehradun - UKPCB",19-01-2024 18:00:00,30.269444,78.044167,PM2.5,36,442,325
India,Uttarakhand,Dehradun,"Doon University, Dehradun - UKPCB",19-01-2024 18:00:00,30.269444,78.044167,CO,42,105,51
India,Uttarakhand,Dehradun,"Doon University, Dehradun - UKPCB",19-01-2024 18:00:00,30.269444,78.044167,OZONE,1,24,11
India,Uttarakhand,Rishikesh,"Shivaji Nagar, Rishikesh - UKPCB",19-01-2024 18:00:00,30.075911,78.2859547,PM2.5,79,297,148
India,West_Bengal,Asansol,"Asansol Court Area, Asansol - WBPCB",19-01-2024 18:00:00,23.685297,86.945968,NH3,6,9,7
India,West_Bengal,Asansol,"Asansol Court Area, Asansol - WBPCB",19-01-2024 18:00:00,23.685297,86.945968,SO2,8,20,15
India,West_Bengal,Asansol,"Asansol Court Area, Asansol - WBPCB",19-01-2024 18:00:00,23.685297,86.945968,CO,15,42,32
India,West_Bengal,Barrackpore,"SVSPA Campus, Barrackpore - WBPCB",19-01-2024 18:00:00,22.7605581,88.3617589,SO2,NA,NA,NA
India,West_Bengal,Durgapur,"Sidhu Kanhu Indoor Stadium, Durgapur - WBPCB",19-01-2024 18:00:00,23.5404352,87.2892225,OZONE,1,40,10
India,West_Bengal,Haldia,"Priyambada Housing Estate, Haldia - WBPCB",19-01-2024 18:00:00,22.06047,88.109737,PM2.5,65,295,110
India,West_Bengal,Haldia,"Priyambada Housing Estate, Haldia - WBPCB",19-01-2024 18:00:00,22.06047,88.109737,OZONE,14,42,33
India,West_Bengal,Howrah,"Belur Math, Howrah - WBPCB",19-01-2024 18:00:00,22.629801,88.352017,PM2.5,105,178,143
India,West_Bengal,Howrah,"Belur Math, Howrah - WBPCB",19-01-2024 18:00:00,22.629801,88.352017,NH3,4,5,5
India,West_Bengal,Howrah,"Belur Math, Howrah - WBPCB",19-01-2024 18:00:00,22.629801,88.352017,CO,24,40,30
India,West_Bengal,Howrah,"Ghusuri, Howrah - WBPCB",19-01-2024 18:00:00,22.611968,88.347422,PM2.5,203,310,268
India,West_Bengal,Howrah,"Ghusuri, Howrah - WBPCB",19-01-2024 18:00:00,22.611968,88.347422,SO2,5,7,6
India,West_Bengal,Howrah,"Padmapukur, Howrah - WBPCB",19-01-2024 18:00:00,22.5687319,88.2797276,PM10,116,159,128
India,West_Bengal,Howrah,"Padmapukur, Howrah - WBPCB",19-01-2024 18:00:00,22.5687319,88.2797276,NO2,27,56,38
India,West_Bengal,Kolkata,"Ballygunge, Kolkata - WBPCB",19-01-2024 18:00:00,22.5367507,88.3638022,NH3,5,7,6
India,West_Bengal,Kolkata,"Fort William, Kolkata - WBPCB",19-01-2024 18:00:00,22.556640,88.342674,PM10,103,168,123
India,West_Bengal,Kolkata,"Fort William, Kolkata - WBPCB",19-01-2024 18:00:00,22.556640,88.342674,CO,24,46,32
India,West_Bengal,Kolkata,"Rabindra Bharati University, Kolkata - WBPCB",19-01-2024 18:00:00,22.627847,88.380669,PM2.5,118,213,165
India,West_Bengal,Kolkata,"Rabindra Sarobar, Kolkata - WBPCB",19-01-2024 18:00:00,22.51106,88.35142,SO2,9,26,14
India,West_Bengal,Kolkata,"Victoria, Kolkata - WBPCB",19-01-2024 18:00:00,22.5448082,88.3403691,OZONE,5,64,49
India,West_Bengal,Siliguri,"Ward-32 Bapupara, Siliguri - WBPCB",19-01-2024 18:00:00,26.6879226,88.4152495,OZONE,7,59,39
India,Andhra_Pradesh,Amaravati,"Secretariat, Amaravati - APPCB",19-01-2024 18:00:00,16.5150833,80.5181667,NH3,2,4,4
India,Andhra_Pradesh,Amaravati,"Secretariat, Amaravati - APPCB",19-01-2024 18:00:00,16.5150833,80.5181667,OZONE,1,44,35
India,Andhra_Pradesh,Anantapur,"Gulzarpet, Anantapur - APPCB",19-01-2024 18:00:00,14.675886,77.593027,OZONE,2,54,45
India,Andhra_Pradesh,Rajamahendravaram,"Anand Kala Kshetram, Rajamahendravaram - APPCB",19-01-2024 18:00:00,16.9872867,81.7363176,PM2.5,38,82,59
India,Andhra_Pradesh,Tirupati,"Vaikuntapuram, Tirupati - APPCB",19-01-2024 18:00:00,13.615387,79.409230,SO2,4,5,5
India,Andhra_Pradesh,Vijayawada,"Kanuru, Vijayawada - APPCB",19-01-2024 18:00:00,16.486692,80.699436,PM2.5,NA,NA,NA
India,Andhra_Pradesh,Vijayawada,"Kanuru, Vijayawada - APPCB",19-01-2024 18:00:00,16.486692,80.699436,PM10,NA,NA,NA
India,Andhra_Pradesh,Vijayawada,"Kanuru, Vijayawada - APPCB",19-01-2024 18:00:00,16.486692,80.699436,NO2,NA,NA,NA
India,Andhra_Pradesh,Vijayawada,"Rajiv Gandhi Park, Vijayawada - APPCB",19-01-2024 18:00:00,16.509717,80.612222,PM10,23,56,34
India,Andhra_Pradesh,Visakhapatnam,"GVM Corporation, Visakhapatnam - APPCB",19-01-2024 18:00:00,17.72,83.3,NO2,21,54,39
India,Andhra_Pradesh,Visakhapatnam,"GVM Corporation, Visakhapatnam - APPCB",19-01-2024 18:00:00,17.72,83.3,SO2,12,19,14
India,Andhra_Pradesh,Visakhapatnam,"GVM Corporation, Visakhapatnam - APPCB",19-01-2024 18:00:00,17.72,83.3,OZONE,9,25,18
India,Arunachal_Pradesh,Naharlagun,"Naharlagun, Naharlagun - APSPCB",19-01-2024 18:00:00,27.103358,93.679645,PM10,17,104,51
India,Arunachal_Pradesh,Naharlagun,"Naharlagun, Naharlagun - APSPCB",19-01-2024 18:00:00,27.103358,93.679645,CO,10,44,14
India,Arunachal_Pradesh,Naharlagun,"Naharlagun, Naharlagun - APSPCB",19-01-2024 18:00:00,27.103358,93.679645,OZONE,2,2,2
India,Assam,Byrnihat,"Central Academy for SFS, Byrnihat - PCBA",19-01-2024 18:00:00,26.071318,91.87488,SO2,13,22,19
India,Assam,Guwahati,"IITG, Guwahati - PCBA",19-01-2024 18:00:00,26.2028636,91.70046436,PM10,132,244,183
India,Assam,Guwahati,"IITG, Guwahati - PCBA",19-01-2024 18:00:00,26.2028636,91.70046436,NO2,1,20,8
India,Assam,Guwahati,"LGBI Airport, Guwahati - PCBA",19-01-2024 18:00:00,26.10887,91.589544,OZONE,1,115,70
India,Assam,Nagaon,"Christianpatty, Nagaon - PCBA",19-01-2024 18:00:00,26.349082,92.68449,PM10,NA,NA,NA
India,Assam,Nagaon,"Christianpatty, Nagaon - PCBA",19-01-2024 18:00:00,26.349082,92.68449,NH3,1,6,3
India,Assam,Nagaon,"Christianpatty, Nagaon - PCBA",19-01-2024 18:00:00,26.349082,92.68449,CO,10,33,28
India,Assam,Nalbari,"Bata Chowk, Nalbari - PCBA",19-01-2024 18:00:00,26.446912,91.439057,PM10,40,304,134
India,Assam,Silchar,"Tarapur, Silchar - PCBA",19-01-2024 18:00:00,24.82827,92.79525,NH3,NA,NA,NA
India,Assam,Silchar,"Tarapur, Silchar - PCBA",19-01-2024 18:00:00,24.82827,92.79525,SO2,NA,NA,NA
India,Assam,Sivasagar,"Girls College, Sivasagar - PCBA",19-01-2024 18:00:00,26.987634,94.636574,NH3,3,3,3
India,Bihar,Araria,"Kharahiya Basti, Araria - BSPCB",19-01-2024 18:00:00,26.146529,87.454184,NH3,6,7,6
India,Bihar,Arrah,"New DM Office, Arrah - BSPCB",19-01-2024 18:00:00,25.5626095,84.663264,NO2,9,32,18
India,Bihar,Aurangabad,"Gurdeo Nagar, Aurangabad - BSPCB",19-01-2024 18:00:00,24.75746,84.366208,SO2,11,15,14
India,Bihar,Aurangabad,"Gurdeo Nagar, Aurangabad - BSPCB",19-01-2024 18:00:00,24.75746,84.366208,CO,46,99,83
India,Bihar,Bhagalpur,"DM Office_Kachari Chowk, Bhagalpur - BSPCB",19-01-2024 18:00:00,25.251013,86.989001,PM10,160,268,201
India,Bihar,Bhagalpur,"DM Office_Kachari Chowk, Bhagalpur - BSPCB",19-01-2024 18:00:00,25.251013,86.989001,NH3,3,8,4
India,Bihar,Bhagalpur,"Mayaganj, Bhagalpur - BSPCB",19-01-2024 18:00:00,25.265194,87.012947,SO2,10,13,12
India,Bihar,Bihar Sharif,"D M Colony, Bihar Sharif - BSPCB",19-01-2024 18:00:00,25.204762,85.514960,NH3,2,2,2
India,Bihar,Bihar Sharif,"D M Colony, Bihar Sharif - BSPCB",19-01-2024 18:00:00,25.204762,85.514960,SO2,1,11,7
India,Bihar,Gaya,"Collectorate, Gaya - BSPCB",19-01-2024 18:00:00,24.7955,84.9994,NO2,16,22,18
India,Bihar,Gaya,"Collectorate, Gaya - BSPCB",19-01-2024 18:00:00,24.7955,84.9994,CO,38,46,41
India,Bihar,Gaya,"Kareemganj, Gaya - BSPCB",19-01-2024 18:00:00,24.792403,84.992416,NH3,1,5,3
India,Bihar,Gaya,"Kareemganj, Gaya - BSPCB",19-01-2024 18:00:00,24.792403,84.992416,CO,4,101,42
India,Bihar,Gaya,"SFTI Kusdihra, Gaya - BSPCB",19-01-2024 18:00:00,24.762518,84.982348,SO2,1,10,7
India,Bihar,Katihar,"Mirchaibari, Katihar - BSPCB",19-01-2024 18:00:00,25.560083,87.553265,NO2,18,28,23
India,Bihar,Katihar,"Mirchaibari, Katihar - BSPCB",19-01-2024 18:00:00,25.560083,87.553265,SO2,16,21,18
India,Bihar,Kishanganj,"SDM Office_Khagra, Kishanganj - BSPCB",19-01-2024 18:00:00,26.0881305,87.93840336,NO2,28,32,30
India,Bihar,Kishanganj,"SDM Office_Khagra, Kishanganj - BSPCB",19-01-2024 18:00:00,26.0881305,87.93840336,SO2,3,16,12
India,Bihar,Motihari,"Gandak Colony, Motihari - BSPCB",19-01-2024 18:00:00,26.63086,84.90051,SO2,1,9,4
India,Bihar,Motihari,"Gandak Colony, Motihari - BSPCB",19-01-2024 18:00:00,26.63086,84.90051,OZONE,16,82,69
India,Bihar,Munger,"Town Hall, Munger - BSPCB",19-01-2024 18:00:00,25.376776,86.471523,PM10,109,184,134
India,Bihar,Munger,"Town Hall, Munger - BSPCB",19-01-2024 18:00:00,25.376776,86.471523,CO,34,116,55
India,Bihar,Muzaffarpur,"Buddha Colony, Muzaffarpur - BSPCB",19-01-2024 18:00:00,26.11442,85.39813,NO2,24,53,31
India,Bihar,Muzaffarpur,"MIT-Daudpur Kothi, Muzaffarpur - BSPCB",19-01-2024 18:00:00,26.1403345,85.3650192,PM10,107,199,141
India,Bihar,Muzaffarpur,"MIT-Daudpur Kothi, Muzaffarpur - BSPCB",19-01-2024 18:00:00,26.1403345,85.3650192,NO2,5,8,7
India,Bihar,Patna,"DRM Office Danapur, Patna - BSPCB",19-01-2024 18:00:00,25.586562,85.043586,NO2,13,35,21
India,Bihar,Patna,"IGSC Planetarium Complex, Patna - BSPCB",19-01-2024 18:00:00,25.610369,85.132568,OZONE,13,15,14
India,Bihar,Patna,"Muradpur, Patna - BSPCB",19-01-2024 18:00:00,25.619651,85.147382,PM10,214,428,299
India,Bihar,Patna,"Rajbansi Nagar, Patna - BSPCB",19-01-2024 18:00:00,25.599486,85.113666,NO2,50,82,58
India,Bihar,Purnia,"Mariam Nagar, Purnia - BSPCB",19-01-2024 18:00:00,25.366336,87.117468,NH3,1,1,1
India,Bihar,Rajgir,"Dangi Tola, Rajgir - BSPCB",19-01-2024 18:00:00,25.03280,85.41948,PM2.5,143,372,288
India,Bihar,Saharsa,"Police Line, Saharsa - BSPCB",19-01-2024 18:00:00,25.892357,86.590325,PM2.5,323,398,357
India,Bihar,Sasaram,"Dada Peer, Sasaram - BSPCB",19-01-2024 18:00:00,24.952822,84.002396,PM2.5,124,218,178
India,Bihar,Sasaram,"Dada Peer, Sasaram - BSPCB",19-01-2024 18:00:00,24.952822,84.002396,NO2,2,11,6
India,Bihar,Siwan,"Chitragupta Nagar, Siwan - BSPCB",19-01-2024 18:00:00,26.2271665,84.3570427,PM2.5,85,200,112
India,Bihar,Siwan,"Chitragupta Nagar, Siwan - BSPCB",19-01-2024 18:00:00,26.2271665,84.3570427,OZONE,14,69,48
India,Chandigarh,Chandigarh,"Sector 22, Chandigarh - CPCC",19-01-2024 18:00:00,30.735567,76.775714,PM2.5,310,463,384
India,Chandigarh,Chandigarh,"Sector 22, Chandigarh - CPCC",19-01-2024 18:00:00,30.735567,76.775714,NO2,13,70,30
India,Chandigarh,Chandigarh,"Sector 22, Chandigarh - CPCC",19-01-2024 18:00:00,30.735567,76.775714,CO,63,109,78
India,Chandigarh,Chandigarh,"Sector 22, Chandigarh - CPCC",19-01-2024 18:00:00,30.735567,76.775714,OZONE,1,31,16
India,Chandigarh,Chandigarh,"Sector-25, Chandigarh - CPCC",19-01-2024 18:00:00,30.751462,76.762879,SO2,8,11,9
India,Chandigarh,Chandigarh,"Sector-25, Chandigarh - CPCC",19-01-2024 18:00:00,30.751462,76.762879,CO,55,100,60
India,Chandigarh,Chandigarh,"Sector-25, Chandigarh - CPCC",19-01-2024 18:00:00,30.751462,76.762879,OZONE,1,6,3
India,Chandigarh,Chandigarh,"Sector-53, Chandigarh - CPCC",19-01-2024 18:00:00,30.719859,76.738637,PM2.5,318,478,396
India,Chandigarh,Chandigarh,"Sector-53, Chandigarh - CPCC",19-01-2024 18:00:00,30.719859,76.738637,NO2,25,88,44
India,Chandigarh,Chandigarh,"Sector-53, Chandigarh - CPCC",19-01-2024 18:00:00,30.719859,76.738637,NH3,9,15,11
India,Chhattisgarh,Bhilai,"32Bungalows, Bhilai - CECB",19-01-2024 18:00:00,21.194815,81.314770,SO2,10,12,11
India,Chhattisgarh,Bhilai,"Civic Center, Bhilai - Bhilai Steel Plant",19-01-2024 18:00:00,21.185571,81.343175,NH3,2,2,2
India,Chhattisgarh,Chhal,"Nawapara SECL Colony, Chhal - CECB",19-01-2024 18:00:00,22.118125,83.140608,OZONE,5,36,29
India,Chhattisgarh,Korba,"Rampur, Korba - CECB",19-01-2024 18:00:00,22.368195,82.746431,PM2.5,NA,NA,NA
India,Chhattisgarh,Korba,"Rampur, Korba - CECB",19-01-2024 18:00:00,22.368195,82.746431,PM10,NA,NA,NA
India,Chhattisgarh,Korba,"Rampur, Korba - CECB",19-01-2024 18:00:00,22.368195,82.746431,NO2,39,60,46
India,Chhattisgarh,Korba,"Urja Nagar, Korba - CECB",19-01-2024 18:00:00,22.348441,82.549611,PM10,58,162,98
India,Chhattisgarh,Korba,"Urja Nagar, Korba - CECB",19-01-2024 18:00:00,22.348441,82.549611,NO2,64,76,71
India,Chhattisgarh,Korba,"Urja Nagar, Korba - CECB",19-01-2024 18:00:00,22.348441,82.549611,SO2,3,9,7
India,Chhattisgarh,Korba,"Urja Nagar, Korba - CECB",19-01-2024 18:00:00,22.348441,82.549611,OZONE,47,47,47
India,Chhattisgarh,Kunjemura,"OP Jindal School, Kunjemura - CECB",19-01-2024 18:00:00,22.126650,83.483212,NH3,1,3,2
India,Chhattisgarh,Milupara,"Govt. Higher Secondary School, Milupara - CECB",19-01-2024 18:00:00,22.1910172,83.5197009,PM2.5,NA,NA,NA
India,Chhattisgarh,Raipur,"Bhatagaon New ISBT, Raipur - CECB",19-01-2024 18:00:00,21.219665,81.630094,NH3,2,3,2
India,Chhattisgarh,Raipur,"Bhatagaon New ISBT, Raipur - CECB",19-01-2024 18:00:00,21.219665,81.630094,OZONE,3,4,3
India,Chhattisgarh,Raipur,"Krishak Nagar, Raipur - CECB",19-01-2024 18:00:00,21.237755,81.705301,SO2,8,11,9
India,Chhattisgarh,Raipur,"Krishak Nagar, Raipur - CECB",19-01-2024 18:00:00,21.237755,81.705301,OZONE,3,4,3
India,Chhattisgarh,Tumidih,"OP Jindal Industrial Park, Tumidih - CECB",19-01-2024 18:00:00,22.06631475,83.33820077,PM10,NA,NA,NA
India,Chhattisgarh,Tumidih,"OP Jindal Industrial Park, Tumidih - CECB",19-01-2024 18:00:00,22.06631475,83.33820077,NH3,NA,NA,NA
India,Chhattisgarh,Tumidih,"OP Jindal Industrial Park, Tumidih - CECB",19-01-2024 18:00:00,22.06631475,83.33820077,SO2,NA,NA,NA
India,Delhi,Delhi,"Anand Vihar, Delhi - DPCC",19-01-2024 18:00:00,28.647622,77.3158090,NH3,7,11,10
India,Delhi,Delhi,"Ashok Vihar, Delhi - DPCC",19-01-2024 18:00:00,28.695381,77.181665,PM2.5,298,422,347
India,Delhi,Delhi,"Ashok Vihar, Delhi - DPCC",19-01-2024 18:00:00,28.695381,77.181665,CO,42,107,60
India,Delhi,Delhi,"Bawana, Delhi - DPCC",19-01-2024 18:00:00,28.776200,77.051074,PM10,155,426,295
India,Delhi,Delhi,"Bawana, Delhi - DPCC",19-01-2024 18:00:00,28.776200,77.051074,NH3,1,16,5
India,Delhi,Delhi,"Burari Crossing, Delhi - IMD",19-01-2024 18:00:00,28.7256504,77.2011573,PM2.5,310,407,342
India,Delhi,Delhi,"Burari Crossing, Delhi - IMD",19-01-2024 18:00:00,28.7256504,77.2011573,PM10,147,424,255
India,Delhi,Delhi,"CRRI Mathura Road, Delhi - IMD",19-01-2024 18:00:00,28.5512005,77.2735737,NO2,25,27,26
India,Delhi,Delhi,"DTU, Delhi - CPCB",19-01-2024 18:00:00,28.7500499,77.1112615,PM2.5,97,500,214
India,Delhi,Delhi,"DTU, Delhi - CPCB",19-01-2024 18:00:00,28.7500499,77.1112615,PM10,158,437,295
India,Delhi,Delhi,"DTU, Delhi - CPCB",19-01-2024 18:00:00,28.7500499,77.1112615,SO2,27,32,28
India,Delhi,Delhi,"DTU, Delhi - CPCB",19-01-2024 18:00:00,28.7500499,77.1112615,OZONE,26,29,27
India,Delhi,Delhi,"Dr. Karni Singh Shooting Range, Delhi - DPCC",19-01-2024 18:00:00,28.498571,77.264840,PM10,144,338,212
India,Delhi,Delhi,"Dr. Karni Singh Shooting Range, Delhi - DPCC",19-01-2024 18:00:00,28.498571,77.264840,NO2,44,78,57
India,Delhi,Delhi,"Dr. Karni Singh Shooting Range, Delhi - DPCC",19-01-2024 18:00:00,28.498571,77.264840,CO,50,102,63
India,Delhi,Delhi,"Dwarka-Sector 8, Delhi - DPCC ",19-01-2024 18:00:00,28.5710274,77.0719006,PM10,165,395,228
India,Delhi,Delhi,"Dwarka-Sector 8, Delhi - DPCC ",19-01-2024 18:00:00,28.5710274,77.0719006,SO2,5,9,7
India,Delhi,Delhi,"IGI Airport (T3), Delhi - IMD",19-01-2024 18:00:00,28.5627763,77.1180053,NO2,13,35,22
India,Delhi,Delhi,"ITO, Delhi - CPCB",19-01-2024 18:00:00,28.628624,77.241060,PM2.5,357,420,386
India,Delhi,Delhi,"ITO, Delhi - CPCB",19-01-2024 18:00:00,28.628624,77.241060,NH3,5,11,8
India,Delhi,Delhi,"ITO, Delhi - CPCB",19-01-2024 18:00:00,28.628624,77.241060,SO2,1,138,14
India,Delhi,Delhi,"ITO, Delhi - CPCB",19-01-2024 18:00:00,28.628624,77.241060,CO,10,103,59
India,Delhi,Delhi,"Jawaharlal Nehru Stadium, Delhi - DPCC",19-01-2024 18:00:00,28.580280,77.233829,NH3,10,14,12
India,Delhi,Delhi,"Jawaharlal Nehru Stadium, Delhi - DPCC",19-01-2024 18:00:00,28.580280,77.233829,SO2,1,12,5
India,Delhi,Delhi,"Jawaharlal Nehru Stadium, Delhi - DPCC",19-01-2024 18:00:00,28.580280,77.233829,OZONE,2,12,7
India,Delhi,Delhi,"Lodhi Road, Delhi - IITM",19-01-2024 18:00:00,28.588333,77.221667,NH3,9,12,10
India,Delhi,Delhi,"Major Dhyan Chand National Stadium, Delhi - DPCC",19-01-2024 18:00:00,28.611281,77.237738,NH3,12,15,13
India,Delhi,Delhi,"Mandir Marg, Delhi - DPCC",19-01-2024 18:00:00,28.636429,77.201067,NO2,89,123,106
India,Delhi,Delhi,"Mundka, Delhi - DPCC",19-01-2024 18:00:00,28.684678,77.076574,PM2.5,333,457,400
India,Delhi,Delhi,"Mundka, Delhi - DPCC",19-01-2024 18:00:00,28.684678,77.076574,PM10,178,443,315
India,Delhi,Delhi,"Mundka, Delhi - DPCC",19-01-2024 18:00:00,28.684678,77.076574,NH3,7,13,10
India,Delhi,Delhi,"NSIT Dwarka, Delhi - CPCB",19-01-2024 18:00:00,28.60909,77.0325413,PM10,149,353,244
India,Delhi,Delhi,"NSIT Dwarka, Delhi - CPCB",19-01-2024 18:00:00,28.60909,77.0325413,OZONE,8,42,28
India,Delhi,Delhi,"Narela, Delhi - DPCC",19-01-2024 18:00:00,28.822836,77.101981,PM2.5,322,500,373
India,Delhi,Delhi,"Narela, Delhi - DPCC",19-01-2024 18:00:00,28.822836,77.101981,NH3,10,15,12
India,Delhi,Delhi,"Narela, Delhi - DPCC",19-01-2024 18:00:00,28.822836,77.101981,OZONE,5,60,30
India,Delhi,Delhi,"Okhla Phase-2, Delhi - DPCC",19-01-2024 18:00:00,28.530785,77.271255,NO2,53,88,66
India,Delhi,Delhi,"Okhla Phase-2, Delhi - DPCC",19-01-2024 18:00:00,28.530785,77.271255,SO2,9,35,22
India,Delhi,Delhi,"Punjabi Bagh, Delhi - DPCC",19-01-2024 18:00:00,28.674045,77.131023,PM10,171,432,284
India,Delhi,Delhi,"Punjabi Bagh, Delhi - DPCC",19-01-2024 18:00:00,28.674045,77.131023,OZONE,4,23,14
India,Delhi,Delhi,"Pusa, Delhi - IMD",19-01-2024 18:00:00,28.636110,77.173332,NO2,32,86,50
India,Delhi,Delhi,"R K Puram, Delhi - DPCC",19-01-2024 18:00:00,28.563262,77.186937,SO2,14,24,19
India,Delhi,Delhi,"Rohini, Delhi - DPCC",19-01-2024 18:00:00,28.732528,77.119920,CO,62,104,82
India,Delhi,Delhi,"Sirifort, Delhi - CPCB",19-01-2024 18:00:00,28.5504249,77.2159377,PM2.5,305,392,352
India,Delhi,Delhi,"Sirifort, Delhi - CPCB",19-01-2024 18:00:00,28.5504249,77.2159377,PM10,167,343,241
India,Delhi,Delhi,"Sonia Vihar, Delhi - DPCC",19-01-2024 18:00:00,28.710508,77.249485,PM2.5,334,459,385
India,Delhi,Delhi,"Sri Aurobindo Marg, Delhi - DPCC",19-01-2024 18:00:00,28.531346,77.190156,SO2,7,16,12
India,Delhi,Delhi,"Vivek Vihar, Delhi - DPCC",19-01-2024 18:00:00,28.672342,77.315260,NH3,5,10,7
India,Delhi,Delhi,"Wazirpur, Delhi - DPCC",19-01-2024 18:00:00,28.699793,77.165453,CO,30,101,67
India,Gujarat,Ahmedabad,"Chandkheda, Ahmedabad - IITM",19-01-2024 18:00:00,23.107969,72.574648,NH3,3,4,4
India,Gujarat,Ahmedabad,"Chandkheda, Ahmedabad - IITM",19-01-2024 18:00:00,23.107969,72.574648,OZONE,21,23,23
India,Gujarat,Ahmedabad,"Raikhad, Ahmedabad - IITM",19-01-2024 18:00:00,23.020509,72.579261,PM10,34,165,111
India,Gujarat,Ahmedabad,"SAC ISRO Bopal, Ahmedabad - IITM",19-01-2024 18:00:00,23.041137,72.456691,PM2.5,58,245,120
India,Gujarat,Ahmedabad,"SAC ISRO Bopal, Ahmedabad - IITM",19-01-2024 18:00:00,23.041137,72.456691,PM10,55,135,93
India,Gujarat,Ahmedabad,"SAC ISRO Bopal, Ahmedabad - IITM",19-01-2024 18:00:00,23.041137,72.456691,NO2,11,15,14
India,Gujarat,Ahmedabad,"SAC ISRO Satellite, Ahmedabad - IITM",19-01-2024 18:00:00,23.023389,72.515201,NO2,23,26,25
India,Gujarat,Ahmedabad,"SVPI Airport Hansol, Ahmedabad - IITM",19-01-2024 18:00:00,23.076793,72.627874,PM2.5,64,346,140
India,Gujarat,Ahmedabad,"SVPI Airport Hansol, Ahmedabad - IITM",19-01-2024 18:00:00,23.076793,72.627874,PM10,67,254,116
India,Gujarat,Ahmedabad,"SVPI Airport Hansol, Ahmedabad - IITM",19-01-2024 18:00:00,23.076793,72.627874,NH3,3,3,3
India,Gujarat,Ahmedabad,"SVPI Airport Hansol, Ahmedabad - IITM",19-01-2024 18:00:00,23.076793,72.627874,SO2,3,7,5
India,Gujarat,Ankleshwar,"GIDC, Ankleshwar - GPCB",19-01-2024 18:00:00,21.613267,73.010555,PM10,53,117,97
India,Gujarat,Ankleshwar,"GIDC, Ankleshwar - GPCB",19-01-2024 18:00:00,21.613267,73.010555,NO2,33,34,34
India,Gujarat,Ankleshwar,"GIDC, Ankleshwar - GPCB",19-01-2024 18:00:00,21.613267,73.010555,OZONE,20,29,26
India,Gujarat,Gandhinagar,"GIFT City, Gandhinagar - IITM",19-01-2024 18:00:00,23.163798,72.677768,NO2,9,11,10
India,Gujarat,Gandhinagar,"GIFT City, Gandhinagar - IITM",19-01-2024 18:00:00,23.163798,72.677768,CO,2,20,10
India,Gujarat,Gandhinagar,"IIPHG Lekawada, Gandhinagar - IITM",19-01-2024 18:00:00,23.243639,72.68994,PM2.5,84,292,182
India,Gujarat,Gandhinagar,"IIPHG Lekawada, Gandhinagar - IITM",19-01-2024 18:00:00,23.243639,72.68994,CO,36,75,36
India,Gujarat,Gandhinagar,"Sector-10, Gandhinagar - GPCB",19-01-2024 18:00:00,23.221714,72.654328,PM2.5,25,69,50
India,Gujarat,Gandhinagar,"Sector-10, Gandhinagar - GPCB",19-01-2024 18:00:00,23.221714,72.654328,NH3,NA,NA,NA
India,Gujarat,Surat,"Science Center, Surat - SMC",19-01-2024 18:00:00,21.170046,72.795405,PM2.5,29,100,57
India,Gujarat,Vapi,"Phase-1 GIDC, Vapi - GPCB",19-01-2024 18:00:00,20.362421,72.918013,NH3,6,6,6
India,Gujarat,Vatva,"Phase-4 GIDC, Vatva - GPCB",19-01-2024 18:00:00,22.969611,72.643500,NH3,1,2,2
India,Haryana,Ambala,"Patti Mehar, Ambala - HSPCB",19-01-2024 18:00:00,30.379589,76.778328,PM10,89,125,106
India,Haryana,Bahadurgarh,"Arya Nagar, Bahadurgarh - HSPCB",19-01-2024 18:00:00,28.6701,76.9254,PM10,100,243,154
India,Haryana,Ballabgarh,"Nathu Colony, Ballabgarh - HSPCB",19-01-2024 18:00:00,28.3419248,77.319699,PM10,125,150,138
India,Haryana,Ballabgarh,"Nathu Colony, Ballabgarh - HSPCB",19-01-2024 18:00:00,28.3419248,77.319699,NH3,1,3,2
India,Haryana,Bhiwani,"H.B. Colony, Bhiwani - HSPCB",19-01-2024 18:00:00,28.806223,76.141105,PM2.5,60,154,99
India,Haryana,Bhiwani,"H.B. Colony, Bhiwani - HSPCB",19-01-2024 18:00:00,28.806223,76.141105,NO2,1,11,8
India,Haryana,Bhiwani,"H.B. Colony, Bhiwani - HSPCB",19-01-2024 18:00:00,28.806223,76.141105,SO2,2,16,10
India,Haryana,Charkhi Dadri,"Mini Secretariat, Charkhi Dadri - HSPCB",19-01-2024 18:00:00,28.593883,76.270653,NO2,10,14,12
India,Haryana,Charkhi Dadri,"Mini Secretariat, Charkhi Dadri - HSPCB",19-01-2024 18:00:00,28.593883,76.270653,OZONE,14,17,15
India,Haryana,Dharuhera,"Municipal Corporation Office, Dharuhera -  HSPCB",19-01-2024 18:00:00,28.206800,76.799700,NH3,9,26,19
India,Haryana,Dharuhera,"Municipal Corporation Office, Dharuhera -  HSPCB",19-01-2024 18:00:00,28.206800,76.799700,SO2,13,29,19
India,Haryana,Faridabad,"New Industrial Town, Faridabad - HSPCB",19-01-2024 18:00:00,28.39072,77.30059,CO,38,49,44
India,Haryana,Faridabad,"Sector 30, Faridabad - HSPCB",19-01-2024 18:00:00,28.4417,77.3217,PM2.5,160,180,166
India,Haryana,Faridabad,"Sector 30, Faridabad - HSPCB",19-01-2024 18:00:00,28.4417,77.3217,NH3,14,14,14
India,Haryana,Faridabad,"Sector 30, Faridabad - HSPCB",19-01-2024 18:00:00,28.4417,77.3217,OZONE,3,6,5
India,Haryana,Faridabad,"Sector- 16A, Faridabad - HSPCB",19-01-2024 18:00:00,28.4088421,77.3099081,CO,20,87,71
India,Haryana,Faridabad,"Sector- 16A, Faridabad - HSPCB",19-01-2024 18:00:00,28.4088421,77.3099081,OZONE,14,14,14
India,Haryana,Fatehabad,"Huda Sector, Fatehabad - HSPCB",19-01-2024 18:00:00,29.503664,75.467934,PM2.5,55,241,100
India,Haryana,Fatehabad,"Huda Sector, Fatehabad - HSPCB",19-01-2024 18:00:00,29.503664,75.467934,NO2,28,32,30
India,Haryana,Gurugram,"Sector-51, Gurugram - HSPCB",19-01-2024 18:00:00,28.4227,77.0667,PM2.5,252,371,307
India,Haryana,Gurugram,"Sector-51, Gurugram - HSPCB",19-01-2024 18:00:00,28.4227,77.0667,SO2,2,4,2
India,Haryana,Gurugram,"Sector-51, Gurugram - HSPCB",19-01-2024 18:00:00,28.4227,77.0667,CO,10,194,67
India,Haryana,Gurugram,"Teri Gram, Gurugram - HSPCB",19-01-2024 18:00:00,28.4275,77.1465,SO2,6,7,7
India,Haryana,Gurugram,"Teri Gram, Gurugram - HSPCB",19-01-2024 18:00:00,28.4275,77.1465,OZONE,10,16,13
India,Haryana,Hisar,"Urban Estate-II, Hisar - HSPCB",19-01-2024 18:00:00,29.140560,75.744941,NH3,2,3,3
India,Haryana,Jind,"Police Lines, Jind - HSPCB",19-01-2024 18:00:00,29.307814,76.337619,NO2,5,16,12
India,Haryana,Jind,"Police Lines, Jind - HSPCB",19-01-2024 18:00:00,29.307814,76.337619,CO,22,26,24
India,Haryana,Jind,"Police Lines, Jind - HSPCB",19-01-2024 18:00:00,29.307814,76.337619,OZONE,6,10,8
India,Haryana,Kaithal,"Rishi Nagar, Kaithal - HSPCB",19-01-2024 18:00:00,29.8006,76.4155,PM2.5,64,251,111
India,Haryana,Kaithal,"Rishi Nagar, Kaithal - HSPCB",19-01-2024 18:00:00,29.8006,76.4155,CO,2,94,48
India,Haryana,Kurukshetra,"Sector-7, Kurukshetra - HSPCB",19-01-2024 18:00:00,29.966942,76.875879,PM10,113,169,131
India,Haryana,Kurukshetra,"Sector-7, Kurukshetra - HSPCB",19-01-2024 18:00:00,29.966942,76.875879,CO,1,46,14
India,Haryana,Kurukshetra,"Sector-7, Kurukshetra - HSPCB",19-01-2024 18:00:00,29.966942,76.875879,OZONE,9,28,17
India,Haryana,Mandikhera,"General Hospital, Mandikhera - HSPCB",19-01-2024 18:00:00,27.9002,76.9938,PM10,65,107,88
India,Haryana,Mandikhera,"General Hospital, Mandikhera - HSPCB",19-01-2024 18:00:00,27.9002,76.9938,NH3,18,21,20
India,Haryana,Manesar,"Sector-2 IMT, Manesar - HSPCB",19-01-2024 18:00:00,28.360699,76.936090,SO2,NA,NA,NA
India,Haryana,Manesar,"Sector-2 IMT, Manesar - HSPCB",19-01-2024 18:00:00,28.360699,76.936090,OZONE,5,17,12
India,Haryana,Narnaul,"Shastri Nagar, Narnaul - HSPCB",19-01-2024 18:00:00,28.060249,76.113115,PM2.5,47,107,70
India,Haryana,Narnaul,"Shastri Nagar, Narnaul - HSPCB",19-01-2024 18:00:00,28.060249,76.113115,SO2,12,69,23
India,Haryana,Panipat,"Sector-18, Panipat - HSPCB",19-01-2024 18:00:00,29.497973,76.993331,NH3,2,3,3
India,Haryana,Rohtak,"MD University, Rohtak - HSPCB",19-01-2024 18:00:00,28.52123,76.37138,PM2.5,63,226,124
India,Haryana,Sirsa,"F-Block, Sirsa - HSPCB",19-01-2024 18:00:00,29.536400,75.015800,NO2,10,10,10
India,Haryana,Sirsa,"F-Block, Sirsa - HSPCB",19-01-2024 18:00:00,29.536400,75.015800,OZONE,25,50,36
