country,state,city,station,last_update,latitude,longitude,pollutant_id,pollutant_min,pollutant_max,pollutant_avg
India,Andhra_Pradesh,Amaravati,"Secretariat, Amaravati - APPCB",12-05-2024 06:00:00,16.5150833,80.5181667,CO,12,52,27
India,Andhra_Pradesh,Anantapur,"Gulzarpet, Anantapur - APPCB",12-05-2024 06:00:00,14.675886,77.593027,PM10,NA,NA,NA
India,Andhra_Pradesh,Rajamahendravaram,"Anand Kala Kshetram, Rajamahendravaram - APPCB",12-05-2024 06:00:00,16.9872867,81.7363176,PM2.5,5,37,14
India,Andhra_Pradesh,Rajamahendravaram,"Anand Kala Kshetram, Rajamahendravaram - APPCB",12-05-2024 06:00:00,16.9872867,81.7363176,NH3,1,3,2
India,Andhra_Pradesh,Rajamahendravaram,"Anand Kala Kshetram, Rajamahendravaram - APPCB",12-05-2024 06:00:00,16.9872867,81.7363176,OZONE,23,53,28
India,Andhra_Pradesh,Tirupati,"Tirumala, Tirupati - APPCB",12-05-2024 06:00:00,13.67,79.35,PM2.5,7,46,23
India,Andhra_Pradesh,Tirupati,"Tirumala, Tirupati - APPCB",12-05-2024 06:00:00,13.67,79.35,CO,35,54,40
India,Andhra_Pradesh,Tirupati,"Vaikuntapuram, Tirupati - APPCB",12-05-2024 06:00:00,13.615387,79.409230,CO,NA,NA,NA
India,Andhra_Pradesh,Vijayawada,"HB Colony, Vijayawada - APPCB",12-05-2024 06:00:00,16.536107,80.594233,SO2,NA,NA,NA
India,Andhra_Pradesh,Vijayawada,"Kanuru, Vijayawada - APPCB",12-05-2024 06:00:00,16.486692,80.699436,PM2.5,NA,NA,NA
India,Andhra_Pradesh,Vijayawada,"Kanuru, Vijayawada - APPCB",12-05-2024 06:00:00,16.486692,80.699436,PM10,NA,NA,NA
India,Andhra_Pradesh,Vijayawada,"Rajiv Gandhi Park, Vijayawada - APPCB",12-05-2024 06:00:00,16.509717,80.612222,NO2,NA,NA,NA
India,Andhra_Pradesh,Visakhapatnam,"GVM Corporation, Visakhapatnam - APPCB",12-05-2024 06:00:00,17.72,83.3,PM2.5,15,56,37
India,Andhra_Pradesh,Visakhapatnam,"GVM Corporation, Visakhapatnam - APPCB",12-05-2024 06:00:00,17.72,83.3,NH3,3,4,3
India,Andhra_Pradesh,Visakhapatnam,"GVM Corporation, Visakhapatnam - APPCB",12-05-2024 06:00:00,17.72,83.3,SO2,10,20,14
India,Arunachal_Pradesh,Naharlagun,"Naharlagun, Naharlagun - APSPCB",12-05-2024 06:00:00,27.103358,93.679645,PM10,3,34,18
India,Arunachal_Pradesh,Naharlagun,"Naharlagun, Naharlagun - APSPCB",12-05-2024 06:00:00,27.103358,93.679645,OZONE,2,2,2
India,Assam,Byrnihat,"Central Academy for SFS, Byrnihat - PCBA",12-05-2024 06:00:00,26.071318,91.87488,OZONE,22,68,23
India,Assam,Guwahati,"IITG, Guwahati - PCBA",12-05-2024 06:00:00,26.2028636,91.70046436,NH3,5,5,5
India,Assam,Guwahati,"IITG, Guwahati - PCBA",12-05-2024 06:00:00,26.2028636,91.70046436,OZONE,7,30,8
India,Assam,Guwahati,"LGBI Airport, Guwahati - PCBA",12-05-2024 06:00:00,26.10887,91.589544,PM2.5,27,367,108
India,Assam,Guwahati,"LGBI Airport, Guwahati - PCBA",12-05-2024 06:00:00,26.10887,91.589544,NH3,1,9,3
India,Assam,Guwahati,"Pan Bazaar, Guwahati - PCBA",12-05-2024 06:00:00,26.187500,91.744194,NH3,2,4,3
India,Assam,Guwahati,"Railway Colony, Guwahati - PCBA",12-05-2024 06:00:00,26.181742,91.78063,SO2,9,13,11
India,Assam,Nagaon,"Christianpatty, Nagaon - PCBA",12-05-2024 06:00:00,26.349082,92.68449,PM2.5,60,110,77
India,Assam,Nalbari,"Bata Chowk, Nalbari - PCBA",12-05-2024 06:00:00,26.446912,91.439057,NO2,6,23,14
India,Assam,Silchar,"Tarapur, Silchar - PCBA",12-05-2024 06:00:00,24.82827,92.79525,SO2,5,5,5
India,Assam,Sivasagar,"Girls College, Sivasagar - PCBA",12-05-2024 06:00:00,26.987634,94.636574,CO,22,26,24
India,Assam,Sivasagar,"Girls College, Sivasagar - PCBA",12-05-2024 06:00:00,26.987634,94.636574,OZONE,1,8,1
India,Bihar,Araria,"Kharahiya Basti, Araria - BSPCB",12-05-2024 06:00:00,26.146529,87.454184,PM10,7,83,49
India,Bihar,Araria,"Kharahiya Basti, Araria - BSPCB",12-05-2024 06:00:00,26.146529,87.454184,NH3,6,7,6
India,Bihar,Araria,"Kharahiya Basti, Araria - BSPCB",12-05-2024 06:00:00,26.146529,87.454184,OZONE,7,11,9
India,Bihar,Arrah,"New DM Office, Arrah - BSPCB",12-05-2024 06:00:00,25.5626095,84.663264,NO2,1,6,2
India,Bihar,Arrah,"New DM Office, Arrah - BSPCB",12-05-2024 06:00:00,25.5626095,84.663264,NH3,7,13,9
India,Bihar,Aurangabad,"Gurdeo Nagar, Aurangabad - BSPCB",12-05-2024 06:00:00,24.75746,84.366208,PM2.5,NA,NA,NA
India,Bihar,Aurangabad,"Gurdeo Nagar, Aurangabad - BSPCB",12-05-2024 06:00:00,24.75746,84.366208,NH3,1,32,13
India,Bihar,Aurangabad,"Gurdeo Nagar, Aurangabad - BSPCB",12-05-2024 06:00:00,24.75746,84.366208,OZONE,36,120,45
India,Bihar,Bhagalpur,"DM Office_Kachari Chowk, Bhagalpur - BSPCB",12-05-2024 06:00:00,25.251013,86.989001,NO2,40,66,54
India,Bihar,Bhagalpur,"DM Office_Kachari Chowk, Bhagalpur - BSPCB",12-05-2024 06:00:00,25.251013,86.989001,CO,38,78,53
India,Bihar,Bhagalpur,"Mayaganj, Bhagalpur - BSPCB",12-05-2024 06:00:00,25.265194,87.012947,NH3,6,8,7
India,Bihar,Bihar Sharif,"D M Colony, Bihar Sharif - BSPCB",12-05-2024 06:00:00,25.204762,85.514960,NH3,2,2,2
India,Bihar,Buxar,"Charitra Van, Buxar - BSPCB (Formerly known as Central Jail)",12-05-2024 06:00:00,25.567520,83.966379,CO,43,86,53
India,Bihar,Chhapra,"Darshan Nagar, Chhapra - BSPCB",12-05-2024 06:00:00,25.7808257,84.7446768,PM2.5,45,78,63
India,Bihar,Chhapra,"Darshan Nagar, Chhapra - BSPCB",12-05-2024 06:00:00,25.7808257,84.7446768,OZONE,1,4,3
India,Bihar,Gaya,"Kareemganj, Gaya - BSPCB",12-05-2024 06:00:00,24.792403,84.992416,NH3,3,10,6
India,Bihar,Gaya,"SFTI Kusdihra, Gaya - BSPCB",12-05-2024 06:00:00,24.762518,84.982348,PM2.5,NA,NA,NA
India,Bihar,Gaya,"SFTI Kusdihra, Gaya - BSPCB",12-05-2024 06:00:00,24.762518,84.982348,CO,8,42,8
India,Bihar,Hajipur,"Industrial Area, Hajipur - BSPCB",12-05-2024 06:00:00,25.697189,85.245900,PM10,118,179,137
India,Bihar,Hajipur,"Industrial Area, Hajipur - BSPCB",12-05-2024 06:00:00,25.697189,85.245900,NH3,6,9,8
India,Bihar,Kishanganj,"SDM Office_Khagra, Kishanganj - BSPCB",12-05-2024 06:00:00,26.0881305,87.93840336,NH3,9,10,9
India,Bihar,Motihari,"Gandak Colony, Motihari - BSPCB",12-05-2024 06:00:00,26.63086,84.90051,PM2.5,22,376,102
India,Bihar,Munger,"Town Hall, Munger - BSPCB",12-05-2024 06:00:00,25.376776,86.471523,PM2.5,17,143,70
India,Bihar,Muzaffarpur,"Buddha Colony, Muzaffarpur - BSPCB",12-05-2024 06:00:00,26.11442,85.39813,PM10,76,142,105
India,Bihar,Muzaffarpur,"Muzaffarpur Collectorate, Muzaffarpur - BSPCB",12-05-2024 06:00:00,26.1209,85.3647,PM2.5,50,331,95
India,Bihar,Muzaffarpur,"Muzaffarpur Collectorate, Muzaffarpur - BSPCB",12-05-2024 06:00:00,26.1209,85.3647,OZONE,45,83,69
India,Bihar,Patna,"DRM Office Danapur, Patna - BSPCB",12-05-2024 06:00:00,25.586562,85.043586,PM2.5,93,146,121
India,Bihar,Patna,"Govt. High School Shikarpur, Patna - BSPCB",12-05-2024 06:00:00,25.592539,85.227158,CO,40,72,51
India,Bihar,Patna,"IGSC Planetarium Complex, Patna - BSPCB",12-05-2024 06:00:00,25.610369,85.132568,SO2,4,8,6
India,Bihar,Patna,"IGSC Planetarium Complex, Patna - BSPCB",12-05-2024 06:00:00,25.610369,85.132568,CO,10,19,18
India,Bihar,Patna,"Muradpur, Patna - BSPCB",12-05-2024 06:00:00,25.619651,85.147382,NO2,NA,NA,NA
India,Bihar,Patna,"Muradpur, Patna - BSPCB",12-05-2024 06:00:00,25.619651,85.147382,CO,40,102,57
India,Bihar,Patna,"Muradpur, Patna - BSPCB",12-05-2024 06:00:00,25.619651,85.147382,OZONE,29,32,31
India,Bihar,Patna,"Rajbansi Nagar, Patna - BSPCB",12-05-2024 06:00:00,25.599486,85.113666,NO2,9,38,14
India,Bihar,Saharsa,"Police Line, Saharsa - BSPCB",12-05-2024 06:00:00,25.892357,86.590325,PM2.5,35,193,73
India,Bihar,Saharsa,"Police Line, Saharsa - BSPCB",12-05-2024 06:00:00,25.892357,86.590325,NO2,6,8,7
India,Bihar,Samastipur,"DM Office_Kasipur, Samastipur - BSPCB",12-05-2024 06:00:00,25.859655,85.77944,NO2,4,5,4
India,Bihar,Sasaram,"Dada Peer, Sasaram - BSPCB",12-05-2024 06:00:00,24.952822,84.002396,CO,82,88,87
India,Bihar,Siwan,"Chitragupta Nagar, Siwan - BSPCB",12-05-2024 06:00:00,26.2271665,84.3570427,NO2,12,31,20
India,Bihar,Siwan,"Chitragupta Nagar, Siwan - BSPCB",12-05-2024 06:00:00,26.2271665,84.3570427,NH3,1,3,2
India,Chandigarh,Chandigarh,"Sector 22, Chandigarh - CPCC",12-05-2024 06:00:00,30.735567,76.775714,PM2.5,50,140,80
India,Chandigarh,Chandigarh,"Sector-25, Chandigarh - CPCC",12-05-2024 06:00:00,30.751462,76.762879,PM10,104,327,158
India,Chandigarh,Chandigarh,"Sector-25, Chandigarh - CPCC",12-05-2024 06:00:00,30.751462,76.762879,OZONE,4,46,9
India,Chandigarh,Chandigarh,"Sector-53, Chandigarh - CPCC",12-05-2024 06:00:00,30.719859,76.738637,SO2,13,44,20
India,Chandigarh,Chandigarh,"Sector-53, Chandigarh - CPCC",12-05-2024 06:00:00,30.719859,76.738637,OZONE,8,69,15
India,Chhattisgarh,Bhilai,"32Bungalows, Bhilai - CECB",12-05-2024 06:00:00,21.194815,81.314770,CO,11,24,22
India,Chhattisgarh,Bhilai,"Civic Center, Bhilai - Bhilai Steel Plant",12-05-2024 06:00:00,21.185571,81.343175,PM10,27,72,43
India,Chhattisgarh,Bhilai,"Civic Center, Bhilai - Bhilai Steel Plant",12-05-2024 06:00:00,21.185571,81.343175,NO2,11,20,14
India,Chhattisgarh,Bhilai,"Civic Center, Bhilai - Bhilai Steel Plant",12-05-2024 06:00:00,21.185571,81.343175,CO,21,56,38
India,Chhattisgarh,Bhilai,"Hathkhoj, Bhilai - CECB",12-05-2024 06:00:00,21.224231,81.408350,CO,12,30,22
India,Chhattisgarh,Bilaspur,"Mangala, Bilaspur - NTPC",12-05-2024 06:00:00,22.08815,82.13737,NO2,13,15,14
India,Chhattisgarh,Korba,"Rampur, Korba - CECB",12-05-2024 06:00:00,22.368195,82.746431,NH3,1,1,1
India,Chhattisgarh,Korba,"Urja Nagar, Korba - CECB",12-05-2024 06:00:00,22.348441,82.549611,CO,24,130,26
India,Chhattisgarh,Kunjemura,"OP Jindal School, Kunjemura - CECB",12-05-2024 06:00:00,22.126650,83.483212,PM2.5,40,89,58
India,Chhattisgarh,Kunjemura,"OP Jindal School, Kunjemura - CECB",12-05-2024 06:00:00,22.126650,83.483212,NH3,1,11,4
India,Chhattisgarh,Milupara,"Govt. Higher Secondary School, Milupara - CECB",12-05-2024 06:00:00,22.1910172,83.5197009,NO2,12,51,26
India,Chhattisgarh,Raipur,"AIIMS, Raipur - CECB",12-05-2024 06:00:00,21.258815,81.578979,NO2,12,34,20
India,Chhattisgarh,Raipur,"AIIMS, Raipur - CECB",12-05-2024 06:00:00,21.258815,81.578979,CO,18,33,30
India,Chhattisgarh,Raipur,"Krishak Nagar, Raipur - CECB",12-05-2024 06:00:00,21.237755,81.705301,PM2.5,19,44,28
India,Chhattisgarh,Raipur,"Krishak Nagar, Raipur - CECB",12-05-2024 06:00:00,21.237755,81.705301,SO2,13,33,18
India,Chhattisgarh,Raipur,"Krishak Nagar, Raipur - CECB",12-05-2024 06:00:00,21.237755,81.705301,OZONE,1,40,7
India,Chhattisgarh,Raipur,"Siltara Phase-II, Raipur - CECB",12-05-2024 06:00:00,21.371751,81.664929,PM10,41,182,82
India,Chhattisgarh,Raipur,"Siltara Phase-II, Raipur - CECB",12-05-2024 06:00:00,21.371751,81.664929,NO2,29,68,42
India,Chhattisgarh,Raipur,"Siltara Phase-II, Raipur - CECB",12-05-2024 06:00:00,21.371751,81.664929,CO,30,90,35
India,Chhattisgarh,Raipur,"Siltara Phase-II, Raipur - CECB",12-05-2024 06:00:00,21.371751,81.664929,OZONE,3,34,5
India,Delhi,Delhi,"Alipur, Delhi - DPCC",12-05-2024 06:00:00,28.815329,77.153010,PM10,NA,NA,NA
India,Delhi,Delhi,"Alipur, Delhi - DPCC",12-05-2024 06:00:00,28.815329,77.153010,NO2,NA,NA,NA
India,Delhi,Delhi,"Alipur, Delhi - DPCC",12-05-2024 06:00:00,28.815329,77.153010,OZONE,NA,NA,NA
India,Delhi,Delhi,"Anand Vihar, Delhi - DPCC",12-05-2024 06:00:00,28.647622,77.3158090,PM2.5,NA,NA,NA
India,Delhi,Delhi,"Anand Vihar, Delhi - DPCC",12-05-2024 06:00:00,28.647622,77.3158090,PM10,124,352,223
India,Delhi,Delhi,"Anand Vihar, Delhi - DPCC",12-05-2024 06:00:00,28.647622,77.3158090,NO2,62,142,107
India,Delhi,Delhi,"Anand Vihar, Delhi - DPCC",12-05-2024 06:00:00,28.647622,77.3158090,SO2,18,62,37
India,Delhi,Delhi,"Ashok Vihar, Delhi - DPCC",12-05-2024 06:00:00,28.695381,77.181665,PM2.5,50,293,129
India,Delhi,Delhi,"Ashok Vihar, Delhi - DPCC",12-05-2024 06:00:00,28.695381,77.181665,NO2,10,101,52
India,Delhi,Delhi,"Ashok Vihar, Delhi - DPCC",12-05-2024 06:00:00,28.695381,77.181665,CO,47,157,157
India,Delhi,Delhi,"Aya Nagar, Delhi - IMD",12-05-2024 06:00:00,28.4706914,77.1099364,NO2,12,19,15
India,Delhi,Delhi,"Bawana, Delhi - DPCC",12-05-2024 06:00:00,28.776200,77.051074,CO,8,70,45
India,Delhi,Delhi,"Burari Crossing, Delhi - IMD",12-05-2024 06:00:00,28.7256504,77.2011573,OZONE,9,130,18
India,Delhi,Delhi,"CRRI Mathura Road, Delhi - IMD",12-05-2024 06:00:00,28.5512005,77.2735737,NO2,5,15,9
India,Delhi,Delhi,"Chandni Chowk, Delhi - IITM",12-05-2024 06:00:00,28.656756,77.227234,PM2.5,153,279,221
India,Delhi,Delhi,"DTU, Delhi - CPCB",12-05-2024 06:00:00,28.7500499,77.1112615,CO,7,48,37
India,Delhi,Delhi,"Dr. Karni Singh Shooting Range, Delhi - DPCC",12-05-2024 06:00:00,28.498571,77.264840,PM2.5,55,280,125
India,Delhi,Delhi,"Dr. Karni Singh Shooting Range, Delhi - DPCC",12-05-2024 06:00:00,28.498571,77.264840,NO2,26,108,50
India,Delhi,Delhi,"Dwarka-Sector 8, Delhi - DPCC ",12-05-2024 06:00:00,28.5710274,77.0719006,PM2.5,68,230,112
India,Delhi,Delhi,"Dwarka-Sector 8, Delhi - DPCC ",12-05-2024 06:00:00,28.5710274,77.0719006,NO2,20,118,61
India,Delhi,Delhi,"Dwarka-Sector 8, Delhi - DPCC ",12-05-2024 06:00:00,28.5710274,77.0719006,CO,50,104,82
India,Delhi,Delhi,"IHBAS, Dilshad Garden, Delhi - CPCB",12-05-2024 06:00:00,28.6811736,77.3025234,NO2,33,41,37
India,Delhi,Delhi,"IHBAS, Dilshad Garden, Delhi - CPCB",12-05-2024 06:00:00,28.6811736,77.3025234,CO,9,71,14
India,Delhi,Delhi,"ITO, Delhi - CPCB",12-05-2024 06:00:00,28.628624,77.241060,SO2,8,25,16
India,Delhi,Delhi,"Jawaharlal Nehru Stadium, Delhi - DPCC",12-05-2024 06:00:00,28.580280,77.233829,SO2,8,31,16
India,Delhi,Delhi,"Mundka, Delhi - DPCC",12-05-2024 06:00:00,28.684678,77.076574,NH3,6,10,7
India,Delhi,Delhi,"Mundka, Delhi - DPCC",12-05-2024 06:00:00,28.684678,77.076574,SO2,7,27,12
India,Delhi,Delhi,"Mundka, Delhi - DPCC",12-05-2024 06:00:00,28.684678,77.076574,CO,40,92,77
India,Delhi,Delhi,"NSIT Dwarka, Delhi - CPCB",12-05-2024 06:00:00,28.60909,77.0325413,SO2,NA,NA,NA
India,Delhi,Delhi,"Najafgarh, Delhi - DPCC",12-05-2024 06:00:00,28.570173,76.933762,PM2.5,58,262,93
India,Delhi,Delhi,"Najafgarh, Delhi - DPCC",12-05-2024 06:00:00,28.570173,76.933762,NH3,9,13,10
India,Delhi,Delhi,"Narela, Delhi - DPCC",12-05-2024 06:00:00,28.822836,77.101981,PM10,128,438,197
India,Delhi,Delhi,"Narela, Delhi - DPCC",12-05-2024 06:00:00,28.822836,77.101981,NH3,6,11,8
India,Delhi,Delhi,"Narela, Delhi - DPCC",12-05-2024 06:00:00,28.822836,77.101981,SO2,8,101,25
India,Delhi,Delhi,"Nehru Nagar, Delhi - DPCC",12-05-2024 06:00:00,28.567890,77.250515,PM2.5,77,233,137
India,Delhi,Delhi,"Nehru Nagar, Delhi - DPCC",12-05-2024 06:00:00,28.567890,77.250515,NO2,3,31,13
India,Delhi,Delhi,"Okhla Phase-2, Delhi - DPCC",12-05-2024 06:00:00,28.530785,77.271255,SO2,10,15,12
India,Delhi,Delhi,"Patparganj, Delhi - DPCC",12-05-2024 06:00:00,28.623763,77.287209,PM2.5,NA,NA,NA
India,Delhi,Delhi,"Punjabi Bagh, Delhi - DPCC",12-05-2024 06:00:00,28.674045,77.131023,PM2.5,38,332,170
India,Delhi,Delhi,"Punjabi Bagh, Delhi - DPCC",12-05-2024 06:00:00,28.674045,77.131023,NO2,27,74,47
India,Delhi,Delhi,"Punjabi Bagh, Delhi - DPCC",12-05-2024 06:00:00,28.674045,77.131023,NH3,3,4,3
India,Delhi,Delhi,"Punjabi Bagh, Delhi - DPCC",12-05-2024 06:00:00,28.674045,77.131023,CO,38,76,52
India,Delhi,Delhi,"Pusa, Delhi - IMD",12-05-2024 06:00:00,28.636110,77.173332,PM2.5,NA,NA,NA
India,Delhi,Delhi,"Pusa, Delhi - IMD",12-05-2024 06:00:00,28.636110,77.173332,NO2,NA,NA,NA
India,Delhi,Delhi,"Pusa, Delhi - IMD",12-05-2024 06:00:00,28.636110,77.173332,CO,42,70,70
India,Delhi,Delhi,"R K Puram, Delhi - DPCC",12-05-2024 06:00:00,28.563262,77.186937,OZONE,13,251,38
India,Delhi,Delhi,"Shadipur, Delhi - CPCB",12-05-2024 06:00:00,28.6514781,77.1473105,CO,38,88,51
India,Delhi,Delhi,"Shadipur, Delhi - CPCB",12-05-2024 06:00:00,28.6514781,77.1473105,OZONE,14,36,21
India,Delhi,Delhi,"Sirifort, Delhi - CPCB",12-05-2024 06:00:00,28.5504249,77.2159377,PM10,117,450,194
India,Delhi,Delhi,"Sirifort, Delhi - CPCB",12-05-2024 06:00:00,28.5504249,77.2159377,NH3,22,24,22
India,Delhi,Delhi,"Sonia Vihar, Delhi - DPCC",12-05-2024 06:00:00,28.710508,77.249485,PM10,111,424,212
India,Delhi,Delhi,"Sonia Vihar, Delhi - DPCC",12-05-2024 06:00:00,28.710508,77.249485,CO,38,107,100
India,Delhi,Delhi,"Vivek Vihar, Delhi - DPCC",12-05-2024 06:00:00,28.672342,77.315260,PM2.5,59,306,161
India,Delhi,Delhi,"Wazirpur, Delhi - DPCC",12-05-2024 06:00:00,28.699793,77.165453,CO,68,106,102
India,Gujarat,Ahmedabad,"Chandkheda, Ahmedabad - IITM",12-05-2024 06:00:00,23.107969,72.574648,PM10,48,147,77
India,Gujarat,Ahmedabad,"Maninagar, Ahmedabad - GPCB",12-05-2024 06:00:00,23.002657,72.591912,PM2.5,13,103,50
India,Gujarat,Ahmedabad,"Maninagar, Ahmedabad - GPCB",12-05-2024 06:00:00,23.002657,72.591912,OZONE,3,236,26
India,Gujarat,Ahmedabad,"Raikhad, Ahmedabad - IITM",12-05-2024 06:00:00,23.020509,72.579261,PM2.5,44,341,186
India,Gujarat,Ahmedabad,"Raikhad, Ahmedabad - IITM",12-05-2024 06:00:00,23.020509,72.579261,PM10,47,217,121
India,Gujarat,Ahmedabad,"Rakhial, Ahmedabad - IITM",12-05-2024 06:00:00,23.016834,72.625775,PM2.5,7,476,106
India,Gujarat,Ahmedabad,"Rakhial, Ahmedabad - IITM",12-05-2024 06:00:00,23.016834,72.625775,OZONE,5,176,13
India,Gujarat,Ahmedabad,"SVPI Airport Hansol, Ahmedabad - IITM",12-05-2024 06:00:00,23.076793,72.627874,PM2.5,44,152,67
India,Gujarat,Ahmedabad,"SVPI Airport Hansol, Ahmedabad - IITM",12-05-2024 06:00:00,23.076793,72.627874,NH3,5,6,5
India,Gujarat,Ahmedabad,"SVPI Airport Hansol, Ahmedabad - IITM",12-05-2024 06:00:00,23.076793,72.627874,OZONE,10,101,15
India,Gujarat,Ahmedabad,"Sardar Vallabhbhai Patel Stadium, Ahmedabad - IITM",12-05-2024 06:00:00,23.043070,72.562968,PM2.5,50,148,80
India,Gujarat,Ankleshwar,"GIDC, Ankleshwar - GPCB",12-05-2024 06:00:00,21.613267,73.010555,PM10,NA,NA,NA
India,Gujarat,Gandhinagar,"Sector-10, Gandhinagar - GPCB",12-05-2024 06:00:00,23.221714,72.654328,CO,34,86,52
India,Gujarat,Vatva,"Phase-4 GIDC, Vatva - GPCB",12-05-2024 06:00:00,22.969611,72.643500,PM2.5,18,57,34
India,Gujarat,Vatva,"Phase-4 GIDC, Vatva - GPCB",12-05-2024 06:00:00,22.969611,72.643500,PM10,42,124,88
India,Gujarat,Vatva,"Phase-4 GIDC, Vatva - GPCB",12-05-2024 06:00:00,22.969611,72.643500,SO2,6,38,14
India,Haryana,Ambala,"Patti Mehar, Ambala - HSPCB",12-05-2024 06:00:00,30.379589,76.778328,NO2,10,21,14
India,Haryana,Ambala,"Patti Mehar, Ambala - HSPCB",12-05-2024 06:00:00,30.379589,76.778328,NH3,5,12,9
India,Haryana,Ambala,"Patti Mehar, Ambala - HSPCB",12-05-2024 06:00:00,30.379589,76.778328,SO2,5,28,21
India,Haryana,Bahadurgarh,"Arya Nagar, Bahadurgarh - HSPCB",12-05-2024 06:00:00,28.6701,76.9254,NO2,19,26,22
India,Haryana,Bahadurgarh,"Arya Nagar, Bahadurgarh - HSPCB",12-05-2024 06:00:00,28.6701,76.9254,CO,84,102,98
India,Haryana,Bahadurgarh,"Arya Nagar, Bahadurgarh - HSPCB",12-05-2024 06:00:00,28.6701,76.9254,OZONE,30,42,37
India,Haryana,Bhiwani,"H.B. Colony, Bhiwani - HSPCB",12-05-2024 06:00:00,28.806223,76.141105,PM10,84,183,116
India,Haryana,Bhiwani,"H.B. Colony, Bhiwani - HSPCB",12-05-2024 06:00:00,28.806223,76.141105,CO,2,52,44
India,Haryana,Charkhi Dadri,"Mini Secretariat, Charkhi Dadri - HSPCB",12-05-2024 06:00:00,28.593883,76.270653,NO2,14,22,18
India,Haryana,Charkhi Dadri,"Mini Secretariat, Charkhi Dadri - HSPCB",12-05-2024 06:00:00,28.593883,76.270653,OZONE,14,17,15
India,Haryana,Dharuhera,"Municipal Corporation Office, Dharuhera -  HSPCB",12-05-2024 06:00:00,28.206800,76.799700,SO2,3,65,11
India,Haryana,Faridabad,"Sector 11, Faridabad - HSPCB",12-05-2024 06:00:00,28.376058,77.315741,PM10,169,470,255
India,Haryana,Gurugram,"NISE Gwal Pahari, Gurugram - IMD",12-05-2024 06:00:00,28.422681,77.148944,PM2.5,NA,NA,NA
India,Haryana,Gurugram,"NISE Gwal Pahari, Gurugram - IMD",12-05-2024 06:00:00,28.422681,77.148944,NO2,NA,NA,NA
India,Haryana,Gurugram,"NISE Gwal Pahari, Gurugram - IMD",12-05-2024 06:00:00,28.422681,77.148944,CO,8,49,43
India,Haryana,Gurugram,"Sector-51, Gurugram - HSPCB",12-05-2024 06:00:00,28.4227,77.0667,NO2,13,29,23
India,Haryana,Hisar,"Urban Estate-II, Hisar - HSPCB",12-05-2024 06:00:00,29.140560,75.744941,SO2,1,6,3
India,Haryana,Kaithal,"Rishi Nagar, Kaithal - HSPCB",12-05-2024 06:00:00,29.8006,76.4155,OZONE,10,22,13
India,Haryana,Kurukshetra,"Sector-7, Kurukshetra - HSPCB",12-05-2024 06:00:00,29.966942,76.875879,PM2.5,80,153,119
India,Haryana,Kurukshetra,"Sector-7, Kurukshetra - HSPCB",12-05-2024 06:00:00,29.966942,76.875879,PM10,73,197,124
India,Haryana,Kurukshetra,"Sector-7, Kurukshetra - HSPCB",12-05-2024 06:00:00,29.966942,76.875879,OZONE,15,84,28
India,Haryana,Mandikhera,"General Hospital, Mandikhera - HSPCB",12-05-2024 06:00:00,27.9002,76.9938,PM10,6,407,178
India,Haryana,Mandikhera,"General Hospital, Mandikhera - HSPCB",12-05-2024 06:00:00,27.9002,76.9938,SO2,31,37,34
India,Haryana,Narnaul,"Shastri Nagar, Narnaul - HSPCB",12-05-2024 06:00:00,28.060249,76.113115,PM2.5,83,236,148
India,Haryana,Narnaul,"Shastri Nagar, Narnaul - HSPCB",12-05-2024 06:00:00,28.060249,76.113115,CO,26,44,32
India,Haryana,Narnaul,"Shastri Nagar, Narnaul - HSPCB",12-05-2024 06:00:00,28.060249,76.113115,OZONE,28,60,49
India,Haryana,Palwal,"Shyam Nagar, Palwal - HSPCB",12-05-2024 06:00:00,28.1485564,77.3320667,SO2,5,19,11
India,Haryana,Panchkula,"Sector-6, Panchkula - HSPCB ",12-05-2024 06:00:00,30.7057778,76.8531805555555,PM2.5,71,345,227
India,Haryana,Panchkula,"Sector-6, Panchkula - HSPCB ",12-05-2024 06:00:00,30.7057778,76.8531805555555,CO,2,47,8
India,Haryana,Panipat,"Sector-18, Panipat - HSPCB",12-05-2024 06:00:00,29.497973,76.993331,SO2,NA,NA,NA
India,Haryana,Panipat,"Sector-18, Panipat - HSPCB",12-05-2024 06:00:00,29.497973,76.993331,OZONE,30,30,30
India,Haryana,Sirsa,"F-Block, Sirsa - HSPCB",12-05-2024 06:00:00,29.536400,75.015800,CO,64,76,74
India,Haryana,Yamuna Nagar,"Gobind Pura, Yamuna Nagar - HSPCB",12-05-2024 06:00:00,30.1480566,77.2893471,NO2,11,29,18
India,Jammu_and_Kashmir,Srinagar,"Rajbagh, Srinagar - JKSPCB",12-05-2024 06:00:00,34.066206,74.819820,PM2.5,25,54,35
India,Jammu_and_Kashmir,Srinagar,"Rajbagh, Srinagar - JKSPCB",12-05-2024 06:00:00,34.066206,74.819820,SO2,11,24,13
India,Jammu_and_Kashmir,Srinagar,"Rajbagh, Srinagar - JKSPCB",12-05-2024 06:00:00,34.066206,74.819820,CO,20,28,24
India,Jharkhand,Dhanbad,"Kalakusuma, Dhanbad - DMC",12-05-2024 06:00:00,23.811548,86.481238,PM2.5,NA,NA,NA
India,Jharkhand,Dhanbad,"Kalakusuma, Dhanbad - DMC",12-05-2024 06:00:00,23.811548,86.481238,NO2,13,15,14
India,Jharkhand,Pathardih,"Mohalbani Ghat, Pathardih - DMC",12-05-2024 06:00:00,23.669880,86.411725,PM2.5,NA,NA,NA
India,Jharkhand,Pathardih,"Mohalbani Ghat, Pathardih - DMC",12-05-2024 06:00:00,23.669880,86.411725,PM10,NA,NA,NA
India,Jharkhand,Pathardih,"Mohalbani Ghat, Pathardih - DMC",12-05-2024 06:00:00,23.669880,86.411725,NO2,NA,NA,NA
India,Jharkhand,Pathardih,"Mohalbani Ghat, Pathardih - DMC",12-05-2024 06:00:00,23.669880,86.411725,CO,NA,NA,NA
India,Jharkhand,Pathardih,"Mohalbani Ghat, Pathardih - DMC",12-05-2024 06:00:00,23.669880,86.411725,OZONE,NA,NA,NA
India,Karnataka,Bagalkot,"Vidayagiri, Bagalkot - KSPCB",12-05-2024 06:00:00,16.172806,75.659694,NO2,9,10,9
India,Karnataka,Belgaum,"Ramteerth Nagar, Belgaum - KSPCB",12-05-2024 06:00:00,15.888653,74.541751,NO2,4,53,24
India,Karnataka,Bengaluru,"Hebbal, Bengaluru - KSPCB",12-05-2024 06:00:00,13.029152,77.585901,NH3,1,1,1
India,Karnataka,Bengaluru,"Jayanagar 5th Block, Bengaluru - KSPCB",12-05-2024 06:00:00,12.920984,77.584908,PM2.5,25,81,49
India,Karnataka,Bengaluru,"Kasturi Nagar, Bengaluru - KSPCB",12-05-2024 06:00:00,13.003872,77.664217,PM10,10,10,10
India,Karnataka,Bengaluru,"Sanegurava Halli, Bengaluru - KSPCB",12-05-2024 06:00:00,12.990328,77.5431385,PM10,34,61,41
India,Karnataka,Bengaluru,"Silk Board, Bengaluru - KSPCB",12-05-2024 06:00:00,12.917348,77.622813,PM2.5,48,96,63
India,Karnataka,Bengaluru,"Silk Board, Bengaluru - KSPCB",12-05-2024 06:00:00,12.917348,77.622813,PM10,68,124,88
India,Karnataka,Chamarajanagar,"Urban, Chamarajanagar - KSPCB",12-05-2024 06:00:00,11.55358,76.55521,PM10,45,46,45
India,Karnataka,Chikkaballapur,"Chikkaballapur Rural, Chikkaballapur - KSPCB",12-05-2024 06:00:00,13.428828,77.731418,NO2,6,31,12
India,Karnataka,Davanagere,"Devaraj Urs Badavane, Davanagere - KSPCB",12-05-2024 06:00:00,14.475800,75.905200,SO2,4,7,5
India,Karnataka,Davanagere,"Devaraj Urs Badavane, Davanagere - KSPCB",12-05-2024 06:00:00,14.475800,75.905200,OZONE,16,20,19
India,Karnataka,Dharwad,"Kalabhavan, Dharwad - KSPCB",12-05-2024 06:00:00,15.459706,75.008381,PM2.5,NA,NA,NA
India,Karnataka,Dharwad,"Kalabhavan, Dharwad - KSPCB",12-05-2024 06:00:00,15.459706,75.008381,SO2,NA,NA,NA
India,Karnataka,Dharwad,"Kalabhavan, Dharwad - KSPCB",12-05-2024 06:00:00,15.459706,75.008381,OZONE,2,31,9
India,Karnataka,Gadag,"Panchal Nagar, Gadag - KSPCB",12-05-2024 06:00:00,15.411456,75.638133,PM10,22,43,33
India,Karnataka,Hassan,"B.Katihalli, Hassan - KSPCB",12-05-2024 06:00:00,13.008556,76.125258,NH3,4,5,4
India,Karnataka,Hassan,"B.Katihalli, Hassan - KSPCB",12-05-2024 06:00:00,13.008556,76.125258,SO2,33,101,64
India,Karnataka,Haveri,"Ashwini Nagar, Haveri - KSPCB",12-05-2024 06:00:00,14.791800,75.389600,PM2.5,NA,NA,NA
India,Karnataka,Haveri,"Ashwini Nagar, Haveri - KSPCB",12-05-2024 06:00:00,14.791800,75.389600,PM10,NA,NA,NA
India,Karnataka,Haveri,"Ashwini Nagar, Haveri - KSPCB",12-05-2024 06:00:00,14.791800,75.389600,SO2,NA,NA,NA
India,Karnataka,Hubballi,"Lingaraj Nagar, Hubballi - KSPCB",12-05-2024 06:00:00,15.3714823,75.1160168,PM10,48,76,55
India,Karnataka,Hubballi,"Lingaraj Nagar, Hubballi - KSPCB",12-05-2024 06:00:00,15.3714823,75.1160168,NH3,2,2,2
India,Karnataka,Kalaburagi,"Lal Bahadur Shastri Nagar, Kalaburagi - KSPCB",12-05-2024 06:00:00,17.321993,76.822628,PM10,NA,NA,NA
India,Karnataka,Kalaburagi,"Lal Bahadur Shastri Nagar, Kalaburagi - KSPCB",12-05-2024 06:00:00,17.321993,76.822628,NH3,2,13,7
India,Karnataka,Kalaburagi,"Mahatma Basaveswar Colony, Kalaburgi - KSPCB",12-05-2024 06:00:00,17.336318,76.847397,PM2.5,27,36,33
India,Karnataka,Kalaburagi,"Mahatma Basaveswar Colony, Kalaburgi - KSPCB",12-05-2024 06:00:00,17.336318,76.847397,SO2,1,8,3
India,Karnataka,Karwar,"KHB Colony, Karwar - KSPCB",12-05-2024 06:00:00,14.816666,74.141003,PM10,35,50,43
India,Karnataka,Karwar,"KHB Colony, Karwar - KSPCB",12-05-2024 06:00:00,14.816666,74.141003,NO2,1,10,3
India,Karnataka,Kolar,"Tamaka Ind. Area, Kolar - KSPCB",12-05-2024 06:00:00,13.1276288,78.1570122,PM2.5,NA,NA,NA
India,Karnataka,Koppal,"Diwator Nagar, Koppal - KSPCB",12-05-2024 06:00:00,15.347630,76.181767,PM10,9,52,27
India,Karnataka,Koppal,"Diwator Nagar, Koppal - KSPCB",12-05-2024 06:00:00,15.347630,76.181767,OZONE,20,80,42
India,Karnataka,Madikeri,"Stuart Hill, Madikeri - KSPCB",12-05-2024 06:00:00,12.415911,75.735050,PM2.5,10,45,22
India,Karnataka,Madikeri,"Stuart Hill, Madikeri - KSPCB",12-05-2024 06:00:00,12.415911,75.735050,OZONE,24,42,28
India,Karnataka,Mangalore,"Kadri, Mangalore - KSPCB",12-05-2024 06:00:00,12.889250,74.853000,NH3,2,2,2
India,Karnataka,Mysuru,"Hebbal 1st Stage, Mysuru - KSPCB",12-05-2024 06:00:00,12.21041,76.37376,NH3,1,2,2
India,Karnataka,Shivamogga,"Vinoba Nagara, Shivamogga - KSPCB",12-05-2024 06:00:00,13.940000,75.555917,NO2,10,16,13
India,Karnataka,Shivamogga,"Vinoba Nagara, Shivamogga - KSPCB",12-05-2024 06:00:00,13.940000,75.555917,OZONE,8,81,36
India,Karnataka,Tumakuru,"Thimmalapura, Tumakuru - KSPCB",12-05-2024 06:00:00,13.377516,77.099072,OZONE,NA,NA,NA
India,Karnataka,Udupi,"Brahmagiri, Udupi - KSPCB",12-05-2024 06:00:00,13.34194444,74.74694444,NO2,28,30,29
India,Karnataka,Udupi,"Brahmagiri, Udupi - KSPCB",12-05-2024 06:00:00,13.34194444,74.74694444,CO,48,51,49
India,Karnataka,Udupi,"Brahmagiri, Udupi - KSPCB",12-05-2024 06:00:00,13.34194444,74.74694444,OZONE,23,23,23
India,Karnataka,Vijayapura,"Ibrahimpur, Vijayapura - KSPCB",12-05-2024 06:00:00,16.802639,75.722694,PM2.5,26,31,30
India,Karnataka,Vijayapura,"Ibrahimpur, Vijayapura - KSPCB",12-05-2024 06:00:00,16.802639,75.722694,NH3,2,2,2
India,Karnataka,Yadgir,"Collector Office, Yadgir - KSPCB",12-05-2024 06:00:00,16.7602,77.1428,OZONE,18,20,19
India,Kerala,Eloor,"Udyogamandal, Eloor - Kerala PCB",12-05-2024 06:00:00,10.073232,76.302765,PM2.5,30,54,40
India,Kerala,Eloor,"Udyogamandal, Eloor - Kerala PCB",12-05-2024 06:00:00,10.073232,76.302765,PM10,33,47,39
India,Kerala,Kannur,"Thavakkara, Kannur - Kerala PCB",12-05-2024 06:00:00,11.875000,75.373200,NO2,6,7,6
India,Kerala,Kannur,"Thavakkara, Kannur - Kerala PCB",12-05-2024 06:00:00,11.875000,75.373200,OZONE,31,36,31
India,Kerala,Kollam,"Polayathode, Kollam - Kerala PCB",12-05-2024 06:00:00,8.8787,76.6073,PM2.5,41,130,79
India,Kerala,Kollam,"Polayathode, Kollam - Kerala PCB",12-05-2024 06:00:00,8.8787,76.6073,PM10,47,92,69
India,Kerala,Kollam,"Polayathode, Kollam - Kerala PCB",12-05-2024 06:00:00,8.8787,76.6073,SO2,1,26,4
India,Kerala,Thiruvananthapuram,"Kariavattom, Thiruvananthapuram - Kerala PCB",12-05-2024 06:00:00,8.563700,76.886500,NO2,NA,NA,NA
India,Kerala,Thiruvananthapuram,"Kariavattom, Thiruvananthapuram - Kerala PCB",12-05-2024 06:00:00,8.563700,76.886500,SO2,NA,NA,NA
India,Kerala,Thiruvananthapuram,"Kariavattom, Thiruvananthapuram - Kerala PCB",12-05-2024 06:00:00,8.563700,76.886500,OZONE,28,31,30
India,Kerala,Thrissur,"Corporation Ground, Thrissur - Kerala PCB",12-05-2024 06:00:00,10.532400,76.215900,PM10,59,70,65
India,Kerala,Thrissur,"Corporation Ground, Thrissur - Kerala PCB",12-05-2024 06:00:00,10.532400,76.215900,OZONE,27,32,30
India,Madhya Pradesh,Bhopal,"T T Nagar, Bhopal - MPPCB",12-05-2024 06:00:00,23.233584,77.400574,PM2.5,25,92,46
India,Madhya Pradesh,Bhopal,"T T Nagar, Bhopal - MPPCB",12-05-2024 06:00:00,23.233584,77.400574,NH3,1,3,2
India,Madhya Pradesh,Gwalior,"City Center, Gwalior - MPPCB",12-05-2024 06:00:00,26.203442,78.193251,PM2.5,55,238,95
India,Madhya Pradesh,Gwalior,"City Center, Gwalior - MPPCB",12-05-2024 06:00:00,26.203442,78.193251,NH3,3,4,3
India,Madhya Pradesh,Gwalior,"City Center, Gwalior - MPPCB",12-05-2024 06:00:00,26.203442,78.193251,CO,24,86,48
India,Madhya Pradesh,Gwalior,"City Center, Gwalior - MPPCB",12-05-2024 06:00:00,26.203442,78.193251,OZONE,21,61,27
India,Madhya Pradesh,Gwalior,"Maharaj Bada, Gwalior - MPPCB",12-05-2024 06:00:00,26.200388,78.147714,NH3,3,19,6
India,Madhya Pradesh,Gwalior,"Maharaj Bada, Gwalior - MPPCB",12-05-2024 06:00:00,26.200388,78.147714,CO,6,105,36
India,Madhya Pradesh,Gwalior,"Phool Bagh, Gwalior - Mondelez Ind. Food",12-05-2024 06:00:00,26.210536,78.171,NO2,3,5,4
India,Madhya Pradesh,Indore,"Chhoti Gwaltoli, Indore - MPPCB",12-05-2024 06:00:00,22.4310,75.5213,NH3,3,5,4
India,Madhya Pradesh,Indore,"Maguda Nagar, Indore - IMC",12-05-2024 06:00:00,22.7524,75.8872,PM10,24,64,39
India,Madhya Pradesh,Indore,"Maguda Nagar, Indore - IMC",12-05-2024 06:00:00,22.7524,75.8872,NH3,1,2,2
India,Madhya Pradesh,Indore,"Maguda Nagar, Indore - IMC",12-05-2024 06:00:00,22.7524,75.8872,SO2,29,36,32
India,Madhya Pradesh,Indore,"Maguda Nagar, Indore - IMC",12-05-2024 06:00:00,22.7524,75.8872,CO,24,33,31
India,Madhya Pradesh,Indore,"Regional Park, Indore - IMC",12-05-2024 06:00:00,22.6780,75.8559,SO2,47,50,49
India,Madhya Pradesh,Jabalpur,"Govindh Bhavan Colony, Jabalpur - JMC",12-05-2024 06:00:00,23.163174,79.973061,PM2.5,32,227,61
India,Madhya Pradesh,Jabalpur,"Govindh Bhavan Colony, Jabalpur - JMC",12-05-2024 06:00:00,23.163174,79.973061,SO2,7,43,29
India,Madhya Pradesh,Jabalpur,"Gupteshwar, Jabalpur - JMC",12-05-2024 06:00:00,23.142888,79.916147,CO,14,82,45
India,Madhya Pradesh,Jabalpur,"Marhatal, Jabalpur - MPPCB",12-05-2024 06:00:00,23.168606,79.932247,PM10,76,117,99
India,Madhya Pradesh,Jabalpur,"Suhagi, Jabalpur - JMC",12-05-2024 06:00:00,23.218135,79.957770,NO2,38,45,42
India,Madhya Pradesh,Katni,"Gole Bazar, Katni - MPPCB",12-05-2024 06:00:00,23.50016,80.23284,SO2,20,61,32
India,Madhya Pradesh,Katni,"Gole Bazar, Katni - MPPCB",12-05-2024 06:00:00,23.50016,80.23284,CO,20,64,35
India,Madhya Pradesh,Mandideep,"Sector-D Industrial Area, Mandideep - MPPCB",12-05-2024 06:00:00,23.108440,77.511428,PM10,63,250,124
India,Madhya Pradesh,Pithampur,"Sector-2 Industrial Area, Pithampur - MPPCB",12-05-2024 06:00:00,22.624758,75.675238,PM10,75,174,118
India,Madhya Pradesh,Ratlam,"Shasthri Nagar, Ratlam - IPCA Lab",12-05-2024 06:00:00,23.331731,75.045981,NO2,35,36,36
India,Madhya Pradesh,Ratlam,"Shasthri Nagar, Ratlam - IPCA Lab",12-05-2024 06:00:00,23.331731,75.045981,SO2,28,101,34
India,Madhya Pradesh,Sagar,"Civil Lines, Sagar - MPPCB",12-05-2024 06:00:00,23.838586,78.759431,CO,16,50,24
India,Madhya Pradesh,Sagar,"Deen Dayal Nagar, Sagar - MPPCB",12-05-2024 06:00:00,23.8640158,78.80289321,PM2.5,20,51,35
India,Madhya Pradesh,Sagar,"Deen Dayal Nagar, Sagar - MPPCB",12-05-2024 06:00:00,23.8640158,78.80289321,CO,25,111,56
India,Madhya Pradesh,Singrauli,"Suryakiran Bhawan NCL, Singrauli - MPPCB",12-05-2024 06:00:00,24.108970,82.645580,NH3,4,5,5
India,Madhya Pradesh,Singrauli,"Suryakiran Bhawan NCL, Singrauli - MPPCB",12-05-2024 06:00:00,24.108970,82.645580,OZONE,9,98,20
India,Madhya Pradesh,Ujjain,"Mahakaleshwar Temple, Ujjain - MPPCB",12-05-2024 06:00:00,23.182719 ,75.768218 ,PM2.5,20,45,31
India,Maharashtra,Ahmednagar,"Tarakpur, Ahmednagar - MPCB",12-05-2024 06:00:00,19.10122,74.73339,PM2.5,1,188,43
India,Maharashtra,Ahmednagar,"Tarakpur, Ahmednagar - MPCB",12-05-2024 06:00:00,19.10122,74.73339,NO2,16,104,35
India,Maharashtra,Ahmednagar,"Tarakpur, Ahmednagar - MPCB",12-05-2024 06:00:00,19.10122,74.73339,SO2,10,68,31
India,Maharashtra,Ahmednagar,"Tarakpur, Ahmednagar - MPCB",12-05-2024 06:00:00,19.10122,74.73339,CO,2,82,68
India,Maharashtra,Ahmednagar,"Tarakpur, Ahmednagar - MPCB",12-05-2024 06:00:00,19.10122,74.73339,OZONE,11,108,51
India,Maharashtra,Akola,"Ramdaspeth, Akola - MPCB",12-05-2024 06:00:00,20.719516,77.000253,OZONE,4,99,25
India,Maharashtra,Amravati,"Shivneri Colony, Amravati - MPCB",12-05-2024 06:00:00,20.9402359,77.7895248,NH3,3,7,5
India,Maharashtra,Amravati,"Shri Shivaji Science College, Amaravati - MPCB",12-05-2024 06:00:00,20.939198,77.765701,NO2,9,144,58
India,Maharashtra,Amravati,"Shri Shivaji Science College, Amaravati - MPCB",12-05-2024 06:00:00,20.939198,77.765701,SO2,NA,NA,NA
India,Maharashtra,Amravati,"Shri Shivaji Science College, Amaravati - MPCB",12-05-2024 06:00:00,20.939198,77.765701,CO,18,106,51
India,Maharashtra,Aurangabad,"More Chowk Waluj, Aurangabad - MPCB",12-05-2024 06:00:00,19.8389439,75.244448,NO2,NA,NA,NA
India,Maharashtra,Aurangabad,"More Chowk Waluj, Aurangabad - MPCB",12-05-2024 06:00:00,19.8389439,75.244448,SO2,NA,NA,NA
India,Maharashtra,Aurangabad,"Rachnakar Colony, Aurangabad - MPCB",12-05-2024 06:00:00,19.863756,75.321188,NO2,12,94,30
India,Maharashtra,Aurangabad,"Rachnakar Colony, Aurangabad - MPCB",12-05-2024 06:00:00,19.863756,75.321188,NH3,1,2,1
India,Maharashtra,Bhiwandi,"Gokul Nagar, Bhiwandi - MPCB",12-05-2024 06:00:00,19.309073,73.057223,NH3,1,3,2
India,Maharashtra,Bhiwandi,"Gokul Nagar, Bhiwandi - MPCB",12-05-2024 06:00:00,19.309073,73.057223,OZONE,21,90,52
India,Maharashtra,Boisar,"Khaira, Boisar - MPCB",12-05-2024 06:00:00,19.786089,72.757971,PM2.5,13,160,70
India,Maharashtra,Boisar,"Khaira, Boisar - MPCB",12-05-2024 06:00:00,19.786089,72.757971,SO2,1,37,14
India,Maharashtra,Boisar,"Khaira, Boisar - MPCB",12-05-2024 06:00:00,19.786089,72.757971,CO,8,40,19
India,Maharashtra,Boisar,"Khaira, Boisar - MPCB",12-05-2024 06:00:00,19.786089,72.757971,OZONE,2,16,5
India,Maharashtra,Chandrapur,"Chauhan Colony, Chandrapur - MPCB",12-05-2024 06:00:00,19.962900,79.298714,PM2.5,47,149,74
India,Maharashtra,Dhule,"Deopur, Dhule - MPCB",12-05-2024 06:00:00,20.918946,74.776388,CO,18,54,27
India,Maharashtra,Jalgaon,"Prabhat Colony, Jalgaon - MPCB",12-05-2024 06:00:00,21.001264,75.565602,SO2,7,23,11
India,Maharashtra,Jalna,"Old MIDC, Jalna - MPCB",12-05-2024 06:00:00,19.854616,75.905894,SO2,5,7,6
India,Maharashtra,Kolhapur,"Shivaji University, Kolhapur - MPCB",12-05-2024 06:00:00,16.6870449,74.2505872,NH3,3,5,4
India,Maharashtra,Kolhapur,"Sinchan Bhavan, Kolhapur - MPCB",12-05-2024 06:00:00,16.7143745,74.2426398,NH3,7,8,8
India,Maharashtra,Kolhapur,"Sinchan Bhavan, Kolhapur - MPCB",12-05-2024 06:00:00,16.7143745,74.2426398,CO,14,33,22
India,Maharashtra,Latur,"Sawe Wadi, Latur - MPCB",12-05-2024 06:00:00,18.39963,76.57452,PM2.5,NA,NA,NA
India,Maharashtra,Latur,"Sawe Wadi, Latur - MPCB",12-05-2024 06:00:00,18.39963,76.57452,NO2,12,128,50
India,Maharashtra,Mahad,"Kamble Tarf Birwadi, Mahad - MPCB",12-05-2024 06:00:00,18.1023399,73.4783687,PM10,43,143,85
India,Maharashtra,Mahad,"Kamble Tarf Birwadi, Mahad - MPCB",12-05-2024 06:00:00,18.1023399,73.4783687,NH3,5,12,6
India,Maharashtra,Malegaon,"Mahesh Nagar, Malegaon - MPCB",12-05-2024 06:00:00,20.555712,74.529236,PM2.5,68,121,94
India,Maharashtra,Malegaon,"Mahesh Nagar, Malegaon - MPCB",12-05-2024 06:00:00,20.555712,74.529236,SO2,3,12,8
India,Maharashtra,Mira-Bhayandar,"Bhayandar West, Mira-Bhayandar - MPCB",12-05-2024 06:00:00,19.296481,72.840923,SO2,2,4,3
India,Maharashtra,Mumbai,"Borivali East, Mumbai - IITM",12-05-2024 06:00:00,19.23241,72.86895,CO,2,24,10
India,Maharashtra,Mumbai,"Byculla, Mumbai - BMC",12-05-2024 06:00:00,18.9767,72.8380,OZONE,6,34,13
India,Maharashtra,Mumbai,"Chakala-Andheri East, Mumbai - IITM",12-05-2024 06:00:00,19.11074,72.86084,PM2.5,2,128,46
India,Maharashtra,Mumbai,"Chakala-Andheri East, Mumbai - IITM",12-05-2024 06:00:00,19.11074,72.86084,CO,17,91,22
India,Maharashtra,Mumbai,"Chembur, Mumbai - MPCB",12-05-2024 06:00:00,19.0364585,72.8954371,PM2.5,26,55,42
India,Maharashtra,Mumbai,"Chembur, Mumbai - MPCB",12-05-2024 06:00:00,19.0364585,72.8954371,NH3,4,5,4
India,Maharashtra,Mumbai,"Chhatrapati Shivaji Intl. Airport (T2), Mumbai - MPCB",12-05-2024 06:00:00,19.10078,72.87462,NH3,1,11,4
India,Maharashtra,Mumbai,"Colaba, Mumbai - MPCB",12-05-2024 06:00:00,18.910000,72.820000,PM10,37,69,51
India,Maharashtra,Mumbai,"Deonar, Mumbai - IITM",12-05-2024 06:00:00,19.04946,72.9230,NO2,7,14,10
India,Maharashtra,Mumbai,"Ghatkopar, Mumbai - BMC",12-05-2024 06:00:00,19.083694,72.920967,PM2.5,9,36,20
India,Maharashtra,Mumbai,"Ghatkopar, Mumbai - BMC",12-05-2024 06:00:00,19.083694,72.920967,PM10,30,49,42
India,Maharashtra,Mumbai,"Ghatkopar, Mumbai - BMC",12-05-2024 06:00:00,19.083694,72.920967,SO2,1,3,1
India,Maharashtra,Mumbai,"Kandivali East, Mumbai - MPCB",12-05-2024 06:00:00,19.205800,72.868200,OZONE,29,31,30
India,Maharashtra,Mumbai,"Kandivali West, Mumbai - BMC",12-05-2024 06:00:00,19.215859,72.831718,NH3,1,3,2
India,Maharashtra,Mumbai,"Kherwadi_Bandra East, Mumbai - MPCB",12-05-2024 06:00:00,19.0632143,72.8456324,NO2,5,39,13
India,Maharashtra,Mumbai,"Kherwadi_Bandra East, Mumbai - MPCB",12-05-2024 06:00:00,19.0632143,72.8456324,NH3,3,11,5
India,Maharashtra,Mumbai,"Kherwadi_Bandra East, Mumbai - MPCB",12-05-2024 06:00:00,19.0632143,72.8456324,OZONE,2,62,17
India,Maharashtra,Mumbai,"Khindipada-Bhandup West, Mumbai - IITM",12-05-2024 06:00:00,19.1653323,72.922099,PM10,19,75,43
India,Maharashtra,Mumbai,"Khindipada-Bhandup West, Mumbai - IITM",12-05-2024 06:00:00,19.1653323,72.922099,NH3,3,8,4
India,Maharashtra,Mumbai,"Khindipada-Bhandup West, Mumbai - IITM",12-05-2024 06:00:00,19.1653323,72.922099,SO2,1,10,5
India,Maharashtra,Mumbai,"Kurla, Mumbai - MPCB",12-05-2024 06:00:00,19.0863,72.8888,PM2.5,15,91,51
India,Maharashtra,Mumbai,"Kurla, Mumbai - MPCB",12-05-2024 06:00:00,19.0863,72.8888,OZONE,27,31,28
India,Maharashtra,Mumbai,"Mulund West, Mumbai - MPCB",12-05-2024 06:00:00,19.1750,72.9419,CO,42,42,42
India,Maharashtra,Mumbai,"Navy Nagar-Colaba, Mumbai - IITM",12-05-2024 06:00:00,18.897756,72.813320,NO2,50,113,61
India,Maharashtra,Mumbai,"Navy Nagar-Colaba, Mumbai - IITM",12-05-2024 06:00:00,18.897756,72.813320,NH3,4,6,4
India,Maharashtra,Mumbai,"Powai, Mumbai - MPCB",12-05-2024 06:00:00,19.137500,72.915056,NO2,14,26,19
India,Maharashtra,Mumbai,"Powai, Mumbai - MPCB",12-05-2024 06:00:00,19.137500,72.915056,OZONE,22,50,24
India,Maharashtra,Mumbai,"Sewri, Mumbai - BMC",12-05-2024 06:00:00,19.000084,72.856730,OZONE,1,34,11
India,Maharashtra,Mumbai,"Siddharth Nagar-Worli, Mumbai - IITM",12-05-2024 06:00:00,19.000083,72.813993,NO2,18,47,26
India,Maharashtra,Mumbai,"Siddharth Nagar-Worli, Mumbai - IITM",12-05-2024 06:00:00,19.000083,72.813993,NH3,5,7,6
India,Maharashtra,Mumbai,"Sion, Mumbai - MPCB",12-05-2024 06:00:00,19.047000,72.874600,PM2.5,24,45,37
India,Maharashtra,Mumbai,"Sion, Mumbai - MPCB",12-05-2024 06:00:00,19.047000,72.874600,PM10,45,104,73
India,Maharashtra,Mumbai,"Sion, Mumbai - MPCB",12-05-2024 06:00:00,19.047000,72.874600,SO2,32,34,33
India,Maharashtra,Mumbai,"Sion, Mumbai - MPCB",12-05-2024 06:00:00,19.047000,72.874600,CO,69,76,74
India,Maharashtra,Mumbai,"Vile Parle West, Mumbai - MPCB",12-05-2024 06:00:00,19.10861,72.83622,OZONE,3,3,3
India,Maharashtra,Mumbai,"Worli, Mumbai - MPCB",12-05-2024 06:00:00,18.9936162,72.8128113,PM10,51,114,87
India,Maharashtra,Mumbai,"Worli, Mumbai - MPCB",12-05-2024 06:00:00,18.9936162,72.8128113,OZONE,4,12,6
India,Maharashtra,Nagpur,"Ambazari, Nagpur - MPCB",12-05-2024 06:00:00,21.121801,79.04952,NH3,1,13,4
India,Maharashtra,Nagpur,"Ambazari, Nagpur - MPCB",12-05-2024 06:00:00,21.121801,79.04952,SO2,3,22,11
India,Maharashtra,Nagpur,"Ambazari, Nagpur - MPCB",12-05-2024 06:00:00,21.121801,79.04952,CO,12,138,60
India,Maharashtra,Nagpur,"Ambazari, Nagpur - MPCB",12-05-2024 06:00:00,21.121801,79.04952,OZONE,2,146,10
India,Maharashtra,Nagpur,"Mahal, Nagpur - MPCB",12-05-2024 06:00:00,21.14472,79.107595,PM10,66,212,115
India,Maharashtra,Nagpur,"Opp GPO Civil Lines, Nagpur - MPCB",12-05-2024 06:00:00,21.152875,79.0517531,PM2.5,27,136,79
India,Maharashtra,Nagpur,"Opp GPO Civil Lines, Nagpur - MPCB",12-05-2024 06:00:00,21.152875,79.0517531,NH3,7,19,13
India,Maharashtra,Nashik,"Gangapur Road, Nashik - MPCB",12-05-2024 06:00:00,20.0073285,73.7762427,NH3,1,2,1
India,Maharashtra,Nashik,"Hirawadi, Nashik - MPCB",12-05-2024 06:00:00,20.021503,73.813844,CO,24,62,60
India,Maharashtra,Nashik,"MIDC Ambad, Nashik - MPCB",12-05-2024 06:00:00,19.950220,73.731480,SO2,NA,NA,NA
India,Maharashtra,Nashik,"Pandav Nagari, Nashik - MPCB",12-05-2024 06:00:00,19.9591346,73.7788008,PM2.5,30,99,71
India,Maharashtra,Nashik,"Pandav Nagari, Nashik - MPCB",12-05-2024 06:00:00,19.9591346,73.7788008,SO2,6,24,13
India,Maharashtra,Nashik,"Pandav Nagari, Nashik - MPCB",12-05-2024 06:00:00,19.9591346,73.7788008,CO,11,30,19
India,Maharashtra,Navi Mumbai,"Kopripada-Vashi, Navi Mumbai - MPCB",12-05-2024 06:00:00,19.090337,73.014232,NO2,7,49,21
India,Maharashtra,Navi Mumbai,"Mahape, Navi Mumbai - MPCB",12-05-2024 06:00:00,19.1135051,73.008978,PM10,45,212,100
India,Maharashtra,Navi Mumbai,"Mahape, Navi Mumbai - MPCB",12-05-2024 06:00:00,19.1135051,73.008978,NO2,83,87,85
India,Maharashtra,Navi Mumbai,"Mahape, Navi Mumbai - MPCB",12-05-2024 06:00:00,19.1135051,73.008978,CO,106,112,108
India,Maharashtra,Navi Mumbai,"Nerul, Navi Mumbai - MPCB",12-05-2024 06:00:00,19.008751,73.016620,PM2.5,15,196,51
India,Maharashtra,Navi Mumbai,"Nerul, Navi Mumbai - MPCB",12-05-2024 06:00:00,19.008751,73.016620,PM10,46,131,93
India,Maharashtra,Navi Mumbai,"Sanpada, Navi Mumbai - MPCB",12-05-2024 06:00:00,19.0575752,73.0151367,PM10,44,111,79
India,Maharashtra,Navi Mumbai,"Sanpada, Navi Mumbai - MPCB",12-05-2024 06:00:00,19.0575752,73.0151367,SO2,1,5,3
India,Maharashtra,Navi Mumbai,"Sector-19A Nerul, Navi Mumbai - IITM",12-05-2024 06:00:00,19.044,73.0325,SO2,4,41,18
India,Maharashtra,Navi Mumbai,"Tondare-Taloja, Navi Mumbai - MPCB",12-05-2024 06:00:00,19.0630,73.1209,PM2.5,2,127,51
India,Maharashtra,Navi Mumbai,"Tondare-Taloja, Navi Mumbai - MPCB",12-05-2024 06:00:00,19.0630,73.1209,CO,1,36,21
India,Maharashtra,Navi Mumbai,"Tondare-Taloja, Navi Mumbai - MPCB",12-05-2024 06:00:00,19.0630,73.1209,OZONE,1,51,4
India,Maharashtra,Parbhani,"Masoom Colony, Parbhani - MPCB",12-05-2024 06:00:00,19.265594,76.761463,NH3,3,4,4
India,Maharashtra,Pimpri-Chinchwad,"Gavalinagar, Pimpri Chinchwad - MPCB",12-05-2024 06:00:00,18.63673,73.82487,PM10,58,99,81
India,Maharashtra,Pimpri-Chinchwad,"Park Street Wakad, Pimpri Chinchwad - MPCB",12-05-2024 06:00:00,18.59051,73.77946,SO2,4,4,4
India,Maharashtra,Pimpri-Chinchwad,"Thergaon, Pimpri Chinchwad - MPCB",12-05-2024 06:00:00,18.616318,73.765797,SO2,1,3,2
India,Maharashtra,Pune,"Karve Road, Pune - MPCB",12-05-2024 06:00:00,18.5011743,73.8165527,NO2,1,18,8
India,Maharashtra,Pune,"Karve Road, Pune - MPCB",12-05-2024 06:00:00,18.5011743,73.8165527,SO2,1,28,12
India,Maharashtra,Pune,"Katraj Dairy, Pune - MPCB",12-05-2024 06:00:00,18.454450,73.854155,CO,26,58,40
India,Maharashtra,Pune,"Mhada Colony, Pune - IITM",12-05-2024 06:00:00,18.573040,73.927715,PM10,33,89,64
India,Maharashtra,Solapur,"Dnyaneshwar Nagar, Solapur - MPCB",12-05-2024 06:00:00,17.6336264,75.9132495,NH3,NA,NA,NA
India,Maharashtra,Solapur,"Solapur, Solapur - MPCB",12-05-2024 06:00:00,17.6599188,75.9063906,PM10,101,130,123
India,Maharashtra,Thane,"Kasarvadavali, Thane - MPCB",12-05-2024 06:00:00,19.26777,72.97182,NH3,3,7,5
India,Maharashtra,Thane,"Pimpleshwar Mandir, Thane - MPCB",12-05-2024 06:00:00,19.192056,72.9585188,NO2,2,18,9
India,Maharashtra,Thane,"Upvan Fort, Thane - MPCB",12-05-2024 06:00:00,19.222279,72.957979,PM10,NA,NA,NA
India,Maharashtra,Thane,"Upvan Fort, Thane - MPCB",12-05-2024 06:00:00,19.222279,72.957979,CO,NA,NA,NA
India,Maharashtra,Virar,"Bolinj, Virar - MPCB",12-05-2024 06:00:00,19.4458210,72.7988231,PM10,36,68,50
India,Maharashtra,Virar,"Bolinj, Virar - MPCB",12-05-2024 06:00:00,19.4458210,72.7988231,NO2,3,22,7
India,Maharashtra,Virar,"Bolinj, Virar - MPCB",12-05-2024 06:00:00,19.4458210,72.7988231,NH3,9,9,9
India,Manipur,Imphal,"DM College of Science, Imphal - Manipur PCB",12-05-2024 06:00:00,24.8207389,93.9423085,PM10,NA,NA,NA
India,Manipur,Imphal,"Manipur University, Imphal - Manipur PCB",12-05-2024 06:00:00,24.7524239,93.9286218,NO2,7,17,10
India,Manipur,Imphal,"Manipur University, Imphal - Manipur PCB",12-05-2024 06:00:00,24.7524239,93.9286218,SO2,94,100,96
India,Meghalaya,Shillong,"Lumpyngngad, Shillong - Meghalaya PCB",12-05-2024 06:00:00,25.5586,91.8985,NO2,1,2,1
India,Mizoram,Aizawl,"Sikulpuikawn, Aizawl - Mizoram PCB",12-05-2024 06:00:00,23.7176342,92.7192841,NH3,NA,NA,NA
India,Nagaland,Kohima,"PWD Juction, Kohima - NPCB",12-05-2024 06:00:00,25.6635413,94.0989878,OZONE,NA,NA,NA
India,Odisha,Angul,"Hakimapada, Angul - OSPCB",12-05-2024 06:00:00,20.832874,85.104082,PM2.5,12,250,50
India,Odisha,Barbil,"Forest Office, Barbil - OSPCB",12-05-2024 06:00:00,22.1166054,85.3945546,PM10,65,197,113
India,Odisha,Barbil,"Forest Office, Barbil - OSPCB",12-05-2024 06:00:00,22.1166054,85.3945546,NO2,NA,NA,NA
India,Odisha,Barbil,"Forest Office, Barbil - OSPCB",12-05-2024 06:00:00,22.1166054,85.3945546,NH3,1,1,1
India,Odisha,Baripada,"Meher Colony, Baripada - OSPCB",12-05-2024 06:00:00,21.941841,86.728318,PM10,26,53,39
India,Odisha,Baripada,"Meher Colony, Baripada - OSPCB",12-05-2024 06:00:00,21.941841,86.728318,NH3,2,4,4
India,Odisha,Baripada,"Meher Colony, Baripada - OSPCB",12-05-2024 06:00:00,21.941841,86.728318,OZONE,27,100,68
India,Odisha,Bhubaneswar,"Lingraj Mandir, Bhubaneswar - OSPCB",12-05-2024 06:00:00,20.240790,85.836784,PM10,13,127,41
India,Odisha,Bhubaneswar,"Patia, Bhubaneswar - OSPCB",12-05-2024 06:00:00,20.34652,85.81630,CO,NA,NA,NA
India,Odisha,Bhubaneswar,"Patia, Bhubaneswar - OSPCB",12-05-2024 06:00:00,20.34652,85.81630,OZONE,NA,NA,NA
India,Odisha,Brajrajnagar,"GM Office, Brajrajnagar - OSPCB",12-05-2024 06:00:00,21.8004996,83.8396977,NO2,15,23,16
India,Odisha,Brajrajnagar,"GM Office, Brajrajnagar - OSPCB",12-05-2024 06:00:00,21.8004996,83.8396977,NH3,13,13,13
India,Odisha,Byasanagar,"Ferro Chrome Colony, Byasanagar - OSPCB",12-05-2024 06:00:00,20.94185,86.11510,PM10,24,237,57
India,Odisha,Byasanagar,"Ferro Chrome Colony, Byasanagar - OSPCB",12-05-2024 06:00:00,20.94185,86.11510,NO2,7,58,13
India,Odisha,Byasanagar,"Ferro Chrome Colony, Byasanagar - OSPCB",12-05-2024 06:00:00,20.94185,86.11510,NH3,1,5,2
India,Odisha,Byasanagar,"Ferro Chrome Colony, Byasanagar - OSPCB",12-05-2024 06:00:00,20.94185,86.11510,OZONE,16,117,104
India,Odisha,Cuttack,"CDA Area, Cuttack - OSPCB",12-05-2024 06:00:00,20.48891     ,85.84768     ,PM2.5,NA,NA,NA
India,Odisha,Cuttack,"CDA Area, Cuttack - OSPCB",12-05-2024 06:00:00,20.48891     ,85.84768     ,SO2,1,7,3
India,Odisha,Keonjhar,"Jagamohanpur, Keonjhar - OSPCB",12-05-2024 06:00:00,21.643900,85.599355,PM2.5,39,60,52
India,Odisha,Keonjhar,"Jagamohanpur, Keonjhar - OSPCB",12-05-2024 06:00:00,21.643900,85.599355,NH3,2,4,4
India,Odisha,Nayagarh,"Dabuna, Nayagarh - OSPCB",12-05-2024 06:00:00,21.847279,85.416905,NO2,4,5,5
India,Odisha,Nayagarh,"Dabuna, Nayagarh - OSPCB",12-05-2024 06:00:00,21.847279,85.416905,CO,8,16,14
India,Odisha,Rairangpur,"Divisional Forest Office, Rairangpur - OSPCB",12-05-2024 06:00:00,22.265816,86.174829,OZONE,1,23,8
India,Odisha,Rourkela,"Raghunathpali, Rourkela - OSPCB",12-05-2024 06:00:00,22.220833,84.809444,NH3,NA,NA,NA
India,Odisha,Rourkela,"Raghunathpali, Rourkela - OSPCB",12-05-2024 06:00:00,22.220833,84.809444,CO,NA,NA,NA
India,Odisha,Rourkela,"Sector-2, Rourkela - OSPCB",12-05-2024 06:00:00,22.24500000,84.88111111,NO2,33,36,34
India,Odisha,Suakati,"OMC Colony, Suakati - OSPCB",12-05-2024 06:00:00,21.606865,85.510538,SO2,1,18,5
India,Odisha,Suakati,"OMC Colony, Suakati - OSPCB",12-05-2024 06:00:00,21.606865,85.510538,OZONE,12,89,55
India,Odisha,Tensa,"Barsua Iron Ore Mines, Tensa - OSPCB",12-05-2024 06:00:00,21.869985,85.167016,NH3,2,3,3
India,Puducherry,Puducherry,"Jawahar Nagar, Puducherry - PPCC",12-05-2024 06:00:00,11.9309,79.8027,NO2,1,17,5
India,Puducherry,Puducherry,"Jawahar Nagar, Puducherry - PPCC",12-05-2024 06:00:00,11.9309,79.8027,CO,15,40,21
India,Punjab,Bathinda,"Hardev Nagar, Bathinda - PPCB",12-05-2024 06:00:00,30.233011,74.907758,PM2.5,8,59,32
India,Punjab,Khanna,"Kalal Majra, Khanna - PPCB",12-05-2024 06:00:00,30.736056 ,76.209694,NH3,18,18,18
India,Punjab,Khanna,"Kalal Majra, Khanna - PPCB",12-05-2024 06:00:00,30.736056 ,76.209694,SO2,7,21,10
India,Punjab,Mandi Gobindgarh,"RIMT University, Mandi Gobindgarh - PPCB",12-05-2024 06:00:00,30.649961,76.331442,CO,15,42,36
India,Punjab,Patiala,"Model Town, Patiala - PPCB",12-05-2024 06:00:00,30.349388,76.366642,PM10,89,160,129
India,Punjab,Patiala,"Model Town, Patiala - PPCB",12-05-2024 06:00:00,30.349388,76.366642,SO2,10,60,27
India,Punjab,Patiala,"Model Town, Patiala - PPCB",12-05-2024 06:00:00,30.349388,76.366642,OZONE,32,99,44
India,Punjab,Rupnagar,"Ratanpura, Rupnagar - Ambuja Cements",12-05-2024 06:00:00,31.0325454,76.5623046,PM10,74,236,159
India,Punjab,Rupnagar,"Ratanpura, Rupnagar - Ambuja Cements",12-05-2024 06:00:00,31.0325454,76.5623046,SO2,7,9,8
India,Rajasthan,Ajmer,"Civil Lines,  Ajmer - RSPCB",12-05-2024 06:00:00,26.470859,74.646594,PM2.5,44,95,63
India,Rajasthan,Ajmer,"Civil Lines,  Ajmer - RSPCB",12-05-2024 06:00:00,26.470859,74.646594,NH3,8,9,8
India,Rajasthan,Ajmer,"Civil Lines,  Ajmer - RSPCB",12-05-2024 06:00:00,26.470859,74.646594,CO,5,106,19
India,Rajasthan,Alwar,"Moti Doongri, Alwar - RSPCB",12-05-2024 06:00:00,27.554793,76.611536,SO2,2,56,21
India,Rajasthan,Alwar,"Moti Doongri, Alwar - RSPCB",12-05-2024 06:00:00,27.554793,76.611536,OZONE,18,31,28
India,Rajasthan,Banswara,"Rati Talai, Banswara - RSPCB",12-05-2024 06:00:00,23.555190,74.440010,PM10,34,228,98
India,Rajasthan,Banswara,"Rati Talai, Banswara - RSPCB",12-05-2024 06:00:00,23.555190,74.440010,SO2,3,19,11
India,Rajasthan,Barmer,"Railway Colony, Barmer - RSPCB",12-05-2024 06:00:00,25.747299,71.393989,PM10,40,422,126
India,Rajasthan,Barmer,"Railway Colony, Barmer - RSPCB",12-05-2024 06:00:00,25.747299,71.393989,CO,64,80,67
India,Rajasthan,Bharatpur,"Krishna Nagar, Bharatpur - RSPCB",12-05-2024 06:00:00,27.215415,77.50873,NO2,7,62,25
India,Rajasthan,Bharatpur,"Krishna Nagar, Bharatpur - RSPCB",12-05-2024 06:00:00,27.215415,77.50873,NH3,2,4,3
India,Rajasthan,Bhiwadi,"RIICO Ind. Area III, Bhiwadi - RSPCB",12-05-2024 06:00:00,28.194909,76.862296,CO,52,108,80
India,Rajasthan,Bhiwadi,"Vasundhara Nagar_UIT, Bhiwadi - RSPCB",12-05-2024 06:00:00,28.207266,76.829265,NH3,6,23,15
India,Rajasthan,Bikaner,"MM Ground, Bikaner - RSPCB",12-05-2024 06:00:00,28.018792,73.292658,PM2.5,7,92,42
India,Rajasthan,Bikaner,"MM Ground, Bikaner - RSPCB",12-05-2024 06:00:00,28.018792,73.292658,NO2,19,73,40
India,Rajasthan,Bundi,"New Colony, Bundi - RSPCB",12-05-2024 06:00:00,25.435774,75.644272,PM10,28,454,100
India,Rajasthan,Chittorgarh,"Shastri Nagar, Chittorgarh - RSPCB",12-05-2024 06:00:00,24.892047,74.623527,SO2,2,129,30
India,Rajasthan,Chittorgarh,"Shastri Nagar, Chittorgarh - RSPCB",12-05-2024 06:00:00,24.892047,74.623527,CO,10,32,16
India,Rajasthan,Dausa,"Khatikan Mohalla, Dausa - RSPCB",12-05-2024 06:00:00,26.895552,76.334753,SO2,2,7,3
India,Rajasthan,Dausa,"Khatikan Mohalla, Dausa - RSPCB",12-05-2024 06:00:00,26.895552,76.334753,CO,36,102,50
India,Rajasthan,Dholpur,"Raja Ganj, Dholpur - RSPCB",12-05-2024 06:00:00,26.699557,77.898881,PM10,114,480,165
India,Rajasthan,Dholpur,"Raja Ganj, Dholpur - RSPCB",12-05-2024 06:00:00,26.699557,77.898881,NO2,30,42,34
India,Rajasthan,Dungarpur,"Bhoiwada, Dungarpur - RSPCB",12-05-2024 06:00:00,23.837789,73.714926,PM10,36,106,78
India,Rajasthan,Dungarpur,"Bhoiwada, Dungarpur - RSPCB",12-05-2024 06:00:00,23.837789,73.714926,CO,4,33,17
India,Rajasthan,Hanumangarh,"Housing Board, Hanumangarh - RSPCB",12-05-2024 06:00:00,29.610750,74.283608,NH3,6,13,9
India,Rajasthan,Jaipur,"Adarsh Nagar, Jaipur - RSPCB",12-05-2024 06:00:00,26.902909,75.836858,NO2,19,72,36
India,Rajasthan,Jaipur,"Police Commissionerate, Jaipur - RSPCB",12-05-2024 06:00:00,26.9164092,75.7994901,PM10,76,475,186
India,Rajasthan,Jaipur,"Police Commissionerate, Jaipur - RSPCB",12-05-2024 06:00:00,26.9164092,75.7994901,OZONE,54,127,70
India,Rajasthan,Jaipur,"Sector-2 Murlipura, Jaipur - RSPCB",12-05-2024 06:00:00,26.960669,75.771817,PM10,24,293,143
India,Rajasthan,Jaipur,"Sector-2 Murlipura, Jaipur - RSPCB",12-05-2024 06:00:00,26.960669,75.771817,SO2,4,39,11
India,Rajasthan,Jaipur,"Sector-2 Murlipura, Jaipur - RSPCB",12-05-2024 06:00:00,26.960669,75.771817,CO,22,48,29
India,Rajasthan,Jaipur,"Shastri Nagar, Jaipur - RSPCB",12-05-2024 06:00:00,26.9502929,75.730943,SO2,3,55,25
India,Rajasthan,Jaisalmer,"Sadar Bazar, Jaisalmer - RSPCB",12-05-2024 06:00:00,26.912329,70.909168,NO2,4,24,10
India,Rajasthan,Jalore,"Mudtra Sili, Jalore - RSPCB",12-05-2024 06:00:00,25.344694,72.626208,CO,6,19,11
India,Rajasthan,Jalore,"Mudtra Sili, Jalore - RSPCB",12-05-2024 06:00:00,25.344694,72.626208,OZONE,41,89,74
India,Rajasthan,Jhalawar,"Rajlaxmi Nagar, Jhalawar - RSPCB",12-05-2024 06:00:00,24.588397,76.172782,PM2.5,14,222,57
India,Rajasthan,Jhalawar,"Rajlaxmi Nagar, Jhalawar - RSPCB",12-05-2024 06:00:00,24.588397,76.172782,NH3,1,3,2
India,Rajasthan,Jhalawar,"Rajlaxmi Nagar, Jhalawar - RSPCB",12-05-2024 06:00:00,24.588397,76.172782,CO,14,103,39
India,Rajasthan,Jhalawar,"Rajlaxmi Nagar, Jhalawar - RSPCB",12-05-2024 06:00:00,24.588397,76.172782,OZONE,7,120,64
India,Rajasthan,Jhunjhunu,"Indra Nagar, Jhunjhunu - RSPCB",12-05-2024 06:00:00,28.108988,75.386577,NH3,16,24,19
India,Rajasthan,Jodhpur,"Collectorate, Jodhpur - RSPCB",12-05-2024 06:00:00,26.268249,73.0193853,PM10,21,235,121
India,Rajasthan,Jodhpur,"Collectorate, Jodhpur - RSPCB",12-05-2024 06:00:00,26.268249,73.0193853,OZONE,6,101,34
India,Rajasthan,Jodhpur,"Digari Kalan, Jodhpur - RSPCB",12-05-2024 06:00:00,26.295810,73.082283,PM10,15,322,64
India,Rajasthan,Jodhpur,"Digari Kalan, Jodhpur - RSPCB",12-05-2024 06:00:00,26.295810,73.082283,OZONE,25,105,49
India,Rajasthan,Jodhpur,"Jhalamand, Jodhpur - RSPCB",12-05-2024 06:00:00,26.215415,73.070156,PM10,14,192,61
India,Rajasthan,Jodhpur,"Mandor, Jodhpur - RSPCB",12-05-2024 06:00:00,26.358805,73.047444,PM10,17,92,49
India,Rajasthan,Jodhpur,"Mandor, Jodhpur - RSPCB",12-05-2024 06:00:00,26.358805,73.047444,NH3,11,42,22
India,Rajasthan,Jodhpur,"Samrat Ashok Udhyan, Jodhpur - RSPCB",12-05-2024 06:00:00,26.253384,72.976571,PM2.5,8,39,22
India,Rajasthan,Karauli,"Satyawati Vihar, Karauli - RSPCB",12-05-2024 06:00:00,26.506177,77.025989,PM10,65,459,187
India,Rajasthan,Karauli,"Satyawati Vihar, Karauli - RSPCB",12-05-2024 06:00:00,26.506177,77.025989,CO,8,8,8
India,Rajasthan,Kota,"Dhanmandi, Kota - RSPCB",12-05-2024 06:00:00,25.164090,75.858137,PM10,30,281,101
India,Rajasthan,Kota,"Dhanmandi, Kota - RSPCB",12-05-2024 06:00:00,25.164090,75.858137,NH3,3,5,4
India,Rajasthan,Kota,"Nayapura, Kota - RSPCB",12-05-2024 06:00:00,25.196024,75.855668,NH3,1,4,3
India,Rajasthan,Kota,"Nayapura, Kota - RSPCB",12-05-2024 06:00:00,25.196024,75.855668,CO,8,82,13
India,Rajasthan,Kota,"Shrinath Puram, Kota - RSPCB",12-05-2024 06:00:00,25.14389,75.821256,PM10,37,135,84
India,Rajasthan,Kota,"Shrinath Puram, Kota - RSPCB",12-05-2024 06:00:00,25.14389,75.821256,CO,12,98,23
India,Rajasthan,Nagaur,"Karni Colony, Nagaur - RSPCB",12-05-2024 06:00:00,27.213494,73.734444,NH3,12,50,21
India,Rajasthan,Pali,"Indira Colony Vistar, Pali - RSPCB",12-05-2024 06:00:00,25.771061, 73.340227,PM2.5,31,99,57
India,Rajasthan,Pali,"Indira Colony Vistar, Pali - RSPCB",12-05-2024 06:00:00,25.771061, 73.340227,NH3,1,16,9
India,Rajasthan,Pali,"Indira Colony Vistar, Pali - RSPCB",12-05-2024 06:00:00,25.771061, 73.340227,SO2,4,10,8
India,Rajasthan,Rajsamand,"Dhoinda, Rajsamand - RSPCB",12-05-2024 06:00:00,25.036360,73.883502,NO2,NA,NA,NA
India,Rajasthan,Sikar,"Radhakishan Pura, Sikar - RSPCB",12-05-2024 06:00:00,27.608912,75.153302,PM2.5,6,197,64
India,Rajasthan,Sikar,"Radhakishan Pura, Sikar - RSPCB",12-05-2024 06:00:00,27.608912,75.153302,PM10,5,381,145
India,Rajasthan,Sikar,"Radhakishan Pura, Sikar - RSPCB",12-05-2024 06:00:00,27.608912,75.153302,NH3,5,20,8
India,Rajasthan,Sikar,"Radhakishan Pura, Sikar - RSPCB",12-05-2024 06:00:00,27.608912,75.153302,CO,2,25,14
India,Rajasthan,Sirohi,"Vedhaynath Colony, Sirohi - RSPCB",12-05-2024 06:00:00,24.885261,72.857549,SO2,4,20,13
India,Rajasthan,Sri Ganganagar,"Old City, Sri Ganganagar - RSPCB",12-05-2024 06:00:00,29.931624,73.864511,NH3,7,20,7
India,Rajasthan,Tonk,"Shastri Nagar, Tonk - RSPCB",12-05-2024 06:00:00,26.159933,75.780517,CO,1,16,4
India,Rajasthan,Tonk,"Shastri Nagar, Tonk - RSPCB",12-05-2024 06:00:00,26.159933,75.780517,OZONE,51,100,80
India,Rajasthan,Udaipur,"Ashok Nagar, Udaipur - RSPCB",12-05-2024 06:00:00,24.5886166,73.6321397,OZONE,4,37,32
India,Sikkim,Gangtok,"Zero Point GICI, Gangtok - SSPCB",12-05-2024 06:00:00,27.338530,88.614099,SO2,11,12,12
India,TamilNadu,Ariyalur,"Keelapalur, Ariyalur - TNPCB",12-05-2024 06:00:00,11.06825,79.07033,SO2,28,29,28
India,TamilNadu,Chengalpattu,"Crescent University, Chengalpattu - TNPCB",12-05-2024 06:00:00,12.8777316,80.0834807,OZONE,NA,NA,NA
India,TamilNadu,Chennai,"Alandur Bus Depot, Chennai - CPCB",12-05-2024 06:00:00,12.9099161,80.1076538,NO2,4,15,8
India,TamilNadu,Chennai,"Alandur Bus Depot, Chennai - CPCB",12-05-2024 06:00:00,12.9099161,80.1076538,NH3,6,21,8
India,TamilNadu,Chennai,"Alandur Bus Depot, Chennai - CPCB",12-05-2024 06:00:00,12.9099161,80.1076538,OZONE,3,11,7
India,TamilNadu,Chennai,"Arumbakkam, Chennai - TNPCB",12-05-2024 06:00:00,13.0664,80.2112 ,SO2,1,13,6
India,TamilNadu,Chennai,"Kodungaiyur, Chennai - TNPCB",12-05-2024 06:00:00,13.1278,80.2642,PM10,1,24,13
India,TamilNadu,Chennai,"Kodungaiyur, Chennai - TNPCB",12-05-2024 06:00:00,13.1278,80.2642,SO2,2,12,5
India,TamilNadu,Chennai,"Manali, Chennai - CPCB",12-05-2024 06:00:00,13.164544,80.26285,CO,86,112,101
India,TamilNadu,Chennai,"Perungudi, Chennai - TNPCB",12-05-2024 06:00:00,12.9533,80.2357,PM10,6,46,25
India,TamilNadu,Chennai,"Royapuram, Chennai - TNPCB",12-05-2024 06:00:00,13.1036,80.2909,OZONE,9,11,9
India,TamilNadu,Chennai,"Velachery Res. Area, Chennai - CPCB",12-05-2024 06:00:00,13.0052189,80.2398125,NO2,14,19,16
India,TamilNadu,Chennai,"Velachery Res. Area, Chennai - CPCB",12-05-2024 06:00:00,13.0052189,80.2398125,SO2,10,11,11
India,TamilNadu,Cuddalore,"Kudikadu, Cuddalore - TNPCB",12-05-2024 06:00:00,11.6829898,79.7532099,PM10,32,103,55
India,TamilNadu,Cuddalore,"Kudikadu, Cuddalore - TNPCB",12-05-2024 06:00:00,11.6829898,79.7532099,NO2,NA,NA,NA
India,TamilNadu,Cuddalore,"Kudikadu, Cuddalore - TNPCB",12-05-2024 06:00:00,11.6829898,79.7532099,NH3,3,4,3
India,TamilNadu,Ooty,"Bombay Castel, Ooty - TNPCB",12-05-2024 06:00:00,11.4068288,76.7138973,PM10,40,171,97
India,TamilNadu,Ooty,"Bombay Castel, Ooty - TNPCB",12-05-2024 06:00:00,11.4068288,76.7138973,NO2,11,76,35
India,TamilNadu,Palkalaiperur,"Bharathidasan University, Palkalaiperur - TNPCB",12-05-2024 06:00:00,10.681158,78.741746,PM2.5,NA,NA,NA
India,TamilNadu,Tirupur,"Kumaran College, Tirupur - TNPCB",12-05-2024 06:00:00,11.0973603,77.3228673,PM2.5,5,26,16
India,TamilNadu,Tirupur,"Kumaran College, Tirupur - TNPCB",12-05-2024 06:00:00,11.0973603,77.3228673,NH3,NA,NA,NA
India,TamilNadu,Vellore,"Vasanthapuram, Vellore - TNPCB",12-05-2024 06:00:00,12.909494,79.131861,PM10,19,80,47
India,TamilNadu,Vellore,"Vasanthapuram, Vellore - TNPCB",12-05-2024 06:00:00,12.909494,79.131861,NO2,6,21,14
India,TamilNadu,Vellore,"Vasanthapuram, Vellore - TNPCB",12-05-2024 06:00:00,12.909494,79.131861,NH3,1,1,1
India,Telangana,Hyderabad,"Central University, Hyderabad - TSPCB",12-05-2024 06:00:00,17.460103,78.334361,OZONE,3,4,4
India,Telangana,Hyderabad,"ECIL Kapra, Hyderabad - TSPCB",12-05-2024 06:00:00,17.470431,78.566959,PM2.5,44,70,52
India,Telangana,Hyderabad,"ECIL Kapra, Hyderabad - TSPCB",12-05-2024 06:00:00,17.470431,78.566959,NH3,6,6,6
India,Telangana,Hyderabad,"ECIL Kapra, Hyderabad - TSPCB",12-05-2024 06:00:00,17.470431,78.566959,SO2,4,9,6
India,Telangana,Hyderabad,"ICRISAT Patancheru, Hyderabad - TSPCB",12-05-2024 06:00:00,17.518400,78.278777,NH3,2,2,2
India,Telangana,Hyderabad,"IITH Kandi, Hyderabad - TSPCB",12-05-2024 06:00:00,17.585705,78.126199,PM10,NA,NA,NA
India,Telangana,Hyderabad,"IITH Kandi, Hyderabad - TSPCB",12-05-2024 06:00:00,17.585705,78.126199,NH3,NA,NA,NA
India,Telangana,Hyderabad,"IITH Kandi, Hyderabad - TSPCB",12-05-2024 06:00:00,17.585705,78.126199,SO2,NA,NA,NA
India,Telangana,Hyderabad,"IITH Kandi, Hyderabad - TSPCB",12-05-2024 06:00:00,17.585705,78.126199,OZONE,NA,NA,NA
India,Telangana,Hyderabad,"Kokapet, Hyderabad - TSPCB",12-05-2024 06:00:00,17.393559,78.339194,PM10,74,99,82
India,Telangana,Hyderabad,"Kokapet, Hyderabad - TSPCB",12-05-2024 06:00:00,17.393559,78.339194,NO2,10,11,10
India,Telangana,Hyderabad,"Kokapet, Hyderabad - TSPCB",12-05-2024 06:00:00,17.393559,78.339194,SO2,9,10,10
India,Telangana,Hyderabad,"Kompally Municipal Office, Hyderabad - TSPCB",12-05-2024 06:00:00,17.544899,78.486949,SO2,4,11,7
India,Telangana,Hyderabad,"Nacharam_TSIIC IALA, Hyderabad - TSPCB",12-05-2024 06:00:00,17.429398,78.569354,NO2,NA,NA,NA
India,Telangana,Hyderabad,"Nacharam_TSIIC IALA, Hyderabad - TSPCB",12-05-2024 06:00:00,17.429398,78.569354,OZONE,18,36,21
India,Telangana,Hyderabad,"New Malakpet, Hyderabad - TSPCB",12-05-2024 06:00:00,17.37206,78.50864,PM2.5,29,61,48
India,Telangana,Hyderabad,"New Malakpet, Hyderabad - TSPCB",12-05-2024 06:00:00,17.37206,78.50864,OZONE,12,48,24
India,Telangana,Hyderabad,"Ramachandrapuram, Hyderabad - TSPCB",12-05-2024 06:00:00,17.528544,78.286195,SO2,12,13,12
India,Telangana,Hyderabad,"Sanathnagar, Hyderabad - TSPCB",12-05-2024 06:00:00,17.4559458,78.4332152,PM2.5,20,82,47
India,Telangana,Hyderabad,"Sanathnagar, Hyderabad - TSPCB",12-05-2024 06:00:00,17.4559458,78.4332152,NO2,21,32,29
India,Telangana,Hyderabad,"Somajiguda, Hyderabad - TSPCB",12-05-2024 06:00:00,17.417094,78.457437,CO,16,39,26
India,Telangana,Hyderabad,"Somajiguda, Hyderabad - TSPCB",12-05-2024 06:00:00,17.417094,78.457437,OZONE,10,85,35
India,Telangana,Hyderabad,"Zoo Park, Hyderabad - TSPCB",12-05-2024 06:00:00,17.349694,78.451437,PM10,18,159,118
India,Telangana,Hyderabad,"Zoo Park, Hyderabad - TSPCB",12-05-2024 06:00:00,17.349694,78.451437,NO2,17,48,33
India,Telangana,Hyderabad,"Zoo Park, Hyderabad - TSPCB",12-05-2024 06:00:00,17.349694,78.451437,NH3,1,1,1
India,Telangana,Hyderabad,"Zoo Park, Hyderabad - TSPCB",12-05-2024 06:00:00,17.349694,78.451437,SO2,1,6,3
India,Tripura,Agartala,"Bardowali, Agartala - Tripura SPCB",12-05-2024 06:00:00,23.8175497,91.2726974,NO2,3,11,7
India,Tripura,Agartala,"Bardowali, Agartala - Tripura SPCB",12-05-2024 06:00:00,23.8175497,91.2726974,OZONE,1,32,1
India,Uttar_Pradesh,Agra,"Manoharpur, Agra - UPPCB",12-05-2024 06:00:00,27.23711,78.01936,SO2,12,18,15
India,Uttar_Pradesh,Agra,"Rohta, Agra - UPPCB",12-05-2024 06:00:00,27.106972,78.000111,SO2,5,10,6
India,Uttar_Pradesh,Agra,"Sanjay Palace, Agra - UPPCB",12-05-2024 06:00:00,27.19865833,78.00598056,NO2,12,26,18
India,Uttar_Pradesh,Agra,"Sanjay Palace, Agra - UPPCB",12-05-2024 06:00:00,27.19865833,78.00598056,SO2,1,12,6
India,Uttar_Pradesh,Agra,"Sector-3B Avas Vikas Colony, Agra - UPPCB",12-05-2024 06:00:00,27.19412,77.96237,PM10,34,325,73
India,Uttar_Pradesh,Agra,"Shahjahan Garden, Agra - UPPCB",12-05-2024 06:00:00,27.169338,78.03582,NH3,NA,NA,NA
India,Uttar_Pradesh,Agra,"Shastripuram, Agra - UPPCB",12-05-2024 06:00:00,27.19862,77.92066,PM10,54,219,117
India,Uttar_Pradesh,Agra,"Shastripuram, Agra - UPPCB",12-05-2024 06:00:00,27.19862,77.92066,NH3,NA,NA,NA
India,Uttar_Pradesh,Baghpat,"Sardar Patel Inter College, Baghpat - UPPCB",12-05-2024 06:00:00,28.964949,77.278761,PM10,NA,NA,NA
India,Uttar_Pradesh,Bareilly,"Rajendra Nagar, Bareilly - UPPCB",12-05-2024 06:00:00,28.38910936,79.42963708,PM10,15,66,34
India,Uttar_Pradesh,Bulandshahr,"Yamunapuram, Bulandshahr - UPPCB",12-05-2024 06:00:00,28.406963,77.849831,NH3,11,17,14
India,Uttar_Pradesh,Bulandshahr,"Yamunapuram, Bulandshahr - UPPCB",12-05-2024 06:00:00,28.406963,77.849831,OZONE,29,114,42
India,Uttar_Pradesh,Firozabad,"Nagla Bhau, Firozabad - UPPCB",12-05-2024 06:00:00,27.168897,78.376960,PM2.5,21,63,37
India,Uttar_Pradesh,Firozabad,"Nagla Bhau, Firozabad - UPPCB",12-05-2024 06:00:00,27.168897,78.376960,PM10,20,70,45
India,Uttar_Pradesh,Firozabad,"Nagla Bhau, Firozabad - UPPCB",12-05-2024 06:00:00,27.168897,78.376960,SO2,16,22,17
India,Uttar_Pradesh,Firozabad,"Vibhab Nagar, Firozabad - UPPCB",12-05-2024 06:00:00,27.1594,78.3953,PM2.5,NA,NA,NA
India,Uttar_Pradesh,Firozabad,"Vibhab Nagar, Firozabad - UPPCB",12-05-2024 06:00:00,27.1594,78.3953,OZONE,9,38,11
India,Uttar_Pradesh,Ghaziabad,"Loni, Ghaziabad - UPPCB",12-05-2024 06:00:00,28.757294,77.278792,PM10,89,294,161
India,Uttar_Pradesh,Ghaziabad,"Loni, Ghaziabad - UPPCB",12-05-2024 06:00:00,28.757294,77.278792,NO2,17,91,43
India,Uttar_Pradesh,Ghaziabad,"Loni, Ghaziabad - UPPCB",12-05-2024 06:00:00,28.757294,77.278792,OZONE,7,193,26
India,Uttar_Pradesh,Ghaziabad,"Sanjay Nagar, Ghaziabad - UPPCB",12-05-2024 06:00:00,28.685382,77.453839,SO2,12,43,24
India,Uttar_Pradesh,Ghaziabad,"Sanjay Nagar, Ghaziabad - UPPCB",12-05-2024 06:00:00,28.685382,77.453839,OZONE,3,160,17
India,Uttar_Pradesh,Ghaziabad,"Vasundhara, Ghaziabad - UPPCB",12-05-2024 06:00:00,28.6603346,77.3572563,NO2,1,95,51
India,Uttar_Pradesh,Ghaziabad,"Vasundhara, Ghaziabad - UPPCB",12-05-2024 06:00:00,28.6603346,77.3572563,CO,2,105,44
India,Uttar_Pradesh,Greater Noida,"Knowledge Park - III, Greater Noida - UPPCB",12-05-2024 06:00:00,28.47272,77.482000,PM10,154,446,228
India,Uttar_Pradesh,Greater Noida,"Knowledge Park - III, Greater Noida - UPPCB",12-05-2024 06:00:00,28.47272,77.482000,SO2,10,53,22
India,Uttar_Pradesh,Greater Noida,"Knowledge Park - V, Greater Noida - UPPCB",12-05-2024 06:00:00,28.557054,77.453663,SO2,2,17,10
India,Uttar_Pradesh,Greater Noida,"Knowledge Park - V, Greater Noida - UPPCB",12-05-2024 06:00:00,28.557054,77.453663,OZONE,11,264,47
India,Uttar_Pradesh,Hapur,"Anand Vihar, Hapur - UPPCB",12-05-2024 06:00:00,28.725645,77.749675,NH3,4,8,6
India,Uttar_Pradesh,Jhansi,"Shivaji Nagar, Jhansi - UPPCB",12-05-2024 06:00:00,25.4547,78.6039,OZONE,80,128,99
India,Uttar_Pradesh,Kanpur,"FTI Kidwai Nagar, Kanpur - UPPCB",12-05-2024 06:00:00,26.428282,80.327067,PM2.5,60,141,84
India,Uttar_Pradesh,Kanpur,"FTI Kidwai Nagar, Kanpur - UPPCB",12-05-2024 06:00:00,26.428282,80.327067,SO2,26,26,26
India,Uttar_Pradesh,Kanpur,"FTI Kidwai Nagar, Kanpur - UPPCB",12-05-2024 06:00:00,26.428282,80.327067,OZONE,12,43,15
India,Uttar_Pradesh,Kanpur,"NSI Kalyanpur, Kanpur - UPPCB",12-05-2024 06:00:00,26.509954,80.249612,NH3,1,2,2
India,Uttar_Pradesh,Kanpur,"NSI Kalyanpur, Kanpur - UPPCB",12-05-2024 06:00:00,26.509954,80.249612,CO,38,48,42
India,Uttar_Pradesh,Kanpur,"Nehru Nagar, Kanpur - UPPCB",12-05-2024 06:00:00,26.4703136,80.3229863,PM2.5,40,145,85
India,Uttar_Pradesh,Kanpur,"Nehru Nagar, Kanpur - UPPCB",12-05-2024 06:00:00,26.4703136,80.3229863,PM10,36,107,73
India,Uttar_Pradesh,Kanpur,"Nehru Nagar, Kanpur - UPPCB",12-05-2024 06:00:00,26.4703136,80.3229863,NO2,40,53,47
India,Uttar_Pradesh,Lucknow,"B R Ambedkar University, Lucknow - UPPCB",12-05-2024 06:00:00,26.766433,80.927299,CO,24,34,31
India,Uttar_Pradesh,Lucknow,"Gomti Nagar, Lucknow - UPPCB",12-05-2024 06:00:00,26.868120,81.005119,PM10,12,418,64
India,Uttar_Pradesh,Lucknow,"Gomti Nagar, Lucknow - UPPCB",12-05-2024 06:00:00,26.868120,81.005119,OZONE,31,38,32
India,Uttar_Pradesh,Lucknow,"Kendriya Vidyalaya, Lucknow - CPCB",12-05-2024 06:00:00,26.906111,80.948222,OZONE,36,113,50
India,Uttar_Pradesh,Lucknow,"Kukrail Picnic Spot-1, Lucknow - UPPCB",12-05-2024 06:00:00,26.90723,80.98579,PM2.5,7,161,61
India,Uttar_Pradesh,Meerut,"Pallavpuram Phase 2, Meerut - UPPCB",12-05-2024 06:00:00,29.063510,77.709723,PM2.5,35,318,122
India,Uttar_Pradesh,Moradabad,"Buddhi Vihar, Moradabad - UPPCB",12-05-2024 06:00:00,28.83526,78.74460,SO2,17,30,21
India,Uttar_Pradesh,Moradabad,"Eco Herbal Park, Moradabad - UPPCB",12-05-2024 06:00:00,28.840739,78.697531,PM10,21,88,45
India,Uttar_Pradesh,Moradabad,"Jigar Colony, Moradabad - UPPCB",12-05-2024 06:00:00,28.856664,78.772638,OZONE,18,49,29
India,Uttar_Pradesh,Moradabad,"Kashiram Nagar, Moradabad - UPPCB",12-05-2024 06:00:00,28.849399,78.742362,NH3,4,4,4
India,Uttar_Pradesh,Moradabad,"Transport Nagar, Moradabad - UPPCB",12-05-2024 06:00:00,28.802625,78.753728,SO2,48,57,53
India,Uttar_Pradesh,Muzaffarnagar,"New Mandi, Muzaffarnagar - UPPCB",12-05-2024 06:00:00,29.4723508,77.7194031,CO,34,82,54
India,Uttar_Pradesh,Noida,"Sector - 125, Noida - UPPCB",12-05-2024 06:00:00,28.5447608,77.3231257,PM10,NA,NA,NA
India,Uttar_Pradesh,Noida,"Sector - 125, Noida - UPPCB",12-05-2024 06:00:00,28.5447608,77.3231257,OZONE,NA,NA,NA
India,Uttar_Pradesh,Noida,"Sector - 62, Noida - IMD",12-05-2024 06:00:00,28.6245479,77.3577104,PM10,148,408,208
India,Uttar_Pradesh,Noida,"Sector-116, Noida - UPPCB",12-05-2024 06:00:00,28.569230,77.393848,NO2,23,98,44
India,Uttar_Pradesh,Noida,"Sector-116, Noida - UPPCB",12-05-2024 06:00:00,28.569230,77.393848,OZONE,16,191,41
India,Uttar_Pradesh,Prayagraj,"Motilal Nehru NIT, Prayagraj - UPPCB",12-05-2024 06:00:00,25.494,81.863,PM2.5,32,54,38
India,Uttar_Pradesh,Prayagraj,"Motilal Nehru NIT, Prayagraj - UPPCB",12-05-2024 06:00:00,25.494,81.863,NH3,6,7,7
India,Uttar_Pradesh,Varanasi,"Ardhali Bazar, Varanasi - UPPCB",12-05-2024 06:00:00,25.3505986,82.9083074,CO,9,101,16
India,Uttar_Pradesh,Varanasi,"Ardhali Bazar, Varanasi - UPPCB",12-05-2024 06:00:00,25.3505986,82.9083074,OZONE,33,37,35
India,Uttar_Pradesh,Varanasi,"Bhelupur, Varanasi - UPPCB",12-05-2024 06:00:00,25.301778,82.996789,NO2,8,8,8
India,Uttar_Pradesh,Vrindavan,"Omex Eternity, Vrindavan - UPPCB",12-05-2024 06:00:00,27.5714090,77.6557570,PM10,30,261,112
India,Uttarakhand,Dehradun,"Doon University, Dehradun - UKPCB",12-05-2024 06:00:00,30.269444,78.044167,PM10,40,141,82
India,Uttarakhand,Kashipur,"Govt. Girls Inter College, Kashipur - UKPCB",12-05-2024 06:00:00,29.2124114,78.9611753,NO2,13,38,32
India,West_Bengal,Asansol,"Asansol Court Area, Asansol - WBPCB",12-05-2024 06:00:00,23.685297,86.945968,OZONE,53,220,132
India,West_Bengal,Barrackpore,"SVSPA Campus, Barrackpore - WBPCB",12-05-2024 06:00:00,22.7605581,88.3617589,PM10,37,83,54
India,West_Bengal,Barrackpore,"SVSPA Campus, Barrackpore - WBPCB",12-05-2024 06:00:00,22.7605581,88.3617589,NO2,2,18,10
India,West_Bengal,Barrackpore,"SVSPA Campus, Barrackpore - WBPCB",12-05-2024 06:00:00,22.7605581,88.3617589,NH3,1,2,2
India,West_Bengal,Durgapur,"PCBL Residential Complex, Durgapur - WBPCB",12-05-2024 06:00:00,23.5087640,87.3544400,PM2.5,42,301,122
India,West_Bengal,Haldia,"Priyambada Housing Estate, Haldia - WBPCB",12-05-2024 06:00:00,22.06047,88.109737,PM2.5,8,18,10
India,West_Bengal,Haldia,"Priyambada Housing Estate, Haldia - WBPCB",12-05-2024 06:00:00,22.06047,88.109737,CO,18,34,23
India,West_Bengal,Howrah,"Ghusuri, Howrah - WBPCB",12-05-2024 06:00:00,22.611968,88.347422,PM10,23,51,34
India,West_Bengal,Howrah,"Ghusuri, Howrah - WBPCB",12-05-2024 06:00:00,22.611968,88.347422,CO,17,26,23
India,West_Bengal,Howrah,"Padmapukur, Howrah - WBPCB",12-05-2024 06:00:00,22.5687319,88.2797276,PM2.5,26,66,44
India,West_Bengal,Howrah,"Padmapukur, Howrah - WBPCB",12-05-2024 06:00:00,22.5687319,88.2797276,PM10,44,66,56
India,West_Bengal,Howrah,"Padmapukur, Howrah - WBPCB",12-05-2024 06:00:00,22.5687319,88.2797276,CO,7,56,27
India,West_Bengal,Howrah,"Padmapukur, Howrah - WBPCB",12-05-2024 06:00:00,22.5687319,88.2797276,OZONE,5,38,12
India,West_Bengal,Kolkata,"Bidhannagar, Kolkata - WBPCB",12-05-2024 06:00:00,22.58157048,88.41002457,NO2,17,32,23
India,West_Bengal,Kolkata,"Bidhannagar, Kolkata - WBPCB",12-05-2024 06:00:00,22.58157048,88.41002457,SO2,7,11,10
India,West_Bengal,Kolkata,"Bidhannagar, Kolkata - WBPCB",12-05-2024 06:00:00,22.58157048,88.41002457,OZONE,14,53,26
India,West_Bengal,Kolkata,"Fort William, Kolkata - WBPCB",12-05-2024 06:00:00,22.556640,88.342674,PM2.5,20,75,49
India,West_Bengal,Kolkata,"Fort William, Kolkata - WBPCB",12-05-2024 06:00:00,22.556640,88.342674,PM10,30,72,45
India,West_Bengal,Kolkata,"Fort William, Kolkata - WBPCB",12-05-2024 06:00:00,22.556640,88.342674,NO2,12,85,35
India,West_Bengal,Kolkata,"Fort William, Kolkata - WBPCB",12-05-2024 06:00:00,22.556640,88.342674,NH3,1,3,2
India,West_Bengal,Kolkata,"Rabindra Bharati University, Kolkata - WBPCB",12-05-2024 06:00:00,22.627847,88.380669,NH3,10,10,10
India,West_Bengal,Kolkata,"Rabindra Bharati University, Kolkata - WBPCB",12-05-2024 06:00:00,22.627847,88.380669,SO2,8,84,14
India,West_Bengal,Kolkata,"Rabindra Sarobar, Kolkata - WBPCB",12-05-2024 06:00:00,22.51106,88.35142,PM2.5,12,29,20
India,West_Bengal,Kolkata,"Rabindra Sarobar, Kolkata - WBPCB",12-05-2024 06:00:00,22.51106,88.35142,NH3,7,10,8
India,West_Bengal,Kolkata,"Rabindra Sarobar, Kolkata - WBPCB",12-05-2024 06:00:00,22.51106,88.35142,CO,18,27,24
India,West_Bengal,Kolkata,"Rabindra Sarobar, Kolkata - WBPCB",12-05-2024 06:00:00,22.51106,88.35142,OZONE,15,57,25
India,West_Bengal,Kolkata,"Victoria, Kolkata - WBPCB",12-05-2024 06:00:00,22.5448082,88.3403691,PM10,33,63,44
India,West_Bengal,Kolkata,"Victoria, Kolkata - WBPCB",12-05-2024 06:00:00,22.5448082,88.3403691,CO,4,24,19
India,West_Bengal,Siliguri,"Ward-32 Bapupara, Siliguri - WBPCB",12-05-2024 06:00:00,26.6879226,88.4152495,NH3,7,11,9
India,Andhra_Pradesh,Amaravati,"Secretariat, Amaravati - APPCB",12-05-2024 06:00:00,16.5150833,80.5181667,NH3,1,4,3
India,Andhra_Pradesh,Anantapur,"Gulzarpet, Anantapur - APPCB",12-05-2024 06:00:00,14.675886,77.593027,NO2,12,13,12
India,Andhra_Pradesh,Tirupati,"Vaikuntapuram, Tirupati - APPCB",12-05-2024 06:00:00,13.615387,79.409230,PM10,NA,NA,NA
India,Andhra_Pradesh,Tirupati,"Vaikuntapuram, Tirupati - APPCB",12-05-2024 06:00:00,13.615387,79.409230,OZONE,NA,NA,NA
India,Andhra_Pradesh,Vijayawada,"HB Colony, Vijayawada - APPCB",12-05-2024 06:00:00,16.536107,80.594233,PM10,NA,NA,NA
India,Andhra_Pradesh,Vijayawada,"HB Colony, Vijayawada - APPCB",12-05-2024 06:00:00,16.536107,80.594233,NH3,NA,NA,NA
India,Andhra_Pradesh,Vijayawada,"Kanuru, Vijayawada - APPCB",12-05-2024 06:00:00,16.486692,80.699436,NO2,NA,NA,NA
India,Andhra_Pradesh,Vijayawada,"Kanuru, Vijayawada - APPCB",12-05-2024 06:00:00,16.486692,80.699436,NH3,NA,NA,NA
India,Andhra_Pradesh,Vijayawada,"Kanuru, Vijayawada - APPCB",12-05-2024 06:00:00,16.486692,80.699436,CO,NA,NA,NA
India,Andhra_Pradesh,Vijayawada,"Kanuru, Vijayawada - APPCB",12-05-2024 06:00:00,16.486692,80.699436,OZONE,NA,NA,NA
India,Andhra_Pradesh,Vijayawada,"Rajiv Gandhi Park, Vijayawada - APPCB",12-05-2024 06:00:00,16.509717,80.612222,PM2.5,NA,NA,NA
India,Andhra_Pradesh,Vijayawada,"Rajiv Gandhi Park, Vijayawada - APPCB",12-05-2024 06:00:00,16.509717,80.612222,PM10,NA,NA,NA
India,Andhra_Pradesh,Vijayawada,"Rajiv Nagar, Vijayawada - APPCB",12-05-2024 06:00:00,16.554731,80.649110,PM2.5,NA,NA,NA
India,Andhra_Pradesh,Visakhapatnam,"GVM Corporation, Visakhapatnam - APPCB",12-05-2024 06:00:00,17.72,83.3,PM10,37,112,70
India,Assam,Byrnihat,"Central Academy for SFS, Byrnihat - PCBA",12-05-2024 06:00:00,26.071318,91.87488,NH3,15,21,18
India,Assam,Guwahati,"IITG, Guwahati - PCBA",12-05-2024 06:00:00,26.2028636,91.70046436,PM2.5,16,93,46
India,Assam,Guwahati,"IITG, Guwahati - PCBA",12-05-2024 06:00:00,26.2028636,91.70046436,PM10,32,100,57
India,Assam,Guwahati,"IITG, Guwahati - PCBA",12-05-2024 06:00:00,26.2028636,91.70046436,NO2,1,2,1
India,Assam,Guwahati,"LGBI Airport, Guwahati - PCBA",12-05-2024 06:00:00,26.10887,91.589544,CO,32,64,54
India,Assam,Guwahati,"Pan Bazaar, Guwahati - PCBA",12-05-2024 06:00:00,26.187500,91.744194,CO,18,34,26
India,Assam,Nagaon,"Christianpatty, Nagaon - PCBA",12-05-2024 06:00:00,26.349082,92.68449,NH3,1,4,3
India,Assam,Nalbari,"Bata Chowk, Nalbari - PCBA",12-05-2024 06:00:00,26.446912,91.439057,PM10,47,288,98
India,Assam,Nalbari,"Bata Chowk, Nalbari - PCBA",12-05-2024 06:00:00,26.446912,91.439057,SO2,9,13,11
India,Assam,Nalbari,"Bata Chowk, Nalbari - PCBA",12-05-2024 06:00:00,26.446912,91.439057,OZONE,12,18,13
India,Assam,Silchar,"Tarapur, Silchar - PCBA",12-05-2024 06:00:00,24.82827,92.79525,PM10,41,54,47
India,Assam,Silchar,"Tarapur, Silchar - PCBA",12-05-2024 06:00:00,24.82827,92.79525,NO2,16,16,16
India,Assam,Sivasagar,"Girls College, Sivasagar - PCBA",12-05-2024 06:00:00,26.987634,94.636574,PM10,44,64,53
India,Bihar,Araria,"Kharahiya Basti, Araria - BSPCB",12-05-2024 06:00:00,26.146529,87.454184,CO,20,32,26
India,Bihar,Arrah,"New DM Office, Arrah - BSPCB",12-05-2024 06:00:00,25.5626095,84.663264,PM2.5,28,65,45
India,Bihar,Arrah,"New DM Office, Arrah - BSPCB",12-05-2024 06:00:00,25.5626095,84.663264,SO2,16,71,33
India,Bihar,Aurangabad,"Gurdeo Nagar, Aurangabad - BSPCB",12-05-2024 06:00:00,24.75746,84.366208,SO2,15,22,20
India,Bihar,Bhagalpur,"DM Office_Kachari Chowk, Bhagalpur - BSPCB",12-05-2024 06:00:00,25.251013,86.989001,PM2.5,28,147,96
India,Bihar,Bhagalpur,"DM Office_Kachari Chowk, Bhagalpur - BSPCB",12-05-2024 06:00:00,25.251013,86.989001,PM10,27,111,85
India,Bihar,Bhagalpur,"Mayaganj, Bhagalpur - BSPCB",12-05-2024 06:00:00,25.265194,87.012947,SO2,11,12,12
India,Bihar,Bhagalpur,"Mayaganj, Bhagalpur - BSPCB",12-05-2024 06:00:00,25.265194,87.012947,OZONE,8,31,11
India,Bihar,Chhapra,"Darshan Nagar, Chhapra - BSPCB",12-05-2024 06:00:00,25.7808257,84.7446768,SO2,16,30,22
India,Bihar,Gaya,"Collectorate, Gaya - BSPCB",12-05-2024 06:00:00,24.7955,84.9994,NO2,NA,NA,NA
India,Bihar,Gaya,"SFTI Kusdihra, Gaya - BSPCB",12-05-2024 06:00:00,24.762518,84.982348,NO2,NA,NA,NA
India,Bihar,Hajipur,"Industrial Area, Hajipur - BSPCB",12-05-2024 06:00:00,25.697189,85.245900,CO,26,47,43
India,Bihar,Kishanganj,"SDM Office_Khagra, Kishanganj - BSPCB",12-05-2024 06:00:00,26.0881305,87.93840336,PM2.5,7,88,36
India,Bihar,Kishanganj,"SDM Office_Khagra, Kishanganj - BSPCB",12-05-2024 06:00:00,26.0881305,87.93840336,SO2,30,31,31
India,Bihar,Manguraha,"Forest Rest House, Manguraha - BSPCB",12-05-2024 06:00:00,27.308328,84.531742,NO2,NA,NA,NA
India,Bihar,Manguraha,"Forest Rest House, Manguraha - BSPCB",12-05-2024 06:00:00,27.308328,84.531742,SO2,NA,NA,NA
India,Bihar,Manguraha,"Forest Rest House, Manguraha - BSPCB",12-05-2024 06:00:00,27.308328,84.531742,OZONE,2,22,3
India,Bihar,Motihari,"Gandak Colony, Motihari - BSPCB",12-05-2024 06:00:00,26.63086,84.90051,SO2,11,21,14
India,Bihar,Muzaffarpur,"Buddha Colony, Muzaffarpur - BSPCB",12-05-2024 06:00:00,26.11442,85.39813,NO2,9,25,14
India,Bihar,Muzaffarpur,"Buddha Colony, Muzaffarpur - BSPCB",12-05-2024 06:00:00,26.11442,85.39813,CO,20,44,32
India,Bihar,Muzaffarpur,"MIT-Daudpur Kothi, Muzaffarpur - BSPCB",12-05-2024 06:00:00,26.1403345,85.3650192,NH3,1,1,1
India,Bihar,Muzaffarpur,"MIT-Daudpur Kothi, Muzaffarpur - BSPCB",12-05-2024 06:00:00,26.1403345,85.3650192,CO,12,106,45
India,Bihar,Muzaffarpur,"MIT-Daudpur Kothi, Muzaffarpur - BSPCB",12-05-2024 06:00:00,26.1403345,85.3650192,OZONE,7,41,11
India,Bihar,Muzaffarpur,"Muzaffarpur Collectorate, Muzaffarpur - BSPCB",12-05-2024 06:00:00,26.1209,85.3647,SO2,6,13,7
India,Bihar,Muzaffarpur,"Muzaffarpur Collectorate, Muzaffarpur - BSPCB",12-05-2024 06:00:00,26.1209,85.3647,CO,28,60,28
India,Bihar,Patna,"DRM Office Danapur, Patna - BSPCB",12-05-2024 06:00:00,25.586562,85.043586,PM10,86,118,105
India,Bihar,Patna,"DRM Office Danapur, Patna - BSPCB",12-05-2024 06:00:00,25.586562,85.043586,NO2,12,25,18
India,Bihar,Patna,"DRM Office Danapur, Patna - BSPCB",12-05-2024 06:00:00,25.586562,85.043586,NH3,2,3,3
India,Bihar,Patna,"DRM Office Danapur, Patna - BSPCB",12-05-2024 06:00:00,25.586562,85.043586,SO2,6,12,10
India,Bihar,Patna,"DRM Office Danapur, Patna - BSPCB",12-05-2024 06:00:00,25.586562,85.043586,OZONE,12,43,23
India,Bihar,Patna,"Govt. High School Shikarpur, Patna - BSPCB",12-05-2024 06:00:00,25.592539,85.227158,PM10,89,127,105
India,Bihar,Patna,"Govt. High School Shikarpur, Patna - BSPCB",12-05-2024 06:00:00,25.592539,85.227158,SO2,9,11,10
India,Bihar,Patna,"IGSC Planetarium Complex, Patna - BSPCB",12-05-2024 06:00:00,25.610369,85.132568,PM2.5,79,177,115
India,Bihar,Patna,"Rajbansi Nagar, Patna - BSPCB",12-05-2024 06:00:00,25.599486,85.113666,PM10,95,144,122
India,Bihar,Patna,"Samanpura, Patna - BSPCB",12-05-2024 06:00:00,25.596727,85.085624,NO2,10,38,19
India,Bihar,Patna,"Samanpura, Patna - BSPCB",12-05-2024 06:00:00,25.596727,85.085624,CO,52,79,64
India,Bihar,Patna,"Samanpura, Patna - BSPCB",12-05-2024 06:00:00,25.596727,85.085624,OZONE,25,100,34
India,Bihar,Purnia,"Mariam Nagar, Purnia - BSPCB",12-05-2024 06:00:00,25.366336,87.117468,NO2,5,6,6
India,Bihar,Purnia,"Mariam Nagar, Purnia - BSPCB",12-05-2024 06:00:00,25.366336,87.117468,NH3,4,9,7
India,Bihar,Rajgir,"Dangi Tola, Rajgir - BSPCB",12-05-2024 06:00:00,25.03280,85.41948,OZONE,29,34,34
India,Bihar,Saharsa,"Police Line, Saharsa - BSPCB",12-05-2024 06:00:00,25.892357,86.590325,CO,54,55,55
India,Bihar,Samastipur,"DM Office_Kasipur, Samastipur - BSPCB",12-05-2024 06:00:00,25.859655,85.77944,PM10,59,161,103
India,Bihar,Sasaram,"Dada Peer, Sasaram - BSPCB",12-05-2024 06:00:00,24.952822,84.002396,NO2,23,104,47
India,Bihar,Siwan,"Chitragupta Nagar, Siwan - BSPCB",12-05-2024 06:00:00,26.2271665,84.3570427,SO2,18,35,31
India,Bihar,Siwan,"Chitragupta Nagar, Siwan - BSPCB",12-05-2024 06:00:00,26.2271665,84.3570427,CO,54,136,81
India,Chandigarh,Chandigarh,"Sector 22, Chandigarh - CPCC",12-05-2024 06:00:00,30.735567,76.775714,NH3,6,9,8
India,Chandigarh,Chandigarh,"Sector 22, Chandigarh - CPCC",12-05-2024 06:00:00,30.735567,76.775714,SO2,7,113,21
India,Chhattisgarh,Bhilai,"32Bungalows, Bhilai - CECB",12-05-2024 06:00:00,21.194815,81.314770,NO2,14,26,22
India,Chhattisgarh,Bhilai,"32Bungalows, Bhilai - CECB",12-05-2024 06:00:00,21.194815,81.314770,NH3,6,6,6
India,Chhattisgarh,Bhilai,"32Bungalows, Bhilai - CECB",12-05-2024 06:00:00,21.194815,81.314770,SO2,2,13,5
India,Chhattisgarh,Bhilai,"Civic Center, Bhilai - Bhilai Steel Plant",12-05-2024 06:00:00,21.185571,81.343175,OZONE,11,76,22
India,Chhattisgarh,Bhilai,"Hathkhoj, Bhilai - CECB",12-05-2024 06:00:00,21.224231,81.408350,OZONE,22,40,24
India,Chhattisgarh,Bilaspur,"Mangala, Bilaspur - NTPC",12-05-2024 06:00:00,22.08815,82.13737,PM10,28,58,43
India,Chhattisgarh,Korba,"Rampur, Korba - CECB",12-05-2024 06:00:00,22.368195,82.746431,PM2.5,24,56,35
India,Chhattisgarh,Korba,"Urja Nagar, Korba - CECB",12-05-2024 06:00:00,22.348441,82.549611,PM2.5,NA,NA,NA
India,Chhattisgarh,Korba,"Urja Nagar, Korba - CECB",12-05-2024 06:00:00,22.348441,82.549611,NH3,3,15,7
India,Chhattisgarh,Kunjemura,"OP Jindal School, Kunjemura - CECB",12-05-2024 06:00:00,22.126650,83.483212,NO2,21,135,55
India,Chhattisgarh,Kunjemura,"OP Jindal School, Kunjemura - CECB",12-05-2024 06:00:00,22.126650,83.483212,SO2,2,9,5
India,Chhattisgarh,Milupara,"Govt. Higher Secondary School, Milupara - CECB",12-05-2024 06:00:00,22.1910172,83.5197009,PM2.5,14,34,26
India,Chhattisgarh,Milupara,"Govt. Higher Secondary School, Milupara - CECB",12-05-2024 06:00:00,22.1910172,83.5197009,NH3,NA,NA,NA
India,Chhattisgarh,Milupara,"Govt. Higher Secondary School, Milupara - CECB",12-05-2024 06:00:00,22.1910172,83.5197009,SO2,NA,NA,NA
India,Chhattisgarh,Milupara,"Govt. Higher Secondary School, Milupara - CECB",12-05-2024 06:00:00,22.1910172,83.5197009,CO,5,44,6
India,Chhattisgarh,Raipur,"AIIMS, Raipur - CECB",12-05-2024 06:00:00,21.258815,81.578979,PM10,32,138,73
India,Chhattisgarh,Raipur,"AIIMS, Raipur - CECB",12-05-2024 06:00:00,21.258815,81.578979,SO2,6,38,13
India,Chhattisgarh,Raipur,"Bhatagaon New ISBT, Raipur - CECB",12-05-2024 06:00:00,21.219665,81.630094,SO2,1,3,2
India,Chhattisgarh,Raipur,"Bhatagaon New ISBT, Raipur - CECB",12-05-2024 06:00:00,21.219665,81.630094,CO,15,34,24
India,Chhattisgarh,Raipur,"Bhatagaon New ISBT, Raipur - CECB",12-05-2024 06:00:00,21.219665,81.630094,OZONE,4,14,4
India,Chhattisgarh,Raipur,"Krishak Nagar, Raipur - CECB",12-05-2024 06:00:00,21.237755,81.705301,CO,20,36,25
India,Delhi,Delhi,"Alipur, Delhi - DPCC",12-05-2024 06:00:00,28.815329,77.153010,NH3,NA,NA,NA
India,Delhi,Delhi,"Ashok Vihar, Delhi - DPCC",12-05-2024 06:00:00,28.695381,77.181665,PM10,126,500,237
India,Delhi,Delhi,"Ashok Vihar, Delhi - DPCC",12-05-2024 06:00:00,28.695381,77.181665,SO2,23,49,29
India,Delhi,Delhi,"Ashok Vihar, Delhi - DPCC",12-05-2024 06:00:00,28.695381,77.181665,OZONE,13,192,35
India,Delhi,Delhi,"Aya Nagar, Delhi - IMD",12-05-2024 06:00:00,28.4706914,77.1099364,PM2.5,5,306,144
India,Delhi,Delhi,"Aya Nagar, Delhi - IMD",12-05-2024 06:00:00,28.4706914,77.1099364,CO,16,96,71
India,Delhi,Delhi,"Burari Crossing, Delhi - IMD",12-05-2024 06:00:00,28.7256504,77.2011573,PM10,129,408,219
India,Delhi,Delhi,"CRRI Mathura Road, Delhi - IMD",12-05-2024 06:00:00,28.5512005,77.2735737,CO,10,79,59
India,Delhi,Delhi,"Chandni Chowk, Delhi - IITM",12-05-2024 06:00:00,28.656756,77.227234,SO2,9,28,14
India,Delhi,Delhi,"Chandni Chowk, Delhi - IITM",12-05-2024 06:00:00,28.656756,77.227234,OZONE,10,14,12
India,Delhi,Delhi,"DTU, Delhi - CPCB",12-05-2024 06:00:00,28.7500499,77.1112615,PM2.5,80,365,215
India,Delhi,Delhi,"DTU, Delhi - CPCB",12-05-2024 06:00:00,28.7500499,77.1112615,SO2,34,42,36
India,Delhi,Delhi,"Dr. Karni Singh Shooting Range, Delhi - DPCC",12-05-2024 06:00:00,28.498571,77.264840,SO2,23,34,28
India,Delhi,Delhi,"Dwarka-Sector 8, Delhi - DPCC ",12-05-2024 06:00:00,28.5710274,77.0719006,PM10,141,473,228
India,Delhi,Delhi,"Dwarka-Sector 8, Delhi - DPCC ",12-05-2024 06:00:00,28.5710274,77.0719006,NH3,11,15,13
India,Delhi,Delhi,"IHBAS, Dilshad Garden, Delhi - CPCB",12-05-2024 06:00:00,28.6811736,77.3025234,NH3,5,8,7
India,Delhi,Delhi,"ITO, Delhi - CPCB",12-05-2024 06:00:00,28.628624,77.241060,NO2,6,76,35
India,Delhi,Delhi,"ITO, Delhi - CPCB",12-05-2024 06:00:00,28.628624,77.241060,CO,34,112,85
India,Delhi,Delhi,"ITO, Delhi - CPCB",12-05-2024 06:00:00,28.628624,77.241060,OZONE,11,158,17
India,Delhi,Delhi,"Jahangirpuri, Delhi - DPCC",12-05-2024 06:00:00,28.732820,77.170633,NH3,2,10,7
India,Delhi,Delhi,"Jahangirpuri, Delhi - DPCC",12-05-2024 06:00:00,28.732820,77.170633,SO2,24,71,37
India,Delhi,Delhi,"Jawaharlal Nehru Stadium, Delhi - DPCC",12-05-2024 06:00:00,28.580280,77.233829,OZONE,5,243,26
India,Delhi,Delhi,"Lodhi Road, Delhi - IMD",12-05-2024 06:00:00,28.5918245,77.2273074,PM10,105,427,176
India,Delhi,Delhi,"Mundka, Delhi - DPCC",12-05-2024 06:00:00,28.684678,77.076574,PM2.5,67,437,195
India,Delhi,Delhi,"Mundka, Delhi - DPCC",12-05-2024 06:00:00,28.684678,77.076574,OZONE,16,225,28
India,Delhi,Delhi,"NSIT Dwarka, Delhi - CPCB",12-05-2024 06:00:00,28.60909,77.0325413,PM10,NA,NA,NA
India,Delhi,Delhi,"NSIT Dwarka, Delhi - CPCB",12-05-2024 06:00:00,28.60909,77.0325413,NO2,NA,NA,NA
India,Delhi,Delhi,"New Moti Bagh, Delhi - MHUA",12-05-2024 06:00:00,28.57834,77.18400,NO2,8,38,19
India,Delhi,Delhi,"Okhla Phase-2, Delhi - DPCC",12-05-2024 06:00:00,28.530785,77.271255,PM10,130,450,225
India,Delhi,Delhi,"Patparganj, Delhi - DPCC",12-05-2024 06:00:00,28.623763,77.287209,PM10,NA,NA,NA
India,Delhi,Delhi,"Patparganj, Delhi - DPCC",12-05-2024 06:00:00,28.623763,77.287209,NO2,NA,NA,NA
India,Delhi,Delhi,"Patparganj, Delhi - DPCC",12-05-2024 06:00:00,28.623763,77.287209,NH3,NA,NA,NA
India,Delhi,Delhi,"Punjabi Bagh, Delhi - DPCC",12-05-2024 06:00:00,28.674045,77.131023,PM10,129,371,194
India,Delhi,Delhi,"Punjabi Bagh, Delhi - DPCC",12-05-2024 06:00:00,28.674045,77.131023,SO2,2,27,14
India,Delhi,Delhi,"Pusa, Delhi - DPCC",12-05-2024 06:00:00,28.639652,77.146275,PM10,126,463,214
India,Delhi,Delhi,"R K Puram, Delhi - DPCC",12-05-2024 06:00:00,28.563262,77.186937,CO,1,168,61
India,Delhi,Delhi,"Shadipur, Delhi - CPCB",12-05-2024 06:00:00,28.6514781,77.1473105,PM10,158,500,290
India,Delhi,Delhi,"Shadipur, Delhi - CPCB",12-05-2024 06:00:00,28.6514781,77.1473105,NH3,8,10,8
India,Delhi,Delhi,"Sirifort, Delhi - CPCB",12-05-2024 06:00:00,28.5504249,77.2159377,SO2,NA,NA,NA
India,Delhi,Delhi,"Sirifort, Delhi - CPCB",12-05-2024 06:00:00,28.5504249,77.2159377,OZONE,3,145,10
India,Delhi,Delhi,"Sri Aurobindo Marg, Delhi - DPCC",12-05-2024 06:00:00,28.531346,77.190156,PM2.5,50,147,88
India,Delhi,Delhi,"Sri Aurobindo Marg, Delhi - DPCC",12-05-2024 06:00:00,28.531346,77.190156,PM10,111,423,172
India,Delhi,Delhi,"Vivek Vihar, Delhi - DPCC",12-05-2024 06:00:00,28.672342,77.315260,PM10,143,416,216
India,Delhi,Delhi,"Vivek Vihar, Delhi - DPCC",12-05-2024 06:00:00,28.672342,77.315260,SO2,34,57,42
India,Delhi,Delhi,"Vivek Vihar, Delhi - DPCC",12-05-2024 06:00:00,28.672342,77.315260,CO,28,81,63
India,Delhi,Delhi,"Wazirpur, Delhi - DPCC",12-05-2024 06:00:00,28.699793,77.165453,SO2,10,35,17
India,Gujarat,Ahmedabad,"Chandkheda, Ahmedabad - IITM",12-05-2024 06:00:00,23.107969,72.574648,NO2,12,24,23
India,Gujarat,Ahmedabad,"Gyaspur, Ahmedabad - IITM",12-05-2024 06:00:00,22.977134,72.553024,CO,40,58,49
India,Gujarat,Ahmedabad,"Maninagar, Ahmedabad - GPCB",12-05-2024 06:00:00,23.002657,72.591912,SO2,1,133,62
India,Gujarat,Ahmedabad,"Maninagar, Ahmedabad - GPCB",12-05-2024 06:00:00,23.002657,72.591912,CO,74,166,95
India,Gujarat,Ahmedabad,"Raikhad, Ahmedabad - IITM",12-05-2024 06:00:00,23.020509,72.579261,SO2,14,36,21
India,Gujarat,Ahmedabad,"Raikhad, Ahmedabad - IITM",12-05-2024 06:00:00,23.020509,72.579261,OZONE,6,75,16
India,Gujarat,Ahmedabad,"Rakhial, Ahmedabad - IITM",12-05-2024 06:00:00,23.016834,72.625775,PM10,6,500,180
India,Gujarat,Ahmedabad,"Rakhial, Ahmedabad - IITM",12-05-2024 06:00:00,23.016834,72.625775,NH3,3,21,12
India,Gujarat,Ahmedabad,"SVPI Airport Hansol, Ahmedabad - IITM",12-05-2024 06:00:00,23.076793,72.627874,PM10,69,145,101
India,Gujarat,Ankleshwar,"GIDC, Ankleshwar - GPCB",12-05-2024 06:00:00,21.613267,73.010555,PM2.5,NA,NA,NA
India,Gujarat,Ankleshwar,"GIDC, Ankleshwar - GPCB",12-05-2024 06:00:00,21.613267,73.010555,NO2,NA,NA,NA
India,Gujarat,Ankleshwar,"GIDC, Ankleshwar - GPCB",12-05-2024 06:00:00,21.613267,73.010555,CO,NA,NA,NA
India,Gujarat,Gandhinagar,"Sector-10, Gandhinagar - GPCB",12-05-2024 06:00:00,23.221714,72.654328,OZONE,9,75,22
India,Gujarat,Surat,"Science Center, Surat - SMC",12-05-2024 06:00:00,21.170046,72.795405,PM2.5,NA,NA,NA
India,Gujarat,Surat,"Science Center, Surat - SMC",12-05-2024 06:00:00,21.170046,72.795405,NO2,NA,NA,NA
India,Gujarat,Surat,"Science Center, Surat - SMC",12-05-2024 06:00:00,21.170046,72.795405,CO,15,18,16
India,Gujarat,Vapi,"Phase-1 GIDC, Vapi - GPCB",12-05-2024 06:00:00,20.362421,72.918013,PM10,NA,NA,NA
India,Gujarat,Vapi,"Phase-1 GIDC, Vapi - GPCB",12-05-2024 06:00:00,20.362421,72.918013,SO2,NA,NA,NA
India,Gujarat,Vatva,"Phase-4 GIDC, Vatva - GPCB",12-05-2024 06:00:00,22.969611,72.643500,NO2,10,118,39
India,Gujarat,Vatva,"Phase-4 GIDC, Vatva - GPCB",12-05-2024 06:00:00,22.969611,72.643500,NH3,6,24,11
India,Haryana,Ballabgarh,"Nathu Colony, Ballabgarh - HSPCB",12-05-2024 06:00:00,28.3419248,77.319699,NO2,11,14,12
India,Haryana,Ballabgarh,"Nathu Colony, Ballabgarh - HSPCB",12-05-2024 06:00:00,28.3419248,77.319699,NH3,1,2,2
India,Haryana,Ballabgarh,"Nathu Colony, Ballabgarh - HSPCB",12-05-2024 06:00:00,28.3419248,77.319699,OZONE,14,54,19
India,Haryana,Charkhi Dadri,"Mini Secretariat, Charkhi Dadri - HSPCB",12-05-2024 06:00:00,28.593883,76.270653,SO2,6,46,19
India,Haryana,Dharuhera,"Municipal Corporation Office, Dharuhera -  HSPCB",12-05-2024 06:00:00,28.206800,76.799700,PM10,119,497,170
India,Haryana,Faridabad,"Sector 11, Faridabad - HSPCB",12-05-2024 06:00:00,28.376058,77.315741,PM2.5,203,400,309
India,Haryana,Faridabad,"Sector- 16A, Faridabad - HSPCB",12-05-2024 06:00:00,28.4088421,77.3099081,PM2.5,62,308,120
India,Haryana,Faridabad,"Sector- 16A, Faridabad - HSPCB",12-05-2024 06:00:00,28.4088421,77.3099081,SO2,18,26,22
India,Haryana,Faridabad,"Sector- 16A, Faridabad - HSPCB",12-05-2024 06:00:00,28.4088421,77.3099081,OZONE,14,14,14
India,Haryana,Fatehabad,"Huda Sector, Fatehabad - HSPCB",12-05-2024 06:00:00,29.503664,75.467934,PM2.5,1,102,55
India,Haryana,Fatehabad,"Huda Sector, Fatehabad - HSPCB",12-05-2024 06:00:00,29.503664,75.467934,SO2,1,36,7
India,Haryana,Gurugram,"NISE Gwal Pahari, Gurugram - IMD",12-05-2024 06:00:00,28.422681,77.148944,PM10,NA,NA,NA
India,Haryana,Gurugram,"Teri Gram, Gurugram - HSPCB",12-05-2024 06:00:00,28.4275,77.1465,PM2.5,NA,NA,NA
India,Haryana,Hisar,"Urban Estate-II, Hisar - HSPCB",12-05-2024 06:00:00,29.140560,75.744941,PM2.5,56,149,86
India,Haryana,Hisar,"Urban Estate-II, Hisar - HSPCB",12-05-2024 06:00:00,29.140560,75.744941,NH3,8,12,10
India,Haryana,Jind,"Police Lines, Jind - HSPCB",12-05-2024 06:00:00,29.307814,76.337619,PM10,52,106,77
India,Haryana,Jind,"Police Lines, Jind - HSPCB",12-05-2024 06:00:00,29.307814,76.337619,NH3,2,5,4
India,Haryana,Jind,"Police Lines, Jind - HSPCB",12-05-2024 06:00:00,29.307814,76.337619,CO,4,187,24
India,Haryana,Karnal,"Sector-12, Karnal - HSPCB",12-05-2024 06:00:00,29.695300,77.002700,NO2,7,12,10
India,Haryana,Karnal,"Sector-12, Karnal - HSPCB",12-05-2024 06:00:00,29.695300,77.002700,NH3,10,12,11
India,Haryana,Kurukshetra,"Sector-7, Kurukshetra - HSPCB",12-05-2024 06:00:00,29.966942,76.875879,NO2,9,9,9
India,Haryana,Mandikhera,"General Hospital, Mandikhera - HSPCB",12-05-2024 06:00:00,27.9002,76.9938,NO2,19,23,21
India,Haryana,Manesar,"Sector-2 IMT, Manesar - HSPCB",12-05-2024 06:00:00,28.360699,76.936090,NO2,26,85,48
India,Haryana,Narnaul,"Shastri Nagar, Narnaul - HSPCB",12-05-2024 06:00:00,28.060249,76.113115,NO2,16,82,47
India,Haryana,Palwal,"Shyam Nagar, Palwal - HSPCB",12-05-2024 06:00:00,28.1485564,77.3320667,CO,24,34,31
India,Haryana,Panipat,"Sector-18, Panipat - HSPCB",12-05-2024 06:00:00,29.497973,76.993331,PM10,NA,NA,NA
India,Haryana,Panipat,"Sector-18, Panipat - HSPCB",12-05-2024 06:00:00,29.497973,76.993331,NO2,NA,NA,NA
India,Haryana,Panipat,"Sector-18, Panipat - HSPCB",12-05-2024 06:00:00,29.497973,76.993331,NH3,NA,NA,NA
India,Haryana,Panipat,"Sector-18, Panipat - HSPCB",12-05-2024 06:00:00,29.497973,76.993331,CO,24,26,25
India,Haryana,Sirsa,"F-Block, Sirsa - HSPCB",12-05-2024 06:00:00,29.536400,75.015800,PM2.5,49,88,65
India,Haryana,Sonipat,"Murthal, Sonipat - HSPCB",12-05-2024 06:00:00,29.027200,77.062100,PM2.5,NA,NA,NA
India,Haryana,Sonipat,"Murthal, Sonipat - HSPCB",12-05-2024 06:00:00,29.027200,77.062100,CO,7,99,17
India,Haryana,Yamuna Nagar,"Gobind Pura, Yamuna Nagar - HSPCB",12-05-2024 06:00:00,30.1480566,77.2893471,OZONE,45,72,50
India,Himachal Pradesh,Baddi,"HIMUDA Complex Phase-1, Baddi - HPPCB",12-05-2024 06:00:00,30.943887,76.801991,NO2,10,47,22
India,Himachal Pradesh,Baddi,"HIMUDA Complex Phase-1, Baddi - HPPCB",12-05-2024 06:00:00,30.943887,76.801991,SO2,9,103,30
India,Jammu_and_Kashmir,Srinagar,"Rajbagh, Srinagar - JKSPCB",12-05-2024 06:00:00,34.066206,74.819820,OZONE,12,17,13
India,Jharkhand,Dhanbad,"Kalakusuma, Dhanbad - DMC",12-05-2024 06:00:00,23.811548,86.481238,PM10,11,62,15
India,Jharkhand,Dhanbad,"Kalakusuma, Dhanbad - DMC",12-05-2024 06:00:00,23.811548,86.481238,CO,128,133,131
India,Jharkhand,Dhanbad,"Sardar Patel Nagar, Dhanbad - JSPCB",12-05-2024 06:00:00,23.80569,86.44268,PM2.5,NA,NA,NA
India,Jharkhand,Dhanbad,"Sardar Patel Nagar, Dhanbad - JSPCB",12-05-2024 06:00:00,23.80569,86.44268,PM10,NA,NA,NA
India,Jharkhand,Dhanbad,"Sardar Patel Nagar, Dhanbad - JSPCB",12-05-2024 06:00:00,23.80569,86.44268,SO2,NA,NA,NA
India,Karnataka,Bagalkot,"Vidayagiri, Bagalkot - KSPCB",12-05-2024 06:00:00,16.172806,75.659694,PM2.5,25,37,36
India,Karnataka,Bagalkot,"Vidayagiri, Bagalkot - KSPCB",12-05-2024 06:00:00,16.172806,75.659694,NH3,1,2,1
India,Karnataka,Bagalkot,"Vidayagiri, Bagalkot - KSPCB",12-05-2024 06:00:00,16.172806,75.659694,CO,20,55,38
India,Karnataka,Belgaum,"Ramteerth Nagar, Belgaum - KSPCB",12-05-2024 06:00:00,15.888653,74.541751,PM2.5,14,36,22
India,Karnataka,Belgaum,"Ramteerth Nagar, Belgaum - KSPCB",12-05-2024 06:00:00,15.888653,74.541751,SO2,8,9,8
India,Karnataka,Belgaum,"Ramteerth Nagar, Belgaum - KSPCB",12-05-2024 06:00:00,15.888653,74.541751,CO,46,62,57
India,Karnataka,Bengaluru,"Bapuji Nagar, Bengaluru - KSPCB",12-05-2024 06:00:00,12.951913,77.539784,PM2.5,47,184,88
India,Karnataka,Bengaluru,"Bapuji Nagar, Bengaluru - KSPCB",12-05-2024 06:00:00,12.951913,77.539784,PM10,30,178,73
India,Karnataka,Bengaluru,"Hebbal, Bengaluru - KSPCB",12-05-2024 06:00:00,13.029152,77.585901,NO2,4,5,5
India,Karnataka,Bengaluru,"Hombegowda Nagar, Bengaluru - KSPCB",12-05-2024 06:00:00,12.938539,77.590100,CO,20,47,26
India,Karnataka,Bengaluru,"Jayanagar 5th Block, Bengaluru - KSPCB",12-05-2024 06:00:00,12.920984,77.584908,NO2,12,20,15
India,Karnataka,Bengaluru,"Jayanagar 5th Block, Bengaluru - KSPCB",12-05-2024 06:00:00,12.920984,77.584908,SO2,11,24,18
India,Karnataka,Bengaluru,"Jayanagar 5th Block, Bengaluru - KSPCB",12-05-2024 06:00:00,12.920984,77.584908,OZONE,21,23,22
India,Karnataka,Bengaluru,"Kasturi Nagar, Bengaluru - KSPCB",12-05-2024 06:00:00,13.003872,77.664217,PM2.5,7,7,7
India,Karnataka,Bengaluru,"Kasturi Nagar, Bengaluru - KSPCB",12-05-2024 06:00:00,13.003872,77.664217,CO,24,25,25
India,Karnataka,Bengaluru,"Peenya, Bengaluru - CPCB",12-05-2024 06:00:00,13.0270199,77.494094,NH3,3,4,4
India,Karnataka,Bengaluru,"Shivapura_Peenya, Bengaluru - KSPCB",12-05-2024 06:00:00,13.0246342,77.5080115,PM2.5,3,31,11
India,Karnataka,Bengaluru,"Shivapura_Peenya, Bengaluru - KSPCB",12-05-2024 06:00:00,13.0246342,77.5080115,NH3,4,4,4
India,Karnataka,Bengaluru,"Silk Board, Bengaluru - KSPCB",12-05-2024 06:00:00,12.917348,77.622813,NH3,NA,NA,NA
India,Karnataka,Bengaluru,"Silk Board, Bengaluru - KSPCB",12-05-2024 06:00:00,12.917348,77.622813,SO2,NA,NA,NA
India,Karnataka,Bidar,"Naubad, Bidar - KSPCB",12-05-2024 06:00:00,17.930306,77.482194,PM2.5,35,109,59
India,Karnataka,Chamarajanagar,"Urban, Chamarajanagar - KSPCB",12-05-2024 06:00:00,11.55358,76.55521,NH3,2,2,2
India,Karnataka,Chamarajanagar,"Urban, Chamarajanagar - KSPCB",12-05-2024 06:00:00,11.55358,76.55521,OZONE,25,27,26
India,Karnataka,Chikkaballapur,"Chikkaballapur Rural, Chikkaballapur - KSPCB",12-05-2024 06:00:00,13.428828,77.731418,PM2.5,47,85,63
India,Karnataka,Chikkaballapur,"Chikkaballapur Rural, Chikkaballapur - KSPCB",12-05-2024 06:00:00,13.428828,77.731418,PM10,41,91,56
India,Karnataka,Chikkamagaluru,"Kalyana Nagara, Chikkamagaluru - KSPCB",12-05-2024 06:00:00,13.328028,75.797056,PM10,25,81,42
India,Karnataka,Chikkamagaluru,"Kalyana Nagara, Chikkamagaluru - KSPCB",12-05-2024 06:00:00,13.328028,75.797056,NH3,2,4,3
India,Karnataka,Chikkamagaluru,"Kalyana Nagara, Chikkamagaluru - KSPCB",12-05-2024 06:00:00,13.328028,75.797056,SO2,1,8,3
India,Karnataka,Davanagere,"Devaraj Urs Badavane, Davanagere - KSPCB",12-05-2024 06:00:00,14.475800,75.905200,PM2.5,17,53,33
India,Karnataka,Davanagere,"Devaraj Urs Badavane, Davanagere - KSPCB",12-05-2024 06:00:00,14.475800,75.905200,CO,10,23,20
India,Karnataka,Gadag,"Panchal Nagar, Gadag - KSPCB",12-05-2024 06:00:00,15.411456,75.638133,SO2,3,29,13
India,Karnataka,Gadag,"Panchal Nagar, Gadag - KSPCB",12-05-2024 06:00:00,15.411456,75.638133,CO,47,56,51
India,Karnataka,Hassan,"B.Katihalli, Hassan - KSPCB",12-05-2024 06:00:00,13.008556,76.125258,NO2,10,14,12
