country,state,city,station,last_update,latitude,longitude,pollutant_id,pollutant_min,pollutant_max,pollutant_avg
India,Andhra_Pradesh,Anantapur,"Gulzarpet, Anantapur - APPCB",08-01-2024 00:00:00,14.675886,77.593027,PM10,28,72,47
India,Andhra_Pradesh,Anantapur,"Gulzarpet, Anantapur - APPCB",08-01-2024 00:00:00,14.675886,77.593027,SO2,4,16,5
India,Andhra_Pradesh,Kadapa,"Yerramukkapalli, Kadapa - APPCB",08-01-2024 00:00:00,14.465052,78.824187,PM10,31,53,40
India,Andhra_Pradesh,Kadapa,"Yerramukkapalli, Kadapa - APPCB",08-01-2024 00:00:00,14.465052,78.824187,SO2,1,2,2
India,Andhra_Pradesh,Rajamahendravaram,"Anand Kala Kshetram, Rajamahendravaram - APPCB",08-01-2024 00:00:00,16.9872867,81.7363176,PM10,82,128,99
India,Andhra_Pradesh,Tirupati,"Tirumala, Tirupati - APPCB",08-01-2024 00:00:00,13.67,79.35,PM2.5,35,98,60
India,Andhra_Pradesh,Tirupati,"Tirumala, Tirupati - APPCB",08-01-2024 00:00:00,13.67,79.35,NO2,25,44,38
India,Andhra_Pradesh,Tirupati,"Tirumala, Tirupati - APPCB",08-01-2024 00:00:00,13.67,79.35,NH3,2,3,2
India,Andhra_Pradesh,Tirupati,"Tirumala, Tirupati - APPCB",08-01-2024 00:00:00,13.67,79.35,SO2,3,11,7
India,Andhra_Pradesh,Tirupati,"Tirumala, Tirupati - APPCB",08-01-2024 00:00:00,13.67,79.35,CO,40,48,45
India,Andhra_Pradesh,Tirupati,"Tirumala, Tirupati - APPCB",08-01-2024 00:00:00,13.67,79.35,OZONE,26,40,34
India,Andhra_Pradesh,Vijayawada,"HB Colony, Vijayawada - APPCB",08-01-2024 00:00:00,16.536107,80.594233,PM10,43,89,55
India,Andhra_Pradesh,Vijayawada,"HB Colony, Vijayawada - APPCB",08-01-2024 00:00:00,16.536107,80.594233,SO2,5,20,10
India,Andhra_Pradesh,Vijayawada,"HB Colony, Vijayawada - APPCB",08-01-2024 00:00:00,16.536107,80.594233,CO,23,26,24
India,Andhra_Pradesh,Vijayawada,"Kanuru, Vijayawada - APPCB",08-01-2024 00:00:00,16.486692,80.699436,CO,43,43,43
India,Andhra_Pradesh,Vijayawada,"Rajiv Gandhi Park, Vijayawada - APPCB",08-01-2024 00:00:00,16.509717,80.612222,NH3,5,7,7
India,Andhra_Pradesh,Vijayawada,"Rajiv Gandhi Park, Vijayawada - APPCB",08-01-2024 00:00:00,16.509717,80.612222,OZONE,22,66,45
India,Andhra_Pradesh,Visakhapatnam,"GVM Corporation, Visakhapatnam - APPCB",08-01-2024 00:00:00,17.72,83.3,PM10,108,135,121
India,Andhra_Pradesh,Visakhapatnam,"GVM Corporation, Visakhapatnam - APPCB",08-01-2024 00:00:00,17.72,83.3,NO2,29,66,48
India,Arunachal_Pradesh,Naharlagun,"Naharlagun, Naharlagun - APSPCB",08-01-2024 00:00:00,27.103358,93.679645,PM10,39,178,84
India,Arunachal_Pradesh,Naharlagun,"Naharlagun, Naharlagun - APSPCB",08-01-2024 00:00:00,27.103358,93.679645,CO,10,85,47
India,Assam,Byrnihat,"Central Academy for SFS, Byrnihat - PCBA",08-01-2024 00:00:00,26.071318,91.87488,NO2,31,93,51
India,Assam,Byrnihat,"Central Academy for SFS, Byrnihat - PCBA",08-01-2024 00:00:00,26.071318,91.87488,CO,36,141,132
India,Assam,Guwahati,"IITG, Guwahati - PCBA",08-01-2024 00:00:00,26.2028636,91.70046436,NO2,1,19,7
India,Assam,Guwahati,"IITG, Guwahati - PCBA",08-01-2024 00:00:00,26.2028636,91.70046436,OZONE,1,20,4
India,Assam,Guwahati,"Pan Bazaar, Guwahati - PCBA",08-01-2024 00:00:00,26.187500,91.744194,PM2.5,58,378,197
India,Assam,Guwahati,"Pan Bazaar, Guwahati - PCBA",08-01-2024 00:00:00,26.187500,91.744194,OZONE,16,17,17
India,Assam,Guwahati,"Railway Colony, Guwahati - PCBA",08-01-2024 00:00:00,26.181742,91.78063,NO2,NA,NA,NA
India,Assam,Guwahati,"Railway Colony, Guwahati - PCBA",08-01-2024 00:00:00,26.181742,91.78063,OZONE,NA,NA,NA
India,Assam,Nagaon,"Christianpatty, Nagaon - PCBA",08-01-2024 00:00:00,26.349082,92.68449,PM10,78,434,182
India,Assam,Nagaon,"Christianpatty, Nagaon - PCBA",08-01-2024 00:00:00,26.349082,92.68449,CO,2,6,4
India,Assam,Nalbari,"Bata Chowk, Nalbari - PCBA",08-01-2024 00:00:00,26.446912,91.439057,SO2,5,22,11
India,Assam,Nalbari,"Bata Chowk, Nalbari - PCBA",08-01-2024 00:00:00,26.446912,91.439057,CO,28,156,122
India,Assam,Silchar,"Tarapur, Silchar - PCBA",08-01-2024 00:00:00,24.82827,92.79525,OZONE,NA,NA,NA
India,Assam,Sivasagar,"Girls College, Sivasagar - PCBA",08-01-2024 00:00:00,26.987634,94.636574,CO,12,64,34
India,Assam,Sivasagar,"Girls College, Sivasagar - PCBA",08-01-2024 00:00:00,26.987634,94.636574,OZONE,NA,NA,NA
India,Bihar,Araria,"Kharahiya Basti, Araria - BSPCB",08-01-2024 00:00:00,26.146529,87.454184,CO,55,101,83
India,Bihar,Arrah,"New DM Office, Arrah - BSPCB",08-01-2024 00:00:00,25.5626095,84.663264,SO2,14,20,18
India,Bihar,Arrah,"New DM Office, Arrah - BSPCB",08-01-2024 00:00:00,25.5626095,84.663264,OZONE,12,42,14
India,Bihar,Aurangabad,"Gurdeo Nagar, Aurangabad - BSPCB",08-01-2024 00:00:00,24.75746,84.366208,PM10,50,167,91
India,Bihar,Aurangabad,"Gurdeo Nagar, Aurangabad - BSPCB",08-01-2024 00:00:00,24.75746,84.366208,CO,2,118,99
India,Bihar,Bettiah,"Kamalnath Nagar, Bettiah - BSPCB",08-01-2024 00:00:00,26.80365,84.51954,CO,60,105,99
India,Bihar,Bhagalpur,"DM Office_Kachari Chowk, Bhagalpur - BSPCB",08-01-2024 00:00:00,25.251013,86.989001,OZONE,18,56,23
India,Bihar,Bhagalpur,"Mayaganj, Bhagalpur - BSPCB",08-01-2024 00:00:00,25.265194,87.012947,NO2,7,42,12
India,Bihar,Bhagalpur,"Mayaganj, Bhagalpur - BSPCB",08-01-2024 00:00:00,25.265194,87.012947,NH3,8,9,9
India,Bihar,Bhagalpur,"Mayaganj, Bhagalpur - BSPCB",08-01-2024 00:00:00,25.265194,87.012947,CO,7,11,9
India,Bihar,Bhagalpur,"Mayaganj, Bhagalpur - BSPCB",08-01-2024 00:00:00,25.265194,87.012947,OZONE,17,59,33
India,Bihar,Chhapra,"Darshan Nagar, Chhapra - BSPCB",08-01-2024 00:00:00,25.7808257,84.7446768,NO2,10,16,13
India,Bihar,Chhapra,"Darshan Nagar, Chhapra - BSPCB",08-01-2024 00:00:00,25.7808257,84.7446768,CO,20,31,28
India,Bihar,Chhapra,"Darshan Nagar, Chhapra - BSPCB",08-01-2024 00:00:00,25.7808257,84.7446768,OZONE,1,2,1
India,Bihar,Gaya,"Kareemganj, Gaya - BSPCB",08-01-2024 00:00:00,24.792403,84.992416,PM2.5,45,120,78
India,Bihar,Gaya,"Kareemganj, Gaya - BSPCB",08-01-2024 00:00:00,24.792403,84.992416,SO2,8,12,10
India,Bihar,Gaya,"SFTI Kusdihra, Gaya - BSPCB",08-01-2024 00:00:00,24.762518,84.982348,SO2,8,10,9
India,Bihar,Hajipur,"Industrial Area, Hajipur - BSPCB",08-01-2024 00:00:00,25.697189,85.245900,PM2.5,76,226,147
India,Bihar,Hajipur,"Industrial Area, Hajipur - BSPCB",08-01-2024 00:00:00,25.697189,85.245900,PM10,101,194,156
India,Bihar,Hajipur,"Industrial Area, Hajipur - BSPCB",08-01-2024 00:00:00,25.697189,85.245900,NO2,32,52,40
India,Bihar,Kishanganj,"SDM Office_Khagra, Kishanganj - BSPCB",08-01-2024 00:00:00,26.0881305,87.93840336,NO2,29,39,32
India,Bihar,Manguraha,"Forest Rest House, Manguraha - BSPCB",08-01-2024 00:00:00,27.308328,84.531742,PM10,34,177,92
India,Bihar,Manguraha,"Forest Rest House, Manguraha - BSPCB",08-01-2024 00:00:00,27.308328,84.531742,NH3,2,3,2
India,Bihar,Motihari,"Gandak Colony, Motihari - BSPCB",08-01-2024 00:00:00,26.63086,84.90051,PM10,106,171,136
India,Bihar,Motihari,"Gandak Colony, Motihari - BSPCB",08-01-2024 00:00:00,26.63086,84.90051,SO2,1,21,7
India,Bihar,Motihari,"Gandak Colony, Motihari - BSPCB",08-01-2024 00:00:00,26.63086,84.90051,OZONE,24,67,47
India,Bihar,Munger,"Town Hall, Munger - BSPCB",08-01-2024 00:00:00,25.376776,86.471523,NO2,8,8,8
India,Bihar,Muzaffarpur,"Buddha Colony, Muzaffarpur - BSPCB",08-01-2024 00:00:00,26.11442,85.39813,NO2,9,22,13
India,Bihar,Muzaffarpur,"MIT-Daudpur Kothi, Muzaffarpur - BSPCB",08-01-2024 00:00:00,26.1403345,85.3650192,PM2.5,52,157,83
India,Bihar,Muzaffarpur,"MIT-Daudpur Kothi, Muzaffarpur - BSPCB",08-01-2024 00:00:00,26.1403345,85.3650192,CO,91,103,101
India,Bihar,Muzaffarpur,"MIT-Daudpur Kothi, Muzaffarpur - BSPCB",08-01-2024 00:00:00,26.1403345,85.3650192,OZONE,3,44,18
India,Bihar,Patna,"DRM Office Danapur, Patna - BSPCB",08-01-2024 00:00:00,25.586562,85.043586,NO2,11,66,29
India,Bihar,Patna,"DRM Office Danapur, Patna - BSPCB",08-01-2024 00:00:00,25.586562,85.043586,NH3,4,5,4
India,Bihar,Purnia,"Mariam Nagar, Purnia - BSPCB",08-01-2024 00:00:00,25.366336,87.117468,PM2.5,107,325,229
India,Bihar,Saharsa,"Police Line, Saharsa - BSPCB",08-01-2024 00:00:00,25.892357,86.590325,PM2.5,190,352,304
India,Bihar,Samastipur,"DM Office_Kasipur, Samastipur - BSPCB",08-01-2024 00:00:00,25.859655,85.77944,SO2,5,17,13
India,Bihar,Samastipur,"DM Office_Kasipur, Samastipur - BSPCB",08-01-2024 00:00:00,25.859655,85.77944,OZONE,5,8,6
India,Bihar,Sasaram,"Dada Peer, Sasaram - BSPCB",08-01-2024 00:00:00,24.952822,84.002396,NH3,5,9,7
India,Bihar,Siwan,"Chitragupta Nagar, Siwan - BSPCB",08-01-2024 00:00:00,26.2271665,84.3570427,NO2,21,66,31
India,Bihar,Siwan,"Chitragupta Nagar, Siwan - BSPCB",08-01-2024 00:00:00,26.2271665,84.3570427,OZONE,7,70,19
India,Chandigarh,Chandigarh,"Sector-25, Chandigarh - CPCC",08-01-2024 00:00:00,30.751462,76.762879,NO2,15,40,23
India,Chandigarh,Chandigarh,"Sector-25, Chandigarh - CPCC",08-01-2024 00:00:00,30.751462,76.762879,SO2,7,38,11
India,Chandigarh,Chandigarh,"Sector-53, Chandigarh - CPCC",08-01-2024 00:00:00,30.719859,76.738637,SO2,2,5,3
India,Chhattisgarh,Bhilai,"32Bungalows, Bhilai - CECB",08-01-2024 00:00:00,21.194815,81.314770,OZONE,4,7,5
India,Chhattisgarh,Bhilai,"Hathkhoj, Bhilai - CECB",08-01-2024 00:00:00,21.224231,81.408350,PM10,98,138,114
India,Chhattisgarh,Bhilai,"Hathkhoj, Bhilai - CECB",08-01-2024 00:00:00,21.224231,81.408350,NH3,8,8,8
India,Chhattisgarh,Bhilai,"Hathkhoj, Bhilai - CECB",08-01-2024 00:00:00,21.224231,81.408350,CO,24,46,33
India,Chhattisgarh,Chhal,"Nawapara SECL Colony, Chhal - CECB",08-01-2024 00:00:00,22.118125,83.140608,NH3,2,2,2
India,Chhattisgarh,Korba,"Rampur, Korba - CECB",08-01-2024 00:00:00,22.368195,82.746431,PM2.5,NA,NA,NA
India,Chhattisgarh,Korba,"Rampur, Korba - CECB",08-01-2024 00:00:00,22.368195,82.746431,SO2,NA,NA,NA
India,Chhattisgarh,Korba,"Urja Nagar, Korba - CECB",08-01-2024 00:00:00,22.348441,82.549611,NH3,5,6,5
India,Chhattisgarh,Korba,"Urja Nagar, Korba - CECB",08-01-2024 00:00:00,22.348441,82.549611,SO2,3,7,5
India,Chhattisgarh,Korba,"Urja Nagar, Korba - CECB",08-01-2024 00:00:00,22.348441,82.549611,OZONE,47,47,47
India,Chhattisgarh,Kunjemura,"OP Jindal School, Kunjemura - CECB",08-01-2024 00:00:00,22.126650,83.483212,CO,35,72,51
India,Chhattisgarh,Milupara,"Govt. Higher Secondary School, Milupara - CECB",08-01-2024 00:00:00,22.1910172,83.5197009,SO2,9,31,14
India,Chhattisgarh,Milupara,"Govt. Higher Secondary School, Milupara - CECB",08-01-2024 00:00:00,22.1910172,83.5197009,CO,33,72,52
India,Chhattisgarh,Milupara,"Govt. Higher Secondary School, Milupara - CECB",08-01-2024 00:00:00,22.1910172,83.5197009,OZONE,10,82,32
India,Chhattisgarh,Raipur,"AIIMS, Raipur - CECB",08-01-2024 00:00:00,21.258815,81.578979,PM10,57,199,112
India,Chhattisgarh,Raipur,"AIIMS, Raipur - CECB",08-01-2024 00:00:00,21.258815,81.578979,NH3,4,4,4
India,Chhattisgarh,Raipur,"Bhatagaon New ISBT, Raipur - CECB",08-01-2024 00:00:00,21.219665,81.630094,PM2.5,50,117,79
India,Chhattisgarh,Raipur,"Bhatagaon New ISBT, Raipur - CECB",08-01-2024 00:00:00,21.219665,81.630094,NH3,1,2,2
India,Chhattisgarh,Raipur,"Bhatagaon New ISBT, Raipur - CECB",08-01-2024 00:00:00,21.219665,81.630094,CO,35,62,50
India,Chhattisgarh,Raipur,"Krishak Nagar, Raipur - CECB",08-01-2024 00:00:00,21.237755,81.705301,PM10,66,163,99
India,Chhattisgarh,Raipur,"Siltara Phase-II, Raipur - CECB",08-01-2024 00:00:00,21.371751,81.664929,PM2.5,34,75,54
India,Delhi,Delhi,"Anand Vihar, Delhi - DPCC",08-01-2024 00:00:00,28.647622,77.3158090,PM2.5,328,431,371
India,Delhi,Delhi,"Anand Vihar, Delhi - DPCC",08-01-2024 00:00:00,28.647622,77.3158090,NH3,6,8,7
India,Delhi,Delhi,"Anand Vihar, Delhi - DPCC",08-01-2024 00:00:00,28.647622,77.3158090,SO2,1,24,10
India,Delhi,Delhi,"Ashok Vihar, Delhi - DPCC",08-01-2024 00:00:00,28.695381,77.181665,NO2,35,86,61
India,Delhi,Delhi,"Ashok Vihar, Delhi - DPCC",08-01-2024 00:00:00,28.695381,77.181665,OZONE,4,12,6
India,Delhi,Delhi,"Aya Nagar, Delhi - IMD",08-01-2024 00:00:00,28.4706914,77.1099364,NO2,19,37,29
India,Delhi,Delhi,"Aya Nagar, Delhi - IMD",08-01-2024 00:00:00,28.4706914,77.1099364,CO,63,90,69
India,Delhi,Delhi,"Aya Nagar, Delhi - IMD",08-01-2024 00:00:00,28.4706914,77.1099364,OZONE,10,32,18
India,Delhi,Delhi,"Bawana, Delhi - DPCC",08-01-2024 00:00:00,28.776200,77.051074,NO2,22,51,31
India,Delhi,Delhi,"CRRI Mathura Road, Delhi - IMD",08-01-2024 00:00:00,28.5512005,77.2735737,NO2,23,26,24
India,Delhi,Delhi,"Dr. Karni Singh Shooting Range, Delhi - DPCC",08-01-2024 00:00:00,28.498571,77.264840,NH3,6,23,9
India,Delhi,Delhi,"Dr. Karni Singh Shooting Range, Delhi - DPCC",08-01-2024 00:00:00,28.498571,77.264840,SO2,5,11,8
India,Delhi,Delhi,"Dwarka-Sector 8, Delhi - DPCC ",08-01-2024 00:00:00,28.5710274,77.0719006,PM2.5,278,407,331
India,Delhi,Delhi,"Dwarka-Sector 8, Delhi - DPCC ",08-01-2024 00:00:00,28.5710274,77.0719006,PM10,141,343,217
India,Delhi,Delhi,"Dwarka-Sector 8, Delhi - DPCC ",08-01-2024 00:00:00,28.5710274,77.0719006,NO2,19,91,49
India,Delhi,Delhi,"Dwarka-Sector 8, Delhi - DPCC ",08-01-2024 00:00:00,28.5710274,77.0719006,CO,24,96,64
India,Delhi,Delhi,"Dwarka-Sector 8, Delhi - DPCC ",08-01-2024 00:00:00,28.5710274,77.0719006,OZONE,7,53,20
India,Delhi,Delhi,"IGI Airport (T3), Delhi - IMD",08-01-2024 00:00:00,28.5627763,77.1180053,CO,18,100,57
India,Delhi,Delhi,"IHBAS, Dilshad Garden, Delhi - CPCB",08-01-2024 00:00:00,28.6811736,77.3025234,PM2.5,86,303,205
India,Delhi,Delhi,"IHBAS, Dilshad Garden, Delhi - CPCB",08-01-2024 00:00:00,28.6811736,77.3025234,NO2,35,48,41
India,Delhi,Delhi,"IHBAS, Dilshad Garden, Delhi - CPCB",08-01-2024 00:00:00,28.6811736,77.3025234,SO2,2,26,12
India,Delhi,Delhi,"ITO, Delhi - CPCB",08-01-2024 00:00:00,28.628624,77.241060,PM2.5,180,334,278
India,Delhi,Delhi,"ITO, Delhi - CPCB",08-01-2024 00:00:00,28.628624,77.241060,SO2,5,25,16
India,Delhi,Delhi,"Jawaharlal Nehru Stadium, Delhi - DPCC",08-01-2024 00:00:00,28.580280,77.233829,OZONE,5,50,20
India,Delhi,Delhi,"Major Dhyan Chand National Stadium, Delhi - DPCC",08-01-2024 00:00:00,28.611281,77.237738,PM2.5,300,397,346
India,Delhi,Delhi,"Major Dhyan Chand National Stadium, Delhi - DPCC",08-01-2024 00:00:00,28.611281,77.237738,PM10,140,361,224
India,Delhi,Delhi,"Major Dhyan Chand National Stadium, Delhi - DPCC",08-01-2024 00:00:00,28.611281,77.237738,CO,34,104,77
India,Delhi,Delhi,"Mandir Marg, Delhi - DPCC",08-01-2024 00:00:00,28.636429,77.201067,PM10,149,294,228
India,Delhi,Delhi,"Mandir Marg, Delhi - DPCC",08-01-2024 00:00:00,28.636429,77.201067,NH3,20,22,21
India,Delhi,Delhi,"Mundka, Delhi - DPCC",08-01-2024 00:00:00,28.684678,77.076574,NH3,6,10,8
India,Delhi,Delhi,"Mundka, Delhi - DPCC",08-01-2024 00:00:00,28.684678,77.076574,CO,42,99,64
India,Delhi,Delhi,"Najafgarh, Delhi - DPCC",08-01-2024 00:00:00,28.570173,76.933762,CO,9,45,24
India,Delhi,Delhi,"Nehru Nagar, Delhi - DPCC",08-01-2024 00:00:00,28.567890,77.250515,OZONE,3,93,22
India,Delhi,Delhi,"North Campus, DU, Delhi - IMD",08-01-2024 00:00:00,28.6573814,77.1585447,PM2.5,292,366,337
India,Delhi,Delhi,"North Campus, DU, Delhi - IMD",08-01-2024 00:00:00,28.6573814,77.1585447,CO,42,76,55
India,Delhi,Delhi,"Patparganj, Delhi - DPCC",08-01-2024 00:00:00,28.623763,77.287209,NH3,6,11,8
India,Delhi,Delhi,"Patparganj, Delhi - DPCC",08-01-2024 00:00:00,28.623763,77.287209,CO,22,100,59
India,Delhi,Delhi,"Punjabi Bagh, Delhi - DPCC",08-01-2024 00:00:00,28.674045,77.131023,SO2,2,11,5
India,Delhi,Delhi,"Pusa, Delhi - IMD",08-01-2024 00:00:00,28.636110,77.173332,PM10,117,233,165
India,Delhi,Delhi,"R K Puram, Delhi - DPCC",08-01-2024 00:00:00,28.563262,77.186937,CO,35,100,78
India,Delhi,Delhi,"Rohini, Delhi - DPCC",08-01-2024 00:00:00,28.732528,77.119920,SO2,8,14,10
India,Delhi,Delhi,"Shadipur, Delhi - CPCB",08-01-2024 00:00:00,28.6514781,77.1473105,PM10,187,408,289
India,Delhi,Delhi,"Sirifort, Delhi - CPCB",08-01-2024 00:00:00,28.5504249,77.2159377,OZONE,12,81,31
India,Delhi,Delhi,"Sonia Vihar, Delhi - DPCC",08-01-2024 00:00:00,28.710508,77.249485,NO2,40,70,55
India,Delhi,Delhi,"Sri Aurobindo Marg, Delhi - DPCC",08-01-2024 00:00:00,28.531346,77.190156,NH3,8,10,9
India,Delhi,Delhi,"Wazirpur, Delhi - DPCC",08-01-2024 00:00:00,28.699793,77.165453,PM10,207,424,309
India,Delhi,Delhi,"Wazirpur, Delhi - DPCC",08-01-2024 00:00:00,28.699793,77.165453,CO,21,78,62
India,Gujarat,Ahmedabad,"Gyaspur, Ahmedabad - IITM",08-01-2024 00:00:00,22.977134,72.553024,NH3,4,5,4
India,Gujarat,Ahmedabad,"Maninagar, Ahmedabad - GPCB",08-01-2024 00:00:00,23.002657,72.591912,PM2.5,58,116,80
India,Gujarat,Ahmedabad,"Raikhad, Ahmedabad - IITM",08-01-2024 00:00:00,23.020509,72.579261,NH3,5,6,5
India,Gujarat,Ahmedabad,"Rakhial, Ahmedabad - IITM",08-01-2024 00:00:00,23.016834,72.625775,PM10,75,123,100
India,Gujarat,Ahmedabad,"SAC ISRO Satellite, Ahmedabad - IITM",08-01-2024 00:00:00,23.023389,72.515201,SO2,4,8,6
India,Gujarat,Ahmedabad,"SAC ISRO Satellite, Ahmedabad - IITM",08-01-2024 00:00:00,23.023389,72.515201,CO,24,31,27
India,Gujarat,Ahmedabad,"SVPI Airport Hansol, Ahmedabad - IITM",08-01-2024 00:00:00,23.076793,72.627874,PM10,76,121,101
India,Gujarat,Ahmedabad,"Sardar Vallabhbhai Patel Stadium, Ahmedabad - IITM",08-01-2024 00:00:00,23.043070,72.562968,NO2,12,14,13
India,Gujarat,Ahmedabad,"Sardar Vallabhbhai Patel Stadium, Ahmedabad - IITM",08-01-2024 00:00:00,23.043070,72.562968,CO,12,36,24
India,Gujarat,Gandhinagar,"GIFT City, Gandhinagar - IITM",08-01-2024 00:00:00,23.163798,72.677768,CO,26,32,29
India,Gujarat,Gandhinagar,"IIPHG Lekawada, Gandhinagar - IITM",08-01-2024 00:00:00,23.243639,72.68994,NO2,7,17,13
India,Gujarat,Gandhinagar,"Sector-10, Gandhinagar - GPCB",08-01-2024 00:00:00,23.221714,72.654328,PM10,NA,NA,NA
India,Gujarat,Gandhinagar,"Sector-10, Gandhinagar - GPCB",08-01-2024 00:00:00,23.221714,72.654328,CO,10,72,11
India,Gujarat,Vapi,"Phase-1 GIDC, Vapi - GPCB",08-01-2024 00:00:00,20.362421,72.918013,CO,105,193,111
India,Gujarat,Vatva,"Phase-4 GIDC, Vatva - GPCB",08-01-2024 00:00:00,22.969611,72.643500,CO,38,40,39
India,Haryana,Ambala,"Patti Mehar, Ambala - HSPCB",08-01-2024 00:00:00,30.379589,76.778328,PM10,55,121,79
India,Haryana,Ambala,"Patti Mehar, Ambala - HSPCB",08-01-2024 00:00:00,30.379589,76.778328,NO2,7,21,14
India,Haryana,Bahadurgarh,"Arya Nagar, Bahadurgarh - HSPCB",08-01-2024 00:00:00,28.6701,76.9254,PM10,113,162,134
India,Haryana,Ballabgarh,"Nathu Colony, Ballabgarh - HSPCB",08-01-2024 00:00:00,28.3419248,77.319699,PM10,132,259,171
India,Haryana,Ballabgarh,"Nathu Colony, Ballabgarh - HSPCB",08-01-2024 00:00:00,28.3419248,77.319699,NH3,1,2,2
India,Haryana,Bhiwani,"H.B. Colony, Bhiwani - HSPCB",08-01-2024 00:00:00,28.806223,76.141105,PM2.5,72,176,127
India,Haryana,Bhiwani,"H.B. Colony, Bhiwani - HSPCB",08-01-2024 00:00:00,28.806223,76.141105,PM10,67,118,99
India,Haryana,Charkhi Dadri,"Mini Secretariat, Charkhi Dadri - HSPCB",08-01-2024 00:00:00,28.593883,76.270653,NO2,9,15,11
India,Haryana,Dharuhera,"Municipal Corporation Office, Dharuhera -  HSPCB",08-01-2024 00:00:00,28.206800,76.799700,CO,23,106,69
India,Haryana,Faridabad,"New Industrial Town, Faridabad - HSPCB",08-01-2024 00:00:00,28.39072,77.30059,SO2,6,7,6
India,Haryana,Faridabad,"Sector 11, Faridabad - HSPCB",08-01-2024 00:00:00,28.376058,77.315741,NO2,30,33,31
India,Haryana,Faridabad,"Sector- 16A, Faridabad - HSPCB",08-01-2024 00:00:00,28.4088421,77.3099081,CO,3,57,39
India,Haryana,Gurugram,"Sector-51, Gurugram - HSPCB",08-01-2024 00:00:00,28.4227,77.0667,PM10,109,177,133
India,Haryana,Gurugram,"Sector-51, Gurugram - HSPCB",08-01-2024 00:00:00,28.4227,77.0667,NO2,13,29,23
India,Haryana,Gurugram,"Sector-51, Gurugram - HSPCB",08-01-2024 00:00:00,28.4227,77.0667,SO2,1,3,2
India,Haryana,Gurugram,"Sector-51, Gurugram - HSPCB",08-01-2024 00:00:00,28.4227,77.0667,OZONE,27,67,56
India,Haryana,Gurugram,"Teri Gram, Gurugram - HSPCB",08-01-2024 00:00:00,28.4275,77.1465,CO,28,56,41
India,Haryana,Gurugram,"Vikas Sadan, Gurugram - HSPCB",08-01-2024 00:00:00,28.4501238,77.0263051,CO,54,139,104
India,Haryana,Gurugram,"Vikas Sadan, Gurugram - HSPCB",08-01-2024 00:00:00,28.4501238,77.0263051,OZONE,8,68,28
India,Haryana,Jind,"Police Lines, Jind - HSPCB",08-01-2024 00:00:00,29.307814,76.337619,PM2.5,NA,NA,NA
India,Haryana,Jind,"Police Lines, Jind - HSPCB",08-01-2024 00:00:00,29.307814,76.337619,SO2,NA,NA,NA
India,Haryana,Jind,"Police Lines, Jind - HSPCB",08-01-2024 00:00:00,29.307814,76.337619,OZONE,NA,NA,NA
India,Haryana,Kaithal,"Rishi Nagar, Kaithal - HSPCB",08-01-2024 00:00:00,29.8006,76.4155,NO2,24,26,25
India,Haryana,Kaithal,"Rishi Nagar, Kaithal - HSPCB",08-01-2024 00:00:00,29.8006,76.4155,SO2,3,17,7
India,Haryana,Karnal,"Sector-12, Karnal - HSPCB",08-01-2024 00:00:00,29.695300,77.002700,PM2.5,74,157,103
India,Haryana,Kurukshetra,"Sector-7, Kurukshetra - HSPCB",08-01-2024 00:00:00,29.966942,76.875879,NH3,2,5,5
India,Haryana,Kurukshetra,"Sector-7, Kurukshetra - HSPCB",08-01-2024 00:00:00,29.966942,76.875879,SO2,2,60,33
India,Haryana,Kurukshetra,"Sector-7, Kurukshetra - HSPCB",08-01-2024 00:00:00,29.966942,76.875879,CO,2,102,16
India,Haryana,Mandikhera,"General Hospital, Mandikhera - HSPCB",08-01-2024 00:00:00,27.9002,76.9938,SO2,31,39,34
India,Haryana,Manesar,"Sector-2 IMT, Manesar - HSPCB",08-01-2024 00:00:00,28.360699,76.936090,PM10,73,224,111
India,Haryana,Manesar,"Sector-2 IMT, Manesar - HSPCB",08-01-2024 00:00:00,28.360699,76.936090,NH3,1,6,2
India,Haryana,Palwal,"Shyam Nagar, Palwal - HSPCB",08-01-2024 00:00:00,28.1485564,77.3320667,PM2.5,37,56,45
India,Haryana,Palwal,"Shyam Nagar, Palwal - HSPCB",08-01-2024 00:00:00,28.1485564,77.3320667,PM10,68,114,96
India,Haryana,Palwal,"Shyam Nagar, Palwal - HSPCB",08-01-2024 00:00:00,28.1485564,77.3320667,SO2,1,21,9
India,Haryana,Palwal,"Shyam Nagar, Palwal - HSPCB",08-01-2024 00:00:00,28.1485564,77.3320667,CO,12,21,15
India,Haryana,Rohtak,"MD University, Rohtak - HSPCB",08-01-2024 00:00:00,28.52123,76.37138,NO2,34,41,36
India,Haryana,Rohtak,"MD University, Rohtak - HSPCB",08-01-2024 00:00:00,28.52123,76.37138,CO,NA,NA,NA
India,Haryana,Sirsa,"F-Block, Sirsa - HSPCB",08-01-2024 00:00:00,29.536400,75.015800,PM10,58,108,77
India,Haryana,Sirsa,"F-Block, Sirsa - HSPCB",08-01-2024 00:00:00,29.536400,75.015800,NO2,10,27,11
India,Haryana,Sirsa,"F-Block, Sirsa - HSPCB",08-01-2024 00:00:00,29.536400,75.015800,SO2,3,13,8
India,Haryana,Sirsa,"F-Block, Sirsa - HSPCB",08-01-2024 00:00:00,29.536400,75.015800,OZONE,13,42,21
India,Haryana,Sonipat,"Murthal, Sonipat - HSPCB",08-01-2024 00:00:00,29.027200,77.062100,PM10,133,369,213
India,Haryana,Yamuna Nagar,"Gobind Pura, Yamuna Nagar - HSPCB",08-01-2024 00:00:00,30.1480566,77.2893471,CO,56,74,61
India,Haryana,Yamuna Nagar,"Gobind Pura, Yamuna Nagar - HSPCB",08-01-2024 00:00:00,30.1480566,77.2893471,OZONE,6,10,8
India,Himachal Pradesh,Baddi,"HIMUDA Complex Phase-1, Baddi - HPPCB",08-01-2024 00:00:00,30.943887,76.801991,PM2.5,95,438,256
India,Jharkhand,Dhanbad,"Kalakusuma, Dhanbad - DMC",08-01-2024 00:00:00,23.811548,86.481238,PM2.5,6,45,18
India,Jharkhand,Dhanbad,"Sardar Patel Nagar, Dhanbad - JSPCB",08-01-2024 00:00:00,23.80569,86.44268,OZONE,NA,NA,NA
India,Karnataka,Bagalkot,"Vidayagiri, Bagalkot - KSPCB",08-01-2024 00:00:00,16.172806,75.659694,PM10,53,53,53
India,Karnataka,Bagalkot,"Vidayagiri, Bagalkot - KSPCB",08-01-2024 00:00:00,16.172806,75.659694,CO,20,52,39
India,Karnataka,Belgaum,"Ramteerth Nagar, Belgaum - KSPCB",08-01-2024 00:00:00,15.888653,74.541751,NO2,24,31,27
India,Karnataka,Bengaluru,"BTM Layout, Bengaluru - CPCB",08-01-2024 00:00:00,12.9135218,77.5950804,PM10,NA,NA,NA
India,Karnataka,Bengaluru,"BTM Layout, Bengaluru - CPCB",08-01-2024 00:00:00,12.9135218,77.5950804,NO2,NA,NA,NA
India,Karnataka,Bengaluru,"BTM Layout, Bengaluru - CPCB",08-01-2024 00:00:00,12.9135218,77.5950804,OZONE,14,24,16
India,Karnataka,Bengaluru,"Bapuji Nagar, Bengaluru - KSPCB",08-01-2024 00:00:00,12.951913,77.539784,PM10,55,105,73
India,Karnataka,Bengaluru,"Hebbal, Bengaluru - KSPCB",08-01-2024 00:00:00,13.029152,77.585901,NO2,5,5,5
India,Karnataka,Bengaluru,"Hebbal, Bengaluru - KSPCB",08-01-2024 00:00:00,13.029152,77.585901,NH3,1,1,1
India,Karnataka,Bengaluru,"Hebbal, Bengaluru - KSPCB",08-01-2024 00:00:00,13.029152,77.585901,CO,11,24,19
India,Karnataka,Bengaluru,"Jayanagar 5th Block, Bengaluru - KSPCB",08-01-2024 00:00:00,12.920984,77.584908,SO2,10,31,26
India,Karnataka,Bengaluru,"Jayanagar 5th Block, Bengaluru - KSPCB",08-01-2024 00:00:00,12.920984,77.584908,CO,4,36,32
India,Karnataka,Bengaluru,"Jigani, Bengaluru - KSPCB",08-01-2024 00:00:00,12.7816279,77.6299145,NH3,3,3,3
India,Karnataka,Bengaluru,"Kasturi Nagar, Bengaluru - KSPCB",08-01-2024 00:00:00,13.003872,77.664217,NO2,16,17,17
India,Karnataka,Bengaluru,"Peenya, Bengaluru - CPCB",08-01-2024 00:00:00,13.0270199,77.494094,PM2.5,7,54,29
India,Karnataka,Bengaluru,"Peenya, Bengaluru - CPCB",08-01-2024 00:00:00,13.0270199,77.494094,PM10,35,54,48
India,Karnataka,Bengaluru,"Peenya, Bengaluru - CPCB",08-01-2024 00:00:00,13.0270199,77.494094,SO2,11,20,15
India,Karnataka,Bengaluru,"RVCE-Mailasandra, Bengaluru - KSPCB",08-01-2024 00:00:00,12.921418,77.502466,NO2,31,31,31
India,Karnataka,Bengaluru,"RVCE-Mailasandra, Bengaluru - KSPCB",08-01-2024 00:00:00,12.921418,77.502466,NH3,4,4,4
India,Karnataka,Bengaluru,"Shivapura_Peenya, Bengaluru - KSPCB",08-01-2024 00:00:00,13.0246342,77.5080115,OZONE,28,97,57
India,Karnataka,Chamarajanagar,"Urban, Chamarajanagar - KSPCB",08-01-2024 00:00:00,11.55358,76.55521,PM2.5,21,46,35
India,Karnataka,Chamarajanagar,"Urban, Chamarajanagar - KSPCB",08-01-2024 00:00:00,11.55358,76.55521,NH3,1,2,2
India,Karnataka,Chikkaballapur,"Chikkaballapur Rural, Chikkaballapur - KSPCB",08-01-2024 00:00:00,13.428828,77.731418,NO2,7,10,8
India,Karnataka,Chikkaballapur,"Chikkaballapur Rural, Chikkaballapur - KSPCB",08-01-2024 00:00:00,13.428828,77.731418,SO2,16,31,25
India,Karnataka,Chikkaballapur,"Chikkaballapur Rural, Chikkaballapur - KSPCB",08-01-2024 00:00:00,13.428828,77.731418,OZONE,24,25,25
India,Karnataka,Davanagere,"Devaraj Urs Badavane, Davanagere - KSPCB",08-01-2024 00:00:00,14.475800,75.905200,NO2,10,12,11
India,Karnataka,Davanagere,"Devaraj Urs Badavane, Davanagere - KSPCB",08-01-2024 00:00:00,14.475800,75.905200,NH3,1,1,1
India,Karnataka,Davanagere,"Devaraj Urs Badavane, Davanagere - KSPCB",08-01-2024 00:00:00,14.475800,75.905200,OZONE,22,27,24
India,Karnataka,Gadag,"Panchal Nagar, Gadag - KSPCB",08-01-2024 00:00:00,15.411456,75.638133,PM2.5,14,64,28
India,Karnataka,Hassan,"B.Katihalli, Hassan - KSPCB",08-01-2024 00:00:00,13.008556,76.125258,CO,2,14,8
India,Karnataka,Haveri,"Ashwini Nagar, Haveri - KSPCB",08-01-2024 00:00:00,14.791800,75.389600,NH3,2,4,3
India,Karnataka,Hubballi,"Deshpande Nagar, Hubballi - KSPCB",08-01-2024 00:00:00,15.351773,75.140726,PM2.5,NA,NA,NA
India,Karnataka,Hubballi,"Deshpande Nagar, Hubballi - KSPCB",08-01-2024 00:00:00,15.351773,75.140726,NO2,NA,NA,NA
India,Karnataka,Hubballi,"Lingaraj Nagar, Hubballi - KSPCB",08-01-2024 00:00:00,15.3714823,75.1160168,NO2,16,16,16
India,Karnataka,Hubballi,"Lingaraj Nagar, Hubballi - KSPCB",08-01-2024 00:00:00,15.3714823,75.1160168,SO2,NA,NA,NA
India,Karnataka,Kalaburagi,"Lal Bahadur Shastri Nagar, Kalaburagi - KSPCB",08-01-2024 00:00:00,17.321993,76.822628,CO,34,42,37
India,Karnataka,Kolar,"Tamaka Ind. Area, Kolar - KSPCB",08-01-2024 00:00:00,13.1276288,78.1570122,PM10,46,138,93
India,Karnataka,Kolar,"Tamaka Ind. Area, Kolar - KSPCB",08-01-2024 00:00:00,13.1276288,78.1570122,NO2,2,18,6
India,Karnataka,Kolar,"Tamaka Ind. Area, Kolar - KSPCB",08-01-2024 00:00:00,13.1276288,78.1570122,OZONE,17,21,19
India,Karnataka,Koppal,"Diwator Nagar, Koppal - KSPCB",08-01-2024 00:00:00,15.347630,76.181767,PM2.5,19,36,25
India,Karnataka,Koppal,"Diwator Nagar, Koppal - KSPCB",08-01-2024 00:00:00,15.347630,76.181767,NO2,2,27,10
India,Karnataka,Koppal,"Diwator Nagar, Koppal - KSPCB",08-01-2024 00:00:00,15.347630,76.181767,SO2,34,63,43
India,Karnataka,Mangalore,"Kadri, Mangalore - KSPCB",08-01-2024 00:00:00,12.889250,74.853000,PM10,NA,NA,NA
India,Karnataka,Ramanagara,"Vijay Nagar, Ramanagara - KSPCB",08-01-2024 00:00:00,12.733409,77.298051,NO2,1,7,4
India,Karnataka,Udupi,"Brahmagiri, Udupi - KSPCB",08-01-2024 00:00:00,13.34194444,74.74694444,OZONE,23,23,23
India,Karnataka,Vijayapura,"Ibrahimpur, Vijayapura - KSPCB",08-01-2024 00:00:00,16.802639,75.722694,PM10,42,43,42
India,Karnataka,Vijayapura,"Ibrahimpur, Vijayapura - KSPCB",08-01-2024 00:00:00,16.802639,75.722694,NH3,2,2,2
India,Karnataka,Yadgir,"Collector Office, Yadgir - KSPCB",08-01-2024 00:00:00,16.7602,77.1428,PM10,42,70,55
India,Kerala,Thiruvananthapuram,"Plammoodu, Thiruvananthapuram - Kerala PCB",08-01-2024 00:00:00,8.5149093,76.9435879,PM10,25,83,49
India,Kerala,Thiruvananthapuram,"Plammoodu, Thiruvananthapuram - Kerala PCB",08-01-2024 00:00:00,8.5149093,76.9435879,NO2,13,14,13
India,Madhya Pradesh,Bhopal,"Idgah Hills, Bhopal - MPPCB",08-01-2024 00:00:00,23.264759,77.381568,SO2,2,8,6
India,Madhya Pradesh,Bhopal,"Paryavaran Parisar, Bhopal - MPPCB",08-01-2024 00:00:00,23.210494,77.425409,PM2.5,98,197,151
India,Madhya Pradesh,Bhopal,"Paryavaran Parisar, Bhopal - MPPCB",08-01-2024 00:00:00,23.210494,77.425409,NH3,NA,NA,NA
India,Madhya Pradesh,Bhopal,"Paryavaran Parisar, Bhopal - MPPCB",08-01-2024 00:00:00,23.210494,77.425409,OZONE,12,30,20
India,Madhya Pradesh,Bhopal,"T T Nagar, Bhopal - MPPCB",08-01-2024 00:00:00,23.233584,77.400574,NO2,24,41,33
India,Madhya Pradesh,Bhopal,"T T Nagar, Bhopal - MPPCB",08-01-2024 00:00:00,23.233584,77.400574,NH3,1,3,2
India,Madhya Pradesh,Bhopal,"T T Nagar, Bhopal - MPPCB",08-01-2024 00:00:00,23.233584,77.400574,OZONE,16,34,19
India,Madhya Pradesh,Damoh,"Shrivastav Colony, Damoh - MPPCB",08-01-2024 00:00:00,23.81748678,79.446246,PM2.5,20,43,30
India,Madhya Pradesh,Damoh,"Shrivastav Colony, Damoh - MPPCB",08-01-2024 00:00:00,23.81748678,79.446246,CO,23,24,23
India,Madhya Pradesh,Dewas,"Bhopal Chauraha, Dewas - MPPCB",08-01-2024 00:00:00,22.9682591,76.064118,PM2.5,49,202,110
India,Madhya Pradesh,Dewas,"Bhopal Chauraha, Dewas - MPPCB",08-01-2024 00:00:00,22.9682591,76.064118,OZONE,9,53,13
India,Madhya Pradesh,Gwalior,"Maharaj Bada, Gwalior - MPPCB",08-01-2024 00:00:00,26.200388,78.147714,SO2,11,17,14
India,Madhya Pradesh,Indore,"Chhoti Gwaltoli, Indore - MPPCB",08-01-2024 00:00:00,22.4310,75.5213,OZONE,17,42,28
India,Madhya Pradesh,Indore,"Maguda Nagar, Indore - IMC",08-01-2024 00:00:00,22.7524,75.8872,PM2.5,48,97,68
India,Madhya Pradesh,Indore,"Maguda Nagar, Indore - IMC",08-01-2024 00:00:00,22.7524,75.8872,CO,26,29,27
India,Madhya Pradesh,Indore,"Regional Park, Indore - IMC",08-01-2024 00:00:00,22.6780,75.8559,NH3,1,4,2
India,Madhya Pradesh,Indore,"Regional Park, Indore - IMC",08-01-2024 00:00:00,22.6780,75.8559,SO2,45,46,46
India,Madhya Pradesh,Indore,"Residency Area, Indore - IMC",08-01-2024 00:00:00,22.7084,75.8815,PM2.5,38,82,59
India,Madhya Pradesh,Indore,"Residency Area, Indore - IMC",08-01-2024 00:00:00,22.7084,75.8815,NO2,24,41,32
India,Madhya Pradesh,Jabalpur,"Gupteshwar, Jabalpur - JMC",08-01-2024 00:00:00,23.142888,79.916147,PM10,65,94,79
India,Madhya Pradesh,Jabalpur,"Marhatal, Jabalpur - MPPCB",08-01-2024 00:00:00,23.168606,79.932247,NH3,5,7,6
India,Madhya Pradesh,Jabalpur,"Suhagi, Jabalpur - JMC",08-01-2024 00:00:00,23.218135,79.957770,NO2,4,116,29
India,Madhya Pradesh,Katni,"Gole Bazar, Katni - MPPCB",08-01-2024 00:00:00,23.50016,80.23284,PM2.5,71,248,156
India,Madhya Pradesh,Katni,"Gole Bazar, Katni - MPPCB",08-01-2024 00:00:00,23.50016,80.23284,NH3,4,7,6
India,Madhya Pradesh,Mandideep,"Sector-D Industrial Area, Mandideep - MPPCB",08-01-2024 00:00:00,23.108440,77.511428,NO2,24,53,36
India,Madhya Pradesh,Ratlam,"Shasthri Nagar, Ratlam - IPCA Lab",08-01-2024 00:00:00,23.331731,75.045981,PM10,42,122,93
India,Madhya Pradesh,Sagar,"Civil Lines, Sagar - MPPCB",08-01-2024 00:00:00,23.838586,78.759431,PM2.5,68,289,168
India,Madhya Pradesh,Sagar,"Deen Dayal Nagar, Sagar - MPPCB",08-01-2024 00:00:00,23.8640158,78.80289321,SO2,8,9,9
India,Madhya Pradesh,Ujjain,"Mahakaleshwar Temple, Ujjain - MPPCB",08-01-2024 00:00:00,23.182719 ,75.768218 ,PM10,84,143,114
India,Maharashtra,Ahmednagar,"Tarakpur, Ahmednagar - MPCB",08-01-2024 00:00:00,19.10122,74.73339,NO2,27,89,43
India,Maharashtra,Ahmednagar,"Tarakpur, Ahmednagar - MPCB",08-01-2024 00:00:00,19.10122,74.73339,NH3,5,7,6
India,Maharashtra,Akola,"Ramdaspeth, Akola - MPCB",08-01-2024 00:00:00,20.719516,77.000253,PM10,130,174,148
India,Maharashtra,Akola,"Ramdaspeth, Akola - MPCB",08-01-2024 00:00:00,20.719516,77.000253,NH3,3,6,4
India,Maharashtra,Akola,"Ramdaspeth, Akola - MPCB",08-01-2024 00:00:00,20.719516,77.000253,SO2,4,18,10
India,Maharashtra,Amravati,"Shri Shivaji Science College, Amaravati - MPCB",08-01-2024 00:00:00,20.939198,77.765701,PM2.5,108,229,165
India,Maharashtra,Amravati,"Shri Shivaji Science College, Amaravati - MPCB",08-01-2024 00:00:00,20.939198,77.765701,NO2,14,68,24
India,Maharashtra,Amravati,"Shri Shivaji Science College, Amaravati - MPCB",08-01-2024 00:00:00,20.939198,77.765701,CO,32,62,44
India,Maharashtra,Aurangabad,"More Chowk Waluj, Aurangabad - MPCB",08-01-2024 00:00:00,19.8389439,75.244448,NO2,31,34,32
India,Maharashtra,Aurangabad,"More Chowk Waluj, Aurangabad - MPCB",08-01-2024 00:00:00,19.8389439,75.244448,OZONE,7,30,11
India,Maharashtra,Badlapur,"Katrap, Badlapur - MPCB",08-01-2024 00:00:00,19.16485,73.23409,NO2,NA,NA,NA
India,Maharashtra,Badlapur,"Katrap, Badlapur - MPCB",08-01-2024 00:00:00,19.16485,73.23409,SO2,NA,NA,NA
India,Maharashtra,Badlapur,"Katrap, Badlapur - MPCB",08-01-2024 00:00:00,19.16485,73.23409,CO,36,90,53
India,Maharashtra,Belapur,"CBD Belapur, Belapur - MPCB",08-01-2024 00:00:00,19.0243902,73.0406721,NH3,14,52,30
India,Maharashtra,Bhiwandi,"Gokul Nagar, Bhiwandi - MPCB",08-01-2024 00:00:00,19.309073,73.057223,PM2.5,8,307,106
India,Maharashtra,Bhiwandi,"Gokul Nagar, Bhiwandi - MPCB",08-01-2024 00:00:00,19.309073,73.057223,PM10,114,222,162
India,Maharashtra,Bhiwandi,"Gokul Nagar, Bhiwandi - MPCB",08-01-2024 00:00:00,19.309073,73.057223,SO2,6,21,9
India,Maharashtra,Chandrapur,"Chauhan Colony, Chandrapur - MPCB",08-01-2024 00:00:00,19.962900,79.298714,OZONE,24,29,26
India,Maharashtra,Dhule,"Deopur, Dhule - MPCB",08-01-2024 00:00:00,20.918946,74.776388,SO2,1,21,13
India,Maharashtra,Jalgaon,"Prabhat Colony, Jalgaon - MPCB",08-01-2024 00:00:00,21.001264,75.565602,NO2,12,45,24
India,Maharashtra,Jalgaon,"Prabhat Colony, Jalgaon - MPCB",08-01-2024 00:00:00,21.001264,75.565602,NH3,7,11,8
India,Maharashtra,Jalgaon,"Prabhat Colony, Jalgaon - MPCB",08-01-2024 00:00:00,21.001264,75.565602,OZONE,8,73,51
India,Maharashtra,Jalna,"Old MIDC, Jalna - MPCB",08-01-2024 00:00:00,19.854616,75.905894,PM2.5,NA,NA,NA
India,Maharashtra,Jalna,"Old MIDC, Jalna - MPCB",08-01-2024 00:00:00,19.854616,75.905894,SO2,1,18,6
India,Maharashtra,Jalna,"Old MIDC, Jalna - MPCB",08-01-2024 00:00:00,19.854616,75.905894,OZONE,6,310,52
India,Maharashtra,Kalyan,"Khadakpada, Kalyan - MPCB",08-01-2024 00:00:00,19.25292,73.142019,PM10,90,156,126
India,Maharashtra,Kalyan,"Khadakpada, Kalyan - MPCB",08-01-2024 00:00:00,19.25292,73.142019,NH3,1,2,1
India,Maharashtra,Kolhapur,"Shivaji University, Kolhapur - MPCB",08-01-2024 00:00:00,16.6870449,74.2505872,PM2.5,81,96,89
India,Maharashtra,Kolhapur,"Shivaji University, Kolhapur - MPCB",08-01-2024 00:00:00,16.6870449,74.2505872,PM10,59,100,75
India,Maharashtra,Kolhapur,"Shivaji University, Kolhapur - MPCB",08-01-2024 00:00:00,16.6870449,74.2505872,NO2,9,29,17
India,Maharashtra,Kolhapur,"Sinchan Bhavan, Kolhapur - MPCB",08-01-2024 00:00:00,16.7143745,74.2426398,PM2.5,59,179,109
India,Maharashtra,Kolhapur,"Sinchan Bhavan, Kolhapur - MPCB",08-01-2024 00:00:00,16.7143745,74.2426398,NO2,17,70,36
India,Maharashtra,Kolhapur,"Sinchan Bhavan, Kolhapur - MPCB",08-01-2024 00:00:00,16.7143745,74.2426398,NH3,7,8,8
India,Maharashtra,Kolhapur,"Sinchan Bhavan, Kolhapur - MPCB",08-01-2024 00:00:00,16.7143745,74.2426398,SO2,1,6,3
India,Maharashtra,Latur,"Sawe Wadi, Latur - MPCB",08-01-2024 00:00:00,18.39963,76.57452,OZONE,24,72,47
India,Maharashtra,Mahad,"Kamble Tarf Birwadi, Mahad - MPCB",08-01-2024 00:00:00,18.1023399,73.4783687,PM10,69,106,89
India,Maharashtra,Malegaon,"Mahesh Nagar, Malegaon - MPCB",08-01-2024 00:00:00,20.555712,74.529236,PM10,85,124,99
India,Maharashtra,Malegaon,"Mahesh Nagar, Malegaon - MPCB",08-01-2024 00:00:00,20.555712,74.529236,NO2,7,17,10
India,Maharashtra,Malegaon,"Mahesh Nagar, Malegaon - MPCB",08-01-2024 00:00:00,20.555712,74.529236,NH3,7,9,8
India,Maharashtra,Malegaon,"Mahesh Nagar, Malegaon - MPCB",08-01-2024 00:00:00,20.555712,74.529236,SO2,7,10,9
India,Maharashtra,Malegaon,"Mahesh Nagar, Malegaon - MPCB",08-01-2024 00:00:00,20.555712,74.529236,CO,30,52,38
India,Maharashtra,Mumbai,"Byculla, Mumbai - BMC",08-01-2024 00:00:00,18.9767,72.8380,NO2,9,38,22
India,Maharashtra,Mumbai,"Byculla, Mumbai - BMC",08-01-2024 00:00:00,18.9767,72.8380,NH3,1,2,1
India,Maharashtra,Mumbai,"Chakala-Andheri East, Mumbai - IITM",08-01-2024 00:00:00,19.11074,72.86084,PM10,99,124,108
India,Maharashtra,Mumbai,"Chembur, Mumbai - MPCB",08-01-2024 00:00:00,19.0364585,72.8954371,PM10,85,132,108
India,Maharashtra,Mumbai,"Chembur, Mumbai - MPCB",08-01-2024 00:00:00,19.0364585,72.8954371,NO2,31,101,68
India,Maharashtra,Mumbai,"Chembur, Mumbai - MPCB",08-01-2024 00:00:00,19.0364585,72.8954371,CO,2,75,17
India,Maharashtra,Mumbai,"Chhatrapati Shivaji Intl. Airport (T2), Mumbai - MPCB",08-01-2024 00:00:00,19.10078,72.87462,PM2.5,33,69,50
India,Maharashtra,Mumbai,"Chhatrapati Shivaji Intl. Airport (T2), Mumbai - MPCB",08-01-2024 00:00:00,19.10078,72.87462,NO2,NA,NA,NA
India,Maharashtra,Mumbai,"Chhatrapati Shivaji Intl. Airport (T2), Mumbai - MPCB",08-01-2024 00:00:00,19.10078,72.87462,CO,62,106,72
India,Maharashtra,Mumbai,"Colaba, Mumbai - MPCB",08-01-2024 00:00:00,18.910000,72.820000,NH3,1,1,1
India,Maharashtra,Mumbai,"Colaba, Mumbai - MPCB",08-01-2024 00:00:00,18.910000,72.820000,CO,13,22,15
India,Maharashtra,Mumbai,"Colaba, Mumbai - MPCB",08-01-2024 00:00:00,18.910000,72.820000,OZONE,8,11,10
India,Maharashtra,Mumbai,"Ghatkopar, Mumbai - BMC",08-01-2024 00:00:00,19.083694,72.920967,NO2,39,56,47
India,Maharashtra,Mumbai,"Kandivali West, Mumbai - BMC",08-01-2024 00:00:00,19.215859,72.831718,PM10,77,122,97
India,Maharashtra,Mumbai,"Kherwadi_Bandra East, Mumbai - MPCB",08-01-2024 00:00:00,19.0632143,72.8456324,SO2,10,113,25
India,Maharashtra,Mumbai,"Khindipada-Bhandup West, Mumbai - IITM",08-01-2024 00:00:00,19.1653323,72.922099,SO2,1,13,6
India,Maharashtra,Mumbai,"Malad West, Mumbai - IITM",08-01-2024 00:00:00,19.19709,72.82204,PM10,96,145,114
India,Maharashtra,Mumbai,"Mazgaon, Mumbai - IITM",08-01-2024 00:00:00,18.96702,72.84214,PM2.5,59,99,78
India,Maharashtra,Mumbai,"Mazgaon, Mumbai - IITM",08-01-2024 00:00:00,18.96702,72.84214,NH3,4,11,7
India,Maharashtra,Mumbai,"Mazgaon, Mumbai - IITM",08-01-2024 00:00:00,18.96702,72.84214,SO2,7,13,10
India,Maharashtra,Mumbai,"Mindspace-Malad West, Mumbai - MPCB",08-01-2024 00:00:00,19.1878657,72.8304069,PM2.5,74,142,104
India,Maharashtra,Mumbai,"Mulund West, Mumbai - MPCB",08-01-2024 00:00:00,19.1750,72.9419,CO,44,45,45
India,Maharashtra,Mumbai,"Navy Nagar-Colaba, Mumbai - IITM",08-01-2024 00:00:00,18.897756,72.813320,NO2,33,74,53
India,Maharashtra,Mumbai,"Navy Nagar-Colaba, Mumbai - IITM",08-01-2024 00:00:00,18.897756,72.813320,CO,51,92,63
India,Maharashtra,Mumbai,"Powai, Mumbai - MPCB",08-01-2024 00:00:00,19.137500,72.915056,PM10,105,167,132
India,Maharashtra,Mumbai,"Powai, Mumbai - MPCB",08-01-2024 00:00:00,19.137500,72.915056,NO2,15,43,26
India,Maharashtra,Mumbai,"Powai, Mumbai - MPCB",08-01-2024 00:00:00,19.137500,72.915056,SO2,43,47,44
India,Maharashtra,Mumbai,"Powai, Mumbai - MPCB",08-01-2024 00:00:00,19.137500,72.915056,CO,38,54,43
India,Maharashtra,Mumbai,"Worli, Mumbai - MPCB",08-01-2024 00:00:00,18.9936162,72.8128113,PM10,96,149,123
India,Maharashtra,Mumbai,"Worli, Mumbai - MPCB",08-01-2024 00:00:00,18.9936162,72.8128113,CO,32,34,34
India,Maharashtra,Nagpur,"Ambazari, Nagpur - MPCB",08-01-2024 00:00:00,21.121801,79.04952,NH3,2,8,3
India,Maharashtra,Nagpur,"Mahal, Nagpur - MPCB",08-01-2024 00:00:00,21.14472,79.107595,NH3,6,12,8
India,Maharashtra,Nagpur,"Opp GPO Civil Lines, Nagpur - MPCB",08-01-2024 00:00:00,21.152875,79.0517531,PM10,99,151,118
India,Maharashtra,Nanded,"Sneh Nagar, Nanded - MPCB",08-01-2024 00:00:00,19.173852,77.296291,NH3,1,3,2
India,Maharashtra,Nashik,"Gangapur Road, Nashik - MPCB",08-01-2024 00:00:00,20.0073285,73.7762427,PM2.5,NA,NA,NA
India,Maharashtra,Nashik,"Gangapur Road, Nashik - MPCB",08-01-2024 00:00:00,20.0073285,73.7762427,CO,18,18,18
India,Maharashtra,Nashik,"MIDC Ambad, Nashik - MPCB",08-01-2024 00:00:00,19.950220,73.731480,NO2,26,97,49
India,Maharashtra,Nashik,"Pandav Nagari, Nashik - MPCB",08-01-2024 00:00:00,19.9591346,73.7788008,PM10,68,297,131
India,Maharashtra,Nashik,"Pandav Nagari, Nashik - MPCB",08-01-2024 00:00:00,19.9591346,73.7788008,SO2,6,49,13
India,Maharashtra,Navi Mumbai,"Mahape, Navi Mumbai - MPCB",08-01-2024 00:00:00,19.1135051,73.008978,PM10,70,155,117
India,Maharashtra,Navi Mumbai,"Mahape, Navi Mumbai - MPCB",08-01-2024 00:00:00,19.1135051,73.008978,SO2,26,26,26
India,Maharashtra,Navi Mumbai,"Sanpada, Navi Mumbai - MPCB",08-01-2024 00:00:00,19.0575752,73.0151367,CO,8,64,29
India,Maharashtra,Navi Mumbai,"Sector-19A Nerul, Navi Mumbai - IITM",08-01-2024 00:00:00,19.044,73.0325,PM2.5,68,300,175
India,Maharashtra,Navi Mumbai,"Sector-19A Nerul, Navi Mumbai - IITM",08-01-2024 00:00:00,19.044,73.0325,NO2,27,166,86
India,Maharashtra,Navi Mumbai,"Sector-19A Nerul, Navi Mumbai - IITM",08-01-2024 00:00:00,19.044,73.0325,SO2,11,33,21
India,Maharashtra,Navi Mumbai,"Sector-2E Kalamboli, Navi Mumbai - MPCB",08-01-2024 00:00:00,19.02579,73.10297,PM2.5,53,323,215
India,Maharashtra,Navi Mumbai,"Sector-2E Kalamboli, Navi Mumbai - MPCB",08-01-2024 00:00:00,19.02579,73.10297,PM10,64,295,173
India,Maharashtra,Navi Mumbai,"Sector-2E Kalamboli, Navi Mumbai - MPCB",08-01-2024 00:00:00,19.02579,73.10297,OZONE,1,164,51
India,Maharashtra,Pimpri-Chinchwad,"Gavalinagar, Pimpri Chinchwad - MPCB",08-01-2024 00:00:00,18.63673,73.82487,CO,21,84,51
India,Maharashtra,Pimpri-Chinchwad,"Gavalinagar, Pimpri Chinchwad - MPCB",08-01-2024 00:00:00,18.63673,73.82487,OZONE,2,84,39
India,Maharashtra,Pimpri-Chinchwad,"Park Street Wakad, Pimpri Chinchwad - MPCB",08-01-2024 00:00:00,18.59051,73.77946,NO2,56,129,87
India,Maharashtra,Pimpri-Chinchwad,"Park Street Wakad, Pimpri Chinchwad - MPCB",08-01-2024 00:00:00,18.59051,73.77946,CO,27,125,67
India,Maharashtra,Pimpri-Chinchwad,"Park Street Wakad, Pimpri Chinchwad - MPCB",08-01-2024 00:00:00,18.59051,73.77946,OZONE,1,89,31
India,Maharashtra,Pimpri-Chinchwad,"Thergaon, Pimpri Chinchwad - MPCB",08-01-2024 00:00:00,18.616318,73.765797,PM2.5,121,301,201
India,Maharashtra,Pimpri-Chinchwad,"Thergaon, Pimpri Chinchwad - MPCB",08-01-2024 00:00:00,18.616318,73.765797,NO2,29,102,62
India,Maharashtra,Pimpri-Chinchwad,"Thergaon, Pimpri Chinchwad - MPCB",08-01-2024 00:00:00,18.616318,73.765797,NH3,8,19,12
India,Maharashtra,Pimpri-Chinchwad,"Thergaon, Pimpri Chinchwad - MPCB",08-01-2024 00:00:00,18.616318,73.765797,CO,25,90,54
India,Maharashtra,Pune,"Alandi, Pune - IITM",08-01-2024 00:00:00,18.675076,73.892743,CO,28,66,56
India,Maharashtra,Pune,"Bhosari, Pune - IITM",08-01-2024 00:00:00,18.640051,73.848956,PM2.5,23,193,85
India,Maharashtra,Pune,"Bhosari, Pune - IITM",08-01-2024 00:00:00,18.640051,73.848956,OZONE,3,29,13
India,Maharashtra,Pune,"Karve Road, Pune - MPCB",08-01-2024 00:00:00,18.5011743,73.8165527,NO2,2,2,2
India,Maharashtra,Pune,"Katraj Dairy, Pune - MPCB",08-01-2024 00:00:00,18.454450,73.854155,OZONE,1,39,24
India,Maharashtra,Pune,"Mhada Colony, Pune - IITM",08-01-2024 00:00:00,18.573040,73.927715,NO2,18,77,39
India,Maharashtra,Pune,"Savitribai Phule Pune University, Pune - MPCB",08-01-2024 00:00:00,18.547056,73.826908,CO,NA,NA,NA
India,Maharashtra,Sangli,"Vijay Nagar, Sangli - MPCB",08-01-2024 00:00:00, 16.5038,74.3623,NO2,11,59,27
India,Maharashtra,Sangli,"Vijay Nagar, Sangli - MPCB",08-01-2024 00:00:00, 16.5038,74.3623,NH3,1,4,2
India,Maharashtra,Solapur,"Ratandeep Housing Society, Solapur - MPCB",08-01-2024 00:00:00,17.65439,75.90649,PM10,55,89,66
India,Maharashtra,Solapur,"Ratandeep Housing Society, Solapur - MPCB",08-01-2024 00:00:00,17.65439,75.90649,CO,16,48,30
India,Maharashtra,Solapur,"Solapur, Solapur - MPCB",08-01-2024 00:00:00,17.6599188,75.9063906,NO2,46,54,48
India,Maharashtra,Thane,"Kasarvadavali, Thane - MPCB",08-01-2024 00:00:00,19.26777,72.97182,CO,32,84,54
India,Maharashtra,Ulhasnagar,"Sidhi Vinayak Nagar, Ulhasnagar - MPCB",08-01-2024 00:00:00,19.235581,73.159121,PM10,104,199,144
India,Maharashtra,Ulhasnagar,"Sidhi Vinayak Nagar, Ulhasnagar - MPCB",08-01-2024 00:00:00,19.235581,73.159121,NH3,3,4,4
India,Manipur,Imphal,"DM College of Science, Imphal - Manipur PCB",08-01-2024 00:00:00,24.8207389,93.9423085,PM2.5,11,260,45
India,Manipur,Imphal,"DM College of Science, Imphal - Manipur PCB",08-01-2024 00:00:00,24.8207389,93.9423085,SO2,76,80,78
India,Manipur,Imphal,"DM College of Science, Imphal - Manipur PCB",08-01-2024 00:00:00,24.8207389,93.9423085,CO,6,6,6
India,Meghalaya,Shillong,"JN Stadium, Shillong - Meghalaya PCB",08-01-2024 00:00:00,25.5803419,91.8942571,SO2,24,27,26
India,Meghalaya,Shillong,"Lumpyngngad, Shillong - Meghalaya PCB",08-01-2024 00:00:00,25.5586,91.8985,SO2,14,15,14
India,Odisha,Angul,"Hakimapada, Angul - OSPCB",08-01-2024 00:00:00,20.832874,85.104082,PM10,131,362,212
India,Odisha,Balasore,"Kalidaspur, Balasore - OSPCB",08-01-2024 00:00:00,21.51161,86.89088,NH3,4,8,6
India,Odisha,Baripada,"Meher Colony, Baripada - OSPCB",08-01-2024 00:00:00,21.941841,86.728318,PM10,14,160,119
India,Odisha,Baripada,"Meher Colony, Baripada - OSPCB",08-01-2024 00:00:00,21.941841,86.728318,OZONE,10,34,20
India,Odisha,Bhubaneswar,"Lingraj Mandir, Bhubaneswar - OSPCB",08-01-2024 00:00:00,20.240790,85.836784,PM10,160,344,206
India,Odisha,Bhubaneswar,"Lingraj Mandir, Bhubaneswar - OSPCB",08-01-2024 00:00:00,20.240790,85.836784,CO,50,106,81
India,Odisha,Bhubaneswar,"Patia, Bhubaneswar - OSPCB",08-01-2024 00:00:00,20.34652,85.81630,PM2.5,263,343,310
India,Odisha,Bhubaneswar,"Patia, Bhubaneswar - OSPCB",08-01-2024 00:00:00,20.34652,85.81630,PM10,140,238,176
India,Odisha,Bhubaneswar,"Patia, Bhubaneswar - OSPCB",08-01-2024 00:00:00,20.34652,85.81630,NO2,19,70,32
India,Odisha,Bhubaneswar,"Patia, Bhubaneswar - OSPCB",08-01-2024 00:00:00,20.34652,85.81630,NH3,4,6,5
India,Odisha,Bhubaneswar,"Patia, Bhubaneswar - OSPCB",08-01-2024 00:00:00,20.34652,85.81630,OZONE,8,173,99
India,Odisha,Bileipada,"Tata Township, Bileipada - OSPCB",08-01-2024 00:00:00,22.06156703,85.47409613,PM10,NA,NA,NA
India,Odisha,Bileipada,"Tata Township, Bileipada - OSPCB",08-01-2024 00:00:00,22.06156703,85.47409613,CO,24,39,32
India,Odisha,Byasanagar,"Ferro Chrome Colony, Byasanagar - OSPCB",08-01-2024 00:00:00,20.94185,86.11510,NO2,16,47,23
India,Odisha,Cuttack,"CDA Area, Cuttack - OSPCB",08-01-2024 00:00:00,20.48891     ,85.84768     ,PM2.5,303,500,340
India,Odisha,Cuttack,"CDA Area, Cuttack - OSPCB",08-01-2024 00:00:00,20.48891     ,85.84768     ,OZONE,13,111,72
India,Odisha,Keonjhar,"Jagamohanpur, Keonjhar - OSPCB",08-01-2024 00:00:00,21.643900,85.599355,NH3,10,17,12
India,Odisha,Nayagarh,"Dabuna, Nayagarh - OSPCB",08-01-2024 00:00:00,21.847279,85.416905,NO2,28,80,33
India,Odisha,Nayagarh,"Dabuna, Nayagarh - OSPCB",08-01-2024 00:00:00,21.847279,85.416905,NH3,3,19,5
India,Odisha,Nayagarh,"Dabuna, Nayagarh - OSPCB",08-01-2024 00:00:00,21.847279,85.416905,SO2,2,5,3
India,Odisha,Rairangpur,"Divisional Forest Office, Rairangpur - OSPCB",08-01-2024 00:00:00,22.265816,86.174829,SO2,5,29,12
India,Odisha,Rourkela,"Sector-2, Rourkela - OSPCB",08-01-2024 00:00:00,22.24500000,84.88111111,CO,28,51,39
India,Odisha,Suakati,"OMC Colony, Suakati - OSPCB",08-01-2024 00:00:00,21.606865,85.510538,PM10,NA,NA,NA
India,Odisha,Suakati,"OMC Colony, Suakati - OSPCB",08-01-2024 00:00:00,21.606865,85.510538,NH3,NA,NA,NA
India,Odisha,Talcher,"Talcher Coalfields,Talcher - OSPCB",08-01-2024 00:00:00,20.9360711,85.1707021,NO2,40,51,45
India,Odisha,Tensa,"Barsua Iron Ore Mines, Tensa - OSPCB",08-01-2024 00:00:00,21.869985,85.167016,PM2.5,110,207,154
India,Odisha,Tensa,"Barsua Iron Ore Mines, Tensa - OSPCB",08-01-2024 00:00:00,21.869985,85.167016,NO2,48,91,62
India,Odisha,Tensa,"Barsua Iron Ore Mines, Tensa - OSPCB",08-01-2024 00:00:00,21.869985,85.167016,SO2,13,24,19
India,Odisha,Tensa,"Barsua Iron Ore Mines, Tensa - OSPCB",08-01-2024 00:00:00,21.869985,85.167016,CO,24,49,37
India,Puducherry,Puducherry,"Jawahar Nagar, Puducherry - PPCC",08-01-2024 00:00:00,11.9309,79.8027,PM2.5,NA,NA,NA
India,Puducherry,Puducherry,"Jawahar Nagar, Puducherry - PPCC",08-01-2024 00:00:00,11.9309,79.8027,PM10,NA,NA,NA
India,Punjab,Bathinda,"Hardev Nagar, Bathinda - PPCB",08-01-2024 00:00:00,30.233011,74.907758,NO2,32,35,33
India,Punjab,Jalandhar,"Civil Line, Jalandhar - PPCB",08-01-2024 00:00:00,31.321907,75.578914,PM2.5,28,139,64
India,Punjab,Jalandhar,"Civil Line, Jalandhar - PPCB",08-01-2024 00:00:00,31.321907,75.578914,PM10,34,118,69
India,Punjab,Jalandhar,"Civil Line, Jalandhar - PPCB",08-01-2024 00:00:00,31.321907,75.578914,NO2,30,32,31
India,Punjab,Jalandhar,"Civil Line, Jalandhar - PPCB",08-01-2024 00:00:00,31.321907,75.578914,NH3,9,9,9
India,Punjab,Khanna,"Kalal Majra, Khanna - PPCB",08-01-2024 00:00:00,30.736056 ,76.209694,PM10,51,137,84
India,Punjab,Ludhiana,"Punjab Agricultural University, Ludhiana - PPCB",08-01-2024 00:00:00,30.9028,75.8086,PM2.5,39,178,103
India,Punjab,Ludhiana,"Punjab Agricultural University, Ludhiana - PPCB",08-01-2024 00:00:00,30.9028,75.8086,NO2,19,21,19
India,Punjab,Ludhiana,"Punjab Agricultural University, Ludhiana - PPCB",08-01-2024 00:00:00,30.9028,75.8086,OZONE,15,37,22
India,Punjab,Mandi Gobindgarh,"RIMT University, Mandi Gobindgarh - PPCB",08-01-2024 00:00:00,30.649961,76.331442,NH3,2,2,2
India,Punjab,Mandi Gobindgarh,"RIMT University, Mandi Gobindgarh - PPCB",08-01-2024 00:00:00,30.649961,76.331442,OZONE,41,42,41
India,Rajasthan,Ajmer,"Civil Lines,  Ajmer - RSPCB",08-01-2024 00:00:00,26.470859,74.646594,NH3,28,50,36
India,Rajasthan,Ajmer,"Civil Lines,  Ajmer - RSPCB",08-01-2024 00:00:00,26.470859,74.646594,OZONE,3,44,16
India,Rajasthan,Alwar,"Moti Doongri, Alwar - RSPCB",08-01-2024 00:00:00,27.554793,76.611536,NH3,4,7,6
India,Rajasthan,Banswara,"Rati Talai, Banswara - RSPCB",08-01-2024 00:00:00,23.555190,74.440010,CO,50,61,56
India,Rajasthan,Baran,"Bamboliya, Baran - RSPCB",08-01-2024 00:00:00,25.106006,76.469948,NO2,26,63,38
India,Rajasthan,Barmer,"Railway Colony, Barmer - RSPCB",08-01-2024 00:00:00,25.747299,71.393989,NH3,4,7,6
India,Rajasthan,Bharatpur,"Krishna Nagar, Bharatpur - RSPCB",08-01-2024 00:00:00,27.215415,77.50873,CO,4,127,98
India,Rajasthan,Bhilwara,"Pratap Nagar, Bhilwara - RSPCB",08-01-2024 00:00:00,25.339605,74.618883,NH3,2,6,4
India,Rajasthan,Bhilwara,"Pratap Nagar, Bhilwara - RSPCB",08-01-2024 00:00:00,25.339605,74.618883,OZONE,2,89,53
India,Rajasthan,Bhiwadi,"RIICO Ind. Area III, Bhiwadi - RSPCB",08-01-2024 00:00:00,28.194909,76.862296,SO2,2,15,6
India,Rajasthan,Bhiwadi,"RIICO Ind. Area III, Bhiwadi - RSPCB",08-01-2024 00:00:00,28.194909,76.862296,CO,11,100,42
India,Rajasthan,Bhiwadi,"RIICO Ind. Area III, Bhiwadi - RSPCB",08-01-2024 00:00:00,28.194909,76.862296,OZONE,6,8,7
India,Rajasthan,Bundi,"New Colony, Bundi - RSPCB",08-01-2024 00:00:00,25.435774,75.644272,NO2,19,78,33
India,Rajasthan,Bundi,"New Colony, Bundi - RSPCB",08-01-2024 00:00:00,25.435774,75.644272,NH3,5,5,5
India,Rajasthan,Chittorgarh,"Shastri Nagar, Chittorgarh - RSPCB",08-01-2024 00:00:00,24.892047,74.623527,NH3,4,14,7
India,Rajasthan,Churu,"Subash Chowk, Churu - RSPCB",08-01-2024 00:00:00,28.296139,74.961696,NO2,25,104,40
India,Rajasthan,Churu,"Subash Chowk, Churu - RSPCB",08-01-2024 00:00:00,28.296139,74.961696,SO2,1,2,1
India,Rajasthan,Churu,"Subash Chowk, Churu - RSPCB",08-01-2024 00:00:00,28.296139,74.961696,OZONE,6,72,35
India,Rajasthan,Dausa,"Khatikan Mohalla, Dausa - RSPCB",08-01-2024 00:00:00,26.895552,76.334753,PM2.5,130,323,236
India,Rajasthan,Dholpur,"Raja Ganj, Dholpur - RSPCB",08-01-2024 00:00:00,26.699557,77.898881,NH3,9,14,12
India,Rajasthan,Dholpur,"Raja Ganj, Dholpur - RSPCB",08-01-2024 00:00:00,26.699557,77.898881,OZONE,3,103,46
India,Rajasthan,Dungarpur,"Bhoiwada, Dungarpur - RSPCB",08-01-2024 00:00:00,23.837789,73.714926,PM2.5,82,230,127
India,Rajasthan,Dungarpur,"Bhoiwada, Dungarpur - RSPCB",08-01-2024 00:00:00,23.837789,73.714926,NO2,17,29,21
India,Rajasthan,Dungarpur,"Bhoiwada, Dungarpur - RSPCB",08-01-2024 00:00:00,23.837789,73.714926,OZONE,18,42,30
India,Rajasthan,Hanumangarh,"Housing Board, Hanumangarh - RSPCB",08-01-2024 00:00:00,29.610750,74.283608,NO2,18,49,32
India,Rajasthan,Jaipur,"Adarsh Nagar, Jaipur - RSPCB",08-01-2024 00:00:00,26.902909,75.836858,PM2.5,159,316,240
India,Rajasthan,Jaipur,"Adarsh Nagar, Jaipur - RSPCB",08-01-2024 00:00:00,26.902909,75.836858,SO2,7,36,19
India,Rajasthan,Jaipur,"Mansarovar Sector-12, Jaipur - RSPCB",08-01-2024 00:00:00,26.843698,75.766894,NO2,19,119,51
India,Rajasthan,Jaipur,"Police Commissionerate, Jaipur - RSPCB",08-01-2024 00:00:00,26.9164092,75.7994901,CO,38,74,56
India,Rajasthan,Jaipur,"RIICO Sitapura, Jaipur - RSPCB",08-01-2024 00:00:00,26.786682,75.827928,CO,26,109,73
India,Rajasthan,Jaipur,"Sector-2 Murlipura, Jaipur - RSPCB",08-01-2024 00:00:00,26.960669,75.771817,CO,27,142,89
India,Rajasthan,Jaipur,"Shastri Nagar, Jaipur - RSPCB",08-01-2024 00:00:00,26.9502929,75.730943,NO2,28,128,63
India,Rajasthan,Jaipur,"Shastri Nagar, Jaipur - RSPCB",08-01-2024 00:00:00,26.9502929,75.730943,NH3,9,40,17
India,Rajasthan,Jaisalmer,"Sadar Bazar, Jaisalmer - RSPCB",08-01-2024 00:00:00,26.912329,70.909168,NH3,8,19,10
India,Rajasthan,Jaisalmer,"Sadar Bazar, Jaisalmer - RSPCB",08-01-2024 00:00:00,26.912329,70.909168,OZONE,21,310,54
India,Rajasthan,Jhunjhunu,"Indra Nagar, Jhunjhunu - RSPCB",08-01-2024 00:00:00,28.108988,75.386577,PM2.5,33,242,98
India,Rajasthan,Jhunjhunu,"Indra Nagar, Jhunjhunu - RSPCB",08-01-2024 00:00:00,28.108988,75.386577,PM10,81,184,122
India,Rajasthan,Jhunjhunu,"Indra Nagar, Jhunjhunu - RSPCB",08-01-2024 00:00:00,28.108988,75.386577,NO2,9,70,32
India,Rajasthan,Jhunjhunu,"Indra Nagar, Jhunjhunu - RSPCB",08-01-2024 00:00:00,28.108988,75.386577,OZONE,8,54,25
India,Rajasthan,Jodhpur,"Collectorate, Jodhpur - RSPCB",08-01-2024 00:00:00,26.268249,73.0193853,NO2,22,24,23
India,Rajasthan,Jodhpur,"Digari Kalan, Jodhpur - RSPCB",08-01-2024 00:00:00,26.295810,73.082283,NO2,7,35,14
India,Rajasthan,Jodhpur,"Jhalamand, Jodhpur - RSPCB",08-01-2024 00:00:00,26.215415,73.070156,PM10,86,121,111
India,Rajasthan,Jodhpur,"Jhalamand, Jodhpur - RSPCB",08-01-2024 00:00:00,26.215415,73.070156,NH3,5,7,6
India,Rajasthan,Jodhpur,"Jhalamand, Jodhpur - RSPCB",08-01-2024 00:00:00,26.215415,73.070156,SO2,3,10,5
India,Rajasthan,Jodhpur,"Mandor, Jodhpur - RSPCB",08-01-2024 00:00:00,26.358805,73.047444,PM2.5,99,212,160
India,Rajasthan,Jodhpur,"Mandor, Jodhpur - RSPCB",08-01-2024 00:00:00,26.358805,73.047444,NH3,5,8,6
India,Rajasthan,Jodhpur,"Samrat Ashok Udhyan, Jodhpur - RSPCB",08-01-2024 00:00:00,26.253384,72.976571,OZONE,25,100,69
India,Rajasthan,Karauli,"Satyawati Vihar, Karauli - RSPCB",08-01-2024 00:00:00,26.506177,77.025989,PM2.5,200,394,319
India,Rajasthan,Kota,"Dhanmandi, Kota - RSPCB",08-01-2024 00:00:00,25.164090,75.858137,PM2.5,88,368,252
India,Rajasthan,Kota,"Nayapura, Kota - RSPCB",08-01-2024 00:00:00,25.196024,75.855668,CO,4,168,156
India,Rajasthan,Kota,"Nayapura, Kota - RSPCB",08-01-2024 00:00:00,25.196024,75.855668,OZONE,2,65,22
India,Rajasthan,Nagaur,"Karni Colony, Nagaur - RSPCB",08-01-2024 00:00:00,27.213494,73.734444,CO,34,57,47
India,Rajasthan,Pali,"Indira Colony Vistar, Pali - RSPCB",08-01-2024 00:00:00,25.771061, 73.340227,PM10,139,178,152
India,Rajasthan,Sawai Madhopur,"Sahu Nagar, Sawai Madhopur - RSPCB",08-01-2024 00:00:00,26.031443,76.359327,PM2.5,54,257,133
India,Rajasthan,Sawai Madhopur,"Sahu Nagar, Sawai Madhopur - RSPCB",08-01-2024 00:00:00,26.031443,76.359327,PM10,87,227,151
India,Rajasthan,Sikar,"Radhakishan Pura, Sikar - RSPCB",08-01-2024 00:00:00,27.608912,75.153302,NO2,8,28,17
India,Rajasthan,Sikar,"Radhakishan Pura, Sikar - RSPCB",08-01-2024 00:00:00,27.608912,75.153302,OZONE,23,113,56
India,Rajasthan,Sirohi,"Vedhaynath Colony, Sirohi - RSPCB",08-01-2024 00:00:00,24.885261,72.857549,NO2,14,74,40
India,Rajasthan,Sri Ganganagar,"Old City, Sri Ganganagar - RSPCB",08-01-2024 00:00:00,29.931624,73.864511,PM10,89,318,179
India,Rajasthan,Sri Ganganagar,"Old City, Sri Ganganagar - RSPCB",08-01-2024 00:00:00,29.931624,73.864511,NH3,4,16,8
India,Rajasthan,Tonk,"Shastri Nagar, Tonk - RSPCB",08-01-2024 00:00:00,26.159933,75.780517,NH3,6,58,19
India,Rajasthan,Tonk,"Shastri Nagar, Tonk - RSPCB",08-01-2024 00:00:00,26.159933,75.780517,CO,42,126,96
India,Rajasthan,Udaipur,"Ashok Nagar, Udaipur - RSPCB",08-01-2024 00:00:00,24.5886166,73.6321397,PM2.5,70,219,123
India,Rajasthan,Udaipur,"Ashok Nagar, Udaipur - RSPCB",08-01-2024 00:00:00,24.5886166,73.6321397,NH3,5,9,6
India,Rajasthan,Udaipur,"Ashok Nagar, Udaipur - RSPCB",08-01-2024 00:00:00,24.5886166,73.6321397,SO2,6,102,20
India,Rajasthan,Udaipur,"Ashok Nagar, Udaipur - RSPCB",08-01-2024 00:00:00,24.5886166,73.6321397,OZONE,5,9,7
India,Sikkim,Gangtok,"Zero Point GICI, Gangtok - SSPCB",08-01-2024 00:00:00,27.338530,88.614099,PM10,NA,NA,NA
India,TamilNadu,Ariyalur,"Keelapalur, Ariyalur - TNPCB",08-01-2024 00:00:00,11.06825,79.07033,PM10,20,34,26
India,TamilNadu,Chennai,"Alandur Bus Depot, Chennai - CPCB",08-01-2024 00:00:00,12.9099161,80.1076538,PM10,79,120,96
India,TamilNadu,Chennai,"Alandur Bus Depot, Chennai - CPCB",08-01-2024 00:00:00,12.9099161,80.1076538,CO,62,191,110
India,TamilNadu,Chennai,"Gandhi Nagar_Ennore, Chennai - TNPCB",08-01-2024 00:00:00,13.218341,80.32027,SO2,NA,NA,NA
India,TamilNadu,Chennai,"Gandhi Nagar_Ennore, Chennai - TNPCB",08-01-2024 00:00:00,13.218341,80.32027,OZONE,3,3,3
India,TamilNadu,Chennai,"Kodungaiyur, Chennai - TNPCB",08-01-2024 00:00:00,13.1278,80.2642,NO2,9,51,24
India,TamilNadu,Chennai,"Manali, Chennai - CPCB",08-01-2024 00:00:00,13.164544,80.26285,PM10,63,149,102
India,TamilNadu,Chennai,"Manali, Chennai - CPCB",08-01-2024 00:00:00,13.164544,80.26285,NO2,11,14,12
India,TamilNadu,Chennai,"Manali, Chennai - CPCB",08-01-2024 00:00:00,13.164544,80.26285,SO2,4,8,6
India,TamilNadu,Chennai,"Perungudi, Chennai - TNPCB",08-01-2024 00:00:00,12.9533,80.2357,PM10,8,64,29
India,TamilNadu,Chennai,"Royapuram, Chennai - TNPCB",08-01-2024 00:00:00,13.1036,80.2909,NO2,11,33,21
India,TamilNadu,Chennai,"Velachery Res. Area, Chennai - CPCB",08-01-2024 00:00:00,13.0052189,80.2398125,PM2.5,15,35,27
India,TamilNadu,Chennai,"Velachery Res. Area, Chennai - CPCB",08-01-2024 00:00:00,13.0052189,80.2398125,NO2,13,94,35
India,TamilNadu,Chennai,"Velachery Res. Area, Chennai - CPCB",08-01-2024 00:00:00,13.0052189,80.2398125,NH3,4,7,5
India,TamilNadu,Chennai,"Velachery Res. Area, Chennai - CPCB",08-01-2024 00:00:00,13.0052189,80.2398125,CO,46,76,50
India,TamilNadu,Coimbatore,"PSG College of Arts and Science, Coimbatore - TNPCB",08-01-2024 00:00:00,11.0328,77.0349,OZONE,3,5,4
India,TamilNadu,Cuddalore,"Kudikadu, Cuddalore - TNPCB",08-01-2024 00:00:00,11.6829898,79.7532099,PM2.5,3,59,23
India,TamilNadu,Kanchipuram,"Kilambi, Kanchipuram - TNPCB",08-01-2024 00:00:00,12.864618,79.659968,OZONE,NA,NA,NA
India,TamilNadu,Ooty,"Bombay Castel, Ooty - TNPCB",08-01-2024 00:00:00,11.4068288,76.7138973,PM2.5,21,48,37
India,TamilNadu,Ooty,"Bombay Castel, Ooty - TNPCB",08-01-2024 00:00:00,11.4068288,76.7138973,OZONE,5,6,5
India,TamilNadu,Ramanathapuram,"Chalai Bazaar, Ramanathapuram - TNPCB",08-01-2024 00:00:00,9.36399,78.831977,CO,NA,NA,NA
India,TamilNadu,Salem,"Sona College of Technology, Salem - TNPCB",08-01-2024 00:00:00,11.679111,78.125052,PM2.5,15,55,33
India,TamilNadu,Salem,"Sona College of Technology, Salem - TNPCB",08-01-2024 00:00:00,11.679111,78.125052,PM10,15,45,28
India,TamilNadu,Salem,"Sona College of Technology, Salem - TNPCB",08-01-2024 00:00:00,11.679111,78.125052,NO2,7,9,8
India,TamilNadu,Thoothukudi,"Meelavittan, Thoothukudi - TNPCB",08-01-2024 00:00:00,8.816428 ,78.099039,PM10,12,117,36
India,TamilNadu,Thoothukudi,"Meelavittan, Thoothukudi - TNPCB",08-01-2024 00:00:00,8.816428 ,78.099039,NO2,6,13,10
India,TamilNadu,Thoothukudi,"Meelavittan, Thoothukudi - TNPCB",08-01-2024 00:00:00,8.816428 ,78.099039,SO2,6,65,13
India,TamilNadu,Tiruchirappalli,"St Joseph College, Tiruchirappalli - TNPCB",08-01-2024 00:00:00,10.830158,78.691849,NH3,3,3,3
India,TamilNadu,Tirupur,"Kumaran College, Tirupur - TNPCB",08-01-2024 00:00:00,11.0973603,77.3228673,PM10,27,126,57
India,TamilNadu,Tirupur,"Kumaran College, Tirupur - TNPCB",08-01-2024 00:00:00,11.0973603,77.3228673,NO2,7,46,17
India,TamilNadu,Tirupur,"Kumaran College, Tirupur - TNPCB",08-01-2024 00:00:00,11.0973603,77.3228673,NH3,NA,NA,NA
India,TamilNadu,Tirupur,"Kumaran College, Tirupur - TNPCB",08-01-2024 00:00:00,11.0973603,77.3228673,SO2,19,20,19
India,TamilNadu,Virudhunagar,"Collectorate Office, Virudhunagar - TNPCB",08-01-2024 00:00:00,9.559382,77.948828,CO,20,30,25
India,TamilNadu,Virudhunagar,"Collectorate Office, Virudhunagar - TNPCB",08-01-2024 00:00:00,9.559382,77.948828,OZONE,3,4,3
India,Telangana,Hyderabad,"Central University, Hyderabad - TSPCB",08-01-2024 00:00:00,17.460103,78.334361,PM2.5,29,73,45
India,Telangana,Hyderabad,"ECIL Kapra, Hyderabad - TSPCB",08-01-2024 00:00:00,17.470431,78.566959,PM2.5,NA,NA,NA
India,Telangana,Hyderabad,"ICRISAT Patancheru, Hyderabad - TSPCB",08-01-2024 00:00:00,17.518400,78.278777,NO2,15,17,16
India,Telangana,Hyderabad,"ICRISAT Patancheru, Hyderabad - TSPCB",08-01-2024 00:00:00,17.518400,78.278777,CO,48,75,63
India,Telangana,Hyderabad,"ICRISAT Patancheru, Hyderabad - TSPCB",08-01-2024 00:00:00,17.518400,78.278777,OZONE,60,125,81
India,Telangana,Hyderabad,"Kokapet, Hyderabad - TSPCB",08-01-2024 00:00:00,17.393559,78.339194,PM2.5,NA,NA,NA
India,Telangana,Hyderabad,"Kokapet, Hyderabad - TSPCB",08-01-2024 00:00:00,17.393559,78.339194,NO2,NA,NA,NA
India,Telangana,Hyderabad,"Kokapet, Hyderabad - TSPCB",08-01-2024 00:00:00,17.393559,78.339194,CO,18,18,18
India,Telangana,Hyderabad,"Kokapet, Hyderabad - TSPCB",08-01-2024 00:00:00,17.393559,78.339194,OZONE,2,5,4
India,Telangana,Hyderabad,"Kompally Municipal Office, Hyderabad - TSPCB",08-01-2024 00:00:00,17.544899,78.486949,PM10,NA,NA,NA
India,Telangana,Hyderabad,"Nacharam_TSIIC IALA, Hyderabad - TSPCB",08-01-2024 00:00:00,17.429398,78.569354,NO2,11,13,12
India,Telangana,Hyderabad,"Nacharam_TSIIC IALA, Hyderabad - TSPCB",08-01-2024 00:00:00,17.429398,78.569354,OZONE,13,25,25
India,Telangana,Hyderabad,"New Malakpet, Hyderabad - TSPCB",08-01-2024 00:00:00,17.37206,78.50864,PM2.5,28,40,35
India,Telangana,Hyderabad,"New Malakpet, Hyderabad - TSPCB",08-01-2024 00:00:00,17.37206,78.50864,CO,238,238,238
India,Telangana,Hyderabad,"Ramachandrapuram, Hyderabad - TSPCB",08-01-2024 00:00:00,17.528544,78.286195,NH3,NA,NA,NA
India,Telangana,Hyderabad,"Ramachandrapuram, Hyderabad - TSPCB",08-01-2024 00:00:00,17.528544,78.286195,SO2,NA,NA,NA
India,Telangana,Hyderabad,"Sanathnagar, Hyderabad - TSPCB",08-01-2024 00:00:00,17.4559458,78.4332152,CO,35,64,60
India,Telangana,Hyderabad,"Zoo Park, Hyderabad - TSPCB",08-01-2024 00:00:00,17.349694,78.451437,SO2,1,3,1
India,Tripura,Agartala,"Bardowali, Agartala - Tripura SPCB",08-01-2024 00:00:00,23.8175497,91.2726974,PM2.5,65,352,253
India,Tripura,Agartala,"Bardowali, Agartala - Tripura SPCB",08-01-2024 00:00:00,23.8175497,91.2726974,SO2,23,26,24
India,Uttar_Pradesh,Agra,"Manoharpur, Agra - UPPCB",08-01-2024 00:00:00,27.23711,78.01936,OZONE,3,15,7
India,Uttar_Pradesh,Agra,"Sanjay Palace, Agra - UPPCB",08-01-2024 00:00:00,27.19865833,78.00598056,PM10,107,162,134
India,Uttar_Pradesh,Agra,"Sanjay Palace, Agra - UPPCB",08-01-2024 00:00:00,27.19865833,78.00598056,NO2,36,96,69
India,Uttar_Pradesh,Agra,"Sanjay Palace, Agra - UPPCB",08-01-2024 00:00:00,27.19865833,78.00598056,SO2,2,16,8
India,Uttar_Pradesh,Agra,"Sanjay Palace, Agra - UPPCB",08-01-2024 00:00:00,27.19865833,78.00598056,CO,28,112,71
India,Uttar_Pradesh,Agra,"Sanjay Palace, Agra - UPPCB",08-01-2024 00:00:00,27.19865833,78.00598056,OZONE,17,85,59
India,Uttar_Pradesh,Agra,"Sector-3B Avas Vikas Colony, Agra - UPPCB",08-01-2024 00:00:00,27.19412,77.96237,PM2.5,57,223,85
India,Uttar_Pradesh,Agra,"Sector-3B Avas Vikas Colony, Agra - UPPCB",08-01-2024 00:00:00,27.19412,77.96237,PM10,83,211,121
India,Uttar_Pradesh,Agra,"Sector-3B Avas Vikas Colony, Agra - UPPCB",08-01-2024 00:00:00,27.19412,77.96237,OZONE,7,8,7
India,Uttar_Pradesh,Agra,"Shahjahan Garden, Agra - UPPCB",08-01-2024 00:00:00,27.169338,78.03582,PM2.5,93,315,152
India,Uttar_Pradesh,Agra,"Shastripuram, Agra - UPPCB",08-01-2024 00:00:00,27.19862,77.92066,NH3,2,3,2
India,Uttar_Pradesh,Agra,"Shastripuram, Agra - UPPCB",08-01-2024 00:00:00,27.19862,77.92066,SO2,15,21,17
India,Uttar_Pradesh,Baghpat,"Sardar Patel Inter College, Baghpat - UPPCB",08-01-2024 00:00:00,28.964949,77.278761,PM2.5,189,303,246
India,Uttar_Pradesh,Baghpat,"Sardar Patel Inter College, Baghpat - UPPCB",08-01-2024 00:00:00,28.964949,77.278761,PM10,116,186,146
India,Uttar_Pradesh,Bareilly,"Civil Lines, Bareilly - UPPCB",08-01-2024 00:00:00,28.359581,79.414455,OZONE,5,15,8
India,Uttar_Pradesh,Bulandshahr,"Yamunapuram, Bulandshahr - UPPCB",08-01-2024 00:00:00,28.406963,77.849831,PM2.5,218,353,306
India,Uttar_Pradesh,Bulandshahr,"Yamunapuram, Bulandshahr - UPPCB",08-01-2024 00:00:00,28.406963,77.849831,NH3,16,21,17
India,Uttar_Pradesh,Bulandshahr,"Yamunapuram, Bulandshahr - UPPCB",08-01-2024 00:00:00,28.406963,77.849831,SO2,12,16,14
India,Uttar_Pradesh,Firozabad,"Nagla Bhau, Firozabad - UPPCB",08-01-2024 00:00:00,27.168897,78.376960,OZONE,9,270,61
India,Uttar_Pradesh,Firozabad,"Vibhab Nagar, Firozabad - UPPCB",08-01-2024 00:00:00,27.1594,78.3953,CO,32,84,54
India,Uttar_Pradesh,Ghaziabad,"Loni, Ghaziabad - UPPCB",08-01-2024 00:00:00,28.757294,77.278792,SO2,3,15,9
India,Uttar_Pradesh,Ghaziabad,"Sanjay Nagar, Ghaziabad - UPPCB",08-01-2024 00:00:00,28.685382,77.453839,PM10,151,262,186
India,Uttar_Pradesh,Ghaziabad,"Vasundhara, Ghaziabad - UPPCB",08-01-2024 00:00:00,28.6603346,77.3572563,PM2.5,240,331,295
India,Uttar_Pradesh,Ghaziabad,"Vasundhara, Ghaziabad - UPPCB",08-01-2024 00:00:00,28.6603346,77.3572563,PM10,128,198,158
India,Uttar_Pradesh,Hapur,"Anand Vihar, Hapur - UPPCB",08-01-2024 00:00:00,28.725645,77.749675,PM10,156,234,185
India,Uttar_Pradesh,Hapur,"Anand Vihar, Hapur - UPPCB",08-01-2024 00:00:00,28.725645,77.749675,NH3,8,10,9
India,Uttar_Pradesh,Jhansi,"Shivaji Nagar, Jhansi - UPPCB",08-01-2024 00:00:00,25.4547,78.6039,PM10,71,139,99
India,Uttar_Pradesh,Jhansi,"Shivaji Nagar, Jhansi - UPPCB",08-01-2024 00:00:00,25.4547,78.6039,SO2,10,19,13
India,Uttar_Pradesh,Kanpur,"FTI Kidwai Nagar, Kanpur - UPPCB",08-01-2024 00:00:00,26.428282,80.327067,NH3,4,5,5
India,Uttar_Pradesh,Kanpur,"NSI Kalyanpur, Kanpur - UPPCB",08-01-2024 00:00:00,26.509954,80.249612,PM10,102,173,139
India,Uttar_Pradesh,Kanpur,"NSI Kalyanpur, Kanpur - UPPCB",08-01-2024 00:00:00,26.509954,80.249612,NO2,12,23,15
India,Uttar_Pradesh,Kanpur,"NSI Kalyanpur, Kanpur - UPPCB",08-01-2024 00:00:00,26.509954,80.249612,NH3,2,3,3
India,Uttar_Pradesh,Kanpur,"NSI Kalyanpur, Kanpur - UPPCB",08-01-2024 00:00:00,26.509954,80.249612,SO2,22,23,22
India,Uttar_Pradesh,Kanpur,"Nehru Nagar, Kanpur - UPPCB",08-01-2024 00:00:00,26.4703136,80.3229863,SO2,1,24,9
India,Uttar_Pradesh,Kanpur,"Nehru Nagar, Kanpur - UPPCB",08-01-2024 00:00:00,26.4703136,80.3229863,CO,5,108,60
India,Uttar_Pradesh,Khurja,"Kalindi Kunj, Khurja - UPPCB",08-01-2024 00:00:00,28.2348927,77.8683002,PM10,47,133,82
India,Uttar_Pradesh,Khurja,"Kalindi Kunj, Khurja - UPPCB",08-01-2024 00:00:00,28.2348927,77.8683002,OZONE,22,27,24
India,Uttar_Pradesh,Lucknow,"B R Ambedkar University, Lucknow - UPPCB",08-01-2024 00:00:00,26.766433,80.927299,NH3,6,8,7
India,Uttar_Pradesh,Lucknow,"B R Ambedkar University, Lucknow - UPPCB",08-01-2024 00:00:00,26.766433,80.927299,SO2,22,25,24
India,Uttar_Pradesh,Lucknow,"Kendriya Vidyalaya, Lucknow - CPCB",08-01-2024 00:00:00,26.906111,80.948222,PM2.5,113,302,217
India,Uttar_Pradesh,Lucknow,"Kendriya Vidyalaya, Lucknow - CPCB",08-01-2024 00:00:00,26.906111,80.948222,CO,32,72,46
India,Uttar_Pradesh,Lucknow,"Kukrail Picnic Spot-1, Lucknow - UPPCB",08-01-2024 00:00:00,26.90723,80.98579,PM2.5,44,124,73
India,Uttar_Pradesh,Lucknow,"Kukrail Picnic Spot-1, Lucknow - UPPCB",08-01-2024 00:00:00,26.90723,80.98579,PM10,60,117,90
India,Uttar_Pradesh,Lucknow,"Lalbagh, Lucknow - CPCB",08-01-2024 00:00:00,26.8458805,80.9365541,OZONE,6,41,19
India,Uttar_Pradesh,Meerut,"Ganga Nagar, Meerut - UPPCB",08-01-2024 00:00:00,28.999264,77.7590354,PM10,131,278,178
India,Uttar_Pradesh,Meerut,"Ganga Nagar, Meerut - UPPCB",08-01-2024 00:00:00,28.999264,77.7590354,NH3,6,10,9
India,Uttar_Pradesh,Meerut,"Jai Bhim Nagar, Meerut - UPPCB",08-01-2024 00:00:00,28.9535882,77.7622941,NO2,25,62,42
India,Uttar_Pradesh,Meerut,"Pallavpuram Phase 2, Meerut - UPPCB",08-01-2024 00:00:00,29.063510,77.709723,PM2.5,114,317,206
India,Uttar_Pradesh,Meerut,"Pallavpuram Phase 2, Meerut - UPPCB",08-01-2024 00:00:00,29.063510,77.709723,NH3,3,4,3
India,Uttar_Pradesh,Meerut,"Pallavpuram Phase 2, Meerut - UPPCB",08-01-2024 00:00:00,29.063510,77.709723,OZONE,10,17,13
India,Uttar_Pradesh,Moradabad,"Buddhi Vihar, Moradabad - UPPCB",08-01-2024 00:00:00,28.83526,78.74460,PM2.5,68,130,87
India,Uttar_Pradesh,Moradabad,"Employment Office, Moradabad - UPPCB",08-01-2024 00:00:00,28.88528,78.73880,NO2,25,26,26
India,Uttar_Pradesh,Moradabad,"Employment Office, Moradabad - UPPCB",08-01-2024 00:00:00,28.88528,78.73880,NH3,4,4,4
India,Uttar_Pradesh,Moradabad,"Jigar Colony, Moradabad - UPPCB",08-01-2024 00:00:00,28.856664,78.772638,NH3,4,5,5
India,Uttar_Pradesh,Moradabad,"Kashiram Nagar, Moradabad - UPPCB",08-01-2024 00:00:00,28.849399,78.742362,PM2.5,70,171,90
India,Uttar_Pradesh,Moradabad,"Kashiram Nagar, Moradabad - UPPCB",08-01-2024 00:00:00,28.849399,78.742362,OZONE,15,17,16
India,Uttar_Pradesh,Moradabad,"Transport Nagar, Moradabad - UPPCB",08-01-2024 00:00:00,28.802625,78.753728,SO2,40,42,41
India,Uttar_Pradesh,Moradabad,"Transport Nagar, Moradabad - UPPCB",08-01-2024 00:00:00,28.802625,78.753728,OZONE,15,20,17
India,Uttar_Pradesh,Noida,"Sector-116, Noida - UPPCB",08-01-2024 00:00:00,28.569230,77.393848,PM2.5,268,358,323
India,Uttar_Pradesh,Noida,"Sector-116, Noida - UPPCB",08-01-2024 00:00:00,28.569230,77.393848,PM10,133,242,186
India,Uttar_Pradesh,Noida,"Sector-116, Noida - UPPCB",08-01-2024 00:00:00,28.569230,77.393848,SO2,11,37,22
India,Uttar_Pradesh,Noida,"Sector-116, Noida - UPPCB",08-01-2024 00:00:00,28.569230,77.393848,CO,16,109,52
India,Uttar_Pradesh,Prayagraj,"Jhunsi, Prayagraj - UPPCB",08-01-2024 00:00:00,25.425602,81.917152,CO,22,52,32
India,Uttar_Pradesh,Prayagraj,"Motilal Nehru NIT, Prayagraj - UPPCB",08-01-2024 00:00:00,25.494,81.863,SO2,36,39,37
India,Uttar_Pradesh,Prayagraj,"Nagar Nigam, Prayagraj - UPPCB",08-01-2024 00:00:00,25.44919916 ,81.82735986 ,NH3,4,11,7
India,Uttar_Pradesh,Varanasi,"Ardhali Bazar, Varanasi - UPPCB",08-01-2024 00:00:00,25.3505986,82.9083074,PM2.5,42,65,48
India,Uttar_Pradesh,Varanasi,"Ardhali Bazar, Varanasi - UPPCB",08-01-2024 00:00:00,25.3505986,82.9083074,PM10,54,84,62
India,Uttar_Pradesh,Varanasi,"Ardhali Bazar, Varanasi - UPPCB",08-01-2024 00:00:00,25.3505986,82.9083074,NO2,22,34,25
India,Uttar_Pradesh,Varanasi,"Ardhali Bazar, Varanasi - UPPCB",08-01-2024 00:00:00,25.3505986,82.9083074,SO2,14,22,16
India,Uttar_Pradesh,Varanasi,"Bhelupur, Varanasi - UPPCB",08-01-2024 00:00:00,25.301778,82.996789,CO,2,42,27
India,Uttar_Pradesh,Varanasi,"IESD Banaras Hindu University, Varanasi - UPPCB",08-01-2024 00:00:00,25.262326,82.995408,CO,29,38,31
India,Uttar_Pradesh,Varanasi,"Maldahiya, Varanasi - UPPCB",08-01-2024 00:00:00,25.32393,82.99687,PM10,NA,NA,NA
India,Uttar_Pradesh,Varanasi,"Maldahiya, Varanasi - UPPCB",08-01-2024 00:00:00,25.32393,82.99687,NO2,NA,NA,NA
India,Uttar_Pradesh,Varanasi,"Maldahiya, Varanasi - UPPCB",08-01-2024 00:00:00,25.32393,82.99687,OZONE,NA,NA,NA
India,Uttar_Pradesh,Vrindavan,"Omex Eternity, Vrindavan - UPPCB",08-01-2024 00:00:00,27.5714090,77.6557570,PM10,NA,NA,NA
India,Uttarakhand,Dehradun,"Doon University, Dehradun - UKPCB",08-01-2024 00:00:00,30.269444,78.044167,PM2.5,60,325,231
India,Uttarakhand,Dehradun,"Doon University, Dehradun - UKPCB",08-01-2024 00:00:00,30.269444,78.044167,CO,62,100,87
India,Uttarakhand,Dehradun,"Doon University, Dehradun - UKPCB",08-01-2024 00:00:00,30.269444,78.044167,OZONE,1,10,3
India,Uttarakhand,Kashipur,"Govt. Girls Inter College, Kashipur - UKPCB",08-01-2024 00:00:00,29.2124114,78.9611753,NH3,8,11,9
India,Uttarakhand,Rishikesh,"Shivaji Nagar, Rishikesh - UKPCB",08-01-2024 00:00:00,30.075911,78.2859547,PM2.5,73,255,147
India,Uttarakhand,Rishikesh,"Shivaji Nagar, Rishikesh - UKPCB",08-01-2024 00:00:00,30.075911,78.2859547,PM10,44,116,83
India,West_Bengal,Asansol,"Asansol Court Area, Asansol - WBPCB",08-01-2024 00:00:00,23.685297,86.945968,NO2,26,64,42
India,West_Bengal,Asansol,"Asansol Court Area, Asansol - WBPCB",08-01-2024 00:00:00,23.685297,86.945968,OZONE,9,74,42
India,West_Bengal,Durgapur,"Sidhu Kanhu Indoor Stadium, Durgapur - WBPCB",08-01-2024 00:00:00,23.5404352,87.2892225,PM10,79,130,107
India,West_Bengal,Howrah,"Belur Math, Howrah - WBPCB",08-01-2024 00:00:00,22.629801,88.352017,PM10,135,183,152
India,West_Bengal,Howrah,"Belur Math, Howrah - WBPCB",08-01-2024 00:00:00,22.629801,88.352017,SO2,11,17,13
India,West_Bengal,Kolkata,"Ballygunge, Kolkata - WBPCB",08-01-2024 00:00:00,22.5367507,88.3638022,SO2,16,44,25
India,West_Bengal,Kolkata,"Bidhannagar, Kolkata - WBPCB",08-01-2024 00:00:00,22.58157048,88.41002457,NO2,19,48,31
India,West_Bengal,Kolkata,"Bidhannagar, Kolkata - WBPCB",08-01-2024 00:00:00,22.58157048,88.41002457,OZONE,2,8,5
India,West_Bengal,Kolkata,"Fort William, Kolkata - WBPCB",08-01-2024 00:00:00,22.556640,88.342674,NO2,33,98,62
India,West_Bengal,Kolkata,"Jadavpur, Kolkata - WBPCB",08-01-2024 00:00:00,22.49929,88.36917,SO2,4,9,6
India,West_Bengal,Kolkata,"Jadavpur, Kolkata - WBPCB",08-01-2024 00:00:00,22.49929,88.36917,CO,28,104,54
India,West_Bengal,Kolkata,"Rabindra Bharati University, Kolkata - WBPCB",08-01-2024 00:00:00,22.627847,88.380669,PM10,121,179,139
India,West_Bengal,Kolkata,"Rabindra Bharati University, Kolkata - WBPCB",08-01-2024 00:00:00,22.627847,88.380669,SO2,5,36,14
India,West_Bengal,Kolkata,"Rabindra Sarobar, Kolkata - WBPCB",08-01-2024 00:00:00,22.51106,88.35142,PM10,112,160,126
India,West_Bengal,Kolkata,"Rabindra Sarobar, Kolkata - WBPCB",08-01-2024 00:00:00,22.51106,88.35142,CO,16,101,64
India,Andhra_Pradesh,Chittoor,"Gangineni Cheruvu, Chittoor - APPCB",08-01-2024 00:00:00,13.204880,79.097889,PM2.5,18,38,28
India,Andhra_Pradesh,Kadapa,"Yerramukkapalli, Kadapa - APPCB",08-01-2024 00:00:00,14.465052,78.824187,NH3,NA,NA,NA
India,Andhra_Pradesh,Kadapa,"Yerramukkapalli, Kadapa - APPCB",08-01-2024 00:00:00,14.465052,78.824187,CO,15,28,20
India,Andhra_Pradesh,Rajamahendravaram,"Anand Kala Kshetram, Rajamahendravaram - APPCB",08-01-2024 00:00:00,16.9872867,81.7363176,NO2,16,35,25
India,Andhra_Pradesh,Rajamahendravaram,"Anand Kala Kshetram, Rajamahendravaram - APPCB",08-01-2024 00:00:00,16.9872867,81.7363176,SO2,13,34,20
India,Andhra_Pradesh,Rajamahendravaram,"Anand Kala Kshetram, Rajamahendravaram - APPCB",08-01-2024 00:00:00,16.9872867,81.7363176,CO,24,78,35
India,Andhra_Pradesh,Rajamahendravaram,"Anand Kala Kshetram, Rajamahendravaram - APPCB",08-01-2024 00:00:00,16.9872867,81.7363176,OZONE,14,21,18
India,Andhra_Pradesh,Vijayawada,"HB Colony, Vijayawada - APPCB",08-01-2024 00:00:00,16.536107,80.594233,NH3,4,4,4
India,Andhra_Pradesh,Vijayawada,"Kanuru, Vijayawada - APPCB",08-01-2024 00:00:00,16.486692,80.699436,PM2.5,61,96,77
India,Andhra_Pradesh,Vijayawada,"Rajiv Gandhi Park, Vijayawada - APPCB",08-01-2024 00:00:00,16.509717,80.612222,CO,42,48,46
India,Arunachal_Pradesh,Naharlagun,"Naharlagun, Naharlagun - APSPCB",08-01-2024 00:00:00,27.103358,93.679645,NO2,2,2,2
India,Arunachal_Pradesh,Naharlagun,"Naharlagun, Naharlagun - APSPCB",08-01-2024 00:00:00,27.103358,93.679645,SO2,3,3,3
India,Arunachal_Pradesh,Naharlagun,"Naharlagun, Naharlagun - APSPCB",08-01-2024 00:00:00,27.103358,93.679645,OZONE,2,2,2
India,Assam,Byrnihat,"Central Academy for SFS, Byrnihat - PCBA",08-01-2024 00:00:00,26.071318,91.87488,PM10,37,431,228
India,Assam,Byrnihat,"Central Academy for SFS, Byrnihat - PCBA",08-01-2024 00:00:00,26.071318,91.87488,OZONE,6,7,6
India,Assam,Guwahati,"LGBI Airport, Guwahati - PCBA",08-01-2024 00:00:00,26.10887,91.589544,OZONE,2,118,26
India,Assam,Guwahati,"Pan Bazaar, Guwahati - PCBA",08-01-2024 00:00:00,26.187500,91.744194,SO2,56,104,69
India,Assam,Guwahati,"Railway Colony, Guwahati - PCBA",08-01-2024 00:00:00,26.181742,91.78063,CO,NA,NA,NA
India,Assam,Nagaon,"Christianpatty, Nagaon - PCBA",08-01-2024 00:00:00,26.349082,92.68449,NH3,3,7,4
India,Assam,Nalbari,"Bata Chowk, Nalbari - PCBA",08-01-2024 00:00:00,26.446912,91.439057,PM10,111,500,258
India,Assam,Nalbari,"Bata Chowk, Nalbari - PCBA",08-01-2024 00:00:00,26.446912,91.439057,NO2,29,76,57
India,Assam,Silchar,"Tarapur, Silchar - PCBA",08-01-2024 00:00:00,24.82827,92.79525,PM2.5,32,38,35
India,Assam,Silchar,"Tarapur, Silchar - PCBA",08-01-2024 00:00:00,24.82827,92.79525,PM10,50,66,56
India,Assam,Silchar,"Tarapur, Silchar - PCBA",08-01-2024 00:00:00,24.82827,92.79525,NO2,25,36,29
India,Assam,Silchar,"Tarapur, Silchar - PCBA",08-01-2024 00:00:00,24.82827,92.79525,CO,25,36,32
India,Assam,Sivasagar,"Girls College, Sivasagar - PCBA",08-01-2024 00:00:00,26.987634,94.636574,PM10,23,94,56
India,Bihar,Araria,"Kharahiya Basti, Araria - BSPCB",08-01-2024 00:00:00,26.146529,87.454184,PM10,135,407,276
India,Bihar,Araria,"Kharahiya Basti, Araria - BSPCB",08-01-2024 00:00:00,26.146529,87.454184,NH3,6,8,7
India,Bihar,Arrah,"New DM Office, Arrah - BSPCB",08-01-2024 00:00:00,25.5626095,84.663264,PM2.5,110,368,253
India,Bihar,Arrah,"New DM Office, Arrah - BSPCB",08-01-2024 00:00:00,25.5626095,84.663264,PM10,99,311,168
India,Bihar,Arrah,"New DM Office, Arrah - BSPCB",08-01-2024 00:00:00,25.5626095,84.663264,NO2,17,111,39
India,Bihar,Arrah,"New DM Office, Arrah - BSPCB",08-01-2024 00:00:00,25.5626095,84.663264,NH3,6,12,8
India,Bihar,Aurangabad,"Gurdeo Nagar, Aurangabad - BSPCB",08-01-2024 00:00:00,24.75746,84.366208,NO2,8,14,10
India,Bihar,Aurangabad,"Gurdeo Nagar, Aurangabad - BSPCB",08-01-2024 00:00:00,24.75746,84.366208,SO2,NA,NA,NA
India,Bihar,Bihar Sharif,"D M Colony, Bihar Sharif - BSPCB",08-01-2024 00:00:00,25.204762,85.514960,PM10,NA,NA,NA
India,Bihar,Bihar Sharif,"D M Colony, Bihar Sharif - BSPCB",08-01-2024 00:00:00,25.204762,85.514960,NH3,NA,NA,NA
India,Bihar,Bihar Sharif,"D M Colony, Bihar Sharif - BSPCB",08-01-2024 00:00:00,25.204762,85.514960,CO,21,21,21
India,Bihar,Chhapra,"Darshan Nagar, Chhapra - BSPCB",08-01-2024 00:00:00,25.7808257,84.7446768,SO2,16,42,31
India,Bihar,Gaya,"Collectorate, Gaya - BSPCB",08-01-2024 00:00:00,24.7955,84.9994,SO2,19,24,21
India,Bihar,Gaya,"Collectorate, Gaya - BSPCB",08-01-2024 00:00:00,24.7955,84.9994,OZONE,53,86,62
India,Bihar,Gaya,"SFTI Kusdihra, Gaya - BSPCB",08-01-2024 00:00:00,24.762518,84.982348,NO2,13,33,20
India,Bihar,Hajipur,"Industrial Area, Hajipur - BSPCB",08-01-2024 00:00:00,25.697189,85.245900,CO,45,86,56
India,Bihar,Hajipur,"Industrial Area, Hajipur - BSPCB",08-01-2024 00:00:00,25.697189,85.245900,OZONE,6,82,20
India,Bihar,Katihar,"Mirchaibari, Katihar - BSPCB",08-01-2024 00:00:00,25.560083,87.553265,SO2,17,22,20
India,Bihar,Kishanganj,"SDM Office_Khagra, Kishanganj - BSPCB",08-01-2024 00:00:00,26.0881305,87.93840336,OZONE,18,28,19
India,Bihar,Manguraha,"Forest Rest House, Manguraha - BSPCB",08-01-2024 00:00:00,27.308328,84.531742,OZONE,2,62,25
India,Bihar,Motihari,"Gandak Colony, Motihari - BSPCB",08-01-2024 00:00:00,26.63086,84.90051,CO,10,110,60
India,Bihar,Munger,"Town Hall, Munger - BSPCB",08-01-2024 00:00:00,25.376776,86.471523,SO2,31,46,41
India,Bihar,Munger,"Town Hall, Munger - BSPCB",08-01-2024 00:00:00,25.376776,86.471523,CO,5,38,24
India,Bihar,Munger,"Town Hall, Munger - BSPCB",08-01-2024 00:00:00,25.376776,86.471523,OZONE,10,41,17
India,Bihar,Muzaffarpur,"Buddha Colony, Muzaffarpur - BSPCB",08-01-2024 00:00:00,26.11442,85.39813,OZONE,27,62,40
India,Bihar,Muzaffarpur,"MIT-Daudpur Kothi, Muzaffarpur - BSPCB",08-01-2024 00:00:00,26.1403345,85.3650192,NH3,7,10,9
India,Bihar,Muzaffarpur,"Muzaffarpur Collectorate, Muzaffarpur - BSPCB",08-01-2024 00:00:00,26.1209,85.3647,SO2,4,7,5
India,Bihar,Muzaffarpur,"Muzaffarpur Collectorate, Muzaffarpur - BSPCB",08-01-2024 00:00:00,26.1209,85.3647,CO,21,64,58
India,Bihar,Patna,"Govt. High School Shikarpur, Patna - BSPCB",08-01-2024 00:00:00,25.592539,85.227158,PM2.5,45,258,136
India,Bihar,Patna,"Govt. High School Shikarpur, Patna - BSPCB",08-01-2024 00:00:00,25.592539,85.227158,CO,16,94,47
India,Bihar,Patna,"Muradpur, Patna - BSPCB",08-01-2024 00:00:00,25.619651,85.147382,PM2.5,NA,NA,NA
India,Bihar,Patna,"Muradpur, Patna - BSPCB",08-01-2024 00:00:00,25.619651,85.147382,SO2,1,13,6
India,Bihar,Rajgir,"Dangi Tola, Rajgir - BSPCB",08-01-2024 00:00:00,25.03280,85.41948,PM10,185,301,226
India,Bihar,Saharsa,"Police Line, Saharsa - BSPCB",08-01-2024 00:00:00,25.892357,86.590325,NO2,6,8,7
India,Bihar,Samastipur,"DM Office_Kasipur, Samastipur - BSPCB",08-01-2024 00:00:00,25.859655,85.77944,NO2,3,9,4
India,Bihar,Sasaram,"Dada Peer, Sasaram - BSPCB",08-01-2024 00:00:00,24.952822,84.002396,NO2,4,17,10
India,Bihar,Sasaram,"Dada Peer, Sasaram - BSPCB",08-01-2024 00:00:00,24.952822,84.002396,SO2,7,118,23
India,Chandigarh,Chandigarh,"Sector 22, Chandigarh - CPCC",08-01-2024 00:00:00,30.735567,76.775714,SO2,1,2,1
India,Chandigarh,Chandigarh,"Sector-25, Chandigarh - CPCC",08-01-2024 00:00:00,30.751462,76.762879,OZONE,1,55,2
India,Chandigarh,Chandigarh,"Sector-53, Chandigarh - CPCC",08-01-2024 00:00:00,30.719859,76.738637,PM10,92,185,137
India,Chandigarh,Chandigarh,"Sector-53, Chandigarh - CPCC",08-01-2024 00:00:00,30.719859,76.738637,CO,71,92,84
India,Chhattisgarh,Bhilai,"32Bungalows, Bhilai - CECB",08-01-2024 00:00:00,21.194815,81.314770,PM2.5,96,185,123
India,Chhattisgarh,Bhilai,"Hathkhoj, Bhilai - CECB",08-01-2024 00:00:00,21.224231,81.408350,NO2,35,61,48
India,Chhattisgarh,Bhilai,"Hathkhoj, Bhilai - CECB",08-01-2024 00:00:00,21.224231,81.408350,SO2,10,65,30
India,Chhattisgarh,Bilaspur,"Mangala, Bilaspur - NTPC",08-01-2024 00:00:00,22.08815,82.13737,PM2.5,51,86,68
India,Chhattisgarh,Bilaspur,"Mangala, Bilaspur - NTPC",08-01-2024 00:00:00,22.08815,82.13737,NO2,11,11,11
India,Chhattisgarh,Bilaspur,"Mangala, Bilaspur - NTPC",08-01-2024 00:00:00,22.08815,82.13737,CO,32,36,36
India,Chhattisgarh,Chhal,"Nawapara SECL Colony, Chhal - CECB",08-01-2024 00:00:00,22.118125,83.140608,NO2,12,44,23
India,Chhattisgarh,Chhal,"Nawapara SECL Colony, Chhal - CECB",08-01-2024 00:00:00,22.118125,83.140608,SO2,5,79,23
India,Chhattisgarh,Korba,"Rampur, Korba - CECB",08-01-2024 00:00:00,22.368195,82.746431,NH3,NA,NA,NA
India,Chhattisgarh,Korba,"Urja Nagar, Korba - CECB",08-01-2024 00:00:00,22.348441,82.549611,PM10,54,71,63
India,Chhattisgarh,Milupara,"Govt. Higher Secondary School, Milupara - CECB",08-01-2024 00:00:00,22.1910172,83.5197009,PM2.5,63,84,72
India,Chhattisgarh,Raipur,"AIIMS, Raipur - CECB",08-01-2024 00:00:00,21.258815,81.578979,PM2.5,52,231,105
India,Chhattisgarh,Raipur,"Bhatagaon New ISBT, Raipur - CECB",08-01-2024 00:00:00,21.219665,81.630094,OZONE,3,4,3
India,Chhattisgarh,Raipur,"Krishak Nagar, Raipur - CECB",08-01-2024 00:00:00,21.237755,81.705301,NO2,25,38,31
India,Chhattisgarh,Raipur,"Krishak Nagar, Raipur - CECB",08-01-2024 00:00:00,21.237755,81.705301,SO2,7,11,9
India,Chhattisgarh,Raipur,"Krishak Nagar, Raipur - CECB",08-01-2024 00:00:00,21.237755,81.705301,OZONE,2,5,3
India,Delhi,Delhi,"Alipur, Delhi - DPCC",08-01-2024 00:00:00,28.815329,77.153010,PM10,148,251,182
India,Delhi,Delhi,"Alipur, Delhi - DPCC",08-01-2024 00:00:00,28.815329,77.153010,NH3,7,8,8
India,Delhi,Delhi,"Alipur, Delhi - DPCC",08-01-2024 00:00:00,28.815329,77.153010,SO2,5,10,7
India,Delhi,Delhi,"Anand Vihar, Delhi - DPCC",08-01-2024 00:00:00,28.647622,77.3158090,CO,112,129,121
India,Delhi,Delhi,"Aya Nagar, Delhi - IMD",08-01-2024 00:00:00,28.4706914,77.1099364,PM2.5,97,322,198
India,Delhi,Delhi,"Bawana, Delhi - DPCC",08-01-2024 00:00:00,28.776200,77.051074,NH3,6,11,8
India,Delhi,Delhi,"Bawana, Delhi - DPCC",08-01-2024 00:00:00,28.776200,77.051074,SO2,5,8,6
India,Delhi,Delhi,"Bawana, Delhi - DPCC",08-01-2024 00:00:00,28.776200,77.051074,CO,44,80,65
India,Delhi,Delhi,"Bawana, Delhi - DPCC",08-01-2024 00:00:00,28.776200,77.051074,OZONE,4,60,25
India,Delhi,Delhi,"Burari Crossing, Delhi - IMD",08-01-2024 00:00:00,28.7256504,77.2011573,PM2.5,267,380,316
India,Delhi,Delhi,"Burari Crossing, Delhi - IMD",08-01-2024 00:00:00,28.7256504,77.2011573,PM10,166,375,235
India,Delhi,Delhi,"Burari Crossing, Delhi - IMD",08-01-2024 00:00:00,28.7256504,77.2011573,NO2,9,17,12
India,Delhi,Delhi,"DTU, Delhi - CPCB",08-01-2024 00:00:00,28.7500499,77.1112615,PM10,198,433,287
India,Delhi,Delhi,"DTU, Delhi - CPCB",08-01-2024 00:00:00,28.7500499,77.1112615,NO2,15,50,34
India,Delhi,Delhi,"DTU, Delhi - CPCB",08-01-2024 00:00:00,28.7500499,77.1112615,SO2,28,29,29
India,Delhi,Delhi,"DTU, Delhi - CPCB",08-01-2024 00:00:00,28.7500499,77.1112615,CO,35,75,46
India,Delhi,Delhi,"Dr. Karni Singh Shooting Range, Delhi - DPCC",08-01-2024 00:00:00,28.498571,77.264840,NO2,39,124,68
India,Delhi,Delhi,"IGI Airport (T3), Delhi - IMD",08-01-2024 00:00:00,28.5627763,77.1180053,PM10,119,245,152
India,Delhi,Delhi,"IHBAS, Dilshad Garden, Delhi - CPCB",08-01-2024 00:00:00,28.6811736,77.3025234,OZONE,18,68,34
India,Delhi,Delhi,"Jahangirpuri, Delhi - DPCC",08-01-2024 00:00:00,28.732820,77.170633,PM2.5,320,482,373
India,Delhi,Delhi,"Jawaharlal Nehru Stadium, Delhi - DPCC",08-01-2024 00:00:00,28.580280,77.233829,NO2,54,104,77
India,Delhi,Delhi,"Lodhi Road, Delhi - IMD",08-01-2024 00:00:00,28.5918245,77.2273074,CO,67,98,82
India,Delhi,Delhi,"Mandir Marg, Delhi - DPCC",08-01-2024 00:00:00,28.636429,77.201067,SO2,1,5,3
India,Delhi,Delhi,"Mundka, Delhi - DPCC",08-01-2024 00:00:00,28.684678,77.076574,PM10,192,423,263
India,Delhi,Delhi,"NSIT Dwarka, Delhi - CPCB",08-01-2024 00:00:00,28.60909,77.0325413,PM10,120,421,226
India,Delhi,Delhi,"NSIT Dwarka, Delhi - CPCB",08-01-2024 00:00:00,28.60909,77.0325413,NO2,34,57,44
India,Delhi,Delhi,"NSIT Dwarka, Delhi - CPCB",08-01-2024 00:00:00,28.60909,77.0325413,SO2,8,11,10
India,Delhi,Delhi,"NSIT Dwarka, Delhi - CPCB",08-01-2024 00:00:00,28.60909,77.0325413,CO,6,132,38
India,Delhi,Delhi,"NSIT Dwarka, Delhi - CPCB",08-01-2024 00:00:00,28.60909,77.0325413,OZONE,18,84,37
India,Delhi,Delhi,"Najafgarh, Delhi - DPCC",08-01-2024 00:00:00,28.570173,76.933762,NH3,6,8,7
India,Delhi,Delhi,"Narela, Delhi - DPCC",08-01-2024 00:00:00,28.822836,77.101981,PM10,189,414,282
India,Delhi,Delhi,"Nehru Nagar, Delhi - DPCC",08-01-2024 00:00:00,28.567890,77.250515,PM2.5,309,500,385
India,Delhi,Delhi,"Nehru Nagar, Delhi - DPCC",08-01-2024 00:00:00,28.567890,77.250515,NO2,51,76,61
India,Delhi,Delhi,"Nehru Nagar, Delhi - DPCC",08-01-2024 00:00:00,28.567890,77.250515,NH3,26,38,28
India,Delhi,Delhi,"North Campus, DU, Delhi - IMD",08-01-2024 00:00:00,28.6573814,77.1585447,PM10,158,280,214
India,Delhi,Delhi,"North Campus, DU, Delhi - IMD",08-01-2024 00:00:00,28.6573814,77.1585447,OZONE,17,41,22
India,Delhi,Delhi,"Okhla Phase-2, Delhi - DPCC",08-01-2024 00:00:00,28.530785,77.271255,NH3,11,15,13
India,Delhi,Delhi,"Okhla Phase-2, Delhi - DPCC",08-01-2024 00:00:00,28.530785,77.271255,SO2,8,15,11
India,Delhi,Delhi,"Punjabi Bagh, Delhi - DPCC",08-01-2024 00:00:00,28.674045,77.131023,CO,28,82,49
India,Delhi,Delhi,"Rohini, Delhi - DPCC",08-01-2024 00:00:00,28.732528,77.119920,PM2.5,338,451,367
India,Delhi,Delhi,"Rohini, Delhi - DPCC",08-01-2024 00:00:00,28.732528,77.119920,NH3,7,11,9
India,Delhi,Delhi,"Shadipur, Delhi - CPCB",08-01-2024 00:00:00,28.6514781,77.1473105,SO2,18,43,25
India,Delhi,Delhi,"Shadipur, Delhi - CPCB",08-01-2024 00:00:00,28.6514781,77.1473105,OZONE,13,29,21
India,Delhi,Delhi,"Sirifort, Delhi - CPCB",08-01-2024 00:00:00,28.5504249,77.2159377,PM2.5,296,397,344
India,Delhi,Delhi,"Sonia Vihar, Delhi - DPCC",08-01-2024 00:00:00,28.710508,77.249485,CO,50,112,82
India,Delhi,Delhi,"Sri Aurobindo Marg, Delhi - DPCC",08-01-2024 00:00:00,28.531346,77.190156,CO,22,65,40
India,Delhi,Delhi,"Vivek Vihar, Delhi - DPCC",08-01-2024 00:00:00,28.672342,77.315260,PM2.5,312,437,374
India,Delhi,Delhi,"Vivek Vihar, Delhi - DPCC",08-01-2024 00:00:00,28.672342,77.315260,NO2,39,87,65
India,Delhi,Delhi,"Vivek Vihar, Delhi - DPCC",08-01-2024 00:00:00,28.672342,77.315260,CO,20,106,74
India,Delhi,Delhi,"Wazirpur, Delhi - DPCC",08-01-2024 00:00:00,28.699793,77.165453,NO2,89,210,159
India,Delhi,Delhi,"Wazirpur, Delhi - DPCC",08-01-2024 00:00:00,28.699793,77.165453,NH3,4,6,5
India,Gujarat,Ahmedabad,"Chandkheda, Ahmedabad - IITM",08-01-2024 00:00:00,23.107969,72.574648,NH3,3,3,3
India,Gujarat,Ahmedabad,"Chandkheda, Ahmedabad - IITM",08-01-2024 00:00:00,23.107969,72.574648,SO2,3,4,4
India,Gujarat,Ahmedabad,"Gyaspur, Ahmedabad - IITM",08-01-2024 00:00:00,22.977134,72.553024,PM2.5,81,278,147
India,Gujarat,Ahmedabad,"Gyaspur, Ahmedabad - IITM",08-01-2024 00:00:00,22.977134,72.553024,PM10,85,161,122
India,Gujarat,Ahmedabad,"Gyaspur, Ahmedabad - IITM",08-01-2024 00:00:00,22.977134,72.553024,SO2,3,5,3
India,Gujarat,Ahmedabad,"SAC ISRO Bopal, Ahmedabad - IITM",08-01-2024 00:00:00,23.041137,72.456691,PM10,70,134,99
India,Gujarat,Ahmedabad,"SAC ISRO Bopal, Ahmedabad - IITM",08-01-2024 00:00:00,23.041137,72.456691,SO2,5,8,8
India,Gujarat,Ahmedabad,"SAC ISRO Bopal, Ahmedabad - IITM",08-01-2024 00:00:00,23.041137,72.456691,OZONE,2,7,4
India,Gujarat,Ahmedabad,"SAC ISRO Satellite, Ahmedabad - IITM",08-01-2024 00:00:00,23.023389,72.515201,PM10,66,109,76
India,Gujarat,Ahmedabad,"SAC ISRO Satellite, Ahmedabad - IITM",08-01-2024 00:00:00,23.023389,72.515201,NH3,2,4,3
India,Gujarat,Ahmedabad,"Sardar Vallabhbhai Patel Stadium, Ahmedabad - IITM",08-01-2024 00:00:00,23.043070,72.562968,SO2,1,2,2
India,Gujarat,Ankleshwar,"GIDC, Ankleshwar - GPCB",08-01-2024 00:00:00,21.613267,73.010555,PM10,67,109,88
India,Gujarat,Ankleshwar,"GIDC, Ankleshwar - GPCB",08-01-2024 00:00:00,21.613267,73.010555,CO,58,88,72
India,Gujarat,Ankleshwar,"GIDC, Ankleshwar - GPCB",08-01-2024 00:00:00,21.613267,73.010555,OZONE,20,28,25
India,Gujarat,Gandhinagar,"IIPHG Lekawada, Gandhinagar - IITM",08-01-2024 00:00:00,23.243639,72.68994,SO2,5,10,6
India,Gujarat,Gandhinagar,"IIPHG Lekawada, Gandhinagar - IITM",08-01-2024 00:00:00,23.243639,72.68994,CO,22,34,25
India,Gujarat,Vapi,"Phase-1 GIDC, Vapi - GPCB",08-01-2024 00:00:00,20.362421,72.918013,PM10,128,312,169
India,Haryana,Ambala,"Patti Mehar, Ambala - HSPCB",08-01-2024 00:00:00,30.379589,76.778328,NH3,5,12,8
India,Haryana,Ambala,"Patti Mehar, Ambala - HSPCB",08-01-2024 00:00:00,30.379589,76.778328,OZONE,18,34,27
India,Haryana,Ballabgarh,"Nathu Colony, Ballabgarh - HSPCB",08-01-2024 00:00:00,28.3419248,77.319699,NO2,12,14,13
India,Haryana,Bhiwani,"H.B. Colony, Bhiwani - HSPCB",08-01-2024 00:00:00,28.806223,76.141105,NH3,2,6,6
India,Haryana,Charkhi Dadri,"Mini Secretariat, Charkhi Dadri - HSPCB",08-01-2024 00:00:00,28.593883,76.270653,SO2,9,21,12
India,Haryana,Dharuhera,"Municipal Corporation Office, Dharuhera -  HSPCB",08-01-2024 00:00:00,28.206800,76.799700,SO2,6,36,15
India,Haryana,Faridabad,"New Industrial Town, Faridabad - HSPCB",08-01-2024 00:00:00,28.39072,77.30059,PM10,166,373,242
India,Haryana,Faridabad,"New Industrial Town, Faridabad - HSPCB",08-01-2024 00:00:00,28.39072,77.30059,CO,46,56,51
India,Haryana,Faridabad,"Sector 11, Faridabad - HSPCB",08-01-2024 00:00:00,28.376058,77.315741,PM10,96,500,191
India,Haryana,Faridabad,"Sector 30, Faridabad - HSPCB",08-01-2024 00:00:00,28.4417,77.3217,SO2,NA,NA,NA
India,Haryana,Faridabad,"Sector- 16A, Faridabad - HSPCB",08-01-2024 00:00:00,28.4088421,77.3099081,NO2,14,59,34
India,Haryana,Faridabad,"Sector- 16A, Faridabad - HSPCB",08-01-2024 00:00:00,28.4088421,77.3099081,SO2,14,25,22
India,Haryana,Fatehabad,"Huda Sector, Fatehabad - HSPCB",08-01-2024 00:00:00,29.503664,75.467934,NO2,28,31,30
India,Haryana,Fatehabad,"Huda Sector, Fatehabad - HSPCB",08-01-2024 00:00:00,29.503664,75.467934,OZONE,23,28,24
India,Haryana,Gurugram,"Teri Gram, Gurugram - HSPCB",08-01-2024 00:00:00,28.4275,77.1465,PM2.5,95,263,163
India,Haryana,Gurugram,"Teri Gram, Gurugram - HSPCB",08-01-2024 00:00:00,28.4275,77.1465,PM10,92,165,128
India,Haryana,Gurugram,"Teri Gram, Gurugram - HSPCB",08-01-2024 00:00:00,28.4275,77.1465,NH3,38,58,47
India,Haryana,Gurugram,"Vikas Sadan, Gurugram - HSPCB",08-01-2024 00:00:00,28.4501238,77.0263051,PM2.5,50,112,78
India,Haryana,Gurugram,"Vikas Sadan, Gurugram - HSPCB",08-01-2024 00:00:00,28.4501238,77.0263051,SO2,22,32,28
India,Haryana,Hisar,"Urban Estate-II, Hisar - HSPCB",08-01-2024 00:00:00,29.140560,75.744941,PM2.5,76,119,92
India,Haryana,Hisar,"Urban Estate-II, Hisar - HSPCB",08-01-2024 00:00:00,29.140560,75.744941,PM10,76,107,89
India,Haryana,Jind,"Police Lines, Jind - HSPCB",08-01-2024 00:00:00,29.307814,76.337619,PM10,NA,NA,NA
India,Haryana,Jind,"Police Lines, Jind - HSPCB",08-01-2024 00:00:00,29.307814,76.337619,NO2,NA,NA,NA
India,Haryana,Kaithal,"Rishi Nagar, Kaithal - HSPCB",08-01-2024 00:00:00,29.8006,76.4155,CO,24,48,41
India,Haryana,Kaithal,"Rishi Nagar, Kaithal - HSPCB",08-01-2024 00:00:00,29.8006,76.4155,OZONE,6,10,7
India,Haryana,Karnal,"Sector-12, Karnal - HSPCB",08-01-2024 00:00:00,29.695300,77.002700,NH3,10,13,11
India,Haryana,Karnal,"Sector-12, Karnal - HSPCB",08-01-2024 00:00:00,29.695300,77.002700,SO2,NA,NA,NA
India,Haryana,Kurukshetra,"Sector-7, Kurukshetra - HSPCB",08-01-2024 00:00:00,29.966942,76.875879,NO2,9,17,10
India,Haryana,Manesar,"Sector-2 IMT, Manesar - HSPCB",08-01-2024 00:00:00,28.360699,76.936090,OZONE,6,38,10
India,Haryana,Narnaul,"Shastri Nagar, Narnaul - HSPCB",08-01-2024 00:00:00,28.060249,76.113115,PM2.5,41,203,72
India,Haryana,Narnaul,"Shastri Nagar, Narnaul - HSPCB",08-01-2024 00:00:00,28.060249,76.113115,PM10,5,466,94
India,Haryana,Narnaul,"Shastri Nagar, Narnaul - HSPCB",08-01-2024 00:00:00,28.060249,76.113115,NO2,16,46,29
India,Haryana,Panchkula,"Sector-6, Panchkula - HSPCB ",08-01-2024 00:00:00,30.7057778,76.8531805555555,OZONE,40,59,53
India,Haryana,Panipat,"Sector-18, Panipat - HSPCB",08-01-2024 00:00:00,29.497973,76.993331,PM10,168,177,173
India,Haryana,Panipat,"Sector-18, Panipat - HSPCB",08-01-2024 00:00:00,29.497973,76.993331,CO,22,27,25
India,Haryana,Sirsa,"F-Block, Sirsa - HSPCB",08-01-2024 00:00:00,29.536400,75.015800,NH3,5,13,12
India,Haryana,Sirsa,"F-Block, Sirsa - HSPCB",08-01-2024 00:00:00,29.536400,75.015800,CO,32,62,45
India,Haryana,Sonipat,"Murthal, Sonipat - HSPCB",08-01-2024 00:00:00,29.027200,77.062100,PM2.5,222,314,277
India,Haryana,Sonipat,"Murthal, Sonipat - HSPCB",08-01-2024 00:00:00,29.027200,77.062100,NO2,37,44,40
India,Himachal Pradesh,Baddi,"HIMUDA Complex Phase-1, Baddi - HPPCB",08-01-2024 00:00:00,30.943887,76.801991,NO2,22,47,34
India,Himachal Pradesh,Baddi,"HIMUDA Complex Phase-1, Baddi - HPPCB",08-01-2024 00:00:00,30.943887,76.801991,CO,42,80,47
India,Jharkhand,Dhanbad,"Kalakusuma, Dhanbad - DMC",08-01-2024 00:00:00,23.811548,86.481238,OZONE,18,26,22
India,Jharkhand,Dhanbad,"Sardar Patel Nagar, Dhanbad - JSPCB",08-01-2024 00:00:00,23.80569,86.44268,PM10,NA,NA,NA
India,Jharkhand,Pathardih,"Mohalbani Ghat, Pathardih - DMC",08-01-2024 00:00:00,23.669880,86.411725,PM2.5,NA,NA,NA
India,Karnataka,Bagalkot,"Vidayagiri, Bagalkot - KSPCB",08-01-2024 00:00:00,16.172806,75.659694,PM2.5,23,44,43
India,Karnataka,Bagalkot,"Vidayagiri, Bagalkot - KSPCB",08-01-2024 00:00:00,16.172806,75.659694,NH3,1,2,1
India,Karnataka,Belgaum,"Ramteerth Nagar, Belgaum - KSPCB",08-01-2024 00:00:00,15.888653,74.541751,SO2,8,9,8
India,Karnataka,Belgaum,"Ramteerth Nagar, Belgaum - KSPCB",08-01-2024 00:00:00,15.888653,74.541751,OZONE,19,20,19
India,Karnataka,Bengaluru,"BTM Layout, Bengaluru - CPCB",08-01-2024 00:00:00,12.9135218,77.5950804,NH3,NA,NA,NA
India,Karnataka,Bengaluru,"Bapuji Nagar, Bengaluru - KSPCB",08-01-2024 00:00:00,12.951913,77.539784,PM2.5,44,76,57
India,Karnataka,Bengaluru,"Bapuji Nagar, Bengaluru - KSPCB",08-01-2024 00:00:00,12.951913,77.539784,CO,26,58,42
India,Karnataka,Bengaluru,"Hebbal, Bengaluru - KSPCB",08-01-2024 00:00:00,13.029152,77.585901,PM2.5,22,69,50
India,Karnataka,Bengaluru,"Hebbal, Bengaluru - KSPCB",08-01-2024 00:00:00,13.029152,77.585901,PM10,51,69,60
India,Karnataka,Bengaluru,"Jigani, Bengaluru - KSPCB",08-01-2024 00:00:00,12.7816279,77.6299145,NO2,40,41,40
India,Karnataka,Bengaluru,"Jigani, Bengaluru - KSPCB",08-01-2024 00:00:00,12.7816279,77.6299145,OZONE,30,60,40
India,Karnataka,Bengaluru,"Peenya, Bengaluru - CPCB",08-01-2024 00:00:00,13.0270199,77.494094,NO2,21,29,24
India,Karnataka,Bengaluru,"Peenya, Bengaluru - CPCB",08-01-2024 00:00:00,13.0270199,77.494094,OZONE,41,42,41
India,Karnataka,Bengaluru,"Shivapura_Peenya, Bengaluru - KSPCB",08-01-2024 00:00:00,13.0246342,77.5080115,PM2.5,2,58,20
India,Karnataka,Bengaluru,"Shivapura_Peenya, Bengaluru - KSPCB",08-01-2024 00:00:00,13.0246342,77.5080115,SO2,5,7,6
India,Karnataka,Bengaluru,"Silk Board, Bengaluru - KSPCB",08-01-2024 00:00:00,12.917348,77.622813,PM2.5,31,48,42
India,Karnataka,Bidar,"Naubad, Bidar - KSPCB",08-01-2024 00:00:00,17.930306,77.482194,NH3,2,3,3
India,Karnataka,Chikkaballapur,"Chikkaballapur Rural, Chikkaballapur - KSPCB",08-01-2024 00:00:00,13.428828,77.731418,NH3,1,1,1
India,Karnataka,Chikkamagaluru,"Kalyana Nagara, Chikkamagaluru - KSPCB",08-01-2024 00:00:00,13.328028,75.797056,PM2.5,7,36,21
India,Karnataka,Chikkamagaluru,"Kalyana Nagara, Chikkamagaluru - KSPCB",08-01-2024 00:00:00,13.328028,75.797056,NO2,18,29,21
India,Karnataka,Chikkamagaluru,"Kalyana Nagara, Chikkamagaluru - KSPCB",08-01-2024 00:00:00,13.328028,75.797056,NH3,3,4,4
India,Karnataka,Chikkamagaluru,"Kalyana Nagara, Chikkamagaluru - KSPCB",08-01-2024 00:00:00,13.328028,75.797056,SO2,1,3,1
India,Karnataka,Chikkamagaluru,"Kalyana Nagara, Chikkamagaluru - KSPCB",08-01-2024 00:00:00,13.328028,75.797056,OZONE,11,18,15
India,Karnataka,Davanagere,"Devaraj Urs Badavane, Davanagere - KSPCB",08-01-2024 00:00:00,14.475800,75.905200,PM10,24,110,46
India,Karnataka,Gadag,"Panchal Nagar, Gadag - KSPCB",08-01-2024 00:00:00,15.411456,75.638133,NO2,7,24,12
India,Karnataka,Gadag,"Panchal Nagar, Gadag - KSPCB",08-01-2024 00:00:00,15.411456,75.638133,CO,46,60,47
India,Karnataka,Hassan,"B.Katihalli, Hassan - KSPCB",08-01-2024 00:00:00,13.008556,76.125258,PM2.5,18,75,46
India,Karnataka,Haveri,"Ashwini Nagar, Haveri - KSPCB",08-01-2024 00:00:00,14.791800,75.389600,NO2,21,58,33
India,Karnataka,Haveri,"Ashwini Nagar, Haveri - KSPCB",08-01-2024 00:00:00,14.791800,75.389600,SO2,13,14,13
India,Karnataka,Haveri,"Ashwini Nagar, Haveri - KSPCB",08-01-2024 00:00:00,14.791800,75.389600,CO,31,34,32
India,Karnataka,Hubballi,"Deshpande Nagar, Hubballi - KSPCB",08-01-2024 00:00:00,15.351773,75.140726,OZONE,9,36,31
India,Karnataka,Hubballi,"Lingaraj Nagar, Hubballi - KSPCB",08-01-2024 00:00:00,15.3714823,75.1160168,NH3,2,2,2
India,Karnataka,Kalaburagi,"Mahatma Basaveswar Colony, Kalaburgi - KSPCB",08-01-2024 00:00:00,17.336318,76.847397,PM2.5,21,81,42
India,Karnataka,Kalaburagi,"Mahatma Basaveswar Colony, Kalaburgi - KSPCB",08-01-2024 00:00:00,17.336318,76.847397,PM10,35,87,56
India,Karnataka,Kalaburagi,"Mahatma Basaveswar Colony, Kalaburgi - KSPCB",08-01-2024 00:00:00,17.336318,76.847397,NH3,2,3,2
India,Karnataka,Karwar,"KHB Colony, Karwar - KSPCB",08-01-2024 00:00:00,14.816666,74.141003,SO2,18,20,19
India,Karnataka,Koppal,"Diwator Nagar, Koppal - KSPCB",08-01-2024 00:00:00,15.347630,76.181767,OZONE,26,47,37
India,Karnataka,Mangalore,"Kadri, Mangalore - KSPCB",08-01-2024 00:00:00,12.889250,74.853000,SO2,NA,NA,NA
India,Karnataka,Mysuru,"Hebbal 1st Stage, Mysuru - KSPCB",08-01-2024 00:00:00,12.21041,76.37376,NH3,1,3,2
India,Karnataka,Mysuru,"Hebbal 1st Stage, Mysuru - KSPCB",08-01-2024 00:00:00,12.21041,76.37376,CO,11,101,36
India,Karnataka,Raichur,"Haji Colony, Raichur - KSPCB",08-01-2024 00:00:00,16.208139,77.348417,CO,84,105,103
