country,state,city,station,last_update,latitude,longitude,pollutant_id,pollutant_min,pollutant_max,pollutant_avg
India,Andhra_Pradesh,Amaravati,"Secretariat, Amaravati - APPCB",20-05-2024 18:00:00,16.5150833,80.5181667,PM2.5,2,37,18
India,Andhra_Pradesh,Anantapur,"Gulzarpet, Anantapur - APPCB",20-05-2024 18:00:00,14.675886,77.593027,OZONE,1,24,17
India,Andhra_Pradesh,Kadapa,"Yerramukkapalli, Kadapa - APPCB",20-05-2024 18:00:00,14.465052,78.824187,PM2.5,NA,NA,NA
India,Andhra_Pradesh,Kadapa,"Yerramukkapalli, Kadapa - APPCB",20-05-2024 18:00:00,14.465052,78.824187,NH3,NA,NA,NA
India,Andhra_Pradesh,Rajamahendravaram,"Anand Kala Kshetram, Rajamahendravaram - APPCB",20-05-2024 18:00:00,16.9872867,81.7363176,PM2.5,2,64,13
India,Andhra_Pradesh,Rajamahendravaram,"Anand Kala Kshetram, Rajamahendravaram - APPCB",20-05-2024 18:00:00,16.9872867,81.7363176,PM10,11,57,24
India,Andhra_Pradesh,Rajamahendravaram,"Anand Kala Kshetram, Rajamahendravaram - APPCB",20-05-2024 18:00:00,16.9872867,81.7363176,CO,24,68,47
India,Andhra_Pradesh,Tirupati,"Vaikuntapuram, Tirupati - APPCB",20-05-2024 18:00:00,13.615387,79.409230,PM2.5,NA,NA,NA
India,Andhra_Pradesh,Tirupati,"Vaikuntapuram, Tirupati - APPCB",20-05-2024 18:00:00,13.615387,79.409230,CO,11,13,12
India,Andhra_Pradesh,Vijayawada,"HB Colony, Vijayawada - APPCB",20-05-2024 18:00:00,16.536107,80.594233,NH3,4,4,4
India,Andhra_Pradesh,Vijayawada,"Kanuru, Vijayawada - APPCB",20-05-2024 18:00:00,16.486692,80.699436,PM2.5,44,57,49
India,Andhra_Pradesh,Vijayawada,"Kanuru, Vijayawada - APPCB",20-05-2024 18:00:00,16.486692,80.699436,SO2,4,5,5
India,Andhra_Pradesh,Vijayawada,"Kanuru, Vijayawada - APPCB",20-05-2024 18:00:00,16.486692,80.699436,CO,40,40,40
India,Andhra_Pradesh,Vijayawada,"Rajiv Gandhi Park, Vijayawada - APPCB",20-05-2024 18:00:00,16.509717,80.612222,NH3,4,6,5
India,Andhra_Pradesh,Vijayawada,"Rajiv Gandhi Park, Vijayawada - APPCB",20-05-2024 18:00:00,16.509717,80.612222,CO,36,44,41
India,Andhra_Pradesh,Vijayawada,"Rajiv Nagar, Vijayawada - APPCB",20-05-2024 18:00:00,16.554731,80.649110,SO2,11,15,14
India,Andhra_Pradesh,Vijayawada,"Rajiv Nagar, Vijayawada - APPCB",20-05-2024 18:00:00,16.554731,80.649110,CO,36,36,36
India,Andhra_Pradesh,Visakhapatnam,"GVM Corporation, Visakhapatnam - APPCB",20-05-2024 18:00:00,17.72,83.3,SO2,7,16,12
India,Assam,Byrnihat,"Central Academy for SFS, Byrnihat - PCBA",20-05-2024 18:00:00,26.071318,91.87488,SO2,3,51,24
India,Assam,Byrnihat,"Central Academy for SFS, Byrnihat - PCBA",20-05-2024 18:00:00,26.071318,91.87488,OZONE,22,108,25
India,Assam,Guwahati,"IITG, Guwahati - PCBA",20-05-2024 18:00:00,26.2028636,91.70046436,PM2.5,16,53,34
India,Assam,Guwahati,"IITG, Guwahati - PCBA",20-05-2024 18:00:00,26.2028636,91.70046436,PM10,17,56,38
India,Assam,Guwahati,"LGBI Airport, Guwahati - PCBA",20-05-2024 18:00:00,26.10887,91.589544,PM2.5,3,347,72
India,Assam,Guwahati,"LGBI Airport, Guwahati - PCBA",20-05-2024 18:00:00,26.10887,91.589544,PM10,4,239,56
India,Assam,Guwahati,"LGBI Airport, Guwahati - PCBA",20-05-2024 18:00:00,26.10887,91.589544,CO,32,67,59
India,Assam,Guwahati,"Pan Bazaar, Guwahati - PCBA",20-05-2024 18:00:00,26.187500,91.744194,PM2.5,NA,NA,NA
India,Assam,Guwahati,"Railway Colony, Guwahati - PCBA",20-05-2024 18:00:00,26.181742,91.78063,PM2.5,NA,NA,NA
India,Assam,Guwahati,"Railway Colony, Guwahati - PCBA",20-05-2024 18:00:00,26.181742,91.78063,SO2,NA,NA,NA
India,Assam,Silchar,"Tarapur, Silchar - PCBA",20-05-2024 18:00:00,24.82827,92.79525,NH3,1,1,1
India,Assam,Silchar,"Tarapur, Silchar - PCBA",20-05-2024 18:00:00,24.82827,92.79525,SO2,1,9,6
India,Assam,Silchar,"Tarapur, Silchar - PCBA",20-05-2024 18:00:00,24.82827,92.79525,CO,15,40,36
India,Assam,Silchar,"Tarapur, Silchar - PCBA",20-05-2024 18:00:00,24.82827,92.79525,OZONE,1,9,6
India,Assam,Sivasagar,"Girls College, Sivasagar - PCBA",20-05-2024 18:00:00,26.987634,94.636574,PM2.5,28,73,42
India,Assam,Sivasagar,"Girls College, Sivasagar - PCBA",20-05-2024 18:00:00,26.987634,94.636574,NO2,8,17,11
India,Bihar,Araria,"Kharahiya Basti, Araria - BSPCB",20-05-2024 18:00:00,26.146529,87.454184,PM2.5,NA,NA,NA
India,Bihar,Araria,"Kharahiya Basti, Araria - BSPCB",20-05-2024 18:00:00,26.146529,87.454184,OZONE,NA,NA,NA
India,Bihar,Arrah,"New DM Office, Arrah - BSPCB",20-05-2024 18:00:00,25.5626095,84.663264,CO,12,25,19
India,Bihar,Arrah,"New DM Office, Arrah - BSPCB",20-05-2024 18:00:00,25.5626095,84.663264,OZONE,14,60,22
India,Bihar,Aurangabad,"Gurdeo Nagar, Aurangabad - BSPCB",20-05-2024 18:00:00,24.75746,84.366208,PM10,21,149,64
India,Bihar,Aurangabad,"Gurdeo Nagar, Aurangabad - BSPCB",20-05-2024 18:00:00,24.75746,84.366208,OZONE,54,130,98
India,Bihar,Bhagalpur,"Mayaganj, Bhagalpur - BSPCB",20-05-2024 18:00:00,25.265194,87.012947,NO2,3,11,7
India,Bihar,Bhagalpur,"Mayaganj, Bhagalpur - BSPCB",20-05-2024 18:00:00,25.265194,87.012947,NH3,7,9,8
India,Bihar,Bhagalpur,"Mayaganj, Bhagalpur - BSPCB",20-05-2024 18:00:00,25.265194,87.012947,SO2,11,12,12
India,Bihar,Bihar Sharif,"D M Colony, Bihar Sharif - BSPCB",20-05-2024 18:00:00,25.204762,85.514960,PM10,29,181,97
India,Bihar,Bihar Sharif,"D M Colony, Bihar Sharif - BSPCB",20-05-2024 18:00:00,25.204762,85.514960,NO2,9,10,9
India,Bihar,Buxar,"Charitra Van, Buxar - BSPCB (Formerly known as Central Jail)",20-05-2024 18:00:00,25.567520,83.966379,NH3,3,3,3
India,Bihar,Buxar,"Charitra Van, Buxar - BSPCB (Formerly known as Central Jail)",20-05-2024 18:00:00,25.567520,83.966379,CO,6,125,59
India,Bihar,Gaya,"Collectorate, Gaya - BSPCB",20-05-2024 18:00:00,24.7955,84.9994,NO2,2,4,3
India,Bihar,Gaya,"Kareemganj, Gaya - BSPCB",20-05-2024 18:00:00,24.792403,84.992416,SO2,6,10,8
India,Bihar,Gaya,"SFTI Kusdihra, Gaya - BSPCB",20-05-2024 18:00:00,24.762518,84.982348,PM10,46,92,66
India,Bihar,Gaya,"SFTI Kusdihra, Gaya - BSPCB",20-05-2024 18:00:00,24.762518,84.982348,SO2,8,10,9
India,Bihar,Manguraha,"Forest Rest House, Manguraha - BSPCB",20-05-2024 18:00:00,27.308328,84.531742,PM10,NA,NA,NA
India,Bihar,Manguraha,"Forest Rest House, Manguraha - BSPCB",20-05-2024 18:00:00,27.308328,84.531742,NO2,NA,NA,NA
India,Bihar,Motihari,"Gandak Colony, Motihari - BSPCB",20-05-2024 18:00:00,26.63086,84.90051,NO2,24,58,42
India,Bihar,Munger,"Town Hall, Munger - BSPCB",20-05-2024 18:00:00,25.376776,86.471523,PM2.5,NA,NA,NA
India,Bihar,Munger,"Town Hall, Munger - BSPCB",20-05-2024 18:00:00,25.376776,86.471523,NO2,4,6,5
India,Bihar,Munger,"Town Hall, Munger - BSPCB",20-05-2024 18:00:00,25.376776,86.471523,CO,38,88,58
India,Bihar,Muzaffarpur,"Buddha Colony, Muzaffarpur - BSPCB",20-05-2024 18:00:00,26.11442,85.39813,NO2,13,26,17
India,Bihar,Muzaffarpur,"Buddha Colony, Muzaffarpur - BSPCB",20-05-2024 18:00:00,26.11442,85.39813,NH3,7,12,10
India,Bihar,Muzaffarpur,"MIT-Daudpur Kothi, Muzaffarpur - BSPCB",20-05-2024 18:00:00,26.1403345,85.3650192,NO2,3,5,4
India,Bihar,Muzaffarpur,"MIT-Daudpur Kothi, Muzaffarpur - BSPCB",20-05-2024 18:00:00,26.1403345,85.3650192,NH3,1,1,1
India,Bihar,Muzaffarpur,"MIT-Daudpur Kothi, Muzaffarpur - BSPCB",20-05-2024 18:00:00,26.1403345,85.3650192,SO2,4,7,7
India,Bihar,Muzaffarpur,"Muzaffarpur Collectorate, Muzaffarpur - BSPCB",20-05-2024 18:00:00,26.1209,85.3647,SO2,6,12,7
India,Bihar,Muzaffarpur,"Muzaffarpur Collectorate, Muzaffarpur - BSPCB",20-05-2024 18:00:00,26.1209,85.3647,CO,22,50,34
India,Bihar,Muzaffarpur,"Muzaffarpur Collectorate, Muzaffarpur - BSPCB",20-05-2024 18:00:00,26.1209,85.3647,OZONE,60,106,87
India,Bihar,Patna,"DRM Office Danapur, Patna - BSPCB",20-05-2024 18:00:00,25.586562,85.043586,PM2.5,99,249,165
India,Bihar,Patna,"DRM Office Danapur, Patna - BSPCB",20-05-2024 18:00:00,25.586562,85.043586,OZONE,16,68,58
India,Bihar,Patna,"Govt. High School Shikarpur, Patna - BSPCB",20-05-2024 18:00:00,25.592539,85.227158,PM2.5,79,222,139
India,Bihar,Patna,"Govt. High School Shikarpur, Patna - BSPCB",20-05-2024 18:00:00,25.592539,85.227158,NO2,21,24,22
India,Bihar,Patna,"Govt. High School Shikarpur, Patna - BSPCB",20-05-2024 18:00:00,25.592539,85.227158,CO,34,50,37
India,Bihar,Patna,"IGSC Planetarium Complex, Patna - BSPCB",20-05-2024 18:00:00,25.610369,85.132568,NO2,9,10,10
India,Bihar,Patna,"IGSC Planetarium Complex, Patna - BSPCB",20-05-2024 18:00:00,25.610369,85.132568,CO,8,14,11
India,Bihar,Patna,"Muradpur, Patna - BSPCB",20-05-2024 18:00:00,25.619651,85.147382,PM2.5,165,356,276
India,Bihar,Patna,"Rajbansi Nagar, Patna - BSPCB",20-05-2024 18:00:00,25.599486,85.113666,PM10,112,415,175
India,Bihar,Patna,"Rajbansi Nagar, Patna - BSPCB",20-05-2024 18:00:00,25.599486,85.113666,NH3,2,4,3
India,Bihar,Patna,"Rajbansi Nagar, Patna - BSPCB",20-05-2024 18:00:00,25.599486,85.113666,CO,10,38,20
India,Bihar,Patna,"Samanpura, Patna - BSPCB",20-05-2024 18:00:00,25.596727,85.085624,NH3,6,14,10
India,Bihar,Patna,"Samanpura, Patna - BSPCB",20-05-2024 18:00:00,25.596727,85.085624,CO,46,63,48
India,Bihar,Purnia,"Mariam Nagar, Purnia - BSPCB",20-05-2024 18:00:00,25.366336,87.117468,PM2.5,17,73,45
India,Bihar,Purnia,"Mariam Nagar, Purnia - BSPCB",20-05-2024 18:00:00,25.366336,87.117468,CO,36,76,54
India,Bihar,Rajgir,"Dangi Tola, Rajgir - BSPCB",20-05-2024 18:00:00,25.03280,85.41948,NO2,14,18,17
India,Bihar,Rajgir,"Dangi Tola, Rajgir - BSPCB",20-05-2024 18:00:00,25.03280,85.41948,NH3,2,3,3
India,Bihar,Rajgir,"Dangi Tola, Rajgir - BSPCB",20-05-2024 18:00:00,25.03280,85.41948,SO2,3,5,4
India,Bihar,Saharsa,"Police Line, Saharsa - BSPCB",20-05-2024 18:00:00,25.892357,86.590325,CO,54,55,55
India,Bihar,Samastipur,"DM Office_Kasipur, Samastipur - BSPCB",20-05-2024 18:00:00,25.859655,85.77944,NH3,NA,NA,NA
India,Bihar,Siwan,"Chitragupta Nagar, Siwan - BSPCB",20-05-2024 18:00:00,26.2271665,84.3570427,PM2.5,NA,NA,NA
India,Bihar,Siwan,"Chitragupta Nagar, Siwan - BSPCB",20-05-2024 18:00:00,26.2271665,84.3570427,SO2,NA,NA,NA
India,Bihar,Siwan,"Chitragupta Nagar, Siwan - BSPCB",20-05-2024 18:00:00,26.2271665,84.3570427,CO,90,120,115
India,Chandigarh,Chandigarh,"Sector-25, Chandigarh - CPCC",20-05-2024 18:00:00,30.751462,76.762879,NH3,9,32,17
India,Chandigarh,Chandigarh,"Sector-25, Chandigarh - CPCC",20-05-2024 18:00:00,30.751462,76.762879,CO,20,62,27
India,Chandigarh,Chandigarh,"Sector-53, Chandigarh - CPCC",20-05-2024 18:00:00,30.719859,76.738637,PM2.5,52,318,149
India,Chandigarh,Chandigarh,"Sector-53, Chandigarh - CPCC",20-05-2024 18:00:00,30.719859,76.738637,SO2,8,38,15
India,Chhattisgarh,Bhilai,"32Bungalows, Bhilai - CECB",20-05-2024 18:00:00,21.194815,81.314770,PM10,25,64,41
India,Chhattisgarh,Bhilai,"Hathkhoj, Bhilai - CECB",20-05-2024 18:00:00,21.224231,81.408350,SO2,10,23,13
India,Chhattisgarh,Bilaspur,"Mangala, Bilaspur - NTPC",20-05-2024 18:00:00,22.08815,82.13737,PM2.5,20,58,34
India,Chhattisgarh,Chhal,"Nawapara SECL Colony, Chhal - CECB",20-05-2024 18:00:00,22.118125,83.140608,NO2,13,38,21
India,Chhattisgarh,Korba,"Rampur, Korba - CECB",20-05-2024 18:00:00,22.368195,82.746431,OZONE,9,46,25
India,Chhattisgarh,Korba,"Urja Nagar, Korba - CECB",20-05-2024 18:00:00,22.348441,82.549611,NO2,55,69,63
India,Chhattisgarh,Korba,"Urja Nagar, Korba - CECB",20-05-2024 18:00:00,22.348441,82.549611,CO,18,88,32
India,Chhattisgarh,Milupara,"Govt. Higher Secondary School, Milupara - CECB",20-05-2024 18:00:00,22.1910172,83.5197009,PM10,NA,NA,NA
India,Chhattisgarh,Raipur,"AIIMS, Raipur - CECB",20-05-2024 18:00:00,21.258815,81.578979,SO2,NA,NA,NA
India,Chhattisgarh,Raipur,"Bhatagaon New ISBT, Raipur - CECB",20-05-2024 18:00:00,21.219665,81.630094,NH3,2,2,2
India,Chhattisgarh,Raipur,"Siltara Phase-II, Raipur - CECB",20-05-2024 18:00:00,21.371751,81.664929,PM10,36,170,82
India,Chhattisgarh,Tumidih,"OP Jindal Industrial Park, Tumidih - CECB",20-05-2024 18:00:00,22.06631475,83.33820077,SO2,NA,NA,NA
India,Delhi,Delhi,"Alipur, Delhi - DPCC",20-05-2024 18:00:00,28.815329,77.153010,SO2,11,39,23
India,Delhi,Delhi,"Alipur, Delhi - DPCC",20-05-2024 18:00:00,28.815329,77.153010,CO,38,72,45
India,Delhi,Delhi,"Ashok Vihar, Delhi - DPCC",20-05-2024 18:00:00,28.695381,77.181665,PM2.5,38,342,128
India,Delhi,Delhi,"Aya Nagar, Delhi - IMD",20-05-2024 18:00:00,28.4706914,77.1099364,CO,33,75,56
India,Delhi,Delhi,"Bawana, Delhi - DPCC",20-05-2024 18:00:00,28.776200,77.051074,CO,31,84,43
India,Delhi,Delhi,"Burari Crossing, Delhi - IMD",20-05-2024 18:00:00,28.7256504,77.2011573,PM2.5,32,323,165
India,Delhi,Delhi,"CRRI Mathura Road, Delhi - IMD",20-05-2024 18:00:00,28.5512005,77.2735737,CO,16,84,29
India,Delhi,Delhi,"Chandni Chowk, Delhi - IITM",20-05-2024 18:00:00,28.656756,77.227234,PM2.5,146,352,231
India,Delhi,Delhi,"DTU, Delhi - CPCB",20-05-2024 18:00:00,28.7500499,77.1112615,CO,6,68,19
India,Delhi,Delhi,"Dr. Karni Singh Shooting Range, Delhi - DPCC",20-05-2024 18:00:00,28.498571,77.264840,PM2.5,40,297,133
India,Delhi,Delhi,"Dr. Karni Singh Shooting Range, Delhi - DPCC",20-05-2024 18:00:00,28.498571,77.264840,NO2,24,119,64
India,Delhi,Delhi,"Dr. Karni Singh Shooting Range, Delhi - DPCC",20-05-2024 18:00:00,28.498571,77.264840,OZONE,8,259,224
India,Delhi,Delhi,"Dwarka-Sector 8, Delhi - DPCC ",20-05-2024 18:00:00,28.5710274,77.0719006,PM10,159,499,253
India,Delhi,Delhi,"Dwarka-Sector 8, Delhi - DPCC ",20-05-2024 18:00:00,28.5710274,77.0719006,CO,32,107,42
India,Delhi,Delhi,"IGI Airport (T3), Delhi - IMD",20-05-2024 18:00:00,28.5627763,77.1180053,PM2.5,32,227,103
India,Delhi,Delhi,"IGI Airport (T3), Delhi - IMD",20-05-2024 18:00:00,28.5627763,77.1180053,CO,20,44,26
India,Delhi,Delhi,"IGI Airport (T3), Delhi - IMD",20-05-2024 18:00:00,28.5627763,77.1180053,OZONE,3,53,40
India,Delhi,Delhi,"IHBAS, Dilshad Garden, Delhi - CPCB",20-05-2024 18:00:00,28.6811736,77.3025234,PM10,131,188,162
India,Delhi,Delhi,"Jahangirpuri, Delhi - DPCC",20-05-2024 18:00:00,28.732820,77.170633,CO,32,117,45
India,Delhi,Delhi,"Lodhi Road, Delhi - IITM",20-05-2024 18:00:00,28.588333,77.221667,NO2,7,103,47
India,Delhi,Delhi,"Mandir Marg, Delhi - DPCC",20-05-2024 18:00:00,28.636429,77.201067,NH3,NA,NA,NA
India,Delhi,Delhi,"Mundka, Delhi - DPCC",20-05-2024 18:00:00,28.684678,77.076574,NO2,37,103,63
India,Delhi,Delhi,"Mundka, Delhi - DPCC",20-05-2024 18:00:00,28.684678,77.076574,CO,31,72,41
India,Delhi,Delhi,"NSIT Dwarka, Delhi - CPCB",20-05-2024 18:00:00,28.60909,77.0325413,NH3,11,12,11
India,Delhi,Delhi,"Najafgarh, Delhi - DPCC",20-05-2024 18:00:00,28.570173,76.933762,NO2,7,24,14
India,Delhi,Delhi,"Najafgarh, Delhi - DPCC",20-05-2024 18:00:00,28.570173,76.933762,OZONE,26,102,86
India,Delhi,Delhi,"Narela, Delhi - DPCC",20-05-2024 18:00:00,28.822836,77.101981,PM2.5,50,342,202
India,Delhi,Delhi,"Nehru Nagar, Delhi - DPCC",20-05-2024 18:00:00,28.567890,77.250515,NO2,8,67,35
India,Delhi,Delhi,"North Campus, DU, Delhi - IMD",20-05-2024 18:00:00,28.6573814,77.1585447,PM10,135,403,192
India,Delhi,Delhi,"North Campus, DU, Delhi - IMD",20-05-2024 18:00:00,28.6573814,77.1585447,OZONE,3,57,47
India,Delhi,Delhi,"Okhla Phase-2, Delhi - DPCC",20-05-2024 18:00:00,28.530785,77.271255,NH3,9,23,13
India,Delhi,Delhi,"Patparganj, Delhi - DPCC",20-05-2024 18:00:00,28.623763,77.287209,PM2.5,67,342,174
India,Delhi,Delhi,"Patparganj, Delhi - DPCC",20-05-2024 18:00:00,28.623763,77.287209,NH3,6,11,8
India,Delhi,Delhi,"Patparganj, Delhi - DPCC",20-05-2024 18:00:00,28.623763,77.287209,CO,26,50,32
India,Delhi,Delhi,"Punjabi Bagh, Delhi - DPCC",20-05-2024 18:00:00,28.674045,77.131023,NH3,5,6,6
India,Delhi,Delhi,"Pusa, Delhi - IMD",20-05-2024 18:00:00,28.636110,77.173332,OZONE,3,51,38
India,Delhi,Delhi,"Rohini, Delhi - DPCC",20-05-2024 18:00:00,28.732528,77.119920,NH3,10,30,14
India,Delhi,Delhi,"Rohini, Delhi - DPCC",20-05-2024 18:00:00,28.732528,77.119920,SO2,18,82,42
India,Delhi,Delhi,"Rohini, Delhi - DPCC",20-05-2024 18:00:00,28.732528,77.119920,CO,14,77,26
India,Delhi,Delhi,"Sirifort, Delhi - CPCB",20-05-2024 18:00:00,28.5504249,77.2159377,CO,9,71,22
India,Delhi,Delhi,"Sirifort, Delhi - CPCB",20-05-2024 18:00:00,28.5504249,77.2159377,OZONE,4,94,48
India,Delhi,Delhi,"Sonia Vihar, Delhi - DPCC",20-05-2024 18:00:00,28.710508,77.249485,PM10,123,398,206
India,Delhi,Delhi,"Sonia Vihar, Delhi - DPCC",20-05-2024 18:00:00,28.710508,77.249485,CO,48,102,63
India,Delhi,Delhi,"Sri Aurobindo Marg, Delhi - DPCC",20-05-2024 18:00:00,28.531346,77.190156,PM10,140,391,200
India,Delhi,Delhi,"Sri Aurobindo Marg, Delhi - DPCC",20-05-2024 18:00:00,28.531346,77.190156,SO2,14,58,27
India,Delhi,Delhi,"Vivek Vihar, Delhi - DPCC",20-05-2024 18:00:00,28.672342,77.315260,CO,20,98,29
India,Delhi,Delhi,"Vivek Vihar, Delhi - DPCC",20-05-2024 18:00:00,28.672342,77.315260,OZONE,1,182,112
India,Gujarat,Ahmedabad,"Chandkheda, Ahmedabad - IITM",20-05-2024 18:00:00,23.107969,72.574648,NO2,33,49,41
India,Gujarat,Ahmedabad,"Chandkheda, Ahmedabad - IITM",20-05-2024 18:00:00,23.107969,72.574648,SO2,1,32,13
India,Gujarat,Ahmedabad,"Gyaspur, Ahmedabad - IITM",20-05-2024 18:00:00,22.977134,72.553024,PM10,75,138,108
India,Gujarat,Ahmedabad,"Gyaspur, Ahmedabad - IITM",20-05-2024 18:00:00,22.977134,72.553024,OZONE,37,93,66
India,Gujarat,Ahmedabad,"Maninagar, Ahmedabad - GPCB",20-05-2024 18:00:00,23.002657,72.591912,NO2,31,89,43
India,Gujarat,Ahmedabad,"Maninagar, Ahmedabad - GPCB",20-05-2024 18:00:00,23.002657,72.591912,SO2,2,54,26
India,Gujarat,Ahmedabad,"Raikhad, Ahmedabad - IITM",20-05-2024 18:00:00,23.020509,72.579261,PM10,13,446,112
India,Gujarat,Ahmedabad,"Raikhad, Ahmedabad - IITM",20-05-2024 18:00:00,23.020509,72.579261,NH3,4,95,24
India,Gujarat,Ahmedabad,"Raikhad, Ahmedabad - IITM",20-05-2024 18:00:00,23.020509,72.579261,CO,2,48,22
India,Gujarat,Ahmedabad,"Rakhial, Ahmedabad - IITM",20-05-2024 18:00:00,23.016834,72.625775,NO2,NA,NA,NA
India,Gujarat,Ahmedabad,"Rakhial, Ahmedabad - IITM",20-05-2024 18:00:00,23.016834,72.625775,CO,33,107,81
India,Gujarat,Ahmedabad,"SVPI Airport Hansol, Ahmedabad - IITM",20-05-2024 18:00:00,23.076793,72.627874,PM2.5,24,95,51
India,Gujarat,Ahmedabad,"SVPI Airport Hansol, Ahmedabad - IITM",20-05-2024 18:00:00,23.076793,72.627874,SO2,4,18,8
India,Gujarat,Ahmedabad,"Sardar Vallabhbhai Patel Stadium, Ahmedabad - IITM",20-05-2024 18:00:00,23.043070,72.562968,PM10,46,101,77
India,Gujarat,Gandhinagar,"Sector-10, Gandhinagar - GPCB",20-05-2024 18:00:00,23.221714,72.654328,PM10,21,70,43
India,Gujarat,Surat,"Science Center, Surat - SMC",20-05-2024 18:00:00,21.170046,72.795405,SO2,11,14,13
India,Gujarat,Vapi,"Phase-1 GIDC, Vapi - GPCB",20-05-2024 18:00:00,20.362421,72.918013,NO2,6,7,6
India,Gujarat,Vapi,"Phase-1 GIDC, Vapi - GPCB",20-05-2024 18:00:00,20.362421,72.918013,OZONE,1,3,2
India,Haryana,Ambala,"Patti Mehar, Ambala - HSPCB",20-05-2024 18:00:00,30.379589,76.778328,PM2.5,52,152,90
India,Haryana,Ambala,"Patti Mehar, Ambala - HSPCB",20-05-2024 18:00:00,30.379589,76.778328,PM10,40,261,109
India,Haryana,Ambala,"Patti Mehar, Ambala - HSPCB",20-05-2024 18:00:00,30.379589,76.778328,NO2,8,20,14
India,Haryana,Ambala,"Patti Mehar, Ambala - HSPCB",20-05-2024 18:00:00,30.379589,76.778328,NH3,5,12,8
India,Haryana,Ambala,"Patti Mehar, Ambala - HSPCB",20-05-2024 18:00:00,30.379589,76.778328,CO,30,62,46
India,Haryana,Bahadurgarh,"Arya Nagar, Bahadurgarh - HSPCB",20-05-2024 18:00:00,28.6701,76.9254,SO2,NA,NA,NA
India,Haryana,Bhiwani,"H.B. Colony, Bhiwani - HSPCB",20-05-2024 18:00:00,28.806223,76.141105,PM2.5,80,317,184
India,Haryana,Bhiwani,"H.B. Colony, Bhiwani - HSPCB",20-05-2024 18:00:00,28.806223,76.141105,CO,1,100,26
India,Haryana,Charkhi Dadri,"Mini Secretariat, Charkhi Dadri - HSPCB",20-05-2024 18:00:00,28.593883,76.270653,OZONE,14,20,16
India,Haryana,Dharuhera,"Municipal Corporation Office, Dharuhera -  HSPCB",20-05-2024 18:00:00,28.206800,76.799700,SO2,NA,NA,NA
India,Haryana,Faridabad,"New Industrial Town, Faridabad - HSPCB",20-05-2024 18:00:00,28.39072,77.30059,NO2,2,23,12
India,Haryana,Faridabad,"Sector 30, Faridabad - HSPCB",20-05-2024 18:00:00,28.4417,77.3217,PM10,NA,NA,NA
India,Haryana,Faridabad,"Sector 30, Faridabad - HSPCB",20-05-2024 18:00:00,28.4417,77.3217,NO2,NA,NA,NA
India,Haryana,Fatehabad,"Huda Sector, Fatehabad - HSPCB",20-05-2024 18:00:00,29.503664,75.467934,CO,5,18,11
India,Haryana,Gurugram,"NISE Gwal Pahari, Gurugram - IMD",20-05-2024 18:00:00,28.422681,77.148944,PM2.5,NA,NA,NA
India,Haryana,Gurugram,"NISE Gwal Pahari, Gurugram - IMD",20-05-2024 18:00:00,28.422681,77.148944,CO,65,80,67
India,Haryana,Gurugram,"NISE Gwal Pahari, Gurugram - IMD",20-05-2024 18:00:00,28.422681,77.148944,OZONE,33,80,74
India,Haryana,Gurugram,"Teri Gram, Gurugram - HSPCB",20-05-2024 18:00:00,28.4275,77.1465,NO2,15,36,28
India,Haryana,Gurugram,"Teri Gram, Gurugram - HSPCB",20-05-2024 18:00:00,28.4275,77.1465,SO2,5,9,7
India,Haryana,Hisar,"Urban Estate-II, Hisar - HSPCB",20-05-2024 18:00:00,29.140560,75.744941,NO2,21,26,23
India,Haryana,Jind,"Police Lines, Jind - HSPCB",20-05-2024 18:00:00,29.307814,76.337619,NH3,1,21,3
India,Haryana,Kaithal,"Rishi Nagar, Kaithal - HSPCB",20-05-2024 18:00:00,29.8006,76.4155,NH3,8,8,8
India,Haryana,Kurukshetra,"Sector-7, Kurukshetra - HSPCB",20-05-2024 18:00:00,29.966942,76.875879,OZONE,58,110,76
India,Haryana,Mandikhera,"General Hospital, Mandikhera - HSPCB",20-05-2024 18:00:00,27.9002,76.9938,NO2,NA,NA,NA
India,Haryana,Manesar,"Sector-2 IMT, Manesar - HSPCB",20-05-2024 18:00:00,28.360699,76.936090,SO2,NA,NA,NA
India,Haryana,Manesar,"Sector-2 IMT, Manesar - HSPCB",20-05-2024 18:00:00,28.360699,76.936090,OZONE,13,85,74
India,Haryana,Palwal,"Shyam Nagar, Palwal - HSPCB",20-05-2024 18:00:00,28.1485564,77.3320667,PM10,75,159,111
India,Haryana,Panipat,"Sector-18, Panipat - HSPCB",20-05-2024 18:00:00,29.432304,76.972765,NH3,2,3,3
India,Haryana,Sirsa,"F-Block, Sirsa - HSPCB",20-05-2024 18:00:00,29.536400,75.015800,OZONE,53,69,63
India,Haryana,Sonipat,"Murthal, Sonipat - HSPCB",20-05-2024 18:00:00,29.027200,77.062100,SO2,NA,NA,NA
India,Himachal Pradesh,Baddi,"HIMUDA Complex Phase-1, Baddi - HPPCB",20-05-2024 18:00:00,30.943887,76.801991,PM10,119,318,161
India,Himachal Pradesh,Baddi,"HIMUDA Complex Phase-1, Baddi - HPPCB",20-05-2024 18:00:00,30.943887,76.801991,NH3,5,6,6
India,Himachal Pradesh,Baddi,"HIMUDA Complex Phase-1, Baddi - HPPCB",20-05-2024 18:00:00,30.943887,76.801991,CO,28,68,33
India,Jharkhand,Dhanbad,"Sardar Patel Nagar, Dhanbad - JSPCB",20-05-2024 18:00:00,23.80569,86.44268,PM2.5,NA,NA,NA
India,Jharkhand,Dhanbad,"Sardar Patel Nagar, Dhanbad - JSPCB",20-05-2024 18:00:00,23.80569,86.44268,PM10,NA,NA,NA
India,Jharkhand,Dhanbad,"Sardar Patel Nagar, Dhanbad - JSPCB",20-05-2024 18:00:00,23.80569,86.44268,NO2,NA,NA,NA
India,Jharkhand,Jorapokhar,"Tata Stadium, Jorapokhar - JSPCB",20-05-2024 18:00:00,23.707909,86.414670,SO2,NA,NA,NA
India,Karnataka,Belgaum,"Ramteerth Nagar, Belgaum - KSPCB",20-05-2024 18:00:00,15.888653,74.541751,PM10,23,50,32
India,Karnataka,Belgaum,"Ramteerth Nagar, Belgaum - KSPCB",20-05-2024 18:00:00,15.888653,74.541751,OZONE,14,20,19
India,Karnataka,Bengaluru,"Hebbal, Bengaluru - KSPCB",20-05-2024 18:00:00,13.029152,77.585901,SO2,16,22,19
India,Karnataka,Bengaluru,"Hebbal, Bengaluru - KSPCB",20-05-2024 18:00:00,13.029152,77.585901,OZONE,7,66,20
India,Karnataka,Bengaluru,"Kasturi Nagar, Bengaluru - KSPCB",20-05-2024 18:00:00,13.003872,77.664217,PM10,52,52,52
India,Karnataka,Bengaluru,"Peenya, Bengaluru - CPCB",20-05-2024 18:00:00,13.0270199,77.494094,PM2.5,NA,NA,NA
India,Karnataka,Bengaluru,"Peenya, Bengaluru - CPCB",20-05-2024 18:00:00,13.0270199,77.494094,PM10,NA,NA,NA
India,Karnataka,Bengaluru,"Peenya, Bengaluru - CPCB",20-05-2024 18:00:00,13.0270199,77.494094,SO2,NA,NA,NA
India,Karnataka,Bengaluru,"RVCE-Mailasandra, Bengaluru - KSPCB",20-05-2024 18:00:00,12.921418,77.502466,NO2,16,17,17
India,Karnataka,Bengaluru,"RVCE-Mailasandra, Bengaluru - KSPCB",20-05-2024 18:00:00,12.921418,77.502466,CO,30,48,44
India,Karnataka,Bengaluru,"Shivapura_Peenya, Bengaluru - KSPCB",20-05-2024 18:00:00,13.0246342,77.5080115,NO2,15,16,16
India,Karnataka,Bengaluru,"Shivapura_Peenya, Bengaluru - KSPCB",20-05-2024 18:00:00,13.0246342,77.5080115,CO,18,50,30
India,Karnataka,Bengaluru,"Silk Board, Bengaluru - KSPCB",20-05-2024 18:00:00,12.917348,77.622813,NO2,10,24,15
India,Karnataka,Chikkaballapur,"Chikkaballapur Rural, Chikkaballapur - KSPCB",20-05-2024 18:00:00,13.428828,77.731418,PM10,8,33,21
India,Karnataka,Chikkaballapur,"Chikkaballapur Rural, Chikkaballapur - KSPCB",20-05-2024 18:00:00,13.428828,77.731418,NO2,4,11,8
India,Karnataka,Chikkaballapur,"Chikkaballapur Rural, Chikkaballapur - KSPCB",20-05-2024 18:00:00,13.428828,77.731418,NH3,1,3,2
India,Karnataka,Gadag,"Panchal Nagar, Gadag - KSPCB",20-05-2024 18:00:00,15.411456,75.638133,PM2.5,2,30,13
India,Karnataka,Gadag,"Panchal Nagar, Gadag - KSPCB",20-05-2024 18:00:00,15.411456,75.638133,NH3,1,3,2
India,Karnataka,Gadag,"Panchal Nagar, Gadag - KSPCB",20-05-2024 18:00:00,15.411456,75.638133,CO,45,51,46
India,Karnataka,Hassan,"B.Katihalli, Hassan - KSPCB",20-05-2024 18:00:00,13.008556,76.125258,PM10,NA,NA,NA
India,Karnataka,Hassan,"B.Katihalli, Hassan - KSPCB",20-05-2024 18:00:00,13.008556,76.125258,NH3,NA,NA,NA
India,Karnataka,Hassan,"B.Katihalli, Hassan - KSPCB",20-05-2024 18:00:00,13.008556,76.125258,SO2,NA,NA,NA
India,Karnataka,Haveri,"Ashwini Nagar, Haveri - KSPCB",20-05-2024 18:00:00,14.791800,75.389600,PM10,NA,NA,NA
India,Karnataka,Hubballi,"Deshpande Nagar, Hubballi - KSPCB",20-05-2024 18:00:00,15.351773,75.140726,PM10,16,44,31
India,Karnataka,Hubballi,"Deshpande Nagar, Hubballi - KSPCB",20-05-2024 18:00:00,15.351773,75.140726,NO2,25,27,26
India,Karnataka,Hubballi,"Deshpande Nagar, Hubballi - KSPCB",20-05-2024 18:00:00,15.351773,75.140726,NH3,4,6,5
India,Karnataka,Kalaburagi,"Mahatma Basaveswar Colony, Kalaburgi - KSPCB",20-05-2024 18:00:00,17.336318,76.847397,PM10,NA,NA,NA
India,Karnataka,Kalaburagi,"Mahatma Basaveswar Colony, Kalaburgi - KSPCB",20-05-2024 18:00:00,17.336318,76.847397,NO2,NA,NA,NA
India,Karnataka,Kalaburagi,"Mahatma Basaveswar Colony, Kalaburgi - KSPCB",20-05-2024 18:00:00,17.336318,76.847397,CO,28,46,32
India,Karnataka,Karwar,"KHB Colony, Karwar - KSPCB",20-05-2024 18:00:00,14.816666,74.141003,SO2,NA,NA,NA
India,Karnataka,Karwar,"KHB Colony, Karwar - KSPCB",20-05-2024 18:00:00,14.816666,74.141003,CO,9,10,9
India,Karnataka,Koppal,"Diwator Nagar, Koppal - KSPCB",20-05-2024 18:00:00,15.347630,76.181767,PM10,5,26,11
India,Karnataka,Mangalore,"Kadri, Mangalore - KSPCB",20-05-2024 18:00:00,12.889250,74.853000,PM10,43,61,50
India,Karnataka,Mangalore,"Kadri, Mangalore - KSPCB",20-05-2024 18:00:00,12.889250,74.853000,NO2,5,6,6
India,Karnataka,Mysuru,"Hebbal 1st Stage, Mysuru - KSPCB",20-05-2024 18:00:00,12.21041,76.37376,SO2,1,4,2
India,Karnataka,Mysuru,"Hebbal 1st Stage, Mysuru - KSPCB",20-05-2024 18:00:00,12.21041,76.37376,CO,4,39,18
India,Karnataka,Raichur,"Haji Colony, Raichur - KSPCB",20-05-2024 18:00:00,16.208139,77.348417,PM10,8,92,39
India,Karnataka,Raichur,"Haji Colony, Raichur - KSPCB",20-05-2024 18:00:00,16.208139,77.348417,NO2,13,31,21
India,Karnataka,Ramanagara,"Vijay Nagar, Ramanagara - KSPCB",20-05-2024 18:00:00,12.733409,77.298051,OZONE,28,30,29
India,Karnataka,Shivamogga,"Vinoba Nagara, Shivamogga - KSPCB",20-05-2024 18:00:00,13.940000,75.555917,NH3,2,15,4
India,Karnataka,Shivamogga,"Vinoba Nagara, Shivamogga - KSPCB",20-05-2024 18:00:00,13.940000,75.555917,SO2,2,11,6
India,Karnataka,Shivamogga,"Vinoba Nagara, Shivamogga - KSPCB",20-05-2024 18:00:00,13.940000,75.555917,OZONE,3,42,26
India,Karnataka,Tumakuru,"Thimmalapura, Tumakuru - KSPCB",20-05-2024 18:00:00,13.377516,77.099072,PM2.5,NA,NA,NA
India,Karnataka,Tumakuru,"Thimmalapura, Tumakuru - KSPCB",20-05-2024 18:00:00,13.377516,77.099072,CO,29,34,31
India,Karnataka,Udupi,"Brahmagiri, Udupi - KSPCB",20-05-2024 18:00:00,13.34194444,74.74694444,SO2,NA,NA,NA
India,Karnataka,Yadgir,"Collector Office, Yadgir - KSPCB",20-05-2024 18:00:00,16.7602,77.1428,PM2.5,9,57,27
India,Karnataka,Yadgir,"Collector Office, Yadgir - KSPCB",20-05-2024 18:00:00,16.7602,77.1428,CO,17,39,21
India,Kerala,Kannur,"Thavakkara, Kannur - Kerala PCB",20-05-2024 18:00:00,11.875000,75.373200,PM10,66,76,72
India,Kerala,Kannur,"Thavakkara, Kannur - Kerala PCB",20-05-2024 18:00:00,11.875000,75.373200,SO2,NA,NA,NA
India,Kerala,Thiruvananthapuram,"Kariavattom, Thiruvananthapuram - Kerala PCB",20-05-2024 18:00:00,8.563700,76.886500,PM10,81,95,89
India,Kerala,Thiruvananthapuram,"Kariavattom, Thiruvananthapuram - Kerala PCB",20-05-2024 18:00:00,8.563700,76.886500,NO2,8,9,9
India,Kerala,Thiruvananthapuram,"Kariavattom, Thiruvananthapuram - Kerala PCB",20-05-2024 18:00:00,8.563700,76.886500,SO2,3,14,8
India,Kerala,Thiruvananthapuram,"Plammoodu, Thiruvananthapuram - Kerala PCB",20-05-2024 18:00:00,8.5149093,76.9435879,SO2,4,14,9
India,Kerala,Thiruvananthapuram,"Plammoodu, Thiruvananthapuram - Kerala PCB",20-05-2024 18:00:00,8.5149093,76.9435879,OZONE,3,56,14
India,Kerala,Thrissur,"Corporation Ground, Thrissur - Kerala PCB",20-05-2024 18:00:00,10.532400,76.215900,PM2.5,44,51,47
India,Kerala,Thrissur,"Corporation Ground, Thrissur - Kerala PCB",20-05-2024 18:00:00,10.532400,76.215900,NH3,1,1,1
India,Madhya Pradesh,Bhopal,"Idgah Hills, Bhopal - MPPCB",20-05-2024 18:00:00,23.264759,77.381568,NO2,NA,NA,NA
India,Madhya Pradesh,Bhopal,"Paryavaran Parisar, Bhopal - MPPCB",20-05-2024 18:00:00,23.210494,77.425409,OZONE,59,96,88
India,Madhya Pradesh,Bhopal,"T T Nagar, Bhopal - MPPCB",20-05-2024 18:00:00,23.233584,77.400574,PM2.5,29,56,42
India,Madhya Pradesh,Dewas,"Bhopal Chauraha, Dewas - MPPCB",20-05-2024 18:00:00,22.9682591,76.064118,PM2.5,38,111,62
India,Madhya Pradesh,Gwalior,"City Center, Gwalior - MPPCB",20-05-2024 18:00:00,26.203442,78.193251,SO2,2,42,27
India,Madhya Pradesh,Gwalior,"Deen Dayal Nagar, Gwalior - MPPCB",20-05-2024 18:00:00,26.259242,78.216432,SO2,12,21,15
India,Madhya Pradesh,Gwalior,"Deen Dayal Nagar, Gwalior - MPPCB",20-05-2024 18:00:00,26.259242,78.216432,OZONE,34,185,157
India,Madhya Pradesh,Gwalior,"Maharaj Bada, Gwalior - MPPCB",20-05-2024 18:00:00,26.200388,78.147714,NH3,2,12,5
India,Madhya Pradesh,Indore,"Chhoti Gwaltoli, Indore - MPPCB",20-05-2024 18:00:00,22.4310,75.5213,PM10,98,152,123
India,Madhya Pradesh,Indore,"Maguda Nagar, Indore - IMC",20-05-2024 18:00:00,22.7524,75.8872,PM10,37,81,57
India,Madhya Pradesh,Indore,"Residency Area, Indore - IMC",20-05-2024 18:00:00,22.7084,75.8815,OZONE,11,26,22
India,Madhya Pradesh,Jabalpur,"Govindh Bhavan Colony, Jabalpur - JMC",20-05-2024 18:00:00,23.163174,79.973061,NO2,NA,NA,NA
India,Madhya Pradesh,Jabalpur,"Govindh Bhavan Colony, Jabalpur - JMC",20-05-2024 18:00:00,23.163174,79.973061,OZONE,95,203,199
India,Madhya Pradesh,Jabalpur,"Gupteshwar, Jabalpur - JMC",20-05-2024 18:00:00,23.142888,79.916147,CO,21,44,27
India,Madhya Pradesh,Jabalpur,"Suhagi, Jabalpur - JMC",20-05-2024 18:00:00,23.218135,79.957770,PM10,52,146,78
India,Madhya Pradesh,Jabalpur,"Suhagi, Jabalpur - JMC",20-05-2024 18:00:00,23.218135,79.957770,OZONE,63,196,166
India,Madhya Pradesh,Katni,"Gole Bazar, Katni - MPPCB",20-05-2024 18:00:00,23.50016,80.23284,PM2.5,30,63,40
India,Madhya Pradesh,Katni,"Gole Bazar, Katni - MPPCB",20-05-2024 18:00:00,23.50016,80.23284,PM10,42,122,73
India,Madhya Pradesh,Maihar,"Sahilara, Maihar - KJS Cements",20-05-2024 18:00:00,24.2613009,80.7231783,PM2.5,8,75,37
India,Madhya Pradesh,Maihar,"Sahilara, Maihar - KJS Cements",20-05-2024 18:00:00,24.2613009,80.7231783,PM10,9,95,43
India,Madhya Pradesh,Mandideep,"Sector-D Industrial Area, Mandideep - MPPCB",20-05-2024 18:00:00,23.108440,77.511428,NO2,20,72,41
India,Madhya Pradesh,Mandideep,"Sector-D Industrial Area, Mandideep - MPPCB",20-05-2024 18:00:00,23.108440,77.511428,SO2,9,115,61
India,Madhya Pradesh,Sagar,"Civil Lines, Sagar - MPPCB",20-05-2024 18:00:00,23.838586,78.759431,SO2,2,20,9
India,Madhya Pradesh,Sagar,"Civil Lines, Sagar - MPPCB",20-05-2024 18:00:00,23.838586,78.759431,OZONE,31,129,103
India,Madhya Pradesh,Sagar,"Deen Dayal Nagar, Sagar - MPPCB",20-05-2024 18:00:00,23.8640158,78.80289321,PM2.5,12,48,28
India,Madhya Pradesh,Sagar,"Deen Dayal Nagar, Sagar - MPPCB",20-05-2024 18:00:00,23.8640158,78.80289321,CO,50,66,61
India,Madhya Pradesh,Satna,"Bandhavgar Colony, Satna - Birla Cement",20-05-2024 18:00:00,24.58434363,80.8549414,NO2,29,62,42
India,Madhya Pradesh,Singrauli,"Suryakiran Bhawan NCL, Singrauli - MPPCB",20-05-2024 18:00:00,24.108970,82.645580,NH3,3,10,4
India,Madhya Pradesh,Singrauli,"Suryakiran Bhawan NCL, Singrauli - MPPCB",20-05-2024 18:00:00,24.108970,82.645580,SO2,28,61,46
India,Madhya Pradesh,Singrauli,"Suryakiran Bhawan NCL, Singrauli - MPPCB",20-05-2024 18:00:00,24.108970,82.645580,CO,34,116,62
India,Madhya Pradesh,Ujjain,"Mahakaleshwar Temple, Ujjain - MPPCB",20-05-2024 18:00:00,23.182719 ,75.768218 ,PM10,97,131,115
India,Maharashtra,Ahmednagar,"Tarakpur, Ahmednagar - MPCB",20-05-2024 18:00:00,19.10122,74.73339,NO2,22,148,45
India,Maharashtra,Akola,"Ramdaspeth, Akola - MPCB",20-05-2024 18:00:00,20.719516,77.000253,PM2.5,40,61,49
India,Maharashtra,Akola,"Ramdaspeth, Akola - MPCB",20-05-2024 18:00:00,20.719516,77.000253,SO2,11,18,13
India,Maharashtra,Amravati,"Shivneri Colony, Amravati - MPCB",20-05-2024 18:00:00,20.9402359,77.7895248,PM2.5,15,56,41
India,Maharashtra,Amravati,"Shri Shivaji Science College, Amaravati - MPCB",20-05-2024 18:00:00,20.939198,77.765701,NO2,8,23,14
India,Maharashtra,Aurangabad,"MIDC Chilkalthana, Aurangabad - MPCB",20-05-2024 18:00:00,19.875620,75.387310,PM2.5,NA,NA,NA
India,Maharashtra,Aurangabad,"MIDC Chilkalthana, Aurangabad - MPCB",20-05-2024 18:00:00,19.875620,75.387310,NO2,NA,NA,NA
India,Maharashtra,Aurangabad,"More Chowk Waluj, Aurangabad - MPCB",20-05-2024 18:00:00,19.8389439,75.244448,PM10,38,76,58
India,Maharashtra,Aurangabad,"More Chowk Waluj, Aurangabad - MPCB",20-05-2024 18:00:00,19.8389439,75.244448,CO,18,60,29
India,Maharashtra,Belapur,"CBD Belapur, Belapur - MPCB",20-05-2024 18:00:00,19.0243902,73.0406721,PM2.5,21,55,34
India,Maharashtra,Belapur,"CBD Belapur, Belapur - MPCB",20-05-2024 18:00:00,19.0243902,73.0406721,SO2,3,8,6
India,Maharashtra,Bhiwandi,"Gokul Nagar, Bhiwandi - MPCB",20-05-2024 18:00:00,19.309073,73.057223,NO2,17,42,24
India,Maharashtra,Bhiwandi,"Gokul Nagar, Bhiwandi - MPCB",20-05-2024 18:00:00,19.309073,73.057223,OZONE,38,222,122
India,Maharashtra,Boisar,"Khaira, Boisar - MPCB",20-05-2024 18:00:00,19.786089,72.757971,PM10,50,119,80
India,Maharashtra,Chandrapur,"Chauhan Colony, Chandrapur - MPCB",20-05-2024 18:00:00,19.962900,79.298714,PM2.5,11,57,29
India,Maharashtra,Chandrapur,"Chauhan Colony, Chandrapur - MPCB",20-05-2024 18:00:00,19.962900,79.298714,NH3,2,6,3
India,Maharashtra,Chandrapur,"Chauhan Colony, Chandrapur - MPCB",20-05-2024 18:00:00,19.962900,79.298714,SO2,2,12,6
India,Maharashtra,Chandrapur,"MIDC Khutala, Chandrapur - MPCB",20-05-2024 18:00:00,19.9775302,79.2337086,NO2,8,37,16
India,Maharashtra,Chandrapur,"MIDC Khutala, Chandrapur - MPCB",20-05-2024 18:00:00,19.9775302,79.2337086,OZONE,9,66,45
India,Maharashtra,Dhule,"Deopur, Dhule - MPCB",20-05-2024 18:00:00,20.918946,74.776388,SO2,NA,NA,NA
India,Maharashtra,Dhule,"Deopur, Dhule - MPCB",20-05-2024 18:00:00,20.918946,74.776388,CO,28,30,29
India,Maharashtra,Jalgaon,"Prabhat Colony, Jalgaon - MPCB",20-05-2024 18:00:00,21.001264,75.565602,PM10,86,423,155
India,Maharashtra,Jalgaon,"Prabhat Colony, Jalgaon - MPCB",20-05-2024 18:00:00,21.001264,75.565602,SO2,1,9,4
India,Maharashtra,Jalna,"Old MIDC, Jalna - MPCB",20-05-2024 18:00:00,19.854616,75.905894,OZONE,3,84,48
India,Maharashtra,Kalyan,"Khadakpada, Kalyan - MPCB",20-05-2024 18:00:00,19.25292,73.142019,CO,13,18,16
India,Maharashtra,Kolhapur,"Shivaji University, Kolhapur - MPCB",20-05-2024 18:00:00,16.6870449,74.2505872,PM2.5,64,173,101
India,Maharashtra,Kolhapur,"Sinchan Bhavan, Kolhapur - MPCB",20-05-2024 18:00:00,16.7143745,74.2426398,PM2.5,26,93,39
India,Maharashtra,Latur,"Sawe Wadi, Latur - MPCB",20-05-2024 18:00:00,18.39963,76.57452,NH3,NA,NA,NA
India,Maharashtra,Mahad,"Kamble Tarf Birwadi, Mahad - MPCB",20-05-2024 18:00:00,18.1023399,73.4783687,OZONE,7,68,42
India,Maharashtra,Malegaon,"Mahesh Nagar, Malegaon - MPCB",20-05-2024 18:00:00,20.555712,74.529236,PM10,94,252,138
India,Maharashtra,Mira-Bhayandar,"Bhayandar West, Mira-Bhayandar - MPCB",20-05-2024 18:00:00,19.296481,72.840923,NH3,3,5,3
India,Maharashtra,Mumbai,"Bandra Kurla Complex, Mumbai - MPCB",20-05-2024 18:00:00,19.065931,72.862131,CO,26,42,33
India,Maharashtra,Mumbai,"Borivali East, Mumbai - IITM",20-05-2024 18:00:00,19.23241,72.86895,NH3,5,8,7
India,Maharashtra,Mumbai,"Borivali East, Mumbai - IITM",20-05-2024 18:00:00,19.23241,72.86895,OZONE,16,171,171
India,Maharashtra,Mumbai,"Chembur, Mumbai - MPCB",20-05-2024 18:00:00,19.0364585,72.8954371,PM2.5,21,46,36
India,Maharashtra,Mumbai,"Chembur, Mumbai - MPCB",20-05-2024 18:00:00,19.0364585,72.8954371,PM10,34,72,52
India,Maharashtra,Mumbai,"Chembur, Mumbai - MPCB",20-05-2024 18:00:00,19.0364585,72.8954371,OZONE,10,310,74
India,Maharashtra,Mumbai,"Chhatrapati Shivaji Intl. Airport (T2), Mumbai - MPCB",20-05-2024 18:00:00,19.10078,72.87462,NO2,NA,NA,NA
India,Maharashtra,Mumbai,"Chhatrapati Shivaji Intl. Airport (T2), Mumbai - MPCB",20-05-2024 18:00:00,19.10078,72.87462,OZONE,4,6,5
India,Maharashtra,Mumbai,"Deonar, Mumbai - IITM",20-05-2024 18:00:00,19.04946,72.9230,NO2,6,13,7
India,Maharashtra,Mumbai,"Deonar, Mumbai - IITM",20-05-2024 18:00:00,19.04946,72.9230,NH3,8,14,12
India,Maharashtra,Mumbai,"Ghatkopar, Mumbai - BMC",20-05-2024 18:00:00,19.083694,72.920967,PM2.5,8,35,17
India,Maharashtra,Mumbai,"Ghatkopar, Mumbai - BMC",20-05-2024 18:00:00,19.083694,72.920967,OZONE,2,29,21
India,Maharashtra,Mumbai,"Kandivali East, Mumbai - MPCB",20-05-2024 18:00:00,19.205800,72.868200,SO2,8,10,9
India,Maharashtra,Mumbai,"Kandivali West, Mumbai - BMC",20-05-2024 18:00:00,19.215859,72.831718,NO2,5,19,10
India,Maharashtra,Mumbai,"Kandivali West, Mumbai - BMC",20-05-2024 18:00:00,19.215859,72.831718,CO,8,20,11
India,Maharashtra,Mumbai,"Kandivali West, Mumbai - BMC",20-05-2024 18:00:00,19.215859,72.831718,OZONE,11,39,24
India,Maharashtra,Mumbai,"Kherwadi_Bandra East, Mumbai - MPCB",20-05-2024 18:00:00,19.0632143,72.8456324,NO2,4,14,9
India,Maharashtra,Mumbai,"Kherwadi_Bandra East, Mumbai - MPCB",20-05-2024 18:00:00,19.0632143,72.8456324,SO2,1,9,5
India,Maharashtra,Mumbai,"Mulund West, Mumbai - MPCB",20-05-2024 18:00:00,19.1750,72.9419,OZONE,7,7,7
India,Maharashtra,Mumbai,"Powai, Mumbai - MPCB",20-05-2024 18:00:00,19.137500,72.915056,PM10,52,103,73
India,Maharashtra,Mumbai,"Powai, Mumbai - MPCB",20-05-2024 18:00:00,19.137500,72.915056,SO2,35,41,39
India,Maharashtra,Mumbai,"Sewri, Mumbai - BMC",20-05-2024 18:00:00,19.000084,72.856730,PM10,NA,NA,NA
India,Maharashtra,Mumbai,"Sewri, Mumbai - BMC",20-05-2024 18:00:00,19.000084,72.856730,NO2,11,26,16
India,Maharashtra,Mumbai,"Sewri, Mumbai - BMC",20-05-2024 18:00:00,19.000084,72.856730,CO,NA,NA,NA
India,Maharashtra,Mumbai,"Siddharth Nagar-Worli, Mumbai - IITM",20-05-2024 18:00:00,19.000083,72.813993,PM2.5,47,86,64
India,Maharashtra,Mumbai,"Siddharth Nagar-Worli, Mumbai - IITM",20-05-2024 18:00:00,19.000083,72.813993,NH3,8,10,9
India,Maharashtra,Mumbai,"Vasai West, Mumbai - MPCB",20-05-2024 18:00:00,19.383200,72.820400,PM2.5,15,56,33
India,Maharashtra,Mumbai,"Vasai West, Mumbai - MPCB",20-05-2024 18:00:00,19.383200,72.820400,NH3,4,4,4
India,Maharashtra,Mumbai,"Vasai West, Mumbai - MPCB",20-05-2024 18:00:00,19.383200,72.820400,CO,7,21,9
India,Maharashtra,Mumbai,"Worli, Mumbai - MPCB",20-05-2024 18:00:00,18.9936162,72.8128113,SO2,12,12,12
India,Maharashtra,Mumbai,"Worli, Mumbai - MPCB",20-05-2024 18:00:00,18.9936162,72.8128113,OZONE,5,8,7
India,Maharashtra,Nagpur,"Ambazari, Nagpur - MPCB",20-05-2024 18:00:00,21.121801,79.04952,NO2,5,37,12
India,Maharashtra,Nagpur,"Ambazari, Nagpur - MPCB",20-05-2024 18:00:00,21.121801,79.04952,NH3,1,8,3
India,Maharashtra,Nagpur,"Mahal, Nagpur - MPCB",20-05-2024 18:00:00,21.14472,79.107595,PM2.5,2,412,66
India,Maharashtra,Nagpur,"Mahal, Nagpur - MPCB",20-05-2024 18:00:00,21.14472,79.107595,NO2,8,39,17
India,Maharashtra,Nagpur,"Opp GPO Civil Lines, Nagpur - MPCB",20-05-2024 18:00:00,21.152875,79.0517531,NO2,13,106,36
India,Maharashtra,Nagpur,"Opp GPO Civil Lines, Nagpur - MPCB",20-05-2024 18:00:00,21.152875,79.0517531,NH3,4,9,5
India,Maharashtra,Nanded,"Sneh Nagar, Nanded - MPCB",20-05-2024 18:00:00,19.173852,77.296291,OZONE,29,176,152
India,Maharashtra,Nashik,"Gangapur Road, Nashik - MPCB",20-05-2024 18:00:00,20.0073285,73.7762427,PM10,65,108,85
India,Maharashtra,Nashik,"Gangapur Road, Nashik - MPCB",20-05-2024 18:00:00,20.0073285,73.7762427,SO2,3,12,7
India,Maharashtra,Nashik,"MIDC Ambad, Nashik - MPCB",20-05-2024 18:00:00,19.950220,73.731480,NH3,NA,NA,NA
India,Maharashtra,Nashik,"Pandav Nagari, Nashik - MPCB",20-05-2024 18:00:00,19.9591346,73.7788008,NO2,8,27,14
India,Maharashtra,Navi Mumbai,"Kopripada-Vashi, Navi Mumbai - MPCB",20-05-2024 18:00:00,19.090337,73.014232,PM10,NA,NA,NA
India,Maharashtra,Navi Mumbai,"Kopripada-Vashi, Navi Mumbai - MPCB",20-05-2024 18:00:00,19.090337,73.014232,OZONE,1,27,6
India,Maharashtra,Navi Mumbai,"Mahape, Navi Mumbai - MPCB",20-05-2024 18:00:00,19.1135051,73.008978,PM10,39,121,70
India,Maharashtra,Navi Mumbai,"Nerul, Navi Mumbai - MPCB",20-05-2024 18:00:00,19.008751,73.016620,NH3,2,2,2
India,Maharashtra,Navi Mumbai,"Sanpada, Navi Mumbai - MPCB",20-05-2024 18:00:00,19.0575752,73.0151367,PM2.5,21,44,31
India,Maharashtra,Navi Mumbai,"Sector-2E Kalamboli, Navi Mumbai - MPCB",20-05-2024 18:00:00,19.02579,73.10297,NH3,2,4,3
India,Maharashtra,Navi Mumbai,"Sector-2E Kalamboli, Navi Mumbai - MPCB",20-05-2024 18:00:00,19.02579,73.10297,SO2,1,8,3
India,Maharashtra,Navi Mumbai,"Tondare-Taloja, Navi Mumbai - MPCB",20-05-2024 18:00:00,19.0630,73.1209,PM2.5,NA,NA,NA
India,Maharashtra,Navi Mumbai,"Tondare-Taloja, Navi Mumbai - MPCB",20-05-2024 18:00:00,19.0630,73.1209,SO2,NA,NA,NA
India,Maharashtra,Navi Mumbai,"Tondare-Taloja, Navi Mumbai - MPCB",20-05-2024 18:00:00,19.0630,73.1209,OZONE,3,60,27
India,Maharashtra,Pimpri-Chinchwad,"Gavalinagar, Pimpri Chinchwad - MPCB",20-05-2024 18:00:00,18.63673,73.82487,SO2,1,5,2
India,Maharashtra,Pimpri-Chinchwad,"Thergaon, Pimpri Chinchwad - MPCB",20-05-2024 18:00:00,18.616318,73.765797,SO2,NA,NA,NA
India,Maharashtra,Pimpri-Chinchwad,"Thergaon, Pimpri Chinchwad - MPCB",20-05-2024 18:00:00,18.616318,73.765797,CO,18,56,22
India,Maharashtra,Pune,"Alandi, Pune - IITM",20-05-2024 18:00:00,18.675076,73.892743,PM2.5,20,56,35
India,Maharashtra,Pune,"Karve Road, Pune - MPCB",20-05-2024 18:00:00,18.5011743,73.8165527,NO2,3,14,7
India,Maharashtra,Pune,"Transport Nagar-Nigdi, Pune - IITM",20-05-2024 18:00:00,18.664282,73.763966,PM2.5,46,108,74
India,Maharashtra,Pune,"Transport Nagar-Nigdi, Pune - IITM",20-05-2024 18:00:00,18.664282,73.763966,PM10,47,107,81
India,Maharashtra,Pune,"Transport Nagar-Nigdi, Pune - IITM",20-05-2024 18:00:00,18.664282,73.763966,NO2,3,54,12
India,Maharashtra,Sangli,"Vijay Nagar, Sangli - MPCB",20-05-2024 18:00:00, 16.5038,74.3623,OZONE,35,96,89
India,Maharashtra,Solapur,"Dnyaneshwar Nagar, Solapur - MPCB",20-05-2024 18:00:00,17.6336264,75.9132495,NO2,8,26,12
India,Maharashtra,Solapur,"Dnyaneshwar Nagar, Solapur - MPCB",20-05-2024 18:00:00,17.6336264,75.9132495,SO2,1,1,1
India,Maharashtra,Solapur,"Dnyaneshwar Nagar, Solapur - MPCB",20-05-2024 18:00:00,17.6336264,75.9132495,CO,11,25,16
India,Maharashtra,Solapur,"Ratandeep Housing Society, Solapur - MPCB",20-05-2024 18:00:00,17.65439,75.90649,PM2.5,24,52,37
India,Maharashtra,Solapur,"Ratandeep Housing Society, Solapur - MPCB",20-05-2024 18:00:00,17.65439,75.90649,OZONE,34,136,100
India,Maharashtra,Solapur,"Solapur, Solapur - MPCB",20-05-2024 18:00:00,17.6599188,75.9063906,PM10,95,124,110
India,Maharashtra,Solapur,"Solapur, Solapur - MPCB",20-05-2024 18:00:00,17.6599188,75.9063906,NO2,53,55,55
India,Maharashtra,Thane,"Kasarvadavali, Thane - MPCB",20-05-2024 18:00:00,19.26777,72.97182,SO2,1,1,1
India,Maharashtra,Thane,"Upvan Fort, Thane - MPCB",20-05-2024 18:00:00,19.222279,72.957979,SO2,NA,NA,NA
India,Maharashtra,Ulhasnagar,"Sidhi Vinayak Nagar, Ulhasnagar - MPCB",20-05-2024 18:00:00,19.235581,73.159121,PM2.5,48,82,66
India,Maharashtra,Ulhasnagar,"Sidhi Vinayak Nagar, Ulhasnagar - MPCB",20-05-2024 18:00:00,19.235581,73.159121,SO2,10,12,11
India,Maharashtra,Virar,"Bolinj, Virar - MPCB",20-05-2024 18:00:00,19.4458210,72.7988231,NO2,7,27,14
India,Maharashtra,Virar,"Bolinj, Virar - MPCB",20-05-2024 18:00:00,19.4458210,72.7988231,SO2,1,2,2
India,Maharashtra,Virar,"Bolinj, Virar - MPCB",20-05-2024 18:00:00,19.4458210,72.7988231,CO,10,54,21
India,Manipur,Imphal,"Manipur University, Imphal - Manipur PCB",20-05-2024 18:00:00,24.7524239,93.9286218,NO2,6,10,8
India,Manipur,Imphal,"Manipur University, Imphal - Manipur PCB",20-05-2024 18:00:00,24.7524239,93.9286218,SO2,95,99,96
India,Meghalaya,Shillong,"Lumpyngngad, Shillong - Meghalaya PCB",20-05-2024 18:00:00,25.5586,91.8985,PM2.5,NA,NA,NA
India,Meghalaya,Shillong,"Lumpyngngad, Shillong - Meghalaya PCB",20-05-2024 18:00:00,25.5586,91.8985,SO2,37,40,38
India,Mizoram,Aizawl,"Sikulpuikawn, Aizawl - Mizoram PCB",20-05-2024 18:00:00,23.7176342,92.7192841,NO2,1,10,1
India,Mizoram,Aizawl,"Sikulpuikawn, Aizawl - Mizoram PCB",20-05-2024 18:00:00,23.7176342,92.7192841,SO2,2,3,2
India,Nagaland,Kohima,"PWD Juction, Kohima - NPCB",20-05-2024 18:00:00,25.6635413,94.0989878,CO,5,22,14
India,Nagaland,Kohima,"PWD Juction, Kohima - NPCB",20-05-2024 18:00:00,25.6635413,94.0989878,OZONE,6,49,21
India,Odisha,Angul,"Hakimapada, Angul - OSPCB",20-05-2024 18:00:00,20.832874,85.104082,NH3,NA,NA,NA
India,Odisha,Balasore,"Kalidaspur, Balasore - OSPCB",20-05-2024 18:00:00,21.51161,86.89088,CO,23,102,60
India,Odisha,Barbil,"Forest Office, Barbil - OSPCB",20-05-2024 18:00:00,22.1166054,85.3945546,CO,18,46,28
India,Odisha,Baripada,"Meher Colony, Baripada - OSPCB",20-05-2024 18:00:00,21.941841,86.728318,NH3,2,3,2
India,Odisha,Bhubaneswar,"Lingraj Mandir, Bhubaneswar - OSPCB",20-05-2024 18:00:00,20.240790,85.836784,PM10,9,34,19
India,Odisha,Bileipada,"Tata Township, Bileipada - OSPCB",20-05-2024 18:00:00,22.06156703,85.47409613,OZONE,23,127,36
India,Odisha,Brajrajnagar,"GM Office, Brajrajnagar - OSPCB",20-05-2024 18:00:00,21.8004996,83.8396977,PM10,14,97,45
India,Odisha,Byasanagar,"Ferro Chrome Colony, Byasanagar - OSPCB",20-05-2024 18:00:00,20.94185,86.11510,PM2.5,7,45,17
India,Odisha,Byasanagar,"Ferro Chrome Colony, Byasanagar - OSPCB",20-05-2024 18:00:00,20.94185,86.11510,NO2,5,16,10
India,Odisha,Byasanagar,"Ferro Chrome Colony, Byasanagar - OSPCB",20-05-2024 18:00:00,20.94185,86.11510,OZONE,2,112,88
India,Odisha,Cuttack,"CDA Area, Cuttack - OSPCB",20-05-2024 18:00:00,20.48891     ,85.84768     ,PM10,2,35,15
India,Odisha,Cuttack,"CDA Area, Cuttack - OSPCB",20-05-2024 18:00:00,20.48891     ,85.84768     ,SO2,1,4,2
India,Odisha,Keonjhar,"Jagamohanpur, Keonjhar - OSPCB",20-05-2024 18:00:00,21.643900,85.599355,PM10,34,74,54
India,Odisha,Keonjhar,"Jagamohanpur, Keonjhar - OSPCB",20-05-2024 18:00:00,21.643900,85.599355,CO,106,113,109
India,Odisha,Nayagarh,"Dabuna, Nayagarh - OSPCB",20-05-2024 18:00:00,21.847279,85.416905,PM2.5,20,70,41
India,Odisha,Nayagarh,"Dabuna, Nayagarh - OSPCB",20-05-2024 18:00:00,21.847279,85.416905,SO2,1,3,2
India,Odisha,Rairangpur,"Divisional Forest Office, Rairangpur - OSPCB",20-05-2024 18:00:00,22.265816,86.174829,NH3,3,3,3
India,Odisha,Rourkela,"Raghunathpali, Rourkela - OSPCB",20-05-2024 18:00:00,22.220833,84.809444,NH3,2,3,3
India,Odisha,Rourkela,"Sector-2, Rourkela - OSPCB",20-05-2024 18:00:00,22.24500000,84.88111111,PM2.5,41,162,75
India,Odisha,Talcher,"Talcher Coalfields,Talcher - OSPCB",20-05-2024 18:00:00,20.9360711,85.1707021,NH3,3,4,3
India,Odisha,Talcher,"Talcher Coalfields,Talcher - OSPCB",20-05-2024 18:00:00,20.9360711,85.1707021,SO2,22,96,38
India,Odisha,Talcher,"Talcher Coalfields,Talcher - OSPCB",20-05-2024 18:00:00,20.9360711,85.1707021,OZONE,20,27,25
India,Puducherry,Puducherry,"Jawahar Nagar, Puducherry - PPCC",20-05-2024 18:00:00,11.9309,79.8027,NO2,5,23,14
India,Punjab,Amritsar,"Golden Temple, Amritsar - PPCB",20-05-2024 18:00:00,31.620000,74.876512,PM2.5,47,177,102
India,Punjab,Amritsar,"Golden Temple, Amritsar - PPCB",20-05-2024 18:00:00,31.620000,74.876512,NO2,3,37,12
India,Punjab,Amritsar,"Golden Temple, Amritsar - PPCB",20-05-2024 18:00:00,31.620000,74.876512,OZONE,47,73,65
India,Punjab,Khanna,"Kalal Majra, Khanna - PPCB",20-05-2024 18:00:00,30.736056 ,76.209694,NO2,NA,NA,NA
India,Punjab,Khanna,"Kalal Majra, Khanna - PPCB",20-05-2024 18:00:00,30.736056 ,76.209694,CO,7,43,22
India,Punjab,Ludhiana,"Punjab Agricultural University, Ludhiana - PPCB",20-05-2024 18:00:00,30.9028,75.8086,PM2.5,79,235,137
India,Punjab,Mandi Gobindgarh,"RIMT University, Mandi Gobindgarh - PPCB",20-05-2024 18:00:00,30.649961,76.331442,NO2,23,24,24
India,Punjab,Mandi Gobindgarh,"RIMT University, Mandi Gobindgarh - PPCB",20-05-2024 18:00:00,30.649961,76.331442,SO2,NA,NA,NA
India,Punjab,Patiala,"Model Town, Patiala - PPCB",20-05-2024 18:00:00,30.349388,76.366642,PM10,116,149,134
India,Rajasthan,Ajmer,"Civil Lines,  Ajmer - RSPCB",20-05-2024 18:00:00,26.470859,74.646594,NO2,13,14,14
India,Rajasthan,Ajmer,"Civil Lines,  Ajmer - RSPCB",20-05-2024 18:00:00,26.470859,74.646594,SO2,4,43,14
India,Rajasthan,Alwar,"Moti Doongri, Alwar - RSPCB",20-05-2024 18:00:00,27.554793,76.611536,OZONE,6,52,36
India,Rajasthan,Banswara,"Rati Talai, Banswara - RSPCB",20-05-2024 18:00:00,23.555190,74.440010,NO2,18,53,30
India,Rajasthan,Baran,"Bamboliya, Baran - RSPCB",20-05-2024 18:00:00,25.106006,76.469948,PM2.5,7,86,35
India,Rajasthan,Baran,"Bamboliya, Baran - RSPCB",20-05-2024 18:00:00,25.106006,76.469948,NO2,6,34,14
India,Rajasthan,Baran,"Bamboliya, Baran - RSPCB",20-05-2024 18:00:00,25.106006,76.469948,SO2,1,7,3
India,Rajasthan,Barmer,"Railway Colony, Barmer - RSPCB",20-05-2024 18:00:00,25.747299,71.393989,CO,66,80,76
India,Rajasthan,Bharatpur,"Krishna Nagar, Bharatpur - RSPCB",20-05-2024 18:00:00,27.215415,77.50873,NH3,2,4,2
India,Rajasthan,Bhilwara,"Pratap Nagar, Bhilwara - RSPCB",20-05-2024 18:00:00,25.339605,74.618883,SO2,6,20,14
India,Rajasthan,Bhilwara,"Pratap Nagar, Bhilwara - RSPCB",20-05-2024 18:00:00,25.339605,74.618883,CO,5,42,25
India,Rajasthan,Bikaner,"MM Ground, Bikaner - RSPCB",20-05-2024 18:00:00,28.018792,73.292658,NO2,15,69,34
India,Rajasthan,Bundi,"New Colony, Bundi - RSPCB",20-05-2024 18:00:00,25.435774,75.644272,NH3,4,6,5
India,Rajasthan,Bundi,"New Colony, Bundi - RSPCB",20-05-2024 18:00:00,25.435774,75.644272,OZONE,57,124,118
India,Rajasthan,Chittorgarh,"Shastri Nagar, Chittorgarh - RSPCB",20-05-2024 18:00:00,24.892047,74.623527,PM10,88,212,143
India,Rajasthan,Chittorgarh,"Shastri Nagar, Chittorgarh - RSPCB",20-05-2024 18:00:00,24.892047,74.623527,NO2,5,10,7
India,Rajasthan,Dausa,"Khatikan Mohalla, Dausa - RSPCB",20-05-2024 18:00:00,26.895552,76.334753,PM2.5,30,84,51
India,Rajasthan,Dausa,"Khatikan Mohalla, Dausa - RSPCB",20-05-2024 18:00:00,26.895552,76.334753,SO2,1,4,2
India,Rajasthan,Dholpur,"Raja Ganj, Dholpur - RSPCB",20-05-2024 18:00:00,26.699557,77.898881,NH3,5,9,7
India,Rajasthan,Dungarpur,"Bhoiwada, Dungarpur - RSPCB",20-05-2024 18:00:00,23.837789,73.714926,CO,1,88,45
India,Rajasthan,Hanumangarh,"Housing Board, Hanumangarh - RSPCB",20-05-2024 18:00:00,29.610750,74.283608,PM2.5,30,130,66
India,Rajasthan,Jaipur,"Adarsh Nagar, Jaipur - RSPCB",20-05-2024 18:00:00,26.902909,75.836858,SO2,1,28,13
India,Rajasthan,Jaipur,"Adarsh Nagar, Jaipur - RSPCB",20-05-2024 18:00:00,26.902909,75.836858,OZONE,17,80,64
India,Rajasthan,Jaipur,"Police Commissionerate, Jaipur - RSPCB",20-05-2024 18:00:00,26.9164092,75.7994901,OZONE,35,166,123
India,Rajasthan,Jaipur,"RIICO Sitapura, Jaipur - RSPCB",20-05-2024 18:00:00,26.786682,75.827928,PM2.5,33,200,66
India,Rajasthan,Jaipur,"RIICO Sitapura, Jaipur - RSPCB",20-05-2024 18:00:00,26.786682,75.827928,NO2,21,99,51
India,Rajasthan,Jaisalmer,"Sadar Bazar, Jaisalmer - RSPCB",20-05-2024 18:00:00,26.912329,70.909168,NO2,5,28,18
India,Rajasthan,Jalore,"Mudtra Sili, Jalore - RSPCB",20-05-2024 18:00:00,25.344694,72.626208,NH3,6,9,7
India,Rajasthan,Jalore,"Mudtra Sili, Jalore - RSPCB",20-05-2024 18:00:00,25.344694,72.626208,OZONE,26,125,93
India,Rajasthan,Jhalawar,"Rajlaxmi Nagar, Jhalawar - RSPCB",20-05-2024 18:00:00,24.588397,76.172782,NH3,1,3,2
India,Rajasthan,Jhunjhunu,"Indra Nagar, Jhunjhunu - RSPCB",20-05-2024 18:00:00,28.108988,75.386577,PM10,93,500,177
India,Rajasthan,Jhunjhunu,"Indra Nagar, Jhunjhunu - RSPCB",20-05-2024 18:00:00,28.108988,75.386577,SO2,2,5,4
India,Rajasthan,Jodhpur,"Digari Kalan, Jodhpur - RSPCB",20-05-2024 18:00:00,26.295810,73.082283,PM2.5,25,149,46
India,Rajasthan,Jodhpur,"Digari Kalan, Jodhpur - RSPCB",20-05-2024 18:00:00,26.295810,73.082283,NO2,6,43,23
India,Rajasthan,Jodhpur,"Digari Kalan, Jodhpur - RSPCB",20-05-2024 18:00:00,26.295810,73.082283,CO,14,24,21
India,Rajasthan,Jodhpur,"Jhalamand, Jodhpur - RSPCB",20-05-2024 18:00:00,26.215415,73.070156,SO2,3,78,9
India,Rajasthan,Jodhpur,"Jhalamand, Jodhpur - RSPCB",20-05-2024 18:00:00,26.215415,73.070156,OZONE,30,96,77
India,Rajasthan,Jodhpur,"Mandor, Jodhpur - RSPCB",20-05-2024 18:00:00,26.358805,73.047444,NH3,5,9,7
India,Rajasthan,Jodhpur,"Samrat Ashok Udhyan, Jodhpur - RSPCB",20-05-2024 18:00:00,26.253384,72.976571,NO2,2,50,18
India,Rajasthan,Jodhpur,"Samrat Ashok Udhyan, Jodhpur - RSPCB",20-05-2024 18:00:00,26.253384,72.976571,OZONE,35,88,80
India,Rajasthan,Kota,"Dhanmandi, Kota - RSPCB",20-05-2024 18:00:00,25.164090,75.858137,CO,1,87,25
India,Rajasthan,Kota,"Shrinath Puram, Kota - RSPCB",20-05-2024 18:00:00,25.14389,75.821256,CO,18,57,41
India,Rajasthan,Nagaur,"Karni Colony, Nagaur - RSPCB",20-05-2024 18:00:00,27.213494,73.734444,PM10,70,239,118
India,Rajasthan,Pratapgarh,"Pragati Nagar, Pratapgarh - RSPCB",20-05-2024 18:00:00,24.041198,74.780702,PM2.5,21,86,43
India,Rajasthan,Pratapgarh,"Pragati Nagar, Pratapgarh - RSPCB",20-05-2024 18:00:00,24.041198,74.780702,NO2,6,113,28
India,Rajasthan,Pratapgarh,"Pragati Nagar, Pratapgarh - RSPCB",20-05-2024 18:00:00,24.041198,74.780702,SO2,3,21,8
India,Rajasthan,Rajsamand,"Dhoinda, Rajsamand - RSPCB",20-05-2024 18:00:00,25.036360,73.883502,PM10,44,105,66
India,Rajasthan,Rajsamand,"Dhoinda, Rajsamand - RSPCB",20-05-2024 18:00:00,25.036360,73.883502,OZONE,17,90,56
India,Rajasthan,Sawai Madhopur,"Sahu Nagar, Sawai Madhopur - RSPCB",20-05-2024 18:00:00,26.031443,76.359327,PM10,94,281,134
India,Rajasthan,Sawai Madhopur,"Sahu Nagar, Sawai Madhopur - RSPCB",20-05-2024 18:00:00,26.031443,76.359327,NO2,6,35,15
India,Rajasthan,Sawai Madhopur,"Sahu Nagar, Sawai Madhopur - RSPCB",20-05-2024 18:00:00,26.031443,76.359327,CO,1,174,43
India,Rajasthan,Sikar,"Radhakishan Pura, Sikar - RSPCB",20-05-2024 18:00:00,27.608912,75.153302,NO2,10,96,32
India,Rajasthan,Sikar,"Radhakishan Pura, Sikar - RSPCB",20-05-2024 18:00:00,27.608912,75.153302,NH3,6,11,8
India,Rajasthan,Sirohi,"Vedhaynath Colony, Sirohi - RSPCB",20-05-2024 18:00:00,24.885261,72.857549,SO2,4,15,9
India,Rajasthan,Tonk,"Shastri Nagar, Tonk - RSPCB",20-05-2024 18:00:00,26.159933,75.780517,CO,5,24,14
India,TamilNadu,Chennai,"Alandur Bus Depot, Chennai - CPCB",20-05-2024 18:00:00,12.9099161,80.1076538,PM10,23,23,23
India,TamilNadu,Chennai,"Alandur Bus Depot, Chennai - CPCB",20-05-2024 18:00:00,12.9099161,80.1076538,SO2,3,14,5
India,TamilNadu,Chennai,"Arumbakkam, Chennai - TNPCB",20-05-2024 18:00:00,13.0664,80.2112 ,PM2.5,3,35,17
India,TamilNadu,Chennai,"Perungudi, Chennai - TNPCB",20-05-2024 18:00:00,12.9533,80.2357,NH3,3,5,4
India,TamilNadu,Chennai,"Perungudi, Chennai - TNPCB",20-05-2024 18:00:00,12.9533,80.2357,OZONE,3,13,8
India,TamilNadu,Cuddalore,"Semmandalam, Cuddalore - TNPCB",20-05-2024 18:00:00,11.7637683,79.7499835,PM2.5,10,44,19
India,TamilNadu,Gummidipoondi,"Anthoni Pillai Nagar, Gummidipoondi - TNPCB",20-05-2024 18:00:00,13.4127,80.1081,NH3,3,5,4
India,TamilNadu,Ooty,"Bombay Castel, Ooty - TNPCB",20-05-2024 18:00:00,11.4068288,76.7138973,PM10,NA,NA,NA
India,TamilNadu,Ooty,"Bombay Castel, Ooty - TNPCB",20-05-2024 18:00:00,11.4068288,76.7138973,CO,20,24,22
India,TamilNadu,Palkalaiperur,"Bharathidasan University, Palkalaiperur - TNPCB",20-05-2024 18:00:00,10.681158,78.741746,PM10,NA,NA,NA
India,TamilNadu,Ramanathapuram,"Chalai Bazaar, Ramanathapuram - TNPCB",20-05-2024 18:00:00,9.36399,78.831977,PM10,7,52,21
India,TamilNadu,Ramanathapuram,"Chalai Bazaar, Ramanathapuram - TNPCB",20-05-2024 18:00:00,9.36399,78.831977,NH3,1,1,1
India,TamilNadu,Ramanathapuram,"Chalai Bazaar, Ramanathapuram - TNPCB",20-05-2024 18:00:00,9.36399,78.831977,SO2,8,11,10
India,TamilNadu,Salem,"Sona College of Technology, Salem - TNPCB",20-05-2024 18:00:00,11.679111,78.125052,PM10,18,44,30
India,TamilNadu,Salem,"Sona College of Technology, Salem - TNPCB",20-05-2024 18:00:00,11.679111,78.125052,NO2,7,8,7
India,TamilNadu,Salem,"Sona College of Technology, Salem - TNPCB",20-05-2024 18:00:00,11.679111,78.125052,NH3,1,1,1
India,TamilNadu,Vellore,"Vasanthapuram, Vellore - TNPCB",20-05-2024 18:00:00,12.909494,79.131861,PM2.5,20,52,36
India,TamilNadu,Vellore,"Vasanthapuram, Vellore - TNPCB",20-05-2024 18:00:00,12.909494,79.131861,NH3,1,1,1
India,Telangana,Hyderabad,"Bollaram Industrial Area, Hyderabad - TSPCB",20-05-2024 18:00:00,17.540891,78.358528,NO2,13,43,23
India,Telangana,Hyderabad,"ICRISAT Patancheru, Hyderabad - TSPCB",20-05-2024 18:00:00,17.518400,78.278777,SO2,NA,NA,NA
India,Telangana,Hyderabad,"IITH Kandi, Hyderabad - TSPCB",20-05-2024 18:00:00,17.585705,78.126199,CO,4,16,15
India,Telangana,Hyderabad,"Kokapet, Hyderabad - TSPCB",20-05-2024 18:00:00,17.393559,78.339194,NO2,NA,NA,NA
India,Telangana,Hyderabad,"Kokapet, Hyderabad - TSPCB",20-05-2024 18:00:00,17.393559,78.339194,NH3,NA,NA,NA
India,Telangana,Hyderabad,"Kokapet, Hyderabad - TSPCB",20-05-2024 18:00:00,17.393559,78.339194,OZONE,4,6,5
India,Telangana,Hyderabad,"Kompally Municipal Office, Hyderabad - TSPCB",20-05-2024 18:00:00,17.544899,78.486949,PM2.5,36,56,43
India,Telangana,Hyderabad,"Nacharam_TSIIC IALA, Hyderabad - TSPCB",20-05-2024 18:00:00,17.429398,78.569354,PM2.5,NA,NA,NA
India,Telangana,Hyderabad,"Nacharam_TSIIC IALA, Hyderabad - TSPCB",20-05-2024 18:00:00,17.429398,78.569354,PM10,NA,NA,NA
India,Telangana,Hyderabad,"Nacharam_TSIIC IALA, Hyderabad - TSPCB",20-05-2024 18:00:00,17.429398,78.569354,CO,4,30,12
India,Telangana,Hyderabad,"New Malakpet, Hyderabad - TSPCB",20-05-2024 18:00:00,17.37206,78.50864,NO2,NA,NA,NA
India,Telangana,Hyderabad,"New Malakpet, Hyderabad - TSPCB",20-05-2024 18:00:00,17.37206,78.50864,CO,16,58,30
India,Telangana,Hyderabad,"Ramachandrapuram, Hyderabad - TSPCB",20-05-2024 18:00:00,17.528544,78.286195,NH3,NA,NA,NA
India,Telangana,Hyderabad,"Somajiguda, Hyderabad - TSPCB",20-05-2024 18:00:00,17.417094,78.457437,NO2,NA,NA,NA
India,Telangana,Hyderabad,"Zoo Park, Hyderabad - TSPCB",20-05-2024 18:00:00,17.349694,78.451437,CO,21,70,34
India,Telangana,Hyderabad,"Zoo Park, Hyderabad - TSPCB",20-05-2024 18:00:00,17.349694,78.451437,OZONE,7,36,23
India,Tripura,Agartala,"Bardowali, Agartala - Tripura SPCB",20-05-2024 18:00:00,23.8175497,91.2726974,OZONE,8,16,12
India,Uttar_Pradesh,Agra,"Manoharpur, Agra - UPPCB",20-05-2024 18:00:00,27.23711,78.01936,CO,6,11,8
India,Uttar_Pradesh,Agra,"Manoharpur, Agra - UPPCB",20-05-2024 18:00:00,27.23711,78.01936,OZONE,3,45,31
India,Uttar_Pradesh,Agra,"Sanjay Palace, Agra - UPPCB",20-05-2024 18:00:00,27.19865833,78.00598056,PM10,34,76,54
India,Uttar_Pradesh,Agra,"Shahjahan Garden, Agra - UPPCB",20-05-2024 18:00:00,27.169338,78.03582,CO,14,28,20
India,Uttar_Pradesh,Agra,"Shastripuram, Agra - UPPCB",20-05-2024 18:00:00,27.19862,77.92066,NO2,31,125,43
India,Uttar_Pradesh,Baghpat,"Sardar Patel Inter College, Baghpat - UPPCB",20-05-2024 18:00:00,28.964949,77.278761,PM10,135,380,203
India,Uttar_Pradesh,Bareilly,"Civil Lines, Bareilly - UPPCB",20-05-2024 18:00:00,28.359581,79.414455,PM2.5,8,26,18
India,Uttar_Pradesh,Bareilly,"Civil Lines, Bareilly - UPPCB",20-05-2024 18:00:00,28.359581,79.414455,OZONE,1,17,9
India,Uttar_Pradesh,Bulandshahr,"Yamunapuram, Bulandshahr - UPPCB",20-05-2024 18:00:00,28.406963,77.849831,OZONE,10,165,96
India,Uttar_Pradesh,Firozabad,"Nagla Bhau, Firozabad - UPPCB",20-05-2024 18:00:00,27.168897,78.376960,PM10,43,114,76
India,Uttar_Pradesh,Firozabad,"Nagla Bhau, Firozabad - UPPCB",20-05-2024 18:00:00,27.168897,78.376960,CO,20,30,27
India,Uttar_Pradesh,Ghaziabad,"Indirapuram, Ghaziabad - UPPCB",20-05-2024 18:00:00,28.646233,77.358075,NH3,9,13,10
India,Uttar_Pradesh,Ghaziabad,"Indirapuram, Ghaziabad - UPPCB",20-05-2024 18:00:00,28.646233,77.358075,CO,16,53,30
India,Uttar_Pradesh,Ghaziabad,"Indirapuram, Ghaziabad - UPPCB",20-05-2024 18:00:00,28.646233,77.358075,OZONE,2,35,24
India,Uttar_Pradesh,Ghaziabad,"Loni, Ghaziabad - UPPCB",20-05-2024 18:00:00,28.757294,77.278792,CO,8,84,30
India,Uttar_Pradesh,Ghaziabad,"Loni, Ghaziabad - UPPCB",20-05-2024 18:00:00,28.757294,77.278792,OZONE,1,112,99
India,Uttar_Pradesh,Ghaziabad,"Vasundhara, Ghaziabad - UPPCB",20-05-2024 18:00:00,28.6603346,77.3572563,PM2.5,26,181,80
India,Uttar_Pradesh,Ghaziabad,"Vasundhara, Ghaziabad - UPPCB",20-05-2024 18:00:00,28.6603346,77.3572563,SO2,2,49,20
India,Uttar_Pradesh,Gorakhpur,"Madan Mohan Malaviya University of Technology, Gorakhpur - UPPCB",20-05-2024 18:00:00,26.730136,83.433859,CO,6,14,8
India,Uttar_Pradesh,Greater Noida,"Knowledge Park - III, Greater Noida - UPPCB",20-05-2024 18:00:00,28.47272,77.482000,CO,36,104,65
India,Uttar_Pradesh,Greater Noida,"Knowledge Park - V, Greater Noida - UPPCB",20-05-2024 18:00:00,28.557054,77.453663,CO,4,67,36
India,Uttar_Pradesh,Greater Noida,"Knowledge Park - V, Greater Noida - UPPCB",20-05-2024 18:00:00,28.557054,77.453663,OZONE,2,239,143
India,Uttar_Pradesh,Hapur,"Anand Vihar, Hapur - UPPCB",20-05-2024 18:00:00,28.725645,77.749675,CO,24,34,28
India,Uttar_Pradesh,Jhansi,"Shivaji Nagar, Jhansi - UPPCB",20-05-2024 18:00:00,25.4547,78.6039,PM2.5,NA,NA,NA
India,Uttar_Pradesh,Jhansi,"Shivaji Nagar, Jhansi - UPPCB",20-05-2024 18:00:00,25.4547,78.6039,NH3,NA,NA,NA
India,Uttar_Pradesh,Jhansi,"Shivaji Nagar, Jhansi - UPPCB",20-05-2024 18:00:00,25.4547,78.6039,CO,6,16,8
India,Uttar_Pradesh,Kanpur,"FTI Kidwai Nagar, Kanpur - UPPCB",20-05-2024 18:00:00,26.428282,80.327067,CO,30,68,35
India,Uttar_Pradesh,Kanpur,"NSI Kalyanpur, Kanpur - UPPCB",20-05-2024 18:00:00,26.509954,80.249612,PM10,39,155,130
India,Uttar_Pradesh,Kanpur,"Nehru Nagar, Kanpur - UPPCB",20-05-2024 18:00:00,26.4703136,80.3229863,SO2,1,9,4
India,Uttar_Pradesh,Khurja,"Kalindi Kunj, Khurja - UPPCB",20-05-2024 18:00:00,28.2348927,77.8683002,PM10,45,126,77
India,Uttar_Pradesh,Lucknow,"B R Ambedkar University, Lucknow - UPPCB",20-05-2024 18:00:00,26.766433,80.927299,NH3,8,9,8
India,Uttar_Pradesh,Lucknow,"Gomti Nagar, Lucknow - UPPCB",20-05-2024 18:00:00,26.868120,81.005119,PM2.5,68,146,95
India,Uttar_Pradesh,Lucknow,"Gomti Nagar, Lucknow - UPPCB",20-05-2024 18:00:00,26.868120,81.005119,PM10,79,122,98
India,Uttar_Pradesh,Lucknow,"Gomti Nagar, Lucknow - UPPCB",20-05-2024 18:00:00,26.868120,81.005119,NO2,10,12,11
India,Uttar_Pradesh,Lucknow,"Kendriya Vidyalaya, Lucknow - CPCB",20-05-2024 18:00:00,26.906111,80.948222,PM10,124,170,140
India,Uttar_Pradesh,Lucknow,"Kendriya Vidyalaya, Lucknow - CPCB",20-05-2024 18:00:00,26.906111,80.948222,SO2,5,8,7
India,Uttar_Pradesh,Meerut,"Ganga Nagar, Meerut - UPPCB",20-05-2024 18:00:00,28.999264,77.7590354,NH3,7,17,10
India,Uttar_Pradesh,Meerut,"Jai Bhim Nagar, Meerut - UPPCB",20-05-2024 18:00:00,28.9535882,77.7622941,CO,26,50,36
India,Uttar_Pradesh,Meerut,"Pallavpuram Phase 2, Meerut - UPPCB",20-05-2024 18:00:00,29.063510,77.709723,PM10,111,235,141
India,Uttar_Pradesh,Meerut,"Pallavpuram Phase 2, Meerut - UPPCB",20-05-2024 18:00:00,29.063510,77.709723,NH3,9,26,14
India,Uttar_Pradesh,Meerut,"Pallavpuram Phase 2, Meerut - UPPCB",20-05-2024 18:00:00,29.063510,77.709723,CO,31,58,43
India,Uttar_Pradesh,Moradabad,"Buddhi Vihar, Moradabad - UPPCB",20-05-2024 18:00:00,28.83526,78.74460,NO2,21,23,23
India,Uttar_Pradesh,Moradabad,"Buddhi Vihar, Moradabad - UPPCB",20-05-2024 18:00:00,28.83526,78.74460,SO2,22,50,33
India,Uttar_Pradesh,Moradabad,"Buddhi Vihar, Moradabad - UPPCB",20-05-2024 18:00:00,28.83526,78.74460,CO,28,43,31
India,Uttar_Pradesh,Moradabad,"Eco Herbal Park, Moradabad - UPPCB",20-05-2024 18:00:00,28.840739,78.697531,PM2.5,34,73,57
India,Uttar_Pradesh,Moradabad,"Eco Herbal Park, Moradabad - UPPCB",20-05-2024 18:00:00,28.840739,78.697531,OZONE,25,122,97
India,Uttar_Pradesh,Moradabad,"Employment Office, Moradabad - UPPCB",20-05-2024 18:00:00,28.88528,78.73880,PM10,61,188,117
India,Uttar_Pradesh,Moradabad,"Employment Office, Moradabad - UPPCB",20-05-2024 18:00:00,28.88528,78.73880,NH3,4,4,4
India,Uttar_Pradesh,Moradabad,"Jigar Colony, Moradabad - UPPCB",20-05-2024 18:00:00,28.856664,78.772638,PM2.5,30,74,55
India,Uttar_Pradesh,Moradabad,"Jigar Colony, Moradabad - UPPCB",20-05-2024 18:00:00,28.856664,78.772638,NO2,12,19,17
India,Uttar_Pradesh,Moradabad,"Jigar Colony, Moradabad - UPPCB",20-05-2024 18:00:00,28.856664,78.772638,OZONE,13,46,29
India,Uttar_Pradesh,Moradabad,"Transport Nagar, Moradabad - UPPCB",20-05-2024 18:00:00,28.802625,78.753728,PM10,55,246,103
India,Uttar_Pradesh,Moradabad,"Transport Nagar, Moradabad - UPPCB",20-05-2024 18:00:00,28.802625,78.753728,NO2,4,5,4
India,Uttar_Pradesh,Moradabad,"Transport Nagar, Moradabad - UPPCB",20-05-2024 18:00:00,28.802625,78.753728,NH3,5,5,5
India,Uttar_Pradesh,Muzaffarnagar,"New Mandi, Muzaffarnagar - UPPCB",20-05-2024 18:00:00,29.4723508,77.7194031,CO,32,98,41
India,Uttar_Pradesh,Noida,"Sector-116, Noida - UPPCB",20-05-2024 18:00:00,28.569230,77.393848,PM10,156,390,254
India,Uttar_Pradesh,Varanasi,"Ardhali Bazar, Varanasi - UPPCB",20-05-2024 18:00:00,25.3505986,82.9083074,CO,7,48,24
India,Uttar_Pradesh,Varanasi,"Bhelupur, Varanasi - UPPCB",20-05-2024 18:00:00,25.301778,82.996789,NH3,NA,NA,NA
India,Uttar_Pradesh,Varanasi,"IESD Banaras Hindu University, Varanasi - UPPCB",20-05-2024 18:00:00,25.262326,82.995408,SO2,18,21,20
India,Uttar_Pradesh,Varanasi,"Maldahiya, Varanasi - UPPCB",20-05-2024 18:00:00,25.32393,82.99687,PM2.5,18,42,26
India,Uttar_Pradesh,Varanasi,"Maldahiya, Varanasi - UPPCB",20-05-2024 18:00:00,25.32393,82.99687,NH3,1,2,1
India,Uttar_Pradesh,Varanasi,"Maldahiya, Varanasi - UPPCB",20-05-2024 18:00:00,25.32393,82.99687,OZONE,2,22,19
India,Uttar_Pradesh,Vrindavan,"Omex Eternity, Vrindavan - UPPCB",20-05-2024 18:00:00,27.5714090,77.6557570,PM2.5,21,72,37
India,Uttarakhand,Rishikesh,"Shivaji Nagar, Rishikesh - UKPCB",20-05-2024 18:00:00,30.075911,78.2859547,NO2,7,25,15
India,Uttarakhand,Rishikesh,"Shivaji Nagar, Rishikesh - UKPCB",20-05-2024 18:00:00,30.075911,78.2859547,NH3,2,4,3
India,Uttarakhand,Rishikesh,"Shivaji Nagar, Rishikesh - UKPCB",20-05-2024 18:00:00,30.075911,78.2859547,OZONE,58,154,113
India,West_Bengal,Asansol,"Asansol Court Area, Asansol - WBPCB",20-05-2024 18:00:00,23.685297,86.945968,PM2.5,69,134,94
India,West_Bengal,Asansol,"Asansol Court Area, Asansol - WBPCB",20-05-2024 18:00:00,23.685297,86.945968,PM10,87,124,110
India,West_Bengal,Asansol,"Asansol Court Area, Asansol - WBPCB",20-05-2024 18:00:00,23.685297,86.945968,NO2,32,43,37
India,West_Bengal,Barrackpore,"SVSPA Campus, Barrackpore - WBPCB",20-05-2024 18:00:00,22.7605581,88.3617589,NH3,1,1,1
India,West_Bengal,Barrackpore,"SVSPA Campus, Barrackpore - WBPCB",20-05-2024 18:00:00,22.7605581,88.3617589,CO,2,20,8
India,West_Bengal,Durgapur,"PCBL Residential Complex, Durgapur - WBPCB",20-05-2024 18:00:00,23.5087640,87.3544400,PM2.5,41,244,86
India,West_Bengal,Durgapur,"Sidhu Kanhu Indoor Stadium, Durgapur - WBPCB",20-05-2024 18:00:00,23.5404352,87.2892225,NO2,18,37,22
India,West_Bengal,Durgapur,"Sidhu Kanhu Indoor Stadium, Durgapur - WBPCB",20-05-2024 18:00:00,23.5404352,87.2892225,SO2,18,39,26
India,West_Bengal,Haldia,"Priyambada Housing Estate, Haldia - WBPCB",20-05-2024 18:00:00,22.06047,88.109737,PM10,6,50,20
India,West_Bengal,Howrah,"Ghusuri, Howrah - WBPCB",20-05-2024 18:00:00,22.611968,88.347422,SO2,4,6,6
India,West_Bengal,Howrah,"Padmapukur, Howrah - WBPCB",20-05-2024 18:00:00,22.5687319,88.2797276,PM2.5,24,62,36
India,West_Bengal,Howrah,"Padmapukur, Howrah - WBPCB",20-05-2024 18:00:00,22.5687319,88.2797276,NO2,19,45,24
India,West_Bengal,Howrah,"Padmapukur, Howrah - WBPCB",20-05-2024 18:00:00,22.5687319,88.2797276,NH3,8,11,10
India,West_Bengal,Howrah,"Padmapukur, Howrah - WBPCB",20-05-2024 18:00:00,22.5687319,88.2797276,SO2,9,63,23
India,West_Bengal,Kolkata,"Bidhannagar, Kolkata - WBPCB",20-05-2024 18:00:00,22.58157048,88.41002457,PM2.5,5,46,18
India,West_Bengal,Kolkata,"Bidhannagar, Kolkata - WBPCB",20-05-2024 18:00:00,22.58157048,88.41002457,NH3,8,8,8
India,West_Bengal,Kolkata,"Fort William, Kolkata - WBPCB",20-05-2024 18:00:00,22.556640,88.342674,PM2.5,19,87,38
India,West_Bengal,Kolkata,"Fort William, Kolkata - WBPCB",20-05-2024 18:00:00,22.556640,88.342674,CO,11,26,19
India,West_Bengal,Kolkata,"Rabindra Bharati University, Kolkata - WBPCB",20-05-2024 18:00:00,22.627847,88.380669,SO2,4,8,6
India,West_Bengal,Kolkata,"Victoria, Kolkata - WBPCB",20-05-2024 18:00:00,22.5448082,88.3403691,PM2.5,20,54,32
India,Andhra_Pradesh,Amaravati,"Secretariat, Amaravati - APPCB",20-05-2024 18:00:00,16.5150833,80.5181667,PM10,5,40,23
India,Andhra_Pradesh,Amaravati,"Secretariat, Amaravati - APPCB",20-05-2024 18:00:00,16.5150833,80.5181667,CO,7,111,34
India,Andhra_Pradesh,Anantapur,"Gulzarpet, Anantapur - APPCB",20-05-2024 18:00:00,14.675886,77.593027,CO,18,75,29
India,Andhra_Pradesh,Chittoor,"Gangineni Cheruvu, Chittoor - APPCB",20-05-2024 18:00:00,13.204880,79.097889,SO2,2,6,4
India,Andhra_Pradesh,Kadapa,"Yerramukkapalli, Kadapa - APPCB",20-05-2024 18:00:00,14.465052,78.824187,NO2,NA,NA,NA
India,Andhra_Pradesh,Tirupati,"Tirumala, Tirupati - APPCB",20-05-2024 18:00:00,13.67,79.35,PM10,7,51,29
India,Andhra_Pradesh,Vijayawada,"HB Colony, Vijayawada - APPCB",20-05-2024 18:00:00,16.536107,80.594233,PM10,42,44,42
India,Andhra_Pradesh,Vijayawada,"HB Colony, Vijayawada - APPCB",20-05-2024 18:00:00,16.536107,80.594233,NO2,17,34,24
India,Andhra_Pradesh,Vijayawada,"Rajiv Nagar, Vijayawada - APPCB",20-05-2024 18:00:00,16.554731,80.649110,NO2,12,13,12
India,Andhra_Pradesh,Vijayawada,"Rajiv Nagar, Vijayawada - APPCB",20-05-2024 18:00:00,16.554731,80.649110,OZONE,15,24,22
India,Arunachal_Pradesh,Naharlagun,"Naharlagun, Naharlagun - APSPCB",20-05-2024 18:00:00,27.103358,93.679645,SO2,4,4,4
India,Assam,Guwahati,"IITG, Guwahati - PCBA",20-05-2024 18:00:00,26.2028636,91.70046436,SO2,13,13,13
India,Assam,Guwahati,"LGBI Airport, Guwahati - PCBA",20-05-2024 18:00:00,26.10887,91.589544,OZONE,1,49,20
India,Assam,Guwahati,"Pan Bazaar, Guwahati - PCBA",20-05-2024 18:00:00,26.187500,91.744194,OZONE,NA,NA,NA
India,Assam,Nagaon,"Christianpatty, Nagaon - PCBA",20-05-2024 18:00:00,26.349082,92.68449,PM2.5,55,140,77
India,Assam,Nagaon,"Christianpatty, Nagaon - PCBA",20-05-2024 18:00:00,26.349082,92.68449,PM10,62,114,79
India,Assam,Nagaon,"Christianpatty, Nagaon - PCBA",20-05-2024 18:00:00,26.349082,92.68449,NO2,1,61,14
India,Assam,Nagaon,"Christianpatty, Nagaon - PCBA",20-05-2024 18:00:00,26.349082,92.68449,CO,18,104,28
India,Assam,Nalbari,"Bata Chowk, Nalbari - PCBA",20-05-2024 18:00:00,26.446912,91.439057,NO2,8,21,15
India,Assam,Silchar,"Tarapur, Silchar - PCBA",20-05-2024 18:00:00,24.82827,92.79525,PM2.5,26,41,34
India,Assam,Silchar,"Tarapur, Silchar - PCBA",20-05-2024 18:00:00,24.82827,92.79525,PM10,39,90,74
India,Assam,Sivasagar,"Girls College, Sivasagar - PCBA",20-05-2024 18:00:00,26.987634,94.636574,PM10,43,98,71
India,Bihar,Araria,"Kharahiya Basti, Araria - BSPCB",20-05-2024 18:00:00,26.146529,87.454184,NO2,NA,NA,NA
India,Bihar,Araria,"Kharahiya Basti, Araria - BSPCB",20-05-2024 18:00:00,26.146529,87.454184,SO2,NA,NA,NA
India,Bihar,Arrah,"New DM Office, Arrah - BSPCB",20-05-2024 18:00:00,25.5626095,84.663264,PM2.5,38,73,53
India,Bihar,Arrah,"New DM Office, Arrah - BSPCB",20-05-2024 18:00:00,25.5626095,84.663264,PM10,63,151,95
India,Bihar,Aurangabad,"Gurdeo Nagar, Aurangabad - BSPCB",20-05-2024 18:00:00,24.75746,84.366208,PM2.5,NA,NA,NA
India,Bihar,Aurangabad,"Gurdeo Nagar, Aurangabad - BSPCB",20-05-2024 18:00:00,24.75746,84.366208,NH3,3,27,12
India,Bihar,Aurangabad,"Gurdeo Nagar, Aurangabad - BSPCB",20-05-2024 18:00:00,24.75746,84.366208,SO2,NA,NA,NA
India,Bihar,Bhagalpur,"DM Office_Kachari Chowk, Bhagalpur - BSPCB",20-05-2024 18:00:00,25.251013,86.989001,PM2.5,27,183,74
India,Bihar,Bhagalpur,"DM Office_Kachari Chowk, Bhagalpur - BSPCB",20-05-2024 18:00:00,25.251013,86.989001,NO2,32,70,48
India,Bihar,Bhagalpur,"DM Office_Kachari Chowk, Bhagalpur - BSPCB",20-05-2024 18:00:00,25.251013,86.989001,NH3,5,9,7
India,Bihar,Bhagalpur,"DM Office_Kachari Chowk, Bhagalpur - BSPCB",20-05-2024 18:00:00,25.251013,86.989001,OZONE,40,58,47
India,Bihar,Bhagalpur,"Mayaganj, Bhagalpur - BSPCB",20-05-2024 18:00:00,25.265194,87.012947,PM10,29,144,82
India,Bihar,Bihar Sharif,"D M Colony, Bihar Sharif - BSPCB",20-05-2024 18:00:00,25.204762,85.514960,NH3,2,2,2
India,Bihar,Bihar Sharif,"D M Colony, Bihar Sharif - BSPCB",20-05-2024 18:00:00,25.204762,85.514960,SO2,NA,NA,NA
India,Bihar,Bihar Sharif,"D M Colony, Bihar Sharif - BSPCB",20-05-2024 18:00:00,25.204762,85.514960,OZONE,20,60,41
India,Bihar,Gaya,"Collectorate, Gaya - BSPCB",20-05-2024 18:00:00,24.7955,84.9994,CO,52,133,89
India,Bihar,Gaya,"Kareemganj, Gaya - BSPCB",20-05-2024 18:00:00,24.792403,84.992416,NH3,4,4,4
India,Bihar,Gaya,"SFTI Kusdihra, Gaya - BSPCB",20-05-2024 18:00:00,24.762518,84.982348,NO2,16,48,30
India,Bihar,Hajipur,"Industrial Area, Hajipur - BSPCB",20-05-2024 18:00:00,25.697189,85.245900,PM2.5,62,249,139
India,Bihar,Hajipur,"Industrial Area, Hajipur - BSPCB",20-05-2024 18:00:00,25.697189,85.245900,NO2,24,42,32
India,Bihar,Katihar,"Mirchaibari, Katihar - BSPCB",20-05-2024 18:00:00,25.560083,87.553265,NH3,1,6,2
India,Bihar,Kishanganj,"SDM Office_Khagra, Kishanganj - BSPCB",20-05-2024 18:00:00,26.0881305,87.93840336,PM2.5,NA,NA,NA
India,Bihar,Kishanganj,"SDM Office_Khagra, Kishanganj - BSPCB",20-05-2024 18:00:00,26.0881305,87.93840336,SO2,NA,NA,NA
India,Bihar,Kishanganj,"SDM Office_Khagra, Kishanganj - BSPCB",20-05-2024 18:00:00,26.0881305,87.93840336,CO,12,12,12
India,Bihar,Manguraha,"Forest Rest House, Manguraha - BSPCB",20-05-2024 18:00:00,27.308328,84.531742,PM2.5,NA,NA,NA
India,Bihar,Manguraha,"Forest Rest House, Manguraha - BSPCB",20-05-2024 18:00:00,27.308328,84.531742,NH3,NA,NA,NA
India,Bihar,Manguraha,"Forest Rest House, Manguraha - BSPCB",20-05-2024 18:00:00,27.308328,84.531742,OZONE,4,17,8
India,Bihar,Motihari,"Gandak Colony, Motihari - BSPCB",20-05-2024 18:00:00,26.63086,84.90051,PM2.5,27,113,55
India,Bihar,Munger,"Town Hall, Munger - BSPCB",20-05-2024 18:00:00,25.376776,86.471523,PM10,NA,NA,NA
India,Bihar,Munger,"Town Hall, Munger - BSPCB",20-05-2024 18:00:00,25.376776,86.471523,NH3,2,3,3
India,Bihar,Munger,"Town Hall, Munger - BSPCB",20-05-2024 18:00:00,25.376776,86.471523,SO2,10,34,23
India,Bihar,Muzaffarpur,"Buddha Colony, Muzaffarpur - BSPCB",20-05-2024 18:00:00,26.11442,85.39813,OZONE,42,73,54
India,Bihar,Muzaffarpur,"Muzaffarpur Collectorate, Muzaffarpur - BSPCB",20-05-2024 18:00:00,26.1209,85.3647,NO2,25,46,34
India,Bihar,Patna,"Govt. High School Shikarpur, Patna - BSPCB",20-05-2024 18:00:00,25.592539,85.227158,SO2,9,12,10
India,Bihar,Patna,"Govt. High School Shikarpur, Patna - BSPCB",20-05-2024 18:00:00,25.592539,85.227158,OZONE,1,59,50
India,Bihar,Patna,"IGSC Planetarium Complex, Patna - BSPCB",20-05-2024 18:00:00,25.610369,85.132568,PM2.5,62,198,124
India,Bihar,Patna,"Rajbansi Nagar, Patna - BSPCB",20-05-2024 18:00:00,25.599486,85.113666,SO2,2,10,4
India,Bihar,Purnia,"Mariam Nagar, Purnia - BSPCB",20-05-2024 18:00:00,25.366336,87.117468,NO2,2,86,12
India,Bihar,Purnia,"Mariam Nagar, Purnia - BSPCB",20-05-2024 18:00:00,25.366336,87.117468,NH3,4,12,7
India,Bihar,Rajgir,"Dangi Tola, Rajgir - BSPCB",20-05-2024 18:00:00,25.03280,85.41948,CO,26,46,37
India,Bihar,Saharsa,"Police Line, Saharsa - BSPCB",20-05-2024 18:00:00,25.892357,86.590325,NO2,7,8,7
India,Bihar,Saharsa,"Police Line, Saharsa - BSPCB",20-05-2024 18:00:00,25.892357,86.590325,SO2,16,17,16
India,Bihar,Sasaram,"Dada Peer, Sasaram - BSPCB",20-05-2024 18:00:00,24.952822,84.002396,OZONE,28,93,73
India,Bihar,Siwan,"Chitragupta Nagar, Siwan - BSPCB",20-05-2024 18:00:00,26.2271665,84.3570427,NO2,NA,NA,NA
India,Bihar,Siwan,"Chitragupta Nagar, Siwan - BSPCB",20-05-2024 18:00:00,26.2271665,84.3570427,NH3,NA,NA,NA
India,Bihar,Siwan,"Chitragupta Nagar, Siwan - BSPCB",20-05-2024 18:00:00,26.2271665,84.3570427,OZONE,20,80,58
India,Chandigarh,Chandigarh,"Sector 22, Chandigarh - CPCC",20-05-2024 18:00:00,30.735567,76.775714,PM2.5,60,173,100
India,Chandigarh,Chandigarh,"Sector 22, Chandigarh - CPCC",20-05-2024 18:00:00,30.735567,76.775714,NO2,13,132,51
India,Chandigarh,Chandigarh,"Sector-25, Chandigarh - CPCC",20-05-2024 18:00:00,30.751462,76.762879,PM10,125,157,139
India,Chandigarh,Chandigarh,"Sector-53, Chandigarh - CPCC",20-05-2024 18:00:00,30.719859,76.738637,CO,32,112,42
India,Chhattisgarh,Bhilai,"Civic Center, Bhilai - Bhilai Steel Plant",20-05-2024 18:00:00,21.185571,81.343175,PM2.5,16,46,26
India,Chhattisgarh,Bhilai,"Civic Center, Bhilai - Bhilai Steel Plant",20-05-2024 18:00:00,21.185571,81.343175,PM10,18,55,32
India,Chhattisgarh,Bhilai,"Hathkhoj, Bhilai - CECB",20-05-2024 18:00:00,21.224231,81.408350,NH3,8,9,9
India,Chhattisgarh,Bilaspur,"Mangala, Bilaspur - NTPC",20-05-2024 18:00:00,22.08815,82.13737,NO2,13,18,15
India,Chhattisgarh,Chhal,"Nawapara SECL Colony, Chhal - CECB",20-05-2024 18:00:00,22.118125,83.140608,SO2,20,61,38
India,Chhattisgarh,Korba,"Rampur, Korba - CECB",20-05-2024 18:00:00,22.368195,82.746431,PM2.5,18,51,32
India,Chhattisgarh,Korba,"Rampur, Korba - CECB",20-05-2024 18:00:00,22.368195,82.746431,NO2,26,41,37
India,Chhattisgarh,Korba,"Urja Nagar, Korba - CECB",20-05-2024 18:00:00,22.348441,82.549611,PM2.5,NA,NA,NA
India,Chhattisgarh,Korba,"Urja Nagar, Korba - CECB",20-05-2024 18:00:00,22.348441,82.549611,PM10,NA,NA,NA
India,Chhattisgarh,Kunjemura,"OP Jindal School, Kunjemura - CECB",20-05-2024 18:00:00,22.126650,83.483212,PM10,31,149,68
India,Chhattisgarh,Milupara,"Govt. Higher Secondary School, Milupara - CECB",20-05-2024 18:00:00,22.1910172,83.5197009,CO,20,48,24
India,Chhattisgarh,Raipur,"AIIMS, Raipur - CECB",20-05-2024 18:00:00,21.258815,81.578979,PM2.5,NA,NA,NA
India,Chhattisgarh,Raipur,"AIIMS, Raipur - CECB",20-05-2024 18:00:00,21.258815,81.578979,NH3,NA,NA,NA
India,Chhattisgarh,Raipur,"Bhatagaon New ISBT, Raipur - CECB",20-05-2024 18:00:00,21.219665,81.630094,PM10,22,53,37
India,Chhattisgarh,Raipur,"Krishak Nagar, Raipur - CECB",20-05-2024 18:00:00,21.237755,81.705301,NO2,16,16,16
India,Chhattisgarh,Raipur,"Krishak Nagar, Raipur - CECB",20-05-2024 18:00:00,21.237755,81.705301,OZONE,8,61,29
India,Chhattisgarh,Raipur,"Siltara Phase-II, Raipur - CECB",20-05-2024 18:00:00,21.371751,81.664929,CO,16,38,21
India,Chhattisgarh,Raipur,"Siltara Phase-II, Raipur - CECB",20-05-2024 18:00:00,21.371751,81.664929,OZONE,4,42,29
India,Chhattisgarh,Tumidih,"OP Jindal Industrial Park, Tumidih - CECB",20-05-2024 18:00:00,22.06631475,83.33820077,NH3,NA,NA,NA
India,Delhi,Delhi,"Anand Vihar, Delhi - DPCC",20-05-2024 18:00:00,28.647622,77.3158090,NO2,52,110,85
India,Delhi,Delhi,"Anand Vihar, Delhi - DPCC",20-05-2024 18:00:00,28.647622,77.3158090,NH3,3,13,7
India,Delhi,Delhi,"Anand Vihar, Delhi - DPCC",20-05-2024 18:00:00,28.647622,77.3158090,SO2,6,92,26
India,Delhi,Delhi,"Anand Vihar, Delhi - DPCC",20-05-2024 18:00:00,28.647622,77.3158090,CO,112,132,116
India,Delhi,Delhi,"Ashok Vihar, Delhi - DPCC",20-05-2024 18:00:00,28.695381,77.181665,PM10,133,432,233
India,Delhi,Delhi,"Ashok Vihar, Delhi - DPCC",20-05-2024 18:00:00,28.695381,77.181665,OZONE,6,178,128
India,Delhi,Delhi,"Bawana, Delhi - DPCC",20-05-2024 18:00:00,28.776200,77.051074,PM2.5,82,347,189
India,Delhi,Delhi,"Burari Crossing, Delhi - IMD",20-05-2024 18:00:00,28.7256504,77.2011573,PM10,124,405,253
India,Delhi,Delhi,"Chandni Chowk, Delhi - IITM",20-05-2024 18:00:00,28.656756,77.227234,SO2,13,57,34
India,Delhi,Delhi,"DTU, Delhi - CPCB",20-05-2024 18:00:00,28.7500499,77.1112615,PM10,126,500,286
India,Delhi,Delhi,"DTU, Delhi - CPCB",20-05-2024 18:00:00,28.7500499,77.1112615,NO2,36,43,39
India,Delhi,Delhi,"DTU, Delhi - CPCB",20-05-2024 18:00:00,28.7500499,77.1112615,SO2,38,47,41
India,Delhi,Delhi,"Dr. Karni Singh Shooting Range, Delhi - DPCC",20-05-2024 18:00:00,28.498571,77.264840,NH3,5,12,7
India,Delhi,Delhi,"Dwarka-Sector 8, Delhi - DPCC ",20-05-2024 18:00:00,28.5710274,77.0719006,SO2,1,34,17
India,Delhi,Delhi,"Dwarka-Sector 8, Delhi - DPCC ",20-05-2024 18:00:00,28.5710274,77.0719006,OZONE,8,91,67
India,Delhi,Delhi,"IGI Airport (T3), Delhi - IMD",20-05-2024 18:00:00,28.5627763,77.1180053,NO2,20,65,37
India,Delhi,Delhi,"IHBAS, Dilshad Garden, Delhi - CPCB",20-05-2024 18:00:00,28.6811736,77.3025234,NH3,1,7,4
India,Delhi,Delhi,"Jahangirpuri, Delhi - DPCC",20-05-2024 18:00:00,28.732820,77.170633,OZONE,5,108,83
India,Delhi,Delhi,"Jawaharlal Nehru Stadium, Delhi - DPCC",20-05-2024 18:00:00,28.580280,77.233829,PM2.5,22,280,78
India,Delhi,Delhi,"Jawaharlal Nehru Stadium, Delhi - DPCC",20-05-2024 18:00:00,28.580280,77.233829,NH3,6,9,7
India,Delhi,Delhi,"Lodhi Road, Delhi - IMD",20-05-2024 18:00:00,28.5918245,77.2273074,CO,10,34,16
India,Delhi,Delhi,"Major Dhyan Chand National Stadium, Delhi - DPCC",20-05-2024 18:00:00,28.611281,77.237738,PM2.5,48,342,131
India,Delhi,Delhi,"Major Dhyan Chand National Stadium, Delhi - DPCC",20-05-2024 18:00:00,28.611281,77.237738,NO2,18,136,69
India,Delhi,Delhi,"Mundka, Delhi - DPCC",20-05-2024 18:00:00,28.684678,77.076574,PM10,157,448,280
India,Delhi,Delhi,"Mundka, Delhi - DPCC",20-05-2024 18:00:00,28.684678,77.076574,OZONE,7,133,97
India,Delhi,Delhi,"NSIT Dwarka, Delhi - CPCB",20-05-2024 18:00:00,28.60909,77.0325413,SO2,1,60,13
India,Delhi,Delhi,"Narela, Delhi - DPCC",20-05-2024 18:00:00,28.822836,77.101981,PM10,151,431,284
India,Delhi,Delhi,"Narela, Delhi - DPCC",20-05-2024 18:00:00,28.822836,77.101981,NO2,11,86,32
India,Delhi,Delhi,"Narela, Delhi - DPCC",20-05-2024 18:00:00,28.822836,77.101981,NH3,5,13,9
India,Delhi,Delhi,"Narela, Delhi - DPCC",20-05-2024 18:00:00,28.822836,77.101981,SO2,12,77,36
India,Delhi,Delhi,"Narela, Delhi - DPCC",20-05-2024 18:00:00,28.822836,77.101981,CO,26,102,38
India,Delhi,Delhi,"Narela, Delhi - DPCC",20-05-2024 18:00:00,28.822836,77.101981,OZONE,6,163,127
India,Delhi,Delhi,"New Moti Bagh, Delhi - MHUA",20-05-2024 18:00:00,28.57834,77.18400,NO2,6,36,18
India,Delhi,Delhi,"North Campus, DU, Delhi - IMD",20-05-2024 18:00:00,28.6573814,77.1585447,PM2.5,53,341,136
India,Delhi,Delhi,"North Campus, DU, Delhi - IMD",20-05-2024 18:00:00,28.6573814,77.1585447,CO,18,106,42
India,Delhi,Delhi,"Okhla Phase-2, Delhi - DPCC",20-05-2024 18:00:00,28.530785,77.271255,NO2,34,140,90
India,Delhi,Delhi,"Patparganj, Delhi - DPCC",20-05-2024 18:00:00,28.623763,77.287209,NO2,6,51,25
India,Delhi,Delhi,"Patparganj, Delhi - DPCC",20-05-2024 18:00:00,28.623763,77.287209,SO2,4,9,7
India,Delhi,Delhi,"Punjabi Bagh, Delhi - DPCC",20-05-2024 18:00:00,28.674045,77.131023,OZONE,5,52,45
India,Delhi,Delhi,"Pusa, Delhi - IMD",20-05-2024 18:00:00,28.636110,77.173332,NO2,1,9,6
India,Delhi,Delhi,"Pusa, Delhi - IMD",20-05-2024 18:00:00,28.636110,77.173332,CO,30,66,48
India,Delhi,Delhi,"R K Puram, Delhi - DPCC",20-05-2024 18:00:00,28.563262,77.186937,NH3,7,11,9
India,Delhi,Delhi,"R K Puram, Delhi - DPCC",20-05-2024 18:00:00,28.563262,77.186937,OZONE,16,225,154
India,Delhi,Delhi,"Rohini, Delhi - DPCC",20-05-2024 18:00:00,28.732528,77.119920,PM10,133,435,247
India,Delhi,Delhi,"Rohini, Delhi - DPCC",20-05-2024 18:00:00,28.732528,77.119920,OZONE,6,163,160
India,Delhi,Delhi,"Shadipur, Delhi - CPCB",20-05-2024 18:00:00,28.6514781,77.1473105,SO2,5,53,27
India,Delhi,Delhi,"Sonia Vihar, Delhi - DPCC",20-05-2024 18:00:00,28.710508,77.249485,PM2.5,38,393,144
India,Delhi,Delhi,"Sonia Vihar, Delhi - DPCC",20-05-2024 18:00:00,28.710508,77.249485,OZONE,6,139,98
India,Delhi,Delhi,"Sri Aurobindo Marg, Delhi - DPCC",20-05-2024 18:00:00,28.531346,77.190156,PM2.5,40,260,98
India,Delhi,Delhi,"Vivek Vihar, Delhi - DPCC",20-05-2024 18:00:00,28.672342,77.315260,NH3,12,17,15
India,Delhi,Delhi,"Wazirpur, Delhi - DPCC",20-05-2024 18:00:00,28.699793,77.165453,NO2,31,76,48
India,Delhi,Delhi,"Wazirpur, Delhi - DPCC",20-05-2024 18:00:00,28.699793,77.165453,OZONE,2,152,108
India,Gujarat,Ahmedabad,"Chandkheda, Ahmedabad - IITM",20-05-2024 18:00:00,23.107969,72.574648,NH3,11,17,15
India,Gujarat,Ahmedabad,"Chandkheda, Ahmedabad - IITM",20-05-2024 18:00:00,23.107969,72.574648,CO,1,46,13
India,Gujarat,Ahmedabad,"Gyaspur, Ahmedabad - IITM",20-05-2024 18:00:00,22.977134,72.553024,PM2.5,68,173,101
India,Gujarat,Ahmedabad,"Gyaspur, Ahmedabad - IITM",20-05-2024 18:00:00,22.977134,72.553024,NO2,39,52,47
India,Gujarat,Ahmedabad,"Gyaspur, Ahmedabad - IITM",20-05-2024 18:00:00,22.977134,72.553024,CO,38,48,43
India,Gujarat,Ahmedabad,"Maninagar, Ahmedabad - GPCB",20-05-2024 18:00:00,23.002657,72.591912,PM2.5,19,57,33
India,Gujarat,Ahmedabad,"SVPI Airport Hansol, Ahmedabad - IITM",20-05-2024 18:00:00,23.076793,72.627874,CO,10,39,20
India,Gujarat,Ahmedabad,"SVPI Airport Hansol, Ahmedabad - IITM",20-05-2024 18:00:00,23.076793,72.627874,OZONE,14,53,44
India,Gujarat,Ahmedabad,"Sardar Vallabhbhai Patel Stadium, Ahmedabad - IITM",20-05-2024 18:00:00,23.043070,72.562968,NH3,6,16,6
India,Gujarat,Gandhinagar,"Sector-10, Gandhinagar - GPCB",20-05-2024 18:00:00,23.221714,72.654328,NO2,13,14,14
India,Gujarat,Gandhinagar,"Sector-10, Gandhinagar - GPCB",20-05-2024 18:00:00,23.221714,72.654328,NH3,3,3,3
India,Gujarat,Gandhinagar,"Sector-10, Gandhinagar - GPCB",20-05-2024 18:00:00,23.221714,72.654328,SO2,3,5,4
India,Gujarat,Surat,"Science Center, Surat - SMC",20-05-2024 18:00:00,21.170046,72.795405,PM10,NA,NA,NA
India,Gujarat,Surat,"Science Center, Surat - SMC",20-05-2024 18:00:00,21.170046,72.795405,NO2,26,35,30
India,Gujarat,Vapi,"Phase-1 GIDC, Vapi - GPCB",20-05-2024 18:00:00,20.362421,72.918013,SO2,44,46,45
India,Gujarat,Vatva,"Phase-4 GIDC, Vatva - GPCB",20-05-2024 18:00:00,22.969611,72.643500,PM10,41,82,58
India,Gujarat,Vatva,"Phase-4 GIDC, Vatva - GPCB",20-05-2024 18:00:00,22.969611,72.643500,CO,35,36,36
India,Haryana,Bahadurgarh,"Arya Nagar, Bahadurgarh - HSPCB",20-05-2024 18:00:00,28.6701,76.9254,PM10,NA,NA,NA
India,Haryana,Bahadurgarh,"Arya Nagar, Bahadurgarh - HSPCB",20-05-2024 18:00:00,28.6701,76.9254,NO2,NA,NA,NA
India,Haryana,Ballabgarh,"Nathu Colony, Ballabgarh - HSPCB",20-05-2024 18:00:00,28.3419248,77.319699,PM2.5,82,310,204
India,Haryana,Bhiwani,"H.B. Colony, Bhiwani - HSPCB",20-05-2024 18:00:00,28.806223,76.141105,PM10,79,179,131
India,Haryana,Bhiwani,"H.B. Colony, Bhiwani - HSPCB",20-05-2024 18:00:00,28.806223,76.141105,NO2,1,11,8
India,Haryana,Bhiwani,"H.B. Colony, Bhiwani - HSPCB",20-05-2024 18:00:00,28.806223,76.141105,SO2,1,20,7
India,Haryana,Charkhi Dadri,"Mini Secretariat, Charkhi Dadri - HSPCB",20-05-2024 18:00:00,28.593883,76.270653,NO2,14,22,18
India,Haryana,Dharuhera,"Municipal Corporation Office, Dharuhera -  HSPCB",20-05-2024 18:00:00,28.206800,76.799700,OZONE,6,38,32
India,Haryana,Faridabad,"New Industrial Town, Faridabad - HSPCB",20-05-2024 18:00:00,28.39072,77.30059,PM2.5,166,351,280
India,Haryana,Faridabad,"New Industrial Town, Faridabad - HSPCB",20-05-2024 18:00:00,28.39072,77.30059,CO,6,50,19
India,Haryana,Faridabad,"Sector 11, Faridabad - HSPCB",20-05-2024 18:00:00,28.376058,77.315741,PM10,146,325,196
India,Haryana,Faridabad,"Sector 11, Faridabad - HSPCB",20-05-2024 18:00:00,28.376058,77.315741,SO2,4,118,17
India,Haryana,Faridabad,"Sector 11, Faridabad - HSPCB",20-05-2024 18:00:00,28.376058,77.315741,OZONE,5,26,19
India,Haryana,Faridabad,"Sector 30, Faridabad - HSPCB",20-05-2024 18:00:00,28.4417,77.3217,PM2.5,NA,NA,NA
India,Haryana,Fatehabad,"Huda Sector, Fatehabad - HSPCB",20-05-2024 18:00:00,29.503664,75.467934,PM10,106,227,158
India,Haryana,Gurugram,"NISE Gwal Pahari, Gurugram - IMD",20-05-2024 18:00:00,28.422681,77.148944,NO2,NA,NA,NA
India,Haryana,Gurugram,"Teri Gram, Gurugram - HSPCB",20-05-2024 18:00:00,28.4275,77.1465,PM2.5,150,370,293
India,Haryana,Gurugram,"Vikas Sadan, Gurugram - HSPCB",20-05-2024 18:00:00,28.4501238,77.0263051,SO2,7,77,30
India,Haryana,Hisar,"Urban Estate-II, Hisar - HSPCB",20-05-2024 18:00:00,29.140560,75.744941,PM10,105,394,169
India,Haryana,Hisar,"Urban Estate-II, Hisar - HSPCB",20-05-2024 18:00:00,29.140560,75.744941,SO2,NA,NA,NA
India,Haryana,Jind,"Police Lines, Jind - HSPCB",20-05-2024 18:00:00,29.307814,76.337619,PM10,90,159,133
India,Haryana,Kaithal,"Rishi Nagar, Kaithal - HSPCB",20-05-2024 18:00:00,29.8006,76.4155,CO,2,61,22
India,Haryana,Karnal,"Sector-12, Karnal - HSPCB",20-05-2024 18:00:00,29.695300,77.002700,NO2,7,12,10
India,Haryana,Karnal,"Sector-12, Karnal - HSPCB",20-05-2024 18:00:00,29.695300,77.002700,NH3,10,13,12
India,Haryana,Kurukshetra,"Sector-7, Kurukshetra - HSPCB",20-05-2024 18:00:00,29.966942,76.875879,PM10,115,184,146
India,Haryana,Kurukshetra,"Sector-7, Kurukshetra - HSPCB",20-05-2024 18:00:00,29.966942,76.875879,SO2,2,3,2
India,Haryana,Kurukshetra,"Sector-7, Kurukshetra - HSPCB",20-05-2024 18:00:00,29.966942,76.875879,CO,18,46,26
India,Haryana,Mandikhera,"General Hospital, Mandikhera - HSPCB",20-05-2024 18:00:00,27.9002,76.9938,PM2.5,NA,NA,NA
India,Haryana,Mandikhera,"General Hospital, Mandikhera - HSPCB",20-05-2024 18:00:00,27.9002,76.9938,PM10,NA,NA,NA
India,Haryana,Mandikhera,"General Hospital, Mandikhera - HSPCB",20-05-2024 18:00:00,27.9002,76.9938,CO,15,104,33
India,Haryana,Manesar,"Sector-2 IMT, Manesar - HSPCB",20-05-2024 18:00:00,28.360699,76.936090,NO2,11,22,15
India,Haryana,Manesar,"Sector-2 IMT, Manesar - HSPCB",20-05-2024 18:00:00,28.360699,76.936090,CO,6,22,12
India,Haryana,Narnaul,"Shastri Nagar, Narnaul - HSPCB",20-05-2024 18:00:00,28.060249,76.113115,PM10,117,442,162
India,Haryana,Narnaul,"Shastri Nagar, Narnaul - HSPCB",20-05-2024 18:00:00,28.060249,76.113115,CO,13,23,16
India,Haryana,Panchkula,"Sector-6, Panchkula - HSPCB ",20-05-2024 18:00:00,30.7057778,76.8531805555555,PM2.5,93,326,193
India,Haryana,Panchkula,"Sector-6, Panchkula - HSPCB ",20-05-2024 18:00:00,30.7057778,76.8531805555555,SO2,2,15,4
India,Haryana,Rohtak,"MD University, Rohtak - HSPCB",20-05-2024 18:00:00,28.52123,76.37138,SO2,5,9,7
India,Haryana,Rohtak,"MD University, Rohtak - HSPCB",20-05-2024 18:00:00,28.52123,76.37138,OZONE,45,54,49
India,Haryana,Sirsa,"F-Block, Sirsa - HSPCB",20-05-2024 18:00:00,29.536400,75.015800,PM10,NA,NA,NA
India,Haryana,Sirsa,"F-Block, Sirsa - HSPCB",20-05-2024 18:00:00,29.536400,75.015800,NH3,NA,NA,NA
India,Haryana,Sonipat,"Murthal, Sonipat - HSPCB",20-05-2024 18:00:00,29.027200,77.062100,NH3,NA,NA,NA
India,Haryana,Yamuna Nagar,"Gobind Pura, Yamuna Nagar - HSPCB",20-05-2024 18:00:00,30.1480566,77.2893471,NO2,11,21,16
India,Himachal Pradesh,Baddi,"HIMUDA Complex Phase-1, Baddi - HPPCB",20-05-2024 18:00:00,30.943887,76.801991,PM2.5,57,390,152
India,Himachal Pradesh,Baddi,"HIMUDA Complex Phase-1, Baddi - HPPCB",20-05-2024 18:00:00,30.943887,76.801991,SO2,12,101,37
India,Jammu_and_Kashmir,Srinagar,"Rajbagh, Srinagar - JKSPCB",20-05-2024 18:00:00,34.066206,74.819820,PM2.5,NA,NA,NA
India,Jammu_and_Kashmir,Srinagar,"Rajbagh, Srinagar - JKSPCB",20-05-2024 18:00:00,34.066206,74.819820,PM10,NA,NA,NA
India,Jharkhand,Dhanbad,"Sardar Patel Nagar, Dhanbad - JSPCB",20-05-2024 18:00:00,23.80569,86.44268,SO2,NA,NA,NA
India,Jharkhand,Dhanbad,"Sardar Patel Nagar, Dhanbad - JSPCB",20-05-2024 18:00:00,23.80569,86.44268,CO,NA,NA,NA
India,Jharkhand,Jorapokhar,"Tata Stadium, Jorapokhar - JSPCB",20-05-2024 18:00:00,23.707909,86.414670,NH3,NA,NA,NA
India,Karnataka,Bagalkot,"Vidayagiri, Bagalkot - KSPCB",20-05-2024 18:00:00,16.172806,75.659694,NO2,9,10,9
India,Karnataka,Bagalkot,"Vidayagiri, Bagalkot - KSPCB",20-05-2024 18:00:00,16.172806,75.659694,CO,16,50,35
India,Karnataka,Belgaum,"Ramteerth Nagar, Belgaum - KSPCB",20-05-2024 18:00:00,15.888653,74.541751,PM2.5,12,25,16
India,Karnataka,Bengaluru,"Bapuji Nagar, Bengaluru - KSPCB",20-05-2024 18:00:00,12.951913,77.539784,NO2,12,16,15
India,Karnataka,Bengaluru,"Bapuji Nagar, Bengaluru - KSPCB",20-05-2024 18:00:00,12.951913,77.539784,NH3,1,1,1
India,Karnataka,Bengaluru,"Hebbal, Bengaluru - KSPCB",20-05-2024 18:00:00,13.029152,77.585901,NO2,4,5,5
India,Karnataka,Bengaluru,"Hombegowda Nagar, Bengaluru - KSPCB",20-05-2024 18:00:00,12.938539,77.590100,PM2.5,12,33,20
India,Karnataka,Bengaluru,"Hombegowda Nagar, Bengaluru - KSPCB",20-05-2024 18:00:00,12.938539,77.590100,NO2,18,25,22
India,Karnataka,Bengaluru,"Jayanagar 5th Block, Bengaluru - KSPCB",20-05-2024 18:00:00,12.920984,77.584908,PM10,14,74,42
India,Karnataka,Bengaluru,"Jayanagar 5th Block, Bengaluru - KSPCB",20-05-2024 18:00:00,12.920984,77.584908,CO,21,22,21
India,Karnataka,Bengaluru,"Kasturi Nagar, Bengaluru - KSPCB",20-05-2024 18:00:00,13.003872,77.664217,NO2,16,17,17
India,Karnataka,Bengaluru,"Kasturi Nagar, Bengaluru - KSPCB",20-05-2024 18:00:00,13.003872,77.664217,SO2,10,10,10
India,Karnataka,Bengaluru,"Kasturi Nagar, Bengaluru - KSPCB",20-05-2024 18:00:00,13.003872,77.664217,CO,25,26,25
India,Karnataka,Bengaluru,"Kasturi Nagar, Bengaluru - KSPCB",20-05-2024 18:00:00,13.003872,77.664217,OZONE,2,37,31
India,Karnataka,Bengaluru,"Peenya, Bengaluru - CPCB",20-05-2024 18:00:00,13.0270199,77.494094,CO,74,82,79
India,Karnataka,Bengaluru,"RVCE-Mailasandra, Bengaluru - KSPCB",20-05-2024 18:00:00,12.921418,77.502466,PM2.5,12,60,32
India,Karnataka,Bengaluru,"RVCE-Mailasandra, Bengaluru - KSPCB",20-05-2024 18:00:00,12.921418,77.502466,SO2,7,8,8
India,Karnataka,Bengaluru,"Sanegurava Halli, Bengaluru - KSPCB",20-05-2024 18:00:00,12.990328,77.5431385,CO,5,34,18
India,Karnataka,Bengaluru,"Shivapura_Peenya, Bengaluru - KSPCB",20-05-2024 18:00:00,13.0246342,77.5080115,PM2.5,24,91,56
India,Karnataka,Bengaluru,"Shivapura_Peenya, Bengaluru - KSPCB",20-05-2024 18:00:00,13.0246342,77.5080115,OZONE,53,56,55
India,Karnataka,Chamarajanagar,"Urban, Chamarajanagar - KSPCB",20-05-2024 18:00:00,11.55358,76.55521,CO,21,120,23
India,Karnataka,Chikkaballapur,"Chikkaballapur Rural, Chikkaballapur - KSPCB",20-05-2024 18:00:00,13.428828,77.731418,PM2.5,9,39,23
India,Karnataka,Chikkamagaluru,"Kalyana Nagara, Chikkamagaluru - KSPCB",20-05-2024 18:00:00,13.328028,75.797056,PM2.5,16,58,30
India,Karnataka,Chikkamagaluru,"Kalyana Nagara, Chikkamagaluru - KSPCB",20-05-2024 18:00:00,13.328028,75.797056,NH3,2,5,3
India,Karnataka,Davanagere,"Devaraj Urs Badavane, Davanagere - KSPCB",20-05-2024 18:00:00,14.475800,75.905200,NO2,7,16,12
India,Karnataka,Davanagere,"Devaraj Urs Badavane, Davanagere - KSPCB",20-05-2024 18:00:00,14.475800,75.905200,CO,12,26,23
India,Karnataka,Dharwad,"Kalabhavan, Dharwad - KSPCB",20-05-2024 18:00:00,15.459706,75.008381,NH3,3,3,3
India,Karnataka,Gadag,"Panchal Nagar, Gadag - KSPCB",20-05-2024 18:00:00,15.411456,75.638133,PM10,25,37,28
India,Karnataka,Gadag,"Panchal Nagar, Gadag - KSPCB",20-05-2024 18:00:00,15.411456,75.638133,NO2,8,30,15
India,Karnataka,Gadag,"Panchal Nagar, Gadag - KSPCB",20-05-2024 18:00:00,15.411456,75.638133,SO2,10,19,14
India,Karnataka,Hassan,"B.Katihalli, Hassan - KSPCB",20-05-2024 18:00:00,13.008556,76.125258,CO,2,4,3
India,Karnataka,Hassan,"B.Katihalli, Hassan - KSPCB",20-05-2024 18:00:00,13.008556,76.125258,OZONE,2,2,2
India,Karnataka,Haveri,"Ashwini Nagar, Haveri - KSPCB",20-05-2024 18:00:00,14.791800,75.389600,CO,38,39,38
India,Karnataka,Hubballi,"Deshpande Nagar, Hubballi - KSPCB",20-05-2024 18:00:00,15.351773,75.140726,OZONE,1,1,1
India,Karnataka,Hubballi,"Lingaraj Nagar, Hubballi - KSPCB",20-05-2024 18:00:00,15.3714823,75.1160168,PM2.5,35,57,46
India,Karnataka,Hubballi,"Lingaraj Nagar, Hubballi - KSPCB",20-05-2024 18:00:00,15.3714823,75.1160168,NH3,2,3,2
India,Karnataka,Kalaburagi,"Lal Bahadur Shastri Nagar, Kalaburagi - KSPCB",20-05-2024 18:00:00,17.321993,76.822628,PM10,1,110,33
India,Karnataka,Kalaburagi,"Lal Bahadur Shastri Nagar, Kalaburagi - KSPCB",20-05-2024 18:00:00,17.321993,76.822628,OZONE,3,54,28
India,Karnataka,Kalaburagi,"Mahatma Basaveswar Colony, Kalaburgi - KSPCB",20-05-2024 18:00:00,17.336318,76.847397,NH3,NA,NA,NA
India,Karnataka,Koppal,"Diwator Nagar, Koppal - KSPCB",20-05-2024 18:00:00,15.347630,76.181767,SO2,27,28,27
India,Karnataka,Koppal,"Diwator Nagar, Koppal - KSPCB",20-05-2024 18:00:00,15.347630,76.181767,CO,57,58,58
India,Karnataka,Koppal,"Diwator Nagar, Koppal - KSPCB",20-05-2024 18:00:00,15.347630,76.181767,OZONE,18,52,45
India,Karnataka,Madikeri,"Stuart Hill, Madikeri - KSPCB",20-05-2024 18:00:00,12.415911,75.735050,NO2,3,8,5
India,Karnataka,Mysuru,"Hebbal 1st Stage, Mysuru - KSPCB",20-05-2024 18:00:00,12.21041,76.37376,NO2,11,35,21
India,Karnataka,Raichur,"Haji Colony, Raichur - KSPCB",20-05-2024 18:00:00,16.208139,77.348417,OZONE,2,21,10
India,Karnataka,Ramanagara,"Vijay Nagar, Ramanagara - KSPCB",20-05-2024 18:00:00,12.733409,77.298051,PM2.5,5,42,23
India,Karnataka,Ramanagara,"Vijay Nagar, Ramanagara - KSPCB",20-05-2024 18:00:00,12.733409,77.298051,PM10,17,32,25
India,Karnataka,Shivamogga,"Vinoba Nagara, Shivamogga - KSPCB",20-05-2024 18:00:00,13.940000,75.555917,PM10,37,67,56
India,Karnataka,Shivamogga,"Vinoba Nagara, Shivamogga - KSPCB",20-05-2024 18:00:00,13.940000,75.555917,CO,16,48,19
India,Karnataka,Tumakuru,"Thimmalapura, Tumakuru - KSPCB",20-05-2024 18:00:00,13.377516,77.099072,NH3,NA,NA,NA
India,Karnataka,Tumakuru,"Thimmalapura, Tumakuru - KSPCB",20-05-2024 18:00:00,13.377516,77.099072,OZONE,19,27,23
India,Karnataka,Udupi,"Brahmagiri, Udupi - KSPCB",20-05-2024 18:00:00,13.34194444,74.74694444,PM2.5,NA,NA,NA
India,Karnataka,Udupi,"Brahmagiri, Udupi - KSPCB",20-05-2024 18:00:00,13.34194444,74.74694444,PM10,NA,NA,NA
India,Karnataka,Udupi,"Brahmagiri, Udupi - KSPCB",20-05-2024 18:00:00,13.34194444,74.74694444,NO2,NA,NA,NA
India,Karnataka,Yadgir,"Collector Office, Yadgir - KSPCB",20-05-2024 18:00:00,16.7602,77.1428,NH3,1,10,2
India,Kerala,Kannur,"Thavakkara, Kannur - Kerala PCB",20-05-2024 18:00:00,11.875000,75.373200,NH3,1,1,1
India,Kerala,Kollam,"Polayathode, Kollam - Kerala PCB",20-05-2024 18:00:00,8.8787,76.6073,PM10,40,92,61
India,Kerala,Kollam,"Polayathode, Kollam - Kerala PCB",20-05-2024 18:00:00,8.8787,76.6073,OZONE,29,33,30
India,Kerala,Thiruvananthapuram,"Kariavattom, Thiruvananthapuram - Kerala PCB",20-05-2024 18:00:00,8.563700,76.886500,PM2.5,77,90,84
India,Kerala,Thiruvananthapuram,"Plammoodu, Thiruvananthapuram - Kerala PCB",20-05-2024 18:00:00,8.5149093,76.9435879,PM2.5,NA,NA,NA
India,Kerala,Thiruvananthapuram,"Plammoodu, Thiruvananthapuram - Kerala PCB",20-05-2024 18:00:00,8.5149093,76.9435879,PM10,3,28,16
India,Kerala,Thiruvananthapuram,"Plammoodu, Thiruvananthapuram - Kerala PCB",20-05-2024 18:00:00,8.5149093,76.9435879,NO2,8,10,9
India,Kerala,Thiruvananthapuram,"Plammoodu, Thiruvananthapuram - Kerala PCB",20-05-2024 18:00:00,8.5149093,76.9435879,NH3,1,1,1
India,Kerala,Thiruvananthapuram,"Plammoodu, Thiruvananthapuram - Kerala PCB",20-05-2024 18:00:00,8.5149093,76.9435879,CO,9,30,19
India,Madhya Pradesh,Bhopal,"Idgah Hills, Bhopal - MPPCB",20-05-2024 18:00:00,23.264759,77.381568,PM2.5,NA,NA,NA
India,Madhya Pradesh,Bhopal,"Idgah Hills, Bhopal - MPPCB",20-05-2024 18:00:00,23.264759,77.381568,NH3,NA,NA,NA
India,Madhya Pradesh,Bhopal,"Paryavaran Parisar, Bhopal - MPPCB",20-05-2024 18:00:00,23.210494,77.425409,NO2,12,40,21
India,Madhya Pradesh,Bhopal,"Paryavaran Parisar, Bhopal - MPPCB",20-05-2024 18:00:00,23.210494,77.425409,NH3,4,5,4
India,Madhya Pradesh,Bhopal,"Paryavaran Parisar, Bhopal - MPPCB",20-05-2024 18:00:00,23.210494,77.425409,CO,4,37,25
India,Madhya Pradesh,Bhopal,"T T Nagar, Bhopal - MPPCB",20-05-2024 18:00:00,23.233584,77.400574,NH3,1,5,3
India,Madhya Pradesh,Bhopal,"T T Nagar, Bhopal - MPPCB",20-05-2024 18:00:00,23.233584,77.400574,SO2,10,23,17
India,Madhya Pradesh,Bhopal,"T T Nagar, Bhopal - MPPCB",20-05-2024 18:00:00,23.233584,77.400574,CO,18,44,28
India,Madhya Pradesh,Dewas,"Bhopal Chauraha, Dewas - MPPCB",20-05-2024 18:00:00,22.9682591,76.064118,PM10,46,108,70
India,Madhya Pradesh,Dewas,"Bhopal Chauraha, Dewas - MPPCB",20-05-2024 18:00:00,22.9682591,76.064118,OZONE,11,60,51
India,Madhya Pradesh,Gwalior,"City Center, Gwalior - MPPCB",20-05-2024 18:00:00,26.203442,78.193251,NO2,6,60,15
India,Madhya Pradesh,Gwalior,"Deen Dayal Nagar, Gwalior - MPPCB",20-05-2024 18:00:00,26.259242,78.216432,PM10,95,294,163
