country,state,city,station,last_update,latitude,longitude,pollutant_id,pollutant_min,pollutant_max,pollutant_avg
India,Andhra_Pradesh,Amaravati,"Secretariat, Amaravati - APPCB",14-06-2024 11:00:00,16.5150833,80.5181667,PM10,11,94,34
India,Andhra_Pradesh,Amaravati,"Secretariat, Amaravati - APPCB",14-06-2024 11:00:00,16.5150833,80.5181667,NH3,2,4,4
India,Andhra_Pradesh,Amaravati,"Secretariat, Amaravati - APPCB",14-06-2024 11:00:00,16.5150833,80.5181667,CO,10,104,46
India,Andhra_Pradesh,Anantapur,"Gulzarpet, Anantapur - APPCB",14-06-2024 11:00:00,14.675886,77.593027,NH3,4,4,4
India,Andhra_Pradesh,Anantapur,"Gulzarpet, Anantapur - APPCB",14-06-2024 11:00:00,14.675886,77.593027,SO2,3,7,4
India,Andhra_Pradesh,Chittoor,"Gangineni Cheruvu, Chittoor - APPCB",14-06-2024 11:00:00,13.204880,79.097889,SO2,1,5,2
India,Andhra_Pradesh,Chittoor,"Gangineni Cheruvu, Chittoor - APPCB",14-06-2024 11:00:00,13.204880,79.097889,OZONE,37,53,53
India,Andhra_Pradesh,Rajamahendravaram,"Anand Kala Kshetram, Rajamahendravaram - APPCB",14-06-2024 11:00:00,16.9872867,81.7363176,PM10,40,86,56
India,Andhra_Pradesh,Rajamahendravaram,"Anand Kala Kshetram, Rajamahendravaram - APPCB",14-06-2024 11:00:00,16.9872867,81.7363176,SO2,11,12,11
India,Andhra_Pradesh,Tirupati,"Tirumala, Tirupati - APPCB",14-06-2024 11:00:00,13.67,79.35,PM2.5,2,24,13
India,Andhra_Pradesh,Tirupati,"Vaikuntapuram, Tirupati - APPCB",14-06-2024 11:00:00,13.615387,79.409230,CO,10,14,12
India,Andhra_Pradesh,Vijayawada,"Kanuru, Vijayawada - APPCB",14-06-2024 11:00:00,16.486692,80.699436,PM2.5,40,58,51
India,Andhra_Pradesh,Vijayawada,"Kanuru, Vijayawada - APPCB",14-06-2024 11:00:00,16.486692,80.699436,SO2,6,10,8
India,Andhra_Pradesh,Vijayawada,"Kanuru, Vijayawada - APPCB",14-06-2024 11:00:00,16.486692,80.699436,CO,36,36,36
India,Andhra_Pradesh,Vijayawada,"Rajiv Gandhi Park, Vijayawada - APPCB",14-06-2024 11:00:00,16.509717,80.612222,PM2.5,45,83,55
India,Andhra_Pradesh,Vijayawada,"Rajiv Nagar, Vijayawada - APPCB",14-06-2024 11:00:00,16.554731,80.649110,CO,38,38,38
India,Andhra_Pradesh,Visakhapatnam,"GVM Corporation, Visakhapatnam - APPCB",14-06-2024 11:00:00,17.72,83.3,PM10,68,204,122
India,Andhra_Pradesh,Visakhapatnam,"GVM Corporation, Visakhapatnam - APPCB",14-06-2024 11:00:00,17.72,83.3,CO,15,83,27
India,Andhra_Pradesh,Visakhapatnam,"GVM Corporation, Visakhapatnam - APPCB",14-06-2024 11:00:00,17.72,83.3,OZONE,9,39,21
India,Assam,Byrnihat,"Central Academy for SFS, Byrnihat - PCBA",14-06-2024 11:00:00,26.071318,91.87488,SO2,6,57,23
India,Assam,Guwahati,"IITG, Guwahati - PCBA",14-06-2024 11:00:00,26.2028636,91.70046436,PM2.5,NA,NA,NA
India,Assam,Guwahati,"IITG, Guwahati - PCBA",14-06-2024 11:00:00,26.2028636,91.70046436,NO2,NA,NA,NA
India,Assam,Guwahati,"IITG, Guwahati - PCBA",14-06-2024 11:00:00,26.2028636,91.70046436,CO,8,13,8
India,Assam,Guwahati,"IITG, Guwahati - PCBA",14-06-2024 11:00:00,26.2028636,91.70046436,OZONE,12,23,23
India,Assam,Guwahati,"LGBI Airport, Guwahati - PCBA",14-06-2024 11:00:00,26.10887,91.589544,SO2,7,22,12
India,Assam,Guwahati,"LGBI Airport, Guwahati - PCBA",14-06-2024 11:00:00,26.10887,91.589544,CO,31,94,35
India,Assam,Guwahati,"Railway Colony, Guwahati - PCBA",14-06-2024 11:00:00,26.181742,91.78063,SO2,2,2,2
India,Assam,Nagaon,"Christianpatty, Nagaon - PCBA",14-06-2024 11:00:00,26.349082,92.68449,PM10,15,72,19
India,Assam,Nagaon,"Christianpatty, Nagaon - PCBA",14-06-2024 11:00:00,26.349082,92.68449,NO2,1,25,7
India,Assam,Sivasagar,"Girls College, Sivasagar - PCBA",14-06-2024 11:00:00,26.987634,94.636574,NO2,7,15,12
India,Bihar,Arrah,"New DM Office, Arrah - BSPCB",14-06-2024 11:00:00,25.5626095,84.663264,OZONE,8,33,17
India,Bihar,Aurangabad,"Gurdeo Nagar, Aurangabad - BSPCB",14-06-2024 11:00:00,24.75746,84.366208,NO2,2,17,7
India,Bihar,Aurangabad,"Gurdeo Nagar, Aurangabad - BSPCB",14-06-2024 11:00:00,24.75746,84.366208,NH3,NA,NA,NA
India,Bihar,Bhagalpur,"DM Office_Kachari Chowk, Bhagalpur - BSPCB",14-06-2024 11:00:00,25.251013,86.989001,NH3,3,6,5
India,Bihar,Bhagalpur,"Mayaganj, Bhagalpur - BSPCB",14-06-2024 11:00:00,25.265194,87.012947,PM10,59,167,108
India,Bihar,Bhagalpur,"Mayaganj, Bhagalpur - BSPCB",14-06-2024 11:00:00,25.265194,87.012947,SO2,24,53,36
India,Bihar,Bihar Sharif,"D M Colony, Bihar Sharif - BSPCB",14-06-2024 11:00:00,25.204762,85.514960,NH3,1,1,1
India,Bihar,Gaya,"Kareemganj, Gaya - BSPCB",14-06-2024 11:00:00,24.792403,84.992416,SO2,10,10,10
India,Bihar,Hajipur,"Industrial Area, Hajipur - BSPCB",14-06-2024 11:00:00,25.697189,85.245900,NO2,10,33,19
India,Bihar,Hajipur,"Industrial Area, Hajipur - BSPCB",14-06-2024 11:00:00,25.697189,85.245900,CO,22,30,29
India,Bihar,Katihar,"Mirchaibari, Katihar - BSPCB",14-06-2024 11:00:00,25.560083,87.553265,SO2,6,14,9
India,Bihar,Katihar,"Mirchaibari, Katihar - BSPCB",14-06-2024 11:00:00,25.560083,87.553265,CO,16,39,27
India,Bihar,Manguraha,"Forest Rest House, Manguraha - BSPCB",14-06-2024 11:00:00,27.308328,84.531742,PM2.5,28,93,43
India,Bihar,Manguraha,"Forest Rest House, Manguraha - BSPCB",14-06-2024 11:00:00,27.308328,84.531742,NO2,8,20,12
India,Bihar,Manguraha,"Forest Rest House, Manguraha - BSPCB",14-06-2024 11:00:00,27.308328,84.531742,SO2,2,3,3
India,Bihar,Motihari,"Gandak Colony, Motihari - BSPCB",14-06-2024 11:00:00,26.63086,84.90051,NO2,15,31,23
India,Bihar,Munger,"Town Hall, Munger - BSPCB",14-06-2024 11:00:00,25.376776,86.471523,OZONE,27,34,30
India,Bihar,Muzaffarpur,"Muzaffarpur Collectorate, Muzaffarpur - BSPCB",14-06-2024 11:00:00,26.1209,85.3647,CO,40,88,67
India,Bihar,Patna,"Govt. High School Shikarpur, Patna - BSPCB",14-06-2024 11:00:00,25.592539,85.227158,NO2,15,35,32
India,Bihar,Patna,"IGSC Planetarium Complex, Patna - BSPCB",14-06-2024 11:00:00,25.610369,85.132568,PM2.5,89,160,117
India,Bihar,Patna,"IGSC Planetarium Complex, Patna - BSPCB",14-06-2024 11:00:00,25.610369,85.132568,NO2,12,12,12
India,Bihar,Patna,"IGSC Planetarium Complex, Patna - BSPCB",14-06-2024 11:00:00,25.610369,85.132568,SO2,4,6,5
India,Bihar,Patna,"IGSC Planetarium Complex, Patna - BSPCB",14-06-2024 11:00:00,25.610369,85.132568,OZONE,83,154,140
India,Bihar,Patna,"Samanpura, Patna - BSPCB",14-06-2024 11:00:00,25.596727,85.085624,NH3,6,13,8
India,Bihar,Purnia,"Mariam Nagar, Purnia - BSPCB",14-06-2024 11:00:00,25.366336,87.117468,NO2,4,6,5
India,Bihar,Rajgir,"Dangi Tola, Rajgir - BSPCB",14-06-2024 11:00:00,25.03280,85.41948,PM10,65,123,96
India,Bihar,Saharsa,"Police Line, Saharsa - BSPCB",14-06-2024 11:00:00,25.892357,86.590325,PM10,50,114,77
India,Bihar,Samastipur,"DM Office_Kasipur, Samastipur - BSPCB",14-06-2024 11:00:00,25.859655,85.77944,PM2.5,NA,NA,NA
India,Bihar,Samastipur,"DM Office_Kasipur, Samastipur - BSPCB",14-06-2024 11:00:00,25.859655,85.77944,NO2,4,8,4
India,Bihar,Sasaram,"Dada Peer, Sasaram - BSPCB",14-06-2024 11:00:00,24.952822,84.002396,OZONE,9,94,22
India,Bihar,Siwan,"Chitragupta Nagar, Siwan - BSPCB",14-06-2024 11:00:00,26.2271665,84.3570427,PM2.5,NA,NA,NA
India,Chandigarh,Chandigarh,"Sector 22, Chandigarh - CPCC",14-06-2024 11:00:00,30.735567,76.775714,PM2.5,33,167,92
India,Chandigarh,Chandigarh,"Sector 22, Chandigarh - CPCC",14-06-2024 11:00:00,30.735567,76.775714,NH3,4,22,9
India,Chandigarh,Chandigarh,"Sector 22, Chandigarh - CPCC",14-06-2024 11:00:00,30.735567,76.775714,OZONE,22,296,81
India,Chandigarh,Chandigarh,"Sector-53, Chandigarh - CPCC",14-06-2024 11:00:00,30.719859,76.738637,PM10,106,490,147
India,Chandigarh,Chandigarh,"Sector-53, Chandigarh - CPCC",14-06-2024 11:00:00,30.719859,76.738637,NO2,12,103,36
India,Chhattisgarh,Bhilai,"Civic Center, Bhilai - Bhilai Steel Plant",14-06-2024 11:00:00,21.185571,81.343175,PM10,21,58,39
India,Chhattisgarh,Bhilai,"Hathkhoj, Bhilai - CECB",14-06-2024 11:00:00,21.224231,81.408350,PM2.5,21,70,43
India,Chhattisgarh,Bhilai,"Hathkhoj, Bhilai - CECB",14-06-2024 11:00:00,21.224231,81.408350,NH3,9,10,10
India,Chhattisgarh,Bilaspur,"Mangala, Bilaspur - NTPC",14-06-2024 11:00:00,22.08815,82.13737,NO2,14,17,16
India,Chhattisgarh,Korba,"Urja Nagar, Korba - CECB",14-06-2024 11:00:00,22.348441,82.549611,CO,14,44,35
India,Chhattisgarh,Milupara,"Govt. Higher Secondary School, Milupara - CECB",14-06-2024 11:00:00,22.1910172,83.5197009,PM2.5,28,58,41
India,Chhattisgarh,Milupara,"Govt. Higher Secondary School, Milupara - CECB",14-06-2024 11:00:00,22.1910172,83.5197009,PM10,46,85,66
India,Chhattisgarh,Raipur,"Bhatagaon New ISBT, Raipur - CECB",14-06-2024 11:00:00,21.219665,81.630094,NH3,2,2,2
India,Chhattisgarh,Raipur,"Bhatagaon New ISBT, Raipur - CECB",14-06-2024 11:00:00,21.219665,81.630094,SO2,4,6,5
India,Chhattisgarh,Raipur,"Bhatagaon New ISBT, Raipur - CECB",14-06-2024 11:00:00,21.219665,81.630094,CO,9,37,13
India,Chhattisgarh,Raipur,"Bhatagaon New ISBT, Raipur - CECB",14-06-2024 11:00:00,21.219665,81.630094,OZONE,4,10,7
India,Chhattisgarh,Raipur,"Krishak Nagar, Raipur - CECB",14-06-2024 11:00:00,21.237755,81.705301,NO2,5,5,5
India,Chhattisgarh,Raipur,"Siltara Phase-II, Raipur - CECB",14-06-2024 11:00:00,21.371751,81.664929,SO2,15,80,34
India,Chhattisgarh,Tumidih,"OP Jindal Industrial Park, Tumidih - CECB",14-06-2024 11:00:00,22.06631475,83.33820077,PM2.5,NA,NA,NA
India,Chhattisgarh,Tumidih,"OP Jindal Industrial Park, Tumidih - CECB",14-06-2024 11:00:00,22.06631475,83.33820077,NO2,NA,NA,NA
India,Chhattisgarh,Tumidih,"OP Jindal Industrial Park, Tumidih - CECB",14-06-2024 11:00:00,22.06631475,83.33820077,SO2,NA,NA,NA
India,Delhi,Delhi,"Alipur, Delhi - DPCC",14-06-2024 11:00:00,28.815329,77.153010,NH3,4,6,4
India,Delhi,Delhi,"Alipur, Delhi - DPCC",14-06-2024 11:00:00,28.815329,77.153010,SO2,3,36,17
India,Delhi,Delhi,"Anand Vihar, Delhi - DPCC",14-06-2024 11:00:00,28.647622,77.3158090,PM10,151,466,251
India,Delhi,Delhi,"Anand Vihar, Delhi - DPCC",14-06-2024 11:00:00,28.647622,77.3158090,OZONE,79,153,94
India,Delhi,Delhi,"Ashok Vihar, Delhi - DPCC",14-06-2024 11:00:00,28.695381,77.181665,PM2.5,30,107,60
India,Delhi,Delhi,"Ashok Vihar, Delhi - DPCC",14-06-2024 11:00:00,28.695381,77.181665,NH3,10,18,16
India,Delhi,Delhi,"Ashok Vihar, Delhi - DPCC",14-06-2024 11:00:00,28.695381,77.181665,SO2,12,34,21
India,Delhi,Delhi,"Bawana, Delhi - DPCC",14-06-2024 11:00:00,28.776200,77.051074,NH3,2,3,3
India,Delhi,Delhi,"Bawana, Delhi - DPCC",14-06-2024 11:00:00,28.776200,77.051074,SO2,9,118,29
India,Delhi,Delhi,"Chandni Chowk, Delhi - IITM",14-06-2024 11:00:00,28.656756,77.227234,PM10,145,278,187
India,Delhi,Delhi,"Chandni Chowk, Delhi - IITM",14-06-2024 11:00:00,28.656756,77.227234,SO2,10,51,32
India,Delhi,Delhi,"Chandni Chowk, Delhi - IITM",14-06-2024 11:00:00,28.656756,77.227234,OZONE,NA,NA,NA
India,Delhi,Delhi,"Dr. Karni Singh Shooting Range, Delhi - DPCC",14-06-2024 11:00:00,28.498571,77.264840,SO2,3,21,9
India,Delhi,Delhi,"Dr. Karni Singh Shooting Range, Delhi - DPCC",14-06-2024 11:00:00,28.498571,77.264840,OZONE,59,260,79
India,Delhi,Delhi,"Dwarka-Sector 8, Delhi - DPCC ",14-06-2024 11:00:00,28.5710274,77.0719006,PM10,101,395,191
India,Delhi,Delhi,"Dwarka-Sector 8, Delhi - DPCC ",14-06-2024 11:00:00,28.5710274,77.0719006,SO2,7,27,15
India,Delhi,Delhi,"Dwarka-Sector 8, Delhi - DPCC ",14-06-2024 11:00:00,28.5710274,77.0719006,OZONE,24,107,39
India,Delhi,Delhi,"IGI Airport (T3), Delhi - IMD",14-06-2024 11:00:00,28.5627763,77.1180053,PM10,59,180,117
India,Delhi,Delhi,"IGI Airport (T3), Delhi - IMD",14-06-2024 11:00:00,28.5627763,77.1180053,OZONE,6,44,11
India,Delhi,Delhi,"IHBAS, Dilshad Garden, Delhi - CPCB",14-06-2024 11:00:00,28.6811736,77.3025234,PM2.5,75,303,164
India,Delhi,Delhi,"IHBAS, Dilshad Garden, Delhi - CPCB",14-06-2024 11:00:00,28.6811736,77.3025234,PM10,111,179,138
India,Delhi,Delhi,"ITO, Delhi - CPCB",14-06-2024 11:00:00,28.628624,77.241060,PM10,19,143,91
India,Delhi,Delhi,"ITO, Delhi - CPCB",14-06-2024 11:00:00,28.628624,77.241060,CO,32,84,44
India,Delhi,Delhi,"Jahangirpuri, Delhi - DPCC",14-06-2024 11:00:00,28.732820,77.170633,PM10,139,424,223
India,Delhi,Delhi,"Jawaharlal Nehru Stadium, Delhi - DPCC",14-06-2024 11:00:00,28.580280,77.233829,PM10,97,375,164
India,Delhi,Delhi,"Jawaharlal Nehru Stadium, Delhi - DPCC",14-06-2024 11:00:00,28.580280,77.233829,NH3,6,10,7
India,Delhi,Delhi,"Lodhi Road, Delhi - IMD",14-06-2024 11:00:00,28.5918245,77.2273074,NO2,3,18,7
India,Delhi,Delhi,"Major Dhyan Chand National Stadium, Delhi - DPCC",14-06-2024 11:00:00,28.611281,77.237738,CO,28,70,31
India,Delhi,Delhi,"Major Dhyan Chand National Stadium, Delhi - DPCC",14-06-2024 11:00:00,28.611281,77.237738,OZONE,2,174,50
India,Delhi,Delhi,"Mandir Marg, Delhi - DPCC",14-06-2024 11:00:00,28.636429,77.201067,NH3,3,5,4
India,Delhi,Delhi,"Mandir Marg, Delhi - DPCC",14-06-2024 11:00:00,28.636429,77.201067,OZONE,41,98,51
India,Delhi,Delhi,"Najafgarh, Delhi - DPCC",14-06-2024 11:00:00,28.570173,76.933762,PM10,88,330,148
India,Delhi,Delhi,"Narela, Delhi - DPCC",14-06-2024 11:00:00,28.822836,77.101981,OZONE,39,159,47
India,Delhi,Delhi,"Nehru Nagar, Delhi - DPCC",14-06-2024 11:00:00,28.567890,77.250515,CO,39,100,62
India,Delhi,Delhi,"Nehru Nagar, Delhi - DPCC",14-06-2024 11:00:00,28.567890,77.250515,OZONE,11,188,55
India,Delhi,Delhi,"Okhla Phase-2, Delhi - DPCC",14-06-2024 11:00:00,28.530785,77.271255,CO,12,105,61
India,Delhi,Delhi,"Okhla Phase-2, Delhi - DPCC",14-06-2024 11:00:00,28.530785,77.271255,OZONE,13,86,28
India,Delhi,Delhi,"Pusa, Delhi - DPCC",14-06-2024 11:00:00,28.639652,77.146275,PM2.5,30,85,50
India,Delhi,Delhi,"Pusa, Delhi - DPCC",14-06-2024 11:00:00,28.639652,77.146275,NH3,5,8,7
India,Delhi,Delhi,"Pusa, Delhi - IMD",14-06-2024 11:00:00,28.636110,77.173332,NO2,11,22,15
India,Delhi,Delhi,"R K Puram, Delhi - DPCC",14-06-2024 11:00:00,28.563262,77.186937,NH3,4,9,6
India,Delhi,Delhi,"Rohini, Delhi - DPCC",14-06-2024 11:00:00,28.732528,77.119920,PM2.5,23,75,52
India,Delhi,Delhi,"Rohini, Delhi - DPCC",14-06-2024 11:00:00,28.732528,77.119920,NH3,8,12,10
India,Delhi,Delhi,"Shadipur, Delhi - CPCB",14-06-2024 11:00:00,28.6514781,77.1473105,SO2,5,28,16
India,Delhi,Delhi,"Sirifort, Delhi - CPCB",14-06-2024 11:00:00,28.5504249,77.2159377,PM2.5,33,119,58
India,Delhi,Delhi,"Sirifort, Delhi - CPCB",14-06-2024 11:00:00,28.5504249,77.2159377,PM10,109,411,181
India,Delhi,Delhi,"Sirifort, Delhi - CPCB",14-06-2024 11:00:00,28.5504249,77.2159377,CO,10,38,12
India,Delhi,Delhi,"Sirifort, Delhi - CPCB",14-06-2024 11:00:00,28.5504249,77.2159377,OZONE,11,60,14
India,Delhi,Delhi,"Sonia Vihar, Delhi - DPCC",14-06-2024 11:00:00,28.710508,77.249485,CO,1,42,10
India,Delhi,Delhi,"Sri Aurobindo Marg, Delhi - DPCC",14-06-2024 11:00:00,28.531346,77.190156,PM10,111,311,174
India,Delhi,Delhi,"Sri Aurobindo Marg, Delhi - DPCC",14-06-2024 11:00:00,28.531346,77.190156,CO,34,49,42
India,Delhi,Delhi,"Vivek Vihar, Delhi - DPCC",14-06-2024 11:00:00,28.672342,77.315260,NH3,16,17,16
India,Delhi,Delhi,"Vivek Vihar, Delhi - DPCC",14-06-2024 11:00:00,28.672342,77.315260,SO2,10,21,15
India,Delhi,Delhi,"Wazirpur, Delhi - DPCC",14-06-2024 11:00:00,28.699793,77.165453,PM2.5,40,98,64
India,Delhi,Delhi,"Wazirpur, Delhi - DPCC",14-06-2024 11:00:00,28.699793,77.165453,NH3,7,8,8
India,Gujarat,Ahmedabad,"Gyaspur, Ahmedabad - IITM",14-06-2024 11:00:00,22.977134,72.553024,PM2.5,19,328,98
India,Gujarat,Ahmedabad,"Gyaspur, Ahmedabad - IITM",14-06-2024 11:00:00,22.977134,72.553024,NH3,4,5,5
India,Gujarat,Ahmedabad,"Raikhad, Ahmedabad - IITM",14-06-2024 11:00:00,23.020509,72.579261,PM10,55,193,115
India,Gujarat,Ahmedabad,"Raikhad, Ahmedabad - IITM",14-06-2024 11:00:00,23.020509,72.579261,NH3,6,6,6
India,Gujarat,Ahmedabad,"Raikhad, Ahmedabad - IITM",14-06-2024 11:00:00,23.020509,72.579261,CO,16,32,19
India,Gujarat,Ahmedabad,"SVPI Airport Hansol, Ahmedabad - IITM",14-06-2024 11:00:00,23.076793,72.627874,PM10,38,96,70
India,Gujarat,Ahmedabad,"SVPI Airport Hansol, Ahmedabad - IITM",14-06-2024 11:00:00,23.076793,72.627874,OZONE,3,89,11
India,Gujarat,Gandhinagar,"GIFT City, Gandhinagar - IITM",14-06-2024 11:00:00,23.163798,72.677768,NO2,NA,NA,NA
India,Gujarat,Gandhinagar,"GIFT City, Gandhinagar - IITM",14-06-2024 11:00:00,23.163798,72.677768,OZONE,NA,NA,NA
India,Gujarat,Gandhinagar,"Sector-10, Gandhinagar - GPCB",14-06-2024 11:00:00,23.221714,72.654328,PM2.5,21,41,32
India,Gujarat,Gandhinagar,"Sector-10, Gandhinagar - GPCB",14-06-2024 11:00:00,23.221714,72.654328,NO2,17,18,17
India,Gujarat,Gandhinagar,"Sector-10, Gandhinagar - GPCB",14-06-2024 11:00:00,23.221714,72.654328,NH3,2,2,2
India,Gujarat,Gandhinagar,"Sector-10, Gandhinagar - GPCB",14-06-2024 11:00:00,23.221714,72.654328,CO,17,17,17
India,Gujarat,Nandesari,"GIDC, Nandesari - Nandesari Ind. Association",14-06-2024 11:00:00,22.410802,73.097923,PM2.5,55,298,121
India,Gujarat,Nandesari,"GIDC, Nandesari - Nandesari Ind. Association",14-06-2024 11:00:00,22.410802,73.097923,SO2,1,23,11
India,Gujarat,Vatva,"Phase-4 GIDC, Vatva - GPCB",14-06-2024 11:00:00,22.969611,72.643500,PM2.5,2,31,20
India,Haryana,Bahadurgarh,"Arya Nagar, Bahadurgarh - HSPCB",14-06-2024 11:00:00,28.6701,76.9254,NH3,8,10,9
India,Haryana,Bahadurgarh,"Arya Nagar, Bahadurgarh - HSPCB",14-06-2024 11:00:00,28.6701,76.9254,SO2,NA,NA,NA
India,Haryana,Bhiwani,"H.B. Colony, Bhiwani - HSPCB",14-06-2024 11:00:00,28.806223,76.141105,NH3,4,6,6
India,Haryana,Charkhi Dadri,"Mini Secretariat, Charkhi Dadri - HSPCB",14-06-2024 11:00:00,28.593883,76.270653,NH3,6,8,7
India,Haryana,Charkhi Dadri,"Mini Secretariat, Charkhi Dadri - HSPCB",14-06-2024 11:00:00,28.593883,76.270653,CO,16,45,28
India,Haryana,Dharuhera,"Municipal Corporation Office, Dharuhera -  HSPCB",14-06-2024 11:00:00,28.206800,76.799700,CO,6,89,18
India,Haryana,Faridabad,"Sector 11, Faridabad - HSPCB",14-06-2024 11:00:00,28.376058,77.315741,OZONE,5,21,7
India,Haryana,Faridabad,"Sector 30, Faridabad - HSPCB",14-06-2024 11:00:00,28.4417,77.3217,OZONE,21,47,23
India,Haryana,Faridabad,"Sector- 16A, Faridabad - HSPCB",14-06-2024 11:00:00,28.4088421,77.3099081,CO,9,116,60
India,Haryana,Fatehabad,"Huda Sector, Fatehabad - HSPCB",14-06-2024 11:00:00,29.503664,75.467934,NH3,9,11,10
India,Haryana,Gurugram,"NISE Gwal Pahari, Gurugram - IMD",14-06-2024 11:00:00,28.422681,77.148944,PM2.5,32,244,72
India,Haryana,Gurugram,"NISE Gwal Pahari, Gurugram - IMD",14-06-2024 11:00:00,28.422681,77.148944,NO2,18,77,37
India,Haryana,Gurugram,"Teri Gram, Gurugram - HSPCB",14-06-2024 11:00:00,28.4275,77.1465,NH3,19,74,41
India,Haryana,Hisar,"Urban Estate-II, Hisar - HSPCB",14-06-2024 11:00:00,29.140560,75.744941,NO2,10,13,11
India,Haryana,Hisar,"Urban Estate-II, Hisar - HSPCB",14-06-2024 11:00:00,29.140560,75.744941,OZONE,40,98,48
India,Haryana,Kaithal,"Rishi Nagar, Kaithal - HSPCB",14-06-2024 11:00:00,29.8006,76.4155,SO2,11,100,28
India,Haryana,Kaithal,"Rishi Nagar, Kaithal - HSPCB",14-06-2024 11:00:00,29.8006,76.4155,OZONE,13,20,15
India,Haryana,Kurukshetra,"Sector-7, Kurukshetra - HSPCB",14-06-2024 11:00:00,29.966942,76.875879,NH3,4,5,5
India,Haryana,Mandikhera,"General Hospital, Mandikhera - HSPCB",14-06-2024 11:00:00,27.9002,76.9938,NH3,16,19,18
India,Haryana,Manesar,"Sector-2 IMT, Manesar - HSPCB",14-06-2024 11:00:00,28.360699,76.936090,OZONE,19,59,29
India,Haryana,Narnaul,"Shastri Nagar, Narnaul - HSPCB",14-06-2024 11:00:00,28.060249,76.113115,NO2,15,84,47
India,Haryana,Narnaul,"Shastri Nagar, Narnaul - HSPCB",14-06-2024 11:00:00,28.060249,76.113115,CO,10,16,12
India,Haryana,Palwal,"Shyam Nagar, Palwal - HSPCB",14-06-2024 11:00:00,28.1485564,77.3320667,PM2.5,46,72,57
India,Haryana,Palwal,"Shyam Nagar, Palwal - HSPCB",14-06-2024 11:00:00,28.1485564,77.3320667,SO2,4,107,16
India,Haryana,Panipat,"Sector-18, Panipat - HSPCB",14-06-2024 11:00:00,29.432304,76.972765,PM2.5,96,188,173
India,Haryana,Panipat,"Sector-18, Panipat - HSPCB",14-06-2024 11:00:00,29.432304,76.972765,OZONE,29,30,30
India,Haryana,Rohtak,"MD University, Rohtak - HSPCB",14-06-2024 11:00:00,28.52123,76.37138,SO2,5,8,7
India,Haryana,Rohtak,"MD University, Rohtak - HSPCB",14-06-2024 11:00:00,28.52123,76.37138,OZONE,46,54,50
India,Haryana,Sirsa,"F-Block, Sirsa - HSPCB",14-06-2024 11:00:00,29.536400,75.015800,PM2.5,71,153,103
India,Haryana,Sirsa,"F-Block, Sirsa - HSPCB",14-06-2024 11:00:00,29.536400,75.015800,SO2,9,16,12
India,Haryana,Sonipat,"Murthal, Sonipat - HSPCB",14-06-2024 11:00:00,29.027200,77.062100,OZONE,17,36,22
India,Haryana,Yamuna Nagar,"Gobind Pura, Yamuna Nagar - HSPCB",14-06-2024 11:00:00,30.1480566,77.2893471,NH3,1,6,4
India,Himachal Pradesh,Baddi,"HIMUDA Complex Phase-1, Baddi - HPPCB",14-06-2024 11:00:00,30.943887,76.801991,NO2,10,40,19
India,Jharkhand,Dhanbad,"Sardar Patel Nagar, Dhanbad - JSPCB",14-06-2024 11:00:00,23.80569,86.44268,NO2,76,363,185
India,Jharkhand,Dhanbad,"Sardar Patel Nagar, Dhanbad - JSPCB",14-06-2024 11:00:00,23.80569,86.44268,CO,42,176,164
India,Karnataka,Belgaum,"Ramteerth Nagar, Belgaum - KSPCB",14-06-2024 11:00:00,15.888653,74.541751,PM10,14,35,24
India,Karnataka,Belgaum,"Ramteerth Nagar, Belgaum - KSPCB",14-06-2024 11:00:00,15.888653,74.541751,NO2,14,40,23
India,Karnataka,Belgaum,"Ramteerth Nagar, Belgaum - KSPCB",14-06-2024 11:00:00,15.888653,74.541751,NH3,8,10,9
India,Karnataka,Belgaum,"Ramteerth Nagar, Belgaum - KSPCB",14-06-2024 11:00:00,15.888653,74.541751,SO2,9,9,9
India,Karnataka,Bengaluru,"Hebbal, Bengaluru - KSPCB",14-06-2024 11:00:00,13.029152,77.585901,PM2.5,3,28,12
India,Karnataka,Bengaluru,"Hebbal, Bengaluru - KSPCB",14-06-2024 11:00:00,13.029152,77.585901,PM10,14,35,25
India,Karnataka,Bengaluru,"Hebbal, Bengaluru - KSPCB",14-06-2024 11:00:00,13.029152,77.585901,NH3,1,1,1
India,Karnataka,Bengaluru,"Hebbal, Bengaluru - KSPCB",14-06-2024 11:00:00,13.029152,77.585901,SO2,16,24,19
India,Karnataka,Bengaluru,"Hombegowda Nagar, Bengaluru - KSPCB",14-06-2024 11:00:00,12.938539,77.590100,NO2,9,28,15
India,Karnataka,Bengaluru,"Jayanagar 5th Block, Bengaluru - KSPCB",14-06-2024 11:00:00,12.920984,77.584908,PM2.5,NA,NA,NA
India,Karnataka,Bengaluru,"Jayanagar 5th Block, Bengaluru - KSPCB",14-06-2024 11:00:00,12.920984,77.584908,NO2,8,14,10
India,Karnataka,Bengaluru,"Jigani, Bengaluru - KSPCB",14-06-2024 11:00:00,12.7816279,77.6299145,PM2.5,NA,NA,NA
India,Karnataka,Bengaluru,"Kasturi Nagar, Bengaluru - KSPCB",14-06-2024 11:00:00,13.003872,77.664217,NO2,16,17,17
India,Karnataka,Bengaluru,"Kasturi Nagar, Bengaluru - KSPCB",14-06-2024 11:00:00,13.003872,77.664217,OZONE,39,39,39
India,Karnataka,Bengaluru,"Sanegurava Halli, Bengaluru - KSPCB",14-06-2024 11:00:00,12.990328,77.5431385,SO2,2,4,2
India,Karnataka,Bengaluru,"Shivapura_Peenya, Bengaluru - KSPCB",14-06-2024 11:00:00,13.0246342,77.5080115,NH3,4,4,4
India,Karnataka,Bidar,"Naubad, Bidar - KSPCB",14-06-2024 11:00:00,17.930306,77.482194,NO2,7,8,7
India,Karnataka,Bidar,"Naubad, Bidar - KSPCB",14-06-2024 11:00:00,17.930306,77.482194,SO2,16,19,18
India,Karnataka,Chamarajanagar,"Urban, Chamarajanagar - KSPCB",14-06-2024 11:00:00,11.55358,76.55521,CO,18,121,27
India,Karnataka,Chikkamagaluru,"Kalyana Nagara, Chikkamagaluru - KSPCB",14-06-2024 11:00:00,13.328028,75.797056,PM2.5,15,57,29
India,Karnataka,Davanagere,"Devaraj Urs Badavane, Davanagere - KSPCB",14-06-2024 11:00:00,14.475800,75.905200,NO2,9,12,11
India,Karnataka,Davanagere,"Devaraj Urs Badavane, Davanagere - KSPCB",14-06-2024 11:00:00,14.475800,75.905200,CO,19,26,22
India,Karnataka,Gadag,"Panchal Nagar, Gadag - KSPCB",14-06-2024 11:00:00,15.411456,75.638133,PM10,25,40,27
India,Karnataka,Gadag,"Panchal Nagar, Gadag - KSPCB",14-06-2024 11:00:00,15.411456,75.638133,NO2,5,24,13
India,Karnataka,Gadag,"Panchal Nagar, Gadag - KSPCB",14-06-2024 11:00:00,15.411456,75.638133,NH3,2,4,3
India,Karnataka,Gadag,"Panchal Nagar, Gadag - KSPCB",14-06-2024 11:00:00,15.411456,75.638133,CO,40,44,42
India,Karnataka,Hassan,"B.Katihalli, Hassan - KSPCB",14-06-2024 11:00:00,13.008556,76.125258,PM10,37,126,81
India,Karnataka,Hassan,"B.Katihalli, Hassan - KSPCB",14-06-2024 11:00:00,13.008556,76.125258,OZONE,1,2,1
India,Karnataka,Haveri,"Ashwini Nagar, Haveri - KSPCB",14-06-2024 11:00:00,14.791800,75.389600,NO2,24,47,32
India,Karnataka,Haveri,"Ashwini Nagar, Haveri - KSPCB",14-06-2024 11:00:00,14.791800,75.389600,CO,36,38,37
India,Karnataka,Hubballi,"Lingaraj Nagar, Hubballi - KSPCB",14-06-2024 11:00:00,15.3714823,75.1160168,NO2,7,19,12
India,Karnataka,Hubballi,"Lingaraj Nagar, Hubballi - KSPCB",14-06-2024 11:00:00,15.3714823,75.1160168,NH3,2,4,2
India,Karnataka,Kalaburagi,"Mahatma Basaveswar Colony, Kalaburgi - KSPCB",14-06-2024 11:00:00,17.336318,76.847397,PM10,14,49,26
India,Karnataka,Kolar,"Tamaka Ind. Area, Kolar - KSPCB",14-06-2024 11:00:00,13.1276288,78.1570122,SO2,NA,NA,NA
India,Karnataka,Kolar,"Tamaka Ind. Area, Kolar - KSPCB",14-06-2024 11:00:00,13.1276288,78.1570122,OZONE,17,24,18
India,Karnataka,Koppal,"Diwator Nagar, Koppal - KSPCB",14-06-2024 11:00:00,15.347630,76.181767,PM10,NA,NA,NA
India,Karnataka,Koppal,"Diwator Nagar, Koppal - KSPCB",14-06-2024 11:00:00,15.347630,76.181767,NO2,NA,NA,NA
India,Karnataka,Koppal,"Diwator Nagar, Koppal - KSPCB",14-06-2024 11:00:00,15.347630,76.181767,NH3,NA,NA,NA
India,Karnataka,Madikeri,"Stuart Hill, Madikeri - KSPCB",14-06-2024 11:00:00,12.415911,75.735050,SO2,4,4,4
India,Karnataka,Mangalore,"Kadri, Mangalore - KSPCB",14-06-2024 11:00:00,12.889250,74.853000,NH3,1,2,2
India,Karnataka,Mangalore,"Kadri, Mangalore - KSPCB",14-06-2024 11:00:00,12.889250,74.853000,CO,39,47,40
India,Karnataka,Mysuru,"Hebbal 1st Stage, Mysuru - KSPCB",14-06-2024 11:00:00,12.21041,76.37376,NO2,7,36,21
India,Karnataka,Mysuru,"Hebbal 1st Stage, Mysuru - KSPCB",14-06-2024 11:00:00,12.21041,76.37376,NH3,1,3,2
India,Karnataka,Raichur,"Haji Colony, Raichur - KSPCB",14-06-2024 11:00:00,16.208139,77.348417,PM2.5,1,18,8
India,Karnataka,Raichur,"Haji Colony, Raichur - KSPCB",14-06-2024 11:00:00,16.208139,77.348417,PM10,16,97,41
India,Karnataka,Raichur,"Haji Colony, Raichur - KSPCB",14-06-2024 11:00:00,16.208139,77.348417,NO2,4,21,13
India,Karnataka,Raichur,"Haji Colony, Raichur - KSPCB",14-06-2024 11:00:00,16.208139,77.348417,SO2,66,73,69
India,Karnataka,Raichur,"Haji Colony, Raichur - KSPCB",14-06-2024 11:00:00,16.208139,77.348417,CO,86,104,89
India,Karnataka,Shivamogga,"Vinoba Nagara, Shivamogga - KSPCB",14-06-2024 11:00:00,13.940000,75.555917,OZONE,9,60,29
India,Karnataka,Udupi,"Brahmagiri, Udupi - KSPCB",14-06-2024 11:00:00,13.34194444,74.74694444,CO,51,54,52
India,Karnataka,Udupi,"Brahmagiri, Udupi - KSPCB",14-06-2024 11:00:00,13.34194444,74.74694444,OZONE,23,23,23
India,Karnataka,Vijayapura,"Ibrahimpur, Vijayapura - KSPCB",14-06-2024 11:00:00,16.802639,75.722694,PM10,42,44,42
India,Karnataka,Yadgir,"Collector Office, Yadgir - KSPCB",14-06-2024 11:00:00,16.7602,77.1428,PM10,13,37,25
India,Kerala,Eloor,"Udyogamandal, Eloor - Kerala PCB",14-06-2024 11:00:00,10.073232,76.302765,NO2,4,6,5
India,Kerala,Eloor,"Udyogamandal, Eloor - Kerala PCB",14-06-2024 11:00:00,10.073232,76.302765,NH3,1,1,1
India,Kerala,Kollam,"Polayathode, Kollam - Kerala PCB",14-06-2024 11:00:00,8.8787,76.6073,NO2,NA,NA,NA
India,Kerala,Thiruvananthapuram,"Kariavattom, Thiruvananthapuram - Kerala PCB",14-06-2024 11:00:00,8.563700,76.886500,NO2,6,7,6
India,Kerala,Thiruvananthapuram,"Kariavattom, Thiruvananthapuram - Kerala PCB",14-06-2024 11:00:00,8.563700,76.886500,OZONE,36,37,36
India,Kerala,Thiruvananthapuram,"Plammoodu, Thiruvananthapuram - Kerala PCB",14-06-2024 11:00:00,8.5149093,76.9435879,PM2.5,2,17,9
India,Kerala,Thiruvananthapuram,"Plammoodu, Thiruvananthapuram - Kerala PCB",14-06-2024 11:00:00,8.5149093,76.9435879,NO2,8,10,9
India,Kerala,Thiruvananthapuram,"Plammoodu, Thiruvananthapuram - Kerala PCB",14-06-2024 11:00:00,8.5149093,76.9435879,SO2,7,19,13
India,Kerala,Thrissur,"Corporation Ground, Thrissur - Kerala PCB",14-06-2024 11:00:00,10.532400,76.215900,NO2,NA,NA,NA
India,Kerala,Thrissur,"Corporation Ground, Thrissur - Kerala PCB",14-06-2024 11:00:00,10.532400,76.215900,NH3,NA,NA,NA
India,Madhya Pradesh,Bhopal,"Idgah Hills, Bhopal - MPPCB",14-06-2024 11:00:00,23.264759,77.381568,PM2.5,35,72,51
India,Madhya Pradesh,Bhopal,"Idgah Hills, Bhopal - MPPCB",14-06-2024 11:00:00,23.264759,77.381568,CO,4,49,8
India,Madhya Pradesh,Bhopal,"T T Nagar, Bhopal - MPPCB",14-06-2024 11:00:00,23.233584,77.400574,NH3,8,10,9
India,Madhya Pradesh,Bhopal,"T T Nagar, Bhopal - MPPCB",14-06-2024 11:00:00,23.233584,77.400574,CO,24,57,43
India,Madhya Pradesh,Gwalior,"City Center, Gwalior - MPPCB",14-06-2024 11:00:00,26.203442,78.193251,PM2.5,28,57,37
India,Madhya Pradesh,Gwalior,"City Center, Gwalior - MPPCB",14-06-2024 11:00:00,26.203442,78.193251,PM10,27,119,65
India,Madhya Pradesh,Gwalior,"Deen Dayal Nagar, Gwalior - MPPCB",14-06-2024 11:00:00,26.259242,78.216432,NO2,4,45,14
India,Madhya Pradesh,Gwalior,"Deen Dayal Nagar, Gwalior - MPPCB",14-06-2024 11:00:00,26.259242,78.216432,NH3,4,8,5
India,Madhya Pradesh,Indore,"Chhoti Gwaltoli, Indore - MPPCB",14-06-2024 11:00:00,22.4310,75.5213,PM10,40,99,74
India,Madhya Pradesh,Indore,"Regional Park, Indore - IMC",14-06-2024 11:00:00,22.6780,75.8559,SO2,48,52,50
India,Madhya Pradesh,Indore,"Residency Area, Indore - IMC",14-06-2024 11:00:00,22.7084,75.8815,NO2,16,55,31
India,Madhya Pradesh,Indore,"Residency Area, Indore - IMC",14-06-2024 11:00:00,22.7084,75.8815,NH3,NA,NA,NA
India,Madhya Pradesh,Jabalpur,"Govindh Bhavan Colony, Jabalpur - JMC",14-06-2024 11:00:00,23.163174,79.973061,PM10,45,148,84
India,Madhya Pradesh,Jabalpur,"Govindh Bhavan Colony, Jabalpur - JMC",14-06-2024 11:00:00,23.163174,79.973061,NH3,3,3,3
India,Madhya Pradesh,Jabalpur,"Gupteshwar, Jabalpur - JMC",14-06-2024 11:00:00,23.142888,79.916147,OZONE,33,78,49
India,Madhya Pradesh,Jabalpur,"Marhatal, Jabalpur - MPPCB",14-06-2024 11:00:00,23.168606,79.932247,NO2,6,43,22
India,Madhya Pradesh,Jabalpur,"Marhatal, Jabalpur - MPPCB",14-06-2024 11:00:00,23.168606,79.932247,NH3,4,8,5
India,Madhya Pradesh,Katni,"Gole Bazar, Katni - MPPCB",14-06-2024 11:00:00,23.50016,80.23284,PM10,54,116,79
India,Madhya Pradesh,Maihar,"Sahilara, Maihar - KJS Cements",14-06-2024 11:00:00,24.2613009,80.7231783,SO2,11,18,13
India,Madhya Pradesh,Maihar,"Sahilara, Maihar - KJS Cements",14-06-2024 11:00:00,24.2613009,80.7231783,CO,19,34,30
India,Madhya Pradesh,Mandideep,"Sector-D Industrial Area, Mandideep - MPPCB",14-06-2024 11:00:00,23.108440,77.511428,PM2.5,38,358,118
India,Madhya Pradesh,Mandideep,"Sector-D Industrial Area, Mandideep - MPPCB",14-06-2024 11:00:00,23.108440,77.511428,SO2,15,32,23
India,Madhya Pradesh,Pithampur,"Sector-2 Industrial Area, Pithampur - MPPCB",14-06-2024 11:00:00,22.624758,75.675238,NH3,3,3,3
India,Madhya Pradesh,Pithampur,"Sector-2 Industrial Area, Pithampur - MPPCB",14-06-2024 11:00:00,22.624758,75.675238,CO,25,46,32
India,Madhya Pradesh,Ratlam,"Shasthri Nagar, Ratlam - IPCA Lab",14-06-2024 11:00:00,23.331731,75.045981,PM10,59,156,100
India,Madhya Pradesh,Ujjain,"Mahakaleshwar Temple, Ujjain - MPPCB",14-06-2024 11:00:00,23.182719 ,75.768218 ,OZONE,60,74,62
India,Maharashtra,Ahmednagar,"Tarakpur, Ahmednagar - MPCB",14-06-2024 11:00:00,19.10122,74.73339,PM2.5,23,98,68
India,Maharashtra,Ahmednagar,"Tarakpur, Ahmednagar - MPCB",14-06-2024 11:00:00,19.10122,74.73339,PM10,22,113,72
India,Maharashtra,Ahmednagar,"Tarakpur, Ahmednagar - MPCB",14-06-2024 11:00:00,19.10122,74.73339,NH3,1,12,6
India,Maharashtra,Akola,"Ramdaspeth, Akola - MPCB",14-06-2024 11:00:00,20.719516,77.000253,PM2.5,9,96,37
India,Maharashtra,Akola,"Ramdaspeth, Akola - MPCB",14-06-2024 11:00:00,20.719516,77.000253,PM10,26,158,67
India,Maharashtra,Akola,"Ramdaspeth, Akola - MPCB",14-06-2024 11:00:00,20.719516,77.000253,NH3,2,9,4
India,Maharashtra,Amravati,"Shivneri Colony, Amravati - MPCB",14-06-2024 11:00:00,20.9402359,77.7895248,NH3,4,5,5
India,Maharashtra,Amravati,"Shri Shivaji Science College, Amaravati - MPCB",14-06-2024 11:00:00,20.939198,77.765701,PM10,44,81,61
India,Maharashtra,Aurangabad,"MIDC Chilkalthana, Aurangabad - MPCB",14-06-2024 11:00:00,19.875620,75.387310,NH3,5,6,5
India,Maharashtra,Bhiwandi,"Gokul Nagar, Bhiwandi - MPCB",14-06-2024 11:00:00,19.309073,73.057223,CO,20,109,34
India,Maharashtra,Boisar,"Khaira, Boisar - MPCB",14-06-2024 11:00:00,19.786089,72.757971,CO,6,46,17
India,Maharashtra,Chandrapur,"Chauhan Colony, Chandrapur - MPCB",14-06-2024 11:00:00,19.962900,79.298714,PM10,22,99,48
India,Maharashtra,Chandrapur,"MIDC Khutala, Chandrapur - MPCB",14-06-2024 11:00:00,19.9775302,79.2337086,PM10,23,79,45
India,Maharashtra,Chandrapur,"MIDC Khutala, Chandrapur - MPCB",14-06-2024 11:00:00,19.9775302,79.2337086,CO,NA,NA,NA
India,Maharashtra,Chandrapur,"MIDC Khutala, Chandrapur - MPCB",14-06-2024 11:00:00,19.9775302,79.2337086,OZONE,NA,NA,NA
India,Maharashtra,Jalgaon,"Prabhat Colony, Jalgaon - MPCB",14-06-2024 11:00:00,21.001264,75.565602,NO2,9,32,14
India,Maharashtra,Jalna,"Old MIDC, Jalna - MPCB",14-06-2024 11:00:00,19.854616,75.905894,PM10,28,74,48
India,Maharashtra,Jalna,"Old MIDC, Jalna - MPCB",14-06-2024 11:00:00,19.854616,75.905894,NO2,16,29,25
India,Maharashtra,Jalna,"Old MIDC, Jalna - MPCB",14-06-2024 11:00:00,19.854616,75.905894,OZONE,15,84,18
India,Maharashtra,Kalyan,"Khadakpada, Kalyan - MPCB",14-06-2024 11:00:00,19.25292,73.142019,OZONE,8,11,9
India,Maharashtra,Kolhapur,"Shivaji University, Kolhapur - MPCB",14-06-2024 11:00:00,16.6870449,74.2505872,PM2.5,NA,NA,NA
India,Maharashtra,Kolhapur,"Shivaji University, Kolhapur - MPCB",14-06-2024 11:00:00,16.6870449,74.2505872,PM10,NA,NA,NA
India,Maharashtra,Kolhapur,"Shivaji University, Kolhapur - MPCB",14-06-2024 11:00:00,16.6870449,74.2505872,NH3,NA,NA,NA
India,Maharashtra,Kolhapur,"Shivaji University, Kolhapur - MPCB",14-06-2024 11:00:00,16.6870449,74.2505872,CO,NA,NA,NA
India,Maharashtra,Kolhapur,"Sinchan Bhavan, Kolhapur - MPCB",14-06-2024 11:00:00,16.7143745,74.2426398,PM10,14,44,29
India,Maharashtra,Kolhapur,"Sinchan Bhavan, Kolhapur - MPCB",14-06-2024 11:00:00,16.7143745,74.2426398,NH3,7,8,8
India,Maharashtra,Kolhapur,"Sinchan Bhavan, Kolhapur - MPCB",14-06-2024 11:00:00,16.7143745,74.2426398,CO,8,17,10
India,Maharashtra,Kolhapur,"Sinchan Bhavan, Kolhapur - MPCB",14-06-2024 11:00:00,16.7143745,74.2426398,OZONE,13,47,23
India,Maharashtra,Latur,"Sawe Wadi, Latur - MPCB",14-06-2024 11:00:00,18.39963,76.57452,NO2,5,64,17
India,Maharashtra,Latur,"Sawe Wadi, Latur - MPCB",14-06-2024 11:00:00,18.39963,76.57452,NH3,16,17,17
India,Maharashtra,Latur,"Sawe Wadi, Latur - MPCB",14-06-2024 11:00:00,18.39963,76.57452,SO2,1,5,4
India,Maharashtra,Latur,"Sawe Wadi, Latur - MPCB",14-06-2024 11:00:00,18.39963,76.57452,OZONE,14,75,26
India,Maharashtra,Mahad,"Kamble Tarf Birwadi, Mahad - MPCB",14-06-2024 11:00:00,18.1023399,73.4783687,PM2.5,11,63,30
India,Maharashtra,Mahad,"Kamble Tarf Birwadi, Mahad - MPCB",14-06-2024 11:00:00,18.1023399,73.4783687,CO,1,21,8
India,Maharashtra,Malegaon,"Mahesh Nagar, Malegaon - MPCB",14-06-2024 11:00:00,20.555712,74.529236,PM2.5,30,67,48
India,Maharashtra,Mira-Bhayandar,"Bhayandar West, Mira-Bhayandar - MPCB",14-06-2024 11:00:00,19.296481,72.840923,NO2,14,44,24
India,Maharashtra,Mira-Bhayandar,"Bhayandar West, Mira-Bhayandar - MPCB",14-06-2024 11:00:00,19.296481,72.840923,OZONE,1,23,8
India,Maharashtra,Mumbai,"Bandra Kurla Complex, Mumbai - MPCB",14-06-2024 11:00:00,19.065931,72.862131,NH3,6,21,12
India,Maharashtra,Mumbai,"Bandra Kurla Complex, Mumbai - MPCB",14-06-2024 11:00:00,19.065931,72.862131,SO2,2,5,4
India,Maharashtra,Mumbai,"Bandra Kurla Complex, Mumbai - MPCB",14-06-2024 11:00:00,19.065931,72.862131,CO,26,54,37
India,Maharashtra,Mumbai,"Borivali East, Mumbai - IITM",14-06-2024 11:00:00,19.23241,72.86895,PM2.5,14,29,20
India,Maharashtra,Mumbai,"Borivali East, Mumbai - IITM",14-06-2024 11:00:00,19.23241,72.86895,PM10,20,39,32
India,Maharashtra,Mumbai,"Borivali East, Mumbai - MPCB",14-06-2024 11:00:00,19.2243333,72.8658113,SO2,8,12,11
India,Maharashtra,Mumbai,"Byculla, Mumbai - BMC",14-06-2024 11:00:00,18.9767,72.8380,PM2.5,6,14,8
India,Maharashtra,Mumbai,"Byculla, Mumbai - BMC",14-06-2024 11:00:00,18.9767,72.8380,OZONE,1,24,6
India,Maharashtra,Mumbai,"Chakala-Andheri East, Mumbai - IITM",14-06-2024 11:00:00,19.11074,72.86084,NO2,26,44,32
India,Maharashtra,Mumbai,"Chakala-Andheri East, Mumbai - IITM",14-06-2024 11:00:00,19.11074,72.86084,CO,2,47,29
India,Maharashtra,Mumbai,"Chembur, Mumbai - MPCB",14-06-2024 11:00:00,19.0364585,72.8954371,NH3,5,5,5
India,Maharashtra,Mumbai,"Chembur, Mumbai - MPCB",14-06-2024 11:00:00,19.0364585,72.8954371,CO,10,36,19
India,Maharashtra,Mumbai,"Colaba, Mumbai - MPCB",14-06-2024 11:00:00,18.910000,72.820000,PM10,14,100,51
India,Maharashtra,Mumbai,"Colaba, Mumbai - MPCB",14-06-2024 11:00:00,18.910000,72.820000,OZONE,10,11,11
India,Maharashtra,Mumbai,"Deonar, Mumbai - IITM",14-06-2024 11:00:00,19.04946,72.9230,NO2,6,12,8
India,Maharashtra,Mumbai,"Ghatkopar, Mumbai - BMC",14-06-2024 11:00:00,19.083694,72.920967,PM10,13,24,19
India,Maharashtra,Mumbai,"Ghatkopar, Mumbai - BMC",14-06-2024 11:00:00,19.083694,72.920967,SO2,1,2,1
India,Maharashtra,Mumbai,"Kandivali East, Mumbai - MPCB",14-06-2024 11:00:00,19.205800,72.868200,NO2,19,150,36
India,Maharashtra,Mumbai,"Kandivali East, Mumbai - MPCB",14-06-2024 11:00:00,19.205800,72.868200,NH3,2,6,3
India,Maharashtra,Mumbai,"Kandivali East, Mumbai - MPCB",14-06-2024 11:00:00,19.205800,72.868200,SO2,8,11,9
India,Maharashtra,Mumbai,"Kandivali East, Mumbai - MPCB",14-06-2024 11:00:00,19.205800,72.868200,CO,32,37,34
India,Maharashtra,Mumbai,"Kherwadi_Bandra East, Mumbai - MPCB",14-06-2024 11:00:00,19.0632143,72.8456324,PM10,41,80,57
India,Maharashtra,Mumbai,"Kherwadi_Bandra East, Mumbai - MPCB",14-06-2024 11:00:00,19.0632143,72.8456324,NO2,5,20,12
India,Maharashtra,Mumbai,"Kherwadi_Bandra East, Mumbai - MPCB",14-06-2024 11:00:00,19.0632143,72.8456324,NH3,1,22,7
India,Maharashtra,Mumbai,"Kherwadi_Bandra East, Mumbai - MPCB",14-06-2024 11:00:00,19.0632143,72.8456324,SO2,4,7,5
India,Maharashtra,Mumbai,"Khindipada-Bhandup West, Mumbai - IITM",14-06-2024 11:00:00,19.1653323,72.922099,PM2.5,5,22,11
India,Maharashtra,Mumbai,"Khindipada-Bhandup West, Mumbai - IITM",14-06-2024 11:00:00,19.1653323,72.922099,NO2,4,10,6
India,Maharashtra,Mumbai,"Khindipada-Bhandup West, Mumbai - IITM",14-06-2024 11:00:00,19.1653323,72.922099,OZONE,4,20,7
India,Maharashtra,Mumbai,"Kurla, Mumbai - MPCB",14-06-2024 11:00:00,19.0863,72.8888,SO2,32,32,32
India,Maharashtra,Mumbai,"Mazgaon, Mumbai - IITM",14-06-2024 11:00:00,18.96702,72.84214,SO2,NA,NA,NA
India,Maharashtra,Mumbai,"Mazgaon, Mumbai - IITM",14-06-2024 11:00:00,18.96702,72.84214,OZONE,3,23,6
India,Maharashtra,Mumbai,"Mindspace-Malad West, Mumbai - MPCB",14-06-2024 11:00:00,19.1878657,72.8304069,CO,18,46,28
India,Maharashtra,Mumbai,"Mulund West, Mumbai - MPCB",14-06-2024 11:00:00,19.1750,72.9419,PM10,8,198,75
India,Maharashtra,Mumbai,"Mulund West, Mumbai - MPCB",14-06-2024 11:00:00,19.1750,72.9419,NO2,19,21,20
India,Maharashtra,Mumbai,"Mulund West, Mumbai - MPCB",14-06-2024 11:00:00,19.1750,72.9419,NH3,10,10,10
India,Maharashtra,Mumbai,"Navy Nagar-Colaba, Mumbai - IITM",14-06-2024 11:00:00,18.897756,72.813320,NO2,25,91,52
India,Maharashtra,Mumbai,"Powai, Mumbai - MPCB",14-06-2024 11:00:00,19.137500,72.915056,PM2.5,9,24,15
India,Maharashtra,Mumbai,"Sewri, Mumbai - BMC",14-06-2024 11:00:00,19.000084,72.856730,SO2,1,13,3
India,Maharashtra,Mumbai,"Sion, Mumbai - MPCB",14-06-2024 11:00:00,19.047000,72.874600,PM10,18,102,46
India,Maharashtra,Mumbai,"Worli, Mumbai - MPCB",14-06-2024 11:00:00,18.9936162,72.8128113,PM2.5,1,22,10
India,Maharashtra,Nagpur,"Ambazari, Nagpur - MPCB",14-06-2024 11:00:00,21.121801,79.04952,PM10,52,74,63
India,Maharashtra,Nagpur,"Mahal, Nagpur - MPCB",14-06-2024 11:00:00,21.14472,79.107595,NH3,2,5,4
India,Maharashtra,Nagpur,"Opp GPO Civil Lines, Nagpur - MPCB",14-06-2024 11:00:00,21.152875,79.0517531,PM2.5,27,88,53
India,Maharashtra,Nagpur,"Opp GPO Civil Lines, Nagpur - MPCB",14-06-2024 11:00:00,21.152875,79.0517531,PM10,44,100,62
India,Maharashtra,Nagpur,"Opp GPO Civil Lines, Nagpur - MPCB",14-06-2024 11:00:00,21.152875,79.0517531,OZONE,11,51,22
India,Maharashtra,Nanded,"Sneh Nagar, Nanded - MPCB",14-06-2024 11:00:00,19.173852,77.296291,PM2.5,14,59,28
India,Maharashtra,Nanded,"Sneh Nagar, Nanded - MPCB",14-06-2024 11:00:00,19.173852,77.296291,CO,16,30,23
India,Maharashtra,Nanded,"Sneh Nagar, Nanded - MPCB",14-06-2024 11:00:00,19.173852,77.296291,OZONE,19,112,35
India,Maharashtra,Nashik,"Gangapur Road, Nashik - MPCB",14-06-2024 11:00:00,20.0073285,73.7762427,PM2.5,23,75,37
India,Maharashtra,Nashik,"Hirawadi, Nashik - MPCB",14-06-2024 11:00:00,20.021503,73.813844,PM2.5,12,30,21
India,Maharashtra,Nashik,"Hirawadi, Nashik - MPCB",14-06-2024 11:00:00,20.021503,73.813844,PM10,15,29,21
India,Maharashtra,Nashik,"Hirawadi, Nashik - MPCB",14-06-2024 11:00:00,20.021503,73.813844,OZONE,14,81,25
India,Maharashtra,Nashik,"MIDC Ambad, Nashik - MPCB",14-06-2024 11:00:00,19.950220,73.731480,NH3,3,4,4
India,Maharashtra,Nashik,"Pandav Nagari, Nashik - MPCB",14-06-2024 11:00:00,19.9591346,73.7788008,PM10,15,42,26
India,Maharashtra,Nashik,"Pandav Nagari, Nashik - MPCB",14-06-2024 11:00:00,19.9591346,73.7788008,CO,10,18,11
India,Maharashtra,Nashik,"Pandav Nagari, Nashik - MPCB",14-06-2024 11:00:00,19.9591346,73.7788008,OZONE,18,50,23
India,Maharashtra,Navi Mumbai,"Kopripada-Vashi, Navi Mumbai - MPCB",14-06-2024 11:00:00,19.090337,73.014232,PM10,39,94,54
India,Maharashtra,Navi Mumbai,"Kopripada-Vashi, Navi Mumbai - MPCB",14-06-2024 11:00:00,19.090337,73.014232,SO2,7,8,7
India,Maharashtra,Navi Mumbai,"Mahape, Navi Mumbai - MPCB",14-06-2024 11:00:00,19.1135051,73.008978,NO2,41,44,42
India,Maharashtra,Navi Mumbai,"Mahape, Navi Mumbai - MPCB",14-06-2024 11:00:00,19.1135051,73.008978,CO,11,22,17
India,Maharashtra,Navi Mumbai,"Nerul, Navi Mumbai - MPCB",14-06-2024 11:00:00,19.008751,73.016620,NO2,20,47,29
India,Maharashtra,Navi Mumbai,"Sanpada, Navi Mumbai - MPCB",14-06-2024 11:00:00,19.0575752,73.0151367,PM10,25,222,60
India,Maharashtra,Navi Mumbai,"Sector-2E Kalamboli, Navi Mumbai - MPCB",14-06-2024 11:00:00,19.02579,73.10297,NH3,2,3,2
India,Maharashtra,Navi Mumbai,"Sector-2E Kalamboli, Navi Mumbai - MPCB",14-06-2024 11:00:00,19.02579,73.10297,CO,2,56,15
India,Maharashtra,Navi Mumbai,"Sector-2E Kalamboli, Navi Mumbai - MPCB",14-06-2024 11:00:00,19.02579,73.10297,OZONE,2,24,10
India,Maharashtra,Pune,"Alandi, Pune - IITM",14-06-2024 11:00:00,18.675076,73.892743,PM10,11,36,22
India,Maharashtra,Pune,"Alandi, Pune - IITM",14-06-2024 11:00:00,18.675076,73.892743,OZONE,12,72,27
India,Maharashtra,Pune,"Bhosari, Pune - IITM",14-06-2024 11:00:00,18.640051,73.848956,PM2.5,9,26,13
India,Maharashtra,Pune,"Bhumkar Nagar, Pune - IITM",14-06-2024 11:00:00,18.605770,73.749976,PM10,6,40,24
India,Maharashtra,Pune,"Hadapsar, Pune - IITM",14-06-2024 11:00:00,18.501793,73.927532,CO,30,108,55
India,Maharashtra,Pune,"Hadapsar, Pune - IITM",14-06-2024 11:00:00,18.501793,73.927532,OZONE,13,29,17
India,Maharashtra,Pune,"Karve Road, Pune - MPCB",14-06-2024 11:00:00,18.5011743,73.8165527,PM10,2,121,42
India,Maharashtra,Pune,"Karve Road, Pune - MPCB",14-06-2024 11:00:00,18.5011743,73.8165527,SO2,1,21,7
India,Maharashtra,Pune,"Mhada Colony, Pune - IITM",14-06-2024 11:00:00,18.573040,73.927715,NO2,26,57,38
India,Maharashtra,Pune,"Revenue Colony-Shivajinagar, Pune - IITM",14-06-2024 11:00:00,18.530085,73.849598,PM2.5,18,49,32
India,Maharashtra,Pune,"Revenue Colony-Shivajinagar, Pune - IITM",14-06-2024 11:00:00,18.530085,73.849598,PM10,17,50,31
India,Maharashtra,Pune,"Revenue Colony-Shivajinagar, Pune - IITM",14-06-2024 11:00:00,18.530085,73.849598,CO,4,81,55
India,Maharashtra,Solapur,"Ratandeep Housing Society, Solapur - MPCB",14-06-2024 11:00:00,17.65439,75.90649,OZONE,8,43,17
India,Maharashtra,Solapur,"Solapur, Solapur - MPCB",14-06-2024 11:00:00,17.6599188,75.9063906,NO2,54,55,55
India,Maharashtra,Thane,"Kasarvadavali, Thane - MPCB",14-06-2024 11:00:00,19.26777,72.97182,PM10,15,40,28
India,Maharashtra,Thane,"Kasarvadavali, Thane - MPCB",14-06-2024 11:00:00,19.26777,72.97182,NO2,11,32,17
India,Maharashtra,Thane,"Pimpleshwar Mandir, Thane - MPCB",14-06-2024 11:00:00,19.192056,72.9585188,PM10,27,115,55
India,Maharashtra,Thane,"Pimpleshwar Mandir, Thane - MPCB",14-06-2024 11:00:00,19.192056,72.9585188,NH3,4,4,4
India,Maharashtra,Thane,"Upvan Fort, Thane - MPCB",14-06-2024 11:00:00,19.222279,72.957979,PM10,15,49,29
India,Maharashtra,Thane,"Upvan Fort, Thane - MPCB",14-06-2024 11:00:00,19.222279,72.957979,OZONE,31,69,40
India,Maharashtra,Ulhasnagar,"Sidhi Vinayak Nagar, Ulhasnagar - MPCB",14-06-2024 11:00:00,19.235581,73.159121,SO2,6,23,11
India,Maharashtra,Virar,"Bolinj, Virar - MPCB",14-06-2024 11:00:00,19.4458210,72.7988231,OZONE,30,45,34
India,Manipur,Imphal,"DM College of Science, Imphal - Manipur PCB",14-06-2024 11:00:00,24.8207389,93.9423085,PM10,8,48,28
India,Manipur,Imphal,"DM College of Science, Imphal - Manipur PCB",14-06-2024 11:00:00,24.8207389,93.9423085,CO,6,7,6
India,Manipur,Imphal,"Manipur University, Imphal - Manipur PCB",14-06-2024 11:00:00,24.7524239,93.9286218,PM2.5,14,61,26
India,Manipur,Imphal,"Manipur University, Imphal - Manipur PCB",14-06-2024 11:00:00,24.7524239,93.9286218,NH3,NA,NA,NA
India,Meghalaya,Shillong,"Lumpyngngad, Shillong - Meghalaya PCB",14-06-2024 11:00:00,25.5586,91.8985,SO2,36,37,37
India,Mizoram,Aizawl,"Sikulpuikawn, Aizawl - Mizoram PCB",14-06-2024 11:00:00,23.7176342,92.7192841,OZONE,2,73,20
India,Nagaland,Kohima,"PWD Juction, Kohima - NPCB",14-06-2024 11:00:00,25.6635413,94.0989878,NO2,3,4,3
India,Odisha,Balasore,"Kalidaspur, Balasore - OSPCB",14-06-2024 11:00:00,21.51161,86.89088,OZONE,26,89,38
India,Odisha,Barbil,"Forest Office, Barbil - OSPCB",14-06-2024 11:00:00,22.1166054,85.3945546,PM2.5,33,73,54
India,Odisha,Barbil,"Forest Office, Barbil - OSPCB",14-06-2024 11:00:00,22.1166054,85.3945546,PM10,62,441,127
India,Odisha,Baripada,"Meher Colony, Baripada - OSPCB",14-06-2024 11:00:00,21.941841,86.728318,SO2,NA,NA,NA
India,Odisha,Bhubaneswar,"Lingraj Mandir, Bhubaneswar - OSPCB",14-06-2024 11:00:00,20.240790,85.836784,PM10,24,126,62
India,Odisha,Bhubaneswar,"Patia, Bhubaneswar - OSPCB",14-06-2024 11:00:00,20.34652,85.81630,NO2,10,21,13
India,Odisha,Bhubaneswar,"Patia, Bhubaneswar - OSPCB",14-06-2024 11:00:00,20.34652,85.81630,SO2,2,7,4
India,Odisha,Brajrajnagar,"GM Office, Brajrajnagar - OSPCB",14-06-2024 11:00:00,21.8004996,83.8396977,PM10,21,108,67
India,Odisha,Brajrajnagar,"GM Office, Brajrajnagar - OSPCB",14-06-2024 11:00:00,21.8004996,83.8396977,NH3,11,12,12
India,Odisha,Brajrajnagar,"GM Office, Brajrajnagar - OSPCB",14-06-2024 11:00:00,21.8004996,83.8396977,SO2,4,15,8
India,Odisha,Brajrajnagar,"GM Office, Brajrajnagar - OSPCB",14-06-2024 11:00:00,21.8004996,83.8396977,OZONE,2,210,33
India,Odisha,Byasanagar,"Ferro Chrome Colony, Byasanagar - OSPCB",14-06-2024 11:00:00,20.94185,86.11510,NH3,2,4,3
India,Odisha,Byasanagar,"Ferro Chrome Colony, Byasanagar - OSPCB",14-06-2024 11:00:00,20.94185,86.11510,OZONE,50,188,70
India,Odisha,Cuttack,"CDA Area, Cuttack - OSPCB",14-06-2024 11:00:00,20.48891     ,85.84768     ,NO2,8,25,14
India,Odisha,Cuttack,"CDA Area, Cuttack - OSPCB",14-06-2024 11:00:00,20.48891     ,85.84768     ,SO2,2,15,6
India,Odisha,Keonjhar,"Jagamohanpur, Keonjhar - OSPCB",14-06-2024 11:00:00,21.643900,85.599355,CO,14,38,23
India,Odisha,Nayagarh,"Dabuna, Nayagarh - OSPCB",14-06-2024 11:00:00,21.847279,85.416905,NO2,4,22,6
India,Odisha,Rairangpur,"Divisional Forest Office, Rairangpur - OSPCB",14-06-2024 11:00:00,22.265816,86.174829,OZONE,10,43,16
India,Odisha,Rourkela,"Raghunathpali, Rourkela - OSPCB",14-06-2024 11:00:00,22.220833,84.809444,PM10,78,137,106
India,Odisha,Rourkela,"Raghunathpali, Rourkela - OSPCB",14-06-2024 11:00:00,22.220833,84.809444,SO2,7,9,8
India,Odisha,Rourkela,"Raghunathpali, Rourkela - OSPCB",14-06-2024 11:00:00,22.220833,84.809444,CO,31,68,39
India,Odisha,Talcher,"Talcher Coalfields,Talcher - OSPCB",14-06-2024 11:00:00,20.9360711,85.1707021,CO,23,102,89
India,Odisha,Tensa,"Barsua Iron Ore Mines, Tensa - OSPCB",14-06-2024 11:00:00,21.869985,85.167016,SO2,1,16,4
India,Puducherry,Puducherry,"Jawahar Nagar, Puducherry - PPCC",14-06-2024 11:00:00,11.9309,79.8027,NO2,9,22,15
India,Punjab,Amritsar,"Golden Temple, Amritsar - PPCB",14-06-2024 11:00:00,31.620000,74.876512,PM10,85,170,115
India,Punjab,Bathinda,"Hardev Nagar, Bathinda - PPCB",14-06-2024 11:00:00,30.233011,74.907758,PM2.5,53,318,178
India,Punjab,Bathinda,"Hardev Nagar, Bathinda - PPCB",14-06-2024 11:00:00,30.233011,74.907758,NO2,32,32,32
India,Punjab,Jalandhar,"Civil Line, Jalandhar - PPCB",14-06-2024 11:00:00,31.321907,75.578914,PM10,50,136,102
India,Punjab,Khanna,"Kalal Majra, Khanna - PPCB",14-06-2024 11:00:00,30.736056 ,76.209694,NH3,13,13,13
India,Punjab,Khanna,"Kalal Majra, Khanna - PPCB",14-06-2024 11:00:00,30.736056 ,76.209694,CO,34,45,38
India,Punjab,Ludhiana,"Punjab Agricultural University, Ludhiana - PPCB",14-06-2024 11:00:00,30.9028,75.8086,NH3,NA,NA,NA
India,Punjab,Mandi Gobindgarh,"RIMT University, Mandi Gobindgarh - PPCB",14-06-2024 11:00:00,30.649961,76.331442,PM2.5,NA,NA,NA
India,Punjab,Mandi Gobindgarh,"RIMT University, Mandi Gobindgarh - PPCB",14-06-2024 11:00:00,30.649961,76.331442,SO2,NA,NA,NA
India,Punjab,Patiala,"Model Town, Patiala - PPCB",14-06-2024 11:00:00,30.349388,76.366642,PM10,107,183,133
India,Punjab,Rupnagar,"Ratanpura, Rupnagar - Ambuja Cements",14-06-2024 11:00:00,31.0325454,76.5623046,PM10,58,229,111
India,Rajasthan,Ajmer,"Civil Lines,  Ajmer - RSPCB",14-06-2024 11:00:00,26.470859,74.646594,PM2.5,24,82,56
India,Rajasthan,Ajmer,"Civil Lines,  Ajmer - RSPCB",14-06-2024 11:00:00,26.470859,74.646594,NO2,15,17,16
India,Rajasthan,Alwar,"Moti Doongri, Alwar - RSPCB",14-06-2024 11:00:00,27.554793,76.611536,PM2.5,44,79,56
India,Rajasthan,Banswara,"Rati Talai, Banswara - RSPCB",14-06-2024 11:00:00,23.555190,74.440010,NO2,8,30,14
India,Rajasthan,Banswara,"Rati Talai, Banswara - RSPCB",14-06-2024 11:00:00,23.555190,74.440010,OZONE,3,125,28
India,Rajasthan,Baran,"Bamboliya, Baran - RSPCB",14-06-2024 11:00:00,25.106006,76.469948,PM10,46,136,90
India,Rajasthan,Baran,"Bamboliya, Baran - RSPCB",14-06-2024 11:00:00,25.106006,76.469948,NO2,9,25,15
India,Rajasthan,Barmer,"Railway Colony, Barmer - RSPCB",14-06-2024 11:00:00,25.747299,71.393989,PM10,46,164,106
India,Rajasthan,Barmer,"Railway Colony, Barmer - RSPCB",14-06-2024 11:00:00,25.747299,71.393989,OZONE,8,68,15
India,Rajasthan,Bharatpur,"Krishna Nagar, Bharatpur - RSPCB",14-06-2024 11:00:00,27.215415,77.50873,PM2.5,34,362,90
India,Rajasthan,Bhiwadi,"RIICO Ind. Area III, Bhiwadi - RSPCB",14-06-2024 11:00:00,28.194909,76.862296,CO,18,108,71
India,Rajasthan,Bhiwadi,"Vasundhara Nagar_UIT, Bhiwadi - RSPCB",14-06-2024 11:00:00,28.207266,76.829265,PM2.5,24,83,47
India,Rajasthan,Bhiwadi,"Vasundhara Nagar_UIT, Bhiwadi - RSPCB",14-06-2024 11:00:00,28.207266,76.829265,SO2,3,16,7
India,Rajasthan,Churu,"Subash Chowk, Churu - RSPCB",14-06-2024 11:00:00,28.296139,74.961696,NH3,12,23,17
India,Rajasthan,Dausa,"Khatikan Mohalla, Dausa - RSPCB",14-06-2024 11:00:00,26.895552,76.334753,PM10,77,293,142
India,Rajasthan,Dausa,"Khatikan Mohalla, Dausa - RSPCB",14-06-2024 11:00:00,26.895552,76.334753,NO2,5,24,15
India,Rajasthan,Dausa,"Khatikan Mohalla, Dausa - RSPCB",14-06-2024 11:00:00,26.895552,76.334753,SO2,1,5,2
India,Rajasthan,Dausa,"Khatikan Mohalla, Dausa - RSPCB",14-06-2024 11:00:00,26.895552,76.334753,OZONE,21,77,27
India,Rajasthan,Dholpur,"Raja Ganj, Dholpur - RSPCB",14-06-2024 11:00:00,26.699557,77.898881,PM10,69,315,117
India,Rajasthan,Dholpur,"Raja Ganj, Dholpur - RSPCB",14-06-2024 11:00:00,26.699557,77.898881,NH3,5,16,7
India,Rajasthan,Dholpur,"Raja Ganj, Dholpur - RSPCB",14-06-2024 11:00:00,26.699557,77.898881,SO2,2,6,4
India,Rajasthan,Dungarpur,"Bhoiwada, Dungarpur - RSPCB",14-06-2024 11:00:00,23.837789,73.714926,SO2,1,12,7
India,Rajasthan,Hanumangarh,"Housing Board, Hanumangarh - RSPCB",14-06-2024 11:00:00,29.610750,74.283608,PM2.5,NA,NA,NA
India,Rajasthan,Hanumangarh,"Housing Board, Hanumangarh - RSPCB",14-06-2024 11:00:00,29.610750,74.283608,NH3,2,8,6
India,Rajasthan,Jaipur,"Adarsh Nagar, Jaipur - RSPCB",14-06-2024 11:00:00,26.902909,75.836858,SO2,2,46,19
India,Rajasthan,Jaipur,"Adarsh Nagar, Jaipur - RSPCB",14-06-2024 11:00:00,26.902909,75.836858,CO,6,78,42
India,Rajasthan,Jaipur,"Police Commissionerate, Jaipur - RSPCB",14-06-2024 11:00:00,26.9164092,75.7994901,PM2.5,57,123,80
India,Rajasthan,Jaipur,"Police Commissionerate, Jaipur - RSPCB",14-06-2024 11:00:00,26.9164092,75.7994901,NO2,22,48,29
India,Rajasthan,Jaipur,"Police Commissionerate, Jaipur - RSPCB",14-06-2024 11:00:00,26.9164092,75.7994901,CO,24,62,39
India,Rajasthan,Jaipur,"RIICO Sitapura, Jaipur - RSPCB",14-06-2024 11:00:00,26.786682,75.827928,PM2.5,27,305,60
India,Rajasthan,Jaipur,"Sector-2 Murlipura, Jaipur - RSPCB",14-06-2024 11:00:00,26.960669,75.771817,NO2,6,34,15
India,Rajasthan,Jaisalmer,"Sadar Bazar, Jaisalmer - RSPCB",14-06-2024 11:00:00,26.912329,70.909168,PM2.5,19,38,28
India,Rajasthan,Jaisalmer,"Sadar Bazar, Jaisalmer - RSPCB",14-06-2024 11:00:00,26.912329,70.909168,CO,2,33,31
India,Rajasthan,Jalore,"Mudtra Sili, Jalore - RSPCB",14-06-2024 11:00:00,25.344694,72.626208,PM10,58,106,76
India,Rajasthan,Jhalawar,"Rajlaxmi Nagar, Jhalawar - RSPCB",14-06-2024 11:00:00,24.588397,76.172782,NH3,2,3,2
India,Rajasthan,Jhunjhunu,"Indra Nagar, Jhunjhunu - RSPCB",14-06-2024 11:00:00,28.108988,75.386577,SO2,3,5,4
India,Rajasthan,Jhunjhunu,"Indra Nagar, Jhunjhunu - RSPCB",14-06-2024 11:00:00,28.108988,75.386577,CO,4,24,8
India,Rajasthan,Jodhpur,"Digari Kalan, Jodhpur - RSPCB",14-06-2024 11:00:00,26.295810,73.082283,NH3,2,3,2
India,Rajasthan,Jodhpur,"Digari Kalan, Jodhpur - RSPCB",14-06-2024 11:00:00,26.295810,73.082283,CO,12,24,17
India,Rajasthan,Jodhpur,"Mandor, Jodhpur - RSPCB",14-06-2024 11:00:00,26.358805,73.047444,NO2,10,26,17
India,Rajasthan,Karauli,"Satyawati Vihar, Karauli - RSPCB",14-06-2024 11:00:00,26.506177,77.025989,SO2,5,10,6
India,Rajasthan,Kota,"Nayapura, Kota - RSPCB",14-06-2024 11:00:00,25.196024,75.855668,NH3,1,9,6
India,Rajasthan,Kota,"Shrinath Puram, Kota - RSPCB",14-06-2024 11:00:00,25.14389,75.821256,PM10,46,107,68
India,Rajasthan,Kota,"Shrinath Puram, Kota - RSPCB",14-06-2024 11:00:00,25.14389,75.821256,NH3,5,6,5
India,Rajasthan,Kota,"Shrinath Puram, Kota - RSPCB",14-06-2024 11:00:00,25.14389,75.821256,OZONE,12,31,17
India,Rajasthan,Nagaur,"Karni Colony, Nagaur - RSPCB",14-06-2024 11:00:00,27.213494,73.734444,PM10,92,169,109
India,Rajasthan,Pali,"Indira Colony Vistar, Pali - RSPCB",14-06-2024 11:00:00,25.771061, 73.340227,PM10,77,132,102
India,Rajasthan,Pali,"Indira Colony Vistar, Pali - RSPCB",14-06-2024 11:00:00,25.771061, 73.340227,NH3,2,9,6
India,Rajasthan,Pali,"Indira Colony Vistar, Pali - RSPCB",14-06-2024 11:00:00,25.771061, 73.340227,OZONE,6,45,16
India,Rajasthan,Pratapgarh,"Pragati Nagar, Pratapgarh - RSPCB",14-06-2024 11:00:00,24.041198,74.780702,NO2,9,25,15
India,Rajasthan,Rajsamand,"Dhoinda, Rajsamand - RSPCB",14-06-2024 11:00:00,25.036360,73.883502,NH3,1,3,2
India,Rajasthan,Rajsamand,"Dhoinda, Rajsamand - RSPCB",14-06-2024 11:00:00,25.036360,73.883502,CO,8,32,15
India,Rajasthan,Sawai Madhopur,"Sahu Nagar, Sawai Madhopur - RSPCB",14-06-2024 11:00:00,26.031443,76.359327,PM2.5,31,97,60
India,Rajasthan,Sawai Madhopur,"Sahu Nagar, Sawai Madhopur - RSPCB",14-06-2024 11:00:00,26.031443,76.359327,NH3,3,5,4
India,Rajasthan,Sikar,"Radhakishan Pura, Sikar - RSPCB",14-06-2024 11:00:00,27.608912,75.153302,PM10,81,229,142
India,Rajasthan,Sikar,"Radhakishan Pura, Sikar - RSPCB",14-06-2024 11:00:00,27.608912,75.153302,NH3,3,7,5
India,Rajasthan,Sikar,"Radhakishan Pura, Sikar - RSPCB",14-06-2024 11:00:00,27.608912,75.153302,SO2,1,6,3
India,Rajasthan,Sikar,"Radhakishan Pura, Sikar - RSPCB",14-06-2024 11:00:00,27.608912,75.153302,OZONE,26,64,34
India,Rajasthan,Sirohi,"Vedhaynath Colony, Sirohi - RSPCB",14-06-2024 11:00:00,24.885261,72.857549,PM2.5,13,26,18
India,Rajasthan,Sirohi,"Vedhaynath Colony, Sirohi - RSPCB",14-06-2024 11:00:00,24.885261,72.857549,NO2,2,11,4
India,Rajasthan,Sri Ganganagar,"Old City, Sri Ganganagar - RSPCB",14-06-2024 11:00:00,29.931624,73.864511,PM10,NA,NA,NA
India,Rajasthan,Sri Ganganagar,"Old City, Sri Ganganagar - RSPCB",14-06-2024 11:00:00,29.931624,73.864511,OZONE,7,51,27
India,Rajasthan,Tonk,"Shastri Nagar, Tonk - RSPCB",14-06-2024 11:00:00,26.159933,75.780517,PM2.5,30,65,40
India,Rajasthan,Udaipur,"Ashok Nagar, Udaipur - RSPCB",14-06-2024 11:00:00,24.5886166,73.6321397,CO,1,103,17
India,Sikkim,Gangtok,"Zero Point GICI, Gangtok - SSPCB",14-06-2024 11:00:00,27.338530,88.614099,CO,10,19,13
India,TamilNadu,Ariyalur,"Keelapalur, Ariyalur - TNPCB",14-06-2024 11:00:00,11.06825,79.07033,PM10,NA,NA,NA
India,TamilNadu,Ariyalur,"Keelapalur, Ariyalur - TNPCB",14-06-2024 11:00:00,11.06825,79.07033,SO2,NA,NA,NA
India,TamilNadu,Chennai,"Alandur Bus Depot, Chennai - CPCB",14-06-2024 11:00:00,12.9099161,80.1076538,PM2.5,23,83,33
India,TamilNadu,Chennai,"Alandur Bus Depot, Chennai - CPCB",14-06-2024 11:00:00,12.9099161,80.1076538,SO2,1,12,6
India,TamilNadu,Chennai,"Arumbakkam, Chennai - TNPCB",14-06-2024 11:00:00,13.0664,80.2112 ,PM2.5,7,39,16
India,TamilNadu,Chennai,"Arumbakkam, Chennai - TNPCB",14-06-2024 11:00:00,13.0664,80.2112 ,PM10,24,68,42
India,TamilNadu,Chennai,"Kodungaiyur, Chennai - TNPCB",14-06-2024 11:00:00,13.1278,80.2642,NH3,3,5,4
India,TamilNadu,Chennai,"Manali, Chennai - CPCB",14-06-2024 11:00:00,13.164544,80.26285,PM10,16,72,39
India,TamilNadu,Chennai,"Manali, Chennai - CPCB",14-06-2024 11:00:00,13.164544,80.26285,NH3,5,5,5
India,TamilNadu,Chennai,"Perungudi, Chennai - TNPCB",14-06-2024 11:00:00,12.9533,80.2357,PM10,17,110,44
India,TamilNadu,Chennai,"Royapuram, Chennai - TNPCB",14-06-2024 11:00:00,13.1036,80.2909,NO2,24,69,44
India,TamilNadu,Chennai,"Royapuram, Chennai - TNPCB",14-06-2024 11:00:00,13.1036,80.2909,SO2,1,14,5
India,TamilNadu,Chennai,"Velachery Res. Area, Chennai - CPCB",14-06-2024 11:00:00,13.0052189,80.2398125,SO2,8,55,19
India,TamilNadu,Coimbatore,"PSG College of Arts and Science, Coimbatore - TNPCB",14-06-2024 11:00:00,11.0328,77.0349,CO,4,12,12
India,TamilNadu,Cuddalore,"Kudikadu, Cuddalore - TNPCB",14-06-2024 11:00:00,11.6829898,79.7532099,PM10,16,60,33
India,TamilNadu,Gummidipoondi,"Anthoni Pillai Nagar, Gummidipoondi - TNPCB",14-06-2024 11:00:00,13.4127,80.1081,NO2,13,24,18
India,TamilNadu,Ramanathapuram,"Chalai Bazaar, Ramanathapuram - TNPCB",14-06-2024 11:00:00,9.36399,78.831977,PM2.5,8,31,16
India,TamilNadu,Ramanathapuram,"Chalai Bazaar, Ramanathapuram - TNPCB",14-06-2024 11:00:00,9.36399,78.831977,OZONE,13,14,14
India,TamilNadu,Thoothukudi,"Meelavittan, Thoothukudi - TNPCB",14-06-2024 11:00:00,8.816428 ,78.099039,SO2,NA,NA,NA
India,TamilNadu,Thoothukudi,"Meelavittan, Thoothukudi - TNPCB",14-06-2024 11:00:00,8.816428 ,78.099039,OZONE,1,4,2
India,TamilNadu,Tirupur,"Kumaran College, Tirupur - TNPCB",14-06-2024 11:00:00,11.0973603,77.3228673,PM2.5,NA,NA,NA
India,TamilNadu,Tirupur,"Kumaran College, Tirupur - TNPCB",14-06-2024 11:00:00,11.0973603,77.3228673,PM10,NA,NA,NA
India,TamilNadu,Tirupur,"Kumaran College, Tirupur - TNPCB",14-06-2024 11:00:00,11.0973603,77.3228673,NO2,NA,NA,NA
India,TamilNadu,Virudhunagar,"Collectorate Office, Virudhunagar - TNPCB",14-06-2024 11:00:00,9.559382,77.948828,CO,NA,NA,NA
India,Telangana,Hyderabad,"Bollaram Industrial Area, Hyderabad - TSPCB",14-06-2024 11:00:00,17.540891,78.358528,CO,3,28,17
India,Telangana,Hyderabad,"Central University, Hyderabad - TSPCB",14-06-2024 11:00:00,17.460103,78.334361,PM2.5,5,35,15
India,Telangana,Hyderabad,"ICRISAT Patancheru, Hyderabad - TSPCB",14-06-2024 11:00:00,17.518400,78.278777,NO2,1,29,11
India,Telangana,Hyderabad,"ICRISAT Patancheru, Hyderabad - TSPCB",14-06-2024 11:00:00,17.518400,78.278777,NH3,1,5,2
India,Telangana,Hyderabad,"ICRISAT Patancheru, Hyderabad - TSPCB",14-06-2024 11:00:00,17.518400,78.278777,SO2,4,23,13
India,Telangana,Hyderabad,"ICRISAT Patancheru, Hyderabad - TSPCB",14-06-2024 11:00:00,17.518400,78.278777,CO,4,78,20
India,Telangana,Hyderabad,"IITH Kandi, Hyderabad - TSPCB",14-06-2024 11:00:00,17.585705,78.126199,PM2.5,NA,NA,NA
India,Telangana,Hyderabad,"Kokapet, Hyderabad - TSPCB",14-06-2024 11:00:00,17.393559,78.339194,PM2.5,51,53,52
India,Telangana,Hyderabad,"Kokapet, Hyderabad - TSPCB",14-06-2024 11:00:00,17.393559,78.339194,PM10,77,93,84
India,Telangana,Hyderabad,"Kokapet, Hyderabad - TSPCB",14-06-2024 11:00:00,17.393559,78.339194,OZONE,1,5,2
India,Telangana,Hyderabad,"Kompally Municipal Office, Hyderabad - TSPCB",14-06-2024 11:00:00,17.544899,78.486949,SO2,1,14,5
India,Telangana,Hyderabad,"Kompally Municipal Office, Hyderabad - TSPCB",14-06-2024 11:00:00,17.544899,78.486949,CO,16,23,21
India,Telangana,Hyderabad,"Nacharam_TSIIC IALA, Hyderabad - TSPCB",14-06-2024 11:00:00,17.429398,78.569354,NO2,NA,NA,NA
India,Telangana,Hyderabad,"Ramachandrapuram, Hyderabad - TSPCB",14-06-2024 11:00:00,17.528544,78.286195,NH3,NA,NA,NA
India,Telangana,Hyderabad,"Ramachandrapuram, Hyderabad - TSPCB",14-06-2024 11:00:00,17.528544,78.286195,CO,36,37,36
India,Telangana,Hyderabad,"Sanathnagar, Hyderabad - TSPCB",14-06-2024 11:00:00,17.4559458,78.4332152,NO2,28,32,30
India,Telangana,Hyderabad,"Sanathnagar, Hyderabad - TSPCB",14-06-2024 11:00:00,17.4559458,78.4332152,OZONE,14,18,16
India,Telangana,Hyderabad,"Somajiguda, Hyderabad - TSPCB",14-06-2024 11:00:00,17.417094,78.457437,PM10,61,77,67
India,Tripura,Agartala,"Bardowali, Agartala - Tripura SPCB",14-06-2024 11:00:00,23.8175497,91.2726974,NO2,3,10,6
India,Tripura,Agartala,"Bardowali, Agartala - Tripura SPCB",14-06-2024 11:00:00,23.8175497,91.2726974,SO2,41,45,43
India,Tripura,Agartala,"Bardowali, Agartala - Tripura SPCB",14-06-2024 11:00:00,23.8175497,91.2726974,OZONE,6,29,14
India,Uttar_Pradesh,Agra,"Manoharpur, Agra - UPPCB",14-06-2024 11:00:00,27.23711,78.01936,SO2,20,34,23
India,Uttar_Pradesh,Agra,"Manoharpur, Agra - UPPCB",14-06-2024 11:00:00,27.23711,78.01936,OZONE,2,31,10
India,Uttar_Pradesh,Agra,"Rohta, Agra - UPPCB",14-06-2024 11:00:00,27.106972,78.000111,CO,2,8,6
India,Uttar_Pradesh,Agra,"Sanjay Palace, Agra - UPPCB",14-06-2024 11:00:00,27.19865833,78.00598056,PM2.5,6,21,13
India,Uttar_Pradesh,Agra,"Sanjay Palace, Agra - UPPCB",14-06-2024 11:00:00,27.19865833,78.00598056,PM10,14,142,33
India,Uttar_Pradesh,Agra,"Sanjay Palace, Agra - UPPCB",14-06-2024 11:00:00,27.19865833,78.00598056,SO2,4,13,9
India,Uttar_Pradesh,Agra,"Sector-3B Avas Vikas Colony, Agra - UPPCB",14-06-2024 11:00:00,27.19412,77.96237,PM10,30,178,57
India,Uttar_Pradesh,Agra,"Shastripuram, Agra - UPPCB",14-06-2024 11:00:00,27.19862,77.92066,NH3,NA,NA,NA
India,Uttar_Pradesh,Agra,"Shastripuram, Agra - UPPCB",14-06-2024 11:00:00,27.19862,77.92066,OZONE,1,6,2
India,Uttar_Pradesh,Baghpat,"Sardar Patel Inter College, Baghpat - UPPCB",14-06-2024 11:00:00,28.964949,77.278761,NO2,12,30,20
India,Uttar_Pradesh,Baghpat,"Sardar Patel Inter College, Baghpat - UPPCB",14-06-2024 11:00:00,28.964949,77.278761,OZONE,12,50,19
India,Uttar_Pradesh,Bareilly,"Civil Lines, Bareilly - UPPCB",14-06-2024 11:00:00,28.359581,79.414455,NO2,2,3,2
India,Uttar_Pradesh,Bareilly,"Rajendra Nagar, Bareilly - UPPCB",14-06-2024 11:00:00,28.38910936,79.42963708,NH3,1,5,1
India,Uttar_Pradesh,Bareilly,"Rajendra Nagar, Bareilly - UPPCB",14-06-2024 11:00:00,28.38910936,79.42963708,SO2,19,26,21
India,Uttar_Pradesh,Bulandshahr,"Yamunapuram, Bulandshahr - UPPCB",14-06-2024 11:00:00,28.406963,77.849831,SO2,11,33,21
India,Uttar_Pradesh,Firozabad,"Nagla Bhau, Firozabad - UPPCB",14-06-2024 11:00:00,27.168897,78.376960,OZONE,15,22,16
India,Uttar_Pradesh,Firozabad,"Vibhab Nagar, Firozabad - UPPCB",14-06-2024 11:00:00,27.1594,78.3953,NO2,13,14,14
India,Uttar_Pradesh,Ghaziabad,"Indirapuram, Ghaziabad - UPPCB",14-06-2024 11:00:00,28.646233,77.358075,NO2,33,107,51
India,Uttar_Pradesh,Ghaziabad,"Indirapuram, Ghaziabad - UPPCB",14-06-2024 11:00:00,28.646233,77.358075,OZONE,7,62,24
India,Uttar_Pradesh,Ghaziabad,"Vasundhara, Ghaziabad - UPPCB",14-06-2024 11:00:00,28.6603346,77.3572563,PM10,83,185,129
India,Uttar_Pradesh,Gorakhpur,"Madan Mohan Malaviya University of Technology, Gorakhpur - UPPCB",14-06-2024 11:00:00,26.730136,83.433859,PM10,58,161,112
India,Uttar_Pradesh,Gorakhpur,"Madan Mohan Malaviya University of Technology, Gorakhpur - UPPCB",14-06-2024 11:00:00,26.730136,83.433859,SO2,20,22,21
India,Uttar_Pradesh,Greater Noida,"Knowledge Park - V, Greater Noida - UPPCB",14-06-2024 11:00:00,28.557054,77.453663,OZONE,24,124,45
India,Uttar_Pradesh,Hapur,"Anand Vihar, Hapur - UPPCB",14-06-2024 11:00:00,28.725645,77.749675,NO2,13,122,45
India,Uttar_Pradesh,Jhansi,"Shivaji Nagar, Jhansi - UPPCB",14-06-2024 11:00:00,25.4547,78.6039,PM10,NA,NA,NA
India,Uttar_Pradesh,Jhansi,"Shivaji Nagar, Jhansi - UPPCB",14-06-2024 11:00:00,25.4547,78.6039,SO2,18,22,20
India,Uttar_Pradesh,Kanpur,"FTI Kidwai Nagar, Kanpur - UPPCB",14-06-2024 11:00:00,26.428282,80.327067,NH3,2,3,2
India,Uttar_Pradesh,Kanpur,"NSI Kalyanpur, Kanpur - UPPCB",14-06-2024 11:00:00,26.509954,80.249612,NO2,10,19,14
India,Uttar_Pradesh,Kanpur,"NSI Kalyanpur, Kanpur - UPPCB",14-06-2024 11:00:00,26.509954,80.249612,OZONE,39,95,60
India,Uttar_Pradesh,Lucknow,"Gomti Nagar, Lucknow - UPPCB",14-06-2024 11:00:00,26.868120,81.005119,SO2,7,15,11
India,Uttar_Pradesh,Lucknow,"Lalbagh, Lucknow - CPCB",14-06-2024 11:00:00,26.8458805,80.9365541,CO,8,104,67
India,Uttar_Pradesh,Lucknow,"Talkatora District Industries Center, Lucknow - CPCB",14-06-2024 11:00:00,26.83399722,80.8917361,NO2,12,13,12
India,Uttar_Pradesh,Meerut,"Ganga Nagar, Meerut - UPPCB",14-06-2024 11:00:00,28.999264,77.7590354,PM2.5,17,56,36
India,Uttar_Pradesh,Meerut,"Jai Bhim Nagar, Meerut - UPPCB",14-06-2024 11:00:00,28.9535882,77.7622941,SO2,6,20,9
India,Uttar_Pradesh,Meerut,"Jai Bhim Nagar, Meerut - UPPCB",14-06-2024 11:00:00,28.9535882,77.7622941,CO,28,88,37
India,Uttar_Pradesh,Moradabad,"Buddhi Vihar, Moradabad - UPPCB",14-06-2024 11:00:00,28.83526,78.74460,PM2.5,26,82,54
India,Uttar_Pradesh,Moradabad,"Eco Herbal Park, Moradabad - UPPCB",14-06-2024 11:00:00,28.840739,78.697531,NH3,6,19,10
India,Uttar_Pradesh,Moradabad,"Eco Herbal Park, Moradabad - UPPCB",14-06-2024 11:00:00,28.840739,78.697531,OZONE,19,174,50
India,Uttar_Pradesh,Moradabad,"Employment Office, Moradabad - UPPCB",14-06-2024 11:00:00,28.88528,78.73880,NH3,4,4,4
India,Uttar_Pradesh,Moradabad,"Jigar Colony, Moradabad - UPPCB",14-06-2024 11:00:00,28.856664,78.772638,PM10,103,169,133
India,Uttar_Pradesh,Moradabad,"Kashiram Nagar, Moradabad - UPPCB",14-06-2024 11:00:00,28.849399,78.742362,NH3,4,4,4
India,Uttar_Pradesh,Moradabad,"Kashiram Nagar, Moradabad - UPPCB",14-06-2024 11:00:00,28.849399,78.742362,SO2,35,71,57
India,Uttar_Pradesh,Moradabad,"Transport Nagar, Moradabad - UPPCB",14-06-2024 11:00:00,28.802625,78.753728,PM10,63,180,108
India,Uttar_Pradesh,Muzaffarnagar,"New Mandi, Muzaffarnagar - UPPCB",14-06-2024 11:00:00,29.4723508,77.7194031,PM2.5,44,222,105
India,Uttar_Pradesh,Noida,"Sector - 125, Noida - UPPCB",14-06-2024 11:00:00,28.5447608,77.3231257,PM10,134,435,234
India,Uttar_Pradesh,Noida,"Sector - 125, Noida - UPPCB",14-06-2024 11:00:00,28.5447608,77.3231257,CO,2,56,40
India,Uttar_Pradesh,Noida,"Sector - 62, Noida - IMD",14-06-2024 11:00:00,28.6245479,77.3577104,PM10,118,283,181
India,Uttar_Pradesh,Noida,"Sector-1, Noida - UPPCB",14-06-2024 11:00:00,28.5898,77.3101,NH3,4,14,6
India,Uttar_Pradesh,Noida,"Sector-1, Noida - UPPCB",14-06-2024 11:00:00,28.5898,77.3101,CO,10,74,15
India,Uttar_Pradesh,Noida,"Sector-1, Noida - UPPCB",14-06-2024 11:00:00,28.5898,77.3101,OZONE,10,131,36
India,Uttar_Pradesh,Noida,"Sector-116, Noida - UPPCB",14-06-2024 11:00:00,28.569230,77.393848,NH3,7,16,10
India,Uttar_Pradesh,Noida,"Sector-116, Noida - UPPCB",14-06-2024 11:00:00,28.569230,77.393848,OZONE,9,121,41
India,Uttar_Pradesh,Prayagraj,"Jhunsi, Prayagraj - UPPCB",14-06-2024 11:00:00,25.425602,81.917152,OZONE,18,69,23
India,Uttar_Pradesh,Prayagraj,"Motilal Nehru NIT, Prayagraj - UPPCB",14-06-2024 11:00:00,25.494,81.863,OZONE,16,57,23
India,Uttar_Pradesh,Varanasi,"Ardhali Bazar, Varanasi - UPPCB",14-06-2024 11:00:00,25.3505986,82.9083074,PM10,NA,NA,NA
India,Uttar_Pradesh,Varanasi,"Bhelupur, Varanasi - UPPCB",14-06-2024 11:00:00,25.301778,82.996789,PM10,26,69,43
India,Uttar_Pradesh,Varanasi,"Bhelupur, Varanasi - UPPCB",14-06-2024 11:00:00,25.301778,82.996789,NO2,7,8,8
India,Uttar_Pradesh,Varanasi,"Bhelupur, Varanasi - UPPCB",14-06-2024 11:00:00,25.301778,82.996789,OZONE,8,39,11
India,Uttar_Pradesh,Varanasi,"IESD Banaras Hindu University, Varanasi - UPPCB",14-06-2024 11:00:00,25.262326,82.995408,NH3,2,6,3
India,Uttar_Pradesh,Varanasi,"Maldahiya, Varanasi - UPPCB",14-06-2024 11:00:00,25.32393,82.99687,PM10,27,54,39
India,Uttar_Pradesh,Varanasi,"Maldahiya, Varanasi - UPPCB",14-06-2024 11:00:00,25.32393,82.99687,OZONE,1,34,5
India,Uttar_Pradesh,Vrindavan,"Omex Eternity, Vrindavan - UPPCB",14-06-2024 11:00:00,27.5714090,77.6557570,PM10,25,167,92
India,Uttar_Pradesh,Vrindavan,"Omex Eternity, Vrindavan - UPPCB",14-06-2024 11:00:00,27.5714090,77.6557570,OZONE,20,25,24
India,Uttarakhand,Kashipur,"Govt. Girls Inter College, Kashipur - UKPCB",14-06-2024 11:00:00,29.2124114,78.9611753,PM10,127,151,140
India,Uttarakhand,Kashipur,"Govt. Girls Inter College, Kashipur - UKPCB",14-06-2024 11:00:00,29.2124114,78.9611753,NO2,8,22,14
India,Uttarakhand,Rishikesh,"Shivaji Nagar, Rishikesh - UKPCB",14-06-2024 11:00:00,30.075911,78.2859547,PM2.5,59,158,100
India,Uttarakhand,Rishikesh,"Shivaji Nagar, Rishikesh - UKPCB",14-06-2024 11:00:00,30.075911,78.2859547,NH3,2,9,5
India,Uttarakhand,Rishikesh,"Shivaji Nagar, Rishikesh - UKPCB",14-06-2024 11:00:00,30.075911,78.2859547,OZONE,20,156,39
India,West_Bengal,Asansol,"Asansol Court Area, Asansol - WBPCB",14-06-2024 11:00:00,23.685297,86.945968,PM2.5,89,266,149
India,West_Bengal,Asansol,"Asansol Court Area, Asansol - WBPCB",14-06-2024 11:00:00,23.685297,86.945968,NH3,12,18,14
India,West_Bengal,Asansol,"Evelyn Lodge, Asansol - WBPCB",14-06-2024 11:00:00,23.6979360,86.9443950,SO2,13,19,15
India,West_Bengal,Asansol,"Evelyn Lodge, Asansol - WBPCB",14-06-2024 11:00:00,23.6979360,86.9443950,CO,60,100,75
India,West_Bengal,Barrackpore,"SVSPA Campus, Barrackpore - WBPCB",14-06-2024 11:00:00,22.7605581,88.3617589,PM10,62,111,84
India,West_Bengal,Barrackpore,"SVSPA Campus, Barrackpore - WBPCB",14-06-2024 11:00:00,22.7605581,88.3617589,SO2,6,12,8
India,West_Bengal,Durgapur,"Sidhu Kanhu Indoor Stadium, Durgapur - WBPCB",14-06-2024 11:00:00,23.5404352,87.2892225,SO2,16,83,37
India,West_Bengal,Haldia,"Priyambada Housing Estate, Haldia - WBPCB",14-06-2024 11:00:00,22.06047,88.109737,PM10,34,123,66
India,West_Bengal,Haldia,"Priyambada Housing Estate, Haldia - WBPCB",14-06-2024 11:00:00,22.06047,88.109737,OZONE,23,53,27
India,West_Bengal,Howrah,"Belur Math, Howrah - WBPCB",14-06-2024 11:00:00,22.629801,88.352017,NO2,1,13,6
India,West_Bengal,Howrah,"Ghusuri, Howrah - WBPCB",14-06-2024 11:00:00,22.611968,88.347422,PM2.5,26,92,57
India,West_Bengal,Howrah,"Padmapukur, Howrah - WBPCB",14-06-2024 11:00:00,22.5687319,88.2797276,NH3,5,9,7
India,West_Bengal,Kolkata,"Ballygunge, Kolkata - WBPCB",14-06-2024 11:00:00,22.5367507,88.3638022,NH3,6,7,6
India,West_Bengal,Kolkata,"Ballygunge, Kolkata - WBPCB",14-06-2024 11:00:00,22.5367507,88.3638022,CO,14,31,20
India,West_Bengal,Kolkata,"Jadavpur, Kolkata - WBPCB",14-06-2024 11:00:00,22.49929,88.36917,NO2,12,14,13
India,West_Bengal,Kolkata,"Jadavpur, Kolkata - WBPCB",14-06-2024 11:00:00,22.49929,88.36917,NH3,6,6,6
India,West_Bengal,Kolkata,"Jadavpur, Kolkata - WBPCB",14-06-2024 11:00:00,22.49929,88.36917,CO,22,31,25
India,West_Bengal,Kolkata,"Rabindra Bharati University, Kolkata - WBPCB",14-06-2024 11:00:00,22.627847,88.380669,PM2.5,24,40,32
India,West_Bengal,Kolkata,"Rabindra Bharati University, Kolkata - WBPCB",14-06-2024 11:00:00,22.627847,88.380669,SO2,10,14,12
India,West_Bengal,Kolkata,"Rabindra Bharati University, Kolkata - WBPCB",14-06-2024 11:00:00,22.627847,88.380669,CO,24,34,29
India,West_Bengal,Kolkata,"Rabindra Sarobar, Kolkata - WBPCB",14-06-2024 11:00:00,22.51106,88.35142,NO2,25,35,29
India,West_Bengal,Kolkata,"Victoria, Kolkata - WBPCB",14-06-2024 11:00:00,22.5448082,88.3403691,PM10,NA,NA,NA
India,West_Bengal,Kolkata,"Victoria, Kolkata - WBPCB",14-06-2024 11:00:00,22.5448082,88.3403691,CO,21,23,22
India,West_Bengal,Siliguri,"Ward-32 Bapupara, Siliguri - WBPCB",14-06-2024 11:00:00,26.6879226,88.4152495,PM10,20,51,36
India,West_Bengal,Siliguri,"Ward-32 Bapupara, Siliguri - WBPCB",14-06-2024 11:00:00,26.6879226,88.4152495,NO2,24,31,26
India,West_Bengal,Siliguri,"Ward-32 Bapupara, Siliguri - WBPCB",14-06-2024 11:00:00,26.6879226,88.4152495,CO,12,34,18
India,Andhra_Pradesh,Anantapur,"Gulzarpet, Anantapur - APPCB",14-06-2024 11:00:00,14.675886,77.593027,OZONE,1,13,5
India,Andhra_Pradesh,Kadapa,"Yerramukkapalli, Kadapa - APPCB",14-06-2024 11:00:00,14.465052,78.824187,CO,NA,NA,NA
India,Andhra_Pradesh,Rajamahendravaram,"Anand Kala Kshetram, Rajamahendravaram - APPCB",14-06-2024 11:00:00,16.9872867,81.7363176,NO2,13,37,19
India,Andhra_Pradesh,Tirupati,"Vaikuntapuram, Tirupati - APPCB",14-06-2024 11:00:00,13.615387,79.409230,OZONE,5,13,6
India,Andhra_Pradesh,Vijayawada,"HB Colony, Vijayawada - APPCB",14-06-2024 11:00:00,16.536107,80.594233,PM10,45,152,61
India,Andhra_Pradesh,Vijayawada,"HB Colony, Vijayawada - APPCB",14-06-2024 11:00:00,16.536107,80.594233,NO2,12,23,16
India,Andhra_Pradesh,Vijayawada,"Kanuru, Vijayawada - APPCB",14-06-2024 11:00:00,16.486692,80.699436,OZONE,40,40,40
India,Andhra_Pradesh,Vijayawada,"Rajiv Gandhi Park, Vijayawada - APPCB",14-06-2024 11:00:00,16.509717,80.612222,NO2,22,72,36
India,Andhra_Pradesh,Vijayawada,"Rajiv Gandhi Park, Vijayawada - APPCB",14-06-2024 11:00:00,16.509717,80.612222,NH3,2,6,5
India,Andhra_Pradesh,Vijayawada,"Rajiv Nagar, Vijayawada - APPCB",14-06-2024 11:00:00,16.554731,80.649110,NH3,2,2,2
India,Arunachal_Pradesh,Naharlagun,"Naharlagun, Naharlagun - APSPCB",14-06-2024 11:00:00,27.103358,93.679645,PM10,NA,NA,NA
India,Arunachal_Pradesh,Naharlagun,"Naharlagun, Naharlagun - APSPCB",14-06-2024 11:00:00,27.103358,93.679645,CO,NA,NA,NA
India,Assam,Byrnihat,"Central Academy for SFS, Byrnihat - PCBA",14-06-2024 11:00:00,26.071318,91.87488,OZONE,19,130,35
India,Assam,Guwahati,"IITG, Guwahati - PCBA",14-06-2024 11:00:00,26.2028636,91.70046436,NH3,NA,NA,NA
India,Assam,Guwahati,"Railway Colony, Guwahati - PCBA",14-06-2024 11:00:00,26.181742,91.78063,PM10,19,100,49
India,Assam,Nagaon,"Christianpatty, Nagaon - PCBA",14-06-2024 11:00:00,26.349082,92.68449,NH3,NA,NA,NA
India,Assam,Nagaon,"Christianpatty, Nagaon - PCBA",14-06-2024 11:00:00,26.349082,92.68449,SO2,7,11,10
India,Assam,Silchar,"Tarapur, Silchar - PCBA",14-06-2024 11:00:00,24.82827,92.79525,NH3,1,1,1
India,Bihar,Arrah,"New DM Office, Arrah - BSPCB",14-06-2024 11:00:00,25.5626095,84.663264,CO,12,26,19
India,Bihar,Aurangabad,"Gurdeo Nagar, Aurangabad - BSPCB",14-06-2024 11:00:00,24.75746,84.366208,OZONE,15,132,41
India,Bihar,Bhagalpur,"DM Office_Kachari Chowk, Bhagalpur - BSPCB",14-06-2024 11:00:00,25.251013,86.989001,PM10,64,176,125
India,Bihar,Bhagalpur,"DM Office_Kachari Chowk, Bhagalpur - BSPCB",14-06-2024 11:00:00,25.251013,86.989001,CO,38,84,46
India,Bihar,Bhagalpur,"Mayaganj, Bhagalpur - BSPCB",14-06-2024 11:00:00,25.265194,87.012947,NO2,2,12,7
India,Bihar,Bihar Sharif,"D M Colony, Bihar Sharif - BSPCB",14-06-2024 11:00:00,25.204762,85.514960,CO,20,29,26
India,Bihar,Bihar Sharif,"D M Colony, Bihar Sharif - BSPCB",14-06-2024 11:00:00,25.204762,85.514960,OZONE,10,141,47
India,Bihar,Chhapra,"Darshan Nagar, Chhapra - BSPCB",14-06-2024 11:00:00,25.7808257,84.7446768,NH3,5,15,9
India,Bihar,Gaya,"Kareemganj, Gaya - BSPCB",14-06-2024 11:00:00,24.792403,84.992416,PM10,59,114,84
India,Bihar,Gaya,"Kareemganj, Gaya - BSPCB",14-06-2024 11:00:00,24.792403,84.992416,NO2,20,22,21
India,Bihar,Gaya,"SFTI Kusdihra, Gaya - BSPCB",14-06-2024 11:00:00,24.762518,84.982348,NO2,13,34,22
India,Bihar,Hajipur,"Industrial Area, Hajipur - BSPCB",14-06-2024 11:00:00,25.697189,85.245900,PM2.5,92,174,137
India,Bihar,Hajipur,"Industrial Area, Hajipur - BSPCB",14-06-2024 11:00:00,25.697189,85.245900,NH3,10,14,12
India,Bihar,Katihar,"Mirchaibari, Katihar - BSPCB",14-06-2024 11:00:00,25.560083,87.553265,PM2.5,17,65,40
India,Bihar,Kishanganj,"SDM Office_Khagra, Kishanganj - BSPCB",14-06-2024 11:00:00,26.0881305,87.93840336,PM2.5,NA,NA,NA
India,Bihar,Kishanganj,"SDM Office_Khagra, Kishanganj - BSPCB",14-06-2024 11:00:00,26.0881305,87.93840336,NH3,6,10,7
India,Bihar,Kishanganj,"SDM Office_Khagra, Kishanganj - BSPCB",14-06-2024 11:00:00,26.0881305,87.93840336,CO,4,10,10
India,Bihar,Manguraha,"Forest Rest House, Manguraha - BSPCB",14-06-2024 11:00:00,27.308328,84.531742,NH3,1,3,2
India,Bihar,Manguraha,"Forest Rest House, Manguraha - BSPCB",14-06-2024 11:00:00,27.308328,84.531742,CO,37,44,42
India,Bihar,Motihari,"Gandak Colony, Motihari - BSPCB",14-06-2024 11:00:00,26.63086,84.90051,PM10,42,102,81
India,Bihar,Munger,"Town Hall, Munger - BSPCB",14-06-2024 11:00:00,25.376776,86.471523,CO,29,66,58
India,Bihar,Muzaffarpur,"Buddha Colony, Muzaffarpur - BSPCB",14-06-2024 11:00:00,26.11442,85.39813,PM10,63,116,95
India,Bihar,Muzaffarpur,"Buddha Colony, Muzaffarpur - BSPCB",14-06-2024 11:00:00,26.11442,85.39813,CO,15,27,23
India,Bihar,Muzaffarpur,"MIT-Daudpur Kothi, Muzaffarpur - BSPCB",14-06-2024 11:00:00,26.1403345,85.3650192,PM10,NA,NA,NA
India,Bihar,Muzaffarpur,"MIT-Daudpur Kothi, Muzaffarpur - BSPCB",14-06-2024 11:00:00,26.1403345,85.3650192,NO2,4,6,4
India,Bihar,Muzaffarpur,"MIT-Daudpur Kothi, Muzaffarpur - BSPCB",14-06-2024 11:00:00,26.1403345,85.3650192,SO2,9,9,9
India,Bihar,Patna,"DRM Office Danapur, Patna - BSPCB",14-06-2024 11:00:00,25.586562,85.043586,PM10,95,148,127
India,Bihar,Patna,"DRM Office Danapur, Patna - BSPCB",14-06-2024 11:00:00,25.586562,85.043586,OZONE,18,80,25
India,Bihar,Patna,"Govt. High School Shikarpur, Patna - BSPCB",14-06-2024 11:00:00,25.592539,85.227158,SO2,7,16,10
India,Bihar,Patna,"Muradpur, Patna - BSPCB",14-06-2024 11:00:00,25.619651,85.147382,NO2,10,63,30
India,Bihar,Patna,"Muradpur, Patna - BSPCB",14-06-2024 11:00:00,25.619651,85.147382,SO2,4,7,6
India,Bihar,Patna,"Rajbansi Nagar, Patna - BSPCB",14-06-2024 11:00:00,25.599486,85.113666,NH3,3,6,4
India,Bihar,Patna,"Rajbansi Nagar, Patna - BSPCB",14-06-2024 11:00:00,25.599486,85.113666,OZONE,14,56,28
India,Bihar,Patna,"Samanpura, Patna - BSPCB",14-06-2024 11:00:00,25.596727,85.085624,PM2.5,84,190,120
India,Bihar,Patna,"Samanpura, Patna - BSPCB",14-06-2024 11:00:00,25.596727,85.085624,CO,54,69,58
India,Bihar,Patna,"Samanpura, Patna - BSPCB",14-06-2024 11:00:00,25.596727,85.085624,OZONE,15,115,32
India,Bihar,Purnia,"Mariam Nagar, Purnia - BSPCB",14-06-2024 11:00:00,25.366336,87.117468,NH3,1,1,1
India,Bihar,Purnia,"Mariam Nagar, Purnia - BSPCB",14-06-2024 11:00:00,25.366336,87.117468,SO2,7,12,10
India,Bihar,Rajgir,"Dangi Tola, Rajgir - BSPCB",14-06-2024 11:00:00,25.03280,85.41948,NO2,13,17,15
India,Bihar,Saharsa,"Police Line, Saharsa - BSPCB",14-06-2024 11:00:00,25.892357,86.590325,NH3,9,9,9
India,Bihar,Samastipur,"DM Office_Kasipur, Samastipur - BSPCB",14-06-2024 11:00:00,25.859655,85.77944,NH3,4,4,1
India,Bihar,Samastipur,"DM Office_Kasipur, Samastipur - BSPCB",14-06-2024 11:00:00,25.859655,85.77944,SO2,12,76,48
India,Bihar,Samastipur,"DM Office_Kasipur, Samastipur - BSPCB",14-06-2024 11:00:00,25.859655,85.77944,CO,3,51,36
India,Bihar,Sasaram,"Dada Peer, Sasaram - BSPCB",14-06-2024 11:00:00,24.952822,84.002396,PM2.5,17,31,23
India,Bihar,Sasaram,"Dada Peer, Sasaram - BSPCB",14-06-2024 11:00:00,24.952822,84.002396,NH3,3,13,7
India,Chandigarh,Chandigarh,"Sector 22, Chandigarh - CPCC",14-06-2024 11:00:00,30.735567,76.775714,PM10,88,351,141
India,Chandigarh,Chandigarh,"Sector-25, Chandigarh - CPCC",14-06-2024 11:00:00,30.751462,76.762879,NH3,11,20,15
India,Chhattisgarh,Bhilai,"32Bungalows, Bhilai - CECB",14-06-2024 11:00:00,21.194815,81.314770,PM10,40,86,68
India,Chhattisgarh,Bhilai,"32Bungalows, Bhilai - CECB",14-06-2024 11:00:00,21.194815,81.314770,CO,13,25,14
India,Chhattisgarh,Bhilai,"Civic Center, Bhilai - Bhilai Steel Plant",14-06-2024 11:00:00,21.185571,81.343175,OZONE,34,65,39
India,Chhattisgarh,Bhilai,"Hathkhoj, Bhilai - CECB",14-06-2024 11:00:00,21.224231,81.408350,SO2,9,12,10
India,Chhattisgarh,Bhilai,"Hathkhoj, Bhilai - CECB",14-06-2024 11:00:00,21.224231,81.408350,CO,8,26,13
India,Chhattisgarh,Chhal,"Nawapara SECL Colony, Chhal - CECB",14-06-2024 11:00:00,22.118125,83.140608,NH3,NA,NA,NA
India,Chhattisgarh,Chhal,"Nawapara SECL Colony, Chhal - CECB",14-06-2024 11:00:00,22.118125,83.140608,CO,22,67,30
India,Chhattisgarh,Chhal,"Nawapara SECL Colony, Chhal - CECB",14-06-2024 11:00:00,22.118125,83.140608,OZONE,50,217,60
India,Chhattisgarh,Korba,"Urja Nagar, Korba - CECB",14-06-2024 11:00:00,22.348441,82.549611,PM2.5,NA,NA,NA
India,Chhattisgarh,Kunjemura,"OP Jindal School, Kunjemura - CECB",14-06-2024 11:00:00,22.126650,83.483212,PM10,32,158,81
India,Chhattisgarh,Kunjemura,"OP Jindal School, Kunjemura - CECB",14-06-2024 11:00:00,22.126650,83.483212,CO,26,94,34
India,Chhattisgarh,Raipur,"Bhatagaon New ISBT, Raipur - CECB",14-06-2024 11:00:00,21.219665,81.630094,PM10,43,87,65
India,Chhattisgarh,Raipur,"Krishak Nagar, Raipur - CECB",14-06-2024 11:00:00,21.237755,81.705301,SO2,10,29,15
India,Chhattisgarh,Raipur,"Siltara Phase-II, Raipur - CECB",14-06-2024 11:00:00,21.371751,81.664929,NH3,3,3,3
India,Chhattisgarh,Tumidih,"OP Jindal Industrial Park, Tumidih - CECB",14-06-2024 11:00:00,22.06631475,83.33820077,NH3,NA,NA,NA
India,Delhi,Delhi,"Anand Vihar, Delhi - DPCC",14-06-2024 11:00:00,28.647622,77.3158090,SO2,3,33,14
India,Delhi,Delhi,"Anand Vihar, Delhi - DPCC",14-06-2024 11:00:00,28.647622,77.3158090,CO,136,153,139
India,Delhi,Delhi,"Ashok Vihar, Delhi - DPCC",14-06-2024 11:00:00,28.695381,77.181665,PM10,105,282,161
India,Delhi,Delhi,"Bawana, Delhi - DPCC",14-06-2024 11:00:00,28.776200,77.051074,PM10,127,368,198
India,Delhi,Delhi,"CRRI Mathura Road, Delhi - IMD",14-06-2024 11:00:00,28.5512005,77.2735737,PM2.5,44,89,68
India,Delhi,Delhi,"DTU, Delhi - CPCB",14-06-2024 11:00:00,28.7500499,77.1112615,PM2.5,93,313,176
India,Delhi,Delhi,"DTU, Delhi - CPCB",14-06-2024 11:00:00,28.7500499,77.1112615,SO2,40,48,44
India,Delhi,Delhi,"Dr. Karni Singh Shooting Range, Delhi - DPCC",14-06-2024 11:00:00,28.498571,77.264840,NO2,20,58,30
India,Delhi,Delhi,"Dwarka-Sector 8, Delhi - DPCC ",14-06-2024 11:00:00,28.5710274,77.0719006,CO,20,52,28
India,Delhi,Delhi,"IGI Airport (T3), Delhi - IMD",14-06-2024 11:00:00,28.5627763,77.1180053,CO,23,37,27
India,Delhi,Delhi,"Jahangirpuri, Delhi - DPCC",14-06-2024 11:00:00,28.732820,77.170633,SO2,24,43,32
India,Delhi,Delhi,"Jawaharlal Nehru Stadium, Delhi - DPCC",14-06-2024 11:00:00,28.580280,77.233829,OZONE,25,190,62
India,Delhi,Delhi,"Major Dhyan Chand National Stadium, Delhi - DPCC",14-06-2024 11:00:00,28.611281,77.237738,PM2.5,47,97,68
India,Delhi,Delhi,"Mandir Marg, Delhi - DPCC",14-06-2024 11:00:00,28.636429,77.201067,CO,25,44,34
India,Delhi,Delhi,"NSIT Dwarka, Delhi - CPCB",14-06-2024 11:00:00,28.60909,77.0325413,NH3,4,6,5
India,Delhi,Delhi,"Najafgarh, Delhi - DPCC",14-06-2024 11:00:00,28.570173,76.933762,SO2,10,22,17
India,Delhi,Delhi,"Najafgarh, Delhi - DPCC",14-06-2024 11:00:00,28.570173,76.933762,OZONE,31,89,40
India,Delhi,Delhi,"Narela, Delhi - DPCC",14-06-2024 11:00:00,28.822836,77.101981,PM10,134,290,204
India,Delhi,Delhi,"Narela, Delhi - DPCC",14-06-2024 11:00:00,28.822836,77.101981,NO2,8,64,24
India,Delhi,Delhi,"Nehru Nagar, Delhi - DPCC",14-06-2024 11:00:00,28.567890,77.250515,NH3,3,8,5
India,Delhi,Delhi,"New Moti Bagh, Delhi - MHUA",14-06-2024 11:00:00,28.57834,77.18400,PM2.5,NA,NA,NA
India,Delhi,Delhi,"North Campus, DU, Delhi - IMD",14-06-2024 11:00:00,28.6573814,77.1585447,NO2,7,27,12
India,Delhi,Delhi,"Okhla Phase-2, Delhi - DPCC",14-06-2024 11:00:00,28.530785,77.271255,PM10,119,309,174
India,Delhi,Delhi,"Patparganj, Delhi - DPCC",14-06-2024 11:00:00,28.623763,77.287209,NO2,18,154,51
India,Delhi,Delhi,"Punjabi Bagh, Delhi - DPCC",14-06-2024 11:00:00,28.674045,77.131023,NH3,4,5,4
India,Delhi,Delhi,"Pusa, Delhi - DPCC",14-06-2024 11:00:00,28.639652,77.146275,CO,24,104,44
India,Delhi,Delhi,"Pusa, Delhi - IMD",14-06-2024 11:00:00,28.636110,77.173332,PM2.5,4,298,109
India,Delhi,Delhi,"Pusa, Delhi - IMD",14-06-2024 11:00:00,28.636110,77.173332,OZONE,13,37,16
India,Delhi,Delhi,"R K Puram, Delhi - DPCC",14-06-2024 11:00:00,28.563262,77.186937,SO2,2,21,11
India,Delhi,Delhi,"R K Puram, Delhi - DPCC",14-06-2024 11:00:00,28.563262,77.186937,OZONE,38,154,57
India,Delhi,Delhi,"Rohini, Delhi - DPCC",14-06-2024 11:00:00,28.732528,77.119920,SO2,9,30,19
India,Delhi,Delhi,"Rohini, Delhi - DPCC",14-06-2024 11:00:00,28.732528,77.119920,CO,11,38,17
India,Delhi,Delhi,"Rohini, Delhi - DPCC",14-06-2024 11:00:00,28.732528,77.119920,OZONE,20,173,50
India,Delhi,Delhi,"Shadipur, Delhi - CPCB",14-06-2024 11:00:00,28.6514781,77.1473105,NH3,7,9,8
India,Delhi,Delhi,"Shadipur, Delhi - CPCB",14-06-2024 11:00:00,28.6514781,77.1473105,CO,32,112,49
India,Delhi,Delhi,"Sonia Vihar, Delhi - DPCC",14-06-2024 11:00:00,28.710508,77.249485,NO2,14,76,31
India,Delhi,Delhi,"Sonia Vihar, Delhi - DPCC",14-06-2024 11:00:00,28.710508,77.249485,NH3,5,8,6
India,Delhi,Delhi,"Sonia Vihar, Delhi - DPCC",14-06-2024 11:00:00,28.710508,77.249485,OZONE,31,182,49
India,Gujarat,Ahmedabad,"Chandkheda, Ahmedabad - IITM",14-06-2024 11:00:00,23.107969,72.574648,PM10,21,123,62
India,Gujarat,Ahmedabad,"Chandkheda, Ahmedabad - IITM",14-06-2024 11:00:00,23.107969,72.574648,CO,24,76,56
India,Gujarat,Ahmedabad,"Raikhad, Ahmedabad - IITM",14-06-2024 11:00:00,23.020509,72.579261,PM2.5,45,231,108
India,Gujarat,Ahmedabad,"SVPI Airport Hansol, Ahmedabad - IITM",14-06-2024 11:00:00,23.076793,72.627874,NO2,22,43,36
India,Gujarat,Ahmedabad,"Sardar Vallabhbhai Patel Stadium, Ahmedabad - IITM",14-06-2024 11:00:00,23.043070,72.562968,PM2.5,34,134,70
India,Gujarat,Gandhinagar,"GIFT City, Gandhinagar - IITM",14-06-2024 11:00:00,23.163798,72.677768,PM10,NA,NA,NA
India,Gujarat,Gandhinagar,"GIFT City, Gandhinagar - IITM",14-06-2024 11:00:00,23.163798,72.677768,CO,NA,NA,NA
India,Gujarat,Nandesari,"GIDC, Nandesari - Nandesari Ind. Association",14-06-2024 11:00:00,22.410802,73.097923,PM10,80,184,122
India,Gujarat,Vapi,"Phase-1 GIDC, Vapi - GPCB",14-06-2024 11:00:00,20.362421,72.918013,PM2.5,6,36,20
India,Gujarat,Vapi,"Phase-1 GIDC, Vapi - GPCB",14-06-2024 11:00:00,20.362421,72.918013,SO2,44,46,46
India,Gujarat,Vatva,"Phase-4 GIDC, Vatva - GPCB",14-06-2024 11:00:00,22.969611,72.643500,CO,20,22,22
India,Haryana,Ambala,"Patti Mehar, Ambala - HSPCB",14-06-2024 11:00:00,30.379589,76.778328,CO,30,60,45
India,Haryana,Ballabgarh,"Nathu Colony, Ballabgarh - HSPCB",14-06-2024 11:00:00,28.3419248,77.319699,NO2,12,14,12
India,Haryana,Bhiwani,"H.B. Colony, Bhiwani - HSPCB",14-06-2024 11:00:00,28.806223,76.141105,PM10,81,189,120
India,Haryana,Bhiwani,"H.B. Colony, Bhiwani - HSPCB",14-06-2024 11:00:00,28.806223,76.141105,SO2,3,13,7
India,Haryana,Charkhi Dadri,"Mini Secretariat, Charkhi Dadri - HSPCB",14-06-2024 11:00:00,28.593883,76.270653,PM10,109,151,129
India,Haryana,Dharuhera,"Municipal Corporation Office, Dharuhera -  HSPCB",14-06-2024 11:00:00,28.206800,76.799700,PM2.5,NA,NA,NA
India,Haryana,Dharuhera,"Municipal Corporation Office, Dharuhera -  HSPCB",14-06-2024 11:00:00,28.206800,76.799700,PM10,NA,NA,NA
India,Haryana,Dharuhera,"Municipal Corporation Office, Dharuhera -  HSPCB",14-06-2024 11:00:00,28.206800,76.799700,SO2,NA,NA,NA
India,Haryana,Faridabad,"New Industrial Town, Faridabad - HSPCB",14-06-2024 11:00:00,28.39072,77.30059,PM10,125,500,253
India,Haryana,Faridabad,"New Industrial Town, Faridabad - HSPCB",14-06-2024 11:00:00,28.39072,77.30059,OZONE,46,51,48
India,Haryana,Faridabad,"Sector 11, Faridabad - HSPCB",14-06-2024 11:00:00,28.376058,77.315741,PM10,111,316,160
India,Haryana,Faridabad,"Sector 30, Faridabad - HSPCB",14-06-2024 11:00:00,28.4417,77.3217,NO2,NA,NA,NA
India,Haryana,Faridabad,"Sector 30, Faridabad - HSPCB",14-06-2024 11:00:00,28.4417,77.3217,CO,18,30,18
India,Haryana,Faridabad,"Sector- 16A, Faridabad - HSPCB",14-06-2024 11:00:00,28.4088421,77.3099081,SO2,16,30,24
India,Haryana,Fatehabad,"Huda Sector, Fatehabad - HSPCB",14-06-2024 11:00:00,29.503664,75.467934,PM10,95,183,130
India,Haryana,Fatehabad,"Huda Sector, Fatehabad - HSPCB",14-06-2024 11:00:00,29.503664,75.467934,CO,44,46,45
India,Haryana,Gurugram,"Teri Gram, Gurugram - HSPCB",14-06-2024 11:00:00,28.4275,77.1465,PM2.5,128,386,280
India,Haryana,Gurugram,"Vikas Sadan, Gurugram - HSPCB",14-06-2024 11:00:00,28.4501238,77.0263051,NO2,5,25,14
India,Haryana,Hisar,"Urban Estate-II, Hisar - HSPCB",14-06-2024 11:00:00,29.140560,75.744941,NH3,4,5,4
India,Haryana,Hisar,"Urban Estate-II, Hisar - HSPCB",14-06-2024 11:00:00,29.140560,75.744941,SO2,1,23,12
India,Haryana,Hisar,"Urban Estate-II, Hisar - HSPCB",14-06-2024 11:00:00,29.140560,75.744941,CO,25,36,27
India,Haryana,Jind,"Police Lines, Jind - HSPCB",14-06-2024 11:00:00,29.307814,76.337619,PM2.5,44,115,80
India,Haryana,Jind,"Police Lines, Jind - HSPCB",14-06-2024 11:00:00,29.307814,76.337619,NH3,1,5,1
India,Haryana,Jind,"Police Lines, Jind - HSPCB",14-06-2024 11:00:00,29.307814,76.337619,CO,2,103,32
India,Haryana,Kaithal,"Rishi Nagar, Kaithal - HSPCB",14-06-2024 11:00:00,29.8006,76.4155,PM10,120,334,160
India,Haryana,Kaithal,"Rishi Nagar, Kaithal - HSPCB",14-06-2024 11:00:00,29.8006,76.4155,NO2,24,26,25
India,Haryana,Karnal,"Sector-12, Karnal - HSPCB",14-06-2024 11:00:00,29.695300,77.002700,SO2,12,13,12
India,Haryana,Karnal,"Sector-12, Karnal - HSPCB",14-06-2024 11:00:00,29.695300,77.002700,OZONE,26,29,28
India,Haryana,Kurukshetra,"Sector-7, Kurukshetra - HSPCB",14-06-2024 11:00:00,29.966942,76.875879,PM2.5,73,160,113
India,Haryana,Kurukshetra,"Sector-7, Kurukshetra - HSPCB",14-06-2024 11:00:00,29.966942,76.875879,NO2,10,10,10
India,Haryana,Mandikhera,"General Hospital, Mandikhera - HSPCB",14-06-2024 11:00:00,27.9002,76.9938,PM10,69,153,111
India,Haryana,Manesar,"Sector-2 IMT, Manesar - HSPCB",14-06-2024 11:00:00,28.360699,76.936090,NH3,1,3,2
India,Haryana,Narnaul,"Shastri Nagar, Narnaul - HSPCB",14-06-2024 11:00:00,28.060249,76.113115,PM10,32,62,45
India,Haryana,Narnaul,"Shastri Nagar, Narnaul - HSPCB",14-06-2024 11:00:00,28.060249,76.113115,SO2,12,48,35
India,Haryana,Palwal,"Shyam Nagar, Palwal - HSPCB",14-06-2024 11:00:00,28.1485564,77.3320667,NO2,23,24,24
India,Haryana,Palwal,"Shyam Nagar, Palwal - HSPCB",14-06-2024 11:00:00,28.1485564,77.3320667,CO,16,29,24
India,Haryana,Panchkula,"Sector-6, Panchkula - HSPCB ",14-06-2024 11:00:00,30.7057778,76.8531805555555,PM2.5,143,307,218
India,Haryana,Panchkula,"Sector-6, Panchkula - HSPCB ",14-06-2024 11:00:00,30.7057778,76.8531805555555,OZONE,31,56,36
India,Haryana,Panipat,"Sector-18, Panipat - HSPCB",14-06-2024 11:00:00,29.432304,76.972765,PM10,103,104,104
India,Haryana,Rohtak,"MD University, Rohtak - HSPCB",14-06-2024 11:00:00,28.52123,76.37138,NO2,47,54,51
India,Haryana,Sirsa,"F-Block, Sirsa - HSPCB",14-06-2024 11:00:00,29.536400,75.015800,NO2,9,11,10
India,Haryana,Sonipat,"Murthal, Sonipat - HSPCB",14-06-2024 11:00:00,29.027200,77.062100,PM10,91,182,130
India,Haryana,Sonipat,"Murthal, Sonipat - HSPCB",14-06-2024 11:00:00,29.027200,77.062100,NO2,37,44,40
India,Haryana,Yamuna Nagar,"Gobind Pura, Yamuna Nagar - HSPCB",14-06-2024 11:00:00,30.1480566,77.2893471,NO2,11,20,16
India,Himachal Pradesh,Baddi,"HIMUDA Complex Phase-1, Baddi - HPPCB",14-06-2024 11:00:00,30.943887,76.801991,CO,11,44,32
India,Jharkhand,Dhanbad,"Kalakusuma, Dhanbad - DMC",14-06-2024 11:00:00,23.811548,86.481238,OZONE,NA,NA,NA
India,Karnataka,Bagalkot,"Vidayagiri, Bagalkot - KSPCB",14-06-2024 11:00:00,16.172806,75.659694,NH3,1,2,1
India,Karnataka,Bagalkot,"Vidayagiri, Bagalkot - KSPCB",14-06-2024 11:00:00,16.172806,75.659694,SO2,NA,NA,NA
India,Karnataka,Bagalkot,"Vidayagiri, Bagalkot - KSPCB",14-06-2024 11:00:00,16.172806,75.659694,CO,24,56,39
India,Karnataka,Bagalkot,"Vidayagiri, Bagalkot - KSPCB",14-06-2024 11:00:00,16.172806,75.659694,OZONE,21,26,25
India,Karnataka,Belgaum,"Ramteerth Nagar, Belgaum - KSPCB",14-06-2024 11:00:00,15.888653,74.541751,PM2.5,7,18,12
India,Karnataka,Belgaum,"Ramteerth Nagar, Belgaum - KSPCB",14-06-2024 11:00:00,15.888653,74.541751,CO,35,44,40
India,Karnataka,Belgaum,"Ramteerth Nagar, Belgaum - KSPCB",14-06-2024 11:00:00,15.888653,74.541751,OZONE,19,20,19
India,Karnataka,Bengaluru,"Bapuji Nagar, Bengaluru - KSPCB",14-06-2024 11:00:00,12.951913,77.539784,OZONE,22,30,25
India,Karnataka,Bengaluru,"Hebbal, Bengaluru - KSPCB",14-06-2024 11:00:00,13.029152,77.585901,OZONE,4,15,8
India,Karnataka,Bengaluru,"Hombegowda Nagar, Bengaluru - KSPCB",14-06-2024 11:00:00,12.938539,77.590100,PM2.5,10,21,16
India,Karnataka,Bengaluru,"Hombegowda Nagar, Bengaluru - KSPCB",14-06-2024 11:00:00,12.938539,77.590100,PM10,14,32,24
India,Karnataka,Bengaluru,"Hombegowda Nagar, Bengaluru - KSPCB",14-06-2024 11:00:00,12.938539,77.590100,NH3,1,1,1
India,Karnataka,Bengaluru,"Hombegowda Nagar, Bengaluru - KSPCB",14-06-2024 11:00:00,12.938539,77.590100,OZONE,1,28,13
India,Karnataka,Bengaluru,"Jayanagar 5th Block, Bengaluru - KSPCB",14-06-2024 11:00:00,12.920984,77.584908,PM10,12,40,26
India,Karnataka,Bengaluru,"Jayanagar 5th Block, Bengaluru - KSPCB",14-06-2024 11:00:00,12.920984,77.584908,CO,16,22,16
India,Karnataka,Bengaluru,"Jigani, Bengaluru - KSPCB",14-06-2024 11:00:00,12.7816279,77.6299145,PM10,NA,NA,NA
India,Karnataka,Bengaluru,"Jigani, Bengaluru - KSPCB",14-06-2024 11:00:00,12.7816279,77.6299145,NH3,NA,NA,NA
India,Karnataka,Bengaluru,"Kasturi Nagar, Bengaluru - KSPCB",14-06-2024 11:00:00,13.003872,77.664217,PM2.5,31,41,36
India,Karnataka,Bengaluru,"RVCE-Mailasandra, Bengaluru - KSPCB",14-06-2024 11:00:00,12.921418,77.502466,PM2.5,3,26,17
India,Karnataka,Bengaluru,"RVCE-Mailasandra, Bengaluru - KSPCB",14-06-2024 11:00:00,12.921418,77.502466,NO2,16,17,17
India,Karnataka,Bengaluru,"Silk Board, Bengaluru - KSPCB",14-06-2024 11:00:00,12.917348,77.622813,PM2.5,2,48,27
India,Karnataka,Bidar,"Naubad, Bidar - KSPCB",14-06-2024 11:00:00,17.930306,77.482194,OZONE,26,26,26
India,Karnataka,Chikkaballapur,"Chikkaballapur Rural, Chikkaballapur - KSPCB",14-06-2024 11:00:00,13.428828,77.731418,NO2,4,9,7
India,Karnataka,Chikkaballapur,"Chikkaballapur Rural, Chikkaballapur - KSPCB",14-06-2024 11:00:00,13.428828,77.731418,SO2,12,22,16
India,Karnataka,Dharwad,"Kalabhavan, Dharwad - KSPCB",14-06-2024 11:00:00,15.459706,75.008381,NO2,5,16,13
India,Karnataka,Dharwad,"Kalabhavan, Dharwad - KSPCB",14-06-2024 11:00:00,15.459706,75.008381,NH3,2,3,2
India,Karnataka,Gadag,"Panchal Nagar, Gadag - KSPCB",14-06-2024 11:00:00,15.411456,75.638133,PM2.5,2,15,7
India,Karnataka,Hassan,"B.Katihalli, Hassan - KSPCB",14-06-2024 11:00:00,13.008556,76.125258,PM2.5,15,51,28
India,Karnataka,Hubballi,"Lingaraj Nagar, Hubballi - KSPCB",14-06-2024 11:00:00,15.3714823,75.1160168,CO,2,44,22
India,Karnataka,Kalaburagi,"Lal Bahadur Shastri Nagar, Kalaburagi - KSPCB",14-06-2024 11:00:00,17.321993,76.822628,PM2.5,6,52,22
India,Karnataka,Kalaburagi,"Lal Bahadur Shastri Nagar, Kalaburagi - KSPCB",14-06-2024 11:00:00,17.321993,76.822628,PM10,7,64,26
India,Karnataka,Kalaburagi,"Lal Bahadur Shastri Nagar, Kalaburagi - KSPCB",14-06-2024 11:00:00,17.321993,76.822628,NO2,10,12,12
India,Karnataka,Kalaburagi,"Mahatma Basaveswar Colony, Kalaburgi - KSPCB",14-06-2024 11:00:00,17.336318,76.847397,PM2.5,6,34,15
India,Karnataka,Kalaburagi,"Mahatma Basaveswar Colony, Kalaburgi - KSPCB",14-06-2024 11:00:00,17.336318,76.847397,NO2,8,15,9
India,Karnataka,Koppal,"Diwator Nagar, Koppal - KSPCB",14-06-2024 11:00:00,15.347630,76.181767,PM2.5,NA,NA,NA
India,Karnataka,Koppal,"Diwator Nagar, Koppal - KSPCB",14-06-2024 11:00:00,15.347630,76.181767,CO,NA,NA,NA
India,Karnataka,Koppal,"Diwator Nagar, Koppal - KSPCB",14-06-2024 11:00:00,15.347630,76.181767,OZONE,NA,NA,NA
India,Karnataka,Madikeri,"Stuart Hill, Madikeri - KSPCB",14-06-2024 11:00:00,12.415911,75.735050,CO,7,68,27
India,Karnataka,Mangalore,"Kadri, Mangalore - KSPCB",14-06-2024 11:00:00,12.889250,74.853000,PM10,41,81,60
India,Karnataka,Mangalore,"Kadri, Mangalore - KSPCB",14-06-2024 11:00:00,12.889250,74.853000,OZONE,31,32,31
India,Karnataka,Raichur,"Haji Colony, Raichur - KSPCB",14-06-2024 11:00:00,16.208139,77.348417,OZONE,3,4,3
India,Karnataka,Ramanagara,"Vijay Nagar, Ramanagara - KSPCB",14-06-2024 11:00:00,12.733409,77.298051,CO,6,26,16
India,Karnataka,Shivamogga,"Vinoba Nagara, Shivamogga - KSPCB",14-06-2024 11:00:00,13.940000,75.555917,PM10,30,57,44
India,Karnataka,Tumakuru,"Thimmalapura, Tumakuru - KSPCB",14-06-2024 11:00:00,13.377516,77.099072,PM2.5,16,33,24
India,Karnataka,Udupi,"Brahmagiri, Udupi - KSPCB",14-06-2024 11:00:00,13.34194444,74.74694444,PM2.5,6,32,13
India,Karnataka,Udupi,"Brahmagiri, Udupi - KSPCB",14-06-2024 11:00:00,13.34194444,74.74694444,SO2,17,20,18
India,Karnataka,Yadgir,"Collector Office, Yadgir - KSPCB",14-06-2024 11:00:00,16.7602,77.1428,NO2,4,14,9
India,Karnataka,Yadgir,"Collector Office, Yadgir - KSPCB",14-06-2024 11:00:00,16.7602,77.1428,NH3,1,3,2
India,Kerala,Eloor,"Udyogamandal, Eloor - Kerala PCB",14-06-2024 11:00:00,10.073232,76.302765,SO2,4,50,12
India,Kerala,Eloor,"Udyogamandal, Eloor - Kerala PCB",14-06-2024 11:00:00,10.073232,76.302765,CO,10,77,25
India,Kerala,Kollam,"Polayathode, Kollam - Kerala PCB",14-06-2024 11:00:00,8.8787,76.6073,PM2.5,NA,NA,NA
India,Kerala,Kollam,"Polayathode, Kollam - Kerala PCB",14-06-2024 11:00:00,8.8787,76.6073,CO,NA,NA,NA
India,Kerala,Thiruvananthapuram,"Kariavattom, Thiruvananthapuram - Kerala PCB",14-06-2024 11:00:00,8.563700,76.886500,PM2.5,34,38,36
India,Kerala,Thiruvananthapuram,"Plammoodu, Thiruvananthapuram - Kerala PCB",14-06-2024 11:00:00,8.5149093,76.9435879,NH3,1,1,1
India,Kerala,Thiruvananthapuram,"Plammoodu, Thiruvananthapuram - Kerala PCB",14-06-2024 11:00:00,8.5149093,76.9435879,CO,15,40,27
India,Kerala,Thrissur,"Corporation Ground, Thrissur - Kerala PCB",14-06-2024 11:00:00,10.532400,76.215900,OZONE,28,31,29
India,Madhya Pradesh,Bhopal,"Idgah Hills, Bhopal - MPPCB",14-06-2024 11:00:00,23.264759,77.381568,OZONE,26,74,38
India,Madhya Pradesh,Bhopal,"T T Nagar, Bhopal - MPPCB",14-06-2024 11:00:00,23.233584,77.400574,PM2.5,21,39,32
India,Madhya Pradesh,Bhopal,"T T Nagar, Bhopal - MPPCB",14-06-2024 11:00:00,23.233584,77.400574,NO2,19,38,26
India,Madhya Pradesh,Gwalior,"City Center, Gwalior - MPPCB",14-06-2024 11:00:00,26.203442,78.193251,NH3,2,3,2
India,Madhya Pradesh,Gwalior,"City Center, Gwalior - MPPCB",14-06-2024 11:00:00,26.203442,78.193251,CO,24,50,34
India,Madhya Pradesh,Gwalior,"Deen Dayal Nagar, Gwalior - MPPCB",14-06-2024 11:00:00,26.259242,78.216432,SO2,13,18,15
India,Madhya Pradesh,Gwalior,"Deen Dayal Nagar, Gwalior - MPPCB",14-06-2024 11:00:00,26.259242,78.216432,OZONE,64,135,82
India,Madhya Pradesh,Gwalior,"Maharaj Bada, Gwalior - MPPCB",14-06-2024 11:00:00,26.200388,78.147714,NO2,11,44,22
India,Madhya Pradesh,Gwalior,"Maharaj Bada, Gwalior - MPPCB",14-06-2024 11:00:00,26.200388,78.147714,SO2,16,29,21
India,Madhya Pradesh,Gwalior,"Phool Bagh, Gwalior - Mondelez Ind. Food",14-06-2024 11:00:00,26.210536,78.171,NO2,4,5,4
India,Madhya Pradesh,Gwalior,"Phool Bagh, Gwalior - Mondelez Ind. Food",14-06-2024 11:00:00,26.210536,78.171,CO,75,92,79
India,Madhya Pradesh,Indore,"Chhoti Gwaltoli, Indore - MPPCB",14-06-2024 11:00:00,22.4310,75.5213,NO2,33,77,46
India,Madhya Pradesh,Indore,"Residency Area, Indore - IMC",14-06-2024 11:00:00,22.7084,75.8815,CO,8,12,11
India,Madhya Pradesh,Jabalpur,"Govindh Bhavan Colony, Jabalpur - JMC",14-06-2024 11:00:00,23.163174,79.973061,CO,14,24,17
India,Madhya Pradesh,Jabalpur,"Marhatal, Jabalpur - MPPCB",14-06-2024 11:00:00,23.168606,79.932247,PM2.5,29,142,61
India,Madhya Pradesh,Jabalpur,"Marhatal, Jabalpur - MPPCB",14-06-2024 11:00:00,23.168606,79.932247,CO,32,80,39
India,Madhya Pradesh,Jabalpur,"Suhagi, Jabalpur - JMC",14-06-2024 11:00:00,23.218135,79.957770,NO2,39,42,41
India,Madhya Pradesh,Jabalpur,"Suhagi, Jabalpur - JMC",14-06-2024 11:00:00,23.218135,79.957770,NH3,2,2,2
India,Madhya Pradesh,Katni,"Gole Bazar, Katni - MPPCB",14-06-2024 11:00:00,23.50016,80.23284,PM2.5,22,62,35
India,Madhya Pradesh,Katni,"Gole Bazar, Katni - MPPCB",14-06-2024 11:00:00,23.50016,80.23284,SO2,9,54,23
India,Madhya Pradesh,Mandideep,"Sector-D Industrial Area, Mandideep - MPPCB",14-06-2024 11:00:00,23.108440,77.511428,NH3,4,6,5
India,Madhya Pradesh,Pithampur,"Sector-2 Industrial Area, Pithampur - MPPCB",14-06-2024 11:00:00,22.624758,75.675238,PM10,62,106,82
