country,state,city,station,last_update,latitude,longitude,pollutant_id,pollutant_min,pollutant_max,pollutant_avg
India,Andhra_Pradesh,Amaravati,"Secretariat, Amaravati - APPCB",24-08-2024 07:00:00,16.5150833,80.5181667,NO2,34,60,40
India,Andhra_Pradesh,Amaravati,"Secretariat, Amaravati - APPCB",24-08-2024 07:00:00,16.5150833,80.5181667,CO,26,65,46
India,Andhra_Pradesh,Anantapur,"Gulzarpet, Anantapur - APPCB",24-08-2024 07:00:00,14.675886,77.593027,PM2.5,21,68,32
India,Andhra_Pradesh,Anantapur,"Gulzarpet, Anantapur - APPCB",24-08-2024 07:00:00,14.675886,77.593027,PM10,41,107,56
India,Andhra_Pradesh,Anantapur,"Gulzarpet, Anantapur - APPCB",24-08-2024 07:00:00,14.675886,77.593027,CO,18,72,21
India,Andhra_Pradesh,Anantapur,"Gulzarpet, Anantapur - APPCB",24-08-2024 07:00:00,14.675886,77.593027,OZONE,5,15,5
India,Andhra_Pradesh,Chittoor,"Gangineni Cheruvu, Chittoor - APPCB",24-08-2024 07:00:00,13.204880,79.097889,PM10,47,67,57
India,Andhra_Pradesh,Kadapa,"Yerramukkapalli, Kadapa - APPCB",24-08-2024 07:00:00,14.465052,78.824187,NO2,NA,NA,NA
India,Andhra_Pradesh,Rajamahendravaram,"Anand Kala Kshetram, Rajamahendravaram - APPCB",24-08-2024 07:00:00,16.9872867,81.7363176,OZONE,6,15,12
India,Andhra_Pradesh,Tirupati,"Tirumala, Tirupati - APPCB",24-08-2024 07:00:00,13.67,79.35,PM2.5,12,38,22
India,Andhra_Pradesh,Tirupati,"Vaikuntapuram, Tirupati - APPCB",24-08-2024 07:00:00,13.615387,79.409230,SO2,5,6,5
India,Andhra_Pradesh,Vijayawada,"HB Colony, Vijayawada - APPCB",24-08-2024 07:00:00,16.536107,80.594233,OZONE,10,26,20
India,Andhra_Pradesh,Vijayawada,"Kanuru, Vijayawada - APPCB",24-08-2024 07:00:00,16.486692,80.699436,NO2,13,13,13
India,Andhra_Pradesh,Vijayawada,"Rajiv Gandhi Park, Vijayawada - APPCB",24-08-2024 07:00:00,16.509717,80.612222,OZONE,25,51,34
India,Assam,Guwahati,"IITG, Guwahati - PCBA",24-08-2024 07:00:00,26.2028636,91.70046436,PM10,29,66,42
India,Assam,Guwahati,"IITG, Guwahati - PCBA",24-08-2024 07:00:00,26.2028636,91.70046436,NO2,1,4,1
India,Assam,Guwahati,"IITG, Guwahati - PCBA",24-08-2024 07:00:00,26.2028636,91.70046436,OZONE,2,36,3
India,Assam,Guwahati,"LGBI Airport, Guwahati - PCBA",24-08-2024 07:00:00,26.10887,91.589544,SO2,3,14,9
India,Assam,Guwahati,"LGBI Airport, Guwahati - PCBA",24-08-2024 07:00:00,26.10887,91.589544,CO,38,58,49
India,Assam,Guwahati,"Pan Bazaar, Guwahati - PCBA",24-08-2024 07:00:00,26.187500,91.744194,CO,8,42,29
India,Assam,Guwahati,"Railway Colony, Guwahati - PCBA",24-08-2024 07:00:00,26.181742,91.78063,OZONE,3,4,3
India,Assam,Nagaon,"Christianpatty, Nagaon - PCBA",24-08-2024 07:00:00,26.349082,92.68449,CO,36,98,46
India,Assam,Nalbari,"Bata Chowk, Nalbari - PCBA",24-08-2024 07:00:00,26.446912,91.439057,OZONE,10,32,15
India,Assam,Silchar,"Tarapur, Silchar - PCBA",24-08-2024 07:00:00,24.82827,92.79525,NH3,1,1,1
India,Bihar,Araria,"Kharahiya Basti, Araria - BSPCB",24-08-2024 07:00:00,26.146529,87.454184,PM2.5,47,321,97
India,Bihar,Begusarai,"Lohiyanagar, Begusarai - BSPCB (Formerly known as DRCC Anandpur)",24-08-2024 07:00:00,25.42742023,86.13886079,PM10,5,210,51
India,Bihar,Begusarai,"Lohiyanagar, Begusarai - BSPCB (Formerly known as DRCC Anandpur)",24-08-2024 07:00:00,25.42742023,86.13886079,NO2,12,34,23
India,Bihar,Begusarai,"Lohiyanagar, Begusarai - BSPCB (Formerly known as DRCC Anandpur)",24-08-2024 07:00:00,25.42742023,86.13886079,SO2,7,21,11
India,Bihar,Bettiah,"Kamalnath Nagar, Bettiah - BSPCB",24-08-2024 07:00:00,26.80365,84.51954,NO2,25,31,28
India,Bihar,Bettiah,"Kamalnath Nagar, Bettiah - BSPCB",24-08-2024 07:00:00,26.80365,84.51954,SO2,8,20,17
India,Bihar,Bhagalpur,"DM Office_Kachari Chowk, Bhagalpur - BSPCB",24-08-2024 07:00:00,25.251013,86.989001,PM2.5,NA,NA,NA
India,Bihar,Bhagalpur,"DM Office_Kachari Chowk, Bhagalpur - BSPCB",24-08-2024 07:00:00,25.251013,86.989001,PM10,NA,NA,NA
India,Bihar,Bhagalpur,"DM Office_Kachari Chowk, Bhagalpur - BSPCB",24-08-2024 07:00:00,25.251013,86.989001,SO2,9,72,36
India,Bihar,Bihar Sharif,"D M Colony, Bihar Sharif - BSPCB",24-08-2024 07:00:00,25.204762,85.514960,PM2.5,NA,NA,NA
India,Bihar,Bihar Sharif,"D M Colony, Bihar Sharif - BSPCB",24-08-2024 07:00:00,25.204762,85.514960,PM10,1,35,14
India,Bihar,Bihar Sharif,"D M Colony, Bihar Sharif - BSPCB",24-08-2024 07:00:00,25.204762,85.514960,NH3,15,23,21
India,Bihar,Buxar,"Charitra Van, Buxar - BSPCB (Formerly known as Central Jail)",24-08-2024 07:00:00,25.567520,83.966379,NH3,1,1,1
India,Bihar,Gaya,"Kareemganj, Gaya - BSPCB",24-08-2024 07:00:00,24.792403,84.992416,PM10,NA,NA,NA
India,Bihar,Gaya,"SFTI Kusdihra, Gaya - BSPCB",24-08-2024 07:00:00,24.762518,84.982348,PM2.5,5,95,34
India,Bihar,Hajipur,"Industrial Area, Hajipur - BSPCB",24-08-2024 07:00:00,25.697189,85.245900,SO2,5,7,6
India,Bihar,Hajipur,"Industrial Area, Hajipur - BSPCB",24-08-2024 07:00:00,25.697189,85.245900,CO,9,22,18
India,Bihar,Katihar,"Mirchaibari, Katihar - BSPCB",24-08-2024 07:00:00,25.560083,87.553265,PM2.5,NA,NA,NA
India,Bihar,Katihar,"Mirchaibari, Katihar - BSPCB",24-08-2024 07:00:00,25.560083,87.553265,SO2,3,18,14
India,Bihar,Kishanganj,"SDM Office_Khagra, Kishanganj - BSPCB",24-08-2024 07:00:00,26.0881305,87.93840336,PM10,NA,NA,NA
India,Bihar,Kishanganj,"SDM Office_Khagra, Kishanganj - BSPCB",24-08-2024 07:00:00,26.0881305,87.93840336,OZONE,6,30,7
India,Bihar,Motihari,"Gandak Colony, Motihari - BSPCB",24-08-2024 07:00:00,26.63086,84.90051,NH3,1,11,4
India,Bihar,Motihari,"Gandak Colony, Motihari - BSPCB",24-08-2024 07:00:00,26.63086,84.90051,CO,33,75,44
India,Bihar,Munger,"Town Hall, Munger - BSPCB",24-08-2024 07:00:00,25.376776,86.471523,PM10,NA,NA,NA
India,Bihar,Muzaffarpur,"Buddha Colony, Muzaffarpur - BSPCB",24-08-2024 07:00:00,26.11442,85.39813,PM10,21,48,34
India,Bihar,Muzaffarpur,"Buddha Colony, Muzaffarpur - BSPCB",24-08-2024 07:00:00,26.11442,85.39813,NH3,7,12,9
India,Bihar,Muzaffarpur,"Buddha Colony, Muzaffarpur - BSPCB",24-08-2024 07:00:00,26.11442,85.39813,OZONE,17,46,33
India,Bihar,Muzaffarpur,"MIT-Daudpur Kothi, Muzaffarpur - BSPCB",24-08-2024 07:00:00,26.1403345,85.3650192,CO,38,54,43
India,Bihar,Patna,"DRM Office Danapur, Patna - BSPCB",24-08-2024 07:00:00,25.586562,85.043586,PM10,14,32,23
India,Bihar,Patna,"DRM Office Danapur, Patna - BSPCB",24-08-2024 07:00:00,25.586562,85.043586,NH3,4,5,5
India,Bihar,Patna,"Govt. High School Shikarpur, Patna - BSPCB",24-08-2024 07:00:00,25.592539,85.227158,OZONE,34,39,36
India,Bihar,Patna,"IGSC Planetarium Complex, Patna - BSPCB",24-08-2024 07:00:00,25.610369,85.132568,PM2.5,NA,NA,NA
India,Bihar,Patna,"IGSC Planetarium Complex, Patna - BSPCB",24-08-2024 07:00:00,25.610369,85.132568,OZONE,NA,NA,NA
India,Bihar,Patna,"Muradpur, Patna - BSPCB",24-08-2024 07:00:00,25.619651,85.147382,CO,52,109,75
India,Bihar,Patna,"Rajbansi Nagar, Patna - BSPCB",24-08-2024 07:00:00,25.599486,85.113666,PM2.5,14,24,18
India,Bihar,Patna,"Rajbansi Nagar, Patna - BSPCB",24-08-2024 07:00:00,25.599486,85.113666,SO2,2,27,7
India,Bihar,Patna,"Samanpura, Patna - BSPCB",24-08-2024 07:00:00,25.596727,85.085624,CO,28,44,35
India,Bihar,Rajgir,"Dangi Tola, Rajgir - BSPCB",24-08-2024 07:00:00,25.03280,85.41948,SO2,4,4,4
India,Bihar,Saharsa,"Police Line, Saharsa - BSPCB",24-08-2024 07:00:00,25.892357,86.590325,PM2.5,NA,NA,NA
India,Bihar,Saharsa,"Police Line, Saharsa - BSPCB",24-08-2024 07:00:00,25.892357,86.590325,SO2,17,20,18
India,Bihar,Saharsa,"Police Line, Saharsa - BSPCB",24-08-2024 07:00:00,25.892357,86.590325,OZONE,8,88,29
India,Bihar,Samastipur,"DM Office_Kasipur, Samastipur - BSPCB",24-08-2024 07:00:00,25.859655,85.77944,NH3,1,4,3
India,Bihar,Sasaram,"Dada Peer, Sasaram - BSPCB",24-08-2024 07:00:00,24.952822,84.002396,PM10,3,16,7
India,Bihar,Sasaram,"Dada Peer, Sasaram - BSPCB",24-08-2024 07:00:00,24.952822,84.002396,SO2,6,9,7
India,Bihar,Sasaram,"Dada Peer, Sasaram - BSPCB",24-08-2024 07:00:00,24.952822,84.002396,CO,30,50,36
India,Bihar,Siwan,"Chitragupta Nagar, Siwan - BSPCB",24-08-2024 07:00:00,26.2271665,84.3570427,NO2,3,13,8
India,Chandigarh,Chandigarh,"Sector 22, Chandigarh - CPCC",24-08-2024 07:00:00,30.735567,76.775714,PM2.5,3,100,42
India,Chandigarh,Chandigarh,"Sector 22, Chandigarh - CPCC",24-08-2024 07:00:00,30.735567,76.775714,OZONE,5,47,19
India,Chandigarh,Chandigarh,"Sector-25, Chandigarh - CPCC",24-08-2024 07:00:00,30.751462,76.762879,PM2.5,NA,NA,NA
India,Chandigarh,Chandigarh,"Sector-25, Chandigarh - CPCC",24-08-2024 07:00:00,30.751462,76.762879,PM10,NA,NA,NA
India,Chandigarh,Chandigarh,"Sector-25, Chandigarh - CPCC",24-08-2024 07:00:00,30.751462,76.762879,NH3,NA,NA,NA
India,Chandigarh,Chandigarh,"Sector-53, Chandigarh - CPCC",24-08-2024 07:00:00,30.719859,76.738637,NO2,10,51,22
India,Chhattisgarh,Bhilai,"32Bungalows, Bhilai - CECB",24-08-2024 07:00:00,21.194815,81.314770,NH3,7,8,8
India,Chhattisgarh,Bhilai,"Civic Center, Bhilai - Bhilai Steel Plant",24-08-2024 07:00:00,21.185571,81.343175,OZONE,13,23,15
India,Chhattisgarh,Bhilai,"Hathkhoj, Bhilai - CECB",24-08-2024 07:00:00,21.224231,81.408350,PM2.5,14,46,32
India,Chhattisgarh,Bhilai,"Hathkhoj, Bhilai - CECB",24-08-2024 07:00:00,21.224231,81.408350,NO2,5,21,12
India,Chhattisgarh,Bhilai,"Hathkhoj, Bhilai - CECB",24-08-2024 07:00:00,21.224231,81.408350,SO2,7,20,11
India,Chhattisgarh,Bhilai,"Hathkhoj, Bhilai - CECB",24-08-2024 07:00:00,21.224231,81.408350,CO,4,16,6
India,Chhattisgarh,Bhilai,"Hathkhoj, Bhilai - CECB",24-08-2024 07:00:00,21.224231,81.408350,OZONE,11,28,14
India,Chhattisgarh,Bilaspur,"Mangala, Bilaspur - NTPC",24-08-2024 07:00:00,22.08815,82.13737,PM10,11,36,20
India,Chhattisgarh,Bilaspur,"Mangala, Bilaspur - NTPC",24-08-2024 07:00:00,22.08815,82.13737,SO2,6,19,13
India,Chhattisgarh,Chhal,"Nawapara SECL Colony, Chhal - CECB",24-08-2024 07:00:00,22.118125,83.140608,CO,18,37,26
India,Chhattisgarh,Korba,"Rampur, Korba - CECB",24-08-2024 07:00:00,22.368195,82.746431,PM2.5,9,42,26
India,Chhattisgarh,Raipur,"Bhatagaon New ISBT, Raipur - CECB",24-08-2024 07:00:00,21.219665,81.630094,PM10,4,45,19
India,Chhattisgarh,Raipur,"Bhatagaon New ISBT, Raipur - CECB",24-08-2024 07:00:00,21.219665,81.630094,NH3,2,2,2
India,Chhattisgarh,Raipur,"Siltara Phase-II, Raipur - CECB",24-08-2024 07:00:00,21.371751,81.664929,CO,26,42,30
India,Delhi,Delhi,"Alipur, Delhi - DPCC",24-08-2024 07:00:00,28.815329,77.153010,PM2.5,10,103,43
India,Delhi,Delhi,"Anand Vihar, Delhi - DPCC",24-08-2024 07:00:00,28.647622,77.3158090,NO2,45,247,128
India,Delhi,Delhi,"Anand Vihar, Delhi - DPCC",24-08-2024 07:00:00,28.647622,77.3158090,SO2,1,19,7
India,Delhi,Delhi,"Anand Vihar, Delhi - DPCC",24-08-2024 07:00:00,28.647622,77.3158090,OZONE,46,95,73
India,Delhi,Delhi,"Aya Nagar, Delhi - IMD",24-08-2024 07:00:00,28.4706914,77.1099364,PM2.5,14,110,53
India,Delhi,Delhi,"Burari Crossing, Delhi - IMD",24-08-2024 07:00:00,28.7256504,77.2011573,PM10,14,109,70
India,Delhi,Delhi,"Chandni Chowk, Delhi - IITM",24-08-2024 07:00:00,28.656756,77.227234,SO2,11,66,39
India,Delhi,Delhi,"DTU, Delhi - CPCB",24-08-2024 07:00:00,28.7500499,77.1112615,PM10,NA,NA,NA
India,Delhi,Delhi,"DTU, Delhi - CPCB",24-08-2024 07:00:00,28.7500499,77.1112615,NO2,49,61,54
India,Delhi,Delhi,"DTU, Delhi - CPCB",24-08-2024 07:00:00,28.7500499,77.1112615,OZONE,15,43,22
India,Delhi,Delhi,"Dr. Karni Singh Shooting Range, Delhi - DPCC",24-08-2024 07:00:00,28.498571,77.264840,NH3,5,8,6
India,Delhi,Delhi,"Dr. Karni Singh Shooting Range, Delhi - DPCC",24-08-2024 07:00:00,28.498571,77.264840,SO2,5,11,8
India,Delhi,Delhi,"Dwarka-Sector 8, Delhi - DPCC ",24-08-2024 07:00:00,28.5710274,77.0719006,SO2,10,17,12
India,Delhi,Delhi,"IGI Airport (T3), Delhi - IMD",24-08-2024 07:00:00,28.5627763,77.1180053,OZONE,7,25,8
India,Delhi,Delhi,"ITO, Delhi - CPCB",24-08-2024 07:00:00,28.628624,77.241060,PM10,NA,NA,NA
India,Delhi,Delhi,"ITO, Delhi - CPCB",24-08-2024 07:00:00,28.628624,77.241060,OZONE,12,17,13
India,Delhi,Delhi,"Jahangirpuri, Delhi - DPCC",24-08-2024 07:00:00,28.732820,77.170633,NO2,3,18,9
India,Delhi,Delhi,"Jahangirpuri, Delhi - DPCC",24-08-2024 07:00:00,28.732820,77.170633,SO2,6,20,12
India,Delhi,Delhi,"Jahangirpuri, Delhi - DPCC",24-08-2024 07:00:00,28.732820,77.170633,CO,39,96,63
India,Delhi,Delhi,"Jawaharlal Nehru Stadium, Delhi - DPCC",24-08-2024 07:00:00,28.580280,77.233829,PM2.5,5,60,34
India,Delhi,Delhi,"Lodhi Road, Delhi - IMD",24-08-2024 07:00:00,28.5918245,77.2273074,CO,40,55,49
India,Delhi,Delhi,"Mundka, Delhi - DPCC",24-08-2024 07:00:00,28.684678,77.076574,NO2,11,42,30
India,Delhi,Delhi,"Mundka, Delhi - DPCC",24-08-2024 07:00:00,28.684678,77.076574,CO,34,78,62
India,Delhi,Delhi,"NSIT Dwarka, Delhi - CPCB",24-08-2024 07:00:00,28.60909,77.0325413,PM2.5,26,99,60
India,Delhi,Delhi,"NSIT Dwarka, Delhi - CPCB",24-08-2024 07:00:00,28.60909,77.0325413,PM10,39,109,84
India,Delhi,Delhi,"NSIT Dwarka, Delhi - CPCB",24-08-2024 07:00:00,28.60909,77.0325413,NH3,8,9,9
India,Delhi,Delhi,"NSIT Dwarka, Delhi - CPCB",24-08-2024 07:00:00,28.60909,77.0325413,CO,30,77,41
India,Delhi,Delhi,"Najafgarh, Delhi - DPCC",24-08-2024 07:00:00,28.570173,76.933762,PM2.5,5,77,42
India,Delhi,Delhi,"Narela, Delhi - DPCC",24-08-2024 07:00:00,28.822836,77.101981,PM10,19,137,84
India,Delhi,Delhi,"Nehru Nagar, Delhi - DPCC",24-08-2024 07:00:00,28.567890,77.250515,NO2,19,66,38
India,Delhi,Delhi,"Nehru Nagar, Delhi - DPCC",24-08-2024 07:00:00,28.567890,77.250515,CO,55,87,69
India,Delhi,Delhi,"North Campus, DU, Delhi - IMD",24-08-2024 07:00:00,28.6573814,77.1585447,PM10,14,122,76
India,Delhi,Delhi,"North Campus, DU, Delhi - IMD",24-08-2024 07:00:00,28.6573814,77.1585447,NO2,17,26,21
India,Delhi,Delhi,"Okhla Phase-2, Delhi - DPCC",24-08-2024 07:00:00,28.530785,77.271255,PM10,47,141,102
India,Delhi,Delhi,"Okhla Phase-2, Delhi - DPCC",24-08-2024 07:00:00,28.530785,77.271255,NH3,10,25,13
India,Delhi,Delhi,"Patparganj, Delhi - DPCC",24-08-2024 07:00:00,28.623763,77.287209,PM2.5,23,200,70
India,Delhi,Delhi,"Patparganj, Delhi - DPCC",24-08-2024 07:00:00,28.623763,77.287209,CO,22,84,47
India,Delhi,Delhi,"Punjabi Bagh, Delhi - DPCC",24-08-2024 07:00:00,28.674045,77.131023,PM2.5,57,133,91
India,Delhi,Delhi,"Punjabi Bagh, Delhi - DPCC",24-08-2024 07:00:00,28.674045,77.131023,PM10,79,159,122
India,Delhi,Delhi,"Punjabi Bagh, Delhi - DPCC",24-08-2024 07:00:00,28.674045,77.131023,NO2,19,57,35
India,Delhi,Delhi,"Punjabi Bagh, Delhi - DPCC",24-08-2024 07:00:00,28.674045,77.131023,NH3,3,8,5
India,Delhi,Delhi,"Pusa, Delhi - DPCC",24-08-2024 07:00:00,28.639652,77.146275,CO,26,90,68
India,Delhi,Delhi,"R K Puram, Delhi - DPCC",24-08-2024 07:00:00,28.563262,77.186937,PM2.5,5,252,107
India,Delhi,Delhi,"Rohini, Delhi - DPCC",24-08-2024 07:00:00,28.732528,77.119920,PM10,24,198,95
India,Delhi,Delhi,"Rohini, Delhi - DPCC",24-08-2024 07:00:00,28.732528,77.119920,SO2,5,8,6
India,Delhi,Delhi,"Shadipur, Delhi - CPCB",24-08-2024 07:00:00,28.6514781,77.1473105,PM2.5,41,170,97
India,Delhi,Delhi,"Shadipur, Delhi - CPCB",24-08-2024 07:00:00,28.6514781,77.1473105,OZONE,18,19,19
India,Delhi,Delhi,"Sirifort, Delhi - CPCB",24-08-2024 07:00:00,28.5504249,77.2159377,PM2.5,26,112,63
India,Delhi,Delhi,"Sonia Vihar, Delhi - DPCC",24-08-2024 07:00:00,28.710508,77.249485,PM10,40,112,71
India,Delhi,Delhi,"Sonia Vihar, Delhi - DPCC",24-08-2024 07:00:00,28.710508,77.249485,OZONE,16,78,23
India,Delhi,Delhi,"Sri Aurobindo Marg, Delhi - DPCC",24-08-2024 07:00:00,28.531346,77.190156,PM2.5,10,92,52
India,Delhi,Delhi,"Sri Aurobindo Marg, Delhi - DPCC",24-08-2024 07:00:00,28.531346,77.190156,NH3,1,6,4
India,Delhi,Delhi,"Sri Aurobindo Marg, Delhi - DPCC",24-08-2024 07:00:00,28.531346,77.190156,CO,44,105,95
India,Delhi,Delhi,"Vivek Vihar, Delhi - DPCC",24-08-2024 07:00:00,28.672342,77.315260,NO2,13,78,32
India,Delhi,Delhi,"Wazirpur, Delhi - DPCC",24-08-2024 07:00:00,28.699793,77.165453,PM10,28,164,104
India,Delhi,Delhi,"Wazirpur, Delhi - DPCC",24-08-2024 07:00:00,28.699793,77.165453,NO2,29,77,53
India,Gujarat,Ahmedabad,"Maninagar, Ahmedabad - GPCB",24-08-2024 07:00:00,23.002657,72.591912,OZONE,8,29,10
India,Gujarat,Ahmedabad,"Raikhad, Ahmedabad - IITM",24-08-2024 07:00:00,23.020509,72.579261,PM10,NA,NA,NA
India,Gujarat,Ahmedabad,"Raikhad, Ahmedabad - IITM",24-08-2024 07:00:00,23.020509,72.579261,CO,42,72,52
India,Gujarat,Ahmedabad,"Rakhial, Ahmedabad - IITM",24-08-2024 07:00:00,23.016834,72.625775,OZONE,6,33,12
India,Gujarat,Ahmedabad,"SAC ISRO Satellite, Ahmedabad - IITM",24-08-2024 07:00:00,23.023389,72.515201,PM10,19,121,53
India,Gujarat,Ahmedabad,"SAC ISRO Satellite, Ahmedabad - IITM",24-08-2024 07:00:00,23.023389,72.515201,SO2,1,4,2
India,Gujarat,Ahmedabad,"SAC ISRO Satellite, Ahmedabad - IITM",24-08-2024 07:00:00,23.023389,72.515201,CO,8,46,13
India,Gujarat,Ahmedabad,"SVPI Airport Hansol, Ahmedabad - IITM",24-08-2024 07:00:00,23.076793,72.627874,PM2.5,63,230,118
India,Gujarat,Ahmedabad,"SVPI Airport Hansol, Ahmedabad - IITM",24-08-2024 07:00:00,23.076793,72.627874,NO2,14,28,24
India,Gujarat,Ahmedabad,"Sardar Vallabhbhai Patel Stadium, Ahmedabad - IITM",24-08-2024 07:00:00,23.043070,72.562968,NH3,4,5,5
India,Gujarat,Ahmedabad,"Sardar Vallabhbhai Patel Stadium, Ahmedabad - IITM",24-08-2024 07:00:00,23.043070,72.562968,SO2,10,15,12
India,Gujarat,Ankleshwar,"GIDC, Ankleshwar - GPCB",24-08-2024 07:00:00,21.613267,73.010555,PM2.5,40,92,68
India,Gujarat,Ankleshwar,"GIDC, Ankleshwar - GPCB",24-08-2024 07:00:00,21.613267,73.010555,SO2,34,39,36
India,Gujarat,Ankleshwar,"GIDC, Ankleshwar - GPCB",24-08-2024 07:00:00,21.613267,73.010555,CO,43,69,52
India,Gujarat,Ankleshwar,"GIDC, Ankleshwar - GPCB",24-08-2024 07:00:00,21.613267,73.010555,OZONE,20,26,21
India,Gujarat,Gandhinagar,"GIFT City, Gandhinagar - IITM",24-08-2024 07:00:00,23.163798,72.677768,SO2,9,18,12
India,Gujarat,Gandhinagar,"Sector-10, Gandhinagar - GPCB",24-08-2024 07:00:00,23.221714,72.654328,SO2,3,3,3
India,Gujarat,Surat,"Science Center, Surat - SMC",24-08-2024 07:00:00,21.170046,72.795405,SO2,12,16,14
India,Gujarat,Vapi,"Phase-1 GIDC, Vapi - GPCB",24-08-2024 07:00:00,20.362421,72.918013,SO2,54,55,55
India,Gujarat,Vatva,"Phase-4 GIDC, Vatva - GPCB",24-08-2024 07:00:00,22.969611,72.643500,NO2,4,26,16
India,Haryana,Bahadurgarh,"Arya Nagar, Bahadurgarh - HSPCB",24-08-2024 07:00:00,28.6701,76.9254,NH3,11,16,14
India,Haryana,Ballabgarh,"Nathu Colony, Ballabgarh - HSPCB",24-08-2024 07:00:00,28.3419248,77.319699,PM2.5,NA,NA,NA
India,Haryana,Ballabgarh,"Nathu Colony, Ballabgarh - HSPCB",24-08-2024 07:00:00,28.3419248,77.319699,PM10,NA,NA,NA
India,Haryana,Bhiwani,"H.B. Colony, Bhiwani - HSPCB",24-08-2024 07:00:00,28.806223,76.141105,CO,8,65,30
India,Haryana,Bhiwani,"H.B. Colony, Bhiwani - HSPCB",24-08-2024 07:00:00,28.806223,76.141105,OZONE,8,57,15
India,Haryana,Charkhi Dadri,"Mini Secretariat, Charkhi Dadri - HSPCB",24-08-2024 07:00:00,28.593883,76.270653,PM10,17,46,26
India,Haryana,Charkhi Dadri,"Mini Secretariat, Charkhi Dadri - HSPCB",24-08-2024 07:00:00,28.593883,76.270653,NH3,6,8,7
India,Haryana,Charkhi Dadri,"Mini Secretariat, Charkhi Dadri - HSPCB",24-08-2024 07:00:00,28.593883,76.270653,OZONE,13,17,15
India,Haryana,Dharuhera,"Municipal Corporation Office, Dharuhera -  HSPCB",24-08-2024 07:00:00,28.206800,76.799700,SO2,7,17,11
India,Haryana,Faridabad,"New Industrial Town, Faridabad - HSPCB",24-08-2024 07:00:00,28.39072,77.30059,PM2.5,38,148,76
India,Haryana,Faridabad,"New Industrial Town, Faridabad - HSPCB",24-08-2024 07:00:00,28.39072,77.30059,NH3,7,9,8
India,Haryana,Faridabad,"Sector 11, Faridabad - HSPCB",24-08-2024 07:00:00,28.376058,77.315741,PM2.5,38,168,78
India,Haryana,Faridabad,"Sector 11, Faridabad - HSPCB",24-08-2024 07:00:00,28.376058,77.315741,SO2,3,4,3
India,Haryana,Fatehabad,"Huda Sector, Fatehabad - HSPCB",24-08-2024 07:00:00,29.503664,75.467934,PM10,20,75,46
India,Haryana,Gurugram,"Sector-51, Gurugram - HSPCB",24-08-2024 07:00:00,28.4227,77.0667,PM2.5,17,340,126
India,Haryana,Gurugram,"Teri Gram, Gurugram - HSPCB",24-08-2024 07:00:00,28.4275,77.1465,CO,12,72,39
India,Haryana,Gurugram,"Teri Gram, Gurugram - HSPCB",24-08-2024 07:00:00,28.4275,77.1465,OZONE,6,64,13
India,Haryana,Gurugram,"Vikas Sadan, Gurugram - HSPCB",24-08-2024 07:00:00,28.4501238,77.0263051,CO,48,112,64
India,Haryana,Jind,"Police Lines, Jind - HSPCB",24-08-2024 07:00:00,29.307814,76.337619,CO,6,136,79
India,Haryana,Karnal,"Sector-12, Karnal - HSPCB",24-08-2024 07:00:00,29.695300,77.002700,NH3,10,13,11
India,Haryana,Kurukshetra,"Sector-7, Kurukshetra - HSPCB",24-08-2024 07:00:00,29.966942,76.875879,CO,4,30,25
India,Haryana,Narnaul,"Shastri Nagar, Narnaul - HSPCB",24-08-2024 07:00:00,28.060249,76.113115,PM10,26,84,49
India,Haryana,Narnaul,"Shastri Nagar, Narnaul - HSPCB",24-08-2024 07:00:00,28.060249,76.113115,NH3,5,15,10
India,Haryana,Palwal,"Shyam Nagar, Palwal - HSPCB",24-08-2024 07:00:00,28.1485564,77.3320667,NO2,23,24,23
India,Haryana,Palwal,"Shyam Nagar, Palwal - HSPCB",24-08-2024 07:00:00,28.1485564,77.3320667,OZONE,8,15,10
India,Haryana,Panchkula,"Sector-6, Panchkula - HSPCB ",24-08-2024 07:00:00,30.7057778,76.8531805555555,PM2.5,36,128,76
India,Haryana,Panchkula,"Sector-6, Panchkula - HSPCB ",24-08-2024 07:00:00,30.7057778,76.8531805555555,SO2,2,11,3
India,Haryana,Panchkula,"Sector-6, Panchkula - HSPCB ",24-08-2024 07:00:00,30.7057778,76.8531805555555,CO,6,18,16
India,Haryana,Panipat,"Sector-18, Panipat - HSPCB",24-08-2024 07:00:00,29.432304,76.972765,PM2.5,66,87,73
India,Haryana,Panipat,"Sector-18, Panipat - HSPCB",24-08-2024 07:00:00,29.432304,76.972765,PM10,60,72,64
India,Haryana,Panipat,"Sector-18, Panipat - HSPCB",24-08-2024 07:00:00,29.432304,76.972765,CO,24,26,25
India,Haryana,Rohtak,"MD University, Rohtak - HSPCB",24-08-2024 07:00:00,28.52123,76.37138,PM2.5,15,307,71
India,Haryana,Sonipat,"Murthal, Sonipat - HSPCB",24-08-2024 07:00:00,29.027200,77.062100,CO,24,26,25
India,Haryana,Yamuna Nagar,"Gobind Pura, Yamuna Nagar - HSPCB",24-08-2024 07:00:00,30.1480566,77.2893471,NO2,11,21,16
India,Himachal Pradesh,Baddi,"HIMUDA Complex Phase-1, Baddi - HPPCB",24-08-2024 07:00:00,30.943887,76.801991,PM10,17,426,127
India,Himachal Pradesh,Baddi,"HIMUDA Complex Phase-1, Baddi - HPPCB",24-08-2024 07:00:00,30.943887,76.801991,NH3,7,9,8
India,Jammu_and_Kashmir,Srinagar,"Rajbagh, Srinagar - JKSPCB",24-08-2024 07:00:00,34.066206,74.819820,PM10,NA,NA,NA
India,Jammu_and_Kashmir,Srinagar,"Rajbagh, Srinagar - JKSPCB",24-08-2024 07:00:00,34.066206,74.819820,NH3,NA,NA,NA
India,Jammu_and_Kashmir,Srinagar,"Rajbagh, Srinagar - JKSPCB",24-08-2024 07:00:00,34.066206,74.819820,OZONE,NA,NA,NA
India,Jharkhand,Jorapokhar,"Tata Stadium, Jorapokhar - JSPCB",24-08-2024 07:00:00,23.707909,86.414670,NO2,NA,NA,NA
India,Jharkhand,Jorapokhar,"Tata Stadium, Jorapokhar - JSPCB",24-08-2024 07:00:00,23.707909,86.414670,NH3,NA,NA,NA
India,Jharkhand,Jorapokhar,"Tata Stadium, Jorapokhar - JSPCB",24-08-2024 07:00:00,23.707909,86.414670,OZONE,NA,NA,NA
India,Karnataka,Bagalkot,"Vidayagiri, Bagalkot - KSPCB",24-08-2024 07:00:00,16.172806,75.659694,OZONE,4,10,4
India,Karnataka,Belgaum,"Ramteerth Nagar, Belgaum - KSPCB",24-08-2024 07:00:00,15.888653,74.541751,NO2,3,38,19
India,Karnataka,Belgaum,"Ramteerth Nagar, Belgaum - KSPCB",24-08-2024 07:00:00,15.888653,74.541751,CO,54,68,63
India,Karnataka,Bengaluru,"BTM Layout, Bengaluru - CPCB",24-08-2024 07:00:00,12.9135218,77.5950804,PM2.5,NA,NA,NA
India,Karnataka,Bengaluru,"BTM Layout, Bengaluru - CPCB",24-08-2024 07:00:00,12.9135218,77.5950804,PM10,NA,NA,NA
India,Karnataka,Bengaluru,"Bapuji Nagar, Bengaluru - KSPCB",24-08-2024 07:00:00,12.951913,77.539784,PM10,34,77,53
India,Karnataka,Bengaluru,"Bapuji Nagar, Bengaluru - KSPCB",24-08-2024 07:00:00,12.951913,77.539784,NO2,15,16,15
India,Karnataka,Bengaluru,"Bapuji Nagar, Bengaluru - KSPCB",24-08-2024 07:00:00,12.951913,77.539784,NH3,1,1,1
India,Karnataka,Bengaluru,"City Railway Station, Bengaluru - KSPCB",24-08-2024 07:00:00,12.9756843,77.5660749,PM10,84,116,105
India,Karnataka,Bengaluru,"Hebbal, Bengaluru - KSPCB",24-08-2024 07:00:00,13.029152,77.585901,PM10,19,83,35
India,Karnataka,Bengaluru,"Hebbal, Bengaluru - KSPCB",24-08-2024 07:00:00,13.029152,77.585901,CO,1,30,15
India,Karnataka,Bengaluru,"Jayanagar 5th Block, Bengaluru - KSPCB",24-08-2024 07:00:00,12.920984,77.584908,NH3,1,1,1
India,Karnataka,Bengaluru,"Jayanagar 5th Block, Bengaluru - KSPCB",24-08-2024 07:00:00,12.920984,77.584908,SO2,13,19,16
India,Karnataka,Bengaluru,"Jigani, Bengaluru - KSPCB",24-08-2024 07:00:00,12.7816279,77.6299145,OZONE,31,33,32
India,Karnataka,Bengaluru,"Kasturi Nagar, Bengaluru - KSPCB",24-08-2024 07:00:00,13.003872,77.664217,NH3,3,4,4
India,Karnataka,Bengaluru,"Peenya, Bengaluru - CPCB",24-08-2024 07:00:00,13.0270199,77.494094,PM2.5,NA,NA,NA
India,Karnataka,Bengaluru,"Peenya, Bengaluru - CPCB",24-08-2024 07:00:00,13.0270199,77.494094,NH3,NA,NA,NA
India,Karnataka,Bengaluru,"Sanegurava Halli, Bengaluru - KSPCB",24-08-2024 07:00:00,12.990328,77.5431385,NO2,20,30,23
India,Karnataka,Bengaluru,"Sanegurava Halli, Bengaluru - KSPCB",24-08-2024 07:00:00,12.990328,77.5431385,SO2,2,3,3
India,Karnataka,Bengaluru,"Shivapura_Peenya, Bengaluru - KSPCB",24-08-2024 07:00:00,13.0246342,77.5080115,NO2,15,16,15
India,Karnataka,Bengaluru,"Shivapura_Peenya, Bengaluru - KSPCB",24-08-2024 07:00:00,13.0246342,77.5080115,CO,13,25,20
India,Karnataka,Bengaluru,"Shivapura_Peenya, Bengaluru - KSPCB",24-08-2024 07:00:00,13.0246342,77.5080115,OZONE,32,32,32
India,Karnataka,Bengaluru,"Silk Board, Bengaluru - KSPCB",24-08-2024 07:00:00,12.917348,77.622813,NH3,1,1,1
India,Karnataka,Bengaluru,"Silk Board, Bengaluru - KSPCB",24-08-2024 07:00:00,12.917348,77.622813,CO,2,80,26
India,Karnataka,Chamarajanagar,"Urban, Chamarajanagar - KSPCB",24-08-2024 07:00:00,11.55358,76.55521,NH3,1,3,2
India,Karnataka,Chamarajanagar,"Urban, Chamarajanagar - KSPCB",24-08-2024 07:00:00,11.55358,76.55521,OZONE,15,39,26
India,Karnataka,Chikkaballapur,"Chikkaballapur Rural, Chikkaballapur - KSPCB",24-08-2024 07:00:00,13.428828,77.731418,PM10,10,52,31
India,Karnataka,Chikkaballapur,"Chikkaballapur Rural, Chikkaballapur - KSPCB",24-08-2024 07:00:00,13.428828,77.731418,NO2,11,16,13
India,Karnataka,Chikkaballapur,"Chikkaballapur Rural, Chikkaballapur - KSPCB",24-08-2024 07:00:00,13.428828,77.731418,NH3,1,1,1
India,Karnataka,Davanagere,"Devaraj Urs Badavane, Davanagere - KSPCB",24-08-2024 07:00:00,14.475800,75.905200,PM2.5,NA,NA,NA
India,Karnataka,Davanagere,"Devaraj Urs Badavane, Davanagere - KSPCB",24-08-2024 07:00:00,14.475800,75.905200,NO2,NA,NA,NA
India,Karnataka,Davanagere,"Devaraj Urs Badavane, Davanagere - KSPCB",24-08-2024 07:00:00,14.475800,75.905200,SO2,NA,NA,NA
India,Karnataka,Gadag,"Panchal Nagar, Gadag - KSPCB",24-08-2024 07:00:00,15.411456,75.638133,PM2.5,2,10,6
India,Karnataka,Gadag,"Panchal Nagar, Gadag - KSPCB",24-08-2024 07:00:00,15.411456,75.638133,SO2,16,21,18
India,Karnataka,Gadag,"Panchal Nagar, Gadag - KSPCB",24-08-2024 07:00:00,15.411456,75.638133,CO,36,39,37
India,Karnataka,Hassan,"B.Katihalli, Hassan - KSPCB",24-08-2024 07:00:00,13.008556,76.125258,PM2.5,8,45,29
India,Karnataka,Hassan,"B.Katihalli, Hassan - KSPCB",24-08-2024 07:00:00,13.008556,76.125258,NH3,1,3,1
India,Karnataka,Hassan,"B.Katihalli, Hassan - KSPCB",24-08-2024 07:00:00,13.008556,76.125258,SO2,6,30,10
India,Karnataka,Haveri,"Ashwini Nagar, Haveri - KSPCB",24-08-2024 07:00:00,14.791800,75.389600,OZONE,17,18,18
India,Karnataka,Hubballi,"Deshpande Nagar, Hubballi - KSPCB",24-08-2024 07:00:00,15.351773,75.140726,PM2.5,NA,NA,NA
India,Karnataka,Hubballi,"Lingaraj Nagar, Hubballi - KSPCB",24-08-2024 07:00:00,15.3714823,75.1160168,PM2.5,26,43,31
India,Karnataka,Hubballi,"Lingaraj Nagar, Hubballi - KSPCB",24-08-2024 07:00:00,15.3714823,75.1160168,NH3,2,3,2
India,Karnataka,Kalaburagi,"Lal Bahadur Shastri Nagar, Kalaburagi - KSPCB",24-08-2024 07:00:00,17.321993,76.822628,PM10,6,51,20
India,Karnataka,Kalaburagi,"Mahatma Basaveswar Colony, Kalaburgi - KSPCB",24-08-2024 07:00:00,17.336318,76.847397,PM2.5,3,26,18
India,Karnataka,Kalaburagi,"Mahatma Basaveswar Colony, Kalaburgi - KSPCB",24-08-2024 07:00:00,17.336318,76.847397,SO2,2,5,3
India,Karnataka,Kolar,"Tamaka Ind. Area, Kolar - KSPCB",24-08-2024 07:00:00,13.1276288,78.1570122,NH3,1,3,2
India,Karnataka,Madikeri,"Stuart Hill, Madikeri - KSPCB",24-08-2024 07:00:00,12.415911,75.735050,PM10,23,52,29
India,Karnataka,Mangalore,"Kadri, Mangalore - KSPCB",24-08-2024 07:00:00,12.889250,74.853000,PM10,18,42,28
India,Karnataka,Mangalore,"Kadri, Mangalore - KSPCB",24-08-2024 07:00:00,12.889250,74.853000,OZONE,28,34,31
India,Karnataka,Mysuru,"Hebbal 1st Stage, Mysuru - KSPCB",24-08-2024 07:00:00,12.21041,76.37376,NH3,1,3,2
India,Karnataka,Raichur,"Haji Colony, Raichur - KSPCB",24-08-2024 07:00:00,16.208139,77.348417,PM10,14,105,41
India,Karnataka,Ramanagara,"Vijay Nagar, Ramanagara - KSPCB",24-08-2024 07:00:00,12.733409,77.298051,PM2.5,5,30,12
India,Karnataka,Ramanagara,"Vijay Nagar, Ramanagara - KSPCB",24-08-2024 07:00:00,12.733409,77.298051,OZONE,27,31,29
India,Karnataka,Shivamogga,"Vinoba Nagara, Shivamogga - KSPCB",24-08-2024 07:00:00,13.940000,75.555917,SO2,5,10,8
India,Karnataka,Shivamogga,"Vinoba Nagara, Shivamogga - KSPCB",24-08-2024 07:00:00,13.940000,75.555917,CO,17,51,41
India,Karnataka,Tumakuru,"Thimmalapura, Tumakuru - KSPCB",24-08-2024 07:00:00,13.377516,77.099072,NO2,17,17,17
India,Karnataka,Udupi,"Brahmagiri, Udupi - KSPCB",24-08-2024 07:00:00,13.34194444,74.74694444,PM10,2,42,13
India,Karnataka,Udupi,"Brahmagiri, Udupi - KSPCB",24-08-2024 07:00:00,13.34194444,74.74694444,CO,28,98,38
India,Karnataka,Yadgir,"Collector Office, Yadgir - KSPCB",24-08-2024 07:00:00,16.7602,77.1428,OZONE,18,20,18
India,Kerala,Eloor,"Udyogamandal, Eloor - Kerala PCB",24-08-2024 07:00:00,10.073232,76.302765,SO2,1,2,1
India,Kerala,Kollam,"Polayathode, Kollam - Kerala PCB",24-08-2024 07:00:00,8.8787,76.6073,PM2.5,51,235,100
India,Kerala,Thiruvananthapuram,"Kariavattom, Thiruvananthapuram - Kerala PCB",24-08-2024 07:00:00,8.563700,76.886500,PM2.5,41,47,44
India,Kerala,Thiruvananthapuram,"Kariavattom, Thiruvananthapuram - Kerala PCB",24-08-2024 07:00:00,8.563700,76.886500,PM10,57,65,61
India,Kerala,Thiruvananthapuram,"Kariavattom, Thiruvananthapuram - Kerala PCB",24-08-2024 07:00:00,8.563700,76.886500,SO2,1,14,4
India,Kerala,Thiruvananthapuram,"Kariavattom, Thiruvananthapuram - Kerala PCB",24-08-2024 07:00:00,8.563700,76.886500,OZONE,36,36,36
India,Madhya Pradesh,Bhopal,"Idgah Hills, Bhopal - MPPCB",24-08-2024 07:00:00,23.264759,77.381568,PM10,16,100,37
India,Madhya Pradesh,Bhopal,"Idgah Hills, Bhopal - MPPCB",24-08-2024 07:00:00,23.264759,77.381568,SO2,5,7,6
India,Madhya Pradesh,Bhopal,"Idgah Hills, Bhopal - MPPCB",24-08-2024 07:00:00,23.264759,77.381568,CO,20,50,30
India,Madhya Pradesh,Bhopal,"T T Nagar, Bhopal - MPPCB",24-08-2024 07:00:00,23.233584,77.400574,OZONE,32,55,43
India,Madhya Pradesh,Damoh,"Shrivastav Colony, Damoh - MPPCB",24-08-2024 07:00:00,23.81748678,79.446246,PM2.5,1,35,7
India,Madhya Pradesh,Damoh,"Shrivastav Colony, Damoh - MPPCB",24-08-2024 07:00:00,23.81748678,79.446246,PM10,5,64,18
India,Madhya Pradesh,Dewas,"Bhopal Chauraha, Dewas - MPPCB",24-08-2024 07:00:00,22.9682591,76.064118,PM10,46,66,55
India,Madhya Pradesh,Gwalior,"City Center, Gwalior - MPPCB",24-08-2024 07:00:00,26.203442,78.193251,NO2,13,27,21
India,Madhya Pradesh,Gwalior,"Deen Dayal Nagar, Gwalior - MPPCB",24-08-2024 07:00:00,26.259242,78.216432,OZONE,38,80,55
India,Madhya Pradesh,Gwalior,"Maharaj Bada, Gwalior - MPPCB",24-08-2024 07:00:00,26.200388,78.147714,OZONE,21,43,22
India,Madhya Pradesh,Gwalior,"Phool Bagh, Gwalior - Mondelez Ind. Food",24-08-2024 07:00:00,26.210536,78.171,NO2,3,5,4
India,Madhya Pradesh,Indore,"Maguda Nagar, Indore - IMC",24-08-2024 07:00:00,22.7524,75.8872,PM10,NA,NA,NA
India,Madhya Pradesh,Indore,"Maguda Nagar, Indore - IMC",24-08-2024 07:00:00,22.7524,75.8872,CO,18,19,19
India,Madhya Pradesh,Indore,"Regional Park, Indore - IMC",24-08-2024 07:00:00,22.6780,75.8559,SO2,35,37,36
India,Madhya Pradesh,Indore,"Residency Area, Indore - IMC",24-08-2024 07:00:00,22.7084,75.8815,PM10,8,25,16
India,Madhya Pradesh,Indore,"Residency Area, Indore - IMC",24-08-2024 07:00:00,22.7084,75.8815,NO2,21,29,25
India,Madhya Pradesh,Jabalpur,"Gupteshwar, Jabalpur - JMC",24-08-2024 07:00:00,23.142888,79.916147,PM2.5,NA,NA,NA
India,Madhya Pradesh,Jabalpur,"Gupteshwar, Jabalpur - JMC",24-08-2024 07:00:00,23.142888,79.916147,OZONE,29,71,39
India,Madhya Pradesh,Jabalpur,"Suhagi, Jabalpur - JMC",24-08-2024 07:00:00,23.218135,79.957770,NO2,10,12,11
India,Madhya Pradesh,Jabalpur,"Suhagi, Jabalpur - JMC",24-08-2024 07:00:00,23.218135,79.957770,SO2,6,8,7
India,Madhya Pradesh,Katni,"Gole Bazar, Katni - MPPCB",24-08-2024 07:00:00,23.50016,80.23284,NH3,2,2,2
India,Madhya Pradesh,Maihar,"Sahilara, Maihar - KJS Cements",24-08-2024 07:00:00,24.2613009,80.7231783,PM10,NA,NA,NA
India,Madhya Pradesh,Mandideep,"Sector-D Industrial Area, Mandideep - MPPCB",24-08-2024 07:00:00,23.108440,77.511428,NO2,2,17,7
India,Madhya Pradesh,Pithampur,"Sector-2 Industrial Area, Pithampur - MPPCB",24-08-2024 07:00:00,22.624758,75.675238,PM10,11,83,42
India,Madhya Pradesh,Sagar,"Civil Lines, Sagar - MPPCB",24-08-2024 07:00:00,23.838586,78.759431,PM10,12,57,38
India,Madhya Pradesh,Sagar,"Civil Lines, Sagar - MPPCB",24-08-2024 07:00:00,23.838586,78.759431,NO2,3,29,8
India,Madhya Pradesh,Sagar,"Civil Lines, Sagar - MPPCB",24-08-2024 07:00:00,23.838586,78.759431,OZONE,17,39,23
India,Madhya Pradesh,Sagar,"Deen Dayal Nagar, Sagar - MPPCB",24-08-2024 07:00:00,23.8640158,78.80289321,SO2,11,17,12
India,Madhya Pradesh,Singrauli,"Suryakiran Bhawan NCL, Singrauli - MPPCB",24-08-2024 07:00:00,24.108970,82.645580,NO2,4,23,11
India,Madhya Pradesh,Singrauli,"Suryakiran Bhawan NCL, Singrauli - MPPCB",24-08-2024 07:00:00,24.108970,82.645580,SO2,43,55,50
India,Maharashtra,Ahmednagar,"Tarakpur, Ahmednagar - MPCB",24-08-2024 07:00:00,19.10122,74.73339,PM2.5,7,53,27
India,Maharashtra,Ahmednagar,"Tarakpur, Ahmednagar - MPCB",24-08-2024 07:00:00,19.10122,74.73339,PM10,14,81,46
India,Maharashtra,Ahmednagar,"Tarakpur, Ahmednagar - MPCB",24-08-2024 07:00:00,19.10122,74.73339,NO2,8,32,21
India,Maharashtra,Ahmednagar,"Tarakpur, Ahmednagar - MPCB",24-08-2024 07:00:00,19.10122,74.73339,NH3,3,23,14
India,Maharashtra,Akola,"Ramdaspeth, Akola - MPCB",24-08-2024 07:00:00,20.719516,77.000253,PM2.5,8,28,17
India,Maharashtra,Akola,"Ramdaspeth, Akola - MPCB",24-08-2024 07:00:00,20.719516,77.000253,CO,10,26,12
India,Maharashtra,Amravati,"Shivneri Colony, Amravati - MPCB",24-08-2024 07:00:00,20.9402359,77.7895248,PM2.5,7,25,15
India,Maharashtra,Amravati,"Shivneri Colony, Amravati - MPCB",24-08-2024 07:00:00,20.9402359,77.7895248,NO2,4,16,8
India,Maharashtra,Amravati,"Shivneri Colony, Amravati - MPCB",24-08-2024 07:00:00,20.9402359,77.7895248,NH3,2,3,2
India,Maharashtra,Amravati,"Shivneri Colony, Amravati - MPCB",24-08-2024 07:00:00,20.9402359,77.7895248,CO,7,22,10
India,Maharashtra,Amravati,"Shivneri Colony, Amravati - MPCB",24-08-2024 07:00:00,20.9402359,77.7895248,OZONE,11,28,18
India,Maharashtra,Amravati,"Shri Shivaji Science College, Amaravati - MPCB",24-08-2024 07:00:00,20.939198,77.765701,NO2,1,9,3
India,Maharashtra,Amravati,"Shri Shivaji Science College, Amaravati - MPCB",24-08-2024 07:00:00,20.939198,77.765701,CO,14,29,16
India,Maharashtra,Aurangabad,"More Chowk Waluj, Aurangabad - MPCB",24-08-2024 07:00:00,19.8389439,75.244448,PM10,NA,NA,NA
India,Maharashtra,Aurangabad,"More Chowk Waluj, Aurangabad - MPCB",24-08-2024 07:00:00,19.8389439,75.244448,OZONE,NA,NA,NA
India,Maharashtra,Belapur,"CBD Belapur, Belapur - MPCB",24-08-2024 07:00:00,19.0243902,73.0406721,PM2.5,21,140,41
India,Maharashtra,Belapur,"CBD Belapur, Belapur - MPCB",24-08-2024 07:00:00,19.0243902,73.0406721,CO,6,36,12
India,Maharashtra,Chandrapur,"Chauhan Colony, Chandrapur - MPCB",24-08-2024 07:00:00,19.962900,79.298714,PM10,15,48,27
India,Maharashtra,Chandrapur,"Chauhan Colony, Chandrapur - MPCB",24-08-2024 07:00:00,19.962900,79.298714,NH3,3,4,3
India,Maharashtra,Dhule,"Deopur, Dhule - MPCB",24-08-2024 07:00:00,20.918946,74.776388,PM10,35,105,56
India,Maharashtra,Jalgaon,"Prabhat Colony, Jalgaon - MPCB",24-08-2024 07:00:00,21.001264,75.565602,NO2,5,20,10
India,Maharashtra,Jalgaon,"Prabhat Colony, Jalgaon - MPCB",24-08-2024 07:00:00,21.001264,75.565602,SO2,2,13,8
India,Maharashtra,Jalna,"Old MIDC, Jalna - MPCB",24-08-2024 07:00:00,19.854616,75.905894,PM2.5,33,219,84
India,Maharashtra,Jalna,"Old MIDC, Jalna - MPCB",24-08-2024 07:00:00,19.854616,75.905894,SO2,5,7,6
India,Maharashtra,Kalyan,"Khadakpada, Kalyan - MPCB",24-08-2024 07:00:00,19.25292,73.142019,NO2,11,12,12
India,Maharashtra,Kalyan,"Khadakpada, Kalyan - MPCB",24-08-2024 07:00:00,19.25292,73.142019,NH3,1,1,1
India,Maharashtra,Kalyan,"Khadakpada, Kalyan - MPCB",24-08-2024 07:00:00,19.25292,73.142019,OZONE,5,8,5
India,Maharashtra,Kolhapur,"Shivaji University, Kolhapur - MPCB",24-08-2024 07:00:00,16.6870449,74.2505872,NH3,2,2,2
India,Maharashtra,Latur,"Sawe Wadi, Latur - MPCB",24-08-2024 07:00:00,18.39963,76.57452,NO2,1,45,13
India,Maharashtra,Mahad,"Kamble Tarf Birwadi, Mahad - MPCB",24-08-2024 07:00:00,18.1023399,73.4783687,PM2.5,7,39,17
India,Maharashtra,Mahad,"Kamble Tarf Birwadi, Mahad - MPCB",24-08-2024 07:00:00,18.1023399,73.4783687,NO2,3,15,6
India,Maharashtra,Mahad,"Kamble Tarf Birwadi, Mahad - MPCB",24-08-2024 07:00:00,18.1023399,73.4783687,SO2,1,60,12
India,Maharashtra,Mumbai,"Bandra Kurla Complex, Mumbai - MPCB",24-08-2024 07:00:00,19.065931,72.862131,CO,26,53,42
India,Maharashtra,Mumbai,"Borivali East, Mumbai - MPCB",24-08-2024 07:00:00,19.2243333,72.8658113,NO2,1,7,3
India,Maharashtra,Mumbai,"Borivali East, Mumbai - MPCB",24-08-2024 07:00:00,19.2243333,72.8658113,OZONE,2,3,3
India,Maharashtra,Mumbai,"Byculla, Mumbai - BMC",24-08-2024 07:00:00,18.9767,72.8380,NO2,6,29,14
India,Maharashtra,Mumbai,"Byculla, Mumbai - BMC",24-08-2024 07:00:00,18.9767,72.8380,CO,5,28,13
India,Maharashtra,Mumbai,"Byculla, Mumbai - BMC",24-08-2024 07:00:00,18.9767,72.8380,OZONE,NA,NA,NA
India,Maharashtra,Mumbai,"Chhatrapati Shivaji Intl. Airport (T2), Mumbai - MPCB",24-08-2024 07:00:00,19.10078,72.87462,NH3,1,5,1
India,Maharashtra,Mumbai,"Colaba, Mumbai - MPCB",24-08-2024 07:00:00,18.910000,72.820000,PM10,3,61,22
India,Maharashtra,Mumbai,"Colaba, Mumbai - MPCB",24-08-2024 07:00:00,18.910000,72.820000,SO2,7,9,8
India,Maharashtra,Mumbai,"Colaba, Mumbai - MPCB",24-08-2024 07:00:00,18.910000,72.820000,OZONE,10,11,11
India,Maharashtra,Mumbai,"Deonar, Mumbai - IITM",24-08-2024 07:00:00,19.04946,72.9230,PM2.5,4,40,13
India,Maharashtra,Mumbai,"Deonar, Mumbai - IITM",24-08-2024 07:00:00,19.04946,72.9230,NO2,18,29,24
India,Maharashtra,Mumbai,"Ghatkopar, Mumbai - BMC",24-08-2024 07:00:00,19.083694,72.920967,PM10,6,21,13
India,Maharashtra,Mumbai,"Ghatkopar, Mumbai - BMC",24-08-2024 07:00:00,19.083694,72.920967,NH3,9,12,10
India,Maharashtra,Mumbai,"Ghatkopar, Mumbai - BMC",24-08-2024 07:00:00,19.083694,72.920967,OZONE,1,8,1
India,Maharashtra,Mumbai,"Kandivali East, Mumbai - MPCB",24-08-2024 07:00:00,19.205800,72.868200,PM10,40,49,44
India,Maharashtra,Mumbai,"Kandivali West, Mumbai - BMC",24-08-2024 07:00:00,19.215859,72.831718,PM2.5,NA,NA,NA
India,Maharashtra,Mumbai,"Kandivali West, Mumbai - BMC",24-08-2024 07:00:00,19.215859,72.831718,PM10,NA,NA,NA
India,Maharashtra,Mumbai,"Kherwadi_Bandra East, Mumbai - MPCB",24-08-2024 07:00:00,19.0632143,72.8456324,PM2.5,8,35,16
India,Maharashtra,Mumbai,"Kherwadi_Bandra East, Mumbai - MPCB",24-08-2024 07:00:00,19.0632143,72.8456324,NH3,1,25,12
India,Maharashtra,Mumbai,"Khindipada-Bhandup West, Mumbai - IITM",24-08-2024 07:00:00,19.1653323,72.922099,OZONE,NA,NA,NA
India,Maharashtra,Mumbai,"Kurla, Mumbai - MPCB",24-08-2024 07:00:00,19.0863,72.8888,NO2,12,16,14
India,Maharashtra,Mumbai,"Mindspace-Malad West, Mumbai - MPCB",24-08-2024 07:00:00,19.1878657,72.8304069,PM2.5,7,22,13
India,Maharashtra,Mumbai,"Mindspace-Malad West, Mumbai - MPCB",24-08-2024 07:00:00,19.1878657,72.8304069,PM10,15,33,25
India,Maharashtra,Mumbai,"Mindspace-Malad West, Mumbai - MPCB",24-08-2024 07:00:00,19.1878657,72.8304069,SO2,4,5,4
India,Maharashtra,Mumbai,"Mulund West, Mumbai - MPCB",24-08-2024 07:00:00,19.1750,72.9419,NO2,NA,NA,NA
India,Maharashtra,Mumbai,"Mulund West, Mumbai - MPCB",24-08-2024 07:00:00,19.1750,72.9419,CO,28,29,28
India,Maharashtra,Mumbai,"Navy Nagar-Colaba, Mumbai - IITM",24-08-2024 07:00:00,18.897756,72.813320,PM10,NA,NA,NA
India,Maharashtra,Mumbai,"Navy Nagar-Colaba, Mumbai - IITM",24-08-2024 07:00:00,18.897756,72.813320,NO2,41,133,62
India,Maharashtra,Mumbai,"Navy Nagar-Colaba, Mumbai - IITM",24-08-2024 07:00:00,18.897756,72.813320,SO2,1,11,3
India,Maharashtra,Mumbai,"Powai, Mumbai - MPCB",24-08-2024 07:00:00,19.137500,72.915056,CO,19,22,21
India,Maharashtra,Mumbai,"Powai, Mumbai - MPCB",24-08-2024 07:00:00,19.137500,72.915056,OZONE,4,6,5
India,Maharashtra,Mumbai,"Sewri, Mumbai - BMC",24-08-2024 07:00:00,19.000084,72.856730,PM10,17,44,32
India,Maharashtra,Mumbai,"Shivaji Nagar, Mumbai - BMC",24-08-2024 07:00:00,19.060498,72.923356,SO2,2,4,3
India,Maharashtra,Mumbai,"Sion, Mumbai - MPCB",24-08-2024 07:00:00,19.047000,72.874600,OZONE,16,21,16
India,Maharashtra,Mumbai,"Vasai West, Mumbai - MPCB",24-08-2024 07:00:00,19.383200,72.820400,CO,16,36,26
India,Maharashtra,Mumbai,"Vasai West, Mumbai - MPCB",24-08-2024 07:00:00,19.383200,72.820400,OZONE,6,7,7
India,Maharashtra,Mumbai,"Vile Parle West, Mumbai - MPCB",24-08-2024 07:00:00,19.10861,72.83622,NO2,14,111,30
India,Maharashtra,Mumbai,"Vile Parle West, Mumbai - MPCB",24-08-2024 07:00:00,19.10861,72.83622,CO,31,60,37
India,Maharashtra,Mumbai,"Worli, Mumbai - MPCB",24-08-2024 07:00:00,18.9936162,72.8128113,SO2,15,15,15
India,Maharashtra,Mumbai,"Worli, Mumbai - MPCB",24-08-2024 07:00:00,18.9936162,72.8128113,CO,2,12,4
India,Maharashtra,Nagpur,"Ambazari, Nagpur - MPCB",24-08-2024 07:00:00,21.121801,79.04952,PM2.5,9,70,32
India,Maharashtra,Nagpur,"Mahal, Nagpur - MPCB",24-08-2024 07:00:00,21.14472,79.107595,CO,12,46,18
India,Maharashtra,Nagpur,"Ram Nagar, Nagpur - MPCB",24-08-2024 07:00:00,21.143383,79.048912,PM10,14,39,27
India,Maharashtra,Nashik,"Gangapur Road, Nashik - MPCB",24-08-2024 07:00:00,20.0073285,73.7762427,CO,8,57,20
India,Maharashtra,Nashik,"Hirawadi, Nashik - MPCB",24-08-2024 07:00:00,20.021503,73.813844,PM2.5,16,54,30
India,Maharashtra,Nashik,"Hirawadi, Nashik - MPCB",24-08-2024 07:00:00,20.021503,73.813844,NO2,4,29,16
India,Maharashtra,Navi Mumbai,"Kopripada-Vashi, Navi Mumbai - MPCB",24-08-2024 07:00:00,19.090337,73.014232,PM10,27,56,39
India,Maharashtra,Navi Mumbai,"Kopripada-Vashi, Navi Mumbai - MPCB",24-08-2024 07:00:00,19.090337,73.014232,NH3,6,14,9
India,Maharashtra,Navi Mumbai,"Mahape, Navi Mumbai - MPCB",24-08-2024 07:00:00,19.1135051,73.008978,NO2,17,17,17
India,Maharashtra,Navi Mumbai,"Nerul, Navi Mumbai - MPCB",24-08-2024 07:00:00,19.008751,73.016620,PM2.5,2,28,16
India,Maharashtra,Navi Mumbai,"Nerul, Navi Mumbai - MPCB",24-08-2024 07:00:00,19.008751,73.016620,NH3,1,1,1
India,Maharashtra,Navi Mumbai,"Sanpada, Navi Mumbai - MPCB",24-08-2024 07:00:00,19.0575752,73.0151367,PM2.5,2,55,9
India,Maharashtra,Navi Mumbai,"Sanpada, Navi Mumbai - MPCB",24-08-2024 07:00:00,19.0575752,73.0151367,NO2,13,39,23
India,Maharashtra,Navi Mumbai,"Sanpada, Navi Mumbai - MPCB",24-08-2024 07:00:00,19.0575752,73.0151367,SO2,1,13,3
India,Maharashtra,Navi Mumbai,"Sector-19A Nerul, Navi Mumbai - IITM",24-08-2024 07:00:00,19.044,73.0325,SO2,1,5,3
India,Maharashtra,Navi Mumbai,"Sector-2E Kalamboli, Navi Mumbai - MPCB",24-08-2024 07:00:00,19.02579,73.10297,NO2,NA,NA,NA
India,Maharashtra,Navi Mumbai,"Sector-2E Kalamboli, Navi Mumbai - MPCB",24-08-2024 07:00:00,19.02579,73.10297,NH3,NA,NA,NA
India,Maharashtra,Navi Mumbai,"Sector-2E Kalamboli, Navi Mumbai - MPCB",24-08-2024 07:00:00,19.02579,73.10297,CO,4,22,10
India,Maharashtra,Navi Mumbai,"Tondare-Taloja, Navi Mumbai - MPCB",24-08-2024 07:00:00,19.0630,73.1209,OZONE,1,15,1
India,Maharashtra,Parbhani,"Masoom Colony, Parbhani - MPCB",24-08-2024 07:00:00,19.265594,76.761463,PM2.5,4,27,13
India,Maharashtra,Parbhani,"Masoom Colony, Parbhani - MPCB",24-08-2024 07:00:00,19.265594,76.761463,PM10,6,49,25
India,Maharashtra,Parbhani,"Masoom Colony, Parbhani - MPCB",24-08-2024 07:00:00,19.265594,76.761463,NH3,2,3,3
India,Maharashtra,Pimpri-Chinchwad,"Gavalinagar, Pimpri Chinchwad - MPCB",24-08-2024 07:00:00,18.63673,73.82487,NO2,8,19,13
India,Maharashtra,Pimpri-Chinchwad,"Gavalinagar, Pimpri Chinchwad - MPCB",24-08-2024 07:00:00,18.63673,73.82487,CO,8,21,11
India,Maharashtra,Pimpri-Chinchwad,"Park Street Wakad, Pimpri Chinchwad - MPCB",24-08-2024 07:00:00,18.59051,73.77946,PM2.5,3,29,15
India,Maharashtra,Pimpri-Chinchwad,"Savta Mali Nagar, Pimpri-Chinchwad - IITM",24-08-2024 07:00:00,18.614767,73.799516,OZONE,1,26,5
India,Maharashtra,Pimpri-Chinchwad,"Thergaon, Pimpri Chinchwad - MPCB",24-08-2024 07:00:00,18.616318,73.765797,OZONE,4,10,5
India,Maharashtra,Pune,"Bhumkar Nagar, Pune - IITM",24-08-2024 07:00:00,18.605770,73.749976,PM2.5,2,137,16
India,Maharashtra,Pune,"Bhumkar Nagar, Pune - IITM",24-08-2024 07:00:00,18.605770,73.749976,OZONE,4,12,6
India,Maharashtra,Pune,"Katraj Dairy, Pune - MPCB",24-08-2024 07:00:00,18.454450,73.854155,PM10,44,48,46
India,Maharashtra,Pune,"Katraj Dairy, Pune - MPCB",24-08-2024 07:00:00,18.454450,73.854155,NH3,1,2,1
India,Maharashtra,Pune,"Katraj Dairy, Pune - MPCB",24-08-2024 07:00:00,18.454450,73.854155,OZONE,12,32,18
India,Maharashtra,Pune,"Panchawati_Pashan, Pune - IITM",24-08-2024 07:00:00,18.536457,73.805454,OZONE,10,37,19
India,Maharashtra,Pune,"Revenue Colony-Shivajinagar, Pune - IITM",24-08-2024 07:00:00,18.530085,73.849598,PM10,13,64,26
India,Maharashtra,Pune,"Revenue Colony-Shivajinagar, Pune - IITM",24-08-2024 07:00:00,18.530085,73.849598,CO,44,81,56
India,Maharashtra,Pune,"Savitribai Phule Pune University, Pune - MPCB",24-08-2024 07:00:00,18.547056,73.826908,OZONE,8,25,10
India,Maharashtra,Sangli,"Vijay Nagar, Sangli - MPCB",24-08-2024 07:00:00, 16.5038,74.3623,OZONE,24,65,27
India,Maharashtra,Solapur,"Ratandeep Housing Society, Solapur - MPCB",24-08-2024 07:00:00,17.65439,75.90649,PM2.5,3,26,14
India,Maharashtra,Solapur,"Ratandeep Housing Society, Solapur - MPCB",24-08-2024 07:00:00,17.65439,75.90649,PM10,10,44,28
India,Maharashtra,Solapur,"Ratandeep Housing Society, Solapur - MPCB",24-08-2024 07:00:00,17.65439,75.90649,SO2,1,4,3
India,Maharashtra,Solapur,"Solapur, Solapur - MPCB",24-08-2024 07:00:00,17.6599188,75.9063906,SO2,1,84,21
India,Maharashtra,Thane,"Kasarvadavali, Thane - MPCB",24-08-2024 07:00:00,19.26777,72.97182,PM2.5,8,38,23
India,Maharashtra,Thane,"Kasarvadavali, Thane - MPCB",24-08-2024 07:00:00,19.26777,72.97182,PM10,21,76,42
India,Maharashtra,Thane,"Kasarvadavali, Thane - MPCB",24-08-2024 07:00:00,19.26777,72.97182,NH3,2,5,3
India,Maharashtra,Thane,"Kasarvadavali, Thane - MPCB",24-08-2024 07:00:00,19.26777,72.97182,OZONE,19,302,26
India,Maharashtra,Thane,"Pimpleshwar Mandir, Thane - MPCB",24-08-2024 07:00:00,19.192056,72.9585188,NO2,3,12,8
India,Maharashtra,Thane,"Upvan Fort, Thane - MPCB",24-08-2024 07:00:00,19.222279,72.957979,CO,8,65,25
India,Maharashtra,Ulhasnagar,"Sidhi Vinayak Nagar, Ulhasnagar - MPCB",24-08-2024 07:00:00,19.235581,73.159121,SO2,2,14,7
India,Maharashtra,Ulhasnagar,"Sidhi Vinayak Nagar, Ulhasnagar - MPCB",24-08-2024 07:00:00,19.235581,73.159121,CO,18,39,29
India,Manipur,Imphal,"DM College of Science, Imphal - Manipur PCB",24-08-2024 07:00:00,24.8207389,93.9423085,NO2,7,8,7
India,Meghalaya,Shillong,"Lumpyngngad, Shillong - Meghalaya PCB",24-08-2024 07:00:00,25.5586,91.8985,NO2,1,2,1
India,Nagaland,Kohima,"PWD Juction, Kohima - NPCB",24-08-2024 07:00:00,25.6635413,94.0989878,NO2,3,4,3
India,Odisha,Angul,"Hakimapada, Angul - OSPCB",24-08-2024 07:00:00,20.832874,85.104082,PM10,17,126,42
India,Odisha,Angul,"Hakimapada, Angul - OSPCB",24-08-2024 07:00:00,20.832874,85.104082,CO,22,100,54
India,Odisha,Balasore,"Kalidaspur, Balasore - OSPCB",24-08-2024 07:00:00,21.51161,86.89088,PM2.5,3,77,30
India,Odisha,Balasore,"Kalidaspur, Balasore - OSPCB",24-08-2024 07:00:00,21.51161,86.89088,NO2,4,34,18
India,Odisha,Baripada,"Meher Colony, Baripada - OSPCB",24-08-2024 07:00:00,21.941841,86.728318,CO,23,76,29
India,Odisha,Bhubaneswar,"Patia, Bhubaneswar - OSPCB",24-08-2024 07:00:00,20.34652,85.81630,NO2,4,14,7
India,Odisha,Bhubaneswar,"Patia, Bhubaneswar - OSPCB",24-08-2024 07:00:00,20.34652,85.81630,NH3,1,2,1
India,Odisha,Bileipada,"Tata Township, Bileipada - OSPCB",24-08-2024 07:00:00,22.06156703,85.47409613,PM10,21,85,51
India,Odisha,Bileipada,"Tata Township, Bileipada - OSPCB",24-08-2024 07:00:00,22.06156703,85.47409613,NO2,14,17,15
India,Odisha,Bileipada,"Tata Township, Bileipada - OSPCB",24-08-2024 07:00:00,22.06156703,85.47409613,CO,14,22,22
India,Odisha,Brajrajnagar,"GM Office, Brajrajnagar - OSPCB",24-08-2024 07:00:00,21.8004996,83.8396977,PM2.5,6,39,22
India,Odisha,Brajrajnagar,"GM Office, Brajrajnagar - OSPCB",24-08-2024 07:00:00,21.8004996,83.8396977,PM10,9,55,30
India,Odisha,Brajrajnagar,"GM Office, Brajrajnagar - OSPCB",24-08-2024 07:00:00,21.8004996,83.8396977,SO2,23,24,24
India,Odisha,Byasanagar,"Ferro Chrome Colony, Byasanagar - OSPCB",24-08-2024 07:00:00,20.94185,86.11510,SO2,3,38,14
India,Odisha,Cuttack,"CDA Area, Cuttack - OSPCB",24-08-2024 07:00:00,20.48891     ,85.84768     ,PM10,14,60,32
India,Odisha,Cuttack,"CDA Area, Cuttack - OSPCB",24-08-2024 07:00:00,20.48891     ,85.84768     ,OZONE,12,29,15
India,Odisha,Keonjhar,"Jagamohanpur, Keonjhar - OSPCB",24-08-2024 07:00:00,21.643900,85.599355,NO2,11,18,15
India,Odisha,Rairangpur,"Divisional Forest Office, Rairangpur - OSPCB",24-08-2024 07:00:00,22.265816,86.174829,PM10,18,42,29
India,Odisha,Rourkela,"Fertilizer Township, Rourkela - OSPCB",24-08-2024 07:00:00,22.18972222,84.86277778,NO2,NA,NA,NA
India,Odisha,Rourkela,"Fertilizer Township, Rourkela - OSPCB",24-08-2024 07:00:00,22.18972222,84.86277778,CO,NA,NA,NA
India,Odisha,Rourkela,"Raghunathpali, Rourkela - OSPCB",24-08-2024 07:00:00,22.220833,84.809444,NO2,3,56,20
India,Odisha,Rourkela,"Sector-2, Rourkela - OSPCB",24-08-2024 07:00:00,22.24500000,84.88111111,PM2.5,14,56,32
India,Odisha,Suakati,"OMC Colony, Suakati - OSPCB",24-08-2024 07:00:00,21.606865,85.510538,OZONE,1,317,27
India,Odisha,Tensa,"Barsua Iron Ore Mines, Tensa - OSPCB",24-08-2024 07:00:00,21.869985,85.167016,NO2,34,58,45
India,Odisha,Tensa,"Barsua Iron Ore Mines, Tensa - OSPCB",24-08-2024 07:00:00,21.869985,85.167016,NH3,3,5,5
India,Puducherry,Puducherry,"Jawahar Nagar, Puducherry - PPCC",24-08-2024 07:00:00,11.9309,79.8027,SO2,7,13,11
India,Punjab,Amritsar,"Golden Temple, Amritsar - PPCB",24-08-2024 07:00:00,31.620000,74.876512,PM2.5,25,79,55
India,Punjab,Amritsar,"Golden Temple, Amritsar - PPCB",24-08-2024 07:00:00,31.620000,74.876512,SO2,6,10,8
India,Punjab,Bathinda,"Hardev Nagar, Bathinda - PPCB",24-08-2024 07:00:00,30.233011,74.907758,CO,2,104,56
India,Punjab,Jalandhar,"Civil Line, Jalandhar - PPCB",24-08-2024 07:00:00,31.321907,75.578914,OZONE,22,50,25
India,Punjab,Khanna,"Kalal Majra, Khanna - PPCB",24-08-2024 07:00:00,30.736056 ,76.209694,PM2.5,36,67,52
India,Punjab,Khanna,"Kalal Majra, Khanna - PPCB",24-08-2024 07:00:00,30.736056 ,76.209694,NH3,7,8,8
India,Punjab,Khanna,"Kalal Majra, Khanna - PPCB",24-08-2024 07:00:00,30.736056 ,76.209694,SO2,7,31,12
India,Punjab,Ludhiana,"Punjab Agricultural University, Ludhiana - PPCB",24-08-2024 07:00:00,30.9028,75.8086,PM2.5,40,77,65
India,Punjab,Ludhiana,"Punjab Agricultural University, Ludhiana - PPCB",24-08-2024 07:00:00,30.9028,75.8086,SO2,2,16,6
India,Punjab,Mandi Gobindgarh,"RIMT University, Mandi Gobindgarh - PPCB",24-08-2024 07:00:00,30.649961,76.331442,PM2.5,22,187,70
India,Punjab,Mandi Gobindgarh,"RIMT University, Mandi Gobindgarh - PPCB",24-08-2024 07:00:00,30.649961,76.331442,SO2,10,14,12
India,Punjab,Patiala,"Model Town, Patiala - PPCB",24-08-2024 07:00:00,30.349388,76.366642,NH3,4,4,4
India,Punjab,Patiala,"Model Town, Patiala - PPCB",24-08-2024 07:00:00,30.349388,76.366642,SO2,3,22,11
India,Punjab,Rupnagar,"Ratanpura, Rupnagar - Ambuja Cements",24-08-2024 07:00:00,31.0325454,76.5623046,NO2,9,11,10
India,Rajasthan,Ajmer,"Civil Lines,  Ajmer - RSPCB",24-08-2024 07:00:00,26.470859,74.646594,SO2,3,12,9
India,Rajasthan,Alwar,"Moti Doongri, Alwar - RSPCB",24-08-2024 07:00:00,27.554793,76.611536,NO2,23,29,26
India,Rajasthan,Banswara,"Rati Talai, Banswara - RSPCB",24-08-2024 07:00:00,23.555190,74.440010,PM10,15,130,52
India,Rajasthan,Banswara,"Rati Talai, Banswara - RSPCB",24-08-2024 07:00:00,23.555190,74.440010,CO,1,90,26
India,Rajasthan,Baran,"Bamboliya, Baran - RSPCB",24-08-2024 07:00:00,25.106006,76.469948,NO2,2,12,6
India,Rajasthan,Baran,"Bamboliya, Baran - RSPCB",24-08-2024 07:00:00,25.106006,76.469948,NH3,3,18,4
India,Rajasthan,Barmer,"Railway Colony, Barmer - RSPCB",24-08-2024 07:00:00,25.747299,71.393989,SO2,1,6,2
India,Rajasthan,Bharatpur,"Krishna Nagar, Bharatpur - RSPCB",24-08-2024 07:00:00,27.215415,77.50873,PM2.5,5,17,11
India,Rajasthan,Bharatpur,"Krishna Nagar, Bharatpur - RSPCB",24-08-2024 07:00:00,27.215415,77.50873,NO2,10,35,18
India,Rajasthan,Bharatpur,"Krishna Nagar, Bharatpur - RSPCB",24-08-2024 07:00:00,27.215415,77.50873,CO,19,52,29
India,Rajasthan,Bhiwadi,"RIICO Ind. Area III, Bhiwadi - RSPCB",24-08-2024 07:00:00,28.194909,76.862296,PM2.5,46,120,80
India,Rajasthan,Bikaner,"MM Ground, Bikaner - RSPCB",24-08-2024 07:00:00,28.018792,73.292658,PM2.5,12,95,40
India,Rajasthan,Bundi,"New Colony, Bundi - RSPCB",24-08-2024 07:00:00,25.435774,75.644272,PM2.5,12,34,21
India,Rajasthan,Bundi,"New Colony, Bundi - RSPCB",24-08-2024 07:00:00,25.435774,75.644272,PM10,21,55,39
India,Rajasthan,Chittorgarh,"Shastri Nagar, Chittorgarh - RSPCB",24-08-2024 07:00:00,24.892047,74.623527,PM2.5,NA,NA,NA
India,Rajasthan,Chittorgarh,"Shastri Nagar, Chittorgarh - RSPCB",24-08-2024 07:00:00,24.892047,74.623527,PM10,NA,NA,NA
India,Rajasthan,Chittorgarh,"Shastri Nagar, Chittorgarh - RSPCB",24-08-2024 07:00:00,24.892047,74.623527,SO2,NA,NA,NA
India,Rajasthan,Churu,"Subash Chowk, Churu - RSPCB",24-08-2024 07:00:00,28.296139,74.961696,CO,20,34,25
India,Rajasthan,Dausa,"Khatikan Mohalla, Dausa - RSPCB",24-08-2024 07:00:00,26.895552,76.334753,PM2.5,9,53,34
India,Rajasthan,Dausa,"Khatikan Mohalla, Dausa - RSPCB",24-08-2024 07:00:00,26.895552,76.334753,NH3,5,9,7
India,Rajasthan,Dholpur,"Raja Ganj, Dholpur - RSPCB",24-08-2024 07:00:00,26.699557,77.898881,PM2.5,7,310,94
India,Rajasthan,Dholpur,"Raja Ganj, Dholpur - RSPCB",24-08-2024 07:00:00,26.699557,77.898881,CO,2,40,24
India,Rajasthan,Hanumangarh,"Housing Board, Hanumangarh - RSPCB",24-08-2024 07:00:00,29.610750,74.283608,SO2,7,10,8
India,Rajasthan,Jaipur,"Adarsh Nagar, Jaipur - RSPCB",24-08-2024 07:00:00,26.902909,75.836858,PM10,34,97,63
India,Rajasthan,Jaipur,"Police Commissionerate, Jaipur - RSPCB",24-08-2024 07:00:00,26.9164092,75.7994901,PM2.5,31,62,45
India,Rajasthan,Jaipur,"Police Commissionerate, Jaipur - RSPCB",24-08-2024 07:00:00,26.9164092,75.7994901,SO2,6,68,34
India,Rajasthan,Jaipur,"RIICO Sitapura, Jaipur - RSPCB",24-08-2024 07:00:00,26.786682,75.827928,CO,24,90,49
India,Rajasthan,Jaisalmer,"Sadar Bazar, Jaisalmer - RSPCB",24-08-2024 07:00:00,26.912329,70.909168,PM2.5,6,31,18
India,Rajasthan,Jalore,"Mudtra Sili, Jalore - RSPCB",24-08-2024 07:00:00,25.344694,72.626208,SO2,2,4,3
India,Rajasthan,Jalore,"Mudtra Sili, Jalore - RSPCB",24-08-2024 07:00:00,25.344694,72.626208,OZONE,8,36,13
India,Rajasthan,Jhalawar,"Rajlaxmi Nagar, Jhalawar - RSPCB",24-08-2024 07:00:00,24.588397,76.172782,NO2,4,7,5
India,Rajasthan,Jhalawar,"Rajlaxmi Nagar, Jhalawar - RSPCB",24-08-2024 07:00:00,24.588397,76.172782,NH3,1,3,2
India,Rajasthan,Jhunjhunu,"Indra Nagar, Jhunjhunu - RSPCB",24-08-2024 07:00:00,28.108988,75.386577,PM10,15,115,53
India,Rajasthan,Jodhpur,"Collectorate, Jodhpur - RSPCB",24-08-2024 07:00:00,26.268249,73.0193853,OZONE,19,21,20
India,Rajasthan,Jodhpur,"Digari Kalan, Jodhpur - RSPCB",24-08-2024 07:00:00,26.295810,73.082283,CO,8,28,17
India,Rajasthan,Jodhpur,"Jhalamand, Jodhpur - RSPCB",24-08-2024 07:00:00,26.215415,73.070156,SO2,3,6,4
India,Rajasthan,Jodhpur,"Mandor, Jodhpur - RSPCB",24-08-2024 07:00:00,26.358805,73.047444,SO2,2,5,3
India,Rajasthan,Jodhpur,"Samrat Ashok Udhyan, Jodhpur - RSPCB",24-08-2024 07:00:00,26.253384,72.976571,NO2,6,60,23
India,Rajasthan,Karauli,"Satyawati Vihar, Karauli - RSPCB",24-08-2024 07:00:00,26.506177,77.025989,NO2,23,143,59
India,Rajasthan,Karauli,"Satyawati Vihar, Karauli - RSPCB",24-08-2024 07:00:00,26.506177,77.025989,SO2,2,9,5
India,Rajasthan,Kota,"Nayapura, Kota - RSPCB",24-08-2024 07:00:00,25.196024,75.855668,NO2,3,37,11
India,Rajasthan,Kota,"Shrinath Puram, Kota - RSPCB",24-08-2024 07:00:00,25.14389,75.821256,NO2,17,37,22
India,Rajasthan,Kota,"Shrinath Puram, Kota - RSPCB",24-08-2024 07:00:00,25.14389,75.821256,CO,42,81,54
India,Rajasthan,Pali,"Indira Colony Vistar, Pali - RSPCB",24-08-2024 07:00:00,25.771061, 73.340227,NO2,9,32,18
India,Rajasthan,Pali,"Indira Colony Vistar, Pali - RSPCB",24-08-2024 07:00:00,25.771061, 73.340227,NH3,9,17,12
India,Rajasthan,Pali,"Indira Colony Vistar, Pali - RSPCB",24-08-2024 07:00:00,25.771061, 73.340227,SO2,6,9,8
India,Rajasthan,Pratapgarh,"Pragati Nagar, Pratapgarh - RSPCB",24-08-2024 07:00:00,24.041198,74.780702,PM2.5,2,26,14
India,Rajasthan,Pratapgarh,"Pragati Nagar, Pratapgarh - RSPCB",24-08-2024 07:00:00,24.041198,74.780702,PM10,10,29,18
India,Rajasthan,Rajsamand,"Dhoinda, Rajsamand - RSPCB",24-08-2024 07:00:00,25.036360,73.883502,NO2,3,14,7
India,Rajasthan,Rajsamand,"Dhoinda, Rajsamand - RSPCB",24-08-2024 07:00:00,25.036360,73.883502,SO2,2,15,4
India,Rajasthan,Sawai Madhopur,"Sahu Nagar, Sawai Madhopur - RSPCB",24-08-2024 07:00:00,26.031443,76.359327,CO,1,88,19
India,Rajasthan,Sirohi,"Vedhaynath Colony, Sirohi - RSPCB",24-08-2024 07:00:00,24.885261,72.857549,OZONE,3,37,19
India,Rajasthan,Sri Ganganagar,"Old City, Sri Ganganagar - RSPCB",24-08-2024 07:00:00,29.931624,73.864511,PM2.5,43,190,98
India,Rajasthan,Sri Ganganagar,"Old City, Sri Ganganagar - RSPCB",24-08-2024 07:00:00,29.931624,73.864511,SO2,1,6,2
India,Rajasthan,Tonk,"Shastri Nagar, Tonk - RSPCB",24-08-2024 07:00:00,26.159933,75.780517,SO2,2,6,4
India,Rajasthan,Tonk,"Shastri Nagar, Tonk - RSPCB",24-08-2024 07:00:00,26.159933,75.780517,OZONE,20,53,28
India,Rajasthan,Udaipur,"Ashok Nagar, Udaipur - RSPCB",24-08-2024 07:00:00,24.5886166,73.6321397,NH3,3,23,12
India,Rajasthan,Udaipur,"Ashok Nagar, Udaipur - RSPCB",24-08-2024 07:00:00,24.5886166,73.6321397,SO2,2,14,8
India,Sikkim,Gangtok,"Zero Point GICI, Gangtok - SSPCB",24-08-2024 07:00:00,27.338530,88.614099,NH3,1,1,1
India,TamilNadu,Ariyalur,"Keelapalur, Ariyalur - TNPCB",24-08-2024 07:00:00,11.06825,79.07033,PM10,22,42,32
India,TamilNadu,Chennai,"Alandur Bus Depot, Chennai - CPCB",24-08-2024 07:00:00,12.9099161,80.1076538,NH3,1,2,1
India,TamilNadu,Chennai,"Arumbakkam, Chennai - TNPCB",24-08-2024 07:00:00,13.0664,80.2112 ,PM2.5,5,30,18
India,TamilNadu,Chennai,"Kodungaiyur, Chennai - TNPCB",24-08-2024 07:00:00,13.1278,80.2642,PM2.5,NA,NA,NA
India,TamilNadu,Chennai,"Manali Village, Chennai - TNPCB",24-08-2024 07:00:00,13.1662,80.2584,PM2.5,8,87,46
India,TamilNadu,Chennai,"Manali Village, Chennai - TNPCB",24-08-2024 07:00:00,13.1662,80.2584,OZONE,35,47,43
India,TamilNadu,Chennai,"Perungudi, Chennai - TNPCB",24-08-2024 07:00:00,12.9533,80.2357,NH3,2,3,2
India,TamilNadu,Chennai,"Perungudi, Chennai - TNPCB",24-08-2024 07:00:00,12.9533,80.2357,OZONE,7,15,14
India,TamilNadu,Chennai,"Velachery Res. Area, Chennai - CPCB",24-08-2024 07:00:00,13.0052189,80.2398125,PM2.5,44,67,55
India,TamilNadu,Chennai,"Velachery Res. Area, Chennai - CPCB",24-08-2024 07:00:00,13.0052189,80.2398125,SO2,10,11,11
India,TamilNadu,Coimbatore,"PSG College of Arts and Science, Coimbatore - TNPCB",24-08-2024 07:00:00,11.0328,77.0349,PM2.5,NA,NA,NA
India,TamilNadu,Coimbatore,"PSG College of Arts and Science, Coimbatore - TNPCB",24-08-2024 07:00:00,11.0328,77.0349,PM10,2,41,18
India,TamilNadu,Coimbatore,"PSG College of Arts and Science, Coimbatore - TNPCB",24-08-2024 07:00:00,11.0328,77.0349,SO2,11,13,12
India,TamilNadu,Coimbatore,"SIDCO Kurichi, Coimbatore - TNPCB",24-08-2024 07:00:00,10.942451,76.978996,OZONE,2,12,3
India,TamilNadu,Cuddalore,"Kudikadu, Cuddalore - TNPCB",24-08-2024 07:00:00,11.6829898,79.7532099,PM10,NA,NA,NA
India,TamilNadu,Dindigul,"Mendonsa Colony, Dindigul - TNPCB",24-08-2024 07:00:00,10.358535,77.984321,NH3,1,1,1
India,TamilNadu,Gummidipoondi,"Anthoni Pillai Nagar, Gummidipoondi - TNPCB",24-08-2024 07:00:00,13.4127,80.1081,NO2,12,31,21
India,TamilNadu,Gummidipoondi,"Anthoni Pillai Nagar, Gummidipoondi - TNPCB",24-08-2024 07:00:00,13.4127,80.1081,NH3,1,4,3
India,TamilNadu,Ooty,"Bombay Castel, Ooty - TNPCB",24-08-2024 07:00:00,11.4068288,76.7138973,PM10,NA,NA,NA
India,TamilNadu,Ooty,"Bombay Castel, Ooty - TNPCB",24-08-2024 07:00:00,11.4068288,76.7138973,OZONE,NA,NA,NA
India,TamilNadu,Ramanathapuram,"Chalai Bazaar, Ramanathapuram - TNPCB",24-08-2024 07:00:00,9.36399,78.831977,PM2.5,NA,NA,NA
India,TamilNadu,Ramanathapuram,"Chalai Bazaar, Ramanathapuram - TNPCB",24-08-2024 07:00:00,9.36399,78.831977,NH3,1,1,1
India,TamilNadu,Ramanathapuram,"Chalai Bazaar, Ramanathapuram - TNPCB",24-08-2024 07:00:00,9.36399,78.831977,SO2,7,10,8
India,TamilNadu,Ramanathapuram,"Chalai Bazaar, Ramanathapuram - TNPCB",24-08-2024 07:00:00,9.36399,78.831977,CO,2,8,4
India,TamilNadu,Ramanathapuram,"Chalai Bazaar, Ramanathapuram - TNPCB",24-08-2024 07:00:00,9.36399,78.831977,OZONE,13,14,14
India,TamilNadu,Salem,"Sona College of Technology, Salem - TNPCB",24-08-2024 07:00:00,11.679111,78.125052,CO,36,46,38
India,TamilNadu,Tirunelveli,"Municipal Corporation Office, Tirunelveli - TNPCB",24-08-2024 07:00:00,8.728442,77.6962,PM10,10,39,27
India,TamilNadu,Tirunelveli,"Municipal Corporation Office, Tirunelveli - TNPCB",24-08-2024 07:00:00,8.728442,77.6962,OZONE,6,6,6
India,TamilNadu,Vellore,"Vasanthapuram, Vellore - TNPCB",24-08-2024 07:00:00,12.909494,79.131861,SO2,21,22,22
India,Telangana,Hyderabad,"Bollaram Industrial Area, Hyderabad - TSPCB",24-08-2024 07:00:00,17.540891,78.358528,PM10,11,71,37
India,Telangana,Hyderabad,"ICRISAT Patancheru, Hyderabad - TSPCB",24-08-2024 07:00:00,17.518400,78.278777,PM2.5,NA,NA,NA
India,Telangana,Hyderabad,"ICRISAT Patancheru, Hyderabad - TSPCB",24-08-2024 07:00:00,17.518400,78.278777,OZONE,NA,NA,NA
India,Telangana,Hyderabad,"IITH Kandi, Hyderabad - TSPCB",24-08-2024 07:00:00,17.585705,78.126199,SO2,NA,NA,NA
India,Telangana,Hyderabad,"Kompally Municipal Office, Hyderabad - TSPCB",24-08-2024 07:00:00,17.544899,78.486949,NO2,NA,NA,NA
India,Telangana,Hyderabad,"Kompally Municipal Office, Hyderabad - TSPCB",24-08-2024 07:00:00,17.544899,78.486949,SO2,NA,NA,NA
India,Telangana,Hyderabad,"Nacharam_TSIIC IALA, Hyderabad - TSPCB",24-08-2024 07:00:00,17.429398,78.569354,PM10,62,79,66
India,Telangana,Hyderabad,"New Malakpet, Hyderabad - TSPCB",24-08-2024 07:00:00,17.37206,78.50864,CO,16,28,19
India,Telangana,Hyderabad,"Somajiguda, Hyderabad - TSPCB",24-08-2024 07:00:00,17.417094,78.457437,NH3,NA,NA,NA
India,Telangana,Hyderabad,"Somajiguda, Hyderabad - TSPCB",24-08-2024 07:00:00,17.417094,78.457437,SO2,NA,NA,NA
India,Tripura,Agartala,"Bardowali, Agartala - Tripura SPCB",24-08-2024 07:00:00,23.8175497,91.2726974,NO2,3,7,5
India,Tripura,Agartala,"Bardowali, Agartala - Tripura SPCB",24-08-2024 07:00:00,23.8175497,91.2726974,CO,8,18,10
India,Uttar_Pradesh,Agra,"Rohta, Agra - UPPCB",24-08-2024 07:00:00,27.106972,78.000111,NH3,NA,NA,NA
India,Uttar_Pradesh,Agra,"Sanjay Palace, Agra - UPPCB",24-08-2024 07:00:00,27.19865833,78.00598056,CO,5,62,30
India,Uttar_Pradesh,Agra,"Sector-3B Avas Vikas Colony, Agra - UPPCB",24-08-2024 07:00:00,27.19412,77.96237,NO2,13,13,13
India,Uttar_Pradesh,Agra,"Shahjahan Garden, Agra - UPPCB",24-08-2024 07:00:00,27.169338,78.03582,PM2.5,NA,NA,NA
India,Uttar_Pradesh,Agra,"Shahjahan Garden, Agra - UPPCB",24-08-2024 07:00:00,27.169338,78.03582,NH3,NA,NA,NA
India,Uttar_Pradesh,Agra,"Shahjahan Garden, Agra - UPPCB",24-08-2024 07:00:00,27.169338,78.03582,OZONE,1,2,1
India,Uttar_Pradesh,Agra,"Shastripuram, Agra - UPPCB",24-08-2024 07:00:00,27.19862,77.92066,NH3,2,6,2
India,Uttar_Pradesh,Baghpat,"Sardar Patel Inter College, Baghpat - UPPCB",24-08-2024 07:00:00,28.964949,77.278761,CO,7,71,59
India,Uttar_Pradesh,Bareilly,"Civil Lines, Bareilly - UPPCB",24-08-2024 07:00:00,28.359581,79.414455,NO2,2,3,2
India,Uttar_Pradesh,Bareilly,"Civil Lines, Bareilly - UPPCB",24-08-2024 07:00:00,28.359581,79.414455,CO,13,44,30
India,Uttar_Pradesh,Bareilly,"Rajendra Nagar, Bareilly - UPPCB",24-08-2024 07:00:00,28.38910936,79.42963708,PM10,36,80,52
India,Uttar_Pradesh,Bareilly,"Rajendra Nagar, Bareilly - UPPCB",24-08-2024 07:00:00,28.38910936,79.42963708,NO2,1,18,3
India,Uttar_Pradesh,Bulandshahr,"Yamunapuram, Bulandshahr - UPPCB",24-08-2024 07:00:00,28.406963,77.849831,PM2.5,23,58,39
India,Uttar_Pradesh,Bulandshahr,"Yamunapuram, Bulandshahr - UPPCB",24-08-2024 07:00:00,28.406963,77.849831,NH3,7,13,10
India,Uttar_Pradesh,Firozabad,"Vibhab Nagar, Firozabad - UPPCB",24-08-2024 07:00:00,27.1594,78.3953,PM2.5,NA,NA,NA
India,Uttar_Pradesh,Ghaziabad,"Indirapuram, Ghaziabad - UPPCB",24-08-2024 07:00:00,28.646233,77.358075,PM10,26,157,96
India,Uttar_Pradesh,Ghaziabad,"Indirapuram, Ghaziabad - UPPCB",24-08-2024 07:00:00,28.646233,77.358075,NO2,34,72,48
India,Uttar_Pradesh,Ghaziabad,"Indirapuram, Ghaziabad - UPPCB",24-08-2024 07:00:00,28.646233,77.358075,CO,30,92,50
India,Uttar_Pradesh,Ghaziabad,"Indirapuram, Ghaziabad - UPPCB",24-08-2024 07:00:00,28.646233,77.358075,OZONE,2,47,6
India,Uttar_Pradesh,Ghaziabad,"Loni, Ghaziabad - UPPCB",24-08-2024 07:00:00,28.757294,77.278792,PM2.5,12,123,67
India,Uttar_Pradesh,Ghaziabad,"Loni, Ghaziabad - UPPCB",24-08-2024 07:00:00,28.757294,77.278792,SO2,2,7,5
India,Uttar_Pradesh,Ghaziabad,"Sanjay Nagar, Ghaziabad - UPPCB",24-08-2024 07:00:00,28.685382,77.453839,PM2.5,17,100,49
India,Uttar_Pradesh,Ghaziabad,"Sanjay Nagar, Ghaziabad - UPPCB",24-08-2024 07:00:00,28.685382,77.453839,PM10,18,131,76
India,Uttar_Pradesh,Ghaziabad,"Sanjay Nagar, Ghaziabad - UPPCB",24-08-2024 07:00:00,28.685382,77.453839,NH3,4,17,8
India,Uttar_Pradesh,Ghaziabad,"Sanjay Nagar, Ghaziabad - UPPCB",24-08-2024 07:00:00,28.685382,77.453839,OZONE,6,54,11
India,Uttar_Pradesh,Greater Noida,"Knowledge Park - III, Greater Noida - UPPCB",24-08-2024 07:00:00,28.47272,77.482000,PM10,32,194,126
India,Uttar_Pradesh,Greater Noida,"Knowledge Park - III, Greater Noida - UPPCB",24-08-2024 07:00:00,28.47272,77.482000,CO,28,105,63
India,Uttar_Pradesh,Greater Noida,"Knowledge Park - V, Greater Noida - UPPCB",24-08-2024 07:00:00,28.557054,77.453663,SO2,5,13,8
India,Uttar_Pradesh,Greater Noida,"Knowledge Park - V, Greater Noida - UPPCB",24-08-2024 07:00:00,28.557054,77.453663,OZONE,1,46,6
India,Uttar_Pradesh,Hapur,"Anand Vihar, Hapur - UPPCB",24-08-2024 07:00:00,28.725645,77.749675,NH3,4,6,5
India,Uttar_Pradesh,Hapur,"Anand Vihar, Hapur - UPPCB",24-08-2024 07:00:00,28.725645,77.749675,SO2,21,45,32
India,Uttar_Pradesh,Jhansi,"Shivaji Nagar, Jhansi - UPPCB",24-08-2024 07:00:00,25.4547,78.6039,PM2.5,18,67,41
India,Uttar_Pradesh,Jhansi,"Shivaji Nagar, Jhansi - UPPCB",24-08-2024 07:00:00,25.4547,78.6039,OZONE,13,37,31
India,Uttar_Pradesh,Kanpur,"FTI Kidwai Nagar, Kanpur - UPPCB",24-08-2024 07:00:00,26.428282,80.327067,NO2,14,14,14
India,Uttar_Pradesh,Kanpur,"NSI Kalyanpur, Kanpur - UPPCB",24-08-2024 07:00:00,26.509954,80.249612,CO,33,50,40
India,Uttar_Pradesh,Kanpur,"NSI Kalyanpur, Kanpur - UPPCB",24-08-2024 07:00:00,26.509954,80.249612,OZONE,15,68,51
India,Uttar_Pradesh,Kanpur,"Nehru Nagar, Kanpur - UPPCB",24-08-2024 07:00:00,26.4703136,80.3229863,PM2.5,27,86,50
India,Uttar_Pradesh,Kanpur,"Nehru Nagar, Kanpur - UPPCB",24-08-2024 07:00:00,26.4703136,80.3229863,CO,42,78,52
India,Uttar_Pradesh,Lucknow,"B R Ambedkar University, Lucknow - UPPCB",24-08-2024 07:00:00,26.766433,80.927299,CO,10,14,12
India,Uttar_Pradesh,Lucknow,"Gomti Nagar, Lucknow - UPPCB",24-08-2024 07:00:00,26.868120,81.005119,PM10,12,58,39
India,Uttar_Pradesh,Lucknow,"Gomti Nagar, Lucknow - UPPCB",24-08-2024 07:00:00,26.868120,81.005119,NO2,9,10,9
India,Uttar_Pradesh,Lucknow,"Gomti Nagar, Lucknow - UPPCB",24-08-2024 07:00:00,26.868120,81.005119,SO2,7,13,10
India,Uttar_Pradesh,Meerut,"Ganga Nagar, Meerut - UPPCB",24-08-2024 07:00:00,28.999264,77.7590354,PM2.5,27,68,48
India,Uttar_Pradesh,Meerut,"Ganga Nagar, Meerut - UPPCB",24-08-2024 07:00:00,28.999264,77.7590354,CO,40,54,48
India,Uttar_Pradesh,Meerut,"Jai Bhim Nagar, Meerut - UPPCB",24-08-2024 07:00:00,28.9535882,77.7622941,NO2,14,29,20
India,Uttar_Pradesh,Meerut,"Jai Bhim Nagar, Meerut - UPPCB",24-08-2024 07:00:00,28.9535882,77.7622941,SO2,3,5,4
India,Uttar_Pradesh,Meerut,"Jai Bhim Nagar, Meerut - UPPCB",24-08-2024 07:00:00,28.9535882,77.7622941,OZONE,13,66,22
India,Uttar_Pradesh,Meerut,"Pallavpuram Phase 2, Meerut - UPPCB",24-08-2024 07:00:00,29.063510,77.709723,SO2,4,12,10
India,Uttar_Pradesh,Moradabad,"Buddhi Vihar, Moradabad - UPPCB",24-08-2024 07:00:00,28.83526,78.74460,SO2,20,28,24
India,Uttar_Pradesh,Moradabad,"Buddhi Vihar, Moradabad - UPPCB",24-08-2024 07:00:00,28.83526,78.74460,OZONE,6,14,7
India,Uttar_Pradesh,Moradabad,"Eco Herbal Park, Moradabad - UPPCB",24-08-2024 07:00:00,28.840739,78.697531,PM10,17,80,46
India,Uttar_Pradesh,Moradabad,"Eco Herbal Park, Moradabad - UPPCB",24-08-2024 07:00:00,28.840739,78.697531,NO2,7,29,15
India,Uttar_Pradesh,Moradabad,"Eco Herbal Park, Moradabad - UPPCB",24-08-2024 07:00:00,28.840739,78.697531,NH3,6,20,9
India,Uttar_Pradesh,Moradabad,"Employment Office, Moradabad - UPPCB",24-08-2024 07:00:00,28.88528,78.73880,PM10,20,62,42
India,Uttar_Pradesh,Moradabad,"Jigar Colony, Moradabad - UPPCB",24-08-2024 07:00:00,28.856664,78.772638,CO,3,103,24
India,Uttar_Pradesh,Moradabad,"Jigar Colony, Moradabad - UPPCB",24-08-2024 07:00:00,28.856664,78.772638,OZONE,9,27,10
India,Uttar_Pradesh,Moradabad,"Kashiram Nagar, Moradabad - UPPCB",24-08-2024 07:00:00,28.849399,78.742362,PM2.5,24,58,37
India,Uttar_Pradesh,Moradabad,"Kashiram Nagar, Moradabad - UPPCB",24-08-2024 07:00:00,28.849399,78.742362,CO,16,30,23
India,Uttar_Pradesh,Moradabad,"Transport Nagar, Moradabad - UPPCB",24-08-2024 07:00:00,28.802625,78.753728,NH3,5,6,5
India,Uttar_Pradesh,Moradabad,"Transport Nagar, Moradabad - UPPCB",24-08-2024 07:00:00,28.802625,78.753728,CO,38,40,39
India,Uttar_Pradesh,Muzaffarnagar,"New Mandi, Muzaffarnagar - UPPCB",24-08-2024 07:00:00,29.4723508,77.7194031,NH3,8,9,8
India,Uttar_Pradesh,Muzaffarnagar,"New Mandi, Muzaffarnagar - UPPCB",24-08-2024 07:00:00,29.4723508,77.7194031,OZONE,2,45,6
India,Uttar_Pradesh,Noida,"Sector - 62, Noida - IMD",24-08-2024 07:00:00,28.6245479,77.3577104,NO2,10,16,12
India,Uttar_Pradesh,Noida,"Sector - 62, Noida - IMD",24-08-2024 07:00:00,28.6245479,77.3577104,CO,40,90,72
India,Uttar_Pradesh,Noida,"Sector-1, Noida - UPPCB",24-08-2024 07:00:00,28.5898,77.3101,NH3,4,7,6
India,Uttar_Pradesh,Noida,"Sector-116, Noida - UPPCB",24-08-2024 07:00:00,28.569230,77.393848,NO2,NA,NA,NA
India,Uttar_Pradesh,Prayagraj,"Motilal Nehru NIT, Prayagraj - UPPCB",24-08-2024 07:00:00,25.494,81.863,NO2,12,12,12
India,Uttar_Pradesh,Prayagraj,"Motilal Nehru NIT, Prayagraj - UPPCB",24-08-2024 07:00:00,25.494,81.863,SO2,18,44,38
India,Uttar_Pradesh,Varanasi,"Ardhali Bazar, Varanasi - UPPCB",24-08-2024 07:00:00,25.3505986,82.9083074,OZONE,14,25,21
India,Uttar_Pradesh,Varanasi,"Maldahiya, Varanasi - UPPCB",24-08-2024 07:00:00,25.32393,82.99687,NH3,1,1,1
India,Uttar_Pradesh,Varanasi,"Maldahiya, Varanasi - UPPCB",24-08-2024 07:00:00,25.32393,82.99687,OZONE,1,3,3
India,Uttar_Pradesh,Vrindavan,"Omex Eternity, Vrindavan - UPPCB",24-08-2024 07:00:00,27.5714090,77.6557570,SO2,17,25,19
India,Uttarakhand,Rishikesh,"Shivaji Nagar, Rishikesh - UKPCB",24-08-2024 07:00:00,30.075911,78.2859547,PM10,20,51,37
India,West_Bengal,Asansol,"Asansol Court Area, Asansol - WBPCB",24-08-2024 07:00:00,23.685297,86.945968,PM2.5,20,124,54
India,West_Bengal,Asansol,"Asansol Court Area, Asansol - WBPCB",24-08-2024 07:00:00,23.685297,86.945968,NH3,6,9,6
India,West_Bengal,Asansol,"Asansol Court Area, Asansol - WBPCB",24-08-2024 07:00:00,23.685297,86.945968,SO2,9,16,13
India,West_Bengal,Asansol,"Asansol Court Area, Asansol - WBPCB",24-08-2024 07:00:00,23.685297,86.945968,OZONE,11,39,12
India,West_Bengal,Asansol,"Trivenidevi Bhalotia College, Asansol - WBPCB",24-08-2024 07:00:00,23.616515,87.119133,SO2,43,57,48
India,West_Bengal,Durgapur,"PCBL Residential Complex, Durgapur - WBPCB",24-08-2024 07:00:00,23.5087640,87.3544400,PM2.5,NA,NA,NA
India,West_Bengal,Durgapur,"Sidhu Kanhu Indoor Stadium, Durgapur - WBPCB",24-08-2024 07:00:00,23.5404352,87.2892225,PM2.5,24,107,55
India,West_Bengal,Durgapur,"Sidhu Kanhu Indoor Stadium, Durgapur - WBPCB",24-08-2024 07:00:00,23.5404352,87.2892225,OZONE,5,28,8
India,West_Bengal,Haldia,"Priyambada Housing Estate, Haldia - WBPCB",24-08-2024 07:00:00,22.06047,88.109737,NH3,1,4,3
India,West_Bengal,Haldia,"Priyambada Housing Estate, Haldia - WBPCB",24-08-2024 07:00:00,22.06047,88.109737,CO,31,50,36
India,West_Bengal,Howrah,"Botanical Garden, Howrah - WBPCB",24-08-2024 07:00:00,22.554954,88.292568,NO2,14,42,20
India,West_Bengal,Howrah,"Botanical Garden, Howrah - WBPCB",24-08-2024 07:00:00,22.554954,88.292568,OZONE,5,31,15
India,West_Bengal,Howrah,"Ghusuri, Howrah - WBPCB",24-08-2024 07:00:00,22.611968,88.347422,SO2,4,6,5
India,West_Bengal,Howrah,"Ghusuri, Howrah - WBPCB",24-08-2024 07:00:00,22.611968,88.347422,CO,2,32,10
India,West_Bengal,Kolkata,"Ballygunge, Kolkata - WBPCB",24-08-2024 07:00:00,22.5367507,88.3638022,NO2,19,69,50
India,West_Bengal,Kolkata,"Ballygunge, Kolkata - WBPCB",24-08-2024 07:00:00,22.5367507,88.3638022,CO,19,42,26
India,West_Bengal,Kolkata,"Bidhannagar, Kolkata - WBPCB",24-08-2024 07:00:00,22.58157048,88.41002457,PM2.5,19,79,42
India,West_Bengal,Kolkata,"Jadavpur, Kolkata - WBPCB",24-08-2024 07:00:00,22.49929,88.36917,PM2.5,18,37,28
India,West_Bengal,Kolkata,"Rabindra Bharati University, Kolkata - WBPCB",24-08-2024 07:00:00,22.627847,88.380669,PM10,24,46,37
India,West_Bengal,Kolkata,"Rabindra Bharati University, Kolkata - WBPCB",24-08-2024 07:00:00,22.627847,88.380669,NO2,16,23,18
India,West_Bengal,Kolkata,"Rabindra Bharati University, Kolkata - WBPCB",24-08-2024 07:00:00,22.627847,88.380669,SO2,8,14,10
India,West_Bengal,Siliguri,"Ward-32 Bapupara, Siliguri - WBPCB",24-08-2024 07:00:00,26.6879226,88.4152495,PM10,24,58,38
India,West_Bengal,Siliguri,"Ward-32 Bapupara, Siliguri - WBPCB",24-08-2024 07:00:00,26.6879226,88.4152495,NO2,18,19,19
India,Andhra_Pradesh,Amaravati,"Secretariat, Amaravati - APPCB",24-08-2024 07:00:00,16.5150833,80.5181667,NH3,1,2,2
India,Andhra_Pradesh,Kadapa,"Yerramukkapalli, Kadapa - APPCB",24-08-2024 07:00:00,14.465052,78.824187,PM2.5,NA,NA,NA
India,Andhra_Pradesh,Kadapa,"Yerramukkapalli, Kadapa - APPCB",24-08-2024 07:00:00,14.465052,78.824187,PM10,NA,NA,NA
India,Andhra_Pradesh,Tirupati,"Tirumala, Tirupati - APPCB",24-08-2024 07:00:00,13.67,79.35,PM10,28,42,34
India,Andhra_Pradesh,Tirupati,"Tirumala, Tirupati - APPCB",24-08-2024 07:00:00,13.67,79.35,NH3,1,2,1
India,Andhra_Pradesh,Tirupati,"Vaikuntapuram, Tirupati - APPCB",24-08-2024 07:00:00,13.615387,79.409230,NH3,2,3,3
India,Andhra_Pradesh,Tirupati,"Vaikuntapuram, Tirupati - APPCB",24-08-2024 07:00:00,13.615387,79.409230,OZONE,31,51,40
India,Andhra_Pradesh,Vijayawada,"HB Colony, Vijayawada - APPCB",24-08-2024 07:00:00,16.536107,80.594233,SO2,4,5,5
India,Andhra_Pradesh,Vijayawada,"Kanuru, Vijayawada - APPCB",24-08-2024 07:00:00,16.486692,80.699436,SO2,7,8,7
India,Andhra_Pradesh,Vijayawada,"Rajiv Gandhi Park, Vijayawada - APPCB",24-08-2024 07:00:00,16.509717,80.612222,NO2,16,44,34
India,Andhra_Pradesh,Vijayawada,"Rajiv Nagar, Vijayawada - APPCB",24-08-2024 07:00:00,16.554731,80.649110,OZONE,14,65,15
India,Andhra_Pradesh,Visakhapatnam,"GVM Corporation, Visakhapatnam - APPCB",24-08-2024 07:00:00,17.72,83.3,PM2.5,18,101,44
India,Andhra_Pradesh,Visakhapatnam,"GVM Corporation, Visakhapatnam - APPCB",24-08-2024 07:00:00,17.72,83.3,NO2,40,50,44
India,Andhra_Pradesh,Visakhapatnam,"GVM Corporation, Visakhapatnam - APPCB",24-08-2024 07:00:00,17.72,83.3,CO,2,118,8
India,Andhra_Pradesh,Visakhapatnam,"GVM Corporation, Visakhapatnam - APPCB",24-08-2024 07:00:00,17.72,83.3,OZONE,9,21,12
India,Arunachal_Pradesh,Naharlagun,"Naharlagun, Naharlagun - APSPCB",24-08-2024 07:00:00,27.103358,93.679645,PM10,NA,NA,NA
India,Assam,Byrnihat,"Central Academy for SFS, Byrnihat - PCBA",24-08-2024 07:00:00,26.071318,91.87488,NO2,9,50,18
India,Assam,Guwahati,"IITG, Guwahati - PCBA",24-08-2024 07:00:00,26.2028636,91.70046436,NH3,5,5,5
India,Assam,Guwahati,"LGBI Airport, Guwahati - PCBA",24-08-2024 07:00:00,26.10887,91.589544,NO2,5,20,12
India,Assam,Guwahati,"LGBI Airport, Guwahati - PCBA",24-08-2024 07:00:00,26.10887,91.589544,NH3,1,4,2
India,Assam,Guwahati,"Pan Bazaar, Guwahati - PCBA",24-08-2024 07:00:00,26.187500,91.744194,PM2.5,9,49,27
India,Assam,Guwahati,"Pan Bazaar, Guwahati - PCBA",24-08-2024 07:00:00,26.187500,91.744194,NO2,NA,NA,NA
India,Assam,Guwahati,"Railway Colony, Guwahati - PCBA",24-08-2024 07:00:00,26.181742,91.78063,NO2,3,4,3
India,Assam,Guwahati,"Railway Colony, Guwahati - PCBA",24-08-2024 07:00:00,26.181742,91.78063,CO,20,36,28
India,Assam,Nagaon,"Christianpatty, Nagaon - PCBA",24-08-2024 07:00:00,26.349082,92.68449,PM10,10,33,24
India,Assam,Nalbari,"Bata Chowk, Nalbari - PCBA",24-08-2024 07:00:00,26.446912,91.439057,NO2,7,53,17
India,Assam,Nalbari,"Bata Chowk, Nalbari - PCBA",24-08-2024 07:00:00,26.446912,91.439057,CO,8,42,31
India,Assam,Silchar,"Tarapur, Silchar - PCBA",24-08-2024 07:00:00,24.82827,92.79525,NO2,7,12,10
India,Assam,Silchar,"Tarapur, Silchar - PCBA",24-08-2024 07:00:00,24.82827,92.79525,SO2,4,5,4
India,Assam,Silchar,"Tarapur, Silchar - PCBA",24-08-2024 07:00:00,24.82827,92.79525,OZONE,1,4,1
India,Assam,Sivasagar,"Girls College, Sivasagar - PCBA",24-08-2024 07:00:00,26.987634,94.636574,OZONE,1,6,1
India,Bihar,Araria,"Kharahiya Basti, Araria - BSPCB",24-08-2024 07:00:00,26.146529,87.454184,NO2,6,7,7
India,Bihar,Araria,"Kharahiya Basti, Araria - BSPCB",24-08-2024 07:00:00,26.146529,87.454184,OZONE,7,35,10
India,Bihar,Aurangabad,"Gurdeo Nagar, Aurangabad - BSPCB",24-08-2024 07:00:00,24.75746,84.366208,NO2,11,11,11
India,Bihar,Begusarai,"Lohiyanagar, Begusarai - BSPCB (Formerly known as DRCC Anandpur)",24-08-2024 07:00:00,25.42742023,86.13886079,NH3,8,10,10
India,Bihar,Bettiah,"Kamalnath Nagar, Bettiah - BSPCB",24-08-2024 07:00:00,26.80365,84.51954,PM10,NA,NA,NA
India,Bihar,Bettiah,"Kamalnath Nagar, Bettiah - BSPCB",24-08-2024 07:00:00,26.80365,84.51954,OZONE,3,15,4
India,Bihar,Bhagalpur,"Mayaganj, Bhagalpur - BSPCB",24-08-2024 07:00:00,25.265194,87.012947,CO,21,56,29
India,Bihar,Bihar Sharif,"D M Colony, Bihar Sharif - BSPCB",24-08-2024 07:00:00,25.204762,85.514960,SO2,2,6,4
India,Bihar,Buxar,"Charitra Van, Buxar - BSPCB (Formerly known as Central Jail)",24-08-2024 07:00:00,25.567520,83.966379,NO2,4,5,5
India,Bihar,Buxar,"Charitra Van, Buxar - BSPCB (Formerly known as Central Jail)",24-08-2024 07:00:00,25.567520,83.966379,SO2,2,6,3
India,Bihar,Buxar,"Charitra Van, Buxar - BSPCB (Formerly known as Central Jail)",24-08-2024 07:00:00,25.567520,83.966379,CO,43,72,45
India,Bihar,Gaya,"Collectorate, Gaya - BSPCB",24-08-2024 07:00:00,24.7955,84.9994,PM2.5,2,263,80
India,Bihar,Gaya,"Collectorate, Gaya - BSPCB",24-08-2024 07:00:00,24.7955,84.9994,OZONE,19,21,20
India,Bihar,Gaya,"Kareemganj, Gaya - BSPCB",24-08-2024 07:00:00,24.792403,84.992416,NO2,16,26,20
India,Bihar,Gaya,"Kareemganj, Gaya - BSPCB",24-08-2024 07:00:00,24.792403,84.992416,SO2,5,13,9
India,Bihar,Gaya,"Kareemganj, Gaya - BSPCB",24-08-2024 07:00:00,24.792403,84.992416,OZONE,6,93,20
India,Bihar,Gaya,"SFTI Kusdihra, Gaya - BSPCB",24-08-2024 07:00:00,24.762518,84.982348,CO,12,40,35
India,Bihar,Hajipur,"Industrial Area, Hajipur - BSPCB",24-08-2024 07:00:00,25.697189,85.245900,OZONE,5,61,37
India,Bihar,Katihar,"Mirchaibari, Katihar - BSPCB",24-08-2024 07:00:00,25.560083,87.553265,NO2,2,9,8
India,Bihar,Katihar,"Mirchaibari, Katihar - BSPCB",24-08-2024 07:00:00,25.560083,87.553265,CO,32,36,35
India,Bihar,Kishanganj,"SDM Office_Khagra, Kishanganj - BSPCB",24-08-2024 07:00:00,26.0881305,87.93840336,PM2.5,NA,NA,NA
India,Bihar,Kishanganj,"SDM Office_Khagra, Kishanganj - BSPCB",24-08-2024 07:00:00,26.0881305,87.93840336,NO2,22,34,30
India,Bihar,Kishanganj,"SDM Office_Khagra, Kishanganj - BSPCB",24-08-2024 07:00:00,26.0881305,87.93840336,NH3,7,10,8
India,Bihar,Kishanganj,"SDM Office_Khagra, Kishanganj - BSPCB",24-08-2024 07:00:00,26.0881305,87.93840336,CO,4,6,6
India,Bihar,Motihari,"Gandak Colony, Motihari - BSPCB",24-08-2024 07:00:00,26.63086,84.90051,PM2.5,7,88,30
India,Bihar,Motihari,"Gandak Colony, Motihari - BSPCB",24-08-2024 07:00:00,26.63086,84.90051,SO2,2,76,27
India,Bihar,Munger,"Town Hall, Munger - BSPCB",24-08-2024 07:00:00,25.376776,86.471523,PM2.5,NA,NA,NA
India,Bihar,Munger,"Town Hall, Munger - BSPCB",24-08-2024 07:00:00,25.376776,86.471523,CO,NA,NA,NA
India,Bihar,Muzaffarpur,"Buddha Colony, Muzaffarpur - BSPCB",24-08-2024 07:00:00,26.11442,85.39813,NO2,4,11,7
India,Bihar,Muzaffarpur,"Buddha Colony, Muzaffarpur - BSPCB",24-08-2024 07:00:00,26.11442,85.39813,SO2,2,5,4
India,Bihar,Muzaffarpur,"Muzaffarpur Collectorate, Muzaffarpur - BSPCB",24-08-2024 07:00:00,26.1209,85.3647,PM2.5,14,72,29
India,Bihar,Patna,"Govt. High School Shikarpur, Patna - BSPCB",24-08-2024 07:00:00,25.592539,85.227158,PM2.5,7,54,29
India,Bihar,Patna,"Govt. High School Shikarpur, Patna - BSPCB",24-08-2024 07:00:00,25.592539,85.227158,NH3,4,5,5
India,Bihar,Patna,"Govt. High School Shikarpur, Patna - BSPCB",24-08-2024 07:00:00,25.592539,85.227158,CO,48,70,55
India,Bihar,Patna,"IGSC Planetarium Complex, Patna - BSPCB",24-08-2024 07:00:00,25.610369,85.132568,CO,NA,NA,NA
India,Bihar,Patna,"Muradpur, Patna - BSPCB",24-08-2024 07:00:00,25.619651,85.147382,NO2,8,17,11
India,Bihar,Patna,"Rajbansi Nagar, Patna - BSPCB",24-08-2024 07:00:00,25.599486,85.113666,CO,16,46,18
India,Bihar,Patna,"Samanpura, Patna - BSPCB",24-08-2024 07:00:00,25.596727,85.085624,NH3,10,18,13
India,Bihar,Patna,"Samanpura, Patna - BSPCB",24-08-2024 07:00:00,25.596727,85.085624,SO2,2,5,3
India,Bihar,Patna,"Samanpura, Patna - BSPCB",24-08-2024 07:00:00,25.596727,85.085624,OZONE,23,92,63
India,Bihar,Purnia,"Mariam Nagar, Purnia - BSPCB",24-08-2024 07:00:00,25.366336,87.117468,NH3,2,11,5
India,Bihar,Purnia,"Mariam Nagar, Purnia - BSPCB",24-08-2024 07:00:00,25.366336,87.117468,CO,6,86,35
India,Bihar,Rajgir,"Dangi Tola, Rajgir - BSPCB",24-08-2024 07:00:00,25.03280,85.41948,NO2,2,3,3
India,Bihar,Saharsa,"Police Line, Saharsa - BSPCB",24-08-2024 07:00:00,25.892357,86.590325,CO,56,65,57
India,Bihar,Samastipur,"DM Office_Kasipur, Samastipur - BSPCB",24-08-2024 07:00:00,25.859655,85.77944,SO2,12,37,23
India,Bihar,Sasaram,"Dada Peer, Sasaram - BSPCB",24-08-2024 07:00:00,24.952822,84.002396,OZONE,7,14,10
India,Bihar,Siwan,"Chitragupta Nagar, Siwan - BSPCB",24-08-2024 07:00:00,26.2271665,84.3570427,NH3,3,4,3
India,Chandigarh,Chandigarh,"Sector-25, Chandigarh - CPCC",24-08-2024 07:00:00,30.751462,76.762879,NO2,NA,NA,NA
India,Chandigarh,Chandigarh,"Sector-25, Chandigarh - CPCC",24-08-2024 07:00:00,30.751462,76.762879,CO,NA,NA,NA
India,Chandigarh,Chandigarh,"Sector-53, Chandigarh - CPCC",24-08-2024 07:00:00,30.719859,76.738637,PM2.5,12,137,61
India,Chandigarh,Chandigarh,"Sector-53, Chandigarh - CPCC",24-08-2024 07:00:00,30.719859,76.738637,NH3,2,5,4
India,Chandigarh,Chandigarh,"Sector-53, Chandigarh - CPCC",24-08-2024 07:00:00,30.719859,76.738637,SO2,2,8,6
India,Chandigarh,Chandigarh,"Sector-53, Chandigarh - CPCC",24-08-2024 07:00:00,30.719859,76.738637,CO,34,80,47
India,Chandigarh,Chandigarh,"Sector-53, Chandigarh - CPCC",24-08-2024 07:00:00,30.719859,76.738637,OZONE,3,56,13
India,Chhattisgarh,Bhilai,"32Bungalows, Bhilai - CECB",24-08-2024 07:00:00,21.194815,81.314770,PM10,13,34,24
India,Chhattisgarh,Bhilai,"32Bungalows, Bhilai - CECB",24-08-2024 07:00:00,21.194815,81.314770,NO2,5,7,6
India,Chhattisgarh,Bilaspur,"Mangala, Bilaspur - NTPC",24-08-2024 07:00:00,22.08815,82.13737,NO2,6,10,7
India,Chhattisgarh,Chhal,"Nawapara SECL Colony, Chhal - CECB",24-08-2024 07:00:00,22.118125,83.140608,PM2.5,9,32,16
India,Chhattisgarh,Korba,"Rampur, Korba - CECB",24-08-2024 07:00:00,22.368195,82.746431,SO2,7,11,9
India,Chhattisgarh,Korba,"Rampur, Korba - CECB",24-08-2024 07:00:00,22.368195,82.746431,CO,28,36,30
India,Chhattisgarh,Korba,"Rampur, Korba - CECB",24-08-2024 07:00:00,22.368195,82.746431,OZONE,4,5,4
India,Chhattisgarh,Korba,"Urja Nagar, Korba - CECB",24-08-2024 07:00:00,22.348441,82.549611,CO,NA,NA,NA
India,Chhattisgarh,Kunjemura,"OP Jindal School, Kunjemura - CECB",24-08-2024 07:00:00,22.126650,83.483212,NO2,5,53,19
India,Chhattisgarh,Raipur,"AIIMS, Raipur - CECB",24-08-2024 07:00:00,21.258815,81.578979,PM2.5,5,19,11
India,Chhattisgarh,Raipur,"AIIMS, Raipur - CECB",24-08-2024 07:00:00,21.258815,81.578979,SO2,3,6,4
India,Chhattisgarh,Raipur,"AIIMS, Raipur - CECB",24-08-2024 07:00:00,21.258815,81.578979,CO,14,23,16
India,Chhattisgarh,Raipur,"Bhatagaon New ISBT, Raipur - CECB",24-08-2024 07:00:00,21.219665,81.630094,CO,14,28,17
India,Chhattisgarh,Raipur,"Siltara Phase-II, Raipur - CECB",24-08-2024 07:00:00,21.371751,81.664929,PM10,22,91,53
India,Chhattisgarh,Raipur,"Siltara Phase-II, Raipur - CECB",24-08-2024 07:00:00,21.371751,81.664929,NO2,7,12,9
India,Delhi,Delhi,"Alipur, Delhi - DPCC",24-08-2024 07:00:00,28.815329,77.153010,SO2,3,6,4
India,Delhi,Delhi,"Alipur, Delhi - DPCC",24-08-2024 07:00:00,28.815329,77.153010,OZONE,12,25,25
India,Delhi,Delhi,"Ashok Vihar, Delhi - DPCC",24-08-2024 07:00:00,28.695381,77.181665,PM2.5,20,92,58
India,Delhi,Delhi,"Aya Nagar, Delhi - IMD",24-08-2024 07:00:00,28.4706914,77.1099364,CO,28,98,88
India,Delhi,Delhi,"Aya Nagar, Delhi - IMD",24-08-2024 07:00:00,28.4706914,77.1099364,OZONE,7,46,20
India,Delhi,Delhi,"Bawana, Delhi - DPCC",24-08-2024 07:00:00,28.776200,77.051074,PM2.5,33,113,63
India,Delhi,Delhi,"Bawana, Delhi - DPCC",24-08-2024 07:00:00,28.776200,77.051074,PM10,31,111,78
India,Delhi,Delhi,"Bawana, Delhi - DPCC",24-08-2024 07:00:00,28.776200,77.051074,SO2,12,27,21
India,Delhi,Delhi,"Bawana, Delhi - DPCC",24-08-2024 07:00:00,28.776200,77.051074,CO,78,112,91
India,Delhi,Delhi,"Burari Crossing, Delhi - IMD",24-08-2024 07:00:00,28.7256504,77.2011573,NO2,7,31,26
India,Delhi,Delhi,"Chandni Chowk, Delhi - IITM",24-08-2024 07:00:00,28.656756,77.227234,PM2.5,42,42,42
India,Delhi,Delhi,"DTU, Delhi - CPCB",24-08-2024 07:00:00,28.7500499,77.1112615,SO2,41,48,44
India,Delhi,Delhi,"DTU, Delhi - CPCB",24-08-2024 07:00:00,28.7500499,77.1112615,CO,19,46,38
India,Delhi,Delhi,"Dr. Karni Singh Shooting Range, Delhi - DPCC",24-08-2024 07:00:00,28.498571,77.264840,PM10,45,154,99
India,Delhi,Delhi,"Dwarka-Sector 8, Delhi - DPCC ",24-08-2024 07:00:00,28.5710274,77.0719006,PM2.5,13,280,88
India,Delhi,Delhi,"Dwarka-Sector 8, Delhi - DPCC ",24-08-2024 07:00:00,28.5710274,77.0719006,OZONE,13,110,23
India,Delhi,Delhi,"IGI Airport (T3), Delhi - IMD",24-08-2024 07:00:00,28.5627763,77.1180053,CO,21,73,55
India,Delhi,Delhi,"IHBAS, Dilshad Garden, Delhi - CPCB",24-08-2024 07:00:00,28.6811736,77.3025234,NO2,35,96,61
India,Delhi,Delhi,"IHBAS, Dilshad Garden, Delhi - CPCB",24-08-2024 07:00:00,28.6811736,77.3025234,NH3,1,4,3
India,Delhi,Delhi,"Jahangirpuri, Delhi - DPCC",24-08-2024 07:00:00,28.732820,77.170633,PM2.5,15,160,65
India,Delhi,Delhi,"Jahangirpuri, Delhi - DPCC",24-08-2024 07:00:00,28.732820,77.170633,NH3,1,1,1
India,Delhi,Delhi,"Jawaharlal Nehru Stadium, Delhi - DPCC",24-08-2024 07:00:00,28.580280,77.233829,CO,44,102,84
India,Delhi,Delhi,"Lodhi Road, Delhi - IMD",24-08-2024 07:00:00,28.5918245,77.2273074,OZONE,10,30,16
India,Delhi,Delhi,"Mandir Marg, Delhi - DPCC",24-08-2024 07:00:00,28.636429,77.201067,PM10,3,122,66
India,Delhi,Delhi,"Mandir Marg, Delhi - DPCC",24-08-2024 07:00:00,28.636429,77.201067,NO2,22,53,34
India,Delhi,Delhi,"Mandir Marg, Delhi - DPCC",24-08-2024 07:00:00,28.636429,77.201067,OZONE,2,25,2
India,Delhi,Delhi,"Mundka, Delhi - DPCC",24-08-2024 07:00:00,28.684678,77.076574,PM10,24,245,103
India,Delhi,Delhi,"Najafgarh, Delhi - DPCC",24-08-2024 07:00:00,28.570173,76.933762,PM10,14,119,62
India,Delhi,Delhi,"Najafgarh, Delhi - DPCC",24-08-2024 07:00:00,28.570173,76.933762,NH3,4,13,5
India,Delhi,Delhi,"Narela, Delhi - DPCC",24-08-2024 07:00:00,28.822836,77.101981,PM2.5,10,191,62
India,Delhi,Delhi,"Narela, Delhi - DPCC",24-08-2024 07:00:00,28.822836,77.101981,NH3,8,18,9
India,Delhi,Delhi,"Nehru Nagar, Delhi - DPCC",24-08-2024 07:00:00,28.567890,77.250515,NH3,5,6,5
India,Delhi,Delhi,"Okhla Phase-2, Delhi - DPCC",24-08-2024 07:00:00,28.530785,77.271255,PM2.5,18,107,60
India,Delhi,Delhi,"Okhla Phase-2, Delhi - DPCC",24-08-2024 07:00:00,28.530785,77.271255,CO,35,102,78
India,Delhi,Delhi,"Okhla Phase-2, Delhi - DPCC",24-08-2024 07:00:00,28.530785,77.271255,OZONE,17,257,197
India,Delhi,Delhi,"Patparganj, Delhi - DPCC",24-08-2024 07:00:00,28.623763,77.287209,PM10,22,152,92
India,Delhi,Delhi,"Patparganj, Delhi - DPCC",24-08-2024 07:00:00,28.623763,77.287209,NH3,4,9,6
India,Delhi,Delhi,"Punjabi Bagh, Delhi - DPCC",24-08-2024 07:00:00,28.674045,77.131023,CO,34,75,49
India,Delhi,Delhi,"Pusa, Delhi - IMD",24-08-2024 07:00:00,28.636110,77.173332,PM10,9,115,72
India,Delhi,Delhi,"R K Puram, Delhi - DPCC",24-08-2024 07:00:00,28.563262,77.186937,CO,10,96,59
India,Delhi,Delhi,"R K Puram, Delhi - DPCC",24-08-2024 07:00:00,28.563262,77.186937,OZONE,16,123,50
India,Delhi,Delhi,"Rohini, Delhi - DPCC",24-08-2024 07:00:00,28.732528,77.119920,NH3,7,11,9
India,Delhi,Delhi,"Sirifort, Delhi - CPCB",24-08-2024 07:00:00,28.5504249,77.2159377,NO2,2,61,36
India,Delhi,Delhi,"Sirifort, Delhi - CPCB",24-08-2024 07:00:00,28.5504249,77.2159377,NH3,12,17,15
India,Delhi,Delhi,"Sonia Vihar, Delhi - DPCC",24-08-2024 07:00:00,28.710508,77.249485,PM2.5,18,97,56
India,Delhi,Delhi,"Sonia Vihar, Delhi - DPCC",24-08-2024 07:00:00,28.710508,77.249485,NH3,7,8,7
India,Delhi,Delhi,"Vivek Vihar, Delhi - DPCC",24-08-2024 07:00:00,28.672342,77.315260,PM2.5,28,234,77
India,Delhi,Delhi,"Vivek Vihar, Delhi - DPCC",24-08-2024 07:00:00,28.672342,77.315260,NH3,15,19,17
India,Delhi,Delhi,"Vivek Vihar, Delhi - DPCC",24-08-2024 07:00:00,28.672342,77.315260,OZONE,10,85,12
India,Delhi,Delhi,"Wazirpur, Delhi - DPCC",24-08-2024 07:00:00,28.699793,77.165453,OZONE,14,34,22
India,Gujarat,Ahmedabad,"Chandkheda, Ahmedabad - IITM",24-08-2024 07:00:00,23.107969,72.574648,SO2,6,14,10
India,Gujarat,Ahmedabad,"Chandkheda, Ahmedabad - IITM",24-08-2024 07:00:00,23.107969,72.574648,CO,34,48,37
India,Gujarat,Ahmedabad,"Gyaspur, Ahmedabad - IITM",24-08-2024 07:00:00,22.977134,72.553024,PM2.5,9,152,52
India,Gujarat,Ahmedabad,"Gyaspur, Ahmedabad - IITM",24-08-2024 07:00:00,22.977134,72.553024,SO2,13,24,16
India,Gujarat,Ahmedabad,"Maninagar, Ahmedabad - GPCB",24-08-2024 07:00:00,23.002657,72.591912,NO2,16,21,18
India,Gujarat,Ahmedabad,"Maninagar, Ahmedabad - GPCB",24-08-2024 07:00:00,23.002657,72.591912,CO,10,28,15
India,Gujarat,Ahmedabad,"Raikhad, Ahmedabad - IITM",24-08-2024 07:00:00,23.020509,72.579261,NO2,NA,NA,NA
India,Gujarat,Ahmedabad,"Raikhad, Ahmedabad - IITM",24-08-2024 07:00:00,23.020509,72.579261,OZONE,8,24,14
India,Gujarat,Ahmedabad,"Rakhial, Ahmedabad - IITM",24-08-2024 07:00:00,23.016834,72.625775,PM2.5,27,162,60
India,Gujarat,Ahmedabad,"Rakhial, Ahmedabad - IITM",24-08-2024 07:00:00,23.016834,72.625775,PM10,32,157,73
India,Gujarat,Ahmedabad,"SAC ISRO Satellite, Ahmedabad - IITM",24-08-2024 07:00:00,23.023389,72.515201,NH3,1,1,1
India,Gujarat,Ahmedabad,"SAC ISRO Satellite, Ahmedabad - IITM",24-08-2024 07:00:00,23.023389,72.515201,OZONE,2,14,8
India,Gujarat,Ahmedabad,"SVPI Airport Hansol, Ahmedabad - IITM",24-08-2024 07:00:00,23.076793,72.627874,NH3,5,5,5
India,Gujarat,Ahmedabad,"SVPI Airport Hansol, Ahmedabad - IITM",24-08-2024 07:00:00,23.076793,72.627874,OZONE,17,45,35
India,Gujarat,Ahmedabad,"Sardar Vallabhbhai Patel Stadium, Ahmedabad - IITM",24-08-2024 07:00:00,23.043070,72.562968,CO,9,50,18
India,Gujarat,Gandhinagar,"Sector-10, Gandhinagar - GPCB",24-08-2024 07:00:00,23.221714,72.654328,PM10,NA,NA,NA
India,Gujarat,Surat,"Science Center, Surat - SMC",24-08-2024 07:00:00,21.170046,72.795405,PM10,15,91,56
India,Gujarat,Vapi,"Phase-1 GIDC, Vapi - GPCB",24-08-2024 07:00:00,20.362421,72.918013,PM2.5,12,40,26
India,Haryana,Ambala,"Patti Mehar, Ambala - HSPCB",24-08-2024 07:00:00,30.379589,76.778328,NO2,7,21,14
India,Haryana,Ambala,"Patti Mehar, Ambala - HSPCB",24-08-2024 07:00:00,30.379589,76.778328,CO,30,58,37
India,Haryana,Ballabgarh,"Nathu Colony, Ballabgarh - HSPCB",24-08-2024 07:00:00,28.3419248,77.319699,NO2,NA,NA,NA
India,Haryana,Bhiwani,"H.B. Colony, Bhiwani - HSPCB",24-08-2024 07:00:00,28.806223,76.141105,NO2,11,26,13
India,Haryana,Bhiwani,"H.B. Colony, Bhiwani - HSPCB",24-08-2024 07:00:00,28.806223,76.141105,NH3,3,6,6
India,Haryana,Charkhi Dadri,"Mini Secretariat, Charkhi Dadri - HSPCB",24-08-2024 07:00:00,28.593883,76.270653,NO2,15,25,17
India,Haryana,Charkhi Dadri,"Mini Secretariat, Charkhi Dadri - HSPCB",24-08-2024 07:00:00,28.593883,76.270653,SO2,8,24,13
India,Haryana,Dharuhera,"Municipal Corporation Office, Dharuhera -  HSPCB",24-08-2024 07:00:00,28.206800,76.799700,NO2,30,44,38
India,Haryana,Faridabad,"Sector 11, Faridabad - HSPCB",24-08-2024 07:00:00,28.376058,77.315741,PM10,65,115,87
India,Haryana,Faridabad,"Sector 11, Faridabad - HSPCB",24-08-2024 07:00:00,28.376058,77.315741,CO,20,44,40
India,Haryana,Faridabad,"Sector 30, Faridabad - HSPCB",24-08-2024 07:00:00,28.4417,77.3217,PM10,35,185,119
India,Haryana,Fatehabad,"Huda Sector, Fatehabad - HSPCB",24-08-2024 07:00:00,29.503664,75.467934,PM2.5,29,30,30
India,Haryana,Fatehabad,"Huda Sector, Fatehabad - HSPCB",24-08-2024 07:00:00,29.503664,75.467934,NO2,37,38,38
India,Haryana,Fatehabad,"Huda Sector, Fatehabad - HSPCB",24-08-2024 07:00:00,29.503664,75.467934,CO,32,34,32
India,Haryana,Gurugram,"Sector-51, Gurugram - HSPCB",24-08-2024 07:00:00,28.4227,77.0667,SO2,10,12,11
India,Haryana,Gurugram,"Sector-51, Gurugram - HSPCB",24-08-2024 07:00:00,28.4227,77.0667,OZONE,30,32,31
India,Haryana,Gurugram,"Teri Gram, Gurugram - HSPCB",24-08-2024 07:00:00,28.4275,77.1465,PM2.5,17,171,83
India,Haryana,Gurugram,"Teri Gram, Gurugram - HSPCB",24-08-2024 07:00:00,28.4275,77.1465,NH3,6,17,15
India,Haryana,Gurugram,"Teri Gram, Gurugram - HSPCB",24-08-2024 07:00:00,28.4275,77.1465,SO2,2,5,4
India,Haryana,Gurugram,"Vikas Sadan, Gurugram - HSPCB",24-08-2024 07:00:00,28.4501238,77.0263051,PM2.5,35,101,70
India,Haryana,Kaithal,"Rishi Nagar, Kaithal - HSPCB",24-08-2024 07:00:00,29.8006,76.4155,PM2.5,9,55,29
India,Haryana,Kaithal,"Rishi Nagar, Kaithal - HSPCB",24-08-2024 07:00:00,29.8006,76.4155,CO,8,26,16
India,Haryana,Karnal,"Sector-12, Karnal - HSPCB",24-08-2024 07:00:00,29.695300,77.002700,PM2.5,NA,NA,NA
India,Haryana,Karnal,"Sector-12, Karnal - HSPCB",24-08-2024 07:00:00,29.695300,77.002700,PM10,NA,NA,NA
India,Haryana,Kurukshetra,"Sector-7, Kurukshetra - HSPCB",24-08-2024 07:00:00,29.966942,76.875879,PM10,23,52,40
India,Haryana,Kurukshetra,"Sector-7, Kurukshetra - HSPCB",24-08-2024 07:00:00,29.966942,76.875879,NH3,4,4,4
India,Haryana,Kurukshetra,"Sector-7, Kurukshetra - HSPCB",24-08-2024 07:00:00,29.966942,76.875879,OZONE,2,44,8
India,Haryana,Manesar,"Sector-2 IMT, Manesar - HSPCB",24-08-2024 07:00:00,28.360699,76.936090,PM10,39,70,62
India,Haryana,Manesar,"Sector-2 IMT, Manesar - HSPCB",24-08-2024 07:00:00,28.360699,76.936090,NO2,20,22,21
India,Haryana,Manesar,"Sector-2 IMT, Manesar - HSPCB",24-08-2024 07:00:00,28.360699,76.936090,NH3,5,5,5
India,Haryana,Narnaul,"Shastri Nagar, Narnaul - HSPCB",24-08-2024 07:00:00,28.060249,76.113115,NO2,15,46,29
India,Haryana,Panchkula,"Sector-6, Panchkula - HSPCB ",24-08-2024 07:00:00,30.7057778,76.8531805555555,NO2,18,21,20
India,Haryana,Panipat,"Sector-18, Panipat - HSPCB",24-08-2024 07:00:00,29.432304,76.972765,NO2,31,32,31
India,Haryana,Panipat,"Sector-18, Panipat - HSPCB",24-08-2024 07:00:00,29.432304,76.972765,NH3,2,3,2
India,Haryana,Rohtak,"MD University, Rohtak - HSPCB",24-08-2024 07:00:00,28.52123,76.37138,NO2,33,39,36
India,Haryana,Sonipat,"Murthal, Sonipat - HSPCB",24-08-2024 07:00:00,29.027200,77.062100,SO2,12,30,20
India,Haryana,Yamuna Nagar,"Gobind Pura, Yamuna Nagar - HSPCB",24-08-2024 07:00:00,30.1480566,77.2893471,PM10,42,105,77
India,Himachal Pradesh,Baddi,"HIMUDA Complex Phase-1, Baddi - HPPCB",24-08-2024 07:00:00,30.943887,76.801991,OZONE,2,108,22
India,Jammu_and_Kashmir,Srinagar,"Rajbagh, Srinagar - JKSPCB",24-08-2024 07:00:00,34.066206,74.819820,PM2.5,NA,NA,NA
India,Jharkhand,Pathardih,"Mohalbani Ghat, Pathardih - DMC",24-08-2024 07:00:00,23.669880,86.411725,PM2.5,6,12,9
India,Jharkhand,Pathardih,"Mohalbani Ghat, Pathardih - DMC",24-08-2024 07:00:00,23.669880,86.411725,SO2,NA,NA,NA
India,Jharkhand,Pathardih,"Mohalbani Ghat, Pathardih - DMC",24-08-2024 07:00:00,23.669880,86.411725,OZONE,15,24,20
India,Karnataka,Belgaum,"Ramteerth Nagar, Belgaum - KSPCB",24-08-2024 07:00:00,15.888653,74.541751,PM2.5,4,12,8
India,Karnataka,Bengaluru,"BTM Layout, Bengaluru - CPCB",24-08-2024 07:00:00,12.9135218,77.5950804,SO2,NA,NA,NA
India,Karnataka,Bengaluru,"BTM Layout, Bengaluru - CPCB",24-08-2024 07:00:00,12.9135218,77.5950804,OZONE,NA,NA,NA
India,Karnataka,Bengaluru,"Bapuji Nagar, Bengaluru - KSPCB",24-08-2024 07:00:00,12.951913,77.539784,SO2,5,7,6
India,Karnataka,Bengaluru,"Bapuji Nagar, Bengaluru - KSPCB",24-08-2024 07:00:00,12.951913,77.539784,CO,12,41,16
India,Karnataka,Bengaluru,"Bapuji Nagar, Bengaluru - KSPCB",24-08-2024 07:00:00,12.951913,77.539784,OZONE,25,39,32
India,Karnataka,Bengaluru,"City Railway Station, Bengaluru - KSPCB",24-08-2024 07:00:00,12.9756843,77.5660749,NO2,25,29,27
India,Karnataka,Bengaluru,"Hebbal, Bengaluru - KSPCB",24-08-2024 07:00:00,13.029152,77.585901,PM2.5,12,42,27
India,Karnataka,Bengaluru,"Hebbal, Bengaluru - KSPCB",24-08-2024 07:00:00,13.029152,77.585901,OZONE,4,54,7
India,Karnataka,Bengaluru,"Hombegowda Nagar, Bengaluru - KSPCB",24-08-2024 07:00:00,12.938539,77.590100,PM10,8,31,21
India,Karnataka,Bengaluru,"Jayanagar 5th Block, Bengaluru - KSPCB",24-08-2024 07:00:00,12.920984,77.584908,PM2.5,3,30,17
India,Karnataka,Bengaluru,"Kasturi Nagar, Bengaluru - KSPCB",24-08-2024 07:00:00,13.003872,77.664217,PM10,56,61,58
India,Karnataka,Bengaluru,"RVCE-Mailasandra, Bengaluru - KSPCB",24-08-2024 07:00:00,12.921418,77.502466,PM10,48,92,64
India,Karnataka,Bengaluru,"RVCE-Mailasandra, Bengaluru - KSPCB",24-08-2024 07:00:00,12.921418,77.502466,CO,30,46,35
India,Karnataka,Bengaluru,"RVCE-Mailasandra, Bengaluru - KSPCB",24-08-2024 07:00:00,12.921418,77.502466,OZONE,42,42,42
India,Karnataka,Bidar,"Naubad, Bidar - KSPCB",24-08-2024 07:00:00,17.930306,77.482194,NH3,3,25,4
India,Karnataka,Bidar,"Naubad, Bidar - KSPCB",24-08-2024 07:00:00,17.930306,77.482194,OZONE,5,10,6
India,Karnataka,Chikkaballapur,"Chikkaballapur Rural, Chikkaballapur - KSPCB",24-08-2024 07:00:00,13.428828,77.731418,SO2,3,15,10
India,Karnataka,Chikkamagaluru,"Kalyana Nagara, Chikkamagaluru - KSPCB",24-08-2024 07:00:00,13.328028,75.797056,NO2,16,27,21
India,Karnataka,Dharwad,"Kalabhavan, Dharwad - KSPCB",24-08-2024 07:00:00,15.459706,75.008381,PM10,NA,NA,NA
India,Karnataka,Dharwad,"Kalabhavan, Dharwad - KSPCB",24-08-2024 07:00:00,15.459706,75.008381,CO,NA,NA,NA
India,Karnataka,Hassan,"B.Katihalli, Hassan - KSPCB",24-08-2024 07:00:00,13.008556,76.125258,CO,8,42,11
India,Karnataka,Haveri,"Ashwini Nagar, Haveri - KSPCB",24-08-2024 07:00:00,14.791800,75.389600,PM10,NA,NA,NA
India,Karnataka,Haveri,"Ashwini Nagar, Haveri - KSPCB",24-08-2024 07:00:00,14.791800,75.389600,NO2,NA,NA,NA
India,Karnataka,Hubballi,"Deshpande Nagar, Hubballi - KSPCB",24-08-2024 07:00:00,15.351773,75.140726,OZONE,NA,NA,NA
India,Karnataka,Kalaburagi,"Mahatma Basaveswar Colony, Kalaburgi - KSPCB",24-08-2024 07:00:00,17.336318,76.847397,NH3,2,3,2
India,Karnataka,Kolar,"Tamaka Ind. Area, Kolar - KSPCB",24-08-2024 07:00:00,13.1276288,78.1570122,OZONE,14,32,15
India,Karnataka,Madikeri,"Stuart Hill, Madikeri - KSPCB",24-08-2024 07:00:00,12.415911,75.735050,SO2,4,4,4
India,Karnataka,Madikeri,"Stuart Hill, Madikeri - KSPCB",24-08-2024 07:00:00,12.415911,75.735050,OZONE,10,16,11
India,Karnataka,Mangalore,"Kadri, Mangalore - KSPCB",24-08-2024 07:00:00,12.889250,74.853000,NH3,3,3,3
