country,state,city,station,last_update,latitude,longitude,pollutant_id,pollutant_min,pollutant_max,pollutant_avg
India,Andhra_Pradesh,Amaravati,"Secretariat, Amaravati - APPCB",08-02-2024 01:00:00,16.5150833,80.5181667,NO2,10,34,20
India,Andhra_Pradesh,Amaravati,"Secretariat, Amaravati - APPCB",08-02-2024 01:00:00,16.5150833,80.5181667,OZONE,2,62,26
India,Andhra_Pradesh,Anantapur,"Gulzarpet, Anantapur - APPCB",08-02-2024 01:00:00,14.675886,77.593027,PM2.5,35,99,59
India,Andhra_Pradesh,Anantapur,"Gulzarpet, Anantapur - APPCB",08-02-2024 01:00:00,14.675886,77.593027,NO2,18,55,35
India,Andhra_Pradesh,Anantapur,"Gulzarpet, Anantapur - APPCB",08-02-2024 01:00:00,14.675886,77.593027,CO,16,56,30
India,Andhra_Pradesh,Chittoor,"Gangineni Cheruvu, Chittoor - APPCB",08-02-2024 01:00:00,13.204880,79.097889,PM10,11,279,90
India,Andhra_Pradesh,Rajamahendravaram,"Anand Kala Kshetram, Rajamahendravaram - APPCB",08-02-2024 01:00:00,16.9872867,81.7363176,PM10,74,112,96
India,Andhra_Pradesh,Tirupati,"Tirumala, Tirupati - APPCB",08-02-2024 01:00:00,13.67,79.35,PM2.5,10,95,45
India,Andhra_Pradesh,Tirupati,"Tirumala, Tirupati - APPCB",08-02-2024 01:00:00,13.67,79.35,NO2,22,55,36
India,Andhra_Pradesh,Tirupati,"Vaikuntapuram, Tirupati - APPCB",08-02-2024 01:00:00,13.615387,79.409230,NO2,15,38,23
India,Andhra_Pradesh,Vijayawada,"Kanuru, Vijayawada - APPCB",08-02-2024 01:00:00,16.486692,80.699436,NO2,14,20,17
India,Andhra_Pradesh,Vijayawada,"Kanuru, Vijayawada - APPCB",08-02-2024 01:00:00,16.486692,80.699436,OZONE,25,25,25
India,Andhra_Pradesh,Vijayawada,"Rajiv Gandhi Park, Vijayawada - APPCB",08-02-2024 01:00:00,16.509717,80.612222,CO,33,37,37
India,Andhra_Pradesh,Vijayawada,"Rajiv Nagar, Vijayawada - APPCB",08-02-2024 01:00:00,16.554731,80.649110,NO2,5,18,12
India,Andhra_Pradesh,Vijayawada,"Rajiv Nagar, Vijayawada - APPCB",08-02-2024 01:00:00,16.554731,80.649110,NH3,1,2,2
India,Andhra_Pradesh,Vijayawada,"Rajiv Nagar, Vijayawada - APPCB",08-02-2024 01:00:00,16.554731,80.649110,SO2,9,23,15
India,Arunachal_Pradesh,Naharlagun,"Naharlagun, Naharlagun - APSPCB",08-02-2024 01:00:00,27.103358,93.679645,PM2.5,13,112,50
India,Arunachal_Pradesh,Naharlagun,"Naharlagun, Naharlagun - APSPCB",08-02-2024 01:00:00,27.103358,93.679645,NO2,2,2,2
India,Assam,Byrnihat,"Central Academy for SFS, Byrnihat - PCBA",08-02-2024 01:00:00,26.071318,91.87488,SO2,6,13,10
India,Assam,Byrnihat,"Central Academy for SFS, Byrnihat - PCBA",08-02-2024 01:00:00,26.071318,91.87488,CO,8,149,97
India,Assam,Guwahati,"IITG, Guwahati - PCBA",08-02-2024 01:00:00,26.2028636,91.70046436,PM2.5,139,362,257
India,Assam,Guwahati,"IITG, Guwahati - PCBA",08-02-2024 01:00:00,26.2028636,91.70046436,NO2,1,11,6
India,Assam,Guwahati,"IITG, Guwahati - PCBA",08-02-2024 01:00:00,26.2028636,91.70046436,CO,12,30,18
India,Assam,Guwahati,"LGBI Airport, Guwahati - PCBA",08-02-2024 01:00:00,26.10887,91.589544,NO2,10,67,25
India,Assam,Guwahati,"LGBI Airport, Guwahati - PCBA",08-02-2024 01:00:00,26.10887,91.589544,SO2,1,13,7
India,Assam,Guwahati,"LGBI Airport, Guwahati - PCBA",08-02-2024 01:00:00,26.10887,91.589544,OZONE,4,64,24
India,Assam,Guwahati,"Railway Colony, Guwahati - PCBA",08-02-2024 01:00:00,26.181742,91.78063,SO2,17,24,21
India,Assam,Nagaon,"Christianpatty, Nagaon - PCBA",08-02-2024 01:00:00,26.349082,92.68449,NO2,15,29,19
India,Assam,Silchar,"Tarapur, Silchar - PCBA",08-02-2024 01:00:00,24.82827,92.79525,OZONE,1,8,1
India,Assam,Sivasagar,"Girls College, Sivasagar - PCBA",08-02-2024 01:00:00,26.987634,94.636574,NO2,16,30,21
India,Bihar,Araria,"Kharahiya Basti, Araria - BSPCB",08-02-2024 01:00:00,26.146529,87.454184,NO2,4,9,7
India,Bihar,Arrah,"New DM Office, Arrah - BSPCB",08-02-2024 01:00:00,25.5626095,84.663264,PM2.5,50,107,77
India,Bihar,Arrah,"New DM Office, Arrah - BSPCB",08-02-2024 01:00:00,25.5626095,84.663264,SO2,8,23,18
India,Bihar,Aurangabad,"Gurdeo Nagar, Aurangabad - BSPCB",08-02-2024 01:00:00,24.75746,84.366208,PM2.5,NA,NA,NA
India,Bihar,Aurangabad,"Gurdeo Nagar, Aurangabad - BSPCB",08-02-2024 01:00:00,24.75746,84.366208,PM10,NA,NA,NA
India,Bihar,Bettiah,"Kamalnath Nagar, Bettiah - BSPCB",08-02-2024 01:00:00,26.80365,84.51954,PM2.5,13,92,41
India,Bihar,Bhagalpur,"DM Office_Kachari Chowk, Bhagalpur - BSPCB",08-02-2024 01:00:00,25.251013,86.989001,CO,30,67,48
India,Bihar,Bhagalpur,"Mayaganj, Bhagalpur - BSPCB",08-02-2024 01:00:00,25.265194,87.012947,SO2,3,13,11
India,Bihar,Bhagalpur,"Mayaganj, Bhagalpur - BSPCB",08-02-2024 01:00:00,25.265194,87.012947,CO,8,11,9
India,Bihar,Bihar Sharif,"D M Colony, Bihar Sharif - BSPCB",08-02-2024 01:00:00,25.204762,85.514960,SO2,1,12,7
India,Bihar,Chhapra,"Darshan Nagar, Chhapra - BSPCB",08-02-2024 01:00:00,25.7808257,84.7446768,NO2,13,27,20
India,Bihar,Gaya,"Kareemganj, Gaya - BSPCB",08-02-2024 01:00:00,24.792403,84.992416,PM2.5,10,73,35
India,Bihar,Gaya,"Kareemganj, Gaya - BSPCB",08-02-2024 01:00:00,24.792403,84.992416,OZONE,5,46,18
India,Bihar,Manguraha,"Forest Rest House, Manguraha - BSPCB",08-02-2024 01:00:00,27.308328,84.531742,PM2.5,NA,NA,NA
India,Bihar,Motihari,"Gandak Colony, Motihari - BSPCB",08-02-2024 01:00:00,26.63086,84.90051,NO2,27,54,42
India,Bihar,Motihari,"Gandak Colony, Motihari - BSPCB",08-02-2024 01:00:00,26.63086,84.90051,SO2,NA,NA,NA
India,Bihar,Motihari,"Gandak Colony, Motihari - BSPCB",08-02-2024 01:00:00,26.63086,84.90051,OZONE,26,123,79
India,Bihar,Munger,"Town Hall, Munger - BSPCB",08-02-2024 01:00:00,25.376776,86.471523,OZONE,11,168,24
India,Bihar,Muzaffarpur,"MIT-Daudpur Kothi, Muzaffarpur - BSPCB",08-02-2024 01:00:00,26.1403345,85.3650192,PM2.5,83,311,155
India,Bihar,Muzaffarpur,"Muzaffarpur Collectorate, Muzaffarpur - BSPCB",08-02-2024 01:00:00,26.1209,85.3647,NO2,3,12,8
India,Bihar,Patna,"DRM Office Danapur, Patna - BSPCB",08-02-2024 01:00:00,25.586562,85.043586,PM10,92,135,111
India,Bihar,Patna,"DRM Office Danapur, Patna - BSPCB",08-02-2024 01:00:00,25.586562,85.043586,OZONE,4,79,33
India,Bihar,Patna,"IGSC Planetarium Complex, Patna - BSPCB",08-02-2024 01:00:00,25.610369,85.132568,OZONE,6,21,10
India,Bihar,Patna,"Muradpur, Patna - BSPCB",08-02-2024 01:00:00,25.619651,85.147382,CO,42,92,76
India,Bihar,Patna,"Rajbansi Nagar, Patna - BSPCB",08-02-2024 01:00:00,25.599486,85.113666,CO,41,92,82
India,Bihar,Patna,"Samanpura, Patna - BSPCB",08-02-2024 01:00:00,25.596727,85.085624,NO2,24,57,33
India,Bihar,Purnia,"Mariam Nagar, Purnia - BSPCB",08-02-2024 01:00:00,25.366336,87.117468,CO,40,101,77
India,Bihar,Rajgir,"Dangi Tola, Rajgir - BSPCB",08-02-2024 01:00:00,25.03280,85.41948,PM10,69,111,86
India,Bihar,Sasaram,"Dada Peer, Sasaram - BSPCB",08-02-2024 01:00:00,24.952822,84.002396,PM2.5,25,73,48
India,Bihar,Sasaram,"Dada Peer, Sasaram - BSPCB",08-02-2024 01:00:00,24.952822,84.002396,NH3,4,7,5
India,Chandigarh,Chandigarh,"Sector 22, Chandigarh - CPCC",08-02-2024 01:00:00,30.735567,76.775714,PM2.5,58,311,125
India,Chandigarh,Chandigarh,"Sector 22, Chandigarh - CPCC",08-02-2024 01:00:00,30.735567,76.775714,NO2,18,77,37
India,Chandigarh,Chandigarh,"Sector 22, Chandigarh - CPCC",08-02-2024 01:00:00,30.735567,76.775714,SO2,5,31,8
India,Chandigarh,Chandigarh,"Sector-25, Chandigarh - CPCC",08-02-2024 01:00:00,30.751462,76.762879,NH3,10,17,13
India,Chandigarh,Chandigarh,"Sector-53, Chandigarh - CPCC",08-02-2024 01:00:00,30.719859,76.738637,NH3,4,6,5
India,Chhattisgarh,Bhilai,"32Bungalows, Bhilai - CECB",08-02-2024 01:00:00,21.194815,81.314770,NO2,16,27,20
India,Chhattisgarh,Bhilai,"Civic Center, Bhilai - Bhilai Steel Plant",08-02-2024 01:00:00,21.185571,81.343175,NH3,2,7,3
India,Chhattisgarh,Bhilai,"Hathkhoj, Bhilai - CECB",08-02-2024 01:00:00,21.224231,81.408350,NO2,20,56,28
India,Chhattisgarh,Bilaspur,"Mangala, Bilaspur - NTPC",08-02-2024 01:00:00,22.08815,82.13737,PM2.5,17,56,38
India,Chhattisgarh,Bilaspur,"Mangala, Bilaspur - NTPC",08-02-2024 01:00:00,22.08815,82.13737,PM10,35,69,48
India,Chhattisgarh,Bilaspur,"Mangala, Bilaspur - NTPC",08-02-2024 01:00:00,22.08815,82.13737,SO2,5,35,21
India,Chhattisgarh,Chhal,"Nawapara SECL Colony, Chhal - CECB",08-02-2024 01:00:00,22.118125,83.140608,NH3,2,2,2
India,Chhattisgarh,Chhal,"Nawapara SECL Colony, Chhal - CECB",08-02-2024 01:00:00,22.118125,83.140608,CO,40,77,57
India,Chhattisgarh,Chhal,"Nawapara SECL Colony, Chhal - CECB",08-02-2024 01:00:00,22.118125,83.140608,OZONE,1,53,23
India,Chhattisgarh,Korba,"Rampur, Korba - CECB",08-02-2024 01:00:00,22.368195,82.746431,NO2,18,47,35
India,Chhattisgarh,Korba,"Rampur, Korba - CECB",08-02-2024 01:00:00,22.368195,82.746431,SO2,9,30,14
India,Chhattisgarh,Raipur,"AIIMS, Raipur - CECB",08-02-2024 01:00:00,21.258815,81.578979,PM10,61,116,91
India,Chhattisgarh,Raipur,"AIIMS, Raipur - CECB",08-02-2024 01:00:00,21.258815,81.578979,NO2,45,54,49
India,Chhattisgarh,Raipur,"AIIMS, Raipur - CECB",08-02-2024 01:00:00,21.258815,81.578979,CO,28,42,33
India,Chhattisgarh,Raipur,"Bhatagaon New ISBT, Raipur - CECB",08-02-2024 01:00:00,21.219665,81.630094,OZONE,3,4,3
India,Chhattisgarh,Raipur,"Krishak Nagar, Raipur - CECB",08-02-2024 01:00:00,21.237755,81.705301,PM10,60,99,71
India,Chhattisgarh,Raipur,"Krishak Nagar, Raipur - CECB",08-02-2024 01:00:00,21.237755,81.705301,NH3,1,1,1
India,Chhattisgarh,Raipur,"Krishak Nagar, Raipur - CECB",08-02-2024 01:00:00,21.237755,81.705301,OZONE,3,7,4
India,Chhattisgarh,Tumidih,"OP Jindal Industrial Park, Tumidih - CECB",08-02-2024 01:00:00,22.06631475,83.33820077,NH3,1,3,2
India,Chhattisgarh,Tumidih,"OP Jindal Industrial Park, Tumidih - CECB",08-02-2024 01:00:00,22.06631475,83.33820077,CO,15,35,24
India,Delhi,Delhi,"Alipur, Delhi - DPCC",08-02-2024 01:00:00,28.815329,77.153010,OZONE,22,96,52
India,Delhi,Delhi,"Ashok Vihar, Delhi - DPCC",08-02-2024 01:00:00,28.695381,77.181665,OZONE,5,18,10
India,Delhi,Delhi,"Aya Nagar, Delhi - IMD",08-02-2024 01:00:00,28.4706914,77.1099364,PM2.5,17,302,96
India,Delhi,Delhi,"Aya Nagar, Delhi - IMD",08-02-2024 01:00:00,28.4706914,77.1099364,OZONE,5,34,13
India,Delhi,Delhi,"Burari Crossing, Delhi - IMD",08-02-2024 01:00:00,28.7256504,77.2011573,PM2.5,51,311,150
India,Delhi,Delhi,"Burari Crossing, Delhi - IMD",08-02-2024 01:00:00,28.7256504,77.2011573,OZONE,22,52,38
India,Delhi,Delhi,"CRRI Mathura Road, Delhi - IMD",08-02-2024 01:00:00,28.5512005,77.2735737,PM2.5,48,218,120
India,Delhi,Delhi,"CRRI Mathura Road, Delhi - IMD",08-02-2024 01:00:00,28.5512005,77.2735737,OZONE,3,31,8
India,Delhi,Delhi,"DTU, Delhi - CPCB",08-02-2024 01:00:00,28.7500499,77.1112615,NO2,NA,NA,NA
India,Delhi,Delhi,"Dr. Karni Singh Shooting Range, Delhi - DPCC",08-02-2024 01:00:00,28.498571,77.264840,NO2,36,112,72
India,Delhi,Delhi,"Dr. Karni Singh Shooting Range, Delhi - DPCC",08-02-2024 01:00:00,28.498571,77.264840,SO2,5,9,7
India,Delhi,Delhi,"Dwarka-Sector 8, Delhi - DPCC ",08-02-2024 01:00:00,28.5710274,77.0719006,NH3,9,11,9
India,Delhi,Delhi,"IGI Airport (T3), Delhi - IMD",08-02-2024 01:00:00,28.5627763,77.1180053,PM2.5,NA,NA,NA
India,Delhi,Delhi,"IHBAS, Dilshad Garden, Delhi - CPCB",08-02-2024 01:00:00,28.6811736,77.3025234,NO2,8,24,18
India,Delhi,Delhi,"IHBAS, Dilshad Garden, Delhi - CPCB",08-02-2024 01:00:00,28.6811736,77.3025234,SO2,8,18,11
India,Delhi,Delhi,"ITO, Delhi - CPCB",08-02-2024 01:00:00,28.628624,77.241060,NH3,1,4,2
India,Delhi,Delhi,"Jahangirpuri, Delhi - DPCC",08-02-2024 01:00:00,28.732820,77.170633,SO2,10,19,14
India,Delhi,Delhi,"Jawaharlal Nehru Stadium, Delhi - DPCC",08-02-2024 01:00:00,28.580280,77.233829,PM2.5,52,259,147
India,Delhi,Delhi,"Jawaharlal Nehru Stadium, Delhi - DPCC",08-02-2024 01:00:00,28.580280,77.233829,CO,26,74,47
India,Delhi,Delhi,"Lodhi Road, Delhi - IITM",08-02-2024 01:00:00,28.588333,77.221667,NO2,NA,NA,NA
India,Delhi,Delhi,"Lodhi Road, Delhi - IMD",08-02-2024 01:00:00,28.5918245,77.2273074,PM10,98,157,118
India,Delhi,Delhi,"Major Dhyan Chand National Stadium, Delhi - DPCC",08-02-2024 01:00:00,28.611281,77.237738,NO2,32,104,67
India,Delhi,Delhi,"Mandir Marg, Delhi - DPCC",08-02-2024 01:00:00,28.636429,77.201067,NO2,96,118,108
India,Delhi,Delhi,"Mundka, Delhi - DPCC",08-02-2024 01:00:00,28.684678,77.076574,PM2.5,44,335,223
India,Delhi,Delhi,"Mundka, Delhi - DPCC",08-02-2024 01:00:00,28.684678,77.076574,NH3,5,16,8
India,Delhi,Delhi,"NSIT Dwarka, Delhi - CPCB",08-02-2024 01:00:00,28.60909,77.0325413,NH3,7,11,9
India,Delhi,Delhi,"Najafgarh, Delhi - DPCC",08-02-2024 01:00:00,28.570173,76.933762,PM10,72,209,102
India,Delhi,Delhi,"Najafgarh, Delhi - DPCC",08-02-2024 01:00:00,28.570173,76.933762,NO2,NA,NA,NA
India,Delhi,Delhi,"Najafgarh, Delhi - DPCC",08-02-2024 01:00:00,28.570173,76.933762,SO2,5,15,8
India,Delhi,Delhi,"Nehru Nagar, Delhi - DPCC",08-02-2024 01:00:00,28.567890,77.250515,OZONE,1,113,43
India,Delhi,Delhi,"New Moti Bagh, Delhi - MHUA",08-02-2024 01:00:00,28.57834,77.18400,NO2,1,5,3
India,Delhi,Delhi,"New Moti Bagh, Delhi - MHUA",08-02-2024 01:00:00,28.57834,77.18400,CO,14,64,30
India,Delhi,Delhi,"North Campus, DU, Delhi - IMD",08-02-2024 01:00:00,28.6573814,77.1585447,PM2.5,85,273,166
India,Delhi,Delhi,"North Campus, DU, Delhi - IMD",08-02-2024 01:00:00,28.6573814,77.1585447,OZONE,21,30,23
India,Delhi,Delhi,"Patparganj, Delhi - DPCC",08-02-2024 01:00:00,28.623763,77.287209,CO,8,64,41
India,Delhi,Delhi,"Punjabi Bagh, Delhi - DPCC",08-02-2024 01:00:00,28.674045,77.131023,SO2,8,20,16
India,Delhi,Delhi,"Pusa, Delhi - DPCC",08-02-2024 01:00:00,28.639652,77.146275,NO2,126,280,200
India,Delhi,Delhi,"Pusa, Delhi - DPCC",08-02-2024 01:00:00,28.639652,77.146275,NH3,19,26,23
India,Delhi,Delhi,"Pusa, Delhi - DPCC",08-02-2024 01:00:00,28.639652,77.146275,OZONE,15,41,23
India,Delhi,Delhi,"Pusa, Delhi - IMD",08-02-2024 01:00:00,28.636110,77.173332,PM10,NA,NA,NA
India,Delhi,Delhi,"Rohini, Delhi - DPCC",08-02-2024 01:00:00,28.732528,77.119920,NH3,6,8,7
India,Delhi,Delhi,"Shadipur, Delhi - CPCB",08-02-2024 01:00:00,28.6514781,77.1473105,PM10,109,218,168
India,Delhi,Delhi,"Shadipur, Delhi - CPCB",08-02-2024 01:00:00,28.6514781,77.1473105,CO,24,72,52
India,Delhi,Delhi,"Sri Aurobindo Marg, Delhi - DPCC",08-02-2024 01:00:00,28.531346,77.190156,NO2,18,84,47
India,Delhi,Delhi,"Sri Aurobindo Marg, Delhi - DPCC",08-02-2024 01:00:00,28.531346,77.190156,CO,10,52,29
India,Delhi,Delhi,"Vivek Vihar, Delhi - DPCC",08-02-2024 01:00:00,28.672342,77.315260,CO,12,58,36
India,Delhi,Delhi,"Wazirpur, Delhi - DPCC",08-02-2024 01:00:00,28.699793,77.165453,PM10,146,252,189
India,Delhi,Delhi,"Wazirpur, Delhi - DPCC",08-02-2024 01:00:00,28.699793,77.165453,NH3,3,7,4
India,Gujarat,Ahmedabad,"Chandkheda, Ahmedabad - IITM",08-02-2024 01:00:00,23.107969,72.574648,NO2,25,34,29
India,Gujarat,Ahmedabad,"Chandkheda, Ahmedabad - IITM",08-02-2024 01:00:00,23.107969,72.574648,OZONE,14,15,15
India,Gujarat,Ahmedabad,"Gyaspur, Ahmedabad - IITM",08-02-2024 01:00:00,22.977134,72.553024,PM10,82,342,129
India,Gujarat,Ahmedabad,"Gyaspur, Ahmedabad - IITM",08-02-2024 01:00:00,22.977134,72.553024,NH3,2,3,2
India,Gujarat,Ahmedabad,"Maninagar, Ahmedabad - GPCB",08-02-2024 01:00:00,23.002657,72.591912,PM2.5,NA,NA,NA
India,Gujarat,Ahmedabad,"Maninagar, Ahmedabad - GPCB",08-02-2024 01:00:00,23.002657,72.591912,PM10,NA,NA,NA
India,Gujarat,Ahmedabad,"Raikhad, Ahmedabad - IITM",08-02-2024 01:00:00,23.020509,72.579261,NH3,1,3,2
India,Gujarat,Ahmedabad,"Rakhial, Ahmedabad - IITM",08-02-2024 01:00:00,23.016834,72.625775,PM10,NA,NA,NA
India,Gujarat,Ahmedabad,"Rakhial, Ahmedabad - IITM",08-02-2024 01:00:00,23.016834,72.625775,SO2,NA,NA,NA
India,Gujarat,Ahmedabad,"SAC ISRO Bopal, Ahmedabad - IITM",08-02-2024 01:00:00,23.041137,72.456691,PM2.5,56,339,106
India,Gujarat,Ahmedabad,"SAC ISRO Satellite, Ahmedabad - IITM",08-02-2024 01:00:00,23.023389,72.515201,NO2,17,17,17
India,Gujarat,Ahmedabad,"SAC ISRO Satellite, Ahmedabad - IITM",08-02-2024 01:00:00,23.023389,72.515201,NH3,3,3,3
India,Gujarat,Ahmedabad,"SVPI Airport Hansol, Ahmedabad - IITM",08-02-2024 01:00:00,23.076793,72.627874,PM2.5,70,99,85
India,Gujarat,Ahmedabad,"SVPI Airport Hansol, Ahmedabad - IITM",08-02-2024 01:00:00,23.076793,72.627874,NO2,16,23,17
India,Gujarat,Ahmedabad,"SVPI Airport Hansol, Ahmedabad - IITM",08-02-2024 01:00:00,23.076793,72.627874,NH3,2,4,3
India,Gujarat,Ahmedabad,"Sardar Vallabhbhai Patel Stadium, Ahmedabad - IITM",08-02-2024 01:00:00,23.043070,72.562968,CO,18,38,30
India,Gujarat,Ankleshwar,"GIDC, Ankleshwar - GPCB",08-02-2024 01:00:00,21.613267,73.010555,NH3,6,7,7
India,Gujarat,Ankleshwar,"GIDC, Ankleshwar - GPCB",08-02-2024 01:00:00,21.613267,73.010555,OZONE,20,33,27
India,Gujarat,Gandhinagar,"GIFT City, Gandhinagar - IITM",08-02-2024 01:00:00,23.163798,72.677768,PM10,61,105,85
India,Gujarat,Gandhinagar,"GIFT City, Gandhinagar - IITM",08-02-2024 01:00:00,23.163798,72.677768,SO2,7,9,8
India,Gujarat,Gandhinagar,"Sector-10, Gandhinagar - GPCB",08-02-2024 01:00:00,23.221714,72.654328,NH3,1,2,2
India,Gujarat,Vapi,"Phase-1 GIDC, Vapi - GPCB",08-02-2024 01:00:00,20.362421,72.918013,PM10,121,296,167
India,Gujarat,Vapi,"Phase-1 GIDC, Vapi - GPCB",08-02-2024 01:00:00,20.362421,72.918013,OZONE,17,26,21
India,Haryana,Ambala,"Patti Mehar, Ambala - HSPCB",08-02-2024 01:00:00,30.379589,76.778328,PM10,33,69,51
India,Haryana,Bahadurgarh,"Arya Nagar, Bahadurgarh - HSPCB",08-02-2024 01:00:00,28.6701,76.9254,PM2.5,46,165,106
India,Haryana,Bahadurgarh,"Arya Nagar, Bahadurgarh - HSPCB",08-02-2024 01:00:00,28.6701,76.9254,NO2,31,40,36
India,Haryana,Bahadurgarh,"Arya Nagar, Bahadurgarh - HSPCB",08-02-2024 01:00:00,28.6701,76.9254,CO,40,59,50
India,Haryana,Ballabgarh,"Nathu Colony, Ballabgarh - HSPCB",08-02-2024 01:00:00,28.3419248,77.319699,PM10,146,390,190
India,Haryana,Bhiwani,"H.B. Colony, Bhiwani - HSPCB",08-02-2024 01:00:00,28.806223,76.141105,PM10,64,120,99
India,Haryana,Charkhi Dadri,"Mini Secretariat, Charkhi Dadri - HSPCB",08-02-2024 01:00:00,28.593883,76.270653,PM10,92,141,110
India,Haryana,Charkhi Dadri,"Mini Secretariat, Charkhi Dadri - HSPCB",08-02-2024 01:00:00,28.593883,76.270653,NH3,5,6,5
India,Haryana,Dharuhera,"Municipal Corporation Office, Dharuhera -  HSPCB",08-02-2024 01:00:00,28.206800,76.799700,PM2.5,36,184,108
India,Haryana,Faridabad,"Sector 11, Faridabad - HSPCB",08-02-2024 01:00:00,28.376058,77.315741,PM2.5,41,84,66
India,Haryana,Faridabad,"Sector 11, Faridabad - HSPCB",08-02-2024 01:00:00,28.376058,77.315741,PM10,90,149,111
India,Haryana,Faridabad,"Sector 11, Faridabad - HSPCB",08-02-2024 01:00:00,28.376058,77.315741,CO,28,49,36
India,Haryana,Faridabad,"Sector 30, Faridabad - HSPCB",08-02-2024 01:00:00,28.4417,77.3217,NO2,NA,NA,NA
India,Haryana,Faridabad,"Sector- 16A, Faridabad - HSPCB",08-02-2024 01:00:00,28.4088421,77.3099081,SO2,NA,NA,NA
India,Haryana,Fatehabad,"Huda Sector, Fatehabad - HSPCB",08-02-2024 01:00:00,29.503664,75.467934,NO2,29,31,30
India,Haryana,Gurugram,"NISE Gwal Pahari, Gurugram - IMD",08-02-2024 01:00:00,28.422681,77.148944,NO2,NA,NA,NA
India,Haryana,Gurugram,"Sector-51, Gurugram - HSPCB",08-02-2024 01:00:00,28.4227,77.0667,PM2.5,85,308,184
India,Haryana,Gurugram,"Sector-51, Gurugram - HSPCB",08-02-2024 01:00:00,28.4227,77.0667,SO2,2,4,3
India,Haryana,Gurugram,"Sector-51, Gurugram - HSPCB",08-02-2024 01:00:00,28.4227,77.0667,CO,19,66,33
India,Haryana,Gurugram,"Teri Gram, Gurugram - HSPCB",08-02-2024 01:00:00,28.4275,77.1465,CO,NA,NA,NA
India,Haryana,Hisar,"Urban Estate-II, Hisar - HSPCB",08-02-2024 01:00:00,29.140560,75.744941,PM10,91,154,111
India,Haryana,Hisar,"Urban Estate-II, Hisar - HSPCB",08-02-2024 01:00:00,29.140560,75.744941,OZONE,24,125,89
India,Haryana,Kaithal,"Rishi Nagar, Kaithal - HSPCB",08-02-2024 01:00:00,29.8006,76.4155,NO2,24,25,25
India,Haryana,Kaithal,"Rishi Nagar, Kaithal - HSPCB",08-02-2024 01:00:00,29.8006,76.4155,NH3,8,8,8
India,Haryana,Kaithal,"Rishi Nagar, Kaithal - HSPCB",08-02-2024 01:00:00,29.8006,76.4155,SO2,14,26,18
India,Haryana,Kaithal,"Rishi Nagar, Kaithal - HSPCB",08-02-2024 01:00:00,29.8006,76.4155,OZONE,4,13,8
India,Haryana,Karnal,"Sector-12, Karnal - HSPCB",08-02-2024 01:00:00,29.695300,77.002700,NO2,7,12,11
India,Haryana,Karnal,"Sector-12, Karnal - HSPCB",08-02-2024 01:00:00,29.695300,77.002700,OZONE,33,38,37
India,Haryana,Kurukshetra,"Sector-7, Kurukshetra - HSPCB",08-02-2024 01:00:00,29.966942,76.875879,PM2.5,67,135,91
India,Haryana,Kurukshetra,"Sector-7, Kurukshetra - HSPCB",08-02-2024 01:00:00,29.966942,76.875879,OZONE,25,85,53
India,Haryana,Manesar,"Sector-2 IMT, Manesar - HSPCB",08-02-2024 01:00:00,28.360699,76.936090,SO2,7,44,26
India,Haryana,Manesar,"Sector-2 IMT, Manesar - HSPCB",08-02-2024 01:00:00,28.360699,76.936090,CO,19,39,29
India,Haryana,Narnaul,"Shastri Nagar, Narnaul - HSPCB",08-02-2024 01:00:00,28.060249,76.113115,PM2.5,32,198,67
India,Haryana,Panchkula,"Sector-6, Panchkula - HSPCB ",08-02-2024 01:00:00,30.7057778,76.8531805555555,PM2.5,27,195,94
India,Haryana,Panchkula,"Sector-6, Panchkula - HSPCB ",08-02-2024 01:00:00,30.7057778,76.8531805555555,OZONE,27,33,29
India,Haryana,Panipat,"Sector-18, Panipat - HSPCB",08-02-2024 01:00:00,29.497973,76.993331,PM10,49,92,73
India,Haryana,Panipat,"Sector-18, Panipat - HSPCB",08-02-2024 01:00:00,29.497973,76.993331,OZONE,30,38,32
India,Haryana,Sirsa,"F-Block, Sirsa - HSPCB",08-02-2024 01:00:00,29.536400,75.015800,PM2.5,22,172,111
India,Haryana,Sirsa,"F-Block, Sirsa - HSPCB",08-02-2024 01:00:00,29.536400,75.015800,NH3,12,13,13
India,Haryana,Sonipat,"Murthal, Sonipat - HSPCB",08-02-2024 01:00:00,29.027200,77.062100,NH3,5,10,9
India,Haryana,Sonipat,"Murthal, Sonipat - HSPCB",08-02-2024 01:00:00,29.027200,77.062100,SO2,12,29,20
India,Haryana,Sonipat,"Murthal, Sonipat - HSPCB",08-02-2024 01:00:00,29.027200,77.062100,OZONE,17,35,23
India,Haryana,Yamuna Nagar,"Gobind Pura, Yamuna Nagar - HSPCB",08-02-2024 01:00:00,30.1480566,77.2893471,NH3,2,6,4
India,Jharkhand,Dhanbad,"Kalakusuma, Dhanbad - DMC",08-02-2024 01:00:00,23.811548,86.481238,PM10,NA,NA,NA
India,Jharkhand,Dhanbad,"Kalakusuma, Dhanbad - DMC",08-02-2024 01:00:00,23.811548,86.481238,OZONE,37,42,40
India,Karnataka,Bagalkot,"Vidayagiri, Bagalkot - KSPCB",08-02-2024 01:00:00,16.172806,75.659694,PM10,46,51,49
India,Karnataka,Bagalkot,"Vidayagiri, Bagalkot - KSPCB",08-02-2024 01:00:00,16.172806,75.659694,NO2,10,11,10
India,Karnataka,Belgaum,"Ramteerth Nagar, Belgaum - KSPCB",08-02-2024 01:00:00,15.888653,74.541751,PM10,66,128,86
India,Karnataka,Belgaum,"Ramteerth Nagar, Belgaum - KSPCB",08-02-2024 01:00:00,15.888653,74.541751,NO2,27,33,29
India,Karnataka,Bengaluru,"BTM Layout, Bengaluru - CPCB",08-02-2024 01:00:00,12.9135218,77.5950804,PM2.5,22,56,33
India,Karnataka,Bengaluru,"BTM Layout, Bengaluru - CPCB",08-02-2024 01:00:00,12.9135218,77.5950804,PM10,39,106,67
India,Karnataka,Bengaluru,"Hombegowda Nagar, Bengaluru - KSPCB",08-02-2024 01:00:00,12.938539,77.590100,NO2,33,44,40
India,Karnataka,Bengaluru,"Hombegowda Nagar, Bengaluru - KSPCB",08-02-2024 01:00:00,12.938539,77.590100,SO2,3,5,4
India,Karnataka,Bengaluru,"Jayanagar 5th Block, Bengaluru - KSPCB",08-02-2024 01:00:00,12.920984,77.584908,NO2,10,23,16
India,Karnataka,Bengaluru,"Jigani, Bengaluru - KSPCB",08-02-2024 01:00:00,12.7816279,77.6299145,PM2.5,3,305,102
India,Karnataka,Bengaluru,"Kasturi Nagar, Bengaluru - KSPCB",08-02-2024 01:00:00,13.003872,77.664217,SO2,10,10,10
India,Karnataka,Bengaluru,"Kasturi Nagar, Bengaluru - KSPCB",08-02-2024 01:00:00,13.003872,77.664217,CO,24,24,24
India,Karnataka,Bengaluru,"Peenya, Bengaluru - CPCB",08-02-2024 01:00:00,13.0270199,77.494094,PM2.5,NA,NA,NA
India,Karnataka,Bengaluru,"Peenya, Bengaluru - CPCB",08-02-2024 01:00:00,13.0270199,77.494094,PM10,56,106,80
India,Karnataka,Bengaluru,"Sanegurava Halli, Bengaluru - KSPCB",08-02-2024 01:00:00,12.990328,77.5431385,NO2,24,61,34
India,Karnataka,Bengaluru,"Shivapura_Peenya, Bengaluru - KSPCB",08-02-2024 01:00:00,13.0246342,77.5080115,PM2.5,8,297,92
India,Karnataka,Bengaluru,"Shivapura_Peenya, Bengaluru - KSPCB",08-02-2024 01:00:00,13.0246342,77.5080115,NH3,4,4,4
India,Karnataka,Bengaluru,"Shivapura_Peenya, Bengaluru - KSPCB",08-02-2024 01:00:00,13.0246342,77.5080115,SO2,2,17,9
India,Karnataka,Bengaluru,"Silk Board, Bengaluru - KSPCB",08-02-2024 01:00:00,12.917348,77.622813,SO2,6,17,11
India,Karnataka,Chamarajanagar,"Urban, Chamarajanagar - KSPCB",08-02-2024 01:00:00,11.55358,76.55521,NO2,23,50,34
India,Karnataka,Chamarajanagar,"Urban, Chamarajanagar - KSPCB",08-02-2024 01:00:00,11.55358,76.55521,CO,19,24,20
India,Karnataka,Chikkaballapur,"Chikkaballapur Rural, Chikkaballapur - KSPCB",08-02-2024 01:00:00,13.428828,77.731418,NO2,7,21,11
India,Karnataka,Chikkamagaluru,"Kalyana Nagara, Chikkamagaluru - KSPCB",08-02-2024 01:00:00,13.328028,75.797056,NO2,17,27,22
India,Karnataka,Chikkamagaluru,"Kalyana Nagara, Chikkamagaluru - KSPCB",08-02-2024 01:00:00,13.328028,75.797056,SO2,1,7,2
India,Karnataka,Davanagere,"Devaraj Urs Badavane, Davanagere - KSPCB",08-02-2024 01:00:00,14.475800,75.905200,NO2,10,16,12
India,Karnataka,Davanagere,"Devaraj Urs Badavane, Davanagere - KSPCB",08-02-2024 01:00:00,14.475800,75.905200,CO,16,21,18
India,Karnataka,Davanagere,"Devaraj Urs Badavane, Davanagere - KSPCB",08-02-2024 01:00:00,14.475800,75.905200,OZONE,18,30,26
India,Karnataka,Dharwad,"Kalabhavan, Dharwad - KSPCB",08-02-2024 01:00:00,15.459706,75.008381,NO2,NA,NA,NA
India,Karnataka,Dharwad,"Kalabhavan, Dharwad - KSPCB",08-02-2024 01:00:00,15.459706,75.008381,SO2,3,10,7
India,Karnataka,Gadag,"Panchal Nagar, Gadag - KSPCB",08-02-2024 01:00:00,15.411456,75.638133,NH3,2,3,2
India,Karnataka,Hassan,"B.Katihalli, Hassan - KSPCB",08-02-2024 01:00:00,13.008556,76.125258,PM2.5,27,98,53
India,Karnataka,Haveri,"Ashwini Nagar, Haveri - KSPCB",08-02-2024 01:00:00,14.791800,75.389600,SO2,NA,NA,NA
India,Karnataka,Kalaburagi,"Lal Bahadur Shastri Nagar, Kalaburagi - KSPCB",08-02-2024 01:00:00,17.321993,76.822628,NO2,11,12,11
India,Karnataka,Kalaburagi,"Mahatma Basaveswar Colony, Kalaburgi - KSPCB",08-02-2024 01:00:00,17.336318,76.847397,CO,35,109,69
India,Karnataka,Karwar,"KHB Colony, Karwar - KSPCB",08-02-2024 01:00:00,14.816666,74.141003,CO,7,8,7
India,Karnataka,Kolar,"Tamaka Ind. Area, Kolar - KSPCB",08-02-2024 01:00:00,13.1276288,78.1570122,PM10,74,243,122
India,Karnataka,Kolar,"Tamaka Ind. Area, Kolar - KSPCB",08-02-2024 01:00:00,13.1276288,78.1570122,SO2,9,15,10
India,Karnataka,Koppal,"Diwator Nagar, Koppal - KSPCB",08-02-2024 01:00:00,15.347630,76.181767,OZONE,1,36,35
India,Karnataka,Madikeri,"Stuart Hill, Madikeri - KSPCB",08-02-2024 01:00:00,12.415911,75.735050,SO2,4,4,4
India,Karnataka,Madikeri,"Stuart Hill, Madikeri - KSPCB",08-02-2024 01:00:00,12.415911,75.735050,CO,3,40,22
India,Karnataka,Raichur,"Haji Colony, Raichur - KSPCB",08-02-2024 01:00:00,16.208139,77.348417,PM2.5,18,82,46
India,Karnataka,Raichur,"Haji Colony, Raichur - KSPCB",08-02-2024 01:00:00,16.208139,77.348417,NO2,19,63,35
India,Karnataka,Raichur,"Haji Colony, Raichur - KSPCB",08-02-2024 01:00:00,16.208139,77.348417,CO,94,126,113
India,Karnataka,Ramanagara,"Vijay Nagar, Ramanagara - KSPCB",08-02-2024 01:00:00,12.733409,77.298051,PM2.5,23,161,65
India,Karnataka,Ramanagara,"Vijay Nagar, Ramanagara - KSPCB",08-02-2024 01:00:00,12.733409,77.298051,NH3,1,2,1
India,Karnataka,Ramanagara,"Vijay Nagar, Ramanagara - KSPCB",08-02-2024 01:00:00,12.733409,77.298051,CO,4,32,14
India,Karnataka,Tumakuru,"Thimmalapura, Tumakuru - KSPCB",08-02-2024 01:00:00,13.377516,77.099072,PM10,15,155,59
India,Karnataka,Tumakuru,"Thimmalapura, Tumakuru - KSPCB",08-02-2024 01:00:00,13.377516,77.099072,CO,21,136,21
India,Karnataka,Tumakuru,"Thimmalapura, Tumakuru - KSPCB",08-02-2024 01:00:00,13.377516,77.099072,OZONE,6,47,27
India,Karnataka,Udupi,"Brahmagiri, Udupi - KSPCB",08-02-2024 01:00:00,13.34194444,74.74694444,PM10,41,98,62
India,Karnataka,Udupi,"Brahmagiri, Udupi - KSPCB",08-02-2024 01:00:00,13.34194444,74.74694444,SO2,22,25,23
India,Karnataka,Vijayapura,"Ibrahimpur, Vijayapura - KSPCB",08-02-2024 01:00:00,16.802639,75.722694,NO2,17,19,19
India,Karnataka,Vijayapura,"Ibrahimpur, Vijayapura - KSPCB",08-02-2024 01:00:00,16.802639,75.722694,NH3,2,2,2
India,Karnataka,Vijayapura,"Ibrahimpur, Vijayapura - KSPCB",08-02-2024 01:00:00,16.802639,75.722694,CO,31,78,55
India,Karnataka,Yadgir,"Collector Office, Yadgir - KSPCB",08-02-2024 01:00:00,16.7602,77.1428,NH3,1,1,1
India,Karnataka,Yadgir,"Collector Office, Yadgir - KSPCB",08-02-2024 01:00:00,16.7602,77.1428,SO2,1,37,12
India,Kerala,Eloor,"Udyogamandal, Eloor - Kerala PCB",08-02-2024 01:00:00,10.073232,76.302765,PM10,42,55,49
India,Kerala,Eloor,"Udyogamandal, Eloor - Kerala PCB",08-02-2024 01:00:00,10.073232,76.302765,CO,7,101,40
India,Kerala,Kannur,"Thavakkara, Kannur - Kerala PCB",08-02-2024 01:00:00,11.875000,75.373200,PM2.5,43,50,47
India,Kerala,Kollam,"Polayathode, Kollam - Kerala PCB",08-02-2024 01:00:00,8.8787,76.6073,NH3,1,1,1
India,Kerala,Kollam,"Polayathode, Kollam - Kerala PCB",08-02-2024 01:00:00,8.8787,76.6073,CO,8,56,35
India,Kerala,Kollam,"Polayathode, Kollam - Kerala PCB",08-02-2024 01:00:00,8.8787,76.6073,OZONE,29,36,33
India,Kerala,Thiruvananthapuram,"Plammoodu, Thiruvananthapuram - Kerala PCB",08-02-2024 01:00:00,8.5149093,76.9435879,PM10,31,85,46
India,Kerala,Thiruvananthapuram,"Plammoodu, Thiruvananthapuram - Kerala PCB",08-02-2024 01:00:00,8.5149093,76.9435879,SO2,6,12,9
India,Kerala,Thrissur,"Corporation Ground, Thrissur - Kerala PCB",08-02-2024 01:00:00,10.532400,76.215900,PM2.5,49,54,51
India,Kerala,Thrissur,"Corporation Ground, Thrissur - Kerala PCB",08-02-2024 01:00:00,10.532400,76.215900,OZONE,37,41,39
India,Madhya Pradesh,Bhopal,"Idgah Hills, Bhopal - MPPCB",08-02-2024 01:00:00,23.264759,77.381568,PM2.5,38,123,71
India,Madhya Pradesh,Bhopal,"Idgah Hills, Bhopal - MPPCB",08-02-2024 01:00:00,23.264759,77.381568,PM10,90,136,110
India,Madhya Pradesh,Bhopal,"Paryavaran Parisar, Bhopal - MPPCB",08-02-2024 01:00:00,23.210494,77.425409,NO2,18,76,35
India,Madhya Pradesh,Bhopal,"T T Nagar, Bhopal - MPPCB",08-02-2024 01:00:00,23.233584,77.400574,CO,36,57,48
India,Madhya Pradesh,Dewas,"Bhopal Chauraha, Dewas - MPPCB",08-02-2024 01:00:00,22.9682591,76.064118,PM2.5,56,87,73
India,Madhya Pradesh,Gwalior,"City Center, Gwalior - MPPCB",08-02-2024 01:00:00,26.203442,78.193251,NO2,23,77,36
India,Madhya Pradesh,Gwalior,"Deen Dayal Nagar, Gwalior - MPPCB",08-02-2024 01:00:00,26.259242,78.216432,NO2,20,84,37
India,Madhya Pradesh,Gwalior,"Deen Dayal Nagar, Gwalior - MPPCB",08-02-2024 01:00:00,26.259242,78.216432,SO2,17,20,19
India,Madhya Pradesh,Gwalior,"Deen Dayal Nagar, Gwalior - MPPCB",08-02-2024 01:00:00,26.259242,78.216432,CO,25,108,41
India,Madhya Pradesh,Gwalior,"Maharaj Bada, Gwalior - MPPCB",08-02-2024 01:00:00,26.200388,78.147714,PM2.5,52,304,152
India,Madhya Pradesh,Gwalior,"Maharaj Bada, Gwalior - MPPCB",08-02-2024 01:00:00,26.200388,78.147714,NH3,5,11,8
India,Madhya Pradesh,Gwalior,"Maharaj Bada, Gwalior - MPPCB",08-02-2024 01:00:00,26.200388,78.147714,CO,10,80,39
India,Madhya Pradesh,Gwalior,"Phool Bagh, Gwalior - Mondelez Ind. Food",08-02-2024 01:00:00,26.210536,78.171,CO,30,42,31
India,Madhya Pradesh,Indore,"Chhoti Gwaltoli, Indore - MPPCB",08-02-2024 01:00:00,22.4310,75.5213,NO2,46,90,60
India,Madhya Pradesh,Indore,"Regional Park, Indore - IMC",08-02-2024 01:00:00,22.6780,75.8559,OZONE,4,17,8
India,Madhya Pradesh,Jabalpur,"Govindh Bhavan Colony, Jabalpur - JMC",08-02-2024 01:00:00,23.163174,79.973061,PM10,36,58,49
India,Madhya Pradesh,Jabalpur,"Govindh Bhavan Colony, Jabalpur - JMC",08-02-2024 01:00:00,23.163174,79.973061,NH3,4,5,5
India,Madhya Pradesh,Jabalpur,"Govindh Bhavan Colony, Jabalpur - JMC",08-02-2024 01:00:00,23.163174,79.973061,CO,17,31,23
India,Madhya Pradesh,Jabalpur,"Govindh Bhavan Colony, Jabalpur - JMC",08-02-2024 01:00:00,23.163174,79.973061,OZONE,11,97,53
India,Madhya Pradesh,Jabalpur,"Marhatal, Jabalpur - MPPCB",08-02-2024 01:00:00,23.168606,79.932247,NH3,4,6,5
India,Madhya Pradesh,Maihar,"Sahilara, Maihar - KJS Cements",08-02-2024 01:00:00,24.2613009,80.7231783,CO,21,28,22
India,Madhya Pradesh,Mandideep,"Sector-D Industrial Area, Mandideep - MPPCB",08-02-2024 01:00:00,23.108440,77.511428,NH3,8,12,10
India,Madhya Pradesh,Mandideep,"Sector-D Industrial Area, Mandideep - MPPCB",08-02-2024 01:00:00,23.108440,77.511428,CO,22,80,61
India,Madhya Pradesh,Ratlam,"Shasthri Nagar, Ratlam - IPCA Lab",08-02-2024 01:00:00,23.331731,75.045981,NO2,23,86,42
India,Madhya Pradesh,Ratlam,"Shasthri Nagar, Ratlam - IPCA Lab",08-02-2024 01:00:00,23.331731,75.045981,SO2,60,61,60
India,Madhya Pradesh,Sagar,"Civil Lines, Sagar - MPPCB",08-02-2024 01:00:00,23.838586,78.759431,NO2,11,19,14
India,Madhya Pradesh,Sagar,"Civil Lines, Sagar - MPPCB",08-02-2024 01:00:00,23.838586,78.759431,SO2,2,5,3
India,Madhya Pradesh,Sagar,"Civil Lines, Sagar - MPPCB",08-02-2024 01:00:00,23.838586,78.759431,CO,14,26,24
India,Madhya Pradesh,Satna,"Bandhavgar Colony, Satna - Birla Cement",08-02-2024 01:00:00,24.58434363,80.8549414,OZONE,56,74,64
India,Madhya Pradesh,Singrauli,"Suryakiran Bhawan NCL, Singrauli - MPPCB",08-02-2024 01:00:00,24.108970,82.645580,CO,46,63,55
India,Madhya Pradesh,Ujjain,"Mahakaleshwar Temple, Ujjain - MPPCB",08-02-2024 01:00:00,23.182719 ,75.768218 ,PM10,66,94,78
India,Madhya Pradesh,Ujjain,"Mahakaleshwar Temple, Ujjain - MPPCB",08-02-2024 01:00:00,23.182719 ,75.768218 ,SO2,5,11,7
India,Maharashtra,Akola,"Ramdaspeth, Akola - MPCB",08-02-2024 01:00:00,20.719516,77.000253,NH3,5,9,8
India,Maharashtra,Akola,"Ramdaspeth, Akola - MPCB",08-02-2024 01:00:00,20.719516,77.000253,OZONE,9,70,31
India,Maharashtra,Amravati,"Shri Shivaji Science College, Amaravati - MPCB",08-02-2024 01:00:00,20.939198,77.765701,PM10,71,151,117
India,Maharashtra,Amravati,"Shri Shivaji Science College, Amaravati - MPCB",08-02-2024 01:00:00,20.939198,77.765701,CO,39,100,57
India,Maharashtra,Amravati,"Shri Shivaji Science College, Amaravati - MPCB",08-02-2024 01:00:00,20.939198,77.765701,OZONE,17,76,45
India,Maharashtra,Aurangabad,"MIDC Chilkalthana, Aurangabad - MPCB",08-02-2024 01:00:00,19.875620,75.387310,SO2,6,15,10
India,Maharashtra,Badlapur,"Katrap, Badlapur - MPCB",08-02-2024 01:00:00,19.16485,73.23409,CO,16,75,27
India,Maharashtra,Bhiwandi,"Gokul Nagar, Bhiwandi - MPCB",08-02-2024 01:00:00,19.309073,73.057223,NH3,1,2,1
India,Maharashtra,Boisar,"Khaira, Boisar - MPCB",08-02-2024 01:00:00,19.786089,72.757971,SO2,10,103,47
India,Maharashtra,Chandrapur,"Chauhan Colony, Chandrapur - MPCB",08-02-2024 01:00:00,19.962900,79.298714,PM2.5,94,234,146
India,Maharashtra,Chandrapur,"Chauhan Colony, Chandrapur - MPCB",08-02-2024 01:00:00,19.962900,79.298714,NH3,2,2,2
India,Maharashtra,Chandrapur,"Chauhan Colony, Chandrapur - MPCB",08-02-2024 01:00:00,19.962900,79.298714,SO2,8,127,32
India,Maharashtra,Jalgaon,"Prabhat Colony, Jalgaon - MPCB",08-02-2024 01:00:00,21.001264,75.565602,NO2,15,105,47
India,Maharashtra,Jalna,"Old MIDC, Jalna - MPCB",08-02-2024 01:00:00,19.854616,75.905894,NO2,10,28,19
India,Maharashtra,Jalna,"Old MIDC, Jalna - MPCB",08-02-2024 01:00:00,19.854616,75.905894,CO,18,50,27
India,Maharashtra,Kalyan,"Khadakpada, Kalyan - MPCB",08-02-2024 01:00:00,19.25292,73.142019,PM10,85,175,117
India,Maharashtra,Kolhapur,"Shivaji University, Kolhapur - MPCB",08-02-2024 01:00:00,16.6870449,74.2505872,PM10,81,157,126
India,Maharashtra,Kolhapur,"Shivaji University, Kolhapur - MPCB",08-02-2024 01:00:00,16.6870449,74.2505872,OZONE,13,96,60
India,Maharashtra,Kolhapur,"Sinchan Bhavan, Kolhapur - MPCB",08-02-2024 01:00:00,16.7143745,74.2426398,CO,16,66,24
India,Maharashtra,Latur,"Sawe Wadi, Latur - MPCB",08-02-2024 01:00:00,18.39963,76.57452,PM10,58,118,82
India,Maharashtra,Mahad,"Kamble Tarf Birwadi, Mahad - MPCB",08-02-2024 01:00:00,18.1023399,73.4783687,PM2.5,3,206,77
India,Maharashtra,Mahad,"Kamble Tarf Birwadi, Mahad - MPCB",08-02-2024 01:00:00,18.1023399,73.4783687,NO2,36,40,38
India,Maharashtra,Mahad,"Kamble Tarf Birwadi, Mahad - MPCB",08-02-2024 01:00:00,18.1023399,73.4783687,SO2,11,14,13
India,Maharashtra,Mira-Bhayandar,"Bhayandar West, Mira-Bhayandar - MPCB",08-02-2024 01:00:00,19.296481,72.840923,NH3,4,9,5
India,Maharashtra,Mira-Bhayandar,"Bhayandar West, Mira-Bhayandar - MPCB",08-02-2024 01:00:00,19.296481,72.840923,CO,18,70,25
India,Maharashtra,Mumbai,"Bandra Kurla Complex, Mumbai - MPCB",08-02-2024 01:00:00,19.065931,72.862131,PM2.5,83,183,108
India,Maharashtra,Mumbai,"Bandra Kurla Complex, Mumbai - MPCB",08-02-2024 01:00:00,19.065931,72.862131,CO,11,57,26
India,Maharashtra,Mumbai,"Borivali East, Mumbai - IITM",08-02-2024 01:00:00,19.23241,72.86895,PM2.5,76,253,137
India,Maharashtra,Mumbai,"Borivali East, Mumbai - IITM",08-02-2024 01:00:00,19.23241,72.86895,OZONE,8,90,50
India,Maharashtra,Mumbai,"Byculla, Mumbai - BMC",08-02-2024 01:00:00,18.9767,72.8380,PM2.5,48,103,72
India,Maharashtra,Mumbai,"Byculla, Mumbai - BMC",08-02-2024 01:00:00,18.9767,72.8380,NO2,16,74,34
India,Maharashtra,Mumbai,"Byculla, Mumbai - BMC",08-02-2024 01:00:00,18.9767,72.8380,SO2,2,5,4
India,Maharashtra,Mumbai,"Chakala-Andheri East, Mumbai - IITM",08-02-2024 01:00:00,19.11074,72.86084,OZONE,2,88,36
India,Maharashtra,Mumbai,"Chembur, Mumbai - MPCB",08-02-2024 01:00:00,19.0364585,72.8954371,PM10,81,156,131
India,Maharashtra,Mumbai,"Chhatrapati Shivaji Intl. Airport (T2), Mumbai - MPCB",08-02-2024 01:00:00,19.10078,72.87462,PM10,66,125,96
India,Maharashtra,Mumbai,"Colaba, Mumbai - MPCB",08-02-2024 01:00:00,18.910000,72.820000,NO2,16,26,20
India,Maharashtra,Mumbai,"Ghatkopar, Mumbai - BMC",08-02-2024 01:00:00,19.083694,72.920967,NH3,NA,NA,NA
India,Maharashtra,Mumbai,"Ghatkopar, Mumbai - BMC",08-02-2024 01:00:00,19.083694,72.920967,CO,8,79,17
India,Maharashtra,Mumbai,"Kandivali East, Mumbai - MPCB",08-02-2024 01:00:00,19.205800,72.868200,PM2.5,26,86,46
India,Maharashtra,Mumbai,"Kandivali East, Mumbai - MPCB",08-02-2024 01:00:00,19.205800,72.868200,PM10,71,187,117
India,Maharashtra,Mumbai,"Kandivali East, Mumbai - MPCB",08-02-2024 01:00:00,19.205800,72.868200,CO,108,121,116
India,Maharashtra,Mumbai,"Kherwadi_Bandra East, Mumbai - MPCB",08-02-2024 01:00:00,19.0632143,72.8456324,PM10,68,153,113
India,Maharashtra,Mumbai,"Kurla, Mumbai - MPCB",08-02-2024 01:00:00,19.0863,72.8888,NH3,3,4,4
India,Maharashtra,Mumbai,"Mazgaon, Mumbai - IITM",08-02-2024 01:00:00,18.96702,72.84214,NH3,22,46,35
India,Maharashtra,Mumbai,"Mazgaon, Mumbai - IITM",08-02-2024 01:00:00,18.96702,72.84214,OZONE,20,157,77
India,Maharashtra,Mumbai,"Mindspace-Malad West, Mumbai - MPCB",08-02-2024 01:00:00,19.1878657,72.8304069,NO2,56,56,56
India,Maharashtra,Mumbai,"Mulund West, Mumbai - MPCB",08-02-2024 01:00:00,19.1750,72.9419,SO2,14,15,14
India,Maharashtra,Mumbai,"Navy Nagar-Colaba, Mumbai - IITM",08-02-2024 01:00:00,18.897756,72.813320,OZONE,24,142,87
India,Maharashtra,Mumbai,"Powai, Mumbai - MPCB",08-02-2024 01:00:00,19.137500,72.915056,PM2.5,39,85,53
India,Maharashtra,Mumbai,"Powai, Mumbai - MPCB",08-02-2024 01:00:00,19.137500,72.915056,NO2,13,47,26
India,Maharashtra,Mumbai,"Powai, Mumbai - MPCB",08-02-2024 01:00:00,19.137500,72.915056,OZONE,21,53,33
India,Maharashtra,Mumbai,"Siddharth Nagar-Worli, Mumbai - IITM",08-02-2024 01:00:00,19.000083,72.813993,OZONE,22,167,89
India,Maharashtra,Mumbai,"Sion, Mumbai - MPCB",08-02-2024 01:00:00,19.047000,72.874600,PM10,56,129,96
India,Maharashtra,Mumbai,"Sion, Mumbai - MPCB",08-02-2024 01:00:00,19.047000,72.874600,NO2,14,50,30
India,Maharashtra,Mumbai,"Sion, Mumbai - MPCB",08-02-2024 01:00:00,19.047000,72.874600,CO,10,36,22
India,Maharashtra,Mumbai,"Vasai West, Mumbai - MPCB",08-02-2024 01:00:00,19.383200,72.820400,PM2.5,22,58,32
India,Maharashtra,Mumbai,"Vasai West, Mumbai - MPCB",08-02-2024 01:00:00,19.383200,72.820400,SO2,16,16,16
India,Maharashtra,Mumbai,"Vasai West, Mumbai - MPCB",08-02-2024 01:00:00,19.383200,72.820400,OZONE,12,66,38
India,Maharashtra,Mumbai,"Vile Parle West, Mumbai - MPCB",08-02-2024 01:00:00,19.10861,72.83622,NH3,9,11,10
India,Maharashtra,Mumbai,"Worli, Mumbai - MPCB",08-02-2024 01:00:00,18.9936162,72.8128113,NO2,17,19,18
India,Maharashtra,Nagpur,"Ambazari, Nagpur - MPCB",08-02-2024 01:00:00,21.121801,79.04952,NO2,16,177,55
India,Maharashtra,Nagpur,"Ambazari, Nagpur - MPCB",08-02-2024 01:00:00,21.121801,79.04952,CO,14,106,53
India,Maharashtra,Nagpur,"Opp GPO Civil Lines, Nagpur - MPCB",08-02-2024 01:00:00,21.152875,79.0517531,PM2.5,80,229,117
India,Maharashtra,Nagpur,"Opp GPO Civil Lines, Nagpur - MPCB",08-02-2024 01:00:00,21.152875,79.0517531,PM10,97,185,121
India,Maharashtra,Nagpur,"Opp GPO Civil Lines, Nagpur - MPCB",08-02-2024 01:00:00,21.152875,79.0517531,NO2,12,146,37
India,Maharashtra,Nagpur,"Opp GPO Civil Lines, Nagpur - MPCB",08-02-2024 01:00:00,21.152875,79.0517531,CO,9,125,52
India,Maharashtra,Nagpur,"Ram Nagar, Nagpur - MPCB",08-02-2024 01:00:00,21.143383,79.048912,PM10,103,176,127
India,Maharashtra,Nagpur,"Ram Nagar, Nagpur - MPCB",08-02-2024 01:00:00,21.143383,79.048912,NO2,8,45,18
India,Maharashtra,Nashik,"Gangapur Road, Nashik - MPCB",08-02-2024 01:00:00,20.0073285,73.7762427,NO2,1,3,2
India,Maharashtra,Nashik,"MIDC Ambad, Nashik - MPCB",08-02-2024 01:00:00,19.950220,73.731480,OZONE,6,64,35
India,Maharashtra,Nashik,"Pandav Nagari, Nashik - MPCB",08-02-2024 01:00:00,19.9591346,73.7788008,OZONE,5,35,24
India,Maharashtra,Navi Mumbai,"Sanpada, Navi Mumbai - MPCB",08-02-2024 01:00:00,19.0575752,73.0151367,CO,10,72,22
India,Maharashtra,Navi Mumbai,"Sanpada, Navi Mumbai - MPCB",08-02-2024 01:00:00,19.0575752,73.0151367,OZONE,2,97,67
India,Maharashtra,Navi Mumbai,"Sector-19A Nerul, Navi Mumbai - IITM",08-02-2024 01:00:00,19.044,73.0325,CO,14,101,52
India,Maharashtra,Navi Mumbai,"Sector-2E Kalamboli, Navi Mumbai - MPCB",08-02-2024 01:00:00,19.02579,73.10297,PM10,83,171,121
India,Maharashtra,Navi Mumbai,"Sector-2E Kalamboli, Navi Mumbai - MPCB",08-02-2024 01:00:00,19.02579,73.10297,CO,9,66,27
India,Maharashtra,Navi Mumbai,"Tondare-Taloja, Navi Mumbai - MPCB",08-02-2024 01:00:00,19.0630,73.1209,NH3,6,9,6
India,Maharashtra,Pimpri-Chinchwad,"Gavalinagar, Pimpri Chinchwad - MPCB",08-02-2024 01:00:00,18.63673,73.82487,PM10,47,183,110
India,Maharashtra,Pimpri-Chinchwad,"Park Street Wakad, Pimpri Chinchwad - MPCB",08-02-2024 01:00:00,18.59051,73.77946,PM2.5,113,300,197
India,Maharashtra,Pimpri-Chinchwad,"Park Street Wakad, Pimpri Chinchwad - MPCB",08-02-2024 01:00:00,18.59051,73.77946,PM10,115,198,153
India,Maharashtra,Pimpri-Chinchwad,"Thergaon, Pimpri Chinchwad - MPCB",08-02-2024 01:00:00,18.616318,73.765797,PM2.5,54,323,202
India,Maharashtra,Pimpri-Chinchwad,"Thergaon, Pimpri Chinchwad - MPCB",08-02-2024 01:00:00,18.616318,73.765797,NH3,3,13,8
India,Maharashtra,Pimpri-Chinchwad,"Thergaon, Pimpri Chinchwad - MPCB",08-02-2024 01:00:00,18.616318,73.765797,SO2,2,8,4
India,Maharashtra,Pune,"Alandi, Pune - IITM",08-02-2024 01:00:00,18.675076,73.892743,OZONE,1,28,8
India,Maharashtra,Pune,"Bhosari, Pune - IITM",08-02-2024 01:00:00,18.640051,73.848956,PM10,5,171,106
India,Maharashtra,Pune,"Bhosari, Pune - IITM",08-02-2024 01:00:00,18.640051,73.848956,CO,25,104,75
India,Maharashtra,Pune,"Revenue Colony-Shivajinagar, Pune - IITM",08-02-2024 01:00:00,18.530085,73.849598,PM2.5,49,266,119
India,Maharashtra,Pune,"Revenue Colony-Shivajinagar, Pune - IITM",08-02-2024 01:00:00,18.530085,73.849598,CO,88,115,108
India,Maharashtra,Pune,"Savitribai Phule Pune University, Pune - MPCB",08-02-2024 01:00:00,18.547056,73.826908,SO2,3,8,5
India,Maharashtra,Pune,"Savitribai Phule Pune University, Pune - MPCB",08-02-2024 01:00:00,18.547056,73.826908,OZONE,1,194,28
India,Maharashtra,Sangli,"Vijay Nagar, Sangli - MPCB",08-02-2024 01:00:00, 16.5038,74.3623,PM2.5,78,238,163
India,Maharashtra,Sangli,"Vijay Nagar, Sangli - MPCB",08-02-2024 01:00:00, 16.5038,74.3623,PM10,87,169,130
India,Maharashtra,Sangli,"Vijay Nagar, Sangli - MPCB",08-02-2024 01:00:00, 16.5038,74.3623,CO,16,117,63
India,Maharashtra,Solapur,"Dnyaneshwar Nagar, Solapur - MPCB",08-02-2024 01:00:00,17.6336264,75.9132495,PM2.5,167,309,227
India,Maharashtra,Solapur,"Dnyaneshwar Nagar, Solapur - MPCB",08-02-2024 01:00:00,17.6336264,75.9132495,PM10,95,196,136
India,Maharashtra,Solapur,"Dnyaneshwar Nagar, Solapur - MPCB",08-02-2024 01:00:00,17.6336264,75.9132495,NH3,19,52,28
India,Maharashtra,Solapur,"Dnyaneshwar Nagar, Solapur - MPCB",08-02-2024 01:00:00,17.6336264,75.9132495,OZONE,27,148,69
India,Maharashtra,Solapur,"Ratandeep Housing Society, Solapur - MPCB",08-02-2024 01:00:00,17.65439,75.90649,SO2,7,40,16
India,Maharashtra,Solapur,"Ratandeep Housing Society, Solapur - MPCB",08-02-2024 01:00:00,17.65439,75.90649,OZONE,2,47,16
India,Maharashtra,Thane,"Kasarvadavali, Thane - MPCB",08-02-2024 01:00:00,19.26777,72.97182,NO2,16,51,31
India,Maharashtra,Thane,"Kasarvadavali, Thane - MPCB",08-02-2024 01:00:00,19.26777,72.97182,NH3,3,6,5
India,Maharashtra,Thane,"Pimpleshwar Mandir, Thane - MPCB",08-02-2024 01:00:00,19.192056,72.9585188,NH3,3,3,3
India,Maharashtra,Ulhasnagar,"Sidhi Vinayak Nagar, Ulhasnagar - MPCB",08-02-2024 01:00:00,19.235581,73.159121,NO2,3,33,21
India,Maharashtra,Ulhasnagar,"Sidhi Vinayak Nagar, Ulhasnagar - MPCB",08-02-2024 01:00:00,19.235581,73.159121,NH3,1,2,1
India,Maharashtra,Virar,"Bolinj, Virar - MPCB",08-02-2024 01:00:00,19.4458210,72.7988231,NO2,16,41,23
India,Maharashtra,Virar,"Bolinj, Virar - MPCB",08-02-2024 01:00:00,19.4458210,72.7988231,NH3,6,7,7
India,Manipur,Imphal,"DM College of Science, Imphal - Manipur PCB",08-02-2024 01:00:00,24.8207389,93.9423085,PM10,28,84,45
India,Manipur,Imphal,"DM College of Science, Imphal - Manipur PCB",08-02-2024 01:00:00,24.8207389,93.9423085,NO2,7,8,8
India,Manipur,Imphal,"DM College of Science, Imphal - Manipur PCB",08-02-2024 01:00:00,24.8207389,93.9423085,NH3,2,2,2
India,Nagaland,Kohima,"PWD Juction, Kohima - NPCB",08-02-2024 01:00:00,25.6635413,94.0989878,PM10,72,174,123
India,Nagaland,Kohima,"PWD Juction, Kohima - NPCB",08-02-2024 01:00:00,25.6635413,94.0989878,NO2,3,4,3
India,Nagaland,Kohima,"PWD Juction, Kohima - NPCB",08-02-2024 01:00:00,25.6635413,94.0989878,SO2,96,102,100
India,Odisha,Barbil,"Forest Office, Barbil - OSPCB",08-02-2024 01:00:00,22.1166054,85.3945546,SO2,1,50,13
India,Odisha,Baripada,"Meher Colony, Baripada - OSPCB",08-02-2024 01:00:00,21.941841,86.728318,PM2.5,139,314,240
India,Odisha,Baripada,"Meher Colony, Baripada - OSPCB",08-02-2024 01:00:00,21.941841,86.728318,PM10,109,168,127
India,Odisha,Baripada,"Meher Colony, Baripada - OSPCB",08-02-2024 01:00:00,21.941841,86.728318,NO2,2,4,3
India,Odisha,Baripada,"Meher Colony, Baripada - OSPCB",08-02-2024 01:00:00,21.941841,86.728318,SO2,5,7,6
India,Odisha,Baripada,"Meher Colony, Baripada - OSPCB",08-02-2024 01:00:00,21.941841,86.728318,CO,33,50,41
India,Odisha,Bhubaneswar,"Patia, Bhubaneswar - OSPCB",08-02-2024 01:00:00,20.34652,85.81630,PM10,81,174,135
India,Odisha,Bhubaneswar,"Patia, Bhubaneswar - OSPCB",08-02-2024 01:00:00,20.34652,85.81630,CO,19,50,39
India,Odisha,Rairangpur,"Divisional Forest Office, Rairangpur - OSPCB",08-02-2024 01:00:00,22.265816,86.174829,PM2.5,32,117,85
India,Odisha,Rairangpur,"Divisional Forest Office, Rairangpur - OSPCB",08-02-2024 01:00:00,22.265816,86.174829,NO2,7,8,7
India,Odisha,Rairangpur,"Divisional Forest Office, Rairangpur - OSPCB",08-02-2024 01:00:00,22.265816,86.174829,NH3,5,5,5
India,Odisha,Rourkela,"Fertilizer Township, Rourkela - OSPCB",08-02-2024 01:00:00,22.18972222,84.86277778,CO,16,22,18
India,Odisha,Rourkela,"Raghunathpali, Rourkela - OSPCB",08-02-2024 01:00:00,22.220833,84.809444,NO2,21,124,48
India,Odisha,Rourkela,"Raghunathpali, Rourkela - OSPCB",08-02-2024 01:00:00,22.220833,84.809444,SO2,1,8,5
India,Odisha,Suakati,"OMC Colony, Suakati - OSPCB",08-02-2024 01:00:00,21.606865,85.510538,PM10,121,470,161
India,Odisha,Suakati,"OMC Colony, Suakati - OSPCB",08-02-2024 01:00:00,21.606865,85.510538,NH3,NA,NA,NA
India,Odisha,Suakati,"OMC Colony, Suakati - OSPCB",08-02-2024 01:00:00,21.606865,85.510538,CO,6,19,8
India,Odisha,Talcher,"Talcher Coalfields,Talcher - OSPCB",08-02-2024 01:00:00,20.9360711,85.1707021,PM2.5,23,357,210
India,Odisha,Tensa,"Barsua Iron Ore Mines, Tensa - OSPCB",08-02-2024 01:00:00,21.869985,85.167016,PM2.5,86,108,95
India,Odisha,Tensa,"Barsua Iron Ore Mines, Tensa - OSPCB",08-02-2024 01:00:00,21.869985,85.167016,OZONE,4,29,15
India,Puducherry,Puducherry,"Jawahar Nagar, Puducherry - PPCC",08-02-2024 01:00:00,11.9309,79.8027,OZONE,13,68,31
India,Punjab,Amritsar,"Golden Temple, Amritsar - PPCB",08-02-2024 01:00:00,31.620000,74.876512,PM10,67,161,121
India,Punjab,Bathinda,"Hardev Nagar, Bathinda - PPCB",08-02-2024 01:00:00,30.233011,74.907758,NO2,32,34,33
India,Punjab,Jalandhar,"Civil Line, Jalandhar - PPCB",08-02-2024 01:00:00,31.321907,75.578914,PM2.5,58,204,125
India,Punjab,Khanna,"Kalal Majra, Khanna - PPCB",08-02-2024 01:00:00,30.736056 ,76.209694,PM10,57,98,73
India,Punjab,Khanna,"Kalal Majra, Khanna - PPCB",08-02-2024 01:00:00,30.736056 ,76.209694,NH3,16,17,16
India,Punjab,Ludhiana,"Punjab Agricultural University, Ludhiana - PPCB",08-02-2024 01:00:00,30.9028,75.8086,SO2,1,26,11
India,Punjab,Mandi Gobindgarh,"RIMT University, Mandi Gobindgarh - PPCB",08-02-2024 01:00:00,30.649961,76.331442,CO,13,44,32
India,Punjab,Mandi Gobindgarh,"RIMT University, Mandi Gobindgarh - PPCB",08-02-2024 01:00:00,30.649961,76.331442,OZONE,32,33,33
India,Punjab,Patiala,"Model Town, Patiala - PPCB",08-02-2024 01:00:00,30.349388,76.366642,SO2,1,66,14
India,Punjab,Rupnagar,"Ratanpura, Rupnagar - Ambuja Cements",08-02-2024 01:00:00,31.0325454,76.5623046,PM10,40,315,160
India,Punjab,Rupnagar,"Ratanpura, Rupnagar - Ambuja Cements",08-02-2024 01:00:00,31.0325454,76.5623046,SO2,7,11,10
India,Rajasthan,Alwar,"Moti Doongri, Alwar - RSPCB",08-02-2024 01:00:00,27.554793,76.611536,CO,3,53,26
India,Rajasthan,Banswara,"Rati Talai, Banswara - RSPCB",08-02-2024 01:00:00,23.555190,74.440010,PM10,86,279,145
India,Rajasthan,Banswara,"Rati Talai, Banswara - RSPCB",08-02-2024 01:00:00,23.555190,74.440010,NO2,7,103,34
India,Rajasthan,Baran,"Bamboliya, Baran - RSPCB",08-02-2024 01:00:00,25.106006,76.469948,NH3,4,6,5
India,Rajasthan,Barmer,"Railway Colony, Barmer - RSPCB",08-02-2024 01:00:00,25.747299,71.393989,NO2,16,42,22
India,Rajasthan,Barmer,"Railway Colony, Barmer - RSPCB",08-02-2024 01:00:00,25.747299,71.393989,SO2,8,23,11
India,Rajasthan,Bhilwara,"Pratap Nagar, Bhilwara - RSPCB",08-02-2024 01:00:00,25.339605,74.618883,PM2.5,27,86,64
India,Rajasthan,Bhilwara,"Pratap Nagar, Bhilwara - RSPCB",08-02-2024 01:00:00,25.339605,74.618883,NH3,1,2,2
India,Rajasthan,Bhilwara,"Pratap Nagar, Bhilwara - RSPCB",08-02-2024 01:00:00,25.339605,74.618883,CO,20,36,28
India,Rajasthan,Bhiwadi,"RIICO Ind. Area III, Bhiwadi - RSPCB",08-02-2024 01:00:00,28.194909,76.862296,NH3,8,22,15
India,Rajasthan,Bikaner,"MM Ground, Bikaner - RSPCB",08-02-2024 01:00:00,28.018792,73.292658,PM2.5,52,289,109
India,Rajasthan,Bikaner,"MM Ground, Bikaner - RSPCB",08-02-2024 01:00:00,28.018792,73.292658,PM10,82,370,155
India,Rajasthan,Bikaner,"MM Ground, Bikaner - RSPCB",08-02-2024 01:00:00,28.018792,73.292658,NH3,6,9,7
India,Rajasthan,Bikaner,"MM Ground, Bikaner - RSPCB",08-02-2024 01:00:00,28.018792,73.292658,SO2,5,11,8
India,Rajasthan,Bundi,"New Colony, Bundi - RSPCB",08-02-2024 01:00:00,25.435774,75.644272,SO2,3,5,4
India,Rajasthan,Chittorgarh,"Shastri Nagar, Chittorgarh - RSPCB",08-02-2024 01:00:00,24.892047,74.623527,PM2.5,8,178,83
India,Rajasthan,Chittorgarh,"Shastri Nagar, Chittorgarh - RSPCB",08-02-2024 01:00:00,24.892047,74.623527,NO2,16,69,34
India,Rajasthan,Churu,"Subash Chowk, Churu - RSPCB",08-02-2024 01:00:00,28.296139,74.961696,PM2.5,28,211,76
India,Rajasthan,Dausa,"Khatikan Mohalla, Dausa - RSPCB",08-02-2024 01:00:00,26.895552,76.334753,PM2.5,26,190,51
India,Rajasthan,Dausa,"Khatikan Mohalla, Dausa - RSPCB",08-02-2024 01:00:00,26.895552,76.334753,PM10,83,305,127
India,Rajasthan,Dausa,"Khatikan Mohalla, Dausa - RSPCB",08-02-2024 01:00:00,26.895552,76.334753,NO2,42,96,57
India,Rajasthan,Dausa,"Khatikan Mohalla, Dausa - RSPCB",08-02-2024 01:00:00,26.895552,76.334753,SO2,2,23,9
India,Rajasthan,Dungarpur,"Bhoiwada, Dungarpur - RSPCB",08-02-2024 01:00:00,23.837789,73.714926,SO2,3,7,5
India,Rajasthan,Dungarpur,"Bhoiwada, Dungarpur - RSPCB",08-02-2024 01:00:00,23.837789,73.714926,OZONE,25,52,45
India,Rajasthan,Jaipur,"Adarsh Nagar, Jaipur - RSPCB",08-02-2024 01:00:00,26.902909,75.836858,NO2,31,37,34
India,Rajasthan,Jaipur,"Adarsh Nagar, Jaipur - RSPCB",08-02-2024 01:00:00,26.902909,75.836858,SO2,10,20,14
India,Rajasthan,Jaipur,"Mansarovar Sector-12, Jaipur - RSPCB",08-02-2024 01:00:00,26.843698,75.766894,NH3,1,2,1
India,Rajasthan,Jaipur,"Mansarovar Sector-12, Jaipur - RSPCB",08-02-2024 01:00:00,26.843698,75.766894,SO2,2,24,8
India,Rajasthan,Jaipur,"Mansarovar Sector-12, Jaipur - RSPCB",08-02-2024 01:00:00,26.843698,75.766894,CO,54,80,71
India,Rajasthan,Jaipur,"Police Commissionerate, Jaipur - RSPCB",08-02-2024 01:00:00,26.9164092,75.7994901,NO2,24,63,44
India,Rajasthan,Jaipur,"RIICO Sitapura, Jaipur - RSPCB",08-02-2024 01:00:00,26.786682,75.827928,NH3,2,4,3
India,Rajasthan,Jaipur,"Sector-2 Murlipura, Jaipur - RSPCB",08-02-2024 01:00:00,26.960669,75.771817,OZONE,28,147,57
India,Rajasthan,Jaipur,"Shastri Nagar, Jaipur - RSPCB",08-02-2024 01:00:00,26.9502929,75.730943,CO,16,56,36
India,Rajasthan,Jalore,"Mudtra Sili, Jalore - RSPCB",08-02-2024 01:00:00,25.344694,72.626208,CO,28,80,47
India,Rajasthan,Jhunjhunu,"Indra Nagar, Jhunjhunu - RSPCB",08-02-2024 01:00:00,28.108988,75.386577,OZONE,4,96,42
India,Rajasthan,Jodhpur,"Collectorate, Jodhpur - RSPCB",08-02-2024 01:00:00,26.268249,73.0193853,NO2,23,69,48
India,Rajasthan,Jodhpur,"Collectorate, Jodhpur - RSPCB",08-02-2024 01:00:00,26.268249,73.0193853,SO2,1,52,23
India,Rajasthan,Jodhpur,"Digari Kalan, Jodhpur - RSPCB",08-02-2024 01:00:00,26.295810,73.082283,OZONE,26,117,61
India,Rajasthan,Jodhpur,"Jhalamand, Jodhpur - RSPCB",08-02-2024 01:00:00,26.215415,73.070156,PM10,69,143,97
India,Rajasthan,Jodhpur,"Jhalamand, Jodhpur - RSPCB",08-02-2024 01:00:00,26.215415,73.070156,NO2,7,52,26
India,Rajasthan,Jodhpur,"Jhalamand, Jodhpur - RSPCB",08-02-2024 01:00:00,26.215415,73.070156,SO2,4,14,7
India,Rajasthan,Jodhpur,"Jhalamand, Jodhpur - RSPCB",08-02-2024 01:00:00,26.215415,73.070156,CO,16,35,23
India,Rajasthan,Jodhpur,"Mandor, Jodhpur - RSPCB",08-02-2024 01:00:00,26.358805,73.047444,OZONE,25,87,65
India,Rajasthan,Jodhpur,"Samrat Ashok Udhyan, Jodhpur - RSPCB",08-02-2024 01:00:00,26.253384,72.976571,NH3,6,9,8
India,Rajasthan,Karauli,"Satyawati Vihar, Karauli - RSPCB",08-02-2024 01:00:00,26.506177,77.025989,PM10,NA,NA,NA
India,Rajasthan,Karauli,"Satyawati Vihar, Karauli - RSPCB",08-02-2024 01:00:00,26.506177,77.025989,NO2,NA,NA,NA
India,Rajasthan,Kota,"Dhanmandi, Kota - RSPCB",08-02-2024 01:00:00,25.164090,75.858137,CO,17,56,41
India,Rajasthan,Kota,"Nayapura, Kota - RSPCB",08-02-2024 01:00:00,25.196024,75.855668,PM10,59,138,94
India,Rajasthan,Kota,"Nayapura, Kota - RSPCB",08-02-2024 01:00:00,25.196024,75.855668,SO2,6,8,6
India,Rajasthan,Nagaur,"Karni Colony, Nagaur - RSPCB",08-02-2024 01:00:00,27.213494,73.734444,CO,16,45,33
India,Rajasthan,Pali,"Indira Colony Vistar, Pali - RSPCB",08-02-2024 01:00:00,25.771061, 73.340227,PM10,65,111,90
India,Rajasthan,Pali,"Indira Colony Vistar, Pali - RSPCB",08-02-2024 01:00:00,25.771061, 73.340227,OZONE,25,72,48
India,Rajasthan,Pratapgarh,"Pragati Nagar, Pratapgarh - RSPCB",08-02-2024 01:00:00,24.041198,74.780702,PM10,56,123,91
India,Rajasthan,Pratapgarh,"Pragati Nagar, Pratapgarh - RSPCB",08-02-2024 01:00:00,24.041198,74.780702,NO2,4,38,16
India,Rajasthan,Rajsamand,"Dhoinda, Rajsamand - RSPCB",08-02-2024 01:00:00,25.036360,73.883502,OZONE,18,43,40
India,Rajasthan,Sawai Madhopur,"Sahu Nagar, Sawai Madhopur - RSPCB",08-02-2024 01:00:00,26.031443,76.359327,SO2,13,26,19
India,Rajasthan,Sikar,"Radhakishan Pura, Sikar - RSPCB",08-02-2024 01:00:00,27.608912,75.153302,PM10,87,267,144
India,Rajasthan,Sikar,"Radhakishan Pura, Sikar - RSPCB",08-02-2024 01:00:00,27.608912,75.153302,NO2,4,58,20
India,Rajasthan,Sirohi,"Vedhaynath Colony, Sirohi - RSPCB",08-02-2024 01:00:00,24.885261,72.857549,PM2.5,37,203,70
India,Rajasthan,Tonk,"Shastri Nagar, Tonk - RSPCB",08-02-2024 01:00:00,26.159933,75.780517,OZONE,18,84,53
India,Sikkim,Gangtok,"Zero Point GICI, Gangtok - SSPCB",08-02-2024 01:00:00,27.338530,88.614099,SO2,9,10,9
India,Sikkim,Gangtok,"Zero Point GICI, Gangtok - SSPCB",08-02-2024 01:00:00,27.338530,88.614099,CO,14,24,23
India,TamilNadu,Ariyalur,"Keelapalur, Ariyalur - TNPCB",08-02-2024 01:00:00,11.06825,79.07033,SO2,22,24,23
India,TamilNadu,Chengalpattu,"Crescent University, Chengalpattu - TNPCB",08-02-2024 01:00:00,12.8777316,80.0834807,PM10,45,96,73
India,TamilNadu,Chennai,"Arumbakkam, Chennai - TNPCB",08-02-2024 01:00:00,13.0664,80.2112 ,PM2.5,45,257,104
India,TamilNadu,Chennai,"Arumbakkam, Chennai - TNPCB",08-02-2024 01:00:00,13.0664,80.2112 ,PM10,54,150,95
India,TamilNadu,Chennai,"Kodungaiyur, Chennai - TNPCB",08-02-2024 01:00:00,13.1278,80.2642,NO2,8,32,19
India,TamilNadu,Chennai,"Kodungaiyur, Chennai - TNPCB",08-02-2024 01:00:00,13.1278,80.2642,NH3,3,6,4
India,TamilNadu,Chennai,"Kodungaiyur, Chennai - TNPCB",08-02-2024 01:00:00,13.1278,80.2642,OZONE,5,7,6
India,TamilNadu,Chennai,"Manali, Chennai - CPCB",08-02-2024 01:00:00,13.164544,80.26285,NH3,2,9,5
India,TamilNadu,Chennai,"Perungudi, Chennai - TNPCB",08-02-2024 01:00:00,12.9533,80.2357,SO2,2,6,4
India,TamilNadu,Chennai,"Perungudi, Chennai - TNPCB",08-02-2024 01:00:00,12.9533,80.2357,OZONE,3,7,6
India,TamilNadu,Chennai,"Royapuram, Chennai - TNPCB",08-02-2024 01:00:00,13.1036,80.2909,PM10,32,167,81
India,TamilNadu,Chennai,"Royapuram, Chennai - TNPCB",08-02-2024 01:00:00,13.1036,80.2909,NO2,12,39,20
India,TamilNadu,Chennai,"Velachery Res. Area, Chennai - CPCB",08-02-2024 01:00:00,13.0052189,80.2398125,NH3,5,9,7
India,TamilNadu,Coimbatore,"PSG College of Arts and Science, Coimbatore - TNPCB",08-02-2024 01:00:00,11.0328,77.0349,NO2,2,10,4
India,TamilNadu,Coimbatore,"PSG College of Arts and Science, Coimbatore - TNPCB",08-02-2024 01:00:00,11.0328,77.0349,SO2,13,20,17
India,TamilNadu,Coimbatore,"PSG College of Arts and Science, Coimbatore - TNPCB",08-02-2024 01:00:00,11.0328,77.0349,CO,5,5,5
India,TamilNadu,Gummidipoondi,"Anthoni Pillai Nagar, Gummidipoondi - TNPCB",08-02-2024 01:00:00,13.4127,80.1081,PM2.5,51,500,190
India,TamilNadu,Gummidipoondi,"Anthoni Pillai Nagar, Gummidipoondi - TNPCB",08-02-2024 01:00:00,13.4127,80.1081,NO2,9,15,12
India,TamilNadu,Kanchipuram,"Kilambi, Kanchipuram - TNPCB",08-02-2024 01:00:00,12.864618,79.659968,NH3,NA,NA,NA
India,TamilNadu,Palkalaiperur,"Bharathidasan University, Palkalaiperur - TNPCB",08-02-2024 01:00:00,10.681158,78.741746,SO2,27,28,27
India,TamilNadu,Palkalaiperur,"Bharathidasan University, Palkalaiperur - TNPCB",08-02-2024 01:00:00,10.681158,78.741746,CO,2,26,13
India,TamilNadu,Ramanathapuram,"Chalai Bazaar, Ramanathapuram - TNPCB",08-02-2024 01:00:00,9.36399,78.831977,CO,5,16,8
India,TamilNadu,Ramanathapuram,"Chalai Bazaar, Ramanathapuram - TNPCB",08-02-2024 01:00:00,9.36399,78.831977,OZONE,13,14,14
India,TamilNadu,Salem,"Sona College of Technology, Salem - TNPCB",08-02-2024 01:00:00,11.679111,78.125052,PM10,47,108,79
India,TamilNadu,Salem,"Sona College of Technology, Salem - TNPCB",08-02-2024 01:00:00,11.679111,78.125052,SO2,21,22,21
India,TamilNadu,Salem,"Sona College of Technology, Salem - TNPCB",08-02-2024 01:00:00,11.679111,78.125052,OZONE,3,3,3
India,TamilNadu,Thoothukudi,"Meelavittan, Thoothukudi - TNPCB",08-02-2024 01:00:00,8.816428 ,78.099039,NO2,14,23,19
India,TamilNadu,Thoothukudi,"Meelavittan, Thoothukudi - TNPCB",08-02-2024 01:00:00,8.816428 ,78.099039,CO,2,89,32
India,TamilNadu,Tirupur,"Kumaran College, Tirupur - TNPCB",08-02-2024 01:00:00,11.0973603,77.3228673,PM2.5,NA,NA,NA
India,Telangana,Hyderabad,"Bollaram Industrial Area, Hyderabad - TSPCB",08-02-2024 01:00:00,17.540891,78.358528,PM2.5,62,104,80
India,Telangana,Hyderabad,"Bollaram Industrial Area, Hyderabad - TSPCB",08-02-2024 01:00:00,17.540891,78.358528,PM10,78,150,112
India,Telangana,Hyderabad,"Bollaram Industrial Area, Hyderabad - TSPCB",08-02-2024 01:00:00,17.540891,78.358528,CO,19,54,38
India,Telangana,Hyderabad,"Central University, Hyderabad - TSPCB",08-02-2024 01:00:00,17.460103,78.334361,SO2,4,9,7
India,Telangana,Hyderabad,"Central University, Hyderabad - TSPCB",08-02-2024 01:00:00,17.460103,78.334361,CO,18,106,68
India,Telangana,Hyderabad,"ECIL Kapra, Hyderabad - TSPCB",08-02-2024 01:00:00,17.470431,78.566959,PM2.5,32,44,37
India,Telangana,Hyderabad,"ECIL Kapra, Hyderabad - TSPCB",08-02-2024 01:00:00,17.470431,78.566959,CO,14,40,19
India,Telangana,Hyderabad,"ECIL Kapra, Hyderabad - TSPCB",08-02-2024 01:00:00,17.470431,78.566959,OZONE,1,70,34
India,Telangana,Hyderabad,"ICRISAT Patancheru, Hyderabad - TSPCB",08-02-2024 01:00:00,17.518400,78.278777,OZONE,4,125,53
India,Telangana,Hyderabad,"Kompally Municipal Office, Hyderabad - TSPCB",08-02-2024 01:00:00,17.544899,78.486949,PM2.5,26,266,69
India,Telangana,Hyderabad,"Kompally Municipal Office, Hyderabad - TSPCB",08-02-2024 01:00:00,17.544899,78.486949,PM10,36,126,58
India,Telangana,Hyderabad,"Kompally Municipal Office, Hyderabad - TSPCB",08-02-2024 01:00:00,17.544899,78.486949,SO2,7,18,10
India,Telangana,Hyderabad,"Kompally Municipal Office, Hyderabad - TSPCB",08-02-2024 01:00:00,17.544899,78.486949,CO,2,90,5
India,Telangana,Hyderabad,"Nacharam_TSIIC IALA, Hyderabad - TSPCB",08-02-2024 01:00:00,17.429398,78.569354,OZONE,23,40,30
India,Telangana,Hyderabad,"Ramachandrapuram, Hyderabad - TSPCB",08-02-2024 01:00:00,17.528544,78.286195,NO2,NA,NA,NA
India,Telangana,Hyderabad,"Ramachandrapuram, Hyderabad - TSPCB",08-02-2024 01:00:00,17.528544,78.286195,SO2,NA,NA,NA
India,Telangana,Hyderabad,"Ramachandrapuram, Hyderabad - TSPCB",08-02-2024 01:00:00,17.528544,78.286195,CO,NA,NA,NA
India,Telangana,Hyderabad,"Sanathnagar, Hyderabad - TSPCB",08-02-2024 01:00:00,17.4559458,78.4332152,NO2,11,389,137
India,Telangana,Hyderabad,"Zoo Park, Hyderabad - TSPCB",08-02-2024 01:00:00,17.349694,78.451437,SO2,1,16,4
India,Tripura,Agartala,"Bardowali, Agartala - Tripura SPCB",08-02-2024 01:00:00,23.8175497,91.2726974,PM2.5,98,331,262
India,Tripura,Agartala,"Bardowali, Agartala - Tripura SPCB",08-02-2024 01:00:00,23.8175497,91.2726974,NO2,6,35,19
India,Tripura,Agartala,"Bardowali, Agartala - Tripura SPCB",08-02-2024 01:00:00,23.8175497,91.2726974,OZONE,1,14,1
India,Uttar_Pradesh,Agra,"Manoharpur, Agra - UPPCB",08-02-2024 01:00:00,27.23711,78.01936,PM2.5,17,44,28
India,Uttar_Pradesh,Agra,"Manoharpur, Agra - UPPCB",08-02-2024 01:00:00,27.23711,78.01936,CO,5,10,7
India,Uttar_Pradesh,Agra,"Rohta, Agra - UPPCB",08-02-2024 01:00:00,27.106972,78.000111,PM10,24,90,48
India,Uttar_Pradesh,Agra,"Rohta, Agra - UPPCB",08-02-2024 01:00:00,27.106972,78.000111,NH3,1,1,1
India,Uttar_Pradesh,Agra,"Sanjay Palace, Agra - UPPCB",08-02-2024 01:00:00,27.19865833,78.00598056,PM2.5,15,57,33
India,Uttar_Pradesh,Agra,"Sanjay Palace, Agra - UPPCB",08-02-2024 01:00:00,27.19865833,78.00598056,NO2,54,96,73
India,Uttar_Pradesh,Agra,"Sanjay Palace, Agra - UPPCB",08-02-2024 01:00:00,27.19865833,78.00598056,SO2,1,17,10
India,Uttar_Pradesh,Agra,"Sector-3B Avas Vikas Colony, Agra - UPPCB",08-02-2024 01:00:00,27.19412,77.96237,PM2.5,21,54,34
India,Uttar_Pradesh,Agra,"Sector-3B Avas Vikas Colony, Agra - UPPCB",08-02-2024 01:00:00,27.19412,77.96237,NH3,3,5,4
India,Uttar_Pradesh,Agra,"Sector-3B Avas Vikas Colony, Agra - UPPCB",08-02-2024 01:00:00,27.19412,77.96237,SO2,12,23,14
India,Uttar_Pradesh,Agra,"Shahjahan Garden, Agra - UPPCB",08-02-2024 01:00:00,27.169338,78.03582,PM2.5,24,85,44
India,Uttar_Pradesh,Agra,"Shahjahan Garden, Agra - UPPCB",08-02-2024 01:00:00,27.169338,78.03582,OZONE,11,59,17
India,Uttar_Pradesh,Baghpat,"Sardar Patel Inter College, Baghpat - UPPCB",08-02-2024 01:00:00,28.964949,77.278761,PM10,60,107,82
India,Uttar_Pradesh,Baghpat,"Sardar Patel Inter College, Baghpat - UPPCB",08-02-2024 01:00:00,28.964949,77.278761,NO2,29,61,42
India,Uttar_Pradesh,Bareilly,"Rajendra Nagar, Bareilly - UPPCB",08-02-2024 01:00:00,28.38910936,79.42963708,PM2.5,23,44,31
India,Uttar_Pradesh,Bareilly,"Rajendra Nagar, Bareilly - UPPCB",08-02-2024 01:00:00,28.38910936,79.42963708,CO,12,48,13
India,Uttar_Pradesh,Firozabad,"Nagla Bhau, Firozabad - UPPCB",08-02-2024 01:00:00,27.168897,78.376960,OZONE,18,23,20
India,Uttar_Pradesh,Ghaziabad,"Indirapuram, Ghaziabad - UPPCB",08-02-2024 01:00:00,28.646233,77.358075,PM10,104,190,134
India,Uttar_Pradesh,Ghaziabad,"Loni, Ghaziabad - UPPCB",08-02-2024 01:00:00,28.757294,77.278792,NH3,1,4,3
India,Uttar_Pradesh,Ghaziabad,"Loni, Ghaziabad - UPPCB",08-02-2024 01:00:00,28.757294,77.278792,CO,4,60,14
India,Uttar_Pradesh,Ghaziabad,"Sanjay Nagar, Ghaziabad - UPPCB",08-02-2024 01:00:00,28.685382,77.453839,NH3,7,11,9
India,Uttar_Pradesh,Ghaziabad,"Vasundhara, Ghaziabad - UPPCB",08-02-2024 01:00:00,28.6603346,77.3572563,PM2.5,31,182,85
India,Uttar_Pradesh,Ghaziabad,"Vasundhara, Ghaziabad - UPPCB",08-02-2024 01:00:00,28.6603346,77.3572563,NO2,17,105,60
India,Uttar_Pradesh,Ghaziabad,"Vasundhara, Ghaziabad - UPPCB",08-02-2024 01:00:00,28.6603346,77.3572563,SO2,3,38,21
India,Uttar_Pradesh,Gorakhpur,"Madan Mohan Malaviya University of Technology, Gorakhpur - UPPCB",08-02-2024 01:00:00,26.730136,83.433859,PM10,54,103,71
India,Uttar_Pradesh,Gorakhpur,"Madan Mohan Malaviya University of Technology, Gorakhpur - UPPCB",08-02-2024 01:00:00,26.730136,83.433859,CO,18,38,28
India,Uttar_Pradesh,Greater Noida,"Knowledge Park - III, Greater Noida - UPPCB",08-02-2024 01:00:00,28.47272,77.482000,PM2.5,54,278,140
India,Uttar_Pradesh,Greater Noida,"Knowledge Park - III, Greater Noida - UPPCB",08-02-2024 01:00:00,28.47272,77.482000,SO2,16,26,20
India,Uttar_Pradesh,Greater Noida,"Knowledge Park - V, Greater Noida - UPPCB",08-02-2024 01:00:00,28.557054,77.453663,NO2,12,33,20
India,Uttar_Pradesh,Greater Noida,"Knowledge Park - V, Greater Noida - UPPCB",08-02-2024 01:00:00,28.557054,77.453663,SO2,14,27,19
India,Uttar_Pradesh,Hapur,"Anand Vihar, Hapur - UPPCB",08-02-2024 01:00:00,28.725645,77.749675,PM2.5,56,303,187
India,Uttar_Pradesh,Hapur,"Anand Vihar, Hapur - UPPCB",08-02-2024 01:00:00,28.725645,77.749675,OZONE,28,160,79
India,Uttar_Pradesh,Kanpur,"NSI Kalyanpur, Kanpur - UPPCB",08-02-2024 01:00:00,26.509954,80.249612,SO2,23,23,23
India,Uttar_Pradesh,Kanpur,"NSI Kalyanpur, Kanpur - UPPCB",08-02-2024 01:00:00,26.509954,80.249612,CO,16,26,21
India,Uttar_Pradesh,Kanpur,"Nehru Nagar, Kanpur - UPPCB",08-02-2024 01:00:00,26.4703136,80.3229863,CO,2,102,52
India,Uttar_Pradesh,Khurja,"Kalindi Kunj, Khurja - UPPCB",08-02-2024 01:00:00,28.2348927,77.8683002,PM10,2,72,30
India,Uttar_Pradesh,Lucknow,"B R Ambedkar University, Lucknow - UPPCB",08-02-2024 01:00:00,26.766433,80.927299,PM2.5,44,84,58
India,Uttar_Pradesh,Lucknow,"B R Ambedkar University, Lucknow - UPPCB",08-02-2024 01:00:00,26.766433,80.927299,PM10,59,110,80
India,Uttar_Pradesh,Lucknow,"B R Ambedkar University, Lucknow - UPPCB",08-02-2024 01:00:00,26.766433,80.927299,NO2,11,12,12
India,Uttar_Pradesh,Lucknow,"B R Ambedkar University, Lucknow - UPPCB",08-02-2024 01:00:00,26.766433,80.927299,NH3,6,7,6
India,Uttar_Pradesh,Lucknow,"B R Ambedkar University, Lucknow - UPPCB",08-02-2024 01:00:00,26.766433,80.927299,SO2,24,28,26
India,Uttar_Pradesh,Lucknow,"Gomti Nagar, Lucknow - UPPCB",08-02-2024 01:00:00,26.868120,81.005119,NO2,7,10,9
India,Uttar_Pradesh,Lucknow,"Gomti Nagar, Lucknow - UPPCB",08-02-2024 01:00:00,26.868120,81.005119,OZONE,54,73,64
India,Uttar_Pradesh,Lucknow,"Kendriya Vidyalaya, Lucknow - CPCB",08-02-2024 01:00:00,26.906111,80.948222,NH3,3,20,14
India,Uttar_Pradesh,Lucknow,"Kendriya Vidyalaya, Lucknow - CPCB",08-02-2024 01:00:00,26.906111,80.948222,SO2,2,8,6
India,Uttar_Pradesh,Lucknow,"Lalbagh, Lucknow - CPCB",08-02-2024 01:00:00,26.8458805,80.9365541,NH3,10,13,11
India,Uttar_Pradesh,Lucknow,"Lalbagh, Lucknow - CPCB",08-02-2024 01:00:00,26.8458805,80.9365541,OZONE,11,30,17
India,Uttar_Pradesh,Lucknow,"Talkatora District Industries Center, Lucknow - CPCB",08-02-2024 01:00:00,26.83399722,80.8917361,NO2,21,52,41
India,Uttar_Pradesh,Meerut,"Ganga Nagar, Meerut - UPPCB",08-02-2024 01:00:00,28.999264,77.7590354,NO2,23,50,35
India,Uttar_Pradesh,Meerut,"Ganga Nagar, Meerut - UPPCB",08-02-2024 01:00:00,28.999264,77.7590354,CO,12,28,23
India,Uttar_Pradesh,Meerut,"Jai Bhim Nagar, Meerut - UPPCB",08-02-2024 01:00:00,28.9535882,77.7622941,PM10,54,111,78
India,Uttar_Pradesh,Meerut,"Jai Bhim Nagar, Meerut - UPPCB",08-02-2024 01:00:00,28.9535882,77.7622941,NH3,5,6,5
India,Uttar_Pradesh,Meerut,"Jai Bhim Nagar, Meerut - UPPCB",08-02-2024 01:00:00,28.9535882,77.7622941,CO,24,66,51
India,Uttar_Pradesh,Meerut,"Jai Bhim Nagar, Meerut - UPPCB",08-02-2024 01:00:00,28.9535882,77.7622941,OZONE,7,19,17
India,Uttar_Pradesh,Moradabad,"Buddhi Vihar, Moradabad - UPPCB",08-02-2024 01:00:00,28.83526,78.74460,PM10,53,79,65
India,Uttar_Pradesh,Moradabad,"Buddhi Vihar, Moradabad - UPPCB",08-02-2024 01:00:00,28.83526,78.74460,NO2,23,24,23
India,Uttar_Pradesh,Moradabad,"Eco Herbal Park, Moradabad - UPPCB",08-02-2024 01:00:00,28.840739,78.697531,OZONE,24,72,54
India,Uttar_Pradesh,Moradabad,"Employment Office, Moradabad - UPPCB",08-02-2024 01:00:00,28.88528,78.73880,PM2.5,31,68,52
India,Uttar_Pradesh,Moradabad,"Employment Office, Moradabad - UPPCB",08-02-2024 01:00:00,28.88528,78.73880,PM10,73,102,85
India,Uttar_Pradesh,Moradabad,"Employment Office, Moradabad - UPPCB",08-02-2024 01:00:00,28.88528,78.73880,NH3,4,4,4
India,Uttar_Pradesh,Moradabad,"Employment Office, Moradabad - UPPCB",08-02-2024 01:00:00,28.88528,78.73880,OZONE,14,103,22
India,Uttar_Pradesh,Moradabad,"Jigar Colony, Moradabad - UPPCB",08-02-2024 01:00:00,28.856664,78.772638,NH3,5,5,5
India,Uttar_Pradesh,Moradabad,"Kashiram Nagar, Moradabad - UPPCB",08-02-2024 01:00:00,28.849399,78.742362,NO2,18,25,21
India,Uttar_Pradesh,Moradabad,"Kashiram Nagar, Moradabad - UPPCB",08-02-2024 01:00:00,28.849399,78.742362,NH3,4,4,4
India,Uttar_Pradesh,Moradabad,"Kashiram Nagar, Moradabad - UPPCB",08-02-2024 01:00:00,28.849399,78.742362,SO2,29,36,31
India,Uttar_Pradesh,Moradabad,"Kashiram Nagar, Moradabad - UPPCB",08-02-2024 01:00:00,28.849399,78.742362,OZONE,14,39,19
India,Uttar_Pradesh,Moradabad,"Transport Nagar, Moradabad - UPPCB",08-02-2024 01:00:00,28.802625,78.753728,PM2.5,26,70,44
India,Uttar_Pradesh,Moradabad,"Transport Nagar, Moradabad - UPPCB",08-02-2024 01:00:00,28.802625,78.753728,NO2,13,23,18
India,Uttar_Pradesh,Muzaffarnagar,"New Mandi, Muzaffarnagar - UPPCB",08-02-2024 01:00:00,29.4723508,77.7194031,PM10,114,164,133
India,Uttar_Pradesh,Noida,"Sector - 125, Noida - UPPCB",08-02-2024 01:00:00,28.5447608,77.3231257,CO,36,80,62
India,Uttar_Pradesh,Noida,"Sector - 62, Noida - IMD",08-02-2024 01:00:00,28.6245479,77.3577104,NO2,10,21,16
India,Uttar_Pradesh,Noida,"Sector - 62, Noida - IMD",08-02-2024 01:00:00,28.6245479,77.3577104,OZONE,33,64,45
India,Uttar_Pradesh,Noida,"Sector-1, Noida - UPPCB",08-02-2024 01:00:00,28.5898,77.3101,NH3,5,9,7
India,Uttar_Pradesh,Noida,"Sector-116, Noida - UPPCB",08-02-2024 01:00:00,28.569230,77.393848,OZONE,2,63,25
India,Uttar_Pradesh,Prayagraj,"Jhunsi, Prayagraj - UPPCB",08-02-2024 01:00:00,25.425602,81.917152,PM10,39,82,58
India,Uttar_Pradesh,Prayagraj,"Jhunsi, Prayagraj - UPPCB",08-02-2024 01:00:00,25.425602,81.917152,CO,6,23,14
India,Uttar_Pradesh,Prayagraj,"Motilal Nehru NIT, Prayagraj - UPPCB",08-02-2024 01:00:00,25.494,81.863,PM10,NA,NA,NA
India,Uttar_Pradesh,Prayagraj,"Motilal Nehru NIT, Prayagraj - UPPCB",08-02-2024 01:00:00,25.494,81.863,CO,NA,NA,NA
India,Uttar_Pradesh,Prayagraj,"Nagar Nigam, Prayagraj - UPPCB",08-02-2024 01:00:00,25.44919916 ,81.82735986 ,OZONE,10,11,10
India,Uttar_Pradesh,Varanasi,"Bhelupur, Varanasi - UPPCB",08-02-2024 01:00:00,25.301778,82.996789,NH3,1,1,1
India,Uttar_Pradesh,Varanasi,"Bhelupur, Varanasi - UPPCB",08-02-2024 01:00:00,25.301778,82.996789,SO2,22,22,22
India,Uttar_Pradesh,Varanasi,"Maldahiya, Varanasi - UPPCB",08-02-2024 01:00:00,25.32393,82.99687,PM2.5,38,73,55
India,Uttar_Pradesh,Varanasi,"Maldahiya, Varanasi - UPPCB",08-02-2024 01:00:00,25.32393,82.99687,CO,4,20,13
India,Uttarakhand,Kashipur,"Govt. Girls Inter College, Kashipur - UKPCB",08-02-2024 01:00:00,29.2124114,78.9611753,OZONE,5,20,13
India,West_Bengal,Asansol,"Asansol Court Area, Asansol - WBPCB",08-02-2024 01:00:00,23.685297,86.945968,CO,6,38,25
India,West_Bengal,Haldia,"Priyambada Housing Estate, Haldia - WBPCB",08-02-2024 01:00:00,22.06047,88.109737,PM2.5,50,110,75
India,West_Bengal,Haldia,"Priyambada Housing Estate, Haldia - WBPCB",08-02-2024 01:00:00,22.06047,88.109737,CO,36,100,77
India,West_Bengal,Howrah,"Belur Math, Howrah - WBPCB",08-02-2024 01:00:00,22.629801,88.352017,NO2,6,33,23
India,West_Bengal,Howrah,"Belur Math, Howrah - WBPCB",08-02-2024 01:00:00,22.629801,88.352017,SO2,11,12,11
India,West_Bengal,Howrah,"Ghusuri, Howrah - WBPCB",08-02-2024 01:00:00,22.611968,88.347422,SO2,4,7,6
India,West_Bengal,Howrah,"Padmapukur, Howrah - WBPCB",08-02-2024 01:00:00,22.5687319,88.2797276,PM2.5,68,195,110
India,West_Bengal,Kolkata,"Ballygunge, Kolkata - WBPCB",08-02-2024 01:00:00,22.5367507,88.3638022,PM10,90,139,112
India,West_Bengal,Kolkata,"Ballygunge, Kolkata - WBPCB",08-02-2024 01:00:00,22.5367507,88.3638022,SO2,7,24,16
India,West_Bengal,Kolkata,"Bidhannagar, Kolkata - WBPCB",08-02-2024 01:00:00,22.58157048,88.41002457,OZONE,7,82,8
India,West_Bengal,Kolkata,"Jadavpur, Kolkata - WBPCB",08-02-2024 01:00:00,22.49929,88.36917,NH3,3,5,4
India,West_Bengal,Kolkata,"Jadavpur, Kolkata - WBPCB",08-02-2024 01:00:00,22.49929,88.36917,CO,15,71,48
India,West_Bengal,Kolkata,"Jadavpur, Kolkata - WBPCB",08-02-2024 01:00:00,22.49929,88.36917,OZONE,9,29,16
India,West_Bengal,Kolkata,"Rabindra Sarobar, Kolkata - WBPCB",08-02-2024 01:00:00,22.51106,88.35142,PM2.5,64,145,95
India,West_Bengal,Kolkata,"Rabindra Sarobar, Kolkata - WBPCB",08-02-2024 01:00:00,22.51106,88.35142,CO,14,59,41
India,West_Bengal,Kolkata,"Rabindra Sarobar, Kolkata - WBPCB",08-02-2024 01:00:00,22.51106,88.35142,OZONE,3,91,17
India,West_Bengal,Kolkata,"Victoria, Kolkata - WBPCB",08-02-2024 01:00:00,22.5448082,88.3403691,PM10,91,147,117
India,West_Bengal,Kolkata,"Victoria, Kolkata - WBPCB",08-02-2024 01:00:00,22.5448082,88.3403691,OZONE,5,98,18
India,West_Bengal,Siliguri,"Ward-32 Bapupara, Siliguri - WBPCB",08-02-2024 01:00:00,26.6879226,88.4152495,SO2,10,12,11
India,West_Bengal,Siliguri,"Ward-32 Bapupara, Siliguri - WBPCB",08-02-2024 01:00:00,26.6879226,88.4152495,CO,24,88,59
India,Andhra_Pradesh,Amaravati,"Secretariat, Amaravati - APPCB",08-02-2024 01:00:00,16.5150833,80.5181667,PM10,62,108,84
India,Andhra_Pradesh,Amaravati,"Secretariat, Amaravati - APPCB",08-02-2024 01:00:00,16.5150833,80.5181667,NH3,1,4,3
India,Andhra_Pradesh,Amaravati,"Secretariat, Amaravati - APPCB",08-02-2024 01:00:00,16.5150833,80.5181667,CO,21,60,45
India,Andhra_Pradesh,Chittoor,"Gangineni Cheruvu, Chittoor - APPCB",08-02-2024 01:00:00,13.204880,79.097889,NH3,1,2,2
India,Andhra_Pradesh,Chittoor,"Gangineni Cheruvu, Chittoor - APPCB",08-02-2024 01:00:00,13.204880,79.097889,OZONE,8,170,143
India,Andhra_Pradesh,Kadapa,"Yerramukkapalli, Kadapa - APPCB",08-02-2024 01:00:00,14.465052,78.824187,PM10,28,46,34
India,Andhra_Pradesh,Kadapa,"Yerramukkapalli, Kadapa - APPCB",08-02-2024 01:00:00,14.465052,78.824187,OZONE,4,48,35
India,Andhra_Pradesh,Rajamahendravaram,"Anand Kala Kshetram, Rajamahendravaram - APPCB",08-02-2024 01:00:00,16.9872867,81.7363176,NO2,12,34,19
India,Andhra_Pradesh,Rajamahendravaram,"Anand Kala Kshetram, Rajamahendravaram - APPCB",08-02-2024 01:00:00,16.9872867,81.7363176,NH3,4,9,7
India,Andhra_Pradesh,Rajamahendravaram,"Anand Kala Kshetram, Rajamahendravaram - APPCB",08-02-2024 01:00:00,16.9872867,81.7363176,OZONE,5,6,6
India,Andhra_Pradesh,Tirupati,"Tirumala, Tirupati - APPCB",08-02-2024 01:00:00,13.67,79.35,PM10,29,89,51
India,Andhra_Pradesh,Tirupati,"Tirumala, Tirupati - APPCB",08-02-2024 01:00:00,13.67,79.35,NH3,1,4,1
India,Andhra_Pradesh,Tirupati,"Tirumala, Tirupati - APPCB",08-02-2024 01:00:00,13.67,79.35,SO2,1,12,6
India,Andhra_Pradesh,Tirupati,"Vaikuntapuram, Tirupati - APPCB",08-02-2024 01:00:00,13.615387,79.409230,SO2,5,5,5
India,Andhra_Pradesh,Tirupati,"Vaikuntapuram, Tirupati - APPCB",08-02-2024 01:00:00,13.615387,79.409230,CO,10,16,12
India,Andhra_Pradesh,Vijayawada,"HB Colony, Vijayawada - APPCB",08-02-2024 01:00:00,16.536107,80.594233,OZONE,2,73,33
India,Andhra_Pradesh,Vijayawada,"Kanuru, Vijayawada - APPCB",08-02-2024 01:00:00,16.486692,80.699436,PM2.5,67,82,75
India,Andhra_Pradesh,Vijayawada,"Kanuru, Vijayawada - APPCB",08-02-2024 01:00:00,16.486692,80.699436,PM10,76,95,87
India,Andhra_Pradesh,Vijayawada,"Rajiv Gandhi Park, Vijayawada - APPCB",08-02-2024 01:00:00,16.509717,80.612222,PM10,64,103,83
India,Andhra_Pradesh,Visakhapatnam,"GVM Corporation, Visakhapatnam - APPCB",08-02-2024 01:00:00,17.72,83.3,NO2,17,78,50
India,Andhra_Pradesh,Visakhapatnam,"GVM Corporation, Visakhapatnam - APPCB",08-02-2024 01:00:00,17.72,83.3,NH3,2,9,4
India,Arunachal_Pradesh,Naharlagun,"Naharlagun, Naharlagun - APSPCB",08-02-2024 01:00:00,27.103358,93.679645,OZONE,2,2,2
India,Assam,Byrnihat,"Central Academy for SFS, Byrnihat - PCBA",08-02-2024 01:00:00,26.071318,91.87488,PM10,106,500,269
India,Assam,Guwahati,"IITG, Guwahati - PCBA",08-02-2024 01:00:00,26.2028636,91.70046436,OZONE,1,20,9
India,Assam,Guwahati,"LGBI Airport, Guwahati - PCBA",08-02-2024 01:00:00,26.10887,91.589544,NH3,1,9,2
India,Assam,Guwahati,"Pan Bazaar, Guwahati - PCBA",08-02-2024 01:00:00,26.187500,91.744194,NO2,2,12,6
India,Assam,Guwahati,"Pan Bazaar, Guwahati - PCBA",08-02-2024 01:00:00,26.187500,91.744194,NH3,3,4,4
India,Assam,Guwahati,"Pan Bazaar, Guwahati - PCBA",08-02-2024 01:00:00,26.187500,91.744194,OZONE,16,18,18
India,Assam,Guwahati,"Railway Colony, Guwahati - PCBA",08-02-2024 01:00:00,26.181742,91.78063,PM10,93,290,143
India,Assam,Guwahati,"Railway Colony, Guwahati - PCBA",08-02-2024 01:00:00,26.181742,91.78063,NO2,3,4,3
India,Assam,Guwahati,"Railway Colony, Guwahati - PCBA",08-02-2024 01:00:00,26.181742,91.78063,OZONE,7,46,25
India,Assam,Silchar,"Tarapur, Silchar - PCBA",08-02-2024 01:00:00,24.82827,92.79525,PM2.5,33,44,38
India,Assam,Silchar,"Tarapur, Silchar - PCBA",08-02-2024 01:00:00,24.82827,92.79525,PM10,56,74,65
India,Assam,Silchar,"Tarapur, Silchar - PCBA",08-02-2024 01:00:00,24.82827,92.79525,NO2,29,50,36
India,Assam,Sivasagar,"Girls College, Sivasagar - PCBA",08-02-2024 01:00:00,26.987634,94.636574,PM2.5,18,37,27
India,Bihar,Araria,"Kharahiya Basti, Araria - BSPCB",08-02-2024 01:00:00,26.146529,87.454184,PM2.5,69,426,167
India,Bihar,Araria,"Kharahiya Basti, Araria - BSPCB",08-02-2024 01:00:00,26.146529,87.454184,SO2,11,16,14
India,Bihar,Araria,"Kharahiya Basti, Araria - BSPCB",08-02-2024 01:00:00,26.146529,87.454184,CO,20,28,21
India,Bihar,Araria,"Kharahiya Basti, Araria - BSPCB",08-02-2024 01:00:00,26.146529,87.454184,OZONE,7,10,7
India,Bihar,Arrah,"New DM Office, Arrah - BSPCB",08-02-2024 01:00:00,25.5626095,84.663264,NO2,7,29,18
India,Bihar,Arrah,"New DM Office, Arrah - BSPCB",08-02-2024 01:00:00,25.5626095,84.663264,NH3,4,6,5
India,Bihar,Aurangabad,"Gurdeo Nagar, Aurangabad - BSPCB",08-02-2024 01:00:00,24.75746,84.366208,OZONE,25,80,45
India,Bihar,Bettiah,"Kamalnath Nagar, Bettiah - BSPCB",08-02-2024 01:00:00,26.80365,84.51954,PM10,19,124,60
India,Bihar,Bettiah,"Kamalnath Nagar, Bettiah - BSPCB",08-02-2024 01:00:00,26.80365,84.51954,NH3,3,3,3
India,Bihar,Bettiah,"Kamalnath Nagar, Bettiah - BSPCB",08-02-2024 01:00:00,26.80365,84.51954,CO,76,79,77
India,Bihar,Bhagalpur,"Mayaganj, Bhagalpur - BSPCB",08-02-2024 01:00:00,25.265194,87.012947,PM10,5,114,87
India,Bihar,Bhagalpur,"Mayaganj, Bhagalpur - BSPCB",08-02-2024 01:00:00,25.265194,87.012947,NO2,2,23,9
India,Bihar,Bihar Sharif,"D M Colony, Bihar Sharif - BSPCB",08-02-2024 01:00:00,25.204762,85.514960,PM10,14,85,51
India,Bihar,Buxar,"Charitra Van, Buxar - BSPCB (Formerly known as Central Jail)",08-02-2024 01:00:00,25.567520,83.966379,PM10,183,329,226
India,Bihar,Buxar,"Charitra Van, Buxar - BSPCB (Formerly known as Central Jail)",08-02-2024 01:00:00,25.567520,83.966379,NO2,11,176,30
India,Bihar,Buxar,"Charitra Van, Buxar - BSPCB (Formerly known as Central Jail)",08-02-2024 01:00:00,25.567520,83.966379,SO2,1,5,3
India,Bihar,Buxar,"Charitra Van, Buxar - BSPCB (Formerly known as Central Jail)",08-02-2024 01:00:00,25.567520,83.966379,OZONE,23,159,118
India,Bihar,Chhapra,"Darshan Nagar, Chhapra - BSPCB",08-02-2024 01:00:00,25.7808257,84.7446768,SO2,2,82,42
India,Bihar,Gaya,"Collectorate, Gaya - BSPCB",08-02-2024 01:00:00,24.7955,84.9994,NO2,14,18,16
India,Bihar,Gaya,"Collectorate, Gaya - BSPCB",08-02-2024 01:00:00,24.7955,84.9994,OZONE,54,80,70
India,Bihar,Gaya,"SFTI Kusdihra, Gaya - BSPCB",08-02-2024 01:00:00,24.762518,84.982348,PM2.5,52,95,73
India,Bihar,Gaya,"SFTI Kusdihra, Gaya - BSPCB",08-02-2024 01:00:00,24.762518,84.982348,OZONE,2,59,31
India,Bihar,Katihar,"Mirchaibari, Katihar - BSPCB",08-02-2024 01:00:00,25.560083,87.553265,PM2.5,35,302,86
India,Bihar,Katihar,"Mirchaibari, Katihar - BSPCB",08-02-2024 01:00:00,25.560083,87.553265,NH3,1,4,3
India,Bihar,Kishanganj,"SDM Office_Khagra, Kishanganj - BSPCB",08-02-2024 01:00:00,26.0881305,87.93840336,PM10,99,297,142
India,Bihar,Kishanganj,"SDM Office_Khagra, Kishanganj - BSPCB",08-02-2024 01:00:00,26.0881305,87.93840336,NO2,30,43,35
India,Bihar,Kishanganj,"SDM Office_Khagra, Kishanganj - BSPCB",08-02-2024 01:00:00,26.0881305,87.93840336,CO,6,24,18
India,Bihar,Kishanganj,"SDM Office_Khagra, Kishanganj - BSPCB",08-02-2024 01:00:00,26.0881305,87.93840336,OZONE,13,36,19
India,Bihar,Manguraha,"Forest Rest House, Manguraha - BSPCB",08-02-2024 01:00:00,27.308328,84.531742,OZONE,7,68,52
India,Bihar,Motihari,"Gandak Colony, Motihari - BSPCB",08-02-2024 01:00:00,26.63086,84.90051,CO,25,68,45
India,Bihar,Munger,"Town Hall, Munger - BSPCB",08-02-2024 01:00:00,25.376776,86.471523,PM2.5,37,90,56
India,Bihar,Muzaffarpur,"Buddha Colony, Muzaffarpur - BSPCB",08-02-2024 01:00:00,26.11442,85.39813,PM2.5,80,286,168
India,Bihar,Muzaffarpur,"Buddha Colony, Muzaffarpur - BSPCB",08-02-2024 01:00:00,26.11442,85.39813,OZONE,58,127,86
India,Bihar,Muzaffarpur,"MIT-Daudpur Kothi, Muzaffarpur - BSPCB",08-02-2024 01:00:00,26.1403345,85.3650192,NO2,6,48,8
India,Bihar,Patna,"DRM Office Danapur, Patna - BSPCB",08-02-2024 01:00:00,25.586562,85.043586,CO,25,66,47
India,Bihar,Patna,"Govt. High School Shikarpur, Patna - BSPCB",08-02-2024 01:00:00,25.592539,85.227158,SO2,3,6,4
India,Bihar,Patna,"IGSC Planetarium Complex, Patna - BSPCB",08-02-2024 01:00:00,25.610369,85.132568,SO2,6,8,6
India,Bihar,Patna,"IGSC Planetarium Complex, Patna - BSPCB",08-02-2024 01:00:00,25.610369,85.132568,CO,12,17,13
India,Bihar,Patna,"Muradpur, Patna - BSPCB",08-02-2024 01:00:00,25.619651,85.147382,NO2,10,19,16
India,Bihar,Patna,"Muradpur, Patna - BSPCB",08-02-2024 01:00:00,25.619651,85.147382,NH3,3,4,4
India,Bihar,Patna,"Rajbansi Nagar, Patna - BSPCB",08-02-2024 01:00:00,25.599486,85.113666,PM10,90,144,118
India,Bihar,Patna,"Samanpura, Patna - BSPCB",08-02-2024 01:00:00,25.596727,85.085624,PM2.5,77,351,161
India,Bihar,Patna,"Samanpura, Patna - BSPCB",08-02-2024 01:00:00,25.596727,85.085624,NH3,3,6,4
India,Bihar,Patna,"Samanpura, Patna - BSPCB",08-02-2024 01:00:00,25.596727,85.085624,SO2,16,17,16
India,Bihar,Patna,"Samanpura, Patna - BSPCB",08-02-2024 01:00:00,25.596727,85.085624,OZONE,14,39,21
India,Bihar,Purnia,"Mariam Nagar, Purnia - BSPCB",08-02-2024 01:00:00,25.366336,87.117468,PM2.5,27,316,120
India,Bihar,Purnia,"Mariam Nagar, Purnia - BSPCB",08-02-2024 01:00:00,25.366336,87.117468,NO2,12,13,13
India,Bihar,Purnia,"Mariam Nagar, Purnia - BSPCB",08-02-2024 01:00:00,25.366336,87.117468,OZONE,10,26,14
India,Bihar,Rajgir,"Dangi Tola, Rajgir - BSPCB",08-02-2024 01:00:00,25.03280,85.41948,PM2.5,35,190,89
India,Bihar,Rajgir,"Dangi Tola, Rajgir - BSPCB",08-02-2024 01:00:00,25.03280,85.41948,OZONE,20,25,22
India,Bihar,Saharsa,"Police Line, Saharsa - BSPCB",08-02-2024 01:00:00,25.892357,86.590325,PM10,53,141,87
India,Bihar,Saharsa,"Police Line, Saharsa - BSPCB",08-02-2024 01:00:00,25.892357,86.590325,NO2,5,9,7
India,Bihar,Saharsa,"Police Line, Saharsa - BSPCB",08-02-2024 01:00:00,25.892357,86.590325,SO2,21,70,34
India,Bihar,Sasaram,"Dada Peer, Sasaram - BSPCB",08-02-2024 01:00:00,24.952822,84.002396,SO2,3,54,26
India,Bihar,Sasaram,"Dada Peer, Sasaram - BSPCB",08-02-2024 01:00:00,24.952822,84.002396,OZONE,4,12,4
India,Bihar,Siwan,"Chitragupta Nagar, Siwan - BSPCB",08-02-2024 01:00:00,26.2271665,84.3570427,NO2,10,72,24
India,Chandigarh,Chandigarh,"Sector-53, Chandigarh - CPCC",08-02-2024 01:00:00,30.719859,76.738637,PM2.5,65,257,130
India,Chandigarh,Chandigarh,"Sector-53, Chandigarh - CPCC",08-02-2024 01:00:00,30.719859,76.738637,CO,40,71,63
India,Chhattisgarh,Bhilai,"32Bungalows, Bhilai - CECB",08-02-2024 01:00:00,21.194815,81.314770,NH3,6,6,6
India,Chhattisgarh,Bhilai,"Civic Center, Bhilai - Bhilai Steel Plant",08-02-2024 01:00:00,21.185571,81.343175,PM2.5,36,78,46
India,Chhattisgarh,Bhilai,"Civic Center, Bhilai - Bhilai Steel Plant",08-02-2024 01:00:00,21.185571,81.343175,PM10,57,119,69
India,Chhattisgarh,Bhilai,"Civic Center, Bhilai - Bhilai Steel Plant",08-02-2024 01:00:00,21.185571,81.343175,NO2,4,26,9
India,Chhattisgarh,Bhilai,"Civic Center, Bhilai - Bhilai Steel Plant",08-02-2024 01:00:00,21.185571,81.343175,SO2,5,11,9
India,Chhattisgarh,Bhilai,"Civic Center, Bhilai - Bhilai Steel Plant",08-02-2024 01:00:00,21.185571,81.343175,OZONE,7,50,14
India,Chhattisgarh,Bhilai,"Hathkhoj, Bhilai - CECB",08-02-2024 01:00:00,21.224231,81.408350,PM2.5,34,94,55
India,Chhattisgarh,Bhilai,"Hathkhoj, Bhilai - CECB",08-02-2024 01:00:00,21.224231,81.408350,PM10,63,147,86
India,Chhattisgarh,Chhal,"Nawapara SECL Colony, Chhal - CECB",08-02-2024 01:00:00,22.118125,83.140608,NO2,10,48,25
India,Chhattisgarh,Korba,"Rampur, Korba - CECB",08-02-2024 01:00:00,22.368195,82.746431,PM10,18,161,60
India,Chhattisgarh,Korba,"Rampur, Korba - CECB",08-02-2024 01:00:00,22.368195,82.746431,NH3,2,5,4
India,Chhattisgarh,Korba,"Urja Nagar, Korba - CECB",08-02-2024 01:00:00,22.348441,82.549611,PM2.5,9,53,31
India,Chhattisgarh,Korba,"Urja Nagar, Korba - CECB",08-02-2024 01:00:00,22.348441,82.549611,NO2,73,86,80
India,Chhattisgarh,Korba,"Urja Nagar, Korba - CECB",08-02-2024 01:00:00,22.348441,82.549611,NH3,5,8,6
India,Chhattisgarh,Milupara,"Govt. Higher Secondary School, Milupara - CECB",08-02-2024 01:00:00,22.1910172,83.5197009,NO2,11,52,23
India,Chhattisgarh,Milupara,"Govt. Higher Secondary School, Milupara - CECB",08-02-2024 01:00:00,22.1910172,83.5197009,NH3,1,2,1
India,Chhattisgarh,Raipur,"Bhatagaon New ISBT, Raipur - CECB",08-02-2024 01:00:00,21.219665,81.630094,PM2.5,39,68,47
India,Chhattisgarh,Raipur,"Bhatagaon New ISBT, Raipur - CECB",08-02-2024 01:00:00,21.219665,81.630094,PM10,49,115,70
India,Chhattisgarh,Raipur,"Bhatagaon New ISBT, Raipur - CECB",08-02-2024 01:00:00,21.219665,81.630094,NO2,61,83,72
India,Chhattisgarh,Raipur,"Krishak Nagar, Raipur - CECB",08-02-2024 01:00:00,21.237755,81.705301,PM2.5,46,66,52
India,Chhattisgarh,Raipur,"Krishak Nagar, Raipur - CECB",08-02-2024 01:00:00,21.237755,81.705301,NO2,17,33,26
India,Chhattisgarh,Raipur,"Krishak Nagar, Raipur - CECB",08-02-2024 01:00:00,21.237755,81.705301,SO2,7,13,10
India,Chhattisgarh,Raipur,"Siltara Phase-II, Raipur - CECB",08-02-2024 01:00:00,21.371751,81.664929,PM10,10,155,82
India,Chhattisgarh,Raipur,"Siltara Phase-II, Raipur - CECB",08-02-2024 01:00:00,21.371751,81.664929,NO2,32,63,46
India,Chhattisgarh,Raipur,"Siltara Phase-II, Raipur - CECB",08-02-2024 01:00:00,21.371751,81.664929,NH3,2,3,3
India,Chhattisgarh,Tumidih,"OP Jindal Industrial Park, Tumidih - CECB",08-02-2024 01:00:00,22.06631475,83.33820077,SO2,5,9,6
India,Delhi,Delhi,"Alipur, Delhi - DPCC",08-02-2024 01:00:00,28.815329,77.153010,CO,32,57,47
India,Delhi,Delhi,"Anand Vihar, Delhi - DPCC",08-02-2024 01:00:00,28.647622,77.3158090,PM2.5,67,292,163
India,Delhi,Delhi,"Anand Vihar, Delhi - DPCC",08-02-2024 01:00:00,28.647622,77.3158090,PM10,137,266,191
India,Delhi,Delhi,"Anand Vihar, Delhi - DPCC",08-02-2024 01:00:00,28.647622,77.3158090,NH3,3,9,5
India,Delhi,Delhi,"Ashok Vihar, Delhi - DPCC",08-02-2024 01:00:00,28.695381,77.181665,NO2,21,85,46
India,Delhi,Delhi,"Ashok Vihar, Delhi - DPCC",08-02-2024 01:00:00,28.695381,77.181665,NH3,5,7,6
India,Delhi,Delhi,"Aya Nagar, Delhi - IMD",08-02-2024 01:00:00,28.4706914,77.1099364,PM10,97,195,124
India,Delhi,Delhi,"CRRI Mathura Road, Delhi - IMD",08-02-2024 01:00:00,28.5512005,77.2735737,NO2,34,47,41
India,Delhi,Delhi,"Dr. Karni Singh Shooting Range, Delhi - DPCC",08-02-2024 01:00:00,28.498571,77.264840,CO,26,77,51
India,Delhi,Delhi,"IGI Airport (T3), Delhi - IMD",08-02-2024 01:00:00,28.5627763,77.1180053,OZONE,11,53,25
India,Delhi,Delhi,"IHBAS, Dilshad Garden, Delhi - CPCB",08-02-2024 01:00:00,28.6811736,77.3025234,PM10,99,165,118
India,Delhi,Delhi,"IHBAS, Dilshad Garden, Delhi - CPCB",08-02-2024 01:00:00,28.6811736,77.3025234,NH3,13,20,17
India,Delhi,Delhi,"IHBAS, Dilshad Garden, Delhi - CPCB",08-02-2024 01:00:00,28.6811736,77.3025234,CO,12,55,32
India,Delhi,Delhi,"IHBAS, Dilshad Garden, Delhi - CPCB",08-02-2024 01:00:00,28.6811736,77.3025234,OZONE,5,26,11
India,Delhi,Delhi,"ITO, Delhi - CPCB",08-02-2024 01:00:00,28.628624,77.241060,SO2,4,26,16
India,Delhi,Delhi,"Jahangirpuri, Delhi - DPCC",08-02-2024 01:00:00,28.732820,77.170633,OZONE,2,100,39
India,Delhi,Delhi,"Jawaharlal Nehru Stadium, Delhi - DPCC",08-02-2024 01:00:00,28.580280,77.233829,NH3,6,10,8
India,Delhi,Delhi,"Jawaharlal Nehru Stadium, Delhi - DPCC",08-02-2024 01:00:00,28.580280,77.233829,OZONE,1,92,41
India,Delhi,Delhi,"Lodhi Road, Delhi - IMD",08-02-2024 01:00:00,28.5918245,77.2273074,PM2.5,35,113,70
India,Delhi,Delhi,"NSIT Dwarka, Delhi - CPCB",08-02-2024 01:00:00,28.60909,77.0325413,PM2.5,66,308,184
India,Delhi,Delhi,"Narela, Delhi - DPCC",08-02-2024 01:00:00,28.822836,77.101981,SO2,3,10,6
India,Delhi,Delhi,"Narela, Delhi - DPCC",08-02-2024 01:00:00,28.822836,77.101981,CO,62,89,80
India,Delhi,Delhi,"Nehru Nagar, Delhi - DPCC",08-02-2024 01:00:00,28.567890,77.250515,PM2.5,56,351,213
India,Delhi,Delhi,"Nehru Nagar, Delhi - DPCC",08-02-2024 01:00:00,28.567890,77.250515,NH3,10,24,17
India,Delhi,Delhi,"North Campus, DU, Delhi - IMD",08-02-2024 01:00:00,28.6573814,77.1585447,PM10,114,168,137
India,Delhi,Delhi,"Okhla Phase-2, Delhi - DPCC",08-02-2024 01:00:00,28.530785,77.271255,NH3,8,11,9
India,Delhi,Delhi,"Patparganj, Delhi - DPCC",08-02-2024 01:00:00,28.623763,77.287209,PM2.5,51,284,130
India,Delhi,Delhi,"Patparganj, Delhi - DPCC",08-02-2024 01:00:00,28.623763,77.287209,PM10,120,193,152
India,Delhi,Delhi,"Patparganj, Delhi - DPCC",08-02-2024 01:00:00,28.623763,77.287209,NH3,6,13,9
India,Delhi,Delhi,"Patparganj, Delhi - DPCC",08-02-2024 01:00:00,28.623763,77.287209,SO2,8,15,11
India,Delhi,Delhi,"Punjabi Bagh, Delhi - DPCC",08-02-2024 01:00:00,28.674045,77.131023,PM2.5,73,312,183
India,Delhi,Delhi,"Punjabi Bagh, Delhi - DPCC",08-02-2024 01:00:00,28.674045,77.131023,NO2,38,75,57
India,Delhi,Delhi,"Punjabi Bagh, Delhi - DPCC",08-02-2024 01:00:00,28.674045,77.131023,NH3,5,9,7
India,Delhi,Delhi,"Punjabi Bagh, Delhi - DPCC",08-02-2024 01:00:00,28.674045,77.131023,OZONE,7,27,14
India,Delhi,Delhi,"Pusa, Delhi - DPCC",08-02-2024 01:00:00,28.639652,77.146275,PM2.5,80,325,222
India,Delhi,Delhi,"Pusa, Delhi - DPCC",08-02-2024 01:00:00,28.639652,77.146275,PM10,156,401,230
India,Delhi,Delhi,"R K Puram, Delhi - DPCC",08-02-2024 01:00:00,28.563262,77.186937,PM2.5,43,308,214
India,Delhi,Delhi,"R K Puram, Delhi - DPCC",08-02-2024 01:00:00,28.563262,77.186937,SO2,15,27,21
India,Delhi,Delhi,"R K Puram, Delhi - DPCC",08-02-2024 01:00:00,28.563262,77.186937,CO,18,66,38
India,Delhi,Delhi,"Rohini, Delhi - DPCC",08-02-2024 01:00:00,28.732528,77.119920,OZONE,5,89,40
India,Delhi,Delhi,"Shadipur, Delhi - CPCB",08-02-2024 01:00:00,28.6514781,77.1473105,NO2,35,48,41
India,Delhi,Delhi,"Sirifort, Delhi - CPCB",08-02-2024 01:00:00,28.5504249,77.2159377,NO2,56,176,133
India,Delhi,Delhi,"Sonia Vihar, Delhi - DPCC",08-02-2024 01:00:00,28.710508,77.249485,SO2,4,12,8
India,Delhi,Delhi,"Sonia Vihar, Delhi - DPCC",08-02-2024 01:00:00,28.710508,77.249485,CO,41,69,62
India,Delhi,Delhi,"Vivek Vihar, Delhi - DPCC",08-02-2024 01:00:00,28.672342,77.315260,PM2.5,48,300,166
India,Delhi,Delhi,"Vivek Vihar, Delhi - DPCC",08-02-2024 01:00:00,28.672342,77.315260,OZONE,3,33,14
India,Delhi,Delhi,"Wazirpur, Delhi - DPCC",08-02-2024 01:00:00,28.699793,77.165453,NO2,68,166,116
India,Delhi,Delhi,"Wazirpur, Delhi - DPCC",08-02-2024 01:00:00,28.699793,77.165453,CO,26,72,46
India,Delhi,Delhi,"Wazirpur, Delhi - DPCC",08-02-2024 01:00:00,28.699793,77.165453,OZONE,5,32,24
India,Gujarat,Ahmedabad,"Chandkheda, Ahmedabad - IITM",08-02-2024 01:00:00,23.107969,72.574648,NH3,4,5,4
India,Gujarat,Ahmedabad,"Gyaspur, Ahmedabad - IITM",08-02-2024 01:00:00,22.977134,72.553024,NO2,22,23,22
India,Gujarat,Ahmedabad,"Maninagar, Ahmedabad - GPCB",08-02-2024 01:00:00,23.002657,72.591912,SO2,NA,NA,NA
India,Gujarat,Ahmedabad,"Raikhad, Ahmedabad - IITM",08-02-2024 01:00:00,23.020509,72.579261,PM2.5,69,224,147
India,Gujarat,Ahmedabad,"SAC ISRO Satellite, Ahmedabad - IITM",08-02-2024 01:00:00,23.023389,72.515201,OZONE,4,15,9
India,Gujarat,Ahmedabad,"SVPI Airport Hansol, Ahmedabad - IITM",08-02-2024 01:00:00,23.076793,72.627874,SO2,13,25,23
India,Gujarat,Ahmedabad,"Sardar Vallabhbhai Patel Stadium, Ahmedabad - IITM",08-02-2024 01:00:00,23.043070,72.562968,OZONE,11,21,16
India,Gujarat,Ankleshwar,"GIDC, Ankleshwar - GPCB",08-02-2024 01:00:00,21.613267,73.010555,SO2,19,105,51
India,Gujarat,Gandhinagar,"GIFT City, Gandhinagar - IITM",08-02-2024 01:00:00,23.163798,72.677768,OZONE,11,34,12
India,Gujarat,Gandhinagar,"IIPHG Lekawada, Gandhinagar - IITM",08-02-2024 01:00:00,23.243639,72.68994,PM2.5,48,382,99
India,Gujarat,Gandhinagar,"IIPHG Lekawada, Gandhinagar - IITM",08-02-2024 01:00:00,23.243639,72.68994,NH3,4,4,4
India,Gujarat,Gandhinagar,"IIPHG Lekawada, Gandhinagar - IITM",08-02-2024 01:00:00,23.243639,72.68994,OZONE,12,37,15
India,Gujarat,Gandhinagar,"Sector-10, Gandhinagar - GPCB",08-02-2024 01:00:00,23.221714,72.654328,PM10,59,117,79
India,Gujarat,Gandhinagar,"Sector-10, Gandhinagar - GPCB",08-02-2024 01:00:00,23.221714,72.654328,NO2,3,10,7
India,Gujarat,Gandhinagar,"Sector-10, Gandhinagar - GPCB",08-02-2024 01:00:00,23.221714,72.654328,OZONE,2,41,22
India,Gujarat,Vapi,"Phase-1 GIDC, Vapi - GPCB",08-02-2024 01:00:00,20.362421,72.918013,PM2.5,86,361,203
India,Gujarat,Vatva,"Phase-4 GIDC, Vatva - GPCB",08-02-2024 01:00:00,22.969611,72.643500,PM10,54,94,69
India,Haryana,Ambala,"Patti Mehar, Ambala - HSPCB",08-02-2024 01:00:00,30.379589,76.778328,PM2.5,35,87,58
India,Haryana,Ambala,"Patti Mehar, Ambala - HSPCB",08-02-2024 01:00:00,30.379589,76.778328,SO2,3,9,6
India,Haryana,Bahadurgarh,"Arya Nagar, Bahadurgarh - HSPCB",08-02-2024 01:00:00,28.6701,76.9254,PM10,91,139,112
India,Haryana,Ballabgarh,"Nathu Colony, Ballabgarh - HSPCB",08-02-2024 01:00:00,28.3419248,77.319699,CO,1,64,41
India,Haryana,Bhiwani,"H.B. Colony, Bhiwani - HSPCB",08-02-2024 01:00:00,28.806223,76.141105,SO2,1,17,9
India,Haryana,Bhiwani,"H.B. Colony, Bhiwani - HSPCB",08-02-2024 01:00:00,28.806223,76.141105,CO,18,46,32
India,Haryana,Charkhi Dadri,"Mini Secretariat, Charkhi Dadri - HSPCB",08-02-2024 01:00:00,28.593883,76.270653,CO,22,44,31
India,Haryana,Charkhi Dadri,"Mini Secretariat, Charkhi Dadri - HSPCB",08-02-2024 01:00:00,28.593883,76.270653,OZONE,12,18,16
India,Haryana,Dharuhera,"Municipal Corporation Office, Dharuhera -  HSPCB",08-02-2024 01:00:00,28.206800,76.799700,PM10,39,246,184
India,Haryana,Faridabad,"New Industrial Town, Faridabad - HSPCB",08-02-2024 01:00:00,28.39072,77.30059,PM10,145,259,177
India,Haryana,Faridabad,"Sector 11, Faridabad - HSPCB",08-02-2024 01:00:00,28.376058,77.315741,NO2,30,32,31
India,Haryana,Faridabad,"Sector 30, Faridabad - HSPCB",08-02-2024 01:00:00,28.4417,77.3217,CO,50,70,58
India,Haryana,Faridabad,"Sector- 16A, Faridabad - HSPCB",08-02-2024 01:00:00,28.4088421,77.3099081,OZONE,13,14,14
India,Haryana,Gurugram,"NISE Gwal Pahari, Gurugram - IMD",08-02-2024 01:00:00,28.422681,77.148944,PM10,NA,NA,NA
India,Haryana,Gurugram,"Vikas Sadan, Gurugram - HSPCB",08-02-2024 01:00:00,28.4501238,77.0263051,SO2,22,30,26
India,Haryana,Jind,"Police Lines, Jind - HSPCB",08-02-2024 01:00:00,29.307814,76.337619,PM2.5,60,106,85
India,Haryana,Karnal,"Sector-12, Karnal - HSPCB",08-02-2024 01:00:00,29.695300,77.002700,NH3,10,13,12
India,Haryana,Kurukshetra,"Sector-7, Kurukshetra - HSPCB",08-02-2024 01:00:00,29.966942,76.875879,NO2,10,10,10
India,Haryana,Kurukshetra,"Sector-7, Kurukshetra - HSPCB",08-02-2024 01:00:00,29.966942,76.875879,CO,8,28,23
India,Haryana,Mandikhera,"General Hospital, Mandikhera - HSPCB",08-02-2024 01:00:00,27.9002,76.9938,OZONE,21,30,26
India,Haryana,Palwal,"Shyam Nagar, Palwal - HSPCB",08-02-2024 01:00:00,28.1485564,77.3320667,NH3,2,3,3
India,Haryana,Panipat,"Sector-18, Panipat - HSPCB",08-02-2024 01:00:00,29.497973,76.993331,PM2.5,60,84,73
India,Haryana,Panipat,"Sector-18, Panipat - HSPCB",08-02-2024 01:00:00,29.497973,76.993331,NH3,2,3,2
India,Haryana,Rohtak,"MD University, Rohtak - HSPCB",08-02-2024 01:00:00,28.52123,76.37138,SO2,6,8,7
India,Haryana,Rohtak,"MD University, Rohtak - HSPCB",08-02-2024 01:00:00,28.52123,76.37138,CO,8,47,31
India,Haryana,Sirsa,"F-Block, Sirsa - HSPCB",08-02-2024 01:00:00,29.536400,75.015800,PM10,103,193,125
India,Haryana,Sirsa,"F-Block, Sirsa - HSPCB",08-02-2024 01:00:00,29.536400,75.015800,SO2,4,82,21
India,Haryana,Sonipat,"Murthal, Sonipat - HSPCB",08-02-2024 01:00:00,29.027200,77.062100,PM2.5,50,110,79
India,Haryana,Sonipat,"Murthal, Sonipat - HSPCB",08-02-2024 01:00:00,29.027200,77.062100,PM10,51,103,78
India,Haryana,Yamuna Nagar,"Gobind Pura, Yamuna Nagar - HSPCB",08-02-2024 01:00:00,30.1480566,77.2893471,CO,29,46,41
India,Haryana,Yamuna Nagar,"Gobind Pura, Yamuna Nagar - HSPCB",08-02-2024 01:00:00,30.1480566,77.2893471,OZONE,9,18,16
India,Himachal Pradesh,Baddi,"HIMUDA Complex Phase-1, Baddi - HPPCB",08-02-2024 01:00:00,30.943887,76.801991,NH3,3,4,3
India,Himachal Pradesh,Baddi,"HIMUDA Complex Phase-1, Baddi - HPPCB",08-02-2024 01:00:00,30.943887,76.801991,CO,6,24,16
India,Jharkhand,Dhanbad,"Kalakusuma, Dhanbad - DMC",08-02-2024 01:00:00,23.811548,86.481238,SO2,NA,NA,NA
India,Jharkhand,Dhanbad,"Sardar Patel Nagar, Dhanbad - JSPCB",08-02-2024 01:00:00,23.80569,86.44268,PM2.5,NA,NA,NA
India,Jharkhand,Dhanbad,"Sardar Patel Nagar, Dhanbad - JSPCB",08-02-2024 01:00:00,23.80569,86.44268,SO2,NA,NA,NA
India,Jharkhand,Dhanbad,"Sardar Patel Nagar, Dhanbad - JSPCB",08-02-2024 01:00:00,23.80569,86.44268,CO,158,184,183
India,Jharkhand,Dhanbad,"Sardar Patel Nagar, Dhanbad - JSPCB",08-02-2024 01:00:00,23.80569,86.44268,OZONE,12,19,13
India,Jharkhand,Pathardih,"Mohalbani Ghat, Pathardih - DMC",08-02-2024 01:00:00,23.669880,86.411725,PM2.5,NA,NA,NA
India,Jharkhand,Pathardih,"Mohalbani Ghat, Pathardih - DMC",08-02-2024 01:00:00,23.669880,86.411725,OZONE,11,18,12
India,Karnataka,Bengaluru,"BTM Layout, Bengaluru - CPCB",08-02-2024 01:00:00,12.9135218,77.5950804,NO2,36,49,41
India,Karnataka,Bengaluru,"BTM Layout, Bengaluru - CPCB",08-02-2024 01:00:00,12.9135218,77.5950804,SO2,3,6,4
India,Karnataka,Bengaluru,"Bapuji Nagar, Bengaluru - KSPCB",08-02-2024 01:00:00,12.951913,77.539784,OZONE,11,12,11
India,Karnataka,Bengaluru,"Jayanagar 5th Block, Bengaluru - KSPCB",08-02-2024 01:00:00,12.920984,77.584908,PM2.5,58,98,86
India,Karnataka,Bengaluru,"Jayanagar 5th Block, Bengaluru - KSPCB",08-02-2024 01:00:00,12.920984,77.584908,NH3,2,5,4
India,Karnataka,Bengaluru,"Jigani, Bengaluru - KSPCB",08-02-2024 01:00:00,12.7816279,77.6299145,NO2,21,30,24
India,Karnataka,Bengaluru,"Kasturi Nagar, Bengaluru - KSPCB",08-02-2024 01:00:00,13.003872,77.664217,NO2,16,17,16
India,Karnataka,Bengaluru,"Peenya, Bengaluru - CPCB",08-02-2024 01:00:00,13.0270199,77.494094,NO2,13,28,22
India,Karnataka,Bengaluru,"Peenya, Bengaluru - CPCB",08-02-2024 01:00:00,13.0270199,77.494094,NH3,2,4,3
India,Karnataka,Bengaluru,"Shivapura_Peenya, Bengaluru - KSPCB",08-02-2024 01:00:00,13.0246342,77.5080115,CO,20,61,40
India,Karnataka,Bengaluru,"Silk Board, Bengaluru - KSPCB",08-02-2024 01:00:00,12.917348,77.622813,PM10,80,214,134
India,Karnataka,Bengaluru,"Silk Board, Bengaluru - KSPCB",08-02-2024 01:00:00,12.917348,77.622813,NO2,17,44,27
India,Karnataka,Bidar,"Naubad, Bidar - KSPCB",08-02-2024 01:00:00,17.930306,77.482194,PM2.5,NA,NA,NA
India,Karnataka,Bidar,"Naubad, Bidar - KSPCB",08-02-2024 01:00:00,17.930306,77.482194,NO2,NA,NA,NA
