country,state,city,station,last_update,latitude,longitude,pollutant_id,pollutant_min,pollutant_max,pollutant_avg
India,Andhra_Pradesh,Chittoor,"Gangineni Cheruvu, Chittoor - APPCB",15-07-2024 09:00:00,13.204880,79.097889,NH3,3,4,3
India,Andhra_Pradesh,Kadapa,"Yerramukkapalli, Kadapa - APPCB",15-07-2024 09:00:00,14.465052,78.824187,SO2,2,3,2
India,Andhra_Pradesh,Tirupati,"Tirumala, Tirupati - APPCB",15-07-2024 09:00:00,13.67,79.35,PM10,15,44,27
India,Andhra_Pradesh,Tirupati,"Tirumala, Tirupati - APPCB",15-07-2024 09:00:00,13.67,79.35,SO2,1,8,4
India,Andhra_Pradesh,Tirupati,"Vaikuntapuram, Tirupati - APPCB",15-07-2024 09:00:00,13.615387,79.409230,PM10,NA,NA,NA
India,Andhra_Pradesh,Vijayawada,"HB Colony, Vijayawada - APPCB",15-07-2024 09:00:00,16.536107,80.594233,PM10,42,60,46
India,Andhra_Pradesh,Vijayawada,"Kanuru, Vijayawada - APPCB",15-07-2024 09:00:00,16.486692,80.699436,PM2.5,38,45,42
India,Andhra_Pradesh,Vijayawada,"Kanuru, Vijayawada - APPCB",15-07-2024 09:00:00,16.486692,80.699436,PM10,45,52,49
India,Andhra_Pradesh,Vijayawada,"Kanuru, Vijayawada - APPCB",15-07-2024 09:00:00,16.486692,80.699436,OZONE,40,40,40
India,Andhra_Pradesh,Vijayawada,"Rajiv Gandhi Park, Vijayawada - APPCB",15-07-2024 09:00:00,16.509717,80.612222,OZONE,19,23,20
India,Andhra_Pradesh,Vijayawada,"Rajiv Nagar, Vijayawada - APPCB",15-07-2024 09:00:00,16.554731,80.649110,PM2.5,47,51,49
India,Andhra_Pradesh,Vijayawada,"Rajiv Nagar, Vijayawada - APPCB",15-07-2024 09:00:00,16.554731,80.649110,PM10,54,58,56
India,Andhra_Pradesh,Vijayawada,"Rajiv Nagar, Vijayawada - APPCB",15-07-2024 09:00:00,16.554731,80.649110,NO2,10,10,10
India,Andhra_Pradesh,Vijayawada,"Rajiv Nagar, Vijayawada - APPCB",15-07-2024 09:00:00,16.554731,80.649110,OZONE,15,19,17
India,Andhra_Pradesh,Visakhapatnam,"GVM Corporation, Visakhapatnam - APPCB",15-07-2024 09:00:00,17.72,83.3,PM10,50,78,64
India,Assam,Byrnihat,"Central Academy for SFS, Byrnihat - PCBA",15-07-2024 09:00:00,26.071318,91.87488,NO2,16,31,22
India,Assam,Byrnihat,"Central Academy for SFS, Byrnihat - PCBA",15-07-2024 09:00:00,26.071318,91.87488,NH3,13,20,16
India,Assam,Guwahati,"IITG, Guwahati - PCBA",15-07-2024 09:00:00,26.2028636,91.70046436,PM2.5,1,24,10
India,Assam,Guwahati,"IITG, Guwahati - PCBA",15-07-2024 09:00:00,26.2028636,91.70046436,PM10,14,52,28
India,Assam,Guwahati,"LGBI Airport, Guwahati - PCBA",15-07-2024 09:00:00,26.10887,91.589544,PM2.5,8,497,114
India,Assam,Guwahati,"Pan Bazaar, Guwahati - PCBA",15-07-2024 09:00:00,26.187500,91.744194,SO2,51,78,62
India,Assam,Silchar,"Tarapur, Silchar - PCBA",15-07-2024 09:00:00,24.82827,92.79525,NH3,1,1,1
India,Bihar,Araria,"Kharahiya Basti, Araria - BSPCB",15-07-2024 09:00:00,26.146529,87.454184,PM2.5,NA,NA,NA
India,Bihar,Araria,"Kharahiya Basti, Araria - BSPCB",15-07-2024 09:00:00,26.146529,87.454184,CO,11,38,31
India,Bihar,Arrah,"New DM Office, Arrah - BSPCB",15-07-2024 09:00:00,25.5626095,84.663264,PM2.5,27,263,119
India,Bihar,Arrah,"New DM Office, Arrah - BSPCB",15-07-2024 09:00:00,25.5626095,84.663264,SO2,7,11,9
India,Bihar,Aurangabad,"Gurdeo Nagar, Aurangabad - BSPCB",15-07-2024 09:00:00,24.75746,84.366208,PM2.5,NA,NA,NA
India,Bihar,Aurangabad,"Gurdeo Nagar, Aurangabad - BSPCB",15-07-2024 09:00:00,24.75746,84.366208,SO2,7,14,10
India,Bihar,Bettiah,"Kamalnath Nagar, Bettiah - BSPCB",15-07-2024 09:00:00,26.80365,84.51954,SO2,10,18,14
India,Bihar,Bhagalpur,"Mayaganj, Bhagalpur - BSPCB",15-07-2024 09:00:00,25.265194,87.012947,PM2.5,40,318,89
India,Bihar,Bhagalpur,"Mayaganj, Bhagalpur - BSPCB",15-07-2024 09:00:00,25.265194,87.012947,NO2,6,7,7
India,Bihar,Bhagalpur,"Mayaganj, Bhagalpur - BSPCB",15-07-2024 09:00:00,25.265194,87.012947,SO2,32,34,32
India,Bihar,Bhagalpur,"Mayaganj, Bhagalpur - BSPCB",15-07-2024 09:00:00,25.265194,87.012947,OZONE,1,17,9
India,Bihar,Bihar Sharif,"D M Colony, Bihar Sharif - BSPCB",15-07-2024 09:00:00,25.204762,85.514960,NH3,1,1,1
India,Bihar,Chhapra,"Darshan Nagar, Chhapra - BSPCB",15-07-2024 09:00:00,25.7808257,84.7446768,PM10,34,78,54
India,Bihar,Chhapra,"Darshan Nagar, Chhapra - BSPCB",15-07-2024 09:00:00,25.7808257,84.7446768,CO,20,48,38
India,Bihar,Gaya,"Collectorate, Gaya - BSPCB",15-07-2024 09:00:00,24.7955,84.9994,NO2,8,11,9
India,Bihar,Gaya,"Collectorate, Gaya - BSPCB",15-07-2024 09:00:00,24.7955,84.9994,SO2,2,73,14
India,Bihar,Gaya,"Collectorate, Gaya - BSPCB",15-07-2024 09:00:00,24.7955,84.9994,OZONE,NA,NA,NA
India,Bihar,Gaya,"Kareemganj, Gaya - BSPCB",15-07-2024 09:00:00,24.792403,84.992416,PM2.5,NA,NA,NA
India,Bihar,Gaya,"Kareemganj, Gaya - BSPCB",15-07-2024 09:00:00,24.792403,84.992416,CO,26,58,41
India,Bihar,Gaya,"Kareemganj, Gaya - BSPCB",15-07-2024 09:00:00,24.792403,84.992416,OZONE,15,67,22
India,Bihar,Katihar,"Mirchaibari, Katihar - BSPCB",15-07-2024 09:00:00,25.560083,87.553265,PM2.5,NA,NA,NA
India,Bihar,Motihari,"Gandak Colony, Motihari - BSPCB",15-07-2024 09:00:00,26.63086,84.90051,PM2.5,NA,NA,NA
India,Bihar,Motihari,"Gandak Colony, Motihari - BSPCB",15-07-2024 09:00:00,26.63086,84.90051,NO2,3,9,6
India,Bihar,Motihari,"Gandak Colony, Motihari - BSPCB",15-07-2024 09:00:00,26.63086,84.90051,NH3,1,2,2
India,Bihar,Motihari,"Gandak Colony, Motihari - BSPCB",15-07-2024 09:00:00,26.63086,84.90051,SO2,2,7,5
India,Bihar,Motihari,"Gandak Colony, Motihari - BSPCB",15-07-2024 09:00:00,26.63086,84.90051,OZONE,9,31,16
India,Bihar,Munger,"Town Hall, Munger - BSPCB",15-07-2024 09:00:00,25.376776,86.471523,CO,24,39,28
India,Bihar,Muzaffarpur,"Buddha Colony, Muzaffarpur - BSPCB",15-07-2024 09:00:00,26.11442,85.39813,NH3,4,8,6
India,Bihar,Muzaffarpur,"MIT-Daudpur Kothi, Muzaffarpur - BSPCB",15-07-2024 09:00:00,26.1403345,85.3650192,CO,8,106,52
India,Bihar,Muzaffarpur,"Muzaffarpur Collectorate, Muzaffarpur - BSPCB",15-07-2024 09:00:00,26.1209,85.3647,OZONE,25,84,34
India,Bihar,Patna,"IGSC Planetarium Complex, Patna - BSPCB",15-07-2024 09:00:00,25.610369,85.132568,CO,14,20,17
India,Bihar,Patna,"Muradpur, Patna - BSPCB",15-07-2024 09:00:00,25.619651,85.147382,SO2,4,8,5
India,Bihar,Patna,"Muradpur, Patna - BSPCB",15-07-2024 09:00:00,25.619651,85.147382,CO,17,62,23
India,Bihar,Patna,"Rajbansi Nagar, Patna - BSPCB",15-07-2024 09:00:00,25.599486,85.113666,PM10,45,100,77
India,Bihar,Patna,"Rajbansi Nagar, Patna - BSPCB",15-07-2024 09:00:00,25.599486,85.113666,NO2,4,13,7
India,Bihar,Patna,"Rajbansi Nagar, Patna - BSPCB",15-07-2024 09:00:00,25.599486,85.113666,NH3,3,5,4
India,Bihar,Purnia,"Mariam Nagar, Purnia - BSPCB",15-07-2024 09:00:00,25.366336,87.117468,NH3,1,1,1
India,Bihar,Purnia,"Mariam Nagar, Purnia - BSPCB",15-07-2024 09:00:00,25.366336,87.117468,OZONE,18,41,26
India,Bihar,Rajgir,"Dangi Tola, Rajgir - BSPCB",15-07-2024 09:00:00,25.03280,85.41948,PM2.5,NA,NA,NA
India,Bihar,Rajgir,"Dangi Tola, Rajgir - BSPCB",15-07-2024 09:00:00,25.03280,85.41948,NH3,NA,NA,NA
India,Bihar,Rajgir,"Dangi Tola, Rajgir - BSPCB",15-07-2024 09:00:00,25.03280,85.41948,SO2,NA,NA,NA
India,Bihar,Rajgir,"Dangi Tola, Rajgir - BSPCB",15-07-2024 09:00:00,25.03280,85.41948,OZONE,NA,NA,NA
India,Bihar,Saharsa,"Police Line, Saharsa - BSPCB",15-07-2024 09:00:00,25.892357,86.590325,NH3,9,9,9
India,Bihar,Saharsa,"Police Line, Saharsa - BSPCB",15-07-2024 09:00:00,25.892357,86.590325,CO,54,56,55
India,Bihar,Samastipur,"DM Office_Kasipur, Samastipur - BSPCB",15-07-2024 09:00:00,25.859655,85.77944,NH3,2,2,2
India,Bihar,Sasaram,"Dada Peer, Sasaram - BSPCB",15-07-2024 09:00:00,24.952822,84.002396,NO2,9,10,9
India,Bihar,Sasaram,"Dada Peer, Sasaram - BSPCB",15-07-2024 09:00:00,24.952822,84.002396,SO2,5,7,6
India,Chandigarh,Chandigarh,"Sector 22, Chandigarh - CPCC",15-07-2024 09:00:00,30.735567,76.775714,PM2.5,77,150,104
India,Chandigarh,Chandigarh,"Sector 22, Chandigarh - CPCC",15-07-2024 09:00:00,30.735567,76.775714,NO2,18,52,30
India,Chandigarh,Chandigarh,"Sector-25, Chandigarh - CPCC",15-07-2024 09:00:00,30.751462,76.762879,NO2,11,33,19
India,Chandigarh,Chandigarh,"Sector-53, Chandigarh - CPCC",15-07-2024 09:00:00,30.719859,76.738637,CO,28,97,58
India,Chandigarh,Chandigarh,"Sector-53, Chandigarh - CPCC",15-07-2024 09:00:00,30.719859,76.738637,OZONE,7,72,13
India,Chhattisgarh,Bhilai,"32Bungalows, Bhilai - CECB",15-07-2024 09:00:00,21.194815,81.314770,NO2,8,9,8
India,Chhattisgarh,Bhilai,"32Bungalows, Bhilai - CECB",15-07-2024 09:00:00,21.194815,81.314770,OZONE,9,11,10
India,Chhattisgarh,Bhilai,"Civic Center, Bhilai - Bhilai Steel Plant",15-07-2024 09:00:00,21.185571,81.343175,NH3,3,4,4
India,Chhattisgarh,Bhilai,"Civic Center, Bhilai - Bhilai Steel Plant",15-07-2024 09:00:00,21.185571,81.343175,OZONE,8,24,12
India,Chhattisgarh,Bhilai,"Hathkhoj, Bhilai - CECB",15-07-2024 09:00:00,21.224231,81.408350,PM2.5,20,56,38
India,Chhattisgarh,Bhilai,"Hathkhoj, Bhilai - CECB",15-07-2024 09:00:00,21.224231,81.408350,CO,8,52,16
India,Chhattisgarh,Bilaspur,"Mangala, Bilaspur - NTPC",15-07-2024 09:00:00,22.08815,82.13737,PM10,10,34,24
India,Chhattisgarh,Bilaspur,"Mangala, Bilaspur - NTPC",15-07-2024 09:00:00,22.08815,82.13737,SO2,16,22,19
India,Chhattisgarh,Korba,"Rampur, Korba - CECB",15-07-2024 09:00:00,22.368195,82.746431,PM10,12,28,19
India,Chhattisgarh,Korba,"Urja Nagar, Korba - CECB",15-07-2024 09:00:00,22.348441,82.549611,CO,16,42,30
India,Chhattisgarh,Kunjemura,"OP Jindal School, Kunjemura - CECB",15-07-2024 09:00:00,22.126650,83.483212,PM10,9,20,13
India,Chhattisgarh,Raipur,"Bhatagaon New ISBT, Raipur - CECB",15-07-2024 09:00:00,21.219665,81.630094,PM2.5,7,26,19
India,Delhi,Delhi,"Alipur, Delhi - DPCC",15-07-2024 09:00:00,28.815329,77.153010,PM2.5,70,203,110
India,Delhi,Delhi,"Anand Vihar, Delhi - DPCC",15-07-2024 09:00:00,28.647622,77.3158090,OZONE,21,36,28
India,Delhi,Delhi,"Aya Nagar, Delhi - IMD",15-07-2024 09:00:00,28.4706914,77.1099364,NO2,5,31,17
India,Delhi,Delhi,"Bawana, Delhi - DPCC",15-07-2024 09:00:00,28.776200,77.051074,PM10,99,155,122
India,Delhi,Delhi,"Bawana, Delhi - DPCC",15-07-2024 09:00:00,28.776200,77.051074,SO2,4,9,6
India,Delhi,Delhi,"Burari Crossing, Delhi - IMD",15-07-2024 09:00:00,28.7256504,77.2011573,PM2.5,34,109,79
India,Delhi,Delhi,"Burari Crossing, Delhi - IMD",15-07-2024 09:00:00,28.7256504,77.2011573,OZONE,3,91,14
India,Delhi,Delhi,"CRRI Mathura Road, Delhi - IMD",15-07-2024 09:00:00,28.5512005,77.2735737,PM2.5,39,115,74
India,Delhi,Delhi,"CRRI Mathura Road, Delhi - IMD",15-07-2024 09:00:00,28.5512005,77.2735737,CO,28,40,37
India,Delhi,Delhi,"Chandni Chowk, Delhi - IITM",15-07-2024 09:00:00,28.656756,77.227234,CO,12,32,21
India,Delhi,Delhi,"DTU, Delhi - CPCB",15-07-2024 09:00:00,28.7500499,77.1112615,NO2,60,64,62
India,Delhi,Delhi,"DTU, Delhi - CPCB",15-07-2024 09:00:00,28.7500499,77.1112615,CO,39,64,55
India,Delhi,Delhi,"Dr. Karni Singh Shooting Range, Delhi - DPCC",15-07-2024 09:00:00,28.498571,77.264840,PM2.5,52,315,152
India,Delhi,Delhi,"Dr. Karni Singh Shooting Range, Delhi - DPCC",15-07-2024 09:00:00,28.498571,77.264840,SO2,5,8,7
India,Delhi,Delhi,"Dwarka-Sector 8, Delhi - DPCC ",15-07-2024 09:00:00,28.5710274,77.0719006,NH3,7,10,9
India,Delhi,Delhi,"Dwarka-Sector 8, Delhi - DPCC ",15-07-2024 09:00:00,28.5710274,77.0719006,OZONE,12,76,17
India,Delhi,Delhi,"IHBAS, Dilshad Garden, Delhi - CPCB",15-07-2024 09:00:00,28.6811736,77.3025234,PM2.5,46,93,62
India,Delhi,Delhi,"ITO, Delhi - CPCB",15-07-2024 09:00:00,28.628624,77.241060,CO,22,62,33
India,Delhi,Delhi,"Jahangirpuri, Delhi - DPCC",15-07-2024 09:00:00,28.732820,77.170633,NH3,1,1,1
India,Delhi,Delhi,"Jahangirpuri, Delhi - DPCC",15-07-2024 09:00:00,28.732820,77.170633,SO2,21,28,24
India,Delhi,Delhi,"Jawaharlal Nehru Stadium, Delhi - DPCC",15-07-2024 09:00:00,28.580280,77.233829,PM2.5,33,107,71
India,Delhi,Delhi,"Major Dhyan Chand National Stadium, Delhi - DPCC",15-07-2024 09:00:00,28.611281,77.237738,PM10,69,129,99
India,Delhi,Delhi,"Major Dhyan Chand National Stadium, Delhi - DPCC",15-07-2024 09:00:00,28.611281,77.237738,NO2,14,74,42
India,Delhi,Delhi,"Mandir Marg, Delhi - DPCC",15-07-2024 09:00:00,28.636429,77.201067,OZONE,13,64,22
India,Delhi,Delhi,"Mundka, Delhi - DPCC",15-07-2024 09:00:00,28.684678,77.076574,PM2.5,75,143,110
India,Delhi,Delhi,"Mundka, Delhi - DPCC",15-07-2024 09:00:00,28.684678,77.076574,PM10,141,288,199
India,Delhi,Delhi,"Najafgarh, Delhi - DPCC",15-07-2024 09:00:00,28.570173,76.933762,PM10,56,107,91
India,Delhi,Delhi,"Najafgarh, Delhi - DPCC",15-07-2024 09:00:00,28.570173,76.933762,CO,45,56,47
India,Delhi,Delhi,"Narela, Delhi - DPCC",15-07-2024 09:00:00,28.822836,77.101981,NH3,9,11,10
India,Delhi,Delhi,"Nehru Nagar, Delhi - DPCC",15-07-2024 09:00:00,28.567890,77.250515,NO2,12,88,47
India,Delhi,Delhi,"Nehru Nagar, Delhi - DPCC",15-07-2024 09:00:00,28.567890,77.250515,SO2,1,13,7
India,Delhi,Delhi,"Nehru Nagar, Delhi - DPCC",15-07-2024 09:00:00,28.567890,77.250515,OZONE,3,115,40
India,Delhi,Delhi,"North Campus, DU, Delhi - IMD",15-07-2024 09:00:00,28.6573814,77.1585447,CO,34,58,45
India,Delhi,Delhi,"Okhla Phase-2, Delhi - DPCC",15-07-2024 09:00:00,28.530785,77.271255,SO2,10,16,14
India,Delhi,Delhi,"Punjabi Bagh, Delhi - DPCC",15-07-2024 09:00:00,28.674045,77.131023,PM10,103,152,129
India,Delhi,Delhi,"Pusa, Delhi - DPCC",15-07-2024 09:00:00,28.639652,77.146275,PM2.5,68,170,97
India,Delhi,Delhi,"Pusa, Delhi - DPCC",15-07-2024 09:00:00,28.639652,77.146275,NH3,5,7,7
India,Delhi,Delhi,"Pusa, Delhi - IMD",15-07-2024 09:00:00,28.636110,77.173332,CO,66,81,73
India,Delhi,Delhi,"Pusa, Delhi - IMD",15-07-2024 09:00:00,28.636110,77.173332,OZONE,30,41,40
India,Delhi,Delhi,"R K Puram, Delhi - DPCC",15-07-2024 09:00:00,28.563262,77.186937,OZONE,43,256,160
India,Delhi,Delhi,"Rohini, Delhi - DPCC",15-07-2024 09:00:00,28.732528,77.119920,PM10,121,223,156
India,Delhi,Delhi,"Shadipur, Delhi - CPCB",15-07-2024 09:00:00,28.6514781,77.1473105,PM10,77,425,118
India,Delhi,Delhi,"Shadipur, Delhi - CPCB",15-07-2024 09:00:00,28.6514781,77.1473105,NH3,8,8,8
India,Delhi,Delhi,"Shadipur, Delhi - CPCB",15-07-2024 09:00:00,28.6514781,77.1473105,OZONE,2,78,15
India,Delhi,Delhi,"Sirifort, Delhi - CPCB",15-07-2024 09:00:00,28.5504249,77.2159377,PM2.5,66,316,96
India,Delhi,Delhi,"Sonia Vihar, Delhi - DPCC",15-07-2024 09:00:00,28.710508,77.249485,NO2,20,74,38
India,Delhi,Delhi,"Sri Aurobindo Marg, Delhi - DPCC",15-07-2024 09:00:00,28.531346,77.190156,PM2.5,59,118,79
India,Delhi,Delhi,"Vivek Vihar, Delhi - DPCC",15-07-2024 09:00:00,28.672342,77.315260,NH3,17,17,17
India,Gujarat,Ahmedabad,"Chandkheda, Ahmedabad - IITM",15-07-2024 09:00:00,23.107969,72.574648,NH3,6,9,8
India,Gujarat,Ahmedabad,"Gyaspur, Ahmedabad - IITM",15-07-2024 09:00:00,22.977134,72.553024,PM2.5,50,110,74
India,Gujarat,Ahmedabad,"Gyaspur, Ahmedabad - IITM",15-07-2024 09:00:00,22.977134,72.553024,SO2,15,17,16
India,Gujarat,Ahmedabad,"Maninagar, Ahmedabad - GPCB",15-07-2024 09:00:00,23.002657,72.591912,NO2,18,50,24
India,Gujarat,Ahmedabad,"Raikhad, Ahmedabad - IITM",15-07-2024 09:00:00,23.020509,72.579261,PM2.5,59,162,88
India,Gujarat,Ahmedabad,"Raikhad, Ahmedabad - IITM",15-07-2024 09:00:00,23.020509,72.579261,OZONE,12,47,13
India,Gujarat,Ahmedabad,"SVPI Airport Hansol, Ahmedabad - IITM",15-07-2024 09:00:00,23.076793,72.627874,SO2,8,14,11
India,Gujarat,Ahmedabad,"Sardar Vallabhbhai Patel Stadium, Ahmedabad - IITM",15-07-2024 09:00:00,23.043070,72.562968,NH3,8,10,9
India,Gujarat,Ankleshwar,"GIDC, Ankleshwar - GPCB",15-07-2024 09:00:00,21.613267,73.010555,CO,57,81,65
India,Gujarat,Gandhinagar,"GIFT City, Gandhinagar - IITM",15-07-2024 09:00:00,23.163798,72.677768,PM2.5,49,95,72
India,Gujarat,Gandhinagar,"Sector-10, Gandhinagar - GPCB",15-07-2024 09:00:00,23.221714,72.654328,PM2.5,33,63,49
India,Gujarat,Surat,"Science Center, Surat - SMC",15-07-2024 09:00:00,21.170046,72.795405,PM2.5,22,72,44
India,Haryana,Ambala,"Patti Mehar, Ambala - HSPCB",15-07-2024 09:00:00,30.379589,76.778328,OZONE,42,55,47
India,Haryana,Bahadurgarh,"Arya Nagar, Bahadurgarh - HSPCB",15-07-2024 09:00:00,28.6701,76.9254,PM2.5,58,100,82
India,Haryana,Bhiwani,"H.B. Colony, Bhiwani - HSPCB",15-07-2024 09:00:00,28.806223,76.141105,NH3,6,6,6
India,Haryana,Charkhi Dadri,"Mini Secretariat, Charkhi Dadri - HSPCB",15-07-2024 09:00:00,28.593883,76.270653,PM2.5,60,163,92
India,Haryana,Charkhi Dadri,"Mini Secretariat, Charkhi Dadri - HSPCB",15-07-2024 09:00:00,28.593883,76.270653,CO,16,46,29
India,Haryana,Charkhi Dadri,"Mini Secretariat, Charkhi Dadri - HSPCB",15-07-2024 09:00:00,28.593883,76.270653,OZONE,13,17,15
India,Haryana,Dharuhera,"Municipal Corporation Office, Dharuhera -  HSPCB",15-07-2024 09:00:00,28.206800,76.799700,NO2,15,53,39
India,Haryana,Dharuhera,"Municipal Corporation Office, Dharuhera -  HSPCB",15-07-2024 09:00:00,28.206800,76.799700,NH3,9,26,19
India,Haryana,Faridabad,"Sector 11, Faridabad - HSPCB",15-07-2024 09:00:00,28.376058,77.315741,NO2,30,33,31
India,Haryana,Faridabad,"Sector 11, Faridabad - HSPCB",15-07-2024 09:00:00,28.376058,77.315741,NH3,6,6,6
India,Haryana,Faridabad,"Sector 30, Faridabad - HSPCB",15-07-2024 09:00:00,28.4417,77.3217,PM10,74,146,111
India,Haryana,Faridabad,"Sector- 16A, Faridabad - HSPCB",15-07-2024 09:00:00,28.4088421,77.3099081,PM2.5,45,148,89
India,Haryana,Fatehabad,"Huda Sector, Fatehabad - HSPCB",15-07-2024 09:00:00,29.503664,75.467934,PM2.5,18,61,39
India,Haryana,Fatehabad,"Huda Sector, Fatehabad - HSPCB",15-07-2024 09:00:00,29.503664,75.467934,NH3,9,10,10
India,Haryana,Gurugram,"Sector-51, Gurugram - HSPCB",15-07-2024 09:00:00,28.4227,77.0667,NH3,6,14,9
India,Haryana,Gurugram,"Teri Gram, Gurugram - HSPCB",15-07-2024 09:00:00,28.4275,77.1465,PM2.5,44,323,136
India,Haryana,Gurugram,"Teri Gram, Gurugram - HSPCB",15-07-2024 09:00:00,28.4275,77.1465,NO2,10,16,12
India,Haryana,Gurugram,"Teri Gram, Gurugram - HSPCB",15-07-2024 09:00:00,28.4275,77.1465,OZONE,11,22,17
India,Haryana,Gurugram,"Vikas Sadan, Gurugram - HSPCB",15-07-2024 09:00:00,28.4501238,77.0263051,PM2.5,13,71,37
India,Haryana,Gurugram,"Vikas Sadan, Gurugram - HSPCB",15-07-2024 09:00:00,28.4501238,77.0263051,NO2,5,25,14
India,Haryana,Hisar,"Urban Estate-II, Hisar - HSPCB",15-07-2024 09:00:00,29.140560,75.744941,PM2.5,38,91,61
India,Haryana,Hisar,"Urban Estate-II, Hisar - HSPCB",15-07-2024 09:00:00,29.140560,75.744941,NH3,4,4,4
India,Haryana,Hisar,"Urban Estate-II, Hisar - HSPCB",15-07-2024 09:00:00,29.140560,75.744941,SO2,1,35,17
India,Haryana,Hisar,"Urban Estate-II, Hisar - HSPCB",15-07-2024 09:00:00,29.140560,75.744941,CO,26,40,36
India,Haryana,Jind,"Police Lines, Jind - HSPCB",15-07-2024 09:00:00,29.307814,76.337619,OZONE,43,112,67
India,Haryana,Kaithal,"Rishi Nagar, Kaithal - HSPCB",15-07-2024 09:00:00,29.8006,76.4155,PM2.5,43,135,72
India,Haryana,Kaithal,"Rishi Nagar, Kaithal - HSPCB",15-07-2024 09:00:00,29.8006,76.4155,OZONE,15,28,19
India,Haryana,Karnal,"Sector-12, Karnal - HSPCB",15-07-2024 09:00:00,29.695300,77.002700,PM10,28,81,58
India,Haryana,Kurukshetra,"Sector-7, Kurukshetra - HSPCB",15-07-2024 09:00:00,29.966942,76.875879,PM2.5,57,92,80
India,Haryana,Kurukshetra,"Sector-7, Kurukshetra - HSPCB",15-07-2024 09:00:00,29.966942,76.875879,PM10,66,102,82
India,Haryana,Mandikhera,"General Hospital, Mandikhera - HSPCB",15-07-2024 09:00:00,27.9002,76.9938,PM2.5,5,28,15
India,Haryana,Mandikhera,"General Hospital, Mandikhera - HSPCB",15-07-2024 09:00:00,27.9002,76.9938,PM10,8,47,26
India,Haryana,Mandikhera,"General Hospital, Mandikhera - HSPCB",15-07-2024 09:00:00,27.9002,76.9938,NH3,16,19,18
India,Haryana,Manesar,"Sector-2 IMT, Manesar - HSPCB",15-07-2024 09:00:00,28.360699,76.936090,PM2.5,32,223,83
India,Haryana,Manesar,"Sector-2 IMT, Manesar - HSPCB",15-07-2024 09:00:00,28.360699,76.936090,PM10,31,140,75
India,Haryana,Narnaul,"Shastri Nagar, Narnaul - HSPCB",15-07-2024 09:00:00,28.060249,76.113115,PM2.5,26,52,40
India,Haryana,Narnaul,"Shastri Nagar, Narnaul - HSPCB",15-07-2024 09:00:00,28.060249,76.113115,NO2,15,32,26
India,Haryana,Narnaul,"Shastri Nagar, Narnaul - HSPCB",15-07-2024 09:00:00,28.060249,76.113115,CO,8,24,23
India,Haryana,Palwal,"Shyam Nagar, Palwal - HSPCB",15-07-2024 09:00:00,28.1485564,77.3320667,CO,13,24,18
India,Haryana,Panipat,"Sector-18, Panipat - HSPCB",15-07-2024 09:00:00,29.432304,76.972765,PM10,55,57,56
India,Haryana,Panipat,"Sector-18, Panipat - HSPCB",15-07-2024 09:00:00,29.432304,76.972765,OZONE,30,30,30
India,Haryana,Rohtak,"MD University, Rohtak - HSPCB",15-07-2024 09:00:00,28.52123,76.37138,SO2,6,9,7
India,Haryana,Rohtak,"MD University, Rohtak - HSPCB",15-07-2024 09:00:00,28.52123,76.37138,CO,22,46,44
India,Haryana,Rohtak,"MD University, Rohtak - HSPCB",15-07-2024 09:00:00,28.52123,76.37138,OZONE,45,55,50
India,Haryana,Sirsa,"F-Block, Sirsa - HSPCB",15-07-2024 09:00:00,29.536400,75.015800,NH3,12,13,12
India,Haryana,Sirsa,"F-Block, Sirsa - HSPCB",15-07-2024 09:00:00,29.536400,75.015800,OZONE,12,78,27
India,Haryana,Yamuna Nagar,"Gobind Pura, Yamuna Nagar - HSPCB",15-07-2024 09:00:00,30.1480566,77.2893471,PM10,NA,NA,NA
India,Himachal Pradesh,Baddi,"HIMUDA Complex Phase-1, Baddi - HPPCB",15-07-2024 09:00:00,30.943887,76.801991,CO,20,40,28
India,Jammu_and_Kashmir,Srinagar,"Rajbagh, Srinagar - JKSPCB",15-07-2024 09:00:00,34.066206,74.819820,CO,11,16,14
India,Jammu_and_Kashmir,Srinagar,"Rajbagh, Srinagar - JKSPCB",15-07-2024 09:00:00,34.066206,74.819820,OZONE,12,22,13
India,Jharkhand,Dhanbad,"Kalakusuma, Dhanbad - DMC",15-07-2024 09:00:00,23.811548,86.481238,PM10,68,74,71
India,Karnataka,Bagalkot,"Vidayagiri, Bagalkot - KSPCB",15-07-2024 09:00:00,16.172806,75.659694,PM10,53,54,54
India,Karnataka,Bagalkot,"Vidayagiri, Bagalkot - KSPCB",15-07-2024 09:00:00,16.172806,75.659694,CO,27,56,39
India,Karnataka,Bagalkot,"Vidayagiri, Bagalkot - KSPCB",15-07-2024 09:00:00,16.172806,75.659694,OZONE,8,18,11
India,Karnataka,Belgaum,"Ramteerth Nagar, Belgaum - KSPCB",15-07-2024 09:00:00,15.888653,74.541751,PM2.5,6,36,16
India,Karnataka,Belgaum,"Ramteerth Nagar, Belgaum - KSPCB",15-07-2024 09:00:00,15.888653,74.541751,SO2,9,10,9
India,Karnataka,Bengaluru,"BTM Layout, Bengaluru - CPCB",15-07-2024 09:00:00,12.9135218,77.5950804,OZONE,28,31,30
India,Karnataka,Bengaluru,"Bapuji Nagar, Bengaluru - KSPCB",15-07-2024 09:00:00,12.951913,77.539784,PM10,8,54,25
India,Karnataka,Bengaluru,"Bapuji Nagar, Bengaluru - KSPCB",15-07-2024 09:00:00,12.951913,77.539784,SO2,6,8,7
India,Karnataka,Bengaluru,"Hombegowda Nagar, Bengaluru - KSPCB",15-07-2024 09:00:00,12.938539,77.590100,SO2,3,5,4
India,Karnataka,Bengaluru,"Hombegowda Nagar, Bengaluru - KSPCB",15-07-2024 09:00:00,12.938539,77.590100,OZONE,5,16,10
India,Karnataka,Bengaluru,"Jayanagar 5th Block, Bengaluru - KSPCB",15-07-2024 09:00:00,12.920984,77.584908,PM10,5,38,22
India,Karnataka,Bengaluru,"Kasturi Nagar, Bengaluru - KSPCB",15-07-2024 09:00:00,13.003872,77.664217,PM10,35,40,37
India,Karnataka,Bengaluru,"Shivapura_Peenya, Bengaluru - KSPCB",15-07-2024 09:00:00,13.0246342,77.5080115,PM10,12,58,27
India,Karnataka,Bengaluru,"Shivapura_Peenya, Bengaluru - KSPCB",15-07-2024 09:00:00,13.0246342,77.5080115,NH3,4,4,4
India,Karnataka,Bengaluru,"Shivapura_Peenya, Bengaluru - KSPCB",15-07-2024 09:00:00,13.0246342,77.5080115,SO2,1,5,4
India,Karnataka,Bengaluru,"Silk Board, Bengaluru - KSPCB",15-07-2024 09:00:00,12.917348,77.622813,PM2.5,2,29,12
India,Karnataka,Bengaluru,"Silk Board, Bengaluru - KSPCB",15-07-2024 09:00:00,12.917348,77.622813,PM10,10,110,51
India,Karnataka,Bengaluru,"Silk Board, Bengaluru - KSPCB",15-07-2024 09:00:00,12.917348,77.622813,SO2,9,14,11
India,Karnataka,Bidar,"Naubad, Bidar - KSPCB",15-07-2024 09:00:00,17.930306,77.482194,SO2,11,12,12
India,Karnataka,Chamarajanagar,"Urban, Chamarajanagar - KSPCB",15-07-2024 09:00:00,11.55358,76.55521,PM2.5,20,43,31
India,Karnataka,Davanagere,"Devaraj Urs Badavane, Davanagere - KSPCB",15-07-2024 09:00:00,14.475800,75.905200,NH3,1,1,1
India,Karnataka,Davanagere,"Devaraj Urs Badavane, Davanagere - KSPCB",15-07-2024 09:00:00,14.475800,75.905200,CO,24,25,24
India,Karnataka,Dharwad,"Kalabhavan, Dharwad - KSPCB",15-07-2024 09:00:00,15.459706,75.008381,NH3,2,3,2
India,Karnataka,Dharwad,"Kalabhavan, Dharwad - KSPCB",15-07-2024 09:00:00,15.459706,75.008381,CO,6,56,19
India,Karnataka,Gadag,"Panchal Nagar, Gadag - KSPCB",15-07-2024 09:00:00,15.411456,75.638133,NO2,7,27,14
India,Karnataka,Haveri,"Ashwini Nagar, Haveri - KSPCB",15-07-2024 09:00:00,14.791800,75.389600,OZONE,23,25,24
India,Karnataka,Kalaburagi,"Mahatma Basaveswar Colony, Kalaburgi - KSPCB",15-07-2024 09:00:00,17.336318,76.847397,PM2.5,7,34,19
India,Karnataka,Kalaburagi,"Mahatma Basaveswar Colony, Kalaburgi - KSPCB",15-07-2024 09:00:00,17.336318,76.847397,PM10,15,53,32
India,Karnataka,Kolar,"Tamaka Ind. Area, Kolar - KSPCB",15-07-2024 09:00:00,13.1276288,78.1570122,PM10,NA,NA,NA
India,Karnataka,Mangalore,"Kadri, Mangalore - KSPCB",15-07-2024 09:00:00,12.889250,74.853000,OZONE,30,32,31
India,Karnataka,Mysuru,"Hebbal 1st Stage, Mysuru - KSPCB",15-07-2024 09:00:00,12.21041,76.37376,NO2,NA,NA,NA
India,Karnataka,Mysuru,"Hebbal 1st Stage, Mysuru - KSPCB",15-07-2024 09:00:00,12.21041,76.37376,NH3,NA,NA,NA
India,Karnataka,Mysuru,"Hebbal 1st Stage, Mysuru - KSPCB",15-07-2024 09:00:00,12.21041,76.37376,SO2,NA,NA,NA
India,Karnataka,Ramanagara,"Vijay Nagar, Ramanagara - KSPCB",15-07-2024 09:00:00,12.733409,77.298051,PM10,9,27,19
India,Karnataka,Tumakuru,"Thimmalapura, Tumakuru - KSPCB",15-07-2024 09:00:00,13.377516,77.099072,SO2,7,15,8
India,Karnataka,Tumakuru,"Thimmalapura, Tumakuru - KSPCB",15-07-2024 09:00:00,13.377516,77.099072,CO,28,34,32
India,Karnataka,Vijayapura,"Ibrahimpur, Vijayapura - KSPCB",15-07-2024 09:00:00,16.802639,75.722694,PM10,41,43,42
India,Karnataka,Vijayapura,"Ibrahimpur, Vijayapura - KSPCB",15-07-2024 09:00:00,16.802639,75.722694,OZONE,13,16,15
India,Karnataka,Yadgir,"Collector Office, Yadgir - KSPCB",15-07-2024 09:00:00,16.7602,77.1428,PM2.5,4,13,9
India,Karnataka,Yadgir,"Collector Office, Yadgir - KSPCB",15-07-2024 09:00:00,16.7602,77.1428,CO,14,27,22
India,Karnataka,Yadgir,"Collector Office, Yadgir - KSPCB",15-07-2024 09:00:00,16.7602,77.1428,OZONE,17,23,20
India,Kerala,Eloor,"Udyogamandal, Eloor - Kerala PCB",15-07-2024 09:00:00,10.073232,76.302765,PM2.5,40,48,44
India,Kerala,Eloor,"Udyogamandal, Eloor - Kerala PCB",15-07-2024 09:00:00,10.073232,76.302765,SO2,1,2,1
India,Kerala,Kannur,"Thavakkara, Kannur - Kerala PCB",15-07-2024 09:00:00,11.875000,75.373200,SO2,NA,NA,NA
India,Kerala,Thiruvananthapuram,"Kariavattom, Thiruvananthapuram - Kerala PCB",15-07-2024 09:00:00,8.563700,76.886500,SO2,1,9,4
India,Madhya Pradesh,Bhopal,"Idgah Hills, Bhopal - MPPCB",15-07-2024 09:00:00,23.264759,77.381568,NO2,4,37,14
India,Madhya Pradesh,Bhopal,"Idgah Hills, Bhopal - MPPCB",15-07-2024 09:00:00,23.264759,77.381568,OZONE,13,50,22
India,Madhya Pradesh,Bhopal,"Paryavaran Parisar, Bhopal - MPPCB",15-07-2024 09:00:00,23.210494,77.425409,OZONE,19,49,32
India,Madhya Pradesh,Bhopal,"T T Nagar, Bhopal - MPPCB",15-07-2024 09:00:00,23.233584,77.400574,OZONE,15,41,22
India,Madhya Pradesh,Gwalior,"City Center, Gwalior - MPPCB",15-07-2024 09:00:00,26.203442,78.193251,NO2,19,30,24
India,Madhya Pradesh,Gwalior,"Deen Dayal Nagar, Gwalior - MPPCB",15-07-2024 09:00:00,26.259242,78.216432,SO2,16,18,16
India,Madhya Pradesh,Gwalior,"Deen Dayal Nagar, Gwalior - MPPCB",15-07-2024 09:00:00,26.259242,78.216432,OZONE,8,127,60
India,Madhya Pradesh,Gwalior,"Maharaj Bada, Gwalior - MPPCB",15-07-2024 09:00:00,26.200388,78.147714,NO2,11,27,18
India,Madhya Pradesh,Gwalior,"Maharaj Bada, Gwalior - MPPCB",15-07-2024 09:00:00,26.200388,78.147714,NH3,5,10,7
India,Madhya Pradesh,Gwalior,"Maharaj Bada, Gwalior - MPPCB",15-07-2024 09:00:00,26.200388,78.147714,CO,NA,NA,NA
India,Madhya Pradesh,Gwalior,"Phool Bagh, Gwalior - Mondelez Ind. Food",15-07-2024 09:00:00,26.210536,78.171,PM10,18,111,67
India,Madhya Pradesh,Gwalior,"Phool Bagh, Gwalior - Mondelez Ind. Food",15-07-2024 09:00:00,26.210536,78.171,CO,60,72,62
India,Madhya Pradesh,Indore,"Chhoti Gwaltoli, Indore - MPPCB",15-07-2024 09:00:00,22.4310,75.5213,OZONE,10,45,29
India,Madhya Pradesh,Jabalpur,"Gupteshwar, Jabalpur - JMC",15-07-2024 09:00:00,23.142888,79.916147,PM10,22,35,29
India,Madhya Pradesh,Jabalpur,"Gupteshwar, Jabalpur - JMC",15-07-2024 09:00:00,23.142888,79.916147,SO2,2,7,4
India,Madhya Pradesh,Jabalpur,"Marhatal, Jabalpur - MPPCB",15-07-2024 09:00:00,23.168606,79.932247,PM10,22,52,36
India,Madhya Pradesh,Jabalpur,"Marhatal, Jabalpur - MPPCB",15-07-2024 09:00:00,23.168606,79.932247,NO2,8,23,15
India,Madhya Pradesh,Jabalpur,"Marhatal, Jabalpur - MPPCB",15-07-2024 09:00:00,23.168606,79.932247,SO2,16,21,19
India,Madhya Pradesh,Jabalpur,"Marhatal, Jabalpur - MPPCB",15-07-2024 09:00:00,23.168606,79.932247,CO,14,40,21
India,Madhya Pradesh,Jabalpur,"Suhagi, Jabalpur - JMC",15-07-2024 09:00:00,23.218135,79.957770,OZONE,14,49,21
India,Madhya Pradesh,Katni,"Gole Bazar, Katni - MPPCB",15-07-2024 09:00:00,23.50016,80.23284,NO2,21,30,26
India,Madhya Pradesh,Katni,"Gole Bazar, Katni - MPPCB",15-07-2024 09:00:00,23.50016,80.23284,OZONE,6,30,18
India,Madhya Pradesh,Maihar,"Sahilara, Maihar - KJS Cements",15-07-2024 09:00:00,24.2613009,80.7231783,CO,49,54,52
India,Madhya Pradesh,Mandideep,"Sector-D Industrial Area, Mandideep - MPPCB",15-07-2024 09:00:00,23.108440,77.511428,PM10,14,106,49
India,Madhya Pradesh,Mandideep,"Sector-D Industrial Area, Mandideep - MPPCB",15-07-2024 09:00:00,23.108440,77.511428,NH3,6,8,6
India,Madhya Pradesh,Mandideep,"Sector-D Industrial Area, Mandideep - MPPCB",15-07-2024 09:00:00,23.108440,77.511428,SO2,4,70,14
India,Madhya Pradesh,Ratlam,"Shasthri Nagar, Ratlam - IPCA Lab",15-07-2024 09:00:00,23.331731,75.045981,PM10,NA,NA,NA
India,Madhya Pradesh,Sagar,"Civil Lines, Sagar - MPPCB",15-07-2024 09:00:00,23.838586,78.759431,NH3,4,8,7
India,Madhya Pradesh,Sagar,"Civil Lines, Sagar - MPPCB",15-07-2024 09:00:00,23.838586,78.759431,CO,28,106,35
India,Madhya Pradesh,Satna,"Bandhavgar Colony, Satna - Birla Cement",15-07-2024 09:00:00,24.58434363,80.8549414,SO2,1,2,1
India,Madhya Pradesh,Satna,"Bandhavgar Colony, Satna - Birla Cement",15-07-2024 09:00:00,24.58434363,80.8549414,OZONE,19,70,47
India,Madhya Pradesh,Singrauli,"Suryakiran Bhawan NCL, Singrauli - MPPCB",15-07-2024 09:00:00,24.108970,82.645580,NO2,11,51,24
India,Madhya Pradesh,Singrauli,"Suryakiran Bhawan NCL, Singrauli - MPPCB",15-07-2024 09:00:00,24.108970,82.645580,SO2,21,54,39
India,Madhya Pradesh,Ujjain,"Mahakaleshwar Temple, Ujjain - MPPCB",15-07-2024 09:00:00,23.182719 ,75.768218 ,PM10,32,85,51
India,Maharashtra,Ahmednagar,"Tarakpur, Ahmednagar - MPCB",15-07-2024 09:00:00,19.10122,74.73339,PM10,27,73,40
India,Maharashtra,Ahmednagar,"Tarakpur, Ahmednagar - MPCB",15-07-2024 09:00:00,19.10122,74.73339,SO2,5,10,7
India,Maharashtra,Akola,"Ramdaspeth, Akola - MPCB",15-07-2024 09:00:00,20.719516,77.000253,PM10,23,71,43
India,Maharashtra,Akola,"Ramdaspeth, Akola - MPCB",15-07-2024 09:00:00,20.719516,77.000253,NH3,1,11,4
India,Maharashtra,Akola,"Ramdaspeth, Akola - MPCB",15-07-2024 09:00:00,20.719516,77.000253,OZONE,4,21,14
India,Maharashtra,Amravati,"Shivneri Colony, Amravati - MPCB",15-07-2024 09:00:00,20.9402359,77.7895248,SO2,3,6,4
India,Maharashtra,Amravati,"Shri Shivaji Science College, Amaravati - MPCB",15-07-2024 09:00:00,20.939198,77.765701,SO2,2,4,4
India,Maharashtra,Aurangabad,"MIDC Chilkalthana, Aurangabad - MPCB",15-07-2024 09:00:00,19.875620,75.387310,PM10,13,90,56
India,Maharashtra,Aurangabad,"MIDC Chilkalthana, Aurangabad - MPCB",15-07-2024 09:00:00,19.875620,75.387310,CO,24,36,26
India,Maharashtra,Badlapur,"Katrap, Badlapur - MPCB",15-07-2024 09:00:00,19.16485,73.23409,NH3,3,4,3
India,Maharashtra,Bhiwandi,"Gokul Nagar, Bhiwandi - MPCB",15-07-2024 09:00:00,19.309073,73.057223,PM2.5,28,91,61
India,Maharashtra,Bhiwandi,"Gokul Nagar, Bhiwandi - MPCB",15-07-2024 09:00:00,19.309073,73.057223,OZONE,10,19,12
India,Maharashtra,Boisar,"Khaira, Boisar - MPCB",15-07-2024 09:00:00,19.786089,72.757971,PM10,46,124,78
India,Maharashtra,Boisar,"Khaira, Boisar - MPCB",15-07-2024 09:00:00,19.786089,72.757971,NO2,4,12,8
India,Maharashtra,Chandrapur,"Chauhan Colony, Chandrapur - MPCB",15-07-2024 09:00:00,19.962900,79.298714,NO2,8,31,13
India,Maharashtra,Jalgaon,"Prabhat Colony, Jalgaon - MPCB",15-07-2024 09:00:00,21.001264,75.565602,PM10,NA,NA,NA
India,Maharashtra,Jalna,"Old MIDC, Jalna - MPCB",15-07-2024 09:00:00,19.854616,75.905894,PM10,NA,NA,NA
India,Maharashtra,Kalyan,"Khadakpada, Kalyan - MPCB",15-07-2024 09:00:00,19.25292,73.142019,NH3,1,1,1
India,Maharashtra,Kolhapur,"Shivaji University, Kolhapur - MPCB",15-07-2024 09:00:00,16.6870449,74.2505872,NH3,2,3,3
India,Maharashtra,Mahad,"Kamble Tarf Birwadi, Mahad - MPCB",15-07-2024 09:00:00,18.1023399,73.4783687,PM10,24,48,31
India,Maharashtra,Mahad,"Kamble Tarf Birwadi, Mahad - MPCB",15-07-2024 09:00:00,18.1023399,73.4783687,CO,10,30,13
India,Maharashtra,Malegaon,"Mahesh Nagar, Malegaon - MPCB",15-07-2024 09:00:00,20.555712,74.529236,PM2.5,26,76,51
India,Maharashtra,Malegaon,"Mahesh Nagar, Malegaon - MPCB",15-07-2024 09:00:00,20.555712,74.529236,NO2,8,114,18
India,Maharashtra,Malegaon,"Mahesh Nagar, Malegaon - MPCB",15-07-2024 09:00:00,20.555712,74.529236,SO2,1,4,3
India,Maharashtra,Malegaon,"Mahesh Nagar, Malegaon - MPCB",15-07-2024 09:00:00,20.555712,74.529236,CO,12,28,15
India,Maharashtra,Mumbai,"Bandra Kurla Complex, Mumbai - MPCB",15-07-2024 09:00:00,19.065931,72.862131,PM10,32,57,45
India,Maharashtra,Mumbai,"Bandra Kurla Complex, Mumbai - MPCB",15-07-2024 09:00:00,19.065931,72.862131,NO2,4,10,7
India,Maharashtra,Mumbai,"Bandra Kurla Complex, Mumbai - MPCB",15-07-2024 09:00:00,19.065931,72.862131,SO2,2,4,3
India,Maharashtra,Mumbai,"Borivali East, Mumbai - IITM",15-07-2024 09:00:00,19.23241,72.86895,PM10,32,69,51
India,Maharashtra,Mumbai,"Borivali East, Mumbai - IITM",15-07-2024 09:00:00,19.23241,72.86895,NO2,70,88,75
India,Maharashtra,Mumbai,"Borivali East, Mumbai - MPCB",15-07-2024 09:00:00,19.2243333,72.8658113,PM2.5,2,13,8
India,Maharashtra,Mumbai,"Borivali East, Mumbai - MPCB",15-07-2024 09:00:00,19.2243333,72.8658113,OZONE,15,16,16
India,Maharashtra,Mumbai,"Byculla, Mumbai - BMC",15-07-2024 09:00:00,18.9767,72.8380,SO2,NA,NA,NA
India,Maharashtra,Mumbai,"Byculla, Mumbai - BMC",15-07-2024 09:00:00,18.9767,72.8380,OZONE,3,14,7
India,Maharashtra,Mumbai,"Chembur, Mumbai - MPCB",15-07-2024 09:00:00,19.0364585,72.8954371,OZONE,6,41,12
India,Maharashtra,Mumbai,"Chhatrapati Shivaji Intl. Airport (T2), Mumbai - MPCB",15-07-2024 09:00:00,19.10078,72.87462,PM2.5,25,38,31
India,Maharashtra,Mumbai,"Chhatrapati Shivaji Intl. Airport (T2), Mumbai - MPCB",15-07-2024 09:00:00,19.10078,72.87462,CO,14,23,18
India,Maharashtra,Mumbai,"Deonar, Mumbai - IITM",15-07-2024 09:00:00,19.04946,72.9230,PM10,NA,NA,NA
India,Maharashtra,Mumbai,"Deonar, Mumbai - IITM",15-07-2024 09:00:00,19.04946,72.9230,NO2,5,8,7
India,Maharashtra,Mumbai,"Deonar, Mumbai - IITM",15-07-2024 09:00:00,19.04946,72.9230,SO2,NA,NA,NA
India,Maharashtra,Mumbai,"Ghatkopar, Mumbai - BMC",15-07-2024 09:00:00,19.083694,72.920967,PM2.5,5,17,10
India,Maharashtra,Mumbai,"Kandivali East, Mumbai - MPCB",15-07-2024 09:00:00,19.205800,72.868200,PM10,33,299,112
India,Maharashtra,Mumbai,"Kherwadi_Bandra East, Mumbai - MPCB",15-07-2024 09:00:00,19.0632143,72.8456324,NO2,5,18,10
India,Maharashtra,Mumbai,"Kherwadi_Bandra East, Mumbai - MPCB",15-07-2024 09:00:00,19.0632143,72.8456324,CO,10,36,18
India,Maharashtra,Mumbai,"Khindipada-Bhandup West, Mumbai - IITM",15-07-2024 09:00:00,19.1653323,72.922099,NH3,1,4,1
India,Maharashtra,Mumbai,"Malad West, Mumbai - IITM",15-07-2024 09:00:00,19.19709,72.82204,NO2,8,18,12
India,Maharashtra,Mumbai,"Mazgaon, Mumbai - IITM",15-07-2024 09:00:00,18.96702,72.84214,NH3,13,19,15
India,Maharashtra,Mumbai,"Mazgaon, Mumbai - IITM",15-07-2024 09:00:00,18.96702,72.84214,SO2,1,9,4
India,Maharashtra,Mumbai,"Mindspace-Malad West, Mumbai - MPCB",15-07-2024 09:00:00,19.1878657,72.8304069,PM2.5,24,51,38
India,Maharashtra,Mumbai,"Mulund West, Mumbai - MPCB",15-07-2024 09:00:00,19.1750,72.9419,PM2.5,NA,NA,NA
India,Maharashtra,Mumbai,"Mulund West, Mumbai - MPCB",15-07-2024 09:00:00,19.1750,72.9419,NO2,NA,NA,NA
India,Maharashtra,Mumbai,"Mulund West, Mumbai - MPCB",15-07-2024 09:00:00,19.1750,72.9419,NH3,NA,NA,NA
India,Maharashtra,Mumbai,"Mulund West, Mumbai - MPCB",15-07-2024 09:00:00,19.1750,72.9419,SO2,NA,NA,NA
India,Maharashtra,Mumbai,"Mulund West, Mumbai - MPCB",15-07-2024 09:00:00,19.1750,72.9419,CO,32,32,32
India,Maharashtra,Mumbai,"Navy Nagar-Colaba, Mumbai - IITM",15-07-2024 09:00:00,18.897756,72.813320,SO2,NA,NA,NA
India,Maharashtra,Mumbai,"Navy Nagar-Colaba, Mumbai - IITM",15-07-2024 09:00:00,18.897756,72.813320,CO,11,28,17
India,Maharashtra,Mumbai,"Powai, Mumbai - MPCB",15-07-2024 09:00:00,19.137500,72.915056,NH3,NA,NA,NA
India,Maharashtra,Mumbai,"Sewri, Mumbai - BMC",15-07-2024 09:00:00,19.000084,72.856730,PM10,23,49,36
India,Maharashtra,Mumbai,"Shivaji Nagar, Mumbai - BMC",15-07-2024 09:00:00,19.060498,72.923356,NH3,1,3,2
India,Maharashtra,Mumbai,"Sion, Mumbai - MPCB",15-07-2024 09:00:00,19.047000,72.874600,NH3,1,1,1
India,Maharashtra,Mumbai,"Vasai West, Mumbai - MPCB",15-07-2024 09:00:00,19.383200,72.820400,PM2.5,NA,NA,NA
India,Maharashtra,Mumbai,"Worli, Mumbai - MPCB",15-07-2024 09:00:00,18.9936162,72.8128113,CO,54,56,56
India,Maharashtra,Nagpur,"Mahal, Nagpur - MPCB",15-07-2024 09:00:00,21.14472,79.107595,PM2.5,11,54,28
India,Maharashtra,Nagpur,"Mahal, Nagpur - MPCB",15-07-2024 09:00:00,21.14472,79.107595,NO2,7,40,14
India,Maharashtra,Nagpur,"Opp GPO Civil Lines, Nagpur - MPCB",15-07-2024 09:00:00,21.152875,79.0517531,PM2.5,17,60,33
India,Maharashtra,Nagpur,"Opp GPO Civil Lines, Nagpur - MPCB",15-07-2024 09:00:00,21.152875,79.0517531,NH3,4,6,5
India,Maharashtra,Nashik,"Gangapur Road, Nashik - MPCB",15-07-2024 09:00:00,20.0073285,73.7762427,PM2.5,9,31,21
India,Maharashtra,Nashik,"Hirawadi, Nashik - MPCB",15-07-2024 09:00:00,20.021503,73.813844,NO2,1,10,4
India,Maharashtra,Nashik,"Hirawadi, Nashik - MPCB",15-07-2024 09:00:00,20.021503,73.813844,SO2,4,15,8
India,Maharashtra,Nashik,"Pandav Nagari, Nashik - MPCB",15-07-2024 09:00:00,19.9591346,73.7788008,SO2,9,13,10
India,Maharashtra,Navi Mumbai,"Kopripada-Vashi, Navi Mumbai - MPCB",15-07-2024 09:00:00,19.090337,73.014232,PM10,18,51,40
India,Maharashtra,Navi Mumbai,"Sanpada, Navi Mumbai - MPCB",15-07-2024 09:00:00,19.0575752,73.0151367,PM10,22,55,40
India,Maharashtra,Navi Mumbai,"Sector-19A Nerul, Navi Mumbai - IITM",15-07-2024 09:00:00,19.044,73.0325,PM10,5,37,19
India,Maharashtra,Navi Mumbai,"Sector-2E Kalamboli, Navi Mumbai - MPCB",15-07-2024 09:00:00,19.02579,73.10297,PM2.5,11,59,30
India,Maharashtra,Navi Mumbai,"Sector-2E Kalamboli, Navi Mumbai - MPCB",15-07-2024 09:00:00,19.02579,73.10297,SO2,15,23,19
India,Maharashtra,Pimpri-Chinchwad,"Park Street Wakad, Pimpri Chinchwad - MPCB",15-07-2024 09:00:00,18.59051,73.77946,PM10,40,75,50
India,Maharashtra,Pimpri-Chinchwad,"Thergaon, Pimpri Chinchwad - MPCB",15-07-2024 09:00:00,18.616318,73.765797,SO2,1,3,2
India,Maharashtra,Pune,"Bhosari, Pune - IITM",15-07-2024 09:00:00,18.640051,73.848956,PM2.5,12,64,25
India,Maharashtra,Pune,"Bhosari, Pune - IITM",15-07-2024 09:00:00,18.640051,73.848956,CO,26,112,73
India,Maharashtra,Pune,"Bhosari, Pune - IITM",15-07-2024 09:00:00,18.640051,73.848956,OZONE,1,30,5
India,Maharashtra,Pune,"Hadapsar, Pune - IITM",15-07-2024 09:00:00,18.501793,73.927532,NO2,19,34,25
India,Maharashtra,Pune,"Karve Road, Pune - MPCB",15-07-2024 09:00:00,18.5011743,73.8165527,SO2,NA,NA,NA
India,Maharashtra,Pune,"Katraj Dairy, Pune - MPCB",15-07-2024 09:00:00,18.454450,73.854155,PM10,5,500,35
India,Maharashtra,Pune,"Katraj Dairy, Pune - MPCB",15-07-2024 09:00:00,18.454450,73.854155,NO2,NA,NA,NA
India,Maharashtra,Pune,"Mhada Colony, Pune - IITM",15-07-2024 09:00:00,18.573040,73.927715,NO2,21,41,33
India,Maharashtra,Pune,"Revenue Colony-Shivajinagar, Pune - IITM",15-07-2024 09:00:00,18.530085,73.849598,SO2,8,24,18
India,Maharashtra,Pune,"Savitribai Phule Pune University, Pune - MPCB",15-07-2024 09:00:00,18.547056,73.826908,OZONE,2,31,3
India,Maharashtra,Solapur,"Dnyaneshwar Nagar, Solapur - MPCB",15-07-2024 09:00:00,17.6336264,75.9132495,NH3,6,15,8
India,Maharashtra,Solapur,"Dnyaneshwar Nagar, Solapur - MPCB",15-07-2024 09:00:00,17.6336264,75.9132495,OZONE,11,35,14
India,Maharashtra,Thane,"Pimpleshwar Mandir, Thane - MPCB",15-07-2024 09:00:00,19.192056,72.9585188,NO2,13,22,17
India,Maharashtra,Thane,"Upvan Fort, Thane - MPCB",15-07-2024 09:00:00,19.222279,72.957979,PM2.5,6,55,30
India,Maharashtra,Thane,"Upvan Fort, Thane - MPCB",15-07-2024 09:00:00,19.222279,72.957979,NO2,3,34,15
India,Maharashtra,Virar,"Bolinj, Virar - MPCB",15-07-2024 09:00:00,19.4458210,72.7988231,PM2.5,30,75,45
India,Maharashtra,Virar,"Bolinj, Virar - MPCB",15-07-2024 09:00:00,19.4458210,72.7988231,SO2,1,4,3
India,Mizoram,Aizawl,"Sikulpuikawn, Aizawl - Mizoram PCB",15-07-2024 09:00:00,23.7176342,92.7192841,PM10,1,37,11
India,Mizoram,Aizawl,"Sikulpuikawn, Aizawl - Mizoram PCB",15-07-2024 09:00:00,23.7176342,92.7192841,SO2,3,3,3
India,Nagaland,Kohima,"PWD Juction, Kohima - NPCB",15-07-2024 09:00:00,25.6635413,94.0989878,PM2.5,1,77,42
India,Nagaland,Kohima,"PWD Juction, Kohima - NPCB",15-07-2024 09:00:00,25.6635413,94.0989878,PM10,14,77,51
India,Odisha,Balasore,"Kalidaspur, Balasore - OSPCB",15-07-2024 09:00:00,21.51161,86.89088,NO2,5,26,11
India,Odisha,Barbil,"Forest Office, Barbil - OSPCB",15-07-2024 09:00:00,22.1166054,85.3945546,CO,7,139,17
India,Odisha,Baripada,"Meher Colony, Baripada - OSPCB",15-07-2024 09:00:00,21.941841,86.728318,PM2.5,14,70,39
India,Odisha,Baripada,"Meher Colony, Baripada - OSPCB",15-07-2024 09:00:00,21.941841,86.728318,NO2,37,48,41
India,Odisha,Baripada,"Meher Colony, Baripada - OSPCB",15-07-2024 09:00:00,21.941841,86.728318,NH3,3,3,3
India,Odisha,Baripada,"Meher Colony, Baripada - OSPCB",15-07-2024 09:00:00,21.941841,86.728318,OZONE,16,66,20
India,Odisha,Bhubaneswar,"Lingraj Mandir, Bhubaneswar - OSPCB",15-07-2024 09:00:00,20.240790,85.836784,PM10,28,94,58
India,Odisha,Bhubaneswar,"Lingraj Mandir, Bhubaneswar - OSPCB",15-07-2024 09:00:00,20.240790,85.836784,CO,6,78,26
India,Odisha,Bhubaneswar,"Patia, Bhubaneswar - OSPCB",15-07-2024 09:00:00,20.34652,85.81630,PM2.5,8,92,46
India,Odisha,Bhubaneswar,"Patia, Bhubaneswar - OSPCB",15-07-2024 09:00:00,20.34652,85.81630,NO2,6,18,11
India,Odisha,Bhubaneswar,"Patia, Bhubaneswar - OSPCB",15-07-2024 09:00:00,20.34652,85.81630,NH3,1,11,2
India,Odisha,Bhubaneswar,"Patia, Bhubaneswar - OSPCB",15-07-2024 09:00:00,20.34652,85.81630,CO,16,30,20
India,Odisha,Bileipada,"Tata Township, Bileipada - OSPCB",15-07-2024 09:00:00,22.06156703,85.47409613,PM10,59,127,92
India,Odisha,Bileipada,"Tata Township, Bileipada - OSPCB",15-07-2024 09:00:00,22.06156703,85.47409613,NH3,12,12,12
India,Odisha,Bileipada,"Tata Township, Bileipada - OSPCB",15-07-2024 09:00:00,22.06156703,85.47409613,CO,10,18,10
India,Odisha,Brajrajnagar,"GM Office, Brajrajnagar - OSPCB",15-07-2024 09:00:00,21.8004996,83.8396977,SO2,14,14,14
India,Odisha,Brajrajnagar,"GM Office, Brajrajnagar - OSPCB",15-07-2024 09:00:00,21.8004996,83.8396977,CO,28,42,39
India,Odisha,Byasanagar,"Ferro Chrome Colony, Byasanagar - OSPCB",15-07-2024 09:00:00,20.94185,86.11510,NH3,1,2,2
India,Odisha,Cuttack,"CDA Area, Cuttack - OSPCB",15-07-2024 09:00:00,20.48891     ,85.84768     ,PM10,7,152,78
India,Odisha,Cuttack,"CDA Area, Cuttack - OSPCB",15-07-2024 09:00:00,20.48891     ,85.84768     ,NH3,1,2,2
India,Odisha,Keonjhar,"Jagamohanpur, Keonjhar - OSPCB",15-07-2024 09:00:00,21.643900,85.599355,NO2,3,4,3
India,Odisha,Rourkela,"Raghunathpali, Rourkela - OSPCB",15-07-2024 09:00:00,22.220833,84.809444,NO2,22,83,36
India,Odisha,Rourkela,"Raghunathpali, Rourkela - OSPCB",15-07-2024 09:00:00,22.220833,84.809444,SO2,1,1,1
India,Odisha,Suakati,"OMC Colony, Suakati - OSPCB",15-07-2024 09:00:00,21.606865,85.510538,PM2.5,23,59,41
India,Odisha,Talcher,"Talcher Coalfields,Talcher - OSPCB",15-07-2024 09:00:00,20.9360711,85.1707021,PM2.5,13,238,58
India,Odisha,Talcher,"Talcher Coalfields,Talcher - OSPCB",15-07-2024 09:00:00,20.9360711,85.1707021,PM10,21,120,55
India,Odisha,Talcher,"Talcher Coalfields,Talcher - OSPCB",15-07-2024 09:00:00,20.9360711,85.1707021,SO2,21,30,24
India,Odisha,Tensa,"Barsua Iron Ore Mines, Tensa - OSPCB",15-07-2024 09:00:00,21.869985,85.167016,PM10,43,87,59
India,Odisha,Tensa,"Barsua Iron Ore Mines, Tensa - OSPCB",15-07-2024 09:00:00,21.869985,85.167016,NH3,3,3,3
India,Puducherry,Puducherry,"Jawahar Nagar, Puducherry - PPCC",15-07-2024 09:00:00,11.9309,79.8027,NO2,5,44,13
India,Puducherry,Puducherry,"Jawahar Nagar, Puducherry - PPCC",15-07-2024 09:00:00,11.9309,79.8027,CO,12,48,18
India,Punjab,Bathinda,"Hardev Nagar, Bathinda - PPCB",15-07-2024 09:00:00,30.233011,74.907758,SO2,30,46,36
India,Punjab,Jalandhar,"Civil Line, Jalandhar - PPCB",15-07-2024 09:00:00,31.321907,75.578914,NO2,13,16,14
India,Punjab,Jalandhar,"Civil Line, Jalandhar - PPCB",15-07-2024 09:00:00,31.321907,75.578914,NH3,1,1,1
India,Punjab,Jalandhar,"Civil Line, Jalandhar - PPCB",15-07-2024 09:00:00,31.321907,75.578914,SO2,13,16,14
India,Punjab,Khanna,"Kalal Majra, Khanna - PPCB",15-07-2024 09:00:00,30.736056 ,76.209694,PM10,58,122,93
India,Punjab,Ludhiana,"Punjab Agricultural University, Ludhiana - PPCB",15-07-2024 09:00:00,30.9028,75.8086,NO2,17,51,22
India,Punjab,Ludhiana,"Punjab Agricultural University, Ludhiana - PPCB",15-07-2024 09:00:00,30.9028,75.8086,CO,26,41,37
India,Punjab,Patiala,"Model Town, Patiala - PPCB",15-07-2024 09:00:00,30.349388,76.366642,PM10,70,114,82
India,Punjab,Rupnagar,"Ratanpura, Rupnagar - Ambuja Cements",15-07-2024 09:00:00,31.0325454,76.5623046,NO2,8,46,26
India,Rajasthan,Ajmer,"Civil Lines,  Ajmer - RSPCB",15-07-2024 09:00:00,26.470859,74.646594,PM2.5,25,70,48
India,Rajasthan,Alwar,"Moti Doongri, Alwar - RSPCB",15-07-2024 09:00:00,27.554793,76.611536,NH3,7,11,9
India,Rajasthan,Banswara,"Rati Talai, Banswara - RSPCB",15-07-2024 09:00:00,23.555190,74.440010,PM10,18,112,65
India,Rajasthan,Banswara,"Rati Talai, Banswara - RSPCB",15-07-2024 09:00:00,23.555190,74.440010,NH3,2,5,3
India,Rajasthan,Baran,"Bamboliya, Baran - RSPCB",15-07-2024 09:00:00,25.106006,76.469948,CO,13,24,16
India,Rajasthan,Barmer,"Railway Colony, Barmer - RSPCB",15-07-2024 09:00:00,25.747299,71.393989,PM2.5,19,78,41
India,Rajasthan,Barmer,"Railway Colony, Barmer - RSPCB",15-07-2024 09:00:00,25.747299,71.393989,NO2,4,14,7
India,Rajasthan,Barmer,"Railway Colony, Barmer - RSPCB",15-07-2024 09:00:00,25.747299,71.393989,CO,4,24,12
India,Rajasthan,Bharatpur,"Krishna Nagar, Bharatpur - RSPCB",15-07-2024 09:00:00,27.215415,77.50873,NO2,6,37,12
India,Rajasthan,Bharatpur,"Krishna Nagar, Bharatpur - RSPCB",15-07-2024 09:00:00,27.215415,77.50873,NH3,2,5,4
India,Rajasthan,Bhilwara,"Pratap Nagar, Bhilwara - RSPCB",15-07-2024 09:00:00,25.339605,74.618883,PM2.5,31,56,45
India,Rajasthan,Bhilwara,"Pratap Nagar, Bhilwara - RSPCB",15-07-2024 09:00:00,25.339605,74.618883,CO,20,34,24
India,Rajasthan,Bhiwadi,"RIICO Ind. Area III, Bhiwadi - RSPCB",15-07-2024 09:00:00,28.194909,76.862296,PM2.5,NA,NA,NA
India,Rajasthan,Bhiwadi,"RIICO Ind. Area III, Bhiwadi - RSPCB",15-07-2024 09:00:00,28.194909,76.862296,NO2,NA,NA,NA
India,Rajasthan,Bundi,"New Colony, Bundi - RSPCB",15-07-2024 09:00:00,25.435774,75.644272,PM2.5,19,64,42
India,Rajasthan,Bundi,"New Colony, Bundi - RSPCB",15-07-2024 09:00:00,25.435774,75.644272,PM10,25,105,65
India,Rajasthan,Bundi,"New Colony, Bundi - RSPCB",15-07-2024 09:00:00,25.435774,75.644272,CO,15,33,17
India,Rajasthan,Chittorgarh,"Shastri Nagar, Chittorgarh - RSPCB",15-07-2024 09:00:00,24.892047,74.623527,NO2,9,53,18
India,Rajasthan,Churu,"Subash Chowk, Churu - RSPCB",15-07-2024 09:00:00,28.296139,74.961696,PM10,56,114,84
India,Rajasthan,Dausa,"Khatikan Mohalla, Dausa - RSPCB",15-07-2024 09:00:00,26.895552,76.334753,NH3,2,6,3
India,Rajasthan,Dausa,"Khatikan Mohalla, Dausa - RSPCB",15-07-2024 09:00:00,26.895552,76.334753,SO2,3,5,4
India,Rajasthan,Dausa,"Khatikan Mohalla, Dausa - RSPCB",15-07-2024 09:00:00,26.895552,76.334753,CO,24,71,27
India,Rajasthan,Dholpur,"Raja Ganj, Dholpur - RSPCB",15-07-2024 09:00:00,26.699557,77.898881,PM10,18,155,76
India,Rajasthan,Dholpur,"Raja Ganj, Dholpur - RSPCB",15-07-2024 09:00:00,26.699557,77.898881,SO2,5,23,11
India,Rajasthan,Dungarpur,"Bhoiwada, Dungarpur - RSPCB",15-07-2024 09:00:00,23.837789,73.714926,CO,8,44,12
India,Rajasthan,Jaipur,"Adarsh Nagar, Jaipur - RSPCB",15-07-2024 09:00:00,26.902909,75.836858,PM10,51,126,82
India,Rajasthan,Jaipur,"Adarsh Nagar, Jaipur - RSPCB",15-07-2024 09:00:00,26.902909,75.836858,SO2,12,28,18
India,Rajasthan,Jaipur,"Mansarovar Sector-12, Jaipur - RSPCB",15-07-2024 09:00:00,26.843698,75.766894,PM10,22,179,96
India,Rajasthan,Jaipur,"Mansarovar Sector-12, Jaipur - RSPCB",15-07-2024 09:00:00,26.843698,75.766894,NH3,NA,NA,NA
India,Rajasthan,Jaipur,"Mansarovar Sector-12, Jaipur - RSPCB",15-07-2024 09:00:00,26.843698,75.766894,CO,14,46,35
India,Rajasthan,Jaipur,"Police Commissionerate, Jaipur - RSPCB",15-07-2024 09:00:00,26.9164092,75.7994901,OZONE,16,78,32
India,Rajasthan,Jaipur,"RIICO Sitapura, Jaipur - RSPCB",15-07-2024 09:00:00,26.786682,75.827928,SO2,1,5,2
India,Rajasthan,Jaipur,"RIICO Sitapura, Jaipur - RSPCB",15-07-2024 09:00:00,26.786682,75.827928,CO,8,64,21
India,Rajasthan,Jaipur,"Sector-2 Murlipura, Jaipur - RSPCB",15-07-2024 09:00:00,26.960669,75.771817,NO2,22,29,25
India,Rajasthan,Jaipur,"Sector-2 Murlipura, Jaipur - RSPCB",15-07-2024 09:00:00,26.960669,75.771817,NH3,1,9,4
India,Rajasthan,Jaisalmer,"Sadar Bazar, Jaisalmer - RSPCB",15-07-2024 09:00:00,26.912329,70.909168,PM2.5,32,172,53
India,Rajasthan,Jaisalmer,"Sadar Bazar, Jaisalmer - RSPCB",15-07-2024 09:00:00,26.912329,70.909168,CO,1,106,5
India,Rajasthan,Jalore,"Mudtra Sili, Jalore - RSPCB",15-07-2024 09:00:00,25.344694,72.626208,NH3,2,4,3
India,Rajasthan,Jalore,"Mudtra Sili, Jalore - RSPCB",15-07-2024 09:00:00,25.344694,72.626208,SO2,3,4,3
India,Rajasthan,Jhalawar,"Rajlaxmi Nagar, Jhalawar - RSPCB",15-07-2024 09:00:00,24.588397,76.172782,CO,2,27,22
India,Rajasthan,Jhunjhunu,"Indra Nagar, Jhunjhunu - RSPCB",15-07-2024 09:00:00,28.108988,75.386577,NO2,14,23,17
India,Rajasthan,Jhunjhunu,"Indra Nagar, Jhunjhunu - RSPCB",15-07-2024 09:00:00,28.108988,75.386577,OZONE,27,88,34
India,Rajasthan,Jodhpur,"Digari Kalan, Jodhpur - RSPCB",15-07-2024 09:00:00,26.295810,73.082283,PM10,28,158,93
India,Rajasthan,Jodhpur,"Jhalamand, Jodhpur - RSPCB",15-07-2024 09:00:00,26.215415,73.070156,OZONE,11,32,15
India,Rajasthan,Jodhpur,"Mandor, Jodhpur - RSPCB",15-07-2024 09:00:00,26.358805,73.047444,NH3,2,5,4
India,Rajasthan,Jodhpur,"Mandor, Jodhpur - RSPCB",15-07-2024 09:00:00,26.358805,73.047444,CO,10,39,38
India,Rajasthan,Karauli,"Satyawati Vihar, Karauli - RSPCB",15-07-2024 09:00:00,26.506177,77.025989,OZONE,12,211,49
India,Rajasthan,Kota,"Dhanmandi, Kota - RSPCB",15-07-2024 09:00:00,25.164090,75.858137,SO2,1,9,3
India,Rajasthan,Kota,"Dhanmandi, Kota - RSPCB",15-07-2024 09:00:00,25.164090,75.858137,OZONE,12,78,42
India,Rajasthan,Kota,"Nayapura, Kota - RSPCB",15-07-2024 09:00:00,25.196024,75.855668,PM2.5,22,46,34
India,Rajasthan,Kota,"Nayapura, Kota - RSPCB",15-07-2024 09:00:00,25.196024,75.855668,SO2,1,4,3
India,Rajasthan,Kota,"Nayapura, Kota - RSPCB",15-07-2024 09:00:00,25.196024,75.855668,OZONE,18,55,34
India,Rajasthan,Kota,"Shrinath Puram, Kota - RSPCB",15-07-2024 09:00:00,25.14389,75.821256,OZONE,22,40,27
India,Rajasthan,Nagaur,"Karni Colony, Nagaur - RSPCB",15-07-2024 09:00:00,27.213494,73.734444,PM2.5,NA,NA,NA
India,Rajasthan,Nagaur,"Karni Colony, Nagaur - RSPCB",15-07-2024 09:00:00,27.213494,73.734444,SO2,NA,NA,NA
India,Rajasthan,Pali,"Indira Colony Vistar, Pali - RSPCB",15-07-2024 09:00:00,25.771061, 73.340227,PM10,43,136,93
India,Rajasthan,Pali,"Indira Colony Vistar, Pali - RSPCB",15-07-2024 09:00:00,25.771061, 73.340227,CO,5,80,39
India,Rajasthan,Pratapgarh,"Pragati Nagar, Pratapgarh - RSPCB",15-07-2024 09:00:00,24.041198,74.780702,CO,9,21,13
India,Rajasthan,Pratapgarh,"Pragati Nagar, Pratapgarh - RSPCB",15-07-2024 09:00:00,24.041198,74.780702,OZONE,31,70,40
India,Rajasthan,Rajsamand,"Dhoinda, Rajsamand - RSPCB",15-07-2024 09:00:00,25.036360,73.883502,SO2,4,9,5
India,Rajasthan,Rajsamand,"Dhoinda, Rajsamand - RSPCB",15-07-2024 09:00:00,25.036360,73.883502,CO,4,115,40
India,Rajasthan,Sawai Madhopur,"Sahu Nagar, Sawai Madhopur - RSPCB",15-07-2024 09:00:00,26.031443,76.359327,NH3,2,2,2
India,Rajasthan,Sikar,"Radhakishan Pura, Sikar - RSPCB",15-07-2024 09:00:00,27.608912,75.153302,SO2,2,4,3
India,Rajasthan,Sikar,"Radhakishan Pura, Sikar - RSPCB",15-07-2024 09:00:00,27.608912,75.153302,CO,29,57,36
India,Rajasthan,Sirohi,"Vedhaynath Colony, Sirohi - RSPCB",15-07-2024 09:00:00,24.885261,72.857549,OZONE,15,49,26
India,Rajasthan,Sri Ganganagar,"Old City, Sri Ganganagar - RSPCB",15-07-2024 09:00:00,29.931624,73.864511,NO2,8,47,24
India,Rajasthan,Tonk,"Shastri Nagar, Tonk - RSPCB",15-07-2024 09:00:00,26.159933,75.780517,NH3,1,4,2
India,Rajasthan,Udaipur,"Ashok Nagar, Udaipur - RSPCB",15-07-2024 09:00:00,24.5886166,73.6321397,PM10,30,111,71
India,Rajasthan,Udaipur,"Ashok Nagar, Udaipur - RSPCB",15-07-2024 09:00:00,24.5886166,73.6321397,OZONE,8,41,14
India,Sikkim,Gangtok,"Zero Point GICI, Gangtok - SSPCB",15-07-2024 09:00:00,27.338530,88.614099,NH3,1,1,1
India,Sikkim,Gangtok,"Zero Point GICI, Gangtok - SSPCB",15-07-2024 09:00:00,27.338530,88.614099,SO2,12,13,12
India,TamilNadu,Chennai,"Alandur Bus Depot, Chennai - CPCB",15-07-2024 09:00:00,12.9099161,80.1076538,PM2.5,23,421,96
India,TamilNadu,Chennai,"Kodungaiyur, Chennai - TNPCB",15-07-2024 09:00:00,13.1278,80.2642,NO2,9,41,23
India,TamilNadu,Chennai,"Kodungaiyur, Chennai - TNPCB",15-07-2024 09:00:00,13.1278,80.2642,OZONE,18,52,30
India,TamilNadu,Chennai,"Royapuram, Chennai - TNPCB",15-07-2024 09:00:00,13.1036,80.2909,SO2,2,17,8
India,TamilNadu,Chennai,"Velachery Res. Area, Chennai - CPCB",15-07-2024 09:00:00,13.0052189,80.2398125,NH3,5,9,7
India,TamilNadu,Chennai,"Velachery Res. Area, Chennai - CPCB",15-07-2024 09:00:00,13.0052189,80.2398125,CO,55,56,55
India,TamilNadu,Cuddalore,"Kudikadu, Cuddalore - TNPCB",15-07-2024 09:00:00,11.6829898,79.7532099,PM10,8,41,19
India,TamilNadu,Gummidipoondi,"Anthoni Pillai Nagar, Gummidipoondi - TNPCB",15-07-2024 09:00:00,13.4127,80.1081,NO2,11,295,29
India,TamilNadu,Ooty,"Bombay Castel, Ooty - TNPCB",15-07-2024 09:00:00,11.4068288,76.7138973,SO2,NA,NA,NA
India,TamilNadu,Palkalaiperur,"Bharathidasan University, Palkalaiperur - TNPCB",15-07-2024 09:00:00,10.681158,78.741746,PM10,5,35,16
India,TamilNadu,Palkalaiperur,"Bharathidasan University, Palkalaiperur - TNPCB",15-07-2024 09:00:00,10.681158,78.741746,CO,1,6,3
India,TamilNadu,Tirupur,"Kumaran College, Tirupur - TNPCB",15-07-2024 09:00:00,11.0973603,77.3228673,NO2,2,8,6
India,Telangana,Hyderabad,"Central University, Hyderabad - TSPCB",15-07-2024 09:00:00,17.460103,78.334361,NH3,2,4,3
India,Telangana,Hyderabad,"Central University, Hyderabad - TSPCB",15-07-2024 09:00:00,17.460103,78.334361,OZONE,3,4,3
India,Telangana,Hyderabad,"ECIL Kapra, Hyderabad - TSPCB",15-07-2024 09:00:00,17.470431,78.566959,NO2,NA,NA,NA
India,Telangana,Hyderabad,"ECIL Kapra, Hyderabad - TSPCB",15-07-2024 09:00:00,17.470431,78.566959,SO2,NA,NA,NA
India,Telangana,Hyderabad,"IDA Pashamylaram, Hyderabad - TSPCB",15-07-2024 09:00:00,17.5316895,78.218939,PM2.5,2,21,11
India,Telangana,Hyderabad,"IDA Pashamylaram, Hyderabad - TSPCB",15-07-2024 09:00:00,17.5316895,78.218939,PM10,5,34,17
India,Telangana,Hyderabad,"IDA Pashamylaram, Hyderabad - TSPCB",15-07-2024 09:00:00,17.5316895,78.218939,NO2,22,48,33
India,Telangana,Hyderabad,"IDA Pashamylaram, Hyderabad - TSPCB",15-07-2024 09:00:00,17.5316895,78.218939,OZONE,4,12,5
India,Telangana,Hyderabad,"IITH Kandi, Hyderabad - TSPCB",15-07-2024 09:00:00,17.585705,78.126199,CO,18,19,19
India,Telangana,Hyderabad,"IITH Kandi, Hyderabad - TSPCB",15-07-2024 09:00:00,17.585705,78.126199,OZONE,29,37,29
India,Telangana,Hyderabad,"Kokapet, Hyderabad - TSPCB",15-07-2024 09:00:00,17.393559,78.339194,NO2,9,11,10
India,Telangana,Hyderabad,"Kokapet, Hyderabad - TSPCB",15-07-2024 09:00:00,17.393559,78.339194,NH3,2,2,2
India,Telangana,Hyderabad,"Kompally Municipal Office, Hyderabad - TSPCB",15-07-2024 09:00:00,17.544899,78.486949,SO2,NA,NA,NA
India,Telangana,Hyderabad,"Nacharam_TSIIC IALA, Hyderabad - TSPCB",15-07-2024 09:00:00,17.429398,78.569354,NO2,11,17,12
India,Telangana,Hyderabad,"Nacharam_TSIIC IALA, Hyderabad - TSPCB",15-07-2024 09:00:00,17.429398,78.569354,SO2,5,21,14
India,Telangana,Hyderabad,"Zoo Park, Hyderabad - TSPCB",15-07-2024 09:00:00,17.349694,78.451437,NH3,1,1,1
India,Telangana,Hyderabad,"Zoo Park, Hyderabad - TSPCB",15-07-2024 09:00:00,17.349694,78.451437,SO2,1,5,2
India,Telangana,Hyderabad,"Zoo Park, Hyderabad - TSPCB",15-07-2024 09:00:00,17.349694,78.451437,OZONE,15,19,17
India,Tripura,Agartala,"Bardowali, Agartala - Tripura SPCB",15-07-2024 09:00:00,23.8175497,91.2726974,NH3,7,8,8
India,Tripura,Agartala,"Bardowali, Agartala - Tripura SPCB",15-07-2024 09:00:00,23.8175497,91.2726974,OZONE,3,9,4
India,Uttar_Pradesh,Agra,"Manoharpur, Agra - UPPCB",15-07-2024 09:00:00,27.23711,78.01936,PM2.5,24,64,40
India,Uttar_Pradesh,Agra,"Manoharpur, Agra - UPPCB",15-07-2024 09:00:00,27.23711,78.01936,SO2,15,18,17
India,Uttar_Pradesh,Agra,"Manoharpur, Agra - UPPCB",15-07-2024 09:00:00,27.23711,78.01936,CO,8,12,11
India,Uttar_Pradesh,Agra,"Rohta, Agra - UPPCB",15-07-2024 09:00:00,27.106972,78.000111,CO,2,15,13
India,Uttar_Pradesh,Agra,"Shahjahan Garden, Agra - UPPCB",15-07-2024 09:00:00,27.169338,78.03582,PM10,NA,NA,NA
India,Uttar_Pradesh,Agra,"Shahjahan Garden, Agra - UPPCB",15-07-2024 09:00:00,27.169338,78.03582,NH3,NA,NA,NA
India,Uttar_Pradesh,Agra,"Shahjahan Garden, Agra - UPPCB",15-07-2024 09:00:00,27.169338,78.03582,OZONE,NA,NA,NA
India,Uttar_Pradesh,Agra,"Shastripuram, Agra - UPPCB",15-07-2024 09:00:00,27.19862,77.92066,PM2.5,2,62,38
India,Uttar_Pradesh,Agra,"Shastripuram, Agra - UPPCB",15-07-2024 09:00:00,27.19862,77.92066,SO2,16,17,17
India,Uttar_Pradesh,Bulandshahr,"Yamunapuram, Bulandshahr - UPPCB",15-07-2024 09:00:00,28.406963,77.849831,SO2,5,18,12
India,Uttar_Pradesh,Firozabad,"Nagla Bhau, Firozabad - UPPCB",15-07-2024 09:00:00,27.168897,78.376960,NH3,2,2,2
India,Uttar_Pradesh,Firozabad,"Nagla Bhau, Firozabad - UPPCB",15-07-2024 09:00:00,27.168897,78.376960,SO2,16,58,35
India,Uttar_Pradesh,Firozabad,"Vibhab Nagar, Firozabad - UPPCB",15-07-2024 09:00:00,27.1594,78.3953,CO,15,40,23
India,Uttar_Pradesh,Firozabad,"Vibhab Nagar, Firozabad - UPPCB",15-07-2024 09:00:00,27.1594,78.3953,OZONE,10,24,10
India,Uttar_Pradesh,Ghaziabad,"Indirapuram, Ghaziabad - UPPCB",15-07-2024 09:00:00,28.646233,77.358075,PM2.5,49,137,90
India,Uttar_Pradesh,Ghaziabad,"Indirapuram, Ghaziabad - UPPCB",15-07-2024 09:00:00,28.646233,77.358075,NO2,35,54,45
India,Uttar_Pradesh,Ghaziabad,"Indirapuram, Ghaziabad - UPPCB",15-07-2024 09:00:00,28.646233,77.358075,SO2,8,25,19
India,Uttar_Pradesh,Ghaziabad,"Loni, Ghaziabad - UPPCB",15-07-2024 09:00:00,28.757294,77.278792,OZONE,11,121,19
India,Uttar_Pradesh,Ghaziabad,"Vasundhara, Ghaziabad - UPPCB",15-07-2024 09:00:00,28.6603346,77.3572563,NO2,28,48,36
India,Uttar_Pradesh,Ghaziabad,"Vasundhara, Ghaziabad - UPPCB",15-07-2024 09:00:00,28.6603346,77.3572563,OZONE,16,38,27
India,Uttar_Pradesh,Gorakhpur,"Madan Mohan Malaviya University of Technology, Gorakhpur - UPPCB",15-07-2024 09:00:00,26.730136,83.433859,OZONE,12,12,12
India,Uttar_Pradesh,Greater Noida,"Knowledge Park - III, Greater Noida - UPPCB",15-07-2024 09:00:00,28.47272,77.482000,CO,18,80,33
India,Uttar_Pradesh,Greater Noida,"Knowledge Park - V, Greater Noida - UPPCB",15-07-2024 09:00:00,28.557054,77.453663,CO,20,66,46
India,Uttar_Pradesh,Hapur,"Anand Vihar, Hapur - UPPCB",15-07-2024 09:00:00,28.725645,77.749675,SO2,1,30,16
India,Uttar_Pradesh,Jhansi,"Shivaji Nagar, Jhansi - UPPCB",15-07-2024 09:00:00,25.4547,78.6039,NH3,5,6,6
India,Uttar_Pradesh,Kanpur,"FTI Kidwai Nagar, Kanpur - UPPCB",15-07-2024 09:00:00,26.428282,80.327067,SO2,15,17,15
India,Uttar_Pradesh,Kanpur,"FTI Kidwai Nagar, Kanpur - UPPCB",15-07-2024 09:00:00,26.428282,80.327067,CO,30,34,31
India,Uttar_Pradesh,Kanpur,"NSI Kalyanpur, Kanpur - UPPCB",15-07-2024 09:00:00,26.509954,80.249612,SO2,17,20,19
India,Uttar_Pradesh,Kanpur,"NSI Kalyanpur, Kanpur - UPPCB",15-07-2024 09:00:00,26.509954,80.249612,OZONE,23,50,43
India,Uttar_Pradesh,Khurja,"Kalindi Kunj, Khurja - UPPCB",15-07-2024 09:00:00,28.2348927,77.8683002,PM2.5,39,163,81
India,Uttar_Pradesh,Khurja,"Kalindi Kunj, Khurja - UPPCB",15-07-2024 09:00:00,28.2348927,77.8683002,PM10,65,182,115
India,Uttar_Pradesh,Khurja,"Kalindi Kunj, Khurja - UPPCB",15-07-2024 09:00:00,28.2348927,77.8683002,NH3,1,1,1
India,Uttar_Pradesh,Khurja,"Kalindi Kunj, Khurja - UPPCB",15-07-2024 09:00:00,28.2348927,77.8683002,OZONE,13,16,15
India,Uttar_Pradesh,Lucknow,"B R Ambedkar University, Lucknow - UPPCB",15-07-2024 09:00:00,26.766433,80.927299,PM2.5,18,132,62
India,Uttar_Pradesh,Lucknow,"Gomti Nagar, Lucknow - UPPCB",15-07-2024 09:00:00,26.868120,81.005119,PM2.5,38,95,67
India,Uttar_Pradesh,Lucknow,"Kukrail Picnic Spot-1, Lucknow - UPPCB",15-07-2024 09:00:00,26.90723,80.98579,NH3,3,3,3
India,Uttar_Pradesh,Lucknow,"Kukrail Picnic Spot-1, Lucknow - UPPCB",15-07-2024 09:00:00,26.90723,80.98579,SO2,35,36,36
India,Uttar_Pradesh,Lucknow,"Lalbagh, Lucknow - CPCB",15-07-2024 09:00:00,26.8458805,80.9365541,CO,84,110,99
India,Uttar_Pradesh,Lucknow,"Talkatora District Industries Center, Lucknow - CPCB",15-07-2024 09:00:00,26.83399722,80.8917361,SO2,4,22,11
India,Uttar_Pradesh,Meerut,"Ganga Nagar, Meerut - UPPCB",15-07-2024 09:00:00,28.999264,77.7590354,OZONE,9,83,13
India,Uttar_Pradesh,Meerut,"Jai Bhim Nagar, Meerut - UPPCB",15-07-2024 09:00:00,28.9535882,77.7622941,PM2.5,75,174,118
India,Uttar_Pradesh,Moradabad,"Buddhi Vihar, Moradabad - UPPCB",15-07-2024 09:00:00,28.83526,78.74460,NH3,3,3,3
India,Uttar_Pradesh,Moradabad,"Eco Herbal Park, Moradabad - UPPCB",15-07-2024 09:00:00,28.840739,78.697531,PM10,42,143,102
India,Uttar_Pradesh,Moradabad,"Eco Herbal Park, Moradabad - UPPCB",15-07-2024 09:00:00,28.840739,78.697531,NH3,4,16,8
India,Uttar_Pradesh,Moradabad,"Eco Herbal Park, Moradabad - UPPCB",15-07-2024 09:00:00,28.840739,78.697531,SO2,5,27,15
India,Uttar_Pradesh,Moradabad,"Eco Herbal Park, Moradabad - UPPCB",15-07-2024 09:00:00,28.840739,78.697531,CO,12,64,23
India,Uttar_Pradesh,Moradabad,"Employment Office, Moradabad - UPPCB",15-07-2024 09:00:00,28.88528,78.73880,PM2.5,17,94,50
India,Uttar_Pradesh,Moradabad,"Jigar Colony, Moradabad - UPPCB",15-07-2024 09:00:00,28.856664,78.772638,PM10,30,108,66
India,Uttar_Pradesh,Moradabad,"Kashiram Nagar, Moradabad - UPPCB",15-07-2024 09:00:00,28.849399,78.742362,PM10,32,152,69
India,Uttar_Pradesh,Moradabad,"Transport Nagar, Moradabad - UPPCB",15-07-2024 09:00:00,28.802625,78.753728,NH3,5,5,5
India,Uttar_Pradesh,Moradabad,"Transport Nagar, Moradabad - UPPCB",15-07-2024 09:00:00,28.802625,78.753728,SO2,25,32,30
India,Uttar_Pradesh,Muzaffarnagar,"New Mandi, Muzaffarnagar - UPPCB",15-07-2024 09:00:00,29.4723508,77.7194031,PM2.5,16,387,223
India,Uttar_Pradesh,Muzaffarnagar,"New Mandi, Muzaffarnagar - UPPCB",15-07-2024 09:00:00,29.4723508,77.7194031,PM10,12,404,146
India,Uttar_Pradesh,Muzaffarnagar,"New Mandi, Muzaffarnagar - UPPCB",15-07-2024 09:00:00,29.4723508,77.7194031,NH3,15,18,17
India,Uttar_Pradesh,Muzaffarnagar,"New Mandi, Muzaffarnagar - UPPCB",15-07-2024 09:00:00,29.4723508,77.7194031,OZONE,7,85,18
India,Uttar_Pradesh,Noida,"Sector - 125, Noida - UPPCB",15-07-2024 09:00:00,28.5447608,77.3231257,NO2,5,61,21
India,Uttar_Pradesh,Noida,"Sector - 125, Noida - UPPCB",15-07-2024 09:00:00,28.5447608,77.3231257,NH3,5,8,7
India,Uttar_Pradesh,Prayagraj,"Jhunsi, Prayagraj - UPPCB",15-07-2024 09:00:00,25.425602,81.917152,PM10,14,92,43
India,Uttar_Pradesh,Prayagraj,"Jhunsi, Prayagraj - UPPCB",15-07-2024 09:00:00,25.425602,81.917152,NH3,5,5,5
India,Uttar_Pradesh,Prayagraj,"Nagar Nigam, Prayagraj - UPPCB",15-07-2024 09:00:00,25.44919916 ,81.82735986 ,OZONE,10,15,12
India,Uttar_Pradesh,Varanasi,"Bhelupur, Varanasi - UPPCB",15-07-2024 09:00:00,25.301778,82.996789,PM10,30,74,54
India,Uttar_Pradesh,Varanasi,"Bhelupur, Varanasi - UPPCB",15-07-2024 09:00:00,25.301778,82.996789,NO2,8,8,8
India,Uttar_Pradesh,Varanasi,"Bhelupur, Varanasi - UPPCB",15-07-2024 09:00:00,25.301778,82.996789,OZONE,3,13,5
India,Uttar_Pradesh,Varanasi,"IESD Banaras Hindu University, Varanasi - UPPCB",15-07-2024 09:00:00,25.262326,82.995408,PM10,2,79,42
India,Uttarakhand,Dehradun,"Doon University, Dehradun - UKPCB",15-07-2024 09:00:00,30.269444,78.044167,PM2.5,5,89,58
India,Uttarakhand,Dehradun,"Doon University, Dehradun - UKPCB",15-07-2024 09:00:00,30.269444,78.044167,CO,24,40,26
India,Uttarakhand,Dehradun,"Doon University, Dehradun - UKPCB",15-07-2024 09:00:00,30.269444,78.044167,OZONE,11,44,26
India,Uttarakhand,Kashipur,"Govt. Girls Inter College, Kashipur - UKPCB",15-07-2024 09:00:00,29.2124114,78.9611753,PM10,38,68,54
India,Uttarakhand,Kashipur,"Govt. Girls Inter College, Kashipur - UKPCB",15-07-2024 09:00:00,29.2124114,78.9611753,CO,4,49,18
India,Uttarakhand,Kashipur,"Govt. Girls Inter College, Kashipur - UKPCB",15-07-2024 09:00:00,29.2124114,78.9611753,OZONE,4,33,8
India,Uttarakhand,Rishikesh,"Shivaji Nagar, Rishikesh - UKPCB",15-07-2024 09:00:00,30.075911,78.2859547,NO2,5,10,7
India,Uttarakhand,Rishikesh,"Shivaji Nagar, Rishikesh - UKPCB",15-07-2024 09:00:00,30.075911,78.2859547,SO2,3,5,4
India,West_Bengal,Asansol,"Evelyn Lodge, Asansol - WBPCB",15-07-2024 09:00:00,23.6979360,86.9443950,PM2.5,13,151,53
India,West_Bengal,Asansol,"Evelyn Lodge, Asansol - WBPCB",15-07-2024 09:00:00,23.6979360,86.9443950,NH3,1,2,2
India,West_Bengal,Asansol,"Evelyn Lodge, Asansol - WBPCB",15-07-2024 09:00:00,23.6979360,86.9443950,SO2,3,4,3
India,West_Bengal,Durgapur,"PCBL Residential Complex, Durgapur - WBPCB",15-07-2024 09:00:00,23.5087640,87.3544400,PM10,29,121,74
India,West_Bengal,Haldia,"Priyambada Housing Estate, Haldia - WBPCB",15-07-2024 09:00:00,22.06047,88.109737,PM2.5,10,32,17
India,West_Bengal,Haldia,"Priyambada Housing Estate, Haldia - WBPCB",15-07-2024 09:00:00,22.06047,88.109737,NH3,2,3,3
India,West_Bengal,Haldia,"Priyambada Housing Estate, Haldia - WBPCB",15-07-2024 09:00:00,22.06047,88.109737,SO2,10,22,13
India,West_Bengal,Haldia,"Priyambada Housing Estate, Haldia - WBPCB",15-07-2024 09:00:00,22.06047,88.109737,OZONE,20,30,25
India,West_Bengal,Howrah,"Belur Math, Howrah - WBPCB",15-07-2024 09:00:00,22.629801,88.352017,PM10,21,35,27
India,West_Bengal,Howrah,"Belur Math, Howrah - WBPCB",15-07-2024 09:00:00,22.629801,88.352017,SO2,8,9,9
India,West_Bengal,Howrah,"Botanical Garden, Howrah - WBPCB",15-07-2024 09:00:00,22.554954,88.292568,CO,18,32,21
India,West_Bengal,Howrah,"Ghusuri, Howrah - WBPCB",15-07-2024 09:00:00,22.611968,88.347422,NO2,23,23,23
India,West_Bengal,Howrah,"Padmapukur, Howrah - WBPCB",15-07-2024 09:00:00,22.5687319,88.2797276,NH3,4,7,6
India,West_Bengal,Howrah,"Padmapukur, Howrah - WBPCB",15-07-2024 09:00:00,22.5687319,88.2797276,CO,4,64,23
India,West_Bengal,Kolkata,"Fort William, Kolkata - WBPCB",15-07-2024 09:00:00,22.556640,88.342674,PM10,19,45,31
India,West_Bengal,Kolkata,"Fort William, Kolkata - WBPCB",15-07-2024 09:00:00,22.556640,88.342674,NO2,16,40,26
India,West_Bengal,Kolkata,"Fort William, Kolkata - WBPCB",15-07-2024 09:00:00,22.556640,88.342674,NH3,6,6,6
India,West_Bengal,Kolkata,"Fort William, Kolkata - WBPCB",15-07-2024 09:00:00,22.556640,88.342674,SO2,7,9,9
India,West_Bengal,Kolkata,"Fort William, Kolkata - WBPCB",15-07-2024 09:00:00,22.556640,88.342674,CO,14,30,17
India,West_Bengal,Kolkata,"Jadavpur, Kolkata - WBPCB",15-07-2024 09:00:00,22.49929,88.36917,CO,22,26,24
India,West_Bengal,Kolkata,"Rabindra Bharati University, Kolkata - WBPCB",15-07-2024 09:00:00,22.627847,88.380669,PM2.5,5,21,12
India,West_Bengal,Kolkata,"Rabindra Sarobar, Kolkata - WBPCB",15-07-2024 09:00:00,22.51106,88.35142,SO2,5,8,7
India,West_Bengal,Kolkata,"Victoria, Kolkata - WBPCB",15-07-2024 09:00:00,22.5448082,88.3403691,PM10,36,74,50
India,West_Bengal,Kolkata,"Victoria, Kolkata - WBPCB",15-07-2024 09:00:00,22.5448082,88.3403691,OZONE,16,30,21
India,West_Bengal,Siliguri,"Ward-32 Bapupara, Siliguri - WBPCB",15-07-2024 09:00:00,26.6879226,88.4152495,NO2,19,21,20
India,West_Bengal,Siliguri,"Ward-32 Bapupara, Siliguri - WBPCB",15-07-2024 09:00:00,26.6879226,88.4152495,NH3,9,10,10
India,West_Bengal,Siliguri,"Ward-32 Bapupara, Siliguri - WBPCB",15-07-2024 09:00:00,26.6879226,88.4152495,OZONE,14,16,14
India,Andhra_Pradesh,Anantapur,"Gulzarpet, Anantapur - APPCB",15-07-2024 09:00:00,14.675886,77.593027,SO2,4,5,4
India,Andhra_Pradesh,Anantapur,"Gulzarpet, Anantapur - APPCB",15-07-2024 09:00:00,14.675886,77.593027,CO,11,40,13
India,Andhra_Pradesh,Chittoor,"Gangineni Cheruvu, Chittoor - APPCB",15-07-2024 09:00:00,13.204880,79.097889,PM2.5,30,82,48
India,Andhra_Pradesh,Chittoor,"Gangineni Cheruvu, Chittoor - APPCB",15-07-2024 09:00:00,13.204880,79.097889,PM10,37,100,60
India,Andhra_Pradesh,Chittoor,"Gangineni Cheruvu, Chittoor - APPCB",15-07-2024 09:00:00,13.204880,79.097889,NO2,8,9,9
India,Andhra_Pradesh,Rajamahendravaram,"Anand Kala Kshetram, Rajamahendravaram - APPCB",15-07-2024 09:00:00,16.9872867,81.7363176,PM2.5,3,28,15
India,Andhra_Pradesh,Rajamahendravaram,"Anand Kala Kshetram, Rajamahendravaram - APPCB",15-07-2024 09:00:00,16.9872867,81.7363176,PM10,12,45,24
India,Andhra_Pradesh,Rajamahendravaram,"Anand Kala Kshetram, Rajamahendravaram - APPCB",15-07-2024 09:00:00,16.9872867,81.7363176,SO2,11,14,12
India,Andhra_Pradesh,Tirupati,"Tirumala, Tirupati - APPCB",15-07-2024 09:00:00,13.67,79.35,NH3,1,2,1
India,Andhra_Pradesh,Tirupati,"Tirumala, Tirupati - APPCB",15-07-2024 09:00:00,13.67,79.35,OZONE,8,17,14
India,Andhra_Pradesh,Tirupati,"Vaikuntapuram, Tirupati - APPCB",15-07-2024 09:00:00,13.615387,79.409230,NH3,2,4,3
India,Andhra_Pradesh,Tirupati,"Vaikuntapuram, Tirupati - APPCB",15-07-2024 09:00:00,13.615387,79.409230,OZONE,24,29,25
India,Andhra_Pradesh,Vijayawada,"HB Colony, Vijayawada - APPCB",15-07-2024 09:00:00,16.536107,80.594233,OZONE,15,33,19
India,Andhra_Pradesh,Vijayawada,"Rajiv Nagar, Vijayawada - APPCB",15-07-2024 09:00:00,16.554731,80.649110,CO,38,38,38
India,Andhra_Pradesh,Visakhapatnam,"GVM Corporation, Visakhapatnam - APPCB",15-07-2024 09:00:00,17.72,83.3,PM2.5,NA,NA,NA
India,Andhra_Pradesh,Visakhapatnam,"GVM Corporation, Visakhapatnam - APPCB",15-07-2024 09:00:00,17.72,83.3,NO2,42,54,47
India,Andhra_Pradesh,Visakhapatnam,"GVM Corporation, Visakhapatnam - APPCB",15-07-2024 09:00:00,17.72,83.3,NH3,3,5,3
India,Assam,Byrnihat,"Central Academy for SFS, Byrnihat - PCBA",15-07-2024 09:00:00,26.071318,91.87488,SO2,11,49,25
India,Assam,Byrnihat,"Central Academy for SFS, Byrnihat - PCBA",15-07-2024 09:00:00,26.071318,91.87488,CO,12,23,12
India,Assam,Byrnihat,"Central Academy for SFS, Byrnihat - PCBA",15-07-2024 09:00:00,26.071318,91.87488,OZONE,22,135,35
India,Assam,Guwahati,"Railway Colony, Guwahati - PCBA",15-07-2024 09:00:00,26.181742,91.78063,PM2.5,7,132,40
India,Assam,Guwahati,"Railway Colony, Guwahati - PCBA",15-07-2024 09:00:00,26.181742,91.78063,PM10,7,113,41
India,Assam,Nagaon,"Christianpatty, Nagaon - PCBA",15-07-2024 09:00:00,26.349082,92.68449,NH3,1,3,1
India,Assam,Nagaon,"Christianpatty, Nagaon - PCBA",15-07-2024 09:00:00,26.349082,92.68449,SO2,10,10,10
India,Assam,Nalbari,"Bata Chowk, Nalbari - PCBA",15-07-2024 09:00:00,26.446912,91.439057,PM2.5,5,93,36
India,Assam,Nalbari,"Bata Chowk, Nalbari - PCBA",15-07-2024 09:00:00,26.446912,91.439057,OZONE,22,82,50
India,Assam,Silchar,"Tarapur, Silchar - PCBA",15-07-2024 09:00:00,24.82827,92.79525,PM2.5,34,35,35
India,Assam,Silchar,"Tarapur, Silchar - PCBA",15-07-2024 09:00:00,24.82827,92.79525,SO2,4,12,7
India,Assam,Silchar,"Tarapur, Silchar - PCBA",15-07-2024 09:00:00,24.82827,92.79525,CO,26,34,32
India,Assam,Sivasagar,"Girls College, Sivasagar - PCBA",15-07-2024 09:00:00,26.987634,94.636574,NO2,6,14,8
India,Assam,Sivasagar,"Girls College, Sivasagar - PCBA",15-07-2024 09:00:00,26.987634,94.636574,SO2,5,34,8
India,Bihar,Araria,"Kharahiya Basti, Araria - BSPCB",15-07-2024 09:00:00,26.146529,87.454184,PM10,19,113,65
India,Bihar,Araria,"Kharahiya Basti, Araria - BSPCB",15-07-2024 09:00:00,26.146529,87.454184,NH3,5,6,5
India,Bihar,Aurangabad,"Gurdeo Nagar, Aurangabad - BSPCB",15-07-2024 09:00:00,24.75746,84.366208,PM10,NA,NA,NA
India,Bihar,Aurangabad,"Gurdeo Nagar, Aurangabad - BSPCB",15-07-2024 09:00:00,24.75746,84.366208,CO,10,38,27
India,Bihar,Bhagalpur,"DM Office_Kachari Chowk, Bhagalpur - BSPCB",15-07-2024 09:00:00,25.251013,86.989001,OZONE,44,57,47
India,Bihar,Bhagalpur,"Mayaganj, Bhagalpur - BSPCB",15-07-2024 09:00:00,25.265194,87.012947,NH3,7,8,8
India,Bihar,Bhagalpur,"Mayaganj, Bhagalpur - BSPCB",15-07-2024 09:00:00,25.265194,87.012947,CO,16,28,19
India,Bihar,Bihar Sharif,"D M Colony, Bihar Sharif - BSPCB",15-07-2024 09:00:00,25.204762,85.514960,SO2,3,4,3
India,Bihar,Bihar Sharif,"D M Colony, Bihar Sharif - BSPCB",15-07-2024 09:00:00,25.204762,85.514960,CO,28,30,29
India,Bihar,Bihar Sharif,"D M Colony, Bihar Sharif - BSPCB",15-07-2024 09:00:00,25.204762,85.514960,OZONE,20,92,52
India,Bihar,Gaya,"Kareemganj, Gaya - BSPCB",15-07-2024 09:00:00,24.792403,84.992416,NO2,28,32,30
India,Bihar,Gaya,"Kareemganj, Gaya - BSPCB",15-07-2024 09:00:00,24.792403,84.992416,SO2,6,24,15
India,Bihar,Hajipur,"Industrial Area, Hajipur - BSPCB",15-07-2024 09:00:00,25.697189,85.245900,NO2,5,14,8
India,Bihar,Hajipur,"Industrial Area, Hajipur - BSPCB",15-07-2024 09:00:00,25.697189,85.245900,NH3,13,14,13
India,Bihar,Hajipur,"Industrial Area, Hajipur - BSPCB",15-07-2024 09:00:00,25.697189,85.245900,SO2,4,8,6
India,Bihar,Hajipur,"Industrial Area, Hajipur - BSPCB",15-07-2024 09:00:00,25.697189,85.245900,OZONE,9,24,14
India,Bihar,Katihar,"Mirchaibari, Katihar - BSPCB",15-07-2024 09:00:00,25.560083,87.553265,NO2,2,2,2
India,Bihar,Katihar,"Mirchaibari, Katihar - BSPCB",15-07-2024 09:00:00,25.560083,87.553265,SO2,8,12,11
India,Bihar,Muzaffarpur,"Buddha Colony, Muzaffarpur - BSPCB",15-07-2024 09:00:00,26.11442,85.39813,SO2,7,11,9
India,Bihar,Muzaffarpur,"Buddha Colony, Muzaffarpur - BSPCB",15-07-2024 09:00:00,26.11442,85.39813,CO,20,48,35
India,Bihar,Muzaffarpur,"MIT-Daudpur Kothi, Muzaffarpur - BSPCB",15-07-2024 09:00:00,26.1403345,85.3650192,PM2.5,2,133,32
India,Bihar,Muzaffarpur,"MIT-Daudpur Kothi, Muzaffarpur - BSPCB",15-07-2024 09:00:00,26.1403345,85.3650192,SO2,9,12,10
India,Bihar,Muzaffarpur,"Muzaffarpur Collectorate, Muzaffarpur - BSPCB",15-07-2024 09:00:00,26.1209,85.3647,NO2,33,34,34
India,Bihar,Muzaffarpur,"Muzaffarpur Collectorate, Muzaffarpur - BSPCB",15-07-2024 09:00:00,26.1209,85.3647,SO2,8,11,10
India,Bihar,Patna,"Govt. High School Shikarpur, Patna - BSPCB",15-07-2024 09:00:00,25.592539,85.227158,PM2.5,43,81,64
India,Bihar,Patna,"Govt. High School Shikarpur, Patna - BSPCB",15-07-2024 09:00:00,25.592539,85.227158,PM10,59,103,86
India,Bihar,Patna,"Govt. High School Shikarpur, Patna - BSPCB",15-07-2024 09:00:00,25.592539,85.227158,NO2,34,35,34
India,Bihar,Patna,"Govt. High School Shikarpur, Patna - BSPCB",15-07-2024 09:00:00,25.592539,85.227158,NH3,4,5,5
India,Bihar,Patna,"Muradpur, Patna - BSPCB",15-07-2024 09:00:00,25.619651,85.147382,NO2,4,23,9
India,Bihar,Patna,"Rajbansi Nagar, Patna - BSPCB",15-07-2024 09:00:00,25.599486,85.113666,OZONE,11,54,25
India,Bihar,Purnia,"Mariam Nagar, Purnia - BSPCB",15-07-2024 09:00:00,25.366336,87.117468,SO2,6,10,8
India,Bihar,Rajgir,"Dangi Tola, Rajgir - BSPCB",15-07-2024 09:00:00,25.03280,85.41948,CO,NA,NA,NA
India,Bihar,Saharsa,"Police Line, Saharsa - BSPCB",15-07-2024 09:00:00,25.892357,86.590325,PM2.5,5,55,25
India,Bihar,Saharsa,"Police Line, Saharsa - BSPCB",15-07-2024 09:00:00,25.892357,86.590325,PM10,9,95,43
India,Bihar,Samastipur,"DM Office_Kasipur, Samastipur - BSPCB",15-07-2024 09:00:00,25.859655,85.77944,PM2.5,55,500,100
India,Bihar,Samastipur,"DM Office_Kasipur, Samastipur - BSPCB",15-07-2024 09:00:00,25.859655,85.77944,PM10,60,500,102
India,Bihar,Sasaram,"Dada Peer, Sasaram - BSPCB",15-07-2024 09:00:00,24.952822,84.002396,PM10,14,66,37
India,Chandigarh,Chandigarh,"Sector 22, Chandigarh - CPCC",15-07-2024 09:00:00,30.735567,76.775714,PM10,93,194,126
India,Chandigarh,Chandigarh,"Sector-25, Chandigarh - CPCC",15-07-2024 09:00:00,30.751462,76.762879,PM10,80,108,95
India,Chandigarh,Chandigarh,"Sector-25, Chandigarh - CPCC",15-07-2024 09:00:00,30.751462,76.762879,NH3,17,29,22
India,Chandigarh,Chandigarh,"Sector-25, Chandigarh - CPCC",15-07-2024 09:00:00,30.751462,76.762879,SO2,4,10,7
India,Chandigarh,Chandigarh,"Sector-25, Chandigarh - CPCC",15-07-2024 09:00:00,30.751462,76.762879,CO,18,32,26
India,Chhattisgarh,Bhilai,"Civic Center, Bhilai - Bhilai Steel Plant",15-07-2024 09:00:00,21.185571,81.343175,PM10,14,28,19
India,Chhattisgarh,Bhilai,"Civic Center, Bhilai - Bhilai Steel Plant",15-07-2024 09:00:00,21.185571,81.343175,SO2,9,12,10
India,Chhattisgarh,Bhilai,"Hathkhoj, Bhilai - CECB",15-07-2024 09:00:00,21.224231,81.408350,NH3,9,10,9
India,Chhattisgarh,Chhal,"Nawapara SECL Colony, Chhal - CECB",15-07-2024 09:00:00,22.118125,83.140608,SO2,NA,NA,NA
India,Chhattisgarh,Korba,"Rampur, Korba - CECB",15-07-2024 09:00:00,22.368195,82.746431,PM2.5,10,21,14
India,Chhattisgarh,Korba,"Rampur, Korba - CECB",15-07-2024 09:00:00,22.368195,82.746431,NH3,1,1,1
India,Chhattisgarh,Korba,"Urja Nagar, Korba - CECB",15-07-2024 09:00:00,22.348441,82.549611,PM2.5,4,16,9
India,Chhattisgarh,Kunjemura,"OP Jindal School, Kunjemura - CECB",15-07-2024 09:00:00,22.126650,83.483212,OZONE,8,22,9
India,Chhattisgarh,Raipur,"AIIMS, Raipur - CECB",15-07-2024 09:00:00,21.258815,81.578979,NO2,8,14,10
India,Chhattisgarh,Raipur,"Bhatagaon New ISBT, Raipur - CECB",15-07-2024 09:00:00,21.219665,81.630094,PM10,23,45,34
India,Chhattisgarh,Raipur,"Bhatagaon New ISBT, Raipur - CECB",15-07-2024 09:00:00,21.219665,81.630094,NH3,2,2,2
India,Chhattisgarh,Raipur,"Krishak Nagar, Raipur - CECB",15-07-2024 09:00:00,21.237755,81.705301,CO,21,34,29
India,Chhattisgarh,Raipur,"Siltara Phase-II, Raipur - CECB",15-07-2024 09:00:00,21.371751,81.664929,SO2,NA,NA,NA
India,Delhi,Delhi,"Alipur, Delhi - DPCC",15-07-2024 09:00:00,28.815329,77.153010,PM10,89,160,119
India,Delhi,Delhi,"Alipur, Delhi - DPCC",15-07-2024 09:00:00,28.815329,77.153010,NO2,19,46,31
India,Delhi,Delhi,"Ashok Vihar, Delhi - DPCC",15-07-2024 09:00:00,28.695381,77.181665,PM10,92,134,108
India,Delhi,Delhi,"Ashok Vihar, Delhi - DPCC",15-07-2024 09:00:00,28.695381,77.181665,NO2,27,83,43
India,Delhi,Delhi,"Aya Nagar, Delhi - IMD",15-07-2024 09:00:00,28.4706914,77.1099364,CO,36,66,64
India,Delhi,Delhi,"Burari Crossing, Delhi - IMD",15-07-2024 09:00:00,28.7256504,77.2011573,CO,56,70,65
India,Delhi,Delhi,"CRRI Mathura Road, Delhi - IMD",15-07-2024 09:00:00,28.5512005,77.2735737,PM10,71,125,100
India,Delhi,Delhi,"Chandni Chowk, Delhi - IITM",15-07-2024 09:00:00,28.656756,77.227234,PM10,102,132,117
India,Delhi,Delhi,"Chandni Chowk, Delhi - IITM",15-07-2024 09:00:00,28.656756,77.227234,NH3,12,19,15
India,Delhi,Delhi,"Chandni Chowk, Delhi - IITM",15-07-2024 09:00:00,28.656756,77.227234,SO2,7,38,21
India,Delhi,Delhi,"DTU, Delhi - CPCB",15-07-2024 09:00:00,28.7500499,77.1112615,PM10,NA,NA,NA
India,Delhi,Delhi,"Dr. Karni Singh Shooting Range, Delhi - DPCC",15-07-2024 09:00:00,28.498571,77.264840,PM10,68,128,100
India,Delhi,Delhi,"Dr. Karni Singh Shooting Range, Delhi - DPCC",15-07-2024 09:00:00,28.498571,77.264840,NO2,17,40,26
India,Delhi,Delhi,"IGI Airport (T3), Delhi - IMD",15-07-2024 09:00:00,28.5627763,77.1180053,PM10,78,130,102
India,Delhi,Delhi,"IGI Airport (T3), Delhi - IMD",15-07-2024 09:00:00,28.5627763,77.1180053,NO2,19,43,29
India,Delhi,Delhi,"IGI Airport (T3), Delhi - IMD",15-07-2024 09:00:00,28.5627763,77.1180053,CO,34,60,45
India,Delhi,Delhi,"IHBAS, Dilshad Garden, Delhi - CPCB",15-07-2024 09:00:00,28.6811736,77.3025234,SO2,3,35,6
India,Delhi,Delhi,"IHBAS, Dilshad Garden, Delhi - CPCB",15-07-2024 09:00:00,28.6811736,77.3025234,OZONE,13,19,16
India,Delhi,Delhi,"ITO, Delhi - CPCB",15-07-2024 09:00:00,28.628624,77.241060,PM2.5,57,173,90
India,Delhi,Delhi,"Jahangirpuri, Delhi - DPCC",15-07-2024 09:00:00,28.732820,77.170633,PM2.5,83,183,115
India,Delhi,Delhi,"Jawaharlal Nehru Stadium, Delhi - DPCC",15-07-2024 09:00:00,28.580280,77.233829,NO2,22,89,51
India,Delhi,Delhi,"Jawaharlal Nehru Stadium, Delhi - DPCC",15-07-2024 09:00:00,28.580280,77.233829,CO,38,72,48
India,Delhi,Delhi,"Lodhi Road, Delhi - IMD",15-07-2024 09:00:00,28.5918245,77.2273074,PM10,68,123,96
India,Delhi,Delhi,"Lodhi Road, Delhi - IMD",15-07-2024 09:00:00,28.5918245,77.2273074,NO2,4,9,6
India,Delhi,Delhi,"Major Dhyan Chand National Stadium, Delhi - DPCC",15-07-2024 09:00:00,28.611281,77.237738,CO,31,57,40
India,Delhi,Delhi,"Mandir Marg, Delhi - DPCC",15-07-2024 09:00:00,28.636429,77.201067,NH3,4,9,6
India,Delhi,Delhi,"Mundka, Delhi - DPCC",15-07-2024 09:00:00,28.684678,77.076574,NO2,55,112,72
India,Delhi,Delhi,"Mundka, Delhi - DPCC",15-07-2024 09:00:00,28.684678,77.076574,OZONE,62,92,70
India,Delhi,Delhi,"NSIT Dwarka, Delhi - CPCB",15-07-2024 09:00:00,28.60909,77.0325413,NO2,21,39,26
India,Delhi,Delhi,"NSIT Dwarka, Delhi - CPCB",15-07-2024 09:00:00,28.60909,77.0325413,OZONE,1,150,22
India,Delhi,Delhi,"Narela, Delhi - DPCC",15-07-2024 09:00:00,28.822836,77.101981,PM2.5,70,175,105
India,Delhi,Delhi,"Okhla Phase-2, Delhi - DPCC",15-07-2024 09:00:00,28.530785,77.271255,PM2.5,40,127,72
India,Delhi,Delhi,"Okhla Phase-2, Delhi - DPCC",15-07-2024 09:00:00,28.530785,77.271255,NH3,5,7,6
India,Delhi,Delhi,"Patparganj, Delhi - DPCC",15-07-2024 09:00:00,28.623763,77.287209,PM2.5,58,233,102
India,Delhi,Delhi,"Patparganj, Delhi - DPCC",15-07-2024 09:00:00,28.623763,77.287209,NH3,6,14,10
India,Delhi,Delhi,"Punjabi Bagh, Delhi - DPCC",15-07-2024 09:00:00,28.674045,77.131023,SO2,15,46,26
India,Delhi,Delhi,"Punjabi Bagh, Delhi - DPCC",15-07-2024 09:00:00,28.674045,77.131023,CO,32,55,39
India,Delhi,Delhi,"Punjabi Bagh, Delhi - DPCC",15-07-2024 09:00:00,28.674045,77.131023,OZONE,9,99,15
India,Delhi,Delhi,"Pusa, Delhi - DPCC",15-07-2024 09:00:00,28.639652,77.146275,CO,27,67,36
India,Delhi,Delhi,"Pusa, Delhi - IMD",15-07-2024 09:00:00,28.636110,77.173332,PM2.5,35,172,90
India,Delhi,Delhi,"R K Puram, Delhi - DPCC",15-07-2024 09:00:00,28.563262,77.186937,PM2.5,87,302,157
India,Delhi,Delhi,"R K Puram, Delhi - DPCC",15-07-2024 09:00:00,28.563262,77.186937,NO2,22,135,48
India,Delhi,Delhi,"Rohini, Delhi - DPCC",15-07-2024 09:00:00,28.732528,77.119920,NO2,30,84,54
India,Delhi,Delhi,"Rohini, Delhi - DPCC",15-07-2024 09:00:00,28.732528,77.119920,NH3,10,42,20
India,Delhi,Delhi,"Shadipur, Delhi - CPCB",15-07-2024 09:00:00,28.6514781,77.1473105,PM2.5,55,374,95
India,Delhi,Delhi,"Sirifort, Delhi - CPCB",15-07-2024 09:00:00,28.5504249,77.2159377,NO2,8,47,30
India,Delhi,Delhi,"Sirifort, Delhi - CPCB",15-07-2024 09:00:00,28.5504249,77.2159377,OZONE,9,48,11
India,Delhi,Delhi,"Sonia Vihar, Delhi - DPCC",15-07-2024 09:00:00,28.710508,77.249485,NH3,6,14,11
India,Delhi,Delhi,"Sonia Vihar, Delhi - DPCC",15-07-2024 09:00:00,28.710508,77.249485,SO2,5,13,8
India,Delhi,Delhi,"Sri Aurobindo Marg, Delhi - DPCC",15-07-2024 09:00:00,28.531346,77.190156,NO2,12,57,27
India,Delhi,Delhi,"Sri Aurobindo Marg, Delhi - DPCC",15-07-2024 09:00:00,28.531346,77.190156,SO2,8,14,11
India,Delhi,Delhi,"Sri Aurobindo Marg, Delhi - DPCC",15-07-2024 09:00:00,28.531346,77.190156,CO,38,79,59
India,Delhi,Delhi,"Sri Aurobindo Marg, Delhi - DPCC",15-07-2024 09:00:00,28.531346,77.190156,OZONE,28,63,43
India,Delhi,Delhi,"Vivek Vihar, Delhi - DPCC",15-07-2024 09:00:00,28.672342,77.315260,CO,45,76,60
India,Delhi,Delhi,"Vivek Vihar, Delhi - DPCC",15-07-2024 09:00:00,28.672342,77.315260,OZONE,9,74,17
India,Gujarat,Ahmedabad,"Chandkheda, Ahmedabad - IITM",15-07-2024 09:00:00,23.107969,72.574648,PM2.5,43,97,65
India,Gujarat,Ahmedabad,"Chandkheda, Ahmedabad - IITM",15-07-2024 09:00:00,23.107969,72.574648,PM10,46,105,68
India,Gujarat,Ahmedabad,"Chandkheda, Ahmedabad - IITM",15-07-2024 09:00:00,23.107969,72.574648,OZONE,12,46,13
India,Gujarat,Ahmedabad,"Maninagar, Ahmedabad - GPCB",15-07-2024 09:00:00,23.002657,72.591912,SO2,17,23,21
India,Gujarat,Ahmedabad,"Raikhad, Ahmedabad - IITM",15-07-2024 09:00:00,23.020509,72.579261,NO2,19,54,28
India,Gujarat,Ahmedabad,"SVPI Airport Hansol, Ahmedabad - IITM",15-07-2024 09:00:00,23.076793,72.627874,OZONE,9,47,12
India,Gujarat,Ahmedabad,"Sardar Vallabhbhai Patel Stadium, Ahmedabad - IITM",15-07-2024 09:00:00,23.043070,72.562968,PM2.5,59,99,79
India,Gujarat,Ahmedabad,"Sardar Vallabhbhai Patel Stadium, Ahmedabad - IITM",15-07-2024 09:00:00,23.043070,72.562968,PM10,64,111,90
India,Gujarat,Ankleshwar,"GIDC, Ankleshwar - GPCB",15-07-2024 09:00:00,21.613267,73.010555,PM2.5,28,60,45
India,Gujarat,Ankleshwar,"GIDC, Ankleshwar - GPCB",15-07-2024 09:00:00,21.613267,73.010555,PM10,50,86,66
India,Gujarat,Ankleshwar,"GIDC, Ankleshwar - GPCB",15-07-2024 09:00:00,21.613267,73.010555,NO2,17,34,21
India,Gujarat,Ankleshwar,"GIDC, Ankleshwar - GPCB",15-07-2024 09:00:00,21.613267,73.010555,NH3,2,4,3
India,Gujarat,Gandhinagar,"GIFT City, Gandhinagar - IITM",15-07-2024 09:00:00,23.163798,72.677768,OZONE,7,47,12
India,Gujarat,Gandhinagar,"Sector-10, Gandhinagar - GPCB",15-07-2024 09:00:00,23.221714,72.654328,SO2,5,6,6
India,Gujarat,Gandhinagar,"Sector-10, Gandhinagar - GPCB",15-07-2024 09:00:00,23.221714,72.654328,CO,26,38,30
India,Gujarat,Surat,"Science Center, Surat - SMC",15-07-2024 09:00:00,21.170046,72.795405,PM10,34,79,56
India,Gujarat,Surat,"Science Center, Surat - SMC",15-07-2024 09:00:00,21.170046,72.795405,NO2,13,36,28
India,Gujarat,Vapi,"Phase-1 GIDC, Vapi - GPCB",15-07-2024 09:00:00,20.362421,72.918013,PM2.5,10,70,25
India,Gujarat,Vapi,"Phase-1 GIDC, Vapi - GPCB",15-07-2024 09:00:00,20.362421,72.918013,OZONE,4,4,4
India,Gujarat,Vatva,"Phase-4 GIDC, Vatva - GPCB",15-07-2024 09:00:00,22.969611,72.643500,OZONE,18,28,22
India,Haryana,Ambala,"Patti Mehar, Ambala - HSPCB",15-07-2024 09:00:00,30.379589,76.778328,NH3,5,12,8
India,Haryana,Bahadurgarh,"Arya Nagar, Bahadurgarh - HSPCB",15-07-2024 09:00:00,28.6701,76.9254,NH3,8,9,9
India,Haryana,Bahadurgarh,"Arya Nagar, Bahadurgarh - HSPCB",15-07-2024 09:00:00,28.6701,76.9254,SO2,6,8,7
India,Haryana,Bahadurgarh,"Arya Nagar, Bahadurgarh - HSPCB",15-07-2024 09:00:00,28.6701,76.9254,CO,35,43,38
India,Haryana,Bhiwani,"H.B. Colony, Bhiwani - HSPCB",15-07-2024 09:00:00,28.806223,76.141105,NO2,5,11,8
India,Haryana,Bhiwani,"H.B. Colony, Bhiwani - HSPCB",15-07-2024 09:00:00,28.806223,76.141105,CO,32,58,50
India,Haryana,Charkhi Dadri,"Mini Secretariat, Charkhi Dadri - HSPCB",15-07-2024 09:00:00,28.593883,76.270653,NH3,6,8,7
India,Haryana,Charkhi Dadri,"Mini Secretariat, Charkhi Dadri - HSPCB",15-07-2024 09:00:00,28.593883,76.270653,SO2,15,35,20
India,Haryana,Dharuhera,"Municipal Corporation Office, Dharuhera -  HSPCB",15-07-2024 09:00:00,28.206800,76.799700,PM2.5,73,338,221
India,Haryana,Dharuhera,"Municipal Corporation Office, Dharuhera -  HSPCB",15-07-2024 09:00:00,28.206800,76.799700,SO2,7,17,11
India,Haryana,Faridabad,"New Industrial Town, Faridabad - HSPCB",15-07-2024 09:00:00,28.39072,77.30059,PM10,67,142,106
India,Haryana,Faridabad,"New Industrial Town, Faridabad - HSPCB",15-07-2024 09:00:00,28.39072,77.30059,NO2,7,7,7
India,Haryana,Faridabad,"New Industrial Town, Faridabad - HSPCB",15-07-2024 09:00:00,28.39072,77.30059,CO,10,30,19
India,Haryana,Faridabad,"New Industrial Town, Faridabad - HSPCB",15-07-2024 09:00:00,28.39072,77.30059,OZONE,9,42,13
India,Haryana,Faridabad,"Sector 30, Faridabad - HSPCB",15-07-2024 09:00:00,28.4417,77.3217,NH3,3,3,3
India,Haryana,Faridabad,"Sector 30, Faridabad - HSPCB",15-07-2024 09:00:00,28.4417,77.3217,CO,18,61,36
India,Haryana,Fatehabad,"Huda Sector, Fatehabad - HSPCB",15-07-2024 09:00:00,29.503664,75.467934,PM10,41,96,62
India,Haryana,Fatehabad,"Huda Sector, Fatehabad - HSPCB",15-07-2024 09:00:00,29.503664,75.467934,NO2,28,32,30
India,Haryana,Fatehabad,"Huda Sector, Fatehabad - HSPCB",15-07-2024 09:00:00,29.503664,75.467934,OZONE,10,61,44
India,Haryana,Gurugram,"Sector-51, Gurugram - HSPCB",15-07-2024 09:00:00,28.4227,77.0667,NO2,13,29,23
India,Haryana,Gurugram,"Sector-51, Gurugram - HSPCB",15-07-2024 09:00:00,28.4227,77.0667,OZONE,27,34,31
India,Haryana,Gurugram,"Teri Gram, Gurugram - HSPCB",15-07-2024 09:00:00,28.4275,77.1465,NH3,25,51,35
India,Haryana,Gurugram,"Teri Gram, Gurugram - HSPCB",15-07-2024 09:00:00,28.4275,77.1465,CO,22,90,72
India,Haryana,Gurugram,"Vikas Sadan, Gurugram - HSPCB",15-07-2024 09:00:00,28.4501238,77.0263051,SO2,NA,NA,NA
India,Haryana,Gurugram,"Vikas Sadan, Gurugram - HSPCB",15-07-2024 09:00:00,28.4501238,77.0263051,CO,49,131,65
India,Haryana,Kaithal,"Rishi Nagar, Kaithal - HSPCB",15-07-2024 09:00:00,29.8006,76.4155,SO2,7,15,10
India,Haryana,Karnal,"Sector-12, Karnal - HSPCB",15-07-2024 09:00:00,29.695300,77.002700,PM2.5,1,50,11
India,Haryana,Kurukshetra,"Sector-7, Kurukshetra - HSPCB",15-07-2024 09:00:00,29.966942,76.875879,NO2,16,22,19
India,Haryana,Kurukshetra,"Sector-7, Kurukshetra - HSPCB",15-07-2024 09:00:00,29.966942,76.875879,NH3,6,6,6
India,Haryana,Kurukshetra,"Sector-7, Kurukshetra - HSPCB",15-07-2024 09:00:00,29.966942,76.875879,CO,8,21,18
India,Haryana,Kurukshetra,"Sector-7, Kurukshetra - HSPCB",15-07-2024 09:00:00,29.966942,76.875879,OZONE,41,96,54
India,Haryana,Mandikhera,"General Hospital, Mandikhera - HSPCB",15-07-2024 09:00:00,27.9002,76.9938,SO2,30,37,34
India,Haryana,Mandikhera,"General Hospital, Mandikhera - HSPCB",15-07-2024 09:00:00,27.9002,76.9938,OZONE,16,31,27
India,Haryana,Manesar,"Sector-2 IMT, Manesar - HSPCB",15-07-2024 09:00:00,28.360699,76.936090,NH3,1,3,1
India,Haryana,Manesar,"Sector-2 IMT, Manesar - HSPCB",15-07-2024 09:00:00,28.360699,76.936090,OZONE,13,47,26
India,Haryana,Panipat,"Sector-18, Panipat - HSPCB",15-07-2024 09:00:00,29.432304,76.972765,NO2,31,32,31
India,Haryana,Rohtak,"MD University, Rohtak - HSPCB",15-07-2024 09:00:00,28.52123,76.37138,PM2.5,39,306,139
India,Haryana,Yamuna Nagar,"Gobind Pura, Yamuna Nagar - HSPCB",15-07-2024 09:00:00,30.1480566,77.2893471,NH3,NA,NA,NA
India,Haryana,Yamuna Nagar,"Gobind Pura, Yamuna Nagar - HSPCB",15-07-2024 09:00:00,30.1480566,77.2893471,OZONE,20,39,30
India,Himachal Pradesh,Baddi,"HIMUDA Complex Phase-1, Baddi - HPPCB",15-07-2024 09:00:00,30.943887,76.801991,PM2.5,62,302,92
India,Himachal Pradesh,Baddi,"HIMUDA Complex Phase-1, Baddi - HPPCB",15-07-2024 09:00:00,30.943887,76.801991,NO2,9,34,16
India,Jammu_and_Kashmir,Srinagar,"Rajbagh, Srinagar - JKSPCB",15-07-2024 09:00:00,34.066206,74.819820,SO2,1,20,12
India,Jharkhand,Dhanbad,"Kalakusuma, Dhanbad - DMC",15-07-2024 09:00:00,23.811548,86.481238,SO2,9,10,9
India,Jharkhand,Pathardih,"Mohalbani Ghat, Pathardih - DMC",15-07-2024 09:00:00,23.669880,86.411725,SO2,NA,NA,NA
India,Karnataka,Bagalkot,"Vidayagiri, Bagalkot - KSPCB",15-07-2024 09:00:00,16.172806,75.659694,NO2,10,11,11
India,Karnataka,Bagalkot,"Vidayagiri, Bagalkot - KSPCB",15-07-2024 09:00:00,16.172806,75.659694,NH3,2,2,2
India,Karnataka,Bengaluru,"Bapuji Nagar, Bengaluru - KSPCB",15-07-2024 09:00:00,12.951913,77.539784,OZONE,26,32,27
India,Karnataka,Bengaluru,"City Railway Station, Bengaluru - KSPCB",15-07-2024 09:00:00,12.9756843,77.5660749,CO,53,89,70
India,Karnataka,Bengaluru,"Hebbal, Bengaluru - KSPCB",15-07-2024 09:00:00,13.029152,77.585901,PM2.5,5,39,23
India,Karnataka,Bengaluru,"Hebbal, Bengaluru - KSPCB",15-07-2024 09:00:00,13.029152,77.585901,PM10,15,48,28
India,Karnataka,Bengaluru,"Hebbal, Bengaluru - KSPCB",15-07-2024 09:00:00,13.029152,77.585901,CO,16,25,19
India,Karnataka,Bengaluru,"Jayanagar 5th Block, Bengaluru - KSPCB",15-07-2024 09:00:00,12.920984,77.584908,PM2.5,7,36,20
India,Karnataka,Bengaluru,"Jayanagar 5th Block, Bengaluru - KSPCB",15-07-2024 09:00:00,12.920984,77.584908,NO2,8,9,8
India,Karnataka,Bengaluru,"Jayanagar 5th Block, Bengaluru - KSPCB",15-07-2024 09:00:00,12.920984,77.584908,OZONE,27,28,27
India,Karnataka,Bengaluru,"Jigani, Bengaluru - KSPCB",15-07-2024 09:00:00,12.7816279,77.6299145,CO,25,38,34
India,Karnataka,Bengaluru,"Kasturi Nagar, Bengaluru - KSPCB",15-07-2024 09:00:00,13.003872,77.664217,NO2,16,17,17
India,Karnataka,Bengaluru,"Kasturi Nagar, Bengaluru - KSPCB",15-07-2024 09:00:00,13.003872,77.664217,OZONE,39,39,39
India,Karnataka,Bengaluru,"Peenya, Bengaluru - CPCB",15-07-2024 09:00:00,13.0270199,77.494094,NO2,NA,NA,NA
India,Karnataka,Bengaluru,"RVCE-Mailasandra, Bengaluru - KSPCB",15-07-2024 09:00:00,12.921418,77.502466,PM10,42,80,61
India,Karnataka,Bengaluru,"RVCE-Mailasandra, Bengaluru - KSPCB",15-07-2024 09:00:00,12.921418,77.502466,SO2,8,9,8
India,Karnataka,Bengaluru,"RVCE-Mailasandra, Bengaluru - KSPCB",15-07-2024 09:00:00,12.921418,77.502466,OZONE,39,39,39
India,Karnataka,Bengaluru,"Shivapura_Peenya, Bengaluru - KSPCB",15-07-2024 09:00:00,13.0246342,77.5080115,PM2.5,11,55,26
India,Karnataka,Bidar,"Naubad, Bidar - KSPCB",15-07-2024 09:00:00,17.930306,77.482194,PM2.5,2,11,6
India,Karnataka,Chamarajanagar,"Urban, Chamarajanagar - KSPCB",15-07-2024 09:00:00,11.55358,76.55521,NO2,20,36,28
India,Karnataka,Chikkaballapur,"Chikkaballapur Rural, Chikkaballapur - KSPCB",15-07-2024 09:00:00,13.428828,77.731418,NO2,4,7,6
India,Karnataka,Chikkaballapur,"Chikkaballapur Rural, Chikkaballapur - KSPCB",15-07-2024 09:00:00,13.428828,77.731418,CO,14,18,15
India,Karnataka,Davanagere,"Devaraj Urs Badavane, Davanagere - KSPCB",15-07-2024 09:00:00,14.475800,75.905200,SO2,6,8,7
India,Karnataka,Dharwad,"Kalabhavan, Dharwad - KSPCB",15-07-2024 09:00:00,15.459706,75.008381,SO2,1,3,1
India,Karnataka,Dharwad,"Kalabhavan, Dharwad - KSPCB",15-07-2024 09:00:00,15.459706,75.008381,OZONE,13,26,13
India,Karnataka,Gadag,"Panchal Nagar, Gadag - KSPCB",15-07-2024 09:00:00,15.411456,75.638133,PM2.5,2,13,6
India,Karnataka,Gadag,"Panchal Nagar, Gadag - KSPCB",15-07-2024 09:00:00,15.411456,75.638133,SO2,8,22,15
India,Karnataka,Hubballi,"Lingaraj Nagar, Hubballi - KSPCB",15-07-2024 09:00:00,15.3714823,75.1160168,NO2,7,14,12
India,Karnataka,Kalaburagi,"Lal Bahadur Shastri Nagar, Kalaburagi - KSPCB",15-07-2024 09:00:00,17.321993,76.822628,PM2.5,23,70,37
India,Karnataka,Kalaburagi,"Lal Bahadur Shastri Nagar, Kalaburagi - KSPCB",15-07-2024 09:00:00,17.321993,76.822628,NO2,10,12,11
India,Karnataka,Kalaburagi,"Mahatma Basaveswar Colony, Kalaburgi - KSPCB",15-07-2024 09:00:00,17.336318,76.847397,CO,24,50,26
India,Karnataka,Karwar,"KHB Colony, Karwar - KSPCB",15-07-2024 09:00:00,14.816666,74.141003,PM2.5,5,33,19
India,Karnataka,Karwar,"KHB Colony, Karwar - KSPCB",15-07-2024 09:00:00,14.816666,74.141003,PM10,9,40,24
India,Karnataka,Karwar,"KHB Colony, Karwar - KSPCB",15-07-2024 09:00:00,14.816666,74.141003,NO2,NA,NA,NA
India,Karnataka,Kolar,"Tamaka Ind. Area, Kolar - KSPCB",15-07-2024 09:00:00,13.1276288,78.1570122,NH3,11,17,14
India,Karnataka,Koppal,"Diwator Nagar, Koppal - KSPCB",15-07-2024 09:00:00,15.347630,76.181767,PM2.5,NA,NA,NA
India,Karnataka,Koppal,"Diwator Nagar, Koppal - KSPCB",15-07-2024 09:00:00,15.347630,76.181767,NO2,33,76,51
India,Karnataka,Madikeri,"Stuart Hill, Madikeri - KSPCB",15-07-2024 09:00:00,12.415911,75.735050,CO,2,34,13
India,Karnataka,Madikeri,"Stuart Hill, Madikeri - KSPCB",15-07-2024 09:00:00,12.415911,75.735050,OZONE,11,22,15
India,Karnataka,Raichur,"Haji Colony, Raichur - KSPCB",15-07-2024 09:00:00,16.208139,77.348417,PM2.5,NA,NA,NA
India,Karnataka,Raichur,"Haji Colony, Raichur - KSPCB",15-07-2024 09:00:00,16.208139,77.348417,NO2,NA,NA,NA
India,Karnataka,Raichur,"Haji Colony, Raichur - KSPCB",15-07-2024 09:00:00,16.208139,77.348417,SO2,NA,NA,NA
India,Karnataka,Ramanagara,"Vijay Nagar, Ramanagara - KSPCB",15-07-2024 09:00:00,12.733409,77.298051,SO2,19,26,23
India,Karnataka,Ramanagara,"Vijay Nagar, Ramanagara - KSPCB",15-07-2024 09:00:00,12.733409,77.298051,OZONE,28,31,29
India,Karnataka,Shivamogga,"Vinoba Nagara, Shivamogga - KSPCB",15-07-2024 09:00:00,13.940000,75.555917,PM2.5,16,42,26
India,Karnataka,Shivamogga,"Vinoba Nagara, Shivamogga - KSPCB",15-07-2024 09:00:00,13.940000,75.555917,NO2,10,26,17
India,Karnataka,Shivamogga,"Vinoba Nagara, Shivamogga - KSPCB",15-07-2024 09:00:00,13.940000,75.555917,SO2,3,7,5
India,Karnataka,Yadgir,"Collector Office, Yadgir - KSPCB",15-07-2024 09:00:00,16.7602,77.1428,NO2,6,13,9
India,Karnataka,Yadgir,"Collector Office, Yadgir - KSPCB",15-07-2024 09:00:00,16.7602,77.1428,SO2,10,22,17
India,Kerala,Eloor,"Udyogamandal, Eloor - Kerala PCB",15-07-2024 09:00:00,10.073232,76.302765,NH3,1,1,1
India,Kerala,Kannur,"Thavakkara, Kannur - Kerala PCB",15-07-2024 09:00:00,11.875000,75.373200,PM2.5,40,50,45
India,Kerala,Thiruvananthapuram,"Plammoodu, Thiruvananthapuram - Kerala PCB",15-07-2024 09:00:00,8.5149093,76.9435879,NO2,8,10,9
India,Madhya Pradesh,Bhopal,"Idgah Hills, Bhopal - MPPCB",15-07-2024 09:00:00,23.264759,77.381568,NH3,2,4,3
India,Madhya Pradesh,Bhopal,"Idgah Hills, Bhopal - MPPCB",15-07-2024 09:00:00,23.264759,77.381568,CO,8,43,16
India,Madhya Pradesh,Bhopal,"T T Nagar, Bhopal - MPPCB",15-07-2024 09:00:00,23.233584,77.400574,PM2.5,8,53,30
India,Madhya Pradesh,Bhopal,"T T Nagar, Bhopal - MPPCB",15-07-2024 09:00:00,23.233584,77.400574,CO,22,58,26
India,Madhya Pradesh,Dewas,"Bhopal Chauraha, Dewas - MPPCB",15-07-2024 09:00:00,22.9682591,76.064118,NH3,3,3,3
India,Madhya Pradesh,Gwalior,"City Center, Gwalior - MPPCB",15-07-2024 09:00:00,26.203442,78.193251,PM2.5,12,46,24
India,Madhya Pradesh,Gwalior,"Deen Dayal Nagar, Gwalior - MPPCB",15-07-2024 09:00:00,26.259242,78.216432,PM2.5,15,81,37
India,Madhya Pradesh,Gwalior,"Deen Dayal Nagar, Gwalior - MPPCB",15-07-2024 09:00:00,26.259242,78.216432,PM10,22,117,56
India,Madhya Pradesh,Gwalior,"Deen Dayal Nagar, Gwalior - MPPCB",15-07-2024 09:00:00,26.259242,78.216432,NH3,4,6,5
India,Madhya Pradesh,Gwalior,"Phool Bagh, Gwalior - Mondelez Ind. Food",15-07-2024 09:00:00,26.210536,78.171,PM2.5,16,107,60
India,Madhya Pradesh,Indore,"Chhoti Gwaltoli, Indore - MPPCB",15-07-2024 09:00:00,22.4310,75.5213,PM2.5,21,52,35
India,Madhya Pradesh,Indore,"Chhoti Gwaltoli, Indore - MPPCB",15-07-2024 09:00:00,22.4310,75.5213,PM10,26,81,49
India,Madhya Pradesh,Indore,"Regional Park, Indore - IMC",15-07-2024 09:00:00,22.6780,75.8559,PM2.5,20,42,29
India,Madhya Pradesh,Indore,"Regional Park, Indore - IMC",15-07-2024 09:00:00,22.6780,75.8559,SO2,39,41,40
India,Madhya Pradesh,Indore,"Regional Park, Indore - IMC",15-07-2024 09:00:00,22.6780,75.8559,CO,18,24,22
India,Madhya Pradesh,Indore,"Regional Park, Indore - IMC",15-07-2024 09:00:00,22.6780,75.8559,OZONE,5,10,6
India,Madhya Pradesh,Indore,"Residency Area, Indore - IMC",15-07-2024 09:00:00,22.7084,75.8815,PM10,21,52,33
India,Madhya Pradesh,Indore,"Residency Area, Indore - IMC",15-07-2024 09:00:00,22.7084,75.8815,CO,10,12,11
India,Madhya Pradesh,Jabalpur,"Gupteshwar, Jabalpur - JMC",15-07-2024 09:00:00,23.142888,79.916147,NO2,8,18,12
India,Madhya Pradesh,Jabalpur,"Gupteshwar, Jabalpur - JMC",15-07-2024 09:00:00,23.142888,79.916147,NH3,4,5,4
India,Madhya Pradesh,Jabalpur,"Gupteshwar, Jabalpur - JMC",15-07-2024 09:00:00,23.142888,79.916147,CO,8,26,11
India,Madhya Pradesh,Jabalpur,"Suhagi, Jabalpur - JMC",15-07-2024 09:00:00,23.218135,79.957770,NH3,3,3,3
India,Madhya Pradesh,Jabalpur,"Suhagi, Jabalpur - JMC",15-07-2024 09:00:00,23.218135,79.957770,SO2,4,9,6
India,Madhya Pradesh,Katni,"Gole Bazar, Katni - MPPCB",15-07-2024 09:00:00,23.50016,80.23284,SO2,12,27,18
India,Madhya Pradesh,Katni,"Gole Bazar, Katni - MPPCB",15-07-2024 09:00:00,23.50016,80.23284,CO,18,34,26
India,Madhya Pradesh,Maihar,"Sahilara, Maihar - KJS Cements",15-07-2024 09:00:00,24.2613009,80.7231783,PM10,11,32,24
India,Madhya Pradesh,Mandideep,"Sector-D Industrial Area, Mandideep - MPPCB",15-07-2024 09:00:00,23.108440,77.511428,PM2.5,15,98,43
India,Madhya Pradesh,Pithampur,"Sector-2 Industrial Area, Pithampur - MPPCB",15-07-2024 09:00:00,22.624758,75.675238,NO2,1,17,6
India,Madhya Pradesh,Pithampur,"Sector-2 Industrial Area, Pithampur - MPPCB",15-07-2024 09:00:00,22.624758,75.675238,OZONE,27,61,49
India,Madhya Pradesh,Ratlam,"Shasthri Nagar, Ratlam - IPCA Lab",15-07-2024 09:00:00,23.331731,75.045981,SO2,NA,NA,NA
India,Madhya Pradesh,Sagar,"Deen Dayal Nagar, Sagar - MPPCB",15-07-2024 09:00:00,23.8640158,78.80289321,PM10,14,50,26
India,Madhya Pradesh,Singrauli,"Suryakiran Bhawan NCL, Singrauli - MPPCB",15-07-2024 09:00:00,24.108970,82.645580,PM10,56,60,59
India,Madhya Pradesh,Singrauli,"Suryakiran Bhawan NCL, Singrauli - MPPCB",15-07-2024 09:00:00,24.108970,82.645580,CO,26,105,30
