country,state,city,station,last_update,latitude,longitude,pollutant_id,pollutant_min,pollutant_max,pollutant_avg
India,Andhra_Pradesh,Chittoor,"Gangineni Cheruvu, Chittoor - APPCB",21-01-2024 18:00:00,13.204880,79.097889,CO,16,68,31
India,Andhra_Pradesh,Kadapa,"Yerramukkapalli, Kadapa - APPCB",21-01-2024 18:00:00,14.465052,78.824187,PM2.5,27,44,36
India,Andhra_Pradesh,Kadapa,"Yerramukkapalli, Kadapa - APPCB",21-01-2024 18:00:00,14.465052,78.824187,CO,10,18,14
India,Andhra_Pradesh,Kadapa,"Yerramukkapalli, Kadapa - APPCB",21-01-2024 18:00:00,14.465052,78.824187,OZONE,16,51,37
India,Andhra_Pradesh,Rajamahendravaram,"Anand Kala Kshetram, Rajamahendravaram - APPCB",21-01-2024 18:00:00,16.9872867,81.7363176,CO,2,18,13
India,Andhra_Pradesh,Tirupati,"Tirumala, Tirupati - APPCB",21-01-2024 18:00:00,13.67,79.35,PM2.5,39,80,59
India,Andhra_Pradesh,Tirupati,"Tirumala, Tirupati - APPCB",21-01-2024 18:00:00,13.67,79.35,NH3,1,2,1
India,Andhra_Pradesh,Tirupati,"Tirumala, Tirupati - APPCB",21-01-2024 18:00:00,13.67,79.35,SO2,1,22,8
India,Andhra_Pradesh,Tirupati,"Tirumala, Tirupati - APPCB",21-01-2024 18:00:00,13.67,79.35,CO,32,58,41
India,Andhra_Pradesh,Tirupati,"Vaikuntapuram, Tirupati - APPCB",21-01-2024 18:00:00,13.615387,79.409230,OZONE,1,45,29
India,Andhra_Pradesh,Visakhapatnam,"GVM Corporation, Visakhapatnam - APPCB",21-01-2024 18:00:00,17.72,83.3,CO,6,76,48
India,Andhra_Pradesh,Visakhapatnam,"GVM Corporation, Visakhapatnam - APPCB",21-01-2024 18:00:00,17.72,83.3,OZONE,8,16,10
India,Assam,Byrnihat,"Central Academy for SFS, Byrnihat - PCBA",21-01-2024 18:00:00,26.071318,91.87488,PM2.5,127,419,316
India,Assam,Byrnihat,"Central Academy for SFS, Byrnihat - PCBA",21-01-2024 18:00:00,26.071318,91.87488,NO2,43,124,63
India,Assam,Guwahati,"IITG, Guwahati - PCBA",21-01-2024 18:00:00,26.2028636,91.70046436,SO2,NA,NA,NA
India,Assam,Guwahati,"Pan Bazaar, Guwahati - PCBA",21-01-2024 18:00:00,26.187500,91.744194,NH3,3,5,4
India,Assam,Guwahati,"Pan Bazaar, Guwahati - PCBA",21-01-2024 18:00:00,26.187500,91.744194,OZONE,17,18,17
India,Assam,Nagaon,"Christianpatty, Nagaon - PCBA",21-01-2024 18:00:00,26.349082,92.68449,NH3,1,1,1
India,Assam,Nagaon,"Christianpatty, Nagaon - PCBA",21-01-2024 18:00:00,26.349082,92.68449,OZONE,4,105,72
India,Assam,Nalbari,"Bata Chowk, Nalbari - PCBA",21-01-2024 18:00:00,26.446912,91.439057,PM2.5,68,462,307
India,Assam,Nalbari,"Bata Chowk, Nalbari - PCBA",21-01-2024 18:00:00,26.446912,91.439057,NH3,1,8,3
India,Assam,Nalbari,"Bata Chowk, Nalbari - PCBA",21-01-2024 18:00:00,26.446912,91.439057,SO2,4,10,6
India,Assam,Silchar,"Tarapur, Silchar - PCBA",21-01-2024 18:00:00,24.82827,92.79525,OZONE,NA,NA,NA
India,Assam,Sivasagar,"Girls College, Sivasagar - PCBA",21-01-2024 18:00:00,26.987634,94.636574,CO,4,56,7
India,Bihar,Araria,"Kharahiya Basti, Araria - BSPCB",21-01-2024 18:00:00,26.146529,87.454184,PM2.5,144,453,245
India,Bihar,Araria,"Kharahiya Basti, Araria - BSPCB",21-01-2024 18:00:00,26.146529,87.454184,NO2,6,8,7
India,Bihar,Araria,"Kharahiya Basti, Araria - BSPCB",21-01-2024 18:00:00,26.146529,87.454184,CO,32,102,39
India,Bihar,Arrah,"New DM Office, Arrah - BSPCB",21-01-2024 18:00:00,25.5626095,84.663264,PM10,NA,NA,NA
India,Bihar,Arrah,"New DM Office, Arrah - BSPCB",21-01-2024 18:00:00,25.5626095,84.663264,SO2,NA,NA,NA
India,Bihar,Bettiah,"Kamalnath Nagar, Bettiah - BSPCB",21-01-2024 18:00:00,26.80365,84.51954,PM10,NA,NA,NA
India,Bihar,Bettiah,"Kamalnath Nagar, Bettiah - BSPCB",21-01-2024 18:00:00,26.80365,84.51954,NO2,1,5,2
India,Bihar,Bettiah,"Kamalnath Nagar, Bettiah - BSPCB",21-01-2024 18:00:00,26.80365,84.51954,CO,36,100,62
India,Bihar,Bhagalpur,"DM Office_Kachari Chowk, Bhagalpur - BSPCB",21-01-2024 18:00:00,25.251013,86.989001,PM10,182,272,218
India,Bihar,Bhagalpur,"DM Office_Kachari Chowk, Bhagalpur - BSPCB",21-01-2024 18:00:00,25.251013,86.989001,OZONE,24,35,27
India,Bihar,Bhagalpur,"Mayaganj, Bhagalpur - BSPCB",21-01-2024 18:00:00,25.265194,87.012947,NH3,9,10,10
India,Bihar,Bihar Sharif,"D M Colony, Bihar Sharif - BSPCB",21-01-2024 18:00:00,25.204762,85.514960,SO2,1,13,7
India,Bihar,Chhapra,"Darshan Nagar, Chhapra - BSPCB",21-01-2024 18:00:00,25.7808257,84.7446768,PM10,132,306,181
India,Bihar,Chhapra,"Darshan Nagar, Chhapra - BSPCB",21-01-2024 18:00:00,25.7808257,84.7446768,SO2,1,37,20
India,Bihar,Chhapra,"Darshan Nagar, Chhapra - BSPCB",21-01-2024 18:00:00,25.7808257,84.7446768,CO,28,42,34
India,Bihar,Gaya,"Kareemganj, Gaya - BSPCB",21-01-2024 18:00:00,24.792403,84.992416,PM10,133,191,158
India,Bihar,Gaya,"SFTI Kusdihra, Gaya - BSPCB",21-01-2024 18:00:00,24.762518,84.982348,PM10,107,152,129
India,Bihar,Hajipur,"Industrial Area, Hajipur - BSPCB",21-01-2024 18:00:00,25.697189,85.245900,NO2,NA,NA,NA
India,Bihar,Hajipur,"Industrial Area, Hajipur - BSPCB",21-01-2024 18:00:00,25.697189,85.245900,NH3,NA,NA,NA
India,Bihar,Hajipur,"Industrial Area, Hajipur - BSPCB",21-01-2024 18:00:00,25.697189,85.245900,SO2,NA,NA,NA
India,Bihar,Katihar,"Mirchaibari, Katihar - BSPCB",21-01-2024 18:00:00,25.560083,87.553265,PM10,130,420,177
India,Bihar,Katihar,"Mirchaibari, Katihar - BSPCB",21-01-2024 18:00:00,25.560083,87.553265,SO2,16,27,20
India,Bihar,Kishanganj,"SDM Office_Khagra, Kishanganj - BSPCB",21-01-2024 18:00:00,26.0881305,87.93840336,OZONE,12,19,13
India,Bihar,Manguraha,"Forest Rest House, Manguraha - BSPCB",21-01-2024 18:00:00,27.308328,84.531742,NH3,2,2,2
India,Bihar,Motihari,"Gandak Colony, Motihari - BSPCB",21-01-2024 18:00:00,26.63086,84.90051,CO,12,109,54
India,Bihar,Muzaffarpur,"Buddha Colony, Muzaffarpur - BSPCB",21-01-2024 18:00:00,26.11442,85.39813,NO2,21,76,34
India,Bihar,Muzaffarpur,"Muzaffarpur Collectorate, Muzaffarpur - BSPCB",21-01-2024 18:00:00,26.1209,85.3647,OZONE,19,65,39
India,Bihar,Patna,"DRM Office Danapur, Patna - BSPCB",21-01-2024 18:00:00,25.586562,85.043586,PM10,NA,NA,NA
India,Bihar,Patna,"DRM Office Danapur, Patna - BSPCB",21-01-2024 18:00:00,25.586562,85.043586,NO2,11,68,29
India,Bihar,Patna,"DRM Office Danapur, Patna - BSPCB",21-01-2024 18:00:00,25.586562,85.043586,NH3,4,5,4
India,Bihar,Patna,"DRM Office Danapur, Patna - BSPCB",21-01-2024 18:00:00,25.586562,85.043586,CO,38,119,66
India,Bihar,Patna,"Govt. High School Shikarpur, Patna - BSPCB",21-01-2024 18:00:00,25.592539,85.227158,NO2,10,17,15
India,Bihar,Patna,"Govt. High School Shikarpur, Patna - BSPCB",21-01-2024 18:00:00,25.592539,85.227158,NH3,2,5,4
India,Bihar,Patna,"Govt. High School Shikarpur, Patna - BSPCB",21-01-2024 18:00:00,25.592539,85.227158,SO2,1,4,3
India,Bihar,Patna,"IGSC Planetarium Complex, Patna - BSPCB",21-01-2024 18:00:00,25.610369,85.132568,NO2,15,15,15
India,Bihar,Patna,"IGSC Planetarium Complex, Patna - BSPCB",21-01-2024 18:00:00,25.610369,85.132568,CO,23,36,33
India,Bihar,Patna,"Muradpur, Patna - BSPCB",21-01-2024 18:00:00,25.619651,85.147382,NH3,1,2,1
India,Bihar,Patna,"Rajbansi Nagar, Patna - BSPCB",21-01-2024 18:00:00,25.599486,85.113666,NO2,49,74,57
India,Bihar,Patna,"Rajbansi Nagar, Patna - BSPCB",21-01-2024 18:00:00,25.599486,85.113666,NH3,6,7,6
India,Bihar,Patna,"Samanpura, Patna - BSPCB",21-01-2024 18:00:00,25.596727,85.085624,OZONE,25,64,53
India,Bihar,Purnia,"Mariam Nagar, Purnia - BSPCB",21-01-2024 18:00:00,25.366336,87.117468,NO2,12,13,13
India,Bihar,Rajgir,"Dangi Tola, Rajgir - BSPCB",21-01-2024 18:00:00,25.03280,85.41948,PM2.5,250,380,329
India,Bihar,Rajgir,"Dangi Tola, Rajgir - BSPCB",21-01-2024 18:00:00,25.03280,85.41948,PM10,163,220,180
India,Bihar,Rajgir,"Dangi Tola, Rajgir - BSPCB",21-01-2024 18:00:00,25.03280,85.41948,SO2,4,10,6
India,Bihar,Rajgir,"Dangi Tola, Rajgir - BSPCB",21-01-2024 18:00:00,25.03280,85.41948,OZONE,22,30,25
India,Bihar,Saharsa,"Police Line, Saharsa - BSPCB",21-01-2024 18:00:00,25.892357,86.590325,SO2,26,28,27
India,Bihar,Samastipur,"DM Office_Kasipur, Samastipur - BSPCB",21-01-2024 18:00:00,25.859655,85.77944,PM2.5,73,230,147
India,Bihar,Samastipur,"DM Office_Kasipur, Samastipur - BSPCB",21-01-2024 18:00:00,25.859655,85.77944,PM10,87,166,131
India,Bihar,Sasaram,"Dada Peer, Sasaram - BSPCB",21-01-2024 18:00:00,24.952822,84.002396,PM2.5,167,316,241
India,Bihar,Sasaram,"Dada Peer, Sasaram - BSPCB",21-01-2024 18:00:00,24.952822,84.002396,NO2,1,10,5
India,Bihar,Siwan,"Chitragupta Nagar, Siwan - BSPCB",21-01-2024 18:00:00,26.2271665,84.3570427,PM2.5,57,257,98
India,Bihar,Siwan,"Chitragupta Nagar, Siwan - BSPCB",21-01-2024 18:00:00,26.2271665,84.3570427,NH3,1,6,2
India,Bihar,Siwan,"Chitragupta Nagar, Siwan - BSPCB",21-01-2024 18:00:00,26.2271665,84.3570427,OZONE,10,51,38
India,Chandigarh,Chandigarh,"Sector 22, Chandigarh - CPCC",21-01-2024 18:00:00,30.735567,76.775714,PM2.5,117,403,266
India,Chandigarh,Chandigarh,"Sector 22, Chandigarh - CPCC",21-01-2024 18:00:00,30.735567,76.775714,SO2,4,11,6
India,Chandigarh,Chandigarh,"Sector-25, Chandigarh - CPCC",21-01-2024 18:00:00,30.751462,76.762879,NH3,10,20,13
India,Chandigarh,Chandigarh,"Sector-25, Chandigarh - CPCC",21-01-2024 18:00:00,30.751462,76.762879,SO2,8,11,9
India,Chandigarh,Chandigarh,"Sector-53, Chandigarh - CPCC",21-01-2024 18:00:00,30.719859,76.738637,NH3,NA,NA,NA
India,Chandigarh,Chandigarh,"Sector-53, Chandigarh - CPCC",21-01-2024 18:00:00,30.719859,76.738637,CO,68,112,73
India,Chhattisgarh,Bhilai,"32Bungalows, Bhilai - CECB",21-01-2024 18:00:00,21.194815,81.314770,NO2,20,29,24
India,Chhattisgarh,Bhilai,"Civic Center, Bhilai - Bhilai Steel Plant",21-01-2024 18:00:00,21.185571,81.343175,PM2.5,NA,NA,NA
India,Chhattisgarh,Bhilai,"Civic Center, Bhilai - Bhilai Steel Plant",21-01-2024 18:00:00,21.185571,81.343175,NO2,NA,NA,NA
India,Chhattisgarh,Bhilai,"Hathkhoj, Bhilai - CECB",21-01-2024 18:00:00,21.224231,81.408350,NH3,6,8,7
India,Chhattisgarh,Bhilai,"Hathkhoj, Bhilai - CECB",21-01-2024 18:00:00,21.224231,81.408350,CO,21,42,31
India,Chhattisgarh,Bilaspur,"Mangala, Bilaspur - NTPC",21-01-2024 18:00:00,22.08815,82.13737,PM2.5,NA,NA,NA
India,Chhattisgarh,Chhal,"Nawapara SECL Colony, Chhal - CECB",21-01-2024 18:00:00,22.118125,83.140608,PM2.5,50,92,70
India,Chhattisgarh,Chhal,"Nawapara SECL Colony, Chhal - CECB",21-01-2024 18:00:00,22.118125,83.140608,CO,44,111,78
India,Chhattisgarh,Chhal,"Nawapara SECL Colony, Chhal - CECB",21-01-2024 18:00:00,22.118125,83.140608,OZONE,6,66,45
India,Chhattisgarh,Kunjemura,"OP Jindal School, Kunjemura - CECB",21-01-2024 18:00:00,22.126650,83.483212,PM2.5,19,61,32
India,Chhattisgarh,Kunjemura,"OP Jindal School, Kunjemura - CECB",21-01-2024 18:00:00,22.126650,83.483212,PM10,21,86,40
India,Chhattisgarh,Kunjemura,"OP Jindal School, Kunjemura - CECB",21-01-2024 18:00:00,22.126650,83.483212,NH3,1,3,2
India,Chhattisgarh,Kunjemura,"OP Jindal School, Kunjemura - CECB",21-01-2024 18:00:00,22.126650,83.483212,OZONE,6,40,26
India,Chhattisgarh,Milupara,"Govt. Higher Secondary School, Milupara - CECB",21-01-2024 18:00:00,22.1910172,83.5197009,PM10,28,81,43
India,Chhattisgarh,Raipur,"Bhatagaon New ISBT, Raipur - CECB",21-01-2024 18:00:00,21.219665,81.630094,NO2,56,85,69
India,Chhattisgarh,Raipur,"Bhatagaon New ISBT, Raipur - CECB",21-01-2024 18:00:00,21.219665,81.630094,NH3,2,3,2
India,Chhattisgarh,Raipur,"Krishak Nagar, Raipur - CECB",21-01-2024 18:00:00,21.237755,81.705301,CO,41,60,44
India,Chhattisgarh,Raipur,"Siltara Phase-II, Raipur - CECB",21-01-2024 18:00:00,21.371751,81.664929,PM10,44,148,100
India,Chhattisgarh,Raipur,"Siltara Phase-II, Raipur - CECB",21-01-2024 18:00:00,21.371751,81.664929,SO2,3,7,5
India,Chhattisgarh,Tumidih,"OP Jindal Industrial Park, Tumidih - CECB",21-01-2024 18:00:00,22.06631475,83.33820077,PM10,26,73,45
India,Chhattisgarh,Tumidih,"OP Jindal Industrial Park, Tumidih - CECB",21-01-2024 18:00:00,22.06631475,83.33820077,NO2,7,20,11
India,Chhattisgarh,Tumidih,"OP Jindal Industrial Park, Tumidih - CECB",21-01-2024 18:00:00,22.06631475,83.33820077,SO2,5,9,6
India,Chhattisgarh,Tumidih,"OP Jindal Industrial Park, Tumidih - CECB",21-01-2024 18:00:00,22.06631475,83.33820077,CO,24,56,29
India,Delhi,Delhi,"Ashok Vihar, Delhi - DPCC",21-01-2024 18:00:00,28.695381,77.181665,SO2,10,21,16
India,Delhi,Delhi,"Aya Nagar, Delhi - IMD",21-01-2024 18:00:00,28.4706914,77.1099364,NO2,19,35,27
India,Delhi,Delhi,"Bawana, Delhi - DPCC",21-01-2024 18:00:00,28.776200,77.051074,NO2,19,80,35
India,Delhi,Delhi,"Burari Crossing, Delhi - IMD",21-01-2024 18:00:00,28.7256504,77.2011573,PM2.5,87,467,358
India,Delhi,Delhi,"DTU, Delhi - CPCB",21-01-2024 18:00:00,28.7500499,77.1112615,NO2,30,59,40
India,Delhi,Delhi,"Dwarka-Sector 8, Delhi - DPCC ",21-01-2024 18:00:00,28.5710274,77.0719006,NH3,3,7,4
India,Delhi,Delhi,"Dwarka-Sector 8, Delhi - DPCC ",21-01-2024 18:00:00,28.5710274,77.0719006,SO2,5,10,7
India,Delhi,Delhi,"IGI Airport (T3), Delhi - IMD",21-01-2024 18:00:00,28.5627763,77.1180053,CO,40,101,50
India,Delhi,Delhi,"IHBAS, Dilshad Garden, Delhi - CPCB",21-01-2024 18:00:00,28.6811736,77.3025234,OZONE,10,35,22
India,Delhi,Delhi,"ITO, Delhi - CPCB",21-01-2024 18:00:00,28.628624,77.241060,SO2,13,26,21
India,Delhi,Delhi,"Jahangirpuri, Delhi - DPCC",21-01-2024 18:00:00,28.732820,77.170633,OZONE,8,39,11
India,Delhi,Delhi,"Jawaharlal Nehru Stadium, Delhi - DPCC",21-01-2024 18:00:00,28.580280,77.233829,OZONE,1,45,26
India,Delhi,Delhi,"Major Dhyan Chand National Stadium, Delhi - DPCC",21-01-2024 18:00:00,28.611281,77.237738,PM10,152,325,242
India,Delhi,Delhi,"Major Dhyan Chand National Stadium, Delhi - DPCC",21-01-2024 18:00:00,28.611281,77.237738,CO,21,127,55
India,Delhi,Delhi,"Mundka, Delhi - DPCC",21-01-2024 18:00:00,28.684678,77.076574,PM10,137,499,270
India,Delhi,Delhi,"NSIT Dwarka, Delhi - CPCB",21-01-2024 18:00:00,28.60909,77.0325413,PM2.5,182,421,320
India,Delhi,Delhi,"NSIT Dwarka, Delhi - CPCB",21-01-2024 18:00:00,28.60909,77.0325413,NO2,30,57,42
India,Delhi,Delhi,"NSIT Dwarka, Delhi - CPCB",21-01-2024 18:00:00,28.60909,77.0325413,SO2,6,16,13
India,Delhi,Delhi,"Najafgarh, Delhi - DPCC",21-01-2024 18:00:00,28.570173,76.933762,SO2,6,16,12
India,Delhi,Delhi,"Najafgarh, Delhi - DPCC",21-01-2024 18:00:00,28.570173,76.933762,CO,28,120,32
India,Delhi,Delhi,"Narela, Delhi - DPCC",21-01-2024 18:00:00,28.822836,77.101981,PM10,117,428,233
India,Delhi,Delhi,"Nehru Nagar, Delhi - DPCC",21-01-2024 18:00:00,28.567890,77.250515,SO2,5,14,10
India,Delhi,Delhi,"North Campus, DU, Delhi - IMD",21-01-2024 18:00:00,28.6573814,77.1585447,PM2.5,271,436,351
India,Delhi,Delhi,"Okhla Phase-2, Delhi - DPCC",21-01-2024 18:00:00,28.530785,77.271255,PM2.5,311,477,392
India,Delhi,Delhi,"Okhla Phase-2, Delhi - DPCC",21-01-2024 18:00:00,28.530785,77.271255,PM10,175,448,312
India,Delhi,Delhi,"Okhla Phase-2, Delhi - DPCC",21-01-2024 18:00:00,28.530785,77.271255,OZONE,9,66,37
India,Delhi,Delhi,"Patparganj, Delhi - DPCC",21-01-2024 18:00:00,28.623763,77.287209,CO,38,108,54
India,Delhi,Delhi,"Patparganj, Delhi - DPCC",21-01-2024 18:00:00,28.623763,77.287209,OZONE,2,8,3
India,Delhi,Delhi,"Punjabi Bagh, Delhi - DPCC",21-01-2024 18:00:00,28.674045,77.131023,NO2,74,105,84
India,Delhi,Delhi,"Punjabi Bagh, Delhi - DPCC",21-01-2024 18:00:00,28.674045,77.131023,NH3,6,8,7
India,Delhi,Delhi,"Punjabi Bagh, Delhi - DPCC",21-01-2024 18:00:00,28.674045,77.131023,SO2,5,11,8
India,Delhi,Delhi,"Punjabi Bagh, Delhi - DPCC",21-01-2024 18:00:00,28.674045,77.131023,OZONE,8,11,9
India,Delhi,Delhi,"Pusa, Delhi - DPCC",21-01-2024 18:00:00,28.639652,77.146275,SO2,8,13,11
India,Delhi,Delhi,"Pusa, Delhi - IMD",21-01-2024 18:00:00,28.636110,77.173332,PM2.5,195,370,305
India,Delhi,Delhi,"R K Puram, Delhi - DPCC",21-01-2024 18:00:00,28.563262,77.186937,PM2.5,303,433,369
India,Delhi,Delhi,"R K Puram, Delhi - DPCC",21-01-2024 18:00:00,28.563262,77.186937,NO2,34,67,46
India,Delhi,Delhi,"Sirifort, Delhi - CPCB",21-01-2024 18:00:00,28.5504249,77.2159377,PM2.5,267,429,370
India,Delhi,Delhi,"Sonia Vihar, Delhi - DPCC",21-01-2024 18:00:00,28.710508,77.249485,OZONE,27,57,42
India,Delhi,Delhi,"Vivek Vihar, Delhi - DPCC",21-01-2024 18:00:00,28.672342,77.315260,PM10,193,422,296
India,Delhi,Delhi,"Vivek Vihar, Delhi - DPCC",21-01-2024 18:00:00,28.672342,77.315260,OZONE,2,40,10
India,Delhi,Delhi,"Wazirpur, Delhi - DPCC",21-01-2024 18:00:00,28.699793,77.165453,PM10,181,480,327
India,Delhi,Delhi,"Wazirpur, Delhi - DPCC",21-01-2024 18:00:00,28.699793,77.165453,NO2,116,338,181
India,Delhi,Delhi,"Wazirpur, Delhi - DPCC",21-01-2024 18:00:00,28.699793,77.165453,NH3,5,7,6
India,Gujarat,Ahmedabad,"Chandkheda, Ahmedabad - IITM",21-01-2024 18:00:00,23.107969,72.574648,SO2,4,9,5
India,Gujarat,Ahmedabad,"Chandkheda, Ahmedabad - IITM",21-01-2024 18:00:00,23.107969,72.574648,OZONE,21,24,23
India,Gujarat,Ahmedabad,"Gyaspur, Ahmedabad - IITM",21-01-2024 18:00:00,22.977134,72.553024,CO,6,13,12
India,Gujarat,Ahmedabad,"Raikhad, Ahmedabad - IITM",21-01-2024 18:00:00,23.020509,72.579261,CO,12,68,28
India,Gujarat,Ahmedabad,"Rakhial, Ahmedabad - IITM",21-01-2024 18:00:00,23.016834,72.625775,OZONE,1,51,37
India,Gujarat,Ahmedabad,"SAC ISRO Bopal, Ahmedabad - IITM",21-01-2024 18:00:00,23.041137,72.456691,PM2.5,68,156,95
India,Gujarat,Ahmedabad,"SAC ISRO Bopal, Ahmedabad - IITM",21-01-2024 18:00:00,23.041137,72.456691,CO,24,40,39
India,Gujarat,Ahmedabad,"SAC ISRO Satellite, Ahmedabad - IITM",21-01-2024 18:00:00,23.023389,72.515201,PM2.5,97,129,122
India,Gujarat,Ahmedabad,"SAC ISRO Satellite, Ahmedabad - IITM",21-01-2024 18:00:00,23.023389,72.515201,PM10,82,102,99
India,Gujarat,Ahmedabad,"SAC ISRO Satellite, Ahmedabad - IITM",21-01-2024 18:00:00,23.023389,72.515201,NO2,24,27,25
India,Gujarat,Ahmedabad,"SAC ISRO Satellite, Ahmedabad - IITM",21-01-2024 18:00:00,23.023389,72.515201,NH3,2,4,3
India,Gujarat,Ahmedabad,"SVPI Airport Hansol, Ahmedabad - IITM",21-01-2024 18:00:00,23.076793,72.627874,PM2.5,65,145,106
India,Gujarat,Ahmedabad,"SVPI Airport Hansol, Ahmedabad - IITM",21-01-2024 18:00:00,23.076793,72.627874,OZONE,NA,NA,NA
India,Gujarat,Ahmedabad,"Sardar Vallabhbhai Patel Stadium, Ahmedabad - IITM",21-01-2024 18:00:00,23.043070,72.562968,PM2.5,60,117,80
India,Gujarat,Ankleshwar,"GIDC, Ankleshwar - GPCB",21-01-2024 18:00:00,21.613267,73.010555,NO2,33,34,34
India,Gujarat,Gandhinagar,"GIFT City, Gandhinagar - IITM",21-01-2024 18:00:00,23.163798,72.677768,NO2,10,12,10
India,Gujarat,Gandhinagar,"GIFT City, Gandhinagar - IITM",21-01-2024 18:00:00,23.163798,72.677768,OZONE,2,28,24
India,Gujarat,Gandhinagar,"IIPHG Lekawada, Gandhinagar - IITM",21-01-2024 18:00:00,23.243639,72.68994,SO2,5,9,7
India,Gujarat,Surat,"Science Center, Surat - SMC",21-01-2024 18:00:00,21.170046,72.795405,NO2,23,33,29
India,Gujarat,Vapi,"Phase-1 GIDC, Vapi - GPCB",21-01-2024 18:00:00,20.362421,72.918013,PM10,82,410,159
India,Gujarat,Vatva,"Phase-4 GIDC, Vatva - GPCB",21-01-2024 18:00:00,22.969611,72.643500,PM10,45,103,67
India,Haryana,Ambala,"Patti Mehar, Ambala - HSPCB",21-01-2024 18:00:00,30.379589,76.778328,CO,30,60,45
India,Haryana,Bahadurgarh,"Arya Nagar, Bahadurgarh - HSPCB",21-01-2024 18:00:00,28.6701,76.9254,PM2.5,91,335,197
India,Haryana,Bahadurgarh,"Arya Nagar, Bahadurgarh - HSPCB",21-01-2024 18:00:00,28.6701,76.9254,CO,34,58,45
India,Haryana,Ballabgarh,"Nathu Colony, Ballabgarh - HSPCB",21-01-2024 18:00:00,28.3419248,77.319699,PM2.5,209,369,328
India,Haryana,Ballabgarh,"Nathu Colony, Ballabgarh - HSPCB",21-01-2024 18:00:00,28.3419248,77.319699,NO2,12,13,12
India,Haryana,Bhiwani,"H.B. Colony, Bhiwani - HSPCB",21-01-2024 18:00:00,28.806223,76.141105,CO,38,89,52
India,Haryana,Bhiwani,"H.B. Colony, Bhiwani - HSPCB",21-01-2024 18:00:00,28.806223,76.141105,OZONE,10,21,18
India,Haryana,Charkhi Dadri,"Mini Secretariat, Charkhi Dadri - HSPCB",21-01-2024 18:00:00,28.593883,76.270653,PM2.5,63,396,174
India,Haryana,Dharuhera,"Municipal Corporation Office, Dharuhera -  HSPCB",21-01-2024 18:00:00,28.206800,76.799700,OZONE,1,31,15
India,Haryana,Faridabad,"New Industrial Town, Faridabad - HSPCB",21-01-2024 18:00:00,28.39072,77.30059,PM2.5,221,465,354
India,Haryana,Faridabad,"New Industrial Town, Faridabad - HSPCB",21-01-2024 18:00:00,28.39072,77.30059,PM10,162,500,332
India,Haryana,Faridabad,"New Industrial Town, Faridabad - HSPCB",21-01-2024 18:00:00,28.39072,77.30059,NO2,1,11,5
India,Haryana,Faridabad,"Sector 30, Faridabad - HSPCB",21-01-2024 18:00:00,28.4417,77.3217,NO2,30,32,31
India,Haryana,Faridabad,"Sector- 16A, Faridabad - HSPCB",21-01-2024 18:00:00,28.4088421,77.3099081,CO,7,101,43
India,Haryana,Faridabad,"Sector- 16A, Faridabad - HSPCB",21-01-2024 18:00:00,28.4088421,77.3099081,OZONE,14,14,14
India,Haryana,Fatehabad,"Huda Sector, Fatehabad - HSPCB",21-01-2024 18:00:00,29.503664,75.467934,PM2.5,55,315,149
India,Haryana,Fatehabad,"Huda Sector, Fatehabad - HSPCB",21-01-2024 18:00:00,29.503664,75.467934,PM10,55,143,99
India,Haryana,Fatehabad,"Huda Sector, Fatehabad - HSPCB",21-01-2024 18:00:00,29.503664,75.467934,NH3,10,11,10
India,Haryana,Gurugram,"Sector-51, Gurugram - HSPCB",21-01-2024 18:00:00,28.4227,77.0667,SO2,3,5,4
India,Haryana,Gurugram,"Sector-51, Gurugram - HSPCB",21-01-2024 18:00:00,28.4227,77.0667,CO,60,123,69
India,Haryana,Gurugram,"Teri Gram, Gurugram - HSPCB",21-01-2024 18:00:00,28.4275,77.1465,NO2,24,45,35
India,Haryana,Gurugram,"Teri Gram, Gurugram - HSPCB",21-01-2024 18:00:00,28.4275,77.1465,CO,44,70,49
India,Haryana,Gurugram,"Teri Gram, Gurugram - HSPCB",21-01-2024 18:00:00,28.4275,77.1465,OZONE,10,14,11
India,Haryana,Gurugram,"Vikas Sadan, Gurugram - HSPCB",21-01-2024 18:00:00,28.4501238,77.0263051,PM2.5,57,289,148
India,Haryana,Hisar,"Urban Estate-II, Hisar - HSPCB",21-01-2024 18:00:00,29.140560,75.744941,SO2,4,49,27
India,Haryana,Jind,"Police Lines, Jind - HSPCB",21-01-2024 18:00:00,29.307814,76.337619,NO2,5,17,12
India,Haryana,Jind,"Police Lines, Jind - HSPCB",21-01-2024 18:00:00,29.307814,76.337619,NH3,2,5,3
India,Haryana,Kaithal,"Rishi Nagar, Kaithal - HSPCB",21-01-2024 18:00:00,29.8006,76.4155,SO2,10,113,21
India,Haryana,Kaithal,"Rishi Nagar, Kaithal - HSPCB",21-01-2024 18:00:00,29.8006,76.4155,CO,40,73,21
India,Haryana,Karnal,"Sector-12, Karnal - HSPCB",21-01-2024 18:00:00,29.695300,77.002700,NH3,10,13,11
India,Haryana,Kurukshetra,"Sector-7, Kurukshetra - HSPCB",21-01-2024 18:00:00,29.966942,76.875879,PM2.5,115,338,220
India,Haryana,Kurukshetra,"Sector-7, Kurukshetra - HSPCB",21-01-2024 18:00:00,29.966942,76.875879,PM10,107,202,140
India,Haryana,Mandikhera,"General Hospital, Mandikhera - HSPCB",21-01-2024 18:00:00,27.9002,76.9938,PM10,101,254,149
India,Haryana,Mandikhera,"General Hospital, Mandikhera - HSPCB",21-01-2024 18:00:00,27.9002,76.9938,SO2,30,37,34
India,Haryana,Mandikhera,"General Hospital, Mandikhera - HSPCB",21-01-2024 18:00:00,27.9002,76.9938,CO,38,101,66
India,Haryana,Manesar,"Sector-2 IMT, Manesar - HSPCB",21-01-2024 18:00:00,28.360699,76.936090,OZONE,5,17,10
India,Haryana,Narnaul,"Shastri Nagar, Narnaul - HSPCB",21-01-2024 18:00:00,28.060249,76.113115,PM10,74,128,100
India,Haryana,Palwal,"Shyam Nagar, Palwal - HSPCB",21-01-2024 18:00:00,28.1485564,77.3320667,PM2.5,NA,NA,NA
India,Haryana,Palwal,"Shyam Nagar, Palwal - HSPCB",21-01-2024 18:00:00,28.1485564,77.3320667,PM10,NA,NA,NA
India,Haryana,Palwal,"Shyam Nagar, Palwal - HSPCB",21-01-2024 18:00:00,28.1485564,77.3320667,NH3,NA,NA,NA
India,Haryana,Panipat,"Sector-18, Panipat - HSPCB",21-01-2024 18:00:00,29.497973,76.993331,NH3,NA,NA,NA
India,Haryana,Sonipat,"Murthal, Sonipat - HSPCB",21-01-2024 18:00:00,29.027200,77.062100,PM2.5,92,309,180
India,Haryana,Sonipat,"Murthal, Sonipat - HSPCB",21-01-2024 18:00:00,29.027200,77.062100,PM10,164,164,164
India,Haryana,Yamuna Nagar,"Gobind Pura, Yamuna Nagar - HSPCB",21-01-2024 18:00:00,30.1480566,77.2893471,PM2.5,64,281,140
India,Haryana,Yamuna Nagar,"Gobind Pura, Yamuna Nagar - HSPCB",21-01-2024 18:00:00,30.1480566,77.2893471,CO,44,110,104
India,Himachal Pradesh,Baddi,"HIMUDA Complex Phase-1, Baddi - HPPCB",21-01-2024 18:00:00,30.943887,76.801991,PM2.5,55,357,197
India,Himachal Pradesh,Baddi,"HIMUDA Complex Phase-1, Baddi - HPPCB",21-01-2024 18:00:00,30.943887,76.801991,CO,50,102,53
India,Jharkhand,Pathardih,"Mohalbani Ghat, Pathardih - DMC",21-01-2024 18:00:00,23.669880,86.411725,NO2,NA,NA,NA
India,Karnataka,Bengaluru,"BTM Layout, Bengaluru - CPCB",21-01-2024 18:00:00,12.9135218,77.5950804,NO2,39,40,40
India,Karnataka,Bengaluru,"BTM Layout, Bengaluru - CPCB",21-01-2024 18:00:00,12.9135218,77.5950804,OZONE,18,36,23
India,Karnataka,Bengaluru,"Bapuji Nagar, Bengaluru - KSPCB",21-01-2024 18:00:00,12.951913,77.539784,PM10,77,112,96
India,Karnataka,Bengaluru,"City Railway Station, Bengaluru - KSPCB",21-01-2024 18:00:00,12.9756843,77.5660749,SO2,15,16,15
India,Karnataka,Bengaluru,"Hombegowda Nagar, Bengaluru - KSPCB",21-01-2024 18:00:00,12.938539,77.590100,SO2,4,5,4
India,Karnataka,Bengaluru,"Jayanagar 5th Block, Bengaluru - KSPCB",21-01-2024 18:00:00,12.920984,77.584908,PM10,69,227,123
India,Karnataka,Bengaluru,"Jigani, Bengaluru - KSPCB",21-01-2024 18:00:00,12.7816279,77.6299145,NO2,21,22,22
India,Karnataka,Bengaluru,"Jigani, Bengaluru - KSPCB",21-01-2024 18:00:00,12.7816279,77.6299145,OZONE,14,95,75
India,Karnataka,Bengaluru,"Kasturi Nagar, Bengaluru - KSPCB",21-01-2024 18:00:00,13.003872,77.664217,PM10,58,140,113
India,Karnataka,Bengaluru,"Peenya, Bengaluru - CPCB",21-01-2024 18:00:00,13.0270199,77.494094,SO2,10,23,15
India,Karnataka,Bengaluru,"RVCE-Mailasandra, Bengaluru - KSPCB",21-01-2024 18:00:00,12.921418,77.502466,PM2.5,72,142,97
India,Karnataka,Bengaluru,"RVCE-Mailasandra, Bengaluru - KSPCB",21-01-2024 18:00:00,12.921418,77.502466,NO2,31,31,31
India,Karnataka,Bengaluru,"Shivapura_Peenya, Bengaluru - KSPCB",21-01-2024 18:00:00,13.0246342,77.5080115,PM10,54,112,80
India,Karnataka,Bengaluru,"Shivapura_Peenya, Bengaluru - KSPCB",21-01-2024 18:00:00,13.0246342,77.5080115,NH3,4,4,4
India,Karnataka,Bengaluru,"Shivapura_Peenya, Bengaluru - KSPCB",21-01-2024 18:00:00,13.0246342,77.5080115,OZONE,18,271,271
India,Karnataka,Bengaluru,"Silk Board, Bengaluru - KSPCB",21-01-2024 18:00:00,12.917348,77.622813,PM2.5,56,85,67
India,Karnataka,Chamarajanagar,"Urban, Chamarajanagar - KSPCB",21-01-2024 18:00:00,11.55358,76.55521,PM2.5,25,39,31
India,Karnataka,Chamarajanagar,"Urban, Chamarajanagar - KSPCB",21-01-2024 18:00:00,11.55358,76.55521,NO2,23,36,30
India,Karnataka,Chikkaballapur,"Chikkaballapur Rural, Chikkaballapur - KSPCB",21-01-2024 18:00:00,13.428828,77.731418,PM10,53,267,81
India,Karnataka,Chikkaballapur,"Chikkaballapur Rural, Chikkaballapur - KSPCB",21-01-2024 18:00:00,13.428828,77.731418,NO2,7,21,10
India,Karnataka,Chikkaballapur,"Chikkaballapur Rural, Chikkaballapur - KSPCB",21-01-2024 18:00:00,13.428828,77.731418,CO,NA,NA,NA
India,Karnataka,Chikkamagaluru,"Kalyana Nagara, Chikkamagaluru - KSPCB",21-01-2024 18:00:00,13.328028,75.797056,PM10,57,71,69
India,Karnataka,Davanagere,"Devaraj Urs Badavane, Davanagere - KSPCB",21-01-2024 18:00:00,14.475800,75.905200,NO2,10,24,13
India,Karnataka,Davanagere,"Devaraj Urs Badavane, Davanagere - KSPCB",21-01-2024 18:00:00,14.475800,75.905200,SO2,1,6,4
India,Karnataka,Dharwad,"Kalabhavan, Dharwad - KSPCB",21-01-2024 18:00:00,15.459706,75.008381,PM2.5,48,68,61
India,Karnataka,Dharwad,"Kalabhavan, Dharwad - KSPCB",21-01-2024 18:00:00,15.459706,75.008381,NH3,3,3,3
India,Karnataka,Gadag,"Panchal Nagar, Gadag - KSPCB",21-01-2024 18:00:00,15.411456,75.638133,CO,46,57,50
India,Karnataka,Hassan,"B.Katihalli, Hassan - KSPCB",21-01-2024 18:00:00,13.008556,76.125258,SO2,11,18,15
India,Karnataka,Hassan,"B.Katihalli, Hassan - KSPCB",21-01-2024 18:00:00,13.008556,76.125258,CO,10,34,13
India,Karnataka,Haveri,"Ashwini Nagar, Haveri - KSPCB",21-01-2024 18:00:00,14.791800,75.389600,NO2,20,46,32
India,Karnataka,Haveri,"Ashwini Nagar, Haveri - KSPCB",21-01-2024 18:00:00,14.791800,75.389600,CO,32,35,34
India,Karnataka,Hubballi,"Deshpande Nagar, Hubballi - KSPCB",21-01-2024 18:00:00,15.351773,75.140726,PM10,60,119,92
India,Karnataka,Kalaburagi,"Mahatma Basaveswar Colony, Kalaburgi - KSPCB",21-01-2024 18:00:00,17.336318,76.847397,PM2.5,14,42,31
India,Karnataka,Kalaburagi,"Mahatma Basaveswar Colony, Kalaburgi - KSPCB",21-01-2024 18:00:00,17.336318,76.847397,PM10,29,65,48
India,Karnataka,Kalaburagi,"Mahatma Basaveswar Colony, Kalaburgi - KSPCB",21-01-2024 18:00:00,17.336318,76.847397,CO,34,56,39
India,Karnataka,Karwar,"KHB Colony, Karwar - KSPCB",21-01-2024 18:00:00,14.816666,74.141003,PM2.5,48,319,81
India,Karnataka,Karwar,"KHB Colony, Karwar - KSPCB",21-01-2024 18:00:00,14.816666,74.141003,NO2,5,11,6
India,Karnataka,Kolar,"Tamaka Ind. Area, Kolar - KSPCB",21-01-2024 18:00:00,13.1276288,78.1570122,NO2,1,13,6
India,Karnataka,Kolar,"Tamaka Ind. Area, Kolar - KSPCB",21-01-2024 18:00:00,13.1276288,78.1570122,NH3,4,13,7
India,Karnataka,Koppal,"Diwator Nagar, Koppal - KSPCB",21-01-2024 18:00:00,15.347630,76.181767,OZONE,12,53,47
India,Karnataka,Mangalore,"Kadri, Mangalore - KSPCB",21-01-2024 18:00:00,12.889250,74.853000,PM2.5,49,118,75
India,Karnataka,Mangalore,"Kadri, Mangalore - KSPCB",21-01-2024 18:00:00,12.889250,74.853000,NO2,9,11,10
India,Karnataka,Mangalore,"Kadri, Mangalore - KSPCB",21-01-2024 18:00:00,12.889250,74.853000,NH3,3,3,3
India,Karnataka,Mangalore,"Kadri, Mangalore - KSPCB",21-01-2024 18:00:00,12.889250,74.853000,SO2,17,19,19
India,Karnataka,Mysuru,"Hebbal 1st Stage, Mysuru - KSPCB",21-01-2024 18:00:00,12.21041,76.37376,PM10,51,83,64
India,Karnataka,Ramanagara,"Vijay Nagar, Ramanagara - KSPCB",21-01-2024 18:00:00,12.733409,77.298051,PM10,36,59,49
India,Karnataka,Ramanagara,"Vijay Nagar, Ramanagara - KSPCB",21-01-2024 18:00:00,12.733409,77.298051,NH3,1,1,1
India,Karnataka,Shivamogga,"Vinoba Nagara, Shivamogga - KSPCB",21-01-2024 18:00:00,13.940000,75.555917,NH3,4,61,10
India,Karnataka,Shivamogga,"Vinoba Nagara, Shivamogga - KSPCB",21-01-2024 18:00:00,13.940000,75.555917,OZONE,34,62,52
India,Karnataka,Tumakuru,"Thimmalapura, Tumakuru - KSPCB",21-01-2024 18:00:00,13.377516,77.099072,SO2,9,14,10
India,Karnataka,Tumakuru,"Thimmalapura, Tumakuru - KSPCB",21-01-2024 18:00:00,13.377516,77.099072,OZONE,6,70,52
India,Karnataka,Vijayapura,"Ibrahimpur, Vijayapura - KSPCB",21-01-2024 18:00:00,16.802639,75.722694,NO2,17,19,19
India,Karnataka,Yadgir,"Collector Office, Yadgir - KSPCB",21-01-2024 18:00:00,16.7602,77.1428,PM10,43,91,60
India,Kerala,Kannur,"Thavakkara, Kannur - Kerala PCB",21-01-2024 18:00:00,11.875000,75.373200,NH3,1,1,1
India,Kerala,Kannur,"Thavakkara, Kannur - Kerala PCB",21-01-2024 18:00:00,11.875000,75.373200,CO,30,36,33
India,Kerala,Kollam,"Polayathode, Kollam - Kerala PCB",21-01-2024 18:00:00,8.8787,76.6073,PM10,57,87,72
India,Kerala,Thiruvananthapuram,"Kariavattom, Thiruvananthapuram - Kerala PCB",21-01-2024 18:00:00,8.563700,76.886500,PM10,72,82,77
India,Kerala,Thrissur,"Corporation Ground, Thrissur - Kerala PCB",21-01-2024 18:00:00,10.532400,76.215900,OZONE,21,32,30
India,Madhya Pradesh,Bhopal,"Paryavaran Parisar, Bhopal - MPPCB",21-01-2024 18:00:00,23.210494,77.425409,PM2.5,45,327,258
India,Madhya Pradesh,Bhopal,"T T Nagar, Bhopal - MPPCB",21-01-2024 18:00:00,23.233584,77.400574,PM2.5,76,341,277
India,Madhya Pradesh,Bhopal,"T T Nagar, Bhopal - MPPCB",21-01-2024 18:00:00,23.233584,77.400574,NH3,5,7,6
India,Madhya Pradesh,Damoh,"Shrivastav Colony, Damoh - MPPCB",21-01-2024 18:00:00,23.81748678,79.446246,CO,24,25,24
India,Madhya Pradesh,Dewas,"Bhopal Chauraha, Dewas - MPPCB",21-01-2024 18:00:00,22.9682591,76.064118,PM2.5,NA,NA,NA
India,Madhya Pradesh,Dewas,"Bhopal Chauraha, Dewas - MPPCB",21-01-2024 18:00:00,22.9682591,76.064118,PM10,NA,NA,NA
India,Madhya Pradesh,Gwalior,"City Center, Gwalior - MPPCB",21-01-2024 18:00:00,26.203442,78.193251,CO,22,104,36
India,Madhya Pradesh,Gwalior,"Maharaj Bada, Gwalior - MPPCB",21-01-2024 18:00:00,26.200388,78.147714,NH3,4,10,6
India,Madhya Pradesh,Gwalior,"Maharaj Bada, Gwalior - MPPCB",21-01-2024 18:00:00,26.200388,78.147714,SO2,9,23,15
India,Madhya Pradesh,Gwalior,"Maharaj Bada, Gwalior - MPPCB",21-01-2024 18:00:00,26.200388,78.147714,CO,34,120,64
India,Madhya Pradesh,Gwalior,"Phool Bagh, Gwalior - Mondelez Ind. Food",21-01-2024 18:00:00,26.210536,78.171,PM2.5,23,322,155
India,Madhya Pradesh,Gwalior,"Phool Bagh, Gwalior - Mondelez Ind. Food",21-01-2024 18:00:00,26.210536,78.171,CO,32,42,34
India,Madhya Pradesh,Indore,"Chhoti Gwaltoli, Indore - MPPCB",21-01-2024 18:00:00,22.4310,75.5213,NO2,58,100,76
India,Madhya Pradesh,Indore,"Chhoti Gwaltoli, Indore - MPPCB",21-01-2024 18:00:00,22.4310,75.5213,SO2,12,56,23
India,Madhya Pradesh,Indore,"Chhoti Gwaltoli, Indore - MPPCB",21-01-2024 18:00:00,22.4310,75.5213,OZONE,12,104,85
India,Madhya Pradesh,Indore,"Maguda Nagar, Indore - IMC",21-01-2024 18:00:00,22.7524,75.8872,NH3,1,1,1
India,Madhya Pradesh,Indore,"Maguda Nagar, Indore - IMC",21-01-2024 18:00:00,22.7524,75.8872,SO2,20,24,22
India,Madhya Pradesh,Indore,"Maguda Nagar, Indore - IMC",21-01-2024 18:00:00,22.7524,75.8872,CO,21,28,24
India,Madhya Pradesh,Indore,"Regional Park, Indore - IMC",21-01-2024 18:00:00,22.6780,75.8559,NH3,1,2,1
India,Madhya Pradesh,Jabalpur,"Govindh Bhavan Colony, Jabalpur - JMC",21-01-2024 18:00:00,23.163174,79.973061,PM2.5,65,324,253
India,Madhya Pradesh,Jabalpur,"Govindh Bhavan Colony, Jabalpur - JMC",21-01-2024 18:00:00,23.163174,79.973061,NO2,32,49,41
India,Madhya Pradesh,Jabalpur,"Suhagi, Jabalpur - JMC",21-01-2024 18:00:00,23.218135,79.957770,PM10,68,230,168
India,Madhya Pradesh,Jabalpur,"Suhagi, Jabalpur - JMC",21-01-2024 18:00:00,23.218135,79.957770,NO2,37,42,40
India,Madhya Pradesh,Jabalpur,"Suhagi, Jabalpur - JMC",21-01-2024 18:00:00,23.218135,79.957770,NH3,3,4,4
India,Madhya Pradesh,Katni,"Gole Bazar, Katni - MPPCB",21-01-2024 18:00:00,23.50016,80.23284,NO2,27,118,58
India,Madhya Pradesh,Katni,"Gole Bazar, Katni - MPPCB",21-01-2024 18:00:00,23.50016,80.23284,CO,30,106,59
India,Madhya Pradesh,Mandideep,"Sector-D Industrial Area, Mandideep - MPPCB",21-01-2024 18:00:00,23.108440,77.511428,NO2,37,96,74
India,Madhya Pradesh,Mandideep,"Sector-D Industrial Area, Mandideep - MPPCB",21-01-2024 18:00:00,23.108440,77.511428,SO2,51,136,109
India,Madhya Pradesh,Pithampur,"Sector-2 Industrial Area, Pithampur - MPPCB",21-01-2024 18:00:00,22.624758,75.675238,NO2,7,22,13
India,Madhya Pradesh,Pithampur,"Sector-2 Industrial Area, Pithampur - MPPCB",21-01-2024 18:00:00,22.624758,75.675238,CO,45,88,58
India,Madhya Pradesh,Ratlam,"Shasthri Nagar, Ratlam - IPCA Lab",21-01-2024 18:00:00,23.331731,75.045981,NO2,1,82,20
India,Madhya Pradesh,Sagar,"Deen Dayal Nagar, Sagar - MPPCB",21-01-2024 18:00:00,23.8640158,78.80289321,CO,72,82,76
India,Madhya Pradesh,Satna,"Bandhavgar Colony, Satna - Birla Cement",21-01-2024 18:00:00,24.58434363,80.8549414,PM2.5,1,9,4
India,Madhya Pradesh,Singrauli,"Suryakiran Bhawan NCL, Singrauli - MPPCB",21-01-2024 18:00:00,24.108970,82.645580,PM10,183,259,215
India,Madhya Pradesh,Ujjain,"Mahakaleshwar Temple, Ujjain - MPPCB",21-01-2024 18:00:00,23.182719 ,75.768218 ,OZONE,66,72,68
India,Maharashtra,Ahmednagar,"Tarakpur, Ahmednagar - MPCB",21-01-2024 18:00:00,19.10122,74.73339,PM2.5,NA,NA,NA
India,Maharashtra,Ahmednagar,"Tarakpur, Ahmednagar - MPCB",21-01-2024 18:00:00,19.10122,74.73339,NO2,NA,NA,NA
India,Maharashtra,Akola,"Ramdaspeth, Akola - MPCB",21-01-2024 18:00:00,20.719516,77.000253,PM10,77,177,123
India,Maharashtra,Akola,"Ramdaspeth, Akola - MPCB",21-01-2024 18:00:00,20.719516,77.000253,SO2,5,22,10
India,Maharashtra,Aurangabad,"Rachnakar Colony, Aurangabad - MPCB",21-01-2024 18:00:00,19.863756,75.321188,OZONE,14,85,62
India,Maharashtra,Badlapur,"Katrap, Badlapur - MPCB",21-01-2024 18:00:00,19.16485,73.23409,PM10,75,158,110
India,Maharashtra,Badlapur,"Katrap, Badlapur - MPCB",21-01-2024 18:00:00,19.16485,73.23409,SO2,18,58,29
India,Maharashtra,Belapur,"CBD Belapur, Belapur - MPCB",21-01-2024 18:00:00,19.0243902,73.0406721,NO2,15,81,44
India,Maharashtra,Bhiwandi,"Gokul Nagar, Bhiwandi - MPCB",21-01-2024 18:00:00,19.309073,73.057223,PM10,89,205,134
India,Maharashtra,Bhiwandi,"Gokul Nagar, Bhiwandi - MPCB",21-01-2024 18:00:00,19.309073,73.057223,NO2,11,37,20
India,Maharashtra,Bhiwandi,"Gokul Nagar, Bhiwandi - MPCB",21-01-2024 18:00:00,19.309073,73.057223,NH3,2,3,2
India,Maharashtra,Bhiwandi,"Gokul Nagar, Bhiwandi - MPCB",21-01-2024 18:00:00,19.309073,73.057223,SO2,4,19,8
India,Maharashtra,Boisar,"Khaira, Boisar - MPCB",21-01-2024 18:00:00,19.786089,72.757971,PM2.5,52,161,87
India,Maharashtra,Boisar,"Khaira, Boisar - MPCB",21-01-2024 18:00:00,19.786089,72.757971,NH3,7,11,9
India,Maharashtra,Jalgaon,"Prabhat Colony, Jalgaon - MPCB",21-01-2024 18:00:00,21.001264,75.565602,PM2.5,NA,NA,NA
India,Maharashtra,Jalgaon,"Prabhat Colony, Jalgaon - MPCB",21-01-2024 18:00:00,21.001264,75.565602,NH3,NA,NA,NA
India,Maharashtra,Kalyan,"Khadakpada, Kalyan - MPCB",21-01-2024 18:00:00,19.25292,73.142019,PM2.5,30,108,67
India,Maharashtra,Kolhapur,"Shivaji University, Kolhapur - MPCB",21-01-2024 18:00:00,16.6870449,74.2505872,CO,88,111,99
India,Maharashtra,Kolhapur,"Sinchan Bhavan, Kolhapur - MPCB",21-01-2024 18:00:00,16.7143745,74.2426398,PM2.5,75,88,80
India,Maharashtra,Kolhapur,"Sinchan Bhavan, Kolhapur - MPCB",21-01-2024 18:00:00,16.7143745,74.2426398,NO2,10,51,25
India,Maharashtra,Kolhapur,"Sinchan Bhavan, Kolhapur - MPCB",21-01-2024 18:00:00,16.7143745,74.2426398,SO2,1,4,2
India,Maharashtra,Mahad,"Kamble Tarf Birwadi, Mahad - MPCB",21-01-2024 18:00:00,18.1023399,73.4783687,NO2,17,179,34
India,Maharashtra,Malegaon,"Mahesh Nagar, Malegaon - MPCB",21-01-2024 18:00:00,20.555712,74.529236,PM10,51,429,173
India,Maharashtra,Malegaon,"Mahesh Nagar, Malegaon - MPCB",21-01-2024 18:00:00,20.555712,74.529236,NO2,4,51,19
India,Maharashtra,Mira-Bhayandar,"Bhayandar West, Mira-Bhayandar - MPCB",21-01-2024 18:00:00,19.296481,72.840923,NO2,15,66,37
India,Maharashtra,Mumbai,"Bandra Kurla Complex, Mumbai - MPCB",21-01-2024 18:00:00,19.065931,72.862131,PM10,90,203,134
India,Maharashtra,Mumbai,"Bandra Kurla Complex, Mumbai - MPCB",21-01-2024 18:00:00,19.065931,72.862131,CO,29,94,33
India,Maharashtra,Mumbai,"Borivali East, Mumbai - IITM",21-01-2024 18:00:00,19.23241,72.86895,PM2.5,51,124,75
India,Maharashtra,Mumbai,"Borivali East, Mumbai - IITM",21-01-2024 18:00:00,19.23241,72.86895,OZONE,6,84,71
India,Maharashtra,Mumbai,"Borivali East, Mumbai - MPCB",21-01-2024 18:00:00,19.2243333,72.8658113,NO2,6,19,12
India,Maharashtra,Mumbai,"Byculla, Mumbai - BMC",21-01-2024 18:00:00,18.9767,72.8380,PM2.5,70,148,99
India,Maharashtra,Mumbai,"Byculla, Mumbai - BMC",21-01-2024 18:00:00,18.9767,72.8380,PM10,69,116,91
India,Maharashtra,Mumbai,"Chakala-Andheri East, Mumbai - IITM",21-01-2024 18:00:00,19.11074,72.86084,PM10,43,120,80
India,Maharashtra,Mumbai,"Colaba, Mumbai - MPCB",21-01-2024 18:00:00,18.910000,72.820000,PM2.5,42,94,62
India,Maharashtra,Mumbai,"Colaba, Mumbai - MPCB",21-01-2024 18:00:00,18.910000,72.820000,SO2,6,9,7
India,Maharashtra,Mumbai,"Ghatkopar, Mumbai - BMC",21-01-2024 18:00:00,19.083694,72.920967,PM10,95,210,140
India,Maharashtra,Mumbai,"Ghatkopar, Mumbai - BMC",21-01-2024 18:00:00,19.083694,72.920967,NO2,34,57,46
India,Maharashtra,Mumbai,"Ghatkopar, Mumbai - BMC",21-01-2024 18:00:00,19.083694,72.920967,SO2,1,3,1
India,Maharashtra,Mumbai,"Kandivali East, Mumbai - MPCB",21-01-2024 18:00:00,19.205800,72.868200,OZONE,28,31,29
India,Maharashtra,Mumbai,"Kherwadi_Bandra East, Mumbai - MPCB",21-01-2024 18:00:00,19.0632143,72.8456324,SO2,1,36,16
India,Maharashtra,Mumbai,"Kherwadi_Bandra East, Mumbai - MPCB",21-01-2024 18:00:00,19.0632143,72.8456324,OZONE,3,54,41
India,Maharashtra,Mumbai,"Khindipada-Bhandup West, Mumbai - IITM",21-01-2024 18:00:00,19.1653323,72.922099,NO2,2,13,6
India,Maharashtra,Mumbai,"Khindipada-Bhandup West, Mumbai - IITM",21-01-2024 18:00:00,19.1653323,72.922099,SO2,1,27,6
India,Maharashtra,Mumbai,"Kurla, Mumbai - MPCB",21-01-2024 18:00:00,19.0863,72.8888,SO2,32,32,32
India,Maharashtra,Mumbai,"Kurla, Mumbai - MPCB",21-01-2024 18:00:00,19.0863,72.8888,OZONE,29,55,42
India,Maharashtra,Mumbai,"Malad West, Mumbai - IITM",21-01-2024 18:00:00,19.19709,72.82204,OZONE,2,53,38
India,Maharashtra,Mumbai,"Mazgaon, Mumbai - IITM",21-01-2024 18:00:00,18.96702,72.84214,PM10,112,137,124
India,Maharashtra,Mumbai,"Mazgaon, Mumbai - IITM",21-01-2024 18:00:00,18.96702,72.84214,OZONE,34,150,119
India,Maharashtra,Mumbai,"Mindspace-Malad West, Mumbai - MPCB",21-01-2024 18:00:00,19.1878657,72.8304069,SO2,2,11,6
India,Maharashtra,Mumbai,"Mindspace-Malad West, Mumbai - MPCB",21-01-2024 18:00:00,19.1878657,72.8304069,CO,22,77,35
India,Maharashtra,Mumbai,"Mindspace-Malad West, Mumbai - MPCB",21-01-2024 18:00:00,19.1878657,72.8304069,OZONE,2,82,51
India,Maharashtra,Mumbai,"Mulund West, Mumbai - MPCB",21-01-2024 18:00:00,19.1750,72.9419,NO2,23,25,24
India,Maharashtra,Mumbai,"Mulund West, Mumbai - MPCB",21-01-2024 18:00:00,19.1750,72.9419,NH3,9,10,10
India,Maharashtra,Mumbai,"Mulund West, Mumbai - MPCB",21-01-2024 18:00:00,19.1750,72.9419,OZONE,8,8,8
India,Maharashtra,Mumbai,"Navy Nagar-Colaba, Mumbai - IITM",21-01-2024 18:00:00,18.897756,72.813320,PM2.5,52,90,64
India,Maharashtra,Mumbai,"Sewri, Mumbai - BMC",21-01-2024 18:00:00,19.000084,72.856730,PM2.5,75,234,115
India,Maharashtra,Mumbai,"Shivaji Nagar, Mumbai - BMC",21-01-2024 18:00:00,19.060498,72.923356,PM2.5,72,196,103
India,Maharashtra,Mumbai,"Sion, Mumbai - MPCB",21-01-2024 18:00:00,19.047000,72.874600,PM2.5,45,110,62
India,Maharashtra,Mumbai,"Sion, Mumbai - MPCB",21-01-2024 18:00:00,19.047000,72.874600,NO2,31,86,53
India,Maharashtra,Mumbai,"Vasai West, Mumbai - MPCB",21-01-2024 18:00:00,19.383200,72.820400,PM10,42,97,65
India,Maharashtra,Mumbai,"Vasai West, Mumbai - MPCB",21-01-2024 18:00:00,19.383200,72.820400,NH3,4,4,4
India,Maharashtra,Mumbai,"Vasai West, Mumbai - MPCB",21-01-2024 18:00:00,19.383200,72.820400,CO,12,28,17
India,Maharashtra,Mumbai,"Vile Parle West, Mumbai - MPCB",21-01-2024 18:00:00,19.10861,72.83622,PM10,58,100,77
India,Maharashtra,Mumbai,"Worli, Mumbai - MPCB",21-01-2024 18:00:00,18.9936162,72.8128113,NO2,18,20,19
India,Maharashtra,Nagpur,"Ambazari, Nagpur - MPCB",21-01-2024 18:00:00,21.121801,79.04952,CO,20,140,42
India,Maharashtra,Nagpur,"Ambazari, Nagpur - MPCB",21-01-2024 18:00:00,21.121801,79.04952,OZONE,3,168,106
India,Maharashtra,Nanded,"Sneh Nagar, Nanded - MPCB",21-01-2024 18:00:00,19.173852,77.296291,NH3,1,2,2
India,Maharashtra,Nashik,"Hirawadi, Nashik - MPCB",21-01-2024 18:00:00,20.021503,73.813844,NO2,7,71,27
India,Maharashtra,Nashik,"Hirawadi, Nashik - MPCB",21-01-2024 18:00:00,20.021503,73.813844,NH3,1,2,1
India,Maharashtra,Nashik,"Hirawadi, Nashik - MPCB",21-01-2024 18:00:00,20.021503,73.813844,SO2,5,7,6
India,Maharashtra,Nashik,"Pandav Nagari, Nashik - MPCB",21-01-2024 18:00:00,19.9591346,73.7788008,NO2,26,63,37
India,Maharashtra,Nashik,"Pandav Nagari, Nashik - MPCB",21-01-2024 18:00:00,19.9591346,73.7788008,CO,30,57,33
India,Maharashtra,Navi Mumbai,"Kopripada-Vashi, Navi Mumbai - MPCB",21-01-2024 18:00:00,19.090337,73.014232,PM10,NA,NA,NA
India,Maharashtra,Navi Mumbai,"Mahape, Navi Mumbai - MPCB",21-01-2024 18:00:00,19.1135051,73.008978,SO2,26,26,26
India,Maharashtra,Navi Mumbai,"Mahape, Navi Mumbai - MPCB",21-01-2024 18:00:00,19.1135051,73.008978,CO,26,56,32
India,Maharashtra,Navi Mumbai,"Mahape, Navi Mumbai - MPCB",21-01-2024 18:00:00,19.1135051,73.008978,OZONE,17,33,21
India,Maharashtra,Navi Mumbai,"Nerul, Navi Mumbai - MPCB",21-01-2024 18:00:00,19.008751,73.016620,PM10,74,136,102
India,Maharashtra,Navi Mumbai,"Nerul, Navi Mumbai - MPCB",21-01-2024 18:00:00,19.008751,73.016620,NO2,23,35,29
India,Maharashtra,Navi Mumbai,"Sanpada, Navi Mumbai - MPCB",21-01-2024 18:00:00,19.0575752,73.0151367,NO2,5,16,9
India,Maharashtra,Navi Mumbai,"Sanpada, Navi Mumbai - MPCB",21-01-2024 18:00:00,19.0575752,73.0151367,NH3,10,24,14
India,Maharashtra,Navi Mumbai,"Sector-19A Nerul, Navi Mumbai - IITM",21-01-2024 18:00:00,19.044,73.0325,CO,31,110,43
India,Maharashtra,Parbhani,"Masoom Colony, Parbhani - MPCB",21-01-2024 18:00:00,19.265594,76.761463,PM10,93,133,113
India,Maharashtra,Parbhani,"Masoom Colony, Parbhani - MPCB",21-01-2024 18:00:00,19.265594,76.761463,OZONE,47,110,99
India,Maharashtra,Pimpri-Chinchwad,"Gavalinagar, Pimpri Chinchwad - MPCB",21-01-2024 18:00:00,18.63673,73.82487,NO2,20,137,62
India,Maharashtra,Pimpri-Chinchwad,"Gavalinagar, Pimpri Chinchwad - MPCB",21-01-2024 18:00:00,18.63673,73.82487,SO2,4,17,9
India,Maharashtra,Pimpri-Chinchwad,"Gavalinagar, Pimpri Chinchwad - MPCB",21-01-2024 18:00:00,18.63673,73.82487,OZONE,1,180,180
India,Maharashtra,Pimpri-Chinchwad,"Thergaon, Pimpri Chinchwad - MPCB",21-01-2024 18:00:00,18.616318,73.765797,PM10,108,191,136
India,Maharashtra,Pimpri-Chinchwad,"Thergaon, Pimpri Chinchwad - MPCB",21-01-2024 18:00:00,18.616318,73.765797,CO,29,84,37
India,Maharashtra,Pune,"Alandi, Pune - IITM",21-01-2024 18:00:00,18.675076,73.892743,CO,25,70,33
India,Maharashtra,Pune,"Bhosari, Pune - IITM",21-01-2024 18:00:00,18.640051,73.848956,PM10,73,194,131
India,Maharashtra,Pune,"Bhosari, Pune - IITM",21-01-2024 18:00:00,18.640051,73.848956,CO,25,60,36
India,Maharashtra,Pune,"Katraj Dairy, Pune - MPCB",21-01-2024 18:00:00,18.454450,73.854155,PM2.5,41,108,74
India,Maharashtra,Pune,"Katraj Dairy, Pune - MPCB",21-01-2024 18:00:00,18.454450,73.854155,OZONE,1,43,30
India,Maharashtra,Pune,"Revenue Colony-Shivajinagar, Pune - IITM",21-01-2024 18:00:00,18.530085,73.849598,SO2,89,133,117
India,Maharashtra,Pune,"Savitribai Phule Pune University, Pune - MPCB",21-01-2024 18:00:00,18.547056,73.826908,SO2,2,6,4
India,Maharashtra,Pune,"Savitribai Phule Pune University, Pune - MPCB",21-01-2024 18:00:00,18.547056,73.826908,CO,18,64,20
India,Maharashtra,Sangli,"Vijay Nagar, Sangli - MPCB",21-01-2024 18:00:00, 16.5038,74.3623,NH3,1,4,2
India,Maharashtra,Sangli,"Vijay Nagar, Sangli - MPCB",21-01-2024 18:00:00, 16.5038,74.3623,CO,14,72,23
India,Maharashtra,Solapur,"Ratandeep Housing Society, Solapur - MPCB",21-01-2024 18:00:00,17.65439,75.90649,CO,14,173,22
India,Maharashtra,Thane,"Kasarvadavali, Thane - MPCB",21-01-2024 18:00:00,19.26777,72.97182,PM10,93,189,149
India,Maharashtra,Thane,"Kasarvadavali, Thane - MPCB",21-01-2024 18:00:00,19.26777,72.97182,NO2,19,58,37
India,Maharashtra,Thane,"Kasarvadavali, Thane - MPCB",21-01-2024 18:00:00,19.26777,72.97182,SO2,7,35,17
India,Maharashtra,Thane,"Upvan Fort, Thane - MPCB",21-01-2024 18:00:00,19.222279,72.957979,SO2,16,55,29
India,Maharashtra,Ulhasnagar,"Sidhi Vinayak Nagar, Ulhasnagar - MPCB",21-01-2024 18:00:00,19.235581,73.159121,CO,22,70,32
India,Maharashtra,Ulhasnagar,"Sidhi Vinayak Nagar, Ulhasnagar - MPCB",21-01-2024 18:00:00,19.235581,73.159121,OZONE,10,130,86
India,Maharashtra,Virar,"Bolinj, Virar - MPCB",21-01-2024 18:00:00,19.4458210,72.7988231,NO2,15,43,26
India,Manipur,Imphal,"Manipur University, Imphal - Manipur PCB",21-01-2024 18:00:00,24.7524239,93.9286218,CO,8,103,15
India,Meghalaya,Shillong,"JN Stadium, Shillong - Meghalaya PCB",21-01-2024 18:00:00,25.5803419,91.8942571,NO2,11,63,29
India,Meghalaya,Shillong,"Lumpyngngad, Shillong - Meghalaya PCB",21-01-2024 18:00:00,25.5586,91.8985,PM2.5,33,225,86
India,Meghalaya,Shillong,"Lumpyngngad, Shillong - Meghalaya PCB",21-01-2024 18:00:00,25.5586,91.8985,NH3,1,1,1
India,Meghalaya,Shillong,"Lumpyngngad, Shillong - Meghalaya PCB",21-01-2024 18:00:00,25.5586,91.8985,SO2,15,19,16
India,Meghalaya,Shillong,"Lumpyngngad, Shillong - Meghalaya PCB",21-01-2024 18:00:00,25.5586,91.8985,OZONE,64,93,87
India,Mizoram,Aizawl,"Sikulpuikawn, Aizawl - Mizoram PCB",21-01-2024 18:00:00,23.7176342,92.7192841,PM10,22,76,44
India,Mizoram,Aizawl,"Sikulpuikawn, Aizawl - Mizoram PCB",21-01-2024 18:00:00,23.7176342,92.7192841,NH3,NA,NA,NA
India,Mizoram,Aizawl,"Sikulpuikawn, Aizawl - Mizoram PCB",21-01-2024 18:00:00,23.7176342,92.7192841,SO2,2,2,2
India,Mizoram,Aizawl,"Sikulpuikawn, Aizawl - Mizoram PCB",21-01-2024 18:00:00,23.7176342,92.7192841,OZONE,9,23,15
India,Nagaland,Kohima,"PWD Juction, Kohima - NPCB",21-01-2024 18:00:00,25.6635413,94.0989878,PM10,46,119,69
India,Nagaland,Kohima,"PWD Juction, Kohima - NPCB",21-01-2024 18:00:00,25.6635413,94.0989878,NO2,3,4,3
India,Odisha,Angul,"Hakimapada, Angul - OSPCB",21-01-2024 18:00:00,20.832874,85.104082,NH3,3,6,4
India,Odisha,Angul,"Hakimapada, Angul - OSPCB",21-01-2024 18:00:00,20.832874,85.104082,SO2,13,119,60
India,Odisha,Angul,"Hakimapada, Angul - OSPCB",21-01-2024 18:00:00,20.832874,85.104082,OZONE,22,81,51
India,Odisha,Balasore,"Kalidaspur, Balasore - OSPCB",21-01-2024 18:00:00,21.51161,86.89088,SO2,17,27,21
India,Odisha,Barbil,"Forest Office, Barbil - OSPCB",21-01-2024 18:00:00,22.1166054,85.3945546,NO2,15,32,22
India,Odisha,Baripada,"Meher Colony, Baripada - OSPCB",21-01-2024 18:00:00,21.941841,86.728318,PM10,136,193,161
India,Odisha,Baripada,"Meher Colony, Baripada - OSPCB",21-01-2024 18:00:00,21.941841,86.728318,NH3,4,4,4
India,Odisha,Bhubaneswar,"Lingraj Mandir, Bhubaneswar - OSPCB",21-01-2024 18:00:00,20.240790,85.836784,PM2.5,270,323,301
India,Odisha,Bhubaneswar,"Lingraj Mandir, Bhubaneswar - OSPCB",21-01-2024 18:00:00,20.240790,85.836784,NO2,22,45,30
India,Odisha,Bhubaneswar,"Lingraj Mandir, Bhubaneswar - OSPCB",21-01-2024 18:00:00,20.240790,85.836784,NH3,2,4,3
India,Odisha,Bhubaneswar,"Lingraj Mandir, Bhubaneswar - OSPCB",21-01-2024 18:00:00,20.240790,85.836784,SO2,6,15,10
India,Odisha,Bhubaneswar,"Patia, Bhubaneswar - OSPCB",21-01-2024 18:00:00,20.34652,85.81630,OZONE,59,107,98
India,Odisha,Bileipada,"Tata Township, Bileipada - OSPCB",21-01-2024 18:00:00,22.06156703,85.47409613,PM2.5,137,302,227
India,Odisha,Brajrajnagar,"GM Office, Brajrajnagar - OSPCB",21-01-2024 18:00:00,21.8004996,83.8396977,NH3,2,5,3
India,Odisha,Brajrajnagar,"GM Office, Brajrajnagar - OSPCB",21-01-2024 18:00:00,21.8004996,83.8396977,CO,52,89,60
India,Odisha,Byasanagar,"Ferro Chrome Colony, Byasanagar - OSPCB",21-01-2024 18:00:00,20.94185,86.11510,NO2,18,33,22
India,Odisha,Byasanagar,"Ferro Chrome Colony, Byasanagar - OSPCB",21-01-2024 18:00:00,20.94185,86.11510,OZONE,33,91,76
India,Odisha,Cuttack,"CDA Area, Cuttack - OSPCB",21-01-2024 18:00:00,20.48891     ,85.84768     ,PM2.5,257,332,315
India,Odisha,Cuttack,"CDA Area, Cuttack - OSPCB",21-01-2024 18:00:00,20.48891     ,85.84768     ,PM10,123,181,154
India,Odisha,Cuttack,"CDA Area, Cuttack - OSPCB",21-01-2024 18:00:00,20.48891     ,85.84768     ,CO,52,68,58
India,Odisha,Keonjhar,"Jagamohanpur, Keonjhar - OSPCB",21-01-2024 18:00:00,21.643900,85.599355,SO2,10,11,10
India,Odisha,Nayagarh,"Dabuna, Nayagarh - OSPCB",21-01-2024 18:00:00,21.847279,85.416905,SO2,2,4,3
India,Odisha,Rairangpur,"Divisional Forest Office, Rairangpur - OSPCB",21-01-2024 18:00:00,22.265816,86.174829,PM2.5,129,182,157
India,Odisha,Rourkela,"Fertilizer Township, Rourkela - OSPCB",21-01-2024 18:00:00,22.18972222,84.86277778,PM2.5,125,321,228
India,Odisha,Rourkela,"Fertilizer Township, Rourkela - OSPCB",21-01-2024 18:00:00,22.18972222,84.86277778,NO2,11,60,18
India,Odisha,Suakati,"OMC Colony, Suakati - OSPCB",21-01-2024 18:00:00,21.606865,85.510538,PM2.5,82,174,124
India,Odisha,Suakati,"OMC Colony, Suakati - OSPCB",21-01-2024 18:00:00,21.606865,85.510538,PM10,76,141,108
India,Odisha,Suakati,"OMC Colony, Suakati - OSPCB",21-01-2024 18:00:00,21.606865,85.510538,NO2,NA,NA,NA
India,Odisha,Suakati,"OMC Colony, Suakati - OSPCB",21-01-2024 18:00:00,21.606865,85.510538,CO,26,48,40
India,Odisha,Talcher,"Talcher Coalfields,Talcher - OSPCB",21-01-2024 18:00:00,20.9360711,85.1707021,PM2.5,52,330,147
India,Punjab,Amritsar,"Golden Temple, Amritsar - PPCB",21-01-2024 18:00:00,31.620000,74.876512,NH3,5,27,6
India,Punjab,Amritsar,"Golden Temple, Amritsar - PPCB",21-01-2024 18:00:00,31.620000,74.876512,OZONE,24,31,27
India,Punjab,Bathinda,"Hardev Nagar, Bathinda - PPCB",21-01-2024 18:00:00,30.233011,74.907758,PM2.5,35,103,66
India,Punjab,Bathinda,"Hardev Nagar, Bathinda - PPCB",21-01-2024 18:00:00,30.233011,74.907758,SO2,2,129,41
India,Punjab,Jalandhar,"Civil Line, Jalandhar - PPCB",21-01-2024 18:00:00,31.321907,75.578914,OZONE,11,17,13
India,Punjab,Khanna,"Kalal Majra, Khanna - PPCB",21-01-2024 18:00:00,30.736056 ,76.209694,NO2,29,34,33
India,Punjab,Khanna,"Kalal Majra, Khanna - PPCB",21-01-2024 18:00:00,30.736056 ,76.209694,NH3,15,16,16
India,Punjab,Khanna,"Kalal Majra, Khanna - PPCB",21-01-2024 18:00:00,30.736056 ,76.209694,CO,12,22,14
India,Punjab,Ludhiana,"Punjab Agricultural University, Ludhiana - PPCB",21-01-2024 18:00:00,30.9028,75.8086,NH3,8,9,8
India,Punjab,Mandi Gobindgarh,"RIMT University, Mandi Gobindgarh - PPCB",21-01-2024 18:00:00,30.649961,76.331442,NO2,30,32,31
India,Punjab,Patiala,"Model Town, Patiala - PPCB",21-01-2024 18:00:00,30.349388,76.366642,PM2.5,88,308,182
India,Rajasthan,Ajmer,"Civil Lines,  Ajmer - RSPCB",21-01-2024 18:00:00,26.470859,74.646594,NH3,26,46,33
India,Rajasthan,Ajmer,"Civil Lines,  Ajmer - RSPCB",21-01-2024 18:00:00,26.470859,74.646594,SO2,10,24,15
India,Rajasthan,Ajmer,"Civil Lines,  Ajmer - RSPCB",21-01-2024 18:00:00,26.470859,74.646594,OZONE,2,66,41
India,Rajasthan,Alwar,"Moti Doongri, Alwar - RSPCB",21-01-2024 18:00:00,27.554793,76.611536,NH3,4,8,6
India,Rajasthan,Alwar,"Moti Doongri, Alwar - RSPCB",21-01-2024 18:00:00,27.554793,76.611536,CO,38,111,68
India,Rajasthan,Banswara,"Rati Talai, Banswara - RSPCB",21-01-2024 18:00:00,23.555190,74.440010,NO2,10,29,17
India,Rajasthan,Banswara,"Rati Talai, Banswara - RSPCB",21-01-2024 18:00:00,23.555190,74.440010,CO,39,88,46
India,Rajasthan,Barmer,"Railway Colony, Barmer - RSPCB",21-01-2024 18:00:00,25.747299,71.393989,CO,5,93,18
India,Rajasthan,Bhilwara,"Pratap Nagar, Bhilwara - RSPCB",21-01-2024 18:00:00,25.339605,74.618883,NH3,3,9,5
India,Rajasthan,Bhiwadi,"RIICO Ind. Area III, Bhiwadi - RSPCB",21-01-2024 18:00:00,28.194909,76.862296,PM2.5,96,448,298
India,Rajasthan,Bhiwadi,"RIICO Ind. Area III, Bhiwadi - RSPCB",21-01-2024 18:00:00,28.194909,76.862296,OZONE,6,10,6
India,Rajasthan,Churu,"Subash Chowk, Churu - RSPCB",21-01-2024 18:00:00,28.296139,74.961696,SO2,6,17,10
India,Rajasthan,Dausa,"Khatikan Mohalla, Dausa - RSPCB",21-01-2024 18:00:00,26.895552,76.334753,NH3,9,35,13
India,Rajasthan,Dausa,"Khatikan Mohalla, Dausa - RSPCB",21-01-2024 18:00:00,26.895552,76.334753,SO2,6,8,7
India,Rajasthan,Dholpur,"Raja Ganj, Dholpur - RSPCB",21-01-2024 18:00:00,26.699557,77.898881,PM2.5,95,400,260
India,Rajasthan,Dholpur,"Raja Ganj, Dholpur - RSPCB",21-01-2024 18:00:00,26.699557,77.898881,NH3,8,14,11
India,Rajasthan,Dholpur,"Raja Ganj, Dholpur - RSPCB",21-01-2024 18:00:00,26.699557,77.898881,CO,37,98,55
India,Rajasthan,Dholpur,"Raja Ganj, Dholpur - RSPCB",21-01-2024 18:00:00,26.699557,77.898881,OZONE,1,125,64
India,Rajasthan,Dungarpur,"Bhoiwada, Dungarpur - RSPCB",21-01-2024 18:00:00,23.837789,73.714926,PM10,51,206,117
India,Rajasthan,Dungarpur,"Bhoiwada, Dungarpur - RSPCB",21-01-2024 18:00:00,23.837789,73.714926,SO2,3,18,6
India,Rajasthan,Dungarpur,"Bhoiwada, Dungarpur - RSPCB",21-01-2024 18:00:00,23.837789,73.714926,CO,28,77,34
India,Rajasthan,Dungarpur,"Bhoiwada, Dungarpur - RSPCB",21-01-2024 18:00:00,23.837789,73.714926,OZONE,14,60,47
India,Rajasthan,Hanumangarh,"Housing Board, Hanumangarh - RSPCB",21-01-2024 18:00:00,29.610750,74.283608,SO2,3,6,4
India,Rajasthan,Jaipur,"Adarsh Nagar, Jaipur - RSPCB",21-01-2024 18:00:00,26.902909,75.836858,PM2.5,73,327,211
India,Rajasthan,Jaipur,"Adarsh Nagar, Jaipur - RSPCB",21-01-2024 18:00:00,26.902909,75.836858,PM10,92,231,136
India,Rajasthan,Jaipur,"Mansarovar Sector-12, Jaipur - RSPCB",21-01-2024 18:00:00,26.843698,75.766894,PM2.5,32,382,230
India,Rajasthan,Jaipur,"Mansarovar Sector-12, Jaipur - RSPCB",21-01-2024 18:00:00,26.843698,75.766894,NH3,5,13,8
India,Rajasthan,Jaipur,"Police Commissionerate, Jaipur - RSPCB",21-01-2024 18:00:00,26.9164092,75.7994901,SO2,NA,NA,NA
India,Rajasthan,Jaipur,"Police Commissionerate, Jaipur - RSPCB",21-01-2024 18:00:00,26.9164092,75.7994901,CO,40,102,73
India,Rajasthan,Jaipur,"RIICO Sitapura, Jaipur - RSPCB",21-01-2024 18:00:00,26.786682,75.827928,NH3,3,13,6
India,Rajasthan,Jaipur,"Sector-2 Murlipura, Jaipur - RSPCB",21-01-2024 18:00:00,26.960669,75.771817,PM2.5,52,399,273
India,Rajasthan,Jaipur,"Sector-2 Murlipura, Jaipur - RSPCB",21-01-2024 18:00:00,26.960669,75.771817,SO2,5,58,13
India,Rajasthan,Jaipur,"Shastri Nagar, Jaipur - RSPCB",21-01-2024 18:00:00,26.9502929,75.730943,PM2.5,80,342,224
India,Rajasthan,Jaisalmer,"Sadar Bazar, Jaisalmer - RSPCB",21-01-2024 18:00:00,26.912329,70.909168,PM2.5,94,335,232
India,Rajasthan,Jaisalmer,"Sadar Bazar, Jaisalmer - RSPCB",21-01-2024 18:00:00,26.912329,70.909168,SO2,5,9,6
India,Rajasthan,Jaisalmer,"Sadar Bazar, Jaisalmer - RSPCB",21-01-2024 18:00:00,26.912329,70.909168,CO,50,70,56
India,Rajasthan,Jhalawar,"Rajlaxmi Nagar, Jhalawar - RSPCB",21-01-2024 18:00:00,24.588397,76.172782,PM10,49,150,98
India,Rajasthan,Jhunjhunu,"Indra Nagar, Jhunjhunu - RSPCB",21-01-2024 18:00:00,28.108988,75.386577,PM2.5,51,329,186
India,Rajasthan,Jhunjhunu,"Indra Nagar, Jhunjhunu - RSPCB",21-01-2024 18:00:00,28.108988,75.386577,PM10,91,231,156
India,Rajasthan,Jhunjhunu,"Indra Nagar, Jhunjhunu - RSPCB",21-01-2024 18:00:00,28.108988,75.386577,NO2,24,57,36
India,Rajasthan,Jodhpur,"Collectorate, Jodhpur - RSPCB",21-01-2024 18:00:00,26.268249,73.0193853,CO,24,94,61
India,Rajasthan,Jodhpur,"Collectorate, Jodhpur - RSPCB",21-01-2024 18:00:00,26.268249,73.0193853,OZONE,34,138,106
India,Rajasthan,Jodhpur,"Digari Kalan, Jodhpur - RSPCB",21-01-2024 18:00:00,26.295810,73.082283,NO2,16,92,44
India,Rajasthan,Jodhpur,"Jhalamand, Jodhpur - RSPCB",21-01-2024 18:00:00,26.215415,73.070156,PM2.5,17,309,108
India,Rajasthan,Jodhpur,"Jhalamand, Jodhpur - RSPCB",21-01-2024 18:00:00,26.215415,73.070156,NO2,15,107,51
India,Rajasthan,Jodhpur,"Jhalamand, Jodhpur - RSPCB",21-01-2024 18:00:00,26.215415,73.070156,NH3,4,12,8
India,Rajasthan,Jodhpur,"Mandor, Jodhpur - RSPCB",21-01-2024 18:00:00,26.358805,73.047444,OZONE,5,117,84
India,Rajasthan,Jodhpur,"Samrat Ashok Udhyan, Jodhpur - RSPCB",21-01-2024 18:00:00,26.253384,72.976571,SO2,4,17,9
India,Rajasthan,Jodhpur,"Samrat Ashok Udhyan, Jodhpur - RSPCB",21-01-2024 18:00:00,26.253384,72.976571,OZONE,18,193,134
India,Rajasthan,Karauli,"Satyawati Vihar, Karauli - RSPCB",21-01-2024 18:00:00,26.506177,77.025989,PM2.5,67,351,215
India,Rajasthan,Kota,"Dhanmandi, Kota - RSPCB",21-01-2024 18:00:00,25.164090,75.858137,PM2.5,97,444,270
India,Rajasthan,Kota,"Dhanmandi, Kota - RSPCB",21-01-2024 18:00:00,25.164090,75.858137,SO2,3,13,6
India,Rajasthan,Kota,"Nayapura, Kota - RSPCB",21-01-2024 18:00:00,25.196024,75.855668,CO,8,188,15
India,Rajasthan,Kota,"Shrinath Puram, Kota - RSPCB",21-01-2024 18:00:00,25.14389,75.821256,NH3,4,12,7
India,Rajasthan,Kota,"Shrinath Puram, Kota - RSPCB",21-01-2024 18:00:00,25.14389,75.821256,SO2,6,108,16
India,Rajasthan,Kota,"Shrinath Puram, Kota - RSPCB",21-01-2024 18:00:00,25.14389,75.821256,CO,12,45,27
India,Rajasthan,Nagaur,"Karni Colony, Nagaur - RSPCB",21-01-2024 18:00:00,27.213494,73.734444,PM2.5,43,329,180
India,Rajasthan,Pratapgarh,"Pragati Nagar, Pratapgarh - RSPCB",21-01-2024 18:00:00,24.041198,74.780702,PM2.5,35,261,138
India,Rajasthan,Pratapgarh,"Pragati Nagar, Pratapgarh - RSPCB",21-01-2024 18:00:00,24.041198,74.780702,NO2,15,50,23
India,Rajasthan,Rajsamand,"Dhoinda, Rajsamand - RSPCB",21-01-2024 18:00:00,25.036360,73.883502,PM10,37,143,93
India,Rajasthan,Rajsamand,"Dhoinda, Rajsamand - RSPCB",21-01-2024 18:00:00,25.036360,73.883502,NO2,11,43,24
India,Rajasthan,Rajsamand,"Dhoinda, Rajsamand - RSPCB",21-01-2024 18:00:00,25.036360,73.883502,CO,22,56,37
India,Rajasthan,Sawai Madhopur,"Sahu Nagar, Sawai Madhopur - RSPCB",21-01-2024 18:00:00,26.031443,76.359327,NH3,3,3,3
India,Rajasthan,Sawai Madhopur,"Sahu Nagar, Sawai Madhopur - RSPCB",21-01-2024 18:00:00,26.031443,76.359327,SO2,6,21,10
India,Rajasthan,Sawai Madhopur,"Sahu Nagar, Sawai Madhopur - RSPCB",21-01-2024 18:00:00,26.031443,76.359327,CO,20,87,34
India,Rajasthan,Sikar,"Radhakishan Pura, Sikar - RSPCB",21-01-2024 18:00:00,27.608912,75.153302,CO,24,99,39
India,Rajasthan,Sirohi,"Vedhaynath Colony, Sirohi - RSPCB",21-01-2024 18:00:00,24.885261,72.857549,SO2,4,10,6
India,Rajasthan,Sirohi,"Vedhaynath Colony, Sirohi - RSPCB",21-01-2024 18:00:00,24.885261,72.857549,CO,23,114,34
India,Rajasthan,Tonk,"Shastri Nagar, Tonk - RSPCB",21-01-2024 18:00:00,26.159933,75.780517,CO,24,103,34
India,Rajasthan,Tonk,"Shastri Nagar, Tonk - RSPCB",21-01-2024 18:00:00,26.159933,75.780517,OZONE,1,94,59
India,Rajasthan,Udaipur,"Ashok Nagar, Udaipur - RSPCB",21-01-2024 18:00:00,24.5886166,73.6321397,PM10,63,158,109
India,Rajasthan,Udaipur,"Ashok Nagar, Udaipur - RSPCB",21-01-2024 18:00:00,24.5886166,73.6321397,NO2,37,128,70
India,Sikkim,Gangtok,"Zero Point GICI, Gangtok - SSPCB",21-01-2024 18:00:00,27.338530,88.614099,OZONE,19,62,39
India,TamilNadu,Chennai,"Alandur Bus Depot, Chennai - CPCB",21-01-2024 18:00:00,12.9099161,80.1076538,PM10,76,106,94
India,TamilNadu,Chennai,"Alandur Bus Depot, Chennai - CPCB",21-01-2024 18:00:00,12.9099161,80.1076538,NO2,15,79,40
India,TamilNadu,Chennai,"Alandur Bus Depot, Chennai - CPCB",21-01-2024 18:00:00,12.9099161,80.1076538,SO2,25,27,26
India,TamilNadu,Chennai,"Kodungaiyur, Chennai - TNPCB",21-01-2024 18:00:00,13.1278,80.2642,OZONE,5,6,6
India,TamilNadu,Chennai,"Manali, Chennai - CPCB",21-01-2024 18:00:00,13.164544,80.26285,CO,9,88,54
India,TamilNadu,Chennai,"Manali, Chennai - CPCB",21-01-2024 18:00:00,13.164544,80.26285,OZONE,8,15,13
India,TamilNadu,Chennai,"Perungudi, Chennai - TNPCB",21-01-2024 18:00:00,12.9533,80.2357,PM10,35,185,78
India,TamilNadu,Chennai,"Perungudi, Chennai - TNPCB",21-01-2024 18:00:00,12.9533,80.2357,CO,6,52,30
India,TamilNadu,Chennai,"Royapuram, Chennai - TNPCB",21-01-2024 18:00:00,13.1036,80.2909,NH3,1,1,1
India,TamilNadu,Chennai,"Royapuram, Chennai - TNPCB",21-01-2024 18:00:00,13.1036,80.2909,SO2,1,5,2
India,TamilNadu,Chennai,"Velachery Res. Area, Chennai - CPCB",21-01-2024 18:00:00,13.0052189,80.2398125,PM10,38,74,51
India,TamilNadu,Chennai,"Velachery Res. Area, Chennai - CPCB",21-01-2024 18:00:00,13.0052189,80.2398125,NO2,8,83,29
India,TamilNadu,Coimbatore,"PSG College of Arts and Science, Coimbatore - TNPCB",21-01-2024 18:00:00,11.0328,77.0349,SO2,15,21,18
India,TamilNadu,Cuddalore,"Semmandalam, Cuddalore - TNPCB",21-01-2024 18:00:00,11.7637683,79.7499835,OZONE,1,2,2
India,TamilNadu,Gummidipoondi,"Anthoni Pillai Nagar, Gummidipoondi - TNPCB",21-01-2024 18:00:00,13.4127,80.1081,SO2,1,72,26
India,TamilNadu,Palkalaiperur,"Bharathidasan University, Palkalaiperur - TNPCB",21-01-2024 18:00:00,10.681158,78.741746,PM10,27,45,38
India,TamilNadu,Ramanathapuram,"Chalai Bazaar, Ramanathapuram - TNPCB",21-01-2024 18:00:00,9.36399,78.831977,SO2,5,8,6
India,TamilNadu,Thoothukudi,"Meelavittan, Thoothukudi - TNPCB",21-01-2024 18:00:00,8.816428 ,78.099039,SO2,8,17,14
India,TamilNadu,Tirupur,"Kumaran College, Tirupur - TNPCB",21-01-2024 18:00:00,11.0973603,77.3228673,PM10,48,147,80
India,TamilNadu,Tirupur,"Kumaran College, Tirupur - TNPCB",21-01-2024 18:00:00,11.0973603,77.3228673,NO2,10,63,24
India,TamilNadu,Tirupur,"Kumaran College, Tirupur - TNPCB",21-01-2024 18:00:00,11.0973603,77.3228673,CO,24,105,32
India,TamilNadu,Virudhunagar,"Collectorate Office, Virudhunagar - TNPCB",21-01-2024 18:00:00,9.559382,77.948828,NO2,11,37,21
India,TamilNadu,Virudhunagar,"Collectorate Office, Virudhunagar - TNPCB",21-01-2024 18:00:00,9.559382,77.948828,NH3,2,2,2
India,TamilNadu,Virudhunagar,"Collectorate Office, Virudhunagar - TNPCB",21-01-2024 18:00:00,9.559382,77.948828,SO2,17,17,17
India,TamilNadu,Virudhunagar,"Collectorate Office, Virudhunagar - TNPCB",21-01-2024 18:00:00,9.559382,77.948828,CO,22,38,29
India,Telangana,Hyderabad,"Bollaram Industrial Area, Hyderabad - TSPCB",21-01-2024 18:00:00,17.540891,78.358528,PM2.5,54,83,65
India,Telangana,Hyderabad,"ECIL Kapra, Hyderabad - TSPCB",21-01-2024 18:00:00,17.470431,78.566959,PM10,68,83,74
India,Telangana,Hyderabad,"ECIL Kapra, Hyderabad - TSPCB",21-01-2024 18:00:00,17.470431,78.566959,OZONE,5,45,32
India,Telangana,Hyderabad,"ICRISAT Patancheru, Hyderabad - TSPCB",21-01-2024 18:00:00,17.518400,78.278777,CO,60,96,65
India,Telangana,Hyderabad,"IITH Kandi, Hyderabad - TSPCB",21-01-2024 18:00:00,17.585705,78.126199,PM2.5,7,26,15
India,Telangana,Hyderabad,"IITH Kandi, Hyderabad - TSPCB",21-01-2024 18:00:00,17.585705,78.126199,CO,2,70,32
India,Telangana,Hyderabad,"Kompally Municipal Office, Hyderabad - TSPCB",21-01-2024 18:00:00,17.544899,78.486949,NH3,NA,NA,NA
India,Telangana,Hyderabad,"Nacharam_TSIIC IALA, Hyderabad - TSPCB",21-01-2024 18:00:00,17.429398,78.569354,PM10,57,104,77
India,Telangana,Hyderabad,"Nacharam_TSIIC IALA, Hyderabad - TSPCB",21-01-2024 18:00:00,17.429398,78.569354,NO2,9,13,10
India,Telangana,Hyderabad,"Ramachandrapuram, Hyderabad - TSPCB",21-01-2024 18:00:00,17.528544,78.286195,PM2.5,38,40,39
India,Telangana,Hyderabad,"Ramachandrapuram, Hyderabad - TSPCB",21-01-2024 18:00:00,17.528544,78.286195,PM10,71,75,73
India,Telangana,Hyderabad,"Ramachandrapuram, Hyderabad - TSPCB",21-01-2024 18:00:00,17.528544,78.286195,NO2,12,12,12
India,Telangana,Hyderabad,"Sanathnagar, Hyderabad - TSPCB",21-01-2024 18:00:00,17.4559458,78.4332152,SO2,5,9,7
India,Telangana,Hyderabad,"Somajiguda, Hyderabad - TSPCB",21-01-2024 18:00:00,17.417094,78.457437,PM10,NA,NA,NA
India,Telangana,Hyderabad,"Somajiguda, Hyderabad - TSPCB",21-01-2024 18:00:00,17.417094,78.457437,NH3,NA,NA,NA
India,Telangana,Hyderabad,"Zoo Park, Hyderabad - TSPCB",21-01-2024 18:00:00,17.349694,78.451437,PM10,38,136,69
India,Telangana,Hyderabad,"Zoo Park, Hyderabad - TSPCB",21-01-2024 18:00:00,17.349694,78.451437,NO2,25,39,31
India,Telangana,Hyderabad,"Zoo Park, Hyderabad - TSPCB",21-01-2024 18:00:00,17.349694,78.451437,CO,28,72,34
India,Telangana,Hyderabad,"Zoo Park, Hyderabad - TSPCB",21-01-2024 18:00:00,17.349694,78.451437,OZONE,16,27,23
India,Tripura,Agartala,"Bardowali, Agartala - Tripura SPCB",21-01-2024 18:00:00,23.8175497,91.2726974,PM10,116,405,232
India,Tripura,Agartala,"Bardowali, Agartala - Tripura SPCB",21-01-2024 18:00:00,23.8175497,91.2726974,NH3,2,3,2
India,Tripura,Agartala,"Bardowali, Agartala - Tripura SPCB",21-01-2024 18:00:00,23.8175497,91.2726974,OZONE,1,7,3
India,Uttar_Pradesh,Agra,"Manoharpur, Agra - UPPCB",21-01-2024 18:00:00,27.23711,78.01936,PM2.5,33,117,65
India,Uttar_Pradesh,Agra,"Manoharpur, Agra - UPPCB",21-01-2024 18:00:00,27.23711,78.01936,NH3,NA,NA,NA
India,Uttar_Pradesh,Agra,"Manoharpur, Agra - UPPCB",21-01-2024 18:00:00,27.23711,78.01936,OZONE,3,11,6
India,Uttar_Pradesh,Agra,"Rohta, Agra - UPPCB",21-01-2024 18:00:00,27.106972,78.000111,CO,18,36,23
India,Uttar_Pradesh,Agra,"Rohta, Agra - UPPCB",21-01-2024 18:00:00,27.106972,78.000111,OZONE,19,20,19
India,Uttar_Pradesh,Agra,"Sanjay Palace, Agra - UPPCB",21-01-2024 18:00:00,27.19865833,78.00598056,PM10,74,152,125
India,Uttar_Pradesh,Agra,"Sector-3B Avas Vikas Colony, Agra - UPPCB",21-01-2024 18:00:00,27.19412,77.96237,PM10,51,160,109
India,Uttar_Pradesh,Agra,"Sector-3B Avas Vikas Colony, Agra - UPPCB",21-01-2024 18:00:00,27.19412,77.96237,SO2,14,16,15
India,Uttar_Pradesh,Agra,"Shahjahan Garden, Agra - UPPCB",21-01-2024 18:00:00,27.169338,78.03582,PM2.5,80,211,109
India,Uttar_Pradesh,Agra,"Shahjahan Garden, Agra - UPPCB",21-01-2024 18:00:00,27.169338,78.03582,NH3,6,8,7
India,Uttar_Pradesh,Agra,"Shahjahan Garden, Agra - UPPCB",21-01-2024 18:00:00,27.169338,78.03582,OZONE,NA,NA,NA
India,Uttar_Pradesh,Agra,"Shastripuram, Agra - UPPCB",21-01-2024 18:00:00,27.19862,77.92066,NO2,38,38,38
India,Uttar_Pradesh,Agra,"Shastripuram, Agra - UPPCB",21-01-2024 18:00:00,27.19862,77.92066,SO2,17,22,18
India,Uttar_Pradesh,Agra,"Shastripuram, Agra - UPPCB",21-01-2024 18:00:00,27.19862,77.92066,CO,6,16,8
India,Uttar_Pradesh,Bareilly,"Civil Lines, Bareilly - UPPCB",21-01-2024 18:00:00,28.359581,79.414455,PM10,26,116,56
India,Uttar_Pradesh,Bareilly,"Civil Lines, Bareilly - UPPCB",21-01-2024 18:00:00,28.359581,79.414455,NH3,1,2,1
India,Uttar_Pradesh,Bareilly,"Rajendra Nagar, Bareilly - UPPCB",21-01-2024 18:00:00,28.38910936,79.42963708,PM10,59,169,95
India,Uttar_Pradesh,Bareilly,"Rajendra Nagar, Bareilly - UPPCB",21-01-2024 18:00:00,28.38910936,79.42963708,NO2,31,84,48
India,Uttar_Pradesh,Bulandshahr,"Yamunapuram, Bulandshahr - UPPCB",21-01-2024 18:00:00,28.406963,77.849831,PM2.5,182,359,262
India,Uttar_Pradesh,Bulandshahr,"Yamunapuram, Bulandshahr - UPPCB",21-01-2024 18:00:00,28.406963,77.849831,PM10,122,351,196
India,Uttar_Pradesh,Firozabad,"Nagla Bhau, Firozabad - UPPCB",21-01-2024 18:00:00,27.168897,78.376960,SO2,12,19,16
India,Uttar_Pradesh,Firozabad,"Vibhab Nagar, Firozabad - UPPCB",21-01-2024 18:00:00,27.1594,78.3953,PM2.5,56,177,100
India,Uttar_Pradesh,Firozabad,"Vibhab Nagar, Firozabad - UPPCB",21-01-2024 18:00:00,27.1594,78.3953,NO2,14,14,14
India,Uttar_Pradesh,Firozabad,"Vibhab Nagar, Firozabad - UPPCB",21-01-2024 18:00:00,27.1594,78.3953,SO2,12,15,12
India,Uttar_Pradesh,Ghaziabad,"Indirapuram, Ghaziabad - UPPCB",21-01-2024 18:00:00,28.646233,77.358075,NH3,3,13,7
India,Uttar_Pradesh,Ghaziabad,"Loni, Ghaziabad - UPPCB",21-01-2024 18:00:00,28.757294,77.278792,OZONE,1,41,25
India,Uttar_Pradesh,Ghaziabad,"Sanjay Nagar, Ghaziabad - UPPCB",21-01-2024 18:00:00,28.685382,77.453839,PM10,127,442,250
India,Uttar_Pradesh,Ghaziabad,"Sanjay Nagar, Ghaziabad - UPPCB",21-01-2024 18:00:00,28.685382,77.453839,OZONE,1,72,33
India,Uttar_Pradesh,Gorakhpur,"Madan Mohan Malaviya University of Technology, Gorakhpur - UPPCB",21-01-2024 18:00:00,26.730136,83.433859,PM10,62,112,84
India,Uttar_Pradesh,Greater Noida,"Knowledge Park - III, Greater Noida - UPPCB",21-01-2024 18:00:00,28.47272,77.482000,PM2.5,247,348,306
India,Uttar_Pradesh,Greater Noida,"Knowledge Park - III, Greater Noida - UPPCB",21-01-2024 18:00:00,28.47272,77.482000,NH3,14,21,17
India,Uttar_Pradesh,Greater Noida,"Knowledge Park - V, Greater Noida - UPPCB",21-01-2024 18:00:00,28.557054,77.453663,PM2.5,310,400,347
India,Uttar_Pradesh,Greater Noida,"Knowledge Park - V, Greater Noida - UPPCB",21-01-2024 18:00:00,28.557054,77.453663,CO,NA,NA,NA
India,Uttar_Pradesh,Hapur,"Anand Vihar, Hapur - UPPCB",21-01-2024 18:00:00,28.725645,77.749675,NO2,11,102,43
India,Uttar_Pradesh,Hapur,"Anand Vihar, Hapur - UPPCB",21-01-2024 18:00:00,28.725645,77.749675,NH3,8,9,9
India,Uttar_Pradesh,Hapur,"Anand Vihar, Hapur - UPPCB",21-01-2024 18:00:00,28.725645,77.749675,SO2,21,79,45
India,Uttar_Pradesh,Jhansi,"Shivaji Nagar, Jhansi - UPPCB",21-01-2024 18:00:00,25.4547,78.6039,SO2,11,13,12
India,Uttar_Pradesh,Jhansi,"Shivaji Nagar, Jhansi - UPPCB",21-01-2024 18:00:00,25.4547,78.6039,OZONE,1,3,2
India,Uttar_Pradesh,Kanpur,"FTI Kidwai Nagar, Kanpur - UPPCB",21-01-2024 18:00:00,26.428282,80.327067,SO2,NA,NA,NA
India,Uttar_Pradesh,Kanpur,"NSI Kalyanpur, Kanpur - UPPCB",21-01-2024 18:00:00,26.509954,80.249612,SO2,23,24,23
India,Uttar_Pradesh,Kanpur,"NSI Kalyanpur, Kanpur - UPPCB",21-01-2024 18:00:00,26.509954,80.249612,CO,38,48,45
India,Uttar_Pradesh,Kanpur,"NSI Kalyanpur, Kanpur - UPPCB",21-01-2024 18:00:00,26.509954,80.249612,OZONE,12,18,16
India,Uttar_Pradesh,Kanpur,"Nehru Nagar, Kanpur - UPPCB",21-01-2024 18:00:00,26.4703136,80.3229863,PM2.5,102,317,181
India,Uttar_Pradesh,Khurja,"Kalindi Kunj, Khurja - UPPCB",21-01-2024 18:00:00,28.2348927,77.8683002,NO2,23,56,36
India,Uttar_Pradesh,Lucknow,"B R Ambedkar University, Lucknow - UPPCB",21-01-2024 18:00:00,26.766433,80.927299,OZONE,8,22,18
India,Uttar_Pradesh,Lucknow,"Gomti Nagar, Lucknow - UPPCB",21-01-2024 18:00:00,26.868120,81.005119,PM2.5,60,118,74
India,Uttar_Pradesh,Lucknow,"Kendriya Vidyalaya, Lucknow - CPCB",21-01-2024 18:00:00,26.906111,80.948222,NO2,6,18,12
India,Uttar_Pradesh,Lucknow,"Kukrail Picnic Spot-1, Lucknow - UPPCB",21-01-2024 18:00:00,26.90723,80.98579,PM2.5,77,224,113
India,Uttar_Pradesh,Lucknow,"Kukrail Picnic Spot-1, Lucknow - UPPCB",21-01-2024 18:00:00,26.90723,80.98579,PM10,102,141,117
India,Uttar_Pradesh,Lucknow,"Kukrail Picnic Spot-1, Lucknow - UPPCB",21-01-2024 18:00:00,26.90723,80.98579,NH3,2,2,2
India,Uttar_Pradesh,Lucknow,"Kukrail Picnic Spot-1, Lucknow - UPPCB",21-01-2024 18:00:00,26.90723,80.98579,OZONE,9,25,20
India,Uttar_Pradesh,Lucknow,"Lalbagh, Lucknow - CPCB",21-01-2024 18:00:00,26.8458805,80.9365541,PM2.5,246,333,301
India,Uttar_Pradesh,Lucknow,"Talkatora District Industries Center, Lucknow - CPCB",21-01-2024 18:00:00,26.83399722,80.8917361,CO,22,47,29
India,Uttar_Pradesh,Lucknow,"Talkatora District Industries Center, Lucknow - CPCB",21-01-2024 18:00:00,26.83399722,80.8917361,OZONE,2,80,48
India,Uttar_Pradesh,Meerut,"Ganga Nagar, Meerut - UPPCB",21-01-2024 18:00:00,28.999264,77.7590354,CO,6,125,14
India,Uttar_Pradesh,Meerut,"Jai Bhim Nagar, Meerut - UPPCB",21-01-2024 18:00:00,28.9535882,77.7622941,OZONE,18,74,28
India,Uttar_Pradesh,Meerut,"Pallavpuram Phase 2, Meerut - UPPCB",21-01-2024 18:00:00,29.063510,77.709723,PM2.5,106,352,244
India,Uttar_Pradesh,Meerut,"Pallavpuram Phase 2, Meerut - UPPCB",21-01-2024 18:00:00,29.063510,77.709723,NO2,35,128,61
India,Uttar_Pradesh,Meerut,"Pallavpuram Phase 2, Meerut - UPPCB",21-01-2024 18:00:00,29.063510,77.709723,CO,62,104,67
India,Uttar_Pradesh,Moradabad,"Buddhi Vihar, Moradabad - UPPCB",21-01-2024 18:00:00,28.83526,78.74460,PM2.5,67,267,126
India,Uttar_Pradesh,Moradabad,"Eco Herbal Park, Moradabad - UPPCB",21-01-2024 18:00:00,28.840739,78.697531,PM2.5,97,281,186
India,Uttar_Pradesh,Moradabad,"Eco Herbal Park, Moradabad - UPPCB",21-01-2024 18:00:00,28.840739,78.697531,SO2,6,21,11
India,Uttar_Pradesh,Moradabad,"Employment Office, Moradabad - UPPCB",21-01-2024 18:00:00,28.88528,78.73880,CO,47,82,52
India,Uttar_Pradesh,Moradabad,"Jigar Colony, Moradabad - UPPCB",21-01-2024 18:00:00,28.856664,78.772638,NH3,5,5,5
India,Uttar_Pradesh,Moradabad,"Transport Nagar, Moradabad - UPPCB",21-01-2024 18:00:00,28.802625,78.753728,PM10,64,185,105
India,Uttar_Pradesh,Noida,"Sector - 125, Noida - UPPCB",21-01-2024 18:00:00,28.5447608,77.3231257,SO2,7,23,16
India,Uttar_Pradesh,Noida,"Sector-1, Noida - UPPCB",21-01-2024 18:00:00,28.5898,77.3101,PM2.5,144,323,276
India,Uttar_Pradesh,Noida,"Sector-116, Noida - UPPCB",21-01-2024 18:00:00,28.569230,77.393848,NO2,38,66,54
India,Uttar_Pradesh,Noida,"Sector-116, Noida - UPPCB",21-01-2024 18:00:00,28.569230,77.393848,NH3,6,14,9
India,Uttar_Pradesh,Prayagraj,"Motilal Nehru NIT, Prayagraj - UPPCB",21-01-2024 18:00:00,25.494,81.863,PM10,61,113,90
India,Uttar_Pradesh,Prayagraj,"Motilal Nehru NIT, Prayagraj - UPPCB",21-01-2024 18:00:00,25.494,81.863,NH3,6,7,7
India,Uttar_Pradesh,Prayagraj,"Nagar Nigam, Prayagraj - UPPCB",21-01-2024 18:00:00,25.44919916 ,81.82735986 ,OZONE,5,23,8
India,Uttar_Pradesh,Varanasi,"Ardhali Bazar, Varanasi - UPPCB",21-01-2024 18:00:00,25.3505986,82.9083074,PM2.5,29,72,43
India,Uttar_Pradesh,Varanasi,"Ardhali Bazar, Varanasi - UPPCB",21-01-2024 18:00:00,25.3505986,82.9083074,NO2,17,33,22
India,Uttar_Pradesh,Varanasi,"Ardhali Bazar, Varanasi - UPPCB",21-01-2024 18:00:00,25.3505986,82.9083074,SO2,11,21,15
India,Uttar_Pradesh,Varanasi,"Ardhali Bazar, Varanasi - UPPCB",21-01-2024 18:00:00,25.3505986,82.9083074,OZONE,18,24,20
India,Uttar_Pradesh,Varanasi,"Bhelupur, Varanasi - UPPCB",21-01-2024 18:00:00,25.301778,82.996789,PM2.5,16,38,27
India,Uttar_Pradesh,Varanasi,"IESD Banaras Hindu University, Varanasi - UPPCB",21-01-2024 18:00:00,25.262326,82.995408,NO2,2,3,3
India,Uttar_Pradesh,Varanasi,"IESD Banaras Hindu University, Varanasi - UPPCB",21-01-2024 18:00:00,25.262326,82.995408,NH3,NA,NA,NA
India,Uttar_Pradesh,Varanasi,"IESD Banaras Hindu University, Varanasi - UPPCB",21-01-2024 18:00:00,25.262326,82.995408,CO,24,30,25
India,Uttar_Pradesh,Varanasi,"Maldahiya, Varanasi - UPPCB",21-01-2024 18:00:00,25.32393,82.99687,NO2,2,21,7
India,Uttar_Pradesh,Vrindavan,"Omex Eternity, Vrindavan - UPPCB",21-01-2024 18:00:00,27.5714090,77.6557570,PM10,30,118,64
India,Uttarakhand,Dehradun,"Doon University, Dehradun - UKPCB",21-01-2024 18:00:00,30.269444,78.044167,PM10,100,167,128
India,Uttarakhand,Dehradun,"Doon University, Dehradun - UKPCB",21-01-2024 18:00:00,30.269444,78.044167,SO2,1,1,1
India,Uttarakhand,Kashipur,"Govt. Girls Inter College, Kashipur - UKPCB",21-01-2024 18:00:00,29.2124114,78.9611753,NO2,23,94,52
India,Uttarakhand,Rishikesh,"Shivaji Nagar, Rishikesh - UKPCB",21-01-2024 18:00:00,30.075911,78.2859547,PM2.5,47,220,85
India,Uttarakhand,Rishikesh,"Shivaji Nagar, Rishikesh - UKPCB",21-01-2024 18:00:00,30.075911,78.2859547,PM10,42,146,77
India,West_Bengal,Asansol,"Asansol Court Area, Asansol - WBPCB",21-01-2024 18:00:00,23.685297,86.945968,NH3,5,11,7
India,West_Bengal,Asansol,"Asansol Court Area, Asansol - WBPCB",21-01-2024 18:00:00,23.685297,86.945968,SO2,8,30,14
India,West_Bengal,Asansol,"Asansol Court Area, Asansol - WBPCB",21-01-2024 18:00:00,23.685297,86.945968,OZONE,6,83,65
India,West_Bengal,Barrackpore,"SVSPA Campus, Barrackpore - WBPCB",21-01-2024 18:00:00,22.7605581,88.3617589,NO2,23,60,36
India,West_Bengal,Barrackpore,"SVSPA Campus, Barrackpore - WBPCB",21-01-2024 18:00:00,22.7605581,88.3617589,OZONE,8,55,36
India,West_Bengal,Durgapur,"Sidhu Kanhu Indoor Stadium, Durgapur - WBPCB",21-01-2024 18:00:00,23.5404352,87.2892225,NH3,3,6,4
India,West_Bengal,Haldia,"Priyambada Housing Estate, Haldia - WBPCB",21-01-2024 18:00:00,22.06047,88.109737,SO2,6,25,13
India,West_Bengal,Haldia,"Priyambada Housing Estate, Haldia - WBPCB",21-01-2024 18:00:00,22.06047,88.109737,CO,54,82,60
India,West_Bengal,Howrah,"Belur Math, Howrah - WBPCB",21-01-2024 18:00:00,22.629801,88.352017,NH3,4,5,4
India,West_Bengal,Howrah,"Ghusuri, Howrah - WBPCB",21-01-2024 18:00:00,22.611968,88.347422,PM10,169,435,250
India,West_Bengal,Howrah,"Padmapukur, Howrah - WBPCB",21-01-2024 18:00:00,22.5687319,88.2797276,NH3,12,49,25
India,West_Bengal,Howrah,"Padmapukur, Howrah - WBPCB",21-01-2024 18:00:00,22.5687319,88.2797276,CO,4,96,45
India,West_Bengal,Kolkata,"Ballygunge, Kolkata - WBPCB",21-01-2024 18:00:00,22.5367507,88.3638022,NO2,54,170,108
India,West_Bengal,Kolkata,"Ballygunge, Kolkata - WBPCB",21-01-2024 18:00:00,22.5367507,88.3638022,CO,28,106,34
India,West_Bengal,Kolkata,"Bidhannagar, Kolkata - WBPCB",21-01-2024 18:00:00,22.58157048,88.41002457,PM10,165,208,185
India,West_Bengal,Kolkata,"Bidhannagar, Kolkata - WBPCB",21-01-2024 18:00:00,22.58157048,88.41002457,CO,71,102,73
India,West_Bengal,Kolkata,"Fort William, Kolkata - WBPCB",21-01-2024 18:00:00,22.556640,88.342674,NO2,50,151,95
India,West_Bengal,Kolkata,"Fort William, Kolkata - WBPCB",21-01-2024 18:00:00,22.556640,88.342674,SO2,8,43,18
India,West_Bengal,Kolkata,"Rabindra Bharati University, Kolkata - WBPCB",21-01-2024 18:00:00,22.627847,88.380669,NH3,7,8,8
India,West_Bengal,Kolkata,"Rabindra Sarobar, Kolkata - WBPCB",21-01-2024 18:00:00,22.51106,88.35142,SO2,10,32,19
India,West_Bengal,Kolkata,"Victoria, Kolkata - WBPCB",21-01-2024 18:00:00,22.5448082,88.3403691,OZONE,4,70,56
India,West_Bengal,Siliguri,"Ward-32 Bapupara, Siliguri - WBPCB",21-01-2024 18:00:00,26.6879226,88.4152495,NH3,10,11,10
India,West_Bengal,Siliguri,"Ward-32 Bapupara, Siliguri - WBPCB",21-01-2024 18:00:00,26.6879226,88.4152495,SO2,12,13,12
India,Andhra_Pradesh,Anantapur,"Gulzarpet, Anantapur - APPCB",21-01-2024 18:00:00,14.675886,77.593027,NH3,2,3,3
India,Andhra_Pradesh,Anantapur,"Gulzarpet, Anantapur - APPCB",21-01-2024 18:00:00,14.675886,77.593027,CO,22,48,29
India,Andhra_Pradesh,Rajamahendravaram,"Anand Kala Kshetram, Rajamahendravaram - APPCB",21-01-2024 18:00:00,16.9872867,81.7363176,PM2.5,60,102,73
India,Andhra_Pradesh,Rajamahendravaram,"Anand Kala Kshetram, Rajamahendravaram - APPCB",21-01-2024 18:00:00,16.9872867,81.7363176,PM10,62,89,75
India,Andhra_Pradesh,Rajamahendravaram,"Anand Kala Kshetram, Rajamahendravaram - APPCB",21-01-2024 18:00:00,16.9872867,81.7363176,SO2,16,25,20
India,Andhra_Pradesh,Tirupati,"Vaikuntapuram, Tirupati - APPCB",21-01-2024 18:00:00,13.615387,79.409230,NO2,14,28,19
India,Andhra_Pradesh,Tirupati,"Vaikuntapuram, Tirupati - APPCB",21-01-2024 18:00:00,13.615387,79.409230,SO2,4,5,5
India,Andhra_Pradesh,Visakhapatnam,"GVM Corporation, Visakhapatnam - APPCB",21-01-2024 18:00:00,17.72,83.3,PM2.5,55,260,142
India,Andhra_Pradesh,Visakhapatnam,"GVM Corporation, Visakhapatnam - APPCB",21-01-2024 18:00:00,17.72,83.3,NH3,2,5,4
India,Andhra_Pradesh,Visakhapatnam,"GVM Corporation, Visakhapatnam - APPCB",21-01-2024 18:00:00,17.72,83.3,SO2,10,17,13
India,Assam,Byrnihat,"Central Academy for SFS, Byrnihat - PCBA",21-01-2024 18:00:00,26.071318,91.87488,PM10,104,404,246
India,Assam,Guwahati,"IITG, Guwahati - PCBA",21-01-2024 18:00:00,26.2028636,91.70046436,PM10,NA,NA,NA
India,Assam,Guwahati,"IITG, Guwahati - PCBA",21-01-2024 18:00:00,26.2028636,91.70046436,NH3,NA,NA,NA
India,Assam,Guwahati,"Pan Bazaar, Guwahati - PCBA",21-01-2024 18:00:00,26.187500,91.744194,SO2,54,101,69
India,Assam,Guwahati,"Railway Colony, Guwahati - PCBA",21-01-2024 18:00:00,26.181742,91.78063,PM2.5,203,400,292
India,Assam,Nagaon,"Christianpatty, Nagaon - PCBA",21-01-2024 18:00:00,26.349082,92.68449,PM10,105,447,206
India,Assam,Nagaon,"Christianpatty, Nagaon - PCBA",21-01-2024 18:00:00,26.349082,92.68449,SO2,9,12,11
India,Assam,Nagaon,"Christianpatty, Nagaon - PCBA",21-01-2024 18:00:00,26.349082,92.68449,CO,12,16,13
India,Assam,Nalbari,"Bata Chowk, Nalbari - PCBA",21-01-2024 18:00:00,26.446912,91.439057,OZONE,8,99,71
India,Assam,Silchar,"Tarapur, Silchar - PCBA",21-01-2024 18:00:00,24.82827,92.79525,PM2.5,32,38,35
India,Assam,Sivasagar,"Girls College, Sivasagar - PCBA",21-01-2024 18:00:00,26.987634,94.636574,SO2,1,6,5
India,Bihar,Araria,"Kharahiya Basti, Araria - BSPCB",21-01-2024 18:00:00,26.146529,87.454184,NH3,6,8,6
India,Bihar,Aurangabad,"Gurdeo Nagar, Aurangabad - BSPCB",21-01-2024 18:00:00,24.75746,84.366208,NH3,5,8,6
India,Bihar,Aurangabad,"Gurdeo Nagar, Aurangabad - BSPCB",21-01-2024 18:00:00,24.75746,84.366208,SO2,10,15,14
India,Bihar,Aurangabad,"Gurdeo Nagar, Aurangabad - BSPCB",21-01-2024 18:00:00,24.75746,84.366208,CO,60,104,98
India,Bihar,Aurangabad,"Gurdeo Nagar, Aurangabad - BSPCB",21-01-2024 18:00:00,24.75746,84.366208,OZONE,4,77,46
India,Bihar,Bhagalpur,"DM Office_Kachari Chowk, Bhagalpur - BSPCB",21-01-2024 18:00:00,25.251013,86.989001,SO2,14,32,24
India,Bihar,Bhagalpur,"Mayaganj, Bhagalpur - BSPCB",21-01-2024 18:00:00,25.265194,87.012947,NO2,5,39,11
India,Bihar,Bihar Sharif,"D M Colony, Bihar Sharif - BSPCB",21-01-2024 18:00:00,25.204762,85.514960,PM2.5,33,60,44
India,Bihar,Bihar Sharif,"D M Colony, Bihar Sharif - BSPCB",21-01-2024 18:00:00,25.204762,85.514960,NH3,2,2,2
India,Bihar,Bihar Sharif,"D M Colony, Bihar Sharif - BSPCB",21-01-2024 18:00:00,25.204762,85.514960,CO,4,56,27
India,Bihar,Bihar Sharif,"D M Colony, Bihar Sharif - BSPCB",21-01-2024 18:00:00,25.204762,85.514960,OZONE,7,17,14
India,Bihar,Chhapra,"Darshan Nagar, Chhapra - BSPCB",21-01-2024 18:00:00,25.7808257,84.7446768,NH3,10,15,12
India,Bihar,Gaya,"Collectorate, Gaya - BSPCB",21-01-2024 18:00:00,24.7955,84.9994,NO2,16,21,19
India,Bihar,Gaya,"Collectorate, Gaya - BSPCB",21-01-2024 18:00:00,24.7955,84.9994,CO,22,39,35
India,Bihar,Gaya,"Kareemganj, Gaya - BSPCB",21-01-2024 18:00:00,24.792403,84.992416,NH3,1,5,3
India,Bihar,Gaya,"Kareemganj, Gaya - BSPCB",21-01-2024 18:00:00,24.792403,84.992416,CO,6,103,53
India,Bihar,Gaya,"SFTI Kusdihra, Gaya - BSPCB",21-01-2024 18:00:00,24.762518,84.982348,NO2,17,59,37
India,Bihar,Hajipur,"Industrial Area, Hajipur - BSPCB",21-01-2024 18:00:00,25.697189,85.245900,CO,42,46,44
India,Bihar,Kishanganj,"SDM Office_Khagra, Kishanganj - BSPCB",21-01-2024 18:00:00,26.0881305,87.93840336,PM2.5,7,223,46
India,Bihar,Kishanganj,"SDM Office_Khagra, Kishanganj - BSPCB",21-01-2024 18:00:00,26.0881305,87.93840336,PM10,151,416,216
India,Bihar,Manguraha,"Forest Rest House, Manguraha - BSPCB",21-01-2024 18:00:00,27.308328,84.531742,CO,2,16,10
India,Bihar,Munger,"Town Hall, Munger - BSPCB",21-01-2024 18:00:00,25.376776,86.471523,PM2.5,97,193,138
India,Bihar,Munger,"Town Hall, Munger - BSPCB",21-01-2024 18:00:00,25.376776,86.471523,OZONE,10,14,12
India,Bihar,Muzaffarpur,"Buddha Colony, Muzaffarpur - BSPCB",21-01-2024 18:00:00,26.11442,85.39813,NH3,15,21,18
India,Bihar,Muzaffarpur,"MIT-Daudpur Kothi, Muzaffarpur - BSPCB",21-01-2024 18:00:00,26.1403345,85.3650192,NH3,3,4,4
India,Bihar,Muzaffarpur,"Muzaffarpur Collectorate, Muzaffarpur - BSPCB",21-01-2024 18:00:00,26.1209,85.3647,CO,17,68,42
India,Bihar,Patna,"Govt. High School Shikarpur, Patna - BSPCB",21-01-2024 18:00:00,25.592539,85.227158,PM2.5,23,246,157
India,Bihar,Patna,"Govt. High School Shikarpur, Patna - BSPCB",21-01-2024 18:00:00,25.592539,85.227158,CO,2,107,82
India,Bihar,Patna,"Samanpura, Patna - BSPCB",21-01-2024 18:00:00,25.596727,85.085624,PM10,212,500,341
India,Bihar,Purnia,"Mariam Nagar, Purnia - BSPCB",21-01-2024 18:00:00,25.366336,87.117468,NH3,1,1,1
India,Bihar,Rajgir,"Dangi Tola, Rajgir - BSPCB",21-01-2024 18:00:00,25.03280,85.41948,NO2,14,39,20
India,Bihar,Samastipur,"DM Office_Kasipur, Samastipur - BSPCB",21-01-2024 18:00:00,25.859655,85.77944,SO2,7,13,11
India,Bihar,Samastipur,"DM Office_Kasipur, Samastipur - BSPCB",21-01-2024 18:00:00,25.859655,85.77944,CO,14,28,26
India,Bihar,Siwan,"Chitragupta Nagar, Siwan - BSPCB",21-01-2024 18:00:00,26.2271665,84.3570427,CO,101,189,189
India,Chandigarh,Chandigarh,"Sector 22, Chandigarh - CPCC",21-01-2024 18:00:00,30.735567,76.775714,OZONE,2,18,14
India,Chandigarh,Chandigarh,"Sector-53, Chandigarh - CPCC",21-01-2024 18:00:00,30.719859,76.738637,PM2.5,NA,NA,NA
India,Chandigarh,Chandigarh,"Sector-53, Chandigarh - CPCC",21-01-2024 18:00:00,30.719859,76.738637,PM10,NA,NA,NA
India,Chhattisgarh,Bhilai,"32Bungalows, Bhilai - CECB",21-01-2024 18:00:00,21.194815,81.314770,PM2.5,77,129,105
India,Chhattisgarh,Bhilai,"32Bungalows, Bhilai - CECB",21-01-2024 18:00:00,21.194815,81.314770,PM10,81,119,103
India,Chhattisgarh,Bhilai,"Civic Center, Bhilai - Bhilai Steel Plant",21-01-2024 18:00:00,21.185571,81.343175,PM10,NA,NA,NA
India,Chhattisgarh,Bhilai,"Civic Center, Bhilai - Bhilai Steel Plant",21-01-2024 18:00:00,21.185571,81.343175,NH3,NA,NA,NA
India,Chhattisgarh,Bhilai,"Hathkhoj, Bhilai - CECB",21-01-2024 18:00:00,21.224231,81.408350,PM2.5,79,179,123
India,Chhattisgarh,Bhilai,"Hathkhoj, Bhilai - CECB",21-01-2024 18:00:00,21.224231,81.408350,SO2,20,108,52
India,Chhattisgarh,Bilaspur,"Mangala, Bilaspur - NTPC",21-01-2024 18:00:00,22.08815,82.13737,SO2,NA,NA,NA
India,Chhattisgarh,Chhal,"Nawapara SECL Colony, Chhal - CECB",21-01-2024 18:00:00,22.118125,83.140608,NO2,9,52,16
India,Chhattisgarh,Korba,"Rampur, Korba - CECB",21-01-2024 18:00:00,22.368195,82.746431,SO2,9,83,18
India,Chhattisgarh,Korba,"Urja Nagar, Korba - CECB",21-01-2024 18:00:00,22.348441,82.549611,SO2,4,21,8
India,Chhattisgarh,Korba,"Urja Nagar, Korba - CECB",21-01-2024 18:00:00,22.348441,82.549611,CO,18,49,24
India,Chhattisgarh,Kunjemura,"OP Jindal School, Kunjemura - CECB",21-01-2024 18:00:00,22.126650,83.483212,CO,30,55,35
India,Chhattisgarh,Milupara,"Govt. Higher Secondary School, Milupara - CECB",21-01-2024 18:00:00,22.1910172,83.5197009,NO2,11,77,20
India,Chhattisgarh,Raipur,"Bhatagaon New ISBT, Raipur - CECB",21-01-2024 18:00:00,21.219665,81.630094,PM2.5,55,76,67
India,Chhattisgarh,Raipur,"Bhatagaon New ISBT, Raipur - CECB",21-01-2024 18:00:00,21.219665,81.630094,OZONE,3,3,3
India,Chhattisgarh,Raipur,"Krishak Nagar, Raipur - CECB",21-01-2024 18:00:00,21.237755,81.705301,SO2,8,12,10
India,Chhattisgarh,Raipur,"Siltara Phase-II, Raipur - CECB",21-01-2024 18:00:00,21.371751,81.664929,CO,27,57,33
India,Delhi,Delhi,"Alipur, Delhi - DPCC",21-01-2024 18:00:00,28.815329,77.153010,PM10,102,436,214
India,Delhi,Delhi,"Alipur, Delhi - DPCC",21-01-2024 18:00:00,28.815329,77.153010,CO,50,123,59
India,Delhi,Delhi,"Anand Vihar, Delhi - DPCC",21-01-2024 18:00:00,28.647622,77.3158090,PM2.5,314,451,389
India,Delhi,Delhi,"Anand Vihar, Delhi - DPCC",21-01-2024 18:00:00,28.647622,77.3158090,NO2,87,171,113
India,Delhi,Delhi,"Anand Vihar, Delhi - DPCC",21-01-2024 18:00:00,28.647622,77.3158090,SO2,NA,NA,NA
India,Delhi,Delhi,"Anand Vihar, Delhi - DPCC",21-01-2024 18:00:00,28.647622,77.3158090,CO,53,121,63
India,Delhi,Delhi,"Aya Nagar, Delhi - IMD",21-01-2024 18:00:00,28.4706914,77.1099364,PM2.5,103,370,258
India,Delhi,Delhi,"Aya Nagar, Delhi - IMD",21-01-2024 18:00:00,28.4706914,77.1099364,PM10,118,415,219
India,Delhi,Delhi,"Aya Nagar, Delhi - IMD",21-01-2024 18:00:00,28.4706914,77.1099364,CO,82,119,90
India,Delhi,Delhi,"Aya Nagar, Delhi - IMD",21-01-2024 18:00:00,28.4706914,77.1099364,OZONE,6,27,16
India,Delhi,Delhi,"Bawana, Delhi - DPCC",21-01-2024 18:00:00,28.776200,77.051074,SO2,4,8,5
India,Delhi,Delhi,"Burari Crossing, Delhi - IMD",21-01-2024 18:00:00,28.7256504,77.2011573,NO2,8,16,12
India,Delhi,Delhi,"Burari Crossing, Delhi - IMD",21-01-2024 18:00:00,28.7256504,77.2011573,OZONE,23,94,35
India,Delhi,Delhi,"CRRI Mathura Road, Delhi - IMD",21-01-2024 18:00:00,28.5512005,77.2735737,PM10,147,357,232
India,Delhi,Delhi,"DTU, Delhi - CPCB",21-01-2024 18:00:00,28.7500499,77.1112615,SO2,26,28,27
India,Delhi,Delhi,"Dr. Karni Singh Shooting Range, Delhi - DPCC",21-01-2024 18:00:00,28.498571,77.264840,PM2.5,308,392,346
India,Delhi,Delhi,"Dr. Karni Singh Shooting Range, Delhi - DPCC",21-01-2024 18:00:00,28.498571,77.264840,CO,64,117,82
India,Delhi,Delhi,"Dwarka-Sector 8, Delhi - DPCC ",21-01-2024 18:00:00,28.5710274,77.0719006,PM2.5,306,388,340
India,Delhi,Delhi,"Dwarka-Sector 8, Delhi - DPCC ",21-01-2024 18:00:00,28.5710274,77.0719006,OZONE,4,31,18
India,Delhi,Delhi,"IGI Airport (T3), Delhi - IMD",21-01-2024 18:00:00,28.5627763,77.1180053,PM10,130,397,210
India,Delhi,Delhi,"IHBAS, Dilshad Garden, Delhi - CPCB",21-01-2024 18:00:00,28.6811736,77.3025234,PM2.5,149,331,263
India,Delhi,Delhi,"IHBAS, Dilshad Garden, Delhi - CPCB",21-01-2024 18:00:00,28.6811736,77.3025234,CO,50,107,99
India,Delhi,Delhi,"ITO, Delhi - CPCB",21-01-2024 18:00:00,28.628624,77.241060,CO,51,130,76
India,Delhi,Delhi,"Jawaharlal Nehru Stadium, Delhi - DPCC",21-01-2024 18:00:00,28.580280,77.233829,PM10,171,449,257
India,Delhi,Delhi,"Major Dhyan Chand National Stadium, Delhi - DPCC",21-01-2024 18:00:00,28.611281,77.237738,PM2.5,317,414,365
India,Delhi,Delhi,"Mandir Marg, Delhi - DPCC",21-01-2024 18:00:00,28.636429,77.201067,PM2.5,311,391,354
India,Delhi,Delhi,"Mandir Marg, Delhi - DPCC",21-01-2024 18:00:00,28.636429,77.201067,PM10,163,324,231
India,Delhi,Delhi,"Mandir Marg, Delhi - DPCC",21-01-2024 18:00:00,28.636429,77.201067,SO2,6,9,8
India,Delhi,Delhi,"Mandir Marg, Delhi - DPCC",21-01-2024 18:00:00,28.636429,77.201067,OZONE,1,9,5
India,Delhi,Delhi,"Mundka, Delhi - DPCC",21-01-2024 18:00:00,28.684678,77.076574,NH3,6,22,10
India,Delhi,Delhi,"Mundka, Delhi - DPCC",21-01-2024 18:00:00,28.684678,77.076574,OZONE,2,11,6
India,Delhi,Delhi,"Najafgarh, Delhi - DPCC",21-01-2024 18:00:00,28.570173,76.933762,NH3,5,6,6
India,Delhi,Delhi,"Narela, Delhi - DPCC",21-01-2024 18:00:00,28.822836,77.101981,SO2,5,12,6
India,Delhi,Delhi,"Narela, Delhi - DPCC",21-01-2024 18:00:00,28.822836,77.101981,OZONE,4,62,41
India,Delhi,Delhi,"New Moti Bagh, Delhi - MHUA",21-01-2024 18:00:00,28.57834,77.18400,PM2.5,278,427,351
India,Delhi,Delhi,"New Moti Bagh, Delhi - MHUA",21-01-2024 18:00:00,28.57834,77.18400,CO,57,117,65
India,Delhi,Delhi,"North Campus, DU, Delhi - IMD",21-01-2024 18:00:00,28.6573814,77.1585447,OZONE,26,45,31
India,Delhi,Delhi,"Patparganj, Delhi - DPCC",21-01-2024 18:00:00,28.623763,77.287209,PM2.5,331,422,376
India,Delhi,Delhi,"Pusa, Delhi - IMD",21-01-2024 18:00:00,28.636110,77.173332,OZONE,12,20,16
India,Delhi,Delhi,"R K Puram, Delhi - DPCC",21-01-2024 18:00:00,28.563262,77.186937,CO,70,144,86
India,Delhi,Delhi,"R K Puram, Delhi - DPCC",21-01-2024 18:00:00,28.563262,77.186937,OZONE,9,69,37
India,Delhi,Delhi,"Sonia Vihar, Delhi - DPCC",21-01-2024 18:00:00,28.710508,77.249485,PM2.5,NA,NA,NA
India,Delhi,Delhi,"Sonia Vihar, Delhi - DPCC",21-01-2024 18:00:00,28.710508,77.249485,NH3,NA,NA,NA
India,Delhi,Delhi,"Vivek Vihar, Delhi - DPCC",21-01-2024 18:00:00,28.672342,77.315260,PM2.5,310,444,373
India,Delhi,Delhi,"Vivek Vihar, Delhi - DPCC",21-01-2024 18:00:00,28.672342,77.315260,NH3,5,9,7
India,Delhi,Delhi,"Wazirpur, Delhi - DPCC",21-01-2024 18:00:00,28.699793,77.165453,SO2,11,38,24
India,Delhi,Delhi,"Wazirpur, Delhi - DPCC",21-01-2024 18:00:00,28.699793,77.165453,OZONE,3,38,22
India,Gujarat,Ahmedabad,"Maninagar, Ahmedabad - GPCB",21-01-2024 18:00:00,23.002657,72.591912,PM10,72,140,100
India,Gujarat,Ahmedabad,"Rakhial, Ahmedabad - IITM",21-01-2024 18:00:00,23.016834,72.625775,NH3,2,5,5
India,Gujarat,Ahmedabad,"SAC ISRO Bopal, Ahmedabad - IITM",21-01-2024 18:00:00,23.041137,72.456691,NO2,10,11,10
India,Gujarat,Ahmedabad,"SAC ISRO Bopal, Ahmedabad - IITM",21-01-2024 18:00:00,23.041137,72.456691,SO2,7,10,8
India,Gujarat,Ahmedabad,"SAC ISRO Bopal, Ahmedabad - IITM",21-01-2024 18:00:00,23.041137,72.456691,OZONE,12,15,15
India,Gujarat,Ahmedabad,"SAC ISRO Satellite, Ahmedabad - IITM",21-01-2024 18:00:00,23.023389,72.515201,SO2,5,25,10
India,Gujarat,Ahmedabad,"SVPI Airport Hansol, Ahmedabad - IITM",21-01-2024 18:00:00,23.076793,72.627874,NH3,3,4,3
India,Gujarat,Gandhinagar,"GIFT City, Gandhinagar - IITM",21-01-2024 18:00:00,23.163798,72.677768,CO,4,12,7
India,Gujarat,Gandhinagar,"IIPHG Lekawada, Gandhinagar - IITM",21-01-2024 18:00:00,23.243639,72.68994,PM10,61,136,98
India,Gujarat,Gandhinagar,"IIPHG Lekawada, Gandhinagar - IITM",21-01-2024 18:00:00,23.243639,72.68994,NO2,13,15,14
India,Gujarat,Gandhinagar,"IIPHG Lekawada, Gandhinagar - IITM",21-01-2024 18:00:00,23.243639,72.68994,OZONE,16,25,18
India,Gujarat,Surat,"Science Center, Surat - SMC",21-01-2024 18:00:00,21.170046,72.795405,CO,41,64,48
India,Gujarat,Vapi,"Phase-1 GIDC, Vapi - GPCB",21-01-2024 18:00:00,20.362421,72.918013,OZONE,1,3,2
India,Gujarat,Vatva,"Phase-4 GIDC, Vatva - GPCB",21-01-2024 18:00:00,22.969611,72.643500,CO,38,40,40
India,Haryana,Ambala,"Patti Mehar, Ambala - HSPCB",21-01-2024 18:00:00,30.379589,76.778328,PM2.5,1,222,124
India,Haryana,Ambala,"Patti Mehar, Ambala - HSPCB",21-01-2024 18:00:00,30.379589,76.778328,NH3,5,12,8
India,Haryana,Ambala,"Patti Mehar, Ambala - HSPCB",21-01-2024 18:00:00,30.379589,76.778328,OZONE,22,40,30
India,Haryana,Bahadurgarh,"Arya Nagar, Bahadurgarh - HSPCB",21-01-2024 18:00:00,28.6701,76.9254,PM10,87,230,134
India,Haryana,Ballabgarh,"Nathu Colony, Ballabgarh - HSPCB",21-01-2024 18:00:00,28.3419248,77.319699,NH3,1,2,2
India,Haryana,Bhiwani,"H.B. Colony, Bhiwani - HSPCB",21-01-2024 18:00:00,28.806223,76.141105,PM10,70,192,119
India,Haryana,Dharuhera,"Municipal Corporation Office, Dharuhera -  HSPCB",21-01-2024 18:00:00,28.206800,76.799700,PM10,87,334,177
India,Haryana,Faridabad,"New Industrial Town, Faridabad - HSPCB",21-01-2024 18:00:00,28.39072,77.30059,OZONE,36,80,57
India,Haryana,Faridabad,"Sector 30, Faridabad - HSPCB",21-01-2024 18:00:00,28.4417,77.3217,PM2.5,162,193,173
India,Haryana,Faridabad,"Sector- 16A, Faridabad - HSPCB",21-01-2024 18:00:00,28.4088421,77.3099081,PM2.5,204,441,345
India,Haryana,Gurugram,"NISE Gwal Pahari, Gurugram - IMD",21-01-2024 18:00:00,28.422681,77.148944,OZONE,15,23,20
India,Haryana,Gurugram,"Teri Gram, Gurugram - HSPCB",21-01-2024 18:00:00,28.4275,77.1465,NH3,38,51,45
India,Haryana,Hisar,"Urban Estate-II, Hisar - HSPCB",21-01-2024 18:00:00,29.140560,75.744941,PM2.5,64,317,165
India,Haryana,Hisar,"Urban Estate-II, Hisar - HSPCB",21-01-2024 18:00:00,29.140560,75.744941,OZONE,70,113,98
India,Haryana,Kaithal,"Rishi Nagar, Kaithal - HSPCB",21-01-2024 18:00:00,29.8006,76.4155,PM2.5,85,320,178
India,Haryana,Kaithal,"Rishi Nagar, Kaithal - HSPCB",21-01-2024 18:00:00,29.8006,76.4155,PM10,113,290,181
India,Haryana,Karnal,"Sector-12, Karnal - HSPCB",21-01-2024 18:00:00,29.695300,77.002700,PM2.5,35,172,100
India,Haryana,Karnal,"Sector-12, Karnal - HSPCB",21-01-2024 18:00:00,29.695300,77.002700,NO2,7,12,10
India,Haryana,Karnal,"Sector-12, Karnal - HSPCB",21-01-2024 18:00:00,29.695300,77.002700,SO2,12,13,13
India,Haryana,Karnal,"Sector-12, Karnal - HSPCB",21-01-2024 18:00:00,29.695300,77.002700,CO,26,71,39
India,Haryana,Karnal,"Sector-12, Karnal - HSPCB",21-01-2024 18:00:00,29.695300,77.002700,OZONE,18,32,29
India,Haryana,Mandikhera,"General Hospital, Mandikhera - HSPCB",21-01-2024 18:00:00,27.9002,76.9938,NO2,17,21,19
India,Haryana,Mandikhera,"General Hospital, Mandikhera - HSPCB",21-01-2024 18:00:00,27.9002,76.9938,NH3,18,20,19
India,Haryana,Mandikhera,"General Hospital, Mandikhera - HSPCB",21-01-2024 18:00:00,27.9002,76.9938,OZONE,22,32,27
India,Haryana,Manesar,"Sector-2 IMT, Manesar - HSPCB",21-01-2024 18:00:00,28.360699,76.936090,PM10,NA,NA,NA
India,Haryana,Palwal,"Shyam Nagar, Palwal - HSPCB",21-01-2024 18:00:00,28.1485564,77.3320667,CO,10,191,76
India,Haryana,Panchkula,"Sector-6, Panchkula - HSPCB ",21-01-2024 18:00:00,30.7057778,76.8531805555555,SO2,11,12,12
India,Haryana,Panipat,"Sector-18, Panipat - HSPCB",21-01-2024 18:00:00,29.497973,76.993331,PM2.5,NA,NA,NA
India,Haryana,Panipat,"Sector-18, Panipat - HSPCB",21-01-2024 18:00:00,29.497973,76.993331,PM10,NA,NA,NA
India,Haryana,Rohtak,"MD University, Rohtak - HSPCB",21-01-2024 18:00:00,28.52123,76.37138,NO2,46,54,51
India,Haryana,Rohtak,"MD University, Rohtak - HSPCB",21-01-2024 18:00:00,28.52123,76.37138,OZONE,96,103,100
India,Haryana,Sirsa,"F-Block, Sirsa - HSPCB",21-01-2024 18:00:00,29.536400,75.015800,SO2,12,24,20
India,Haryana,Sirsa,"F-Block, Sirsa - HSPCB",21-01-2024 18:00:00,29.536400,75.015800,CO,56,75,57
India,Haryana,Sonipat,"Murthal, Sonipat - HSPCB",21-01-2024 18:00:00,29.027200,77.062100,NH3,7,10,9
India,Haryana,Sonipat,"Murthal, Sonipat - HSPCB",21-01-2024 18:00:00,29.027200,77.062100,SO2,12,29,20
India,Haryana,Sonipat,"Murthal, Sonipat - HSPCB",21-01-2024 18:00:00,29.027200,77.062100,CO,30,39,34
India,Haryana,Yamuna Nagar,"Gobind Pura, Yamuna Nagar - HSPCB",21-01-2024 18:00:00,30.1480566,77.2893471,SO2,1,40,8
India,Jharkhand,Dhanbad,"Kalakusuma, Dhanbad - DMC",21-01-2024 18:00:00,23.811548,86.481238,PM10,162,395,373
India,Jharkhand,Dhanbad,"Kalakusuma, Dhanbad - DMC",21-01-2024 18:00:00,23.811548,86.481238,SO2,110,113,112
India,Jharkhand,Dhanbad,"Sardar Patel Nagar, Dhanbad - JSPCB",21-01-2024 18:00:00,23.80569,86.44268,PM10,NA,NA,NA
India,Jharkhand,Pathardih,"Mohalbani Ghat, Pathardih - DMC",21-01-2024 18:00:00,23.669880,86.411725,CO,92,136,92
India,Karnataka,Bagalkot,"Vidayagiri, Bagalkot - KSPCB",21-01-2024 18:00:00,16.172806,75.659694,CO,22,64,43
India,Karnataka,Belgaum,"Ramteerth Nagar, Belgaum - KSPCB",21-01-2024 18:00:00,15.888653,74.541751,PM10,21,83,51
India,Karnataka,Belgaum,"Ramteerth Nagar, Belgaum - KSPCB",21-01-2024 18:00:00,15.888653,74.541751,NH3,33,34,33
India,Karnataka,Bengaluru,"BTM Layout, Bengaluru - CPCB",21-01-2024 18:00:00,12.9135218,77.5950804,PM10,58,80,67
India,Karnataka,Bengaluru,"BTM Layout, Bengaluru - CPCB",21-01-2024 18:00:00,12.9135218,77.5950804,NH3,4,4,4
India,Karnataka,Bengaluru,"Bapuji Nagar, Bengaluru - KSPCB",21-01-2024 18:00:00,12.951913,77.539784,PM2.5,71,101,85
India,Karnataka,Bengaluru,"Bapuji Nagar, Bengaluru - KSPCB",21-01-2024 18:00:00,12.951913,77.539784,NH3,1,1,1
India,Karnataka,Bengaluru,"City Railway Station, Bengaluru - KSPCB",21-01-2024 18:00:00,12.9756843,77.5660749,NO2,25,36,28
India,Karnataka,Bengaluru,"Hombegowda Nagar, Bengaluru - KSPCB",21-01-2024 18:00:00,12.938539,77.590100,CO,10,20,18
India,Karnataka,Bengaluru,"Jayanagar 5th Block, Bengaluru - KSPCB",21-01-2024 18:00:00,12.920984,77.584908,SO2,19,30,23
India,Karnataka,Bengaluru,"Jigani, Bengaluru - KSPCB",21-01-2024 18:00:00,12.7816279,77.6299145,SO2,6,6,6
India,Karnataka,Bengaluru,"Jigani, Bengaluru - KSPCB",21-01-2024 18:00:00,12.7816279,77.6299145,CO,50,76,55
India,Karnataka,Bengaluru,"Peenya, Bengaluru - CPCB",21-01-2024 18:00:00,13.0270199,77.494094,NO2,20,31,25
India,Karnataka,Bengaluru,"Peenya, Bengaluru - CPCB",21-01-2024 18:00:00,13.0270199,77.494094,CO,20,132,105
India,Karnataka,Bengaluru,"RVCE-Mailasandra, Bengaluru - KSPCB",21-01-2024 18:00:00,12.921418,77.502466,SO2,4,5,4
India,Karnataka,Bengaluru,"Shivapura_Peenya, Bengaluru - KSPCB",21-01-2024 18:00:00,13.0246342,77.5080115,SO2,4,25,9
India,Karnataka,Bidar,"Naubad, Bidar - KSPCB",21-01-2024 18:00:00,17.930306,77.482194,PM10,78,113,96
India,Karnataka,Bidar,"Naubad, Bidar - KSPCB",21-01-2024 18:00:00,17.930306,77.482194,NO2,7,8,8
India,Karnataka,Bidar,"Naubad, Bidar - KSPCB",21-01-2024 18:00:00,17.930306,77.482194,CO,47,77,54
India,Karnataka,Bidar,"Naubad, Bidar - KSPCB",21-01-2024 18:00:00,17.930306,77.482194,OZONE,14,41,36
India,Karnataka,Chamarajanagar,"Urban, Chamarajanagar - KSPCB",21-01-2024 18:00:00,11.55358,76.55521,PM10,44,56,47
India,Karnataka,Chamarajanagar,"Urban, Chamarajanagar - KSPCB",21-01-2024 18:00:00,11.55358,76.55521,OZONE,25,36,31
